passes_logs/2026/01/04/R4.6S_Anadyr/R4.6S_Anadyr__20260104_024725_SUOMI_NPP_rec.log

#Pass ID: 20260104_024725_SUOMI NPP
#Satellite: SUOMI NPP
#Configuration: NPP
#almurnet v.1.7.20251203
#Start time: 2026-01-04 02:47:27

#Version: 2.2.20231116
#Station: R4.6S_Anadyr
#Location: 177.4865 lon 64.73178 lat
#TLE: 1 37849U 11061A   26001.07732418  .00000182  00000+0  10735-3 0  9990
#TLE: 2 37849  98.7795 303.2470 0002580  87.2016 272.9455 14.19520779734739

#Time	Az	El	Level	Level2	SNR	BER	BlckErr	Temp	State	Recorded	gain1	gain2
2026-01-04 02:47:27.59	222.43	0.11	-51.2	-62.8	3.4	8.46e-01	0	37	0	0	60	49841
2026-01-04 02:47:31.63	222.75	0.30	-50.6	-65.9	3.6	1.51e+00	0	38	104	0	60	71204
2026-01-04 02:47:35.67	223.07	0.50	-50.3	-65.7	3.6	1.51e+00	0	38	104	0	60	69420
2026-01-04 02:47:39.71	223.39	0.69	-50.3	-65.5	3.6	1.51e+00	0	38	104	0	60	68306
2026-01-04 02:47:43.75	223.72	0.89	-47.9	-63.1	3.6	1.51e+00	0	38	104	0	60	51734
2026-01-04 02:47:47.79	224.05	1.09	-47.8	-63.0	3.6	1.51e+00	0	38	104	0	60	50953
2026-01-04 02:47:51.83	224.38	1.28	-47.9	-63.0	3.6	1.51e+00	0	38	104	0	60	51061
2026-01-04 02:47:55.86	224.72	1.48	-47.8	-63.0	3.6	1.51e+00	0	38	104	0	60	50821
2026-01-04 02:47:59.90	225.06	1.68	-47.7	-62.8	3.6	1.51e+00	0	38	104	0	60	49856
2026-01-04 02:48:03.94	225.41	1.88	-47.7	-62.9	3.6	1.51e+00	0	38	104	0	60	50358
2026-01-04 02:48:07.98	225.77	2.08	-47.9	-63.0	3.6	1.51e+00	0	38	104	0	60	50992
2026-01-04 02:48:12.02	226.12	2.28	-47.8	-62.9	3.6	1.51e+00	0	38	104	0	60	50591
2026-01-04 02:48:16.06	226.49	2.48	-47.6	-62.4	3.6	1.51e+00	0	38	104	0	60	47820
2026-01-04 02:48:20.10	226.85	2.69	-47.6	-60.4	3.6	1.51e+00	0	38	104	0	60	37935
2026-01-04 02:48:24.14	227.22	2.89	-47.2	-54.8	6.1	3.34e-01	91	38	0	4194304	60	19858
2026-01-04 02:48:28.18	227.60	3.09	-47.4	-55.3	5.8	3.38e-01	26	38	0	12582912	60	21133
2026-01-04 02:48:32.22	227.98	3.29	-47.4	-55.5	6.5	1.34e+00	0	39	104	14680064	60	21583
2026-01-04 02:48:36.26	228.37	3.50	-47.1	-53.6	7.7	7.70e-02	90	38	0	20971520	60	17381
2026-01-04 02:48:40.30	228.76	3.70	-47.3	-53.9	7.4	8.27e-02	92	38	0	28311552	60	18011
2026-01-04 02:48:44.33	229.16	3.91	-47.3	-54.2	7.1	1.44e-01	0	39	0	35651584	60	18558
2026-01-04 02:48:48.37	229.56	4.11	-47.3	-53.9	7.7	1.00e-01	39	38	0	44040192	60	17840
2026-01-04 02:48:52.41	229.97	4.32	-47.3	-53.9	7.5	1.24e-01	70	39	0	51380224	60	17858
2026-01-04 02:48:56.45	230.38	4.52	-47.4	-54.3	7.1	1.33e-01	92	39	0	58720256	60	18806
2026-01-04 02:49:00.48	230.80	4.73	-47.6	-54.9	6.6	1.99e-01	0	39	0	66060288	60	20148
2026-01-04 02:49:04.52	231.22	4.93	-47.8	-55.3	6.4	2.24e-01	90	39	0	74448896	60	20956
2026-01-04 02:49:08.56	231.66	5.14	-48.0	-55.7	6.0	2.60e-01	90	39	0	81788928	60	22111
2026-01-04 02:49:12.60	232.09	5.35	-48.0	-55.2	6.6	2.10e-01	92	39	0	89128960	60	20806
2026-01-04 02:49:16.64	232.53	5.56	-48.0	-55.1	6.7	1.87e-01	0	39	0	96468992	60	20608
2026-01-04 02:49:20.67	232.98	5.76	-48.0	-54.7	7.4	1.23e-01	91	39	0	103809024	60	19727
2026-01-04 02:49:24.71	233.44	5.97	-48.1	-54.6	7.6	7.48e-02	92	39	0	112197632	60	19485
2026-01-04 02:49:28.74	233.90	6.18	-48.1	-54.3	8.2	6.42e-02	0	39	0	119537664	60	18853
2026-01-04 02:49:32.78	234.36	6.39	-48.0	-54.3	8.1	5.43e-02	0	39	0	126877696	60	18841
2026-01-04 02:49:36.81	234.84	6.59	-47.9	-53.9	8.5	3.36e-02	72	39	0	134217728	60	17979
2026-01-04 02:49:40.85	235.32	6.80	-47.9	-53.7	8.9	2.93e-02	92	39	0	142606336	60	17464
2026-01-04 02:49:44.89	235.80	7.01	-47.9	-53.2	9.8	1.34e-02	0	39	0	149946368	60	16444
2026-01-04 02:49:48.93	236.30	7.22	-47.8	-52.8	10.5	7.59e-03	37	39	0	157286400	60	15769
2026-01-04 02:49:52.96	236.80	7.43	-47.4	-51.9	11.3	1.54e-03	91	39	0	164626432	60	14242
2026-01-04 02:49:56.99	237.30	7.63	-47.3	-51.7	11.6	9.35e-04	92	39	0	171966464	60	13824
2026-01-04 02:50:01.02	237.82	7.84	-46.4	-49.8	13.6	1.52e-05	0	39	0	180355072	60	11205
2026-01-04 02:50:05.06	238.34	8.05	-45.9	-48.9	14.5	7.00e-07	91	39	0	187695104	60	10058
2026-01-04 02:50:09.09	238.87	8.26	-46.2	-49.1	14.8	0.00e+00	92	39	0	195035136	60	10348
2026-01-04 02:50:13.13	239.40	8.46	-45.7	-48.3	15.5	0.00e+00	0	39	0	202375168	60	9369
2026-01-04 02:50:17.16	239.94	8.67	-46.7	-49.1	16.1	0.00e+00	0	39	0	210763776	60	10337
2026-01-04 02:50:21.20	240.50	8.87	-44.9	-47.0	16.9	0.00e+00	92	39	0	218103808	60	8130
2026-01-04 02:50:25.24	241.05	9.08	-44.5	-46.4	17.6	0.00e+00	90	39	0	225443840	60	7572
2026-01-04 02:50:29.27	241.62	9.28	-43.8	-45.6	18.1	0.00e+00	0	39	0	232783872	60	6905
2026-01-04 02:50:33.31	242.19	9.49	-43.3	-45.0	18.7	0.00e+00	56	39	0	240123904	60	6424
2026-01-04 02:50:37.35	242.77	9.69	-42.4	-43.8	19.8	0.00e+00	80	39	0	248512512	58	6247
2026-01-04 02:50:41.39	243.36	9.89	-41.8	-43.1	20.7	0.00e+00	92	39	0	255852544	58	5765
2026-01-04 02:50:45.42	243.96	10.09	-41.2	-42.4	21.2	0.00e+00	0	39	0	263192576	56	6003
2026-01-04 02:50:49.46	244.56	10.29	-40.3	-41.3	22.1	0.00e+00	92	39	0	270532608	54	5942
2026-01-04 02:50:53.50	245.18	10.49	-40.2	-41.2	22.2	0.00e+00	92	39	0	277872640	54	5896
2026-01-04 02:50:57.54	245.80	10.69	-40.4	-41.4	22.2	0.00e+00	90	39	0	286261248	54	5992
2026-01-04 02:51:01.58	246.43	10.88	-40.7	-41.7	22.6	0.00e+00	0	39	0	293601280	54	6200
2026-01-04 02:51:05.63	247.06	11.08	-41.5	-42.5	22.7	0.00e+00	92	39	0	300941312	56	6082
2026-01-04 02:51:09.66	247.71	11.27	-40.2	-41.1	22.8	0.00e+00	92	39	0	308281344	54	5813
2026-01-04 02:51:13.70	248.36	11.46	-41.1	-42.1	22.6	0.00e+00	0	39	0	316669952	54	6489
2026-01-04 02:51:17.74	249.02	11.65	-40.6	-41.5	22.7	0.00e+00	0	39	0	324009984	54	6075
2026-01-04 02:51:21.77	249.69	11.83	-40.4	-41.4	22.7	0.00e+00	92	39	0	331350016	54	5969
2026-01-04 02:51:25.81	250.37	12.02	-40.4	-41.4	22.7	0.00e+00	92	39	0	338690048	54	5981
2026-01-04 02:51:29.85	251.06	12.20	-41.4	-42.4	22.3	0.00e+00	0	39	0	346030080	54	6740
2026-01-04 02:51:33.89	251.75	12.38	-40.6	-41.6	22.3	0.00e+00	43	39	0	354418688	54	6168
2026-01-04 02:51:37.93	252.45	12.56	-40.6	-41.6	22.4	0.00e+00	91	39	0	361758720	54	6109
2026-01-04 02:51:41.97	253.16	12.73	-41.3	-42.3	21.8	0.00e+00	92	39	0	369098752	54	6690
2026-01-04 02:51:46.00	253.88	12.90	-40.8	-41.9	21.9	0.00e+00	0	39	0	376438784	56	5643
2026-01-04 02:51:50.04	254.61	13.07	-40.9	-41.9	22.2	0.00e+00	92	39	0	384827392	54	6356
2026-01-04 02:51:54.07	255.34	13.24	-41.0	-42.1	22.0	0.00e+00	92	39	0	392167424	54	6476
2026-01-04 02:51:58.10	256.08	13.40	-41.3	-42.4	21.4	0.00e+00	0	39	0	399507456	54	6723
2026-01-04 02:52:02.15	256.84	13.56	-41.0	-42.1	21.4	0.00e+00	0	39	0	406847488	54	6511
2026-01-04 02:52:06.19	257.60	13.72	-41.2	-42.3	21.5	0.00e+00	92	39	0	414187520	54	6646
2026-01-04 02:52:10.22	258.36	13.87	-42.0	-43.2	21.0	0.00e+00	91	39	0	422576128	56	6562
2026-01-04 02:52:14.25	259.13	14.02	-42.3	-43.5	20.8	0.00e+00	0	39	0	429916160	58	6079
2026-01-04 02:52:18.28	259.91	14.16	-42.7	-44.0	20.4	0.00e+00	44	39	0	437256192	58	6422
2026-01-04 02:52:22.32	260.70	14.30	-42.2	-43.3	21.2	0.00e+00	80	39	0	444596224	58	5940
2026-01-04 02:52:26.36	261.50	14.44	-41.7	-42.8	21.1	0.00e+00	92	39	0	452984832	56	6314
2026-01-04 02:52:30.40	262.30	14.57	-43.0	-44.2	20.6	0.00e+00	0	39	0	460324864	58	6582
2026-01-04 02:52:34.43	263.11	14.69	-41.8	-42.9	21.5	0.00e+00	45	39	0	467664896	56	6360
2026-01-04 02:52:38.47	263.92	14.82	-41.1	-42.1	22.2	0.00e+00	92	39	0	475004928	56	5822
2026-01-04 02:52:42.51	264.74	14.93	-40.4	-41.4	22.7	0.00e+00	0	39	0	482344960	52	6725
2026-01-04 02:52:46.54	265.57	15.05	-40.1	-41.1	22.8	0.00e+00	0	39	0	490733568	52	6493
2026-01-04 02:52:50.58	266.40	15.15	-40.0	-41.0	22.6	0.00e+00	92	39	0	498073600	52	6424
2026-01-04 02:52:54.62	267.24	15.26	-40.8	-41.9	22.2	0.00e+00	92	39	0	505413632	54	6319
2026-01-04 02:52:58.66	268.09	15.35	-40.8	-41.8	22.1	0.00e+00	0	39	0	512753664	54	6273
2026-01-04 02:53:02.70	268.94	15.44	-40.8	-41.8	22.2	0.00e+00	0	39	0	520093696	54	6303
2026-01-04 02:53:06.74	269.80	15.53	-40.2	-41.2	22.7	0.00e+00	92	39	0	528482304	54	5844
2026-01-04 02:53:10.78	270.66	15.61	-40.8	-41.9	21.9	0.00e+00	92	39	0	535822336	54	6358
2026-01-04 02:53:14.81	271.52	15.68	-41.0	-42.0	22.0	0.00e+00	0	39	0	543162368	54	6432
2026-01-04 02:53:18.85	272.39	15.75	-41.9	-43.0	21.2	0.00e+00	90	39	0	550502400	58	5747
2026-01-04 02:53:22.89	273.26	15.81	-40.2	-41.2	22.8	0.00e+00	90	39	0	558891008	54	5865
2026-01-04 02:53:26.92	274.13	15.87	-40.7	-41.7	22.1	0.00e+00	92	39	0	566231040	54	6232
2026-01-04 02:53:30.96	275.01	15.92	-39.8	-40.8	22.8	0.00e+00	0	39	0	573571072	52	6267
2026-01-04 02:53:35.00	275.89	15.96	-40.1	-41.0	22.6	0.00e+00	92	39	0	580911104	52	6455
2026-01-04 02:53:39.04	276.77	16.00	-40.4	-41.4	22.5	0.00e+00	92	39	0	588251136	54	5985
2026-01-04 02:53:43.07	277.66	16.03	-41.3	-42.4	21.7	0.00e+00	0	39	0	596639744	54	6723
2026-01-04 02:53:47.11	278.54	16.06	-41.0	-42.1	21.9	0.00e+00	0	39	0	603979776	56	5781
2026-01-04 02:53:51.15	279.43	16.07	-41.6	-42.8	21.2	0.00e+00	71	39	0	611319808	56	6255
2026-01-04 02:53:55.19	280.32	16.09	-41.5	-42.6	21.6	0.00e+00	92	39	0	618659840	56	6117
2026-01-04 02:53:59.23	281.21	16.09	-42.1	-43.3	20.9	0.00e+00	7	39	0	627048448	56	6681
2026-01-04 02:54:03.26	282.09	16.09	-41.1	-42.1	21.9	0.00e+00	42	39	0	634388480	56	5795
2026-01-04 02:54:07.30	282.98	16.08	-40.9	-42.0	22.0	0.00e+00	90	39	0	641728512	54	6401
2026-01-04 02:54:11.34	283.87	16.07	-40.1	-41.1	22.5	0.00e+00	50	39	0	649068544	54	5784
2026-01-04 02:54:15.37	284.75	16.05	-40.3	-41.3	22.1	0.00e+00	0	39	0	656408576	54	5910
2026-01-04 02:54:19.41	285.64	16.02	-39.7	-40.7	22.8	0.00e+00	92	39	0	664797184	52	6196
2026-01-04 02:54:23.44	286.52	15.99	-40.6	-41.7	22.0	0.00e+00	91	39	0	672137216	54	6209
2026-01-04 02:54:27.47	287.40	15.95	-40.0	-41.0	22.6	0.00e+00	0	39	0	679477248	54	5724
2026-01-04 02:54:31.51	288.28	15.90	-40.2	-41.2	22.8	0.00e+00	0	39	0	686817280	54	5876
2026-01-04 02:54:35.55	289.15	15.85	-40.9	-42.0	21.9	0.00e+00	66	39	0	694157312	54	6421
2026-01-04 02:54:39.58	290.02	15.79	-40.5	-41.5	22.4	0.00e+00	90	39	0	702545920	54	6046
2026-01-04 02:54:43.61	290.89	15.72	-40.1	-41.1	22.5	0.00e+00	0	39	0	709885952	52	6499
2026-01-04 02:54:47.65	291.76	15.65	-40.6	-41.7	22.0	0.00e+00	0	39	0	717225984	54	6198
2026-01-04 02:54:51.68	292.61	15.58	-40.5	-41.5	22.0	0.00e+00	74	39	0	724566016	54	6067
2026-01-04 02:54:55.72	293.47	15.50	-40.0	-40.9	22.5	0.00e+00	92	39	0	732954624	54	5694
2026-01-04 02:54:59.75	294.32	15.41	-39.1	-40.0	23.4	0.00e+00	0	39	0	740294656	52	5736
2026-01-04 02:55:03.79	295.17	15.32	-39.6	-40.5	23.5	0.00e+00	10	39	0	747634688	52	6056
2026-01-04 02:55:07.83	296.01	15.22	-39.1	-40.0	23.4	0.00e+00	92	39	0	754974720	52	5725
2026-01-04 02:55:11.87	296.84	15.11	-39.3	-40.2	23.2	0.00e+00	0	39	0	762314752	52	5852
2026-01-04 02:55:15.91	297.67	15.00	-39.7	-40.6	23.0	0.00e+00	0	39	0	770703360	52	6166
2026-01-04 02:55:19.94	298.49	14.89	-39.7	-40.7	22.9	0.00e+00	85	39	0	778043392	52	6185
2026-01-04 02:55:23.98	299.31	14.77	-39.4	-40.3	23.1	0.00e+00	92	39	0	785383424	52	5917
2026-01-04 02:55:28.02	300.12	14.65	-39.4	-40.2	23.6	0.00e+00	0	39	0	792723456	52	5894
2026-01-04 02:55:32.06	300.93	14.52	-38.6	-39.4	23.9	0.00e+00	0	39	0	801112064	50	6019
2026-01-04 02:55:36.09	301.72	14.39	-39.7	-40.6	23.3	0.00e+00	25	39	0	808452096	50	6909
2026-01-04 02:55:40.13	302.51	14.25	-39.6	-40.5	22.9	0.00e+00	45	39	0	815792128	50	6820
2026-01-04 02:55:44.16	303.29	14.11	-40.0	-40.9	22.9	0.00e+00	0	39	0	823132160	52	6372
2026-01-04 02:55:48.20	304.07	13.96	-39.9	-40.9	23.1	0.00e+00	37	39	0	830472192	52	6322
2026-01-04 02:55:52.23	304.84	13.82	-39.3	-40.3	23.2	0.00e+00	92	39	0	838860800	52	5907
2026-01-04 02:55:56.27	305.60	13.66	-39.9	-40.9	22.8	0.00e+00	0	39	0	846200832	52	6373
2026-01-04 02:56:00.31	306.35	13.51	-39.9	-40.8	22.8	0.00e+00	0	39	0	853540864	52	6288
2026-01-04 02:56:04.34	307.09	13.35	-40.0	-41.0	22.6	0.00e+00	42	39	0	860880896	54	5699
2026-01-04 02:56:08.38	307.83	13.18	-40.4	-41.5	22.1	0.00e+00	92	39	0	868220928	52	6792
2026-01-04 02:56:12.42	308.56	13.02	-41.0	-42.1	21.7	0.00e+00	0	39	0	876609536	54	6489
2026-01-04 02:56:16.46	309.28	12.85	-42.2	-43.3	21.2	0.00e+00	0	39	0	883949568	58	5954
2026-01-04 02:56:20.49	309.99	12.68	-42.2	-43.4	21.1	0.00e+00	36	39	0	891289600	58	6003
2026-01-04 02:56:24.53	310.70	12.50	-42.4	-43.6	20.8	0.00e+00	64	39	0	898629632	58	6160
2026-01-04 02:56:28.57	311.39	12.33	-40.9	-41.9	21.9	0.00e+00	0	39	0	907018240	56	5683
2026-01-04 02:56:32.61	312.08	12.15	-41.7	-42.8	21.7	0.00e+00	0	39	0	914358272	56	6263
2026-01-04 02:56:36.65	312.76	11.96	-42.0	-43.2	20.9	0.00e+00	92	39	0	921698304	56	6572
2026-01-04 02:56:40.69	313.43	11.78	-42.4	-43.7	20.2	0.00e+00	0	39	0	929038336	56	6966
2026-01-04 02:56:44.72	314.10	11.59	-41.7	-42.9	21.0	0.00e+00	0	39	0	936378368	56	6372
2026-01-04 02:56:48.76	314.75	11.41	-40.7	-41.8	21.8	0.00e+00	34	39	0	944766976	56	5579
2026-01-04 02:56:52.80	315.40	11.22	-41.4	-42.6	21.1	0.00e+00	61	39	0	952107008	54	6879
2026-01-04 02:56:56.83	316.04	11.03	-41.7	-42.9	21.3	0.00e+00	0	39	0	959447040	56	6322
2026-01-04 02:57:00.87	316.67	10.83	-41.4	-42.5	21.2	0.00e+00	0	39	0	966787072	56	6071
2026-01-04 02:57:04.91	317.29	10.64	-42.5	-43.7	20.7	0.00e+00	92	39	0	975175680	56	6987
2026-01-04 02:57:08.95	317.91	10.44	-41.9	-43.2	20.6	0.00e+00	0	39	0	982515712	56	6578
2026-01-04 02:57:12.98	318.51	10.25	-41.6	-42.8	20.9	0.00e+00	0	39	0	989855744	56	6279
2026-01-04 02:57:17.02	319.11	10.05	-41.0	-42.1	21.6	0.00e+00	0	39	0	997195776	56	5789
2026-01-04 02:57:21.06	319.71	9.85	-40.5	-41.5	21.9	0.00e+00	37	39	0	1004535808	54	6098
2026-01-04 02:57:25.10	320.29	9.65	-40.8	-41.9	21.9	0.00e+00	0	39	0	1012924416	54	6343
2026-01-04 02:57:29.14	320.87	9.45	-41.1	-42.2	21.5	0.00e+00	0	39	0	1020264448	54	6588
2026-01-04 02:57:33.18	321.43	9.25	-40.7	-41.8	21.9	0.00e+00	18	39	0	1027604480	54	6246
2026-01-04 02:57:37.22	322.00	9.04	-40.6	-41.7	21.8	0.00e+00	65	39	0	1034944512	54	6232
2026-01-04 02:57:41.26	322.55	8.84	-40.5	-41.6	21.7	0.00e+00	0	39	0	1043333120	54	6142
2026-01-04 02:57:45.29	323.09	8.64	-41.6	-42.8	21.5	0.00e+00	0	39	0	1050673152	58	5574
2026-01-04 02:57:49.33	323.63	8.43	-41.5	-42.6	21.8	0.00e+00	39	39	0	1058013184	56	6126
2026-01-04 02:57:53.36	324.16	8.23	-40.7	-41.8	21.9	0.00e+00	0	39	0	1065353216	54	6289
2026-01-04 02:57:57.40	324.69	8.02	-41.3	-42.4	21.5	0.00e+00	0	39	0	1072693248	56	6012
2026-01-04 02:58:01.44	325.21	7.82	-41.3	-42.5	21.5	0.00e+00	0	39	0	1081081856	56	6062
2026-01-04 02:58:05.48	325.72	7.61	-42.4	-43.6	21.1	0.00e+00	67	39	0	1088421888	56	6856
2026-01-04 02:58:09.52	326.22	7.40	-42.2	-43.4	21.1	0.00e+00	0	39	0	1095761920	56	6710
2026-01-04 02:58:13.56	326.72	7.20	-42.0	-43.2	21.1	0.00e+00	0	39	0	1103101952	56	6587
2026-01-04 02:58:17.59	327.21	6.99	-41.6	-42.7	21.5	0.00e+00	0	39	0	1111490560	56	6221
2026-01-04 02:58:21.62	327.69	6.79	-42.5	-43.7	21.1	0.00e+00	92	39	0	1118830592	58	6203
2026-01-04 02:58:25.67	328.17	6.58	-42.6	-43.8	20.9	0.00e+00	0	39	0	1126170624	58	6266
2026-01-04 02:58:29.70	328.64	6.37	-42.1	-43.4	20.8	0.00e+00	0	39	0	1133510656	58	5993
2026-01-04 02:58:33.74	329.10	6.17	-41.6	-42.8	20.7	0.00e+00	39	39	0	1140850688	56	6304
2026-01-04 02:58:37.77	329.56	5.96	-42.5	-43.8	20.0	0.00e+00	0	39	0	1149239296	58	6307
2026-01-04 02:58:41.80	330.01	5.76	-42.7	-44.1	19.6	0.00e+00	0	39	0	1156579328	58	6530
2026-01-04 02:58:45.84	330.45	5.55	-42.9	-44.4	19.5	0.00e+00	0	39	0	1163919360	58	6704
2026-01-04 02:58:49.88	330.89	5.35	-44.0	-45.7	19.0	0.00e+00	92	39	0	1171259392	60	6947
2026-01-04 02:58:53.92	331.33	5.14	-42.9	-44.5	19.0	0.00e+00	0	39	0	1179648000	60	6102
2026-01-04 02:58:57.96	331.76	4.94	-44.2	-46.0	18.3	0.00e+00	0	39	0	1186988032	60	7172
2026-01-04 02:59:02.00	332.18	4.73	-44.3	-46.3	17.3	0.00e+00	0	40	0	1194328064	60	7440
2026-01-04 02:59:06.04	332.60	4.53	-45.0	-48.3	13.6	1.50e-06	81	39	0	1201668096	60	9431
2026-01-04 02:59:10.08	333.01	4.32	-46.3	-53.5	6.7	6.96e-02	0	40	0	1209008128	60	17187
2026-01-04 02:59:14.12	333.41	4.12	-46.4	-59.2	3.7	1.48e+00	0	39	104	1214251008	60	33040
2026-01-04 02:59:18.16	333.81	3.92	-45.8	-60.5	3.6	1.51e+00	0	40	104	1214251008	60	38398
2026-01-04 02:59:22.20	334.21	3.72	-45.4	-60.5	3.6	1.51e+00	0	40	104	1214251008	60	38487
2026-01-04 02:59:26.23	334.60	3.51	-45.6	-60.7	3.6	1.51e+00	0	40	104	1214251008	60	39250
2026-01-04 02:59:30.27	334.98	3.31	-45.3	-60.4	3.6	1.51e+00	0	39	104	1214251008	60	38019
2026-01-04 02:59:34.31	335.36	3.11	-45.8	-60.9	3.6	1.51e+00	0	40	104	1214251008	60	40184
2026-01-04 02:59:38.34	335.74	2.91	-50.1	-65.3	3.6	1.51e+00	0	40	104	1214251008	60	66245
2026-01-04 02:59:42.38	336.11	2.71	-50.5	-65.6	3.6	1.51e+00	0	40	104	1214251008	60	69228
2026-01-04 02:59:46.42	336.48	2.51	-50.1	-65.6	3.6	1.51e+00	0	40	104	1214251008	60	69225
2026-01-04 02:59:50.46	336.84	2.31	-50.4	-65.7	3.6	1.51e+00	0	39	104	1214251008	60	69339
2026-01-04 02:59:54.50	337.19	2.11	-51.4	-66.6	3.6	1.51e+00	0	40	104	1214251008	60	77171
2026-01-04 02:59:58.54	337.55	1.92	-50.8	-66.0	3.6	1.51e+00	0	40	104	1214251008	60	72149
2026-01-04 03:00:02.57	337.89	1.72	-51.6	-66.8	3.6	1.51e+00	0	40	104	1214251008	60	79118
2026-01-04 03:00:06.61	338.24	1.52	-51.1	-66.3	3.6	1.51e+00	0	40	104	1214251008	60	74302
2026-01-04 03:00:10.65	338.58	1.33	-50.8	-66.0	3.6	1.51e+00	0	40	104	1214251008	60	72168
2026-01-04 03:00:14.69	338.91	1.13	-51.1	-66.3	3.6	1.51e+00	0	40	104	1214251008	60	74680
2026-01-04 03:00:18.72	339.24	0.93	-50.6	-65.9	3.6	1.51e+00	0	40	104	1214251008	60	71208
2026-01-04 03:00:22.76	339.57	0.74	-50.4	-65.6	3.6	1.51e+00	0	40	104	1214251008	60	68831
2026-01-04 03:00:26.80	339.89	0.55	-50.6	-65.8	3.6	1.51e+00	0	40	104	1214251008	60	70536
2026-01-04 03:00:30.84	340.21	0.35	-50.9	-66.1	3.6	1.51e+00	0	40	104	1214251008	60	72693
2026-01-04 03:00:34.87	340.53	0.16	-51.5	-66.7	3.6	1.51e+00	0	40	104	1214251008	60	77914

#Closed at: 2026-01-04 03:00:38
#Recorded file [1214 MB]: D:/lorett/data/35029_260104_144727.dat