passes_logs/2026/01/04/R4.6S_Anadyr/R4.6S_Anadyr__20260104_131006_SUOMI_NPP_rec.log

#Pass ID: 20260104_131006_SUOMI NPP
#Satellite: SUOMI NPP
#Configuration: NPP
#almurnet v.1.7.20251203
#Start time: 2026-01-04 13:10:10

#Version: 2.2.20231116
#Station: R4.6S_Anadyr
#Location: 177.4865 lon 64.73178 lat
#TLE: 1 37849U 11061A   26001.07732418  .00000182  00000+0  10735-3 0  9990
#TLE: 2 37849  98.7795 303.2470 0002580  87.2016 272.9455 14.19520779734739

#Time	Az	El	Level	Level2	SNR	BER	BlckErr	Temp	State	Recorded	gain1	gain2
2026-01-04 13:10:10.37	18.94	0.19	-51.4	-65.2	3.3	1.54e+00	0	39	0	0	60	65623
2026-01-04 13:10:14.39	19.15	0.41	-49.9	-65.1	3.6	1.51e+00	0	39	104	0	60	65160
2026-01-04 13:10:18.43	19.37	0.63	-49.5	-64.8	3.6	1.51e+00	0	39	104	0	60	62565
2026-01-04 13:10:22.46	19.59	0.85	-48.9	-64.0	3.6	1.51e+00	0	39	104	0	60	57595
2026-01-04 13:10:26.50	19.82	1.08	-48.1	-63.2	3.6	1.51e+00	0	39	104	0	60	52481
2026-01-04 13:10:30.54	20.04	1.31	-48.1	-63.2	3.6	1.51e+00	0	39	104	0	60	52537
2026-01-04 13:10:34.57	20.28	1.53	-48.1	-63.2	3.6	1.51e+00	0	39	104	0	60	52489
2026-01-04 13:10:38.61	20.51	1.76	-48.1	-63.1	3.6	1.51e+00	0	39	104	0	60	51620
2026-01-04 13:10:42.65	20.75	1.99	-48.1	-63.3	3.6	1.51e+00	0	39	104	0	60	52714
2026-01-04 13:10:46.69	20.99	2.23	-48.1	-63.1	3.6	1.51e+00	0	39	104	0	60	51612
2026-01-04 13:10:50.73	21.24	2.46	-48.1	-63.0	3.6	1.51e+00	0	39	104	0	60	50771
2026-01-04 13:10:54.77	21.48	2.70	-47.0	-52.9	8.7	1.20e-01	0	39	0	1048576	60	16053
2026-01-04 13:10:58.80	21.74	2.93	-42.9	-44.9	17.4	0.00e+00	0	39	0	8388608	60	6346
2026-01-04 13:11:02.84	21.99	3.17	-44.1	-46.7	15.3	0.00e+00	0	39	0	15728640	60	7843
2026-01-04 13:11:06.88	22.25	3.41	-47.7	-61.6	3.5	4.20e-01	0	39	104	23068672	60	43355
2026-01-04 13:11:10.92	22.52	3.65	-44.0	-46.5	6.0	1.48e+00	0	39	104	26214400	60	7613
2026-01-04 13:11:14.96	22.78	3.90	-43.1	-45.0	17.4	0.00e+00	0	39	0	31457280	58	7219
2026-01-04 13:11:18.99	23.06	4.14	-43.5	-45.6	17.1	0.00e+00	0	39	0	39845888	58	7707
2026-01-04 13:11:23.03	23.33	4.39	-42.4	-44.0	18.7	0.00e+00	0	40	0	47185920	56	7247
2026-01-04 13:11:27.07	23.61	4.64	-41.6	-43.1	19.5	0.00e+00	0	40	0	54525952	56	6476
2026-01-04 13:11:31.11	23.90	4.89	-41.6	-43.0	19.6	0.00e+00	0	40	0	61865984	56	6454
2026-01-04 13:11:35.14	24.19	5.14	-41.1	-42.4	20.3	0.00e+00	0	39	0	70254592	56	5978
2026-01-04 13:11:39.18	24.48	5.40	-40.8	-42.0	20.5	0.00e+00	0	40	0	77594624	54	6463
2026-01-04 13:11:43.21	24.78	5.65	-40.5	-41.7	21.0	0.00e+00	0	40	0	84934656	54	6198
2026-01-04 13:11:47.25	25.09	5.91	-40.6	-41.8	20.7	0.00e+00	0	40	0	92274688	54	6267
2026-01-04 13:11:51.29	25.40	6.17	-40.6	-41.8	20.9	0.00e+00	0	39	0	99614720	54	6314
2026-01-04 13:11:55.33	25.71	6.44	-40.3	-41.5	21.1	0.00e+00	0	40	0	108003328	54	6079
2026-01-04 13:11:59.36	26.03	6.70	-40.6	-41.8	21.0	0.00e+00	0	40	0	115343360	54	6284
2026-01-04 13:12:03.40	26.36	6.97	-40.5	-41.7	20.9	0.00e+00	0	40	0	122683392	54	6245
2026-01-04 13:12:07.43	26.69	7.23	-40.4	-41.6	21.1	0.00e+00	0	40	0	130023424	54	6162
2026-01-04 13:12:11.47	27.02	7.50	-40.1	-41.2	21.4	0.00e+00	0	40	0	137363456	54	5867
2026-01-04 13:12:15.51	27.37	7.78	-40.3	-41.5	21.4	0.00e+00	0	40	0	145752064	54	6055
2026-01-04 13:12:19.55	27.72	8.05	-39.8	-40.8	21.8	0.00e+00	0	40	0	153092096	54	5614
2026-01-04 13:12:23.59	28.07	8.33	-39.8	-40.9	21.8	0.00e+00	0	40	0	160432128	52	6328
2026-01-04 13:12:27.63	28.44	8.61	-39.9	-41.1	21.6	0.00e+00	0	40	0	167772160	52	6472
2026-01-04 13:12:31.66	28.80	8.89	-39.7	-40.8	21.7	0.00e+00	0	40	0	176160768	52	6256
2026-01-04 13:12:35.69	29.18	9.17	-39.8	-40.9	21.8	0.00e+00	0	40	0	183500800	52	6363
2026-01-04 13:12:39.73	29.56	9.46	-40.0	-41.1	21.7	0.00e+00	0	40	0	190840832	52	6473
2026-01-04 13:12:43.77	29.95	9.75	-39.6	-40.6	22.1	0.00e+00	0	40	0	198180864	52	6152
2026-01-04 13:12:47.81	30.35	10.04	-39.6	-40.6	22.1	0.00e+00	0	40	0	205520896	52	6123
2026-01-04 13:12:51.85	30.75	10.33	-39.4	-40.4	22.2	0.00e+00	0	40	0	213909504	52	6029
2026-01-04 13:12:55.88	31.17	10.62	-40.0	-41.2	21.7	0.00e+00	0	40	0	221249536	52	6545
2026-01-04 13:12:59.92	31.59	10.92	-40.2	-41.4	21.5	0.00e+00	0	40	0	228589568	52	6728
2026-01-04 13:13:03.96	32.02	11.22	-40.4	-41.5	21.5	0.00e+00	0	40	0	235929600	52	6820
2026-01-04 13:13:07.99	32.45	11.52	-40.0	-41.0	21.8	0.00e+00	0	40	0	244318208	52	6464
2026-01-04 13:13:12.02	32.90	11.82	-39.7	-40.8	22.0	0.00e+00	0	40	0	251658240	52	6279
2026-01-04 13:13:16.06	33.35	12.13	-39.5	-40.5	22.1	0.00e+00	0	40	0	258998272	52	6076
2026-01-04 13:13:20.10	33.82	12.44	-39.4	-40.4	22.4	0.00e+00	0	40	0	266338304	52	5980
2026-01-04 13:13:24.13	34.29	12.75	-39.2	-40.2	22.6	0.00e+00	0	40	0	273678336	52	5869
2026-01-04 13:13:28.17	34.77	13.06	-39.2	-40.2	22.5	0.00e+00	0	40	0	282066944	52	5838
2026-01-04 13:13:32.21	35.27	13.38	-39.1	-40.1	22.6	0.00e+00	0	40	0	289406976	52	5781
2026-01-04 13:13:36.25	35.77	13.69	-39.1	-40.1	22.6	0.00e+00	0	40	0	296747008	52	5791
2026-01-04 13:13:40.29	36.28	14.01	-39.4	-40.5	22.2	0.00e+00	0	40	0	304087040	52	6042
2026-01-04 13:13:44.32	36.81	14.33	-40.0	-41.1	21.7	0.00e+00	0	40	0	312475648	52	6526
2026-01-04 13:13:48.36	37.34	14.66	-40.1	-41.2	21.7	0.00e+00	0	40	0	319815680	52	6561
2026-01-04 13:13:52.40	37.89	14.98	-39.7	-40.8	22.2	0.00e+00	0	40	0	327155712	52	6251
2026-01-04 13:13:56.44	38.45	15.31	-39.4	-40.4	22.4	0.00e+00	0	40	0	334495744	52	6004
2026-01-04 13:14:00.48	39.02	15.64	-39.1	-40.1	22.6	0.00e+00	0	40	0	341835776	52	5809
2026-01-04 13:14:04.51	39.60	15.97	-38.8	-39.8	22.9	0.00e+00	0	40	0	350224384	52	5592
2026-01-04 13:14:08.55	40.20	16.30	-38.7	-39.7	22.7	0.00e+00	0	40	0	357564416	50	6192
2026-01-04 13:14:12.59	40.81	16.64	-38.4	-39.4	23.2	0.00e+00	0	40	0	364904448	50	5979
2026-01-04 13:14:16.63	41.43	16.98	-38.4	-39.3	23.3	0.00e+00	0	40	0	372244480	50	5915
2026-01-04 13:14:20.66	42.07	17.31	-38.5	-39.4	23.2	0.00e+00	0	40	0	380633088	50	5992
2026-01-04 13:14:24.70	42.72	17.65	-38.6	-39.5	23.1	0.00e+00	0	40	0	387973120	50	6057
2026-01-04 13:14:28.73	43.38	17.99	-38.5	-39.4	22.9	0.00e+00	0	40	0	395313152	50	5984
2026-01-04 13:14:32.77	44.06	18.33	-38.0	-38.8	23.7	0.00e+00	0	40	0	402653184	50	5623
2026-01-04 13:14:36.80	44.75	18.68	-37.8	-38.6	23.9	0.00e+00	0	40	0	409993216	48	6168
2026-01-04 13:14:40.84	45.46	19.02	-37.6	-38.5	24.0	0.00e+00	0	40	0	418381824	48	6046
2026-01-04 13:14:44.88	46.19	19.36	-38.2	-39.1	23.5	0.00e+00	0	40	0	425721856	48	6488
2026-01-04 13:14:48.92	46.93	19.71	-38.0	-38.9	23.7	0.00e+00	0	40	0	433061888	48	6365
2026-01-04 13:14:52.96	47.68	20.05	-38.0	-38.9	23.7	0.00e+00	0	40	0	440401920	48	6374
2026-01-04 13:14:57.00	48.46	20.39	-38.3	-39.2	23.4	0.00e+00	0	40	0	448790528	48	6577
2026-01-04 13:15:01.04	49.25	20.74	-37.9	-38.8	23.8	0.00e+00	0	40	0	456130560	48	6251
2026-01-04 13:15:05.07	50.06	21.08	-37.9	-38.8	23.8	0.00e+00	0	40	0	463470592	48	6291
2026-01-04 13:15:09.11	50.88	21.42	-37.5	-38.4	24.1	0.00e+00	0	40	0	470810624	48	5972
2026-01-04 13:15:13.15	51.73	21.76	-37.9	-38.8	23.9	0.00e+00	0	40	0	478150656	48	6246
2026-01-04 13:15:17.18	52.59	22.10	-37.7	-38.6	23.9	0.00e+00	0	40	0	486539264	48	6134
2026-01-04 13:15:21.22	53.47	22.43	-37.9	-38.8	23.8	0.00e+00	0	40	0	493879296	48	6286
2026-01-04 13:15:25.26	54.37	22.77	-38.0	-38.9	23.7	0.00e+00	0	40	0	501219328	48	6356
2026-01-04 13:15:29.30	55.29	23.10	-37.9	-38.8	23.8	0.00e+00	0	40	0	508559360	48	6247
2026-01-04 13:15:33.33	56.22	23.42	-37.8	-38.7	23.8	0.00e+00	0	40	0	516947968	48	6193
2026-01-04 13:15:37.37	57.18	23.75	-38.5	-39.5	23.3	0.00e+00	0	40	0	524288000	48	6793
2026-01-04 13:15:41.40	58.16	24.06	-38.3	-39.2	23.5	0.00e+00	0	40	0	531628032	50	5867
2026-01-04 13:15:45.44	59.15	24.38	-37.8	-38.7	23.9	0.00e+00	0	40	0	538968064	50	5549
2026-01-04 13:15:49.48	60.17	24.69	-37.7	-38.5	23.8	0.00e+00	0	40	0	546308096	48	6078
2026-01-04 13:15:53.52	61.20	24.99	-38.5	-39.5	23.3	0.00e+00	0	40	0	554696704	50	6039
2026-01-04 13:15:57.56	62.26	25.29	-37.8	-38.7	23.8	0.00e+00	0	40	0	562036736	48	6189
2026-01-04 13:16:01.60	63.33	25.58	-39.5	-40.5	22.5	0.00e+00	0	40	0	569376768	50	6832
2026-01-04 13:16:05.63	64.43	25.86	-38.6	-39.6	23.3	0.00e+00	0	40	0	576716800	50	6107
2026-01-04 13:16:09.67	65.54	26.13	-39.0	-40.0	22.8	0.00e+00	0	40	0	584056832	50	6456
2026-01-04 13:16:13.70	66.67	26.40	-39.6	-40.6	22.4	0.00e+00	0	40	0	592445440	50	6879
2026-01-04 13:16:17.74	67.82	26.65	-39.0	-40.0	22.9	0.00e+00	0	40	0	599785472	50	6418
2026-01-04 13:16:21.78	68.99	26.90	-39.4	-40.4	22.5	0.00e+00	0	40	0	607125504	50	6759
2026-01-04 13:16:25.82	70.17	27.14	-40.1	-41.1	22.0	0.00e+00	0	40	0	614465536	52	6528
2026-01-04 13:16:29.86	71.37	27.36	-38.6	-39.5	23.3	0.00e+00	0	40	0	622854144	50	6063
2026-01-04 13:16:33.89	72.59	27.57	-40.3	-41.4	21.8	0.00e+00	0	40	0	630194176	52	6712
2026-01-04 13:16:37.92	73.82	27.77	-41.1	-42.3	20.7	0.00e+00	0	40	0	637534208	54	6681
2026-01-04 13:16:41.96	75.07	27.96	-41.9	-43.3	20.1	0.00e+00	0	40	0	644874240	56	6678
2026-01-04 13:16:46.00	76.33	28.13	-42.1	-43.5	19.9	0.00e+00	0	40	0	652214272	56	6825
2026-01-04 13:16:50.04	77.61	28.30	-41.2	-42.4	21.0	0.00e+00	0	40	0	660602880	56	6012
2026-01-04 13:16:54.07	78.90	28.44	-42.0	-43.3	20.1	0.00e+00	0	40	0	667942912	56	6686
2026-01-04 13:16:58.10	80.19	28.57	-40.9	-42.2	21.1	0.00e+00	0	40	0	675282944	56	5831
2026-01-04 13:17:02.14	81.50	28.69	-39.8	-40.8	22.2	0.00e+00	0	40	0	682622976	52	6281
2026-01-04 13:17:06.18	82.82	28.79	-39.8	-40.8	22.1	0.00e+00	0	40	0	689963008	52	6299
2026-01-04 13:17:10.21	84.15	28.87	-40.0	-41.1	22.0	0.00e+00	0	40	0	698351616	52	6466
2026-01-04 13:17:14.24	85.48	28.94	-39.7	-40.7	22.2	0.00e+00	0	40	0	705691648	52	6243
2026-01-04 13:17:18.28	86.81	28.99	-39.6	-40.7	22.3	0.00e+00	0	40	0	713031680	52	6199
2026-01-04 13:17:22.32	88.16	29.03	-39.4	-40.4	22.6	0.00e+00	0	40	0	720371712	52	5978
2026-01-04 13:17:26.36	89.50	29.05	-40.2	-41.4	21.9	0.00e+00	0	40	0	728760320	52	6703
2026-01-04 13:17:30.39	90.84	29.05	-40.5	-41.6	21.5	0.00e+00	0	40	0	736100352	54	6161
2026-01-04 13:17:34.42	92.18	29.03	-39.6	-40.6	22.3	0.00e+00	0	40	0	743440384	54	5481
2026-01-04 13:17:38.46	93.52	29.00	-39.5	-40.6	22.4	0.00e+00	0	40	0	750780416	50	6864
2026-01-04 13:17:42.50	94.86	28.95	-40.9	-42.1	21.0	0.00e+00	0	40	0	758120448	54	6518
2026-01-04 13:17:46.54	96.20	28.89	-40.7	-41.9	21.2	0.00e+00	0	40	0	766509056	54	6364
2026-01-04 13:17:50.58	97.53	28.81	-41.5	-42.9	20.3	0.00e+00	0	40	0	773849088	54	7144
2026-01-04 13:17:54.61	98.85	28.71	-42.9	-44.5	18.9	0.00e+00	0	40	0	781189120	58	6839
2026-01-04 13:17:58.65	100.16	28.60	-42.2	-43.7	19.6	0.00e+00	0	40	0	788529152	58	6204
2026-01-04 13:18:02.69	101.46	28.47	-40.3	-41.5	21.6	0.00e+00	0	40	0	796917760	54	6047
2026-01-04 13:18:06.72	102.75	28.33	-41.0	-42.3	20.8	0.00e+00	0	40	0	804257792	54	6646
2026-01-04 13:18:10.75	104.03	28.17	-40.5	-41.6	21.5	0.00e+00	0	40	0	811597824	54	6159
2026-01-04 13:18:14.79	105.30	28.00	-39.3	-40.3	22.6	0.00e+00	0	40	0	818937856	52	5927
2026-01-04 13:18:18.82	106.55	27.81	-40.5	-41.7	21.4	0.00e+00	0	40	0	826277888	52	6939
2026-01-04 13:18:22.85	107.79	27.61	-39.4	-40.4	22.3	0.00e+00	0	40	0	834666496	52	6033
2026-01-04 13:18:26.89	109.02	27.40	-39.8	-40.9	22.1	0.00e+00	0	40	0	842006528	52	6340
2026-01-04 13:18:30.93	110.23	27.18	-39.3	-40.2	22.6	0.00e+00	0	40	0	849346560	52	5895
2026-01-04 13:18:34.97	111.42	26.94	-40.1	-41.2	21.9	0.00e+00	0	40	0	856686592	52	6592
2026-01-04 13:18:39.00	112.59	26.70	-41.3	-42.6	20.3	0.00e+00	0	40	0	864026624	54	6892
2026-01-04 13:18:43.04	113.75	26.44	-40.1	-41.2	21.7	0.00e+00	0	40	0	872415232	54	5860
2026-01-04 13:18:47.08	114.88	26.18	-40.1	-41.2	21.7	0.00e+00	0	40	0	879755264	52	6610
2026-01-04 13:18:51.12	116.00	25.91	-39.3	-40.4	22.4	0.00e+00	0	40	0	887095296	52	5967
2026-01-04 13:18:55.15	117.10	25.62	-40.5	-41.6	21.3	0.00e+00	0	40	0	894435328	52	6923
2026-01-04 13:18:59.18	118.18	25.34	-38.8	-39.7	22.9	0.00e+00	0	40	0	902823936	50	6224
2026-01-04 13:19:03.22	119.24	25.04	-39.2	-40.2	22.6	0.00e+00	0	40	0	910163968	50	6582
2026-01-04 13:19:07.26	120.29	24.74	-38.9	-39.9	22.7	0.00e+00	0	40	0	917504000	50	6365
2026-01-04 13:19:11.29	121.31	24.43	-38.6	-39.6	23.1	0.00e+00	0	40	0	924844032	50	6108
2026-01-04 13:19:15.33	122.31	24.11	-37.4	-38.3	23.9	0.00e+00	0	40	0	932184064	48	5898
2026-01-04 13:19:19.37	123.29	23.79	-38.7	-39.6	23.0	0.00e+00	0	40	0	940572672	50	6145
2026-01-04 13:19:23.41	124.26	23.47	-38.8	-39.8	22.9	0.00e+00	0	40	0	947912704	50	6261
2026-01-04 13:19:27.45	125.20	23.14	-38.0	-38.9	23.5	0.00e+00	0	40	0	955252736	50	5688
2026-01-04 13:19:31.48	126.13	22.81	-39.1	-40.1	22.6	0.00e+00	0	40	0	962592768	50	6480
2026-01-04 13:19:35.52	127.03	22.47	-39.0	-40.0	22.6	0.00e+00	0	40	0	970981376	52	5706
2026-01-04 13:19:39.56	127.92	22.14	-37.7	-38.5	23.7	0.00e+00	0	40	0	978321408	48	6095
2026-01-04 13:19:43.59	128.79	21.80	-37.6	-38.5	23.7	0.00e+00	0	40	0	985661440	48	6075
2026-01-04 13:19:47.63	129.64	21.45	-40.1	-41.2	21.5	0.00e+00	0	40	0	993001472	52	6576
2026-01-04 13:19:51.67	130.47	21.11	-40.6	-41.8	21.1	0.00e+00	0	40	0	1000341504	54	6311
2026-01-04 13:19:55.70	131.29	20.77	-38.9	-39.9	22.7	0.00e+00	0	40	0	1008730112	52	5672
2026-01-04 13:19:59.74	132.08	20.42	-38.3	-39.2	23.1	0.00e+00	0	40	0	1016070144	50	5863
2026-01-04 13:20:03.77	132.86	20.08	-37.7	-38.6	23.6	0.00e+00	0	40	0	1023410176	48	6153
2026-01-04 13:20:07.81	133.62	19.73	-38.6	-39.6	22.8	0.00e+00	0	40	0	1030750208	50	6160
2026-01-04 13:20:11.86	134.37	19.38	-38.4	-39.3	23.1	0.00e+00	0	40	0	1039138816	50	5959
2026-01-04 13:20:15.90	135.10	19.04	-39.4	-40.5	22.2	0.00e+00	0	40	0	1046478848	50	6803
2026-01-04 13:20:19.94	135.82	18.69	-38.1	-39.0	23.3	0.00e+00	0	40	0	1053818880	50	5731
2026-01-04 13:20:23.98	136.52	18.35	-37.5	-38.3	23.9	0.00e+00	0	40	0	1061158912	48	5940
2026-01-04 13:20:28.01	137.20	18.00	-37.4	-38.3	23.9	0.00e+00	0	40	0	1068498944	48	5920
2026-01-04 13:20:32.05	137.87	17.66	-37.4	-38.2	23.8	0.00e+00	0	40	0	1076887552	48	5877
2026-01-04 13:20:36.09	138.52	17.32	-37.7	-38.6	23.4	0.00e+00	0	40	0	1084227584	48	6149
2026-01-04 13:20:40.13	139.16	16.98	-38.2	-39.2	23.1	0.00e+00	0	40	0	1091567616	48	6558
2026-01-04 13:20:44.17	139.79	16.64	-37.5	-38.4	23.5	0.00e+00	0	40	0	1098907648	48	5999
2026-01-04 13:20:48.20	140.40	16.30	-37.3	-38.1	23.9	0.00e+00	0	40	0	1107296256	48	5812
2026-01-04 13:20:52.23	141.00	15.97	-37.8	-38.8	23.4	0.00e+00	0	40	0	1114636288	48	6256
2026-01-04 13:20:56.27	141.58	15.63	-37.7	-38.6	23.6	0.00e+00	0	40	0	1121976320	48	6119
2026-01-04 13:21:00.31	142.16	15.30	-37.6	-38.5	23.5	0.00e+00	0	40	0	1129316352	48	6058
2026-01-04 13:21:04.34	142.72	14.97	-38.9	-39.9	22.4	0.00e+00	0	40	0	1136656384	50	6327
2026-01-04 13:21:08.39	143.27	14.64	-39.0	-40.0	22.2	0.00e+00	0	40	0	1145044992	50	6452
2026-01-04 13:21:12.42	143.81	14.32	-39.0	-40.0	22.3	0.00e+00	0	40	0	1152385024	50	6417
2026-01-04 13:21:16.46	144.33	13.99	-38.9	-39.9	22.5	0.00e+00	0	40	0	1159725056	50	6383
2026-01-04 13:21:20.49	144.85	13.67	-40.0	-41.2	21.3	0.00e+00	0	40	0	1167065088	52	6592
2026-01-04 13:21:24.53	145.35	13.35	-40.6	-41.9	20.8	0.00e+00	0	40	0	1174405120	54	6345
2026-01-04 13:21:28.57	145.85	13.03	-40.5	-41.8	20.8	0.00e+00	0	40	0	1182793728	54	6268
2026-01-04 13:21:32.60	146.33	12.72	-39.9	-41.0	21.4	0.00e+00	0	40	0	1190133760	54	5751
2026-01-04 13:21:36.64	146.81	12.40	-39.8	-41.0	21.6	0.00e+00	0	40	0	1197473792	54	5701
2026-01-04 13:21:40.67	147.27	12.09	-39.3	-40.3	22.1	0.00e+00	0	40	0	1204813824	52	5958
2026-01-04 13:21:44.71	147.73	11.78	-38.9	-39.9	22.6	0.00e+00	0	40	0	1213202432	52	5639
2026-01-04 13:21:48.74	148.18	11.48	-38.9	-39.8	22.5	0.00e+00	0	40	0	1220542464	50	6313
2026-01-04 13:21:52.78	148.61	11.17	-39.2	-40.2	22.2	0.00e+00	0	40	0	1227882496	50	6615
2026-01-04 13:21:56.82	149.04	10.87	-39.7	-40.8	21.8	0.00e+00	0	40	0	1235222528	52	6302
2026-01-04 13:22:00.86	149.46	10.57	-40.4	-41.6	21.1	0.00e+00	0	40	0	1242562560	52	6863
2026-01-04 13:22:04.89	149.88	10.28	-39.8	-40.9	21.6	0.00e+00	0	40	0	1250951168	52	6327
2026-01-04 13:22:08.93	150.28	9.98	-39.6	-40.6	21.8	0.00e+00	0	40	0	1258291200	52	6156
2026-01-04 13:22:12.97	150.68	9.69	-39.5	-40.6	21.8	0.00e+00	0	40	0	1265631232	52	6125
2026-01-04 13:22:17.01	151.07	9.40	-39.9	-41.1	21.5	0.00e+00	0	40	0	1272971264	52	6476
2026-01-04 13:22:21.05	151.45	9.11	-40.2	-41.4	21.3	0.00e+00	0	40	0	1281359872	52	6699
2026-01-04 13:22:25.09	151.83	8.83	-39.7	-40.8	21.6	0.00e+00	0	40	0	1288699904	52	6299
2026-01-04 13:22:29.12	152.20	8.54	-39.5	-40.6	21.7	0.00e+00	0	40	0	1296039936	52	6155
2026-01-04 13:22:33.15	152.56	8.26	-39.6	-40.7	21.7	0.00e+00	0	40	0	1303379968	52	6228
2026-01-04 13:22:37.19	152.91	7.98	-40.4	-41.6	20.8	0.00e+00	0	40	0	1310720000	52	6888
2026-01-04 13:22:41.24	153.26	7.70	-41.0	-42.5	19.7	0.00e+00	0	40	0	1319108608	54	6781
2026-01-04 13:22:45.27	153.60	7.43	-42.2	-43.9	18.2	0.00e+00	0	40	0	1326448640	56	7163
2026-01-04 13:22:49.31	153.94	7.16	-42.7	-44.8	17.1	0.00e+00	0	40	0	1333788672	58	7027
2026-01-04 13:22:53.35	154.27	6.89	-43.0	-45.2	16.6	0.00e+00	0	40	0	1341128704	58	7369
2026-01-04 13:22:57.39	154.60	6.62	-43.4	-45.9	15.7	0.00e+00	0	40	0	1349517312	58	8038
2026-01-04 13:23:01.42	154.92	6.35	-43.6	-46.4	15.1	0.00e+00	0	40	0	1356857344	58	8457
2026-01-04 13:23:05.46	155.23	6.09	-43.6	-46.2	15.6	0.00e+00	0	40	0	1364197376	60	7355
2026-01-04 13:23:09.50	155.54	5.83	-43.6	-46.0	15.8	0.00e+00	0	40	0	1371537408	60	7202
2026-01-04 13:23:13.53	155.84	5.57	-43.0	-45.1	16.9	0.00e+00	0	40	0	1378877440	60	6519
2026-01-04 13:23:17.57	156.14	5.31	-42.2	-44.1	17.8	0.00e+00	0	40	0	1387266048	58	6465
2026-01-04 13:23:21.61	156.43	5.05	-41.9	-43.5	18.6	0.00e+00	0	40	0	1394606080	56	6828
2026-01-04 13:23:25.65	156.72	4.80	-41.4	-42.9	19.2	0.00e+00	0	40	0	1401946112	56	6364
2026-01-04 13:23:29.69	157.00	4.54	-41.1	-42.5	19.7	0.00e+00	0	40	0	1409286144	56	6065
2026-01-04 13:23:33.72	157.28	4.29	-41.6	-43.1	19.2	0.00e+00	0	40	0	1416626176	56	6481
2026-01-04 13:23:37.76	157.56	4.04	-42.1	-43.8	18.2	0.00e+00	0	40	0	1425014784	56	7016
2026-01-04 13:23:41.80	157.83	3.79	-42.4	-44.2	18.1	0.00e+00	0	40	0	1432354816	56	7379
2026-01-04 13:23:45.84	158.09	3.55	-43.0	-45.0	17.3	0.00e+00	0	40	0	1439694848	58	7197
2026-01-04 13:23:49.87	158.35	3.31	-42.9	-44.9	17.2	0.00e+00	0	40	0	1447034880	58	7139
2026-01-04 13:23:53.91	158.61	3.06	-43.3	-45.5	16.6	0.00e+00	0	40	0	1455423488	58	7627
2026-01-04 13:23:57.94	158.87	2.82	-49.0	-64.2	3.6	1.51e+00	0	40	104	1455423488	60	58543
2026-01-04 13:24:01.97	159.11	2.58	-49.5	-64.8	3.6	1.51e+00	0	40	104	1455423488	60	62684
2026-01-04 13:24:06.01	159.36	2.35	-49.5	-64.7	3.6	1.51e+00	0	40	104	1455423488	60	62293
2026-01-04 13:24:10.05	159.60	2.11	-49.6	-64.9	3.6	1.51e+00	0	40	104	1455423488	60	63311
2026-01-04 13:24:14.09	159.84	1.88	-49.7	-64.9	3.6	1.51e+00	0	40	104	1455423488	60	63228
2026-01-04 13:24:18.13	160.08	1.64	-49.6	-64.8	3.6	1.51e+00	0	40	104	1455423488	60	62758
2026-01-04 13:24:22.17	160.31	1.41	-49.6	-64.8	3.6	1.51e+00	0	40	104	1455423488	60	63112
2026-01-04 13:24:26.21	160.54	1.18	-49.6	-64.9	3.6	1.51e+00	0	40	104	1455423488	60	63235
2026-01-04 13:24:30.25	160.76	0.95	-49.7	-64.9	3.6	1.51e+00	0	40	104	1455423488	60	63493
2026-01-04 13:24:34.29	160.99	0.73	-49.7	-64.9	3.6	1.51e+00	0	40	104	1455423488	60	63205
2026-01-04 13:24:38.33	161.20	0.50	-49.6	-64.9	3.6	1.51e+00	0	40	104	1455423488	60	63643
2026-01-04 13:24:42.37	161.42	0.28	-49.7	-64.9	3.6	1.51e+00	0	40	104	1455423488	60	63690
2026-01-04 13:24:46.41	161.63	0.05	-49.7	-64.9	3.6	1.51e+00	0	40	104	1455423488	60	63663

#Closed at: 2026-01-04 13:24:47
#Recorded file [1455 MB]: D:/lorett/data/35029_260105_011010.dat