passes_logs/2026/01/04/R4.6S_Anadyr/R4.6S_Anadyr__20260104_124031_NOAA_21_JPSS-2_rec.log

#Pass ID: 20260104_124031_NOAA 21 (JPSS-2)
#Satellite: NOAA 21 (JPSS-2)
#Configuration: NOAA-21
#almurnet v.1.7.20251203
#Start time: 2026-01-04 12:40:32

#Version: 2.2.20231116
#Station: R4.6S_Anadyr
#Location: 177.4865 lon 64.73178 lat
#TLE: 1 54234U 22150A   26003.45311712  .00000198  00000+0  11468-3 0  9993
#TLE: 2 54234  98.7487 304.4932 0001159 347.5017  12.6130 14.19531745163172

#Time	Az	El	Level	Level2	SNR	BER	BlckErr	Temp	State	Recorded	gain1	gain2
2026-01-04 12:40:32.79	18.80	0.07	-50.7	-65.6	3.6	1.51e+00	0	37	0	0	60	69169
2026-01-04 12:40:36.83	19.07	0.27	-50.3	-63.2	3.5	1.51e+00	0	39	104	0	60	50830
2026-01-04 12:40:40.86	19.33	0.48	-49.9	-62.8	3.5	1.52e+00	0	39	104	0	60	48288
2026-01-04 12:40:44.90	19.60	0.69	-49.6	-62.4	3.5	1.52e+00	0	39	104	0	60	46528
2026-01-04 12:40:48.93	19.88	0.90	-48.3	-61.1	3.5	1.52e+00	0	39	104	0	60	39724
2026-01-04 12:40:52.97	20.16	1.12	-48.2	-61.0	3.5	1.52e+00	0	39	104	0	60	39388
2026-01-04 12:40:57.01	20.44	1.33	-48.1	-61.0	3.5	1.52e+00	0	39	104	0	60	39278
2026-01-04 12:41:01.05	20.72	1.54	-48.2	-61.0	3.5	1.51e+00	0	39	104	0	60	39389
2026-01-04 12:41:05.09	21.01	1.76	-48.2	-60.8	3.5	1.52e+00	0	39	104	0	60	38462
2026-01-04 12:41:09.13	21.30	1.98	-48.1	-60.9	3.5	1.51e+00	0	40	104	0	60	38873
2026-01-04 12:41:13.17	21.60	2.19	-48.1	-60.7	3.5	1.51e+00	0	39	104	0	60	37974
2026-01-04 12:41:17.21	21.90	2.41	-48.1	-60.3	3.5	1.52e+00	0	39	104	0	60	36257
2026-01-04 12:41:21.25	22.21	2.63	-44.1	-46.7	13.4	1.44e-03	123	39	0	4194304	60	7613
2026-01-04 12:41:25.28	22.51	2.85	-39.9	-41.3	18.7	0.00e+00	122	39	0	16777216	54	5772
2026-01-04 12:41:29.32	22.83	3.07	-43.4	-45.7	14.4	0.00e+00	123	39	0	29360128	56	8532
2026-01-04 12:41:33.36	23.15	3.30	-47.9	-59.1	3.6	1.52e+00	0	40	104	39845888	60	31505
2026-01-04 12:41:37.39	23.47	3.52	-40.6	-42.0	18.6	0.00e+00	120	40	0	48234496	54	6236
2026-01-04 12:41:41.43	23.79	3.75	-40.6	-42.0	18.8	0.00e+00	120	40	0	60817408	54	6254
2026-01-04 12:41:45.47	24.13	3.97	-40.2	-41.6	19.1	0.00e+00	123	40	0	73400320	52	6663
2026-01-04 12:41:49.51	24.46	4.20	-40.9	-42.4	18.3	0.00e+00	123	40	0	85983232	54	6502
2026-01-04 12:41:53.55	24.81	4.43	-40.2	-41.5	19.2	0.00e+00	123	40	0	98566144	52	6615
2026-01-04 12:41:57.59	25.15	4.66	-39.5	-40.7	19.9	0.00e+00	120	40	0	111149056	52	6018
2026-01-04 12:42:01.63	25.51	4.89	-39.6	-40.8	19.9	0.00e+00	122	40	0	123731968	52	6100
2026-01-04 12:42:05.66	25.86	5.12	-39.4	-40.7	20.1	0.00e+00	120	40	0	136314880	52	5999
2026-01-04 12:42:09.70	26.22	5.35	-39.5	-40.7	20.1	0.00e+00	120	40	0	148897792	52	6008
2026-01-04 12:42:13.74	26.59	5.59	-39.3	-40.5	20.2	0.00e+00	120	40	0	161480704	52	5907
2026-01-04 12:42:17.77	26.97	5.82	-39.1	-40.2	20.6	0.00e+00	123	40	0	174063616	52	5723
2026-01-04 12:42:21.81	27.35	6.06	-38.9	-40.0	20.8	0.00e+00	122	40	0	186646528	52	5592
2026-01-04 12:42:25.85	27.73	6.30	-39.1	-40.3	20.7	0.00e+00	123	40	0	199229440	52	5733
2026-01-04 12:42:29.89	28.12	6.54	-39.1	-40.2	20.7	0.00e+00	122	40	0	211812352	52	5714
2026-01-04 12:42:33.93	28.52	6.78	-38.9	-40.0	21.0	0.00e+00	121	40	0	224395264	52	5573
2026-01-04 12:42:37.97	28.93	7.02	-39.0	-40.2	20.7	0.00e+00	123	40	0	238026752	50	6368
2026-01-04 12:42:42.01	29.34	7.26	-39.1	-40.2	20.7	0.00e+00	123	40	0	250609664	50	6398
2026-01-04 12:42:46.05	29.75	7.51	-38.9	-40.1	20.9	0.00e+00	122	40	0	263192576	50	6294
2026-01-04 12:42:50.09	30.18	7.75	-38.4	-39.5	21.4	0.00e+00	123	40	0	275775488	50	5911
2026-01-04 12:42:54.13	30.61	8.00	-38.2	-39.2	21.6	0.00e+00	121	40	0	288358400	50	5719
2026-01-04 12:42:58.17	31.05	8.24	-38.2	-39.2	21.6	0.00e+00	123	40	0	300941312	50	5718
2026-01-04 12:43:02.20	31.49	8.49	-37.8	-38.8	22.0	0.00e+00	122	40	0	313524224	50	5439
2026-01-04 12:43:06.24	31.94	8.74	-37.8	-38.8	22.0	0.00e+00	122	40	0	326107136	48	6131
2026-01-04 12:43:10.28	32.40	8.99	-37.9	-39.0	21.9	0.00e+00	123	40	0	338690048	48	6212
2026-01-04 12:43:14.32	32.87	9.24	-37.7	-38.7	22.1	0.00e+00	123	40	0	351272960	48	6036
2026-01-04 12:43:18.36	33.34	9.49	-37.5	-38.5	22.3	0.00e+00	120	40	0	363855872	48	5912
2026-01-04 12:43:22.40	33.83	9.74	-37.7	-38.7	22.2	0.00e+00	123	40	0	376438784	48	6015
2026-01-04 12:43:26.44	34.32	10.00	-37.5	-38.5	22.4	0.00e+00	122	40	0	389021696	48	5892
2026-01-04 12:43:30.48	34.82	10.25	-37.0	-38.0	22.8	0.00e+00	123	40	0	401604608	48	5579
2026-01-04 12:43:34.52	35.32	10.51	-36.8	-37.7	23.2	0.00e+00	123	40	0	414187520	46	6033
2026-01-04 12:43:38.56	35.84	10.76	-37.0	-37.9	22.8	0.00e+00	123	40	0	426770432	46	6190
2026-01-04 12:43:42.60	36.37	11.02	-36.7	-37.6	23.1	0.00e+00	122	40	0	439353344	46	5978
2026-01-04 12:43:46.64	36.90	11.28	-36.9	-37.9	22.9	0.00e+00	122	40	0	451936256	46	6177
2026-01-04 12:43:50.68	37.44	11.53	-36.7	-37.7	23.0	0.00e+00	123	40	0	464519168	46	6037
2026-01-04 12:43:54.72	38.00	11.79	-36.9	-37.9	22.9	0.00e+00	122	40	0	477102080	46	6148
2026-01-04 12:43:58.75	38.56	12.05	-37.1	-38.1	22.9	0.00e+00	121	40	0	489684992	46	6318
2026-01-04 12:44:02.79	39.13	12.31	-36.8	-37.8	23.1	0.00e+00	120	40	0	502267904	46	6096
2026-01-04 12:44:06.82	39.71	12.56	-36.7	-37.7	23.1	0.00e+00	123	40	0	514850816	46	6037
2026-01-04 12:44:10.86	40.30	12.82	-36.7	-37.6	23.3	0.00e+00	120	40	0	527433728	46	5986
2026-01-04 12:44:14.90	40.90	13.08	-36.5	-37.4	23.4	0.00e+00	122	40	0	540016640	46	5828
2026-01-04 12:44:18.93	41.51	13.34	-36.4	-37.4	23.3	0.00e+00	123	40	0	552599552	46	5795
2026-01-04 12:44:22.97	42.13	13.60	-36.2	-37.1	23.6	0.00e+00	123	40	0	565182464	46	5656
2026-01-04 12:44:27.01	42.76	13.86	-36.5	-37.5	23.4	0.00e+00	120	40	0	578813952	46	5861
2026-01-04 12:44:31.05	43.40	14.11	-36.2	-37.2	23.5	0.00e+00	122	40	0	591396864	46	5662
2026-01-04 12:44:35.09	44.06	14.37	-36.3	-37.3	23.3	0.00e+00	120	40	0	603979776	46	5742
2026-01-04 12:44:39.12	44.72	14.63	-36.4	-37.4	23.3	0.00e+00	122	40	0	616562688	46	5810
2026-01-04 12:44:43.16	45.40	14.88	-36.4	-37.3	23.5	0.00e+00	122	40	0	629145600	46	5788
2026-01-04 12:44:47.20	46.08	15.13	-36.1	-37.0	23.8	0.00e+00	121	40	0	641728512	46	5560
2026-01-04 12:44:51.23	46.78	15.39	-36.3	-37.3	23.6	0.00e+00	123	40	0	654311424	46	5732
2026-01-04 12:44:55.27	47.49	15.64	-36.2	-37.1	23.6	0.00e+00	122	40	0	666894336	46	5642
2026-01-04 12:44:59.31	48.21	15.89	-36.6	-37.5	23.3	0.00e+00	122	40	0	679477248	46	5912
2026-01-04 12:45:03.35	48.95	16.14	-36.5	-37.5	23.4	0.00e+00	120	40	0	692060160	46	5911
2026-01-04 12:45:07.38	49.69	16.38	-36.3	-37.3	23.7	0.00e+00	123	40	0	704643072	46	5731
2026-01-04 12:45:11.42	50.45	16.63	-36.1	-37.0	23.8	0.00e+00	123	40	0	717225984	46	5584
2026-01-04 12:45:15.46	51.22	16.87	-36.0	-36.9	23.7	0.00e+00	123	40	0	729808896	46	5504
2026-01-04 12:45:19.50	52.00	17.11	-36.1	-37.1	23.8	0.00e+00	122	40	0	742391808	46	5620
2026-01-04 12:45:23.54	52.80	17.34	-36.2	-37.2	23.8	0.00e+00	123	40	0	754974720	46	5666
2026-01-04 12:45:27.58	53.60	17.58	-36.0	-36.9	23.7	0.00e+00	122	40	0	767557632	46	5509
2026-01-04 12:45:31.62	54.42	17.81	-35.9	-36.8	23.8	0.00e+00	123	40	0	780140544	46	5427
2026-01-04 12:45:35.66	55.25	18.03	-36.0	-36.9	24.0	0.00e+00	123	40	0	792723456	46	5515
2026-01-04 12:45:39.70	56.09	18.26	-35.9	-36.8	23.9	0.00e+00	123	40	0	805306368	46	5443
2026-01-04 12:45:43.75	56.95	18.48	-36.0	-36.9	23.6	0.00e+00	122	40	0	817889280	44	6176
2026-01-04 12:45:47.79	57.82	18.69	-35.9	-36.8	24.0	0.00e+00	123	40	0	830472192	44	6101
2026-01-04 12:45:51.83	58.69	18.90	-35.5	-36.4	24.2	0.00e+00	123	40	0	843055104	44	5843
2026-01-04 12:45:55.86	59.58	19.11	-35.5	-36.4	24.0	0.00e+00	122	40	0	855638016	44	5820
2026-01-04 12:45:59.91	60.49	19.31	-35.6	-36.5	24.2	0.00e+00	123	40	0	868220928	44	5885
2026-01-04 12:46:03.94	61.40	19.50	-35.5	-36.4	24.3	0.00e+00	122	40	0	880803840	44	5816
2026-01-04 12:46:07.98	62.32	19.69	-35.5	-36.4	24.3	0.00e+00	120	40	0	893386752	44	5800
2026-01-04 12:46:12.02	63.26	19.87	-35.1	-36.0	24.5	0.00e+00	123	40	0	905969664	44	5553
2026-01-04 12:46:16.05	64.20	20.05	-35.4	-36.3	24.3	0.00e+00	122	40	0	919601152	44	5734
2026-01-04 12:46:20.09	65.16	20.22	-35.2	-36.0	24.5	0.00e+00	123	40	0	931135488	44	5593
2026-01-04 12:46:24.12	66.12	20.38	-35.2	-36.1	24.4	0.00e+00	122	40	0	944766976	44	5601
2026-01-04 12:46:28.17	67.10	20.54	-35.0	-35.9	24.6	0.00e+00	123	40	0	957349888	44	5508
2026-01-04 12:46:32.20	68.09	20.68	-35.2	-36.1	24.5	0.00e+00	120	40	0	969932800	44	5613
2026-01-04 12:46:36.24	69.08	20.82	-35.3	-36.2	24.4	0.00e+00	122	41	0	982515712	44	5691
2026-01-04 12:46:40.28	70.09	20.96	-35.2	-36.1	24.5	0.00e+00	123	40	0	995098624	44	5619
2026-01-04 12:46:44.32	71.10	21.08	-35.5	-36.4	24.3	0.00e+00	122	40	0	1007681536	44	5820
2026-01-04 12:46:48.36	72.12	21.20	-35.1	-36.0	24.6	0.00e+00	123	41	0	1020264448	44	5563
2026-01-04 12:46:52.39	73.15	21.31	-35.5	-36.4	24.3	0.00e+00	122	40	0	1032847360	44	5848
2026-01-04 12:46:56.42	74.18	21.40	-35.2	-36.1	24.6	0.00e+00	122	41	0	1045430272	44	5601
2026-01-04 12:47:00.45	75.22	21.49	-35.1	-36.0	24.5	0.00e+00	123	40	0	1058013184	44	5583
2026-01-04 12:47:04.49	76.27	21.57	-35.4	-36.3	24.4	0.00e+00	123	41	0	1070596096	44	5730
2026-01-04 12:47:08.53	77.32	21.65	-35.3	-36.2	24.4	0.00e+00	122	41	0	1083179008	44	5713
2026-01-04 12:47:12.57	78.38	21.71	-35.2	-36.1	24.4	0.00e+00	122	41	0	1095761920	44	5599
2026-01-04 12:47:16.60	79.44	21.76	-35.0	-35.9	24.6	0.00e+00	120	41	0	1108344832	44	5516
2026-01-04 12:47:20.64	80.50	21.80	-34.9	-35.8	24.7	0.00e+00	123	40	0	1120927744	44	5433
2026-01-04 12:47:24.68	81.57	21.83	-35.1	-36.0	24.5	0.00e+00	123	40	0	1133510656	44	5546
2026-01-04 12:47:28.72	82.63	21.86	-35.3	-36.2	24.4	0.00e+00	122	41	0	1146093568	42	6368
2026-01-04 12:47:32.76	83.70	21.87	-35.2	-36.1	24.4	0.00e+00	122	40	0	1158676480	42	6309
2026-01-04 12:47:36.80	84.78	21.87	-35.2	-36.1	24.5	0.00e+00	123	41	0	1171259392	42	6304
2026-01-04 12:47:40.84	85.85	21.86	-34.9	-35.8	24.7	0.00e+00	123	40	0	1183842304	42	6084
2026-01-04 12:47:44.88	86.92	21.85	-35.1	-36.0	24.5	0.00e+00	122	40	0	1196425216	42	6257
2026-01-04 12:47:48.91	87.98	21.82	-34.9	-35.8	24.7	0.00e+00	120	41	0	1209008128	42	6065
2026-01-04 12:47:52.95	89.05	21.78	-35.1	-36.0	24.6	0.00e+00	122	40	0	1221591040	42	6208
2026-01-04 12:47:56.98	90.11	21.73	-35.1	-35.9	24.6	0.00e+00	123	40	0	1234173952	42	6198
2026-01-04 12:48:01.01	91.16	21.68	-34.9	-35.8	24.7	0.00e+00	122	41	0	1246756864	42	6104
2026-01-04 12:48:05.05	92.22	21.61	-35.3	-36.2	24.3	0.00e+00	123	40	0	1259339776	42	6400
2026-01-04 12:48:09.09	93.27	21.53	-35.1	-36.0	24.5	0.00e+00	123	40	0	1271922688	42	6260
2026-01-04 12:48:13.13	94.32	21.45	-35.0	-35.9	24.6	0.00e+00	122	40	0	1284505600	42	6184
2026-01-04 12:48:17.17	95.36	21.35	-35.1	-36.0	24.5	0.00e+00	122	40	0	1297088512	42	6265
2026-01-04 12:48:21.21	96.39	21.25	-35.0	-35.8	24.6	0.00e+00	120	40	0	1310720000	42	6127
2026-01-04 12:48:25.25	97.42	21.14	-35.1	-36.1	24.3	0.00e+00	123	40	0	1322254336	42	6280
2026-01-04 12:48:29.28	98.43	21.01	-35.2	-36.1	24.5	0.00e+00	122	41	0	1335885824	42	6285
2026-01-04 12:48:33.32	99.44	20.88	-34.9	-35.8	24.6	0.00e+00	123	40	0	1348468736	42	6117
2026-01-04 12:48:37.36	100.45	20.75	-35.1	-36.0	24.5	0.00e+00	122	40	0	1361051648	42	6240
2026-01-04 12:48:41.40	101.44	20.60	-35.5	-36.4	24.2	0.00e+00	122	40	0	1373634560	42	6517
2026-01-04 12:48:45.43	102.42	20.45	-35.0	-35.9	24.4	0.00e+00	123	40	0	1386217472	42	6191
2026-01-04 12:48:49.47	103.40	20.29	-35.5	-36.4	24.1	0.00e+00	123	40	0	1398800384	42	6524
2026-01-04 12:48:53.51	104.36	20.12	-35.1	-36.0	24.2	0.00e+00	122	40	0	1411383296	42	6272
2026-01-04 12:48:57.55	105.32	19.95	-35.3	-36.2	24.2	0.00e+00	120	41	0	1423966208	42	6414
2026-01-04 12:49:01.59	106.26	19.77	-35.2	-36.1	24.3	0.00e+00	120	41	0	1436549120	42	6317
2026-01-04 12:49:05.63	107.19	19.58	-35.3	-36.2	24.1	0.00e+00	123	40	0	1449132032	42	6416
2026-01-04 12:49:09.66	108.11	19.39	-35.5	-36.4	24.0	0.00e+00	123	40	0	1461714944	42	6550
2026-01-04 12:49:13.70	109.02	19.19	-35.5	-36.4	24.0	0.00e+00	123	40	0	1474297856	44	5817
2026-01-04 12:49:17.74	109.92	18.98	-35.2	-36.1	24.1	0.00e+00	122	40	0	1486880768	44	5645
2026-01-04 12:49:21.78	110.81	18.78	-35.0	-35.9	24.5	0.00e+00	120	40	0	1499463680	44	5503
2026-01-04 12:49:25.81	111.68	18.56	-35.4	-36.3	24.2	0.00e+00	123	40	0	1512046592	44	5748
2026-01-04 12:49:29.84	112.54	18.34	-35.6	-36.6	24.0	0.00e+00	121	40	0	1524629504	44	5936
2026-01-04 12:49:33.89	113.40	18.12	-35.6	-36.5	24.0	0.00e+00	120	40	0	1537212416	44	5915
2026-01-04 12:49:37.92	114.23	17.90	-35.5	-36.4	24.1	0.00e+00	120	40	0	1549795328	44	5848
2026-01-04 12:49:41.96	115.06	17.67	-35.9	-36.9	23.7	0.00e+00	122	40	0	1562378240	44	6146
2026-01-04 12:49:46.00	115.87	17.43	-35.9	-36.8	23.8	0.00e+00	120	40	0	1574961152	44	6084
2026-01-04 12:49:50.04	116.68	17.20	-35.6	-36.6	23.9	0.00e+00	122	40	0	1587544064	44	5936
2026-01-04 12:49:54.08	117.47	16.96	-35.7	-36.6	23.8	0.00e+00	123	40	0	1600126976	44	5945
2026-01-04 12:49:58.11	118.24	16.71	-36.0	-36.9	23.7	0.00e+00	122	40	0	1612709888	44	6194
2026-01-04 12:50:02.15	119.01	16.47	-36.0	-36.9	23.6	0.00e+00	122	40	0	1625292800	44	6179
2026-01-04 12:50:06.19	119.76	16.22	-36.0	-37.0	23.6	0.00e+00	122	40	0	1637875712	44	6216
2026-01-04 12:50:10.23	120.50	15.97	-36.0	-36.9	23.6	0.00e+00	123	40	0	1650458624	44	6197
2026-01-04 12:50:14.27	121.23	15.72	-35.8	-36.7	23.8	0.00e+00	118	40	0	1663041536	44	6048
2026-01-04 12:50:18.31	121.95	15.47	-36.2	-37.2	23.5	0.00e+00	123	41	0	1675624448	44	6372
2026-01-04 12:50:22.35	122.66	15.21	-36.0	-36.9	23.7	0.00e+00	122	40	0	1688207360	44	6189
2026-01-04 12:50:26.39	123.35	14.96	-36.2	-37.2	23.6	0.00e+00	122	40	0	1700790272	44	6367
2026-01-04 12:50:30.43	124.04	14.70	-35.6	-36.5	23.9	0.00e+00	123	40	0	1714421760	44	5917
2026-01-04 12:50:34.47	124.71	14.44	-35.8	-36.7	23.7	0.00e+00	123	40	0	1727004672	44	6033
2026-01-04 12:50:38.51	125.37	14.19	-36.1	-37.0	23.6	0.00e+00	122	40	0	1739587584	44	6270
2026-01-04 12:50:42.55	126.02	13.93	-36.5	-37.5	23.3	0.00e+00	123	40	0	1752170496	44	6594
2026-01-04 12:50:46.59	126.66	13.67	-36.5	-37.5	23.2	0.00e+00	122	40	0	1764753408	46	5888
2026-01-04 12:50:50.62	127.29	13.41	-36.6	-37.6	22.9	0.00e+00	120	41	0	1777336320	46	5955
2026-01-04 12:50:54.66	127.90	13.15	-36.9	-37.9	22.9	0.00e+00	122	40	0	1789919232	46	6152
2026-01-04 12:50:58.70	128.51	12.89	-36.7	-37.7	23.0	0.00e+00	123	40	0	1802502144	46	6009
2026-01-04 12:51:02.74	129.11	12.62	-36.5	-37.4	23.3	0.00e+00	120	40	0	1815085056	46	5827
2026-01-04 12:51:06.78	129.69	12.36	-36.9	-37.9	23.0	0.00e+00	123	40	0	1827667968	46	6143
2026-01-04 12:51:10.81	130.27	12.10	-36.9	-37.9	22.9	0.00e+00	123	40	0	1840250880	46	6183
2026-01-04 12:51:14.85	130.84	11.84	-37.0	-38.0	22.7	0.00e+00	123	40	0	1852833792	46	6233
2026-01-04 12:51:18.89	131.39	11.58	-37.1	-38.0	22.7	0.00e+00	122	40	0	1865416704	46	6273
2026-01-04 12:51:22.93	131.94	11.32	-37.2	-38.2	22.5	0.00e+00	123	40	0	1877999616	46	6373
2026-01-04 12:51:26.96	132.48	11.07	-37.6	-38.7	22.1	0.00e+00	122	40	0	1890582528	48	6022
2026-01-04 12:51:31.00	133.01	10.81	-37.2	-38.2	22.5	0.00e+00	120	40	0	1903165440	48	5724
2026-01-04 12:51:35.04	133.53	10.55	-37.2	-38.2	22.5	0.00e+00	123	40	0	1915748352	48	5724
2026-01-04 12:51:39.07	134.04	10.29	-37.5	-38.5	22.1	0.00e+00	123	40	0	1928331264	48	5920
2026-01-04 12:51:43.12	134.55	10.03	-37.3	-38.4	22.3	0.00e+00	122	40	0	1940914176	48	5800
2026-01-04 12:51:47.15	135.04	9.78	-37.1	-38.1	22.5	0.00e+00	122	40	0	1953497088	48	5656
2026-01-04 12:51:51.19	135.53	9.52	-37.1	-38.1	22.5	0.00e+00	120	40	0	1966080000	48	5646
2026-01-04 12:51:55.23	136.01	9.27	-37.2	-38.2	22.5	0.00e+00	123	40	0	1978662912	48	5681
2026-01-04 12:51:59.27	136.48	9.02	-37.2	-38.2	22.4	0.00e+00	123	40	0	1991245824	48	5715
2026-01-04 12:52:03.31	136.94	8.76	-37.5	-38.6	22.2	0.00e+00	123	40	0	2003828736	48	5939
2026-01-04 12:52:07.35	137.40	8.51	-37.1	-38.1	22.6	0.00e+00	123	40	0	2016411648	48	5601
2026-01-04 12:52:11.38	137.84	8.26	-37.3	-38.3	22.4	0.00e+00	122	41	0	2028994560	48	5765
2026-01-04 12:52:15.42	138.28	8.01	-37.4	-38.4	22.3	0.00e+00	123	40	0	2041577472	48	5820
2026-01-04 12:52:19.46	138.72	7.77	-37.6	-38.7	21.8	0.00e+00	122	40	0	2055208960	48	6016
2026-01-04 12:52:23.49	139.14	7.52	-38.5	-39.6	19.9	0.00e+00	122	40	0	2066743296	48	6679
2026-01-04 12:52:27.53	139.56	7.27	-39.7	-41.0	17.3	0.00e+00	122	40	0	2080374784	50	7022
2026-01-04 12:52:31.57	139.98	7.03	-41.2	-42.8	16.7	2.00e-03	122	40	0	2092957696	54	6846
2026-01-04 12:52:35.61	140.38	6.78	-42.5	-44.6	11.5	3.72e-02	121	40	0	2105540608	56	7522
2026-01-04 12:52:39.65	140.78	6.54	-43.6	-46.3	11.5	1.29e-02	122	40	0	2118123520	58	8111
2026-01-04 12:52:43.68	141.17	6.30	-44.1	-47.1	11.1	6.35e-03	122	40	0	2130706432	60	7969
2026-01-04 12:52:47.72	141.56	6.06	-44.0	-46.8	12.4	3.00e-03	123	40	0	2143289344	60	7701
2026-01-04 12:52:51.76	141.94	5.82	-43.6	-46.1	12.4	2.06e-04	122	40	0	2155872256	60	7100
2026-01-04 12:52:55.79	142.32	5.58	-43.1	-45.4	14.3	2.84e-04	123	40	0	2168455168	60	6501
2026-01-04 12:52:59.83	142.69	5.35	-42.2	-44.1	15.8	0.00e+00	122	40	0	2181038080	58	6333
2026-01-04 12:53:03.87	143.05	5.11	-41.8	-43.6	16.5	0.00e+00	123	40	0	2193620992	56	6713
2026-01-04 12:53:07.90	143.41	4.87	-41.7	-43.4	16.9	0.00e+00	123	41	0	2206203904	56	6558
2026-01-04 12:53:11.94	143.76	4.64	-41.2	-42.8	17.5	0.00e+00	123	41	0	2218786816	56	6067
2026-01-04 12:53:15.98	144.11	4.41	-40.9	-42.5	17.6	0.00e+00	122	40	0	2231369728	54	6585
2026-01-04 12:53:20.02	144.45	4.18	-41.1	-42.6	17.5	0.00e+00	122	40	0	2243952640	54	6719
2026-01-04 12:53:24.06	144.79	3.95	-41.6	-43.3	16.9	0.00e+00	120	41	0	2256535552	54	7268
2026-01-04 12:53:28.10	145.12	3.72	-41.9	-43.7	16.4	0.00e+00	123	40	0	2269118464	56	6770
2026-01-04 12:53:32.13	145.45	3.49	-42.6	-44.6	15.4	0.00e+00	123	41	0	2281701376	56	7508
2026-01-04 12:53:36.16	145.77	3.27	-42.3	-44.3	15.8	0.00e+00	122	40	0	2294284288	58	6446
2026-01-04 12:53:40.20	146.09	3.04	-42.8	-45.0	15.1	0.00e+00	120	40	0	2306867200	58	7032
2026-01-04 12:53:44.24	146.40	2.82	-49.5	-62.4	3.5	1.52e+00	0	41	104	2307915776	60	46051
2026-01-04 12:53:48.28	146.71	2.59	-49.8	-62.7	3.5	1.52e+00	0	40	104	2307915776	60	47888
2026-01-04 12:53:52.32	147.02	2.37	-49.9	-62.7	3.5	1.52e+00	0	41	104	2307915776	60	48154
2026-01-04 12:53:56.36	147.32	2.15	-49.8	-62.7	3.5	1.52e+00	0	41	104	2307915776	60	47848
2026-01-04 12:54:00.39	147.61	1.93	-49.9	-62.7	3.5	1.52e+00	0	40	104	2307915776	60	47965
2026-01-04 12:54:04.43	147.91	1.71	-50.0	-62.9	3.5	1.52e+00	0	41	104	2307915776	60	48792
2026-01-04 12:54:08.47	148.19	1.49	-50.1	-63.0	3.5	1.52e+00	0	41	104	2307915776	60	49547
2026-01-04 12:54:12.51	148.48	1.28	-50.1	-63.0	3.5	1.52e+00	0	40	104	2307915776	60	49490
2026-01-04 12:54:16.55	148.76	1.06	-50.2	-63.1	3.5	1.52e+00	0	40	104	2307915776	60	50302
2026-01-04 12:54:20.58	149.03	0.85	-50.3	-63.2	3.5	1.51e+00	0	40	104	2307915776	60	50839
2026-01-04 12:54:24.62	149.31	0.63	-50.2	-63.0	3.5	1.51e+00	0	41	104	2307915776	60	49839
2026-01-04 12:54:28.66	149.57	0.42	-50.1	-62.9	3.5	1.52e+00	0	41	104	2307915776	60	49292
2026-01-04 12:54:32.70	149.84	0.21	-50.1	-63.0	3.5	1.52e+00	0	41	104	2307915776	60	49678
2026-01-04 12:54:36.74	150.10	0.00	-50.2	-63.0	3.5	1.52e+00	0	41	104	2307915776	60	49824

#Closed at: 2026-01-04 12:54:37
#Recorded file [2307 MB]: D:/lorett/data/35029_260105_004032.dat