passes_logs/2026/01/04/R4.6S_Anadyr/R4.6S_Anadyr__20260104_230600_SUOMI_NPP_rec.log

#Pass ID: 20260104_230600_SUOMI NPP
#Satellite: SUOMI NPP
#Configuration: NPP
#almurnet v.1.7.20251203
#Start time: 2026-01-04 23:06:02

#Version: 2.2.20231116
#Station: R4.6S_Anadyr
#Location: 177.4865 lon 64.73178 lat
#TLE: 1 37849U 11061A   26001.07732418  .00000182  00000+0  10735-3 0  9990
#TLE: 2 37849  98.7795 303.2470 0002580  87.2016 272.9455 14.19520779734739

#Time	Az	El	Level	Level2	SNR	BER	BlckErr	Temp	State	Recorded	gain1	gain2
2026-01-04 23:06:02.49	127.19	0.11	-48.9	-61.4	3.4	1.51e+00	0	29	0	0	60	41122
2026-01-04 23:06:06.53	127.07	0.35	-48.9	-64.1	3.6	1.51e+00	0	31	104	0	60	58137
2026-01-04 23:06:10.56	126.95	0.59	-48.7	-63.9	3.6	1.51e+00	0	31	104	0	60	56641
2026-01-04 23:06:14.60	126.83	0.83	-48.3	-63.7	3.6	1.51e+00	0	31	104	0	60	55372
2026-01-04 23:06:18.63	126.71	1.07	-47.1	-62.3	3.6	1.51e+00	0	31	104	0	60	46983
2026-01-04 23:06:22.68	126.58	1.32	-47.1	-62.3	3.6	1.51e+00	0	31	104	0	60	47285
2026-01-04 23:06:26.72	126.46	1.57	-47.1	-62.2	3.6	1.51e+00	0	31	104	0	60	46607
2026-01-04 23:06:30.75	126.33	1.81	-47.1	-62.3	3.6	1.51e+00	0	31	104	0	60	47102
2026-01-04 23:06:34.79	126.20	2.07	-47.1	-62.0	3.6	1.51e+00	0	31	104	0	60	45656
2026-01-04 23:06:38.83	126.06	2.32	-47.1	-62.3	3.6	1.51e+00	0	31	104	0	60	46880
2026-01-04 23:06:42.87	125.92	2.57	-47.1	-62.2	3.5	1.51e+00	0	31	104	0	60	46606
2026-01-04 23:06:46.91	125.78	2.83	-47.1	-61.5	3.6	1.51e+00	0	31	104	0	60	43122
2026-01-04 23:06:50.95	125.64	3.09	-47.1	-62.1	3.6	1.51e+00	0	31	104	0	60	46121
2026-01-04 23:06:54.99	125.50	3.36	-46.7	-56.3	5.5	1.30e+00	0	31	104	1048576	60	23581
2026-01-04 23:06:59.03	125.35	3.62	-44.3	-47.6	13.6	1.04e-03	92	31	0	7340032	60	8683
2026-01-04 23:07:03.07	125.20	3.89	-46.8	-57.9	4.3	4.59e-01	71	31	104	9437184	60	28262
2026-01-04 23:07:07.10	125.04	4.16	-40.5	-42.0	19.0	0.00e+00	92	31	0	11534336	54	6460
2026-01-04 23:07:11.14	124.89	4.43	-40.7	-42.2	19.1	0.00e+00	0	31	0	19922944	54	6584
2026-01-04 23:07:15.18	124.73	4.70	-40.1	-41.5	19.7	0.00e+00	91	31	0	27262976	54	6099
2026-01-04 23:07:19.22	124.56	4.98	-40.9	-42.5	18.9	0.00e+00	92	31	0	34603008	54	6813
2026-01-04 23:07:23.25	124.40	5.26	-40.5	-42.0	19.0	0.00e+00	0	31	0	41943040	54	6459
2026-01-04 23:07:27.29	124.23	5.54	-40.1	-41.5	19.5	0.00e+00	0	31	0	49283072	54	6061
2026-01-04 23:07:31.33	124.05	5.83	-40.1	-41.5	19.7	0.00e+00	91	31	0	57671680	54	6064
2026-01-04 23:07:35.37	123.87	6.12	-40.0	-41.4	20.0	0.00e+00	92	31	0	65011712	54	6033
2026-01-04 23:07:39.41	123.69	6.41	-40.1	-41.5	19.8	0.00e+00	0	31	0	72351744	54	6081
2026-01-04 23:07:43.46	123.51	6.70	-40.0	-41.4	20.1	0.00e+00	16	31	0	79691776	54	5966
2026-01-04 23:07:47.50	123.32	7.00	-40.0	-41.3	20.1	0.00e+00	92	31	0	88080384	54	5931
2026-01-04 23:07:51.53	123.12	7.30	-40.1	-41.4	20.2	0.00e+00	92	31	0	95420416	52	6758
2026-01-04 23:07:55.56	122.93	7.60	-39.7	-41.0	20.6	0.00e+00	0	31	0	102760448	52	6394
2026-01-04 23:07:59.60	122.72	7.91	-39.5	-40.7	20.7	0.00e+00	92	31	0	110100480	52	6239
2026-01-04 23:08:03.64	122.52	8.22	-39.6	-40.8	20.8	0.00e+00	90	31	0	117440512	52	6256
2026-01-04 23:08:07.68	122.31	8.53	-39.2	-40.3	21.3	0.00e+00	27	31	0	125829120	52	5944
2026-01-04 23:08:11.72	122.09	8.85	-39.3	-40.5	21.3	0.00e+00	0	31	0	133169152	52	6056
2026-01-04 23:08:15.76	121.87	9.17	-39.6	-40.8	20.8	0.00e+00	90	31	0	140509184	50	7071
2026-01-04 23:08:19.80	121.64	9.50	-39.4	-40.6	21.2	0.00e+00	92	31	0	147849216	52	6151
2026-01-04 23:08:23.83	121.41	9.83	-38.9	-40.0	21.7	0.00e+00	0	31	0	156237824	52	5736
2026-01-04 23:08:27.87	121.17	10.16	-39.2	-40.4	21.5	0.00e+00	0	32	0	163577856	52	5965
2026-01-04 23:08:31.91	120.93	10.50	-39.1	-40.2	21.6	0.00e+00	92	32	0	170917888	52	5888
2026-01-04 23:08:35.95	120.68	10.84	-38.7	-39.8	21.9	0.00e+00	92	32	0	178257920	50	6278
2026-01-04 23:08:39.99	120.42	11.18	-38.8	-39.8	22.0	0.00e+00	0	31	0	185597952	50	6313
2026-01-04 23:08:44.03	120.16	11.53	-38.7	-39.7	22.0	0.00e+00	26	31	0	193986560	50	6230
2026-01-04 23:08:48.06	119.89	11.88	-38.3	-39.3	22.4	0.00e+00	38	32	0	201326592	50	5961
2026-01-04 23:08:52.10	119.62	12.24	-38.2	-39.2	22.3	0.00e+00	90	32	0	208666624	50	5886
2026-01-04 23:08:56.14	119.33	12.61	-38.5	-39.6	22.2	0.00e+00	0	32	0	216006656	50	6156
2026-01-04 23:09:00.18	119.04	12.97	-38.2	-39.2	22.5	0.00e+00	92	32	0	224395264	50	5843
2026-01-04 23:09:04.22	118.74	13.35	-38.1	-39.1	22.5	0.00e+00	92	32	0	231735296	50	5768
2026-01-04 23:09:08.25	118.44	13.72	-38.6	-39.6	22.2	0.00e+00	0	32	0	239075328	50	6170
2026-01-04 23:09:12.29	118.13	14.11	-38.1	-39.1	22.6	0.00e+00	8	31	0	246415360	50	5787
2026-01-04 23:09:16.33	117.80	14.49	-38.3	-39.3	22.4	0.00e+00	90	32	0	253755392	50	5939
2026-01-04 23:09:20.37	117.47	14.89	-38.8	-39.9	22.1	0.00e+00	92	32	0	262144000	50	6319
2026-01-04 23:09:24.41	117.13	15.29	-38.2	-39.2	22.5	0.00e+00	0	32	0	269484032	50	5872
2026-01-04 23:09:28.45	116.78	15.69	-38.7	-39.8	22.1	0.00e+00	7	32	0	276824064	50	6267
2026-01-04 23:09:32.49	116.42	16.10	-38.5	-39.5	22.3	0.00e+00	92	31	0	284164096	50	6086
2026-01-04 23:09:36.53	116.05	16.52	-37.9	-38.9	22.9	0.00e+00	92	31	0	292552704	50	5631
2026-01-04 23:09:40.57	115.67	16.94	-38.2	-39.2	22.5	0.00e+00	0	32	0	299892736	50	5887
2026-01-04 23:09:44.60	115.28	17.36	-38.5	-39.5	22.4	0.00e+00	92	32	0	307232768	50	6065
2026-01-04 23:09:48.64	114.87	17.80	-37.9	-38.9	22.8	0.00e+00	90	32	0	314572800	50	5643
2026-01-04 23:09:52.68	114.46	18.24	-38.3	-39.3	22.6	0.00e+00	0	32	0	321912832	50	5923
2026-01-04 23:09:56.72	114.03	18.68	-38.4	-39.5	22.4	0.00e+00	0	32	0	330301440	50	6040
2026-01-04 23:10:00.76	113.58	19.13	-38.3	-39.3	22.6	0.00e+00	90	32	0	337641472	50	5898
2026-01-04 23:10:04.79	113.13	19.59	-38.9	-39.9	22.1	0.00e+00	90	31	0	344981504	50	6357
2026-01-04 23:10:08.83	112.66	20.06	-38.4	-39.3	22.4	0.00e+00	0	31	0	352321536	50	5960
2026-01-04 23:10:12.86	112.18	20.53	-38.2	-39.2	22.4	0.00e+00	0	32	0	360710144	50	5876
2026-01-04 23:10:16.90	111.67	21.01	-38.4	-39.4	22.4	0.00e+00	44	31	0	368050176	50	5992
2026-01-04 23:10:20.94	111.16	21.49	-38.9	-40.0	22.1	0.00e+00	90	31	0	375390208	50	6431
2026-01-04 23:10:24.99	110.62	21.99	-39.2	-40.3	21.8	0.00e+00	0	32	0	382730240	50	6667
2026-01-04 23:10:29.02	110.07	22.49	-38.1	-39.1	22.7	0.00e+00	27	32	0	390070272	50	5799
2026-01-04 23:10:33.07	109.50	22.99	-39.1	-40.2	21.9	0.00e+00	90	32	0	398458880	50	6603
2026-01-04 23:10:37.11	108.91	23.51	-38.7	-39.7	22.2	0.00e+00	0	32	0	405798912	50	6229
2026-01-04 23:10:41.15	108.30	24.03	-39.0	-40.2	22.0	0.00e+00	0	31	0	413138944	50	6542
2026-01-04 23:10:45.18	107.67	24.55	-37.7	-38.6	23.0	0.00e+00	86	31	0	420478976	48	6136
2026-01-04 23:10:49.22	107.02	25.09	-38.5	-39.5	22.4	0.00e+00	92	32	0	428867584	50	6054
2026-01-04 23:10:53.26	106.35	25.63	-39.1	-40.2	21.7	0.00e+00	19	32	0	436207616	50	6553
2026-01-04 23:10:57.30	105.65	26.17	-38.5	-39.5	22.5	0.00e+00	0	32	0	443547648	50	6075
2026-01-04 23:11:01.34	104.92	26.73	-38.9	-39.9	22.0	0.00e+00	90	32	0	450887680	50	6373
2026-01-04 23:11:05.38	104.17	27.28	-38.9	-40.0	22.1	0.00e+00	92	31	0	458227712	50	6406
2026-01-04 23:11:09.42	103.40	27.85	-39.1	-40.2	21.9	0.00e+00	0	32	0	466616320	50	6586
2026-01-04 23:11:13.46	102.59	28.42	-39.8	-41.0	21.2	0.00e+00	23	32	0	473956352	52	6433
2026-01-04 23:11:17.50	101.75	29.00	-40.1	-41.2	21.1	0.00e+00	72	32	0	481296384	52	6606
2026-01-04 23:11:21.54	100.89	29.58	-41.6	-43.1	19.1	0.00e+00	92	32	0	488636416	54	7332
2026-01-04 23:11:25.57	99.99	30.16	-41.4	-42.9	19.6	0.00e+00	0	32	0	497025024	56	6331
2026-01-04 23:11:29.61	99.06	30.75	-41.4	-42.9	19.6	0.00e+00	92	32	0	504365056	56	6344
2026-01-04 23:11:33.65	98.09	31.34	-41.9	-43.5	19.1	0.00e+00	90	32	0	511705088	56	6837
2026-01-04 23:11:37.68	97.09	31.93	-40.7	-42.0	20.5	0.00e+00	0	32	0	519045120	54	6457
2026-01-04 23:11:41.72	96.05	32.53	-41.3	-42.8	19.7	0.00e+00	6	32	0	526385152	54	7037
2026-01-04 23:11:45.75	94.97	33.12	-39.2	-40.2	22.0	0.00e+00	90	32	0	534773760	52	5870
2026-01-04 23:11:49.79	93.85	33.72	-39.5	-40.6	21.7	0.00e+00	90	32	0	542113792	52	6151
2026-01-04 23:11:53.83	92.69	34.31	-40.0	-41.2	21.2	0.00e+00	0	32	0	549453824	52	6570
2026-01-04 23:11:57.87	91.48	34.90	-39.4	-40.5	21.6	0.00e+00	0	32	0	556793856	52	6075
2026-01-04 23:12:01.91	90.23	35.49	-39.9	-41.2	21.2	0.00e+00	27	32	0	565182464	52	6542
2026-01-04 23:12:05.95	88.94	36.07	-40.2	-41.4	20.8	0.00e+00	92	32	0	572522496	52	6755
2026-01-04 23:12:09.99	87.59	36.65	-41.2	-42.6	19.7	0.00e+00	0	32	0	579862528	54	6883
2026-01-04 23:12:14.02	86.21	37.21	-41.3	-42.8	19.8	0.00e+00	92	32	0	587202560	56	6274
2026-01-04 23:12:18.06	84.76	37.77	-40.5	-41.8	20.6	0.00e+00	40	32	0	594542592	54	6293
2026-01-04 23:12:22.10	83.27	38.31	-39.1	-40.1	22.0	0.00e+00	0	32	0	602931200	52	5809
2026-01-04 23:12:26.14	81.73	38.84	-39.4	-40.6	21.6	0.00e+00	0	32	0	610271232	52	6145
2026-01-04 23:12:30.17	80.15	39.35	-38.3	-39.3	22.7	0.00e+00	92	32	0	617611264	50	5922
2026-01-04 23:12:34.21	78.51	39.84	-38.2	-39.2	22.8	0.00e+00	91	31	0	624951296	50	5875
2026-01-04 23:12:38.25	76.82	40.32	-38.0	-39.0	22.8	0.00e+00	0	32	0	632291328	50	5703
2026-01-04 23:12:42.29	75.08	40.76	-39.3	-40.5	21.7	0.00e+00	0	32	0	640679936	50	6814
2026-01-04 23:12:46.33	73.29	41.19	-37.2	-38.1	23.5	0.00e+00	92	32	0	648019968	48	5800
2026-01-04 23:12:50.36	71.46	41.58	-36.3	-37.1	24.4	0.00e+00	49	32	0	655360000	46	5773
2026-01-04 23:12:54.40	69.59	41.95	-37.1	-38.0	23.7	0.00e+00	0	32	0	662700032	46	6423
2026-01-04 23:12:58.45	67.66	42.28	-39.1	-40.3	21.9	0.00e+00	30	32	0	671088640	50	6624
2026-01-04 23:13:02.48	65.71	42.58	-39.5	-40.8	21.4	0.00e+00	90	32	0	678428672	50	7009
2026-01-04 23:13:06.53	63.72	42.85	-38.0	-39.1	22.7	0.00e+00	0	32	0	685768704	48	6468
2026-01-04 23:13:10.56	61.70	43.07	-39.6	-40.8	21.6	0.00e+00	0	32	0	693108736	50	7009
2026-01-04 23:13:14.60	59.65	43.26	-38.1	-39.1	22.9	0.00e+00	90	32	0	700448768	48	6466
2026-01-04 23:13:18.64	57.59	43.40	-39.5	-40.7	21.6	0.00e+00	92	32	0	708837376	50	6936
2026-01-04 23:13:22.68	55.50	43.50	-39.9	-41.2	21.2	0.00e+00	0	32	0	716177408	52	6570
2026-01-04 23:13:26.72	53.41	43.57	-40.1	-41.4	20.9	0.00e+00	0	32	0	723517440	52	6704
2026-01-04 23:13:30.75	51.31	43.58	-38.5	-39.4	22.5	0.00e+00	91	32	0	730857472	50	6032
2026-01-04 23:13:34.79	49.21	43.56	-40.1	-41.3	21.0	0.00e+00	59	32	0	739246080	52	6687
2026-01-04 23:13:38.83	47.12	43.49	-40.6	-42.1	19.8	0.00e+00	0	32	0	746586112	54	6474
2026-01-04 23:13:42.86	45.05	43.38	-40.8	-42.2	20.1	0.00e+00	29	32	0	753926144	54	6596
2026-01-04 23:13:46.90	42.98	43.23	-41.1	-42.6	19.7	0.00e+00	92	32	0	761266176	54	6887
2026-01-04 23:13:50.94	40.94	43.03	-41.4	-42.9	19.7	0.00e+00	0	32	0	768606208	56	6384
2026-01-04 23:13:54.97	38.93	42.80	-41.8	-43.7	18.6	0.00e+00	0	32	0	776994816	56	6954
2026-01-04 23:13:59.02	36.95	42.53	-38.0	-39.0	22.8	0.00e+00	92	32	0	784334848	50	5738
2026-01-04 23:14:03.06	35.00	42.22	-37.8	-38.8	23.1	0.00e+00	92	32	0	791674880	48	6262
2026-01-04 23:14:07.09	33.10	41.89	-37.5	-38.5	23.4	0.00e+00	0	32	0	799014912	46	6798
2026-01-04 23:14:11.13	31.23	41.51	-36.5	-37.4	24.1	0.00e+00	0	32	0	807403520	46	5987
2026-01-04 23:14:15.17	29.41	41.11	-38.0	-39.1	22.9	0.00e+00	14	32	0	814743552	48	6466
2026-01-04 23:14:19.21	27.63	40.69	-35.7	-36.5	24.8	0.00e+00	92	32	0	822083584	44	6069
2026-01-04 23:14:23.25	25.91	40.23	-36.5	-37.4	24.1	0.00e+00	0	32	0	829423616	44	6697
2026-01-04 23:14:27.29	24.23	39.76	-35.4	-36.2	24.9	0.00e+00	17	32	0	836763648	44	5842
2026-01-04 23:14:31.33	22.60	39.26	-36.7	-37.6	24.0	0.00e+00	92	32	0	845152256	44	6887
2026-01-04 23:14:35.37	21.02	38.75	-35.7	-36.5	24.7	0.00e+00	0	32	0	852492288	44	6083
2026-01-04 23:14:39.41	19.50	38.22	-37.1	-38.0	23.7	0.00e+00	0	32	0	859832320	46	6441
2026-01-04 23:14:43.45	18.02	37.67	-37.6	-38.6	23.3	0.00e+00	92	32	0	867172352	48	6132
2026-01-04 23:14:47.49	16.59	37.12	-37.2	-38.2	23.5	0.00e+00	92	32	0	875560960	48	5856
2026-01-04 23:14:51.53	15.21	36.55	-37.3	-38.2	23.5	0.00e+00	0	32	0	882900992	48	5879
2026-01-04 23:14:55.57	13.88	35.98	-36.8	-37.6	23.8	0.00e+00	0	32	0	890241024	48	5472
2026-01-04 23:14:59.61	12.60	35.40	-37.0	-37.9	23.7	0.00e+00	23	32	0	897581056	48	5652
2026-01-04 23:15:03.64	11.36	34.81	-39.0	-40.1	22.0	0.00e+00	0	32	0	904921088	50	6496
2026-01-04 23:15:07.68	10.16	34.22	-38.3	-39.2	22.8	0.00e+00	0	32	0	913309696	48	6569
2026-01-04 23:15:11.72	9.01	33.63	-40.3	-41.6	20.8	0.00e+00	9	32	0	920649728	52	6861
2026-01-04 23:15:15.76	7.90	33.04	-40.3	-41.6	20.6	0.00e+00	88	32	0	927989760	54	6142
2026-01-04 23:15:19.80	6.83	32.44	-42.0	-43.7	19.1	0.00e+00	0	32	0	935329792	56	6975
2026-01-04 23:15:23.84	5.80	31.85	-40.4	-41.6	20.5	0.00e+00	0	32	0	943718400	54	6167
2026-01-04 23:15:27.87	4.81	31.26	-39.9	-41.0	21.1	0.00e+00	47	32	0	951058432	52	6460
2026-01-04 23:15:31.91	3.86	30.67	-39.7	-40.8	21.5	0.00e+00	0	32	0	958398464	52	6305
2026-01-04 23:15:35.95	2.93	30.08	-39.9	-41.1	21.4	0.00e+00	0	32	0	965738496	52	6524
2026-01-04 23:15:39.99	2.04	29.50	-39.9	-41.0	21.5	0.00e+00	0	32	0	973078528	52	6435
2026-01-04 23:15:44.03	1.19	28.93	-39.5	-40.6	21.5	0.00e+00	23	32	0	981467136	50	6874
2026-01-04 23:15:48.07	0.36	28.35	-39.4	-40.6	21.3	0.00e+00	0	32	0	988807168	50	6875
2026-01-04 23:15:52.11	359.56	27.78	-39.7	-40.9	21.0	0.00e+00	0	32	0	996147200	52	6332
2026-01-04 23:15:56.15	358.79	27.22	-38.9	-40.0	22.2	0.00e+00	0	32	0	1003487232	52	5729
2026-01-04 23:16:00.18	358.05	26.67	-37.7	-38.7	23.0	0.00e+00	74	32	0	1011875840	48	6187
2026-01-04 23:16:04.22	357.34	26.12	-39.5	-40.7	21.4	0.00e+00	0	32	0	1019215872	50	6946
2026-01-04 23:16:08.26	356.64	25.57	-39.0	-40.0	22.0	0.00e+00	0	32	0	1026555904	52	5760
2026-01-04 23:16:12.30	355.98	25.04	-37.8	-38.8	23.1	0.00e+00	25	32	0	1033895936	48	6259
2026-01-04 23:16:16.34	355.33	24.51	-39.0	-40.1	22.0	0.00e+00	92	32	0	1041235968	50	6496
2026-01-04 23:16:20.38	354.71	23.98	-39.0	-40.1	22.0	0.00e+00	0	32	0	1049624576	50	6468
2026-01-04 23:16:24.42	354.10	23.47	-40.2	-41.5	20.7	0.00e+00	0	32	0	1056964608	52	6839
2026-01-04 23:16:28.46	353.52	22.96	-40.1	-41.3	20.9	0.00e+00	90	32	0	1064304640	52	6659
2026-01-04 23:16:32.50	352.96	22.45	-38.5	-39.5	22.4	0.00e+00	0	32	0	1071644672	50	6075
2026-01-04 23:16:36.54	352.41	21.96	-38.1	-39.0	22.8	0.00e+00	0	32	0	1080033280	50	5760
2026-01-04 23:16:40.58	351.88	21.47	-38.2	-39.3	22.4	0.00e+00	0	32	0	1087373312	50	5900
2026-01-04 23:16:44.62	351.37	20.98	-38.8	-39.9	22.2	0.00e+00	90	32	0	1094713344	50	6328
2026-01-04 23:16:48.66	350.88	20.51	-38.1	-39.1	22.8	0.00e+00	0	32	0	1102053376	50	5775
2026-01-04 23:16:52.70	350.40	20.04	-38.8	-39.9	22.0	0.00e+00	0	32	0	1109393408	50	6362
2026-01-04 23:16:56.74	349.93	19.58	-40.7	-42.1	20.0	0.00e+00	14	32	0	1117782016	52	7325
2026-01-04 23:17:00.77	349.48	19.12	-40.4	-41.8	20.3	0.00e+00	90	32	0	1125122048	54	6267
2026-01-04 23:17:04.81	349.05	18.67	-39.5	-40.7	21.3	0.00e+00	0	32	0	1132462080	52	6203
2026-01-04 23:17:08.85	348.62	18.23	-39.0	-40.1	21.9	0.00e+00	0	32	0	1139802112	52	5809
2026-01-04 23:17:12.89	348.21	17.79	-38.6	-39.6	22.1	0.00e+00	75	32	0	1148190720	50	6152
2026-01-04 23:17:16.92	347.81	17.36	-38.6	-39.6	22.2	0.00e+00	0	32	0	1155530752	50	6169
2026-01-04 23:17:20.96	347.42	16.94	-39.1	-40.2	21.6	0.00e+00	0	32	0	1162870784	50	6591
2026-01-04 23:17:25.00	347.05	16.52	-39.0	-40.1	21.7	0.00e+00	0	32	0	1170210816	50	6495
2026-01-04 23:17:29.04	346.68	16.10	-39.0	-40.1	21.7	0.00e+00	92	32	0	1177550848	50	6532
2026-01-04 23:17:33.08	346.32	15.70	-39.3	-40.4	21.5	0.00e+00	0	32	0	1185939456	50	6742
2026-01-04 23:17:37.12	345.98	15.29	-40.2	-41.5	20.6	0.00e+00	0	32	0	1193279488	52	6789
2026-01-04 23:17:41.16	345.64	14.90	-40.9	-42.4	19.6	0.00e+00	0	32	0	1200619520	54	6717
2026-01-04 23:17:45.20	345.31	14.51	-40.2	-41.5	20.4	0.00e+00	81	32	0	1207959552	54	6070
2026-01-04 23:17:49.24	345.00	14.12	-39.6	-40.8	21.0	0.00e+00	0	32	0	1216348160	52	6283
2026-01-04 23:17:53.28	344.69	13.74	-39.2	-40.3	21.5	0.00e+00	0	32	0	1223688192	52	5930
2026-01-04 23:17:57.31	344.39	13.36	-39.4	-40.5	21.3	0.00e+00	22	32	0	1231028224	52	6082
2026-01-04 23:18:01.35	344.09	12.99	-39.5	-40.7	21.2	0.00e+00	89	32	0	1238368256	52	6189
2026-01-04 23:18:05.39	343.81	12.63	-39.6	-40.9	20.9	0.00e+00	0	32	0	1245708288	52	6321
2026-01-04 23:18:09.43	343.53	12.27	-39.9	-41.2	20.6	0.00e+00	0	32	0	1254096896	52	6584
2026-01-04 23:18:13.46	343.26	11.91	-40.2	-41.5	20.4	0.00e+00	90	32	0	1261436928	52	6797
2026-01-04 23:18:17.50	342.99	11.56	-40.5	-41.8	20.1	0.00e+00	0	32	0	1268776960	52	7048
2026-01-04 23:18:21.54	342.73	11.21	-40.5	-41.8	20.0	0.00e+00	0	32	0	1276116992	52	7059
2026-01-04 23:18:25.57	342.48	10.87	-40.5	-41.8	20.1	0.00e+00	0	32	0	1284505600	52	7053
2026-01-04 23:18:29.61	342.24	10.53	-40.7	-42.1	19.7	0.00e+00	76	32	0	1291845632	54	6487
2026-01-04 23:18:33.65	342.00	10.19	-40.2	-41.5	20.4	0.00e+00	0	32	0	1299185664	54	6079
2026-01-04 23:18:37.69	341.76	9.86	-40.2	-41.5	20.3	0.00e+00	0	32	0	1306525696	54	6070
2026-01-04 23:18:41.73	341.53	9.53	-40.2	-41.5	20.4	0.00e+00	48	32	0	1313865728	54	6042
2026-01-04 23:18:45.77	341.31	9.21	-40.2	-41.5	20.3	0.00e+00	1	32	0	1322254336	54	6052
2026-01-04 23:18:49.80	341.09	8.89	-40.9	-42.4	19.6	0.00e+00	0	32	0	1329594368	54	6730
2026-01-04 23:18:53.85	340.88	8.57	-40.5	-41.9	19.9	0.00e+00	0	32	0	1336934400	54	6348
2026-01-04 23:18:57.89	340.67	8.26	-40.7	-42.2	19.6	0.00e+00	44	32	0	1344274432	54	6591
2026-01-04 23:19:01.93	340.47	7.95	-41.2	-42.8	19.0	0.00e+00	0	32	0	1352663040	54	7026
2026-01-04 23:19:05.96	340.27	7.65	-41.5	-43.2	18.7	0.00e+00	0	32	0	1360003072	56	6571
2026-01-04 23:19:10.00	340.08	7.34	-41.5	-43.2	18.5	0.00e+00	0	32	0	1367343104	56	6569
2026-01-04 23:19:14.04	339.89	7.05	-41.8	-43.5	18.3	0.00e+00	46	32	0	1374683136	56	6826
2026-01-04 23:19:18.08	339.70	6.75	-41.5	-43.2	18.6	0.00e+00	0	32	0	1382023168	56	6601
2026-01-04 23:19:22.12	339.52	6.46	-41.5	-43.2	18.6	0.00e+00	0	32	0	1390411776	56	6578
2026-01-04 23:19:26.16	339.34	6.17	-41.4	-43.0	18.6	0.00e+00	0	32	0	1397751808	56	6457
2026-01-04 23:19:30.20	339.17	5.88	-41.1	-42.8	18.6	0.00e+00	79	32	0	1405091840	56	6269
2026-01-04 23:19:34.24	339.00	5.59	-41.7	-43.5	17.7	0.00e+00	0	32	0	1412431872	56	6834
2026-01-04 23:19:38.28	338.83	5.31	-41.9	-44.0	16.8	0.00e+00	0	32	0	1420820480	56	7217
2026-01-04 23:19:42.32	338.67	5.03	-42.8	-45.8	14.6	7.00e-07	55	32	0	1428160512	58	7876
2026-01-04 23:19:46.36	338.51	4.76	-43.4	-47.7	11.6	2.37e-04	0	32	0	1435500544	58	9794
2026-01-04 23:19:50.39	338.35	4.48	-43.9	-50.1	8.3	4.32e-02	0	32	0	1442840576	60	11530
2026-01-04 23:19:54.43	338.20	4.21	-43.9	-53.0	4.5	5.63e-01	0	32	0	1450180608	60	16224
2026-01-04 23:19:58.47	338.05	3.94	-43.8	-57.1	3.6	1.51e+00	0	32	104	1453326336	60	25750
2026-01-04 23:20:02.50	337.90	3.68	-43.7	-58.4	3.6	1.51e+00	0	32	104	1453326336	60	29909
2026-01-04 23:20:06.54	337.76	3.42	-43.8	-58.7	3.6	1.51e+00	0	32	104	1453326336	60	31028
2026-01-04 23:20:10.58	337.62	3.15	-43.6	-58.8	3.6	1.51e+00	0	32	104	1453326336	60	31505
2026-01-04 23:20:14.62	337.48	2.89	-48.0	-63.2	3.6	1.51e+00	0	32	104	1453326336	60	52198
2026-01-04 23:20:18.66	337.34	2.64	-48.8	-64.0	3.6	1.51e+00	0	32	104	1453326336	60	57267
2026-01-04 23:20:22.69	337.21	2.38	-48.7	-64.2	3.6	1.51e+00	0	32	104	1453326336	60	58763
2026-01-04 23:20:26.73	337.08	2.13	-48.8	-63.9	3.6	1.51e+00	0	32	104	1453326336	60	56902
2026-01-04 23:20:30.77	336.95	1.88	-48.8	-63.9	3.6	1.51e+00	0	32	104	1453326336	60	56675
2026-01-04 23:20:34.81	336.82	1.63	-48.9	-64.0	3.6	1.51e+00	0	32	104	1453326336	60	57536
2026-01-04 23:20:38.85	336.70	1.38	-49.0	-64.1	3.6	1.51e+00	0	32	104	1453326336	60	58073
2026-01-04 23:20:42.89	336.58	1.14	-48.8	-64.0	3.6	1.51e+00	0	32	104	1453326336	60	57428
2026-01-04 23:20:46.93	336.46	0.90	-49.0	-64.2	3.6	1.51e+00	0	32	104	1453326336	60	58714
2026-01-04 23:20:50.97	336.34	0.66	-48.8	-64.0	3.6	1.51e+00	0	32	104	1453326336	60	57278
2026-01-04 23:20:55.01	336.23	0.42	-48.8	-64.0	3.6	1.51e+00	0	32	104	1453326336	60	57351
2026-01-04 23:20:59.04	336.12	0.18	-48.7	-63.9	3.6	1.51e+00	0	32	104	1453326336	60	56902

#Closed at: 2026-01-04 23:21:02
#Recorded file [1453 MB]: D:/lorett/data/35029_260105_110602.dat