passes_logs/2026/01/04/R4.6S_Anadyr/R4.6S_Anadyr__20260104_031659_AQUA_rec.log

#Pass ID: 20260104_031659_AQUA
#Satellite: AQUA
#Configuration: AQUA
#almurnet v.1.7.20251203
#Start time: 2026-01-04 03:17:01

#Version: 2.2.20231116
#Station: R4.6S_Anadyr
#Location: 177.4865 lon 64.73178 lat
#TLE: 1 27424U 02022A   25365.92641127  .00002078  00000+0  42628-3 0  9999
#TLE: 2 27424  98.4058 327.1196 0001962  94.7781 340.6230 14.61783896258835

#Time	Az	El	Level	Level2	SNR	BER	BlckErr	Temp	State	Recorded	gain1	gain2
2026-01-04 03:17:01.33	192.80	0.09	-52.2	-67.1	3.5	1.51e+00	0	36	0	0	60	82059
2026-01-04 03:17:05.36	193.00	0.32	-52.7	-70.6	3.5	3.02e+01	0	37	104	0	60	129911
2026-01-04 03:17:09.40	193.21	0.56	-52.0	-69.9	3.5	3.02e+01	0	38	104	0	60	120026
2026-01-04 03:17:13.44	193.43	0.80	-50.7	-68.6	3.5	3.02e+01	0	38	104	0	60	103123
2026-01-04 03:17:17.48	193.65	1.04	-49.7	-67.5	3.5	3.02e+01	0	38	104	0	60	91057
2026-01-04 03:17:21.53	193.87	1.28	-50.0	-67.6	3.5	3.02e+01	0	38	104	0	60	92195
2026-01-04 03:17:25.56	194.10	1.53	-49.8	-67.3	3.5	3.02e+01	0	38	104	0	60	88829
2026-01-04 03:17:29.60	194.33	1.77	-50.8	-68.8	3.5	3.02e+01	0	38	104	0	60	105476
2026-01-04 03:17:33.64	194.56	2.02	-50.1	-68.0	3.5	3.02e+01	0	38	104	0	60	96138
2026-01-04 03:17:37.68	194.80	2.27	-50.5	-68.3	3.5	3.02e+01	0	38	104	0	60	100086
2026-01-04 03:17:41.72	195.04	2.52	-49.9	-67.6	3.5	3.02e+01	0	38	104	0	60	92304
2026-01-04 03:17:45.76	195.29	2.78	-49.6	-66.2	3.5	3.02e+01	0	38	104	0	60	78958
2026-01-04 03:17:49.80	195.54	3.04	-49.3	-63.3	4.4	3.02e+01	0	38	104	0	60	56522
2026-01-04 03:17:53.84	195.79	3.29	-47.3	-51.9	15.1	3.02e+01	92	38	0	3145728	60	15071
2026-01-04 03:17:57.87	196.05	3.55	-42.5	-44.4	22.5	3.02e+01	92	38	0	10485760	60	6422
2026-01-04 03:18:01.90	196.32	3.82	-41.2	-43.1	23.3	3.02e+01	90	38	104	16252928	54	7778
2026-01-04 03:18:05.94	196.59	4.08	-42.2	-44.0	23.1	3.02e+01	90	38	0	23592960	60	6120
2026-01-04 03:18:09.98	196.86	4.35	-43.5	-45.2	23.5	3.02e+01	88	38	0	30932992	60	7029
2026-01-04 03:18:14.01	197.14	4.62	-41.7	-43.3	24.9	3.02e+01	92	38	0	38797312	58	6326
2026-01-04 03:18:18.05	197.43	4.90	-41.2	-42.7	25.2	3.02e+01	92	38	0	46137344	58	5899
2026-01-04 03:18:22.09	197.72	5.17	-40.7	-42.2	25.2	3.02e+01	91	38	0	54001664	56	6227
2026-01-04 03:18:26.13	198.02	5.45	-41.5	-43.1	25.1	3.02e+01	92	38	0	61341696	56	6915
2026-01-04 03:18:30.16	198.32	5.73	-40.6	-42.1	26.0	3.02e+01	91	38	0	68681728	56	6140
2026-01-04 03:18:34.20	198.63	6.02	-39.6	-41.0	26.3	3.02e+01	92	38	0	76546048	54	6088
2026-01-04 03:18:38.24	198.95	6.31	-39.2	-40.6	26.5	3.02e+01	92	38	0	83886080	54	5850
2026-01-04 03:18:42.28	199.27	6.60	-39.6	-41.0	26.3	3.02e+01	92	38	0	91750400	54	6104
2026-01-04 03:18:46.32	199.60	6.89	-39.3	-40.7	26.8	3.02e+01	92	38	0	99090432	54	5882
2026-01-04 03:18:50.36	199.94	7.19	-38.7	-40.0	27.0	3.02e+01	92	38	0	106954752	52	6122
2026-01-04 03:18:54.39	200.28	7.48	-38.7	-40.0	26.9	3.02e+01	92	38	0	114294784	52	6128
2026-01-04 03:18:58.43	200.63	7.79	-39.9	-41.4	26.1	3.02e+01	89	38	0	121634816	54	6363
2026-01-04 03:19:02.47	200.99	8.09	-38.6	-39.9	27.1	3.02e+01	90	39	0	129499136	52	6038
2026-01-04 03:19:06.51	201.36	8.40	-38.8	-40.2	27.1	3.02e+01	91	38	0	136839168	52	6218
2026-01-04 03:19:10.55	201.73	8.71	-38.4	-39.7	27.4	3.02e+01	86	39	0	144703488	52	5912
2026-01-04 03:19:14.59	202.11	9.03	-38.5	-39.8	27.4	3.02e+01	91	39	0	152043520	52	5986
2026-01-04 03:19:18.62	202.50	9.35	-38.6	-39.9	27.5	3.02e+01	91	39	0	159907840	52	6004
2026-01-04 03:19:22.66	202.91	9.67	-38.4	-39.7	27.4	3.02e+01	92	39	0	167247872	52	5921
2026-01-04 03:19:26.70	203.32	10.00	-38.3	-39.6	27.7	3.02e+01	91	39	0	175112192	52	5803
2026-01-04 03:19:30.73	203.74	10.33	-38.0	-39.3	27.8	3.02e+01	90	39	0	182452224	50	6327
2026-01-04 03:19:34.77	204.17	10.66	-38.4	-39.6	27.7	3.02e+01	92	39	0	189792256	50	6572
2026-01-04 03:19:38.81	204.61	11.00	-38.0	-39.2	28.2	3.02e+01	92	39	0	197656576	50	6266
2026-01-04 03:19:42.84	205.06	11.34	-37.8	-39.1	28.0	3.02e+01	92	39	0	204996608	50	6138
2026-01-04 03:19:46.88	205.52	11.68	-37.8	-39.0	28.3	3.02e+01	90	39	0	212860928	50	6127
2026-01-04 03:19:50.92	205.99	12.03	-38.3	-39.6	28.2	3.02e+01	89	39	0	220200960	50	6539
2026-01-04 03:19:54.96	206.48	12.39	-37.9	-39.1	28.3	3.02e+01	90	39	0	228065280	50	6194
2026-01-04 03:19:59.00	206.98	12.74	-38.1	-39.4	28.4	3.02e+01	90	39	0	235405312	50	6376
2026-01-04 03:20:03.03	207.49	13.10	-37.5	-38.8	28.6	3.02e+01	92	39	0	243269632	50	5948
2026-01-04 03:20:07.07	208.01	13.47	-37.4	-38.6	28.7	3.02e+01	89	39	0	250609664	50	5837
2026-01-04 03:20:11.10	208.55	13.84	-37.4	-38.6	28.8	3.02e+01	85	39	0	257949696	50	5849
2026-01-04 03:20:15.15	209.10	14.21	-38.1	-39.4	28.8	3.02e+01	92	39	0	265814016	50	6372
2026-01-04 03:20:19.18	209.66	14.59	-37.9	-39.1	28.8	3.02e+01	92	39	0	273154048	50	6172
2026-01-04 03:20:23.22	210.24	14.97	-37.5	-38.8	28.9	3.02e+01	90	39	0	281018368	50	5944
2026-01-04 03:20:27.26	210.84	15.35	-37.2	-38.4	28.8	3.02e+01	90	39	0	288358400	50	5697
2026-01-04 03:20:31.29	211.45	15.74	-37.1	-38.3	28.9	3.02e+01	90	39	0	296222720	48	6336
2026-01-04 03:20:35.33	212.08	16.13	-37.3	-38.6	28.9	3.02e+01	92	39	0	303562752	48	6522
2026-01-04 03:20:39.37	212.73	16.53	-37.3	-38.5	29.0	3.02e+01	92	39	0	311427072	48	6489
2026-01-04 03:20:43.41	213.39	16.93	-37.2	-38.4	29.0	3.02e+01	92	39	0	318767104	48	6411
2026-01-04 03:20:47.45	214.08	17.34	-37.4	-38.6	28.9	3.02e+01	91	39	0	326107136	48	6544
2026-01-04 03:20:51.48	214.78	17.74	-36.9	-38.1	29.1	3.02e+01	91	39	0	333971456	48	6204
2026-01-04 03:20:55.51	215.50	18.15	-36.9	-38.1	29.1	3.02e+01	92	39	0	341311488	48	6155
2026-01-04 03:20:59.55	216.24	18.57	-36.8	-38.1	29.1	3.02e+01	92	39	0	349175808	48	6145
2026-01-04 03:21:03.59	217.01	18.99	-36.8	-38.0	29.1	3.02e+01	91	39	0	356515840	48	6086
2026-01-04 03:21:07.63	217.79	19.41	-36.8	-38.0	29.3	3.02e+01	90	39	0	364380160	48	6097
2026-01-04 03:21:11.66	218.60	19.83	-37.0	-38.2	29.1	3.02e+01	88	39	0	371720192	48	6257
2026-01-04 03:21:15.70	219.43	20.25	-36.8	-38.1	29.1	3.02e+01	92	39	0	379584512	48	6143
2026-01-04 03:21:19.73	220.28	20.68	-37.3	-38.5	29.0	3.02e+01	92	39	0	386924544	48	6470
2026-01-04 03:21:23.77	221.17	21.11	-37.4	-38.6	28.8	3.02e+01	91	39	0	394264576	48	6556
2026-01-04 03:21:27.81	222.07	21.54	-37.5	-38.7	28.8	3.02e+01	92	39	0	402128896	48	6597
2026-01-04 03:21:31.85	223.00	21.97	-37.1	-38.3	29.0	3.02e+01	91	39	0	409468928	48	6343
2026-01-04 03:21:35.89	223.96	22.41	-37.0	-38.2	29.1	3.02e+01	91	39	0	417333248	48	6222
2026-01-04 03:21:39.92	224.95	22.84	-37.0	-38.2	29.0	3.02e+01	92	39	0	424673280	48	6275
2026-01-04 03:21:43.96	225.97	23.27	-37.1	-38.4	28.9	3.02e+01	90	39	0	432537600	48	6366
2026-01-04 03:21:48.00	227.01	23.70	-37.5	-38.7	28.7	3.02e+01	91	39	0	439877632	48	6613
2026-01-04 03:21:52.03	228.08	24.12	-37.5	-38.7	28.9	3.02e+01	90	39	0	447217664	48	6625
2026-01-04 03:21:56.07	229.19	24.55	-37.6	-38.8	28.8	3.02e+01	89	39	0	455081984	50	5967
2026-01-04 03:22:00.11	230.32	24.97	-37.7	-38.9	28.7	3.02e+01	92	39	0	462422016	50	6038
2026-01-04 03:22:04.15	231.49	25.39	-37.4	-38.7	28.7	3.02e+01	91	39	0	470286336	50	5867
2026-01-04 03:22:08.18	232.68	25.80	-37.3	-38.5	28.9	3.02e+01	92	39	0	477626368	50	5745
2026-01-04 03:22:12.22	233.91	26.21	-37.4	-38.7	28.6	3.02e+01	91	39	0	485490688	50	5879
2026-01-04 03:22:16.26	235.18	26.61	-37.3	-38.6	28.7	3.02e+01	92	39	0	492830720	50	5809
2026-01-04 03:22:20.30	236.47	27.00	-37.3	-38.5	28.8	3.02e+01	92	39	0	500695040	50	5751
2026-01-04 03:22:24.33	237.79	27.38	-37.1	-38.4	28.9	3.02e+01	90	39	0	508035072	50	5675
2026-01-04 03:22:28.37	239.15	27.75	-36.9	-38.2	29.0	3.02e+01	91	39	0	515375104	48	6230
2026-01-04 03:22:32.41	240.54	28.10	-37.3	-38.5	28.7	3.02e+01	91	39	0	523239424	48	6481
2026-01-04 03:22:36.45	241.97	28.45	-37.0	-38.3	28.9	3.02e+01	91	39	0	530579456	48	6297
2026-01-04 03:22:40.48	243.42	28.78	-37.3	-38.6	28.8	3.02e+01	90	39	0	538443776	48	6516
2026-01-04 03:22:44.52	244.90	29.09	-37.5	-38.7	28.6	3.02e+01	90	39	0	545783808	48	6623
2026-01-04 03:22:48.56	246.41	29.39	-37.5	-38.7	28.7	3.02e+01	92	39	0	553648128	48	6610
2026-01-04 03:22:52.60	247.95	29.67	-37.1	-38.3	29.1	3.02e+01	92	39	0	560988160	48	6333
2026-01-04 03:22:56.64	249.52	29.94	-37.0	-38.2	29.1	3.02e+01	92	39	0	568852480	48	6253
2026-01-04 03:23:00.67	251.10	30.18	-37.7	-39.0	28.8	3.02e+01	90	39	0	576192512	48	6808
2026-01-04 03:23:04.70	252.71	30.39	-37.1	-38.2	29.3	3.02e+01	90	39	0	583532544	48	6277
2026-01-04 03:23:08.74	254.35	30.59	-36.6	-37.8	29.5	3.02e+01	90	39	0	591396864	48	5952
2026-01-04 03:23:12.78	256.00	30.76	-36.9	-38.1	29.6	3.02e+01	88	39	0	598736896	48	6160
2026-01-04 03:23:16.82	257.67	30.91	-36.9	-38.1	29.5	3.02e+01	91	39	0	606601216	48	6136
2026-01-04 03:23:20.86	259.36	31.04	-36.6	-37.8	29.6	3.02e+01	89	39	0	613941248	48	5962
2026-01-04 03:23:24.90	261.05	31.13	-36.9	-38.1	29.3	3.02e+01	90	39	0	621805568	48	6140
2026-01-04 03:23:28.93	262.75	31.20	-36.4	-37.5	29.8	3.02e+01	91	39	0	629145600	48	5785
2026-01-04 03:23:32.97	264.46	31.25	-36.2	-37.4	29.8	3.02e+01	92	39	0	636485632	48	5710
2026-01-04 03:23:37.01	266.18	31.26	-36.4	-37.6	29.8	3.02e+01	92	39	0	644349952	48	5802
2026-01-04 03:23:41.04	267.89	31.25	-36.6	-37.8	29.9	3.02e+01	90	39	0	651689984	48	5962
2026-01-04 03:23:45.08	269.60	31.22	-36.5	-37.7	29.8	3.02e+01	92	39	0	659554304	48	5874
2026-01-04 03:23:49.13	271.31	31.15	-36.4	-37.5	29.7	3.02e+01	90	39	0	666894336	48	5789
2026-01-04 03:23:53.16	273.00	31.06	-35.9	-37.0	30.1	3.02e+01	92	39	0	674758656	46	6123
2026-01-04 03:23:57.20	274.69	30.95	-36.1	-37.3	30.0	3.02e+01	92	39	0	682098688	46	6308
2026-01-04 03:24:01.22	276.35	30.80	-35.8	-37.0	30.0	3.02e+01	90	39	0	689438720	46	6072
2026-01-04 03:24:05.26	278.01	30.64	-35.9	-37.0	30.0	3.02e+01	92	39	0	697303040	46	6121
2026-01-04 03:24:09.30	279.64	30.45	-35.8	-37.0	30.1	3.02e+01	92	39	0	704643072	46	6109
2026-01-04 03:24:13.33	281.26	30.23	-35.7	-36.8	30.1	3.02e+01	92	39	0	712507392	46	5982
2026-01-04 03:24:17.36	282.85	30.00	-35.7	-36.9	30.3	3.02e+01	50	39	0	719847424	46	6017
2026-01-04 03:24:21.40	284.41	29.75	-35.7	-36.9	30.2	3.02e+01	59	39	0	727711744	46	6030
2026-01-04 03:24:25.44	285.96	29.47	-35.6	-36.8	30.3	3.02e+01	45	39	0	735051776	46	5944
2026-01-04 03:24:29.48	287.47	29.18	-35.8	-37.0	30.0	3.02e+01	61	39	0	742391808	46	6090
2026-01-04 03:24:33.52	288.96	28.87	-36.4	-37.6	29.6	3.02e+01	44	39	0	750256128	46	6528
2026-01-04 03:24:37.56	290.41	28.54	-36.0	-37.2	29.9	3.02e+01	58	39	0	757596160	46	6232
2026-01-04 03:24:41.59	291.84	28.20	-36.3	-37.4	29.9	3.02e+01	61	39	0	765460480	46	6421
2026-01-04 03:24:45.63	293.23	27.85	-36.8	-38.0	29.5	3.02e+01	59	39	0	772800512	48	6131
2026-01-04 03:24:49.66	294.59	27.48	-36.4	-37.6	29.9	3.02e+01	60	39	0	780664832	48	5798
2026-01-04 03:24:53.69	295.92	27.11	-36.4	-37.6	29.8	3.02e+01	60	39	0	788004864	48	5826
2026-01-04 03:24:57.72	297.21	26.72	-36.4	-37.6	29.8	3.02e+01	56	39	0	795344896	48	5811
2026-01-04 03:25:01.76	298.48	26.33	-36.9	-38.1	29.7	3.02e+01	60	39	0	803209216	46	6909
2026-01-04 03:25:05.80	299.71	25.93	-36.7	-37.9	29.6	3.02e+01	61	39	0	810549248	48	6052
2026-01-04 03:25:09.84	300.92	25.52	-36.3	-37.4	30.0	3.02e+01	59	39	0	818413568	48	5722
2026-01-04 03:25:13.88	302.09	25.11	-36.3	-37.5	29.8	3.02e+01	62	39	0	825753600	48	5779
2026-01-04 03:25:17.92	303.23	24.69	-36.5	-37.7	29.5	3.02e+01	62	39	0	833617920	48	5881
2026-01-04 03:25:21.96	304.34	24.27	-36.5	-37.8	29.7	3.02e+01	58	39	0	840957952	48	5945
2026-01-04 03:25:26.00	305.41	23.84	-36.9	-38.1	29.5	3.02e+01	57	39	0	848822272	48	6202
2026-01-04 03:25:30.04	306.46	23.42	-37.7	-39.0	29.0	3.02e+01	59	39	0	856162304	48	6833
2026-01-04 03:25:34.08	307.48	22.99	-37.7	-38.9	29.1	3.02e+01	60	39	0	863502336	48	6763
2026-01-04 03:25:38.12	308.47	22.56	-37.4	-38.6	29.2	3.02e+01	58	39	0	871366656	50	5803
2026-01-04 03:25:42.16	309.44	22.13	-37.9	-39.2	29.8	3.02e+01	51	40	0	878706688	50	6206
2026-01-04 03:25:46.19	310.37	21.70	-37.5	-38.7	29.7	3.02e+01	61	39	0	886571008	50	5891
2026-01-04 03:25:50.23	311.28	21.27	-37.3	-38.5	29.9	3.02e+01	56	39	0	893911040	48	6433
2026-01-04 03:25:54.27	312.17	20.85	-37.4	-38.6	29.7	3.02e+01	61	39	0	901775360	50	5850
2026-01-04 03:25:58.31	313.03	20.42	-37.2	-38.4	29.8	3.02e+01	62	39	0	909115392	48	6405
2026-01-04 03:26:02.35	313.86	20.00	-37.1	-38.3	29.8	3.02e+01	58	39	0	916979712	48	6292
2026-01-04 03:26:06.38	314.67	19.58	-37.7	-38.9	29.7	3.02e+01	59	39	0	924319744	50	6057
2026-01-04 03:26:10.42	315.46	19.16	-36.2	-37.4	30.0	3.02e+01	57	39	0	931659776	48	5695
2026-01-04 03:26:14.46	316.23	18.74	-36.2	-37.4	29.9	3.02e+01	48	39	0	939524096	48	5716
2026-01-04 03:26:18.50	316.98	18.33	-36.1	-37.2	29.9	3.02e+01	61	39	0	946864128	46	6272
2026-01-04 03:26:22.54	317.70	17.92	-36.1	-37.3	29.9	3.02e+01	51	39	0	954728448	46	6309
2026-01-04 03:26:26.58	318.41	17.51	-36.6	-37.8	29.4	3.02e+01	61	39	0	962068480	46	6673
2026-01-04 03:26:30.61	319.10	17.11	-37.5	-38.7	29.5	3.02e+01	48	40	0	969932800	48	6593
2026-01-04 03:26:34.65	319.76	16.71	-36.3	-37.4	29.9	3.02e+01	57	39	0	977272832	48	5724
2026-01-04 03:26:38.69	320.41	16.32	-36.7	-37.9	29.8	3.02e+01	51	40	0	984612864	48	6027
2026-01-04 03:26:42.72	321.05	15.93	-36.7	-37.9	29.7	3.02e+01	60	40	0	992477184	48	6062
2026-01-04 03:26:46.76	321.66	15.54	-36.5	-37.7	29.8	3.02e+01	44	39	0	999817216	48	5903
2026-01-04 03:26:50.80	322.26	15.16	-36.5	-37.7	29.6	3.02e+01	59	40	0	1007681536	48	5910
2026-01-04 03:26:54.83	322.85	14.78	-36.8	-38.0	29.6	3.02e+01	44	39	0	1015021568	48	6123
2026-01-04 03:26:58.87	323.41	14.40	-36.7	-37.9	29.2	3.02e+01	60	39	0	1022885888	48	6024
2026-01-04 03:27:02.91	323.97	14.03	-37.2	-38.4	29.4	3.02e+01	56	39	0	1030225920	48	6420
2026-01-04 03:27:06.94	324.51	13.66	-37.1	-38.3	29.2	3.02e+01	59	40	0	1038090240	48	6321
2026-01-04 03:27:10.98	325.04	13.30	-36.7	-37.9	29.4	3.02e+01	57	39	0	1045430272	48	6005
2026-01-04 03:27:15.02	325.55	12.94	-36.5	-37.8	29.3	3.02e+01	55	39	0	1052770304	48	5928
2026-01-04 03:27:19.05	326.05	12.59	-36.4	-37.6	29.2	3.02e+01	65	39	0	1060634624	48	5855
2026-01-04 03:27:23.09	326.54	12.24	-36.6	-37.8	29.2	3.02e+01	60	39	0	1067974656	48	5993
2026-01-04 03:27:27.13	327.02	11.89	-36.9	-38.1	29.1	3.02e+01	64	39	0	1075838976	48	6188
2026-01-04 03:27:31.17	327.48	11.54	-36.9	-38.1	29.0	3.02e+01	59	39	0	1083179008	48	6191
2026-01-04 03:27:35.21	327.94	11.20	-37.2	-38.4	28.9	3.02e+01	58	39	0	1091043328	48	6422
2026-01-04 03:27:39.24	328.38	10.87	-37.4	-38.6	28.4	3.02e+01	59	39	0	1098383360	48	6542
2026-01-04 03:27:43.28	328.81	10.54	-37.3	-38.6	28.6	3.02e+01	58	39	0	1105723392	48	6505
2026-01-04 03:27:47.33	329.24	10.21	-37.9	-39.2	28.2	3.02e+01	58	39	0	1113587712	50	6207
2026-01-04 03:27:51.36	329.65	9.88	-37.7	-39.0	28.3	3.02e+01	57	39	0	1120927744	50	6116
2026-01-04 03:27:55.40	330.06	9.56	-37.8	-47.7	3.5	3.02e+01	0	39	104	1128267776	50	16608
2026-01-04 03:27:59.44	330.45	9.24	-38.8	-49.1	3.6	3.02e+01	0	39	104	1128267776	50	19418
2026-01-04 03:28:03.48	330.84	8.93	-40.7	-51.1	3.5	3.02e+01	0	39	104	1128267776	58	15534
2026-01-04 03:28:07.52	331.22	8.61	-38.2	-48.3	3.4	3.02e+01	0	39	104	1128267776	52	15917
2026-01-04 03:28:11.56	331.59	8.31	-44.7	-55.7	3.5	3.02e+01	0	39	104	1128267776	60	23324
2026-01-04 03:28:15.59	331.95	8.00	-41.0	-51.4	3.5	3.02e+01	0	39	104	1128267776	56	17923
2026-01-04 03:28:19.63	332.30	7.70	-49.6	-64.6	3.5	3.02e+01	0	39	104	1128267776	60	65109
2026-01-04 03:28:23.67	332.65	7.40	-40.7	-51.0	3.6	3.02e+01	0	39	104	1128267776	56	17200
2026-01-04 03:28:27.71	332.99	7.11	-43.7	-54.3	3.5	3.02e+01	0	39	104	1128267776	56	25157
2026-01-04 03:28:31.75	333.32	6.81	-41.5	-51.8	3.5	3.02e+01	0	39	104	1128267776	56	18904
2026-01-04 03:28:35.78	333.65	6.53	-44.6	-55.5	3.5	3.02e+01	0	39	104	1128267776	60	22945
2026-01-04 03:28:39.82	333.97	6.24	-45.3	-56.5	3.5	3.02e+01	0	39	104	1128267776	60	25762
2026-01-04 03:28:43.86	334.28	5.95	-41.1	-51.7	3.5	3.02e+01	0	39	104	1128267776	58	16623
2026-01-04 03:28:47.89	334.59	5.67	-44.3	-55.6	3.5	3.02e+01	0	39	104	1128267776	60	23268
2026-01-04 03:28:51.93	334.89	5.40	-45.0	-57.1	3.5	3.02e+01	0	39	104	1128267776	60	27436
2026-01-04 03:28:55.97	335.19	5.12	-47.5	-63.9	3.5	3.02e+01	0	39	104	1128267776	60	60285
2026-01-04 03:29:00.01	335.48	4.85	-47.0	-61.3	3.5	3.02e+01	0	39	104	1128267776	60	44721
2026-01-04 03:29:04.05	335.76	4.58	-47.1	-64.7	3.5	3.02e+01	0	39	104	1128267776	60	66134
2026-01-04 03:29:08.08	336.04	4.31	-46.6	-63.9	3.5	3.02e+01	0	39	104	1128267776	60	60466
2026-01-04 03:29:12.12	336.31	4.05	-47.1	-64.3	3.5	3.02e+01	0	39	104	1128267776	60	63437
2026-01-04 03:29:16.17	336.58	3.78	-46.7	-64.5	3.5	3.02e+01	0	39	104	1128267776	60	64952
2026-01-04 03:29:20.20	336.85	3.52	-46.3	-64.2	3.5	3.02e+01	0	39	104	1128267776	60	62552
2026-01-04 03:29:24.24	337.11	3.26	-46.8	-64.7	3.5	3.02e+01	0	39	104	1128267776	60	66412
2026-01-04 03:29:28.28	337.36	3.01	-46.1	-64.0	3.5	3.02e+01	0	39	104	1128267776	60	60707
2026-01-04 03:29:32.32	337.61	2.75	-51.4	-69.3	3.5	3.02e+01	0	39	104	1128267776	60	112280
2026-01-04 03:29:36.36	337.86	2.50	-51.1	-69.0	3.5	3.02e+01	0	39	104	1128267776	60	108123
2026-01-04 03:29:40.39	338.10	2.25	-50.5	-68.4	3.5	3.02e+01	0	39	104	1128267776	60	101177
2026-01-04 03:29:44.43	338.34	2.01	-50.9	-68.8	3.5	3.02e+01	0	39	104	1128267776	60	105637
2026-01-04 03:29:48.47	338.57	1.76	-51.6	-69.5	3.5	3.02e+01	0	39	104	1128267776	60	114777
2026-01-04 03:29:52.51	338.80	1.52	-52.0	-69.9	3.5	3.02e+01	0	39	104	1128267776	60	119672
2026-01-04 03:29:56.54	339.03	1.28	-51.4	-69.2	3.5	3.02e+01	0	39	104	1128267776	60	111326
2026-01-04 03:30:00.58	339.25	1.04	-52.0	-69.9	3.5	3.02e+01	0	39	104	1128267776	60	120480
2026-01-04 03:30:04.63	339.47	0.80	-52.1	-70.0	3.5	3.02e+01	0	39	104	1128267776	60	121114
2026-01-04 03:30:08.67	339.69	0.56	-52.1	-69.9	3.5	3.02e+01	0	39	104	1128267776	60	120920
2026-01-04 03:30:12.71	339.90	0.33	-52.0	-69.8	3.5	3.02e+01	0	39	104	1128267776	60	119380
2026-01-04 03:30:16.74	340.11	0.10	-51.3	-69.2	3.5	3.02e+01	0	39	104	1128267776	60	110357
2026-01-04 03:30:20.78	340.31	-0.14	-51.0	-68.9	3.5	3.02e+01	0	39	104	1128267776	60	106764

#Closed at: 2026-01-04 03:30:20
#Recorded file [1128 MB]: D:/lorett/data/35029_260104_151701.dat