passes_logs/2026/01/04/R4.6S_Anadyr/R4.6S_Anadyr__20260104_071612_FENGYUN_3E_rec.log

#Pass ID: 20260104_071612_FENGYUN 3E
#Satellite: FENGYUN 3E
#Configuration: FENGYUN 3E
#almurnet v.1.7.20251203
#Start time: 2026-01-04 07:16:13

#Version: 2.2.20231116
#Station: R4.6S_Anadyr
#Location: 177.4865 lon 64.73178 lat
#TLE: 1 49008U 21062A   26003.51942929 -.00000034  00000+0  45519-5 0  9990
#TLE: 2 49008  98.7472   8.7829 0001426 160.7926 199.3304 14.19883272233213

#Time	Az	El	Level	Level2	SNR	BER	BlckErr	Temp	State	Recorded	gain1	gain2
2026-01-04 07:16:13.28	230.17	0.03	-51.8	-62.5	3.5	8.45e-01	0	37	0	0	60	48189
2026-01-04 07:16:16.31	230.43	0.16	-52.3	-63.5	3.6	8.45e-01	0	38	104	0	60	54062
2026-01-04 07:16:19.34	230.69	0.30	-51.8	-63.0	3.6	8.44e-01	0	38	104	0	60	51048
2026-01-04 07:16:22.37	230.95	0.44	-52.2	-63.4	3.6	8.46e-01	0	39	104	0	60	53611
2026-01-04 07:16:25.39	231.21	0.58	-51.1	-62.4	3.6	8.45e-01	0	39	104	0	60	47547
2026-01-04 07:16:28.42	231.48	0.71	-52.5	-63.7	3.6	8.45e-01	0	39	104	0	60	55032
2026-01-04 07:16:31.45	231.74	0.85	-52.5	-63.8	3.6	8.44e-01	0	39	104	0	60	56068
2026-01-04 07:16:34.48	232.01	0.99	-52.3	-63.6	3.6	8.46e-01	0	39	104	0	60	54589
2026-01-04 07:16:37.50	232.29	1.13	-52.7	-63.9	3.6	8.45e-01	0	39	104	0	60	56936
2026-01-04 07:16:40.53	232.56	1.27	-52.9	-64.1	3.6	8.45e-01	0	39	104	0	60	58031
2026-01-04 07:16:43.56	232.84	1.41	-51.9	-63.1	3.6	8.45e-01	0	39	104	0	60	51900
2026-01-04 07:16:46.59	233.12	1.55	-52.8	-64.1	3.6	8.45e-01	0	39	104	0	60	58049
2026-01-04 07:16:49.62	233.40	1.69	-51.7	-63.0	3.6	8.45e-01	0	39	104	0	60	51021
2026-01-04 07:16:52.65	233.69	1.83	-52.5	-63.7	3.6	8.45e-01	0	39	104	0	60	55181
2026-01-04 07:16:55.68	233.97	1.96	-52.5	-63.7	3.6	8.45e-01	0	39	104	0	60	55317
2026-01-04 07:16:58.71	234.27	2.10	-52.6	-63.8	3.6	8.45e-01	0	39	104	0	60	55796
2026-01-04 07:17:01.74	234.56	2.24	-51.9	-63.2	3.6	8.46e-01	0	39	104	0	60	52022
2026-01-04 07:17:04.77	234.85	2.38	-52.1	-63.3	3.6	8.46e-01	0	39	104	0	60	52702
2026-01-04 07:17:07.80	235.15	2.52	-51.8	-63.0	3.6	8.46e-01	0	39	104	0	60	51015
2026-01-04 07:17:10.83	235.45	2.66	-51.8	-63.1	3.6	8.44e-01	0	39	104	0	60	51374
2026-01-04 07:17:13.86	235.76	2.80	-51.5	-62.7	3.6	8.45e-01	0	39	104	0	60	49412
2026-01-04 07:17:16.89	236.06	2.94	-52.2	-63.5	3.6	8.46e-01	0	39	104	0	60	53798
2026-01-04 07:17:19.92	236.37	3.08	-52.3	-63.5	3.6	8.46e-01	0	39	104	0	60	54327
2026-01-04 07:17:22.94	236.68	3.22	-52.2	-63.4	3.6	8.45e-01	0	39	104	0	60	53346
2026-01-04 07:17:25.98	237.00	3.36	-51.1	-62.4	3.6	8.45e-01	0	39	104	0	60	47516
2026-01-04 07:17:29.01	237.32	3.50	-51.3	-62.6	3.6	8.43e-01	0	39	104	0	60	48925
2026-01-04 07:17:32.04	237.64	3.64	-50.8	-62.0	3.6	8.45e-01	0	39	104	0	60	45732
2026-01-04 07:17:35.06	237.96	3.78	-52.0	-63.2	3.6	8.45e-01	0	39	104	0	60	52179
2026-01-04 07:17:38.10	238.29	3.93	-52.4	-63.6	3.6	8.45e-01	0	39	104	0	60	54752
2026-01-04 07:17:41.13	238.62	4.07	-52.7	-63.9	3.6	8.45e-01	0	39	104	0	60	56629
2026-01-04 07:17:44.16	238.95	4.21	-52.0	-63.2	3.6	8.45e-01	0	39	104	0	60	52138
2026-01-04 07:17:47.19	239.29	4.35	-51.1	-62.4	3.6	8.44e-01	0	39	104	0	60	47387
2026-01-04 07:17:50.22	239.63	4.49	-51.7	-62.9	3.6	8.45e-01	0	39	104	0	60	50688
2026-01-04 07:17:53.24	239.97	4.62	-52.8	-64.0	3.6	8.45e-01	0	39	104	0	60	57332
2026-01-04 07:17:56.27	240.31	4.76	-51.5	-62.8	3.6	8.45e-01	0	39	104	0	60	49908
2026-01-04 07:17:59.30	240.66	4.90	-52.7	-63.9	3.6	8.45e-01	0	39	104	0	60	56801
2026-01-04 07:18:02.34	241.01	5.04	-52.0	-63.1	3.6	8.46e-01	0	39	104	0	60	51925
2026-01-04 07:18:05.36	241.37	5.18	-52.2	-63.5	3.6	8.45e-01	0	39	104	0	60	53954
2026-01-04 07:18:08.39	241.73	5.32	-51.5	-63.0	3.6	8.46e-01	0	39	104	0	60	50938
2026-01-04 07:18:11.42	242.09	5.46	-52.0	-63.4	3.6	8.45e-01	0	39	104	0	60	53312
2026-01-04 07:18:14.45	242.45	5.60	-51.8	-63.1	3.6	8.46e-01	0	39	104	0	60	51845
2026-01-04 07:18:17.48	242.82	5.74	-51.8	-63.2	3.6	8.44e-01	0	39	104	0	60	51985
2026-01-04 07:18:20.51	243.19	5.88	-50.6	-61.8	3.6	8.45e-01	0	39	104	0	60	44687
2026-01-04 07:18:23.53	243.57	6.01	-44.3	-46.1	14.5	2.20e-06	0	39	104	0	60	7324
2026-01-04 07:18:26.56	243.94	6.15	-41.4	-42.4	18.5	5.26e-02	0	39	0	8388608	60	4753
2026-01-04 07:18:29.59	244.33	6.29	-43.9	-45.6	13.8	2.33e-04	0	39	0	30408704	60	6905
2026-01-04 07:18:32.62	244.71	6.43	-43.5	-45.2	14.0	2.04e-04	0	39	0	52428800	60	6573
2026-01-04 07:18:35.65	245.10	6.56	-44.7	-46.7	14.2	8.00e-06	0	39	0	74448896	60	7793
2026-01-04 07:18:38.68	245.49	6.70	-42.1	-43.5	16.4	0.00e+00	0	39	0	95420416	58	6093
2026-01-04 07:18:41.71	245.89	6.84	-41.5	-42.8	16.2	0.00e+00	0	39	0	117440512	56	6290
2026-01-04 07:18:44.74	246.29	6.97	-40.2	-41.4	17.2	0.00e+00	0	39	0	139460608	54	5988
2026-01-04 07:18:47.77	246.69	7.11	-40.7	-41.9	17.2	0.00e+00	0	39	0	161480704	54	6356
2026-01-04 07:18:50.80	247.10	7.24	-40.9	-42.0	17.4	0.00e+00	0	39	0	183500800	54	6458
2026-01-04 07:18:53.83	247.51	7.37	-40.7	-41.9	17.6	0.00e+00	0	39	0	205520896	54	6319
2026-01-04 07:18:56.87	247.92	7.51	-40.2	-41.3	18.3	0.00e+00	0	39	0	227540992	52	6635
2026-01-04 07:18:59.89	248.34	7.64	-38.6	-39.5	19.6	0.00e+00	0	39	0	249561088	50	6078
2026-01-04 07:19:02.92	248.76	7.77	-37.7	-38.7	20.3	0.00e+00	0	39	0	270532608	48	6180
2026-01-04 07:19:05.95	249.18	7.90	-37.8	-38.8	20.0	0.00e+00	0	39	0	292552704	48	6262
2026-01-04 07:19:08.98	249.61	8.03	-37.2	-38.1	20.6	0.00e+00	0	39	0	314572800	48	5788
2026-01-04 07:19:12.01	250.04	8.17	-37.9	-38.8	20.5	0.00e+00	0	40	0	336592896	48	6302
2026-01-04 07:19:15.04	250.48	8.29	-36.6	-37.5	20.7	0.00e+00	0	39	0	357564416	46	6103
2026-01-04 07:19:18.07	250.92	8.42	-36.8	-37.7	20.8	0.00e+00	0	39	0	379584512	46	6192
2026-01-04 07:19:21.10	251.36	8.55	-35.4	-36.2	21.6	0.00e+00	0	39	0	401604608	44	5876
2026-01-04 07:19:24.13	251.81	8.68	-34.8	-35.7	22.0	0.00e+00	0	39	0	423624704	42	6178
2026-01-04 07:19:27.16	252.26	8.80	-34.5	-35.4	22.3	0.00e+00	0	40	0	445644800	42	5970
2026-01-04 07:19:30.19	252.71	8.93	-34.4	-35.3	22.3	0.00e+00	0	40	0	467664896	42	5908
2026-01-04 07:19:33.21	253.17	9.05	-34.5	-35.4	22.2	0.00e+00	0	39	0	489684992	42	5972
2026-01-04 07:19:36.23	253.63	9.18	-34.4	-35.2	22.2	0.00e+00	0	39	0	510656512	42	5861
2026-01-04 07:19:39.26	254.10	9.30	-34.3	-35.1	22.3	0.00e+00	0	40	0	532676608	42	5808
2026-01-04 07:19:42.29	254.57	9.42	-34.4	-35.2	22.3	0.00e+00	0	39	0	554696704	42	5853
2026-01-04 07:19:45.32	255.04	9.54	-34.4	-35.2	22.4	0.00e+00	0	39	0	576716800	42	5852
2026-01-04 07:19:48.35	255.52	9.66	-34.5	-35.3	22.4	0.00e+00	0	40	0	598736896	42	5916
2026-01-04 07:19:51.38	256.00	9.78	-34.4	-35.2	22.6	0.00e+00	0	40	0	620756992	42	5833
2026-01-04 07:19:54.41	256.48	9.89	-34.4	-35.2	22.5	0.00e+00	0	40	0	642777088	42	5851
2026-01-04 07:19:57.44	256.97	10.01	-34.2	-35.1	22.5	0.00e+00	0	40	0	663748608	42	5764
2026-01-04 07:20:00.47	257.46	10.12	-34.1	-34.9	22.5	0.00e+00	0	40	0	685768704	42	5682
2026-01-04 07:20:03.50	257.96	10.24	-33.9	-34.7	22.6	0.00e+00	0	40	0	707788800	42	5520
2026-01-04 07:20:06.53	258.46	10.35	-34.0	-34.8	22.5	0.00e+00	0	40	0	729808896	42	5591
2026-01-04 07:20:09.56	258.96	10.46	-34.1	-34.9	22.5	0.00e+00	0	40	0	751828992	42	5682
2026-01-04 07:20:12.59	259.47	10.57	-34.0	-34.8	22.6	0.00e+00	0	40	0	773849088	42	5625
2026-01-04 07:20:15.62	259.98	10.67	-33.9	-34.7	22.7	0.00e+00	0	40	0	795869184	40	6203
2026-01-04 07:20:18.65	260.49	10.78	-34.0	-34.8	22.6	0.00e+00	0	39	0	817889280	40	6314
2026-01-04 07:20:21.68	261.01	10.88	-34.3	-35.1	22.5	0.00e+00	0	40	0	838860800	40	6514
2026-01-04 07:20:24.70	261.53	10.98	-34.8	-35.6	22.7	0.00e+00	0	40	0	860880896	42	6118
2026-01-04 07:20:27.73	262.05	11.08	-35.2	-36.0	22.4	0.00e+00	0	40	0	882900992	42	6463
2026-01-04 07:20:30.76	262.58	11.18	-35.1	-35.9	22.6	0.00e+00	0	40	0	904921088	42	6340
2026-01-04 07:20:33.79	263.11	11.28	-34.7	-35.5	22.5	0.00e+00	0	40	0	926941184	42	6080
2026-01-04 07:20:36.82	263.65	11.38	-34.4	-35.2	22.8	0.00e+00	0	40	0	948961280	42	5873
2026-01-04 07:20:39.85	264.19	11.47	-33.9	-34.7	23.0	0.00e+00	0	39	0	970981376	42	5533
2026-01-04 07:20:42.88	264.73	11.56	-35.0	-35.8	22.9	0.00e+00	0	40	0	991952896	42	6251
2026-01-04 07:20:45.91	265.27	11.65	-35.1	-35.9	22.5	0.00e+00	0	40	0	1013972992	42	6359
2026-01-04 07:20:48.94	265.82	11.74	-34.7	-35.5	22.4	0.00e+00	0	40	0	1035993088	42	6068
2026-01-04 07:20:51.97	266.37	11.82	-34.0	-34.8	22.7	0.00e+00	0	40	0	1058013184	42	5588
2026-01-04 07:20:55.00	266.92	11.91	-34.7	-35.5	22.8	0.00e+00	0	40	0	1080033280	42	6069
2026-01-04 07:20:58.03	267.48	11.99	-34.7	-35.5	22.6	0.00e+00	0	40	0	1102053376	42	6055
2026-01-04 07:21:01.05	268.04	12.07	-36.1	-36.9	22.4	0.00e+00	0	40	0	1124073472	44	6363
2026-01-04 07:21:04.08	268.60	12.14	-34.7	-35.6	22.6	0.00e+00	0	40	0	1145044992	42	6125
2026-01-04 07:21:07.11	269.16	12.22	-33.9	-34.7	22.9	0.00e+00	0	40	0	1167065088	42	5558
2026-01-04 07:21:10.14	269.73	12.29	-33.9	-34.7	23.0	0.00e+00	0	40	0	1189085184	42	5551
2026-01-04 07:21:13.17	270.30	12.36	-33.5	-34.3	23.0	0.00e+00	0	40	0	1211105280	40	5914
2026-01-04 07:21:16.21	270.88	12.43	-34.3	-35.1	23.0	0.00e+00	0	40	0	1233125376	42	5811
2026-01-04 07:21:19.24	271.45	12.49	-33.9	-34.7	23.1	0.00e+00	0	40	0	1255145472	40	6232
2026-01-04 07:21:22.27	272.03	12.55	-33.8	-34.6	23.0	0.00e+00	0	40	0	1277165568	40	6156
2026-01-04 07:21:25.30	272.61	12.61	-34.0	-34.8	23.0	0.00e+00	0	40	0	1299185664	40	6278
2026-01-04 07:21:28.33	273.19	12.67	-34.0	-34.8	22.8	0.00e+00	0	40	0	1320157184	40	6288
2026-01-04 07:21:31.36	273.78	12.73	-34.2	-35.0	22.9	0.00e+00	0	40	0	1342177280	40	6451
2026-01-04 07:21:34.39	274.37	12.78	-33.7	-34.5	23.0	0.00e+00	0	40	0	1364197376	40	6069
2026-01-04 07:21:37.42	274.96	12.83	-33.6	-34.4	23.2	0.00e+00	0	40	0	1386217472	40	6026
2026-01-04 07:21:40.45	275.55	12.88	-34.2	-35.0	22.9	0.00e+00	0	40	0	1408237568	40	6451
2026-01-04 07:21:43.47	276.14	12.92	-33.7	-34.5	23.0	0.00e+00	0	40	0	1429209088	40	6043
2026-01-04 07:21:46.50	276.73	12.96	-33.5	-34.3	23.0	0.00e+00	0	40	0	1451229184	40	5932
2026-01-04 07:21:49.53	277.33	13.00	-33.5	-34.3	23.2	0.00e+00	0	40	0	1473249280	40	5927
2026-01-04 07:21:52.56	277.92	13.04	-34.3	-35.0	23.2	0.00e+00	0	40	0	1495269376	40	6446
2026-01-04 07:21:55.59	278.52	13.07	-34.2	-35.0	22.8	0.00e+00	0	40	0	1517289472	42	5751
2026-01-04 07:21:58.62	279.12	13.10	-34.0	-34.8	22.9	0.00e+00	0	40	0	1539309568	42	5577
2026-01-04 07:22:01.64	279.72	13.13	-33.8	-34.6	22.9	0.00e+00	0	40	0	1561329664	40	6166
2026-01-04 07:22:04.67	280.32	13.15	-33.1	-33.9	23.2	0.00e+00	0	40	0	1582301184	40	5682
2026-01-04 07:22:07.70	280.92	13.18	-33.7	-34.5	22.9	0.00e+00	0	40	0	1604321280	40	6088
2026-01-04 07:22:10.73	281.53	13.19	-34.2	-35.1	22.8	0.00e+00	0	40	0	1626341376	40	6479
2026-01-04 07:22:13.76	282.13	13.21	-34.5	-35.3	22.5	0.00e+00	0	40	0	1648361472	40	6651
2026-01-04 07:22:16.78	282.73	13.22	-34.2	-35.0	23.2	0.00e+00	0	40	0	1670381568	42	5736
2026-01-04 07:22:19.82	283.34	13.23	-34.0	-34.8	23.2	0.00e+00	0	40	0	1692401664	42	5582
2026-01-04 07:22:22.84	283.94	13.24	-34.2	-35.0	23.0	0.00e+00	0	40	0	1714421760	42	5751
2026-01-04 07:22:25.87	284.55	13.25	-34.4	-35.2	22.8	0.00e+00	0	40	0	1735393280	42	5876
2026-01-04 07:22:28.90	285.15	13.25	-34.5	-35.2	23.1	0.00e+00	0	40	0	1757413376	42	5895
2026-01-04 07:22:31.93	285.76	13.25	-33.5	-34.3	23.2	0.00e+00	0	40	0	1779433472	40	5953
2026-01-04 07:22:34.95	286.36	13.24	-33.5	-34.3	23.1	0.00e+00	0	40	0	1801453568	40	5954
2026-01-04 07:22:37.98	286.97	13.24	-33.4	-34.2	23.1	0.00e+00	0	40	0	1823473664	40	5861
2026-01-04 07:22:41.00	287.57	13.23	-33.7	-34.5	23.1	0.00e+00	0	40	0	1845493760	40	6034
2026-01-04 07:22:44.03	288.18	13.21	-33.5	-34.3	23.0	0.00e+00	0	40	0	1866465280	40	5954
2026-01-04 07:22:47.06	288.78	13.20	-33.7	-34.5	23.0	0.00e+00	0	40	0	1888485376	40	6053
2026-01-04 07:22:50.10	289.39	13.18	-33.3	-34.1	22.9	0.00e+00	0	40	0	1910505472	40	5824
2026-01-04 07:22:53.13	289.99	13.16	-33.6	-34.4	22.9	0.00e+00	0	40	0	1932525568	40	5983
2026-01-04 07:22:56.15	290.59	13.14	-33.5	-34.3	23.0	0.00e+00	0	40	0	1954545664	40	5907
2026-01-04 07:22:59.18	291.19	13.11	-33.3	-34.1	23.0	0.00e+00	0	40	0	1976565760	40	5811
2026-01-04 07:23:02.21	291.79	13.08	-33.4	-34.2	23.0	0.00e+00	0	40	0	1998585856	40	5880
2026-01-04 07:23:05.24	292.38	13.05	-33.1	-33.9	23.3	0.00e+00	0	40	0	2019557376	40	5641
2026-01-04 07:23:08.27	292.98	13.01	-33.1	-33.8	23.3	0.00e+00	0	40	0	2041577472	40	5612
2026-01-04 07:23:11.30	293.58	12.97	-33.5	-34.3	22.9	0.00e+00	0	40	0	2063597568	40	5951
2026-01-04 07:23:14.33	294.17	12.93	-33.8	-34.6	22.7	0.00e+00	0	40	0	2085617664	40	6136
2026-01-04 07:23:17.35	294.76	12.89	-33.8	-34.6	22.9	0.00e+00	0	40	0	2107637760	40	6122
2026-01-04 07:23:20.38	295.35	12.84	-34.9	-35.7	22.5	0.00e+00	0	40	0	2129657856	42	6203
2026-01-04 07:23:23.41	295.94	12.79	-33.4	-34.1	23.2	0.00e+00	0	40	0	2151677952	40	5805
2026-01-04 07:23:26.43	296.52	12.74	-34.0	-34.8	22.6	0.00e+00	0	40	0	2172649472	40	6270
2026-01-04 07:23:29.46	297.11	12.69	-33.9	-34.8	22.6	0.00e+00	0	40	0	2194669568	40	6256
2026-01-04 07:23:32.49	297.69	12.63	-34.1	-35.0	22.6	0.00e+00	0	40	0	2216689664	40	6397
2026-01-04 07:23:35.52	298.27	12.57	-34.0	-34.8	22.8	0.00e+00	0	40	0	2238709760	40	6283
2026-01-04 07:23:38.55	298.85	12.51	-33.5	-34.3	22.9	0.00e+00	0	40	0	2260729856	40	5928
2026-01-04 07:23:41.58	299.42	12.45	-33.4	-34.2	23.0	0.00e+00	0	40	0	2281701376	40	5891
2026-01-04 07:23:44.61	299.99	12.38	-33.8	-34.6	22.8	0.00e+00	0	40	0	2303721472	40	6123
2026-01-04 07:23:47.63	300.56	12.31	-34.0	-34.8	22.7	0.00e+00	0	40	0	2325741568	40	6314
2026-01-04 07:23:50.66	301.13	12.24	-33.8	-34.7	22.7	0.00e+00	0	40	0	2347761664	40	6189
2026-01-04 07:23:53.69	301.69	12.17	-33.6	-34.4	22.6	0.00e+00	0	40	0	2369781760	40	5979
2026-01-04 07:23:56.72	302.25	12.09	-33.9	-34.8	22.8	0.00e+00	0	40	0	2391801856	40	6247
2026-01-04 07:23:59.75	302.81	12.01	-34.2	-34.8	25.1	0.00e+00	0	40	0	2413821952	40	6305
2026-01-04 07:24:02.77	303.37	11.93	-33.9	-34.6	25.0	0.00e+00	0	40	0	2434793472	40	6128
2026-01-04 07:24:05.80	303.92	11.85	-34.2	-34.9	24.7	0.00e+00	0	40	0	2456813568	40	6340
2026-01-04 07:24:08.83	304.47	11.77	-34.0	-34.6	25.0	0.00e+00	0	40	0	2478833664	40	6148
2026-01-04 07:24:11.86	305.02	11.68	-33.8	-34.4	25.1	0.00e+00	0	40	0	2500853760	40	6002
2026-01-04 07:24:14.88	305.56	11.59	-33.8	-34.4	25.1	0.00e+00	0	40	0	2522873856	40	6024
2026-01-04 07:24:17.91	306.10	11.50	-33.8	-34.5	25.1	0.00e+00	0	40	0	2544893952	40	6044
2026-01-04 07:24:20.94	306.64	11.41	-34.0	-34.6	24.9	0.00e+00	0	40	0	2565865472	40	6160
2026-01-04 07:24:23.97	307.17	11.32	-34.0	-34.7	24.8	0.00e+00	0	40	0	2587885568	40	6202
2026-01-04 07:24:27.00	307.70	11.22	-34.2	-34.8	24.6	0.00e+00	0	40	0	2609905664	40	6315
2026-01-04 07:24:30.03	308.23	11.12	-34.3	-34.9	24.6	0.00e+00	0	40	0	2631925760	40	6390
2026-01-04 07:24:33.06	308.75	11.02	-34.7	-35.4	24.4	0.00e+00	0	40	0	2653945856	42	5976
2026-01-04 07:24:36.09	309.27	10.92	-34.5	-35.1	24.6	0.00e+00	0	40	0	2675965952	42	5817
2026-01-04 07:24:39.12	309.79	10.82	-34.7	-35.3	24.6	0.00e+00	0	40	0	2697986048	42	5938
2026-01-04 07:24:42.15	310.30	10.72	-34.9	-35.6	24.2	0.00e+00	0	40	0	2720006144	42	6104
2026-01-04 07:24:45.18	310.81	10.61	-34.8	-35.5	24.4	0.00e+00	0	40	0	2740977664	42	6057
2026-01-04 07:24:48.21	311.32	10.50	-35.6	-36.3	24.1	0.00e+00	0	40	0	2762997760	42	6651
2026-01-04 07:24:51.24	311.82	10.39	-35.8	-36.5	23.7	0.00e+00	0	40	0	2785017856	44	6069
2026-01-04 07:24:54.27	312.32	10.28	-35.1	-35.7	24.0	0.00e+00	0	40	0	2807037952	44	5560
2026-01-04 07:24:57.30	312.81	10.17	-34.5	-35.2	24.5	0.00e+00	0	40	0	2829058048	42	5843
2026-01-04 07:25:00.33	313.30	10.06	-34.4	-35.0	24.5	0.00e+00	0	40	0	2851078144	42	5752
2026-01-04 07:25:03.36	313.79	9.95	-34.6	-35.2	24.5	0.00e+00	0	40	0	2873098240	42	5888
2026-01-04 07:25:06.39	314.28	9.83	-34.3	-35.0	24.6	0.00e+00	0	40	0	2894069760	42	5701
2026-01-04 07:25:09.41	314.75	9.71	-35.6	-36.3	23.9	0.00e+00	0	40	0	2916089856	42	6648
2026-01-04 07:25:12.44	315.23	9.60	-35.6	-36.3	23.9	0.00e+00	0	40	0	2938109952	44	5929
2026-01-04 07:25:15.47	315.70	9.48	-35.5	-36.2	23.7	0.00e+00	0	40	0	2960130048	44	5832
2026-01-04 07:25:18.50	316.17	9.36	-35.5	-36.1	23.9	0.00e+00	0	40	0	2982150144	44	5822
2026-01-04 07:25:21.53	316.64	9.24	-35.9	-36.5	23.5	0.00e+00	0	40	0	3004170240	44	6097
2026-01-04 07:25:24.56	317.10	9.11	-36.0	-36.6	23.3	0.00e+00	0	40	0	3026190336	44	6171
2026-01-04 07:25:27.58	317.56	8.99	-36.2	-36.9	23.1	0.00e+00	0	40	0	3047161856	44	6347
2026-01-04 07:25:30.61	318.01	8.87	-35.4	-36.0	23.7	0.00e+00	0	40	0	3069181952	44	5755
2026-01-04 07:25:33.64	318.46	8.74	-36.1	-36.8	23.1	0.00e+00	0	40	0	3091202048	44	6269
2026-01-04 07:25:36.67	318.91	8.62	-35.6	-36.2	23.7	0.00e+00	0	40	0	3113222144	44	5880
2026-01-04 07:25:39.70	319.35	8.49	-35.4	-36.1	23.7	0.00e+00	0	40	0	3135242240	44	5764
2026-01-04 07:25:42.73	319.79	8.36	-35.6	-36.3	23.6	0.00e+00	0	40	0	3156213760	44	5936
2026-01-04 07:25:45.75	320.22	8.24	-35.9	-36.6	23.3	0.00e+00	0	40	0	3178233856	44	6140
2026-01-04 07:25:48.77	320.65	8.11	-35.7	-36.4	23.3	0.00e+00	0	40	0	3200253952	44	5981
2026-01-04 07:25:51.80	321.08	7.98	-36.1	-36.8	23.4	0.00e+00	0	40	0	3222274048	44	6274
2026-01-04 07:25:54.83	321.51	7.85	-37.2	-38.0	22.9	0.00e+00	0	40	0	3244294144	46	6401
2026-01-04 07:25:57.86	321.93	7.72	-36.5	-37.2	23.7	0.00e+00	0	40	0	3266314240	46	5857
2026-01-04 07:26:00.88	322.34	7.59	-36.1	-36.7	23.7	0.00e+00	0	40	0	3287285760	44	6237
2026-01-04 07:26:03.91	322.76	7.45	-36.4	-37.0	23.6	0.00e+00	0	40	0	3309305856	44	6445
2026-01-04 07:26:06.94	323.17	7.32	-36.4	-37.1	23.2	0.00e+00	0	40	0	3331325952	44	6519
2026-01-04 07:26:09.97	323.57	7.19	-36.6	-37.3	23.0	0.00e+00	0	40	0	3353346048	46	5935
2026-01-04 07:26:13.00	323.98	7.05	-37.4	-38.1	22.6	0.00e+00	0	40	0	3375366144	48	5827
2026-01-04 07:26:16.02	324.37	6.92	-38.2	-38.9	22.9	0.00e+00	0	40	0	3397386240	48	6360
2026-01-04 07:26:19.05	324.77	6.79	-37.4	-38.1	23.0	0.00e+00	0	40	0	3419406336	48	5768
2026-01-04 07:26:22.08	325.16	6.65	-36.8	-37.5	23.2	0.00e+00	0	40	0	3440377856	46	6067
2026-01-04 07:26:25.11	325.55	6.52	-36.0	-36.7	23.3	0.00e+00	0	40	0	3462397952	46	5528
2026-01-04 07:26:28.14	325.94	6.38	-36.3	-36.9	23.4	0.00e+00	0	40	0	3484418048	46	5685
2026-01-04 07:26:31.16	326.32	6.24	-35.8	-36.5	23.3	0.00e+00	0	40	0	3506438144	46	5430
2026-01-04 07:26:34.19	326.70	6.11	-36.4	-37.1	22.8	0.00e+00	0	40	0	3528458240	46	5805
2026-01-04 07:26:37.22	327.07	5.97	-36.5	-37.2	22.6	0.00e+00	0	40	0	3550478336	46	5879
2026-01-04 07:26:40.24	327.44	5.84	-36.9	-37.6	22.4	0.00e+00	0	40	0	3571449856	46	6155
2026-01-04 07:26:43.27	327.81	5.70	-36.9	-37.7	22.2	0.00e+00	0	40	0	3593469952	46	6179
2026-01-04 07:26:46.29	328.17	5.56	-36.7	-37.4	22.5	0.00e+00	0	40	0	3615490048	46	6030
2026-01-04 07:26:49.32	328.54	5.42	-36.4	-37.1	22.4	0.00e+00	0	40	0	3637510144	46	5789
2026-01-04 07:26:52.35	328.89	5.29	-36.4	-37.1	22.4	0.00e+00	0	40	0	3659530240	46	5816
2026-01-04 07:26:55.38	329.25	5.15	-37.2	-37.9	22.2	0.00e+00	0	40	0	3681550336	46	6334
2026-01-04 07:26:58.41	329.60	5.01	-37.1	-37.7	22.6	0.00e+00	0	40	0	3703570432	46	6239
2026-01-04 07:27:01.44	329.95	4.87	-37.2	-37.9	22.5	0.00e+00	0	40	0	3724541952	46	6381
2026-01-04 07:27:04.47	330.30	4.73	-37.3	-38.0	22.0	0.00e+00	0	40	0	3746562048	46	6458
2026-01-04 07:27:07.49	330.64	4.60	-38.0	-38.7	21.5	0.00e+00	0	40	0	3768582144	48	6233
2026-01-04 07:27:10.52	330.98	4.46	-38.2	-38.9	21.2	0.00e+00	0	40	0	3790602240	48	6378
2026-01-04 07:27:13.55	331.31	4.32	-38.2	-39.0	20.5	0.00e+00	0	40	0	3812622336	48	6428
2026-01-04 07:27:16.58	331.65	4.18	-39.5	-40.5	18.8	0.00e+00	0	40	0	3834642432	50	6779
2026-01-04 07:27:19.61	331.98	4.04	-40.5	-41.7	16.6	0.00e+00	0	40	0	3856662528	52	6969
2026-01-04 07:27:22.64	332.31	3.90	-43.6	-45.6	12.2	1.02e-04	0	40	0	3877634048	58	7723
2026-01-04 07:27:25.67	332.63	3.76	-45.6	-49.8	6.3	1.21e-01	0	40	0	3899654144	60	11157
2026-01-04 07:27:28.69	332.95	3.62	-46.1	-54.8	3.7	8.44e-01	0	40	104	3903848448	60	19938
2026-01-04 07:27:31.72	333.27	3.49	-45.7	-56.2	3.6	8.46e-01	0	40	104	3903848448	60	23247
2026-01-04 07:27:34.74	333.59	3.35	-45.5	-56.6	3.6	8.46e-01	0	40	104	3903848448	60	24477
2026-01-04 07:27:37.77	333.90	3.21	-45.9	-57.0	3.5	8.46e-01	0	40	104	3903848448	60	25539
2026-01-04 07:27:40.79	334.21	3.07	-45.9	-57.1	3.6	8.45e-01	0	40	104	3903848448	60	25858
2026-01-04 07:27:43.82	334.52	2.93	-49.9	-61.4	3.6	8.45e-01	0	40	104	3903848448	60	42586
2026-01-04 07:27:46.85	334.82	2.79	-50.5	-61.7	3.6	8.46e-01	0	40	104	3903848448	60	43982
2026-01-04 07:27:49.87	335.12	2.65	-50.3	-61.6	3.5	8.46e-01	0	40	104	3903848448	60	43690
2026-01-04 07:27:52.90	335.42	2.52	-49.9	-61.5	3.6	8.44e-01	0	40	104	3903848448	60	42951
2026-01-04 07:27:55.93	335.72	2.38	-50.2	-61.5	3.6	8.44e-01	0	40	104	3903848448	60	43174
2026-01-04 07:27:58.96	336.01	2.24	-50.6	-61.8	3.6	8.47e-01	0	40	104	3903848448	60	44576
2026-01-04 07:28:01.99	336.30	2.10	-50.8	-62.1	3.6	8.45e-01	0	40	104	3903848448	60	45882
2026-01-04 07:28:05.02	336.59	1.96	-50.8	-62.0	3.6	8.46e-01	0	40	104	3903848448	60	45621
2026-01-04 07:28:08.05	336.88	1.83	-51.5	-62.7	3.6	8.44e-01	0	40	104	3903848448	60	49140
2026-01-04 07:28:11.08	337.16	1.69	-51.2	-62.4	3.6	8.44e-01	0	40	104	3903848448	60	47733
2026-01-04 07:28:14.11	337.45	1.55	-50.7	-62.0	3.6	8.47e-01	0	40	104	3903848448	60	45310
2026-01-04 07:28:17.14	337.72	1.41	-50.7	-61.9	3.6	8.46e-01	0	40	104	3903848448	60	45213
2026-01-04 07:28:20.17	338.00	1.27	-50.9	-62.1	3.6	8.45e-01	0	40	104	3903848448	60	46100
2026-01-04 07:28:23.19	338.27	1.14	-50.8	-62.0	3.6	8.45e-01	0	40	104	3903848448	60	45302
2026-01-04 07:28:26.22	338.55	1.00	-51.1	-62.3	3.6	8.46e-01	0	40	104	3903848448	60	47112
2026-01-04 07:28:29.25	338.82	0.86	-51.4	-62.7	3.6	8.46e-01	0	40	104	3903848448	60	49216
2026-01-04 07:28:32.28	339.08	0.73	-51.1	-62.4	3.6	8.45e-01	0	40	104	3903848448	60	47775
2026-01-04 07:28:35.31	339.35	0.59	-50.7	-61.9	3.6	8.46e-01	0	40	104	3903848448	60	45170
2026-01-04 07:28:38.33	339.61	0.45	-51.3	-62.6	3.6	8.46e-01	0	40	104	3903848448	60	48543
2026-01-04 07:28:41.36	339.87	0.32	-51.8	-62.9	3.6	8.46e-01	0	40	104	3903848448	60	50698
2026-01-04 07:28:44.39	340.13	0.18	-51.6	-62.8	3.6	8.46e-01	0	40	104	3903848448	60	49828
2026-01-04 07:28:47.42	340.38	0.05	-51.6	-62.8	3.6	8.45e-01	0	40	104	3903848448	60	49922

#Closed at: 2026-01-04 07:28:50
#Recorded file [3903 MB]: D:/lorett/data/35029_260104_191613.dat