passes_logs/2026/01/04/R4.6S_Anadyr/R4.6S_Anadyr__20260104_183107_NOAA_20_JPSS-1_rec.log

#Pass ID: 20260104_183107_NOAA 20 (JPSS-1)
#Satellite: NOAA 20 (JPSS-1)
#Configuration: NOAA 20
#almurnet v.1.7.20251203
#Start time: 2026-01-04 18:31:10

#Version: 2.2.20231116
#Station: R4.6S_Anadyr
#Location: 177.4865 lon 64.73178 lat
#TLE: 1 43013U 17073A   26003.41800368  .00000169  00000+0  10117-3 0  9998
#TLE: 2 43013  98.7624 304.4804 0001884  56.1176 304.0179 14.19532918421092

#Time	Az	El	Level	Level2	SNR	BER	BlckErr	Temp	State	Recorded	gain1	gain2
2026-01-04 18:31:10.64	41.38	0.16	-50.2	-64.0	3.3	1.54e+00	0	29	0	0	60	57289
2026-01-04 18:31:13.67	41.16	0.31	-49.0	-64.2	3.6	1.51e+00	0	30	104	0	60	58360
2026-01-04 18:31:16.70	40.94	0.46	-48.9	-64.1	3.6	1.51e+00	0	30	104	0	60	57973
2026-01-04 18:31:19.73	40.72	0.61	-48.8	-64.0	3.6	1.51e+00	0	30	104	0	60	57111
2026-01-04 18:31:22.76	40.49	0.76	-48.6	-63.8	3.6	1.51e+00	0	30	104	0	60	56205
2026-01-04 18:31:25.79	40.26	0.91	-48.2	-63.4	3.6	1.51e+00	0	30	104	0	60	53186
2026-01-04 18:31:28.82	40.03	1.07	-47.3	-62.3	3.6	1.51e+00	0	30	104	0	60	47338
2026-01-04 18:31:31.85	39.80	1.22	-47.3	-62.5	3.6	1.51e+00	0	30	104	0	60	48054
2026-01-04 18:31:34.87	39.56	1.37	-47.3	-62.4	3.6	1.51e+00	0	30	104	0	60	47870
2026-01-04 18:31:37.90	39.32	1.53	-47.3	-62.4	3.6	1.51e+00	0	30	104	0	60	47524
2026-01-04 18:31:40.93	39.08	1.68	-47.3	-62.5	3.6	1.51e+00	0	30	104	0	60	47932
2026-01-04 18:31:43.96	38.84	1.83	-47.3	-62.4	3.6	1.51e+00	0	30	104	0	60	47476
2026-01-04 18:31:47.00	38.59	1.99	-47.3	-62.2	3.6	1.51e+00	0	30	104	0	60	46768
2026-01-04 18:31:50.02	38.34	2.14	-47.3	-62.2	3.6	1.51e+00	0	30	104	0	60	46780
2026-01-04 18:31:53.06	38.09	2.30	-47.3	-62.5	3.6	1.51e+00	0	30	104	0	60	48160
2026-01-04 18:31:56.09	37.83	2.46	-47.3	-62.4	3.6	1.51e+00	0	30	104	0	60	47714
2026-01-04 18:31:59.12	37.58	2.61	-47.3	-61.9	3.5	1.51e+00	0	30	104	0	60	44741
2026-01-04 18:32:02.15	37.32	2.77	-47.3	-62.3	3.6	1.51e+00	0	30	104	0	60	47066
2026-01-04 18:32:05.18	37.05	2.92	-46.6	-53.4	6.7	7.57e-01	5	30	0	0	60	16836
2026-01-04 18:32:08.21	36.79	3.08	-47.5	-62.6	3.6	1.52e+00	0	30	104	5242880	60	48818
2026-01-04 18:32:11.24	36.52	3.24	-47.0	-56.1	4.7	1.50e+00	0	30	104	5242880	60	23072
2026-01-04 18:32:14.26	36.25	3.40	-43.3	-45.7	15.8	0.00e+00	0	30	0	8388608	60	6989
2026-01-04 18:32:17.29	35.97	3.55	-42.8	-44.9	16.6	0.00e+00	2	30	0	13631488	60	6364
2026-01-04 18:32:20.31	35.69	3.71	-42.3	-44.2	17.5	0.00e+00	92	30	0	19922944	58	6568
2026-01-04 18:32:23.34	35.41	3.87	-42.9	-45.1	16.6	0.00e+00	72	30	0	25165824	58	7331
2026-01-04 18:32:26.36	35.13	4.03	-42.2	-44.1	17.7	0.00e+00	2	30	0	30408704	58	6511
2026-01-04 18:32:29.39	34.84	4.19	-42.5	-44.5	17.3	0.00e+00	92	30	0	36700160	58	6833
2026-01-04 18:32:32.42	34.55	4.35	-42.4	-44.3	17.7	0.00e+00	8	30	0	41943040	58	6643
2026-01-04 18:32:35.44	34.26	4.50	-42.4	-44.3	17.5	0.00e+00	5	30	0	48234496	58	6644
2026-01-04 18:32:38.47	33.96	4.66	-42.3	-44.2	17.7	0.00e+00	7	30	0	53477376	58	6550
2026-01-04 18:32:41.49	33.66	4.82	-41.8	-43.5	18.2	0.00e+00	6	30	0	58720256	58	6053
2026-01-04 18:32:44.52	33.35	4.98	-42.1	-43.8	18.1	0.00e+00	72	30	0	65011712	58	6300
2026-01-04 18:32:47.54	33.05	5.14	-42.4	-44.2	17.7	0.00e+00	0	30	0	70254592	58	6602
2026-01-04 18:32:50.57	32.73	5.30	-41.9	-43.6	18.3	0.00e+00	92	30	0	76546048	56	6906
2026-01-04 18:32:53.60	32.42	5.46	-42.3	-44.1	18.2	0.00e+00	73	30	0	81788928	56	7310
2026-01-04 18:32:56.62	32.10	5.62	-42.1	-43.9	18.1	0.00e+00	6	30	0	88080384	56	7099
2026-01-04 18:32:59.64	31.78	5.78	-41.9	-43.6	18.6	0.00e+00	92	30	0	93323264	56	6901
2026-01-04 18:33:02.67	31.45	5.94	-41.9	-43.6	18.6	0.00e+00	6	30	0	98566144	56	6915
2026-01-04 18:33:05.70	31.13	6.11	-41.8	-43.4	18.6	0.00e+00	8	30	0	104857600	56	6737
2026-01-04 18:33:08.73	30.79	6.27	-41.3	-42.8	19.2	0.00e+00	90	30	0	110100480	56	6308
2026-01-04 18:33:11.75	30.46	6.43	-41.4	-42.9	18.8	0.00e+00	71	30	0	116391936	56	6340
2026-01-04 18:33:14.78	30.11	6.59	-41.1	-42.5	19.5	0.00e+00	75	30	0	121634816	56	6100
2026-01-04 18:33:17.81	29.77	6.75	-41.7	-43.4	18.8	0.00e+00	19	30	0	126877696	56	6716
2026-01-04 18:33:20.84	29.42	6.91	-40.9	-42.3	19.7	0.00e+00	72	30	0	133169152	56	5920
2026-01-04 18:33:23.87	29.07	7.07	-40.9	-42.3	19.8	0.00e+00	0	30	0	138412032	56	5964
2026-01-04 18:33:26.89	28.71	7.23	-40.6	-41.9	20.1	0.00e+00	0	30	0	144703488	54	6379
2026-01-04 18:33:29.92	28.35	7.39	-40.6	-41.9	20.1	0.00e+00	92	30	0	149946368	54	6377
2026-01-04 18:33:32.95	27.98	7.55	-40.7	-42.1	19.9	0.00e+00	75	30	0	155189248	54	6481
2026-01-04 18:33:35.98	27.62	7.72	-40.8	-42.2	19.9	0.00e+00	13	30	0	161480704	54	6581
2026-01-04 18:33:39.00	27.24	7.88	-40.8	-42.2	19.9	0.00e+00	90	30	0	166723584	54	6585
2026-01-04 18:33:42.03	26.87	8.04	-41.0	-42.3	20.1	0.00e+00	12	30	0	173015040	54	6688
2026-01-04 18:33:45.06	26.48	8.20	-40.5	-41.8	20.4	0.00e+00	0	30	0	178257920	54	6255
2026-01-04 18:33:48.09	26.10	8.36	-40.4	-41.7	20.6	0.00e+00	19	30	0	184549376	54	6220
2026-01-04 18:33:51.12	25.71	8.52	-40.3	-41.6	20.6	0.00e+00	0	30	0	189792256	54	6155
2026-01-04 18:33:54.14	25.31	8.68	-40.5	-41.8	20.6	0.00e+00	0	31	0	195035136	54	6260
2026-01-04 18:33:57.17	24.91	8.84	-40.3	-41.6	20.6	0.00e+00	75	30	0	201326592	54	6113
2026-01-04 18:34:00.20	24.51	8.99	-40.2	-41.5	20.7	0.00e+00	75	30	0	206569472	54	6046
2026-01-04 18:34:03.23	24.10	9.15	-40.5	-41.8	20.4	0.00e+00	0	30	0	212860928	54	6251
2026-01-04 18:34:06.26	23.69	9.31	-40.7	-42.0	20.6	0.00e+00	0	30	0	218103808	54	6436
2026-01-04 18:34:09.29	23.27	9.47	-40.3	-41.6	20.8	0.00e+00	92	30	0	223346688	54	6139
2026-01-04 18:34:12.32	22.84	9.63	-40.6	-41.9	20.5	0.00e+00	68	30	0	229638144	54	6350
2026-01-04 18:34:15.35	22.42	9.78	-40.2	-41.5	20.6	0.00e+00	75	30	0	234881024	54	6052
2026-01-04 18:34:18.38	21.99	9.94	-40.5	-41.8	20.6	0.00e+00	43	31	0	241172480	54	6276
2026-01-04 18:34:21.41	21.55	10.09	-40.5	-41.7	20.6	0.00e+00	6	31	0	246415360	54	6244
2026-01-04 18:34:24.43	21.11	10.25	-40.4	-41.6	20.7	0.00e+00	7	30	0	252706816	54	6158
2026-01-04 18:34:27.46	20.66	10.40	-40.2	-41.4	20.8	0.00e+00	0	30	0	257949696	54	6032
2026-01-04 18:34:30.49	20.21	10.56	-40.3	-41.6	20.8	0.00e+00	0	31	0	263192576	54	6109
2026-01-04 18:34:33.52	19.76	10.71	-40.4	-41.7	20.8	0.00e+00	0	30	0	269484032	54	6192
2026-01-04 18:34:36.55	19.30	10.86	-40.0	-41.2	21.1	0.00e+00	23	31	0	274726912	54	5871
2026-01-04 18:34:39.58	18.83	11.01	-39.9	-41.1	21.2	0.00e+00	92	31	0	281018368	54	5815
2026-01-04 18:34:42.61	18.36	11.16	-39.7	-40.9	21.3	0.00e+00	23	30	0	286261248	52	6330
2026-01-04 18:34:45.65	17.88	11.31	-39.4	-40.5	21.7	0.00e+00	6	31	0	291504128	52	6081
2026-01-04 18:34:48.67	17.40	11.46	-40.1	-41.3	21.2	0.00e+00	92	30	0	297795584	52	6618
2026-01-04 18:34:51.70	16.92	11.61	-39.3	-40.3	21.8	0.00e+00	6	30	0	303038464	52	5957
2026-01-04 18:34:54.73	16.43	11.75	-39.3	-40.4	22.0	0.00e+00	0	30	0	309329920	52	5982
2026-01-04 18:34:57.75	15.93	11.90	-39.4	-40.5	21.7	0.00e+00	18	31	0	314572800	52	6036
2026-01-04 18:35:00.78	15.43	12.04	-39.1	-40.2	22.0	0.00e+00	63	31	0	320864256	52	5842
2026-01-04 18:35:03.81	14.93	12.18	-38.9	-40.0	22.2	0.00e+00	2	30	0	326107136	52	5726
2026-01-04 18:35:06.84	14.42	12.32	-38.9	-40.0	22.3	0.00e+00	9	30	0	331350016	52	5705
2026-01-04 18:35:09.87	13.90	12.46	-38.7	-39.8	22.4	0.00e+00	68	31	0	337641472	50	6260
2026-01-04 18:35:12.90	13.38	12.60	-38.9	-40.0	22.5	0.00e+00	0	31	0	342884352	50	6399
2026-01-04 18:35:15.93	12.86	12.73	-38.2	-39.1	22.3	0.00e+00	75	30	0	349175808	50	5798
2026-01-04 18:35:18.93	12.34	12.87	-38.0	-38.9	23.2	0.00e+00	90	30	0	354418688	50	5669
2026-01-04 18:35:21.96	11.80	13.00	-37.9	-38.8	23.3	0.00e+00	76	30	0	359661568	50	5598
2026-01-04 18:35:24.99	11.26	13.13	-38.0	-38.9	23.2	0.00e+00	2	30	0	365953024	50	5659
2026-01-04 18:35:28.02	10.72	13.26	-38.0	-39.0	23.1	0.00e+00	92	30	0	371195904	50	5706
2026-01-04 18:35:31.05	10.17	13.38	-38.6	-39.6	22.3	0.00e+00	0	31	0	377487360	50	6145
2026-01-04 18:35:34.08	9.61	13.51	-38.7	-39.6	22.7	0.00e+00	0	30	0	382730240	50	6173
2026-01-04 18:35:37.11	9.06	13.63	-38.4	-39.4	22.8	0.00e+00	31	30	0	389021696	50	5983
2026-01-04 18:35:40.14	8.49	13.75	-38.3	-39.3	22.8	0.00e+00	0	30	0	394264576	50	5915
2026-01-04 18:35:43.17	7.92	13.87	-38.4	-39.3	22.9	0.00e+00	5	30	0	399507456	50	5955
2026-01-04 18:35:46.20	7.35	13.99	-38.3	-39.2	22.9	0.00e+00	0	30	0	405798912	50	5885
2026-01-04 18:35:49.22	6.78	14.10	-38.3	-39.3	22.8	0.00e+00	92	30	0	411041792	50	5922
2026-01-04 18:35:52.25	6.20	14.21	-38.4	-39.3	23.2	0.00e+00	0	30	0	417333248	50	5953
2026-01-04 18:35:55.28	5.61	14.32	-38.4	-39.3	23.0	0.00e+00	0	31	0	422576128	50	5930
2026-01-04 18:35:58.31	5.02	14.43	-38.2	-39.2	23.1	0.00e+00	92	30	0	427819008	50	5856
2026-01-04 18:36:01.34	4.43	14.53	-37.9	-38.8	23.0	0.00e+00	6	30	0	434110464	50	5600
2026-01-04 18:36:04.36	3.83	14.63	-38.4	-39.3	23.0	0.00e+00	12	30	0	439353344	50	5938
2026-01-04 18:36:07.39	3.23	14.73	-38.2	-39.1	23.3	0.00e+00	92	31	0	445644800	50	5804
2026-01-04 18:36:10.42	2.62	14.83	-38.7	-39.8	22.4	0.00e+00	7	31	0	450887680	50	6246
2026-01-04 18:36:13.45	2.01	14.92	-38.4	-39.4	23.1	0.00e+00	5	30	0	457179136	50	5979
2026-01-04 18:36:16.48	1.39	15.01	-39.1	-40.1	22.5	0.00e+00	15	31	0	462422016	50	6483
2026-01-04 18:36:19.50	0.78	15.10	-38.4	-39.4	22.6	0.00e+00	73	30	0	467664896	50	5975
2026-01-04 18:36:22.53	0.16	15.18	-38.2	-39.2	23.2	0.00e+00	17	30	0	473956352	50	5849
2026-01-04 18:36:25.56	359.53	15.26	-37.9	-38.8	23.1	0.00e+00	6	30	0	479199232	48	6288
2026-01-04 18:36:28.59	358.90	15.34	-38.2	-39.1	23.1	0.00e+00	92	30	0	485490688	48	6531
2026-01-04 18:36:31.62	358.27	15.41	-37.9	-38.8	23.4	0.00e+00	7	30	0	490733568	50	5613
2026-01-04 18:36:34.64	357.64	15.48	-38.0	-38.9	23.3	0.00e+00	6	31	0	495976448	50	5646
2026-01-04 18:36:37.67	357.00	15.55	-38.2	-39.2	23.1	7.00e-07	92	30	0	502267904	50	5849
2026-01-04 18:36:40.70	356.36	15.61	-38.6	-39.6	22.8	0.00e+00	0	30	0	507510784	50	6124
2026-01-04 18:36:43.73	355.72	15.68	-39.0	-40.0	22.7	0.00e+00	5	30	0	513802240	50	6393
2026-01-04 18:36:46.76	355.07	15.73	-38.4	-39.4	22.9	0.00e+00	76	30	0	519045120	50	5981
2026-01-04 18:36:49.79	354.42	15.79	-38.3	-39.2	23.0	0.00e+00	0	30	0	525336576	50	5892
2026-01-04 18:36:52.82	353.77	15.84	-38.3	-39.3	23.1	0.00e+00	0	30	0	530579456	50	5903
2026-01-04 18:36:55.84	353.12	15.88	-38.3	-39.2	23.2	0.00e+00	0	31	0	535822336	50	5854
2026-01-04 18:36:58.87	352.47	15.92	-38.4	-39.3	23.0	0.00e+00	90	31	0	542113792	50	5915
2026-01-04 18:37:01.90	351.81	15.96	-38.6	-39.6	22.8	0.00e+00	71	30	0	547356672	50	6144
2026-01-04 18:37:04.93	351.15	16.00	-38.6	-39.5	22.9	0.00e+00	77	30	0	553648128	50	6088
2026-01-04 18:37:07.96	350.49	16.03	-38.4	-39.4	22.9	1.50e-06	92	31	0	558891008	50	5993
2026-01-04 18:37:10.98	349.83	16.06	-38.7	-39.7	22.7	0.00e+00	0	31	0	564133888	50	6180
2026-01-04 18:37:14.01	349.17	16.08	-39.1	-40.2	22.6	0.00e+00	0	30	0	570425344	50	6547
2026-01-04 18:37:17.04	348.51	16.10	-39.6	-40.6	22.2	0.00e+00	92	30	0	575668224	52	6164
2026-01-04 18:37:20.07	347.84	16.12	-39.0	-40.0	22.4	0.00e+00	0	30	0	581959680	50	6392
2026-01-04 18:37:23.10	347.18	16.13	-39.0	-40.0	22.5	0.00e+00	0	31	0	587202560	50	6441
2026-01-04 18:37:26.13	346.51	16.14	-38.3	-39.2	23.1	0.00e+00	42	30	0	592445440	50	5891
2026-01-04 18:37:29.15	345.85	16.14	-38.4	-39.4	22.8	0.00e+00	56	30	0	598736896	50	6002
2026-01-04 18:37:32.18	345.19	16.14	-39.1	-40.1	22.4	7.00e-07	12	30	0	603979776	50	6512
2026-01-04 18:37:35.21	344.52	16.14	-38.9	-39.9	22.1	0.00e+00	6	30	0	610271232	50	6356
2026-01-04 18:37:38.24	343.86	16.13	-38.9	-39.9	22.5	0.00e+00	90	30	0	615514112	50	6368
2026-01-04 18:37:41.27	343.19	16.12	-38.7	-39.7	22.7	0.00e+00	0	30	0	621805568	50	6217
2026-01-04 18:37:44.30	342.53	16.10	-39.1	-40.1	22.6	0.00e+00	0	30	0	627048448	50	6509
2026-01-04 18:37:47.32	341.87	16.08	-39.9	-41.0	22.1	0.00e+00	91	30	0	632291328	52	6430
2026-01-04 18:37:50.35	341.20	16.06	-40.1	-41.1	22.3	0.00e+00	14	30	0	638582784	52	6508
2026-01-04 18:37:53.38	340.54	16.03	-38.6	-39.6	22.9	0.00e+00	8	30	0	643825664	50	6118
2026-01-04 18:37:56.41	339.88	16.00	-39.1	-40.1	22.8	0.00e+00	91	30	0	650117120	50	6520
2026-01-04 18:37:59.44	339.22	15.96	-39.0	-40.0	22.4	0.00e+00	7	31	0	655360000	50	6451
2026-01-04 18:38:02.47	338.57	15.93	-38.4	-39.4	22.9	0.00e+00	0	30	0	660602880	50	5967
2026-01-04 18:38:05.50	337.91	15.88	-39.1	-40.1	22.8	0.00e+00	71	30	0	666894336	50	6484
2026-01-04 18:38:08.53	337.26	15.84	-38.4	-39.4	23.1	0.00e+00	33	30	0	672137216	50	5999
2026-01-04 18:38:11.55	336.61	15.79	-38.4	-39.3	23.1	0.00e+00	13	30	0	678428672	50	5956
2026-01-04 18:38:14.58	335.96	15.74	-38.4	-39.4	23.1	0.00e+00	19	30	0	683671552	50	5969
2026-01-04 18:38:17.61	335.32	15.68	-38.4	-39.3	23.2	0.00e+00	92	30	0	689963008	50	5932
2026-01-04 18:38:20.63	334.67	15.62	-38.8	-39.7	23.2	0.00e+00	0	30	0	695205888	50	6215
2026-01-04 18:38:23.66	334.03	15.55	-38.7	-39.7	22.9	0.00e+00	0	30	0	700448768	50	6205
2026-01-04 18:38:26.69	333.39	15.49	-39.2	-40.2	22.9	0.00e+00	92	30	0	706740224	50	6611
2026-01-04 18:38:29.72	332.76	15.42	-39.4	-40.4	22.8	0.00e+00	71	31	0	711983104	52	6027
2026-01-04 18:38:32.75	332.13	15.34	-38.9	-39.9	22.8	0.00e+00	5	30	0	718274560	52	5667
2026-01-04 18:38:35.78	331.50	15.27	-39.3	-40.3	22.7	0.00e+00	7	30	0	723517440	52	5926
2026-01-04 18:38:38.80	330.87	15.18	-39.1	-40.1	22.7	0.00e+00	64	30	0	728760320	50	6499
2026-01-04 18:38:41.83	330.25	15.10	-38.9	-39.9	22.6	0.00e+00	0	30	0	735051776	50	6332
2026-01-04 18:38:44.86	329.63	15.01	-39.2	-40.2	22.3	0.00e+00	0	30	0	740294656	50	6613
2026-01-04 18:38:47.89	329.02	14.92	-38.9	-39.9	22.6	0.00e+00	92	30	0	746586112	52	5676
2026-01-04 18:38:50.92	328.41	14.83	-40.7	-41.8	21.3	7.00e-07	0	30	0	751828992	52	7038
2026-01-04 18:38:53.94	327.80	14.74	-40.3	-41.4	21.4	0.00e+00	13	30	0	758120448	54	6012
2026-01-04 18:38:56.97	327.20	14.64	-40.0	-41.0	22.2	0.00e+00	92	30	0	763363328	54	5743
2026-01-04 18:39:00.00	326.60	14.54	-40.2	-41.2	21.6	0.00e+00	0	31	0	768606208	52	6607
2026-01-04 18:39:03.03	326.01	14.43	-39.5	-40.6	22.1	0.00e+00	2	30	0	774897664	52	6126
2026-01-04 18:39:06.05	325.42	14.33	-39.5	-40.5	22.5	0.00e+00	92	30	0	780140544	52	6073
2026-01-04 18:39:09.08	324.83	14.22	-40.1	-41.1	22.0	0.00e+00	0	30	0	786432000	52	6483
2026-01-04 18:39:12.11	324.25	14.11	-40.9	-42.1	21.6	0.00e+00	0	30	0	791674880	52	7278
2026-01-04 18:39:15.14	323.67	13.99	-39.2	-40.2	22.7	0.00e+00	0	30	0	796917760	52	5831
2026-01-04 18:39:18.17	323.10	13.88	-39.4	-40.4	22.7	0.00e+00	70	30	0	803209216	50	6744
2026-01-04 18:39:21.20	322.53	13.76	-39.0	-39.9	22.8	0.00e+00	8	30	0	808452096	52	5690
2026-01-04 18:39:24.23	321.96	13.64	-40.0	-41.0	22.6	0.00e+00	7	30	0	814743552	52	6405
2026-01-04 18:39:27.26	321.41	13.51	-40.1	-41.1	22.5	0.00e+00	92	31	0	819986432	52	6513
2026-01-04 18:39:30.28	320.85	13.39	-40.3	-41.3	22.8	0.00e+00	0	30	0	826277888	54	5898
2026-01-04 18:39:33.31	320.30	13.26	-38.9	-39.8	22.8	0.00e+00	73	30	0	831520768	50	6309
2026-01-04 18:39:36.34	319.76	13.13	-39.5	-40.5	22.6	0.00e+00	92	30	0	836763648	52	6046
2026-01-04 18:39:39.37	319.22	13.00	-39.5	-40.6	22.2	0.00e+00	0	30	0	843055104	52	6104
2026-01-04 18:39:42.40	318.68	12.87	-40.5	-41.6	21.6	0.00e+00	13	30	0	848297984	52	6922
2026-01-04 18:39:45.42	318.15	12.74	-40.0	-41.1	22.0	0.00e+00	92	30	0	854589440	54	5808
2026-01-04 18:39:48.45	317.63	12.60	-40.4	-41.5	21.5	0.00e+00	0	30	0	859832320	54	6072
2026-01-04 18:39:51.48	317.11	12.46	-40.5	-41.6	21.6	0.00e+00	5	30	0	865075200	54	6149
2026-01-04 18:39:54.51	316.59	12.33	-40.9	-42.0	21.3	0.00e+00	0	30	0	871366656	54	6450
2026-01-04 18:39:57.54	316.08	12.19	-40.6	-41.8	21.1	0.00e+00	90	30	0	876609536	54	6285
2026-01-04 18:40:00.56	315.58	12.04	-41.0	-42.2	21.0	0.00e+00	73	30	0	882900992	54	6606
2026-01-04 18:40:03.59	315.08	11.90	-41.3	-42.5	20.9	0.00e+00	7	30	0	888143872	56	6087
2026-01-04 18:40:06.62	314.58	11.76	-41.1	-42.3	20.9	0.00e+00	91	30	0	893386752	54	6634
2026-01-04 18:40:09.65	314.09	11.61	-41.6	-42.8	20.6	0.00e+00	8	30	0	899678208	56	6313
2026-01-04 18:40:12.68	313.60	11.46	-41.4	-42.7	20.3	0.00e+00	7	30	0	904921088	56	6222
2026-01-04 18:40:15.71	313.12	11.32	-42.1	-43.4	20.0	0.00e+00	92	30	0	911212544	58	5985
2026-01-04 18:40:18.74	312.65	11.17	-41.5	-42.8	20.5	0.00e+00	11	30	0	916455424	56	6250
2026-01-04 18:40:21.77	312.17	11.02	-43.0	-44.4	20.3	0.00e+00	9	30	0	922746880	56	7525
2026-01-04 18:40:24.79	311.71	10.87	-42.0	-43.4	20.2	0.00e+00	8	30	0	927989760	58	6008
2026-01-04 18:40:27.82	311.25	10.72	-42.2	-43.6	20.2	0.00e+00	79	30	0	933232640	58	6122
2026-01-04 18:40:30.85	310.79	10.56	-42.1	-43.4	20.1	0.00e+00	0	30	0	939524096	58	6019
2026-01-04 18:40:33.88	310.34	10.41	-42.4	-43.7	20.2	0.00e+00	0	30	0	944766976	56	7000
2026-01-04 18:40:36.91	309.89	10.25	-42.4	-43.7	20.2	0.00e+00	92	30	0	951058432	58	6229
2026-01-04 18:40:39.94	309.45	10.10	-42.1	-43.5	19.9	0.00e+00	13	30	0	956301312	56	6771
2026-01-04 18:40:42.96	309.01	9.94	-42.7	-44.1	20.0	0.00e+00	0	30	0	961544192	56	7309
2026-01-04 18:40:45.99	308.58	9.79	-42.7	-44.0	20.4	0.00e+00	92	30	0	967835648	56	7181
2026-01-04 18:40:49.02	308.15	9.63	-41.7	-43.0	20.2	0.00e+00	2	30	0	973078528	58	5700
2026-01-04 18:40:52.05	307.73	9.47	-42.4	-43.7	20.2	0.00e+00	0	30	0	979369984	56	6974
2026-01-04 18:40:55.08	307.31	9.32	-41.9	-43.2	20.5	7.00e-07	35	30	0	984612864	56	6551
2026-01-04 18:40:58.11	306.90	9.16	-41.7	-42.9	20.8	0.00e+00	0	30	0	990904320	56	6373
2026-01-04 18:41:01.14	306.49	9.00	-40.8	-42.0	21.1	0.00e+00	11	30	0	996147200	56	5705
2026-01-04 18:41:04.16	306.08	8.84	-40.4	-41.5	21.5	0.00e+00	9	30	0	1001390080	54	6076
2026-01-04 18:41:07.19	305.68	8.68	-39.8	-40.9	21.7	0.00e+00	92	30	0	1007681536	52	6370
2026-01-04 18:41:10.21	305.29	8.52	-40.5	-41.7	21.6	0.00e+00	14	30	0	1012924416	52	6935
2026-01-04 18:41:13.24	304.90	8.36	-40.7	-41.8	21.9	0.00e+00	0	30	0	1019215872	54	6268
2026-01-04 18:41:16.27	304.51	8.20	-41.0	-42.1	21.7	0.00e+00	90	30	0	1024458752	54	6483
2026-01-04 18:41:19.30	304.13	8.04	-40.1	-41.2	21.8	0.00e+00	67	30	0	1029701632	54	5891
2026-01-04 18:41:22.33	303.75	7.88	-39.7	-40.8	22.2	0.00e+00	0	30	0	1035993088	52	6262
2026-01-04 18:41:25.36	303.37	7.72	-40.5	-41.6	22.0	0.00e+00	92	30	0	1041235968	52	6914
2026-01-04 18:41:28.39	303.00	7.56	-40.3	-41.4	22.2	0.00e+00	12	30	0	1047527424	54	6021
2026-01-04 18:41:31.42	302.64	7.40	-40.0	-41.1	21.8	0.00e+00	0	30	0	1052770304	52	6508
2026-01-04 18:41:34.45	302.27	7.24	-40.0	-41.1	21.9	0.00e+00	19	30	0	1059061760	52	6529
2026-01-04 18:41:37.48	301.92	7.08	-40.3	-41.4	21.9	0.00e+00	18	30	0	1064304640	52	6715
2026-01-04 18:41:40.51	301.56	6.91	-40.0	-41.0	22.1	0.00e+00	0	30	0	1069547520	54	5699
2026-01-04 18:41:43.54	301.21	6.75	-39.9	-40.9	22.0	0.00e+00	17	30	0	1075838976	54	5683
2026-01-04 18:41:46.57	300.87	6.59	-39.2	-40.3	21.9	0.00e+00	92	30	0	1081081856	52	5915
2026-01-04 18:41:49.60	300.52	6.43	-39.6	-40.7	21.7	0.00e+00	6	30	0	1087373312	52	6210
2026-01-04 18:41:52.63	300.19	6.27	-40.1	-41.3	21.0	0.00e+00	0	30	0	1092616192	52	6623
2026-01-04 18:41:55.66	299.85	6.11	-40.1	-41.2	21.7	0.00e+00	92	30	0	1097859072	52	6602
2026-01-04 18:41:58.69	299.52	5.95	-40.0	-41.1	21.4	0.00e+00	0	30	0	1104150528	54	5780
2026-01-04 18:42:01.72	299.19	5.79	-39.9	-41.0	21.6	0.00e+00	0	30	0	1109393408	54	5735
2026-01-04 18:42:04.75	298.87	5.63	-40.5	-41.6	21.4	0.00e+00	92	30	0	1115684864	54	6118
2026-01-04 18:42:07.78	298.55	5.46	-40.5	-41.7	20.9	0.00e+00	31	30	0	1120927744	54	6202
2026-01-04 18:42:10.81	298.24	5.30	-40.5	-41.8	20.6	0.00e+00	0	30	0	1127219200	54	6246
2026-01-04 18:42:13.84	297.92	5.14	-41.1	-42.4	20.3	0.00e+00	0	30	0	1132462080	54	6767
2026-01-04 18:42:16.87	297.61	4.98	-41.4	-42.7	20.5	0.00e+00	90	30	0	1137704960	56	6214
2026-01-04 18:42:19.89	297.31	4.82	-41.1	-42.4	20.3	0.00e+00	0	30	0	1143996416	56	6010
2026-01-04 18:42:22.92	297.01	4.66	-41.0	-42.3	19.9	0.00e+00	0	30	0	1149239296	54	6681
2026-01-04 18:42:25.94	296.71	4.51	-41.1	-42.4	20.3	0.00e+00	92	30	0	1155530752	54	6746
2026-01-04 18:42:28.97	296.41	4.35	-41.4	-42.9	19.4	0.00e+00	12	30	0	1160773632	54	7124
2026-01-04 18:42:32.00	296.12	4.19	-41.8	-43.3	19.4	0.00e+00	0	30	0	1166016512	56	6621
2026-01-04 18:42:35.03	295.83	4.03	-41.6	-43.1	19.1	0.00e+00	92	30	0	1172307968	56	6533
2026-01-04 18:42:38.05	295.55	3.87	-41.9	-43.4	19.0	0.00e+00	0	30	0	1177550848	56	6760
2026-01-04 18:42:41.08	295.27	3.71	-42.0	-43.6	18.9	0.00e+00	61	30	0	1183842304	56	6855
2026-01-04 18:42:44.11	294.99	3.55	-42.3	-44.0	18.6	0.00e+00	71	30	0	1189085184	56	7173
2026-01-04 18:42:47.14	294.71	3.40	-42.3	-44.0	18.6	0.00e+00	33	30	0	1195376640	58	6422
2026-01-04 18:42:50.16	294.44	3.24	-42.1	-43.8	18.2	0.00e+00	0	30	0	1200619520	58	6312
2026-01-04 18:42:53.19	294.17	3.08	-42.1	-43.9	18.2	0.00e+00	15	30	0	1205862400	58	6325
2026-01-04 18:42:56.22	293.90	2.92	-49.0	-64.1	3.6	1.51e+00	0	30	104	1209008128	60	58191
2026-01-04 18:42:59.25	293.64	2.77	-49.2	-64.4	3.6	1.51e+00	0	30	104	1209008128	60	60158
2026-01-04 18:43:02.28	293.38	2.61	-49.4	-64.6	3.6	1.51e+00	0	30	104	1209008128	60	61107
2026-01-04 18:43:05.31	293.12	2.46	-49.6	-64.7	3.6	1.51e+00	0	31	104	1209008128	60	62292
2026-01-04 18:43:08.34	292.86	2.30	-50.2	-65.4	3.6	1.51e+00	0	30	104	1209008128	60	67279
2026-01-04 18:43:11.36	292.61	2.14	-49.9	-65.1	3.6	1.51e+00	0	30	104	1209008128	60	64822
2026-01-04 18:43:14.39	292.36	1.99	-49.6	-64.8	3.6	1.51e+00	0	30	104	1209008128	60	62636
2026-01-04 18:43:17.42	292.11	1.83	-49.8	-65.0	3.6	1.51e+00	0	30	104	1209008128	60	64397
2026-01-04 18:43:20.45	291.87	1.68	-49.2	-64.4	3.6	1.51e+00	0	30	104	1209008128	60	60120
2026-01-04 18:43:23.48	291.63	1.53	-49.9	-65.1	3.6	1.51e+00	0	30	104	1209008128	60	65293
2026-01-04 18:43:26.51	291.39	1.37	-49.3	-64.5	3.6	1.51e+00	0	30	104	1209008128	60	60516
2026-01-04 18:43:29.54	291.15	1.22	-50.1	-65.3	3.6	1.51e+00	0	30	104	1209008128	60	66199
2026-01-04 18:43:32.57	290.92	1.07	-49.7	-64.9	3.6	1.51e+00	0	30	104	1209008128	60	63411
2026-01-04 18:43:35.60	290.68	0.91	-49.3	-64.5	3.6	1.51e+00	0	30	104	1209008128	60	60379
2026-01-04 18:43:38.63	290.45	0.76	-49.5	-64.7	3.6	1.51e+00	0	31	104	1209008128	60	62369
2026-01-04 18:43:41.66	290.23	0.61	-50.8	-66.0	3.6	1.51e+00	0	30	104	1209008128	60	71957
2026-01-04 18:43:44.68	290.00	0.46	-49.8	-65.0	3.6	1.51e+00	0	31	104	1209008128	60	64330
2026-01-04 18:43:47.71	289.78	0.31	-50.6	-65.8	3.6	1.51e+00	0	31	104	1209008128	60	70518
2026-01-04 18:43:50.74	289.56	0.16	-50.0	-65.2	3.6	1.51e+00	0	30	104	1209008128	60	65679
2026-01-04 18:43:53.77	289.34	0.01	-50.0	-65.1	3.6	1.51e+00	0	30	104	1209008128	60	65098

#Closed at: 2026-01-04 18:43:54
#Recorded file [1209 MB]: D:/lorett/data/35029_260105_063110.dat