passes_logs/2026/01/14/R2.0S_Moscow/R2.0S_Moscow__20260114_005227_FENGYUN_3D_rec.log

#Pass ID: 20260114_005227_FENGYUN 3D
#Satellite: FENGYUN 3D
#Configuration: FENGYUN 3D
#almurnet v.1.7.20251203
#Start time: 2026-01-14 00:58:28

#Version: 2.2.20231116
#Station: R2.0S_Moscow
#Location: 37.707566 lon 55.798166 lat
#TLE: 1 43010U 17072A   26013.31211337  .00000452  00000+0  23563-3 0  9990
#TLE: 2 43010  98.9934 345.1024 0002270 111.0315 249.1103 14.19696845423017

#Time	Az	El	Level	Level2	SNR	BER	BlckErr	Temp	State	Recorded	gain1	gain2
2026-01-14 00:58:28.68	71.11	36.90	-45.3	-63.6	3.8	8.47e-01	0	59	0	0	62	29018
2026-01-14 00:58:30.69	71.88	37.11	-45.6	-57.1	3.8	8.45e-01	0	60	104	0	62	13776
2026-01-14 00:58:32.71	72.67	37.32	-45.6	-57.2	3.8	8.46e-01	0	60	104	0	62	13941
2026-01-14 00:58:34.73	73.47	37.51	-45.4	-57.0	3.8	8.46e-01	0	60	104	0	62	13685
2026-01-14 00:58:36.75	74.27	37.71	-45.4	-57.1	3.8	8.47e-01	0	60	104	0	62	13783
2026-01-14 00:58:38.77	75.09	37.90	-45.4	-56.9	3.8	8.47e-01	0	60	104	0	62	13559
2026-01-14 00:58:40.78	75.91	38.08	-45.4	-57.0	3.8	8.46e-01	0	60	104	0	62	13643
2026-01-14 00:58:42.80	76.74	38.26	-45.4	-57.0	3.8	8.46e-01	0	60	104	0	62	13590
2026-01-14 00:58:44.82	77.59	38.43	-45.3	-56.6	3.8	8.46e-01	0	60	104	0	62	13018
2026-01-14 00:58:46.84	78.44	38.59	-45.3	-56.6	3.8	8.46e-01	0	60	104	0	62	13048
2026-01-14 00:58:48.86	79.30	38.75	-45.4	-57.0	3.8	8.45e-01	0	60	104	0	62	13620
2026-01-14 00:58:50.87	80.16	38.91	-45.4	-57.0	3.8	8.46e-01	0	60	104	0	62	13715
2026-01-14 00:58:52.89	81.04	39.05	-45.3	-57.0	3.8	8.46e-01	0	60	104	0	62	13669
2026-01-14 00:58:54.92	81.93	39.19	-45.3	-56.7	3.8	8.46e-01	0	60	104	0	62	13236
2026-01-14 00:58:56.94	82.82	39.33	-45.2	-56.0	3.8	8.46e-01	0	60	104	0	62	12164
2026-01-14 00:58:58.96	83.72	39.45	-45.2	-55.6	3.8	8.46e-01	0	60	104	0	62	11649
2026-01-14 00:59:00.98	84.62	39.57	-45.3	-56.7	3.8	8.47e-01	0	61	104	0	62	13118
2026-01-14 00:59:03.00	85.54	39.68	-45.3	-56.3	3.8	8.46e-01	0	60	104	0	62	12600
2026-01-14 00:59:05.02	86.45	39.78	-45.3	-56.1	3.8	8.45e-01	0	60	104	0	62	12311
2026-01-14 00:59:07.05	87.38	39.88	-45.2	-55.5	3.8	8.45e-01	0	60	104	0	62	11486
2026-01-14 00:59:09.07	88.31	39.96	-45.0	-54.8	3.8	8.44e-01	0	60	104	0	62	10564
2026-01-14 00:59:11.09	89.24	40.04	-45.1	-55.1	3.9	8.45e-01	0	60	104	0	62	10951
2026-01-14 00:59:13.11	90.18	40.11	-45.1	-55.2	3.8	8.45e-01	0	61	104	0	62	11051
2026-01-14 00:59:15.13	91.12	40.17	-45.0	-54.1	3.9	8.45e-01	0	60	104	0	62	9800
2026-01-14 00:59:17.15	92.07	40.23	-41.4	-44.5	11.0	5.19e-03	0	61	0	7340032	54	5104
2026-01-14 00:59:19.17	93.02	40.27	-42.2	-45.7	9.7	7.21e-03	0	61	0	18874368	54	5916
2026-01-14 00:59:21.19	93.97	40.31	-41.8	-45.1	10.3	3.17e-02	0	61	0	28311552	55	5164
2026-01-14 00:59:23.21	94.92	40.34	-37.5	-39.3	16.1	0.00e+00	0	60	0	39845888	46	4487
2026-01-14 00:59:25.23	95.87	40.36	-41.5	-44.5	10.6	1.90e-01	0	60	0	51380224	55	4854
2026-01-14 00:59:27.25	96.83	40.37	-38.4	-40.4	15.0	1.60e-05	0	61	0	61865984	49	4271
2026-01-14 00:59:29.27	97.78	40.37	-37.3	-39.0	16.3	1.10e-06	0	61	0	67108864	46	4340
2026-01-14 00:59:31.29	98.74	40.36	-36.8	-38.5	16.8	0.00e+00	0	61	0	78643200	45	4338
2026-01-14 00:59:33.31	99.69	40.35	-36.7	-38.4	16.8	0.00e+00	0	61	0	89128960	45	4286
2026-01-14 00:59:35.33	100.64	40.32	-36.4	-38.1	17.2	0.00e+00	0	61	0	100663296	44	4360
2026-01-14 00:59:37.35	101.59	40.29	-36.3	-37.9	17.4	0.00e+00	0	61	0	112197632	44	4290
2026-01-14 00:59:39.37	102.54	40.25	-36.3	-37.9	17.4	0.00e+00	0	61	0	123731968	44	4269
2026-01-14 00:59:41.39	103.49	40.19	-36.4	-38.1	17.3	0.00e+00	0	60	0	135266304	44	4350
2026-01-14 00:59:43.41	104.43	40.14	-36.5	-38.2	17.1	0.00e+00	0	60	0	146800640	44	4394
2026-01-14 00:59:45.43	105.37	40.07	-36.2	-37.9	17.4	0.00e+00	0	61	0	157286400	44	4243
2026-01-14 00:59:47.45	106.31	39.99	-36.2	-37.8	17.5	0.00e+00	0	61	0	168820736	44	4202
2026-01-14 00:59:49.47	107.24	39.91	-36.2	-37.8	17.5	0.00e+00	0	61	0	180355072	44	4195
2026-01-14 00:59:51.49	108.17	39.82	-36.3	-37.9	17.4	0.00e+00	0	61	0	191889408	44	4253
2026-01-14 00:59:53.51	109.09	39.72	-36.2	-37.8	17.5	0.00e+00	0	61	0	203423744	44	4230
2026-01-14 00:59:55.53	110.01	39.61	-35.8	-37.3	17.8	0.00e+00	0	61	0	214958080	43	4206
2026-01-14 00:59:57.55	110.91	39.49	-36.1	-37.7	17.4	0.00e+00	0	61	0	225443840	43	4419
2026-01-14 00:59:59.57	111.82	39.37	-36.1	-37.8	17.3	0.00e+00	0	61	0	236978176	43	4450
2026-01-14 01:00:01.58	112.71	39.24	-36.0	-37.5	17.6	0.00e+00	0	61	0	248512512	43	4322
2026-01-14 01:00:03.61	113.60	39.10	-36.2	-37.8	17.3	0.00e+00	0	61	0	260046848	43	4491
2026-01-14 01:00:05.63	114.48	38.96	-36.0	-37.6	17.5	0.00e+00	0	60	0	271581184	43	4375
2026-01-14 01:00:07.65	115.36	38.81	-35.8	-37.4	17.7	0.00e+00	0	61	0	283115520	43	4254
2026-01-14 01:00:09.67	116.22	38.65	-36.0	-37.6	17.5	0.00e+00	0	61	0	293601280	43	4389
2026-01-14 01:00:11.69	117.08	38.48	-36.2	-37.8	17.2	0.00e+00	0	61	0	305135616	43	4487
2026-01-14 01:00:13.71	117.93	38.31	-36.1	-37.7	17.5	0.00e+00	0	61	0	316669952	43	4396
2026-01-14 01:00:15.73	118.77	38.14	-36.0	-37.6	17.5	0.00e+00	0	61	0	328204288	43	4366
2026-01-14 01:00:17.76	119.60	37.95	-36.0	-37.6	17.6	0.00e+00	0	61	0	339738624	43	4343
2026-01-14 01:00:19.78	120.42	37.77	-36.1	-37.7	17.4	0.00e+00	0	61	0	351272960	43	4398
2026-01-14 01:00:21.79	121.23	37.58	-36.1	-37.7	17.4	0.00e+00	0	61	0	362807296	43	4399
2026-01-14 01:00:23.81	122.03	37.38	-36.1	-37.7	17.4	0.00e+00	0	61	0	373293056	43	4415
2026-01-14 01:00:25.83	122.82	37.17	-36.2	-37.9	17.3	0.00e+00	0	61	0	384827392	43	4497
2026-01-14 01:00:27.85	123.61	36.97	-36.2	-37.9	17.2	0.00e+00	0	61	0	396361728	43	4507
2026-01-14 01:00:29.87	124.38	36.75	-36.1	-37.8	17.4	0.00e+00	0	61	0	407896064	43	4443
2026-01-14 01:00:31.89	125.14	36.54	-36.1	-37.7	17.4	0.00e+00	0	61	0	419430400	43	4439
2026-01-14 01:00:33.92	125.90	36.32	-35.9	-37.5	17.6	0.00e+00	0	61	0	429916160	43	4324
2026-01-14 01:00:35.94	126.64	36.09	-35.8	-37.4	17.7	0.00e+00	0	61	0	441450496	43	4267
2026-01-14 01:00:37.96	127.37	35.86	-36.2	-37.8	17.3	0.00e+00	0	61	0	452984832	43	4474
2026-01-14 01:00:39.98	128.10	35.63	-36.3	-38.0	17.2	0.00e+00	0	61	0	464519168	43	4547
2026-01-14 01:00:41.99	128.81	35.40	-36.1	-37.7	17.4	0.00e+00	0	61	0	476053504	43	4415
2026-01-14 01:00:44.02	129.51	35.16	-36.0	-37.6	17.4	0.00e+00	0	61	0	487587840	43	4390
2026-01-14 01:00:46.03	130.20	34.92	-36.0	-37.6	17.5	0.00e+00	0	61	0	499122176	43	4379
2026-01-14 01:00:48.05	130.88	34.68	-36.0	-37.6	17.5	0.00e+00	0	61	0	509607936	43	4371
2026-01-14 01:00:50.07	131.56	34.43	-36.2	-37.9	17.2	0.00e+00	0	61	0	521142272	43	4502
2026-01-14 01:00:52.10	132.22	34.18	-36.3	-37.9	17.1	0.00e+00	0	61	0	532676608	43	4537
2026-01-14 01:00:54.12	132.88	33.93	-36.4	-38.1	17.0	0.00e+00	0	61	0	544210944	43	4630
2026-01-14 01:00:56.14	133.52	33.68	-36.5	-38.3	16.8	0.00e+00	0	61	0	555745280	43	4717
2026-01-14 01:00:58.16	134.15	33.43	-36.3	-37.9	17.1	0.00e+00	0	61	0	566231040	43	4527
2026-01-14 01:01:00.17	134.77	33.17	-36.3	-38.0	17.1	0.00e+00	0	61	0	577765376	43	4553
2026-01-14 01:01:02.20	135.39	32.92	-36.3	-38.0	17.0	0.00e+00	0	61	0	589299712	43	4580
2026-01-14 01:01:04.22	135.99	32.66	-36.2	-37.8	17.2	0.00e+00	0	61	0	600834048	43	4487
2026-01-14 01:01:06.24	136.59	32.40	-36.2	-37.8	17.2	0.00e+00	0	61	0	612368384	43	4474
2026-01-14 01:01:08.26	137.17	32.14	-36.2	-37.9	17.1	0.00e+00	0	61	0	623902720	43	4498
2026-01-14 01:01:10.27	137.75	31.88	-36.3	-38.1	17.0	0.00e+00	0	61	0	634388480	43	4599
2026-01-14 01:01:12.29	138.32	31.61	-36.5	-38.2	16.8	0.00e+00	0	61	0	645922816	43	4689
2026-01-14 01:01:14.31	138.87	31.35	-36.4	-38.1	16.9	0.00e+00	0	61	0	657457152	43	4651
2026-01-14 01:01:16.33	139.42	31.09	-36.3	-38.0	17.0	0.00e+00	0	61	0	668991488	43	4589
2026-01-14 01:01:18.35	139.97	30.82	-36.3	-38.0	17.0	0.00e+00	0	61	0	680525824	43	4582
2026-01-14 01:01:20.37	140.50	30.56	-36.5	-38.2	16.8	0.00e+00	0	61	0	692060160	43	4697
2026-01-14 01:01:22.39	141.02	30.30	-36.9	-38.7	16.4	0.00e+00	0	61	0	703594496	44	4697
2026-01-14 01:01:24.41	141.54	30.03	-37.0	-38.8	16.4	0.00e+00	0	61	0	714080256	44	4731
2026-01-14 01:01:26.42	142.04	29.77	-36.8	-38.6	16.5	0.00e+00	0	61	0	725614592	44	4619
2026-01-14 01:01:28.45	142.54	29.50	-36.7	-38.5	16.6	0.00e+00	0	61	0	737148928	44	4563
2026-01-14 01:01:30.47	143.04	29.24	-36.8	-38.5	16.6	0.00e+00	0	61	0	748683264	44	4588
2026-01-14 01:01:32.48	143.52	28.98	-36.9	-38.7	16.5	0.00e+00	0	61	0	760217600	44	4652
2026-01-14 01:01:34.50	143.99	28.71	-36.9	-38.7	16.5	0.00e+00	0	61	0	770703360	44	4674
2026-01-14 01:01:36.52	144.46	28.45	-36.8	-38.5	16.6	0.00e+00	0	61	0	782237696	44	4573
2026-01-14 01:01:38.54	144.92	28.19	-36.7	-38.4	16.7	0.00e+00	0	61	0	793772032	44	4526
2026-01-14 01:01:40.57	145.38	27.92	-36.7	-38.5	16.7	0.00e+00	0	61	0	805306368	44	4555
2026-01-14 01:01:42.58	145.82	27.66	-36.8	-38.6	16.5	0.00e+00	0	61	0	816840704	44	4638
2026-01-14 01:01:44.60	146.26	27.40	-36.8	-38.6	16.6	0.00e+00	0	61	0	828375040	44	4624
2026-01-14 01:01:46.62	146.69	27.14	-36.8	-38.5	16.6	0.00e+00	0	61	0	838860800	44	4586
2026-01-14 01:01:48.64	147.12	26.88	-36.7	-38.4	16.7	0.00e+00	0	61	0	850395136	44	4505
2026-01-14 01:01:50.66	147.54	26.62	-36.6	-38.3	16.8	0.00e+00	0	61	0	861929472	44	4461
2026-01-14 01:01:52.68	147.95	26.37	-36.6	-38.3	16.7	0.00e+00	0	61	0	873463808	44	4487
2026-01-14 01:01:54.70	148.36	26.11	-36.8	-38.6	16.5	0.00e+00	0	61	0	884998144	44	4615
2026-01-14 01:01:56.72	148.75	25.86	-36.9	-38.8	16.3	0.00e+00	0	61	0	896532480	44	4718
2026-01-14 01:01:58.74	149.15	25.60	-37.0	-38.8	16.3	0.00e+00	0	61	0	908066816	44	4715
2026-01-14 01:02:00.76	149.54	25.35	-36.9	-38.7	16.4	0.00e+00	0	61	0	918552576	44	4673
2026-01-14 01:02:02.78	149.92	25.09	-36.9	-38.7	16.4	0.00e+00	0	61	0	930086912	44	4672
2026-01-14 01:02:04.80	150.29	24.84	-36.9	-38.7	16.4	0.00e+00	0	61	0	941621248	44	4663
2026-01-14 01:02:06.82	150.66	24.59	-36.9	-38.6	16.4	0.00e+00	0	61	0	953155584	44	4649
2026-01-14 01:02:08.83	151.02	24.35	-36.9	-38.6	16.4	0.00e+00	0	61	0	964689920	44	4645
2026-01-14 01:02:10.85	151.38	24.10	-37.0	-38.8	16.3	0.00e+00	0	61	0	975175680	44	4710
2026-01-14 01:02:12.87	151.73	23.85	-37.1	-38.9	16.1	0.00e+00	0	61	0	986710016	44	4811
2026-01-14 01:02:14.89	152.08	23.61	-37.1	-39.0	16.1	0.00e+00	0	61	0	998244352	44	4826
2026-01-14 01:02:16.91	152.42	23.36	-37.1	-39.0	16.0	0.00e+00	0	61	0	1009778688	44	4826
2026-01-14 01:02:18.94	152.76	23.12	-37.1	-39.0	16.0	0.00e+00	0	61	0	1021313024	44	4833
2026-01-14 01:02:20.95	153.09	22.88	-37.1	-39.0	16.0	0.00e+00	0	61	0	1032847360	44	4837
2026-01-14 01:02:22.97	153.42	22.64	-37.3	-39.2	15.8	0.00e+00	0	61	0	1043333120	45	4683
2026-01-14 01:02:24.99	153.74	22.40	-37.5	-39.5	15.5	0.00e+00	0	61	0	1054867456	45	4825
2026-01-14 01:02:27.01	154.06	22.16	-37.6	-39.5	15.5	0.00e+00	0	61	0	1066401792	45	4838
2026-01-14 01:02:29.03	154.37	21.92	-37.4	-39.3	15.7	0.00e+00	0	61	0	1077936128	45	4737
2026-01-14 01:02:31.05	154.68	21.69	-37.4	-39.3	15.6	0.00e+00	0	61	0	1089470464	45	4757
2026-01-14 01:02:33.07	154.98	21.46	-37.4	-39.2	15.8	0.00e+00	0	61	0	1101004800	45	4690
2026-01-14 01:02:35.09	155.28	21.22	-37.5	-39.4	15.6	0.00e+00	0	61	0	1112539136	45	4803
2026-01-14 01:02:37.11	155.58	20.99	-37.8	-39.8	15.2	1.10e-06	0	61	0	1123024896	46	4708
2026-01-14 01:02:39.14	155.87	20.76	-38.1	-40.2	14.8	0.00e+00	0	61	0	1134559232	46	4947
2026-01-14 01:02:41.16	156.15	20.53	-38.0	-40.0	14.9	0.00e+00	0	61	0	1146093568	46	4858
2026-01-14 01:02:43.17	156.44	20.31	-37.9	-39.9	15.0	0.00e+00	0	61	0	1157627904	46	4797
2026-01-14 01:02:45.20	156.72	20.08	-37.8	-39.8	15.2	0.00e+00	0	61	0	1169162240	46	4752
2026-01-14 01:02:47.22	156.99	19.86	-37.8	-39.8	15.1	1.10e-06	0	61	0	1179648000	46	4752
2026-01-14 01:02:49.24	157.26	19.64	-37.9	-39.9	15.0	0.00e+00	0	61	0	1191182336	46	4809
2026-01-14 01:02:51.26	157.53	19.42	-38.0	-40.0	14.9	0.00e+00	0	61	0	1202716672	46	4844
2026-01-14 01:02:53.28	157.79	19.20	-38.0	-40.1	14.8	0.00e+00	0	61	0	1214251008	46	4898
2026-01-14 01:02:55.30	158.05	18.98	-38.0	-40.0	14.9	0.00e+00	0	61	0	1225785344	46	4861
2026-01-14 01:02:57.32	158.31	18.76	-38.0	-40.0	14.9	0.00e+00	0	61	0	1237319680	46	4860
2026-01-14 01:02:59.34	158.56	18.54	-38.1	-40.2	14.8	0.00e+00	0	61	0	1248854016	46	4928
2026-01-14 01:03:01.36	158.81	18.33	-38.0	-40.0	14.9	0.00e+00	0	61	0	1259339776	46	4832
2026-01-14 01:03:03.38	159.05	18.12	-38.0	-40.1	14.9	1.10e-06	0	61	0	1270874112	46	4876
2026-01-14 01:03:05.40	159.29	17.91	-38.1	-40.2	14.7	0.00e+00	0	61	0	1282408448	46	4969
2026-01-14 01:03:07.42	159.53	17.70	-38.3	-40.4	14.5	1.10e-06	0	61	0	1293942784	47	4787
2026-01-14 01:03:09.44	159.77	17.49	-38.3	-40.5	14.5	1.10e-06	0	61	0	1305477120	47	4819
2026-01-14 01:03:11.45	160.00	17.28	-38.4	-40.6	14.3	2.20e-06	0	61	0	1317011456	47	4910
2026-01-14 01:03:13.48	160.23	17.07	-38.4	-40.6	14.3	1.10e-06	0	61	0	1327497216	47	4874
2026-01-14 01:03:15.50	160.46	16.87	-38.5	-40.6	14.2	1.10e-06	0	61	0	1339031552	47	4926
2026-01-14 01:03:17.52	160.68	16.66	-38.5	-40.7	14.1	3.40e-06	0	61	0	1350565888	47	4982
2026-01-14 01:03:19.54	160.90	16.46	-38.4	-40.6	14.2	3.40e-06	0	61	0	1362100224	47	4907
2026-01-14 01:03:21.56	161.12	16.26	-38.5	-40.7	14.1	3.40e-06	0	61	0	1373634560	47	4943
2026-01-14 01:03:23.58	161.34	16.06	-38.5	-40.7	14.1	0.00e+00	0	61	0	1384120320	47	4966
2026-01-14 01:03:25.60	161.55	15.86	-38.6	-40.8	14.0	4.50e-06	0	61	0	1395654656	47	5023
2026-01-14 01:03:27.61	161.76	15.66	-38.8	-41.0	13.9	8.00e-06	0	61	0	1407188992	48	4858
2026-01-14 01:03:29.63	161.96	15.47	-38.9	-41.1	13.8	1.02e-05	0	61	0	1418723328	48	4917
2026-01-14 01:03:31.65	162.17	15.27	-38.9	-41.1	13.7	1.25e-05	0	61	0	1430257664	48	4924
2026-01-14 01:03:33.67	162.37	15.08	-38.8	-41.0	13.8	1.25e-05	0	61	0	1441792000	48	4861
2026-01-14 01:03:35.69	162.57	14.89	-38.9	-41.1	13.7	9.10e-06	0	61	0	1453326336	48	4921
2026-01-14 01:03:37.71	162.77	14.70	-38.7	-40.9	13.9	3.40e-06	0	61	0	1463812096	48	4790
2026-01-14 01:03:39.73	162.96	14.51	-38.9	-41.1	13.7	1.02e-05	0	61	0	1475346432	48	4915
2026-01-14 01:03:41.75	163.15	14.32	-38.7	-40.9	13.9	5.70e-06	0	61	0	1486880768	48	4809
2026-01-14 01:03:43.77	163.34	14.13	-38.8	-41.0	13.8	1.25e-05	0	61	0	1498415104	48	4855
2026-01-14 01:03:45.79	163.53	13.94	-38.9	-41.2	13.5	1.71e-05	0	61	0	1509949440	48	4981
2026-01-14 01:03:47.81	163.72	13.76	-39.2	-41.6	13.1	3.77e-05	0	61	0	1521483776	48	5178
2026-01-14 01:03:49.83	163.90	13.57	-39.3	-41.8	12.9	6.52e-05	0	61	0	1531969536	49	5018
2026-01-14 01:03:51.85	164.08	13.39	-39.3	-41.8	13.0	8.92e-05	0	61	0	1543503872	49	4984
2026-01-14 01:03:53.87	164.26	13.21	-39.3	-41.8	12.9	8.01e-05	0	61	0	1555038208	49	5017
2026-01-14 01:03:55.89	164.44	13.03	-39.3	-41.8	12.9	8.23e-05	0	61	0	1566572544	49	5006
2026-01-14 01:03:57.91	164.61	12.85	-39.3	-41.8	12.8	7.43e-05	0	61	0	1578106880	49	5022
2026-01-14 01:03:59.93	164.78	12.67	-39.3	-41.8	12.9	9.15e-05	0	61	0	1589641216	49	4984
2026-01-14 01:04:01.95	164.95	12.49	-39.3	-41.7	12.9	6.86e-05	0	61	0	1600126976	49	4953
2026-01-14 01:04:03.97	165.12	12.32	-39.3	-41.7	12.9	8.12e-05	0	61	0	1611661312	49	4974
2026-01-14 01:04:05.99	165.29	12.14	-39.3	-41.8	12.8	8.92e-05	0	61	0	1623195648	49	5008
2026-01-14 01:04:08.01	165.45	11.97	-39.4	-41.9	12.6	1.21e-04	0	61	0	1634729984	49	5093
2026-01-14 01:04:10.03	165.62	11.79	-39.4	-42.0	12.6	1.66e-04	0	61	0	1646264320	49	5111
2026-01-14 01:04:12.05	165.78	11.62	-39.6	-42.2	12.3	2.22e-04	0	61	0	1657798656	49	5239
2026-01-14 01:04:14.07	165.94	11.45	-39.6	-42.2	12.3	3.25e-04	0	61	0	1668284416	49	5271
2026-01-14 01:04:16.09	166.09	11.28	-39.5	-42.1	12.4	2.13e-04	0	61	0	1679818752	49	5205
2026-01-14 01:04:18.11	166.25	11.11	-39.5	-42.2	12.3	2.75e-04	0	61	0	1691353088	49	5225
2026-01-14 01:04:20.13	166.40	10.94	-39.7	-42.4	12.1	3.83e-04	0	61	0	1702887424	49	5349
2026-01-14 01:04:22.15	166.56	10.77	-39.5	-42.2	12.3	2.84e-04	0	61	0	1714421760	50	4928
2026-01-14 01:04:24.17	166.71	10.61	-39.6	-42.3	12.1	3.91e-04	0	61	0	1725956096	50	5015
2026-01-14 01:04:26.19	166.86	10.44	-39.8	-42.6	11.9	5.85e-04	0	61	0	1737490432	50	5160
2026-01-14 01:04:28.21	167.00	10.28	-39.7	-42.4	11.9	5.17e-04	0	61	0	1747976192	50	5100
2026-01-14 01:04:30.23	167.15	10.11	-39.6	-42.3	12.1	4.21e-04	0	61	0	1759510528	50	4996
2026-01-14 01:04:32.25	167.29	9.95	-39.7	-42.4	11.9	4.97e-04	0	61	0	1771044864	50	5080
2026-01-14 01:04:34.27	167.44	9.79	-39.7	-42.5	11.8	6.58e-04	0	61	0	1782579200	50	5103
2026-01-14 01:04:36.29	167.58	9.63	-39.8	-42.6	11.7	9.70e-04	0	61	0	1794113536	50	5176
2026-01-14 01:04:38.31	167.72	9.47	-39.9	-42.7	11.5	9.72e-04	0	61	0	1804599296	50	5268
2026-01-14 01:04:40.33	167.86	9.31	-39.8	-42.6	11.6	1.08e-03	0	61	0	1816133632	50	5200
2026-01-14 01:04:42.35	167.99	9.15	-39.8	-42.6	11.5	1.10e-03	0	61	0	1827667968	50	5206
2026-01-14 01:04:44.37	168.13	8.99	-39.8	-42.7	11.4	1.47e-03	0	61	0	1839202304	50	5260
2026-01-14 01:04:46.39	168.26	8.84	-39.9	-42.8	11.3	1.63e-03	0	61	0	1850736640	50	5339
2026-01-14 01:04:48.41	168.40	8.68	-39.9	-42.8	11.3	1.63e-03	0	61	0	1862270976	50	5321
2026-01-14 01:04:50.43	168.53	8.53	-39.9	-42.9	11.2	1.71e-03	0	61	0	1872756736	50	5355
2026-01-14 01:04:52.45	168.66	8.37	-39.8	-42.6	11.4	1.26e-03	0	61	0	1884291072	50	5202
2026-01-14 01:04:54.47	168.79	8.22	-39.9	-42.8	11.3	1.79e-03	0	61	0	1895825408	50	5302
2026-01-14 01:04:56.48	168.92	8.07	-39.9	-42.8	11.2	1.95e-03	0	61	0	1907359744	50	5332
2026-01-14 01:04:58.50	169.04	7.92	-44.6	-55.7	3.8	8.47e-01	0	61	104	1915748352	59	14034
2026-01-14 01:05:00.52	169.17	7.77	-44.9	-56.5	3.8	8.46e-01	0	61	104	1915748352	60	14402
2026-01-14 01:05:02.55	169.29	7.62	-45.1	-56.6	3.8	8.47e-01	0	61	104	1915748352	60	14706
2026-01-14 01:05:04.57	169.41	7.47	-45.2	-56.8	3.8	8.46e-01	0	61	104	1915748352	60	14918
2026-01-14 01:05:06.59	169.54	7.32	-45.2	-56.8	3.8	8.46e-01	0	61	104	1915748352	61	14114
2026-01-14 01:05:08.61	169.66	7.17	-45.3	-56.8	3.8	8.46e-01	0	61	104	1915748352	61	14169
2026-01-14 01:05:10.63	169.78	7.02	-45.2	-56.7	3.8	8.46e-01	0	61	104	1915748352	61	14018
2026-01-14 01:05:12.66	169.89	6.88	-45.3	-56.8	3.8	8.47e-01	0	61	104	1915748352	61	14096
2026-01-14 01:05:14.68	170.01	6.73	-45.2	-56.7	3.8	8.45e-01	0	61	104	1915748352	61	14023
2026-01-14 01:05:16.70	170.13	6.59	-45.2	-56.7	3.8	8.45e-01	0	61	104	1915748352	61	13965
2026-01-14 01:05:18.71	170.24	6.44	-45.2	-56.7	3.8	8.46e-01	0	61	104	1915748352	61	14014
2026-01-14 01:05:20.73	170.36	6.30	-45.2	-56.7	3.8	8.47e-01	0	61	104	1915748352	61	13981
2026-01-14 01:05:22.75	170.47	6.16	-45.2	-56.7	3.8	8.46e-01	0	61	104	1915748352	61	13968
2026-01-14 01:05:24.78	170.58	6.02	-45.2	-56.7	3.8	8.45e-01	0	61	104	1915748352	61	13962
2026-01-14 01:05:26.80	170.69	5.87	-45.2	-56.7	3.8	8.46e-01	0	61	104	1915748352	61	13986
2026-01-14 01:05:28.82	170.80	5.73	-45.2	-56.7	3.8	8.46e-01	0	61	104	1915748352	61	13952
2026-01-14 01:05:30.84	170.91	5.59	-45.2	-56.7	3.8	8.45e-01	0	61	104	1915748352	61	13896
2026-01-14 01:05:32.86	171.02	5.46	-45.2	-56.7	3.8	8.46e-01	0	61	104	1915748352	61	13927
2026-01-14 01:05:34.88	171.12	5.32	-45.2	-56.7	3.8	8.46e-01	0	61	104	1915748352	61	13948
2026-01-14 01:05:36.90	171.23	5.18	-45.2	-56.7	3.8	8.46e-01	0	61	104	1915748352	61	13959
2026-01-14 01:05:38.93	171.33	5.04	-45.2	-56.7	3.8	8.46e-01	0	61	104	1915748352	61	13938
2026-01-14 01:05:40.95	171.44	4.90	-45.2	-56.7	3.8	8.46e-01	0	61	104	1915748352	61	13941
2026-01-14 01:05:42.97	171.54	4.77	-45.2	-56.7	3.8	8.46e-01	0	61	104	1915748352	61	13952
2026-01-14 01:05:44.99	171.64	4.63	-45.2	-56.7	3.8	8.46e-01	0	61	104	1915748352	61	13955
2026-01-14 01:05:47.01	171.74	4.50	-45.2	-56.7	3.8	8.46e-01	0	61	104	1915748352	61	13946
2026-01-14 01:05:49.03	171.85	4.36	-45.2	-56.7	3.8	8.45e-01	0	61	104	1915748352	61	13886
2026-01-14 01:05:51.06	171.95	4.23	-45.2	-56.7	3.8	8.46e-01	0	61	104	1915748352	61	13936
2026-01-14 01:05:53.08	172.04	4.10	-45.2	-56.7	3.8	8.46e-01	0	61	104	1915748352	61	13928
2026-01-14 01:05:55.10	172.14	3.97	-45.2	-56.7	3.8	8.46e-01	0	61	104	1915748352	61	13936
2026-01-14 01:05:57.12	172.24	3.83	-45.2	-56.7	3.8	8.46e-01	0	61	104	1915748352	61	13919
2026-01-14 01:05:59.15	172.33	3.70	-45.2	-56.7	3.8	8.46e-01	0	61	104	1915748352	61	13915
2026-01-14 01:06:01.17	172.43	3.57	-45.2	-56.7	3.8	8.46e-01	0	61	104	1915748352	61	13892
2026-01-14 01:06:03.19	172.52	3.44	-45.1	-56.6	3.8	8.44e-01	0	61	104	1915748352	61	13874
2026-01-14 01:06:05.21	172.62	3.31	-45.1	-56.7	3.8	8.46e-01	0	61	104	1915748352	61	13902
2026-01-14 01:06:07.23	172.71	3.18	-45.1	-56.7	3.8	8.46e-01	0	61	104	1915748352	61	13903
2026-01-14 01:06:09.25	172.80	3.05	-45.1	-56.6	3.8	8.45e-01	0	61	104	1915748352	61	13856
2026-01-14 01:06:11.28	172.90	2.93	-45.1	-56.6	3.8	8.45e-01	0	61	104	1915748352	61	13866
2026-01-14 01:06:13.30	172.99	2.80	-45.1	-56.6	3.8	8.46e-01	0	61	104	1915748352	61	13871
2026-01-14 01:06:15.32	173.08	2.67	-45.1	-56.6	3.8	8.45e-01	0	61	104	1915748352	61	13836
2026-01-14 01:06:17.34	173.17	2.55	-45.1	-56.6	3.8	8.46e-01	0	61	104	1915748352	61	13883
2026-01-14 01:06:19.36	173.25	2.42	-45.1	-56.6	3.8	8.45e-01	0	61	104	1915748352	61	13869
2026-01-14 01:06:21.38	173.34	2.30	-45.1	-56.6	3.8	8.46e-01	0	61	104	1915748352	61	13819
2026-01-14 01:06:23.40	173.43	2.17	-45.1	-56.6	3.8	8.47e-01	0	61	104	1915748352	61	13845
2026-01-14 01:06:25.42	173.52	2.05	-45.1	-56.6	3.8	8.47e-01	0	61	104	1915748352	61	13883
2026-01-14 01:06:27.45	173.60	1.92	-45.1	-56.6	3.8	8.47e-01	0	61	104	1915748352	61	13877

#Closed at: 2026-01-14 01:06:27
#Recorded file [1915 MB]: D:/lorett/data/31039_260114_035828.dat