passes_logs/2026/01/14/R2.0S_Moscow/R2.0S_Moscow__20260114_010359_NOAA_21_JPSS-2_rec.log

#Pass ID: 20260114_010359_NOAA 21 (JPSS-2)
#Satellite: NOAA 21 (JPSS-2)
#Configuration: NOAA-21
#almurnet v.1.7.20251203
#Start time: 2026-01-14 01:06:34

#Version: 2.2.20231116
#Station: R2.0S_Moscow
#Location: 37.707566 lon 55.798166 lat
#TLE: 1 54234U 22150A   26013.18009385  .00000056  00000+0  47387-4 0  9997
#TLE: 2 54234  98.7496 314.1019 0000691 303.8246  56.2864 14.19534466164559

#Time	Az	El	Level	Level2	SNR	BER	BlckErr	Temp	State	Recorded	gain1	gain2
2026-01-14 01:06:34.35	358.81	12.40	-45.1	-56.6	3.8	8.46e-01	0	61	0	0	61	13835
2026-01-14 01:06:37.39	358.47	12.63	-45.4	-57.8	3.8	1.49e+00	0	61	104	0	62	14894
2026-01-14 01:06:40.42	358.11	12.87	-45.3	-57.7	3.8	1.49e+00	0	61	104	0	62	14740
2026-01-14 01:06:43.45	357.75	13.10	-44.4	-56.8	3.8	1.49e+00	0	61	104	0	60	14967
2026-01-14 01:06:46.48	357.39	13.34	-40.5	-53.2	3.8	1.49e+00	0	61	104	0	52	15665
2026-01-14 01:06:49.52	357.01	13.58	-40.5	-53.2	3.8	1.49e+00	0	61	104	0	52	15646
2026-01-14 01:06:52.55	356.64	13.82	-40.5	-53.2	3.8	1.49e+00	0	61	104	0	52	15739
2026-01-14 01:06:55.59	356.25	14.06	-40.4	-53.3	3.8	1.49e+00	0	61	104	0	52	15788
2026-01-14 01:06:58.62	355.86	14.30	-40.4	-53.3	3.8	1.49e+00	0	61	104	0	52	15847
2026-01-14 01:07:01.65	355.46	14.55	-40.4	-53.3	3.8	1.49e+00	0	61	104	0	52	15763
2026-01-14 01:07:04.68	355.06	14.79	-40.4	-53.3	3.8	1.49e+00	0	61	104	0	52	15790
2026-01-14 01:07:07.72	354.65	15.04	-40.4	-53.3	3.8	1.49e+00	0	61	104	0	52	15870
2026-01-14 01:07:10.75	354.23	15.28	-40.4	-53.3	3.8	1.49e+00	0	61	104	0	52	15799
2026-01-14 01:07:13.78	353.80	15.53	-40.4	-53.3	3.8	1.49e+00	0	61	104	0	52	15800
2026-01-14 01:07:16.82	353.37	15.78	-40.4	-53.3	3.8	1.49e+00	0	61	104	0	52	15788
2026-01-14 01:07:19.85	352.93	16.03	-40.4	-53.3	3.8	1.49e+00	0	61	104	0	52	15773
2026-01-14 01:07:22.89	352.48	16.28	-40.4	-53.3	3.8	1.49e+00	0	61	104	0	52	15777
2026-01-14 01:07:25.92	352.03	16.53	-40.4	-53.2	3.8	1.49e+00	0	61	104	0	52	15729
2026-01-14 01:07:28.95	351.56	16.78	-40.4	-53.4	3.8	1.49e+00	0	61	104	0	52	16003
2026-01-14 01:07:31.98	351.09	17.03	-40.8	-53.6	3.8	1.49e+00	0	61	104	0	52	16344
2026-01-14 01:07:35.01	350.61	17.28	-40.2	-53.4	3.8	1.49e+00	0	61	104	0	52	16028
2026-01-14 01:07:38.04	350.13	17.54	-40.9	-53.4	3.8	1.49e+00	0	61	104	0	52	16116
2026-01-14 01:07:41.06	349.63	17.79	-40.8	-53.5	3.8	1.49e+00	0	61	104	0	52	16273
2026-01-14 01:07:44.09	349.13	18.04	-41.1	-53.7	3.8	1.49e+00	0	61	104	0	52	16623
2026-01-14 01:07:47.12	348.62	18.30	-41.4	-53.7	3.8	1.49e+00	0	61	104	0	53	15706
2026-01-14 01:07:50.15	348.09	18.55	-40.9	-53.6	3.8	1.49e+00	0	61	104	0	53	15538
2026-01-14 01:07:53.18	347.56	18.80	-41.1	-53.5	3.8	1.49e+00	0	61	104	0	53	15355
2026-01-14 01:07:56.21	347.02	19.06	-41.4	-53.8	3.8	1.49e+00	0	61	104	0	53	15827
2026-01-14 01:07:59.24	346.48	19.31	-41.1	-53.7	3.8	1.49e+00	0	61	104	0	53	15716
2026-01-14 01:08:02.27	345.92	19.57	-41.3	-53.8	3.8	1.49e+00	0	61	104	0	53	15912
2026-01-14 01:08:05.30	345.35	19.82	-40.9	-53.0	3.8	1.49e+00	0	61	104	0	53	14473
2026-01-14 01:08:08.33	344.77	20.07	-41.1	-53.6	3.8	1.49e+00	0	61	104	0	53	15451
2026-01-14 01:08:11.35	344.19	20.32	-42.2	-52.6	3.9	1.49e+00	0	61	104	0	54	12990
2026-01-14 01:08:14.38	343.59	20.58	-42.1	-51.8	3.9	1.45e+00	0	61	104	0	55	11173
2026-01-14 01:08:17.41	342.98	20.83	-42.2	-49.8	4.9	7.86e-01	0	61	0	0	55	8917
2026-01-14 01:08:20.44	342.37	21.08	-41.0	-46.5	7.1	8.19e-01	0	61	104	2097152	54	6428
2026-01-14 01:08:23.47	341.74	21.33	-39.8	-43.3	10.5	6.68e-03	0	61	0	8388608	51	5311
2026-01-14 01:08:26.49	341.10	21.57	-39.4	-42.3	11.9	5.53e-04	0	61	0	17825792	50	5032
2026-01-14 01:08:29.52	340.46	21.82	-39.2	-41.8	12.5	1.11e-04	0	61	0	27262976	50	4758
2026-01-14 01:08:32.55	339.80	22.06	-39.6	-42.3	12.5	1.74e-04	0	61	0	36700160	50	5025
2026-01-14 01:08:35.58	339.13	22.31	-39.6	-42.1	13.1	3.20e-05	0	61	0	46137344	50	4888
2026-01-14 01:08:38.61	338.45	22.55	-39.6	-42.0	13.3	1.90e-05	0	61	0	55574528	50	4840
2026-01-14 01:08:41.63	337.76	22.78	-39.5	-41.8	13.7	6.10e-06	0	61	0	65011712	50	4724
2026-01-14 01:08:44.66	337.06	23.02	-39.7	-42.1	13.5	9.90e-06	0	61	0	74448896	50	4883
2026-01-14 01:08:47.69	336.35	23.25	-39.8	-42.1	13.6	6.10e-06	0	61	0	83886080	50	4882
2026-01-14 01:08:50.72	335.63	23.48	-39.9	-42.3	13.4	9.90e-06	0	61	0	93323264	50	5026
2026-01-14 01:08:53.75	334.89	23.71	-40.0	-42.4	13.3	1.06e-05	0	61	0	102760448	50	5076
2026-01-14 01:08:56.78	334.15	23.94	-40.1	-42.5	13.3	1.75e-05	0	61	0	112197632	50	5141
2026-01-14 01:08:59.81	333.39	24.16	-40.3	-42.7	13.1	3.50e-05	0	61	0	121634816	51	4970
2026-01-14 01:09:02.84	332.63	24.38	-40.2	-42.6	13.3	1.90e-05	0	61	0	132120576	51	4874
2026-01-14 01:09:05.87	331.85	24.59	-40.2	-42.6	13.3	1.75e-05	0	61	0	140509184	51	4875
2026-01-14 01:09:08.91	331.06	24.80	-40.3	-42.8	13.1	2.51e-05	0	61	0	150994944	51	5010
2026-01-14 01:09:11.94	330.26	25.01	-40.3	-42.7	13.2	2.28e-05	0	61	0	160432128	51	4953
2026-01-14 01:09:14.97	329.46	25.21	-40.6	-43.1	12.8	6.17e-05	0	61	0	169869312	51	5200
2026-01-14 01:09:17.99	328.64	25.40	-40.5	-43.0	12.9	4.88e-05	0	61	0	179306496	51	5123
2026-01-14 01:09:21.02	327.81	25.59	-40.5	-43.0	12.9	4.73e-05	0	61	0	188743680	51	5105
2026-01-14 01:09:24.05	326.97	25.78	-40.3	-42.7	13.2	3.35e-05	0	61	0	198180864	51	4964
2026-01-14 01:09:27.08	326.12	25.96	-40.3	-42.7	13.2	1.83e-05	0	61	0	207618048	51	4974
2026-01-14 01:09:30.11	325.27	26.13	-40.4	-42.9	13.0	3.66e-05	0	61	0	217055232	51	5092
2026-01-14 01:09:33.13	324.40	26.30	-40.3	-42.8	13.1	2.82e-05	0	61	0	226492416	51	4985
2026-01-14 01:09:36.16	323.52	26.46	-40.3	-42.6	13.3	1.75e-05	0	61	0	235929600	51	4926
2026-01-14 01:09:39.19	322.64	26.62	-40.3	-42.7	13.2	2.36e-05	0	61	0	245366784	51	4958
2026-01-14 01:09:42.22	321.74	26.77	-40.2	-42.5	13.3	1.67e-05	0	61	0	254803968	51	4867
2026-01-14 01:09:45.24	320.84	26.91	-40.2	-42.6	13.3	1.37e-05	0	61	0	264241152	51	4903
2026-01-14 01:09:48.28	319.93	27.04	-40.0	-42.3	13.6	7.60e-06	0	61	0	273678336	51	4738
2026-01-14 01:09:51.31	319.01	27.17	-40.1	-42.5	13.4	1.22e-05	0	61	0	283115520	51	4827
2026-01-14 01:09:54.34	318.09	27.29	-40.2	-42.6	13.3	2.67e-05	0	61	0	292552704	51	4881
2026-01-14 01:09:57.37	317.15	27.40	-40.2	-42.5	13.4	1.14e-05	0	61	0	301989888	51	4846
2026-01-14 01:10:00.40	316.21	27.50	-40.2	-42.6	13.3	1.67e-05	0	61	0	311427072	51	4918
2026-01-14 01:10:03.43	315.27	27.60	-40.2	-42.6	13.3	1.60e-05	0	61	0	320864256	51	4876
2026-01-14 01:10:06.46	314.32	27.69	-40.1	-42.4	13.5	1.98e-05	0	61	0	330301440	51	4789
2026-01-14 01:10:09.49	313.36	27.76	-40.0	-42.3	13.6	1.50e-06	0	61	0	339738624	51	4710
2026-01-14 01:10:12.52	312.40	27.83	-40.2	-42.5	13.4	9.10e-06	0	61	0	349175808	51	4842
2026-01-14 01:10:15.55	311.44	27.90	-40.0	-42.3	13.6	9.10e-06	0	61	0	358612992	51	4730
2026-01-14 01:10:18.58	310.47	27.95	-40.4	-42.8	13.1	2.51e-05	0	61	0	368050176	51	5021
2026-01-14 01:10:21.61	309.50	27.99	-40.4	-42.8	13.0	5.11e-05	0	61	0	377487360	51	5035
2026-01-14 01:10:24.64	308.53	28.02	-40.4	-42.9	13.0	2.97e-05	0	61	0	386924544	51	5044
2026-01-14 01:10:27.66	307.56	28.05	-40.2	-42.5	13.3	2.67e-05	0	61	0	396361728	51	4865
2026-01-14 01:10:30.69	306.58	28.06	-39.9	-42.2	13.7	1.06e-05	0	61	0	405798912	51	4668
2026-01-14 01:10:33.72	305.61	28.07	-40.2	-42.5	13.3	1.14e-05	0	61	0	415236096	51	4870
2026-01-14 01:10:36.76	304.63	28.07	-40.2	-42.6	13.3	1.98e-05	0	61	0	424673280	51	4896
2026-01-14 01:10:39.79	303.65	28.06	-40.0	-42.3	13.6	7.60e-06	0	61	0	434110464	51	4749
2026-01-14 01:10:42.82	302.67	28.03	-40.1	-42.5	13.4	1.29e-05	0	61	0	443547648	51	4816
2026-01-14 01:10:45.85	301.70	28.00	-40.1	-42.4	13.4	1.29e-05	0	61	0	454033408	51	4812
2026-01-14 01:10:48.88	300.73	27.96	-39.9	-42.2	13.7	3.00e-06	0	61	0	462422016	51	4667
2026-01-14 01:10:51.91	299.76	27.91	-39.9	-42.2	13.7	9.10e-06	0	61	0	472907776	51	4675
2026-01-14 01:10:54.94	298.79	27.86	-40.0	-42.3	13.6	6.10e-06	0	61	0	481296384	51	4741
2026-01-14 01:10:57.96	297.83	27.79	-40.2	-42.5	13.3	1.52e-05	0	61	0	491782144	51	4865
2026-01-14 01:11:00.99	296.88	27.71	-40.1	-42.5	13.4	2.05e-05	0	61	0	501219328	51	4843
2026-01-14 01:11:04.02	295.92	27.63	-40.0	-42.3	13.6	1.14e-05	0	61	0	510656512	51	4723
2026-01-14 01:11:07.05	294.97	27.54	-40.0	-42.3	13.6	6.80e-06	0	61	0	520093696	51	4721
2026-01-14 01:11:10.08	294.03	27.44	-40.0	-42.2	13.6	6.80e-06	0	61	0	529530880	51	4702
2026-01-14 01:11:13.11	293.10	27.33	-40.2	-42.6	13.2	2.13e-05	0	61	0	538968064	51	4907
2026-01-14 01:11:16.14	292.17	27.21	-40.1	-42.5	13.4	1.83e-05	0	61	0	548405248	51	4838
2026-01-14 01:11:19.17	291.24	27.09	-40.3	-42.7	13.1	2.74e-05	0	61	0	557842432	51	4959
2026-01-14 01:11:22.21	290.32	26.95	-40.2	-42.6	13.3	1.29e-05	0	61	0	567279616	51	4871
2026-01-14 01:11:25.24	289.42	26.82	-40.3	-42.7	13.1	2.51e-05	0	61	0	576716800	51	4959
2026-01-14 01:11:28.26	288.52	26.67	-40.4	-42.9	12.9	4.65e-05	0	61	0	586153984	51	5064
2026-01-14 01:11:31.29	287.63	26.52	-40.2	-42.6	13.2	2.44e-05	0	61	0	595591168	51	4919
2026-01-14 01:11:34.33	286.74	26.36	-40.3	-42.8	13.1	3.96e-05	0	61	0	605028352	51	4994
2026-01-14 01:11:37.36	285.87	26.19	-40.4	-42.8	13.0	3.89e-05	0	61	0	614465536	51	5036
2026-01-14 01:11:40.39	285.01	26.02	-40.4	-42.8	13.0	4.34e-05	0	61	0	623902720	51	5041
2026-01-14 01:11:43.41	284.15	25.84	-40.4	-42.9	12.9	5.11e-05	0	61	0	633339904	51	5094
2026-01-14 01:11:46.44	283.31	25.65	-40.3	-42.8	13.0	3.50e-05	0	61	0	642777088	51	5002
2026-01-14 01:11:49.47	282.47	25.46	-40.1	-42.4	13.4	1.37e-05	0	61	0	652214272	51	4782
2026-01-14 01:11:52.50	281.65	25.27	-40.4	-42.8	12.9	3.58e-05	0	61	0	661651456	51	5039
2026-01-14 01:11:55.53	280.83	25.07	-40.4	-42.8	13.0	5.49e-05	0	61	0	671088640	51	5031
2026-01-14 01:11:58.56	280.03	24.86	-40.0	-42.3	13.5	6.10e-06	0	61	0	680525824	51	4739
2026-01-14 01:12:01.59	279.24	24.66	-40.0	-42.3	13.5	1.22e-05	0	61	0	689963008	51	4729
2026-01-14 01:12:04.62	278.45	24.44	-40.2	-42.7	13.1	3.12e-05	0	61	0	699400192	51	4935
2026-01-14 01:12:07.65	277.68	24.23	-39.7	-41.9	13.8	7.00e-07	0	61	0	708837376	51	4514
2026-01-14 01:12:10.68	276.92	24.00	-39.5	-41.6	14.2	0.00e+00	0	61	0	718274560	50	4639
2026-01-14 01:12:13.70	276.17	23.78	-39.9	-42.2	13.5	1.22e-05	0	61	0	727711744	50	4980
2026-01-14 01:12:16.73	275.43	23.55	-39.9	-42.1	13.6	1.14e-05	0	61	0	737148928	50	4925
2026-01-14 01:12:19.76	274.70	23.32	-39.6	-41.8	14.0	6.10e-06	0	61	0	746586112	50	4710
2026-01-14 01:12:22.79	273.98	23.09	-39.6	-41.8	14.0	2.20e-06	0	61	0	756023296	50	4722
2026-01-14 01:12:25.82	273.27	22.85	-39.8	-42.0	13.7	5.30e-06	0	61	0	765460480	50	4862
2026-01-14 01:12:28.85	272.58	22.61	-39.8	-42.0	13.8	4.50e-06	0	61	0	774897664	50	4830
2026-01-14 01:12:31.88	271.89	22.37	-39.9	-42.2	13.5	9.90e-06	0	61	0	784334848	50	4978
2026-01-14 01:12:34.92	271.21	22.13	-40.2	-42.6	13.0	3.35e-05	0	61	0	794820608	50	5216
2026-01-14 01:12:37.94	270.55	21.88	-39.8	-42.1	13.7	3.80e-06	0	61	0	804257792	50	4872
2026-01-14 01:12:40.97	269.90	21.64	-39.5	-41.6	14.1	3.80e-06	0	61	0	813694976	50	4633
2026-01-14 01:12:44.00	269.25	21.39	-39.9	-42.2	13.5	9.10e-06	0	61	0	823132160	50	4970
2026-01-14 01:12:47.04	268.62	21.14	-40.3	-42.8	12.9	3.73e-05	0	61	0	832569344	51	4986
2026-01-14 01:12:50.06	267.99	20.89	-40.1	-42.6	13.1	2.89e-05	0	61	0	842006528	51	4880
2026-01-14 01:12:53.09	267.38	20.64	-39.9	-42.2	13.5	1.37e-05	0	61	0	851443712	51	4690
2026-01-14 01:12:56.13	266.77	20.38	-40.1	-42.4	13.3	1.22e-05	0	61	0	860880896	51	4799
2026-01-14 01:12:59.16	266.18	20.13	-40.0	-42.4	13.3	2.59e-05	0	61	0	870318080	51	4766
2026-01-14 01:13:02.19	265.60	19.88	-40.0	-42.3	13.3	2.36e-05	0	61	0	879755264	51	4754
2026-01-14 01:13:05.21	265.03	19.62	-40.1	-42.5	13.1	2.51e-05	0	61	0	889192448	51	4863
2026-01-14 01:13:08.24	264.46	19.37	-40.3	-42.8	12.9	5.64e-05	0	61	0	898629632	51	4992
2026-01-14 01:13:11.27	263.91	19.11	-40.4	-43.0	12.5	1.08e-04	0	61	0	908066816	51	5147
2026-01-14 01:13:14.30	263.36	18.86	-40.8	-43.7	11.8	4.27e-04	0	61	0	917504000	52	5238
2026-01-14 01:13:17.33	262.82	18.60	-40.8	-43.7	11.8	7.45e-04	0	61	0	926941184	52	5272
2026-01-14 01:13:20.36	262.30	18.35	-40.1	-42.6	12.9	5.72e-05	0	61	0	936378368	52	4618
2026-01-14 01:13:23.39	261.78	18.09	-40.2	-42.7	12.7	6.79e-05	0	61	0	945815552	52	4677
2026-01-14 01:13:26.42	261.27	17.84	-40.6	-43.3	12.2	2.25e-04	0	61	0	955252736	52	5017
2026-01-14 01:13:29.45	260.76	17.58	-40.3	-42.9	12.6	9.68e-05	0	61	0	964689920	52	4766
2026-01-14 01:13:32.48	260.27	17.33	-40.1	-42.6	12.9	4.04e-05	0	61	0	974127104	52	4647
2026-01-14 01:13:35.51	259.79	17.08	-40.1	-42.5	13.0	3.28e-05	0	61	0	983564288	51	4843
2026-01-14 01:13:38.54	259.31	16.82	-40.6	-43.3	12.2	1.93e-04	0	61	0	993001472	51	5318
2026-01-14 01:13:41.57	258.84	16.57	-40.6	-43.4	12.0	3.47e-04	0	61	0	1002438656	52	5083
2026-01-14 01:13:44.60	258.38	16.32	-40.2	-42.8	12.6	1.01e-04	0	61	0	1011875840	52	4730
2026-01-14 01:13:47.63	257.93	16.07	-40.1	-42.6	12.9	5.34e-05	0	61	0	1021313024	52	4599
2026-01-14 01:13:50.66	257.48	15.82	-40.4	-43.0	12.4	1.40e-04	0	61	0	1030750208	52	4845
2026-01-14 01:13:53.69	257.04	15.57	-40.6	-43.4	12.0	3.62e-04	0	61	0	1040187392	52	5053
2026-01-14 01:13:56.72	256.61	15.32	-40.6	-43.4	12.0	3.36e-04	0	61	0	1049624576	52	5053
2026-01-14 01:13:59.75	256.19	15.07	-40.5	-43.2	12.2	2.75e-04	0	61	0	1059061760	52	4946
2026-01-14 01:14:02.76	255.78	14.83	-40.3	-42.9	12.5	9.76e-05	0	61	0	1068498944	52	4767
2026-01-14 01:14:05.79	255.37	14.58	-40.4	-43.0	12.3	1.80e-04	0	61	0	1077936128	52	4855
2026-01-14 01:14:08.82	254.96	14.34	-40.6	-43.4	11.9	3.13e-04	0	61	0	1087373312	52	5081
2026-01-14 01:14:11.84	254.57	14.09	-40.9	-44.0	11.3	1.00e-03	0	61	0	1096810496	52	5420
2026-01-14 01:14:14.87	254.18	13.85	-40.9	-43.9	11.4	9.70e-04	0	61	0	1106247680	52	5381
2026-01-14 01:14:17.91	253.80	13.61	-40.6	-43.5	11.8	4.90e-04	0	61	0	1115684864	52	5130
2026-01-14 01:14:20.94	253.42	13.37	-40.6	-43.3	11.9	3.78e-04	0	61	0	1125122048	52	5040
2026-01-14 01:14:23.97	253.05	13.13	-40.4	-43.2	12.1	2.43e-04	0	61	0	1135607808	52	4936
2026-01-14 01:14:26.99	252.68	12.89	-40.6	-43.5	11.7	4.42e-04	0	61	0	1145044992	52	5144
2026-01-14 01:14:30.02	252.33	12.66	-41.0	-44.1	11.1	1.44e-03	0	61	0	1154482176	52	5501
2026-01-14 01:14:33.05	251.97	12.42	-40.9	-43.9	11.3	1.26e-03	0	61	0	1163919360	52	5400
2026-01-14 01:14:36.08	251.63	12.19	-40.7	-43.6	11.6	7.83e-04	0	61	0	1173356544	52	5212
2026-01-14 01:14:39.11	251.28	11.95	-40.5	-43.3	11.9	4.66e-04	0	61	0	1182793728	52	4998
2026-01-14 01:14:42.14	250.95	11.72	-40.2	-42.9	12.4	1.89e-04	0	61	0	1192230912	52	4779
2026-01-14 01:14:45.17	250.62	11.49	-40.2	-42.9	12.3	1.43e-04	0	61	0	1201668096	52	4777
2026-01-14 01:14:48.20	250.29	11.26	-40.7	-43.7	11.5	6.89e-04	0	61	0	1211105280	52	5229
2026-01-14 01:14:51.23	249.97	11.03	-41.1	-44.4	10.8	2.58e-03	0	61	0	1220542464	52	5663
2026-01-14 01:14:54.25	249.66	10.81	-41.2	-44.5	10.6	3.72e-03	0	61	0	1229979648	52	5783
2026-01-14 01:14:57.29	249.34	10.58	-41.0	-44.2	10.9	2.27e-03	0	61	0	1239416832	52	5578
2026-01-14 01:15:00.31	249.04	10.36	-40.8	-43.8	11.2	1.46e-03	0	61	0	1248854016	52	5328
2026-01-14 01:15:03.34	248.74	10.13	-40.7	-43.6	11.4	9.69e-04	0	61	0	1258291200	52	5216
2026-01-14 01:15:06.37	248.44	9.91	-40.5	-43.5	11.6	6.77e-04	0	61	0	1267728384	52	5111
2026-01-14 01:15:09.40	248.15	9.69	-40.7	-43.8	11.2	1.16e-03	0	61	0	1277165568	52	5308
2026-01-14 01:15:12.44	247.86	9.47	-41.0	-44.3	10.8	2.42e-03	0	61	0	1286602752	52	5594
2026-01-14 01:15:15.47	247.58	9.25	-41.2	-44.7	10.3	5.08e-03	0	61	0	1296039936	53	5555
2026-01-14 01:15:18.49	247.30	9.03	-41.3	-44.8	10.2	6.10e-03	0	61	0	1305477120	53	5608
2026-01-14 01:15:21.52	247.03	8.82	-41.3	-44.9	10.1	7.01e-03	0	61	0	1314914304	53	5671
2026-01-14 01:15:24.55	246.76	8.60	-41.3	-44.9	10.0	8.65e-03	0	61	0	1324351488	53	5685
2026-01-14 01:15:27.58	246.49	8.39	-41.1	-44.5	10.4	4.52e-03	0	61	0	1333788672	53	5443
2026-01-14 01:15:30.61	246.23	8.18	-41.1	-44.6	10.3	5.70e-03	0	61	0	1343225856	53	5515
2026-01-14 01:15:33.64	245.97	7.97	-43.8	-52.4	3.9	5.58e-01	0	61	104	1352663040	58	10175
2026-01-14 01:15:36.68	245.71	7.76	-45.0	-57.2	3.8	1.49e+00	0	61	104	1352663040	60	15708
2026-01-14 01:15:39.71	245.46	7.55	-45.3	-57.4	3.8	1.49e+00	0	61	104	1352663040	61	15222
2026-01-14 01:15:42.74	245.21	7.34	-45.3	-57.5	3.8	1.49e+00	0	61	104	1352663040	61	15335
2026-01-14 01:15:45.77	244.97	7.14	-45.2	-57.4	3.8	1.49e+00	0	61	104	1352663040	61	15219
2026-01-14 01:15:48.80	244.73	6.93	-45.3	-57.5	3.8	1.49e+00	0	61	104	1352663040	61	15258
2026-01-14 01:15:51.83	244.49	6.73	-45.2	-57.4	3.8	1.49e+00	0	61	104	1352663040	61	15223
2026-01-14 01:15:54.86	244.26	6.52	-45.2	-57.4	3.8	1.49e+00	0	61	104	1352663040	61	15162
2026-01-14 01:15:57.90	244.03	6.32	-45.2	-57.4	3.8	1.49e+00	0	61	104	1352663040	61	15192
2026-01-14 01:16:00.92	243.80	6.12	-45.2	-57.4	3.8	1.49e+00	0	61	104	1352663040	61	15178
2026-01-14 01:16:03.95	243.58	5.92	-45.2	-57.4	3.8	1.49e+00	0	61	104	1352663040	61	15142
2026-01-14 01:16:06.98	243.36	5.72	-45.2	-57.4	3.8	1.49e+00	0	61	104	1352663040	61	15155
2026-01-14 01:16:10.02	243.14	5.53	-45.2	-57.4	3.8	1.49e+00	0	61	104	1352663040	61	15166
2026-01-14 01:16:13.05	242.93	5.33	-45.2	-57.4	3.8	1.49e+00	0	61	104	1352663040	61	15118
2026-01-14 01:16:16.09	242.71	5.13	-45.2	-57.4	3.8	1.49e+00	0	61	104	1352663040	61	15127
2026-01-14 01:16:19.12	242.51	4.94	-45.2	-57.4	3.8	1.49e+00	0	61	104	1352663040	61	15130
2026-01-14 01:16:22.15	242.30	4.75	-45.2	-57.4	3.8	1.49e+00	0	61	104	1352663040	61	15148
2026-01-14 01:16:25.18	242.10	4.56	-45.2	-57.4	3.8	1.49e+00	0	61	104	1352663040	61	15173
2026-01-14 01:16:28.22	241.90	4.36	-45.2	-57.4	3.8	1.49e+00	0	61	104	1352663040	61	15109
2026-01-14 01:16:31.25	241.70	4.17	-45.2	-57.4	3.8	1.49e+00	0	61	104	1352663040	61	15082
2026-01-14 01:16:34.28	241.50	3.99	-45.2	-57.4	3.8	1.49e+00	0	62	104	1352663040	61	15106
2026-01-14 01:16:37.32	241.31	3.80	-45.1	-57.4	3.8	1.49e+00	0	61	104	1352663040	61	15090
2026-01-14 01:16:40.35	241.12	3.61	-45.1	-57.4	3.8	1.49e+00	0	61	104	1352663040	61	15078
2026-01-14 01:16:43.38	240.93	3.42	-45.2	-57.4	3.8	1.49e+00	0	61	104	1352663040	61	15114
2026-01-14 01:16:46.41	240.75	3.24	-45.1	-57.4	3.8	1.49e+00	0	61	104	1352663040	61	15081
2026-01-14 01:16:49.44	240.57	3.06	-45.1	-57.4	3.8	1.49e+00	0	61	104	1352663040	61	15065
2026-01-14 01:16:52.48	240.38	2.87	-45.2	-57.4	3.8	1.49e+00	0	61	104	1352663040	61	15065
2026-01-14 01:16:55.51	240.21	2.69	-45.1	-57.4	3.8	1.49e+00	0	61	104	1352663040	61	15077
2026-01-14 01:16:58.54	240.03	2.51	-45.1	-57.4	3.8	1.49e+00	0	61	104	1352663040	61	15057
2026-01-14 01:17:01.58	239.86	2.33	-45.1	-57.4	3.8	1.49e+00	0	62	104	1352663040	61	15061
2026-01-14 01:17:04.61	239.69	2.15	-45.1	-57.4	3.8	1.49e+00	0	61	104	1352663040	61	15081
2026-01-14 01:17:07.64	239.52	1.97	-45.1	-57.3	3.8	1.49e+00	0	61	104	1352663040	61	15037

#Closed at: 2026-01-14 01:17:09
#Recorded file [1352 MB]: D:/lorett/data/31039_260114_040634.dat