passes_logs/2026/01/14/R2.0S_Moscow/R2.0S_Moscow__20260114_015430_NOAA_20_JPSS-1_rec.log

#Pass ID: 20260114_015430_NOAA 20 (JPSS-1)
#Satellite: NOAA 20 (JPSS-1)
#Configuration: NOAA 20
#almurnet v.1.7.20251203
#Start time: 2026-01-14 01:58:06

#Version: 2.2.20231116
#Station: R2.0S_Moscow
#Location: 37.707566 lon 55.798166 lat
#TLE: 1 43013U 17073A   26013.21545503  .00000073  00000+0  55630-4 0  9998
#TLE: 2 43013  98.7633 314.1737 0001580  41.9966 318.1331 14.19535680422486

#Time	Az	El	Level	Level2	SNR	BER	BlckErr	Temp	State	Recorded	gain1	gain2
2026-01-14 01:58:06.25	341.58	12.73	-46.1	-64.8	3.8	7.47e-01	0	60	0	0	63	31704
2026-01-14 01:58:08.26	341.22	12.81	-45.3	-59.7	3.8	1.49e+00	0	61	104	0	62	18714
2026-01-14 01:58:10.28	340.86	12.89	-45.2	-59.7	3.8	1.49e+00	0	61	104	0	62	18569
2026-01-14 01:58:12.30	340.50	12.97	-45.0	-59.4	3.8	1.49e+00	0	61	104	0	62	18090
2026-01-14 01:58:14.32	340.13	13.05	-44.8	-59.2	3.8	1.49e+00	0	61	104	0	61	18696
2026-01-14 01:58:16.35	339.76	13.13	-44.5	-58.9	3.8	1.49e+00	0	61	104	0	61	18039
2026-01-14 01:58:18.37	339.39	13.21	-44.5	-58.9	3.8	1.49e+00	0	61	104	0	60	19093
2026-01-14 01:58:20.39	339.02	13.29	-44.5	-58.9	3.8	1.49e+00	0	61	104	0	60	18982
2026-01-14 01:58:22.41	338.65	13.36	-44.5	-58.8	3.8	1.49e+00	0	61	104	0	60	18882
2026-01-14 01:58:24.43	338.27	13.44	-44.4	-58.8	3.8	1.49e+00	0	61	104	0	60	18783
2026-01-14 01:58:26.45	337.89	13.51	-44.4	-58.5	3.8	1.49e+00	0	61	104	0	60	18146
2026-01-14 01:58:28.48	337.51	13.59	-44.4	-58.0	3.8	1.49e+00	0	61	104	0	60	17110
2026-01-14 01:58:30.50	337.13	13.66	-44.4	-57.7	3.8	1.49e+00	0	61	104	0	60	16523
2026-01-14 01:58:32.52	336.75	13.73	-44.4	-58.3	3.8	1.49e+00	0	61	104	0	60	17837
2026-01-14 01:58:34.54	336.36	13.80	-44.4	-58.9	3.8	1.49e+00	0	61	104	0	60	19073
2026-01-14 01:58:36.56	335.97	13.87	-44.4	-58.0	3.8	1.49e+00	0	61	104	0	60	17089
2026-01-14 01:58:38.58	335.59	13.94	-44.3	-56.5	3.8	1.49e+00	0	61	104	0	60	14528
2026-01-14 01:58:40.61	335.19	14.00	-44.3	-56.0	4.0	1.46e+00	0	61	104	0	60	13673
2026-01-14 01:58:42.63	334.80	14.07	-44.3	-56.8	3.8	1.47e+00	0	61	104	0	60	15019
2026-01-14 01:58:44.65	334.41	14.13	-44.4	-58.5	3.8	1.49e+00	0	61	104	0	60	18298
2026-01-14 01:58:46.67	334.01	14.20	-44.4	-57.1	3.8	1.49e+00	0	61	104	0	60	15445
2026-01-14 01:58:48.69	333.61	14.26	-44.0	-52.8	5.3	8.31e-01	0	61	0	1048576	59	9993
2026-01-14 01:58:50.71	333.21	14.32	-43.7	-51.2	6.4	2.52e-01	0	61	0	5242880	59	8345
2026-01-14 01:58:52.74	332.81	14.38	-44.0	-53.0	5.2	5.45e-01	0	61	0	9437184	59	10219
2026-01-14 01:58:54.76	332.41	14.44	-44.3	-55.8	3.9	1.44e+00	0	61	104	10485760	59	14182
2026-01-14 01:58:56.78	332.00	14.49	-43.6	-50.7	6.8	3.30e-01	0	61	0	12582912	59	7854
2026-01-14 01:58:58.80	331.60	14.55	-42.4	-47.1	10.4	1.21e-02	0	61	0	16777216	56	6185
2026-01-14 01:59:00.82	331.19	14.60	-43.5	-50.3	7.4	3.00e-03	0	61	0	19922944	57	8427
2026-01-14 01:59:02.84	330.78	14.66	-44.7	-55.1	4.6	1.58e-01	12	61	0	22020096	59	13084
2026-01-14 01:59:04.85	330.37	14.71	-42.7	-47.6	10.0	1.10e-01	0	61	0	23068672	56	6570
2026-01-14 01:59:06.88	329.96	14.76	-42.3	-46.8	10.8	2.32e-03	0	61	0	27262976	56	5963
2026-01-14 01:59:08.89	329.55	14.81	-42.4	-46.9	10.7	2.79e-03	0	61	0	30408704	56	6021
2026-01-14 01:59:10.91	329.14	14.85	-42.3	-46.6	11.1	1.71e-03	0	61	0	34603008	56	5815
2026-01-14 01:59:12.93	328.72	14.90	-42.4	-46.8	10.9	2.44e-03	0	61	0	38797312	56	5966
2026-01-14 01:59:14.95	328.30	14.95	-42.4	-46.8	10.9	2.75e-03	0	61	0	41943040	56	5978
2026-01-14 01:59:16.97	327.88	14.99	-42.3	-46.7	11.0	2.09e-03	0	61	0	46137344	56	5900
2026-01-14 01:59:18.99	327.46	15.03	-42.3	-46.7	11.0	1.91e-03	0	61	0	49283072	56	5879
2026-01-14 01:59:21.01	327.04	15.07	-42.4	-46.8	10.9	2.04e-03	0	61	0	53477376	56	5956
2026-01-14 01:59:23.03	326.62	15.11	-42.4	-46.9	10.8	2.53e-03	0	61	0	57671680	56	6014
2026-01-14 01:59:25.05	326.20	15.15	-42.5	-47.1	10.6	3.33e-03	0	61	0	60817408	56	6197
2026-01-14 01:59:27.07	325.78	15.18	-42.6	-47.2	10.5	4.18e-03	0	61	0	65011712	56	6251
2026-01-14 01:59:29.09	325.35	15.22	-42.5	-47.1	10.6	3.32e-03	0	61	0	69206016	56	6139
2026-01-14 01:59:31.11	324.92	15.25	-42.6	-47.3	10.4	3.55e-03	0	61	0	72351744	56	6308
2026-01-14 01:59:33.14	324.50	15.28	-42.4	-46.9	10.9	2.62e-03	0	61	0	76546048	56	5993
2026-01-14 01:59:35.16	324.07	15.31	-42.4	-46.7	11.0	1.72e-03	0	61	0	79691776	56	5909
2026-01-14 01:59:37.18	323.64	15.34	-42.3	-46.6	11.1	1.47e-03	0	61	0	83886080	56	5834
2026-01-14 01:59:39.20	323.21	15.36	-42.3	-46.5	11.3	1.40e-03	0	61	0	88080384	56	5768
2026-01-14 01:59:41.21	322.78	15.39	-42.3	-46.5	11.3	1.20e-03	0	61	0	91226112	56	5732
2026-01-14 01:59:43.23	322.35	15.41	-42.3	-46.5	11.2	1.11e-03	0	61	0	95420416	56	5778
2026-01-14 01:59:45.25	321.92	15.43	-42.4	-46.7	11.1	1.66e-03	0	61	0	98566144	56	5885
2026-01-14 01:59:47.27	321.49	15.45	-42.4	-46.8	10.9	1.93e-03	0	61	0	102760448	56	5959
2026-01-14 01:59:49.29	321.05	15.47	-42.5	-47.0	10.8	2.47e-03	0	61	0	106954752	56	6100
2026-01-14 01:59:51.31	320.62	15.49	-42.6	-47.2	10.6	3.37e-03	0	61	0	110100480	56	6205
2026-01-14 01:59:53.33	320.19	15.50	-42.5	-47.1	10.7	3.00e-03	0	61	0	114294784	56	6153
2026-01-14 01:59:55.35	319.75	15.52	-42.6	-47.1	10.6	3.27e-03	0	61	0	117440512	56	6183
2026-01-14 01:59:57.36	319.32	15.53	-42.7	-47.3	10.4	4.21e-03	0	61	0	121634816	56	6334
2026-01-14 01:59:59.38	318.88	15.54	-42.6	-47.2	10.6	3.68e-03	0	61	0	125829120	56	6209
2026-01-14 02:00:01.40	318.45	15.55	-42.6	-47.2	10.5	4.05e-03	0	61	0	128974848	56	6260
2026-01-14 02:00:03.42	318.01	15.56	-42.5	-47.1	10.7	3.13e-03	0	61	0	133169152	56	6155
2026-01-14 02:00:05.44	317.58	15.56	-42.4	-46.8	10.9	2.21e-03	0	61	0	137363456	56	5985
2026-01-14 02:00:07.46	317.14	15.56	-42.4	-46.8	11.0	1.88e-03	0	61	0	140509184	56	5924
2026-01-14 02:00:09.48	316.71	15.57	-42.4	-46.7	11.1	1.62e-03	0	61	0	144703488	56	5880
2026-01-14 02:00:11.50	316.27	15.57	-42.4	-46.7	11.0	1.80e-03	0	61	0	147849216	56	5895
2026-01-14 02:00:13.52	315.83	15.56	-42.5	-46.9	10.9	1.84e-03	0	61	0	152043520	56	6025
2026-01-14 02:00:15.54	315.40	15.56	-42.4	-46.9	10.8	2.34e-03	0	61	0	156237824	56	6016
2026-01-14 02:00:17.56	314.96	15.56	-42.6	-47.1	10.6	3.26e-03	0	61	0	159383552	56	6195
2026-01-14 02:00:19.58	314.53	15.55	-42.6	-47.2	10.5	4.09e-03	0	61	0	163577856	56	6215
2026-01-14 02:00:21.60	314.09	15.54	-42.6	-47.2	10.5	3.83e-03	0	61	0	166723584	56	6228
2026-01-14 02:00:23.62	313.66	15.53	-42.5	-47.0	10.8	2.62e-03	0	61	0	170917888	56	6070
2026-01-14 02:00:25.63	313.22	15.52	-42.4	-46.8	11.0	2.04e-03	0	61	0	175112192	56	5957
2026-01-14 02:00:27.66	312.79	15.51	-42.4	-46.8	10.9	2.08e-03	0	61	0	178257920	56	5982
2026-01-14 02:00:29.68	312.35	15.49	-42.5	-46.9	10.8	2.20e-03	0	61	0	182452224	56	6046
2026-01-14 02:00:31.69	311.92	15.48	-42.6	-47.2	10.6	3.27e-03	0	61	0	185597952	56	6204
2026-01-14 02:00:33.71	311.49	15.46	-42.6	-47.2	10.5	3.72e-03	0	61	0	189792256	56	6239
2026-01-14 02:00:35.73	311.06	15.44	-42.7	-47.4	10.4	4.50e-03	0	61	0	193986560	56	6381
2026-01-14 02:00:37.75	310.62	15.42	-42.6	-47.2	10.5	3.98e-03	0	61	0	197132288	56	6270
2026-01-14 02:00:39.77	310.19	15.39	-42.5	-47.0	10.7	2.94e-03	0	61	0	201326592	56	6093
2026-01-14 02:00:41.79	309.76	15.37	-42.5	-46.9	10.8	2.54e-03	0	61	0	205520896	56	6061
2026-01-14 02:00:43.81	309.33	15.34	-42.4	-46.8	10.8	2.30e-03	0	61	0	208666624	56	5988
2026-01-14 02:00:45.82	308.90	15.32	-42.6	-47.2	10.5	3.44e-03	0	61	0	212860928	56	6241
2026-01-14 02:00:47.84	308.48	15.29	-42.7	-47.4	10.2	5.20e-03	0	61	0	216006656	56	6396
2026-01-14 02:00:49.86	308.05	15.25	-42.6	-47.2	10.4	5.08e-03	0	61	0	220200960	56	6274
2026-01-14 02:00:51.88	307.62	15.22	-42.4	-46.9	10.7	3.05e-03	0	61	0	224395264	56	6058
2026-01-14 02:00:53.90	307.20	15.19	-42.3	-46.7	11.0	1.98e-03	0	61	0	227540992	56	5879
2026-01-14 02:00:55.92	306.77	15.15	-42.3	-46.5	11.2	1.80e-03	0	61	0	231735296	56	5764
2026-01-14 02:00:57.94	306.35	15.12	-42.3	-46.6	11.1	1.55e-03	0	61	0	234881024	56	5833
2026-01-14 02:00:59.96	305.93	15.08	-42.4	-46.8	10.9	1.95e-03	0	61	0	239075328	56	5927
2026-01-14 02:01:01.98	305.50	15.04	-42.4	-46.9	10.7	2.40e-03	0	61	0	243269632	56	6031
2026-01-14 02:01:04.00	305.08	15.00	-42.3	-46.7	11.0	2.13e-03	0	61	0	246415360	56	5856
2026-01-14 02:01:06.02	304.66	14.95	-42.2	-46.5	11.2	1.46e-03	0	61	0	250609664	56	5750
2026-01-14 02:01:08.03	304.25	14.91	-42.2	-46.5	11.1	1.61e-03	0	61	0	253755392	56	5775
2026-01-14 02:01:10.06	303.83	14.86	-42.4	-46.8	10.8	2.41e-03	0	61	0	257949696	56	5984
2026-01-14 02:01:12.08	303.41	14.82	-42.3	-46.7	10.9	2.38e-03	0	61	0	262144000	56	5893
2026-01-14 02:01:14.10	303.00	14.77	-42.2	-46.5	11.1	1.84e-03	0	61	0	265289728	56	5786
2026-01-14 02:01:16.12	302.59	14.72	-42.3	-46.6	11.0	1.64e-03	0	61	0	269484032	56	5835
2026-01-14 02:01:18.14	302.18	14.66	-42.2	-46.6	11.0	1.91e-03	0	61	0	273678336	56	5793
2026-01-14 02:01:20.16	301.77	14.61	-42.3	-46.7	10.9	2.34e-03	0	61	0	276824064	56	5867
2026-01-14 02:01:22.17	301.36	14.56	-42.4	-46.9	10.6	3.05e-03	0	61	0	281018368	56	6025
2026-01-14 02:01:24.19	300.95	14.50	-42.4	-47.1	10.5	3.78e-03	0	61	0	284164096	56	6132
2026-01-14 02:01:26.21	300.55	14.45	-42.4	-47.0	10.5	3.68e-03	0	61	0	288358400	56	6107
2026-01-14 02:01:28.23	300.14	14.39	-42.3	-46.8	10.7	3.25e-03	0	61	0	292552704	56	5981
2026-01-14 02:01:30.25	299.74	14.33	-42.4	-46.9	10.7	2.95e-03	0	61	0	295698432	56	6010
2026-01-14 02:01:32.27	299.34	14.27	-42.4	-47.0	10.5	3.69e-03	0	61	0	299892736	56	6081
2026-01-14 02:01:34.29	298.94	14.21	-42.4	-47.0	10.6	3.52e-03	0	61	0	303038464	56	6082
2026-01-14 02:01:36.31	298.55	14.14	-42.3	-46.9	10.6	3.15e-03	0	61	0	307232768	56	6020
2026-01-14 02:01:38.33	298.15	14.08	-42.5	-47.2	10.3	5.18e-03	0	61	0	311427072	56	6236
2026-01-14 02:01:40.34	297.76	14.01	-42.6	-47.6	9.8	8.94e-03	0	61	0	314572800	56	6519
2026-01-14 02:01:42.36	297.37	13.95	-42.5	-47.6	9.7	1.12e-02	0	61	0	318767104	56	6533
2026-01-14 02:01:44.38	296.98	13.88	-42.3	-47.0	10.3	8.04e-03	0	61	0	321912832	56	6117
2026-01-14 02:01:46.40	296.59	13.81	-42.1	-46.6	10.7	2.84e-03	0	61	0	326107136	56	5827
2026-01-14 02:01:48.42	296.20	13.74	-42.1	-46.5	10.7	2.98e-03	0	61	0	330301440	56	5774
2026-01-14 02:01:50.44	295.82	13.67	-42.1	-46.6	10.6	2.65e-03	0	61	0	333447168	56	5826
2026-01-14 02:01:52.46	295.43	13.60	-42.2	-47.1	10.0	6.30e-03	0	61	0	337641472	56	6158
2026-01-14 02:01:54.48	295.05	13.52	-42.1	-47.0	10.0	7.20e-03	0	61	0	341835776	56	6067
2026-01-14 02:01:56.50	294.67	13.45	-42.1	-47.0	10.0	8.31e-03	0	61	0	344981504	56	6090
2026-01-14 02:01:58.51	294.30	13.38	-41.8	-46.6	10.1	7.10e-03	0	61	0	349175808	55	6174
2026-01-14 02:02:00.53	293.92	13.30	-41.7	-46.4	10.2	5.79e-03	0	61	0	352321536	55	6024
2026-01-14 02:02:02.55	293.55	13.22	-41.7	-46.5	10.1	6.56e-03	0	61	0	356515840	55	6103
2026-01-14 02:02:04.57	293.18	13.14	-41.7	-46.6	9.9	9.13e-03	0	61	0	360710144	55	6198
2026-01-14 02:02:06.59	292.81	13.06	-41.7	-46.9	9.5	1.34e-02	0	61	0	363855872	55	6413
2026-01-14 02:02:08.61	292.44	12.98	-41.8	-47.2	9.1	2.22e-02	0	61	0	368050176	55	6643
2026-01-14 02:02:10.63	292.08	12.90	-41.8	-47.4	8.8	2.72e-02	0	61	0	371195904	55	6740
2026-01-14 02:02:12.65	291.71	12.82	-41.8	-47.4	8.8	3.08e-02	0	61	0	375390208	55	6789
2026-01-14 02:02:14.67	291.35	12.74	-41.6	-47.2	8.8	3.08e-02	0	61	0	379584512	55	6646
2026-01-14 02:02:16.69	290.99	12.66	-41.5	-47.1	8.8	2.89e-02	0	61	0	382730240	55	6562
2026-01-14 02:02:18.71	290.63	12.57	-41.5	-47.2	8.7	3.43e-02	0	61	0	386924544	55	6601
2026-01-14 02:02:20.73	290.28	12.49	-41.5	-47.3	8.6	3.70e-02	0	61	0	390070272	54	7058
2026-01-14 02:02:22.74	289.93	12.40	-41.5	-47.6	8.1	5.38e-02	0	61	0	394264576	54	7357
2026-01-14 02:02:24.76	289.58	12.32	-41.6	-48.2	7.5	9.70e-02	0	61	0	398458880	54	7872
2026-01-14 02:02:26.78	289.23	12.23	-41.6	-48.7	7.0	1.49e-01	0	61	0	401604608	54	8292
2026-01-14 02:02:28.80	288.88	12.14	-41.7	-49.2	6.5	2.25e-01	0	61	0	405798912	54	8766
2026-01-14 02:02:30.82	288.54	12.05	-41.6	-49.7	5.9	3.36e-01	0	61	0	409993216	54	9350
2026-01-14 02:02:32.84	288.19	11.96	-41.6	-50.3	5.5	4.52e-01	0	61	0	413138944	54	9950
2026-01-14 02:02:34.86	287.85	11.87	-41.5	-51.1	4.9	6.96e-01	0	61	0	417333248	54	10955
2026-01-14 02:02:36.87	287.52	11.78	-41.5	-52.0	4.5	1.07e+00	37	61	0	420478976	54	12221
2026-01-14 02:02:38.89	287.18	11.69	-41.5	-52.6	4.2	1.36e+00	0	61	0	422576128	54	13031
2026-01-14 02:02:40.91	286.85	11.60	-41.5	-53.2	4.1	1.43e+00	0	61	0	422576128	54	13924
2026-01-14 02:02:42.93	286.51	11.51	-41.4	-53.8	3.9	1.47e+00	0	61	104	422576128	54	14883
2026-01-14 02:02:44.95	286.18	11.41	-41.5	-53.9	3.8	1.48e+00	0	61	104	422576128	54	15157
2026-01-14 02:02:46.97	285.86	11.32	-41.7	-54.0	3.8	1.48e+00	0	61	104	422576128	54	15289
2026-01-14 02:02:48.99	285.53	11.23	-41.7	-54.3	3.8	1.49e+00	0	61	104	422576128	54	15863
2026-01-14 02:02:51.01	285.21	11.13	-41.7	-54.6	3.8	1.49e+00	0	61	104	422576128	54	16365
2026-01-14 02:02:53.03	284.88	11.04	-41.7	-54.4	3.8	1.49e+00	0	61	104	422576128	54	15991
2026-01-14 02:02:55.05	284.56	10.94	-41.8	-53.8	4.0	1.48e+00	0	61	104	422576128	54	14892
2026-01-14 02:02:57.07	284.25	10.85	-42.1	-53.0	4.3	1.37e+00	0	61	0	422576128	54	13605
2026-01-14 02:02:59.09	283.93	10.75	-42.2	-52.3	4.6	1.11e+00	0	61	0	424673280	54	12591
2026-01-14 02:03:01.11	283.62	10.65	-42.2	-51.6	4.9	7.93e-01	0	61	0	427819008	55	10965
2026-01-14 02:03:03.13	283.31	10.55	-42.0	-50.9	5.3	5.79e-01	0	61	0	432013312	55	10083
2026-01-14 02:03:05.15	283.00	10.46	-41.9	-50.7	5.4	5.29e-01	0	61	0	436207616	55	9873
2026-01-14 02:03:07.17	282.69	10.36	-41.9	-50.8	5.3	5.64e-01	0	61	0	439353344	55	9998
2026-01-14 02:03:09.19	282.39	10.26	-41.9	-50.4	5.5	5.01e-01	0	61	0	443547648	55	9589
2026-01-14 02:03:11.20	282.09	10.16	-41.9	-50.2	5.8	4.25e-01	0	61	0	447741952	55	9297
2026-01-14 02:03:13.22	281.79	10.06	-41.9	-50.2	5.7	4.10e-01	0	61	0	450887680	55	9319
2026-01-14 02:03:15.24	281.49	9.96	-41.9	-50.5	5.4	4.87e-01	0	61	0	455081984	55	9702
2026-01-14 02:03:17.26	281.19	9.86	-41.9	-51.1	5.1	6.26e-01	0	61	0	458227712	55	10412
2026-01-14 02:03:19.28	280.90	9.76	-41.9	-51.6	4.8	7.81e-01	0	61	0	462422016	55	10922
2026-01-14 02:03:21.30	280.60	9.66	-41.9	-51.5	4.8	8.05e-01	0	61	0	466616320	55	10862
2026-01-14 02:03:23.32	280.31	9.56	-41.8	-51.9	4.6	9.11e-01	0	61	0	469762048	55	11335
2026-01-14 02:03:25.34	280.02	9.46	-41.6	-52.3	4.4	1.22e+00	53	61	0	473956352	55	11947
2026-01-14 02:03:27.36	279.74	9.36	-41.6	-52.6	4.2	1.36e+00	0	61	0	473956352	55	12332
2026-01-14 02:03:29.38	279.45	9.25	-41.6	-53.0	4.1	1.41e+00	0	61	0	473956352	55	12829
2026-01-14 02:03:31.39	279.17	9.15	-41.6	-53.2	4.1	1.43e+00	0	61	0	473956352	55	13192
2026-01-14 02:03:33.41	278.89	9.05	-41.6	-53.4	4.0	1.47e+00	0	61	104	473956352	55	13506
2026-01-14 02:03:35.43	278.61	8.95	-41.5	-53.9	3.9	1.48e+00	0	62	104	473956352	55	14325
2026-01-14 02:03:37.45	278.34	8.84	-41.4	-54.2	3.8	1.49e+00	0	61	104	473956352	54	15660
2026-01-14 02:03:39.47	278.06	8.74	-41.3	-54.4	3.8	1.49e+00	0	61	104	473956352	54	16084
2026-01-14 02:03:41.49	277.79	8.64	-41.2	-54.6	3.8	1.49e+00	0	61	104	473956352	54	16381
2026-01-14 02:03:43.51	277.52	8.53	-40.9	-54.8	3.8	1.49e+00	0	61	104	473956352	53	17857
2026-01-14 02:03:45.52	277.25	8.43	-40.7	-54.8	3.8	1.49e+00	0	61	104	473956352	52	18890
2026-01-14 02:03:47.55	276.99	8.33	-40.0	-54.7	3.8	1.49e+00	0	61	104	473956352	52	18546
2026-01-14 02:03:49.57	276.72	8.22	-40.0	-54.7	3.8	1.49e+00	0	61	104	473956352	52	18577
2026-01-14 02:03:51.59	276.46	8.12	-40.1	-54.8	3.8	1.49e+00	0	62	104	473956352	51	19868
2026-01-14 02:03:53.61	276.20	8.01	-42.2	-56.5	3.8	1.49e+00	0	61	104	473956352	54	20333
2026-01-14 02:03:55.63	275.94	7.91	-44.8	-59.3	3.8	1.49e+00	0	62	104	473956352	60	19849
2026-01-14 02:03:57.65	275.68	7.81	-45.1	-59.5	3.8	1.49e+00	0	61	104	473956352	60	20468
2026-01-14 02:03:59.67	275.43	7.70	-45.2	-59.7	3.8	1.49e+00	0	61	104	473956352	61	19615
2026-01-14 02:04:01.70	275.17	7.60	-45.3	-59.7	3.8	1.49e+00	0	61	104	473956352	61	19720
2026-01-14 02:04:03.72	274.92	7.49	-45.3	-59.7	3.8	1.49e+00	0	61	104	473956352	61	19670
2026-01-14 02:04:05.74	274.67	7.39	-45.2	-59.7	3.8	1.49e+00	0	61	104	473956352	61	19616
2026-01-14 02:04:07.76	274.42	7.28	-45.2	-59.6	3.8	1.49e+00	0	61	104	473956352	61	19591
2026-01-14 02:04:09.78	274.18	7.18	-45.2	-59.7	3.8	1.49e+00	0	61	104	473956352	61	19678
2026-01-14 02:04:11.80	273.93	7.07	-45.2	-59.6	3.8	1.49e+00	0	62	104	473956352	61	19529
2026-01-14 02:04:13.82	273.69	6.97	-45.2	-59.6	3.8	1.49e+00	0	61	104	473956352	61	19497
2026-01-14 02:04:15.84	273.45	6.86	-45.2	-59.6	3.8	1.49e+00	0	61	104	473956352	61	19485
2026-01-14 02:04:17.86	273.21	6.76	-45.2	-59.6	3.8	1.49e+00	0	61	104	473956352	61	19503
2026-01-14 02:04:19.89	272.97	6.65	-45.2	-59.6	3.8	1.49e+00	0	61	104	473956352	61	19488
2026-01-14 02:04:21.91	272.74	6.55	-45.2	-59.6	3.8	1.49e+00	0	61	104	473956352	61	19433
2026-01-14 02:04:23.93	272.50	6.44	-45.2	-59.6	3.8	1.49e+00	0	62	104	473956352	61	19456
2026-01-14 02:04:25.95	272.27	6.33	-45.1	-59.6	3.8	1.49e+00	0	62	104	473956352	61	19453
2026-01-14 02:04:27.98	272.04	6.23	-45.1	-59.6	3.8	1.49e+00	0	61	104	473956352	61	19398
2026-01-14 02:04:30.00	271.81	6.12	-45.1	-59.6	3.8	1.49e+00	0	61	104	473956352	61	19390
2026-01-14 02:04:32.02	271.58	6.02	-45.1	-59.6	3.8	1.49e+00	0	61	104	473956352	61	19442
2026-01-14 02:04:34.04	271.36	5.91	-45.1	-59.6	3.8	1.49e+00	0	61	104	473956352	61	19390
2026-01-14 02:04:36.06	271.13	5.81	-45.1	-59.5	3.8	1.49e+00	0	61	104	473956352	61	19326
2026-01-14 02:04:38.09	270.91	5.70	-45.1	-59.5	3.8	1.49e+00	0	62	104	473956352	61	19361
2026-01-14 02:04:40.11	270.69	5.60	-45.1	-59.5	3.8	1.49e+00	0	61	104	473956352	61	19239
2026-01-14 02:04:42.13	270.47	5.49	-45.1	-59.5	3.8	1.49e+00	0	61	104	473956352	61	19329
2026-01-14 02:04:44.15	270.26	5.39	-45.1	-59.5	3.8	1.49e+00	0	62	104	473956352	61	19308
2026-01-14 02:04:46.18	270.04	5.28	-45.1	-59.5	3.8	1.49e+00	0	61	104	473956352	61	19305
2026-01-14 02:04:48.20	269.82	5.18	-45.1	-59.5	3.8	1.49e+00	0	61	104	473956352	61	19321
2026-01-14 02:04:50.22	269.61	5.07	-45.1	-59.5	3.8	1.49e+00	0	61	104	473956352	61	19282
2026-01-14 02:04:52.24	269.40	4.97	-45.1	-59.5	3.8	1.49e+00	0	61	104	473956352	61	19341
2026-01-14 02:04:54.26	269.19	4.86	-45.1	-59.5	3.8	1.49e+00	0	62	104	473956352	61	19348
2026-01-14 02:04:56.28	268.98	4.76	-45.1	-59.5	3.8	1.49e+00	0	62	104	473956352	61	19243
2026-01-14 02:04:58.30	268.78	4.65	-45.1	-59.5	3.8	1.49e+00	0	61	104	473956352	61	19269
2026-01-14 02:05:00.32	268.57	4.55	-45.1	-59.5	3.8	1.49e+00	0	61	104	473956352	61	19269
2026-01-14 02:05:02.35	268.37	4.44	-45.1	-59.5	3.8	1.49e+00	0	62	104	473956352	61	19299
2026-01-14 02:05:04.37	268.17	4.34	-45.1	-59.5	3.8	1.49e+00	0	62	104	473956352	61	19274
2026-01-14 02:05:06.39	267.97	4.23	-45.1	-59.5	3.8	1.49e+00	0	62	104	473956352	61	19303
2026-01-14 02:05:08.41	267.77	4.13	-45.1	-59.5	3.8	1.49e+00	0	61	104	473956352	61	19307
2026-01-14 02:05:10.43	267.57	4.02	-45.1	-59.5	3.8	1.49e+00	0	62	104	473956352	61	19305
2026-01-14 02:05:12.46	267.37	3.92	-45.1	-59.5	3.8	1.49e+00	0	61	104	473956352	61	19308
2026-01-14 02:05:14.48	267.18	3.81	-45.1	-59.5	3.8	1.49e+00	0	61	104	473956352	61	19239
2026-01-14 02:05:16.50	266.99	3.71	-45.1	-59.5	3.8	1.49e+00	0	61	104	473956352	61	19259
2026-01-14 02:05:18.52	266.79	3.61	-45.1	-59.5	3.8	1.49e+00	0	61	104	473956352	61	19219
2026-01-14 02:05:20.54	266.60	3.50	-45.1	-59.5	3.8	1.49e+00	0	61	104	473956352	61	19246
2026-01-14 02:05:22.56	266.42	3.40	-45.1	-59.5	3.8	1.49e+00	0	62	104	473956352	61	19297
2026-01-14 02:05:24.58	266.23	3.30	-45.1	-59.5	3.8	1.49e+00	0	61	104	473956352	61	19293
2026-01-14 02:05:26.61	266.04	3.19	-45.1	-59.5	3.8	1.49e+00	0	62	104	473956352	61	19279
2026-01-14 02:05:28.63	265.86	3.09	-45.1	-59.5	3.8	1.49e+00	0	61	104	473956352	61	19257
2026-01-14 02:05:30.65	265.67	2.99	-45.1	-59.5	3.8	1.49e+00	0	61	104	473956352	61	19279
2026-01-14 02:05:32.67	265.49	2.88	-45.1	-59.5	3.8	1.49e+00	0	61	104	473956352	61	19281
2026-01-14 02:05:34.69	265.31	2.78	-45.1	-59.5	3.8	1.49e+00	0	62	104	473956352	61	19306
2026-01-14 02:05:36.72	265.13	2.68	-45.1	-59.5	3.8	1.49e+00	0	62	104	473956352	61	19224
2026-01-14 02:05:38.74	264.95	2.57	-45.1	-59.5	3.8	1.49e+00	0	61	104	473956352	61	19241
2026-01-14 02:05:40.76	264.77	2.47	-45.1	-59.5	3.8	1.49e+00	0	62	104	473956352	61	19201
2026-01-14 02:05:42.78	264.60	2.37	-45.1	-59.5	3.8	1.49e+00	0	61	104	473956352	61	19234
2026-01-14 02:05:44.80	264.42	2.27	-45.1	-59.5	3.8	1.49e+00	0	61	104	473956352	61	19223
2026-01-14 02:05:46.82	264.25	2.16	-45.1	-59.5	3.8	1.49e+00	0	61	104	473956352	61	19296
2026-01-14 02:05:48.84	264.08	2.06	-45.0	-59.5	3.8	1.49e+00	0	61	104	473956352	61	19289
2026-01-14 02:05:50.87	263.91	1.96	-45.1	-59.5	3.8	1.49e+00	0	61	104	473956352	61	19239

#Closed at: 2026-01-14 02:05:52
#Recorded file [473 MB]: D:/lorett/data/31039_260114_045806.dat