passes_logs/2026/01/14/R2.0S_Moscow/R2.0S_Moscow__20260114_114643_NOAA_20_JPSS-1_rec.log

#Pass ID: 20260114_114643_NOAA 20 (JPSS-1)
#Satellite: NOAA 20 (JPSS-1)
#Configuration: NOAA 20
#almurnet v.1.7.20251203
#Start time: 2026-01-14 11:46:45

#Version: 2.2.20231116
#Station: R2.0S_Moscow
#Location: 37.707566 lon 55.798166 lat
#TLE: 1 43013U 17073A   26013.21545503  .00000073  00000+0  55630-4 0  9998
#TLE: 2 43013  98.7633 314.1737 0001580  41.9966 318.1331 14.19535680422486

#Time	Az	El	Level	Level2	SNR	BER	BlckErr	Temp	State	Recorded	gain1	gain2
2026-01-14 11:46:45.95	218.17	2.12	-44.1	-58.7	3.8	1.49e+00	0	51	0	0	60	18576
2026-01-14 11:46:48.98	218.43	2.27	-44.1	-58.7	3.8	1.49e+00	0	51	104	0	60	18527
2026-01-14 11:46:52.02	218.70	2.43	-44.0	-58.7	3.8	1.49e+00	0	52	104	0	60	18559
2026-01-14 11:46:55.05	218.96	2.58	-44.0	-58.7	3.8	1.49e+00	0	51	104	0	60	18547
2026-01-14 11:46:58.08	219.23	2.73	-44.0	-58.6	3.8	1.49e+00	0	52	104	0	60	18474
2026-01-14 11:47:01.11	219.51	2.89	-44.0	-58.7	3.8	1.49e+00	0	52	104	0	60	18541
2026-01-14 11:47:04.14	219.78	3.04	-44.1	-58.6	3.8	1.49e+00	0	52	104	0	59	19424
2026-01-14 11:47:07.18	220.06	3.20	-44.1	-58.5	3.8	1.49e+00	0	53	104	0	59	19381
2026-01-14 11:47:10.21	220.34	3.36	-44.1	-58.5	3.8	1.49e+00	0	53	104	0	59	19311
2026-01-14 11:47:13.24	220.62	3.51	-44.1	-58.6	3.8	1.49e+00	0	53	104	0	59	19425
2026-01-14 11:47:16.27	220.91	3.67	-44.1	-58.5	3.8	1.49e+00	0	53	104	0	59	19381
2026-01-14 11:47:19.30	221.20	3.83	-44.1	-58.6	3.8	1.49e+00	0	53	104	0	59	19414
2026-01-14 11:47:22.33	221.49	3.99	-44.2	-58.6	3.8	1.49e+00	0	54	104	0	59	19408
2026-01-14 11:47:25.36	221.79	4.14	-44.1	-58.5	3.8	1.49e+00	0	53	104	0	59	19360
2026-01-14 11:47:28.40	222.09	4.30	-44.1	-58.5	3.8	1.49e+00	0	54	104	0	59	19361
2026-01-14 11:47:31.43	222.39	4.46	-44.1	-58.5	3.8	1.49e+00	0	54	104	0	59	19361
2026-01-14 11:47:34.46	222.69	4.62	-44.1	-58.6	3.8	1.49e+00	0	54	104	0	59	19423
2026-01-14 11:47:37.49	223.00	4.78	-44.1	-58.5	3.8	1.49e+00	0	54	104	0	59	19385
2026-01-14 11:47:40.52	223.31	4.94	-44.2	-58.5	3.8	1.49e+00	0	54	104	0	59	19344
2026-01-14 11:47:43.56	223.63	5.10	-44.1	-58.6	3.8	1.49e+00	0	54	104	0	59	19399
2026-01-14 11:47:46.59	223.94	5.26	-44.2	-58.6	3.8	1.49e+00	0	54	104	0	59	19393
2026-01-14 11:47:49.62	224.27	5.42	-44.1	-58.5	3.8	1.49e+00	0	55	104	0	59	19291
2026-01-14 11:47:52.65	224.59	5.58	-44.1	-58.5	3.8	1.49e+00	0	55	104	0	59	19263
2026-01-14 11:47:55.68	224.92	5.74	-44.1	-58.5	3.8	1.49e+00	0	55	104	0	59	19234
2026-01-14 11:47:58.71	225.25	5.90	-44.1	-58.4	3.8	1.49e+00	0	55	104	0	59	19098
2026-01-14 11:48:01.74	225.58	6.06	-44.1	-58.3	3.8	1.49e+00	0	55	104	0	59	18853
2026-01-14 11:48:04.78	225.92	6.22	-44.1	-58.2	3.8	1.49e+00	0	55	104	0	59	18623
2026-01-14 11:48:07.80	226.27	6.38	-44.1	-58.0	3.8	1.49e+00	0	55	104	0	59	18145
2026-01-14 11:48:10.84	226.61	6.54	-44.1	-57.2	3.8	1.49e+00	0	55	104	0	59	16594
2026-01-14 11:48:13.87	226.96	6.70	-44.0	-55.9	4.0	1.48e+00	0	55	104	0	59	14226
2026-01-14 11:48:16.90	227.32	6.86	-43.9	-54.5	4.3	1.35e+00	57	56	0	0	59	12221
2026-01-14 11:48:19.93	227.67	7.03	-43.7	-53.4	4.8	8.77e-01	0	56	0	5242880	59	10674
2026-01-14 11:48:22.96	228.03	7.19	-43.7	-53.0	5.0	6.99e-01	0	56	0	11534336	59	10219
2026-01-14 11:48:25.99	228.40	7.35	-43.8	-53.5	4.7	8.22e-01	0	56	0	16777216	59	10816
2026-01-14 11:48:29.02	228.77	7.51	-43.7	-53.3	4.8	8.56e-01	0	56	0	22020096	59	10644
2026-01-14 11:48:32.06	229.14	7.67	-43.4	-51.2	6.2	3.40e-01	0	57	0	28311552	58	8809
2026-01-14 11:48:35.09	229.52	7.84	-42.9	-49.3	7.9	8.54e-02	0	56	0	33554432	57	7492
2026-01-14 11:48:38.12	229.90	8.00	-42.9	-49.3	8.0	6.20e-02	0	56	0	39845888	57	7489
2026-01-14 11:48:41.15	230.28	8.16	-43.9	-56.7	3.8	1.39e+00	0	56	104	44040192	58	16553
2026-01-14 11:48:44.17	230.67	8.32	-44.1	-56.6	3.8	1.02e+00	0	57	104	47185920	58	16370
2026-01-14 11:48:47.20	231.07	8.48	-42.8	-48.6	8.8	3.08e-02	0	56	0	51380224	57	6890
2026-01-14 11:48:50.23	231.46	8.64	-42.7	-48.3	9.1	2.40e-02	0	57	0	57671680	57	6655
2026-01-14 11:48:53.26	231.86	8.80	-42.6	-48.0	9.4	1.61e-02	0	57	0	62914560	57	6425
2026-01-14 11:48:56.29	232.27	8.96	-42.6	-47.8	9.5	1.46e-02	0	57	0	68157440	57	6340
2026-01-14 11:48:59.32	232.68	9.13	-42.6	-47.9	9.5	1.43e-02	0	57	0	74448896	57	6379
2026-01-14 11:49:02.34	233.10	9.29	-42.6	-47.9	9.5	1.52e-02	0	57	0	79691776	57	6398
2026-01-14 11:49:05.37	233.51	9.45	-42.6	-47.9	9.6	1.31e-02	0	57	0	85983232	57	6358
2026-01-14 11:49:08.40	233.94	9.61	-42.6	-47.8	9.6	1.31e-02	0	57	0	91226112	57	6347
2026-01-14 11:49:11.43	234.37	9.76	-42.6	-47.8	9.7	1.10e-02	0	57	0	96468992	57	6309
2026-01-14 11:49:14.46	234.80	9.92	-42.6	-47.8	9.7	1.08e-02	0	57	0	102760448	57	6298
2026-01-14 11:49:17.49	235.24	10.08	-42.6	-47.7	9.8	9.98e-03	0	57	0	108003328	57	6230
2026-01-14 11:49:20.52	235.68	10.24	-42.6	-47.6	9.9	8.91e-03	0	57	0	114294784	57	6188
2026-01-14 11:49:23.54	236.12	10.40	-42.6	-47.6	9.9	8.30e-03	0	58	0	119537664	57	6171
2026-01-14 11:49:26.57	236.58	10.56	-42.5	-47.4	10.1	6.80e-03	0	57	0	125829120	57	6056
2026-01-14 11:49:29.60	237.03	10.71	-42.4	-47.2	10.4	5.20e-03	0	58	0	131072000	56	6225
2026-01-14 11:49:32.63	237.49	10.87	-42.3	-47.0	10.6	3.15e-03	0	58	0	136314880	56	6062
2026-01-14 11:49:35.66	237.96	11.02	-42.3	-46.8	10.8	2.68e-03	0	58	0	142606336	56	5980
2026-01-14 11:49:38.68	238.43	11.18	-42.2	-46.7	10.9	1.98e-03	0	58	0	147849216	56	5891
2026-01-14 11:49:41.71	238.90	11.33	-42.2	-46.5	11.2	1.50e-03	0	58	0	154140672	56	5744
2026-01-14 11:49:44.74	239.38	11.48	-42.1	-46.3	11.3	1.13e-03	0	58	0	159383552	56	5653
2026-01-14 11:49:47.77	239.87	11.64	-42.1	-46.3	11.4	8.85e-04	0	58	0	164626432	56	5602
2026-01-14 11:49:50.80	240.36	11.79	-42.1	-46.4	11.3	1.15e-03	0	58	0	170917888	56	5662
2026-01-14 11:49:53.83	240.85	11.94	-42.2	-46.4	11.3	1.13e-03	0	58	0	176160768	56	5712
2026-01-14 11:49:56.85	241.35	12.09	-42.1	-46.4	11.3	1.19e-03	0	58	0	182452224	56	5695
2026-01-14 11:49:59.88	241.85	12.23	-42.0	-46.2	11.5	8.27e-04	0	58	0	187695104	56	5544
2026-01-14 11:50:02.91	242.36	12.38	-42.1	-46.3	11.4	8.70e-04	0	58	0	193986560	56	5620
2026-01-14 11:50:05.94	242.88	12.53	-42.1	-46.3	11.4	1.06e-03	0	58	0	199229440	56	5643
2026-01-14 11:50:08.97	243.40	12.67	-42.1	-46.3	11.4	9.51e-04	0	58	0	204472320	56	5609
2026-01-14 11:50:12.00	243.92	12.82	-42.0	-46.1	11.7	6.68e-04	0	58	0	210763776	56	5485
2026-01-14 11:50:15.02	244.45	12.96	-42.1	-46.3	11.4	8.28e-04	0	58	0	216006656	56	5645
2026-01-14 11:50:18.05	244.98	13.10	-42.2	-46.5	11.2	1.26e-03	0	58	0	222298112	56	5755
2026-01-14 11:50:21.08	245.52	13.24	-42.3	-46.6	11.2	1.48e-03	0	58	0	227540992	56	5815
2026-01-14 11:50:24.11	246.07	13.37	-42.3	-46.6	11.1	1.42e-03	0	58	0	232783872	56	5844
2026-01-14 11:50:27.14	246.61	13.51	-42.4	-46.8	10.9	1.95e-03	0	59	0	239075328	56	5973
2026-01-14 11:50:30.17	247.17	13.64	-42.5	-47.3	10.5	3.92e-03	0	58	0	244318208	56	6276
2026-01-14 11:50:33.20	247.73	13.78	-42.6	-47.3	10.4	4.50e-03	0	58	0	250609664	56	6341
2026-01-14 11:50:36.23	248.29	13.91	-42.7	-47.6	10.1	5.88e-03	0	58	0	255852544	56	6498
2026-01-14 11:50:39.26	248.86	14.04	-42.8	-47.8	9.9	8.36e-03	0	59	0	262144000	56	6696
2026-01-14 11:50:42.29	249.43	14.16	-42.8	-48.0	9.7	1.13e-02	0	59	0	267386880	56	6843
2026-01-14 11:50:45.31	250.01	14.29	-42.9	-48.1	9.6	1.36e-02	0	58	0	272629760	56	6932
2026-01-14 11:50:48.34	250.59	14.41	-42.9	-48.2	9.5	1.50e-02	0	58	0	278921216	56	7015
2026-01-14 11:50:51.37	251.17	14.53	-43.0	-48.3	9.4	1.66e-02	0	59	0	284164096	56	7110
2026-01-14 11:50:54.40	251.77	14.65	-43.1	-48.7	9.0	2.40e-02	0	59	0	290455552	56	7382
2026-01-14 11:50:57.42	252.36	14.76	-43.1	-48.8	8.9	2.71e-02	0	59	0	295698432	56	7491
2026-01-14 11:51:00.45	252.96	14.88	-43.1	-48.8	8.9	2.76e-02	0	59	0	300941312	56	7460
2026-01-14 11:51:03.48	253.57	14.99	-43.2	-48.9	8.7	3.19e-02	0	59	0	307232768	56	7597
2026-01-14 11:51:06.51	254.17	15.10	-43.2	-49.0	8.7	3.50e-02	0	59	0	312475648	56	7653
2026-01-14 11:51:09.54	254.79	15.20	-43.1	-48.8	8.8	3.25e-02	0	59	0	318767104	57	7098
2026-01-14 11:51:12.57	255.41	15.31	-43.0	-48.4	9.3	2.06e-02	0	59	0	324009984	57	6752
2026-01-14 11:51:15.60	256.03	15.41	-43.0	-48.3	9.4	1.75e-02	0	59	0	330301440	57	6654
2026-01-14 11:51:18.63	256.65	15.51	-42.9	-48.2	9.5	1.56e-02	0	59	0	335544320	57	6604
2026-01-14 11:51:21.66	257.28	15.60	-42.8	-47.8	9.9	8.63e-03	0	59	0	340787200	57	6308
2026-01-14 11:51:24.69	257.92	15.69	-42.6	-47.4	10.4	5.19e-03	0	59	0	347078656	57	6020
2026-01-14 11:51:27.72	258.55	15.78	-42.3	-46.5	11.2	1.57e-03	0	59	0	352321536	56	5785
2026-01-14 11:51:30.75	259.19	15.87	-42.1	-46.2	11.6	6.84e-04	0	59	0	358612992	56	5586
2026-01-14 11:51:33.77	259.84	15.95	-42.2	-46.5	11.3	1.09e-03	0	59	0	363855872	56	5735
2026-01-14 11:51:36.80	260.48	16.03	-42.3	-46.6	11.2	1.37e-03	0	59	0	369098752	56	5805
2026-01-14 11:51:39.83	261.13	16.11	-42.4	-46.7	11.0	1.75e-03	0	59	0	375390208	56	5921
2026-01-14 11:51:42.87	261.79	16.18	-42.4	-46.8	10.9	1.88e-03	0	59	0	380633088	56	5980
2026-01-14 11:51:45.89	262.45	16.25	-42.4	-46.8	11.1	1.69e-03	0	59	0	386924544	56	5936
2026-01-14 11:51:48.92	263.11	16.32	-42.5	-47.0	10.8	2.42e-03	0	59	0	392167424	56	6104
2026-01-14 11:51:51.95	263.77	16.38	-42.5	-47.1	10.7	3.20e-03	0	59	0	398458880	56	6197
2026-01-14 11:51:54.97	264.43	16.44	-42.6	-47.2	10.6	3.45e-03	0	59	0	403701760	56	6241
2026-01-14 11:51:58.00	265.10	16.50	-42.6	-47.4	10.4	4.46e-03	0	59	0	408944640	56	6348
2026-01-14 11:52:01.03	265.77	16.55	-42.6	-47.3	10.5	3.98e-03	0	59	0	415236096	56	6304
2026-01-14 11:52:04.06	266.44	16.60	-42.6	-47.4	10.4	4.47e-03	0	59	0	420478976	56	6379
2026-01-14 11:52:07.09	267.12	16.64	-42.6	-47.2	10.6	3.93e-03	0	59	0	426770432	56	6263
2026-01-14 11:52:10.11	267.79	16.69	-42.6	-47.3	10.5	3.91e-03	0	59	0	432013312	56	6309
2026-01-14 11:52:13.14	268.47	16.72	-42.6	-47.4	10.4	4.86e-03	0	59	0	437256192	56	6387
2026-01-14 11:52:16.17	269.15	16.76	-42.4	-46.9	10.9	2.46e-03	0	59	0	443547648	56	6014
2026-01-14 11:52:19.20	269.83	16.79	-42.4	-46.8	11.0	1.79e-03	0	59	0	448790528	56	5967
2026-01-14 11:52:22.23	270.51	16.82	-42.5	-47.0	10.8	2.42e-03	0	59	0	455081984	56	6088
2026-01-14 11:52:25.26	271.19	16.84	-42.6	-47.2	10.5	3.63e-03	0	59	0	460324864	56	6261
2026-01-14 11:52:28.29	271.88	16.86	-42.7	-47.7	10.1	6.53e-03	0	59	0	465567744	56	6575
2026-01-14 11:52:31.31	272.56	16.87	-42.7	-47.7	10.0	7.99e-03	0	59	0	471859200	56	6588
2026-01-14 11:52:34.34	273.24	16.88	-42.5	-47.0	10.8	2.75e-03	0	59	0	477102080	56	6091
2026-01-14 11:52:37.37	273.93	16.89	-42.5	-47.0	10.8	2.58e-03	0	59	0	483393536	56	6112
2026-01-14 11:52:40.40	274.61	16.89	-42.5	-47.0	10.7	2.86e-03	0	59	0	488636416	56	6127
2026-01-14 11:52:43.43	275.30	16.89	-42.5	-47.2	10.5	3.89e-03	0	60	0	494927872	56	6258
2026-01-14 11:52:46.46	275.99	16.89	-42.5	-47.2	10.5	3.26e-03	0	59	0	500170752	56	6233
2026-01-14 11:52:49.49	276.67	16.88	-42.4	-47.0	10.8	2.61e-03	0	59	0	505413632	56	6066
2026-01-14 11:52:52.52	277.36	16.87	-42.3	-46.7	11.1	1.71e-03	0	59	0	511705088	56	5885
2026-01-14 11:52:55.55	278.04	16.85	-42.3	-46.7	11.0	1.74e-03	0	59	0	516947968	56	5909
2026-01-14 11:52:58.58	278.72	16.83	-42.4	-46.9	10.8	2.44e-03	0	59	0	523239424	56	6061
2026-01-14 11:53:01.60	279.40	16.81	-42.3	-46.8	11.0	2.10e-03	0	60	0	528482304	56	5946
2026-01-14 11:53:04.63	280.08	16.78	-42.3	-46.8	11.0	1.88e-03	0	60	0	533725184	56	5936
2026-01-14 11:53:07.66	280.76	16.75	-42.3	-46.7	11.0	1.81e-03	0	59	0	540016640	56	5881
2026-01-14 11:53:10.69	281.44	16.71	-42.3	-46.6	11.1	1.59e-03	0	59	0	545259520	56	5822
2026-01-14 11:53:13.72	282.12	16.67	-42.4	-46.8	10.9	2.00e-03	0	59	0	551550976	56	5968
2026-01-14 11:53:16.75	282.79	16.63	-42.4	-46.9	10.8	2.52e-03	0	60	0	556793856	56	6018
2026-01-14 11:53:19.78	283.46	16.58	-42.3	-46.7	10.9	2.17e-03	0	59	0	563085312	56	5907
2026-01-14 11:53:22.80	284.13	16.53	-42.1	-46.3	11.4	8.97e-04	0	59	0	568328192	56	5631
2026-01-14 11:53:25.83	284.80	16.48	-42.2	-46.4	11.3	1.10e-03	0	60	0	573571072	56	5711
2026-01-14 11:53:28.86	285.46	16.42	-42.2	-46.5	11.2	1.51e-03	0	59	0	579862528	56	5784
2026-01-14 11:53:31.89	286.13	16.36	-42.1	-46.2	11.4	9.33e-04	0	60	0	585105408	56	5569
2026-01-14 11:53:34.92	286.79	16.30	-42.1	-46.2	11.5	8.60e-04	0	59	0	591396864	56	5569
2026-01-14 11:53:37.94	287.44	16.23	-42.1	-46.3	11.4	9.47e-04	0	60	0	596639744	56	5618
2026-01-14 11:53:40.97	288.09	16.16	-42.0	-46.2	11.5	8.15e-04	0	60	0	601882624	56	5543
2026-01-14 11:53:44.00	288.75	16.08	-42.0	-46.1	11.6	6.51e-04	0	59	0	608174080	56	5496
2026-01-14 11:53:47.03	289.39	16.01	-41.8	-45.7	11.8	5.42e-04	0	59	0	613416960	55	5578
2026-01-14 11:53:50.06	290.04	15.92	-41.7	-45.7	11.8	4.49e-04	0	60	0	619708416	55	5557
2026-01-14 11:53:53.09	290.68	15.84	-41.9	-46.0	11.5	7.79e-04	0	59	0	624951296	55	5766
2026-01-14 11:53:56.12	291.32	15.75	-41.9	-46.1	11.5	9.25e-04	0	60	0	631242752	55	5801
2026-01-14 11:53:59.15	291.95	15.66	-41.8	-45.8	11.7	6.55e-04	0	60	0	636485632	55	5643
2026-01-14 11:54:02.18	292.58	15.57	-41.6	-45.4	12.1	2.79e-04	0	60	0	641728512	55	5377
2026-01-14 11:54:05.21	293.20	15.48	-41.5	-45.2	12.4	1.70e-04	0	59	0	648019968	54	5541
2026-01-14 11:54:08.24	293.83	15.38	-41.4	-45.1	12.4	1.28e-04	0	60	0	653262848	54	5528
2026-01-14 11:54:11.27	294.44	15.28	-41.5	-45.3	12.3	1.80e-04	0	60	0	659554304	54	5600
2026-01-14 11:54:14.30	295.06	15.17	-41.6	-45.5	12.1	2.70e-04	0	60	0	664797184	54	5723
2026-01-14 11:54:17.33	295.67	15.07	-41.6	-45.5	12.0	3.55e-04	0	59	0	670040064	54	5779
2026-01-14 11:54:20.36	296.27	14.96	-41.5	-45.3	12.3	1.98e-04	0	60	0	676331520	54	5604
2026-01-14 11:54:23.39	296.87	14.85	-41.4	-45.0	12.5	1.26e-04	0	60	0	681574400	54	5436
2026-01-14 11:54:26.42	297.47	14.73	-41.4	-45.1	12.4	1.18e-04	0	59	0	687865856	54	5470
2026-01-14 11:54:29.44	298.06	14.62	-41.7	-45.6	11.9	3.66e-04	0	59	0	693108736	54	5845
2026-01-14 11:54:32.47	298.65	14.50	-41.9	-46.2	11.3	1.19e-03	0	59	0	699400192	54	6222
2026-01-14 11:54:35.50	299.23	14.38	-41.9	-46.1	11.4	1.11e-03	0	59	0	704643072	54	6157
2026-01-14 11:54:38.53	299.81	14.26	-41.9	-46.1	11.3	1.08e-03	0	60	0	709885952	54	6194
2026-01-14 11:54:41.56	300.38	14.13	-41.9	-46.2	11.3	1.32e-03	0	60	0	716177408	54	6239
2026-01-14 11:54:44.58	300.95	14.01	-41.9	-46.0	11.4	9.72e-04	0	59	0	721420288	54	6120
2026-01-14 11:54:47.61	301.51	13.88	-41.9	-46.2	11.3	1.15e-03	0	59	0	727711744	54	6246
2026-01-14 11:54:50.64	302.07	13.75	-42.3	-46.9	10.4	3.48e-03	0	59	0	732954624	55	6415
2026-01-14 11:54:53.67	302.62	13.62	-42.6	-47.9	9.4	1.22e-02	0	60	0	738197504	55	7168
2026-01-14 11:54:56.70	303.17	13.48	-42.9	-48.5	9.0	2.36e-02	0	59	0	744488960	56	7227
2026-01-14 11:54:59.73	303.72	13.35	-43.0	-48.7	8.7	3.40e-02	0	60	0	749731840	56	7451
2026-01-14 11:55:02.76	304.26	13.21	-43.1	-49.1	8.4	4.50e-02	0	60	0	756023296	56	7733
2026-01-14 11:55:05.79	304.79	13.07	-42.9	-48.4	9.1	2.74e-02	0	60	0	761266176	56	7172
2026-01-14 11:55:08.81	305.32	12.93	-42.7	-48.0	9.5	1.66e-02	0	60	0	767557632	56	6830
2026-01-14 11:55:11.85	305.84	12.79	-42.7	-48.0	9.5	1.35e-02	0	59	0	772800512	56	6812
2026-01-14 11:55:14.87	306.36	12.65	-42.9	-48.4	9.0	2.45e-02	0	60	0	778043392	56	7195
2026-01-14 11:55:17.90	306.88	12.51	-43.0	-48.9	8.6	3.64e-02	0	60	0	784334848	56	7561
2026-01-14 11:55:20.94	307.39	12.36	-43.1	-49.1	8.3	5.45e-02	0	60	0	789577728	56	7738
2026-01-14 11:55:23.97	307.89	12.21	-43.0	-48.8	8.6	3.56e-02	0	60	0	795869184	56	7495
2026-01-14 11:55:26.99	308.39	12.07	-42.9	-48.6	8.8	2.98e-02	0	60	0	801112064	56	7354
2026-01-14 11:55:30.02	308.89	11.92	-42.9	-48.6	8.8	3.28e-02	0	59	0	806354944	56	7362
2026-01-14 11:55:33.05	309.38	11.77	-43.0	-48.8	8.5	4.10e-02	0	60	0	812646400	56	7539
2026-01-14 11:55:36.08	309.87	11.62	-42.6	-47.8	9.6	1.24e-02	0	60	0	817889280	56	6665
2026-01-14 11:55:39.10	310.34	11.47	-42.4	-47.3	10.1	7.45e-03	0	60	0	824180736	56	6300
2026-01-14 11:55:42.13	310.82	11.32	-42.5	-47.5	10.0	7.85e-03	0	60	0	829423616	56	6432
2026-01-14 11:55:45.16	311.29	11.17	-42.6	-47.7	9.6	1.08e-02	0	60	0	835715072	56	6643
2026-01-14 11:55:48.19	311.76	11.01	-42.7	-48.0	9.3	1.70e-02	0	60	0	840957952	56	6872
2026-01-14 11:55:51.22	312.22	10.86	-42.7	-48.1	9.2	1.98e-02	0	60	0	846200832	56	6950
2026-01-14 11:55:54.24	312.68	10.71	-42.6	-47.9	9.4	1.87e-02	0	60	0	852492288	56	6792
2026-01-14 11:55:57.27	313.13	10.55	-42.3	-47.2	10.2	7.50e-03	0	59	0	857735168	56	6206
2026-01-14 11:56:00.30	313.58	10.39	-42.2	-47.0	10.4	4.38e-03	0	60	0	864026624	56	6091
2026-01-14 11:56:03.33	314.02	10.24	-42.2	-46.8	10.5	3.54e-03	0	60	0	869269504	56	5985
2026-01-14 11:56:06.36	314.46	10.08	-42.4	-47.4	9.9	8.42e-03	0	60	0	874512384	56	6385
2026-01-14 11:56:09.39	314.89	9.92	-42.4	-47.4	9.9	8.61e-03	0	60	0	880803840	56	6394
2026-01-14 11:56:12.42	315.32	9.77	-42.4	-47.4	9.9	9.54e-03	0	60	0	886046720	56	6371
2026-01-14 11:56:15.45	315.75	9.61	-42.4	-47.6	9.7	1.29e-02	0	59	0	892338176	56	6520
2026-01-14 11:56:18.48	316.17	9.45	-42.4	-47.4	9.8	1.02e-02	0	60	0	897581056	56	6413
2026-01-14 11:56:21.51	316.58	9.29	-42.3	-47.4	9.8	9.92e-03	0	60	0	903872512	56	6372
2026-01-14 11:56:24.54	317.00	9.13	-42.2	-47.2	10.1	8.02e-03	0	60	0	909115392	56	6205
2026-01-14 11:56:27.57	317.40	8.98	-42.3	-47.4	9.8	9.54e-03	0	60	0	914358272	56	6362
2026-01-14 11:56:30.60	317.81	8.82	-42.4	-47.7	9.5	1.35e-02	0	60	0	920649728	56	6587
2026-01-14 11:56:33.62	318.21	8.66	-42.4	-47.7	9.5	1.65e-02	0	60	0	925892608	56	6590
2026-01-14 11:56:36.65	318.60	8.50	-42.4	-47.6	9.5	1.24e-02	0	60	0	932184064	56	6540
2026-01-14 11:56:39.68	318.99	8.34	-42.3	-47.5	9.6	1.18e-02	0	60	0	937426944	56	6467
2026-01-14 11:56:42.71	319.38	8.18	-42.4	-47.7	9.4	1.60e-02	0	60	0	942669824	56	6629
2026-01-14 11:56:45.74	319.76	8.02	-42.5	-48.1	9.0	2.38e-02	0	60	0	948961280	56	6894
2026-01-14 11:56:48.77	320.14	7.86	-44.7	-59.2	3.8	1.49e+00	0	60	104	950009856	60	19638
2026-01-14 11:56:51.80	320.51	7.70	-45.1	-59.6	3.8	1.49e+00	0	60	104	950009856	60	20614
2026-01-14 11:56:54.83	320.88	7.54	-45.2	-59.7	3.8	1.49e+00	0	60	104	950009856	61	19694
2026-01-14 11:56:57.85	321.25	7.38	-45.1	-59.6	3.8	1.49e+00	0	60	104	950009856	60	20621
2026-01-14 11:57:00.88	321.61	7.22	-45.1	-59.6	3.8	1.49e+00	0	59	104	950009856	60	20735
2026-01-14 11:57:03.92	321.97	7.06	-45.1	-59.6	3.8	1.49e+00	0	60	104	950009856	60	20607
2026-01-14 11:57:06.94	322.33	6.90	-45.1	-59.6	3.8	1.49e+00	0	60	104	950009856	60	20666
2026-01-14 11:57:09.97	322.68	6.74	-45.1	-59.6	3.8	1.49e+00	0	60	104	950009856	60	20613
2026-01-14 11:57:13.01	323.03	6.58	-45.1	-59.6	3.8	1.49e+00	0	60	104	950009856	60	20599
2026-01-14 11:57:16.04	323.37	6.42	-45.1	-59.6	3.8	1.49e+00	0	60	104	950009856	60	20660
2026-01-14 11:57:19.06	323.71	6.26	-45.0	-59.6	3.8	1.49e+00	0	60	104	950009856	60	20675
2026-01-14 11:57:22.09	324.05	6.11	-45.0	-59.6	3.8	1.49e+00	0	60	104	950009856	60	20549
2026-01-14 11:57:25.13	324.38	5.95	-45.1	-59.6	3.8	1.49e+00	0	60	104	950009856	60	20567
2026-01-14 11:57:28.16	324.71	5.79	-44.9	-59.6	3.8	1.49e+00	0	60	104	950009856	60	20587
2026-01-14 11:57:31.19	325.04	5.63	-44.3	-59.2	3.8	1.49e+00	0	60	104	950009856	59	20897
2026-01-14 11:57:34.22	325.36	5.47	-45.0	-59.5	3.8	1.49e+00	0	60	104	950009856	60	20508
2026-01-14 11:57:37.25	325.68	5.31	-45.1	-59.6	3.8	1.49e+00	0	60	104	950009856	60	20550
2026-01-14 11:57:40.28	326.00	5.16	-45.1	-59.5	3.8	1.49e+00	0	60	104	950009856	60	20532
2026-01-14 11:57:43.31	326.32	5.00	-45.1	-59.6	3.8	1.49e+00	0	60	104	950009856	60	20543
2026-01-14 11:57:46.34	326.63	4.84	-45.1	-59.5	3.8	1.49e+00	0	60	104	950009856	60	20498
2026-01-14 11:57:49.37	326.93	4.68	-45.1	-59.5	3.8	1.49e+00	0	60	104	950009856	60	20489
2026-01-14 11:57:52.39	327.24	4.53	-45.0	-59.5	3.8	1.49e+00	0	60	104	950009856	60	20458
2026-01-14 11:57:55.43	327.54	4.37	-45.1	-59.5	3.8	1.49e+00	0	60	104	950009856	60	20531
2026-01-14 11:57:58.45	327.83	4.22	-45.0	-59.6	3.8	1.49e+00	0	60	104	950009856	60	20548
2026-01-14 11:58:01.48	328.13	4.06	-45.0	-59.5	3.8	1.49e+00	0	60	104	950009856	60	20504
2026-01-14 11:58:04.51	328.42	3.90	-45.1	-59.5	3.8	1.49e+00	0	60	104	950009856	60	20505
2026-01-14 11:58:07.54	328.71	3.75	-45.0	-59.5	3.8	1.49e+00	0	60	104	950009856	60	20468
2026-01-14 11:58:10.58	329.00	3.59	-45.1	-59.6	3.8	1.49e+00	0	60	104	950009856	60	20576
2026-01-14 11:58:13.61	329.28	3.44	-45.1	-59.5	3.8	1.49e+00	0	60	104	950009856	60	20519
2026-01-14 11:58:16.64	329.56	3.29	-45.0	-59.5	3.8	1.49e+00	0	60	104	950009856	60	20483
2026-01-14 11:58:19.67	329.84	3.13	-45.1	-59.5	3.8	1.49e+00	0	60	104	950009856	60	20503
2026-01-14 11:58:22.70	330.11	2.98	-45.0	-59.5	3.8	1.49e+00	0	60	104	950009856	60	20526
2026-01-14 11:58:25.73	330.39	2.83	-45.1	-59.5	3.8	1.49e+00	0	60	104	950009856	60	20498
2026-01-14 11:58:28.76	330.66	2.67	-45.1	-59.5	3.8	1.49e+00	0	60	104	950009856	60	20457
2026-01-14 11:58:31.79	330.92	2.52	-45.0	-59.5	3.8	1.49e+00	0	60	104	950009856	60	20502
2026-01-14 11:58:34.82	331.19	2.37	-45.1	-59.6	3.8	1.49e+00	0	60	104	950009856	60	20565
2026-01-14 11:58:37.85	331.45	2.22	-45.1	-59.5	3.8	1.49e+00	0	60	104	950009856	60	20528
2026-01-14 11:58:40.88	331.71	2.07	-45.0	-59.5	3.8	1.49e+00	0	60	104	950009856	60	20508

#Closed at: 2026-01-14 11:58:42
#Recorded file [950 MB]: D:/lorett/data/31039_260114_144645.dat