passes_logs/2026/01/14/R2.0S_Moscow/R2.0S_Moscow__20260114_112509_SUOMI_NPP_rec.log

#Pass ID: 20260114_112509_SUOMI NPP
#Satellite: SUOMI NPP
#Configuration: NPP
#almurnet v.1.7.20251203
#Start time: 2026-01-14 11:31:53

#Version: 2.2.20231116
#Station: R2.0S_Moscow
#Location: 37.707566 lon 55.798166 lat
#TLE: 1 37849U 11061A   26013.27136842  .00000065  00000+0  51889-4 0  9990
#TLE: 2 37849  98.7808 315.3349 0002489  66.6776 293.4661 14.19524902736466

#Time	Az	El	Level	Level2	SNR	BER	BlckErr	Temp	State	Recorded	gain1	gain2
2026-01-14 11:31:53.04	273.16	24.85	-46.0	-64.7	3.8	7.50e-01	0	60	0	0	62	33226
2026-01-14 11:31:55.05	273.75	24.83	-45.1	-59.6	3.8	1.49e+00	0	60	104	0	60	20684
2026-01-14 11:31:57.07	274.34	24.81	-45.1	-59.6	3.8	1.49e+00	0	60	104	0	60	20631
2026-01-14 11:31:59.10	274.93	24.78	-45.1	-59.5	3.8	1.49e+00	0	60	104	0	60	20479
2026-01-14 11:32:01.12	275.52	24.75	-45.0	-59.5	3.8	1.49e+00	0	60	104	0	60	20315
2026-01-14 11:32:03.14	276.10	24.71	-44.9	-59.3	3.8	1.49e+00	0	60	104	0	60	20001
2026-01-14 11:32:05.16	276.69	24.68	-44.9	-59.3	3.8	1.49e+00	0	60	104	0	60	19888
2026-01-14 11:32:07.18	277.27	24.64	-44.8	-59.3	3.8	1.49e+00	0	60	104	0	60	19929
2026-01-14 11:32:09.20	277.85	24.60	-44.9	-59.2	3.8	1.49e+00	0	60	104	0	60	19803
2026-01-14 11:32:11.22	278.43	24.55	-44.8	-59.3	3.8	1.49e+00	0	60	104	0	60	19969
2026-01-14 11:32:13.25	279.01	24.50	-44.8	-59.3	3.8	1.49e+00	0	60	104	0	60	20004
2026-01-14 11:32:15.27	279.59	24.45	-44.8	-59.3	3.8	1.49e+00	0	60	104	0	60	20003
2026-01-14 11:32:17.29	280.16	24.40	-44.8	-59.1	3.8	1.49e+00	0	60	104	0	60	19454
2026-01-14 11:32:19.31	280.73	24.34	-44.8	-58.8	3.8	1.49e+00	0	60	104	0	60	18902
2026-01-14 11:32:21.33	281.30	24.28	-44.8	-58.7	3.8	1.49e+00	0	60	104	0	60	18549
2026-01-14 11:32:23.36	281.88	24.22	-44.8	-58.8	3.8	1.49e+00	0	60	104	0	60	18863
2026-01-14 11:32:25.38	282.44	24.15	-44.8	-58.7	3.8	1.49e+00	0	60	104	0	60	18565
2026-01-14 11:32:27.40	283.00	24.08	-44.8	-58.2	3.8	1.49e+00	0	60	104	0	60	17608
2026-01-14 11:32:29.42	283.56	24.01	-44.8	-58.1	3.8	1.49e+00	0	60	104	0	60	17314
2026-01-14 11:32:31.45	284.13	23.94	-44.7	-57.3	3.8	1.49e+00	0	60	104	0	60	15761
2026-01-14 11:32:33.47	284.68	23.86	-44.4	-53.8	4.9	9.21e-01	0	60	0	1048576	60	10638
2026-01-14 11:32:35.49	285.23	23.78	-43.8	-50.4	7.5	1.85e-01	0	60	0	4194304	59	7555
2026-01-14 11:32:37.51	285.78	23.70	-43.4	-49.1	8.9	3.71e-02	0	60	0	8388608	58	6914
2026-01-14 11:32:39.53	286.33	23.62	-43.8	-50.2	7.7	7.31e-02	0	60	0	12582912	58	7887
2026-01-14 11:32:41.55	286.88	23.53	-44.2	-52.3	5.9	3.01e-01	0	60	0	15728640	59	9456
2026-01-14 11:32:43.57	287.42	23.45	-43.7	-50.2	7.7	1.59e-01	0	60	0	19922944	59	7385
2026-01-14 11:32:45.59	287.95	23.35	-42.2	-46.1	11.9	2.34e-03	0	60	0	24117248	56	5510
2026-01-14 11:32:47.61	288.49	23.26	-44.4	-53.5	4.5	2.34e-04	0	60	104	27262976	60	10237
2026-01-14 11:32:49.63	289.02	23.17	-41.8	-45.5	12.6	1.85e-03	0	60	0	28311552	55	5427
2026-01-14 11:32:51.65	289.55	23.07	-41.5	-45.0	13.0	6.46e-01	0	60	0	31457280	54	5404
2026-01-14 11:32:53.67	290.08	22.97	-41.0	-44.1	13.8	1.76e-04	0	60	0	35651584	54	4902
2026-01-14 11:32:55.69	290.60	22.87	-40.8	-43.7	14.2	7.00e-07	0	60	0	39845888	53	4964
2026-01-14 11:32:57.71	291.12	22.77	-41.2	-44.3	13.5	6.80e-06	0	60	0	42991616	53	5331
2026-01-14 11:32:59.73	291.63	22.66	-41.4	-44.8	13.1	4.34e-05	0	60	0	47185920	53	5619
2026-01-14 11:33:01.75	292.14	22.56	-41.3	-44.6	13.3	1.06e-05	0	60	0	51380224	53	5471
2026-01-14 11:33:03.77	292.65	22.45	-41.1	-44.2	13.7	8.30e-06	0	60	0	54525952	53	5243
2026-01-14 11:33:05.79	293.16	22.34	-41.2	-44.5	13.4	2.51e-05	0	60	0	58720256	53	5420
2026-01-14 11:33:07.81	293.66	22.23	-41.5	-45.0	12.8	4.57e-05	0	60	0	61865984	53	5757
2026-01-14 11:33:09.82	294.15	22.11	-41.3	-44.7	13.1	5.03e-05	0	60	0	66060288	53	5553
2026-01-14 11:33:11.84	294.65	22.00	-41.2	-44.4	13.4	1.98e-05	0	60	0	70254592	53	5371
2026-01-14 11:33:13.86	295.14	21.88	-41.2	-44.5	13.3	2.05e-05	0	60	0	73400320	53	5440
2026-01-14 11:33:15.88	295.63	21.76	-41.3	-44.7	13.1	2.51e-05	0	60	0	77594624	53	5557
2026-01-14 11:33:17.90	296.11	21.64	-41.4	-44.9	12.9	5.26e-05	0	60	0	80740352	53	5698
2026-01-14 11:33:19.92	296.59	21.52	-41.2	-44.5	13.3	1.44e-05	0	60	0	84934656	53	5406
2026-01-14 11:33:21.94	297.06	21.40	-41.3	-44.6	13.2	1.90e-05	0	60	0	89128960	53	5483
2026-01-14 11:33:23.96	297.54	21.27	-41.4	-44.9	12.9	4.65e-05	0	60	0	92274688	53	5669
2026-01-14 11:33:25.98	298.00	21.15	-41.5	-45.1	12.7	5.03e-05	0	60	0	96468992	53	5807
2026-01-14 11:33:28.00	298.47	21.02	-42.0	-45.9	11.9	3.74e-04	0	60	0	99614720	54	6019
2026-01-14 11:33:30.02	298.93	20.89	-42.1	-46.2	11.6	6.95e-04	0	60	0	103809024	54	6223
2026-01-14 11:33:32.04	299.39	20.76	-42.0	-46.0	11.8	4.23e-04	0	60	0	108003328	54	6064
2026-01-14 11:33:34.06	299.84	20.63	-41.6	-45.2	12.6	9.61e-05	0	60	0	111149056	54	5546
2026-01-14 11:33:36.07	300.29	20.50	-41.5	-45.0	12.7	5.41e-05	0	60	0	115343360	54	5457
2026-01-14 11:33:38.09	300.73	20.37	-41.8	-45.5	12.3	1.55e-04	0	60	0	118489088	54	5741
2026-01-14 11:33:40.11	301.17	20.24	-42.0	-45.9	11.8	3.24e-04	0	60	0	122683392	54	6059
2026-01-14 11:33:42.13	301.61	20.10	-42.1	-46.2	11.6	6.96e-04	0	60	0	126877696	54	6225
2026-01-14 11:33:44.16	302.05	19.97	-42.1	-46.1	11.6	5.53e-04	0	60	0	130023424	54	6192
2026-01-14 11:33:46.17	302.48	19.83	-42.2	-46.3	11.4	8.41e-04	0	60	0	134217728	54	6322
2026-01-14 11:33:48.19	302.90	19.69	-42.1	-46.2	11.5	1.03e-03	0	60	0	138412032	55	5883
2026-01-14 11:33:50.21	303.33	19.56	-42.0	-46.1	11.6	6.24e-04	0	60	0	141557760	55	5820
2026-01-14 11:33:52.23	303.75	19.42	-42.0	-46.1	11.6	6.05e-04	0	60	0	145752064	55	5834
2026-01-14 11:33:54.25	304.16	19.28	-42.1	-46.2	11.5	6.98e-04	0	60	0	148897792	55	5897
2026-01-14 11:33:56.27	304.57	19.14	-42.3	-46.8	10.9	1.64e-03	0	60	0	153092096	55	6283
2026-01-14 11:33:58.29	304.98	19.00	-42.3	-46.8	10.9	1.48e-03	0	60	0	157286400	55	6275
2026-01-14 11:34:00.31	305.39	18.86	-42.2	-46.5	11.2	1.63e-03	0	60	0	160432128	55	6094
2026-01-14 11:34:02.33	305.79	18.72	-42.2	-46.5	11.2	1.83e-03	0	60	0	164626432	55	6072
2026-01-14 11:34:04.35	306.19	18.57	-42.4	-46.9	10.8	2.48e-03	0	60	0	167772160	55	6370
2026-01-14 11:34:06.36	306.58	18.43	-42.5	-47.2	10.5	3.41e-03	0	60	0	171966464	55	6579
2026-01-14 11:34:08.38	306.97	18.29	-42.3	-46.7	11.0	1.96e-03	0	60	0	176160768	55	6224
2026-01-14 11:34:10.40	307.35	18.15	-42.2	-46.5	11.2	1.53e-03	0	60	0	179306496	55	6068
2026-01-14 11:34:12.42	307.74	18.00	-42.1	-46.3	11.2	1.21e-03	0	60	0	183500800	55	5979
2026-01-14 11:34:14.44	308.12	17.86	-42.2	-46.5	11.1	2.02e-03	0	60	0	186646528	55	6123
2026-01-14 11:34:16.46	308.49	17.71	-42.1	-46.3	11.3	1.23e-03	0	60	0	190840832	55	5980
2026-01-14 11:34:18.48	308.87	17.57	-41.8	-45.7	12.0	2.83e-04	0	60	0	195035136	55	5540
2026-01-14 11:34:20.49	309.23	17.42	-41.7	-45.4	12.2	2.26e-04	0	60	0	198180864	55	5372
2026-01-14 11:34:22.51	309.60	17.28	-41.9	-45.9	11.7	4.39e-04	0	60	0	202375168	55	5689
2026-01-14 11:34:24.53	309.96	17.13	-42.1	-46.4	11.3	9.35e-04	0	60	0	206569472	55	6001
2026-01-14 11:34:26.55	310.32	16.99	-42.1	-46.4	11.2	1.64e-03	0	60	0	209715200	55	6045
2026-01-14 11:34:28.57	310.67	16.84	-42.1	-46.4	11.2	1.54e-03	0	60	0	213909504	55	6042
2026-01-14 11:34:30.59	311.03	16.70	-42.3	-46.8	10.8	2.12e-03	0	60	0	217055232	55	6322
2026-01-14 11:34:32.61	311.37	16.55	-42.6	-47.5	10.1	4.86e-03	0	60	0	221249536	55	6803
2026-01-14 11:34:34.63	311.72	16.40	-42.9	-48.0	9.6	1.36e-02	0	60	0	225443840	56	6841
2026-01-14 11:34:36.65	312.06	16.26	-42.8	-47.7	9.9	8.73e-03	0	60	0	228589568	56	6646
2026-01-14 11:34:38.67	312.40	16.11	-42.4	-46.8	11.0	2.25e-03	0	60	0	232783872	56	5944
2026-01-14 11:34:40.69	312.74	15.96	-42.1	-46.2	11.5	7.44e-04	0	60	0	235929600	56	5561
2026-01-14 11:34:42.71	313.07	15.82	-42.1	-46.2	11.5	9.40e-04	0	60	0	240123904	56	5573
2026-01-14 11:34:44.72	313.40	15.67	-42.4	-46.8	10.9	1.88e-03	0	60	0	244318208	56	5941
2026-01-14 11:34:46.75	313.72	15.53	-42.4	-47.0	10.7	2.81e-03	0	60	0	247463936	56	6092
2026-01-14 11:34:48.76	314.05	15.38	-42.2	-46.4	11.3	1.98e-03	0	60	0	251658240	56	5716
2026-01-14 11:34:50.78	314.37	15.23	-41.8	-45.7	11.8	5.99e-04	0	60	0	254803968	55	5559
2026-01-14 11:34:52.80	314.68	15.09	-41.7	-45.6	12.0	3.62e-04	0	60	0	258998272	55	5478
2026-01-14 11:34:54.82	315.00	14.94	-41.8	-45.8	11.7	5.33e-04	0	60	0	263192576	55	5645
2026-01-14 11:34:56.84	315.31	14.79	-42.1	-46.5	11.0	1.31e-03	0	60	0	266338304	55	6076
2026-01-14 11:34:58.86	315.62	14.65	-42.2	-46.6	10.9	1.62e-03	0	60	0	270532608	55	6189
2026-01-14 11:35:00.87	315.92	14.50	-42.1	-46.4	11.1	1.50e-03	0	60	0	274726912	55	5994
2026-01-14 11:35:02.89	316.22	14.36	-42.1	-46.4	11.1	1.92e-03	0	60	0	277872640	55	6013
2026-01-14 11:35:04.91	316.52	14.21	-42.3	-47.0	10.5	3.17e-03	0	60	0	282066944	55	6459
2026-01-14 11:35:06.93	316.82	14.07	-42.5	-47.5	9.9	7.55e-03	0	60	0	285212672	55	6839
2026-01-14 11:35:08.95	317.11	13.92	-42.5	-47.7	9.7	1.07e-02	0	60	0	289406976	55	6966
2026-01-14 11:35:10.97	317.40	13.78	-42.3	-47.1	10.3	8.56e-03	0	60	0	293601280	55	6499
2026-01-14 11:35:12.99	317.69	13.63	-42.2	-46.8	10.6	3.23e-03	0	60	0	296747008	55	6299
2026-01-14 11:35:15.01	317.98	13.49	-42.1	-46.6	10.8	2.58e-03	0	60	0	300941312	55	6142
2026-01-14 11:35:17.03	318.26	13.34	-42.1	-46.7	10.7	2.27e-03	0	60	0	304087040	55	6205
2026-01-14 11:35:19.05	318.54	13.20	-42.2	-46.9	10.5	3.41e-03	0	60	0	308281344	55	6380
2026-01-14 11:35:21.07	318.82	13.06	-42.4	-47.3	10.1	6.54e-03	0	60	0	312475648	55	6668
2026-01-14 11:35:23.08	319.09	12.91	-42.3	-47.2	10.1	7.60e-03	0	60	0	315621376	55	6604
2026-01-14 11:35:25.10	319.36	12.77	-42.2	-47.0	10.4	5.14e-03	0	60	0	319815680	55	6431
2026-01-14 11:35:27.12	319.63	12.63	-42.3	-47.0	10.3	4.67e-03	0	60	0	322961408	55	6483
2026-01-14 11:35:29.14	319.90	12.48	-42.3	-47.2	10.1	6.57e-03	0	60	0	327155712	55	6621
2026-01-14 11:35:31.16	320.16	12.34	-42.5	-47.5	9.7	1.05e-02	0	60	0	331350016	55	6876
2026-01-14 11:35:33.19	320.43	12.20	-42.5	-47.8	9.4	1.47e-02	0	60	0	334495744	55	7085
2026-01-14 11:35:35.21	320.69	12.06	-42.4	-47.5	9.7	1.19e-02	0	60	0	338690048	55	6855
2026-01-14 11:35:37.23	320.95	11.92	-42.3	-47.2	10.1	7.87e-03	0	60	0	342884352	55	6576
2026-01-14 11:35:39.25	321.20	11.77	-42.1	-46.6	10.7	3.47e-03	0	60	0	346030080	55	6178
2026-01-14 11:35:41.27	321.45	11.63	-41.9	-46.3	10.9	2.06e-03	0	60	0	350224384	55	5973
2026-01-14 11:35:43.28	321.70	11.49	-41.9	-46.3	10.9	2.20e-03	0	60	0	353370112	55	5987
2026-01-14 11:35:45.31	321.95	11.35	-42.0	-46.5	10.8	2.71e-03	0	60	0	357564416	55	6089
2026-01-14 11:35:47.32	322.20	11.21	-42.1	-46.7	10.6	3.30e-03	0	60	0	361758720	55	6205
2026-01-14 11:35:49.34	322.44	11.07	-42.1	-46.9	10.3	4.01e-03	0	60	0	364904448	55	6394
2026-01-14 11:35:51.36	322.68	10.93	-42.2	-47.0	10.2	5.02e-03	0	60	0	369098752	55	6447
2026-01-14 11:35:53.38	322.92	10.80	-42.1	-46.8	10.4	4.32e-03	0	60	0	372244480	55	6309
2026-01-14 11:35:55.40	323.16	10.66	-42.0	-46.7	10.5	3.88e-03	0	60	0	376438784	55	6220
2026-01-14 11:35:57.42	323.39	10.52	-42.1	-46.8	10.4	4.69e-03	0	60	0	380633088	55	6302
2026-01-14 11:35:59.43	323.62	10.38	-42.2	-47.1	10.0	7.02e-03	0	60	0	383778816	55	6558
2026-01-14 11:36:01.45	323.85	10.25	-42.3	-47.4	9.7	1.07e-02	0	60	0	387973120	55	6754
2026-01-14 11:36:03.47	324.08	10.11	-42.4	-47.6	9.5	1.37e-02	0	60	0	391118848	55	6912
2026-01-14 11:36:05.49	324.31	9.97	-42.4	-47.7	9.4	1.48e-02	0	60	0	395313152	55	7001
2026-01-14 11:36:07.51	324.53	9.84	-42.3	-47.6	9.5	1.54e-02	0	60	0	399507456	55	6892
2026-01-14 11:36:09.53	324.76	9.70	-42.3	-47.4	9.7	1.36e-02	0	60	0	402653184	55	6770
2026-01-14 11:36:11.55	324.98	9.56	-42.2	-47.3	9.7	1.15e-02	0	60	0	406847488	55	6706
2026-01-14 11:36:13.57	325.20	9.43	-42.3	-47.4	9.6	1.13e-02	0	60	0	411041792	55	6748
2026-01-14 11:36:15.59	325.41	9.29	-42.3	-47.5	9.5	1.36e-02	0	60	0	414187520	55	6844
2026-01-14 11:36:17.60	325.63	9.16	-42.3	-47.6	9.4	1.48e-02	0	60	0	418381824	55	6918
2026-01-14 11:36:19.62	325.84	9.03	-42.4	-47.9	9.0	2.11e-02	0	60	0	421527552	55	7190
2026-01-14 11:36:21.64	326.05	8.89	-42.4	-47.9	9.0	2.29e-02	0	60	0	425721856	55	7198
2026-01-14 11:36:23.66	326.26	8.76	-42.4	-47.9	9.0	2.52e-02	0	60	0	429916160	55	7199
2026-01-14 11:36:25.68	326.47	8.63	-42.4	-47.9	9.0	2.35e-02	0	60	0	433061888	55	7146
2026-01-14 11:36:27.70	326.67	8.50	-42.3	-47.7	9.2	2.37e-02	0	60	0	437256192	55	7021
2026-01-14 11:36:29.72	326.88	8.36	-42.3	-47.9	9.0	2.36e-02	0	61	0	440401920	55	7144
2026-01-14 11:36:31.74	327.08	8.23	-42.4	-48.0	8.9	2.78e-02	0	60	0	444596224	55	7216
2026-01-14 11:36:33.76	327.28	8.10	-42.2	-47.6	9.3	2.01e-02	0	60	0	448790528	55	6891
2026-01-14 11:36:35.78	327.48	7.97	-43.7	-53.0	4.2	2.55e-02	0	60	104	451936256	58	10881
2026-01-14 11:36:37.80	327.68	7.84	-44.7	-59.1	3.9	1.49e+00	0	60	104	451936256	60	19542
2026-01-14 11:36:39.82	327.87	7.71	-45.0	-59.5	3.8	1.49e+00	0	60	104	451936256	60	20355
2026-01-14 11:36:41.84	328.06	7.58	-45.2	-59.6	3.8	1.49e+00	0	60	104	451936256	60	20731
2026-01-14 11:36:43.86	328.26	7.45	-45.1	-59.7	3.8	1.49e+00	0	60	104	451936256	60	20832
2026-01-14 11:36:45.88	328.45	7.32	-45.2	-59.6	3.8	1.49e+00	0	60	104	451936256	60	20767
2026-01-14 11:36:47.90	328.64	7.19	-45.2	-59.7	3.8	1.49e+00	0	60	104	451936256	60	20788
2026-01-14 11:36:49.92	328.82	7.07	-45.0	-59.6	3.8	1.49e+00	0	60	104	451936256	61	19590
2026-01-14 11:36:51.94	329.01	6.94	-45.2	-59.6	3.8	1.49e+00	0	60	104	451936256	61	19569
2026-01-14 11:36:53.96	329.19	6.81	-45.1	-59.6	3.8	1.49e+00	0	60	104	451936256	61	19530
2026-01-14 11:36:55.97	329.37	6.69	-45.1	-59.6	3.8	1.49e+00	0	60	104	451936256	61	19548
2026-01-14 11:36:58.00	329.56	6.56	-45.1	-59.6	3.8	1.49e+00	0	60	104	451936256	60	20615
2026-01-14 11:37:00.02	329.74	6.43	-45.1	-59.6	3.8	1.49e+00	0	60	104	451936256	60	20595
2026-01-14 11:37:02.04	329.91	6.31	-45.1	-59.6	3.8	1.49e+00	0	60	104	451936256	60	20660
2026-01-14 11:37:04.06	330.09	6.18	-45.1	-59.6	3.8	1.49e+00	0	60	104	451936256	60	20647
2026-01-14 11:37:06.08	330.27	6.06	-45.1	-59.6	3.8	1.49e+00	0	60	104	451936256	60	20627
2026-01-14 11:37:08.10	330.44	5.93	-45.1	-59.6	3.8	1.49e+00	0	60	104	451936256	60	20643
2026-01-14 11:37:10.12	330.61	5.81	-45.1	-59.6	3.8	1.49e+00	0	60	104	451936256	60	20654
2026-01-14 11:37:12.14	330.78	5.69	-45.1	-59.6	3.8	1.49e+00	0	60	104	451936256	60	20633
2026-01-14 11:37:14.16	330.95	5.56	-45.1	-59.6	3.8	1.49e+00	0	60	104	451936256	60	20635
2026-01-14 11:37:16.18	331.12	5.44	-45.1	-59.6	3.8	1.49e+00	0	60	104	451936256	60	20566
2026-01-14 11:37:18.20	331.29	5.32	-45.1	-59.6	3.8	1.49e+00	0	60	104	451936256	60	20574
2026-01-14 11:37:20.22	331.46	5.19	-45.1	-59.6	3.8	1.49e+00	0	60	104	451936256	60	20544
2026-01-14 11:37:22.24	331.62	5.07	-44.9	-59.6	3.8	1.49e+00	0	60	104	451936256	60	20561
2026-01-14 11:37:24.26	331.78	4.95	-45.1	-59.6	3.8	1.49e+00	0	60	104	451936256	60	20621
2026-01-14 11:37:26.28	331.95	4.83	-45.1	-59.5	3.8	1.49e+00	0	60	104	451936256	60	20519
2026-01-14 11:37:28.30	332.11	4.71	-44.8	-59.6	3.8	1.49e+00	0	60	104	451936256	60	20588
2026-01-14 11:37:30.32	332.27	4.59	-45.1	-59.6	3.8	1.49e+00	0	60	104	451936256	60	20560
2026-01-14 11:37:32.34	332.42	4.47	-45.1	-59.6	3.8	1.49e+00	0	60	104	451936256	60	20544
2026-01-14 11:37:34.36	332.58	4.35	-45.1	-59.5	3.8	1.49e+00	0	60	104	451936256	60	20485
2026-01-14 11:37:36.38	332.74	4.23	-45.1	-59.6	3.8	1.49e+00	0	60	104	451936256	60	20604
2026-01-14 11:37:38.41	332.89	4.11	-45.0	-59.6	3.8	1.49e+00	0	60	104	451936256	60	20549
2026-01-14 11:37:40.42	333.04	3.99	-45.1	-59.6	3.8	1.49e+00	0	60	104	451936256	60	20558
2026-01-14 11:37:42.45	333.20	3.88	-45.1	-59.6	3.8	1.49e+00	0	60	104	451936256	60	20594
2026-01-14 11:37:44.46	333.35	3.76	-45.1	-59.6	3.8	1.49e+00	0	60	104	451936256	60	20595
2026-01-14 11:37:46.48	333.50	3.64	-45.1	-59.6	3.8	1.49e+00	0	60	104	451936256	60	20571
2026-01-14 11:37:48.50	333.65	3.52	-45.1	-59.5	3.8	1.49e+00	0	60	104	451936256	60	20518
2026-01-14 11:37:50.52	333.79	3.41	-45.1	-59.5	3.8	1.49e+00	0	60	104	451936256	60	20525
2026-01-14 11:37:52.54	333.94	3.29	-45.1	-59.5	3.8	1.49e+00	0	60	104	451936256	60	20526
2026-01-14 11:37:54.56	334.09	3.17	-45.1	-59.6	3.8	1.49e+00	0	60	104	451936256	60	20647
2026-01-14 11:37:56.58	334.23	3.06	-45.1	-59.6	3.8	1.49e+00	0	60	104	451936256	60	20543
2026-01-14 11:37:58.60	334.38	2.94	-45.0	-59.5	3.8	1.49e+00	0	60	104	451936256	60	20515
2026-01-14 11:38:00.62	334.52	2.83	-45.1	-59.6	3.8	1.49e+00	0	60	104	451936256	60	20571
2026-01-14 11:38:02.64	334.66	2.71	-45.1	-59.6	3.8	1.49e+00	0	60	104	451936256	60	20581
2026-01-14 11:38:04.66	334.80	2.60	-45.1	-59.5	3.8	1.49e+00	0	60	104	451936256	60	20487
2026-01-14 11:38:06.68	334.94	2.49	-45.1	-59.5	3.8	1.49e+00	0	60	104	451936256	60	20514
2026-01-14 11:38:08.70	335.08	2.37	-44.4	-59.5	3.8	1.49e+00	0	60	104	451936256	60	20530
2026-01-14 11:38:10.72	335.21	2.26	-45.1	-59.5	3.8	1.49e+00	0	60	104	451936256	60	20508
2026-01-14 11:38:12.73	335.35	2.15	-45.1	-59.5	3.8	1.49e+00	0	60	104	451936256	60	20531
2026-01-14 11:38:14.75	335.49	2.03	-45.1	-59.5	3.8	1.49e+00	0	60	104	451936256	60	20462

#Closed at: 2026-01-14 11:38:16
#Recorded file [451 MB]: D:/lorett/data/31039_260114_143152.dat