passes_logs/2026/01/14/R2.0S_Moscow/R2.0S_Moscow__20260114_230442_NOAA_21_JPSS-2_rec.log

#Pass ID: 20260114_230442_NOAA 21 (JPSS-2)
#Satellite: NOAA 21 (JPSS-2)
#Configuration: NOAA-21
#almurnet v.1.7.20251203
#Start time: 2026-01-14 23:04:42

#Version: 2.2.20231116
#Station: R2.0S_Moscow
#Location: 37.707566 lon 55.798166 lat
#TLE: 1 54234U 22150A   26014.16688770  .00000052  00000+0  45394-4 0  9999
#TLE: 2 54234  98.7497 315.0767 0000655 297.6997  62.4113 14.19534648164696

#Time	Az	El	Level	Level2	SNR	BER	BlckErr	Temp	State	Recorded	gain1	gain2
2026-01-14 23:04:42.27	19.04	2.01	-41.7	-54.4	3.8	1.49e+00	0	48	0	0	55	15068
2026-01-14 23:04:46.30	19.16	2.26	-41.7	-54.4	3.8	1.49e+00	0	49	104	0	54	15967
2026-01-14 23:04:50.34	19.29	2.51	-41.7	-54.4	3.8	1.49e+00	0	49	104	0	54	15968
2026-01-14 23:04:54.38	19.41	2.77	-41.7	-54.4	3.8	1.49e+00	0	49	104	0	54	15968
2026-01-14 23:04:58.42	19.54	3.03	-41.7	-54.4	3.8	1.49e+00	0	50	104	0	54	15949
2026-01-14 23:05:02.46	19.67	3.29	-41.7	-54.4	3.8	1.49e+00	0	50	104	0	54	15961
2026-01-14 23:05:06.50	19.81	3.55	-41.7	-54.4	3.8	1.49e+00	0	50	104	0	54	15998
2026-01-14 23:05:10.54	19.94	3.82	-41.7	-54.3	3.8	1.49e+00	0	50	104	0	54	15895
2026-01-14 23:05:14.57	20.08	4.09	-41.7	-54.3	3.8	1.49e+00	0	51	104	0	54	15908
2026-01-14 23:05:18.62	20.21	4.36	-41.7	-54.4	3.8	1.49e+00	0	51	104	0	54	15944
2026-01-14 23:05:22.66	20.36	4.63	-41.7	-54.3	3.8	1.49e+00	0	51	104	0	54	15895
2026-01-14 23:05:26.70	20.50	4.91	-41.8	-54.3	3.8	1.49e+00	0	51	104	0	54	15932
2026-01-14 23:05:30.75	20.64	5.19	-41.7	-54.3	3.8	1.49e+00	0	51	104	0	54	15892
2026-01-14 23:05:34.79	20.79	5.47	-41.7	-54.3	3.8	1.49e+00	0	52	104	0	54	15930
2026-01-14 23:05:38.83	20.94	5.76	-41.7	-54.3	3.8	1.49e+00	0	52	104	0	54	15925
2026-01-14 23:05:42.87	21.10	6.04	-41.7	-54.3	3.8	1.49e+00	0	52	104	0	54	15926
2026-01-14 23:05:46.91	21.25	6.34	-41.7	-54.3	3.8	1.49e+00	0	52	104	0	54	15895
2026-01-14 23:05:50.96	21.41	6.63	-41.7	-54.3	3.8	1.49e+00	0	53	104	0	54	15870
2026-01-14 23:05:54.99	21.57	6.93	-41.7	-54.3	3.8	1.49e+00	0	53	104	0	54	15867
2026-01-14 23:05:59.02	21.74	7.23	-41.7	-54.1	3.8	1.49e+00	0	53	104	0	54	15520
2026-01-14 23:06:03.06	21.90	7.53	-41.6	-53.2	3.8	1.49e+00	0	53	104	0	54	13926
2026-01-14 23:06:07.10	22.07	7.84	-41.2	-49.4	4.3	1.12e+00	0	53	104	0	54	9053
2026-01-14 23:06:11.14	22.25	8.15	-40.5	-45.8	7.6	9.90e-02	0	53	0	11534336	53	6280
2026-01-14 23:06:15.18	22.43	8.47	-40.9	-48.0	5.5	5.65e-01	0	53	0	19922944	52	8582
2026-01-14 23:06:19.21	22.61	8.78	-40.4	-44.5	9.4	1.38e-02	0	54	0	32505856	52	5774
2026-01-14 23:06:23.24	22.79	9.11	-40.3	-44.0	10.0	8.26e-03	0	54	0	45088768	52	5449
2026-01-14 23:06:27.28	22.98	9.43	-40.3	-43.9	10.4	5.55e-03	0	54	0	57671680	52	5356
2026-01-14 23:06:31.33	23.17	9.76	-40.6	-44.1	10.3	4.40e-03	0	54	0	70254592	52	5518
2026-01-14 23:06:35.37	23.37	10.10	-40.5	-43.9	10.7	2.95e-03	0	54	0	82837504	52	5347
2026-01-14 23:06:39.40	23.57	10.44	-40.6	-44.0	10.7	3.45e-03	0	54	0	95420416	52	5428
2026-01-14 23:06:43.44	23.77	10.78	-40.6	-44.0	10.7	2.86e-03	0	54	0	108003328	52	5423
2026-01-14 23:06:47.48	23.98	11.13	-40.6	-43.9	10.9	2.25e-03	0	54	0	120586240	52	5379
2026-01-14 23:06:51.52	24.19	11.48	-40.5	-43.6	11.2	1.47e-03	0	55	0	133169152	52	5218
2026-01-14 23:06:55.56	24.41	11.84	-40.4	-43.4	11.6	6.84e-04	0	55	0	145752064	52	5062
2026-01-14 23:06:59.60	24.64	12.21	-40.4	-43.3	11.7	5.94e-04	0	55	0	159383552	52	5038
2026-01-14 23:07:03.64	24.86	12.57	-40.4	-43.3	11.8	4.13e-04	0	55	0	171966464	52	4997
2026-01-14 23:07:07.68	25.10	12.95	-40.4	-43.3	11.9	3.98e-04	0	55	0	184549376	52	4987
2026-01-14 23:07:11.73	25.34	13.33	-40.3	-43.2	12.0	3.23e-04	0	55	0	197132288	52	4937
2026-01-14 23:07:15.76	25.58	13.71	-40.4	-43.4	11.9	3.78e-04	0	55	0	209715200	52	5050
2026-01-14 23:07:19.80	25.83	14.10	-40.5	-43.4	11.9	4.16e-04	0	55	0	222298112	52	5046
2026-01-14 23:07:23.84	26.09	14.50	-40.5	-43.4	11.9	3.70e-04	0	55	0	234881024	52	5054
2026-01-14 23:07:27.87	26.36	14.90	-40.5	-43.3	12.0	3.28e-04	0	55	0	247463936	52	5038
2026-01-14 23:07:31.91	26.63	15.31	-40.6	-43.5	11.8	4.07e-04	0	55	0	260046848	52	5150
2026-01-14 23:07:35.94	26.90	15.72	-40.7	-43.6	11.8	5.32e-04	0	56	0	272629760	52	5199
2026-01-14 23:07:39.98	27.19	16.14	-40.8	-43.9	11.5	8.60e-04	0	56	0	285212672	52	5376
2026-01-14 23:07:44.03	27.48	16.57	-40.7	-43.7	11.7	5.85e-04	0	56	0	297795584	52	5255
2026-01-14 23:07:48.07	27.78	17.01	-40.5	-43.3	12.2	2.52e-04	0	56	0	310378496	52	5020
2026-01-14 23:07:52.10	28.09	17.45	-40.6	-43.4	12.2	2.59e-04	0	56	0	322961408	52	5047
2026-01-14 23:07:56.14	28.41	17.90	-40.6	-43.4	12.1	2.43e-04	0	56	0	335544320	52	5058
2026-01-14 23:08:00.17	28.74	18.36	-40.6	-43.3	12.3	1.88e-04	0	56	0	348127232	52	5028
2026-01-14 23:08:04.21	29.08	18.82	-40.5	-43.2	12.4	1.43e-04	0	56	0	360710144	52	4948
2026-01-14 23:08:08.24	29.42	19.29	-40.4	-43.0	12.6	1.07e-04	0	56	0	373293056	52	4857
2026-01-14 23:08:12.28	29.78	19.77	-40.3	-42.9	12.8	6.48e-05	0	56	0	385875968	52	4761
2026-01-14 23:08:16.32	30.15	20.26	-40.1	-42.5	13.1	3.20e-05	0	56	0	398458880	52	4595
2026-01-14 23:08:20.36	30.53	20.76	-40.0	-42.4	13.4	1.22e-05	0	56	0	411041792	51	4773
2026-01-14 23:08:24.40	30.92	21.27	-39.9	-42.2	13.6	7.60e-06	0	56	0	423624704	51	4673
2026-01-14 23:08:28.43	31.32	21.79	-39.7	-41.9	13.9	2.20e-06	0	56	0	436207616	51	4516
2026-01-14 23:08:32.46	31.74	22.31	-39.5	-41.7	14.1	0.00e+00	0	56	0	448790528	51	4430
2026-01-14 23:08:36.50	32.17	22.85	-39.7	-41.9	13.9	1.50e-06	0	56	0	461373440	51	4520
2026-01-14 23:08:40.53	32.62	23.39	-39.6	-41.8	14.0	2.20e-06	0	56	0	473956352	51	4481
2026-01-14 23:08:44.58	33.08	23.95	-39.7	-41.9	13.9	4.50e-06	0	56	0	486539264	51	4543
2026-01-14 23:08:48.61	33.56	24.51	-39.7	-41.8	14.0	3.00e-06	0	57	0	499122176	51	4491
2026-01-14 23:08:52.65	34.05	25.09	-39.8	-42.1	13.8	3.00e-06	0	57	0	511705088	51	4617
2026-01-14 23:08:56.68	34.56	25.67	-40.0	-42.4	13.5	9.90e-06	0	57	0	525336576	51	4761
2026-01-14 23:09:00.72	35.09	26.27	-40.2	-42.6	13.3	1.75e-05	0	57	0	536870912	51	4884
2026-01-14 23:09:04.76	35.64	26.88	-40.3	-42.7	13.2	2.44e-05	0	57	0	550502400	51	4971
2026-01-14 23:09:08.80	36.22	27.50	-40.4	-42.9	13.0	3.20e-05	0	57	0	563085312	51	5062
2026-01-14 23:09:12.83	36.81	28.13	-40.5	-43.0	12.9	4.80e-05	0	57	0	575668224	51	5131
2026-01-14 23:09:16.87	37.43	28.77	-40.5	-43.1	12.9	3.73e-05	0	57	0	588251136	51	5167
2026-01-14 23:09:20.91	38.07	29.42	-40.5	-43.1	12.9	7.09e-05	0	57	0	600834048	51	5180
2026-01-14 23:09:24.95	38.74	30.09	-40.7	-43.3	12.6	7.17e-05	0	57	0	613416960	51	5308
2026-01-14 23:09:28.98	39.43	30.76	-40.6	-43.2	12.7	7.17e-05	0	57	0	625999872	52	4950
2026-01-14 23:09:33.01	40.16	31.45	-40.3	-42.7	13.1	2.21e-05	0	57	0	638582784	52	4703
2026-01-14 23:09:37.04	40.91	32.15	-40.2	-42.6	13.3	1.98e-05	0	57	0	651165696	52	4640
2026-01-14 23:09:41.08	41.70	32.86	-40.3	-42.8	13.1	2.44e-05	0	57	0	663748608	52	4733
2026-01-14 23:09:45.12	42.52	33.58	-40.6	-43.2	12.7	7.24e-05	0	57	0	676331520	52	4982
2026-01-14 23:09:49.16	43.39	34.31	-40.9	-43.6	12.3	2.02e-04	0	57	0	688914432	52	5218
2026-01-14 23:09:53.20	44.29	35.05	-40.9	-43.7	12.3	1.89e-04	0	57	0	701497344	52	5252
2026-01-14 23:09:57.24	45.23	35.81	-41.3	-44.3	11.6	6.20e-04	0	57	0	714080256	53	5325
2026-01-14 23:10:01.28	46.21	36.57	-41.3	-44.2	11.7	4.78e-04	0	57	0	726663168	53	5273
2026-01-14 23:10:05.31	47.24	37.34	-41.4	-44.4	11.5	7.84e-04	0	57	0	739246080	53	5373
2026-01-14 23:10:09.34	48.32	38.11	-41.4	-44.4	11.5	7.64e-04	0	57	0	751828992	53	5380
2026-01-14 23:10:13.38	49.46	38.90	-41.4	-44.4	11.5	7.77e-04	0	57	0	764411904	53	5396
2026-01-14 23:10:17.43	50.65	39.69	-41.5	-44.5	11.4	8.29e-04	0	57	0	776994816	53	5463
2026-01-14 23:10:21.47	51.90	40.48	-41.6	-44.7	11.3	1.08e-03	0	57	0	789577728	53	5554
2026-01-14 23:10:25.49	53.20	41.28	-41.8	-45.1	10.9	2.08e-03	0	57	0	802160640	54	5518
2026-01-14 23:10:29.53	54.57	42.07	-42.2	-45.9	10.1	5.84e-03	0	57	0	814743552	55	5666
2026-01-14 23:10:33.56	56.01	42.86	-42.6	-46.6	9.4	1.43e-02	0	57	0	827326464	55	6166
2026-01-14 23:10:37.61	57.53	43.66	-42.4	-46.2	9.8	1.20e-02	0	57	0	839909376	55	5913
2026-01-14 23:10:41.64	59.12	44.44	-42.2	-45.7	10.3	6.04e-03	0	57	0	852492288	55	5574
2026-01-14 23:10:45.67	60.79	45.21	-42.3	-46.0	9.9	7.63e-03	0	57	0	865075200	55	5763
2026-01-14 23:10:49.70	62.54	45.97	-42.2	-45.7	10.3	4.94e-03	0	58	0	877658112	55	5540
2026-01-14 23:10:53.73	64.37	46.72	-42.1	-45.6	10.4	5.36e-03	0	58	0	890241024	55	5487
2026-01-14 23:10:57.76	66.29	47.44	-41.7	-44.8	11.2	1.37e-03	0	58	0	902823936	55	5035
2026-01-14 23:11:01.80	68.30	48.14	-42.0	-45.3	10.8	2.66e-03	0	57	0	915406848	55	5307
2026-01-14 23:11:05.84	70.41	48.82	-41.6	-44.7	11.3	9.36e-04	0	57	0	927989760	55	4960
2026-01-14 23:11:09.87	72.60	49.46	-41.8	-44.9	11.1	1.65e-03	0	57	0	941621248	55	5088
2026-01-14 23:11:13.91	74.89	50.06	-41.9	-45.2	10.9	2.29e-03	0	57	0	953155584	55	5247
2026-01-14 23:11:17.95	77.27	50.62	-41.5	-44.5	11.6	8.15e-04	0	57	0	966787072	55	4866
2026-01-14 23:11:21.98	79.72	51.14	-41.4	-44.3	11.9	4.13e-04	0	57	0	979369984	54	4998
2026-01-14 23:11:26.02	82.27	51.60	-41.5	-44.6	11.5	7.37e-04	0	58	0	991952896	54	5166
2026-01-14 23:11:30.06	84.89	52.01	-41.1	-43.9	12.2	1.81e-04	0	58	0	1004535808	54	4767
2026-01-14 23:11:34.09	87.57	52.36	-41.0	-43.7	12.4	1.37e-04	0	58	0	1017118720	53	4927
2026-01-14 23:11:38.12	90.31	52.65	-41.4	-44.4	11.6	6.50e-04	0	57	0	1029701632	53	5381
2026-01-14 23:11:42.16	93.11	52.87	-41.2	-44.0	12.2	2.55e-04	0	57	0	1042284544	53	5101
2026-01-14 23:11:46.20	95.94	53.02	-41.0	-43.6	12.5	1.55e-04	0	57	0	1054867456	53	4920
2026-01-14 23:11:50.23	98.78	53.10	-41.5	-44.5	11.6	7.39e-04	0	57	0	1067450368	53	5404
2026-01-14 23:11:54.27	101.64	53.11	-40.8	-43.4	12.8	6.25e-05	0	58	0	1080033280	53	4791
2026-01-14 23:11:58.30	104.50	53.05	-41.1	-43.8	12.3	1.71e-04	0	58	0	1092616192	53	5005
2026-01-14 23:12:02.34	107.34	52.92	-41.2	-44.0	12.0	2.06e-04	0	57	0	1105199104	53	5141
2026-01-14 23:12:06.38	110.14	52.72	-41.1	-43.9	12.1	3.22e-04	0	58	0	1117782016	53	5085
2026-01-14 23:12:10.41	112.90	52.45	-41.5	-44.5	11.5	6.61e-04	0	58	0	1130364928	53	5462
2026-01-14 23:12:14.45	115.61	52.11	-41.2	-44.1	12.0	3.20e-04	0	58	0	1142947840	53	5170
2026-01-14 23:12:18.49	118.25	51.72	-41.0	-43.7	12.3	1.56e-04	0	58	0	1155530752	53	4966
2026-01-14 23:12:22.52	120.82	51.27	-41.5	-44.5	11.6	6.01e-04	0	58	0	1168113664	53	5404
2026-01-14 23:12:26.56	123.31	50.76	-42.0	-45.4	10.6	2.60e-03	0	58	0	1180696576	54	5686
2026-01-14 23:12:30.60	125.71	50.21	-41.2	-44.0	12.1	3.11e-04	0	58	0	1193279488	54	4838
2026-01-14 23:12:34.63	128.02	49.62	-41.3	-44.2	11.9	3.43e-04	0	58	0	1205862400	54	4943
2026-01-14 23:12:38.67	130.25	48.98	-41.4	-44.3	11.8	4.26e-04	0	58	0	1218445312	54	4999
2026-01-14 23:12:42.71	132.38	48.31	-42.0	-45.3	10.7	2.19e-03	0	58	0	1231028224	54	5609
2026-01-14 23:12:46.76	134.43	47.61	-41.7	-44.8	11.2	1.33e-03	0	58	0	1243611136	54	5319
2026-01-14 23:12:50.80	136.39	46.89	-42.0	-45.3	10.7	3.05e-03	0	58	0	1256194048	54	5616
2026-01-14 23:12:54.83	138.25	46.15	-41.9	-45.3	10.8	2.61e-03	0	58	0	1268776960	54	5604
2026-01-14 23:12:58.87	140.02	45.39	-41.7	-44.9	11.2	1.54e-03	0	58	0	1281359872	54	5345
2026-01-14 23:13:02.90	141.72	44.61	-42.3	-45.9	10.1	6.75e-03	0	58	0	1293942784	55	5715
2026-01-14 23:13:06.94	143.33	43.83	-41.8	-45.0	11.0	2.39e-03	0	58	0	1306525696	55	5137
2026-01-14 23:13:10.98	144.87	43.03	-41.8	-45.0	10.8	2.49e-03	0	58	0	1319108608	55	5118
2026-01-14 23:13:15.02	146.34	42.24	-41.7	-44.8	11.1	1.59e-03	0	58	0	1331691520	55	4988
2026-01-14 23:13:19.06	147.73	41.44	-42.1	-45.7	10.2	6.10e-03	0	58	0	1344274432	55	5548
2026-01-14 23:13:23.09	149.06	40.64	-42.0	-45.4	10.5	4.00e-03	0	58	0	1356857344	55	5360
2026-01-14 23:13:27.13	150.32	39.84	-41.6	-44.7	11.2	1.64e-03	0	58	0	1370488832	55	4972
2026-01-14 23:13:31.17	151.53	39.04	-41.3	-44.1	11.8	3.85e-04	0	58	0	1383071744	54	4924
2026-01-14 23:13:35.22	152.68	38.25	-41.8	-45.0	10.9	3.14e-03	0	58	0	1395654656	54	5432
2026-01-14 23:13:39.25	153.77	37.47	-41.5	-44.6	11.4	1.03e-03	0	58	0	1408237568	54	5167
2026-01-14 23:13:43.28	154.82	36.69	-41.2	-44.0	12.0	4.07e-04	0	58	0	1420820480	54	4851
2026-01-14 23:13:47.32	155.82	35.93	-40.7	-43.3	12.7	5.72e-05	0	58	0	1433403392	53	4716
2026-01-14 23:13:51.35	156.77	35.17	-40.9	-43.5	12.4	1.27e-04	0	58	0	1445986304	53	4861
2026-01-14 23:13:55.38	157.68	34.42	-40.6	-43.1	12.9	6.02e-05	0	58	0	1458569216	53	4619
2026-01-14 23:13:59.42	158.55	33.68	-40.6	-43.1	12.8	4.88e-05	0	58	0	1471152128	53	4631
2026-01-14 23:14:03.46	159.38	32.95	-40.3	-42.6	13.3	2.05e-05	0	58	0	1483735040	52	4643
2026-01-14 23:14:07.50	160.18	32.23	-40.8	-43.4	12.4	1.27e-04	0	58	0	1496317952	52	5090
2026-01-14 23:14:11.54	160.95	31.53	-40.3	-42.8	13.0	4.80e-05	0	58	0	1508900864	52	4713
2026-01-14 23:14:15.57	161.68	30.83	-39.7	-41.9	14.0	3.80e-06	0	58	0	1521483776	51	4507
2026-01-14 23:14:19.60	162.38	30.15	-39.8	-42.0	13.9	4.50e-06	0	58	0	1534066688	51	4570
2026-01-14 23:14:23.64	163.05	29.48	-40.3	-42.7	13.2	2.36e-05	0	58	0	1546649600	51	4964
2026-01-14 23:14:27.68	163.70	28.82	-40.3	-42.8	13.1	1.98e-05	0	58	0	1559232512	51	4985
2026-01-14 23:14:31.72	164.33	28.17	-40.2	-42.6	13.2	1.67e-05	0	58	0	1571815424	51	4894
2026-01-14 23:14:35.76	164.93	27.53	-40.1	-42.4	13.4	1.67e-05	0	58	0	1584398336	51	4806
2026-01-14 23:14:39.80	165.50	26.91	-40.0	-42.3	13.4	8.30e-06	0	58	0	1596981248	51	4752
2026-01-14 23:14:43.83	166.06	26.29	-39.9	-42.2	13.6	9.90e-06	0	58	0	1609564160	51	4677
2026-01-14 23:14:47.87	166.59	25.69	-39.8	-42.0	13.9	6.10e-06	0	58	0	1622147072	51	4569
2026-01-14 23:14:51.90	167.11	25.10	-39.7	-41.8	14.0	2.20e-06	0	58	0	1634729984	51	4477
2026-01-14 23:14:55.93	167.60	24.52	-39.8	-42.0	13.8	5.30e-06	0	58	0	1647312896	51	4574
2026-01-14 23:14:59.97	168.09	23.95	-39.8	-42.0	13.8	3.00e-06	0	58	0	1659895808	51	4596
2026-01-14 23:15:04.00	168.55	23.39	-39.8	-42.1	13.8	8.30e-06	0	58	0	1672478720	51	4617
2026-01-14 23:15:08.04	169.00	22.84	-39.9	-42.2	13.6	2.20e-06	0	58	0	1685061632	51	4656
2026-01-14 23:15:12.07	169.43	22.30	-39.8	-42.0	13.7	7.60e-06	0	58	0	1697644544	51	4598
2026-01-14 23:15:16.11	169.85	21.77	-39.8	-42.0	13.8	3.00e-06	0	58	0	1710227456	51	4580
2026-01-14 23:15:20.15	170.26	21.25	-39.8	-42.1	13.7	7.60e-06	0	58	0	1722810368	51	4606
2026-01-14 23:15:24.19	170.65	20.73	-39.8	-42.0	13.7	5.30e-06	0	58	0	1735393280	51	4589
2026-01-14 23:15:28.23	171.03	20.23	-39.9	-42.2	13.6	6.80e-06	0	58	0	1747976192	51	4683
2026-01-14 23:15:32.26	171.40	19.74	-40.0	-42.4	13.3	1.14e-05	0	58	0	1760559104	51	4784
2026-01-14 23:15:36.30	171.76	19.25	-40.1	-42.5	13.1	2.36e-05	0	58	0	1773142016	51	4864
2026-01-14 23:15:40.33	172.10	18.77	-40.2	-42.6	13.0	3.43e-05	0	58	0	1786773504	51	4907
2026-01-14 23:15:44.36	172.44	18.30	-40.2	-42.7	12.9	3.58e-05	0	58	0	1799356416	51	4962
2026-01-14 23:15:48.40	172.77	17.84	-40.2	-42.7	12.9	4.80e-05	0	58	0	1810890752	51	4972
2026-01-14 23:15:52.44	173.08	17.39	-40.2	-42.7	12.9	5.03e-05	0	58	0	1824522240	51	4951
2026-01-14 23:15:56.48	173.39	16.94	-40.3	-42.8	12.8	7.62e-05	0	58	0	1837105152	51	5013
2026-01-14 23:16:00.51	173.69	16.50	-40.4	-43.1	12.5	1.13e-04	0	58	0	1849688064	51	5162
2026-01-14 23:16:04.55	173.99	16.07	-40.5	-43.2	12.4	1.54e-04	0	58	0	1862270976	51	5241
2026-01-14 23:16:08.58	174.27	15.65	-40.5	-43.3	12.3	1.85e-04	0	58	0	1874853888	51	5288
2026-01-14 23:16:12.62	174.55	15.23	-40.6	-43.4	12.2	2.37e-04	0	58	0	1887436800	51	5348
2026-01-14 23:16:16.65	174.82	14.82	-40.6	-43.4	12.1	2.67e-04	0	58	0	1900019712	51	5374
2026-01-14 23:16:20.69	175.08	14.41	-40.6	-43.5	11.9	5.07e-04	0	58	0	1912602624	52	5117
2026-01-14 23:16:24.73	175.33	14.01	-40.5	-43.3	12.1	3.00e-04	0	58	0	1925185536	52	5020
2026-01-14 23:16:28.77	175.58	13.62	-40.7	-43.6	11.8	4.97e-04	0	58	0	1937768448	52	5174
2026-01-14 23:16:32.81	175.83	13.23	-40.6	-43.5	11.8	4.52e-04	0	58	0	1950351360	52	5155
2026-01-14 23:16:36.85	176.07	12.85	-40.7	-43.7	11.6	6.46e-04	0	58	0	1962934272	52	5222
2026-01-14 23:16:40.89	176.30	12.47	-40.8	-43.8	11.4	9.46e-04	0	58	0	1975517184	52	5330
2026-01-14 23:16:44.93	176.52	12.10	-40.8	-43.9	11.3	1.08e-03	0	58	0	1988100096	52	5351
2026-01-14 23:16:48.97	176.75	11.73	-40.8	-44.0	11.1	1.68e-03	0	58	0	2000683008	52	5444
2026-01-14 23:16:53.00	176.96	11.37	-40.9	-44.2	10.9	2.10e-03	0	58	0	2013265920	52	5573
2026-01-14 23:16:57.04	177.17	11.02	-40.8	-43.9	11.2	1.35e-03	0	58	0	2025848832	52	5375
2026-01-14 23:17:01.08	177.38	10.67	-41.1	-44.4	10.6	3.00e-03	0	58	0	2038431744	52	5721
2026-01-14 23:17:05.12	177.58	10.32	-40.9	-44.2	10.8	2.71e-03	0	58	0	2051014656	52	5531
2026-01-14 23:17:09.15	177.78	9.98	-40.8	-44.1	10.7	2.67e-03	0	58	0	2063597568	52	5527
2026-01-14 23:17:13.19	177.97	9.64	-40.8	-44.1	10.7	2.86e-03	0	58	0	2076180480	52	5525
2026-01-14 23:17:17.22	178.16	9.31	-40.8	-44.3	10.5	3.55e-03	0	58	0	2088763392	52	5602
2026-01-14 23:17:21.25	178.34	8.98	-41.0	-44.6	10.0	5.87e-03	0	58	0	2101346304	52	5839
2026-01-14 23:17:25.28	178.53	8.66	-40.9	-44.6	10.0	7.62e-03	0	58	0	2113929216	52	5790
2026-01-14 23:17:29.33	178.70	8.33	-40.8	-44.5	10.0	7.64e-03	0	58	0	2126512128	52	5747
2026-01-14 23:17:33.37	178.88	8.02	-40.7	-44.4	10.0	7.67e-03	0	58	0	2139095040	52	5686
2026-01-14 23:17:37.40	179.05	7.70	-44.9	-57.3	3.8	1.49e+00	0	58	104	2141192192	60	15878
2026-01-14 23:17:41.44	179.22	7.39	-45.2	-57.6	3.8	1.49e+00	0	58	104	2141192192	60	16386
2026-01-14 23:17:45.47	179.38	7.09	-45.2	-57.5	3.8	1.49e+00	0	58	104	2141192192	61	15351
2026-01-14 23:17:49.51	179.54	6.78	-45.1	-57.4	3.8	1.49e+00	0	58	104	2141192192	61	15173
2026-01-14 23:17:53.55	179.70	6.48	-45.1	-57.3	3.8	1.49e+00	0	58	104	2141192192	61	15038
2026-01-14 23:17:57.59	179.85	6.19	-45.1	-57.4	3.8	1.49e+00	0	58	104	2141192192	61	15053
2026-01-14 23:18:01.63	180.00	5.90	-45.1	-57.3	3.8	1.49e+00	0	58	104	2141192192	61	14999
2026-01-14 23:18:05.67	180.15	5.61	-45.1	-57.3	3.8	1.49e+00	0	58	104	2141192192	61	14989
2026-01-14 23:18:09.71	180.30	5.32	-45.1	-57.3	3.8	1.49e+00	0	58	104	2141192192	61	14964
2026-01-14 23:18:13.74	180.44	5.03	-45.0	-57.3	3.8	1.49e+00	0	58	104	2141192192	61	14958
2026-01-14 23:18:17.79	180.58	4.75	-45.0	-57.3	3.8	1.49e+00	0	58	104	2141192192	61	14950
2026-01-14 23:18:21.83	180.72	4.47	-45.0	-57.3	3.8	1.49e+00	0	58	104	2141192192	61	14930
2026-01-14 23:18:25.87	180.86	4.20	-45.0	-57.3	3.8	1.49e+00	0	58	104	2141192192	61	14981
2026-01-14 23:18:29.92	180.99	3.93	-45.0	-57.3	3.8	1.49e+00	0	58	104	2141192192	61	14928
2026-01-14 23:18:33.96	181.13	3.65	-45.0	-57.3	3.8	1.49e+00	0	58	104	2141192192	61	14918
2026-01-14 23:18:38.00	181.26	3.39	-45.0	-57.3	3.8	1.49e+00	0	58	104	2141192192	61	14955
2026-01-14 23:18:42.04	181.38	3.12	-45.0	-57.3	3.8	1.49e+00	0	58	104	2141192192	61	14951
2026-01-14 23:18:46.08	181.51	2.86	-45.0	-57.3	3.8	1.49e+00	0	58	104	2141192192	61	14943
2026-01-14 23:18:50.13	181.63	2.60	-45.0	-57.3	3.8	1.49e+00	0	59	104	2141192192	61	14935
2026-01-14 23:18:54.17	181.75	2.34	-45.0	-57.3	3.8	1.49e+00	0	58	104	2141192192	61	14916
2026-01-14 23:18:58.21	181.87	2.08	-45.0	-57.3	3.8	1.49e+00	0	58	104	2141192192	61	14883

#Closed at: 2026-01-14 23:19:00
#Recorded file [2141 MB]: D:/lorett/data/31039_260115_020442.dat