passes_logs/2026/01/14/R2.0S_Moscow/R2.0S_Moscow__20260114_154959_FENGYUN_3E_rec.log

#Pass ID: 20260114_154959_FENGYUN 3E
#Satellite: FENGYUN 3E
#Configuration: FENGYUN 3E
#almurnet v.1.7.20251203
#Start time: 2026-01-14 15:49:58

#Version: 2.2.20231116
#Station: R2.0S_Moscow
#Location: 37.707566 lon 55.798166 lat
#TLE: 1 49008U 21062A   26013.59634448 -.00000226  00000+0 -85925-4 0  9991
#TLE: 2 49008  98.7491  18.7414 0001953 139.1941 220.9382 14.19884160234649

#Time	Az	El	Level	Level2	SNR	BER	BlckErr	Temp	State	Recorded	gain1	gain2
2026-01-14 15:49:58.79	210.33	1.98	-44.3	-55.6	3.8	8.47e-01	0	50	0	0	59	12975
2026-01-14 15:50:01.81	210.56	2.15	-44.3	-55.6	3.8	8.46e-01	0	51	104	0	59	13029
2026-01-14 15:50:04.84	210.79	2.31	-44.3	-55.6	3.8	8.46e-01	0	51	104	0	59	12993
2026-01-14 15:50:07.87	211.02	2.47	-44.3	-55.5	3.8	8.45e-01	0	51	104	0	59	12957
2026-01-14 15:50:10.91	211.26	2.64	-44.3	-55.6	3.8	8.46e-01	0	52	104	0	59	12983
2026-01-14 15:50:13.94	211.50	2.81	-44.3	-55.6	3.8	8.46e-01	0	52	104	0	59	12997
2026-01-14 15:50:16.96	211.74	2.97	-44.3	-55.6	3.8	8.45e-01	0	52	104	0	59	13034
2026-01-14 15:50:19.99	211.99	3.14	-44.3	-55.6	3.8	8.47e-01	0	52	104	0	59	12984
2026-01-14 15:50:23.02	212.24	3.31	-44.3	-55.5	3.8	8.46e-01	0	53	104	0	59	12948
2026-01-14 15:50:26.05	212.49	3.47	-44.3	-55.5	3.8	8.48e-01	0	53	104	0	59	12943
2026-01-14 15:50:29.08	212.74	3.64	-44.3	-55.6	3.8	8.45e-01	0	53	104	0	59	12972
2026-01-14 15:50:32.11	212.99	3.81	-44.3	-55.6	3.8	8.45e-01	0	53	104	0	59	12978
2026-01-14 15:50:35.14	213.25	3.98	-44.3	-55.5	3.8	8.46e-01	0	53	104	0	59	12953
2026-01-14 15:50:38.17	213.51	4.15	-44.3	-55.6	3.8	8.45e-01	0	53	104	0	59	13004
2026-01-14 15:50:41.20	213.78	4.32	-44.3	-55.6	3.8	8.46e-01	0	54	104	0	59	13014
2026-01-14 15:50:44.22	214.05	4.49	-44.3	-55.6	3.8	8.46e-01	0	54	104	0	59	12971
2026-01-14 15:50:47.25	214.32	4.67	-44.3	-55.5	3.8	8.47e-01	0	54	104	0	59	12931
2026-01-14 15:50:50.28	214.59	4.84	-44.3	-55.6	3.8	8.46e-01	0	54	104	0	59	12982
2026-01-14 15:50:53.31	214.87	5.01	-44.3	-55.5	3.8	8.47e-01	0	54	104	0	59	12953
2026-01-14 15:50:56.34	215.15	5.19	-44.3	-55.6	3.8	8.46e-01	0	54	104	0	59	12962
2026-01-14 15:50:59.37	215.43	5.36	-44.3	-55.5	3.8	8.46e-01	0	54	104	0	59	12958
2026-01-14 15:51:02.40	215.72	5.54	-44.3	-55.4	3.8	8.45e-01	0	55	104	0	59	12753
2026-01-14 15:51:05.43	216.01	5.71	-44.3	-55.4	3.8	8.46e-01	0	55	104	0	59	12746
2026-01-14 15:51:08.46	216.30	5.89	-44.3	-55.4	3.8	8.45e-01	0	55	104	0	59	12670
2026-01-14 15:51:11.49	216.60	6.06	-44.2	-54.8	3.8	8.46e-01	0	55	104	0	59	11949
2026-01-14 15:51:14.52	216.90	6.24	-44.1	-53.5	3.9	8.46e-01	0	55	104	0	59	10246
2026-01-14 15:51:17.55	217.20	6.42	-43.8	-51.9	4.2	8.36e-01	0	55	0	0	58	8998
2026-01-14 15:51:20.58	217.51	6.60	-43.4	-49.8	5.1	7.63e-01	0	55	0	0	57	7480
2026-01-14 15:51:23.62	217.82	6.78	-43.0	-48.5	5.9	3.74e-01	0	56	0	6291456	57	6483
2026-01-14 15:51:26.65	218.13	6.96	-42.7	-47.7	6.6	2.14e-01	0	55	0	28311552	56	6259
2026-01-14 15:51:29.68	218.45	7.14	-42.6	-47.6	6.8	1.94e-01	0	56	0	50331648	56	6143
2026-01-14 15:51:32.71	218.77	7.32	-42.6	-47.4	6.9	1.89e-01	0	56	0	72351744	56	6000
2026-01-14 15:51:35.74	219.10	7.50	-41.3	-44.8	9.3	2.19e-02	0	56	0	94371840	53	5298
2026-01-14 15:51:38.78	219.43	7.68	-40.1	-42.7	11.7	8.97e-04	0	56	0	115343360	51	4655
2026-01-14 15:51:41.81	219.77	7.86	-39.3	-41.4	12.9	5.14e-05	0	56	0	137363456	49	4526
2026-01-14 15:51:44.84	220.10	8.05	-39.8	-42.2	12.2	2.15e-04	0	57	0	159383552	49	4955
2026-01-14 15:51:47.87	220.45	8.23	-40.5	-43.2	11.4	2.25e-04	0	56	0	169869312	50	5249
2026-01-14 15:51:50.90	220.79	8.41	-40.1	-42.5	12.0	1.69e-02	0	56	0	189792256	51	4552
2026-01-14 15:51:53.93	221.14	8.60	-39.5	-41.6	13.0	6.75e-05	0	56	0	210763776	49	4625
2026-01-14 15:51:56.97	221.50	8.78	-39.5	-41.6	12.9	3.20e-05	0	57	0	232783872	49	4646
2026-01-14 15:52:00.00	221.86	8.97	-39.2	-41.3	13.3	2.40e-05	0	57	0	254803968	49	4442
2026-01-14 15:52:03.03	222.22	9.15	-39.0	-41.0	13.7	8.00e-06	0	57	0	276824064	48	4562
2026-01-14 15:52:06.06	222.59	9.34	-38.9	-40.8	13.9	4.50e-06	0	57	0	298844160	48	4446
2026-01-14 15:52:09.09	222.96	9.52	-38.8	-40.8	13.9	6.80e-06	0	57	0	320864256	48	4446
2026-01-14 15:52:12.12	223.34	9.71	-38.6	-40.4	14.3	2.20e-06	0	57	0	342884352	48	4289
2026-01-14 15:52:15.15	223.72	9.90	-38.6	-40.4	14.3	1.10e-06	0	57	0	364904448	48	4275
2026-01-14 15:52:18.18	224.11	10.08	-38.7	-40.5	14.3	2.20e-06	0	57	0	385875968	48	4296
2026-01-14 15:52:21.21	224.50	10.27	-38.7	-40.5	14.3	0.00e+00	0	58	0	407896064	48	4323
2026-01-14 15:52:24.23	224.90	10.46	-38.8	-40.6	14.1	5.70e-06	0	58	0	429916160	48	4374
2026-01-14 15:52:27.26	225.30	10.64	-38.7	-40.5	14.3	1.10e-06	0	58	0	451936256	48	4324
2026-01-14 15:52:30.29	225.71	10.83	-38.8	-40.6	14.2	0.00e+00	0	58	0	473956352	48	4358
2026-01-14 15:52:33.32	226.12	11.02	-38.6	-40.4	14.4	2.20e-06	0	58	0	495976448	48	4268
2026-01-14 15:52:36.36	226.54	11.21	-38.5	-40.3	14.6	0.00e+00	0	58	0	517996544	48	4211
2026-01-14 15:52:39.39	226.96	11.40	-38.6	-40.3	14.5	1.10e-06	0	58	0	538968064	48	4238
2026-01-14 15:52:42.41	227.38	11.58	-38.3	-40.0	14.7	1.10e-06	0	58	0	560988160	47	4297
2026-01-14 15:52:45.45	227.82	11.77	-38.4	-40.1	14.6	0.00e+00	0	58	0	583008256	47	4366
2026-01-14 15:52:48.48	228.26	11.96	-38.2	-39.9	14.8	0.00e+00	0	58	0	605028352	47	4262
2026-01-14 15:52:51.51	228.70	12.15	-38.2	-39.9	14.8	0.00e+00	0	58	0	627048448	47	4269
2026-01-14 15:52:54.54	229.15	12.34	-38.1	-39.8	15.0	0.00e+00	0	58	0	649068544	46	4443
2026-01-14 15:52:57.57	229.60	12.52	-38.2	-39.9	14.9	1.10e-06	0	58	0	671088640	46	4510
2026-01-14 15:53:00.60	230.07	12.71	-38.3	-40.1	14.7	1.10e-06	0	58	0	693108736	46	4603
2026-01-14 15:53:03.62	230.53	12.90	-38.1	-39.7	15.0	0.00e+00	0	58	0	714080256	46	4428
2026-01-14 15:53:06.65	231.00	13.08	-38.0	-39.6	15.2	0.00e+00	0	58	0	736100352	46	4352
2026-01-14 15:53:09.68	231.48	13.27	-37.9	-39.5	15.3	0.00e+00	0	58	0	758120448	46	4320
2026-01-14 15:53:12.71	231.96	13.46	-37.8	-39.3	15.5	0.00e+00	0	58	0	780140544	46	4233
2026-01-14 15:53:15.74	232.45	13.64	-37.7	-39.2	15.6	0.00e+00	0	58	0	802160640	46	4175
2026-01-14 15:53:18.76	232.95	13.83	-37.6	-39.1	15.8	0.00e+00	0	59	0	824180736	46	4108
2026-01-14 15:53:21.79	233.45	14.01	-37.6	-39.1	15.8	0.00e+00	0	58	0	846200832	46	4116
2026-01-14 15:53:24.82	233.96	14.20	-37.6	-39.2	15.7	0.00e+00	0	59	0	867172352	46	4149
2026-01-14 15:53:27.85	234.47	14.38	-37.5	-39.0	15.9	0.00e+00	0	58	0	889192448	45	4305
2026-01-14 15:53:30.87	234.99	14.56	-37.4	-38.9	16.0	0.00e+00	0	59	0	911212544	45	4243
2026-01-14 15:53:33.90	235.51	14.74	-37.3	-38.8	16.1	0.00e+00	0	59	0	933232640	45	4208
2026-01-14 15:53:36.93	236.05	14.92	-37.3	-38.7	16.2	0.00e+00	0	59	0	954204160	45	4177
2026-01-14 15:53:39.96	236.58	15.10	-37.1	-38.5	16.3	0.00e+00	0	59	0	976224256	45	4093
2026-01-14 15:53:42.99	237.13	15.28	-37.2	-38.6	16.3	0.00e+00	0	59	0	998244352	45	4143
2026-01-14 15:53:46.02	237.68	15.46	-37.1	-38.6	16.3	0.00e+00	0	59	0	1020264448	45	4105
2026-01-14 15:53:49.04	238.24	15.64	-37.2	-38.6	16.3	0.00e+00	0	59	0	1042284544	45	4136
2026-01-14 15:53:52.07	238.80	15.81	-37.2	-38.6	16.3	0.00e+00	0	59	0	1064304640	45	4137
2026-01-14 15:53:55.10	239.37	15.99	-37.2	-38.6	16.3	0.00e+00	0	59	0	1086324736	45	4125
2026-01-14 15:53:58.14	239.95	16.16	-37.2	-38.6	16.3	0.00e+00	0	59	0	1107296256	45	4128
2026-01-14 15:54:01.17	240.53	16.33	-37.2	-38.6	16.3	0.00e+00	0	59	0	1129316352	45	4120
2026-01-14 15:54:04.20	241.12	16.50	-37.1	-38.5	16.4	0.00e+00	0	59	0	1151336448	45	4086
2026-01-14 15:54:07.23	241.72	16.66	-37.1	-38.5	16.5	0.00e+00	0	59	0	1173356544	44	4293
2026-01-14 15:54:10.26	242.32	16.83	-37.0	-38.4	16.5	0.00e+00	0	59	0	1195376640	44	4274
2026-01-14 15:54:13.28	242.93	16.99	-36.9	-38.2	16.7	0.00e+00	0	59	0	1217396736	44	4177
2026-01-14 15:54:16.31	243.54	17.15	-36.8	-38.1	16.9	0.00e+00	0	59	0	1239416832	44	4118
2026-01-14 15:54:19.34	244.17	17.31	-37.0	-38.4	16.6	0.00e+00	0	59	0	1261436928	44	4263
2026-01-14 15:54:22.37	244.80	17.47	-37.1	-38.4	16.5	0.00e+00	0	59	0	1282408448	44	4290
2026-01-14 15:54:25.41	245.43	17.63	-36.8	-38.2	16.8	0.00e+00	0	59	0	1304428544	44	4160
2026-01-14 15:54:28.43	246.07	17.78	-36.9	-38.2	16.7	0.00e+00	0	59	0	1326448640	44	4175
2026-01-14 15:54:31.46	246.72	17.93	-37.0	-38.4	16.5	0.00e+00	0	59	0	1348468736	44	4270
2026-01-14 15:54:34.49	247.37	18.07	-36.9	-38.2	16.7	0.00e+00	0	59	0	1370488832	44	4178
2026-01-14 15:54:37.52	248.03	18.22	-36.7	-38.0	17.0	0.00e+00	0	59	0	1392508928	44	4077
2026-01-14 15:54:40.55	248.70	18.36	-36.7	-38.0	16.9	0.00e+00	0	59	0	1414529024	44	4092
2026-01-14 15:54:43.58	249.37	18.50	-36.7	-38.0	17.0	0.00e+00	0	59	0	1435500544	44	4068
2026-01-14 15:54:46.61	250.05	18.63	-36.6	-37.9	17.1	0.00e+00	0	59	0	1457520640	44	4020
2026-01-14 15:54:49.64	250.73	18.76	-36.7	-38.0	17.0	0.00e+00	0	59	0	1479540736	44	4074
2026-01-14 15:54:52.66	251.42	18.89	-36.8	-38.1	16.9	0.00e+00	0	60	0	1501560832	44	4142
2026-01-14 15:54:55.70	252.11	19.02	-36.6	-37.9	17.0	0.00e+00	0	60	0	1523580928	44	4046
2026-01-14 15:54:58.73	252.81	19.14	-36.7	-38.0	17.0	0.00e+00	0	59	0	1545601024	44	4089
2026-01-14 15:55:01.76	253.52	19.26	-36.8	-38.2	16.8	0.00e+00	0	59	0	1567621120	44	4170
2026-01-14 15:55:04.79	254.23	19.37	-36.6	-37.9	17.1	0.00e+00	0	60	0	1589641216	44	4015
2026-01-14 15:55:07.82	254.94	19.48	-36.4	-37.7	17.1	0.00e+00	0	60	0	1610612736	43	4149
2026-01-14 15:55:10.85	255.67	19.59	-36.4	-37.7	17.1	0.00e+00	0	59	0	1632632832	43	4187
2026-01-14 15:55:13.88	256.39	19.69	-36.5	-37.8	17.0	0.00e+00	0	59	0	1654652928	43	4235
2026-01-14 15:55:16.91	257.12	19.79	-36.3	-37.6	17.3	0.00e+00	0	60	0	1676673024	43	4104
2026-01-14 15:55:19.94	257.86	19.88	-36.2	-37.5	17.3	0.00e+00	0	59	0	1698693120	43	4071
2026-01-14 15:55:22.97	258.59	19.97	-36.3	-37.6	17.2	0.00e+00	0	59	0	1720713216	43	4130
2026-01-14 15:55:26.00	259.34	20.06	-36.4	-37.7	17.2	0.00e+00	0	60	0	1742733312	43	4164
2026-01-14 15:55:29.03	260.08	20.14	-36.3	-37.5	17.3	0.00e+00	0	59	0	1763704832	43	4095
2026-01-14 15:55:32.05	260.83	20.21	-36.3	-37.6	17.3	0.00e+00	0	59	0	1785724928	43	4107
2026-01-14 15:55:35.09	261.59	20.29	-36.5	-37.8	17.0	0.00e+00	0	60	0	1807745024	43	4219
2026-01-14 15:55:38.12	262.35	20.35	-36.4	-37.8	17.1	0.00e+00	0	60	0	1829765120	43	4196
2026-01-14 15:55:41.15	263.11	20.41	-36.4	-37.6	17.2	0.00e+00	0	60	0	1851785216	43	4142
2026-01-14 15:55:44.18	263.87	20.47	-36.1	-37.3	17.5	0.00e+00	0	60	0	1872756736	43	4003
2026-01-14 15:55:47.21	264.63	20.52	-36.2	-37.5	17.3	0.00e+00	0	60	0	1894776832	43	4084
2026-01-14 15:55:50.24	265.40	20.57	-36.3	-37.5	17.3	0.00e+00	0	60	0	1916796928	43	4098
2026-01-14 15:55:53.27	266.17	20.61	-36.3	-37.6	17.2	0.00e+00	0	60	0	1938817024	43	4136
2026-01-14 15:55:56.30	266.94	20.65	-36.4	-37.7	17.1	0.00e+00	0	60	0	1960837120	43	4192
2026-01-14 15:55:59.33	267.72	20.68	-36.4	-37.7	17.2	0.00e+00	0	60	0	1982857216	43	4157
2026-01-14 15:56:02.35	268.49	20.71	-36.3	-37.5	17.3	0.00e+00	0	60	0	2004877312	43	4094
2026-01-14 15:56:05.38	269.27	20.73	-36.4	-37.7	17.1	0.00e+00	0	60	0	2025848832	43	4184
2026-01-14 15:56:08.41	270.04	20.74	-36.2	-37.5	17.3	0.00e+00	0	60	0	2047868928	43	4079
2026-01-14 15:56:11.44	270.82	20.76	-36.1	-37.4	17.4	0.00e+00	0	60	0	2069889024	43	4031
2026-01-14 15:56:14.47	271.60	20.76	-36.2	-37.5	17.4	0.00e+00	0	60	0	2091909120	43	4060
2026-01-14 15:56:17.50	272.38	20.76	-36.2	-37.4	17.4	0.00e+00	0	60	0	2113929216	43	4050
2026-01-14 15:56:20.53	273.16	20.76	-36.1	-37.4	17.5	0.00e+00	0	60	0	2135949312	43	4018
2026-01-14 15:56:23.56	273.93	20.75	-36.2	-37.5	17.3	0.00e+00	0	60	0	2157969408	43	4072
2026-01-14 15:56:26.59	274.71	20.73	-36.4	-37.7	17.1	0.00e+00	0	60	0	2179989504	43	4173
2026-01-14 15:56:29.62	275.49	20.71	-36.5	-37.9	17.0	0.00e+00	0	60	0	2200961024	43	4250
2026-01-14 15:56:32.65	276.26	20.68	-36.6	-37.9	16.9	0.00e+00	0	60	0	2222981120	43	4278
2026-01-14 15:56:35.68	277.03	20.65	-36.4	-37.8	17.1	0.00e+00	0	60	0	2245001216	43	4204
2026-01-14 15:56:38.71	277.81	20.62	-36.3	-37.6	17.3	0.00e+00	0	60	0	2267021312	43	4111
2026-01-14 15:56:41.74	278.58	20.58	-36.4	-37.7	17.1	0.00e+00	0	60	0	2289041408	43	4185
2026-01-14 15:56:44.77	279.34	20.53	-36.4	-37.7	17.1	0.00e+00	0	60	0	2311061504	43	4190
2026-01-14 15:56:47.80	280.11	20.48	-36.2	-37.5	17.3	0.00e+00	0	60	0	2333081600	43	4084
2026-01-14 15:56:50.83	280.87	20.42	-36.2	-37.4	17.3	0.00e+00	0	60	0	2354053120	43	4046
2026-01-14 15:56:53.86	281.63	20.36	-36.2	-37.5	17.3	0.00e+00	0	60	0	2376073216	43	4091
2026-01-14 15:56:56.89	282.39	20.30	-36.4	-37.7	17.1	0.00e+00	0	60	0	2398093312	43	4151
2026-01-14 15:56:59.92	283.14	20.23	-36.5	-37.9	16.9	0.00e+00	0	60	0	2420113408	43	4252
2026-01-14 15:57:02.95	283.89	20.15	-36.4	-37.8	17.0	0.00e+00	0	60	0	2442133504	43	4197
2026-01-14 15:57:05.98	284.63	20.07	-36.4	-37.7	17.1	0.00e+00	0	60	0	2464153600	43	4148
2026-01-14 15:57:09.01	285.38	19.99	-36.5	-37.8	17.0	0.00e+00	0	60	0	2486173696	43	4226
2026-01-14 15:57:12.05	286.12	19.90	-36.5	-37.8	17.0	0.00e+00	0	60	0	2508193792	43	4228
2026-01-14 15:57:15.08	286.85	19.80	-36.5	-37.8	17.0	0.00e+00	0	60	0	2529165312	43	4216
2026-01-14 15:57:18.11	287.58	19.71	-36.3	-37.6	17.1	0.00e+00	0	60	0	2551185408	43	4142
2026-01-14 15:57:21.14	288.30	19.61	-36.4	-37.7	17.1	0.00e+00	0	60	0	2573205504	43	4163
2026-01-14 15:57:24.17	289.02	19.50	-36.6	-38.0	16.8	0.00e+00	0	60	0	2595225600	43	4319
2026-01-14 15:57:27.20	289.74	19.39	-36.7	-38.1	16.6	0.00e+00	0	60	0	2617245696	43	4375
2026-01-14 15:57:30.22	290.44	19.28	-36.7	-38.0	16.7	0.00e+00	0	60	0	2639265792	43	4335
2026-01-14 15:57:33.25	291.15	19.16	-36.7	-38.0	16.7	0.00e+00	0	60	0	2661285888	43	4336
2026-01-14 15:57:36.28	291.85	19.04	-36.6	-38.0	16.8	0.00e+00	0	60	0	2682257408	43	4300
2026-01-14 15:57:39.32	292.54	18.92	-36.6	-37.9	16.9	0.00e+00	0	60	0	2704277504	43	4270
2026-01-14 15:57:42.35	293.23	18.79	-36.7	-38.0	16.8	0.00e+00	0	60	0	2726297600	43	4324
2026-01-14 15:57:45.38	293.91	18.66	-36.6	-37.9	16.8	0.00e+00	0	60	0	2748317696	43	4272
2026-01-14 15:57:48.41	294.59	18.52	-36.6	-38.0	16.7	0.00e+00	0	60	0	2770337792	43	4320
2026-01-14 15:57:51.44	295.26	18.39	-36.9	-38.3	16.5	0.00e+00	0	60	0	2792357888	43	4447
2026-01-14 15:57:54.46	295.92	18.25	-36.9	-38.3	16.5	0.00e+00	0	60	0	2814377984	43	4445
2026-01-14 15:57:57.49	296.58	18.11	-37.0	-38.4	16.3	0.00e+00	0	60	0	2835349504	43	4510
2026-01-14 15:58:00.53	297.23	17.96	-36.9	-38.4	16.4	0.00e+00	0	60	0	2857369600	43	4498
2026-01-14 15:58:03.56	297.87	17.81	-36.8	-38.1	16.6	0.00e+00	0	60	0	2879389696	43	4380
2026-01-14 15:58:06.59	298.51	17.66	-36.8	-38.2	16.5	0.00e+00	0	60	0	2901409792	43	4416
2026-01-14 15:58:09.61	299.15	17.51	-37.0	-38.4	16.3	0.00e+00	0	60	0	2923429888	43	4508
2026-01-14 15:58:12.64	299.77	17.35	-37.1	-38.5	16.2	0.00e+00	0	60	0	2945449984	43	4572
2026-01-14 15:58:15.67	300.39	17.20	-37.1	-38.6	16.1	0.00e+00	0	60	0	2966421504	43	4624
2026-01-14 15:58:18.70	301.01	17.04	-37.1	-38.6	16.1	0.00e+00	0	60	0	2988441600	43	4606
2026-01-14 15:58:21.73	301.61	16.87	-37.1	-38.5	16.2	0.00e+00	0	60	0	3010461696	43	4573
2026-01-14 15:58:24.77	302.22	16.71	-37.1	-38.6	16.1	0.00e+00	0	60	0	3032481792	43	4612
2026-01-14 15:58:27.80	302.81	16.54	-37.3	-38.8	16.1	0.00e+00	0	60	0	3054501888	44	4452
2026-01-14 15:58:30.83	303.40	16.38	-37.1	-38.5	16.3	0.00e+00	0	60	0	3076521984	44	4334
2026-01-14 15:58:33.85	303.98	16.21	-37.0	-38.4	16.4	0.00e+00	0	60	0	3098542080	44	4291
2026-01-14 15:58:36.88	304.56	16.04	-37.3	-38.8	16.0	0.00e+00	0	61	0	3119513600	44	4446
2026-01-14 15:58:39.91	305.13	15.87	-37.5	-39.0	15.8	0.00e+00	0	60	0	3141533696	44	4587
2026-01-14 15:58:42.94	305.69	15.69	-37.7	-39.2	15.6	0.00e+00	0	60	0	3163553792	44	4694
2026-01-14 15:58:45.97	306.25	15.52	-37.7	-39.3	15.5	0.00e+00	0	60	0	3185573888	45	4456
2026-01-14 15:58:49.00	306.80	15.34	-37.6	-39.1	15.6	0.00e+00	0	60	0	3207593984	45	4385
2026-01-14 15:58:52.03	307.34	15.17	-37.6	-39.1	15.7	0.00e+00	0	60	0	3229614080	45	4359
2026-01-14 15:58:55.06	307.88	14.99	-37.5	-39.1	15.7	0.00e+00	0	60	0	3251634176	45	4346
2026-01-14 15:58:58.09	308.41	14.81	-37.6	-39.1	15.6	0.00e+00	0	60	0	3273654272	45	4377
2026-01-14 15:59:01.12	308.93	14.63	-37.8	-39.3	15.4	0.00e+00	0	60	0	3294625792	45	4485
2026-01-14 15:59:04.15	309.45	14.45	-38.0	-39.6	15.2	0.00e+00	0	60	0	3316645888	45	4621
2026-01-14 15:59:07.18	309.97	14.27	-38.1	-39.8	14.9	0.00e+00	0	60	0	3338665984	45	4735
2026-01-14 15:59:10.21	310.47	14.08	-38.1	-39.8	14.9	0.00e+00	0	60	0	3360686080	45	4709
2026-01-14 15:59:13.23	310.97	13.90	-38.0	-39.7	15.1	0.00e+00	0	60	0	3382706176	45	4653
2026-01-14 15:59:16.26	311.47	13.72	-38.1	-39.7	15.0	0.00e+00	0	60	0	3404726272	45	4694
2026-01-14 15:59:19.29	311.95	13.53	-37.8	-39.3	15.3	0.00e+00	0	60	0	3426746368	45	4493
2026-01-14 15:59:22.32	312.44	13.35	-37.7	-39.3	15.4	0.00e+00	0	60	0	3447717888	45	4482
2026-01-14 15:59:25.35	312.91	13.17	-38.0	-39.7	15.0	0.00e+00	0	60	0	3469737984	45	4653
2026-01-14 15:59:28.38	313.39	12.98	-38.3	-40.0	14.7	0.00e+00	0	61	0	3491758080	46	4556
2026-01-14 15:59:31.41	313.85	12.79	-38.4	-40.2	14.5	1.10e-06	0	60	0	3513778176	46	4661
2026-01-14 15:59:34.44	314.31	12.61	-38.4	-40.2	14.4	2.20e-06	0	60	0	3535798272	46	4663
2026-01-14 15:59:37.47	314.77	12.42	-38.2	-39.9	14.7	0.00e+00	0	60	0	3557818368	46	4538
2026-01-14 15:59:40.50	315.21	12.24	-38.0	-39.6	15.0	0.00e+00	0	60	0	3579838464	46	4389
2026-01-14 15:59:43.53	315.66	12.05	-38.0	-39.7	14.9	0.00e+00	0	60	0	3600809984	46	4404
2026-01-14 15:59:46.56	316.10	11.86	-38.1	-39.8	14.8	0.00e+00	0	60	0	3622830080	46	4457
2026-01-14 15:59:49.59	316.53	11.68	-38.2	-39.9	14.7	0.00e+00	0	61	0	3644850176	46	4517
2026-01-14 15:59:52.62	316.96	11.49	-38.3	-40.1	14.5	0.00e+00	0	60	0	3666870272	46	4609
2026-01-14 15:59:55.64	317.38	11.31	-38.6	-40.5	14.1	3.40e-06	0	60	0	3688890368	46	4835
2026-01-14 15:59:58.67	317.79	11.12	-38.7	-40.6	13.9	4.50e-06	0	60	0	3710910464	47	4632
2026-01-14 16:00:01.70	318.21	10.93	-38.6	-40.5	14.0	4.50e-06	0	61	0	3732930560	47	4557
2026-01-14 16:00:04.74	318.61	10.75	-38.6	-40.5	14.0	1.10e-06	0	60	0	3753902080	47	4562
2026-01-14 16:00:07.77	319.01	10.56	-38.6	-40.5	14.0	1.10e-06	0	61	0	3775922176	47	4570
2026-01-14 16:00:10.79	319.41	10.38	-38.6	-40.5	14.0	5.70e-06	0	60	0	3797942272	47	4547
2026-01-14 16:00:13.82	319.80	10.19	-38.7	-40.6	13.9	5.70e-06	0	60	0	3819962368	47	4610
2026-01-14 16:00:16.85	320.19	10.01	-38.7	-40.6	13.8	9.10e-06	0	60	0	3841982464	47	4640
2026-01-14 16:00:19.88	320.57	9.82	-38.9	-40.8	13.5	1.25e-05	0	60	0	3862953984	47	4755
2026-01-14 16:00:22.91	320.95	9.64	-39.0	-41.0	13.3	2.05e-05	0	61	0	3884974080	47	4846
2026-01-14 16:00:25.94	321.32	9.45	-38.8	-40.8	13.6	1.25e-05	0	60	0	3906994176	47	4731
2026-01-14 16:00:28.97	321.69	9.27	-39.0	-41.0	13.4	2.51e-05	0	60	0	3929014272	47	4822
2026-01-14 16:00:32.00	322.06	9.09	-38.8	-40.7	13.6	9.10e-06	0	60	0	3951034368	47	4694
2026-01-14 16:00:35.03	322.42	8.90	-38.9	-40.9	13.4	1.48e-05	0	60	0	3973054464	47	4813
2026-01-14 16:00:38.06	322.77	8.72	-39.1	-41.2	13.1	3.20e-05	0	61	0	3995074560	47	4953
2026-01-14 16:00:41.09	323.13	8.54	-39.0	-41.1	13.2	2.86e-05	0	60	0	4017094656	47	4886
2026-01-14 16:00:44.12	323.47	8.36	-39.0	-41.1	13.2	3.54e-05	0	60	0	4038066176	47	4871
2026-01-14 16:00:47.15	323.82	8.18	-38.9	-41.0	13.2	1.94e-05	0	60	0	4060086272	47	4829
2026-01-14 16:00:50.18	324.16	8.00	-38.9	-40.9	13.2	2.40e-05	0	60	0	4082106368	47	4803
2026-01-14 16:00:53.21	324.49	7.82	-45.2	-56.5	3.8	8.46e-01	0	60	104	4085252096	60	13698
2026-01-14 16:00:56.24	324.82	7.64	-45.5	-56.9	3.8	8.46e-01	0	60	104	4085252096	60	14249
2026-01-14 16:00:59.27	325.15	7.46	-45.6	-56.9	3.8	8.47e-01	0	60	104	4085252096	60	14349
2026-01-14 16:01:02.30	325.47	7.28	-45.5	-56.9	3.8	8.46e-01	0	60	104	4085252096	60	14263
2026-01-14 16:01:05.33	325.79	7.10	-45.5	-56.8	3.8	8.46e-01	0	60	104	4085252096	60	14167
2026-01-14 16:01:08.36	326.11	6.92	-45.5	-56.8	3.8	8.47e-01	0	61	104	4085252096	60	14196
2026-01-14 16:01:11.39	326.42	6.74	-45.5	-56.8	3.8	8.46e-01	0	61	104	4085252096	60	14116
2026-01-14 16:01:14.42	326.73	6.57	-45.5	-56.8	3.8	8.47e-01	0	61	104	4085252096	60	14130
2026-01-14 16:01:17.45	327.03	6.39	-45.5	-56.8	3.8	8.46e-01	0	61	104	4085252096	60	14084
2026-01-14 16:01:20.48	327.34	6.22	-45.4	-56.8	3.8	8.47e-01	0	60	104	4085252096	60	14111
2026-01-14 16:01:23.50	327.63	6.04	-45.5	-56.8	3.8	8.46e-01	0	61	104	4085252096	60	14107
2026-01-14 16:01:26.54	327.93	5.87	-45.5	-56.8	3.8	8.45e-01	0	61	104	4085252096	60	14125
2026-01-14 16:01:29.56	328.22	5.69	-45.4	-56.7	3.8	8.47e-01	0	60	104	4085252096	60	14034
2026-01-14 16:01:32.59	328.51	5.52	-45.4	-56.7	3.8	8.45e-01	0	61	104	4085252096	60	14028
2026-01-14 16:01:35.62	328.79	5.35	-45.4	-56.7	3.8	8.45e-01	0	61	104	4085252096	60	14033
2026-01-14 16:01:38.65	329.08	5.17	-45.4	-56.8	3.8	8.45e-01	0	61	104	4085252096	60	14090
2026-01-14 16:01:41.67	329.35	5.00	-45.4	-56.7	3.8	8.46e-01	0	61	104	4085252096	60	14023
2026-01-14 16:01:44.70	329.63	4.83	-45.4	-56.7	3.8	8.46e-01	0	61	104	4085252096	60	14023
2026-01-14 16:01:47.73	329.90	4.66	-45.4	-56.7	3.8	8.47e-01	0	61	104	4085252096	60	14043
2026-01-14 16:01:50.76	330.17	4.49	-45.4	-56.8	3.8	8.45e-01	0	61	104	4085252096	60	14047
2026-01-14 16:01:53.79	330.44	4.32	-45.4	-56.7	3.8	8.46e-01	0	61	104	4085252096	60	13953
2026-01-14 16:01:56.82	330.70	4.15	-45.4	-56.7	3.8	8.46e-01	0	61	104	4085252096	60	14007
2026-01-14 16:01:59.85	330.96	3.98	-45.4	-56.8	3.8	8.46e-01	0	60	104	4085252096	60	14094
2026-01-14 16:02:02.87	331.22	3.82	-45.4	-56.7	3.8	8.46e-01	0	61	104	4085252096	60	14033
2026-01-14 16:02:05.90	331.48	3.65	-45.4	-56.7	3.8	8.46e-01	0	61	104	4085252096	60	14044
2026-01-14 16:02:08.93	331.73	3.48	-45.4	-56.7	3.8	8.47e-01	0	61	104	4085252096	60	13985
2026-01-14 16:02:11.97	331.98	3.32	-45.4	-56.7	3.8	8.45e-01	0	61	104	4085252096	60	14034
2026-01-14 16:02:15.00	332.23	3.15	-45.4	-56.8	3.8	8.46e-01	0	61	104	4085252096	60	14051
2026-01-14 16:02:18.02	332.47	2.99	-45.4	-56.7	3.8	8.45e-01	0	61	104	4085252096	60	13960
2026-01-14 16:02:21.05	332.71	2.82	-45.4	-56.7	3.8	8.45e-01	0	61	104	4085252096	60	13993
2026-01-14 16:02:24.09	332.95	2.66	-45.4	-56.7	3.8	8.46e-01	0	61	104	4085252096	60	13955
2026-01-14 16:02:27.12	333.19	2.50	-45.4	-56.7	3.8	8.46e-01	0	61	104	4085252096	60	13978
2026-01-14 16:02:30.15	333.42	2.33	-45.2	-56.7	3.8	8.45e-01	0	61	104	4085252096	60	13893
2026-01-14 16:02:33.17	333.66	2.17	-45.4	-56.7	3.8	8.46e-01	0	61	104	4085252096	60	13989
2026-01-14 16:02:36.20	333.89	2.01	-45.4	-56.7	3.8	8.45e-01	0	61	104	4085252096	60	14039

#Closed at: 2026-01-14 16:02:37
#Recorded file [4085 MB]: D:/lorett/data/31039_260114_184958.dat