passes_logs/2026/01/14/R2.0S_Moscow/R2.0S_Moscow__20260114_215429_SUOMI_NPP_rec.log

#Pass ID: 20260114_215429_SUOMI NPP
#Satellite: SUOMI NPP
#Configuration: NPP
#almurnet v.1.7.20251203
#Start time: 2026-01-14 21:54:31

#Version: 2.2.20231116
#Station: R2.0S_Moscow
#Location: 37.707566 lon 55.798166 lat
#TLE: 1 37849U 11061A   26014.11719687  .00000048  00000+0  43625-4 0  9998
#TLE: 2 37849  98.7809 316.1734 0002474  65.2440 294.8994 14.19525043736585

#Time	Az	El	Level	Level2	SNR	BER	BlckErr	Temp	State	Recorded	gain1	gain2
2026-01-14 21:54:31.43	28.66	2.10	-42.7	-57.4	3.8	1.49e+00	0	48	0	0	57	19107
2026-01-14 21:54:34.44	28.92	2.25	-42.6	-57.4	3.8	1.49e+00	0	49	104	0	56	20244
2026-01-14 21:54:37.47	29.19	2.40	-42.7	-57.4	3.8	1.49e+00	0	49	104	0	56	20220
2026-01-14 21:54:40.50	29.46	2.55	-42.7	-57.4	3.8	1.49e+00	0	49	104	0	56	20181
2026-01-14 21:54:43.54	29.73	2.70	-42.7	-57.4	3.8	1.49e+00	0	49	104	0	56	20262
2026-01-14 21:54:46.57	30.00	2.85	-42.7	-57.4	3.8	1.49e+00	0	49	104	0	56	20243
2026-01-14 21:54:49.60	30.28	3.00	-42.7	-57.4	3.8	1.49e+00	0	50	104	0	56	20208
2026-01-14 21:54:52.63	30.56	3.16	-42.7	-57.4	3.8	1.49e+00	0	50	104	0	56	20218
2026-01-14 21:54:55.66	30.84	3.31	-42.7	-57.4	3.8	1.49e+00	0	50	104	0	56	20293
2026-01-14 21:54:58.69	31.12	3.46	-42.7	-57.4	3.8	1.49e+00	0	50	104	0	56	20240
2026-01-14 21:55:01.72	31.41	3.62	-42.6	-57.4	3.8	1.49e+00	0	50	104	0	56	20207
2026-01-14 21:55:04.75	31.70	3.77	-42.7	-57.4	3.8	1.49e+00	0	51	104	0	56	20209
2026-01-14 21:55:07.78	32.00	3.92	-42.7	-57.4	3.8	1.49e+00	0	51	104	0	56	20232
2026-01-14 21:55:10.80	32.29	4.08	-42.7	-57.4	3.8	1.49e+00	0	51	104	0	56	20160
2026-01-14 21:55:13.84	32.59	4.23	-42.7	-57.4	3.8	1.49e+00	0	51	104	0	56	20227
2026-01-14 21:55:16.87	32.89	4.38	-42.6	-57.4	3.8	1.49e+00	0	51	104	0	56	20214
2026-01-14 21:55:19.90	33.20	4.54	-42.6	-57.4	3.8	1.49e+00	0	51	104	0	56	20198
2026-01-14 21:55:22.93	33.51	4.69	-42.7	-57.4	3.8	1.49e+00	0	52	104	0	56	20234
2026-01-14 21:55:25.96	33.82	4.85	-42.6	-57.4	3.8	1.49e+00	0	52	104	0	56	20176
2026-01-14 21:55:28.99	34.13	5.01	-42.7	-57.4	3.8	1.49e+00	0	52	104	0	56	20223
2026-01-14 21:55:32.02	34.45	5.16	-42.6	-57.4	3.8	1.49e+00	0	52	104	0	56	20235
2026-01-14 21:55:35.05	34.77	5.32	-42.7	-57.4	3.8	1.49e+00	0	52	104	0	56	20169
2026-01-14 21:55:38.08	35.10	5.47	-42.7	-57.4	3.8	1.49e+00	0	52	104	0	56	20133
2026-01-14 21:55:41.11	35.42	5.63	-42.6	-57.4	3.8	1.49e+00	0	52	104	0	56	20179
2026-01-14 21:55:44.14	35.76	5.79	-42.7	-57.4	3.8	1.49e+00	0	53	104	0	56	20214
2026-01-14 21:55:47.17	36.09	5.94	-42.7	-57.4	3.8	1.49e+00	0	53	104	0	56	20232
2026-01-14 21:55:50.20	36.43	6.10	-42.6	-57.4	3.8	1.49e+00	0	53	104	0	56	20226
2026-01-14 21:55:53.22	36.77	6.26	-42.7	-57.4	3.8	1.49e+00	0	53	104	0	56	20215
2026-01-14 21:55:56.25	37.11	6.41	-42.6	-57.4	3.8	1.49e+00	0	53	104	0	56	20143
2026-01-14 21:55:59.28	37.46	6.57	-42.6	-57.4	3.8	1.49e+00	0	53	104	0	56	20124
2026-01-14 21:56:02.31	37.82	6.73	-42.6	-57.4	3.8	1.49e+00	0	53	104	0	56	20184
2026-01-14 21:56:05.34	38.17	6.88	-42.6	-57.3	3.8	1.49e+00	0	53	104	0	56	20061
2026-01-14 21:56:08.36	38.53	7.04	-42.6	-57.1	3.8	1.49e+00	0	54	104	0	56	19442
2026-01-14 21:56:11.40	38.89	7.20	-42.5	-55.8	3.8	1.49e+00	0	54	104	0	56	16753
2026-01-14 21:56:14.43	39.26	7.36	-42.4	-54.3	4.1	1.45e+00	0	53	0	0	56	14072
2026-01-14 21:56:17.46	39.63	7.51	-42.6	-56.4	3.8	1.49e+00	0	54	104	0	56	17985
2026-01-14 21:56:20.49	40.01	7.67	-42.5	-55.6	3.8	1.49e+00	0	54	104	0	56	16323
2026-01-14 21:56:23.51	40.39	7.83	-42.1	-51.2	5.4	5.64e-01	0	54	0	3145728	56	9856
2026-01-14 21:56:26.53	40.77	7.98	-41.6	-49.3	6.6	1.97e-01	0	54	0	8388608	55	8433
2026-01-14 21:56:29.55	41.15	8.14	-41.8	-49.8	4.6	1.49e+00	0	54	104	12582912	55	8873
2026-01-14 21:56:32.58	41.54	8.30	-42.4	-50.5	6.1	3.69e-01	0	54	0	16777216	56	9139
2026-01-14 21:56:35.61	41.94	8.45	-42.3	-49.6	7.0	1.34e-01	0	54	0	22020096	56	8242
2026-01-14 21:56:38.63	42.34	8.61	-42.1	-48.4	8.2	8.46e-02	0	54	0	28311552	56	7194
2026-01-14 21:56:41.66	42.74	8.77	-42.1	-48.2	8.5	4.87e-02	0	55	0	33554432	56	7024
2026-01-14 21:56:44.69	43.15	8.92	-42.0	-47.7	9.0	3.28e-02	0	54	0	38797312	56	6646
2026-01-14 21:56:47.72	43.56	9.08	-41.6	-46.8	9.9	1.05e-02	0	55	0	45088768	55	6296
2026-01-14 21:56:50.75	43.97	9.23	-41.5	-46.3	10.5	4.39e-03	0	55	0	50331648	54	6299
2026-01-14 21:56:53.78	44.40	9.39	-41.3	-45.8	11.1	1.75e-03	0	55	0	56623104	54	5962
2026-01-14 21:56:56.81	44.82	9.54	-41.6	-46.4	10.5	3.61e-03	0	55	0	61865984	54	6410
2026-01-14 21:56:59.84	45.25	9.70	-41.8	-46.7	10.3	5.74e-03	0	55	0	67108864	54	6593
2026-01-14 21:57:02.86	45.68	9.85	-41.7	-46.5	10.4	4.98e-03	0	55	0	73400320	54	6487
2026-01-14 21:57:05.89	46.12	10.01	-41.7	-46.3	10.7	3.19e-03	0	55	0	78643200	54	6327
2026-01-14 21:57:08.92	46.56	10.16	-41.7	-46.4	10.7	3.12e-03	0	55	0	84934656	54	6403
2026-01-14 21:57:11.94	47.01	10.31	-41.8	-46.5	10.6	3.75e-03	0	55	0	90177536	54	6476
2026-01-14 21:57:14.97	47.46	10.46	-41.9	-46.6	10.6	4.00e-03	0	55	0	95420416	54	6537
2026-01-14 21:57:18.00	47.91	10.61	-41.9	-46.6	10.6	2.94e-03	0	55	0	101711872	54	6496
2026-01-14 21:57:21.03	48.37	10.76	-41.9	-46.5	10.7	3.25e-03	0	55	0	106954752	54	6466
2026-01-14 21:57:24.05	48.84	10.91	-41.9	-46.6	10.6	3.26e-03	0	55	0	113246208	54	6546
2026-01-14 21:57:27.08	49.31	11.06	-41.8	-46.4	10.8	3.09e-03	0	55	0	118489088	54	6397
2026-01-14 21:57:30.10	49.78	11.21	-41.8	-46.3	10.9	2.59e-03	0	55	0	124780544	54	6318
2026-01-14 21:57:33.13	50.26	11.36	-41.9	-46.6	10.6	2.76e-03	0	55	0	130023424	54	6529
2026-01-14 21:57:36.15	50.74	11.51	-42.0	-46.8	10.4	4.31e-03	0	55	0	135266304	54	6722
2026-01-14 21:57:39.17	51.23	11.65	-42.0	-46.8	10.5	4.24e-03	0	55	0	141557760	54	6681
2026-01-14 21:57:42.20	51.72	11.80	-42.0	-46.6	10.8	2.59e-03	0	56	0	146800640	54	6509
2026-01-14 21:57:45.23	52.22	11.94	-42.0	-46.7	10.6	2.85e-03	0	56	0	153092096	54	6586
2026-01-14 21:57:48.26	52.72	12.08	-42.1	-47.0	10.3	4.67e-03	0	56	0	158334976	54	6838
2026-01-14 21:57:51.29	53.23	12.22	-42.1	-46.9	10.4	4.43e-03	0	56	0	163577856	54	6771
2026-01-14 21:57:54.32	53.74	12.36	-42.2	-47.1	10.3	4.82e-03	0	56	0	169869312	54	6885
2026-01-14 21:57:57.35	54.26	12.50	-42.2	-47.2	10.1	6.32e-03	0	56	0	175112192	55	6602
2026-01-14 21:58:00.38	54.78	12.64	-42.2	-47.2	10.2	6.88e-03	0	56	0	181403648	55	6571
2026-01-14 21:58:03.41	55.31	12.78	-42.3	-47.4	9.9	6.47e-03	0	56	0	186646528	55	6749
2026-01-14 21:58:06.44	55.84	12.91	-42.4	-47.7	9.6	1.09e-02	0	56	0	192937984	55	6998
2026-01-14 21:58:09.47	56.37	13.04	-42.4	-47.7	9.5	1.33e-02	0	56	0	198180864	55	7034
2026-01-14 21:58:12.49	56.91	13.18	-42.5	-47.8	9.4	1.53e-02	0	56	0	203423744	55	7114
2026-01-14 21:58:15.52	57.46	13.31	-42.6	-48.3	9.0	2.49e-02	0	56	0	209715200	55	7511
2026-01-14 21:58:18.55	58.01	13.43	-42.6	-48.3	9.0	2.88e-02	0	56	0	214958080	55	7462
2026-01-14 21:58:21.57	58.56	13.56	-42.6	-48.3	9.0	2.69e-02	0	56	0	221249536	55	7525
2026-01-14 21:58:24.60	59.12	13.69	-42.8	-48.7	8.8	4.13e-02	0	56	0	226492416	56	7389
2026-01-14 21:58:27.63	59.68	13.81	-42.8	-48.7	8.7	3.46e-02	0	56	0	231735296	56	7423
2026-01-14 21:58:30.66	60.25	13.93	-42.7	-48.4	8.9	2.62e-02	0	56	0	238026752	56	7159
2026-01-14 21:58:33.69	60.83	14.05	-42.6	-48.3	8.9	2.78e-02	0	56	0	243269632	56	7083
2026-01-14 21:58:36.71	61.40	14.17	-42.7	-48.6	8.5	3.72e-02	0	56	0	249561088	56	7344
2026-01-14 21:58:39.74	61.98	14.28	-42.5	-48.3	8.8	3.14e-02	0	56	0	254803968	56	7108
2026-01-14 21:58:42.77	62.57	14.39	-42.6	-48.4	8.7	2.67e-02	0	56	0	260046848	56	7143
2026-01-14 21:58:45.80	63.16	14.50	-42.2	-47.5	9.6	2.00e-02	0	56	0	266338304	56	6475
2026-01-14 21:58:48.82	63.75	14.61	-41.5	-46.2	10.7	3.65e-03	0	56	0	271581184	55	5861
2026-01-14 21:58:51.85	64.35	14.72	-41.4	-46.2	10.4	4.16e-03	0	57	0	277872640	54	6249
2026-01-14 21:58:54.87	64.95	14.82	-41.2	-46.2	10.2	7.70e-03	0	57	0	283115520	54	6235
2026-01-14 21:58:57.89	65.56	14.92	-41.6	-47.3	8.9	2.30e-02	0	57	0	289406976	54	7106
2026-01-14 21:59:00.92	66.17	15.02	-41.5	-47.0	9.1	2.97e-02	0	57	0	294649856	54	6870
2026-01-14 21:59:03.94	66.78	15.11	-41.4	-46.9	9.2	2.63e-02	0	57	0	299892736	54	6759
2026-01-14 21:59:06.97	67.40	15.21	-41.3	-47.0	9.0	2.41e-02	0	57	0	306184192	54	6838
2026-01-14 21:59:10.00	68.03	15.30	-41.5	-48.3	7.5	9.60e-02	0	57	0	311427072	54	7945
2026-01-14 21:59:13.02	68.65	15.38	-41.4	-48.3	7.3	1.29e-01	0	56	0	317718528	54	7971
2026-01-14 21:59:16.05	69.28	15.47	-41.2	-48.1	7.3	1.23e-01	0	57	0	322961408	54	7756
2026-01-14 21:59:19.08	69.91	15.55	-41.3	-49.3	6.2	2.64e-01	0	57	0	328204288	54	8873
2026-01-14 21:59:22.11	70.55	15.63	-41.4	-50.2	5.5	4.52e-01	0	57	0	334495744	54	9837
2026-01-14 21:59:25.13	71.19	15.70	-41.2	-50.7	5.1	6.01e-01	0	57	0	339738624	54	10465
2026-01-14 21:59:28.16	71.83	15.77	-41.2	-51.9	4.4	1.08e+00	0	57	0	346030080	54	11994
2026-01-14 21:59:31.19	72.48	15.84	-40.9	-49.9	5.4	6.19e-01	0	57	0	351272960	53	10104
2026-01-14 21:59:34.22	73.13	15.91	-40.8	-48.9	6.1	2.93e-01	0	57	0	356515840	53	9023
2026-01-14 21:59:37.24	73.78	15.97	-41.0	-50.2	5.2	5.68e-01	0	57	0	362807296	53	10455
2026-01-14 21:59:40.27	74.43	16.03	-41.0	-50.3	5.1	7.14e-01	0	57	0	368050176	53	10588
2026-01-14 21:59:43.29	75.09	16.08	-40.8	-49.7	5.4	5.10e-01	0	57	0	374341632	53	9881
2026-01-14 21:59:46.32	75.75	16.14	-41.0	-49.6	5.7	4.52e-01	0	57	0	379584512	53	9750
2026-01-14 21:59:49.34	76.41	16.18	-41.0	-49.2	6.0	3.24e-01	0	57	0	384827392	53	9310
2026-01-14 21:59:52.37	77.07	16.23	-41.2	-50.5	5.1	6.50e-01	0	57	0	391118848	53	10846
2026-01-14 21:59:55.39	77.73	16.27	-41.1	-49.9	5.5	5.07e-01	0	57	0	396361728	53	10070
2026-01-14 21:59:58.41	78.40	16.31	-41.2	-49.4	6.0	3.66e-01	0	57	0	402653184	53	9570
2026-01-14 22:00:01.44	79.07	16.34	-41.6	-50.2	5.6	4.02e-01	0	57	0	407896064	53	10432
2026-01-14 22:00:04.46	79.73	16.37	-41.4	-49.9	5.7	4.15e-01	0	57	0	413138944	53	10073
2026-01-14 22:00:07.48	80.40	16.40	-41.4	-49.5	6.1	3.41e-01	0	57	0	419430400	53	9656
2026-01-14 22:00:10.51	81.08	16.42	-41.5	-49.4	6.2	3.11e-01	0	57	0	424673280	53	9568
2026-01-14 22:00:13.54	81.75	16.44	-41.6	-48.8	6.8	2.02e-01	0	57	0	430964736	53	8906
2026-01-14 22:00:16.57	82.42	16.46	-41.4	-48.5	7.0	1.64e-01	0	57	0	436207616	53	8641
2026-01-14 22:00:19.60	83.10	16.47	-41.3	-48.1	7.4	1.17e-01	0	57	0	442499072	53	8237
2026-01-14 22:00:22.62	83.77	16.48	-41.6	-48.5	7.2	1.38e-01	0	57	0	447741952	53	8606
2026-01-14 22:00:25.65	84.45	16.48	-41.5	-48.6	7.1	1.47e-01	0	57	0	452984832	53	8738
2026-01-14 22:00:28.67	85.12	16.48	-41.3	-48.1	7.5	1.12e-01	0	57	0	459276288	53	8213
2026-01-14 22:00:31.70	85.80	16.48	-41.5	-48.8	6.9	1.61e-01	0	57	0	464519168	53	8899
2026-01-14 22:00:34.73	86.48	16.47	-41.6	-48.8	7.0	1.63e-01	0	57	0	470810624	53	8867
2026-01-14 22:00:37.76	87.15	16.46	-41.4	-48.3	7.4	1.26e-01	0	57	0	476053504	53	8422
2026-01-14 22:00:40.79	87.83	16.45	-41.6	-48.3	7.6	1.09e-01	0	57	0	481296384	53	8449
2026-01-14 22:00:43.82	88.50	16.43	-42.0	-48.4	7.8	9.32e-02	0	57	0	487587840	54	8027
2026-01-14 22:00:46.85	89.17	16.41	-41.8	-47.6	8.8	3.34e-02	0	57	0	492830720	54	7323
2026-01-14 22:00:49.88	89.85	16.38	-41.5	-46.6	9.8	1.23e-02	0	57	0	499122176	54	6570
2026-01-14 22:00:52.91	90.52	16.35	-41.8	-46.8	9.9	7.04e-03	0	57	0	504365056	54	6697
2026-01-14 22:00:55.93	91.19	16.32	-41.9	-46.8	10.1	5.89e-03	0	57	0	510656512	54	6715
2026-01-14 22:00:58.96	91.85	16.28	-41.8	-46.5	10.5	4.12e-03	0	57	0	515899392	54	6454
2026-01-14 22:01:01.99	92.52	16.24	-41.8	-46.5	10.6	3.22e-03	0	57	0	521142272	54	6456
2026-01-14 22:01:05.01	93.18	16.20	-41.8	-46.4	10.8	2.82e-03	0	57	0	527433728	54	6366
2026-01-14 22:01:08.04	93.85	16.15	-41.6	-45.8	11.4	1.20e-03	0	57	0	532676608	54	5963
2026-01-14 22:01:11.06	94.51	16.10	-41.4	-45.5	11.8	4.82e-04	0	57	0	538968064	54	5736
2026-01-14 22:01:14.09	95.17	16.05	-41.5	-45.6	11.7	5.61e-04	0	57	0	544210944	54	5802
2026-01-14 22:01:17.11	95.82	15.99	-41.6	-45.7	11.6	5.42e-04	0	57	0	549453824	54	5893
2026-01-14 22:01:20.14	96.47	15.93	-41.9	-46.5	10.9	2.23e-03	0	58	0	555745280	54	6443
2026-01-14 22:01:23.17	97.13	15.86	-41.9	-46.4	11.0	2.04e-03	0	58	0	560988160	54	6349
2026-01-14 22:01:26.19	97.77	15.79	-41.7	-46.0	11.4	7.54e-04	0	57	0	567279616	54	6087
2026-01-14 22:01:29.22	98.42	15.72	-42.0	-46.6	10.8	2.27e-03	0	57	0	572522496	54	6517
2026-01-14 22:01:32.25	99.06	15.65	-41.7	-45.9	11.5	1.16e-03	0	57	0	577765376	54	6048
2026-01-14 22:01:35.28	99.70	15.57	-41.3	-45.2	12.2	3.59e-04	0	57	0	584056832	54	5584
2026-01-14 22:01:38.31	100.34	15.49	-41.3	-45.1	12.3	2.04e-04	0	57	0	589299712	54	5471
2026-01-14 22:01:41.34	100.97	15.41	-41.4	-45.4	12.0	2.71e-04	0	57	0	595591168	54	5711
2026-01-14 22:01:44.37	101.60	15.32	-41.4	-45.5	11.8	6.60e-04	0	57	0	600834048	54	5775
2026-01-14 22:01:47.40	102.23	15.23	-41.4	-45.7	11.7	4.27e-04	0	57	0	607125504	54	5878
2026-01-14 22:01:50.43	102.85	15.14	-41.7	-46.2	11.2	1.10e-03	0	57	0	612368384	54	6239
2026-01-14 22:01:53.46	103.47	15.04	-41.7	-46.0	11.4	1.23e-03	0	57	0	617611264	54	6078
2026-01-14 22:01:56.48	104.08	14.95	-41.5	-45.6	11.6	5.10e-04	0	57	0	623902720	53	6138
2026-01-14 22:01:59.51	104.69	14.84	-41.3	-45.3	12.2	5.61e-04	0	57	0	629145600	53	5942
2026-01-14 22:02:02.54	105.30	14.74	-41.4	-45.3	12.1	2.90e-04	0	57	0	635437056	53	5986
2026-01-14 22:02:05.56	105.90	14.64	-41.6	-45.8	11.6	4.90e-04	0	57	0	640679936	53	6296
2026-01-14 22:02:08.59	106.50	14.53	-40.4	-45.8	11.5	7.50e-04	0	57	0	645922816	53	6304
2026-01-14 22:02:11.62	107.09	14.42	-42.0	-46.6	10.8	1.74e-03	0	58	0	652214272	54	6552
2026-01-14 22:02:14.65	107.68	14.30	-42.3	-47.4	10.0	6.05e-03	0	58	0	657457152	55	6738
2026-01-14 22:02:17.68	108.27	14.19	-42.2	-46.9	10.4	4.15e-03	0	58	0	663748608	55	6397
2026-01-14 22:02:20.71	108.85	14.07	-42.0	-46.5	10.9	2.67e-03	0	57	0	668991488	55	6093
2026-01-14 22:02:23.74	109.42	13.95	-42.2	-47.1	10.2	4.54e-03	0	58	0	675282944	55	6563
2026-01-14 22:02:26.77	110.00	13.83	-42.4	-47.5	9.8	8.65e-03	0	58	0	680525824	55	6850
2026-01-14 22:02:29.80	110.56	13.71	-42.2	-47.2	10.2	9.43e-03	0	58	0	685768704	55	6576
2026-01-14 22:02:32.83	111.13	13.58	-42.3	-47.5	9.8	7.25e-03	0	57	0	692060160	55	6823
2026-01-14 22:02:35.86	111.68	13.46	-42.5	-48.0	9.2	1.40e-02	0	57	0	697303040	55	7232
2026-01-14 22:02:38.89	112.24	13.33	-42.5	-48.0	9.2	1.88e-02	0	57	0	703594496	55	7241
2026-01-14 22:02:41.91	112.78	13.20	-42.7	-48.5	8.7	2.90e-02	0	58	0	708837376	55	7681
2026-01-14 22:02:44.94	113.33	13.06	-42.6	-48.5	8.8	3.61e-02	0	58	0	714080256	56	7276
2026-01-14 22:02:47.97	113.87	12.93	-42.1	-47.2	9.9	1.03e-02	0	58	0	720371712	55	6592
2026-01-14 22:02:50.99	114.40	12.79	-41.9	-46.9	10.1	9.70e-03	0	58	0	725614592	54	6750
2026-01-14 22:02:54.02	114.93	12.66	-42.0	-47.4	9.6	1.61e-02	0	57	0	731906048	55	6774
2026-01-14 22:02:57.05	115.46	12.52	-41.9	-47.8	9.0	2.25e-02	0	57	0	737148928	54	7472
2026-01-14 22:03:00.07	115.98	12.38	-41.9	-47.3	9.6	3.06e-02	0	57	0	742391808	54	7075
2026-01-14 22:03:03.11	116.49	12.24	-41.8	-48.4	8.1	6.57e-02	0	58	0	748683264	54	8075
2026-01-14 22:03:06.14	117.00	12.10	-42.1	-49.0	7.6	1.33e-01	0	57	0	753926144	54	8645
2026-01-14 22:03:09.17	117.51	11.95	-42.0	-48.6	7.7	9.74e-02	0	57	0	760217600	54	8254
2026-01-14 22:03:12.20	118.01	11.81	-41.5	-50.1	6.3	2.79e-01	0	57	0	765460480	54	9735
2026-01-14 22:03:15.22	118.51	11.66	-42.5	-50.3	6.7	2.97e-01	0	57	0	771751936	55	9426
2026-01-14 22:03:18.25	119.00	11.51	-41.3	-47.1	8.8	8.64e-02	0	58	0	776994816	52	7742
2026-01-14 22:03:21.28	119.48	11.37	-40.8	-46.4	9.1	4.98e-02	0	58	0	782237696	52	7189
2026-01-14 22:03:24.31	119.97	11.22	-41.0	-47.1	9.0	3.91e-02	0	58	0	788529152	52	7796
2026-01-14 22:03:27.33	120.44	11.07	-41.6	-48.1	8.2	9.46e-02	0	58	0	793772032	53	8197
2026-01-14 22:03:30.36	120.92	10.92	-38.3	-46.1	9.0	5.36e-02	0	58	0	800063488	51	7310
2026-01-14 22:03:33.39	121.38	10.77	-40.0	-47.2	8.2	1.32e-01	0	58	0	805306368	53	7379
2026-01-14 22:03:36.42	121.85	10.62	-39.5	-46.6	9.3	6.75e-02	0	58	0	810549248	51	7720
2026-01-14 22:03:39.45	122.31	10.46	-40.8	-46.1	9.2	1.03e-01	0	58	0	816840704	52	6910
2026-01-14 22:03:42.47	122.76	10.31	-40.6	-45.9	9.7	1.64e-01	0	58	0	822083584	51	7184
2026-01-14 22:03:45.50	123.21	10.16	-40.6	-45.9	9.5	2.50e-01	0	58	0	828375040	51	7173
2026-01-14 22:03:48.53	123.65	10.00	-39.7	-46.2	8.5	5.95e-01	0	58	0	833617920	51	7396
2026-01-14 22:03:51.56	124.09	9.85	-39.3	-46.1	6.5	7.38e-01	0	58	0	835715072	44	10921
2026-01-14 22:03:54.58	124.53	9.69	-30.4	-42.3	4.1	1.44e+00	0	58	104	836763648	29	16779
2026-01-14 22:03:57.61	124.96	9.54	-32.2	-44.2	4.9	1.44e+00	0	57	104	836763648	32	17643
2026-01-14 22:04:00.64	125.39	9.38	-27.3	-40.3	4.7	1.46e+00	0	58	104	836763648	24	17772
2026-01-14 22:04:03.67	125.81	9.22	-28.3	-40.6	4.1	1.46e+00	0	58	104	836763648	20	23219
2026-01-14 22:04:06.70	126.23	9.06	-24.6	-36.8	3.8	1.45e+00	0	58	104	836763648	13	22453
2026-01-14 22:04:09.73	126.64	8.91	-14.8	-33.1	3.6	1.49e+00	0	58	104	836763648	9	18483
2026-01-14 22:04:12.76	127.05	8.75	-24.1	-36.2	3.9	1.50e+00	0	57	104	836763648	13	20883
2026-01-14 22:04:15.79	127.46	8.59	-17.9	-28.0	3.9	1.50e+00	0	57	104	836763648	3	14474
2026-01-14 22:04:18.82	127.86	8.43	-18.3	-30.6	3.8	1.50e+00	0	58	104	836763648	4	18424
2026-01-14 22:04:21.85	128.25	8.28	-14.8	-27.0	3.9	1.50e+00	0	58	104	836763648	2	13697
2026-01-14 22:04:24.88	128.65	8.12	-17.6	-32.9	3.5	1.49e+00	0	58	104	836763648	7	20234
2026-01-14 22:04:27.91	129.04	7.96	-25.5	-38.0	3.9	1.50e+00	0	57	104	836763648	12	27361
2026-01-14 22:04:30.94	129.42	7.80	-44.9	-59.6	3.8	1.49e+00	0	58	104	836763648	60	20682
2026-01-14 22:04:33.97	129.80	7.64	-45.3	-60.0	3.8	1.49e+00	0	57	104	836763648	61	20364
2026-01-14 22:04:37.00	130.18	7.48	-45.5	-60.1	3.8	1.49e+00	0	58	104	836763648	61	20680
2026-01-14 22:04:40.03	130.55	7.32	-45.2	-59.8	3.8	1.49e+00	0	57	104	836763648	61	19902
2026-01-14 22:04:43.07	130.92	7.16	-45.2	-59.7	3.8	1.49e+00	0	58	104	836763648	61	19665
2026-01-14 22:04:46.10	131.28	7.00	-45.1	-59.6	3.8	1.49e+00	0	58	104	836763648	61	19545
2026-01-14 22:04:49.13	131.65	6.84	-45.1	-59.6	3.8	1.49e+00	0	58	104	836763648	61	19459
2026-01-14 22:04:52.16	132.00	6.69	-45.1	-59.6	3.8	1.49e+00	0	58	104	836763648	61	19463
2026-01-14 22:04:55.19	132.36	6.53	-45.1	-59.6	3.8	1.49e+00	0	58	104	836763648	61	19474
2026-01-14 22:04:58.22	132.71	6.37	-45.1	-59.6	3.8	1.49e+00	0	58	104	836763648	61	19434
2026-01-14 22:05:01.25	133.05	6.21	-45.1	-59.6	3.8	1.49e+00	0	57	104	836763648	61	19492
2026-01-14 22:05:04.28	133.39	6.05	-45.1	-59.5	3.8	1.49e+00	0	58	104	836763648	61	19371
2026-01-14 22:05:07.31	133.73	5.89	-45.1	-59.5	3.8	1.49e+00	0	58	104	836763648	61	19351
2026-01-14 22:05:10.35	134.07	5.73	-45.1	-59.6	3.8	1.49e+00	0	58	104	836763648	61	19392
2026-01-14 22:05:13.38	134.40	5.57	-45.1	-59.6	3.8	1.49e+00	0	58	104	836763648	61	19488
2026-01-14 22:05:16.40	134.73	5.42	-45.1	-59.6	3.8	1.49e+00	0	58	104	836763648	61	19420
2026-01-14 22:05:19.43	135.05	5.26	-45.1	-59.6	3.8	1.49e+00	0	58	104	836763648	61	19442
2026-01-14 22:05:22.46	135.38	5.10	-45.1	-59.6	3.8	1.49e+00	0	58	104	836763648	61	19449
2026-01-14 22:05:25.49	135.69	4.94	-45.1	-59.5	3.8	1.49e+00	0	58	104	836763648	61	19348
2026-01-14 22:05:28.52	136.01	4.79	-45.1	-59.5	3.8	1.49e+00	0	58	104	836763648	61	19385
2026-01-14 22:05:31.55	136.32	4.63	-45.1	-59.5	3.8	1.49e+00	0	58	104	836763648	61	19374
2026-01-14 22:05:34.59	136.63	4.47	-45.1	-59.5	3.8	1.49e+00	0	58	104	836763648	61	19353
2026-01-14 22:05:37.62	136.94	4.32	-45.1	-59.5	3.8	1.49e+00	0	58	104	836763648	61	19363
2026-01-14 22:05:40.65	137.24	4.16	-45.1	-59.6	3.8	1.49e+00	0	58	104	836763648	61	19409
2026-01-14 22:05:43.68	137.54	4.00	-45.1	-59.5	3.8	1.49e+00	0	58	104	836763648	61	19365
2026-01-14 22:05:46.71	137.83	3.85	-45.1	-59.5	3.8	1.49e+00	0	58	104	836763648	61	19306
2026-01-14 22:05:49.74	138.13	3.69	-45.1	-59.5	3.8	1.49e+00	0	58	104	836763648	61	19345
2026-01-14 22:05:52.77	138.42	3.54	-45.0	-59.5	3.8	1.49e+00	0	58	104	836763648	61	19331
2026-01-14 22:05:55.80	138.70	3.38	-45.1	-59.5	3.8	1.49e+00	0	58	104	836763648	61	19273
2026-01-14 22:05:58.83	138.99	3.23	-45.1	-59.6	3.8	1.49e+00	0	58	104	836763648	61	19393
2026-01-14 22:06:01.86	139.27	3.07	-45.1	-59.5	3.8	1.49e+00	0	58	104	836763648	61	19317
2026-01-14 22:06:04.89	139.55	2.92	-45.0	-59.5	3.8	1.49e+00	0	58	104	836763648	61	19326
2026-01-14 22:06:07.92	139.82	2.76	-45.1	-59.5	3.8	1.49e+00	0	58	104	836763648	61	19318
2026-01-14 22:06:10.95	140.10	2.61	-45.1	-59.5	3.8	1.49e+00	0	58	104	836763648	61	19340
2026-01-14 22:06:13.98	140.37	2.46	-45.1	-59.5	3.8	1.49e+00	0	58	104	836763648	61	19351
2026-01-14 22:06:17.01	140.63	2.31	-45.0	-59.5	3.8	1.49e+00	0	58	104	836763648	61	19377
2026-01-14 22:06:20.04	140.90	2.15	-45.0	-59.5	3.8	1.49e+00	0	58	104	836763648	61	19291
2026-01-14 22:06:23.07	141.16	2.00	-45.0	-59.5	3.8	1.49e+00	0	58	104	836763648	61	19367

#Closed at: 2026-01-14 22:06:24
#Recorded file [836 MB]: D:/lorett/data/31039_260115_005431.dat