passes_logs/2026/01/14/R2.0S_Moscow/R2.0S_Moscow__20260114_233420_SUOMI_NPP_rec.log

#Pass ID: 20260114_233420_SUOMI NPP
#Satellite: SUOMI NPP
#Configuration: NPP
#almurnet v.1.7.20251203
#Start time: 2026-01-14 23:34:22

#Version: 2.2.20231116
#Station: R2.0S_Moscow
#Location: 37.707566 lon 55.798166 lat
#TLE: 1 37849U 11061A   26014.11719687  .00000048  00000+0  43625-4 0  9998
#TLE: 2 37849  98.7809 316.1734 0002474  65.2440 294.8994 14.19525043736585

#Time	Az	El	Level	Level2	SNR	BER	BlckErr	Temp	State	Recorded	gain1	gain2
2026-01-14 23:34:22.60	17.03	2.15	-42.0	-56.9	3.8	1.49e+00	0	48	0	0	56	19165
2026-01-14 23:34:26.63	17.08	2.40	-41.8	-56.8	3.8	1.49e+00	0	49	104	0	54	21048
2026-01-14 23:34:30.67	17.12	2.67	-41.9	-56.8	3.8	1.49e+00	0	49	104	0	54	21145
2026-01-14 23:34:34.71	17.17	2.93	-41.9	-56.8	3.8	1.49e+00	0	49	104	0	54	21077
2026-01-14 23:34:38.76	17.22	3.20	-41.9	-56.8	3.8	1.49e+00	0	50	104	0	54	21090
2026-01-14 23:34:42.80	17.27	3.47	-41.8	-56.8	3.8	1.49e+00	0	50	104	0	54	21090
2026-01-14 23:34:46.84	17.32	3.74	-41.8	-56.8	3.8	1.49e+00	0	50	104	0	54	21045
2026-01-14 23:34:50.88	17.37	4.01	-41.9	-56.8	3.8	1.49e+00	0	51	104	0	54	21034
2026-01-14 23:34:54.92	17.43	4.29	-41.8	-56.8	3.8	1.49e+00	0	51	104	0	54	21024
2026-01-14 23:34:58.95	17.48	4.57	-41.9	-56.8	3.8	1.49e+00	0	51	104	0	54	21043
2026-01-14 23:35:02.99	17.53	4.85	-41.9	-56.8	3.8	1.49e+00	0	51	104	0	54	21054
2026-01-14 23:35:07.03	17.58	5.14	-41.8	-56.8	3.8	1.49e+00	0	51	104	0	54	21064
2026-01-14 23:35:11.08	17.64	5.43	-41.8	-56.7	3.8	1.49e+00	0	52	104	0	54	21017
2026-01-14 23:35:15.12	17.69	5.72	-41.8	-56.8	3.8	1.49e+00	0	52	104	0	54	21094
2026-01-14 23:35:19.17	17.75	6.02	-41.8	-56.7	3.8	1.49e+00	0	52	104	0	54	20956
2026-01-14 23:35:23.21	17.81	6.32	-41.9	-56.7	3.8	1.49e+00	0	52	104	0	54	20963
2026-01-14 23:35:27.25	17.86	6.62	-41.8	-56.8	3.8	1.49e+00	0	53	104	0	54	21033
2026-01-14 23:35:31.29	17.92	6.93	-41.8	-56.6	3.8	1.49e+00	0	53	104	0	54	20574
2026-01-14 23:35:35.33	17.98	7.24	-41.8	-56.5	3.8	1.49e+00	0	53	104	0	54	20305
2026-01-14 23:35:39.37	18.04	7.55	-41.7	-54.8	3.8	1.49e+00	0	53	104	0	54	16763
2026-01-14 23:35:43.41	18.10	7.87	-41.5	-51.8	4.7	1.07e+00	0	53	0	1048576	54	11935
2026-01-14 23:35:47.44	18.16	8.19	-41.9	-50.1	6.3	3.10e-01	0	53	0	8388608	54	9748
2026-01-14 23:35:51.47	18.23	8.51	-41.8	-48.5	7.5	1.37e-01	0	54	0	12582912	54	8172
2026-01-14 23:35:55.50	18.29	8.84	-41.4	-47.1	9.1	2.38e-02	0	54	0	19922944	54	6922
2026-01-14 23:35:59.54	18.36	9.18	-41.7	-47.5	9.0	2.64e-02	0	54	0	27262976	54	7220
2026-01-14 23:36:03.58	18.42	9.52	-41.7	-47.1	9.5	2.17e-02	0	54	0	35651584	54	6926
2026-01-14 23:36:07.62	18.49	9.86	-42.0	-47.5	9.3	1.62e-02	0	54	0	42991616	54	7238
2026-01-14 23:36:11.66	18.56	10.21	-41.9	-47.0	9.9	1.07e-02	0	54	0	50331648	54	6859
2026-01-14 23:36:15.69	18.63	10.56	-41.9	-46.8	10.1	6.48e-03	0	54	0	57671680	54	6716
2026-01-14 23:36:19.73	18.70	10.92	-41.9	-46.8	10.2	5.77e-03	0	54	0	65011712	54	6698
2026-01-14 23:36:23.77	18.77	11.29	-42.0	-46.8	10.3	4.78e-03	0	54	0	73400320	54	6713
2026-01-14 23:36:27.80	18.84	11.65	-41.7	-46.2	11.0	2.09e-03	0	55	0	80740352	54	6235
2026-01-14 23:36:31.84	18.92	12.03	-41.7	-46.1	11.2	1.17e-03	0	55	0	88080384	54	6145
2026-01-14 23:36:35.88	19.00	12.41	-41.6	-45.8	11.6	7.84e-04	0	55	0	95420416	54	5958
2026-01-14 23:36:39.91	19.08	12.80	-41.7	-45.9	11.5	7.23e-04	0	55	0	103809024	54	5997
2026-01-14 23:36:43.95	19.16	13.19	-41.7	-45.9	11.5	7.86e-04	0	55	0	111149056	54	6023
2026-01-14 23:36:47.98	19.24	13.59	-41.7	-45.8	11.6	8.58e-04	0	55	0	118489088	54	5992
2026-01-14 23:36:52.02	19.32	14.00	-41.7	-45.9	11.5	8.82e-04	0	55	0	125829120	54	6053
2026-01-14 23:36:56.06	19.41	14.41	-41.7	-45.7	11.8	5.29e-04	0	55	0	133169152	54	5907
2026-01-14 23:37:00.09	19.49	14.83	-41.7	-45.8	11.8	4.39e-04	0	55	0	141557760	54	5952
2026-01-14 23:37:04.12	19.58	15.26	-41.6	-45.6	12.0	3.88e-04	0	55	0	148897792	54	5813
2026-01-14 23:37:08.15	19.67	15.69	-41.8	-45.9	11.8	4.81e-04	0	56	0	156237824	54	5995
2026-01-14 23:37:12.18	19.77	16.13	-41.8	-45.9	11.8	6.98e-04	0	55	0	163577856	54	6026
2026-01-14 23:37:16.22	19.86	16.58	-42.0	-46.4	11.3	1.21e-03	0	55	0	170917888	54	6370
2026-01-14 23:37:20.26	19.96	17.04	-42.2	-46.7	11.0	1.79e-03	0	56	0	179306496	54	6592
2026-01-14 23:37:24.30	20.06	17.51	-42.2	-46.6	11.1	1.62e-03	0	56	0	186646528	54	6519
2026-01-14 23:37:28.34	20.17	17.99	-42.2	-46.6	11.2	1.34e-03	0	56	0	193986560	55	6141
2026-01-14 23:37:32.37	20.27	18.48	-42.3	-46.8	10.9	2.58e-03	0	56	0	201326592	55	6347
2026-01-14 23:37:36.42	20.38	18.97	-42.5	-47.1	10.6	3.48e-03	0	56	0	209715200	55	6555
2026-01-14 23:37:40.45	20.49	19.48	-42.6	-47.4	10.3	5.11e-03	0	56	0	217055232	55	6793
2026-01-14 23:37:44.49	20.61	20.00	-42.8	-47.6	10.4	6.09e-03	0	56	0	224395264	56	6497
2026-01-14 23:37:48.52	20.73	20.53	-42.8	-47.7	10.4	4.58e-03	0	56	0	231735296	56	6584
2026-01-14 23:37:52.56	20.85	21.07	-42.7	-47.4	10.7	3.70e-03	0	56	0	239075328	56	6354
2026-01-14 23:37:56.60	20.98	21.62	-42.8	-47.6	10.5	4.03e-03	0	56	0	247463936	56	6530
2026-01-14 23:38:00.63	21.11	22.18	-42.9	-47.8	10.3	4.32e-03	0	57	0	254803968	56	6649
2026-01-14 23:38:04.66	21.24	22.76	-42.5	-46.9	11.2	1.80e-03	0	56	0	262144000	56	6004
2026-01-14 23:38:08.69	21.38	23.34	-42.6	-46.9	11.2	1.53e-03	0	56	0	269484032	56	6036
2026-01-14 23:38:12.73	21.53	23.95	-42.6	-47.0	11.2	1.40e-03	0	57	0	276824064	56	6067
2026-01-14 23:38:16.76	21.68	24.56	-42.6	-46.8	11.3	1.01e-03	0	57	0	285212672	56	5992
2026-01-14 23:38:20.80	21.83	25.20	-42.4	-46.5	11.6	7.86e-04	0	56	0	292552704	56	5745
2026-01-14 23:38:24.83	21.99	25.84	-42.4	-46.6	11.6	8.43e-04	0	57	0	299892736	56	5802
2026-01-14 23:38:28.87	22.16	26.51	-42.5	-46.7	11.5	1.58e-03	0	56	0	307232768	56	5904
2026-01-14 23:38:32.91	22.33	27.19	-42.6	-46.9	11.3	1.21e-03	0	57	0	315621376	56	6057
2026-01-14 23:38:36.94	22.51	27.88	-42.7	-47.1	11.1	1.55e-03	0	57	0	322961408	56	6202
2026-01-14 23:38:40.97	22.70	28.60	-42.8	-47.4	10.9	2.80e-03	0	57	0	330301440	56	6350
2026-01-14 23:38:45.01	22.89	29.33	-42.7	-46.9	11.3	1.39e-03	0	57	0	337641472	56	6056
2026-01-14 23:38:49.04	23.10	30.08	-42.7	-47.0	11.3	1.02e-03	0	57	0	344981504	56	6075
2026-01-14 23:38:53.07	23.31	30.86	-42.9	-47.5	10.7	1.84e-03	0	57	0	353370112	56	6468
2026-01-14 23:38:57.11	23.53	31.65	-43.0	-47.6	10.7	2.56e-03	0	57	0	360710144	56	6508
2026-01-14 23:39:01.14	23.76	32.46	-43.1	-48.0	10.3	5.35e-03	0	57	0	368050176	57	6429
2026-01-14 23:39:05.17	24.01	33.30	-43.2	-48.1	10.1	7.49e-03	0	57	0	375390208	57	6566
2026-01-14 23:39:09.21	24.26	34.16	-43.3	-48.4	9.8	1.06e-02	0	57	0	383778816	57	6798
2026-01-14 23:39:13.24	24.53	35.05	-43.3	-48.6	9.6	1.69e-02	0	57	0	391118848	57	6897
2026-01-14 23:39:17.27	24.82	35.95	-43.4	-48.8	9.6	7.58e-03	0	57	0	398458880	57	7060
2026-01-14 23:39:21.31	25.12	36.89	-43.1	-48.0	10.3	6.92e-03	0	57	0	405798912	57	6438
2026-01-14 23:39:25.34	25.43	37.85	-42.8	-47.1	11.2	1.47e-03	0	57	0	413138944	57	5814
2026-01-14 23:39:29.37	25.77	38.84	-42.9	-47.3	11.0	1.39e-03	0	57	0	421527552	57	5989
2026-01-14 23:39:33.40	26.12	39.86	-42.9	-47.4	10.8	4.36e-03	0	57	0	428867584	57	6057
2026-01-14 23:39:37.43	26.50	40.91	-43.5	-48.9	9.4	1.76e-02	0	57	0	436207616	58	6784
2026-01-14 23:39:41.46	26.90	41.98	-43.8	-49.8	8.6	2.88e-02	0	57	0	443547648	58	7460
2026-01-14 23:39:45.49	27.33	43.09	-43.1	-47.7	10.7	4.77e-03	0	57	0	450887680	58	5903
2026-01-14 23:39:49.53	27.79	44.23	-43.1	-47.7	10.7	4.14e-03	0	57	0	459276288	57	6220
2026-01-14 23:39:53.57	28.28	45.41	-43.7	-49.3	9.0	1.62e-02	0	57	0	466616320	58	7092
2026-01-14 23:39:57.60	28.81	46.61	-43.8	-49.8	8.5	2.19e-02	0	57	0	473956352	58	7475
2026-01-14 23:40:01.63	29.38	47.85	-43.6	-49.2	9.1	1.96e-02	0	57	0	481296384	58	6960
2026-01-14 23:40:05.66	30.00	49.12	-42.8	-47.0	11.4	2.50e-03	0	57	0	488636416	57	5751
2026-01-14 23:40:09.70	30.68	50.43	-41.7	-45.1	13.3	2.21e-05	0	57	0	497025024	55	5184
2026-01-14 23:40:13.73	31.41	51.77	-41.1	-44.0	14.4	7.00e-07	0	57	0	504365056	54	4840
2026-01-14 23:40:17.77	32.21	53.14	-41.3	-44.3	14.0	4.50e-06	0	57	0	511705088	54	5028
2026-01-14 23:40:21.80	33.09	54.55	-40.9	-43.7	14.7	7.00e-07	0	57	0	519045120	53	4951
2026-01-14 23:40:25.84	34.06	55.99	-40.6	-43.3	15.1	0.00e+00	0	57	0	526385152	53	4737
2026-01-14 23:40:29.87	35.13	57.46	-41.2	-44.2	14.2	0.00e+00	0	57	0	534773760	53	5227
2026-01-14 23:40:33.90	36.33	58.95	-40.8	-43.5	14.9	0.00e+00	0	57	0	542113792	53	4837
2026-01-14 23:40:37.94	37.67	60.48	-40.8	-43.5	14.8	0.00e+00	0	57	0	549453824	53	4844
2026-01-14 23:40:41.97	39.18	62.02	-39.5	-41.7	16.7	0.00e+00	0	57	0	556793856	51	4404
2026-01-14 23:40:46.00	40.89	63.58	-40.5	-43.0	15.4	0.00e+00	0	57	0	565182464	51	5128
2026-01-14 23:40:50.03	42.85	65.15	-40.6	-43.2	15.1	0.00e+00	0	58	0	572522496	52	4981
2026-01-14 23:40:54.06	45.09	66.72	-41.7	-45.0	13.3	5.30e-06	0	57	0	579862528	53	5788
2026-01-14 23:40:58.10	47.71	68.29	-43.1	-47.9	10.5	1.65e-03	0	57	0	587202560	56	6735
2026-01-14 23:41:02.14	50.76	69.84	-43.1	-47.7	10.6	5.61e-03	0	57	0	594542592	58	5880
2026-01-14 23:41:06.17	54.34	71.35	-43.7	-49.3	8.8	2.59e-02	0	58	0	602931200	58	7041
2026-01-14 23:41:10.21	58.58	72.80	-43.4	-48.6	9.5	4.20e-02	0	58	0	610271232	58	6548
2026-01-14 23:41:14.25	63.62	74.17	-42.5	-46.3	11.9	8.54e-04	0	58	0	617611264	56	5653
2026-01-14 23:41:18.29	69.61	75.41	-43.5	-49.0	9.1	1.55e-02	0	58	0	624951296	57	7239
2026-01-14 23:41:22.33	76.65	76.47	-43.4	-48.6	9.5	1.38e-02	0	57	0	633339904	58	6535
2026-01-14 23:41:26.36	84.79	77.32	-43.7	-49.4	8.6	1.20e-02	0	58	0	640679936	57	7587
2026-01-14 23:41:30.40	93.92	77.88	-44.1	-51.0	7.1	1.62e-01	0	58	0	648019968	59	8148
2026-01-14 23:41:34.43	103.68	78.13	-44.2	-51.3	6.7	2.45e-01	0	58	0	655360000	59	8427
2026-01-14 23:41:38.48	113.61	78.03	-43.5	-49.0	9.2	1.63e-02	0	58	0	662700032	58	6821
2026-01-14 23:41:42.51	123.05	77.59	-44.0	-50.6	7.4	1.73e-01	0	58	0	671088640	59	7773
2026-01-14 23:41:46.55	131.64	76.85	-44.3	-51.9	6.3	1.27e-01	0	58	0	678428672	59	8987
2026-01-14 23:41:50.59	139.15	75.87	-43.6	-49.3	8.8	3.23e-02	0	58	0	685768704	59	6666
2026-01-14 23:41:54.63	145.57	74.70	-43.5	-48.8	9.3	2.30e-02	0	58	0	693108736	58	6716
2026-01-14 23:41:58.67	150.99	73.38	-43.3	-48.3	9.9	4.56e-03	0	58	0	701497344	57	6675
2026-01-14 23:42:02.71	155.55	71.96	-43.6	-49.5	8.6	5.82e-03	0	58	0	708837376	57	7644
2026-01-14 23:42:06.75	159.40	70.46	-44.1	-51.0	7.2	2.53e-01	0	58	0	716177408	59	8093
2026-01-14 23:42:10.78	162.65	68.93	-43.3	-48.3	9.9	1.38e-02	0	57	0	723517440	58	6307
2026-01-14 23:42:14.81	165.43	67.37	-42.5	-46.4	11.8	4.91e-04	0	58	0	730857472	56	5691
2026-01-14 23:42:18.85	167.83	65.79	-40.6	-43.2	15.0	0.00e+00	0	58	0	739246080	52	4932
2026-01-14 23:42:22.88	169.90	64.21	-40.3	-42.7	15.5	0.00e+00	0	57	0	746586112	52	4698
2026-01-14 23:42:26.92	171.71	62.64	-41.5	-44.7	13.5	6.56e-05	0	58	0	753926144	54	5249
2026-01-14 23:42:30.96	173.30	61.08	-41.9	-45.4	12.8	1.37e-05	0	58	0	761266176	54	5713
2026-01-14 23:42:34.99	174.71	59.54	-41.5	-44.7	13.5	9.10e-06	0	58	0	769654784	54	5250
2026-01-14 23:42:39.03	175.96	58.03	-43.2	-48.0	10.2	1.47e-02	0	58	0	776994816	58	6083
2026-01-14 23:42:43.07	177.09	56.54	-41.5	-44.7	13.6	1.98e-05	0	58	0	784334848	54	5239
2026-01-14 23:42:47.10	178.10	55.09	-41.3	-44.3	13.9	2.20e-06	0	58	0	791674880	54	5021
2026-01-14 23:42:51.14	179.01	53.66	-42.0	-45.6	12.6	1.51e-04	0	58	0	799014912	55	5507
2026-01-14 23:42:55.18	179.85	52.27	-41.9	-45.5	12.7	5.03e-05	0	58	0	807403520	54	5750
2026-01-14 23:42:59.22	180.60	50.90	-43.6	-49.2	9.0	1.89e-02	0	58	0	814743552	57	7452
2026-01-14 23:43:03.25	181.30	49.58	-43.3	-48.3	10.0	4.86e-03	0	58	0	822083584	57	6677
2026-01-14 23:43:07.29	181.94	48.29	-43.9	-50.2	8.1	3.12e-02	0	58	0	829423616	58	7818
2026-01-14 23:43:11.32	182.53	47.03	-43.7	-49.6	8.6	3.23e-02	0	58	0	836763648	58	7298
2026-01-14 23:43:15.36	183.07	45.81	-44.0	-50.4	7.8	5.93e-02	0	58	0	845152256	58	8048
2026-01-14 23:43:19.39	183.58	44.62	-42.6	-46.7	11.6	1.24e-03	0	58	0	852492288	57	5583
2026-01-14 23:43:23.43	184.05	43.46	-43.1	-47.8	10.1	5.70e-03	0	58	0	859832320	57	6320
2026-01-14 23:43:27.46	184.49	42.34	-41.7	-45.0	13.2	1.14e-04	0	58	0	867172352	55	5121
2026-01-14 23:43:31.50	184.90	41.24	-41.9	-45.4	12.9	4.04e-05	0	58	0	875560960	54	5681
2026-01-14 23:43:35.54	185.29	40.17	-42.5	-46.7	11.5	8.73e-04	0	58	0	882900992	55	6240
2026-01-14 23:43:39.58	185.65	39.14	-41.9	-45.5	12.6	5.49e-05	0	58	0	890241024	55	5436
2026-01-14 23:43:43.62	185.99	38.13	-43.9	-50.3	7.9	3.93e-02	0	58	0	897581056	58	7951
2026-01-14 23:43:47.66	186.32	37.16	-43.6	-49.4	8.8	4.72e-02	0	58	0	904921088	58	7177
2026-01-14 23:43:51.70	186.62	36.21	-42.2	-45.9	12.4	3.04e-04	0	58	0	913309696	56	5388
2026-01-14 23:43:55.74	186.91	35.28	-42.4	-46.2	12.1	3.84e-04	0	58	0	920649728	56	5583
2026-01-14 23:43:59.77	187.18	34.39	-43.0	-47.7	10.6	7.59e-04	0	58	0	927989760	56	6598
2026-01-14 23:44:03.81	187.44	33.51	-44.4	-52.7	5.8	3.44e-01	0	58	0	935329792	59	9914
2026-01-14 23:44:07.85	187.69	32.66	-43.9	-50.1	8.0	9.55e-02	0	58	0	943718400	59	7370
2026-01-14 23:44:11.88	187.92	31.84	-43.4	-48.7	9.4	1.42e-02	0	58	0	951058432	58	6636
2026-01-14 23:44:15.92	188.15	31.03	-43.2	-48.2	9.9	1.15e-02	0	58	0	958398464	58	6251
2026-01-14 23:44:19.95	188.36	30.25	-42.9	-47.5	10.7	5.88e-03	0	58	0	965738496	57	6093
2026-01-14 23:44:23.99	188.57	29.49	-42.8	-47.2	10.9	2.57e-03	0	58	0	973078528	57	5907
2026-01-14 23:44:28.02	188.76	28.74	-43.2	-48.5	9.6	1.03e-02	0	58	0	981467136	57	6840
2026-01-14 23:44:32.05	188.95	28.02	-43.7	-49.9	8.2	4.94e-02	0	58	0	988807168	57	8022
2026-01-14 23:44:36.08	189.13	27.31	-42.9	-47.7	10.4	6.12e-03	0	58	0	996147200	57	6234
2026-01-14 23:44:40.12	189.31	26.63	-42.2	-46.0	12.2	1.93e-04	0	58	0	1003487232	56	5438
2026-01-14 23:44:44.15	189.47	25.95	-41.7	-45.3	12.7	8.39e-05	0	58	0	1010827264	55	5326
2026-01-14 23:44:48.19	189.63	25.30	-41.9	-45.7	12.3	1.61e-04	0	58	0	1019215872	55	5535
2026-01-14 23:44:52.23	189.79	24.66	-41.9	-45.7	12.3	1.84e-04	0	58	0	1026555904	55	5544
2026-01-14 23:44:56.26	189.94	24.03	-41.5	-45.0	13.1	3.96e-05	0	58	0	1033895936	55	5111
2026-01-14 23:45:00.30	190.08	23.42	-41.0	-44.0	14.0	3.00e-06	0	58	0	1041235968	54	4852
2026-01-14 23:45:04.34	190.22	22.83	-41.1	-44.1	13.9	4.50e-06	0	58	0	1048576000	53	5215
2026-01-14 23:45:08.38	190.35	22.24	-41.5	-44.9	13.1	2.67e-05	0	58	0	1056964608	53	5705
2026-01-14 23:45:12.41	190.48	21.67	-41.5	-45.0	13.0	3.96e-05	0	58	0	1064304640	53	5725
2026-01-14 23:45:16.44	190.61	21.12	-41.5	-45.0	13.0	7.01e-05	0	58	0	1071644672	53	5754
2026-01-14 23:45:20.48	190.73	20.57	-41.6	-45.2	12.8	7.40e-05	0	58	0	1078984704	53	5870
2026-01-14 23:45:24.51	190.85	20.04	-41.6	-45.2	12.7	8.08e-05	0	58	0	1087373312	54	5576
2026-01-14 23:45:28.55	190.96	19.51	-41.6	-45.2	12.7	6.71e-05	0	58	0	1094713344	54	5589
2026-01-14 23:45:32.58	191.07	19.00	-41.5	-45.0	12.9	4.34e-05	0	58	0	1102053376	54	5419
2026-01-14 23:45:36.62	191.18	18.50	-41.6	-45.1	12.8	4.57e-05	0	58	0	1109393408	54	5514
2026-01-14 23:45:40.65	191.28	18.01	-41.5	-45.0	12.9	3.20e-05	0	58	0	1116733440	54	5446
2026-01-14 23:45:44.69	191.38	17.53	-41.6	-45.2	12.7	8.77e-05	0	58	0	1125122048	54	5552
2026-01-14 23:45:48.73	191.48	17.05	-41.6	-45.1	12.8	7.47e-05	0	58	0	1132462080	54	5515
2026-01-14 23:45:52.77	191.58	16.59	-41.7	-45.4	12.5	1.21e-04	0	58	0	1139802112	54	5662
2026-01-14 23:45:56.80	191.67	16.13	-41.7	-45.4	12.5	1.04e-04	0	58	0	1147142144	54	5663
2026-01-14 23:46:00.84	191.76	15.69	-41.8	-45.6	12.3	1.79e-04	0	58	0	1155530752	54	5792
2026-01-14 23:46:04.88	191.85	15.25	-41.8	-45.5	12.2	2.72e-04	0	58	0	1162870784	54	5786
2026-01-14 23:46:08.91	191.94	14.82	-42.0	-46.0	11.8	3.73e-04	0	58	0	1170210816	54	6095
2026-01-14 23:46:12.95	192.02	14.39	-42.0	-46.2	11.6	1.04e-03	0	58	0	1177550848	54	6227
2026-01-14 23:46:16.99	192.11	13.97	-42.1	-46.4	11.3	9.14e-04	0	58	0	1184890880	54	6362
2026-01-14 23:46:21.03	192.19	13.56	-42.1	-46.4	11.3	1.23e-03	0	58	0	1193279488	54	6380
2026-01-14 23:46:25.06	192.27	13.16	-42.2	-46.6	11.1	1.47e-03	0	58	0	1200619520	54	6548
2026-01-14 23:46:29.10	192.34	12.76	-42.0	-46.2	11.4	1.47e-03	0	58	0	1207959552	54	6271
2026-01-14 23:46:33.13	192.42	12.38	-42.1	-46.4	11.3	9.87e-04	0	58	0	1215299584	54	6349
2026-01-14 23:46:37.17	192.49	11.99	-42.1	-46.5	11.1	1.68e-03	0	58	0	1223688192	54	6467
2026-01-14 23:46:41.19	192.56	11.61	-42.2	-46.8	10.8	2.48e-03	0	58	0	1231028224	55	6285
2026-01-14 23:46:45.22	192.63	11.24	-42.2	-46.7	10.8	2.28e-03	0	58	0	1238368256	55	6274
2026-01-14 23:46:49.26	192.70	10.88	-42.3	-47.1	10.4	3.16e-03	0	58	0	1245708288	55	6526
2026-01-14 23:46:53.29	192.77	10.51	-42.2	-46.9	10.6	4.12e-03	0	58	0	1253048320	55	6374
2026-01-14 23:46:57.32	192.83	10.16	-42.3	-47.1	10.3	4.55e-03	0	58	0	1261436928	55	6532
2026-01-14 23:47:01.35	192.90	9.81	-42.3	-47.2	10.1	5.83e-03	0	58	0	1268776960	55	6622
2026-01-14 23:47:05.39	192.96	9.46	-42.3	-47.4	9.9	7.68e-03	0	58	0	1276116992	55	6753
2026-01-14 23:47:09.43	193.03	9.12	-42.3	-47.4	9.9	9.33e-03	0	58	0	1283457024	55	6744
2026-01-14 23:47:13.48	193.09	8.78	-42.3	-47.5	9.7	1.12e-02	0	58	0	1290797056	55	6840
2026-01-14 23:47:17.52	193.15	8.45	-42.3	-47.5	9.7	1.29e-02	0	58	0	1299185664	55	6868
2026-01-14 23:47:21.56	193.21	8.12	-42.3	-47.7	9.4	1.61e-02	0	58	0	1306525696	55	7008
2026-01-14 23:47:25.59	193.26	7.80	-44.8	-59.4	3.8	1.49e+00	0	58	104	1310720000	60	20169
2026-01-14 23:47:29.63	193.32	7.48	-45.3	-59.8	3.8	1.49e+00	0	58	104	1310720000	61	20070
2026-01-14 23:47:33.67	193.38	7.16	-45.3	-59.8	3.8	1.49e+00	0	58	104	1310720000	61	19944
2026-01-14 23:47:37.71	193.43	6.85	-45.2	-59.7	3.8	1.49e+00	0	58	104	1310720000	61	19643
2026-01-14 23:47:41.75	193.49	6.54	-45.1	-59.6	3.8	1.49e+00	0	58	104	1310720000	61	19558
2026-01-14 23:47:45.79	193.54	6.24	-45.1	-59.6	3.8	1.49e+00	0	58	104	1310720000	61	19565
2026-01-14 23:47:49.83	193.59	5.94	-45.1	-59.6	3.8	1.49e+00	0	58	104	1310720000	61	19568
2026-01-14 23:47:53.88	193.64	5.64	-45.1	-59.6	3.8	1.49e+00	0	58	104	1310720000	61	19543
2026-01-14 23:47:57.92	193.69	5.34	-45.1	-59.6	3.8	1.49e+00	0	58	104	1310720000	61	19561
2026-01-14 23:48:01.96	193.74	5.05	-45.1	-59.6	3.8	1.49e+00	0	58	104	1310720000	61	19484
2026-01-14 23:48:06.01	193.79	4.76	-45.1	-59.6	3.8	1.49e+00	0	58	104	1310720000	61	19473
2026-01-14 23:48:10.05	193.84	4.48	-45.1	-59.6	3.8	1.49e+00	0	58	104	1310720000	61	19429
2026-01-14 23:48:14.09	193.89	4.19	-45.1	-59.5	3.8	1.49e+00	0	58	104	1310720000	61	19352
2026-01-14 23:48:18.13	193.93	3.92	-45.1	-59.6	3.8	1.49e+00	0	58	104	1310720000	61	19476
2026-01-14 23:48:22.17	193.98	3.64	-45.1	-59.6	3.8	1.49e+00	0	58	104	1310720000	61	19417
2026-01-14 23:48:26.22	194.03	3.37	-45.1	-59.5	3.8	1.49e+00	0	58	104	1310720000	61	19377
2026-01-14 23:48:30.26	194.07	3.09	-45.1	-59.5	3.8	1.49e+00	0	58	104	1310720000	61	19356
2026-01-14 23:48:34.30	194.11	2.83	-45.1	-59.6	3.8	1.49e+00	0	58	104	1310720000	61	19473
2026-01-14 23:48:38.33	194.16	2.56	-45.1	-59.5	3.8	1.49e+00	0	58	104	1310720000	61	19374
2026-01-14 23:48:42.37	194.20	2.30	-45.1	-59.6	3.8	1.49e+00	0	58	104	1310720000	61	19440
2026-01-14 23:48:46.41	194.24	2.04	-45.1	-59.5	3.8	1.49e+00	0	58	104	1310720000	61	19367

#Closed at: 2026-01-14 23:48:49
#Recorded file [1310 MB]: D:/lorett/data/31039_260115_023422.dat