passes_logs/2026/01/14/R2.0S_Moscow/R2.0S_Moscow__20260114_000756_AQUA_rec.log

#Pass ID: 20260114_000756_AQUA
#Satellite: AQUA
#Configuration: AQUA
#almurnet v.1.7.20251203
#Start time: 2026-01-14 00:07:58

#Version: 2.2.20231116
#Station: R2.0S_Moscow
#Location: 37.707566 lon 55.798166 lat
#TLE: 1 27424U 02022A   26013.25278823  .00000890  00000+0  18808-3 0  9998
#TLE: 2 27424  98.4079 339.6508 0002047  80.3961  24.1839 14.61818714260637

#Time	Az	El	Level	Level2	SNR	BER	BlckErr	Temp	State	Recorded	gain1	gain2
2026-01-14 00:07:58.12	25.10	2.10	-39.2	-60.7	3.8	7.45e-01	0	61	0	0	50	41894
2026-01-14 00:08:01.14	25.31	2.28	-41.1	-62.3	3.8	7.44e-01	0	61	104	0	52	44873
2026-01-14 00:08:04.17	25.53	2.46	-41.6	-62.5	3.8	7.44e-01	0	61	104	0	53	43296
2026-01-14 00:08:07.20	25.75	2.64	-41.6	-62.5	3.8	7.44e-01	0	61	104	0	53	43140
2026-01-14 00:08:10.23	25.97	2.82	-41.4	-62.4	3.8	7.43e-01	0	61	104	0	53	42576
2026-01-14 00:08:13.25	26.20	3.00	-41.4	-62.4	3.8	7.48e-01	0	61	104	0	53	42856
2026-01-14 00:08:16.29	26.43	3.19	-41.4	-62.5	3.8	7.45e-01	0	61	104	0	53	43187
2026-01-14 00:08:19.32	26.66	3.37	-41.5	-62.5	3.8	7.46e-01	0	61	104	0	53	43201
2026-01-14 00:08:22.35	26.90	3.56	-41.6	-62.6	3.8	7.41e-01	0	61	104	0	53	43481
2026-01-14 00:08:25.38	27.13	3.74	-41.6	-62.6	3.8	7.46e-01	0	61	104	0	53	43541
2026-01-14 00:08:28.41	27.38	3.93	-41.6	-62.5	3.8	7.46e-01	0	61	104	0	53	43405
2026-01-14 00:08:31.45	27.62	4.12	-41.6	-62.6	3.8	7.44e-01	0	61	104	0	53	43508
2026-01-14 00:08:34.48	27.87	4.31	-41.5	-62.6	3.8	7.43e-01	0	61	104	0	53	43569
2026-01-14 00:08:37.51	28.12	4.50	-41.6	-62.6	3.8	7.45e-01	0	61	104	0	53	43504
2026-01-14 00:08:40.55	28.38	4.70	-41.6	-62.6	3.8	7.48e-01	0	61	104	0	53	43507
2026-01-14 00:08:43.58	28.64	4.89	-41.7	-62.6	3.8	7.46e-01	0	61	104	0	53	43435
2026-01-14 00:08:46.62	28.90	5.09	-41.6	-62.6	3.8	7.44e-01	0	61	104	0	53	43510
2026-01-14 00:08:49.65	29.16	5.28	-41.7	-62.6	3.8	7.44e-01	0	61	104	0	53	43416
2026-01-14 00:08:52.68	29.43	5.48	-41.7	-62.5	3.8	7.45e-01	0	61	104	0	53	43407
2026-01-14 00:08:55.71	29.71	5.68	-41.5	-62.6	3.8	7.44e-01	0	61	104	0	53	43444
2026-01-14 00:08:58.74	29.98	5.87	-41.6	-62.5	3.8	7.49e-01	0	61	104	0	53	43386
2026-01-14 00:09:01.78	30.27	6.08	-41.5	-62.5	3.8	7.46e-01	0	61	104	0	53	43073
2026-01-14 00:09:04.81	30.55	6.28	-41.6	-62.5	3.8	7.45e-01	0	61	104	0	53	43290
2026-01-14 00:09:07.84	30.84	6.48	-41.6	-62.2	3.8	7.42e-01	0	61	104	0	53	41851
2026-01-14 00:09:10.87	31.13	6.68	-41.6	-60.9	3.9	7.47e-01	0	61	104	0	53	35957
2026-01-14 00:09:13.90	31.43	6.89	-41.6	-61.9	3.8	7.42e-01	0	61	104	0	53	40438
2026-01-14 00:09:16.93	31.73	7.10	-41.6	-59.6	3.9	7.40e-01	0	61	104	0	53	30756
2026-01-14 00:09:19.96	32.04	7.30	-41.5	-62.5	3.8	7.41e-01	0	61	104	0	53	43128
2026-01-14 00:09:23.00	32.35	7.51	-41.6	-59.4	3.9	7.36e-01	0	61	104	0	53	30115
2026-01-14 00:09:26.03	32.67	7.72	-40.9	-49.7	11.6	6.07e-01	0	61	0	3670016	53	9912
2026-01-14 00:09:29.06	32.99	7.94	-40.4	-47.5	14.0	6.03e-01	0	61	0	9437184	52	8172
2026-01-14 00:09:32.09	33.31	8.15	-40.5	-61.2	3.7	7.44e-01	0	61	104	14680064	52	39558
2026-01-14 00:09:35.12	33.64	8.36	-41.1	-48.8	12.7	6.08e-01	0	61	0	18874368	53	8911
2026-01-14 00:09:38.16	33.98	8.58	-41.4	-46.4	15.6	6.04e-01	0	61	0	24117248	53	6738
2026-01-14 00:09:41.18	34.32	8.80	-41.5	-46.3	15.8	6.07e-01	0	61	0	29884416	53	6701
2026-01-14 00:09:44.21	34.67	9.01	-41.4	-46.5	15.7	6.04e-01	0	61	0	35651584	53	6832
2026-01-14 00:09:47.24	35.02	9.23	-41.4	-46.4	16.0	6.02e-01	0	61	0	41418752	53	6727
2026-01-14 00:09:50.27	35.38	9.45	-41.7	-46.2	16.3	6.05e-01	0	61	0	47185920	53	6598
2026-01-14 00:09:53.30	35.74	9.68	-41.7	-46.1	16.4	6.02e-01	0	61	0	52953088	54	6193
2026-01-14 00:09:56.32	36.11	9.90	-41.9	-46.2	16.4	6.05e-01	0	61	0	58720256	54	6250
2026-01-14 00:09:59.35	36.48	10.12	-41.7	-45.8	16.9	6.02e-01	0	61	0	63963136	54	5940
2026-01-14 00:10:02.38	36.86	10.35	-41.8	-45.8	16.9	6.04e-01	0	61	0	69730304	54	5991
2026-01-14 00:10:05.41	37.25	10.57	-42.0	-46.1	16.7	6.05e-01	0	61	0	75497472	54	6178
2026-01-14 00:10:08.44	37.64	10.80	-41.8	-45.7	17.2	6.04e-01	0	61	0	81264640	54	5864
2026-01-14 00:10:11.47	38.04	11.03	-42.0	-45.9	17.0	6.04e-01	0	61	0	87031808	54	6032
2026-01-14 00:10:14.50	38.45	11.26	-42.0	-45.8	17.1	6.02e-01	0	61	0	92274688	54	5974
2026-01-14 00:10:17.53	38.86	11.50	-41.9	-45.7	17.2	6.03e-01	0	61	0	98041856	54	5904
2026-01-14 00:10:20.56	39.28	11.73	-41.8	-45.5	17.4	6.03e-01	0	61	0	103809024	54	5779
2026-01-14 00:10:23.58	39.71	11.96	-41.9	-45.6	17.4	6.02e-01	0	61	0	109576192	54	5854
2026-01-14 00:10:26.62	40.14	12.20	-41.8	-45.4	17.6	6.05e-01	0	61	0	115343360	54	5704
2026-01-14 00:10:29.65	40.59	12.44	-41.7	-45.2	17.9	6.03e-01	0	61	0	121110528	54	5591
2026-01-14 00:10:32.67	41.03	12.67	-41.8	-45.4	17.7	6.05e-01	0	61	0	126877696	54	5669
2026-01-14 00:10:35.71	41.49	12.91	-41.7	-45.2	17.9	6.03e-01	0	61	0	132120576	54	5567
2026-01-14 00:10:38.74	41.96	13.15	-41.7	-45.1	18.0	6.04e-01	0	61	0	137887744	54	5525
2026-01-14 00:10:41.77	42.43	13.39	-41.8	-45.2	18.0	6.05e-01	0	61	0	143654912	54	5580
2026-01-14 00:10:44.80	42.91	13.64	-41.9	-45.5	17.7	6.04e-01	0	61	0	149422080	54	5755
2026-01-14 00:10:47.82	43.40	13.88	-41.7	-45.1	18.2	6.04e-01	0	61	0	155189248	54	5469
2026-01-14 00:10:50.85	43.89	14.12	-41.7	-45.1	18.2	6.02e-01	0	61	0	160432128	54	5489
2026-01-14 00:10:53.88	44.40	14.37	-41.6	-44.9	18.4	6.02e-01	0	61	0	166199296	54	5380
2026-01-14 00:10:56.91	44.91	14.61	-41.6	-44.8	18.5	6.02e-01	0	61	0	171966464	54	5309
2026-01-14 00:10:59.94	45.44	14.86	-41.6	-44.9	18.5	6.03e-01	0	61	0	177733632	54	5357
2026-01-14 00:11:02.97	45.97	15.11	-41.5	-44.7	18.6	6.04e-01	0	61	0	183500800	54	5277
2026-01-14 00:11:05.99	46.51	15.35	-41.6	-44.7	18.6	6.04e-01	0	61	0	189267968	54	5276
2026-01-14 00:11:09.02	47.06	15.60	-41.6	-44.8	18.6	6.03e-01	0	61	0	195035136	54	5320
2026-01-14 00:11:12.05	47.62	15.85	-41.6	-44.8	18.6	6.05e-01	0	61	0	200278016	54	5293
2026-01-14 00:11:15.07	48.19	16.10	-41.6	-44.7	18.7	6.06e-01	0	61	0	206045184	54	5278
2026-01-14 00:11:18.10	48.77	16.34	-41.5	-44.6	18.8	6.05e-01	0	61	0	211812352	54	5214
2026-01-14 00:11:21.13	49.36	16.59	-41.5	-44.6	18.8	6.02e-01	0	61	0	217579520	54	5214
2026-01-14 00:11:24.16	49.97	16.84	-41.5	-44.7	18.8	6.04e-01	0	61	0	223346688	54	5235
2026-01-14 00:11:27.19	50.58	17.09	-41.5	-44.7	18.8	6.04e-01	0	61	0	228589568	54	5231
2026-01-14 00:11:30.22	51.20	17.34	-41.5	-44.6	18.9	6.02e-01	0	61	0	234356736	54	5169
2026-01-14 00:11:33.25	51.83	17.59	-41.5	-44.6	18.8	6.01e-01	0	61	0	240123904	54	5205
2026-01-14 00:11:36.28	52.48	17.84	-41.6	-44.7	18.8	6.04e-01	0	61	0	245891072	54	5253
2026-01-14 00:11:39.31	53.13	18.08	-41.5	-44.6	18.9	6.06e-01	0	61	0	251658240	54	5173
2026-01-14 00:11:42.33	53.79	18.33	-41.5	-44.6	18.8	6.02e-01	0	61	0	257425408	54	5217
2026-01-14 00:11:45.36	54.47	18.57	-41.6	-44.7	18.8	6.03e-01	0	61	0	262668288	54	5245
2026-01-14 00:11:48.39	55.16	18.82	-41.5	-44.6	18.9	6.03e-01	0	61	0	268435456	54	5185
2026-01-14 00:11:51.41	55.86	19.06	-41.5	-44.6	18.9	6.05e-01	0	61	0	274202624	54	5203
2026-01-14 00:11:54.44	56.57	19.30	-41.6	-44.7	18.8	6.04e-01	0	61	0	279969792	54	5246
2026-01-14 00:11:57.47	57.29	19.54	-41.6	-44.7	18.8	6.04e-01	0	61	0	285736960	54	5270
2026-01-14 00:12:00.50	58.03	19.78	-41.6	-44.7	18.9	6.05e-01	0	61	0	291504128	54	5235
2026-01-14 00:12:03.53	58.78	20.02	-41.7	-44.8	18.7	6.03e-01	0	61	0	296747008	54	5318
2026-01-14 00:12:06.56	59.54	20.25	-41.7	-44.8	18.7	6.02e-01	0	61	0	302514176	54	5332
2026-01-14 00:12:09.59	60.31	20.48	-41.7	-44.9	18.6	6.04e-01	0	61	0	308281344	54	5377
2026-01-14 00:12:12.62	61.09	20.71	-41.7	-44.9	18.7	6.05e-01	0	61	0	314048512	54	5350
2026-01-14 00:12:15.65	61.89	20.94	-41.7	-44.8	18.7	6.05e-01	0	61	0	319815680	54	5308
2026-01-14 00:12:18.68	62.69	21.16	-41.7	-44.9	18.7	6.01e-01	0	61	0	325582848	54	5348
2026-01-14 00:12:21.71	63.51	21.38	-41.7	-44.8	18.7	6.02e-01	0	61	0	331350016	54	5327
2026-01-14 00:12:24.74	64.35	21.60	-41.7	-44.9	18.6	6.05e-01	0	61	0	336592896	54	5373
2026-01-14 00:12:27.76	65.19	21.81	-41.8	-45.0	18.5	6.04e-01	0	61	0	342360064	54	5440
2026-01-14 00:12:30.79	66.04	22.01	-41.8	-45.1	18.4	6.04e-01	0	61	0	348127232	54	5495
2026-01-14 00:12:33.82	66.91	22.22	-41.8	-45.0	18.5	6.03e-01	0	61	0	353894400	54	5460
2026-01-14 00:12:36.85	67.79	22.41	-41.7	-44.9	18.5	6.04e-01	0	61	0	359661568	54	5385
2026-01-14 00:12:39.88	68.68	22.61	-41.9	-45.3	18.1	6.01e-01	0	61	0	364904448	54	5610
2026-01-14 00:12:42.91	69.58	22.80	-41.8	-45.0	18.4	6.03e-01	0	61	0	370671616	54	5455
2026-01-14 00:12:45.94	70.50	22.98	-41.9	-45.2	18.2	6.01e-01	0	61	0	376438784	54	5570
2026-01-14 00:12:48.96	71.42	23.15	-41.8	-45.2	18.2	6.05e-01	0	61	0	382205952	54	5560
2026-01-14 00:12:51.99	72.35	23.32	-41.8	-45.2	18.1	6.03e-01	0	61	0	387973120	54	5589
2026-01-14 00:12:55.02	73.30	23.49	-41.9	-45.4	17.9	6.03e-01	0	61	0	393740288	54	5683
2026-01-14 00:12:58.05	74.25	23.64	-42.0	-45.5	17.9	6.05e-01	0	61	0	398983168	54	5737
2026-01-14 00:13:01.08	75.22	23.79	-42.0	-45.4	18.1	6.03e-01	0	61	0	404750336	54	5661
2026-01-14 00:13:04.11	76.19	23.94	-42.0	-45.4	18.0	6.04e-01	0	61	0	410517504	54	5682
2026-01-14 00:13:07.14	77.18	24.07	-41.9	-45.3	18.1	6.04e-01	0	61	0	416284672	54	5616
2026-01-14 00:13:10.17	78.17	24.20	-41.9	-45.3	18.2	6.04e-01	0	61	0	422051840	54	5597
2026-01-14 00:13:13.20	79.17	24.32	-41.9	-45.2	18.3	6.01e-01	0	61	0	427819008	54	5570
2026-01-14 00:13:16.23	80.18	24.43	-41.9	-45.2	18.2	6.01e-01	0	61	0	433061888	54	5588
2026-01-14 00:13:19.26	81.19	24.53	-42.0	-45.3	18.2	6.03e-01	0	61	0	438829056	54	5639
2026-01-14 00:13:22.29	82.21	24.63	-42.1	-45.5	18.0	6.07e-01	0	61	0	444596224	54	5744
2026-01-14 00:13:25.31	83.24	24.71	-41.9	-45.3	18.2	6.03e-01	0	61	0	450363392	54	5593
2026-01-14 00:13:28.34	84.27	24.79	-42.0	-45.3	18.2	6.03e-01	0	61	0	456130560	54	5647
2026-01-14 00:13:31.37	85.31	24.86	-42.0	-45.4	18.2	6.03e-01	0	61	0	461897728	54	5667
2026-01-14 00:13:34.40	86.35	24.91	-42.2	-45.7	17.8	6.01e-01	0	61	0	467140608	54	5900
2026-01-14 00:13:37.43	87.40	24.96	-41.9	-45.1	18.4	6.03e-01	0	61	0	472907776	55	5209
2026-01-14 00:13:40.45	88.45	25.00	-42.1	-45.5	18.0	6.03e-01	0	61	0	478674944	55	5435
2026-01-14 00:13:43.48	89.50	25.03	-41.9	-45.1	18.5	6.04e-01	0	61	0	484442112	55	5183
2026-01-14 00:13:46.51	90.55	25.05	-42.1	-45.4	18.2	6.04e-01	0	61	0	490209280	55	5379
2026-01-14 00:13:49.54	91.61	25.06	-42.0	-45.2	18.4	6.03e-01	0	61	0	495976448	55	5266
2026-01-14 00:13:52.57	92.66	25.06	-42.0	-45.2	18.4	6.03e-01	0	61	0	501219328	55	5256
2026-01-14 00:13:55.60	93.72	25.05	-41.9	-45.1	18.5	6.03e-01	0	61	0	506986496	55	5205
2026-01-14 00:13:58.62	94.77	25.03	-42.0	-45.1	18.6	6.01e-01	0	61	0	512753664	55	5218
2026-01-14 00:14:01.64	95.82	25.00	-41.8	-44.9	18.8	6.03e-01	0	61	0	518520832	55	5051
2026-01-14 00:14:04.67	96.87	24.96	-41.9	-45.1	18.6	6.03e-01	0	61	0	524288000	55	5174
2026-01-14 00:14:07.69	97.91	24.91	-42.0	-45.2	18.5	6.02e-01	0	61	0	529530880	55	5234
2026-01-14 00:14:10.72	98.96	24.85	-41.9	-45.0	18.7	6.03e-01	0	61	0	535298048	55	5136
2026-01-14 00:14:13.75	100.00	24.79	-42.0	-45.3	18.5	6.01e-01	0	61	0	541065216	55	5291
2026-01-14 00:14:16.77	101.03	24.71	-41.9	-45.0	18.8	6.05e-01	0	61	0	546832384	55	5114
2026-01-14 00:14:19.80	102.06	24.62	-42.0	-45.3	18.5	6.05e-01	0	61	0	552599552	55	5287
2026-01-14 00:14:22.83	103.08	24.53	-42.0	-45.2	18.6	6.02e-01	0	61	0	558366720	55	5263
2026-01-14 00:14:25.86	104.10	24.42	-42.2	-45.6	18.2	6.03e-01	0	61	0	563609600	55	5502
2026-01-14 00:14:28.89	105.11	24.31	-41.9	-45.0	18.8	6.01e-01	0	61	0	569376768	55	5123
2026-01-14 00:14:31.91	106.11	24.19	-42.0	-45.2	18.6	6.03e-01	0	61	0	575143936	55	5245
2026-01-14 00:14:34.94	107.10	24.06	-42.0	-45.3	18.5	6.03e-01	0	61	0	580911104	55	5286
2026-01-14 00:14:37.97	108.09	23.93	-41.7	-44.7	19.0	6.02e-01	0	61	0	586678272	55	4972
2026-01-14 00:14:41.00	109.06	23.78	-41.9	-45.1	18.7	6.04e-01	0	61	0	592445440	55	5189
2026-01-14 00:14:44.03	110.03	23.63	-41.8	-44.9	18.8	6.04e-01	0	61	0	597688320	55	5096
2026-01-14 00:14:47.05	110.99	23.48	-41.7	-44.7	19.0	6.03e-01	0	61	0	603455488	55	4960
2026-01-14 00:14:50.08	111.93	23.31	-41.8	-44.8	19.0	6.03e-01	0	61	0	609222656	55	5007
2026-01-14 00:14:53.11	112.87	23.14	-41.8	-44.8	18.9	6.04e-01	0	61	0	614989824	55	5028
2026-01-14 00:14:56.14	113.80	22.96	-41.9	-45.0	18.7	6.02e-01	0	61	0	620756992	55	5139
2026-01-14 00:14:59.17	114.71	22.78	-41.8	-44.9	18.9	6.03e-01	0	61	0	626524160	55	5073
2026-01-14 00:15:02.20	115.62	22.59	-41.7	-44.6	19.1	6.03e-01	0	61	0	631767040	55	4919
2026-01-14 00:15:05.23	116.51	22.39	-41.9	-45.0	18.8	6.02e-01	0	61	0	637534208	55	5146
2026-01-14 00:15:08.25	117.39	22.19	-41.9	-45.0	18.7	6.04e-01	0	61	0	643301376	55	5141
2026-01-14 00:15:11.28	118.26	21.99	-41.7	-44.7	19.1	6.02e-01	0	61	0	649068544	55	4942
2026-01-14 00:15:14.31	119.12	21.78	-41.6	-44.6	19.1	6.04e-01	0	61	0	654835712	55	4910
2026-01-14 00:15:17.34	119.97	21.57	-41.7	-44.8	18.9	6.06e-01	0	61	0	660602880	55	4991
2026-01-14 00:15:20.37	120.80	21.35	-41.8	-44.9	18.8	6.04e-01	0	61	0	665845760	55	5073
2026-01-14 00:15:23.40	121.63	21.13	-41.7	-44.8	18.9	6.03e-01	0	61	0	671612928	55	5031
2026-01-14 00:15:26.43	122.44	20.91	-41.7	-44.7	19.0	6.04e-01	0	61	0	677380096	55	4943
2026-01-14 00:15:29.45	123.23	20.68	-41.7	-44.8	18.9	6.04e-01	0	61	0	683147264	55	5003
2026-01-14 00:15:32.48	124.02	20.45	-41.7	-44.8	18.9	6.01e-01	0	61	0	688914432	55	4993
2026-01-14 00:15:35.51	124.79	20.21	-41.6	-44.6	19.1	6.04e-01	0	61	0	694681600	55	4885
2026-01-14 00:15:38.54	125.55	19.98	-41.5	-44.4	19.2	6.03e-01	0	61	0	699924480	54	5094
2026-01-14 00:15:41.57	126.30	19.74	-41.6	-44.6	19.0	6.03e-01	0	61	0	705691648	54	5202
2026-01-14 00:15:44.60	127.04	19.50	-41.5	-44.4	19.2	6.02e-01	0	61	0	711458816	54	5099
2026-01-14 00:15:47.62	127.77	19.26	-41.6	-44.7	18.9	6.02e-01	0	61	0	717225984	54	5231
2026-01-14 00:15:50.65	128.48	19.01	-41.5	-44.5	19.1	6.05e-01	0	61	0	722993152	54	5101
2026-01-14 00:15:53.68	129.18	18.77	-41.4	-44.5	19.0	6.03e-01	0	61	0	728760320	54	5158
2026-01-14 00:15:56.71	129.87	18.52	-41.5	-44.5	19.1	6.02e-01	0	61	0	734003200	54	5126
2026-01-14 00:15:59.74	130.55	18.28	-41.4	-44.4	19.2	6.05e-01	0	61	0	739770368	54	5056
2026-01-14 00:16:02.76	131.22	18.03	-41.4	-44.4	19.1	6.03e-01	0	61	0	745537536	53	5366
2026-01-14 00:16:05.79	131.88	17.78	-41.4	-44.4	19.0	6.05e-01	0	61	0	751304704	53	5375
2026-01-14 00:16:08.81	132.52	17.53	-41.3	-44.5	18.8	6.02e-01	0	61	0	757071872	53	5454
2026-01-14 00:16:11.84	133.15	17.28	-41.2	-44.4	18.8	6.04e-01	0	61	0	762314752	53	5364
2026-01-14 00:16:14.87	133.78	17.03	-41.0	-44.5	18.7	6.04e-01	0	61	0	768081920	52	5748
2026-01-14 00:16:17.90	134.39	16.78	-40.2	-44.5	18.5	6.04e-01	0	61	0	773849088	52	5732
2026-01-14 00:16:20.93	135.00	16.53	-39.9	-44.3	18.4	6.06e-01	0	61	0	779616256	52	5639
2026-01-14 00:16:23.96	135.59	16.27	-41.0	-44.4	18.7	6.05e-01	0	61	0	785383424	52	5714
2026-01-14 00:16:26.99	136.17	16.02	-41.1	-44.8	18.0	6.04e-01	0	61	0	791150592	52	5941
2026-01-14 00:16:30.02	136.74	15.77	-41.2	-44.5	18.0	6.02e-01	0	61	0	796393472	52	5783
2026-01-14 00:16:33.04	137.30	15.52	-41.3	-44.6	18.0	6.03e-01	0	61	0	802160640	53	5521
2026-01-14 00:16:36.07	137.86	15.27	-41.6	-44.9	18.0	6.05e-01	0	61	0	807927808	53	5713
2026-01-14 00:16:39.10	138.40	15.02	-40.8	-45.1	17.8	6.03e-01	0	61	0	813694976	54	5518
2026-01-14 00:16:42.13	138.93	14.77	-41.4	-44.4	18.7	6.04e-01	0	61	0	819462144	53	5401
2026-01-14 00:16:45.16	139.46	14.53	-41.6	-44.8	18.4	6.03e-01	0	61	0	825229312	53	5632
2026-01-14 00:16:48.19	139.97	14.28	-41.4	-44.6	18.7	6.02e-01	0	61	0	830472192	53	5473
2026-01-14 00:16:51.22	140.48	14.03	-41.4	-44.5	18.7	6.04e-01	0	61	0	836239360	53	5439
2026-01-14 00:16:54.25	140.98	13.79	-41.4	-44.9	18.3	6.04e-01	0	61	0	842006528	53	5686
2026-01-14 00:16:57.27	141.47	13.54	-41.5	-44.7	18.5	6.04e-01	0	61	0	847773696	53	5563
2026-01-14 00:17:00.30	141.95	13.30	-41.5	-44.7	18.5	6.03e-01	0	61	0	853540864	53	5570
2026-01-14 00:17:03.33	142.42	13.05	-41.6	-44.8	18.4	6.03e-01	0	61	0	859308032	53	5632
2026-01-14 00:17:06.36	142.88	12.81	-41.4	-44.6	18.5	6.01e-01	0	61	0	864550912	53	5510
2026-01-14 00:17:09.39	143.34	12.57	-41.6	-44.9	18.3	6.06e-01	0	61	0	870318080	53	5659
2026-01-14 00:17:12.42	143.79	12.33	-41.6	-45.0	18.1	6.04e-01	0	61	0	876085248	53	5742
2026-01-14 00:17:15.44	144.23	12.09	-41.7	-45.2	17.9	6.01e-01	0	61	0	881852416	54	5539
2026-01-14 00:17:18.47	144.67	11.86	-41.7	-45.1	18.0	6.03e-01	0	61	0	887619584	54	5485
2026-01-14 00:17:21.50	145.09	11.62	-41.7	-45.1	18.0	6.02e-01	0	61	0	892862464	54	5508
2026-01-14 00:17:24.53	145.51	11.38	-41.6	-45.0	17.9	6.03e-01	0	61	0	898629632	54	5462
2026-01-14 00:17:27.56	145.93	11.15	-41.7	-45.2	17.8	6.03e-01	0	61	0	904396800	54	5575
2026-01-14 00:17:30.59	146.33	10.92	-41.8	-45.3	17.6	6.03e-01	0	61	0	910163968	54	5635
2026-01-14 00:17:33.62	146.73	10.68	-41.8	-45.4	17.5	6.05e-01	0	61	0	915931136	54	5657
2026-01-14 00:17:36.65	147.13	10.45	-41.7	-45.3	17.5	6.05e-01	0	61	0	921698304	54	5635
2026-01-14 00:17:39.68	147.51	10.23	-41.7	-45.3	17.5	6.05e-01	0	61	0	927465472	53	5961
2026-01-14 00:17:42.71	147.89	10.00	-41.7	-45.3	17.5	6.03e-01	0	61	0	932708352	54	5596
2026-01-14 00:17:45.74	148.27	9.77	-41.8	-45.5	17.3	6.05e-01	0	61	0	938475520	54	5735
2026-01-14 00:17:48.77	148.64	9.55	-41.8	-45.5	17.2	6.05e-01	0	61	0	944242688	54	5777
2026-01-14 00:17:51.79	149.00	9.32	-41.8	-45.6	17.0	6.04e-01	0	61	0	950009856	54	5817
2026-01-14 00:17:54.82	149.35	9.10	-41.8	-45.7	16.9	6.04e-01	0	61	0	955777024	54	5901
2026-01-14 00:17:57.85	149.70	8.88	-41.9	-45.9	16.7	6.04e-01	0	61	0	961019904	54	6046
2026-01-14 00:18:00.88	150.05	8.66	-41.9	-46.0	16.6	6.01e-01	0	61	0	966787072	54	6103
2026-01-14 00:18:03.91	150.39	8.44	-42.1	-46.3	16.2	6.00e-01	0	61	0	972554240	54	6324
2026-01-14 00:18:06.94	150.72	8.22	-41.9	-46.1	16.4	6.04e-01	0	61	0	978321408	54	6146
2026-01-14 00:18:09.97	151.05	8.01	-41.9	-46.1	16.4	6.02e-01	0	61	0	984088576	54	6152
2026-01-14 00:18:13.00	151.38	7.79	-45.9	-64.4	3.8	7.47e-01	0	61	104	986185728	62	31820
2026-01-14 00:18:16.03	151.70	7.58	-46.4	-65.0	3.8	7.44e-01	0	61	104	986185728	63	32333
2026-01-14 00:18:19.06	152.01	7.37	-46.5	-65.2	3.8	7.47e-01	0	61	104	986185728	63	33109
2026-01-14 00:18:22.09	152.32	7.16	-46.4	-65.1	3.8	7.43e-01	0	61	104	986185728	63	32720
2026-01-14 00:18:25.13	152.63	6.95	-46.3	-65.1	3.8	7.47e-01	0	61	104	986185728	63	32578
2026-01-14 00:18:28.16	152.93	6.74	-46.3	-65.0	3.8	7.46e-01	0	61	104	986185728	63	32438
2026-01-14 00:18:31.19	153.23	6.53	-46.3	-65.0	3.8	7.46e-01	0	61	104	986185728	63	32376
2026-01-14 00:18:34.23	153.52	6.33	-46.3	-65.0	3.8	7.45e-01	0	61	104	986185728	63	32388
2026-01-14 00:18:37.26	153.81	6.12	-46.3	-65.0	3.8	7.47e-01	0	61	104	986185728	63	32319
2026-01-14 00:18:40.29	154.09	5.92	-46.3	-65.0	3.8	7.47e-01	0	61	104	986185728	63	32316
2026-01-14 00:18:43.32	154.37	5.72	-46.3	-65.0	3.8	7.45e-01	0	61	104	986185728	63	32257
2026-01-14 00:18:46.35	154.64	5.52	-46.2	-65.0	3.8	7.46e-01	0	61	104	986185728	63	32278
2026-01-14 00:18:49.39	154.92	5.32	-46.2	-65.0	3.8	7.45e-01	0	61	104	986185728	63	32266
2026-01-14 00:18:52.42	155.18	5.12	-46.2	-65.0	3.8	7.44e-01	0	61	104	986185728	63	32315
2026-01-14 00:18:55.45	155.45	4.92	-46.2	-65.0	3.8	7.45e-01	0	61	104	986185728	63	32185
2026-01-14 00:18:58.49	155.71	4.72	-46.2	-65.0	3.8	7.44e-01	0	61	104	986185728	63	32207
2026-01-14 00:19:01.52	155.96	4.53	-46.2	-65.0	3.8	7.44e-01	0	61	104	986185728	63	32191
2026-01-14 00:19:04.55	156.22	4.33	-46.2	-64.9	3.8	7.45e-01	0	61	104	986185728	63	32127
2026-01-14 00:19:07.59	156.47	4.14	-46.2	-64.9	3.8	7.48e-01	0	61	104	986185728	63	32167
2026-01-14 00:19:10.62	156.71	3.95	-46.2	-64.9	3.8	7.46e-01	0	61	104	986185728	63	32175
2026-01-14 00:19:13.66	156.96	3.76	-46.2	-65.0	3.8	7.49e-01	0	61	104	986185728	63	32211
2026-01-14 00:19:16.69	157.20	3.57	-46.2	-64.9	3.8	7.44e-01	0	61	104	986185728	63	32095
2026-01-14 00:19:19.72	157.43	3.38	-46.2	-64.9	3.8	7.47e-01	0	61	104	986185728	63	32170
2026-01-14 00:19:22.75	157.66	3.19	-46.2	-64.9	3.8	7.47e-01	0	61	104	986185728	63	32175
2026-01-14 00:19:25.79	157.90	3.01	-46.2	-64.9	3.8	7.46e-01	0	61	104	986185728	63	32169
2026-01-14 00:19:28.82	158.12	2.82	-46.2	-64.9	3.8	7.43e-01	0	61	104	986185728	63	32134
2026-01-14 00:19:31.85	158.35	2.64	-46.2	-64.9	3.8	7.47e-01	0	61	104	986185728	63	32092
2026-01-14 00:19:34.89	158.57	2.45	-46.2	-64.9	3.8	7.45e-01	0	61	104	986185728	63	32080
2026-01-14 00:19:37.92	158.79	2.27	-46.2	-64.9	3.8	7.42e-01	0	61	104	986185728	63	32168
2026-01-14 00:19:40.95	159.00	2.09	-46.2	-64.9	3.8	7.44e-01	0	61	104	986185728	63	32125
2026-01-14 00:19:43.98	159.21	1.91	-46.2	-64.9	3.8	7.49e-01	0	61	104	986185728	63	32016

#Closed at: 2026-01-14 00:19:45
#Recorded file [986 MB]: D:/lorett/data/31039_260114_030757.dat