passes_logs/2026/01/14/R2.0S_Moscow/R2.0S_Moscow__20260114_140811_FENGYUN_3E_rec.log

#Pass ID: 20260114_140811_FENGYUN 3E
#Satellite: FENGYUN 3E
#Configuration: FENGYUN 3E
#almurnet v.1.7.20251203
#Start time: 2026-01-14 14:08:12

#Version: 2.2.20231116
#Station: R2.0S_Moscow
#Location: 37.707566 lon 55.798166 lat
#TLE: 1 49008U 21062A   26013.59634448 -.00000226  00000+0 -85925-4 0  9991
#TLE: 2 49008  98.7491  18.7414 0001953 139.1941 220.9382 14.19884160234649

#Time	Az	El	Level	Level2	SNR	BER	BlckErr	Temp	State	Recorded	gain1	gain2
2026-01-14 14:08:12.48	158.71	2.08	-44.3	-55.3	3.8	8.46e-01	0	50	0	0	59	12574
2026-01-14 14:08:16.52	158.71	2.34	-44.3	-55.3	3.8	8.46e-01	0	50	104	0	59	12627
2026-01-14 14:08:20.56	158.71	2.61	-44.3	-55.3	3.8	8.46e-01	0	50	104	0	59	12566
2026-01-14 14:08:24.60	158.71	2.87	-44.3	-55.2	3.8	8.46e-01	0	51	104	0	59	12498
2026-01-14 14:08:28.65	158.70	3.14	-44.3	-55.3	3.8	8.46e-01	0	51	104	0	59	12601
2026-01-14 14:08:32.69	158.70	3.41	-44.3	-55.2	3.8	8.45e-01	0	52	104	0	59	12519
2026-01-14 14:08:36.73	158.70	3.69	-44.3	-55.3	3.8	8.46e-01	0	52	104	0	59	12530
2026-01-14 14:08:40.77	158.69	3.97	-44.3	-55.3	3.8	8.47e-01	0	52	104	0	59	12526
2026-01-14 14:08:44.81	158.69	4.25	-44.3	-55.2	3.8	8.47e-01	0	53	104	0	59	12502
2026-01-14 14:08:48.85	158.69	4.53	-44.2	-55.3	3.8	8.46e-01	0	52	104	0	59	12523
2026-01-14 14:08:52.89	158.68	4.82	-44.2	-55.2	3.8	8.46e-01	0	53	104	0	59	12431
2026-01-14 14:08:56.93	158.68	5.11	-44.2	-55.1	3.8	8.47e-01	0	53	104	0	59	12282
2026-01-14 14:09:00.98	158.67	5.40	-44.2	-54.8	3.8	8.46e-01	0	53	104	0	59	11862
2026-01-14 14:09:05.02	158.67	5.70	-43.9	-53.0	3.8	8.45e-01	0	53	104	0	58	10289
2026-01-14 14:09:09.06	158.66	6.00	-43.6	-51.3	4.3	8.34e-01	0	54	0	0	58	8427
2026-01-14 14:09:13.11	158.66	6.30	-43.5	-50.8	4.5	8.22e-01	0	54	0	0	57	8413
2026-01-14 14:09:17.15	158.65	6.61	-43.6	-51.6	4.2	8.36e-01	0	54	0	0	57	9208
2026-01-14 14:09:21.19	158.64	6.92	-44.1	-54.3	3.8	8.46e-01	0	54	104	0	57	12532
2026-01-14 14:09:25.24	158.64	7.23	-43.4	-50.3	4.6	8.22e-01	0	55	0	0	57	7987
2026-01-14 14:09:29.28	158.63	7.55	-41.3	-45.2	8.5	5.31e-02	0	55	0	19922944	53	5555
2026-01-14 14:09:33.32	158.62	7.87	-39.7	-42.7	11.2	1.18e-03	0	55	0	48234496	50	4942
2026-01-14 14:09:37.36	158.61	8.20	-41.6	-45.7	8.1	8.46e-01	0	55	104	72351744	54	5556
2026-01-14 14:09:41.39	158.60	8.53	-38.2	-40.7	13.0	8.81e-05	0	55	0	92274688	47	4680
2026-01-14 14:09:45.43	158.59	8.86	-38.0	-40.4	13.4	1.37e-05	0	55	0	121634816	46	4789
2026-01-14 14:09:49.47	158.58	9.20	-37.9	-40.3	13.6	9.10e-06	0	55	0	149946368	46	4710
2026-01-14 14:09:53.51	158.58	9.55	-37.9	-40.3	13.6	1.02e-05	0	56	0	179306496	46	4718
2026-01-14 14:09:57.55	158.56	9.90	-37.9	-40.2	13.7	8.00e-06	0	56	0	208666624	46	4687
2026-01-14 14:10:01.58	158.55	10.25	-37.8	-40.1	13.9	6.80e-06	0	56	0	238026752	46	4607
2026-01-14 14:10:05.62	158.54	10.61	-37.8	-40.1	13.9	4.50e-06	0	56	0	267386880	46	4651
2026-01-14 14:10:09.66	158.53	10.97	-37.7	-39.9	14.2	2.20e-06	0	56	0	295698432	46	4504
2026-01-14 14:10:13.71	158.52	11.35	-37.7	-39.9	14.2	0.00e+00	0	56	0	325058560	46	4520
2026-01-14 14:10:17.75	158.50	11.72	-37.6	-39.8	14.4	0.00e+00	0	56	0	354418688	45	4730
2026-01-14 14:10:21.79	158.49	12.10	-37.4	-39.5	14.7	1.10e-06	0	56	0	383778816	45	4586
2026-01-14 14:10:25.82	158.48	12.49	-37.3	-39.3	14.9	0.00e+00	0	56	0	413138944	45	4487
2026-01-14 14:10:29.86	158.46	12.88	-37.3	-39.4	14.9	0.00e+00	0	56	0	442499072	45	4515
2026-01-14 14:10:33.90	158.44	13.28	-37.2	-39.2	15.1	0.00e+00	0	57	0	470810624	45	4420
2026-01-14 14:10:37.93	158.43	13.69	-37.2	-39.2	15.1	0.00e+00	0	57	0	500170752	44	4684
2026-01-14 14:10:41.98	158.41	14.11	-36.9	-38.9	15.5	0.00e+00	0	57	0	529530880	44	4505
2026-01-14 14:10:46.02	158.39	14.53	-36.9	-38.9	15.5	0.00e+00	0	57	0	558891008	44	4503
2026-01-14 14:10:50.06	158.37	14.96	-36.8	-38.8	15.7	0.00e+00	0	57	0	588251136	44	4445
2026-01-14 14:10:54.10	158.35	15.39	-36.7	-38.6	15.8	0.00e+00	0	57	0	616562688	44	4375
2026-01-14 14:10:58.14	158.33	15.84	-36.5	-38.4	16.1	0.00e+00	0	57	0	645922816	44	4257
2026-01-14 14:11:02.17	158.31	16.29	-36.3	-38.1	16.2	0.00e+00	0	57	0	675282944	43	4371
2026-01-14 14:11:06.21	158.29	16.75	-36.1	-37.8	16.5	0.00e+00	0	57	0	704643072	43	4241
2026-01-14 14:11:10.25	158.26	17.22	-36.1	-37.8	16.5	0.00e+00	0	57	0	734003200	43	4227
2026-01-14 14:11:14.29	158.24	17.70	-35.9	-37.6	16.7	0.00e+00	0	57	0	763363328	42	4383
2026-01-14 14:11:18.33	158.21	18.19	-35.9	-37.6	16.8	0.00e+00	0	57	0	791674880	42	4355
2026-01-14 14:11:22.37	158.18	18.69	-35.8	-37.5	16.9	0.00e+00	0	57	0	821035008	42	4327
2026-01-14 14:11:26.41	158.15	19.20	-35.7	-37.4	17.0	0.00e+00	0	57	0	850395136	42	4258
2026-01-14 14:11:30.45	158.12	19.72	-35.7	-37.4	17.0	0.00e+00	0	57	0	879755264	42	4281
2026-01-14 14:11:34.49	158.09	20.25	-35.8	-37.6	16.9	0.00e+00	0	58	0	909115392	42	4354
2026-01-14 14:11:38.53	158.06	20.79	-35.8	-37.6	16.9	0.00e+00	0	58	0	937426944	42	4357
2026-01-14 14:11:42.57	158.02	21.35	-35.8	-37.6	16.9	0.00e+00	0	58	0	966787072	42	4364
2026-01-14 14:11:46.60	157.99	21.91	-36.0	-37.8	16.7	0.00e+00	0	58	0	996147200	42	4456
2026-01-14 14:11:50.64	157.95	22.49	-35.7	-37.4	17.0	0.00e+00	0	58	0	1025507328	42	4286
2026-01-14 14:11:54.68	157.91	23.09	-35.6	-37.3	17.2	0.00e+00	0	58	0	1053818880	42	4230
2026-01-14 14:11:58.72	157.87	23.69	-35.2	-37.0	17.4	0.00e+00	0	58	0	1083179008	41	4313
2026-01-14 14:12:02.76	157.82	24.32	-35.2	-36.9	17.5	0.00e+00	0	58	0	1112539136	41	4284
2026-01-14 14:12:06.80	157.78	24.95	-35.1	-36.8	17.6	0.00e+00	0	58	0	1141899264	41	4222
2026-01-14 14:12:10.84	157.73	25.61	-35.1	-36.8	17.6	0.00e+00	0	58	0	1171259392	41	4225
2026-01-14 14:12:14.88	157.67	26.27	-35.1	-36.8	17.5	0.00e+00	0	58	0	1200619520	41	4237
2026-01-14 14:12:18.93	157.62	26.96	-35.1	-36.8	17.5	0.00e+00	0	58	0	1228931072	40	4491
2026-01-14 14:12:22.96	157.56	27.67	-35.1	-36.9	17.5	0.00e+00	0	58	0	1258291200	40	4511
2026-01-14 14:12:27.00	157.50	28.39	-34.9	-36.6	17.8	0.00e+00	0	58	0	1287651328	40	4355
2026-01-14 14:12:31.04	157.44	29.13	-34.8	-36.5	17.9	0.00e+00	0	58	0	1317011456	40	4296
2026-01-14 14:12:35.08	157.37	29.89	-34.8	-36.4	18.0	0.00e+00	0	58	0	1345323008	40	4258
2026-01-14 14:12:39.12	157.30	30.67	-34.9	-36.6	17.9	0.00e+00	0	58	0	1374683136	40	4370
2026-01-14 14:12:43.16	157.22	31.48	-35.1	-36.8	17.8	0.00e+00	0	58	0	1404043264	40	4472
2026-01-14 14:12:47.20	157.14	32.31	-35.0	-36.7	17.9	0.00e+00	0	58	0	1433403392	40	4397
2026-01-14 14:12:51.24	157.06	33.16	-34.9	-36.5	18.0	0.00e+00	0	59	0	1462763520	40	4331
2026-01-14 14:12:55.29	156.96	34.03	-34.8	-36.4	18.1	0.00e+00	0	58	0	1492123648	40	4277
2026-01-14 14:12:59.33	156.87	34.93	-34.7	-36.4	18.2	0.00e+00	0	58	0	1520435200	40	4264
2026-01-14 14:13:03.37	156.76	35.86	-34.9	-36.6	18.0	0.00e+00	0	58	0	1549795328	40	4347
2026-01-14 14:13:07.41	156.66	36.81	-34.9	-36.6	18.0	0.00e+00	0	59	0	1579155456	40	4347
2026-01-14 14:13:11.44	156.54	37.79	-34.9	-36.5	18.1	0.00e+00	0	58	0	1608515584	40	4335
2026-01-14 14:13:15.48	156.41	38.81	-35.2	-36.9	17.7	0.00e+00	0	59	0	1637875712	40	4516
2026-01-14 14:13:19.52	156.28	39.85	-35.3	-37.0	17.6	0.00e+00	0	59	0	1666187264	40	4581
2026-01-14 14:13:23.57	156.13	40.93	-35.2	-36.8	17.8	0.00e+00	0	59	0	1695547392	40	4491
2026-01-14 14:13:27.60	155.98	42.03	-35.0	-36.7	18.0	0.00e+00	0	59	0	1724907520	40	4394
2026-01-14 14:13:31.64	155.81	43.17	-35.9	-37.0	18.1	0.00e+00	0	59	0	1754267648	41	4337
2026-01-14 14:13:35.68	155.63	44.35	-36.0	-37.2	17.9	0.00e+00	0	59	0	1783627776	41	4427
2026-01-14 14:13:39.72	155.44	45.56	-36.1	-37.3	17.8	0.00e+00	0	59	0	1812987904	41	4480
2026-01-14 14:13:43.76	155.23	46.81	-36.1	-37.4	17.8	0.00e+00	0	59	0	1841299456	42	4250
2026-01-14 14:13:47.80	154.99	48.10	-36.3	-37.6	17.6	0.00e+00	0	59	0	1870659584	42	4343
2026-01-14 14:13:51.84	154.74	49.42	-36.7	-38.0	17.2	0.00e+00	0	59	0	1900019712	43	4322
2026-01-14 14:13:55.88	154.47	50.79	-36.4	-37.7	17.5	0.00e+00	0	59	0	1929379840	43	4168
2026-01-14 14:13:59.92	154.16	52.19	-37.4	-38.8	16.5	0.00e+00	0	59	0	1958739968	44	4477
2026-01-14 14:14:03.95	153.82	53.64	-36.9	-38.2	17.1	0.00e+00	0	59	0	1987051520	44	4189
2026-01-14 14:14:07.99	153.45	55.12	-37.9	-39.4	16.0	0.00e+00	0	59	0	2016411648	45	4507
2026-01-14 14:14:12.02	153.03	56.65	-37.0	-38.3	17.1	0.00e+00	0	59	0	2045771776	44	4211
2026-01-14 14:14:16.06	152.57	58.22	-37.2	-38.6	16.7	0.00e+00	0	59	0	2075131904	44	4372
2026-01-14 14:14:20.10	152.04	59.83	-36.8	-38.1	17.3	0.00e+00	0	59	0	2104492032	44	4123
2026-01-14 14:14:24.14	151.43	61.48	-36.5	-37.8	17.4	0.00e+00	0	59	0	2133852160	43	4194
2026-01-14 14:14:28.18	150.74	63.17	-36.0	-37.2	18.0	0.00e+00	0	59	0	2162163712	42	4155
2026-01-14 14:14:32.22	149.94	64.89	-35.7	-36.8	18.3	0.00e+00	0	59	0	2191523840	42	4000
2026-01-14 14:14:36.26	149.01	66.65	-35.4	-36.6	18.5	0.00e+00	0	59	0	2220883968	41	4119
2026-01-14 14:14:40.29	147.90	68.44	-35.3	-36.5	18.6	0.00e+00	0	59	0	2250244096	40	4309
2026-01-14 14:14:44.33	146.57	70.26	-35.4	-36.5	18.5	0.00e+00	0	59	0	2279604224	41	4069
2026-01-14 14:14:48.37	144.94	72.10	-35.8	-37.0	18.1	0.00e+00	0	59	0	2307915776	41	4315
2026-01-14 14:14:52.41	142.91	73.96	-35.5	-36.7	18.4	0.00e+00	0	59	0	2337275904	41	4158
2026-01-14 14:14:56.45	140.33	75.81	-35.0	-36.2	18.8	0.00e+00	0	59	0	2366636032	40	4153
2026-01-14 14:15:00.49	136.92	77.66	-34.3	-35.3	19.6	0.00e+00	0	59	0	2395996160	39	3985
2026-01-14 14:15:04.53	132.30	79.47	-34.0	-35.0	20.1	0.00e+00	0	59	0	2425356288	38	4089
2026-01-14 14:15:08.57	125.77	81.20	-34.5	-35.5	19.6	0.00e+00	0	59	0	2453667840	38	4323
2026-01-14 14:15:12.61	116.17	82.77	-34.2	-35.3	19.8	0.00e+00	0	59	0	2483027968	38	4205
2026-01-14 14:15:16.64	101.90	84.04	-34.5	-35.5	19.6	0.00e+00	0	59	0	2512388096	39	4080
2026-01-14 14:15:20.68	81.82	84.78	-34.7	-35.8	19.3	0.00e+00	0	59	0	2541748224	39	4208
2026-01-14 14:15:24.72	58.89	84.75	-34.6	-35.6	19.4	0.00e+00	0	59	0	2570059776	39	4145
2026-01-14 14:15:28.76	39.26	83.95	-34.5	-35.5	19.5	0.00e+00	0	59	0	2599419904	39	4094
2026-01-14 14:15:32.79	25.45	82.65	-34.2	-35.3	19.8	0.00e+00	0	59	0	2628780032	39	3978
2026-01-14 14:15:36.83	16.17	81.06	-34.3	-35.4	19.6	0.00e+00	0	59	0	2658140160	39	4020
2026-01-14 14:15:40.87	9.83	79.32	-34.1	-35.1	20.0	0.00e+00	0	59	0	2687500288	39	3899
2026-01-14 14:15:44.91	5.33	77.51	-34.4	-35.5	19.6	0.00e+00	0	59	0	2715811840	39	4061
2026-01-14 14:15:48.95	2.01	75.67	-35.3	-36.4	18.7	0.00e+00	0	59	0	2745171968	40	4273
2026-01-14 14:15:52.99	359.48	73.81	-35.8	-37.0	18.1	0.00e+00	0	59	0	2774532096	41	4319
2026-01-14 14:15:57.03	357.49	71.96	-36.2	-37.5	17.7	0.00e+00	0	59	0	2803892224	42	4302
2026-01-14 14:16:01.06	355.90	70.13	-36.0	-37.2	17.8	0.00e+00	0	59	0	2833252352	42	4167
2026-01-14 14:16:05.10	354.59	68.32	-35.4	-36.5	18.6	4.50e-06	0	60	0	2862612480	41	4077
2026-01-14 14:16:09.14	353.49	66.53	-35.6	-36.7	18.4	0.00e+00	0	59	0	2890924032	41	4190
2026-01-14 14:16:13.19	352.57	64.78	-35.8	-36.9	18.2	1.10e-06	0	59	0	2920284160	41	4277
2026-01-14 14:16:17.22	351.78	63.06	-36.4	-37.7	17.5	0.00e+00	0	59	0	2949644288	42	4392
2026-01-14 14:16:21.26	351.10	61.38	-37.0	-38.4	16.8	4.50e-06	0	59	0	2979004416	43	4515
2026-01-14 14:16:25.30	350.50	59.74	-36.7	-38.0	16.9	8.00e-06	0	59	0	3008364544	43	4304
2026-01-14 14:16:29.34	349.98	58.13	-37.4	-38.8	16.5	3.31e-05	0	60	0	3036676096	44	4482
2026-01-14 14:16:33.38	349.52	56.57	-37.3	-38.7	16.7	0.00e+00	0	60	0	3066036224	44	4399
2026-01-14 14:16:37.42	349.11	55.05	-37.0	-38.3	17.0	1.10e-06	0	60	0	3095396352	44	4236
2026-01-14 14:16:41.47	348.74	53.57	-36.8	-38.1	17.2	0.00e+00	0	60	0	3124756480	44	4135
2026-01-14 14:16:45.51	348.40	52.13	-37.2	-38.6	16.8	0.00e+00	0	59	0	3154116608	44	4343
2026-01-14 14:16:49.55	348.10	50.73	-37.1	-38.4	16.9	0.00e+00	0	59	0	3183476736	44	4277
2026-01-14 14:16:53.59	347.83	49.37	-36.5	-37.8	17.5	0.00e+00	0	59	0	3211788288	44	3966
2026-01-14 14:16:57.62	347.58	48.06	-36.3	-37.6	17.6	0.00e+00	0	60	0	3241148416	43	4100
2026-01-14 14:17:01.66	347.35	46.78	-35.9	-37.1	18.0	0.00e+00	0	59	0	3270508544	42	4135
2026-01-14 14:17:05.70	347.14	45.54	-36.0	-37.2	17.9	0.00e+00	0	59	0	3299868672	42	4181
2026-01-14 14:17:09.73	346.95	44.33	-35.9	-37.1	18.1	0.00e+00	0	60	0	3329228800	42	4108
2026-01-14 14:17:13.77	346.77	43.17	-36.0	-37.2	17.9	0.00e+00	0	59	0	3357540352	42	4155
2026-01-14 14:17:17.81	346.61	42.03	-36.2	-37.4	17.7	0.00e+00	0	59	0	3386900480	42	4270
2026-01-14 14:17:21.84	346.46	40.93	-35.9	-37.1	17.8	0.00e+00	0	59	0	3416260608	42	4139
2026-01-14 14:17:25.89	346.31	39.86	-35.9	-37.1	17.9	0.00e+00	0	59	0	3445620736	42	4137
2026-01-14 14:17:29.92	346.18	38.83	-35.9	-37.1	17.9	0.00e+00	0	59	0	3473932288	42	4112
2026-01-14 14:17:33.96	346.06	37.82	-35.5	-36.6	18.4	0.00e+00	0	60	0	3503292416	41	4118
2026-01-14 14:17:38.00	345.95	36.84	-35.1	-36.2	18.8	0.00e+00	0	60	0	3532652544	41	3933
2026-01-14 14:17:42.04	345.84	35.89	-35.1	-36.2	18.7	0.00e+00	0	60	0	3562012672	41	3935
2026-01-14 14:17:46.08	345.74	34.97	-35.3	-36.4	18.5	0.00e+00	0	60	0	3590324224	41	4047
2026-01-14 14:17:50.11	345.64	34.08	-35.4	-36.6	18.4	0.00e+00	0	59	0	3619684352	41	4099
2026-01-14 14:17:54.16	345.56	33.21	-35.3	-36.4	18.4	0.00e+00	0	59	0	3649044480	41	4042
2026-01-14 14:17:58.19	345.47	32.36	-35.2	-36.4	18.5	0.00e+00	0	60	0	3678404608	41	4010
2026-01-14 14:18:02.23	345.39	31.54	-35.0	-36.1	18.8	0.00e+00	0	60	0	3707764736	40	4118
2026-01-14 14:18:06.27	345.32	30.74	-34.9	-36.0	18.8	0.00e+00	0	60	0	3737124864	40	4089
2026-01-14 14:18:10.31	345.25	29.96	-35.1	-36.3	18.6	0.00e+00	0	59	0	3765436416	40	4202
2026-01-14 14:18:14.34	345.19	29.21	-35.5	-36.7	18.1	0.00e+00	0	59	0	3794796544	40	4392
2026-01-14 14:18:18.38	345.12	28.47	-35.7	-36.9	17.9	0.00e+00	0	60	0	3824156672	40	4512
2026-01-14 14:18:22.41	345.07	27.75	-35.7	-36.9	17.7	0.00e+00	0	60	0	3853516800	41	4289
2026-01-14 14:18:26.45	345.01	27.05	-35.7	-37.0	17.6	0.00e+00	0	60	0	3882876928	41	4315
2026-01-14 14:18:30.49	344.96	26.37	-35.8	-37.0	17.5	0.00e+00	0	60	0	3911188480	41	4319
2026-01-14 14:18:34.53	344.91	25.70	-35.9	-37.2	17.3	0.00e+00	0	59	0	3940548608	41	4396
2026-01-14 14:18:38.57	344.86	25.05	-36.0	-37.3	17.1	0.00e+00	0	59	0	3969908736	41	4449
2026-01-14 14:18:42.61	344.82	24.42	-36.1	-37.4	16.9	0.00e+00	0	60	0	3999268864	41	4507
2026-01-14 14:18:46.66	344.78	23.79	-35.9	-37.2	16.9	0.00e+00	0	59	0	4028628992	41	4426
2026-01-14 14:18:50.69	344.74	23.19	-35.6	-37.0	16.7	0.00e+00	0	60	0	4057989120	41	4310
2026-01-14 14:18:54.73	344.70	22.60	-35.5	-37.0	16.1	0.00e+00	0	60	0	4086300672	41	4301
2026-01-14 14:18:58.77	344.66	22.02	-35.8	-37.4	15.4	0.00e+00	0	60	0	4115660800	41	4500
2026-01-14 14:19:02.81	344.63	21.46	-37.1	-39.0	13.3	1.02e-05	0	60	0	4145020928	43	4870
2026-01-14 14:19:06.85	344.60	20.91	-40.5	-45.2	6.6	1.80e-01	0	60	0	4174381056	50	6627
2026-01-14 14:19:10.89	344.57	20.37	-41.5	-51.2	3.8	8.46e-01	0	60	104	4180672512	52	11705
2026-01-14 14:19:14.93	344.54	19.84	-41.6	-52.3	3.8	8.46e-01	0	60	104	4180672512	52	13324
2026-01-14 14:19:18.97	344.51	19.32	-41.6	-52.3	3.8	8.45e-01	0	60	104	4180672512	52	13312
2026-01-14 14:19:23.00	344.49	18.81	-41.3	-52.1	3.8	8.47e-01	0	60	104	4180672512	52	13057
2026-01-14 14:19:27.04	344.46	18.32	-41.5	-52.4	3.8	8.46e-01	0	60	104	4180672512	52	13421
2026-01-14 14:19:31.08	344.44	17.83	-41.2	-52.3	3.8	8.45e-01	0	60	104	4180672512	52	13274
2026-01-14 14:19:35.11	344.42	17.35	-41.2	-52.0	3.8	8.46e-01	0	60	104	4180672512	52	12855
2026-01-14 14:19:39.15	344.40	16.88	-41.3	-52.2	3.8	8.46e-01	0	60	104	4180672512	52	13198
2026-01-14 14:19:43.19	344.38	16.42	-40.9	-52.2	3.8	8.47e-01	0	60	104	4180672512	52	13217
2026-01-14 14:19:47.22	344.36	15.97	-41.2	-52.2	3.8	8.46e-01	0	60	104	4180672512	52	13133
2026-01-14 14:19:51.25	344.34	15.53	-40.6	-52.0	3.8	8.46e-01	0	60	104	4180672512	52	12838
2026-01-14 14:19:55.29	344.32	15.10	-41.3	-52.3	3.8	8.46e-01	0	60	104	4180672512	52	13404
2026-01-14 14:19:59.33	344.31	14.67	-41.3	-52.2	3.8	8.46e-01	0	60	104	4180672512	52	13221
2026-01-14 14:20:03.37	344.29	14.25	-41.0	-52.0	3.8	8.46e-01	0	60	104	4180672512	52	12939
2026-01-14 14:20:07.40	344.28	13.84	-40.8	-51.9	3.8	8.46e-01	0	60	104	4180672512	52	12807
2026-01-14 14:20:11.44	344.27	13.43	-41.3	-52.2	3.8	8.46e-01	0	60	104	4180672512	52	13174
2026-01-14 14:20:15.47	344.25	13.03	-41.2	-52.1	3.8	8.46e-01	0	60	104	4180672512	52	13018
2026-01-14 14:20:19.52	344.24	12.64	-40.9	-51.9	3.8	8.48e-01	0	60	104	4180672512	52	12725
2026-01-14 14:20:23.56	344.23	12.25	-40.9	-51.9	3.8	8.46e-01	0	60	104	4180672512	52	12739
2026-01-14 14:20:27.60	344.22	11.87	-40.9	-51.9	3.8	8.47e-01	0	60	104	4180672512	52	12746
2026-01-14 14:20:31.63	344.21	11.50	-41.0	-51.9	3.8	8.47e-01	0	60	104	4180672512	52	12726
2026-01-14 14:20:35.67	344.20	11.13	-40.9	-51.8	3.8	8.47e-01	0	60	104	4180672512	52	12633
2026-01-14 14:20:39.72	344.19	10.76	-40.7	-51.6	3.8	8.46e-01	0	60	104	4180672512	52	12362
2026-01-14 14:20:43.75	344.19	10.41	-40.6	-51.5	3.8	8.47e-01	0	60	104	4180672512	52	12215
2026-01-14 14:20:47.79	344.18	10.05	-40.9	-51.9	3.8	8.47e-01	0	60	104	4180672512	52	12665
2026-01-14 14:20:51.83	344.17	9.71	-40.7	-51.7	3.8	8.46e-01	0	60	104	4180672512	52	12436
2026-01-14 14:20:55.87	344.17	9.36	-40.8	-51.7	3.8	8.46e-01	0	60	104	4180672512	52	12391
2026-01-14 14:20:59.91	344.16	9.02	-40.8	-51.7	3.8	8.46e-01	0	60	104	4180672512	52	12446
2026-01-14 14:21:03.95	344.16	8.69	-40.9	-51.8	3.8	8.46e-01	0	60	104	4180672512	51	13379
2026-01-14 14:21:07.99	344.15	8.36	-40.8	-51.7	3.8	8.47e-01	0	60	104	4180672512	51	13171
2026-01-14 14:21:12.03	344.15	8.03	-40.9	-51.8	3.8	8.47e-01	0	60	104	4180672512	51	13361
2026-01-14 14:21:16.06	344.15	7.71	-45.0	-56.0	3.8	8.46e-01	0	60	104	4180672512	59	13643
2026-01-14 14:21:20.10	344.14	7.40	-45.5	-56.8	3.8	8.46e-01	0	60	104	4180672512	60	14151
2026-01-14 14:21:24.14	344.14	7.08	-45.5	-56.9	3.8	8.46e-01	0	60	104	4180672512	60	14251
2026-01-14 14:21:28.18	344.14	6.77	-45.5	-56.8	3.8	8.46e-01	0	60	104	4180672512	60	14180
2026-01-14 14:21:32.22	344.14	6.47	-45.5	-56.8	3.8	8.46e-01	0	60	104	4180672512	60	14124
2026-01-14 14:21:36.26	344.14	6.17	-45.4	-56.8	3.8	8.46e-01	0	60	104	4180672512	60	14078
2026-01-14 14:21:40.29	344.14	5.87	-45.4	-56.7	3.8	8.46e-01	0	60	104	4180672512	60	14042
2026-01-14 14:21:44.33	344.14	5.57	-45.4	-56.8	3.8	8.46e-01	0	60	104	4180672512	60	14079
2026-01-14 14:21:48.37	344.14	5.28	-45.4	-56.8	3.8	8.47e-01	0	60	104	4180672512	60	14128
2026-01-14 14:21:52.41	344.14	4.99	-45.4	-56.7	3.8	8.45e-01	0	60	104	4180672512	60	14014
2026-01-14 14:21:56.45	344.14	4.71	-45.4	-56.7	3.8	8.47e-01	0	60	104	4180672512	60	14045
2026-01-14 14:22:00.49	344.14	4.42	-45.3	-56.8	3.8	8.45e-01	0	60	104	4180672512	60	14053
2026-01-14 14:22:04.53	344.14	4.14	-45.3	-56.7	3.8	8.45e-01	0	60	104	4180672512	60	13906
2026-01-14 14:22:08.56	344.14	3.87	-45.0	-56.6	3.9	8.45e-01	0	60	104	4180672512	60	13854
2026-01-14 14:22:12.60	344.14	3.59	-45.4	-56.7	3.8	8.46e-01	0	60	104	4180672512	60	14000
2026-01-14 14:22:16.64	344.14	3.32	-45.4	-56.7	3.8	8.46e-01	0	60	104	4180672512	60	14017
2026-01-14 14:22:20.67	344.15	3.05	-45.3	-56.7	3.8	8.47e-01	0	60	104	4180672512	60	13924
2026-01-14 14:22:24.71	344.15	2.79	-45.4	-56.7	3.8	8.46e-01	0	60	104	4180672512	60	13975
2026-01-14 14:22:28.75	344.15	2.52	-45.4	-56.7	3.8	8.46e-01	0	60	104	4180672512	60	13969
2026-01-14 14:22:32.79	344.16	2.26	-45.4	-56.7	3.8	8.45e-01	0	60	104	4180672512	60	13903
2026-01-14 14:22:36.83	344.16	2.00	-45.4	-56.7	3.8	8.46e-01	0	60	104	4180672512	60	13993

#Closed at: 2026-01-14 14:22:39
#Recorded file [4180 MB]: D:/lorett/data/31039_260114_170812.dat