passes_logs/2026/01/14/R2.0S_Moscow/R2.0S_Moscow__20260114_082525_NOAA_20_JPSS-1_rec.log

#Pass ID: 20260114_082525_NOAA 20 (JPSS-1)
#Satellite: NOAA 20 (JPSS-1)
#Configuration: NOAA 20
#almurnet v.1.7.20251203
#Start time: 2026-01-14 08:25:25

#Version: 2.2.20231116
#Station: R2.0S_Moscow
#Location: 37.707566 lon 55.798166 lat
#TLE: 1 43013U 17073A   26013.21545503  .00000073  00000+0  55630-4 0  9998
#TLE: 2 43013  98.7633 314.1737 0001580  41.9966 318.1331 14.19535680422486

#Time	Az	El	Level	Level2	SNR	BER	BlckErr	Temp	State	Recorded	gain1	gain2
2026-01-14 08:25:25.24	116.74	2.01	-37.2	-54.5	4.1	1.50e+00	0	52	0	0	44	28746
2026-01-14 08:25:29.27	116.49	2.24	-34.9	-52.5	4.1	1.50e+00	0	52	104	0	43	24209
2026-01-14 08:25:33.31	116.24	2.48	-35.6	-51.5	4.0	1.50e+00	0	52	104	0	38	28789
2026-01-14 08:25:37.35	115.99	2.72	-37.3	-54.5	4.3	1.50e+00	0	53	104	0	46	25649
2026-01-14 08:25:41.39	115.73	2.95	-35.7	-53.4	4.1	1.50e+00	0	53	104	0	45	24098
2026-01-14 08:25:45.43	115.46	3.19	-36.9	-53.9	4.0	1.50e+00	0	53	104	0	44	26793
2026-01-14 08:25:49.47	115.20	3.44	-39.3	-56.0	4.0	1.50e+00	0	54	104	0	48	27148
2026-01-14 08:25:53.51	114.92	3.68	-37.1	-52.9	3.7	1.50e+00	0	54	104	0	41	28564
2026-01-14 08:25:57.55	114.65	3.92	-37.3	-53.2	4.2	1.50e+00	0	54	104	0	43	26439
2026-01-14 08:26:01.59	114.36	4.17	-39.1	-55.5	4.1	1.50e+00	0	55	104	0	45	30433
2026-01-14 08:26:05.64	114.08	4.42	-37.9	-53.4	4.1	1.50e+00	0	54	104	0	38	35814
2026-01-14 08:26:09.68	113.79	4.67	-39.5	-55.1	4.0	1.50e+00	0	55	104	0	48	24499
2026-01-14 08:26:13.72	113.49	4.92	-37.7	-54.6	4.1	1.50e+00	0	55	104	0	44	29150
2026-01-14 08:26:17.77	113.18	5.17	-33.5	-50.6	4.1	1.50e+00	0	55	104	0	40	23188
2026-01-14 08:26:21.81	112.88	5.43	-39.4	-55.2	4.0	1.50e+00	0	55	104	0	48	24888
2026-01-14 08:26:25.84	112.56	5.68	-39.2	-54.8	4.3	1.50e+00	0	55	104	0	46	26527
2026-01-14 08:26:29.88	112.24	5.94	-39.5	-54.3	4.1	1.50e+00	0	56	104	0	47	23827
2026-01-14 08:26:33.92	111.92	6.20	-37.7	-52.3	3.8	1.50e+00	0	56	104	0	38	31724
2026-01-14 08:26:37.96	111.59	6.46	-39.2	-53.6	3.9	1.50e+00	0	56	104	0	43	27651
2026-01-14 08:26:41.99	111.25	6.72	-36.0	-53.9	4.0	1.49e+00	0	56	104	0	49	20140
2026-01-14 08:26:46.03	110.91	6.99	-37.9	-53.9	4.1	1.50e+00	0	56	104	0	48	21436
2026-01-14 08:26:50.07	110.56	7.25	-36.2	-53.5	4.4	1.50e+00	0	57	104	0	45	24142
2026-01-14 08:26:54.11	110.20	7.52	-36.5	-53.4	3.9	1.50e+00	0	57	104	0	44	25352
2026-01-14 08:26:58.15	109.84	7.79	-37.0	-50.0	4.3	1.45e+00	0	57	104	0	46	15288
2026-01-14 08:27:02.19	109.47	8.06	-39.0	-49.5	4.5	8.53e-01	0	57	104	3145728	47	13691
2026-01-14 08:27:06.23	109.09	8.34	-36.0	-49.5	4.9	9.49e-01	55	57	0	3145728	44	16270
2026-01-14 08:27:10.26	108.70	8.61	-39.1	-50.0	5.2	8.47e-01	60	57	0	6291456	46	15257
2026-01-14 08:27:14.30	108.31	8.89	-39.3	-50.4	5.4	9.04e-01	68	58	0	10485760	49	13552
2026-01-14 08:27:18.34	107.91	9.17	-35.2	-49.1	5.7	8.61e-01	32	57	0	15728640	47	13077
2026-01-14 08:27:22.38	107.50	9.45	-35.3	-48.4	5.0	1.04e+00	57	58	0	19922944	43	15207
2026-01-14 08:27:26.42	107.09	9.73	-40.2	-50.4	5.4	8.96e-01	55	58	0	25165824	49	13452
2026-01-14 08:27:30.46	106.66	10.02	-41.7	-50.9	4.8	8.79e-01	17	58	0	31457280	48	15223
2026-01-14 08:27:34.50	106.23	10.30	-39.5	-50.9	4.7	9.56e-01	50	58	0	33554432	49	14347
2026-01-14 08:27:38.54	105.79	10.59	-35.4	-49.3	4.2	1.23e+00	0	58	104	35651584	41	18744
2026-01-14 08:27:42.58	105.33	10.88	-28.4	-45.5	4.1	8.52e-01	0	58	104	36700160	36	16252
2026-01-14 08:27:46.62	104.87	11.17	-40.3	-49.1	5.5	1.01e+00	31	58	0	37748736	44	15538
2026-01-14 08:27:50.66	104.40	11.46	-41.1	-49.8	4.5	1.44e+00	0	59	104	37748736	51	11235
2026-01-14 08:27:54.70	103.93	11.76	-29.2	-43.8	3.9	1.46e+00	0	59	0	37748736	25	25173
2026-01-14 08:27:58.74	103.44	12.05	-31.2	-46.4	4.3	1.43e+00	0	58	104	37748736	34	20155
2026-01-14 08:28:02.78	102.94	12.35	-33.6	-45.4	4.4	1.47e+00	0	59	104	37748736	33	19021
2026-01-14 08:28:06.81	102.43	12.65	-38.8	-50.2	4.4	1.25e+00	0	59	104	37748736	48	13896
2026-01-14 08:28:10.85	101.91	12.95	-32.2	-46.9	4.1	1.49e+00	0	59	104	37748736	29	28576
2026-01-14 08:28:14.89	101.38	13.25	-27.5	-47.1	4.0	1.45e+00	0	59	104	37748736	41	14630
2026-01-14 08:28:18.92	100.84	13.55	-27.8	-45.3	4.3	1.49e+00	0	59	104	37748736	32	19845
2026-01-14 08:28:22.96	100.28	13.85	-34.0	-47.8	4.8	1.46e+00	26	59	104	37748736	39	17825
2026-01-14 08:28:27.00	99.72	14.16	-38.4	-48.5	7.0	5.99e-01	3	59	0	42991616	50	10229
2026-01-14 08:28:31.03	99.14	14.46	-38.6	-48.3	7.7	1.97e-01	2	59	0	50331648	53	8402
2026-01-14 08:28:35.07	98.55	14.77	-42.2	-47.7	8.5	6.89e-02	0	59	0	57671680	52	8359
2026-01-14 08:28:39.11	97.95	15.08	-42.5	-48.2	9.0	4.68e-02	0	59	0	66060288	55	7394
2026-01-14 08:28:43.15	97.34	15.39	-42.6	-48.1	9.0	2.65e-02	0	59	0	73400320	55	7371
2026-01-14 08:28:47.19	96.71	15.70	-42.5	-47.8	9.5	1.99e-02	0	59	0	80740352	55	7062
2026-01-14 08:28:51.23	96.07	16.00	-42.5	-47.7	9.6	1.12e-02	0	59	0	88080384	55	6989
2026-01-14 08:28:55.27	95.41	16.31	-42.6	-48.0	9.3	1.85e-02	0	60	0	95420416	55	7257
2026-01-14 08:28:59.31	94.74	16.62	-42.6	-48.0	9.3	1.88e-02	0	59	0	103809024	55	7274
2026-01-14 08:29:03.35	94.06	16.93	-42.6	-48.1	9.2	1.77e-02	0	59	0	111149056	55	7350
2026-01-14 08:29:07.39	93.37	17.24	-42.6	-48.2	9.1	2.04e-02	0	60	0	118489088	55	7385
2026-01-14 08:29:11.42	92.66	17.55	-42.7	-48.3	8.9	2.85e-02	0	60	0	125829120	55	7515
2026-01-14 08:29:15.46	91.93	17.86	-42.5	-48.3	8.8	2.49e-02	0	60	0	134217728	55	7461
2026-01-14 08:29:19.50	91.19	18.16	-42.4	-48.1	8.9	2.95e-02	0	60	0	141557760	55	7323
2026-01-14 08:29:23.54	90.44	18.47	-42.3	-48.3	8.5	4.51e-02	0	60	0	148897792	55	7470
2026-01-14 08:29:27.58	89.67	18.77	-42.0	-47.8	8.7	3.59e-02	0	60	0	156237824	55	7106
2026-01-14 08:29:31.62	88.88	19.07	-41.9	-47.8	8.7	4.03e-02	0	60	0	163577856	55	7101
2026-01-14 08:29:35.66	88.08	19.37	-41.8	-47.9	8.4	4.54e-02	0	60	0	171966464	55	7186
2026-01-14 08:29:39.70	87.26	19.67	-41.6	-47.5	8.8	3.20e-02	0	60	0	179306496	55	6824
2026-01-14 08:29:43.74	86.42	19.97	-41.5	-47.0	9.4	1.59e-02	0	60	0	186646528	55	6464
2026-01-14 08:29:47.78	85.57	20.26	-41.5	-46.5	10.1	7.62e-03	0	60	0	193986560	54	6462
2026-01-14 08:29:51.82	84.71	20.54	-41.3	-46.1	10.5	4.83e-03	0	60	0	202375168	54	6153
2026-01-14 08:29:55.86	83.82	20.83	-41.3	-45.7	11.1	1.76e-03	0	60	0	209715200	54	5893
2026-01-14 08:29:59.90	82.92	21.11	-41.3	-45.4	11.6	7.16e-04	0	60	0	217055232	54	5685
2026-01-14 08:30:03.93	82.01	21.38	-41.3	-45.3	11.8	5.37e-04	0	60	0	224395264	54	5655
2026-01-14 08:30:07.98	81.07	21.66	-41.4	-45.5	11.7	5.23e-04	0	60	0	231735296	54	5748
2026-01-14 08:30:12.01	80.13	21.92	-41.6	-45.8	11.5	8.43e-04	0	60	0	240123904	54	5954
2026-01-14 08:30:16.05	79.16	22.18	-41.5	-45.6	11.7	5.58e-04	0	60	0	247463936	54	5805
2026-01-14 08:30:20.09	78.18	22.43	-41.6	-45.6	11.8	6.06e-04	0	60	0	254803968	54	5845
2026-01-14 08:30:24.13	77.18	22.68	-41.5	-45.3	12.1	3.17e-04	0	60	0	262144000	54	5639
2026-01-14 08:30:28.16	76.17	22.92	-41.5	-45.4	12.1	2.90e-04	0	60	0	270532608	54	5687
2026-01-14 08:30:32.20	75.15	23.15	-41.5	-45.2	12.4	1.64e-04	0	60	0	277872640	54	5552
2026-01-14 08:30:36.24	74.10	23.37	-41.3	-44.9	12.7	7.55e-05	0	60	0	285212672	54	5394
2026-01-14 08:30:40.28	73.04	23.59	-41.3	-44.7	12.9	4.65e-05	0	60	0	292552704	54	5275
2026-01-14 08:30:44.31	71.97	23.79	-41.5	-45.1	12.6	8.31e-05	0	60	0	299892736	54	5493
2026-01-14 08:30:48.35	70.89	23.99	-41.8	-45.6	12.2	2.17e-04	0	60	0	308281344	54	5849
2026-01-14 08:30:52.39	69.79	24.18	-41.8	-45.5	12.3	1.73e-04	0	60	0	315621376	54	5781
2026-01-14 08:30:56.43	68.68	24.36	-41.9	-45.9	12.0	2.84e-04	0	60	0	322961408	54	5999
2026-01-14 08:31:00.47	67.55	24.52	-42.1	-46.1	11.8	4.32e-04	0	61	0	330301440	54	6201
2026-01-14 08:31:04.51	66.41	24.68	-42.3	-46.5	11.4	9.94e-04	0	60	0	338690048	55	6111
2026-01-14 08:31:08.55	65.27	24.82	-42.5	-47.0	11.0	2.12e-03	0	60	0	346030080	55	6424
2026-01-14 08:31:12.59	64.11	24.95	-42.5	-47.1	10.8	2.52e-03	0	60	0	353370112	55	6516
2026-01-14 08:31:16.63	62.95	25.07	-42.6	-47.2	10.8	2.85e-03	0	60	0	360710144	55	6592
2026-01-14 08:31:20.67	61.77	25.18	-42.7	-47.5	10.4	4.40e-03	0	61	0	368050176	55	6844
2026-01-14 08:31:24.71	60.59	25.27	-42.8	-47.5	10.6	3.41e-03	0	61	0	376438784	56	6457
2026-01-14 08:31:28.75	59.40	25.35	-42.7	-47.2	10.9	2.27e-03	0	60	0	383778816	56	6257
2026-01-14 08:31:32.79	58.21	25.42	-42.8	-47.6	10.5	3.37e-03	0	61	0	391118848	56	6501
2026-01-14 08:31:36.83	57.01	25.47	-42.8	-47.4	10.7	3.25e-03	0	61	0	398458880	56	6386
2026-01-14 08:31:40.87	55.81	25.51	-42.6	-47.0	11.2	1.67e-03	0	60	0	406847488	56	6065
2026-01-14 08:31:44.91	54.60	25.54	-42.7	-47.0	11.1	1.61e-03	0	61	0	414187520	56	6119
2026-01-14 08:31:48.94	53.40	25.55	-42.4	-46.4	11.9	4.40e-04	0	61	0	421527552	56	5689
2026-01-14 08:31:52.98	52.19	25.55	-42.3	-46.2	12.1	2.57e-04	0	60	0	428867584	56	5538
2026-01-14 08:31:57.02	50.99	25.54	-42.1	-45.8	12.4	1.23e-04	0	61	0	436207616	56	5317
2026-01-14 08:32:01.06	49.79	25.51	-41.6	-45.1	13.1	3.58e-05	0	61	0	444596224	55	5187
2026-01-14 08:32:05.10	48.58	25.46	-41.5	-44.8	13.4	1.67e-05	0	61	0	451936256	54	5290
2026-01-14 08:32:09.13	47.39	25.41	-41.5	-44.8	13.4	1.22e-05	0	61	0	459276288	54	5290
2026-01-14 08:32:13.17	46.20	25.34	-41.5	-44.7	13.5	6.80e-06	0	61	0	466616320	54	5275
2026-01-14 08:32:17.21	45.01	25.25	-41.6	-45.0	13.2	2.21e-05	0	60	0	475004928	54	5438
2026-01-14 08:32:21.25	43.83	25.16	-41.7	-45.2	12.9	3.89e-05	0	61	0	482344960	54	5590
2026-01-14 08:32:25.29	42.66	25.05	-41.7	-45.2	12.9	4.65e-05	0	61	0	489684992	54	5577
2026-01-14 08:32:29.32	41.50	24.93	-42.0	-45.7	12.4	1.22e-04	0	61	0	497025024	54	5922
2026-01-14 08:32:33.36	40.35	24.80	-42.1	-46.0	12.2	2.04e-04	0	61	0	504365056	54	6089
2026-01-14 08:32:37.40	39.21	24.65	-42.2	-46.1	12.1	2.52e-04	0	61	0	512753664	54	6135
2026-01-14 08:32:41.43	38.08	24.50	-42.3	-46.4	11.7	4.26e-04	0	61	0	520093696	55	6048
2026-01-14 08:32:45.47	36.96	24.33	-42.5	-46.8	11.4	1.06e-03	0	61	0	527433728	55	6279
2026-01-14 08:32:49.51	35.85	24.15	-42.5	-46.8	11.3	1.06e-03	0	61	0	534773760	55	6330
2026-01-14 08:32:53.55	34.76	23.96	-42.6	-47.0	11.1	1.69e-03	0	61	0	543162368	55	6493
2026-01-14 08:32:57.59	33.68	23.76	-42.8	-47.4	10.9	2.34e-03	0	61	0	550502400	56	6370
2026-01-14 08:33:01.62	32.61	23.56	-42.8	-47.2	11.1	1.49e-03	0	61	0	557842432	56	6214
2026-01-14 08:33:05.66	31.56	23.34	-42.8	-47.3	11.0	1.74e-03	0	61	0	565182464	56	6318
2026-01-14 08:33:09.71	30.52	23.12	-42.9	-47.5	10.7	2.93e-03	0	61	0	572522496	56	6459
2026-01-14 08:33:13.75	29.50	22.88	-42.7	-47.2	11.1	1.56e-03	0	61	0	580911104	56	6213
2026-01-14 08:33:17.79	28.49	22.64	-42.8	-47.2	11.0	1.91e-03	0	61	0	588251136	56	6261
2026-01-14 08:33:21.83	27.50	22.40	-42.6	-46.7	11.6	8.71e-04	0	61	0	595591168	56	5918
2026-01-14 08:33:25.87	26.53	22.14	-42.4	-46.4	11.8	4.55e-04	0	61	0	602931200	56	5712
2026-01-14 08:33:29.90	25.57	21.89	-42.3	-46.2	12.1	2.66e-04	0	61	0	611319808	56	5567
2026-01-14 08:33:33.94	24.63	21.62	-42.2	-46.0	12.3	1.78e-04	0	61	0	618659840	56	5438
2026-01-14 08:33:37.98	23.70	21.35	-42.3	-46.1	12.2	2.27e-04	0	61	0	625999872	56	5512
2026-01-14 08:33:42.01	22.80	21.07	-42.2	-46.1	12.2	2.25e-04	0	61	0	633339904	56	5494
2026-01-14 08:33:46.05	21.90	20.79	-42.3	-46.3	12.0	3.17e-04	0	61	0	640679936	56	5600
2026-01-14 08:33:50.09	21.03	20.51	-42.3	-46.2	12.0	3.78e-04	0	61	0	649068544	56	5560
2026-01-14 08:33:54.13	20.17	20.22	-42.1	-45.9	12.3	1.62e-04	0	61	0	656408576	56	5356
2026-01-14 08:33:58.17	19.32	19.93	-42.0	-45.7	12.5	1.34e-04	0	61	0	663748608	56	5254
2026-01-14 08:34:02.21	18.50	19.64	-41.7	-45.4	12.7	8.16e-05	0	61	0	671088640	55	5354
2026-01-14 08:34:06.25	17.68	19.34	-41.7	-45.3	12.8	6.17e-05	0	61	0	679477248	55	5297
2026-01-14 08:34:10.28	16.89	19.04	-41.5	-45.0	13.1	2.82e-05	0	61	0	686817280	54	5408
2026-01-14 08:34:14.32	16.11	18.74	-41.5	-45.0	13.1	3.28e-05	0	61	0	694157312	54	5415
2026-01-14 08:34:18.36	15.35	18.44	-41.5	-45.0	13.0	3.50e-05	0	61	0	701497344	54	5433
2026-01-14 08:34:22.40	14.60	18.14	-41.4	-44.8	13.2	2.36e-05	0	61	0	708837376	54	5321
2026-01-14 08:34:26.44	13.87	17.83	-41.5	-44.9	13.0	2.59e-05	0	61	0	717225984	54	5396
2026-01-14 08:34:30.48	13.15	17.53	-41.5	-45.1	12.8	5.64e-05	0	61	0	724566016	54	5512
2026-01-14 08:34:34.52	12.44	17.22	-41.5	-45.0	12.9	5.34e-05	0	61	0	731906048	54	5453
2026-01-14 08:34:38.55	11.76	16.91	-41.6	-45.3	12.5	1.23e-04	0	61	0	739246080	54	5654
2026-01-14 08:34:42.59	11.08	16.60	-41.5	-45.3	12.5	1.18e-04	0	61	0	747634688	54	5593
2026-01-14 08:34:46.63	10.42	16.30	-41.7	-45.7	12.0	2.69e-04	0	61	0	754974720	54	5868
2026-01-14 08:34:50.67	9.77	15.99	-41.9	-46.2	11.3	9.72e-04	0	61	0	762314752	54	6250
2026-01-14 08:34:54.70	9.14	15.68	-41.8	-46.0	11.5	8.54e-04	0	61	0	769654784	54	6077
2026-01-14 08:34:58.74	8.52	15.37	-41.8	-46.1	11.3	1.04e-03	0	61	0	776994816	54	6143
2026-01-14 08:35:02.78	7.91	15.07	-41.8	-46.3	10.9	2.10e-03	0	61	0	785383424	54	6305
2026-01-14 08:35:06.81	7.32	14.76	-41.7	-46.2	10.8	2.59e-03	0	61	0	792723456	54	6265
2026-01-14 08:35:10.85	6.73	14.46	-41.8	-46.5	10.5	4.25e-03	0	61	0	800063488	54	6451
2026-01-14 08:35:14.89	6.16	14.15	-41.7	-46.8	9.9	9.88e-03	0	61	0	807403520	54	6689
2026-01-14 08:35:18.93	5.60	13.85	-41.5	-46.9	9.4	1.36e-02	0	61	0	815792128	54	6763
2026-01-14 08:35:22.97	5.05	13.55	-41.2	-46.5	9.6	1.26e-02	0	61	0	823132160	54	6446
2026-01-14 08:35:27.00	4.52	13.25	-41.4	-48.1	7.7	7.63e-02	0	61	0	830472192	54	7753
2026-01-14 08:35:31.04	4.00	12.95	-41.6	-51.4	4.8	7.03e-01	0	61	0	837812224	54	11356
2026-01-14 08:35:35.08	3.48	12.65	-41.4	-55.2	3.8	1.49e+00	0	61	104	839909376	54	17654
2026-01-14 08:35:39.11	2.98	12.35	-40.9	-55.7	3.8	1.49e+00	0	61	104	839909376	53	19758
2026-01-14 08:35:43.15	2.48	12.06	-40.3	-55.0	3.8	1.49e+00	0	61	104	839909376	52	19362
2026-01-14 08:35:47.18	2.00	11.76	-40.1	-54.9	3.8	1.49e+00	0	61	104	839909376	52	19064
2026-01-14 08:35:51.22	1.53	11.47	-40.0	-54.9	3.8	1.49e+00	0	61	104	839909376	52	18966
2026-01-14 08:35:55.26	1.07	11.18	-40.0	-54.8	3.8	1.49e+00	0	61	104	839909376	51	20034
2026-01-14 08:35:59.30	0.61	10.89	-40.2	-55.0	3.8	1.49e+00	0	61	104	839909376	51	20389
2026-01-14 08:36:03.33	0.17	10.60	-39.9	-54.8	3.8	1.49e+00	0	61	104	839909376	51	20002
2026-01-14 08:36:07.37	359.73	10.32	-40.2	-55.0	3.8	1.49e+00	0	61	104	839909376	51	20365
2026-01-14 08:36:11.40	359.30	10.03	-39.5	-54.9	3.8	1.49e+00	0	61	104	839909376	51	20081
2026-01-14 08:36:15.44	358.88	9.75	-39.6	-54.8	3.8	1.49e+00	0	61	104	839909376	50	21161
2026-01-14 08:36:19.48	358.47	9.47	-39.8	-54.8	3.8	1.49e+00	0	61	104	839909376	50	21135
2026-01-14 08:36:23.52	358.07	9.19	-39.7	-54.7	3.8	1.49e+00	0	61	104	839909376	50	21005
2026-01-14 08:36:27.56	357.68	8.91	-39.7	-54.8	3.8	1.49e+00	0	61	104	839909376	50	21111
2026-01-14 08:36:31.59	357.29	8.64	-39.7	-54.7	3.8	1.49e+00	0	61	104	839909376	50	20979
2026-01-14 08:36:35.63	356.91	8.36	-39.8	-54.7	3.8	1.49e+00	0	61	104	839909376	50	20998
2026-01-14 08:36:39.67	356.54	8.09	-39.7	-54.7	3.8	1.49e+00	0	61	104	839909376	50	20850
2026-01-14 08:36:43.71	356.17	7.82	-44.7	-59.1	3.8	1.49e+00	0	61	104	839909376	59	20724
2026-01-14 08:36:47.75	355.81	7.55	-45.4	-60.0	3.8	1.49e+00	0	61	104	839909376	61	20314
2026-01-14 08:36:51.80	355.46	7.28	-45.4	-60.0	3.8	1.49e+00	0	61	104	839909376	61	20374
2026-01-14 08:36:55.84	355.12	7.02	-45.4	-59.8	3.8	1.49e+00	0	61	104	839909376	61	20052
2026-01-14 08:36:59.88	354.78	6.75	-45.3	-59.7	3.8	1.49e+00	0	61	104	839909376	61	19778
2026-01-14 08:37:03.92	354.45	6.49	-45.2	-59.7	3.8	1.49e+00	0	61	104	839909376	61	19778
2026-01-14 08:37:07.96	354.12	6.23	-45.3	-59.7	3.8	1.49e+00	0	61	104	839909376	61	19766
2026-01-14 08:37:12.00	353.80	5.97	-45.2	-59.7	3.8	1.49e+00	0	62	104	839909376	61	19717
2026-01-14 08:37:16.04	353.49	5.72	-45.1	-59.7	3.8	1.49e+00	0	61	104	839909376	60	20928
2026-01-14 08:37:20.08	353.18	5.46	-45.2	-59.7	3.8	1.49e+00	0	61	104	839909376	61	19649
2026-01-14 08:37:24.12	352.88	5.21	-45.2	-59.6	3.8	1.49e+00	0	61	104	839909376	61	19592
2026-01-14 08:37:28.15	352.58	4.96	-45.2	-59.7	3.8	1.49e+00	0	61	104	839909376	61	19719
2026-01-14 08:37:32.19	352.29	4.71	-45.2	-59.7	3.8	1.49e+00	0	61	104	839909376	61	19644
2026-01-14 08:37:36.23	352.00	4.46	-45.2	-59.6	3.8	1.49e+00	0	62	104	839909376	61	19610
2026-01-14 08:37:40.27	351.72	4.21	-45.2	-59.7	3.8	1.49e+00	0	61	104	839909376	61	19637
2026-01-14 08:37:44.31	351.44	3.97	-45.2	-59.7	3.8	1.49e+00	0	61	104	839909376	61	19638
2026-01-14 08:37:48.36	351.17	3.72	-45.2	-59.6	3.8	1.49e+00	0	61	104	839909376	61	19609
2026-01-14 08:37:52.40	350.90	3.48	-45.2	-59.6	3.8	1.49e+00	0	61	104	839909376	60	20774
2026-01-14 08:37:56.44	350.64	3.24	-45.1	-59.7	3.8	1.49e+00	0	61	104	839909376	60	20799
2026-01-14 08:38:00.48	350.38	3.00	-45.2	-59.7	3.8	1.49e+00	0	61	104	839909376	61	19677
2026-01-14 08:38:04.53	350.13	2.76	-45.2	-59.6	3.8	1.49e+00	0	61	104	839909376	61	19591
2026-01-14 08:38:08.57	349.88	2.53	-45.0	-59.7	3.8	1.49e+00	0	61	104	839909376	60	20792
2026-01-14 08:38:12.60	349.64	2.29	-45.2	-59.7	3.8	1.49e+00	0	61	104	839909376	60	20777
2026-01-14 08:38:16.64	349.40	2.06	-45.2	-59.6	3.8	1.49e+00	0	62	104	839909376	60	20746

#Closed at: 2026-01-14 08:38:19
#Recorded file [839 MB]: D:/lorett/data/31039_260114_112525.dat