passes_logs/2026/01/14/R2.0S_Moscow/R2.0S_Moscow__20260114_111900_AQUA_rec.log

#Pass ID: 20260114_111900_AQUA
#Satellite: AQUA
#Configuration: AQUA
#almurnet v.1.7.20251203
#Start time: 2026-01-14 11:19:01

#Version: 2.2.20231116
#Station: R2.0S_Moscow
#Location: 37.707566 lon 55.798166 lat
#TLE: 1 27424U 02022A   26013.25278823  .00000890  00000+0  18808-3 0  9998
#TLE: 2 27424  98.4079 339.6508 0002047  80.3961  24.1839 14.61818714260637

#Time	Az	El	Level	Level2	SNR	BER	BlckErr	Temp	State	Recorded	gain1	gain2
2026-01-14 11:19:01.12	150.51	2.02	-44.7	-63.4	3.8	7.46e-01	0	51	0	0	60	31948
2026-01-14 11:19:05.16	150.44	2.29	-44.7	-63.4	3.8	7.47e-01	0	51	104	0	60	31939
2026-01-14 11:19:09.20	150.37	2.56	-44.7	-63.4	3.8	7.45e-01	0	51	104	0	60	31947
2026-01-14 11:19:13.24	150.30	2.83	-44.6	-63.2	3.8	7.45e-01	0	52	104	0	60	31391
2026-01-14 11:19:17.28	150.23	3.11	-44.7	-63.4	3.8	7.43e-01	0	52	104	0	60	31865
2026-01-14 11:19:21.32	150.15	3.39	-44.7	-63.4	3.8	7.48e-01	0	52	104	0	60	31827
2026-01-14 11:19:25.36	150.08	3.68	-44.7	-63.4	3.8	7.46e-01	0	52	104	0	60	31849
2026-01-14 11:19:29.40	150.00	3.97	-44.6	-63.3	3.8	7.41e-01	0	53	104	0	60	31808
2026-01-14 11:19:33.45	149.92	4.26	-44.7	-63.4	3.8	7.45e-01	0	53	104	0	60	31813
2026-01-14 11:19:37.49	149.84	4.55	-44.7	-63.4	3.8	7.46e-01	0	53	104	0	60	31828
2026-01-14 11:19:41.53	149.75	4.85	-44.7	-63.4	3.8	7.44e-01	0	54	104	0	60	31851
2026-01-14 11:19:45.57	149.66	5.15	-44.7	-63.4	3.8	7.46e-01	0	54	104	0	60	31816
2026-01-14 11:19:49.62	149.58	5.46	-44.7	-63.3	3.8	7.45e-01	0	54	104	0	60	31726
2026-01-14 11:19:53.66	149.48	5.77	-44.7	-62.9	3.8	7.44e-01	0	54	104	0	60	30303
2026-01-14 11:19:57.70	149.39	6.08	-44.6	-60.2	4.1	7.37e-01	0	54	104	0	60	22026
2026-01-14 11:20:01.74	149.29	6.40	-44.5	-57.2	5.3	7.03e-01	0	54	0	0	60	15750
2026-01-14 11:20:05.78	149.20	6.72	-44.5	-56.8	5.6	6.92e-01	0	55	0	2621440	60	14966
2026-01-14 11:20:09.83	149.09	7.05	-44.7	-61.2	3.9	7.43e-01	0	55	104	3145728	60	24875
2026-01-14 11:20:13.86	148.99	7.38	-44.5	-57.9	4.9	7.08e-01	0	55	104	3145728	60	16959
2026-01-14 11:20:17.91	148.88	7.72	-43.8	-50.9	11.5	6.14e-01	0	55	0	9437184	59	8078
2026-01-14 11:20:21.95	148.77	8.06	-43.1	-48.4	14.3	6.09e-01	0	55	0	17301504	57	6763
2026-01-14 11:20:25.99	148.66	8.41	-44.6	-56.7	5.8	6.92e-01	83	55	0	22020096	60	14850
2026-01-14 11:20:30.03	148.54	8.76	-42.5	-47.2	15.5	6.07e-01	0	56	0	29884416	56	6210
2026-01-14 11:20:34.06	148.42	9.12	-42.2	-46.6	15.6	6.05e-01	0	56	0	37224448	55	6142
2026-01-14 11:20:38.10	148.30	9.48	-42.1	-46.3	15.8	6.09e-01	0	56	0	44564480	54	6300
2026-01-14 11:20:42.14	148.17	9.85	-40.0	-45.6	15.0	6.07e-01	2	56	0	52428800	53	6193
2026-01-14 11:20:46.18	148.04	10.22	-41.6	-45.8	16.4	6.06e-01	0	56	0	59768832	54	5977
2026-01-14 11:20:50.22	147.91	10.60	-42.0	-45.8	16.7	6.08e-01	0	56	0	67633152	54	5944
2026-01-14 11:20:54.26	147.77	10.99	-42.0	-45.8	17.2	6.06e-01	0	56	0	74973184	54	5941
2026-01-14 11:20:58.30	147.62	11.39	-42.0	-45.8	16.5	6.07e-01	0	56	0	82837504	54	5939
2026-01-14 11:21:02.34	147.47	11.79	-41.2	-45.6	14.6	6.07e-01	0	57	0	90177536	54	5832
2026-01-14 11:21:06.38	147.32	12.20	-39.8	-45.0	16.0	6.06e-01	7	57	0	98041856	52	6085
2026-01-14 11:21:10.41	147.16	12.61	-41.8	-45.5	16.9	6.06e-01	0	57	0	105381888	54	5776
2026-01-14 11:21:14.45	147.00	13.04	-41.9	-45.5	17.3	6.07e-01	0	57	0	112721920	54	5749
2026-01-14 11:21:18.49	146.83	13.47	-42.0	-45.5	17.5	6.06e-01	0	57	0	120586240	54	5787
2026-01-14 11:21:22.53	146.66	13.91	-41.9	-45.6	17.3	6.07e-01	0	57	0	127926272	54	5843
2026-01-14 11:21:26.56	146.48	14.36	-42.0	-45.6	17.4	6.06e-01	0	57	0	135790592	54	5793
2026-01-14 11:21:30.61	146.29	14.82	-41.2	-45.2	10.8	6.23e-01	39	57	0	143130624	52	6228
2026-01-14 11:21:34.65	146.10	15.29	-41.2	-45.1	17.2	6.05e-01	0	57	0	150470656	52	6173
2026-01-14 11:21:38.68	145.90	15.76	-41.7	-45.0	18.3	6.06e-01	0	57	0	158334976	54	5436
2026-01-14 11:21:42.72	145.69	16.25	-41.6	-44.7	18.0	6.08e-01	0	57	0	165675008	53	5576
2026-01-14 11:21:46.76	145.47	16.75	-41.6	-44.7	18.6	6.07e-01	0	58	0	173539328	53	5566
2026-01-14 11:21:50.80	145.25	17.26	-41.5	-45.1	14.5	6.07e-01	1	57	0	180879360	54	5476
2026-01-14 11:21:54.84	145.02	17.78	-42.0	-45.3	18.2	6.07e-01	0	58	0	188743680	54	5611
2026-01-14 11:21:58.87	144.78	18.31	-42.0	-45.3	15.1	6.08e-01	5	58	0	196083712	54	5639
2026-01-14 11:22:02.91	144.53	18.86	-42.1	-45.4	18.0	6.05e-01	0	58	0	203423744	54	5685
2026-01-14 11:22:06.95	144.26	19.42	-41.9	-45.2	18.4	6.06e-01	0	58	0	211288064	54	5558
2026-01-14 11:22:10.99	143.99	19.99	-40.7	-45.0	15.5	6.10e-01	9	58	0	218628096	53	5734
2026-01-14 11:22:15.03	143.71	20.58	-42.2	-45.5	18.1	6.06e-01	0	58	0	226492416	54	5775
2026-01-14 11:22:19.07	143.41	21.18	-42.3	-45.8	17.6	6.08e-01	0	58	0	233832448	55	5593
2026-01-14 11:22:23.11	143.10	21.79	-42.3	-45.6	17.8	6.06e-01	0	58	0	241696768	55	5515
2026-01-14 11:22:27.15	142.78	22.43	-42.1	-45.4	18.3	6.06e-01	0	58	0	249036800	54	5672
2026-01-14 11:22:31.19	142.44	23.07	-42.2	-45.6	18.1	6.07e-01	0	58	0	256901120	55	5474
2026-01-14 11:22:35.23	142.09	23.74	-42.4	-45.9	17.5	6.07e-01	0	58	0	264241152	55	5684
2026-01-14 11:22:39.27	141.72	24.42	-42.2	-45.6	17.7	6.07e-01	0	58	0	271581184	55	5466
2026-01-14 11:22:43.31	141.33	25.12	-42.2	-45.4	18.4	6.07e-01	0	58	0	279445504	55	5383
2026-01-14 11:22:47.35	140.93	25.85	-42.3	-45.6	18.3	6.05e-01	0	58	0	286785536	55	5479
2026-01-14 11:22:51.38	140.50	26.58	-42.3	-45.7	18.2	6.07e-01	0	58	0	294649856	55	5540
2026-01-14 11:22:55.42	140.05	27.35	-42.0	-45.2	18.8	6.07e-01	0	58	0	301989888	55	5229
2026-01-14 11:22:59.46	139.58	28.13	-42.2	-45.3	18.6	6.08e-01	0	58	0	309854208	55	5330
2026-01-14 11:23:03.50	139.08	28.93	-41.8	-44.7	19.2	6.07e-01	0	58	0	317194240	55	4977
2026-01-14 11:23:07.53	138.56	29.76	-41.8	-45.0	18.9	6.05e-01	0	58	0	325058560	55	5130
2026-01-14 11:23:11.57	138.00	30.61	-41.6	-44.5	19.5	6.08e-01	0	58	0	332398592	55	4822
2026-01-14 11:23:15.61	137.42	31.49	-41.9	-44.8	19.2	6.09e-01	0	59	0	339738624	55	5038
2026-01-14 11:23:19.65	136.80	32.39	-42.0	-45.0	18.9	6.05e-01	0	59	0	347602944	55	5158
2026-01-14 11:23:23.69	136.14	33.31	-42.2	-45.4	18.7	6.06e-01	0	59	0	354942976	55	5350
2026-01-14 11:23:27.73	135.44	34.27	-42.3	-45.5	18.6	6.06e-01	0	59	0	362807296	55	5411
2026-01-14 11:23:31.76	134.69	35.25	-42.5	-45.8	18.3	6.06e-01	0	59	0	370147328	55	5627
2026-01-14 11:23:35.80	133.90	36.25	-43.1	-46.7	17.5	6.05e-01	0	59	0	378011648	56	5892
2026-01-14 11:23:39.84	133.05	37.29	-43.0	-46.6	17.5	6.08e-01	0	59	0	385351680	56	5847
2026-01-14 11:23:43.88	132.15	38.35	-43.3	-47.2	16.9	6.05e-01	0	59	0	393216000	57	5917
2026-01-14 11:23:47.92	131.18	39.44	-43.4	-47.2	16.9	6.04e-01	0	59	0	400556032	57	5908
2026-01-14 11:23:51.95	130.15	40.55	-43.4	-47.3	16.8	6.08e-01	0	59	0	407896064	57	5963
2026-01-14 11:23:55.99	129.03	41.70	-43.2	-46.9	17.3	6.04e-01	0	59	0	415760384	57	5717
2026-01-14 11:24:00.03	127.83	42.86	-42.7	-46.1	18.1	6.06e-01	0	59	0	423100416	57	5188
2026-01-14 11:24:04.07	126.54	44.05	-43.1	-46.7	17.5	6.06e-01	0	59	0	430964736	57	5545
2026-01-14 11:24:08.11	125.14	45.27	-43.0	-46.6	17.6	6.05e-01	0	59	0	438304768	57	5499
2026-01-14 11:24:12.15	123.63	46.50	-43.1	-46.7	17.6	6.07e-01	0	59	0	446169088	57	5550
2026-01-14 11:24:16.19	122.00	47.75	-43.0	-46.6	17.6	6.09e-01	0	59	0	453509120	57	5493
2026-01-14 11:24:20.23	120.22	49.00	-43.0	-46.6	17.6	6.04e-01	0	59	0	461373440	57	5501
2026-01-14 11:24:24.27	118.29	50.27	-42.8	-46.2	18.0	6.08e-01	0	59	0	468713472	57	5252
2026-01-14 11:24:28.31	116.18	51.53	-42.5	-45.7	18.6	6.08e-01	0	59	0	476053504	57	4932
2026-01-14 11:24:32.35	113.89	52.78	-42.3	-45.4	18.9	6.06e-01	0	59	0	483917824	56	5063
2026-01-14 11:24:36.38	111.41	54.01	-42.4	-45.5	18.8	6.08e-01	0	59	0	491257856	56	5134
2026-01-14 11:24:40.42	108.69	55.21	-42.5	-45.7	18.6	6.07e-01	0	59	0	499122176	56	5265
2026-01-14 11:24:44.46	105.73	56.38	-42.7	-46.1	18.3	6.06e-01	0	59	0	506462208	56	5468
2026-01-14 11:24:48.50	102.52	57.48	-43.1	-46.7	17.5	6.06e-01	0	59	0	514326528	56	5914
2026-01-14 11:24:52.53	99.05	58.52	-43.1	-46.7	17.6	6.05e-01	0	59	0	521666560	57	5540
2026-01-14 11:24:56.57	95.30	59.46	-43.2	-46.9	17.5	6.05e-01	0	59	0	529530880	57	5680
2026-01-14 11:25:00.61	91.29	60.30	-43.5	-47.4	16.9	6.03e-01	0	59	0	536870912	57	6037
2026-01-14 11:25:04.64	87.03	61.02	-43.5	-47.3	17.0	6.06e-01	0	59	0	544210944	58	5656
2026-01-14 11:25:08.68	82.53	61.59	-43.5	-47.3	17.0	6.07e-01	0	59	0	552075264	58	5602
2026-01-14 11:25:12.72	77.85	62.01	-43.7	-47.9	16.5	6.07e-01	0	59	0	559415296	58	5994
2026-01-14 11:25:16.76	73.04	62.27	-44.0	-48.3	16.0	6.06e-01	0	59	0	567279616	58	6311
2026-01-14 11:25:20.80	68.16	62.35	-43.6	-47.7	16.7	6.05e-01	0	59	0	574619648	58	5873
2026-01-14 11:25:24.84	63.28	62.25	-43.8	-48.0	16.3	6.06e-01	0	59	0	582483968	58	6108
2026-01-14 11:25:28.88	58.48	61.98	-44.0	-48.3	15.9	6.05e-01	0	59	0	589824000	58	6341
2026-01-14 11:25:32.92	53.82	61.55	-43.7	-47.8	16.5	6.07e-01	0	59	0	597688320	58	5969
2026-01-14 11:25:36.96	49.35	60.96	-43.7	-47.8	16.6	6.05e-01	0	59	0	605028352	58	5925
2026-01-14 11:25:40.99	45.11	60.23	-43.9	-48.2	16.1	6.08e-01	0	59	0	612368384	58	6247
2026-01-14 11:25:45.03	41.13	59.39	-43.8	-48.0	16.4	6.05e-01	0	59	0	620232704	58	6062
2026-01-14 11:25:49.07	37.41	58.43	-43.8	-48.0	16.3	6.04e-01	0	59	0	627572736	58	6084
2026-01-14 11:25:53.11	33.96	57.40	-43.3	-47.1	17.2	6.06e-01	0	59	0	635437056	58	5472
2026-01-14 11:25:57.15	30.78	56.29	-42.6	-45.8	18.5	6.07e-01	0	59	0	642777088	57	5028
2026-01-14 11:26:01.19	27.85	55.12	-42.2	-45.1	19.1	6.05e-01	0	59	0	650641408	56	4922
2026-01-14 11:26:05.23	25.16	53.92	-41.8	-44.6	19.5	6.07e-01	0	59	0	657981440	55	4904
2026-01-14 11:26:09.27	22.68	52.69	-41.8	-44.7	19.5	6.07e-01	0	59	0	665845760	55	4952
2026-01-14 11:26:13.30	20.42	51.44	-41.9	-44.9	19.3	6.05e-01	0	60	0	673185792	55	5043
2026-01-14 11:26:17.34	18.34	50.19	-41.8	-44.7	19.4	6.03e-01	0	60	0	680525824	55	4934
2026-01-14 11:26:21.38	16.43	48.93	-42.0	-45.0	19.2	6.06e-01	0	59	0	688390144	55	5137
2026-01-14 11:26:25.42	14.67	47.68	-42.0	-45.0	19.0	6.07e-01	0	59	0	695730176	55	5156
2026-01-14 11:26:29.46	13.04	46.43	-42.4	-45.7	18.3	6.06e-01	0	59	0	703594496	55	5570
2026-01-14 11:26:33.49	11.55	45.21	-41.7	-44.8	18.7	6.08e-01	0	59	0	710934528	55	5032
2026-01-14 11:26:37.53	10.17	44.01	-42.1	-45.3	18.2	6.07e-01	0	59	0	718798848	55	5296
2026-01-14 11:26:41.57	8.89	42.82	-42.4	-45.6	18.4	6.03e-01	0	59	0	726138880	55	5524
2026-01-14 11:26:45.61	7.70	41.66	-42.9	-46.5	17.7	6.06e-01	0	60	0	734003200	56	5770
2026-01-14 11:26:49.65	6.59	40.52	-43.2	-47.0	17.1	6.07e-01	0	59	0	741343232	57	5767
2026-01-14 11:26:53.69	5.56	39.42	-43.4	-47.3	16.7	6.07e-01	0	59	0	748683264	57	5970
2026-01-14 11:26:57.72	4.61	38.34	-43.7	-48.1	16.1	6.08e-01	0	60	0	756547584	57	6512
2026-01-14 11:27:01.76	3.71	37.28	-43.2	-47.0	17.1	6.07e-01	0	60	0	763887616	58	5448
2026-01-14 11:27:05.80	2.87	36.25	-43.0	-46.6	17.5	6.08e-01	0	59	0	771751936	57	5476
2026-01-14 11:27:09.84	2.08	35.25	-42.8	-46.3	17.8	6.06e-01	0	60	0	779091968	57	5335
2026-01-14 11:27:13.87	1.35	34.28	-42.4	-45.6	18.4	6.05e-01	0	60	0	786956288	56	5215
2026-01-14 11:27:17.91	0.65	33.33	-42.2	-45.3	18.7	6.07e-01	0	60	0	794296320	56	5032
2026-01-14 11:27:21.95	0.00	32.41	-42.0	-45.1	18.7	6.07e-01	0	60	0	802160640	55	5168
2026-01-14 11:27:25.99	359.38	31.52	-41.9	-45.0	18.8	6.06e-01	0	59	0	809500672	55	5113
2026-01-14 11:27:30.03	358.80	30.65	-41.5	-44.6	19.3	6.07e-01	0	60	0	816840704	55	4886
2026-01-14 11:27:34.06	358.25	29.80	-41.8	-44.9	19.0	6.06e-01	0	60	0	824705024	55	5063
2026-01-14 11:27:38.10	357.73	28.98	-41.9	-45.0	18.9	6.08e-01	0	60	0	832045056	55	5120
2026-01-14 11:27:42.14	357.24	28.18	-41.8	-44.9	18.9	6.06e-01	0	60	0	839909376	55	5076
2026-01-14 11:27:46.18	356.77	27.40	-42.0	-45.2	18.6	6.07e-01	0	59	0	847249408	55	5233
2026-01-14 11:27:50.22	356.33	26.64	-42.0	-45.2	18.5	6.04e-01	0	60	0	855113728	55	5238
2026-01-14 11:27:54.26	355.91	25.91	-42.2	-45.6	18.1	6.06e-01	0	60	0	862453760	55	5485
2026-01-14 11:27:58.30	355.50	25.19	-42.2	-45.8	17.8	6.08e-01	0	60	0	870318080	55	5626
2026-01-14 11:28:02.34	355.12	24.49	-42.2	-45.8	17.7	6.06e-01	0	60	0	877658112	55	5595
2026-01-14 11:28:06.37	354.75	23.82	-42.1	-45.7	17.7	6.05e-01	0	60	0	884998144	55	5546
2026-01-14 11:28:10.41	354.41	23.15	-42.0	-45.6	17.7	6.08e-01	0	60	0	892862464	55	5484
2026-01-14 11:28:14.45	354.07	22.51	-41.9	-45.9	17.0	6.07e-01	0	60	0	900202496	55	5690
2026-01-14 11:28:18.49	353.75	21.88	-41.7	-46.1	16.2	6.08e-01	0	60	0	908066816	55	5845
2026-01-14 11:28:22.52	353.45	21.27	-41.7	-46.7	15.1	6.06e-01	0	60	0	915406848	54	6617
2026-01-14 11:28:26.56	353.16	20.67	-42.6	-52.7	8.3	6.43e-01	51	60	0	923271168	55	12380
2026-01-14 11:28:30.60	352.88	20.09	-42.5	-59.9	3.9	7.42e-01	0	60	104	925892608	55	28546
2026-01-14 11:28:34.64	352.61	19.52	-41.8	-60.7	3.8	7.48e-01	0	60	104	925892608	55	31115
2026-01-14 11:28:38.67	352.35	18.97	-41.6	-60.9	3.8	7.47e-01	0	60	104	925892608	55	31894
2026-01-14 11:28:42.71	352.10	18.42	-41.6	-60.9	3.8	7.47e-01	0	60	104	925892608	53	35934
2026-01-14 11:28:46.75	351.87	17.89	-41.5	-60.9	3.8	7.44e-01	0	60	104	925892608	54	33918
2026-01-14 11:28:50.79	351.64	17.37	-40.0	-60.9	3.8	7.51e-01	0	60	104	925892608	51	40199
2026-01-14 11:28:54.83	351.42	16.86	-41.0	-61.2	3.8	7.47e-01	0	60	104	925892608	53	37004
2026-01-14 11:28:58.87	351.20	16.37	-40.9	-61.2	3.8	7.48e-01	0	60	104	925892608	52	39166
2026-01-14 11:29:02.90	351.00	15.88	-40.1	-61.0	3.8	7.47e-01	0	60	104	925892608	50	43283
2026-01-14 11:29:06.94	350.80	15.41	-41.4	-61.0	3.8	7.45e-01	0	60	104	925892608	53	36324
2026-01-14 11:29:10.98	350.61	14.94	-41.6	-61.2	3.8	7.46e-01	0	60	104	925892608	54	35095
2026-01-14 11:29:15.02	350.43	14.48	-41.8	-61.0	3.8	7.45e-01	0	60	104	925892608	54	34148
2026-01-14 11:29:19.06	350.25	14.04	-41.2	-61.1	3.8	7.46e-01	0	60	104	925892608	54	34634
2026-01-14 11:29:23.10	350.08	13.60	-41.5	-60.9	3.8	7.46e-01	0	60	104	925892608	54	33864
2026-01-14 11:29:27.14	349.92	13.17	-41.8	-61.1	3.8	7.43e-01	0	60	104	925892608	54	34642
2026-01-14 11:29:31.18	349.76	12.74	-41.5	-60.9	3.8	7.43e-01	0	60	104	925892608	54	33711
2026-01-14 11:29:35.22	349.60	12.33	-41.8	-61.2	3.8	7.45e-01	0	60	104	925892608	54	34942
2026-01-14 11:29:39.26	349.46	11.92	-41.6	-60.8	3.8	7.49e-01	0	60	104	925892608	54	33459
2026-01-14 11:29:43.30	349.31	11.52	-41.4	-61.0	3.8	7.46e-01	0	60	104	925892608	54	34397
2026-01-14 11:29:47.34	349.17	11.13	-41.4	-61.1	3.8	7.47e-01	0	60	104	925892608	54	34549
2026-01-14 11:29:51.38	349.04	10.74	-41.5	-61.0	3.8	7.43e-01	0	60	104	925892608	54	34439
2026-01-14 11:29:55.41	348.91	10.36	-41.5	-61.1	3.8	7.45e-01	0	60	104	925892608	54	34501
2026-01-14 11:29:59.46	348.78	9.99	-41.8	-61.1	3.8	7.45e-01	0	60	104	925892608	54	34586
2026-01-14 11:30:03.49	348.65	9.62	-41.9	-61.1	3.8	7.46e-01	0	60	104	925892608	54	34615
2026-01-14 11:30:07.53	348.54	9.26	-41.9	-61.1	3.8	7.45e-01	0	60	104	925892608	54	34636
2026-01-14 11:30:11.58	348.42	8.90	-42.0	-61.0	3.8	7.47e-01	0	60	104	925892608	54	34453
2026-01-14 11:30:15.62	348.31	8.55	-41.9	-61.0	3.8	7.44e-01	0	60	104	925892608	54	34291
2026-01-14 11:30:19.65	348.20	8.21	-41.9	-61.0	3.8	7.47e-01	0	60	104	925892608	54	34384
2026-01-14 11:30:23.69	348.09	7.87	-41.9	-61.1	3.8	7.45e-01	0	60	104	925892608	54	34732
2026-01-14 11:30:27.73	347.99	7.53	-46.0	-64.7	3.8	7.49e-01	0	60	104	925892608	62	33112
2026-01-14 11:30:31.77	347.89	7.20	-46.1	-64.9	3.7	7.39e-01	0	60	104	925892608	63	31862
2026-01-14 11:30:35.81	347.79	6.88	-46.2	-64.8	3.8	7.44e-01	0	60	104	925892608	63	31739
2026-01-14 11:30:39.85	347.70	6.56	-46.2	-64.8	3.8	7.42e-01	0	60	104	925892608	63	31662
2026-01-14 11:30:43.89	347.60	6.24	-46.2	-64.8	3.8	7.46e-01	0	60	104	925892608	62	33464
2026-01-14 11:30:47.93	347.52	5.93	-46.1	-64.8	3.8	7.46e-01	0	60	104	925892608	62	33471
2026-01-14 11:30:51.98	347.43	5.62	-46.1	-64.8	3.8	7.48e-01	0	60	104	925892608	62	33433
2026-01-14 11:30:56.02	347.34	5.31	-46.1	-64.8	3.8	7.46e-01	0	60	104	925892608	62	33369
2026-01-14 11:31:00.06	347.26	5.01	-46.1	-64.8	3.8	7.46e-01	0	60	104	925892608	62	33401
2026-01-14 11:31:04.10	347.18	4.71	-46.1	-64.8	3.8	7.48e-01	0	60	104	925892608	62	33371
2026-01-14 11:31:08.15	347.10	4.42	-45.8	-64.7	3.8	7.43e-01	0	60	104	925892608	62	33169
2026-01-14 11:31:12.19	347.03	4.13	-46.1	-64.8	3.8	7.47e-01	0	60	104	925892608	62	33349
2026-01-14 11:31:16.22	346.95	3.84	-46.1	-64.7	3.8	7.44e-01	0	60	104	925892608	62	33238
2026-01-14 11:31:20.26	346.88	3.56	-46.0	-64.8	3.8	7.50e-01	0	60	104	925892608	62	33413
2026-01-14 11:31:24.30	346.81	3.28	-46.1	-64.8	3.8	7.44e-01	0	60	104	925892608	62	33396
2026-01-14 11:31:28.34	346.74	3.00	-46.1	-64.7	3.8	7.46e-01	0	60	104	925892608	62	33251
2026-01-14 11:31:32.38	346.68	2.72	-46.1	-64.7	3.8	7.46e-01	0	60	104	925892608	62	33240
2026-01-14 11:31:36.42	346.61	2.45	-46.1	-64.7	3.8	7.45e-01	0	60	104	925892608	62	33249
2026-01-14 11:31:40.46	346.55	2.18	-46.1	-64.7	3.8	7.44e-01	0	60	104	925892608	62	33309
2026-01-14 11:31:44.50	346.49	1.92	-46.1	-64.7	3.8	7.44e-01	0	60	104	925892608	62	33292

#Closed at: 2026-01-14 11:31:45
#Recorded file [925 MB]: D:/lorett/data/31039_260114_141900.dat