passes_logs/2026/01/14/R2.0S_Moscow/R2.0S_Moscow__20260114_091422_NOAA_21_JPSS-2_rec.log

#Pass ID: 20260114_091422_NOAA 21 (JPSS-2)
#Satellite: NOAA 21 (JPSS-2)
#Configuration: NOAA-21
#almurnet v.1.7.20251203
#Start time: 2026-01-14 09:14:22

#Version: 2.2.20231116
#Station: R2.0S_Moscow
#Location: 37.707566 lon 55.798166 lat
#TLE: 1 54234U 22150A   26013.18009385  .00000056  00000+0  47387-4 0  9997
#TLE: 2 54234  98.7496 314.1019 0000691 303.8246  56.2864 14.19534466164559

#Time	Az	El	Level	Level2	SNR	BER	BlckErr	Temp	State	Recorded	gain1	gain2
2026-01-14 09:14:22.68	140.82	2.03	-24.2	-39.1	3.6	1.52e+00	0	51	0	0	21	18432
2026-01-14 09:14:26.71	140.71	2.28	-39.6	-53.6	4.1	1.52e+00	0	52	104	0	33	48847
2026-01-14 09:14:30.75	140.60	2.54	-39.3	-53.6	4.3	1.51e+00	0	52	104	0	44	25960
2026-01-14 09:14:34.79	140.48	2.80	-36.2	-50.3	4.1	1.52e+00	0	52	104	0	43	18757
2026-01-14 09:14:38.83	140.36	3.07	-27.4	-43.9	4.5	1.51e+00	0	53	104	0	34	15066
2026-01-14 09:14:42.87	140.24	3.33	-26.1	-39.9	3.8	1.53e+00	0	53	104	0	24	17014
2026-01-14 09:14:46.90	140.12	3.60	-31.0	-47.5	4.4	1.52e+00	0	53	104	0	34	22838
2026-01-14 09:14:50.94	140.00	3.87	-28.8	-48.9	4.0	1.52e+00	0	54	104	0	31	31915
2026-01-14 09:14:54.98	139.87	4.14	-28.8	-45.8	4.4	1.51e+00	0	54	104	0	31	22277
2026-01-14 09:14:59.02	139.74	4.42	-25.5	-41.6	3.8	1.53e+00	0	54	104	0	28	16356
2026-01-14 09:15:03.06	139.60	4.70	-27.3	-41.4	4.2	1.53e+00	0	54	104	0	27	17034
2026-01-14 09:15:07.10	139.47	4.98	-41.3	-53.9	3.6	1.51e+00	0	55	104	0	47	22594
2026-01-14 09:15:11.15	139.33	5.26	-29.6	-45.1	4.2	1.51e+00	0	55	104	0	28	24674
2026-01-14 09:15:15.18	139.19	5.55	-35.9	-44.7	3.5	1.52e+00	0	55	104	0	26	26370
2026-01-14 09:15:19.22	139.04	5.84	-28.5	-43.1	3.5	1.53e+00	0	55	104	0	25	23134
2026-01-14 09:15:23.26	138.90	6.13	-27.2	-41.5	3.9	1.53e+00	0	55	104	0	26	18299
2026-01-14 09:15:27.29	138.75	6.42	-26.3	-42.5	3.4	1.52e+00	0	56	104	0	22	25597
2026-01-14 09:15:31.32	138.59	6.72	-41.2	-53.5	4.1	1.50e+00	0	56	104	0	51	17275
2026-01-14 09:15:35.36	138.43	7.03	-27.4	-48.6	4.2	1.51e+00	0	56	104	0	27	38739
2026-01-14 09:15:39.40	138.27	7.33	-33.0	-47.3	4.2	1.51e+00	0	56	104	0	47	10644
2026-01-14 09:15:43.44	138.11	7.64	-33.0	-47.5	3.9	1.52e+00	0	56	104	0	36	20511
2026-01-14 09:15:47.48	137.94	7.95	-40.5	-54.2	4.1	1.51e+00	0	56	104	0	49	20898
2026-01-14 09:15:51.51	137.77	8.27	-36.6	-53.0	4.0	1.51e+00	0	57	104	0	34	43348
2026-01-14 09:15:55.55	137.59	8.59	-34.2	-50.5	4.7	1.50e+00	0	57	104	0	43	19271
2026-01-14 09:15:59.59	137.41	8.91	-32.1	-49.4	3.8	1.49e+00	0	57	104	0	36	25544
2026-01-14 09:16:03.62	137.23	9.24	-24.7	-38.5	3.5	1.51e+00	0	57	104	0	23	15227
2026-01-14 09:16:07.66	137.04	9.57	-41.5	-54.5	3.0	1.50e+00	0	57	104	0	48	22856
2026-01-14 09:16:11.69	136.84	9.91	-27.9	-42.7	3.6	1.50e+00	0	57	104	0	34	13188
2026-01-14 09:16:15.73	136.64	10.25	-36.3	-47.4	3.9	1.49e+00	0	57	104	0	47	10771
2026-01-14 09:16:19.77	136.44	10.59	-36.8	-49.2	4.2	1.49e+00	0	58	104	0	45	14712
2026-01-14 09:16:23.80	136.23	10.94	-40.8	-51.3	3.9	1.49e+00	0	58	104	0	50	14116
2026-01-14 09:16:27.83	136.02	11.30	-36.6	-48.0	4.2	1.51e+00	0	58	104	0	31	28976
2026-01-14 09:16:31.87	135.80	11.66	-27.3	-39.5	4.9	8.95e-01	0	58	104	0	34	9169
2026-01-14 09:16:35.90	135.57	12.02	-29.4	-43.9	4.5	9.17e-01	0	58	104	2097152	45	8029
2026-01-14 09:16:39.94	135.34	12.39	-35.3	-40.7	4.5	1.43e+00	0	58	104	2097152	31	12501
2026-01-14 09:16:43.98	135.10	12.76	-21.1	-34.7	3.8	1.51e+00	0	58	104	2097152	14	16509
2026-01-14 09:16:48.01	134.86	13.14	-31.9	-44.2	3.8	1.46e+00	0	58	104	2097152	38	12414
2026-01-14 09:16:52.05	134.61	13.52	-33.0	-41.3	5.3	1.05e+00	7	58	0	2097152	40	7950
2026-01-14 09:16:56.09	134.35	13.92	-27.7	-41.5	4.8	1.50e+00	0	59	104	2097152	38	9130
2026-01-14 09:17:00.13	134.09	14.31	-29.6	-43.8	4.0	1.53e+00	0	58	104	2097152	31	17743
2026-01-14 09:17:04.16	133.82	14.71	-32.2	-46.1	4.5	1.46e+00	0	59	104	2097152	43	11550
2026-01-14 09:17:08.20	133.54	15.12	-26.8	-41.1	4.4	9.96e-01	0	58	104	2097152	32	12345
2026-01-14 09:17:12.24	133.25	15.54	-35.0	-44.4	4.1	9.19e-01	0	59	104	2097152	39	12035
2026-01-14 09:17:16.28	132.95	15.96	-41.4	-45.1	10.1	1.19e-01	0	59	0	10485760	53	5821
2026-01-14 09:17:20.32	132.65	16.38	-41.1	-44.9	10.4	6.94e-03	0	59	0	24117248	53	5675
2026-01-14 09:17:24.36	132.34	16.82	-40.7	-43.8	11.6	7.27e-03	0	59	0	36700160	52	5288
2026-01-14 09:17:28.40	132.01	17.26	-40.7	-43.6	11.9	1.56e-03	0	59	0	49283072	52	5190
2026-01-14 09:17:32.44	131.68	17.71	-39.4	-43.1	10.7	1.25e-01	0	59	0	61865984	50	5477
2026-01-14 09:17:36.48	131.33	18.16	-39.7	-43.2	12.3	4.27e-03	0	59	0	74448896	51	5249
2026-01-14 09:17:40.52	130.98	18.62	-40.2	-43.4	12.2	5.61e-04	0	59	0	87031808	51	5378
2026-01-14 09:17:44.55	130.61	19.09	-40.5	-43.3	12.4	7.04e-04	0	59	0	99614720	51	5299
2026-01-14 09:17:48.59	130.24	19.57	-40.5	-43.2	12.5	6.13e-04	0	59	0	112197632	51	5232
2026-01-14 09:17:52.63	129.85	20.06	-40.4	-42.9	12.9	1.29e-04	0	59	0	124780544	51	5092
2026-01-14 09:17:56.67	129.44	20.55	-40.2	-42.8	12.7	2.30e-04	0	60	0	137363456	51	4994
2026-01-14 09:18:00.71	129.03	21.05	-40.0	-42.5	13.1	6.46e-03	0	59	0	149946368	50	5143
2026-01-14 09:18:04.75	128.60	21.56	-39.9	-42.2	13.6	3.63e-04	0	60	0	162529280	50	4977
2026-01-14 09:18:08.79	128.15	22.08	-39.8	-42.2	13.7	2.59e-05	0	59	0	175112192	50	4963
2026-01-14 09:18:12.83	127.69	22.61	-39.7	-42.0	14.0	1.75e-05	0	59	0	187695104	50	4825
2026-01-14 09:18:16.87	127.21	23.15	-39.5	-41.8	14.0	3.73e-05	0	60	0	200278016	50	4734
2026-01-14 09:18:20.91	126.72	23.70	-39.6	-41.8	14.2	3.00e-06	0	59	0	212860928	50	4740
2026-01-14 09:18:24.95	126.20	24.25	-39.6	-41.8	14.2	2.82e-05	0	60	0	225443840	50	4737
2026-01-14 09:18:28.99	125.67	24.82	-39.6	-41.8	14.1	3.80e-06	0	60	0	238026752	50	4752
2026-01-14 09:18:33.03	125.12	25.39	-39.8	-42.1	14.0	1.50e-06	0	60	0	250609664	50	4890
2026-01-14 09:18:37.07	124.55	25.98	-40.0	-42.3	13.7	1.50e-06	0	60	0	263192576	50	5037
2026-01-14 09:18:41.11	123.95	26.57	-40.1	-42.5	13.6	6.10e-06	0	60	0	275775488	50	5110
2026-01-14 09:18:45.15	123.33	27.17	-40.3	-42.7	13.4	1.37e-05	0	60	0	288358400	51	4972
2026-01-14 09:18:49.19	122.69	27.79	-40.3	-42.6	13.4	1.06e-05	0	60	0	300941312	51	4904
2026-01-14 09:18:53.23	122.02	28.41	-40.5	-43.0	13.1	2.67e-05	0	60	0	313524224	51	5108
2026-01-14 09:18:57.27	121.33	29.04	-40.4	-42.8	13.3	2.13e-05	0	60	0	326107136	51	5029
2026-01-14 09:19:01.31	120.61	29.68	-40.3	-42.6	13.5	1.29e-05	0	60	0	339738624	51	4912
2026-01-14 09:19:05.35	119.85	30.33	-40.5	-42.9	13.1	3.50e-05	0	60	0	352321536	51	5089
2026-01-14 09:19:09.39	119.07	30.99	-40.5	-43.0	13.0	4.11e-05	0	60	0	364904448	51	5150
2026-01-14 09:19:13.43	118.25	31.66	-40.6	-43.1	13.0	4.19e-05	0	60	0	377487360	51	5206
2026-01-14 09:19:17.47	117.40	32.34	-40.7	-43.2	12.8	6.71e-05	0	60	0	390070272	52	4981
2026-01-14 09:19:21.51	116.51	33.02	-40.7	-43.2	12.8	7.40e-05	0	60	0	402653184	52	4978
2026-01-14 09:19:25.55	115.58	33.72	-40.8	-43.4	12.6	9.00e-05	0	60	0	415236096	52	5089
2026-01-14 09:19:29.60	114.61	34.42	-40.9	-43.6	12.4	1.31e-04	0	60	0	427819008	52	5190
2026-01-14 09:19:33.64	113.60	35.12	-41.1	-44.0	12.1	2.70e-04	0	60	0	440401920	52	5408
2026-01-14 09:19:37.68	112.54	35.83	-41.2	-44.1	11.9	2.84e-04	0	60	0	452984832	52	5473
2026-01-14 09:19:41.72	111.43	36.55	-41.5	-44.5	11.5	7.97e-04	0	60	0	465567744	53	5451
2026-01-14 09:19:45.76	110.28	37.27	-41.6	-44.7	11.3	3.28e-03	0	60	0	478150656	53	5565
2026-01-14 09:19:49.80	109.07	37.98	-41.6	-44.7	11.3	1.02e-03	0	60	0	490733568	53	5574
2026-01-14 09:19:53.84	107.81	38.70	-41.4	-44.5	11.6	7.43e-04	0	60	0	503316480	53	5405
2026-01-14 09:19:57.88	106.49	39.42	-41.2	-44.0	12.1	3.08e-04	0	60	0	515899392	53	5116
2026-01-14 09:20:01.91	105.12	40.13	-41.6	-44.7	11.4	7.79e-04	0	61	0	528482304	53	5535
2026-01-14 09:20:05.95	103.68	40.84	-41.8	-45.0	11.1	1.57e-03	0	60	0	541065216	54	5446
2026-01-14 09:20:09.99	102.17	41.54	-42.2	-45.8	10.3	5.79e-03	0	61	0	553648128	55	5602
2026-01-14 09:20:14.04	100.60	42.24	-42.3	-45.9	10.1	6.82e-03	0	61	0	566231040	55	5719
2026-01-14 09:20:18.07	98.96	42.91	-42.6	-46.5	9.6	1.25e-02	0	60	0	578813952	55	6106
2026-01-14 09:20:22.11	97.25	43.57	-42.2	-45.6	10.5	4.64e-03	0	60	0	591396864	55	5515
2026-01-14 09:20:26.15	95.47	44.22	-42.4	-46.1	10.0	6.68e-03	0	60	0	603979776	55	5804
2026-01-14 09:20:30.19	93.62	44.84	-42.3	-45.9	10.1	5.51e-03	0	61	0	616562688	55	5718
2026-01-14 09:20:34.23	91.69	45.44	-41.8	-45.0	11.2	1.98e-03	0	60	0	629145600	55	5147
2026-01-14 09:20:38.27	89.69	46.00	-42.0	-45.3	10.9	2.54e-03	0	60	0	641728512	55	5336
2026-01-14 09:20:42.31	87.62	46.54	-42.3	-45.9	10.2	5.15e-03	0	61	0	655360000	55	5700
2026-01-14 09:20:46.35	85.48	47.04	-42.2	-45.6	10.6	3.50e-03	0	61	0	667942912	55	5471
2026-01-14 09:20:50.40	83.27	47.50	-42.2	-45.6	10.5	3.86e-03	0	61	0	680525824	55	5518
2026-01-14 09:20:54.44	81.00	47.91	-42.6	-46.5	9.6	1.26e-02	0	61	0	693108736	55	6080
2026-01-14 09:20:58.48	78.68	48.28	-42.0	-45.2	11.0	2.24e-03	0	61	0	705691648	55	5260
2026-01-14 09:21:02.52	76.30	48.60	-42.1	-45.5	10.8	3.28e-03	0	61	0	718274560	55	5410
2026-01-14 09:21:06.56	73.87	48.87	-42.2	-45.6	10.6	2.62e-03	0	61	0	730857472	55	5510
2026-01-14 09:21:10.60	71.41	49.08	-42.1	-45.3	10.9	2.42e-03	0	61	0	743440384	55	5336
2026-01-14 09:21:14.65	68.91	49.23	-41.9	-45.0	11.2	1.27e-03	0	61	0	756023296	55	5112
2026-01-14 09:21:18.69	66.40	49.33	-41.5	-44.4	11.8	5.91e-04	0	61	0	768606208	55	4807
2026-01-14 09:21:22.73	63.88	49.37	-41.9	-45.1	11.2	1.56e-03	0	61	0	781189120	55	5162
2026-01-14 09:21:26.77	61.35	49.34	-41.6	-44.5	11.8	4.68e-04	0	61	0	793772032	54	5139
2026-01-14 09:21:30.81	58.84	49.26	-41.9	-45.1	11.2	1.23e-03	0	61	0	806354944	54	5471
2026-01-14 09:21:34.85	56.34	49.12	-42.2	-45.5	10.7	3.60e-03	0	61	0	818937856	54	5786
2026-01-14 09:21:38.89	53.87	48.92	-42.0	-45.3	10.9	3.06e-03	0	61	0	831520768	55	5332
2026-01-14 09:21:42.93	51.44	48.67	-42.1	-45.5	10.8	3.06e-03	0	61	0	844103680	55	5419
2026-01-14 09:21:46.97	49.05	48.37	-41.9	-45.0	11.1	1.31e-03	0	61	0	856686592	55	5142
2026-01-14 09:21:51.00	46.72	48.01	-41.6	-44.6	11.6	6.10e-04	0	61	0	869269504	55	4897
2026-01-14 09:21:55.04	44.44	47.61	-41.3	-44.1	12.1	3.79e-04	0	61	0	881852416	54	4912
2026-01-14 09:21:59.08	42.23	47.16	-42.6	-46.4	9.7	6.81e-03	0	61	0	894435328	55	6014
2026-01-14 09:22:03.12	40.07	46.67	-41.5	-44.4	11.8	5.28e-04	0	61	0	907018240	55	4790
2026-01-14 09:22:07.16	37.99	46.15	-42.5	-46.3	9.7	1.11e-02	0	61	0	919601152	55	5943
2026-01-14 09:22:11.20	35.98	45.59	-41.8	-44.9	11.2	1.07e-03	0	61	0	932184064	55	5092
2026-01-14 09:22:15.24	34.04	45.01	-42.5	-46.0	10.0	1.29e-02	0	61	0	945815552	56	5460
2026-01-14 09:22:19.28	32.17	44.39	-41.8	-44.9	11.1	7.88e-04	0	61	0	958398464	54	5397
2026-01-14 09:22:23.32	30.38	43.76	-42.7	-46.5	9.6	1.58e-02	0	61	0	970981376	56	5736
2026-01-14 09:22:27.36	28.65	43.10	-43.3	-47.9	8.3	3.63e-02	0	61	0	983564288	57	6358
2026-01-14 09:22:31.40	27.00	42.43	-42.4	-46.0	10.3	6.99e-03	0	61	0	996147200	56	5408
2026-01-14 09:22:35.45	25.41	41.74	-42.1	-45.5	10.6	2.27e-03	0	61	0	1008730112	54	5742
2026-01-14 09:22:39.49	23.89	41.05	-42.4	-45.9	10.2	8.74e-03	0	61	0	1021313024	56	5353
2026-01-14 09:22:43.53	22.44	40.34	-41.9	-45.2	10.9	2.06e-03	0	61	0	1033895936	55	5263
2026-01-14 09:22:47.57	21.05	39.63	-42.9	-46.9	9.2	2.11e-02	0	61	0	1046478848	56	6055
2026-01-14 09:22:51.61	19.72	38.92	-41.8	-45.1	10.9	2.20e-03	0	61	0	1059061760	55	5203
2026-01-14 09:22:55.65	18.45	38.20	-42.4	-46.1	9.9	1.00e-02	0	61	0	1071644672	55	5843
2026-01-14 09:22:59.69	17.23	37.49	-41.6	-44.8	11.2	1.62e-03	0	61	0	1084227584	55	5028
2026-01-14 09:23:03.73	16.07	36.77	-41.2	-44.0	12.0	2.69e-04	0	61	0	1096810496	54	4863
2026-01-14 09:23:07.77	14.96	36.06	-41.2	-44.1	12.0	5.42e-04	0	61	0	1109393408	54	4887
2026-01-14 09:23:11.81	13.89	35.35	-40.9	-43.6	12.5	9.53e-05	0	61	0	1121976320	52	5160
2026-01-14 09:23:15.85	12.87	34.65	-40.9	-43.6	12.5	1.56e-04	0	61	0	1134559232	52	5160
2026-01-14 09:23:19.89	11.90	33.95	-40.9	-43.7	12.3	1.61e-04	0	61	0	1147142144	52	5234
2026-01-14 09:23:23.94	10.96	33.26	-40.8	-43.5	12.5	1.23e-04	0	61	0	1159725056	52	5115
2026-01-14 09:23:27.98	10.06	32.57	-41.1	-44.0	12.0	2.97e-04	0	61	0	1172307968	52	5426
2026-01-14 09:23:32.01	9.21	31.90	-40.8	-43.4	12.5	1.20e-04	0	61	0	1184890880	52	5090
2026-01-14 09:23:36.06	8.38	31.23	-40.9	-43.6	12.4	1.40e-04	0	61	0	1197473792	52	5208
2026-01-14 09:23:40.10	7.59	30.57	-40.7	-43.4	12.6	1.06e-04	0	61	0	1210056704	52	5070
2026-01-14 09:23:44.14	6.84	29.92	-40.6	-43.2	12.8	5.64e-05	0	61	0	1222639616	52	4950
2026-01-14 09:23:48.18	6.11	29.28	-40.7	-43.3	12.6	1.01e-04	0	61	0	1235222528	52	5019
2026-01-14 09:23:52.22	5.41	28.65	-40.4	-43.0	12.9	4.34e-05	0	61	0	1247805440	52	4828
2026-01-14 09:23:56.26	4.74	28.03	-40.5	-43.0	12.9	5.34e-05	0	61	0	1261436928	52	4853
2026-01-14 09:24:00.30	4.10	27.41	-40.3	-42.8	13.0	3.35e-05	0	61	0	1274019840	52	4746
2026-01-14 09:24:04.34	3.48	26.81	-40.3	-42.7	13.1	2.36e-05	0	61	0	1286602752	52	4693
2026-01-14 09:24:08.38	2.88	26.22	-40.1	-42.4	13.4	9.10e-06	0	61	0	1299185664	52	4543
2026-01-14 09:24:12.42	2.30	25.63	-40.1	-42.4	13.4	1.14e-05	0	61	0	1311768576	51	4801
2026-01-14 09:24:16.46	1.75	25.06	-40.1	-42.4	13.4	1.06e-05	0	61	0	1324351488	51	4803
2026-01-14 09:24:20.50	1.22	24.49	-40.3	-42.7	13.0	3.73e-05	0	61	0	1336934400	51	4973
2026-01-14 09:24:24.53	0.70	23.94	-40.3	-42.8	12.9	4.80e-05	0	61	0	1349517312	51	5019
2026-01-14 09:24:28.57	0.21	23.39	-40.4	-43.0	12.5	2.91e-04	0	61	0	1362100224	51	5135
2026-01-14 09:24:32.61	359.73	22.86	-40.3	-42.9	12.6	1.29e-04	0	61	0	1374683136	51	5098
2026-01-14 09:24:36.65	359.27	22.33	-40.3	-42.9	12.7	9.68e-05	0	61	0	1387266048	51	5051
2026-01-14 09:24:40.69	358.82	21.81	-40.3	-43.0	12.5	1.33e-04	0	61	0	1399848960	51	5143
2026-01-14 09:24:44.73	358.39	21.30	-40.3	-43.1	12.4	1.64e-04	0	61	0	1412431872	51	5168
2026-01-14 09:24:48.77	357.97	20.79	-40.2	-42.9	12.3	1.83e-04	0	61	0	1425014784	51	5064
2026-01-14 09:24:52.81	357.57	20.30	-39.8	-42.5	12.4	1.54e-04	0	61	0	1437597696	51	4842
2026-01-14 09:24:56.85	357.18	19.81	-39.4	-42.1	12.5	1.39e-04	0	61	0	1450180608	50	4876
2026-01-14 09:25:00.89	356.80	19.34	-39.4	-42.1	12.3	1.95e-04	0	61	0	1462763520	50	4891
2026-01-14 09:25:04.93	356.43	18.87	-40.0	-43.5	10.5	3.10e-03	0	61	0	1475346432	50	5747
2026-01-14 09:25:08.97	356.08	18.40	-40.9	-46.4	7.0	1.47e-01	0	61	0	1487929344	52	7187
2026-01-14 09:25:13.01	355.74	17.95	-41.2	-49.6	4.5	1.44e+00	0	61	104	1499463680	53	9804
2026-01-14 09:25:17.04	355.40	17.50	-40.8	-53.5	3.8	1.49e+00	0	61	104	1499463680	53	15326
2026-01-14 09:25:21.08	355.08	17.06	-41.7	-53.1	3.8	1.49e+00	0	61	104	1499463680	54	13779
2026-01-14 09:25:25.12	354.77	16.63	-41.3	-53.5	3.8	1.49e+00	0	61	104	1499463680	54	14540
2026-01-14 09:25:29.16	354.46	16.20	-40.6	-53.1	3.8	1.49e+00	0	61	104	1499463680	53	14681
2026-01-14 09:25:33.19	354.17	15.78	-40.5	-53.0	3.8	1.49e+00	0	61	104	1499463680	52	15385
2026-01-14 09:25:37.23	353.88	15.36	-40.3	-53.1	3.8	1.49e+00	0	61	104	1499463680	52	15525
2026-01-14 09:25:41.27	353.60	14.95	-40.5	-53.0	3.8	1.49e+00	0	61	104	1499463680	52	15309
2026-01-14 09:25:45.31	353.33	14.55	-40.5	-53.1	3.8	1.49e+00	0	61	104	1499463680	52	15503
2026-01-14 09:25:49.35	353.07	14.16	-40.7	-53.2	3.8	1.49e+00	0	61	104	1499463680	52	15616
2026-01-14 09:25:53.39	352.82	13.77	-40.8	-53.2	3.8	1.49e+00	0	62	104	1499463680	52	15626
2026-01-14 09:25:57.42	352.57	13.38	-40.6	-53.1	3.8	1.49e+00	0	62	104	1499463680	52	15472
2026-01-14 09:26:01.46	352.33	13.00	-40.6	-53.1	3.8	1.49e+00	0	62	104	1499463680	52	15525
2026-01-14 09:26:05.51	352.09	12.63	-40.5	-53.0	3.8	1.49e+00	0	61	104	1499463680	52	15275
2026-01-14 09:26:09.55	351.86	12.26	-40.6	-53.0	3.8	1.49e+00	0	62	104	1499463680	52	15362
2026-01-14 09:26:13.58	351.64	11.89	-40.6	-53.0	3.8	1.49e+00	0	62	104	1499463680	52	15322
2026-01-14 09:26:17.62	351.42	11.54	-40.7	-53.1	3.8	1.49e+00	0	61	104	1499463680	52	15514
2026-01-14 09:26:21.66	351.21	11.18	-40.7	-53.1	3.8	1.49e+00	0	62	104	1499463680	52	15567
2026-01-14 09:26:25.69	351.00	10.83	-40.4	-52.9	3.8	1.49e+00	0	61	104	1499463680	52	15148
2026-01-14 09:26:29.72	350.80	10.49	-40.6	-53.1	3.8	1.49e+00	0	62	104	1499463680	52	15516
2026-01-14 09:26:33.76	350.61	10.15	-40.7	-53.1	3.8	1.49e+00	0	62	104	1499463680	52	15505
2026-01-14 09:26:37.80	350.42	9.81	-40.6	-53.0	3.8	1.49e+00	0	62	104	1499463680	52	15331
2026-01-14 09:26:41.84	350.23	9.48	-40.8	-53.2	3.8	1.49e+00	0	62	104	1499463680	52	15646
2026-01-14 09:26:45.88	350.05	9.15	-40.8	-53.1	3.8	1.49e+00	0	62	104	1499463680	52	15565
2026-01-14 09:26:49.91	349.87	8.83	-40.5	-53.0	3.8	1.49e+00	0	62	104	1499463680	52	15286
2026-01-14 09:26:53.95	349.70	8.51	-40.8	-53.1	3.8	1.49e+00	0	62	104	1499463680	52	15544
2026-01-14 09:26:57.98	349.53	8.19	-40.6	-53.0	3.8	1.49e+00	0	61	104	1499463680	52	15331
2026-01-14 09:27:02.02	349.36	7.88	-41.2	-53.5	3.8	1.49e+00	0	62	104	1499463680	52	16289
2026-01-14 09:27:06.06	349.20	7.57	-45.1	-57.5	3.8	1.49e+00	0	62	104	1499463680	60	16138
2026-01-14 09:27:10.10	349.04	7.26	-45.2	-57.6	3.8	1.49e+00	0	62	104	1499463680	61	15510
2026-01-14 09:27:14.15	348.89	6.96	-45.2	-57.5	3.8	1.49e+00	0	62	104	1499463680	60	16162
2026-01-14 09:27:18.19	348.74	6.66	-45.1	-57.4	3.8	1.49e+00	0	61	104	1499463680	60	15978
2026-01-14 09:27:22.23	348.59	6.36	-45.1	-57.4	3.8	1.49e+00	0	62	104	1499463680	60	16058
2026-01-14 09:27:26.27	348.45	6.07	-45.1	-57.4	3.8	1.49e+00	0	62	104	1499463680	60	16065
2026-01-14 09:27:30.32	348.31	5.78	-45.1	-57.4	3.8	1.49e+00	0	62	104	1499463680	60	15989
2026-01-14 09:27:34.36	348.17	5.49	-45.1	-57.3	3.8	1.49e+00	0	61	104	1499463680	60	15941
2026-01-14 09:27:38.40	348.03	5.21	-45.1	-57.4	3.8	1.49e+00	0	62	104	1499463680	60	15985
2026-01-14 09:27:42.44	347.90	4.93	-45.1	-57.4	3.8	1.49e+00	0	62	104	1499463680	60	15971
2026-01-14 09:27:46.48	347.77	4.65	-45.1	-57.4	3.8	1.49e+00	0	62	104	1499463680	60	15960
2026-01-14 09:27:50.52	347.65	4.37	-45.1	-57.4	3.8	1.49e+00	0	62	104	1499463680	60	15955
2026-01-14 09:27:54.57	347.52	4.10	-45.1	-57.3	3.8	1.49e+00	0	61	104	1499463680	60	15942
2026-01-14 09:27:58.61	347.40	3.83	-45.1	-57.4	3.8	1.49e+00	0	62	104	1499463680	60	15973
2026-01-14 09:28:02.64	347.28	3.56	-45.0	-57.4	3.8	1.49e+00	0	62	104	1499463680	60	15947
2026-01-14 09:28:06.69	347.17	3.30	-45.0	-57.4	3.8	1.49e+00	0	62	104	1499463680	60	15957
2026-01-14 09:28:10.73	347.05	3.03	-45.1	-57.4	3.8	1.49e+00	0	62	104	1499463680	60	15959
2026-01-14 09:28:14.77	346.94	2.77	-45.1	-57.4	3.8	1.49e+00	0	62	104	1499463680	60	15959
2026-01-14 09:28:18.82	346.83	2.52	-45.1	-57.3	3.8	1.49e+00	0	62	104	1499463680	60	15877
2026-01-14 09:28:22.86	346.73	2.26	-44.6	-57.3	3.8	1.49e+00	0	62	104	1499463680	60	15877
2026-01-14 09:28:26.89	346.62	2.01	-45.0	-57.4	3.8	1.49e+00	0	62	104	1499463680	60	15945

#Closed at: 2026-01-14 09:28:28
#Recorded file [1499 MB]: D:/lorett/data/31039_260114_121422.dat