passes_logs/2026/01/14/R2.0S_Moscow/R2.0S_Moscow__20260114_014515_AQUA_rec.log

#Pass ID: 20260114_014515_AQUA
#Satellite: AQUA
#Configuration: AQUA
#almurnet v.1.7.20251203
#Start time: 2026-01-14 01:46:08

#Version: 2.2.20231116
#Station: R2.0S_Moscow
#Location: 37.707566 lon 55.798166 lat
#TLE: 1 27424U 02022A   26013.25278823  .00000890  00000+0  18808-3 0  9998
#TLE: 2 27424  98.4079 339.6508 0002047  80.3961  24.1839 14.61818714260637

#Time	Az	El	Level	Level2	SNR	BER	BlckErr	Temp	State	Recorded	gain1	gain2
2026-01-14 01:46:08.98	12.07	5.76	-45.1	-59.5	3.8	1.49e+00	0	60	0	0	61	19293
2026-01-14 01:46:12.01	11.99	5.99	-46.4	-65.1	3.8	7.44e-01	0	61	104	0	63	32622
2026-01-14 01:46:15.04	11.91	6.22	-46.1	-64.8	3.8	7.43e-01	0	61	104	0	63	31447
2026-01-14 01:46:18.07	11.83	6.46	-44.5	-63.1	3.8	7.49e-01	0	61	104	0	61	29113
2026-01-14 01:46:21.11	11.75	6.70	-42.6	-60.5	3.8	7.46e-01	0	61	104	0	57	27278
2026-01-14 01:46:24.14	11.67	6.94	-42.6	-61.3	3.8	7.42e-01	0	61	104	0	57	29708
2026-01-14 01:46:27.17	11.58	7.18	-42.6	-61.3	3.8	7.44e-01	0	61	104	0	57	29825
2026-01-14 01:46:30.20	11.50	7.43	-42.6	-61.5	3.8	7.45e-01	0	61	104	0	57	30408
2026-01-14 01:46:33.24	11.41	7.68	-42.6	-60.4	3.8	7.44e-01	0	61	104	0	57	27042
2026-01-14 01:46:36.27	11.32	7.93	-42.5	-59.8	3.8	7.44e-01	0	61	104	0	57	25207
2026-01-14 01:46:39.30	11.22	8.19	-42.5	-58.8	4.0	7.43e-01	0	61	104	0	57	22340
2026-01-14 01:46:42.33	11.13	8.45	-42.4	-57.0	4.5	7.23e-01	0	61	104	0	56	19361
2026-01-14 01:46:45.36	11.03	8.71	-42.5	-59.6	3.8	7.43e-01	0	61	104	0	56	25950
2026-01-14 01:46:48.40	10.93	8.97	-42.5	-60.8	3.8	7.44e-01	0	61	104	0	56	29716
2026-01-14 01:46:51.43	10.83	9.24	-42.5	-58.6	3.9	7.42e-01	0	61	104	0	56	23056
2026-01-14 01:46:54.46	10.73	9.51	-42.4	-55.8	5.1	7.12e-01	0	61	0	0	56	16788
2026-01-14 01:46:57.49	10.62	9.78	-42.3	-54.5	5.9	6.90e-01	92	61	0	2621440	56	14496
2026-01-14 01:47:00.53	10.52	10.06	-42.3	-55.1	5.5	6.95e-01	0	61	0	5242880	56	15549
2026-01-14 01:47:03.56	10.41	10.33	-42.4	-53.0	7.3	6.57e-01	90	61	0	7340032	56	12184
2026-01-14 01:47:06.59	10.29	10.62	-42.8	-54.3	6.0	6.75e-01	37	61	104	9437184	56	14125
2026-01-14 01:47:09.62	10.18	10.90	-42.5	-52.5	8.0	6.46e-01	85	61	0	12582912	55	12194
2026-01-14 01:47:12.65	10.06	11.19	-42.4	-50.9	10.0	6.22e-01	0	61	0	17825792	55	10061
2026-01-14 01:47:15.68	9.94	11.49	-42.4	-49.0	12.4	6.07e-01	0	61	0	23592960	55	8166
2026-01-14 01:47:18.71	9.81	11.78	-41.8	-47.1	14.5	6.02e-01	0	61	0	29360128	55	6500
2026-01-14 01:47:21.74	9.69	12.09	-41.4	-46.0	15.6	6.06e-01	0	61	0	35127296	54	6121
2026-01-14 01:47:24.78	9.56	12.39	-41.1	-45.2	16.5	6.04e-01	0	61	0	40894464	54	5565
2026-01-14 01:47:27.81	9.42	12.70	-41.1	-45.1	16.9	6.04e-01	0	61	0	46661632	54	5492
2026-01-14 01:47:30.83	9.29	13.02	-41.1	-44.9	17.3	6.03e-01	0	61	0	52428800	54	5352
2026-01-14 01:47:33.86	9.15	13.33	-41.0	-44.6	17.8	6.04e-01	0	61	0	57671680	53	5471
2026-01-14 01:47:36.89	9.00	13.66	-41.2	-44.7	17.8	6.05e-01	0	61	0	63438848	53	5545
2026-01-14 01:47:39.92	8.85	13.98	-41.0	-44.4	18.2	6.04e-01	0	61	0	69206016	53	5352
2026-01-14 01:47:42.95	8.70	14.32	-41.0	-44.3	18.4	6.03e-01	0	61	0	74973184	53	5282
2026-01-14 01:47:45.98	8.55	14.65	-41.0	-44.2	18.5	6.04e-01	0	61	0	80740352	53	5236
2026-01-14 01:47:49.01	8.39	15.00	-41.0	-44.1	18.7	6.02e-01	0	61	0	85983232	53	5191
2026-01-14 01:47:52.04	8.22	15.34	-40.9	-44.0	18.9	6.02e-01	0	61	0	91750400	53	5117
2026-01-14 01:47:55.07	8.06	15.70	-40.9	-43.9	19.0	6.04e-01	0	61	0	97517568	53	5095
2026-01-14 01:47:58.10	7.88	16.05	-40.9	-43.9	19.1	6.03e-01	0	61	0	103284736	53	5047
2026-01-14 01:48:01.13	7.71	16.42	-40.9	-43.8	19.2	6.03e-01	0	61	0	109051904	53	5022
2026-01-14 01:48:04.16	7.52	16.79	-40.9	-43.8	19.2	6.03e-01	0	61	0	114819072	53	5033
2026-01-14 01:48:07.19	7.33	17.16	-41.0	-43.9	19.2	6.06e-01	0	61	0	120586240	53	5093
2026-01-14 01:48:10.21	7.14	17.54	-41.1	-44.0	19.2	6.05e-01	0	61	0	125829120	53	5142
2026-01-14 01:48:13.24	6.94	17.93	-41.2	-44.2	19.1	6.03e-01	0	61	0	131596288	53	5239
2026-01-14 01:48:16.27	6.74	18.33	-41.2	-44.2	19.1	6.03e-01	0	61	0	137363456	53	5228
2026-01-14 01:48:19.30	6.53	18.73	-41.0	-43.9	19.4	6.04e-01	0	61	0	143130624	53	5072
2026-01-14 01:48:22.33	6.31	19.14	-41.0	-43.8	19.6	6.06e-01	0	61	0	148897792	53	4996
2026-01-14 01:48:25.36	6.09	19.55	-40.9	-43.7	19.7	6.03e-01	0	61	0	154140672	53	4938
2026-01-14 01:48:28.38	5.86	19.97	-41.0	-43.8	19.6	6.01e-01	0	61	0	159907840	53	5017
2026-01-14 01:48:31.41	5.62	20.40	-41.2	-44.0	19.4	6.02e-01	0	61	0	165675008	53	5147
2026-01-14 01:48:34.44	5.38	20.84	-41.3	-44.2	19.3	6.04e-01	0	61	0	171442176	53	5223
2026-01-14 01:48:37.46	5.12	21.28	-41.3	-44.2	19.3	6.04e-01	0	61	0	177209344	53	5224
2026-01-14 01:48:40.50	4.86	21.74	-41.4	-44.4	19.1	6.03e-01	0	61	0	182976512	53	5353
2026-01-14 01:48:43.53	4.59	22.20	-41.4	-44.3	19.2	6.02e-01	0	61	0	188219392	53	5334
2026-01-14 01:48:46.56	4.31	22.67	-41.3	-44.2	19.3	6.04e-01	0	61	0	193986560	53	5233
2026-01-14 01:48:49.59	4.02	23.15	-41.4	-44.3	19.2	6.04e-01	0	61	0	199753728	53	5324
2026-01-14 01:48:52.62	3.73	23.64	-41.5	-44.5	19.1	6.01e-01	0	61	0	205520896	53	5416
2026-01-14 01:48:55.65	3.42	24.14	-41.4	-44.3	19.3	6.05e-01	0	61	0	211288064	53	5294
2026-01-14 01:48:58.68	3.10	24.65	-41.2	-43.9	19.7	6.03e-01	0	61	0	217055232	53	5094
2026-01-14 01:49:01.71	2.77	25.16	-41.2	-44.1	19.5	6.04e-01	0	61	0	222298112	53	5179
2026-01-14 01:49:04.73	2.43	25.69	-41.5	-44.5	19.1	6.03e-01	0	61	0	228065280	53	5448
2026-01-14 01:49:07.76	2.07	26.23	-41.4	-44.3	19.4	6.03e-01	0	60	0	233832448	53	5300
2026-01-14 01:49:10.79	1.70	26.78	-41.3	-44.0	19.7	6.02e-01	0	61	0	239599616	53	5158
2026-01-14 01:49:13.82	1.32	27.34	-41.1	-43.8	19.9	6.05e-01	0	61	0	245366784	53	5034
2026-01-14 01:49:16.85	0.92	27.91	-41.1	-43.8	19.9	6.03e-01	0	61	0	251133952	53	5032
2026-01-14 01:49:19.88	0.51	28.49	-41.4	-44.2	19.6	6.03e-01	0	61	0	256376832	53	5221
2026-01-14 01:49:22.91	0.08	29.08	-41.1	-43.8	19.9	6.04e-01	0	61	0	262144000	53	5033
2026-01-14 01:49:25.94	359.64	29.69	-40.7	-43.2	20.5	6.05e-01	0	61	0	267911168	53	4669
2026-01-14 01:49:28.97	359.17	30.31	-40.9	-43.5	20.3	6.05e-01	0	61	0	273678336	53	4862
2026-01-14 01:49:32.00	358.69	30.94	-40.9	-43.4	20.4	6.02e-01	0	61	0	279445504	53	4783
2026-01-14 01:49:35.02	358.19	31.58	-40.9	-43.4	20.4	6.01e-01	0	61	0	285212672	53	4798
2026-01-14 01:49:38.05	357.66	32.23	-41.0	-43.7	20.2	6.01e-01	0	61	0	290455552	53	4935
2026-01-14 01:49:41.08	357.11	32.90	-41.1	-43.7	20.1	6.03e-01	0	61	0	296222720	53	4960
2026-01-14 01:49:44.11	356.54	33.58	-41.3	-44.0	19.9	6.04e-01	0	61	0	301989888	53	5105
2026-01-14 01:49:47.14	355.94	34.28	-41.6	-44.5	19.4	5.99e-01	0	61	0	307757056	53	5413
2026-01-14 01:49:50.17	355.31	34.99	-41.7	-44.5	19.4	6.03e-01	0	61	0	313524224	53	5459
2026-01-14 01:49:53.20	354.66	35.71	-41.8	-44.7	19.2	6.04e-01	0	61	0	319291392	54	5258
2026-01-14 01:49:56.23	353.97	36.44	-42.3	-45.5	18.4	6.02e-01	0	61	0	325058560	55	5455
2026-01-14 01:49:59.26	353.25	37.19	-42.4	-45.7	18.3	6.04e-01	0	61	0	330301440	55	5553
2026-01-14 01:50:02.28	352.50	37.95	-42.5	-45.8	18.2	6.03e-01	0	61	0	336068608	55	5624
2026-01-14 01:50:05.31	351.70	38.72	-42.7	-46.2	17.9	6.05e-01	0	61	0	341835776	56	5553
2026-01-14 01:50:08.34	350.87	39.51	-42.9	-46.4	17.7	6.02e-01	0	61	0	347602944	56	5683
2026-01-14 01:50:11.37	349.99	40.30	-43.0	-46.7	17.4	6.03e-01	0	61	0	353370112	56	5861
2026-01-14 01:50:14.40	349.07	41.11	-42.7	-46.0	18.1	6.03e-01	0	61	0	358612992	56	5458
2026-01-14 01:50:17.42	348.10	41.93	-42.7	-46.2	18.0	6.03e-01	0	61	0	364380160	56	5541
2026-01-14 01:50:20.45	347.08	42.76	-42.4	-45.5	18.6	6.02e-01	0	61	0	370147328	56	5132
2026-01-14 01:50:23.48	346.00	43.59	-42.0	-44.9	19.2	6.03e-01	0	61	0	375914496	56	4797
2026-01-14 01:50:26.52	344.85	44.44	-42.0	-45.0	19.2	6.01e-01	0	61	0	381681664	56	4835
2026-01-14 01:50:29.55	343.65	45.29	-42.0	-45.0	19.1	6.02e-01	0	61	0	387448832	55	5145
2026-01-14 01:50:32.58	342.38	46.15	-41.9	-44.9	19.2	6.03e-01	0	61	0	392691712	55	5044
2026-01-14 01:50:35.60	341.04	47.00	-42.0	-45.0	19.1	6.01e-01	0	61	0	398458880	55	5157
2026-01-14 01:50:38.63	339.62	47.86	-42.1	-45.2	18.9	6.04e-01	0	61	0	404226048	55	5237
2026-01-14 01:50:41.66	338.11	48.72	-42.2	-45.4	18.8	6.03e-01	0	61	0	409993216	55	5354
2026-01-14 01:50:44.69	336.52	49.57	-41.9	-44.9	19.3	6.03e-01	0	61	0	415760384	55	5057
2026-01-14 01:50:47.71	334.84	50.41	-41.8	-44.7	19.5	6.03e-01	0	61	0	421527552	55	4934
2026-01-14 01:50:50.74	333.06	51.24	-41.5	-44.3	19.9	6.04e-01	0	61	0	426770432	55	4712
2026-01-14 01:50:53.77	331.18	52.06	-41.5	-44.2	19.9	6.06e-01	0	61	0	432537600	54	4928
2026-01-14 01:50:56.80	329.19	52.85	-41.3	-43.9	20.2	6.02e-01	0	61	0	438304768	54	4798
2026-01-14 01:50:59.83	327.08	53.62	-41.4	-44.0	20.0	6.04e-01	0	61	0	444071936	54	4867
2026-01-14 01:51:02.86	324.87	54.37	-41.5	-44.2	19.9	6.04e-01	0	60	0	449839104	54	4974
2026-01-14 01:51:05.89	322.53	55.08	-41.8	-44.7	19.4	6.02e-01	0	61	0	455606272	54	5253
2026-01-14 01:51:08.92	320.08	55.74	-41.8	-44.7	19.4	6.04e-01	0	61	0	460849152	54	5256
2026-01-14 01:51:11.95	317.52	56.37	-41.8	-44.7	19.5	6.05e-01	0	61	0	466616320	54	5231
2026-01-14 01:51:14.98	314.83	56.94	-42.0	-45.0	19.1	6.05e-01	0	61	0	472383488	54	5440
2026-01-14 01:51:18.01	312.04	57.45	-42.1	-45.2	19.0	6.04e-01	0	61	0	478150656	55	5223
2026-01-14 01:51:21.04	309.15	57.90	-42.2	-45.2	18.8	6.01e-01	0	61	0	483917824	55	5256
2026-01-14 01:51:24.06	306.17	58.29	-42.8	-46.2	18.1	6.04e-01	0	61	0	489684992	56	5543
2026-01-14 01:51:27.09	303.10	58.60	-42.8	-46.2	18.2	6.05e-01	0	61	0	494927872	56	5543
2026-01-14 01:51:30.12	299.97	58.83	-42.9	-46.5	17.8	6.03e-01	0	61	0	500695040	56	5729
2026-01-14 01:51:33.15	296.79	58.99	-42.5	-45.7	18.6	6.05e-01	0	61	0	506462208	56	5259
2026-01-14 01:51:36.18	293.58	59.07	-42.7	-46.0	18.2	6.05e-01	0	61	0	512229376	56	5458
2026-01-14 01:51:39.21	290.37	59.06	-42.8	-46.4	17.9	6.04e-01	0	61	0	517996544	56	5670
2026-01-14 01:51:42.23	287.17	58.97	-42.8	-46.3	17.9	6.04e-01	0	61	0	523763712	56	5652
2026-01-14 01:51:45.26	284.00	58.80	-42.9	-46.4	17.9	6.02e-01	0	61	0	529006592	56	5684
2026-01-14 01:51:48.29	280.87	58.55	-42.7	-46.2	18.1	6.01e-01	0	61	0	534773760	56	5535
2026-01-14 01:51:51.32	277.82	58.22	-42.7	-46.0	18.2	6.04e-01	0	61	0	540540928	56	5454
2026-01-14 01:51:54.35	274.84	57.83	-42.9	-46.5	17.7	6.03e-01	0	61	0	546308096	56	5732
2026-01-14 01:51:57.38	271.96	57.36	-42.5	-45.8	18.4	6.04e-01	0	61	0	552075264	56	5284
2026-01-14 01:52:00.40	269.20	56.84	-42.4	-45.7	18.6	6.02e-01	0	61	0	557842432	56	5221
2026-01-14 01:52:03.43	266.53	56.26	-42.3	-45.4	18.7	6.05e-01	0	61	0	563085312	55	5399
2026-01-14 01:52:06.46	263.98	55.62	-41.8	-44.7	19.4	6.02e-01	0	61	0	568852480	55	4969
2026-01-14 01:52:09.49	261.54	54.95	-41.4	-44.0	20.0	6.02e-01	0	61	0	574619648	54	4861
2026-01-14 01:52:12.52	259.23	54.23	-41.2	-43.8	20.3	6.04e-01	0	61	0	580386816	54	4719
2026-01-14 01:52:15.55	257.03	53.48	-41.3	-43.9	20.1	6.06e-01	0	61	0	586153984	54	4780
2026-01-14 01:52:18.58	254.94	52.70	-41.2	-43.8	20.3	6.05e-01	0	61	0	591921152	53	5007
2026-01-14 01:52:21.61	252.97	51.90	-41.3	-44.0	20.1	6.04e-01	0	61	0	597164032	53	5134
2026-01-14 01:52:24.63	251.10	51.08	-41.5	-44.3	19.8	6.02e-01	0	61	0	602931200	53	5318
2026-01-14 01:52:27.66	249.34	50.24	-41.8	-44.8	19.4	6.03e-01	0	61	0	608698368	54	5280
2026-01-14 01:52:30.69	247.66	49.39	-41.7	-44.5	19.6	6.02e-01	0	61	0	614465536	54	5155
2026-01-14 01:52:33.72	246.09	48.54	-41.5	-44.2	19.9	6.05e-01	0	61	0	620232704	54	4934
2026-01-14 01:52:36.75	244.59	47.68	-41.4	-44.1	20.0	6.02e-01	0	61	0	625475584	54	4916
2026-01-14 01:52:39.77	243.19	46.82	-41.3	-43.9	20.2	6.02e-01	0	61	0	631242752	54	4806
2026-01-14 01:52:42.80	241.85	45.96	-41.3	-43.9	20.2	6.04e-01	0	61	0	637009920	54	4790
2026-01-14 01:52:45.83	240.59	45.10	-41.3	-43.9	20.2	6.05e-01	0	61	0	642777088	54	4806
2026-01-14 01:52:48.86	239.40	44.25	-41.5	-44.2	19.8	6.03e-01	0	61	0	648544256	54	4978
2026-01-14 01:52:51.89	238.26	43.40	-41.6	-44.4	19.7	6.01e-01	0	61	0	654311424	54	5049
2026-01-14 01:52:54.92	237.19	42.56	-41.8	-44.7	19.4	6.01e-01	0	61	0	659554304	54	5242
2026-01-14 01:52:57.95	236.18	41.73	-41.9	-44.8	19.3	6.01e-01	0	61	0	665321472	54	5310
2026-01-14 01:53:00.97	235.21	40.91	-42.1	-45.2	18.9	6.05e-01	0	61	0	671088640	55	5227
2026-01-14 01:53:04.00	234.30	40.10	-42.6	-46.1	18.0	6.05e-01	0	61	0	676855808	55	5822
2026-01-14 01:53:07.03	233.43	39.30	-42.5	-45.9	18.2	6.04e-01	0	61	0	682622976	55	5658
2026-01-14 01:53:10.05	232.60	38.52	-42.7	-46.1	18.1	6.04e-01	0	61	0	688390144	56	5473
2026-01-14 01:53:13.08	231.81	37.75	-42.8	-46.2	17.9	6.04e-01	0	61	0	693633024	56	5589
2026-01-14 01:53:16.11	231.06	36.99	-42.6	-46.0	18.2	6.03e-01	0	61	0	699400192	56	5403
2026-01-14 01:53:19.14	230.34	36.24	-42.7	-46.2	18.0	6.04e-01	0	61	0	705167360	56	5540
2026-01-14 01:53:22.17	229.66	35.50	-42.3	-45.4	18.7	6.04e-01	0	61	0	710934528	56	5091
2026-01-14 01:53:25.20	229.01	34.78	-42.5	-45.7	18.4	6.03e-01	0	61	0	716701696	56	5265
2026-01-14 01:53:28.22	228.38	34.08	-42.1	-45.2	18.9	6.04e-01	0	61	0	721944576	56	4949
2026-01-14 01:53:31.25	227.79	33.38	-41.8	-44.8	19.2	6.04e-01	0	61	0	727711744	55	5016
2026-01-14 01:53:34.28	227.22	32.70	-41.7	-44.5	19.4	6.01e-01	0	61	0	733478912	55	4866
2026-01-14 01:53:37.31	226.67	32.03	-41.3	-44.0	20.0	6.04e-01	0	61	0	739246080	54	4853
2026-01-14 01:53:40.34	226.15	31.37	-41.2	-43.9	20.1	6.03e-01	0	61	0	745013248	54	4794
2026-01-14 01:53:43.36	225.65	30.73	-41.4	-44.1	19.9	6.03e-01	0	61	0	750780416	54	4883
2026-01-14 01:53:46.39	225.16	30.10	-41.3	-44.0	20.0	6.05e-01	0	61	0	756547584	54	4818
2026-01-14 01:53:49.42	224.70	29.48	-41.2	-43.8	20.2	6.04e-01	0	61	0	761790464	54	4737
2026-01-14 01:53:52.45	224.26	28.88	-41.1	-43.8	20.2	6.04e-01	0	61	0	767557632	54	4726
2026-01-14 01:53:55.48	223.83	28.28	-41.3	-43.9	20.0	6.01e-01	0	61	0	773324800	54	4811
2026-01-14 01:53:58.50	223.42	27.70	-41.3	-44.0	19.9	6.04e-01	0	61	0	779091968	54	4850
2026-01-14 01:54:01.53	223.02	27.13	-41.5	-44.3	19.7	6.02e-01	0	61	0	784859136	54	4984
2026-01-14 01:54:04.56	222.64	26.57	-41.4	-44.1	19.8	6.05e-01	0	61	0	790102016	54	4926
2026-01-14 01:54:07.59	222.27	26.02	-41.5	-44.3	19.6	6.02e-01	0	61	0	795869184	54	4996
2026-01-14 01:54:10.62	221.92	25.49	-41.6	-44.4	19.5	6.02e-01	0	61	0	801636352	54	5089
2026-01-14 01:54:13.65	221.57	24.96	-41.7	-44.6	19.3	6.03e-01	0	61	0	807403520	54	5164
2026-01-14 01:54:16.68	221.24	24.44	-42.0	-45.1	18.8	6.01e-01	0	61	0	813170688	54	5493
2026-01-14 01:54:19.71	220.93	23.93	-42.0	-45.1	18.8	6.03e-01	0	61	0	818937856	54	5515
2026-01-14 01:54:22.74	220.62	23.43	-41.8	-44.8	19.1	6.03e-01	0	61	0	824705024	54	5280
2026-01-14 01:54:25.77	220.32	22.95	-41.7	-44.7	19.1	6.04e-01	0	61	0	829947904	54	5243
2026-01-14 01:54:28.80	220.03	22.47	-41.7	-44.7	19.1	6.04e-01	0	61	0	835715072	54	5264
2026-01-14 01:54:31.83	219.75	21.99	-41.7	-44.7	19.2	6.04e-01	0	61	0	841482240	54	5226
2026-01-14 01:54:34.85	219.48	21.53	-41.8	-44.8	19.0	6.04e-01	0	61	0	847249408	54	5310
2026-01-14 01:54:37.88	219.22	21.08	-41.7	-44.7	19.2	6.05e-01	0	61	0	853016576	54	5219
2026-01-14 01:54:40.92	218.97	20.63	-41.8	-44.8	19.0	6.02e-01	0	61	0	858259456	54	5316
2026-01-14 01:54:43.94	218.72	20.20	-41.7	-44.7	19.1	6.00e-01	0	61	0	864026624	54	5246
2026-01-14 01:54:46.97	218.48	19.77	-41.6	-44.6	19.2	6.03e-01	0	61	0	869793792	54	5168
2026-01-14 01:54:50.00	218.25	19.34	-41.6	-44.5	19.2	6.03e-01	0	61	0	875560960	54	5144
2026-01-14 01:54:53.03	218.03	18.93	-41.6	-44.6	19.2	6.01e-01	0	61	0	881328128	54	5181
2026-01-14 01:54:56.06	217.81	18.52	-41.7	-44.7	19.1	6.04e-01	0	61	0	887095296	54	5233
2026-01-14 01:54:59.09	217.60	18.12	-41.8	-44.9	18.8	6.04e-01	0	61	0	892862464	54	5393
2026-01-14 01:55:02.12	217.39	17.72	-41.8	-44.8	18.8	6.05e-01	0	61	0	898105344	54	5334
2026-01-14 01:55:05.15	217.19	17.34	-41.6	-44.6	19.1	6.04e-01	0	61	0	903872512	54	5178
2026-01-14 01:55:08.17	217.00	16.96	-41.6	-44.5	19.1	6.04e-01	0	61	0	909639680	54	5158
2026-01-14 01:55:11.20	216.81	16.58	-41.6	-44.6	19.0	6.03e-01	0	61	0	915406848	54	5206
2026-01-14 01:55:14.23	216.62	16.21	-41.7	-44.8	18.9	6.05e-01	0	61	0	921174016	54	5288
2026-01-14 01:55:17.26	216.45	15.85	-41.6	-44.7	18.9	6.04e-01	0	61	0	926416896	54	5250
2026-01-14 01:55:20.29	216.27	15.49	-41.6	-44.7	18.9	6.03e-01	0	61	0	932184064	54	5264
2026-01-14 01:55:23.32	216.10	15.14	-41.6	-44.7	18.9	6.03e-01	0	61	0	937951232	54	5228
2026-01-14 01:55:26.34	215.94	14.79	-41.5	-44.6	19.0	6.03e-01	0	61	0	943718400	54	5163
2026-01-14 01:55:29.37	215.78	14.45	-41.6	-44.6	18.9	6.02e-01	0	61	0	949485568	54	5213
2026-01-14 01:55:32.40	215.62	14.11	-41.6	-44.6	18.9	6.03e-01	0	61	0	955252736	54	5203
2026-01-14 01:55:35.43	215.47	13.78	-41.6	-44.6	18.8	6.05e-01	0	61	0	961019904	54	5215
2026-01-14 01:55:38.46	215.32	13.45	-41.6	-44.7	18.8	6.03e-01	0	61	0	966262784	54	5228
2026-01-14 01:55:41.49	215.17	13.13	-41.6	-44.7	18.7	6.04e-01	0	61	0	972029952	54	5276
2026-01-14 01:55:44.52	215.03	12.81	-41.5	-44.6	18.8	6.02e-01	0	61	0	977797120	54	5213
2026-01-14 01:55:47.55	214.89	12.49	-41.6	-44.7	18.7	6.01e-01	0	61	0	983564288	54	5258
2026-01-14 01:55:50.59	214.75	12.18	-41.6	-44.8	18.6	6.03e-01	0	61	0	989331456	54	5314
2026-01-14 01:55:53.62	214.62	11.88	-41.8	-45.1	18.3	6.03e-01	0	61	0	994574336	54	5491
2026-01-14 01:55:56.65	214.49	11.58	-41.8	-45.2	18.2	6.04e-01	0	61	0	1000341504	54	5546
2026-01-14 01:55:59.68	214.37	11.28	-41.9	-45.4	18.0	6.03e-01	0	61	0	1006108672	54	5667
2026-01-14 01:56:02.70	214.24	10.99	-41.9	-45.4	17.9	6.04e-01	0	61	0	1011875840	54	5695
2026-01-14 01:56:05.73	214.12	10.70	-42.0	-45.5	17.7	6.04e-01	0	61	0	1017643008	54	5774
2026-01-14 01:56:08.77	214.00	10.41	-41.9	-45.4	17.8	6.04e-01	0	61	0	1023410176	54	5712
2026-01-14 01:56:11.80	213.89	10.13	-41.9	-45.5	17.7	6.04e-01	0	61	0	1029177344	54	5738
2026-01-14 01:56:14.82	213.78	9.85	-41.9	-45.5	17.7	6.03e-01	0	61	0	1034420224	54	5741
2026-01-14 01:56:17.85	213.67	9.57	-42.0	-45.7	17.4	6.02e-01	0	61	0	1040187392	54	5890
2026-01-14 01:56:20.88	213.56	9.30	-42.0	-45.7	17.5	6.04e-01	0	61	0	1045954560	54	5870
2026-01-14 01:56:23.91	213.45	9.03	-41.9	-45.5	17.6	6.04e-01	0	61	0	1051721728	54	5742
2026-01-14 01:56:26.93	213.35	8.76	-41.9	-45.6	17.5	6.04e-01	0	61	0	1057488896	54	5832
2026-01-14 01:56:29.96	213.25	8.50	-42.0	-45.8	17.2	6.04e-01	0	61	0	1062731776	54	5987
2026-01-14 01:56:32.99	213.15	8.24	-42.0	-45.8	17.1	6.03e-01	0	61	0	1068498944	54	5943
2026-01-14 01:56:36.02	213.05	7.98	-45.2	-62.0	3.8	7.47e-01	0	61	104	1074266112	60	27196
2026-01-14 01:56:39.05	212.96	7.73	-46.0	-64.8	3.8	7.45e-01	0	61	104	1074266112	62	33409
2026-01-14 01:56:42.08	212.86	7.48	-46.3	-65.0	3.8	7.46e-01	0	61	104	1074266112	63	32382
2026-01-14 01:56:45.11	212.77	7.23	-46.3	-65.0	3.8	7.44e-01	0	61	104	1074266112	63	32345
2026-01-14 01:56:48.14	212.68	6.98	-46.2	-64.9	3.8	7.43e-01	0	61	104	1074266112	63	32096
2026-01-14 01:56:51.17	212.60	6.74	-46.3	-64.9	3.8	7.45e-01	0	61	104	1074266112	63	32110
2026-01-14 01:56:54.20	212.51	6.49	-46.2	-64.9	3.8	7.46e-01	0	61	104	1074266112	63	32035
2026-01-14 01:56:57.23	212.43	6.26	-46.2	-64.9	3.8	7.41e-01	0	61	104	1074266112	63	31941
2026-01-14 01:57:00.27	212.34	6.02	-46.2	-64.9	3.8	7.46e-01	0	61	104	1074266112	63	32018
2026-01-14 01:57:03.30	212.26	5.78	-46.2	-64.9	3.8	7.44e-01	0	61	104	1074266112	63	31935
2026-01-14 01:57:06.33	212.18	5.55	-46.2	-64.9	3.8	7.48e-01	0	61	104	1074266112	63	31910
2026-01-14 01:57:09.37	212.10	5.32	-46.2	-64.9	3.8	7.44e-01	0	61	104	1074266112	63	31861
2026-01-14 01:57:12.40	212.03	5.09	-46.2	-64.9	3.8	7.49e-01	0	61	104	1074266112	63	31856
2026-01-14 01:57:15.43	211.95	4.87	-46.2	-64.9	3.8	7.46e-01	0	61	104	1074266112	63	31902
2026-01-14 01:57:18.47	211.88	4.64	-46.2	-64.9	3.8	7.46e-01	0	61	104	1074266112	63	31832
2026-01-14 01:57:21.50	211.81	4.42	-46.1	-64.9	3.8	7.47e-01	0	61	104	1074266112	63	31820
2026-01-14 01:57:24.53	211.73	4.20	-46.1	-64.8	3.8	7.45e-01	0	61	104	1074266112	63	31807
2026-01-14 01:57:27.57	211.66	3.98	-46.1	-64.9	3.8	7.44e-01	0	61	104	1074266112	63	31822
2026-01-14 01:57:30.60	211.60	3.77	-46.1	-64.8	3.8	7.44e-01	0	61	104	1074266112	63	31698
2026-01-14 01:57:33.63	211.53	3.55	-46.1	-64.8	3.8	7.47e-01	0	61	104	1074266112	63	31727
2026-01-14 01:57:36.67	211.46	3.34	-46.1	-64.8	3.8	7.47e-01	0	61	104	1074266112	63	31730
2026-01-14 01:57:39.70	211.40	3.13	-46.1	-64.8	3.8	7.49e-01	0	61	104	1074266112	63	31712
2026-01-14 01:57:42.73	211.33	2.92	-46.1	-64.8	3.8	7.45e-01	0	61	104	1074266112	63	31776
2026-01-14 01:57:45.76	211.27	2.72	-46.1	-64.8	3.8	7.44e-01	0	61	104	1074266112	63	31735
2026-01-14 01:57:48.80	211.21	2.51	-46.1	-64.8	3.8	7.46e-01	0	61	104	1074266112	63	31752
2026-01-14 01:57:51.83	211.15	2.31	-46.1	-64.8	3.8	7.42e-01	0	61	104	1074266112	63	31737
2026-01-14 01:57:54.86	211.09	2.10	-46.1	-64.8	3.8	7.46e-01	0	61	104	1074266112	63	31680
2026-01-14 01:57:57.90	211.03	1.90	-46.1	-64.8	3.8	7.45e-01	0	61	104	1074266112	63	31670

#Closed at: 2026-01-14 01:57:59
#Recorded file [1074 MB]: D:/lorett/data/31039_260114_044608.dat