passes_logs/2026/01/14/R2.0S_Moscow/R2.0S_Moscow__20260114_221454_NOAA_20_JPSS-1_rec.log

#Pass ID: 20260114_221454_NOAA 20 (JPSS-1)
#Satellite: NOAA 20 (JPSS-1)
#Configuration: NOAA 20
#almurnet v.1.7.20251203
#Start time: 2026-01-14 22:14:54

#Version: 2.2.20231116
#Station: R2.0S_Moscow
#Location: 37.707566 lon 55.798166 lat
#TLE: 1 43013U 17073A   26014.13176244  .00000049  00000+0  44136-4 0  9994
#TLE: 2 43013  98.7634 315.0803 0001538  40.6488 319.4803 14.19535812422619

#Time	Az	El	Level	Level2	SNR	BER	BlckErr	Temp	State	Recorded	gain1	gain2
2026-01-14 22:14:54.37	24.57	1.98	-41.6	-57.0	3.8	1.49e+00	0	48	0	0	55	20331
2026-01-14 22:14:58.41	24.84	2.20	-41.7	-57.0	3.8	1.49e+00	0	49	104	0	53	22796
2026-01-14 22:15:02.42	25.12	2.43	-41.7	-57.0	3.8	1.49e+00	0	49	104	0	53	22807
2026-01-14 22:15:06.46	25.40	2.65	-41.6	-57.0	3.8	1.49e+00	0	50	104	0	53	22851
2026-01-14 22:15:10.50	25.69	2.88	-41.7	-57.0	3.8	1.49e+00	0	50	104	0	53	22807
2026-01-14 22:15:14.54	25.98	3.11	-41.7	-56.9	3.8	1.49e+00	0	50	104	0	53	22737
2026-01-14 22:15:18.58	26.27	3.34	-41.7	-57.0	3.8	1.49e+00	0	51	104	0	53	22828
2026-01-14 22:15:22.62	26.57	3.57	-41.7	-57.0	3.8	1.49e+00	0	51	104	0	53	22796
2026-01-14 22:15:26.65	26.88	3.81	-41.7	-56.9	3.8	1.49e+00	0	51	104	0	53	22749
2026-01-14 22:15:30.69	27.19	4.04	-41.7	-56.9	3.8	1.49e+00	0	51	104	0	53	22763
2026-01-14 22:15:34.74	27.50	4.28	-41.6	-56.9	3.8	1.49e+00	0	51	104	0	53	22761
2026-01-14 22:15:38.78	27.82	4.51	-41.7	-57.0	3.8	1.49e+00	0	51	104	0	53	22791
2026-01-14 22:15:42.82	28.14	4.75	-41.7	-57.0	3.8	1.49e+00	0	52	104	0	53	22856
2026-01-14 22:15:46.86	28.47	4.99	-41.6	-57.0	3.8	1.49e+00	0	52	104	0	53	22831
2026-01-14 22:15:50.90	28.80	5.24	-41.6	-57.0	3.8	1.49e+00	0	52	104	0	53	22783
2026-01-14 22:15:54.94	29.14	5.48	-41.7	-56.9	3.8	1.49e+00	0	53	104	0	53	22689
2026-01-14 22:15:58.98	29.48	5.72	-41.7	-56.9	3.8	1.49e+00	0	53	104	0	53	22759
2026-01-14 22:16:03.03	29.83	5.97	-41.6	-57.0	3.8	1.49e+00	0	53	104	0	53	22794
2026-01-14 22:16:07.07	30.19	6.22	-41.6	-56.9	3.8	1.49e+00	0	53	104	0	53	22775
2026-01-14 22:16:11.11	30.55	6.47	-41.6	-56.9	3.8	1.49e+00	0	53	104	0	53	22593
2026-01-14 22:16:15.15	30.91	6.72	-41.6	-56.0	3.8	1.49e+00	0	53	104	0	53	20425
2026-01-14 22:16:19.19	31.29	6.97	-41.6	-56.0	3.8	1.49e+00	0	53	104	0	53	20350
2026-01-14 22:16:23.23	31.66	7.23	-41.6	-56.0	3.8	1.49e+00	0	54	104	0	53	20371
2026-01-14 22:16:27.27	32.05	7.48	-41.6	-56.7	3.8	1.49e+00	0	54	104	0	53	22057
2026-01-14 22:16:31.31	32.44	7.74	-41.3	-51.8	4.8	1.13e+00	0	54	0	0	53	12584
2026-01-14 22:16:35.35	32.84	8.00	-40.9	-48.8	6.9	1.76e-01	0	54	0	8388608	53	8926
2026-01-14 22:16:39.38	33.24	8.26	-41.0	-53.8	4.0	1.15e+00	0	54	0	13631488	54	14927
2026-01-14 22:16:43.42	33.65	8.52	-41.6	-48.1	8.1	7.02e-02	0	54	0	17825792	55	7295
2026-01-14 22:16:47.46	34.07	8.78	-41.7	-48.1	8.2	5.48e-02	0	55	0	25165824	55	7315
2026-01-14 22:16:51.49	34.50	9.04	-41.7	-47.4	9.1	2.93e-02	0	55	0	33554432	55	6770
2026-01-14 22:16:55.53	34.93	9.31	-41.8	-47.5	9.1	2.30e-02	0	55	0	40894464	55	6815
2026-01-14 22:16:59.56	35.37	9.58	-42.0	-47.7	9.0	2.30e-02	0	55	0	48234496	55	7009
2026-01-14 22:17:03.57	35.82	9.84	-42.0	-47.4	9.5	1.56e-02	0	55	0	55574528	55	6729
2026-01-14 22:17:07.61	36.28	10.11	-42.0	-47.3	9.6	1.20e-02	0	55	0	62914560	55	6689
2026-01-14 22:17:11.64	36.74	10.38	-42.0	-47.0	10.0	8.84e-03	0	55	0	71303168	55	6444
2026-01-14 22:17:15.67	37.21	10.66	-42.0	-47.0	10.0	8.22e-03	0	55	0	78643200	55	6490
2026-01-14 22:17:19.71	37.69	10.93	-42.0	-47.1	10.1	7.25e-03	0	55	0	85983232	55	6497
2026-01-14 22:17:23.75	38.19	11.21	-42.1	-47.2	10.0	6.94e-03	0	56	0	93323264	55	6584
2026-01-14 22:17:27.79	38.69	11.48	-42.0	-46.9	10.3	6.22e-03	0	55	0	101711872	55	6396
2026-01-14 22:17:31.82	39.19	11.76	-42.0	-46.8	10.5	4.43e-03	0	56	0	109051904	55	6319
2026-01-14 22:17:35.86	39.71	12.04	-42.1	-47.0	10.4	4.89e-03	0	56	0	116391936	55	6428
2026-01-14 22:17:39.90	40.24	12.32	-42.1	-46.8	10.6	3.88e-03	0	56	0	123731968	55	6292
2026-01-14 22:17:43.94	40.78	12.60	-42.0	-46.5	10.9	2.18e-03	0	56	0	131072000	55	6079
2026-01-14 22:17:47.97	41.33	12.88	-42.1	-46.6	10.8	2.55e-03	0	56	0	139460608	55	6202
2026-01-14 22:17:52.01	41.88	13.17	-42.1	-46.7	10.7	3.17e-03	0	56	0	146800640	55	6270
2026-01-14 22:17:56.05	42.45	13.45	-42.1	-46.7	10.8	2.53e-03	0	56	0	154140672	55	6224
2026-01-14 22:18:00.09	43.03	13.74	-42.1	-46.6	10.9	2.09e-03	0	56	0	161480704	55	6179
2026-01-14 22:18:04.13	43.62	14.02	-42.0	-46.4	11.1	1.73e-03	0	56	0	169869312	55	6040
2026-01-14 22:18:08.16	44.22	14.31	-42.0	-46.5	11.0	1.77e-03	0	56	0	177209344	55	6100
2026-01-14 22:18:12.21	44.84	14.59	-42.1	-46.6	10.9	2.35e-03	0	56	0	184549376	55	6185
2026-01-14 22:18:16.25	45.46	14.88	-42.1	-46.6	11.0	1.60e-03	0	56	0	191889408	55	6156
2026-01-14 22:18:20.28	46.10	15.17	-42.0	-46.5	11.1	1.66e-03	0	56	0	199229440	55	6069
2026-01-14 22:18:24.32	46.74	15.46	-42.1	-46.5	11.1	1.50e-03	0	56	0	207618048	55	6095
2026-01-14 22:18:28.36	47.41	15.74	-42.0	-46.4	11.2	1.40e-03	0	56	0	214958080	55	6034
2026-01-14 22:18:32.39	48.08	16.03	-42.0	-46.3	11.4	1.11e-03	0	56	0	222298112	55	5962
2026-01-14 22:18:36.42	48.76	16.32	-42.0	-46.4	11.2	1.20e-03	0	57	0	229638144	55	6012
2026-01-14 22:18:40.46	49.46	16.60	-41.9	-46.1	11.6	8.35e-04	0	57	0	236978176	55	5842
2026-01-14 22:18:44.50	50.17	16.89	-42.0	-46.2	11.5	7.81e-04	0	57	0	245366784	55	5880
2026-01-14 22:18:48.55	50.90	17.17	-42.0	-46.2	11.5	7.82e-04	0	57	0	252706816	55	5875
2026-01-14 22:18:52.59	51.64	17.46	-41.8	-45.7	12.0	3.63e-04	0	57	0	260046848	55	5572
2026-01-14 22:18:56.62	52.39	17.74	-41.7	-45.6	12.2	2.15e-04	0	56	0	267386880	55	5479
2026-01-14 22:19:00.66	53.15	18.02	-41.7	-45.5	12.2	2.08e-04	0	57	0	275775488	55	5452
2026-01-14 22:19:04.70	53.93	18.30	-41.7	-45.5	12.3	1.60e-04	0	57	0	283115520	55	5432
2026-01-14 22:19:08.74	54.73	18.57	-41.7	-45.5	12.2	1.88e-04	0	57	0	290455552	55	5461
2026-01-14 22:19:12.78	55.53	18.85	-41.8	-45.8	12.0	3.28e-04	0	57	0	297795584	55	5600
2026-01-14 22:19:16.81	56.35	19.12	-41.8	-45.7	12.1	2.65e-04	0	57	0	305135616	55	5548
2026-01-14 22:19:20.84	57.19	19.39	-42.1	-46.3	11.5	7.57e-04	0	57	0	313524224	55	5940
2026-01-14 22:19:24.88	58.04	19.65	-42.3	-46.8	11.0	1.96e-03	0	57	0	320864256	55	6314
2026-01-14 22:19:28.91	58.90	19.92	-42.2	-46.6	11.1	1.38e-03	0	57	0	328204288	55	6190
2026-01-14 22:19:32.96	59.79	20.18	-42.5	-47.2	10.5	3.51e-03	0	57	0	335544320	55	6599
2026-01-14 22:19:36.99	60.68	20.43	-42.9	-48.0	9.9	9.70e-03	0	57	0	343932928	56	6848
2026-01-14 22:19:41.03	61.59	20.68	-42.8	-47.7	10.2	6.82e-03	0	57	0	351272960	56	6590
2026-01-14 22:19:45.06	62.51	20.93	-42.5	-47.1	10.8	3.10e-03	0	57	0	358612992	56	6174
2026-01-14 22:19:49.10	63.45	21.17	-42.5	-47.2	10.8	2.99e-03	0	57	0	365953024	56	6211
2026-01-14 22:19:53.14	64.40	21.40	-42.4	-46.9	11.0	2.21e-03	0	57	0	373293056	56	6038
2026-01-14 22:19:57.17	65.36	21.63	-42.2	-46.5	11.4	1.10e-03	0	57	0	381681664	56	5753
2026-01-14 22:20:01.21	66.35	21.85	-42.4	-46.8	11.0	1.20e-03	0	57	0	389021696	56	5992
2026-01-14 22:20:05.24	67.34	22.07	-42.6	-47.4	10.4	5.04e-03	0	57	0	396361728	56	6405
2026-01-14 22:20:09.28	68.35	22.28	-42.5	-47.2	10.5	3.43e-03	0	57	0	403701760	56	6239
2026-01-14 22:20:13.32	69.37	22.48	-42.4	-46.9	10.8	2.66e-03	0	57	0	411041792	56	6059
2026-01-14 22:20:17.36	70.40	22.67	-42.4	-47.1	10.7	3.03e-03	0	57	0	419430400	56	6141
2026-01-14 22:20:21.40	71.45	22.86	-42.2	-46.7	11.0	1.88e-03	0	57	0	426770432	56	5897
2026-01-14 22:20:25.43	72.50	23.04	-42.3	-46.8	10.9	2.02e-03	0	57	0	434110464	56	5976
2026-01-14 22:20:29.47	73.58	23.20	-42.3	-47.0	10.7	2.72e-03	0	57	0	441450496	56	6078
2026-01-14 22:20:33.50	74.65	23.36	-42.6	-47.5	10.2	4.88e-03	0	57	0	449839104	56	6463
2026-01-14 22:20:37.53	75.74	23.51	-42.7	-47.7	10.0	7.34e-03	0	57	0	457179136	56	6599
2026-01-14 22:20:41.57	76.85	23.65	-42.7	-47.8	9.9	8.81e-03	0	57	0	464519168	56	6665
2026-01-14 22:20:45.60	77.96	23.78	-42.7	-47.8	10.0	8.88e-03	0	57	0	471859200	56	6651
2026-01-14 22:20:49.64	79.08	23.90	-42.3	-46.7	11.1	2.04e-03	0	57	0	479199232	56	5897
2026-01-14 22:20:53.67	80.20	24.01	-42.2	-46.4	11.4	9.88e-04	0	57	0	487587840	56	5708
2026-01-14 22:20:57.72	81.34	24.11	-42.2	-46.3	11.6	7.38e-04	0	57	0	494927872	56	5629
2026-01-14 22:21:01.76	82.48	24.19	-42.2	-46.3	11.6	5.74e-04	0	57	0	502267904	56	5653
2026-01-14 22:21:05.79	83.63	24.27	-42.6	-47.3	10.6	3.35e-03	0	57	0	509607936	56	6308
2026-01-14 22:21:09.83	84.78	24.33	-42.4	-46.9	11.0	1.89e-03	0	58	0	517996544	56	5993
2026-01-14 22:21:13.86	85.94	24.38	-42.3	-46.7	11.2	1.20e-03	0	57	0	525336576	56	5870
2026-01-14 22:21:17.90	87.10	24.42	-42.5	-47.0	10.9	2.12e-03	0	57	0	532676608	56	6065
2026-01-14 22:21:21.94	88.26	24.44	-42.2	-46.5	11.5	8.73e-04	0	57	0	540016640	56	5725
2026-01-14 22:21:25.97	89.43	24.46	-42.4	-46.8	11.1	1.29e-03	0	57	0	547356672	56	5992
2026-01-14 22:21:30.01	90.59	24.46	-42.5	-47.1	10.9	2.28e-03	0	57	0	555745280	56	6134
2026-01-14 22:21:34.05	91.76	24.45	-42.2	-46.4	11.7	7.86e-04	0	58	0	563085312	56	5658
2026-01-14 22:21:38.09	92.92	24.43	-42.4	-46.6	11.4	8.31e-04	0	58	0	570425344	56	5826
2026-01-14 22:21:42.13	94.09	24.39	-42.6	-47.1	10.9	2.15e-03	0	57	0	577765376	56	6177
2026-01-14 22:21:46.16	95.24	24.35	-42.5	-47.0	11.0	1.80e-03	0	58	0	586153984	56	6116
2026-01-14 22:21:50.19	96.40	24.29	-42.5	-46.8	11.2	1.14e-03	0	58	0	593494016	56	5962
2026-01-14 22:21:54.23	97.55	24.22	-42.7	-47.5	10.6	3.27e-03	0	58	0	600834048	56	6438
2026-01-14 22:21:58.27	98.69	24.14	-42.4	-46.7	11.4	1.06e-03	0	57	0	608174080	56	5872
2026-01-14 22:22:02.31	99.83	24.04	-42.4	-46.7	11.3	1.15e-03	0	58	0	615514112	56	5920
2026-01-14 22:22:06.34	100.97	23.94	-42.1	-46.0	12.2	2.05e-04	0	57	0	623902720	56	5407
2026-01-14 22:22:10.37	102.09	23.82	-42.1	-46.1	12.1	2.88e-04	0	57	0	631242752	56	5480
2026-01-14 22:22:14.41	103.21	23.70	-42.1	-45.9	12.2	2.57e-04	0	57	0	638582784	56	5397
2026-01-14 22:22:18.45	104.31	23.56	-41.7	-45.4	12.7	7.85e-05	0	58	0	645922816	55	5353
2026-01-14 22:22:22.49	105.41	23.41	-41.6	-45.1	12.9	5.56e-05	0	58	0	654311424	55	5206
2026-01-14 22:22:26.52	106.50	23.26	-41.2	-44.5	13.5	1.37e-05	0	57	0	661651456	54	5114
2026-01-14 22:22:30.55	107.57	23.09	-41.3	-44.6	13.5	6.80e-06	0	58	0	668991488	54	5176
2026-01-14 22:22:34.59	108.64	22.92	-41.0	-44.1	13.8	6.80e-06	0	58	0	676331520	53	5200
2026-01-14 22:22:38.62	109.69	22.73	-41.5	-44.9	13.1	2.97e-05	0	58	0	683671552	53	5715
2026-01-14 22:22:42.66	110.73	22.54	-41.4	-44.9	13.1	2.44e-05	0	58	0	692060160	53	5669
2026-01-14 22:22:46.69	111.76	22.34	-41.3	-44.7	13.3	1.06e-05	0	58	0	699400192	53	5571
2026-01-14 22:22:50.74	112.78	22.13	-41.5	-45.0	13.0	3.43e-05	0	58	0	706740224	53	5747
2026-01-14 22:22:54.77	113.78	21.92	-42.1	-46.2	11.8	4.60e-04	0	58	0	714080256	54	6213
2026-01-14 22:22:58.81	114.77	21.70	-42.2	-46.5	11.4	8.28e-04	0	58	0	721420288	55	6090
2026-01-14 22:23:02.84	115.74	21.47	-42.0	-46.0	12.0	4.64e-04	0	58	0	729808896	55	5728
2026-01-14 22:23:06.88	116.70	21.24	-41.8	-45.5	12.4	1.17e-04	0	58	0	737148928	55	5439
2026-01-14 22:23:10.92	117.65	21.00	-42.1	-46.2	11.8	4.41e-04	0	58	0	744488960	55	5856
2026-01-14 22:23:14.96	118.58	20.75	-42.1	-46.2	11.7	5.44e-04	0	58	0	751828992	55	5919
2026-01-14 22:23:19.00	119.50	20.50	-42.0	-45.9	11.9	4.70e-04	0	58	0	760217600	54	6053
2026-01-14 22:23:23.03	120.40	20.24	-41.8	-45.7	12.1	2.39e-04	0	58	0	767557632	54	5918
2026-01-14 22:23:27.06	121.29	19.99	-41.9	-45.8	12.1	3.55e-04	0	58	0	774897664	54	5960
2026-01-14 22:23:31.10	122.16	19.72	-41.9	-45.9	11.9	4.32e-03	0	58	0	782237696	54	6043
2026-01-14 22:23:35.13	123.02	19.46	-40.8	-46.0	10.5	1.43e-02	0	58	0	789577728	53	6452
2026-01-14 22:23:39.16	123.86	19.19	-42.3	-46.8	11.0	1.83e-03	0	58	0	797966336	55	6338
2026-01-14 22:23:43.20	124.69	18.91	-42.5	-47.3	10.5	9.81e-03	0	58	0	805306368	55	6650
2026-01-14 22:23:47.23	125.51	18.64	-42.1	-46.3	10.4	1.50e-03	0	58	0	812646400	53	6668
2026-01-14 22:23:51.26	126.31	18.36	-42.5	-47.2	10.5	5.28e-03	0	58	0	819986432	55	6615
2026-01-14 22:23:55.30	127.10	18.08	-42.0	-46.2	11.6	9.68e-04	0	58	0	827326464	54	6226
2026-01-14 22:23:59.33	127.87	17.80	-42.4	-47.1	10.6	3.45e-03	0	58	0	835715072	55	6561
2026-01-14 22:24:03.37	128.63	17.51	-42.2	-46.8	10.9	2.61e-03	0	58	0	843055104	55	6325
2026-01-14 22:24:07.41	129.37	17.23	-42.5	-47.4	10.2	5.04e-03	0	58	0	850395136	55	6795
2026-01-14 22:24:11.44	130.10	16.94	-42.1	-46.6	11.1	3.47e-03	0	58	0	857735168	54	6534
2026-01-14 22:24:15.48	130.82	16.65	-42.1	-46.4	11.3	1.28e-03	0	58	0	866123776	54	6383
2026-01-14 22:24:19.51	131.53	16.37	-38.4	-48.1	9.3	4.36e-02	0	58	0	873463808	50	9721
2026-01-14 22:24:23.55	132.22	16.08	-41.8	-46.8	10.3	4.20e-02	0	58	0	880803840	53	7071
2026-01-14 22:24:27.58	132.90	15.79	-42.2	-47.0	10.1	7.69e-01	0	58	0	888143872	55	6434
2026-01-14 22:24:31.62	133.56	15.50	-41.1	-47.1	10.0	1.12e+00	0	58	0	893386752	51	8242
2026-01-14 22:24:35.66	134.22	15.21	-40.8	-46.4	9.9	1.01e-01	0	58	0	900726784	53	6788
2026-01-14 22:24:39.69	134.86	14.92	-41.4	-46.7	8.6	4.46e-01	10	58	0	907018240	52	7400
2026-01-14 22:24:43.73	135.49	14.63	-23.6	-38.2	4.6	1.49e+00	0	58	104	909115392	23	14752
2026-01-14 22:24:47.77	136.11	14.34	-24.2	-39.5	4.6	8.31e-01	0	58	0	909115392	24	16156
2026-01-14 22:24:51.80	136.71	14.05	-41.9	-47.1	9.2	7.03e-01	3	58	104	910163968	54	6920
2026-01-14 22:24:55.84	137.31	13.76	-41.2	-46.9	9.0	1.07e-01	10	58	0	916455424	54	6725
2026-01-14 22:24:59.88	137.89	13.47	-36.3	-45.8	10.0	1.30e-01	4	58	0	922746880	52	6670
2026-01-14 22:25:03.92	138.46	13.19	-42.0	-46.9	10.2	5.34e-02	0	58	0	930086912	54	6725
2026-01-14 22:25:07.96	139.03	12.90	-42.6	-47.2	10.2	2.16e-02	0	58	0	937426944	54	7009
2026-01-14 22:25:11.99	139.58	12.62	-42.3	-47.4	10.0	8.24e-03	0	58	0	944766976	55	6731
2026-01-14 22:25:16.02	140.12	12.33	-42.4	-47.5	9.8	1.84e-02	0	58	0	953155584	55	6841
2026-01-14 22:25:20.06	140.65	12.05	-42.4	-47.7	9.6	1.30e-02	0	58	0	960495616	55	7002
2026-01-14 22:25:24.10	141.17	11.77	-42.4	-47.5	9.8	1.09e-02	0	58	0	967835648	55	6873
2026-01-14 22:25:28.14	141.69	11.48	-42.3	-47.6	9.7	1.10e-02	0	58	0	975175680	55	6899
2026-01-14 22:25:32.17	142.19	11.21	-42.5	-48.1	9.0	2.06e-02	0	58	0	983564288	55	7306
2026-01-14 22:25:36.21	142.68	10.93	-42.7	-48.8	8.4	4.73e-02	0	58	0	990904320	55	7901
2026-01-14 22:25:40.26	143.17	10.65	-42.9	-49.3	8.0	5.71e-02	0	58	0	998244352	56	7941
2026-01-14 22:25:44.29	143.64	10.37	-42.8	-48.9	8.3	4.97e-02	0	58	0	1005584384	56	7627
2026-01-14 22:25:48.33	144.11	10.10	-42.8	-49.2	8.1	5.93e-02	0	58	0	1012924416	56	7864
2026-01-14 22:25:52.37	144.57	9.83	-42.8	-49.1	8.1	5.41e-02	0	58	0	1021313024	56	7725
2026-01-14 22:25:56.40	145.02	9.55	-42.7	-48.7	8.5	3.90e-02	0	58	0	1028653056	56	7399
2026-01-14 22:26:00.44	145.46	9.28	-42.6	-48.6	8.5	4.09e-02	0	58	0	1035993088	56	7352
2026-01-14 22:26:04.47	145.90	9.02	-42.6	-48.8	8.2	5.17e-02	0	58	0	1043333120	56	7532
2026-01-14 22:26:08.51	146.33	8.75	-42.6	-49.2	7.7	8.30e-02	0	58	0	1051721728	56	7856
2026-01-14 22:26:12.55	146.75	8.48	-42.5	-48.7	8.2	6.75e-02	0	58	0	1059061760	56	7399
2026-01-14 22:26:16.58	147.16	8.22	-42.3	-48.1	8.7	3.51e-02	0	58	0	1066401792	56	6936
2026-01-14 22:26:20.62	147.56	7.96	-44.4	-58.3	3.8	1.49e+00	0	58	104	1072693248	59	18836
2026-01-14 22:26:24.66	147.96	7.69	-45.2	-59.9	3.8	1.49e+00	0	58	104	1072693248	61	20241
2026-01-14 22:26:28.70	148.36	7.44	-45.4	-60.0	3.8	1.49e+00	0	58	104	1072693248	61	20436
2026-01-14 22:26:32.73	148.74	7.18	-45.2	-59.7	3.8	1.49e+00	0	58	104	1072693248	61	19730
2026-01-14 22:26:36.76	149.12	6.92	-45.1	-59.6	3.8	1.49e+00	0	58	104	1072693248	61	19576
2026-01-14 22:26:40.80	149.49	6.67	-45.1	-59.6	3.8	1.49e+00	0	58	104	1072693248	61	19486
2026-01-14 22:26:44.84	149.86	6.41	-45.1	-59.6	3.8	1.49e+00	0	58	104	1072693248	61	19462
2026-01-14 22:26:48.87	150.22	6.16	-45.1	-59.6	3.8	1.49e+00	0	58	104	1072693248	61	19447
2026-01-14 22:26:52.91	150.57	5.91	-45.1	-59.6	3.8	1.49e+00	0	58	104	1072693248	61	19531
2026-01-14 22:26:56.96	150.92	5.66	-45.1	-59.6	3.8	1.49e+00	0	58	104	1072693248	61	19535
2026-01-14 22:27:01.00	151.26	5.41	-45.1	-59.6	3.8	1.49e+00	0	58	104	1072693248	61	19445
2026-01-14 22:27:05.04	151.60	5.17	-45.1	-59.6	3.8	1.49e+00	0	58	104	1072693248	61	19410
2026-01-14 22:27:09.09	151.93	4.92	-45.1	-59.6	3.8	1.49e+00	0	58	104	1072693248	61	19439
2026-01-14 22:27:13.13	152.26	4.68	-45.1	-59.6	3.8	1.49e+00	0	58	104	1072693248	61	19456
2026-01-14 22:27:17.16	152.58	4.44	-45.1	-59.6	3.8	1.49e+00	0	58	104	1072693248	61	19434
2026-01-14 22:27:21.20	152.90	4.20	-45.1	-59.6	3.8	1.49e+00	0	58	104	1072693248	61	19405
2026-01-14 22:27:25.24	153.21	3.96	-45.1	-59.5	3.8	1.49e+00	0	58	104	1072693248	61	19369
2026-01-14 22:27:29.28	153.52	3.72	-45.1	-59.6	3.8	1.49e+00	0	58	104	1072693248	61	19441
2026-01-14 22:27:33.32	153.82	3.48	-45.1	-59.6	3.8	1.49e+00	0	58	104	1072693248	61	19431
2026-01-14 22:27:37.35	154.12	3.25	-45.1	-59.6	3.8	1.49e+00	0	58	104	1072693248	61	19412
2026-01-14 22:27:41.39	154.41	3.02	-45.1	-59.6	3.8	1.49e+00	0	59	104	1072693248	61	19434
2026-01-14 22:27:45.43	154.70	2.79	-45.1	-59.6	3.8	1.49e+00	0	58	104	1072693248	61	19439
2026-01-14 22:27:49.47	154.98	2.56	-45.0	-59.5	3.8	1.49e+00	0	58	104	1072693248	61	19385
2026-01-14 22:27:53.51	155.26	2.33	-45.1	-59.5	3.8	1.49e+00	0	59	104	1072693248	61	19346
2026-01-14 22:27:57.55	155.54	2.10	-45.0	-59.5	3.8	1.49e+00	0	58	104	1072693248	61	19339

#Closed at: 2026-01-14 22:28:00
#Recorded file [1072 MB]: D:/lorett/data/31039_260115_011454.dat