passes_logs/2026/01/14/R2.0S_Moscow/R2.0S_Moscow__20260114_023245_FENGYUN_3D_rec.log

#Pass ID: 20260114_023245_FENGYUN 3D
#Satellite: FENGYUN 3D
#Configuration: FENGYUN 3D
#almurnet v.1.7.20251203
#Start time: 2026-01-14 02:32:46

#Version: 2.2.20231116
#Station: R2.0S_Moscow
#Location: 37.707566 lon 55.798166 lat
#TLE: 1 43010U 17072A   26013.31211337  .00000452  00000+0  23563-3 0  9990
#TLE: 2 43010  98.9934 345.1024 0002270 111.0315 249.1103 14.19696845423017

#Time	Az	El	Level	Level2	SNR	BER	BlckErr	Temp	State	Recorded	gain1	gain2
2026-01-14 02:32:46.70	13.43	2.06	-40.6	-52.3	3.8	8.46e-01	0	51	0	0	53	13378
2026-01-14 02:32:50.74	13.31	2.31	-40.6	-52.3	3.8	8.46e-01	0	52	104	0	52	14198
2026-01-14 02:32:54.78	13.19	2.57	-40.6	-52.4	3.8	8.46e-01	0	52	104	0	52	14227
2026-01-14 02:32:58.83	13.06	2.83	-40.6	-52.3	3.8	8.46e-01	0	52	104	0	52	14160
2026-01-14 02:33:02.87	12.93	3.09	-40.6	-52.3	3.8	8.45e-01	0	52	104	0	52	14177
2026-01-14 02:33:06.92	12.79	3.35	-40.5	-52.3	3.8	8.47e-01	0	53	104	0	52	14124
2026-01-14 02:33:10.96	12.66	3.61	-40.5	-52.2	3.8	8.46e-01	0	53	104	0	52	14039
2026-01-14 02:33:15.00	12.52	3.88	-40.5	-52.0	3.8	8.46e-01	0	54	104	0	52	13711
2026-01-14 02:33:19.05	12.38	4.15	-40.5	-51.9	3.8	8.45e-01	0	54	104	0	52	13495
2026-01-14 02:33:23.10	12.23	4.42	-40.5	-52.0	3.8	8.47e-01	0	54	104	0	52	13585
2026-01-14 02:33:27.14	12.08	4.70	-40.5	-52.2	3.8	8.46e-01	0	54	104	0	52	13915
2026-01-14 02:33:31.18	11.93	4.97	-40.5	-52.3	3.8	8.47e-01	0	54	104	0	52	14169
2026-01-14 02:33:35.22	11.78	5.25	-40.5	-52.2	3.8	8.47e-01	0	54	104	0	52	13924
2026-01-14 02:33:39.27	11.62	5.54	-40.5	-51.7	3.8	8.45e-01	0	55	104	0	52	13139
2026-01-14 02:33:43.31	11.46	5.82	-40.4	-51.0	3.8	8.46e-01	0	55	104	0	52	12106
2026-01-14 02:33:47.35	11.30	6.11	-40.4	-50.8	3.8	8.46e-01	0	55	104	0	52	11884
2026-01-14 02:33:51.40	11.13	6.40	-40.5	-51.4	3.8	8.46e-01	0	55	104	0	52	12744
2026-01-14 02:33:55.44	10.96	6.69	-40.5	-52.0	3.8	8.46e-01	0	56	104	0	52	13660
2026-01-14 02:33:59.49	10.78	6.99	-40.5	-52.2	3.8	8.46e-01	0	56	104	0	52	14029
2026-01-14 02:34:03.53	10.60	7.29	-40.5	-52.2	3.8	8.46e-01	0	56	104	0	52	13933
2026-01-14 02:34:07.57	10.42	7.59	-40.5	-52.0	3.8	8.46e-01	0	56	104	0	52	13705
2026-01-14 02:34:11.62	10.23	7.90	-40.5	-52.1	3.8	8.46e-01	0	56	104	0	52	13733
2026-01-14 02:34:15.66	10.03	8.21	-40.7	-52.3	3.8	8.46e-01	0	56	104	0	52	14079
2026-01-14 02:34:19.70	9.84	8.53	-40.3	-52.0	3.8	8.46e-01	0	57	104	0	52	13638
2026-01-14 02:34:23.74	9.64	8.84	-40.7	-52.3	3.8	8.45e-01	0	57	104	0	52	14154
2026-01-14 02:34:27.78	9.43	9.17	-40.5	-52.2	3.8	8.46e-01	0	57	104	0	52	13955
2026-01-14 02:34:31.82	9.22	9.49	-40.2	-52.0	3.8	8.47e-01	0	57	104	0	52	13595
2026-01-14 02:34:35.85	9.00	9.82	-40.8	-52.6	3.8	8.46e-01	0	57	104	0	52	14667
2026-01-14 02:34:39.89	8.78	10.15	-40.2	-51.7	3.8	8.46e-01	0	57	104	0	52	13144
2026-01-14 02:34:43.93	8.55	10.49	-41.0	-51.7	3.8	8.45e-01	0	57	104	0	52	13133
2026-01-14 02:34:47.97	8.32	10.83	-41.3	-51.3	3.8	8.46e-01	0	57	104	0	53	11936
2026-01-14 02:34:52.01	8.08	11.17	-41.2	-49.4	4.3	8.33e-01	0	57	0	0	53	9538
2026-01-14 02:34:56.05	7.84	11.52	-40.3	-45.7	6.6	2.82e-01	0	58	0	7340032	52	6585
2026-01-14 02:35:00.08	7.59	11.88	-39.3	-43.1	9.3	2.75e-02	0	58	0	30408704	50	5495
2026-01-14 02:35:04.13	7.33	12.24	-38.5	-41.5	11.1	2.71e-03	0	58	0	53477376	49	4862
2026-01-14 02:35:08.17	7.06	12.60	-38.5	-41.3	11.6	1.01e-03	0	58	0	76546048	48	5016
2026-01-14 02:35:12.21	6.79	12.97	-39.0	-42.0	11.0	1.91e-03	0	58	0	98566144	48	5421
2026-01-14 02:35:16.25	6.51	13.34	-38.7	-41.3	12.0	5.89e-04	0	58	0	121634816	48	5039
2026-01-14 02:35:20.29	6.23	13.72	-39.0	-41.6	11.8	5.74e-04	0	58	0	144703488	48	5216
2026-01-14 02:35:24.33	5.93	14.11	-38.8	-41.3	12.5	1.79e-04	0	58	0	166723584	48	5004
2026-01-14 02:35:28.37	5.63	14.49	-38.8	-41.2	12.7	1.23e-04	0	58	0	189792256	48	4969
2026-01-14 02:35:32.42	5.32	14.89	-38.5	-40.9	13.2	6.17e-05	0	58	0	212860928	48	4764
2026-01-14 02:35:36.46	5.00	15.29	-38.4	-40.6	13.6	2.17e-05	0	58	0	234881024	48	4628
2026-01-14 02:35:40.50	4.67	15.70	-38.3	-40.5	13.7	1.14e-05	0	58	0	257949696	48	4563
2026-01-14 02:35:44.53	4.33	16.11	-38.4	-40.6	13.8	6.80e-06	0	58	0	281018368	48	4602
2026-01-14 02:35:48.57	3.98	16.52	-38.4	-40.6	13.8	1.37e-05	0	59	0	303038464	48	4599
2026-01-14 02:35:52.61	3.62	16.95	-38.4	-40.5	13.9	9.10e-06	0	59	0	326107136	48	4584
2026-01-14 02:35:56.65	3.25	17.38	-38.4	-40.4	14.1	4.50e-06	0	59	0	349175808	48	4530
2026-01-14 02:36:00.68	2.87	17.81	-38.2	-40.2	14.5	1.10e-06	0	59	0	371195904	48	4393
2026-01-14 02:36:04.73	2.48	18.26	-38.1	-40.1	14.6	0.00e+00	0	59	0	394264576	48	4343
2026-01-14 02:36:08.77	2.07	18.71	-38.2	-40.1	14.6	0.00e+00	0	59	0	417333248	48	4370
2026-01-14 02:36:12.80	1.66	19.16	-38.2	-40.1	14.6	0.00e+00	0	59	0	439353344	48	4387
2026-01-14 02:36:16.84	1.23	19.63	-38.0	-39.9	14.9	0.00e+00	0	59	0	462422016	48	4289
2026-01-14 02:36:20.87	0.78	20.10	-37.8	-39.6	15.1	0.00e+00	0	59	0	485490688	47	4368
2026-01-14 02:36:24.92	0.32	20.57	-37.6	-39.4	15.3	0.00e+00	0	59	0	507510784	47	4267
2026-01-14 02:36:28.96	359.85	21.06	-37.6	-39.3	15.4	0.00e+00	0	59	0	530579456	47	4234
2026-01-14 02:36:33.00	359.36	21.55	-37.6	-39.4	15.3	0.00e+00	0	59	0	553648128	47	4261
2026-01-14 02:36:37.04	358.85	22.05	-37.4	-39.2	15.6	0.00e+00	0	59	0	575668224	46	4415
2026-01-14 02:36:41.08	358.33	22.56	-37.2	-38.9	15.8	0.00e+00	0	59	0	598736896	46	4291
2026-01-14 02:36:45.12	357.79	23.07	-37.1	-38.7	16.0	0.00e+00	0	59	0	621805568	46	4192
2026-01-14 02:36:49.16	357.23	23.59	-37.1	-38.8	16.0	0.00e+00	0	59	0	643825664	46	4217
2026-01-14 02:36:53.20	356.65	24.12	-37.1	-38.7	16.1	0.00e+00	0	59	0	666894336	46	4189
2026-01-14 02:36:57.24	356.05	24.66	-36.9	-38.5	16.3	0.00e+00	0	60	0	689963008	45	4310
2026-01-14 02:37:01.28	355.43	25.20	-36.9	-38.6	16.3	0.00e+00	0	59	0	711983104	45	4344
2026-01-14 02:37:05.33	354.78	25.76	-36.9	-38.5	16.3	0.00e+00	0	60	0	735051776	45	4340
2026-01-14 02:37:09.37	354.12	26.32	-36.6	-38.2	16.8	0.00e+00	0	60	0	758120448	45	4147
2026-01-14 02:37:13.41	353.43	26.88	-36.6	-38.2	16.8	0.00e+00	0	60	0	781189120	45	4175
2026-01-14 02:37:17.45	352.71	27.46	-36.8	-38.4	16.6	0.00e+00	0	60	0	803209216	45	4250
2026-01-14 02:37:21.48	351.97	28.04	-36.6	-38.2	16.8	0.00e+00	0	60	0	826277888	45	4159
2026-01-14 02:37:25.53	351.19	28.63	-36.4	-37.9	17.1	0.00e+00	0	60	0	848297984	44	4284
2026-01-14 02:37:29.57	350.39	29.22	-36.8	-38.4	16.7	0.00e+00	0	60	0	871366656	44	4495
2026-01-14 02:37:33.61	349.56	29.82	-36.7	-38.2	16.9	0.00e+00	0	60	0	894435328	44	4417
2026-01-14 02:37:37.64	348.69	30.42	-36.6	-38.1	17.0	0.00e+00	0	60	0	916455424	44	4359
2026-01-14 02:37:41.68	347.79	31.03	-36.3	-37.8	17.4	0.00e+00	0	60	0	939524096	44	4226
2026-01-14 02:37:45.72	346.86	31.65	-36.3	-37.8	17.4	0.00e+00	0	60	0	962592768	44	4225
2026-01-14 02:37:49.76	345.89	32.27	-36.4	-37.8	17.3	0.00e+00	0	60	0	985661440	44	4241
2026-01-14 02:37:53.80	344.88	32.89	-36.2	-37.7	17.5	0.00e+00	0	60	0	1007681536	44	4172
2026-01-14 02:37:57.84	343.83	33.52	-36.4	-37.9	17.3	0.00e+00	0	60	0	1030750208	44	4268
2026-01-14 02:38:01.87	342.74	34.14	-36.4	-37.9	17.3	0.00e+00	0	60	0	1052770304	44	4265
2026-01-14 02:38:05.91	341.61	34.77	-36.3	-37.8	17.4	0.00e+00	0	60	0	1075838976	44	4222
2026-01-14 02:38:09.96	340.43	35.40	-36.2	-37.6	17.6	0.00e+00	0	60	0	1098907648	44	4134
2026-01-14 02:38:13.99	339.20	36.02	-36.2	-37.7	17.6	0.00e+00	0	60	0	1120927744	44	4162
2026-01-14 02:38:18.03	337.93	36.64	-36.3	-37.8	17.5	0.00e+00	0	60	0	1143996416	44	4221
2026-01-14 02:38:22.07	336.60	37.26	-36.2	-37.6	17.7	0.00e+00	0	60	0	1167065088	44	4132
2026-01-14 02:38:26.11	335.23	37.87	-36.4	-37.8	17.5	0.00e+00	0	60	0	1190133760	44	4241
2026-01-14 02:38:30.15	333.80	38.47	-36.3	-37.7	17.6	0.00e+00	0	60	0	1212153856	44	4184
2026-01-14 02:38:34.19	332.32	39.06	-36.4	-37.9	17.4	0.00e+00	0	60	0	1235222528	44	4255
2026-01-14 02:38:38.22	330.79	39.63	-36.5	-38.0	17.3	0.00e+00	0	60	0	1257242624	44	4298
2026-01-14 02:38:42.26	329.20	40.20	-36.5	-37.9	17.4	0.00e+00	0	60	0	1280311296	44	4283
2026-01-14 02:38:46.31	327.54	40.74	-36.3	-37.8	17.5	0.00e+00	0	60	0	1303379968	44	4204
2026-01-14 02:38:50.35	325.84	41.27	-36.1	-37.5	17.8	0.00e+00	0	60	0	1326448640	44	4077
2026-01-14 02:38:54.39	324.08	41.77	-36.2	-37.6	17.6	0.00e+00	0	60	0	1348468736	44	4135
2026-01-14 02:38:58.43	322.27	42.25	-36.2	-37.6	17.7	0.00e+00	0	60	0	1371537408	44	4137
2026-01-14 02:39:02.47	320.40	42.70	-36.2	-37.6	17.7	0.00e+00	0	60	0	1394606080	44	4116
2026-01-14 02:39:06.51	318.48	43.12	-35.7	-37.1	18.0	0.00e+00	0	60	0	1416626176	43	4134
2026-01-14 02:39:10.55	316.51	43.51	-36.0	-37.4	17.7	0.00e+00	0	60	0	1439694848	43	4275
2026-01-14 02:39:14.59	314.50	43.86	-35.8	-37.2	17.9	0.00e+00	0	60	0	1461714944	43	4156
2026-01-14 02:39:18.62	312.45	44.17	-35.9	-37.3	17.8	0.00e+00	0	60	0	1484783616	43	4198
2026-01-14 02:39:22.66	310.35	44.45	-36.3	-37.7	17.4	0.00e+00	0	60	0	1507852288	43	4429
2026-01-14 02:39:26.70	308.22	44.68	-36.1	-37.6	17.5	0.00e+00	0	60	0	1530920960	43	4372
2026-01-14 02:39:30.74	306.06	44.87	-36.1	-37.6	17.5	0.00e+00	0	60	0	1552941056	43	4363
2026-01-14 02:39:34.79	303.87	45.01	-36.0	-37.4	17.6	0.00e+00	0	61	0	1576009728	43	4285
2026-01-14 02:39:38.82	301.68	45.11	-35.9	-37.3	17.7	0.00e+00	0	60	0	1599078400	43	4229
2026-01-14 02:39:42.86	299.47	45.16	-36.1	-37.5	17.6	0.00e+00	0	60	0	1621098496	43	4317
2026-01-14 02:39:46.90	297.25	45.17	-35.8	-37.2	17.9	0.00e+00	0	60	0	1644167168	43	4153
2026-01-14 02:39:50.94	295.04	45.12	-35.9	-37.3	17.7	0.00e+00	0	60	0	1666187264	43	4239
2026-01-14 02:39:54.98	292.84	45.03	-36.0	-37.5	17.6	0.00e+00	0	60	0	1689255936	43	4314
2026-01-14 02:39:59.01	290.66	44.90	-35.5	-36.9	18.2	0.00e+00	0	60	0	1712324608	42	4257
2026-01-14 02:40:03.05	288.49	44.71	-36.0	-37.4	17.6	0.00e+00	0	60	0	1735393280	42	4536
2026-01-14 02:40:07.09	286.35	44.49	-35.9	-37.3	17.7	0.00e+00	0	60	0	1757413376	42	4486
2026-01-14 02:40:11.13	284.25	44.22	-35.8	-37.2	17.8	0.00e+00	0	61	0	1780482048	42	4425
2026-01-14 02:40:15.17	282.18	43.91	-35.6	-37.0	18.0	0.00e+00	0	61	0	1803550720	42	4325
2026-01-14 02:40:19.21	280.16	43.56	-35.8	-37.2	17.8	0.00e+00	0	60	0	1825570816	42	4441
2026-01-14 02:40:23.25	278.18	43.18	-35.7	-37.1	17.9	0.00e+00	0	61	0	1848639488	42	4373
2026-01-14 02:40:27.29	276.25	42.77	-35.6	-36.9	18.1	0.00e+00	0	61	0	1870659584	42	4280
2026-01-14 02:40:31.33	274.37	42.32	-35.6	-37.0	18.0	0.00e+00	0	61	0	1893728256	42	4332
2026-01-14 02:40:35.37	272.54	41.84	-35.7	-37.1	17.9	0.00e+00	0	61	0	1916796928	42	4377
2026-01-14 02:40:39.40	270.77	41.34	-35.6	-36.9	18.1	0.00e+00	0	61	0	1939865600	42	4274
2026-01-14 02:40:43.44	269.06	40.82	-35.6	-37.0	18.0	0.00e+00	0	60	0	1961885696	42	4322
2026-01-14 02:40:47.48	267.39	40.28	-35.6	-37.0	18.0	0.00e+00	0	60	0	1984954368	42	4301
2026-01-14 02:40:51.52	265.79	39.72	-35.6	-37.0	18.0	0.00e+00	0	60	0	2008023040	42	4330
2026-01-14 02:40:55.56	264.24	39.14	-35.5	-36.9	18.1	0.00e+00	0	61	0	2030043136	42	4262
2026-01-14 02:40:59.60	262.74	38.55	-35.8	-37.2	17.8	0.00e+00	0	61	0	2053111808	42	4413
2026-01-14 02:41:03.64	261.30	37.95	-35.7	-37.1	17.9	0.00e+00	0	61	0	2076180480	42	4371
2026-01-14 02:41:07.69	259.91	37.34	-35.8	-37.2	17.9	0.00e+00	0	61	0	2098200576	42	4395
2026-01-14 02:41:11.73	258.57	36.72	-35.5	-36.9	18.1	0.00e+00	0	61	0	2121269248	42	4262
2026-01-14 02:41:15.77	257.29	36.10	-35.6	-37.0	18.0	0.00e+00	0	61	0	2144337920	42	4292
2026-01-14 02:41:19.81	256.05	35.47	-35.5	-36.9	18.1	0.00e+00	0	61	0	2166358016	42	4274
2026-01-14 02:41:23.85	254.86	34.84	-35.5	-36.9	18.1	0.00e+00	0	61	0	2189426688	42	4277
2026-01-14 02:41:27.89	253.71	34.21	-35.4	-36.7	18.2	0.00e+00	0	61	0	2212495360	42	4193
2026-01-14 02:41:31.93	252.61	33.58	-35.6	-37.0	18.0	0.00e+00	0	61	0	2234515456	42	4314
2026-01-14 02:41:35.97	251.55	32.95	-35.7	-37.1	17.9	0.00e+00	0	61	0	2257584128	42	4348
2026-01-14 02:41:40.02	250.53	32.32	-35.5	-36.9	18.1	0.00e+00	0	61	0	2280652800	42	4271
2026-01-14 02:41:44.05	249.55	31.70	-35.6	-37.0	17.9	0.00e+00	0	61	0	2302672896	42	4317
2026-01-14 02:41:48.09	248.61	31.08	-35.8	-37.2	17.8	0.00e+00	0	61	0	2325741568	42	4420
2026-01-14 02:41:52.13	247.70	30.47	-36.0	-37.5	17.4	0.00e+00	0	61	0	2348810240	42	4575
2026-01-14 02:41:56.17	246.82	29.86	-35.9	-37.3	17.6	0.00e+00	0	61	0	2370830336	42	4481
2026-01-14 02:42:00.21	245.98	29.26	-35.8	-37.2	17.8	0.00e+00	0	61	0	2393899008	42	4402
2026-01-14 02:42:04.25	245.17	28.66	-35.9	-37.4	17.6	0.00e+00	0	61	0	2416967680	42	4497
2026-01-14 02:42:08.29	244.39	28.07	-36.2	-37.7	17.3	0.00e+00	0	61	0	2438987776	42	4652
2026-01-14 02:42:12.33	243.64	27.48	-36.1	-37.5	17.4	0.00e+00	0	61	0	2462056448	42	4598
2026-01-14 02:42:16.37	242.91	26.90	-36.4	-37.9	17.0	0.00e+00	0	61	0	2485125120	43	4515
2026-01-14 02:42:20.41	242.21	26.33	-36.4	-37.9	17.0	0.00e+00	0	61	0	2507145216	43	4512
2026-01-14 02:42:24.44	241.54	25.77	-36.4	-37.9	17.0	0.00e+00	0	61	0	2530213888	43	4506
2026-01-14 02:42:28.48	240.89	25.22	-36.4	-37.8	17.0	0.00e+00	0	61	0	2553282560	43	4488
2026-01-14 02:42:32.52	240.26	24.67	-36.4	-37.9	17.0	0.00e+00	0	61	0	2575302656	43	4513
2026-01-14 02:42:36.56	239.66	24.13	-36.3	-37.8	17.1	0.00e+00	0	61	0	2598371328	43	4477
2026-01-14 02:42:40.60	239.07	23.60	-36.3	-37.8	17.1	0.00e+00	0	61	0	2621440000	43	4464
2026-01-14 02:42:44.64	238.50	23.07	-36.4	-37.9	16.9	0.00e+00	0	61	0	2643460096	43	4538
2026-01-14 02:42:48.67	237.96	22.55	-36.7	-38.2	16.6	0.00e+00	0	61	0	2666528768	43	4705
2026-01-14 02:42:52.71	237.43	22.04	-37.0	-38.6	16.4	0.00e+00	0	61	0	2689597440	44	4621
2026-01-14 02:42:56.76	236.92	21.54	-37.0	-38.6	16.4	0.00e+00	0	61	0	2711617536	44	4645
2026-01-14 02:43:00.80	236.42	21.05	-37.0	-38.6	16.4	0.00e+00	0	61	0	2734686208	44	4646
2026-01-14 02:43:04.83	235.94	20.56	-37.0	-38.6	16.4	0.00e+00	0	61	0	2757754880	44	4600
2026-01-14 02:43:08.87	235.48	20.08	-37.1	-38.7	16.2	0.00e+00	0	61	0	2779774976	44	4700
2026-01-14 02:43:12.91	235.03	19.61	-37.4	-39.1	15.9	0.00e+00	0	61	0	2802843648	45	4600
2026-01-14 02:43:16.96	234.59	19.14	-37.5	-39.2	15.7	0.00e+00	0	61	0	2825912320	45	4703
2026-01-14 02:43:21.00	234.17	18.68	-37.5	-39.3	15.7	0.00e+00	0	61	0	2848980992	45	4714
2026-01-14 02:43:25.04	233.76	18.23	-37.7	-39.5	15.5	0.00e+00	0	61	0	2871001088	45	4816
2026-01-14 02:43:29.08	233.36	17.78	-37.8	-39.6	15.3	0.00e+00	0	61	0	2894069760	46	4648
2026-01-14 02:43:33.12	232.97	17.34	-37.9	-39.7	15.2	0.00e+00	0	61	0	2916089856	46	4667
2026-01-14 02:43:37.16	232.60	16.91	-38.0	-39.8	15.1	0.00e+00	0	61	0	2939158528	46	4722
2026-01-14 02:43:41.20	232.23	16.48	-37.9	-39.7	15.2	0.00e+00	0	61	0	2962227200	46	4683
2026-01-14 02:43:45.24	231.88	16.06	-38.0	-39.8	15.0	0.00e+00	0	61	0	2984247296	46	4749
2026-01-14 02:43:49.28	231.54	15.65	-38.1	-39.9	14.9	1.10e-06	0	61	0	3007315968	46	4804
2026-01-14 02:43:53.32	231.20	15.24	-38.2	-40.1	14.7	0.00e+00	0	61	0	3030384640	46	4888
2026-01-14 02:43:57.36	230.88	14.84	-38.2	-40.1	14.7	0.00e+00	0	61	0	3052404736	47	4635
2026-01-14 02:44:01.40	230.56	14.44	-38.4	-40.3	14.5	1.10e-06	0	61	0	3075473408	47	4743
2026-01-14 02:44:05.44	230.25	14.05	-38.5	-40.5	14.2	1.10e-06	0	61	0	3098542080	47	4846
2026-01-14 02:44:09.48	229.95	13.66	-38.6	-40.6	14.1	0.00e+00	0	61	0	3120562176	47	4906
2026-01-14 02:44:13.52	229.66	13.28	-38.6	-40.7	14.0	3.40e-06	0	61	0	3143630848	47	4937
2026-01-14 02:44:17.56	229.38	12.91	-38.6	-40.6	14.0	0.00e+00	0	61	0	3166699520	47	4907
2026-01-14 02:44:21.61	229.10	12.54	-38.7	-40.8	13.8	0.00e+00	0	61	0	3189768192	47	5015
2026-01-14 02:44:25.65	228.83	12.17	-38.9	-40.9	13.8	1.14e-05	0	61	0	3211788288	48	4810
2026-01-14 02:44:29.69	228.57	11.81	-38.9	-41.0	13.7	1.60e-05	0	61	0	3234856960	48	4864
2026-01-14 02:44:33.73	228.31	11.45	-39.0	-41.2	13.5	1.71e-05	0	61	0	3256877056	48	4933
2026-01-14 02:44:37.77	228.06	11.10	-39.0	-41.2	13.4	1.37e-05	0	61	0	3279945728	48	4972
2026-01-14 02:44:41.81	227.82	10.75	-39.1	-41.3	13.4	2.05e-05	0	61	0	3303014400	48	4999
2026-01-14 02:44:45.85	227.58	10.41	-39.1	-41.4	13.2	4.34e-05	0	61	0	3326083072	48	5052
2026-01-14 02:44:49.89	227.35	10.07	-39.2	-41.5	13.1	5.95e-05	0	61	0	3348103168	49	4825
2026-01-14 02:44:53.93	227.12	9.74	-39.2	-41.5	13.1	5.03e-05	0	61	0	3371171840	49	4827
2026-01-14 02:44:57.97	226.90	9.41	-39.3	-41.6	12.9	9.38e-05	0	61	0	3394240512	49	4925
2026-01-14 02:45:02.00	226.69	9.08	-39.4	-41.7	12.7	8.92e-05	0	61	0	3416260608	49	4969
2026-01-14 02:45:06.04	226.47	8.76	-39.4	-41.8	12.7	1.25e-04	0	61	0	3439329280	49	4994
2026-01-14 02:45:10.08	226.27	8.44	-39.4	-41.9	12.5	1.52e-04	0	61	0	3461349376	49	5055
2026-01-14 02:45:14.12	226.07	8.13	-39.5	-42.0	12.4	2.04e-04	0	61	0	3484418048	49	5113
2026-01-14 02:45:18.16	225.87	7.82	-44.9	-56.5	3.8	8.46e-01	0	61	104	3492806656	60	14415
2026-01-14 02:45:22.21	225.68	7.51	-45.2	-56.8	3.8	8.45e-01	0	61	104	3492806656	61	14069
2026-01-14 02:45:26.25	225.49	7.20	-45.2	-56.8	3.8	8.46e-01	0	61	104	3492806656	61	14084
2026-01-14 02:45:30.29	225.30	6.90	-45.2	-56.7	3.8	8.46e-01	0	61	104	3492806656	61	13961
2026-01-14 02:45:34.34	225.12	6.60	-45.1	-56.7	3.8	8.46e-01	0	61	104	3492806656	61	13892
2026-01-14 02:45:38.38	224.94	6.31	-45.1	-56.6	3.8	8.46e-01	0	61	104	3492806656	61	13862
2026-01-14 02:45:42.42	224.77	6.01	-45.1	-56.6	3.8	8.46e-01	0	61	104	3492806656	61	13854
2026-01-14 02:45:46.46	224.60	5.72	-45.1	-56.6	3.8	8.45e-01	0	61	104	3492806656	61	13823
2026-01-14 02:45:50.51	224.44	5.44	-45.1	-56.6	3.8	8.46e-01	0	61	104	3492806656	61	13797
2026-01-14 02:45:54.55	224.27	5.15	-45.1	-56.6	3.8	8.46e-01	0	61	104	3492806656	61	13804
2026-01-14 02:45:58.60	224.11	4.87	-45.1	-56.6	3.8	8.45e-01	0	61	104	3492806656	61	13844
2026-01-14 02:46:02.64	223.96	4.60	-45.1	-56.6	3.8	8.47e-01	0	61	104	3492806656	61	13792
2026-01-14 02:46:06.68	223.80	4.32	-45.1	-56.6	3.8	8.46e-01	0	61	104	3492806656	61	13784
2026-01-14 02:46:10.73	223.65	4.05	-45.1	-56.6	3.8	8.45e-01	0	61	104	3492806656	61	13792
2026-01-14 02:46:14.77	223.51	3.78	-45.1	-56.6	3.8	8.47e-01	0	61	104	3492806656	61	13784
2026-01-14 02:46:18.82	223.36	3.51	-45.1	-56.6	3.8	8.46e-01	0	61	104	3492806656	61	13751
2026-01-14 02:46:22.86	223.22	3.24	-45.0	-56.6	3.8	8.48e-01	0	61	104	3492806656	61	13739
2026-01-14 02:46:26.90	223.08	2.98	-45.1	-56.6	3.8	8.46e-01	0	61	104	3492806656	61	13771
2026-01-14 02:46:30.94	222.95	2.72	-45.0	-56.5	3.8	8.46e-01	0	61	104	3492806656	61	13705
2026-01-14 02:46:34.99	222.81	2.46	-45.0	-56.5	3.8	8.46e-01	0	61	104	3492806656	61	13724
2026-01-14 02:46:39.03	222.68	2.21	-45.0	-56.6	3.8	8.46e-01	0	61	104	3492806656	61	13770

#Closed at: 2026-01-14 02:46:42
#Recorded file [3492 MB]: D:/lorett/data/31039_260114_053246.dat