passes_logs/2026/01/14/R2.0S_Moscow/R2.0S_Moscow__20260114_055823_FENGYUN_3E_rec.log

#Pass ID: 20260114_055823_FENGYUN 3E
#Satellite: FENGYUN 3E
#Configuration: FENGYUN 3E
#almurnet v.1.7.20251203
#Start time: 2026-01-14 05:58:23

#Version: 2.2.20231116
#Station: R2.0S_Moscow
#Location: 37.707566 lon 55.798166 lat
#TLE: 1 49008U 21062A   26013.31447241  .00000001  00000+0  21294-4 0  9992
#TLE: 2 49008  98.7491  18.4630 0001950 139.8565 220.2756 14.19884983234609

#Time	Az	El	Level	Level2	SNR	BER	BlckErr	Temp	State	Recorded	gain1	gain2
2026-01-14 05:58:23.76	9.16	2.04	-39.6	-51.1	3.8	8.45e-01	0	51	0	0	50	13057
2026-01-14 05:58:26.80	8.92	2.20	-39.6	-51.1	3.8	8.46e-01	0	51	104	0	49	13861
2026-01-14 05:58:29.83	8.68	2.36	-39.6	-51.1	3.8	8.46e-01	0	51	104	0	49	13810
2026-01-14 05:58:32.86	8.44	2.52	-39.6	-51.1	3.8	8.45e-01	0	52	104	0	49	13838
2026-01-14 05:58:35.89	8.20	2.68	-39.6	-51.1	3.8	8.47e-01	0	52	104	0	49	13797
2026-01-14 05:58:38.92	7.96	2.85	-39.6	-51.1	3.8	8.46e-01	0	52	104	0	49	13803
2026-01-14 05:58:41.95	7.71	3.01	-39.6	-51.1	3.8	8.46e-01	0	52	104	0	49	13822
2026-01-14 05:58:44.99	7.46	3.17	-39.6	-51.1	3.8	8.46e-01	0	53	104	0	49	13772
2026-01-14 05:58:48.02	7.20	3.34	-39.6	-51.1	3.8	8.45e-01	0	53	104	0	49	13800
2026-01-14 05:58:51.06	6.95	3.50	-39.6	-51.1	3.8	8.47e-01	0	53	104	0	49	13790
2026-01-14 05:58:54.09	6.69	3.66	-39.6	-51.1	3.8	8.47e-01	0	53	104	0	49	13766
2026-01-14 05:58:57.12	6.42	3.83	-39.7	-51.1	3.8	8.46e-01	0	53	104	0	49	13803
2026-01-14 05:59:00.15	6.16	3.99	-39.6	-51.1	3.8	8.46e-01	0	54	104	0	49	13787
2026-01-14 05:59:03.19	5.89	4.16	-39.6	-51.1	3.8	8.46e-01	0	54	104	0	49	13795
2026-01-14 05:59:06.22	5.62	4.33	-39.6	-51.1	3.8	8.46e-01	0	54	104	0	49	13817
2026-01-14 05:59:09.25	5.34	4.49	-39.7	-51.1	3.8	8.47e-01	0	54	104	0	49	13819
2026-01-14 05:59:12.29	5.06	4.66	-39.6	-51.1	3.8	8.46e-01	0	54	104	0	49	13788
2026-01-14 05:59:15.32	4.78	4.83	-39.6	-51.1	3.8	8.46e-01	0	54	104	0	49	13761
2026-01-14 05:59:18.35	4.49	4.99	-39.6	-51.1	3.8	8.46e-01	0	55	104	0	49	13739
2026-01-14 05:59:21.38	4.20	5.16	-39.6	-51.1	3.8	8.46e-01	0	55	104	0	49	13816
2026-01-14 05:59:24.42	3.91	5.33	-39.7	-51.1	3.8	8.46e-01	0	55	104	0	49	13798
2026-01-14 05:59:27.45	3.61	5.50	-39.6	-51.1	3.8	8.46e-01	0	55	104	0	49	13804
2026-01-14 05:59:30.48	3.31	5.67	-39.6	-51.1	3.8	8.46e-01	0	55	104	0	49	13765
2026-01-14 05:59:33.51	3.01	5.84	-39.6	-51.1	3.8	8.46e-01	0	55	104	0	49	13762
2026-01-14 05:59:36.55	2.70	6.01	-39.6	-51.1	3.8	8.45e-01	0	55	104	0	49	13759
2026-01-14 05:59:39.58	2.39	6.18	-39.6	-51.1	3.8	8.45e-01	0	55	104	0	49	13809
2026-01-14 05:59:42.61	2.08	6.35	-39.6	-51.1	3.8	8.45e-01	0	56	104	0	49	13766
2026-01-14 05:59:45.64	1.76	6.52	-39.6	-51.1	3.8	8.46e-01	0	56	104	0	49	13789
2026-01-14 05:59:48.67	1.44	6.69	-39.6	-51.1	3.8	8.45e-01	0	56	104	0	49	13771
2026-01-14 05:59:51.71	1.11	6.86	-39.6	-51.1	3.8	8.45e-01	0	56	104	0	49	13795
2026-01-14 05:59:54.74	0.78	7.03	-39.6	-51.1	3.8	8.46e-01	0	56	104	0	49	13794
2026-01-14 05:59:57.77	0.45	7.20	-39.6	-51.1	3.8	8.45e-01	0	56	104	0	49	13843
2026-01-14 06:00:00.80	0.11	7.37	-39.6	-51.1	3.8	8.46e-01	0	56	104	0	49	13790
2026-01-14 06:00:03.84	359.76	7.55	-39.6	-51.1	3.8	8.46e-01	0	57	104	0	49	13799
2026-01-14 06:00:06.87	359.42	7.72	-39.6	-51.1	3.8	8.46e-01	0	57	104	0	49	13788
2026-01-14 06:00:09.90	359.07	7.89	-39.6	-51.1	3.8	8.45e-01	0	57	104	0	49	13761
2026-01-14 06:00:12.93	358.71	8.06	-39.8	-51.1	3.8	8.46e-01	0	57	104	0	49	13846
2026-01-14 06:00:15.96	358.35	8.23	-40.0	-51.2	3.8	8.46e-01	0	57	104	0	49	14025
2026-01-14 06:00:18.99	357.99	8.41	-39.3	-51.1	3.8	8.45e-01	0	57	104	0	49	13853
2026-01-14 06:00:22.02	357.62	8.58	-40.0	-51.2	3.8	8.46e-01	0	57	104	0	49	13988
2026-01-14 06:00:25.04	357.25	8.75	-39.7	-51.1	3.8	8.46e-01	0	57	104	0	49	13827
2026-01-14 06:00:28.07	356.87	8.92	-39.9	-51.1	3.8	8.48e-01	0	57	104	0	49	13885
2026-01-14 06:00:31.10	356.49	9.10	-39.9	-51.1	3.8	8.45e-01	0	57	104	0	49	13858
2026-01-14 06:00:34.13	356.10	9.27	-40.1	-51.2	3.8	8.46e-01	0	57	104	0	49	14042
2026-01-14 06:00:37.16	355.71	9.44	-39.9	-51.2	3.8	8.46e-01	0	58	104	0	50	13115
2026-01-14 06:00:40.19	355.31	9.61	-40.4	-51.4	3.8	8.46e-01	0	58	104	0	50	13534
2026-01-14 06:00:43.22	354.91	9.79	-40.2	-51.3	3.8	8.47e-01	0	57	104	0	50	13296
2026-01-14 06:00:46.25	354.51	9.96	-40.6	-51.5	3.8	8.46e-01	0	58	104	0	50	13699
2026-01-14 06:00:49.27	354.10	10.13	-40.5	-51.4	3.8	8.47e-01	0	58	104	0	50	13430
2026-01-14 06:00:52.30	353.68	10.30	-40.6	-51.6	3.8	8.45e-01	0	58	104	0	50	13759
2026-01-14 06:00:55.33	353.26	10.47	-40.6	-51.5	3.8	8.46e-01	0	58	104	0	51	12893
2026-01-14 06:00:58.36	352.83	10.64	-40.6	-51.7	3.8	8.45e-01	0	58	104	0	51	13148
2026-01-14 06:01:01.39	352.40	10.81	-40.7	-51.7	3.8	8.47e-01	0	58	104	0	51	13170
2026-01-14 06:01:04.42	351.97	10.98	-41.1	-51.9	3.8	8.47e-01	0	58	104	0	51	13511
2026-01-14 06:01:07.44	351.53	11.15	-40.8	-51.8	3.8	8.46e-01	0	58	104	0	51	13282
2026-01-14 06:01:10.47	351.08	11.32	-41.2	-52.1	3.8	8.47e-01	0	58	104	0	52	13007
2026-01-14 06:01:13.50	350.63	11.49	-41.1	-52.0	3.8	8.47e-01	0	58	104	0	52	12934
2026-01-14 06:01:16.53	350.17	11.66	-41.1	-52.0	3.8	8.47e-01	0	58	104	0	52	12881
2026-01-14 06:01:19.56	349.71	11.82	-40.9	-51.8	3.8	8.46e-01	0	59	104	0	52	12623
2026-01-14 06:01:22.59	349.24	11.99	-41.1	-52.0	3.8	8.46e-01	0	59	104	0	52	12876
2026-01-14 06:01:25.62	348.76	12.16	-41.3	-52.3	3.8	8.46e-01	0	58	104	0	52	13261
2026-01-14 06:01:28.65	348.29	12.32	-41.2	-52.2	3.8	8.46e-01	0	59	104	0	52	13175
2026-01-14 06:01:31.69	347.80	12.49	-41.4	-52.3	3.8	8.45e-01	0	59	104	0	52	13362
2026-01-14 06:01:34.72	347.31	12.65	-41.4	-52.4	3.8	8.47e-01	0	59	104	0	52	13459
2026-01-14 06:01:37.75	346.81	12.81	-41.5	-52.5	3.8	8.46e-01	0	59	104	0	52	13665
2026-01-14 06:01:40.78	346.31	12.97	-41.5	-52.4	3.8	8.46e-01	0	59	104	0	52	13518
2026-01-14 06:01:43.81	345.80	13.13	-41.3	-52.2	3.8	8.45e-01	0	59	104	0	52	13116
2026-01-14 06:01:46.84	345.29	13.29	-41.0	-51.9	3.8	8.45e-01	0	59	104	0	52	12801
2026-01-14 06:01:49.87	344.77	13.45	-41.1	-52.0	3.8	8.46e-01	0	59	104	0	52	12912
2026-01-14 06:01:52.90	344.25	13.60	-40.8	-51.9	3.8	8.46e-01	0	59	104	0	52	12666
2026-01-14 06:01:55.93	343.72	13.76	-41.1	-52.0	3.8	8.45e-01	0	59	104	0	52	12847
2026-01-14 06:01:58.96	343.19	13.91	-41.0	-51.9	3.8	8.46e-01	0	59	104	0	52	12787
2026-01-14 06:02:01.98	342.65	14.06	-41.1	-52.0	3.8	8.45e-01	0	59	104	0	52	12838
2026-01-14 06:02:05.01	342.10	14.21	-41.1	-51.9	3.8	8.47e-01	0	59	104	0	52	12788
2026-01-14 06:02:08.04	341.55	14.36	-40.9	-51.8	3.8	8.46e-01	0	59	104	0	52	12540
2026-01-14 06:02:11.08	340.99	14.51	-41.1	-52.0	3.8	8.46e-01	0	59	104	0	52	12899
2026-01-14 06:02:14.11	340.42	14.65	-41.5	-51.6	3.8	8.47e-01	0	59	104	0	52	12300
2026-01-14 06:02:17.14	339.86	14.80	-41.8	-52.0	3.8	8.47e-01	0	59	104	0	53	12173
2026-01-14 06:02:20.17	339.28	14.94	-40.9	-46.2	6.0	3.90e-01	0	59	0	3145728	52	6611
2026-01-14 06:02:23.20	338.70	15.08	-40.6	-44.4	8.3	6.73e-02	0	59	0	25165824	52	5357
2026-01-14 06:02:26.22	338.12	15.21	-37.8	-39.7	13.5	1.60e-05	0	59	0	47185920	46	4410
2026-01-14 06:02:29.25	337.53	15.34	-38.4	-40.4	13.2	4.34e-05	0	59	0	68157440	46	4793
2026-01-14 06:02:32.29	336.93	15.48	-38.0	-39.8	14.2	3.40e-06	0	59	0	90177536	46	4444
2026-01-14 06:02:35.32	336.33	15.61	-37.9	-39.6	14.5	0.00e+00	0	59	0	112197632	46	4368
2026-01-14 06:02:38.35	335.72	15.73	-37.7	-39.4	14.8	0.00e+00	0	59	0	134217728	46	4261
2026-01-14 06:02:41.37	335.11	15.86	-37.7	-39.3	15.0	0.00e+00	0	59	0	156237824	46	4219
2026-01-14 06:02:44.40	334.49	15.98	-37.8	-39.4	15.0	0.00e+00	0	59	0	177209344	46	4269
2026-01-14 06:02:47.43	333.87	16.10	-37.6	-39.2	15.3	0.00e+00	0	60	0	199229440	46	4150
2026-01-14 06:02:50.46	333.24	16.21	-37.4	-38.9	15.6	0.00e+00	0	59	0	221249536	45	4269
2026-01-14 06:02:53.49	332.61	16.32	-37.2	-38.7	15.8	0.00e+00	0	60	0	243269632	45	4163
2026-01-14 06:02:56.52	331.97	16.43	-37.2	-38.6	15.9	0.00e+00	0	60	0	265289728	45	4132
2026-01-14 06:02:59.55	331.33	16.54	-37.3	-38.8	15.8	0.00e+00	0	60	0	287309824	45	4201
2026-01-14 06:03:02.58	330.69	16.64	-37.3	-38.8	15.8	0.00e+00	0	60	0	309329920	45	4229
2026-01-14 06:03:05.61	330.04	16.74	-37.4	-38.9	15.8	0.00e+00	0	60	0	331350016	45	4257
2026-01-14 06:03:08.64	329.38	16.84	-37.5	-39.0	15.7	0.00e+00	0	60	0	352321536	45	4292
2026-01-14 06:03:11.67	328.72	16.93	-37.4	-38.9	15.8	0.00e+00	0	60	0	374341632	45	4258
2026-01-14 06:03:14.70	328.06	17.02	-37.4	-38.9	15.8	0.00e+00	0	60	0	396361728	45	4245
2026-01-14 06:03:17.72	327.39	17.11	-37.3	-38.7	16.0	0.00e+00	0	60	0	418381824	45	4182
2026-01-14 06:03:20.75	326.72	17.19	-37.2	-38.6	16.1	0.00e+00	0	60	0	440401920	45	4127
2026-01-14 06:03:23.78	326.05	17.27	-37.3	-38.7	16.0	0.00e+00	0	60	0	462422016	45	4173
2026-01-14 06:03:26.81	325.37	17.34	-37.2	-38.7	16.1	0.00e+00	0	60	0	484442112	45	4148
2026-01-14 06:03:29.84	324.69	17.41	-37.1	-38.5	16.2	0.00e+00	0	60	0	505413632	45	4061
2026-01-14 06:03:32.86	324.01	17.48	-36.9	-38.2	16.5	0.00e+00	0	60	0	527433728	44	4188
2026-01-14 06:03:35.89	323.32	17.54	-36.8	-38.2	16.6	0.00e+00	0	60	0	549453824	44	4152
2026-01-14 06:03:38.92	322.63	17.60	-36.9	-38.2	16.5	0.00e+00	0	60	0	571473920	44	4192
2026-01-14 06:03:41.95	321.93	17.66	-36.8	-38.1	16.7	0.00e+00	0	60	0	593494016	44	4132
2026-01-14 06:03:44.98	321.24	17.71	-36.7	-38.1	16.6	0.00e+00	0	60	0	615514112	44	4119
2026-01-14 06:03:48.01	320.54	17.75	-36.8	-38.2	16.6	0.00e+00	0	60	0	637534208	44	4150
2026-01-14 06:03:51.04	319.84	17.79	-37.0	-38.4	16.4	0.00e+00	0	60	0	658505728	44	4243
2026-01-14 06:03:54.07	319.14	17.83	-37.0	-38.4	16.4	0.00e+00	0	60	0	680525824	44	4253
2026-01-14 06:03:57.10	318.43	17.86	-36.9	-38.2	16.5	0.00e+00	0	60	0	702545920	44	4187
2026-01-14 06:04:00.13	317.73	17.89	-36.8	-38.1	16.7	0.00e+00	0	60	0	724566016	44	4124
2026-01-14 06:04:03.16	317.02	17.92	-36.7	-38.1	16.8	0.00e+00	0	60	0	746586112	44	4100
2026-01-14 06:04:06.19	316.32	17.94	-36.6	-38.0	16.8	0.00e+00	0	60	0	768606208	44	4068
2026-01-14 06:04:09.22	315.61	17.95	-36.6	-37.9	16.9	0.00e+00	0	60	0	790626304	44	4025
2026-01-14 06:04:12.25	314.90	17.96	-36.7	-38.0	16.8	0.00e+00	0	60	0	811597824	44	4066
2026-01-14 06:04:15.28	314.19	17.97	-36.7	-38.1	16.7	0.00e+00	0	60	0	833617920	44	4119
2026-01-14 06:04:18.31	313.48	17.97	-36.8	-38.1	16.7	0.00e+00	0	60	0	855638016	44	4130
2026-01-14 06:04:21.34	312.77	17.97	-36.7	-38.1	16.7	0.00e+00	0	60	0	877658112	44	4100
2026-01-14 06:04:24.38	312.06	17.96	-36.9	-38.3	16.5	0.00e+00	0	60	0	899678208	44	4207
2026-01-14 06:04:27.40	311.35	17.95	-36.9	-38.3	16.5	0.00e+00	0	60	0	921698304	44	4215
2026-01-14 06:04:30.43	310.64	17.93	-36.7	-38.1	16.7	0.00e+00	0	60	0	943718400	44	4113
2026-01-14 06:04:33.46	309.93	17.91	-36.7	-38.0	16.8	0.00e+00	0	60	0	965738496	44	4087
2026-01-14 06:04:36.49	309.23	17.88	-36.9	-38.2	16.6	0.00e+00	0	60	0	986710016	44	4191
2026-01-14 06:04:39.52	308.52	17.85	-36.8	-38.2	16.6	0.00e+00	0	60	0	1008730112	44	4167
2026-01-14 06:04:42.54	307.82	17.82	-36.6	-38.0	16.8	0.00e+00	0	60	0	1030750208	44	4063
2026-01-14 06:04:45.57	307.12	17.78	-36.6	-38.0	16.9	0.00e+00	0	60	0	1052770304	44	4064
2026-01-14 06:04:48.60	306.42	17.74	-36.8	-38.2	16.6	0.00e+00	0	60	0	1074790400	44	4161
2026-01-14 06:04:51.63	305.72	17.69	-36.8	-38.2	16.6	0.00e+00	0	60	0	1096810496	44	4177
2026-01-14 06:04:54.65	305.03	17.64	-36.8	-38.2	16.6	0.00e+00	0	60	0	1117782016	44	4163
2026-01-14 06:04:57.68	304.33	17.58	-36.8	-38.2	16.6	0.00e+00	0	60	0	1139802112	44	4185
2026-01-14 06:05:00.71	303.64	17.52	-36.9	-38.2	16.5	0.00e+00	0	60	0	1161822208	44	4191
2026-01-14 06:05:03.74	302.95	17.46	-36.8	-38.2	16.6	0.00e+00	0	60	0	1183842304	44	4164
2026-01-14 06:05:06.77	302.27	17.39	-36.8	-38.2	16.6	0.00e+00	0	60	0	1205862400	44	4169
2026-01-14 06:05:09.80	301.59	17.32	-36.9	-38.3	16.4	0.00e+00	0	60	0	1226833920	44	4227
2026-01-14 06:05:12.83	300.91	17.24	-37.0	-38.4	16.4	0.00e+00	0	60	0	1248854016	44	4255
2026-01-14 06:05:15.86	300.23	17.16	-37.0	-38.5	16.3	0.00e+00	0	60	0	1270874112	44	4292
2026-01-14 06:05:18.89	299.56	17.08	-37.0	-38.4	16.4	0.00e+00	0	60	0	1292894208	44	4256
2026-01-14 06:05:21.92	298.90	16.99	-36.9	-38.3	16.4	0.00e+00	0	60	0	1314914304	44	4219
2026-01-14 06:05:24.95	298.23	16.90	-37.1	-38.5	16.3	0.00e+00	0	60	0	1336934400	44	4308
2026-01-14 06:05:27.98	297.57	16.81	-37.0	-38.4	16.4	0.00e+00	0	60	0	1358954496	44	4258
2026-01-14 06:05:31.01	296.92	16.71	-37.0	-38.4	16.3	0.00e+00	0	60	0	1380974592	44	4268
2026-01-14 06:05:34.04	296.27	16.61	-37.2	-38.6	16.1	0.00e+00	0	60	0	1401946112	44	4374
2026-01-14 06:05:37.07	295.62	16.50	-37.4	-38.8	15.9	0.00e+00	0	60	0	1423966208	44	4479
2026-01-14 06:05:40.10	294.98	16.40	-37.3	-38.7	16.0	0.00e+00	0	60	0	1445986304	44	4428
2026-01-14 06:05:43.13	294.34	16.29	-37.1	-38.5	16.1	0.00e+00	0	60	0	1468006400	44	4333
2026-01-14 06:05:46.16	293.71	16.17	-37.3	-38.8	15.9	0.00e+00	0	60	0	1490026496	44	4470
2026-01-14 06:05:49.19	293.08	16.06	-37.5	-39.0	15.6	0.00e+00	0	60	0	1512046592	44	4593
2026-01-14 06:05:52.22	292.46	15.94	-37.5	-39.0	15.7	0.00e+00	0	60	0	1534066688	44	4570
2026-01-14 06:05:55.25	291.84	15.81	-37.3	-38.8	15.8	0.00e+00	0	61	0	1555038208	44	4477
2026-01-14 06:05:58.28	291.22	15.69	-37.3	-38.7	15.9	0.00e+00	0	60	0	1577058304	44	4433
2026-01-14 06:06:01.30	290.62	15.56	-37.4	-38.9	15.7	0.00e+00	0	60	0	1599078400	44	4538
2026-01-14 06:06:04.33	290.02	15.43	-37.4	-39.0	15.6	1.10e-06	0	60	0	1621098496	44	4550
2026-01-14 06:06:07.36	289.42	15.30	-37.5	-39.0	15.5	0.00e+00	0	60	0	1643118592	44	4593
2026-01-14 06:06:10.39	288.83	15.16	-37.4	-39.0	15.6	0.00e+00	0	60	0	1665138688	44	4554
2026-01-14 06:06:13.42	288.24	15.02	-37.4	-39.0	15.6	0.00e+00	0	60	0	1687158784	44	4551
2026-01-14 06:06:16.44	287.66	14.89	-37.5	-39.1	15.4	0.00e+00	0	60	0	1708130304	44	4604
2026-01-14 06:06:19.47	287.09	14.74	-37.7	-39.4	15.1	0.00e+00	0	60	0	1730150400	44	4761
2026-01-14 06:06:22.51	286.52	14.60	-37.6	-39.2	15.2	0.00e+00	0	60	0	1752170496	45	4421
2026-01-14 06:06:25.54	285.95	14.45	-37.5	-39.1	15.3	0.00e+00	0	60	0	1774190592	45	4376
2026-01-14 06:06:28.57	285.39	14.31	-37.5	-39.1	15.3	0.00e+00	0	60	0	1796210688	45	4377
2026-01-14 06:06:31.60	284.84	14.16	-37.6	-39.2	15.2	0.00e+00	0	60	0	1818230784	45	4427
2026-01-14 06:06:34.63	284.29	14.01	-37.6	-39.2	15.2	0.00e+00	0	60	0	1840250880	45	4408
2026-01-14 06:06:37.66	283.75	13.85	-37.5	-39.1	15.3	0.00e+00	0	60	0	1862270976	45	4372
2026-01-14 06:06:40.69	283.22	13.70	-37.6	-39.2	15.1	0.00e+00	0	61	0	1883242496	45	4422
2026-01-14 06:06:43.72	282.68	13.54	-37.7	-39.4	15.0	0.00e+00	0	60	0	1905262592	45	4503
2026-01-14 06:06:46.76	282.16	13.39	-37.8	-39.5	14.8	0.00e+00	0	60	0	1927282688	45	4586
2026-01-14 06:06:49.79	281.64	13.23	-38.0	-39.7	14.6	0.00e+00	0	60	0	1949302784	45	4688
2026-01-14 06:06:52.81	281.13	13.07	-38.1	-39.9	14.4	0.00e+00	0	60	0	1971322880	45	4781
2026-01-14 06:06:55.84	280.62	12.91	-38.3	-40.1	14.2	2.20e-06	0	60	0	1993342976	46	4634
2026-01-14 06:06:58.87	280.12	12.75	-38.1	-39.8	14.5	0.00e+00	0	61	0	2015363072	46	4463
2026-01-14 06:07:01.91	279.62	12.58	-37.9	-39.6	14.6	2.20e-06	0	61	0	2036334592	46	4387
2026-01-14 06:07:04.94	279.13	12.42	-38.0	-39.7	14.5	0.00e+00	0	60	0	2058354688	46	4417
2026-01-14 06:07:07.97	278.64	12.25	-38.2	-40.0	14.2	4.50e-06	0	61	0	2080374784	46	4556
2026-01-14 06:07:11.00	278.16	12.09	-38.0	-39.8	14.5	0.00e+00	0	60	0	2102394880	46	4443
2026-01-14 06:07:14.03	277.69	11.92	-37.9	-39.6	14.6	0.00e+00	0	60	0	2124414976	46	4359
2026-01-14 06:07:17.06	277.22	11.75	-37.9	-39.6	14.5	2.20e-06	0	61	0	2146435072	46	4361
2026-01-14 06:07:20.09	276.75	11.58	-37.9	-39.6	14.4	0.00e+00	0	61	0	2167406592	46	4373
2026-01-14 06:07:23.13	276.29	11.42	-37.9	-39.7	14.2	2.20e-06	0	61	0	2189426688	46	4430
2026-01-14 06:07:26.16	275.84	11.25	-38.1	-40.0	13.8	5.70e-06	0	61	0	2211446784	46	4555
2026-01-14 06:07:29.19	275.39	11.08	-38.3	-40.2	13.4	1.25e-05	0	61	0	2233466880	46	4698
2026-01-14 06:07:32.22	274.95	10.91	-38.5	-40.5	13.0	3.43e-05	0	61	0	2255486976	46	4855
2026-01-14 06:07:35.25	274.51	10.74	-38.6	-40.8	12.6	9.95e-05	0	61	0	2277507072	46	5011
2026-01-14 06:07:38.27	274.08	10.56	-38.9	-41.3	12.0	3.86e-04	0	60	0	2299527168	47	5005
2026-01-14 06:07:41.30	273.65	10.39	-39.5	-42.1	11.2	1.55e-03	0	61	0	2320498688	48	5190
2026-01-14 06:07:44.33	273.23	10.22	-39.6	-42.4	10.7	2.91e-03	0	60	0	2342518784	48	5383
2026-01-14 06:07:47.36	272.81	10.05	-39.8	-42.8	10.0	7.57e-03	0	61	0	2364538880	49	5334
2026-01-14 06:07:50.39	272.40	9.88	-39.9	-43.1	9.6	1.45e-02	0	61	0	2386558976	49	5511
2026-01-14 06:07:53.42	271.99	9.70	-40.1	-43.7	8.8	3.16e-02	0	61	0	2408579072	49	5882
2026-01-14 06:07:56.44	271.59	9.53	-40.4	-44.3	8.0	7.07e-02	0	61	0	2430599168	50	5957
2026-01-14 06:07:59.47	271.19	9.36	-40.4	-44.2	8.4	5.43e-02	0	60	0	2452619264	50	5864
2026-01-14 06:08:02.50	270.80	9.19	-40.3	-44.1	8.3	5.54e-02	0	61	0	2473590784	50	5832
2026-01-14 06:08:05.53	270.41	9.01	-40.4	-44.7	7.4	1.11e-01	0	61	0	2495610880	50	6268
2026-01-14 06:08:08.56	270.03	8.84	-40.6	-45.3	6.7	1.96e-01	0	61	0	2517630976	50	6710
2026-01-14 06:08:11.58	269.65	8.67	-40.8	-46.1	5.9	3.40e-01	0	60	0	2539651072	51	6909
2026-01-14 06:08:14.61	269.27	8.49	-40.9	-47.0	5.1	7.45e-01	0	61	0	2551185408	51	7700
2026-01-14 06:08:17.64	268.90	8.32	-41.0	-48.1	4.5	8.17e-01	0	61	0	2552233984	51	8662
2026-01-14 06:08:20.67	268.54	8.15	-41.1	-48.9	4.2	8.36e-01	0	60	0	2552233984	51	9576
2026-01-14 06:08:23.70	268.18	7.97	-43.5	-53.2	3.8	8.44e-01	0	61	104	2552233984	56	11780
2026-01-14 06:08:26.74	267.82	7.80	-45.4	-56.7	3.8	8.46e-01	0	61	104	2552233984	60	13911
2026-01-14 06:08:29.77	267.47	7.63	-45.6	-56.9	3.8	8.47e-01	0	61	104	2552233984	60	14288
2026-01-14 06:08:32.80	267.12	7.46	-45.7	-56.9	3.8	8.46e-01	0	61	104	2552233984	60	14310
2026-01-14 06:08:35.83	266.77	7.28	-45.6	-56.8	3.8	8.46e-01	0	61	104	2552233984	60	14181
2026-01-14 06:08:38.86	266.43	7.11	-45.6	-56.8	3.8	8.46e-01	0	61	104	2552233984	60	14148
2026-01-14 06:08:41.89	266.10	6.94	-45.5	-56.8	3.8	8.47e-01	0	61	104	2552233984	60	14173
2026-01-14 06:08:44.92	265.77	6.77	-45.3	-56.7	3.8	8.46e-01	0	61	104	2552233984	60	13895
2026-01-14 06:08:47.96	265.44	6.60	-45.5	-56.8	3.8	8.45e-01	0	61	104	2552233984	60	14108
2026-01-14 06:08:50.99	265.11	6.42	-45.5	-56.8	3.8	8.46e-01	0	61	104	2552233984	60	14120
2026-01-14 06:08:54.02	264.79	6.25	-45.5	-56.7	3.8	8.47e-01	0	61	104	2552233984	60	14031
2026-01-14 06:08:57.05	264.48	6.08	-45.5	-56.7	3.8	8.47e-01	0	61	104	2552233984	60	14025
2026-01-14 06:09:00.09	264.16	5.91	-45.5	-56.8	3.8	8.46e-01	0	61	104	2552233984	60	14078
2026-01-14 06:09:03.12	263.85	5.74	-45.5	-56.7	3.8	8.46e-01	0	61	104	2552233984	60	14029
2026-01-14 06:09:06.15	263.55	5.57	-45.5	-56.8	3.8	8.45e-01	0	61	104	2552233984	60	14077
2026-01-14 06:09:09.19	263.25	5.40	-45.5	-56.7	3.8	8.46e-01	0	61	104	2552233984	60	14017
2026-01-14 06:09:12.22	262.95	5.23	-45.5	-56.8	3.8	8.46e-01	0	61	104	2552233984	60	14048
2026-01-14 06:09:15.25	262.65	5.07	-45.5	-56.7	3.8	8.45e-01	0	61	104	2552233984	60	14037
2026-01-14 06:09:18.29	262.36	4.90	-45.5	-56.8	3.8	8.47e-01	0	61	104	2552233984	60	14082
2026-01-14 06:09:21.32	262.07	4.73	-45.4	-56.7	3.8	8.46e-01	0	61	104	2552233984	60	13972
2026-01-14 06:09:24.35	261.79	4.56	-45.5	-56.7	3.8	8.48e-01	0	61	104	2552233984	60	14027
2026-01-14 06:09:27.39	261.51	4.39	-45.5	-56.7	3.8	8.45e-01	0	61	104	2552233984	60	14019
2026-01-14 06:09:30.42	261.23	4.23	-45.5	-56.7	3.8	8.47e-01	0	61	104	2552233984	60	14042
2026-01-14 06:09:33.45	260.95	4.06	-45.5	-56.8	3.8	8.47e-01	0	61	104	2552233984	60	14078
2026-01-14 06:09:36.48	260.68	3.90	-45.5	-56.7	3.8	8.47e-01	0	61	104	2552233984	60	14000
2026-01-14 06:09:39.52	260.41	3.73	-45.5	-56.7	3.8	8.47e-01	0	61	104	2552233984	60	14014
2026-01-14 06:09:42.55	260.15	3.57	-45.5	-56.7	3.8	8.46e-01	0	61	104	2552233984	60	13996
2026-01-14 06:09:45.58	259.89	3.40	-45.5	-56.7	3.8	8.47e-01	0	61	104	2552233984	60	13995
2026-01-14 06:09:48.62	259.63	3.24	-45.5	-56.7	3.8	8.46e-01	0	61	104	2552233984	60	13924
2026-01-14 06:09:51.65	259.37	3.07	-45.5	-56.7	3.8	8.45e-01	0	61	104	2552233984	60	14019
2026-01-14 06:09:54.68	259.12	2.91	-45.5	-56.7	3.8	8.46e-01	0	61	104	2552233984	60	14034
2026-01-14 06:09:57.71	258.87	2.75	-45.5	-56.7	3.8	8.46e-01	0	61	104	2552233984	60	14036
2026-01-14 06:10:00.75	258.62	2.58	-45.5	-56.8	3.8	8.46e-01	0	61	104	2552233984	60	14068
2026-01-14 06:10:03.78	258.37	2.42	-45.5	-56.7	3.8	8.47e-01	0	61	104	2552233984	60	13938
2026-01-14 06:10:06.81	258.13	2.26	-45.5	-56.7	3.8	8.46e-01	0	61	104	2552233984	60	13986
2026-01-14 06:10:09.85	257.89	2.10	-45.5	-56.7	3.8	8.46e-01	0	61	104	2552233984	60	13965
2026-01-14 06:10:12.88	257.66	1.94	-45.5	-56.7	3.8	8.47e-01	0	61	104	2552233984	60	13966

#Closed at: 2026-01-14 06:10:14
#Recorded file [2552 MB]: D:/lorett/data/31039_260114_085823.dat