passes_logs/2026/01/14/R2.0S_Moscow/R2.0S_Moscow__20260114_004914_FENGYUN_3G_rec.log

#Pass ID: 20260114_004914_FENGYUN 3G
#Satellite: FENGYUN 3G
#Configuration: FENGYUN 3G
#almurnet v.1.7.20251203
#Start time: 2026-01-14 00:49:14

#Version: 2.2.20231116
#Station: R2.0S_Moscow
#Location: 37.707566 lon 55.798166 lat
#TLE: 1 56232U 23055A   26013.24803668  .00022566  00000+0  35531-3 0  9992
#TLE: 2 56232  49.9941  64.9712 0004217  19.4523 340.6605 15.53433909155921

#Time	Az	El	Level	Level2	SNR	BER	BlckErr	Temp	State	Recorded	gain1	gain2
2026-01-14 00:49:14.25	260.21	1.99	-44.2	-62.1	3.8	8.45e-01	0	51	0	0	60	27501
2026-01-14 00:49:17.28	260.00	2.18	-44.1	-62.1	3.8	8.46e-01	0	51	104	0	60	27493
2026-01-14 00:49:20.32	259.79	2.38	-44.2	-62.2	3.8	8.46e-01	0	51	104	0	60	27907
2026-01-14 00:49:23.35	259.57	2.58	-44.1	-62.2	3.8	8.46e-01	0	52	104	0	60	27772
2026-01-14 00:49:26.38	259.35	2.78	-44.1	-62.2	3.8	8.47e-01	0	52	104	0	60	27764
2026-01-14 00:49:29.41	259.12	2.99	-44.1	-62.3	3.8	8.46e-01	0	52	104	0	60	28096
2026-01-14 00:49:32.45	258.89	3.19	-44.1	-62.2	3.8	8.46e-01	0	52	104	0	60	27760
2026-01-14 00:49:35.48	258.66	3.40	-44.1	-62.0	3.8	8.46e-01	0	52	104	0	60	27304
2026-01-14 00:49:38.51	258.42	3.61	-44.1	-62.0	3.8	8.45e-01	0	53	104	0	60	27365
2026-01-14 00:49:41.55	258.17	3.82	-44.1	-62.0	3.8	8.46e-01	0	53	104	0	60	27133
2026-01-14 00:49:44.58	257.92	4.04	-44.1	-62.1	3.8	8.45e-01	0	53	104	0	60	27581
2026-01-14 00:49:47.61	257.66	4.25	-44.1	-62.1	3.8	8.45e-01	0	53	104	0	60	27544
2026-01-14 00:49:50.65	257.40	4.47	-44.1	-62.1	3.8	8.45e-01	0	54	104	0	60	27462
2026-01-14 00:49:53.68	257.14	4.69	-44.1	-61.9	3.8	8.46e-01	0	54	104	0	60	26958
2026-01-14 00:49:56.71	256.86	4.91	-44.1	-61.7	3.8	8.46e-01	0	54	104	0	60	26242
2026-01-14 00:49:59.75	256.58	5.14	-44.1	-61.8	3.8	8.46e-01	0	54	104	0	60	26669
2026-01-14 00:50:02.78	256.30	5.37	-44.1	-61.1	3.8	8.46e-01	0	54	104	0	60	24519
2026-01-14 00:50:05.81	256.00	5.60	-44.1	-59.7	3.9	8.45e-01	0	54	104	0	60	20912
2026-01-14 00:50:08.84	255.70	5.83	-44.1	-59.1	4.1	8.41e-01	0	54	0	0	60	19427
2026-01-14 00:50:11.88	255.40	6.06	-44.0	-59.1	4.1	8.37e-01	0	55	0	0	60	19488
2026-01-14 00:50:14.91	255.08	6.30	-44.0	-56.7	5.0	8.33e-01	0	55	0	0	59	15747
2026-01-14 00:50:17.94	254.76	6.54	-43.7	-53.2	7.8	4.81e-01	0	55	0	2097152	59	10482
2026-01-14 00:50:20.98	254.43	6.79	-43.3	-50.9	10.2	3.60e-02	0	55	0	5242880	58	8519
2026-01-14 00:50:24.01	254.10	7.03	-43.4	-51.7	9.4	7.80e-03	0	55	0	8912896	58	9324
2026-01-14 00:50:27.04	253.75	7.28	-44.1	-57.6	4.6	7.44e-02	0	55	0	11534336	58	18349
2026-01-14 00:50:30.07	253.40	7.53	-43.8	-54.4	6.6	6.91e-01	0	55	0	11534336	58	12777
2026-01-14 00:50:33.10	253.04	7.79	-42.4	-48.0	13.1	1.50e-03	0	56	0	15204352	56	6837
2026-01-14 00:50:36.13	252.67	8.05	-41.8	-46.7	14.4	1.10e-06	0	56	0	18350080	55	6206
2026-01-14 00:50:39.16	252.29	8.31	-43.7	-54.1	7.0	5.86e-03	0	56	0	22020096	58	12357
2026-01-14 00:50:42.19	251.90	8.57	-40.8	-44.6	16.4	8.51e-04	0	56	0	25165824	53	5468
2026-01-14 00:50:45.22	251.50	8.84	-40.4	-43.8	17.4	0.00e+00	0	56	0	28835840	52	5312
2026-01-14 00:50:48.25	251.09	9.11	-40.5	-43.9	17.3	0.00e+00	0	56	0	31981568	52	5390
2026-01-14 00:50:51.27	250.67	9.38	-40.4	-43.6	17.7	0.00e+00	0	56	0	35651584	52	5214
2026-01-14 00:50:54.30	250.24	9.66	-40.3	-43.5	17.9	0.00e+00	0	56	0	38797312	52	5111
2026-01-14 00:50:57.33	249.80	9.94	-40.4	-43.7	17.7	0.00e+00	0	56	0	42467328	52	5241
2026-01-14 00:51:00.36	249.34	10.23	-40.4	-43.7	17.6	0.00e+00	0	56	0	45613056	52	5267
2026-01-14 00:51:03.40	248.87	10.51	-40.4	-43.6	17.7	0.00e+00	0	57	0	49283072	52	5208
2026-01-14 00:51:06.42	248.39	10.81	-40.1	-43.1	18.4	0.00e+00	0	57	0	52428800	52	4889
2026-01-14 00:51:09.46	247.90	11.10	-39.9	-42.9	18.6	0.00e+00	0	57	0	56098816	51	5054
2026-01-14 00:51:12.48	247.39	11.40	-40.1	-43.2	18.4	0.00e+00	0	57	0	59244544	51	5221
2026-01-14 00:51:15.51	246.87	11.70	-40.2	-43.2	18.3	0.00e+00	0	57	0	62914560	51	5279
2026-01-14 00:51:18.55	246.34	12.01	-40.0	-42.9	18.7	0.00e+00	0	57	0	66060288	51	5067
2026-01-14 00:51:21.57	245.79	12.32	-39.6	-42.3	19.3	0.00e+00	0	57	0	69730304	51	4731
2026-01-14 00:51:24.61	245.22	12.63	-39.7	-42.4	19.2	0.00e+00	0	57	0	72876032	50	5059
2026-01-14 00:51:27.64	244.64	12.95	-39.5	-42.2	19.4	0.00e+00	0	57	0	76546048	50	4954
2026-01-14 00:51:30.67	244.04	13.27	-39.5	-42.1	19.5	0.00e+00	0	57	0	79691776	50	4910
2026-01-14 00:51:33.70	243.42	13.60	-39.2	-41.7	20.0	0.00e+00	0	57	0	83361792	50	4667
2026-01-14 00:51:36.72	242.79	13.93	-39.0	-41.4	20.3	0.00e+00	0	57	0	86507520	50	4528
2026-01-14 00:51:39.75	242.14	14.26	-39.2	-41.7	20.0	0.00e+00	0	57	0	90177536	50	4674
2026-01-14 00:51:42.78	241.46	14.60	-39.2	-41.8	20.0	0.00e+00	0	58	0	93323264	50	4706
2026-01-14 00:51:45.80	240.77	14.94	-38.8	-41.1	20.6	0.00e+00	0	57	0	96993280	49	4614
2026-01-14 00:51:48.83	240.06	15.28	-38.7	-41.0	20.7	0.00e+00	0	58	0	100139008	49	4567
2026-01-14 00:51:51.86	239.33	15.62	-38.9	-41.3	20.4	0.00e+00	0	58	0	103809024	49	4729
2026-01-14 00:51:54.89	238.57	15.97	-38.9	-41.3	20.4	0.00e+00	0	58	0	106954752	49	4717
2026-01-14 00:51:57.92	237.79	16.33	-38.5	-40.7	21.1	0.00e+00	0	58	0	110624768	48	4666
2026-01-14 00:52:00.95	236.99	16.68	-38.2	-40.3	21.4	0.00e+00	0	58	0	113770496	47	4757
2026-01-14 00:52:03.98	236.16	17.04	-38.4	-40.7	21.1	0.00e+00	0	58	0	117440512	47	4939
2026-01-14 00:52:07.01	235.31	17.40	-38.6	-40.8	20.9	0.00e+00	0	58	0	120586240	47	5028
2026-01-14 00:52:10.04	234.43	17.76	-38.2	-40.3	21.5	0.00e+00	0	58	0	124256256	47	4724
2026-01-14 00:52:13.07	233.53	18.13	-38.2	-40.4	21.4	0.00e+00	0	58	0	127401984	47	4789
2026-01-14 00:52:16.09	232.60	18.49	-38.3	-40.5	21.3	0.00e+00	0	58	0	131072000	47	4832
2026-01-14 00:52:19.12	231.64	18.85	-38.2	-40.3	21.5	0.00e+00	0	58	0	134217728	47	4733
2026-01-14 00:52:22.15	230.65	19.22	-37.7	-39.7	22.2	0.00e+00	0	58	0	137887744	47	4393
2026-01-14 00:52:25.18	229.64	19.59	-37.6	-39.5	22.3	0.00e+00	0	58	0	141033472	47	4321
2026-01-14 00:52:28.21	228.59	19.95	-38.1	-40.2	21.6	0.00e+00	0	58	0	144703488	47	4696
2026-01-14 00:52:31.24	227.51	20.31	-37.9	-39.9	21.9	0.00e+00	0	58	0	147849216	47	4528
2026-01-14 00:52:34.26	226.41	20.67	-37.4	-39.3	22.6	0.00e+00	0	58	0	151519232	46	4450
2026-01-14 00:52:37.29	225.27	21.03	-37.4	-39.3	22.5	0.00e+00	0	58	0	154664960	46	4490
2026-01-14 00:52:40.32	224.10	21.39	-37.8	-39.9	22.0	0.00e+00	0	58	0	158334976	46	4764
2026-01-14 00:52:43.35	222.89	21.74	-37.8	-39.8	22.1	0.00e+00	0	58	0	161480704	46	4731
2026-01-14 00:52:46.38	221.65	22.08	-37.4	-39.3	22.6	0.00e+00	0	58	0	165150720	46	4465
2026-01-14 00:52:49.40	220.39	22.42	-37.2	-39.0	22.9	0.00e+00	0	59	0	168296448	46	4338
2026-01-14 00:52:52.43	219.09	22.75	-37.1	-38.9	23.0	0.00e+00	0	58	0	171966464	45	4521
2026-01-14 00:52:55.46	217.75	23.07	-37.2	-39.1	22.8	0.00e+00	0	58	0	175112192	45	4627
2026-01-14 00:52:58.49	216.38	23.38	-37.2	-39.1	22.9	0.00e+00	0	58	0	178782208	45	4616
2026-01-14 00:53:01.52	214.98	23.69	-37.4	-39.4	22.6	0.00e+00	0	59	0	181927936	45	4760
2026-01-14 00:53:04.54	213.56	23.98	-37.4	-39.3	22.6	0.00e+00	0	58	0	185597952	45	4756
2026-01-14 00:53:07.57	212.10	24.25	-37.2	-39.1	22.8	0.00e+00	0	59	0	188743680	45	4613
2026-01-14 00:53:10.60	210.61	24.52	-37.3	-39.1	22.8	0.00e+00	0	59	0	192413696	45	4645
2026-01-14 00:53:13.63	209.09	24.76	-37.0	-38.9	23.1	0.00e+00	0	59	0	195559424	45	4494
2026-01-14 00:53:16.66	207.54	24.99	-36.9	-38.7	23.3	0.00e+00	0	59	0	199229440	45	4394
2026-01-14 00:53:19.69	205.97	25.21	-37.0	-38.9	23.1	0.00e+00	0	59	0	202375168	45	4500
2026-01-14 00:53:22.72	204.37	25.40	-37.2	-39.0	22.9	0.00e+00	0	59	0	206045184	45	4590
2026-01-14 00:53:25.74	202.76	25.57	-37.0	-38.8	23.1	0.00e+00	0	59	0	209190912	45	4452
2026-01-14 00:53:28.77	201.13	25.73	-36.6	-38.4	23.5	0.00e+00	0	59	0	212860928	45	4260
2026-01-14 00:53:31.80	199.48	25.86	-36.6	-38.3	23.6	0.00e+00	0	59	0	216006656	45	4242
2026-01-14 00:53:34.83	197.81	25.97	-36.4	-38.2	23.8	0.00e+00	0	59	0	219676672	44	4394
2026-01-14 00:53:37.86	196.13	26.05	-36.5	-38.2	23.7	0.00e+00	0	59	0	222822400	44	4439
2026-01-14 00:53:40.89	194.44	26.11	-36.3	-38.0	23.9	0.00e+00	0	59	0	226492416	44	4303
2026-01-14 00:53:43.91	192.75	26.15	-36.6	-38.4	23.5	0.00e+00	0	59	0	229638144	44	4496
2026-01-14 00:53:46.94	191.06	26.16	-36.3	-38.0	23.9	0.00e+00	0	59	0	233308160	44	4304
2026-01-14 00:53:49.97	189.36	26.15	-36.2	-37.8	24.0	0.00e+00	0	59	0	236453888	44	4239
2026-01-14 00:53:53.00	187.66	26.12	-35.8	-37.5	24.1	0.00e+00	0	59	0	240123904	43	4297
2026-01-14 00:53:56.03	185.98	26.06	-36.7	-38.4	23.2	0.00e+00	0	59	0	243269632	43	4811
2026-01-14 00:53:59.06	184.30	25.98	-36.6	-38.4	23.4	0.00e+00	0	59	0	246939648	44	4509
2026-01-14 00:54:02.09	182.63	25.87	-36.7	-38.5	23.3	0.00e+00	0	59	0	250085376	44	4565
2026-01-14 00:54:05.12	180.97	25.74	-36.8	-38.5	23.3	0.00e+00	0	59	0	253755392	44	4591
2026-01-14 00:54:08.15	179.34	25.59	-37.0	-38.8	23.1	0.00e+00	0	59	0	256901120	44	4754
2026-01-14 00:54:11.17	177.72	25.42	-36.9	-38.7	23.1	0.00e+00	0	59	0	260571136	45	4405
2026-01-14 00:54:14.20	176.13	25.23	-37.1	-38.9	23.0	0.00e+00	0	59	0	263716864	45	4528
2026-01-14 00:54:17.23	174.55	25.02	-37.3	-39.2	22.7	0.00e+00	0	59	0	267386880	45	4688
2026-01-14 00:54:20.26	173.01	24.79	-37.0	-38.9	23.0	0.00e+00	0	59	0	270532608	45	4495
2026-01-14 00:54:23.29	171.48	24.54	-37.3	-39.3	22.6	0.00e+00	0	59	0	274202624	45	4718
2026-01-14 00:54:26.32	169.99	24.28	-37.6	-39.6	22.3	0.00e+00	0	59	0	277348352	45	4901
2026-01-14 00:54:29.34	168.53	24.01	-37.2	-39.1	22.8	0.00e+00	0	59	0	281018368	45	4628
2026-01-14 00:54:32.37	167.10	23.72	-37.3	-39.2	22.8	0.00e+00	0	59	0	284164096	45	4671
2026-01-14 00:54:35.40	165.69	23.42	-37.0	-38.8	23.1	0.00e+00	0	59	0	287834112	45	4458
2026-01-14 00:54:38.43	164.32	23.10	-36.7	-38.5	23.4	0.00e+00	0	59	0	290979840	45	4322
2026-01-14 00:54:41.46	162.99	22.78	-37.5	-39.4	22.5	0.00e+00	0	59	0	294649856	45	4814
2026-01-14 00:54:44.49	161.68	22.45	-37.6	-39.6	22.5	0.00e+00	0	59	0	297795584	45	4877
2026-01-14 00:54:47.51	160.41	22.12	-37.0	-38.8	23.1	0.00e+00	0	59	0	301465600	45	4485
2026-01-14 00:54:50.54	159.17	21.77	-37.9	-39.9	22.2	0.00e+00	0	59	0	304611328	46	4782
2026-01-14 00:54:53.57	157.96	21.42	-37.8	-39.8	22.2	0.00e+00	0	59	0	308281344	46	4741
2026-01-14 00:54:56.60	156.79	21.07	-37.4	-39.3	22.7	0.00e+00	0	59	0	311427072	46	4480
2026-01-14 00:54:59.63	155.65	20.71	-37.8	-39.8	22.2	0.00e+00	0	59	0	315097088	46	4740
2026-01-14 00:55:02.65	154.54	20.35	-37.8	-39.8	22.2	0.00e+00	0	59	0	318242816	46	4709
2026-01-14 00:55:05.69	153.45	19.99	-38.0	-40.0	22.0	0.00e+00	0	59	0	321912832	46	4847
2026-01-14 00:55:08.72	152.40	19.62	-37.9	-39.9	22.1	0.00e+00	0	60	0	325058560	46	4783
2026-01-14 00:55:11.75	151.38	19.26	-38.0	-40.0	21.9	0.00e+00	0	59	0	328728576	46	4866
2026-01-14 00:55:14.78	150.39	18.89	-38.0	-40.1	21.8	0.00e+00	0	59	0	331874304	46	4916
2026-01-14 00:55:17.81	149.43	18.53	-38.0	-40.1	21.8	0.00e+00	0	60	0	335544320	46	4904
2026-01-14 00:55:20.83	148.50	18.16	-38.0	-40.1	21.8	0.00e+00	0	59	0	338690048	46	4889
2026-01-14 00:55:23.86	147.60	17.80	-38.2	-40.4	21.4	0.00e+00	0	59	0	342360064	47	4782
2026-01-14 00:55:26.89	146.72	17.44	-38.2	-40.4	21.4	0.00e+00	0	59	0	345505792	47	4764
2026-01-14 00:55:29.92	145.86	17.08	-38.3	-40.5	21.2	0.00e+00	0	59	0	349175808	47	4869
2026-01-14 00:55:32.95	145.03	16.72	-38.2	-40.4	21.3	0.00e+00	0	59	0	352321536	47	4772
2026-01-14 00:55:35.98	144.23	16.36	-38.3	-40.5	21.2	0.00e+00	0	60	0	355991552	47	4843
2026-01-14 00:55:39.01	143.45	16.01	-38.6	-40.9	20.8	0.00e+00	0	59	0	359137280	47	5083
2026-01-14 00:55:42.04	142.69	15.66	-38.5	-40.8	20.9	0.00e+00	0	60	0	362807296	47	5016
2026-01-14 00:55:45.07	141.95	15.31	-38.6	-40.9	20.7	0.00e+00	0	60	0	365953024	47	5081
2026-01-14 00:55:48.10	141.24	14.97	-39.0	-41.5	20.2	0.00e+00	0	60	0	369623040	48	5116
2026-01-14 00:55:51.12	140.54	14.63	-39.1	-41.6	19.9	0.00e+00	0	59	0	372768768	48	5218
2026-01-14 00:55:54.15	139.87	14.30	-39.0	-41.4	20.1	0.00e+00	0	59	0	376438784	48	5067
2026-01-14 00:55:57.18	139.21	13.96	-39.1	-41.6	19.9	0.00e+00	0	60	0	379584512	48	5170
2026-01-14 00:56:00.21	138.58	13.63	-39.4	-42.1	19.3	0.00e+00	0	60	0	383254528	49	5174
2026-01-14 00:56:03.23	137.96	13.31	-39.4	-42.2	19.1	2.55e-04	0	60	0	386400256	49	5235
2026-01-14 00:56:06.26	137.36	12.99	-39.2	-42.2	18.7	1.53e-04	0	60	0	390070272	49	5235
2026-01-14 00:56:09.29	136.78	12.67	-39.2	-42.4	18.1	8.38e-04	0	60	0	393216000	48	5692
2026-01-14 00:56:12.32	136.21	12.36	-39.3	-42.8	17.3	2.83e-03	0	60	0	396886016	49	5615
2026-01-14 00:56:15.35	135.66	12.04	-39.0	-42.5	17.2	2.17e-03	0	60	0	400031744	48	5765
2026-01-14 00:56:18.38	135.12	11.74	-37.9	-42.6	17.1	5.69e-03	0	60	0	403701760	48	5839
2026-01-14 00:56:21.40	134.60	11.44	-32.3	-42.5	14.4	1.30e-02	0	60	0	406847488	42	8152
2026-01-14 00:56:24.43	134.09	11.14	-27.4	-41.4	12.0	6.71e-02	0	59	0	410517504	33	11980
2026-01-14 00:56:27.47	133.60	10.84	-28.4	-43.3	7.8	2.61e-01	0	60	0	413138944	26	22441
2026-01-14 00:56:30.49	133.12	10.55	-24.3	-48.3	5.5	6.08e-01	0	60	0	414187520	23	47168
2026-01-14 00:56:33.52	132.65	10.26	-25.5	-50.7	4.3	8.27e-01	0	60	104	414187520	25	55501
2026-01-14 00:56:36.55	132.19	9.98	-25.8	-47.5	3.6	8.03e-01	0	60	104	414187520	20	51010
2026-01-14 00:56:39.58	131.75	9.69	-24.4	-45.1	3.6	7.96e-01	0	60	104	414187520	16	49040
2026-01-14 00:56:42.61	131.31	9.42	-24.0	-42.9	3.3	7.80e-01	0	60	104	414187520	16	38068
2026-01-14 00:56:45.64	130.89	9.14	-22.7	-45.1	3.4	7.73e-01	0	60	104	414187520	18	43807
2026-01-14 00:56:48.66	130.48	8.87	-20.0	-41.6	3.3	7.74e-01	0	60	104	414187520	15	34774
2026-01-14 00:56:51.70	130.08	8.60	-22.6	-42.9	3.5	7.74e-01	0	60	104	414187520	15	40183
2026-01-14 00:56:54.72	129.69	8.34	-21.9	-41.4	3.2	7.66e-01	0	60	104	414187520	13	37928
2026-01-14 00:56:57.75	129.31	8.08	-19.2	-40.1	3.2	7.57e-01	0	60	0	414187520	12	34773
2026-01-14 00:57:00.78	128.94	7.82	-44.8	-62.9	3.8	8.35e-01	0	60	104	414187520	60	30326
2026-01-14 00:57:03.81	128.57	7.57	-45.4	-63.5	3.8	8.46e-01	0	60	104	414187520	61	30596
2026-01-14 00:57:06.84	128.22	7.31	-45.7	-63.8	3.8	8.46e-01	0	60	104	414187520	61	31735
2026-01-14 00:57:09.88	127.87	7.06	-45.6	-63.8	3.8	8.46e-01	0	60	104	414187520	62	30024
2026-01-14 00:57:12.91	127.54	6.82	-45.5	-63.7	3.8	8.46e-01	0	60	104	414187520	62	29609
2026-01-14 00:57:15.94	127.21	6.57	-45.4	-63.6	3.8	8.48e-01	0	60	104	414187520	62	29299
2026-01-14 00:57:18.98	126.88	6.33	-45.4	-63.7	3.8	8.46e-01	0	60	104	414187520	62	29365
2026-01-14 00:57:22.01	126.57	6.09	-45.4	-63.6	3.8	8.47e-01	0	60	104	414187520	62	29246
2026-01-14 00:57:25.04	126.26	5.86	-45.4	-63.6	3.8	8.46e-01	0	60	104	414187520	62	29255
2026-01-14 00:57:28.08	125.96	5.63	-45.4	-63.6	3.8	8.47e-01	0	60	104	414187520	62	29236
2026-01-14 00:57:31.11	125.67	5.40	-45.4	-63.6	3.8	8.45e-01	0	60	104	414187520	62	29223
2026-01-14 00:57:34.14	125.38	5.17	-45.4	-63.6	3.8	8.47e-01	0	60	104	414187520	62	29287
2026-01-14 00:57:37.17	125.10	4.94	-45.3	-63.6	3.8	8.46e-01	0	60	104	414187520	62	29246
2026-01-14 00:57:40.21	124.82	4.72	-45.3	-63.6	3.8	8.46e-01	0	60	104	414187520	62	29163
2026-01-14 00:57:43.24	124.56	4.50	-45.3	-63.6	3.8	8.47e-01	0	60	104	414187520	62	29200
2026-01-14 00:57:46.27	124.29	4.28	-45.3	-63.6	3.8	8.45e-01	0	60	104	414187520	62	29188
2026-01-14 00:57:49.30	124.04	4.06	-45.3	-63.6	3.8	8.45e-01	0	60	104	414187520	62	29139
2026-01-14 00:57:52.33	123.78	3.85	-45.3	-63.6	3.8	8.46e-01	0	60	104	414187520	62	29121
2026-01-14 00:57:55.36	123.54	3.64	-45.3	-63.6	3.8	8.46e-01	0	60	104	414187520	62	29118
2026-01-14 00:57:58.40	123.30	3.43	-45.3	-63.6	3.8	8.46e-01	0	60	104	414187520	62	29153
2026-01-14 00:58:01.43	123.06	3.22	-45.3	-63.6	3.8	8.46e-01	0	60	104	414187520	62	29109
2026-01-14 00:58:04.46	122.83	3.02	-45.3	-63.6	3.8	8.47e-01	0	60	104	414187520	62	29079
2026-01-14 00:58:07.49	122.60	2.81	-45.3	-63.6	3.8	8.45e-01	0	60	104	414187520	62	29029
2026-01-14 00:58:10.52	122.38	2.61	-45.3	-63.6	3.8	8.47e-01	0	60	104	414187520	62	29043
2026-01-14 00:58:13.56	122.16	2.41	-45.3	-63.6	3.8	8.46e-01	0	60	104	414187520	62	29078
2026-01-14 00:58:16.59	121.95	2.21	-45.3	-63.6	3.8	8.46e-01	0	60	104	414187520	62	29109
2026-01-14 00:58:19.62	121.74	2.02	-45.3	-63.6	3.8	8.47e-01	0	60	104	414187520	62	29074

#Closed at: 2026-01-14 00:58:21
#Recorded file [414 MB]: D:/lorett/data/31039_260114_034914.dat