passes_logs/2026/01/14/R2.0S_Moscow/R2.0S_Moscow__20260114_100423_NOAA_20_JPSS-1_rec.log

#Pass ID: 20260114_100423_NOAA 20 (JPSS-1)
#Satellite: NOAA 20 (JPSS-1)
#Configuration: NOAA 20
#almurnet v.1.7.20251203
#Start time: 2026-01-14 10:04:24

#Version: 2.2.20231116
#Station: R2.0S_Moscow
#Location: 37.707566 lon 55.798166 lat
#TLE: 1 43013U 17073A   26013.21545503  .00000073  00000+0  55630-4 0  9998
#TLE: 2 43013  98.7633 314.1737 0001580  41.9966 318.1331 14.19535680422486

#Time	Az	El	Level	Level2	SNR	BER	BlckErr	Temp	State	Recorded	gain1	gain2
2026-01-14 10:04:24.35	165.04	2.06	-44.0	-58.3	3.8	1.49e+00	0	52	0	0	59	18801
2026-01-14 10:04:28.38	165.08	2.32	-43.9	-58.3	3.8	1.49e+00	0	52	104	0	59	18830
2026-01-14 10:04:32.42	165.12	2.58	-43.9	-58.3	3.8	1.49e+00	0	52	104	0	59	18789
2026-01-14 10:04:36.46	165.16	2.85	-43.9	-58.3	3.8	1.49e+00	0	52	104	0	59	18803
2026-01-14 10:04:40.50	165.20	3.12	-43.9	-58.3	3.8	1.49e+00	0	53	104	0	59	18810
2026-01-14 10:04:44.55	165.24	3.39	-43.9	-58.2	3.8	1.49e+00	0	53	104	0	59	18729
2026-01-14 10:04:48.59	165.28	3.67	-43.9	-58.3	3.8	1.49e+00	0	53	104	0	59	18812
2026-01-14 10:04:52.63	165.32	3.94	-43.9	-58.3	3.8	1.49e+00	0	54	104	0	59	18800
2026-01-14 10:04:56.67	165.36	4.22	-43.9	-58.3	3.8	1.49e+00	0	54	104	0	59	18747
2026-01-14 10:05:00.71	165.40	4.51	-43.9	-58.2	3.8	1.49e+00	0	54	104	0	59	18721
2026-01-14 10:05:04.75	165.44	4.79	-43.9	-58.3	3.8	1.49e+00	0	54	104	0	59	18766
2026-01-14 10:05:08.79	165.49	5.08	-43.9	-58.2	3.8	1.49e+00	0	54	104	0	59	18567
2026-01-14 10:05:12.82	165.53	5.37	-43.9	-57.7	3.8	1.49e+00	0	54	104	0	59	17538
2026-01-14 10:05:16.87	165.58	5.67	-43.8	-56.1	3.8	1.49e+00	0	55	104	0	59	14663
2026-01-14 10:05:20.90	165.62	5.97	-43.8	-56.4	3.8	1.48e+00	0	55	104	0	59	15102
2026-01-14 10:05:24.94	165.67	6.27	-43.8	-55.8	3.8	1.48e+00	0	55	104	0	59	14193
2026-01-14 10:05:28.98	165.72	6.57	-43.8	-56.9	3.8	1.49e+00	0	55	104	0	59	15983
2026-01-14 10:05:33.02	165.76	6.88	-43.9	-58.2	3.8	1.49e+00	0	56	104	0	59	18640
2026-01-14 10:05:37.05	165.81	7.19	-43.9	-56.9	3.8	1.49e+00	0	55	104	0	59	16097
2026-01-14 10:05:41.09	165.86	7.51	-43.5	-53.2	4.8	8.86e-01	0	56	0	1048576	59	10435
2026-01-14 10:05:45.14	165.91	7.83	-43.2	-51.3	5.9	3.79e-01	0	56	0	8388608	58	8916
2026-01-14 10:05:49.18	165.96	8.16	-44.2	-58.3	3.8	1.03e+00	0	56	104	15728640	59	18847
2026-01-14 10:05:53.21	166.01	8.49	-43.0	-49.2	8.0	7.11e-02	0	56	0	16777216	57	7438
2026-01-14 10:05:57.25	166.07	8.82	-42.9	-49.1	8.1	5.96e-02	0	56	0	24117248	57	7344
2026-01-14 10:06:01.29	166.12	9.16	-42.9	-49.0	8.3	4.95e-02	0	56	0	32505856	57	7262
2026-01-14 10:06:05.33	166.18	9.50	-42.9	-49.0	8.3	4.87e-02	0	57	0	39845888	57	7241
2026-01-14 10:06:09.36	166.23	9.85	-42.9	-48.8	8.6	3.94e-02	0	57	0	47185920	57	7061
2026-01-14 10:06:13.40	166.29	10.20	-42.8	-48.5	8.8	2.93e-02	0	57	0	54525952	57	6876
2026-01-14 10:06:17.44	166.35	10.56	-42.9	-48.5	8.9	2.69e-02	0	57	0	61865984	57	6825
2026-01-14 10:06:21.48	166.41	10.92	-42.8	-48.3	9.2	2.11e-02	0	57	0	70254592	57	6716
2026-01-14 10:06:25.52	166.47	11.29	-42.8	-48.3	9.2	2.03e-02	0	57	0	77594624	57	6710
2026-01-14 10:06:29.55	166.53	11.66	-42.8	-48.2	9.3	1.63e-02	0	57	0	84934656	57	6607
2026-01-14 10:06:33.59	166.59	12.04	-42.8	-48.1	9.5	1.32e-02	0	57	0	92274688	57	6505
2026-01-14 10:06:37.63	166.66	12.43	-42.8	-47.9	9.7	1.09e-02	0	57	0	100663296	57	6390
2026-01-14 10:06:41.67	166.72	12.82	-42.7	-47.7	9.9	8.85e-03	0	57	0	108003328	57	6274
2026-01-14 10:06:45.71	166.79	13.22	-42.6	-47.5	10.2	6.15e-03	0	58	0	115343360	57	6115
2026-01-14 10:06:49.74	166.86	13.62	-42.6	-47.3	10.4	5.14e-03	0	58	0	122683392	57	5986
2026-01-14 10:06:53.78	166.93	14.04	-42.5	-47.1	10.7	3.10e-03	0	58	0	130023424	57	5836
2026-01-14 10:06:57.82	167.00	14.46	-42.5	-47.0	10.8	2.52e-03	0	58	0	138412032	56	6085
2026-01-14 10:07:01.86	167.07	14.88	-42.4	-46.8	11.1	1.55e-03	0	58	0	145752064	56	5948
2026-01-14 10:07:05.89	167.15	15.31	-42.4	-46.8	11.0	1.80e-03	0	58	0	153092096	56	5982
2026-01-14 10:07:09.93	167.23	15.76	-42.4	-46.9	11.0	1.64e-03	0	58	0	160432128	56	6009
2026-01-14 10:07:13.97	167.31	16.21	-42.5	-46.9	11.0	1.86e-03	0	58	0	168820736	56	6011
2026-01-14 10:07:18.01	167.39	16.66	-42.4	-46.7	11.2	1.35e-03	0	58	0	176160768	56	5919
2026-01-14 10:07:22.04	167.47	17.13	-42.5	-46.8	11.2	1.35e-03	0	58	0	183500800	56	5941
2026-01-14 10:07:26.08	167.56	17.61	-42.4	-46.6	11.4	1.02e-03	0	58	0	190840832	56	5820
2026-01-14 10:07:30.12	167.65	18.09	-42.4	-46.5	11.5	8.74e-04	0	58	0	198180864	56	5774
2026-01-14 10:07:34.16	167.74	18.59	-42.3	-46.5	11.6	7.68e-04	0	59	0	206569472	56	5746
2026-01-14 10:07:38.20	167.83	19.09	-42.3	-46.3	11.8	4.91e-04	0	58	0	213909504	56	5619
2026-01-14 10:07:42.23	167.93	19.61	-42.2	-46.1	12.0	3.69e-04	0	59	0	221249536	56	5498
2026-01-14 10:07:46.27	168.03	20.13	-42.2	-46.2	11.9	3.56e-04	0	59	0	228589568	56	5557
2026-01-14 10:07:50.31	168.13	20.67	-42.3	-46.3	11.7	5.85e-04	0	58	0	236978176	56	5646
2026-01-14 10:07:54.34	168.24	21.22	-42.4	-46.5	11.6	7.03e-04	0	59	0	244318208	56	5785
2026-01-14 10:07:58.38	168.35	21.78	-42.4	-46.5	11.6	7.36e-04	0	59	0	251658240	56	5765
2026-01-14 10:08:02.42	168.46	22.36	-42.4	-46.6	11.6	7.63e-04	0	59	0	258998272	56	5791
2026-01-14 10:08:06.46	168.57	22.95	-42.5	-46.6	11.5	7.97e-04	0	59	0	266338304	56	5834
2026-01-14 10:08:10.49	168.70	23.55	-42.5	-46.8	11.4	9.86e-04	0	59	0	274726912	56	5930
2026-01-14 10:08:14.52	168.82	24.16	-42.5	-46.7	11.4	8.67e-04	0	59	0	282066944	56	5907
2026-01-14 10:08:18.56	168.95	24.79	-42.6	-46.9	11.3	1.37e-03	0	59	0	289406976	56	6013
2026-01-14 10:08:22.60	169.08	25.44	-42.5	-46.8	11.4	9.10e-04	0	59	0	296747008	56	5943
2026-01-14 10:08:26.63	169.22	26.10	-42.6	-46.9	11.3	1.11e-03	0	59	0	304087040	56	6012
2026-01-14 10:08:30.67	169.37	26.77	-42.7	-47.1	11.0	1.81e-03	0	59	0	312475648	56	6179
2026-01-14 10:08:34.71	169.52	27.47	-42.9	-47.5	10.6	2.91e-03	0	59	0	319815680	56	6480
2026-01-14 10:08:38.75	169.67	28.18	-43.0	-47.7	10.4	4.04e-03	0	59	0	327155712	56	6623
2026-01-14 10:08:42.79	169.84	28.91	-43.2	-48.1	10.0	6.85e-03	0	59	0	334495744	56	6939
2026-01-14 10:08:46.83	170.01	29.67	-43.2	-48.3	9.8	8.90e-03	0	59	0	342884352	57	6711
2026-01-14 10:08:50.87	170.19	30.44	-43.3	-48.5	9.7	1.39e-02	0	59	0	350224384	57	6809
2026-01-14 10:08:54.90	170.37	31.23	-43.4	-48.7	9.4	1.34e-02	0	59	0	357564416	57	7005
2026-01-14 10:08:58.94	170.57	32.04	-43.5	-48.9	9.2	2.04e-02	0	59	0	364904448	57	7188
2026-01-14 10:09:02.98	170.77	32.88	-43.5	-49.0	9.1	2.16e-02	0	59	0	372244480	57	7287
2026-01-14 10:09:07.02	170.99	33.74	-43.2	-48.1	10.1	8.43e-03	0	59	0	380633088	57	6525
2026-01-14 10:09:11.05	171.21	34.62	-42.8	-47.0	11.2	1.57e-03	0	59	0	387973120	57	5776
2026-01-14 10:09:15.09	171.45	35.53	-42.5	-46.5	11.7	4.80e-04	0	59	0	395313152	56	5788
2026-01-14 10:09:19.13	171.70	36.47	-42.3	-46.2	12.2	3.20e-04	0	59	0	402653184	56	5529
2026-01-14 10:09:23.17	171.97	37.43	-42.0	-45.5	12.8	4.95e-05	0	59	0	411041792	56	5146
2026-01-14 10:09:27.21	172.25	38.42	-41.9	-45.4	12.8	7.93e-05	0	59	0	418381824	55	5371
2026-01-14 10:09:31.25	172.54	39.44	-42.2	-46.1	12.1	3.00e-04	0	60	0	425721856	55	5801
2026-01-14 10:09:35.28	172.86	40.49	-42.1	-45.9	12.2	1.94e-04	0	60	0	433061888	55	5699
2026-01-14 10:09:39.32	173.20	41.57	-42.6	-46.9	11.3	1.05e-03	0	60	0	440401920	55	6368
2026-01-14 10:09:43.36	173.55	42.68	-42.9	-47.4	10.9	2.75e-03	0	59	0	448790528	56	6370
2026-01-14 10:09:47.40	173.94	43.83	-42.7	-46.8	11.5	8.68e-04	0	59	0	456130560	56	5954
2026-01-14 10:09:51.43	174.35	45.00	-43.2	-47.9	10.3	4.33e-03	0	60	0	463470592	56	6784
2026-01-14 10:09:55.47	174.79	46.22	-43.5	-48.7	9.5	1.15e-02	0	59	0	470810624	57	7038
2026-01-14 10:09:59.51	175.27	47.46	-43.6	-49.2	9.1	2.26e-02	0	59	0	479199232	57	7411
2026-01-14 10:10:03.55	175.79	48.75	-43.2	-48.1	10.2	5.93e-03	0	60	0	486539264	57	6510
2026-01-14 10:10:07.59	176.35	50.07	-42.9	-47.2	11.1	1.62e-03	0	60	0	493879296	57	5923
2026-01-14 10:10:11.63	176.96	51.42	-42.2	-45.7	12.7	1.41e-04	0	60	0	501219328	56	5270
2026-01-14 10:10:15.66	177.63	52.81	-41.1	-44.1	14.2	3.00e-06	0	59	0	508559360	54	4883
2026-01-14 10:10:19.70	178.37	54.23	-40.9	-43.8	14.5	0.00e+00	0	60	0	516947968	53	4990
2026-01-14 10:10:23.74	179.18	55.70	-40.9	-43.7	14.6	0.00e+00	0	60	0	524288000	53	4929
2026-01-14 10:10:27.77	180.08	57.19	-41.6	-44.8	13.4	1.67e-05	0	60	0	531628032	53	5628
2026-01-14 10:10:31.81	181.08	58.72	-41.6	-44.9	13.4	1.14e-05	0	60	0	538968064	53	5683
2026-01-14 10:10:35.84	182.21	60.27	-41.4	-44.6	13.7	5.30e-06	0	60	0	547356672	53	5477
2026-01-14 10:10:39.88	183.48	61.86	-40.9	-43.6	14.6	0.00e+00	0	60	0	554696704	53	4923
2026-01-14 10:10:43.92	184.93	63.47	-41.6	-44.9	13.4	6.80e-06	0	60	0	562036736	53	5657
2026-01-14 10:10:47.96	186.59	65.11	-42.3	-46.3	11.9	3.81e-04	0	60	0	569376768	55	5946
2026-01-14 10:10:52.00	188.50	66.75	-43.1	-47.8	10.5	2.21e-03	0	60	0	576716800	56	6652
2026-01-14 10:10:56.03	190.74	68.40	-42.9	-47.3	10.9	1.98e-03	0	60	0	585105408	56	6327
2026-01-14 10:11:00.07	193.38	70.04	-42.7	-47.0	11.3	1.06e-03	0	60	0	592445440	56	6086
2026-01-14 10:11:04.11	196.52	71.67	-43.0	-47.6	10.6	3.36e-03	0	60	0	599785472	56	6542
2026-01-14 10:11:08.15	200.30	73.26	-43.3	-48.3	9.9	2.95e-03	0	60	0	607125504	57	6705
2026-01-14 10:11:12.18	204.88	74.78	-43.2	-48.3	9.7	9.91e-03	0	60	0	614465536	57	6680
2026-01-14 10:11:16.22	210.50	76.21	-43.9	-50.3	7.8	7.84e-02	0	60	0	622854144	58	7976
2026-01-14 10:11:20.26	217.38	77.49	-43.5	-48.7	9.4	2.20e-02	0	60	0	630194176	58	6643
2026-01-14 10:11:24.30	225.73	78.57	-43.0	-47.7	10.5	4.00e-03	0	60	0	637534208	57	6212
2026-01-14 10:11:28.33	235.57	79.37	-42.5	-46.5	11.7	6.74e-04	0	60	0	644874240	56	5733
2026-01-14 10:11:32.37	246.69	79.82	-42.6	-46.8	11.4	1.09e-03	0	60	0	653262848	56	5937
2026-01-14 10:11:36.41	258.38	79.87	-42.8	-47.1	11.1	1.28e-03	0	60	0	660602880	56	6151
2026-01-14 10:11:40.44	269.68	79.51	-42.9	-47.5	10.7	1.60e-03	0	60	0	667942912	56	6457
2026-01-14 10:11:44.48	279.89	78.79	-42.8	-47.2	10.9	2.02e-03	0	60	0	675282944	57	5910
2026-01-14 10:11:48.52	288.61	77.77	-43.3	-48.4	9.7	8.15e-03	0	60	0	682622976	57	6732
2026-01-14 10:11:52.56	295.83	76.54	-43.7	-49.5	8.6	4.18e-02	0	60	0	691011584	58	7205
2026-01-14 10:11:56.60	301.73	75.14	-43.7	-49.9	8.3	5.18e-02	0	60	0	698351616	59	7202
2026-01-14 10:12:00.63	306.53	73.64	-43.7	-49.6	8.5	4.11e-02	0	60	0	705691648	58	7363
2026-01-14 10:12:04.67	310.49	72.07	-42.6	-47.0	11.1	3.47e-03	0	60	0	713031680	55	6490
2026-01-14 10:12:08.71	313.78	70.46	-43.0	-47.7	10.4	3.31e-03	0	60	0	721420288	56	6631
2026-01-14 10:12:12.75	316.52	68.82	-43.6	-49.1	9.0	1.48e-02	0	60	0	728760320	57	7353
2026-01-14 10:12:16.79	318.85	67.17	-43.3	-48.5	9.7	8.34e-03	0	60	0	736100352	57	6866
2026-01-14 10:12:20.83	320.84	65.53	-42.1	-45.9	12.2	4.38e-04	0	60	0	743440384	55	5720
2026-01-14 10:12:24.86	322.55	63.90	-40.7	-43.4	14.8	7.00e-07	0	60	0	750780416	53	4802
2026-01-14 10:12:28.90	324.05	62.29	-41.2	-44.1	14.1	8.30e-06	0	60	0	759169024	53	5194
2026-01-14 10:12:32.94	325.36	60.70	-42.0	-45.6	12.6	4.34e-05	0	60	0	766509056	54	5828
2026-01-14 10:12:36.98	326.52	59.14	-42.6	-46.5	11.8	6.03e-04	0	60	0	773849088	57	5441
2026-01-14 10:12:41.02	327.55	57.61	-43.3	-48.1	10.1	1.21e-02	0	60	0	781189120	57	6546
2026-01-14 10:12:45.06	328.48	56.11	-42.0	-45.4	13.0	6.79e-05	0	60	0	789577728	56	5077
2026-01-14 10:12:49.10	329.31	54.64	-41.5	-44.7	13.5	1.14e-05	0	60	0	796917760	55	4968
2026-01-14 10:12:53.13	330.06	53.22	-42.2	-46.0	12.3	1.44e-04	0	60	0	804257792	55	5725
2026-01-14 10:12:57.17	330.75	51.82	-43.4	-48.5	9.7	7.17e-03	0	60	0	811597824	57	6829
2026-01-14 10:13:01.21	331.37	50.46	-44.5	-52.5	6.0	1.90e-01	0	60	0	818937856	59	9615
2026-01-14 10:13:05.25	331.95	49.14	-44.4	-52.0	6.3	3.08e-01	0	60	0	827326464	59	9109
2026-01-14 10:13:09.29	332.48	47.85	-43.5	-48.6	9.7	2.03e-02	0	60	0	834666496	58	6511
2026-01-14 10:13:13.33	332.97	46.60	-43.5	-48.7	9.5	8.97e-03	0	60	0	842006528	58	6612
2026-01-14 10:13:17.37	333.42	45.39	-42.6	-46.6	11.8	8.58e-04	0	60	0	849346560	57	5472
2026-01-14 10:13:21.40	333.84	44.21	-42.0	-45.5	12.9	4.50e-05	0	60	0	857735168	56	5104
2026-01-14 10:13:25.44	334.23	43.06	-43.0	-47.6	10.7	1.68e-03	0	60	0	865075200	56	6503
2026-01-14 10:13:29.47	334.59	41.95	-42.4	-46.2	12.1	5.84e-04	0	60	0	872415232	56	5581
2026-01-14 10:13:33.52	334.94	40.86	-41.8	-45.1	13.1	1.67e-05	0	60	0	879755264	55	5209
2026-01-14 10:13:37.56	335.26	39.81	-43.6	-49.1	9.1	1.27e-02	0	60	0	887095296	57	7360
2026-01-14 10:13:41.60	335.56	38.78	-43.4	-48.6	9.6	1.72e-02	0	60	0	895483904	58	6512
2026-01-14 10:13:45.64	335.85	37.79	-42.7	-46.9	11.3	8.88e-04	0	60	0	902823936	57	5706
2026-01-14 10:13:49.67	336.12	36.83	-43.6	-49.1	9.0	1.72e-02	0	60	0	910163968	57	7343
2026-01-14 10:13:53.71	336.38	35.89	-43.4	-48.7	9.4	2.39e-02	0	60	0	917504000	57	7017
2026-01-14 10:13:57.75	336.62	34.97	-42.9	-47.4	10.8	3.51e-03	0	60	0	925892608	57	6024
2026-01-14 10:14:01.76	336.85	34.09	-42.9	-47.4	10.8	2.34e-03	0	60	0	933232640	57	5993
2026-01-14 10:14:05.80	337.07	33.23	-43.6	-49.3	8.7	2.64e-02	0	60	0	940572672	57	7522
2026-01-14 10:14:09.83	337.27	32.39	-43.6	-49.4	8.7	3.36e-02	0	60	0	947912704	57	7547
2026-01-14 10:14:13.87	337.47	31.58	-43.5	-49.1	9.0	2.84e-02	0	60	0	955252736	57	7298
2026-01-14 10:14:17.91	337.66	30.78	-43.3	-48.7	9.3	1.84e-02	0	60	0	963641344	57	6977
2026-01-14 10:14:21.95	337.85	30.01	-42.9	-47.6	10.5	6.21e-03	0	60	0	970981376	57	6183
2026-01-14 10:14:25.98	338.02	29.26	-42.6	-46.9	11.2	1.62e-03	0	60	0	978321408	57	5659
2026-01-14 10:14:30.02	338.19	28.52	-42.5	-46.7	11.4	1.12e-03	0	60	0	985661440	57	5557
2026-01-14 10:14:34.06	338.35	27.81	-42.5	-46.7	11.3	1.07e-03	0	60	0	993001472	56	5886
2026-01-14 10:14:38.10	338.50	27.11	-42.3	-46.4	11.6	7.28e-04	0	60	0	1001390080	56	5707
2026-01-14 10:14:42.14	338.65	26.43	-42.2	-46.3	11.7	6.28e-04	0	60	0	1008730112	56	5613
2026-01-14 10:14:46.18	338.79	25.77	-42.2	-46.3	11.6	6.54e-04	0	60	0	1016070144	56	5629
2026-01-14 10:14:50.22	338.93	25.12	-42.0	-45.9	11.9	3.99e-04	0	60	0	1023410176	56	5375
2026-01-14 10:14:54.25	339.06	24.49	-41.6	-45.5	12.1	1.93e-04	0	60	0	1031798784	55	5410
2026-01-14 10:14:58.29	339.19	23.87	-41.5	-45.3	12.2	2.42e-04	0	60	0	1039138816	55	5337
2026-01-14 10:15:02.33	339.32	23.27	-41.4	-45.2	12.2	2.14e-04	0	60	0	1046478848	54	5564
2026-01-14 10:15:06.36	339.44	22.68	-41.3	-45.1	12.1	2.75e-04	0	60	0	1053818880	54	5500
2026-01-14 10:15:10.40	339.55	22.11	-41.1	-45.1	11.7	5.03e-04	0	60	0	1061158912	54	5478
2026-01-14 10:15:14.44	339.67	21.54	-40.7	-44.9	11.5	6.18e-04	0	60	0	1069547520	53	5679
2026-01-14 10:15:18.48	339.78	20.99	-40.7	-45.1	11.2	1.31e-03	0	60	0	1076887552	53	5793
2026-01-14 10:15:22.52	339.88	20.45	-41.2	-47.6	8.1	4.62e-02	0	60	0	1084227584	53	7756
2026-01-14 10:15:26.55	339.98	19.93	-41.4	-51.3	4.8	6.99e-01	0	60	0	1091567616	53	11950
2026-01-14 10:15:30.59	340.08	19.41	-41.4	-54.6	3.8	1.48e+00	0	60	104	1094713344	53	17287
2026-01-14 10:15:34.63	340.18	18.90	-41.4	-55.9	3.8	1.49e+00	0	60	104	1094713344	53	20242
2026-01-14 10:15:38.66	340.28	18.41	-42.1	-55.9	3.8	1.49e+00	0	60	104	1094713344	54	19087
2026-01-14 10:15:42.70	340.37	17.92	-41.9	-55.3	3.8	1.49e+00	0	60	104	1094713344	55	16861
2026-01-14 10:15:46.73	340.46	17.45	-41.9	-55.5	3.8	1.49e+00	0	61	104	1094713344	55	17112
2026-01-14 10:15:50.77	340.55	16.98	-41.7	-55.6	3.8	1.49e+00	0	60	104	1094713344	55	17416
2026-01-14 10:15:54.81	340.63	16.52	-41.5	-55.8	3.8	1.49e+00	0	60	104	1094713344	54	18770
2026-01-14 10:15:58.84	340.72	16.07	-41.2	-55.8	3.8	1.49e+00	0	60	104	1094713344	53	20038
2026-01-14 10:16:02.87	340.80	15.63	-40.6	-55.3	3.8	1.49e+00	0	60	104	1094713344	53	18879
2026-01-14 10:16:06.91	340.88	15.19	-40.9	-55.6	3.8	1.49e+00	0	60	104	1094713344	53	19588
2026-01-14 10:16:10.94	340.95	14.77	-40.7	-55.4	3.8	1.49e+00	0	60	104	1094713344	53	19142
2026-01-14 10:16:14.98	341.03	14.35	-41.1	-55.7	3.8	1.49e+00	0	60	104	1094713344	53	19728
2026-01-14 10:16:19.02	341.10	13.93	-40.5	-55.2	3.8	1.49e+00	0	60	104	1094713344	52	19738
2026-01-14 10:16:23.06	341.18	13.53	-40.9	-55.6	3.8	1.49e+00	0	60	104	1094713344	52	20654
2026-01-14 10:16:27.09	341.25	13.13	-40.5	-55.2	3.8	1.49e+00	0	60	104	1094713344	52	19705
2026-01-14 10:16:31.13	341.32	12.74	-40.8	-55.4	3.8	1.49e+00	0	60	104	1094713344	52	20252
2026-01-14 10:16:35.17	341.39	12.35	-40.3	-55.1	3.8	1.49e+00	0	60	104	1094713344	52	19500
2026-01-14 10:16:39.21	341.45	11.97	-40.7	-55.4	3.8	1.49e+00	0	60	104	1094713344	52	20231
2026-01-14 10:16:43.24	341.52	11.60	-40.2	-55.0	3.8	1.49e+00	0	60	104	1094713344	52	19247
2026-01-14 10:16:47.28	341.59	11.23	-40.4	-55.2	3.8	1.49e+00	0	60	104	1094713344	52	19798
2026-01-14 10:16:51.32	341.65	10.87	-40.3	-54.9	3.8	1.49e+00	0	60	104	1094713344	52	19140
2026-01-14 10:16:55.36	341.71	10.51	-40.4	-55.1	3.8	1.49e+00	0	60	104	1094713344	52	19469
2026-01-14 10:16:59.39	341.77	10.16	-40.3	-55.0	3.8	1.49e+00	0	60	104	1094713344	52	19177
2026-01-14 10:17:03.43	341.83	9.81	-40.4	-55.0	3.8	1.49e+00	0	61	104	1094713344	52	19199
2026-01-14 10:17:07.47	341.89	9.46	-40.3	-54.9	3.8	1.49e+00	0	60	104	1094713344	52	19139
2026-01-14 10:17:11.51	341.95	9.13	-40.3	-54.9	3.8	1.49e+00	0	60	104	1094713344	52	19098
2026-01-14 10:17:15.54	342.01	8.79	-40.3	-54.9	3.8	1.49e+00	0	60	104	1094713344	52	19033
2026-01-14 10:17:19.58	342.07	8.46	-40.3	-54.9	3.8	1.49e+00	0	60	104	1094713344	52	18977
2026-01-14 10:17:23.62	342.12	8.14	-40.3	-54.9	3.8	1.49e+00	0	61	104	1094713344	52	19032
2026-01-14 10:17:27.66	342.18	7.82	-43.9	-58.2	3.8	1.49e+00	0	61	104	1094713344	58	19621
2026-01-14 10:17:31.70	342.23	7.50	-45.1	-59.6	3.8	1.49e+00	0	61	104	1094713344	60	20775
2026-01-14 10:17:35.75	342.28	7.19	-43.6	-59.2	3.8	1.49e+00	0	61	104	1094713344	58	22186
2026-01-14 10:17:39.79	342.34	6.88	-45.0	-59.7	3.8	1.49e+00	0	61	104	1094713344	60	20782
2026-01-14 10:17:43.82	342.39	6.57	-44.9	-59.6	3.8	1.49e+00	0	61	104	1094713344	60	20604
2026-01-14 10:17:47.87	342.44	6.27	-45.1	-59.6	3.8	1.49e+00	0	61	104	1094713344	60	20641
2026-01-14 10:17:51.91	342.49	5.97	-45.1	-59.6	3.8	1.49e+00	0	61	104	1094713344	60	20615
2026-01-14 10:17:55.95	342.54	5.67	-45.1	-59.6	3.8	1.49e+00	0	60	104	1094713344	60	20646
2026-01-14 10:17:59.99	342.59	5.38	-45.1	-59.6	3.8	1.49e+00	0	61	104	1094713344	60	20569
2026-01-14 10:18:04.03	342.64	5.09	-44.8	-59.6	3.8	1.49e+00	0	60	104	1094713344	60	20572
2026-01-14 10:18:08.07	342.68	4.81	-45.0	-59.5	3.8	1.49e+00	0	61	104	1094713344	60	20515
2026-01-14 10:18:12.11	342.73	4.52	-45.1	-59.6	3.8	1.49e+00	0	61	104	1094713344	60	20557
2026-01-14 10:18:16.15	342.78	4.24	-44.9	-59.6	3.8	1.49e+00	0	61	104	1094713344	60	20579
2026-01-14 10:18:20.19	342.83	3.97	-45.1	-59.5	3.8	1.49e+00	0	61	104	1094713344	60	20466
2026-01-14 10:18:24.23	342.87	3.69	-44.8	-59.6	3.8	1.49e+00	0	61	104	1094713344	60	20550
2026-01-14 10:18:28.27	342.92	3.42	-45.1	-59.5	3.8	1.49e+00	0	61	104	1094713344	60	20478
2026-01-14 10:18:32.31	342.96	3.15	-45.1	-59.6	3.8	1.49e+00	0	61	104	1094713344	60	20559
2026-01-14 10:18:36.35	343.00	2.89	-45.1	-59.5	3.8	1.49e+00	0	61	104	1094713344	60	20511
2026-01-14 10:18:40.39	343.05	2.62	-45.1	-59.5	3.8	1.49e+00	0	61	104	1094713344	60	20528
2026-01-14 10:18:44.43	343.09	2.36	-44.9	-59.5	3.8	1.49e+00	0	61	104	1094713344	60	20471
2026-01-14 10:18:48.47	343.13	2.10	-45.0	-59.5	3.8	1.49e+00	0	61	104	1094713344	60	20495

#Closed at: 2026-01-14 10:18:51
#Recorded file [1094 MB]: D:/lorett/data/31039_260114_130424.dat