passes_logs/2026/01/14/R2.0S_Moscow/R2.0S_Moscow__20260114_125721_AQUA_rec.log

#Pass ID: 20260114_125721_AQUA
#Satellite: AQUA
#Configuration: AQUA
#almurnet v.1.7.20251203
#Start time: 2026-01-14 12:57:23

#Version: 2.2.20231116
#Station: R2.0S_Moscow
#Location: 37.707566 lon 55.798166 lat
#TLE: 1 27424U 02022A   26013.58555111  .00000773  00000+0  16469-3 0  9993
#TLE: 2 27424  98.4079 339.9892 0002045  80.0365 334.6894 14.61818766260681

#Time	Az	El	Level	Level2	SNR	BER	BlckErr	Temp	State	Recorded	gain1	gain2
2026-01-14 12:57:23.68	202.86	2.13	-44.7	-63.5	3.8	7.49e-01	0	50	0	0	61	30535
2026-01-14 12:57:26.71	203.08	2.31	-44.7	-63.5	3.8	7.44e-01	0	51	104	0	60	32317
2026-01-14 12:57:29.74	203.31	2.49	-44.7	-63.5	3.8	7.45e-01	0	51	104	0	60	32384
2026-01-14 12:57:32.77	203.54	2.67	-44.7	-63.5	3.8	7.44e-01	0	51	104	0	60	32289
2026-01-14 12:57:35.80	203.77	2.86	-44.7	-63.5	3.8	7.43e-01	0	51	104	0	60	32389
2026-01-14 12:57:38.83	204.01	3.04	-44.7	-63.5	3.8	7.45e-01	0	51	104	0	60	32327
2026-01-14 12:57:41.86	204.25	3.22	-44.7	-63.5	3.8	7.44e-01	0	52	104	0	60	32317
2026-01-14 12:57:44.89	204.49	3.41	-44.7	-63.4	3.8	7.48e-01	0	52	104	0	60	32174
2026-01-14 12:57:47.92	204.74	3.59	-44.7	-63.5	3.8	7.47e-01	0	52	104	0	60	32307
2026-01-14 12:57:50.95	204.99	3.78	-44.7	-63.5	3.8	7.43e-01	0	52	104	0	60	32261
2026-01-14 12:57:53.98	205.24	3.97	-44.7	-63.5	3.8	7.46e-01	0	52	104	0	60	32328
2026-01-14 12:57:57.01	205.50	4.16	-44.7	-63.5	3.8	7.46e-01	0	53	104	0	60	32324
2026-01-14 12:58:00.04	205.76	4.35	-44.7	-63.4	3.8	7.42e-01	0	53	104	0	60	32112
2026-01-14 12:58:03.07	206.02	4.54	-44.7	-63.4	3.8	7.42e-01	0	53	104	0	60	31944
2026-01-14 12:58:06.10	206.29	4.73	-44.7	-63.1	3.8	7.48e-01	0	53	104	0	60	30848
2026-01-14 12:58:09.13	206.56	4.92	-44.7	-63.1	3.8	7.46e-01	0	53	104	0	60	30795
2026-01-14 12:58:12.16	206.83	5.12	-44.7	-63.4	3.8	7.46e-01	0	54	104	0	60	31924
2026-01-14 12:58:15.19	207.11	5.31	-44.7	-63.1	3.8	7.45e-01	0	54	104	0	60	30949
2026-01-14 12:58:18.22	207.39	5.51	-44.7	-62.6	3.8	7.46e-01	0	54	104	0	60	29311
2026-01-14 12:58:21.25	207.68	5.71	-44.7	-62.2	3.8	7.40e-01	0	54	104	0	60	27893
2026-01-14 12:58:24.28	207.97	5.91	-44.6	-60.8	4.0	7.40e-01	0	54	104	0	60	23682
2026-01-14 12:58:27.30	208.27	6.11	-44.6	-59.8	3.9	7.39e-01	0	54	104	0	60	21200
2026-01-14 12:58:30.33	208.57	6.31	-44.4	-56.5	5.9	6.89e-01	48	54	104	0	60	14474
2026-01-14 12:58:33.36	208.87	6.51	-44.3	-54.5	7.7	6.52e-01	92	55	0	5242880	60	11453
2026-01-14 12:58:36.39	209.18	6.71	-44.3	-53.0	9.5	6.30e-01	0	55	0	11010048	59	10286
2026-01-14 12:58:39.43	209.49	6.92	-44.1	-52.0	10.7	6.21e-01	0	55	0	16252928	59	9077
2026-01-14 12:58:42.46	209.81	7.12	-44.1	-52.3	10.4	6.22e-01	0	55	0	22020096	59	9395
2026-01-14 12:58:45.49	210.13	7.33	-44.1	-52.0	10.6	6.22e-01	0	55	0	27787264	59	9162
2026-01-14 12:58:48.52	210.46	7.54	-43.6	-49.9	12.8	6.11e-01	0	55	0	33554432	59	7172
2026-01-14 12:58:51.55	210.79	7.75	-43.0	-48.3	14.5	6.05e-01	0	55	0	39321600	58	6306
2026-01-14 12:58:54.58	211.13	7.96	-42.8	-47.9	14.9	6.05e-01	0	55	0	45088768	57	6358
2026-01-14 12:58:57.61	211.47	8.17	-45.1	-62.4	4.0	7.56e-01	0	55	104	48758784	61	27014
2026-01-14 12:59:00.64	211.82	8.38	-42.7	-47.2	15.7	6.06e-01	0	55	0	52428800	57	5894
2026-01-14 12:59:03.67	212.17	8.60	-42.7	-47.3	15.8	6.06e-01	0	56	0	58195968	57	5925
2026-01-14 12:59:06.70	212.53	8.81	-42.5	-46.8	16.2	6.05e-01	0	56	0	63963136	57	5632
2026-01-14 12:59:09.73	212.89	9.03	-42.5	-46.7	16.4	6.06e-01	0	56	0	69730304	56	5877
2026-01-14 12:59:12.75	213.26	9.24	-42.5	-46.7	16.4	6.07e-01	0	56	0	74973184	56	5878
2026-01-14 12:59:15.78	213.63	9.46	-42.5	-46.6	16.5	6.06e-01	0	56	0	80740352	56	5831
2026-01-14 12:59:18.81	214.02	9.68	-42.5	-46.6	16.6	6.08e-01	0	56	0	86507520	56	5809
2026-01-14 12:59:21.84	214.40	9.90	-42.4	-46.5	16.7	6.08e-01	0	56	0	92274688	56	5740
2026-01-14 12:59:24.87	214.80	10.12	-42.4	-46.3	16.9	6.06e-01	0	56	0	98041856	56	5643
2026-01-14 12:59:27.90	215.20	10.35	-42.4	-46.3	16.9	6.06e-01	0	56	0	103809024	56	5636
2026-01-14 12:59:30.93	215.60	10.57	-42.4	-46.3	17.0	6.04e-01	0	56	0	109576192	56	5618
2026-01-14 12:59:33.97	216.02	10.80	-42.3	-46.2	17.1	6.06e-01	0	57	0	114819072	56	5543
2026-01-14 12:59:36.99	216.44	11.02	-42.3	-46.2	17.1	6.06e-01	0	56	0	120586240	56	5556
2026-01-14 12:59:40.02	216.86	11.25	-42.4	-46.2	17.2	6.06e-01	0	56	0	126353408	56	5541
2026-01-14 12:59:43.05	217.30	11.48	-42.4	-46.2	17.1	6.06e-01	0	57	0	132120576	56	5586
2026-01-14 12:59:46.07	217.73	11.70	-42.4	-46.1	17.2	6.06e-01	0	57	0	137887744	56	5521
2026-01-14 12:59:49.10	218.18	11.93	-42.4	-46.1	17.3	6.09e-01	0	57	0	143130624	56	5517
2026-01-14 12:59:52.14	218.64	12.17	-42.4	-46.2	17.3	6.09e-01	0	57	0	148897792	56	5531
2026-01-14 12:59:55.17	219.10	12.40	-42.3	-46.0	17.5	6.05e-01	0	57	0	154664960	56	5407
2026-01-14 12:59:58.19	219.57	12.63	-42.3	-45.9	17.5	6.06e-01	0	57	0	160432128	56	5398
2026-01-14 13:00:01.22	220.05	12.86	-42.2	-45.8	17.7	6.05e-01	0	57	0	166199296	56	5298
2026-01-14 13:00:04.25	220.54	13.10	-42.2	-45.7	17.8	6.07e-01	0	57	0	171966464	56	5275
2026-01-14 13:00:07.28	221.03	13.33	-42.2	-45.8	17.8	6.07e-01	0	57	0	177733632	56	5292
2026-01-14 13:00:10.31	221.53	13.57	-42.3	-45.8	17.7	6.05e-01	0	57	0	182976512	56	5318
2026-01-14 13:00:13.34	222.04	13.80	-42.2	-45.6	17.9	6.06e-01	0	57	0	188743680	56	5211
2026-01-14 13:00:16.36	222.56	14.04	-42.2	-45.6	18.0	6.07e-01	0	57	0	194510848	56	5206
2026-01-14 13:00:19.39	223.09	14.27	-42.1	-45.5	18.1	6.06e-01	0	57	0	200278016	56	5102
2026-01-14 13:00:22.42	223.63	14.51	-42.1	-45.4	18.2	6.07e-01	0	57	0	206045184	56	5099
2026-01-14 13:00:25.45	224.17	14.75	-42.1	-45.5	18.1	6.04e-01	0	57	0	211288064	56	5122
2026-01-14 13:00:28.47	224.73	14.99	-42.1	-45.6	18.1	6.07e-01	0	57	0	217055232	56	5175
2026-01-14 13:00:31.51	225.29	15.23	-42.1	-45.4	18.2	6.08e-01	0	57	0	222822400	56	5089
2026-01-14 13:00:34.54	225.87	15.46	-42.1	-45.4	18.3	6.08e-01	0	57	0	228589568	56	5062
2026-01-14 13:00:37.57	226.45	15.70	-42.0	-45.4	18.3	6.05e-01	0	57	0	234356736	56	5045
2026-01-14 13:00:40.60	227.04	15.94	-42.1	-45.5	18.2	6.08e-01	0	57	0	240123904	56	5101
2026-01-14 13:00:43.62	227.64	16.18	-42.1	-45.5	18.2	6.06e-01	0	57	0	245366784	56	5125
2026-01-14 13:00:46.65	228.26	16.41	-41.9	-45.2	18.4	6.06e-01	0	58	0	251133952	55	5247
2026-01-14 13:00:49.68	228.88	16.65	-42.0	-45.3	18.3	6.07e-01	0	58	0	256901120	55	5306
2026-01-14 13:00:52.71	229.51	16.89	-42.0	-45.2	18.4	6.06e-01	0	57	0	262668288	55	5278
2026-01-14 13:00:55.74	230.16	17.12	-41.9	-45.2	18.5	6.08e-01	0	58	0	268435456	55	5226
2026-01-14 13:00:58.76	230.81	17.35	-42.0	-45.2	18.4	6.08e-01	0	58	0	274202624	55	5260
2026-01-14 13:01:01.79	231.47	17.59	-42.0	-45.2	18.4	6.07e-01	0	58	0	279445504	55	5273
2026-01-14 13:01:04.82	232.15	17.82	-42.0	-45.4	18.3	6.05e-01	0	58	0	285212672	55	5347
2026-01-14 13:01:07.85	232.84	18.05	-42.0	-45.3	18.4	6.07e-01	0	58	0	290979840	55	5284
2026-01-14 13:01:10.88	233.53	18.28	-41.9	-45.2	18.5	6.09e-01	0	58	0	296747008	55	5222
2026-01-14 13:01:13.91	234.24	18.51	-42.0	-45.3	18.4	6.05e-01	0	58	0	302514176	55	5328
2026-01-14 13:01:16.93	234.96	18.73	-42.0	-45.2	18.5	6.07e-01	0	58	0	308281344	55	5263
2026-01-14 13:01:19.96	235.69	18.96	-42.0	-45.3	18.4	6.06e-01	0	58	0	313524224	55	5285
2026-01-14 13:01:22.99	236.43	19.18	-42.0	-45.3	18.5	6.07e-01	0	58	0	319291392	55	5280
2026-01-14 13:01:26.02	237.18	19.40	-42.0	-45.2	18.5	6.06e-01	0	58	0	325058560	55	5261
2026-01-14 13:01:29.05	237.94	19.61	-42.1	-45.4	18.3	6.09e-01	0	58	0	330825728	55	5364
2026-01-14 13:01:32.08	238.72	19.83	-42.1	-45.4	18.3	6.07e-01	0	58	0	336592896	55	5359
2026-01-14 13:01:35.11	239.50	20.04	-42.1	-45.4	18.4	6.08e-01	0	58	0	342360064	55	5352
2026-01-14 13:01:38.14	240.30	20.25	-42.1	-45.4	18.3	6.07e-01	0	58	0	347602944	55	5385
2026-01-14 13:01:41.17	241.11	20.45	-42.1	-45.4	18.3	6.08e-01	0	58	0	353370112	55	5374
2026-01-14 13:01:44.20	241.93	20.65	-42.2	-45.6	18.2	6.07e-01	0	58	0	359137280	55	5466
2026-01-14 13:01:47.23	242.76	20.84	-42.2	-45.5	18.2	6.07e-01	0	58	0	364904448	55	5424
2026-01-14 13:01:50.26	243.60	21.04	-42.2	-45.5	18.2	6.05e-01	0	58	0	370671616	55	5444
2026-01-14 13:01:53.28	244.44	21.22	-42.2	-45.6	18.2	6.06e-01	0	58	0	376438784	55	5475
2026-01-14 13:01:56.31	245.31	21.41	-42.2	-45.5	18.2	6.05e-01	0	58	0	381681664	55	5439
2026-01-14 13:01:59.34	246.18	21.58	-42.2	-45.6	18.1	6.06e-01	0	58	0	387448832	55	5486
2026-01-14 13:02:02.37	247.06	21.76	-42.2	-45.6	18.2	6.05e-01	0	58	0	393216000	55	5496
2026-01-14 13:02:05.40	247.95	21.92	-42.2	-45.6	18.1	6.08e-01	0	58	0	398983168	55	5522
2026-01-14 13:02:08.43	248.85	22.08	-42.3	-45.6	18.1	6.09e-01	0	58	0	404750336	55	5522
2026-01-14 13:02:11.45	249.76	22.24	-42.3	-45.6	18.1	6.09e-01	0	58	0	410517504	55	5526
2026-01-14 13:02:14.48	250.68	22.39	-42.4	-45.8	18.0	6.04e-01	0	58	0	415760384	55	5627
2026-01-14 13:02:17.51	251.61	22.53	-42.4	-45.8	18.0	6.08e-01	0	58	0	421527552	55	5633
2026-01-14 13:02:20.54	252.55	22.67	-42.3	-45.8	18.0	6.07e-01	0	58	0	427294720	55	5621
2026-01-14 13:02:23.57	253.49	22.80	-42.4	-45.8	17.9	6.08e-01	0	59	0	433061888	55	5648
2026-01-14 13:02:26.60	254.45	22.92	-42.4	-45.8	18.0	6.08e-01	0	58	0	438829056	55	5625
2026-01-14 13:02:29.62	255.41	23.03	-42.3	-45.7	18.1	6.06e-01	0	59	0	444071936	55	5556
2026-01-14 13:02:32.65	256.37	23.14	-42.4	-45.8	18.0	6.05e-01	0	58	0	449839104	55	5637
2026-01-14 13:02:35.68	257.35	23.24	-42.4	-45.9	17.9	6.06e-01	0	58	0	455606272	55	5680
2026-01-14 13:02:38.71	258.33	23.33	-42.3	-45.8	18.0	6.05e-01	0	58	0	461373440	55	5595
2026-01-14 13:02:41.74	259.32	23.41	-42.3	-45.8	18.0	6.06e-01	0	59	0	467140608	55	5602
2026-01-14 13:02:44.77	260.31	23.49	-42.2	-45.6	18.2	6.06e-01	0	59	0	472907776	55	5483
2026-01-14 13:02:47.80	261.30	23.56	-42.4	-45.8	17.9	6.05e-01	0	59	0	478674944	55	5647
2026-01-14 13:02:50.83	262.30	23.62	-42.3	-45.6	18.2	6.06e-01	0	58	0	483917824	55	5522
2026-01-14 13:02:53.85	263.30	23.67	-42.3	-45.7	18.1	6.07e-01	0	59	0	489684992	55	5577
2026-01-14 13:02:56.88	264.31	23.71	-42.3	-45.6	18.2	6.07e-01	0	59	0	495452160	55	5518
2026-01-14 13:02:59.91	265.32	23.74	-42.3	-45.8	18.0	6.07e-01	0	58	0	501219328	55	5596
2026-01-14 13:03:02.94	266.33	23.76	-42.2	-45.6	18.2	6.05e-01	0	58	0	506986496	55	5493
2026-01-14 13:03:05.97	267.34	23.78	-42.3	-45.8	18.0	6.06e-01	0	58	0	512229376	55	5594
2026-01-14 13:03:09.00	268.35	23.79	-42.3	-45.7	18.1	6.06e-01	0	59	0	517996544	55	5540
2026-01-14 13:03:12.02	269.36	23.78	-42.4	-45.9	17.9	6.06e-01	0	59	0	523763712	55	5663
2026-01-14 13:03:15.05	270.37	23.77	-42.2	-45.6	18.1	6.06e-01	0	58	0	529530880	55	5504
2026-01-14 13:03:18.08	271.38	23.75	-42.3	-45.7	18.1	6.08e-01	0	59	0	535298048	55	5548
2026-01-14 13:03:21.11	272.39	23.72	-42.3	-45.6	18.1	6.08e-01	0	59	0	541065216	55	5507
2026-01-14 13:03:24.14	273.40	23.68	-42.3	-45.7	18.0	6.08e-01	0	59	0	546832384	55	5567
2026-01-14 13:03:27.16	274.40	23.64	-42.3	-45.7	18.1	6.06e-01	0	59	0	552075264	55	5531
2026-01-14 13:03:30.19	275.40	23.58	-42.3	-45.8	18.0	6.07e-01	0	59	0	557842432	55	5615
2026-01-14 13:03:33.22	276.39	23.52	-42.2	-45.6	18.2	6.04e-01	0	59	0	563609600	55	5491
2026-01-14 13:03:36.25	277.39	23.45	-42.2	-45.6	18.2	6.06e-01	0	59	0	569376768	55	5473
2026-01-14 13:03:39.28	278.37	23.36	-42.2	-45.6	18.1	6.08e-01	0	59	0	575143936	55	5480
2026-01-14 13:03:42.30	279.35	23.28	-42.2	-45.6	18.1	6.06e-01	0	59	0	580386816	55	5499
2026-01-14 13:03:45.33	280.32	23.18	-42.3	-45.7	18.0	6.07e-01	0	59	0	586153984	55	5547
2026-01-14 13:03:48.36	281.29	23.08	-42.2	-45.5	18.2	6.06e-01	0	59	0	591921152	55	5455
2026-01-14 13:03:51.39	282.25	22.97	-42.2	-45.5	18.2	6.07e-01	0	59	0	597688320	55	5454
2026-01-14 13:03:54.42	283.21	22.85	-42.2	-45.5	18.2	6.06e-01	0	59	0	603455488	55	5453
2026-01-14 13:03:57.45	284.15	22.72	-42.1	-45.3	18.4	6.06e-01	0	59	0	609222656	55	5338
2026-01-14 13:04:00.47	285.09	22.59	-42.2	-45.7	18.1	6.06e-01	0	59	0	614465536	55	5533
2026-01-14 13:04:03.50	286.02	22.45	-42.1	-45.5	18.3	6.06e-01	0	59	0	620232704	55	5404
2026-01-14 13:04:06.53	286.94	22.30	-42.1	-45.5	18.2	6.05e-01	0	59	0	625999872	55	5428
2026-01-14 13:04:09.56	287.85	22.15	-42.2	-45.5	18.2	6.07e-01	0	59	0	631767040	55	5445
2026-01-14 13:04:12.59	288.75	21.99	-42.1	-45.5	18.2	6.06e-01	0	59	0	637534208	55	5403
2026-01-14 13:04:15.62	289.65	21.83	-42.2	-45.6	18.0	6.07e-01	0	59	0	643301376	55	5511
2026-01-14 13:04:18.65	290.53	21.66	-42.1	-45.5	18.2	6.08e-01	0	59	0	648544256	55	5412
2026-01-14 13:04:21.67	291.40	21.49	-42.2	-45.6	18.1	6.05e-01	0	59	0	654311424	55	5465
2026-01-14 13:04:24.70	292.26	21.31	-42.1	-45.4	18.3	6.08e-01	0	59	0	660078592	55	5378
2026-01-14 13:04:27.73	293.11	21.12	-42.0	-45.3	18.4	6.06e-01	0	59	0	665845760	55	5301
2026-01-14 13:04:30.76	293.95	20.93	-42.0	-45.3	18.4	6.04e-01	0	59	0	671612928	55	5302
2026-01-14 13:04:33.79	294.78	20.74	-42.0	-45.2	18.4	6.04e-01	0	59	0	677380096	55	5278
2026-01-14 13:04:36.82	295.60	20.54	-42.1	-45.4	18.2	6.08e-01	0	59	0	682622976	55	5381
2026-01-14 13:04:39.84	296.41	20.34	-42.0	-45.2	18.3	6.09e-01	0	59	0	688390144	55	5279
2026-01-14 13:04:42.87	297.21	20.14	-41.9	-45.2	18.4	6.07e-01	0	59	0	694157312	55	5234
2026-01-14 13:04:45.90	297.99	19.93	-42.1	-45.5	18.1	6.07e-01	0	59	0	699924480	55	5422
2026-01-14 13:04:48.93	298.77	19.72	-41.8	-44.9	18.7	6.08e-01	0	59	0	705691648	55	5078
2026-01-14 13:04:51.95	299.53	19.51	-42.0	-45.3	18.3	6.04e-01	0	59	0	711458816	55	5317
2026-01-14 13:04:54.98	300.28	19.29	-42.0	-45.3	18.2	6.08e-01	0	59	0	716701696	55	5327
2026-01-14 13:04:58.01	301.02	19.07	-41.8	-45.0	18.5	6.06e-01	0	59	0	722468864	55	5150
2026-01-14 13:05:01.04	301.76	18.85	-41.8	-45.0	18.6	6.07e-01	0	59	0	728236032	55	5138
2026-01-14 13:05:04.07	302.48	18.63	-41.8	-45.1	18.5	6.05e-01	0	59	0	734003200	55	5182
2026-01-14 13:05:07.09	303.18	18.40	-41.9	-45.2	18.3	6.09e-01	0	59	0	739770368	55	5256
2026-01-14 13:05:10.12	303.88	18.18	-41.8	-45.1	18.5	6.07e-01	0	59	0	745013248	55	5178
2026-01-14 13:05:13.15	304.57	17.95	-41.8	-45.0	18.5	6.04e-01	0	59	0	750780416	55	5156
2026-01-14 13:05:16.18	305.24	17.72	-41.9	-45.1	18.4	6.06e-01	0	59	0	756547584	55	5213
2026-01-14 13:05:19.20	305.91	17.49	-41.8	-45.1	18.5	6.07e-01	0	59	0	762314752	55	5178
2026-01-14 13:05:22.23	306.56	17.26	-41.8	-45.1	18.4	6.06e-01	0	59	0	768081920	55	5181
2026-01-14 13:05:25.26	307.21	17.02	-41.8	-45.0	18.5	6.07e-01	0	59	0	773849088	55	5158
2026-01-14 13:05:28.29	307.84	16.79	-41.8	-45.1	18.4	6.07e-01	0	59	0	779616256	55	5181
2026-01-14 13:05:31.32	308.47	16.56	-41.8	-45.0	18.5	6.07e-01	0	59	0	784859136	55	5130
2026-01-14 13:05:34.35	309.08	16.32	-41.8	-45.0	18.4	6.06e-01	0	59	0	790626304	55	5147
2026-01-14 13:05:37.38	309.69	16.09	-41.8	-45.1	18.4	6.03e-01	0	59	0	796393472	55	5172
2026-01-14 13:05:40.40	310.28	15.85	-41.9	-45.2	18.3	6.04e-01	0	59	0	802160640	55	5226
2026-01-14 13:05:43.43	310.86	15.62	-41.8	-45.1	18.3	6.06e-01	0	59	0	807927808	55	5218
2026-01-14 13:05:46.46	311.44	15.38	-41.8	-45.1	18.3	6.06e-01	0	59	0	813170688	55	5208
2026-01-14 13:05:49.49	312.01	15.14	-41.9	-45.2	18.2	6.05e-01	0	59	0	818937856	55	5242
2026-01-14 13:05:52.52	312.56	14.91	-41.9	-45.3	18.2	6.07e-01	0	59	0	824705024	55	5280
2026-01-14 13:05:55.55	313.11	14.67	-41.9	-45.3	18.1	6.07e-01	0	59	0	830472192	55	5290
2026-01-14 13:05:58.58	313.65	14.44	-41.9	-45.3	18.1	6.06e-01	0	59	0	836239360	55	5304
2026-01-14 13:06:01.61	314.18	14.20	-41.9	-45.3	18.1	6.09e-01	0	59	0	842006528	55	5302
2026-01-14 13:06:04.64	314.70	13.97	-41.9	-45.4	18.0	6.06e-01	0	59	0	847773696	55	5354
2026-01-14 13:06:07.66	315.21	13.74	-41.9	-45.4	18.0	6.08e-01	0	59	0	853016576	55	5357
2026-01-14 13:06:10.70	315.72	13.50	-41.9	-45.4	18.0	6.06e-01	0	59	0	858783744	55	5368
2026-01-14 13:06:13.73	316.21	13.27	-41.9	-45.4	17.9	6.06e-01	0	59	0	864550912	55	5372
2026-01-14 13:06:16.76	316.70	13.04	-41.9	-45.4	17.9	6.06e-01	0	59	0	870318080	55	5393
2026-01-14 13:06:19.79	317.18	12.81	-42.0	-45.5	17.8	6.07e-01	0	59	0	876085248	55	5431
2026-01-14 13:06:22.81	317.65	12.58	-41.9	-45.5	17.8	6.06e-01	0	59	0	881328128	55	5404
2026-01-14 13:06:25.85	318.12	12.35	-42.0	-45.5	17.7	6.06e-01	0	59	0	887095296	55	5452
2026-01-14 13:06:28.87	318.57	12.12	-42.0	-45.6	17.7	6.09e-01	0	59	0	892862464	55	5486
2026-01-14 13:06:31.90	319.02	11.89	-42.0	-45.6	17.6	6.06e-01	0	59	0	898629632	55	5489
2026-01-14 13:06:34.93	319.47	11.66	-42.0	-45.6	17.6	6.06e-01	0	59	0	904396800	55	5486
2026-01-14 13:06:37.97	319.90	11.43	-42.1	-45.7	17.5	6.09e-01	0	59	0	910163968	55	5576
2026-01-14 13:06:41.00	320.33	11.21	-42.1	-45.8	17.4	6.07e-01	0	59	0	915931136	55	5629
2026-01-14 13:06:44.02	320.75	10.99	-42.2	-46.0	17.2	6.07e-01	0	59	0	921174016	55	5724
2026-01-14 13:06:47.05	321.17	10.76	-42.2	-46.1	17.1	6.07e-01	0	59	0	926941184	55	5796
2026-01-14 13:06:50.08	321.58	10.54	-42.2	-46.1	17.0	6.07e-01	0	59	0	932708352	55	5833
2026-01-14 13:06:53.11	321.98	10.32	-42.2	-46.0	17.1	6.02e-01	0	59	0	938475520	55	5762
2026-01-14 13:06:56.14	322.38	10.10	-42.2	-46.2	16.9	6.06e-01	0	59	0	944242688	55	5883
2026-01-14 13:06:59.17	322.76	9.88	-42.2	-46.2	16.9	6.02e-01	0	59	0	949485568	55	5867
2026-01-14 13:07:02.20	323.15	9.66	-42.2	-46.0	17.0	6.00e-01	0	59	0	955252736	55	5788
2026-01-14 13:07:05.23	323.53	9.45	-42.1	-46.1	16.9	6.00e-01	0	59	0	961019904	55	5789
2026-01-14 13:07:08.26	323.90	9.23	-42.2	-46.2	16.7	6.03e-01	0	59	0	966787072	55	5916
2026-01-14 13:07:11.28	324.26	9.02	-42.3	-46.3	16.6	6.04e-01	0	60	0	972554240	55	5964
2026-01-14 13:07:14.31	324.62	8.80	-42.3	-46.5	16.5	6.01e-01	0	59	0	978321408	55	6069
2026-01-14 13:07:17.34	324.98	8.59	-42.4	-46.7	16.2	6.01e-01	0	59	0	984088576	55	6260
2026-01-14 13:07:20.37	325.33	8.38	-42.5	-46.9	15.9	6.01e-01	0	59	0	989331456	55	6409
2026-01-14 13:07:23.40	325.67	8.17	-42.4	-46.7	16.1	6.02e-01	0	59	0	995098624	55	6255
2026-01-14 13:07:26.43	326.01	7.96	-45.3	-62.4	3.9	7.40e-01	0	59	104	999292928	61	26881
2026-01-14 13:07:29.46	326.35	7.75	-46.0	-64.6	3.8	7.47e-01	0	59	104	999292928	62	32819
2026-01-14 13:07:32.49	326.68	7.55	-46.2	-64.9	3.8	7.46e-01	0	59	104	999292928	63	32006
2026-01-14 13:07:35.52	327.00	7.34	-46.2	-64.9	3.8	7.43e-01	0	59	104	999292928	63	32079
2026-01-14 13:07:38.55	327.32	7.14	-46.2	-64.8	3.8	7.46e-01	0	59	104	999292928	63	31755
2026-01-14 13:07:41.58	327.64	6.93	-46.2	-64.8	3.8	7.45e-01	0	59	104	999292928	62	33606
2026-01-14 13:07:44.61	327.95	6.73	-46.2	-64.8	3.8	7.47e-01	0	59	104	999292928	62	33575
2026-01-14 13:07:47.64	328.26	6.53	-46.2	-64.8	3.8	7.43e-01	0	59	104	999292928	62	33496
2026-01-14 13:07:50.67	328.56	6.33	-46.1	-64.8	3.8	7.45e-01	0	59	104	999292928	62	33453
2026-01-14 13:07:53.70	328.86	6.13	-46.2	-64.8	3.8	7.46e-01	0	60	104	999292928	62	33490
2026-01-14 13:07:56.73	329.15	5.93	-46.0	-64.8	3.8	7.47e-01	0	59	104	999292928	62	33313
2026-01-14 13:07:59.76	329.44	5.74	-46.2	-64.8	3.8	7.45e-01	0	59	104	999292928	62	33397
2026-01-14 13:08:02.80	329.72	5.54	-46.2	-64.8	3.8	7.44e-01	0	59	104	999292928	62	33415
2026-01-14 13:08:05.82	330.01	5.35	-46.1	-64.8	3.8	7.47e-01	0	59	104	999292928	62	33445
2026-01-14 13:08:08.85	330.28	5.16	-46.1	-64.8	3.8	7.44e-01	0	60	104	999292928	62	33394
2026-01-14 13:08:11.87	330.56	4.96	-46.1	-64.8	3.8	7.48e-01	0	59	104	999292928	62	33403
2026-01-14 13:08:14.90	330.83	4.77	-46.1	-64.8	3.8	7.44e-01	0	59	104	999292928	62	33354
2026-01-14 13:08:17.93	331.09	4.58	-46.1	-64.7	3.8	7.48e-01	0	59	104	999292928	62	33262
2026-01-14 13:08:20.96	331.36	4.39	-46.0	-64.8	3.8	7.47e-01	0	59	104	999292928	62	33368
2026-01-14 13:08:23.99	331.62	4.21	-46.1	-64.7	3.8	7.47e-01	0	59	104	999292928	62	33274
2026-01-14 13:08:27.02	331.87	4.02	-46.1	-64.8	3.8	7.47e-01	0	59	104	999292928	62	33332
2026-01-14 13:08:30.06	332.13	3.83	-46.1	-64.7	3.8	7.44e-01	0	59	104	999292928	62	33287
2026-01-14 13:08:33.08	332.37	3.65	-46.1	-64.8	3.8	7.48e-01	0	59	104	999292928	62	33354
2026-01-14 13:08:36.12	332.62	3.46	-46.0	-64.8	3.8	7.44e-01	0	60	104	999292928	62	33311
2026-01-14 13:08:39.14	332.86	3.28	-46.1	-64.7	3.8	7.43e-01	0	59	104	999292928	62	33293
2026-01-14 13:08:42.18	333.10	3.10	-46.1	-64.7	3.8	7.44e-01	0	60	104	999292928	62	33223
2026-01-14 13:08:45.21	333.34	2.92	-46.1	-64.7	3.8	7.49e-01	0	59	104	999292928	62	33166
2026-01-14 13:08:48.24	333.58	2.74	-46.1	-64.7	3.8	7.44e-01	0	59	104	999292928	62	33235
2026-01-14 13:08:51.27	333.81	2.56	-45.3	-64.7	3.8	7.47e-01	0	60	104	999292928	62	33257
2026-01-14 13:08:54.30	334.04	2.38	-46.1	-64.7	3.8	7.47e-01	0	60	104	999292928	62	33289
2026-01-14 13:08:57.32	334.26	2.20	-46.1	-64.7	3.8	7.47e-01	0	60	104	999292928	62	33251
2026-01-14 13:09:00.35	334.48	2.03	-46.1	-64.7	3.8	7.45e-01	0	60	104	999292928	62	33213

#Closed at: 2026-01-14 13:09:02
#Recorded file [999 MB]: D:/lorett/data/31039_260114_155723.dat