passes_logs/2026/01/14/R2.0S_Moscow/R2.0S_Moscow__20260114_041746_FENGYUN_3E_rec.log

#Pass ID: 20260114_041746_FENGYUN 3E
#Satellite: FENGYUN 3E
#Configuration: FENGYUN 3E
#almurnet v.1.7.20251203
#Start time: 2026-01-14 04:17:48

#Version: 2.2.20231116
#Station: R2.0S_Moscow
#Location: 37.707566 lon 55.798166 lat
#TLE: 1 49008U 21062A   26013.31447241  .00000001  00000+0  21294-4 0  9992
#TLE: 2 49008  98.7491  18.4630 0001950 139.8565 220.2756 14.19884983234609

#Time	Az	El	Level	Level2	SNR	BER	BlckErr	Temp	State	Recorded	gain1	gain2
2026-01-14 04:17:48.12	14.66	2.09	-43.5	-54.4	3.8	8.45e-01	0	51	0	0	58	12063
2026-01-14 04:17:52.15	14.61	2.35	-43.5	-54.4	3.8	8.44e-01	0	52	104	0	57	12762
2026-01-14 04:17:56.19	14.56	2.61	-43.5	-54.4	3.8	8.46e-01	0	52	104	0	57	12727
2026-01-14 04:18:00.23	14.52	2.87	-43.5	-54.4	3.8	8.46e-01	0	53	104	0	57	12795
2026-01-14 04:18:04.28	14.47	3.14	-43.5	-54.4	3.8	8.46e-01	0	53	104	0	57	12743
2026-01-14 04:18:08.32	14.41	3.41	-43.5	-54.3	3.8	8.46e-01	0	53	104	0	57	12664
2026-01-14 04:18:12.37	14.36	3.68	-43.5	-54.4	3.8	8.46e-01	0	54	104	0	57	12711
2026-01-14 04:18:16.41	14.31	3.95	-43.5	-54.3	3.8	8.47e-01	0	54	104	0	57	12662
2026-01-14 04:18:20.45	14.25	4.23	-43.5	-54.3	3.8	8.46e-01	0	54	104	0	57	12622
2026-01-14 04:18:24.50	14.20	4.51	-43.4	-54.3	3.8	8.45e-01	0	54	104	0	57	12539
2026-01-14 04:18:28.54	14.14	4.79	-43.4	-54.3	3.8	8.47e-01	0	54	104	0	57	12549
2026-01-14 04:18:32.59	14.08	5.08	-43.4	-53.6	3.8	8.47e-01	0	55	104	0	57	11672
2026-01-14 04:18:36.63	14.02	5.37	-43.1	-52.0	4.0	8.45e-01	0	55	104	0	57	9607
2026-01-14 04:18:40.67	13.96	5.66	-42.9	-50.4	4.3	8.31e-01	0	55	0	0	56	8529
2026-01-14 04:18:44.72	13.89	5.95	-42.7	-49.3	4.7	7.98e-01	0	55	0	0	56	7504
2026-01-14 04:18:48.76	13.83	6.25	-42.8	-49.9	4.5	8.18e-01	0	56	0	0	56	8037
2026-01-14 04:18:52.81	13.76	6.55	-42.9	-50.8	4.2	8.39e-01	0	56	0	0	56	8874
2026-01-14 04:18:56.85	13.69	6.86	-41.9	-47.1	6.1	3.92e-01	0	56	0	3145728	54	6516
2026-01-14 04:19:00.89	13.62	7.17	-40.1	-43.1	10.0	1.16e-02	0	56	0	32505856	51	4876
2026-01-14 04:19:04.94	13.54	7.48	-38.9	-41.3	11.9	4.70e-04	0	56	0	61865984	48	4715
2026-01-14 04:19:08.98	13.47	7.80	-38.7	-41.0	12.2	2.49e-04	0	56	0	91226112	48	4577
2026-01-14 04:19:13.02	13.39	8.12	-40.6	-44.0	9.2	1.66e-02	0	57	0	120586240	50	5760
2026-01-14 04:19:17.06	13.31	8.44	-43.1	-54.1	3.8	5.58e-01	0	57	104	145752064	55	13737
2026-01-14 04:19:21.10	13.23	8.77	-38.2	-40.3	12.9	5.72e-05	0	57	0	168820736	47	4467
2026-01-14 04:19:25.15	13.15	9.10	-38.1	-40.1	13.1	4.00e-05	0	57	0	198180864	46	4623
2026-01-14 04:19:29.18	13.06	9.44	-38.2	-40.3	12.8	4.69e-05	0	57	0	227540992	46	4754
2026-01-14 04:19:33.22	12.97	9.78	-37.9	-39.9	13.3	2.63e-05	0	57	0	256901120	46	4532
2026-01-14 04:19:37.26	12.88	10.13	-37.8	-39.8	13.5	6.80e-06	0	58	0	285212672	46	4448
2026-01-14 04:19:41.29	12.79	10.48	-37.8	-39.8	13.6	1.02e-05	0	57	0	314572800	46	4443
2026-01-14 04:19:45.34	12.69	10.83	-38.1	-40.1	13.2	2.17e-05	0	58	0	343932928	46	4644
2026-01-14 04:19:49.38	12.60	11.20	-38.1	-40.1	13.2	3.20e-05	0	58	0	373293056	46	4650
2026-01-14 04:19:53.41	12.49	11.56	-38.0	-40.0	13.4	1.83e-05	0	58	0	402653184	46	4569
2026-01-14 04:19:57.45	12.39	11.93	-37.9	-39.8	13.7	9.10e-06	0	58	0	430964736	46	4463
2026-01-14 04:20:01.49	12.28	12.31	-37.9	-39.8	13.9	3.40e-06	0	58	0	460324864	46	4444
2026-01-14 04:20:05.54	12.17	12.70	-38.0	-39.8	14.1	0.00e+00	0	59	0	489684992	46	4455
2026-01-14 04:20:09.57	12.06	13.08	-38.0	-39.8	14.2	0.00e+00	0	58	0	519045120	46	4447
2026-01-14 04:20:13.61	11.94	13.48	-37.8	-39.5	14.5	1.10e-06	0	59	0	548405248	46	4311
2026-01-14 04:20:17.65	11.82	13.88	-37.5	-39.2	14.9	0.00e+00	0	59	0	576716800	46	4158
2026-01-14 04:20:21.68	11.69	14.29	-37.5	-39.2	14.9	1.10e-06	0	59	0	606076928	46	4170
2026-01-14 04:20:25.72	11.56	14.71	-37.5	-39.1	15.1	0.00e+00	0	59	0	635437056	45	4364
2026-01-14 04:20:29.76	11.43	15.13	-37.4	-38.9	15.4	0.00e+00	0	59	0	664797184	45	4272
2026-01-14 04:20:33.81	11.29	15.56	-37.3	-38.9	15.5	0.00e+00	0	59	0	694157312	45	4254
2026-01-14 04:20:37.84	11.15	16.00	-37.4	-38.9	15.5	1.10e-06	0	59	0	723517440	45	4274
2026-01-14 04:20:41.88	11.00	16.44	-36.9	-38.4	16.1	0.00e+00	0	59	0	751828992	44	4263
2026-01-14 04:20:45.93	10.85	16.90	-37.0	-38.5	16.1	0.00e+00	0	59	0	781189120	44	4309
2026-01-14 04:20:49.97	10.69	17.36	-36.9	-38.4	16.2	0.00e+00	0	59	0	810549248	44	4245
2026-01-14 04:20:54.01	10.53	17.83	-36.8	-38.2	16.5	0.00e+00	0	59	0	839909376	44	4170
2026-01-14 04:20:58.05	10.36	18.31	-36.5	-37.9	16.8	0.00e+00	0	59	0	869269504	44	4024
2026-01-14 04:21:02.09	10.18	18.80	-36.3	-37.6	16.9	0.00e+00	0	59	0	897581056	43	4130
2026-01-14 04:21:06.13	10.00	19.30	-36.2	-37.5	17.1	0.00e+00	0	59	0	926941184	43	4070
2026-01-14 04:21:10.17	9.82	19.81	-36.1	-37.4	17.2	0.00e+00	0	59	0	956301312	43	4014
2026-01-14 04:21:14.21	9.62	20.32	-36.1	-37.3	17.3	0.00e+00	0	60	0	985661440	42	4227
2026-01-14 04:21:18.24	9.42	20.85	-35.9	-37.2	17.4	0.00e+00	0	60	0	1015021568	42	4153
2026-01-14 04:21:22.28	9.21	21.39	-35.9	-37.1	17.5	0.00e+00	0	60	0	1044381696	42	4142
2026-01-14 04:21:26.32	9.00	21.94	-35.8	-37.0	17.7	0.00e+00	0	60	0	1072693248	42	4096
2026-01-14 04:21:30.36	8.77	22.51	-35.9	-37.2	17.5	0.00e+00	0	59	0	1102053376	42	4158
2026-01-14 04:21:34.40	8.53	23.08	-35.9	-37.1	17.6	0.00e+00	0	60	0	1131413504	42	4120
2026-01-14 04:21:38.44	8.29	23.67	-36.0	-37.3	17.4	0.00e+00	0	59	0	1160773632	42	4213
2026-01-14 04:21:42.48	8.04	24.27	-36.1	-37.3	17.4	0.00e+00	0	60	0	1190133760	42	4228
2026-01-14 04:21:46.53	7.77	24.89	-36.0	-37.3	17.5	0.00e+00	0	60	0	1218445312	42	4223
2026-01-14 04:21:50.57	7.49	25.52	-36.0	-37.2	17.5	0.00e+00	0	60	0	1247805440	42	4189
2026-01-14 04:21:54.61	7.21	26.16	-36.0	-37.2	17.6	0.00e+00	0	60	0	1277165568	42	4189
2026-01-14 04:21:58.64	6.91	26.82	-35.7	-37.0	17.8	0.00e+00	0	60	0	1306525696	42	4057
2026-01-14 04:22:02.68	6.59	27.49	-35.5	-36.6	18.1	0.00e+00	0	60	0	1335885824	41	4144
2026-01-14 04:22:06.72	6.26	28.18	-35.1	-36.2	18.6	0.00e+00	0	60	0	1365245952	41	3934
2026-01-14 04:22:10.76	5.92	28.89	-35.0	-36.1	18.7	0.00e+00	0	60	0	1393557504	40	4105
2026-01-14 04:22:14.80	5.56	29.61	-35.0	-36.1	18.7	0.00e+00	0	60	0	1422917632	40	4127
2026-01-14 04:22:18.83	5.18	30.35	-35.1	-36.2	18.6	0.00e+00	0	60	0	1452277760	40	4189
2026-01-14 04:22:22.87	4.79	31.11	-35.3	-36.4	18.4	0.00e+00	0	60	0	1481637888	40	4272
2026-01-14 04:22:26.91	4.37	31.89	-35.5	-36.7	18.1	0.00e+00	0	60	0	1509949440	40	4432
2026-01-14 04:22:30.95	3.93	32.68	-35.6	-36.8	18.1	0.00e+00	0	60	0	1539309568	40	4442
2026-01-14 04:22:34.99	3.47	33.50	-35.5	-36.7	18.2	0.00e+00	0	60	0	1568669696	40	4402
2026-01-14 04:22:39.02	2.99	34.33	-34.8	-35.9	18.9	0.00e+00	0	60	0	1598029824	40	4030
2026-01-14 04:22:43.06	2.48	35.19	-34.8	-35.9	19.0	0.00e+00	0	60	0	1626341376	40	4014
2026-01-14 04:22:47.11	1.94	36.07	-35.4	-36.5	18.4	0.00e+00	0	60	0	1655701504	40	4340
2026-01-14 04:22:51.15	1.36	36.97	-35.5	-36.6	18.3	0.00e+00	0	60	0	1685061632	40	4383
2026-01-14 04:22:55.19	0.76	37.89	-35.6	-36.8	18.2	0.00e+00	0	60	0	1714421760	40	4443
2026-01-14 04:22:59.23	0.12	38.83	-35.9	-37.1	17.8	0.00e+00	0	60	0	1743781888	41	4369
2026-01-14 04:23:03.27	359.43	39.80	-35.9	-37.0	17.9	0.00e+00	0	61	0	1773142016	41	4339
2026-01-14 04:23:07.31	358.71	40.79	-35.5	-36.7	18.3	0.00e+00	0	61	0	1801453568	41	4171
2026-01-14 04:23:11.35	357.94	41.80	-35.3	-36.5	18.5	0.00e+00	0	61	0	1830813696	41	4057
2026-01-14 04:23:15.39	357.11	42.83	-35.7	-36.9	18.1	0.00e+00	0	60	0	1860173824	41	4252
2026-01-14 04:23:19.44	356.23	43.89	-36.0	-37.2	17.8	0.00e+00	0	61	0	1889533952	41	4406
2026-01-14 04:23:23.47	355.29	44.96	-35.7	-36.9	18.1	0.00e+00	0	60	0	1918894080	41	4249
2026-01-14 04:23:27.51	354.28	46.06	-35.8	-37.0	18.0	0.00e+00	0	60	0	1947205632	41	4305
2026-01-14 04:23:31.55	353.20	47.17	-36.5	-37.7	17.4	0.00e+00	0	60	0	1976565760	42	4433
2026-01-14 04:23:35.59	352.04	48.31	-36.9	-38.3	16.8	0.00e+00	0	60	0	2005925888	43	4458
2026-01-14 04:23:39.62	350.78	49.45	-36.7	-38.1	17.0	0.00e+00	0	60	0	2035286016	43	4342
2026-01-14 04:23:43.66	349.43	50.62	-36.4	-37.7	17.3	0.00e+00	0	61	0	2064646144	43	4167
2026-01-14 04:23:47.70	347.96	51.79	-37.5	-38.9	16.3	0.00e+00	0	61	0	2094006272	44	4507
2026-01-14 04:23:51.74	346.37	52.98	-37.2	-38.6	16.7	0.00e+00	0	61	0	2122317824	44	4369
2026-01-14 04:23:55.78	344.65	54.16	-36.7	-37.9	17.3	0.00e+00	0	61	0	2151677952	44	4035
2026-01-14 04:23:59.82	342.78	55.35	-37.1	-38.5	16.8	0.00e+00	0	61	0	2181038080	44	4307
2026-01-14 04:24:03.86	340.74	56.52	-36.6	-37.8	17.2	0.00e+00	0	61	0	2210398208	43	4235
2026-01-14 04:24:07.90	338.52	57.69	-37.2	-38.5	16.8	0.00e+00	0	61	0	2239758336	44	4311
2026-01-14 04:24:11.94	336.10	58.83	-36.7	-37.9	17.1	0.00e+00	0	61	0	2268069888	44	4039
2026-01-14 04:24:15.98	333.46	59.94	-37.1	-38.4	16.8	0.00e+00	0	61	0	2297430016	44	4274
2026-01-14 04:24:20.01	330.60	61.01	-37.0	-38.3	16.9	0.00e+00	0	61	0	2326790144	44	4238
2026-01-14 04:24:24.05	327.48	62.03	-36.7	-38.0	17.2	0.00e+00	0	61	0	2356150272	44	4068
2026-01-14 04:24:28.09	324.09	62.99	-36.3	-37.5	17.5	0.00e+00	0	61	0	2385510400	43	4076
2026-01-14 04:24:32.14	320.43	63.87	-36.0	-37.2	17.7	0.00e+00	0	61	0	2414870528	42	4164
2026-01-14 04:24:36.18	316.50	64.65	-35.5	-36.6	18.4	0.00e+00	0	61	0	2443182080	41	4126
2026-01-14 04:24:40.22	312.30	65.33	-35.3	-36.4	18.6	0.00e+00	0	61	0	2472542208	41	4026
2026-01-14 04:24:44.25	307.88	65.88	-35.5	-36.7	18.3	0.00e+00	0	61	0	2501902336	41	4152
2026-01-14 04:24:48.29	303.25	66.30	-35.2	-36.3	18.7	0.00e+00	0	61	0	2531262464	40	4206
2026-01-14 04:24:52.33	298.46	66.58	-35.0	-36.1	18.9	0.00e+00	0	61	0	2560622592	40	4125
2026-01-14 04:24:56.37	293.58	66.70	-35.3	-36.5	18.5	0.00e+00	0	61	0	2588934144	40	4298
2026-01-14 04:25:00.40	288.69	66.67	-34.9	-36.0	19.0	0.00e+00	0	61	0	2618294272	40	4080
2026-01-14 04:25:04.44	283.84	66.48	-35.4	-36.6	18.4	0.00e+00	0	61	0	2647654400	40	4371
2026-01-14 04:25:08.48	279.11	66.14	-35.5	-36.7	18.3	0.00e+00	0	61	0	2677014528	40	4399
2026-01-14 04:25:12.52	274.55	65.66	-35.3	-36.5	18.5	0.00e+00	0	61	0	2706374656	40	4298
2026-01-14 04:25:16.56	270.21	65.05	-35.5	-36.7	18.4	0.00e+00	0	61	0	2734686208	40	4400
2026-01-14 04:25:20.60	266.13	64.33	-35.7	-36.8	18.1	0.00e+00	0	61	0	2764046336	40	4488
2026-01-14 04:25:24.64	262.31	63.50	-35.6	-36.8	18.3	0.00e+00	0	61	0	2793406464	40	4447
2026-01-14 04:25:28.68	258.76	62.59	-35.8	-37.0	18.0	0.00e+00	0	61	0	2822766592	42	4082
2026-01-14 04:25:32.72	255.48	61.60	-36.5	-37.8	17.2	0.00e+00	0	61	0	2852126720	42	4468
2026-01-14 04:25:36.76	252.46	60.56	-36.1	-37.3	17.7	0.00e+00	0	61	0	2880438272	42	4237
2026-01-14 04:25:40.80	249.69	59.46	-36.6	-37.9	17.1	0.00e+00	0	61	0	2909798400	43	4259
2026-01-14 04:25:44.83	247.15	58.34	-36.6	-37.9	17.2	0.00e+00	0	61	0	2939158528	43	4260
2026-01-14 04:25:48.87	244.81	57.18	-36.8	-38.1	17.0	0.00e+00	0	61	0	2968518656	43	4352
2026-01-14 04:25:52.91	242.66	56.00	-36.0	-37.2	17.8	0.00e+00	0	61	0	2996830208	42	4181
2026-01-14 04:25:56.95	240.69	54.82	-36.2	-37.5	17.6	0.00e+00	0	61	0	3026190336	42	4297
2026-01-14 04:26:00.99	238.88	53.63	-37.0	-38.4	16.7	0.00e+00	0	61	0	3055550464	43	4533
2026-01-14 04:26:05.04	237.21	52.44	-36.7	-38.0	17.0	0.00e+00	0	61	0	3084910592	43	4305
2026-01-14 04:26:09.08	235.67	51.25	-36.8	-38.1	17.0	0.00e+00	0	61	0	3114270720	43	4352
2026-01-14 04:26:13.12	234.25	50.08	-36.6	-37.9	17.2	0.00e+00	0	61	0	3143630848	43	4260
2026-01-14 04:26:17.16	232.94	48.91	-36.8	-38.1	17.0	0.00e+00	0	61	0	3171942400	43	4375
2026-01-14 04:26:21.20	231.72	47.77	-36.4	-37.7	17.3	0.00e+00	0	61	0	3201302528	43	4174
2026-01-14 04:26:25.24	230.59	46.64	-35.9	-37.2	17.9	0.00e+00	0	61	0	3230662656	42	4154
2026-01-14 04:26:29.27	229.54	45.53	-35.7	-36.9	18.2	0.00e+00	0	61	0	3260022784	42	4016
2026-01-14 04:26:33.31	228.55	44.43	-35.7	-36.8	18.2	0.00e+00	0	61	0	3289382912	42	3997
2026-01-14 04:26:37.36	227.64	43.36	-35.6	-36.7	18.3	0.00e+00	0	61	0	3317694464	42	3951
2026-01-14 04:26:41.39	226.78	42.31	-35.6	-36.8	18.2	0.00e+00	0	61	0	3347054592	41	4222
2026-01-14 04:26:45.43	225.98	41.29	-35.6	-36.8	18.2	0.00e+00	0	61	0	3376414720	41	4229
2026-01-14 04:26:49.47	225.22	40.28	-35.7	-36.9	18.1	0.00e+00	0	61	0	3405774848	41	4269
2026-01-14 04:26:53.51	224.52	39.30	-35.9	-37.1	17.9	0.00e+00	0	61	0	3435134976	41	4368
2026-01-14 04:26:57.56	223.85	38.34	-35.7	-36.8	18.2	0.00e+00	0	61	0	3463446528	41	4235
2026-01-14 04:27:01.59	223.22	37.40	-35.4	-36.5	18.5	0.00e+00	0	61	0	3492806656	41	4082
2026-01-14 04:27:05.63	222.63	36.48	-35.4	-36.6	18.4	0.00e+00	0	61	0	3522166784	41	4115
2026-01-14 04:27:09.67	222.07	35.59	-35.1	-36.2	18.7	0.00e+00	0	61	0	3551526912	41	3942
2026-01-14 04:27:13.71	221.54	34.72	-35.2	-36.3	18.7	0.00e+00	0	61	0	3580887040	41	3979
2026-01-14 04:27:17.75	221.03	33.87	-35.3	-36.4	18.6	0.00e+00	0	61	0	3610247168	41	4026
2026-01-14 04:27:21.79	220.56	33.04	-34.9	-36.0	19.0	0.00e+00	0	61	0	3638558720	40	4078
2026-01-14 04:27:25.82	220.11	32.23	-35.3	-36.4	18.6	0.00e+00	0	61	0	3667918848	40	4274
2026-01-14 04:27:29.86	219.68	31.43	-35.5	-36.7	18.3	0.00e+00	0	61	0	3697278976	40	4394
2026-01-14 04:27:33.90	219.27	30.66	-35.3	-36.4	18.6	0.00e+00	0	62	0	3726639104	40	4271
2026-01-14 04:27:37.94	218.88	29.91	-35.2	-36.3	18.6	0.00e+00	0	61	0	3755999232	40	4232
2026-01-14 04:27:41.98	218.50	29.17	-35.2	-36.4	18.6	0.00e+00	0	61	0	3784310784	40	4245
2026-01-14 04:27:46.01	218.15	28.46	-35.3	-36.5	18.5	0.00e+00	0	61	0	3813670912	40	4317
2026-01-14 04:27:50.05	217.81	27.75	-35.4	-36.6	18.3	0.00e+00	0	61	0	3843031040	40	4361
2026-01-14 04:27:54.09	217.48	27.07	-35.4	-36.6	18.3	0.00e+00	0	61	0	3872391168	40	4351
2026-01-14 04:27:58.13	217.17	26.40	-35.4	-36.5	18.4	0.00e+00	0	61	0	3901751296	40	4321
2026-01-14 04:28:02.17	216.88	25.74	-35.4	-36.5	18.4	0.00e+00	0	61	0	3931111424	40	4328
2026-01-14 04:28:06.21	216.59	25.11	-35.4	-36.6	18.3	0.00e+00	0	61	0	3959422976	40	4372
2026-01-14 04:28:10.25	216.32	24.48	-35.5	-36.7	18.2	0.00e+00	0	62	0	3988783104	40	4405
2026-01-14 04:28:14.29	216.05	23.87	-35.6	-36.8	18.1	0.00e+00	0	61	0	4018143232	40	4473
2026-01-14 04:28:18.33	215.80	23.27	-35.7	-37.0	17.9	0.00e+00	0	61	0	4047503360	41	4298
2026-01-14 04:28:22.37	215.56	22.69	-35.8	-37.0	17.8	0.00e+00	0	61	0	4075814912	41	4325
2026-01-14 04:28:26.40	215.33	22.12	-35.8	-37.0	17.8	0.00e+00	0	61	0	4105175040	41	4308
2026-01-14 04:28:30.44	215.10	21.56	-35.8	-37.0	17.8	0.00e+00	0	61	0	4134535168	41	4325
2026-01-14 04:28:34.48	214.88	21.01	-35.9	-37.1	17.7	0.00e+00	0	61	0	4163895296	41	4361
2026-01-14 04:28:38.52	214.68	20.47	-36.0	-37.2	17.6	0.00e+00	0	61	0	4193255424	41	4411
2026-01-14 04:28:42.56	214.47	19.94	-36.1	-37.4	17.4	0.00e+00	0	61	0	4221566976	41	4500
2026-01-14 04:28:46.60	214.28	19.43	-36.3	-37.6	17.2	0.00e+00	0	62	0	4250927104	42	4346
2026-01-14 04:28:50.63	214.09	18.92	-36.4	-37.7	17.1	0.00e+00	0	61	0	4280287232	42	4430
2026-01-14 04:28:54.67	213.91	18.43	-36.5	-37.9	16.9	0.00e+00	0	61	0	4309647360	42	4506
2026-01-14 04:28:58.71	213.74	17.94	-36.7	-38.0	16.7	0.00e+00	0	61	0	4339007488	42	4573
2026-01-14 04:29:02.76	213.57	17.46	-36.7	-38.1	16.6	0.00e+00	0	61	0	4367319040	42	4609
2026-01-14 04:29:06.79	213.40	17.00	-36.8	-38.2	16.5	0.00e+00	0	61	0	4396679168	43	4415
2026-01-14 04:29:10.83	213.25	16.54	-36.9	-38.3	16.4	0.00e+00	0	61	0	4426039296	43	4471
2026-01-14 04:29:14.87	213.09	16.08	-37.0	-38.4	16.2	0.00e+00	0	61	0	4455399424	43	4544
2026-01-14 04:29:18.91	212.94	15.64	-37.1	-38.5	16.1	0.00e+00	0	61	0	4484759552	43	4592
2026-01-14 04:29:22.94	212.80	15.21	-37.1	-38.6	16.0	0.00e+00	0	61	0	4513071104	43	4621
2026-01-14 04:29:26.99	212.66	14.78	-37.4	-38.9	15.9	0.00e+00	0	61	0	4542431232	44	4509
2026-01-14 04:29:31.03	212.53	14.36	-37.4	-38.9	15.8	0.00e+00	0	61	0	4571791360	44	4511
2026-01-14 04:29:35.07	212.39	13.94	-37.5	-39.0	15.7	0.00e+00	0	61	0	4601151488	44	4587
2026-01-14 04:29:39.11	212.27	13.53	-37.4	-38.9	15.8	0.00e+00	0	61	0	4630511616	44	4533
2026-01-14 04:29:43.14	212.14	13.14	-37.5	-39.0	15.6	0.00e+00	0	61	0	4659871744	44	4567
2026-01-14 04:29:47.18	212.02	12.74	-37.7	-39.2	15.4	0.00e+00	0	62	0	4688183296	44	4680
2026-01-14 04:29:51.23	211.91	12.35	-37.7	-39.2	15.4	0.00e+00	0	61	0	4717543424	45	4439
2026-01-14 04:29:55.27	211.79	11.97	-37.8	-39.4	15.1	1.10e-06	0	61	0	4746903552	45	4539
2026-01-14 04:29:59.31	211.68	11.59	-38.0	-39.7	14.9	0.00e+00	0	61	0	4776263680	45	4652
2026-01-14 04:30:03.35	211.58	11.22	-38.2	-39.9	14.6	1.10e-06	0	61	0	4805623808	46	4536
2026-01-14 04:30:07.39	211.47	10.86	-38.3	-40.0	14.5	1.10e-06	0	61	0	4833935360	46	4582
2026-01-14 04:30:11.43	211.37	10.50	-38.6	-40.4	14.0	1.10e-06	0	61	0	4863295488	46	4792
2026-01-14 04:30:15.47	211.27	10.14	-38.6	-40.4	14.0	5.70e-06	0	62	0	4892655616	47	4545
2026-01-14 04:30:19.51	211.18	9.79	-38.6	-40.4	14.0	1.10e-06	0	62	0	4922015744	47	4534
2026-01-14 04:30:23.55	211.08	9.45	-38.7	-40.6	13.7	4.50e-06	0	61	0	4951375872	47	4636
2026-01-14 04:30:27.59	210.99	9.11	-38.8	-40.8	13.5	1.71e-05	0	61	0	4980736000	47	4721
2026-01-14 04:30:31.63	210.90	8.77	-38.7	-40.6	13.7	3.40e-06	0	61	0	5009047552	47	4612
2026-01-14 04:30:35.66	210.81	8.44	-38.8	-40.7	13.5	8.00e-06	0	61	0	5038407680	47	4691
2026-01-14 04:30:39.71	210.73	8.11	-38.9	-40.9	13.2	2.17e-05	0	61	0	5067767808	47	4773
2026-01-14 04:30:43.75	210.65	7.79	-45.2	-56.5	3.8	8.47e-01	0	61	104	5081399296	60	13671
2026-01-14 04:30:47.79	210.57	7.47	-45.6	-56.9	3.8	8.47e-01	0	61	104	5081399296	60	14249
2026-01-14 04:30:51.83	210.49	7.16	-45.6	-56.9	3.8	8.45e-01	0	62	104	5081399296	60	14257
2026-01-14 04:30:55.87	210.41	6.84	-45.5	-56.7	3.8	8.47e-01	0	61	104	5081399296	60	14012
2026-01-14 04:30:59.91	210.34	6.54	-45.5	-56.8	3.8	8.46e-01	0	61	104	5081399296	60	14087
2026-01-14 04:31:03.95	210.26	6.23	-45.5	-56.7	3.8	8.46e-01	0	62	104	5081399296	60	13958
2026-01-14 04:31:07.99	210.19	5.93	-45.5	-56.7	3.8	8.46e-01	0	61	104	5081399296	60	13993
2026-01-14 04:31:12.04	210.12	5.63	-45.5	-56.7	3.8	8.46e-01	0	61	104	5081399296	60	13963
2026-01-14 04:31:16.08	210.05	5.34	-45.5	-56.7	3.8	8.47e-01	0	61	104	5081399296	60	13989
2026-01-14 04:31:20.12	209.99	5.05	-45.5	-56.7	3.8	8.46e-01	0	61	104	5081399296	60	13948
2026-01-14 04:31:24.17	209.92	4.76	-45.5	-56.7	3.8	8.46e-01	0	62	104	5081399296	60	13940
2026-01-14 04:31:28.21	209.86	4.48	-45.5	-56.7	3.8	8.45e-01	0	62	104	5081399296	60	13975
2026-01-14 04:31:32.26	209.80	4.19	-45.4	-56.7	3.8	8.47e-01	0	61	104	5081399296	60	13949
2026-01-14 04:31:36.30	209.74	3.91	-45.4	-56.7	3.8	8.46e-01	0	62	104	5081399296	60	13968
2026-01-14 04:31:40.34	209.68	3.64	-45.4	-56.6	3.8	8.46e-01	0	62	104	5081399296	60	13883
2026-01-14 04:31:44.39	209.62	3.36	-45.4	-56.7	3.8	8.45e-01	0	61	104	5081399296	60	13917
2026-01-14 04:31:48.43	209.56	3.09	-45.4	-56.7	3.8	8.47e-01	0	62	104	5081399296	60	13897
2026-01-14 04:31:52.48	209.51	2.83	-45.4	-56.7	3.8	8.45e-01	0	61	104	5081399296	60	13918
2026-01-14 04:31:56.52	209.45	2.56	-45.4	-56.7	3.8	8.46e-01	0	62	104	5081399296	60	13935
2026-01-14 04:32:00.56	209.40	2.30	-45.4	-56.7	3.8	8.46e-01	0	62	104	5081399296	60	13940
2026-01-14 04:32:04.61	209.35	2.04	-45.4	-56.7	3.8	8.45e-01	0	62	104	5081399296	60	13930

#Closed at: 2026-01-14 04:32:05
#Recorded file [5081 MB]: D:/lorett/data/31039_260114_071747.dat