passes_logs/2026/01/14/R2.0S_Moscow/R2.0S_Moscow__20260114_105453_NOAA_21_JPSS-2_rec.log

#Pass ID: 20260114_105453_NOAA 21 (JPSS-2)
#Satellite: NOAA 21 (JPSS-2)
#Configuration: NOAA-21
#almurnet v.1.7.20251203
#Start time: 2026-01-14 10:57:18

#Version: 2.2.20231116
#Station: R2.0S_Moscow
#Location: 37.707566 lon 55.798166 lat
#TLE: 1 54234U 22150A   26013.18009385  .00000056  00000+0  47387-4 0  9997
#TLE: 2 54234  98.7496 314.1019 0000691 303.8246  56.2864 14.19534466164559

#Time	Az	El	Level	Level2	SNR	BER	BlckErr	Temp	State	Recorded	gain1	gain2
2026-01-14 10:57:18.68	199.80	12.37	-44.9	-56.6	3.8	8.46e-01	0	60	0	0	60	14640
2026-01-14 10:57:21.70	200.08	12.63	-45.2	-57.5	3.8	1.49e+00	0	61	104	0	62	14485
2026-01-14 10:57:24.74	200.37	12.89	-45.0	-57.2	3.8	1.49e+00	0	61	104	0	62	14015
2026-01-14 10:57:27.77	200.66	13.15	-44.8	-57.1	3.8	1.49e+00	0	60	104	0	61	14600
2026-01-14 10:57:30.80	200.96	13.42	-44.8	-57.0	3.8	1.49e+00	0	60	104	0	61	14474
2026-01-14 10:57:33.83	201.26	13.68	-44.8	-57.0	3.8	1.49e+00	0	61	104	0	61	14427
2026-01-14 10:57:36.86	201.57	13.95	-44.8	-56.7	3.8	1.49e+00	0	60	104	0	61	13946
2026-01-14 10:57:39.89	201.89	14.22	-44.7	-56.3	3.8	1.49e+00	0	61	104	0	61	13350
2026-01-14 10:57:42.92	202.21	14.50	-44.7	-56.0	3.8	1.49e+00	0	61	104	0	61	12901
2026-01-14 10:57:45.95	202.53	14.77	-44.6	-55.5	3.8	1.49e+00	0	61	104	0	61	12174
2026-01-14 10:57:48.98	202.87	15.05	-44.4	-53.2	4.3	1.44e+00	0	60	104	0	60	9870
2026-01-14 10:57:52.01	203.20	15.33	-44.0	-50.8	5.4	5.67e-01	0	61	0	4194304	59	7935
2026-01-14 10:57:55.04	203.55	15.61	-43.5	-49.0	6.8	1.99e-01	0	61	0	13631488	59	6486
2026-01-14 10:57:58.07	203.90	15.90	-43.2	-48.2	7.6	1.02e-01	0	61	0	23068672	58	6217
2026-01-14 10:58:01.10	204.25	16.18	-43.4	-48.6	7.2	1.30e-01	0	61	0	32505856	58	6564
2026-01-14 10:58:04.13	204.62	16.47	-43.4	-48.7	7.1	1.54e-01	0	61	0	41943040	58	6634
2026-01-14 10:58:07.16	204.99	16.76	-42.2	-46.0	9.7	1.60e-02	0	60	0	51380224	56	5444
2026-01-14 10:58:10.20	205.37	17.06	-41.0	-43.9	11.8	5.64e-04	0	60	0	60817408	54	4777
2026-01-14 10:58:13.23	205.75	17.36	-41.1	-44.1	11.5	1.29e-03	0	61	0	70254592	53	5163
2026-01-14 10:58:16.26	206.14	17.65	-44.3	-52.4	4.5	1.48e+00	4	61	104	73400320	59	9534
2026-01-14 10:58:19.29	206.54	17.96	-41.1	-44.1	11.6	1.60e-03	0	61	0	78643200	54	4898
2026-01-14 10:58:22.32	206.95	18.26	-40.8	-43.6	12.1	3.14e-04	0	61	0	88080384	53	4882
2026-01-14 10:58:25.35	207.37	18.57	-40.8	-43.6	12.1	3.03e-04	0	61	0	97517568	53	4918
2026-01-14 10:58:28.38	207.79	18.87	-40.7	-43.4	12.3	1.79e-04	0	61	0	106954752	53	4809
2026-01-14 10:58:31.41	208.22	19.18	-40.6	-43.2	12.6	1.17e-04	0	61	0	116391936	53	4685
2026-01-14 10:58:34.44	208.66	19.50	-40.5	-43.1	12.7	6.79e-05	0	60	0	125829120	52	4876
2026-01-14 10:58:37.47	209.11	19.81	-40.4	-42.9	12.9	5.34e-05	0	60	0	135266304	52	4782
2026-01-14 10:58:40.50	209.57	20.13	-40.3	-42.8	12.9	5.03e-05	0	61	0	144703488	52	4756
2026-01-14 10:58:43.53	210.04	20.45	-40.3	-42.8	12.9	4.19e-05	0	61	0	154140672	52	4743
2026-01-14 10:58:46.55	210.52	20.77	-40.2	-42.7	13.1	2.36e-05	0	60	0	163577856	52	4669
2026-01-14 10:58:49.59	211.01	21.10	-40.1	-42.5	13.3	2.21e-05	0	61	0	174063616	52	4598
2026-01-14 10:58:52.61	211.50	21.42	-40.1	-42.5	13.3	1.90e-05	0	60	0	183500800	52	4565
2026-01-14 10:58:55.64	212.01	21.75	-40.0	-42.4	13.4	1.60e-05	0	61	0	192937984	52	4524
2026-01-14 10:58:58.67	212.53	22.08	-39.9	-42.2	13.7	4.50e-06	0	60	0	202375168	51	4692
2026-01-14 10:59:01.70	213.06	22.41	-39.9	-42.1	13.8	6.10e-06	0	60	0	211812352	51	4633
2026-01-14 10:59:04.73	213.60	22.75	-39.8	-42.0	13.9	6.80e-06	0	61	0	221249536	51	4583
2026-01-14 10:59:07.75	214.15	23.08	-39.7	-41.8	14.1	7.00e-07	0	60	0	230686720	51	4479
2026-01-14 10:59:10.78	214.71	23.42	-39.7	-41.9	14.1	3.80e-06	0	61	0	240123904	51	4496
2026-01-14 10:59:13.82	215.29	23.76	-39.8	-42.0	14.0	3.80e-06	0	60	0	249561088	51	4565
2026-01-14 10:59:16.84	215.88	24.10	-39.8	-41.9	14.1	3.00e-06	0	61	0	258998272	51	4531
2026-01-14 10:59:19.87	216.48	24.44	-39.8	-41.9	14.0	2.20e-06	0	61	0	268435456	51	4536
2026-01-14 10:59:22.90	217.09	24.78	-39.9	-42.1	13.8	3.00e-06	0	60	0	277872640	51	4637
2026-01-14 10:59:25.93	217.72	25.13	-40.0	-42.2	13.7	3.80e-06	0	60	0	287309824	51	4697
2026-01-14 10:59:28.96	218.36	25.47	-39.9	-42.1	13.9	3.00e-06	0	61	0	296747008	51	4603
2026-01-14 10:59:31.99	219.01	25.82	-39.9	-42.1	13.9	5.30e-06	0	61	0	306184192	51	4602
2026-01-14 10:59:35.02	219.68	26.16	-40.0	-42.2	13.7	4.50e-06	0	60	0	315621376	51	4684
2026-01-14 10:59:38.05	220.36	26.51	-40.2	-42.5	13.5	1.14e-05	0	61	0	325058560	51	4865
2026-01-14 10:59:41.08	221.06	26.85	-40.4	-42.8	13.1	1.90e-05	0	61	0	334495744	51	5013
2026-01-14 10:59:44.11	221.77	27.20	-40.5	-42.9	13.0	3.96e-05	0	61	0	343932928	51	5086
2026-01-14 10:59:47.14	222.50	27.55	-40.4	-42.9	13.0	3.96e-05	0	61	0	353370112	51	5062
2026-01-14 10:59:50.17	223.24	27.89	-40.4	-42.8	13.2	2.21e-05	0	61	0	362807296	51	4999
2026-01-14 10:59:53.20	224.00	28.24	-40.4	-42.8	13.1	2.82e-05	0	61	0	372244480	51	5006
2026-01-14 10:59:56.22	224.77	28.58	-40.1	-42.4	13.5	1.44e-05	0	61	0	381681664	51	4804
2026-01-14 10:59:59.25	225.57	28.92	-40.0	-42.3	13.7	1.22e-05	0	61	0	391118848	51	4711
2026-01-14 11:00:02.28	226.37	29.26	-40.1	-42.5	13.5	9.10e-06	0	61	0	400556032	51	4824
2026-01-14 11:00:05.31	227.20	29.60	-40.1	-42.4	13.6	8.30e-06	0	61	0	409993216	51	4794
2026-01-14 11:00:08.33	228.04	29.93	-40.1	-42.4	13.6	8.30e-06	0	61	0	419430400	51	4794
2026-01-14 11:00:11.37	228.90	30.26	-40.1	-42.4	13.6	8.30e-06	0	61	0	428867584	51	4775
2026-01-14 11:00:14.39	229.77	30.59	-40.2	-42.6	13.4	1.22e-05	0	61	0	438304768	51	4871
2026-01-14 11:00:17.42	230.67	30.92	-40.3	-42.8	13.2	2.36e-05	0	61	0	447741952	51	4985
2026-01-14 11:00:20.45	231.58	31.24	-40.4	-42.8	13.1	2.21e-05	0	61	0	457179136	51	5021
2026-01-14 11:00:23.48	232.51	31.56	-40.4	-42.7	13.2	2.28e-05	0	61	0	466616320	51	4980
2026-01-14 11:00:26.51	233.45	31.87	-40.4	-42.8	13.2	2.36e-05	0	61	0	476053504	51	5009
2026-01-14 11:00:29.54	234.42	32.17	-40.7	-43.3	12.7	7.62e-05	0	61	0	485490688	51	5288
2026-01-14 11:00:32.57	235.40	32.47	-40.7	-43.4	12.5	1.02e-04	0	61	0	494927872	52	5063
2026-01-14 11:00:35.60	236.40	32.77	-40.7	-43.3	12.6	8.77e-05	0	61	0	504365056	52	5030
2026-01-14 11:00:38.63	237.42	33.05	-40.9	-43.7	12.3	2.04e-04	0	61	0	513802240	52	5223
2026-01-14 11:00:41.66	238.46	33.33	-41.1	-44.0	11.9	3.77e-04	0	61	0	524288000	52	5417
2026-01-14 11:00:44.69	239.51	33.61	-41.0	-43.8	12.1	2.33e-04	0	61	0	533725184	52	5315
2026-01-14 11:00:47.72	240.58	33.87	-41.2	-44.1	11.8	5.19e-04	0	61	0	543162368	53	5188
2026-01-14 11:00:50.75	241.67	34.12	-41.0	-43.7	12.1	2.59e-04	0	61	0	552599552	53	4974
2026-01-14 11:00:53.79	242.78	34.37	-40.9	-43.7	12.2	2.55e-04	0	61	0	562036736	53	4950
2026-01-14 11:00:56.81	243.89	34.60	-40.7	-43.3	12.6	1.05e-04	0	61	0	571473920	53	4724
2026-01-14 11:00:59.85	245.03	34.83	-41.0	-43.7	12.1	2.27e-04	0	61	0	580911104	53	4970
2026-01-14 11:01:02.87	246.18	35.04	-40.9	-43.7	12.2	2.08e-04	0	61	0	590348288	53	4933
2026-01-14 11:01:05.90	247.34	35.24	-40.9	-43.7	12.2	2.10e-04	0	61	0	599785472	53	4932
2026-01-14 11:01:08.93	248.52	35.43	-41.0	-43.8	12.0	3.43e-04	0	61	0	609222656	53	5039
2026-01-14 11:01:11.96	249.71	35.61	-40.8	-43.5	12.4	1.37e-04	0	61	0	618659840	53	4847
2026-01-14 11:01:14.99	250.92	35.77	-40.8	-43.6	12.3	1.65e-04	0	61	0	628097024	53	4884
2026-01-14 11:01:18.02	252.13	35.93	-40.9	-43.7	12.1	2.30e-04	0	61	0	637534208	53	4957
2026-01-14 11:01:21.04	253.35	36.06	-40.9	-43.7	12.2	3.04e-04	0	61	0	646971392	53	4970
2026-01-14 11:01:24.07	254.59	36.19	-40.8	-43.5	12.3	1.52e-04	0	61	0	656408576	53	4869
2026-01-14 11:01:27.11	255.84	36.30	-41.2	-44.2	11.7	6.61e-04	0	61	0	665845760	53	5238
2026-01-14 11:01:30.14	257.09	36.39	-41.1	-44.0	11.8	5.62e-04	0	61	0	675282944	53	5147
2026-01-14 11:01:33.17	258.35	36.47	-41.1	-44.1	11.7	5.49e-04	0	61	0	684720128	53	5190
2026-01-14 11:01:36.20	259.61	36.54	-41.2	-44.2	11.7	5.90e-04	0	61	0	694157312	53	5236
2026-01-14 11:01:39.23	260.88	36.58	-41.0	-43.8	12.1	2.72e-04	0	61	0	703594496	53	4990
2026-01-14 11:01:42.26	262.15	36.62	-41.2	-44.1	11.8	4.86e-04	0	61	0	713031680	53	5166
2026-01-14 11:01:45.28	263.42	36.64	-40.9	-43.7	12.1	2.68e-04	0	61	0	722468864	53	4972
2026-01-14 11:01:48.31	264.69	36.64	-40.9	-43.8	12.0	2.68e-04	0	61	0	731906048	53	5013
2026-01-14 11:01:51.34	265.97	36.63	-41.0	-43.9	12.0	3.68e-04	0	61	0	741343232	53	5048
2026-01-14 11:01:54.37	267.24	36.60	-40.8	-43.7	12.2	2.08e-04	0	61	0	750780416	53	4937
2026-01-14 11:01:57.40	268.51	36.55	-40.8	-43.9	11.9	3.23e-04	0	61	0	760217600	53	5054
2026-01-14 11:02:00.43	269.77	36.50	-40.8	-43.8	12.1	2.81e-04	0	61	0	769654784	53	4992
2026-01-14 11:02:03.46	271.03	36.42	-41.0	-44.1	11.8	5.71e-04	0	61	0	779091968	53	5176
2026-01-14 11:02:06.49	272.28	36.33	-41.1	-44.2	11.6	5.85e-04	0	61	0	788529152	53	5248
2026-01-14 11:02:09.51	273.53	36.23	-40.9	-44.0	11.9	4.64e-04	0	61	0	797966336	53	5120
2026-01-14 11:02:12.55	274.77	36.11	-41.0	-44.0	11.8	5.10e-04	0	61	0	807403520	53	5155
2026-01-14 11:02:15.58	275.99	35.98	-41.2	-44.2	11.6	7.52e-04	0	61	0	816840704	53	5271
2026-01-14 11:02:18.61	277.21	35.83	-41.4	-44.6	11.2	1.35e-03	0	61	0	826277888	53	5491
2026-01-14 11:02:21.64	278.42	35.67	-41.1	-44.1	11.8	5.83e-04	0	61	0	836763648	53	5199
2026-01-14 11:02:24.67	279.61	35.50	-40.9	-43.8	12.0	3.35e-04	0	61	0	845152256	53	5028
2026-01-14 11:02:27.70	280.79	35.31	-40.9	-43.9	11.9	4.12e-04	0	61	0	855638016	53	5061
2026-01-14 11:02:30.73	281.96	35.12	-41.0	-44.2	11.6	6.34e-04	0	61	0	865075200	53	5237
2026-01-14 11:02:33.76	283.11	34.91	-40.8	-44.0	11.8	4.81e-04	0	61	0	874512384	53	5155
2026-01-14 11:02:36.79	284.25	34.69	-40.7	-43.9	11.9	3.58e-04	0	61	0	883949568	53	5063
2026-01-14 11:02:39.82	285.37	34.46	-40.5	-43.8	12.0	2.98e-04	0	61	0	893386752	52	5311
2026-01-14 11:02:42.85	286.48	34.22	-40.5	-43.6	12.2	2.47e-04	0	61	0	902823936	52	5166
2026-01-14 11:02:45.88	287.57	33.97	-40.1	-43.2	12.5	1.02e-04	0	61	0	912261120	52	4976
2026-01-14 11:02:48.91	288.64	33.71	-40.5	-43.9	11.8	5.05e-04	0	61	0	921698304	52	5386
2026-01-14 11:02:51.94	289.70	33.44	-40.2	-43.5	12.1	2.49e-04	0	61	0	931135488	52	5140
2026-01-14 11:02:54.97	290.74	33.17	-40.2	-43.2	12.5	1.27e-04	0	61	0	940572672	52	4978
2026-01-14 11:02:58.00	291.76	32.88	-40.5	-43.7	12.1	2.50e-04	0	61	0	950009856	52	5222
2026-01-14 11:03:01.03	292.76	32.59	-40.1	-43.0	12.8	6.94e-05	0	61	0	959447040	52	4847
2026-01-14 11:03:04.05	293.74	32.30	-39.9	-42.8	13.1	4.19e-05	0	61	0	968884224	51	5011
2026-01-14 11:03:07.08	294.71	32.00	-40.2	-43.1	12.7	6.25e-05	0	61	0	978321408	51	5218
2026-01-14 11:03:10.12	295.67	31.69	-40.1	-43.0	12.8	6.71e-05	0	61	0	987758592	51	5150
2026-01-14 11:03:13.15	296.60	31.38	-40.0	-42.9	13.0	4.95e-05	0	61	0	997195776	51	5043
2026-01-14 11:03:16.18	297.51	31.06	-39.7	-42.4	13.4	1.06e-05	0	61	0	1006632960	51	4783
2026-01-14 11:03:19.20	298.41	30.74	-39.9	-42.8	13.0	2.51e-05	0	61	0	1016070144	51	5016
2026-01-14 11:03:22.23	299.29	30.41	-40.0	-43.0	12.9	5.34e-05	0	61	0	1025507328	51	5104
2026-01-14 11:03:25.26	300.15	30.08	-39.9	-42.7	13.2	2.82e-05	0	61	0	1034944512	51	4940
2026-01-14 11:03:28.29	300.99	29.75	-39.9	-42.7	13.1	2.36e-05	0	61	0	1044381696	51	4974
2026-01-14 11:03:31.32	301.82	29.42	-40.0	-42.9	12.9	4.88e-05	0	61	0	1053818880	51	5082
2026-01-14 11:03:34.35	302.63	29.08	-39.8	-42.4	13.3	2.36e-05	0	61	0	1063256064	51	4810
2026-01-14 11:03:37.38	303.43	28.74	-39.6	-42.1	13.7	9.90e-06	0	61	0	1072693248	51	4611
2026-01-14 11:03:40.41	304.20	28.40	-39.5	-42.0	13.8	1.50e-06	0	61	0	1082130432	50	4823
2026-01-14 11:03:43.44	304.97	28.06	-39.4	-41.8	14.0	3.00e-06	0	61	0	1091567616	50	4748
2026-01-14 11:03:46.47	305.71	27.72	-39.8	-42.3	13.4	1.22e-05	0	61	0	1101004800	50	5037
2026-01-14 11:03:49.50	306.44	27.38	-39.9	-42.4	13.4	1.29e-05	0	61	0	1110441984	50	5081
2026-01-14 11:03:52.53	307.16	27.03	-39.9	-42.4	13.4	9.90e-06	0	61	0	1119879168	50	5075
2026-01-14 11:03:55.56	307.86	26.69	-40.0	-42.5	13.2	2.74e-05	0	61	0	1129316352	50	5153
2026-01-14 11:03:58.59	308.54	26.34	-39.9	-42.4	13.4	1.29e-05	0	61	0	1138753536	50	5073
2026-01-14 11:04:01.62	309.21	26.00	-39.8	-42.3	13.5	1.60e-05	0	61	0	1148190720	50	4992
2026-01-14 11:04:04.65	309.87	25.66	-39.9	-42.3	13.5	9.90e-06	0	61	0	1158676480	50	4997
2026-01-14 11:04:07.67	310.51	25.32	-39.9	-42.3	13.5	1.37e-05	0	61	0	1167065088	50	4995
2026-01-14 11:04:10.70	311.14	24.98	-40.0	-42.3	13.5	1.52e-05	0	61	0	1177550848	50	5028
2026-01-14 11:04:13.73	311.76	24.64	-40.0	-42.4	13.4	1.37e-05	0	61	0	1185939456	50	5056
2026-01-14 11:04:16.76	312.36	24.30	-40.0	-42.3	13.5	1.22e-05	0	61	0	1196425216	50	5014
2026-01-14 11:04:19.79	312.95	23.96	-39.9	-42.2	13.6	1.22e-05	0	61	0	1205862400	50	4943
2026-01-14 11:04:22.82	313.53	23.62	-40.0	-42.3	13.5	9.90e-06	0	61	0	1215299584	50	4989
2026-01-14 11:04:25.85	314.10	23.29	-39.9	-42.2	13.6	9.90e-06	0	61	0	1224736768	50	4956
2026-01-14 11:04:28.88	314.66	22.95	-40.1	-42.5	13.2	1.90e-05	0	61	0	1234173952	50	5145
2026-01-14 11:04:31.91	315.20	22.62	-40.1	-42.5	13.2	1.90e-05	0	61	0	1243611136	51	4823
2026-01-14 11:04:34.94	315.73	22.29	-40.3	-42.7	12.9	3.43e-05	0	61	0	1253048320	51	4983
2026-01-14 11:04:37.97	316.25	21.96	-40.2	-42.7	13.0	3.73e-05	0	61	0	1262485504	51	4947
2026-01-14 11:04:41.00	316.76	21.64	-40.2	-42.6	13.1	3.73e-05	0	61	0	1271922688	51	4923
2026-01-14 11:04:44.03	317.27	21.31	-40.3	-42.8	12.9	6.71e-05	0	61	0	1281359872	51	5020
2026-01-14 11:04:47.05	317.75	20.99	-40.4	-42.9	12.8	8.16e-05	0	61	0	1290797056	51	5084
2026-01-14 11:04:50.09	318.24	20.67	-40.2	-42.7	13.0	3.58e-05	0	61	0	1300234240	51	4947
2026-01-14 11:04:53.12	318.71	20.35	-40.1	-42.5	13.2	3.50e-05	0	61	0	1309671424	51	4849
2026-01-14 11:04:56.15	319.17	20.03	-40.0	-42.4	13.2	1.98e-05	0	61	0	1319108608	51	4802
2026-01-14 11:04:59.18	319.62	19.72	-40.2	-42.7	12.9	4.80e-05	0	61	0	1328545792	51	4932
2026-01-14 11:05:02.20	320.06	19.41	-40.0	-42.4	13.2	2.89e-05	0	61	0	1337982976	51	4799
2026-01-14 11:05:05.23	320.50	19.10	-40.0	-42.3	13.2	1.90e-05	0	61	0	1347420160	51	4759
2026-01-14 11:05:08.26	320.93	18.79	-40.0	-42.4	13.1	3.20e-05	0	61	0	1356857344	51	4796
2026-01-14 11:05:11.29	321.35	18.49	-40.3	-42.8	12.8	5.56e-05	0	61	0	1366294528	51	4988
2026-01-14 11:05:14.32	321.76	18.19	-40.2	-42.7	12.8	4.42e-05	0	61	0	1375731712	51	4954
2026-01-14 11:05:17.35	322.16	17.89	-40.2	-42.6	12.9	4.34e-05	0	61	0	1385168896	51	4926
2026-01-14 11:05:20.38	322.55	17.59	-40.3	-42.8	12.7	6.33e-05	0	61	0	1394606080	51	5004
2026-01-14 11:05:23.42	322.94	17.30	-40.2	-42.7	12.8	5.03e-05	0	61	0	1404043264	51	4955
2026-01-14 11:05:26.45	323.32	17.00	-40.2	-42.7	12.8	7.01e-05	0	61	0	1413480448	51	4953
2026-01-14 11:05:29.48	323.70	16.71	-40.3	-42.8	12.7	9.53e-05	0	61	0	1422917632	51	5019
2026-01-14 11:05:32.51	324.06	16.42	-40.5	-43.2	12.3	1.75e-04	0	61	0	1432354816	51	5237
2026-01-14 11:05:35.54	324.42	16.14	-40.6	-43.4	12.0	3.11e-04	0	61	0	1441792000	51	5372
2026-01-14 11:05:38.57	324.78	15.85	-40.6	-43.4	12.0	3.17e-04	0	61	0	1451229184	52	5067
2026-01-14 11:05:41.60	325.12	15.57	-40.8	-43.6	11.6	5.78e-04	0	61	0	1460666368	52	5217
2026-01-14 11:05:44.63	325.46	15.29	-40.8	-43.8	11.5	8.31e-04	0	61	0	1470103552	52	5305
2026-01-14 11:05:47.66	325.80	15.02	-40.7	-43.7	11.6	6.89e-04	0	61	0	1479540736	52	5245
2026-01-14 11:05:50.69	326.13	14.74	-40.8	-43.7	11.6	7.57e-04	0	61	0	1490026496	52	5261
2026-01-14 11:05:53.72	326.45	14.47	-40.7	-43.6	11.6	6.70e-04	0	61	0	1498415104	52	5217
2026-01-14 11:05:56.75	326.77	14.20	-40.6	-43.5	11.8	5.55e-04	0	61	0	1508900864	52	5124
2026-01-14 11:05:59.78	327.08	13.93	-40.6	-43.5	11.7	5.60e-04	0	61	0	1518338048	52	5134
2026-01-14 11:06:02.81	327.39	13.67	-40.7	-43.6	11.6	6.83e-04	0	61	0	1527775232	52	5203
2026-01-14 11:06:05.84	327.69	13.41	-40.7	-43.7	11.6	8.90e-04	0	61	0	1537212416	52	5225
2026-01-14 11:06:08.87	327.99	13.15	-40.8	-43.9	11.3	1.20e-03	0	61	0	1546649600	52	5344
2026-01-14 11:06:11.90	328.28	12.89	-40.8	-43.9	11.3	1.10e-03	0	61	0	1556086784	52	5358
2026-01-14 11:06:14.93	328.56	12.63	-40.8	-43.9	11.2	1.34e-03	0	61	0	1565523968	52	5352
2026-01-14 11:06:17.97	328.85	12.37	-40.8	-43.9	11.2	1.65e-03	0	61	0	1574961152	52	5356
2026-01-14 11:06:21.00	329.13	12.12	-40.8	-43.9	11.2	1.63e-03	0	61	0	1584398336	52	5342
2026-01-14 11:06:24.03	329.40	11.87	-40.6	-43.7	11.4	9.54e-04	0	61	0	1593835520	52	5222
2026-01-14 11:06:27.05	329.67	11.62	-40.7	-43.8	11.2	1.34e-03	0	61	0	1603272704	52	5293
2026-01-14 11:06:30.09	329.93	11.38	-40.6	-43.7	11.3	1.34e-03	0	61	0	1612709888	52	5267
2026-01-14 11:06:33.12	330.19	11.13	-40.5	-43.5	11.5	9.37e-04	0	61	0	1622147072	52	5105
2026-01-14 11:06:36.15	330.45	10.89	-40.5	-43.5	11.5	8.33e-04	0	61	0	1631584256	52	5119
2026-01-14 11:06:39.18	330.70	10.65	-40.5	-43.5	11.5	8.99e-04	0	61	0	1641021440	52	5108
2026-01-14 11:06:42.21	330.95	10.41	-40.7	-43.8	11.1	1.59e-03	0	61	0	1650458624	52	5323
2026-01-14 11:06:45.24	331.19	10.17	-40.8	-44.1	10.6	4.01e-03	0	61	0	1659895808	52	5528
2026-01-14 11:06:48.27	331.43	9.94	-40.8	-44.2	10.6	3.98e-03	0	61	0	1669332992	52	5536
2026-01-14 11:06:51.30	331.67	9.70	-40.9	-44.4	10.3	5.04e-03	0	61	0	1678770176	52	5675
2026-01-14 11:06:54.33	331.91	9.47	-40.9	-44.6	10.1	6.48e-03	0	61	0	1688207360	52	5807
2026-01-14 11:06:57.36	332.14	9.24	-40.8	-44.4	10.2	5.99e-03	0	61	0	1697644544	52	5681
2026-01-14 11:07:00.39	332.36	9.01	-41.1	-44.9	9.6	1.21e-02	0	61	0	1707081728	52	6057
2026-01-14 11:07:03.42	332.59	8.79	-40.7	-44.4	10.2	6.17e-03	0	61	0	1716518912	52	5660
2026-01-14 11:07:06.45	332.81	8.56	-40.8	-44.4	10.0	6.76e-03	0	61	0	1725956096	52	5698
2026-01-14 11:07:09.48	333.02	8.34	-40.8	-44.6	9.8	9.48e-03	0	61	0	1735393280	52	5818
2026-01-14 11:07:12.51	333.24	8.12	-40.8	-44.6	9.7	1.18e-02	0	61	0	1744830464	52	5815
2026-01-14 11:07:15.55	333.45	7.90	-44.4	-56.0	3.8	1.49e+00	0	61	104	1752170496	59	14526
2026-01-14 11:07:18.58	333.66	7.68	-45.0	-57.3	3.8	1.49e+00	0	61	104	1752170496	60	15876
2026-01-14 11:07:21.61	333.86	7.46	-45.3	-57.5	3.8	1.49e+00	0	61	104	1752170496	61	15378
2026-01-14 11:07:24.63	334.07	7.25	-45.2	-57.5	3.8	1.49e+00	0	61	104	1752170496	61	15347
2026-01-14 11:07:27.66	334.27	7.04	-45.3	-57.5	3.8	1.49e+00	0	61	104	1752170496	61	15348
2026-01-14 11:07:30.69	334.46	6.82	-45.2	-57.5	3.8	1.49e+00	0	61	104	1752170496	61	15277
2026-01-14 11:07:33.72	334.66	6.61	-45.2	-57.5	3.8	1.49e+00	0	61	104	1752170496	61	15281
2026-01-14 11:07:36.75	334.85	6.40	-45.2	-57.4	3.8	1.49e+00	0	61	104	1752170496	61	15225
2026-01-14 11:07:39.78	335.04	6.20	-45.2	-57.5	3.8	1.49e+00	0	61	104	1752170496	61	15257
2026-01-14 11:07:42.80	335.23	5.99	-45.2	-57.5	3.8	1.49e+00	0	61	104	1752170496	60	16143
2026-01-14 11:07:45.83	335.41	5.79	-45.2	-57.5	3.8	1.49e+00	0	61	104	1752170496	60	16139
2026-01-14 11:07:48.86	335.59	5.58	-45.2	-57.4	3.8	1.49e+00	0	61	104	1752170496	60	16079
2026-01-14 11:07:51.89	335.77	5.38	-45.1	-57.4	3.8	1.49e+00	0	61	104	1752170496	60	16118
2026-01-14 11:07:54.92	335.95	5.18	-45.2	-57.4	3.8	1.49e+00	0	61	104	1752170496	60	16024
2026-01-14 11:07:57.95	336.12	4.98	-45.2	-57.4	3.8	1.49e+00	0	61	104	1752170496	60	16031
2026-01-14 11:08:00.98	336.30	4.78	-45.2	-57.4	3.8	1.49e+00	0	61	104	1752170496	60	16100
2026-01-14 11:08:04.01	336.47	4.59	-45.2	-57.4	3.8	1.49e+00	0	61	104	1752170496	60	16056
2026-01-14 11:08:07.04	336.64	4.39	-45.2	-57.4	3.8	1.49e+00	0	61	104	1752170496	60	16082
2026-01-14 11:08:10.07	336.80	4.20	-45.2	-57.4	3.8	1.49e+00	0	61	104	1752170496	60	16083
2026-01-14 11:08:13.09	336.97	4.00	-45.2	-57.4	3.8	1.49e+00	0	61	104	1752170496	60	16014
2026-01-14 11:08:16.12	337.13	3.81	-45.1	-57.4	3.8	1.49e+00	0	61	104	1752170496	60	16104
2026-01-14 11:08:19.14	337.29	3.62	-45.2	-57.4	3.8	1.49e+00	0	61	104	1752170496	60	16092
2026-01-14 11:08:22.18	337.45	3.43	-45.2	-57.4	3.8	1.49e+00	0	61	104	1752170496	60	16017
2026-01-14 11:08:25.20	337.61	3.24	-45.1	-57.4	3.8	1.49e+00	0	61	104	1752170496	60	16070
2026-01-14 11:08:28.24	337.76	3.06	-45.1	-57.4	3.8	1.49e+00	0	61	104	1752170496	60	16105
2026-01-14 11:08:31.27	337.92	2.87	-45.1	-57.4	3.8	1.49e+00	0	61	104	1752170496	60	16009
2026-01-14 11:08:34.30	338.07	2.68	-45.1	-57.4	3.8	1.49e+00	0	61	104	1752170496	60	16055
2026-01-14 11:08:37.33	338.22	2.50	-45.1	-57.4	3.8	1.49e+00	0	61	104	1752170496	60	16029
2026-01-14 11:08:40.36	338.37	2.32	-45.1	-57.4	3.8	1.49e+00	0	61	104	1752170496	60	15997
2026-01-14 11:08:43.39	338.52	2.13	-45.1	-57.4	3.8	1.49e+00	0	61	104	1752170496	60	16059
2026-01-14 11:08:46.42	338.66	1.95	-45.1	-57.4	3.8	1.49e+00	0	61	104	1752170496	60	16048

#Closed at: 2026-01-14 11:08:48
#Recorded file [1752 MB]: D:/lorett/data/31039_260114_135718.dat