passes_logs/2026/01/14/R2.0S_Moscow/R2.0S_Moscow__20260114_235501_NOAA_20_JPSS-1_rec.log

#Pass ID: 20260114_235501_NOAA 20 (JPSS-1)
#Satellite: NOAA 20 (JPSS-1)
#Configuration: NOAA 20
#almurnet v.1.7.20251203
#Start time: 2026-01-14 23:55:03

#Version: 2.2.20231116
#Station: R2.0S_Moscow
#Location: 37.707566 lon 55.798166 lat
#TLE: 1 43013U 17073A   26014.13176244  .00000049  00000+0  44136-4 0  9994
#TLE: 2 43013  98.7634 315.0803 0001538  40.6488 319.4803 14.19535812422619

#Time	Az	El	Level	Level2	SNR	BER	BlckErr	Temp	State	Recorded	gain1	gain2
2026-01-14 23:55:03.51	15.10	2.12	-43.0	-57.6	3.8	1.49e+00	0	50	0	0	58	18370
2026-01-14 23:55:07.55	15.08	2.38	-43.0	-57.5	3.8	1.49e+00	0	50	104	0	57	19355
2026-01-14 23:55:11.60	15.05	2.64	-43.0	-57.6	3.8	1.49e+00	0	50	104	0	57	19442
2026-01-14 23:55:15.64	15.02	2.90	-43.0	-57.6	3.8	1.49e+00	0	51	104	0	57	19403
2026-01-14 23:55:19.68	14.99	3.17	-43.0	-57.6	3.8	1.49e+00	0	51	104	0	57	19453
2026-01-14 23:55:23.72	14.95	3.44	-43.0	-57.5	3.8	1.49e+00	0	51	104	0	57	19375
2026-01-14 23:55:27.76	14.92	3.71	-43.0	-57.6	3.8	1.49e+00	0	51	104	0	57	19413
2026-01-14 23:55:31.81	14.89	3.99	-43.0	-57.6	3.8	1.49e+00	0	52	104	0	57	19431
2026-01-14 23:55:35.85	14.85	4.26	-43.0	-57.6	3.8	1.49e+00	0	52	104	0	57	19424
2026-01-14 23:55:39.88	14.82	4.54	-43.0	-57.5	3.8	1.49e+00	0	52	104	0	57	19366
2026-01-14 23:55:43.92	14.78	4.83	-43.0	-57.5	3.8	1.49e+00	0	52	104	0	57	19389
2026-01-14 23:55:47.96	14.74	5.11	-43.0	-57.5	3.8	1.49e+00	0	52	104	0	57	19355
2026-01-14 23:55:52.00	14.70	5.40	-43.0	-57.6	3.8	1.49e+00	0	53	104	0	57	19406
2026-01-14 23:55:56.05	14.66	5.70	-43.0	-57.5	3.8	1.49e+00	0	53	104	0	57	19215
2026-01-14 23:56:00.09	14.62	5.99	-43.0	-57.3	3.8	1.49e+00	0	53	104	0	57	18769
2026-01-14 23:56:04.13	14.58	6.29	-43.0	-57.5	3.8	1.49e+00	0	53	104	0	57	19381
2026-01-14 23:56:08.17	14.54	6.59	-43.0	-56.9	3.8	1.49e+00	0	53	104	0	57	18078
2026-01-14 23:56:12.21	14.49	6.90	-42.9	-55.6	3.8	1.49e+00	0	54	104	0	57	15433
2026-01-14 23:56:16.25	14.45	7.21	-42.5	-51.5	5.2	6.67e-01	0	54	0	2097152	57	9703
2026-01-14 23:56:20.28	14.40	7.52	-42.2	-49.7	6.6	1.87e-01	0	54	0	10485760	56	8343
2026-01-14 23:56:24.32	14.35	7.84	-42.1	-49.5	6.9	1.60e-01	0	54	0	17825792	56	8084
2026-01-14 23:56:28.35	14.30	8.16	-42.6	-51.3	5.5	3.64e-01	0	54	0	25165824	56	10041
2026-01-14 23:56:32.39	14.25	8.49	-42.7	-56.9	3.8	1.49e+00	0	54	104	29360128	56	19099
2026-01-14 23:56:36.42	14.19	8.82	-42.5	-49.5	7.1	1.52e-01	0	54	0	34603008	56	8128
2026-01-14 23:56:40.47	14.14	9.15	-42.5	-49.4	7.3	1.23e-01	0	54	0	42991616	56	8031
2026-01-14 23:56:44.50	14.08	9.49	-42.5	-49.0	7.7	8.81e-02	0	54	0	50331648	56	7682
2026-01-14 23:56:48.54	14.02	9.84	-42.5	-49.1	7.7	8.91e-02	0	55	0	57671680	56	7744
2026-01-14 23:56:52.58	13.96	10.18	-42.4	-48.7	8.0	6.94e-02	0	55	0	65011712	56	7457
2026-01-14 23:56:56.61	13.90	10.54	-42.5	-48.7	8.2	5.72e-02	0	55	0	72351744	56	7392
2026-01-14 23:57:00.65	13.84	10.90	-42.5	-48.6	8.3	5.26e-02	0	55	0	80740352	56	7301
2026-01-14 23:57:04.69	13.77	11.26	-42.5	-48.5	8.5	4.19e-02	0	55	0	88080384	56	7250
2026-01-14 23:57:08.71	13.70	11.63	-42.5	-48.4	8.6	3.95e-02	0	55	0	95420416	56	7150
2026-01-14 23:57:12.75	13.63	12.00	-42.4	-48.2	8.8	3.30e-02	0	55	0	102760448	56	7019
2026-01-14 23:57:16.78	13.56	12.38	-42.4	-48.1	9.0	2.52e-02	0	55	0	110100480	56	6945
2026-01-14 23:57:20.82	13.49	12.77	-42.4	-47.9	9.3	2.03e-02	0	55	0	118489088	56	6772
2026-01-14 23:57:24.86	13.41	13.16	-42.5	-47.9	9.4	1.59e-02	0	56	0	125829120	56	6755
2026-01-14 23:57:28.89	13.33	13.56	-42.4	-47.7	9.6	1.45e-02	0	56	0	133169152	56	6632
2026-01-14 23:57:32.94	13.25	13.96	-42.4	-47.7	9.7	1.14e-02	0	56	0	140509184	56	6589
2026-01-14 23:57:36.97	13.16	14.38	-42.4	-47.4	10.0	7.50e-03	0	56	0	148897792	56	6402
2026-01-14 23:57:41.01	13.07	14.80	-42.4	-47.5	10.0	8.20e-03	0	56	0	156237824	56	6450
2026-01-14 23:57:45.04	12.98	15.22	-42.4	-47.1	10.5	4.21e-03	0	56	0	163577856	56	6200
2026-01-14 23:57:49.07	12.89	15.66	-42.3	-47.0	10.6	3.38e-03	0	56	0	170917888	56	6111
2026-01-14 23:57:53.10	12.79	16.10	-42.3	-46.8	10.9	2.48e-03	0	56	0	178257920	56	5992
2026-01-14 23:57:57.14	12.69	16.55	-42.3	-46.7	11.1	1.68e-03	0	56	0	186646528	56	5890
2026-01-14 23:58:01.17	12.58	17.00	-42.3	-46.6	11.2	1.21e-03	0	56	0	193986560	56	5819
2026-01-14 23:58:05.21	12.47	17.47	-42.2	-46.5	11.3	1.13e-03	0	56	0	201326592	56	5787
2026-01-14 23:58:09.24	12.36	17.95	-42.2	-46.4	11.5	8.19e-04	0	56	0	208666624	56	5710
2026-01-14 23:58:13.27	12.25	18.43	-42.2	-46.4	11.6	6.88e-04	0	56	0	216006656	56	5672
2026-01-14 23:58:17.31	12.13	18.93	-42.2	-46.3	11.7	5.76e-04	0	56	0	224395264	56	5606
2026-01-14 23:58:21.34	12.00	19.43	-42.1	-46.1	11.9	4.06e-04	0	56	0	231735296	56	5520
2026-01-14 23:58:25.37	11.87	19.94	-42.1	-46.0	12.0	3.18e-04	0	57	0	239075328	56	5456
2026-01-14 23:58:29.41	11.74	20.47	-41.8	-45.6	12.3	2.25e-04	0	57	0	246415360	55	5513
2026-01-14 23:58:33.44	11.60	21.01	-41.8	-45.6	12.3	1.53e-04	0	57	0	254803968	55	5492
2026-01-14 23:58:37.47	11.45	21.55	-41.7	-45.4	12.5	1.22e-04	0	57	0	262144000	55	5388
2026-01-14 23:58:41.52	11.30	22.12	-41.7	-45.4	12.6	9.53e-05	0	57	0	269484032	55	5353
2026-01-14 23:58:45.56	11.14	22.69	-41.7	-45.3	12.7	8.54e-05	0	57	0	276824064	55	5317
2026-01-14 23:58:49.60	10.97	23.27	-41.6	-45.1	12.9	3.73e-05	0	57	0	284164096	55	5195
2026-01-14 23:58:53.63	10.80	23.87	-41.6	-45.1	12.9	5.79e-05	0	57	0	292552704	55	5211
2026-01-14 23:58:57.67	10.62	24.49	-41.6	-45.1	12.9	4.19e-05	0	57	0	299892736	55	5215
2026-01-14 23:59:01.71	10.44	25.11	-41.7	-45.3	12.7	6.40e-05	0	57	0	307232768	55	5334
2026-01-14 23:59:05.75	10.24	25.76	-41.9	-45.6	12.5	1.40e-04	0	57	0	314572800	55	5513
2026-01-14 23:59:09.78	10.04	26.41	-42.0	-45.9	12.2	2.62e-04	0	57	0	322961408	55	5668
2026-01-14 23:59:13.82	9.83	27.09	-42.3	-46.4	11.6	6.03e-04	0	57	0	330301440	55	6030
2026-01-14 23:59:17.85	9.60	27.77	-42.5	-46.7	11.4	9.49e-04	0	57	0	337641472	55	6254
2026-01-14 23:59:21.89	9.37	28.48	-42.7	-47.2	10.8	2.50e-03	0	57	0	344981504	55	6613
2026-01-14 23:59:25.92	9.12	29.21	-43.1	-47.9	10.3	5.21e-03	0	57	0	352321536	56	6783
2026-01-14 23:59:29.96	8.87	29.95	-43.1	-48.1	10.1	7.12e-03	0	57	0	360710144	56	6953
2026-01-14 23:59:33.99	8.60	30.71	-43.3	-48.5	9.7	1.04e-02	0	57	0	368050176	57	6812
2026-01-14 23:59:38.03	8.31	31.50	-43.4	-48.9	9.3	1.57e-02	0	57	0	375390208	57	7147
2026-01-14 23:59:42.07	8.01	32.30	-43.5	-49.1	9.1	2.46e-02	0	57	0	382730240	57	7346
2026-01-14 23:59:46.11	7.70	33.12	-43.7	-49.6	8.6	3.70e-02	0	57	0	391118848	58	7344
2026-01-14 23:59:50.14	7.37	33.97	-43.7	-49.5	8.7	3.13e-02	0	57	0	398458880	58	7266
2026-01-14 23:59:54.18	7.01	34.84	-43.4	-48.8	9.5	1.51e-02	0	57	0	405798912	58	6653
2026-01-14 23:59:58.21	6.64	35.73	-43.0	-47.7	10.6	3.86e-03	0	57	0	413138944	58	5884
2026-01-15 00:00:02.24	6.25	36.65	-42.9	-47.2	11.1	1.73e-03	0	57	0	420478976	57	5918
2026-01-15 00:00:06.27	5.83	37.59	-42.7	-47.0	11.4	1.04e-03	0	57	0	428867584	57	5753
2026-01-15 00:00:10.30	5.39	38.55	-43.0	-47.5	10.8	2.13e-03	0	57	0	436207616	57	6118
2026-01-15 00:00:14.33	4.92	39.54	-43.4	-48.5	9.7	1.02e-02	0	57	0	443547648	57	6871
2026-01-15 00:00:18.36	4.42	40.56	-43.3	-48.4	9.8	9.81e-03	0	57	0	450887680	57	6784
2026-01-15 00:00:22.40	3.88	41.61	-43.5	-48.8	9.4	1.76e-02	0	57	0	458227712	57	7116
2026-01-15 00:00:26.43	3.31	42.68	-43.5	-48.8	9.5	1.61e-02	0	57	0	466616320	57	7074
2026-01-15 00:00:30.46	2.69	43.78	-43.4	-48.5	9.9	8.86e-03	0	57	0	473956352	57	6819
2026-01-15 00:00:34.50	2.03	44.91	-43.4	-48.7	9.7	1.16e-02	0	57	0	481296384	57	6971
2026-01-15 00:00:38.54	1.32	46.07	-43.5	-48.8	9.6	1.17e-02	0	57	0	488636416	57	7046
2026-01-15 00:00:42.58	0.55	47.26	-43.7	-49.2	9.1	2.62e-02	0	58	0	495976448	58	7015
2026-01-15 00:00:46.62	359.72	48.48	-43.7	-49.3	9.0	2.20e-02	0	58	0	504365056	57	7468
2026-01-15 00:00:50.66	358.82	49.73	-43.4	-48.3	9.9	9.43e-03	0	58	0	511705088	57	6721
2026-01-15 00:00:54.69	357.84	50.99	-42.5	-46.4	12.1	4.26e-04	0	57	0	519045120	56	5685
2026-01-15 00:00:58.73	356.77	52.29	-41.9	-45.4	13.0	4.88e-05	0	58	0	526385152	55	5382
2026-01-15 00:01:02.76	355.60	53.61	-42.0	-45.5	12.7	3.58e-05	0	58	0	534773760	55	5451
2026-01-15 00:01:06.80	354.32	54.95	-42.2	-45.9	12.4	1.12e-04	0	58	0	542113792	55	5678
2026-01-15 00:01:10.84	352.91	56.31	-42.6	-46.8	11.5	5.92e-04	0	58	0	549453824	55	6300
2026-01-15 00:01:14.87	351.35	57.69	-43.4	-48.5	9.8	7.77e-03	0	58	0	556793856	57	6844
2026-01-15 00:01:18.90	349.63	59.07	-43.3	-48.1	10.3	7.60e-03	0	58	0	564133888	57	6503
2026-01-15 00:01:22.93	347.71	60.46	-42.7	-46.8	11.8	5.09e-04	0	58	0	572522496	56	5926
2026-01-15 00:01:26.97	345.56	61.85	-42.3	-45.9	12.6	1.22e-04	0	58	0	579862528	56	5382
2026-01-15 00:01:30.99	343.16	63.22	-42.2	-45.8	12.7	8.92e-05	0	58	0	587202560	56	5305
2026-01-15 00:01:35.03	340.46	64.58	-42.6	-46.5	11.9	3.36e-04	0	58	0	594542592	56	5772
2026-01-15 00:01:39.07	337.42	65.91	-43.5	-48.8	9.6	1.43e-02	0	58	0	601882624	57	7051
2026-01-15 00:01:43.10	334.00	67.18	-43.9	-49.9	8.3	3.82e-02	0	58	0	610271232	58	7547
2026-01-15 00:01:47.14	330.13	68.39	-43.8	-49.5	8.8	4.14e-02	0	58	0	617611264	58	7233
2026-01-15 00:01:51.17	325.79	69.51	-43.5	-48.7	9.5	1.01e-02	0	58	0	624951296	58	6617
2026-01-15 00:01:55.21	320.93	70.52	-42.8	-47.1	11.2	1.56e-03	0	58	0	632291328	57	5827
2026-01-15 00:01:59.24	315.55	71.40	-42.8	-47.1	11.2	1.14e-03	0	58	0	640679936	57	5840
2026-01-15 00:02:03.27	309.66	72.10	-42.7	-46.8	11.5	5.47e-04	0	58	0	648019968	56	5978
2026-01-15 00:02:07.31	303.31	72.62	-43.2	-48.0	10.2	4.50e-03	0	58	0	655360000	56	6867
2026-01-15 00:02:11.34	296.65	72.93	-43.2	-48.0	10.2	4.94e-03	0	58	0	662700032	57	6465
2026-01-15 00:02:15.37	289.83	73.01	-43.4	-48.6	9.5	1.46e-02	0	58	0	670040064	57	6956
2026-01-15 00:02:19.41	283.03	72.85	-42.8	-47.1	11.2	2.74e-03	0	58	0	678428672	57	5823
2026-01-15 00:02:23.44	276.46	72.48	-42.3	-46.0	12.2	1.88e-04	0	58	0	685768704	56	5463
2026-01-15 00:02:27.48	270.24	71.89	-42.2	-45.8	12.5	1.76e-04	0	58	0	693108736	56	5320
2026-01-15 00:02:31.51	264.51	71.13	-43.0	-47.5	10.8	2.81e-03	0	58	0	700448768	56	6428
2026-01-15 00:02:35.55	259.28	70.21	-43.5	-48.8	9.4	1.27e-02	0	58	0	707788800	57	7086
2026-01-15 00:02:39.58	254.59	69.16	-43.8	-49.7	8.5	3.92e-02	0	58	0	716177408	58	7372
2026-01-15 00:02:43.61	250.41	68.00	-44.1	-50.6	7.6	9.80e-02	0	58	0	723517440	58	8203
2026-01-15 00:02:47.65	246.69	66.77	-43.5	-48.7	9.6	2.33e-02	0	58	0	730857472	58	6579
2026-01-15 00:02:51.68	243.40	65.47	-42.7	-46.8	11.6	6.63e-04	0	58	0	738197504	57	5624
2026-01-15 00:02:55.71	240.47	64.13	-41.6	-44.8	13.4	1.52e-05	0	58	0	746586112	55	5013
2026-01-15 00:02:59.74	237.87	62.77	-41.4	-44.5	13.8	6.80e-06	0	58	0	753926144	54	5147
2026-01-15 00:03:03.78	235.55	61.38	-42.1	-45.8	12.5	5.34e-05	0	58	0	761266176	54	5954
2026-01-15 00:03:07.82	233.48	59.98	-42.5	-46.6	11.6	7.64e-04	0	58	0	768606208	55	6146
2026-01-15 00:03:11.86	231.62	58.59	-43.5	-48.6	9.6	1.55e-02	0	58	0	775946240	57	6943
2026-01-15 00:03:15.90	229.94	57.20	-43.8	-49.5	8.8	2.99e-02	0	58	0	784334848	58	7220
2026-01-15 00:03:19.94	228.43	55.82	-42.7	-46.9	11.5	1.22e-03	0	58	0	791674880	57	5686
2026-01-15 00:03:23.98	227.06	54.46	-42.2	-45.9	12.5	9.46e-05	0	58	0	799014912	56	5352
2026-01-15 00:03:28.01	225.82	53.13	-41.8	-45.2	13.1	2.51e-05	0	58	0	806354944	55	5244
2026-01-15 00:03:32.05	224.68	51.81	-42.1	-45.7	12.6	1.17e-04	0	58	0	813694976	55	5561
2026-01-15 00:03:36.08	223.64	50.52	-42.9	-47.3	11.1	1.07e-03	0	58	0	822083584	56	6315
2026-01-15 00:03:40.11	222.69	49.26	-43.4	-48.4	9.9	9.09e-03	0	58	0	829423616	57	6761
2026-01-15 00:03:44.14	221.81	48.02	-43.5	-48.8	9.5	1.53e-02	0	58	0	836763648	57	7073
2026-01-15 00:03:48.17	221.00	46.81	-43.5	-48.8	9.5	1.91e-02	0	58	0	844103680	57	7056
2026-01-15 00:03:52.21	220.25	45.63	-43.3	-48.2	10.1	8.83e-03	0	58	0	852492288	57	6645
2026-01-15 00:03:56.24	219.56	44.47	-43.5	-48.8	9.6	1.32e-02	0	58	0	859832320	57	7043
2026-01-15 00:04:00.27	218.91	43.35	-43.5	-48.7	9.6	1.52e-02	0	58	0	867172352	57	6979
2026-01-15 00:04:04.31	218.31	42.25	-43.5	-48.7	9.6	1.42e-02	0	58	0	874512384	57	7001
2026-01-15 00:04:08.35	217.74	41.18	-43.9	-49.9	8.4	4.35e-02	0	58	0	881852416	58	7568
2026-01-15 00:04:12.38	217.22	40.14	-43.8	-49.6	8.7	3.65e-02	0	58	0	890241024	58	7315
2026-01-15 00:04:16.41	216.72	39.13	-43.6	-49.2	9.1	2.24e-02	0	58	0	897581056	58	6988
2026-01-15 00:04:20.44	216.26	38.14	-43.5	-48.7	9.6	1.28e-02	0	58	0	904921088	58	6591
2026-01-15 00:04:24.48	215.82	37.18	-43.2	-47.9	10.5	4.99e-03	0	58	0	912261120	58	6023
2026-01-15 00:04:28.51	215.41	36.24	-43.4	-48.6	9.7	1.20e-02	0	58	0	919601152	58	6528
2026-01-15 00:04:32.55	215.02	35.33	-43.4	-48.4	9.8	9.18e-03	0	58	0	927989760	58	6399
2026-01-15 00:04:36.58	214.66	34.44	-43.6	-49.2	9.1	2.41e-02	0	58	0	935329792	58	6977
2026-01-15 00:04:40.62	214.31	33.58	-43.7	-49.5	8.7	2.89e-02	0	58	0	942669824	58	7262
2026-01-15 00:04:44.66	213.98	32.74	-44.1	-50.8	7.5	8.74e-02	0	58	0	950009856	58	8371
2026-01-15 00:04:48.70	213.67	31.92	-44.1	-51.0	7.3	1.25e-01	0	58	0	958398464	58	8574
2026-01-15 00:04:52.74	213.37	31.12	-44.1	-50.8	7.4	1.15e-01	0	58	0	965738496	58	8458
2026-01-15 00:04:56.78	213.09	30.34	-44.1	-51.0	7.3	1.23e-01	0	58	0	973078528	58	8568
2026-01-15 00:05:00.81	212.82	29.58	-44.1	-50.8	7.4	1.10e-01	0	58	0	980418560	58	8422
2026-01-15 00:05:04.84	212.57	28.84	-43.9	-50.3	7.9	7.49e-02	0	58	0	987758592	58	7920
2026-01-15 00:05:08.88	212.33	28.12	-43.8	-49.9	8.3	5.12e-02	0	58	0	996147200	58	7560
2026-01-15 00:05:12.92	212.09	27.42	-43.7	-49.4	8.7	3.42e-02	0	58	0	1003487232	58	7179
2026-01-15 00:05:16.96	211.87	26.73	-43.6	-49.3	8.9	2.88e-02	0	58	0	1010827264	58	7076
2026-01-15 00:05:20.99	211.66	26.06	-43.4	-48.8	9.3	1.86e-02	0	58	0	1018167296	58	6712
2026-01-15 00:05:25.02	211.46	25.41	-43.3	-48.6	9.6	1.28e-02	0	58	0	1026555904	58	6526
2026-01-15 00:05:29.06	211.26	24.77	-43.3	-48.6	9.5	1.38e-02	0	58	0	1033895936	58	6540
2026-01-15 00:05:33.09	211.07	24.14	-43.1	-48.1	10.0	7.68e-03	0	58	0	1041235968	58	6184
2026-01-15 00:05:37.12	210.90	23.54	-42.8	-47.3	10.8	2.74e-03	0	58	0	1048576000	57	5991
2026-01-15 00:05:41.16	210.72	22.94	-42.7	-47.0	11.1	1.61e-03	0	58	0	1055916032	57	5787
2026-01-15 00:05:45.20	210.56	22.36	-42.6	-46.9	11.3	1.18e-03	0	58	0	1064304640	57	5679
2026-01-15 00:05:49.24	210.40	21.79	-42.5	-46.7	11.5	8.57e-04	0	58	0	1071644672	57	5550
2026-01-15 00:05:53.28	210.25	21.23	-42.5	-46.8	11.4	9.54e-04	0	58	0	1078984704	57	5596
2026-01-15 00:05:57.31	210.10	20.68	-42.6	-46.9	11.3	1.16e-03	0	58	0	1086324736	57	5659
2026-01-15 00:06:01.34	209.96	20.15	-42.6	-47.0	11.1	1.47e-03	0	58	0	1093664768	57	5773
2026-01-15 00:06:05.37	209.82	19.63	-42.8	-47.3	10.8	2.35e-03	0	58	0	1102053376	57	5973
2026-01-15 00:06:09.41	209.69	19.11	-42.8	-47.4	10.6	2.96e-03	0	58	0	1109393408	57	6046
2026-01-15 00:06:13.45	209.57	18.61	-42.9	-47.8	10.2	5.28e-03	0	58	0	1116733440	57	6288
2026-01-15 00:06:17.49	209.44	18.12	-42.9	-47.8	10.2	6.21e-03	0	58	0	1124073472	57	6334
2026-01-15 00:06:21.53	209.32	17.63	-42.9	-47.8	10.3	5.26e-03	0	58	0	1132462080	57	6295
2026-01-15 00:06:25.57	209.21	17.16	-42.8	-47.6	10.4	5.18e-03	0	58	0	1139802112	57	6186
2026-01-15 00:06:29.61	209.10	16.69	-42.8	-47.6	10.4	4.33e-03	0	58	0	1147142144	57	6136
2026-01-15 00:06:33.65	208.99	16.24	-42.8	-47.5	10.4	3.80e-03	0	58	0	1154482176	57	6109
2026-01-15 00:06:37.68	208.89	15.79	-42.7	-47.5	10.4	4.33e-03	0	58	0	1161822208	57	6106
2026-01-15 00:06:41.72	208.79	15.35	-42.8	-47.8	10.1	5.79e-03	0	58	0	1170210816	57	6285
2026-01-15 00:06:45.75	208.69	14.92	-42.8	-47.8	10.1	7.04e-03	0	58	0	1177550848	57	6321
2026-01-15 00:06:49.78	208.60	14.49	-42.9	-48.2	9.7	1.11e-02	0	58	0	1184890880	57	6579
2026-01-15 00:06:53.82	208.51	14.07	-43.0	-48.3	9.4	1.44e-02	0	58	0	1192230912	57	6716
2026-01-15 00:06:57.84	208.42	13.66	-43.0	-48.4	9.3	1.77e-02	0	58	0	1199570944	57	6777
2026-01-15 00:07:01.88	208.34	13.26	-43.1	-48.6	9.1	1.83e-02	0	58	0	1207959552	57	6913
2026-01-15 00:07:05.92	208.25	12.86	-43.0	-48.5	9.3	1.97e-02	0	58	0	1215299584	57	6814
2026-01-15 00:07:09.96	208.17	12.47	-43.0	-48.5	9.2	1.85e-02	0	58	0	1222639616	57	6822
2026-01-15 00:07:14.00	208.10	12.09	-43.0	-48.4	9.3	1.96e-02	0	58	0	1229979648	57	6764
2026-01-15 00:07:18.04	208.02	11.71	-42.9	-48.4	9.3	1.79e-02	0	58	0	1238368256	57	6735
2026-01-15 00:07:22.08	207.95	11.33	-42.9	-48.4	9.2	2.00e-02	0	58	0	1245708288	57	6760
2026-01-15 00:07:26.12	207.88	10.96	-42.9	-48.5	9.1	2.07e-02	0	58	0	1253048320	57	6826
2026-01-15 00:07:30.16	207.81	10.60	-42.9	-48.5	9.0	2.39e-02	0	58	0	1260388352	57	6847
2026-01-15 00:07:34.19	207.74	10.24	-42.9	-48.5	9.0	2.77e-02	0	58	0	1267728384	57	6850
2026-01-15 00:07:38.23	207.67	9.89	-42.9	-48.7	8.8	3.26e-02	0	58	0	1276116992	57	6979
2026-01-15 00:07:42.27	207.61	9.54	-42.9	-48.7	8.7	3.35e-02	0	58	0	1283457024	57	7032
2026-01-15 00:07:46.30	207.55	9.20	-42.9	-48.8	8.6	3.72e-02	0	58	0	1290797056	57	7091
2026-01-15 00:07:50.34	207.49	8.86	-42.9	-48.9	8.5	3.87e-02	0	58	0	1298137088	57	7139
2026-01-15 00:07:54.37	207.43	8.53	-42.9	-49.0	8.3	5.09e-02	0	58	0	1306525696	57	7220
2026-01-15 00:07:58.41	207.37	8.20	-42.9	-49.1	8.1	5.80e-02	0	58	0	1313865728	57	7328
2026-01-15 00:08:02.44	207.32	7.88	-44.8	-59.4	3.8	1.49e+00	0	58	104	1318060032	60	20153
2026-01-15 00:08:06.48	207.26	7.56	-45.2	-59.8	3.8	1.49e+00	0	58	104	1318060032	61	19977
2026-01-15 00:08:10.52	207.21	7.24	-45.3	-59.8	3.8	1.49e+00	0	58	104	1318060032	61	19958
2026-01-15 00:08:14.56	207.16	6.93	-45.2	-59.7	3.8	1.49e+00	0	58	104	1318060032	61	19806
2026-01-15 00:08:18.61	207.11	6.62	-45.2	-59.7	3.8	1.49e+00	0	58	104	1318060032	61	19717
2026-01-15 00:08:22.65	207.06	6.31	-45.2	-59.7	3.8	1.49e+00	0	58	104	1318060032	61	19680
2026-01-15 00:08:26.69	207.01	6.01	-45.2	-59.7	3.8	1.49e+00	0	58	104	1318060032	61	19628
2026-01-15 00:08:30.73	206.96	5.71	-45.1	-59.6	3.8	1.49e+00	0	58	104	1318060032	61	19594
2026-01-15 00:08:34.77	206.92	5.41	-45.2	-59.6	3.8	1.49e+00	0	58	104	1318060032	61	19552
2026-01-15 00:08:38.80	206.87	5.12	-45.1	-59.6	3.8	1.49e+00	0	58	104	1318060032	61	19576
2026-01-15 00:08:42.85	206.83	4.83	-45.1	-59.6	3.8	1.49e+00	0	58	104	1318060032	61	19544
2026-01-15 00:08:46.89	206.79	4.55	-45.1	-59.6	3.8	1.49e+00	0	58	104	1318060032	61	19535
2026-01-15 00:08:50.93	206.75	4.26	-45.1	-59.6	3.8	1.49e+00	0	58	104	1318060032	61	19462
2026-01-15 00:08:54.97	206.71	3.98	-45.1	-59.6	3.8	1.49e+00	0	58	104	1318060032	61	19487
2026-01-15 00:08:59.02	206.67	3.71	-45.1	-59.6	3.8	1.49e+00	0	58	104	1318060032	61	19482
2026-01-15 00:09:03.06	206.63	3.43	-45.1	-59.6	3.8	1.49e+00	0	58	104	1318060032	61	19557
2026-01-15 00:09:07.10	206.59	3.16	-45.1	-59.6	3.8	1.49e+00	0	58	104	1318060032	61	19485
2026-01-15 00:09:11.14	206.56	2.89	-45.1	-59.6	3.8	1.49e+00	0	58	104	1318060032	61	19509
2026-01-15 00:09:15.18	206.52	2.62	-45.1	-59.6	3.8	1.49e+00	0	58	104	1318060032	61	19427
2026-01-15 00:09:19.22	206.48	2.36	-45.1	-59.6	3.8	1.49e+00	0	58	104	1318060032	61	19434
2026-01-15 00:09:23.25	206.45	2.10	-45.1	-59.6	3.8	1.49e+00	0	58	104	1318060032	61	19454
2026-01-15 00:09:27.29	206.42	1.84	-45.1	-59.6	3.8	1.49e+00	0	58	104	1318060032	61	19523

#Closed at: 2026-01-15 00:09:27
#Recorded file [1318 MB]: D:/lorett/data/31039_260115_025503.dat