passes_logs/2026/01/14/R2.0S_Moscow/R2.0S_Moscow__20260114_013343_SUOMI_NPP_rec.log

#Pass ID: 20260114_013343_SUOMI NPP
#Satellite: SUOMI NPP
#Configuration: NPP
#almurnet v.1.7.20251203
#Start time: 2026-01-14 01:33:44

#Version: 2.2.20231116
#Station: R2.0S_Moscow
#Location: 37.707566 lon 55.798166 lat
#TLE: 1 37849U 11061A   26013.27136842  .00000065  00000+0  51889-4 0  9990
#TLE: 2 37849  98.7808 315.3349 0002489  66.6776 293.4661 14.19524902736466

#Time	Az	El	Level	Level2	SNR	BER	BlckErr	Temp	State	Recorded	gain1	gain2
2026-01-14 01:33:44.99	9.79	2.07	-39.7	-54.7	3.8	1.49e+00	0	51	0	0	51	19642
2026-01-14 01:33:48.02	9.57	2.23	-39.7	-54.7	3.8	1.49e+00	0	52	104	0	50	20781
2026-01-14 01:33:51.05	9.36	2.40	-39.7	-54.7	3.8	1.49e+00	0	52	104	0	50	20809
2026-01-14 01:33:54.09	9.14	2.57	-39.7	-54.6	3.8	1.49e+00	0	52	104	0	50	20771
2026-01-14 01:33:57.12	8.92	2.74	-39.7	-54.6	3.8	1.49e+00	0	52	104	0	50	20758
2026-01-14 01:34:00.15	8.70	2.91	-39.7	-54.7	3.8	1.49e+00	0	53	104	0	50	20793
2026-01-14 01:34:03.18	8.47	3.08	-39.7	-54.6	3.8	1.49e+00	0	53	104	0	50	20710
2026-01-14 01:34:06.21	8.24	3.25	-39.7	-54.7	3.8	1.49e+00	0	53	104	0	50	20778
2026-01-14 01:34:09.25	8.01	3.42	-39.7	-54.6	3.8	1.49e+00	0	53	104	0	50	20769
2026-01-14 01:34:12.28	7.78	3.59	-39.7	-54.6	3.8	1.49e+00	0	53	104	0	50	20774
2026-01-14 01:34:15.31	7.54	3.76	-39.7	-54.6	3.8	1.49e+00	0	53	104	0	50	20772
2026-01-14 01:34:18.34	7.30	3.94	-39.7	-54.6	3.8	1.49e+00	0	54	104	0	50	20752
2026-01-14 01:34:21.38	7.06	4.11	-39.7	-54.6	3.8	1.49e+00	0	54	104	0	50	20760
2026-01-14 01:34:24.41	6.81	4.29	-39.7	-54.7	3.8	1.49e+00	0	54	104	0	50	20779
2026-01-14 01:34:27.44	6.56	4.46	-39.7	-54.6	3.8	1.49e+00	0	54	104	0	50	20752
2026-01-14 01:34:30.48	6.31	4.64	-39.7	-54.6	3.8	1.49e+00	0	54	104	0	50	20776
2026-01-14 01:34:33.51	6.05	4.81	-39.7	-54.7	3.8	1.49e+00	0	54	104	0	50	20795
2026-01-14 01:34:36.54	5.80	4.99	-39.7	-54.6	3.8	1.49e+00	0	54	104	0	50	20733
2026-01-14 01:34:39.58	5.53	5.17	-39.7	-54.6	3.8	1.49e+00	0	55	104	0	50	20702
2026-01-14 01:34:42.61	5.27	5.35	-39.7	-54.7	3.8	1.49e+00	0	55	104	0	50	20789
2026-01-14 01:34:45.64	5.00	5.52	-39.7	-54.6	3.8	1.49e+00	0	55	104	0	50	20768
2026-01-14 01:34:48.67	4.73	5.70	-39.7	-54.6	3.8	1.49e+00	0	55	104	0	50	20743
2026-01-14 01:34:51.70	4.45	5.88	-39.7	-54.6	3.8	1.49e+00	0	55	104	0	50	20742
2026-01-14 01:34:54.74	4.17	6.06	-39.7	-54.6	3.8	1.49e+00	0	56	104	0	50	20711
2026-01-14 01:34:57.77	3.89	6.25	-39.7	-54.6	3.8	1.49e+00	0	56	104	0	50	20716
2026-01-14 01:35:00.80	3.60	6.43	-39.7	-54.6	3.8	1.49e+00	0	56	104	0	50	20736
2026-01-14 01:35:03.83	3.31	6.61	-39.7	-54.6	3.8	1.49e+00	0	56	104	0	50	20724
2026-01-14 01:35:06.86	3.02	6.79	-39.7	-54.6	3.8	1.49e+00	0	56	104	0	50	20736
2026-01-14 01:35:09.90	2.72	6.98	-39.7	-54.6	3.8	1.49e+00	0	56	104	0	50	20759
2026-01-14 01:35:12.93	2.42	7.16	-39.7	-54.6	3.8	1.49e+00	0	56	104	0	50	20774
2026-01-14 01:35:15.97	2.11	7.34	-39.7	-54.6	3.8	1.49e+00	0	56	104	0	50	20725
2026-01-14 01:35:19.00	1.80	7.53	-39.7	-54.7	3.8	1.49e+00	0	56	104	0	50	20785
2026-01-14 01:35:22.03	1.49	7.72	-39.7	-54.7	3.8	1.49e+00	0	56	104	0	50	20789
2026-01-14 01:35:25.06	1.17	7.90	-39.7	-54.6	3.8	1.49e+00	0	57	104	0	50	20730
2026-01-14 01:35:28.10	0.85	8.09	-39.7	-54.7	3.8	1.49e+00	0	57	104	0	50	20852
2026-01-14 01:35:31.13	0.52	8.28	-39.7	-54.8	3.8	1.49e+00	0	57	104	0	50	21108
2026-01-14 01:35:34.16	0.19	8.46	-39.8	-54.7	3.8	1.49e+00	0	57	104	0	50	20840
2026-01-14 01:35:37.19	359.85	8.65	-39.7	-54.8	3.8	1.49e+00	0	57	104	0	50	21056
2026-01-14 01:35:40.22	359.51	8.84	-39.7	-54.7	3.8	1.49e+00	0	57	104	0	50	20924
2026-01-14 01:35:43.25	359.17	9.03	-39.4	-54.8	3.8	1.49e+00	0	57	104	0	50	21032
2026-01-14 01:35:46.28	358.82	9.22	-39.5	-54.6	3.8	1.49e+00	0	57	104	0	50	20737
2026-01-14 01:35:49.31	358.46	9.41	-39.7	-54.7	3.8	1.49e+00	0	57	104	0	50	20968
2026-01-14 01:35:52.35	358.10	9.60	-39.6	-54.7	3.8	1.49e+00	0	57	104	0	50	20803
2026-01-14 01:35:55.38	357.74	9.79	-39.7	-54.8	3.8	1.49e+00	0	57	104	0	50	21139
2026-01-14 01:35:58.41	357.37	9.98	-39.8	-54.8	3.8	1.49e+00	0	58	104	0	50	21049
2026-01-14 01:36:01.44	357.00	10.17	-39.9	-54.9	3.8	1.49e+00	0	58	104	0	50	21319
2026-01-14 01:36:04.47	356.62	10.36	-39.8	-54.8	3.8	1.49e+00	0	58	104	0	50	21231
2026-01-14 01:36:07.50	356.24	10.55	-40.0	-55.0	3.8	1.49e+00	0	58	104	0	51	20394
2026-01-14 01:36:10.54	355.85	10.75	-40.1	-54.9	3.8	1.49e+00	0	58	104	0	51	20206
2026-01-14 01:36:13.57	355.45	10.94	-40.0	-54.9	3.8	1.49e+00	0	58	104	0	51	20271
2026-01-14 01:36:16.60	355.05	11.13	-40.0	-55.1	3.8	1.49e+00	0	58	104	0	51	20658
2026-01-14 01:36:19.63	354.65	11.32	-40.4	-55.2	3.8	1.49e+00	0	58	104	0	51	20907
2026-01-14 01:36:22.66	354.24	11.52	-40.1	-55.1	3.8	1.49e+00	0	58	104	0	51	20675
2026-01-14 01:36:25.69	353.82	11.71	-40.5	-55.2	3.8	1.49e+00	0	58	104	0	51	20939
2026-01-14 01:36:28.72	353.40	11.90	-40.4	-55.2	3.8	1.49e+00	0	58	104	0	51	20820
2026-01-14 01:36:31.75	352.97	12.09	-40.2	-55.2	3.8	1.49e+00	0	58	104	0	51	20907
2026-01-14 01:36:34.78	352.54	12.28	-40.7	-55.3	3.8	1.49e+00	0	58	104	0	51	21233
2026-01-14 01:36:37.82	352.10	12.48	-40.6	-55.2	3.8	1.49e+00	0	58	104	0	52	19841
2026-01-14 01:36:40.84	351.66	12.67	-40.9	-55.5	3.8	1.49e+00	0	58	104	0	52	20464
2026-01-14 01:36:43.87	351.20	12.86	-40.7	-55.3	3.8	1.49e+00	0	58	104	0	52	20008
2026-01-14 01:36:46.90	350.75	13.05	-40.8	-55.5	3.8	1.49e+00	0	58	104	0	52	20534
2026-01-14 01:36:49.93	350.28	13.24	-40.9	-55.5	3.8	1.49e+00	0	58	104	0	52	20507
2026-01-14 01:36:52.96	349.82	13.43	-40.4	-55.4	3.8	1.49e+00	0	58	104	0	52	20274
2026-01-14 01:36:55.99	349.34	13.62	-40.9	-55.5	3.8	1.49e+00	0	59	104	0	52	20497
2026-01-14 01:36:59.02	348.86	13.81	-41.1	-55.9	3.8	1.49e+00	0	58	104	0	52	21328
2026-01-14 01:37:02.05	348.37	14.00	-41.1	-55.8	3.8	1.49e+00	0	59	104	0	53	19991
2026-01-14 01:37:05.08	347.88	14.19	-41.3	-56.1	3.8	1.49e+00	0	59	104	0	53	20683
2026-01-14 01:37:08.11	347.38	14.38	-41.1	-55.9	3.8	1.49e+00	0	59	104	0	53	20165
2026-01-14 01:37:11.14	346.87	14.57	-41.2	-55.8	3.8	1.49e+00	0	59	104	0	53	19985
2026-01-14 01:37:14.17	346.36	14.75	-41.3	-56.1	3.8	1.49e+00	0	59	104	0	53	20709
2026-01-14 01:37:17.20	345.84	14.94	-41.0	-55.6	3.8	1.49e+00	0	59	104	0	53	19569
2026-01-14 01:37:20.23	345.31	15.12	-41.0	-55.7	3.8	1.49e+00	0	59	104	0	53	19726
2026-01-14 01:37:23.26	344.77	15.31	-40.9	-55.5	3.8	1.49e+00	0	59	104	0	53	19236
2026-01-14 01:37:26.29	344.23	15.49	-40.4	-55.4	3.8	1.49e+00	0	59	104	0	52	20106
2026-01-14 01:37:29.32	343.69	15.67	-40.7	-55.4	3.8	1.49e+00	0	59	104	0	52	20263
2026-01-14 01:37:32.35	343.13	15.85	-40.8	-55.4	3.8	1.49e+00	0	59	104	0	52	20234
2026-01-14 01:37:35.38	342.57	16.03	-40.6	-55.3	3.8	1.49e+00	0	59	104	0	52	20008
2026-01-14 01:37:38.41	342.01	16.20	-40.7	-55.4	3.8	1.49e+00	0	59	104	0	52	20078
2026-01-14 01:37:41.44	341.43	16.38	-40.4	-55.4	3.8	1.49e+00	0	59	104	0	52	20234
2026-01-14 01:37:44.47	340.85	16.55	-40.5	-55.5	3.8	1.49e+00	0	59	104	0	52	20461
2026-01-14 01:37:47.50	340.26	16.72	-40.9	-55.6	3.8	1.49e+00	0	59	104	0	52	20674
2026-01-14 01:37:50.53	339.67	16.89	-42.2	-55.4	3.8	1.49e+00	0	59	104	0	54	18030
2026-01-14 01:37:53.56	339.07	17.06	-41.4	-49.6	6.1	5.81e-01	0	59	0	1048576	54	9198
2026-01-14 01:37:56.59	338.46	17.22	-41.1	-46.9	8.9	4.01e-02	0	59	0	6291456	54	6765
2026-01-14 01:37:59.62	337.84	17.39	-41.4	-47.0	9.2	1.56e-02	0	59	0	12582912	53	7269
2026-01-14 01:38:02.65	337.22	17.55	-41.1	-45.5	11.2	2.68e-03	0	59	0	17825792	53	6066
2026-01-14 01:38:05.68	336.59	17.71	-41.4	-45.8	11.2	1.40e-03	0	59	0	24117248	53	6347
2026-01-14 01:38:08.71	335.96	17.86	-41.8	-46.6	10.4	3.61e-03	0	59	0	29360128	54	6549
2026-01-14 01:38:11.73	335.32	18.01	-41.8	-46.5	10.7	3.10e-03	0	59	0	34603008	54	6461
2026-01-14 01:38:14.76	334.67	18.16	-41.6	-45.9	11.4	9.08e-04	0	59	0	40894464	54	6039
2026-01-14 01:38:17.79	334.02	18.31	-41.8	-46.2	11.1	1.43e-03	0	59	0	46137344	54	6268
2026-01-14 01:38:20.81	333.36	18.46	-41.6	-45.8	11.7	7.39e-04	0	59	0	52428800	54	5929
2026-01-14 01:38:23.84	332.69	18.60	-41.2	-44.9	12.7	1.49e-04	0	60	0	57671680	54	5357
2026-01-14 01:38:26.87	332.02	18.73	-41.3	-45.0	12.6	1.34e-04	0	60	0	62914560	54	5431
2026-01-14 01:38:29.90	331.34	18.87	-41.3	-44.9	12.7	6.33e-05	0	59	0	69206016	54	5361
2026-01-14 01:38:32.93	330.65	19.00	-41.3	-44.9	12.8	6.40e-05	0	60	0	74448896	54	5368
2026-01-14 01:38:35.96	329.96	19.13	-41.7	-45.6	12.0	2.75e-04	0	60	0	80740352	54	5855
2026-01-14 01:38:38.99	329.26	19.25	-41.7	-45.6	12.1	3.36e-04	0	60	0	85983232	54	5817
2026-01-14 01:38:42.02	328.56	19.37	-41.6	-45.4	12.3	2.08e-04	0	60	0	92274688	54	5681
2026-01-14 01:38:45.05	327.85	19.48	-41.7	-45.6	12.0	1.76e-04	0	60	0	97517568	54	5852
2026-01-14 01:38:48.07	327.14	19.60	-41.5	-45.3	12.4	1.72e-04	0	60	0	102760448	54	5621
2026-01-14 01:38:51.10	326.42	19.70	-41.1	-44.5	13.2	2.74e-05	0	60	0	109051904	54	5140
2026-01-14 01:38:54.13	325.69	19.81	-41.3	-44.9	12.9	3.96e-05	0	60	0	114294784	54	5347
2026-01-14 01:38:57.16	324.97	19.90	-41.4	-45.0	12.7	8.31e-05	0	60	0	120586240	54	5448
2026-01-14 01:39:00.19	324.23	20.00	-41.2	-44.6	13.1	2.44e-05	0	60	0	125829120	54	5201
2026-01-14 01:39:03.21	323.50	20.09	-41.6	-45.4	12.3	8.85e-05	0	60	0	131072000	54	5696
2026-01-14 01:39:06.24	322.75	20.17	-42.0	-46.3	11.5	5.72e-04	0	60	0	137363456	54	6297
2026-01-14 01:39:09.27	322.01	20.25	-42.0	-46.1	11.6	8.06e-04	0	60	0	142606336	54	6163
2026-01-14 01:39:12.30	321.26	20.33	-42.1	-46.4	11.3	9.93e-04	0	60	0	148897792	54	6402
2026-01-14 01:39:15.33	320.50	20.40	-42.4	-47.2	10.5	3.95e-03	0	60	0	154140672	55	6579
2026-01-14 01:39:18.36	319.74	20.46	-42.2	-46.6	11.1	2.17e-03	0	60	0	160432128	55	6134
2026-01-14 01:39:21.38	318.99	20.52	-41.8	-45.9	11.8	5.16e-04	0	60	0	165675008	55	5683
2026-01-14 01:39:24.41	318.22	20.58	-42.4	-47.2	10.4	3.02e-03	0	60	0	170917888	55	6602
2026-01-14 01:39:27.44	317.46	20.62	-42.5	-47.5	10.1	9.19e-03	0	60	0	177209344	55	6873
2026-01-14 01:39:30.47	316.69	20.67	-42.3	-46.9	10.8	2.53e-03	0	60	0	182452224	55	6394
2026-01-14 01:39:33.50	315.92	20.71	-42.3	-46.9	10.8	2.30e-03	0	60	0	188743680	55	6369
2026-01-14 01:39:36.53	315.15	20.74	-42.3	-47.0	10.6	3.10e-03	0	60	0	193986560	55	6440
2026-01-14 01:39:39.55	314.37	20.77	-42.2	-46.8	10.8	2.20e-03	0	60	0	199229440	55	6307
2026-01-14 01:39:42.58	313.60	20.79	-42.2	-46.9	10.7	2.53e-03	0	60	0	205520896	55	6368
2026-01-14 01:39:45.61	312.82	20.81	-42.4	-47.3	10.3	5.26e-03	0	60	0	210763776	55	6672
2026-01-14 01:39:48.64	312.04	20.82	-42.5	-47.6	10.0	8.65e-03	0	60	0	217055232	55	6888
2026-01-14 01:39:51.67	311.27	20.82	-42.4	-47.5	10.1	8.12e-03	0	60	0	222298112	55	6823
2026-01-14 01:39:54.69	310.49	20.82	-42.2	-46.9	10.6	3.38e-03	0	60	0	228589568	55	6411
2026-01-14 01:39:57.72	309.71	20.82	-41.7	-45.8	11.9	6.35e-04	0	60	0	233832448	55	5603
2026-01-14 01:40:00.75	308.94	20.81	-41.7	-45.8	11.8	3.71e-04	0	60	0	239075328	55	5640
2026-01-14 01:40:03.78	308.16	20.79	-42.0	-46.3	11.3	8.67e-04	0	60	0	245366784	55	5982
2026-01-14 01:40:06.81	307.38	20.77	-42.3	-47.1	10.6	3.36e-03	0	60	0	250609664	55	6508
2026-01-14 01:40:09.84	306.61	20.74	-42.3	-47.1	10.5	4.08e-03	0	60	0	256901120	55	6548
2026-01-14 01:40:12.87	305.84	20.71	-42.1	-46.7	11.0	2.57e-03	0	60	0	262144000	55	6207
2026-01-14 01:40:15.90	305.07	20.67	-41.9	-46.0	11.6	6.65e-04	0	60	0	267386880	55	5750
2026-01-14 01:40:18.92	304.30	20.63	-41.6	-45.3	12.3	3.00e-04	0	60	0	273678336	55	5339
2026-01-14 01:40:21.96	303.53	20.58	-41.5	-45.3	12.4	1.39e-04	0	60	0	278921216	55	5296
2026-01-14 01:40:24.99	302.76	20.52	-41.4	-44.9	12.8	7.47e-05	0	60	0	285212672	54	5390
2026-01-14 01:40:28.01	302.01	20.46	-41.5	-45.1	12.6	8.46e-05	0	60	0	290455552	54	5504
2026-01-14 01:40:31.04	301.25	20.40	-41.3	-44.8	12.9	3.81e-05	0	60	0	296747008	54	5291
2026-01-14 01:40:34.07	300.49	20.33	-41.4	-45.0	12.8	4.27e-05	0	60	0	301989888	54	5405
2026-01-14 01:40:37.10	299.74	20.25	-41.5	-45.1	12.6	8.54e-05	0	60	0	307232768	54	5505
2026-01-14 01:40:40.13	298.99	20.17	-41.7	-45.5	12.2	1.92e-04	0	60	0	313524224	54	5745
2026-01-14 01:40:43.16	298.25	20.09	-41.7	-45.6	12.1	2.77e-04	0	60	0	318767104	54	5807
2026-01-14 01:40:46.18	297.51	20.00	-41.6	-45.4	12.2	1.79e-04	0	60	0	325058560	54	5708
2026-01-14 01:40:49.22	296.77	19.90	-41.5	-45.2	12.5	1.39e-04	0	60	0	330301440	54	5566
2026-01-14 01:40:52.25	296.04	19.81	-41.7	-45.6	12.0	2.79e-04	0	60	0	335544320	54	5846
2026-01-14 01:40:55.28	295.32	19.70	-42.2	-46.7	10.8	2.10e-03	0	60	0	341835776	54	6641
2026-01-14 01:40:58.31	294.60	19.59	-42.2	-46.8	10.8	3.71e-03	0	60	0	347078656	55	6328
2026-01-14 01:41:01.34	293.88	19.48	-42.0	-46.4	11.2	1.33e-03	0	60	0	353370112	55	6001
2026-01-14 01:41:04.36	293.17	19.37	-42.2	-46.7	10.9	2.50e-03	0	60	0	358612992	55	6250
2026-01-14 01:41:07.39	292.47	19.25	-42.3	-47.0	10.6	3.97e-03	0	60	0	364904448	55	6461
2026-01-14 01:41:10.42	291.77	19.12	-42.4	-47.4	10.2	5.98e-03	0	60	0	370147328	55	6725
2026-01-14 01:41:13.45	291.07	19.00	-42.4	-47.2	10.4	6.02e-03	0	60	0	375390208	55	6588
2026-01-14 01:41:16.48	290.39	18.87	-42.1	-46.5	11.1	1.83e-03	0	60	0	381681664	55	6069
2026-01-14 01:41:19.51	289.70	18.73	-42.2	-46.7	10.9	1.80e-03	0	61	0	386924544	55	6230
2026-01-14 01:41:22.54	289.03	18.59	-42.1	-46.5	11.1	1.94e-03	0	60	0	393216000	55	6067
2026-01-14 01:41:25.57	288.36	18.45	-42.0	-46.2	11.3	1.21e-03	0	60	0	398458880	55	5916
2026-01-14 01:41:28.60	287.70	18.31	-41.6	-45.5	12.0	3.77e-04	0	60	0	403701760	55	5450
2026-01-14 01:41:31.63	287.04	18.16	-41.6	-45.5	12.0	2.39e-04	0	60	0	409993216	55	5451
2026-01-14 01:41:34.66	286.39	18.01	-41.7	-45.6	12.0	2.88e-04	0	60	0	415236096	55	5474
2026-01-14 01:41:37.68	285.75	17.86	-42.0	-46.3	11.2	8.23e-04	0	60	0	421527552	55	5962
2026-01-14 01:41:40.71	285.11	17.70	-42.6	-47.9	9.5	1.14e-02	0	60	0	426770432	55	7127
2026-01-14 01:41:43.74	284.48	17.54	-42.4	-47.3	10.1	8.29e-03	0	60	0	433061888	55	6709
2026-01-14 01:41:46.77	283.86	17.38	-42.5	-47.9	9.4	1.59e-02	0	60	0	438304768	55	7162
2026-01-14 01:41:49.80	283.24	17.22	-42.9	-48.7	8.8	2.65e-02	0	60	0	443547648	56	7422
2026-01-14 01:41:52.83	282.63	17.05	-42.8	-48.4	9.1	2.40e-02	0	60	0	449839104	56	7153
2026-01-14 01:41:55.85	282.03	16.89	-42.4	-47.2	10.3	6.17e-03	0	61	0	455081984	56	6242
2026-01-14 01:41:58.88	281.43	16.72	-42.2	-46.7	10.8	2.72e-03	0	60	0	461373440	56	5911
2026-01-14 01:42:01.91	280.84	16.54	-42.1	-46.6	10.9	1.79e-03	0	61	0	466616320	56	5846
2026-01-14 01:42:04.94	280.26	16.37	-42.3	-47.0	10.6	3.88e-03	0	60	0	471859200	56	6095
2026-01-14 01:42:07.97	279.68	16.19	-42.5	-47.6	10.0	1.08e-02	0	60	0	478150656	56	6504
2026-01-14 01:42:11.00	279.11	16.02	-42.1	-46.7	10.8	3.68e-03	0	60	0	483393536	56	5875
2026-01-14 01:42:14.03	278.55	15.84	-41.9	-46.4	11.0	1.73e-03	0	61	0	489684992	55	6002
2026-01-14 01:42:17.05	277.99	15.66	-42.3	-47.3	10.0	4.96e-03	0	60	0	494927872	55	6703
2026-01-14 01:42:20.08	277.44	15.48	-42.9	-48.9	8.5	3.47e-02	0	61	0	501219328	56	7547
2026-01-14 01:42:23.11	276.90	15.30	-42.9	-48.9	8.5	4.37e-02	0	61	0	506462208	56	7577
2026-01-14 01:42:26.14	276.36	15.11	-42.8	-48.6	9.0	2.41e-02	0	60	0	511705088	56	7314
2026-01-14 01:42:29.17	275.83	14.93	-42.6	-47.9	9.4	1.43e-02	0	60	0	517996544	56	6789
2026-01-14 01:42:32.19	275.31	14.74	-42.5	-47.9	9.5	1.20e-02	0	61	0	523239424	56	6731
2026-01-14 01:42:35.22	274.80	14.56	-42.5	-47.6	9.8	1.05e-02	0	61	0	529530880	56	6528
2026-01-14 01:42:38.25	274.29	14.37	-42.6	-48.0	9.4	1.54e-02	0	61	0	534773760	56	6858
2026-01-14 01:42:41.28	273.78	14.18	-42.8	-48.5	8.9	3.00e-02	0	61	0	540016640	56	7280
2026-01-14 01:42:44.31	273.28	13.99	-42.5	-47.8	9.6	1.39e-02	0	61	0	546308096	56	6652
2026-01-14 01:42:47.34	272.79	13.80	-42.2	-47.1	10.3	4.82e-03	0	60	0	551550976	56	6133
2026-01-14 01:42:50.37	272.31	13.61	-42.3	-47.1	10.2	5.73e-03	0	61	0	557842432	56	6197
2026-01-14 01:42:53.40	271.83	13.42	-42.4	-47.5	9.9	8.16e-03	0	61	0	563085312	56	6453
2026-01-14 01:42:56.43	271.36	13.23	-42.5	-47.6	9.7	1.17e-02	0	61	0	569376768	56	6559
2026-01-14 01:42:59.46	270.89	13.04	-42.3	-47.4	10.0	8.54e-03	0	61	0	574619648	56	6366
2026-01-14 01:43:02.49	270.43	12.84	-42.2	-46.8	10.6	4.53e-03	0	61	0	579862528	56	5943
2026-01-14 01:43:05.52	269.98	12.65	-42.1	-46.6	10.8	2.94e-03	0	61	0	586153984	56	5789
2026-01-14 01:43:08.55	269.53	12.46	-41.8	-46.0	11.2	1.60e-03	0	61	0	591396864	55	5736
2026-01-14 01:43:11.58	269.09	12.27	-41.4	-45.2	12.0	3.37e-04	0	61	0	597688320	54	5561
2026-01-14 01:43:14.61	268.66	12.07	-41.4	-45.2	12.0	2.68e-04	0	61	0	602931200	54	5549
2026-01-14 01:43:17.64	268.23	11.88	-41.8	-46.0	11.2	1.16e-03	0	61	0	608174080	54	6092
2026-01-14 01:43:20.67	267.80	11.69	-42.0	-46.6	10.6	2.97e-03	0	61	0	614465536	54	6498
2026-01-14 01:43:23.70	267.38	11.49	-42.0	-46.7	10.4	3.99e-03	0	61	0	619708416	54	6573
2026-01-14 01:43:26.73	266.97	11.30	-41.8	-46.1	11.0	2.32e-03	0	61	0	625999872	54	6177
2026-01-14 01:43:29.76	266.56	11.11	-41.6	-45.7	11.4	1.11e-03	0	61	0	631242752	54	5887
2026-01-14 01:43:32.79	266.16	10.92	-41.5	-45.7	11.4	1.15e-03	0	61	0	637534208	54	5873
2026-01-14 01:43:35.82	265.76	10.72	-41.6	-46.0	10.9	1.64e-03	0	61	0	642777088	54	6100
2026-01-14 01:43:38.84	265.37	10.53	-41.6	-46.0	10.9	2.01e-03	0	61	0	648019968	54	6064
2026-01-14 01:43:41.87	264.98	10.34	-41.8	-46.4	10.4	3.76e-03	0	61	0	654311424	54	6388
2026-01-14 01:43:44.90	264.60	10.15	-41.9	-46.9	9.8	9.64e-03	0	61	0	659554304	54	6798
2026-01-14 01:43:47.93	264.23	9.96	-42.0	-46.9	9.8	8.99e-03	0	61	0	665845760	54	6792
2026-01-14 01:43:50.96	263.86	9.76	-41.7	-46.4	10.4	5.66e-03	0	61	0	671088640	54	6352
2026-01-14 01:43:53.99	263.49	9.57	-41.3	-45.6	11.1	1.80e-03	0	60	0	676331520	54	5835
2026-01-14 01:43:57.01	263.13	9.38	-41.4	-45.7	11.1	1.63e-03	0	61	0	682622976	54	5865
2026-01-14 01:44:00.04	262.77	9.19	-41.6	-46.3	10.5	3.99e-03	0	61	0	687865856	54	6276
2026-01-14 01:44:03.07	262.42	9.00	-42.0	-47.2	9.5	1.17e-02	0	61	0	694157312	54	6983
2026-01-14 01:44:06.10	262.07	8.81	-42.1	-47.4	9.3	2.10e-02	0	61	0	699400192	54	7196
2026-01-14 01:44:09.13	261.73	8.62	-42.1	-47.4	9.4	1.84e-02	0	61	0	705691648	55	6733
2026-01-14 01:44:12.15	261.39	8.44	-42.1	-47.5	9.2	1.90e-02	0	61	0	710934528	55	6853
2026-01-14 01:44:15.18	261.06	8.25	-42.1	-47.3	9.4	1.42e-02	0	61	0	716177408	55	6690
2026-01-14 01:44:18.21	260.73	8.06	-42.1	-47.3	9.4	1.68e-02	0	61	0	722468864	55	6695
2026-01-14 01:44:21.24	260.40	7.87	-44.7	-59.2	3.8	1.49e+00	0	61	104	724566016	60	19681
2026-01-14 01:44:24.27	260.08	7.69	-45.1	-59.6	3.8	1.49e+00	0	61	104	724566016	60	20541
2026-01-14 01:44:27.30	259.76	7.50	-45.3	-59.7	3.8	1.49e+00	0	61	104	724566016	61	19699
2026-01-14 01:44:30.33	259.45	7.32	-45.2	-59.6	3.8	1.49e+00	0	61	104	724566016	61	19547
2026-01-14 01:44:33.36	259.14	7.13	-45.2	-59.6	3.8	1.49e+00	0	61	104	724566016	61	19556
2026-01-14 01:44:36.39	258.84	6.95	-45.3	-59.7	3.8	1.49e+00	0	61	104	724566016	61	19707
2026-01-14 01:44:39.42	258.54	6.76	-45.2	-59.6	3.8	1.49e+00	0	61	104	724566016	61	19504
2026-01-14 01:44:42.45	258.24	6.58	-45.2	-59.6	3.8	1.49e+00	0	61	104	724566016	61	19540
2026-01-14 01:44:45.48	257.94	6.40	-45.2	-59.6	3.8	1.49e+00	0	61	104	724566016	61	19441
2026-01-14 01:44:48.51	257.65	6.21	-45.2	-59.6	3.8	1.49e+00	0	61	104	724566016	61	19476
2026-01-14 01:44:51.54	257.37	6.03	-45.1	-59.6	3.8	1.49e+00	0	61	104	724566016	61	19416
2026-01-14 01:44:54.57	257.09	5.85	-45.1	-59.6	3.8	1.49e+00	0	61	104	724566016	61	19410
2026-01-14 01:44:57.61	256.81	5.67	-45.1	-59.6	3.8	1.49e+00	0	61	104	724566016	61	19427
2026-01-14 01:45:00.64	256.53	5.49	-45.1	-59.6	3.8	1.49e+00	0	61	104	724566016	61	19420
2026-01-14 01:45:03.67	256.26	5.31	-45.1	-59.6	3.8	1.49e+00	0	61	104	724566016	61	19397
2026-01-14 01:45:06.71	255.99	5.13	-45.1	-59.5	3.8	1.49e+00	0	61	104	724566016	61	19371
2026-01-14 01:45:09.74	255.73	4.96	-45.1	-59.5	3.8	1.49e+00	0	61	104	724566016	61	19339
2026-01-14 01:45:12.77	255.46	4.78	-45.1	-59.5	3.8	1.49e+00	0	61	104	724566016	61	19321
2026-01-14 01:45:15.81	255.20	4.60	-45.1	-59.6	3.8	1.49e+00	0	61	104	724566016	61	19396
2026-01-14 01:45:18.84	254.95	4.43	-45.1	-59.6	3.8	1.49e+00	0	61	104	724566016	61	19402
2026-01-14 01:45:21.87	254.70	4.25	-45.1	-59.5	3.8	1.49e+00	0	61	104	724566016	61	19330
2026-01-14 01:45:24.90	254.45	4.08	-45.1	-59.5	3.8	1.49e+00	0	61	104	724566016	61	19315
2026-01-14 01:45:27.93	254.20	3.90	-45.1	-59.5	3.8	1.49e+00	0	61	104	724566016	61	19316
2026-01-14 01:45:30.97	253.96	3.73	-45.1	-59.5	3.8	1.49e+00	0	61	104	724566016	61	19272
2026-01-14 01:45:34.00	253.72	3.55	-45.1	-59.5	3.8	1.49e+00	0	61	104	724566016	61	19280
2026-01-14 01:45:37.03	253.48	3.38	-45.1	-59.5	3.8	1.49e+00	0	61	104	724566016	61	19266
2026-01-14 01:45:40.06	253.25	3.21	-45.1	-59.5	3.8	1.49e+00	0	61	104	724566016	61	19270
2026-01-14 01:45:43.10	253.01	3.04	-45.1	-59.5	3.8	1.49e+00	0	61	104	724566016	61	19295
2026-01-14 01:45:46.13	252.78	2.87	-45.1	-59.5	3.8	1.49e+00	0	61	104	724566016	61	19273
2026-01-14 01:45:49.16	252.56	2.70	-45.1	-59.5	3.8	1.49e+00	0	61	104	724566016	61	19293
2026-01-14 01:45:52.20	252.33	2.53	-45.1	-59.5	3.8	1.49e+00	0	61	104	724566016	61	19264
2026-01-14 01:45:55.23	252.11	2.36	-45.1	-59.5	3.8	1.49e+00	0	61	104	724566016	61	19258
2026-01-14 01:45:58.26	251.89	2.19	-45.1	-59.5	3.8	1.49e+00	0	61	104	724566016	61	19290
2026-01-14 01:46:01.29	251.68	2.03	-45.1	-59.5	3.8	1.49e+00	0	61	104	724566016	61	19269

#Closed at: 2026-01-14 01:46:02
#Recorded file [724 MB]: D:/lorett/data/31039_260114_043344.dat