passes_logs/2026/01/14/R2.0S_Moscow/R2.0S_Moscow__20260114_094346_SUOMI_NPP_rec.log

#Pass ID: 20260114_094346_SUOMI NPP
#Satellite: SUOMI NPP
#Configuration: NPP
#almurnet v.1.7.20251203
#Start time: 2026-01-14 09:43:46

#Version: 2.2.20231116
#Station: R2.0S_Moscow
#Location: 37.707566 lon 55.798166 lat
#TLE: 1 37849U 11061A   26013.27136842  .00000065  00000+0  51889-4 0  9990
#TLE: 2 37849  98.7808 315.3349 0002489  66.6776 293.4661 14.19524902736466

#Time	Az	El	Level	Level2	SNR	BER	BlckErr	Temp	State	Recorded	gain1	gain2
2026-01-14 09:43:46.62	152.89	2.01	-43.9	-58.3	3.8	1.49e+00	0	51	0	0	59	18892
2026-01-14 09:43:50.65	152.85	2.27	-43.9	-58.3	3.8	1.49e+00	0	51	104	0	59	18839
2026-01-14 09:43:54.69	152.82	2.53	-43.9	-58.3	3.8	1.49e+00	0	51	104	0	59	18925
2026-01-14 09:43:58.73	152.78	2.80	-43.9	-58.3	3.8	1.49e+00	0	52	104	0	59	18896
2026-01-14 09:44:02.76	152.74	3.06	-43.9	-58.3	3.8	1.49e+00	0	52	104	0	59	18906
2026-01-14 09:44:06.80	152.69	3.34	-43.9	-58.3	3.8	1.49e+00	0	52	104	0	59	18871
2026-01-14 09:44:10.84	152.65	3.61	-43.9	-58.3	3.8	1.49e+00	0	52	104	0	59	18867
2026-01-14 09:44:14.88	152.61	3.88	-43.9	-58.3	3.8	1.49e+00	0	53	104	0	59	18902
2026-01-14 09:44:18.92	152.56	4.16	-43.8	-58.3	3.8	1.49e+00	0	53	104	0	59	18803
2026-01-14 09:44:22.96	152.52	4.45	-43.9	-58.3	3.8	1.49e+00	0	53	104	0	59	18873
2026-01-14 09:44:27.00	152.47	4.73	-43.9	-58.3	3.8	1.49e+00	0	53	104	0	59	18874
2026-01-14 09:44:31.05	152.42	5.02	-43.9	-58.3	3.8	1.49e+00	0	53	104	0	59	18871
2026-01-14 09:44:35.08	152.37	5.31	-43.9	-58.3	3.8	1.49e+00	0	54	104	0	59	18848
2026-01-14 09:44:39.12	152.32	5.60	-43.9	-57.9	3.8	1.49e+00	0	54	104	0	59	17925
2026-01-14 09:44:43.16	152.27	5.90	-43.8	-57.0	3.8	1.49e+00	0	54	104	0	59	16201
2026-01-14 09:44:47.20	152.22	6.20	-43.8	-56.2	3.8	1.48e+00	0	54	104	0	59	14757
2026-01-14 09:44:51.24	152.17	6.51	-43.8	-56.0	3.8	1.49e+00	0	55	104	0	59	14426
2026-01-14 09:44:55.28	152.11	6.82	-43.8	-57.0	3.8	1.49e+00	0	55	104	0	59	16313
2026-01-14 09:44:59.33	152.05	7.13	-43.9	-57.9	3.8	1.49e+00	0	55	104	0	59	18040
2026-01-14 09:45:03.37	152.00	7.44	-43.6	-54.6	4.2	1.44e+00	0	55	0	0	59	12278
2026-01-14 09:45:07.41	151.94	7.76	-43.1	-50.6	6.5	2.97e-01	0	55	0	6291456	58	8248
2026-01-14 09:45:11.46	151.88	8.09	-43.4	-51.9	5.9	5.92e-02	0	55	0	13631488	57	10164
2026-01-14 09:45:15.49	151.81	8.41	-42.2	-47.4	9.4	8.38e-01	0	56	0	16777216	56	6407
2026-01-14 09:45:19.53	151.75	8.75	-42.0	-47.0	10.0	7.49e-03	0	56	0	23068672	56	6095
2026-01-14 09:45:23.57	151.68	9.08	-42.1	-47.1	10.1	6.18e-03	0	56	0	31457280	56	6132
2026-01-14 09:45:27.61	151.61	9.42	-42.1	-47.1	10.2	5.59e-03	0	56	0	38797312	56	6156
2026-01-14 09:45:31.65	151.54	9.77	-42.1	-46.9	10.4	4.45e-03	0	56	0	46137344	56	6043
2026-01-14 09:45:35.69	151.47	10.12	-42.1	-46.8	10.6	3.39e-03	0	56	0	53477376	56	5943
2026-01-14 09:45:39.73	151.40	10.48	-42.1	-46.7	10.7	2.40e-03	0	56	0	61865984	56	5892
2026-01-14 09:45:43.77	151.32	10.84	-41.7	-46.0	11.4	1.31e-03	0	56	0	69206016	55	5739
2026-01-14 09:45:47.81	151.24	11.20	-41.6	-45.7	11.7	5.52e-04	0	57	0	76546048	55	5575
2026-01-14 09:45:51.84	151.16	11.58	-41.6	-45.7	11.8	4.26e-04	0	57	0	83886080	55	5562
2026-01-14 09:45:55.88	151.08	11.95	-41.7	-45.9	11.6	8.09e-04	0	57	0	91226112	55	5695
2026-01-14 09:45:59.92	151.00	12.34	-41.9	-46.2	11.4	1.15e-03	0	57	0	99614720	55	5876
2026-01-14 09:46:03.95	150.91	12.73	-41.7	-45.8	11.8	5.34e-04	0	57	0	106954752	55	5626
2026-01-14 09:46:07.99	150.82	13.12	-41.4	-45.0	12.6	9.23e-05	0	57	0	114294784	54	5435
2026-01-14 09:46:12.03	150.72	13.52	-41.2	-44.7	13.0	3.81e-05	0	57	0	121634816	54	5232
2026-01-14 09:46:16.07	150.63	13.93	-41.5	-45.3	12.3	1.20e-04	0	57	0	130023424	54	5636
2026-01-14 09:46:20.11	150.53	14.35	-41.7	-45.7	12.1	3.35e-04	0	58	0	137363456	54	5860
2026-01-14 09:46:24.16	150.43	14.77	-41.5	-45.2	12.5	1.45e-04	0	57	0	144703488	54	5590
2026-01-14 09:46:28.20	150.32	15.20	-41.3	-44.8	13.0	4.27e-05	0	57	0	152043520	54	5322
2026-01-14 09:46:32.23	150.21	15.64	-41.6	-45.3	12.5	9.91e-05	0	58	0	159383552	54	5626
2026-01-14 09:46:36.27	150.10	16.08	-41.7	-45.6	12.2	2.33e-04	0	58	0	167772160	54	5804
2026-01-14 09:46:40.31	149.98	16.54	-41.7	-45.4	12.5	1.05e-04	0	58	0	175112192	54	5676
2026-01-14 09:46:44.35	149.86	17.00	-41.4	-44.8	13.1	3.43e-05	0	58	0	182452224	54	5337
2026-01-14 09:46:48.38	149.74	17.47	-41.7	-45.4	12.6	1.33e-04	0	58	0	189792256	54	5658
2026-01-14 09:46:52.42	149.61	17.95	-41.9	-45.9	12.0	2.78e-04	0	58	0	198180864	54	6018
2026-01-14 09:46:56.46	149.48	18.44	-41.7	-45.4	12.5	1.42e-04	0	58	0	205520896	54	5719
2026-01-14 09:47:00.50	149.34	18.94	-41.6	-45.2	12.9	5.49e-05	0	58	0	212860928	54	5542
2026-01-14 09:47:04.54	149.20	19.45	-41.8	-45.7	12.3	1.96e-04	0	58	0	220200960	54	5893
2026-01-14 09:47:08.58	149.05	19.97	-41.9	-45.8	12.2	2.24e-04	0	58	0	227540992	54	5933
2026-01-14 09:47:12.62	148.90	20.50	-41.5	-44.9	13.2	2.05e-05	0	58	0	235929600	54	5361
2026-01-14 09:47:16.66	148.74	21.04	-41.4	-44.7	13.5	1.29e-05	0	58	0	243269632	54	5226
2026-01-14 09:47:20.69	148.57	21.60	-41.4	-44.8	13.4	1.83e-05	0	58	0	250609664	54	5283
2026-01-14 09:47:24.73	148.40	22.16	-41.8	-45.4	12.8	2.44e-05	0	58	0	257949696	54	5672
2026-01-14 09:47:28.77	148.22	22.74	-41.8	-45.5	12.6	1.11e-04	0	58	0	266338304	54	5766
2026-01-14 09:47:32.81	148.03	23.33	-41.9	-45.6	12.6	5.87e-05	0	58	0	273678336	54	5799
2026-01-14 09:47:36.84	147.84	23.94	-41.5	-44.8	13.4	2.28e-05	0	58	0	281018368	54	5309
2026-01-14 09:47:40.88	147.64	24.56	-42.0	-45.8	12.3	9.76e-05	0	58	0	288358400	54	5967
2026-01-14 09:47:44.92	147.43	25.19	-42.4	-46.7	11.4	1.04e-03	0	58	0	295698432	55	6249
2026-01-14 09:47:48.96	147.21	25.84	-42.5	-46.8	11.3	1.09e-03	0	58	0	304087040	55	6338
2026-01-14 09:47:53.00	146.98	26.50	-42.7	-47.3	10.9	1.32e-03	0	59	0	311427072	55	6650
2026-01-14 09:47:57.03	146.74	27.18	-43.0	-47.6	10.7	2.74e-03	0	59	0	318767104	56	6537
2026-01-14 09:48:01.07	146.49	27.88	-43.2	-48.2	10.1	4.65e-03	0	59	0	326107136	56	6971
2026-01-14 09:48:05.11	146.23	28.59	-43.1	-48.0	10.3	5.65e-03	0	59	0	333447168	57	6473
2026-01-14 09:48:09.15	145.95	29.33	-43.0	-47.6	10.7	2.42e-03	0	58	0	341835776	57	6164
2026-01-14 09:48:13.18	145.66	30.08	-43.5	-49.0	9.3	1.32e-02	0	59	0	349175808	57	7223
2026-01-14 09:48:17.23	145.36	30.85	-43.4	-48.6	9.7	1.20e-02	0	59	0	356515840	57	6952
2026-01-14 09:48:21.26	145.04	31.64	-43.4	-48.7	9.6	1.27e-02	0	59	0	363855872	57	7012
2026-01-14 09:48:25.30	144.71	32.45	-43.8	-49.9	8.5	4.35e-02	0	59	0	372244480	58	7554
2026-01-14 09:48:29.34	144.35	33.28	-43.8	-49.6	8.7	2.82e-02	0	59	0	379584512	58	7367
2026-01-14 09:48:33.38	143.98	34.14	-44.1	-51.0	7.4	1.11e-01	0	59	0	386924544	58	8571
2026-01-14 09:48:37.41	143.59	35.01	-43.6	-49.1	9.3	2.56e-02	0	59	0	394264576	58	6882
2026-01-14 09:48:41.45	143.17	35.91	-43.8	-49.5	8.9	2.69e-02	0	59	0	401604608	58	7261
2026-01-14 09:48:45.49	142.73	36.84	-44.1	-50.6	7.8	9.56e-02	0	59	0	409993216	58	8215
2026-01-14 09:48:49.53	142.26	37.79	-43.9	-50.0	8.4	4.84e-02	0	59	0	417333248	58	7685
2026-01-14 09:48:53.57	141.76	38.76	-43.7	-49.2	9.1	1.36e-02	0	59	0	424673280	58	7023
2026-01-14 09:48:57.61	141.24	39.76	-44.0	-50.4	8.0	6.67e-02	0	59	0	432013312	58	8031
2026-01-14 09:49:01.65	140.67	40.79	-44.0	-50.2	8.2	8.64e-02	0	59	0	440401920	58	7809
2026-01-14 09:49:05.68	140.07	41.84	-43.4	-48.4	10.0	1.15e-02	0	59	0	447741952	58	6368
2026-01-14 09:49:09.72	139.43	42.92	-43.4	-48.3	10.0	1.40e-02	0	59	0	455081984	58	6344
2026-01-14 09:49:13.76	138.74	44.03	-43.4	-48.5	9.8	9.39e-03	0	59	0	462422016	58	6462
2026-01-14 09:49:17.80	138.00	45.16	-42.7	-46.8	11.7	4.83e-04	0	59	0	469762048	57	5624
2026-01-14 09:49:21.83	137.21	46.32	-43.3	-48.3	10.0	7.81e-03	0	59	0	478150656	57	6699
2026-01-14 09:49:25.87	136.35	47.51	-42.8	-46.9	11.5	7.92e-04	0	59	0	485490688	57	5721
2026-01-14 09:49:29.91	135.42	48.72	-43.0	-47.6	10.8	3.19e-03	0	59	0	492830720	57	6166
2026-01-14 09:49:33.95	134.41	49.96	-42.2	-45.8	12.7	6.63e-05	0	59	0	500170752	56	5322
2026-01-14 09:49:37.98	133.32	51.22	-42.0	-45.6	12.8	3.81e-05	0	59	0	508559360	55	5475
2026-01-14 09:49:42.02	132.13	52.51	-42.6	-46.5	11.7	1.64e-03	0	59	0	515899392	56	5783
2026-01-14 09:49:46.06	130.83	53.82	-42.9	-47.3	11.2	8.26e-04	0	59	0	523239424	56	6285
2026-01-14 09:49:50.10	129.40	55.14	-42.3	-46.0	12.5	8.77e-05	0	59	0	530579456	56	5414
2026-01-14 09:49:54.14	127.83	56.48	-42.9	-47.2	11.4	1.28e-03	0	59	0	537919488	56	6206
2026-01-14 09:49:58.18	126.10	57.82	-43.5	-48.7	9.6	7.66e-03	0	60	0	546308096	57	6983
2026-01-14 09:50:02.22	124.19	59.17	-43.5	-48.7	9.6	1.18e-02	0	59	0	553648128	58	6642
2026-01-14 09:50:06.25	122.07	60.52	-43.1	-47.6	10.8	3.91e-03	0	59	0	560988160	57	6167
2026-01-14 09:50:10.29	119.72	61.85	-42.2	-45.8	12.7	1.82e-04	0	59	0	568328192	56	5306
2026-01-14 09:50:14.33	117.09	63.17	-41.9	-45.2	13.0	9.10e-06	0	59	0	576716800	55	5278
2026-01-14 09:50:18.37	114.15	64.45	-42.1	-45.6	12.8	8.92e-05	0	60	0	584056832	56	5215
2026-01-14 09:50:22.40	110.89	65.68	-42.6	-46.7	11.6	6.52e-04	0	59	0	591396864	56	5878
2026-01-14 09:50:26.44	107.23	66.86	-43.6	-49.1	9.1	1.27e-02	0	59	0	598736896	57	7335
2026-01-14 09:50:30.48	103.16	67.95	-42.0	-45.4	12.9	6.48e-05	0	59	0	606076928	56	5057
2026-01-14 09:50:34.52	98.65	68.94	-43.2	-48.0	10.2	1.78e-03	0	60	0	614465536	56	6851
2026-01-14 09:50:38.55	93.70	69.80	-43.2	-48.1	10.1	3.69e-03	0	59	0	621805568	57	6545
2026-01-14 09:50:42.59	88.30	70.52	-43.6	-49.0	9.2	1.70e-02	0	59	0	629145600	57	7255
2026-01-14 09:50:46.63	82.52	71.07	-44.3	-51.8	6.5	1.72e-01	0	60	0	636485632	59	8876
2026-01-14 09:50:50.67	76.43	71.43	-43.2	-48.0	10.2	3.38e-03	0	59	0	644874240	57	6456
2026-01-14 09:50:54.71	70.17	71.58	-43.6	-49.0	9.3	1.77e-02	0	60	0	652214272	58	6813
2026-01-14 09:50:58.75	63.87	71.52	-43.2	-48.1	10.0	2.29e-02	0	59	0	659554304	57	6534
2026-01-14 09:51:02.78	57.71	71.25	-43.2	-47.9	10.4	4.81e-03	0	59	0	666894336	57	6382
2026-01-14 09:51:06.82	51.78	70.79	-43.7	-49.3	8.9	2.71e-02	0	60	0	674234368	58	7100
2026-01-14 09:51:10.86	46.20	70.15	-43.7	-49.4	8.9	3.26e-02	0	59	0	682622976	58	7144
2026-01-14 09:51:14.90	41.04	69.34	-44.0	-50.2	8.1	5.78e-02	0	59	0	689963008	59	7375
2026-01-14 09:51:18.93	36.35	68.41	-43.7	-49.2	9.1	1.31e-02	0	60	0	697303040	58	7010
2026-01-14 09:51:22.97	32.09	67.36	-43.0	-47.4	10.9	4.82e-03	0	60	0	704643072	58	5681
2026-01-14 09:51:27.01	28.25	66.23	-43.1	-47.8	10.5	5.68e-03	0	60	0	711983104	57	6282
2026-01-14 09:51:31.04	24.82	65.02	-42.6	-46.5	11.8	4.78e-04	0	60	0	720371712	56	5773
2026-01-14 09:51:35.08	21.74	63.76	-41.6	-44.8	13.6	1.29e-05	0	60	0	727711744	54	5282
2026-01-14 09:51:39.12	18.99	62.46	-42.0	-45.5	12.8	3.89e-05	0	59	0	735051776	54	5770
2026-01-14 09:51:43.16	16.51	61.14	-43.3	-48.1	10.1	3.36e-03	0	59	0	742391808	57	6550
2026-01-14 09:51:47.20	14.29	59.80	-43.1	-47.8	10.5	1.22e-03	0	60	0	750780416	57	6341
2026-01-14 09:51:51.24	12.29	58.45	-42.3	-46.5	11.9	3.64e-04	0	60	0	758120448	56	5758
2026-01-14 09:51:55.28	10.49	57.11	-42.4	-46.2	12.2	5.39e-04	0	60	0	765460480	56	5557
2026-01-14 09:51:59.32	8.85	55.77	-41.5	-44.7	13.6	1.50e-06	0	59	0	772800512	53	5534
2026-01-14 09:52:03.36	7.37	54.45	-42.6	-46.9	11.4	4.84e-04	0	60	0	780140544	55	6355
2026-01-14 09:52:07.40	6.01	53.14	-42.8	-47.9	10.3	7.96e-03	0	60	0	788529152	57	6411
2026-01-14 09:52:11.44	4.77	51.85	-41.8	-45.2	13.1	5.26e-05	0	59	0	795869184	55	5243
2026-01-14 09:52:15.48	3.64	50.58	-42.0	-45.6	12.8	6.79e-05	0	60	0	803209216	54	5800
2026-01-14 09:52:19.52	2.60	49.33	-43.5	-48.8	9.5	9.31e-03	0	59	0	810549248	57	7097
2026-01-14 09:52:23.55	1.64	48.11	-43.9	-50.0	8.0	5.17e-02	0	60	0	818937856	58	7673
2026-01-14 09:52:27.59	0.75	46.92	-44.4	-52.1	6.2	3.71e-01	0	60	0	826277888	59	9270
2026-01-14 09:52:31.62	359.93	45.75	-43.5	-49.1	9.3	8.38e-03	0	60	0	833617920	57	7293
2026-01-14 09:52:35.66	359.17	44.61	-43.9	-50.0	8.3	3.13e-02	0	60	0	840957952	58	7658
2026-01-14 09:52:39.70	358.46	43.49	-43.7	-49.4	8.8	2.05e-02	0	60	0	848297984	58	7201
2026-01-14 09:52:43.74	357.80	42.40	-43.8	-49.7	8.5	3.56e-02	0	60	0	856686592	58	7441
2026-01-14 09:52:47.78	357.18	41.34	-43.8	-49.9	8.3	2.60e-02	0	60	0	864026624	58	7574
2026-01-14 09:52:51.81	356.61	40.31	-44.3	-51.8	6.6	1.54e-01	0	60	0	871366656	59	8866
2026-01-14 09:52:55.85	356.07	39.30	-44.0	-50.6	7.7	1.69e-01	0	60	0	878706688	59	7740
2026-01-14 09:52:59.89	355.56	38.32	-42.9	-47.6	10.7	1.26e-02	0	60	0	887095296	57	6138
2026-01-14 09:53:03.93	355.08	37.36	-43.1	-47.9	10.3	4.78e-03	0	60	0	894435328	57	6416
2026-01-14 09:53:07.97	354.63	36.43	-44.1	-51.1	7.1	1.81e-01	0	60	0	901775360	59	8196
2026-01-14 09:53:12.01	354.20	35.52	-44.0	-50.5	7.7	4.87e-02	0	60	0	909115392	59	7699
2026-01-14 09:53:16.04	353.80	34.64	-44.1	-51.3	6.9	1.80e-01	0	60	0	916455424	59	8441
2026-01-14 09:53:20.08	353.42	33.78	-43.5	-49.1	9.0	3.29e-02	0	60	0	924844032	59	6549
2026-01-14 09:53:24.12	353.06	32.94	-43.3	-48.6	9.6	1.52e-02	0	60	0	932184064	58	6499
2026-01-14 09:53:28.16	352.72	32.12	-43.5	-49.2	8.8	1.48e-02	0	60	0	939524096	57	7412
2026-01-14 09:53:32.20	352.40	31.32	-44.3	-52.2	6.1	2.61e-01	0	60	0	946864128	59	9345
2026-01-14 09:53:36.24	352.09	30.55	-43.7	-50.0	8.1	6.99e-02	0	60	0	955252736	59	7210
2026-01-14 09:53:40.27	351.80	29.79	-43.3	-48.8	9.3	2.22e-02	0	60	0	962592768	58	6654
2026-01-14 09:53:44.31	351.52	29.05	-43.3	-48.6	9.4	1.82e-02	0	60	0	969932800	58	6518
2026-01-14 09:53:48.35	351.25	28.33	-42.8	-47.5	10.5	5.66e-03	0	60	0	977272832	57	6101
2026-01-14 09:53:52.39	351.00	27.63	-42.8	-47.6	10.3	3.39e-03	0	60	0	984612864	57	6155
2026-01-14 09:53:56.42	350.75	26.95	-43.5	-49.7	8.1	5.28e-02	0	60	0	993001472	57	7810
2026-01-14 09:54:00.46	350.52	26.28	-42.9	-48.1	9.6	1.81e-02	0	60	0	1000341504	57	6557
2026-01-14 09:54:04.50	350.30	25.62	-42.3	-46.6	11.1	1.55e-03	0	60	0	1007681536	56	5845
2026-01-14 09:54:08.54	350.09	24.98	-42.3	-46.9	10.7	2.88e-03	0	60	0	1015021568	56	6022
2026-01-14 09:54:12.57	349.89	24.36	-42.3	-47.1	10.4	4.18e-03	0	60	0	1023410176	56	6159
2026-01-14 09:54:16.61	349.69	23.75	-42.2	-46.9	10.4	3.91e-03	0	60	0	1030750208	56	6053
2026-01-14 09:54:20.65	349.50	23.16	-41.9	-47.1	9.5	8.32e-03	0	60	0	1038090240	55	6566
2026-01-14 09:54:24.69	349.33	22.57	-41.6	-47.5	8.7	3.31e-02	0	60	0	1045430272	55	6827
2026-01-14 09:54:28.73	349.15	22.00	-41.4	-47.7	8.3	4.31e-02	0	60	0	1052770304	54	7401
2026-01-14 09:54:32.76	348.99	21.45	-41.6	-49.4	6.4	2.04e-01	0	60	0	1061158912	54	8982
2026-01-14 09:54:36.80	348.83	20.90	-41.7	-53.8	3.9	1.42e+00	0	60	104	1066401792	54	15015
2026-01-14 09:54:40.83	348.67	20.37	-41.3	-55.8	3.8	1.49e+00	0	60	104	1066401792	54	18747
2026-01-14 09:54:44.87	348.53	19.84	-41.1	-55.9	3.8	1.49e+00	0	60	104	1066401792	54	19123
2026-01-14 09:54:48.91	348.38	19.33	-41.1	-55.9	3.8	1.49e+00	0	60	104	1066401792	53	20229
2026-01-14 09:54:52.94	348.25	18.83	-41.0	-55.6	3.8	1.49e+00	0	60	104	1066401792	53	19575
2026-01-14 09:54:56.97	348.12	18.34	-41.2	-55.9	3.8	1.49e+00	0	60	104	1066401792	53	20260
2026-01-14 09:55:01.02	347.99	17.85	-41.2	-55.7	3.8	1.49e+00	0	60	104	1066401792	53	19726
2026-01-14 09:55:05.05	347.87	17.38	-40.7	-55.5	3.8	1.49e+00	0	60	104	1066401792	53	19357
2026-01-14 09:55:09.09	347.75	16.92	-41.4	-55.9	3.8	1.49e+00	0	60	104	1066401792	53	20160
2026-01-14 09:55:13.13	347.63	16.46	-41.3	-55.8	3.8	1.49e+00	0	60	104	1066401792	53	19940
2026-01-14 09:55:17.17	347.52	16.01	-41.2	-55.8	3.8	1.49e+00	0	60	104	1066401792	53	19908
2026-01-14 09:55:21.20	347.41	15.57	-41.4	-55.9	3.8	1.49e+00	0	60	104	1066401792	53	20129
2026-01-14 09:55:25.24	347.31	15.14	-41.4	-55.9	3.8	1.49e+00	0	60	104	1066401792	53	20292
2026-01-14 09:55:29.27	347.21	14.71	-41.4	-55.9	3.8	1.49e+00	0	60	104	1066401792	53	20201
2026-01-14 09:55:33.31	347.11	14.30	-41.0	-55.8	3.8	1.49e+00	0	60	104	1066401792	53	19981
2026-01-14 09:55:37.35	347.02	13.89	-41.4	-56.1	3.8	1.49e+00	0	60	104	1066401792	53	20557
2026-01-14 09:55:41.38	346.93	13.48	-41.1	-55.8	3.8	1.49e+00	0	60	104	1066401792	53	19929
2026-01-14 09:55:45.42	346.84	13.09	-41.1	-55.8	3.8	1.49e+00	0	60	104	1066401792	53	19845
2026-01-14 09:55:49.46	346.76	12.69	-41.1	-55.7	3.8	1.49e+00	0	60	104	1066401792	53	19716
2026-01-14 09:55:53.50	346.67	12.31	-41.1	-55.7	3.8	1.49e+00	0	60	104	1066401792	53	19704
2026-01-14 09:55:57.54	346.59	11.93	-41.1	-55.7	3.8	1.49e+00	0	60	104	1066401792	53	19636
2026-01-14 09:56:01.57	346.52	11.56	-40.8	-55.4	3.8	1.49e+00	0	60	104	1066401792	53	19097
2026-01-14 09:56:05.62	346.44	11.19	-40.9	-55.5	3.8	1.49e+00	0	60	104	1066401792	53	19284
2026-01-14 09:56:09.66	346.37	10.83	-40.7	-55.3	3.8	1.49e+00	0	60	104	1066401792	53	18938
2026-01-14 09:56:13.70	346.30	10.47	-40.8	-55.4	3.8	1.49e+00	0	60	104	1066401792	53	19025
2026-01-14 09:56:17.73	346.23	10.12	-40.5	-55.2	3.8	1.49e+00	0	60	104	1066401792	53	18650
2026-01-14 09:56:21.77	346.16	9.77	-40.7	-55.3	3.8	1.49e+00	0	60	104	1066401792	53	18850
2026-01-14 09:56:25.81	346.10	9.43	-40.6	-55.3	3.8	1.49e+00	0	60	104	1066401792	53	18758
2026-01-14 09:56:29.85	346.03	9.09	-40.6	-55.2	3.8	1.49e+00	0	60	104	1066401792	53	18575
2026-01-14 09:56:33.88	345.97	8.76	-40.7	-55.3	3.8	1.49e+00	0	60	104	1066401792	53	18771
2026-01-14 09:56:37.92	345.91	8.43	-40.6	-55.2	3.8	1.49e+00	0	60	104	1066401792	53	18562
2026-01-14 09:56:41.96	345.86	8.10	-40.5	-55.1	3.8	1.49e+00	0	60	104	1066401792	53	18493
2026-01-14 09:56:46.00	345.80	7.78	-41.5	-56.2	3.8	1.49e+00	0	60	104	1066401792	53	20817
2026-01-14 09:56:50.04	345.74	7.46	-45.1	-59.7	3.8	1.49e+00	0	60	104	1066401792	60	20803
2026-01-14 09:56:54.09	345.69	7.15	-45.2	-59.8	3.8	1.49e+00	0	60	104	1066401792	60	21037
2026-01-14 09:56:58.13	345.64	6.84	-45.1	-59.6	3.8	1.49e+00	0	60	104	1066401792	60	20655
2026-01-14 09:57:02.17	345.59	6.54	-45.1	-59.5	3.8	1.49e+00	0	60	104	1066401792	60	20475
2026-01-14 09:57:06.22	345.54	6.23	-45.1	-59.6	3.8	1.49e+00	0	60	104	1066401792	60	20577
2026-01-14 09:57:10.26	345.49	5.93	-45.1	-59.5	3.8	1.49e+00	0	60	104	1066401792	60	20490
2026-01-14 09:57:14.31	345.45	5.64	-45.0	-59.5	3.8	1.49e+00	0	60	104	1066401792	60	20510
2026-01-14 09:57:18.34	345.40	5.35	-45.1	-59.5	3.8	1.49e+00	0	60	104	1066401792	60	20428
2026-01-14 09:57:22.38	345.36	5.06	-45.0	-59.5	3.8	1.49e+00	0	60	104	1066401792	60	20389
2026-01-14 09:57:26.42	345.32	4.77	-45.1	-59.5	3.8	1.49e+00	0	60	104	1066401792	60	20403
2026-01-14 09:57:30.46	345.28	4.49	-45.0	-59.5	3.8	1.49e+00	0	60	104	1066401792	60	20377
2026-01-14 09:57:34.50	345.24	4.21	-45.0	-59.5	3.8	1.49e+00	0	60	104	1066401792	60	20427
2026-01-14 09:57:38.54	345.20	3.93	-45.0	-59.5	3.8	1.49e+00	0	60	104	1066401792	60	20349
2026-01-14 09:57:42.58	345.16	3.66	-45.0	-59.5	3.8	1.49e+00	0	60	104	1066401792	60	20424
2026-01-14 09:57:46.62	345.12	3.39	-45.0	-59.5	3.8	1.49e+00	0	60	104	1066401792	60	20425
2026-01-14 09:57:50.66	345.09	3.12	-45.0	-59.5	3.8	1.49e+00	0	60	104	1066401792	60	20402
2026-01-14 09:57:54.70	345.05	2.85	-45.0	-59.5	3.8	1.49e+00	0	60	104	1066401792	60	20401
2026-01-14 09:57:58.74	345.02	2.59	-44.9	-59.5	3.8	1.49e+00	0	60	104	1066401792	60	20366
2026-01-14 09:58:02.79	344.99	2.33	-45.0	-59.5	3.8	1.49e+00	0	60	104	1066401792	60	20468
2026-01-14 09:58:06.83	344.95	2.07	-44.9	-59.5	3.8	1.49e+00	0	60	104	1066401792	60	20349

#Closed at: 2026-01-14 09:58:10
#Recorded file [1066 MB]: D:/lorett/data/31039_260114_124346.dat