passes_logs/2026/01/14/R2.0S_Moscow/R2.0S_Moscow__20260114_080530_SUOMI_NPP_rec.log

#Pass ID: 20260114_080530_SUOMI NPP
#Satellite: SUOMI NPP
#Configuration: NPP
#almurnet v.1.7.20251203
#Start time: 2026-01-14 08:05:31

#Version: 2.2.20231116
#Station: R2.0S_Moscow
#Location: 37.707566 lon 55.798166 lat
#TLE: 1 37849U 11061A   26013.27136842  .00000065  00000+0  51889-4 0  9990
#TLE: 2 37849  98.7808 315.3349 0002489  66.6776 293.4661 14.19524902736466

#Time	Az	El	Level	Level2	SNR	BER	BlckErr	Temp	State	Recorded	gain1	gain2
2026-01-14 08:05:31.91	104.47	2.06	-37.9	-54.0	3.7	1.49e+00	0	51	0	0	47	22878
2026-01-14 08:05:34.93	104.24	2.23	-37.1	-53.0	4.0	1.49e+00	0	51	104	0	45	22950
2026-01-14 08:05:37.96	104.00	2.39	-38.3	-54.3	3.9	1.49e+00	0	52	104	0	49	21107
2026-01-14 08:05:40.99	103.77	2.55	-39.4	-54.9	3.7	1.49e+00	0	52	104	0	50	21325
2026-01-14 08:05:44.02	103.53	2.72	-40.0	-54.8	3.9	1.49e+00	0	52	104	0	50	21171
2026-01-14 08:05:47.05	103.29	2.89	-38.1	-53.2	3.8	1.49e+00	0	52	104	0	47	20989
2026-01-14 08:05:50.08	103.05	3.05	-38.8	-54.5	3.9	1.49e+00	0	53	104	0	49	21715
2026-01-14 08:05:53.11	102.80	3.22	-40.1	-55.0	3.8	1.49e+00	0	53	104	0	51	20369
2026-01-14 08:05:56.14	102.55	3.38	-40.0	-54.7	3.9	1.49e+00	0	53	104	0	50	20826
2026-01-14 08:05:59.17	102.30	3.55	-40.2	-55.0	4.0	1.49e+00	0	53	104	0	50	21577
2026-01-14 08:06:02.20	102.04	3.72	-38.0	-54.5	3.8	1.49e+00	0	54	104	0	50	20538
2026-01-14 08:06:05.23	101.78	3.89	-39.9	-54.6	3.8	1.49e+00	0	54	104	0	50	20564
2026-01-14 08:06:08.26	101.52	4.06	-39.5	-54.2	3.9	1.50e+00	0	54	104	0	50	19717
2026-01-14 08:06:11.30	101.26	4.23	-38.7	-53.2	3.9	1.49e+00	0	54	104	0	49	18697
2026-01-14 08:06:14.33	100.99	4.40	-37.2	-53.8	3.8	1.49e+00	0	54	104	0	47	22321
2026-01-14 08:06:17.36	100.72	4.57	-39.1	-53.6	4.0	1.49e+00	0	54	104	0	48	20697
2026-01-14 08:06:20.39	100.44	4.74	-39.9	-54.3	4.0	1.49e+00	0	54	104	0	50	20010
2026-01-14 08:06:23.42	100.16	4.91	-39.7	-54.7	3.8	1.49e+00	0	55	104	0	50	20856
2026-01-14 08:06:26.45	99.88	5.08	-40.0	-54.7	3.9	1.49e+00	0	55	104	0	50	21013
2026-01-14 08:06:29.48	99.60	5.25	-37.8	-54.0	3.8	1.49e+00	0	55	104	0	47	22832
2026-01-14 08:06:32.52	99.31	5.43	-39.2	-54.0	3.7	1.49e+00	0	55	104	0	48	21521
2026-01-14 08:06:35.54	99.02	5.60	-39.5	-53.2	4.1	1.49e+00	0	55	104	0	48	19767
2026-01-14 08:06:38.57	98.72	5.77	-39.3	-54.5	3.9	1.49e+00	0	56	104	0	49	21648
2026-01-14 08:06:41.61	98.42	5.95	-38.3	-54.3	4.0	1.49e+00	0	56	104	0	49	21036
2026-01-14 08:06:44.64	98.12	6.12	-35.6	-51.8	4.1	1.49e+00	0	56	104	0	42	23679
2026-01-14 08:06:47.67	97.82	6.30	-40.1	-54.9	3.9	1.49e+00	0	56	104	0	51	20133
2026-01-14 08:06:50.70	97.51	6.48	-39.9	-54.8	3.8	1.49e+00	0	56	104	0	51	20037
2026-01-14 08:06:53.73	97.19	6.65	-39.8	-54.7	4.0	1.49e+00	0	56	104	0	50	20841
2026-01-14 08:06:56.76	96.87	6.83	-40.2	-54.8	3.8	1.49e+00	0	56	104	0	50	21212
2026-01-14 08:06:59.79	96.55	7.00	-39.9	-54.6	3.9	1.49e+00	0	56	104	0	50	20580
2026-01-14 08:07:02.82	96.23	7.18	-39.8	-53.9	4.0	1.49e+00	0	56	104	0	46	23994
2026-01-14 08:07:05.84	95.90	7.36	-39.9	-53.4	4.2	1.49e+00	0	57	104	0	45	23937
2026-01-14 08:07:08.87	95.57	7.54	-39.1	-54.0	3.9	1.49e+00	0	57	104	0	49	20528
2026-01-14 08:07:11.90	95.23	7.71	-38.1	-53.9	3.9	1.49e+00	0	57	104	0	48	21394
2026-01-14 08:07:14.92	94.89	7.89	-39.7	-54.3	3.8	1.49e+00	0	57	104	0	50	20044
2026-01-14 08:07:17.95	94.54	8.07	-40.4	-55.1	3.8	1.49e+00	0	57	104	0	51	20770
2026-01-14 08:07:20.98	94.19	8.25	-40.1	-55.0	3.8	1.49e+00	0	57	104	0	50	21682
2026-01-14 08:07:24.01	93.83	8.43	-37.4	-53.6	4.0	1.49e+00	0	57	104	0	46	23189
2026-01-14 08:07:27.04	93.47	8.61	-39.9	-54.2	3.9	1.49e+00	0	57	104	0	48	22159
2026-01-14 08:07:30.07	93.11	8.79	-39.9	-54.6	3.8	1.49e+00	0	57	104	0	50	20706
2026-01-14 08:07:33.10	92.74	8.97	-40.0	-54.9	3.8	1.49e+00	0	58	104	0	50	21347
2026-01-14 08:07:36.13	92.37	9.15	-41.0	-55.8	3.8	1.49e+00	0	57	104	0	52	21071
2026-01-14 08:07:39.16	91.99	9.33	-40.3	-55.0	3.8	1.49e+00	0	57	104	0	51	20423
2026-01-14 08:07:42.19	91.61	9.51	-40.3	-54.9	3.8	1.49e+00	0	57	104	0	51	20300
2026-01-14 08:07:45.22	91.22	9.69	-40.4	-54.5	3.8	1.49e+00	0	58	104	0	52	18199
2026-01-14 08:07:48.25	90.83	9.87	-40.3	-54.9	3.8	1.49e+00	0	58	104	0	52	19034
2026-01-14 08:07:51.28	90.43	10.05	-40.7	-54.6	3.8	1.49e+00	0	58	104	0	52	18457
2026-01-14 08:07:54.31	90.02	10.23	-40.5	-55.1	3.8	1.49e+00	0	58	104	0	52	19433
2026-01-14 08:07:57.34	89.62	10.41	-40.6	-55.2	3.8	1.49e+00	0	58	104	0	52	19840
2026-01-14 08:08:00.37	89.20	10.59	-41.1	-55.8	3.8	1.49e+00	0	58	104	0	53	19936
2026-01-14 08:08:03.40	88.79	10.77	-40.7	-55.5	3.8	1.49e+00	0	58	104	0	52	20443
2026-01-14 08:08:06.42	88.36	10.95	-40.6	-55.5	3.8	1.49e+00	0	58	104	0	52	20360
2026-01-14 08:08:09.45	87.94	11.12	-40.8	-55.6	3.8	1.49e+00	0	58	104	0	52	20621
2026-01-14 08:08:12.47	87.50	11.30	-40.6	-55.3	3.8	1.49e+00	0	58	104	0	51	21169
2026-01-14 08:08:15.50	87.06	11.48	-40.6	-55.4	3.8	1.49e+00	0	58	104	0	51	21307
2026-01-14 08:08:18.53	86.62	11.66	-40.7	-55.4	3.8	1.49e+00	0	58	104	0	52	20185
2026-01-14 08:08:21.55	86.17	11.84	-40.2	-55.2	3.8	1.49e+00	0	58	104	0	52	19808
2026-01-14 08:08:24.59	85.71	12.02	-40.4	-55.2	3.8	1.49e+00	0	58	104	0	52	19629
2026-01-14 08:08:27.61	85.25	12.19	-40.6	-55.3	3.8	1.49e+00	0	58	104	0	51	21101
2026-01-14 08:08:30.64	84.79	12.37	-40.6	-55.3	3.8	1.49e+00	0	59	104	0	51	21241
2026-01-14 08:08:33.67	84.31	12.55	-40.5	-55.2	3.8	1.49e+00	0	59	104	0	51	20845
2026-01-14 08:08:36.69	83.84	12.72	-40.6	-55.2	3.8	1.49e+00	0	59	104	0	51	20813
2026-01-14 08:08:39.72	83.35	12.89	-40.9	-55.5	3.8	1.49e+00	0	59	104	0	52	20515
2026-01-14 08:08:42.75	82.86	13.07	-40.7	-55.3	3.8	1.49e+00	0	59	104	0	52	19987
2026-01-14 08:08:45.77	82.37	13.24	-40.6	-55.2	3.8	1.49e+00	0	59	104	0	53	18638
2026-01-14 08:08:48.80	81.87	13.41	-40.6	-55.2	3.8	1.49e+00	0	59	104	0	52	19666
2026-01-14 08:08:51.83	81.36	13.58	-41.0	-55.3	3.8	1.49e+00	0	59	104	0	52	20040
2026-01-14 08:08:54.86	80.85	13.75	-40.7	-55.3	3.8	1.49e+00	0	59	104	0	53	18756
2026-01-14 08:08:57.88	80.33	13.92	-40.7	-54.9	3.8	1.49e+00	0	59	104	0	53	18017
2026-01-14 08:09:00.91	79.80	14.09	-41.5	-53.6	3.9	1.49e+00	0	59	104	0	53	15433
2026-01-14 08:09:03.94	79.27	14.26	-41.3	-51.3	4.7	1.11e+00	0	59	0	1048576	53	11901
2026-01-14 08:09:06.97	78.73	14.42	-41.1	-50.0	5.4	5.29e-01	0	59	0	6291456	53	10198
2026-01-14 08:09:10.00	78.19	14.58	-41.1	-49.8	5.4	4.90e-01	0	59	0	12582912	53	10048
2026-01-14 08:09:13.03	77.64	14.75	-40.9	-49.5	5.6	4.12e-01	0	59	0	17825792	53	9693
2026-01-14 08:09:16.05	77.09	14.91	-41.0	-49.9	5.4	5.48e-01	0	60	0	23068672	53	10117
2026-01-14 08:09:19.08	76.52	15.06	-40.9	-49.2	5.9	3.94e-01	0	59	0	29360128	53	9331
2026-01-14 08:09:22.11	75.96	15.22	-40.9	-49.2	5.9	3.63e-01	0	59	0	34603008	53	9360
2026-01-14 08:09:25.14	75.38	15.38	-40.9	-50.0	5.2	6.08e-01	0	59	0	40894464	53	10208
2026-01-14 08:09:28.17	74.80	15.53	-40.8	-49.7	5.4	4.95e-01	0	59	0	46137344	53	9834
2026-01-14 08:09:31.20	74.22	15.68	-41.0	-50.5	5.0	7.35e-01	0	59	0	51380224	53	10811
2026-01-14 08:09:34.22	73.63	15.83	-40.9	-49.8	5.4	5.20e-01	0	59	0	57671680	53	9989
2026-01-14 08:09:37.25	73.03	15.98	-40.8	-49.4	5.7	4.31e-01	0	59	0	62914560	53	9549
2026-01-14 08:09:40.28	72.43	16.12	-40.8	-49.0	6.0	3.32e-01	0	60	0	69206016	53	9115
2026-01-14 08:09:43.31	71.82	16.26	-41.0	-49.7	5.6	4.33e-01	0	60	0	74448896	53	9848
2026-01-14 08:09:46.34	71.20	16.40	-41.1	-49.0	6.3	2.94e-01	0	60	0	80740352	53	9133
2026-01-14 08:09:49.37	70.58	16.54	-41.1	-48.2	7.1	1.67e-01	0	60	0	85983232	53	8338
2026-01-14 08:09:52.40	69.96	16.67	-41.1	-47.8	7.7	9.29e-02	0	60	0	91226112	53	7927
2026-01-14 08:09:55.43	69.33	16.80	-41.3	-48.0	7.7	9.28e-02	0	60	0	97517568	53	8090
2026-01-14 08:09:58.46	68.69	16.93	-41.4	-47.4	8.6	5.26e-02	0	60	0	102760448	53	7595
2026-01-14 08:10:01.49	68.05	17.06	-41.3	-46.5	9.7	1.22e-02	0	60	0	109051904	53	6870
2026-01-14 08:10:04.51	67.40	17.18	-41.2	-45.9	10.7	3.66e-03	0	60	0	114294784	53	6366
2026-01-14 08:10:07.54	66.75	17.30	-41.2	-45.5	11.4	9.59e-04	0	60	0	119537664	53	6067
2026-01-14 08:10:10.57	66.09	17.42	-41.3	-45.4	11.7	5.20e-04	0	60	0	125829120	53	6022
2026-01-14 08:10:13.60	65.42	17.53	-41.4	-45.4	11.8	3.61e-04	0	60	0	131072000	53	6035
2026-01-14 08:10:16.63	64.76	17.64	-41.5	-45.6	11.8	3.73e-04	0	60	0	137363456	53	6175
2026-01-14 08:10:19.66	64.08	17.74	-41.7	-46.0	11.4	8.74e-04	0	60	0	142606336	53	6464
2026-01-14 08:10:22.69	63.41	17.85	-41.7	-46.0	11.4	9.02e-04	0	60	0	148897792	54	6117
2026-01-14 08:10:25.72	62.72	17.94	-41.8	-46.1	11.4	8.50e-04	0	60	0	154140672	54	6156
2026-01-14 08:10:28.74	62.04	18.04	-41.9	-46.2	11.4	9.28e-04	0	60	0	159383552	54	6217
2026-01-14 08:10:31.78	61.35	18.13	-42.0	-46.4	11.1	1.73e-03	0	60	0	165675008	54	6414
2026-01-14 08:10:34.80	60.65	18.22	-42.1	-46.7	10.9	2.58e-03	0	60	0	170917888	54	6588
2026-01-14 08:10:37.84	59.95	18.30	-41.8	-46.0	11.6	7.84e-04	0	60	0	177209344	54	6097
2026-01-14 08:10:40.86	59.25	18.38	-41.8	-45.9	11.7	6.35e-04	0	60	0	182452224	54	6040
2026-01-14 08:10:43.89	58.55	18.45	-41.9	-46.3	11.3	1.33e-03	0	60	0	187695104	54	6347
2026-01-14 08:10:46.93	57.83	18.52	-41.9	-46.3	11.3	1.19e-03	0	60	0	193986560	54	6281
2026-01-14 08:10:49.95	57.12	18.59	-42.0	-46.4	11.2	1.32e-03	0	60	0	199229440	54	6364
2026-01-14 08:10:52.99	56.41	18.65	-42.4	-47.4	10.2	4.97e-03	0	60	0	205520896	55	6778
2026-01-14 08:10:56.01	55.69	18.70	-42.5	-47.8	9.7	1.04e-02	0	60	0	210763776	55	7079
2026-01-14 08:10:59.04	54.97	18.76	-42.4	-47.5	10.1	6.05e-03	0	60	0	217055232	55	6831
2026-01-14 08:11:02.07	54.25	18.80	-42.1	-46.9	10.7	2.46e-03	0	60	0	222298112	55	6380
2026-01-14 08:11:05.10	53.52	18.85	-42.2	-47.1	10.5	3.93e-03	0	60	0	227540992	55	6513
2026-01-14 08:11:08.13	52.79	18.88	-42.1	-46.8	10.8	2.50e-03	0	60	0	233832448	55	6317
2026-01-14 08:11:11.16	52.07	18.92	-41.9	-46.2	11.4	1.04e-03	0	60	0	239075328	55	5896
2026-01-14 08:11:14.18	51.34	18.95	-41.9	-46.3	11.4	9.25e-04	0	60	0	245366784	55	5931
2026-01-14 08:11:17.21	50.61	18.97	-42.0	-46.5	11.1	1.20e-03	0	60	0	250609664	55	6131
2026-01-14 08:11:20.24	49.87	18.99	-42.0	-46.5	11.2	1.98e-03	0	60	0	255852544	55	6096
2026-01-14 08:11:23.26	49.14	19.00	-42.0	-46.5	11.2	1.39e-03	0	60	0	262144000	55	6100
2026-01-14 08:11:26.29	48.41	19.01	-42.0	-46.4	11.3	1.23e-03	0	60	0	267386880	55	6005
2026-01-14 08:11:29.32	47.68	19.02	-42.0	-46.4	11.3	1.07e-03	0	60	0	273678336	55	6020
2026-01-14 08:11:32.35	46.94	19.01	-42.4	-47.5	10.1	5.43e-03	0	60	0	278921216	55	6838
2026-01-14 08:11:35.38	46.21	19.01	-42.5	-47.7	9.9	9.45e-03	0	60	0	285212672	55	7008
2026-01-14 08:11:38.41	45.47	19.00	-42.2	-47.0	10.7	3.19e-03	0	60	0	290455552	55	6444
2026-01-14 08:11:41.44	44.74	18.98	-41.7	-45.8	11.9	5.54e-04	0	60	0	295698432	55	5646
2026-01-14 08:11:44.46	44.01	18.96	-41.5	-45.4	12.3	1.60e-04	0	60	0	301989888	55	5369
2026-01-14 08:11:47.49	43.28	18.94	-41.6	-45.6	12.2	2.60e-04	0	60	0	307232768	55	5480
2026-01-14 08:11:50.52	42.55	18.91	-41.5	-45.2	12.5	7.85e-05	0	60	0	313524224	54	5547
2026-01-14 08:11:53.55	41.83	18.87	-41.6	-45.5	12.3	1.49e-04	0	60	0	318767104	54	5756
2026-01-14 08:11:56.58	41.10	18.84	-41.4	-45.1	12.7	9.07e-05	0	60	0	324009984	54	5496
2026-01-14 08:11:59.61	40.38	18.79	-41.2	-44.8	13.1	5.34e-05	0	60	0	330301440	54	5285
2026-01-14 08:12:02.64	39.65	18.74	-41.4	-45.0	12.8	4.34e-05	0	61	0	335544320	54	5407
2026-01-14 08:12:05.66	38.94	18.69	-41.6	-45.3	12.5	1.20e-04	0	60	0	341835776	54	5632
2026-01-14 08:12:08.69	38.22	18.63	-41.6	-45.5	12.2	2.19e-04	0	60	0	347078656	54	5761
2026-01-14 08:12:11.72	37.51	18.57	-41.8	-45.9	11.8	4.39e-04	0	60	0	353370112	54	6040
2026-01-14 08:12:14.75	36.80	18.50	-41.8	-45.9	11.8	4.62e-04	0	61	0	358612992	54	6059
2026-01-14 08:12:17.78	36.09	18.43	-42.1	-46.5	11.2	1.05e-03	0	60	0	363855872	54	6486
2026-01-14 08:12:20.81	35.39	18.36	-42.5	-47.5	10.2	5.38e-03	0	60	0	370147328	55	6851
2026-01-14 08:12:23.83	34.69	18.28	-42.7	-48.0	9.7	1.01e-02	0	61	0	375390208	55	7256
2026-01-14 08:12:26.86	33.99	18.20	-42.4	-47.3	10.5	4.44e-03	0	61	0	381681664	55	6648
2026-01-14 08:12:29.89	33.30	18.11	-42.3	-47.2	10.5	5.31e-03	0	61	0	386924544	55	6596
2026-01-14 08:12:32.92	32.61	18.02	-42.3	-47.1	10.7	2.42e-03	0	60	0	392167424	55	6500
2026-01-14 08:12:35.95	31.93	17.92	-42.4	-47.4	10.2	5.66e-03	0	60	0	398458880	55	6796
2026-01-14 08:12:38.98	31.25	17.82	-42.3	-47.1	10.6	3.99e-03	0	61	0	403701760	55	6522
2026-01-14 08:12:42.00	30.58	17.72	-42.2	-46.7	11.0	1.92e-03	0	61	0	409993216	55	6241
2026-01-14 08:12:45.03	29.91	17.61	-42.2	-46.9	10.7	2.71e-03	0	60	0	415236096	55	6420
2026-01-14 08:12:48.06	29.24	17.50	-42.2	-46.7	11.0	2.03e-03	0	61	0	421527552	55	6273
2026-01-14 08:12:51.09	28.58	17.39	-42.0	-46.4	11.3	1.32e-03	0	61	0	426770432	55	6049
2026-01-14 08:12:54.12	27.93	17.27	-41.8	-45.8	11.9	4.74e-04	0	60	0	432013312	55	5629
2026-01-14 08:12:57.15	27.28	17.15	-41.6	-45.5	12.2	2.01e-04	0	60	0	438304768	55	5438
2026-01-14 08:13:00.18	26.63	17.03	-41.6	-45.4	12.3	1.93e-04	0	61	0	443547648	55	5390
2026-01-14 08:13:03.21	25.99	16.90	-42.0	-46.5	11.2	9.11e-04	0	61	0	449839104	55	6089
2026-01-14 08:13:06.24	25.36	16.78	-42.5	-47.6	10.0	1.04e-02	0	61	0	455081984	55	6920
2026-01-14 08:13:09.26	24.73	16.64	-42.5	-47.7	9.9	7.56e-03	0	61	0	460324864	55	7032
2026-01-14 08:13:12.29	24.11	16.51	-42.4	-47.6	10.0	8.74e-03	0	61	0	466616320	55	6912
2026-01-14 08:13:15.32	23.49	16.37	-42.7	-48.2	9.4	1.50e-02	0	61	0	471859200	55	7422
2026-01-14 08:13:18.35	22.88	16.23	-42.6	-48.0	9.6	1.53e-02	0	61	0	478150656	55	7207
2026-01-14 08:13:21.38	22.28	16.09	-42.3	-47.1	10.5	4.02e-03	0	61	0	483393536	55	6565
2026-01-14 08:13:24.40	21.68	15.95	-42.1	-46.9	10.7	2.71e-03	0	61	0	489684992	55	6362
2026-01-14 08:13:27.43	21.09	15.80	-41.9	-46.2	11.3	1.08e-03	0	61	0	494927872	55	5910
2026-01-14 08:13:30.46	20.50	15.65	-42.1	-46.8	10.8	2.49e-03	0	61	0	500170752	55	6337
2026-01-14 08:13:33.49	19.92	15.50	-42.4	-47.7	9.8	1.01e-02	0	61	0	506462208	55	6978
2026-01-14 08:13:36.52	19.34	15.35	-42.1	-46.8	10.7	3.21e-03	0	61	0	511705088	55	6325
2026-01-14 08:13:39.55	18.77	15.19	-41.9	-46.4	11.2	1.31e-03	0	61	0	517996544	55	6021
2026-01-14 08:13:42.58	18.21	15.03	-42.3	-47.4	10.1	4.67e-03	0	61	0	523239424	55	6752
2026-01-14 08:13:45.61	17.65	14.87	-42.7	-48.5	8.9	2.48e-02	0	61	0	528482304	55	7687
2026-01-14 08:13:48.64	17.10	14.71	-43.0	-49.2	8.4	4.62e-02	0	61	0	534773760	56	7865
2026-01-14 08:13:51.67	16.56	14.55	-42.9	-48.8	8.7	2.75e-02	0	61	0	540016640	56	7534
2026-01-14 08:13:54.70	16.02	14.39	-42.8	-48.5	9.0	2.22e-02	0	61	0	546308096	56	7286
2026-01-14 08:13:57.73	15.48	14.22	-42.6	-48.2	9.3	1.57e-02	0	61	0	551550976	56	6977
2026-01-14 08:14:00.74	14.96	14.06	-42.4	-47.6	9.9	1.06e-02	0	61	0	556793856	56	6553
2026-01-14 08:14:03.77	14.44	13.89	-42.6	-48.3	9.2	1.83e-02	0	61	0	563085312	56	7054
2026-01-14 08:14:06.79	13.92	13.72	-42.6	-48.4	9.0	2.54e-02	0	61	0	568328192	56	7158
2026-01-14 08:14:09.82	13.42	13.55	-42.4	-47.8	9.5	1.41e-02	0	61	0	574619648	56	6669
2026-01-14 08:14:12.85	12.91	13.38	-42.1	-47.2	10.0	9.84e-03	0	61	0	579862528	56	6207
2026-01-14 08:14:15.88	12.41	13.21	-42.2	-47.6	9.6	1.21e-02	0	61	0	586153984	56	6534
2026-01-14 08:14:18.91	11.92	13.04	-42.3	-47.9	9.1	2.07e-02	0	61	0	591396864	56	6775
2026-01-14 08:14:21.94	11.44	12.87	-42.3	-48.2	8.7	3.34e-02	0	61	0	596639744	56	7001
2026-01-14 08:14:24.97	10.96	12.69	-42.3	-48.3	8.4	4.43e-02	0	61	0	602931200	56	7078
2026-01-14 08:14:27.99	10.49	12.52	-41.4	-46.8	9.5	1.64e-02	0	61	0	608174080	54	6720
2026-01-14 08:14:31.02	10.02	12.34	-41.0	-46.2	9.8	1.15e-02	0	61	0	614465536	54	6243
2026-01-14 08:14:34.05	9.55	12.17	-40.7	-45.6	10.3	4.99e-03	0	61	0	619708416	53	6143
2026-01-14 08:14:37.08	9.10	11.99	-40.5	-45.4	10.3	5.54e-03	0	61	0	624951296	52	6395
2026-01-14 08:14:40.11	8.65	11.81	-40.8	-46.9	8.5	3.45e-02	0	61	0	631242752	52	7582
2026-01-14 08:14:43.14	8.20	11.64	-41.1	-48.9	6.4	2.03e-01	0	61	0	636485632	52	9583
2026-01-14 08:14:46.17	7.76	11.46	-41.2	-51.1	4.8	7.28e-01	0	61	0	642777088	52	12352
2026-01-14 08:14:49.20	7.33	11.28	-41.2	-53.7	3.8	1.48e+00	0	61	104	644874240	53	15759
2026-01-14 08:14:52.23	6.90	11.10	-41.1	-55.3	3.8	1.49e+00	0	61	104	644874240	53	18853
2026-01-14 08:14:55.27	6.47	10.92	-40.8	-55.4	3.8	1.49e+00	0	61	104	644874240	53	19013
2026-01-14 08:14:58.29	6.05	10.74	-40.2	-54.8	3.8	1.49e+00	0	61	104	644874240	52	18853
2026-01-14 08:15:01.32	5.64	10.56	-40.2	-54.9	3.8	1.49e+00	0	61	104	644874240	52	18988
2026-01-14 08:15:04.35	5.23	10.38	-40.7	-55.4	3.8	1.49e+00	0	61	104	644874240	52	20167
2026-01-14 08:15:07.38	4.83	10.20	-40.1	-54.8	3.8	1.49e+00	0	61	104	644874240	52	18802
2026-01-14 08:15:10.41	4.43	10.03	-40.0	-54.7	3.8	1.49e+00	0	61	104	644874240	52	18700
2026-01-14 08:15:13.44	4.04	9.85	-40.4	-55.1	3.8	1.49e+00	0	61	104	644874240	52	19541
2026-01-14 08:15:16.47	3.65	9.67	-40.2	-54.9	3.8	1.49e+00	0	61	104	644874240	52	19133
2026-01-14 08:15:19.50	3.26	9.49	-40.1	-54.9	3.8	1.49e+00	0	61	104	644874240	51	20133
2026-01-14 08:15:22.53	2.88	9.31	-40.1	-54.9	3.8	1.49e+00	0	61	104	644874240	51	20091
2026-01-14 08:15:25.56	2.51	9.13	-40.2	-54.8	3.8	1.49e+00	0	61	104	644874240	51	20001
2026-01-14 08:15:28.60	2.14	8.95	-40.1	-54.8	3.8	1.49e+00	0	61	104	644874240	51	20008
2026-01-14 08:15:31.63	1.78	8.77	-40.1	-54.8	3.8	1.49e+00	0	61	104	644874240	51	20064
2026-01-14 08:15:34.66	1.42	8.59	-40.1	-54.8	3.8	1.49e+00	0	61	104	644874240	51	20026
2026-01-14 08:15:37.69	1.06	8.41	-40.0	-54.8	3.8	1.49e+00	0	61	104	644874240	51	19962
2026-01-14 08:15:40.72	0.71	8.23	-39.9	-54.7	3.8	1.49e+00	0	61	104	644874240	51	19825
2026-01-14 08:15:43.75	0.36	8.06	-39.8	-54.7	3.8	1.49e+00	0	61	104	644874240	51	19815
2026-01-14 08:15:46.78	0.02	7.88	-44.7	-59.3	3.8	1.49e+00	0	61	104	644874240	60	20005
2026-01-14 08:15:49.81	359.68	7.70	-45.4	-60.0	3.8	1.49e+00	0	61	104	644874240	61	20403
2026-01-14 08:15:52.84	359.35	7.52	-45.5	-60.1	3.8	1.49e+00	0	61	104	644874240	61	20634
2026-01-14 08:15:55.87	359.02	7.35	-45.4	-60.0	3.8	1.49e+00	0	61	104	644874240	61	20332
2026-01-14 08:15:58.90	358.69	7.17	-45.4	-59.8	3.8	1.49e+00	0	61	104	644874240	61	20046
2026-01-14 08:16:01.92	358.37	6.99	-45.3	-59.8	3.8	1.49e+00	0	61	104	644874240	61	19852
2026-01-14 08:16:04.95	358.06	6.82	-45.3	-59.8	3.8	1.49e+00	0	61	104	644874240	61	19875
2026-01-14 08:16:07.98	357.74	6.64	-45.3	-59.7	3.8	1.49e+00	0	61	104	644874240	61	19809
2026-01-14 08:16:11.01	357.43	6.47	-45.3	-59.8	3.8	1.49e+00	0	61	104	644874240	61	19864
2026-01-14 08:16:14.04	357.13	6.29	-45.3	-59.7	3.8	1.49e+00	0	61	104	644874240	61	19708
2026-01-14 08:16:17.07	356.82	6.12	-45.3	-59.7	3.8	1.49e+00	0	61	104	644874240	61	19687
2026-01-14 08:16:20.10	356.53	5.94	-45.2	-59.7	3.8	1.49e+00	0	61	104	644874240	61	19710
2026-01-14 08:16:23.13	356.23	5.77	-45.3	-59.7	3.8	1.49e+00	0	61	104	644874240	61	19649
2026-01-14 08:16:26.16	355.94	5.60	-45.3	-59.7	3.8	1.49e+00	0	61	104	644874240	61	19716
2026-01-14 08:16:29.19	355.65	5.42	-45.2	-59.7	3.8	1.49e+00	0	61	104	644874240	61	19686
2026-01-14 08:16:32.22	355.37	5.25	-45.2	-59.7	3.8	1.49e+00	0	61	104	644874240	61	19708
2026-01-14 08:16:35.26	355.09	5.08	-45.2	-59.7	3.8	1.49e+00	0	61	104	644874240	61	19669
2026-01-14 08:16:38.29	354.81	4.91	-45.2	-59.6	3.8	1.49e+00	0	61	104	644874240	61	19581
2026-01-14 08:16:41.32	354.54	4.74	-45.2	-59.7	3.8	1.49e+00	0	61	104	644874240	61	19660
2026-01-14 08:16:44.35	354.27	4.57	-45.2	-59.7	3.8	1.49e+00	0	61	104	644874240	61	19647
2026-01-14 08:16:47.38	354.00	4.40	-45.2	-59.7	3.8	1.49e+00	0	61	104	644874240	61	19655
2026-01-14 08:16:50.41	353.74	4.23	-45.2	-59.7	3.8	1.49e+00	0	61	104	644874240	61	19677
2026-01-14 08:16:53.44	353.48	4.06	-45.2	-59.6	3.8	1.49e+00	0	61	104	644874240	61	19608
2026-01-14 08:16:56.47	353.22	3.89	-45.2	-59.7	3.8	1.49e+00	0	61	104	644874240	61	19736
2026-01-14 08:16:59.50	352.96	3.72	-45.2	-59.6	3.8	1.49e+00	0	61	104	644874240	61	19589
2026-01-14 08:17:02.53	352.71	3.55	-45.2	-59.6	3.8	1.49e+00	0	61	104	644874240	61	19604
2026-01-14 08:17:05.56	352.46	3.39	-45.2	-59.6	3.8	1.49e+00	0	61	104	644874240	61	19596
2026-01-14 08:17:08.59	352.22	3.22	-45.2	-59.7	3.8	1.49e+00	0	61	104	644874240	61	19628
2026-01-14 08:17:11.62	351.98	3.05	-45.2	-59.6	3.8	1.49e+00	0	61	104	644874240	61	19605
2026-01-14 08:17:14.65	351.74	2.89	-45.2	-59.6	3.8	1.49e+00	0	61	104	644874240	61	19565
2026-01-14 08:17:17.68	351.50	2.72	-45.2	-59.7	3.8	1.49e+00	0	61	104	644874240	61	19619
2026-01-14 08:17:20.70	351.27	2.56	-45.2	-59.6	3.8	1.49e+00	0	61	104	644874240	61	19585
2026-01-14 08:17:23.73	351.03	2.40	-45.2	-59.7	3.8	1.49e+00	0	61	104	644874240	61	19619
2026-01-14 08:17:26.75	350.81	2.23	-45.2	-59.6	3.8	1.49e+00	0	61	104	644874240	61	19611
2026-01-14 08:17:29.78	350.58	2.07	-45.2	-59.6	3.8	1.49e+00	0	61	104	644874240	61	19594

#Closed at: 2026-01-14 08:17:31
#Recorded file [644 MB]: D:/lorett/data/31039_260114_110531.dat