passes_logs/2026/01/14/R2.0S_Moscow/R2.0S_Moscow__20260114_001351_NOAA_20_JPSS-1_rec.log

#Pass ID: 20260114_001351_NOAA 20 (JPSS-1)
#Satellite: NOAA 20 (JPSS-1)
#Configuration: NOAA 20
#almurnet v.1.7.20251203
#Start time: 2026-01-14 00:19:52

#Version: 2.2.20231116
#Station: R2.0S_Moscow
#Location: 37.707566 lon 55.798166 lat
#TLE: 1 43013U 17073A   26013.21545503  .00000073  00000+0  55630-4 0  9998
#TLE: 2 43013  98.7633 314.1737 0001580  41.9966 318.1331 14.19535680422486

#Time	Az	El	Level	Level2	SNR	BER	BlckErr	Temp	State	Recorded	gain1	gain2
2026-01-14 00:19:52.30	336.16	46.64	-46.2	-64.9	3.8	7.43e-01	0	61	0	0	63	32163
2026-01-14 00:19:54.33	335.28	47.06	-45.3	-59.8	3.8	1.49e+00	0	61	104	0	62	18797
2026-01-14 00:19:56.35	334.38	47.47	-45.3	-59.7	3.8	1.49e+00	0	61	104	0	62	18665
2026-01-14 00:19:58.37	333.46	47.88	-45.3	-59.8	3.8	1.49e+00	0	61	104	0	62	18746
2026-01-14 00:20:00.39	332.51	48.29	-45.3	-59.7	3.8	1.49e+00	0	61	104	0	62	18709
2026-01-14 00:20:02.41	331.53	48.69	-45.3	-59.7	3.8	1.49e+00	0	61	104	0	62	18723
2026-01-14 00:20:04.44	330.53	49.08	-45.3	-59.8	3.8	1.49e+00	0	61	104	0	62	18762
2026-01-14 00:20:06.46	329.51	49.47	-45.3	-59.8	3.8	1.49e+00	0	61	104	0	62	18735
2026-01-14 00:20:08.48	328.45	49.85	-45.3	-59.7	3.8	1.49e+00	0	61	104	0	62	18685
2026-01-14 00:20:10.50	327.38	50.23	-45.3	-59.7	3.8	1.49e+00	0	61	104	0	62	18713
2026-01-14 00:20:12.52	326.27	50.60	-45.3	-59.8	3.8	1.49e+00	0	61	104	0	62	18732
2026-01-14 00:20:14.55	325.13	50.96	-45.3	-59.7	3.8	1.49e+00	0	61	104	0	62	18663
2026-01-14 00:20:16.57	323.98	51.30	-45.3	-59.7	3.8	1.49e+00	0	61	104	0	62	18667
2026-01-14 00:20:18.59	322.79	51.64	-45.3	-59.7	3.8	1.49e+00	0	61	104	0	62	18600
2026-01-14 00:20:20.61	321.58	51.97	-45.3	-59.6	3.8	1.49e+00	0	61	104	0	62	18510
2026-01-14 00:20:22.63	320.34	52.29	-45.3	-59.6	3.8	1.49e+00	0	61	104	0	62	18345
2026-01-14 00:20:24.65	319.07	52.59	-45.3	-59.5	3.8	1.49e+00	0	61	104	0	62	18287
2026-01-14 00:20:26.68	317.77	52.88	-45.3	-59.6	3.8	1.49e+00	0	61	104	0	62	18469
2026-01-14 00:20:28.70	316.45	53.16	-45.3	-59.5	3.8	1.49e+00	0	61	104	0	62	18225
2026-01-14 00:20:30.72	315.11	53.42	-45.3	-59.4	3.8	1.49e+00	0	61	104	0	62	17890
2026-01-14 00:20:32.74	313.74	53.67	-45.2	-57.9	3.8	1.49e+00	0	61	104	0	62	15183
2026-01-14 00:20:34.76	312.35	53.90	-45.3	-59.7	3.8	1.49e+00	0	61	104	0	62	18521
2026-01-14 00:20:36.79	310.93	54.12	-45.0	-55.7	4.4	1.41e+00	92	61	0	0	62	11696
2026-01-14 00:20:38.81	309.50	54.32	-45.2	-57.8	3.8	1.46e+00	0	61	104	2097152	62	14978
2026-01-14 00:20:40.83	308.05	54.50	-44.7	-53.5	5.3	1.47e+00	0	61	104	2097152	61	9711
2026-01-14 00:20:42.85	306.58	54.66	-44.5	-52.2	6.4	1.47e-01	0	61	0	5242880	60	8789
2026-01-14 00:20:44.87	305.10	54.81	-43.7	-49.0	9.2	3.81e-01	0	61	0	9437184	59	6455
2026-01-14 00:20:46.89	303.60	54.93	-42.3	-45.8	12.7	3.05e-05	0	61	0	12582912	56	5300
2026-01-14 00:20:48.91	302.08	55.04	-45.3	-59.4	3.8	2.20e-01	0	61	104	16777216	61	19075
2026-01-14 00:20:50.92	300.57	55.12	-42.5	-46.3	12.2	5.31e-02	0	61	0	17825792	55	5970
2026-01-14 00:20:52.94	299.04	55.19	-41.1	-43.9	14.4	7.00e-07	0	61	0	22020096	54	4808
2026-01-14 00:20:54.96	297.50	55.23	-41.0	-43.8	14.6	7.00e-07	0	61	0	26214400	54	4709
2026-01-14 00:20:56.98	295.96	55.26	-41.0	-43.7	14.6	1.50e-06	0	61	0	29360128	53	4973
2026-01-14 00:20:59.00	294.42	55.26	-41.1	-43.9	14.4	0.00e+00	0	61	0	33554432	53	5094
2026-01-14 00:21:01.02	292.88	55.25	-41.4	-44.4	13.9	0.00e+00	0	61	0	37748736	53	5359
2026-01-14 00:21:03.04	291.34	55.21	-41.3	-44.2	14.1	7.00e-07	0	61	0	40894464	53	5253
2026-01-14 00:21:05.06	289.80	55.16	-41.5	-44.6	13.6	1.06e-05	0	61	0	45088768	53	5523
2026-01-14 00:21:07.08	288.28	55.08	-41.4	-44.5	13.9	3.00e-06	0	61	0	48234496	53	5405
2026-01-14 00:21:09.09	286.77	54.98	-41.3	-44.3	14.0	5.30e-06	0	61	0	52428800	53	5302
2026-01-14 00:21:11.11	285.26	54.87	-41.1	-44.0	14.3	3.00e-06	0	61	0	56623104	53	5130
2026-01-14 00:21:13.13	283.77	54.73	-40.8	-43.5	14.8	0.00e+00	0	61	0	59768832	53	4853
2026-01-14 00:21:15.15	282.29	54.58	-40.6	-43.2	15.1	0.00e+00	0	61	0	63963136	53	4694
2026-01-14 00:21:17.17	280.83	54.40	-40.6	-43.1	15.2	0.00e+00	0	61	0	67108864	53	4616
2026-01-14 00:21:19.19	279.39	54.21	-40.6	-43.1	15.2	0.00e+00	0	61	0	71303168	52	4915
2026-01-14 00:21:21.21	277.96	54.00	-40.4	-42.9	15.4	0.00e+00	0	61	0	75497472	52	4767
2026-01-14 00:21:23.23	276.56	53.78	-40.7	-43.3	15.0	7.00e-07	0	61	0	78643200	52	5000
2026-01-14 00:21:25.24	275.19	53.54	-40.9	-43.6	14.7	7.00e-07	0	61	0	82837504	52	5198
2026-01-14 00:21:27.27	273.83	53.28	-41.3	-44.3	14.0	2.20e-06	0	61	0	85983232	53	5290
2026-01-14 00:21:29.28	272.50	53.01	-41.6	-44.7	13.5	5.30e-06	0	61	0	90177536	53	5589
2026-01-14 00:21:31.30	271.19	52.73	-42.0	-45.4	12.9	5.11e-05	0	61	0	94371840	54	5702
2026-01-14 00:21:33.32	269.91	52.43	-42.3	-46.1	12.1	2.54e-04	0	61	0	97517568	55	5842
2026-01-14 00:21:35.34	268.66	52.12	-42.4	-46.2	12.0	3.28e-04	0	61	0	101711872	55	5909
2026-01-14 00:21:37.36	267.43	51.79	-42.2	-45.9	12.3	2.10e-04	0	61	0	105906176	55	5681
2026-01-14 00:21:39.38	266.23	51.46	-42.4	-46.2	12.1	2.10e-04	0	61	0	109051904	55	5867
2026-01-14 00:21:41.40	265.06	51.12	-42.6	-46.6	11.6	5.75e-04	0	61	0	113246208	55	6184
2026-01-14 00:21:43.41	263.91	50.76	-42.7	-46.8	11.4	8.55e-04	0	61	0	116391936	55	6321
2026-01-14 00:21:45.44	262.79	50.40	-42.6	-46.7	11.5	9.26e-04	0	61	0	120586240	55	6203
2026-01-14 00:21:47.45	261.70	50.03	-42.9	-47.2	11.2	1.35e-03	0	61	0	123731968	56	6223
2026-01-14 00:21:49.48	260.63	49.65	-43.3	-48.0	10.2	4.91e-03	0	61	0	127926272	57	6471
2026-01-14 00:21:51.50	259.59	49.26	-43.2	-47.8	10.4	4.57e-03	0	61	0	132120576	57	6342
2026-01-14 00:21:53.52	258.58	48.87	-43.5	-48.5	9.8	9.45e-03	0	61	0	135266304	57	6821
2026-01-14 00:21:55.54	257.59	48.47	-43.6	-48.8	9.4	1.09e-02	0	61	0	139460608	57	7112
2026-01-14 00:21:57.56	256.63	48.06	-43.9	-49.9	8.4	4.26e-02	0	61	0	143654912	58	7576
2026-01-14 00:21:59.58	255.69	47.65	-44.2	-50.9	7.3	8.82e-02	0	61	0	146800640	59	8059
2026-01-14 00:22:01.59	254.78	47.24	-44.4	-51.6	6.7	1.79e-01	0	61	0	150994944	59	8711
2026-01-14 00:22:03.61	253.89	46.83	-44.2	-50.8	7.4	1.41e-01	0	61	0	154140672	59	7973
2026-01-14 00:22:05.63	253.03	46.41	-44.0	-50.2	8.0	6.51e-02	0	61	0	158334976	59	7427
2026-01-14 00:22:07.65	252.18	45.98	-44.3	-51.0	7.2	1.23e-01	0	61	0	162529280	59	8115
2026-01-14 00:22:09.67	251.37	45.56	-44.1	-50.5	7.7	9.52e-02	0	61	0	165675008	59	7645
2026-01-14 00:22:11.69	250.57	45.13	-43.9	-49.8	8.3	6.17e-02	0	61	0	169869312	59	7068
2026-01-14 00:22:13.71	249.79	44.70	-43.9	-49.8	8.3	4.48e-02	0	61	0	174063616	59	7106
2026-01-14 00:22:15.72	249.04	44.27	-43.8	-49.5	8.7	4.41e-02	0	61	0	177209344	59	6859
2026-01-14 00:22:17.75	248.30	43.84	-43.5	-48.7	9.6	1.58e-02	0	61	0	181403648	59	6203
2026-01-14 00:22:19.76	247.59	43.41	-43.5	-48.6	9.7	1.20e-02	0	61	0	184549376	58	6541
2026-01-14 00:22:21.79	246.89	42.98	-43.6	-49.0	9.2	1.67e-02	0	61	0	188743680	58	6814
2026-01-14 00:22:23.80	246.21	42.55	-43.8	-49.4	8.8	3.13e-02	0	61	0	191889408	58	7168
2026-01-14 00:22:25.83	245.55	42.12	-43.8	-49.7	8.6	4.25e-02	0	61	0	196083712	58	7389
2026-01-14 00:22:27.84	244.91	41.69	-43.8	-49.7	8.5	5.03e-02	0	61	0	200278016	58	7374
2026-01-14 00:22:29.87	244.28	41.26	-44.0	-50.1	8.1	6.25e-02	0	61	0	203423744	58	7740
2026-01-14 00:22:31.89	243.67	40.83	-44.0	-50.1	8.1	6.46e-02	0	61	0	207618048	58	7744
2026-01-14 00:22:33.91	243.08	40.41	-44.1	-50.5	7.7	7.37e-02	0	61	0	211812352	58	8098
2026-01-14 00:22:35.93	242.50	39.98	-44.2	-51.0	7.2	1.26e-01	0	61	0	214958080	58	8613
2026-01-14 00:22:37.95	241.94	39.56	-44.1	-50.8	7.4	1.32e-01	0	61	0	219152384	59	7935
2026-01-14 00:22:39.97	241.39	39.14	-43.9	-50.1	8.1	7.15e-02	0	61	0	222298112	59	7293
2026-01-14 00:22:41.99	240.85	38.72	-43.9	-49.8	8.3	5.31e-02	0	61	0	226492416	59	7106
2026-01-14 00:22:44.01	240.33	38.31	-44.0	-50.3	7.9	6.52e-02	0	61	0	230686720	59	7482
2026-01-14 00:22:46.03	239.82	37.90	-44.0	-50.1	8.0	7.60e-02	0	61	0	233832448	59	7355
2026-01-14 00:22:48.04	239.33	37.49	-43.8	-49.5	8.6	4.70e-02	0	61	0	238026752	59	6863
2026-01-14 00:22:50.06	238.85	37.08	-43.7	-49.3	8.8	3.55e-02	0	61	0	242221056	59	6703
2026-01-14 00:22:52.08	238.38	36.67	-43.6	-48.9	9.2	2.03e-02	0	61	0	245366784	59	6391
2026-01-14 00:22:54.11	237.92	36.27	-43.6	-48.9	9.3	1.62e-02	0	61	0	249561088	59	6360
2026-01-14 00:22:56.13	237.47	35.87	-43.8	-49.5	8.7	3.48e-02	0	61	0	252706816	59	6838
2026-01-14 00:22:58.15	237.03	35.47	-43.7	-49.4	8.7	3.53e-02	0	61	0	256901120	59	6797
2026-01-14 00:23:00.17	236.61	35.08	-43.7	-49.5	8.6	3.77e-02	0	61	0	261095424	59	6837
2026-01-14 00:23:02.19	236.19	34.69	-43.7	-49.2	8.9	2.93e-02	0	61	0	264241152	59	6627
2026-01-14 00:23:04.20	235.79	34.30	-43.8	-49.5	8.5	3.62e-02	0	61	0	268435456	59	6866
2026-01-14 00:23:06.22	235.39	33.92	-43.9	-49.9	8.2	5.39e-02	0	61	0	271581184	59	7164
2026-01-14 00:23:08.24	235.00	33.54	-43.8	-49.8	8.3	5.77e-02	0	61	0	275775488	59	7112
2026-01-14 00:23:10.26	234.63	33.16	-43.8	-49.8	8.3	4.96e-02	0	61	0	279969792	59	7096
2026-01-14 00:23:12.28	234.26	32.78	-43.9	-49.9	8.2	5.67e-02	0	61	0	283115520	59	7125
2026-01-14 00:23:14.30	233.89	32.41	-43.7	-49.5	8.5	4.69e-02	0	61	0	287309824	59	6848
2026-01-14 00:23:16.32	233.54	32.05	-43.6	-49.2	8.9	3.28e-02	0	61	0	290455552	59	6617
2026-01-14 00:23:18.34	233.20	31.68	-43.5	-48.9	9.3	1.91e-02	0	61	0	294649856	59	6348
2026-01-14 00:23:20.36	232.86	31.32	-43.5	-48.7	9.5	1.48e-02	0	61	0	298844160	58	6586
2026-01-14 00:23:22.38	232.53	30.96	-43.5	-48.8	9.3	1.69e-02	0	61	0	301989888	58	6655
2026-01-14 00:23:24.39	232.21	30.61	-43.7	-49.2	8.9	3.03e-02	0	61	0	306184192	58	7035
2026-01-14 00:23:26.41	231.89	30.26	-43.5	-49.0	9.1	2.28e-02	0	61	0	310378496	58	6807
2026-01-14 00:23:28.43	231.59	29.91	-43.5	-48.7	9.4	1.71e-02	0	61	0	313524224	58	6619
2026-01-14 00:23:30.45	231.28	29.56	-43.4	-48.7	9.4	1.51e-02	0	61	0	317718528	58	6587
2026-01-14 00:23:32.47	230.99	29.22	-43.4	-48.7	9.4	1.54e-02	0	61	0	320864256	58	6572
2026-01-14 00:23:34.49	230.70	28.88	-43.3	-48.4	9.7	1.16e-02	0	61	0	325058560	58	6356
2026-01-14 00:23:36.51	230.42	28.55	-43.4	-48.5	9.5	1.38e-02	0	61	0	329252864	58	6476
2026-01-14 00:23:38.53	230.14	28.22	-43.3	-48.4	9.7	1.15e-02	0	61	0	332398592	58	6354
2026-01-14 00:23:40.55	229.87	27.89	-43.2	-48.1	10.1	7.65e-03	0	61	0	336592896	58	6136
2026-01-14 00:23:42.57	229.60	27.56	-43.1	-47.9	10.3	6.05e-03	0	61	0	339738624	58	5993
2026-01-14 00:23:44.59	229.34	27.24	-43.1	-47.8	10.3	5.51e-03	0	61	0	343932928	58	5990
2026-01-14 00:23:46.61	229.09	26.92	-43.1	-47.9	10.2	5.96e-03	0	61	0	348127232	58	6029
2026-01-14 00:23:48.63	228.84	26.60	-43.2	-48.1	10.0	7.03e-03	0	61	0	351272960	58	6140
2026-01-14 00:23:50.65	228.59	26.29	-43.2	-48.2	9.9	9.08e-03	0	61	0	355467264	58	6224
2026-01-14 00:23:52.67	228.35	25.98	-43.2	-48.1	10.0	8.73e-03	0	61	0	358612992	58	6159
2026-01-14 00:23:54.69	228.12	25.67	-43.1	-48.0	10.1	6.25e-03	0	61	0	362807296	58	6073
2026-01-14 00:23:56.71	227.89	25.37	-43.2	-48.1	10.0	7.84e-03	0	61	0	367001600	58	6198
2026-01-14 00:23:58.73	227.66	25.07	-43.1	-48.0	10.0	7.81e-03	0	61	0	370147328	58	6127
2026-01-14 00:24:00.74	227.44	24.77	-43.2	-48.2	9.9	9.68e-03	0	61	0	374341632	58	6205
2026-01-14 00:24:02.76	227.22	24.47	-43.2	-48.1	10.0	7.93e-03	0	61	0	378535936	58	6146
2026-01-14 00:24:04.78	227.01	24.18	-43.1	-47.9	10.2	6.29e-03	0	61	0	381681664	58	6003
2026-01-14 00:24:06.80	226.80	23.89	-43.1	-47.8	10.2	5.97e-03	0	61	0	385875968	58	5969
2026-01-14 00:24:08.82	226.59	23.60	-42.9	-47.5	10.5	4.63e-03	0	61	0	389021696	57	6094
2026-01-14 00:24:10.83	226.39	23.32	-42.8	-47.3	10.8	2.74e-03	0	61	0	393216000	57	5955
2026-01-14 00:24:12.85	226.19	23.04	-42.8	-47.3	10.7	2.69e-03	0	61	0	396361728	57	5959
2026-01-14 00:24:14.87	226.00	22.76	-42.9	-47.4	10.6	3.25e-03	0	61	0	400556032	57	6055
2026-01-14 00:24:16.89	225.81	22.48	-42.9	-47.6	10.4	4.29e-03	0	61	0	404750336	57	6185
2026-01-14 00:24:18.91	225.62	22.21	-43.0	-47.8	10.2	5.86e-03	0	61	0	407896064	57	6309
2026-01-14 00:24:20.93	225.44	21.94	-43.0	-47.8	10.2	5.93e-03	0	61	0	412090368	57	6286
2026-01-14 00:24:22.95	225.25	21.67	-42.9	-47.7	10.3	5.93e-03	0	61	0	416284672	57	6208
2026-01-14 00:24:24.96	225.08	21.41	-42.9	-47.5	10.5	4.10e-03	0	61	0	419430400	57	6073
2026-01-14 00:24:26.98	224.90	21.14	-42.9	-47.6	10.4	3.76e-03	0	61	0	423624704	57	6159
2026-01-14 00:24:29.00	224.73	20.88	-42.9	-47.5	10.6	3.63e-03	0	61	0	426770432	57	6063
2026-01-14 00:24:31.02	224.56	20.62	-42.9	-47.7	10.3	4.61e-03	0	61	0	430964736	57	6209
2026-01-14 00:24:33.04	224.40	20.37	-43.0	-48.0	10.0	7.65e-03	0	61	0	435159040	57	6436
2026-01-14 00:24:35.06	224.23	20.11	-43.1	-48.1	9.8	1.05e-02	0	61	0	438304768	57	6569
2026-01-14 00:24:37.08	224.07	19.86	-43.1	-48.2	9.7	1.06e-02	0	61	0	442499072	57	6593
2026-01-14 00:24:39.10	223.92	19.61	-43.1	-48.1	9.9	9.52e-03	0	61	0	445644800	57	6499
2026-01-14 00:24:41.12	223.76	19.36	-43.1	-48.1	9.9	8.46e-03	0	61	0	449839104	57	6496
2026-01-14 00:24:43.14	223.61	19.12	-42.9	-47.6	10.3	5.27e-03	0	61	0	454033408	57	6185
2026-01-14 00:24:45.16	223.46	18.88	-42.8	-47.3	10.6	3.84e-03	0	61	0	457179136	57	5979
2026-01-14 00:24:47.18	223.31	18.64	-42.6	-47.0	11.0	2.23e-03	0	61	0	461373440	57	5746
2026-01-14 00:24:49.20	223.16	18.40	-42.6	-46.9	11.1	1.81e-03	0	61	0	464519168	57	5673
2026-01-14 00:24:51.22	223.02	18.16	-42.6	-47.0	10.9	1.83e-03	0	61	0	468713472	57	5778
2026-01-14 00:24:53.24	222.88	17.93	-42.7	-47.1	10.8	2.44e-03	0	61	0	472907776	57	5826
2026-01-14 00:24:55.26	222.74	17.69	-42.8	-47.4	10.5	3.82e-03	0	61	0	476053504	57	6001
2026-01-14 00:24:57.28	222.61	17.46	-42.8	-47.6	10.3	4.93e-03	0	61	0	480247808	57	6138
2026-01-14 00:24:59.30	222.47	17.24	-42.9	-47.8	10.0	7.03e-03	0	61	0	484442112	57	6317
2026-01-14 00:25:01.31	222.34	17.01	-43.0	-48.0	9.8	8.34e-03	0	61	0	487587840	57	6446
2026-01-14 00:25:03.33	222.21	16.79	-43.0	-48.0	9.9	9.25e-03	0	61	0	491782144	57	6430
2026-01-14 00:25:05.35	222.08	16.56	-43.0	-48.0	9.8	9.04e-03	0	61	0	494927872	57	6449
2026-01-14 00:25:07.37	221.96	16.34	-43.0	-48.1	9.7	1.09e-02	0	61	0	499122176	57	6531
2026-01-14 00:25:09.39	221.83	16.12	-43.0	-48.0	9.8	1.07e-02	0	61	0	503316480	57	6449
2026-01-14 00:25:11.41	221.71	15.91	-43.0	-48.0	9.8	1.10e-02	0	61	0	506462208	57	6447
2026-01-14 00:25:13.42	221.59	15.69	-43.0	-48.1	9.7	1.20e-02	0	61	0	510656512	57	6532
2026-01-14 00:25:15.44	221.47	15.48	-43.1	-48.3	9.5	1.55e-02	0	61	0	513802240	57	6665
2026-01-14 00:25:17.46	221.35	15.27	-43.0	-48.2	9.5	1.28e-02	0	61	0	517996544	57	6619
2026-01-14 00:25:19.48	221.24	15.06	-43.1	-48.3	9.4	1.59e-02	0	61	0	522190848	57	6700
2026-01-14 00:25:21.50	221.13	14.85	-43.1	-48.4	9.3	1.84e-02	0	61	0	525336576	57	6791
2026-01-14 00:25:23.52	221.01	14.64	-43.1	-48.5	9.2	2.03e-02	0	61	0	529530880	57	6845
2026-01-14 00:25:25.54	220.90	14.44	-43.1	-48.5	9.2	2.19e-02	0	61	0	532676608	57	6809
2026-01-14 00:25:27.56	220.80	14.23	-43.1	-48.4	9.2	1.97e-02	0	61	0	536870912	57	6788
2026-01-14 00:25:29.58	220.69	14.03	-43.1	-48.4	9.3	1.83e-02	0	61	0	541065216	57	6750
2026-01-14 00:25:31.60	220.58	13.83	-43.1	-48.4	9.3	1.98e-02	0	61	0	544210944	57	6779
2026-01-14 00:25:33.62	220.48	13.63	-43.0	-48.3	9.3	1.93e-02	0	61	0	548405248	57	6680
2026-01-14 00:25:35.64	220.38	13.43	-43.0	-48.4	9.3	1.79e-02	0	61	0	552599552	57	6726
2026-01-14 00:25:37.66	220.27	13.24	-43.0	-48.3	9.3	1.74e-02	0	61	0	555745280	57	6675
2026-01-14 00:25:39.68	220.17	13.04	-43.0	-48.4	9.2	1.95e-02	0	61	0	559939584	57	6769
2026-01-14 00:25:41.70	220.08	12.85	-43.0	-48.4	9.2	1.98e-02	0	61	0	563085312	57	6748
2026-01-14 00:25:43.72	219.98	12.66	-43.0	-48.3	9.3	1.98e-02	0	61	0	567279616	57	6682
2026-01-14 00:25:45.73	219.88	12.47	-43.0	-48.3	9.3	1.93e-02	0	61	0	571473920	57	6675
2026-01-14 00:25:47.76	219.79	12.28	-43.0	-48.4	9.1	2.07e-02	0	61	0	574619648	57	6787
2026-01-14 00:25:49.77	219.69	12.09	-43.0	-48.5	9.0	2.24e-02	0	61	0	578813952	57	6848
2026-01-14 00:25:51.80	219.60	11.91	-43.1	-48.6	9.0	2.35e-02	0	61	0	581959680	57	6884
2026-01-14 00:25:53.81	219.51	11.72	-43.0	-48.5	9.0	2.60e-02	0	61	0	586153984	57	6833
2026-01-14 00:25:55.83	219.42	11.54	-43.1	-48.7	8.8	2.98e-02	0	61	0	590348288	57	6961
2026-01-14 00:25:57.85	219.33	11.36	-43.0	-48.6	8.8	2.87e-02	0	61	0	593494016	57	6958
2026-01-14 00:25:59.87	219.25	11.18	-43.1	-48.8	8.7	3.17e-02	0	61	0	597688320	57	7047
2026-01-14 00:26:01.89	219.16	11.00	-43.1	-48.7	8.7	3.64e-02	0	61	0	600834048	57	7022
2026-01-14 00:26:03.90	219.07	10.82	-43.0	-48.7	8.8	2.96e-02	0	61	0	605028352	57	6972
2026-01-14 00:26:05.92	218.99	10.64	-43.0	-48.7	8.8	3.31e-02	0	61	0	609222656	57	6975
2026-01-14 00:26:07.94	218.91	10.47	-43.0	-48.9	8.5	4.08e-02	0	61	0	612368384	57	7143
2026-01-14 00:26:09.96	218.83	10.29	-43.0	-48.9	8.4	4.64e-02	0	61	0	616562688	57	7202
2026-01-14 00:26:11.98	218.74	10.12	-43.0	-49.1	8.3	4.74e-02	0	61	0	620756992	57	7319
2026-01-14 00:26:14.00	218.66	9.95	-43.0	-49.1	8.3	4.68e-02	0	61	0	623902720	57	7292
2026-01-14 00:26:16.02	218.59	9.78	-43.0	-49.1	8.3	4.88e-02	0	61	0	628097024	57	7297
2026-01-14 00:26:18.04	218.51	9.61	-43.0	-49.1	8.2	5.50e-02	0	61	0	631242752	57	7330
2026-01-14 00:26:20.06	218.43	9.44	-43.0	-49.2	8.1	6.03e-02	0	61	0	635437056	57	7420
2026-01-14 00:26:22.08	218.35	9.27	-43.1	-49.4	7.9	6.65e-02	0	61	0	639631360	57	7592
2026-01-14 00:26:24.10	218.28	9.10	-43.1	-49.5	7.8	7.77e-02	0	61	0	642777088	57	7640
2026-01-14 00:26:26.12	218.20	8.94	-43.0	-49.3	7.9	7.85e-02	0	61	0	646971392	57	7533
2026-01-14 00:26:28.14	218.13	8.77	-43.0	-49.4	7.9	8.11e-02	0	61	0	650117120	57	7555
2026-01-14 00:26:30.16	218.06	8.61	-43.0	-49.4	7.7	8.09e-02	0	61	0	654311424	57	7628
2026-01-14 00:26:32.18	217.99	8.45	-43.0	-49.5	7.8	7.61e-02	0	61	0	658505728	57	7652
2026-01-14 00:26:34.19	217.92	8.28	-42.9	-49.4	7.8	8.69e-02	0	61	0	661651456	57	7598
2026-01-14 00:26:36.21	217.85	8.12	-42.9	-49.3	7.8	8.08e-02	0	61	0	665845760	57	7497
2026-01-14 00:26:38.23	217.78	7.96	-44.6	-58.8	3.8	1.16e+00	0	61	104	667942912	59	20038
2026-01-14 00:26:40.25	217.71	7.81	-45.0	-59.4	3.8	1.49e+00	0	62	104	667942912	60	20215
2026-01-14 00:26:42.27	217.64	7.65	-45.2	-59.6	3.8	1.49e+00	0	61	104	667942912	60	20691
2026-01-14 00:26:44.29	217.58	7.49	-45.3	-59.7	3.8	1.49e+00	0	61	104	667942912	61	19818
2026-01-14 00:26:46.32	217.51	7.33	-45.4	-59.7	3.8	1.49e+00	0	61	104	667942912	61	19826
2026-01-14 00:26:48.34	217.44	7.18	-45.3	-59.7	3.8	1.49e+00	0	61	104	667942912	61	19735
2026-01-14 00:26:50.36	217.38	7.03	-45.3	-59.7	3.8	1.49e+00	0	61	104	667942912	61	19678
2026-01-14 00:26:52.38	217.32	6.87	-45.3	-59.7	3.8	1.49e+00	0	61	104	667942912	61	19764
2026-01-14 00:26:54.40	217.25	6.72	-45.3	-59.7	3.8	1.49e+00	0	61	104	667942912	61	19719
2026-01-14 00:26:56.42	217.19	6.57	-45.3	-59.7	3.8	1.49e+00	0	61	104	667942912	61	19713
2026-01-14 00:26:58.44	217.13	6.42	-45.3	-59.7	3.8	1.49e+00	0	61	104	667942912	61	19662
2026-01-14 00:27:00.46	217.07	6.27	-45.3	-59.7	3.8	1.49e+00	0	61	104	667942912	61	19715
2026-01-14 00:27:02.48	217.01	6.12	-45.3	-59.7	3.8	1.49e+00	0	61	104	667942912	61	19680
2026-01-14 00:27:04.51	216.95	5.97	-45.3	-59.7	3.8	1.49e+00	0	61	104	667942912	61	19652
2026-01-14 00:27:06.53	216.89	5.82	-45.3	-59.7	3.8	1.49e+00	0	61	104	667942912	61	19675
2026-01-14 00:27:08.55	216.83	5.68	-45.2	-59.6	3.8	1.49e+00	0	61	104	667942912	61	19610
2026-01-14 00:27:10.57	216.77	5.53	-45.2	-59.6	3.8	1.49e+00	0	61	104	667942912	61	19609
2026-01-14 00:27:12.59	216.71	5.39	-45.2	-59.6	3.8	1.49e+00	0	61	104	667942912	61	19588
2026-01-14 00:27:14.61	216.66	5.24	-45.2	-59.6	3.8	1.49e+00	0	61	104	667942912	61	19607
2026-01-14 00:27:16.64	216.60	5.10	-45.2	-59.6	3.8	1.49e+00	0	61	104	667942912	61	19568
2026-01-14 00:27:18.66	216.55	4.95	-45.2	-59.6	3.8	1.49e+00	0	61	104	667942912	61	19595
2026-01-14 00:27:20.68	216.49	4.81	-45.2	-59.7	3.8	1.49e+00	0	61	104	667942912	61	19622
2026-01-14 00:27:22.70	216.44	4.67	-45.2	-59.6	3.8	1.49e+00	0	61	104	667942912	61	19570
2026-01-14 00:27:24.72	216.38	4.53	-45.2	-59.6	3.8	1.49e+00	0	61	104	667942912	61	19555
2026-01-14 00:27:26.74	216.33	4.39	-45.2	-59.6	3.8	1.49e+00	0	61	104	667942912	61	19523
2026-01-14 00:27:28.77	216.28	4.25	-45.2	-59.6	3.8	1.49e+00	0	61	104	667942912	61	19539
2026-01-14 00:27:30.79	216.23	4.11	-45.2	-59.6	3.8	1.49e+00	0	61	104	667942912	61	19487
2026-01-14 00:27:32.81	216.18	3.97	-45.2	-59.6	3.8	1.49e+00	0	61	104	667942912	61	19568
2026-01-14 00:27:34.83	216.12	3.84	-45.2	-59.6	3.8	1.49e+00	0	61	104	667942912	61	19559
2026-01-14 00:27:36.85	216.07	3.70	-45.2	-59.6	3.8	1.49e+00	0	61	104	667942912	61	19580
2026-01-14 00:27:38.88	216.02	3.56	-45.2	-59.6	3.8	1.49e+00	0	61	104	667942912	61	19506
2026-01-14 00:27:40.90	215.97	3.43	-45.2	-59.6	3.8	1.49e+00	0	62	104	667942912	61	19553
2026-01-14 00:27:42.92	215.93	3.30	-45.2	-59.6	3.8	1.49e+00	0	61	104	667942912	61	19550
2026-01-14 00:27:44.94	215.88	3.16	-45.2	-59.6	3.8	1.49e+00	0	61	104	667942912	61	19526
2026-01-14 00:27:46.97	215.83	3.03	-45.2	-59.6	3.8	1.49e+00	0	61	104	667942912	61	19588
2026-01-14 00:27:48.99	215.78	2.89	-45.2	-59.6	3.8	1.49e+00	0	61	104	667942912	61	19505
2026-01-14 00:27:51.01	215.73	2.76	-45.2	-59.6	3.8	1.49e+00	0	61	104	667942912	61	19488
2026-01-14 00:27:53.03	215.69	2.63	-45.2	-59.6	3.8	1.49e+00	0	61	104	667942912	61	19582
2026-01-14 00:27:55.05	215.64	2.50	-45.2	-59.6	3.8	1.49e+00	0	61	104	667942912	61	19477
2026-01-14 00:27:57.08	215.60	2.37	-45.2	-59.6	3.8	1.49e+00	0	61	104	667942912	61	19530
2026-01-14 00:27:59.10	215.55	2.24	-45.2	-59.6	3.8	1.49e+00	0	61	104	667942912	61	19455
2026-01-14 00:28:01.12	215.51	2.11	-45.2	-59.6	3.8	1.49e+00	0	61	104	667942912	61	19513

#Closed at: 2026-01-14 00:28:03
#Recorded file [667 MB]: D:/lorett/data/31039_260114_031952.dat