passes_logs/2026/01/14/R2.0S_Moscow/R2.0S_Moscow__20260114_104349_FENGYUN_3D_rec.log

#Pass ID: 20260114_104349_FENGYUN 3D
#Satellite: FENGYUN 3D
#Configuration: FENGYUN 3D
#almurnet v.1.7.20251203
#Start time: 2026-01-14 10:43:51

#Version: 2.2.20231116
#Station: R2.0S_Moscow
#Location: 37.707566 lon 55.798166 lat
#TLE: 1 43010U 17072A   26013.31211337  .00000452  00000+0  23563-3 0  9990
#TLE: 2 43010  98.9934 345.1024 0002270 111.0315 249.1103 14.19696845423017

#Time	Az	El	Level	Level2	SNR	BER	BlckErr	Temp	State	Recorded	gain1	gain2
2026-01-14 10:43:51.21	124.43	2.09	-19.2	-33.7	3.6	8.22e-01	0	51	0	0	13	15645
2026-01-14 10:43:55.24	124.23	2.34	-12.0	-26.5	3.8	8.45e-01	0	51	104	0	0	14525
2026-01-14 10:43:59.28	124.02	2.58	-16.2	-26.9	3.9	8.31e-01	0	52	104	0	1	14210
2026-01-14 10:44:03.32	123.81	2.83	-15.0	-28.8	3.6	8.41e-01	0	52	104	0	0	18809
2026-01-14 10:44:07.36	123.59	3.08	-16.0	-30.1	3.7	8.30e-01	0	52	104	0	6	15479
2026-01-14 10:44:11.40	123.38	3.33	-17.7	-29.5	3.6	8.31e-01	0	52	0	0	2	18277
2026-01-14 10:44:15.45	123.15	3.58	-20.3	-35.5	3.6	8.24e-01	0	53	104	0	11	21588
2026-01-14 10:44:19.49	122.93	3.84	-20.1	-33.5	3.9	8.26e-01	0	53	104	0	13	15242
2026-01-14 10:44:23.53	122.70	4.09	-21.1	-32.6	3.8	8.21e-01	0	53	104	0	8	18447
2026-01-14 10:44:27.57	122.46	4.35	-17.2	-30.8	3.8	8.19e-01	0	54	104	0	8	15007
2026-01-14 10:44:31.61	122.22	4.61	-20.4	-35.3	3.9	8.18e-01	0	54	104	0	9	23782
2026-01-14 10:44:35.65	121.98	4.88	-19.6	-33.4	3.6	8.24e-01	0	54	104	0	7	21419
2026-01-14 10:44:39.69	121.73	5.14	-14.7	-27.6	3.8	8.18e-01	0	54	104	0	4	13040
2026-01-14 10:44:43.73	121.48	5.41	-13.4	-31.0	3.6	8.23e-01	0	54	104	0	7	16165
2026-01-14 10:44:47.77	121.22	5.68	-13.7	-30.4	3.9	8.25e-01	0	55	104	0	10	12712
2026-01-14 10:44:51.80	120.96	5.95	-14.8	-28.2	3.8	8.19e-01	0	55	104	0	0	17588
2026-01-14 10:44:55.85	120.69	6.23	-20.6	-35.4	3.8	8.26e-01	0	55	104	0	13	19021
2026-01-14 10:44:59.89	120.41	6.50	-19.6	-33.7	3.8	8.19e-01	0	55	104	0	11	17682
2026-01-14 10:45:03.93	120.14	6.78	-15.7	-32.4	3.9	8.36e-01	0	55	104	0	8	18017
2026-01-14 10:45:07.97	119.85	7.06	-17.8	-32.4	3.6	8.26e-01	0	56	104	0	7	19078
2026-01-14 10:45:12.01	119.56	7.35	-21.4	-33.6	3.7	8.22e-01	0	56	104	0	9	19450
2026-01-14 10:45:16.05	119.26	7.63	-19.0	-31.6	4.0	8.34e-01	0	56	104	0	8	16494
2026-01-14 10:45:20.10	118.96	7.92	-16.1	-31.0	3.9	8.38e-01	0	56	104	0	2	21538
2026-01-14 10:45:24.14	118.65	8.21	-15.8	-29.1	3.9	8.46e-01	0	56	104	0	2	17356
2026-01-14 10:45:28.18	118.34	8.51	-21.3	-32.6	3.7	8.34e-01	0	56	104	0	9	17352
2026-01-14 10:45:32.22	118.02	8.80	-22.5	-35.5	4.1	8.36e-01	0	57	104	0	14	18123
2026-01-14 10:45:36.26	117.69	9.10	-21.5	-31.0	3.7	8.30e-01	0	57	104	0	10	13710
2026-01-14 10:45:40.30	117.35	9.40	-23.7	-35.6	4.2	8.31e-01	0	57	104	0	16	16411
2026-01-14 10:45:44.34	117.01	9.71	-21.8	-35.2	4.2	8.34e-01	0	57	104	0	18	13937
2026-01-14 10:45:48.38	116.66	10.02	-23.2	-35.8	4.0	8.35e-01	0	57	104	0	19	14086
2026-01-14 10:45:52.42	116.30	10.33	-27.2	-40.1	4.2	8.38e-01	0	57	104	0	23	18343
2026-01-14 10:45:56.46	115.94	10.64	-32.1	-43.9	4.2	8.40e-01	0	57	104	0	34	15174
2026-01-14 10:46:00.50	115.56	10.95	-18.7	-31.1	3.5	8.31e-01	0	57	104	0	9	14675
2026-01-14 10:46:04.54	115.18	11.27	-24.2	-35.6	4.8	8.41e-01	0	57	104	0	30	7298
2026-01-14 10:46:08.58	114.79	11.59	-32.1	-39.8	7.2	6.45e-01	0	58	0	0	33	9945
2026-01-14 10:46:12.61	114.39	11.92	-32.4	-41.3	5.7	5.76e-01	0	58	0	1048576	35	10563
2026-01-14 10:46:16.66	113.98	12.25	-35.1	-41.6	7.9	5.24e-01	0	58	0	7340032	38	9207
2026-01-14 10:46:20.70	113.56	12.58	-33.4	-41.4	8.0	3.10e-01	0	58	0	22020096	40	7998
2026-01-14 10:46:24.73	113.14	12.91	-38.1	-42.2	10.6	9.69e-02	0	58	0	39845888	46	6222
2026-01-14 10:46:28.77	112.70	13.24	-39.0	-41.9	11.6	9.17e-03	0	58	0	62914560	48	5365
2026-01-14 10:46:32.81	112.25	13.58	-38.9	-41.3	13.0	9.76e-04	0	58	0	84934656	48	5028
2026-01-14 10:46:36.84	111.79	13.92	-38.8	-41.3	13.2	1.30e-04	0	58	0	108003328	48	4989
2026-01-14 10:46:40.88	111.32	14.27	-38.3	-40.7	13.4	5.35e-04	0	58	0	131072000	47	4978
2026-01-14 10:46:44.92	110.84	14.62	-38.3	-40.6	13.8	3.35e-04	0	58	0	153092096	47	4919
2026-01-14 10:46:48.97	110.35	14.97	-38.4	-40.7	13.8	2.09e-04	0	58	0	176160768	47	4945
2026-01-14 10:46:53.00	109.84	15.32	-38.3	-40.6	13.9	2.91e-04	0	59	0	199229440	47	4906
2026-01-14 10:46:57.04	109.33	15.68	-38.3	-40.6	14.0	1.37e-05	0	59	0	221249536	47	4884
2026-01-14 10:47:01.08	108.80	16.04	-38.2	-40.4	14.2	1.83e-05	0	59	0	244318208	47	4782
2026-01-14 10:47:05.12	108.25	16.40	-38.0	-40.2	14.4	4.50e-06	0	59	0	267386880	47	4677
2026-01-14 10:47:09.16	107.70	16.77	-38.0	-40.1	14.4	3.54e-05	0	59	0	289406976	46	4888
2026-01-14 10:47:13.20	107.13	17.13	-37.9	-40.0	14.6	6.17e-05	0	59	0	312475648	46	4828
2026-01-14 10:47:17.23	106.54	17.50	-37.9	-40.0	14.5	6.80e-06	0	59	0	335544320	46	4835
2026-01-14 10:47:21.27	105.94	17.88	-37.8	-39.8	14.8	0.00e+00	0	59	0	357564416	46	4736
2026-01-14 10:47:25.31	105.33	18.25	-37.7	-39.6	15.1	1.10e-06	0	59	0	380633088	46	4633
2026-01-14 10:47:29.35	104.70	18.63	-37.5	-39.5	15.1	0.00e+00	0	59	0	403701760	46	4593
2026-01-14 10:47:33.39	104.05	19.01	-37.5	-39.4	15.3	1.10e-06	0	59	0	425721856	46	4513
2026-01-14 10:47:37.44	103.39	19.39	-37.5	-39.4	15.4	0.00e+00	0	59	0	448790528	46	4500
2026-01-14 10:47:41.48	102.71	19.77	-37.5	-39.4	15.3	0.00e+00	0	59	0	471859200	46	4538
2026-01-14 10:47:45.52	102.01	20.16	-37.6	-39.6	15.1	0.00e+00	0	59	0	493879296	46	4617
2026-01-14 10:47:49.56	101.29	20.54	-37.6	-39.5	15.2	1.10e-06	0	59	0	516947968	46	4580
2026-01-14 10:47:53.60	100.56	20.93	-37.4	-39.3	15.4	1.10e-06	0	59	0	540016640	46	4480
2026-01-14 10:47:57.63	99.81	21.32	-37.4	-39.3	15.4	0.00e+00	0	59	0	562036736	46	4478
2026-01-14 10:48:01.67	99.04	21.71	-37.2	-39.2	15.5	0.00e+00	0	59	0	585105408	46	4393
2026-01-14 10:48:05.71	98.25	22.09	-37.2	-39.0	15.7	0.00e+00	0	59	0	608174080	46	4338
2026-01-14 10:48:09.75	97.44	22.48	-37.1	-38.9	15.8	0.00e+00	0	60	0	630194176	46	4286
2026-01-14 10:48:13.79	96.60	22.87	-36.7	-38.5	16.3	0.00e+00	0	59	0	653262848	45	4310
2026-01-14 10:48:17.83	95.75	23.26	-37.0	-38.9	15.9	0.00e+00	0	59	0	676331520	45	4507
2026-01-14 10:48:21.86	94.88	23.64	-37.0	-38.8	15.9	0.00e+00	0	59	0	698351616	45	4465
2026-01-14 10:48:25.90	93.98	24.03	-36.7	-38.4	16.3	0.00e+00	0	60	0	721420288	45	4284
2026-01-14 10:48:29.94	93.06	24.41	-36.8	-38.6	16.1	0.00e+00	0	59	0	744488960	45	4360
2026-01-14 10:48:33.98	92.12	24.79	-36.5	-38.3	16.4	0.00e+00	0	59	0	766509056	45	4211
2026-01-14 10:48:38.02	91.15	25.17	-36.6	-38.3	16.4	0.00e+00	0	59	0	789577728	44	4464
2026-01-14 10:48:42.06	90.16	25.54	-36.8	-38.6	16.2	0.00e+00	0	60	0	812646400	44	4601
2026-01-14 10:48:46.10	89.15	25.91	-36.5	-38.2	16.6	0.00e+00	0	59	0	834666496	44	4421
2026-01-14 10:48:50.14	88.12	26.27	-36.7	-38.4	16.4	0.00e+00	0	60	0	857735168	44	4538
2026-01-14 10:48:54.18	87.06	26.63	-36.5	-38.2	16.6	0.00e+00	0	60	0	880803840	44	4413
2026-01-14 10:48:58.22	85.97	26.98	-36.2	-37.9	16.9	0.00e+00	0	60	0	902823936	44	4262
2026-01-14 10:49:02.26	84.87	27.32	-36.1	-37.7	17.1	0.00e+00	0	60	0	925892608	44	4169
2026-01-14 10:49:06.29	83.74	27.66	-36.2	-37.9	17.0	0.00e+00	0	60	0	948961280	44	4269
2026-01-14 10:49:10.33	82.58	27.99	-36.4	-38.1	16.7	0.00e+00	0	60	0	970981376	44	4381
2026-01-14 10:49:14.37	81.40	28.31	-36.3	-38.0	16.9	0.00e+00	0	60	0	994050048	44	4316
2026-01-14 10:49:18.41	80.20	28.61	-36.2	-37.9	17.0	0.00e+00	0	60	0	1017118720	44	4248
2026-01-14 10:49:22.45	78.98	28.91	-36.3	-37.9	17.0	0.00e+00	0	60	0	1039138816	44	4271
2026-01-14 10:49:26.49	77.73	29.19	-35.8	-37.4	17.4	0.00e+00	0	60	0	1062207488	43	4244
2026-01-14 10:49:30.53	76.46	29.47	-36.0	-37.6	17.1	0.00e+00	0	60	0	1085276160	43	4376
2026-01-14 10:49:34.57	75.17	29.72	-35.8	-37.3	17.4	0.00e+00	0	60	0	1107296256	43	4230
2026-01-14 10:49:38.60	73.86	29.97	-35.9	-37.5	17.3	0.00e+00	0	60	0	1130364928	43	4300
2026-01-14 10:49:42.64	72.53	30.20	-35.8	-37.4	17.4	0.00e+00	0	60	0	1153433600	43	4272
2026-01-14 10:49:46.68	71.19	30.41	-35.8	-37.3	17.4	0.00e+00	0	60	0	1175453696	43	4242
2026-01-14 10:49:50.73	69.82	30.61	-35.7	-37.3	17.5	0.00e+00	0	60	0	1198522368	43	4225
2026-01-14 10:49:54.76	68.44	30.79	-35.7	-37.3	17.5	0.00e+00	0	60	0	1221591040	43	4216
2026-01-14 10:49:58.81	67.04	30.95	-35.7	-37.3	17.6	0.00e+00	0	60	0	1243611136	43	4202
2026-01-14 10:50:02.84	65.63	31.09	-35.8	-37.3	17.5	0.00e+00	0	60	0	1266679808	43	4231
2026-01-14 10:50:06.88	64.21	31.22	-35.5	-37.1	17.8	0.00e+00	0	60	0	1289748480	43	4103
2026-01-14 10:50:10.92	62.78	31.32	-35.6	-37.2	17.7	0.00e+00	0	60	0	1311768576	43	4147
2026-01-14 10:50:14.97	61.34	31.41	-35.8	-37.3	17.5	0.00e+00	0	60	0	1334837248	43	4233
2026-01-14 10:50:19.00	59.90	31.47	-35.6	-37.1	17.7	0.00e+00	0	60	0	1357905920	43	4132
2026-01-14 10:50:23.04	58.45	31.51	-35.7	-37.3	17.5	0.00e+00	0	60	0	1379926016	43	4223
2026-01-14 10:50:27.08	56.99	31.54	-35.7	-37.2	17.6	0.00e+00	0	60	0	1402994688	43	4181
2026-01-14 10:50:31.12	55.54	31.54	-35.9	-37.5	17.4	0.00e+00	0	60	0	1426063360	43	4301
2026-01-14 10:50:35.16	54.09	31.52	-35.8	-37.3	17.5	0.00e+00	0	60	0	1449132032	43	4229
2026-01-14 10:50:39.20	52.64	31.48	-35.4	-36.8	18.0	0.00e+00	0	60	0	1471152128	42	4235
2026-01-14 10:50:43.24	51.19	31.42	-35.7	-37.2	17.6	0.00e+00	0	60	0	1494220800	42	4437
2026-01-14 10:50:47.28	49.75	31.34	-36.1	-37.7	17.2	0.00e+00	0	60	0	1516240896	42	4687
2026-01-14 10:50:51.32	48.32	31.24	-36.0	-37.6	17.2	0.00e+00	0	60	0	1539309568	43	4381
2026-01-14 10:50:55.36	46.90	31.12	-35.5	-37.0	17.9	0.00e+00	0	60	0	1562378240	43	4082
2026-01-14 10:50:59.40	45.49	30.98	-35.6	-37.1	17.8	0.00e+00	0	60	0	1584398336	42	4355
2026-01-14 10:51:03.43	44.10	30.82	-35.7	-37.3	17.6	0.00e+00	0	60	0	1607467008	42	4461
2026-01-14 10:51:07.47	42.71	30.65	-36.1	-37.5	17.7	0.00e+00	0	60	0	1630535680	42	4591
2026-01-14 10:51:11.51	41.35	30.46	-35.9	-37.3	17.9	0.00e+00	0	60	0	1653604352	42	4473
2026-01-14 10:51:15.56	39.99	30.25	-36.0	-37.4	17.8	0.00e+00	0	60	0	1675624448	42	4514
2026-01-14 10:51:19.59	38.67	30.02	-36.0	-37.4	17.8	0.00e+00	0	60	0	1698693120	42	4525
2026-01-14 10:51:23.63	37.35	29.78	-36.3	-37.7	17.4	0.00e+00	0	60	0	1720713216	43	4441
2026-01-14 10:51:27.67	36.06	29.52	-36.2	-37.6	17.6	0.00e+00	0	60	0	1743781888	43	4390
2026-01-14 10:51:31.71	34.79	29.26	-36.1	-37.5	17.7	0.00e+00	0	60	0	1766850560	43	4337
2026-01-14 10:51:35.75	33.54	28.97	-36.2	-37.7	17.5	0.00e+00	0	60	0	1788870656	43	4399
2026-01-14 10:51:39.79	32.32	28.68	-36.0	-37.4	17.8	0.00e+00	0	60	0	1811939328	43	4267
2026-01-14 10:51:43.83	31.11	28.38	-36.2	-37.7	17.5	0.00e+00	0	60	0	1835008000	43	4419
2026-01-14 10:51:47.87	29.93	28.06	-36.3	-37.7	17.5	0.00e+00	0	60	0	1858076672	43	4420
2026-01-14 10:51:51.91	28.78	27.74	-36.3	-37.8	17.4	0.00e+00	0	60	0	1880096768	43	4476
2026-01-14 10:51:55.95	27.65	27.40	-36.4	-37.9	17.3	0.00e+00	0	60	0	1903165440	43	4497
2026-01-14 10:51:59.99	26.54	27.06	-36.4	-37.9	17.2	0.00e+00	0	60	0	1925185536	43	4540
2026-01-14 10:52:04.03	25.45	26.71	-36.5	-38.0	17.1	0.00e+00	0	60	0	1948254208	43	4564
2026-01-14 10:52:08.06	24.39	26.36	-36.5	-38.1	17.1	0.00e+00	0	60	0	1971322880	43	4601
2026-01-14 10:52:12.10	23.36	26.00	-36.5	-38.0	17.1	0.00e+00	0	60	0	1993342976	43	4588
2026-01-14 10:52:16.15	22.34	25.63	-36.6	-38.1	17.0	0.00e+00	0	60	0	2016411648	43	4608
2026-01-14 10:52:20.19	21.35	25.26	-36.4	-37.9	17.2	0.00e+00	0	60	0	2039480320	43	4506
2026-01-14 10:52:24.22	20.39	24.89	-37.0	-38.6	16.6	0.00e+00	0	60	0	2062548992	44	4631
2026-01-14 10:52:28.26	19.45	24.51	-37.0	-38.6	16.7	0.00e+00	0	60	0	2084569088	44	4609
2026-01-14 10:52:32.30	18.53	24.13	-36.9	-38.4	16.8	0.00e+00	0	60	0	2107637760	44	4545
2026-01-14 10:52:36.34	17.63	23.75	-37.1	-38.7	16.5	0.00e+00	0	60	0	2129657856	44	4690
2026-01-14 10:52:40.38	16.75	23.36	-37.0	-38.6	16.6	0.00e+00	0	60	0	2152726528	44	4621
2026-01-14 10:52:44.41	15.90	22.98	-37.1	-38.7	16.5	0.00e+00	0	60	0	2175795200	44	4704
2026-01-14 10:52:48.45	15.07	22.59	-37.2	-38.8	16.4	0.00e+00	0	60	0	2197815296	44	4733
2026-01-14 10:52:52.49	14.26	22.21	-37.0	-38.6	16.6	0.00e+00	0	60	0	2220883968	44	4619
2026-01-14 10:52:56.53	13.46	21.82	-37.1	-38.7	16.5	0.00e+00	0	60	0	2243952640	44	4679
2026-01-14 10:53:00.57	12.69	21.43	-37.1	-38.7	16.4	0.00e+00	0	60	0	2267021312	44	4658
2026-01-14 10:53:04.61	11.94	21.04	-37.2	-38.9	16.2	0.00e+00	0	60	0	2289041408	45	4509
2026-01-14 10:53:08.65	11.21	20.66	-37.3	-39.0	16.1	0.00e+00	0	60	0	2312110080	45	4560
2026-01-14 10:53:12.69	10.49	20.27	-37.3	-39.0	16.0	0.00e+00	0	60	0	2334130176	45	4579
2026-01-14 10:53:16.73	9.79	19.89	-37.4	-39.1	15.8	0.00e+00	0	60	0	2357198848	45	4651
2026-01-14 10:53:20.78	9.11	19.51	-37.6	-39.3	15.6	0.00e+00	0	60	0	2380267520	45	4739
2026-01-14 10:53:24.82	8.45	19.13	-37.6	-39.4	15.6	0.00e+00	0	61	0	2403336192	45	4760
2026-01-14 10:53:28.85	7.81	18.75	-37.6	-39.3	15.5	0.00e+00	0	60	0	2425356288	45	4756
2026-01-14 10:53:32.90	7.17	18.37	-37.6	-39.4	15.4	0.00e+00	0	61	0	2448424960	45	4771
2026-01-14 10:53:36.93	6.56	18.00	-37.9	-39.7	15.0	0.00e+00	0	60	0	2470445056	46	4700
2026-01-14 10:53:40.97	5.96	17.63	-37.8	-39.7	15.0	0.00e+00	0	60	0	2493513728	46	4686
2026-01-14 10:53:45.01	5.38	17.26	-38.1	-40.0	14.6	1.10e-06	0	60	0	2516582400	46	4864
2026-01-14 10:53:49.04	4.81	16.89	-38.0	-40.0	14.5	0.00e+00	0	60	0	2538602496	46	4831
2026-01-14 10:53:53.08	4.26	16.53	-37.9	-39.9	14.5	0.00e+00	0	60	0	2561671168	46	4792
2026-01-14 10:53:57.12	3.71	16.17	-38.2	-40.3	14.0	3.40e-06	0	60	0	2584739840	46	5022
2026-01-14 10:54:01.15	3.19	15.81	-38.2	-40.3	13.9	3.40e-06	0	61	0	2606759936	47	4736
2026-01-14 10:54:05.19	2.67	15.45	-38.1	-40.3	13.8	2.20e-06	0	60	0	2629828608	47	4714
2026-01-14 10:54:09.23	2.17	15.10	-38.3	-40.6	13.1	1.14e-05	0	61	0	2652897280	47	4895
2026-01-14 10:54:13.27	1.67	14.75	-38.2	-40.6	12.7	5.49e-05	0	60	0	2674917376	47	4912
2026-01-14 10:54:17.31	1.19	14.40	-38.5	-41.1	11.9	2.10e-04	0	60	0	2697986048	47	5210
2026-01-14 10:54:21.35	0.73	14.06	-37.9	-40.4	12.5	9.04e-05	0	60	0	2721054720	47	4806
2026-01-14 10:54:25.39	0.27	13.72	-38.0	-40.8	11.9	2.41e-04	0	60	0	2743074816	47	5018
2026-01-14 10:54:29.42	359.82	13.38	-39.8	-44.0	8.4	2.64e-02	0	61	0	2766143488	50	6126
2026-01-14 10:54:33.46	359.39	13.04	-40.7	-48.0	4.8	7.61e-01	0	60	0	2780823552	52	8591
2026-01-14 10:54:37.50	358.96	12.71	-40.9	-50.3	3.9	8.42e-01	0	61	104	2780823552	52	11270
2026-01-14 10:54:41.54	358.54	12.38	-40.9	-52.0	3.8	8.45e-01	0	60	104	2780823552	52	13609
2026-01-14 10:54:45.58	358.14	12.05	-40.6	-51.8	3.8	8.45e-01	0	60	104	2780823552	52	13263
2026-01-14 10:54:49.61	357.74	11.73	-40.5	-51.5	3.8	8.47e-01	0	60	104	2780823552	52	12941
2026-01-14 10:54:53.64	357.35	11.41	-40.2	-52.1	3.8	8.46e-01	0	61	104	2780823552	52	13759
2026-01-14 10:54:57.68	356.97	11.09	-40.1	-51.9	3.8	8.47e-01	0	61	104	2780823552	51	14355
2026-01-14 10:55:01.71	356.60	10.78	-39.6	-51.7	3.8	8.46e-01	0	60	104	2780823552	51	13980
2026-01-14 10:55:05.75	356.24	10.47	-39.9	-51.8	3.8	8.46e-01	0	61	104	2780823552	51	14102
2026-01-14 10:55:09.79	355.88	10.16	-39.8	-51.7	3.8	8.47e-01	0	61	104	2780823552	51	13933
2026-01-14 10:55:13.83	355.54	9.85	-39.8	-51.7	3.8	8.46e-01	0	61	104	2780823552	51	13987
2026-01-14 10:55:17.86	355.20	9.55	-40.0	-51.8	3.8	8.45e-01	0	61	104	2780823552	51	14164
2026-01-14 10:55:21.90	354.86	9.24	-39.8	-51.8	3.8	8.47e-01	0	61	104	2780823552	51	14108
2026-01-14 10:55:25.94	354.54	8.95	-40.0	-51.8	3.8	8.46e-01	0	60	104	2780823552	51	14149
2026-01-14 10:55:29.98	354.22	8.65	-40.1	-51.8	3.8	8.46e-01	0	60	104	2780823552	51	14185
2026-01-14 10:55:34.01	353.91	8.36	-40.0	-51.8	3.8	8.46e-01	0	61	104	2780823552	51	14108
2026-01-14 10:55:38.05	353.60	8.07	-40.1	-51.8	3.8	8.46e-01	0	60	104	2780823552	51	14100
2026-01-14 10:55:42.09	353.30	7.78	-44.7	-56.4	3.8	8.47e-01	0	61	104	2780823552	60	14347
2026-01-14 10:55:46.13	353.01	7.49	-45.2	-56.9	3.8	8.46e-01	0	61	104	2780823552	61	14210
2026-01-14 10:55:50.17	352.72	7.21	-45.2	-56.9	3.8	8.45e-01	0	61	104	2780823552	61	14248
2026-01-14 10:55:54.20	352.44	6.93	-45.2	-56.8	3.8	8.46e-01	0	61	104	2780823552	60	14914
2026-01-14 10:55:58.24	352.16	6.65	-45.1	-56.7	3.8	8.46e-01	0	61	104	2780823552	60	14764
2026-01-14 10:56:02.28	351.89	6.37	-45.1	-56.7	3.8	8.46e-01	0	61	104	2780823552	60	14723
2026-01-14 10:56:06.32	351.63	6.10	-45.1	-56.7	3.8	8.46e-01	0	61	104	2780823552	60	14750
2026-01-14 10:56:10.37	351.37	5.83	-45.1	-56.7	3.8	8.47e-01	0	61	104	2780823552	60	14760
2026-01-14 10:56:14.40	351.11	5.56	-45.1	-56.7	3.8	8.46e-01	0	60	104	2780823552	60	14773
2026-01-14 10:56:18.44	350.86	5.29	-45.1	-56.7	3.8	8.46e-01	0	60	104	2780823552	60	14813
2026-01-14 10:56:22.49	350.62	5.02	-45.1	-56.7	3.8	8.46e-01	0	61	104	2780823552	60	14750
2026-01-14 10:56:26.53	350.38	4.76	-45.1	-56.7	3.8	8.45e-01	0	61	104	2780823552	60	14797
2026-01-14 10:56:30.57	350.14	4.50	-45.1	-56.7	3.8	8.46e-01	0	61	104	2780823552	60	14739
2026-01-14 10:56:34.61	349.91	4.24	-45.0	-56.7	3.8	8.45e-01	0	61	104	2780823552	60	14741
2026-01-14 10:56:38.65	349.68	3.98	-45.0	-56.6	3.8	8.45e-01	0	61	104	2780823552	60	14613
2026-01-14 10:56:42.69	349.46	3.73	-45.1	-56.7	3.8	8.46e-01	0	61	104	2780823552	60	14745
2026-01-14 10:56:46.73	349.24	3.48	-45.1	-56.6	3.8	8.46e-01	0	61	104	2780823552	60	14679
2026-01-14 10:56:50.77	349.03	3.23	-45.1	-56.6	3.8	8.46e-01	0	61	104	2780823552	60	14679
2026-01-14 10:56:54.81	348.82	2.98	-45.1	-56.6	3.8	8.47e-01	0	61	104	2780823552	60	14669
2026-01-14 10:56:58.85	348.61	2.73	-45.0	-56.7	3.8	8.46e-01	0	61	104	2780823552	60	14734
2026-01-14 10:57:02.90	348.41	2.48	-45.0	-56.7	3.8	8.46e-01	0	61	104	2780823552	60	14712
2026-01-14 10:57:06.94	348.21	2.24	-45.0	-56.7	3.8	8.46e-01	0	61	104	2780823552	60	14713
2026-01-14 10:57:10.97	348.01	2.00	-45.0	-56.7	3.8	8.47e-01	0	61	104	2780823552	60	14711

#Closed at: 2026-01-14 10:57:11
#Recorded file [2780 MB]: D:/lorett/data/31039_260114_134351.dat