passes_logs/2026/01/14/R2.0S_Moscow/R2.0S_Moscow__20260114_122315_FENGYUN_3D_rec.log

#Pass ID: 20260114_122315_FENGYUN 3D
#Satellite: FENGYUN 3D
#Configuration: FENGYUN 3D
#almurnet v.1.7.20251203
#Start time: 2026-01-14 12:23:16

#Version: 2.2.20231116
#Station: R2.0S_Moscow
#Location: 37.707566 lon 55.798166 lat
#TLE: 1 43010U 17072A   26013.31211337  .00000452  00000+0  23563-3 0  9990
#TLE: 2 43010  98.9934 345.1024 0002270 111.0315 249.1103 14.19696845423017

#Time	Az	El	Level	Level2	SNR	BER	BlckErr	Temp	State	Recorded	gain1	gain2
2026-01-14 12:23:16.25	172.86	2.04	-42.7	-54.3	3.8	8.46e-01	0	50	0	0	57	13299
2026-01-14 12:23:20.29	172.94	2.29	-42.7	-54.3	3.8	8.46e-01	0	51	104	0	57	13325
2026-01-14 12:23:24.33	173.04	2.55	-42.7	-54.3	3.8	8.47e-01	0	51	104	0	57	13330
2026-01-14 12:23:28.37	173.13	2.82	-42.7	-54.3	3.8	8.46e-01	0	51	104	0	57	13311
2026-01-14 12:23:32.40	173.22	3.08	-42.7	-54.3	3.8	8.46e-01	0	51	104	0	57	13296
2026-01-14 12:23:36.44	173.32	3.35	-42.7	-54.3	3.8	8.46e-01	0	52	104	0	57	13270
2026-01-14 12:23:40.48	173.41	3.62	-42.7	-54.3	3.8	8.45e-01	0	52	104	0	57	13299
2026-01-14 12:23:44.51	173.51	3.89	-42.7	-54.2	3.8	8.46e-01	0	52	104	0	57	13211
2026-01-14 12:23:48.55	173.61	4.17	-42.7	-54.2	3.8	8.45e-01	0	52	104	0	57	13141
2026-01-14 12:23:52.59	173.71	4.45	-42.6	-53.8	3.8	8.47e-01	0	53	104	0	57	12644
2026-01-14 12:23:56.62	173.82	4.73	-42.6	-53.5	3.8	8.47e-01	0	53	104	0	57	12201
2026-01-14 12:24:00.66	173.92	5.01	-42.6	-53.4	3.8	8.48e-01	0	53	104	0	57	12063
2026-01-14 12:24:04.70	174.03	5.30	-42.4	-52.1	3.8	8.45e-01	0	53	104	0	56	10924
2026-01-14 12:24:08.74	174.14	5.59	-42.4	-51.5	4.0	8.44e-01	0	53	104	0	56	10281
2026-01-14 12:24:12.78	174.25	5.89	-42.4	-52.0	3.8	8.43e-01	0	54	104	0	56	10811
2026-01-14 12:24:16.82	174.36	6.18	-42.4	-51.6	4.0	8.44e-01	0	54	104	0	56	10393
2026-01-14 12:24:20.87	174.48	6.48	-42.3	-51.5	4.0	8.42e-01	0	54	104	0	56	10241
2026-01-14 12:24:24.91	174.59	6.79	-42.1	-50.0	4.4	8.28e-01	0	54	0	0	56	8590
2026-01-14 12:24:28.95	174.71	7.10	-41.2	-46.9	6.1	3.87e-01	0	54	0	3145728	54	6754
2026-01-14 12:24:33.00	174.84	7.41	-40.4	-44.8	8.0	8.20e-02	0	55	0	26214400	52	5950
2026-01-14 12:24:37.04	174.96	7.72	-39.9	-43.8	9.1	2.97e-02	0	55	0	48234496	51	5608
2026-01-14 12:24:41.09	175.09	8.04	-40.0	-43.8	9.0	3.02e-02	0	55	0	71303168	51	5654
2026-01-14 12:24:45.12	175.22	8.36	-41.6	-48.5	4.9	7.49e-01	0	55	0	85983232	54	8132
2026-01-14 12:24:49.16	175.35	8.69	-39.1	-41.9	11.7	9.27e-04	0	55	0	108003328	50	4793
2026-01-14 12:24:53.20	175.48	9.02	-39.3	-42.1	11.7	8.10e-04	0	56	0	130023424	50	4884
2026-01-14 12:24:57.24	175.62	9.36	-39.2	-41.9	12.0	5.54e-04	0	56	0	153092096	50	4792
2026-01-14 12:25:01.28	175.76	9.70	-39.1	-41.7	12.4	2.06e-04	0	56	0	175112192	50	4665
2026-01-14 12:25:05.32	175.91	10.04	-39.2	-41.8	12.4	2.48e-04	0	56	0	198180864	50	4729
2026-01-14 12:25:09.36	176.05	10.39	-39.1	-41.6	12.6	1.44e-04	0	56	0	221249536	50	4651
2026-01-14 12:25:13.40	176.20	10.75	-39.2	-41.7	12.7	1.06e-04	0	56	0	243269632	50	4672
2026-01-14 12:25:17.44	176.36	11.11	-39.2	-41.7	12.7	1.23e-04	0	56	0	266338304	50	4686
2026-01-14 12:25:21.48	176.51	11.47	-39.3	-41.8	12.7	1.23e-04	0	56	0	289406976	50	4722
2026-01-14 12:25:25.52	176.67	11.84	-39.3	-41.8	12.7	1.19e-04	0	56	0	312475648	50	4725
2026-01-14 12:25:29.56	176.84	12.21	-39.2	-41.7	12.8	1.11e-04	0	56	0	334495744	50	4694
2026-01-14 12:25:33.60	177.01	12.60	-39.2	-41.7	12.9	7.20e-05	0	56	0	357564416	50	4661
2026-01-14 12:25:37.64	177.18	12.98	-39.1	-41.5	13.1	3.89e-05	0	57	0	379584512	50	4563
2026-01-14 12:25:41.68	177.36	13.38	-39.0	-41.4	13.2	3.77e-05	0	57	0	402653184	50	4516
2026-01-14 12:25:45.73	177.54	13.78	-38.9	-41.2	13.4	3.31e-05	0	57	0	425721856	49	4694
2026-01-14 12:25:49.77	177.72	14.18	-38.8	-41.1	13.6	1.14e-05	0	57	0	448790528	49	4603
2026-01-14 12:25:53.81	177.92	14.59	-38.6	-40.8	13.9	5.70e-06	0	57	0	470810624	49	4478
2026-01-14 12:25:57.85	178.11	15.01	-38.4	-40.5	14.2	2.20e-06	0	57	0	493879296	48	4596
2026-01-14 12:26:01.89	178.31	15.44	-38.2	-40.2	14.5	1.10e-06	0	57	0	516947968	48	4416
2026-01-14 12:26:05.93	178.52	15.87	-38.0	-40.0	14.8	1.10e-06	0	57	0	538968064	48	4309
2026-01-14 12:26:09.97	178.73	16.31	-37.9	-39.9	14.8	0.00e+00	0	57	0	562036736	47	4494
2026-01-14 12:26:14.01	178.95	16.76	-37.8	-39.8	14.9	0.00e+00	0	57	0	585105408	47	4456
2026-01-14 12:26:18.05	179.18	17.22	-37.7	-39.6	15.0	0.00e+00	0	57	0	607125504	47	4390
2026-01-14 12:26:22.09	179.41	17.68	-37.6	-39.6	15.1	0.00e+00	0	58	0	630194176	47	4354
2026-01-14 12:26:26.13	179.65	18.16	-37.6	-39.5	15.2	0.00e+00	0	57	0	653262848	47	4329
2026-01-14 12:26:30.17	179.89	18.64	-37.6	-39.6	15.2	1.10e-06	0	58	0	675282944	47	4344
2026-01-14 12:26:34.22	180.14	19.13	-37.6	-39.5	15.2	0.00e+00	0	58	0	698351616	47	4334
2026-01-14 12:26:38.26	180.41	19.63	-37.4	-39.3	15.5	0.00e+00	0	58	0	721420288	46	4462
2026-01-14 12:26:42.30	180.68	20.14	-37.3	-39.2	15.6	0.00e+00	0	58	0	743440384	46	4423
2026-01-14 12:26:46.33	180.95	20.66	-37.4	-39.2	15.5	0.00e+00	0	58	0	766509056	46	4435
2026-01-14 12:26:50.37	181.24	21.19	-37.2	-39.0	15.8	0.00e+00	0	58	0	789577728	46	4307
2026-01-14 12:26:54.41	181.54	21.74	-37.1	-38.9	15.9	0.00e+00	0	58	0	811597824	46	4270
2026-01-14 12:26:58.45	181.84	22.29	-37.0	-38.8	16.0	0.00e+00	0	58	0	834666496	46	4233
2026-01-14 12:27:02.49	182.16	22.85	-36.8	-38.6	16.3	0.00e+00	0	58	0	857735168	45	4346
2026-01-14 12:27:06.53	182.49	23.43	-36.7	-38.5	16.4	0.00e+00	0	58	0	879755264	45	4298
2026-01-14 12:27:10.57	182.83	24.02	-36.8	-38.5	16.4	0.00e+00	0	58	0	902823936	45	4306
2026-01-14 12:27:14.60	183.18	24.62	-36.7	-38.4	16.5	0.00e+00	0	58	0	925892608	45	4256
2026-01-14 12:27:18.64	183.55	25.23	-36.7	-38.4	16.4	0.00e+00	0	58	0	947912704	45	4275
2026-01-14 12:27:22.68	183.93	25.86	-36.6	-38.3	16.6	0.00e+00	0	58	0	970981376	45	4233
2026-01-14 12:27:26.72	184.33	26.50	-36.6	-38.2	16.7	0.00e+00	0	58	0	994050048	45	4179
2026-01-14 12:27:30.76	184.74	27.15	-36.6	-38.2	16.7	0.00e+00	0	58	0	1016070144	45	4174
2026-01-14 12:27:34.80	185.17	27.82	-36.3	-38.0	17.0	0.00e+00	0	58	0	1039138816	44	4298
2026-01-14 12:27:38.84	185.62	28.51	-36.5	-38.1	16.8	0.00e+00	0	59	0	1062207488	44	4378
2026-01-14 12:27:42.88	186.08	29.21	-36.7	-38.4	16.5	0.00e+00	0	58	0	1084227584	44	4542
2026-01-14 12:27:46.92	186.57	29.92	-36.5	-38.2	16.7	0.00e+00	0	58	0	1107296256	44	4419
2026-01-14 12:27:50.96	187.07	30.65	-36.5	-38.2	16.8	0.00e+00	0	59	0	1130364928	44	4401
2026-01-14 12:27:55.01	187.61	31.40	-36.4	-38.1	16.9	0.00e+00	0	58	0	1153433600	44	4347
2026-01-14 12:27:59.05	188.16	32.17	-36.3	-37.9	17.0	0.00e+00	0	59	0	1175453696	44	4281
2026-01-14 12:28:03.09	188.74	32.95	-36.0	-37.5	17.4	0.00e+00	0	58	0	1198522368	44	4095
2026-01-14 12:28:07.13	189.35	33.75	-36.1	-37.7	17.1	0.00e+00	0	58	0	1220542464	43	4417
2026-01-14 12:28:11.18	189.99	34.57	-35.9	-37.5	17.3	0.00e+00	0	59	0	1243611136	43	4320
2026-01-14 12:28:15.22	190.67	35.40	-35.8	-37.4	17.4	0.00e+00	0	59	0	1266679808	43	4253
2026-01-14 12:28:19.26	191.37	36.26	-35.7	-37.3	17.5	0.00e+00	0	59	0	1289748480	43	4208
2026-01-14 12:28:23.30	192.12	37.13	-35.8	-37.4	17.5	0.00e+00	0	59	0	1311768576	43	4251
2026-01-14 12:28:27.34	192.90	38.02	-35.8	-37.3	17.5	0.00e+00	0	59	0	1334837248	43	4226
2026-01-14 12:28:31.38	193.73	38.92	-35.7	-37.2	17.7	0.00e+00	0	59	0	1357905920	43	4162
2026-01-14 12:28:35.42	194.61	39.85	-36.0	-37.6	17.3	0.00e+00	0	59	0	1379926016	43	4348
2026-01-14 12:28:39.46	195.53	40.79	-36.1	-37.6	17.3	0.00e+00	0	58	0	1402994688	43	4379
2026-01-14 12:28:43.50	196.52	41.75	-36.1	-37.7	17.3	0.00e+00	0	59	0	1425014784	43	4397
2026-01-14 12:28:47.54	197.56	42.72	-36.3	-37.9	17.0	0.00e+00	0	59	0	1448083456	43	4509
2026-01-14 12:28:51.59	198.66	43.71	-36.2	-37.8	17.2	0.00e+00	0	59	0	1471152128	43	4448
2026-01-14 12:28:55.62	199.84	44.71	-36.2	-37.8	17.1	0.00e+00	0	59	0	1494220800	43	4472
2026-01-14 12:28:59.66	201.09	45.72	-36.2	-37.7	17.2	0.00e+00	0	59	0	1516240896	43	4429
2026-01-14 12:29:03.70	202.42	46.74	-36.3	-37.9	17.1	0.00e+00	0	59	0	1539309568	43	4520
2026-01-14 12:29:07.74	203.84	47.78	-36.9	-38.6	16.5	0.00e+00	0	59	0	1562378240	44	4624
2026-01-14 12:29:11.79	205.36	48.81	-36.5	-38.1	17.1	0.00e+00	0	59	0	1584398336	44	4379
2026-01-14 12:29:15.83	206.99	49.85	-36.7	-38.4	16.7	0.00e+00	0	59	0	1607467008	44	4534
2026-01-14 12:29:19.87	208.73	50.89	-36.9	-38.5	16.7	0.00e+00	0	59	0	1630535680	44	4575
2026-01-14 12:29:23.91	210.58	51.92	-36.8	-38.4	16.8	0.00e+00	0	59	0	1652555776	44	4515
2026-01-14 12:29:27.96	212.58	52.94	-37.2	-39.0	16.2	0.00e+00	0	59	0	1675624448	45	4547
2026-01-14 12:29:31.99	214.71	53.94	-37.1	-38.8	16.3	0.00e+00	0	59	0	1698693120	45	4468
2026-01-14 12:29:36.03	216.99	54.92	-37.0	-38.7	16.5	0.00e+00	0	59	0	1720713216	45	4415
2026-01-14 12:29:40.07	219.43	55.86	-37.1	-39.1	16.0	0.00e+00	0	59	0	1743781888	45	4613
2026-01-14 12:29:44.11	222.03	56.78	-37.1	-38.8	16.3	0.00e+00	0	59	0	1766850560	45	4472
2026-01-14 12:29:48.15	224.81	57.64	-36.9	-38.5	16.7	0.00e+00	0	59	0	1788870656	45	4303
2026-01-14 12:29:52.19	227.77	58.45	-36.8	-38.5	16.6	0.00e+00	0	59	0	1811939328	45	4307
2026-01-14 12:29:56.23	230.90	59.20	-36.6	-38.2	16.9	0.00e+00	0	59	0	1835008000	44	4417
2026-01-14 12:30:00.26	234.20	59.87	-36.5	-38.1	16.9	0.00e+00	0	59	0	1857028096	44	4375
2026-01-14 12:30:04.30	237.67	60.46	-36.2	-37.8	17.3	0.00e+00	0	59	0	1880096768	44	4207
2026-01-14 12:30:08.35	241.30	60.96	-36.2	-37.7	17.3	0.00e+00	0	59	0	1903165440	44	4190
2026-01-14 12:30:12.38	245.04	61.36	-36.2	-37.7	17.3	0.00e+00	0	59	0	1925185536	44	4190
2026-01-14 12:30:16.42	248.89	61.65	-35.8	-37.3	17.6	0.00e+00	0	59	0	1948254208	43	4201
2026-01-14 12:30:20.46	252.82	61.83	-35.8	-37.4	17.5	0.00e+00	0	59	0	1971322880	43	4250
2026-01-14 12:30:24.50	256.79	61.89	-35.8	-37.3	17.6	0.00e+00	0	59	0	1993342976	43	4197
2026-01-14 12:30:28.54	260.76	61.84	-35.8	-37.3	17.6	0.00e+00	0	59	0	2016411648	43	4224
2026-01-14 12:30:32.59	264.70	61.67	-35.8	-37.3	17.6	0.00e+00	0	59	0	2039480320	43	4208
2026-01-14 12:30:36.62	268.55	61.39	-36.0	-37.5	17.4	0.00e+00	0	59	0	2061500416	43	4320
2026-01-14 12:30:40.66	272.31	61.00	-35.8	-37.2	17.7	0.00e+00	0	59	0	2084569088	43	4186
2026-01-14 12:30:44.70	275.94	60.51	-36.3	-37.9	17.0	0.00e+00	0	59	0	2107637760	43	4495
2026-01-14 12:30:48.74	279.42	59.93	-36.3	-37.8	17.1	0.00e+00	0	59	0	2129657856	43	4475
2026-01-14 12:30:52.78	282.74	59.26	-36.7	-38.4	16.6	0.00e+00	0	59	0	2152726528	43	4769
2026-01-14 12:30:56.82	285.88	58.53	-36.7	-38.3	16.8	0.00e+00	0	59	0	2175795200	44	4468
2026-01-14 12:31:00.86	288.85	57.72	-36.5	-38.0	17.1	0.00e+00	0	59	0	2198863872	44	4327
2026-01-14 12:31:04.91	291.64	56.86	-36.8	-38.4	16.7	0.00e+00	0	59	0	2220883968	44	4500
2026-01-14 12:31:08.95	294.26	55.96	-36.8	-38.5	16.6	0.00e+00	0	59	0	2243952640	44	4553
2026-01-14 12:31:12.99	296.71	55.01	-37.1	-38.9	16.2	0.00e+00	0	59	0	2265972736	44	4774
2026-01-14 12:31:17.03	299.00	54.04	-36.9	-38.5	16.5	0.00e+00	0	59	0	2289041408	44	4597
2026-01-14 12:31:21.07	301.14	53.04	-37.0	-38.8	16.1	0.00e+00	0	59	0	2312110080	44	4750
2026-01-14 12:31:25.11	303.14	52.03	-36.8	-38.3	17.0	0.00e+00	0	59	0	2335178752	44	4466
2026-01-14 12:31:29.15	305.01	51.01	-36.9	-38.4	16.9	0.00e+00	0	59	0	2357198848	44	4525
2026-01-14 12:31:33.19	306.75	49.98	-36.5	-37.9	17.4	0.00e+00	0	59	0	2380267520	44	4287
2026-01-14 12:31:37.22	308.38	48.94	-36.4	-37.9	17.4	0.00e+00	0	59	0	2403336192	44	4246
2026-01-14 12:31:41.26	309.91	47.91	-36.0	-37.4	17.9	0.00e+00	0	59	0	2425356288	44	4033
2026-01-14 12:31:45.30	311.34	46.89	-36.3	-37.8	17.5	0.00e+00	0	59	0	2448424960	44	4200
2026-01-14 12:31:49.35	312.68	45.86	-36.3	-37.7	17.6	0.00e+00	0	59	0	2470445056	44	4146
2026-01-14 12:31:53.38	313.93	44.86	-36.3	-37.8	17.5	0.00e+00	0	59	0	2493513728	44	4202
2026-01-14 12:31:57.42	315.11	43.86	-36.4	-37.9	17.4	0.00e+00	0	59	0	2516582400	44	4262
2026-01-14 12:32:01.46	316.22	42.87	-36.1	-37.5	17.7	0.00e+00	0	60	0	2539651072	44	4087
2026-01-14 12:32:05.49	317.27	41.91	-36.4	-37.8	17.5	0.00e+00	0	59	0	2561671168	44	4220
2026-01-14 12:32:09.53	318.26	40.95	-36.1	-37.5	17.8	0.00e+00	0	59	0	2584739840	44	4072
2026-01-14 12:32:13.57	319.19	40.01	-35.7	-37.1	18.0	0.00e+00	0	59	0	2607808512	43	4134
2026-01-14 12:32:17.61	320.07	39.09	-35.7	-37.1	17.9	0.00e+00	0	59	0	2629828608	43	4131
2026-01-14 12:32:21.65	320.90	38.19	-35.6	-37.0	18.1	0.00e+00	0	59	0	2652897280	43	4061
2026-01-14 12:32:25.69	321.69	37.30	-35.5	-36.8	18.2	0.00e+00	0	59	0	2674917376	43	3984
2026-01-14 12:32:29.73	322.44	36.43	-35.8	-37.2	17.9	0.00e+00	0	59	0	2697986048	43	4163
2026-01-14 12:32:33.77	323.15	35.58	-36.0	-37.4	17.6	0.00e+00	0	60	0	2721054720	43	4273
2026-01-14 12:32:37.81	323.83	34.75	-35.9	-37.4	17.7	0.00e+00	0	59	0	2744123392	43	4243
2026-01-14 12:32:41.85	324.47	33.93	-35.7	-37.1	17.9	0.00e+00	0	59	0	2766143488	43	4130
2026-01-14 12:32:45.89	325.08	33.14	-35.7	-37.1	17.9	0.00e+00	0	59	0	2789212160	43	4108
2026-01-14 12:32:49.94	325.67	32.35	-35.8	-37.2	17.8	0.00e+00	0	59	0	2811232256	43	4161
2026-01-14 12:32:53.98	326.23	31.59	-35.9	-37.3	17.6	0.00e+00	0	59	0	2834300928	43	4240
2026-01-14 12:32:58.01	326.76	30.85	-36.1	-37.5	17.5	0.00e+00	0	59	0	2857369600	43	4311
2026-01-14 12:33:02.05	327.27	30.12	-36.0	-37.4	17.5	0.00e+00	0	59	0	2879389696	43	4275
2026-01-14 12:33:06.09	327.76	29.40	-36.0	-37.4	17.5	0.00e+00	0	59	0	2902458368	43	4271
2026-01-14 12:33:10.13	328.23	28.70	-35.9	-37.4	17.6	0.00e+00	0	59	0	2925527040	43	4243
2026-01-14 12:33:14.17	328.68	28.02	-36.0	-37.4	17.6	0.00e+00	0	60	0	2948595712	43	4243
2026-01-14 12:33:18.21	329.11	27.35	-36.1	-37.5	17.4	0.00e+00	0	59	0	2970615808	43	4333
2026-01-14 12:33:22.25	329.53	26.70	-36.2	-37.7	17.2	0.00e+00	0	59	0	2993684480	43	4399
2026-01-14 12:33:26.28	329.93	26.06	-36.1	-37.6	17.3	0.00e+00	0	59	0	3015704576	43	4361
2026-01-14 12:33:30.32	330.31	25.43	-36.2	-37.7	17.2	0.00e+00	0	59	0	3038773248	43	4409
2026-01-14 12:33:34.36	330.68	24.82	-36.4	-37.9	17.0	0.00e+00	0	59	0	3061841920	43	4502
2026-01-14 12:33:38.40	331.04	24.22	-36.5	-38.0	16.8	0.00e+00	0	59	0	3083862016	43	4591
2026-01-14 12:33:42.44	331.38	23.63	-36.5	-38.1	16.7	0.00e+00	0	59	0	3106930688	43	4618
2026-01-14 12:33:46.48	331.72	23.06	-36.5	-38.1	16.7	0.00e+00	0	59	0	3129999360	43	4611
2026-01-14 12:33:50.52	332.04	22.50	-36.6	-38.2	16.6	0.00e+00	0	59	0	3153068032	43	4674
2026-01-14 12:33:54.56	332.35	21.94	-36.9	-38.5	16.4	0.00e+00	0	60	0	3175088128	44	4570
2026-01-14 12:33:58.61	332.65	21.40	-37.0	-38.7	16.1	0.00e+00	0	60	0	3198156800	44	4669
2026-01-14 12:34:02.64	332.94	20.87	-37.1	-38.8	16.0	0.00e+00	0	60	0	3220176896	44	4732
2026-01-14 12:34:06.68	333.22	20.35	-37.2	-38.9	15.8	0.00e+00	0	59	0	3243245568	45	4530
2026-01-14 12:34:10.73	333.49	19.84	-37.3	-39.0	15.7	0.00e+00	0	59	0	3266314240	45	4575
2026-01-14 12:34:14.77	333.76	19.34	-37.4	-39.1	15.6	0.00e+00	0	60	0	3289382912	45	4649
2026-01-14 12:34:18.80	334.01	18.85	-37.6	-39.3	15.3	0.00e+00	0	60	0	3311403008	45	4756
2026-01-14 12:34:22.84	334.26	18.37	-37.7	-39.5	15.1	0.00e+00	0	60	0	3334471680	46	4594
2026-01-14 12:34:26.89	334.51	17.90	-37.8	-39.6	14.9	0.00e+00	0	60	0	3357540352	46	4650
2026-01-14 12:34:30.93	334.74	17.43	-37.9	-39.8	14.7	1.10e-06	0	60	0	3379560448	46	4758
2026-01-14 12:34:34.97	334.97	16.98	-38.0	-40.0	14.4	0.00e+00	0	60	0	3402629120	46	4833
2026-01-14 12:34:39.01	335.19	16.53	-37.9	-39.9	14.5	2.20e-06	0	60	0	3425697792	46	4784
2026-01-14 12:34:43.05	335.41	16.09	-38.1	-40.1	14.2	2.20e-06	0	59	0	3447717888	46	4900
2026-01-14 12:34:47.09	335.62	15.66	-38.0	-40.0	14.2	4.50e-06	0	59	0	3470786560	46	4835
2026-01-14 12:34:51.13	335.82	15.23	-38.2	-40.2	13.9	9.10e-06	0	59	0	3493855232	46	4980
2026-01-14 12:34:55.16	336.02	14.81	-38.1	-40.2	14.0	2.20e-06	0	59	0	3515875328	46	4950
2026-01-14 12:34:59.20	336.22	14.40	-38.4	-40.5	13.5	2.05e-05	0	60	0	3538944000	47	4858
2026-01-14 12:35:03.24	336.41	14.00	-38.5	-40.7	13.3	2.63e-05	0	59	0	3562012672	47	4962
2026-01-14 12:35:07.29	336.59	13.60	-38.4	-40.6	13.4	2.97e-05	0	60	0	3584032768	47	4874
2026-01-14 12:35:11.33	336.77	13.21	-38.7	-41.0	12.9	8.23e-05	0	60	0	3607101440	47	5127
2026-01-14 12:35:15.37	336.95	12.82	-38.9	-41.3	12.6	1.54e-04	0	59	0	3630170112	48	5037
2026-01-14 12:35:19.41	337.12	12.44	-38.5	-40.8	13.0	5.60e-05	0	59	0	3652190208	48	4734
2026-01-14 12:35:23.45	337.29	12.07	-38.5	-40.8	12.9	7.89e-05	0	60	0	3675258880	48	4726
2026-01-14 12:35:27.49	337.46	11.70	-38.9	-41.5	12.0	4.16e-04	0	59	0	3698327552	48	5152
2026-01-14 12:35:31.54	337.62	11.33	-39.2	-42.1	11.3	1.56e-03	0	59	0	3720347648	48	5471
2026-01-14 12:35:35.58	337.78	10.97	-38.8	-41.6	11.7	9.23e-04	0	60	0	3743416320	48	5161
2026-01-14 12:35:39.62	337.93	10.62	-38.6	-41.2	11.8	7.71e-04	0	60	0	3766484992	48	4973
2026-01-14 12:35:43.66	338.08	10.27	-38.4	-41.1	11.9	5.22e-04	0	59	0	3789553664	48	4879
2026-01-14 12:35:47.70	338.23	9.93	-38.5	-41.2	11.6	8.67e-04	0	59	0	3811573760	48	4949
2026-01-14 12:35:51.74	338.38	9.59	-38.4	-41.1	11.6	9.96e-04	0	60	0	3834642432	48	4899
2026-01-14 12:35:55.78	338.52	9.25	-38.5	-41.4	11.2	1.82e-03	0	60	0	3856662528	48	5044
2026-01-14 12:35:59.82	338.66	8.92	-38.8	-41.9	10.5	4.29e-03	0	60	0	3879731200	48	5364
2026-01-14 12:36:03.86	338.79	8.60	-39.1	-42.4	9.8	1.29e-02	0	60	0	3902799872	48	5707
2026-01-14 12:36:07.90	338.93	8.27	-39.4	-43.2	8.9	3.32e-02	0	59	0	3924819968	49	5896
2026-01-14 12:36:11.94	339.06	7.96	-42.3	-50.4	4.0	4.67e-01	0	60	104	3945791488	55	9516
2026-01-14 12:36:15.98	339.19	7.64	-45.0	-56.7	3.8	8.47e-01	0	60	104	3945791488	60	14721
2026-01-14 12:36:20.02	339.32	7.33	-45.2	-56.9	3.8	8.46e-01	0	60	104	3945791488	61	14239
2026-01-14 12:36:24.06	339.44	7.02	-45.2	-56.8	3.8	8.47e-01	0	60	104	3945791488	60	14977
2026-01-14 12:36:28.10	339.56	6.72	-45.1	-56.7	3.8	8.46e-01	0	60	104	3945791488	60	14877
2026-01-14 12:36:32.13	339.68	6.42	-45.1	-56.7	3.8	8.47e-01	0	60	104	3945791488	60	14825
2026-01-14 12:36:36.17	339.80	6.12	-45.1	-56.7	3.8	8.46e-01	0	60	104	3945791488	60	14823
2026-01-14 12:36:40.20	339.92	5.83	-45.1	-56.7	3.8	8.47e-01	0	60	104	3945791488	60	14857
2026-01-14 12:36:44.24	340.03	5.54	-45.1	-56.7	3.8	8.46e-01	0	60	104	3945791488	60	14818
2026-01-14 12:36:48.28	340.14	5.25	-45.1	-56.7	3.8	8.46e-01	0	60	104	3945791488	60	14827
2026-01-14 12:36:52.32	340.25	4.97	-45.1	-56.7	3.8	8.46e-01	0	60	104	3945791488	60	14802
2026-01-14 12:36:56.37	340.36	4.69	-45.1	-56.7	3.8	8.45e-01	0	60	104	3945791488	60	14763
2026-01-14 12:37:00.41	340.47	4.41	-45.0	-56.7	3.8	8.46e-01	0	60	104	3945791488	60	14812
2026-01-14 12:37:04.45	340.57	4.14	-45.1	-56.7	3.8	8.45e-01	0	60	104	3945791488	60	14760
2026-01-14 12:37:08.49	340.68	3.86	-45.1	-56.7	3.8	8.46e-01	0	60	104	3945791488	60	14741
2026-01-14 12:37:12.53	340.78	3.59	-45.1	-56.7	3.8	8.46e-01	0	60	104	3945791488	60	14814
2026-01-14 12:37:16.57	340.88	3.33	-45.0	-56.7	3.8	8.46e-01	0	60	104	3945791488	60	14781
2026-01-14 12:37:20.60	340.98	3.06	-45.0	-56.7	3.8	8.46e-01	0	60	104	3945791488	60	14738
2026-01-14 12:37:24.64	341.08	2.80	-45.0	-56.7	3.8	8.45e-01	0	60	104	3945791488	60	14781
2026-01-14 12:37:28.68	341.17	2.54	-45.1	-56.7	3.8	8.46e-01	0	60	104	3945791488	60	14751
2026-01-14 12:37:32.72	341.27	2.28	-45.1	-56.6	3.8	8.47e-01	0	60	104	3945791488	60	14699
2026-01-14 12:37:36.76	341.36	2.03	-45.1	-56.7	3.8	8.46e-01	0	60	104	3945791488	60	14819

#Closed at: 2026-01-14 12:37:40
#Recorded file [3945 MB]: D:/lorett/data/31039_260114_152316.dat