passes_logs/2025/01/06/X_MFTI_01/X_MFTI_01__20250106_112720_FENGYUN_3D_rec.log

#Pass ID: 20250106_112720_FENGYUN 3D
#Satellite: FENGYUN 3D
#Configuration: FENGYUN 3D
#Start time: 2025-01-06 11:27:16

#Version: 1.5.20200625
#Station: X_MFTI_01
#Location: 37.5186 lon 55.9291 lat
#TLE: 1 43010U 17072A   23362.50642187  .00000183  00000+0  10870-3 0  9994
#TLE: 2 43010  98.8887 311.3857 0002475  98.0400 262.1057 14.19259665317063

#Time	Az	El	Level	Level2	SNR	BER	Gain	Gain2
2025-01-06 11:27:16.73	182.76	68.45	-74.8	-95.7	3.7	8454620	99	39955
2025-01-06 11:27:17.14	182.95	68.62	-74.7	-95.7	3.8	8461566	99	40290
2025-01-06 11:27:17.56	183.14	68.80	-74.8	-95.8	3.8	8466545	99	40291
2025-01-06 11:27:17.98	183.34	68.99	-74.7	-95.4	3.8	8463432	99	38890
2025-01-06 11:27:18.39	183.53	69.16	-74.7	-95.6	3.8	8458648	99	39882
2025-01-06 11:27:18.81	183.74	69.34	-74.8	-95.7	3.8	8461051	99	39840
2025-01-06 11:27:19.23	183.95	69.53	-74.7	-95.6	3.8	8449790	99	39836
2025-01-06 11:27:19.64	184.15	69.70	-74.8	-95.6	3.8	8451667	99	39237
2025-01-06 11:27:20.06	184.37	69.89	-74.7	-95.6	3.8	8476432	99	39900
2025-01-06 11:27:20.48	184.59	70.07	-74.7	-95.6	3.8	8455284	99	39767
2025-01-06 11:27:20.90	184.81	70.25	-74.8	-95.5	3.7	8446838	99	38927
2025-01-06 11:27:21.31	185.04	70.43	-74.7	-95.4	3.8	8456909	99	39008
2025-01-06 11:27:21.73	185.27	70.61	-74.7	-95.6	3.8	8458419	99	39834
2025-01-06 11:27:22.15	185.51	70.79	-74.8	-95.7	3.8	8463832	99	39822
2025-01-06 11:27:22.56	185.75	70.97	-74.8	-95.4	3.8	8461830	99	38853
2025-01-06 11:27:22.98	185.99	71.15	-74.8	-95.5	3.8	8469245	99	38798
2025-01-06 11:27:23.40	186.25	71.34	-74.7	-95.6	3.8	8451461	99	39873
2025-01-06 11:27:23.81	186.50	71.51	-74.8	-95.6	3.7	8456783	99	39826
2025-01-06 11:27:24.23	186.76	71.70	-74.7	-95.6	3.8	8456428	99	39660
2025-01-06 11:27:24.65	187.03	71.88	-74.7	-95.6	3.8	8455352	99	39874
2025-01-06 11:27:25.07	187.31	72.06	-74.8	-95.7	3.8	8470378	99	39774
2025-01-06 11:27:25.48	187.58	72.24	-74.8	-95.7	3.8	8456279	99	39904
2025-01-06 11:27:25.90	187.87	72.42	-74.7	-95.5	3.8	8460411	99	39619
2025-01-06 11:27:26.31	188.15	72.60	-74.8	-95.7	3.8	8460983	99	39817
2025-01-06 11:27:26.73	188.45	72.78	-74.8	-95.7	3.8	8471660	99	39814
2025-01-06 11:27:27.15	188.76	72.96	-74.7	-95.4	3.8	8469051	99	38874
2025-01-06 11:27:27.57	189.07	73.14	-74.7	-95.4	3.8	8447216	99	38723
2025-01-06 11:27:27.98	189.38	73.32	-74.8	-95.7	3.8	8460983	99	39861
2025-01-06 11:27:28.40	189.71	73.50	-74.8	-95.7	3.8	8466773	99	39942
2025-01-06 11:27:28.82	190.05	73.68	-74.7	-95.4	3.8	8449378	99	38783
2025-01-06 11:27:29.24	190.39	73.86	-74.8	-95.7	3.8	8448314	99	39964
2025-01-06 11:27:29.65	190.73	74.04	-74.8	-95.6	3.8	8465114	99	39687
2025-01-06 11:27:30.07	191.09	74.22	-74.8	-95.7	3.8	8455432	99	39888
2025-01-06 11:27:30.49	191.46	74.40	-74.8	-95.5	3.8	8468994	99	39107
2025-01-06 11:27:30.90	191.82	74.57	-74.7	-95.6	3.8	8469257	99	39934
2025-01-06 11:27:31.32	192.21	74.75	-74.7	-95.6	3.8	8450283	99	39931
2025-01-06 11:27:31.74	192.60	74.93	-74.8	-95.6	3.7	8467254	99	39578
2025-01-06 11:27:32.15	193.00	75.10	-74.7	-95.5	3.8	8470207	99	39615
2025-01-06 11:27:32.57	193.41	75.28	-74.8	-95.7	3.8	8457870	99	39844
2025-01-06 11:27:32.99	193.84	75.46	-74.7	-95.6	3.8	8466510	99	39951
2025-01-06 11:27:33.41	194.27	75.63	-74.8	-95.6	3.8	8456714	99	39550
2025-01-06 11:27:33.83	194.72	75.81	-74.7	-95.5	3.8	8451244	99	39592
2025-01-06 11:27:34.24	195.17	75.98	-74.7	-95.6	3.8	8462093	99	40043
2025-01-06 11:27:34.66	195.64	76.16	-74.8	-95.7	3.7	8456222	99	39827
2025-01-06 11:27:35.07	196.11	76.33	-74.8	-95.4	3.8	8455352	99	38669
2025-01-06 11:27:35.49	196.60	76.50	-74.7	-95.6	3.8	8460548	99	39845
2025-01-06 11:27:35.91	197.11	76.67	-74.8	-95.7	3.8	8463169	99	40079
2025-01-06 11:27:36.32	197.62	76.84	-74.8	-95.7	3.7	8463718	99	40002
2025-01-06 11:27:36.74	198.15	77.01	-74.8	-95.4	3.8	8477485	99	38737
2025-01-06 11:27:37.16	198.70	77.18	-74.7	-95.6	3.8	8471431	99	40255
2025-01-06 11:27:37.57	199.25	77.34	-74.8	-95.7	3.8	8470779	99	40111
2025-01-06 11:27:37.99	199.83	77.51	-74.7	-95.5	3.8	8465343	99	39578
2025-01-06 11:27:38.41	200.43	77.68	-74.6	-95.4	3.8	8453086	99	39600
2025-01-06 11:27:38.83	201.04	77.84	-74.6	-95.6	3.8	8456680	99	40218
2025-01-06 11:27:39.24	201.66	78.00	-74.7	-95.6	3.8	8453739	99	40136
2025-01-06 11:27:39.66	202.30	78.17	-74.7	-95.6	3.9	8461807	99	39649
2025-01-06 11:27:40.08	202.97	78.33	-74.6	-95.4	3.8	8474613	99	39606
2025-01-06 11:27:40.50	203.65	78.49	-74.7	-95.6	3.8	8455535	99	40099
2025-01-06 11:27:40.91	204.34	78.64	-74.7	-95.6	3.8	8472084	99	40033
2025-01-06 11:27:41.33	205.07	78.80	-74.6	-95.5	3.9	8456394	99	39634
2025-01-06 11:27:41.75	205.81	78.95	-74.7	-95.7	3.8	8465709	99	40089
2025-01-06 11:27:42.17	206.58	79.11	-74.8	-95.7	3.8	8447559	99	40010
2025-01-06 11:27:42.58	207.35	79.26	-74.7	-95.5	3.8	8457035	99	39626
2025-01-06 11:27:43.00	208.16	79.41	-74.8	-95.6	3.8	8457298	99	39624
2025-01-06 11:27:43.42	208.99	79.55	-74.8	-95.7	3.8	8453819	99	39944
2025-01-06 11:27:43.83	209.83	79.70	-74.7	-95.6	3.8	8460594	99	39946
2025-01-06 11:27:44.25	210.71	79.84	-74.8	-95.6	3.8	8466934	99	39244
2025-01-06 11:27:44.67	211.62	79.98	-74.8	-95.5	3.8	8459449	99	39119
2025-01-06 11:27:45.08	212.53	80.12	-74.7	-95.6	3.8	8467288	99	39937
2025-01-06 11:27:45.50	213.49	80.25	-74.7	-95.6	3.7	8463535	99	39881
2025-01-06 11:27:45.92	214.48	80.39	-74.8	-95.5	3.8	8461338	99	39350
2025-01-06 11:27:46.34	215.50	80.52	-74.9	-95.7	3.8	8457687	99	39846
2025-01-06 11:27:46.75	216.52	80.64	-74.8	-95.7	3.8	8473388	99	39873
2025-01-06 11:27:47.17	217.59	80.77	-74.7	-95.6	3.7	8455043	99	39785
2025-01-06 11:27:47.59	218.69	80.89	-74.7	-95.6	3.8	8456829	99	39835
2025-01-06 11:27:48.01	219.82	81.01	-74.7	-95.6	3.8	8458351	99	39854
2025-01-06 11:27:48.42	220.96	81.12	-74.7	-95.6	3.8	8461418	99	39890
2025-01-06 11:27:48.84	222.15	81.23	-74.7	-95.3	3.8	8451358	99	38556
2025-01-06 11:27:49.26	223.37	81.34	-74.7	-95.3	3.8	8451221	99	38555
2025-01-06 11:27:49.67	224.59	81.44	-74.6	-95.6	3.8	8458019	99	40098
2025-01-06 11:27:50.09	225.88	81.54	-74.7	-95.7	3.8	8459999	99	40131
2025-01-06 11:27:50.50	227.16	81.63	-74.7	-95.6	3.8	8455684	99	39762
2025-01-06 11:27:50.92	228.50	81.73	-74.7	-95.6	3.8	8470012	99	39763
2025-01-06 11:27:51.34	229.87	81.81	-74.8	-95.7	3.8	8459850	99	40068
2025-01-06 11:27:51.76	231.27	81.89	-74.7	-95.6	3.8	8459323	99	40095
2025-01-06 11:27:52.17	232.67	81.97	-74.8	-95.6	3.8	8451381	99	39398
2025-01-06 11:27:52.59	234.12	82.04	-74.7	-95.6	3.8	8464015	99	39849
2025-01-06 11:27:53.01	235.60	82.11	-74.7	-95.6	3.8	8461692	99	39863
2025-01-06 11:27:53.42	237.07	82.17	-74.7	-95.6	3.8	8458992	99	39965
2025-01-06 11:27:53.84	238.60	82.23	-74.8	-95.6	3.8	8465091	99	39619
2025-01-06 11:27:54.26	240.15	82.28	-74.8	-95.7	3.8	8462265	99	40117
2025-01-06 11:27:54.67	241.68	82.32	-74.7	-95.7	3.8	8463146	99	40089
2025-01-06 11:27:55.09	243.27	82.36	-74.6	-95.5	3.8	8453659	99	39866
2025-01-06 11:27:55.51	244.87	82.39	-74.7	-95.6	3.8	8454872	99	39884
2025-01-06 11:27:55.92	246.44	82.42	-74.7	-95.6	3.8	8463764	99	40032
2025-01-06 11:27:56.34	248.07	82.44	-74.7	-95.6	3.7	8469554	99	39878
2025-01-06 11:27:56.76	249.70	82.46	-74.7	-95.6	3.8	8459300	99	39756
2025-01-06 11:27:57.18	251.34	82.47	-74.7	-95.6	3.8	8449619	99	40150
2025-01-06 11:27:57.60	252.99	82.47	-74.7	-95.7	3.8	8458385	99	40092
2025-01-06 11:27:58.01	254.59	82.47	-74.7	-95.6	3.7	8452148	99	40010
2025-01-06 11:27:58.43	256.23	82.46	-74.7	-95.4	3.8	8452171	99	38768
2025-01-06 11:27:58.85	257.87	82.45	-74.7	-95.7	3.8	8459026	99	40105
2025-01-06 11:27:59.26	259.46	82.43	-74.6	-95.6	3.8	8460662	99	40116
2025-01-06 11:27:59.68	261.07	82.40	-74.6	-95.3	3.7	8467712	99	38815
2025-01-06 11:28:00.10	262.68	82.37	-74.7	-95.4	3.8	8468410	99	38820
2025-01-06 11:28:00.51	264.23	82.34	-74.7	-95.6	3.8	8453544	99	40089
2025-01-06 11:28:00.93	265.81	82.29	-74.7	-95.6	3.7	8464714	99	40060
2025-01-06 11:28:01.35	267.36	82.24	-74.6	-95.5	3.8	8467609	99	39685
2025-01-06 11:28:01.76	268.86	82.19	-74.7	-95.6	3.8	8464702	99	39666
2025-01-06 11:28:02.18	270.37	82.13	-74.6	-95.5	3.8	8457515	99	39654
2025-01-06 11:28:02.60	271.86	82.06	-74.8	-95.7	3.8	8456920	99	39882
2025-01-06 11:28:03.01	273.29	81.99	-74.8	-95.6	3.8	8451152	99	39636
2025-01-06 11:28:03.43	274.73	81.92	-74.7	-95.6	3.8	8460788	99	39886
2025-01-06 11:28:03.85	276.14	81.84	-74.7	-95.6	3.8	8460090	99	39944
2025-01-06 11:28:04.27	277.52	81.75	-74.8	-95.6	3.8	8448795	99	39839
2025-01-06 11:28:04.69	278.87	81.66	-74.7	-95.3	3.8	8459930	99	38717
2025-01-06 11:28:05.10	280.16	81.57	-74.8	-95.7	3.8	8458385	99	39912
2025-01-06 11:28:05.52	281.45	81.47	-74.7	-95.6	3.8	8471912	99	39873
2025-01-06 11:28:05.94	282.71	81.37	-74.7	-95.3	3.8	8455055	99	38624
2025-01-06 11:28:06.36	283.94	81.26	-74.7	-95.3	3.8	8455673	99	38709
2025-01-06 11:28:06.77	285.11	81.16	-74.7	-95.6	3.8	8452537	99	39874
2025-01-06 11:28:07.19	286.28	81.04	-74.7	-95.7	3.7	8458923	99	40074
2025-01-06 11:28:07.61	287.42	80.93	-74.7	-95.5	3.8	8467231	99	39354
2025-01-06 11:28:08.02	288.51	80.81	-74.7	-95.7	3.8	8460422	99	40103
2025-01-06 11:28:08.44	289.59	80.68	-74.7	-95.7	3.8	8456943	99	40044
2025-01-06 11:28:08.86	290.64	80.56	-74.7	-95.6	3.7	8440658	99	40108
2025-01-06 11:28:09.27	291.64	80.43	-74.8	-95.6	3.8	8462837	99	39395
2025-01-06 11:28:09.69	292.64	80.30	-74.7	-95.6	3.8	8448944	99	40010
2025-01-06 11:28:10.11	293.61	80.16	-74.7	-95.6	3.8	8463169	99	40015
2025-01-06 11:28:10.52	294.53	80.03	-74.7	-95.4	3.7	8449310	99	39031
2025-01-06 11:28:10.94	295.44	79.89	-74.7	-95.4	3.8	8458545	99	38954
2025-01-06 11:28:11.36	296.33	79.74	-74.7	-95.7	3.8	8439125	99	40032
2025-01-06 11:28:11.78	297.20	79.60	-74.7	-95.6	3.8	8462505	99	39986
2025-01-06 11:28:12.20	298.04	79.45	-74.7	-95.6	3.8	8459529	99	39935
2025-01-06 11:28:12.61	298.84	79.31	-74.7	-95.6	3.8	8459884	99	40032
2025-01-06 11:28:13.03	299.63	79.15	-74.7	-95.6	3.8	8461933	99	40091
2025-01-06 11:28:13.45	300.40	79.00	-74.6	-95.6	3.8	8470996	99	40114
2025-01-06 11:28:13.86	301.14	78.85	-74.7	-95.6	3.8	8454013	99	40180
2025-01-06 11:28:14.28	301.87	78.69	-74.7	-95.7	3.8	8455570	99	40113
2025-01-06 11:28:14.70	302.58	78.54	-74.7	-95.6	3.8	8467700	99	40125
2025-01-06 11:28:15.12	303.27	78.38	-74.7	-95.6	3.8	8460124	99	40091
2025-01-06 11:28:15.53	303.92	78.22	-74.7	-95.6	3.8	8472232	99	40174
2025-01-06 11:28:15.95	304.57	78.06	-74.7	-95.6	3.8	8461692	99	40153
2025-01-06 11:28:16.37	305.21	77.89	-74.7	-95.7	3.8	8444984	99	40112
2025-01-06 11:28:16.79	305.82	77.73	-74.7	-95.3	3.8	8466201	99	38876
2025-01-06 11:28:17.21	306.43	77.56	-74.7	-95.3	3.8	8463775	99	38744
2025-01-06 11:28:17.62	307.00	77.40	-74.7	-95.6	3.8	8453407	99	40061
2025-01-06 11:28:18.04	307.56	77.23	-74.7	-95.6	3.7	8449893	99	40061
2025-01-06 11:28:18.46	308.12	77.06	-74.7	-95.4	3.8	8458442	99	39006
2025-01-06 11:28:18.88	308.66	76.89	-74.8	-95.7	3.8	8465869	99	40183
2025-01-06 11:28:19.29	309.17	76.73	-74.8	-95.7	3.8	8462894	99	40061
2025-01-06 11:28:19.71	309.68	76.55	-74.8	-95.7	3.7	8457550	99	40111
2025-01-06 11:28:20.13	310.18	76.38	-74.8	-95.5	3.8	8461521	99	39396
2025-01-06 11:28:20.54	310.65	76.21	-74.7	-95.6	3.8	8455799	99	40146
2025-01-06 11:28:20.96	311.13	76.04	-74.8	-95.7	3.8	8461029	99	40065
2025-01-06 11:28:21.38	311.59	75.86	-74.8	-95.6	3.8	8443931	99	39468
2025-01-06 11:28:21.80	312.04	75.69	-74.7	-95.5	3.8	8464096	99	39502
2025-01-06 11:28:22.21	312.46	75.52	-74.8	-95.6	3.8	8471134	99	39616
2025-01-06 11:28:22.63	312.89	75.34	-74.8	-95.7	3.8	8452766	99	39920
2025-01-06 11:28:23.05	313.31	75.16	-74.7	-95.4	3.8	8471122	99	39004
2025-01-06 11:28:23.46	313.71	74.99	-74.7	-95.4	3.8	8462265	99	39025
2025-01-06 11:28:23.88	314.10	74.81	-74.7	-95.7	3.8	8452205	99	40020
2025-01-06 11:28:24.30	314.49	74.63	-74.7	-95.6	3.8	8461212	99	39911
2025-01-06 11:28:24.71	314.86	74.46	-74.7	-95.7	3.8	8453807	99	40046
2025-01-06 11:28:25.13	315.23	74.28	-74.7	-95.6	3.8	8456188	99	39863
2025-01-06 11:28:25.55	315.59	74.10	-74.8	-95.7	3.8	8455501	99	40028
2025-01-06 11:28:25.97	315.94	73.92	-74.8	-95.7	3.8	8461166	99	39924
2025-01-06 11:28:26.39	316.29	73.74	-74.8	-95.5	3.8	8462116	99	38926
2025-01-06 11:28:26.80	316.62	73.56	-74.7	-95.6	3.8	8465400	99	40146
2025-01-06 11:28:27.22	316.95	73.38	-74.7	-95.7	3.8	8460021	99	40143
2025-01-06 11:28:27.64	317.27	73.20	-74.6	-95.3	3.8	8450328	99	39120
2025-01-06 11:28:28.06	317.58	73.02	-74.6	-95.3	3.8	8470905	99	39019
2025-01-06 11:28:28.47	317.88	72.84	-74.7	-95.7	3.8	8458431	99	40100
2025-01-06 11:28:28.89	318.19	72.66	-74.7	-95.6	3.7	8453212	99	39899
2025-01-06 11:28:29.31	318.48	72.48	-74.7	-95.5	3.9	8462837	99	39621
2025-01-06 11:28:29.72	318.76	72.30	-74.7	-95.6	3.8	8469898	99	40140
2025-01-06 11:28:30.14	319.04	72.12	-74.6	-95.6	3.8	8457515	99	40166
2025-01-06 11:28:30.56	319.32	71.94	-74.7	-95.6	3.7	8470470	99	40090
2025-01-06 11:28:30.98	319.59	71.76	-74.7	-95.7	3.8	8462711	99	40357
2025-01-06 11:28:31.39	319.85	71.58	-74.6	-95.6	3.8	8461143	99	40117
2025-01-06 11:28:31.81	320.11	71.40	-74.6	-95.6	3.8	8462013	99	40199
2025-01-06 11:28:32.23	320.36	71.22	-74.7	-95.3	3.9	8459964	99	38771
2025-01-06 11:28:32.64	320.61	71.04	-74.8	-95.5	3.8	8456703	99	38994
2025-01-06 11:28:33.06	320.85	70.86	-74.7	-95.6	3.8	8453327	99	40124
2025-01-06 11:28:33.48	321.09	70.68	-74.7	-95.7	3.7	8455215	99	40003
2025-01-06 11:28:33.89	321.32	70.50	-74.8	-95.6	3.8	8458717	99	39309
2025-01-06 11:28:34.31	321.55	70.32	-74.7	-95.4	3.8	8450855	99	39443

#Closed at: 2025-01-06 11:28:34