passes_logs/2025/01/06/X_MFTI_01/X_MFTI_01__20250106_095720_NOAA_20_rec.log

#Pass ID: 20250106_095720_NOAA 20
#Satellite: NOAA 20
#Configuration: NOAA 20
#Start time: 2025-01-06 09:57:16

#Version: 1.5.20200625
#Station: X_MFTI_01
#Location: 37.5186 lon 55.9291 lat
#TLE: 1 43013U 17073A   23362.44808611  .00000160  00000+0  96626-4 0  9996
#TLE: 2 43013  98.7331 297.9536 0000783  57.5916 302.5335 14.19555620316533

#Time	Az	El	Level	Level2	SNR	BER	Gain	Gain2
2025-01-06 09:57:16.61	144.10	68.49	-71.5	-95.5	3.8	14941833	99	57521
2025-01-06 09:57:17.02	143.94	68.67	-71.5	-95.5	3.8	14904586	99	57365
2025-01-06 09:57:17.44	143.78	68.85	-71.5	-95.6	3.8	14905151	99	57415
2025-01-06 09:57:17.86	143.61	69.04	-71.4	-95.5	3.8	14909049	99	57325
2025-01-06 09:57:18.26	143.45	69.21	-71.4	-95.4	3.8	14899932	99	56792
2025-01-06 09:57:18.66	143.29	69.39	-71.4	-95.4	3.8	14909370	99	56992
2025-01-06 09:57:19.07	143.11	69.57	-71.4	-95.4	3.8	14904075	99	57008
2025-01-06 09:57:19.48	142.94	69.75	-71.4	-95.4	3.8	14905723	99	56929
2025-01-06 09:57:19.90	142.76	69.94	-71.4	-95.4	3.8	14922660	99	56912
2025-01-06 09:57:20.32	142.57	70.12	-71.4	-95.4	3.8	14909255	99	56901
2025-01-06 09:57:20.73	142.38	70.31	-71.5	-95.5	3.8	14903694	99	57645
2025-01-06 09:57:21.15	142.19	70.49	-71.5	-95.5	3.8	14910240	99	57384
2025-01-06 09:57:21.55	142.00	70.67	-71.5	-95.5	3.8	14910240	99	57235
2025-01-06 09:57:21.95	141.80	70.85	-71.5	-95.5	3.9	14901496	99	57102
2025-01-06 09:57:22.38	141.59	71.04	-71.5	-95.5	3.8	14900794	99	57609
2025-01-06 09:57:22.82	141.37	71.24	-71.4	-95.5	3.8	14904685	99	57511
2025-01-06 09:57:23.23	141.16	71.42	-71.5	-95.5	3.8	14912063	99	57176
2025-01-06 09:57:23.65	140.94	71.61	-71.5	-95.5	3.9	14902854	99	57171
2025-01-06 09:57:24.07	140.71	71.79	-71.4	-95.5	3.8	14916336	99	57647
2025-01-06 09:57:24.48	140.49	71.98	-71.5	-95.5	3.8	14903938	99	57496
2025-01-06 09:57:24.89	140.26	72.16	-71.5	-95.5	3.8	14905273	99	57411
2025-01-06 09:57:25.30	140.02	72.34	-71.4	-95.5	3.8	14900299	99	57374
2025-01-06 09:57:25.72	139.78	72.53	-71.4	-95.4	3.8	14899642	99	57060
2025-01-06 09:57:26.14	139.52	72.72	-71.4	-95.4	3.8	14898513	99	56944
2025-01-06 09:57:26.55	139.27	72.90	-71.4	-95.4	3.8	14908927	99	56959
2025-01-06 09:57:26.99	139.00	73.10	-71.4	-95.2	3.8	14908523	99	56260
2025-01-06 09:57:27.42	138.72	73.29	-71.4	-95.4	3.8	14903793	99	56975
2025-01-06 09:57:27.83	138.45	73.47	-71.4	-95.4	3.8	14912940	99	56843
2025-01-06 09:57:28.25	138.17	73.66	-71.5	-95.4	3.9	14901229	99	56624
2025-01-06 09:57:28.67	137.88	73.85	-71.4	-95.3	3.8	14905273	99	56826
2025-01-06 09:57:29.07	137.59	74.02	-71.4	-95.4	3.8	14903114	99	56938
2025-01-06 09:57:29.50	137.28	74.21	-71.4	-95.4	3.9	14921478	99	56804
2025-01-06 09:57:29.93	136.96	74.41	-71.4	-95.4	3.8	14917785	99	56831
2025-01-06 09:57:30.33	136.66	74.58	-71.4	-95.4	3.8	14909858	99	57029
2025-01-06 09:57:30.75	136.33	74.77	-71.4	-95.4	3.8	14909858	99	56859
2025-01-06 09:57:31.17	135.99	74.96	-71.5	-95.4	3.8	14914665	99	56713
2025-01-06 09:57:31.57	135.66	75.13	-71.4	-95.4	3.8	14914665	99	56730
2025-01-06 09:57:31.98	135.32	75.31	-71.3	-95.3	3.8	14908081	99	56720
2025-01-06 09:57:32.39	134.96	75.49	-71.4	-95.4	3.8	14900955	99	57221
2025-01-06 09:57:32.80	134.60	75.67	-71.4	-95.4	3.9	14910842	99	57152
2025-01-06 09:57:33.21	134.23	75.85	-71.4	-95.4	3.8	14897781	99	57224
2025-01-06 09:57:33.63	133.83	76.04	-71.4	-95.4	3.8	14895561	99	57098
2025-01-06 09:57:34.05	133.43	76.22	-71.4	-95.5	3.8	14916213	99	57292
2025-01-06 09:57:34.45	133.04	76.40	-71.4	-95.5	3.8	14904235	99	57400
2025-01-06 09:57:34.86	132.62	76.58	-71.4	-95.5	3.8	14905975	99	57447
2025-01-06 09:57:35.27	132.19	76.75	-71.4	-95.5	3.8	14909858	99	57440
2025-01-06 09:57:35.69	131.74	76.94	-71.4	-95.4	3.9	14914955	99	56861
2025-01-06 09:57:36.12	131.27	77.12	-71.4	-95.3	3.8	14901092	99	56877
2025-01-06 09:57:36.52	130.81	77.29	-71.4	-95.3	3.8	14907112	99	56865
2025-01-06 09:57:36.94	130.32	77.47	-71.4	-95.3	3.8	14909126	99	56997
2025-01-06 09:57:37.36	129.82	77.65	-71.4	-95.4	3.9	14900070	99	56806
2025-01-06 09:57:37.76	129.32	77.82	-71.4	-95.3	3.8	14901489	99	56595
2025-01-06 09:57:38.16	128.81	77.99	-71.4	-95.3	3.8	14901489	99	56945
2025-01-06 09:57:38.56	128.29	78.16	-71.4	-95.4	3.8	14909530	99	56932
2025-01-06 09:57:38.99	127.70	78.34	-71.4	-95.4	3.9	14908706	99	56744
2025-01-06 09:57:39.39	127.15	78.51	-71.4	-95.3	3.9	14918136	99	56370
2025-01-06 09:57:39.81	126.54	78.68	-71.4	-95.3	3.8	14897201	99	56941
2025-01-06 09:57:40.24	125.90	78.86	-71.4	-95.3	3.9	14915077	99	56834
2025-01-06 09:57:40.64	125.29	79.02	-71.4	-95.5	3.9	14904846	99	57285
2025-01-06 09:57:41.06	124.63	79.19	-71.4	-95.4	3.8	14914512	99	57073
2025-01-06 09:57:41.46	123.98	79.35	-71.4	-95.5	3.8	14901893	99	57562
2025-01-06 09:57:41.86	123.31	79.51	-71.4	-95.5	3.9	14907257	99	57416
2025-01-06 09:57:42.27	122.59	79.67	-71.4	-95.4	3.9	14909584	99	57313
2025-01-06 09:57:42.69	121.84	79.84	-71.3	-95.3	3.8	14895561	99	57420
2025-01-06 09:57:43.11	121.06	80.00	-71.4	-95.5	3.8	14904563	99	57626
2025-01-06 09:57:43.52	120.28	80.16	-71.5	-95.5	3.8	14915840	99	57539
2025-01-06 09:57:43.95	119.43	80.32	-71.4	-95.5	3.8	14902084	99	57553
2025-01-06 09:57:44.36	118.59	80.48	-71.4	-95.5	3.8	14910636	99	57580
2025-01-06 09:57:44.77	117.73	80.63	-71.4	-95.5	3.8	14913703	99	57662
2025-01-06 09:57:45.19	116.81	80.78	-71.4	-95.5	3.8	14904525	99	57488
2025-01-06 09:57:45.61	115.86	80.93	-71.4	-95.3	3.8	14904525	99	56958
2025-01-06 09:57:46.01	114.93	81.08	-71.3	-95.3	3.8	14899497	99	56976
2025-01-06 09:57:46.41	113.96	81.22	-71.4	-95.4	3.8	14899879	99	56901
2025-01-06 09:57:46.83	112.92	81.36	-71.4	-95.4	3.8	14900299	99	56783
2025-01-06 09:57:47.23	111.89	81.49	-71.4	-95.4	3.8	14915374	99	56734
2025-01-06 09:57:47.63	110.83	81.62	-71.4	-95.4	3.8	14898834	99	56927
2025-01-06 09:57:48.05	109.68	81.76	-71.4	-95.4	3.8	14914329	99	56855
2025-01-06 09:57:48.46	108.52	81.89	-71.4	-95.4	3.8	14914642	99	56867
2025-01-06 09:57:48.87	107.32	82.01	-71.4	-95.4	3.8	14902183	99	56874
2025-01-06 09:57:49.28	106.08	82.14	-71.4	-95.4	3.8	14899887	99	57137
2025-01-06 09:57:49.69	104.81	82.25	-71.4	-95.4	3.9	14909896	99	56750
2025-01-06 09:57:50.09	103.53	82.36	-71.4	-95.4	3.9	14892120	99	56621
2025-01-06 09:57:50.52	102.11	82.48	-71.4	-95.4	3.8	14896911	99	56898
2025-01-06 09:57:50.92	100.75	82.58	-71.4	-95.4	3.8	14910446	99	56885
2025-01-06 09:57:51.35	99.24	82.69	-71.4	-95.4	3.9	14910751	99	56776
2025-01-06 09:57:51.75	97.80	82.78	-71.4	-95.4	3.9	14905471	99	57029
2025-01-06 09:57:52.17	96.25	82.88	-71.4	-95.5	3.8	14907440	99	57754
2025-01-06 09:57:52.60	94.62	82.97	-71.5	-95.6	3.8	14913177	99	57641
2025-01-06 09:57:53.00	93.07	83.05	-71.4	-95.5	3.9	14913177	99	57335
2025-01-06 09:57:53.41	91.44	83.12	-71.5	-95.5	3.9	14901367	99	57116
2025-01-06 09:57:53.82	89.78	83.19	-71.4	-95.5	3.8	14901824	99	57724
2025-01-06 09:57:54.23	88.08	83.26	-71.4	-95.5	3.8	14905731	99	57539
2025-01-06 09:57:54.63	86.39	83.32	-71.4	-95.5	3.9	14911972	99	57291
2025-01-06 09:57:55.03	84.68	83.37	-72.3	-96.3	3.8	14901107	99	56642
2025-01-06 09:57:55.45	82.85	83.41	-71.4	-95.4	3.8	14910133	99	57305
2025-01-06 09:57:55.86	81.04	83.45	-71.5	-95.6	3.8	14926170	99	57707
2025-01-06 09:57:56.28	79.17	83.49	-71.5	-95.6	3.8	14909492	99	57638
2025-01-06 09:57:56.68	77.37	83.51	-71.4	-95.4	3.8	14889739	99	57061
2025-01-06 09:57:57.09	75.51	83.53	-71.4	-95.4	3.8	14911491	99	57005
2025-01-06 09:57:57.49	73.69	83.55	-71.4	-95.4	3.8	14919960	99	56811
2025-01-06 09:57:57.89	71.86	83.55	-71.4	-95.3	3.9	14903335	99	56336
2025-01-06 09:57:58.31	69.94	83.55	-71.4	-95.4	3.8	14905860	99	56950
2025-01-06 09:57:58.73	68.03	83.54	-71.4	-95.4	3.8	14914268	99	56903
2025-01-06 09:57:59.14	66.16	83.53	-71.4	-95.4	3.9	14914268	99	56809
2025-01-06 09:57:59.55	64.30	83.51	-71.4	-95.3	3.9	14908843	99	56533
2025-01-06 09:57:59.95	62.51	83.48	-71.4	-95.3	3.8	14907867	99	56562
2025-01-06 09:58:00.36	60.68	83.45	-71.4	-95.4	3.8	14908294	99	57034
2025-01-06 09:58:00.77	58.88	83.41	-71.4	-95.4	3.8	14921104	99	56909
2025-01-06 09:58:01.19	57.06	83.36	-71.4	-95.4	3.8	14900520	99	56905
2025-01-06 09:58:01.59	55.35	83.31	-71.4	-95.4	3.8	14898437	99	57207
2025-01-06 09:58:01.99	53.67	83.25	-71.4	-95.4	3.8	14912956	99	56894
2025-01-06 09:58:02.41	51.94	83.18	-71.5	-95.5	3.8	14915138	99	57518
2025-01-06 09:58:02.84	50.20	83.11	-71.5	-95.5	3.8	14907463	99	57064
2025-01-06 09:58:03.26	48.54	83.03	-71.4	-95.4	3.8	14908386	99	57319
2025-01-06 09:58:03.69	46.88	82.94	-71.5	-95.5	3.8	14923278	99	57519
2025-01-06 09:58:04.10	45.34	82.85	-71.4	-95.5	3.8	14902053	99	57401
2025-01-06 09:58:04.54	43.73	82.75	-71.4	-95.4	3.8	14907569	99	56878
2025-01-06 09:58:04.94	42.31	82.66	-71.4	-95.4	3.8	14907478	99	57342
2025-01-06 09:58:05.36	40.85	82.55	-71.4	-95.5	3.8	14911918	99	57284
2025-01-06 09:58:05.76	39.50	82.45	-71.4	-95.5	3.8	14912574	99	57193
2025-01-06 09:58:06.18	38.13	82.33	-71.4	-95.5	3.8	14906768	99	57277
2025-01-06 09:58:06.59	36.83	82.22	-71.4	-95.5	3.8	14909576	99	57254
2025-01-06 09:58:07.01	35.54	82.09	-71.4	-95.4	3.9	14906944	99	56585
2025-01-06 09:58:07.43	34.29	81.97	-71.4	-95.4	3.8	14906944	99	56584
2025-01-06 09:58:07.84	33.10	81.84	-71.4	-95.3	3.8	14907676	99	56772
2025-01-06 09:58:08.26	31.93	81.71	-71.4	-95.4	3.8	14900039	99	56821
2025-01-06 09:58:08.69	30.77	81.57	-71.4	-95.4	3.9	14919059	99	56655
2025-01-06 09:58:09.11	29.67	81.43	-71.4	-95.3	3.8	14902961	99	56336
2025-01-06 09:58:09.51	28.66	81.29	-71.4	-95.3	3.8	14897789	99	56688
2025-01-06 09:58:09.91	27.67	81.16	-71.4	-95.3	3.9	14917282	99	56699
2025-01-06 09:58:10.32	26.70	81.01	-71.5	-95.5	3.9	14900077	99	57203
2025-01-06 09:58:10.75	25.71	80.86	-71.4	-95.3	3.8	14904251	99	56647
2025-01-06 09:58:11.16	24.80	80.71	-71.4	-95.4	3.8	14900718	99	57010
2025-01-06 09:58:11.57	23.92	80.56	-71.4	-95.5	3.8	14919517	99	57445
2025-01-06 09:58:11.98	23.07	80.41	-71.4	-95.4	3.9	14905548	99	57140
2025-01-06 09:58:12.39	22.25	80.25	-71.4	-95.5	3.8	14907173	99	57513
2025-01-06 09:58:12.79	21.47	80.10	-71.5	-95.5	3.8	14907196	99	57644
2025-01-06 09:58:13.21	20.67	79.94	-71.4	-95.5	3.8	14908767	99	57477
2025-01-06 09:58:13.62	19.93	79.78	-71.4	-95.4	3.9	14910728	99	57096
2025-01-06 09:58:14.04	19.18	79.61	-71.4	-95.5	3.8	14902961	99	57795
2025-01-06 09:58:14.46	18.47	79.45	-71.5	-95.6	3.8	14908081	99	57566
2025-01-06 09:58:14.89	17.75	79.27	-71.4	-95.5	3.9	14907646	99	57309
2025-01-06 09:58:15.31	17.08	79.10	-71.4	-95.3	3.8	14907646	99	56507
2025-01-06 09:58:15.72	16.44	78.94	-71.4	-95.4	3.8	14896278	99	57034
2025-01-06 09:58:16.15	15.80	78.76	-71.4	-95.4	3.8	14906204	99	56970
2025-01-06 09:58:16.59	15.16	78.58	-71.4	-95.4	3.8	14911682	99	56994
2025-01-06 09:58:17.00	14.58	78.41	-71.3	-95.3	3.8	14910522	99	56687
2025-01-06 09:58:17.42	14.00	78.23	-71.3	-95.2	3.8	14905197	99	56262
2025-01-06 09:58:17.82	13.47	78.07	-71.4	-95.4	3.8	14919563	99	57217
2025-01-06 09:58:18.24	12.93	77.89	-71.4	-95.4	3.8	14908241	99	56953
2025-01-06 09:58:18.64	12.43	77.72	-71.3	-95.3	3.8	14904067	99	56636
2025-01-06 09:58:19.04	11.94	77.55	-71.4	-95.3	3.8	14909217	99	56721
2025-01-06 09:58:19.46	11.45	77.37	-71.4	-95.4	3.8	14911209	99	57005
2025-01-06 09:58:19.89	10.95	77.19	-71.4	-95.3	3.9	14894645	99	56597
2025-01-06 09:58:20.31	10.48	77.01	-71.4	-95.4	3.8	14911079	99	57053
2025-01-06 09:58:20.71	10.05	76.83	-71.4	-95.4	3.8	14916160	99	56788
2025-01-06 09:58:21.13	9.61	76.65	-71.4	-95.4	3.9	14898956	99	56774
2025-01-06 09:58:21.53	9.20	76.48	-71.3	-95.2	3.9	14906082	99	56386
2025-01-06 09:58:21.94	8.79	76.30	-71.4	-95.4	3.8	14902030	99	56957
2025-01-06 09:58:22.34	8.40	76.12	-71.4	-95.4	3.8	14915695	99	56968
2025-01-06 09:58:22.74	8.02	75.95	-71.4	-95.4	3.8	14914443	99	56969
2025-01-06 09:58:23.16	7.64	75.77	-71.4	-95.4	3.8	14914443	99	57156
2025-01-06 09:58:23.57	7.27	75.59	-71.4	-95.4	3.8	14900787	99	57332
2025-01-06 09:58:23.97	6.92	75.41	-71.4	-95.5	3.8	14906349	99	57430
2025-01-06 09:58:24.39	6.56	75.22	-71.4	-95.5	3.8	14900558	99	57474
2025-01-06 09:58:24.79	6.23	75.05	-71.4	-95.5	3.8	14911338	99	57490
2025-01-06 09:58:25.19	5.90	74.87	-71.4	-95.5	3.8	14912155	99	57740
2025-01-06 09:58:25.63	5.56	74.68	-71.4	-95.5	3.8	14908599	99	57760
2025-01-06 09:58:26.03	5.25	74.50	-71.4	-95.5	3.8	14899993	99	57719
2025-01-06 09:58:26.44	4.94	74.32	-71.4	-95.5	3.8	14904617	99	57667
2025-01-06 09:58:26.86	4.63	74.13	-71.4	-95.5	3.8	14898872	99	57727
2025-01-06 09:58:27.28	4.33	73.94	-71.5	-95.6	3.8	14917091	99	57786
2025-01-06 09:58:27.71	4.03	73.75	-71.4	-95.5	3.8	14907157	99	57749
2025-01-06 09:58:28.11	3.76	73.58	-71.4	-95.6	3.8	14905387	99	57849
2025-01-06 09:58:28.53	3.48	73.39	-71.5	-95.6	3.8	14917953	99	57753
2025-01-06 09:58:28.96	3.20	73.20	-71.4	-95.5	3.8	14895286	99	57694
2025-01-06 09:58:29.37	2.94	73.02	-71.4	-95.4	3.8	14912879	99	57034
2025-01-06 09:58:29.78	2.68	72.83	-71.4	-95.5	3.8	14915855	99	57451
2025-01-06 09:58:30.19	2.43	72.65	-71.4	-95.5	3.8	14899642	99	57683
2025-01-06 09:58:30.61	2.19	72.46	-71.4	-95.5	3.8	14899642	99	57735
2025-01-06 09:58:31.03	1.94	72.28	-71.4	-95.5	3.8	14907562	99	57684
2025-01-06 09:58:31.44	1.71	72.09	-71.4	-95.5	3.8	14907562	99	57677
2025-01-06 09:58:31.86	1.48	71.91	-71.4	-95.6	3.8	14907958	99	57771
2025-01-06 09:58:32.29	1.24	71.71	-71.4	-95.5	3.9	14897544	99	57503
2025-01-06 09:58:32.69	1.03	71.54	-71.4	-95.5	3.8	14900596	99	57803
2025-01-06 09:58:33.11	0.81	71.35	-71.4	-95.5	3.8	14901733	99	57764
2025-01-06 09:58:33.52	0.60	71.17	-71.5	-95.5	3.9	14914916	99	57546
2025-01-06 09:58:33.94	0.39	70.98	-71.4	-95.3	3.8	14899726	99	56826
2025-01-06 09:58:34.36	0.19	70.79	-71.4	-95.5	3.8	14904502	99	57536
2025-01-06 09:58:34.77	359.99	70.61	-71.4	-95.5	3.8	14912528	99	57723
2025-01-06 09:58:35.17	359.80	70.44	-71.4	-95.5	3.9	14904869	99	57271
2025-01-06 09:58:35.59	359.61	70.25	-71.4	-95.4	3.8	14912742	99	57041

#Closed at: 2025-01-06 09:58:35