passes_logs/2025/01/06/X_MFTI_01/X_MFTI_01__20250106_115649_HAISI_1_rec.log

#Pass ID: 20250106_115649_HAISI 1
#Satellite: HAISI 1
#Configuration: HAISI-1
#Start time: 2025-01-06 11:56:42

#Version: 1.5.20200625
#Station: X_MFTI_01
#Location: 37.5186 lon 55.9291 lat
#TLE: 1 47297U 20102B   23362.46775762  .00036710  00000+0  89145-3 0  9990
#TLE: 2 47297  97.4291 102.3307 0003008 262.2467  97.8437 15.40922517167670

#Time	Az	El	Level	Level2	SNR	BER	Gain	Gain2
2025-01-06 11:56:42.97	2.81	62.52	-77.6	-99.5	3.8	7458114	99	44538
2025-01-06 11:56:43.18	2.68	62.77	-77.7	-99.6	3.8	7456665	99	44833
2025-01-06 11:56:43.39	2.54	63.02	-77.7	-99.6	3.8	7447586	99	44801
2025-01-06 11:56:43.60	2.40	63.27	-77.6	-99.5	3.8	7450561	99	44724
2025-01-06 11:56:43.82	2.24	63.53	-77.8	-99.7	3.8	7443695	99	44700
2025-01-06 11:56:44.03	2.09	63.78	-77.6	-99.5	3.8	7454299	99	44797
2025-01-06 11:56:44.23	1.95	64.02	-77.8	-99.7	3.8	7459259	99	44845
2025-01-06 11:56:44.45	1.79	64.29	-77.8	-99.7	3.8	7460708	99	44820
2025-01-06 11:56:44.65	1.64	64.53	-77.6	-99.5	3.8	7437286	99	44725
2025-01-06 11:56:44.86	1.47	64.78	-77.6	-99.5	3.8	7445907	99	44705
2025-01-06 11:56:45.08	1.30	65.05	-77.6	-99.5	3.8	7453231	99	44737
2025-01-06 11:56:45.28	1.14	65.29	-77.6	-99.5	3.8	7457656	99	44758
2025-01-06 11:56:45.49	0.96	65.55	-77.6	-99.5	3.8	7448883	99	44768
2025-01-06 11:56:45.71	0.78	65.82	-77.7	-99.5	3.8	7442245	99	44691
2025-01-06 11:56:45.92	0.59	66.08	-77.8	-99.7	3.8	7475433	99	44705
2025-01-06 11:56:46.14	0.40	66.35	-77.8	-99.7	3.8	7453231	99	44748
2025-01-06 11:56:46.34	0.21	66.60	-77.8	-99.7	3.8	7449722	99	44805
2025-01-06 11:56:46.56	0.01	66.87	-77.6	-99.5	3.8	7473373	99	44735
2025-01-06 11:56:46.77	359.80	67.13	-77.6	-99.5	3.8	7460327	99	44752
2025-01-06 11:56:46.97	359.61	67.38	-77.8	-99.7	3.8	7446899	99	44701
2025-01-06 11:56:47.17	359.40	67.63	-77.8	-99.7	3.8	7444305	99	44657
2025-01-06 11:56:47.39	359.18	67.91	-77.7	-99.5	3.8	7449340	99	44675
2025-01-06 11:56:47.60	358.95	68.17	-77.8	-99.6	3.8	7440414	99	44611
2025-01-06 11:56:47.82	358.71	68.45	-77.8	-99.7	3.8	7457656	99	44646
2025-01-06 11:56:48.02	358.49	68.70	-77.8	-99.7	3.8	7441406	99	44701
2025-01-06 11:56:48.23	358.24	68.96	-77.7	-99.6	3.8	7443771	99	44761
2025-01-06 11:56:48.45	357.98	69.24	-77.6	-99.5	3.8	7465667	99	44731
2025-01-06 11:56:48.66	357.72	69.51	-77.7	-99.6	3.8	7464141	99	44724
2025-01-06 11:56:48.87	357.46	69.77	-77.6	-99.5	3.8	7452621	99	44700
2025-01-06 11:56:49.07	357.20	70.03	-77.6	-99.5	3.8	7441329	99	44622
2025-01-06 11:56:49.28	356.92	70.30	-77.7	-99.6	3.8	7450866	99	44765
2025-01-06 11:56:49.48	356.65	70.55	-77.8	-99.7	3.8	7455749	99	44737
2025-01-06 11:56:49.68	356.37	70.81	-77.8	-99.7	3.8	7438507	99	44670
2025-01-06 11:56:49.90	356.05	71.09	-77.8	-99.7	3.8	7455215	99	44692
2025-01-06 11:56:50.11	355.73	71.36	-77.6	-99.5	3.8	7465667	99	44693
2025-01-06 11:56:50.33	355.39	71.64	-77.8	-99.8	3.8	7468109	99	45074
2025-01-06 11:56:50.54	355.06	71.91	-77.8	-99.7	3.8	7449722	99	45049
2025-01-06 11:56:50.76	354.69	72.19	-77.6	-99.6	3.8	7464218	99	45082
2025-01-06 11:56:50.97	354.33	72.46	-77.7	-99.6	3.8	7441635	99	44722
2025-01-06 11:56:51.19	353.95	72.75	-77.6	-99.5	3.8	7466964	99	44770
2025-01-06 11:56:51.39	353.58	73.00	-77.6	-99.5	3.8	7450256	99	44764
2025-01-06 11:56:51.61	353.17	73.28	-77.9	-99.8	3.8	7445068	99	44751
2025-01-06 11:56:51.82	352.76	73.55	-77.8	-99.7	3.8	7422637	99	44814
2025-01-06 11:56:52.04	352.31	73.84	-77.8	-99.7	3.8	7447738	99	44769
2025-01-06 11:56:52.24	351.89	74.09	-77.8	-99.7	3.8	7467269	99	44747
2025-01-06 11:56:52.45	351.44	74.36	-77.8	-99.7	3.8	7475509	99	44665
2025-01-06 11:56:52.67	350.94	74.64	-77.8	-99.7	3.8	7439498	99	44783
2025-01-06 11:56:52.88	350.45	74.91	-77.6	-99.5	3.8	7464370	99	44670
2025-01-06 11:56:53.10	349.92	75.19	-77.8	-99.7	3.8	7447280	99	44713
2025-01-06 11:56:53.31	349.39	75.46	-77.7	-99.6	3.8	7452850	99	44740
2025-01-06 11:56:53.53	348.81	75.74	-77.6	-99.4	3.8	7463150	99	44722
2025-01-06 11:56:53.74	348.23	76.01	-77.6	-99.5	3.8	7440948	99	44750
2025-01-06 11:56:53.94	347.67	76.26	-77.6	-99.5	3.8	7458953	99	44740
2025-01-06 11:56:54.16	347.02	76.54	-77.5	-99.4	3.8	7461395	99	44547
2025-01-06 11:56:54.37	346.37	76.80	-77.6	-99.5	3.8	7471923	99	44624
2025-01-06 11:56:54.59	345.66	77.07	-77.7	-99.6	3.8	7450790	99	44675
2025-01-06 11:56:54.80	344.96	77.33	-77.7	-99.6	3.8	7447814	99	44700
2025-01-06 11:56:55.02	344.19	77.61	-77.7	-99.5	3.8	7458648	99	44519
2025-01-06 11:56:55.23	343.42	77.86	-77.7	-99.5	3.8	7448272	99	44658
2025-01-06 11:56:55.45	342.58	78.13	-77.7	-99.6	3.8	7467956	99	44716
2025-01-06 11:56:55.66	341.73	78.39	-77.8	-99.6	3.8	7452774	99	44702
2025-01-06 11:56:55.88	340.81	78.65	-77.7	-99.6	3.8	7445526	99	44700
2025-01-06 11:56:56.09	339.89	78.90	-77.6	-99.5	3.8	7451248	99	44774
2025-01-06 11:56:56.31	338.88	79.16	-77.8	-99.6	3.8	7460632	99	44752
2025-01-06 11:56:56.53	337.81	79.41	-77.7	-99.5	3.8	7448959	99	44575
2025-01-06 11:56:56.73	336.80	79.64	-77.6	-99.5	3.8	7470474	99	44582
2025-01-06 11:56:56.93	335.74	79.87	-77.7	-99.5	3.8	7451782	99	44561
2025-01-06 11:56:57.14	334.58	80.10	-77.7	-99.6	3.8	7477493	99	44721
2025-01-06 11:56:57.36	333.30	80.34	-77.7	-99.5	3.8	7446136	99	44658
2025-01-06 11:56:57.57	332.01	80.57	-77.7	-99.6	3.8	7456054	99	44650
2025-01-06 11:56:57.79	330.60	80.80	-77.7	-99.5	3.8	7425003	99	44665
2025-01-06 11:56:58.00	329.18	81.01	-77.6	-99.5	3.8	7427902	99	44780
2025-01-06 11:56:58.22	327.62	81.23	-77.8	-99.7	3.8	7454986	99	44815
2025-01-06 11:56:58.42	326.13	81.43	-77.8	-99.7	3.8	7454757	99	44731
2025-01-06 11:56:58.62	324.58	81.62	-77.7	-99.6	3.8	7448425	99	44770
2025-01-06 11:56:58.83	322.86	81.81	-77.8	-99.7	3.8	7453536	99	44767
2025-01-06 11:56:59.05	320.98	82.00	-77.6	-99.5	3.8	7465744	99	44694
2025-01-06 11:56:59.26	319.10	82.18	-77.6	-99.5	3.8	7460708	99	44783
2025-01-06 11:56:59.48	317.04	82.35	-77.6	-99.5	3.8	7474212	99	44665
2025-01-06 11:56:59.69	314.98	82.51	-77.6	-99.5	3.8	7464752	99	44393
2025-01-06 11:56:59.91	312.74	82.66	-77.8	-99.6	3.8	7431945	99	44425
2025-01-06 11:57:00.11	310.61	82.79	-77.7	-99.5	3.8	7458267	99	44431
2025-01-06 11:57:00.33	308.19	82.92	-77.7	-99.6	3.8	7442626	99	44758
2025-01-06 11:57:00.54	305.79	83.04	-77.8	-99.7	3.8	7459182	99	44713
2025-01-06 11:57:00.76	303.20	83.14	-77.8	-99.7	3.8	7467346	99	44735
2025-01-06 11:57:00.97	300.65	83.23	-77.8	-99.6	3.8	7450790	99	44652
2025-01-06 11:57:01.17	298.17	83.30	-77.7	-99.6	3.8	7455444	99	44705
2025-01-06 11:57:01.39	295.39	83.36	-77.7	-99.6	3.8	7468490	99	44709
2025-01-06 11:57:01.60	292.68	83.41	-77.6	-99.5	3.8	7460250	99	44670
2025-01-06 11:57:01.82	289.82	83.44	-77.6	-99.5	3.8	7436828	99	44703
2025-01-06 11:57:02.03	287.06	83.46	-77.6	-99.5	3.8	7460098	99	44740
2025-01-06 11:57:02.23	284.43	83.46	-77.7	-99.6	3.8	7439956	99	44718
2025-01-06 11:57:02.45	281.54	83.44	-77.6	-99.5	3.8	7436828	99	44714
2025-01-06 11:57:02.65	278.94	83.41	-77.8	-99.7	3.8	7463607	99	44455
2025-01-06 11:57:02.85	276.36	83.37	-77.6	-99.5	3.8	7464981	99	44496
2025-01-06 11:57:03.05	273.82	83.32	-77.6	-99.5	3.8	7467346	99	44455
2025-01-06 11:57:03.27	271.08	83.24	-77.6	-99.5	3.8	7436065	99	44738
2025-01-06 11:57:03.47	268.64	83.16	-77.7	-99.5	3.8	7445526	99	44668
2025-01-06 11:57:03.67	266.27	83.07	-77.6	-99.5	3.8	7450027	99	44629
2025-01-06 11:57:03.88	263.85	82.96	-77.8	-99.7	3.8	7455596	99	44790
2025-01-06 11:57:04.10	261.40	82.83	-77.8	-99.7	3.8	7447738	99	44687
2025-01-06 11:57:04.31	259.15	82.70	-77.8	-99.7	3.8	7458801	99	44557
2025-01-06 11:57:04.51	257.08	82.56	-77.7	-99.5	3.8	7451019	99	44521
2025-01-06 11:57:04.73	254.90	82.40	-77.8	-99.7	3.8	7467575	99	44613
2025-01-06 11:57:04.94	252.90	82.23	-77.7	-99.6	3.8	7464828	99	44729
2025-01-06 11:57:05.16	250.91	82.05	-77.7	-99.5	3.8	7469406	99	44669
2025-01-06 11:57:05.37	249.09	81.87	-77.6	-99.5	3.8	7428817	99	44757
2025-01-06 11:57:05.59	247.27	81.67	-77.6	-99.5	3.8	7457122	99	44662
2025-01-06 11:57:05.80	245.61	81.47	-77.6	-99.5	3.8	7469787	99	44832
2025-01-06 11:57:06.02	243.96	81.26	-77.8	-99.7	3.8	7475738	99	44810
2025-01-06 11:57:06.22	242.53	81.06	-77.8	-99.7	3.8	7464447	99	44770
2025-01-06 11:57:06.44	241.03	80.84	-77.8	-99.7	3.8	7469177	99	44700
2025-01-06 11:57:06.64	239.73	80.63	-77.8	-99.7	3.8	7445983	99	44720
2025-01-06 11:57:06.84	238.48	80.41	-77.8	-99.7	3.8	7444610	99	44679
2025-01-06 11:57:07.05	237.24	80.19	-77.3	-99.2	3.8	7451705	99	44601
2025-01-06 11:57:07.27	236.00	79.94	-77.6	-99.5	3.8	7452163	99	44703
2025-01-06 11:57:07.47	234.92	79.72	-77.8	-99.6	3.8	7460327	99	44642
2025-01-06 11:57:07.67	233.90	79.49	-77.8	-99.7	3.8	7469024	99	44659
2025-01-06 11:57:07.89	232.82	79.23	-78.0	-99.9	3.8	7468795	99	44739
2025-01-06 11:57:08.09	231.88	79.00	-77.8	-99.7	3.8	7447738	99	44795
2025-01-06 11:57:08.30	230.94	78.75	-77.8	-99.6	3.8	7434082	99	44733
2025-01-06 11:57:08.52	230.00	78.49	-77.8	-99.7	3.8	7440414	99	44728
2025-01-06 11:57:08.73	229.14	78.24	-77.8	-99.7	3.8	7450180	99	44786
2025-01-06 11:57:08.95	228.28	77.97	-77.8	-99.7	3.8	7438430	99	44589
2025-01-06 11:57:09.16	227.50	77.71	-77.8	-99.7	3.8	7458953	99	44612
2025-01-06 11:57:09.38	226.72	77.44	-77.8	-99.7	3.8	7446746	99	44593
2025-01-06 11:57:09.59	226.00	77.18	-77.8	-99.7	3.8	7450942	99	44693
2025-01-06 11:57:09.79	225.34	76.93	-77.8	-99.6	3.8	7477645	99	44722
2025-01-06 11:57:10.00	224.68	76.67	-77.7	-99.6	3.8	7467803	99	44695
2025-01-06 11:57:10.21	224.05	76.40	-77.8	-99.7	3.8	7469024	99	44774
2025-01-06 11:57:10.43	223.41	76.13	-77.8	-99.6	3.8	7437744	99	44540
2025-01-06 11:57:10.63	222.85	75.87	-77.5	-99.3	3.8	7462310	99	44250
2025-01-06 11:57:10.84	222.29	75.61	-77.7	-99.5	3.8	7459411	99	44501
2025-01-06 11:57:11.04	221.77	75.35	-77.6	-99.5	3.8	7461166	99	44785
2025-01-06 11:57:11.24	221.27	75.10	-77.8	-99.7	3.8	7437438	99	44772
2025-01-06 11:57:11.44	220.79	74.84	-77.6	-99.5	3.8	7460861	99	44801
2025-01-06 11:57:11.66	220.28	74.56	-77.6	-99.5	3.8	7455368	99	44771
2025-01-06 11:57:11.87	219.81	74.29	-77.8	-99.7	3.8	7482070	99	44798
2025-01-06 11:57:12.09	219.34	74.01	-77.7	-99.6	3.8	7461013	99	44962
2025-01-06 11:57:12.31	218.89	73.72	-77.6	-99.6	3.8	7471160	99	44913
2025-01-06 11:57:12.52	218.47	73.45	-77.7	-99.6	3.8	7444534	99	44940
2025-01-06 11:57:12.74	218.04	73.17	-77.7	-99.6	3.8	7452316	99	44811
2025-01-06 11:57:12.95	217.65	72.90	-77.8	-99.7	3.8	7449645	99	44766
2025-01-06 11:57:13.17	217.25	72.62	-77.6	-99.5	3.8	7445449	99	44784
2025-01-06 11:57:13.38	216.89	72.35	-77.6	-99.5	3.8	7462310	99	44717
2025-01-06 11:57:13.60	216.52	72.07	-77.8	-99.6	3.8	7478866	99	44646
2025-01-06 11:57:13.81	216.18	71.80	-77.8	-99.7	3.8	7470703	99	44739
2025-01-06 11:57:14.03	215.83	71.51	-77.7	-99.6	3.8	7463531	99	44722
2025-01-06 11:57:14.24	215.51	71.24	-77.8	-99.7	3.8	7470932	99	44966
2025-01-06 11:57:14.46	215.18	70.96	-77.7	-99.6	3.8	7453918	99	44930
2025-01-06 11:57:14.66	214.90	70.70	-77.7	-99.6	3.8	7466354	99	44826
2025-01-06 11:57:14.86	214.62	70.45	-77.7	-99.6	3.8	7463607	99	44829
2025-01-06 11:57:15.08	214.32	70.17	-77.7	-99.6	3.8	7451171	99	44774

#Closed at: 2025-01-06 11:57:15