passes_logs/2025/01/06/X_MFTI_01/X_MFTI_01__20250106_234749_NOAA_20_rec.log

#Pass ID: 20250106_234749_NOAA 20
#Satellite: NOAA 20
#Configuration: NOAA 20
#Start time: 2025-01-06 23:47:43

#Version: 1.5.20200625
#Station: X_MFTI_01
#Location: 37.5186 lon 55.9291 lat
#TLE: 1 43013U 17073A   23362.44808611  .00000160  00000+0  96626-4 0  9996
#TLE: 2 43013  98.7331 297.9536 0000783  57.5916 302.5335 14.19555620316533

#Time	Az	El	Level	Level2	SNR	BER	Gain	Gain2
2025-01-06 23:47:43.82	16.35	67.72	-71.4	-95.4	3.8	14934455	99	57487
2025-01-06 23:47:44.23	16.34	67.91	-71.5	-95.6	3.8	14903999	99	57487
2025-01-06 23:47:44.65	16.33	68.10	-71.4	-95.4	3.8	14905822	99	57335
2025-01-06 23:47:45.06	16.31	68.29	-71.5	-95.5	3.8	14908264	99	57011
2025-01-06 23:47:45.48	16.30	68.48	-71.4	-95.4	3.8	14912155	99	56767
2025-01-06 23:47:45.90	16.29	68.67	-71.5	-95.6	3.9	14918579	99	57429
2025-01-06 23:47:46.31	16.27	68.86	-71.5	-95.5	3.8	14909927	99	56976
2025-01-06 23:47:46.73	16.26	69.05	-71.5	-95.5	3.8	14908302	99	57535
2025-01-06 23:47:47.15	16.25	69.25	-71.5	-95.6	3.8	14910247	99	57350
2025-01-06 23:47:47.57	16.23	69.44	-71.4	-95.4	3.9	14908805	99	57055
2025-01-06 23:47:47.98	16.22	69.63	-71.5	-95.6	3.8	14898384	99	57632
2025-01-06 23:47:48.40	16.20	69.83	-71.5	-95.5	3.8	14912773	99	56862
2025-01-06 23:47:48.82	16.19	70.02	-71.5	-95.5	3.8	14910957	99	57499
2025-01-06 23:47:49.23	16.17	70.21	-71.5	-95.5	3.9	14898277	99	57285
2025-01-06 23:47:49.65	16.16	70.41	-71.4	-95.2	3.8	14898277	99	56315
2025-01-06 23:47:50.07	16.14	70.60	-71.5	-95.5	3.8	14913284	99	56916
2025-01-06 23:47:50.48	16.13	70.80	-71.5	-95.6	3.8	14911888	99	57585
2025-01-06 23:47:50.90	16.11	70.99	-71.5	-95.6	3.8	14899688	99	57341
2025-01-06 23:47:51.32	16.09	71.19	-71.5	-95.5	3.8	14895195	99	57156
2025-01-06 23:47:51.73	16.07	71.38	-71.4	-95.5	3.8	14913253	99	57194
2025-01-06 23:47:52.15	16.06	71.58	-71.5	-95.6	3.8	14910224	99	57518
2025-01-06 23:47:52.57	16.04	71.78	-71.4	-95.5	3.8	14901115	99	57446
2025-01-06 23:47:52.98	16.02	71.97	-71.4	-95.4	3.8	14894424	99	56641
2025-01-06 23:47:53.40	16.00	72.17	-71.4	-95.4	3.8	14897811	99	56760
2025-01-06 23:47:53.82	15.98	72.37	-71.4	-95.3	3.9	14905487	99	56367
2025-01-06 23:47:54.23	15.96	72.57	-71.4	-95.4	3.8	14904083	99	56718
2025-01-06 23:47:54.65	15.94	72.77	-71.4	-95.4	3.8	14903121	99	56871
2025-01-06 23:47:55.07	15.92	72.97	-71.5	-95.4	3.8	14919326	99	56771
2025-01-06 23:47:55.48	15.89	73.17	-71.5	-95.4	3.9	14907806	99	56393
2025-01-06 23:47:55.90	15.87	73.37	-71.5	-95.4	3.8	14892593	99	56219
2025-01-06 23:47:56.32	15.85	73.57	-71.4	-95.4	3.8	14898429	99	56690
2025-01-06 23:47:56.74	15.82	73.77	-71.4	-95.4	3.8	14907531	99	56679
2025-01-06 23:47:57.16	15.80	73.97	-71.4	-95.4	3.8	14902671	99	56770
2025-01-06 23:47:57.57	15.77	74.17	-71.4	-95.3	3.8	14904609	99	56172
2025-01-06 23:47:57.99	15.75	74.38	-71.4	-95.4	3.8	14892776	99	56750
2025-01-06 23:47:58.41	15.72	74.58	-71.5	-95.4	3.8	14905853	99	56590
2025-01-06 23:47:58.82	15.69	74.78	-71.4	-95.2	3.9	14895835	99	55859
2025-01-06 23:47:59.24	15.66	74.98	-71.4	-95.4	3.8	14895835	99	56753
2025-01-06 23:47:59.66	15.63	75.19	-71.5	-95.4	3.8	14913925	99	56809
2025-01-06 23:48:00.07	15.60	75.39	-71.5	-95.4	3.8	14904785	99	56296
2025-01-06 23:48:00.49	15.57	75.59	-71.4	-95.4	3.8	14904853	99	56827
2025-01-06 23:48:00.90	15.54	75.79	-71.4	-95.2	3.8	14894241	99	56186
2025-01-06 23:48:01.32	15.51	76.00	-71.4	-95.3	3.8	14897094	99	56695
2025-01-06 23:48:01.74	15.47	76.20	-71.5	-95.3	3.9	14920150	99	56383
2025-01-06 23:48:02.15	15.44	76.41	-71.4	-95.3	3.8	14895484	99	56127
2025-01-06 23:48:02.57	15.40	76.61	-71.4	-95.4	3.8	14901199	99	56685
2025-01-06 23:48:02.99	15.36	76.82	-71.5	-95.4	3.8	14907928	99	56439
2025-01-06 23:48:03.41	15.32	77.03	-71.4	-95.4	3.8	14903289	99	56819
2025-01-06 23:48:03.82	15.28	77.23	-71.5	-95.3	3.8	14901771	99	56046
2025-01-06 23:48:04.24	15.24	77.44	-71.4	-95.3	3.8	14904602	99	56733
2025-01-06 23:48:04.66	15.20	77.65	-71.4	-95.3	3.8	14925827	99	56552
2025-01-06 23:48:05.07	15.15	77.85	-71.5	-95.4	3.8	14898414	99	56558
2025-01-06 23:48:05.49	15.11	78.06	-71.4	-95.4	3.8	14901885	99	56541
2025-01-06 23:48:05.91	15.06	78.27	-71.4	-95.3	3.8	14904563	99	56689
2025-01-06 23:48:06.33	15.01	78.48	-71.4	-95.3	3.8	14918197	99	56502
2025-01-06 23:48:06.75	14.96	78.68	-71.4	-95.3	3.9	14910453	99	56221
2025-01-06 23:48:07.16	14.90	78.89	-75.0	-98.7	3.8	14899940	99	55684
2025-01-06 23:48:07.58	14.85	79.10	-71.4	-95.3	3.8	14926902	99	56586
2025-01-06 23:48:08.00	14.79	79.31	-71.5	-95.4	3.8	14926902	99	56534
2025-01-06 23:48:08.42	14.73	79.52	-71.4	-95.4	3.8	14918663	99	56680
2025-01-06 23:48:08.83	14.66	79.72	-71.4	-95.3	3.8	14911231	99	56638
2025-01-06 23:48:09.25	14.60	79.94	-71.4	-95.3	3.8	14901924	99	56411
2025-01-06 23:48:09.67	14.53	80.15	-71.4	-95.3	3.9	14912002	99	56355
2025-01-06 23:48:10.09	14.45	80.36	-71.4	-95.3	3.8	14906539	99	56694
2025-01-06 23:48:10.50	14.38	80.56	-71.4	-95.4	3.8	14905456	99	56646
2025-01-06 23:48:10.92	14.30	80.78	-71.4	-95.3	3.8	14904006	99	56620
2025-01-06 23:48:11.34	14.22	80.99	-71.5	-95.4	3.9	14913810	99	56371
2025-01-06 23:48:11.75	14.13	81.19	-71.4	-95.3	3.8	14907737	99	56037
2025-01-06 23:48:12.17	14.04	81.41	-71.4	-95.4	3.8	14899360	99	56728
2025-01-06 23:48:12.59	13.94	81.62	-71.5	-95.4	3.8	14908493	99	56571
2025-01-06 23:48:13.00	13.84	81.83	-71.4	-95.5	3.8	14903312	99	57272
2025-01-06 23:48:13.42	13.73	82.04	-71.4	-95.4	3.8	14911933	99	56646
2025-01-06 23:48:13.84	13.62	82.25	-71.4	-95.4	3.8	14905990	99	56873
2025-01-06 23:48:14.25	13.50	82.46	-71.4	-95.4	3.8	14908775	99	56794
2025-01-06 23:48:14.67	13.37	82.67	-71.4	-95.4	3.9	14906158	99	56939
2025-01-06 23:48:15.09	13.24	82.89	-71.7	-95.6	3.8	14899009	99	56328
2025-01-06 23:48:15.51	13.10	83.10	-71.5	-95.5	3.8	14908851	99	57091
2025-01-06 23:48:15.92	12.95	83.31	-71.5	-95.5	3.8	14911453	99	57095
2025-01-06 23:48:16.34	12.78	83.52	-71.4	-95.4	3.8	14905593	99	56976
2025-01-06 23:48:16.76	12.61	83.73	-71.4	-95.5	3.8	14911170	99	57279
2025-01-06 23:48:17.18	12.42	83.95	-71.4	-95.4	3.8	14902862	99	57101
2025-01-06 23:48:17.59	12.23	84.16	-71.5	-95.5	3.9	14902862	99	57053
2025-01-06 23:48:18.01	12.01	84.37	-71.5	-95.5	3.9	14917701	99	57256
2025-01-06 23:48:18.43	11.78	84.58	-71.4	-95.4	3.8	14901672	99	57038
2025-01-06 23:48:18.85	11.53	84.80	-71.5	-95.5	3.8	14901565	99	57059
2025-01-06 23:48:19.26	11.26	85.01	-71.4	-95.5	3.9	14910842	99	57243
2025-01-06 23:48:19.68	10.96	85.22	-71.5	-95.5	3.8	14902763	99	57515
2025-01-06 23:48:20.10	10.63	85.43	-71.4	-95.4	3.8	14904785	99	57118
2025-01-06 23:48:20.51	10.28	85.64	-71.5	-95.6	3.8	14914062	99	57269
2025-01-06 23:48:20.93	9.89	85.86	-71.5	-95.5	3.8	14911804	99	57281
2025-01-06 23:48:21.35	9.45	86.07	-71.5	-95.5	3.8	14912422	99	57549
2025-01-06 23:48:21.76	8.97	86.28	-71.5	-95.4	3.8	14908721	99	56557
2025-01-06 23:48:22.18	8.42	86.49	-71.5	-95.6	3.8	14912849	99	57414
2025-01-06 23:48:22.60	7.81	86.71	-71.4	-95.4	3.8	14907089	99	56666
2025-01-06 23:48:23.01	7.12	86.91	-71.4	-95.3	3.8	14900856	99	56529
2025-01-06 23:48:23.43	6.31	87.13	-71.4	-95.3	3.8	14903999	99	56449
2025-01-06 23:48:23.85	5.38	87.34	-71.5	-95.4	3.8	14904052	99	56346
2025-01-06 23:48:24.27	4.28	87.55	-71.4	-95.3	3.8	14902740	99	56267
2025-01-06 23:48:24.68	3.01	87.75	-71.4	-95.4	3.8	14905036	99	56726
2025-01-06 23:48:25.10	1.44	87.96	-71.4	-95.3	3.8	14917007	99	56370
2025-01-06 23:48:25.52	359.52	88.17	-71.4	-95.4	3.8	14910011	99	56663
2025-01-06 23:48:25.93	357.18	88.37	-71.4	-95.3	3.9	14901184	99	56148
2025-01-06 23:48:26.35	354.11	88.57	-71.4	-95.3	3.8	14901184	99	56223
2025-01-06 23:48:26.77	350.06	88.76	-71.4	-95.3	3.8	14907615	99	56451
2025-01-06 23:48:27.19	344.53	88.95	-71.4	-95.3	3.9	14907341	99	56347
2025-01-06 23:48:27.61	336.72	89.12	-71.4	-95.2	3.8	14903602	99	55674
2025-01-06 23:48:28.02	325.75	89.27	-71.4	-95.4	3.8	14894340	99	56813
2025-01-06 23:48:28.44	309.80	89.38	-71.5	-95.4	3.8	14905700	99	56712
2025-01-06 23:48:28.86	289.46	89.42	-71.4	-95.4	3.8	14900039	99	56724
2025-01-06 23:48:29.28	268.74	89.39	-71.9	-95.7	3.8	14901687	99	56119
2025-01-06 23:48:29.69	252.41	89.29	-71.4	-95.4	3.8	14907722	99	56614
2025-01-06 23:48:30.11	240.51	89.14	-71.4	-95.4	3.8	14919799	99	56613
2025-01-06 23:48:30.53	232.28	88.97	-71.4	-95.3	3.8	14911117	99	56519
2025-01-06 23:48:30.94	226.60	88.79	-71.4	-95.3	3.8	14899597	99	56538
2025-01-06 23:48:31.36	222.35	88.60	-71.4	-95.3	3.8	14910179	99	56590
2025-01-06 23:48:31.78	219.14	88.40	-71.5	-95.4	3.9	14913391	99	56438
2025-01-06 23:48:32.19	216.70	88.20	-71.5	-95.3	3.8	14904777	99	56289
2025-01-06 23:48:32.61	214.71	88.00	-71.4	-95.4	3.8	14910911	99	56831
2025-01-06 23:48:33.03	213.09	87.79	-71.4	-95.3	3.8	14901527	99	56538
2025-01-06 23:48:33.45	211.75	87.58	-71.4	-95.3	3.9	14904518	99	56340
2025-01-06 23:48:33.86	210.66	87.37	-71.4	-95.3	3.8	14919502	99	56067
2025-01-06 23:48:34.28	209.70	87.16	-71.4	-95.4	3.8	14902938	99	57167
2025-01-06 23:48:34.70	208.87	86.95	-71.5	-95.5	3.8	14907485	99	57149
2025-01-06 23:48:35.12	208.15	86.74	-71.4	-95.5	3.8	14909736	99	57149
2025-01-06 23:48:35.54	207.52	86.52	-71.4	-95.3	3.8	14904876	99	56350
2025-01-06 23:48:35.95	206.97	86.31	-71.4	-95.3	3.8	14904876	99	56584
2025-01-06 23:48:36.37	206.48	86.10	-71.4	-95.3	3.8	14917060	99	56488
2025-01-06 23:48:36.79	206.03	85.89	-71.4	-95.3	3.8	14914138	99	56407
2025-01-06 23:48:37.20	205.64	85.68	-71.4	-95.3	3.8	14915107	99	56428
2025-01-06 23:48:37.62	205.28	85.46	-71.4	-95.3	3.8	14910903	99	56607
2025-01-06 23:48:38.03	204.95	85.26	-71.5	-95.5	3.9	14916175	99	57220
2025-01-06 23:48:38.45	204.65	85.04	-71.5	-95.5	3.9	14912406	99	57074
2025-01-06 23:48:38.87	204.37	84.83	-71.4	-95.4	3.8	14901985	99	56807
2025-01-06 23:48:39.29	204.12	84.61	-71.4	-95.5	3.8	14912643	99	57271
2025-01-06 23:48:39.71	203.88	84.40	-71.5	-95.5	3.8	14902320	99	57484
2025-01-06 23:48:40.12	203.67	84.19	-71.5	-95.5	3.9	14905815	99	56915
2025-01-06 23:48:40.54	203.47	83.98	-71.4	-95.5	3.8	14913208	99	57504
2025-01-06 23:48:40.96	203.28	83.76	-71.4	-95.4	3.8	14909873	99	57133
2025-01-06 23:48:41.37	203.10	83.55	-71.5	-95.6	3.8	14918457	99	57438
2025-01-06 23:48:41.79	202.94	83.34	-71.5	-95.6	3.8	14901779	99	57527
2025-01-06 23:48:42.21	202.79	83.13	-71.5	-95.5	3.8	14903083	99	57473
2025-01-06 23:48:42.62	202.64	82.92	-71.5	-95.6	3.8	14904373	99	57631
2025-01-06 23:48:43.04	202.51	82.70	-71.5	-95.4	3.8	14911895	99	56669
2025-01-06 23:48:43.46	202.38	82.49	-71.5	-95.4	3.8	14906173	99	56726
2025-01-06 23:48:43.87	202.26	82.28	-71.4	-95.3	3.8	14910705	99	56164
2025-01-06 23:48:44.29	202.15	82.07	-71.4	-95.3	3.8	14923202	99	56653
2025-01-06 23:48:44.71	202.04	81.86	-71.4	-95.3	3.8	14923202	99	56486
2025-01-06 23:48:45.12	201.94	81.65	-71.5	-95.4	3.8	14903182	99	56681
2025-01-06 23:48:45.54	201.84	81.44	-71.4	-95.3	3.8	14903182	99	56487
2025-01-06 23:48:45.96	201.74	81.22	-71.4	-95.4	3.8	14911392	99	56856
2025-01-06 23:48:46.38	201.66	81.01	-71.4	-95.4	3.9	14907882	99	56532
2025-01-06 23:48:46.79	201.57	80.81	-71.3	-95.1	3.8	14915550	99	56029
2025-01-06 23:48:47.21	201.49	80.59	-71.4	-95.3	3.8	14909217	99	56710
2025-01-06 23:48:47.63	201.42	80.38	-71.4	-95.3	3.9	14912048	99	56443
2025-01-06 23:48:48.04	201.34	80.18	-71.4	-95.3	3.8	14901969	99	56445
2025-01-06 23:48:48.46	201.27	79.96	-71.4	-95.3	3.8	14911575	99	56396
2025-01-06 23:48:48.88	201.21	79.75	-71.4	-95.3	3.8	14907264	99	56488
2025-01-06 23:48:49.30	201.14	79.54	-71.4	-95.4	3.8	14911376	99	56747
2025-01-06 23:48:49.71	201.08	79.34	-71.4	-95.4	3.8	14893196	99	56805
2025-01-06 23:48:50.13	201.02	79.13	-71.4	-95.3	3.8	14897300	99	56668
2025-01-06 23:48:50.54	200.97	78.92	-71.4	-95.3	3.8	14901763	99	56581
2025-01-06 23:48:50.96	200.91	78.71	-71.4	-95.4	3.9	14903739	99	56648
2025-01-06 23:48:51.38	200.86	78.50	-71.4	-95.4	3.8	14908355	99	56854
2025-01-06 23:48:51.80	200.81	78.29	-71.4	-95.4	3.8	14904106	99	56985
2025-01-06 23:48:52.22	200.76	78.08	-71.4	-95.4	3.8	14914054	99	56703
2025-01-06 23:48:52.63	200.71	77.88	-71.4	-95.4	3.9	14906898	99	56674
2025-01-06 23:48:53.05	200.67	77.67	-71.4	-95.4	3.8	14903724	99	56718
2025-01-06 23:48:53.47	200.62	77.46	-71.4	-95.3	3.8	14909927	99	56635
2025-01-06 23:48:53.89	200.58	77.25	-71.4	-95.5	3.8	14916793	99	57331
2025-01-06 23:48:54.30	200.54	77.05	-71.4	-95.3	3.8	14916793	99	56682
2025-01-06 23:48:54.72	200.50	76.84	-71.4	-95.3	3.8	14901161	99	57001
2025-01-06 23:48:55.13	200.47	76.64	-71.4	-95.4	3.8	14913284	99	56855
2025-01-06 23:48:55.55	200.43	76.44	-71.4	-95.5	3.8	14912963	99	57138
2025-01-06 23:48:55.97	200.39	76.23	-71.4	-95.4	3.9	14922607	99	56961
2025-01-06 23:48:56.38	200.36	76.03	-71.4	-95.4	3.8	14896629	99	57075
2025-01-06 23:48:56.80	200.32	75.82	-71.4	-95.4	3.8	14903633	99	57177
2025-01-06 23:48:57.22	200.29	75.62	-71.4	-95.5	3.8	14918220	99	57285
2025-01-06 23:48:57.64	200.26	75.41	-71.5	-95.5	3.9	14903869	99	56962
2025-01-06 23:48:58.05	200.23	75.21	-71.4	-95.3	3.8	14903236	99	56617
2025-01-06 23:48:58.47	200.20	75.00	-71.3	-95.3	3.8	14901817	99	56722
2025-01-06 23:48:58.88	200.17	74.80	-71.4	-95.3	3.8	14911437	99	56695
2025-01-06 23:48:59.30	200.14	74.60	-71.4	-95.3	3.8	14908515	99	56656
2025-01-06 23:48:59.72	200.12	74.40	-71.4	-95.3	3.8	14919342	99	56487
2025-01-06 23:49:00.14	200.09	74.19	-71.4	-95.4	3.8	14915855	99	56706
2025-01-06 23:49:00.55	200.07	73.99	-71.4	-95.4	3.9	14907341	99	56881
2025-01-06 23:49:00.97	200.04	73.79	-71.4	-95.5	3.8	14899642	99	57402
2025-01-06 23:49:01.39	200.02	73.59	-71.4	-95.5	3.8	14901382	99	57363
2025-01-06 23:49:01.80	199.99	73.39	-71.5	-95.6	3.8	14903320	99	57566
2025-01-06 23:49:02.22	199.97	73.19	-71.5	-95.5	3.8	14916862	99	57570
2025-01-06 23:49:02.64	199.95	72.99	-71.5	-95.5	3.8	14911354	99	56925
2025-01-06 23:49:03.05	199.93	72.79	-71.4	-95.4	3.8	14911354	99	56820
2025-01-06 23:49:03.47	199.90	72.59	-71.4	-95.4	3.8	14905761	99	56653
2025-01-06 23:49:03.89	199.88	72.39	-71.4	-95.4	3.8	14915924	99	57034
2025-01-06 23:49:04.30	199.86	72.19	-71.4	-95.4	3.8	14902221	99	57070
2025-01-06 23:49:04.72	199.84	71.99	-71.4	-95.3	3.8	14893478	99	56669
2025-01-06 23:49:05.14	199.82	71.79	-71.4	-95.4	3.9	14913093	99	56942
2025-01-06 23:49:05.56	199.81	71.60	-71.4	-95.4	3.9	14906898	99	56721
2025-01-06 23:49:05.97	199.79	71.40	-71.4	-95.4	3.8	14902267	99	56717
2025-01-06 23:49:06.39	199.77	71.20	-71.4	-95.3	3.8	14904983	99	56749
2025-01-06 23:49:06.81	199.75	71.01	-71.5	-95.5	3.8	14928146	99	57102
2025-01-06 23:49:07.22	199.74	70.81	-71.4	-95.3	3.8	14891746	99	56330
2025-01-06 23:49:07.64	199.72	70.62	-71.4	-95.3	3.8	14904235	99	56440
2025-01-06 23:49:08.06	199.70	70.42	-71.5	-95.4	3.8	14903465	99	56830

#Closed at: 2025-01-06 23:49:08