passes_logs/2025/01/20/Planum_Noyabrsk/Planum_Noyabrsk__20250120_061926_NOAA_19_rec.log

#Pass ID: 20250120_061926_NOAA 19
#Satellite: NOAA 19
#Configuration: NOAA 19
#Start time: 2025-01-20 06:19:31.883536

#LorettStation: 1.0.0 05.05.2024
#Station: Planum_Noyabrsk
#Location: 75.446886 lon 63.207202 lat
#TLE: 1 33591U 09005A   25019.46435516  .00000342  00000+0  20683-3 0  9996
#TLE: 2 33591  99.0188  83.2611 0014324  45.5586 314.6755 14.13263120822170

#Time	Az	El	Level	SNR
2025-01-20 06:19:40.082913	7.9	31.5	-58.7	0.0
2025-01-20 06:19:41.225507	7.7	31.7	-60.4	1.8
2025-01-20 06:19:42.370583	7.6	31.9	-59.9	1.5
2025-01-20 06:19:43.513662	7.5	32.1	-60.6	1.7
2025-01-20 06:19:44.656743	7.3	32.3	-60.6	2.3
2025-01-20 06:19:45.798825	7.2	32.6	-62.1	3.8
2025-01-20 06:19:46.941906	7.0	32.8	-63.2	3.5
2025-01-20 06:19:48.085984	6.8	33.0	-62.0	1.4
2025-01-20 06:19:49.228067	6.7	33.2	-62.2	3.3
2025-01-20 06:19:50.370151	6.5	33.4	-62.6	3.6
2025-01-20 06:19:51.514736	6.4	33.7	-62.3	3.7
2025-01-20 06:19:52.656820	6.2	33.9	-63.5	2.0
2025-01-20 06:19:53.798903	6.0	34.1	-62.3	3.2
2025-01-20 06:19:54.942491	5.9	34.3	-63.1	4.6
2025-01-20 06:19:56.085572	5.7	34.6	-63.6	5.1
2025-01-20 06:19:57.230647	5.5	34.8	-62.6	3.8
2025-01-20 06:19:58.375723	5.3	35.0	-63.3	5.0
2025-01-20 06:19:59.519310	5.2	35.3	-64.1	6.0
2025-01-20 06:20:00.662391	5.0	35.5	-62.7	5.9
2025-01-20 06:20:01.806469	4.8	35.7	-62.6	3.2
2025-01-20 06:20:02.949550	4.6	36.0	-62.8	6.0
2025-01-20 06:20:04.094624	4.4	36.2	-62.2	5.8
2025-01-20 06:20:05.236217	4.2	36.4	-62.3	5.6
2025-01-20 06:20:06.379805	4.0	36.7	-62.5	6.9
2025-01-20 06:20:07.522886	3.8	36.9	-62.4	6.2
2025-01-20 06:20:08.671465	3.6	37.2	-62.3	7.0
2025-01-20 06:20:09.813554	3.4	37.4	-62.1	6.6
2025-01-20 06:20:10.955631	3.2	37.7	-62.6	6.9
2025-01-20 06:20:12.101215	3.0	37.9	-62.4	5.2
2025-01-20 06:20:13.243298	2.8	38.2	-62.9	5.5
2025-01-20 06:20:14.386887	2.6	38.4	-62.8	6.3
2025-01-20 06:20:15.529968	2.3	38.7	-61.8	7.5
2025-01-20 06:20:16.674046	2.1	38.9	-61.2	4.1
2025-01-20 06:20:17.816129	1.9	39.2	-62.0	6.5
2025-01-20 06:20:18.957723	1.7	39.4	-61.2	5.1
2025-01-20 06:20:20.099809	1.4	39.7	-62.0	7.6
2025-01-20 06:20:21.244882	1.2	40.0	-62.4	7.4
2025-01-20 06:20:22.386474	0.9	40.2	-61.3	6.3
2025-01-20 06:20:23.528557	0.7	40.5	-60.9	6.1
2025-01-20 06:20:24.670639	0.4	40.7	-61.5	7.6
2025-01-20 06:20:25.817710	0.2	41.0	-61.2	6.8
2025-01-20 06:20:26.960791	359.9	41.3	-61.3	5.7
2025-01-20 06:20:28.104868	359.7	41.5	-61.3	5.3
2025-01-20 06:20:29.246953	359.4	41.8	-61.7	6.7
2025-01-20 06:20:30.391030	359.1	42.1	-61.4	3.6
2025-01-20 06:20:31.534111	358.8	42.3	-61.0	4.8
2025-01-20 06:20:32.682178	358.6	42.6	-61.1	3.2
2025-01-20 06:20:33.824261	358.3	42.9	-60.5	4.3
2025-01-20 06:20:34.966344	358.0	43.2	-61.2	4.4
2025-01-20 06:20:36.110422	357.7	43.4	-59.9	4.1
2025-01-20 06:20:37.256006	357.4	43.7	-61.1	4.2
2025-01-20 06:20:38.399087	357.1	44.0	-59.9	3.2
2025-01-20 06:20:39.542166	356.7	44.3	-59.7	6.3
2025-01-20 06:20:40.686245	356.4	44.6	-59.7	3.8
2025-01-20 06:20:41.837305	356.1	44.8	-59.4	3.6
2025-01-20 06:20:42.983377	355.8	45.1	-59.0	2.6
2025-01-20 06:20:44.126458	355.4	45.4	-59.4	1.5
2025-01-20 06:20:45.268055	355.1	45.7	-58.3	1.3
2025-01-20 06:20:46.416123	354.7	46.0	-58.5	0.1
2025-01-20 06:20:47.559203	354.4	46.3	-57.6	0.0
2025-01-20 06:20:48.702284	354.0	46.5	-57.7	0.0
2025-01-20 06:20:49.845364	353.6	46.8	-57.4	0.9
2025-01-20 06:20:50.989949	353.3	47.1	-56.8	0.0
2025-01-20 06:20:52.134541	352.9	47.4	-55.9	0.0
2025-01-20 06:20:53.278614	352.5	47.7	-56.6	2.5
2025-01-20 06:20:54.421696	352.1	48.0	-55.1	0.0
2025-01-20 06:20:55.564776	351.7	48.3	-56.7	0.0
2025-01-20 06:20:56.713841	351.3	48.5	-56.7	0.0
2025-01-20 06:20:57.856922	350.8	48.8	-56.0	0.0
2025-01-20 06:20:59.008979	350.4	49.1	-56.2	0.0
2025-01-20 06:21:00.151062	350.0	49.4	-56.2	0.5
2025-01-20 06:21:01.298643	349.5	49.7	-55.5	0.0
2025-01-20 06:21:02.446711	349.1	50.0	-55.9	0.0
2025-01-20 06:21:03.590789	348.6	50.3	-55.6	0.0
2025-01-20 06:21:04.735865	348.1	50.6	-56.4	1.7
2025-01-20 06:21:05.880941	347.6	50.9	-54.8	0.0
2025-01-20 06:21:07.029008	347.2	51.2	-54.9	0.0
2025-01-20 06:21:08.175080	346.7	51.4	-53.7	0.0
2025-01-20 06:21:09.319158	346.1	51.7	-54.0	0.0
2025-01-20 06:21:10.464234	345.6	52.0	-53.8	0.0
2025-01-20 06:21:11.608824	345.1	52.3	-54.5	0.0
2025-01-20 06:21:12.754895	344.5	52.6	-53.0	0.0
2025-01-20 06:21:13.901966	344.0	52.9	-54.1	0.0
2025-01-20 06:21:15.048039	343.4	53.2	-54.1	0.0
2025-01-20 06:21:16.194111	342.9	53.4	-54.2	0.0
2025-01-20 06:21:17.339694	342.3	53.7	-54.3	0.0
2025-01-20 06:21:18.482774	341.7	54.0	-54.5	0.0
2025-01-20 06:21:19.628847	341.1	54.3	-53.5	0.0
2025-01-20 06:21:20.773435	340.4	54.5	-54.7	0.0
2025-01-20 06:21:21.917513	339.8	54.8	-54.4	0.0
2025-01-20 06:21:23.064583	339.2	55.1	-55.0	0.0
2025-01-20 06:21:24.210656	338.5	55.3	-55.4	0.0
2025-01-20 06:21:25.354734	337.8	55.6	-54.7	0.0
2025-01-20 06:21:26.499809	337.1	55.9	-53.4	0.0
2025-01-20 06:21:27.643909	336.5	56.1	-54.9	0.0
2025-01-20 06:21:28.788985	335.7	56.4	-58.2	2.5
2025-01-20 06:21:29.936055	335.0	56.6	-56.4	0.2
2025-01-20 06:21:31.083125	334.3	56.9	-55.6	0.0
2025-01-20 06:21:32.230195	333.5	57.1	-54.4	0.0
2025-01-20 06:21:33.374273	332.8	57.4	-54.8	0.0
2025-01-20 06:21:34.519349	332.0	57.6	-55.7	0.0
2025-01-20 06:21:35.664424	331.2	57.9	-55.6	1.4
2025-01-20 06:21:36.808503	330.4	58.1	-56.4	0.2
2025-01-20 06:21:37.955574	329.6	58.3	-55.8	0.0
2025-01-20 06:21:39.103640	328.7	58.5	-55.2	0.0
2025-01-20 06:21:40.249713	327.9	58.8	-55.9	0.0
2025-01-20 06:21:41.399776	327.0	59.0	-56.2	0.0
2025-01-20 06:21:42.546846	326.2	59.2	-57.9	0.0
2025-01-20 06:21:43.693917	325.3	59.4	-56.5	0.0
2025-01-20 06:21:44.840987	324.4	59.6	-56.3	0.0
2025-01-20 06:21:45.988057	323.5	59.8	-56.7	0.0
2025-01-20 06:21:47.134130	322.5	59.9	-56.3	0.0
2025-01-20 06:21:48.280203	321.6	60.1	-57.5	0.0
2025-01-20 06:21:49.427274	320.6	60.3	-57.1	0.0
2025-01-20 06:21:50.578334	319.7	60.4	-58.3	0.0
2025-01-20 06:21:51.724406	318.7	60.6	-56.7	0.0
2025-01-20 06:21:52.870991	317.7	60.7	-57.5	0.5
2025-01-20 06:21:54.015069	316.7	60.9	-58.1	0.7
2025-01-20 06:21:55.161142	315.7	61.0	-57.8	0.0
2025-01-20 06:21:56.306217	314.7	61.1	-57.8	0.0
2025-01-20 06:21:57.453287	313.6	61.3	-58.4	0.0
2025-01-20 06:21:58.600357	312.6	61.4	-58.4	0.0
2025-01-20 06:21:59.752416	311.5	61.5	-58.5	0.0
2025-01-20 06:22:00.898488	310.5	61.6	-59.6	0.8
2025-01-20 06:22:02.049548	309.4	61.7	-60.5	2.5
2025-01-20 06:22:03.201606	308.3	61.7	-60.2	0.2
2025-01-20 06:22:04.350671	307.2	61.8	-61.3	5.2
2025-01-20 06:22:05.499736	306.1	61.9	-64.1	7.6
2025-01-20 06:22:06.647804	305.0	61.9	-61.9	5.6
2025-01-20 06:22:07.798864	303.9	61.9	-65.2	6.4
2025-01-20 06:22:08.947930	302.8	62.0	-63.0	5.0
2025-01-20 06:22:10.096995	301.7	62.0	-61.8	4.8
2025-01-20 06:22:11.247057	300.6	62.0	-64.1	4.4
2025-01-20 06:22:12.399115	299.5	62.0	-66.1	9.6
2025-01-20 06:22:13.556161	298.4	62.0	-64.0	4.6
2025-01-20 06:22:14.705225	297.3	62.0	-63.2	4.7
2025-01-20 06:22:15.854290	296.2	62.0	-64.9	8.6
2025-01-20 06:22:17.001361	295.1	61.9	-63.9	5.8
2025-01-20 06:22:18.151423	294.0	61.9	-63.2	7.6
2025-01-20 06:22:19.299492	292.9	61.9	-64.1	9.1
2025-01-20 06:22:20.448557	291.8	61.8	-65.0	10.4
2025-01-20 06:22:21.596138	290.7	61.7	-64.6	10.4
2025-01-20 06:22:22.746201	289.7	61.6	-64.9	7.1
2025-01-20 06:22:23.895272	288.6	61.6	-63.1	7.3
2025-01-20 06:22:25.045347	287.5	61.5	-62.5	5.8
2025-01-20 06:22:26.194412	286.5	61.4	-63.3	7.3
2025-01-20 06:22:27.343573	285.4	61.3	-64.5	8.3
2025-01-20 06:22:28.489646	284.4	61.1	-64.2	7.1
2025-01-20 06:22:29.639709	283.4	61.0	-62.9	8.1
2025-01-20 06:22:30.789284	282.4	60.9	-62.7	6.3
2025-01-20 06:22:31.938351	281.3	60.7	-62.5	7.7
2025-01-20 06:22:33.086417	280.4	60.6	-63.4	7.5
2025-01-20 06:22:34.234506	279.4	60.4	-63.0	6.7
2025-01-20 06:22:35.382574	278.4	60.3	-63.9	7.8
2025-01-20 06:22:36.535629	277.5	60.1	-64.4	11.0
2025-01-20 06:22:37.681702	276.5	59.9	-64.2	10.1
2025-01-20 06:22:38.832762	275.6	59.7	-62.4	7.0
2025-01-20 06:22:39.981828	274.7	59.5	-62.6	8.1
2025-01-20 06:22:41.131890	273.8	59.3	-65.4	10.5
2025-01-20 06:22:42.280955	272.9	59.1	-64.1	11.6
2025-01-20 06:22:43.437003	272.0	58.9	-64.5	8.7
2025-01-20 06:22:44.586068	271.1	58.7	-65.1	12.0
2025-01-20 06:22:45.733138	270.3	58.5	-63.2	7.7
2025-01-20 06:22:46.882204	269.5	58.3	-65.6	12.8
2025-01-20 06:22:48.031270	268.6	58.1	-65.0	11.6
2025-01-20 06:22:49.184325	267.8	57.8	-66.6	11.8
2025-01-20 06:22:50.333390	267.0	57.6	-65.9	12.0
2025-01-20 06:22:51.483453	266.3	57.3	-66.4	12.8
2025-01-20 06:22:52.633515	265.5	57.1	-66.6	12.9
2025-01-20 06:22:53.782093	264.8	56.9	-63.5	6.9
2025-01-20 06:22:54.933154	264.0	56.6	-63.1	7.0
2025-01-20 06:22:56.081221	263.3	56.3	-62.9	6.9
2025-01-20 06:22:57.239264	262.6	56.1	-63.4	6.9
2025-01-20 06:22:58.390343	261.9	55.8	-64.2	9.1
2025-01-20 06:22:59.539408	261.2	55.6	-65.0	7.9
2025-01-20 06:23:00.689470	260.5	55.3	-65.3	9.7
2025-01-20 06:23:01.844520	259.9	55.0	-62.8	7.5
2025-01-20 06:23:02.996578	259.2	54.7	-65.0	11.1
2025-01-20 06:23:04.143158	258.6	54.5	-63.3	7.7
2025-01-20 06:23:05.290228	258.0	54.2	-65.0	11.7
2025-01-20 06:23:06.441289	257.4	53.9	-65.1	10.9
2025-01-20 06:23:07.592349	256.8	53.6	-65.5	12.0
2025-01-20 06:23:08.742920	256.2	53.4	-63.6	9.3
2025-01-20 06:23:09.890988	255.6	53.1	-63.1	8.9
2025-01-20 06:23:11.039563	255.0	52.8	-63.4	8.6
2025-01-20 06:23:12.189626	254.5	52.5	-64.2	8.6
2025-01-20 06:23:13.338691	253.9	52.2	-65.4	12.2
2025-01-20 06:23:14.485762	253.4	51.9	-64.9	11.4
2025-01-20 06:23:15.636822	252.9	51.7	-63.9	9.1
2025-01-20 06:23:16.785889	252.4	51.4	-65.0	9.5
2025-01-20 06:23:17.931960	251.9	51.1	-65.2	9.4
2025-01-20 06:23:19.082529	251.4	50.8	-65.2	12.1
2025-01-20 06:23:20.231594	250.9	50.5	-66.3	14.1
2025-01-20 06:23:21.382655	250.4	50.2	-65.3	11.3
2025-01-20 06:23:22.532229	250.0	49.9	-66.0	13.9
2025-01-20 06:23:23.682291	249.5	49.6	-64.8	10.5
2025-01-20 06:23:24.832354	249.1	49.3	-65.2	10.3
2025-01-20 06:23:25.981446	248.6	49.0	-65.2	10.4
2025-01-20 06:23:27.126495	248.2	48.8	-65.6	10.4
2025-01-20 06:23:28.272568	247.8	48.5	-66.1	11.8
2025-01-20 06:23:29.422630	247.4	48.2	-65.8	12.2
2025-01-20 06:23:30.567705	247.0	47.9	-66.3	12.0
2025-01-20 06:23:31.713798	246.6	47.6	-65.9	10.5
2025-01-20 06:23:32.868848	246.2	47.3	-66.7	11.9
2025-01-20 06:23:34.011929	245.8	47.0	-65.9	9.9
2025-01-20 06:23:35.161501	245.4	46.7	-66.3	10.7
2025-01-20 06:23:36.305088	245.0	46.4	-66.3	10.4
2025-01-20 06:23:37.451667	244.7	46.2	-66.5	10.6
2025-01-20 06:23:38.598248	244.3	45.9	-66.4	10.4
2025-01-20 06:23:39.743321	244.0	45.6	-66.4	10.3
2025-01-20 06:23:40.886402	243.6	45.3	-66.6	11.9
2025-01-20 06:23:42.034470	243.3	45.0	-67.1	13.6
2025-01-20 06:23:43.179546	243.0	44.7	-67.1	11.9
2025-01-20 06:23:44.329608	242.6	44.5	-67.1	13.8
2025-01-20 06:23:45.472688	242.3	44.2	-67.4	13.9
2025-01-20 06:23:46.618762	242.0	43.9	-66.8	11.6
2025-01-20 06:23:47.761863	241.7	43.6	-66.5	12.6
2025-01-20 06:23:48.906938	241.4	43.4	-66.3	13.2
2025-01-20 06:23:50.051016	241.1	43.1	-66.3	11.9
2025-01-20 06:23:51.194096	240.8	42.8	-66.7	14.5
2025-01-20 06:23:52.340169	240.5	42.5	-66.4	14.6
2025-01-20 06:23:53.484267	240.2	42.3	-66.1	12.3
2025-01-20 06:23:54.628345	240.0	42.0	-65.5	11.5
2025-01-20 06:23:55.773421	239.7	41.7	-65.6	12.5
2025-01-20 06:23:56.915504	239.4	41.5	-66.1	12.9
2025-01-20 06:23:58.066073	239.2	41.2	-65.6	12.2
2025-01-20 06:23:59.209154	238.9	40.9	-66.2	12.7
2025-01-20 06:24:00.356224	238.6	40.7	-66.3	14.9
2025-01-20 06:24:01.500301	238.4	40.4	-65.8	12.6
2025-01-20 06:24:02.644379	238.1	40.1	-66.1	13.3
2025-01-20 06:24:03.790453	237.9	39.9	-66.1	13.1
2025-01-20 06:24:04.933535	237.7	39.6	-65.9	12.9
2025-01-20 06:24:06.078608	237.4	39.4	-65.7	12.4
2025-01-20 06:24:07.220691	237.2	39.1	-65.5	12.2
2025-01-20 06:24:08.367762	237.0	38.8	-65.6	12.8
2025-01-20 06:24:09.509847	236.7	38.6	-65.6	12.3
2025-01-20 06:24:10.660905	236.5	38.3	-65.6	12.4
2025-01-20 06:24:11.802988	236.3	38.1	-65.4	11.3
2025-01-20 06:24:12.944582	236.1	37.8	-66.5	13.2
2025-01-20 06:24:14.088662	235.9	37.6	-65.9	14.0
2025-01-20 06:24:15.232738	235.7	37.3	-66.3	12.6
2025-01-20 06:24:16.374821	235.5	37.1	-66.3	13.0
2025-01-20 06:24:17.516904	235.3	36.8	-66.1	12.0
2025-01-20 06:24:18.661979	235.1	36.6	-65.2	10.2
2025-01-20 06:24:19.804064	234.9	36.4	-66.0	12.3
2025-01-20 06:24:20.947144	234.7	36.1	-66.4	12.0
2025-01-20 06:24:22.091221	234.5	35.9	-65.2	9.5
2025-01-20 06:24:23.234809	234.3	35.7	-65.7	10.0
2025-01-20 06:24:24.376892	234.1	35.4	-65.6	10.3
2025-01-20 06:24:25.518976	233.9	35.2	-65.6	9.4
2025-01-20 06:24:26.664051	233.8	34.9	-66.2	9.7
2025-01-20 06:24:27.806135	233.6	34.7	-65.7	8.5
2025-01-20 06:24:28.948217	233.4	34.5	-65.9	8.5
2025-01-20 06:24:30.090300	233.2	34.3	-66.0	9.3
2025-01-20 06:24:31.239366	233.1	34.0	-65.8	8.0
2025-01-20 06:24:32.383444	232.9	33.8	-67.0	10.1
2025-01-20 06:24:33.525542	232.7	33.6	-66.5	8.6
2025-01-20 06:24:34.669621	232.6	33.4	-66.6	9.4
2025-01-20 06:24:35.811707	232.4	33.1	-66.7	9.5
2025-01-20 06:24:36.954785	232.3	32.9	-66.1	8.2
2025-01-20 06:24:38.097865	232.1	32.7	-66.4	9.6
2025-01-20 06:24:39.241943	231.9	32.5	-66.1	8.7
2025-01-20 06:24:40.389013	231.8	32.3	-64.9	6.7
2025-01-20 06:24:41.532095	231.6	32.0	-65.1	6.2
2025-01-20 06:24:42.676174	231.5	31.8	-64.2	5.8
2025-01-20 06:24:43.827232	231.3	31.6	-64.5	3.7
2025-01-20 06:24:44.971310	231.2	31.4	-63.9	4.4
2025-01-20 06:24:46.114391	231.1	31.2	-65.2	6.6
2025-01-20 06:24:47.256473	230.9	31.0	-65.0	6.9
2025-01-20 06:24:48.398556	230.8	30.8	-65.7	7.2
2025-01-20 06:24:49.544598	230.7	30.6	-66.4	10.3
2025-01-20 06:24:50.686556	230.5	30.4	-66.1	8.1
2025-01-20 06:24:51.833009	230.4	30.2	-70.0	4.4
#Closed at: 2025-01-20 06:19:26.888612