passes_logs/2025/01/20/Planum_Noyabrsk/Planum_Noyabrsk__20250120_064324_NOAA_18_rec.log

#Pass ID: 20250120_064324_NOAA 18
#Satellite: NOAA 18
#Configuration: NOAA 18
#Start time: 2025-01-20 06:43:29.943000

#LorettStation: 1.0.0 05.05.2024
#Station: Planum_Noyabrsk
#Location: 75.446886 lon 63.207202 lat
#TLE: 1 28654U 05018A   25019.40997687  .00000390  00000+0  23029-3 0  9996
#TLE: 2 28654  98.8559 100.4205 0014542 166.9757 193.1794 14.13490456 13803

#Time	Az	El	Level	SNR
2025-01-20 06:43:38.762427	24.6	31.7	-54.4	0.0
2025-01-20 06:43:39.905383	24.6	31.9	-53.4	0.0
2025-01-20 06:43:41.049336	24.7	32.1	-53.4	0.0
2025-01-20 06:43:42.192800	24.7	32.4	-53.0	0.0
2025-01-20 06:43:43.334268	24.8	32.6	-52.1	0.0
2025-01-20 06:43:44.479219	24.8	32.8	-54.0	0.0
2025-01-20 06:43:45.622685	24.9	33.1	-53.4	0.0
2025-01-20 06:43:46.764643	24.9	33.3	-54.0	0.0
2025-01-20 06:43:47.907599	25.0	33.6	-53.6	0.0
2025-01-20 06:43:49.051062	25.0	33.8	-54.8	0.0
2025-01-20 06:43:50.193020	25.1	34.0	-53.3	0.0
2025-01-20 06:43:51.335976	25.1	34.3	-53.8	0.0
2025-01-20 06:43:52.478932	25.2	34.5	-54.6	0.0
2025-01-20 06:43:53.625877	25.2	34.8	-53.8	0.0
2025-01-20 06:43:54.769830	25.3	35.0	-53.9	0.0
2025-01-20 06:43:55.914780	25.3	35.3	-54.4	0.0
2025-01-20 06:43:57.056739	25.4	35.5	-54.5	0.0
2025-01-20 06:43:58.199694	25.4	35.8	-54.2	0.0
2025-01-20 06:43:59.341652	25.5	36.0	-55.2	0.0
2025-01-20 06:44:00.483122	25.5	36.3	-54.2	0.0
2025-01-20 06:44:01.624588	25.6	36.6	-54.9	0.0
2025-01-20 06:44:02.765061	25.7	36.8	-55.6	0.0
2025-01-20 06:44:03.908016	25.7	37.1	-57.0	0.0
2025-01-20 06:44:05.050972	25.8	37.4	-55.1	0.0
2025-01-20 06:44:06.192930	25.8	37.6	-55.1	0.0
2025-01-20 06:44:07.337881	25.9	37.9	-55.7	0.0
2025-01-20 06:44:08.479349	26.0	38.2	-56.4	0.0
2025-01-20 06:44:09.623302	26.0	38.5	-56.2	0.0
2025-01-20 06:44:10.765261	26.1	38.7	-57.1	0.0
2025-01-20 06:44:11.908218	26.2	39.0	-55.4	0.0
2025-01-20 06:44:13.060147	26.2	39.3	-58.3	0.0
2025-01-20 06:44:14.201616	26.3	39.6	-57.1	0.0
2025-01-20 06:44:15.343574	26.4	39.9	-57.1	0.0
2025-01-20 06:44:16.485043	26.4	40.2	-56.2	0.0
2025-01-20 06:44:17.628000	26.5	40.5	-57.4	0.0
2025-01-20 06:44:18.768960	26.6	40.8	-56.2	0.0
2025-01-20 06:44:19.912913	26.7	41.1	-56.8	0.0
2025-01-20 06:44:21.056866	26.7	41.4	-57.2	0.0
2025-01-20 06:44:22.198825	26.8	41.7	-56.8	0.0
2025-01-20 06:44:23.343793	26.9	42.0	-57.3	0.0
2025-01-20 06:44:24.485752	27.0	42.3	-61.0	0.0
2025-01-20 06:44:25.628708	27.0	42.6	-59.3	0.0
2025-01-20 06:44:26.770685	27.1	42.9	-60.0	0.0
2025-01-20 06:44:27.914148	27.2	43.2	-57.9	0.0
2025-01-20 06:44:29.056105	27.3	43.6	-59.1	0.0
2025-01-20 06:44:30.197576	27.4	43.9	-58.9	0.6
2025-01-20 06:44:31.339535	27.5	44.2	-58.7	0.5
2025-01-20 06:44:32.481493	27.6	44.5	-58.6	1.1
2025-01-20 06:44:33.625466	27.7	44.9	-59.3	1.7
2025-01-20 06:44:34.767423	27.8	45.2	-60.4	2.8
2025-01-20 06:44:35.914369	27.9	45.5	-60.4	3.1
2025-01-20 06:44:37.055841	27.9	45.9	-59.4	2.3
2025-01-20 06:44:38.197799	28.0	46.2	-60.5	4.1
2025-01-20 06:44:39.341752	28.2	46.5	-61.3	5.4
2025-01-20 06:44:40.483711	28.3	46.9	-61.2	5.8
2025-01-20 06:44:41.626666	28.4	47.2	-60.8	4.2
2025-01-20 06:44:42.768624	28.5	47.6	-59.7	2.0
2025-01-20 06:44:43.915571	28.6	47.9	-60.9	6.3
2025-01-20 06:44:45.057528	28.7	48.3	-60.1	3.2
2025-01-20 06:44:46.202478	28.8	48.7	-61.1	4.3
2025-01-20 06:44:47.348939	28.9	49.0	-61.7	5.6
2025-01-20 06:44:48.494887	29.1	49.4	-61.4	4.6
2025-01-20 06:44:49.637860	29.2	49.8	-62.0	6.3
2025-01-20 06:44:50.783317	29.3	50.1	-61.7	5.2
2025-01-20 06:44:51.927270	29.4	50.5	-61.2	3.4
2025-01-20 06:44:53.069228	29.6	50.9	-61.6	4.8
2025-01-20 06:44:54.211186	29.7	51.3	-61.5	4.1
2025-01-20 06:44:55.352147	29.9	51.6	-62.0	3.6
2025-01-20 06:44:56.494105	30.0	52.0	-62.4	5.4
2025-01-20 06:44:57.638569	30.2	52.4	-62.3	3.5
2025-01-20 06:44:58.781525	30.3	52.8	-62.4	1.5
2025-01-20 06:44:59.922485	30.5	53.2	-61.8	2.4
2025-01-20 06:45:01.064444	30.6	53.6	-62.4	3.1
2025-01-20 06:45:02.206403	30.8	54.0	-61.6	1.2
2025-01-20 06:45:03.348867	31.0	54.4	-62.7	2.9
2025-01-20 06:45:04.490334	31.1	54.8	-62.3	1.1
2025-01-20 06:45:05.631295	31.3	55.2	-62.8	1.6
2025-01-20 06:45:06.774252	31.5	55.6	-65.0	4.6
2025-01-20 06:45:07.916212	31.7	56.1	-62.0	0.0
2025-01-20 06:45:09.059165	31.9	56.5	-61.6	0.0
2025-01-20 06:45:10.203117	32.1	56.9	-61.6	1.2
2025-01-20 06:45:11.345076	32.3	57.3	-61.4	0.0
2025-01-20 06:45:12.488032	32.5	57.7	-62.8	0.0
2025-01-20 06:45:13.630501	32.7	58.2	-62.3	3.1
2025-01-20 06:45:14.774964	33.0	58.6	-62.9	4.1
2025-01-20 06:45:15.918916	33.2	59.0	-61.6	1.8
2025-01-20 06:45:17.059877	33.4	59.5	-59.3	0.0
2025-01-20 06:45:18.206332	33.7	59.9	-62.3	3.4
2025-01-20 06:45:19.349288	33.9	60.4	-62.8	4.7
2025-01-20 06:45:20.492243	34.2	60.8	-63.0	5.3
2025-01-20 06:45:21.633713	34.5	61.3	-61.6	1.9
2025-01-20 06:45:22.775672	34.8	61.7	-61.5	2.2
2025-01-20 06:45:23.918136	35.1	62.2	-61.7	3.9
2025-01-20 06:45:25.060600	35.4	62.6	-61.4	3.6
2025-01-20 06:45:26.204553	35.7	63.1	-61.6	3.5
2025-01-20 06:45:27.345514	36.0	63.5	-62.2	5.7
2025-01-20 06:45:28.487980	36.4	64.0	-62.8	6.8
2025-01-20 06:45:29.631933	36.8	64.5	-61.9	5.1
2025-01-20 06:45:30.773892	37.1	64.9	-61.6	6.5
2025-01-20 06:45:31.914362	37.5	65.4	-60.6	2.8
2025-01-20 06:45:33.056321	37.9	65.9	-62.4	6.0
2025-01-20 06:45:34.197282	38.4	66.3	-61.4	3.5
2025-01-20 06:45:35.344226	38.8	66.8	-62.8	6.8
2025-01-20 06:45:36.487182	39.3	67.3	-62.8	7.9
2025-01-20 06:45:37.629141	39.8	67.8	-62.9	6.7
2025-01-20 06:45:38.771608	40.3	68.2	-63.0	4.7
2025-01-20 06:45:39.914564	40.8	68.7	-63.1	7.6
2025-01-20 06:45:41.056522	41.4	69.2	-61.2	0.8
2025-01-20 06:45:42.200475	42.0	69.7	-62.4	7.3
2025-01-20 06:45:43.345427	42.6	70.2	-60.5	7.4
2025-01-20 06:45:44.488888	43.2	70.6	-61.0	2.1
2025-01-20 06:45:45.633838	43.9	71.1	-58.8	0.0
2025-01-20 06:45:46.775796	44.6	71.6	-60.8	4.5
2025-01-20 06:45:47.917265	45.4	72.1	-59.8	0.0
2025-01-20 06:45:49.059729	46.2	72.5	-62.0	8.4
2025-01-20 06:45:50.200690	47.1	73.0	-63.7	7.1
2025-01-20 06:45:51.342648	48.0	73.5	-64.0	7.5
2025-01-20 06:45:52.484607	49.0	74.0	-63.7	6.8
2025-01-20 06:45:53.625568	50.0	74.4	-64.1	6.3
2025-01-20 06:45:54.768524	51.1	74.9	-63.7	7.1
2025-01-20 06:45:55.910483	52.2	75.4	-64.7	6.6
2025-01-20 06:45:57.054436	53.5	75.8	-63.7	4.2
2025-01-20 06:45:58.195903	54.8	76.3	-64.2	5.9
2025-01-20 06:45:59.336864	56.2	76.7	-64.0	6.2
2025-01-20 06:46:00.479820	57.8	77.2	-63.2	4.6
2025-01-20 06:46:01.620781	59.4	77.6	-62.8	3.2
2025-01-20 06:46:02.765732	61.2	78.0	-62.8	2.5
2025-01-20 06:46:03.908688	63.0	78.4	-62.7	4.1
2025-01-20 06:46:05.050646	65.1	78.8	-63.7	3.9
2025-01-20 06:46:06.194599	67.2	79.2	-63.8	6.1
2025-01-20 06:46:07.336557	69.6	79.6	-61.3	2.9
2025-01-20 06:46:08.479513	72.1	79.9	-62.9	3.0
2025-01-20 06:46:09.624463	74.7	80.3	-63.3	5.4
2025-01-20 06:46:10.766422	77.6	80.6	-62.6	3.3
2025-01-20 06:46:11.909378	80.7	80.9	-63.1	3.8
2025-01-20 06:46:13.052333	83.9	81.1	-63.6	2.5
2025-01-20 06:46:14.196286	87.3	81.3	-63.8	3.1
2025-01-20 06:46:15.338751	91.0	81.5	-63.4	4.9
2025-01-20 06:46:16.478715	94.7	81.7	-63.3	0.3
2025-01-20 06:46:17.621671	98.6	81.8	-61.7	0.0
2025-01-20 06:46:18.764626	102.6	81.9	-62.6	1.2
2025-01-20 06:46:19.907091	106.7	82.0	-62.1	1.3
2025-01-20 06:46:21.050046	110.8	82.0	-63.2	0.8
2025-01-20 06:46:22.191514	114.9	81.9	-63.3	2.5
2025-01-20 06:46:23.333491	119.0	81.9	-62.1	1.2
2025-01-20 06:46:24.474958	122.9	81.8	-62.1	0.6
2025-01-20 06:46:25.616916	126.7	81.6	-62.6	1.1
2025-01-20 06:46:26.766854	130.4	81.4	-63.3	1.5
2025-01-20 06:46:27.911804	134.0	81.2	-63.0	2.9
2025-01-20 06:46:29.053762	137.3	81.0	-63.0	2.5
2025-01-20 06:46:30.196718	140.4	80.7	-64.1	3.6
2025-01-20 06:46:31.341669	143.4	80.4	-64.6	4.9
2025-01-20 06:46:32.485621	146.1	80.1	-65.1	4.5
2025-01-20 06:46:33.628577	148.7	79.7	-65.0	4.8
2025-01-20 06:46:34.769538	151.1	79.4	-65.3	2.9
2025-01-20 06:46:35.912497	153.3	79.0	-65.6	4.8
2025-01-20 06:46:37.057444	155.4	78.6	-64.9	4.6
2025-01-20 06:46:38.200400	157.3	78.2	-65.1	3.9
2025-01-20 06:46:39.342865	159.2	77.8	-65.8	6.8
2025-01-20 06:46:40.485820	160.8	77.3	-64.7	6.1
2025-01-20 06:46:41.628776	162.4	76.9	-62.6	1.7
2025-01-20 06:46:42.770244	163.9	76.4	-63.3	3.8
2025-01-20 06:46:43.912203	165.2	76.0	-64.8	7.6
2025-01-20 06:46:45.055159	166.5	75.5	-64.5	7.0
2025-01-20 06:46:46.195628	167.7	75.1	-64.2	5.2
2025-01-20 06:46:47.343572	168.8	74.6	-63.8	4.2
2025-01-20 06:46:48.485529	169.9	74.1	-63.2	2.7
2025-01-20 06:46:49.628992	170.9	73.7	-65.1	6.2
2025-01-20 06:46:50.771948	171.8	73.2	-64.2	4.6
2025-01-20 06:46:51.913907	172.7	72.7	-65.0	7.3
2025-01-20 06:46:53.057369	173.5	72.2	-63.7	6.9
2025-01-20 06:46:54.199327	174.3	71.8	-64.6	8.7
2025-01-20 06:46:55.342282	175.1	71.3	-63.9	7.6
2025-01-20 06:46:56.484240	175.8	70.8	-63.3	6.9
2025-01-20 06:46:57.626199	176.4	70.3	-62.8	7.6
2025-01-20 06:46:58.767160	177.1	69.8	-63.8	8.3
2025-01-20 06:46:59.910116	177.7	69.4	-64.5	8.5
2025-01-20 06:47:01.054069	178.2	68.9	-64.3	10.2
2025-01-20 06:47:02.200016	178.8	68.4	-65.5	13.0
2025-01-20 06:47:03.341975	179.3	67.9	-64.7	10.4
2025-01-20 06:47:04.483933	179.8	67.4	-65.0	12.2
2025-01-20 06:47:05.625892	180.3	67.0	-64.6	9.9
2025-01-20 06:47:06.766852	180.7	66.5	-64.4	10.6
2025-01-20 06:47:07.909809	181.2	66.0	-64.8	12.2
2025-01-20 06:47:09.075704	181.6	65.5	-64.5	11.1
2025-01-20 06:47:10.219172	182.0	65.1	-64.6	10.6
2025-01-20 06:47:11.361130	182.4	64.6	-64.6	10.3
2025-01-20 06:47:12.506081	182.7	64.1	-64.5	9.8
2025-01-20 06:47:13.648039	183.1	63.7	-65.1	9.5
2025-01-20 06:47:14.790995	183.4	63.2	-65.9	11.2
2025-01-20 06:47:15.936945	183.8	62.7	-65.6	10.2
2025-01-20 06:47:17.077413	184.1	62.3	-66.1	10.1
2025-01-20 06:47:18.221366	184.4	61.8	-66.4	9.6
2025-01-20 06:47:19.365319	184.7	61.4	-66.7	9.5
2025-01-20 06:47:20.508274	184.9	60.9	-67.0	8.6
2025-01-20 06:47:21.652227	185.2	60.5	-67.2	10.7
2025-01-20 06:47:22.795183	185.5	60.0	-67.0	11.2
2025-01-20 06:47:23.936144	185.7	59.6	-67.3	10.6
2025-01-20 06:47:25.079100	186.0	59.1	-67.6	10.4
2025-01-20 06:47:26.222563	186.2	58.7	-67.8	10.5
2025-01-20 06:47:27.362544	186.5	58.3	-67.7	9.0
2025-01-20 06:47:28.505500	186.7	57.8	-68.5	9.2
2025-01-20 06:47:29.646463	186.9	57.4	-68.3	9.7
2025-01-20 06:47:30.791472	187.1	57.0	-68.4	10.1
2025-01-20 06:47:31.931961	187.3	56.5	-68.1	9.0
2025-01-20 06:47:33.073919	187.5	56.1	-68.5	8.3
2025-01-20 06:47:34.220864	187.7	55.7	-69.2	9.2
2025-01-20 06:47:35.364818	187.9	55.3	-68.8	9.4
2025-01-20 06:47:36.511276	188.1	54.9	-68.9	9.8
2025-01-20 06:47:37.655229	188.2	54.5	-68.6	10.9
2025-01-20 06:47:38.797187	188.4	54.1	-68.8	11.4
2025-01-20 06:47:39.938148	188.6	53.7	-68.3	12.1
2025-01-20 06:47:41.081104	188.7	53.3	-68.7	12.2
2025-01-20 06:47:42.225058	188.9	52.9	-68.3	12.2
2025-01-20 06:47:43.367015	189.0	52.5	-67.9	12.4
2025-01-20 06:47:44.509971	189.2	52.1	-68.1	12.7
2025-01-20 06:47:45.650932	189.3	51.7	-67.9	13.6
2025-01-20 06:47:46.793402	189.5	51.3	-67.8	13.1
2025-01-20 06:47:47.935361	189.6	50.9	-67.8	13.6
2025-01-20 06:47:49.075839	189.8	50.5	-67.5	13.4
2025-01-20 06:47:50.221786	189.9	50.2	-67.2	13.4
2025-01-20 06:47:51.363745	190.0	49.8	-67.5	14.0
2025-01-20 06:47:52.505703	190.1	49.4	-67.6	14.3
2025-01-20 06:47:53.649656	190.3	49.0	-67.3	12.9
2025-01-20 06:47:54.792613	190.4	48.7	-67.6	13.2
2025-01-20 06:47:55.936565	190.5	48.3	-67.5	13.7
2025-01-20 06:47:57.081025	190.6	47.9	-67.6	13.1
2025-01-20 06:47:58.224492	190.7	47.6	-67.6	13.0
2025-01-20 06:47:59.365452	190.8	47.2	-67.5	11.9
2025-01-20 06:48:00.507917	191.0	46.9	-67.3	11.8
2025-01-20 06:48:01.650872	191.1	46.5	-67.0	11.6
2025-01-20 06:48:02.792831	191.2	46.2	-66.8	11.1
2025-01-20 06:48:03.935297	191.3	45.8	-67.1	12.0
2025-01-20 06:48:05.077255	191.4	45.5	-67.3	11.6
2025-01-20 06:48:06.219214	191.5	45.2	-66.8	10.1
2025-01-20 06:48:07.360686	191.6	44.8	-66.7	10.7
2025-01-20 06:48:08.503642	191.7	44.5	-67.3	10.9
2025-01-20 06:48:09.647595	191.7	44.2	-67.3	12.0
2025-01-20 06:48:10.789554	191.8	43.8	-67.5	10.9
2025-01-20 06:48:11.934504	191.9	43.5	-67.8	12.9
2025-01-20 06:48:13.077459	192.0	43.2	-67.4	10.8
2025-01-20 06:48:14.219418	192.1	42.9	-67.1	9.5
2025-01-20 06:48:15.360379	192.2	42.6	-67.0	11.3
2025-01-20 06:48:16.503334	192.3	42.2	-66.3	9.8
2025-01-20 06:48:17.643298	192.3	41.9	-67.3	11.8
2025-01-20 06:48:18.788249	192.4	41.6	-67.5	11.3
2025-01-20 06:48:19.932201	192.5	41.3	-67.6	12.8
2025-01-20 06:48:21.073671	192.6	41.0	-67.1	11.2
2025-01-20 06:48:22.219127	192.6	40.7	-67.2	12.0
2025-01-20 06:48:23.362083	192.7	40.4	-66.6	10.1
2025-01-20 06:48:24.507035	192.8	40.1	-67.2	10.3
2025-01-20 06:48:25.648992	192.9	39.8	-67.3	10.9
2025-01-20 06:48:26.790951	192.9	39.5	-67.0	11.5
2025-01-20 06:48:27.932908	193.0	39.2	-67.1	11.8
2025-01-20 06:48:29.078856	193.1	39.0	-66.7	10.5
2025-01-20 06:48:30.225802	193.1	38.7	-66.3	9.5
2025-01-20 06:48:31.367760	193.2	38.4	-66.2	9.7
2025-01-20 06:48:32.508721	193.3	38.1	-66.6	10.9
2025-01-20 06:48:33.650680	193.3	37.8	-67.0	11.7
2025-01-20 06:48:34.791153	193.4	37.6	-66.7	10.0
2025-01-20 06:48:35.934109	193.4	37.3	-66.5	10.7
2025-01-20 06:48:37.075070	193.5	37.0	-66.9	9.8
2025-01-20 06:48:38.217029	193.6	36.7	-66.7	10.2
2025-01-20 06:48:39.360982	193.6	36.5	-67.0	10.2
2025-01-20 06:48:40.502939	193.7	36.2	-66.9	9.9
2025-01-20 06:48:41.645895	193.7	36.0	-66.8	11.3
2025-01-20 06:48:42.788853	193.8	35.7	-67.2	12.2
2025-01-20 06:48:43.935797	193.9	35.4	-67.0	12.2
2025-01-20 06:48:45.077264	193.9	35.2	-67.2	10.1
2025-01-20 06:48:46.219223	194.0	34.9	-67.0	10.9
2025-01-20 06:48:47.360184	194.0	34.7	-66.6	10.3
2025-01-20 06:48:48.503141	194.1	34.4	-66.9	10.9
2025-01-20 06:48:49.645098	194.1	34.2	-67.2	11.2
2025-01-20 06:48:50.788053	194.2	33.9	-67.0	11.2
2025-01-20 06:48:51.930012	194.2	33.7	-66.9	11.2
2025-01-20 06:48:53.070973	194.3	33.4	-67.0	10.3
2025-01-20 06:48:54.213929	194.3	33.2	-67.5	11.6
2025-01-20 06:48:55.355399	194.4	33.0	-66.1	11.0
2025-01-20 06:48:56.497357	194.4	32.7	-66.3	11.1
2025-01-20 06:48:57.637829	194.5	32.5	-66.3	11.9
2025-01-20 06:48:58.782780	194.5	32.3	-66.4	10.0
2025-01-20 06:48:59.928728	194.5	32.0	-66.6	10.9
2025-01-20 06:49:01.069689	194.6	31.8	-66.4	9.9
2025-01-20 06:49:02.212156	194.6	31.6	-66.2	9.6
2025-01-20 06:49:03.354115	194.7	31.3	-66.6	11.6
2025-01-20 06:49:04.496073	194.7	31.1	-65.4	9.5
2025-01-20 06:49:05.638032	194.8	30.9	-66.2	10.9
2025-01-20 06:49:06.779500	194.8	30.7	-65.6	9.3
2025-01-20 06:49:07.921460	194.8	30.4	-65.8	9.8
2025-01-20 06:49:09.062420	194.9	30.2	-66.5	9.7
2025-01-20 06:49:10.204885	194.9	30.0	-67.4	9.3
#Closed at: 2025-01-20 06:43:24.945734