passes_logs/2025/01/20/Planum_Noyabrsk/Planum_Noyabrsk__20250120_150122_NOAA_18_rec.log

#Pass ID: 20250120_150122_NOAA 18
#Satellite: NOAA 18
#Configuration: NOAA 18
#Start time: 2025-01-20 15:01:27.100804

#LorettStation: 1.0.0 05.05.2024
#Station: Planum_Noyabrsk
#Location: 75.446886 lon 63.207202 lat
#TLE: 1 28654U 05018A   25019.40997687  .00000390  00000+0  23029-3 0  9996
#TLE: 2 28654  98.8559 100.4205 0014542 166.9757 193.1794 14.13490456 13803

#Time	Az	El	Level	SNR
2025-01-20 15:01:35.311977	78.0	30.8	-50.4	0.0
2025-01-20 15:01:36.453572	77.7	30.9	-52.2	0.0
2025-01-20 15:01:37.595655	77.3	31.0	-55.8	0.0
2025-01-20 15:01:38.736741	77.0	31.1	-50.6	0.0
2025-01-20 15:01:39.878333	76.7	31.2	-54.4	0.0
2025-01-20 15:01:41.021414	76.3	31.3	-52.6	0.0
2025-01-20 15:01:42.162499	76.0	31.4	-52.4	0.0
2025-01-20 15:01:43.304584	75.6	31.5	-55.2	0.0
2025-01-20 15:01:44.446666	75.2	31.7	-51.7	0.0
2025-01-20 15:01:45.586754	74.9	31.8	-53.2	0.0
2025-01-20 15:01:46.728837	74.5	31.9	-55.5	0.0
2025-01-20 15:01:47.874925	74.2	32.0	-57.4	0.0
2025-01-20 15:01:49.016010	73.8	32.1	-52.0	0.0
2025-01-20 15:01:50.158094	73.4	32.2	-53.8	0.0
2025-01-20 15:01:51.301174	73.1	32.3	-52.9	0.0
2025-01-20 15:01:52.442261	72.7	32.3	-54.0	0.0
2025-01-20 15:01:53.587336	72.3	32.4	-54.2	0.0
2025-01-20 15:01:54.730943	71.9	32.5	-53.0	0.0
2025-01-20 15:01:55.874021	71.6	32.6	-55.7	0.0
2025-01-20 15:01:57.017102	71.2	32.7	-52.8	0.0
2025-01-20 15:01:58.159185	70.8	32.8	-53.7	0.0
2025-01-20 15:01:59.300275	70.4	32.9	-52.8	0.0
2025-01-20 15:02:00.441865	70.0	33.0	-52.7	0.0
2025-01-20 15:02:01.584946	69.6	33.1	-59.3	0.0
2025-01-20 15:02:02.731019	69.2	33.2	-53.6	0.0
2025-01-20 15:02:03.872104	68.9	33.3	-56.0	0.0
2025-01-20 15:02:05.014697	68.5	33.3	-56.4	0.0
2025-01-20 15:02:06.158777	68.1	33.4	-54.0	0.0
2025-01-20 15:02:07.301856	67.7	33.5	-55.3	0.0
2025-01-20 15:02:08.443939	67.3	33.6	-55.3	0.0
2025-01-20 15:02:09.586022	66.9	33.7	-58.0	0.0
2025-01-20 15:02:10.728106	66.4	33.7	-58.5	0.0
2025-01-20 15:02:11.870189	66.0	33.8	-57.5	0.0
2025-01-20 15:02:13.012272	65.6	33.9	-56.8	0.0
2025-01-20 15:02:14.156351	65.2	33.9	-55.4	0.0
2025-01-20 15:02:15.297942	64.8	34.0	-57.4	0.0
2025-01-20 15:02:16.440026	64.4	34.1	-58.8	0.0
2025-01-20 15:02:17.584104	64.0	34.2	-56.0	0.0
2025-01-20 15:02:18.731174	63.6	34.2	-58.5	0.0
2025-01-20 15:02:19.873257	63.1	34.3	-59.6	0.0
2025-01-20 15:02:21.016338	62.7	34.3	-55.8	0.0
2025-01-20 15:02:22.158421	62.3	34.4	-54.6	0.0
2025-01-20 15:02:23.302008	61.9	34.5	-56.8	0.0
2025-01-20 15:02:24.444091	61.4	34.5	-54.0	0.0
2025-01-20 15:02:25.587171	61.0	34.6	-54.5	0.0
2025-01-20 15:02:26.730252	60.6	34.6	-55.2	0.0
2025-01-20 15:02:27.872336	60.2	34.7	-54.4	0.0
2025-01-20 15:02:29.023904	59.7	34.7	-54.3	0.0
2025-01-20 15:02:30.165987	59.3	34.8	-55.1	0.0
2025-01-20 15:02:31.310065	58.9	34.8	-53.5	0.0
2025-01-20 15:02:32.454144	58.4	34.9	-53.5	0.0
2025-01-20 15:02:33.599219	58.0	34.9	-52.0	0.0
2025-01-20 15:02:34.741302	57.5	35.0	-53.9	0.0
2025-01-20 15:02:35.883891	57.1	35.0	-53.1	0.0
2025-01-20 15:02:37.025486	56.7	35.0	-56.4	0.0
2025-01-20 15:02:38.167569	56.2	35.1	-57.1	0.0
2025-01-20 15:02:39.314640	55.8	35.1	-51.7	0.0
2025-01-20 15:02:40.455726	55.3	35.1	-57.2	0.0
2025-01-20 15:02:41.597809	54.9	35.2	-59.2	0.0
2025-01-20 15:02:42.740402	54.5	35.2	-57.1	0.0
2025-01-20 15:02:43.885476	54.0	35.2	-59.9	0.0
2025-01-20 15:02:45.026561	53.6	35.2	-56.4	0.0
2025-01-20 15:02:46.169642	53.1	35.3	-55.5	0.0
2025-01-20 15:02:47.311236	52.7	35.3	-54.2	0.0
2025-01-20 15:02:48.452321	52.2	35.3	-51.8	0.0
2025-01-20 15:02:49.593407	51.8	35.3	-58.3	0.5
2025-01-20 15:02:50.736489	51.3	35.3	-59.2	0.0
2025-01-20 15:02:51.877573	50.9	35.4	-61.0	2.4
2025-01-20 15:02:53.019167	50.4	35.4	-57.9	0.0
2025-01-20 15:02:54.161250	50.0	35.4	-56.2	0.0
2025-01-20 15:02:55.305329	49.5	35.4	-56.6	0.0
2025-01-20 15:02:56.447411	49.1	35.4	-60.3	2.8
2025-01-20 15:02:57.592488	48.6	35.4	-57.0	0.0
2025-01-20 15:02:58.738560	48.2	35.4	-56.0	0.0
2025-01-20 15:02:59.881150	47.7	35.4	-58.6	0.0
2025-01-20 15:03:01.023233	47.3	35.4	-60.4	1.5
2025-01-20 15:03:02.166314	46.8	35.4	-58.2	0.0
2025-01-20 15:03:03.312899	46.4	35.4	-56.7	0.0
2025-01-20 15:03:04.454982	45.9	35.4	-54.7	0.0
2025-01-20 15:03:05.597065	45.5	35.3	-56.4	0.0
2025-01-20 15:03:06.737662	45.0	35.3	-56.9	0.0
2025-01-20 15:03:07.880742	44.6	35.3	-55.8	0.0
2025-01-20 15:03:09.026815	44.1	35.3	-57.1	0.3
2025-01-20 15:03:10.168408	43.7	35.3	-60.4	2.5
2025-01-20 15:03:11.310491	43.3	35.3	-60.0	0.0
2025-01-20 15:03:12.453572	42.8	35.2	-52.3	0.0
2025-01-20 15:03:13.603149	42.4	35.2	-57.6	0.0
2025-01-20 15:03:14.744741	41.9	35.2	-57.0	0.0
2025-01-20 15:03:15.887340	41.5	35.1	-58.6	0.0
2025-01-20 15:03:17.032416	41.0	35.1	-57.8	0.0
2025-01-20 15:03:18.175496	40.6	35.1	-59.4	0.0
2025-01-20 15:03:19.317579	40.1	35.0	-57.7	0.0
2025-01-20 15:03:20.459182	39.7	35.0	-58.5	2.4
2025-01-20 15:03:21.600258	39.3	35.0	-57.4	0.0
2025-01-20 15:03:22.743339	38.8	34.9	-58.6	0.0
2025-01-20 15:03:23.883935	38.4	34.9	-58.9	0.0
2025-01-20 15:03:25.026019	38.0	34.8	-57.2	0.0
2025-01-20 15:03:26.169099	37.5	34.8	-55.5	0.0
2025-01-20 15:03:27.312221	37.1	34.7	-56.3	0.0
2025-01-20 15:03:28.453812	36.7	34.7	-53.1	0.0
2025-01-20 15:03:29.595404	36.2	34.6	-56.7	0.0
2025-01-20 15:03:30.736998	35.8	34.6	-52.1	0.0
2025-01-20 15:03:31.881076	35.4	34.5	-53.9	0.0
2025-01-20 15:03:33.026152	34.9	34.5	-53.9	0.0
2025-01-20 15:03:34.169738	34.5	34.4	-58.5	0.4
2025-01-20 15:03:35.310824	34.1	34.4	-58.3	2.5
2025-01-20 15:03:36.454903	33.7	34.3	-56.4	0.3
2025-01-20 15:03:37.599978	33.3	34.2	-59.3	1.0
2025-01-20 15:03:38.741063	32.8	34.2	-60.3	2.3
2025-01-20 15:03:39.884144	32.4	34.1	-58.3	0.0
2025-01-20 15:03:41.032215	32.0	34.0	-57.0	0.0
2025-01-20 15:03:42.175292	31.6	34.0	-58.6	0.5
2025-01-20 15:03:43.317376	31.2	33.9	-57.9	0.0
2025-01-20 15:03:44.459460	30.8	33.8	-55.4	0.0
2025-01-20 15:03:45.600053	30.4	33.7	-53.5	0.0
2025-01-20 15:03:46.742136	30.0	33.7	-55.8	0.0
2025-01-20 15:03:47.884236	29.6	33.6	-56.3	0.0
2025-01-20 15:03:49.030319	29.2	33.5	-56.6	0.0
2025-01-20 15:03:50.171395	28.8	33.4	-55.7	0.0
2025-01-20 15:03:51.314475	28.4	33.3	-56.0	0.0
2025-01-20 15:03:52.455561	28.0	33.3	-54.9	0.0
2025-01-20 15:03:53.597644	27.6	33.2	-55.2	0.0
2025-01-20 15:03:54.743717	27.2	33.1	-54.2	0.0
2025-01-20 15:03:55.889790	26.8	33.0	-55.3	0.0
2025-01-20 15:03:57.031873	26.4	32.9	-55.3	0.0
2025-01-20 15:03:58.174974	26.0	32.8	-54.7	0.0
2025-01-20 15:03:59.323042	25.6	32.7	-52.9	0.0
2025-01-20 15:04:00.466122	25.2	32.6	-55.6	0.0
2025-01-20 15:04:01.610217	24.9	32.5	-52.5	0.0
2025-01-20 15:04:02.752299	24.5	32.4	-52.6	0.0
2025-01-20 15:04:03.895887	24.1	32.4	-53.9	0.0
2025-01-20 15:04:05.044952	23.7	32.3	-53.5	0.0
2025-01-20 15:04:06.187541	23.4	32.2	-56.5	0.0
2025-01-20 15:04:07.328626	23.0	32.1	-51.2	0.0
2025-01-20 15:04:08.472215	22.6	32.0	-52.9	0.0
2025-01-20 15:04:09.615294	22.3	31.9	-56.0	0.0
2025-01-20 15:04:10.758375	21.9	31.8	-55.1	0.0
2025-01-20 15:04:11.902453	21.6	31.7	-54.5	0.0
2025-01-20 15:04:13.043539	21.2	31.6	-55.3	0.0
2025-01-20 15:04:14.187617	20.8	31.4	-51.9	0.0
2025-01-20 15:04:15.330701	20.5	31.3	-49.8	0.0
2025-01-20 15:04:16.472785	20.1	31.2	-50.6	0.0
2025-01-20 15:04:17.614864	19.8	31.1	-50.0	0.0
2025-01-20 15:04:18.757945	19.5	31.0	-51.8	0.0
2025-01-20 15:04:19.900028	19.1	30.9	-55.5	0.0
2025-01-20 15:04:21.042111	18.8	30.8	-51.7	0.0
2025-01-20 15:04:22.184701	18.4	30.7	-51.2	0.0
2025-01-20 15:04:23.327782	18.1	30.6	-51.4	0.0
2025-01-20 15:04:24.469866	17.8	30.5	-52.0	0.0
2025-01-20 15:04:25.613942	17.4	30.4	-52.6	0.0
2025-01-20 15:04:26.756026	17.1	30.2	-52.8	0.0
2025-01-20 15:04:27.899107	16.8	30.1	-52.7	0.0
2025-01-20 15:04:29.041190	16.5	30.0	-55.9	0.0
#Closed at: 2025-01-20 15:01:22.105211