passes_logs/2025/01/20/Planum_Noyabrsk/Planum_Noyabrsk__20250120_164021_NOAA_18_rec.log

#Pass ID: 20250120_164021_NOAA 18
#Satellite: NOAA 18
#Configuration: NOAA 18
#Start time: 2025-01-20 16:40:26.086544

#LorettStation: 1.0.0 05.05.2024
#Station: Planum_Noyabrsk
#Location: 75.446886 lon 63.207202 lat
#TLE: 1 28654U 05018A   25019.40997687  .00000390  00000+0  23029-3 0  9996
#TLE: 2 28654  98.8559 100.4205 0014542 166.9757 193.1794 14.13490456 13803

#Time	Az	El	Level	SNR
2025-01-20 16:40:32.288069	167.1	31.2	-63.8	6.2
2025-01-20 16:40:33.427541	167.1	31.4	-66.1	9.7
2025-01-20 16:40:34.571494	167.2	31.6	-66.2	8.2
2025-01-20 16:40:35.712455	167.2	31.8	-63.2	7.8
2025-01-20 16:40:36.851928	167.3	32.1	-63.9	6.2
2025-01-20 16:40:37.993886	167.3	32.3	-61.9	3.2
2025-01-20 16:40:39.136843	167.4	32.5	-62.1	4.8
2025-01-20 16:40:40.277803	167.4	32.8	-64.4	9.6
2025-01-20 16:40:41.421756	167.5	33.0	-64.3	10.4
2025-01-20 16:40:42.563714	167.5	33.2	-66.4	9.1
2025-01-20 16:40:43.704186	167.6	33.5	-64.6	8.3
2025-01-20 16:40:44.847141	167.7	33.7	-65.9	8.8
2025-01-20 16:40:45.989099	167.7	33.9	-66.3	11.0
2025-01-20 16:40:47.129570	167.8	34.2	-65.0	7.5
2025-01-20 16:40:48.270530	167.8	34.4	-67.1	10.7
2025-01-20 16:40:49.414484	167.9	34.7	-66.2	6.4
2025-01-20 16:40:50.555445	168.0	34.9	-66.8	10.7
2025-01-20 16:40:51.698401	168.0	35.2	-66.8	9.4
2025-01-20 16:40:52.840358	168.1	35.4	-67.4	9.4
2025-01-20 16:40:53.985309	168.2	35.7	-66.4	9.5
2025-01-20 16:40:55.126270	168.2	35.9	-67.4	10.3
2025-01-20 16:40:56.267738	168.3	36.2	-67.3	10.9
2025-01-20 16:40:57.407211	168.4	36.4	-67.7	11.2
2025-01-20 16:40:58.550166	168.4	36.7	-67.2	10.3
2025-01-20 16:40:59.692125	168.5	37.0	-67.0	9.1
2025-01-20 16:41:00.835081	168.6	37.2	-68.0	10.2
2025-01-20 16:41:01.978036	168.7	37.5	-67.5	11.2
2025-01-20 16:41:03.119995	168.7	37.8	-67.9	10.5
2025-01-20 16:41:04.265458	168.8	38.1	-67.7	10.6
2025-01-20 16:41:05.408413	168.9	38.3	-66.3	9.4
2025-01-20 16:41:06.549374	169.0	38.6	-67.9	10.7
2025-01-20 16:41:07.691840	169.0	38.9	-67.7	10.7
2025-01-20 16:41:08.832309	169.1	39.2	-66.8	10.3
2025-01-20 16:41:09.975265	169.2	39.4	-67.6	11.1
2025-01-20 16:41:11.118221	169.3	39.7	-67.5	11.2
2025-01-20 16:41:12.261177	169.4	40.0	-67.4	11.0
2025-01-20 16:41:13.402648	169.5	40.3	-67.6	11.4
2025-01-20 16:41:14.544605	169.5	40.6	-67.7	10.8
2025-01-20 16:41:15.687561	169.6	40.9	-66.7	8.8
2025-01-20 16:41:16.830518	169.7	41.2	-67.3	9.9
2025-01-20 16:41:17.974470	169.8	41.5	-67.1	10.2
2025-01-20 16:41:19.116939	169.9	41.8	-67.1	11.3
2025-01-20 16:41:20.257899	170.0	42.1	-66.5	10.1
2025-01-20 16:41:21.403357	170.1	42.4	-67.3	11.6
2025-01-20 16:41:22.544823	170.2	42.7	-67.4	11.8
2025-01-20 16:41:23.687779	170.3	43.0	-67.0	11.4
2025-01-20 16:41:24.828251	170.4	43.3	-66.6	12.6
2025-01-20 16:41:25.971207	170.5	43.7	-67.5	12.1
2025-01-20 16:41:27.112170	170.6	44.0	-67.1	12.8
2025-01-20 16:41:28.252644	170.7	44.3	-66.3	11.4
2025-01-20 16:41:29.395599	170.8	44.6	-67.2	12.7
2025-01-20 16:41:30.536560	171.0	44.9	-66.8	12.6
2025-01-20 16:41:31.677031	171.1	45.3	-66.7	12.3
2025-01-20 16:41:32.817991	171.2	45.6	-66.4	13.1
2025-01-20 16:41:33.960948	171.3	45.9	-66.9	12.6
2025-01-20 16:41:35.104410	171.4	46.3	-66.6	12.2
2025-01-20 16:41:36.256342	171.6	46.6	-65.9	12.1
2025-01-20 16:41:37.401292	171.7	47.0	-66.6	12.3
2025-01-20 16:41:38.542253	171.8	47.3	-66.7	12.9
2025-01-20 16:41:39.686716	171.9	47.6	-66.6	13.1
2025-01-20 16:41:40.831666	172.1	48.0	-66.4	13.5
2025-01-20 16:41:41.973625	172.2	48.4	-66.6	12.4
2025-01-20 16:41:43.116580	172.4	48.7	-66.4	13.5
2025-01-20 16:41:44.259536	172.5	49.1	-66.4	13.7
2025-01-20 16:41:45.401040	172.7	49.4	-66.3	13.3
2025-01-20 16:41:46.542966	172.8	49.8	-66.8	13.1
2025-01-20 16:41:47.684925	173.0	50.2	-66.6	12.5
2025-01-20 16:41:48.826884	173.1	50.5	-66.8	12.7
2025-01-20 16:41:49.968842	173.3	50.9	-67.0	11.8
2025-01-20 16:41:51.109803	173.5	51.3	-66.7	10.5
2025-01-20 16:41:52.252759	173.6	51.6	-65.6	9.7
2025-01-20 16:41:53.396711	173.8	52.0	-66.4	9.7
2025-01-20 16:41:54.538207	174.0	52.4	-67.0	9.6
2025-01-20 16:41:55.678651	174.2	52.8	-65.7	10.4
2025-01-20 16:41:56.821608	174.4	53.2	-65.5	7.6
2025-01-20 16:41:57.962569	174.6	53.6	-67.2	8.9
2025-01-20 16:41:59.105039	174.8	54.0	-66.9	7.7
2025-01-20 16:42:00.246000	175.0	54.4	-67.4	9.6
2025-01-20 16:42:01.388956	175.2	54.8	-67.5	8.5
2025-01-20 16:42:02.533906	175.4	55.2	-67.9	10.0
2025-01-20 16:42:03.674376	175.6	55.6	-68.2	9.4
2025-01-20 16:42:04.816334	175.9	56.0	-67.3	7.2
2025-01-20 16:42:05.956803	176.1	56.4	-65.9	6.4
2025-01-20 16:42:07.098762	176.3	56.8	-67.2	9.5
2025-01-20 16:42:08.239723	176.6	57.2	-67.4	10.4
2025-01-20 16:42:09.382188	176.8	57.6	-67.2	9.0
2025-01-20 16:42:10.522657	177.1	58.0	-66.0	7.7
2025-01-20 16:42:11.665613	177.4	58.5	-66.8	9.4
2025-01-20 16:42:12.806574	177.7	58.9	-66.4	7.6
2025-01-20 16:42:13.949530	178.0	59.3	-65.4	8.8
2025-01-20 16:42:15.089493	178.3	59.7	-66.3	9.1
2025-01-20 16:42:16.231452	178.6	60.2	-66.1	8.9
2025-01-20 16:42:17.378397	178.9	60.6	-65.9	7.9
2025-01-20 16:42:18.522350	179.2	61.0	-66.0	8.3
2025-01-20 16:42:19.665306	179.6	61.5	-65.8	8.6
2025-01-20 16:42:20.812251	179.9	61.9	-65.8	9.2
2025-01-20 16:42:21.955207	180.3	62.4	-64.9	8.1
2025-01-20 16:42:23.094684	180.7	62.8	-65.5	9.5
2025-01-20 16:42:24.237639	181.1	63.2	-65.6	10.3
2025-01-20 16:42:25.378600	181.5	63.7	-65.3	8.9
2025-01-20 16:42:26.521574	181.9	64.1	-65.5	11.0
2025-01-20 16:42:27.663532	182.4	64.6	-64.9	10.7
2025-01-20 16:42:28.806488	182.9	65.0	-64.2	7.6
2025-01-20 16:42:29.949444	183.3	65.5	-64.3	7.8
2025-01-20 16:42:31.090404	183.8	65.9	-63.6	7.3
2025-01-20 16:42:32.232871	184.4	66.4	-63.6	7.3
2025-01-20 16:42:33.374337	184.9	66.8	-65.2	8.7
2025-01-20 16:42:34.516296	185.5	67.3	-64.2	7.0
2025-01-20 16:42:35.660250	186.1	67.8	-65.0	8.3
2025-01-20 16:42:36.803205	186.7	68.2	-63.8	5.9
2025-01-20 16:42:37.945163	187.4	68.7	-63.6	6.9
2025-01-20 16:42:39.087121	188.0	69.1	-62.7	4.2
2025-01-20 16:42:40.230077	188.8	69.6	-64.7	9.1
2025-01-20 16:42:41.373033	189.5	70.0	-64.6	7.9
2025-01-20 16:42:42.514991	190.3	70.5	-64.0	6.8
2025-01-20 16:42:43.658944	191.1	70.9	-65.4	10.8
2025-01-20 16:42:44.800903	192.0	71.4	-63.7	6.9
2025-01-20 16:42:45.941863	192.9	71.8	-64.7	6.4
2025-01-20 16:42:47.082335	193.9	72.3	-64.7	8.3
2025-01-20 16:42:48.224293	194.9	72.7	-64.2	6.9
2025-01-20 16:42:49.366252	195.9	73.1	-64.7	5.9
2025-01-20 16:42:50.507213	197.1	73.6	-63.4	3.9
2025-01-20 16:42:51.649680	198.3	74.0	-62.5	1.8
2025-01-20 16:42:52.793631	199.5	74.4	-64.7	6.8
2025-01-20 16:42:53.935589	200.9	74.8	-63.7	5.6
2025-01-20 16:42:55.077057	202.3	75.2	-64.0	9.0
2025-01-20 16:42:56.219522	203.7	75.6	-63.3	7.9
2025-01-20 16:42:57.365469	205.3	76.0	-63.4	8.3
2025-01-20 16:42:58.506936	207.0	76.4	-62.0	1.9
2025-01-20 16:42:59.647897	208.8	76.8	-63.7	6.2
2025-01-20 16:43:00.789856	210.6	77.1	-64.8	7.6
2025-01-20 16:43:01.930817	212.6	77.5	-64.8	7.3
2025-01-20 16:43:03.072775	214.7	77.8	-65.1	7.4
2025-01-20 16:43:04.213737	216.9	78.1	-64.7	6.1
2025-01-20 16:43:05.359194	219.2	78.4	-64.5	7.5
2025-01-20 16:43:06.501151	221.7	78.7	-65.0	7.7
2025-01-20 16:43:07.644107	224.3	79.0	-63.8	4.1
2025-01-20 16:43:08.785068	227.0	79.2	-60.5	0.0
2025-01-20 16:43:09.931016	229.8	79.4	-65.3	6.2
2025-01-20 16:43:11.073972	232.7	79.6	-65.0	8.3
2025-01-20 16:43:12.215439	235.7	79.8	-63.4	4.2
2025-01-20 16:43:13.357397	238.8	79.9	-64.0	4.8
2025-01-20 16:43:14.504852	242.0	80.0	-62.4	0.0
2025-01-20 16:43:15.645813	245.2	80.1	-63.1	3.9
2025-01-20 16:43:16.788770	248.5	80.1	-62.8	2.4
2025-01-20 16:43:17.932742	251.8	80.1	-64.0	5.3
2025-01-20 16:43:19.074212	255.1	80.1	-64.2	1.4
2025-01-20 16:43:20.215173	258.3	80.0	-65.4	6.0
2025-01-20 16:43:21.357638	261.5	79.9	-64.7	4.3
2025-01-20 16:43:22.498599	264.7	79.8	-65.0	3.0
2025-01-20 16:43:23.641554	267.7	79.7	-64.0	2.0
2025-01-20 16:43:24.783514	270.7	79.5	-61.8	0.0
2025-01-20 16:43:25.923477	273.6	79.3	-63.1	1.1
2025-01-20 16:43:27.065435	276.3	79.1	-62.1	0.9
2025-01-20 16:43:28.209389	278.9	78.8	-63.3	3.7
2025-01-20 16:43:29.351857	281.4	78.6	-64.6	4.2
2025-01-20 16:43:30.493816	283.8	78.3	-64.6	3.7
2025-01-20 16:43:31.635774	286.1	78.0	-64.3	5.2
2025-01-20 16:43:32.780724	288.2	77.6	-64.3	5.3
2025-01-20 16:43:33.922683	290.2	77.3	-63.9	4.6
2025-01-20 16:43:35.063644	292.2	76.9	-63.1	2.9
2025-01-20 16:43:36.205114	294.0	76.6	-61.9	3.7
2025-01-20 16:43:37.347072	295.7	76.2	-63.8	3.6
2025-01-20 16:43:38.490028	297.3	75.8	-64.0	4.2
2025-01-20 16:43:39.631495	298.8	75.4	-60.7	0.0
2025-01-20 16:43:40.772456	300.3	75.0	-62.4	5.3
2025-01-20 16:43:41.915411	301.6	74.6	-61.9	3.9
2025-01-20 16:43:43.059364	302.9	74.2	-62.0	3.5
2025-01-20 16:43:44.201326	304.1	73.8	-61.5	3.7
2025-01-20 16:43:45.342283	305.3	73.3	-63.5	6.5
2025-01-20 16:43:46.485239	306.4	72.9	-63.8	7.9
2025-01-20 16:43:47.626200	307.4	72.5	-63.9	8.2
2025-01-20 16:43:48.768159	308.4	72.0	-64.5	8.4
2025-01-20 16:43:49.910623	309.3	71.6	-64.9	10.1
2025-01-20 16:43:51.054576	310.2	71.1	-64.3	8.2
2025-01-20 16:43:52.196535	311.0	70.7	-63.9	7.8
2025-01-20 16:43:53.337512	311.9	70.2	-64.4	8.8
2025-01-20 16:43:54.480474	312.6	69.8	-62.6	6.9
2025-01-20 16:43:55.622426	313.3	69.3	-62.5	5.1
2025-01-20 16:43:56.764891	314.0	68.9	-63.2	7.4
2025-01-20 16:43:57.905852	314.7	68.4	-63.6	8.8
2025-01-20 16:43:59.050802	315.3	67.9	-63.0	7.2
2025-01-20 16:44:00.192274	315.9	67.5	-63.5	8.4
2025-01-20 16:44:01.334232	316.5	67.0	-63.6	5.0
2025-01-20 16:44:02.475193	317.1	66.6	-64.1	7.0
2025-01-20 16:44:03.620650	317.6	66.1	-64.0	5.6
2025-01-20 16:44:04.761119	318.1	65.7	-62.4	3.7
2025-01-20 16:44:05.903079	318.6	65.2	-58.6	0.0
2025-01-20 16:44:07.045036	319.1	64.8	-64.0	7.1
2025-01-20 16:44:08.187992	319.6	64.3	-59.3	0.3
2025-01-20 16:44:09.328953	320.0	63.9	-63.2	8.7
2025-01-20 16:44:10.471931	320.4	63.4	-64.1	9.0
2025-01-20 16:44:11.612892	320.8	63.0	-64.5	5.8
2025-01-20 16:44:12.753853	321.2	62.5	-64.5	6.4
2025-01-20 16:44:13.894343	321.6	62.1	-64.9	6.1
2025-01-20 16:44:15.037299	321.9	61.7	-63.2	3.8
2025-01-20 16:44:16.183246	322.3	61.2	-63.5	1.4
2025-01-20 16:44:17.328197	322.6	60.8	-64.1	2.2
2025-01-20 16:44:18.474145	323.0	60.4	-65.0	1.5
2025-01-20 16:44:19.616612	323.3	59.9	-64.1	0.0
2025-01-20 16:44:20.760076	323.6	59.5	-63.4	0.0
2025-01-20 16:44:21.902035	323.9	59.1	-62.0	0.0
2025-01-20 16:44:23.045498	324.2	58.6	-63.1	0.0
2025-01-20 16:44:24.188471	324.5	58.2	-62.2	0.0
2025-01-20 16:44:25.330429	324.7	57.8	-61.1	0.0
2025-01-20 16:44:26.472387	325.0	57.4	-62.2	0.0
2025-01-20 16:44:27.612857	325.2	57.0	-64.9	0.2
2025-01-20 16:44:28.755813	325.5	56.6	-63.3	0.0
2025-01-20 16:44:29.899768	325.7	56.1	-61.4	0.0
2025-01-20 16:44:31.041724	326.0	55.7	-62.3	0.0
2025-01-20 16:44:32.184681	326.2	55.3	-60.5	0.0
2025-01-20 16:44:33.326639	326.4	54.9	-61.4	0.0
2025-01-20 16:44:34.469595	326.6	54.5	-60.3	0.0
2025-01-20 16:44:35.611553	326.8	54.1	-60.2	0.0
2025-01-20 16:44:36.755506	327.0	53.7	-60.6	0.0
2025-01-20 16:44:37.900962	327.2	53.3	-59.9	0.0
2025-01-20 16:44:39.043918	327.4	53.0	-61.9	0.0
2025-01-20 16:44:40.185876	327.6	52.6	-57.3	0.0
2025-01-20 16:44:41.327346	327.8	52.2	-57.3	0.0
2025-01-20 16:44:42.470302	328.0	51.8	-58.5	0.0
2025-01-20 16:44:43.613764	328.2	51.4	-60.8	1.0
2025-01-20 16:44:44.755231	328.3	51.1	-61.1	0.0
2025-01-20 16:44:45.897190	328.5	50.7	-62.9	5.3
2025-01-20 16:44:47.040145	328.7	50.3	-61.0	0.0
2025-01-20 16:44:48.181613	328.8	49.9	-63.7	6.5
2025-01-20 16:44:49.325565	329.0	49.6	-64.0	6.9
2025-01-20 16:44:50.468521	329.1	49.2	-63.7	8.0
2025-01-20 16:44:51.613473	329.3	48.9	-63.0	4.5
2025-01-20 16:44:52.755430	329.4	48.5	-60.4	3.0
2025-01-20 16:44:53.898386	329.6	48.1	-62.5	7.0
2025-01-20 16:44:55.045837	329.7	47.8	-61.2	3.4
2025-01-20 16:44:56.187796	329.8	47.4	-61.9	6.1
2025-01-20 16:44:57.329753	330.0	47.1	-62.0	5.2
2025-01-20 16:44:58.474703	330.1	46.8	-60.5	2.1
2025-01-20 16:44:59.615664	330.2	46.4	-62.9	3.8
2025-01-20 16:45:00.758620	330.3	46.1	-64.6	7.5
2025-01-20 16:45:01.899092	330.5	45.7	-61.0	3.0
2025-01-20 16:45:03.041050	330.6	45.4	-60.0	3.0
2025-01-20 16:45:04.187506	330.7	45.1	-59.3	0.7
2025-01-20 16:45:05.331459	330.8	44.8	-60.7	1.9
2025-01-20 16:45:06.475411	330.9	44.4	-60.7	2.6
2025-01-20 16:45:07.617370	331.0	44.1	-61.0	2.1
2025-01-20 16:45:08.759329	331.1	43.8	-62.9	2.9
2025-01-20 16:45:09.900289	331.3	43.5	-60.8	1.5
2025-01-20 16:45:11.042266	331.4	43.2	-62.6	1.7
2025-01-20 16:45:12.182736	331.5	42.8	-61.2	0.0
2025-01-20 16:45:13.324206	331.6	42.5	-62.2	0.6
2025-01-20 16:45:14.466164	331.7	42.2	-61.7	0.0
2025-01-20 16:45:15.611621	331.8	41.9	-60.5	0.0
2025-01-20 16:45:16.753087	331.8	41.6	-59.4	0.0
2025-01-20 16:45:17.895046	331.9	41.3	-61.3	0.0
2025-01-20 16:45:19.036007	332.0	41.0	-61.5	0.0
2025-01-20 16:45:20.180958	332.1	40.7	-61.2	0.0
2025-01-20 16:45:21.324910	332.2	40.4	-62.2	0.0
2025-01-20 16:45:22.467888	332.3	40.1	-61.4	0.0
2025-01-20 16:45:23.608844	332.4	39.9	-60.5	0.0
2025-01-20 16:45:24.751800	332.5	39.6	-61.0	0.0
2025-01-20 16:45:25.892271	332.6	39.3	-61.8	1.5
2025-01-20 16:45:27.037222	332.6	39.0	-61.1	1.2
2025-01-20 16:45:28.179687	332.7	38.7	-60.9	0.0
2025-01-20 16:45:29.321155	332.8	38.4	-61.0	0.0
2025-01-20 16:45:30.466105	332.9	38.2	-60.8	0.0
2025-01-20 16:45:31.608063	332.9	37.9	-61.4	0.0
2025-01-20 16:45:32.754521	333.0	37.6	-58.6	0.0
2025-01-20 16:45:33.896479	333.1	37.4	-58.7	0.0
2025-01-20 16:45:35.037949	333.2	37.1	-59.9	0.1
2025-01-20 16:45:36.179908	333.2	36.8	-60.3	0.2
2025-01-20 16:45:37.321866	333.3	36.6	-58.5	0.0
2025-01-20 16:45:38.463824	333.4	36.3	-60.4	0.0
2025-01-20 16:45:39.609284	333.5	36.0	-60.0	0.0
2025-01-20 16:45:40.752239	333.5	35.8	-60.2	0.0
2025-01-20 16:45:41.892203	333.6	35.5	-60.5	0.0
2025-01-20 16:45:43.034161	333.7	35.3	-60.3	1.3
2025-01-20 16:45:44.175122	333.7	35.0	-59.0	0.0
2025-01-20 16:45:45.317081	333.8	34.8	-59.7	0.2
2025-01-20 16:45:46.459039	333.8	34.5	-58.0	0.0
2025-01-20 16:45:47.603999	333.9	34.3	-61.1	3.7
2025-01-20 16:45:48.745948	334.0	34.0	-60.1	0.1
2025-01-20 16:45:49.892893	334.0	33.8	-61.3	2.7
2025-01-20 16:45:51.035848	334.1	33.6	-59.0	0.0
2025-01-20 16:45:52.177807	334.1	33.3	-58.9	0.0
2025-01-20 16:45:53.319276	334.2	33.1	-58.9	0.0
2025-01-20 16:45:54.461235	334.3	32.9	-58.1	0.0
2025-01-20 16:45:55.604191	334.3	32.6	-59.1	0.2
2025-01-20 16:45:56.747652	334.4	32.4	-59.9	0.8
2025-01-20 16:45:57.889611	334.4	32.2	-58.9	0.0
2025-01-20 16:45:59.030571	334.5	31.9	-59.2	0.0
2025-01-20 16:46:00.173038	334.5	31.7	-59.5	0.0
2025-01-20 16:46:01.313999	334.6	31.5	-59.9	0.0
2025-01-20 16:46:02.458950	334.6	31.3	-59.9	0.5
2025-01-20 16:46:03.599910	334.7	31.1	-59.1	0.0
2025-01-20 16:46:04.741869	334.8	30.8	-60.0	0.2
2025-01-20 16:46:05.882830	334.8	30.6	-59.6	0.0
2025-01-20 16:46:07.026784	334.9	30.4	-58.0	0.0
2025-01-20 16:46:08.169739	334.9	30.2	-58.4	0.0
2025-01-20 16:46:09.312694	334.9	30.0	-60.6	0.0
#Closed at: 2025-01-20 16:40:21.090397