passes_logs/2025/01/23/Planum_Noyabrsk/Planum_Noyabrsk__20250123_054136_NOAA_19_rec.log

#Pass ID: 20250123_054136_NOAA 19
#Satellite: NOAA 19
#Configuration: NOAA 19
#Start time: 2025-01-23 05:41:41.078621

#LorettStation: 1.0.0 05.05.2024
#Station: Planum_Noyabrsk
#Location: 75.446886 lon 63.207202 lat
#TLE: 1 33591U 09005A   25022.43784372  .00000388  00000+0  23130-3 0  9994
#TLE: 2 33591  99.0184  86.2573 0014219  37.4630 322.7530 14.13265873822593

#Time	Az	El	Level	SNR
2025-01-23 05:41:47.285745	22.7	31.2	-47.7	0.0
2025-01-23 05:41:48.431692	22.7	31.4	-47.6	0.0
2025-01-23 05:41:49.574648	22.7	31.6	-49.3	0.0
2025-01-23 05:41:50.716118	22.8	31.9	-50.6	0.0
2025-01-23 05:41:51.862065	22.8	32.1	-52.8	0.0
2025-01-23 05:41:53.004024	22.8	32.3	-50.7	0.0
2025-01-23 05:41:54.147977	22.8	32.6	-48.7	0.0
2025-01-23 05:41:55.290932	22.8	32.8	-47.5	0.0
2025-01-23 05:41:56.433888	22.9	33.0	-49.7	0.0
2025-01-23 05:41:57.576353	22.9	33.3	-50.1	0.0
2025-01-23 05:41:58.720306	22.9	33.5	-51.0	0.0
2025-01-23 05:41:59.863262	22.9	33.7	-51.6	0.0
2025-01-23 05:42:01.004728	23.0	34.0	-51.3	0.0
2025-01-23 05:42:02.147684	23.0	34.2	-52.8	0.0
2025-01-23 05:42:03.292639	23.0	34.5	-54.8	0.0
2025-01-23 05:42:04.433595	23.0	34.7	-53.2	0.0
2025-01-23 05:42:05.577548	23.0	35.0	-49.4	0.0
2025-01-23 05:42:06.717511	23.1	35.2	-49.5	0.0
2025-01-23 05:42:07.858981	23.1	35.5	-52.3	0.0
2025-01-23 05:42:09.004928	23.1	35.7	-50.4	0.0
2025-01-23 05:42:10.146887	23.1	36.0	-51.1	0.0
2025-01-23 05:42:11.287847	23.2	36.3	-52.0	0.0
2025-01-23 05:42:12.429805	23.2	36.5	-50.6	0.0
2025-01-23 05:42:13.572761	23.2	36.8	-53.0	0.0
2025-01-23 05:42:14.717233	23.2	37.1	-52.5	0.0
2025-01-23 05:42:15.858192	23.3	37.3	-52.4	0.0
2025-01-23 05:42:17.000151	23.3	37.6	-51.9	0.0
2025-01-23 05:42:18.141111	23.3	37.9	-52.2	0.0
2025-01-23 05:42:19.287060	23.4	38.2	-51.3	0.0
2025-01-23 05:42:20.430014	23.4	38.4	-53.2	0.0
2025-01-23 05:42:21.573967	23.4	38.7	-52.8	0.0
2025-01-23 05:42:22.714928	23.4	39.0	-52.6	0.0
2025-01-23 05:42:23.858882	23.5	39.3	-53.7	0.0
2025-01-23 05:42:25.000839	23.5	39.6	-55.1	0.0
2025-01-23 05:42:26.144792	23.5	39.9	-53.6	0.0
2025-01-23 05:42:27.291737	23.6	40.2	-54.1	0.0
2025-01-23 05:42:28.435202	23.6	40.5	-56.5	0.0
2025-01-23 05:42:29.578156	23.6	40.8	-55.1	0.0
2025-01-23 05:42:30.720115	23.7	41.1	-56.7	0.5
2025-01-23 05:42:31.861585	23.7	41.4	-56.0	0.0
2025-01-23 05:42:33.003543	23.7	41.7	-56.5	0.0
2025-01-23 05:42:34.146500	23.7	42.0	-61.8	3.8
2025-01-23 05:42:35.286970	23.8	42.3	-59.6	1.1
2025-01-23 05:42:36.431920	23.8	42.6	-60.0	3.7
2025-01-23 05:42:37.573878	23.9	42.9	-57.1	0.0
2025-01-23 05:42:38.716345	23.9	43.2	-59.7	1.6
2025-01-23 05:42:39.857305	23.9	43.5	-59.1	0.0
2025-01-23 05:42:40.999263	24.0	43.9	-61.3	1.5
2025-01-23 05:42:42.140732	24.0	44.2	-57.6	0.0
2025-01-23 05:42:43.287186	24.0	44.5	-60.6	4.2
2025-01-23 05:42:44.429143	24.1	44.9	-59.4	2.8
2025-01-23 05:42:45.571102	24.1	45.2	-61.3	3.0
2025-01-23 05:42:46.715055	24.2	45.5	-60.2	2.0
2025-01-23 05:42:47.857013	24.2	45.9	-59.4	1.6
2025-01-23 05:42:48.998486	24.2	46.2	-61.1	3.6
2025-01-23 05:42:50.140445	24.3	46.6	-59.8	5.4
2025-01-23 05:42:51.281405	24.3	46.9	-61.0	5.7
2025-01-23 05:42:52.427861	24.4	47.3	-60.7	1.5
2025-01-23 05:42:53.569819	24.4	47.6	-60.4	3.9
2025-01-23 05:42:54.710780	24.5	48.0	-61.4	9.0
2025-01-23 05:42:55.853736	24.5	48.3	-61.0	7.4
2025-01-23 05:42:56.995695	24.6	48.7	-60.7	9.0
2025-01-23 05:42:58.136655	24.6	49.1	-62.1	9.5
2025-01-23 05:42:59.281605	24.7	49.4	-60.8	5.1
2025-01-23 05:43:00.430545	24.7	49.8	-62.6	8.9
2025-01-23 05:43:01.570508	24.8	50.2	-63.9	8.3
2025-01-23 05:43:02.713464	24.8	50.6	-62.2	10.3
2025-01-23 05:43:03.853933	24.9	50.9	-63.8	10.3
2025-01-23 05:43:04.996398	24.9	51.3	-61.9	5.6
2025-01-23 05:43:06.138862	25.0	51.7	-61.7	7.2
2025-01-23 05:43:07.281823	25.0	52.1	-60.5	4.9
2025-01-23 05:43:08.424773	25.1	52.5	-62.0	7.1
2025-01-23 05:43:09.565734	25.2	52.9	-60.7	4.3
2025-01-23 05:43:10.708690	25.2	53.3	-64.5	10.6
2025-01-23 05:43:11.848653	25.3	53.7	-63.7	10.9
2025-01-23 05:43:12.991609	25.4	54.1	-63.0	8.6
2025-01-23 05:43:14.133570	25.4	54.5	-63.2	8.4
2025-01-23 05:43:15.276523	25.5	54.9	-64.8	10.6
2025-01-23 05:43:16.420476	25.6	55.4	-64.8	9.1
2025-01-23 05:43:17.561437	25.7	55.8	-65.0	12.0
2025-01-23 05:43:18.704392	25.7	56.2	-60.6	4.4
2025-01-23 05:43:19.847348	25.8	56.6	-63.7	10.0
2025-01-23 05:43:20.989306	25.9	57.1	-59.9	3.7
2025-01-23 05:43:22.132262	26.0	57.5	-62.8	9.1
2025-01-23 05:43:23.273222	26.1	57.9	-62.5	8.3
2025-01-23 05:43:24.420168	26.2	58.4	-62.4	8.4
2025-01-23 05:43:25.563125	26.3	58.8	-61.7	6.9
2025-01-23 05:43:26.704591	26.3	59.3	-60.7	2.8
2025-01-23 05:43:27.846550	26.4	59.7	-58.0	1.1
2025-01-23 05:43:28.988508	26.5	60.2	-58.8	0.0
2025-01-23 05:43:30.132467	26.7	60.6	-59.0	0.7
2025-01-23 05:43:31.274419	26.8	61.1	-58.7	2.1
2025-01-23 05:43:32.416377	26.9	61.5	-59.2	0.0
2025-01-23 05:43:33.558335	27.0	62.0	-59.8	0.0
2025-01-23 05:43:34.700295	27.1	62.5	-57.8	0.0
2025-01-23 05:43:35.841255	27.2	62.9	-58.0	0.0
2025-01-23 05:43:36.985208	27.4	63.4	-59.1	2.4
2025-01-23 05:43:38.126675	27.5	63.9	-60.5	0.0
2025-01-23 05:43:39.269631	27.7	64.4	-59.5	0.0
2025-01-23 05:43:40.411589	27.8	64.8	-59.0	0.5
2025-01-23 05:43:41.558042	28.0	65.3	-60.9	0.0
2025-01-23 05:43:42.700000	28.1	65.8	-58.6	0.0
2025-01-23 05:43:43.841474	28.3	66.3	-57.0	0.0
2025-01-23 05:43:44.983432	28.5	66.8	-59.5	0.0
2025-01-23 05:43:46.127385	28.6	67.3	-56.8	0.0
2025-01-23 05:43:47.269344	28.8	67.8	-57.2	0.0
2025-01-23 05:43:48.412299	29.0	68.3	-57.3	0.0
2025-01-23 05:43:49.553260	29.3	68.8	-56.5	0.0
2025-01-23 05:43:50.700205	29.5	69.3	-57.5	0.0
2025-01-23 05:43:51.843160	29.7	69.8	-57.8	3.0
2025-01-23 05:43:52.984121	30.0	70.3	-57.0	0.0
2025-01-23 05:43:54.126080	30.2	70.9	-59.3	2.8
2025-01-23 05:43:55.271030	30.5	71.4	-56.9	0.0
2025-01-23 05:43:56.412988	30.8	71.9	-60.7	4.5
2025-01-23 05:43:57.554946	31.1	72.4	-57.6	0.0
2025-01-23 05:43:58.701401	31.4	72.9	-57.3	0.0
2025-01-23 05:43:59.843359	31.8	73.5	-57.7	1.0
2025-01-23 05:44:00.988310	32.2	74.0	-56.5	0.0
2025-01-23 05:44:02.131265	32.6	74.5	-56.6	0.0
2025-01-23 05:44:03.272226	33.0	75.0	-60.7	3.7
2025-01-23 05:44:04.414184	33.5	75.6	-55.5	0.0
2025-01-23 05:44:05.559135	34.0	76.1	-58.0	0.0
2025-01-23 05:44:06.701092	34.5	76.6	-57.2	0.0
2025-01-23 05:44:07.842561	35.1	77.2	-56.1	0.0
2025-01-23 05:44:08.983521	35.8	77.7	-61.4	3.0
2025-01-23 05:44:10.125480	36.5	78.2	-61.2	2.2
2025-01-23 05:44:11.267438	37.3	78.8	-60.8	3.2
2025-01-23 05:44:12.409906	38.1	79.3	-61.3	2.9
2025-01-23 05:44:13.550866	39.0	79.8	-60.5	2.6
2025-01-23 05:44:14.693822	40.1	80.4	-61.7	0.9
2025-01-23 05:44:15.835781	41.3	80.9	-58.6	0.0
2025-01-23 05:44:16.978736	42.6	81.4	-59.8	1.5
2025-01-23 05:44:18.121692	44.1	81.9	-57.6	0.0
2025-01-23 05:44:19.262653	45.8	82.5	-57.0	0.0
2025-01-23 05:44:20.404611	47.7	83.0	-61.0	4.2
2025-01-23 05:44:21.549091	50.0	83.5	-60.4	4.4
2025-01-23 05:44:22.694538	52.6	84.0	-58.6	2.5
2025-01-23 05:44:23.839487	55.7	84.5	-60.7	4.2
2025-01-23 05:44:24.981446	59.4	84.9	-61.9	4.1
2025-01-23 05:44:26.125916	63.7	85.3	-60.4	3.4
2025-01-23 05:44:27.268872	69.0	85.7	-60.0	6.2
2025-01-23 05:44:28.410830	75.2	86.1	-62.4	7.9
2025-01-23 05:44:29.552297	82.7	86.4	-61.3	7.2
2025-01-23 05:44:30.694255	91.3	86.6	-63.1	6.0
2025-01-23 05:44:31.836214	101.0	86.8	-60.8	0.8
2025-01-23 05:44:32.984156	111.4	86.8	-62.2	5.7
2025-01-23 05:44:34.126114	121.7	86.8	-60.4	2.6
2025-01-23 05:44:35.270069	131.3	86.6	-60.9	2.5
2025-01-23 05:44:36.411534	139.9	86.4	-62.5	3.8
2025-01-23 05:44:37.553492	147.3	86.1	-61.0	2.0
2025-01-23 05:44:38.695450	153.6	85.7	-60.9	0.8
2025-01-23 05:44:39.837409	158.8	85.3	-62.9	3.8
2025-01-23 05:44:40.980364	163.1	84.9	-63.3	4.7
2025-01-23 05:44:42.121326	166.8	84.4	-61.2	2.5
2025-01-23 05:44:43.263790	169.8	84.0	-64.9	8.8
2025-01-23 05:44:44.406745	172.5	83.5	-62.6	8.0
2025-01-23 05:44:45.549211	174.7	83.0	-62.8	6.5
2025-01-23 05:44:46.696156	176.7	82.5	-65.2	9.1
2025-01-23 05:44:47.839112	178.3	81.9	-64.1	9.6
2025-01-23 05:44:48.984062	179.8	81.4	-66.2	9.8
2025-01-23 05:44:50.125529	181.1	80.9	-65.3	10.1
2025-01-23 05:44:51.267488	182.3	80.4	-65.7	8.3
2025-01-23 05:44:52.409446	183.4	79.8	-63.5	7.8
2025-01-23 05:44:53.554396	184.3	79.3	-62.7	6.8
2025-01-23 05:44:54.695357	185.1	78.8	-64.9	9.5
2025-01-23 05:44:55.837315	185.9	78.2	-63.9	6.5
2025-01-23 05:44:56.982267	186.6	77.7	-63.9	7.0
2025-01-23 05:44:58.125221	187.3	77.2	-64.3	7.1
2025-01-23 05:44:59.267179	187.9	76.6	-64.7	9.8
2025-01-23 05:45:00.408649	188.4	76.1	-66.6	11.3
2025-01-23 05:45:01.550607	188.9	75.6	-65.2	7.8
2025-01-23 05:45:02.696065	189.4	75.0	-64.3	6.1
2025-01-23 05:45:03.838023	189.8	74.5	-63.9	6.5
2025-01-23 05:45:04.979492	190.2	74.0	-64.7	6.4
2025-01-23 05:45:06.120453	190.6	73.4	-66.8	11.3
2025-01-23 05:45:07.263930	190.9	72.9	-66.4	11.5
2025-01-23 05:45:08.405889	191.3	72.4	-66.3	8.7
2025-01-23 05:45:09.548844	191.6	71.9	-66.3	10.5
2025-01-23 05:45:10.690822	191.9	71.4	-66.1	6.9
2025-01-23 05:45:11.832780	192.2	70.8	-65.7	6.5
2025-01-23 05:45:12.974738	192.4	70.3	-66.2	8.2
2025-01-23 05:45:14.115212	192.7	69.8	-66.5	7.2
2025-01-23 05:45:15.259165	192.9	69.3	-64.9	5.0
2025-01-23 05:45:16.404115	193.1	68.8	-65.1	5.2
2025-01-23 05:45:17.548071	193.3	68.3	-65.4	6.1
2025-01-23 05:45:18.691024	193.5	67.8	-65.0	5.9
2025-01-23 05:45:19.832983	193.7	67.3	-64.5	6.9
2025-01-23 05:45:20.973943	193.9	66.8	-65.2	6.4
2025-01-23 05:45:22.116905	194.1	66.3	-64.7	5.4
2025-01-23 05:45:23.257860	194.3	65.8	-65.2	6.5
2025-01-23 05:45:24.402810	194.4	65.3	-65.2	8.6
2025-01-23 05:45:25.544769	194.6	64.8	-65.3	7.5
2025-01-23 05:45:26.686238	194.7	64.3	-65.4	9.8
2025-01-23 05:45:27.830190	194.9	63.9	-66.2	9.7
2025-01-23 05:45:28.974143	195.0	63.4	-64.9	8.3
2025-01-23 05:45:30.116101	195.1	62.9	-65.6	9.1
2025-01-23 05:45:31.263046	195.3	62.4	-65.3	8.1
2025-01-23 05:45:32.406999	195.4	62.0	-65.3	9.4
2025-01-23 05:45:33.547960	195.5	61.5	-65.7	12.0
2025-01-23 05:45:34.689919	195.6	61.0	-65.2	11.7
2025-01-23 05:45:35.834869	195.7	60.6	-64.9	9.9
2025-01-23 05:45:36.976827	195.8	60.1	-65.6	13.1
2025-01-23 05:45:38.117788	195.9	59.7	-65.3	9.4
2025-01-23 05:45:39.260252	196.0	59.2	-65.2	11.0
2025-01-23 05:45:40.402211	196.1	58.8	-65.6	10.6
2025-01-23 05:45:41.550153	196.2	58.3	-65.3	10.1
2025-01-23 05:45:42.695104	196.3	57.9	-64.8	10.8
2025-01-23 05:45:43.836064	196.4	57.5	-64.6	9.9
2025-01-23 05:45:44.981030	196.5	57.0	-65.5	12.8
2025-01-23 05:45:46.123970	196.6	56.6	-65.1	11.9
2025-01-23 05:45:47.265928	196.6	56.2	-65.3	10.7
2025-01-23 05:45:48.407886	196.7	55.8	-65.3	11.9
2025-01-23 05:45:49.551355	196.8	55.3	-66.0	12.0
2025-01-23 05:45:50.691824	196.9	54.9	-65.5	12.3
2025-01-23 05:45:51.834780	196.9	54.5	-65.7	12.7
2025-01-23 05:45:52.976738	197.0	54.1	-65.6	12.0
2025-01-23 05:45:54.119709	197.1	53.7	-66.7	14.7
2025-01-23 05:45:55.260669	197.1	53.3	-66.1	12.7
2025-01-23 05:45:56.403625	197.2	52.9	-65.5	12.7
2025-01-23 05:45:57.545093	197.3	52.5	-65.5	10.4
2025-01-23 05:45:58.687051	197.3	52.1	-66.0	14.0
2025-01-23 05:45:59.828519	197.4	51.7	-66.0	14.4
2025-01-23 05:46:00.973469	197.4	51.3	-66.1	14.5
2025-01-23 05:46:02.114430	197.5	50.9	-65.5	12.0
2025-01-23 05:46:03.258384	197.6	50.5	-66.1	14.6
2025-01-23 05:46:04.399343	197.6	50.2	-65.8	14.6
2025-01-23 05:46:05.540304	197.7	49.8	-66.4	15.6
2025-01-23 05:46:06.684257	197.7	49.4	-65.7	12.2
2025-01-23 05:46:07.827216	197.8	49.0	-66.0	13.8
2025-01-23 05:46:08.968681	197.8	48.7	-66.6	14.7
2025-01-23 05:46:10.109642	197.9	48.3	-66.9	14.4
2025-01-23 05:46:11.250603	197.9	48.0	-66.7	12.5
2025-01-23 05:46:12.393558	197.9	47.6	-67.5	13.5
2025-01-23 05:46:13.534519	198.0	47.2	-67.2	12.9
2025-01-23 05:46:14.675481	198.0	46.9	-67.2	12.5
2025-01-23 05:46:15.818436	198.1	46.5	-66.9	12.9
2025-01-23 05:46:16.959397	198.1	46.2	-67.2	12.3
2025-01-23 05:46:18.100358	198.2	45.9	-66.9	11.3
2025-01-23 05:46:19.241824	198.2	45.5	-67.8	12.6
2025-01-23 05:46:20.382784	198.2	45.2	-67.7	12.0
2025-01-23 05:46:21.523747	198.3	44.8	-67.6	12.3
2025-01-23 05:46:22.665704	198.3	44.5	-67.3	12.0
2025-01-23 05:46:23.808659	198.4	44.2	-67.6	11.9
2025-01-23 05:46:24.951615	198.4	43.9	-67.7	12.4
2025-01-23 05:46:26.094593	198.4	43.5	-67.9	11.6
2025-01-23 05:46:27.236551	198.5	43.2	-67.5	12.1
2025-01-23 05:46:28.377512	198.5	42.9	-67.6	11.7
2025-01-23 05:46:29.523460	198.5	42.6	-67.7	11.1
2025-01-23 05:46:30.667413	198.6	42.3	-68.2	12.9
2025-01-23 05:46:31.810368	198.6	42.0	-67.4	12.2
2025-01-23 05:46:32.954828	198.6	41.6	-67.8	12.8
2025-01-23 05:46:34.096786	198.7	41.3	-67.9	10.9
2025-01-23 05:46:35.237746	198.7	41.0	-67.6	12.2
2025-01-23 05:46:36.379706	198.7	40.7	-68.3	12.3
2025-01-23 05:46:37.522661	198.8	40.4	-67.7	12.6
2025-01-23 05:46:38.666613	198.8	40.1	-67.9	13.7
2025-01-23 05:46:39.814556	198.8	39.9	-67.0	12.2
2025-01-23 05:46:40.955517	198.9	39.6	-67.8	13.3
2025-01-23 05:46:42.096984	198.9	39.3	-67.9	13.7
2025-01-23 05:46:43.237455	198.9	39.0	-67.2	11.3
2025-01-23 05:46:44.379428	198.9	38.7	-67.1	13.5
2025-01-23 05:46:45.525376	199.0	38.4	-67.7	14.0
2025-01-23 05:46:46.667842	199.0	38.1	-67.9	14.0
2025-01-23 05:46:47.808806	199.0	37.9	-66.9	11.9
2025-01-23 05:46:48.950761	199.1	37.6	-66.9	11.2
2025-01-23 05:46:50.091722	199.1	37.3	-67.2	13.0
2025-01-23 05:46:51.233680	199.1	37.0	-67.0	11.7
2025-01-23 05:46:52.374641	199.1	36.8	-66.9	11.7
2025-01-23 05:46:53.517597	199.2	36.5	-67.1	12.5
2025-01-23 05:46:54.658557	199.2	36.3	-66.9	12.7
2025-01-23 05:46:55.800516	199.2	36.0	-66.3	10.8
2025-01-23 05:46:56.941982	199.2	35.7	-67.5	14.2
2025-01-23 05:46:58.082943	199.3	35.5	-67.5	13.9
2025-01-23 05:46:59.223904	199.3	35.2	-67.4	13.0
2025-01-23 05:47:00.364865	199.3	35.0	-67.0	13.2
2025-01-23 05:47:01.511810	199.3	34.7	-66.7	12.5
2025-01-23 05:47:02.652771	199.3	34.5	-67.5	13.3
2025-01-23 05:47:03.795727	199.4	34.2	-67.6	14.4
2025-01-23 05:47:04.936687	199.4	34.0	-67.2	12.9
2025-01-23 05:47:06.077648	199.4	33.7	-67.3	12.9
2025-01-23 05:47:07.218609	199.4	33.5	-66.7	11.1
2025-01-23 05:47:08.364557	199.5	33.2	-66.5	10.8
2025-01-23 05:47:09.507513	199.5	33.0	-66.6	10.5
2025-01-23 05:47:10.649472	199.5	32.8	-67.3	12.7
2025-01-23 05:47:11.793424	199.5	32.5	-67.0	12.8
2025-01-23 05:47:12.936380	199.5	32.3	-67.9	13.6
2025-01-23 05:47:14.078337	199.6	32.1	-67.2	12.3
2025-01-23 05:47:15.221293	199.6	31.8	-66.9	11.4
2025-01-23 05:47:16.362254	199.6	31.6	-67.8	13.2
2025-01-23 05:47:17.505210	199.6	31.4	-66.5	11.8
2025-01-23 05:47:18.647168	199.6	31.2	-66.7	12.5
2025-01-23 05:47:19.789144	199.7	31.0	-66.9	11.8
2025-01-23 05:47:20.932098	199.7	30.7	-66.4	11.0
2025-01-23 05:47:22.074563	199.7	30.5	-66.5	11.2
2025-01-23 05:47:23.215524	199.7	30.3	-67.4	12.0
2025-01-23 05:47:24.358480	199.7	30.1	-67.2	10.4
#Closed at: 2025-01-23 05:41:36.082592