passes_logs/2025/01/23/Planum_Noyabrsk/Planum_Noyabrsk__20250123_044410_METOP-C_rec.log

#Pass ID: 20250123_044410_METOP-C
#Satellite: METOP-C
#Configuration: METOP-C
#Start time: 2025-01-23 04:44:15.752207

#LorettStation: 1.0.0 05.05.2024
#Station: Planum_Noyabrsk
#Location: 75.446886 lon 63.207202 lat
#TLE: 1 43689U 18087A   25022.47222508  .00000349  00000+0  17929-3 0  9991
#TLE: 2 43689  98.6954  84.8526 0001755 150.3308 209.7969 14.21486592322274

#Time	Az	El	Level	SNR
2025-01-23 04:44:23.965473	46.0	31.3	-60.4	3.7
2025-01-23 04:44:25.108429	46.3	31.5	-61.6	4.3
2025-01-23 04:44:26.250405	46.5	31.6	-60.0	0.9
2025-01-23 04:44:27.391365	46.8	31.8	-58.8	0.0
2025-01-23 04:44:28.536316	47.1	32.0	-59.7	0.0
2025-01-23 04:44:29.682772	47.3	32.2	-60.2	0.0
2025-01-23 04:44:30.826724	47.6	32.4	-59.9	0.0
2025-01-23 04:44:31.969680	47.9	32.6	-60.4	4.2
2025-01-23 04:44:33.112145	48.1	32.7	-59.9	0.0
2025-01-23 04:44:34.256097	48.4	32.9	-61.1	9.1
2025-01-23 04:44:35.397058	48.7	33.1	-57.8	0.0
2025-01-23 04:44:36.539016	49.0	33.3	-61.4	5.7
2025-01-23 04:44:37.680974	49.3	33.5	-61.9	3.6
2025-01-23 04:44:38.825924	49.6	33.7	-57.4	0.0
2025-01-23 04:44:39.974374	49.9	33.9	-59.5	0.0
2025-01-23 04:44:41.118327	50.1	34.0	-61.9	0.9
2025-01-23 04:44:42.260285	50.4	34.2	-61.7	1.1
2025-01-23 04:44:43.402750	50.7	34.4	-57.4	1.6
2025-01-23 04:44:44.545705	51.1	34.6	-58.1	0.0
2025-01-23 04:44:45.687663	51.4	34.8	-60.5	4.8
2025-01-23 04:44:46.833120	51.7	35.0	-57.7	0.0
2025-01-23 04:44:47.975079	52.0	35.2	-57.3	0.0
2025-01-23 04:44:49.116039	52.3	35.4	-61.2	6.6
2025-01-23 04:44:50.261987	52.6	35.6	-60.9	3.2
2025-01-23 04:44:51.403945	53.0	35.7	-58.3	0.0
2025-01-23 04:44:52.545903	53.3	35.9	-58.7	0.0
2025-01-23 04:44:53.687861	53.6	36.1	-57.0	0.0
2025-01-23 04:44:54.839794	54.0	36.3	-61.5	2.4
2025-01-23 04:44:55.983747	54.3	36.5	-56.4	0.0
2025-01-23 04:44:57.128696	54.7	36.7	-58.1	0.0
2025-01-23 04:44:58.270655	55.0	36.9	-58.6	0.0
2025-01-23 04:44:59.414608	55.4	37.1	-49.6	0.0
2025-01-23 04:45:00.555568	55.7	37.3	-59.2	0.0
2025-01-23 04:45:01.698524	56.1	37.4	-53.1	0.0
2025-01-23 04:45:02.839993	56.5	37.6	-61.1	7.5
2025-01-23 04:45:03.986938	56.8	37.8	-59.0	0.0
2025-01-23 04:45:05.127898	57.2	38.0	-59.5	0.0
2025-01-23 04:45:06.269875	57.6	38.2	-58.8	0.0
2025-01-23 04:45:07.410835	58.0	38.4	-58.7	0.0
2025-01-23 04:45:08.555785	58.4	38.6	-59.0	0.0
2025-01-23 04:45:09.698741	58.8	38.8	-59.4	0.0
2025-01-23 04:45:10.840699	59.1	38.9	-61.0	5.9
2025-01-23 04:45:11.982657	59.6	39.1	-57.9	0.0
2025-01-23 04:45:13.128605	60.0	39.3	-58.8	0.0
2025-01-23 04:45:14.271560	60.4	39.5	-57.1	0.0
2025-01-23 04:45:15.414026	60.8	39.7	-57.3	0.0
2025-01-23 04:45:16.556490	61.2	39.9	-56.7	0.0
2025-01-23 04:45:17.699445	61.6	40.1	-60.4	0.0
2025-01-23 04:45:18.841404	62.1	40.2	-60.0	0.5
2025-01-23 04:45:19.984359	62.5	40.4	-55.2	0.0
2025-01-23 04:45:21.128313	62.9	40.6	-56.7	0.0
2025-01-23 04:45:22.270271	63.4	40.8	-59.4	0.0
2025-01-23 04:45:23.419229	63.8	41.0	-58.5	0.1
2025-01-23 04:45:24.560190	64.3	41.1	-57.7	0.0
2025-01-23 04:45:25.705652	64.7	41.3	-58.6	2.4
2025-01-23 04:45:26.847610	65.2	41.5	-58.5	0.8
2025-01-23 04:45:27.988571	65.7	41.7	-55.3	0.0
2025-01-23 04:45:29.132035	66.2	41.8	-56.7	0.0
2025-01-23 04:45:30.273993	66.6	42.0	-55.7	0.0
2025-01-23 04:45:31.415953	67.1	42.2	-56.0	0.0
2025-01-23 04:45:32.558907	67.6	42.3	-57.3	0.0
2025-01-23 04:45:33.703858	68.1	42.5	-56.5	0.0
2025-01-23 04:45:34.846814	68.6	42.7	-56.0	0.0
2025-01-23 04:45:35.989280	69.1	42.8	-55.6	0.0
2025-01-23 04:45:37.133233	69.6	43.0	-57.8	5.3
2025-01-23 04:45:38.276206	70.1	43.1	-58.7	0.3
2025-01-23 04:45:39.421156	70.7	43.3	-54.8	0.0
2025-01-23 04:45:40.563114	71.2	43.5	-53.6	0.0
2025-01-23 04:45:41.708065	71.7	43.6	-55.1	0.0
2025-01-23 04:45:42.851021	72.2	43.8	-55.8	0.0
2025-01-23 04:45:43.993976	72.8	43.9	-57.4	2.6
2025-01-23 04:45:45.136931	73.3	44.1	-57.4	0.0
2025-01-23 04:45:46.281392	73.9	44.2	-56.4	0.7
2025-01-23 04:45:47.424853	74.4	44.3	-59.4	0.0
2025-01-23 04:45:48.566811	75.0	44.5	-58.4	0.0
2025-01-23 04:45:49.709786	75.6	44.6	-57.7	0.0
2025-01-23 04:45:50.852742	76.1	44.8	-57.9	4.2
2025-01-23 04:45:51.996695	76.7	44.9	-56.4	0.0
2025-01-23 04:45:53.139159	77.3	45.0	-49.3	0.0
2025-01-23 04:45:54.281117	77.9	45.2	-53.1	0.0
2025-01-23 04:45:55.425070	78.5	45.3	-48.5	0.0
2025-01-23 04:45:56.567029	79.0	45.4	-50.3	0.0
2025-01-23 04:45:57.709984	79.6	45.5	-53.1	0.0
2025-01-23 04:45:58.851942	80.2	45.6	-55.5	0.0
2025-01-23 04:45:59.992903	80.9	45.7	-56.1	0.0
2025-01-23 04:46:01.134861	81.5	45.9	-55.7	0.0
2025-01-23 04:46:02.276819	82.1	46.0	-58.0	2.2
2025-01-23 04:46:03.420772	82.7	46.1	-54.7	0.0
2025-01-23 04:46:04.562239	83.3	46.2	-54.0	0.0
2025-01-23 04:46:05.705207	83.9	46.3	-57.4	1.0
2025-01-23 04:46:06.847171	84.6	46.3	-50.0	0.0
2025-01-23 04:46:07.990632	85.2	46.4	-56.1	0.0
2025-01-23 04:46:09.133588	85.8	46.5	-52.8	0.0
2025-01-23 04:46:10.283037	86.5	46.6	-57.7	1.0
2025-01-23 04:46:11.426993	87.1	46.7	-53.9	0.0
2025-01-23 04:46:12.567950	87.8	46.8	-52.7	0.0
2025-01-23 04:46:13.719882	88.4	46.8	-57.6	0.0
2025-01-23 04:46:14.862837	89.1	46.9	-53.1	0.0
2025-01-23 04:46:16.003798	89.7	46.9	-54.8	0.0
2025-01-23 04:46:17.146754	90.4	47.0	-51.9	0.0
2025-01-23 04:46:18.288712	91.1	47.1	-53.4	0.0
2025-01-23 04:46:19.431669	91.7	47.1	-55.4	0.0
2025-01-23 04:46:20.574639	92.4	47.2	-54.6	0.0
2025-01-23 04:46:21.716597	93.1	47.2	-52.8	0.0
2025-01-23 04:46:22.858556	93.7	47.2	-54.4	0.0
2025-01-23 04:46:24.004012	94.4	47.3	-54.2	0.0
2025-01-23 04:46:25.145971	95.1	47.3	-55.3	0.0
2025-01-23 04:46:26.289923	95.7	47.3	-55.2	0.0
2025-01-23 04:46:27.430884	96.4	47.4	-53.9	0.0
2025-01-23 04:46:28.575835	97.1	47.4	-54.7	0.0
2025-01-23 04:46:29.716795	97.8	47.4	-56.0	0.0
2025-01-23 04:46:30.858754	98.4	47.4	-57.0	0.0
2025-01-23 04:46:32.000712	99.1	47.4	-56.7	0.0
2025-01-23 04:46:33.142670	99.8	47.4	-57.9	0.0
2025-01-23 04:46:34.285135	100.5	47.4	-57.0	0.0
2025-01-23 04:46:35.427093	101.1	47.4	-56.5	0.0
2025-01-23 04:46:36.568055	101.8	47.4	-58.7	0.0
2025-01-23 04:46:37.710046	102.5	47.4	-58.0	0.0
2025-01-23 04:46:38.853003	103.2	47.3	-59.6	0.0
2025-01-23 04:46:39.996955	103.8	47.3	-60.2	0.0
2025-01-23 04:46:41.145927	104.5	47.3	-58.3	0.0
2025-01-23 04:46:42.288883	105.2	47.2	-57.8	0.0
2025-01-23 04:46:43.431838	105.8	47.2	-57.1	0.0
2025-01-23 04:46:44.573796	106.5	47.2	-58.7	3.8
2025-01-23 04:46:45.719744	107.2	47.1	-59.0	3.3
2025-01-23 04:46:46.861211	107.8	47.1	-58.5	0.0
2025-01-23 04:46:48.006161	108.5	47.0	-60.6	2.5
2025-01-23 04:46:49.146124	109.2	47.0	-57.9	0.0
2025-01-23 04:46:50.289587	109.8	46.9	-58.6	0.0
2025-01-23 04:46:51.436041	110.5	46.8	-57.7	0.0
2025-01-23 04:46:52.578997	111.1	46.8	-61.0	1.8
2025-01-23 04:46:53.720463	111.8	46.7	-58.7	0.0
2025-01-23 04:46:54.862421	112.4	46.6	-58.0	0.0
2025-01-23 04:46:56.008369	113.1	46.5	-55.1	0.0
2025-01-23 04:46:57.150834	113.7	46.4	-57.8	0.0
2025-01-23 04:46:58.293790	114.3	46.4	-56.2	0.0
2025-01-23 04:46:59.435748	115.0	46.3	-57.9	0.0
2025-01-23 04:47:00.577706	115.6	46.2	-59.6	6.7
2025-01-23 04:47:01.723654	116.2	46.1	-58.8	6.2
2025-01-23 04:47:02.864616	116.8	46.0	-56.9	0.0
2025-01-23 04:47:04.006588	117.5	45.9	-58.1	0.0
2025-01-23 04:47:05.152536	118.1	45.8	-59.9	7.5
2025-01-23 04:47:06.294493	118.7	45.6	-58.1	0.0
2025-01-23 04:47:07.437449	119.3	45.5	-59.1	5.8
2025-01-23 04:47:08.580405	119.9	45.4	-60.4	7.0
2025-01-23 04:47:09.723360	120.5	45.3	-58.4	0.0
2025-01-23 04:47:10.868311	121.1	45.2	-59.0	5.8
2025-01-23 04:47:12.010269	121.7	45.0	-60.8	7.5
2025-01-23 04:47:13.152227	122.2	44.9	-61.9	4.4
2025-01-23 04:47:14.295711	122.8	44.8	-60.4	0.0
2025-01-23 04:47:15.437667	123.4	44.6	-61.4	10.9
2025-01-23 04:47:16.581620	123.9	44.5	-60.0	1.5
2025-01-23 04:47:17.727587	124.5	44.4	-59.9	0.0
2025-01-23 04:47:18.869546	125.1	44.2	-59.6	0.0
2025-01-23 04:47:20.012501	125.6	44.1	-60.3	2.1
2025-01-23 04:47:21.155459	126.2	43.9	-60.8	6.5
2025-01-23 04:47:22.299409	126.7	43.8	-61.0	9.0
2025-01-23 04:47:23.440370	127.2	43.6	-60.3	4.6
2025-01-23 04:47:24.583326	127.8	43.5	-60.2	5.4
2025-01-23 04:47:25.727279	128.3	43.3	-60.8	5.1
2025-01-23 04:47:26.871232	128.8	43.2	-62.2	6.1
2025-01-23 04:47:28.015185	129.3	43.0	-62.4	9.5
2025-01-23 04:47:29.158142	129.9	42.8	-61.4	0.0
2025-01-23 04:47:30.300099	130.4	42.7	-61.9	4.9
2025-01-23 04:47:31.442076	130.9	42.5	-62.3	9.9
2025-01-23 04:47:32.583036	131.4	42.3	-61.8	1.4
2025-01-23 04:47:33.727987	131.8	42.2	-60.7	2.2
2025-01-23 04:47:34.871482	132.3	42.0	-62.6	5.7
2025-01-23 04:47:36.013441	132.8	41.8	-62.1	7.3
2025-01-23 04:47:37.156397	133.3	41.7	-61.9	10.3
2025-01-23 04:47:38.304338	133.8	41.5	-62.7	6.9
2025-01-23 04:47:39.445300	134.2	41.3	-62.8	5.2
2025-01-23 04:47:40.589253	134.7	41.1	-62.2	5.7
2025-01-23 04:47:41.783093	135.2	40.9	-61.4	1.4
2025-01-23 04:47:42.926048	135.6	40.8	-63.9	8.0
2025-01-23 04:47:44.068007	136.1	40.6	-63.3	7.0
2025-01-23 04:47:45.211470	136.5	40.4	-63.4	3.8
2025-01-23 04:47:46.356420	136.9	40.2	-62.1	6.4
2025-01-23 04:47:47.498378	137.4	40.0	-63.9	9.5
2025-01-23 04:47:48.642331	137.8	39.9	-63.9	8.9
2025-01-23 04:47:49.787282	138.2	39.7	-62.9	5.6
2025-01-23 04:47:50.929240	138.6	39.5	-63.9	10.4
2025-01-23 04:47:52.071707	139.1	39.3	-63.9	6.7
2025-01-23 04:47:53.214662	139.5	39.1	-64.1	11.8
2025-01-23 04:47:54.356620	139.9	38.9	-63.3	7.9
2025-01-23 04:47:55.498578	140.3	38.7	-63.0	8.4
2025-01-23 04:47:56.640537	140.7	38.6	-63.3	8.9
2025-01-23 04:47:57.781497	141.1	38.4	-63.2	7.7
2025-01-23 04:47:58.923455	141.4	38.2	-63.3	7.5
2025-01-23 04:48:00.065415	141.8	38.0	-64.1	11.7
2025-01-23 04:48:01.212359	142.2	37.8	-63.8	9.9
2025-01-23 04:48:02.355315	142.6	37.6	-64.2	10.8
2025-01-23 04:48:03.499268	142.9	37.4	-63.8	9.7
2025-01-23 04:48:04.642223	143.3	37.2	-64.2	11.1
2025-01-23 04:48:05.787173	143.7	37.0	-63.8	10.0
2025-01-23 04:48:06.930129	144.0	36.9	-64.3	10.6
2025-01-23 04:48:08.070600	144.4	36.7	-63.4	9.7
2025-01-23 04:48:09.214554	144.7	36.5	-63.8	10.1
2025-01-23 04:48:10.355514	145.1	36.3	-63.9	11.3
2025-01-23 04:48:11.502459	145.4	36.1	-63.6	9.0
2025-01-23 04:48:12.644417	145.7	35.9	-64.0	10.5
2025-01-23 04:48:13.788370	146.1	35.7	-64.1	8.9
2025-01-23 04:48:14.930328	146.4	35.5	-63.8	9.5
2025-01-23 04:48:16.075279	146.7	35.3	-63.5	8.6
2025-01-23 04:48:17.218234	147.0	35.1	-63.9	9.8
2025-01-23 04:48:18.364182	147.4	34.9	-64.0	10.9
2025-01-23 04:48:19.507138	147.7	34.8	-63.4	8.8
2025-01-23 04:48:20.650093	148.0	34.6	-63.9	10.5
2025-01-23 04:48:21.792051	148.3	34.4	-64.1	10.2
2025-01-23 04:48:22.934010	148.6	34.2	-63.4	9.0
2025-01-23 04:48:24.075968	148.9	34.0	-64.1	10.7
2025-01-23 04:48:25.218923	149.2	33.8	-64.1	8.4
2025-01-23 04:48:26.361883	149.5	33.6	-64.1	10.0
2025-01-23 04:48:27.502840	149.8	33.4	-64.3	10.9
2025-01-23 04:48:28.645796	150.1	33.3	-64.9	11.5
2025-01-23 04:48:29.787754	150.3	33.1	-63.5	9.2
2025-01-23 04:48:30.931707	150.6	32.9	-63.4	9.3
2025-01-23 04:48:32.073665	150.9	32.7	-64.6	9.7
2025-01-23 04:48:33.218132	151.2	32.5	-64.6	10.3
2025-01-23 04:48:34.361088	151.4	32.3	-64.6	9.4
2025-01-23 04:48:35.503046	151.7	32.1	-64.6	10.5
2025-01-23 04:48:36.644513	152.0	32.0	-64.8	11.1
2025-01-23 04:48:37.788466	152.2	31.8	-64.5	10.0
2025-01-23 04:48:38.931422	152.5	31.6	-64.4	9.3
2025-01-23 04:48:40.075881	152.8	31.4	-63.6	8.2
2025-01-23 04:48:41.219834	153.0	31.2	-64.4	9.3
2025-01-23 04:48:42.361792	153.3	31.0	-63.5	7.5
2025-01-23 04:48:43.504747	153.5	30.9	-64.1	9.8
2025-01-23 04:48:44.647703	153.8	30.7	-63.7	6.9
2025-01-23 04:48:45.790659	154.0	30.5	-63.6	8.3
2025-01-23 04:48:46.932617	154.2	30.3	-64.0	9.8
2025-01-23 04:48:48.074575	154.5	30.1	-66.0	10.8
2025-01-23 04:48:49.216534	154.7	30.0	-69.4	1.8
#Closed at: 2025-01-23 04:44:10.757150