passes_logs/2025/01/23/Planum_Noyabrsk/Planum_Noyabrsk__20250123_060515_NOAA_18_rec.log

#Pass ID: 20250123_060515_NOAA 18
#Satellite: NOAA 18
#Configuration: NOAA 18
#Start time: 2025-01-23 06:05:20.798647

#LorettStation: 1.0.0 05.05.2024
#Station: Planum_Noyabrsk
#Location: 75.446886 lon 63.207202 lat
#TLE: 1 28654U 05018A   25022.45378931  .00000449  00000+0  26150-3 0  9993
#TLE: 2 28654  98.8556 103.4338 0014688 158.5214 201.6577 14.13493959 14239

#Time	Az	El	Level	SNR
2025-01-23 06:05:27.552431	42.1	31.1	-57.1	0.0
2025-01-23 06:05:28.693392	42.3	31.3	-56.6	0.0
2025-01-23 06:05:29.834862	42.5	31.5	-57.5	0.0
2025-01-23 06:05:30.975823	42.8	31.7	-57.9	0.0
2025-01-23 06:05:32.117782	43.0	31.9	-56.2	0.0
2025-01-23 06:05:33.259739	43.2	32.0	-58.5	0.0
2025-01-23 06:05:34.401698	43.4	32.2	-58.9	2.0
2025-01-23 06:05:35.543656	43.7	32.4	-56.0	0.0
2025-01-23 06:05:36.685614	43.9	32.6	-58.7	0.0
2025-01-23 06:05:37.828570	44.1	32.8	-53.0	0.0
2025-01-23 06:05:38.972523	44.4	33.0	-60.1	2.0
2025-01-23 06:05:40.112996	44.6	33.2	-59.3	4.3
2025-01-23 06:05:41.254953	44.9	33.4	-60.6	0.0
2025-01-23 06:05:42.401409	45.1	33.6	-57.4	0.0
2025-01-23 06:05:43.547357	45.4	33.8	-60.3	4.8
2025-01-23 06:05:44.689318	45.6	34.0	-59.2	0.0
2025-01-23 06:05:45.833268	45.9	34.2	-58.8	0.0
2025-01-23 06:05:46.976732	46.1	34.4	-59.3	3.4
2025-01-23 06:05:48.118690	46.4	34.6	-53.5	0.0
2025-01-23 06:05:49.265635	46.7	34.8	-58.2	0.0
2025-01-23 06:05:50.407593	46.9	35.0	-60.8	5.5
2025-01-23 06:05:51.549551	47.2	35.2	-57.2	0.0
2025-01-23 06:05:52.691510	47.5	35.4	-56.4	0.0
2025-01-23 06:05:53.839958	47.8	35.6	-58.6	0.0
2025-01-23 06:05:54.980919	48.0	35.8	-58.0	0.0
2025-01-23 06:05:56.124872	48.3	36.0	-60.3	4.8
2025-01-23 06:05:57.266830	48.6	36.2	-59.4	0.0
2025-01-23 06:05:58.409295	48.9	36.4	-58.6	0.0
2025-01-23 06:05:59.550256	49.2	36.6	-60.4	3.5
2025-01-23 06:06:00.694226	49.5	36.9	-57.8	0.0
2025-01-23 06:06:01.834190	49.8	37.1	-58.3	0.0
2025-01-23 06:06:02.976149	50.1	37.3	-57.1	0.0
2025-01-23 06:06:04.121099	50.4	37.5	-59.7	2.1
2025-01-23 06:06:05.262594	50.7	37.7	-61.0	3.4
2025-01-23 06:06:06.404553	51.1	37.9	-58.6	0.6
2025-01-23 06:06:07.546021	51.4	38.1	-56.4	0.0
2025-01-23 06:06:08.687980	51.7	38.3	-59.3	1.9
2025-01-23 06:06:09.829446	52.0	38.5	-60.0	2.0
2025-01-23 06:06:10.974903	52.4	38.7	-60.5	0.4
2025-01-23 06:06:12.116862	52.7	38.9	-60.6	1.0
2025-01-23 06:06:13.257822	53.1	39.1	-57.1	0.0
2025-01-23 06:06:14.400778	53.4	39.4	-59.3	0.0
2025-01-23 06:06:15.542736	53.8	39.6	-61.5	0.8
2025-01-23 06:06:16.683697	54.1	39.8	-59.6	1.9
2025-01-23 06:06:17.830642	54.5	40.0	-59.8	0.0
2025-01-23 06:06:18.975593	54.8	40.2	-58.7	0.0
2025-01-23 06:06:20.116553	55.2	40.4	-60.1	0.0
2025-01-23 06:06:21.259509	55.6	40.6	-62.9	4.8
2025-01-23 06:06:22.400470	56.0	40.8	-58.1	0.0
2025-01-23 06:06:23.543427	56.4	41.0	-60.6	1.2
2025-01-23 06:06:24.683896	56.8	41.3	-62.1	3.4
2025-01-23 06:06:25.825854	57.1	41.5	-60.3	0.0
2025-01-23 06:06:26.970805	57.6	41.7	-58.8	0.0
2025-01-23 06:06:28.111788	58.0	41.9	-59.0	0.0
2025-01-23 06:06:29.254744	58.4	42.1	-62.9	6.8
2025-01-23 06:06:30.396702	58.8	42.3	-60.0	0.0
2025-01-23 06:06:31.538174	59.2	42.5	-58.2	0.0
2025-01-23 06:06:32.681639	59.6	42.7	-57.5	0.0
2025-01-23 06:06:33.824594	60.1	42.9	-53.7	0.0
2025-01-23 06:06:34.972046	60.5	43.1	-60.4	3.9
2025-01-23 06:06:36.112010	61.0	43.3	-57.9	1.2
2025-01-23 06:06:37.254965	61.4	43.5	-57.0	0.0
2025-01-23 06:06:38.396434	61.9	43.7	-54.7	0.0
2025-01-23 06:06:39.539896	62.3	43.9	-57.7	0.0
2025-01-23 06:06:40.680857	62.8	44.1	-57.8	0.0
2025-01-23 06:06:41.823813	63.3	44.3	-57.2	0.8
2025-01-23 06:06:42.965770	63.7	44.5	-60.2	3.3
2025-01-23 06:06:44.110721	64.2	44.7	-58.1	0.5
2025-01-23 06:06:45.253185	64.7	44.9	-58.6	0.8
2025-01-23 06:06:46.395143	65.2	45.1	-58.9	0.2
2025-01-23 06:06:47.539096	65.7	45.3	-60.6	4.7
2025-01-23 06:06:48.680057	66.2	45.5	-59.8	5.9
2025-01-23 06:06:49.822015	66.8	45.7	-57.6	1.4
2025-01-23 06:06:50.963973	67.3	45.9	-59.1	2.8
2025-01-23 06:06:52.105440	67.8	46.1	-57.7	3.0
2025-01-23 06:06:53.247906	68.3	46.3	-55.6	0.0
2025-01-23 06:06:54.388866	68.9	46.5	-58.7	0.0
2025-01-23 06:06:55.530825	69.4	46.6	-57.4	0.0
2025-01-23 06:06:56.671786	70.0	46.8	-59.4	0.0
2025-01-23 06:06:57.813744	70.5	47.0	-59.8	0.0
2025-01-23 06:06:58.955704	71.1	47.2	-59.1	0.0
2025-01-23 06:07:00.103647	71.7	47.4	-59.7	0.0
2025-01-23 06:07:01.245603	72.3	47.5	-59.7	0.0
2025-01-23 06:07:02.387561	72.8	47.7	-57.4	0.0
2025-01-23 06:07:03.530516	73.4	47.9	-57.3	0.0
2025-01-23 06:07:04.672475	74.0	48.0	-53.5	0.0
2025-01-23 06:07:05.814433	74.6	48.2	-57.6	0.0
2025-01-23 06:07:06.958386	75.3	48.3	-55.7	0.0
2025-01-23 06:07:08.100344	75.9	48.5	-57.6	0.0
2025-01-23 06:07:09.242302	76.5	48.7	-58.4	0.0
2025-01-23 06:07:10.385258	77.1	48.8	-57.9	0.0
2025-01-23 06:07:11.527216	77.8	48.9	-56.8	0.0
2025-01-23 06:07:12.672167	78.4	49.1	-56.9	0.0
2025-01-23 06:07:13.815122	79.0	49.2	-55.1	0.0
2025-01-23 06:07:14.959075	79.7	49.4	-57.7	0.0
2025-01-23 06:07:16.101034	80.4	49.5	-56.4	0.0
2025-01-23 06:07:17.242500	81.0	49.6	-53.4	0.0
2025-01-23 06:07:18.383968	81.7	49.8	-57.9	0.0
2025-01-23 06:07:19.524929	82.4	49.9	-55.3	0.0
2025-01-23 06:07:20.667424	83.0	50.0	-52.2	0.0
2025-01-23 06:07:21.809382	83.7	50.1	-57.7	0.0
2025-01-23 06:07:22.955329	84.4	50.2	-54.9	0.0
2025-01-23 06:07:24.097288	85.1	50.3	-56.4	0.0
2025-01-23 06:07:25.238249	85.8	50.4	-55.4	0.0
2025-01-23 06:07:26.381204	86.5	50.5	-55.1	0.0
2025-01-23 06:07:27.523672	87.2	50.6	-56.0	0.0
2025-01-23 06:07:28.665630	87.9	50.7	-54.5	0.0
2025-01-23 06:07:29.808586	88.7	50.8	-55.2	0.0
2025-01-23 06:07:30.950544	89.4	50.9	-57.5	0.0
2025-01-23 06:07:32.093499	90.1	50.9	-54.7	0.0
2025-01-23 06:07:33.236456	90.8	51.0	-50.1	0.0
2025-01-23 06:07:34.378429	91.6	51.1	-53.7	0.0
2025-01-23 06:07:35.523380	92.3	51.1	-54.4	0.0
2025-01-23 06:07:36.665338	93.0	51.2	-54.3	0.0
2025-01-23 06:07:37.809291	93.8	51.2	-52.1	0.0
2025-01-23 06:07:38.951250	94.5	51.3	-54.1	0.0
2025-01-23 06:07:40.093207	95.3	51.3	-54.0	0.0
2025-01-23 06:07:41.234675	96.0	51.4	-56.1	0.0
2025-01-23 06:07:42.379626	96.8	51.4	-53.0	0.0
2025-01-23 06:07:43.523578	97.5	51.4	-52.7	0.0
2025-01-23 06:07:44.665049	98.3	51.4	-53.5	0.0
2025-01-23 06:07:45.808004	99.0	51.5	-52.8	0.0
2025-01-23 06:07:46.950959	99.8	51.5	-54.5	0.0
2025-01-23 06:07:48.097905	100.5	51.5	-52.3	0.0
2025-01-23 06:07:49.240370	101.3	51.5	-57.1	0.2
2025-01-23 06:07:50.386318	102.1	51.5	-53.3	0.0
2025-01-23 06:07:51.527278	102.8	51.5	-52.1	0.0
2025-01-23 06:07:52.671231	103.6	51.5	-55.6	0.0
2025-01-23 06:07:53.815692	104.3	51.4	-56.5	0.0
2025-01-23 06:07:54.957650	105.1	51.4	-55.2	0.0
2025-01-23 06:07:56.101602	105.8	51.4	-54.9	0.0
2025-01-23 06:07:57.240568	106.6	51.3	-54.9	0.0
2025-01-23 06:07:58.382526	107.3	51.3	-56.7	0.0
2025-01-23 06:07:59.524484	108.1	51.3	-55.6	0.0
2025-01-23 06:08:00.667440	108.8	51.2	-56.9	0.0
2025-01-23 06:08:01.812391	109.5	51.2	-56.2	0.0
2025-01-23 06:08:02.953352	110.3	51.1	-56.2	0.0
2025-01-23 06:08:04.097811	111.0	51.0	-56.3	0.0
2025-01-23 06:08:05.241764	111.7	51.0	-55.0	0.0
2025-01-23 06:08:06.383231	112.5	50.9	-57.0	0.0
2025-01-23 06:08:07.525190	113.2	50.8	-55.7	0.0
2025-01-23 06:08:08.667147	113.9	50.7	-59.6	2.3
2025-01-23 06:08:09.810618	114.6	50.6	-58.6	2.7
2025-01-23 06:08:10.952088	115.3	50.6	-57.8	0.1
2025-01-23 06:08:12.094552	116.0	50.5	-60.0	5.1
2025-01-23 06:08:13.236509	116.8	50.4	-59.3	4.9
2025-01-23 06:08:14.378468	117.5	50.3	-60.5	6.0
2025-01-23 06:08:15.525412	118.1	50.1	-58.5	3.0
2025-01-23 06:08:16.667878	118.8	50.0	-57.8	2.4
2025-01-23 06:08:17.809347	119.5	49.9	-58.0	1.2
2025-01-23 06:08:18.952302	120.2	49.8	-56.7	0.0
2025-01-23 06:08:20.097253	120.9	49.7	-58.2	2.2
2025-01-23 06:08:21.240208	121.5	49.5	-60.9	7.6
2025-01-23 06:08:22.381169	122.2	49.4	-56.4	1.2
2025-01-23 06:08:23.526120	122.9	49.3	-62.0	8.7
2025-01-23 06:08:24.667588	123.5	49.1	-62.4	8.5
2025-01-23 06:08:25.809546	124.2	49.0	-60.5	4.6
2025-01-23 06:08:26.953501	124.8	48.8	-60.6	4.4
2025-01-23 06:08:28.095963	125.4	48.7	-62.8	9.5
2025-01-23 06:08:29.238920	126.1	48.5	-63.1	9.7
2025-01-23 06:08:30.383381	126.7	48.4	-61.8	9.8
2025-01-23 06:08:31.523853	127.3	48.2	-61.3	4.4
2025-01-23 06:08:32.666809	127.9	48.1	-60.2	5.2
2025-01-23 06:08:33.810761	128.5	47.9	-61.4	4.1
2025-01-23 06:08:34.958704	129.1	47.7	-61.9	7.8
2025-01-23 06:08:36.101659	129.7	47.6	-59.0	1.8
2025-01-23 06:08:37.244615	130.3	47.4	-60.3	3.3
2025-01-23 06:08:38.387081	130.9	47.2	-58.6	0.0
2025-01-23 06:08:39.530041	131.4	47.1	-64.0	10.3
2025-01-23 06:08:40.670999	132.0	46.9	-62.0	10.6
2025-01-23 06:08:41.812468	132.5	46.7	-61.3	6.3
2025-01-23 06:08:42.951940	133.1	46.5	-61.1	2.4
2025-01-23 06:08:44.094897	133.6	46.3	-62.0	5.3
2025-01-23 06:08:45.237361	134.2	46.1	-63.5	11.0
2025-01-23 06:08:46.380317	134.7	46.0	-62.4	7.3
2025-01-23 06:08:47.523273	135.2	45.8	-64.5	10.6
2025-01-23 06:08:48.663749	135.8	45.6	-63.7	8.0
2025-01-23 06:08:49.805708	136.3	45.4	-62.7	6.3
2025-01-23 06:08:50.946668	136.8	45.2	-62.0	4.8
2025-01-23 06:08:52.092615	137.3	45.0	-63.5	7.7
2025-01-23 06:08:53.236079	137.8	44.8	-64.3	7.8
2025-01-23 06:08:54.376548	138.3	44.6	-62.0	5.5
2025-01-23 06:08:55.521501	138.8	44.4	-61.9	5.1
2025-01-23 06:08:56.664501	139.2	44.2	-62.6	5.6
2025-01-23 06:08:57.810402	139.7	44.0	-63.2	5.1
2025-01-23 06:08:58.953358	140.2	43.8	-62.9	4.7
2025-01-23 06:09:00.095316	140.6	43.6	-63.4	5.1
2025-01-23 06:09:01.236277	141.1	43.4	-63.5	4.8
2025-01-23 06:09:02.378745	141.5	43.2	-63.1	3.3
2025-01-23 06:09:03.521700	142.0	43.0	-63.3	4.3
2025-01-23 06:09:04.663660	142.4	42.7	-65.2	7.7
2025-01-23 06:09:05.803132	142.8	42.5	-64.0	5.7
2025-01-23 06:09:06.949079	143.3	42.3	-63.1	1.5
2025-01-23 06:09:08.091040	143.7	42.1	-62.8	2.2
2025-01-23 06:09:09.231509	144.1	41.9	-63.6	6.1
2025-01-23 06:09:10.373467	144.5	41.7	-63.2	6.4
2025-01-23 06:09:11.516430	144.9	41.5	-64.7	7.2
2025-01-23 06:09:12.656895	145.3	41.3	-64.7	9.3
2025-01-23 06:09:13.797856	145.7	41.1	-64.8	8.3
2025-01-23 06:09:14.939814	146.1	40.9	-67.0	10.3
2025-01-23 06:09:16.080284	146.5	40.6	-65.7	8.3
2025-01-23 06:09:17.222242	146.9	40.4	-65.9	8.6
2025-01-23 06:09:18.364201	147.2	40.2	-64.4	6.6
2025-01-23 06:09:19.507158	147.6	40.0	-64.9	6.2
2025-01-23 06:09:20.651110	148.0	39.8	-64.7	5.6
2025-01-23 06:09:21.795082	148.3	39.6	-64.6	6.0
2025-01-23 06:09:22.938019	148.7	39.4	-64.7	6.7
2025-01-23 06:09:24.084474	149.0	39.2	-64.7	5.4
2025-01-23 06:09:25.227429	149.4	38.9	-65.8	6.7
2025-01-23 06:09:26.369387	149.7	38.7	-66.4	7.6
2025-01-23 06:09:27.511345	150.1	38.5	-65.5	5.9
2025-01-23 06:09:28.654301	150.4	38.3	-64.3	5.6
2025-01-23 06:09:29.795262	150.7	38.1	-65.6	6.3
2025-01-23 06:09:30.943206	151.1	37.9	-65.4	6.4
2025-01-23 06:09:32.086161	151.4	37.7	-63.3	2.4
2025-01-23 06:09:33.229116	151.7	37.5	-65.3	7.0
2025-01-23 06:09:34.370583	152.0	37.3	-65.5	8.6
2025-01-23 06:09:35.513052	152.3	37.0	-65.4	7.0
2025-01-23 06:09:36.654011	152.6	36.8	-65.9	8.0
2025-01-23 06:09:37.795990	152.9	36.6	-65.1	8.2
2025-01-23 06:09:38.937948	153.2	36.4	-64.9	7.3
2025-01-23 06:09:40.082898	153.5	36.2	-64.9	8.6
2025-01-23 06:09:41.223370	153.8	36.0	-65.5	8.4
2025-01-23 06:09:42.365327	154.1	35.8	-65.6	9.4
2025-01-23 06:09:43.506288	154.4	35.6	-65.3	8.6
2025-01-23 06:09:44.649244	154.7	35.4	-66.0	11.3
2025-01-23 06:09:45.789208	154.9	35.2	-64.9	7.4
2025-01-23 06:09:46.932163	155.2	35.0	-65.7	10.7
2025-01-23 06:09:48.074630	155.5	34.8	-64.3	9.0
2025-01-23 06:09:49.215590	155.8	34.6	-64.6	9.2
2025-01-23 06:09:50.357075	156.0	34.4	-64.9	9.8
2025-01-23 06:09:51.497540	156.3	34.2	-65.2	9.6
2025-01-23 06:09:52.639498	156.5	34.0	-62.5	4.6
2025-01-23 06:09:53.779462	156.8	33.8	-63.8	10.4
2025-01-23 06:09:54.919951	157.0	33.6	-65.2	8.8
2025-01-23 06:09:56.062907	157.3	33.4	-64.9	11.7
2025-01-23 06:09:57.203868	157.5	33.2	-61.8	3.8
2025-01-23 06:09:58.345844	157.8	33.0	-64.7	10.6
2025-01-23 06:09:59.487802	158.0	32.8	-65.0	9.4
2025-01-23 06:10:00.630758	158.3	32.6	-65.2	9.6
2025-01-23 06:10:01.771227	158.5	32.4	-62.4	4.5
2025-01-23 06:10:02.916177	158.7	32.2	-65.0	9.8
2025-01-23 06:10:04.060130	158.9	32.0	-64.7	9.4
2025-01-23 06:10:05.203593	159.2	31.8	-64.9	7.2
2025-01-23 06:10:06.345550	159.4	31.6	-65.1	9.5
2025-01-23 06:10:07.488506	159.6	31.4	-65.0	3.9
2025-01-23 06:10:08.631479	159.8	31.2	-63.1	7.1
2025-01-23 06:10:09.775432	160.1	31.0	-62.9	0.0
2025-01-23 06:10:10.917390	160.3	30.8	-63.7	9.5
2025-01-23 06:10:12.058434	160.5	30.7	-64.1	9.2
2025-01-23 06:10:13.201390	160.7	30.5	-63.2	7.0
2025-01-23 06:10:14.345353	160.9	30.3	-62.8	0.0
2025-01-23 06:10:15.487301	161.1	30.1	-65.1	5.8
2025-01-23 06:10:16.629260	161.3	29.9	-66.1	0.0
#Closed at: 2025-01-23 06:05:15.802733