passes_logs/2025/01/23/Planum_Noyabrsk/Planum_Noyabrsk__20250123_160205_NOAA_18_rec.log

#Pass ID: 20250123_160205_NOAA 18
#Satellite: NOAA 18
#Configuration: NOAA 18
#Start time: 2025-01-23 16:02:10.755665

#LorettStation: 1.0.0 05.05.2024
#Station: Planum_Noyabrsk
#Location: 75.446886 lon 63.207202 lat
#TLE: 1 28654U 05018A   25022.45378931  .00000449  00000+0  26150-3 0  9993
#TLE: 2 28654  98.8556 103.4338 0014688 158.5214 201.6577 14.13493959 14239

#Time	Az	El	Level	SNR
2025-01-23 16:02:16.961114	135.2	31.1	-61.0	2.4
2025-01-23 16:02:18.107062	135.1	31.4	-62.2	5.0
2025-01-23 16:02:19.249020	135.0	31.6	-63.0	6.3
2025-01-23 16:02:20.390997	134.9	31.8	-60.5	2.3
2025-01-23 16:02:21.532955	134.7	32.0	-62.6	5.1
2025-01-23 16:02:22.674913	134.6	32.2	-61.0	4.9
2025-01-23 16:02:23.816383	134.5	32.4	-61.1	6.6
2025-01-23 16:02:24.959339	134.4	32.7	-60.8	3.7
2025-01-23 16:02:26.100300	134.3	32.9	-59.9	0.3
2025-01-23 16:02:27.243258	134.1	33.1	-61.8	3.2
2025-01-23 16:02:28.384217	134.0	33.3	-59.5	0.0
2025-01-23 16:02:29.529167	133.9	33.6	-58.6	0.0
2025-01-23 16:02:30.675622	133.7	33.8	-61.4	4.1
2025-01-23 16:02:31.816582	133.6	34.0	-59.8	0.4
2025-01-23 16:02:32.958051	133.5	34.3	-60.5	2.4
2025-01-23 16:02:34.099519	133.3	34.5	-62.2	3.1
2025-01-23 16:02:35.240480	133.2	34.7	-60.7	3.4
2025-01-23 16:02:36.382438	133.1	35.0	-62.9	4.8
2025-01-23 16:02:37.523908	132.9	35.2	-58.8	0.0
2025-01-23 16:02:38.667862	132.8	35.5	-60.3	0.0
2025-01-23 16:02:39.811814	132.6	35.7	-63.9	6.7
2025-01-23 16:02:40.953772	132.5	36.0	-62.2	4.7
2025-01-23 16:02:42.096728	132.3	36.2	-60.7	3.5
2025-01-23 16:02:43.240681	132.2	36.4	-57.1	0.0
2025-01-23 16:02:44.382640	132.0	36.7	-59.7	2.5
2025-01-23 16:02:45.523601	131.9	37.0	-61.2	3.7
2025-01-23 16:02:46.665559	131.7	37.2	-62.9	8.9
2025-01-23 16:02:47.811508	131.5	37.5	-58.9	0.0
2025-01-23 16:02:48.954463	131.4	37.7	-59.9	0.1
2025-01-23 16:02:50.098923	131.2	38.0	-59.4	1.9
2025-01-23 16:02:51.241393	131.0	38.2	-60.3	3.3
2025-01-23 16:02:52.382351	130.9	38.5	-56.8	0.0
2025-01-23 16:02:53.524311	130.7	38.8	-57.5	0.0
2025-01-23 16:02:54.666775	130.5	39.0	-59.4	0.0
2025-01-23 16:02:55.811236	130.3	39.3	-57.2	0.0
2025-01-23 16:02:56.953194	130.1	39.6	-58.1	0.2
2025-01-23 16:02:58.095658	129.9	39.8	-57.4	0.0
2025-01-23 16:02:59.236619	129.8	40.1	-59.6	0.4
2025-01-23 16:03:00.377580	129.6	40.4	-61.6	2.3
2025-01-23 16:03:01.521547	129.4	40.6	-61.6	6.8
2025-01-23 16:03:02.662508	129.2	40.9	-61.1	5.0
2025-01-23 16:03:03.805464	129.0	41.2	-59.8	0.7
2025-01-23 16:03:04.954404	128.7	41.5	-58.5	0.2
2025-01-23 16:03:06.097360	128.5	41.8	-59.7	2.6
2025-01-23 16:03:07.239318	128.3	42.1	-57.8	0.0
2025-01-23 16:03:08.380787	128.1	42.3	-60.5	6.4
2025-01-23 16:03:09.522746	127.9	42.6	-59.3	0.0
2025-01-23 16:03:10.664704	127.6	42.9	-59.4	1.1
2025-01-23 16:03:11.808658	127.4	43.2	-58.6	0.0
2025-01-23 16:03:12.950616	127.2	43.5	-59.9	4.1
2025-01-23 16:03:14.091578	126.9	43.8	-61.6	3.3
2025-01-23 16:03:15.233044	126.7	44.1	-61.0	1.9
2025-01-23 16:03:16.377505	126.4	44.4	-57.4	0.0
2025-01-23 16:03:17.521458	126.2	44.7	-60.1	6.0
2025-01-23 16:03:18.662927	125.9	45.0	-61.3	4.6
2025-01-23 16:03:19.804886	125.6	45.3	-58.8	1.3
2025-01-23 16:03:20.946844	125.4	45.6	-60.5	3.3
2025-01-23 16:03:22.088311	125.1	45.9	-57.7	0.0
2025-01-23 16:03:23.229273	124.8	46.2	-58.7	0.3
2025-01-23 16:03:24.370742	124.5	46.5	-57.6	0.0
2025-01-23 16:03:25.513209	124.2	46.8	-58.3	0.0
2025-01-23 16:03:26.654676	123.9	47.1	-59.4	2.7
2025-01-23 16:03:27.796636	123.6	47.4	-57.9	0.0
2025-01-23 16:03:28.936597	123.3	47.7	-58.0	1.0
2025-01-23 16:03:30.078065	123.0	48.1	-60.0	4.3
2025-01-23 16:03:31.218538	122.7	48.4	-60.8	8.4
2025-01-23 16:03:32.360512	122.3	48.7	-61.5	3.4
2025-01-23 16:03:33.502471	122.0	49.0	-59.9	2.9
2025-01-23 16:03:34.643431	121.6	49.3	-60.3	5.4
2025-01-23 16:03:35.784900	121.3	49.7	-58.2	0.0
2025-01-23 16:03:36.925861	120.9	50.0	-58.0	0.0
2025-01-23 16:03:38.067820	120.6	50.3	-60.3	1.2
2025-01-23 16:03:39.208780	120.2	50.6	-61.3	1.4
2025-01-23 16:03:40.350739	119.8	50.9	-59.4	0.0
2025-01-23 16:03:41.497685	119.4	51.3	-61.5	1.2
2025-01-23 16:03:42.638154	119.0	51.6	-61.0	0.0
2025-01-23 16:03:43.781110	118.6	51.9	-58.7	0.0
2025-01-23 16:03:44.926062	118.2	52.3	-62.7	0.2
2025-01-23 16:03:46.067533	117.7	52.6	-60.3	0.0
2025-01-23 16:03:47.210489	117.3	52.9	-60.4	0.0
2025-01-23 16:03:48.351450	116.9	53.2	-61.1	0.0
2025-01-23 16:03:49.494406	116.4	53.6	-60.4	1.1
2025-01-23 16:03:50.634370	115.9	53.9	-62.2	0.0
2025-01-23 16:03:51.776834	115.4	54.2	-57.0	0.0
2025-01-23 16:03:52.918302	114.9	54.6	-61.7	0.0
2025-01-23 16:03:54.059263	114.4	54.9	-64.2	4.5
2025-01-23 16:03:55.200224	113.9	55.2	-57.3	0.0
2025-01-23 16:03:56.342182	113.4	55.5	-60.2	0.0
2025-01-23 16:03:57.485138	112.9	55.9	-61.3	0.0
2025-01-23 16:03:58.630089	112.3	56.2	-57.4	0.0
2025-01-23 16:03:59.772047	111.7	56.5	-57.9	0.0
2025-01-23 16:04:00.921985	111.1	56.9	-60.9	0.0
2025-01-23 16:04:02.064940	110.5	57.2	-61.8	0.0
2025-01-23 16:04:03.205901	109.9	57.5	-61.4	0.0
2025-01-23 16:04:04.347860	109.3	57.8	-55.1	0.0
2025-01-23 16:04:05.494805	108.7	58.2	-56.3	0.0
2025-01-23 16:04:06.637761	108.0	58.5	-59.5	0.0
2025-01-23 16:04:07.778722	107.3	58.8	-54.1	0.0
2025-01-23 16:04:08.924670	106.7	59.1	-58.0	0.0
2025-01-23 16:04:10.065631	106.0	59.4	-58.5	0.0
2025-01-23 16:04:11.208587	105.2	59.7	-57.3	0.0
2025-01-23 16:04:12.351543	104.5	60.0	-55.5	0.0
2025-01-23 16:04:13.494011	103.7	60.3	-55.3	0.0
2025-01-23 16:04:14.640467	103.0	60.6	-56.2	0.0
2025-01-23 16:04:15.782426	102.2	60.9	-59.1	0.0
2025-01-23 16:04:16.928884	101.3	61.2	-58.1	0.0
2025-01-23 16:04:18.071838	100.5	61.5	-59.6	0.0
2025-01-23 16:04:19.214794	99.7	61.8	-55.5	0.0
2025-01-23 16:04:20.355754	98.8	62.1	-57.7	0.0
2025-01-23 16:04:21.497713	97.9	62.4	-59.0	2.6
2025-01-23 16:04:22.638675	97.0	62.6	-58.5	1.8
2025-01-23 16:04:23.782627	96.0	62.9	-57.3	1.5
2025-01-23 16:04:24.925583	95.1	63.2	-56.8	0.0
2025-01-23 16:04:26.067542	94.1	63.4	-58.5	4.1
2025-01-23 16:04:27.208502	93.1	63.7	-58.4	0.0
2025-01-23 16:04:28.347980	92.1	63.9	-57.0	1.1
2025-01-23 16:04:29.490936	91.1	64.2	-58.6	0.0
2025-01-23 16:04:30.631897	90.0	64.4	-59.7	3.2
2025-01-23 16:04:31.773364	88.9	64.6	-58.6	0.0
2025-01-23 16:04:32.915322	87.8	64.8	-58.5	0.0
2025-01-23 16:04:34.058278	86.7	65.0	-59.5	0.0
2025-01-23 16:04:35.203229	85.5	65.2	-58.2	0.0
2025-01-23 16:04:36.344190	84.4	65.4	-58.4	0.0
2025-01-23 16:04:37.487146	83.2	65.6	-58.3	0.0
2025-01-23 16:04:38.629104	82.0	65.8	-54.9	0.0
2025-01-23 16:04:39.771063	80.8	65.9	-59.1	0.5
2025-01-23 16:04:40.915016	79.5	66.1	-61.1	3.4
2025-01-23 16:04:42.056990	78.3	66.2	-55.7	0.0
2025-01-23 16:04:43.198948	77.0	66.4	-60.0	0.8
2025-01-23 16:04:44.339909	75.7	66.5	-57.5	0.0
2025-01-23 16:04:45.480871	74.4	66.6	-61.3	3.2
2025-01-23 16:04:46.622828	73.1	66.7	-58.8	0.0
2025-01-23 16:04:47.764787	71.8	66.8	-59.4	0.0
2025-01-23 16:04:48.905257	70.4	66.9	-58.2	0.0
2025-01-23 16:04:50.047216	69.1	66.9	-61.4	1.9
2025-01-23 16:04:51.192167	67.7	67.0	-60.0	2.5
2025-01-23 16:04:52.336119	66.4	67.0	-58.8	0.0
2025-01-23 16:04:53.478078	65.0	67.0	-60.7	0.0
2025-01-23 16:04:54.620037	63.6	67.1	-60.7	1.4
2025-01-23 16:04:55.761504	62.3	67.1	-59.7	0.0
2025-01-23 16:04:56.903464	60.9	67.1	-61.5	2.2
2025-01-23 16:04:58.046418	59.5	67.0	-60.7	1.7
2025-01-23 16:04:59.188892	58.2	67.0	-59.8	0.0
2025-01-23 16:05:00.331847	56.8	67.0	-60.1	0.9
2025-01-23 16:05:01.473806	55.5	66.9	-60.1	3.9
2025-01-23 16:05:02.617269	54.1	66.8	-60.1	2.1
2025-01-23 16:05:03.758736	52.8	66.8	-61.8	0.0
2025-01-23 16:05:04.899697	51.5	66.7	-61.7	0.0
2025-01-23 16:05:06.044157	50.2	66.6	-60.4	0.2
2025-01-23 16:05:07.186116	48.9	66.5	-59.4	2.1
2025-01-23 16:05:08.328588	47.6	66.3	-61.5	2.5
2025-01-23 16:05:09.469067	46.3	66.2	-62.3	4.0
2025-01-23 16:05:10.610028	45.0	66.1	-60.9	5.3
2025-01-23 16:05:11.751495	43.8	65.9	-60.5	1.9
2025-01-23 16:05:12.899944	42.6	65.8	-62.0	2.2
2025-01-23 16:05:14.042900	41.4	65.6	-59.6	0.0
2025-01-23 16:05:15.184858	40.2	65.4	-63.1	4.7
2025-01-23 16:05:16.325332	39.0	65.2	-60.5	0.0
2025-01-23 16:05:17.466799	37.9	65.0	-62.4	1.9
2025-01-23 16:05:18.609755	36.8	64.8	-63.2	2.2
2025-01-23 16:05:19.751222	35.7	64.6	-62.3	2.1
2025-01-23 16:05:20.893180	34.6	64.4	-63.0	4.4
2025-01-23 16:05:22.035139	33.5	64.1	-62.6	3.9
2025-01-23 16:05:23.176100	32.5	63.9	-63.3	4.6
2025-01-23 16:05:24.320560	31.5	63.7	-62.5	3.6
2025-01-23 16:05:25.463515	30.5	63.4	-62.4	3.8
2025-01-23 16:05:26.604985	29.5	63.2	-61.3	1.6
2025-01-23 16:05:27.746944	28.6	62.9	-62.6	4.0
2025-01-23 16:05:28.889899	27.6	62.6	-61.6	1.3
2025-01-23 16:05:30.031367	26.7	62.3	-63.6	5.6
2025-01-23 16:05:31.175320	25.8	62.1	-61.8	1.9
2025-01-23 16:05:32.318275	25.0	61.8	-60.8	0.0
2025-01-23 16:05:33.459743	24.1	61.5	-61.3	2.9
2025-01-23 16:05:34.601701	23.3	61.2	-62.0	1.8
2025-01-23 16:05:35.744657	22.5	60.9	-63.0	4.1
2025-01-23 16:05:36.887613	21.7	60.6	-62.2	5.0
2025-01-23 16:05:38.029572	20.9	60.3	-62.5	4.6
2025-01-23 16:05:39.170533	20.1	60.0	-62.3	2.1
2025-01-23 16:05:40.314014	19.4	59.7	-60.5	2.0
2025-01-23 16:05:41.454975	18.7	59.4	-61.2	2.8
2025-01-23 16:05:42.597932	18.0	59.1	-61.6	2.3
2025-01-23 16:05:43.740888	17.3	58.8	-61.6	2.6
2025-01-23 16:05:44.882357	16.6	58.4	-62.2	4.7
2025-01-23 16:05:46.025312	16.0	58.1	-61.5	2.3
2025-01-23 16:05:47.168777	15.3	57.8	-61.9	2.5
2025-01-23 16:05:48.311732	14.7	57.5	-62.0	3.3
2025-01-23 16:05:49.453692	14.1	57.2	-62.7	3.6
2025-01-23 16:05:50.594652	13.5	56.8	-60.3	1.3
2025-01-23 16:05:51.738126	12.9	56.5	-62.1	4.4
2025-01-23 16:05:52.880084	12.4	56.2	-61.1	2.7
2025-01-23 16:05:54.026540	11.8	55.8	-64.3	6.2
2025-01-23 16:05:55.168498	11.3	55.5	-61.2	2.1
2025-01-23 16:05:56.308462	10.7	55.2	-60.8	3.4
2025-01-23 16:05:57.450421	10.2	54.9	-62.6	6.7
2025-01-23 16:05:58.592379	9.7	54.5	-61.2	3.5
2025-01-23 16:05:59.733340	9.2	54.2	-62.3	5.6
2025-01-23 16:06:00.875317	8.7	53.9	-62.7	5.4
2025-01-23 16:06:02.021770	8.3	53.5	-61.8	4.7
2025-01-23 16:06:03.163729	7.8	53.2	-63.3	7.7
2025-01-23 16:06:04.306685	7.4	52.9	-61.5	6.3
2025-01-23 16:06:05.449641	6.9	52.6	-61.4	5.8
2025-01-23 16:06:06.592596	6.5	52.2	-63.4	9.0
2025-01-23 16:06:07.733557	6.1	51.9	-60.9	4.3
2025-01-23 16:06:08.875515	5.7	51.6	-59.6	1.5
2025-01-23 16:06:10.016477	5.3	51.2	-61.8	4.7
2025-01-23 16:06:11.159432	4.9	50.9	-62.6	6.1
2025-01-23 16:06:12.300394	4.5	50.6	-63.1	5.9
2025-01-23 16:06:13.441355	4.1	50.3	-62.1	5.7
2025-01-23 16:06:14.583820	3.7	49.9	-60.3	2.1
2025-01-23 16:06:15.724781	3.4	49.6	-61.6	5.9
2025-01-23 16:06:16.867737	3.0	49.3	-61.9	5.2
2025-01-23 16:06:18.008698	2.7	49.0	-62.7	8.2
2025-01-23 16:06:19.152653	2.3	48.7	-61.3	4.7
2025-01-23 16:06:20.294610	2.0	48.3	-60.7	2.6
2025-01-23 16:06:21.436590	1.7	48.0	-62.6	7.4
2025-01-23 16:06:22.576553	1.4	47.7	-61.9	7.7
2025-01-23 16:06:23.719509	1.1	47.4	-62.6	7.2
2025-01-23 16:06:24.859979	0.8	47.1	-63.1	7.1
2025-01-23 16:06:26.001938	0.5	46.8	-63.5	10.6
2025-01-23 16:06:27.144403	0.2	46.5	-63.2	8.5
2025-01-23 16:06:28.285365	359.9	46.2	-61.0	6.8
2025-01-23 16:06:29.432310	359.6	45.9	-61.9	5.4
2025-01-23 16:06:30.573270	359.3	45.6	-63.2	10.5
2025-01-23 16:06:31.715229	359.0	45.2	-61.8	6.4
2025-01-23 16:06:32.858185	358.8	44.9	-61.6	7.6
2025-01-23 16:06:33.999651	358.5	44.6	-63.4	9.7
2025-01-23 16:06:35.143115	358.3	44.3	-61.5	6.6
2025-01-23 16:06:36.284075	358.0	44.1	-61.6	7.0
2025-01-23 16:06:37.430534	357.8	43.8	-61.0	6.8
2025-01-23 16:06:38.573489	357.5	43.5	-62.0	9.0
2025-01-23 16:06:39.714450	357.3	43.2	-62.3	7.7
2025-01-23 16:06:40.852926	357.1	42.9	-62.9	7.7
2025-01-23 16:06:41.996391	356.8	42.6	-63.1	11.1
2025-01-23 16:06:43.139347	356.6	42.3	-62.6	6.6
2025-01-23 16:06:44.280308	356.4	42.0	-62.4	8.1
2025-01-23 16:06:45.421783	356.2	41.7	-64.0	12.3
2025-01-23 16:06:46.562744	356.0	41.5	-63.7	8.3
2025-01-23 16:06:47.704703	355.7	41.2	-63.9	8.9
2025-01-23 16:06:48.846661	355.5	40.9	-63.8	8.7
2025-01-23 16:06:49.989617	355.3	40.6	-62.5	8.6
2025-01-23 16:06:51.130578	355.1	40.3	-62.7	6.0
2025-01-23 16:06:52.275528	354.9	40.1	-62.8	6.6
2025-01-23 16:06:53.417487	354.8	39.8	-63.1	5.3
2025-01-23 16:06:54.559953	354.6	39.5	-63.1	7.0
2025-01-23 16:06:55.700425	354.4	39.3	-62.2	5.3
2025-01-23 16:06:56.846886	354.2	39.0	-62.6	8.2
2025-01-23 16:06:57.993834	354.0	38.7	-62.9	6.5
2025-01-23 16:06:59.134311	353.8	38.5	-61.4	4.2
2025-01-23 16:07:00.276270	353.7	38.2	-62.5	6.7
2025-01-23 16:07:01.417231	353.5	37.9	-62.4	5.1
2025-01-23 16:07:02.560695	353.3	37.7	-63.2	6.6
2025-01-23 16:07:03.701656	353.2	37.4	-62.2	5.6
2025-01-23 16:07:04.843123	353.0	37.2	-62.0	4.6
2025-01-23 16:07:05.985081	352.8	36.9	-62.6	5.0
2025-01-23 16:07:07.125045	352.7	36.7	-63.2	8.1
2025-01-23 16:07:08.268001	352.5	36.4	-61.5	4.8
2025-01-23 16:07:09.410467	352.4	36.2	-62.5	7.6
2025-01-23 16:07:10.553424	352.2	35.9	-62.9	7.1
2025-01-23 16:07:11.695381	352.1	35.7	-63.8	8.0
2025-01-23 16:07:12.838337	351.9	35.4	-61.8	4.1
2025-01-23 16:07:13.978811	351.8	35.2	-61.8	3.1
2025-01-23 16:07:15.123761	351.6	35.0	-61.8	4.5
2025-01-23 16:07:16.265720	351.5	34.7	-60.8	2.6
2025-01-23 16:07:17.415656	351.4	34.5	-61.4	3.1
2025-01-23 16:07:18.559610	351.2	34.2	-61.5	2.5
2025-01-23 16:07:19.701568	351.1	34.0	-61.1	4.5
2025-01-23 16:07:20.847516	351.0	33.8	-61.6	1.2
2025-01-23 16:07:21.990472	350.8	33.5	-62.0	1.0
2025-01-23 16:07:23.131433	350.7	33.3	-59.5	0.0
2025-01-23 16:07:24.273391	350.6	33.1	-59.2	0.0
2025-01-23 16:07:25.415349	350.5	32.9	-59.1	0.0
2025-01-23 16:07:26.556311	350.3	32.6	-57.8	0.0
2025-01-23 16:07:27.698269	350.2	32.4	-59.0	0.0
2025-01-23 16:07:28.840228	350.1	32.2	-59.0	0.0
2025-01-23 16:07:29.984689	350.0	32.0	-59.2	0.6
2025-01-23 16:07:31.126647	349.9	31.8	-58.5	0.0
2025-01-23 16:07:32.269603	349.7	31.5	-58.0	0.0
2025-01-23 16:07:33.411070	349.6	31.3	-60.1	0.0
2025-01-23 16:07:34.553029	349.5	31.1	-59.3	0.0
2025-01-23 16:07:35.694987	349.4	30.9	-59.4	0.0
2025-01-23 16:07:36.836946	349.3	30.7	-60.2	0.0
2025-01-23 16:07:37.979902	349.2	30.5	-59.5	0.8
2025-01-23 16:07:39.122857	349.1	30.3	-61.8	0.8
2025-01-23 16:07:40.265322	349.0	30.1	-62.3	0.0
#Closed at: 2025-01-23 16:02:05.760444