passes_logs/2025/01/23/Planum_Noyabrsk/Planum_Noyabrsk__20250123_074602_NOAA_18_rec.log

#Pass ID: 20250123_074602_NOAA 18
#Satellite: NOAA 18
#Configuration: NOAA 18
#Start time: 2025-01-23 07:46:07.813806

#LorettStation: 1.0.0 05.05.2024
#Station: Planum_Noyabrsk
#Location: 75.446886 lon 63.207202 lat
#TLE: 1 28654U 05018A   25022.45378931  .00000449  00000+0  26150-3 0  9993
#TLE: 2 28654  98.8556 103.4338 0014688 158.5214 201.6577 14.13493959 14239

#Time	Az	El	Level	SNR
2025-01-23 07:46:14.036697	0.0	31.0	-62.9	6.8
2025-01-23 07:46:15.187745	359.8	31.2	-62.8	7.0
2025-01-23 07:46:16.339790	359.6	31.4	-62.8	6.1
2025-01-23 07:46:17.490838	359.3	31.6	-63.2	7.1
2025-01-23 07:46:18.642883	359.1	31.8	-63.3	6.0
2025-01-23 07:46:19.792934	358.9	32.0	-62.6	4.4
2025-01-23 07:46:20.947971	358.7	32.1	-64.2	7.8
2025-01-23 07:46:22.102011	358.4	32.3	-64.0	6.8
2025-01-23 07:46:23.254057	358.2	32.5	-63.2	6.6
2025-01-23 07:46:24.408098	358.0	32.7	-62.4	4.6
2025-01-23 07:46:25.561657	357.7	32.9	-62.7	5.5
2025-01-23 07:46:26.716687	357.5	33.1	-62.5	6.9
2025-01-23 07:46:27.871726	357.2	33.3	-62.9	6.5
2025-01-23 07:46:29.023770	357.0	33.5	-62.8	5.3
2025-01-23 07:46:30.177811	356.7	33.7	-61.4	5.1
2025-01-23 07:46:31.330854	356.4	33.9	-61.1	3.8
2025-01-23 07:46:32.483896	356.2	34.1	-62.5	5.5
2025-01-23 07:46:33.635942	355.9	34.3	-62.1	5.0
2025-01-23 07:46:34.788985	355.7	34.5	-63.0	5.3
2025-01-23 07:46:35.942027	355.4	34.7	-62.1	4.3
2025-01-23 07:46:37.095577	355.1	34.9	-62.3	4.9
2025-01-23 07:46:38.248620	354.8	35.1	-62.0	3.9
2025-01-23 07:46:39.402660	354.6	35.3	-62.2	2.7
2025-01-23 07:46:40.554706	354.3	35.5	-62.7	4.2
2025-01-23 07:46:41.709743	354.0	35.7	-61.9	3.5
2025-01-23 07:46:42.861788	353.7	35.9	-62.4	4.3
2025-01-23 07:46:44.014831	353.4	36.1	-61.4	3.2
2025-01-23 07:46:45.166877	353.1	36.3	-59.4	1.8
2025-01-23 07:46:46.320916	352.8	36.5	-59.7	0.3
2025-01-23 07:46:47.474478	352.5	36.7	-60.1	4.4
2025-01-23 07:46:48.627510	352.2	36.9	-61.2	2.6
2025-01-23 07:46:49.780553	351.9	37.1	-62.6	5.8
2025-01-23 07:46:50.933106	351.5	37.4	-60.7	1.7
2025-01-23 07:46:52.090650	351.2	37.6	-60.4	2.8
2025-01-23 07:46:53.244690	350.9	37.8	-60.8	1.7
2025-01-23 07:46:54.397733	350.5	38.0	-60.3	1.6
2025-01-23 07:46:55.549798	350.2	38.2	-59.7	1.4
2025-01-23 07:46:56.710820	349.9	38.4	-59.9	0.9
2025-01-23 07:46:57.863864	349.5	38.6	-60.0	0.1
2025-01-23 07:46:59.016906	349.2	38.8	-59.8	0.0
2025-01-23 07:47:00.170946	348.8	39.0	-58.5	0.0
2025-01-23 07:47:01.322991	348.5	39.2	-58.3	0.0
2025-01-23 07:47:02.478029	348.1	39.4	-59.2	0.0
2025-01-23 07:47:03.630075	347.7	39.6	-59.8	0.8
2025-01-23 07:47:04.790099	347.4	39.8	-59.6	0.0
2025-01-23 07:47:05.943650	347.0	40.0	-59.8	0.8
2025-01-23 07:47:07.095696	346.6	40.2	-58.3	0.0
2025-01-23 07:47:08.250733	346.2	40.5	-58.9	0.7
2025-01-23 07:47:09.404773	345.8	40.7	-60.1	1.8
2025-01-23 07:47:10.559811	345.4	40.9	-59.3	1.2
2025-01-23 07:47:11.716355	345.0	41.1	-58.8	0.0
2025-01-23 07:47:12.868400	344.6	41.3	-59.4	3.1
2025-01-23 07:47:14.021954	344.2	41.5	-58.5	0.0
2025-01-23 07:47:15.173510	343.8	41.7	-56.9	0.0
2025-01-23 07:47:16.326552	343.4	41.9	-57.7	0.0
2025-01-23 07:47:17.477602	342.9	42.1	-57.8	0.0
2025-01-23 07:47:18.631640	342.5	42.3	-57.9	0.0
2025-01-23 07:47:19.785680	342.1	42.5	-57.9	0.0
2025-01-23 07:47:20.939721	341.6	42.7	-58.1	0.0
2025-01-23 07:47:22.094759	341.2	42.9	-59.2	2.0
2025-01-23 07:47:23.247322	340.7	43.1	-58.6	0.0
2025-01-23 07:47:24.402365	340.2	43.3	-59.5	0.0
2025-01-23 07:47:25.554405	339.8	43.5	-58.8	0.4
2025-01-23 07:47:26.707448	339.3	43.7	-57.7	0.0
2025-01-23 07:47:27.862485	338.8	43.9	-58.0	0.0
2025-01-23 07:47:29.021514	338.3	44.1	-57.2	0.0
2025-01-23 07:47:30.173559	337.8	44.2	-56.3	0.0
2025-01-23 07:47:31.327599	337.3	44.4	-56.7	0.0
2025-01-23 07:47:32.479644	336.8	44.6	-56.4	0.0
2025-01-23 07:47:33.633685	336.3	44.8	-55.7	0.0
2025-01-23 07:47:34.785730	335.8	45.0	-59.2	1.5
2025-01-23 07:47:35.937287	335.3	45.2	-59.0	0.0
2025-01-23 07:47:37.093832	334.8	45.4	-59.0	0.0
2025-01-23 07:47:38.245875	334.2	45.5	-58.7	0.0
2025-01-23 07:47:39.399916	333.7	45.7	-57.5	0.0
2025-01-23 07:47:40.551961	333.1	45.9	-59.1	1.0
2025-01-23 07:47:41.709990	332.6	46.1	-57.8	0.0
2025-01-23 07:47:42.865029	332.0	46.2	-57.9	0.0
2025-01-23 07:47:44.017073	331.5	46.4	-58.6	2.1
2025-01-23 07:47:45.171113	330.9	46.6	-57.8	0.3
2025-01-23 07:47:46.324665	330.3	46.7	-58.5	1.2
2025-01-23 07:47:47.477708	329.7	46.9	-57.1	0.0
2025-01-23 07:47:48.627758	329.2	47.0	-58.2	0.1
2025-01-23 07:47:49.777319	328.6	47.2	-60.6	5.3
2025-01-23 07:47:50.934351	328.0	47.3	-60.9	4.2
2025-01-23 07:47:52.080432	327.4	47.5	-60.0	2.8
2025-01-23 07:47:53.227490	326.7	47.6	-60.2	3.1
2025-01-23 07:47:54.374059	326.1	47.8	-60.2	3.3
2025-01-23 07:47:55.521117	325.5	47.9	-60.4	2.5
2025-01-23 07:47:56.667178	324.9	48.1	-59.9	3.8
2025-01-23 07:47:57.815233	324.3	48.2	-59.5	0.7
2025-01-23 07:47:58.964286	323.6	48.3	-58.3	0.0
2025-01-23 07:48:00.108353	323.0	48.4	-60.6	3.9
2025-01-23 07:48:01.254412	322.3	48.6	-60.2	4.6
2025-01-23 07:48:02.401977	321.7	48.7	-59.8	3.8
2025-01-23 07:48:03.548039	321.0	48.8	-59.7	1.7
2025-01-23 07:48:04.692614	320.4	48.9	-61.5	4.2
2025-01-23 07:48:05.837676	319.7	49.0	-61.4	6.1
2025-01-23 07:48:06.983737	319.0	49.1	-61.7	3.5
2025-01-23 07:48:08.126806	318.4	49.2	-62.0	5.0
2025-01-23 07:48:09.275859	317.7	49.3	-61.2	1.5
2025-01-23 07:48:10.421919	317.0	49.4	-62.3	6.1
2025-01-23 07:48:11.564987	316.3	49.5	-63.5	4.1
2025-01-23 07:48:12.714548	315.6	49.6	-63.4	7.8
2025-01-23 07:48:13.859611	314.9	49.6	-63.1	4.9
2025-01-23 07:48:15.006670	314.2	49.7	-61.8	5.5
2025-01-23 07:48:16.149737	313.5	49.8	-62.7	6.7
2025-01-23 07:48:17.294801	312.8	49.8	-60.9	4.7
2025-01-23 07:48:18.441371	312.1	49.9	-59.9	5.7
2025-01-23 07:48:19.586439	311.4	50.0	-62.7	8.1
2025-01-23 07:48:20.732494	310.7	50.0	-61.6	6.2
2025-01-23 07:48:21.882054	310.0	50.1	-62.0	5.4
2025-01-23 07:48:23.025124	309.3	50.1	-61.4	4.3
2025-01-23 07:48:24.169189	308.6	50.1	-62.1	2.8
2025-01-23 07:48:25.319239	307.8	50.2	-62.7	5.7
2025-01-23 07:48:26.464302	307.1	50.2	-64.0	9.2
2025-01-23 07:48:27.615354	306.4	50.2	-62.7	7.1
2025-01-23 07:48:28.759927	305.7	50.2	-62.7	7.6
2025-01-23 07:48:29.903992	304.9	50.2	-61.6	6.4
2025-01-23 07:48:31.057035	304.2	50.2	-63.8	8.2
2025-01-23 07:48:32.201101	303.5	50.2	-60.0	3.8
2025-01-23 07:48:33.347161	302.8	50.2	-60.1	5.1
2025-01-23 07:48:34.495217	302.0	50.2	-61.5	4.6
2025-01-23 07:48:35.637288	301.3	50.2	-63.6	10.3
2025-01-23 07:48:36.780378	300.6	50.2	-63.1	8.1
2025-01-23 07:48:37.925950	299.9	50.2	-63.6	7.8
2025-01-23 07:48:39.071036	299.1	50.2	-63.4	6.7
2025-01-23 07:48:40.214104	298.4	50.1	-63.3	7.7
2025-01-23 07:48:41.356175	297.7	50.1	-63.9	7.4
2025-01-23 07:48:42.501238	297.0	50.0	-64.3	8.7
2025-01-23 07:48:43.646816	296.3	50.0	-62.8	6.6
2025-01-23 07:48:44.791879	295.6	50.0	-63.5	6.9
2025-01-23 07:48:45.935945	294.9	49.9	-62.5	3.9
2025-01-23 07:48:47.079013	294.2	49.8	-61.8	3.7
2025-01-23 07:48:48.225073	293.4	49.8	-62.2	4.4
2025-01-23 07:48:49.369140	292.7	49.7	-61.8	2.4
2025-01-23 07:48:50.513205	292.1	49.6	-63.9	8.3
2025-01-23 07:48:51.656275	291.4	49.6	-64.6	7.5
2025-01-23 07:48:52.802335	290.7	49.5	-65.6	10.0
2025-01-23 07:48:53.944405	290.0	49.4	-65.4	8.5
2025-01-23 07:48:55.086476	289.3	49.3	-64.9	9.0
2025-01-23 07:48:56.232538	288.6	49.2	-65.3	10.2
2025-01-23 07:48:57.381103	287.9	49.1	-65.8	9.5
2025-01-23 07:48:58.526166	287.3	49.0	-65.5	8.5
2025-01-23 07:48:59.669234	286.6	48.9	-65.5	8.1
2025-01-23 07:49:00.813300	285.9	48.8	-66.2	9.5
2025-01-23 07:49:01.958363	285.3	48.7	-65.1	6.6
2025-01-23 07:49:03.103936	284.6	48.5	-64.0	6.5
2025-01-23 07:49:04.248000	284.0	48.4	-63.7	6.9
2025-01-23 07:49:05.393064	283.4	48.3	-65.9	10.7
2025-01-23 07:49:06.535135	282.7	48.2	-66.1	8.1
2025-01-23 07:49:07.680198	282.1	48.0	-65.7	8.8
2025-01-23 07:49:08.822269	281.5	47.9	-65.5	8.7
2025-01-23 07:49:09.965337	280.8	47.8	-65.7	8.0
2025-01-23 07:49:11.110401	280.2	47.6	-65.8	8.9
2025-01-23 07:49:12.254466	279.6	47.5	-66.2	8.9
2025-01-23 07:49:13.398042	279.0	47.3	-65.8	7.7
2025-01-23 07:49:14.542108	278.4	47.2	-66.0	9.4
2025-01-23 07:49:15.686173	277.8	47.0	-64.5	7.5
2025-01-23 07:49:16.833231	277.3	46.9	-63.1	5.2
2025-01-23 07:49:17.977297	276.7	46.7	-62.8	5.0
2025-01-23 07:49:19.122361	276.1	46.5	-63.2	5.7
2025-01-23 07:49:20.271414	275.5	46.4	-65.3	9.2
2025-01-23 07:49:21.415479	275.0	46.2	-64.9	8.6
2025-01-23 07:49:22.560542	274.4	46.0	-64.8	9.3
2025-01-23 07:49:23.705606	273.9	45.9	-65.8	10.2
2025-01-23 07:49:24.849671	273.3	45.7	-65.1	11.6
2025-01-23 07:49:25.995753	272.8	45.5	-64.2	8.9
2025-01-23 07:49:27.143809	272.2	45.3	-64.1	8.4
2025-01-23 07:49:28.289869	271.7	45.2	-64.0	9.7
2025-01-23 07:49:29.435439	271.2	45.0	-65.5	10.1
2025-01-23 07:49:30.579505	270.7	44.8	-64.8	10.1
2025-01-23 07:49:31.726582	270.2	44.6	-64.3	8.9
2025-01-23 07:49:32.873133	269.7	44.4	-62.8	5.5
2025-01-23 07:49:34.019192	269.2	44.2	-61.9	3.4
2025-01-23 07:49:35.167248	268.7	44.0	-62.1	5.2
2025-01-23 07:49:36.314306	268.2	43.9	-64.3	9.3
2025-01-23 07:49:37.459368	267.7	43.7	-64.4	8.8
2025-01-23 07:49:38.611414	267.3	43.5	-64.7	10.3
2025-01-23 07:49:39.759469	266.8	43.3	-65.4	12.2
2025-01-23 07:49:40.906527	266.3	43.1	-65.5	11.3
2025-01-23 07:49:42.054094	265.9	42.9	-65.1	10.7
2025-01-23 07:49:43.201152	265.4	42.7	-65.4	9.7
2025-01-23 07:49:44.347213	265.0	42.5	-65.2	9.8
2025-01-23 07:49:45.502250	264.5	42.3	-65.7	10.1
2025-01-23 07:49:46.649308	264.1	42.1	-65.5	11.0
2025-01-23 07:49:47.800356	263.7	41.9	-62.6	4.6
2025-01-23 07:49:48.949409	263.2	41.7	-62.9	6.6
2025-01-23 07:49:50.100457	262.8	41.5	-65.9	12.5
2025-01-23 07:49:51.248531	262.4	41.3	-65.6	10.5
2025-01-23 07:49:52.398581	262.0	41.1	-66.5	12.3
2025-01-23 07:49:53.547146	261.6	40.9	-65.9	9.0
2025-01-23 07:49:54.694205	261.2	40.6	-66.7	11.9
2025-01-23 07:49:55.844255	260.8	40.4	-66.1	11.9
2025-01-23 07:49:56.993309	260.4	40.2	-66.6	12.3
2025-01-23 07:49:58.141363	260.0	40.0	-66.7	12.5
2025-01-23 07:49:59.289419	259.7	39.8	-65.1	10.7
2025-01-23 07:50:00.440467	259.3	39.6	-65.8	10.8
2025-01-23 07:50:01.589520	258.9	39.4	-66.2	10.9
2025-01-23 07:50:02.740078	258.5	39.2	-63.7	8.0
2025-01-23 07:50:03.890129	258.2	39.0	-64.3	6.6
2025-01-23 07:50:05.041177	257.8	38.8	-64.9	8.0
2025-01-23 07:50:06.189741	257.5	38.6	-66.1	9.4
2025-01-23 07:50:07.340789	257.1	38.4	-67.6	11.4
2025-01-23 07:50:08.490350	256.8	38.2	-67.1	12.1
2025-01-23 07:50:09.638405	256.5	38.0	-67.2	12.0
2025-01-23 07:50:10.787967	256.1	37.7	-67.2	12.3
2025-01-23 07:50:11.942008	255.8	37.5	-67.3	12.0
2025-01-23 07:50:13.093055	255.5	37.3	-67.5	11.5
2025-01-23 07:50:14.246097	255.1	37.1	-67.7	11.2
2025-01-23 07:50:15.397146	254.8	36.9	-67.4	10.8
2025-01-23 07:50:16.550189	254.5	36.7	-67.6	10.9
2025-01-23 07:50:17.702234	254.2	36.5	-65.6	7.3
2025-01-23 07:50:18.854279	253.9	36.3	-65.9	7.6
2025-01-23 07:50:20.007341	253.6	36.1	-67.1	10.1
2025-01-23 07:50:21.159386	253.3	35.9	-67.1	10.4
2025-01-23 07:50:22.311432	253.0	35.7	-67.5	10.7
2025-01-23 07:50:23.462987	252.7	35.5	-66.9	10.4
2025-01-23 07:50:24.613546	252.4	35.3	-66.3	9.2
2025-01-23 07:50:25.770089	252.1	35.1	-67.0	11.4
2025-01-23 07:50:26.923641	251.9	34.9	-67.1	11.9
2025-01-23 07:50:28.071696	251.6	34.7	-66.8	11.0
2025-01-23 07:50:29.229726	251.3	34.5	-66.9	10.3
2025-01-23 07:50:30.378294	251.0	34.3	-66.1	9.1
2025-01-23 07:50:31.528364	250.8	34.1	-66.7	10.0
2025-01-23 07:50:32.681407	250.5	33.9	-66.3	11.8
2025-01-23 07:50:33.835448	250.3	33.7	-66.0	9.7
2025-01-23 07:50:34.987492	250.0	33.5	-66.2	10.2
2025-01-23 07:50:36.140536	249.7	33.3	-66.7	12.3
2025-01-23 07:50:37.292599	249.5	33.1	-65.8	9.7
2025-01-23 07:50:38.444163	249.3	32.9	-65.6	9.0
2025-01-23 07:50:39.597206	249.0	32.7	-66.4	10.5
2025-01-23 07:50:40.751246	248.8	32.5	-66.3	11.3
2025-01-23 07:50:41.904289	248.5	32.3	-66.8	11.3
2025-01-23 07:50:43.056334	248.3	32.1	-66.5	9.9
2025-01-23 07:50:44.209377	248.1	31.9	-66.3	9.6
2025-01-23 07:50:45.364415	247.8	31.7	-66.6	10.3
2025-01-23 07:50:46.517456	247.6	31.5	-66.7	10.5
2025-01-23 07:50:47.671497	247.4	31.3	-65.6	8.5
2025-01-23 07:50:48.826535	247.2	31.1	-65.2	8.4
2025-01-23 07:50:49.980088	246.9	30.9	-66.2	9.9
2025-01-23 07:50:51.134127	246.7	30.7	-66.5	9.9
2025-01-23 07:50:52.284185	246.5	30.6	-66.1	9.7
2025-01-23 07:50:53.437222	246.3	30.4	-65.7	8.4
2025-01-23 07:50:54.589266	246.1	30.2	-68.1	5.0
2025-01-23 07:50:55.743307	245.9	30.0	-67.1	0.0
#Closed at: 2025-01-23 07:46:02.818473