passes_logs/2025/01/23/Planum_Noyabrsk/Planum_Noyabrsk__20250123_153844_NOAA_19_rec.log

#Pass ID: 20250123_153844_NOAA 19
#Satellite: NOAA 19
#Configuration: NOAA 19
#Start time: 2025-01-23 15:38:49.537014

#LorettStation: 1.0.0 05.05.2024
#Station: Planum_Noyabrsk
#Location: 75.446886 lon 63.207202 lat
#TLE: 1 33591U 09005A   25022.43784372  .00000388  00000+0  23130-3 0  9994
#TLE: 2 33591  99.0184  86.2573 0014219  37.4630 322.7530 14.13265873822593

#Time	Az	El	Level	SNR
2025-01-23 15:39:01.801541	174.3	32.4	-66.1	11.5
2025-01-23 15:39:02.943500	174.4	32.6	-66.2	11.5
2025-01-23 15:39:04.085967	174.5	32.8	-66.3	11.0
2025-01-23 15:39:05.228922	174.6	33.1	-66.4	10.8
2025-01-23 15:39:06.369883	174.7	33.3	-66.2	11.5
2025-01-23 15:39:07.510843	174.8	33.5	-66.0	10.9
2025-01-23 15:39:08.653800	174.9	33.8	-66.0	11.7
2025-01-23 15:39:09.793763	175.0	34.0	-66.0	11.4
2025-01-23 15:39:10.936719	175.1	34.2	-65.9	11.4
2025-01-23 15:39:12.075195	175.2	34.5	-65.9	11.6
2025-01-23 15:39:13.218151	175.3	34.7	-65.9	10.7
2025-01-23 15:39:14.358115	175.4	35.0	-65.9	11.2
2025-01-23 15:39:15.500588	175.5	35.2	-66.0	11.7
2025-01-23 15:39:16.640550	175.6	35.5	-65.5	11.0
2025-01-23 15:39:17.783506	175.8	35.7	-65.7	11.2
2025-01-23 15:39:18.923471	175.9	36.0	-65.7	11.0
2025-01-23 15:39:20.066427	176.0	36.2	-65.5	11.7
2025-01-23 15:39:21.206391	176.1	36.5	-65.1	12.0
2025-01-23 15:39:22.348856	176.2	36.8	-64.9	11.8
2025-01-23 15:39:23.491335	176.4	37.0	-64.6	11.7
2025-01-23 15:39:24.631300	176.5	37.3	-64.8	12.6
2025-01-23 15:39:25.772770	176.6	37.5	-64.6	12.1
2025-01-23 15:39:26.916723	176.7	37.8	-64.2	11.9
2025-01-23 15:39:28.056687	176.9	38.1	-64.3	11.9
2025-01-23 15:39:29.200154	177.0	38.4	-63.9	11.9
2025-01-23 15:39:30.342112	177.1	38.6	-63.7	10.5
2025-01-23 15:39:31.484071	177.3	38.9	-63.9	11.9
2025-01-23 15:39:32.625542	177.4	39.2	-63.5	10.4
2025-01-23 15:39:33.767501	177.6	39.5	-63.8	10.9
2025-01-23 15:39:34.909461	177.7	39.7	-63.7	10.5
2025-01-23 15:39:36.051417	177.9	40.0	-63.7	10.5
2025-01-23 15:39:37.193376	178.0	40.3	-63.9	11.0
2025-01-23 15:39:38.334337	178.2	40.6	-63.9	11.3
2025-01-23 15:39:39.475299	178.3	40.9	-63.4	10.1
2025-01-23 15:39:40.616260	178.5	41.2	-64.0	10.5
2025-01-23 15:39:41.759216	178.6	41.5	-63.4	9.6
2025-01-23 15:39:42.899179	178.8	41.8	-63.5	10.0
2025-01-23 15:39:44.041648	179.0	42.1	-63.8	11.2
2025-01-23 15:39:45.181612	179.2	42.4	-63.7	10.0
2025-01-23 15:39:46.324567	179.3	42.7	-63.3	10.0
2025-01-23 15:39:47.465043	179.5	43.0	-63.4	9.9
2025-01-23 15:39:48.607002	179.7	43.3	-63.8	9.9
2025-01-23 15:39:49.748468	179.9	43.6	-63.9	10.1
2025-01-23 15:39:50.890427	180.1	43.9	-63.6	9.3
2025-01-23 15:39:52.031388	180.2	44.2	-63.9	11.5
2025-01-23 15:39:53.172350	180.4	44.5	-64.0	11.3
2025-01-23 15:39:54.313310	180.6	44.9	-63.8	11.6
2025-01-23 15:39:55.455269	180.8	45.2	-63.9	10.9
2025-01-23 15:39:56.598732	181.1	45.5	-63.5	11.4
2025-01-23 15:39:57.742195	181.3	45.8	-63.9	12.2
2025-01-23 15:39:58.887147	181.5	46.2	-63.7	12.1
2025-01-23 15:40:00.029105	181.7	46.5	-63.6	12.1
2025-01-23 15:40:01.176050	181.9	46.8	-64.1	12.5
2025-01-23 15:40:02.317011	182.2	47.2	-64.1	12.8
2025-01-23 15:40:03.457972	182.4	47.5	-64.4	13.6
2025-01-23 15:40:04.599930	182.6	47.8	-64.1	13.1
2025-01-23 15:40:05.742396	182.9	48.2	-64.6	13.9
2025-01-23 15:40:06.884354	183.1	48.5	-64.0	13.2
2025-01-23 15:40:08.024832	183.4	48.9	-64.6	13.6
2025-01-23 15:40:09.165791	183.6	49.2	-64.0	11.8
2025-01-23 15:40:10.309745	183.9	49.5	-64.4	12.3
2025-01-23 15:40:11.450219	184.2	49.9	-64.4	11.9
2025-01-23 15:40:12.593175	184.5	50.2	-64.5	13.1
2025-01-23 15:40:13.733138	184.7	50.6	-64.6	13.6
2025-01-23 15:40:14.876094	185.0	51.0	-64.2	10.5
2025-01-23 15:40:16.016058	185.3	51.3	-64.1	10.9
2025-01-23 15:40:17.159014	185.6	51.7	-64.1	11.0
2025-01-23 15:40:18.299975	185.9	52.0	-64.4	9.7
2025-01-23 15:40:19.441444	186.3	52.4	-64.3	10.8
2025-01-23 15:40:20.582403	186.6	52.8	-64.6	10.1
2025-01-23 15:40:21.725360	186.9	53.1	-64.8	9.6
2025-01-23 15:40:22.864832	187.3	53.5	-64.2	9.1
2025-01-23 15:40:24.006802	187.6	53.9	-64.9	8.0
2025-01-23 15:40:25.149747	188.0	54.2	-65.1	10.6
2025-01-23 15:40:26.292215	188.4	54.6	-65.0	8.8
2025-01-23 15:40:27.432178	188.7	55.0	-64.8	9.7
2025-01-23 15:40:28.574137	189.1	55.4	-64.9	9.3
2025-01-23 15:40:29.715606	189.5	55.7	-64.5	9.0
2025-01-23 15:40:30.860557	190.0	56.1	-64.0	8.1
2025-01-23 15:40:32.008011	190.4	56.5	-64.5	8.3
2025-01-23 15:40:33.149485	190.8	56.9	-63.9	9.0
2025-01-23 15:40:34.289448	191.3	57.3	-64.1	9.5
2025-01-23 15:40:35.432404	191.7	57.7	-64.2	10.3
2025-01-23 15:40:36.573365	192.2	58.0	-64.3	10.0
2025-01-23 15:40:37.716321	192.7	58.4	-64.3	10.2
2025-01-23 15:40:38.858279	193.2	58.8	-64.4	10.3
2025-01-23 15:40:39.999747	193.7	59.2	-65.1	10.7
2025-01-23 15:40:41.142703	194.2	59.6	-64.7	10.5
2025-01-23 15:40:42.286656	194.8	60.0	-64.8	10.7
2025-01-23 15:40:43.428124	195.4	60.3	-64.8	11.3
2025-01-23 15:40:44.568088	195.9	60.7	-65.1	10.4
2025-01-23 15:40:45.710047	196.5	61.1	-64.4	11.0
2025-01-23 15:40:46.853018	197.2	61.5	-64.6	10.3
2025-01-23 15:40:48.000960	197.8	61.9	-65.2	9.9
2025-01-23 15:40:49.142919	198.5	62.3	-64.8	9.7
2025-01-23 15:40:50.288374	199.1	62.7	-65.1	9.7
2025-01-23 15:40:51.429335	199.8	63.0	-64.9	9.4
2025-01-23 15:40:52.569808	200.6	63.4	-65.6	8.6
2025-01-23 15:40:53.711299	201.3	63.8	-65.2	9.5
2025-01-23 15:40:54.853257	202.1	64.2	-65.2	8.3
2025-01-23 15:40:55.994218	202.9	64.5	-65.2	8.6
2025-01-23 15:40:57.135687	203.7	64.9	-65.1	8.7
2025-01-23 15:40:58.277646	204.5	65.3	-64.6	7.7
2025-01-23 15:40:59.419604	205.4	65.6	-64.9	8.6
2025-01-23 15:41:00.561072	206.3	66.0	-64.4	7.8
2025-01-23 15:41:01.702033	207.3	66.4	-65.0	8.7
2025-01-23 15:41:02.842994	208.2	66.7	-64.8	8.4
2025-01-23 15:41:03.986458	209.2	67.1	-65.2	8.8
2025-01-23 15:41:05.127419	210.2	67.4	-64.6	8.0
2025-01-23 15:41:06.269378	211.3	67.7	-64.1	7.3
2025-01-23 15:41:07.413331	212.4	68.1	-64.4	8.6
2025-01-23 15:41:08.555799	213.6	68.4	-64.4	8.9
2025-01-23 15:41:09.696268	214.7	68.7	-64.8	8.2
2025-01-23 15:41:10.839224	215.9	69.0	-64.1	9.1
2025-01-23 15:41:11.984681	217.2	69.3	-64.5	8.6
2025-01-23 15:41:13.128634	218.5	69.6	-64.7	8.9
2025-01-23 15:41:14.270102	219.8	69.9	-64.3	6.3
2025-01-23 15:41:15.414056	221.2	70.2	-64.8	8.1
2025-01-23 15:41:16.555018	222.6	70.4	-64.4	8.4
2025-01-23 15:41:17.696975	224.0	70.7	-64.6	8.0
2025-01-23 15:41:18.839931	225.5	70.9	-63.9	8.4
2025-01-23 15:41:19.980892	227.1	71.2	-64.3	7.9
2025-01-23 15:41:21.122850	228.6	71.4	-64.2	8.3
2025-01-23 15:41:22.263812	230.2	71.6	-64.3	7.5
2025-01-23 15:41:23.404773	231.9	71.8	-64.3	8.3
2025-01-23 15:41:24.547729	233.6	72.0	-64.2	8.8
2025-01-23 15:41:25.688690	235.3	72.1	-63.9	9.9
2025-01-23 15:41:26.831155	237.0	72.3	-63.3	8.7
2025-01-23 15:41:27.972116	238.8	72.4	-63.4	7.8
2025-01-23 15:41:29.116093	240.6	72.5	-63.1	8.5
2025-01-23 15:41:30.259048	242.4	72.6	-62.5	8.0
2025-01-23 15:41:31.401516	244.3	72.7	-62.0	8.3
2025-01-23 15:41:32.542493	246.1	72.8	-62.4	10.1
2025-01-23 15:41:33.684452	248.0	72.8	-62.1	9.6
2025-01-23 15:41:34.829402	249.9	72.8	-62.3	8.7
2025-01-23 15:41:35.973355	251.8	72.9	-62.4	9.3
2025-01-23 15:41:37.114316	253.6	72.9	-62.1	8.4
2025-01-23 15:41:38.256276	255.5	72.8	-61.9	7.4
2025-01-23 15:41:39.394753	257.4	72.8	-61.5	8.0
2025-01-23 15:41:40.535714	259.3	72.7	-61.5	7.6
2025-01-23 15:41:41.677672	261.1	72.7	-61.3	7.5
2025-01-23 15:41:42.818633	263.0	72.6	-61.4	6.3
2025-01-23 15:41:43.961589	264.8	72.5	-61.6	7.9
2025-01-23 15:41:45.102550	266.6	72.3	-61.0	7.6
2025-01-23 15:41:46.244509	268.3	72.2	-61.0	7.1
2025-01-23 15:41:47.385470	270.0	72.1	-61.5	7.2
2025-01-23 15:41:48.530421	271.7	71.9	-61.4	6.6
2025-01-23 15:41:49.676875	273.4	71.7	-60.9	6.3
2025-01-23 15:41:50.819832	275.0	71.5	-61.0	5.8
2025-01-23 15:41:51.961789	276.6	71.3	-61.4	6.6
2025-01-23 15:41:53.105254	278.2	71.1	-61.4	6.2
2025-01-23 15:41:54.249208	279.7	70.8	-60.5	5.7
2025-01-23 15:41:55.391165	281.2	70.6	-61.2	6.2
2025-01-23 15:41:56.534628	282.6	70.3	-61.1	6.0
2025-01-23 15:41:57.676587	284.0	70.1	-61.0	6.4
2025-01-23 15:41:58.819544	285.3	69.8	-60.8	5.6
2025-01-23 15:41:59.961010	286.7	69.5	-60.9	6.8
2025-01-23 15:42:01.103966	287.9	69.2	-60.5	5.4
2025-01-23 15:42:02.248916	289.2	68.9	-59.9	4.7
2025-01-23 15:42:03.392386	290.4	68.6	-60.4	4.8
2025-01-23 15:42:04.533347	291.5	68.3	-60.3	4.2
2025-01-23 15:42:05.675306	292.6	67.9	-60.4	4.6
2025-01-23 15:42:06.817772	293.7	67.6	-61.0	4.6
2025-01-23 15:42:07.958243	294.8	67.3	-61.4	4.9
2025-01-23 15:42:09.100201	295.8	66.9	-60.9	5.0
2025-01-23 15:42:10.240674	296.8	66.6	-60.5	4.7
2025-01-23 15:42:11.381636	297.7	66.2	-61.4	5.0
2025-01-23 15:42:12.523594	298.6	65.9	-60.9	3.5
2025-01-23 15:42:13.664555	299.5	65.5	-61.4	4.1
2025-01-23 15:42:14.809506	300.4	65.1	-60.5	3.5
2025-01-23 15:42:15.953459	301.2	64.8	-61.4	5.9
2025-01-23 15:42:17.093933	302.0	64.4	-60.7	4.2
2025-01-23 15:42:18.236889	302.8	64.0	-60.3	3.9
2025-01-23 15:42:19.377850	303.6	63.7	-60.8	6.4
2025-01-23 15:42:20.519317	304.3	63.3	-60.6	2.5
2025-01-23 15:42:21.661276	305.0	62.9	-60.2	1.1
2025-01-23 15:42:22.803234	305.7	62.5	-60.4	3.2
2025-01-23 15:42:23.945701	306.4	62.1	-59.7	2.1
2025-01-23 15:42:25.089654	307.0	61.8	-60.0	2.7
2025-01-23 15:42:26.231613	307.7	61.4	-60.1	2.3
2025-01-23 15:42:27.372087	308.3	61.0	-59.1	2.2
2025-01-23 15:42:28.514045	308.9	60.6	-59.9	4.1
2025-01-23 15:42:29.657998	309.4	60.2	-59.9	2.7
2025-01-23 15:42:30.801459	310.0	59.8	-59.4	3.5
2025-01-23 15:42:31.944417	310.5	59.5	-59.1	2.5
2025-01-23 15:42:33.088370	311.1	59.1	-58.4	1.9
2025-01-23 15:42:34.231326	311.6	58.7	-59.1	2.6
2025-01-23 15:42:35.373285	312.1	58.3	-58.0	0.3
2025-01-23 15:42:36.514246	312.6	57.9	-58.9	2.2
2025-01-23 15:42:37.657201	313.0	57.5	-58.4	0.0
2025-01-23 15:42:38.803656	313.5	57.2	-58.5	0.0
2025-01-23 15:42:39.945615	313.9	56.8	-61.3	6.6
2025-01-23 15:42:41.086092	314.4	56.4	-58.2	5.2
2025-01-23 15:42:42.227557	314.8	56.0	-59.7	2.1
2025-01-23 15:42:43.369516	315.2	55.6	-58.3	3.1
2025-01-23 15:42:44.509479	315.6	55.3	-59.2	5.1
2025-01-23 15:42:45.651946	316.0	54.9	-57.7	2.6
2025-01-23 15:42:46.791910	316.4	54.5	-58.9	5.5
2025-01-23 15:42:47.934865	316.7	54.2	-58.2	2.4
2025-01-23 15:42:49.075336	317.1	53.8	-57.3	1.9
2025-01-23 15:42:50.217295	317.4	53.4	-58.1	2.3
2025-01-23 15:42:51.358256	317.8	53.1	-57.3	0.0
2025-01-23 15:42:52.500720	318.1	52.7	-57.8	0.7
2025-01-23 15:42:53.641682	318.4	52.3	-58.8	3.3
2025-01-23 15:42:54.783640	318.7	52.0	-58.1	0.6
2025-01-23 15:42:55.927593	319.1	51.6	-58.2	0.0
2025-01-23 15:42:57.070550	319.4	51.2	-58.5	0.0
2025-01-23 15:42:58.211511	319.7	50.9	-60.3	3.0
2025-01-23 15:42:59.352471	319.9	50.5	-58.3	2.0
2025-01-23 15:43:00.495428	320.2	50.2	-58.3	1.8
2025-01-23 15:43:01.636388	320.5	49.8	-57.4	0.0
2025-01-23 15:43:02.778347	320.8	49.5	-58.4	1.7
2025-01-23 15:43:03.918311	321.0	49.1	-59.4	0.0
2025-01-23 15:43:05.062264	321.3	48.8	-59.3	0.8
2025-01-23 15:43:06.207215	321.5	48.5	-58.8	1.1
2025-01-23 15:43:07.349173	321.8	48.1	-57.1	0.0
2025-01-23 15:43:08.491131	322.0	47.8	-58.2	2.2
2025-01-23 15:43:09.634088	322.3	47.4	-58.8	2.7
2025-01-23 15:43:10.777043	322.5	47.1	-57.1	0.9
2025-01-23 15:43:11.920996	322.7	46.8	-58.2	0.5
2025-01-23 15:43:13.060960	323.0	46.5	-57.8	0.5
2025-01-23 15:43:14.203916	323.2	46.1	-56.9	0.0
2025-01-23 15:43:15.345874	323.4	45.8	-57.3	0.0
2025-01-23 15:43:16.487833	323.6	45.5	-57.3	1.5
2025-01-23 15:43:17.630788	323.8	45.2	-57.3	0.7
2025-01-23 15:43:18.771750	324.0	44.8	-57.4	0.0
2025-01-23 15:43:19.915703	324.2	44.5	-58.8	0.0
2025-01-23 15:43:21.062648	324.4	44.2	-58.9	0.0
2025-01-23 15:43:22.206601	324.6	43.9	-57.5	0.0
2025-01-23 15:43:23.348068	324.8	43.6	-58.0	0.0
2025-01-23 15:43:24.490027	325.0	43.3	-58.1	0.0
2025-01-23 15:43:25.632982	325.1	43.0	-57.6	0.0
2025-01-23 15:43:26.774941	325.3	42.7	-57.6	0.0
2025-01-23 15:43:27.915902	325.5	42.4	-58.0	0.0
2025-01-23 15:43:29.059855	325.7	42.1	-57.9	0.0
2025-01-23 15:43:30.201814	325.8	41.8	-57.8	0.0
2025-01-23 15:43:31.343772	326.0	41.5	-57.8	0.0
2025-01-23 15:43:32.486729	326.1	41.2	-59.1	0.0
2025-01-23 15:43:33.630190	326.3	40.9	-60.1	4.5
2025-01-23 15:43:34.770662	326.5	40.6	-59.0	0.0
2025-01-23 15:43:35.913618	326.6	40.3	-57.6	0.0
2025-01-23 15:43:37.054579	326.8	40.0	-57.6	0.0
2025-01-23 15:43:38.199530	326.9	39.8	-58.7	0.0
2025-01-23 15:43:39.340490	327.1	39.5	-59.6	1.9
2025-01-23 15:43:40.482449	327.2	39.2	-60.8	2.7
2025-01-23 15:43:41.623918	327.3	38.9	-60.6	5.1
2025-01-23 15:43:42.766383	327.5	38.7	-61.9	4.4
2025-01-23 15:43:43.906853	327.6	38.4	-61.3	1.0
2025-01-23 15:43:45.048320	327.8	38.1	-61.5	2.7
2025-01-23 15:43:46.189281	327.9	37.9	-59.8	0.0
2025-01-23 15:43:47.332237	328.0	37.6	-58.2	0.0
2025-01-23 15:43:48.472709	328.1	37.3	-61.6	3.8
2025-01-23 15:43:49.614668	328.3	37.1	-59.1	0.0
2025-01-23 15:43:50.756626	328.4	36.8	-60.8	2.3
2025-01-23 15:43:51.897587	328.5	36.5	-60.1	0.0
2025-01-23 15:43:53.040543	328.6	36.3	-59.6	0.0
2025-01-23 15:43:54.181505	328.8	36.0	-58.7	0.0
2025-01-23 15:43:55.323970	328.9	35.8	-58.9	0.0
2025-01-23 15:43:56.464930	329.0	35.5	-59.3	0.0
2025-01-23 15:43:57.608885	329.1	35.3	-59.4	0.2
2025-01-23 15:43:58.752839	329.2	35.0	-60.3	0.1
2025-01-23 15:43:59.896790	329.3	34.8	-60.7	3.3
2025-01-23 15:44:01.038749	329.4	34.5	-60.8	1.7
2025-01-23 15:44:02.180708	329.5	34.3	-60.8	2.4
2025-01-23 15:44:03.323663	329.6	34.1	-59.0	0.0
2025-01-23 15:44:04.466619	329.7	33.8	-61.5	3.8
2025-01-23 15:44:05.608577	329.8	33.6	-60.3	2.2
2025-01-23 15:44:06.752039	329.9	33.4	-61.2	4.6
2025-01-23 15:44:07.898985	330.0	33.1	-58.9	0.0
2025-01-23 15:44:09.040454	330.1	32.9	-58.7	0.0
2025-01-23 15:44:10.183410	330.2	32.7	-58.4	0.0
2025-01-23 15:44:11.326366	330.3	32.4	-59.4	0.0
2025-01-23 15:44:12.469321	330.4	32.2	-59.1	0.0
2025-01-23 15:44:13.611280	330.5	32.0	-58.7	0.0
2025-01-23 15:44:14.754237	330.6	31.8	-59.1	0.0
2025-01-23 15:44:15.896195	330.7	31.5	-58.9	0.0
2025-01-23 15:44:17.039152	330.8	31.3	-59.3	0.0
2025-01-23 15:44:18.181109	330.9	31.1	-59.4	0.9
2025-01-23 15:44:19.322576	331.0	30.9	-59.2	0.0
2025-01-23 15:44:20.463537	331.1	30.7	-58.9	0.0
2025-01-23 15:44:21.607490	331.2	30.5	-59.0	0.0
2025-01-23 15:44:22.748957	331.2	30.2	-57.9	0.0
2025-01-23 15:44:23.896900	331.3	30.0	-54.6	0.0
#Closed at: 2025-01-23 15:38:44.541522