passes_logs/2025/01/23/Planum_Noyabrsk/Planum_Noyabrsk__20250123_215458_METEOR-M2_4_rec.log

#Pass ID: 20250123_215458_METEOR-M2 4
#Satellite: METEOR-M2 4
#Configuration: METEOR-M2 4
#Start time: 2025-01-23 21:55:03.002938

#LorettStation: 1.0.0 05.05.2024
#Station: Planum_Noyabrsk
#Location: 75.446886 lon 63.207202 lat
#TLE: 1 59051U 24039A   25023.46960849  .00000154  00000+0  88910-4 0  9995
#TLE: 2 59051  98.6304 346.3014 0006584 197.7782 162.3166 14.22328093 46804

#Time	Az	El	Level	SNR
2025-01-23 21:55:11.874243	53.4	31.2	-63.0	6.4
2025-01-23 21:55:13.015204	53.7	31.3	-62.7	8.8
2025-01-23 21:55:14.159156	54.0	31.5	-62.7	4.8
2025-01-23 21:55:15.302113	54.3	31.7	-61.8	8.9
2025-01-23 21:55:16.443074	54.6	31.8	-60.0	5.1
2025-01-23 21:55:17.585032	54.9	32.0	-61.4	9.8
2025-01-23 21:55:18.725993	55.2	32.1	-56.1	6.3
2025-01-23 21:55:19.868459	55.5	32.3	-58.4	3.1
2025-01-23 21:55:21.009420	55.9	32.4	-62.4	8.7
2025-01-23 21:55:22.151379	56.2	32.6	-63.2	8.3
2025-01-23 21:55:23.295840	56.5	32.7	-63.6	9.1
2025-01-23 21:55:24.437798	56.9	32.9	-62.0	0.0
2025-01-23 21:55:25.578760	57.2	33.0	-61.8	7.0
2025-01-23 21:55:26.721225	57.5	33.2	-60.5	5.2
2025-01-23 21:55:27.863183	57.9	33.3	-61.8	7.8
2025-01-23 21:55:29.004144	58.2	33.5	-62.2	6.5
2025-01-23 21:55:30.146103	58.6	33.6	-62.9	7.3
2025-01-23 21:55:31.287064	58.9	33.8	-60.4	5.8
2025-01-23 21:55:32.430020	59.3	33.9	-62.0	3.5
2025-01-23 21:55:33.570981	59.6	34.1	-61.8	5.9
2025-01-23 21:55:34.712939	60.0	34.2	-53.8	0.0
2025-01-23 21:55:35.855404	60.4	34.4	-62.3	9.2
2025-01-23 21:55:36.996872	60.7	34.5	-61.2	9.9
2025-01-23 21:55:38.140826	61.1	34.7	-60.8	5.5
2025-01-23 21:55:39.281787	61.5	34.8	-62.0	5.9
2025-01-23 21:55:40.424252	61.9	35.0	-62.5	12.6
2025-01-23 21:55:41.565213	62.2	35.1	-62.0	6.7
2025-01-23 21:55:42.707172	62.6	35.3	-57.2	0.0
2025-01-23 21:55:43.851633	63.0	35.4	-60.8	8.4
2025-01-23 21:55:44.995584	63.4	35.6	-61.1	10.2
2025-01-23 21:55:46.135548	63.8	35.7	-62.1	6.4
2025-01-23 21:55:47.277507	64.2	35.8	-57.1	0.0
2025-01-23 21:55:48.419465	64.6	36.0	-63.8	11.1
2025-01-23 21:55:49.559429	65.0	36.1	-62.7	6.0
2025-01-23 21:55:50.700898	65.4	36.3	-53.9	0.0
2025-01-23 21:55:51.848841	65.8	36.4	-61.6	7.2
2025-01-23 21:55:52.989801	66.2	36.5	-63.8	6.8
2025-01-23 21:55:54.133264	66.7	36.7	-64.1	4.6
2025-01-23 21:55:55.274225	67.1	36.8	-61.1	7.9
2025-01-23 21:55:56.416183	67.5	36.9	-64.6	11.0
2025-01-23 21:55:57.556653	67.9	37.1	-63.4	6.0
2025-01-23 21:55:58.700606	68.4	37.2	-56.5	0.0
2025-01-23 21:55:59.843562	68.8	37.3	-63.2	9.9
2025-01-23 21:56:00.986043	69.3	37.4	-63.3	9.8
2025-01-23 21:56:02.131991	69.7	37.6	-63.7	9.1
2025-01-23 21:56:03.273949	70.2	37.7	-62.6	8.8
2025-01-23 21:56:04.415908	70.6	37.8	-60.3	3.5
2025-01-23 21:56:05.557375	71.1	37.9	-59.0	0.0
2025-01-23 21:56:06.700331	71.5	38.1	-57.0	0.0
2025-01-23 21:56:07.841292	72.0	38.2	-61.2	7.3
2025-01-23 21:56:08.988237	72.4	38.3	-61.8	4.6
2025-01-23 21:56:10.129199	72.9	38.4	-60.7	2.8
2025-01-23 21:56:11.274655	73.4	38.5	-60.8	3.1
2025-01-23 21:56:12.419606	73.9	38.6	-60.7	1.5
2025-01-23 21:56:13.562561	74.3	38.8	-60.9	0.0
2025-01-23 21:56:14.703031	74.8	38.9	-55.4	0.0
2025-01-23 21:56:15.845987	75.3	39.0	-58.7	0.0
2025-01-23 21:56:16.986948	75.8	39.1	-59.0	0.0
2025-01-23 21:56:18.130902	76.3	39.2	-62.3	0.0
2025-01-23 21:56:19.274856	76.8	39.3	-61.2	0.0
2025-01-23 21:56:20.416325	77.3	39.4	-61.6	0.0
2025-01-23 21:56:21.557798	77.8	39.5	-60.8	0.0
2025-01-23 21:56:22.698758	78.3	39.6	-48.5	0.0
2025-01-23 21:56:23.842229	78.8	39.7	-62.4	0.0
2025-01-23 21:56:24.984187	79.3	39.7	-64.2	0.0
2025-01-23 21:56:26.126146	79.8	39.8	-52.8	0.0
2025-01-23 21:56:27.270099	80.3	39.9	-58.2	0.0
2025-01-23 21:56:28.411568	80.8	40.0	-63.3	0.0
2025-01-23 21:56:29.553527	81.3	40.1	-63.8	0.0
2025-01-23 21:56:30.695485	81.9	40.2	-55.5	0.0
2025-01-23 21:56:31.836952	82.4	40.2	-62.0	0.0
2025-01-23 21:56:32.977422	82.9	40.3	-56.9	0.0
2025-01-23 21:56:34.121376	83.4	40.4	-59.9	0.0
2025-01-23 21:56:35.263334	84.0	40.5	-57.5	0.0
2025-01-23 21:56:36.404803	84.5	40.5	-60.1	0.0
2025-01-23 21:56:37.547759	85.0	40.6	-58.0	0.0
2025-01-23 21:56:38.689717	85.6	40.6	-57.1	0.0
2025-01-23 21:56:39.831190	86.1	40.7	-55.3	0.0
2025-01-23 21:56:40.973148	86.6	40.8	-55.6	0.0
2025-01-23 21:56:42.115107	87.2	40.8	-58.4	0.0
2025-01-23 21:56:43.256576	87.7	40.9	-58.5	0.0
2025-01-23 21:56:44.396540	88.3	40.9	-59.2	0.0
2025-01-23 21:56:45.538498	88.8	41.0	-54.6	0.0
2025-01-23 21:56:46.680964	89.4	41.0	-54.1	0.0
2025-01-23 21:56:47.820928	89.9	41.0	-59.3	0.0
2025-01-23 21:56:48.963884	90.5	41.1	-57.1	0.0
2025-01-23 21:56:50.103357	91.0	41.1	-57.7	0.0
2025-01-23 21:56:51.245317	91.6	41.1	-58.1	0.0
2025-01-23 21:56:52.387274	92.1	41.2	-58.0	0.0
2025-01-23 21:56:53.531734	92.7	41.2	-58.7	0.0
2025-01-23 21:56:54.673693	93.2	41.2	-55.9	0.0
2025-01-23 21:56:55.816648	93.8	41.2	-60.3	0.0
2025-01-23 21:56:56.958607	94.4	41.2	-61.7	0.0
2025-01-23 21:56:58.099568	94.9	41.2	-59.6	0.0
2025-01-23 21:56:59.241527	95.5	41.3	-61.3	0.0
2025-01-23 21:57:00.383485	96.0	41.3	-63.7	0.0
2025-01-23 21:57:01.525443	96.6	41.3	-63.6	0.0
2025-01-23 21:57:02.668399	97.2	41.3	-60.0	0.0
2025-01-23 21:57:03.809361	97.7	41.3	-55.2	0.0
2025-01-23 21:57:04.954312	98.3	41.3	-59.9	0.0
2025-01-23 21:57:06.095272	98.8	41.2	-63.9	0.0
2025-01-23 21:57:07.237230	99.4	41.2	-61.2	0.0
2025-01-23 21:57:08.379189	100.0	41.2	-64.1	0.0
2025-01-23 21:57:09.521147	100.5	41.2	-65.4	0.0
2025-01-23 21:57:10.665101	101.1	41.2	-60.1	0.0
2025-01-23 21:57:11.808563	101.6	41.2	-64.3	0.0
2025-01-23 21:57:12.949524	102.2	41.1	-62.1	0.0
2025-01-23 21:57:14.089488	102.7	41.1	-64.2	0.0
2025-01-23 21:57:15.233441	103.3	41.1	-64.4	2.1
2025-01-23 21:57:16.377397	103.8	41.0	-64.5	4.7
2025-01-23 21:57:17.518355	104.4	41.0	-63.5	1.1
2025-01-23 21:57:18.660820	104.9	41.0	-60.0	0.0
2025-01-23 21:57:19.801782	105.5	40.9	-62.4	0.0
2025-01-23 21:57:20.946732	106.0	40.9	-60.5	0.0
2025-01-23 21:57:22.091682	106.6	40.8	-62.5	2.8
2025-01-23 21:57:23.232643	107.1	40.8	-62.0	2.4
2025-01-23 21:57:24.374602	107.7	40.7	-64.0	0.0
2025-01-23 21:57:25.516561	108.2	40.6	-64.2	2.5
2025-01-23 21:57:26.673479	108.8	40.6	-57.1	0.0
2025-01-23 21:57:27.814441	109.3	40.5	-63.0	0.0
2025-01-23 21:57:28.956398	109.8	40.5	-62.4	1.2
2025-01-23 21:57:30.097360	110.4	40.4	-62.3	2.9
2025-01-23 21:57:31.238321	110.9	40.3	-60.5	1.0
2025-01-23 21:57:32.387261	111.4	40.2	-62.7	0.0
2025-01-23 21:57:33.528222	111.9	40.2	-62.2	5.5
2025-01-23 21:57:34.673173	112.5	40.1	-52.9	0.0
2025-01-23 21:57:35.818123	113.0	40.0	-62.8	0.0
2025-01-23 21:57:36.959084	113.5	39.9	-61.0	2.0
2025-01-23 21:57:38.102041	114.0	39.8	-61.1	2.5
2025-01-23 21:57:39.243998	114.5	39.8	-60.7	0.8
2025-01-23 21:57:40.385957	115.0	39.7	-60.5	0.0
2025-01-23 21:57:41.528422	115.5	39.6	-59.1	0.0
2025-01-23 21:57:42.674370	116.0	39.5	-53.7	0.0
2025-01-23 21:57:43.816328	116.5	39.4	-58.8	0.1
2025-01-23 21:57:44.957290	117.0	39.3	-62.4	7.0
2025-01-23 21:57:46.101243	117.5	39.2	-60.6	0.0
2025-01-23 21:57:47.245196	118.0	39.1	-60.2	3.1
2025-01-23 21:57:48.386181	118.5	39.0	-57.8	0.0
2025-01-23 21:57:49.529127	119.0	38.9	-57.8	0.0
2025-01-23 21:57:50.669091	119.5	38.8	-50.7	0.0
2025-01-23 21:57:51.812047	120.0	38.6	-57.8	2.0
2025-01-23 21:57:52.954006	120.4	38.5	-57.6	0.0
2025-01-23 21:57:54.095964	120.9	38.4	-60.5	0.5
2025-01-23 21:57:55.241423	121.4	38.3	-60.2	0.0
2025-01-23 21:57:56.381387	121.8	38.2	-61.6	4.3
2025-01-23 21:57:57.525340	122.3	38.1	-62.9	2.0
2025-01-23 21:57:58.668311	122.8	37.9	-54.5	0.0
2025-01-23 21:57:59.816760	123.2	37.8	-61.7	6.1
2025-01-23 21:58:00.956724	123.7	37.7	-62.1	0.0
2025-01-23 21:58:02.098683	124.1	37.6	-61.9	0.0
2025-01-23 21:58:03.240641	124.6	37.4	-61.4	5.8
2025-01-23 21:58:04.382599	125.0	37.3	-62.6	2.3
2025-01-23 21:58:05.526552	125.5	37.2	-62.4	6.3
2025-01-23 21:58:06.667513	125.9	37.1	-55.3	0.0
2025-01-23 21:58:07.810470	126.3	36.9	-59.0	1.0
2025-01-23 21:58:08.949436	126.8	36.8	-62.5	0.0
2025-01-23 21:58:10.088417	127.2	36.7	-62.7	4.3
2025-01-23 21:58:11.232370	127.6	36.5	-63.1	5.7
2025-01-23 21:58:12.373332	128.0	36.4	-61.6	1.2
2025-01-23 21:58:13.518283	128.4	36.2	-63.9	6.8
2025-01-23 21:58:14.661238	128.8	36.1	-53.9	0.0
2025-01-23 21:58:15.802708	129.3	36.0	-60.8	1.6
2025-01-23 21:58:16.945664	129.7	35.8	-64.6	6.5
2025-01-23 21:58:18.088620	130.1	35.7	-62.3	3.4
2025-01-23 21:58:19.228584	130.5	35.5	-58.9	0.7
2025-01-23 21:58:20.373046	130.9	35.4	-58.9	1.5
2025-01-23 21:58:21.515004	131.2	35.2	-62.7	4.0
2025-01-23 21:58:22.655966	131.6	35.1	-57.8	0.0
2025-01-23 21:58:23.797924	132.0	35.0	-63.0	5.0
2025-01-23 21:58:24.938887	132.4	34.8	-63.2	4.5
2025-01-23 21:58:26.078849	132.8	34.7	-63.9	9.9
2025-01-23 21:58:27.224797	133.1	34.5	-60.3	3.4
2025-01-23 21:58:28.369747	133.5	34.4	-60.2	0.0
2025-01-23 21:58:29.510708	133.9	34.2	-64.3	6.7
2025-01-23 21:58:30.652667	134.2	34.1	-60.1	0.0
2025-01-23 21:58:31.794625	134.6	33.9	-63.8	8.5
2025-01-23 21:58:32.936584	135.0	33.8	-62.9	6.9
2025-01-23 21:58:34.076564	135.3	33.6	-65.3	9.2
2025-01-23 21:58:35.217535	135.7	33.5	-64.6	7.5
2025-01-23 21:58:36.359991	136.0	33.3	-64.3	6.5
2025-01-23 21:58:37.500462	136.4	33.2	-65.5	11.8
2025-01-23 21:58:38.640426	136.7	33.0	-63.2	7.6
2025-01-23 21:58:39.782385	137.0	32.8	-65.5	10.3
2025-01-23 21:58:40.923345	137.4	32.7	-65.9	10.0
2025-01-23 21:58:42.066302	137.7	32.5	-65.9	11.1
2025-01-23 21:58:43.207770	138.0	32.4	-66.0	13.1
2025-01-23 21:58:44.350726	138.4	32.2	-66.9	11.8
2025-01-23 21:58:45.492685	138.7	32.1	-65.7	9.7
2025-01-23 21:58:46.635640	139.0	31.9	-66.7	8.1
2025-01-23 21:58:47.777599	139.3	31.8	-65.9	11.1
2025-01-23 21:58:48.919557	139.6	31.6	-65.9	10.3
2025-01-23 21:58:50.060519	139.9	31.5	-66.7	12.8
2025-01-23 21:58:51.205469	140.3	31.3	-64.4	1.2
2025-01-23 21:58:52.346431	140.6	31.1	-65.2	10.5
2025-01-23 21:58:53.488391	140.9	31.0	-66.0	11.9
2025-01-23 21:58:54.632342	141.2	30.8	-64.2	8.8
2025-01-23 21:58:55.773304	141.5	30.7	-65.9	11.3
2025-01-23 21:58:56.915261	141.8	30.5	-66.1	10.8
2025-01-23 21:58:58.059215	142.0	30.4	-65.6	11.5
2025-01-23 21:58:59.204182	142.3	30.2	-66.1	13.0
2025-01-23 21:59:00.346141	142.6	30.1	-67.5	13.0
#Closed at: 2025-01-23 21:54:58.006679