passes_logs/2025/01/23/Planum_Noyabrsk/Planum_Noyabrsk__20250123_152158_METOP-B_rec.log

#Pass ID: 20250123_152158_METOP-B
#Satellite: METOP-B
#Configuration: METOP-B
#Start time: 2025-01-23 15:22:03.180109

#LorettStation: 1.0.0 05.05.2024
#Station: Planum_Noyabrsk
#Location: 75.446886 lon 63.207202 lat
#TLE: 1 38771U 12049A   25022.43310588  .00000340  00000+0  17529-3 0  9998
#TLE: 2 38771  98.6000  80.3994 0001633  73.0710 287.0647 14.21415728640699

#Time	Az	El	Level	SNR
2025-01-23 15:22:09.387105	177.9	31.2	-64.1	10.5
2025-01-23 15:22:10.529063	178.0	31.4	-64.1	9.7
2025-01-23 15:22:11.670532	178.1	31.6	-64.1	9.8
2025-01-23 15:22:12.812490	178.2	31.9	-63.6	9.8
2025-01-23 15:22:13.954449	178.3	32.1	-63.3	9.7
2025-01-23 15:22:15.099400	178.4	32.3	-63.8	10.0
2025-01-23 15:22:16.242355	178.6	32.5	-63.5	9.7
2025-01-23 15:22:17.383334	178.7	32.8	-63.3	10.3
2025-01-23 15:22:18.526797	178.8	33.0	-63.4	9.6
2025-01-23 15:22:19.669753	178.9	33.2	-63.7	10.4
2025-01-23 15:22:20.810714	179.0	33.5	-63.6	10.2
2025-01-23 15:22:21.959654	179.2	33.7	-63.7	9.0
2025-01-23 15:22:23.103118	179.3	34.0	-64.2	9.4
2025-01-23 15:22:24.246073	179.4	34.2	-63.6	7.9
2025-01-23 15:22:25.388539	179.5	34.4	-63.7	8.7
2025-01-23 15:22:26.530498	179.7	34.7	-63.7	9.1
2025-01-23 15:22:27.674451	179.8	34.9	-63.7	7.9
2025-01-23 15:22:28.822901	180.0	35.2	-63.4	8.2
2025-01-23 15:22:29.965857	180.1	35.4	-63.4	7.8
2025-01-23 15:22:31.109811	180.2	35.7	-63.5	8.8
2025-01-23 15:22:32.253763	180.4	36.0	-63.5	9.5
2025-01-23 15:22:33.394725	180.5	36.2	-64.3	9.1
2025-01-23 15:22:34.538187	180.7	36.5	-63.1	8.8
2025-01-23 15:22:35.679148	180.8	36.7	-63.6	9.7
2025-01-23 15:22:36.821107	181.0	37.0	-64.0	9.1
2025-01-23 15:22:37.962067	181.1	37.3	-63.5	8.4
2025-01-23 15:22:39.107019	181.3	37.5	-63.1	8.0
2025-01-23 15:22:40.247979	181.4	37.8	-63.6	9.0
2025-01-23 15:22:41.389938	181.6	38.1	-63.2	9.3
2025-01-23 15:22:42.531896	181.8	38.3	-62.9	7.8
2025-01-23 15:22:43.673854	181.9	38.6	-63.3	9.3
2025-01-23 15:22:44.816811	182.1	38.9	-63.1	8.2
2025-01-23 15:22:45.959785	182.3	39.2	-63.6	9.7
2025-01-23 15:22:47.103250	182.4	39.4	-63.2	7.6
2025-01-23 15:22:48.244209	182.6	39.7	-63.4	8.3
2025-01-23 15:22:49.388669	182.8	40.0	-63.4	4.9
2025-01-23 15:22:50.531625	183.0	40.3	-63.7	9.7
2025-01-23 15:22:51.673094	183.2	40.6	-63.8	10.0
2025-01-23 15:22:52.816048	183.4	40.9	-63.2	9.4
2025-01-23 15:22:53.961010	183.5	41.2	-62.8	9.3
2025-01-23 15:22:55.101960	183.7	41.5	-62.8	7.2
2025-01-23 15:22:56.243933	183.9	41.7	-62.9	8.2
2025-01-23 15:22:57.386403	184.1	42.0	-63.2	7.8
2025-01-23 15:22:58.527364	184.4	42.3	-63.1	7.9
2025-01-23 15:22:59.670828	184.6	42.6	-63.7	8.3
2025-01-23 15:23:00.816776	184.8	43.0	-63.2	8.2
2025-01-23 15:23:01.958733	185.0	43.3	-63.5	7.7
2025-01-23 15:23:03.103684	185.2	43.6	-63.3	7.2
2025-01-23 15:23:04.245643	185.5	43.9	-63.4	7.9
2025-01-23 15:23:05.388598	185.7	44.2	-63.1	5.9
2025-01-23 15:23:06.530557	185.9	44.5	-63.0	7.2
2025-01-23 15:23:07.675507	186.2	44.8	-63.6	7.5
2025-01-23 15:23:08.817466	186.4	45.1	-63.2	8.9
2025-01-23 15:23:09.960422	186.7	45.5	-63.3	7.4
2025-01-23 15:23:11.101890	186.9	45.8	-63.1	8.1
2025-01-23 15:23:12.244844	187.2	46.1	-62.9	9.0
2025-01-23 15:23:13.385806	187.5	46.4	-62.7	7.3
2025-01-23 15:23:14.529759	187.7	46.8	-62.6	8.1
2025-01-23 15:23:15.671717	188.0	47.1	-63.0	8.5
2025-01-23 15:23:16.812678	188.3	47.4	-63.0	9.7
2025-01-23 15:23:17.954637	188.6	47.8	-62.8	8.5
2025-01-23 15:23:19.098590	188.9	48.1	-63.0	10.0
2025-01-23 15:23:20.241056	189.2	48.4	-62.6	9.2
2025-01-23 15:23:21.384011	189.5	48.8	-62.5	8.9
2025-01-23 15:23:22.524972	189.8	49.1	-62.3	9.1
2025-01-23 15:23:23.673422	190.1	49.5	-62.9	9.7
2025-01-23 15:23:24.816378	190.5	49.8	-62.8	9.7
2025-01-23 15:23:25.957339	190.8	50.1	-62.1	8.8
2025-01-23 15:23:27.101801	191.1	50.5	-62.7	9.3
2025-01-23 15:23:28.243760	191.5	50.8	-62.7	8.6
2025-01-23 15:23:29.386715	191.9	51.2	-62.8	8.5
2025-01-23 15:23:30.529671	192.2	51.5	-62.8	8.1
2025-01-23 15:23:31.670632	192.6	51.9	-62.3	7.1
2025-01-23 15:23:32.813588	193.0	52.2	-62.2	6.6
2025-01-23 15:23:33.955547	193.4	52.6	-62.8	7.9
2025-01-23 15:23:35.098503	193.8	53.0	-63.1	8.1
2025-01-23 15:23:36.240464	194.2	53.3	-62.8	7.4
2025-01-23 15:23:37.382419	194.6	53.7	-63.2	8.1
2025-01-23 15:23:38.525376	195.1	54.0	-63.2	8.0
2025-01-23 15:23:39.668331	195.5	54.4	-63.3	8.8
2025-01-23 15:23:40.816781	196.0	54.8	-62.6	7.8
2025-01-23 15:23:41.958740	196.5	55.1	-62.8	7.3
2025-01-23 15:23:43.099700	196.9	55.5	-63.0	8.7
2025-01-23 15:23:44.240661	197.4	55.8	-62.4	8.2
2025-01-23 15:23:45.383617	197.9	56.2	-62.6	7.4
2025-01-23 15:23:46.523581	198.5	56.6	-62.6	7.7
2025-01-23 15:23:47.667045	199.0	56.9	-62.5	6.4
2025-01-23 15:23:48.809003	199.6	57.3	-63.1	8.1
2025-01-23 15:23:49.950962	200.1	57.7	-62.9	7.5
2025-01-23 15:23:51.092920	200.7	58.0	-63.5	8.3
2025-01-23 15:23:52.233881	201.3	58.4	-63.1	7.0
2025-01-23 15:23:53.375840	201.9	58.8	-63.2	8.6
2025-01-23 15:23:54.518304	202.5	59.1	-62.7	7.1
2025-01-23 15:23:55.659266	203.2	59.5	-63.0	7.3
2025-01-23 15:23:56.802221	203.9	59.8	-62.8	7.8
2025-01-23 15:23:57.945197	204.5	60.2	-62.6	7.8
2025-01-23 15:23:59.088153	205.2	60.5	-62.3	8.2
2025-01-23 15:24:00.229633	206.0	60.9	-62.2	6.4
2025-01-23 15:24:01.371592	206.7	61.2	-62.6	8.1
2025-01-23 15:24:02.512553	207.5	61.6	-62.5	8.1
2025-01-23 15:24:03.656507	208.2	61.9	-62.4	8.0
2025-01-23 15:24:04.798464	209.1	62.3	-62.4	8.7
2025-01-23 15:24:05.942418	209.9	62.6	-61.5	7.8
2025-01-23 15:24:07.085374	210.7	63.0	-62.1	9.0
2025-01-23 15:24:08.226843	211.6	63.3	-61.7	7.2
2025-01-23 15:24:09.368802	212.5	63.6	-62.2	7.7
2025-01-23 15:24:10.512754	213.4	63.9	-62.4	6.1
2025-01-23 15:24:11.653715	214.4	64.3	-63.0	9.8
2025-01-23 15:24:12.796671	215.4	64.6	-62.4	6.8
2025-01-23 15:24:13.938629	216.4	64.9	-62.9	9.2
2025-01-23 15:24:15.081096	217.4	65.2	-63.0	9.6
2025-01-23 15:24:16.223053	218.5	65.5	-63.0	8.8
2025-01-23 15:24:17.366008	219.6	65.8	-62.5	7.4
2025-01-23 15:24:18.508473	220.7	66.1	-62.5	7.5
2025-01-23 15:24:19.653423	221.8	66.3	-62.3	6.5
2025-01-23 15:24:20.795382	223.0	66.6	-62.7	7.7
2025-01-23 15:24:21.937849	224.2	66.9	-62.7	7.3
2025-01-23 15:24:23.079807	225.5	67.1	-63.2	7.4
2025-01-23 15:24:24.222763	226.7	67.4	-63.3	7.7
2025-01-23 15:24:25.364741	228.0	67.6	-63.4	7.3
2025-01-23 15:24:26.509691	229.4	67.8	-62.9	6.6
2025-01-23 15:24:27.651650	230.7	68.0	-64.1	7.5
2025-01-23 15:24:28.798596	232.1	68.2	-62.9	6.4
2025-01-23 15:24:29.940554	233.5	68.4	-62.9	6.8
2025-01-23 15:24:31.083509	234.9	68.6	-63.9	8.7
2025-01-23 15:24:32.230455	236.4	68.8	-62.7	7.6
2025-01-23 15:24:33.371416	237.9	68.9	-63.1	7.5
2025-01-23 15:24:34.514372	239.4	69.1	-63.0	6.9
2025-01-23 15:24:35.658326	240.9	69.2	-63.1	6.8
2025-01-23 15:24:36.801281	242.5	69.3	-63.3	8.0
2025-01-23 15:24:37.946755	244.0	69.4	-62.4	7.2
2025-01-23 15:24:39.089221	245.6	69.5	-62.5	6.8
2025-01-23 15:24:40.230182	247.2	69.5	-62.0	4.3
2025-01-23 15:24:41.372156	248.8	69.6	-61.3	4.4
2025-01-23 15:24:42.517106	250.4	69.6	-62.4	5.5
2025-01-23 15:24:43.658068	252.0	69.7	-62.0	5.7
2025-01-23 15:24:44.802021	253.6	69.7	-62.4	4.8
2025-01-23 15:24:45.945974	255.2	69.7	-61.7	4.4
2025-01-23 15:24:47.088930	256.8	69.7	-62.8	6.4
2025-01-23 15:24:48.230421	258.4	69.6	-61.9	6.0
2025-01-23 15:24:49.372378	260.0	69.6	-61.4	5.4
2025-01-23 15:24:50.516841	261.6	69.5	-62.1	6.2
2025-01-23 15:24:51.658310	263.2	69.4	-62.5	7.3
2025-01-23 15:24:52.800268	264.8	69.3	-61.8	4.9
2025-01-23 15:24:53.943224	266.3	69.2	-62.0	5.4
2025-01-23 15:24:55.085182	267.9	69.1	-62.2	5.5
2025-01-23 15:24:56.229135	269.4	69.0	-61.3	4.5
2025-01-23 15:24:57.372092	270.9	68.8	-61.4	5.7
2025-01-23 15:24:58.514050	272.3	68.7	-61.0	3.9
2025-01-23 15:24:59.658003	273.8	68.5	-62.0	5.2
2025-01-23 15:25:00.799961	275.2	68.3	-62.0	5.0
2025-01-23 15:25:01.941940	276.6	68.1	-62.5	7.2
2025-01-23 15:25:03.082901	278.0	67.9	-61.0	4.6
2025-01-23 15:25:04.224860	279.3	67.7	-62.4	6.7
2025-01-23 15:25:05.367326	280.6	67.5	-62.1	6.5
2025-01-23 15:25:06.509284	281.9	67.2	-61.2	5.4
2025-01-23 15:25:07.653743	283.1	67.0	-61.4	5.6
2025-01-23 15:25:08.795725	284.3	66.7	-61.0	6.1
2025-01-23 15:25:09.938680	285.5	66.5	-60.2	5.0
2025-01-23 15:25:11.083630	286.7	66.2	-60.2	4.9
2025-01-23 15:25:12.225097	287.8	65.9	-60.1	4.2
2025-01-23 15:25:13.367055	288.9	65.6	-60.4	6.0
2025-01-23 15:25:14.510012	290.0	65.3	-59.8	4.9
2025-01-23 15:25:15.651970	291.1	65.0	-60.0	4.4
2025-01-23 15:25:16.795923	292.1	64.7	-59.7	5.2
2025-01-23 15:25:17.942868	293.1	64.4	-59.9	4.3
2025-01-23 15:25:19.084827	294.0	64.1	-59.5	5.2
2025-01-23 15:25:20.225788	295.0	63.8	-59.4	4.3
2025-01-23 15:25:21.368744	295.9	63.5	-59.8	5.6
2025-01-23 15:25:22.510731	296.8	63.1	-59.5	3.6
2025-01-23 15:25:23.653686	297.6	62.8	-60.4	5.4
2025-01-23 15:25:24.794648	298.5	62.5	-60.2	5.4
2025-01-23 15:25:25.937603	299.3	62.1	-59.8	4.7
2025-01-23 15:25:27.078564	300.1	61.8	-59.7	4.2
2025-01-23 15:25:28.221520	300.9	61.4	-60.3	6.4
2025-01-23 15:25:29.362988	301.6	61.1	-61.4	8.1
2025-01-23 15:25:30.503949	302.3	60.7	-59.8	4.7
2025-01-23 15:25:31.648899	303.1	60.4	-60.3	5.6
2025-01-23 15:25:32.790858	303.7	60.0	-60.1	4.5
2025-01-23 15:25:33.934811	304.4	59.7	-59.9	4.3
2025-01-23 15:25:35.076770	305.1	59.3	-59.5	2.7
2025-01-23 15:25:36.222226	305.7	58.9	-59.6	2.6
2025-01-23 15:25:37.364185	306.3	58.6	-59.5	4.9
2025-01-23 15:25:38.510133	306.9	58.2	-59.4	4.7
2025-01-23 15:25:39.652091	307.5	57.9	-59.5	3.8
2025-01-23 15:25:40.793052	308.1	57.5	-59.0	3.7
2025-01-23 15:25:41.936516	308.7	57.1	-59.6	1.7
2025-01-23 15:25:43.079487	309.2	56.8	-59.2	1.8
2025-01-23 15:25:44.223440	309.7	56.4	-59.5	4.5
2025-01-23 15:25:45.365399	310.2	56.0	-59.5	1.6
2025-01-23 15:25:46.509352	310.7	55.7	-59.1	1.1
2025-01-23 15:25:47.651816	311.2	55.3	-60.0	2.9
2025-01-23 15:25:48.792777	311.7	55.0	-59.8	2.7
2025-01-23 15:25:49.939722	312.2	54.6	-60.1	4.4
2025-01-23 15:25:51.081681	312.6	54.2	-59.8	4.4
2025-01-23 15:25:52.224637	313.1	53.9	-59.7	3.4
2025-01-23 15:25:53.366107	313.5	53.5	-59.8	2.8
2025-01-23 15:25:54.510060	313.9	53.2	-59.8	3.8
2025-01-23 15:25:55.652018	314.3	52.8	-59.8	4.6
2025-01-23 15:25:56.795482	314.7	52.5	-60.9	7.1
2025-01-23 15:25:57.938439	315.1	52.1	-59.3	3.0
2025-01-23 15:25:59.080397	315.5	51.7	-59.8	4.8
2025-01-23 15:26:00.224350	315.9	51.4	-59.4	3.9
2025-01-23 15:26:01.366308	316.2	51.0	-59.3	4.2
2025-01-23 15:26:02.507270	316.6	50.7	-61.1	7.1
2025-01-23 15:26:03.650732	317.0	50.4	-59.6	5.3
2025-01-23 15:26:04.792690	317.3	50.0	-59.5	4.3
2025-01-23 15:26:05.937640	317.6	49.7	-60.9	3.3
2025-01-23 15:26:07.083588	318.0	49.3	-61.3	5.4
2025-01-23 15:26:08.224549	318.3	49.0	-59.9	4.9
2025-01-23 15:26:09.367505	318.6	48.6	-60.3	3.5
2025-01-23 15:26:10.510461	318.9	48.3	-59.7	3.6
2025-01-23 15:26:11.654414	319.2	48.0	-60.8	3.8
2025-01-23 15:26:12.796372	319.5	47.6	-60.2	4.7
2025-01-23 15:26:13.939329	319.8	47.3	-60.6	3.8
2025-01-23 15:26:15.081286	320.1	47.0	-60.3	3.2
2025-01-23 15:26:16.226744	320.3	46.6	-59.6	3.8
2025-01-23 15:26:17.372692	320.6	46.3	-60.5	3.6
2025-01-23 15:26:18.513653	320.9	46.0	-59.5	2.4
2025-01-23 15:26:19.655612	321.1	45.7	-61.5	7.5
2025-01-23 15:26:20.799565	321.4	45.4	-59.8	3.2
2025-01-23 15:26:21.940526	321.6	45.0	-59.5	2.8
2025-01-23 15:26:23.082992	321.9	44.7	-59.9	4.0
2025-01-23 15:26:24.223461	322.1	44.4	-59.3	2.4
2025-01-23 15:26:25.367414	322.3	44.1	-59.0	0.6
2025-01-23 15:26:26.507886	322.6	43.8	-59.3	3.5
2025-01-23 15:26:27.651839	322.8	43.5	-59.4	3.8
2025-01-23 15:26:28.793798	323.0	43.2	-59.1	2.9
2025-01-23 15:26:29.935773	323.2	42.9	-58.9	2.3
2025-01-23 15:26:31.079726	323.4	42.6	-59.2	3.4
2025-01-23 15:26:32.221684	323.7	42.3	-58.5	4.6
2025-01-23 15:26:33.363155	323.9	42.0	-58.8	1.3
2025-01-23 15:26:34.509103	324.1	41.7	-58.4	1.3
2025-01-23 15:26:35.652059	324.3	41.4	-58.4	3.0
2025-01-23 15:26:36.793020	324.5	41.1	-58.7	3.6
2025-01-23 15:26:37.936973	324.7	40.8	-58.3	3.6
2025-01-23 15:26:39.079929	324.8	40.5	-59.1	3.5
2025-01-23 15:26:40.223882	325.0	40.2	-58.7	1.4
2025-01-23 15:26:41.368833	325.2	39.9	-58.7	2.1
2025-01-23 15:26:42.509793	325.4	39.7	-59.0	1.9
2025-01-23 15:26:43.652258	325.6	39.4	-58.6	0.4
2025-01-23 15:26:44.798206	325.7	39.1	-59.1	5.0
2025-01-23 15:26:45.940165	325.9	38.8	-58.8	2.1
2025-01-23 15:26:47.082123	326.1	38.5	-59.8	2.7
2025-01-23 15:26:48.225079	326.2	38.3	-59.1	0.8
2025-01-23 15:26:49.367037	326.4	38.0	-59.0	1.7
2025-01-23 15:26:50.511497	326.6	37.7	-58.0	0.0
2025-01-23 15:26:51.652458	326.7	37.5	-59.2	3.1
2025-01-23 15:26:52.794417	326.9	37.2	-58.7	2.1
2025-01-23 15:26:53.934889	327.0	36.9	-58.8	2.9
2025-01-23 15:26:55.078843	327.2	36.7	-59.2	1.8
2025-01-23 15:26:56.220802	327.3	36.4	-59.1	3.0
2025-01-23 15:26:57.363757	327.5	36.2	-59.6	2.7
2025-01-23 15:26:58.506713	327.6	35.9	-59.8	0.0
2025-01-23 15:26:59.648687	327.8	35.7	-58.7	1.1
2025-01-23 15:27:00.790155	327.9	35.4	-59.4	1.8
2025-01-23 15:27:01.936104	328.0	35.2	-58.9	2.2
2025-01-23 15:27:03.078063	328.2	34.9	-60.4	1.4
2025-01-23 15:27:04.218533	328.3	34.7	-58.9	1.7
2025-01-23 15:27:05.359494	328.4	34.4	-59.1	0.4
2025-01-23 15:27:06.502450	328.6	34.2	-59.4	2.4
2025-01-23 15:27:07.643410	328.7	33.9	-59.1	2.0
2025-01-23 15:27:08.788361	328.8	33.7	-59.4	2.9
2025-01-23 15:27:09.932314	328.9	33.5	-59.2	1.1
2025-01-23 15:27:11.072790	329.1	33.2	-59.5	2.7
2025-01-23 15:27:12.215746	329.2	33.0	-58.9	0.7
2025-01-23 15:27:13.359700	329.3	32.8	-59.6	2.1
2025-01-23 15:27:14.501675	329.4	32.5	-60.3	1.2
2025-01-23 15:27:15.645628	329.5	32.3	-61.5	4.2
2025-01-23 15:27:16.788586	329.6	32.1	-60.6	0.0
2025-01-23 15:27:17.932553	329.8	31.8	-62.0	1.3
2025-01-23 15:27:19.075509	329.9	31.6	-62.2	6.0
2025-01-23 15:27:20.215981	330.0	31.4	-60.6	3.6
2025-01-23 15:27:21.357449	330.1	31.2	-59.5	0.0
2025-01-23 15:27:22.499407	330.2	31.0	-60.8	1.3
2025-01-23 15:27:23.639879	330.3	30.7	-60.4	1.9
2025-01-23 15:27:24.785842	330.4	30.5	-61.1	0.0
2025-01-23 15:27:25.932786	330.5	30.3	-61.0	2.9
2025-01-23 15:27:27.073747	330.6	30.1	-58.2	0.0
#Closed at: 2025-01-23 15:21:58.184948