passes_logs/2026/01/30/R2.0S_Moscow/R2.0S_Moscow__20260130_132145_AQUA_rec.log

#Pass ID: 20260130_132145_AQUA
#Satellite: AQUA
#Configuration: AQUA
#almurnet v.1.7.20251203
#Start time: 2026-01-30 13:21:47

#Version: 2.2.20231116
#Station: R2.0S_Moscow
#Location: 37.707566 lon 55.798166 lat
#TLE: 1 27424U 02022A   26029.54575153  .00001738  00000+0  35736-3 0  9994
#TLE: 2 27424  98.4104 356.2197 0001804  61.7823  56.0643 14.61874165263019

#Time	Az	El	Level	Level2	SNR	BER	BlckErr	Temp	State	Recorded	gain1	gain2
2026-01-30 13:21:47.69	216.03	2.13	-44.5	-63.2	3.8	7.45e-01	0	53	0	0	60	31223
2026-01-30 13:21:50.72	216.32	2.29	-44.4	-63.2	3.8	7.46e-01	0	54	104	0	60	31172
2026-01-30 13:21:53.75	216.61	2.46	-44.4	-63.2	3.8	7.45e-01	0	54	104	0	60	31100
2026-01-30 13:21:56.78	216.90	2.62	-44.4	-63.1	3.8	7.45e-01	0	54	104	0	60	31083
2026-01-30 13:21:59.81	217.20	2.78	-44.4	-63.1	3.8	7.46e-01	0	55	104	0	60	31044
2026-01-30 13:22:02.84	217.49	2.95	-44.4	-63.1	3.8	7.45e-01	0	55	104	0	60	30997
2026-01-30 13:22:05.88	217.80	3.11	-44.7	-63.5	3.8	7.47e-01	0	55	104	0	59	34227
2026-01-30 13:22:08.91	218.11	3.28	-44.7	-63.5	3.8	7.41e-01	0	55	104	0	59	34257
2026-01-30 13:22:11.94	218.42	3.44	-44.6	-63.5	3.8	7.45e-01	0	55	104	0	59	34202
2026-01-30 13:22:14.97	218.73	3.61	-44.6	-63.5	3.8	7.44e-01	0	56	104	0	59	34177
2026-01-30 13:22:18.00	219.05	3.77	-44.6	-63.5	3.8	7.44e-01	0	56	104	0	59	34249
2026-01-30 13:22:21.03	219.37	3.94	-44.6	-63.5	3.8	7.46e-01	0	56	104	0	59	34143
2026-01-30 13:22:24.06	219.69	4.11	-44.6	-63.4	3.8	7.45e-01	0	56	104	0	59	34058
2026-01-30 13:22:27.09	220.02	4.28	-44.6	-63.4	3.8	7.45e-01	0	56	104	0	59	34052
2026-01-30 13:22:30.12	220.36	4.44	-44.5	-63.5	3.8	7.46e-01	0	57	104	0	59	34107
2026-01-30 13:22:33.16	220.70	4.61	-44.6	-63.4	3.8	7.46e-01	0	57	104	0	59	34001
2026-01-30 13:22:36.19	221.04	4.78	-44.4	-63.4	3.8	7.46e-01	0	57	104	0	59	34053
2026-01-30 13:22:39.22	221.38	4.95	-44.5	-63.4	3.8	7.40e-01	0	57	104	0	59	33991
2026-01-30 13:22:42.25	221.73	5.12	-44.6	-63.4	3.8	7.46e-01	0	57	104	0	59	33892
2026-01-30 13:22:45.28	222.09	5.29	-44.6	-63.4	3.8	7.44e-01	0	57	104	0	59	33706
2026-01-30 13:22:48.31	222.45	5.46	-44.6	-63.4	3.8	7.47e-01	0	57	104	0	59	33749
2026-01-30 13:22:51.34	222.81	5.63	-44.6	-63.4	3.8	7.49e-01	0	57	104	0	59	33707
2026-01-30 13:22:54.37	223.18	5.80	-44.6	-63.3	3.8	7.48e-01	0	58	104	0	59	33412
2026-01-30 13:22:57.41	223.55	5.97	-44.6	-63.3	3.8	7.48e-01	0	58	104	0	59	33459
2026-01-30 13:23:00.44	223.93	6.15	-44.6	-62.9	3.8	7.49e-01	0	58	104	0	59	31930
2026-01-30 13:23:03.47	224.31	6.32	-44.6	-62.2	3.8	7.43e-01	0	58	104	0	59	29551
2026-01-30 13:23:06.50	224.70	6.49	-44.5	-61.4	3.8	7.44e-01	0	58	104	0	59	26789
2026-01-30 13:23:09.53	225.09	6.66	-44.5	-59.5	4.3	7.30e-01	0	58	104	0	59	21654
2026-01-30 13:23:12.56	225.48	6.84	-44.3	-56.6	5.8	6.86e-01	30	59	0	0	59	15553
2026-01-30 13:23:15.60	225.89	7.01	-43.9	-53.7	8.4	6.39e-01	23	59	0	5242880	59	11063
2026-01-30 13:23:18.63	226.29	7.18	-44.0	-53.1	9.0	6.31e-01	0	58	0	11010048	59	10357
2026-01-30 13:23:21.66	226.71	7.36	-43.8	-56.3	6.0	6.86e-01	92	59	0	16777216	59	15038
2026-01-30 13:23:24.69	227.12	7.53	-44.3	-55.7	6.4	6.74e-01	92	59	0	18350080	59	14019
2026-01-30 13:23:27.72	227.54	7.70	-43.2	-49.8	12.5	6.10e-01	0	59	0	23592960	58	7497
2026-01-30 13:23:30.75	227.97	7.88	-42.8	-48.5	13.8	6.09e-01	0	59	0	29360128	57	6834
2026-01-30 13:23:33.78	228.40	8.05	-44.5	-56.6	4.3	7.25e-01	0	59	104	34603008	60	14699
2026-01-30 13:23:36.82	228.84	8.22	-43.1	-48.6	13.8	6.06e-01	0	59	0	36700160	58	6556
2026-01-30 13:23:39.84	229.29	8.40	-42.9	-48.0	14.7	6.06e-01	0	59	0	41943040	57	6471
2026-01-30 13:23:42.87	229.74	8.57	-42.9	-48.0	14.7	6.09e-01	0	59	0	47710208	57	6456
2026-01-30 13:23:45.90	230.19	8.74	-42.9	-48.0	14.7	6.08e-01	0	59	0	53477376	57	6476
2026-01-30 13:23:48.93	230.65	8.92	-42.8	-47.8	14.9	6.08e-01	0	59	0	58720256	57	6303
2026-01-30 13:23:51.96	231.12	9.09	-42.7	-47.8	14.7	6.07e-01	0	59	0	64487424	57	6324
2026-01-30 13:23:54.99	231.59	9.26	-42.6	-47.7	14.9	6.07e-01	0	60	0	70254592	57	6232
2026-01-30 13:23:58.02	232.07	9.43	-42.7	-47.6	15.0	6.06e-01	0	60	0	76021760	57	6186
2026-01-30 13:24:01.05	232.55	9.61	-42.7	-47.5	15.3	6.06e-01	0	60	0	81788928	57	6076
2026-01-30 13:24:04.08	233.04	9.78	-42.8	-47.5	15.4	6.10e-01	0	60	0	87556096	57	6094
2026-01-30 13:24:07.11	233.54	9.95	-42.8	-47.5	15.4	6.06e-01	0	60	0	92798976	57	6127
2026-01-30 13:24:10.14	234.04	10.12	-42.9	-47.7	15.2	6.07e-01	0	60	0	98566144	57	6244
2026-01-30 13:24:13.17	234.55	10.29	-42.8	-47.6	15.4	6.04e-01	0	60	0	104333312	57	6144
2026-01-30 13:24:16.20	235.06	10.46	-42.8	-47.4	15.5	6.07e-01	0	60	0	110100480	57	6056
2026-01-30 13:24:19.24	235.59	10.63	-42.8	-47.4	15.7	6.08e-01	0	60	0	115867648	57	5995
2026-01-30 13:24:22.27	236.12	10.80	-42.8	-47.3	15.7	6.04e-01	0	60	0	121634816	57	5976
2026-01-30 13:24:25.30	236.65	10.96	-42.8	-47.4	15.6	6.07e-01	0	60	0	127401984	57	6051
2026-01-30 13:24:28.33	237.19	11.13	-42.8	-47.3	15.8	6.05e-01	0	60	0	132644864	57	5967
2026-01-30 13:24:31.36	237.74	11.30	-42.6	-47.1	16.0	6.05e-01	0	61	0	138412032	57	5793
2026-01-30 13:24:34.39	238.29	11.46	-42.8	-47.3	15.9	6.08e-01	0	60	0	144179200	57	5926
2026-01-30 13:24:37.41	238.85	11.62	-42.7	-47.1	16.0	6.08e-01	0	60	0	149946368	57	5840
2026-01-30 13:24:40.44	239.41	11.79	-42.7	-47.1	16.0	6.09e-01	0	60	0	155713536	57	5835
2026-01-30 13:24:43.47	239.99	11.95	-42.7	-47.0	16.1	6.07e-01	0	61	0	160956416	57	5754
2026-01-30 13:24:46.50	240.57	12.11	-42.7	-47.1	16.0	6.07e-01	0	60	0	166723584	57	5832
2026-01-30 13:24:49.53	241.15	12.27	-42.7	-47.0	16.1	6.08e-01	0	60	0	172490752	57	5756
2026-01-30 13:24:52.56	241.74	12.42	-42.8	-47.2	16.0	6.06e-01	0	61	0	178257920	57	5857
2026-01-30 13:24:55.59	242.34	12.58	-42.6	-46.9	16.3	6.10e-01	0	61	0	184025088	57	5673
2026-01-30 13:24:58.61	242.95	12.73	-42.7	-46.9	16.3	6.07e-01	0	61	0	189792256	57	5704
2026-01-30 13:25:01.64	243.56	12.88	-42.8	-47.1	16.1	6.06e-01	0	61	0	195035136	57	5807
2026-01-30 13:25:04.67	244.18	13.03	-42.6	-46.7	16.5	6.06e-01	0	61	0	200802304	57	5575
2026-01-30 13:25:07.70	244.80	13.18	-42.7	-46.8	16.4	6.06e-01	0	61	0	206569472	57	5650
2026-01-30 13:25:10.73	245.43	13.33	-42.6	-46.7	16.5	6.07e-01	0	61	0	212336640	57	5550
2026-01-30 13:25:13.76	246.07	13.47	-42.6	-46.8	16.5	6.05e-01	0	61	0	218103808	57	5601
2026-01-30 13:25:16.79	246.72	13.61	-42.7	-46.8	16.4	6.08e-01	0	61	0	223870976	57	5655
2026-01-30 13:25:19.82	247.37	13.75	-42.6	-46.8	16.5	6.06e-01	0	61	0	229113856	57	5604
2026-01-30 13:25:22.86	248.03	13.89	-42.6	-46.7	16.6	6.07e-01	0	61	0	234881024	57	5560
2026-01-30 13:25:25.89	248.69	14.03	-42.6	-46.7	16.5	6.07e-01	0	61	0	240648192	57	5573
2026-01-30 13:25:28.92	249.36	14.16	-42.6	-46.7	16.6	6.06e-01	0	61	0	246415360	57	5573
2026-01-30 13:25:31.95	250.04	14.29	-42.7	-46.9	16.4	6.06e-01	0	61	0	252182528	57	5684
2026-01-30 13:25:34.97	250.72	14.41	-42.6	-46.7	16.6	6.10e-01	0	61	0	257949696	57	5551
2026-01-30 13:25:38.00	251.41	14.54	-42.5	-46.5	16.7	6.08e-01	0	61	0	263716864	57	5458
2026-01-30 13:25:41.03	252.10	14.66	-42.5	-46.5	16.8	6.06e-01	0	61	0	268959744	57	5453
2026-01-30 13:25:44.06	252.80	14.77	-42.6	-46.7	16.6	6.06e-01	0	61	0	274726912	57	5570
2026-01-30 13:25:47.09	253.51	14.89	-42.6	-46.6	16.7	6.05e-01	0	61	0	280494080	57	5519
2026-01-30 13:25:50.12	254.22	15.00	-42.6	-46.7	16.6	6.05e-01	0	61	0	286261248	57	5529
2026-01-30 13:25:53.15	254.94	15.11	-42.5	-46.5	16.8	6.07e-01	0	61	0	292028416	57	5426
2026-01-30 13:25:56.18	255.66	15.21	-42.6	-46.7	16.6	6.07e-01	0	61	0	297271296	57	5588
2026-01-30 13:25:59.21	256.38	15.31	-42.6	-46.6	16.6	6.07e-01	0	62	0	303038464	57	5522
2026-01-30 13:26:02.24	257.12	15.41	-42.5	-46.4	16.9	6.05e-01	0	61	0	308805632	56	5682
2026-01-30 13:26:05.27	257.85	15.50	-42.6	-46.6	16.7	6.06e-01	0	61	0	314572800	56	5812
2026-01-30 13:26:08.29	258.59	15.59	-42.6	-46.6	16.6	6.05e-01	0	61	0	320339968	56	5854
2026-01-30 13:26:11.33	259.34	15.67	-42.5	-46.6	16.7	6.06e-01	0	62	0	326107136	56	5806
2026-01-30 13:26:14.36	260.09	15.75	-42.6	-46.6	16.6	6.07e-01	0	62	0	331874304	56	5847
2026-01-30 13:26:17.39	260.85	15.83	-42.5	-46.6	16.6	6.05e-01	0	61	0	337117184	56	5817
2026-01-30 13:26:20.42	261.60	15.90	-42.5	-46.6	16.5	6.07e-01	0	61	0	342884352	56	5847
2026-01-30 13:26:23.45	262.36	15.97	-42.5	-46.5	16.6	6.07e-01	0	62	0	348651520	56	5755
2026-01-30 13:26:26.48	263.13	16.03	-42.5	-46.6	16.6	6.08e-01	0	62	0	354418688	56	5794
2026-01-30 13:26:29.51	263.90	16.09	-42.5	-46.5	16.6	6.05e-01	0	62	0	360185856	56	5774
2026-01-30 13:26:32.54	264.67	16.15	-42.5	-46.6	16.5	6.07e-01	0	62	0	365428736	56	5829
2026-01-30 13:26:35.57	265.44	16.20	-42.5	-46.6	16.5	6.07e-01	0	62	0	371195904	56	5831
2026-01-30 13:26:38.60	266.22	16.24	-42.4	-46.6	16.5	6.06e-01	0	62	0	376963072	56	5798
2026-01-30 13:26:41.63	267.00	16.28	-42.5	-46.7	16.3	6.07e-01	0	62	0	382730240	56	5923
2026-01-30 13:26:44.66	267.78	16.32	-42.5	-46.8	16.3	6.07e-01	0	62	0	388497408	56	5941
2026-01-30 13:26:47.69	268.56	16.35	-42.6	-46.8	16.2	6.08e-01	0	62	0	394264576	56	5990
2026-01-30 13:26:50.72	269.35	16.37	-42.5	-46.7	16.4	6.08e-01	0	62	0	400031744	56	5861
2026-01-30 13:26:53.75	270.13	16.40	-42.5	-46.7	16.4	6.06e-01	0	62	0	405274624	56	5864
2026-01-30 13:26:56.78	270.92	16.41	-42.5	-46.8	16.2	6.06e-01	0	62	0	411041792	56	5955
2026-01-30 13:26:59.81	271.70	16.42	-42.5	-46.8	16.2	6.06e-01	0	62	0	416808960	56	5937
2026-01-30 13:27:02.84	272.49	16.43	-42.5	-46.6	16.4	6.08e-01	0	62	0	422576128	56	5847
2026-01-30 13:27:05.87	273.28	16.43	-42.4	-46.5	16.5	6.06e-01	0	62	0	428343296	56	5756
2026-01-30 13:27:08.90	274.06	16.43	-42.4	-46.6	16.3	6.07e-01	0	62	0	434110464	56	5831
2026-01-30 13:27:11.93	274.85	16.42	-42.1	-46.8	16.1	6.05e-01	0	62	0	439353344	56	5958
2026-01-30 13:27:14.96	275.64	16.41	-42.1	-46.9	15.9	6.07e-01	0	62	0	445120512	56	6041
2026-01-30 13:27:17.99	276.42	16.39	-41.7	-46.5	16.2	6.08e-01	0	62	0	450887680	55	6087
2026-01-30 13:27:21.01	277.20	16.37	-41.7	-46.6	16.1	6.06e-01	0	62	0	456654848	55	6183
2026-01-30 13:27:24.04	277.99	16.34	-42.3	-46.6	16.3	6.07e-01	0	62	0	462422016	55	6134
2026-01-30 13:27:27.07	278.77	16.30	-42.3	-46.5	16.2	6.06e-01	0	62	0	468189184	55	6131
2026-01-30 13:27:30.10	279.55	16.27	-42.3	-46.6	16.1	6.07e-01	0	62	0	473432064	55	6170
2026-01-30 13:27:33.13	280.32	16.23	-42.4	-46.7	16.0	6.05e-01	0	62	0	479199232	55	6251
2026-01-30 13:27:36.16	281.10	16.18	-42.3	-46.7	16.0	6.08e-01	0	62	0	484966400	55	6255
2026-01-30 13:27:39.19	281.87	16.13	-42.4	-46.7	16.0	6.07e-01	0	62	0	490733568	55	6260
2026-01-30 13:27:42.22	282.64	16.07	-42.3	-46.5	16.2	6.06e-01	0	62	0	496500736	55	6125
2026-01-30 13:27:45.25	283.40	16.01	-42.3	-46.7	16.0	6.04e-01	0	62	0	502267904	55	6248
2026-01-30 13:27:48.28	284.16	15.95	-42.3	-46.7	16.0	6.07e-01	0	62	0	507510784	55	6214
2026-01-30 13:27:51.31	284.92	15.88	-42.3	-46.7	15.9	6.07e-01	0	62	0	513277952	55	6243
2026-01-30 13:27:54.34	285.68	15.80	-42.3	-46.8	15.8	6.07e-01	0	62	0	519045120	55	6301
2026-01-30 13:27:57.38	286.43	15.72	-42.1	-46.4	16.2	6.06e-01	0	62	0	524812288	55	5997
2026-01-30 13:28:00.40	287.17	15.64	-42.1	-46.4	16.2	6.09e-01	0	62	0	530579456	55	6014
2026-01-30 13:28:03.43	287.91	15.56	-42.1	-46.4	16.1	6.10e-01	0	62	0	536346624	55	6037
2026-01-30 13:28:06.47	288.65	15.47	-42.1	-46.4	16.2	6.06e-01	0	62	0	541589504	55	6003
2026-01-30 13:28:09.50	289.39	15.37	-42.0	-46.3	16.2	6.06e-01	0	62	0	547356672	55	5966
2026-01-30 13:28:12.53	290.11	15.28	-42.0	-46.4	16.1	6.09e-01	0	62	0	553123840	55	6000
2026-01-30 13:28:15.56	290.84	15.18	-42.2	-46.8	15.6	6.07e-01	0	62	0	558891008	55	6298
2026-01-30 13:28:18.59	291.55	15.07	-42.1	-46.7	15.6	6.08e-01	0	62	0	564658176	55	6227
2026-01-30 13:28:21.62	292.26	14.96	-42.0	-46.5	15.8	6.07e-01	0	62	0	570425344	55	6105
2026-01-30 13:28:24.66	292.97	14.85	-42.2	-46.8	15.5	6.07e-01	0	62	0	576192512	55	6331
2026-01-30 13:28:27.69	293.67	14.74	-42.2	-46.9	15.5	6.09e-01	0	62	0	581435392	55	6371
2026-01-30 13:28:30.72	294.37	14.62	-42.3	-47.2	15.2	6.09e-01	0	62	0	587202560	55	6576
2026-01-30 13:28:33.75	295.06	14.50	-42.4	-47.3	15.1	6.07e-01	0	62	0	592969728	55	6667
2026-01-30 13:28:36.78	295.74	14.37	-42.3	-47.0	15.4	6.06e-01	0	62	0	598736896	55	6467
2026-01-30 13:28:39.80	296.41	14.25	-42.4	-47.1	15.4	6.07e-01	0	62	0	604504064	55	6519
2026-01-30 13:28:42.84	297.09	14.12	-42.4	-47.0	15.5	6.06e-01	0	62	0	609746944	55	6461
2026-01-30 13:28:45.86	297.75	13.99	-42.4	-46.9	15.6	6.07e-01	0	62	0	615514112	55	6399
2026-01-30 13:28:48.89	298.41	13.85	-42.5	-56.0	3.8	7.41e-01	0	62	104	618135552	55	18237
2026-01-30 13:28:51.92	299.06	13.72	-44.5	-62.4	3.7	7.47e-01	0	62	104	618135552	60	28516
2026-01-30 13:28:54.95	299.71	13.58	-42.7	-56.3	3.8	7.48e-01	0	62	104	618135552	57	16870
2026-01-30 13:28:57.98	300.34	13.43	-44.0	-59.7	3.8	7.46e-01	0	62	104	618135552	58	23474
2026-01-30 13:29:01.01	300.98	13.29	-43.9	-59.4	3.7	7.44e-01	0	62	104	618135552	58	22568
2026-01-30 13:29:04.04	301.60	13.15	-42.6	-56.1	3.8	7.47e-01	0	62	104	618135552	57	16395
2026-01-30 13:29:07.07	302.22	13.00	-43.2	-57.1	3.9	7.41e-01	0	62	104	618135552	58	17479
2026-01-30 13:29:10.10	302.84	12.85	-44.7	-62.8	3.8	7.49e-01	0	62	104	618135552	60	29772
2026-01-30 13:29:13.14	303.44	12.70	-42.6	-56.1	3.8	7.46e-01	0	62	104	618135552	57	16454
2026-01-30 13:29:16.17	304.04	12.54	-44.5	-62.0	3.8	7.42e-01	0	62	104	618135552	60	27344
2026-01-30 13:29:19.20	304.64	12.39	-42.7	-56.3	3.8	7.45e-01	0	62	104	618135552	57	16813
2026-01-30 13:29:22.23	305.22	12.23	-43.4	-58.3	3.8	7.40e-01	0	62	104	618135552	57	21197
2026-01-30 13:29:25.26	305.81	12.08	-43.3	-58.0	3.9	7.42e-01	0	62	104	618135552	58	19206
2026-01-30 13:29:28.29	306.38	11.92	-42.6	-56.3	3.8	7.45e-01	0	62	104	618135552	57	16729
2026-01-30 13:29:31.33	306.95	11.76	-42.7	-56.6	3.8	7.44e-01	0	62	104	618135552	57	17329
2026-01-30 13:29:34.36	307.51	11.60	-44.3	-61.4	3.9	7.44e-01	0	62	104	618135552	60	25527
2026-01-30 13:29:37.39	308.06	11.43	-42.8	-56.6	3.8	7.46e-01	0	62	104	618135552	57	17397
2026-01-30 13:29:40.42	308.61	11.27	-44.1	-60.5	3.9	7.42e-01	0	62	104	618135552	59	24141
2026-01-30 13:29:43.44	309.15	11.11	-42.7	-56.5	3.8	7.41e-01	0	62	104	618135552	57	17195
2026-01-30 13:29:46.47	309.69	10.94	-43.3	-58.1	3.8	7.44e-01	0	62	104	618135552	58	19465
2026-01-30 13:29:49.50	310.21	10.78	-42.8	-56.8	3.8	7.47e-01	0	62	104	618135552	57	17792
2026-01-30 13:29:52.53	310.74	10.61	-42.7	-56.6	3.8	7.43e-01	0	62	104	618135552	57	17434
2026-01-30 13:29:55.56	311.25	10.44	-43.4	-58.2	3.8	7.47e-01	0	62	104	618135552	57	21002
2026-01-30 13:29:58.59	311.76	10.27	-43.6	-58.8	3.9	7.47e-01	0	62	104	618135552	59	19956
2026-01-30 13:30:01.61	312.26	10.11	-43.0	-57.6	3.8	7.46e-01	0	62	104	618135552	57	19400
2026-01-30 13:30:04.64	312.76	9.94	-43.2	-58.1	3.8	7.44e-01	0	62	104	618135552	58	19468
2026-01-30 13:30:07.67	313.25	9.77	-42.7	-56.7	3.8	7.44e-01	0	62	104	618135552	57	17542
2026-01-30 13:30:10.70	313.74	9.60	-43.0	-57.3	3.8	7.45e-01	0	62	104	618135552	57	18779
2026-01-30 13:30:13.73	314.22	9.43	-44.0	-59.9	3.7	7.49e-01	0	62	104	618135552	58	24046
2026-01-30 13:30:16.76	314.69	9.26	-42.8	-57.1	3.8	7.47e-01	0	62	104	618135552	57	18416
2026-01-30 13:30:19.79	315.16	9.09	-44.3	-61.4	3.8	7.46e-01	0	62	104	618135552	59	27061
2026-01-30 13:30:22.82	315.62	8.91	-42.9	-57.2	3.8	7.44e-01	0	62	104	618135552	57	18639
2026-01-30 13:30:25.85	316.08	8.74	-43.8	-60.2	3.8	7.47e-01	0	62	104	618135552	58	24827
2026-01-30 13:30:28.88	316.53	8.57	-43.6	-59.2	3.8	7.45e-01	0	62	104	618135552	58	22147
2026-01-30 13:30:31.91	316.98	8.40	-42.8	-57.0	3.8	7.43e-01	0	62	104	618135552	57	18183
2026-01-30 13:30:34.94	317.42	8.23	-37.6	-57.2	3.8	7.57e-01	0	62	104	618135552	46	35252
2026-01-30 13:30:37.97	317.85	8.06	-38.4	-62.9	3.8	7.51e-01	0	62	104	618135552	49	56781
2026-01-30 13:30:41.00	318.28	7.89	-43.1	-64.7	3.9	7.43e-01	0	62	104	618135552	56	46583
2026-01-30 13:30:44.04	318.71	7.71	-37.3	-61.6	3.2	7.76e-01	0	62	104	618135552	44	65535
2026-01-30 13:30:47.07	319.12	7.54	-43.4	-66.1	3.9	7.39e-01	0	62	104	618135552	56	54788
2026-01-30 13:30:50.10	319.54	7.37	-44.8	-64.9	4.1	7.45e-01	0	62	104	618135552	60	37875
2026-01-30 13:30:53.13	319.95	7.20	-46.2	-64.9	3.8	7.47e-01	0	62	104	618135552	62	33741
2026-01-30 13:30:56.16	320.35	7.03	-46.1	-64.8	3.8	7.46e-01	0	62	104	618135552	62	33440
2026-01-30 13:30:59.19	320.75	6.86	-46.1	-64.8	3.8	7.49e-01	0	62	104	618135552	62	33322
2026-01-30 13:31:02.22	321.14	6.69	-46.1	-64.8	3.8	7.48e-01	0	62	104	618135552	62	33346
2026-01-30 13:31:05.25	321.53	6.52	-46.1	-64.7	3.8	7.47e-01	0	62	104	618135552	62	33236
2026-01-30 13:31:08.29	321.92	6.35	-46.1	-64.8	3.8	7.46e-01	0	62	104	618135552	62	33345
2026-01-30 13:31:11.32	322.30	6.18	-46.1	-64.8	3.8	7.46e-01	0	62	104	618135552	62	33322
2026-01-30 13:31:14.35	322.67	6.01	-46.1	-64.8	3.8	7.44e-01	0	62	104	618135552	62	33330
2026-01-30 13:31:17.38	323.04	5.84	-46.1	-64.8	3.8	7.46e-01	0	62	104	618135552	62	33315
2026-01-30 13:31:20.41	323.41	5.67	-46.1	-64.7	3.8	7.45e-01	0	62	104	618135552	62	33299
2026-01-30 13:31:23.44	323.77	5.50	-46.0	-64.7	3.8	7.44e-01	0	62	104	618135552	62	33261
2026-01-30 13:31:26.47	324.12	5.33	-46.0	-64.7	3.8	7.46e-01	0	62	104	618135552	62	33281
2026-01-30 13:31:29.50	324.48	5.16	-45.9	-64.7	3.8	7.44e-01	0	62	104	618135552	62	33285
2026-01-30 13:31:32.53	324.82	4.99	-46.0	-64.7	3.8	7.46e-01	0	62	104	618135552	62	33266
2026-01-30 13:31:35.57	325.17	4.83	-46.1	-64.7	3.8	7.48e-01	0	62	104	618135552	62	33218
2026-01-30 13:31:38.60	325.51	4.66	-46.1	-64.7	3.8	7.46e-01	0	63	104	618135552	62	33265
2026-01-30 13:31:41.63	325.85	4.49	-45.9	-64.7	3.8	7.45e-01	0	62	104	618135552	62	33225
2026-01-30 13:31:44.66	326.18	4.33	-46.0	-64.7	3.8	7.45e-01	0	62	104	618135552	62	33241
2026-01-30 13:31:47.69	326.51	4.16	-46.0	-64.7	3.8	7.45e-01	0	62	104	618135552	62	33265
2026-01-30 13:31:50.73	326.83	4.00	-46.0	-64.7	3.8	7.45e-01	0	62	104	618135552	62	33236
2026-01-30 13:31:53.76	327.15	3.83	-46.1	-64.7	3.8	7.46e-01	0	62	104	618135552	62	33284
2026-01-30 13:31:56.79	327.47	3.67	-46.1	-64.7	3.8	7.46e-01	0	63	104	618135552	62	33282
2026-01-30 13:31:59.82	327.78	3.50	-46.0	-64.7	3.8	7.47e-01	0	62	104	618135552	62	33230
2026-01-30 13:32:02.85	328.09	3.34	-46.0	-64.7	3.8	7.48e-01	0	62	104	618135552	62	33257
2026-01-30 13:32:05.88	328.40	3.18	-46.1	-64.7	3.8	7.47e-01	0	62	104	618135552	62	33244
2026-01-30 13:32:08.91	328.70	3.01	-46.1	-64.7	3.8	7.44e-01	0	63	104	618135552	62	33220
2026-01-30 13:32:11.94	329.00	2.85	-46.0	-64.7	3.8	7.44e-01	0	62	104	618135552	62	33228
2026-01-30 13:32:14.97	329.29	2.69	-46.1	-64.7	3.8	7.42e-01	0	62	104	618135552	62	33263
2026-01-30 13:32:18.00	329.58	2.53	-46.0	-64.7	3.8	7.45e-01	0	62	104	618135552	62	33211
2026-01-30 13:32:21.03	329.87	2.37	-46.0	-64.7	3.8	7.43e-01	0	63	104	618135552	62	33237
2026-01-30 13:32:24.06	330.16	2.21	-46.0	-64.7	3.8	7.44e-01	0	62	104	618135552	62	33214
2026-01-30 13:32:27.09	330.44	2.05	-46.0	-64.7	3.8	7.45e-01	0	63	104	618135552	62	33253

#Closed at: 2026-01-30 13:32:28
#Recorded file [618 MB]: D:/lorett/data/31039_260130_162147.dat