passes_logs/2026/01/30/R2.0S_Moscow/R2.0S_Moscow__20260130_100434_NOAA_20_JPSS-1_rec.log

#Pass ID: 20260130_100434_NOAA 20 (JPSS-1)
#Satellite: NOAA 20 (JPSS-1)
#Configuration: NOAA 20
#almurnet v.1.7.20251203
#Start time: 2026-01-30 10:04:36

#Version: 2.2.20231116
#Station: R2.0S_Moscow
#Location: 37.707566 lon 55.798166 lat
#TLE: 1 43013U 17073A   26029.42702672  .00000137  00000+0  85918-4 0  9993
#TLE: 2 43013  98.7646 330.2153 0000804  19.9045 340.2162 14.19525092424781

#Time	Az	El	Level	Level2	SNR	BER	BlckErr	Temp	State	Recorded	gain1	gain2
2026-01-30 10:04:36.16	165.02	2.14	-44.1	-58.7	3.8	1.49e+00	0	54	0	0	59	19618
2026-01-30 10:04:40.19	165.06	2.40	-44.1	-58.6	3.8	1.49e+00	0	54	104	0	59	19597
2026-01-30 10:04:44.23	165.10	2.66	-44.0	-58.6	3.8	1.49e+00	0	54	104	0	59	19599
2026-01-30 10:04:48.27	165.14	2.93	-44.0	-58.6	3.8	1.49e+00	0	55	104	0	59	19589
2026-01-30 10:04:52.31	165.17	3.20	-44.0	-58.6	3.8	1.49e+00	0	55	104	0	59	19603
2026-01-30 10:04:56.36	165.21	3.47	-44.0	-58.6	3.8	1.49e+00	0	55	104	0	59	19570
2026-01-30 10:05:00.40	165.25	3.75	-44.0	-58.6	3.8	1.49e+00	0	55	104	0	59	19531
2026-01-30 10:05:04.44	165.30	4.02	-44.0	-58.6	3.8	1.49e+00	0	56	104	0	59	19522
2026-01-30 10:05:08.48	165.34	4.30	-44.0	-58.6	3.8	1.49e+00	0	56	104	0	59	19486
2026-01-30 10:05:12.52	165.38	4.59	-44.0	-58.6	3.8	1.49e+00	0	56	104	0	59	19506
2026-01-30 10:05:16.56	165.42	4.87	-44.0	-58.6	3.8	1.49e+00	0	56	104	0	59	19506
2026-01-30 10:05:20.60	165.46	5.16	-44.0	-58.4	3.8	1.49e+00	0	56	104	0	59	19109
2026-01-30 10:05:24.64	165.51	5.46	-44.0	-57.5	3.8	1.49e+00	0	57	104	0	59	17122
2026-01-30 10:05:28.68	165.55	5.75	-43.8	-55.5	4.1	1.45e+00	0	57	104	0	58	14506
2026-01-30 10:05:32.72	165.60	6.05	-43.7	-54.4	4.4	1.34e+00	49	57	0	0	58	12723
2026-01-30 10:05:36.76	165.64	6.36	-43.6	-53.3	4.8	8.11e-01	0	57	0	7340032	58	11244
2026-01-30 10:05:40.80	165.69	6.66	-43.4	-51.9	5.7	4.53e-01	0	58	0	14680064	58	9586
2026-01-30 10:05:44.85	165.74	6.97	-43.3	-51.1	6.3	2.75e-01	0	58	0	22020096	58	8726
2026-01-30 10:05:48.89	165.79	7.29	-43.1	-50.3	7.0	1.66e-01	0	58	0	30408704	57	8433
2026-01-30 10:05:52.94	165.84	7.61	-43.0	-50.0	7.3	1.19e-01	0	58	0	37748736	57	8093
2026-01-30 10:05:56.98	165.89	7.93	-42.9	-49.7	7.5	1.01e-01	0	58	0	45088768	57	7881
2026-01-30 10:06:01.02	165.94	8.26	-43.4	-52.9	5.0	1.01e-01	0	58	0	52428800	57	11402
2026-01-30 10:06:05.06	165.99	8.59	-43.0	-49.2	8.2	5.66e-02	0	59	0	60817408	57	7427
2026-01-30 10:06:09.10	166.04	8.92	-43.0	-49.3	8.2	5.01e-02	0	59	0	68157440	57	7523
2026-01-30 10:06:13.14	166.10	9.26	-42.9	-49.0	8.5	4.37e-02	0	59	0	75497472	57	7248
2026-01-30 10:06:17.18	166.15	9.60	-42.9	-48.8	8.8	3.32e-02	0	59	0	82837504	57	7046
2026-01-30 10:06:21.22	166.21	9.95	-42.8	-48.6	9.0	2.61e-02	0	59	0	91226112	57	6914
2026-01-30 10:06:25.25	166.26	10.31	-42.9	-48.6	8.9	2.52e-02	0	59	0	98566144	57	6956
2026-01-30 10:06:29.29	166.32	10.67	-42.8	-48.4	9.2	2.28e-02	0	59	0	105906176	57	6784
2026-01-30 10:06:33.34	166.38	11.03	-42.8	-48.4	9.2	1.79e-02	0	59	0	113246208	57	6800
2026-01-30 10:06:37.38	166.44	11.40	-42.8	-48.4	9.3	1.80e-02	0	59	0	120586240	57	6760
2026-01-30 10:06:41.42	166.50	11.78	-42.9	-48.4	9.4	1.56e-02	0	59	0	128974848	57	6731
2026-01-30 10:06:45.46	166.57	12.16	-42.7	-48.0	9.7	1.11e-02	0	60	0	136314880	57	6492
2026-01-30 10:06:49.50	166.63	12.55	-42.7	-48.0	9.8	9.11e-03	0	60	0	143654912	57	6441
2026-01-30 10:06:53.54	166.70	12.94	-42.6	-47.7	10.2	5.55e-03	0	60	0	150994944	57	6208
2026-01-30 10:06:57.58	166.77	13.34	-42.6	-47.5	10.4	5.16e-03	0	60	0	159383552	57	6093
2026-01-30 10:07:01.62	166.83	13.75	-42.5	-47.3	10.6	3.50e-03	0	60	0	166723584	57	5973
2026-01-30 10:07:05.66	166.91	14.16	-42.5	-47.2	10.7	3.53e-03	0	60	0	174063616	57	5897
2026-01-30 10:07:09.70	166.98	14.58	-42.5	-47.0	11.0	1.99e-03	0	60	0	181403648	56	6102
2026-01-30 10:07:13.74	167.05	15.01	-42.4	-46.9	11.0	1.67e-03	0	60	0	188743680	56	6050
2026-01-30 10:07:17.78	167.13	15.45	-42.4	-46.7	11.3	1.31e-03	0	60	0	197132288	56	5921
2026-01-30 10:07:21.82	167.21	15.89	-42.4	-46.8	11.2	1.43e-03	0	60	0	204472320	56	5952
2026-01-30 10:07:25.86	167.28	16.34	-42.4	-46.7	11.4	1.08e-03	0	61	0	211812352	56	5900
2026-01-30 10:07:29.90	167.37	16.81	-42.4	-46.8	11.3	1.22e-03	0	60	0	219152384	56	5933
2026-01-30 10:07:33.94	167.45	17.27	-42.3	-46.6	11.5	9.48e-04	0	60	0	227540992	56	5820
2026-01-30 10:07:37.97	167.54	17.75	-42.3	-46.5	11.6	7.06e-04	0	60	0	234881024	56	5739
2026-01-30 10:07:42.01	167.63	18.24	-42.2	-46.4	11.8	5.29e-04	0	61	0	242221056	56	5671
2026-01-30 10:07:46.05	167.72	18.74	-42.3	-46.5	11.7	6.37e-04	0	61	0	249561088	56	5739
2026-01-30 10:07:50.09	167.81	19.25	-42.2	-46.2	12.0	3.96e-04	0	60	0	256901120	56	5575
2026-01-30 10:07:54.13	167.91	19.77	-42.2	-46.3	11.9	3.79e-04	0	61	0	265289728	56	5634
2026-01-30 10:07:58.17	168.01	20.30	-42.3	-46.4	11.8	4.95e-04	0	61	0	272629760	56	5720
2026-01-30 10:08:02.21	168.11	20.84	-42.4	-46.5	11.6	6.48e-04	0	61	0	279969792	56	5785
2026-01-30 10:08:06.25	168.22	21.39	-42.3	-46.5	11.7	5.84e-04	0	61	0	287309824	56	5735
2026-01-30 10:08:10.29	168.33	21.96	-42.4	-46.6	11.6	7.13e-04	0	61	0	295698432	56	5800
2026-01-30 10:08:14.32	168.44	22.53	-42.4	-46.6	11.6	7.16e-04	0	61	0	303038464	56	5850
2026-01-30 10:08:18.36	168.55	23.12	-42.5	-46.8	11.4	9.20e-04	0	61	0	310378496	56	5953
2026-01-30 10:08:22.40	168.68	23.73	-42.5	-46.8	11.5	7.60e-04	0	61	0	317718528	56	5924
2026-01-30 10:08:26.44	168.80	24.35	-42.5	-46.8	11.4	9.41e-04	0	61	0	325058560	56	5964
2026-01-30 10:08:30.48	168.93	24.98	-42.5	-46.7	11.6	7.01e-04	0	61	0	333447168	56	5891
2026-01-30 10:08:34.52	169.07	25.63	-42.5	-46.8	11.4	9.44e-04	0	61	0	340787200	56	5985
2026-01-30 10:08:38.56	169.21	26.30	-42.5	-46.8	11.5	9.00e-04	0	61	0	348127232	56	5962
2026-01-30 10:08:42.60	169.35	26.98	-42.7	-47.2	11.0	1.48e-03	0	61	0	355467264	56	6236
2026-01-30 10:08:46.63	169.50	27.68	-42.8	-47.5	10.7	2.96e-03	0	61	0	363855872	56	6470
2026-01-30 10:08:50.67	169.66	28.40	-43.0	-47.9	10.3	4.68e-03	0	61	0	371195904	56	6768
2026-01-30 10:08:54.71	169.82	29.14	-43.0	-48.0	10.2	5.70e-03	0	61	0	378535936	56	6828
2026-01-30 10:08:58.75	170.00	29.89	-43.2	-48.5	9.7	1.01e-02	0	61	0	385875968	56	7206
2026-01-30 10:09:02.79	170.17	30.67	-43.3	-48.7	9.5	1.32e-02	0	61	0	393216000	57	7027
2026-01-30 10:09:06.82	170.36	31.47	-43.3	-48.8	9.4	1.67e-02	0	61	0	401604608	57	7046
2026-01-30 10:09:10.86	170.56	32.29	-43.4	-49.0	9.2	1.86e-02	0	61	0	408944640	57	7220
2026-01-30 10:09:14.90	170.76	33.13	-43.3	-48.8	9.4	1.61e-02	0	61	0	416284672	57	7093
2026-01-30 10:09:18.94	170.98	34.00	-42.9	-47.8	10.5	4.72e-03	0	62	0	423624704	57	6313
2026-01-30 10:09:22.98	171.21	34.89	-42.6	-46.9	11.5	9.02e-04	0	61	0	432013312	57	5671
2026-01-30 10:09:27.02	171.45	35.81	-42.3	-46.3	12.1	3.42e-04	0	61	0	439353344	56	5614
2026-01-30 10:09:31.06	171.70	36.75	-42.1	-45.9	12.5	1.49e-04	0	61	0	446693376	56	5387
2026-01-30 10:09:35.10	171.97	37.72	-41.9	-45.6	12.7	5.64e-05	0	61	0	454033408	55	5499
2026-01-30 10:09:39.14	172.25	38.72	-41.9	-45.6	12.6	1.57e-04	0	61	0	461373440	55	5499
2026-01-30 10:09:43.18	172.55	39.75	-42.1	-46.1	12.2	2.85e-04	0	61	0	469762048	55	5814
2026-01-30 10:09:47.22	172.87	40.81	-42.2	-46.3	12.0	2.72e-04	0	61	0	477102080	55	5934
2026-01-30 10:09:51.26	173.21	41.90	-42.7	-47.3	10.9	1.58e-03	0	62	0	484442112	55	6664
2026-01-30 10:09:55.30	173.57	43.02	-42.8	-47.3	11.1	2.19e-03	0	62	0	491782144	56	6303
2026-01-30 10:09:59.34	173.96	44.17	-42.6	-46.9	11.5	7.48e-04	0	62	0	500170752	56	6053
2026-01-30 10:10:03.38	174.38	45.36	-43.1	-48.0	10.3	4.50e-03	0	62	0	507510784	56	6873
2026-01-30 10:10:07.42	174.83	46.58	-43.3	-48.6	9.7	1.19e-02	0	61	0	514850816	57	6915
2026-01-30 10:10:11.46	175.32	47.84	-43.6	-49.4	8.9	2.82e-02	0	61	0	522190848	57	7630
2026-01-30 10:10:15.50	175.84	49.13	-42.9	-47.6	10.8	3.18e-03	0	62	0	529530880	57	6160
2026-01-30 10:10:19.54	176.41	50.46	-42.8	-47.3	11.1	1.37e-03	0	62	0	537919488	57	5975
2026-01-30 10:10:23.58	177.04	51.83	-41.4	-44.6	13.8	9.10e-06	0	62	0	545259520	54	5187
2026-01-30 10:10:27.62	177.72	53.23	-40.9	-43.9	14.5	7.00e-07	0	62	0	552599552	53	5055
2026-01-30 10:10:31.66	178.47	54.67	-40.7	-43.5	14.9	0.00e+00	0	62	0	559939584	53	4825
2026-01-30 10:10:35.70	179.30	56.14	-41.1	-44.1	14.3	7.00e-07	0	62	0	568328192	53	5177
2026-01-30 10:10:39.74	180.22	57.64	-41.3	-44.5	13.8	2.20e-06	0	62	0	575668224	53	5436
2026-01-30 10:10:43.78	181.25	59.18	-41.4	-44.8	13.6	6.10e-06	0	62	0	583008256	53	5598
2026-01-30 10:10:47.82	182.41	60.75	-41.3	-44.4	14.0	4.50e-06	0	62	0	590348288	53	5383
2026-01-30 10:10:51.87	183.73	62.35	-40.7	-43.5	14.8	0.00e+00	0	61	0	598736896	53	4862
2026-01-30 10:10:55.91	185.22	63.97	-41.9	-45.5	12.9	1.52e-05	0	62	0	606076928	54	5748
2026-01-30 10:10:59.95	186.94	65.61	-42.2	-46.2	12.1	2.88e-04	0	62	0	613416960	55	5861
2026-01-30 10:11:03.99	188.93	67.26	-42.9	-47.6	10.8	2.24e-03	0	62	0	620756992	56	6509
2026-01-30 10:11:08.03	191.26	68.91	-42.6	-47.0	11.5	1.16e-03	0	62	0	628097024	56	6067
2026-01-30 10:11:12.08	194.03	70.56	-42.4	-46.6	11.8	5.41e-04	0	61	0	636485632	56	5819
2026-01-30 10:11:16.12	197.33	72.18	-42.6	-46.9	11.4	1.44e-03	0	62	0	643825664	56	6061
2026-01-30 10:11:20.16	201.32	73.75	-43.6	-49.8	8.4	2.78e-02	0	62	0	651165696	57	7919
2026-01-30 10:11:24.19	206.16	75.25	-43.3	-48.9	9.5	9.26e-03	0	62	0	658505728	57	7128
2026-01-30 10:11:28.23	212.11	76.65	-43.8	-50.6	7.7	1.10e-01	0	62	0	666894336	58	8207
2026-01-30 10:11:32.27	219.41	77.88	-43.3	-48.7	9.5	1.69e-02	0	62	0	674234368	57	7020
2026-01-30 10:11:36.31	228.22	78.90	-42.4	-46.6	11.8	1.11e-03	0	62	0	681574400	56	5846
2026-01-30 10:11:40.35	238.55	79.61	-42.1	-46.2	11.9	2.20e-04	0	62	0	688914432	54	6254
2026-01-30 10:11:44.39	249.99	79.95	-42.2	-46.3	11.9	4.02e-04	0	62	0	696254464	55	5976
2026-01-30 10:11:48.43	261.74	79.88	-42.3	-46.6	11.6	1.08e-03	0	62	0	704643072	55	6137
2026-01-30 10:11:52.48	272.91	79.41	-43.0	-48.2	10.2	4.80e-03	0	62	0	711983104	56	6971
2026-01-30 10:11:56.52	282.75	78.59	-42.9	-47.8	10.6	1.59e-03	0	62	0	719323136	56	6665
2026-01-30 10:12:00.55	291.02	77.50	-43.3	-48.8	9.5	9.02e-03	0	62	0	726663168	57	7103
2026-01-30 10:12:04.59	297.84	76.20	-43.8	-50.5	7.8	5.79e-02	0	62	0	735051776	58	8168
2026-01-30 10:12:08.63	303.40	74.77	-43.4	-49.9	8.5	5.34e-02	0	62	0	742391808	58	7557
2026-01-30 10:12:12.67	307.94	73.24	-43.3	-48.8	9.4	2.02e-02	0	62	0	749731840	57	7084
2026-01-30 10:12:16.72	311.68	71.65	-42.3	-46.3	12.1	4.70e-04	0	62	0	757071872	56	5643
2026-01-30 10:12:20.76	314.78	70.02	-43.0	-47.9	10.4	3.18e-03	0	62	0	764411904	56	6789
2026-01-30 10:12:24.79	317.38	68.38	-43.4	-49.0	9.3	2.05e-02	0	62	0	772800512	57	7241
2026-01-30 10:12:28.83	319.59	66.73	-42.9	-47.5	11.0	4.32e-03	0	62	0	780140544	56	6430
2026-01-30 10:12:32.87	321.49	65.09	-41.7	-45.1	13.3	4.50e-05	0	62	0	787480576	54	5515
2026-01-30 10:12:36.90	323.13	63.47	-40.6	-43.4	15.1	7.00e-07	0	62	0	794820608	52	5048
2026-01-30 10:12:40.94	324.56	61.86	-40.9	-43.8	14.6	2.20e-06	0	62	0	803209216	52	5316
2026-01-30 10:12:44.98	325.81	60.28	-43.0	-47.8	10.6	1.15e-03	0	62	0	810549248	56	6701
2026-01-30 10:12:49.02	326.93	58.73	-42.9	-47.4	11.1	5.18e-04	0	62	0	817889280	56	6358
2026-01-30 10:12:53.06	327.92	57.20	-42.9	-47.5	10.9	4.02e-03	0	62	0	825229312	57	6072
2026-01-30 10:12:57.10	328.81	55.71	-42.3	-46.2	12.3	8.92e-05	0	62	0	832569344	56	5555
2026-01-30 10:13:01.14	329.62	54.26	-41.6	-44.9	13.5	1.52e-05	0	62	0	840957952	55	5051
2026-01-30 10:13:05.18	330.35	52.84	-42.5	-46.6	11.7	3.88e-04	0	62	0	848297984	55	6189
2026-01-30 10:13:09.22	331.01	51.45	-43.7	-49.6	8.8	2.58e-02	0	62	0	855638016	57	7724
2026-01-30 10:13:13.25	331.61	50.11	-44.5	-53.7	5.2	5.88e-01	0	62	0	862978048	59	11043
2026-01-30 10:13:17.29	332.17	48.80	-44.4	-52.4	6.1	4.51e-01	0	62	0	871366656	59	9549
2026-01-30 10:13:21.33	332.68	47.52	-42.9	-47.6	10.9	8.13e-03	0	62	0	878706688	57	6135
2026-01-30 10:13:25.37	333.16	46.28	-43.4	-48.8	9.5	1.38e-02	0	62	0	886046720	57	7092
2026-01-30 10:13:29.41	333.60	45.07	-42.3	-46.2	12.3	2.73e-04	0	62	0	893386752	56	5579
2026-01-30 10:13:33.45	334.01	43.90	-41.5	-44.8	13.5	1.14e-05	0	62	0	900726784	55	5033
2026-01-30 10:13:37.49	334.39	42.76	-43.2	-48.4	10.0	4.38e-03	0	62	0	909115392	56	7137
2026-01-30 10:13:41.52	334.75	41.66	-41.5	-44.8	13.5	5.03e-05	0	62	0	916455424	55	5010
2026-01-30 10:13:45.56	335.08	40.58	-42.0	-45.8	12.4	6.86e-05	0	62	0	923795456	54	5947
2026-01-30 10:13:49.60	335.40	39.54	-43.5	-49.2	9.1	2.40e-02	0	62	0	931135488	57	7438
2026-01-30 10:13:53.64	335.69	38.52	-42.9	-47.6	10.7	3.87e-03	0	62	0	939524096	57	6182
2026-01-30 10:13:57.68	335.97	37.54	-42.6	-47.0	11.5	4.33e-04	0	62	0	946864128	56	6067
2026-01-30 10:14:01.72	336.24	36.58	-43.4	-49.1	9.2	1.97e-02	0	62	0	954204160	57	7333
2026-01-30 10:14:05.76	336.49	35.65	-43.0	-47.7	10.6	5.00e-03	0	62	0	961544192	57	6258
2026-01-30 10:14:09.80	336.72	34.74	-42.6	-46.9	11.5	8.25e-04	0	62	0	968884224	57	5673
2026-01-30 10:14:13.84	336.95	33.86	-42.9	-47.5	10.8	1.77e-03	0	62	0	977272832	57	6125
2026-01-30 10:14:17.88	337.16	33.00	-43.4	-49.2	9.0	2.32e-02	0	62	0	984612864	57	7399
2026-01-30 10:14:21.92	337.37	32.17	-43.4	-49.2	9.1	2.37e-02	0	62	0	991952896	57	7378
2026-01-30 10:14:25.96	337.56	31.36	-43.4	-49.0	9.2	1.86e-02	0	62	0	999292928	57	7209
2026-01-30 10:14:30.00	337.75	30.57	-43.1	-48.3	9.9	1.32e-02	0	62	0	1007681536	57	6722
2026-01-30 10:14:34.04	337.93	29.81	-42.7	-47.3	10.9	2.97e-03	0	62	0	1015021568	57	5982
2026-01-30 10:14:38.08	338.10	29.06	-42.4	-46.6	11.7	6.74e-04	0	62	0	1022361600	56	5834
2026-01-30 10:14:42.12	338.26	28.33	-42.4	-46.5	11.7	5.39e-04	0	62	0	1029701632	56	5777
2026-01-30 10:14:46.16	338.42	27.62	-42.3	-46.4	11.9	4.72e-04	0	62	0	1037041664	56	5680
2026-01-30 10:14:50.20	338.57	26.93	-42.2	-46.2	12.1	2.96e-04	0	62	0	1045430272	56	5540
2026-01-30 10:14:54.24	338.72	26.25	-42.2	-46.3	11.9	3.26e-04	0	62	0	1052770304	56	5612
2026-01-30 10:14:58.28	338.86	25.59	-42.2	-46.4	11.8	4.74e-04	0	62	0	1060110336	56	5668
2026-01-30 10:15:02.32	339.00	24.95	-42.1	-46.1	12.1	3.26e-04	0	62	0	1067450368	56	5494
2026-01-30 10:15:06.36	339.13	24.32	-41.7	-45.5	12.4	1.30e-04	0	62	0	1075838976	55	5442
2026-01-30 10:15:10.40	339.25	23.71	-41.6	-45.3	12.6	1.17e-04	0	62	0	1083179008	55	5329
2026-01-30 10:15:14.44	339.38	23.11	-41.4	-45.1	12.7	5.41e-05	0	62	0	1090519040	54	5482
2026-01-30 10:15:18.48	339.49	22.53	-41.2	-44.8	12.8	7.40e-05	0	62	0	1097859072	54	5307
2026-01-30 10:15:22.52	339.61	21.95	-40.9	-44.6	12.5	1.02e-04	0	62	0	1106247680	53	5506
2026-01-30 10:15:26.56	339.72	21.39	-40.8	-44.8	11.9	6.10e-04	0	62	0	1113587712	53	5647
2026-01-30 10:15:30.60	339.83	20.85	-40.7	-45.5	10.5	2.04e-03	0	62	0	1120927744	52	6463
2026-01-30 10:15:34.64	339.93	20.31	-41.3	-50.2	5.3	3.69e-01	0	62	0	1128267776	53	10473
2026-01-30 10:15:38.68	340.03	19.79	-40.9	-53.6	3.8	1.47e+00	0	62	104	1132462080	53	15539
2026-01-30 10:15:42.72	340.13	19.27	-41.8	-53.3	4.1	1.37e+00	0	62	0	1132462080	54	14166
2026-01-30 10:15:46.76	340.23	18.77	-41.2	-55.5	3.8	1.49e+00	0	62	104	1132462080	54	18298
2026-01-30 10:15:50.81	340.32	18.27	-40.4	-54.7	3.8	1.49e+00	0	62	104	1132462080	52	18638
2026-01-30 10:15:54.85	340.41	17.79	-40.3	-54.5	3.8	1.49e+00	0	62	104	1132462080	52	18291
2026-01-30 10:15:58.89	340.50	17.32	-40.3	-54.6	3.8	1.49e+00	0	62	104	1132462080	52	18484
2026-01-30 10:16:02.93	340.59	16.85	-40.3	-54.6	3.8	1.49e+00	0	62	104	1132462080	52	18456
2026-01-30 10:16:06.97	340.67	16.39	-40.2	-54.6	3.8	1.49e+00	0	62	104	1132462080	52	18373
2026-01-30 10:16:11.01	340.75	15.95	-40.2	-54.6	3.8	1.49e+00	0	62	104	1132462080	52	18407
2026-01-30 10:16:15.04	340.84	15.51	-40.2	-54.6	3.8	1.49e+00	0	62	104	1132462080	52	18506
2026-01-30 10:16:19.08	340.91	15.07	-40.2	-54.6	3.8	1.49e+00	0	62	104	1132462080	52	18446
2026-01-30 10:16:23.12	340.99	14.65	-40.2	-54.6	3.8	1.49e+00	0	62	104	1132462080	52	18448
2026-01-30 10:16:27.16	341.07	14.23	-40.2	-54.6	3.8	1.49e+00	0	62	104	1132462080	52	18352
2026-01-30 10:16:31.19	341.14	13.82	-40.1	-54.6	3.8	1.49e+00	0	62	104	1132462080	52	18363
2026-01-30 10:16:35.23	341.21	13.42	-40.1	-54.6	3.8	1.49e+00	0	62	104	1132462080	52	18380
2026-01-30 10:16:39.27	341.28	13.02	-40.1	-54.5	3.8	1.49e+00	0	62	104	1132462080	52	18300
2026-01-30 10:16:43.32	341.35	12.63	-40.1	-54.6	3.8	1.49e+00	0	62	104	1132462080	52	18313
2026-01-30 10:16:47.35	341.42	12.25	-40.1	-54.6	3.8	1.49e+00	0	62	104	1132462080	52	18335
2026-01-30 10:16:51.40	341.49	11.87	-40.1	-54.5	3.8	1.49e+00	0	62	104	1132462080	52	18221
2026-01-30 10:16:55.44	341.55	11.49	-40.1	-54.5	3.8	1.49e+00	0	62	104	1132462080	52	18254
2026-01-30 10:16:59.48	341.62	11.13	-40.0	-54.5	3.8	1.49e+00	0	62	104	1132462080	52	18170
2026-01-30 10:17:03.52	341.68	10.77	-40.1	-54.5	3.8	1.49e+00	0	62	104	1132462080	51	19322
2026-01-30 10:17:07.56	341.74	10.41	-40.1	-54.5	3.8	1.49e+00	0	62	104	1132462080	51	19356
2026-01-30 10:17:11.60	341.80	10.06	-40.1	-54.5	3.8	1.49e+00	0	62	104	1132462080	51	19314
2026-01-30 10:17:15.64	341.86	9.71	-40.1	-54.5	3.8	1.49e+00	0	62	104	1132462080	51	19335
2026-01-30 10:17:19.68	341.92	9.37	-40.1	-54.5	3.8	1.49e+00	0	62	104	1132462080	51	19380
2026-01-30 10:17:23.72	341.98	9.03	-40.2	-54.6	3.8	1.49e+00	0	62	104	1132462080	51	19480
2026-01-30 10:17:27.76	342.03	8.70	-40.2	-54.6	3.8	1.49e+00	0	62	104	1132462080	51	19567
2026-01-30 10:17:31.80	342.09	8.37	-40.2	-54.6	3.8	1.49e+00	0	62	104	1132462080	51	19585
2026-01-30 10:17:35.84	342.15	8.05	-40.2	-54.6	3.8	1.49e+00	0	62	104	1132462080	51	19613
2026-01-30 10:17:39.88	342.20	7.73	-44.8	-59.5	3.8	1.49e+00	0	62	104	1132462080	60	20529
2026-01-30 10:17:43.92	342.25	7.41	-45.1	-59.9	3.8	1.49e+00	0	62	104	1132462080	60	21441
2026-01-30 10:17:47.96	342.31	7.10	-45.0	-60.0	3.8	1.49e+00	0	62	104	1132462080	60	21526
2026-01-30 10:17:52.00	342.36	6.79	-45.0	-59.9	3.8	1.49e+00	0	62	104	1132462080	60	21266
2026-01-30 10:17:56.04	342.41	6.49	-44.9	-59.8	3.8	1.49e+00	0	62	104	1132462080	60	21033
2026-01-30 10:18:00.08	342.46	6.18	-44.4	-59.7	3.8	1.49e+00	0	62	104	1132462080	60	20965
2026-01-30 10:18:04.13	342.51	5.89	-44.9	-59.7	3.8	1.49e+00	0	62	104	1132462080	60	20978
2026-01-30 10:18:08.17	342.56	5.59	-44.8	-59.7	3.8	1.49e+00	0	62	104	1132462080	60	20898
2026-01-30 10:18:12.21	342.61	5.30	-44.8	-59.7	3.8	1.49e+00	0	62	104	1132462080	60	20814
2026-01-30 10:18:16.25	342.66	5.01	-44.6	-59.7	3.8	1.49e+00	0	62	104	1132462080	60	20950
2026-01-30 10:18:20.29	342.70	4.73	-44.8	-59.7	3.8	1.49e+00	0	62	104	1132462080	60	20857
2026-01-30 10:18:24.33	342.75	4.45	-44.8	-59.7	3.8	1.49e+00	0	62	104	1132462080	60	20852
2026-01-30 10:18:28.38	342.80	4.17	-44.8	-59.7	3.8	1.49e+00	0	62	104	1132462080	60	20801
2026-01-30 10:18:32.42	342.84	3.89	-44.7	-59.7	3.8	1.49e+00	0	62	104	1132462080	60	20803
2026-01-30 10:18:36.47	342.89	3.62	-44.8	-59.7	3.8	1.49e+00	0	62	104	1132462080	60	20798
2026-01-30 10:18:40.51	342.93	3.35	-44.8	-59.6	3.8	1.49e+00	0	62	104	1132462080	60	20760
2026-01-30 10:18:44.55	342.98	3.08	-44.8	-59.6	3.8	1.49e+00	0	62	104	1132462080	60	20749
2026-01-30 10:18:48.59	343.02	2.81	-44.8	-59.7	3.8	1.49e+00	0	62	104	1132462080	60	20804
2026-01-30 10:18:52.63	343.07	2.55	-44.8	-59.6	3.8	1.49e+00	0	62	104	1132462080	60	20772
2026-01-30 10:18:56.67	343.11	2.29	-44.8	-59.6	3.8	1.49e+00	0	62	104	1132462080	60	20735
2026-01-30 10:19:00.71	343.15	2.03	-44.8	-59.7	3.8	1.49e+00	0	62	104	1132462080	60	20846

#Closed at: 2026-01-30 10:19:03
#Recorded file [1132 MB]: D:/lorett/data/31039_260130_130435.dat