passes_logs/2026/01/30/R2.0S_Moscow/R2.0S_Moscow__20260130_023016_FENGYUN_3D_rec.log

#Pass ID: 20260130_023016_FENGYUN 3D
#Satellite: FENGYUN 3D
#Configuration: FENGYUN 3D
#almurnet v.1.7.20251203
#Start time: 2026-01-30 02:30:16

#Version: 2.2.20231116
#Station: R2.0S_Moscow
#Location: 37.707566 lon 55.798166 lat
#TLE: 1 43010U 17072A   26028.95797775  .00000451  00000+0  23492-3 0  9991
#TLE: 2 43010  98.9958   0.9922 0002505  85.7480 274.3981 14.19703224425237

#Time	Az	El	Level	Level2	SNR	BER	BlckErr	Temp	State	Recorded	gain1	gain2
2026-01-30 02:30:16.32	13.73	2.01	-40.8	-52.3	3.8	8.45e-01	0	51	0	0	53	13396
2026-01-30 02:30:20.36	13.62	2.26	-40.8	-52.3	3.8	8.45e-01	0	52	104	0	53	13373
2026-01-30 02:30:24.39	13.50	2.51	-40.8	-52.3	3.8	8.46e-01	0	52	104	0	53	13336
2026-01-30 02:30:28.44	13.39	2.77	-40.8	-52.3	3.8	8.46e-01	0	52	104	0	53	13371
2026-01-30 02:30:32.48	13.27	3.03	-40.8	-52.3	3.8	8.47e-01	0	53	104	0	53	13325
2026-01-30 02:30:36.52	13.15	3.30	-40.8	-52.2	3.8	8.47e-01	0	53	104	0	53	13172
2026-01-30 02:30:40.55	13.03	3.56	-40.7	-52.1	3.8	8.46e-01	0	53	104	0	53	13059
2026-01-30 02:30:44.60	12.91	3.83	-40.7	-51.8	3.8	8.46e-01	0	53	104	0	53	12615
2026-01-30 02:30:48.64	12.78	4.10	-40.7	-51.4	3.8	8.46e-01	0	54	104	0	53	12068
2026-01-30 02:30:52.68	12.65	4.37	-40.7	-51.6	3.8	8.46e-01	0	54	104	0	53	12357
2026-01-30 02:30:56.72	12.52	4.65	-40.6	-51.3	3.8	8.46e-01	0	54	104	0	53	11831
2026-01-30 02:31:00.76	12.38	4.93	-40.6	-50.8	3.8	8.45e-01	0	54	104	0	53	11237
2026-01-30 02:31:04.80	12.24	5.21	-40.5	-50.2	3.9	8.46e-01	0	54	104	0	53	10443
2026-01-30 02:31:08.85	12.10	5.49	-40.5	-50.3	3.8	8.44e-01	0	55	104	0	53	10637
2026-01-30 02:31:12.89	11.96	5.78	-40.4	-49.4	4.1	8.42e-01	0	55	0	0	52	10150
2026-01-30 02:31:16.93	11.81	6.07	-40.1	-47.5	4.6	8.18e-01	0	55	0	0	52	8113
2026-01-30 02:31:20.97	11.66	6.36	-40.0	-46.6	5.1	7.56e-01	0	55	0	0	51	7754
2026-01-30 02:31:25.01	11.50	6.65	-39.9	-46.5	5.2	7.49e-01	0	56	0	0	51	7641
2026-01-30 02:31:29.06	11.34	6.95	-40.0	-47.0	4.9	7.82e-01	0	56	0	0	51	8101
2026-01-30 02:31:33.10	11.18	7.26	-40.3	-48.1	4.4	8.24e-01	0	56	0	0	51	9211
2026-01-30 02:31:37.14	11.02	7.56	-40.4	-49.2	4.1	8.39e-01	0	56	0	0	51	10441
2026-01-30 02:31:41.18	10.85	7.87	-40.6	-50.3	3.8	8.45e-01	0	56	104	0	51	11941
2026-01-30 02:31:45.23	10.67	8.18	-40.5	-51.0	3.8	8.46e-01	0	56	104	0	51	12816
2026-01-30 02:31:49.27	10.50	8.50	-40.0	-51.2	3.8	8.45e-01	0	57	104	0	51	13179
2026-01-30 02:31:53.30	10.31	8.82	-40.2	-51.4	3.8	8.47e-01	0	57	104	0	51	13462
2026-01-30 02:31:57.34	10.13	9.14	-40.2	-51.4	3.8	8.46e-01	0	57	104	0	52	12756
2026-01-30 02:32:01.38	9.94	9.47	-40.2	-51.6	3.8	8.45e-01	0	57	104	0	52	13032
2026-01-30 02:32:05.42	9.74	9.80	-39.9	-51.3	3.8	8.45e-01	0	57	104	0	51	13345
2026-01-30 02:32:09.47	9.54	10.14	-40.0	-51.1	3.8	8.46e-01	0	57	104	0	51	13045
2026-01-30 02:32:13.51	9.34	10.48	-40.2	-51.6	3.8	8.45e-01	0	57	104	0	52	13062
2026-01-30 02:32:17.55	9.12	10.82	-39.8	-51.1	3.8	8.46e-01	0	58	104	0	51	13024
2026-01-30 02:32:21.59	8.91	11.17	-40.4	-50.6	3.8	8.47e-01	0	58	104	0	51	12299
2026-01-30 02:32:25.63	8.69	11.53	-41.3	-47.3	5.7	6.99e-01	0	58	0	0	53	7487
2026-01-30 02:32:29.67	8.46	11.88	-40.6	-45.2	7.6	1.23e-01	0	58	0	23068672	53	5857
2026-01-30 02:32:33.71	8.23	12.25	-40.0	-43.6	9.4	2.24e-02	0	58	0	46137344	52	5194
2026-01-30 02:32:37.75	7.99	12.62	-40.2	-43.7	9.5	1.72e-02	0	58	0	68157440	51	5587
2026-01-30 02:32:41.79	7.74	12.99	-40.0	-43.3	10.2	7.97e-03	0	58	0	91226112	51	5297
2026-01-30 02:32:45.83	7.49	13.37	-39.6	-42.6	11.1	2.71e-03	0	58	0	114294784	51	4891
2026-01-30 02:32:49.88	7.22	13.75	-39.9	-43.0	10.8	2.99e-03	0	58	0	136314880	50	5416
2026-01-30 02:32:53.92	6.96	14.14	-40.0	-42.9	11.2	1.76e-03	0	58	0	159383552	50	5374
2026-01-30 02:32:57.96	6.68	14.54	-39.8	-42.5	11.8	7.52e-04	0	59	0	182452224	50	5110
2026-01-30 02:33:02.00	6.40	14.94	-39.3	-41.7	12.7	1.51e-04	0	59	0	204472320	50	4693
2026-01-30 02:33:06.05	6.11	15.34	-39.3	-41.7	12.9	7.09e-05	0	58	0	227540992	50	4665
2026-01-30 02:33:10.09	5.81	15.76	-39.4	-41.7	12.9	9.95e-05	0	59	0	250609664	50	4683
2026-01-30 02:33:14.13	5.50	16.18	-39.1	-41.3	13.4	2.28e-05	0	59	0	273678336	50	4450
2026-01-30 02:33:18.17	5.18	16.60	-39.0	-41.1	13.6	1.60e-05	0	59	0	295698432	49	4643
2026-01-30 02:33:22.21	4.85	17.03	-38.9	-41.0	13.7	8.00e-06	0	59	0	318767104	49	4587
2026-01-30 02:33:26.25	4.52	17.47	-38.7	-40.7	14.1	0.00e+00	0	59	0	340787200	49	4421
2026-01-30 02:33:30.30	4.17	17.92	-38.4	-40.4	14.4	2.20e-06	0	59	0	363855872	48	4507
2026-01-30 02:33:34.34	3.81	18.37	-38.3	-40.2	14.7	0.00e+00	0	59	0	386924544	48	4393
2026-01-30 02:33:38.38	3.44	18.83	-38.3	-40.1	14.7	0.00e+00	0	59	0	409993216	48	4391
2026-01-30 02:33:42.43	3.06	19.30	-38.3	-40.2	14.7	1.10e-06	0	59	0	432013312	48	4426
2026-01-30 02:33:46.47	2.66	19.78	-38.2	-40.0	14.9	0.00e+00	0	59	0	455081984	48	4331
2026-01-30 02:33:50.51	2.25	20.26	-37.9	-39.7	15.1	0.00e+00	0	59	0	478150656	47	4405
2026-01-30 02:33:54.55	1.83	20.75	-37.8	-39.6	15.2	0.00e+00	0	59	0	500170752	47	4363
2026-01-30 02:33:58.60	1.39	21.25	-37.8	-39.6	15.3	1.10e-06	0	59	0	523239424	47	4371
2026-01-30 02:34:02.64	0.94	21.76	-37.8	-39.6	15.3	1.10e-06	0	59	0	546308096	47	4360
2026-01-30 02:34:06.68	0.48	22.27	-37.9	-39.7	15.2	0.00e+00	0	59	0	568328192	47	4400
2026-01-30 02:34:10.73	359.99	22.80	-37.5	-39.2	15.7	0.00e+00	0	59	0	591396864	47	4161
2026-01-30 02:34:14.77	359.50	23.33	-37.6	-39.3	15.6	0.00e+00	0	59	0	614465536	46	4454
2026-01-30 02:34:18.81	358.98	23.87	-37.5	-39.2	15.8	0.00e+00	0	59	0	636485632	46	4407
2026-01-30 02:34:22.85	358.44	24.42	-37.2	-38.8	16.2	0.00e+00	0	60	0	659554304	46	4198
2026-01-30 02:34:26.89	357.89	24.98	-37.2	-38.8	16.2	0.00e+00	0	59	0	682622976	46	4228
2026-01-30 02:34:30.94	357.31	25.55	-37.4	-39.0	16.0	0.00e+00	0	60	0	705691648	46	4322
2026-01-30 02:34:34.98	356.71	26.13	-37.3	-38.9	16.1	0.00e+00	0	60	0	727711744	46	4264
2026-01-30 02:34:39.02	356.09	26.71	-37.1	-38.7	16.4	0.00e+00	0	60	0	750780416	46	4150
2026-01-30 02:34:43.06	355.44	27.31	-37.0	-38.6	16.5	0.00e+00	0	60	0	772800512	45	4353
2026-01-30 02:34:47.10	354.77	27.91	-37.1	-38.7	16.3	0.00e+00	0	60	0	795869184	45	4415
2026-01-30 02:34:51.14	354.07	28.52	-37.2	-38.8	16.3	0.00e+00	0	60	0	818937856	45	4472
2026-01-30 02:34:55.19	353.35	29.15	-37.1	-38.6	16.5	0.00e+00	0	60	0	842006528	45	4380
2026-01-30 02:34:59.23	352.59	29.77	-37.1	-38.8	16.3	0.00e+00	0	60	0	864026624	45	4457
2026-01-30 02:35:03.27	351.81	30.41	-37.3	-39.0	16.1	0.00e+00	0	60	0	887095296	45	4575
2026-01-30 02:35:07.31	350.99	31.06	-37.0	-38.6	16.6	0.00e+00	0	60	0	910163968	45	4343
2026-01-30 02:35:11.35	350.14	31.71	-36.7	-38.2	17.0	0.00e+00	0	60	0	932184064	45	4147
2026-01-30 02:35:15.39	349.25	32.37	-36.8	-38.3	16.9	0.00e+00	0	60	0	955252736	45	4202
2026-01-30 02:35:19.43	348.33	33.04	-36.4	-37.9	17.4	0.00e+00	0	60	0	978321408	44	4247
2026-01-30 02:35:23.47	347.36	33.71	-36.9	-38.3	16.9	0.00e+00	0	60	0	1000341504	44	4489
2026-01-30 02:35:27.52	346.35	34.39	-36.7	-38.1	17.1	0.00e+00	0	60	0	1023410176	44	4391
2026-01-30 02:35:31.56	345.30	35.08	-37.0	-38.6	16.7	0.00e+00	0	60	0	1046478848	44	4604
2026-01-30 02:35:35.60	344.21	35.76	-36.7	-38.2	17.1	0.00e+00	0	60	0	1068498944	44	4420
2026-01-30 02:35:39.64	343.07	36.45	-36.7	-38.2	17.1	0.00e+00	0	60	0	1091567616	44	4401
2026-01-30 02:35:43.68	341.87	37.14	-37.0	-38.5	16.8	0.00e+00	0	60	0	1114636288	44	4585
2026-01-30 02:35:47.72	340.63	37.83	-36.7	-38.1	17.2	0.00e+00	0	60	0	1136656384	44	4368
2026-01-30 02:35:51.76	339.33	38.52	-36.6	-38.0	17.3	0.00e+00	0	60	0	1159725056	44	4323
2026-01-30 02:35:55.81	337.97	39.20	-36.7	-38.2	17.1	0.00e+00	0	60	0	1182793728	44	4403
2026-01-30 02:35:59.85	336.56	39.88	-36.7	-38.1	17.2	0.00e+00	0	60	0	1204813824	44	4390
2026-01-30 02:36:03.89	335.08	40.55	-36.8	-38.2	17.1	0.00e+00	0	60	0	1227882496	44	4424
2026-01-30 02:36:07.93	333.54	41.21	-36.9	-38.3	17.0	0.00e+00	0	60	0	1250951168	44	4493
2026-01-30 02:36:11.98	331.94	41.86	-36.8	-38.2	17.1	0.00e+00	0	60	0	1274019840	44	4422
2026-01-30 02:36:16.02	330.27	42.49	-36.8	-38.2	17.1	0.00e+00	0	60	0	1296039936	44	4428
2026-01-30 02:36:20.06	328.54	43.11	-36.8	-38.3	17.0	0.00e+00	0	60	0	1319108608	44	4458
2026-01-30 02:36:24.11	326.73	43.70	-36.8	-38.2	17.1	0.00e+00	0	60	0	1342177280	44	4432
2026-01-30 02:36:28.15	324.86	44.27	-36.7	-38.2	17.2	0.00e+00	0	60	0	1364197376	44	4409
2026-01-30 02:36:32.19	322.93	44.81	-36.4	-37.9	17.5	0.00e+00	0	60	0	1387266048	44	4246
2026-01-30 02:36:36.23	320.93	45.33	-36.6	-38.1	17.2	0.00e+00	0	60	0	1410334720	44	4360
2026-01-30 02:36:40.28	318.86	45.80	-36.5	-38.0	17.4	0.00e+00	0	60	0	1432354816	44	4292
2026-01-30 02:36:44.32	316.73	46.24	-36.8	-38.3	17.0	0.00e+00	0	60	0	1455423488	44	4477
2026-01-30 02:36:48.37	314.54	46.65	-36.9	-38.4	17.0	0.00e+00	0	61	0	1478492160	44	4501
2026-01-30 02:36:52.41	312.30	47.00	-36.9	-38.4	16.9	0.00e+00	0	60	0	1500512256	44	4529
2026-01-30 02:36:56.45	310.02	47.31	-37.1	-38.6	16.7	0.00e+00	0	60	0	1523580928	44	4638
2026-01-30 02:37:00.50	307.68	47.57	-37.2	-38.8	16.6	0.00e+00	0	60	0	1546649600	44	4723
2026-01-30 02:37:04.54	305.32	47.78	-37.2	-38.8	16.5	0.00e+00	0	60	0	1569718272	45	4481
2026-01-30 02:37:08.58	302.92	47.94	-36.9	-38.4	16.9	0.00e+00	0	60	0	1591738368	45	4262
2026-01-30 02:37:12.63	300.50	48.04	-36.9	-38.4	16.9	0.00e+00	0	60	0	1614807040	45	4287
2026-01-30 02:37:16.67	298.08	48.09	-36.9	-38.3	17.0	0.00e+00	0	60	0	1636827136	45	4235
2026-01-30 02:37:20.71	295.65	48.08	-36.7	-38.2	17.2	0.00e+00	0	60	0	1659895808	45	4150
2026-01-30 02:37:24.76	293.22	48.02	-36.8	-38.3	17.0	0.00e+00	0	60	0	1682964480	45	4232
2026-01-30 02:37:28.80	290.81	47.89	-37.0	-38.6	16.7	0.00e+00	0	60	0	1706033152	45	4353
2026-01-30 02:37:32.84	288.42	47.72	-36.9	-38.4	16.9	0.00e+00	0	60	0	1728053248	45	4256
2026-01-30 02:37:36.88	286.06	47.49	-37.1	-38.6	16.7	0.00e+00	0	60	0	1751121920	45	4366
2026-01-30 02:37:40.92	283.74	47.22	-36.7	-38.2	17.1	0.00e+00	0	61	0	1773142016	45	4156
2026-01-30 02:37:44.96	281.47	46.89	-36.9	-38.4	16.9	0.00e+00	0	61	0	1796210688	45	4249
2026-01-30 02:37:49.00	279.24	46.52	-36.7	-38.1	17.1	0.00e+00	0	60	0	1819279360	45	4142
2026-01-30 02:37:53.05	277.07	46.10	-36.5	-37.9	17.3	0.00e+00	0	60	0	1842348032	45	4049
2026-01-30 02:37:57.09	274.96	45.65	-36.6	-38.0	17.2	0.00e+00	0	61	0	1864368128	44	4337
2026-01-30 02:38:01.12	272.91	45.16	-36.7	-38.2	17.1	0.00e+00	0	61	0	1887436800	44	4420
2026-01-30 02:38:05.16	270.93	44.64	-36.4	-37.8	17.5	0.00e+00	0	61	0	1910505472	44	4234
2026-01-30 02:38:09.21	269.01	44.09	-36.2	-37.6	17.7	0.00e+00	0	60	0	1932525568	44	4124
2026-01-30 02:38:13.24	267.16	43.51	-36.5	-37.9	17.4	0.00e+00	0	61	0	1955594240	44	4267
2026-01-30 02:38:17.28	265.38	42.91	-36.3	-37.7	17.5	0.00e+00	0	61	0	1978662912	44	4188
2026-01-30 02:38:21.32	263.66	42.28	-36.2	-37.6	17.6	0.00e+00	0	61	0	2000683008	44	4120
2026-01-30 02:38:25.36	262.01	41.64	-36.4	-37.8	17.5	0.00e+00	0	61	0	2023751680	44	4207
2026-01-30 02:38:29.40	260.43	40.99	-36.2	-37.6	17.6	0.00e+00	0	61	0	2046820352	44	4124
2026-01-30 02:38:33.45	258.90	40.32	-36.4	-37.8	17.4	0.00e+00	0	61	0	2068840448	44	4227
2026-01-30 02:38:37.49	257.44	39.65	-36.7	-38.1	17.1	0.00e+00	0	60	0	2091909120	44	4384
2026-01-30 02:38:41.54	256.04	38.96	-36.3	-37.7	17.5	0.00e+00	0	61	0	2114977792	44	4160
2026-01-30 02:38:45.58	254.70	38.27	-36.5	-37.9	17.3	0.00e+00	0	61	0	2138046464	44	4267
2026-01-30 02:38:49.62	253.41	37.58	-36.1	-37.4	17.8	0.00e+00	0	61	0	2160066560	44	4046
2026-01-30 02:38:53.67	252.18	36.89	-36.0	-37.4	17.8	0.00e+00	0	61	0	2183135232	44	4010
2026-01-30 02:38:57.71	250.99	36.20	-36.1	-37.5	17.7	0.00e+00	0	61	0	2205155328	44	4078
2026-01-30 02:39:01.75	249.86	35.51	-35.8	-37.2	17.9	0.00e+00	0	61	0	2228224000	43	4149
2026-01-30 02:39:05.80	248.78	34.82	-35.9	-37.3	17.7	0.00e+00	0	61	0	2251292672	43	4209
2026-01-30 02:39:09.84	247.74	34.13	-35.9	-37.3	17.7	0.00e+00	0	61	0	2274361344	43	4210
2026-01-30 02:39:13.88	246.74	33.45	-36.0	-37.4	17.6	0.00e+00	0	61	0	2296381440	43	4280
2026-01-30 02:39:17.92	245.79	32.78	-36.0	-37.4	17.6	0.00e+00	0	61	0	2319450112	43	4268
2026-01-30 02:39:21.96	244.87	32.11	-36.1	-37.5	17.5	0.00e+00	0	61	0	2342518784	43	4308
2026-01-30 02:39:26.00	243.99	31.45	-36.2	-37.6	17.3	0.00e+00	0	61	0	2364538880	43	4380
2026-01-30 02:39:30.04	243.15	30.79	-36.2	-37.7	17.3	0.00e+00	0	61	0	2387607552	43	4396
2026-01-30 02:39:34.08	242.34	30.15	-36.2	-37.6	17.4	0.00e+00	0	61	0	2410676224	43	4362
2026-01-30 02:39:38.12	241.56	29.51	-36.2	-37.6	17.3	0.00e+00	0	61	0	2432696320	43	4387
2026-01-30 02:39:42.17	240.81	28.88	-36.4	-37.8	17.1	0.00e+00	0	61	0	2455764992	43	4485
2026-01-30 02:39:46.21	240.09	28.26	-36.6	-38.1	16.8	0.00e+00	0	61	0	2478833664	43	4633
2026-01-30 02:39:50.25	239.40	27.65	-36.7	-38.2	16.7	0.00e+00	0	61	0	2500853760	43	4673
2026-01-30 02:39:54.29	238.73	27.04	-36.5	-38.0	16.9	0.00e+00	0	61	0	2523922432	43	4573
2026-01-30 02:39:58.33	238.09	26.45	-36.5	-38.0	16.9	0.00e+00	0	61	0	2546991104	43	4579
2026-01-30 02:40:02.37	237.47	25.86	-36.7	-38.2	16.7	0.00e+00	0	61	0	2569011200	43	4694
2026-01-30 02:40:06.41	236.88	25.29	-36.9	-38.4	16.7	0.00e+00	0	61	0	2592079872	44	4534
2026-01-30 02:40:10.45	236.31	24.72	-36.7	-38.3	16.6	0.00e+00	0	60	0	2615148544	44	4457
2026-01-30 02:40:14.48	235.76	24.17	-36.8	-38.3	16.7	0.00e+00	0	61	0	2637168640	44	4461
2026-01-30 02:40:18.52	235.22	23.62	-36.9	-38.4	16.6	0.00e+00	0	61	0	2660237312	44	4516
2026-01-30 02:40:22.57	234.71	23.07	-36.8	-38.3	16.7	0.00e+00	0	61	0	2683305984	44	4487
2026-01-30 02:40:26.61	234.21	22.54	-36.9	-38.5	16.5	0.00e+00	0	61	0	2705326080	44	4566
2026-01-30 02:40:30.65	233.73	22.02	-37.2	-38.8	16.2	0.00e+00	0	61	0	2728394752	44	4711
2026-01-30 02:40:34.69	233.26	21.51	-37.2	-38.8	16.2	0.00e+00	0	60	0	2751463424	45	4469
2026-01-30 02:40:38.74	232.81	21.00	-37.3	-38.9	16.0	0.00e+00	0	61	0	2774532096	45	4523
2026-01-30 02:40:42.78	232.38	20.50	-37.4	-39.0	15.9	0.00e+00	0	61	0	2796552192	45	4595
2026-01-30 02:40:46.82	231.96	20.01	-37.5	-39.2	15.7	0.00e+00	0	61	0	2819620864	45	4658
2026-01-30 02:40:50.86	231.55	19.53	-37.6	-39.3	15.6	0.00e+00	0	61	0	2841640960	45	4756
2026-01-30 02:40:54.91	231.16	19.05	-37.6	-39.3	15.6	0.00e+00	0	61	0	2864709632	45	4737
2026-01-30 02:40:58.95	230.78	18.59	-37.6	-39.3	15.6	0.00e+00	0	61	0	2887778304	45	4753
2026-01-30 02:41:02.99	230.41	18.13	-37.9	-39.6	15.3	0.00e+00	0	61	0	2910846976	46	4641
2026-01-30 02:41:07.03	230.05	17.67	-38.0	-39.8	15.1	0.00e+00	0	61	0	2932867072	46	4739
2026-01-30 02:41:11.07	229.70	17.23	-38.1	-39.9	14.9	0.00e+00	0	61	0	2955935744	46	4810
2026-01-30 02:41:15.12	229.36	16.79	-38.2	-40.1	14.8	1.10e-06	0	61	0	2979004416	46	4884
2026-01-30 02:41:19.16	229.03	16.36	-38.3	-40.2	14.6	1.10e-06	0	61	0	3001024512	47	4705
2026-01-30 02:41:23.20	228.72	15.93	-38.4	-40.4	14.4	0.00e+00	0	61	0	3024093184	47	4789
2026-01-30 02:41:27.24	228.41	15.51	-38.4	-40.3	14.5	2.20e-06	0	61	0	3047161856	47	4720
2026-01-30 02:41:31.28	228.11	15.10	-38.5	-40.5	14.2	4.50e-06	0	61	0	3069181952	47	4858
2026-01-30 02:41:35.33	227.81	14.70	-38.6	-40.6	14.1	2.20e-06	0	61	0	3092250624	47	4884
2026-01-30 02:41:39.37	227.53	14.30	-38.7	-40.7	14.0	3.40e-06	0	61	0	3115319296	47	4975
2026-01-30 02:41:43.41	227.25	13.90	-38.9	-41.0	13.8	8.00e-06	0	61	0	3137339392	48	4818
2026-01-30 02:41:47.45	226.99	13.51	-38.9	-41.0	13.8	8.00e-06	0	61	0	3160408064	48	4842
2026-01-30 02:41:51.50	226.72	13.13	-38.9	-41.0	13.8	1.14e-05	0	61	0	3183476736	48	4842
2026-01-30 02:41:55.53	226.47	12.75	-39.0	-41.1	13.6	1.71e-05	0	61	0	3206545408	48	4926
2026-01-30 02:41:59.58	226.22	12.38	-39.1	-41.4	13.4	1.48e-05	0	61	0	3228565504	48	5049
2026-01-30 02:42:03.62	225.98	12.01	-39.2	-41.5	13.2	3.66e-05	0	61	0	3251634176	48	5102
2026-01-30 02:42:07.66	225.74	11.65	-39.3	-41.7	13.0	5.14e-05	0	61	0	3273654272	49	4928
2026-01-30 02:42:11.70	225.51	11.29	-39.4	-41.7	12.9	6.98e-05	0	61	0	3296722944	49	4971
2026-01-30 02:42:15.75	225.29	10.94	-39.4	-41.8	12.8	1.09e-04	0	61	0	3319791616	49	5012
2026-01-30 02:42:19.79	225.07	10.59	-39.4	-41.7	12.8	8.12e-05	0	61	0	3342860288	49	4982
2026-01-30 02:42:23.83	224.86	10.24	-39.4	-41.8	12.7	8.92e-05	0	61	0	3364880384	49	5018
2026-01-30 02:42:27.87	224.65	9.90	-39.5	-42.0	12.6	1.50e-04	0	61	0	3387949056	49	5104
2026-01-30 02:42:31.92	224.45	9.57	-39.4	-41.9	12.6	1.26e-04	0	61	0	3411017728	49	5049
2026-01-30 02:42:35.96	224.25	9.24	-39.4	-41.9	12.6	1.82e-04	0	61	0	3433037824	49	5055
2026-01-30 02:42:40.00	224.06	8.91	-39.6	-42.1	12.3	2.36e-04	0	61	0	3456106496	49	5176
2026-01-30 02:42:44.04	223.87	8.59	-39.7	-42.3	12.1	3.15e-04	0	61	0	3479175168	49	5295
2026-01-30 02:42:48.08	223.68	8.27	-39.7	-42.2	12.1	3.47e-04	0	61	0	3501195264	50	4971
2026-01-30 02:42:52.12	223.50	7.95	-44.3	-55.7	3.8	6.74e-01	0	61	104	3522166784	59	13986
2026-01-30 02:42:56.16	223.33	7.64	-44.9	-56.8	3.8	8.46e-01	0	61	104	3522166784	60	14902
2026-01-30 02:43:00.21	223.15	7.33	-45.1	-56.9	3.8	8.46e-01	0	61	104	3522166784	60	15177
2026-01-30 02:43:04.25	222.98	7.02	-44.9	-56.8	3.8	8.46e-01	0	61	104	3522166784	60	15022
2026-01-30 02:43:08.29	222.82	6.72	-44.8	-56.7	3.8	8.46e-01	0	61	104	3522166784	60	14838
2026-01-30 02:43:12.33	222.66	6.42	-44.8	-56.7	3.8	8.47e-01	0	61	104	3522166784	60	14840
2026-01-30 02:43:16.37	222.50	6.13	-44.8	-56.8	3.8	8.46e-01	0	61	104	3522166784	60	14893
2026-01-30 02:43:20.42	222.35	5.84	-44.8	-56.7	3.8	8.46e-01	0	61	104	3522166784	60	14820
2026-01-30 02:43:24.46	222.19	5.55	-44.8	-56.7	3.8	8.46e-01	0	61	104	3522166784	60	14867
2026-01-30 02:43:28.50	222.05	5.26	-44.8	-56.7	3.8	8.46e-01	0	61	104	3522166784	60	14832
2026-01-30 02:43:32.54	221.90	4.98	-44.8	-56.7	3.8	8.45e-01	0	61	104	3522166784	60	14840
2026-01-30 02:43:36.58	221.76	4.70	-44.8	-56.7	3.8	8.46e-01	0	61	104	3522166784	60	14840
2026-01-30 02:43:40.63	221.62	4.42	-44.8	-56.7	3.8	8.45e-01	0	61	104	3522166784	60	14742
2026-01-30 02:43:44.67	221.48	4.14	-44.8	-56.7	3.8	8.46e-01	0	61	104	3522166784	60	14730
2026-01-30 02:43:48.71	221.35	3.87	-44.8	-56.7	3.8	8.47e-01	0	61	104	3522166784	60	14761
2026-01-30 02:43:52.75	221.22	3.60	-44.8	-56.7	3.8	8.46e-01	0	61	104	3522166784	60	14727
2026-01-30 02:43:56.79	221.09	3.34	-44.8	-56.7	3.8	8.47e-01	0	61	104	3522166784	60	14744
2026-01-30 02:44:00.84	220.96	3.07	-44.8	-56.7	3.8	8.47e-01	0	61	104	3522166784	60	14800
2026-01-30 02:44:04.88	220.84	2.81	-44.7	-56.6	3.8	8.48e-01	0	61	104	3522166784	60	14700
2026-01-30 02:44:08.92	220.72	2.55	-44.8	-56.7	3.8	8.47e-01	0	61	104	3522166784	60	14770
2026-01-30 02:44:12.96	220.60	2.29	-44.8	-56.7	3.8	8.46e-01	0	61	104	3522166784	60	14783
2026-01-30 02:44:17.00	220.48	2.03	-44.7	-56.7	3.8	8.47e-01	0	61	104	3522166784	60	14732

#Closed at: 2026-01-30 02:44:18
#Recorded file [3522 MB]: D:/lorett/data/31039_260130_053016.dat