passes_logs/2026/01/30/R2.0S_Moscow/R2.0S_Moscow__20260130_154423_FENGYUN_3E_rec.log

#Pass ID: 20260130_154423_FENGYUN 3E
#Satellite: FENGYUN 3E
#Configuration: FENGYUN 3E
#almurnet v.1.7.20251203
#Start time: 2026-01-30 15:44:24

#Version: 2.2.20231116
#Station: R2.0S_Moscow
#Location: 37.707566 lon 55.798166 lat
#TLE: 1 49008U 21062A   26030.15628484 -.00000231  00000+0 -88238-4 0  9991
#TLE: 2 49008  98.7496  35.1082 0002567 110.3408 249.8045 14.19886954236998

#Time	Az	El	Level	Level2	SNR	BER	BlckErr	Temp	State	Recorded	gain1	gain2
2026-01-30 15:44:24.59	207.32	2.09	-43.9	-54.8	3.8	8.47e-01	0	54	0	0	58	12623
2026-01-30 15:44:28.62	207.61	2.31	-43.9	-54.8	3.8	8.45e-01	0	54	104	0	58	12612
2026-01-30 15:44:32.66	207.91	2.53	-43.9	-54.8	3.8	8.47e-01	0	54	104	0	58	12584
2026-01-30 15:44:36.71	208.21	2.76	-43.9	-54.8	3.8	8.46e-01	0	55	104	0	58	12614
2026-01-30 15:44:40.74	208.51	2.99	-43.9	-54.8	3.8	8.47e-01	0	55	104	0	58	12587
2026-01-30 15:44:44.79	208.82	3.22	-43.9	-54.8	3.8	8.47e-01	0	55	104	0	58	12574
2026-01-30 15:44:48.83	209.14	3.45	-43.9	-54.8	3.8	8.46e-01	0	55	104	0	58	12620
2026-01-30 15:44:52.87	209.46	3.68	-43.9	-54.8	3.8	8.47e-01	0	56	104	0	58	12601
2026-01-30 15:44:56.91	209.78	3.91	-43.9	-54.8	3.8	8.45e-01	0	56	104	0	58	12613
2026-01-30 15:45:00.96	210.11	4.14	-43.9	-54.8	3.8	8.46e-01	0	56	104	0	58	12592
2026-01-30 15:45:05.00	210.44	4.38	-43.9	-54.8	3.8	8.46e-01	0	57	104	0	58	12583
2026-01-30 15:45:09.04	210.78	4.61	-43.8	-54.8	3.8	8.46e-01	0	57	104	0	58	12575
2026-01-30 15:45:13.08	211.13	4.85	-43.9	-54.8	3.8	8.46e-01	0	57	104	0	58	12581
2026-01-30 15:45:17.12	211.48	5.09	-43.9	-54.8	3.8	8.46e-01	0	57	104	0	58	12523
2026-01-30 15:45:21.16	211.83	5.33	-43.9	-54.7	3.8	8.46e-01	0	57	104	0	58	12512
2026-01-30 15:45:25.20	212.19	5.57	-43.9	-54.7	3.8	8.46e-01	0	58	104	0	58	12414
2026-01-30 15:45:29.24	212.56	5.81	-43.8	-54.5	3.8	8.47e-01	0	58	104	0	58	12097
2026-01-30 15:45:33.29	212.93	6.05	-43.7	-53.7	3.8	8.45e-01	0	58	104	0	58	11056
2026-01-30 15:45:37.33	213.31	6.30	-43.4	-51.6	4.1	8.42e-01	0	58	104	0	57	9246
2026-01-30 15:45:41.37	213.70	6.55	-42.8	-49.0	5.1	7.54e-01	0	58	0	0	56	7214
2026-01-30 15:45:45.41	214.09	6.79	-42.5	-48.0	5.7	5.24e-01	0	58	0	15728640	56	6485
2026-01-30 15:45:49.45	214.49	7.04	-43.4	-51.6	4.1	8.38e-01	0	59	0	22020096	56	9734
2026-01-30 15:45:53.49	214.89	7.29	-43.4	-51.7	4.0	8.46e-01	0	59	104	22020096	57	9364
2026-01-30 15:45:57.54	215.30	7.54	-41.3	-45.1	8.2	6.58e-02	0	59	0	37748736	53	5509
2026-01-30 15:46:01.58	215.72	7.79	-40.6	-43.8	9.5	1.41e-02	0	59	0	67108864	52	5036
2026-01-30 15:46:05.62	216.15	8.05	-42.7	-47.4	4.8	7.38e-01	0	59	104	94371840	56	6031
2026-01-30 15:46:09.66	216.58	8.30	-41.8	-46.0	7.7	1.25e-02	0	59	0	104857600	53	6068
2026-01-30 15:46:13.70	217.02	8.56	-40.4	-43.3	10.4	4.50e-03	0	60	0	126877696	51	5011
2026-01-30 15:46:17.74	217.47	8.82	-40.3	-43.1	10.7	3.13e-03	0	60	0	156237824	51	4878
2026-01-30 15:46:21.79	217.93	9.07	-40.2	-42.8	11.0	2.40e-03	0	60	0	185597952	51	4750
2026-01-30 15:46:25.83	218.39	9.33	-40.0	-42.5	11.3	1.52e-03	0	60	0	213909504	51	4587
2026-01-30 15:46:29.87	218.86	9.59	-40.0	-42.6	11.3	1.45e-03	0	60	0	243269632	50	4880
2026-01-30 15:46:33.90	219.34	9.86	-40.0	-42.6	11.3	1.23e-03	0	60	0	272629760	50	4897
2026-01-30 15:46:37.94	219.83	10.12	-40.1	-42.6	11.3	1.44e-03	0	60	0	301989888	50	4914
2026-01-30 15:46:41.98	220.32	10.38	-40.1	-42.7	11.3	1.43e-03	0	60	0	331350016	50	4966
2026-01-30 15:46:46.02	220.83	10.65	-40.2	-42.8	11.3	1.40e-03	0	60	0	359661568	50	4999
2026-01-30 15:46:50.06	221.34	10.91	-40.2	-42.7	11.4	1.05e-03	0	60	0	389021696	50	4937
2026-01-30 15:46:54.11	221.87	11.18	-40.0	-42.4	11.7	6.48e-04	0	60	0	418381824	50	4808
2026-01-30 15:46:58.15	222.40	11.44	-39.9	-42.3	11.9	4.63e-04	0	61	0	447741952	50	4735
2026-01-30 15:47:02.19	222.94	11.71	-39.9	-42.2	12.0	4.81e-04	0	61	0	477102080	50	4704
2026-01-30 15:47:06.23	223.49	11.98	-39.8	-42.0	12.2	3.63e-04	0	61	0	506462208	50	4598
2026-01-30 15:47:10.28	224.05	12.25	-39.8	-42.0	12.3	1.72e-04	0	61	0	534773760	50	4564
2026-01-30 15:47:14.32	224.63	12.52	-39.8	-42.0	12.3	1.79e-04	0	61	0	564133888	50	4593
2026-01-30 15:47:18.36	225.21	12.79	-39.8	-42.1	12.3	2.32e-04	0	61	0	593494016	50	4615
2026-01-30 15:47:22.40	225.80	13.06	-39.7	-41.8	12.5	1.05e-04	0	61	0	622854144	50	4484
2026-01-30 15:47:26.44	226.40	13.33	-39.4	-41.6	12.9	6.17e-05	0	61	0	652214272	49	4605
2026-01-30 15:47:30.49	227.02	13.60	-39.5	-41.7	12.7	7.43e-05	0	61	0	681574400	49	4658
2026-01-30 15:47:34.53	227.64	13.87	-39.2	-41.2	13.3	3.31e-05	0	61	0	709885952	49	4400
2026-01-30 15:47:38.57	228.28	14.14	-39.2	-41.2	13.3	1.60e-05	0	61	0	739246080	49	4415
2026-01-30 15:47:42.61	228.92	14.41	-39.4	-41.5	13.0	4.80e-05	0	61	0	768606208	49	4587
2026-01-30 15:47:46.66	229.58	14.68	-39.5	-41.6	13.0	4.46e-05	0	61	0	797966336	49	4609
2026-01-30 15:47:50.70	230.25	14.94	-39.2	-41.2	13.4	2.17e-05	0	62	0	827326464	49	4394
2026-01-30 15:47:54.74	230.94	15.21	-39.0	-40.9	13.6	8.00e-06	0	61	0	855638016	49	4290
2026-01-30 15:47:58.78	231.63	15.48	-39.0	-40.9	13.6	4.50e-06	0	61	0	884998144	49	4289
2026-01-30 15:48:02.82	232.33	15.74	-39.0	-40.9	13.7	1.25e-05	0	62	0	914358272	48	4506
2026-01-30 15:48:06.86	233.05	16.01	-39.0	-40.9	13.7	9.10e-06	0	62	0	943718400	48	4531
2026-01-30 15:48:10.91	233.79	16.27	-38.9	-40.7	13.9	3.40e-06	0	62	0	973078528	48	4422
2026-01-30 15:48:14.95	234.53	16.53	-38.9	-40.8	13.8	9.10e-06	0	62	0	1002438656	48	4472
2026-01-30 15:48:18.99	235.28	16.79	-38.8	-40.6	14.0	5.70e-06	0	62	0	1031798784	48	4376
2026-01-30 15:48:23.04	236.05	17.05	-38.8	-40.6	14.1	1.10e-06	0	62	0	1060110336	48	4344
2026-01-30 15:48:27.08	236.84	17.30	-38.6	-40.4	14.3	0.00e+00	0	62	0	1089470464	48	4260
2026-01-30 15:48:31.12	237.63	17.56	-38.9	-40.7	13.9	3.40e-06	0	62	0	1118830592	48	4434
2026-01-30 15:48:35.15	238.44	17.81	-38.6	-40.4	14.3	4.50e-06	0	62	0	1148190720	48	4258
2026-01-30 15:48:39.19	239.26	18.05	-38.8	-40.6	14.1	1.10e-06	0	62	0	1176502272	48	4351
2026-01-30 15:48:43.23	240.09	18.30	-38.5	-40.3	14.4	1.10e-06	0	62	0	1205862400	48	4194
2026-01-30 15:48:47.26	240.93	18.53	-38.2	-39.9	14.6	0.00e+00	0	62	0	1235222528	47	4280
2026-01-30 15:48:51.31	241.79	18.77	-38.3	-40.0	14.5	0.00e+00	0	62	0	1264582656	47	4316
2026-01-30 15:48:55.35	242.67	19.00	-38.2	-39.9	14.6	0.00e+00	0	62	0	1293942784	47	4251
2026-01-30 15:48:59.39	243.55	19.23	-38.3	-40.0	14.5	3.40e-06	0	62	0	1323302912	47	4338
2026-01-30 15:49:03.43	244.45	19.45	-38.3	-39.9	14.6	0.00e+00	0	62	0	1351614464	47	4283
2026-01-30 15:49:07.48	245.36	19.67	-38.3	-40.0	14.5	0.00e+00	0	62	0	1380974592	47	4331
2026-01-30 15:49:11.52	246.28	19.88	-38.3	-40.0	14.5	0.00e+00	0	62	0	1410334720	47	4339
2026-01-30 15:49:15.56	247.22	20.09	-38.1	-39.7	14.9	0.00e+00	0	62	0	1439694848	47	4177
2026-01-30 15:49:19.60	248.17	20.29	-37.9	-39.6	15.0	1.10e-06	0	62	0	1469054976	46	4352
2026-01-30 15:49:23.64	249.13	20.48	-37.9	-39.5	15.0	1.10e-06	0	62	0	1498415104	46	4331
2026-01-30 15:49:27.68	250.10	20.67	-38.0	-39.7	14.9	0.00e+00	0	62	0	1526726656	46	4404
2026-01-30 15:49:31.72	251.08	20.85	-38.2	-39.9	14.7	0.00e+00	0	62	0	1556086784	46	4532
2026-01-30 15:49:35.77	252.08	21.02	-38.3	-40.0	14.6	0.00e+00	0	62	0	1585446912	46	4551
2026-01-30 15:49:39.81	253.08	21.19	-38.2	-39.9	14.7	2.20e-06	0	62	0	1614807040	46	4510
2026-01-30 15:49:43.85	254.09	21.35	-38.1	-39.8	14.8	1.10e-06	0	62	0	1644167168	46	4478
2026-01-30 15:49:47.90	255.12	21.50	-38.1	-39.7	14.9	0.00e+00	0	62	0	1673527296	46	4419
2026-01-30 15:49:51.94	256.15	21.64	-37.9	-39.5	15.0	0.00e+00	0	62	0	1701838848	46	4338
2026-01-30 15:49:55.98	257.20	21.77	-37.8	-39.4	15.2	0.00e+00	0	62	0	1731198976	46	4281
2026-01-30 15:50:00.03	258.25	21.89	-37.8	-39.4	15.2	0.00e+00	0	62	0	1760559104	46	4282
2026-01-30 15:50:04.07	259.31	22.01	-37.8	-39.4	15.2	0.00e+00	0	62	0	1789919232	46	4262
2026-01-30 15:50:08.11	260.37	22.11	-37.7	-39.3	15.3	0.00e+00	0	62	0	1819279360	46	4203
2026-01-30 15:50:12.15	261.45	22.21	-38.0	-39.6	14.9	0.00e+00	0	62	0	1848639488	46	4389
2026-01-30 15:50:16.19	262.53	22.29	-37.7	-39.2	15.4	0.00e+00	0	62	0	1876951040	46	4175
2026-01-30 15:50:20.22	263.61	22.37	-37.9	-39.5	15.1	1.10e-06	0	62	0	1906311168	46	4309
2026-01-30 15:50:24.26	264.70	22.43	-37.9	-39.5	15.0	0.00e+00	0	62	0	1935671296	46	4335
2026-01-30 15:50:28.30	265.79	22.49	-37.9	-39.5	15.1	0.00e+00	0	62	0	1965031424	46	4318
2026-01-30 15:50:32.34	266.88	22.53	-38.0	-39.6	15.0	0.00e+00	0	62	0	1994391552	46	4362
2026-01-30 15:50:36.38	267.98	22.56	-37.9	-39.6	15.0	0.00e+00	0	62	0	2022703104	46	4355
2026-01-30 15:50:40.43	269.09	22.59	-37.8	-39.4	15.1	0.00e+00	0	62	0	2052063232	46	4256
2026-01-30 15:50:44.47	270.19	22.60	-37.7	-39.3	15.3	0.00e+00	0	62	0	2081423360	46	4213
2026-01-30 15:50:48.50	271.29	22.60	-37.7	-39.3	15.2	0.00e+00	0	62	0	2110783488	46	4216
2026-01-30 15:50:52.54	272.39	22.59	-37.8	-39.4	15.2	0.00e+00	0	62	0	2139095040	46	4258
2026-01-30 15:50:56.58	273.49	22.57	-38.0	-39.6	14.9	0.00e+00	0	62	0	2168455168	46	4365
2026-01-30 15:51:00.62	274.59	22.54	-38.0	-39.7	14.8	0.00e+00	0	62	0	2197815296	46	4417
2026-01-30 15:51:04.66	275.68	22.50	-37.9	-39.6	14.9	1.10e-06	0	62	0	2227175424	46	4353
2026-01-30 15:51:08.70	276.78	22.45	-37.9	-39.5	15.0	0.00e+00	0	62	0	2256535552	46	4319
2026-01-30 15:51:12.74	277.86	22.38	-37.9	-39.5	15.0	1.10e-06	0	62	0	2285895680	46	4307
2026-01-30 15:51:16.78	278.95	22.31	-37.7	-39.3	15.2	0.00e+00	0	62	0	2314207232	46	4196
2026-01-30 15:51:20.82	280.03	22.23	-37.9	-39.6	14.9	0.00e+00	0	62	0	2343567360	46	4352
2026-01-30 15:51:24.87	281.10	22.14	-38.0	-39.6	14.8	0.00e+00	0	62	0	2372927488	46	4370
2026-01-30 15:51:28.91	282.17	22.03	-38.0	-39.6	14.8	0.00e+00	0	62	0	2402287616	46	4367
2026-01-30 15:51:32.95	283.22	21.92	-38.0	-39.7	14.8	0.00e+00	0	62	0	2431647744	46	4408
2026-01-30 15:51:36.99	284.27	21.80	-37.8	-39.4	15.0	0.00e+00	0	63	0	2459959296	46	4282
2026-01-30 15:51:41.03	285.32	21.67	-38.1	-39.7	14.6	1.10e-06	0	62	0	2489319424	46	4437
2026-01-30 15:51:45.08	286.35	21.53	-38.0	-39.6	14.7	0.00e+00	0	63	0	2518679552	46	4383
2026-01-30 15:51:49.11	287.37	21.39	-37.9	-39.6	14.7	0.00e+00	0	62	0	2548039680	46	4359
2026-01-30 15:51:53.15	288.39	21.23	-38.1	-39.8	14.6	0.00e+00	0	62	0	2577399808	46	4449
2026-01-30 15:51:57.20	289.39	21.07	-38.2	-39.9	14.4	1.10e-06	0	62	0	2606759936	46	4541
2026-01-30 15:52:01.24	290.39	20.90	-38.1	-39.9	14.5	0.00e+00	0	63	0	2636120064	46	4497
2026-01-30 15:52:05.28	291.37	20.72	-38.1	-39.8	14.5	1.10e-06	0	63	0	2664431616	46	4468
2026-01-30 15:52:09.32	292.34	20.53	-38.3	-40.1	14.2	1.10e-06	0	62	0	2693791744	46	4606
2026-01-30 15:52:13.36	293.30	20.34	-38.4	-40.1	14.1	2.20e-06	0	62	0	2723151872	46	4649
2026-01-30 15:52:17.41	294.25	20.14	-38.2	-40.0	14.3	2.20e-06	0	63	0	2752512000	46	4573
2026-01-30 15:52:21.45	295.18	19.94	-38.4	-40.2	14.0	1.10e-06	0	63	0	2781872128	46	4690
2026-01-30 15:52:25.50	296.11	19.73	-38.4	-40.2	14.0	3.40e-06	0	63	0	2811232256	46	4694
2026-01-30 15:52:29.54	297.02	19.52	-38.3	-40.0	14.3	3.40e-06	0	62	0	2840592384	46	4572
2026-01-30 15:52:33.58	297.91	19.30	-38.4	-40.2	14.1	2.20e-06	0	63	0	2868903936	46	4690
2026-01-30 15:52:37.63	298.80	19.07	-38.7	-40.6	13.7	4.50e-06	0	62	0	2898264064	46	4893
2026-01-30 15:52:41.67	299.67	18.84	-38.7	-40.6	13.7	0.00e+00	0	63	0	2927624192	47	4604
2026-01-30 15:52:45.71	300.53	18.61	-38.5	-40.3	14.0	4.50e-06	0	63	0	2956984320	47	4462
2026-01-30 15:52:49.75	301.38	18.37	-38.5	-40.4	13.9	1.10e-06	0	62	0	2986344448	47	4505
2026-01-30 15:52:53.79	302.21	18.13	-38.5	-40.3	13.9	1.10e-06	0	62	0	3015704576	47	4488
2026-01-30 15:52:57.84	303.03	17.89	-38.6	-40.5	13.7	1.37e-05	0	63	0	3044016128	47	4565
2026-01-30 15:53:01.88	303.84	17.64	-38.8	-40.8	13.5	1.60e-05	0	63	0	3073376256	47	4721
2026-01-30 15:53:05.92	304.63	17.39	-38.8	-40.8	13.4	1.71e-05	0	63	0	3102736384	47	4722
2026-01-30 15:53:09.96	305.41	17.14	-38.8	-40.8	13.4	1.83e-05	0	63	0	3132096512	47	4713
2026-01-30 15:53:14.01	306.18	16.88	-38.8	-40.7	13.4	1.48e-05	0	63	0	3161456640	47	4697
2026-01-30 15:53:18.05	306.94	16.63	-38.7	-40.7	13.5	1.37e-05	0	63	0	3189768192	47	4671
2026-01-30 15:53:22.08	307.68	16.37	-38.9	-40.9	13.2	2.28e-05	0	63	0	3219128320	47	4814
2026-01-30 15:53:26.13	308.41	16.11	-39.0	-41.1	13.0	4.00e-05	0	63	0	3248488448	47	4876
2026-01-30 15:53:30.17	309.13	15.85	-39.1	-41.2	12.8	6.17e-05	0	63	0	3277848576	47	4981
2026-01-30 15:53:34.21	309.84	15.58	-39.3	-41.4	12.9	6.52e-05	0	63	0	3307208704	48	4772
2026-01-30 15:53:38.26	310.54	15.32	-39.1	-41.2	13.1	2.97e-05	0	63	0	3336568832	48	4658
2026-01-30 15:53:42.30	311.22	15.05	-39.3	-41.4	12.8	7.66e-05	0	63	0	3364880384	48	4782
2026-01-30 15:53:46.34	311.89	14.79	-39.5	-41.8	12.4	1.54e-04	0	63	0	3394240512	48	4988
2026-01-30 15:53:50.38	312.55	14.52	-39.6	-41.9	12.2	2.31e-04	0	63	0	3423600640	48	5077
2026-01-30 15:53:54.42	313.20	14.26	-39.4	-41.6	12.5	1.44e-04	0	63	0	3452960768	48	4906
2026-01-30 15:53:58.46	313.83	13.99	-39.2	-41.3	12.9	5.37e-05	0	63	0	3482320896	48	4720
2026-01-30 15:54:02.50	314.46	13.72	-39.2	-41.3	12.8	5.95e-05	0	63	0	3510632448	48	4717
2026-01-30 15:54:06.54	315.07	13.45	-39.3	-41.4	12.7	1.04e-04	0	63	0	3539992576	48	4799
2026-01-30 15:54:10.58	315.68	13.19	-39.5	-41.8	12.3	1.94e-04	0	63	0	3569352704	48	5012
2026-01-30 15:54:14.63	316.27	12.92	-39.7	-42.1	11.9	4.46e-04	0	63	0	3598712832	49	4911
2026-01-30 15:54:18.67	316.85	12.65	-39.6	-42.0	12.0	4.29e-04	0	63	0	3628072960	49	4831
2026-01-30 15:54:22.71	317.43	12.39	-39.5	-41.7	12.2	2.48e-04	0	63	0	3657433088	49	4693
2026-01-30 15:54:26.76	317.99	12.12	-39.5	-41.7	12.2	2.25e-04	0	63	0	3685744640	49	4705
2026-01-30 15:54:30.80	318.54	11.85	-39.6	-41.9	12.1	3.26e-04	0	63	0	3715104768	49	4797
2026-01-30 15:54:34.84	319.09	11.59	-39.8	-42.3	11.6	7.87e-04	0	63	0	3744464896	49	5024
2026-01-30 15:54:38.88	319.62	11.32	-40.1	-42.7	11.1	1.57e-03	0	63	0	3773825024	49	5261
2026-01-30 15:54:42.93	320.15	11.06	-40.0	-42.6	11.2	1.48e-03	0	63	0	3803185152	49	5197
2026-01-30 15:54:46.97	320.66	10.80	-39.8	-42.3	11.6	8.31e-04	0	63	0	3831496704	49	4985
2026-01-30 15:54:51.01	321.17	10.53	-39.9	-42.5	11.3	1.31e-03	0	63	0	3860856832	49	5112
2026-01-30 15:54:55.05	321.67	10.27	-39.7	-42.2	11.5	1.10e-03	0	63	0	3890216960	49	4972
2026-01-30 15:54:59.09	322.16	10.01	-39.8	-42.4	11.4	1.13e-03	0	63	0	3919577088	49	5043
2026-01-30 15:55:03.13	322.64	9.75	-39.9	-42.5	11.2	1.50e-03	0	63	0	3948937216	49	5126
2026-01-30 15:55:07.17	323.11	9.50	-40.0	-42.6	11.0	1.86e-03	0	63	0	3978297344	49	5217
2026-01-30 15:55:11.21	323.58	9.24	-40.1	-42.8	10.7	3.06e-03	0	63	0	4006608896	49	5321
2026-01-30 15:55:15.25	324.04	8.98	-40.1	-42.8	10.7	3.69e-03	0	63	0	4035969024	49	5324
2026-01-30 15:55:19.29	324.49	8.73	-40.1	-43.0	10.5	4.33e-03	0	63	0	4065329152	49	5418
2026-01-30 15:55:23.33	324.93	8.47	-40.1	-43.0	10.4	4.84e-03	0	63	0	4094689280	50	5137
2026-01-30 15:55:27.38	325.36	8.22	-40.1	-43.0	10.4	5.13e-03	0	63	0	4124049408	50	5105
2026-01-30 15:55:31.42	325.79	7.97	-44.2	-54.5	3.8	8.41e-01	0	63	104	4147118080	57	12836
2026-01-30 15:55:35.47	326.22	7.72	-45.3	-56.5	3.8	8.46e-01	0	63	104	4147118080	60	13658
2026-01-30 15:55:39.51	326.63	7.47	-45.5	-56.7	3.8	8.46e-01	0	63	104	4147118080	60	14030
2026-01-30 15:55:43.55	327.04	7.22	-45.4	-56.6	3.8	8.46e-01	0	63	104	4147118080	60	13788
2026-01-30 15:55:47.59	327.44	6.98	-45.4	-56.6	3.8	8.46e-01	0	63	104	4147118080	60	13765
2026-01-30 15:55:51.63	327.83	6.73	-45.3	-56.5	3.8	8.46e-01	0	63	104	4147118080	60	13717
2026-01-30 15:55:55.68	328.22	6.49	-45.3	-56.5	3.8	8.47e-01	0	63	104	4147118080	60	13699
2026-01-30 15:55:59.72	328.60	6.24	-45.3	-56.5	3.8	8.46e-01	0	63	104	4147118080	60	13675
2026-01-30 15:56:03.76	328.98	6.00	-45.3	-56.5	3.8	8.46e-01	0	63	104	4147118080	60	13606
2026-01-30 15:56:07.80	329.35	5.76	-45.3	-56.5	3.8	8.46e-01	0	63	104	4147118080	60	13693
2026-01-30 15:56:11.85	329.72	5.52	-45.3	-56.5	3.8	8.47e-01	0	63	104	4147118080	60	13654
2026-01-30 15:56:15.89	330.08	5.28	-45.2	-56.5	3.8	8.45e-01	0	63	104	4147118080	60	13672
2026-01-30 15:56:19.93	330.43	5.05	-45.3	-56.5	3.8	8.46e-01	0	63	104	4147118080	60	13636
2026-01-30 15:56:23.97	330.78	4.81	-45.3	-56.5	3.8	8.45e-01	0	63	104	4147118080	60	13641
2026-01-30 15:56:28.01	331.12	4.58	-45.3	-56.5	3.8	8.46e-01	0	63	104	4147118080	60	13670
2026-01-30 15:56:32.05	331.46	4.35	-45.3	-56.5	3.8	8.46e-01	0	63	104	4147118080	60	13660
2026-01-30 15:56:36.09	331.79	4.12	-45.3	-56.5	3.8	8.46e-01	0	63	104	4147118080	60	13612
2026-01-30 15:56:40.14	332.12	3.88	-45.3	-56.5	3.8	8.47e-01	0	63	104	4147118080	60	13618
2026-01-30 15:56:44.18	332.44	3.66	-45.3	-56.5	3.8	8.46e-01	0	63	104	4147118080	60	13629
2026-01-30 15:56:48.22	332.76	3.43	-45.3	-56.5	3.8	8.45e-01	0	63	104	4147118080	60	13611
2026-01-30 15:56:52.26	333.07	3.20	-45.3	-56.5	3.8	8.45e-01	0	63	104	4147118080	60	13588
2026-01-30 15:56:56.30	333.38	2.98	-45.3	-56.4	3.8	8.46e-01	0	63	104	4147118080	60	13564
2026-01-30 15:57:00.35	333.69	2.75	-45.2	-56.5	3.8	8.46e-01	0	63	104	4147118080	60	13616
2026-01-30 15:57:04.39	333.99	2.53	-45.3	-56.5	3.8	8.46e-01	0	63	104	4147118080	60	13668
2026-01-30 15:57:08.43	334.29	2.31	-45.3	-56.5	3.8	8.46e-01	0	63	104	4147118080	60	13577
2026-01-30 15:57:12.47	334.58	2.09	-45.3	-56.5	3.8	8.46e-01	0	63	104	4147118080	60	13594

#Closed at: 2026-01-30 15:57:14
#Recorded file [4147 MB]: D:/lorett/data/31039_260130_184424.dat