passes_logs/2026/01/30/R2.0S_Moscow/R2.0S_Moscow__20260130_114235_AQUA_rec.log

#Pass ID: 20260130_114235_AQUA
#Satellite: AQUA
#Configuration: AQUA
#almurnet v.1.7.20251203
#Start time: 2026-01-30 11:42:37

#Version: 2.2.20231116
#Station: R2.0S_Moscow
#Location: 37.707566 lon 55.798166 lat
#TLE: 1 27424U 02022A   26029.54575153  .00001738  00000+0  35736-3 0  9994
#TLE: 2 27424  98.4104 356.2197 0001804  61.7823  56.0643 14.61874165263019

#Time	Az	El	Level	Level2	SNR	BER	BlckErr	Temp	State	Recorded	gain1	gain2
2026-01-30 11:42:37.58	161.66	2.11	-45.2	-63.9	3.8	7.46e-01	0	55	0	0	62	30225
2026-01-30 11:42:41.61	161.67	2.39	-45.2	-63.9	3.8	7.45e-01	0	55	104	0	61	31884
2026-01-30 11:42:45.66	161.68	2.66	-45.1	-63.9	3.8	7.43e-01	0	56	104	0	61	31811
2026-01-30 11:42:49.70	161.69	2.94	-45.1	-63.8	3.8	7.44e-01	0	56	104	0	61	31739
2026-01-30 11:42:53.74	161.70	3.22	-45.1	-63.8	3.8	7.45e-01	0	56	104	0	61	31722
2026-01-30 11:42:57.78	161.71	3.51	-45.1	-63.8	3.8	7.46e-01	0	56	104	0	61	31465
2026-01-30 11:43:01.83	161.73	3.80	-45.1	-63.8	3.8	7.45e-01	0	57	104	0	61	31638
2026-01-30 11:43:05.87	161.74	4.09	-45.1	-63.8	3.8	7.47e-01	0	57	104	0	61	31447
2026-01-30 11:43:09.91	161.75	4.38	-45.1	-63.7	3.8	7.46e-01	0	57	104	0	61	31416
2026-01-30 11:43:13.96	161.76	4.68	-45.1	-62.8	3.8	7.43e-01	0	57	104	0	61	28042
2026-01-30 11:43:18.00	161.77	4.98	-45.0	-59.9	3.9	7.35e-01	0	58	104	0	61	20173
2026-01-30 11:43:22.04	161.78	5.29	-44.7	-55.7	6.8	6.68e-01	92	58	0	4718592	61	12395
2026-01-30 11:43:26.08	161.80	5.60	-44.4	-53.7	8.8	6.36e-01	0	58	0	12058624	60	10452
2026-01-30 11:43:30.13	161.81	5.92	-44.4	-53.4	9.2	6.32e-01	0	58	0	19922944	60	10092
2026-01-30 11:43:34.17	161.82	6.23	-44.7	-55.6	6.9	6.65e-01	92	58	0	27262976	60	12979
2026-01-30 11:43:38.21	161.83	6.56	-44.9	-57.8	5.2	7.03e-01	18	58	0	30932992	60	16791
2026-01-30 11:43:42.25	161.84	6.88	-44.4	-53.2	9.3	6.27e-01	0	59	0	36700160	60	9874
2026-01-30 11:43:46.29	161.85	7.22	-43.8	-49.8	13.3	6.08e-01	0	59	0	44040192	59	7046
2026-01-30 11:43:50.34	161.87	7.56	-43.4	-48.7	14.5	6.08e-01	0	59	0	51380224	58	6576
2026-01-30 11:43:54.38	161.88	7.90	-43.8	-49.8	13.3	6.08e-01	0	59	0	59244544	58	7483
2026-01-30 11:43:58.42	161.89	8.25	-44.3	-52.2	9.9	6.20e-01	0	59	0	66584576	60	8853
2026-01-30 11:44:02.45	161.90	8.60	-44.0	-50.0	13.2	6.10e-01	0	59	0	71303168	59	7212
2026-01-30 11:44:06.49	161.91	8.96	-43.6	-48.8	14.5	6.07e-01	0	59	0	78643200	58	6670
2026-01-30 11:44:10.53	161.93	9.32	-43.4	-48.3	15.1	6.08e-01	0	59	0	86507520	58	6334
2026-01-30 11:44:14.57	161.94	9.69	-43.4	-48.1	15.3	6.04e-01	0	59	0	93847552	58	6180
2026-01-30 11:44:18.61	161.95	10.07	-43.3	-48.0	15.6	6.07e-01	0	60	0	101187584	58	6065
2026-01-30 11:44:22.65	161.96	10.45	-43.3	-47.9	15.7	6.08e-01	0	60	0	109051904	57	6377
2026-01-30 11:44:26.69	161.97	10.84	-43.3	-47.7	15.9	6.08e-01	0	60	0	116391936	57	6252
2026-01-30 11:44:30.73	161.99	11.24	-43.2	-47.6	16.1	6.06e-01	0	60	0	124256256	57	6153
2026-01-30 11:44:34.77	162.00	11.65	-43.2	-47.4	16.3	6.08e-01	0	60	0	131596288	57	6045
2026-01-30 11:44:38.81	162.01	12.06	-43.2	-47.4	16.3	6.05e-01	0	60	0	139460608	57	6059
2026-01-30 11:44:42.85	162.02	12.48	-43.1	-47.2	16.5	6.08e-01	0	60	0	146800640	57	5893
2026-01-30 11:44:46.89	162.03	12.91	-43.1	-47.2	16.6	6.06e-01	0	60	0	154664960	57	5878
2026-01-30 11:44:50.93	162.05	13.35	-43.1	-47.0	16.8	6.05e-01	0	61	0	162004992	57	5770
2026-01-30 11:44:54.97	162.06	13.79	-43.0	-46.9	17.0	6.07e-01	0	61	0	169345024	57	5685
2026-01-30 11:44:59.01	162.07	14.25	-43.0	-46.9	17.0	6.08e-01	0	60	0	177209344	57	5667
2026-01-30 11:45:03.05	162.08	14.71	-43.1	-47.0	16.9	6.07e-01	0	60	0	184549376	57	5755
2026-01-30 11:45:07.09	162.10	15.19	-43.0	-46.9	17.1	6.05e-01	0	61	0	192413696	57	5665
2026-01-30 11:45:11.13	162.11	15.67	-43.0	-46.9	17.1	6.04e-01	0	61	0	199753728	57	5662
2026-01-30 11:45:15.17	162.12	16.17	-43.0	-46.7	17.2	6.08e-01	0	61	0	207618048	57	5592
2026-01-30 11:45:19.21	162.13	16.68	-42.8	-46.5	17.5	6.08e-01	0	61	0	214958080	57	5424
2026-01-30 11:45:23.25	162.15	17.20	-43.0	-46.7	17.3	6.08e-01	0	61	0	222822400	57	5575
2026-01-30 11:45:27.29	162.16	17.73	-43.1	-47.0	17.1	6.08e-01	0	61	0	230162432	57	5743
2026-01-30 11:45:31.33	162.17	18.28	-43.1	-47.0	17.1	6.05e-01	0	61	0	238026752	57	5751
2026-01-30 11:45:35.37	162.18	18.84	-43.1	-46.9	17.1	6.07e-01	0	61	0	245366784	57	5712
2026-01-30 11:45:39.41	162.20	19.41	-43.1	-46.9	17.1	6.06e-01	0	61	0	252706816	57	5711
2026-01-30 11:45:43.46	162.21	20.00	-43.1	-47.0	17.1	6.07e-01	0	61	0	260571136	57	5747
2026-01-30 11:45:47.49	162.22	20.60	-43.2	-47.1	17.0	6.07e-01	0	61	0	267911168	57	5824
2026-01-30 11:45:51.54	162.23	21.22	-43.3	-47.3	16.8	6.06e-01	0	62	0	275775488	57	5989
2026-01-30 11:45:55.58	162.25	21.86	-43.4	-47.4	16.7	6.07e-01	0	61	0	283115520	57	6014
2026-01-30 11:45:59.61	162.26	22.52	-43.3	-47.3	16.8	6.05e-01	0	62	0	290979840	57	5947
2026-01-30 11:46:03.66	162.27	23.19	-43.3	-47.3	16.9	6.05e-01	0	61	0	298319872	57	5934
2026-01-30 11:46:07.70	162.28	23.89	-43.3	-47.3	16.8	6.07e-01	0	62	0	306184192	57	5954
2026-01-30 11:46:11.74	162.30	24.60	-43.4	-47.3	16.9	6.07e-01	0	62	0	313524224	57	5965
2026-01-30 11:46:15.78	162.31	25.34	-43.3	-47.1	17.1	6.06e-01	0	62	0	320864256	57	5844
2026-01-30 11:46:19.81	162.32	26.10	-43.3	-47.1	17.1	6.07e-01	0	62	0	328728576	57	5844
2026-01-30 11:46:23.85	162.33	26.88	-43.3	-47.2	17.1	6.07e-01	0	61	0	336068608	57	5861
2026-01-30 11:46:27.89	162.35	27.69	-43.1	-46.8	17.4	6.07e-01	0	62	0	343932928	57	5625
2026-01-30 11:46:31.93	162.36	28.52	-43.0	-46.7	17.6	6.07e-01	0	62	0	351272960	57	5540
2026-01-30 11:46:35.98	162.37	29.39	-43.1	-46.8	17.4	6.07e-01	0	62	0	359137280	57	5632
2026-01-30 11:46:40.02	162.38	30.28	-42.9	-46.4	17.8	6.07e-01	0	62	0	366477312	57	5388
2026-01-30 11:46:44.06	162.40	31.20	-43.1	-46.7	17.5	6.06e-01	0	62	0	374341632	57	5585
2026-01-30 11:46:48.10	162.41	32.16	-43.0	-46.6	17.7	6.06e-01	0	62	0	381681664	57	5509
2026-01-30 11:46:52.13	162.42	33.14	-43.2	-46.9	17.4	6.07e-01	0	62	0	389545984	57	5717
2026-01-30 11:46:56.17	162.44	34.17	-43.3	-47.1	17.2	6.07e-01	0	62	0	396886016	57	5824
2026-01-30 11:47:00.21	162.45	35.23	-43.7	-47.8	16.5	6.09e-01	0	62	0	404226048	57	6342
2026-01-30 11:47:04.25	162.46	36.33	-43.9	-48.3	16.0	6.06e-01	0	62	0	412090368	58	6347
2026-01-30 11:47:08.29	162.47	37.47	-44.2	-48.9	15.4	6.07e-01	0	62	0	419430400	58	6774
2026-01-30 11:47:12.33	162.49	38.65	-44.3	-49.1	15.2	6.08e-01	0	62	0	427294720	59	6570
2026-01-30 11:47:16.37	162.50	39.88	-44.0	-48.5	15.9	6.07e-01	0	62	0	434634752	59	6063
2026-01-30 11:47:20.41	162.51	41.16	-43.9	-48.3	16.1	6.07e-01	0	62	0	442499072	59	5931
2026-01-30 11:47:24.45	162.53	42.49	-43.7	-47.7	16.6	6.06e-01	0	62	0	449839104	59	5581
2026-01-30 11:47:28.49	162.54	43.86	-43.3	-47.0	17.4	6.08e-01	0	62	0	457703424	58	5440
2026-01-30 11:47:32.53	162.55	45.30	-43.2	-46.9	17.5	6.08e-01	0	62	0	465043456	58	5353
2026-01-30 11:47:36.57	162.56	46.78	-43.4	-47.2	17.2	6.08e-01	0	62	0	472383488	58	5554
2026-01-30 11:47:40.61	162.58	48.33	-43.2	-46.7	17.6	6.06e-01	0	62	0	480247808	58	5275
2026-01-30 11:47:44.65	162.59	49.93	-43.4	-47.3	17.1	6.07e-01	0	62	0	487587840	58	5596
2026-01-30 11:47:48.69	162.60	51.59	-43.2	-46.8	17.5	6.06e-01	0	62	0	495452160	58	5321
2026-01-30 11:47:52.72	162.61	53.32	-42.9	-46.3	18.1	6.07e-01	0	62	0	502792192	57	5295
2026-01-30 11:47:56.76	162.63	55.11	-42.9	-46.3	18.0	6.06e-01	0	62	0	510656512	57	5336
2026-01-30 11:48:00.80	162.64	56.96	-43.3	-47.0	17.4	6.07e-01	0	62	0	517996544	57	5724
2026-01-30 11:48:04.84	162.65	58.88	-43.5	-47.5	16.8	6.08e-01	0	62	0	525860864	57	6097
2026-01-30 11:48:08.88	162.66	60.87	-43.8	-48.0	16.4	6.06e-01	0	62	0	533200896	58	6099
2026-01-30 11:48:12.93	162.67	62.93	-44.5	-49.7	14.6	6.09e-01	0	62	0	540540928	59	6967
2026-01-30 11:48:16.97	162.68	65.04	-44.7	-50.7	13.2	6.09e-01	0	62	0	548405248	60	7396
2026-01-30 11:48:21.01	162.69	67.22	-44.7	-50.9	12.9	6.12e-01	0	62	0	555745280	60	7593
2026-01-30 11:48:25.05	162.70	69.45	-44.8	-51.2	12.5	6.10e-01	0	62	0	563609600	60	7856
2026-01-30 11:48:29.08	162.71	71.74	-44.8	-51.0	12.8	6.10e-01	0	62	0	570949632	60	7663
2026-01-30 11:48:33.12	162.72	74.08	-44.4	-50.0	13.8	6.07e-01	0	62	0	578813952	60	6828
2026-01-30 11:48:37.16	162.72	76.48	-44.1	-49.3	14.5	6.09e-01	0	62	0	586153984	60	6291
2026-01-30 11:48:41.20	162.72	78.91	-44.2	-49.0	15.1	6.06e-01	0	62	0	594018304	59	6451
2026-01-30 11:48:45.24	162.71	81.37	-43.3	-47.2	17.1	6.06e-01	0	62	0	601358336	58	5529
2026-01-30 11:48:49.28	162.69	83.87	-43.5	-47.5	16.7	6.05e-01	0	62	0	608698368	58	5764
2026-01-30 11:48:53.31	162.61	86.38	-43.6	-47.7	16.5	6.07e-01	0	62	0	616562688	58	5867
2026-01-30 11:48:57.35	162.10	88.90	-42.8	-46.2	18.0	6.05e-01	0	62	0	623902720	57	5221
2026-01-30 11:49:01.39	343.45	88.57	-42.8	-46.3	17.9	6.07e-01	0	62	0	631767040	56	5593
2026-01-30 11:49:05.43	343.09	86.05	-43.7	-48.0	16.2	6.08e-01	0	62	0	639107072	58	6078
2026-01-30 11:49:09.47	343.02	83.54	-43.6	-47.8	16.4	6.06e-01	0	62	0	646971392	58	5950
2026-01-30 11:49:13.51	343.00	81.05	-43.3	-47.2	16.8	6.06e-01	0	62	0	654311424	58	5577
2026-01-30 11:49:17.56	342.99	78.58	-43.9	-48.2	16.0	6.08e-01	0	62	0	662175744	58	6261
2026-01-30 11:49:21.59	343.00	76.16	-44.7	-50.9	12.9	6.09e-01	0	62	0	669515776	60	7571
2026-01-30 11:49:25.63	343.00	73.78	-44.5	-50.1	13.8	6.10e-01	0	62	0	676855808	60	6906
2026-01-30 11:49:29.67	343.01	71.45	-44.6	-50.5	13.3	6.10e-01	0	62	0	684720128	60	7235
2026-01-30 11:49:33.71	343.02	69.17	-45.0	-51.8	12.0	6.15e-01	0	62	0	692060160	60	8415
2026-01-30 11:49:37.75	343.03	66.95	-44.8	-51.1	12.8	6.10e-01	0	62	0	699924480	60	7738
2026-01-30 11:49:41.79	343.04	64.79	-44.4	-49.8	14.1	6.08e-01	0	62	0	707264512	60	6723
2026-01-30 11:49:45.82	343.05	62.69	-44.1	-48.7	15.6	6.09e-01	0	62	0	715128832	59	6259
2026-01-30 11:49:49.86	343.06	60.65	-43.8	-47.9	16.5	6.08e-01	0	62	0	722468864	58	6031
2026-01-30 11:49:53.90	343.07	58.68	-43.6	-47.8	16.6	6.07e-01	0	62	0	730333184	58	5949
2026-01-30 11:49:57.94	343.09	56.78	-43.3	-47.0	17.4	6.07e-01	0	62	0	737673216	57	5765
2026-01-30 11:50:01.98	343.10	54.93	-42.7	-46.0	18.4	6.06e-01	0	62	0	745013248	56	5431
2026-01-30 11:50:06.02	343.11	53.16	-42.6	-45.8	18.6	6.07e-01	0	62	0	752877568	56	5283
2026-01-30 11:50:10.05	343.13	51.45	-42.9	-46.3	18.1	6.06e-01	0	62	0	760217600	56	5645
2026-01-30 11:50:14.09	343.14	49.80	-43.2	-46.9	17.4	6.06e-01	0	62	0	768081920	57	5673
2026-01-30 11:50:18.13	343.15	48.21	-43.3	-47.0	17.4	6.07e-01	0	62	0	775421952	57	5755
2026-01-30 11:50:22.17	343.17	46.68	-43.4	-56.4	3.8	7.47e-01	0	62	104	779616256	57	17002
2026-01-30 11:50:26.21	343.18	45.20	-45.1	-60.2	3.9	7.43e-01	0	62	104	779616256	62	19766
2026-01-30 11:50:30.25	343.19	43.79	-43.7	-56.8	3.8	7.50e-01	0	62	104	779616256	59	15915
2026-01-30 11:50:34.29	343.21	42.42	-43.9	-56.8	3.9	7.32e-01	0	62	104	779616256	59	15869
2026-01-30 11:50:38.33	343.22	41.11	-44.2	-58.2	3.8	7.42e-01	0	62	104	779616256	59	18654
2026-01-30 11:50:42.37	343.24	39.84	-44.4	-58.4	3.8	7.42e-01	0	62	104	779616256	60	17972
2026-01-30 11:50:46.41	343.25	38.62	-44.5	-58.5	3.8	7.47e-01	0	62	104	779616256	59	19272
2026-01-30 11:50:50.45	343.26	37.45	-44.0	-57.7	3.9	7.46e-01	0	62	104	779616256	59	17518
2026-01-30 11:50:54.49	343.28	36.31	-43.6	-56.9	3.8	7.43e-01	0	62	104	779616256	59	16016
2026-01-30 11:50:58.53	343.29	35.22	-43.4	-56.6	3.9	7.45e-01	0	62	104	779616256	58	16338
2026-01-30 11:51:02.57	343.31	34.17	-43.8	-57.0	3.8	7.44e-01	0	62	104	779616256	58	17100
2026-01-30 11:51:06.61	343.32	33.15	-43.7	-56.7	3.8	7.43e-01	0	62	104	779616256	57	17563
2026-01-30 11:51:10.65	343.34	32.17	-44.3	-58.4	3.8	7.45e-01	0	62	104	779616256	59	19103
2026-01-30 11:51:14.69	343.35	31.22	-44.7	-59.2	3.8	7.48e-01	0	62	104	779616256	59	20796
2026-01-30 11:51:18.71	343.36	30.31	-44.8	-60.1	3.7	7.44e-01	0	62	104	779616256	60	21806
2026-01-30 11:51:22.75	343.38	29.43	-45.0	-60.4	3.7	7.48e-01	0	62	104	779616256	60	22760
2026-01-30 11:51:26.79	343.39	28.57	-44.7	-59.7	3.8	7.45e-01	0	62	104	779616256	59	22072
2026-01-30 11:51:30.84	343.41	27.74	-45.3	-62.2	3.7	7.45e-01	0	62	104	779616256	61	26315
2026-01-30 11:51:34.88	343.42	26.94	-44.8	-61.1	3.8	7.46e-01	0	62	104	779616256	60	24673
2026-01-30 11:51:38.92	343.44	26.16	-45.2	-62.3	3.8	7.44e-01	0	62	104	779616256	60	28120
2026-01-30 11:51:42.96	343.45	25.41	-44.4	-60.8	3.8	7.45e-01	0	62	104	779616256	59	25150
2026-01-30 11:51:47.00	343.47	24.68	-45.0	-62.3	3.8	7.48e-01	0	62	104	779616256	60	28304
2026-01-30 11:51:51.03	343.48	23.97	-43.9	-60.4	3.8	7.45e-01	0	62	104	779616256	58	25401
2026-01-30 11:51:55.08	343.50	23.28	-44.5	-62.0	3.8	7.46e-01	0	62	104	779616256	60	27240
2026-01-30 11:51:59.12	343.51	22.61	-42.9	-58.9	3.8	7.47e-01	0	62	104	779616256	56	24100
2026-01-30 11:52:03.15	343.53	21.96	-44.3	-61.6	3.8	7.44e-01	0	62	104	779616256	59	27629
2026-01-30 11:52:07.19	343.54	21.32	-42.4	-59.7	3.9	7.45e-01	0	62	104	779616256	55	27918
2026-01-30 11:52:11.23	343.56	20.71	-43.5	-61.4	3.8	7.44e-01	0	62	104	779616256	57	30362
2026-01-30 11:52:15.27	343.57	20.11	-42.3	-61.1	3.8	7.47e-01	0	63	104	779616256	56	31022
2026-01-30 11:52:19.31	343.59	19.52	-42.3	-61.1	3.8	7.47e-01	0	63	104	779616256	55	32852
2026-01-30 11:52:23.35	343.60	18.95	-41.9	-60.8	3.8	7.48e-01	0	62	104	779616256	55	31537
2026-01-30 11:52:27.39	343.62	18.39	-41.8	-60.7	3.8	7.46e-01	0	63	104	779616256	55	31162
2026-01-30 11:52:31.43	343.63	17.85	-41.9	-60.7	3.8	7.45e-01	0	62	104	779616256	55	31412
2026-01-30 11:52:35.46	343.65	17.32	-41.9	-60.8	3.8	7.44e-01	0	62	104	779616256	55	31606
2026-01-30 11:52:39.50	343.66	16.81	-41.9	-60.8	3.8	7.44e-01	0	62	104	779616256	55	31518
2026-01-30 11:52:43.54	343.68	16.30	-41.8	-60.7	3.8	7.44e-01	0	62	104	779616256	55	31246
2026-01-30 11:52:47.59	343.69	15.81	-41.9	-60.8	3.8	7.44e-01	0	63	104	779616256	55	31678
2026-01-30 11:52:51.62	343.71	15.32	-41.9	-60.7	3.8	7.43e-01	0	63	104	779616256	55	31411
2026-01-30 11:52:55.66	343.72	14.85	-41.7	-60.6	3.8	7.42e-01	0	63	104	779616256	55	30799
2026-01-30 11:52:59.70	343.74	14.39	-41.8	-60.6	3.8	7.46e-01	0	62	104	779616256	55	30943
2026-01-30 11:53:03.74	343.75	13.93	-41.8	-60.7	3.8	7.49e-01	0	63	104	779616256	55	31216
2026-01-30 11:53:07.78	343.77	13.49	-41.7	-60.6	3.8	7.44e-01	0	62	104	779616256	55	30810
2026-01-30 11:53:11.83	343.79	13.05	-41.6	-60.4	3.8	7.46e-01	0	62	104	779616256	55	30184
2026-01-30 11:53:15.87	343.80	12.63	-41.6	-60.4	3.8	7.42e-01	0	62	104	779616256	55	30218
2026-01-30 11:53:19.91	343.82	12.21	-41.6	-60.5	3.8	7.47e-01	0	62	104	779616256	55	30510
2026-01-30 11:53:23.95	343.83	11.80	-41.6	-60.5	3.8	7.46e-01	0	62	104	779616256	55	30478
2026-01-30 11:53:27.98	343.85	11.40	-41.5	-60.3	3.8	7.43e-01	0	62	104	779616256	55	29950
2026-01-30 11:53:32.02	343.86	11.00	-41.4	-60.2	3.8	7.45e-01	0	62	104	779616256	54	31328
2026-01-30 11:53:36.06	343.88	10.61	-41.4	-60.3	3.8	7.43e-01	0	62	104	779616256	54	31483
2026-01-30 11:53:40.10	343.89	10.23	-41.5	-60.3	3.8	7.41e-01	0	62	104	779616256	54	31724
2026-01-30 11:53:44.14	343.91	9.85	-41.5	-60.4	3.8	7.46e-01	0	62	104	779616256	54	31865
2026-01-30 11:53:48.18	343.93	9.48	-41.5	-60.3	3.8	7.43e-01	0	62	104	779616256	54	31608
2026-01-30 11:53:52.21	343.94	9.12	-41.4	-60.2	3.8	7.48e-01	0	63	104	779616256	54	31332
2026-01-30 11:53:56.26	343.96	8.76	-41.3	-60.2	3.8	7.49e-01	0	62	104	779616256	54	31161
2026-01-30 11:54:00.30	343.97	8.41	-41.3	-60.2	3.8	7.45e-01	0	62	104	779616256	54	31136
2026-01-30 11:54:04.33	343.99	8.07	-41.4	-60.2	3.8	7.45e-01	0	62	104	779616256	54	31439
2026-01-30 11:54:08.37	344.01	7.72	-44.8	-63.5	3.8	7.47e-01	0	63	104	779616256	60	32320
2026-01-30 11:54:12.41	344.02	7.39	-46.3	-65.0	3.8	7.44e-01	0	62	104	779616256	63	32507
2026-01-30 11:54:16.45	344.04	7.06	-46.4	-65.1	3.9	7.42e-01	0	62	104	779616256	63	32734
2026-01-30 11:54:20.49	344.05	6.73	-46.3	-65.0	3.8	7.47e-01	0	62	104	779616256	63	32344
2026-01-30 11:54:24.54	344.07	6.41	-46.2	-64.9	3.8	7.47e-01	0	62	104	779616256	63	32042
2026-01-30 11:54:28.58	344.09	6.09	-46.2	-64.9	3.8	7.47e-01	0	62	104	779616256	63	31923
2026-01-30 11:54:32.62	344.10	5.78	-46.2	-64.9	3.8	7.45e-01	0	63	104	779616256	63	31873
2026-01-30 11:54:36.66	344.12	5.47	-46.2	-64.9	3.8	7.47e-01	0	62	104	779616256	63	31886
2026-01-30 11:54:40.71	344.13	5.16	-46.2	-64.8	3.8	7.43e-01	0	62	104	779616256	63	31753
2026-01-30 11:54:44.75	344.15	4.86	-46.1	-64.8	3.8	7.46e-01	0	62	104	779616256	63	31631
2026-01-30 11:54:48.79	344.17	4.56	-46.1	-64.8	3.8	7.44e-01	0	62	104	779616256	63	31551
2026-01-30 11:54:52.83	344.18	4.27	-46.1	-64.8	3.8	7.44e-01	0	62	104	779616256	62	33380
2026-01-30 11:54:56.88	344.20	3.98	-46.1	-64.8	3.8	7.45e-01	0	62	104	779616256	62	33369
2026-01-30 11:55:00.92	344.21	3.69	-46.1	-64.8	3.8	7.45e-01	0	62	104	779616256	62	33364
2026-01-30 11:55:04.96	344.23	3.41	-46.0	-64.8	3.8	7.41e-01	0	62	104	779616256	62	33339
2026-01-30 11:55:09.00	344.25	3.13	-46.0	-64.8	3.8	7.46e-01	0	63	104	779616256	62	33313
2026-01-30 11:55:13.04	344.26	2.85	-46.1	-64.7	3.8	7.46e-01	0	63	104	779616256	62	33264
2026-01-30 11:55:17.09	344.28	2.58	-46.1	-64.8	3.8	7.49e-01	0	63	104	779616256	62	33319
2026-01-30 11:55:21.13	344.30	2.30	-46.1	-64.8	3.8	7.47e-01	0	62	104	779616256	62	33330
2026-01-30 11:55:25.17	344.31	2.04	-46.1	-64.7	3.8	7.43e-01	0	62	104	779616256	62	33277

#Closed at: 2026-01-30 11:55:27
#Recorded file [779 MB]: D:/lorett/data/31039_260130_144237.dat