passes_logs/2026/01/30/R2.0S_Moscow/R2.0S_Moscow__20260130_112527_SUOMI_NPP_rec.log

#Pass ID: 20260130_112527_SUOMI NPP
#Satellite: SUOMI NPP
#Configuration: NPP
#almurnet v.1.7.20251203
#Start time: 2026-01-30 11:25:28

#Version: 2.2.20231116
#Station: R2.0S_Moscow
#Location: 37.707566 lon 55.798166 lat
#TLE: 1 37849U 11061A   26029.48304708  .00000140  00000+0  87283-4 0  9999
#TLE: 2 37849  98.7824 331.4079 0002024  38.4342 321.6978 14.19531488738761

#Time	Az	El	Level	Level2	SNR	BER	BlckErr	Temp	State	Recorded	gain1	gain2
2026-01-30 11:25:28.80	203.66	2.06	-43.7	-58.1	3.8	1.49e+00	0	52	0	0	59	18348
2026-01-30 11:25:32.84	203.93	2.29	-43.6	-58.0	3.8	1.49e+00	0	53	104	0	59	18240
2026-01-30 11:25:36.88	204.20	2.52	-43.6	-58.0	3.8	1.49e+00	0	53	104	0	59	18227
2026-01-30 11:25:40.92	204.48	2.75	-43.6	-58.0	3.8	1.49e+00	0	53	104	0	59	18179
2026-01-30 11:25:44.96	204.77	2.98	-43.6	-58.0	3.8	1.49e+00	0	54	104	0	59	18145
2026-01-30 11:25:49.00	205.06	3.22	-43.6	-58.0	3.8	1.49e+00	0	54	104	0	59	18229
2026-01-30 11:25:53.05	205.35	3.45	-43.6	-58.0	3.8	1.49e+00	0	55	104	0	59	18196
2026-01-30 11:25:57.09	205.65	3.69	-43.6	-58.0	3.8	1.49e+00	0	54	104	0	59	18191
2026-01-30 11:26:01.13	205.95	3.93	-43.6	-58.0	3.8	1.49e+00	0	55	104	0	59	18178
2026-01-30 11:26:05.17	206.26	4.17	-43.6	-58.0	3.8	1.49e+00	0	55	104	0	59	18138
2026-01-30 11:26:09.21	206.57	4.41	-43.6	-58.0	3.8	1.49e+00	0	55	104	0	59	18113
2026-01-30 11:26:13.25	206.89	4.65	-43.6	-57.9	3.8	1.49e+00	0	55	104	0	59	18087
2026-01-30 11:26:17.29	207.21	4.90	-43.6	-58.0	3.8	1.49e+00	0	55	104	0	59	18119
2026-01-30 11:26:21.33	207.53	5.15	-43.6	-58.0	3.8	1.49e+00	0	56	104	0	59	18137
2026-01-30 11:26:25.37	207.87	5.39	-43.6	-57.8	3.8	1.49e+00	0	56	104	0	59	17870
2026-01-30 11:26:29.41	208.21	5.64	-43.6	-57.7	3.8	1.49e+00	0	56	104	0	59	17565
2026-01-30 11:26:33.46	208.55	5.89	-43.5	-57.2	3.8	1.49e+00	0	56	104	0	59	16582
2026-01-30 11:26:37.50	208.90	6.15	-43.5	-56.3	3.9	1.49e+00	0	57	104	0	58	15927
2026-01-30 11:26:41.54	209.25	6.40	-43.3	-54.5	4.2	1.41e+00	0	57	0	0	58	12867
2026-01-30 11:26:45.58	209.62	6.66	-43.2	-53.2	4.6	8.61e-01	0	57	0	5242880	58	11065
2026-01-30 11:26:49.62	209.98	6.91	-43.4	-54.8	4.1	1.39e+00	0	57	0	10485760	58	13406
2026-01-30 11:26:53.67	210.36	7.17	-43.5	-57.6	3.8	1.49e+00	0	57	104	10485760	58	18492
2026-01-30 11:26:57.71	210.74	7.43	-43.1	-52.7	4.8	9.43e-01	0	58	0	11534336	58	10449
2026-01-30 11:27:01.75	211.13	7.70	-42.7	-50.0	6.7	2.40e-01	0	58	0	18874368	57	8094
2026-01-30 11:27:05.79	211.52	7.96	-42.9	-51.1	5.8	2.89e-01	0	58	0	27262976	57	9246
2026-01-30 11:27:09.83	211.92	8.22	-43.8	-57.5	3.8	3.51e-01	0	58	104	33554432	58	18294
2026-01-30 11:27:13.88	212.33	8.49	-42.4	-48.5	8.3	5.37e-02	0	58	0	37748736	56	7213
2026-01-30 11:27:17.92	212.74	8.76	-42.4	-48.3	8.6	4.49e-02	0	58	0	46137344	56	7061
2026-01-30 11:27:21.96	213.17	9.03	-42.4	-48.2	8.6	4.10e-02	0	58	0	53477376	56	7003
2026-01-30 11:27:26.00	213.60	9.30	-42.5	-48.3	8.6	3.47e-02	0	58	0	60817408	56	7114
2026-01-30 11:27:30.04	214.04	9.58	-42.5	-48.4	8.6	4.41e-02	0	58	0	68157440	56	7186
2026-01-30 11:27:34.08	214.48	9.85	-42.7	-49.0	8.0	7.14e-02	0	59	0	75497472	56	7684
2026-01-30 11:27:38.12	214.94	10.13	-42.7	-48.9	8.2	6.12e-02	0	59	0	83886080	56	7619
2026-01-30 11:27:42.16	215.40	10.40	-42.6	-48.6	8.5	4.31e-02	0	59	0	91226112	56	7316
2026-01-30 11:27:46.20	215.87	10.68	-42.6	-48.3	8.9	2.76e-02	0	59	0	98566144	56	7055
2026-01-30 11:27:50.24	216.35	10.96	-42.6	-48.1	9.1	2.47e-02	0	59	0	105906176	56	6930
2026-01-30 11:27:54.28	216.84	11.25	-42.6	-48.0	9.3	1.83e-02	0	59	0	114294784	56	6822
2026-01-30 11:27:58.31	217.34	11.53	-42.6	-48.1	9.2	2.05e-02	0	59	0	121634816	56	6927
2026-01-30 11:28:02.35	217.84	11.81	-42.6	-48.1	9.2	2.07e-02	0	59	0	128974848	56	6929
2026-01-30 11:28:06.39	218.36	12.10	-42.6	-48.1	9.3	1.71e-02	0	59	0	136314880	56	6887
2026-01-30 11:28:10.43	218.89	12.39	-42.8	-48.5	8.9	2.42e-02	0	59	0	143654912	56	7221
2026-01-30 11:28:14.47	219.43	12.68	-42.8	-48.6	8.8	3.90e-02	0	60	0	152043520	56	7348
2026-01-30 11:28:18.51	219.97	12.97	-42.9	-48.8	8.6	3.57e-02	0	60	0	159383552	56	7508
2026-01-30 11:28:22.54	220.53	13.26	-42.9	-48.6	8.8	2.75e-02	0	60	0	166723584	56	7360
2026-01-30 11:28:26.59	221.10	13.55	-42.8	-48.2	9.3	1.83e-02	0	60	0	174063616	56	6983
2026-01-30 11:28:30.63	221.68	13.84	-42.6	-47.5	10.1	7.72e-03	0	60	0	182452224	56	6470
2026-01-30 11:28:34.67	222.27	14.14	-42.4	-47.2	10.4	5.39e-03	0	60	0	189792256	56	6247
2026-01-30 11:28:38.70	222.87	14.43	-42.5	-47.3	10.3	4.81e-03	0	60	0	197132288	56	6309
2026-01-30 11:28:42.74	223.49	14.72	-42.5	-47.3	10.4	4.47e-03	0	60	0	204472320	56	6280
2026-01-30 11:28:46.78	224.11	15.02	-42.8	-48.0	9.7	9.04e-03	0	60	0	211812352	56	6822
2026-01-30 11:28:50.82	224.75	15.32	-42.9	-48.4	9.2	1.60e-02	0	60	0	220200960	56	7155
2026-01-30 11:28:54.86	225.40	15.61	-42.8	-48.0	9.7	1.42e-02	0	60	0	227540992	56	6804
2026-01-30 11:28:58.90	226.06	15.91	-42.6	-47.3	10.5	5.62e-03	0	60	0	234881024	56	6308
2026-01-30 11:29:02.94	226.74	16.20	-42.4	-46.9	10.9	2.72e-03	0	60	0	242221056	56	6046
2026-01-30 11:29:06.97	227.43	16.50	-42.3	-46.7	11.2	1.45e-03	0	60	0	250609664	56	5869
2026-01-30 11:29:11.01	228.13	16.79	-42.1	-46.3	11.4	1.11e-03	0	61	0	257949696	55	5952
2026-01-30 11:29:15.05	228.85	17.09	-41.8	-47.0	10.6	2.57e-03	0	61	0	265289728	55	6481
2026-01-30 11:29:19.10	229.58	17.38	-42.3	-46.9	10.7	3.09e-03	0	60	0	272629760	55	6399
2026-01-30 11:29:23.14	230.32	17.68	-42.4	-47.1	10.6	3.61e-03	0	61	0	279969792	55	6499
2026-01-30 11:29:27.18	231.08	17.97	-42.4	-47.1	10.6	3.52e-03	0	61	0	288358400	55	6507
2026-01-30 11:29:31.22	231.85	18.26	-42.1	-46.3	11.4	9.39e-04	0	61	0	295698432	55	5954
2026-01-30 11:29:35.26	232.64	18.55	-41.9	-45.9	11.9	5.78e-04	0	61	0	303038464	55	5662
2026-01-30 11:29:39.31	233.44	18.83	-41.8	-45.6	12.1	2.30e-04	0	61	0	310378496	55	5486
2026-01-30 11:29:43.34	234.26	19.12	-41.7	-45.5	12.2	2.66e-04	0	61	0	318767104	55	5458
2026-01-30 11:29:47.38	235.09	19.40	-41.7	-45.5	12.3	1.43e-04	0	61	0	326107136	55	5411
2026-01-30 11:29:51.42	235.93	19.68	-41.8	-45.6	12.2	2.41e-04	0	61	0	333447168	55	5496
2026-01-30 11:29:55.46	236.79	19.95	-41.9	-45.9	11.9	2.97e-04	0	61	0	340787200	55	5683
2026-01-30 11:29:59.50	237.67	20.23	-42.0	-46.1	11.7	4.29e-04	0	61	0	348127232	55	5789
2026-01-30 11:30:03.54	238.56	20.49	-41.8	-45.6	12.2	2.26e-04	0	61	0	356515840	55	5473
2026-01-30 11:30:07.58	239.47	20.76	-42.0	-46.0	11.8	3.89e-04	0	61	0	363855872	55	5747
2026-01-30 11:30:11.62	240.39	21.02	-42.2	-46.5	11.3	1.25e-03	0	61	0	371195904	55	6090
2026-01-30 11:30:15.65	241.32	21.27	-42.3	-46.7	11.1	1.47e-03	0	61	0	378535936	55	6208
2026-01-30 11:30:19.69	242.28	21.52	-42.2	-46.5	11.3	1.17e-03	0	61	0	386924544	55	6071
2026-01-30 11:30:23.73	243.24	21.76	-42.5	-47.1	10.6	1.86e-03	0	61	0	394264576	55	6551
2026-01-30 11:30:27.77	244.22	22.00	-42.6	-47.1	10.9	2.53e-03	0	61	0	401604608	56	6145
2026-01-30 11:30:31.81	245.22	22.23	-42.4	-46.8	11.1	1.11e-03	0	61	0	408944640	56	5938
2026-01-30 11:30:35.85	246.23	22.46	-42.2	-46.3	11.7	6.09e-04	0	61	0	416284672	56	5619
2026-01-30 11:30:39.89	247.25	22.68	-42.7	-47.3	10.6	2.56e-03	0	61	0	424673280	56	6312
2026-01-30 11:30:43.92	248.29	22.88	-42.4	-46.6	11.4	1.29e-03	0	61	0	432013312	56	5818
2026-01-30 11:30:47.96	249.34	23.09	-42.7	-47.3	10.6	3.36e-03	0	61	0	439353344	56	6329
2026-01-30 11:30:52.00	250.40	23.28	-43.1	-48.4	9.5	1.30e-02	0	61	0	446693376	56	7186
2026-01-30 11:30:56.04	251.48	23.46	-42.7	-47.4	10.6	4.69e-03	0	61	0	455081984	56	6390
2026-01-30 11:31:00.08	252.57	23.64	-43.2	-48.7	9.2	1.32e-02	0	61	0	462422016	56	7399
2026-01-30 11:31:04.11	253.67	23.80	-43.2	-48.8	9.1	2.31e-02	0	62	0	469762048	57	7044
2026-01-30 11:31:08.15	254.78	23.96	-43.3	-48.9	9.0	3.19e-02	0	62	0	477102080	57	7142
2026-01-30 11:31:12.19	255.90	24.10	-43.4	-49.4	8.5	2.98e-02	0	62	0	484442112	57	7608
2026-01-30 11:31:16.23	257.03	24.24	-43.9	-51.3	6.7	2.95e-01	0	61	0	492830720	58	8902
2026-01-30 11:31:20.26	258.17	24.36	-44.7	-58.2	3.8	1.49e+00	0	62	104	499122176	60	17679
2026-01-30 11:31:24.31	259.32	24.47	-43.6	-50.2	7.6	8.99e-02	0	61	0	502267904	59	7398
2026-01-30 11:31:28.35	260.48	24.58	-43.5	-49.6	8.3	5.75e-02	0	62	0	509607936	58	7339
2026-01-30 11:31:32.39	261.64	24.66	-43.7	-50.5	7.4	1.15e-01	0	62	0	517996544	58	8099
2026-01-30 11:31:36.42	262.81	24.74	-43.2	-48.8	9.2	2.07e-02	0	62	0	525336576	58	6647
2026-01-30 11:31:40.46	263.98	24.81	-42.8	-47.6	10.4	5.62e-03	0	62	0	532676608	57	6132
2026-01-30 11:31:44.50	265.16	24.86	-43.2	-48.7	9.1	1.45e-02	0	61	0	540016640	57	7005
2026-01-30 11:31:48.54	266.34	24.90	-42.9	-47.9	10.0	9.31e-03	0	62	0	547356672	57	6371
2026-01-30 11:31:52.57	267.52	24.93	-43.1	-48.6	9.3	2.00e-02	0	62	0	555745280	57	6902
2026-01-30 11:31:56.60	268.71	24.94	-42.9	-48.0	9.9	8.25e-03	0	62	0	563085312	57	6427
2026-01-30 11:32:00.65	269.89	24.94	-42.5	-46.9	11.0	3.00e-03	0	62	0	570425344	57	5674
2026-01-30 11:32:04.68	271.08	24.93	-42.6	-47.1	10.8	2.07e-03	0	62	0	577765376	56	6152
2026-01-30 11:32:08.72	272.26	24.91	-42.6	-47.1	10.8	2.66e-03	0	62	0	586153984	56	6136
2026-01-30 11:32:12.76	273.44	24.87	-42.5	-46.8	11.0	2.10e-03	0	62	0	593494016	56	5991
2026-01-30 11:32:16.80	274.62	24.82	-42.8	-47.5	10.4	4.47e-03	0	62	0	600834048	56	6487
2026-01-30 11:32:20.85	275.80	24.76	-42.7	-47.5	10.4	6.21e-03	0	62	0	608174080	56	6466
2026-01-30 11:32:24.89	276.97	24.69	-42.6	-47.2	10.6	3.16e-03	0	62	0	615514112	56	6267
2026-01-30 11:32:28.93	278.13	24.60	-42.6	-47.1	10.8	3.65e-03	0	62	0	623902720	56	6198
2026-01-30 11:32:32.97	279.29	24.51	-42.6	-47.3	10.5	4.49e-03	0	62	0	631242752	56	6316
2026-01-30 11:32:37.01	280.44	24.40	-42.4	-46.6	11.3	1.50e-03	0	62	0	638582784	56	5840
2026-01-30 11:32:41.05	281.58	24.28	-42.3	-46.6	11.4	8.60e-04	0	62	0	645922816	56	5793
2026-01-30 11:32:45.09	282.71	24.15	-42.2	-46.2	11.7	6.25e-04	0	62	0	654311424	56	5562
2026-01-30 11:32:49.12	283.83	24.01	-42.2	-46.4	11.5	9.71e-04	0	62	0	661651456	56	5710
2026-01-30 11:32:53.16	284.94	23.85	-41.7	-45.5	12.3	2.46e-04	0	62	0	668991488	55	5411
2026-01-30 11:32:57.20	286.04	23.69	-41.9	-46.0	11.7	3.61e-04	0	62	0	676331520	55	5728
2026-01-30 11:33:01.24	287.13	23.52	-42.2	-46.6	11.0	2.13e-03	0	62	0	683671552	55	6202
2026-01-30 11:33:05.28	288.20	23.34	-41.8	-45.8	11.9	4.49e-04	0	62	0	692060160	55	5605
2026-01-30 11:33:09.32	289.27	23.15	-41.6	-45.4	12.2	2.57e-04	0	62	0	699400192	55	5400
2026-01-30 11:33:13.35	290.32	22.95	-41.1	-44.5	13.3	2.05e-05	0	62	0	706740224	54	5107
2026-01-30 11:33:17.39	291.36	22.75	-41.7	-45.5	12.1	2.66e-04	0	62	0	714080256	54	5759
2026-01-30 11:33:21.43	292.38	22.53	-41.4	-45.0	12.7	8.62e-05	0	62	0	722468864	54	5414
2026-01-30 11:33:25.48	293.39	22.31	-41.7	-45.5	12.1	2.32e-04	0	62	0	729808896	54	5750
2026-01-30 11:33:29.52	294.39	22.08	-41.8	-45.7	11.9	3.88e-04	0	62	0	737148928	54	5903
2026-01-30 11:33:33.56	295.37	21.85	-41.8	-45.8	11.8	4.33e-04	0	62	0	744488960	54	5935
2026-01-30 11:33:37.59	296.33	21.61	-41.9	-46.0	11.6	7.06e-04	0	62	0	751828992	54	6075
2026-01-30 11:33:41.63	297.29	21.36	-41.9	-45.9	11.6	7.06e-04	0	62	0	760217600	54	6043
2026-01-30 11:33:45.67	298.22	21.11	-42.2	-46.7	10.9	1.78e-03	0	62	0	767557632	55	6212
2026-01-30 11:33:49.71	299.15	20.86	-42.4	-47.3	10.2	6.75e-03	0	62	0	774897664	55	6677
2026-01-30 11:33:53.75	300.05	20.60	-42.0	-46.2	11.4	1.02e-03	0	62	0	782237696	55	5877
2026-01-30 11:33:57.79	300.94	20.33	-42.3	-46.9	10.6	2.33e-03	0	62	0	790626304	55	6397
2026-01-30 11:34:01.83	301.82	20.06	-42.5	-47.4	10.2	5.31e-03	0	62	0	797966336	55	6758
2026-01-30 11:34:05.87	302.68	19.79	-42.5	-47.4	10.0	8.70e-03	0	62	0	805306368	55	6796
2026-01-30 11:34:09.90	303.53	19.52	-42.4	-47.2	10.3	4.41e-03	0	62	0	812646400	55	6595
2026-01-30 11:34:13.94	304.36	19.24	-42.6	-47.6	9.9	8.93e-03	0	62	0	819986432	55	6941
2026-01-30 11:34:17.98	305.18	18.96	-42.6	-47.7	9.7	1.24e-02	0	62	0	828375040	55	6992
2026-01-30 11:34:22.02	305.98	18.67	-42.5	-47.6	9.9	9.02e-03	0	62	0	835715072	55	6899
2026-01-30 11:34:26.07	306.77	18.39	-42.8	-48.2	9.4	1.69e-02	0	62	0	843055104	56	6981
2026-01-30 11:34:30.10	307.54	18.10	-42.7	-47.9	9.7	9.74e-03	0	62	0	850395136	56	6736
2026-01-30 11:34:34.14	308.30	17.81	-42.6	-47.7	9.9	1.13e-02	0	62	0	858783744	56	6571
2026-01-30 11:34:38.18	309.04	17.52	-42.3	-47.0	10.6	4.46e-03	0	62	0	866123776	56	6076
2026-01-30 11:34:42.22	309.77	17.23	-42.6	-47.6	10.0	6.92e-03	0	62	0	873463808	56	6498
2026-01-30 11:34:46.26	310.49	16.94	-42.6	-47.6	9.9	1.20e-02	0	62	0	880803840	56	6569
2026-01-30 11:34:50.30	311.20	16.65	-42.9	-48.6	8.9	2.31e-02	0	62	0	888143872	56	7288
2026-01-30 11:34:54.34	311.89	16.36	-43.0	-49.1	8.4	4.68e-02	0	62	0	896532480	56	7744
2026-01-30 11:34:58.38	312.56	16.06	-42.5	-47.5	9.9	8.84e-03	0	62	0	903872512	56	6471
2026-01-30 11:35:02.43	313.23	15.77	-42.5	-47.6	9.9	8.06e-03	0	62	0	911212544	56	6507
2026-01-30 11:35:06.47	313.88	15.48	-42.6	-47.9	9.5	1.46e-02	0	62	0	918552576	56	6753
2026-01-30 11:35:10.51	314.52	15.18	-42.2	-46.9	10.5	3.97e-03	0	62	0	926941184	56	6028
2026-01-30 11:35:14.55	315.15	14.89	-42.5	-47.6	9.8	6.81e-03	0	62	0	934281216	56	6570
2026-01-30 11:35:18.59	315.77	14.60	-42.5	-47.8	9.6	1.37e-02	0	62	0	941621248	56	6655
2026-01-30 11:35:22.62	316.37	14.31	-42.6	-48.1	9.1	1.69e-02	0	62	0	948961280	56	6924
2026-01-30 11:35:26.66	316.96	14.02	-42.9	-48.8	8.5	4.29e-02	0	62	0	957349888	56	7483
2026-01-30 11:35:30.71	317.55	13.73	-42.7	-48.3	9.0	2.71e-02	0	62	0	964689920	56	7080
2026-01-30 11:35:34.75	318.12	13.44	-42.6	-48.0	9.3	1.76e-02	0	62	0	972029952	56	6876
2026-01-30 11:35:38.79	318.68	13.15	-42.7	-48.5	8.7	3.04e-02	0	62	0	979369984	56	7276
2026-01-30 11:35:42.83	319.23	12.86	-42.8	-48.6	8.6	3.93e-02	0	62	0	986710016	56	7368
2026-01-30 11:35:46.87	319.77	12.58	-42.8	-48.7	8.5	3.54e-02	0	62	0	995098624	56	7435
2026-01-30 11:35:50.91	320.30	12.29	-42.9	-49.1	8.1	4.79e-02	0	62	0	1002438656	56	7749
2026-01-30 11:35:54.95	320.82	12.01	-42.7	-48.6	8.5	4.80e-02	0	62	0	1009778688	56	7347
2026-01-30 11:35:58.99	321.33	11.72	-42.3	-47.6	9.5	1.41e-02	0	62	0	1017118720	56	6510
2026-01-30 11:36:03.02	321.83	11.44	-42.3	-47.6	9.5	1.35e-02	0	62	0	1025507328	56	6508
2026-01-30 11:36:07.06	322.32	11.16	-42.5	-48.1	8.9	2.19e-02	0	62	0	1032847360	56	6939
2026-01-30 11:36:11.11	322.80	10.88	-42.5	-48.2	8.8	2.97e-02	0	62	0	1040187392	56	6967
2026-01-30 11:36:15.15	323.28	10.61	-42.4	-48.1	8.9	2.77e-02	0	62	0	1047527424	56	6911
2026-01-30 11:36:19.19	323.74	10.33	-42.6	-48.7	8.3	5.25e-02	0	62	0	1054867456	56	7384
2026-01-30 11:36:23.23	324.20	10.06	-42.6	-49.0	7.9	7.39e-02	0	62	0	1063256064	56	7663
2026-01-30 11:36:27.27	324.65	9.79	-42.6	-49.1	7.8	8.27e-02	0	62	0	1070596096	56	7724
2026-01-30 11:36:31.31	325.09	9.51	-42.5	-48.6	8.2	5.31e-02	0	62	0	1077936128	56	7308
2026-01-30 11:36:35.34	325.52	9.25	-42.5	-48.7	8.1	6.20e-02	0	62	0	1085276160	56	7401
2026-01-30 11:36:39.38	325.95	8.98	-42.5	-49.0	7.8	8.19e-02	0	62	0	1093664768	56	7661
2026-01-30 11:36:43.42	326.37	8.71	-42.5	-49.3	7.4	1.02e-01	0	62	0	1101004800	56	7933
2026-01-30 11:36:47.46	326.78	8.45	-42.4	-49.0	7.6	1.01e-01	0	62	0	1108344832	56	7712
2026-01-30 11:36:51.50	327.18	8.18	-42.5	-49.3	7.3	1.31e-01	0	62	0	1115684864	56	7965
2026-01-30 11:36:55.54	327.58	7.92	-44.1	-58.4	3.8	1.44e+00	0	62	104	1118830592	58	20286
2026-01-30 11:36:59.58	327.97	7.66	-45.1	-59.7	3.8	1.49e+00	0	62	104	1118830592	60	20907
2026-01-30 11:37:03.62	328.35	7.40	-40.3	-58.1	3.8	1.49e+00	0	62	104	1118830592	50	30891
2026-01-30 11:37:07.66	328.73	7.15	-45.1	-59.8	3.8	1.49e+00	0	62	104	1118830592	61	19918
2026-01-30 11:37:11.71	329.10	6.89	-45.1	-59.7	3.8	1.49e+00	0	62	104	1118830592	61	19818
2026-01-30 11:37:15.75	329.47	6.64	-45.1	-59.7	3.8	1.49e+00	0	62	104	1118830592	61	19841
2026-01-30 11:37:19.79	329.83	6.39	-44.9	-59.7	3.8	1.49e+00	0	62	104	1118830592	61	19738
2026-01-30 11:37:23.83	330.18	6.14	-45.0	-59.7	3.8	1.49e+00	0	62	104	1118830592	60	20862
2026-01-30 11:37:27.87	330.53	5.89	-44.9	-59.7	3.8	1.49e+00	0	62	104	1118830592	60	20898
2026-01-30 11:37:31.91	330.87	5.64	-45.0	-59.7	3.8	1.49e+00	0	62	104	1118830592	60	20936
2026-01-30 11:37:35.95	331.21	5.39	-45.0	-59.7	3.8	1.49e+00	0	62	104	1118830592	60	20911
2026-01-30 11:37:39.99	331.54	5.15	-45.0	-59.7	3.8	1.49e+00	0	62	104	1118830592	60	20871
2026-01-30 11:37:44.04	331.87	4.91	-45.0	-59.7	3.8	1.49e+00	0	62	104	1118830592	60	20936
2026-01-30 11:37:48.08	332.19	4.66	-45.0	-59.6	3.8	1.49e+00	0	62	104	1118830592	60	20773
2026-01-30 11:37:52.12	332.50	4.42	-45.0	-59.6	3.8	1.49e+00	0	62	104	1118830592	60	20775
2026-01-30 11:37:56.16	332.81	4.19	-45.0	-59.7	3.8	1.49e+00	0	62	104	1118830592	60	20856
2026-01-30 11:38:00.19	333.12	3.95	-45.0	-59.7	3.8	1.49e+00	0	62	104	1118830592	60	20817
2026-01-30 11:38:04.22	333.42	3.71	-45.0	-59.7	3.8	1.49e+00	0	62	104	1118830592	60	20887
2026-01-30 11:38:08.26	333.72	3.48	-45.0	-59.7	3.8	1.49e+00	0	62	104	1118830592	60	20787
2026-01-30 11:38:12.30	334.01	3.25	-45.0	-59.7	3.8	1.49e+00	0	62	104	1118830592	60	20889
2026-01-30 11:38:16.34	334.30	3.02	-44.9	-59.7	3.8	1.49e+00	0	62	104	1118830592	60	20808
2026-01-30 11:38:20.39	334.59	2.79	-44.9	-59.6	3.8	1.49e+00	0	62	104	1118830592	60	20775
2026-01-30 11:38:24.43	334.87	2.56	-45.0	-59.7	3.8	1.49e+00	0	62	104	1118830592	60	20828
2026-01-30 11:38:28.47	335.14	2.33	-45.0	-59.7	3.8	1.49e+00	0	62	104	1118830592	60	20778
2026-01-30 11:38:32.51	335.42	2.11	-45.0	-59.7	3.8	1.49e+00	0	62	104	1118830592	60	20826

#Closed at: 2026-01-30 11:38:35
#Recorded file [1118 MB]: D:/lorett/data/31039_260130_142528.dat