passes_logs/2026/01/30/R2.0S_Moscow/R2.0S_Moscow__20260130_091432_NOAA_21_JPSS-2_rec.log

#Pass ID: 20260130_091432_NOAA 21 (JPSS-2)
#Satellite: NOAA 21 (JPSS-2)
#Configuration: NOAA-21
#almurnet v.1.7.20251203
#Start time: 2026-01-30 09:14:32

#Version: 2.2.20231116
#Station: R2.0S_Moscow
#Location: 37.707566 lon 55.798166 lat
#TLE: 1 54234U 22150A   26029.46216196  .00000141  00000+0  87503-4 0  9994
#TLE: 2 54234  98.7512 330.1880 0000955 196.3413 163.7732 14.19540905166865

#Time	Az	El	Level	Level2	SNR	BER	BlckErr	Temp	State	Recorded	gain1	gain2
2026-01-30 09:14:32.99	140.85	2.01	-35.1	-54.8	3.8	1.49e+00	0	52	0	0	51	19998
2026-01-30 09:14:37.02	140.74	2.27	-39.9	-54.7	3.7	1.49e+00	0	52	104	0	48	23405
2026-01-30 09:14:41.07	140.63	2.53	-38.0	-54.2	3.9	1.49e+00	0	52	104	0	52	17562
2026-01-30 09:14:45.11	140.51	2.79	-39.9	-54.6	3.8	1.49e+00	0	53	104	0	50	20651
2026-01-30 09:14:49.15	140.39	3.05	-21.8	-50.1	3.2	1.50e+00	0	53	104	0	21	65535
2026-01-30 09:14:53.19	140.27	3.32	-30.4	-53.8	3.9	1.49e+00	0	53	104	0	37	39839
2026-01-30 09:14:57.23	140.15	3.58	-38.8	-54.0	4.0	1.49e+00	0	54	104	0	48	21749
2026-01-30 09:15:01.27	140.02	3.85	-22.9	-51.6	3.6	1.52e+00	0	54	104	0	24	65535
2026-01-30 09:15:05.32	139.90	4.13	-25.4	-52.1	3.5	1.50e+00	0	54	104	0	25	65301
2026-01-30 09:15:09.36	139.77	4.40	-40.3	-54.5	3.9	1.49e+00	0	55	104	0	52	18163
2026-01-30 09:15:13.40	139.63	4.68	-41.5	-54.1	3.9	1.49e+00	0	55	104	0	46	24511
2026-01-30 09:15:17.45	139.50	4.96	-35.3	-53.6	3.6	1.49e+00	0	55	104	0	37	38789
2026-01-30 09:15:21.49	139.36	5.25	-25.2	-50.1	3.7	1.50e+00	0	55	104	0	27	46037
2026-01-30 09:15:25.53	139.22	5.53	-31.3	-52.7	3.7	1.49e+00	0	55	104	0	39	31143
2026-01-30 09:15:29.57	139.07	5.82	-41.1	-54.5	3.9	1.49e+00	0	56	104	0	49	21526
2026-01-30 09:15:33.62	138.93	6.11	-30.8	-53.3	3.8	1.49e+00	0	56	104	0	47	21075
2026-01-30 09:15:37.66	138.78	6.41	-38.2	-54.3	4.0	1.49e+00	0	56	104	0	41	33380
2026-01-30 09:15:41.70	138.62	6.71	-39.2	-53.7	3.8	1.49e+00	0	56	104	0	52	16685
2026-01-30 09:15:45.75	138.47	7.01	-33.1	-52.7	4.1	1.49e+00	0	56	104	0	41	27726
2026-01-30 09:15:49.79	138.30	7.32	-37.4	-53.4	3.7	1.49e+00	0	57	104	0	36	40385
2026-01-30 09:15:53.83	138.14	7.63	-40.9	-53.9	3.8	1.49e+00	0	57	104	0	52	17010
2026-01-30 09:15:57.87	137.97	7.94	-41.8	-54.3	3.8	1.49e+00	0	57	104	0	54	15934
2026-01-30 09:16:01.91	137.80	8.26	-32.6	-53.8	3.5	1.49e+00	0	57	104	0	33	50011
2026-01-30 09:16:05.95	137.62	8.58	-25.9	-51.6	4.0	1.50e+00	0	57	104	0	24	65230
2026-01-30 09:16:09.99	137.44	8.90	-35.9	-51.1	3.6	1.53e+00	0	57	104	0	23	65535
2026-01-30 09:16:14.03	137.26	9.23	-29.9	-49.8	4.3	1.51e+00	0	57	104	0	23	56259
2026-01-30 09:16:18.08	137.07	9.56	-40.0	-52.7	3.7	1.51e+00	0	58	104	0	34	41757
2026-01-30 09:16:22.12	136.88	9.90	-26.2	-50.9	4.0	1.50e+00	0	58	104	0	25	56979
2026-01-30 09:16:26.15	136.68	10.24	-26.1	-50.2	3.9	1.49e+00	0	58	104	0	25	52640
2026-01-30 09:16:30.19	136.48	10.58	-38.0	-46.4	4.4	8.24e-01	0	58	104	0	43	12009
2026-01-30 09:16:34.23	136.27	10.93	-29.7	-43.6	4.6	1.43e+00	0	58	104	1048576	28	20556
2026-01-30 09:16:38.27	136.05	11.28	-34.7	-43.8	8.9	2.44e-01	0	58	0	7340032	41	9972
2026-01-30 09:16:42.31	135.83	11.64	-29.0	-42.6	9.6	1.53e-01	0	58	0	19922944	34	13070
2026-01-30 09:16:46.35	135.61	12.01	-28.9	-42.3	10.1	5.37e-02	0	58	0	32505856	33	13356
2026-01-30 09:16:50.39	135.38	12.37	-34.3	-43.1	8.5	6.95e-01	0	58	104	42991616	39	10326
2026-01-30 09:16:54.43	135.14	12.75	-38.8	-42.6	9.7	1.02e+00	4	59	104	52428800	32	14598
2026-01-30 09:16:58.47	134.90	13.13	-40.8	-43.7	11.2	1.18e-02	0	59	0	63963136	51	5559
2026-01-30 09:17:02.52	134.65	13.51	-39.9	-43.3	11.3	5.14e-03	0	59	0	76546048	50	5596
2026-01-30 09:17:06.56	134.39	13.90	-38.1	-43.2	10.4	2.51e-02	0	59	0	89128960	47	6621
2026-01-30 09:17:10.60	134.13	14.30	-39.7	-43.2	11.2	7.41e-03	0	59	0	101711872	49	5912
2026-01-30 09:17:14.64	133.86	14.70	-39.9	-43.0	12.3	3.14e-03	0	59	0	114294784	49	5726
2026-01-30 09:17:18.69	133.58	15.11	-39.3	-43.0	11.9	1.30e-03	0	59	0	126877696	49	5764
2026-01-30 09:17:22.73	133.29	15.52	-38.7	-43.1	12.2	5.86e-03	0	59	0	139460608	50	5467
2026-01-30 09:17:26.77	133.00	15.94	-40.3	-43.3	12.2	1.13e-03	0	59	0	152043520	51	5292
2026-01-30 09:17:30.82	132.69	16.37	-40.4	-43.1	12.4	1.73e-04	0	59	0	164626432	51	5210
2026-01-30 09:17:34.86	132.38	16.81	-40.5	-43.2	12.3	1.76e-04	0	59	0	177209344	51	5268
2026-01-30 09:17:38.90	132.06	17.25	-39.5	-43.0	12.5	1.66e-04	0	60	0	189792256	51	5134
2026-01-30 09:17:42.93	131.72	17.69	-40.3	-43.0	12.6	8.23e-05	0	59	0	202375168	51	5111
2026-01-30 09:17:46.97	131.38	18.15	-40.2	-42.8	12.8	6.40e-05	0	60	0	214958080	51	5018
2026-01-30 09:17:51.00	131.03	18.61	-40.4	-43.1	12.6	1.03e-04	0	60	0	227540992	51	5173
2026-01-30 09:17:55.04	130.66	19.08	-40.3	-42.9	12.7	9.23e-05	0	60	0	240123904	51	5096
2026-01-30 09:17:59.08	130.29	19.56	-40.4	-43.0	12.7	9.23e-05	0	60	0	252706816	51	5113
2026-01-30 09:18:03.12	129.90	20.04	-40.2	-42.7	13.0	4.42e-05	0	60	0	265289728	51	4975
2026-01-30 09:18:07.16	129.49	20.54	-40.1	-42.6	13.1	2.67e-05	0	60	0	277872640	51	4897
2026-01-30 09:18:11.19	129.08	21.04	-40.1	-42.5	13.3	1.52e-05	0	60	0	290455552	50	5123
2026-01-30 09:18:15.23	128.65	21.55	-39.9	-42.2	13.6	5.30e-06	0	60	0	303038464	50	4959
2026-01-30 09:18:19.28	128.20	22.07	-39.5	-42.0	13.8	6.80e-06	0	60	0	315621376	50	4851
2026-01-30 09:18:23.32	127.74	22.59	-39.6	-41.8	14.0	3.00e-06	0	60	0	328204288	49	5021
2026-01-30 09:18:27.36	127.27	23.13	-39.5	-41.7	14.2	3.80e-06	0	60	0	340787200	49	4945
2026-01-30 09:18:31.40	126.77	23.68	-39.5	-41.7	14.2	3.80e-06	0	60	0	354418688	49	4953
2026-01-30 09:18:35.45	126.26	24.23	-39.5	-41.6	14.3	2.20e-06	0	60	0	367001600	49	4906
2026-01-30 09:18:39.49	125.73	24.80	-39.4	-41.6	14.3	1.50e-06	0	60	0	379584512	49	4904
2026-01-30 09:18:43.53	125.18	25.37	-39.7	-41.9	14.0	7.00e-07	0	60	0	392167424	49	5050
2026-01-30 09:18:47.57	124.61	25.96	-39.9	-42.1	13.8	3.80e-06	0	60	0	404750336	50	4920
2026-01-30 09:18:51.61	124.02	26.55	-40.1	-42.5	13.5	9.10e-06	0	60	0	417333248	50	5117
2026-01-30 09:18:55.65	123.40	27.15	-40.2	-42.6	13.3	1.75e-05	0	60	0	429916160	51	4897
2026-01-30 09:18:59.69	122.76	27.77	-40.3	-42.7	13.3	1.22e-05	0	60	0	442499072	51	4940
2026-01-30 09:19:03.73	122.10	28.39	-40.5	-43.0	13.0	5.11e-05	0	60	0	455081984	51	5108
2026-01-30 09:19:07.77	121.40	29.02	-40.3	-42.8	13.2	2.67e-05	0	60	0	467664896	51	5010
2026-01-30 09:19:11.82	120.68	29.66	-40.2	-42.6	13.5	1.29e-05	0	60	0	480247808	51	4882
2026-01-30 09:19:15.86	119.93	30.31	-40.3	-42.7	13.3	1.22e-05	0	60	0	492830720	51	4935
2026-01-30 09:19:19.90	119.15	30.97	-40.5	-43.0	13.0	3.96e-05	0	61	0	505413632	51	5159
2026-01-30 09:19:23.94	118.33	31.64	-40.5	-43.0	13.0	2.59e-05	0	61	0	517996544	51	5137
2026-01-30 09:19:27.99	117.48	32.32	-40.7	-43.2	12.9	5.34e-05	0	61	0	530579456	51	5271
2026-01-30 09:19:32.03	116.59	33.01	-40.7	-43.3	12.8	5.49e-05	0	61	0	543162368	51	5280
2026-01-30 09:19:36.07	115.67	33.70	-40.7	-43.2	12.7	6.48e-05	0	61	0	555745280	52	4981
2026-01-30 09:19:40.11	114.70	34.40	-40.8	-43.4	12.6	1.03e-04	0	61	0	568328192	52	5098
2026-01-30 09:19:44.15	113.69	35.10	-40.9	-43.7	12.3	1.77e-04	0	61	0	580911104	52	5257
2026-01-30 09:19:48.20	112.63	35.82	-41.0	-43.7	12.3	1.98e-04	0	61	0	593494016	52	5267
2026-01-30 09:19:52.24	111.53	36.53	-41.3	-44.2	11.7	5.21e-04	0	61	0	606076928	53	5271
2026-01-30 09:19:56.28	110.38	37.25	-41.2	-44.1	11.9	4.14e-04	0	61	0	618659840	53	5190
2026-01-30 09:20:00.32	109.18	37.97	-41.2	-44.1	11.8	4.45e-04	0	61	0	631242752	53	5212
2026-01-30 09:20:04.37	107.92	38.69	-41.3	-44.2	11.8	5.32e-04	0	61	0	644874240	53	5268
2026-01-30 09:20:08.40	106.60	39.41	-41.0	-43.7	12.3	1.85e-04	0	61	0	657457152	53	4982
2026-01-30 09:20:12.44	105.23	40.12	-41.2	-44.2	11.8	4.20e-04	0	61	0	670040064	53	5239
2026-01-30 09:20:16.49	103.79	40.83	-41.6	-44.7	11.2	1.17e-03	0	61	0	682622976	53	5582
2026-01-30 09:20:20.53	102.29	41.53	-41.9	-45.3	10.7	3.13e-03	0	61	0	695205888	54	5628
2026-01-30 09:20:24.58	100.71	42.23	-42.1	-45.8	10.2	5.83e-03	0	61	0	707788800	54	5942
2026-01-30 09:20:28.62	99.08	42.91	-42.5	-46.4	9.6	1.18e-02	0	61	0	720371712	55	6028
2026-01-30 09:20:32.66	97.37	43.57	-41.9	-45.2	10.9	2.94e-03	0	61	0	732954624	55	5227
2026-01-30 09:20:36.70	95.59	44.22	-41.9	-45.2	10.9	1.91e-03	0	61	0	745537536	55	5233
2026-01-30 09:20:40.75	93.74	44.84	-42.1	-45.5	10.6	3.70e-03	0	61	0	758120448	55	5451
2026-01-30 09:20:44.79	91.81	45.44	-41.8	-45.0	11.2	2.24e-03	0	61	0	770703360	55	5110
2026-01-30 09:20:48.83	89.82	46.01	-42.0	-45.3	10.8	2.79e-03	0	61	0	783286272	55	5337
2026-01-30 09:20:52.87	87.75	46.55	-42.0	-45.4	10.6	2.21e-03	0	61	0	795869184	55	5391
2026-01-30 09:20:56.91	85.61	47.05	-41.9	-45.3	10.8	2.46e-03	0	61	0	808452096	55	5293
2026-01-30 09:21:00.95	83.41	47.51	-41.9	-45.2	10.9	2.31e-03	0	61	0	821035008	55	5242
2026-01-30 09:21:04.99	81.14	47.93	-42.3	-46.0	10.1	7.02e-03	0	61	0	833617920	55	5746
2026-01-30 09:21:09.03	78.82	48.30	-41.9	-45.2	10.8	2.77e-03	0	61	0	846200832	55	5236
2026-01-30 09:21:13.08	76.43	48.62	-41.9	-45.3	10.8	2.35e-03	0	61	0	858783744	55	5306
2026-01-30 09:21:17.12	74.01	48.89	-42.0	-45.4	10.7	2.32e-03	0	61	0	871366656	55	5387
2026-01-30 09:21:21.15	71.55	49.10	-41.9	-45.4	10.8	2.71e-03	0	61	0	883949568	55	5342
2026-01-30 09:21:25.19	69.06	49.26	-41.8	-45.0	11.2	1.66e-03	0	61	0	896532480	55	5127
2026-01-30 09:21:29.24	66.54	49.36	-41.4	-44.4	11.8	4.90e-04	0	61	0	910163968	54	5062
2026-01-30 09:21:33.28	64.02	49.40	-41.8	-45.0	11.2	1.65e-03	0	61	0	922746880	54	5416
2026-01-30 09:21:37.32	61.49	49.38	-41.4	-44.3	11.8	4.32e-04	0	61	0	935329792	54	5034
2026-01-30 09:21:41.36	58.97	49.30	-41.7	-44.8	11.4	7.99e-04	0	61	0	947912704	54	5337
2026-01-30 09:21:45.40	56.47	49.17	-41.9	-45.2	11.0	1.78e-03	0	61	0	960495616	54	5534
2026-01-30 09:21:49.45	53.99	48.97	-41.8	-45.1	11.1	1.99e-03	0	61	0	973078528	54	5479
2026-01-30 09:21:53.48	51.56	48.72	-42.0	-45.3	10.8	3.22e-03	0	61	0	985661440	54	5639
2026-01-30 09:21:57.53	49.17	48.42	-41.7	-44.8	11.4	1.10e-03	0	61	0	998244352	54	5295
2026-01-30 09:22:01.57	46.83	48.06	-41.5	-44.4	11.7	5.15e-04	0	61	0	1010827264	54	5090
2026-01-30 09:22:05.61	44.54	47.66	-41.0	-43.7	12.4	1.90e-04	0	61	0	1023410176	54	4694
2026-01-30 09:22:09.65	42.32	47.22	-42.2	-45.8	10.3	3.10e-03	0	61	0	1035993088	54	5956
2026-01-30 09:22:13.69	40.16	46.73	-41.2	-44.1	12.0	3.36e-04	0	61	0	1048576000	54	4888
2026-01-30 09:22:17.74	38.07	46.20	-42.3	-46.1	9.9	9.34e-03	0	61	0	1061158912	55	5811
2026-01-30 09:22:21.78	36.05	45.65	-41.5	-44.6	11.4	6.04e-04	0	62	0	1073741824	54	5182
2026-01-30 09:22:25.82	34.11	45.06	-42.5	-46.3	9.6	2.14e-02	0	61	0	1086324736	57	5339
2026-01-30 09:22:29.86	32.24	44.45	-41.2	-44.0	12.0	1.87e-04	0	61	0	1098907648	53	5152
2026-01-30 09:22:33.90	30.44	43.81	-42.0	-45.5	10.4	6.85e-03	0	61	0	1111490560	55	5425
2026-01-30 09:22:37.94	28.71	43.16	-42.6	-46.8	9.1	1.28e-02	0	61	0	1124073472	55	6299
2026-01-30 09:22:41.98	27.05	42.49	-42.0	-45.5	10.7	3.76e-03	0	61	0	1136656384	56	5101
2026-01-30 09:22:46.02	25.47	41.80	-41.7	-44.9	11.1	1.07e-03	0	61	0	1149239296	54	5356
2026-01-30 09:22:50.07	23.94	41.10	-41.9	-45.4	10.5	5.63e-03	0	61	0	1161822208	55	5357
2026-01-30 09:22:54.11	22.49	40.40	-41.7	-45.0	11.0	1.67e-03	0	61	0	1174405120	54	5444
2026-01-30 09:22:58.14	21.10	39.69	-42.6	-46.9	9.0	2.49e-02	0	61	0	1188036608	55	6358
2026-01-30 09:23:02.19	19.76	38.97	-41.7	-44.8	11.1	1.37e-03	0	62	0	1200619520	55	5037
2026-01-30 09:23:06.22	18.49	38.26	-42.1	-45.7	10.3	6.14e-03	0	61	0	1212153856	55	5548
2026-01-30 09:23:10.26	17.27	37.54	-41.4	-44.4	11.6	7.70e-04	0	61	0	1225785344	54	5090
2026-01-30 09:23:14.30	16.11	36.83	-40.9	-43.6	12.3	1.46e-04	0	61	0	1238368256	53	4921
2026-01-30 09:23:18.34	14.99	36.11	-40.9	-43.6	12.3	2.43e-04	0	61	0	1250951168	53	4924
2026-01-30 09:23:22.38	13.92	35.40	-40.6	-43.2	12.8	6.33e-05	0	62	0	1263534080	52	4983
2026-01-30 09:23:26.42	12.90	34.70	-40.6	-43.2	12.8	6.17e-05	0	61	0	1276116992	52	4949
2026-01-30 09:23:30.46	11.92	34.00	-40.7	-43.3	12.7	7.62e-05	0	62	0	1288699904	52	5021
2026-01-30 09:23:34.50	10.99	33.31	-40.6	-43.2	12.8	6.02e-05	0	61	0	1301282816	52	4948
2026-01-30 09:23:38.54	10.09	32.62	-40.9	-43.7	12.2	1.72e-04	0	61	0	1313865728	52	5279
2026-01-30 09:23:42.58	9.23	31.95	-40.7	-43.4	12.6	1.19e-04	0	62	0	1326448640	52	5080
2026-01-30 09:23:46.62	8.41	31.28	-40.5	-43.1	12.8	4.04e-05	0	61	0	1339031552	52	4883
2026-01-30 09:23:50.66	7.62	30.62	-40.5	-43.0	12.9	4.11e-05	0	62	0	1351614464	52	4841
2026-01-30 09:23:54.70	6.86	29.97	-40.3	-42.7	13.2	2.44e-05	0	61	0	1364197376	52	4698
2026-01-30 09:23:58.75	6.13	29.32	-40.4	-43.0	12.9	4.57e-05	0	62	0	1376780288	52	4848
2026-01-30 09:24:02.79	5.43	28.69	-40.4	-43.0	12.9	4.57e-05	0	62	0	1389363200	52	4848
2026-01-30 09:24:06.83	4.76	28.07	-40.1	-42.5	13.3	1.29e-05	0	61	0	1401946112	52	4587
2026-01-30 09:24:10.88	4.11	27.45	-40.0	-42.4	13.5	1.90e-05	0	61	0	1414529024	52	4539
2026-01-30 09:24:14.92	3.49	26.85	-39.9	-42.1	13.8	9.10e-06	0	62	0	1427111936	51	4634
2026-01-30 09:24:18.96	2.89	26.25	-39.7	-41.9	14.0	2.20e-06	0	62	0	1439694848	51	4536
2026-01-30 09:24:23.00	2.31	25.67	-39.9	-42.1	13.7	3.80e-06	0	62	0	1452277760	51	4646
2026-01-30 09:24:27.04	1.76	25.09	-39.9	-42.2	13.7	5.30e-06	0	61	0	1464860672	51	4659
2026-01-30 09:24:31.08	1.22	24.53	-39.9	-42.2	13.6	3.00e-06	0	62	0	1477443584	51	4704
2026-01-30 09:24:35.12	0.71	23.97	-40.0	-42.3	13.5	9.90e-06	0	61	0	1490026496	51	4747
2026-01-30 09:24:39.15	0.21	23.43	-40.1	-42.5	13.3	1.60e-05	0	62	0	1503657984	51	4833
2026-01-30 09:24:43.20	359.73	22.89	-40.0	-42.4	13.4	1.83e-05	0	61	0	1516240896	51	4791
2026-01-30 09:24:47.24	359.27	22.36	-40.0	-42.4	13.4	1.60e-05	0	62	0	1528823808	51	4773
2026-01-30 09:24:51.29	358.82	21.84	-40.1	-42.6	13.1	2.89e-05	0	62	0	1541406720	51	4884
2026-01-30 09:24:55.33	358.39	21.32	-40.1	-42.6	12.9	4.88e-05	0	62	0	1553989632	51	4917
2026-01-30 09:24:59.38	357.97	20.82	-39.8	-42.4	13.0	4.50e-05	0	61	0	1566572544	51	4770
2026-01-30 09:25:03.41	357.57	20.33	-39.5	-42.0	12.9	4.42e-05	0	62	0	1579155456	50	4862
2026-01-30 09:25:07.46	357.18	19.84	-39.3	-41.9	12.7	7.85e-05	0	61	0	1591738368	50	4808
2026-01-30 09:25:11.49	356.80	19.36	-39.0	-41.5	12.9	5.56e-05	0	62	0	1604321280	50	4580
2026-01-30 09:25:15.54	356.43	18.89	-39.4	-42.3	11.7	5.69e-04	0	61	0	1616904192	49	5325
2026-01-30 09:25:19.58	356.08	18.43	-40.6	-45.5	7.8	6.71e-02	0	62	0	1629487104	51	6838
2026-01-30 09:25:23.62	355.74	17.97	-41.0	-48.4	5.0	6.04e-01	0	62	0	1642070016	52	9012
2026-01-30 09:25:27.66	355.40	17.52	-41.6	-52.2	3.8	1.49e+00	0	62	104	1643118592	53	13254
2026-01-30 09:25:31.70	355.08	17.08	-41.5	-52.6	3.8	1.49e+00	0	62	104	1643118592	53	13878
2026-01-30 09:25:35.73	354.77	16.65	-40.7	-52.7	3.8	1.49e+00	0	62	104	1643118592	53	13953
2026-01-30 09:25:39.77	354.46	16.22	-40.9	-52.9	3.8	1.49e+00	0	62	104	1643118592	53	14309
2026-01-30 09:25:43.81	354.17	15.80	-40.7	-52.9	3.8	1.49e+00	0	62	104	1643118592	52	15061
2026-01-30 09:25:47.85	353.88	15.38	-40.6	-52.8	3.8	1.49e+00	0	62	104	1643118592	52	14906
2026-01-30 09:25:51.89	353.60	14.97	-40.5	-52.7	3.8	1.49e+00	0	62	104	1643118592	52	14733
2026-01-30 09:25:55.93	353.33	14.57	-40.4	-52.6	3.8	1.49e+00	0	62	104	1643118592	52	14681
2026-01-30 09:25:59.97	353.07	14.17	-40.5	-52.6	3.8	1.49e+00	0	62	104	1643118592	52	14646
2026-01-30 09:26:04.01	352.81	13.78	-40.5	-52.7	3.8	1.49e+00	0	62	104	1643118592	52	14768
2026-01-30 09:26:08.05	352.57	13.40	-40.5	-52.7	3.8	1.49e+00	0	62	104	1643118592	52	14794
2026-01-30 09:26:12.10	352.32	13.02	-40.5	-52.7	3.8	1.49e+00	0	62	104	1643118592	52	14740
2026-01-30 09:26:16.14	352.09	12.64	-40.4	-52.6	3.8	1.49e+00	0	62	104	1643118592	52	14688
2026-01-30 09:26:20.17	351.86	12.27	-40.4	-52.6	3.8	1.49e+00	0	62	104	1643118592	52	14655
2026-01-30 09:26:24.21	351.64	11.91	-40.5	-52.7	3.8	1.49e+00	0	62	104	1643118592	52	14745
2026-01-30 09:26:28.25	351.42	11.55	-40.5	-52.7	3.8	1.49e+00	0	62	104	1643118592	52	14820
2026-01-30 09:26:32.30	351.21	11.19	-40.5	-52.8	3.8	1.49e+00	0	62	104	1643118592	52	14890
2026-01-30 09:26:36.34	351.00	10.84	-40.5	-52.7	3.8	1.49e+00	0	62	104	1643118592	52	14760
2026-01-30 09:26:40.38	350.80	10.50	-40.4	-52.6	3.8	1.49e+00	0	62	104	1643118592	52	14609
2026-01-30 09:26:44.42	350.60	10.16	-40.3	-52.5	3.8	1.49e+00	0	62	104	1643118592	52	14516
2026-01-30 09:26:48.46	350.41	9.82	-40.4	-52.6	3.8	1.49e+00	0	62	104	1643118592	52	14610
2026-01-30 09:26:52.50	350.23	9.49	-40.5	-52.7	3.8	1.49e+00	0	62	104	1643118592	52	14741
2026-01-30 09:26:56.53	350.05	9.16	-40.5	-52.8	3.8	1.49e+00	0	62	104	1643118592	52	14896
2026-01-30 09:27:00.57	349.87	8.84	-40.5	-52.8	3.8	1.49e+00	0	62	104	1643118592	52	14916
2026-01-30 09:27:04.61	349.69	8.51	-40.5	-52.8	3.8	1.49e+00	0	62	104	1643118592	52	14889
2026-01-30 09:27:08.64	349.53	8.20	-40.6	-52.8	3.8	1.49e+00	0	62	104	1643118592	52	14998
2026-01-30 09:27:12.69	349.36	7.88	-41.0	-53.3	3.8	1.49e+00	0	62	104	1643118592	52	15855
2026-01-30 09:27:16.73	349.20	7.58	-44.9	-57.5	3.8	1.49e+00	0	62	104	1643118592	60	16176
2026-01-30 09:27:20.77	349.04	7.27	-45.1	-57.7	3.8	1.49e+00	0	62	104	1643118592	60	16573
2026-01-30 09:27:24.81	348.89	6.97	-44.9	-57.6	3.8	1.49e+00	0	62	104	1643118592	60	16411
2026-01-30 09:27:28.85	348.74	6.67	-44.4	-57.5	3.8	1.49e+00	0	62	104	1643118592	60	16219
2026-01-30 09:27:32.89	348.59	6.37	-44.8	-57.5	3.8	1.49e+00	0	62	104	1643118592	60	16151
2026-01-30 09:27:36.94	348.44	6.08	-44.8	-57.5	3.8	1.49e+00	0	62	104	1643118592	60	16133
2026-01-30 09:27:40.98	348.30	5.79	-44.8	-57.5	3.8	1.49e+00	0	62	104	1643118592	60	16157
2026-01-30 09:27:45.02	348.17	5.50	-44.8	-57.4	3.8	1.49e+00	0	62	104	1643118592	60	16112
2026-01-30 09:27:49.06	348.03	5.22	-44.6	-57.4	3.8	1.49e+00	0	62	104	1643118592	60	16085
2026-01-30 09:27:53.11	347.90	4.93	-44.7	-57.5	3.8	1.49e+00	0	62	104	1643118592	60	16151
2026-01-30 09:27:57.15	347.77	4.66	-44.8	-57.4	3.8	1.49e+00	0	62	104	1643118592	60	16096
2026-01-30 09:28:01.19	347.64	4.38	-44.8	-57.4	3.8	1.49e+00	0	62	104	1643118592	60	16123
2026-01-30 09:28:05.23	347.52	4.11	-44.6	-57.5	3.8	1.49e+00	0	62	104	1643118592	60	16164
2026-01-30 09:28:09.27	347.40	3.84	-44.8	-57.5	3.8	1.49e+00	0	62	104	1643118592	60	16151
2026-01-30 09:28:13.31	347.28	3.57	-44.8	-57.4	3.8	1.49e+00	0	62	104	1643118592	60	16084
2026-01-30 09:28:17.36	347.16	3.30	-44.8	-57.4	3.8	1.49e+00	0	62	104	1643118592	60	16121
2026-01-30 09:28:21.40	347.05	3.04	-44.8	-57.5	3.8	1.49e+00	0	62	104	1643118592	60	16145
2026-01-30 09:28:25.44	346.94	2.78	-44.8	-57.5	3.8	1.49e+00	0	62	104	1643118592	60	16128
2026-01-30 09:28:29.48	346.83	2.52	-44.8	-57.4	3.8	1.49e+00	0	62	104	1643118592	60	16105
2026-01-30 09:28:33.53	346.72	2.26	-44.8	-57.5	3.8	1.49e+00	0	62	104	1643118592	60	16149
2026-01-30 09:28:37.57	346.62	2.01	-44.8	-57.4	3.8	1.49e+00	0	62	104	1643118592	60	16112

#Closed at: 2026-01-30 09:28:38
#Recorded file [1643 MB]: D:/lorett/data/31039_260130_121432.dat