passes_logs/2026/01/30/R2.0S_Moscow/R2.0S_Moscow__20260130_122045_FENGYUN_3D_rec.log

#Pass ID: 20260130_122045_FENGYUN 3D
#Satellite: FENGYUN 3D
#Configuration: FENGYUN 3D
#almurnet v.1.7.20251203
#Start time: 2026-01-30 12:20:47

#Version: 2.2.20231116
#Station: R2.0S_Moscow
#Location: 37.707566 lon 55.798166 lat
#TLE: 1 43010U 17072A   26029.52179110  .00000394  00000+0  20818-3 0  9997
#TLE: 2 43010  98.9957   1.5649 0002507  83.7772 276.3689 14.19703315425310

#Time	Az	El	Level	Level2	SNR	BER	BlckErr	Temp	State	Recorded	gain1	gain2
2026-01-30 12:20:47.03	170.71	2.10	-43.5	-55.0	3.8	8.47e-01	0	53	0	0	59	12926
2026-01-30 12:20:51.06	170.78	2.36	-43.5	-55.0	3.8	8.46e-01	0	54	104	0	59	12901
2026-01-30 12:20:55.11	170.86	2.62	-43.5	-55.0	3.8	8.46e-01	0	54	104	0	59	12820
2026-01-30 12:20:59.15	170.94	2.89	-43.5	-55.0	3.8	8.46e-01	0	55	104	0	59	12843
2026-01-30 12:21:03.19	171.02	3.16	-43.5	-55.0	3.8	8.45e-01	0	55	104	0	58	13632
2026-01-30 12:21:07.23	171.10	3.43	-43.5	-55.0	3.8	8.46e-01	0	55	104	0	58	13620
2026-01-30 12:21:11.27	171.18	3.70	-43.5	-55.0	3.8	8.46e-01	0	56	104	0	58	13599
2026-01-30 12:21:15.31	171.27	3.97	-43.5	-54.9	3.8	8.46e-01	0	56	104	0	58	13555
2026-01-30 12:21:19.35	171.35	4.25	-43.4	-54.9	3.8	8.46e-01	0	56	104	0	58	13418
2026-01-30 12:21:23.39	171.44	4.53	-43.4	-54.6	3.8	8.45e-01	0	56	104	0	58	13092
2026-01-30 12:21:27.43	171.53	4.82	-43.2	-53.1	3.8	8.46e-01	0	56	104	0	58	10914
2026-01-30 12:21:31.47	171.61	5.10	-43.0	-51.4	4.2	8.39e-01	0	57	0	0	58	9020
2026-01-30 12:21:35.51	171.71	5.39	-42.7	-50.3	4.5	8.19e-01	0	57	0	0	57	8443
2026-01-30 12:21:39.56	171.80	5.69	-42.6	-49.8	4.7	7.98e-01	0	57	0	0	57	7966
2026-01-30 12:21:43.60	171.89	5.98	-42.7	-50.0	4.7	8.05e-01	0	57	0	0	57	8087
2026-01-30 12:21:47.64	171.99	6.28	-42.9	-50.9	4.3	8.32e-01	0	57	0	0	57	9017
2026-01-30 12:21:51.68	172.09	6.59	-43.0	-51.3	4.2	8.38e-01	0	58	0	0	57	9471
2026-01-30 12:21:55.73	172.19	6.89	-42.1	-47.6	6.1	3.57e-01	0	58	0	5242880	56	6568
2026-01-30 12:21:59.77	172.29	7.20	-41.0	-45.3	8.2	7.44e-02	0	58	0	28311552	54	5596
2026-01-30 12:22:03.81	172.39	7.52	-40.5	-44.3	9.1	2.83e-02	0	58	0	51380224	53	5313
2026-01-30 12:22:07.86	172.50	7.84	-41.3	-46.0	7.4	1.13e-01	0	59	0	73400320	53	6459
2026-01-30 12:22:11.90	172.61	8.16	-41.4	-46.5	6.8	1.76e-01	0	59	0	96468992	54	6465
2026-01-30 12:22:15.94	172.72	8.49	-40.3	-43.5	10.3	6.28e-01	0	59	104	105906176	52	5145
2026-01-30 12:22:19.99	172.83	8.82	-40.3	-43.4	10.6	4.33e-03	0	59	0	126877696	52	5071
2026-01-30 12:22:24.02	172.94	9.15	-40.3	-43.4	10.7	3.30e-03	0	59	0	149946368	52	5098
2026-01-30 12:22:28.06	173.06	9.49	-40.3	-43.3	11.0	2.71e-03	0	59	0	173015040	52	5018
2026-01-30 12:22:32.11	173.18	9.84	-40.1	-43.0	11.4	1.23e-03	0	59	0	195035136	52	4821
2026-01-30 12:22:36.15	173.30	10.18	-40.1	-42.9	11.6	1.03e-03	0	59	0	218103808	52	4776
2026-01-30 12:22:40.18	173.43	10.54	-40.1	-42.9	11.6	9.43e-04	0	60	0	241172480	52	4784
2026-01-30 12:22:44.22	173.55	10.90	-40.1	-43.0	11.6	1.06e-03	0	60	0	263192576	52	4823
2026-01-30 12:22:48.26	173.68	11.26	-40.2	-43.0	11.5	1.14e-03	0	60	0	286261248	52	4869
2026-01-30 12:22:52.30	173.82	11.63	-40.3	-43.2	11.5	1.29e-03	0	60	0	309329920	52	4929
2026-01-30 12:22:56.34	173.95	12.00	-40.3	-43.1	11.5	1.23e-03	0	60	0	331350016	52	4924
2026-01-30 12:23:00.38	174.09	12.38	-40.3	-43.1	11.6	1.10e-03	0	60	0	354418688	52	4893
2026-01-30 12:23:04.43	174.24	12.77	-40.2	-43.0	11.7	8.01e-04	0	60	0	377487360	52	4851
2026-01-30 12:23:08.47	174.38	13.16	-40.2	-42.9	11.9	6.02e-04	0	60	0	399507456	52	4788
2026-01-30 12:23:12.51	174.53	13.56	-40.0	-42.6	12.1	3.72e-04	0	60	0	422576128	52	4645
2026-01-30 12:23:16.55	174.69	13.97	-39.9	-42.5	12.4	2.56e-04	0	60	0	445644800	51	4852
2026-01-30 12:23:20.59	174.84	14.38	-39.7	-42.2	12.7	1.11e-04	0	60	0	467664896	51	4686
2026-01-30 12:23:24.64	175.01	14.80	-39.7	-42.2	12.7	1.01e-04	0	61	0	490733568	51	4660
2026-01-30 12:23:28.68	175.17	15.23	-39.5	-41.9	13.1	5.72e-05	0	61	0	513802240	51	4500
2026-01-30 12:23:32.72	175.34	15.66	-39.5	-41.7	13.3	3.20e-05	0	61	0	535822336	50	4705
2026-01-30 12:23:36.76	175.52	16.10	-39.3	-41.5	13.5	1.71e-05	0	61	0	558891008	50	4584
2026-01-30 12:23:40.80	175.70	16.55	-39.1	-41.3	13.7	1.37e-05	0	61	0	581959680	50	4478
2026-01-30 12:23:44.85	175.89	17.01	-39.2	-41.4	13.7	1.25e-05	0	61	0	605028352	50	4515
2026-01-30 12:23:48.89	176.08	17.48	-39.0	-41.1	14.0	1.10e-06	0	61	0	627048448	50	4386
2026-01-30 12:23:52.93	176.28	17.95	-39.0	-41.2	13.9	4.50e-06	0	61	0	650117120	49	4654
2026-01-30 12:23:56.97	176.48	18.43	-39.0	-41.2	13.9	4.50e-06	0	61	0	672137216	49	4679
2026-01-30 12:24:01.01	176.69	18.93	-39.1	-41.3	13.8	1.02e-05	0	61	0	695205888	49	4715
2026-01-30 12:24:05.04	176.90	19.43	-39.0	-41.1	14.0	4.50e-06	0	61	0	718274560	49	4631
2026-01-30 12:24:09.08	177.12	19.94	-38.7	-40.7	14.4	2.20e-06	0	61	0	741343232	49	4430
2026-01-30 12:24:13.13	177.35	20.47	-38.6	-40.7	14.5	1.10e-06	0	61	0	763363328	49	4398
2026-01-30 12:24:17.17	177.59	21.00	-38.7	-40.8	14.4	1.10e-06	0	61	0	786432000	49	4444
2026-01-30 12:24:21.21	177.84	21.55	-38.7	-40.7	14.4	3.40e-06	0	61	0	809500672	49	4431
2026-01-30 12:24:25.26	178.09	22.10	-38.5	-40.5	14.6	0.00e+00	0	62	0	831520768	49	4321
2026-01-30 12:24:29.30	178.35	22.67	-38.3	-40.3	14.9	0.00e+00	0	62	0	854589440	48	4443
2026-01-30 12:24:33.34	178.62	23.25	-38.1	-40.0	15.2	0.00e+00	0	62	0	877658112	48	4313
2026-01-30 12:24:37.38	178.90	23.85	-38.1	-40.0	15.2	0.00e+00	0	62	0	899678208	48	4319
2026-01-30 12:24:41.42	179.20	24.45	-38.1	-39.9	15.3	0.00e+00	0	62	0	922746880	48	4267
2026-01-30 12:24:45.47	179.50	25.08	-38.1	-40.0	15.2	0.00e+00	0	62	0	945815552	48	4310
2026-01-30 12:24:49.51	179.81	25.71	-38.2	-40.0	15.2	0.00e+00	0	62	0	967835648	48	4310
2026-01-30 12:24:53.55	180.14	26.36	-37.9	-39.7	15.4	0.00e+00	0	62	0	990904320	47	4420
2026-01-30 12:24:57.59	180.48	27.02	-37.8	-39.6	15.5	0.00e+00	0	62	0	1013972992	47	4374
2026-01-30 12:25:01.63	180.84	27.70	-37.8	-39.6	15.5	0.00e+00	0	62	0	1037041664	47	4390
2026-01-30 12:25:05.67	181.21	28.40	-38.0	-39.8	15.3	0.00e+00	0	62	0	1059061760	47	4484
2026-01-30 12:25:09.71	181.59	29.11	-37.9	-39.7	15.4	0.00e+00	0	62	0	1082130432	47	4434
2026-01-30 12:25:13.75	181.99	29.84	-37.6	-39.4	15.7	0.00e+00	0	62	0	1104150528	47	4271
2026-01-30 12:25:17.79	182.41	30.59	-37.6	-39.4	15.7	0.00e+00	0	62	0	1127219200	47	4265
2026-01-30 12:25:21.83	182.85	31.35	-37.6	-39.4	15.8	0.00e+00	0	62	0	1150287872	47	4243
2026-01-30 12:25:25.87	183.31	32.14	-37.9	-39.7	15.4	0.00e+00	0	62	0	1173356544	47	4430
2026-01-30 12:25:29.92	183.80	32.94	-37.6	-39.3	15.8	0.00e+00	0	62	0	1195376640	47	4233
2026-01-30 12:25:33.96	184.30	33.77	-37.7	-39.6	15.6	0.00e+00	0	62	0	1218445312	47	4344
2026-01-30 12:25:38.00	184.84	34.61	-37.6	-39.4	15.8	0.00e+00	0	62	0	1241513984	47	4245
2026-01-30 12:25:42.04	185.40	35.47	-37.4	-39.1	16.1	0.00e+00	0	62	0	1263534080	46	4350
2026-01-30 12:25:46.08	185.99	36.36	-37.2	-38.9	16.3	0.00e+00	0	62	0	1286602752	46	4259
2026-01-30 12:25:50.12	186.61	37.26	-37.4	-39.1	16.1	0.00e+00	0	62	0	1308622848	46	4370
2026-01-30 12:25:54.16	187.27	38.19	-37.4	-39.2	16.1	0.00e+00	0	62	0	1331691520	46	4397
2026-01-30 12:25:58.20	187.97	39.14	-37.4	-39.0	16.2	0.00e+00	0	62	0	1354760192	46	4323
2026-01-30 12:26:02.24	188.70	40.11	-37.8	-39.5	15.7	0.00e+00	0	62	0	1377828864	46	4583
2026-01-30 12:26:06.29	189.49	41.10	-37.5	-39.2	16.1	0.00e+00	0	62	0	1399848960	46	4400
2026-01-30 12:26:10.33	190.32	42.12	-37.6	-39.4	15.9	0.00e+00	0	62	0	1422917632	46	4503
2026-01-30 12:26:14.36	191.20	43.15	-37.8	-39.5	15.8	0.00e+00	0	62	0	1445986304	46	4594
2026-01-30 12:26:18.40	192.15	44.21	-38.1	-39.9	15.4	0.00e+00	0	62	0	1468006400	46	4794
2026-01-30 12:26:22.44	193.15	45.28	-38.0	-39.9	15.4	0.00e+00	0	62	0	1491075072	47	4509
2026-01-30 12:26:26.49	194.23	46.38	-38.0	-39.8	15.6	0.00e+00	0	62	0	1514143744	47	4447
2026-01-30 12:26:30.53	195.39	47.50	-37.8	-39.5	15.8	0.00e+00	0	62	0	1536163840	47	4336
2026-01-30 12:26:34.57	196.63	48.63	-38.0	-39.8	15.5	0.00e+00	0	62	0	1559232512	47	4462
2026-01-30 12:26:38.61	197.97	49.77	-38.3	-40.1	15.2	0.00e+00	0	62	0	1582301184	47	4649
2026-01-30 12:26:42.65	199.40	50.93	-38.6	-40.5	14.9	0.00e+00	0	62	0	1604321280	47	4845
2026-01-30 12:26:46.68	200.95	52.09	-38.6	-40.5	14.8	0.00e+00	0	62	0	1627389952	47	4862
2026-01-30 12:26:50.73	202.63	53.26	-38.8	-40.8	14.8	0.00e+00	0	62	0	1650458624	48	4717
2026-01-30 12:26:54.77	204.45	54.44	-38.9	-40.9	14.7	1.10e-06	0	62	0	1672478720	48	4765
2026-01-30 12:26:58.81	206.42	55.60	-39.1	-41.2	14.3	2.20e-06	0	62	0	1695547392	48	4934
2026-01-30 12:27:02.85	208.56	56.76	-38.6	-40.4	15.1	0.00e+00	0	62	0	1718616064	48	4531
2026-01-30 12:27:06.90	210.89	57.90	-38.5	-40.3	15.2	0.00e+00	0	62	0	1740636160	48	4487
2026-01-30 12:27:10.94	213.41	59.01	-38.3	-40.1	15.3	0.00e+00	0	62	0	1763704832	48	4390
2026-01-30 12:27:14.98	216.16	60.09	-37.6	-39.3	16.1	1.10e-06	0	62	0	1786773504	47	4204
2026-01-30 12:27:19.02	219.13	61.12	-37.6	-39.2	16.0	0.00e+00	0	62	0	1808793600	47	4191
2026-01-30 12:27:23.06	222.36	62.10	-37.8	-39.6	15.7	0.00e+00	0	62	0	1831862272	46	4607
2026-01-30 12:27:27.11	225.84	63.01	-37.6	-39.4	15.9	0.00e+00	0	62	0	1854930944	46	4505
2026-01-30 12:27:31.15	229.58	63.83	-37.4	-39.0	16.2	0.00e+00	0	62	0	1877999616	46	4338
2026-01-30 12:27:35.19	233.58	64.55	-37.4	-39.0	16.2	0.00e+00	0	62	0	1900019712	46	4335
2026-01-30 12:27:39.23	237.82	65.17	-37.3	-39.0	16.2	0.00e+00	0	62	0	1923088384	46	4320
2026-01-30 12:27:43.27	242.26	65.66	-37.5	-39.2	16.0	0.00e+00	0	62	0	1945108480	46	4420
2026-01-30 12:27:47.32	246.90	66.02	-37.5	-39.3	16.0	8.00e-06	0	62	0	1968177152	46	4449
2026-01-30 12:27:51.36	251.64	66.23	-37.2	-38.8	16.4	0.00e+00	0	62	0	1991245824	46	4236
2026-01-30 12:27:55.40	256.45	66.29	-37.3	-39.0	16.2	0.00e+00	0	62	0	2014314496	46	4310
2026-01-30 12:27:59.44	261.25	66.20	-37.0	-38.6	16.6	0.00e+00	0	62	0	2036334592	45	4382
2026-01-30 12:28:03.48	265.97	65.97	-37.3	-39.0	16.2	0.00e+00	0	62	0	2059403264	45	4554
2026-01-30 12:28:07.52	270.57	65.59	-37.2	-38.8	16.4	0.00e+00	0	63	0	2082471936	45	4455
2026-01-30 12:28:11.57	274.99	65.08	-37.2	-38.9	16.4	0.00e+00	0	62	0	2104492032	45	4506
2026-01-30 12:28:15.61	279.19	64.45	-37.6	-39.3	15.9	0.00e+00	0	62	0	2127560704	45	4729
2026-01-30 12:28:19.65	283.14	63.71	-37.4	-39.2	16.1	0.00e+00	0	62	0	2150629376	45	4656
2026-01-30 12:28:23.70	286.84	62.87	-37.4	-39.0	16.3	0.00e+00	0	63	0	2172649472	45	4561
2026-01-30 12:28:27.74	290.28	61.96	-37.4	-39.0	16.2	0.00e+00	0	62	0	2195718144	45	4592
2026-01-30 12:28:31.78	293.46	60.97	-37.4	-39.1	16.3	0.00e+00	0	62	0	2218786816	45	4607
2026-01-30 12:28:35.82	296.39	59.94	-37.8	-39.5	15.8	0.00e+00	0	62	0	2241855488	46	4584
2026-01-30 12:28:39.86	299.09	58.86	-37.6	-39.3	16.1	0.00e+00	0	62	0	2263875584	46	4454
2026-01-30 12:28:43.91	301.59	57.74	-38.1	-39.9	15.5	0.00e+00	0	62	0	2286944256	46	4793
2026-01-30 12:28:47.94	303.87	56.60	-38.5	-40.4	15.0	2.20e-06	0	62	0	2310012928	47	4783
2026-01-30 12:28:51.98	305.98	55.45	-38.6	-40.6	14.7	0.00e+00	0	62	0	2332033024	47	4908
2026-01-30 12:28:56.02	307.93	54.29	-38.5	-40.4	14.9	0.00e+00	0	63	0	2355101696	47	4798
2026-01-30 12:29:00.07	309.72	53.12	-38.3	-40.0	15.5	0.00e+00	0	63	0	2377121792	47	4584
2026-01-30 12:29:04.11	311.38	51.95	-38.1	-39.8	15.7	0.00e+00	0	63	0	2400190464	47	4464
2026-01-30 12:29:08.15	312.91	50.79	-38.2	-39.9	15.6	0.00e+00	0	62	0	2423259136	47	4513
2026-01-30 12:29:12.19	314.33	49.64	-38.0	-39.7	15.8	0.00e+00	0	62	0	2446327808	47	4412
2026-01-30 12:29:16.24	315.65	48.50	-38.0	-39.7	15.8	0.00e+00	0	63	0	2468347904	47	4425
2026-01-30 12:29:20.28	316.88	47.38	-37.9	-39.6	15.9	0.00e+00	0	62	0	2491416576	47	4347
2026-01-30 12:29:24.32	318.02	46.27	-37.9	-39.6	15.9	0.00e+00	0	62	0	2514485248	47	4348
2026-01-30 12:29:28.36	319.09	45.18	-37.7	-39.2	16.3	0.00e+00	0	63	0	2536505344	47	4185
2026-01-30 12:29:32.40	320.09	44.11	-37.8	-39.5	16.0	0.00e+00	0	62	0	2559574016	47	4318
2026-01-30 12:29:36.44	321.02	43.06	-37.6	-39.2	16.3	0.00e+00	0	63	0	2582642688	47	4165
2026-01-30 12:29:40.48	321.90	42.04	-37.6	-39.2	16.2	0.00e+00	0	63	0	2604662784	47	4185
2026-01-30 12:29:44.52	322.72	41.03	-37.4	-38.9	16.5	0.00e+00	0	62	0	2627731456	46	4279
2026-01-30 12:29:48.57	323.50	40.04	-37.3	-38.9	16.5	0.00e+00	0	63	0	2650800128	46	4258
2026-01-30 12:29:52.61	324.23	39.08	-37.5	-39.1	16.3	0.00e+00	0	63	0	2672820224	46	4383
2026-01-30 12:29:56.65	324.92	38.14	-37.5	-39.1	16.3	0.00e+00	0	62	0	2695888896	46	4363
2026-01-30 12:30:00.70	325.57	37.22	-37.2	-38.8	16.6	0.00e+00	0	63	0	2718957568	46	4206
2026-01-30 12:30:04.73	326.19	36.32	-37.3	-38.8	16.6	0.00e+00	0	63	0	2742026240	46	4218
2026-01-30 12:30:08.78	326.78	35.44	-37.5	-39.0	16.3	0.00e+00	0	63	0	2764046336	46	4334
2026-01-30 12:30:12.83	327.34	34.58	-37.4	-39.0	16.4	0.00e+00	0	63	0	2787115008	46	4306
2026-01-30 12:30:16.86	327.87	33.75	-37.5	-39.1	16.2	0.00e+00	0	62	0	2809135104	46	4374
2026-01-30 12:30:20.90	328.37	32.93	-37.6	-39.3	16.1	0.00e+00	0	63	0	2832203776	46	4463
2026-01-30 12:30:24.94	328.85	32.14	-37.6	-39.3	16.0	0.00e+00	0	63	0	2855272448	46	4457
2026-01-30 12:30:28.98	329.31	31.36	-37.6	-39.2	16.1	0.00e+00	0	63	0	2878341120	46	4417
2026-01-30 12:30:33.03	329.75	30.60	-37.5	-39.1	16.1	0.00e+00	0	63	0	2900361216	46	4389
2026-01-30 12:30:37.07	330.17	29.86	-37.7	-39.4	15.9	0.00e+00	0	63	0	2923429888	46	4517
2026-01-30 12:30:41.11	330.57	29.13	-37.6	-39.3	16.0	0.00e+00	0	63	0	2946498560	46	4451
2026-01-30 12:30:45.16	330.96	28.42	-37.4	-39.0	16.2	0.00e+00	0	63	0	2968518656	46	4311
2026-01-30 12:30:49.20	331.32	27.73	-37.6	-39.3	15.9	0.00e+00	0	63	0	2991587328	46	4449
2026-01-30 12:30:53.23	331.68	27.06	-37.8	-39.5	15.7	0.00e+00	0	63	0	3014656000	46	4560
2026-01-30 12:30:57.28	332.02	26.40	-37.6	-39.2	15.9	0.00e+00	0	63	0	3036676096	46	4429
2026-01-30 12:31:01.32	332.34	25.76	-37.5	-39.1	15.9	0.00e+00	0	63	0	3059744768	46	4376
2026-01-30 12:31:05.36	332.66	25.13	-37.5	-39.2	15.9	0.00e+00	0	63	0	3082813440	46	4397
2026-01-30 12:31:09.40	332.96	24.51	-37.8	-39.5	15.5	0.00e+00	0	63	0	3104833536	46	4559
2026-01-30 12:31:13.45	333.26	23.91	-37.8	-39.6	15.4	0.00e+00	0	63	0	3127902208	46	4606
2026-01-30 12:31:17.49	333.54	23.32	-38.0	-39.7	15.2	0.00e+00	0	63	0	3150970880	46	4705
2026-01-30 12:31:21.53	333.81	22.74	-38.1	-40.0	14.9	0.00e+00	0	63	0	3172990976	46	4832
2026-01-30 12:31:25.57	334.07	22.18	-38.2	-40.0	14.8	0.00e+00	0	63	0	3196059648	46	4845
2026-01-30 12:31:29.61	334.33	21.62	-38.3	-40.2	14.6	2.20e-06	0	63	0	3219128320	47	4659
2026-01-30 12:31:33.65	334.57	21.08	-38.4	-40.4	14.4	1.10e-06	0	63	0	3241148416	47	4761
2026-01-30 12:31:37.69	334.81	20.55	-38.5	-40.5	14.2	2.20e-06	0	63	0	3264217088	47	4860
2026-01-30 12:31:41.72	335.04	20.03	-38.7	-40.8	13.8	5.70e-06	0	63	0	3287285760	47	5023
2026-01-30 12:31:45.77	335.27	19.52	-38.8	-40.9	13.7	1.02e-05	0	63	0	3309305856	48	4781
2026-01-30 12:31:49.81	335.49	19.02	-38.7	-40.9	13.7	1.71e-05	0	63	0	3332374528	48	4767
2026-01-30 12:31:53.86	335.70	18.53	-38.7	-40.8	13.6	1.14e-05	0	63	0	3355443200	48	4733
2026-01-30 12:31:57.90	335.90	18.05	-38.7	-40.9	13.4	1.71e-05	0	63	0	3377463296	48	4779
2026-01-30 12:32:01.94	336.10	17.58	-38.8	-41.0	13.3	2.86e-05	0	63	0	3400531968	48	4824
2026-01-30 12:32:05.98	336.29	17.12	-38.9	-41.2	13.0	8.23e-05	0	63	0	3423600640	48	4951
2026-01-30 12:32:10.02	336.48	16.66	-38.9	-41.2	12.9	6.98e-05	0	63	0	3446669312	48	4979
2026-01-30 12:32:14.06	336.66	16.21	-39.1	-41.6	12.5	1.58e-04	0	63	0	3468689408	48	5178
2026-01-30 12:32:18.10	336.84	15.78	-39.2	-41.8	12.3	2.78e-04	0	63	0	3491758080	49	4987
2026-01-30 12:32:22.15	337.02	15.34	-39.3	-41.9	12.1	4.24e-04	0	63	0	3514826752	49	5051
2026-01-30 12:32:26.19	337.19	14.92	-39.3	-41.9	11.9	5.96e-04	0	63	0	3536846848	49	5090
2026-01-30 12:32:30.23	337.35	14.50	-39.1	-41.7	11.9	6.68e-04	0	63	0	3559915520	49	4980
2026-01-30 12:32:34.27	337.51	14.09	-39.2	-41.9	11.6	9.97e-04	0	63	0	3582984192	49	5064
2026-01-30 12:32:38.31	337.67	13.69	-39.4	-42.3	11.0	2.44e-03	0	63	0	3605004288	49	5334
2026-01-30 12:32:42.36	337.82	13.29	-39.5	-42.5	10.7	3.78e-03	0	63	0	3628072960	49	5447
2026-01-30 12:32:46.39	337.97	12.90	-39.2	-42.1	11.0	2.80e-03	0	63	0	3651141632	49	5196
2026-01-30 12:32:50.43	338.12	12.52	-38.9	-41.8	11.2	2.28e-03	0	63	0	3673161728	49	5036
2026-01-30 12:32:54.48	338.26	12.14	-38.6	-41.4	11.6	1.15e-03	0	63	0	3696230400	49	4786
2026-01-30 12:32:58.52	338.40	11.77	-38.7	-41.6	11.2	1.92e-03	0	63	0	3719299072	49	4905
2026-01-30 12:33:02.56	338.54	11.40	-39.0	-42.3	10.3	6.53e-03	0	63	0	3741319168	49	5295
2026-01-30 12:33:06.60	338.67	11.04	-39.3	-42.8	9.7	1.21e-02	0	63	0	3764387840	49	5606
2026-01-30 12:33:10.64	338.80	10.68	-39.7	-43.7	8.6	4.29e-02	0	63	0	3787456512	49	6231
2026-01-30 12:33:14.67	338.93	10.33	-40.1	-44.8	7.4	1.13e-01	0	63	0	3809476608	50	6650
2026-01-30 12:33:18.71	339.06	9.98	-40.3	-45.7	6.5	2.65e-01	0	63	0	3832545280	51	6990
2026-01-30 12:33:22.76	339.18	9.64	-41.3	-48.5	4.2	8.44e-01	0	63	104	3838836736	54	8104
2026-01-30 12:33:26.80	339.30	9.30	-40.8	-48.1	4.7	8.08e-01	0	63	0	3838836736	53	8229
2026-01-30 12:33:30.84	339.42	8.97	-41.2	-50.1	4.0	8.36e-01	0	63	0	3838836736	53	10399
2026-01-30 12:33:34.88	339.53	8.64	-41.5	-52.5	3.8	8.44e-01	0	63	104	3838836736	53	13585
2026-01-30 12:33:38.92	339.65	8.32	-40.8	-50.2	3.8	8.45e-01	0	63	104	3838836736	53	10424
2026-01-30 12:33:42.97	339.76	8.00	-42.5	-53.6	3.8	8.45e-01	0	63	104	3838836736	55	13788
2026-01-30 12:33:47.01	339.87	7.68	-45.0	-56.7	3.8	8.46e-01	0	63	104	3838836736	60	14845
2026-01-30 12:33:51.05	339.98	7.37	-45.3	-57.1	3.8	8.46e-01	0	63	104	3838836736	61	14611
2026-01-30 12:33:55.09	340.08	7.06	-45.3	-57.0	3.8	8.46e-01	0	63	104	3838836736	61	14510
2026-01-30 12:33:59.13	340.19	6.75	-45.2	-56.9	3.8	8.46e-01	0	63	104	3838836736	61	14333
2026-01-30 12:34:03.17	340.29	6.45	-45.1	-56.9	3.8	8.47e-01	0	63	104	3838836736	60	15151
2026-01-30 12:34:07.22	340.39	6.15	-45.2	-56.9	3.8	8.45e-01	0	63	104	3838836736	60	15180
2026-01-30 12:34:11.26	340.49	5.86	-45.1	-56.9	3.8	8.47e-01	0	63	104	3838836736	60	15185
2026-01-30 12:34:15.30	340.59	5.56	-45.2	-56.9	3.8	8.46e-01	0	63	104	3838836736	60	15133
2026-01-30 12:34:19.34	340.68	5.28	-45.1	-56.9	3.8	8.47e-01	0	63	104	3838836736	60	15108
2026-01-30 12:34:23.39	340.78	4.99	-45.1	-56.9	3.8	8.45e-01	0	63	104	3838836736	60	15101
2026-01-30 12:34:27.43	340.87	4.71	-45.1	-56.9	3.8	8.46e-01	0	63	104	3838836736	60	15123
2026-01-30 12:34:31.47	340.96	4.43	-45.1	-56.9	3.8	8.46e-01	0	63	104	3838836736	60	15087
2026-01-30 12:34:35.52	341.05	4.15	-45.1	-56.8	3.8	8.47e-01	0	63	104	3838836736	60	15051
2026-01-30 12:34:39.56	341.14	3.88	-45.1	-56.8	3.8	8.46e-01	0	63	104	3838836736	60	15037
2026-01-30 12:34:43.60	341.23	3.61	-45.1	-56.8	3.8	8.46e-01	0	63	104	3838836736	60	15027
2026-01-30 12:34:47.64	341.31	3.34	-45.1	-56.8	3.8	8.46e-01	0	63	104	3838836736	60	15015
2026-01-30 12:34:51.68	341.40	3.07	-45.1	-56.8	3.8	8.46e-01	0	63	104	3838836736	60	15030
2026-01-30 12:34:55.72	341.48	2.81	-45.1	-56.8	3.8	8.47e-01	0	63	104	3838836736	60	14996
2026-01-30 12:34:59.76	341.56	2.55	-45.1	-56.8	3.8	8.48e-01	0	63	104	3838836736	60	15001
2026-01-30 12:35:03.80	341.65	2.29	-45.1	-56.8	3.8	8.46e-01	0	63	104	3838836736	60	15006
2026-01-30 12:35:07.85	341.73	2.03	-45.1	-56.8	3.8	8.48e-01	0	63	104	3838836736	60	14971

#Closed at: 2026-01-30 12:35:10
#Recorded file [3838 MB]: D:/lorett/data/31039_260130_152046.dat