passes_logs/2026/01/30/R2.0S_Moscow/R2.0S_Moscow__20260130_105503_NOAA_21_JPSS-2_rec.log

#Pass ID: 20260130_105503_NOAA 21 (JPSS-2)
#Satellite: NOAA 21 (JPSS-2)
#Configuration: NOAA-21
#almurnet v.1.7.20251203
#Start time: 2026-01-30 10:55:03

#Version: 2.2.20231116
#Station: R2.0S_Moscow
#Location: 37.707566 lon 55.798166 lat
#TLE: 1 54234U 22150A   26029.46216196  .00000141  00000+0  87503-4 0  9994
#TLE: 2 54234  98.7512 330.1880 0000955 196.3413 163.7732 14.19540905166865

#Time	Az	El	Level	Level2	SNR	BER	BlckErr	Temp	State	Recorded	gain1	gain2
2026-01-30 10:55:03.26	190.16	1.98	-43.8	-56.0	3.8	1.49e+00	0	62	0	0	58	15340
2026-01-30 10:55:07.31	190.35	2.23	-43.8	-56.0	3.8	1.49e+00	0	62	104	0	58	15263
2026-01-30 10:55:11.35	190.54	2.47	-43.7	-56.0	3.8	1.49e+00	0	62	104	0	58	15282
2026-01-30 10:55:15.39	190.74	2.72	-43.7	-56.0	3.8	1.49e+00	0	62	104	0	58	15242
2026-01-30 10:55:19.44	190.94	2.97	-43.7	-55.9	3.8	1.49e+00	0	62	104	0	58	15186
2026-01-30 10:55:23.48	191.15	3.23	-43.7	-56.0	3.8	1.49e+00	0	62	104	0	58	15240
2026-01-30 10:55:27.52	191.36	3.48	-43.7	-55.9	3.8	1.49e+00	0	62	104	0	58	15192
2026-01-30 10:55:31.56	191.57	3.74	-43.7	-55.9	3.8	1.49e+00	0	62	104	0	58	15167
2026-01-30 10:55:35.60	191.78	4.00	-43.7	-55.9	3.8	1.49e+00	0	62	104	0	58	15171
2026-01-30 10:55:39.64	192.00	4.26	-43.7	-55.9	3.8	1.49e+00	0	62	104	0	58	15161
2026-01-30 10:55:43.68	192.23	4.52	-43.7	-55.9	3.8	1.49e+00	0	62	104	0	58	15145
2026-01-30 10:55:47.71	192.45	4.79	-43.7	-55.9	3.8	1.49e+00	0	62	104	0	58	15106
2026-01-30 10:55:51.75	192.68	5.06	-43.7	-55.7	3.8	1.49e+00	0	62	104	0	58	14750
2026-01-30 10:55:55.79	192.92	5.33	-43.7	-55.3	3.8	1.49e+00	0	62	104	0	58	14180
2026-01-30 10:55:59.83	193.15	5.60	-43.5	-54.5	3.8	1.49e+00	0	62	104	0	58	12951
2026-01-30 10:56:03.87	193.40	5.87	-43.3	-52.5	4.2	1.47e+00	0	62	104	0	58	10203
2026-01-30 10:56:07.91	193.64	6.15	-43.1	-51.1	4.6	1.21e+00	0	62	104	0	58	8697
2026-01-30 10:56:11.95	193.90	6.43	-43.2	-51.4	4.5	1.23e+00	2	62	104	0	58	8973
2026-01-30 10:56:15.99	194.15	6.72	-43.6	-54.7	3.8	1.49e+00	0	62	104	0	58	13121
2026-01-30 10:56:20.04	194.42	7.00	-43.6	-55.2	3.8	1.49e+00	0	62	104	0	58	13916
2026-01-30 10:56:24.08	194.68	7.29	-42.9	-50.0	5.2	1.21e+00	0	62	104	0	57	8176
2026-01-30 10:56:28.12	194.95	7.58	-42.3	-47.9	6.7	2.05e-01	0	62	0	11534336	56	6759
2026-01-30 10:56:32.17	195.23	7.88	-42.6	-48.7	6.1	2.77e-01	0	62	0	24117248	56	7430
2026-01-30 10:56:36.20	195.51	8.17	-42.0	-47.4	7.0	1.60e-01	0	62	0	31457280	55	6765
2026-01-30 10:56:40.24	195.80	8.47	-41.4	-45.6	9.0	3.09e-02	0	62	0	36700160	54	5822
2026-01-30 10:56:44.28	196.09	8.77	-41.4	-45.4	9.2	2.03e-02	0	62	0	49283072	54	5661
2026-01-30 10:56:48.32	196.39	9.08	-41.4	-45.3	9.4	1.68e-02	0	62	0	61865984	54	5623
2026-01-30 10:56:52.36	196.70	9.39	-41.4	-45.3	9.4	1.56e-02	0	62	0	74448896	54	5627
2026-01-30 10:56:56.39	197.01	9.70	-41.4	-45.4	9.4	1.67e-02	0	62	0	87031808	54	5660
2026-01-30 10:57:00.43	197.33	10.02	-41.3	-45.1	9.6	1.21e-02	0	62	0	99614720	54	5496
2026-01-30 10:57:04.48	197.65	10.34	-41.1	-44.7	10.0	7.28e-03	0	62	0	112197632	54	5242
2026-01-30 10:57:08.52	197.98	10.66	-41.2	-44.9	10.0	6.34e-03	0	62	0	124780544	54	5346
2026-01-30 10:57:12.56	198.32	10.98	-41.1	-44.7	10.3	4.77e-03	0	62	0	137363456	54	5226
2026-01-30 10:57:16.60	198.67	11.31	-41.0	-44.6	10.2	6.42e-03	0	62	0	149946368	54	5182
2026-01-30 10:57:20.64	199.02	11.65	-40.7	-44.3	10.2	6.61e-03	0	62	0	162529280	53	5314
2026-01-30 10:57:24.67	199.38	11.98	-40.9	-44.5	10.4	4.74e-03	0	62	0	175112192	53	5413
2026-01-30 10:57:28.71	199.75	12.32	-40.8	-44.3	10.5	3.36e-03	0	62	0	187695104	53	5291
2026-01-30 10:57:32.75	200.13	12.66	-40.9	-44.2	10.8	2.60e-03	0	62	0	200278016	53	5269
2026-01-30 10:57:36.79	200.52	13.01	-40.9	-44.3	10.5	4.01e-03	0	62	0	212860928	53	5301
2026-01-30 10:57:40.82	200.91	13.36	-40.9	-44.2	10.8	2.58e-03	0	62	0	225443840	53	5242
2026-01-30 10:57:44.86	201.32	13.72	-40.9	-44.1	11.1	1.82e-03	0	62	0	238026752	53	5174
2026-01-30 10:57:48.90	201.73	14.08	-40.9	-44.1	11.2	1.30e-03	0	62	0	250609664	53	5175
2026-01-30 10:57:52.94	202.15	14.44	-40.9	-44.1	11.0	1.80e-03	0	62	0	263192576	53	5201
2026-01-30 10:57:56.97	202.59	14.80	-41.0	-44.2	11.0	1.80e-03	0	62	0	275775488	53	5279
2026-01-30 10:58:01.01	203.03	15.18	-40.9	-44.0	11.3	1.29e-03	0	62	0	288358400	53	5122
2026-01-30 10:58:05.05	203.49	15.55	-41.0	-44.1	11.3	1.16e-03	0	62	0	300941312	53	5182
2026-01-30 10:58:09.08	203.95	15.93	-41.0	-44.1	11.4	9.73e-04	0	62	0	313524224	53	5190
2026-01-30 10:58:13.12	204.43	16.31	-41.0	-44.1	11.3	1.16e-03	0	62	0	326107136	53	5218
2026-01-30 10:58:17.16	204.92	16.70	-41.1	-44.3	11.2	1.33e-03	0	62	0	338690048	53	5284
2026-01-30 10:58:21.20	205.42	17.09	-41.2	-44.4	11.1	1.49e-03	0	62	0	351272960	53	5356
2026-01-30 10:58:25.24	205.94	17.49	-41.2	-44.4	11.1	1.48e-03	0	62	0	363855872	53	5354
2026-01-30 10:58:29.28	206.47	17.89	-41.3	-44.6	10.9	2.10e-03	0	62	0	377487360	53	5475
2026-01-30 10:58:33.32	207.01	18.29	-41.4	-44.6	10.9	2.35e-03	0	62	0	390070272	53	5513
2026-01-30 10:58:37.37	207.57	18.70	-41.4	-44.6	11.0	1.91e-03	0	62	0	402653184	53	5513
2026-01-30 10:58:41.41	208.14	19.11	-41.3	-44.5	11.2	1.45e-03	0	62	0	415236096	53	5440
2026-01-30 10:58:45.45	208.73	19.53	-41.2	-44.3	11.4	1.04e-03	0	62	0	427819008	53	5300
2026-01-30 10:58:49.49	209.33	19.95	-41.1	-44.2	11.5	9.12e-04	0	62	0	440401920	53	5229
2026-01-30 10:58:53.53	209.95	20.38	-41.2	-44.2	11.6	7.71e-04	0	62	0	452984832	53	5239
2026-01-30 10:58:57.57	210.59	20.81	-41.0	-43.9	11.9	3.86e-04	0	62	0	465567744	53	5049
2026-01-30 10:59:01.61	211.24	21.24	-41.0	-43.8	11.9	3.60e-04	0	62	0	478150656	53	5033
2026-01-30 10:59:05.64	211.91	21.67	-41.0	-43.9	11.9	3.70e-04	0	62	0	490733568	53	5046
2026-01-30 10:59:09.68	212.60	22.11	-40.8	-43.6	12.2	2.44e-04	0	62	0	503316480	53	4917
2026-01-30 10:59:13.72	213.31	22.56	-40.6	-43.2	12.6	9.84e-05	0	62	0	515899392	53	4700
2026-01-30 10:59:17.76	214.04	23.00	-40.5	-43.1	12.7	6.94e-05	0	62	0	528482304	53	4615
2026-01-30 10:59:21.80	214.79	23.45	-40.6	-43.2	12.6	9.91e-05	0	62	0	541065216	53	4702
2026-01-30 10:59:25.84	215.56	23.91	-40.7	-43.3	12.6	1.02e-04	0	62	0	553648128	53	4729
2026-01-30 10:59:29.88	216.36	24.36	-40.6	-43.2	12.7	9.46e-05	0	62	0	566231040	53	4687
2026-01-30 10:59:33.92	217.17	24.82	-40.8	-43.5	12.4	1.47e-04	0	62	0	578813952	53	4825
2026-01-30 10:59:37.96	218.01	25.27	-40.8	-43.4	12.4	1.20e-04	0	62	0	591396864	53	4813
2026-01-30 10:59:42.01	218.88	25.74	-40.7	-43.3	12.6	9.76e-05	0	62	0	603979776	53	4754
2026-01-30 10:59:46.05	219.77	26.20	-40.8	-43.5	12.5	1.40e-04	0	62	0	616562688	53	4816
2026-01-30 10:59:50.09	220.69	26.66	-41.0	-43.9	12.0	3.19e-04	0	62	0	629145600	53	5051
2026-01-30 10:59:54.13	221.63	27.12	-41.2	-44.1	11.8	5.70e-04	0	62	0	641728512	53	5182
2026-01-30 10:59:58.17	222.59	27.58	-41.2	-44.2	11.7	5.46e-04	0	62	0	655360000	53	5240
2026-01-30 11:00:02.21	223.59	28.04	-41.1	-44.0	11.9	3.85e-04	0	62	0	666894336	53	5117
2026-01-30 11:00:06.25	224.62	28.50	-41.0	-43.9	12.1	3.04e-04	0	62	0	679477248	53	5047
2026-01-30 11:00:10.29	225.67	28.95	-40.9	-43.6	12.3	1.56e-04	0	62	0	693108736	53	4893
2026-01-30 11:00:14.33	226.75	29.40	-41.0	-43.7	12.2	2.26e-04	0	62	0	705691648	53	4969
2026-01-30 11:00:18.37	227.86	29.85	-40.9	-43.6	12.3	1.62e-04	0	62	0	718274560	53	4907
2026-01-30 11:00:22.41	229.01	30.29	-40.9	-43.7	12.3	1.98e-04	0	62	0	730857472	53	4937
2026-01-30 11:00:26.45	230.18	30.73	-41.1	-43.9	12.0	2.68e-04	0	62	0	743440384	53	5066
2026-01-30 11:00:30.49	231.39	31.16	-41.1	-44.0	12.0	3.71e-04	0	62	0	756023296	53	5107
2026-01-30 11:00:34.54	232.63	31.58	-41.2	-44.1	11.8	4.56e-04	0	62	0	768606208	53	5165
2026-01-30 11:00:38.58	233.90	32.00	-41.4	-44.3	11.6	6.19e-04	0	62	0	781189120	53	5331
2026-01-30 11:00:42.61	235.19	32.40	-41.5	-44.6	11.3	9.75e-04	0	62	0	793772032	53	5508
2026-01-30 11:00:46.65	236.53	32.79	-41.6	-44.8	11.1	1.36e-03	0	62	0	806354944	53	5621
2026-01-30 11:00:50.69	237.89	33.17	-41.8	-45.2	10.7	2.68e-03	0	62	0	818937856	54	5544
2026-01-30 11:00:54.73	239.28	33.54	-41.7	-44.9	11.0	2.02e-03	0	62	0	831520768	54	5390
2026-01-30 11:00:58.77	240.71	33.89	-41.8	-45.2	10.8	2.79e-03	0	62	0	844103680	54	5545
2026-01-30 11:01:02.81	242.16	34.22	-41.8	-45.1	10.8	2.34e-03	0	62	0	856686592	54	5479
2026-01-30 11:01:06.85	243.65	34.54	-41.5	-44.6	11.3	1.19e-03	0	62	0	869269504	54	5173
2026-01-30 11:01:10.89	245.16	34.84	-41.7	-45.0	10.9	2.17e-03	0	62	0	881852416	54	5432
2026-01-30 11:01:14.93	246.70	35.12	-41.6	-44.8	11.1	1.78e-03	0	62	0	894435328	54	5304
2026-01-30 11:01:18.97	248.26	35.38	-41.8	-45.2	10.7	3.02e-03	0	62	0	907018240	54	5531
2026-01-30 11:01:23.01	249.85	35.62	-41.6	-44.8	11.1	1.50e-03	0	62	0	919601152	54	5288
2026-01-30 11:01:27.05	251.45	35.83	-41.7	-44.8	11.1	1.50e-03	0	62	0	932184064	54	5332
2026-01-30 11:01:31.08	253.08	36.02	-41.8	-45.1	10.8	2.66e-03	0	62	0	944766976	54	5513
2026-01-30 11:01:35.12	254.72	36.19	-41.8	-45.2	10.8	2.08e-03	0	62	0	957349888	54	5532
2026-01-30 11:01:39.17	256.39	36.33	-41.9	-45.4	10.5	3.65e-03	0	62	0	970981376	54	5661
2026-01-30 11:01:43.21	258.06	36.44	-41.9	-45.3	10.6	3.81e-03	0	62	0	982515712	54	5620
2026-01-30 11:01:47.24	259.74	36.53	-42.0	-45.5	10.4	4.69e-03	0	62	0	996147200	54	5785
2026-01-30 11:01:51.28	261.43	36.59	-41.8	-45.1	10.8	2.41e-03	0	62	0	1008730112	54	5521
2026-01-30 11:01:55.33	263.13	36.62	-41.7	-45.0	10.9	2.33e-03	0	62	0	1021313024	54	5423
2026-01-30 11:01:59.37	264.83	36.63	-41.8	-45.1	10.7	2.65e-03	0	62	0	1033895936	54	5501
2026-01-30 11:02:03.40	266.52	36.60	-41.9	-45.2	10.7	3.20e-03	0	62	0	1046478848	54	5570
2026-01-30 11:02:07.45	268.22	36.55	-41.7	-44.9	11.1	1.58e-03	0	62	0	1059061760	54	5349
2026-01-30 11:02:11.49	269.90	36.48	-41.8	-45.1	10.8	2.33e-03	0	62	0	1071644672	54	5494
2026-01-30 11:02:15.53	271.58	36.37	-41.9	-45.3	10.6	3.31e-03	0	62	0	1084227584	54	5635
2026-01-30 11:02:19.56	273.24	36.24	-42.0	-45.4	10.6	3.65e-03	0	62	0	1096810496	54	5676
2026-01-30 11:02:23.60	274.89	36.08	-42.0	-45.4	10.5	3.71e-03	0	62	0	1109393408	54	5671
2026-01-30 11:02:27.64	276.52	35.90	-42.0	-45.5	10.4	4.30e-03	0	62	0	1121976320	54	5737
2026-01-30 11:02:31.67	278.13	35.70	-41.9	-45.3	10.5	4.08e-03	0	62	0	1134559232	54	5655
2026-01-30 11:02:35.71	279.72	35.47	-41.9	-45.2	10.7	3.02e-03	0	62	0	1147142144	54	5585
2026-01-30 11:02:39.75	281.29	35.22	-41.9	-45.3	10.5	4.05e-03	0	62	0	1159725056	54	5646
2026-01-30 11:02:43.79	282.83	34.95	-41.9	-45.4	10.5	4.48e-03	0	62	0	1172307968	54	5659
2026-01-30 11:02:47.83	284.35	34.66	-41.8	-45.1	10.8	2.08e-03	0	62	0	1184890880	54	5470
2026-01-30 11:02:51.87	285.84	34.35	-41.7	-44.9	11.0	1.80e-03	0	62	0	1197473792	54	5348
2026-01-30 11:02:55.90	287.30	34.02	-41.4	-44.5	11.4	1.09e-03	0	62	0	1210056704	54	5113
2026-01-30 11:02:59.95	288.73	33.67	-41.7	-45.0	10.9	2.46e-03	0	62	0	1222639616	54	5443
2026-01-30 11:03:03.98	290.13	33.32	-41.6	-44.7	11.2	1.42e-03	0	62	0	1235222528	54	5264
2026-01-30 11:03:08.02	291.50	32.94	-41.6	-44.7	11.2	1.34e-03	0	62	0	1247805440	54	5265
2026-01-30 11:03:12.06	292.84	32.56	-41.4	-44.4	11.5	7.65e-04	0	62	0	1260388352	54	5073
2026-01-30 11:03:16.11	294.15	32.16	-41.2	-44.1	11.8	5.14e-04	0	62	0	1272971264	54	4921
2026-01-30 11:03:20.15	295.43	31.75	-41.2	-44.2	11.7	5.50e-04	0	62	0	1285554176	54	4941
2026-01-30 11:03:24.19	296.67	31.34	-41.2	-44.0	11.8	4.35e-04	0	62	0	1298137088	54	4870
2026-01-30 11:03:28.23	297.88	30.91	-41.1	-43.9	11.9	3.60e-04	0	62	0	1311768576	54	4793
2026-01-30 11:03:32.28	299.07	30.48	-41.2	-44.2	11.7	5.55e-04	0	62	0	1324351488	54	4929
2026-01-30 11:03:36.32	300.22	30.04	-41.1	-44.0	11.9	4.41e-04	0	62	0	1336934400	54	4848
2026-01-30 11:03:40.36	301.34	29.60	-41.2	-44.1	11.7	6.61e-04	0	62	0	1349517312	54	4922
2026-01-30 11:03:44.40	302.43	29.15	-41.2	-44.1	11.7	5.59e-04	0	62	0	1362100224	54	4887
2026-01-30 11:03:48.45	303.49	28.70	-40.6	-43.2	12.6	7.01e-05	0	62	0	1374683136	53	4657
2026-01-30 11:03:52.49	304.52	28.25	-40.6	-43.2	12.5	1.03e-04	0	62	0	1387266048	53	4704
2026-01-30 11:03:56.53	305.53	27.79	-40.7	-43.3	12.4	1.27e-04	0	63	0	1399848960	53	4753
2026-01-30 11:04:00.58	306.50	27.33	-40.8	-43.6	12.2	2.38e-04	0	62	0	1412431872	53	4887
2026-01-30 11:04:04.62	307.45	26.87	-40.7	-43.4	12.4	1.54e-04	0	62	0	1425014784	53	4776
2026-01-30 11:04:08.66	308.37	26.42	-40.7	-43.4	12.4	1.57e-04	0	62	0	1437597696	53	4779
2026-01-30 11:04:12.69	309.27	25.96	-40.8	-43.5	12.2	1.97e-04	0	62	0	1450180608	53	4866
2026-01-30 11:04:16.73	310.14	25.50	-40.6	-43.3	12.4	1.33e-04	0	62	0	1462763520	53	4747
2026-01-30 11:04:20.78	310.99	25.05	-40.7	-43.5	12.2	2.61e-04	0	62	0	1475346432	53	4853
2026-01-30 11:04:24.82	311.81	24.59	-40.8	-43.6	12.1	2.74e-04	0	62	0	1487929344	53	4903
2026-01-30 11:04:28.86	312.61	24.14	-40.6	-43.2	12.5	1.45e-04	0	62	0	1500512256	53	4688
2026-01-30 11:04:32.90	313.39	23.69	-40.6	-43.2	12.4	1.22e-04	0	62	0	1513095168	53	4688
2026-01-30 11:04:36.95	314.15	23.24	-40.6	-43.4	12.3	2.01e-04	0	62	0	1525678080	53	4782
2026-01-30 11:04:40.99	314.89	22.80	-40.8	-43.6	12.0	2.84e-04	0	62	0	1538260992	53	4890
2026-01-30 11:04:45.03	315.60	22.36	-40.9	-43.8	11.8	5.39e-04	0	62	0	1550843904	53	5019
2026-01-30 11:04:49.07	316.30	21.92	-40.8	-43.7	11.9	4.10e-04	0	62	0	1563426816	53	4944
2026-01-30 11:04:53.11	316.98	21.49	-40.9	-43.8	11.8	5.05e-04	0	62	0	1577058304	53	5002
2026-01-30 11:04:57.16	317.64	21.05	-40.8	-43.8	11.8	4.90e-04	0	62	0	1588592640	53	4995
2026-01-30 11:05:01.20	318.28	20.63	-40.8	-43.7	11.9	4.74e-04	0	62	0	1602224128	53	4962
2026-01-30 11:05:05.23	318.90	20.21	-40.7	-43.6	12.0	3.29e-04	0	62	0	1614807040	53	4874
2026-01-30 11:05:09.27	319.51	19.79	-40.7	-43.5	12.0	3.27e-04	0	62	0	1627389952	53	4840
2026-01-30 11:05:13.31	320.10	19.37	-40.7	-43.5	11.9	3.49e-04	0	62	0	1639972864	53	4870
2026-01-30 11:05:17.34	320.68	18.96	-40.6	-43.4	12.0	2.91e-04	0	62	0	1652555776	53	4804
2026-01-30 11:05:21.38	321.24	18.55	-40.8	-43.6	11.8	4.94e-04	0	62	0	1665138688	53	4921
2026-01-30 11:05:25.42	321.79	18.15	-40.8	-43.7	11.8	5.00e-04	0	62	0	1677721600	53	4940
2026-01-30 11:05:29.47	322.32	17.75	-40.9	-43.9	11.5	8.10e-04	0	62	0	1690304512	53	5056
2026-01-30 11:05:33.51	322.84	17.36	-40.8	-43.8	11.5	8.07e-04	0	62	0	1702887424	53	5028
2026-01-30 11:05:37.55	323.35	16.97	-40.8	-43.8	11.6	7.99e-04	0	62	0	1715470336	53	5005
2026-01-30 11:05:41.59	323.85	16.58	-40.9	-44.0	11.3	1.11e-03	0	62	0	1728053248	53	5130
2026-01-30 11:05:45.63	324.33	16.20	-41.0	-44.3	11.0	1.93e-03	0	62	0	1740636160	53	5283
2026-01-30 11:05:49.67	324.80	15.82	-41.2	-44.6	10.7	3.12e-03	0	62	0	1753219072	53	5468
2026-01-30 11:05:53.71	325.26	15.45	-41.3	-44.7	10.5	3.60e-03	0	62	0	1765801984	53	5550
2026-01-30 11:05:57.75	325.71	15.08	-41.3	-44.9	10.2	5.83e-03	0	62	0	1778384896	53	5680
2026-01-30 11:06:01.79	326.15	14.71	-41.3	-44.8	10.2	5.78e-03	0	62	0	1790967808	53	5637
2026-01-30 11:06:05.83	326.58	14.35	-41.2	-44.8	10.3	5.53e-03	0	62	0	1803550720	53	5608
2026-01-30 11:06:09.87	327.00	13.99	-41.1	-44.7	10.3	4.97e-03	0	62	0	1816133632	53	5531
2026-01-30 11:06:13.92	327.41	13.64	-41.2	-44.8	10.1	6.26e-03	0	62	0	1828716544	53	5623
2026-01-30 11:06:17.95	327.81	13.29	-41.2	-44.9	10.0	7.76e-03	0	62	0	1841299456	53	5658
2026-01-30 11:06:21.99	328.20	12.94	-41.2	-44.9	10.0	7.52e-03	0	62	0	1853882368	53	5673
2026-01-30 11:06:26.03	328.59	12.60	-41.2	-44.9	9.8	9.33e-03	0	62	0	1866465280	53	5718
2026-01-30 11:06:30.07	328.96	12.26	-41.2	-44.8	9.9	8.91e-03	0	62	0	1879048192	53	5651
2026-01-30 11:06:34.11	329.33	11.92	-41.1	-44.7	10.0	8.26e-03	0	62	0	1891631104	53	5588
2026-01-30 11:06:38.15	329.69	11.59	-41.1	-44.8	9.8	9.15e-03	0	62	0	1904214016	53	5626
2026-01-30 11:06:42.19	330.04	11.26	-40.9	-44.6	10.0	8.50e-03	0	62	0	1917845504	53	5493
2026-01-30 11:06:46.23	330.38	10.94	-40.9	-44.6	9.9	9.12e-03	0	62	0	1930428416	53	5506
2026-01-30 11:06:50.27	330.72	10.62	-40.9	-44.6	9.8	9.94e-03	0	62	0	1943011328	53	5485
2026-01-30 11:06:54.32	331.05	10.30	-41.0	-44.9	9.4	1.46e-02	0	62	0	1955594240	53	5715
2026-01-30 11:06:58.36	331.37	9.99	-41.1	-45.3	9.0	2.52e-02	0	62	0	1968177152	53	5944
2026-01-30 11:07:02.41	331.69	9.67	-41.1	-45.3	8.9	2.83e-02	0	62	0	1980760064	53	5973
2026-01-30 11:07:06.45	332.00	9.37	-41.1	-45.3	8.8	3.18e-02	0	62	0	1993342976	53	5973
2026-01-30 11:07:10.49	332.30	9.06	-41.0	-45.4	8.6	3.48e-02	0	62	0	2005925888	53	6003
2026-01-30 11:07:14.53	332.60	8.76	-41.0	-45.3	8.6	3.83e-02	0	62	0	2018508800	53	5974
2026-01-30 11:07:18.57	332.90	8.46	-40.9	-45.4	8.4	4.85e-02	0	62	0	2031091712	53	6037
2026-01-30 11:07:22.62	333.18	8.16	-40.9	-45.5	8.2	5.66e-02	0	62	0	2043674624	53	6095
2026-01-30 11:07:26.66	333.47	7.87	-44.6	-56.7	3.8	1.49e+00	0	62	104	2049966080	59	15734
2026-01-30 11:07:30.70	333.74	7.58	-45.2	-57.6	3.8	1.49e+00	0	62	104	2049966080	61	15526
2026-01-30 11:07:34.74	334.01	7.29	-45.2	-57.7	3.8	1.49e+00	0	62	104	2049966080	61	15652
2026-01-30 11:07:38.78	334.28	7.01	-45.3	-57.7	3.8	1.49e+00	0	62	104	2049966080	61	15691
2026-01-30 11:07:42.83	334.54	6.72	-45.2	-57.6	3.8	1.49e+00	0	62	104	2049966080	61	15414
2026-01-30 11:07:46.87	334.80	6.45	-45.1	-57.5	3.8	1.49e+00	0	62	104	2049966080	61	15390
2026-01-30 11:07:50.91	335.05	6.17	-45.1	-57.5	3.8	1.49e+00	0	62	104	2049966080	61	15351
2026-01-30 11:07:54.95	335.30	5.89	-45.1	-57.5	3.8	1.49e+00	0	62	104	2049966080	61	15340
2026-01-30 11:07:58.99	335.55	5.62	-45.1	-57.5	3.8	1.49e+00	0	62	104	2049966080	61	15268
2026-01-30 11:08:03.03	335.79	5.35	-45.1	-57.5	3.8	1.49e+00	0	62	104	2049966080	61	15300
2026-01-30 11:08:07.08	336.02	5.08	-45.0	-57.5	3.8	1.49e+00	0	63	104	2049966080	61	15325
2026-01-30 11:08:11.12	336.26	4.82	-45.1	-57.5	3.8	1.49e+00	0	62	104	2049966080	61	15271
2026-01-30 11:08:15.16	336.48	4.56	-45.0	-57.5	3.8	1.49e+00	0	62	104	2049966080	61	15290
2026-01-30 11:08:19.20	336.71	4.30	-45.1	-57.5	3.8	1.49e+00	0	62	104	2049966080	61	15307
2026-01-30 11:08:23.24	336.93	4.04	-45.0	-57.5	3.8	1.49e+00	0	62	104	2049966080	60	16177
2026-01-30 11:08:27.28	337.15	3.78	-45.1	-57.5	3.8	1.49e+00	0	62	104	2049966080	60	16167
2026-01-30 11:08:31.33	337.36	3.53	-45.0	-57.5	3.8	1.49e+00	0	62	104	2049966080	60	16228
2026-01-30 11:08:35.37	337.57	3.28	-45.0	-57.5	3.8	1.49e+00	0	62	104	2049966080	60	16158
2026-01-30 11:08:39.41	337.78	3.03	-45.0	-57.4	3.8	1.49e+00	0	62	104	2049966080	60	16084
2026-01-30 11:08:43.45	337.98	2.78	-45.0	-57.5	3.8	1.49e+00	0	62	104	2049966080	60	16148
2026-01-30 11:08:47.50	338.19	2.53	-45.0	-57.4	3.8	1.49e+00	0	62	104	2049966080	60	16079
2026-01-30 11:08:51.53	338.38	2.29	-45.0	-57.4	3.8	1.49e+00	0	62	104	2049966080	60	16121
2026-01-30 11:08:55.57	338.58	2.05	-45.0	-57.4	3.8	1.49e+00	0	62	104	2049966080	60	16071

#Closed at: 2026-01-30 11:08:56
#Recorded file [2049 MB]: D:/lorett/data/31039_260130_135503.dat