passes_logs/2026/01/30/R2.0S_Moscow/R2.0S_Moscow__20260130_001400_NOAA_20_JPSS-1_rec.log

#Pass ID: 20260130_001400_NOAA 20 (JPSS-1)
#Satellite: NOAA 20 (JPSS-1)
#Configuration: NOAA 20
#almurnet v.1.7.20251203
#Start time: 2026-01-30 00:14:01

#Version: 2.2.20231116
#Station: R2.0S_Moscow
#Location: 37.707566 lon 55.798166 lat
#TLE: 1 43013U 17073A   26028.86313978  .00000144  00000+0  89200-4 0  9993
#TLE: 2 43013  98.7648 329.6571 0000891  20.0014 340.1197 14.19541559424709

#Time	Az	El	Level	Level2	SNR	BER	BlckErr	Temp	State	Recorded	gain1	gain2
2026-01-30 00:14:01.44	13.88	2.04	-42.1	-56.6	3.8	1.49e+00	0	52	0	0	56	18498
2026-01-30 00:14:05.47	13.80	2.29	-42.0	-56.5	3.8	1.49e+00	0	52	104	0	55	19224
2026-01-30 00:14:09.51	13.71	2.55	-42.0	-56.5	3.8	1.49e+00	0	53	104	0	55	19171
2026-01-30 00:14:13.55	13.63	2.81	-42.0	-56.5	3.8	1.49e+00	0	53	104	0	55	19274
2026-01-30 00:14:17.59	13.54	3.08	-42.0	-56.5	3.8	1.49e+00	0	53	104	0	55	19195
2026-01-30 00:14:21.63	13.45	3.34	-42.0	-56.4	3.8	1.49e+00	0	54	104	0	55	18988
2026-01-30 00:14:25.67	13.36	3.61	-41.9	-56.1	3.8	1.49e+00	0	54	104	0	55	18432
2026-01-30 00:14:29.72	13.26	3.88	-41.9	-55.7	3.8	1.49e+00	0	54	104	0	55	17498
2026-01-30 00:14:33.76	13.17	4.15	-41.9	-55.4	3.8	1.49e+00	0	54	104	0	55	17001
2026-01-30 00:14:37.80	13.07	4.43	-41.9	-55.2	3.8	1.49e+00	0	55	104	0	55	16576
2026-01-30 00:14:41.84	12.97	4.71	-41.8	-54.7	3.8	1.49e+00	0	55	104	0	55	15756
2026-01-30 00:14:45.88	12.86	4.99	-41.8	-54.3	3.8	1.49e+00	0	55	104	0	55	15007
2026-01-30 00:14:49.92	12.76	5.28	-41.8	-54.6	3.8	1.49e+00	0	55	104	0	55	15469
2026-01-30 00:14:53.96	12.65	5.56	-41.9	-54.9	3.8	1.49e+00	0	55	104	0	55	16063
2026-01-30 00:14:58.01	12.54	5.85	-41.8	-53.9	4.0	1.48e+00	0	56	104	0	55	14307
2026-01-30 00:15:02.05	12.43	6.15	-41.6	-51.8	4.5	1.11e+00	0	56	0	1048576	55	11250
2026-01-30 00:15:06.09	12.31	6.44	-41.3	-49.6	5.8	4.01e-01	0	56	0	9437184	54	9223
2026-01-30 00:15:10.13	12.20	6.74	-40.8	-47.5	7.6	1.37e-01	0	56	0	16777216	53	7692
2026-01-30 00:15:14.17	12.07	7.05	-40.5	-46.5	8.7	3.68e-02	0	56	0	24117248	53	6803
2026-01-30 00:15:18.21	11.95	7.35	-40.4	-46.1	9.1	2.39e-02	0	56	0	31457280	52	6910
2026-01-30 00:15:22.25	11.82	7.67	-40.5	-46.4	8.7	2.96e-02	0	57	0	38797312	52	7150
2026-01-30 00:15:26.30	11.69	7.98	-40.7	-47.1	8.0	6.24e-02	0	57	0	47185920	52	7800
2026-01-30 00:15:30.34	11.56	8.30	-41.5	-49.6	5.9	5.26e-01	0	57	0	54525952	53	9778
2026-01-30 00:15:34.38	11.42	8.62	-40.9	-48.6	6.4	2.14e-01	0	57	0	61865984	52	9223
2026-01-30 00:15:38.42	11.28	8.95	-40.9	-50.0	5.2	4.77e-01	0	57	0	69206016	52	10830
2026-01-30 00:15:42.45	11.14	9.28	-41.2	-49.9	5.6	3.62e-01	0	57	0	76546048	54	9515
2026-01-30 00:15:46.49	11.00	9.61	-41.3	-50.3	5.2	6.14e-01	0	57	0	82837504	53	10614
2026-01-30 00:15:50.53	10.84	9.95	-41.1	-51.5	4.4	1.42e+00	66	58	0	88080384	53	12138
2026-01-30 00:15:54.57	10.69	10.29	-41.9	-52.1	4.6	1.32e+00	2	58	0	92274688	55	11613
2026-01-30 00:15:58.61	10.53	10.64	-41.9	-51.9	4.6	9.08e-01	0	58	0	99614720	55	11414
2026-01-30 00:16:02.65	10.37	10.99	-40.8	-53.1	3.8	1.05e+00	0	58	104	106954752	53	14581
2026-01-30 00:16:06.69	10.20	11.35	-42.3	-50.8	5.6	5.02e-01	0	58	0	112197632	55	10007
2026-01-30 00:16:10.73	10.03	11.71	-41.8	-48.6	7.4	1.55e-01	0	58	0	119537664	55	7775
2026-01-30 00:16:14.77	9.85	12.08	-40.9	-45.5	10.7	2.56e-01	0	58	0	126877696	52	6427
2026-01-30 00:16:18.80	9.67	12.45	-40.8	-45.3	11.1	1.38e-03	0	58	0	134217728	52	6296
2026-01-30 00:16:22.84	9.48	12.83	-41.0	-45.5	11.1	1.33e-03	0	58	0	142606336	52	6423
2026-01-30 00:16:26.88	9.29	13.21	-41.3	-45.7	11.0	1.88e-03	0	59	0	149946368	53	6260
2026-01-30 00:16:30.92	9.09	13.60	-41.3	-45.6	11.3	8.60e-04	0	58	0	157286400	53	6189
2026-01-30 00:16:34.96	8.89	14.00	-41.4	-45.6	11.5	7.29e-04	0	59	0	164626432	53	6183
2026-01-30 00:16:39.00	8.68	14.40	-41.5	-45.9	11.3	9.05e-04	0	59	0	173015040	53	6371
2026-01-30 00:16:43.04	8.47	14.81	-41.5	-45.7	11.7	5.24e-04	0	59	0	180355072	53	6238
2026-01-30 00:16:47.08	8.25	15.22	-41.5	-45.5	12.1	2.94e-04	0	59	0	187695104	53	6062
2026-01-30 00:16:51.12	8.02	15.64	-41.5	-45.5	12.1	2.55e-04	0	59	0	195035136	53	6067
2026-01-30 00:16:55.16	7.78	16.07	-41.5	-45.4	12.2	2.16e-04	0	59	0	202375168	53	6006
2026-01-30 00:16:59.19	7.54	16.51	-41.5	-45.4	12.3	1.88e-04	0	59	0	210763776	53	6014
2026-01-30 00:17:03.23	7.29	16.95	-41.5	-45.4	12.3	1.75e-04	0	59	0	218103808	53	6005
2026-01-30 00:17:07.27	7.03	17.40	-41.6	-45.5	12.2	1.81e-04	0	59	0	225443840	53	6082
2026-01-30 00:17:11.31	6.76	17.86	-41.5	-45.3	12.3	1.88e-04	0	59	0	232783872	53	5989
2026-01-30 00:17:15.35	6.49	18.32	-41.6	-45.4	12.4	1.59e-04	0	59	0	241172480	53	6034
2026-01-30 00:17:19.39	6.20	18.80	-41.6	-45.4	12.4	1.45e-04	0	59	0	248512512	53	5998
2026-01-30 00:17:23.43	5.91	19.28	-41.5	-45.3	12.5	1.27e-04	0	59	0	255852544	53	5947
2026-01-30 00:17:27.47	5.60	19.77	-41.6	-45.3	12.4	1.43e-04	0	59	0	263192576	53	5978
2026-01-30 00:17:31.51	5.29	20.27	-41.5	-45.2	12.6	1.07e-04	0	60	0	270532608	53	5901
2026-01-30 00:17:35.55	4.96	20.78	-41.5	-45.2	12.7	8.54e-05	0	59	0	278921216	53	5877
2026-01-30 00:17:39.59	4.63	21.30	-41.5	-45.2	12.7	8.85e-05	0	59	0	286261248	53	5868
2026-01-30 00:17:43.63	4.28	21.83	-41.6	-45.3	12.6	8.69e-05	0	60	0	293601280	53	5946
2026-01-30 00:17:47.66	3.92	22.37	-41.6	-45.4	12.5	1.21e-04	0	60	0	300941312	53	6008
2026-01-30 00:17:51.70	3.54	22.91	-41.7	-45.5	12.4	1.75e-04	0	59	0	309329920	54	5786
2026-01-30 00:17:55.75	3.15	23.48	-41.8	-45.7	12.2	2.17e-04	0	60	0	316669952	54	5907
2026-01-30 00:17:59.79	2.74	24.05	-41.9	-45.8	12.1	2.28e-04	0	60	0	324009984	54	5983
2026-01-30 00:18:03.82	2.33	24.63	-42.0	-46.1	11.8	4.14e-04	0	60	0	331350016	54	6159
2026-01-30 00:18:07.87	1.89	25.22	-42.2	-46.5	11.4	9.18e-04	0	60	0	338690048	55	6122
2026-01-30 00:18:11.90	1.43	25.82	-42.5	-47.2	10.7	2.28e-03	0	60	0	347078656	55	6622
2026-01-30 00:18:15.94	0.96	26.44	-42.7	-47.6	10.3	4.51e-03	0	60	0	354418688	55	6929
2026-01-30 00:18:19.98	0.47	27.07	-42.9	-48.0	10.1	6.73e-03	0	60	0	361758720	56	6835
2026-01-30 00:18:24.02	359.96	27.71	-43.1	-48.3	9.8	1.03e-02	0	60	0	369098752	56	7078
2026-01-30 00:18:28.05	359.43	28.36	-43.2	-48.8	9.3	1.54e-02	0	60	0	377487360	57	7064
2026-01-30 00:18:32.09	358.87	29.03	-43.3	-49.0	9.1	2.31e-02	0	60	0	384827392	57	7212
2026-01-30 00:18:36.13	358.29	29.71	-43.3	-48.9	9.2	2.05e-02	0	60	0	392167424	57	7169
2026-01-30 00:18:40.17	357.68	30.40	-43.2	-48.7	9.4	1.78e-02	0	60	0	399507456	57	6983
2026-01-30 00:18:44.21	357.04	31.10	-43.2	-48.4	9.8	1.11e-02	0	60	0	406847488	57	6757
2026-01-30 00:18:48.25	356.38	31.82	-43.1	-48.2	10.0	8.47e-03	0	60	0	415236096	57	6590
2026-01-30 00:18:52.29	355.69	32.55	-43.1	-48.2	10.0	8.20e-03	0	60	0	422576128	57	6576
2026-01-30 00:18:56.33	354.96	33.30	-43.1	-48.2	10.0	6.66e-03	0	60	0	429916160	57	6593
2026-01-30 00:19:00.37	354.19	34.05	-43.1	-48.0	10.2	7.02e-03	0	60	0	437256192	57	6487
2026-01-30 00:19:04.41	353.39	34.83	-43.3	-48.8	9.5	1.49e-02	0	60	0	445644800	57	7049
2026-01-30 00:19:08.45	352.55	35.61	-43.6	-49.6	8.6	3.31e-02	0	60	0	452984832	57	7783
2026-01-30 00:19:12.49	351.67	36.40	-43.5	-49.4	8.8	3.88e-02	0	60	0	460324864	57	7608
2026-01-30 00:19:16.53	350.74	37.21	-43.8	-50.3	7.9	7.17e-02	0	60	0	467664896	58	7922
2026-01-30 00:19:20.56	349.77	38.02	-43.7	-50.0	8.3	5.17e-02	0	61	0	475004928	58	7683
2026-01-30 00:19:24.61	348.74	38.85	-43.8	-50.2	8.0	6.56e-02	0	60	0	483393536	58	7878
2026-01-30 00:19:28.65	347.66	39.69	-43.8	-50.3	7.9	6.42e-02	0	60	0	490733568	58	7948
2026-01-30 00:19:32.69	346.52	40.54	-43.9	-50.5	7.8	9.16e-02	0	60	0	498073600	58	8138
2026-01-30 00:19:36.73	345.32	41.39	-43.8	-50.2	8.1	5.98e-02	0	60	0	505413632	58	7821
2026-01-30 00:19:40.77	344.05	42.24	-43.5	-49.0	9.3	1.82e-02	0	60	0	513802240	58	6835
2026-01-30 00:19:44.81	342.72	43.10	-43.3	-48.6	9.8	1.20e-02	0	61	0	521142272	58	6508
2026-01-30 00:19:48.85	341.30	43.96	-43.3	-48.5	9.8	1.11e-02	0	60	0	528482304	58	6487
2026-01-30 00:19:52.89	339.81	44.82	-43.6	-49.3	9.1	2.13e-02	0	61	0	535822336	58	7065
2026-01-30 00:19:56.93	338.24	45.68	-43.6	-49.5	8.8	3.54e-02	0	61	0	543162368	58	7253
2026-01-30 00:20:00.97	336.58	46.52	-43.4	-48.9	9.4	1.55e-02	0	60	0	551550976	58	6746
2026-01-30 00:20:05.00	334.83	47.36	-43.7	-49.7	8.6	2.70e-02	0	61	0	558891008	58	7391
2026-01-30 00:20:09.04	332.98	48.18	-43.8	-49.9	8.5	4.52e-02	0	61	0	566231040	58	7582
2026-01-30 00:20:13.08	331.02	48.98	-43.5	-49.0	9.4	1.87e-02	0	61	0	573571072	58	6877
2026-01-30 00:20:17.12	328.97	49.76	-43.2	-48.3	10.1	8.61e-03	0	61	0	581959680	58	6298
2026-01-30 00:20:21.16	326.81	50.51	-42.8	-47.2	11.2	1.63e-03	0	61	0	589299712	57	5885
2026-01-30 00:20:25.20	324.54	51.23	-42.2	-46.0	12.4	1.63e-04	0	61	0	596639744	56	5464
2026-01-30 00:20:29.24	322.16	51.90	-42.2	-46.0	12.5	1.12e-04	0	61	0	603979776	56	5419
2026-01-30 00:20:33.28	319.67	52.54	-42.0	-45.7	12.8	6.48e-05	0	61	0	611319808	56	5230
2026-01-30 00:20:37.32	317.08	53.12	-42.0	-45.7	12.7	5.87e-05	0	60	0	619708416	55	5534
2026-01-30 00:20:41.36	314.38	53.64	-42.6	-47.0	11.3	1.02e-03	0	61	0	627048448	55	6452
2026-01-30 00:20:45.40	311.60	54.11	-42.1	-46.0	12.3	2.29e-04	0	61	0	634388480	55	5751
2026-01-30 00:20:49.44	308.72	54.50	-41.8	-45.3	13.0	2.74e-05	0	61	0	641728512	55	5310
2026-01-30 00:20:53.48	305.78	54.83	-41.7	-45.1	13.2	2.13e-05	0	61	0	650117120	55	5177
2026-01-30 00:20:57.52	302.77	55.08	-41.2	-44.2	14.1	2.20e-06	0	61	0	657457152	54	4976
2026-01-30 00:21:01.56	299.72	55.25	-40.7	-43.5	14.9	7.00e-07	0	61	0	664797184	53	4817
2026-01-30 00:21:05.59	296.64	55.34	-40.5	-43.2	15.1	0.00e+00	0	61	0	672137216	53	4688
2026-01-30 00:21:09.63	293.55	55.35	-40.8	-43.6	14.8	1.50e-06	0	61	0	679477248	53	4901
2026-01-30 00:21:13.68	290.45	55.27	-40.9	-43.8	14.6	7.00e-07	0	61	0	687865856	53	5035
2026-01-30 00:21:17.72	287.39	55.11	-41.1	-44.2	14.1	3.80e-06	0	61	0	695205888	53	5253
2026-01-30 00:21:21.74	284.39	54.88	-40.8	-43.7	14.7	7.00e-07	0	61	0	702545920	53	4935
2026-01-30 00:21:25.79	281.42	54.57	-40.0	-42.4	16.1	0.00e+00	0	61	0	709885952	51	4768
2026-01-30 00:21:29.83	278.53	54.18	-40.2	-42.7	15.7	0.00e+00	0	61	0	718274560	51	4949
2026-01-30 00:21:33.87	275.72	53.73	-40.3	-42.9	15.6	0.00e+00	0	60	0	725614592	51	5043
2026-01-30 00:21:37.91	273.01	53.21	-40.9	-43.8	14.5	7.00e-07	0	60	0	732954624	52	5327
2026-01-30 00:21:41.95	270.39	52.64	-41.6	-45.0	13.3	1.83e-05	0	61	0	740294656	53	5759
2026-01-30 00:21:45.99	267.88	52.01	-42.0	-45.7	12.6	1.01e-04	0	61	0	748683264	54	5883
2026-01-30 00:21:50.03	265.48	51.34	-42.1	-45.9	12.4	9.30e-05	0	61	0	756023296	54	6036
2026-01-30 00:21:54.07	263.19	50.63	-42.2	-46.2	12.0	2.94e-04	0	61	0	763363328	55	5886
2026-01-30 00:21:58.11	261.00	49.88	-42.4	-46.7	11.5	6.00e-04	0	61	0	770703360	55	6254
2026-01-30 00:22:02.14	258.93	49.11	-42.8	-47.4	10.9	2.20e-03	0	61	0	778043392	56	6397
2026-01-30 00:22:06.18	256.96	48.31	-43.2	-48.4	9.9	5.48e-03	0	61	0	786432000	56	7182
2026-01-30 00:22:10.22	255.08	47.49	-43.9	-50.6	7.8	6.99e-02	0	61	0	793772032	58	8227
2026-01-30 00:22:14.27	253.30	46.65	-43.9	-50.5	7.7	9.65e-02	0	61	0	801112064	58	8168
2026-01-30 00:22:18.30	251.63	45.80	-43.9	-50.9	7.4	9.20e-02	0	61	0	808452096	58	8464
2026-01-30 00:22:22.35	250.03	44.94	-43.6	-49.5	8.7	4.08e-02	0	61	0	816840704	58	7278
2026-01-30 00:22:26.39	248.52	44.08	-43.5	-49.3	8.9	3.07e-02	0	61	0	824180736	58	7048
2026-01-30 00:22:30.42	247.09	43.22	-43.1	-48.1	10.1	6.93e-03	0	61	0	831520768	58	6185
2026-01-30 00:22:34.46	245.74	42.36	-43.3	-48.8	9.4	1.77e-02	0	61	0	838860800	58	6709
2026-01-30 00:22:38.50	244.46	41.50	-43.4	-49.1	9.1	2.39e-02	0	61	0	846200832	58	6957
2026-01-30 00:22:42.55	243.24	40.64	-43.6	-49.8	8.4	4.77e-02	0	61	0	854589440	58	7513
2026-01-30 00:22:46.59	242.09	39.79	-43.9	-50.7	7.5	1.06e-01	0	61	0	861929472	58	8329
2026-01-30 00:22:50.63	240.99	38.95	-43.6	-49.8	8.4	5.21e-02	0	61	0	869269504	58	7471
2026-01-30 00:22:54.67	239.95	38.11	-43.6	-49.7	8.5	4.32e-02	0	61	0	876609536	58	7436
2026-01-30 00:22:58.71	238.96	37.29	-43.4	-49.1	9.0	2.70e-02	0	61	0	884998144	58	6945
2026-01-30 00:23:02.75	238.03	36.48	-43.2	-48.5	9.7	1.41e-02	0	61	0	892338176	58	6429
2026-01-30 00:23:06.79	237.13	35.68	-43.3	-48.9	9.2	1.77e-02	0	61	0	899678208	58	6760
2026-01-30 00:23:10.83	236.28	34.89	-43.3	-48.9	9.2	2.09e-02	0	61	0	907018240	58	6792
2026-01-30 00:23:14.87	235.47	34.12	-43.4	-49.0	9.1	1.96e-02	0	61	0	914358272	58	6805
2026-01-30 00:23:18.91	234.70	33.35	-43.5	-49.5	8.7	4.39e-02	0	61	0	922746880	58	7228
2026-01-30 00:23:22.95	233.96	32.60	-43.5	-49.6	8.5	4.00e-02	0	61	0	930086912	58	7358
2026-01-30 00:23:26.98	233.26	31.87	-43.3	-48.8	9.3	1.77e-02	0	61	0	937426944	58	6677
2026-01-30 00:23:31.02	232.59	31.14	-43.1	-48.3	9.8	9.02e-03	0	61	0	944766976	58	6337
2026-01-30 00:23:35.07	231.95	30.43	-43.3	-48.9	9.3	1.51e-02	0	61	0	953155584	58	6747
2026-01-30 00:23:39.11	231.33	29.74	-43.2	-48.5	9.7	1.15e-02	0	61	0	960495616	58	6460
2026-01-30 00:23:43.15	230.74	29.05	-43.0	-48.2	9.9	7.94e-03	0	61	0	967835648	57	6594
2026-01-30 00:23:47.19	230.18	28.38	-42.9	-47.9	10.2	5.98e-03	0	61	0	975175680	57	6401
2026-01-30 00:23:51.23	229.64	27.72	-42.9	-47.8	10.4	5.13e-03	0	61	0	982515712	57	6315
2026-01-30 00:23:55.27	229.12	27.08	-42.8	-47.5	10.6	3.24e-03	0	61	0	990904320	57	6129
2026-01-30 00:23:59.31	228.62	26.44	-42.8	-47.7	10.5	4.30e-03	0	61	0	998244352	57	6210
2026-01-30 00:24:03.35	228.14	25.82	-42.8	-47.5	10.6	3.56e-03	0	61	0	1005584384	57	6126
2026-01-30 00:24:07.39	227.68	25.22	-42.8	-47.6	10.5	4.67e-03	0	61	0	1012924416	57	6188
2026-01-30 00:24:11.43	227.24	24.62	-42.9	-47.9	10.2	5.32e-03	0	61	0	1021313024	57	6382
2026-01-30 00:24:15.48	226.81	24.03	-42.8	-47.6	10.4	4.40e-03	0	61	0	1028653056	57	6197
2026-01-30 00:24:19.51	226.40	23.46	-42.6	-47.3	10.8	2.84e-03	0	61	0	1035993088	57	5969
2026-01-30 00:24:23.55	226.01	22.89	-42.6	-47.2	10.9	2.11e-03	0	61	0	1043333120	57	5876
2026-01-30 00:24:27.59	225.63	22.34	-42.7	-47.5	10.5	3.61e-03	0	61	0	1050673152	57	6112
2026-01-30 00:24:31.63	225.26	21.80	-42.7	-47.4	10.6	3.22e-03	0	61	0	1059061760	57	6061
2026-01-30 00:24:35.67	224.91	21.27	-42.6	-47.3	10.7	2.98e-03	0	61	0	1066401792	57	5968
2026-01-30 00:24:39.71	224.56	20.75	-42.5	-47.0	11.0	1.72e-03	0	61	0	1073741824	57	5786
2026-01-30 00:24:43.75	224.23	20.23	-42.7	-47.4	10.6	3.61e-03	0	61	0	1081081856	57	6056
2026-01-30 00:24:47.79	223.91	19.73	-42.8	-47.9	10.1	6.24e-03	0	61	0	1089470464	57	6358
2026-01-30 00:24:51.83	223.61	19.23	-42.7	-47.6	10.4	5.43e-03	0	61	0	1096810496	57	6163
2026-01-30 00:24:55.87	223.31	18.75	-42.5	-47.1	10.9	2.26e-03	0	61	0	1104150528	57	5826
2026-01-30 00:24:59.92	223.02	18.27	-42.3	-46.7	11.3	1.28e-03	0	61	0	1111490560	56	5883
2026-01-30 00:25:03.96	222.74	17.80	-42.4	-47.0	11.0	1.95e-03	0	61	0	1118830592	56	6085
2026-01-30 00:25:08.00	222.46	17.34	-42.6	-47.4	10.5	3.61e-03	0	61	0	1127219200	56	6373
2026-01-30 00:25:12.03	222.20	16.89	-42.7	-47.7	10.2	6.29e-03	0	61	0	1134559232	56	6631
2026-01-30 00:25:16.07	221.95	16.44	-42.7	-47.6	10.2	6.11e-03	0	61	0	1141899264	56	6556
2026-01-30 00:25:20.11	221.70	16.01	-42.7	-47.7	10.1	6.74e-03	0	61	0	1149239296	56	6634
2026-01-30 00:25:24.15	221.46	15.58	-42.7	-47.8	10.0	7.77e-03	0	61	0	1157627904	56	6686
2026-01-30 00:25:28.19	221.23	15.15	-42.7	-47.9	9.9	7.75e-03	0	61	0	1164967936	56	6762
2026-01-30 00:25:32.23	221.00	14.74	-42.8	-48.1	9.7	1.03e-02	0	61	0	1172307968	56	6912
2026-01-30 00:25:36.27	220.78	14.33	-42.8	-48.0	9.8	1.18e-02	0	61	0	1179648000	56	6856
2026-01-30 00:25:40.30	220.57	13.92	-42.8	-48.1	9.6	1.15e-02	0	61	0	1186988032	56	6957
2026-01-30 00:25:44.34	220.36	13.52	-42.7	-48.0	9.8	1.10e-02	0	61	0	1195376640	56	6810
2026-01-30 00:25:48.38	220.16	13.13	-42.7	-47.9	9.8	1.08e-02	0	61	0	1202716672	56	6774
2026-01-30 00:25:52.42	219.96	12.75	-42.7	-48.1	9.6	1.18e-02	0	61	0	1210056704	56	6893
2026-01-30 00:25:56.46	219.77	12.37	-42.7	-48.0	9.7	1.17e-02	0	61	0	1217396736	56	6828
2026-01-30 00:26:00.50	219.58	11.99	-42.7	-48.1	9.5	1.39e-02	0	61	0	1225785344	56	6928
2026-01-30 00:26:04.54	219.40	11.62	-42.7	-48.3	9.4	1.67e-02	0	61	0	1233125376	56	7046
2026-01-30 00:26:08.58	219.23	11.26	-42.7	-48.1	9.4	1.67e-02	0	61	0	1240465408	56	6945
2026-01-30 00:26:12.62	219.05	10.90	-42.7	-48.3	9.2	2.08e-02	0	61	0	1247805440	56	7103
2026-01-30 00:26:16.66	218.89	10.55	-42.7	-48.3	9.2	1.94e-02	0	61	0	1255145472	56	7074
2026-01-30 00:26:20.71	218.72	10.20	-42.7	-48.5	9.0	2.44e-02	0	61	0	1263534080	56	7211
2026-01-30 00:26:24.74	218.56	9.85	-42.7	-48.6	8.9	2.89e-02	0	61	0	1270874112	56	7302
2026-01-30 00:26:28.79	218.41	9.51	-42.7	-48.7	8.8	3.42e-02	0	61	0	1278214144	56	7375
2026-01-30 00:26:32.83	218.26	9.18	-42.8	-49.0	8.4	4.55e-02	0	61	0	1285554176	56	7652
2026-01-30 00:26:36.87	218.11	8.84	-42.8	-49.0	8.4	4.76e-02	0	61	0	1293942784	56	7633
2026-01-30 00:26:40.91	217.96	8.52	-42.8	-49.0	8.3	5.15e-02	0	61	0	1301282816	56	7686
2026-01-30 00:26:44.95	217.82	8.19	-42.8	-49.0	8.2	5.58e-02	0	61	0	1308622848	56	7719
2026-01-30 00:26:48.98	217.69	7.87	-44.7	-59.2	3.8	1.49e+00	0	61	104	1313865728	59	21001
2026-01-30 00:26:53.02	217.55	7.56	-45.0	-59.8	3.8	1.49e+00	0	61	104	1313865728	60	21079
2026-01-30 00:26:57.07	217.42	7.25	-45.0	-59.8	3.8	1.49e+00	0	61	104	1313865728	60	21257
2026-01-30 00:27:01.11	217.29	6.94	-45.0	-59.8	3.8	1.49e+00	0	61	104	1313865728	60	21116
2026-01-30 00:27:05.15	217.17	6.63	-44.9	-59.7	3.8	1.49e+00	0	61	104	1313865728	60	21015
2026-01-30 00:27:09.19	217.04	6.33	-44.9	-59.7	3.8	1.49e+00	0	61	104	1313865728	60	20956
2026-01-30 00:27:13.23	216.92	6.03	-44.9	-59.7	3.8	1.49e+00	0	61	104	1313865728	60	20999
2026-01-30 00:27:17.28	216.81	5.74	-44.9	-59.7	3.8	1.49e+00	0	61	104	1313865728	60	20962
2026-01-30 00:27:21.32	216.69	5.45	-44.9	-59.7	3.8	1.49e+00	0	61	104	1313865728	60	20951
2026-01-30 00:27:25.36	216.58	5.16	-44.9	-59.7	3.8	1.49e+00	0	61	104	1313865728	60	20920
2026-01-30 00:27:29.40	216.47	4.87	-44.9	-59.7	3.8	1.49e+00	0	61	104	1313865728	60	20925
2026-01-30 00:27:33.44	216.36	4.59	-44.9	-59.7	3.8	1.49e+00	0	61	104	1313865728	60	20942
2026-01-30 00:27:37.48	216.25	4.31	-44.9	-59.7	3.8	1.49e+00	0	61	104	1313865728	60	20920
2026-01-30 00:27:41.53	216.15	4.03	-44.8	-59.7	3.8	1.49e+00	0	61	104	1313865728	60	20892
2026-01-30 00:27:45.57	216.05	3.76	-44.9	-59.7	3.8	1.49e+00	0	61	104	1313865728	60	20820
2026-01-30 00:27:49.61	215.95	3.49	-44.8	-59.7	3.8	1.49e+00	0	61	104	1313865728	60	20857
2026-01-30 00:27:53.65	215.85	3.22	-44.9	-59.7	3.8	1.49e+00	0	61	104	1313865728	60	20899
2026-01-30 00:27:57.70	215.76	2.95	-44.8	-59.7	3.8	1.49e+00	0	61	104	1313865728	60	20901
2026-01-30 00:28:01.74	215.66	2.69	-44.9	-59.7	3.8	1.49e+00	0	61	104	1313865728	60	20885
2026-01-30 00:28:05.78	215.57	2.43	-44.8	-59.7	3.8	1.49e+00	0	61	104	1313865728	60	20880
2026-01-30 00:28:09.82	215.48	2.17	-44.8	-59.7	3.8	1.49e+00	0	61	104	1313865728	60	20851

#Closed at: 2026-01-30 00:28:13
#Recorded file [1313 MB]: D:/lorett/data/31039_260130_031401.dat