passes_logs/2026/01/30/R2.0S_Moscow/R2.0S_Moscow__20260130_104127_FENGYUN_3D_rec.log

#Pass ID: 20260130_104127_FENGYUN 3D
#Satellite: FENGYUN 3D
#Configuration: FENGYUN 3D
#almurnet v.1.7.20251203
#Start time: 2026-01-30 10:41:29

#Version: 2.2.20231116
#Station: R2.0S_Moscow
#Location: 37.707566 lon 55.798166 lat
#TLE: 1 43010U 17072A   26029.52179110  .00000394  00000+0  20818-3 0  9997
#TLE: 2 43010  98.9957   1.5649 0002507  83.7772 276.3689 14.19703315425310

#Time	Az	El	Level	Level2	SNR	BER	BlckErr	Temp	State	Recorded	gain1	gain2
2026-01-30 10:41:29.26	122.28	2.12	-13.9	-33.1	3.8	8.38e-01	0	52	0	0	6	21897
2026-01-30 10:41:33.30	122.07	2.36	-14.0	-32.2	3.7	8.23e-01	0	52	104	0	1	26410
2026-01-30 10:41:37.34	121.85	2.60	-15.5	-36.1	3.7	8.20e-01	0	53	104	0	9	26085
2026-01-30 10:41:41.38	121.62	2.85	-11.9	-29.6	3.6	8.34e-01	0	53	104	0	0	20757
2026-01-30 10:41:45.42	121.40	3.10	-17.7	-34.9	4.0	8.36e-01	0	53	104	0	2	33974
2026-01-30 10:41:49.47	121.16	3.35	-20.0	-37.7	3.6	8.41e-01	0	54	0	0	2	46661
2026-01-30 10:41:53.51	120.93	3.60	-15.8	-36.8	3.9	8.25e-01	0	54	104	0	8	29851
2026-01-30 10:41:57.54	120.69	3.85	-17.3	-35.7	3.8	8.23e-01	0	54	104	0	7	27882
2026-01-30 10:42:01.58	120.45	4.10	-18.4	-36.6	3.8	8.25e-01	0	55	104	0	9	27428
2026-01-30 10:42:05.63	120.20	4.36	-15.3	-34.1	4.1	8.30e-01	0	55	104	0	7	23186
2026-01-30 10:42:09.67	119.94	4.62	-19.0	-37.2	4.0	8.23e-01	0	55	104	0	9	29381
2026-01-30 10:42:13.71	119.69	4.88	-19.1	-35.3	4.0	8.28e-01	0	55	104	0	8	25114
2026-01-30 10:42:17.75	119.42	5.14	-17.4	-38.3	4.1	8.22e-01	0	55	104	0	13	26597
2026-01-30 10:42:21.79	119.16	5.41	-18.8	-35.8	3.8	8.23e-01	0	56	104	0	9	25128
2026-01-30 10:42:25.83	118.88	5.67	-18.7	-36.9	4.1	8.30e-01	0	56	104	0	7	31875
2026-01-30 10:42:29.87	118.61	5.94	-20.6	-39.4	3.8	8.28e-01	0	56	104	0	9	37848
2026-01-30 10:42:33.91	118.32	6.21	-20.4	-36.8	3.6	8.25e-01	0	56	104	0	7	31625
2026-01-30 10:42:37.95	118.03	6.48	-18.3	-35.0	3.8	8.16e-01	0	57	104	0	8	24386
2026-01-30 10:42:41.99	117.74	6.76	-19.1	-37.2	3.7	8.26e-01	0	57	104	0	10	27810
2026-01-30 10:42:46.03	117.44	7.04	-21.6	-40.8	4.3	8.30e-01	0	57	104	0	16	29759
2026-01-30 10:42:50.08	117.13	7.32	-19.7	-35.6	3.9	8.32e-01	0	57	104	0	9	24612
2026-01-30 10:42:54.12	116.82	7.60	-22.3	-39.8	4.5	8.35e-01	0	57	104	0	15	28278
2026-01-30 10:42:58.16	116.50	7.88	-21.8	-39.1	4.4	8.31e-01	0	57	104	0	13	29327
2026-01-30 10:43:02.20	116.18	8.17	-13.2	-32.3	4.1	8.30e-01	0	58	104	0	6	19966
2026-01-30 10:43:06.24	115.84	8.46	-20.1	-33.8	4.4	8.27e-01	0	58	104	0	7	22367
2026-01-30 10:43:10.28	115.51	8.75	-19.2	-37.9	4.7	8.26e-01	0	58	104	0	10	30314
2026-01-30 10:43:14.32	115.16	9.04	-16.5	-35.3	4.4	8.34e-01	0	58	104	0	10	22381
2026-01-30 10:43:18.36	114.81	9.34	-23.7	-40.6	4.2	8.35e-01	0	58	104	0	14	32618
2026-01-30 10:43:22.39	114.45	9.64	-21.1	-38.5	4.5	8.21e-01	0	58	104	0	18	20350
2026-01-30 10:43:26.43	114.08	9.94	-19.4	-39.7	4.4	8.26e-01	0	58	104	0	13	31394
2026-01-30 10:43:30.47	113.70	10.24	-19.3	-36.4	3.6	8.28e-01	0	58	104	0	8	28388
2026-01-30 10:43:34.51	113.32	10.55	-22.6	-40.5	4.3	8.29e-01	0	58	104	0	14	32304
2026-01-30 10:43:38.55	112.93	10.86	-27.0	-40.8	5.0	8.28e-01	0	59	104	0	22	21090
2026-01-30 10:43:42.59	112.53	11.17	-25.6	-42.1	4.8	7.57e-01	0	59	0	0	20	27548
2026-01-30 10:43:46.63	112.12	11.48	-21.2	-40.0	6.5	5.36e-01	0	59	0	0	22	19229
2026-01-30 10:43:50.68	111.70	11.80	-37.2	-43.8	9.7	9.58e-02	0	59	0	12582912	46	7536
2026-01-30 10:43:54.72	111.27	12.12	-24.3	-41.4	6.4	5.34e-01	0	59	0	28311552	26	17897
2026-01-30 10:43:58.76	110.83	12.44	-39.0	-43.3	9.8	6.53e-02	0	59	0	50331648	46	7121
2026-01-30 10:44:02.80	110.38	12.77	-38.0	-43.2	10.5	2.32e-02	0	59	0	72351744	48	6217
2026-01-30 10:44:06.84	109.92	13.09	-38.4	-42.5	11.0	5.73e-02	0	59	0	94371840	47	6128
2026-01-30 10:44:10.88	109.45	13.42	-39.2	-42.3	12.0	1.78e-03	0	59	0	117440512	49	5337
2026-01-30 10:44:14.92	108.98	13.75	-33.6	-42.0	10.7	3.00e-02	0	59	0	140509184	40	8567
2026-01-30 10:44:18.96	108.49	14.09	-38.9	-42.1	12.1	1.64e-02	0	59	0	162529280	48	5517
2026-01-30 10:44:23.00	107.98	14.43	-39.3	-41.8	12.7	9.64e-03	0	60	0	185597952	48	5296
2026-01-30 10:44:27.05	107.47	14.77	-37.4	-41.4	12.1	6.53e-03	0	59	0	208666624	43	6745
2026-01-30 10:44:31.09	106.94	15.11	-39.0	-41.4	13.2	5.83e-05	0	59	0	231735296	48	5077
2026-01-30 10:44:35.13	106.40	15.45	-38.7	-41.2	13.3	1.11e-04	0	60	0	253755392	48	4971
2026-01-30 10:44:39.17	105.85	15.80	-38.4	-40.8	13.7	3.54e-05	0	60	0	276824064	47	4993
2026-01-30 10:44:43.21	105.29	16.15	-37.1	-40.7	13.8	2.86e-05	0	60	0	298844160	47	4982
2026-01-30 10:44:47.26	104.71	16.50	-37.7	-40.7	13.9	3.40e-06	0	60	0	321912832	47	4931
2026-01-30 10:44:51.30	104.12	16.85	-38.4	-40.6	14.0	1.60e-05	0	60	0	344981504	47	4875
2026-01-30 10:44:55.34	103.51	17.21	-36.6	-40.5	14.0	4.80e-05	0	60	0	368050176	45	5420
2026-01-30 10:44:59.38	102.89	17.56	-38.4	-40.5	14.1	8.00e-06	0	60	0	390070272	47	4854
2026-01-30 10:45:03.43	102.26	17.92	-38.0	-40.1	14.5	1.83e-05	0	60	0	413138944	46	4925
2026-01-30 10:45:07.47	101.60	18.28	-38.2	-40.2	14.6	1.10e-06	0	60	0	436207616	46	4937
2026-01-30 10:45:11.51	100.94	18.65	-38.0	-40.3	14.4	0.00e+00	0	60	0	458227712	47	4712
2026-01-30 10:45:15.54	100.26	19.01	-38.1	-40.1	14.6	0.00e+00	0	60	0	481296384	46	4883
2026-01-30 10:45:19.59	99.56	19.37	-38.1	-40.1	14.6	0.00e+00	0	60	0	504365056	47	4630
2026-01-30 10:45:23.63	98.84	19.73	-38.0	-40.0	14.8	0.00e+00	0	60	0	526385152	47	4562
2026-01-30 10:45:27.68	98.10	20.10	-37.9	-39.9	14.8	0.00e+00	0	60	0	549453824	47	4527
2026-01-30 10:45:31.71	97.35	20.46	-37.9	-39.8	14.9	0.00e+00	0	60	0	572522496	47	4485
2026-01-30 10:45:35.76	96.58	20.83	-38.0	-39.9	14.8	0.00e+00	0	60	0	594542592	47	4541
2026-01-30 10:45:39.79	95.79	21.19	-37.7	-39.8	15.0	0.00e+00	0	60	0	617611264	47	4455
2026-01-30 10:45:43.84	94.98	21.56	-37.6	-39.5	15.2	0.00e+00	0	60	0	640679936	47	4324
2026-01-30 10:45:47.88	94.16	21.92	-37.6	-39.5	15.3	0.00e+00	0	61	0	663748608	47	4307
2026-01-30 10:45:51.92	93.31	22.28	-37.6	-39.5	15.3	0.00e+00	0	61	0	685768704	47	4301
2026-01-30 10:45:55.96	92.44	22.64	-37.4	-39.2	15.6	0.00e+00	0	60	0	708837376	46	4408
2026-01-30 10:46:00.00	91.56	23.00	-37.6	-39.4	15.4	0.00e+00	0	60	0	730857472	46	4514
2026-01-30 10:46:04.03	90.65	23.35	-37.5	-39.3	15.5	0.00e+00	0	61	0	753926144	46	4458
2026-01-30 10:46:08.08	89.72	23.71	-37.3	-39.0	15.7	0.00e+00	0	60	0	776994816	46	4336
2026-01-30 10:46:12.12	88.77	24.05	-37.5	-39.3	15.5	0.00e+00	0	61	0	800063488	46	4477
2026-01-30 10:46:16.16	87.80	24.40	-37.4	-39.2	15.6	0.00e+00	0	61	0	822083584	46	4411
2026-01-30 10:46:20.21	86.81	24.74	-37.4	-39.1	15.7	0.00e+00	0	61	0	845152256	46	4391
2026-01-30 10:46:24.25	85.79	25.07	-37.3	-39.0	15.9	0.00e+00	0	61	0	868220928	46	4332
2026-01-30 10:46:28.29	84.76	25.40	-37.1	-38.9	16.0	0.00e+00	0	61	0	890241024	46	4244
2026-01-30 10:46:32.33	83.70	25.72	-37.1	-38.8	16.0	0.00e+00	0	61	0	913309696	46	4238
2026-01-30 10:46:36.37	82.62	26.04	-37.1	-38.9	16.0	0.00e+00	0	61	0	936378368	46	4244
2026-01-30 10:46:40.42	81.52	26.34	-37.1	-38.8	16.1	0.00e+00	0	61	0	958398464	46	4198
2026-01-30 10:46:44.46	80.40	26.64	-37.0	-38.8	16.1	0.00e+00	0	61	0	981467136	46	4194
2026-01-30 10:46:48.50	79.25	26.93	-37.0	-38.7	16.2	0.00e+00	0	61	0	1004535808	46	4164
2026-01-30 10:46:52.54	78.09	27.21	-37.0	-38.7	16.2	0.00e+00	0	61	0	1026555904	45	4414
2026-01-30 10:46:56.58	76.91	27.48	-37.0	-38.6	16.3	0.00e+00	0	61	0	1049624576	45	4376
2026-01-30 10:47:00.63	75.70	27.74	-36.8	-38.5	16.5	0.00e+00	0	61	0	1072693248	45	4300
2026-01-30 10:47:04.67	74.48	27.98	-36.6	-38.2	16.7	0.00e+00	0	61	0	1095761920	45	4185
2026-01-30 10:47:08.71	73.24	28.22	-36.7	-38.3	16.7	0.00e+00	0	61	0	1117782016	45	4240
2026-01-30 10:47:12.76	71.98	28.44	-36.8	-38.4	16.6	0.00e+00	0	61	0	1140850688	45	4269
2026-01-30 10:47:16.80	70.70	28.64	-36.6	-38.2	16.9	0.00e+00	0	61	0	1162870784	44	4393
2026-01-30 10:47:20.84	69.41	28.83	-36.4	-38.0	17.0	0.00e+00	0	61	0	1185939456	44	4306
2026-01-30 10:47:24.88	68.11	29.01	-36.6	-38.2	16.8	0.00e+00	0	61	0	1209008128	44	4423
2026-01-30 10:47:28.91	66.79	29.17	-36.5	-38.0	17.0	0.00e+00	0	61	0	1232076800	44	4339
2026-01-30 10:47:32.96	65.46	29.31	-36.4	-37.9	17.2	0.00e+00	0	61	0	1254096896	44	4255
2026-01-30 10:47:37.00	64.11	29.44	-36.5	-38.0	17.1	0.00e+00	0	61	0	1277165568	44	4328
2026-01-30 10:47:41.04	62.76	29.55	-36.4	-38.0	17.1	0.00e+00	0	61	0	1300234240	44	4301
2026-01-30 10:47:45.08	61.40	29.64	-36.3	-37.8	17.2	0.00e+00	0	61	0	1322254336	44	4236
2026-01-30 10:47:49.13	60.03	29.72	-36.2	-37.7	17.4	0.00e+00	0	61	0	1345323008	44	4164
2026-01-30 10:47:53.17	58.65	29.77	-36.2	-37.7	17.3	0.00e+00	0	61	0	1368391680	44	4190
2026-01-30 10:47:57.21	57.28	29.81	-36.2	-37.6	17.5	0.00e+00	0	61	0	1390411776	44	4134
2026-01-30 10:48:01.25	55.90	29.83	-36.3	-37.8	17.3	0.00e+00	0	61	0	1413480448	44	4202
2026-01-30 10:48:05.29	54.52	29.83	-36.3	-37.8	17.3	0.00e+00	0	61	0	1436549120	44	4213
2026-01-30 10:48:09.33	53.14	29.81	-36.2	-37.7	17.4	0.00e+00	0	61	0	1458569216	44	4172
2026-01-30 10:48:13.37	51.76	29.78	-36.3	-37.8	17.3	0.00e+00	0	61	0	1481637888	44	4195
2026-01-30 10:48:17.41	50.39	29.72	-36.4	-38.0	17.1	0.00e+00	0	61	0	1504706560	44	4304
2026-01-30 10:48:21.45	49.02	29.65	-36.1	-37.5	17.5	0.00e+00	0	61	0	1526726656	44	4098
2026-01-30 10:48:25.49	47.66	29.56	-36.3	-37.9	17.3	0.00e+00	0	61	0	1549795328	44	4246
2026-01-30 10:48:29.53	46.31	29.45	-36.5	-38.0	17.1	0.00e+00	0	61	0	1572864000	44	4318
2026-01-30 10:48:33.57	44.96	29.32	-36.4	-37.9	17.2	0.00e+00	0	61	0	1594884096	44	4282
2026-01-30 10:48:37.61	43.63	29.18	-36.7	-38.1	17.1	0.00e+00	0	61	0	1617952768	44	4384
2026-01-30 10:48:41.66	42.31	29.02	-36.7	-38.1	17.2	0.00e+00	0	61	0	1641021440	44	4385
2026-01-30 10:48:45.70	41.01	28.85	-36.6	-38.1	17.2	0.00e+00	0	61	0	1663041536	44	4345
2026-01-30 10:48:49.74	39.72	28.66	-36.4	-37.8	17.5	0.00e+00	0	62	0	1686110208	44	4229
2026-01-30 10:48:53.78	38.45	28.45	-36.5	-38.0	17.3	0.00e+00	0	61	0	1709178880	44	4307
2026-01-30 10:48:57.82	37.19	28.23	-36.5	-37.9	17.4	0.00e+00	0	61	0	1732247552	44	4262
2026-01-30 10:49:01.86	35.95	28.00	-36.7	-38.1	17.2	0.00e+00	0	61	0	1754267648	44	4374
2026-01-30 10:49:05.90	34.73	27.76	-36.5	-37.9	17.3	0.00e+00	0	61	0	1777336320	44	4281
2026-01-30 10:49:09.94	33.53	27.50	-36.6	-38.0	17.2	0.00e+00	0	61	0	1799356416	44	4333
2026-01-30 10:49:13.98	32.35	27.23	-36.5	-38.0	17.3	0.00e+00	0	61	0	1822425088	44	4301
2026-01-30 10:49:18.02	31.19	26.96	-36.6	-38.1	17.2	0.00e+00	0	61	0	1845493760	44	4344
2026-01-30 10:49:22.06	30.05	26.67	-36.8	-38.2	17.0	0.00e+00	0	61	0	1867513856	44	4431
2026-01-30 10:49:26.11	28.93	26.37	-36.9	-38.4	16.8	0.00e+00	0	62	0	1890582528	44	4506
2026-01-30 10:49:30.15	27.83	26.06	-36.9	-38.4	16.9	0.00e+00	0	61	0	1913651200	44	4494
2026-01-30 10:49:34.19	26.76	25.75	-36.9	-38.4	16.8	0.00e+00	0	61	0	1936719872	44	4514
2026-01-30 10:49:38.23	25.70	25.43	-36.7	-38.2	17.0	0.00e+00	0	62	0	1958739968	44	4424
2026-01-30 10:49:42.28	24.67	25.10	-36.7	-38.1	17.0	0.00e+00	0	61	0	1981808640	44	4388
2026-01-30 10:49:46.32	23.66	24.77	-36.9	-38.4	16.8	0.00e+00	0	62	0	2004877312	44	4507
2026-01-30 10:49:50.36	22.67	24.43	-36.8	-38.3	16.9	0.00e+00	0	62	0	2026897408	44	4464
2026-01-30 10:49:54.40	21.70	24.09	-37.0	-38.5	16.6	0.00e+00	0	61	0	2049966080	44	4596
2026-01-30 10:49:58.45	20.75	23.74	-37.1	-38.6	16.5	0.00e+00	0	62	0	2073034752	44	4632
2026-01-30 10:50:02.49	19.82	23.39	-37.2	-38.8	16.3	0.00e+00	0	62	0	2095054848	45	4473
2026-01-30 10:50:06.52	18.92	23.04	-37.4	-39.0	16.2	0.00e+00	0	62	0	2118123520	45	4550
2026-01-30 10:50:10.56	18.04	22.69	-37.3	-38.9	16.2	0.00e+00	0	61	0	2141192192	45	4524
2026-01-30 10:50:14.60	17.17	22.33	-37.3	-38.9	16.2	0.00e+00	0	62	0	2163212288	45	4505
2026-01-30 10:50:18.64	16.33	21.97	-37.3	-38.9	16.2	0.00e+00	0	62	0	2186280960	45	4537
2026-01-30 10:50:22.68	15.50	21.61	-37.3	-38.9	16.2	0.00e+00	0	62	0	2209349632	45	4543
2026-01-30 10:50:26.72	14.70	21.24	-37.3	-39.0	16.1	0.00e+00	0	62	0	2231369728	45	4580
2026-01-30 10:50:30.77	13.91	20.88	-37.6	-39.2	15.9	0.00e+00	0	62	0	2254438400	45	4694
2026-01-30 10:50:34.81	13.14	20.52	-37.5	-39.2	15.9	0.00e+00	0	62	0	2277507072	45	4669
2026-01-30 10:50:38.85	12.40	20.15	-37.4	-39.0	16.1	0.00e+00	0	62	0	2299527168	45	4577
2026-01-30 10:50:42.89	11.66	19.79	-37.5	-39.1	15.9	0.00e+00	0	61	0	2322595840	45	4651
2026-01-30 10:50:46.93	10.95	19.43	-37.6	-39.3	15.7	0.00e+00	0	62	0	2345664512	45	4741
2026-01-30 10:50:50.97	10.25	19.07	-37.8	-39.5	15.5	0.00e+00	0	62	0	2368733184	46	4572
2026-01-30 10:50:55.02	9.57	18.71	-37.8	-39.6	15.4	0.00e+00	0	62	0	2390753280	46	4608
2026-01-30 10:50:59.05	8.91	18.35	-37.9	-39.7	15.3	0.00e+00	0	62	0	2413821952	46	4660
2026-01-30 10:51:03.09	8.26	17.99	-37.9	-39.7	15.3	0.00e+00	0	62	0	2435842048	46	4680
2026-01-30 10:51:07.14	7.63	17.63	-38.0	-39.9	15.1	0.00e+00	0	61	0	2458910720	46	4765
2026-01-30 10:51:11.18	7.01	17.27	-38.2	-40.0	14.9	0.00e+00	0	62	0	2481979392	46	4864
2026-01-30 10:51:15.22	6.41	16.92	-38.2	-40.0	14.8	2.20e-06	0	62	0	2505048064	46	4863
2026-01-30 10:51:19.25	5.82	16.57	-38.3	-40.2	14.6	2.20e-06	0	62	0	2527068160	47	4689
2026-01-30 10:51:23.30	5.25	16.22	-38.2	-40.1	14.6	1.10e-06	0	61	0	2550136832	47	4635
2026-01-30 10:51:27.34	4.68	15.87	-38.4	-40.4	14.2	5.70e-06	0	61	0	2573205504	47	4776
2026-01-30 10:51:31.38	4.14	15.53	-38.5	-40.7	13.7	1.25e-05	0	62	0	2595225600	47	4935
2026-01-30 10:51:35.42	3.60	15.18	-38.4	-40.6	13.7	1.83e-05	0	62	0	2618294272	47	4871
2026-01-30 10:51:39.47	3.08	14.84	-38.4	-40.6	13.3	4.57e-05	0	62	0	2641362944	47	4924
2026-01-30 10:51:43.50	2.57	14.51	-38.4	-40.8	12.9	7.43e-05	0	62	0	2663383040	47	5004
2026-01-30 10:51:47.54	2.07	14.17	-38.2	-40.5	13.0	6.17e-05	0	62	0	2686451712	47	4841
2026-01-30 10:51:51.59	1.58	13.83	-38.3	-40.9	12.0	4.12e-04	0	62	0	2709520384	47	5090
2026-01-30 10:51:55.63	1.11	13.50	-39.6	-43.7	8.6	3.54e-02	0	62	0	2731540480	49	6227
2026-01-30 10:51:59.67	0.64	13.18	-40.4	-46.6	5.5	6.63e-01	0	62	0	2752512000	51	7737
2026-01-30 10:52:03.72	0.18	12.85	-40.0	-51.2	3.8	8.45e-01	0	62	104	2754609152	52	12425
2026-01-30 10:52:07.76	359.74	12.53	-40.6	-51.0	3.8	8.46e-01	0	62	104	2754609152	52	12158
2026-01-30 10:52:11.80	359.31	12.20	-40.0	-51.5	3.8	8.46e-01	0	62	104	2754609152	51	13591
2026-01-30 10:52:15.84	358.88	11.89	-39.9	-51.4	3.8	8.46e-01	0	62	104	2754609152	51	13463
2026-01-30 10:52:19.89	358.46	11.57	-39.9	-51.4	3.8	8.47e-01	0	62	104	2754609152	51	13436
2026-01-30 10:52:23.93	358.06	11.26	-39.9	-51.3	3.8	8.46e-01	0	62	104	2754609152	51	13396
2026-01-30 10:52:27.97	357.66	10.95	-39.9	-51.3	3.8	8.45e-01	0	62	104	2754609152	51	13350
2026-01-30 10:52:32.01	357.27	10.64	-39.8	-51.3	3.8	8.46e-01	0	62	104	2754609152	51	13348
2026-01-30 10:52:36.05	356.89	10.33	-39.8	-51.3	3.8	8.47e-01	0	62	104	2754609152	50	14156
2026-01-30 10:52:40.09	356.52	10.03	-39.8	-51.3	3.8	8.45e-01	0	62	104	2754609152	50	14130
2026-01-30 10:52:44.13	356.15	9.73	-39.8	-51.3	3.8	8.46e-01	0	62	104	2754609152	50	14140
2026-01-30 10:52:48.17	355.80	9.43	-39.9	-51.3	3.8	8.46e-01	0	62	104	2754609152	50	14192
2026-01-30 10:52:52.20	355.45	9.14	-39.9	-51.4	3.8	8.46e-01	0	62	104	2754609152	50	14290
2026-01-30 10:52:56.24	355.11	8.84	-39.9	-51.4	3.8	8.45e-01	0	62	104	2754609152	50	14349
2026-01-30 10:53:00.28	354.77	8.55	-40.1	-51.7	3.8	8.47e-01	0	62	104	2754609152	51	13909
2026-01-30 10:53:04.31	354.44	8.27	-40.1	-51.7	3.8	8.46e-01	0	62	104	2754609152	51	13927
2026-01-30 10:53:08.35	354.12	7.98	-40.1	-51.6	3.8	8.45e-01	0	62	104	2754609152	51	13815
2026-01-30 10:53:12.39	353.81	7.70	-44.8	-56.5	3.8	8.46e-01	0	62	104	2754609152	60	14532
2026-01-30 10:53:16.43	353.50	7.42	-45.3	-57.1	3.8	8.46e-01	0	62	104	2754609152	61	14579
2026-01-30 10:53:20.47	353.20	7.14	-44.9	-56.9	3.8	8.46e-01	0	62	104	2754609152	60	15138
2026-01-30 10:53:24.51	352.90	6.86	-45.2	-56.9	3.8	8.46e-01	0	62	104	2754609152	61	14356
2026-01-30 10:53:28.55	352.61	6.59	-45.1	-56.8	3.8	8.46e-01	0	62	104	2754609152	61	14180
2026-01-30 10:53:32.59	352.33	6.31	-45.0	-56.9	3.8	8.46e-01	0	62	104	2754609152	60	15058
2026-01-30 10:53:36.63	352.05	6.04	-45.1	-56.8	3.8	8.47e-01	0	62	104	2754609152	60	15006
2026-01-30 10:53:40.67	351.77	5.78	-45.1	-56.8	3.8	8.45e-01	0	62	104	2754609152	60	15010
2026-01-30 10:53:44.71	351.50	5.51	-45.1	-56.8	3.8	8.46e-01	0	62	104	2754609152	60	14965
2026-01-30 10:53:48.75	351.24	5.25	-45.1	-56.8	3.8	8.46e-01	0	62	104	2754609152	60	14952
2026-01-30 10:53:52.79	350.98	4.98	-45.1	-56.8	3.8	8.47e-01	0	62	104	2754609152	60	15012
2026-01-30 10:53:56.83	350.73	4.72	-45.1	-56.8	3.8	8.46e-01	0	62	104	2754609152	60	15023
2026-01-30 10:54:00.87	350.48	4.47	-45.1	-56.8	3.8	8.46e-01	0	62	104	2754609152	60	14991
2026-01-30 10:54:04.91	350.24	4.21	-45.1	-56.8	3.8	8.48e-01	0	62	104	2754609152	60	14970
2026-01-30 10:54:08.96	350.00	3.96	-45.1	-56.8	3.8	8.45e-01	0	62	104	2754609152	60	14948
2026-01-30 10:54:13.00	349.76	3.70	-45.1	-56.8	3.8	8.45e-01	0	62	104	2754609152	60	14984
2026-01-30 10:54:17.04	349.53	3.45	-45.0	-56.8	3.8	8.45e-01	0	62	104	2754609152	60	14911
2026-01-30 10:54:21.08	349.30	3.20	-45.1	-56.8	3.8	8.47e-01	0	62	104	2754609152	60	14984
2026-01-30 10:54:25.12	349.08	2.96	-45.1	-56.8	3.8	8.46e-01	0	62	104	2754609152	60	14999
2026-01-30 10:54:29.17	348.86	2.71	-45.1	-56.8	3.8	8.47e-01	0	62	104	2754609152	60	14927
2026-01-30 10:54:33.21	348.65	2.47	-45.1	-56.8	3.8	8.46e-01	0	62	104	2754609152	60	14975
2026-01-30 10:54:37.25	348.43	2.23	-45.1	-56.8	3.8	8.46e-01	0	62	104	2754609152	60	14925
2026-01-30 10:54:41.30	348.23	1.99	-45.1	-56.8	3.8	8.45e-01	0	62	104	2754609152	60	14933

#Closed at: 2026-01-30 10:54:43
#Recorded file [2754 MB]: D:/lorett/data/31039_260130_134129.dat