passes_logs/2026/01/30/R2.0S_Moscow/R2.0S_Moscow__20260130_015440_NOAA_20_JPSS-1_rec.log

#Pass ID: 20260130_015440_NOAA 20 (JPSS-1)
#Satellite: NOAA 20 (JPSS-1)
#Configuration: NOAA 20
#almurnet v.1.7.20251203
#Start time: 2026-01-30 01:54:40

#Version: 2.2.20231116
#Station: R2.0S_Moscow
#Location: 37.707566 lon 55.798166 lat
#TLE: 1 43013U 17073A   26028.86313978  .00000144  00000+0  89200-4 0  9993
#TLE: 2 43013  98.7648 329.6571 0000891  20.0014 340.1197 14.19541559424709

#Time	Az	El	Level	Level2	SNR	BER	BlckErr	Temp	State	Recorded	gain1	gain2
2026-01-30 01:54:40.10	8.75	2.01	-39.7	-54.1	3.8	1.49e+00	0	51	0	0	51	18392
2026-01-30 01:54:43.12	8.50	2.16	-39.7	-54.1	3.8	1.49e+00	0	52	104	0	51	18375
2026-01-30 01:54:46.15	8.24	2.31	-39.7	-54.1	3.8	1.49e+00	0	52	104	0	51	18310
2026-01-30 01:54:49.18	7.98	2.47	-39.7	-54.1	3.8	1.49e+00	0	52	104	0	51	18365
2026-01-30 01:54:52.21	7.72	2.62	-39.7	-54.1	3.8	1.49e+00	0	53	104	0	51	18380
2026-01-30 01:54:55.25	7.46	2.77	-39.6	-54.0	3.8	1.49e+00	0	53	104	0	51	18286
2026-01-30 01:54:58.28	7.19	2.93	-39.6	-54.1	3.8	1.49e+00	0	53	104	0	51	18322
2026-01-30 01:55:01.31	6.92	3.08	-39.6	-54.0	3.8	1.49e+00	0	53	104	0	51	18203
2026-01-30 01:55:04.34	6.64	3.24	-39.6	-54.0	3.8	1.49e+00	0	54	104	0	51	18169
2026-01-30 01:55:07.37	6.37	3.39	-39.6	-54.0	3.8	1.49e+00	0	54	104	0	51	18176
2026-01-30 01:55:10.41	6.09	3.55	-39.6	-54.0	3.8	1.49e+00	0	54	104	0	51	18171
2026-01-30 01:55:13.43	5.80	3.70	-39.6	-54.0	3.8	1.49e+00	0	54	104	0	51	18163
2026-01-30 01:55:16.47	5.52	3.86	-39.6	-54.0	3.8	1.49e+00	0	54	104	0	51	18178
2026-01-30 01:55:19.50	5.23	4.02	-39.6	-54.0	3.8	1.49e+00	0	55	104	0	51	18169
2026-01-30 01:55:22.53	4.93	4.17	-39.6	-54.0	3.8	1.49e+00	0	55	104	0	51	18183
2026-01-30 01:55:25.56	4.64	4.33	-39.6	-54.0	3.8	1.49e+00	0	55	104	0	51	18188
2026-01-30 01:55:28.59	4.34	4.49	-39.6	-54.0	3.8	1.49e+00	0	55	104	0	51	18208
2026-01-30 01:55:31.62	4.04	4.64	-39.6	-54.0	3.8	1.49e+00	0	55	104	0	51	18202
2026-01-30 01:55:34.65	3.73	4.80	-39.6	-54.0	3.8	1.49e+00	0	55	104	0	51	18193
2026-01-30 01:55:37.68	3.42	4.96	-39.6	-54.0	3.8	1.49e+00	0	55	104	0	51	18208
2026-01-30 01:55:40.71	3.11	5.11	-39.6	-54.0	3.8	1.49e+00	0	55	104	0	51	18208
2026-01-30 01:55:43.74	2.79	5.27	-39.6	-54.0	3.8	1.49e+00	0	56	104	0	51	18223
2026-01-30 01:55:46.78	2.47	5.43	-39.6	-54.0	3.8	1.49e+00	0	56	104	0	51	18161
2026-01-30 01:55:49.81	2.15	5.59	-39.6	-54.0	3.8	1.49e+00	0	56	104	0	51	18157
2026-01-30 01:55:52.84	1.82	5.74	-39.6	-54.0	3.8	1.49e+00	0	56	104	0	51	18168
2026-01-30 01:55:55.87	1.49	5.90	-39.6	-54.0	3.8	1.49e+00	0	56	104	0	51	18221
2026-01-30 01:55:58.90	1.15	6.06	-39.6	-54.0	3.8	1.49e+00	0	56	104	0	51	18184
2026-01-30 01:56:01.93	0.82	6.22	-39.6	-54.0	3.8	1.49e+00	0	56	104	0	51	18222
2026-01-30 01:56:04.97	0.47	6.38	-39.6	-54.0	3.8	1.49e+00	0	56	104	0	51	18199
2026-01-30 01:56:08.00	0.13	6.53	-39.6	-54.0	3.8	1.49e+00	0	56	104	0	51	18215
2026-01-30 01:56:11.03	359.78	6.69	-39.6	-54.0	3.8	1.49e+00	0	57	104	0	51	18187
2026-01-30 01:56:14.06	359.42	6.85	-39.6	-54.0	3.8	1.49e+00	0	57	104	0	51	18193
2026-01-30 01:56:17.09	359.06	7.01	-39.6	-54.0	3.8	1.49e+00	0	57	104	0	51	18219
2026-01-30 01:56:20.13	358.70	7.16	-39.6	-54.0	3.8	1.49e+00	0	57	104	0	51	18194
2026-01-30 01:56:23.16	358.34	7.32	-39.6	-54.0	3.8	1.49e+00	0	57	104	0	51	18219
2026-01-30 01:56:26.19	357.97	7.48	-39.6	-54.0	3.8	1.49e+00	0	57	104	0	51	18199
2026-01-30 01:56:29.22	357.59	7.64	-39.6	-54.0	3.8	1.49e+00	0	57	104	0	51	18204
2026-01-30 01:56:32.25	357.21	7.79	-39.6	-54.0	3.8	1.49e+00	0	57	104	0	51	18210
2026-01-30 01:56:35.28	356.83	7.95	-39.6	-54.0	3.8	1.49e+00	0	57	104	0	51	18229
2026-01-30 01:56:38.31	356.44	8.11	-39.8	-54.2	3.8	1.49e+00	0	57	104	0	51	18583
2026-01-30 01:56:41.34	356.05	8.26	-39.9	-54.4	3.8	1.49e+00	0	57	104	0	51	18958
2026-01-30 01:56:44.37	355.66	8.42	-39.9	-54.3	3.8	1.49e+00	0	57	104	0	51	18793
2026-01-30 01:56:47.40	355.26	8.57	-39.9	-54.3	3.8	1.49e+00	0	58	104	0	51	18867
2026-01-30 01:56:50.43	354.85	8.73	-39.9	-54.4	3.8	1.49e+00	0	58	104	0	51	18980
2026-01-30 01:56:53.46	354.45	8.88	-40.1	-54.5	3.8	1.49e+00	0	58	104	0	51	19305
2026-01-30 01:56:56.49	354.03	9.04	-40.2	-54.6	3.8	1.49e+00	0	58	104	0	51	19463
2026-01-30 01:56:59.52	353.62	9.19	-40.1	-54.5	3.8	1.49e+00	0	58	104	0	51	19317
2026-01-30 01:57:02.55	353.19	9.34	-40.1	-54.5	3.8	1.49e+00	0	58	104	0	51	19328
2026-01-30 01:57:05.58	352.77	9.49	-40.3	-54.7	3.8	1.49e+00	0	58	104	0	51	19766
2026-01-30 01:57:08.61	352.34	9.65	-40.5	-54.9	3.8	1.49e+00	0	58	104	0	51	20203
2026-01-30 01:57:11.64	351.90	9.80	-40.4	-54.9	3.8	1.49e+00	0	58	104	0	51	20095
2026-01-30 01:57:14.67	351.46	9.95	-40.4	-54.9	3.8	1.49e+00	0	58	104	0	51	20080
2026-01-30 01:57:17.70	351.02	10.10	-40.5	-54.9	3.8	1.49e+00	0	58	104	0	51	20288
2026-01-30 01:57:20.72	350.57	10.24	-40.7	-55.1	3.8	1.49e+00	0	58	104	0	51	20697
2026-01-30 01:57:23.75	350.11	10.39	-40.7	-55.1	3.8	1.49e+00	0	59	104	0	51	20660
2026-01-30 01:57:26.78	349.65	10.54	-40.7	-55.1	3.8	1.49e+00	0	59	104	0	51	20730
2026-01-30 01:57:29.81	349.19	10.69	-40.5	-54.9	3.8	1.49e+00	0	58	104	0	52	19166
2026-01-30 01:57:32.84	348.72	10.83	-40.9	-55.4	3.8	1.49e+00	0	59	104	0	52	20239
2026-01-30 01:57:35.86	348.25	10.98	-40.9	-55.5	3.8	1.49e+00	0	59	104	0	52	20434
2026-01-30 01:57:38.89	347.77	11.12	-40.9	-55.5	3.8	1.49e+00	0	59	104	0	52	20391
2026-01-30 01:57:41.92	347.29	11.26	-40.9	-55.4	3.8	1.49e+00	0	59	104	0	52	20250
2026-01-30 01:57:44.95	346.80	11.40	-40.8	-55.3	3.8	1.49e+00	0	59	104	0	52	19961
2026-01-30 01:57:47.98	346.31	11.54	-40.7	-55.2	3.8	1.49e+00	0	59	104	0	52	19751
2026-01-30 01:57:51.00	345.82	11.68	-40.8	-55.3	3.8	1.49e+00	0	59	104	0	52	20017
2026-01-30 01:57:54.03	345.31	11.81	-40.8	-55.3	3.8	1.49e+00	0	59	104	0	52	19954
2026-01-30 01:57:57.06	344.81	11.95	-40.6	-55.0	3.8	1.49e+00	0	59	104	0	52	19356
2026-01-30 01:58:00.09	344.30	12.08	-40.5	-54.9	3.8	1.49e+00	0	59	104	0	52	19100
2026-01-30 01:58:03.12	343.78	12.22	-40.6	-55.1	3.8	1.49e+00	0	59	104	0	52	19477
2026-01-30 01:58:06.15	343.26	12.35	-40.6	-55.0	3.8	1.49e+00	0	59	104	0	52	19383
2026-01-30 01:58:09.18	342.73	12.48	-40.3	-54.8	3.8	1.49e+00	0	59	104	0	52	18814
2026-01-30 01:58:12.21	342.20	12.60	-40.3	-54.7	3.8	1.49e+00	0	59	104	0	52	18705
2026-01-30 01:58:15.24	341.67	12.73	-40.3	-54.8	3.8	1.49e+00	0	59	104	0	52	18766
2026-01-30 01:58:18.27	341.13	12.85	-40.3	-54.7	3.8	1.49e+00	0	59	104	0	52	18641
2026-01-30 01:58:21.30	340.58	12.98	-40.3	-54.7	3.8	1.49e+00	0	59	104	0	52	18676
2026-01-30 01:58:24.33	340.04	13.10	-40.5	-54.7	3.8	1.49e+00	0	59	104	0	52	18722
2026-01-30 01:58:27.35	339.48	13.21	-40.2	-54.3	3.8	1.49e+00	0	59	104	0	52	17734
2026-01-30 01:58:30.38	338.93	13.33	-40.3	-53.1	3.8	1.49e+00	0	59	104	0	52	15497
2026-01-30 01:58:33.41	338.37	13.44	-42.0	-48.7	7.6	6.16e-01	0	60	0	3145728	55	7816
2026-01-30 01:58:36.44	337.80	13.55	-41.9	-47.8	8.8	3.62e-02	0	60	0	9437184	55	7059
2026-01-30 01:58:39.47	337.23	13.66	-42.0	-47.6	9.2	1.78e-02	0	60	0	14680064	55	6959
2026-01-30 01:58:42.50	336.65	13.77	-42.1	-47.3	9.8	8.52e-03	0	60	0	20971520	55	6674
2026-01-30 01:58:45.53	336.07	13.87	-42.1	-47.1	10.2	7.62e-03	0	60	0	26214400	55	6516
2026-01-30 01:58:48.56	335.49	13.98	-42.0	-46.8	10.5	3.86e-03	0	60	0	31457280	55	6338
2026-01-30 01:58:51.59	334.90	14.08	-42.0	-46.6	10.9	2.38e-03	0	60	0	37748736	55	6144
2026-01-30 01:58:54.62	334.31	14.17	-41.8	-46.2	11.2	1.30e-03	0	60	0	42991616	55	5922
2026-01-30 01:58:57.65	333.72	14.27	-41.8	-46.1	11.3	1.12e-03	0	60	0	49283072	55	5830
2026-01-30 01:59:00.68	333.12	14.36	-41.7	-45.9	11.6	6.52e-04	0	60	0	54525952	55	5675
2026-01-30 01:59:03.72	332.51	14.45	-41.7	-45.9	11.5	7.09e-04	0	60	0	60817408	55	5721
2026-01-30 01:59:06.75	331.91	14.53	-41.7	-45.8	11.7	6.35e-04	0	60	0	66060288	55	5628
2026-01-30 01:59:09.77	331.30	14.61	-41.6	-45.8	11.7	4.52e-04	0	60	0	71303168	55	5614
2026-01-30 01:59:12.80	330.69	14.69	-41.8	-46.0	11.5	7.44e-04	0	60	0	77594624	55	5775
2026-01-30 01:59:15.83	330.07	14.77	-41.8	-46.1	11.4	1.00e-03	0	60	0	82837504	55	5846
2026-01-30 01:59:18.86	329.45	14.84	-41.7	-46.0	11.6	6.23e-04	0	60	0	89128960	55	5728
2026-01-30 01:59:21.89	328.83	14.91	-41.9	-46.3	11.2	1.12e-03	0	60	0	94371840	55	5970
2026-01-30 01:59:24.92	328.20	14.98	-42.0	-46.4	11.1	1.60e-03	0	60	0	99614720	55	6057
2026-01-30 01:59:27.95	327.57	15.05	-42.0	-46.4	11.1	1.49e-03	0	60	0	105906176	55	6032
2026-01-30 01:59:30.98	326.94	15.11	-41.9	-46.4	11.2	1.58e-03	0	60	0	111149056	55	6008
2026-01-30 01:59:34.01	326.31	15.16	-42.1	-46.8	10.8	2.62e-03	0	60	0	117440512	55	6320
2026-01-30 01:59:37.04	325.67	15.22	-42.2	-46.8	10.7	2.78e-03	0	60	0	122683392	55	6335
2026-01-30 01:59:40.06	325.03	15.27	-42.2	-46.8	10.7	3.17e-03	0	60	0	128974848	55	6345
2026-01-30 01:59:43.09	324.39	15.31	-42.1	-46.7	10.8	2.31e-03	0	60	0	134217728	55	6265
2026-01-30 01:59:46.12	323.75	15.36	-42.0	-46.5	11.1	1.75e-03	0	60	0	139460608	55	6101
2026-01-30 01:59:49.15	323.11	15.40	-42.0	-46.4	11.2	1.34e-03	0	60	0	145752064	55	6020
2026-01-30 01:59:52.18	322.46	15.43	-41.9	-46.3	11.3	1.18e-03	0	60	0	150994944	55	5972
2026-01-30 01:59:55.21	321.81	15.47	-42.0	-46.5	11.1	1.59e-03	0	60	0	157286400	55	6094
2026-01-30 01:59:58.24	321.16	15.49	-42.0	-46.5	11.0	1.58e-03	0	60	0	162529280	55	6131
2026-01-30 02:00:01.27	320.51	15.52	-42.0	-46.6	11.0	1.84e-03	0	60	0	167772160	55	6142
2026-01-30 02:00:04.30	319.86	15.54	-42.1	-46.7	10.8	2.26e-03	0	60	0	174063616	55	6269
2026-01-30 02:00:07.33	319.21	15.56	-42.2	-46.8	10.7	2.67e-03	0	60	0	179306496	55	6344
2026-01-30 02:00:10.36	318.56	15.57	-42.1	-46.6	11.0	2.14e-03	0	60	0	185597952	55	6179
2026-01-30 02:00:13.39	317.90	15.58	-42.1	-46.6	11.0	1.70e-03	0	60	0	190840832	55	6140
2026-01-30 02:00:16.42	317.25	15.59	-42.1	-46.5	11.1	1.61e-03	0	60	0	197132288	55	6130
2026-01-30 02:00:19.45	316.59	15.59	-42.0	-46.5	11.1	1.48e-03	0	60	0	202375168	55	6094
2026-01-30 02:00:22.48	315.94	15.59	-42.1	-46.6	11.0	1.81e-03	0	60	0	207618048	55	6147
2026-01-30 02:00:25.51	315.29	15.59	-42.0	-46.5	11.1	1.62e-03	0	60	0	213909504	55	6093
2026-01-30 02:00:28.54	314.63	15.58	-42.2	-46.8	10.8	2.53e-03	0	60	0	219152384	55	6324
2026-01-30 02:00:31.57	313.98	15.57	-42.2	-46.8	10.8	2.79e-03	0	60	0	225443840	55	6322
2026-01-30 02:00:34.60	313.33	15.55	-42.1	-46.7	10.9	2.26e-03	0	60	0	230686720	55	6225
2026-01-30 02:00:37.63	312.67	15.53	-42.1	-46.7	10.9	2.04e-03	0	60	0	235929600	55	6217
2026-01-30 02:00:40.66	312.02	15.51	-42.1	-46.7	10.9	2.40e-03	0	60	0	242221056	55	6216
2026-01-30 02:00:43.69	311.37	15.48	-42.1	-46.8	10.8	2.61e-03	0	60	0	247463936	55	6297
2026-01-30 02:00:46.72	310.72	15.45	-42.2	-46.8	10.8	2.78e-03	0	60	0	253755392	55	6301
2026-01-30 02:00:49.75	310.08	15.41	-42.2	-46.9	10.7	2.71e-03	0	60	0	258998272	55	6355
2026-01-30 02:00:52.78	309.43	15.38	-42.1	-46.6	11.0	1.94e-03	0	61	0	265289728	55	6177
2026-01-30 02:00:55.81	308.79	15.34	-42.2	-46.8	10.8	2.52e-03	0	61	0	270532608	55	6326
2026-01-30 02:00:58.84	308.14	15.29	-42.2	-46.9	10.7	3.09e-03	0	61	0	275775488	55	6420
2026-01-30 02:01:01.87	307.50	15.24	-42.2	-46.8	10.7	2.75e-03	0	60	0	282066944	55	6330
2026-01-30 02:01:04.91	306.86	15.19	-42.0	-46.5	11.1	1.67e-03	0	61	0	287309824	55	6068
2026-01-30 02:01:07.94	306.23	15.13	-41.9	-46.3	11.3	1.30e-03	0	60	0	293601280	55	5926
2026-01-30 02:01:10.96	305.60	15.07	-41.9	-46.3	11.3	1.46e-03	0	61	0	298844160	55	5976
2026-01-30 02:01:13.99	304.96	15.01	-42.0	-46.4	11.1	1.63e-03	0	61	0	304087040	55	6052
2026-01-30 02:01:17.03	304.33	14.95	-41.9	-46.2	11.3	1.26e-03	0	61	0	310378496	55	5922
2026-01-30 02:01:20.06	303.71	14.88	-41.9	-46.4	11.2	1.36e-03	0	61	0	315621376	55	6009
2026-01-30 02:01:23.09	303.09	14.81	-41.9	-46.4	11.2	1.47e-03	0	60	0	321912832	55	6007
2026-01-30 02:01:26.12	302.47	14.73	-41.9	-46.2	11.3	1.29e-03	0	61	0	327155712	55	5880
2026-01-30 02:01:29.15	301.85	14.65	-41.9	-46.3	11.2	1.36e-03	0	61	0	333447168	55	5983
2026-01-30 02:01:32.18	301.24	14.57	-42.0	-46.6	10.9	2.08e-03	0	60	0	338690048	55	6172
2026-01-30 02:01:35.20	300.63	14.49	-42.1	-46.7	10.8	2.51e-03	0	61	0	343932928	55	6240
2026-01-30 02:01:38.23	300.03	14.40	-42.0	-46.6	10.8	2.44e-03	0	61	0	350224384	55	6171
2026-01-30 02:01:41.26	299.42	14.31	-41.9	-46.5	10.9	2.30e-03	0	61	0	355467264	55	6126
2026-01-30 02:01:44.29	298.82	14.22	-42.0	-46.7	10.5	3.58e-03	0	61	0	361758720	55	6259
2026-01-30 02:01:47.32	298.23	14.12	-42.0	-46.9	10.3	4.89e-03	0	61	0	367001600	55	6358
2026-01-30 02:01:50.36	297.64	14.02	-42.1	-47.1	10.0	7.87e-03	0	61	0	373293056	55	6544
2026-01-30 02:01:53.38	297.05	13.92	-42.0	-46.9	10.3	5.19e-03	0	60	0	378535936	55	6407
2026-01-30 02:01:56.41	296.47	13.82	-41.8	-46.3	11.0	2.03e-03	0	61	0	383778816	55	5986
2026-01-30 02:01:59.44	295.89	13.71	-41.8	-46.2	11.1	1.45e-03	0	60	0	390070272	55	5898
2026-01-30 02:02:02.47	295.31	13.60	-41.9	-46.7	10.6	2.95e-03	0	61	0	395313152	55	6214
2026-01-30 02:02:05.50	294.74	13.49	-42.0	-46.9	10.3	5.59e-03	0	61	0	401604608	55	6395
2026-01-30 02:02:08.53	294.18	13.38	-41.6	-46.3	10.7	3.10e-03	0	61	0	406847488	55	5956
2026-01-30 02:02:11.55	293.62	13.27	-41.1	-45.7	11.0	2.07e-03	0	61	0	412090368	54	5860
2026-01-30 02:02:14.58	293.06	13.15	-41.0	-45.8	10.6	2.35e-03	0	61	0	418381824	54	5943
2026-01-30 02:02:17.61	292.51	13.03	-41.1	-46.1	10.2	5.21e-03	0	61	0	423624704	54	6150
2026-01-30 02:02:20.64	291.96	12.91	-41.1	-46.3	10.0	7.97e-03	0	60	0	429916160	54	6282
2026-01-30 02:02:23.67	291.42	12.78	-41.0	-46.1	10.1	8.38e-03	0	61	0	435159040	54	6136
2026-01-30 02:02:26.70	290.88	12.66	-41.0	-45.7	10.7	2.82e-03	0	61	0	441450496	54	5910
2026-01-30 02:02:29.73	290.34	12.53	-41.1	-45.7	10.8	2.75e-03	0	61	0	446693376	54	5895
2026-01-30 02:02:32.76	289.81	12.40	-41.1	-46.0	10.4	4.10e-03	0	61	0	451936256	54	6064
2026-01-30 02:02:35.79	289.29	12.27	-41.2	-46.6	9.5	1.26e-02	0	60	0	458227712	54	6556
2026-01-30 02:02:38.82	288.77	12.14	-41.4	-47.4	8.5	3.78e-02	0	61	0	463470592	54	7204
2026-01-30 02:02:41.85	288.25	12.01	-41.5	-48.3	7.5	9.55e-02	0	61	0	469762048	54	7907
2026-01-30 02:02:44.88	287.74	11.87	-41.4	-49.5	6.0	2.92e-01	0	61	0	475004928	54	9143
2026-01-30 02:02:47.91	287.23	11.74	-41.3	-51.5	4.6	7.21e-01	1	61	0	480247808	54	11515
2026-01-30 02:02:50.94	286.73	11.60	-40.1	-54.3	3.8	1.47e+00	0	61	104	481296384	52	17825
2026-01-30 02:02:53.96	286.24	11.46	-41.8	-52.3	4.4	1.13e+00	62	60	0	484442112	54	12620
2026-01-30 02:02:57.00	285.74	11.32	-41.8	-52.6	4.3	1.31e+00	80	61	0	489684992	54	13032
2026-01-30 02:03:00.03	285.26	11.18	-41.2	-55.7	3.8	1.49e+00	0	61	104	490733568	53	19683
2026-01-30 02:03:03.06	284.77	11.03	-42.2	-53.9	4.0	1.49e+00	0	61	104	490733568	54	15158
2026-01-30 02:03:06.09	284.30	10.89	-42.2	-53.0	4.3	1.36e+00	0	61	0	490733568	55	12933
2026-01-30 02:03:09.12	283.82	10.74	-43.6	-55.9	3.8	1.17e+00	0	61	104	494927872	57	15966
2026-01-30 02:03:12.15	283.36	10.60	-42.5	-53.2	4.4	1.39e+00	68	61	0	495976448	55	13131
2026-01-30 02:03:15.18	282.89	10.45	-42.0	-49.9	6.2	3.07e-01	0	61	0	501219328	55	9014
2026-01-30 02:03:18.21	282.43	10.30	-41.9	-49.2	6.8	1.87e-01	0	61	0	506462208	55	8357
2026-01-30 02:03:21.24	281.98	10.15	-41.6	-49.0	6.8	1.64e-01	0	61	0	512753664	55	8102
2026-01-30 02:03:24.27	281.53	10.00	-41.1	-51.4	4.4	1.06e+00	46	61	0	515899392	54	11406
2026-01-30 02:03:27.30	281.08	9.85	-41.8	-49.3	6.7	1.80e-01	0	61	0	522190848	54	8869
2026-01-30 02:03:30.33	280.64	9.70	-41.8	-49.6	6.3	2.90e-01	0	61	0	527433728	54	9204
2026-01-30 02:03:33.37	280.21	9.55	-41.8	-53.3	3.9	1.49e+00	0	61	104	531628032	55	13375
2026-01-30 02:03:36.40	279.78	9.40	-42.0	-50.7	5.6	4.71e-01	0	61	0	533725184	54	10471
2026-01-30 02:03:39.43	279.35	9.25	-42.0	-51.5	5.0	6.76e-01	0	61	0	538968064	54	11424
2026-01-30 02:03:42.46	278.93	9.09	-42.5	-52.3	4.9	8.66e-01	0	61	0	544210944	57	10541
2026-01-30 02:03:45.49	278.51	8.94	-41.4	-53.4	4.0	1.31e+00	0	61	0	545259520	54	14297
2026-01-30 02:03:48.52	278.10	8.78	-41.9	-53.3	4.1	1.39e+00	0	61	0	545259520	54	14157
2026-01-30 02:03:51.55	277.69	8.63	-41.6	-54.2	3.8	1.48e+00	0	61	104	545259520	54	15669
2026-01-30 02:03:54.58	277.28	8.47	-40.1	-54.5	3.8	1.49e+00	0	61	104	545259520	52	18293
2026-01-30 02:03:57.61	276.88	8.32	-39.7	-54.2	3.8	1.49e+00	0	61	104	545259520	51	18519
2026-01-30 02:04:00.64	276.49	8.16	-39.7	-54.1	3.8	1.49e+00	0	61	104	545259520	51	18320
2026-01-30 02:04:03.67	276.10	8.00	-42.5	-56.7	3.8	1.49e+00	0	61	104	545259520	55	19765
2026-01-30 02:04:06.70	275.71	7.85	-44.8	-59.6	3.8	1.49e+00	0	61	104	545259520	60	20599
2026-01-30 02:04:09.73	275.33	7.69	-45.0	-59.8	3.8	1.49e+00	0	61	104	545259520	60	21036
2026-01-30 02:04:12.76	274.95	7.53	-45.0	-59.8	3.8	1.49e+00	0	61	104	545259520	60	21221
2026-01-30 02:04:15.79	274.57	7.38	-45.0	-59.8	3.8	1.49e+00	0	61	104	545259520	60	21114
2026-01-30 02:04:18.82	274.20	7.22	-44.9	-59.7	3.8	1.49e+00	0	61	104	545259520	60	21004
2026-01-30 02:04:21.85	273.84	7.06	-44.8	-59.7	3.8	1.49e+00	0	61	104	545259520	60	20812
2026-01-30 02:04:24.89	273.47	6.90	-44.8	-59.7	3.8	1.49e+00	0	61	104	545259520	60	20844
2026-01-30 02:04:27.92	273.11	6.74	-44.8	-59.7	3.8	1.49e+00	0	61	104	545259520	60	20835
2026-01-30 02:04:30.95	272.76	6.59	-44.8	-59.7	3.8	1.49e+00	0	61	104	545259520	60	20827
2026-01-30 02:04:33.98	272.41	6.43	-44.8	-59.7	3.8	1.49e+00	0	61	104	545259520	60	20837
2026-01-30 02:04:37.01	272.06	6.27	-44.8	-59.7	3.8	1.49e+00	0	61	104	545259520	60	20815
2026-01-30 02:04:40.04	271.72	6.11	-44.8	-59.7	3.8	1.49e+00	0	61	104	545259520	60	20856
2026-01-30 02:04:43.07	271.38	5.95	-44.8	-59.7	3.8	1.49e+00	0	61	104	545259520	60	20821
2026-01-30 02:04:46.10	271.05	5.80	-44.8	-59.6	3.8	1.49e+00	0	61	104	545259520	60	20769
2026-01-30 02:04:49.13	270.71	5.64	-44.8	-59.7	3.8	1.49e+00	0	61	104	545259520	60	20793
2026-01-30 02:04:52.16	270.39	5.48	-44.8	-59.6	3.8	1.49e+00	0	61	104	545259520	60	20739
2026-01-30 02:04:55.20	270.06	5.32	-44.8	-59.6	3.8	1.49e+00	0	61	104	545259520	60	20760
2026-01-30 02:04:58.23	269.74	5.16	-44.8	-59.6	3.8	1.49e+00	0	61	104	545259520	60	20683
2026-01-30 02:05:01.26	269.42	5.01	-44.8	-59.6	3.8	1.49e+00	0	61	104	545259520	60	20696
2026-01-30 02:05:04.29	269.11	4.85	-44.8	-59.6	3.8	1.49e+00	0	61	104	545259520	60	20681
2026-01-30 02:05:07.32	268.80	4.69	-44.8	-59.6	3.8	1.49e+00	0	61	104	545259520	60	20668
2026-01-30 02:05:10.35	268.49	4.53	-44.7	-59.6	3.8	1.49e+00	0	61	104	545259520	60	20624
2026-01-30 02:05:13.38	268.19	4.38	-44.7	-59.6	3.8	1.49e+00	0	61	104	545259520	60	20630
2026-01-30 02:05:16.41	267.89	4.22	-44.7	-59.6	3.8	1.49e+00	0	61	104	545259520	60	20629
2026-01-30 02:05:19.45	267.59	4.06	-44.7	-59.6	3.8	1.49e+00	0	61	104	545259520	60	20568
2026-01-30 02:05:22.48	267.29	3.91	-44.7	-59.6	3.8	1.49e+00	0	61	104	545259520	60	20606
2026-01-30 02:05:25.51	267.00	3.75	-44.7	-59.6	3.8	1.49e+00	0	61	104	545259520	60	20567
2026-01-30 02:05:28.54	266.72	3.59	-44.7	-59.6	3.8	1.49e+00	0	61	104	545259520	60	20562
2026-01-30 02:05:31.57	266.43	3.44	-44.7	-59.6	3.8	1.49e+00	0	61	104	545259520	60	20642
2026-01-30 02:05:34.59	266.15	3.28	-44.7	-59.6	3.8	1.49e+00	0	61	104	545259520	60	20567
2026-01-30 02:05:37.62	265.87	3.13	-44.7	-59.6	3.8	1.49e+00	0	61	104	545259520	60	20583
2026-01-30 02:05:40.65	265.60	2.97	-44.7	-59.6	3.8	1.49e+00	0	61	104	545259520	60	20609
2026-01-30 02:05:43.69	265.32	2.82	-44.7	-59.6	3.8	1.49e+00	0	61	104	545259520	60	20562
2026-01-30 02:05:46.72	265.05	2.66	-44.7	-59.6	3.8	1.49e+00	0	61	104	545259520	60	20560
2026-01-30 02:05:49.75	264.79	2.51	-44.7	-59.6	3.8	1.49e+00	0	61	104	545259520	60	20594
2026-01-30 02:05:52.78	264.52	2.36	-44.7	-59.6	3.8	1.49e+00	0	61	104	545259520	60	20564
2026-01-30 02:05:55.81	264.26	2.20	-44.7	-59.6	3.8	1.49e+00	0	61	104	545259520	60	20559
2026-01-30 02:05:58.84	264.00	2.05	-44.7	-59.6	3.8	1.49e+00	0	61	104	545259520	60	20622

#Closed at: 2026-01-30 02:06:00
#Recorded file [545 MB]: D:/lorett/data/31039_260130_045439.dat