passes_logs/2026/01/30/R2.0S_Moscow/R2.0S_Moscow__20260130_094405_SUOMI_NPP_rec.log

#Pass ID: 20260130_094405_SUOMI NPP
#Satellite: SUOMI NPP
#Configuration: NPP
#almurnet v.1.7.20251203
#Start time: 2026-01-30 09:44:05

#Version: 2.2.20231116
#Station: R2.0S_Moscow
#Location: 37.707566 lon 55.798166 lat
#TLE: 1 37849U 11061A   26029.48304708  .00000140  00000+0  87283-4 0  9999
#TLE: 2 37849  98.7824 331.4079 0002024  38.4342 321.6978 14.19531488738761

#Time	Az	El	Level	Level2	SNR	BER	BlckErr	Temp	State	Recorded	gain1	gain2
2026-01-30 09:44:05.67	152.86	2.03	-43.8	-58.4	3.8	1.49e+00	0	52	0	0	59	18965
2026-01-30 09:44:09.70	152.83	2.29	-43.8	-58.3	3.8	1.49e+00	0	53	104	0	59	18894
2026-01-30 09:44:13.75	152.79	2.55	-43.8	-58.3	3.8	1.49e+00	0	53	104	0	59	18866
2026-01-30 09:44:17.79	152.75	2.82	-43.8	-58.3	3.8	1.49e+00	0	53	104	0	59	18825
2026-01-30 09:44:21.83	152.71	3.08	-43.8	-58.3	3.8	1.49e+00	0	54	104	0	59	18816
2026-01-30 09:44:25.88	152.66	3.36	-43.8	-58.3	3.8	1.49e+00	0	54	104	0	58	19969
2026-01-30 09:44:29.92	152.62	3.63	-43.8	-58.3	3.8	1.49e+00	0	54	104	0	58	19983
2026-01-30 09:44:33.96	152.58	3.91	-43.7	-58.3	3.8	1.49e+00	0	54	104	0	58	19871
2026-01-30 09:44:38.00	152.53	4.18	-43.7	-58.3	3.8	1.49e+00	0	54	104	0	58	19874
2026-01-30 09:44:42.05	152.49	4.47	-43.7	-58.2	3.8	1.49e+00	0	54	104	0	58	19834
2026-01-30 09:44:46.09	152.44	4.75	-43.7	-58.3	3.8	1.49e+00	0	55	104	0	58	19865
2026-01-30 09:44:50.13	152.39	5.04	-43.7	-58.2	3.8	1.49e+00	0	55	104	0	58	19671
2026-01-30 09:44:54.17	152.34	5.33	-43.7	-57.5	3.8	1.49e+00	0	55	104	0	58	18172
2026-01-30 09:44:58.22	152.29	5.63	-43.6	-56.1	3.9	1.49e+00	0	56	104	0	58	15441
2026-01-30 09:45:02.26	152.24	5.93	-43.6	-55.9	3.8	1.49e+00	0	56	104	0	58	15205
2026-01-30 09:45:06.30	152.19	6.23	-43.4	-53.8	4.5	1.06e+00	0	56	0	3145728	58	11889
2026-01-30 09:45:10.33	152.13	6.53	-43.3	-52.4	5.1	6.56e-01	0	56	0	10485760	58	10148
2026-01-30 09:45:14.37	152.08	6.84	-43.0	-50.8	6.2	3.09e-01	0	56	0	17825792	58	8440
2026-01-30 09:45:18.41	152.02	7.15	-42.8	-50.0	7.0	1.65e-01	0	56	0	25165824	57	8092
2026-01-30 09:45:22.46	151.96	7.47	-42.4	-48.5	8.4	5.24e-02	0	57	0	33554432	56	7283
2026-01-30 09:45:26.50	151.90	7.79	-42.2	-47.7	9.2	1.92e-02	0	57	0	40894464	56	6603
2026-01-30 09:45:30.54	151.84	8.11	-43.2	-50.4	7.2	1.13e-02	0	57	0	48234496	56	9067
2026-01-30 09:45:34.58	151.78	8.44	-42.1	-47.5	9.4	2.69e-01	0	57	0	55574528	56	6449
2026-01-30 09:45:38.62	151.71	8.77	-41.8	-47.1	9.6	1.15e-02	0	58	0	62914560	55	6530
2026-01-30 09:45:42.66	151.65	9.11	-41.8	-46.7	10.3	6.53e-03	0	57	0	70254592	55	6210
2026-01-30 09:45:46.70	151.58	9.45	-41.7	-46.4	10.7	2.95e-03	0	58	0	77594624	55	6000
2026-01-30 09:45:50.74	151.51	9.80	-41.7	-46.2	10.9	2.43e-03	0	58	0	84934656	55	5915
2026-01-30 09:45:54.78	151.44	10.15	-41.9	-46.6	10.7	2.81e-03	0	58	0	93323264	55	6153
2026-01-30 09:45:58.82	151.36	10.51	-41.8	-46.3	11.0	1.98e-03	0	58	0	100663296	55	5941
2026-01-30 09:46:02.86	151.28	10.87	-41.9	-46.4	10.9	2.16e-03	0	58	0	108003328	55	6036
2026-01-30 09:46:06.90	151.21	11.23	-41.9	-46.3	11.1	1.43e-03	0	58	0	115343360	55	5968
2026-01-30 09:46:10.94	151.13	11.61	-41.8	-46.1	11.4	1.08e-03	0	58	0	123731968	55	5801
2026-01-30 09:46:14.98	151.04	11.98	-41.7	-45.8	11.6	6.82e-04	0	58	0	131072000	55	5653
2026-01-30 09:46:19.02	150.96	12.37	-41.5	-45.4	12.1	2.84e-04	0	58	0	138412032	54	5687
2026-01-30 09:46:23.06	150.87	12.76	-41.5	-45.3	12.3	1.80e-04	0	59	0	145752064	54	5603
2026-01-30 09:46:27.10	150.78	13.15	-41.3	-45.0	12.6	9.91e-05	0	59	0	153092096	54	5434
2026-01-30 09:46:31.13	150.68	13.56	-41.4	-45.1	12.5	1.14e-04	0	59	0	161480704	54	5524
2026-01-30 09:46:35.18	150.59	13.97	-41.5	-45.3	12.3	1.68e-04	0	59	0	168820736	54	5656
2026-01-30 09:46:39.22	150.49	14.38	-41.6	-45.5	12.2	2.06e-04	0	59	0	176160768	54	5725
2026-01-30 09:46:43.26	150.38	14.81	-41.6	-45.4	12.3	2.82e-04	0	59	0	183500800	54	5673
2026-01-30 09:46:47.30	150.28	15.24	-41.5	-45.2	12.5	1.44e-04	0	59	0	191889408	54	5572
2026-01-30 09:46:51.34	150.17	15.68	-41.5	-45.1	12.6	1.12e-04	0	59	0	199229440	54	5513
2026-01-30 09:46:55.38	150.06	16.12	-41.5	-45.1	12.7	7.47e-05	0	59	0	206569472	54	5513
2026-01-30 09:46:59.43	149.94	16.58	-41.5	-45.1	12.7	1.01e-04	0	59	0	213909504	54	5504
2026-01-30 09:47:03.47	149.82	17.04	-41.8	-45.8	12.1	2.33e-04	0	60	0	221249536	54	5929
2026-01-30 09:47:07.51	149.69	17.51	-42.0	-46.1	11.7	6.08e-04	0	59	0	229638144	54	6198
2026-01-30 09:47:11.55	149.56	18.00	-41.7	-45.5	12.3	1.75e-04	0	60	0	236978176	54	5778
2026-01-30 09:47:15.59	149.43	18.49	-41.4	-44.9	13.0	3.20e-05	0	60	0	244318208	54	5388
2026-01-30 09:47:19.63	149.29	18.99	-41.6	-45.3	12.6	5.11e-05	0	60	0	251658240	53	5967
2026-01-30 09:47:23.67	149.15	19.50	-41.7	-45.5	12.5	8.01e-05	0	60	0	260046848	54	5741
2026-01-30 09:47:27.71	149.00	20.02	-41.5	-44.9	13.1	3.66e-05	0	60	0	267386880	54	5372
2026-01-30 09:47:31.75	148.84	20.55	-41.2	-44.3	13.7	8.30e-06	0	60	0	274726912	53	5340
2026-01-30 09:47:35.79	148.68	21.09	-41.4	-44.8	13.2	8.30e-06	0	60	0	282066944	53	5640
2026-01-30 09:47:39.83	148.52	21.65	-41.3	-44.6	13.5	1.22e-05	0	60	0	290455552	53	5466
2026-01-30 09:47:43.87	148.34	22.22	-41.5	-44.9	13.2	1.44e-05	0	60	0	297795584	53	5685
2026-01-30 09:47:47.91	148.16	22.80	-41.6	-45.1	13.0	4.57e-05	0	60	0	305135616	54	5524
2026-01-30 09:47:51.95	147.98	23.39	-41.9	-45.6	12.5	7.47e-05	0	60	0	312475648	54	5808
2026-01-30 09:47:55.99	147.78	23.99	-41.5	-44.9	13.3	2.36e-05	0	60	0	319815680	54	5358
2026-01-30 09:48:00.02	147.58	24.61	-42.3	-46.5	11.6	3.93e-04	0	60	0	328204288	55	6084
2026-01-30 09:48:04.06	147.37	25.25	-42.9	-47.6	10.7	2.33e-03	0	60	0	335544320	56	6538
2026-01-30 09:48:08.10	147.15	25.90	-42.6	-46.8	11.6	8.82e-04	0	60	0	342884352	56	5946
2026-01-30 09:48:12.14	146.91	26.56	-42.4	-46.6	11.7	6.33e-04	0	60	0	350224384	56	5803
2026-01-30 09:48:16.18	146.67	27.25	-43.0	-47.8	10.4	4.33e-03	0	60	0	358612992	56	6697
2026-01-30 09:48:20.21	146.42	27.94	-43.0	-47.8	10.5	3.79e-03	0	60	0	365953024	56	6716
2026-01-30 09:48:24.25	146.16	28.66	-42.8	-47.4	10.9	1.90e-03	0	60	0	373293056	56	6393
2026-01-30 09:48:28.29	145.88	29.39	-42.9	-47.6	10.7	3.61e-03	0	60	0	380633088	56	6551
2026-01-30 09:48:32.33	145.59	30.15	-43.3	-48.7	9.6	1.16e-02	0	60	0	387973120	57	6966
2026-01-30 09:48:36.37	145.28	30.92	-43.3	-48.6	9.7	1.10e-02	0	60	0	396361728	57	6918
2026-01-30 09:48:40.40	144.96	31.71	-43.5	-49.0	9.3	1.85e-02	0	61	0	403701760	57	7250
2026-01-30 09:48:44.45	144.62	32.52	-43.6	-49.3	9.0	2.47e-02	0	61	0	411041792	57	7537
2026-01-30 09:48:48.49	144.27	33.36	-43.8	-50.1	8.2	6.25e-02	0	61	0	418381824	58	7761
2026-01-30 09:48:52.52	143.89	34.21	-43.9	-50.3	8.0	7.03e-02	0	61	0	426770432	58	7931
2026-01-30 09:48:56.56	143.50	35.09	-43.4	-48.6	9.8	1.29e-02	0	61	0	434110464	58	6514
2026-01-30 09:49:00.60	143.08	35.99	-43.8	-49.7	8.5	3.91e-02	0	61	0	441450496	58	7381
2026-01-30 09:49:04.64	142.63	36.92	-44.1	-51.0	7.5	1.12e-01	0	61	0	448790528	58	8575
2026-01-30 09:49:08.68	142.16	37.87	-43.6	-49.3	9.1	2.90e-02	0	61	0	456130560	58	7068
2026-01-30 09:49:12.72	141.66	38.85	-43.9	-50.0	8.4	4.39e-02	0	61	0	464519168	58	7681
2026-01-30 09:49:16.75	141.13	39.85	-43.9	-50.1	8.3	3.85e-02	0	61	0	471859200	58	7720
2026-01-30 09:49:20.80	140.56	40.88	-43.9	-50.3	8.2	9.92e-02	0	61	0	479199232	59	7462
2026-01-30 09:49:24.84	139.96	41.93	-43.5	-48.6	9.7	1.05e-02	0	61	0	486539264	58	6553
2026-01-30 09:49:28.88	139.31	43.01	-43.2	-47.9	10.6	4.67e-03	0	61	0	494927872	58	5997
2026-01-30 09:49:32.92	138.61	44.12	-43.3	-48.3	10.4	9.21e-03	0	61	0	502267904	58	6277
2026-01-30 09:49:36.96	137.87	45.26	-42.8	-47.1	11.4	6.17e-04	0	61	0	509607936	56	6187
2026-01-30 09:49:41.00	137.06	46.42	-43.3	-48.2	10.2	4.65e-03	0	61	0	516947968	57	6627
2026-01-30 09:49:45.04	136.20	47.61	-42.7	-46.8	11.8	4.26e-04	0	61	0	524288000	57	5599
2026-01-30 09:49:49.08	135.26	48.83	-42.9	-47.3	11.2	3.40e-03	0	61	0	532676608	57	5978
2026-01-30 09:49:53.12	134.24	50.07	-42.1	-45.7	12.9	7.62e-05	0	61	0	540016640	56	5254
2026-01-30 09:49:57.16	133.14	51.34	-42.2	-46.0	12.5	6.71e-05	0	61	0	547356672	55	5741
2026-01-30 09:50:01.20	131.94	52.62	-42.6	-46.6	12.0	8.15e-04	0	61	0	554696704	56	5820
2026-01-30 09:50:05.25	130.62	53.93	-43.2	-48.1	10.5	1.30e-03	0	61	0	563085312	56	6944
2026-01-30 09:50:09.29	129.18	55.26	-42.3	-46.0	12.6	6.86e-05	0	61	0	570425344	56	5431
2026-01-30 09:50:13.33	127.59	56.59	-42.9	-47.3	11.2	7.63e-04	0	61	0	577765376	56	6301
2026-01-30 09:50:17.37	125.84	57.94	-43.5	-48.7	9.7	5.93e-03	0	61	0	585105408	57	7010
2026-01-30 09:50:21.41	123.91	59.28	-43.1	-47.9	10.7	5.70e-03	0	61	0	592445440	58	5998
2026-01-30 09:50:25.46	121.76	60.63	-43.0	-47.5	11.1	1.73e-03	0	61	0	600834048	57	6065
2026-01-30 09:50:29.50	119.37	61.96	-42.3	-46.0	12.6	1.80e-04	0	61	0	608174080	56	5438
2026-01-30 09:50:33.53	116.72	63.27	-42.2	-46.0	12.4	5.95e-05	0	61	0	615514112	54	6118
2026-01-30 09:50:37.58	113.75	64.55	-41.6	-45.0	13.4	1.37e-05	0	61	0	622854144	54	5456
2026-01-30 09:50:41.62	110.44	65.78	-41.9	-45.7	12.6	6.10e-05	0	61	0	631242752	54	5894
2026-01-30 09:50:45.66	106.75	66.94	-43.2	-48.6	9.6	1.06e-02	0	61	0	638582784	57	6907
2026-01-30 09:50:49.70	102.64	68.02	-41.9	-45.6	12.7	4.19e-05	0	61	0	645922816	55	5524
2026-01-30 09:50:53.74	98.08	69.00	-43.2	-48.5	9.9	3.17e-03	0	61	0	653262848	56	7212
2026-01-30 09:50:57.78	93.09	69.85	-43.2	-48.5	9.9	3.66e-03	0	61	0	660602880	57	6832
2026-01-30 09:51:01.81	87.67	70.54	-43.2	-48.3	10.1	9.77e-03	0	61	0	668991488	57	6699
2026-01-30 09:51:05.85	81.87	71.07	-44.0	-51.3	7.0	1.79e-01	0	61	0	676331520	58	8891
2026-01-30 09:51:09.88	75.79	71.41	-43.2	-48.4	9.9	3.05e-03	0	61	0	683671552	57	6787
2026-01-30 09:51:13.92	69.54	71.54	-43.5	-49.4	8.8	1.44e-02	0	61	0	691011584	57	7576
2026-01-30 09:51:17.95	63.28	71.46	-43.0	-48.0	10.4	7.45e-03	0	61	0	699400192	57	6468
2026-01-30 09:51:21.99	57.14	71.17	-43.2	-48.3	10.0	3.87e-03	0	62	0	706740224	57	6711
2026-01-30 09:51:26.03	51.25	70.69	-43.3	-48.6	9.8	1.01e-02	0	61	0	714080256	58	6501
2026-01-30 09:51:30.06	45.74	70.04	-43.4	-49.0	9.4	1.98e-02	0	62	0	721420288	58	6847
2026-01-30 09:51:34.10	40.64	69.23	-43.8	-50.2	8.2	6.39e-02	0	62	0	728760320	58	7850
2026-01-30 09:51:38.14	35.98	68.28	-43.4	-48.8	9.6	6.41e-03	0	62	0	737148928	58	6659
2026-01-30 09:51:42.18	31.76	67.23	-42.5	-46.6	11.7	1.87e-03	0	61	0	744488960	57	5501
2026-01-30 09:51:46.22	27.97	66.09	-42.4	-46.6	11.7	3.13e-03	0	62	0	751828992	56	5792
2026-01-30 09:51:50.27	24.56	64.87	-42.4	-46.5	11.9	3.56e-04	0	61	0	759169024	56	5787
2026-01-30 09:51:54.30	21.53	63.61	-41.7	-45.2	13.1	1.60e-05	0	62	0	767557632	54	5569
2026-01-30 09:51:58.34	18.80	62.31	-41.8	-45.5	12.8	2.51e-05	0	62	0	774897664	54	5733
2026-01-30 09:52:02.38	16.35	60.99	-42.6	-47.1	11.3	2.88e-03	0	62	0	782237696	56	6169
2026-01-30 09:52:06.42	14.15	59.65	-42.9	-48.0	10.3	4.18e-03	0	62	0	789577728	56	6851
2026-01-30 09:52:10.46	12.17	58.31	-42.2	-46.4	11.8	3.40e-04	0	61	0	796917760	55	6061
2026-01-30 09:52:14.50	10.38	56.97	-42.0	-45.9	12.3	4.77e-04	0	62	0	805306368	55	5705
2026-01-30 09:52:18.54	8.76	55.63	-41.3	-44.7	13.4	3.00e-06	0	62	0	812646400	53	5558
2026-01-30 09:52:22.57	7.29	54.32	-42.4	-46.9	11.3	8.18e-04	0	62	0	819986432	55	6403
2026-01-30 09:52:26.61	5.94	53.01	-42.4	-46.8	11.5	2.89e-03	0	62	0	827326464	56	5959
2026-01-30 09:52:30.65	4.71	51.72	-41.5	-45.1	13.2	4.11e-05	0	62	0	835715072	54	5476
2026-01-30 09:52:34.69	3.59	50.46	-41.4	-44.9	13.3	1.98e-05	0	62	0	843055104	54	5400
2026-01-30 09:52:38.73	2.55	49.21	-42.8	-47.7	10.6	4.05e-03	0	62	0	850395136	56	6615
2026-01-30 09:52:42.77	1.60	48.00	-43.3	-49.2	9.0	3.33e-02	0	62	0	857735168	57	7431
2026-01-30 09:52:46.81	0.72	46.80	-43.8	-51.2	7.1	2.35e-01	0	62	0	865075200	58	8786
2026-01-30 09:52:50.85	359.90	45.64	-43.2	-48.8	9.4	9.07e-03	0	62	0	873463808	57	7060
2026-01-30 09:52:54.89	359.14	44.50	-43.5	-49.9	8.2	4.04e-02	0	62	0	880803840	57	8083
2026-01-30 09:52:58.93	358.43	43.39	-43.0	-48.3	9.9	1.16e-02	0	62	0	888143872	57	6675
2026-01-30 09:53:02.97	357.78	42.30	-43.5	-49.7	8.5	2.62e-02	0	62	0	895483904	57	7811
2026-01-30 09:53:07.01	357.16	41.24	-43.2	-48.6	9.6	2.10e-02	0	62	0	903872512	57	6952
2026-01-30 09:53:11.05	356.59	40.21	-44.0	-51.9	6.4	9.48e-02	0	62	0	911212544	58	9572
2026-01-30 09:53:15.09	356.05	39.21	-43.2	-48.9	9.2	2.40e-02	0	62	0	918552576	58	6753
2026-01-30 09:53:19.13	355.54	38.23	-42.1	-46.0	12.3	1.97e-04	0	62	0	925892608	56	5458
2026-01-30 09:53:23.16	355.06	37.28	-42.4	-47.0	11.0	6.86e-04	0	62	0	933232640	55	6476
2026-01-30 09:53:27.20	354.61	36.35	-43.4	-49.7	8.4	6.98e-02	0	62	0	941621248	57	7827
2026-01-30 09:53:31.24	354.19	35.44	-43.2	-49.0	9.1	4.31e-02	0	62	0	948961280	57	7261
2026-01-30 09:53:35.28	353.79	34.56	-43.6	-50.3	7.8	7.36e-02	0	62	0	956301312	57	8415
2026-01-30 09:53:39.32	353.41	33.70	-43.0	-48.4	9.7	1.38e-02	0	62	0	963641344	57	6726
2026-01-30 09:53:43.36	353.05	32.86	-42.8	-47.8	10.3	5.76e-03	0	62	0	972029952	57	6300
2026-01-30 09:53:47.39	352.71	32.05	-43.1	-48.7	9.4	1.22e-02	0	62	0	979369984	57	7024
2026-01-30 09:53:51.43	352.39	31.26	-44.0	-52.2	6.0	2.38e-01	0	62	0	986710016	58	9944
2026-01-30 09:53:55.47	352.08	30.48	-43.2	-48.9	9.1	3.26e-02	0	62	0	994050048	58	6746
2026-01-30 09:53:59.52	351.79	29.73	-42.8	-47.9	10.4	7.65e-03	0	62	0	1001390080	57	6380
2026-01-30 09:54:03.56	351.51	28.99	-42.8	-47.9	10.1	8.12e-03	0	62	0	1009778688	57	6367
2026-01-30 09:54:07.60	351.24	28.27	-42.4	-47.0	10.9	2.97e-03	0	62	0	1017118720	56	6127
2026-01-30 09:54:11.63	350.99	27.57	-42.5	-47.3	10.7	2.23e-03	0	62	0	1024458752	56	6302
2026-01-30 09:54:15.67	350.75	26.89	-43.2	-49.4	8.5	3.39e-02	0	62	0	1031798784	56	8006
2026-01-30 09:54:19.71	350.52	26.22	-42.6	-47.5	10.3	7.63e-03	0	62	0	1040187392	56	6472
2026-01-30 09:54:23.76	350.30	25.57	-42.1	-46.4	11.4	9.17e-04	0	62	0	1047527424	56	5717
2026-01-30 09:54:27.79	350.09	24.93	-41.8	-46.1	11.5	7.83e-04	0	62	0	1054867456	55	5851
2026-01-30 09:54:31.84	349.88	24.31	-41.9	-46.4	11.1	1.53e-03	0	62	0	1062207488	55	6025
2026-01-30 09:54:35.88	349.69	23.70	-41.8	-46.4	10.8	1.98e-03	0	62	0	1069547520	55	6027
2026-01-30 09:54:39.92	349.50	23.11	-41.8	-47.0	9.7	8.85e-03	0	62	0	1077936128	55	6493
2026-01-30 09:54:43.96	349.32	22.53	-41.6	-47.4	9.0	1.98e-02	0	61	0	1085276160	55	6774
2026-01-30 09:54:47.99	349.15	21.96	-41.2	-47.2	8.7	2.72e-02	0	62	0	1092616192	54	7005
2026-01-30 09:54:52.03	348.98	21.40	-41.4	-50.5	5.2	5.34e-01	0	62	0	1099956224	54	10268
2026-01-30 09:54:56.07	348.82	20.86	-41.2	-54.1	3.8	1.49e+00	0	62	104	1103101952	54	15570
2026-01-30 09:55:00.11	348.67	20.32	-40.6	-54.7	3.8	1.49e+00	0	62	104	1103101952	53	17498
2026-01-30 09:55:04.15	348.52	19.80	-40.5	-54.8	3.8	1.49e+00	0	62	104	1103101952	52	18853
2026-01-30 09:55:08.18	348.38	19.29	-40.5	-54.9	3.8	1.49e+00	0	62	104	1103101952	52	19004
2026-01-30 09:55:12.22	348.25	18.79	-40.4	-54.8	3.8	1.49e+00	0	62	104	1103101952	52	18852
2026-01-30 09:55:16.26	348.11	18.30	-40.4	-54.8	3.8	1.49e+00	0	62	104	1103101952	52	18942
2026-01-30 09:55:20.30	347.99	17.82	-40.7	-55.1	3.8	1.49e+00	0	62	104	1103101952	53	18492
2026-01-30 09:55:24.34	347.86	17.34	-41.1	-55.6	3.8	1.49e+00	0	62	104	1103101952	53	19475
2026-01-30 09:55:28.38	347.74	16.88	-41.1	-55.6	3.8	1.49e+00	0	62	104	1103101952	53	19526
2026-01-30 09:55:32.42	347.63	16.42	-41.4	-55.9	3.8	1.49e+00	0	62	104	1103101952	53	20178
2026-01-30 09:55:36.46	347.52	15.98	-41.4	-55.9	3.8	1.49e+00	0	62	104	1103101952	53	20132
2026-01-30 09:55:40.50	347.41	15.54	-41.3	-55.9	3.8	1.49e+00	0	62	104	1103101952	53	20073
2026-01-30 09:55:44.54	347.31	15.10	-41.3	-55.8	3.8	1.49e+00	0	62	104	1103101952	53	19992
2026-01-30 09:55:48.58	347.21	14.68	-41.2	-55.8	3.8	1.49e+00	0	62	104	1103101952	53	19882
2026-01-30 09:55:52.62	347.11	14.26	-41.2	-55.7	3.8	1.49e+00	0	62	104	1103101952	53	19760
2026-01-30 09:55:56.67	347.02	13.85	-41.1	-55.6	3.8	1.49e+00	0	62	104	1103101952	53	19576
2026-01-30 09:56:00.71	346.93	13.45	-41.1	-55.6	3.8	1.49e+00	0	62	104	1103101952	53	19513
2026-01-30 09:56:04.75	346.84	13.05	-41.0	-55.6	3.8	1.49e+00	0	62	104	1103101952	53	19398
2026-01-30 09:56:08.79	346.75	12.66	-41.0	-55.5	3.8	1.49e+00	0	62	104	1103101952	53	19315
2026-01-30 09:56:12.83	346.67	12.28	-40.9	-55.5	3.8	1.49e+00	0	62	104	1103101952	53	19217
2026-01-30 09:56:16.87	346.59	11.90	-40.9	-55.4	3.8	1.49e+00	0	62	104	1103101952	53	18950
2026-01-30 09:56:20.91	346.51	11.52	-40.8	-55.3	3.8	1.49e+00	0	62	104	1103101952	53	18876
2026-01-30 09:56:24.95	346.44	11.16	-40.8	-55.3	3.8	1.49e+00	0	62	104	1103101952	53	18736
2026-01-30 09:56:28.99	346.36	10.79	-40.8	-55.2	3.8	1.49e+00	0	62	104	1103101952	53	18655
2026-01-30 09:56:33.03	346.29	10.44	-40.7	-55.2	3.8	1.49e+00	0	62	104	1103101952	52	19657
2026-01-30 09:56:37.07	346.22	10.09	-40.7	-55.1	3.8	1.49e+00	0	62	104	1103101952	52	19559
2026-01-30 09:56:41.12	346.16	9.74	-40.4	-54.8	3.8	1.49e+00	0	62	104	1103101952	52	18847
2026-01-30 09:56:45.15	346.09	9.40	-40.8	-55.4	3.8	1.49e+00	0	62	104	1103101952	52	20210
2026-01-30 09:56:49.19	346.03	9.06	-40.8	-55.3	3.8	1.49e+00	0	62	104	1103101952	52	19992
2026-01-30 09:56:53.23	345.97	8.73	-40.7	-55.3	3.8	1.49e+00	0	62	104	1103101952	52	19883
2026-01-30 09:56:57.27	345.91	8.40	-40.7	-55.2	3.8	1.49e+00	0	62	104	1103101952	52	19683
2026-01-30 09:57:01.31	345.85	8.07	-40.6	-55.1	3.8	1.49e+00	0	62	104	1103101952	52	19503
2026-01-30 09:57:05.35	345.80	7.75	-42.5	-57.0	3.8	1.49e+00	0	62	104	1103101952	55	20320
2026-01-30 09:57:09.40	345.74	7.44	-45.0	-59.8	3.8	1.49e+00	0	62	104	1103101952	60	21158
2026-01-30 09:57:13.44	345.69	7.12	-44.9	-60.2	3.8	1.49e+00	0	62	104	1103101952	60	22099
2026-01-30 09:57:17.49	345.64	6.81	-44.9	-59.8	3.8	1.49e+00	0	62	104	1103101952	60	21027
2026-01-30 09:57:21.53	345.59	6.51	-44.8	-59.7	3.8	1.49e+00	0	62	104	1103101952	60	20894
2026-01-30 09:57:25.57	345.54	6.21	-44.8	-59.7	3.8	1.49e+00	0	62	104	1103101952	60	20788
2026-01-30 09:57:29.61	345.49	5.91	-44.8	-59.6	3.8	1.49e+00	0	62	104	1103101952	60	20756
2026-01-30 09:57:33.66	345.45	5.61	-44.8	-59.6	3.8	1.49e+00	0	62	104	1103101952	60	20755
2026-01-30 09:57:37.70	345.40	5.32	-44.7	-59.6	3.8	1.49e+00	0	62	104	1103101952	60	20660
2026-01-30 09:57:41.74	345.36	5.03	-44.7	-59.6	3.8	1.49e+00	0	62	104	1103101952	60	20693
2026-01-30 09:57:45.79	345.31	4.75	-44.7	-59.6	3.8	1.49e+00	0	62	104	1103101952	60	20669
2026-01-30 09:57:49.83	345.27	4.47	-44.7	-59.6	3.8	1.49e+00	0	62	104	1103101952	60	20677
2026-01-30 09:57:53.87	345.23	4.19	-44.7	-59.6	3.8	1.49e+00	0	62	104	1103101952	60	20626
2026-01-30 09:57:57.91	345.19	3.91	-44.7	-59.6	3.8	1.49e+00	0	62	104	1103101952	60	20596
2026-01-30 09:58:01.95	345.16	3.64	-44.7	-59.6	3.8	1.49e+00	0	62	104	1103101952	60	20579
2026-01-30 09:58:05.99	345.12	3.36	-44.7	-59.6	3.8	1.49e+00	0	62	104	1103101952	60	20587
2026-01-30 09:58:10.03	345.08	3.10	-44.7	-59.6	3.8	1.49e+00	0	62	104	1103101952	60	20635
2026-01-30 09:58:14.07	345.05	2.83	-44.7	-59.6	3.8	1.49e+00	0	62	104	1103101952	60	20594
2026-01-30 09:58:18.11	345.01	2.57	-44.7	-59.6	3.8	1.49e+00	0	62	104	1103101952	60	20590
2026-01-30 09:58:22.15	344.98	2.31	-44.7	-59.5	3.8	1.49e+00	0	62	104	1103101952	60	20531
2026-01-30 09:58:26.19	344.95	2.05	-44.7	-59.6	3.8	1.49e+00	0	62	104	1103101952	60	20562

#Closed at: 2026-01-30 09:58:27
#Recorded file [1103 MB]: D:/lorett/data/31039_260130_124405.dat