passes_logs/2026/01/30/R2.0S_Moscow/R2.0S_Moscow__20260130_041221_FENGYUN_3E_rec.log

#Pass ID: 20260130_041221_FENGYUN 3E
#Satellite: FENGYUN 3E
#Configuration: FENGYUN 3E
#almurnet v.1.7.20251203
#Start time: 2026-01-30 04:12:22

#Version: 2.2.20231116
#Station: R2.0S_Moscow
#Location: 37.707566 lon 55.798166 lat
#TLE: 1 49008U 21062A   26028.95833242 -.00000015  00000+0  13843-4 0  9995
#TLE: 2 49008  98.7500  33.9242 0002547 112.2873 247.8573 14.19887818236829

#Time	Az	El	Level	Level2	SNR	BER	BlckErr	Temp	State	Recorded	gain1	gain2
2026-01-30 04:12:22.23	15.05	2.05	-42.7	-53.9	3.8	8.46e-01	0	51	0	0	56	12690
2026-01-30 04:12:26.26	15.02	2.31	-42.6	-53.7	3.8	8.46e-01	0	52	104	0	55	13189
2026-01-30 04:12:30.30	14.99	2.57	-42.6	-53.7	3.8	8.46e-01	0	52	104	0	55	13203
2026-01-30 04:12:34.35	14.96	2.84	-42.6	-53.7	3.8	8.46e-01	0	52	104	0	55	13177
2026-01-30 04:12:38.39	14.92	3.10	-42.6	-53.7	3.8	8.46e-01	0	53	104	0	55	13178
2026-01-30 04:12:42.43	14.89	3.37	-42.5	-53.7	3.8	8.45e-01	0	53	104	0	55	13183
2026-01-30 04:12:46.47	14.86	3.65	-42.5	-53.7	3.8	8.46e-01	0	53	104	0	55	13117
2026-01-30 04:12:50.51	14.82	3.92	-42.5	-53.7	3.8	8.46e-01	0	54	104	0	55	13117
2026-01-30 04:12:54.56	14.79	4.20	-42.5	-53.6	3.8	8.45e-01	0	54	104	0	55	13036
2026-01-30 04:12:58.60	14.75	4.48	-42.5	-53.5	3.8	8.45e-01	0	54	104	0	55	12933
2026-01-30 04:13:02.64	14.71	4.76	-42.5	-53.6	3.8	8.46e-01	0	54	104	0	55	12973
2026-01-30 04:13:06.68	14.67	5.05	-42.5	-53.3	3.8	8.46e-01	0	54	104	0	55	12626
2026-01-30 04:13:10.72	14.63	5.33	-42.5	-53.2	3.8	8.46e-01	0	55	104	0	55	12440
2026-01-30 04:13:14.76	14.59	5.63	-42.5	-53.5	3.8	8.46e-01	0	55	104	0	55	12957
2026-01-30 04:13:18.81	14.55	5.92	-42.5	-53.0	3.8	8.47e-01	0	55	104	0	55	12181
2026-01-30 04:13:22.85	14.50	6.22	-42.5	-53.6	3.8	8.47e-01	0	55	104	0	55	13008
2026-01-30 04:13:26.89	14.46	6.52	-42.0	-49.6	4.4	8.32e-01	0	56	0	0	54	8716
2026-01-30 04:13:30.93	14.41	6.83	-41.2	-46.8	5.9	5.06e-01	0	56	0	2097152	53	6682
2026-01-30 04:13:34.97	14.36	7.14	-39.8	-43.4	9.2	3.04e-02	0	56	0	31457280	50	5349
2026-01-30 04:13:39.02	14.31	7.45	-39.7	-43.1	9.4	1.35e-02	0	56	0	60817408	49	5522
2026-01-30 04:13:43.06	14.26	7.77	-39.6	-42.9	9.6	1.63e-02	0	56	0	90177536	50	5092
2026-01-30 04:13:47.11	14.21	8.09	-40.3	-43.3	10.0	7.38e-03	0	57	0	118489088	51	4996
2026-01-30 04:13:51.15	14.15	8.42	-40.7	-45.5	6.8	1.26e-01	0	57	0	147849216	51	6482
2026-01-30 04:13:55.18	14.10	8.74	-40.7	-44.0	9.4	1.74e-02	0	57	0	177209344	51	5409
2026-01-30 04:13:59.23	14.04	9.08	-40.5	-43.6	9.8	8.66e-03	0	57	0	206569472	51	5194
2026-01-30 04:14:03.27	13.98	9.42	-40.5	-43.5	10.0	8.24e-03	0	57	0	235929600	51	5148
2026-01-30 04:14:07.31	13.92	9.76	-40.6	-43.7	9.9	9.47e-03	0	57	0	265289728	51	5228
2026-01-30 04:14:11.35	13.86	10.11	-40.6	-43.5	10.1	6.26e-03	0	58	0	293601280	51	5146
2026-01-30 04:14:15.39	13.79	10.46	-40.3	-43.1	10.6	3.25e-03	0	58	0	322961408	51	4889
2026-01-30 04:14:19.43	13.73	10.82	-40.2	-42.8	10.9	2.43e-03	0	58	0	352321536	51	4756
2026-01-30 04:14:23.47	13.66	11.18	-40.1	-42.7	11.1	1.82e-03	0	58	0	381681664	51	4687
2026-01-30 04:14:27.50	13.59	11.55	-40.1	-42.7	11.1	1.84e-03	0	58	0	411041792	50	4973
2026-01-30 04:14:31.55	13.52	11.92	-40.1	-42.7	11.2	1.63e-03	0	58	0	439353344	50	4961
2026-01-30 04:14:35.59	13.44	12.30	-39.8	-42.2	11.7	7.71e-04	0	58	0	468713472	50	4693
2026-01-30 04:14:39.62	13.36	12.69	-39.9	-42.3	11.7	5.77e-04	0	58	0	498073600	50	4735
2026-01-30 04:14:43.66	13.28	13.08	-39.9	-42.3	11.8	5.19e-04	0	58	0	527433728	50	4720
2026-01-30 04:14:47.70	13.20	13.48	-39.9	-42.2	11.9	4.12e-04	0	58	0	556793856	50	4689
2026-01-30 04:14:51.74	13.11	13.88	-39.6	-41.8	12.4	1.41e-04	0	59	0	586153984	50	4471
2026-01-30 04:14:55.78	13.03	14.29	-39.6	-41.8	12.4	1.36e-04	0	58	0	614465536	50	4481
2026-01-30 04:14:59.82	12.93	14.71	-39.7	-42.0	12.2	2.16e-04	0	59	0	643825664	50	4565
2026-01-30 04:15:03.86	12.84	15.14	-39.6	-41.8	12.5	1.29e-04	0	59	0	673185792	50	4465
2026-01-30 04:15:07.90	12.74	15.57	-39.5	-41.7	12.6	1.20e-04	0	59	0	702545920	50	4402
2026-01-30 04:15:11.94	12.64	16.01	-39.4	-41.5	12.9	5.14e-05	0	59	0	731906048	49	4546
2026-01-30 04:15:15.98	12.54	16.46	-39.1	-41.0	13.5	1.48e-05	0	59	0	760217600	49	4317
2026-01-30 04:15:20.03	12.43	16.92	-39.0	-40.9	13.6	1.71e-05	0	59	0	789577728	49	4270
2026-01-30 04:15:24.07	12.31	17.39	-38.9	-40.8	13.7	6.80e-06	0	59	0	818937856	48	4461
2026-01-30 04:15:28.11	12.20	17.86	-38.8	-40.6	13.9	3.40e-06	0	59	0	848297984	48	4389
2026-01-30 04:15:32.15	12.08	18.35	-38.7	-40.6	14.0	0.00e+00	0	59	0	877658112	48	4356
2026-01-30 04:15:36.19	11.95	18.84	-38.7	-40.5	14.1	2.20e-06	0	59	0	907018240	48	4294
2026-01-30 04:15:40.23	11.82	19.35	-38.6	-40.4	14.2	2.20e-06	0	59	0	935329792	48	4288
2026-01-30 04:15:44.27	11.69	19.86	-38.6	-40.4	14.2	1.10e-06	0	59	0	964689920	48	4255
2026-01-30 04:15:48.31	11.55	20.38	-38.6	-40.4	14.3	1.10e-06	0	59	0	994050048	48	4243
2026-01-30 04:15:52.36	11.40	20.92	-38.5	-40.3	14.4	3.40e-06	0	60	0	1023410176	48	4223
2026-01-30 04:15:56.40	11.25	21.47	-38.6	-40.4	14.3	2.20e-06	0	60	0	1052770304	48	4260
2026-01-30 04:16:00.44	11.09	22.03	-38.6	-40.4	14.3	0.00e+00	0	60	0	1081081856	48	4258
2026-01-30 04:16:04.48	10.93	22.60	-38.6	-40.4	14.3	1.10e-06	0	60	0	1110441984	48	4258
2026-01-30 04:16:08.52	10.76	23.19	-38.3	-40.0	14.5	1.10e-06	0	60	0	1139802112	47	4330
2026-01-30 04:16:12.56	10.58	23.78	-38.2	-39.9	14.6	1.10e-06	0	60	0	1169162240	47	4272
2026-01-30 04:16:16.60	10.40	24.40	-38.0	-39.7	14.9	1.10e-06	0	60	0	1198522368	47	4165
2026-01-30 04:16:20.64	10.20	25.02	-38.0	-39.6	15.0	0.00e+00	0	60	0	1227882496	46	4375
2026-01-30 04:16:24.68	10.00	25.66	-37.9	-39.5	15.1	1.10e-06	0	60	0	1256194048	46	4338
2026-01-30 04:16:28.73	9.79	26.32	-37.8	-39.4	15.3	0.00e+00	0	60	0	1285554176	46	4248
2026-01-30 04:16:32.77	9.57	26.99	-37.8	-39.4	15.3	0.00e+00	0	60	0	1314914304	46	4247
2026-01-30 04:16:36.81	9.34	27.68	-37.8	-39.4	15.3	0.00e+00	0	60	0	1344274432	46	4246
2026-01-30 04:16:40.85	9.10	28.39	-37.8	-39.4	15.3	0.00e+00	0	60	0	1373634560	46	4271
2026-01-30 04:16:44.89	8.85	29.11	-37.8	-39.4	15.3	0.00e+00	0	60	0	1401946112	46	4273
2026-01-30 04:16:48.93	8.58	29.86	-37.4	-38.9	15.8	0.00e+00	0	60	0	1431306240	45	4286
2026-01-30 04:16:52.97	8.30	30.62	-37.5	-39.0	15.7	0.00e+00	0	60	0	1460666368	45	4321
2026-01-30 04:16:57.01	8.01	31.40	-37.5	-39.1	15.6	0.00e+00	0	60	0	1490026496	45	4342
2026-01-30 04:17:01.06	7.70	32.20	-37.6	-39.1	15.6	0.00e+00	0	60	0	1519386624	45	4388
2026-01-30 04:17:05.10	7.37	33.03	-37.7	-39.3	15.5	0.00e+00	0	60	0	1548746752	45	4473
2026-01-30 04:17:09.14	7.03	33.87	-37.6	-39.1	15.7	0.00e+00	0	60	0	1577058304	45	4366
2026-01-30 04:17:13.19	6.66	34.74	-37.6	-39.2	15.6	0.00e+00	0	60	0	1606418432	45	4417
2026-01-30 04:17:17.23	6.28	35.63	-37.6	-39.2	15.6	0.00e+00	0	60	0	1635778560	45	4400
2026-01-30 04:17:21.27	5.87	36.55	-37.8	-39.3	15.4	0.00e+00	0	61	0	1665138688	45	4487
2026-01-30 04:17:25.31	5.44	37.49	-37.8	-39.4	15.4	0.00e+00	0	60	0	1694498816	45	4506
2026-01-30 04:17:29.35	4.98	38.45	-37.7	-39.3	15.5	0.00e+00	0	61	0	1722810368	45	4452
2026-01-30 04:17:33.39	4.49	39.45	-37.7	-39.3	15.5	0.00e+00	0	61	0	1752170496	45	4449
2026-01-30 04:17:37.43	3.98	40.46	-37.9	-39.5	15.4	0.00e+00	0	60	0	1781530624	45	4554
2026-01-30 04:17:41.47	3.42	41.51	-38.1	-39.7	15.2	0.00e+00	0	61	0	1810890752	45	4671
2026-01-30 04:17:45.51	2.83	42.58	-38.0	-39.5	15.3	0.00e+00	0	60	0	1840250880	46	4332
2026-01-30 04:17:49.56	2.19	43.69	-38.2	-39.9	15.0	0.00e+00	0	60	0	1869611008	46	4507
2026-01-30 04:17:53.59	1.51	44.81	-38.4	-40.1	14.8	1.10e-06	0	60	0	1897922560	46	4615
2026-01-30 04:17:57.63	0.77	45.97	-38.6	-40.4	14.4	2.20e-06	0	61	0	1927282688	47	4502
2026-01-30 04:18:01.68	359.98	47.16	-38.6	-40.3	14.6	1.10e-06	0	61	0	1956642816	47	4459
2026-01-30 04:18:05.72	359.12	48.37	-38.5	-40.1	14.7	1.10e-06	0	60	0	1986002944	47	4385
2026-01-30 04:18:09.75	358.19	49.61	-39.1	-40.9	14.2	2.20e-06	0	61	0	2015363072	48	4501
2026-01-30 04:18:13.80	357.18	50.88	-39.0	-40.8	14.2	3.40e-06	0	61	0	2044723200	48	4489
2026-01-30 04:18:17.84	356.08	52.17	-39.5	-41.4	13.6	9.10e-06	0	61	0	2073034752	48	4779
2026-01-30 04:18:21.88	354.88	53.48	-39.1	-40.9	14.2	1.02e-05	0	61	0	2102394880	48	4506
2026-01-30 04:18:25.92	353.56	54.81	-39.3	-41.1	13.9	2.17e-05	0	60	0	2131755008	49	4374
2026-01-30 04:18:29.96	352.10	56.17	-39.2	-41.1	14.0	4.50e-06	0	61	0	2161115136	49	4347
2026-01-30 04:18:34.00	350.50	57.53	-39.2	-41.0	14.0	2.51e-04	0	61	0	2190475264	48	4567
2026-01-30 04:18:38.05	348.72	58.91	-39.2	-41.0	14.1	3.40e-06	0	61	0	2218786816	48	4578
2026-01-30 04:18:42.09	346.75	60.29	-39.0	-40.8	14.2	2.20e-06	0	61	0	2248146944	48	4460
2026-01-30 04:18:46.13	344.55	61.66	-38.7	-40.4	14.3	1.15e-03	0	61	0	2277507072	47	4540
2026-01-30 04:18:50.17	342.09	63.02	-38.2	-39.8	15.0	0.00e+00	0	61	0	2306867200	47	4241
2026-01-30 04:18:54.21	339.33	64.36	-38.6	-40.4	14.4	3.13e-04	0	61	0	2336227328	47	4509
2026-01-30 04:18:58.25	336.24	65.66	-37.8	-39.3	15.5	3.56e-03	0	61	0	2365587456	45	4486
2026-01-30 04:19:02.28	332.77	66.91	-37.5	-39.0	15.8	0.00e+00	0	61	0	2393899008	45	4328
2026-01-30 04:19:06.33	328.86	68.09	-37.8	-39.4	15.4	1.10e-06	0	61	0	2423259136	45	4518
2026-01-30 04:19:10.37	324.49	69.18	-38.0	-39.6	15.2	0.00e+00	0	61	0	2452619264	45	4612
2026-01-30 04:19:14.41	319.63	70.15	-37.7	-39.3	15.5	0.00e+00	0	61	0	2481979392	45	4452
2026-01-30 04:19:18.45	314.27	70.98	-37.6	-39.2	15.5	2.70e-04	0	61	0	2511339520	45	4410
2026-01-30 04:19:22.49	308.44	71.65	-38.0	-39.6	15.1	1.10e-06	0	61	0	2539651072	45	4623
2026-01-30 04:19:26.54	302.19	72.13	-38.1	-39.8	14.9	3.43e-05	0	61	0	2569011200	45	4745
2026-01-30 04:19:30.58	295.67	72.40	-37.8	-39.4	15.3	0.00e+00	0	61	0	2598371328	46	4262
2026-01-30 04:19:34.62	289.03	72.44	-38.0	-39.6	15.1	1.10e-06	0	61	0	2627731456	45	4643
2026-01-30 04:19:38.66	282.45	72.26	-37.9	-39.4	15.2	4.23e-05	0	61	0	2657091584	45	4544
2026-01-30 04:19:42.71	276.07	71.87	-38.0	-39.6	15.1	1.10e-06	0	61	0	2686451712	45	4618
2026-01-30 04:19:46.75	270.06	71.27	-38.4	-40.1	14.6	3.40e-06	0	61	0	2714763264	46	4603
2026-01-30 04:19:50.79	264.49	70.50	-37.7	-39.2	15.5	7.78e-05	0	61	0	2744123392	45	4419
2026-01-30 04:19:54.83	259.42	69.58	-38.0	-39.6	15.1	1.60e-05	0	61	0	2773483520	46	4389
2026-01-30 04:19:58.87	254.85	68.54	-38.0	-39.6	15.0	1.71e-05	0	61	0	2802843648	46	4370
2026-01-30 04:20:02.91	250.76	67.39	-37.9	-39.5	15.2	0.00e+00	0	61	0	2832203776	46	4326
2026-01-30 04:20:06.95	247.11	66.16	-38.2	-39.8	14.9	0.00e+00	0	61	0	2860515328	46	4478
2026-01-30 04:20:10.99	243.86	64.88	-37.8	-39.3	15.4	0.00e+00	0	61	0	2889875456	45	4492
2026-01-30 04:20:15.04	240.96	63.55	-38.3	-40.0	14.7	1.10e-06	0	61	0	2919235584	46	4553
2026-01-30 04:20:19.08	238.39	62.19	-38.3	-40.0	14.7	2.20e-06	0	61	0	2948595712	46	4575
2026-01-30 04:20:23.13	236.08	60.82	-38.5	-40.2	14.6	1.10e-06	0	61	0	2977955840	47	4399
2026-01-30 04:20:27.16	234.02	59.44	-38.9	-40.7	14.0	3.40e-06	0	61	0	3007315968	47	4696
2026-01-30 04:20:31.21	232.16	58.05	-38.8	-40.5	14.2	3.40e-06	0	61	0	3035627520	47	4590
2026-01-30 04:20:35.25	230.49	56.68	-39.1	-41.0	13.7	5.70e-06	0	61	0	3064987648	47	4849
2026-01-30 04:20:39.29	228.98	55.32	-38.8	-40.5	14.2	0.00e+00	0	61	0	3094347776	47	4593
2026-01-30 04:20:43.33	227.60	53.97	-39.3	-41.2	13.6	1.37e-05	0	61	0	3123707904	48	4661
2026-01-30 04:20:47.37	226.35	52.65	-39.0	-40.7	14.2	0.00e+00	0	61	0	3153068032	48	4432
2026-01-30 04:20:51.42	225.21	51.34	-38.5	-40.2	14.8	1.10e-06	0	61	0	3181379584	48	4149
2026-01-30 04:20:55.46	224.16	50.06	-38.8	-40.6	14.1	8.00e-06	0	61	0	3210739712	47	4631
2026-01-30 04:20:59.51	223.20	48.80	-38.8	-40.5	14.2	3.40e-06	0	61	0	3240099840	47	4581
2026-01-30 04:21:03.55	222.31	47.57	-38.6	-40.4	14.3	3.40e-06	0	61	0	3269459968	47	4524
2026-01-30 04:21:07.59	221.49	46.37	-38.2	-39.8	14.9	0.00e+00	0	61	0	3298820096	47	4240
2026-01-30 04:21:11.64	220.73	45.19	-38.4	-40.1	14.7	1.10e-06	0	61	0	3328180224	47	4347
2026-01-30 04:21:15.68	220.02	44.05	-37.8	-39.3	15.4	2.20e-06	0	61	0	3357540352	46	4226
2026-01-30 04:21:19.71	219.37	42.94	-37.9	-39.4	15.3	0.00e+00	0	61	0	3385851904	46	4276
2026-01-30 04:21:23.76	218.76	41.85	-37.8	-39.3	15.4	0.00e+00	0	61	0	3415212032	46	4218
2026-01-30 04:21:27.80	218.19	40.79	-37.8	-39.3	15.4	0.00e+00	0	61	0	3444572160	46	4215
2026-01-30 04:21:31.84	217.65	39.75	-37.8	-39.4	15.3	0.00e+00	0	61	0	3473932288	46	4267
2026-01-30 04:21:35.88	217.15	38.75	-37.9	-39.5	15.2	0.00e+00	0	61	0	3503292416	46	4309
2026-01-30 04:21:39.93	216.68	37.77	-38.2	-39.8	14.9	0.00e+00	0	61	0	3532652544	46	4470
2026-01-30 04:21:43.97	216.23	36.81	-37.9	-39.5	15.2	0.00e+00	0	61	0	3562012672	46	4321
2026-01-30 04:21:48.01	215.81	35.88	-37.8	-39.4	15.4	0.00e+00	0	61	0	3590324224	46	4260
2026-01-30 04:21:52.05	215.42	34.98	-37.7	-39.3	15.4	0.00e+00	0	62	0	3619684352	46	4220
2026-01-30 04:21:56.09	215.05	34.10	-37.6	-39.1	15.6	0.00e+00	0	61	0	3649044480	46	4133
2026-01-30 04:22:00.14	214.69	33.24	-37.5	-39.1	15.6	0.00e+00	0	61	0	3678404608	46	4110
2026-01-30 04:22:04.18	214.36	32.41	-37.4	-38.9	15.8	0.00e+00	0	61	0	3707764736	45	4259
2026-01-30 04:22:08.22	214.04	31.59	-37.2	-38.7	15.9	0.00e+00	0	61	0	3737124864	45	4177
2026-01-30 04:22:12.27	213.74	30.80	-37.3	-38.8	15.8	0.00e+00	0	61	0	3765436416	45	4237
2026-01-30 04:22:16.31	213.45	30.03	-37.3	-38.8	15.8	1.10e-06	0	61	0	3794796544	45	4237
2026-01-30 04:22:20.35	213.18	29.27	-37.3	-38.9	15.8	0.00e+00	0	61	0	3824156672	45	4243
2026-01-30 04:22:24.39	212.92	28.54	-37.5	-39.0	15.6	0.00e+00	0	61	0	3853516800	45	4326
2026-01-30 04:22:28.44	212.67	27.82	-37.7	-39.3	15.3	0.00e+00	0	61	0	3882876928	45	4478
2026-01-30 04:22:32.48	212.43	27.12	-37.9	-39.6	15.0	0.00e+00	0	61	0	3911188480	45	4628
2026-01-30 04:22:36.52	212.20	26.44	-37.9	-39.5	15.1	0.00e+00	0	61	0	3940548608	45	4580
2026-01-30 04:22:40.56	211.99	25.78	-37.8	-39.4	15.2	0.00e+00	0	61	0	3969908736	45	4523
2026-01-30 04:22:44.61	211.78	25.13	-37.8	-39.4	15.2	1.10e-06	0	61	0	3999268864	45	4507
2026-01-30 04:22:48.65	211.58	24.49	-37.9	-39.5	15.0	0.00e+00	0	61	0	4028628992	45	4598
2026-01-30 04:22:52.69	211.39	23.87	-37.9	-39.5	15.0	0.00e+00	0	61	0	4056940544	45	4584
2026-01-30 04:22:56.73	211.21	23.27	-37.9	-39.5	14.9	0.00e+00	0	62	0	4086300672	45	4598
2026-01-30 04:23:00.77	211.03	22.68	-37.9	-39.6	14.9	0.00e+00	0	61	0	4115660800	45	4605
2026-01-30 04:23:04.81	210.86	22.10	-37.9	-39.6	14.9	1.10e-06	0	61	0	4145020928	45	4611
2026-01-30 04:23:08.85	210.70	21.53	-37.9	-39.5	14.9	0.00e+00	0	61	0	4174381056	45	4565
2026-01-30 04:23:12.89	210.54	20.98	-38.1	-39.8	14.6	0.00e+00	0	61	0	4203741184	45	4727
2026-01-30 04:23:16.93	210.39	20.44	-38.2	-39.9	14.5	0.00e+00	0	61	0	4232052736	45	4805
2026-01-30 04:23:20.97	210.25	19.91	-38.4	-40.2	14.1	3.40e-06	0	61	0	4261412864	46	4694
2026-01-30 04:23:25.02	210.11	19.39	-38.6	-40.5	13.9	5.70e-06	0	61	0	4290772992	46	4825
2026-01-30 04:23:29.06	209.97	18.88	-38.7	-40.5	13.8	1.10e-06	0	61	0	4320133120	47	4592
2026-01-30 04:23:33.09	209.84	18.38	-38.7	-40.7	13.7	5.70e-06	0	62	0	4349493248	47	4658
2026-01-30 04:23:37.13	209.72	17.89	-38.8	-40.8	13.5	1.25e-05	0	61	0	4377804800	47	4732
2026-01-30 04:23:41.17	209.60	17.41	-38.8	-40.7	13.5	2.20e-06	0	61	0	4407164928	47	4702
2026-01-30 04:23:45.21	209.48	16.94	-38.8	-40.7	13.6	1.02e-05	0	61	0	4436525056	47	4683
2026-01-30 04:23:49.25	209.37	16.48	-38.8	-40.8	13.5	1.14e-05	0	61	0	4465885184	47	4714
2026-01-30 04:23:53.29	209.26	16.02	-38.9	-40.8	13.4	9.10e-06	0	61	0	4495245312	47	4749
2026-01-30 04:23:57.33	209.15	15.58	-39.0	-41.0	13.2	1.83e-05	0	61	0	4524605440	47	4847
2026-01-30 04:24:01.37	209.05	15.14	-39.1	-41.2	13.0	3.43e-05	0	61	0	4552916992	47	4959
2026-01-30 04:24:05.41	208.95	14.71	-39.4	-41.5	12.8	4.46e-05	0	61	0	4582277120	48	4846
2026-01-30 04:24:09.46	208.86	14.29	-39.5	-41.6	12.7	1.11e-04	0	62	0	4611637248	48	4911
2026-01-30 04:24:13.50	208.76	13.87	-39.6	-41.8	12.5	1.17e-04	0	61	0	4640997376	48	4996
2026-01-30 04:24:17.54	208.67	13.46	-39.7	-41.9	12.4	1.73e-04	0	61	0	4670357504	48	5051
2026-01-30 04:24:21.58	208.58	13.06	-39.8	-42.0	12.2	2.24e-04	0	61	0	4699717632	49	4858
2026-01-30 04:24:25.63	208.50	12.66	-39.9	-42.2	12.0	3.66e-04	0	61	0	4728029184	49	4949
2026-01-30 04:24:29.68	208.42	12.27	-39.9	-42.2	11.9	4.73e-04	0	61	0	4757389312	49	4964
2026-01-30 04:24:33.72	208.34	11.89	-40.0	-42.3	11.8	5.61e-04	0	61	0	4786749440	49	5039
2026-01-30 04:24:37.76	208.26	11.51	-40.0	-42.4	11.6	8.12e-04	0	61	0	4816109568	49	5093
2026-01-30 04:24:41.81	208.18	11.14	-40.1	-42.5	11.5	8.56e-04	0	61	0	4845469696	49	5126
2026-01-30 04:24:45.85	208.11	10.78	-40.1	-42.6	11.4	1.09e-03	0	62	0	4873781248	49	5169
2026-01-30 04:24:49.89	208.04	10.42	-40.1	-42.6	11.4	1.30e-03	0	61	0	4903141376	49	5166
2026-01-30 04:24:53.93	207.97	10.06	-40.2	-42.7	11.2	1.60e-03	0	61	0	4932501504	50	4965
2026-01-30 04:24:57.97	207.90	9.71	-40.2	-42.8	11.1	2.04e-03	0	61	0	4961861632	50	5010
2026-01-30 04:25:02.01	207.84	9.37	-40.3	-42.9	10.9	2.15e-03	0	62	0	4991221760	50	5061
2026-01-30 04:25:06.06	207.77	9.02	-40.4	-43.1	10.6	3.11e-03	0	61	0	5019533312	50	5215
2026-01-30 04:25:10.10	207.71	8.69	-40.4	-43.1	10.6	3.62e-03	0	61	0	5048893440	50	5215
2026-01-30 04:25:14.14	207.65	8.36	-40.5	-43.2	10.4	4.63e-03	0	62	0	5078253568	50	5279
2026-01-30 04:25:18.18	207.59	8.03	-40.5	-43.4	10.2	7.16e-03	0	62	0	5107613696	50	5372
2026-01-30 04:25:22.23	207.53	7.70	-45.2	-56.3	3.8	8.46e-01	0	62	104	5111808000	60	13270
2026-01-30 04:25:26.27	207.48	7.38	-45.4	-56.4	3.8	8.46e-01	0	62	104	5111808000	60	13498
2026-01-30 04:25:30.31	207.42	7.07	-45.3	-56.3	3.8	8.46e-01	0	62	104	5111808000	60	13370
2026-01-30 04:25:34.36	207.37	6.76	-45.2	-56.3	3.8	8.46e-01	0	62	104	5111808000	60	13279
2026-01-30 04:25:38.40	207.32	6.45	-45.1	-56.2	3.8	8.45e-01	0	62	104	5111808000	60	13180
2026-01-30 04:25:42.43	207.27	6.15	-45.2	-56.2	3.8	8.46e-01	0	62	104	5111808000	60	13241
2026-01-30 04:25:46.47	207.22	5.85	-45.2	-56.2	3.8	8.46e-01	0	61	104	5111808000	60	13165
2026-01-30 04:25:50.51	207.17	5.55	-45.2	-56.2	3.8	8.45e-01	0	61	104	5111808000	60	13216
2026-01-30 04:25:54.56	207.12	5.25	-45.2	-56.2	3.8	8.45e-01	0	61	104	5111808000	60	13221
2026-01-30 04:25:58.60	207.08	4.96	-45.1	-56.2	3.8	8.45e-01	0	62	104	5111808000	60	13154
2026-01-30 04:26:02.64	207.03	4.68	-45.1	-56.2	3.8	8.46e-01	0	61	104	5111808000	60	13182
2026-01-30 04:26:06.68	206.99	4.39	-45.1	-56.2	3.8	8.47e-01	0	61	104	5111808000	60	13177
2026-01-30 04:26:10.72	206.95	4.11	-45.2	-56.2	3.8	8.47e-01	0	62	104	5111808000	60	13173
2026-01-30 04:26:14.76	206.91	3.83	-45.1	-56.2	3.8	8.47e-01	0	62	104	5111808000	60	13181
2026-01-30 04:26:18.80	206.86	3.56	-45.1	-56.2	3.8	8.46e-01	0	62	104	5111808000	60	13134
2026-01-30 04:26:22.84	206.83	3.28	-45.1	-56.2	3.8	8.47e-01	0	62	104	5111808000	60	13177
2026-01-30 04:26:26.88	206.79	3.01	-45.1	-56.2	3.8	8.45e-01	0	62	104	5111808000	60	13130
2026-01-30 04:26:30.92	206.75	2.74	-45.1	-56.2	3.8	8.47e-01	0	62	104	5111808000	60	13176
2026-01-30 04:26:34.95	206.71	2.48	-45.1	-56.2	3.8	8.46e-01	0	62	104	5111808000	60	13138
2026-01-30 04:26:39.00	206.68	2.22	-45.1	-56.2	3.8	8.47e-01	0	62	104	5111808000	60	13132
2026-01-30 04:26:43.04	206.64	1.96	-45.1	-56.2	3.8	8.46e-01	0	62	104	5111808000	60	13169

#Closed at: 2026-01-30 04:26:45
#Recorded file [5111 MB]: D:/lorett/data/31039_260130_071222.dat