passes_logs/2026/01/30/R2.0S_Moscow/R2.0S_Moscow__20260130_082535_NOAA_20_JPSS-1_rec.log

#Pass ID: 20260130_082535_NOAA 20 (JPSS-1)
#Satellite: NOAA 20 (JPSS-1)
#Configuration: NOAA 20
#almurnet v.1.7.20251203
#Start time: 2026-01-30 08:25:37

#Version: 2.2.20231116
#Station: R2.0S_Moscow
#Location: 37.707566 lon 55.798166 lat
#TLE: 1 43013U 17073A   26029.42702672  .00000137  00000+0  85918-4 0  9993
#TLE: 2 43013  98.7646 330.2153 0000804  19.9045 340.2162 14.19525092424781

#Time	Az	El	Level	Level2	SNR	BER	BlckErr	Temp	State	Recorded	gain1	gain2
2026-01-30 08:25:37.03	116.65	2.07	-36.9	-56.6	4.1	1.49e+00	0	53	0	0	46	32801
2026-01-30 08:25:41.07	116.40	2.31	-37.3	-55.9	4.0	1.49e+00	0	54	104	0	44	33943
2026-01-30 08:25:45.11	116.15	2.54	-38.6	-56.6	3.8	1.49e+00	0	54	104	0	46	32857
2026-01-30 08:25:49.16	115.90	2.78	-33.7	-56.7	3.2	1.49e+00	0	54	104	0	44	37258
2026-01-30 08:25:53.20	115.64	3.02	-36.8	-56.0	3.9	1.49e+00	0	54	104	0	41	40732
2026-01-30 08:25:57.24	115.37	3.26	-33.8	-55.5	3.9	1.49e+00	0	55	104	0	45	30705
2026-01-30 08:26:01.28	115.10	3.50	-35.0	-55.5	4.1	1.50e+00	0	55	104	0	44	32185
2026-01-30 08:26:05.33	114.83	3.75	-37.4	-55.8	3.9	1.49e+00	0	55	104	0	44	33400
2026-01-30 08:26:09.37	114.55	3.99	-36.3	-56.3	4.0	1.49e+00	0	55	104	0	46	31783
2026-01-30 08:26:13.41	114.27	4.24	-38.0	-55.8	3.9	1.49e+00	0	55	104	0	43	35376
2026-01-30 08:26:17.45	113.98	4.49	-35.7	-54.4	4.1	1.49e+00	0	56	104	0	41	33775
2026-01-30 08:26:21.49	113.68	4.74	-37.0	-55.9	3.9	1.49e+00	0	56	104	0	45	32145
2026-01-30 08:26:25.54	113.39	4.99	-35.6	-56.6	3.9	1.49e+00	0	56	104	0	47	30808
2026-01-30 08:26:29.58	113.08	5.24	-36.2	-56.5	3.7	1.49e+00	0	56	104	0	46	32342
2026-01-30 08:26:33.62	112.77	5.50	-37.3	-56.7	3.9	1.49e+00	0	57	104	0	46	33085
2026-01-30 08:26:37.66	112.46	5.75	-36.7	-55.9	4.0	1.49e+00	0	57	104	0	45	31822
2026-01-30 08:26:41.70	112.14	6.01	-36.6	-56.5	3.9	1.49e+00	0	57	104	0	46	32282
2026-01-30 08:26:45.74	111.81	6.27	-35.0	-55.0	3.9	1.49e+00	0	57	104	0	43	32233
2026-01-30 08:26:49.78	111.48	6.53	-35.4	-53.0	3.9	1.49e+00	0	57	104	0	38	34300
2026-01-30 08:26:53.82	111.14	6.80	-32.4	-52.2	4.0	1.42e+00	0	57	104	0	34	39334
2026-01-30 08:26:57.87	110.79	7.06	-36.6	-51.8	5.0	1.08e+00	26	58	0	2097152	46	18738
2026-01-30 08:27:01.91	110.44	7.33	-37.6	-49.4	5.9	6.68e-01	0	58	0	9437184	44	16026
2026-01-30 08:27:05.95	110.08	7.60	-38.4	-48.9	6.6	2.86e-01	0	58	0	16777216	45	14225
2026-01-30 08:27:09.99	109.72	7.87	-38.0	-49.8	6.2	4.21e-01	0	58	0	24117248	47	14097
2026-01-30 08:27:14.03	109.34	8.14	-38.4	-50.7	5.6	1.27e+00	4	58	0	28311552	47	15700
2026-01-30 08:27:18.08	108.96	8.41	-39.7	-48.8	6.9	4.95e-01	0	58	0	34603008	50	10546
2026-01-30 08:27:22.11	108.58	8.69	-40.5	-48.6	7.4	1.11e-01	0	59	0	42991616	51	9762
2026-01-30 08:27:26.16	108.18	8.97	-40.9	-48.0	8.0	9.77e-02	0	59	0	50331648	52	8661
2026-01-30 08:27:30.20	107.78	9.25	-39.6	-48.3	7.6	7.58e-02	0	59	0	57671680	49	10633
2026-01-30 08:27:34.24	107.37	9.53	-40.1	-49.4	6.5	2.39e-01	0	59	0	65011712	52	10150
2026-01-30 08:27:38.28	106.95	9.81	-41.1	-52.2	4.5	1.01e+00	19	59	0	72351744	50	15599
2026-01-30 08:27:42.32	106.52	10.10	-38.8	-48.5	6.9	2.22e-01	0	59	0	80740352	49	10832
2026-01-30 08:27:46.35	106.09	10.38	-39.5	-48.6	6.8	1.59e-01	0	59	0	88080384	46	13012
2026-01-30 08:27:50.39	105.64	10.67	-37.2	-49.0	5.9	4.91e-01	3	59	0	95420416	44	15297
2026-01-30 08:27:54.43	105.19	10.96	-34.9	-48.0	5.9	5.55e-01	6	59	0	102760448	38	19273
2026-01-30 08:27:58.47	104.73	11.25	-28.3	-46.2	5.2	7.95e-01	53	60	0	109051904	28	27899
2026-01-30 08:28:02.51	104.26	11.54	-27.3	-46.3	4.8	1.22e+00	3	60	0	113246208	26	31640
2026-01-30 08:28:06.55	103.77	11.84	-34.1	-46.5	5.4	8.74e-01	41	60	0	118489088	30	25779
2026-01-30 08:28:10.59	103.28	12.13	-28.8	-47.1	4.1	1.49e+00	0	60	104	119537664	26	34728
2026-01-30 08:28:14.63	102.78	12.43	-23.9	-45.2	3.8	1.49e+00	0	60	104	119537664	22	34927
2026-01-30 08:28:18.67	102.27	12.73	-25.2	-46.3	4.2	1.14e+00	0	60	104	119537664	24	35654
2026-01-30 08:28:22.71	101.74	13.03	-24.6	-45.0	4.0	1.49e+00	0	60	104	119537664	22	34458
2026-01-30 08:28:26.75	101.21	13.33	-27.4	-48.2	4.4	1.48e+00	0	60	104	119537664	31	29447
2026-01-30 08:28:30.79	100.67	13.63	-26.6	-48.3	4.3	1.49e+00	0	60	104	119537664	33	26652
2026-01-30 08:28:34.83	100.11	13.94	-30.2	-46.6	5.5	1.38e+00	30	60	0	119537664	34	20774
2026-01-30 08:28:38.87	99.54	14.24	-30.4	-46.1	6.3	8.26e-01	10	60	0	125829120	32	21772
2026-01-30 08:28:42.91	98.96	14.55	-35.4	-49.0	5.9	5.18e-01	3	61	0	133169152	40	19215
2026-01-30 08:28:46.94	98.37	14.86	-37.1	-48.3	7.7	9.18e-02	0	61	0	139460608	47	11937
2026-01-30 08:28:50.98	97.77	15.16	-42.1	-47.8	9.4	3.65e-02	0	61	0	146800640	54	7529
2026-01-30 08:28:55.02	97.15	15.47	-39.4	-48.1	8.9	2.07e-02	0	60	0	154140672	52	8689
2026-01-30 08:28:59.07	96.52	15.78	-42.1	-47.7	9.6	1.52e-02	0	61	0	162529280	55	7034
2026-01-30 08:29:03.11	95.87	16.09	-42.5	-48.0	9.4	1.65e-02	0	60	0	169869312	55	7231
2026-01-30 08:29:07.15	95.21	16.40	-42.5	-47.8	9.6	1.53e-02	0	61	0	177209344	55	7116
2026-01-30 08:29:11.19	94.54	16.71	-42.5	-48.0	9.5	1.55e-02	0	61	0	184549376	55	7224
2026-01-30 08:29:15.24	93.86	17.02	-42.7	-48.3	9.2	1.93e-02	0	61	0	192937984	55	7470
2026-01-30 08:29:19.28	93.16	17.33	-42.6	-47.9	9.6	1.33e-02	0	61	0	200278016	55	7159
2026-01-30 08:29:23.32	92.44	17.63	-42.6	-47.9	9.5	1.33e-02	0	61	0	207618048	55	7178
2026-01-30 08:29:27.36	91.71	17.94	-42.5	-47.7	9.7	9.86e-03	0	61	0	214958080	55	7021
2026-01-30 08:29:31.40	90.97	18.25	-42.4	-47.7	9.7	1.02e-02	0	61	0	222298112	55	6983
2026-01-30 08:29:35.44	90.21	18.55	-42.3	-47.7	9.5	1.39e-02	0	61	0	230686720	55	6989
2026-01-30 08:29:39.48	89.43	18.86	-42.0	-47.8	8.9	2.88e-02	0	61	0	238026752	55	7047
2026-01-30 08:29:43.52	88.64	19.16	-41.7	-48.2	7.7	6.72e-02	0	61	0	245366784	55	7403
2026-01-30 08:29:47.55	87.84	19.45	-41.1	-48.3	6.9	1.76e-01	0	61	0	252706816	54	7985
2026-01-30 08:29:51.59	87.02	19.75	-41.6	-49.3	6.2	4.12e-01	0	61	0	261095424	54	8947
2026-01-30 08:29:55.63	86.18	20.04	-41.4	-47.1	8.9	2.76e-02	0	61	0	268435456	54	6909
2026-01-30 08:29:59.67	85.32	20.34	-41.1	-46.0	10.4	6.48e-03	0	61	0	275775488	54	6067
2026-01-30 08:30:03.70	84.46	20.62	-41.4	-45.7	11.2	1.33e-03	0	61	0	283115520	54	5915
2026-01-30 08:30:07.75	83.57	20.91	-41.3	-45.4	11.9	4.52e-04	0	61	0	290455552	54	5670
2026-01-30 08:30:11.79	82.66	21.18	-41.4	-45.3	12.2	2.23e-04	0	62	0	298844160	54	5621
2026-01-30 08:30:15.83	81.74	21.46	-41.5	-45.5	12.1	2.83e-04	0	61	0	306184192	54	5724
2026-01-30 08:30:19.86	80.81	21.73	-41.4	-45.2	12.5	1.05e-04	0	61	0	313524224	54	5553
2026-01-30 08:30:23.90	79.86	21.99	-41.5	-45.3	12.4	1.56e-04	0	61	0	320864256	54	5649
2026-01-30 08:30:27.94	78.89	22.25	-41.5	-45.4	12.3	1.73e-04	0	61	0	329252864	54	5662
2026-01-30 08:30:31.99	77.90	22.50	-41.5	-45.4	12.4	1.66e-04	0	61	0	336592896	54	5664
2026-01-30 08:30:36.03	76.90	22.74	-41.4	-45.1	12.6	1.17e-04	0	62	0	343932928	54	5493
2026-01-30 08:30:40.07	75.88	22.98	-41.5	-45.3	12.5	1.17e-04	0	61	0	351272960	54	5594
2026-01-30 08:30:44.11	74.85	23.21	-41.3	-44.9	12.8	6.25e-05	0	62	0	358612992	54	5388
2026-01-30 08:30:48.15	73.81	23.43	-41.2	-44.6	13.1	2.97e-05	0	61	0	367001600	54	5196
2026-01-30 08:30:52.18	72.75	23.65	-41.1	-44.5	13.2	2.28e-05	0	62	0	374341632	54	5146
2026-01-30 08:30:56.22	71.67	23.85	-41.4	-45.0	12.8	5.64e-05	0	62	0	381681664	54	5420
2026-01-30 08:31:00.27	70.58	24.04	-41.6	-45.4	12.5	1.51e-04	0	62	0	389021696	54	5666
2026-01-30 08:31:04.30	69.48	24.23	-41.7	-45.5	12.4	1.11e-04	0	62	0	397410304	54	5724
2026-01-30 08:31:08.34	68.37	24.40	-41.9	-45.9	12.1	2.74e-04	0	62	0	404750336	54	5996
2026-01-30 08:31:12.39	67.24	24.56	-42.0	-46.1	11.8	4.02e-04	0	62	0	412090368	54	6197
2026-01-30 08:31:16.43	66.10	24.72	-42.2	-46.5	11.4	7.75e-04	0	61	0	419430400	55	6118
2026-01-30 08:31:20.47	64.95	24.86	-42.4	-46.9	11.0	1.57e-03	0	61	0	426770432	55	6419
2026-01-30 08:31:24.51	63.79	24.98	-42.3	-46.7	11.3	1.18e-03	0	62	0	435159040	55	6211
2026-01-30 08:31:28.55	62.62	25.10	-42.4	-46.8	11.1	1.56e-03	0	62	0	442499072	55	6308
2026-01-30 08:31:32.59	61.45	25.20	-42.5	-47.2	10.7	3.03e-03	0	62	0	449839104	55	6644
2026-01-30 08:31:36.63	60.27	25.29	-42.4	-47.0	10.9	2.33e-03	0	62	0	457179136	55	6461
2026-01-30 08:31:40.67	59.08	25.37	-42.5	-47.0	10.9	2.09e-03	0	62	0	465567744	55	6464
2026-01-30 08:31:44.71	57.88	25.43	-42.6	-47.4	10.5	3.96e-03	0	62	0	472907776	55	6736
2026-01-30 08:31:48.75	56.68	25.49	-42.5	-47.0	10.9	2.13e-03	0	62	0	480247808	55	6457
2026-01-30 08:31:52.79	55.48	25.52	-42.3	-46.7	11.2	9.85e-04	0	62	0	487587840	55	6248
2026-01-30 08:31:56.83	54.28	25.54	-42.2	-46.3	11.7	8.67e-04	0	62	0	494927872	55	5978
2026-01-30 08:32:00.87	53.07	25.55	-42.0	-46.0	12.0	4.20e-04	0	62	0	503316480	55	5781
2026-01-30 08:32:04.91	51.87	25.55	-42.0	-45.8	12.2	2.37e-04	0	62	0	510656512	55	5655
2026-01-30 08:32:08.95	50.66	25.53	-41.6	-45.1	12.9	5.11e-05	0	62	0	517996544	55	5190
2026-01-30 08:32:12.99	49.46	25.50	-41.6	-45.1	12.9	3.35e-05	0	62	0	525336576	55	5205
2026-01-30 08:32:17.03	48.26	25.45	-41.6	-45.1	13.0	2.28e-05	0	62	0	533725184	54	5470
2026-01-30 08:32:21.07	47.07	25.39	-41.3	-44.6	13.5	1.22e-05	0	62	0	541065216	54	5192
2026-01-30 08:32:25.11	45.88	25.32	-41.4	-44.7	13.4	1.06e-05	0	62	0	548405248	54	5237
2026-01-30 08:32:29.15	44.70	25.23	-41.4	-44.8	13.3	9.90e-06	0	62	0	555745280	54	5318
2026-01-30 08:32:33.19	43.52	25.13	-41.6	-45.0	13.1	4.04e-05	0	62	0	564133888	54	5442
2026-01-30 08:32:37.23	42.35	25.02	-41.6	-45.1	13.0	4.27e-05	0	62	0	571473920	54	5511
2026-01-30 08:32:41.26	41.20	24.90	-41.8	-45.5	12.7	6.48e-05	0	62	0	578813952	54	5736
2026-01-30 08:32:45.30	40.05	24.76	-41.9	-45.8	12.3	2.03e-04	0	62	0	586153984	54	5936
2026-01-30 08:32:49.35	38.90	24.61	-41.9	-45.8	12.3	1.85e-04	0	62	0	593494016	54	5948
2026-01-30 08:32:53.39	37.78	24.45	-42.2	-46.3	11.8	4.47e-04	0	62	0	601882624	54	6296
2026-01-30 08:32:57.43	36.66	24.28	-42.3	-46.4	11.6	7.21e-04	0	62	0	609222656	55	6043
2026-01-30 08:33:01.47	35.56	24.10	-42.3	-46.6	11.4	1.05e-03	0	62	0	616562688	55	6192
2026-01-30 08:33:05.51	34.47	23.91	-42.4	-46.9	11.2	1.26e-03	0	62	0	623902720	55	6350
2026-01-30 08:33:09.55	33.39	23.71	-42.4	-46.9	11.1	1.71e-03	0	62	0	632291328	55	6348
2026-01-30 08:33:13.59	32.33	23.50	-42.3	-46.5	11.5	8.02e-04	0	62	0	639631360	55	6081
2026-01-30 08:33:17.63	31.28	23.29	-42.4	-46.9	11.1	1.53e-03	0	62	0	646971392	55	6361
2026-01-30 08:33:21.68	30.24	23.06	-42.4	-46.7	11.3	1.38e-03	0	62	0	654311424	55	6244
2026-01-30 08:33:25.72	29.23	22.82	-42.4	-46.7	11.3	1.22e-03	0	62	0	661651456	55	6219
2026-01-30 08:33:29.76	28.23	22.58	-42.4	-46.8	11.2	1.39e-03	0	62	0	670040064	55	6296
2026-01-30 08:33:33.80	27.24	22.33	-42.1	-46.1	11.9	4.06e-04	0	62	0	677380096	55	5809
2026-01-30 08:33:37.84	26.27	22.08	-42.0	-45.9	12.2	2.40e-04	0	62	0	684720128	55	5690
2026-01-30 08:33:41.88	25.32	21.82	-41.8	-45.6	12.4	1.43e-04	0	62	0	692060160	55	5471
2026-01-30 08:33:45.92	24.38	21.55	-41.8	-45.4	12.6	9.68e-05	0	62	0	700448768	55	5398
2026-01-30 08:33:49.95	23.46	21.28	-41.8	-45.5	12.5	1.21e-04	0	62	0	707788800	55	5451
2026-01-30 08:33:53.99	22.56	21.01	-41.8	-45.6	12.4	1.66e-04	0	62	0	715128832	55	5503
2026-01-30 08:33:58.04	21.67	20.72	-41.9	-45.8	12.1	2.55e-04	0	62	0	722468864	55	5654
2026-01-30 08:34:02.07	20.80	20.44	-41.7	-45.4	12.6	1.23e-04	0	62	0	729808896	55	5402
2026-01-30 08:34:06.11	19.94	20.15	-41.6	-45.2	12.8	8.69e-05	0	62	0	738197504	55	5271
2026-01-30 08:34:10.15	19.10	19.86	-41.6	-45.1	12.9	5.26e-05	0	62	0	745537536	55	5214
2026-01-30 08:34:14.19	18.28	19.57	-41.4	-44.9	13.2	4.19e-05	0	62	0	752877568	54	5350
2026-01-30 08:34:18.22	17.47	19.27	-41.4	-44.8	13.2	2.51e-05	0	62	0	760217600	54	5294
2026-01-30 08:34:22.26	16.68	18.97	-41.2	-44.5	13.5	7.60e-06	0	62	0	768606208	54	5122
2026-01-30 08:34:26.30	15.91	18.67	-41.3	-44.7	13.2	2.44e-05	0	62	0	775946240	54	5253
2026-01-30 08:34:30.34	15.15	18.37	-41.3	-44.7	13.2	1.60e-05	0	62	0	783286272	54	5254
2026-01-30 08:34:34.38	14.40	18.06	-41.0	-44.3	13.7	6.80e-06	0	62	0	790626304	54	4997
2026-01-30 08:34:38.42	13.67	17.76	-41.2	-44.5	13.5	6.80e-06	0	62	0	797966336	54	5120
2026-01-30 08:34:42.46	12.96	17.45	-41.1	-44.5	13.4	1.06e-05	0	62	0	806354944	54	5112
2026-01-30 08:34:46.50	12.26	17.14	-41.2	-44.6	13.3	2.05e-05	0	62	0	813694976	53	5470
2026-01-30 08:34:50.54	11.57	16.84	-41.3	-44.8	13.1	2.05e-05	0	62	0	821035008	53	5614
2026-01-30 08:34:54.57	10.91	16.53	-41.3	-44.8	13.0	3.43e-05	0	62	0	828375040	53	5623
2026-01-30 08:34:58.61	10.25	16.22	-41.5	-45.2	12.6	8.08e-05	0	62	0	836763648	53	5907
2026-01-30 08:35:02.65	9.60	15.91	-41.7	-45.6	12.1	2.73e-04	0	62	0	844103680	53	6163
2026-01-30 08:35:06.69	8.97	15.61	-41.7	-45.6	12.1	2.81e-04	0	62	0	851443712	53	6188
2026-01-30 08:35:10.74	8.35	15.30	-41.6	-45.6	12.0	3.28e-04	0	62	0	858783744	53	6159
2026-01-30 08:35:14.78	7.75	14.99	-41.7	-45.8	11.8	5.51e-04	0	62	0	866123776	53	6338
2026-01-30 08:35:18.82	7.16	14.69	-41.6	-45.8	11.6	6.29e-04	0	62	0	874512384	54	5987
2026-01-30 08:35:22.86	6.58	14.38	-41.7	-46.1	11.1	1.52e-03	0	62	0	881852416	54	6171
2026-01-30 08:35:26.90	6.01	14.08	-41.7	-46.5	10.5	4.21e-03	0	62	0	889192448	54	6442
2026-01-30 08:35:30.94	5.45	13.78	-41.4	-46.4	10.1	6.41e-03	0	62	0	896532480	54	6368
2026-01-30 08:35:34.97	4.91	13.47	-41.1	-46.5	9.4	1.38e-02	0	62	0	904921088	54	6441
2026-01-30 08:35:39.02	4.38	13.17	-41.3	-49.4	6.0	2.33e-01	0	62	0	912261120	54	8993
2026-01-30 08:35:43.06	3.86	12.87	-41.2	-53.6	3.8	1.45e+00	0	62	104	917504000	54	14660
2026-01-30 08:35:47.10	3.34	12.58	-41.2	-55.6	3.8	1.49e+00	0	62	104	917504000	53	19510
2026-01-30 08:35:51.14	2.84	12.28	-39.9	-54.2	3.8	1.49e+00	0	62	104	917504000	51	18715
2026-01-30 08:35:55.18	2.35	11.98	-40.0	-54.4	3.8	1.49e+00	0	62	104	917504000	51	18985
2026-01-30 08:35:59.22	1.87	11.69	-40.0	-54.4	3.8	1.49e+00	0	62	104	917504000	51	18983
2026-01-30 08:36:03.26	1.40	11.40	-39.9	-54.3	3.8	1.49e+00	0	62	104	917504000	51	18945
2026-01-30 08:36:07.30	0.94	11.11	-39.9	-54.3	3.8	1.49e+00	0	62	104	917504000	51	18939
2026-01-30 08:36:11.34	0.49	10.82	-39.9	-54.4	3.8	1.49e+00	0	62	104	917504000	51	18956
2026-01-30 08:36:15.38	0.05	10.53	-40.0	-54.4	3.8	1.49e+00	0	62	104	917504000	51	19023
2026-01-30 08:36:19.42	359.61	10.24	-40.0	-54.4	3.8	1.49e+00	0	62	104	917504000	51	19042
2026-01-30 08:36:23.46	359.19	9.96	-40.0	-54.4	3.8	1.49e+00	0	62	104	917504000	51	18955
2026-01-30 08:36:27.49	358.77	9.68	-39.9	-54.3	3.8	1.49e+00	0	62	104	917504000	51	18933
2026-01-30 08:36:31.53	358.36	9.40	-39.9	-54.3	3.8	1.49e+00	0	62	104	917504000	51	18883
2026-01-30 08:36:35.57	357.96	9.12	-39.9	-54.3	3.8	1.49e+00	0	62	104	917504000	51	18788
2026-01-30 08:36:39.61	357.57	8.84	-39.8	-54.2	3.8	1.49e+00	0	62	104	917504000	51	18707
2026-01-30 08:36:43.65	357.18	8.57	-39.8	-54.2	3.8	1.49e+00	0	62	104	917504000	51	18637
2026-01-30 08:36:47.69	356.81	8.29	-39.8	-54.2	3.8	1.49e+00	0	62	104	917504000	51	18725
2026-01-30 08:36:51.73	356.43	8.02	-39.9	-54.3	3.8	1.49e+00	0	62	104	917504000	51	18797
2026-01-30 08:36:55.77	356.07	7.75	-44.9	-59.7	3.8	1.49e+00	0	62	104	917504000	60	20787
2026-01-30 08:36:59.81	355.72	7.48	-45.3	-60.2	3.8	1.49e+00	0	62	104	917504000	61	20791
2026-01-30 08:37:03.85	355.37	7.22	-42.4	-59.9	3.8	1.49e+00	0	62	104	917504000	59	22720
2026-01-30 08:37:07.90	355.02	6.95	-45.0	-59.9	3.8	1.49e+00	0	62	104	917504000	60	21426
2026-01-30 08:37:11.94	354.69	6.69	-45.0	-59.8	3.8	1.49e+00	0	62	104	917504000	60	21204
2026-01-30 08:37:15.98	354.35	6.43	-44.9	-59.8	3.8	1.49e+00	0	62	104	917504000	60	21189
2026-01-30 08:37:20.02	354.03	6.17	-44.9	-59.8	3.8	1.49e+00	0	62	104	917504000	60	21188
2026-01-30 08:37:24.07	353.71	5.91	-45.0	-59.8	3.8	1.49e+00	0	62	104	917504000	60	21215
2026-01-30 08:37:28.11	353.40	5.65	-44.9	-59.8	3.8	1.49e+00	0	62	104	917504000	60	21053
2026-01-30 08:37:32.15	353.09	5.40	-44.9	-59.8	3.8	1.49e+00	0	62	104	917504000	60	21107
2026-01-30 08:37:36.20	352.79	5.15	-44.9	-59.8	3.8	1.49e+00	0	62	104	917504000	60	21129
2026-01-30 08:37:40.24	352.50	4.89	-44.9	-59.8	3.8	1.49e+00	0	62	104	917504000	60	21064
2026-01-30 08:37:44.28	352.20	4.64	-44.9	-59.8	3.8	1.49e+00	0	62	104	917504000	60	21116
2026-01-30 08:37:48.32	351.92	4.40	-44.9	-59.8	3.8	1.49e+00	0	62	104	917504000	60	21117
2026-01-30 08:37:52.36	351.64	4.15	-44.9	-59.8	3.8	1.49e+00	0	62	104	917504000	60	21081
2026-01-30 08:37:56.41	351.36	3.90	-44.9	-59.8	3.8	1.49e+00	0	62	104	917504000	60	21117
2026-01-30 08:38:00.43	351.09	3.66	-44.6	-59.8	3.8	1.49e+00	0	62	104	917504000	60	21081
2026-01-30 08:38:04.47	350.83	3.42	-44.7	-59.8	3.8	1.49e+00	0	62	104	917504000	60	21090
2026-01-30 08:38:08.52	350.57	3.18	-44.8	-59.7	3.8	1.49e+00	0	62	104	917504000	60	20989
2026-01-30 08:38:12.56	350.31	2.94	-44.9	-59.8	3.8	1.49e+00	0	62	104	917504000	60	21071
2026-01-30 08:38:16.60	350.06	2.70	-44.9	-59.8	3.8	1.49e+00	0	62	104	917504000	60	21062
2026-01-30 08:38:20.64	349.81	2.47	-44.5	-59.6	3.8	1.49e+00	0	62	104	917504000	59	21957
2026-01-30 08:38:24.68	349.57	2.23	-44.9	-59.7	3.8	1.49e+00	0	62	104	917504000	60	21004
2026-01-30 08:38:28.72	349.33	2.00	-44.9	-59.7	3.8	1.49e+00	0	62	104	917504000	60	21007

#Closed at: 2026-01-30 08:38:30
#Recorded file [917 MB]: D:/lorett/data/31039_260130_112536.dat