passes_logs/2026/01/30/R2.0S_Moscow/R2.0S_Moscow__20260130_013402_SUOMI_NPP_rec.log

#Pass ID: 20260130_013402_SUOMI NPP
#Satellite: SUOMI NPP
#Configuration: NPP
#almurnet v.1.7.20251203
#Start time: 2026-01-30 01:34:02

#Version: 2.2.20231116
#Station: R2.0S_Moscow
#Location: 37.707566 lon 55.798166 lat
#TLE: 1 37849U 11061A   26028.91916408  .00000155  00000+0  94467-4 0  9990
#TLE: 2 37849  98.7824 330.8488 0002045  39.4457 320.6868 14.19531289738686

#Time	Az	El	Level	Level2	SNR	BER	BlckErr	Temp	State	Recorded	gain1	gain2
2026-01-30 01:34:02.54	9.89	2.00	-39.8	-54.2	3.8	1.49e+00	0	51	0	0	51	18646
2026-01-30 01:34:05.56	9.68	2.16	-39.8	-54.2	3.8	1.49e+00	0	52	104	0	51	18630
2026-01-30 01:34:08.60	9.47	2.33	-39.8	-54.2	3.8	1.49e+00	0	52	104	0	51	18519
2026-01-30 01:34:11.63	9.25	2.50	-39.8	-54.2	3.8	1.49e+00	0	52	104	0	51	18560
2026-01-30 01:34:14.66	9.04	2.67	-39.8	-54.1	3.8	1.49e+00	0	52	104	0	51	18513
2026-01-30 01:34:17.69	8.81	2.84	-39.8	-54.2	3.8	1.49e+00	0	52	104	0	51	18556
2026-01-30 01:34:20.72	8.59	3.01	-39.7	-54.2	3.8	1.49e+00	0	53	104	0	51	18530
2026-01-30 01:34:23.75	8.36	3.18	-39.7	-54.2	3.8	1.49e+00	0	53	104	0	51	18523
2026-01-30 01:34:26.78	8.13	3.35	-39.7	-54.2	3.8	1.49e+00	0	53	104	0	51	18537
2026-01-30 01:34:29.81	7.90	3.52	-39.7	-54.1	3.8	1.49e+00	0	53	104	0	51	18481
2026-01-30 01:34:32.85	7.67	3.69	-39.7	-54.2	3.8	1.49e+00	0	53	104	0	51	18546
2026-01-30 01:34:35.88	7.43	3.86	-39.7	-54.2	3.8	1.49e+00	0	53	104	0	51	18536
2026-01-30 01:34:38.91	7.19	4.04	-39.7	-54.2	3.8	1.49e+00	0	54	104	0	51	18541
2026-01-30 01:34:41.94	6.94	4.21	-39.7	-54.1	3.8	1.49e+00	0	54	104	0	51	18467
2026-01-30 01:34:44.97	6.69	4.39	-39.7	-54.1	3.8	1.49e+00	0	54	104	0	51	18502
2026-01-30 01:34:48.00	6.44	4.56	-39.7	-54.1	3.8	1.49e+00	0	54	104	0	51	18505
2026-01-30 01:34:51.03	6.19	4.74	-39.7	-54.2	3.8	1.49e+00	0	55	104	0	51	18523
2026-01-30 01:34:54.06	5.93	4.92	-39.7	-54.2	3.8	1.49e+00	0	55	104	0	51	18533
2026-01-30 01:34:57.09	5.67	5.09	-39.7	-54.1	3.8	1.49e+00	0	55	104	0	51	18449
2026-01-30 01:35:00.12	5.41	5.27	-39.7	-54.1	3.8	1.49e+00	0	55	104	0	51	18510
2026-01-30 01:35:03.16	5.14	5.45	-39.7	-54.1	3.8	1.49e+00	0	55	104	0	51	18427
2026-01-30 01:35:06.19	4.87	5.63	-39.7	-54.1	3.8	1.49e+00	0	55	104	0	51	18470
2026-01-30 01:35:09.22	4.60	5.81	-39.7	-54.1	3.8	1.49e+00	0	55	104	0	51	18407
2026-01-30 01:35:12.25	4.32	5.99	-39.7	-54.1	3.8	1.49e+00	0	55	104	0	51	18473
2026-01-30 01:35:15.28	4.04	6.17	-39.7	-54.1	3.8	1.49e+00	0	56	104	0	51	18436
2026-01-30 01:35:18.31	3.76	6.35	-39.7	-54.1	3.8	1.49e+00	0	56	104	0	51	18416
2026-01-30 01:35:21.34	3.47	6.53	-39.7	-54.1	3.8	1.49e+00	0	56	104	0	51	18471
2026-01-30 01:35:24.37	3.18	6.72	-39.7	-54.1	3.8	1.49e+00	0	56	104	0	51	18424
2026-01-30 01:35:27.41	2.88	6.90	-39.7	-54.1	3.8	1.49e+00	0	56	104	0	51	18430
2026-01-30 01:35:30.44	2.58	7.08	-39.7	-54.1	3.8	1.49e+00	0	56	104	0	51	18473
2026-01-30 01:35:33.47	2.28	7.27	-39.7	-54.1	3.8	1.49e+00	0	56	104	0	51	18449
2026-01-30 01:35:36.50	1.97	7.45	-39.7	-54.1	3.8	1.49e+00	0	56	104	0	51	18485
2026-01-30 01:35:39.53	1.66	7.64	-39.7	-54.1	3.8	1.49e+00	0	56	104	0	51	18426
2026-01-30 01:35:42.56	1.34	7.82	-39.7	-54.1	3.8	1.49e+00	0	57	104	0	51	18508
2026-01-30 01:35:45.59	1.02	8.01	-39.7	-54.1	3.8	1.49e+00	0	57	104	0	51	18483
2026-01-30 01:35:48.61	0.70	8.20	-39.9	-54.3	3.8	1.49e+00	0	57	104	0	51	18837
2026-01-30 01:35:51.64	0.37	8.38	-39.9	-54.3	3.8	1.49e+00	0	57	104	0	51	18856
2026-01-30 01:35:54.67	0.04	8.57	-39.9	-54.3	3.8	1.49e+00	0	57	104	0	51	18743
2026-01-30 01:35:57.70	359.70	8.76	-39.9	-54.3	3.8	1.49e+00	0	57	104	0	51	18831
2026-01-30 01:36:00.73	359.36	8.95	-39.8	-54.3	3.8	1.49e+00	0	57	104	0	51	18770
2026-01-30 01:36:03.76	359.01	9.14	-39.8	-54.3	3.8	1.49e+00	0	57	104	0	51	18779
2026-01-30 01:36:06.79	358.66	9.33	-39.8	-54.3	3.8	1.49e+00	0	57	104	0	51	18736
2026-01-30 01:36:09.82	358.30	9.52	-39.8	-54.2	3.8	1.49e+00	0	57	104	0	51	18643
2026-01-30 01:36:12.85	357.94	9.71	-39.8	-54.2	3.8	1.49e+00	0	57	104	0	51	18541
2026-01-30 01:36:15.88	357.58	9.90	-39.8	-54.2	3.8	1.49e+00	0	57	104	0	51	18665
2026-01-30 01:36:18.91	357.21	10.09	-39.8	-54.2	3.8	1.49e+00	0	58	104	0	51	18616
2026-01-30 01:36:21.94	356.83	10.28	-39.8	-54.2	3.8	1.49e+00	0	58	104	0	51	18606
2026-01-30 01:36:24.97	356.45	10.47	-39.7	-54.2	3.8	1.49e+00	0	58	104	0	51	18524
2026-01-30 01:36:28.00	356.06	10.67	-40.1	-54.4	3.8	1.49e+00	0	58	104	0	51	19163
2026-01-30 01:36:31.03	355.67	10.86	-39.8	-54.2	3.8	1.49e+00	0	58	104	0	51	18618
2026-01-30 01:36:34.07	355.27	11.05	-40.1	-54.5	3.8	1.49e+00	0	58	104	0	51	19218
2026-01-30 01:36:37.10	354.87	11.24	-39.9	-54.3	3.8	1.49e+00	0	58	104	0	51	18813
2026-01-30 01:36:40.12	354.47	11.43	-40.4	-54.9	3.8	1.49e+00	0	58	104	0	51	20100
2026-01-30 01:36:43.15	354.05	11.63	-40.1	-54.5	3.8	1.49e+00	0	58	104	0	51	19227
2026-01-30 01:36:46.18	353.64	11.82	-40.4	-54.9	3.8	1.49e+00	0	58	104	0	51	20073
2026-01-30 01:36:49.21	353.21	12.01	-40.1	-54.6	3.8	1.49e+00	0	58	104	0	51	19415
2026-01-30 01:36:52.24	352.78	12.20	-40.4	-54.8	3.8	1.49e+00	0	58	104	0	51	20061
2026-01-30 01:36:55.28	352.34	12.40	-40.4	-54.9	3.8	1.49e+00	0	58	104	0	51	20082
2026-01-30 01:36:58.31	351.90	12.59	-40.6	-55.0	3.8	1.49e+00	0	58	104	0	51	20473
2026-01-30 01:37:01.33	351.46	12.78	-40.6	-55.1	3.8	1.49e+00	0	58	104	0	51	20554
2026-01-30 01:37:04.36	351.00	12.97	-40.6	-55.1	3.8	1.49e+00	0	59	104	0	51	20580
2026-01-30 01:37:07.39	350.54	13.16	-40.5	-55.0	3.8	1.49e+00	0	58	104	0	52	19222
2026-01-30 01:37:10.42	350.08	13.36	-40.7	-55.2	3.8	1.49e+00	0	59	104	0	52	19683
2026-01-30 01:37:13.45	349.61	13.55	-40.7	-55.1	3.8	1.49e+00	0	59	104	0	52	19591
2026-01-30 01:37:16.48	349.13	13.74	-40.8	-55.3	3.8	1.49e+00	0	59	104	0	52	19857
2026-01-30 01:37:19.51	348.64	13.93	-40.8	-55.3	3.8	1.49e+00	0	59	104	0	52	19865
2026-01-30 01:37:22.54	348.15	14.12	-41.1	-55.7	3.8	1.49e+00	0	59	104	0	53	19629
2026-01-30 01:37:25.58	347.66	14.31	-41.2	-55.7	3.8	1.49e+00	0	59	104	0	53	19787
2026-01-30 01:37:28.61	347.15	14.49	-41.2	-55.7	3.8	1.49e+00	0	59	104	0	53	19821
2026-01-30 01:37:31.64	346.64	14.68	-41.4	-55.9	3.8	1.49e+00	0	59	104	0	53	20214
2026-01-30 01:37:34.67	346.13	14.87	-41.3	-55.8	3.8	1.49e+00	0	59	104	0	53	20030
2026-01-30 01:37:37.70	345.60	15.05	-40.8	-55.2	3.8	1.49e+00	0	59	104	0	53	18720
2026-01-30 01:37:40.73	345.07	15.24	-40.7	-55.2	3.8	1.49e+00	0	59	104	0	53	18518
2026-01-30 01:37:43.76	344.54	15.42	-40.8	-55.2	3.8	1.49e+00	0	59	104	0	53	18622
2026-01-30 01:37:46.79	343.99	15.60	-40.8	-55.2	3.8	1.49e+00	0	59	104	0	53	18712
2026-01-30 01:37:49.82	343.44	15.78	-40.5	-55.0	3.8	1.49e+00	0	59	104	0	53	18110
2026-01-30 01:37:52.85	342.89	15.96	-40.5	-55.0	3.8	1.49e+00	0	59	104	0	53	18100
2026-01-30 01:37:55.88	342.32	16.14	-40.5	-54.9	3.8	1.49e+00	0	59	104	0	52	19085
2026-01-30 01:37:58.91	341.75	16.31	-40.5	-55.0	3.8	1.49e+00	0	59	104	0	52	19197
2026-01-30 01:38:01.92	341.18	16.49	-40.3	-54.7	3.8	1.49e+00	0	59	104	0	52	18613
2026-01-30 01:38:04.95	340.59	16.66	-40.3	-54.7	3.8	1.49e+00	0	60	104	0	52	18567
2026-01-30 01:38:07.98	340.00	16.83	-40.5	-54.7	3.8	1.49e+00	0	59	104	0	52	18580
2026-01-30 01:38:11.00	339.41	17.00	-40.4	-53.8	3.8	1.49e+00	0	60	104	0	52	16864
2026-01-30 01:38:14.03	338.80	17.16	-41.5	-47.2	9.0	4.15e-02	0	60	0	3145728	53	7436
2026-01-30 01:38:17.06	338.19	17.33	-41.4	-46.2	10.6	4.68e-03	0	59	0	9437184	53	6619
2026-01-30 01:38:20.08	337.58	17.49	-41.6	-46.2	10.8	2.05e-03	0	59	0	14680064	53	6645
2026-01-30 01:38:23.11	336.95	17.65	-41.7	-46.1	11.2	1.42e-03	0	59	0	20971520	54	6180
2026-01-30 01:38:26.14	336.32	17.81	-41.7	-46.2	11.4	1.12e-03	0	60	0	26214400	54	6212
2026-01-30 01:38:29.17	335.68	17.96	-41.9	-46.5	11.1	1.47e-03	0	59	0	32505856	54	6466
2026-01-30 01:38:32.20	335.04	18.11	-41.9	-46.4	11.1	2.15e-03	0	60	0	37748736	54	6417
2026-01-30 01:38:35.22	334.39	18.26	-41.6	-45.8	11.9	5.93e-04	0	60	0	42991616	54	5954
2026-01-30 01:38:38.25	333.73	18.41	-41.8	-46.1	11.6	5.84e-04	0	60	0	49283072	54	6147
2026-01-30 01:38:41.28	333.07	18.55	-41.5	-45.5	12.2	2.79e-04	0	60	0	54525952	54	5730
2026-01-30 01:38:44.31	332.40	18.69	-41.3	-45.0	12.7	6.25e-05	0	60	0	60817408	54	5425
2026-01-30 01:38:47.34	331.72	18.83	-41.2	-44.9	12.8	5.34e-05	0	60	0	66060288	54	5352
2026-01-30 01:38:50.37	331.04	18.96	-41.2	-44.8	12.9	3.28e-05	0	60	0	71303168	54	5321
2026-01-30 01:38:53.40	330.35	19.09	-41.5	-45.4	12.4	1.17e-04	0	60	0	77594624	54	5669
2026-01-30 01:38:56.42	329.66	19.21	-41.8	-46.1	11.7	4.97e-04	0	60	0	82837504	54	6146
2026-01-30 01:38:59.45	328.96	19.34	-41.6	-45.5	12.3	1.74e-04	0	60	0	89128960	54	5733
2026-01-30 01:39:02.48	328.25	19.45	-41.5	-45.4	12.4	1.33e-04	0	60	0	94371840	54	5686
2026-01-30 01:39:05.51	327.54	19.57	-41.6	-45.5	12.3	2.32e-04	0	60	0	100663296	54	5744
2026-01-30 01:39:08.54	326.82	19.68	-41.1	-44.6	13.2	3.50e-05	0	60	0	105906176	54	5168
2026-01-30 01:39:11.57	326.10	19.78	-41.1	-44.5	13.3	1.14e-05	0	60	0	111149056	53	5406
2026-01-30 01:39:14.60	325.38	19.88	-41.3	-44.9	12.9	8.77e-05	0	60	0	117440512	53	5721
2026-01-30 01:39:17.62	324.65	19.98	-41.1	-44.5	13.2	1.60e-05	0	60	0	122683392	53	5425
2026-01-30 01:39:20.65	323.91	20.07	-41.3	-44.9	12.9	2.36e-05	0	60	0	128974848	53	5673
2026-01-30 01:39:23.68	323.17	20.16	-41.7	-45.8	11.9	3.30e-04	0	60	0	134217728	54	5983
2026-01-30 01:39:26.71	322.43	20.24	-41.7	-45.7	12.0	3.49e-04	0	60	0	139460608	54	5900
2026-01-30 01:39:29.74	321.68	20.32	-41.8	-46.0	11.8	4.23e-04	0	60	0	145752064	54	6100
2026-01-30 01:39:32.76	320.93	20.39	-42.2	-46.9	10.8	2.58e-03	0	60	0	150994944	55	6365
2026-01-30 01:39:35.79	320.17	20.46	-42.1	-46.7	11.1	1.80e-03	0	60	0	157286400	55	6205
2026-01-30 01:39:38.82	319.41	20.52	-41.7	-45.7	12.0	2.88e-04	0	60	0	162529280	55	5577
2026-01-30 01:39:41.85	318.65	20.58	-42.1	-46.6	11.1	1.15e-03	0	60	0	168820736	55	6153
2026-01-30 01:39:44.88	317.89	20.63	-42.4	-47.6	10.1	7.43e-03	0	60	0	174063616	55	6900
2026-01-30 01:39:47.91	317.12	20.68	-42.0	-46.6	11.1	1.74e-03	0	60	0	179306496	55	6155
2026-01-30 01:39:50.94	316.35	20.72	-42.0	-46.5	11.2	1.31e-03	0	60	0	185597952	55	6111
2026-01-30 01:39:53.97	315.58	20.76	-42.4	-47.4	10.2	5.80e-03	0	60	0	190840832	55	6788
2026-01-30 01:39:56.99	314.81	20.79	-41.9	-46.3	11.3	1.20e-03	0	60	0	197132288	55	5982
2026-01-30 01:40:00.03	314.03	20.82	-41.9	-46.2	11.5	4.90e-04	0	60	0	202375168	55	5875
2026-01-30 01:40:03.05	313.26	20.84	-42.2	-47.1	10.6	4.32e-03	0	60	0	207618048	55	6531
2026-01-30 01:40:06.08	312.48	20.85	-42.5	-47.9	9.7	9.26e-03	0	60	0	213909504	55	7202
2026-01-30 01:40:09.11	311.70	20.86	-42.2	-47.1	10.5	4.70e-03	0	60	0	219152384	55	6545
2026-01-30 01:40:12.13	310.93	20.86	-42.1	-46.8	10.9	2.44e-03	0	60	0	225443840	55	6310
2026-01-30 01:40:15.17	310.14	20.86	-42.0	-46.5	11.2	1.45e-03	0	60	0	230686720	55	6123
2026-01-30 01:40:18.20	309.37	20.85	-41.8	-46.1	11.5	6.83e-04	0	61	0	236978176	55	5812
2026-01-30 01:40:21.23	308.59	20.84	-41.6	-45.7	11.9	4.07e-04	0	60	0	242221056	55	5583
2026-01-30 01:40:24.26	307.81	20.82	-41.8	-46.1	11.7	4.78e-04	0	60	0	247463936	55	5790
2026-01-30 01:40:27.29	307.04	20.80	-42.2	-46.9	10.8	2.23e-03	0	60	0	253755392	55	6392
2026-01-30 01:40:30.32	306.26	20.77	-42.4	-47.6	10.0	6.63e-03	0	61	0	258998272	55	6930
2026-01-30 01:40:33.35	305.49	20.73	-42.0	-46.4	11.2	1.74e-03	0	61	0	265289728	55	6057
2026-01-30 01:40:36.37	304.72	20.69	-41.5	-45.4	12.3	1.60e-04	0	60	0	270532608	55	5381
2026-01-30 01:40:39.40	303.95	20.64	-41.4	-45.2	12.6	9.99e-05	0	60	0	275775488	54	5572
2026-01-30 01:40:42.43	303.19	20.59	-41.3	-44.9	12.8	1.23e-04	0	60	0	282066944	54	5382
2026-01-30 01:40:45.46	302.42	20.53	-41.5	-45.2	12.5	8.39e-05	0	60	0	287309824	54	5587
2026-01-30 01:40:48.49	301.66	20.47	-41.6	-45.4	12.3	2.07e-04	0	60	0	293601280	54	5718
2026-01-30 01:40:51.52	300.91	20.40	-41.4	-45.0	12.8	5.95e-05	0	61	0	298844160	54	5425
2026-01-30 01:40:54.55	300.15	20.33	-41.2	-44.6	13.2	2.05e-05	0	60	0	305135616	54	5198
2026-01-30 01:40:57.57	299.41	20.26	-41.2	-44.6	13.1	2.67e-05	0	60	0	310378496	54	5189
2026-01-30 01:41:00.60	298.66	20.17	-41.4	-45.1	12.6	7.01e-05	0	60	0	315621376	54	5504
2026-01-30 01:41:03.63	297.92	20.09	-41.5	-45.2	12.6	9.53e-05	0	60	0	321912832	54	5553
2026-01-30 01:41:06.66	297.18	20.00	-41.6	-45.4	12.4	1.38e-04	0	60	0	327155712	54	5667
2026-01-30 01:41:09.69	296.44	19.90	-41.5	-45.2	12.5	1.11e-04	0	61	0	333447168	54	5573
2026-01-30 01:41:12.71	295.72	19.80	-41.9	-46.0	11.7	5.99e-04	0	60	0	338690048	54	6111
2026-01-30 01:41:15.74	294.99	19.69	-42.3	-46.9	10.7	2.84e-03	0	60	0	343932928	55	6394
2026-01-30 01:41:18.77	294.28	19.58	-42.1	-46.5	11.2	1.55e-03	0	61	0	350224384	55	6087
2026-01-30 01:41:21.80	293.56	19.47	-42.1	-46.5	11.2	1.16e-03	0	61	0	355467264	55	6097
2026-01-30 01:41:24.83	292.85	19.35	-42.2	-46.8	10.8	1.69e-03	0	61	0	361758720	55	6320
2026-01-30 01:41:27.85	292.15	19.23	-42.4	-47.2	10.3	3.19e-03	0	60	0	367001600	55	6644
2026-01-30 01:41:30.88	291.46	19.11	-42.4	-47.4	10.2	5.46e-03	0	60	0	372244480	55	6747
2026-01-30 01:41:33.91	290.76	18.98	-42.2	-46.8	10.9	2.59e-03	0	60	0	378535936	55	6282
2026-01-30 01:41:36.94	290.08	18.85	-42.0	-46.2	11.5	9.92e-04	0	60	0	383778816	55	5919
2026-01-30 01:41:39.97	289.40	18.71	-42.1	-46.6	11.0	1.70e-03	0	61	0	390070272	55	6190
2026-01-30 01:41:43.00	288.73	18.57	-42.0	-46.3	11.3	1.56e-03	0	61	0	395313152	55	5971
2026-01-30 01:41:46.02	288.06	18.43	-41.8	-45.8	11.9	5.48e-04	0	60	0	401604608	55	5622
2026-01-30 01:41:49.05	287.40	18.28	-41.4	-45.0	12.7	1.64e-04	0	61	0	406847488	54	5433
2026-01-30 01:41:52.08	286.75	18.13	-41.5	-45.2	12.5	1.07e-04	0	61	0	412090368	54	5589
2026-01-30 01:41:55.11	286.10	17.98	-41.5	-45.3	12.3	1.56e-04	0	61	0	418381824	54	5639
2026-01-30 01:41:58.14	285.46	17.83	-42.2	-46.9	10.7	2.30e-03	0	61	0	423624704	55	6396
2026-01-30 01:42:01.17	284.82	17.67	-42.5	-47.7	9.9	9.41e-03	0	61	0	429916160	55	6967
2026-01-30 01:42:04.20	284.20	17.51	-42.3	-47.3	10.3	5.41e-03	0	60	0	435159040	55	6655
2026-01-30 01:42:07.22	283.58	17.35	-42.6	-48.0	9.5	1.25e-02	0	61	0	440401920	55	7237
2026-01-30 01:42:10.25	282.96	17.18	-42.8	-48.3	9.2	2.94e-02	0	61	0	446693376	56	7104
2026-01-30 01:42:13.28	282.35	17.02	-42.6	-47.7	10.0	1.33e-02	0	60	0	451936256	56	6606
2026-01-30 01:42:16.31	281.75	16.85	-42.0	-46.4	11.3	1.28e-03	0	60	0	458227712	56	5666
2026-01-30 01:42:19.34	281.16	16.68	-41.7	-45.7	11.9	5.61e-04	0	61	0	463470592	55	5567
2026-01-30 01:42:22.37	280.57	16.50	-41.7	-45.9	11.7	6.31e-04	0	61	0	468713472	55	5667
2026-01-30 01:42:25.40	279.99	16.33	-42.1	-46.7	10.8	2.15e-03	0	61	0	475004928	55	6267
2026-01-30 01:42:28.43	279.42	16.15	-42.1	-46.9	10.6	4.98e-03	0	61	0	480247808	55	6358
2026-01-30 01:42:31.46	278.85	15.97	-41.7	-45.8	11.7	6.87e-04	0	60	0	486539264	55	5629
2026-01-30 01:42:34.49	278.29	15.80	-41.9	-46.3	11.2	1.17e-03	0	61	0	491782144	55	5959
2026-01-30 01:42:37.52	277.74	15.61	-42.4	-47.5	9.9	5.89e-03	0	61	0	498073600	55	6876
2026-01-30 01:42:40.55	277.19	15.43	-42.6	-48.2	9.2	2.27e-02	0	61	0	503316480	55	7441
2026-01-30 01:42:43.58	276.65	15.25	-42.6	-48.1	9.4	1.84e-02	0	61	0	508559360	55	7298
2026-01-30 01:42:46.61	276.12	15.06	-42.4	-47.6	9.9	9.16e-03	0	61	0	514850816	55	6905
2026-01-30 01:42:49.64	275.59	14.88	-42.4	-47.6	9.8	1.15e-02	0	61	0	520093696	55	6937
2026-01-30 01:42:52.67	275.07	14.69	-42.3	-47.5	9.9	8.26e-03	0	61	0	526385152	55	6812
2026-01-30 01:42:55.70	274.56	14.51	-42.3	-47.3	10.1	7.51e-03	0	60	0	531628032	55	6707
2026-01-30 01:42:58.73	274.05	14.32	-42.7	-48.5	8.9	2.05e-02	0	61	0	536870912	55	7640
2026-01-30 01:43:01.76	273.55	14.13	-42.6	-48.1	9.2	2.50e-02	0	61	0	543162368	55	7334
2026-01-30 01:43:04.78	273.06	13.94	-42.3	-47.3	10.1	9.43e-03	0	61	0	548405248	55	6702
2026-01-30 01:43:07.81	272.57	13.75	-42.1	-47.0	10.4	3.92e-03	0	61	0	554696704	55	6430
2026-01-30 01:43:10.84	272.09	13.56	-42.2	-47.2	10.2	5.95e-03	0	60	0	559939584	55	6592
2026-01-30 01:43:13.87	271.61	13.37	-42.3	-47.6	9.8	9.43e-03	0	61	0	566231040	55	6897
2026-01-30 01:43:16.89	271.14	13.18	-42.3	-47.5	9.9	9.84e-03	0	61	0	571473920	55	6824
2026-01-30 01:43:19.92	270.68	12.98	-42.1	-47.1	10.2	5.30e-03	0	61	0	576716800	55	6503
2026-01-30 01:43:22.95	270.22	12.79	-41.9	-46.5	10.9	2.53e-03	0	61	0	583008256	55	6097
2026-01-30 01:43:25.98	269.77	12.60	-41.9	-46.4	11.0	1.77e-03	0	61	0	588251136	55	6008
2026-01-30 01:43:29.01	269.33	12.41	-41.5	-45.6	11.7	6.29e-04	0	61	0	594542592	55	5526
2026-01-30 01:43:32.04	268.89	12.21	-41.3	-45.2	12.1	2.27e-04	0	61	0	599785472	54	5566
2026-01-30 01:43:35.08	268.45	12.02	-41.4	-45.5	11.9	4.05e-04	0	61	0	605028352	54	5724
2026-01-30 01:43:38.11	268.02	11.83	-41.7	-46.1	11.3	1.13e-03	0	61	0	611319808	54	6152
2026-01-30 01:43:41.14	267.60	11.63	-41.8	-46.4	10.9	2.37e-03	0	61	0	616562688	54	6412
2026-01-30 01:43:44.17	267.19	11.44	-41.8	-46.3	10.9	2.48e-03	0	61	0	622854144	54	6344
2026-01-30 01:43:47.20	266.77	11.25	-41.6	-45.9	11.3	1.09e-03	0	61	0	628097024	54	6049
2026-01-30 01:43:50.23	266.37	11.05	-41.5	-45.7	11.5	9.09e-04	0	61	0	634388480	54	5922
2026-01-30 01:43:53.26	265.97	10.86	-41.5	-45.9	11.3	1.20e-03	0	61	0	639631360	54	6015
2026-01-30 01:43:56.30	265.57	10.67	-41.6	-46.1	11.0	1.73e-03	0	61	0	644874240	54	6154
2026-01-30 01:43:59.33	265.18	10.47	-41.8	-46.6	10.5	3.84e-03	0	61	0	651165696	54	6564
2026-01-30 01:44:02.35	264.80	10.28	-42.0	-47.1	9.9	8.63e-03	0	61	0	656408576	54	6931
2026-01-30 01:44:05.39	264.42	10.09	-42.1	-47.5	9.5	1.26e-02	0	61	0	662700032	54	7267
2026-01-30 01:44:08.42	264.05	9.90	-41.9	-47.0	9.9	1.04e-02	0	61	0	667942912	54	6869
2026-01-30 01:44:11.45	263.68	9.71	-41.6	-46.3	10.7	2.71e-03	0	61	0	674234368	54	6323
2026-01-30 01:44:14.47	263.31	9.52	-41.5	-46.1	10.9	2.52e-03	0	61	0	679477248	54	6142
2026-01-30 01:44:17.50	262.95	9.33	-41.6	-46.2	10.8	2.62e-03	0	61	0	684720128	54	6269
2026-01-30 01:44:20.53	262.60	9.14	-41.9	-47.0	9.9	8.59e-03	0	61	0	691011584	54	6874
2026-01-30 01:44:23.56	262.25	8.95	-42.0	-47.5	9.4	1.40e-02	0	61	0	696254464	54	7227
2026-01-30 01:44:26.59	261.90	8.76	-42.1	-47.6	9.4	1.46e-02	0	61	0	702545920	54	7304
2026-01-30 01:44:29.62	261.56	8.57	-41.9	-47.1	9.9	1.24e-02	0	61	0	707788800	54	6905
2026-01-30 01:44:32.65	261.23	8.38	-41.9	-46.9	10.1	6.99e-03	0	61	0	713031680	54	6742
2026-01-30 01:44:35.68	260.89	8.19	-42.0	-47.4	9.6	8.47e-03	0	61	0	719323136	54	7137
2026-01-30 01:44:38.71	260.57	8.00	-43.3	-51.4	6.4	1.91e-02	0	61	0	724566016	57	9525
2026-01-30 01:44:41.74	260.24	7.82	-44.8	-59.5	3.8	1.49e+00	0	61	104	724566016	60	20516
2026-01-30 01:44:44.77	259.92	7.63	-45.0	-59.8	3.8	1.49e+00	0	61	104	724566016	60	21103
2026-01-30 01:44:47.80	259.61	7.44	-44.9	-59.7	3.8	1.49e+00	0	61	104	724566016	60	20941
2026-01-30 01:44:50.83	259.30	7.26	-44.9	-59.7	3.8	1.49e+00	0	61	104	724566016	60	21015
2026-01-30 01:44:53.87	258.99	7.07	-45.0	-59.8	3.8	1.49e+00	0	61	104	724566016	60	21130
2026-01-30 01:44:56.90	258.68	6.89	-45.0	-59.8	3.8	1.49e+00	0	61	104	724566016	60	21191
2026-01-30 01:44:59.93	258.39	6.71	-44.9	-59.8	3.8	1.49e+00	0	61	104	724566016	60	21025
2026-01-30 01:45:02.96	258.09	6.52	-44.9	-59.7	3.8	1.49e+00	0	61	104	724566016	60	20811
2026-01-30 01:45:06.00	257.80	6.34	-44.9	-59.7	3.8	1.49e+00	0	61	104	724566016	60	20926
2026-01-30 01:45:09.03	257.51	6.16	-44.9	-59.7	3.8	1.49e+00	0	61	104	724566016	60	20844
2026-01-30 01:45:12.06	257.22	5.98	-44.8	-59.7	3.8	1.49e+00	0	61	104	724566016	60	20836
2026-01-30 01:45:15.09	256.94	5.80	-44.8	-59.7	3.8	1.49e+00	0	61	104	724566016	60	20855
2026-01-30 01:45:18.12	256.67	5.62	-44.8	-59.7	3.8	1.49e+00	0	61	104	724566016	60	20829
2026-01-30 01:45:21.15	256.39	5.44	-44.8	-59.7	3.8	1.49e+00	0	61	104	724566016	60	20810
2026-01-30 01:45:24.18	256.12	5.26	-44.8	-59.7	3.8	1.49e+00	0	61	104	724566016	60	20809
2026-01-30 01:45:27.21	255.86	5.08	-44.8	-59.7	3.8	1.49e+00	0	61	104	724566016	60	20844
2026-01-30 01:45:30.24	255.59	4.90	-44.8	-59.7	3.8	1.49e+00	0	61	104	724566016	60	20840
2026-01-30 01:45:33.28	255.33	4.72	-44.8	-59.7	3.8	1.49e+00	0	61	104	724566016	60	20863
2026-01-30 01:45:36.31	255.07	4.55	-44.8	-59.7	3.8	1.49e+00	0	61	104	724566016	60	20899
2026-01-30 01:45:39.34	254.82	4.37	-44.8	-59.7	3.8	1.49e+00	0	61	104	724566016	60	20858
2026-01-30 01:45:42.37	254.57	4.20	-44.8	-59.7	3.8	1.49e+00	0	61	104	724566016	60	20781
2026-01-30 01:45:45.40	254.32	4.02	-44.8	-59.6	3.8	1.49e+00	0	61	104	724566016	60	20760
2026-01-30 01:45:48.43	254.08	3.85	-44.8	-59.6	3.8	1.49e+00	0	61	104	724566016	60	20709
2026-01-30 01:45:51.46	253.83	3.67	-44.8	-59.6	3.8	1.49e+00	0	61	104	724566016	60	20732
2026-01-30 01:45:54.49	253.60	3.50	-44.8	-59.6	3.8	1.49e+00	0	61	104	724566016	60	20650
2026-01-30 01:45:57.52	253.36	3.33	-44.8	-59.6	3.8	1.49e+00	0	61	104	724566016	60	20718
2026-01-30 01:46:00.55	253.13	3.16	-44.8	-59.6	3.8	1.49e+00	0	61	104	724566016	60	20624
2026-01-30 01:46:03.59	252.90	2.99	-44.8	-59.6	3.8	1.49e+00	0	61	104	724566016	60	20672
2026-01-30 01:46:06.62	252.67	2.82	-44.7	-59.6	3.8	1.49e+00	0	61	104	724566016	60	20594
2026-01-30 01:46:09.65	252.44	2.65	-44.7	-59.6	3.8	1.49e+00	0	61	104	724566016	60	20622
2026-01-30 01:46:12.68	252.22	2.48	-44.7	-59.6	3.8	1.49e+00	0	61	104	724566016	60	20626
2026-01-30 01:46:15.71	252.00	2.31	-44.7	-59.6	3.8	1.49e+00	0	61	104	724566016	60	20660
2026-01-30 01:46:18.75	251.78	2.14	-44.7	-59.6	3.8	1.49e+00	0	61	104	724566016	60	20583
2026-01-30 01:46:21.78	251.57	1.97	-44.7	-59.6	3.8	1.49e+00	0	61	104	724566016	60	20666

#Closed at: 2026-01-30 01:46:22
#Recorded file [724 MB]: D:/lorett/data/31039_260130_043402.dat