passes_logs/2026/01/30/R2.0S_Moscow/R2.0S_Moscow__20260130_140247_FENGYUN_3E_rec.log

#Pass ID: 20260130_140247_FENGYUN 3E
#Satellite: FENGYUN 3E
#Configuration: FENGYUN 3E
#almurnet v.1.7.20251203
#Start time: 2026-01-30 14:02:48

#Version: 2.2.20231116
#Station: R2.0S_Moscow
#Location: 37.707566 lon 55.798166 lat
#TLE: 1 49008U 21062A   26030.15628484 -.00000231  00000+0 -88238-4 0  9991
#TLE: 2 49008  98.7496  35.1082 0002567 110.3408 249.8045 14.19886954236998

#Time	Az	El	Level	Level2	SNR	BER	BlckErr	Temp	State	Recorded	gain1	gain2
2026-01-30 14:02:48.14	156.01	2.02	-44.3	-55.2	3.8	8.45e-01	0	54	0	0	59	12494
2026-01-30 14:02:52.18	155.99	2.29	-44.3	-55.2	3.8	8.44e-01	0	54	104	0	59	12413
2026-01-30 14:02:56.22	155.97	2.55	-44.3	-55.2	3.8	8.47e-01	0	54	104	0	59	12441
2026-01-30 14:03:00.26	155.95	2.82	-44.3	-55.2	3.8	8.46e-01	0	55	104	0	59	12497
2026-01-30 14:03:04.30	155.93	3.08	-44.3	-55.2	3.8	8.46e-01	0	55	104	0	59	12480
2026-01-30 14:03:08.34	155.91	3.36	-44.3	-55.1	3.8	8.47e-01	0	55	104	0	59	12355
2026-01-30 14:03:12.38	155.89	3.63	-44.3	-55.2	3.8	8.46e-01	0	56	104	0	59	12391
2026-01-30 14:03:16.42	155.87	3.91	-44.3	-55.2	3.8	8.47e-01	0	56	104	0	59	12459
2026-01-30 14:03:20.46	155.85	4.19	-44.3	-55.2	3.8	8.46e-01	0	56	104	0	59	12432
2026-01-30 14:03:24.50	155.82	4.47	-44.3	-55.2	3.8	8.46e-01	0	56	104	0	59	12450
2026-01-30 14:03:28.55	155.80	4.76	-44.3	-55.2	3.8	8.46e-01	0	56	104	0	59	12406
2026-01-30 14:03:32.59	155.77	5.04	-44.2	-54.8	3.8	8.46e-01	0	57	104	0	59	11842
2026-01-30 14:03:36.63	155.75	5.34	-44.1	-54.3	3.8	8.44e-01	0	57	104	0	59	11221
2026-01-30 14:03:40.67	155.72	5.63	-44.0	-53.5	3.8	8.44e-01	0	57	104	0	59	10190
2026-01-30 14:03:44.71	155.69	5.93	-43.4	-50.6	4.5	8.22e-01	0	58	0	0	57	8190
2026-01-30 14:03:48.75	155.67	6.23	-43.2	-49.9	4.9	7.83e-01	0	58	0	0	57	7555
2026-01-30 14:03:52.79	155.64	6.54	-43.5	-50.8	4.5	8.30e-01	0	58	0	0	57	8380
2026-01-30 14:03:56.84	155.61	6.85	-42.3	-47.3	6.6	2.66e-01	0	58	0	11534336	55	6282
2026-01-30 14:04:00.88	155.58	7.16	-40.7	-44.3	9.5	1.77e-02	0	58	0	40894464	52	5287
2026-01-30 14:04:04.92	155.55	7.48	-40.2	-43.5	10.3	5.35e-03	0	59	0	70254592	51	5103
2026-01-30 14:04:08.97	155.51	7.80	-40.5	-44.1	9.6	1.31e-02	0	59	0	99614720	51	5503
2026-01-30 14:04:13.01	155.48	8.12	-40.7	-44.1	9.9	1.25e-02	0	59	0	127926272	52	5207
2026-01-30 14:04:17.05	155.45	8.45	-43.6	-52.6	3.8	8.43e-01	0	59	104	150994944	57	10333
2026-01-30 14:04:21.09	155.41	8.79	-39.9	-42.9	11.2	1.20e-03	0	59	0	171966464	50	5084
2026-01-30 14:04:25.14	155.37	9.13	-39.7	-42.6	11.5	6.69e-04	0	59	0	201326592	50	4919
2026-01-30 14:04:29.19	155.34	9.47	-39.7	-42.6	11.6	5.98e-04	0	59	0	230686720	50	4912
2026-01-30 14:04:33.23	155.30	9.82	-39.6	-42.5	11.8	3.23e-04	0	60	0	258998272	50	4831
2026-01-30 14:04:37.26	155.26	10.17	-39.6	-42.4	12.0	2.82e-04	0	60	0	288358400	50	4773
2026-01-30 14:04:41.30	155.22	10.53	-39.4	-42.1	12.2	2.24e-04	0	60	0	317718528	49	4910
2026-01-30 14:04:45.34	155.18	10.89	-39.4	-42.1	12.3	1.57e-04	0	60	0	347078656	49	4874
2026-01-30 14:04:49.38	155.13	11.26	-39.5	-42.2	12.2	1.82e-04	0	60	0	376438784	49	4945
2026-01-30 14:04:53.42	155.09	11.63	-39.3	-42.0	12.5	1.34e-04	0	60	0	404750336	49	4840
2026-01-30 14:04:57.47	155.04	12.01	-39.4	-42.1	12.4	1.81e-04	0	60	0	434110464	49	4875
2026-01-30 14:05:01.51	154.99	12.40	-39.3	-41.9	12.6	1.17e-04	0	60	0	463470592	49	4802
2026-01-30 14:05:05.56	154.94	12.79	-39.2	-41.8	12.7	6.63e-05	0	60	0	492830720	49	4759
2026-01-30 14:05:09.59	154.89	13.19	-39.3	-41.9	12.7	7.89e-05	0	61	0	522190848	49	4804
2026-01-30 14:05:13.64	154.84	13.60	-39.3	-41.8	12.8	2.97e-05	0	60	0	551550976	49	4755
2026-01-30 14:05:17.68	154.79	14.01	-39.2	-41.8	12.9	3.54e-05	0	61	0	579862528	49	4707
2026-01-30 14:05:21.72	154.73	14.43	-39.2	-41.7	13.0	2.63e-05	0	61	0	609222656	49	4676
2026-01-30 14:05:25.76	154.67	14.85	-39.2	-41.7	13.0	2.51e-05	0	61	0	638582784	49	4676
2026-01-30 14:05:29.79	154.61	15.29	-39.2	-41.8	13.0	2.74e-05	0	61	0	667942912	49	4707
2026-01-30 14:05:33.84	154.55	15.73	-39.0	-41.5	13.3	1.60e-05	0	61	0	697303040	49	4549
2026-01-30 14:05:37.88	154.48	16.18	-39.0	-41.4	13.4	1.71e-05	0	61	0	725614592	48	4776
2026-01-30 14:05:41.92	154.42	16.64	-38.9	-41.3	13.6	6.80e-06	0	61	0	754974720	48	4715
2026-01-30 14:05:45.96	154.35	17.11	-38.6	-40.9	14.0	2.20e-06	0	61	0	784334848	48	4507
2026-01-30 14:05:50.00	154.27	17.58	-38.2	-40.4	14.3	2.20e-06	0	61	0	813694976	47	4514
2026-01-30 14:05:54.03	154.20	18.07	-38.1	-40.3	14.4	0.00e+00	0	61	0	843055104	47	4453
2026-01-30 14:05:58.07	154.12	18.56	-38.1	-40.2	14.5	0.00e+00	0	61	0	872415232	47	4410
2026-01-30 14:06:02.12	154.04	19.07	-38.1	-40.2	14.5	0.00e+00	0	61	0	900726784	47	4437
2026-01-30 14:06:06.16	153.96	19.58	-38.1	-40.1	14.7	1.10e-06	0	61	0	930086912	46	4642
2026-01-30 14:06:10.20	153.87	20.11	-37.8	-39.9	14.9	0.00e+00	0	61	0	959447040	46	4525
2026-01-30 14:06:14.24	153.78	20.65	-37.8	-39.9	14.9	0.00e+00	0	62	0	988807168	46	4514
2026-01-30 14:06:18.28	153.69	21.20	-37.7	-39.8	15.0	0.00e+00	0	62	0	1018167296	46	4448
2026-01-30 14:06:22.33	153.59	21.76	-37.7	-39.8	15.0	0.00e+00	0	62	0	1046478848	46	4449
2026-01-30 14:06:26.37	153.49	22.34	-37.8	-39.9	14.9	0.00e+00	0	62	0	1075838976	46	4512
2026-01-30 14:06:30.41	153.38	22.93	-37.8	-40.0	14.8	0.00e+00	0	62	0	1105199104	46	4552
2026-01-30 14:06:34.45	153.27	23.53	-37.8	-40.0	14.8	0.00e+00	0	62	0	1134559232	46	4572
2026-01-30 14:06:38.49	153.15	24.14	-37.7	-39.9	14.9	1.10e-06	0	62	0	1163919360	46	4496
2026-01-30 14:06:42.53	153.03	24.77	-37.6	-39.8	15.0	0.00e+00	0	62	0	1193279488	46	4459
2026-01-30 14:06:46.57	152.91	25.42	-37.6	-39.7	15.1	1.10e-06	0	62	0	1221591040	45	4703
2026-01-30 14:06:50.61	152.77	26.08	-37.3	-39.4	15.4	0.00e+00	0	62	0	1250951168	45	4507
2026-01-30 14:06:54.66	152.64	26.76	-37.3	-39.4	15.4	0.00e+00	0	62	0	1280311296	45	4531
2026-01-30 14:06:58.70	152.49	27.46	-37.2	-39.2	15.6	0.00e+00	0	62	0	1309671424	45	4438
2026-01-30 14:07:02.74	152.34	28.17	-37.2	-39.2	15.6	0.00e+00	0	62	0	1339031552	45	4436
2026-01-30 14:07:06.78	152.18	28.90	-37.1	-39.0	15.8	0.00e+00	0	62	0	1367343104	45	4326
2026-01-30 14:07:10.82	152.01	29.65	-36.9	-38.8	16.1	0.00e+00	0	62	0	1396703232	44	4444
2026-01-30 14:07:14.86	151.84	30.42	-37.0	-38.9	16.0	0.00e+00	0	62	0	1426063360	44	4503
2026-01-30 14:07:18.90	151.65	31.22	-37.1	-39.0	15.9	0.00e+00	0	62	0	1455423488	44	4551
2026-01-30 14:07:22.94	151.46	32.03	-37.1	-39.0	15.9	0.00e+00	0	62	0	1484783616	44	4583
2026-01-30 14:07:26.98	151.25	32.87	-37.1	-39.1	15.7	0.00e+00	0	62	0	1514143744	44	4647
2026-01-30 14:07:31.02	151.03	33.73	-37.0	-39.0	15.8	0.00e+00	0	62	0	1542455296	44	4590
2026-01-30 14:07:35.06	150.80	34.61	-36.9	-38.8	16.1	0.00e+00	0	62	0	1571815424	44	4470
2026-01-30 14:07:39.10	150.56	35.52	-36.9	-38.9	16.0	0.00e+00	0	62	0	1601175552	44	4520
2026-01-30 14:07:43.14	150.30	36.45	-37.1	-39.1	15.8	0.00e+00	0	62	0	1630535680	44	4610
2026-01-30 14:07:47.18	150.02	37.42	-37.4	-39.5	15.5	0.00e+00	0	62	0	1659895808	44	4822
2026-01-30 14:07:51.22	149.73	38.41	-37.3	-39.3	15.7	0.00e+00	0	62	0	1689255936	44	4721
2026-01-30 14:07:55.26	149.42	39.43	-37.2	-39.2	15.8	0.00e+00	0	62	0	1717567488	44	4692
2026-01-30 14:07:59.30	149.08	40.47	-37.4	-39.4	15.6	0.00e+00	0	62	0	1746927616	44	4790
2026-01-30 14:08:03.34	148.73	41.55	-37.6	-39.7	15.3	0.00e+00	0	62	0	1776287744	44	4931
2026-01-30 14:08:07.38	148.34	42.66	-37.8	-39.2	16.1	0.00e+00	0	62	0	1805647872	45	4411
2026-01-30 14:08:11.43	147.93	43.81	-37.7	-39.2	16.1	0.00e+00	0	62	0	1835008000	45	4409
2026-01-30 14:08:15.47	147.49	44.98	-38.3	-39.8	15.5	0.00e+00	0	62	0	1863319552	46	4467
2026-01-30 14:08:19.51	147.01	46.19	-38.3	-39.8	15.5	0.00e+00	0	62	0	1892679680	46	4488
2026-01-30 14:08:23.56	146.49	47.44	-38.1	-39.6	15.7	0.00e+00	0	62	0	1922039808	46	4350
2026-01-30 14:08:27.60	145.92	48.72	-38.9	-40.6	14.7	0.00e+00	0	62	0	1951399936	47	4608
2026-01-30 14:08:31.64	145.31	50.03	-38.9	-40.6	14.7	1.10e-06	0	62	0	1980760064	47	4600
2026-01-30 14:08:35.68	144.64	51.38	-39.0	-40.6	14.9	0.00e+00	0	62	0	2010120192	48	4387
2026-01-30 14:08:39.72	143.90	52.76	-38.8	-40.4	15.1	0.00e+00	0	62	0	2038431744	48	4280
2026-01-30 14:08:43.76	143.09	54.18	-39.2	-41.0	14.5	2.20e-06	0	62	0	2067791872	48	4548
2026-01-30 14:08:47.80	142.19	55.62	-39.2	-41.0	14.5	1.10e-06	0	62	0	2097152000	48	4577
2026-01-30 14:08:51.85	141.19	57.11	-39.2	-40.9	14.6	0.00e+00	0	62	0	2126512128	48	4496
2026-01-30 14:08:55.88	140.08	58.62	-39.0	-40.6	14.9	0.00e+00	0	62	0	2155872256	48	4367
2026-01-30 14:08:59.93	138.83	60.16	-38.8	-40.4	15.0	0.00e+00	0	62	0	2184183808	48	4274
2026-01-30 14:09:03.97	137.41	61.72	-39.1	-40.8	14.6	0.00e+00	0	62	0	2213543936	48	4458
2026-01-30 14:09:08.01	135.80	63.30	-37.8	-39.2	16.0	0.00e+00	0	62	0	2242904064	46	4178
2026-01-30 14:09:12.05	133.96	64.90	-37.8	-39.3	15.9	0.00e+00	0	62	0	2272264192	45	4469
2026-01-30 14:09:16.09	131.84	66.50	-37.9	-39.4	15.8	0.00e+00	0	62	0	2301624320	45	4510
2026-01-30 14:09:20.13	129.37	68.09	-37.7	-39.1	16.0	0.00e+00	0	62	0	2330984448	45	4385
2026-01-30 14:09:24.17	126.47	69.68	-38.0	-39.5	15.6	0.00e+00	0	62	0	2359296000	46	4300
2026-01-30 14:09:28.22	123.05	71.23	-38.0	-39.5	15.6	0.00e+00	0	63	0	2388656128	46	4337
2026-01-30 14:09:32.26	118.98	72.73	-37.5	-38.9	16.3	0.00e+00	0	63	0	2418016256	45	4249
2026-01-30 14:09:36.29	114.14	74.14	-37.4	-38.8	16.4	0.00e+00	0	63	0	2447376384	45	4206
2026-01-30 14:09:40.34	108.31	75.44	-36.9	-38.2	16.9	0.00e+00	0	63	0	2476736512	44	4152
2026-01-30 14:09:44.37	101.42	76.58	-37.2	-38.5	16.6	0.00e+00	0	62	0	2505048064	44	4327
2026-01-30 14:09:48.41	93.32	77.50	-36.9	-38.2	17.0	0.00e+00	0	63	0	2534408192	44	4168
2026-01-30 14:09:52.45	84.11	78.14	-36.2	-37.4	17.6	0.00e+00	0	62	0	2563768320	43	4025
2026-01-30 14:09:56.50	74.07	78.46	-36.3	-37.6	17.5	0.00e+00	0	63	0	2593128448	43	4099
2026-01-30 14:10:00.54	63.82	78.42	-36.2	-37.5	17.6	0.00e+00	0	63	0	2622488576	43	4052
2026-01-30 14:10:04.58	53.96	78.02	-36.3	-37.6	17.4	0.00e+00	0	63	0	2651848704	43	4099
2026-01-30 14:10:08.62	44.99	77.31	-36.6	-37.9	17.2	0.00e+00	0	63	0	2680160256	43	4249
2026-01-30 14:10:12.66	37.17	76.34	-36.9	-38.3	16.8	0.00e+00	0	63	0	2709520384	43	4460
2026-01-30 14:10:16.70	30.52	75.16	-36.7	-38.0	17.0	0.00e+00	0	63	0	2738880512	43	4292
2026-01-30 14:10:20.74	24.95	73.83	-37.7	-39.1	16.1	0.00e+00	0	63	0	2768240640	45	4369
2026-01-30 14:10:24.78	20.29	72.39	-38.1	-39.6	15.6	0.00e+00	0	63	0	2797600768	45	4634
2026-01-30 14:10:28.83	16.38	70.88	-38.2	-39.8	15.4	2.20e-06	0	63	0	2825912320	46	4468
2026-01-30 14:10:32.87	13.10	69.32	-37.9	-39.4	15.8	0.00e+00	0	63	0	2855272448	46	4278
2026-01-30 14:10:36.90	10.32	67.74	-37.9	-39.3	16.0	0.00e+00	0	63	0	2884632576	46	4222
2026-01-30 14:10:40.94	7.94	66.15	-37.9	-39.3	16.0	0.00e+00	0	63	0	2913992704	46	4235
2026-01-30 14:10:44.98	5.89	64.55	-38.0	-39.4	15.9	0.00e+00	0	63	0	2943352832	46	4281
2026-01-30 14:10:49.03	4.10	62.96	-38.7	-40.4	14.9	8.06e-04	0	63	0	2972712960	46	4777
2026-01-30 14:10:53.07	2.54	61.39	-39.0	-40.8	14.4	2.51e-05	0	63	0	3001024512	47	4733
2026-01-30 14:10:57.10	1.17	59.84	-39.0	-40.7	14.7	5.70e-06	0	63	0	3030384640	48	4429
2026-01-30 14:11:01.14	359.95	58.31	-38.7	-40.6	14.3	2.56e-04	0	63	0	3059744768	47	4640
2026-01-30 14:11:05.19	358.87	56.81	-38.9	-40.6	14.7	1.02e-05	0	63	0	3089104896	47	4624
2026-01-30 14:11:09.23	357.90	55.34	-38.8	-40.5	14.5	4.11e-04	0	63	0	3118465024	47	4581
2026-01-30 14:11:13.27	357.02	53.90	-39.0	-40.8	14.5	2.20e-06	0	63	0	3146776576	47	4708
2026-01-30 14:11:17.31	356.23	52.50	-39.0	-40.7	14.5	2.20e-06	0	63	0	3176136704	47	4667
2026-01-30 14:11:21.35	355.51	51.13	-38.9	-40.6	14.4	3.89e-05	0	63	0	3205496832	47	4635
2026-01-30 14:11:25.39	354.85	49.79	-38.7	-40.4	14.9	0.00e+00	0	63	0	3234856960	47	4499
2026-01-30 14:11:29.43	354.25	48.49	-38.7	-40.4	14.8	2.20e-06	0	63	0	3264217088	47	4520
2026-01-30 14:11:33.47	353.70	47.22	-38.3	-39.9	15.4	0.00e+00	0	63	0	3293577216	47	4258
2026-01-30 14:11:37.51	353.19	45.99	-38.1	-39.6	15.6	6.80e-06	0	63	0	3321888768	46	4357
2026-01-30 14:11:41.55	352.72	44.79	-37.9	-39.4	15.9	4.69e-05	0	63	0	3351248896	46	4243
2026-01-30 14:11:45.59	352.29	43.63	-37.9	-39.3	15.7	0.00e+00	0	63	0	3380609024	46	4228
2026-01-30 14:11:49.63	351.89	42.50	-37.8	-39.3	15.8	1.10e-06	0	63	0	3409969152	46	4215
2026-01-30 14:11:53.67	351.51	41.40	-37.9	-39.4	15.7	1.25e-05	0	63	0	3439329280	46	4244
2026-01-30 14:11:57.71	351.16	40.33	-38.0	-39.5	15.6	0.00e+00	0	63	0	3467640832	46	4340
2026-01-30 14:12:01.75	350.83	39.29	-38.0	-39.5	15.6	0.00e+00	0	63	0	3497000960	46	4315
2026-01-30 14:12:05.79	350.53	38.28	-37.8	-39.3	15.6	0.00e+00	0	63	0	3526361088	46	4222
2026-01-30 14:12:09.83	350.24	37.30	-37.7	-39.2	15.9	0.00e+00	0	63	0	3555721216	46	4164
2026-01-30 14:12:13.88	349.97	36.35	-37.8	-39.3	15.8	0.00e+00	0	63	0	3585081344	46	4205
2026-01-30 14:12:17.92	349.71	35.42	-37.4	-38.9	16.2	0.00e+00	0	63	0	3614441472	45	4257
2026-01-30 14:12:21.96	349.48	34.52	-37.1	-38.5	16.5	0.00e+00	0	63	0	3642753024	45	4066
2026-01-30 14:12:26.01	349.25	33.64	-37.1	-38.5	16.5	0.00e+00	0	63	0	3672113152	45	4055
2026-01-30 14:12:30.04	349.04	32.79	-37.2	-38.6	16.3	0.00e+00	0	63	0	3701473280	45	4124
2026-01-30 14:12:34.09	348.83	31.96	-37.4	-38.9	16.0	0.00e+00	0	63	0	3730833408	45	4246
2026-01-30 14:12:38.13	348.64	31.15	-37.5	-39.0	15.8	0.00e+00	0	63	0	3760193536	45	4306
2026-01-30 14:12:42.17	348.46	30.37	-37.6	-39.1	15.6	0.00e+00	0	63	0	3788505088	45	4387
2026-01-30 14:12:46.21	348.29	29.61	-37.6	-39.1	15.6	0.00e+00	0	63	0	3817865216	45	4352
2026-01-30 14:12:50.26	348.13	28.86	-37.6	-39.2	15.5	0.00e+00	0	63	0	3847225344	45	4397
2026-01-30 14:12:54.30	347.97	28.13	-37.6	-39.2	15.3	0.00e+00	0	63	0	3876585472	45	4395
2026-01-30 14:12:58.34	347.82	27.43	-37.7	-39.3	15.1	0.00e+00	0	63	0	3905945600	45	4465
2026-01-30 14:13:02.38	347.68	26.74	-37.8	-39.4	14.9	0.00e+00	0	63	0	3935305728	45	4532
2026-01-30 14:13:06.42	347.55	26.06	-37.9	-39.6	14.6	0.00e+00	0	63	0	3963617280	45	4612
2026-01-30 14:13:10.47	347.42	25.41	-37.7	-39.4	14.5	0.00e+00	0	63	0	3992977408	45	4512
2026-01-30 14:13:14.51	347.30	24.77	-37.7	-39.4	14.2	2.20e-06	0	63	0	4022337536	45	4531
2026-01-30 14:13:18.55	347.18	24.14	-37.6	-39.4	14.0	4.50e-06	0	63	0	4051697664	45	4535
2026-01-30 14:13:22.59	347.07	23.53	-37.5	-39.3	13.9	1.10e-06	0	63	0	4081057792	45	4478
2026-01-30 14:13:26.63	346.96	22.93	-37.5	-39.5	13.3	1.94e-05	0	63	0	4109369344	45	4570
2026-01-30 14:13:30.67	346.86	22.35	-37.3	-39.3	13.2	1.71e-05	0	63	0	4138729472	45	4479
2026-01-30 14:13:34.72	346.76	21.78	-38.3	-40.9	11.2	8.73e-04	0	63	0	4168089600	46	5082
2026-01-30 14:13:38.76	346.66	21.22	-40.5	-45.4	6.4	2.08e-01	0	63	0	4197449728	50	6773
2026-01-30 14:13:42.80	346.57	20.67	-41.4	-51.0	3.8	8.46e-01	0	63	104	4202692608	52	11538
2026-01-30 14:13:46.85	346.49	20.14	-41.3	-51.9	3.8	8.47e-01	0	63	104	4202692608	52	12796
2026-01-30 14:13:50.89	346.40	19.62	-41.8	-52.5	3.8	8.46e-01	0	63	104	4202692608	53	12852
2026-01-30 14:13:54.93	346.32	19.10	-41.3	-52.2	3.8	8.46e-01	0	63	104	4202692608	53	12392
2026-01-30 14:13:58.96	346.25	18.60	-41.2	-52.0	3.8	8.45e-01	0	63	104	4202692608	53	12220
2026-01-30 14:14:03.00	346.17	18.11	-41.1	-51.9	3.8	8.47e-01	0	63	104	4202692608	53	12020
2026-01-30 14:14:07.04	346.10	17.63	-41.1	-52.0	3.8	8.47e-01	0	63	104	4202692608	53	12120
2026-01-30 14:14:11.08	346.03	17.16	-41.2	-52.1	3.8	8.45e-01	0	63	104	4202692608	53	12287
2026-01-30 14:14:15.12	345.97	16.69	-41.2	-52.1	3.8	8.46e-01	0	63	104	4202692608	53	12273
2026-01-30 14:14:19.16	345.90	16.24	-41.2	-52.0	3.8	8.45e-01	0	63	104	4202692608	53	12206
2026-01-30 14:14:23.20	345.84	15.79	-41.2	-52.0	3.8	8.46e-01	0	63	104	4202692608	53	12213
2026-01-30 14:14:27.24	345.78	15.35	-41.2	-52.1	3.8	8.48e-01	0	63	104	4202692608	53	12276
2026-01-30 14:14:31.28	345.73	14.92	-41.2	-52.1	3.8	8.47e-01	0	63	104	4202692608	53	12302
2026-01-30 14:14:35.32	345.67	14.49	-41.2	-52.0	3.8	8.46e-01	0	63	104	4202692608	53	12217
2026-01-30 14:14:39.36	345.62	14.08	-41.1	-52.0	3.8	8.46e-01	0	63	104	4202692608	53	12135
2026-01-30 14:14:43.39	345.57	13.67	-41.0	-51.9	3.8	8.46e-01	0	63	104	4202692608	53	12008
2026-01-30 14:14:47.43	345.52	13.27	-41.1	-52.0	3.8	8.45e-01	0	63	104	4202692608	53	12109
2026-01-30 14:14:51.47	345.48	12.87	-41.1	-51.9	3.8	8.47e-01	0	64	104	4202692608	52	12807
2026-01-30 14:14:55.51	345.43	12.48	-41.0	-51.9	3.8	8.45e-01	0	63	104	4202692608	52	12723
2026-01-30 14:14:59.55	345.39	12.10	-41.0	-51.9	3.8	8.47e-01	0	63	104	4202692608	52	12684
2026-01-30 14:15:03.59	345.34	11.72	-40.9	-51.8	3.8	8.47e-01	0	63	104	4202692608	52	12583
2026-01-30 14:15:07.63	345.30	11.35	-41.0	-51.9	3.8	8.47e-01	0	63	104	4202692608	52	12667
2026-01-30 14:15:11.67	345.26	10.98	-41.0	-51.9	3.8	8.46e-01	0	63	104	4202692608	52	12686
2026-01-30 14:15:15.71	345.23	10.62	-40.9	-51.8	3.8	8.46e-01	0	63	104	4202692608	52	12569
2026-01-30 14:15:19.75	345.19	10.26	-40.8	-51.7	3.8	8.46e-01	0	63	104	4202692608	52	12483
2026-01-30 14:15:23.79	345.15	9.91	-40.8	-51.7	3.8	8.47e-01	0	64	104	4202692608	52	12379
2026-01-30 14:15:27.83	345.12	9.57	-40.8	-51.7	3.8	8.46e-01	0	63	104	4202692608	52	12383
2026-01-30 14:15:31.87	345.09	9.23	-40.8	-51.7	3.8	8.47e-01	0	63	104	4202692608	52	12443
2026-01-30 14:15:35.91	345.06	8.89	-40.8	-51.6	3.8	8.45e-01	0	63	104	4202692608	52	12335
2026-01-30 14:15:39.95	345.02	8.56	-40.8	-51.6	3.8	8.44e-01	0	63	104	4202692608	52	12365
2026-01-30 14:15:43.99	344.99	8.23	-40.7	-51.6	3.8	8.46e-01	0	63	104	4202692608	52	12268
2026-01-30 14:15:48.03	344.97	7.91	-41.1	-51.9	3.8	8.47e-01	0	63	104	4202692608	52	12794
2026-01-30 14:15:52.07	344.94	7.59	-45.5	-56.7	3.8	8.46e-01	0	63	104	4202692608	60	14017
2026-01-30 14:15:56.11	344.91	7.27	-45.7	-56.9	3.8	8.46e-01	0	63	104	4202692608	60	14321
2026-01-30 14:16:00.16	344.89	6.96	-45.5	-56.8	3.8	8.46e-01	0	63	104	4202692608	60	14102
2026-01-30 14:16:04.20	344.86	6.65	-45.5	-56.7	3.8	8.46e-01	0	63	104	4202692608	60	13891
2026-01-30 14:16:08.24	344.84	6.35	-44.7	-56.4	3.8	8.46e-01	0	63	104	4202692608	60	13481
2026-01-30 14:16:12.28	344.81	6.05	-45.3	-56.6	3.8	8.46e-01	0	64	104	4202692608	60	13795
2026-01-30 14:16:16.32	344.79	5.75	-45.4	-56.6	3.8	8.46e-01	0	64	104	4202692608	60	13856
2026-01-30 14:16:20.37	344.77	5.45	-45.0	-56.5	3.8	8.46e-01	0	63	104	4202692608	60	13653
2026-01-30 14:16:24.41	344.75	5.16	-45.4	-56.6	3.8	8.47e-01	0	64	104	4202692608	60	13856
2026-01-30 14:16:28.45	344.73	4.88	-45.4	-56.6	3.8	8.46e-01	0	63	104	4202692608	60	13785
2026-01-30 14:16:32.49	344.71	4.59	-45.4	-56.6	3.8	8.46e-01	0	63	104	4202692608	60	13847
2026-01-30 14:16:36.53	344.69	4.31	-45.4	-56.6	3.8	8.46e-01	0	64	104	4202692608	60	13839
2026-01-30 14:16:40.57	344.68	4.03	-45.4	-56.6	3.8	8.46e-01	0	63	104	4202692608	60	13817
2026-01-30 14:16:44.61	344.66	3.76	-45.4	-56.6	3.8	8.46e-01	0	63	104	4202692608	60	13868
2026-01-30 14:16:48.66	344.64	3.48	-45.4	-56.6	3.8	8.44e-01	0	63	104	4202692608	60	13786
2026-01-30 14:16:52.70	344.63	3.21	-45.4	-56.6	3.8	8.46e-01	0	63	104	4202692608	60	13803
2026-01-30 14:16:56.74	344.61	2.94	-45.4	-56.6	3.8	8.45e-01	0	64	104	4202692608	60	13866
2026-01-30 14:17:00.78	344.60	2.68	-45.4	-56.6	3.8	8.48e-01	0	63	104	4202692608	60	13800
2026-01-30 14:17:04.82	344.58	2.42	-45.4	-56.6	3.8	8.45e-01	0	63	104	4202692608	60	13828
2026-01-30 14:17:08.86	344.57	2.16	-45.4	-56.6	3.8	8.46e-01	0	63	104	4202692608	60	13791

#Closed at: 2026-01-30 14:17:11
#Recorded file [4202 MB]: D:/lorett/data/31039_260130_170247.dat