passes_logs/2026/01/30/R2.0S_Moscow/R2.0S_Moscow__20260130_020901_AQUA_rec.log

#Pass ID: 20260130_020901_AQUA
#Satellite: AQUA
#Configuration: AQUA
#almurnet v.1.7.20251203
#Start time: 2026-01-30 02:09:02

#Version: 2.2.20231116
#Station: R2.0S_Moscow
#Location: 37.707566 lon 55.798166 lat
#TLE: 1 27424U 02022A   26028.91948147  .00001781  00000+0  36607-3 0  9997
#TLE: 2 27424  98.4103 355.5827 0001815  62.4290   1.4641 14.61871847262923

#Time	Az	El	Level	Level2	SNR	BER	BlckErr	Temp	State	Recorded	gain1	gain2
2026-01-30 02:09:02.29	11.14	2.06	-40.6	-59.4	3.8	7.46e-01	0	54	0	0	53	30253
2026-01-30 02:09:05.31	11.03	2.25	-40.7	-59.5	3.8	7.44e-01	0	55	104	0	51	34189
2026-01-30 02:09:08.34	10.92	2.45	-40.7	-59.5	3.8	7.48e-01	0	55	104	0	51	34142
2026-01-30 02:09:11.37	10.80	2.65	-40.7	-59.5	3.8	7.46e-01	0	55	104	0	51	34133
2026-01-30 02:09:14.40	10.68	2.85	-40.6	-59.5	3.8	7.48e-01	0	55	104	0	51	34120
2026-01-30 02:09:17.44	10.56	3.05	-40.6	-59.5	3.8	7.44e-01	0	55	104	0	51	34107
2026-01-30 02:09:20.47	10.44	3.25	-40.6	-59.5	3.8	7.44e-01	0	55	104	0	51	34094
2026-01-30 02:09:23.50	10.32	3.45	-40.6	-59.4	3.8	7.42e-01	0	55	104	0	51	33988
2026-01-30 02:09:26.53	10.19	3.66	-40.6	-59.5	3.8	7.41e-01	0	56	104	0	51	34113
2026-01-30 02:09:29.56	10.06	3.87	-40.6	-59.4	3.8	7.44e-01	0	55	104	0	51	33967
2026-01-30 02:09:32.59	9.93	4.08	-40.6	-59.4	3.8	7.47e-01	0	56	104	0	51	34065
2026-01-30 02:09:35.62	9.80	4.29	-40.6	-59.5	3.8	7.45e-01	0	56	104	0	51	34097
2026-01-30 02:09:38.65	9.67	4.50	-40.6	-59.4	3.8	7.47e-01	0	56	104	0	51	34019
2026-01-30 02:09:41.68	9.53	4.71	-40.6	-59.4	3.8	7.44e-01	0	56	104	0	51	34027
2026-01-30 02:09:44.72	9.39	4.93	-40.6	-59.4	3.8	7.42e-01	0	56	104	0	51	33992
2026-01-30 02:09:47.75	9.25	5.15	-40.6	-59.4	3.8	7.45e-01	0	56	104	0	51	34044
2026-01-30 02:09:50.78	9.10	5.37	-40.6	-59.4	3.8	7.44e-01	0	57	104	0	51	33934
2026-01-30 02:09:53.81	8.96	5.59	-40.6	-59.4	3.8	7.45e-01	0	57	104	0	51	33967
2026-01-30 02:09:56.84	8.81	5.81	-40.6	-59.4	3.8	7.42e-01	0	57	104	0	51	33929
2026-01-30 02:09:59.87	8.65	6.04	-40.6	-59.4	3.8	7.46e-01	0	57	104	0	51	33954
2026-01-30 02:10:02.90	8.50	6.26	-40.6	-59.4	3.8	7.43e-01	0	57	104	0	51	34041
2026-01-30 02:10:05.94	8.34	6.49	-40.6	-59.4	3.8	7.42e-01	0	57	104	0	51	33973
2026-01-30 02:10:08.97	8.18	6.73	-40.6	-59.4	3.8	7.47e-01	0	57	104	0	51	33934
2026-01-30 02:10:12.00	8.01	6.96	-40.6	-59.4	3.8	7.48e-01	0	57	104	0	51	33962
2026-01-30 02:10:15.02	7.85	7.19	-40.6	-59.4	3.8	7.46e-01	0	57	104	0	51	33984
2026-01-30 02:10:18.05	7.68	7.43	-40.6	-59.4	3.8	7.44e-01	0	58	104	0	51	33983
2026-01-30 02:10:21.08	7.50	7.67	-40.6	-59.4	3.8	7.45e-01	0	58	104	0	51	34031
2026-01-30 02:10:24.11	7.32	7.91	-40.6	-59.4	3.8	7.47e-01	0	58	104	0	51	34046
2026-01-30 02:10:27.15	7.14	8.16	-40.6	-59.5	3.8	7.46e-01	0	58	104	0	51	34171
2026-01-30 02:10:30.18	6.96	8.41	-40.7	-59.5	3.8	7.44e-01	0	58	104	0	52	32468
2026-01-30 02:10:33.20	6.77	8.66	-40.6	-59.4	3.8	7.45e-01	0	58	104	0	52	32003
2026-01-30 02:10:36.23	6.58	8.91	-40.7	-59.5	3.8	7.46e-01	0	58	104	0	52	32508
2026-01-30 02:10:39.26	6.38	9.16	-40.7	-59.5	3.8	7.46e-01	0	58	104	0	52	32289
2026-01-30 02:10:42.29	6.18	9.42	-40.8	-59.6	3.8	7.47e-01	0	58	104	0	52	32643
2026-01-30 02:10:45.32	5.98	9.68	-40.6	-59.4	3.8	7.46e-01	0	58	104	0	52	32116
2026-01-30 02:10:48.34	5.77	9.94	-40.8	-59.6	3.8	7.47e-01	0	58	104	0	52	32810
2026-01-30 02:10:51.37	5.56	10.21	-40.7	-59.5	3.8	7.45e-01	0	58	104	0	52	32467
2026-01-30 02:10:54.40	5.35	10.47	-40.9	-59.7	3.8	7.47e-01	0	58	104	0	52	32943
2026-01-30 02:10:57.43	5.12	10.75	-40.7	-59.4	3.8	7.46e-01	0	58	104	0	53	30357
2026-01-30 02:11:00.46	4.90	11.02	-41.0	-59.6	3.8	7.45e-01	0	59	104	0	53	30773
2026-01-30 02:11:03.49	4.67	11.30	-41.1	-59.4	3.8	7.42e-01	0	58	104	0	53	30353
2026-01-30 02:11:06.52	4.43	11.58	-41.2	-59.7	3.8	7.49e-01	0	58	104	0	53	31304
2026-01-30 02:11:09.55	4.19	11.86	-41.1	-59.1	3.8	7.43e-01	0	58	104	0	53	29279
2026-01-30 02:11:12.58	3.94	12.15	-41.6	-60.1	3.8	7.44e-01	0	59	104	0	53	32880
2026-01-30 02:11:15.61	3.69	12.44	-42.0	-55.8	4.8	7.16e-01	0	59	104	0	54	18901
2026-01-30 02:11:18.64	3.44	12.73	-41.7	-57.7	3.9	7.44e-01	0	59	104	0	55	22231
2026-01-30 02:11:21.67	3.17	13.03	-41.3	-55.0	4.9	7.13e-01	0	59	0	0	54	17245
2026-01-30 02:11:24.70	2.90	13.32	-41.3	-49.2	10.6	6.14e-01	0	59	0	4194304	54	8773
2026-01-30 02:11:27.73	2.63	13.63	-40.8	-45.4	15.7	6.04e-01	0	59	0	9961472	53	6018
2026-01-30 02:11:30.76	2.35	13.94	-40.4	-44.0	17.9	6.04e-01	0	59	0	15728640	52	5423
2026-01-30 02:11:33.79	2.06	14.25	-41.1	-45.0	17.1	6.01e-01	0	59	0	21495808	52	6128
2026-01-30 02:11:36.82	1.76	14.56	-41.2	-45.2	17.0	6.03e-01	0	59	0	26738688	52	6211
2026-01-30 02:11:39.85	1.46	14.88	-41.3	-45.3	17.0	6.00e-01	0	59	0	32505856	53	5927
2026-01-30 02:11:42.88	1.15	15.20	-41.2	-44.9	17.7	6.01e-01	0	59	0	38273024	53	5667
2026-01-30 02:11:45.92	0.83	15.53	-41.4	-45.0	17.9	6.00e-01	0	59	0	44040192	53	5740
2026-01-30 02:11:48.95	0.51	15.86	-41.4	-44.8	18.2	6.01e-01	0	59	0	49807360	53	5650
2026-01-30 02:11:51.98	0.17	16.19	-41.4	-44.8	18.3	6.01e-01	0	59	0	55574528	53	5615
2026-01-30 02:11:55.01	359.83	16.53	-41.4	-44.7	18.4	6.00e-01	0	59	0	60817408	53	5578
2026-01-30 02:11:58.04	359.48	16.87	-41.3	-44.6	18.6	6.01e-01	0	60	0	66584576	53	5510
2026-01-30 02:12:01.07	359.12	17.22	-41.4	-44.8	18.3	6.02e-01	0	59	0	72351744	53	5643
2026-01-30 02:12:04.10	358.76	17.57	-41.4	-44.8	18.3	6.00e-01	0	59	0	78118912	53	5627
2026-01-30 02:12:07.13	358.38	17.92	-41.4	-44.9	18.0	5.98e-01	0	59	0	83886080	53	5720
2026-01-30 02:12:10.17	357.99	18.28	-41.6	-45.4	17.3	6.01e-01	0	59	0	89653248	53	6060
2026-01-30 02:12:13.20	357.59	18.65	-41.1	-44.9	17.5	6.03e-01	0	59	0	95420416	53	5674
2026-01-30 02:12:16.23	357.19	19.02	-41.0	-45.0	16.9	6.01e-01	0	60	0	100663296	53	5745
2026-01-30 02:12:19.26	356.77	19.39	-40.5	-44.5	16.9	6.01e-01	0	59	0	106430464	52	5781
2026-01-30 02:12:22.29	356.34	19.77	-41.6	-47.9	13.0	6.02e-01	0	59	0	112197632	53	7996
2026-01-30 02:12:25.31	355.90	20.15	-41.8	-48.8	11.8	6.08e-01	0	59	0	117964800	54	8441
2026-01-30 02:12:28.34	355.44	20.54	-42.0	-49.1	11.8	6.06e-01	0	60	0	123731968	54	8720
2026-01-30 02:12:31.37	354.98	20.93	-40.4	-44.8	16.1	6.02e-01	0	60	0	128974848	52	5944
2026-01-30 02:12:34.40	354.50	21.33	-40.1	-44.2	16.6	6.03e-01	0	59	0	134742016	52	5575
2026-01-30 02:12:37.43	354.01	21.73	-40.6	-45.0	16.2	6.02e-01	0	59	0	140509184	52	6108
2026-01-30 02:12:40.46	353.50	22.14	-41.0	-44.9	17.0	5.98e-01	0	59	0	146276352	52	6059
2026-01-30 02:12:43.49	352.98	22.55	-41.6	-45.9	16.4	6.02e-01	0	60	0	152043520	53	6420
2026-01-30 02:12:46.52	352.44	22.96	-41.7	-45.8	16.8	5.99e-01	0	60	0	157810688	54	5978
2026-01-30 02:12:49.55	351.89	23.38	-41.8	-45.6	17.3	6.02e-01	0	60	0	163577856	54	5849
2026-01-30 02:12:52.58	351.32	23.81	-41.9	-45.5	17.8	6.04e-01	0	60	0	168820736	54	5776
2026-01-30 02:12:55.61	350.74	24.24	-41.8	-45.3	18.1	6.00e-01	0	60	0	174587904	54	5610
2026-01-30 02:12:58.64	350.14	24.67	-41.8	-45.2	18.3	6.03e-01	0	60	0	180355072	54	5555
2026-01-30 02:13:01.67	349.52	25.11	-41.8	-45.2	18.5	6.00e-01	0	60	0	186122240	54	5546
2026-01-30 02:13:04.70	348.88	25.56	-42.0	-45.5	18.2	6.01e-01	0	60	0	191889408	54	5732
2026-01-30 02:13:07.74	348.22	26.00	-41.9	-45.1	18.6	5.97e-01	0	60	0	197132288	54	5520
2026-01-30 02:13:10.77	347.54	26.46	-41.8	-45.0	18.8	5.98e-01	0	60	0	202899456	54	5411
2026-01-30 02:13:13.80	346.84	26.91	-41.8	-44.9	18.9	5.98e-01	0	60	0	208666624	54	5389
2026-01-30 02:13:16.83	346.12	27.37	-41.8	-45.0	18.8	6.03e-01	0	60	0	214433792	54	5441
2026-01-30 02:13:19.86	345.38	27.83	-41.8	-44.9	18.9	6.01e-01	0	60	0	220200960	54	5395
2026-01-30 02:13:22.89	344.61	28.30	-41.7	-44.7	19.2	6.01e-01	0	60	0	225968128	54	5253
2026-01-30 02:13:25.92	343.82	28.76	-41.7	-44.7	18.9	6.01e-01	0	60	0	231735296	54	5266
2026-01-30 02:13:28.95	343.01	29.23	-41.6	-44.6	19.3	5.99e-01	0	60	0	236978176	54	5176
2026-01-30 02:13:31.98	342.17	29.71	-41.7	-44.7	19.2	6.00e-01	0	60	0	242745344	54	5240
2026-01-30 02:13:35.01	341.31	30.18	-41.5	-44.5	19.5	6.02e-01	0	60	0	248512512	54	5113
2026-01-30 02:13:38.04	340.42	30.66	-41.6	-44.6	19.3	6.00e-01	0	60	0	254279680	54	5198
2026-01-30 02:13:41.07	339.50	31.13	-41.6	-44.6	19.4	6.01e-01	0	60	0	260046848	54	5196
2026-01-30 02:13:44.10	338.55	31.61	-41.7	-44.7	19.3	6.03e-01	0	60	0	265814016	54	5240
2026-01-30 02:13:47.14	337.57	32.08	-41.7	-44.7	19.3	6.04e-01	0	60	0	271056896	54	5239
2026-01-30 02:13:50.16	336.56	32.55	-41.8	-44.8	19.1	6.01e-01	0	60	0	276824064	54	5340
2026-01-30 02:13:53.19	335.52	33.03	-41.7	-44.7	19.3	5.98e-01	0	60	0	282591232	54	5224
2026-01-30 02:13:56.23	334.45	33.49	-41.9	-45.0	19.0	6.03e-01	0	60	0	288358400	54	5453
2026-01-30 02:13:59.26	333.35	33.96	-41.9	-45.0	19.0	6.03e-01	0	60	0	294125568	54	5424
2026-01-30 02:14:02.29	332.21	34.42	-42.2	-45.4	18.6	6.01e-01	0	60	0	299892736	54	5719
2026-01-30 02:14:05.32	331.04	34.87	-42.1	-45.4	18.7	6.02e-01	0	60	0	305135616	54	5661
2026-01-30 02:14:08.35	329.84	35.32	-42.2	-45.5	18.5	6.01e-01	0	60	0	310902784	55	5457
2026-01-30 02:14:11.38	328.60	35.76	-42.3	-45.7	18.3	6.01e-01	0	60	0	316669952	55	5554
2026-01-30 02:14:14.41	327.33	36.19	-42.4	-45.8	18.2	6.02e-01	0	60	0	322437120	55	5654
2026-01-30 02:14:17.44	326.03	36.61	-42.6	-46.2	17.8	6.00e-01	0	60	0	328204288	55	5913
2026-01-30 02:14:20.47	324.69	37.02	-42.4	-45.9	18.1	6.03e-01	0	60	0	333971456	55	5670
2026-01-30 02:14:23.50	323.31	37.41	-42.8	-46.5	17.6	6.03e-01	0	60	0	339738624	56	5757
2026-01-30 02:14:26.53	321.90	37.79	-42.8	-46.4	17.7	6.02e-01	0	60	0	344981504	56	5714
2026-01-30 02:14:29.56	320.46	38.16	-43.0	-46.8	17.4	6.01e-01	0	60	0	350748672	56	5944
2026-01-30 02:14:32.59	318.98	38.51	-42.9	-46.6	17.5	6.05e-01	0	60	0	356515840	56	5837
2026-01-30 02:14:35.62	317.47	38.84	-43.0	-46.8	17.3	6.00e-01	0	60	0	362283008	56	5982
2026-01-30 02:14:38.65	315.93	39.15	-42.7	-46.3	17.9	5.98e-01	0	60	0	368050176	56	5620
2026-01-30 02:14:41.69	314.36	39.44	-42.9	-46.6	17.6	6.02e-01	0	60	0	373293056	56	5797
2026-01-30 02:14:44.72	312.76	39.71	-42.8	-46.5	17.7	6.01e-01	0	60	0	379060224	56	5764
2026-01-30 02:14:47.75	311.14	39.96	-42.6	-46.1	18.0	6.02e-01	0	60	0	384827392	56	5514
2026-01-30 02:14:50.78	309.49	40.18	-42.7	-46.3	17.9	6.02e-01	0	60	0	390594560	56	5596
2026-01-30 02:14:53.81	307.82	40.37	-42.7	-46.2	17.9	6.03e-01	0	60	0	396361728	56	5578
2026-01-30 02:14:56.84	306.13	40.54	-42.5	-46.0	18.2	6.03e-01	0	60	0	402128896	56	5422
2026-01-30 02:14:59.87	304.43	40.68	-42.6	-46.2	17.9	5.98e-01	0	60	0	407896064	56	5547
2026-01-30 02:15:02.90	302.71	40.80	-42.6	-46.1	18.0	6.01e-01	0	60	0	413138944	56	5525
2026-01-30 02:15:05.93	300.98	40.88	-42.9	-46.7	17.5	6.04e-01	0	60	0	418906112	56	5876
2026-01-30 02:15:08.96	299.24	40.94	-42.7	-46.3	17.9	6.01e-01	0	60	0	424673280	56	5618
2026-01-30 02:15:11.99	297.49	40.97	-42.6	-46.1	18.1	6.00e-01	0	60	0	430440448	56	5475
2026-01-30 02:15:15.02	295.75	40.96	-42.4	-45.7	18.6	6.02e-01	0	60	0	436207616	56	5274
2026-01-30 02:15:18.05	294.00	40.93	-42.6	-46.2	18.1	6.03e-01	0	60	0	441974784	56	5565
2026-01-30 02:15:21.08	292.27	40.87	-42.4	-45.9	18.3	6.00e-01	0	60	0	447217664	55	5695
2026-01-30 02:15:24.11	290.54	40.78	-42.8	-46.5	17.5	5.98e-01	0	60	0	452984832	56	5761
2026-01-30 02:15:27.14	288.82	40.66	-42.5	-45.9	18.3	6.01e-01	0	60	0	458752000	56	5377
2026-01-30 02:15:30.17	287.11	40.51	-42.7	-46.3	17.8	6.01e-01	0	60	0	464519168	56	5608
2026-01-30 02:15:33.21	285.42	40.34	-42.3	-45.5	18.6	5.99e-01	0	60	0	470286336	56	5120
2026-01-30 02:15:36.24	283.75	40.13	-42.7	-46.3	17.9	6.03e-01	0	60	0	476053504	56	5627
2026-01-30 02:15:39.27	282.11	39.91	-42.6	-46.1	18.1	6.02e-01	0	60	0	481296384	56	5485
2026-01-30 02:15:42.30	280.49	39.66	-42.3	-45.5	18.6	5.98e-01	0	60	0	487063552	56	5121
2026-01-30 02:15:45.33	278.89	39.38	-42.2	-45.4	18.8	6.03e-01	0	60	0	492830720	56	5075
2026-01-30 02:15:48.36	277.33	39.09	-42.4	-45.7	18.4	6.00e-01	0	60	0	498597888	56	5245
2026-01-30 02:15:51.39	275.79	38.77	-42.4	-45.8	18.4	6.03e-01	0	60	0	504365056	56	5286
2026-01-30 02:15:54.42	274.28	38.43	-42.7	-46.2	17.8	6.02e-01	0	60	0	510132224	57	5236
2026-01-30 02:15:57.45	272.81	38.08	-43.3	-47.5	16.4	6.02e-01	0	60	0	515899392	57	6108
2026-01-30 02:16:00.48	271.37	37.71	-43.6	-48.1	16.0	6.02e-01	0	60	0	521142272	57	6555
2026-01-30 02:16:03.51	269.96	37.33	-42.6	-46.2	17.8	6.01e-01	0	60	0	526909440	57	5223
2026-01-30 02:16:06.54	268.59	36.93	-43.7	-48.6	15.5	6.01e-01	0	60	0	532676608	57	6927
2026-01-30 02:16:09.58	267.25	36.51	-42.8	-46.5	17.4	6.02e-01	0	60	0	538443776	57	5405
2026-01-30 02:16:12.61	265.95	36.09	-43.0	-46.9	17.2	6.02e-01	0	60	0	544210944	58	5372
2026-01-30 02:16:15.64	264.68	35.66	-43.4	-47.8	16.3	6.00e-01	0	61	0	549453824	58	5945
2026-01-30 02:16:18.67	263.44	35.21	-43.5	-48.1	16.1	6.02e-01	0	61	0	555220992	58	6158
2026-01-30 02:16:21.70	262.24	34.76	-43.2	-47.3	16.7	6.03e-01	0	60	0	560988160	57	5984
2026-01-30 02:16:24.72	261.08	34.31	-42.6	-46.2	17.8	6.03e-01	0	60	0	566755328	56	5592
2026-01-30 02:16:27.75	259.95	33.85	-42.3	-45.7	18.4	6.02e-01	0	60	0	572522496	56	5249
2026-01-30 02:16:30.78	258.85	33.38	-42.1	-45.3	18.8	6.00e-01	0	61	0	578289664	56	5000
2026-01-30 02:16:33.81	257.78	32.91	-42.5	-45.9	18.1	6.01e-01	0	60	0	584056832	56	5392
2026-01-30 02:16:36.84	256.75	32.43	-42.6	-46.2	17.9	6.02e-01	0	60	0	589299712	56	5546
2026-01-30 02:16:39.87	255.74	31.96	-42.2	-45.5	18.5	6.02e-01	0	61	0	595066880	56	5127
2026-01-30 02:16:42.90	254.77	31.48	-42.4	-45.8	18.2	6.00e-01	0	60	0	600834048	56	5322
2026-01-30 02:16:45.93	253.82	31.00	-42.1	-45.2	18.8	6.01e-01	0	61	0	606601216	56	4983
2026-01-30 02:16:48.96	252.90	30.53	-42.4	-45.9	18.1	6.00e-01	0	61	0	612368384	56	5341
2026-01-30 02:16:51.99	252.01	30.05	-42.1	-45.4	18.6	6.01e-01	0	60	0	617611264	56	5071
2026-01-30 02:16:55.02	251.15	29.57	-42.2	-45.5	18.5	6.01e-01	0	60	0	623378432	56	5104
2026-01-30 02:16:58.05	250.31	29.10	-41.9	-45.0	18.8	6.03e-01	0	60	0	629145600	55	5156
2026-01-30 02:17:01.08	249.50	28.63	-42.2	-45.7	18.2	6.03e-01	0	60	0	634912768	55	5543
2026-01-30 02:17:04.11	248.71	28.16	-42.0	-45.3	18.5	6.01e-01	0	61	0	640679936	55	5333
2026-01-30 02:17:07.14	247.95	27.69	-42.1	-45.4	18.5	6.04e-01	0	60	0	646447104	55	5351
2026-01-30 02:17:10.17	247.21	27.23	-42.4	-46.0	17.9	5.99e-01	0	61	0	652214272	55	5724
2026-01-30 02:17:13.20	246.49	26.77	-42.2	-45.6	18.3	6.03e-01	0	60	0	657457152	55	5511
2026-01-30 02:17:16.23	245.79	26.31	-42.2	-45.7	18.2	6.02e-01	0	61	0	663224320	55	5542
2026-01-30 02:17:19.26	245.12	25.86	-42.3	-45.8	18.1	6.01e-01	0	60	0	668991488	55	5601
2026-01-30 02:17:22.28	244.46	25.41	-42.2	-45.7	18.1	6.01e-01	0	60	0	674758656	55	5547
2026-01-30 02:17:25.31	243.82	24.97	-42.3	-45.8	18.0	6.02e-01	0	60	0	680525824	55	5607
2026-01-30 02:17:28.35	243.20	24.53	-42.4	-46.0	17.9	6.02e-01	0	61	0	686292992	55	5739
2026-01-30 02:17:31.37	242.60	24.09	-42.4	-46.0	17.9	5.99e-01	0	60	0	691535872	55	5745
2026-01-30 02:17:34.41	242.02	23.66	-42.5	-46.2	17.6	6.00e-01	0	60	0	697303040	55	5898
2026-01-30 02:17:37.44	241.45	23.23	-42.4	-45.9	17.9	6.00e-01	0	60	0	703070208	55	5696
2026-01-30 02:17:40.47	240.90	22.81	-42.4	-46.0	17.8	6.01e-01	0	60	0	708837376	55	5763
2026-01-30 02:17:43.50	240.36	22.39	-42.4	-46.0	17.8	6.00e-01	0	60	0	714604544	55	5758
2026-01-30 02:17:46.53	239.84	21.98	-42.3	-46.0	17.8	6.01e-01	0	60	0	720371712	55	5730
2026-01-30 02:17:49.55	239.33	21.58	-42.3	-46.0	17.8	6.01e-01	0	61	0	725614592	55	5741
2026-01-30 02:17:52.58	238.84	21.17	-42.2	-45.7	18.0	5.97e-01	0	61	0	731381760	55	5576
2026-01-30 02:17:55.61	238.36	20.78	-42.2	-45.7	18.0	6.01e-01	0	61	0	737148928	55	5565
2026-01-30 02:17:58.65	237.89	20.38	-42.3	-45.9	17.8	6.01e-01	0	61	0	742916096	55	5689
2026-01-30 02:18:01.68	237.44	19.99	-42.2	-45.7	18.0	6.01e-01	0	60	0	748683264	55	5567
2026-01-30 02:18:04.70	237.00	19.61	-42.2	-45.8	17.9	6.03e-01	0	60	0	754450432	55	5613
2026-01-30 02:18:07.73	236.57	19.23	-42.0	-45.5	18.2	6.01e-01	0	60	0	759693312	55	5404
2026-01-30 02:18:10.76	236.15	18.86	-42.2	-45.7	18.0	6.03e-01	0	61	0	765460480	55	5566
2026-01-30 02:18:13.79	235.74	18.49	-42.2	-45.7	17.6	5.99e-01	0	61	0	771227648	55	5565
2026-01-30 02:18:16.82	235.34	18.12	-42.2	-45.8	17.8	6.00e-01	0	61	0	776994816	55	5629
2026-01-30 02:18:19.85	234.96	17.76	-42.3	-45.9	17.7	6.01e-01	0	60	0	782761984	55	5707
2026-01-30 02:18:22.89	234.58	17.41	-42.0	-45.5	18.1	6.02e-01	0	61	0	788004864	55	5437
2026-01-30 02:18:25.92	234.21	17.06	-42.1	-45.7	18.0	6.02e-01	0	60	0	793772032	55	5529
2026-01-30 02:18:28.95	233.85	16.71	-42.2	-45.9	17.7	6.01e-01	0	61	0	799539200	55	5673
2026-01-30 02:18:31.98	233.50	16.37	-42.1	-45.7	17.9	6.00e-01	0	61	0	805306368	55	5555
2026-01-30 02:18:35.01	233.16	16.03	-42.0	-45.5	18.0	6.00e-01	0	60	0	811073536	55	5438
2026-01-30 02:18:38.04	232.82	15.69	-42.1	-45.8	17.8	5.99e-01	0	61	0	816840704	55	5614
2026-01-30 02:18:41.07	232.50	15.36	-42.2	-45.9	17.6	5.97e-01	0	60	0	822607872	55	5715
2026-01-30 02:18:44.10	232.18	15.04	-42.0	-45.6	18.0	6.01e-01	0	60	0	827850752	55	5466
2026-01-30 02:18:47.13	231.87	14.71	-42.1	-45.6	17.9	6.05e-01	0	61	0	833617920	55	5523
2026-01-30 02:18:50.16	231.56	14.39	-42.1	-45.8	17.7	6.01e-01	0	60	0	839385088	55	5605
2026-01-30 02:18:53.19	231.27	14.08	-42.2	-46.0	17.5	6.01e-01	0	61	0	845152256	55	5731
2026-01-30 02:18:56.22	230.98	13.77	-42.2	-46.0	17.4	6.02e-01	0	60	0	850919424	55	5782
2026-01-30 02:18:59.25	230.69	13.46	-42.2	-46.0	17.5	6.01e-01	0	61	0	856686592	55	5738
2026-01-30 02:19:02.29	230.42	13.16	-42.2	-45.9	17.5	6.00e-01	0	60	0	861929472	55	5706
2026-01-30 02:19:05.32	230.15	12.86	-42.1	-45.9	17.5	6.01e-01	0	60	0	867696640	55	5669
2026-01-30 02:19:08.35	229.88	12.56	-42.2	-46.0	17.4	6.00e-01	0	60	0	873463808	55	5778
2026-01-30 02:19:11.37	229.62	12.27	-42.3	-46.3	17.1	6.02e-01	0	61	0	879230976	55	5937
2026-01-30 02:19:14.40	229.37	11.98	-42.2	-46.1	17.2	6.03e-01	0	60	0	884998144	55	5838
2026-01-30 02:19:17.43	229.12	11.69	-42.3	-46.2	17.2	6.00e-01	0	60	0	890765312	55	5868
2026-01-30 02:19:20.46	228.88	11.41	-42.3	-46.3	17.0	6.04e-01	0	60	0	896008192	55	5933
2026-01-30 02:19:23.49	228.64	11.13	-42.4	-46.5	16.8	5.99e-01	0	60	0	901775360	55	6106
2026-01-30 02:19:26.52	228.41	10.85	-42.4	-46.6	16.7	5.97e-01	0	60	0	907542528	55	6133
2026-01-30 02:19:29.55	228.18	10.58	-42.4	-46.5	16.7	5.99e-01	0	61	0	913309696	55	6113
2026-01-30 02:19:32.58	227.96	10.31	-42.4	-46.6	16.6	6.01e-01	0	61	0	919076864	55	6140
2026-01-30 02:19:35.61	227.74	10.04	-42.3	-46.4	16.8	6.03e-01	0	61	0	924844032	55	6043
2026-01-30 02:19:38.64	227.52	9.77	-42.3	-46.3	16.8	6.00e-01	0	60	0	930611200	55	5975
2026-01-30 02:19:41.67	227.31	9.51	-42.3	-46.5	16.7	6.01e-01	0	61	0	935854080	55	6089
2026-01-30 02:19:44.70	227.11	9.25	-42.4	-46.6	16.5	6.02e-01	0	61	0	941621248	55	6167
2026-01-30 02:19:47.73	226.91	8.99	-42.3	-46.5	16.5	6.00e-01	0	61	0	947388416	55	6118
2026-01-30 02:19:50.76	226.71	8.74	-42.4	-46.7	16.4	6.00e-01	0	60	0	953155584	55	6252
2026-01-30 02:19:53.79	226.52	8.48	-42.4	-46.8	16.3	6.02e-01	0	60	0	958922752	55	6276
2026-01-30 02:19:56.82	226.33	8.23	-42.5	-46.9	16.1	6.04e-01	0	61	0	964165632	55	6420
2026-01-30 02:19:59.85	226.14	7.99	-45.0	-60.8	4.2	7.44e-01	0	61	104	969932800	60	23751
2026-01-30 02:20:02.88	225.96	7.74	-45.9	-64.8	3.8	7.46e-01	0	61	104	969932800	62	33354
2026-01-30 02:20:05.91	225.78	7.50	-46.0	-64.9	3.8	7.46e-01	0	61	104	969932800	62	34081
2026-01-30 02:20:08.94	225.60	7.26	-46.1	-65.0	3.8	7.46e-01	0	61	104	969932800	62	34237
2026-01-30 02:20:11.97	225.43	7.02	-46.0	-64.9	3.8	7.46e-01	0	61	104	969932800	62	34005
2026-01-30 02:20:15.00	225.26	6.79	-46.0	-64.9	3.8	7.46e-01	0	61	104	969932800	62	33832
2026-01-30 02:20:18.03	225.09	6.55	-45.9	-64.8	3.8	7.44e-01	0	61	104	969932800	62	33627
2026-01-30 02:20:21.06	224.93	6.32	-45.9	-64.9	3.8	7.45e-01	0	61	104	969932800	62	33710
2026-01-30 02:20:24.09	224.77	6.09	-45.9	-64.9	3.8	7.47e-01	0	61	104	969932800	62	33719
2026-01-30 02:20:27.12	224.61	5.86	-45.9	-64.8	3.8	7.43e-01	0	61	104	969932800	62	33630
2026-01-30 02:20:30.15	224.45	5.64	-45.9	-64.8	3.8	7.46e-01	0	61	104	969932800	62	33638
2026-01-30 02:20:33.18	224.30	5.41	-45.9	-64.8	3.8	7.47e-01	0	61	104	969932800	62	33599
2026-01-30 02:20:36.22	224.15	5.19	-45.9	-64.8	3.8	7.43e-01	0	61	104	969932800	62	33588
2026-01-30 02:20:39.25	224.00	4.97	-45.9	-64.8	3.8	7.44e-01	0	61	104	969932800	62	33532
2026-01-30 02:20:42.28	223.86	4.75	-45.9	-64.8	3.8	7.49e-01	0	61	104	969932800	62	33572
2026-01-30 02:20:45.31	223.72	4.54	-45.9	-64.8	3.8	7.43e-01	0	61	104	969932800	62	33559
2026-01-30 02:20:48.34	223.58	4.32	-45.9	-64.8	3.8	7.47e-01	0	61	104	969932800	62	33579
2026-01-30 02:20:51.37	223.44	4.11	-45.9	-64.8	3.8	7.44e-01	0	61	104	969932800	62	33595
2026-01-30 02:20:54.39	223.30	3.90	-45.9	-64.8	3.8	7.41e-01	0	61	104	969932800	62	33529
2026-01-30 02:20:57.43	223.17	3.69	-45.9	-64.8	3.8	7.46e-01	0	61	104	969932800	62	33555
2026-01-30 02:21:00.46	223.04	3.48	-45.9	-64.8	3.8	7.48e-01	0	61	104	969932800	62	33488
2026-01-30 02:21:03.49	222.91	3.28	-45.9	-64.8	3.8	7.46e-01	0	61	104	969932800	62	33510
2026-01-30 02:21:06.52	222.78	3.07	-45.9	-64.8	3.8	7.43e-01	0	61	104	969932800	62	33518
2026-01-30 02:21:09.55	222.66	2.87	-45.9	-64.8	3.8	7.43e-01	0	61	104	969932800	62	33527
2026-01-30 02:21:12.58	222.54	2.67	-45.9	-64.8	3.8	7.46e-01	0	61	104	969932800	62	33450
2026-01-30 02:21:15.61	222.41	2.47	-45.9	-64.8	3.8	7.46e-01	0	61	104	969932800	62	33473
2026-01-30 02:21:18.63	222.30	2.27	-45.9	-64.8	3.8	7.44e-01	0	61	104	969932800	62	33417
2026-01-30 02:21:21.66	222.18	2.08	-45.8	-64.8	3.8	7.45e-01	0	61	104	969932800	62	33432
2026-01-30 02:21:24.70	222.06	1.88	-45.8	-64.8	3.8	7.46e-01	0	61	104	969932800	62	33325

#Closed at: 2026-01-30 02:21:25
#Recorded file [969 MB]: D:/lorett/data/31039_260130_050902.dat