passes_logs/2026/01/30/R2.0S_Moscow/R2.0S_Moscow__20260130_010410_NOAA_21_JPSS-2_rec.log

#Pass ID: 20260130_010410_NOAA 21 (JPSS-2)
#Satellite: NOAA 21 (JPSS-2)
#Configuration: NOAA-21
#almurnet v.1.7.20251203
#Start time: 2026-01-30 01:04:11

#Version: 2.2.20231116
#Station: R2.0S_Moscow
#Location: 37.707566 lon 55.798166 lat
#TLE: 1 54234U 22150A   26028.89828222  .00000145  00000+0  89569-4 0  9997
#TLE: 2 54234  98.7511 329.6308 0000927 198.8651 161.2491 14.19540676166783

#Time	Az	El	Level	Level2	SNR	BER	BlckErr	Temp	State	Recorded	gain1	gain2
2026-01-30 01:04:11.83	10.97	2.06	-45.0	-57.5	3.8	1.49e+00	0	61	0	0	61	15338
2026-01-30 01:04:15.87	10.75	2.30	-39.8	-52.0	3.8	1.49e+00	0	61	104	0	51	14435
2026-01-30 01:04:19.91	10.53	2.54	-39.8	-52.0	3.8	1.49e+00	0	61	104	0	51	14465
2026-01-30 01:04:23.95	10.30	2.78	-39.8	-52.0	3.8	1.49e+00	0	61	104	0	51	14413
2026-01-30 01:04:28.00	10.06	3.02	-39.8	-52.0	3.8	1.49e+00	0	61	104	0	51	14418
2026-01-30 01:04:32.04	9.83	3.27	-39.8	-52.0	3.8	1.49e+00	0	61	104	0	51	14387
2026-01-30 01:04:36.08	9.58	3.51	-39.8	-52.0	3.8	1.49e+00	0	61	104	0	51	14405
2026-01-30 01:04:40.12	9.34	3.76	-39.8	-52.0	3.8	1.49e+00	0	61	104	0	51	14393
2026-01-30 01:04:44.16	9.09	4.01	-39.8	-51.9	3.8	1.49e+00	0	61	104	0	51	14356
2026-01-30 01:04:48.20	8.83	4.26	-39.8	-51.9	3.8	1.49e+00	0	61	104	0	51	14347
2026-01-30 01:04:52.24	8.57	4.51	-39.8	-51.9	3.8	1.49e+00	0	61	104	0	51	14366
2026-01-30 01:04:56.28	8.31	4.76	-39.8	-51.9	3.8	1.49e+00	0	61	104	0	51	14333
2026-01-30 01:05:00.32	8.04	5.02	-39.8	-51.9	3.8	1.49e+00	0	61	104	0	51	14367
2026-01-30 01:05:04.36	7.77	5.28	-39.8	-51.9	3.8	1.49e+00	0	61	104	0	51	14353
2026-01-30 01:05:08.41	7.49	5.54	-39.8	-51.9	3.8	1.49e+00	0	61	104	0	51	14346
2026-01-30 01:05:12.45	7.20	5.80	-39.7	-51.9	3.8	1.49e+00	0	61	104	0	51	14300
2026-01-30 01:05:16.49	6.91	6.07	-39.8	-51.9	3.8	1.49e+00	0	61	104	0	51	14328
2026-01-30 01:05:20.52	6.61	6.33	-39.7	-51.9	3.8	1.49e+00	0	61	104	0	51	14298
2026-01-30 01:05:24.57	6.31	6.60	-39.7	-51.9	3.8	1.49e+00	0	61	104	0	51	14281
2026-01-30 01:05:28.60	6.01	6.87	-39.7	-51.9	3.8	1.49e+00	0	61	104	0	51	14333
2026-01-30 01:05:32.64	5.69	7.14	-39.7	-51.9	3.8	1.49e+00	0	61	104	0	51	14290
2026-01-30 01:05:36.68	5.37	7.41	-39.7	-51.9	3.8	1.49e+00	0	61	104	0	51	14327
2026-01-30 01:05:40.72	5.04	7.69	-39.7	-51.9	3.8	1.49e+00	0	61	104	0	51	14334
2026-01-30 01:05:44.76	4.71	7.97	-39.7	-51.9	3.8	1.49e+00	0	61	104	0	51	14302
2026-01-30 01:05:48.80	4.37	8.25	-39.9	-52.1	3.8	1.49e+00	0	61	104	0	51	14663
2026-01-30 01:05:52.84	4.03	8.53	-39.9	-52.1	3.8	1.49e+00	0	62	104	0	51	14680
2026-01-30 01:05:56.88	3.67	8.81	-39.9	-52.1	3.8	1.49e+00	0	61	104	0	51	14656
2026-01-30 01:06:00.92	3.31	9.10	-39.9	-52.0	3.8	1.49e+00	0	61	104	0	51	14538
2026-01-30 01:06:04.96	2.94	9.39	-39.9	-52.1	3.8	1.49e+00	0	62	104	0	51	14557
2026-01-30 01:06:09.00	2.57	9.68	-39.9	-52.1	3.8	1.49e+00	0	61	104	0	51	14611
2026-01-30 01:06:13.04	2.18	9.97	-39.9	-52.1	3.8	1.49e+00	0	61	104	0	51	14601
2026-01-30 01:06:17.08	1.79	10.27	-39.9	-52.1	3.8	1.49e+00	0	61	104	0	51	14564
2026-01-30 01:06:21.12	1.39	10.56	-39.9	-52.1	3.8	1.49e+00	0	61	104	0	51	14544
2026-01-30 01:06:25.16	0.98	10.86	-39.8	-52.0	3.8	1.49e+00	0	61	104	0	51	14459
2026-01-30 01:06:29.20	0.56	11.17	-39.8	-52.0	3.8	1.49e+00	0	61	104	0	51	14503
2026-01-30 01:06:33.24	0.14	11.47	-39.8	-52.0	3.8	1.49e+00	0	61	104	0	51	14499
2026-01-30 01:06:37.28	359.70	11.78	-39.8	-52.0	3.8	1.49e+00	0	61	104	0	51	14478
2026-01-30 01:06:41.31	359.26	12.08	-39.9	-52.0	3.8	1.49e+00	0	61	104	0	51	14512
2026-01-30 01:06:45.35	358.80	12.39	-40.0	-52.1	3.8	1.49e+00	0	62	104	0	51	14641
2026-01-30 01:06:49.39	358.33	12.71	-40.0	-51.7	3.8	1.49e+00	0	62	104	0	51	13899
2026-01-30 01:06:53.43	357.86	13.02	-40.0	-48.6	4.0	1.22e+00	0	62	104	0	51	9785
2026-01-30 01:06:57.47	357.37	13.34	-39.4	-45.2	6.5	2.19e-01	0	62	0	11534336	50	6975
2026-01-30 01:07:01.51	356.88	13.66	-40.0	-43.8	9.8	1.39e-02	0	62	0	24117248	51	5632
2026-01-30 01:07:05.55	356.37	13.98	-40.0	-44.1	9.2	1.57e-02	0	62	0	36700160	51	5849
2026-01-30 01:07:09.59	355.85	14.30	-41.1	-48.1	5.3	3.89e-01	0	61	0	49283072	52	8749
2026-01-30 01:07:13.63	355.32	14.62	-41.4	-52.1	3.8	1.48e+00	0	62	104	53477376	53	12996
2026-01-30 01:07:17.67	354.77	14.95	-40.7	-52.7	3.8	1.49e+00	0	62	104	53477376	53	13886
2026-01-30 01:07:21.70	354.22	15.28	-40.5	-52.7	3.8	1.49e+00	0	61	104	53477376	52	14811
2026-01-30 01:07:25.74	353.65	15.61	-40.5	-52.7	3.8	1.49e+00	0	62	104	53477376	52	14813
2026-01-30 01:07:29.78	353.07	15.94	-40.7	-52.8	3.8	1.49e+00	0	62	104	53477376	52	15046
2026-01-30 01:07:33.82	352.47	16.27	-40.7	-52.9	3.8	1.49e+00	0	62	104	53477376	52	15099
2026-01-30 01:07:37.86	351.86	16.60	-40.6	-52.9	3.8	1.49e+00	0	62	104	53477376	52	15082
2026-01-30 01:07:41.90	351.24	16.94	-40.7	-52.9	3.8	1.49e+00	0	62	104	53477376	52	15167
2026-01-30 01:07:45.94	350.60	17.27	-40.9	-53.1	3.8	1.49e+00	0	62	104	53477376	52	15530
2026-01-30 01:07:49.97	349.95	17.61	-40.9	-53.2	3.8	1.49e+00	0	62	104	53477376	52	15590
2026-01-30 01:07:54.01	349.29	17.95	-40.9	-53.2	3.8	1.49e+00	0	62	104	53477376	52	15592
2026-01-30 01:07:58.05	348.60	18.29	-40.6	-52.8	3.8	1.49e+00	0	62	104	53477376	53	14151
2026-01-30 01:08:02.09	347.91	18.62	-40.6	-52.8	3.8	1.49e+00	0	62	104	53477376	53	14102
2026-01-30 01:08:06.12	347.19	18.96	-40.6	-52.8	3.8	1.49e+00	0	62	104	53477376	53	14142
2026-01-30 01:08:10.16	346.46	19.30	-40.7	-52.8	3.8	1.49e+00	0	62	104	53477376	53	14137
2026-01-30 01:08:14.20	345.72	19.64	-40.7	-52.7	3.8	1.49e+00	0	62	104	53477376	53	14038
2026-01-30 01:08:18.24	344.95	19.98	-40.9	-52.9	3.8	1.49e+00	0	62	104	53477376	53	14235
2026-01-30 01:08:22.28	344.17	20.31	-41.3	-52.7	3.8	1.49e+00	0	62	104	53477376	53	13894
2026-01-30 01:08:26.32	343.37	20.65	-41.5	-50.7	4.2	1.46e+00	0	62	104	53477376	54	10456
2026-01-30 01:08:30.36	342.56	20.98	-41.6	-47.4	6.6	2.25e-01	0	62	0	56623104	54	7155
2026-01-30 01:08:34.40	341.72	21.31	-40.9	-45.2	9.0	3.00e-02	0	62	0	69206016	53	5864
2026-01-30 01:08:38.44	340.87	21.64	-40.7	-44.3	10.2	6.27e-03	0	62	0	82837504	53	5310
2026-01-30 01:08:42.48	340.00	21.97	-40.3	-43.3	11.6	5.96e-04	0	62	0	94371840	51	5290
2026-01-30 01:08:46.52	339.11	22.29	-40.1	-42.9	12.4	1.93e-04	0	62	0	108003328	51	5045
2026-01-30 01:08:50.56	338.20	22.61	-39.8	-42.3	13.3	2.28e-05	0	62	0	120586240	51	4709
2026-01-30 01:08:54.60	337.27	22.93	-40.1	-42.5	13.2	1.60e-05	0	62	0	133169152	51	4862
2026-01-30 01:08:58.64	336.33	23.24	-40.3	-42.8	13.1	3.58e-05	0	62	0	145752064	51	4998
2026-01-30 01:09:02.68	335.36	23.55	-40.1	-42.5	13.4	2.13e-05	0	62	0	158334976	51	4827
2026-01-30 01:09:06.72	334.37	23.85	-40.1	-42.5	13.3	2.36e-05	0	62	0	170917888	51	4859
2026-01-30 01:09:10.76	333.37	24.14	-40.2	-42.7	13.2	2.05e-05	0	62	0	183500800	51	4952
2026-01-30 01:09:14.81	332.34	24.43	-40.1	-42.5	13.4	9.90e-06	0	62	0	196083712	51	4859
2026-01-30 01:09:18.85	331.30	24.72	-40.1	-42.5	13.4	1.44e-05	0	62	0	208666624	51	4870
2026-01-30 01:09:22.89	330.24	24.99	-40.2	-42.6	13.3	1.37e-05	0	62	0	221249536	51	4900
2026-01-30 01:09:26.93	329.16	25.26	-40.4	-43.0	13.0	5.03e-05	0	62	0	233832448	51	5109
2026-01-30 01:09:30.96	328.06	25.51	-40.4	-42.9	13.1	2.74e-05	0	62	0	246415360	51	5049
2026-01-30 01:09:35.01	326.94	25.76	-40.2	-42.6	13.4	1.90e-05	0	62	0	258998272	51	4879
2026-01-30 01:09:39.05	325.81	26.00	-40.1	-42.5	13.4	1.22e-05	0	62	0	271581184	51	4861
2026-01-30 01:09:43.08	324.66	26.23	-40.3	-42.8	13.2	2.05e-05	0	62	0	284164096	51	4985
2026-01-30 01:09:47.12	323.49	26.45	-40.2	-42.7	13.3	2.44e-05	0	62	0	296747008	51	4942
2026-01-30 01:09:51.16	322.31	26.65	-40.1	-42.6	13.4	1.52e-05	0	62	0	309329920	51	4871
2026-01-30 01:09:55.20	321.11	26.84	-40.2	-42.6	13.4	1.60e-05	0	62	0	321912832	51	4892
2026-01-30 01:09:59.24	319.90	27.02	-40.0	-42.3	13.7	9.10e-06	0	62	0	334495744	51	4721
2026-01-30 01:10:03.28	318.67	27.19	-40.1	-42.5	13.5	9.90e-06	0	62	0	347078656	51	4844
2026-01-30 01:10:07.32	317.43	27.34	-40.2	-42.6	13.3	2.21e-05	0	62	0	359661568	51	4890
2026-01-30 01:10:11.35	316.18	27.48	-40.2	-42.6	13.3	1.98e-05	0	62	0	372244480	51	4920
2026-01-30 01:10:15.39	314.92	27.61	-40.0	-42.4	13.5	9.10e-06	0	61	0	384827392	51	4787
2026-01-30 01:10:19.43	313.65	27.72	-39.9	-42.2	13.7	6.10e-06	0	62	0	397410304	51	4698
2026-01-30 01:10:23.48	312.37	27.81	-40.0	-42.3	13.7	6.10e-06	0	62	0	409993216	51	4714
2026-01-30 01:10:27.52	311.08	27.89	-40.0	-42.4	13.6	6.80e-06	0	62	0	423624704	51	4771
2026-01-30 01:10:31.55	309.79	27.95	-40.1	-42.4	13.5	9.90e-06	0	62	0	436207616	51	4799
2026-01-30 01:10:35.59	308.50	28.00	-40.0	-42.4	13.5	8.30e-06	0	62	0	448790528	51	4785
2026-01-30 01:10:39.63	307.20	28.03	-40.0	-42.3	13.7	5.30e-06	0	62	0	461373440	51	4724
2026-01-30 01:10:43.67	305.90	28.04	-40.0	-42.4	13.6	4.50e-06	0	62	0	473956352	51	4762
2026-01-30 01:10:47.71	304.59	28.04	-39.9	-42.1	13.8	2.20e-06	0	62	0	486539264	51	4645
2026-01-30 01:10:51.75	303.29	28.02	-39.8	-42.1	13.9	3.80e-06	0	62	0	499122176	51	4605
2026-01-30 01:10:55.78	302.00	27.99	-40.1	-42.4	13.5	6.80e-06	0	62	0	511705088	51	4804
2026-01-30 01:10:59.83	300.70	27.93	-39.8	-42.1	13.8	4.50e-06	0	62	0	524288000	51	4605
2026-01-30 01:11:03.86	299.41	27.87	-39.7	-41.9	14.0	0.00e+00	0	62	0	536870912	51	4526
2026-01-30 01:11:07.91	298.12	27.78	-39.9	-42.2	13.6	7.60e-06	0	62	0	549453824	51	4699
2026-01-30 01:11:11.94	296.84	27.68	-40.1	-42.4	13.5	9.90e-06	0	62	0	562036736	51	4808
2026-01-30 01:11:15.98	295.57	27.57	-40.1	-42.5	13.4	9.90e-06	0	62	0	574619648	51	4829
2026-01-30 01:11:20.02	294.31	27.44	-40.0	-42.4	13.5	1.67e-05	0	62	0	587202560	51	4781
2026-01-30 01:11:24.07	293.06	27.30	-40.1	-42.5	13.4	1.37e-05	0	61	0	599785472	51	4840
2026-01-30 01:11:28.10	291.83	27.14	-40.1	-42.5	13.4	1.22e-05	0	62	0	612368384	51	4863
2026-01-30 01:11:32.14	290.60	26.97	-40.3	-42.7	13.2	2.82e-05	0	62	0	624951296	51	4980
2026-01-30 01:11:36.18	289.39	26.78	-40.0	-42.4	13.5	9.10e-06	0	62	0	637534208	51	4774
2026-01-30 01:11:40.22	288.19	26.59	-40.1	-42.5	13.4	1.60e-05	0	62	0	650117120	51	4846
2026-01-30 01:11:44.26	287.01	26.38	-40.1	-42.5	13.3	1.60e-05	0	62	0	662700032	51	4853
2026-01-30 01:11:48.30	285.84	26.16	-40.2	-42.6	13.3	2.05e-05	0	62	0	675282944	51	4894
2026-01-30 01:11:52.34	284.70	25.92	-40.0	-42.4	13.5	1.52e-05	0	62	0	687865856	51	4788
2026-01-30 01:11:56.37	283.57	25.68	-40.0	-42.4	13.4	7.60e-06	0	62	0	700448768	51	4796
2026-01-30 01:12:00.41	282.45	25.43	-39.8	-42.0	13.8	6.80e-06	0	62	0	713031680	51	4585
2026-01-30 01:12:04.45	281.35	25.17	-40.0	-42.3	13.5	9.90e-06	0	62	0	725614592	51	4737
2026-01-30 01:12:08.49	280.27	24.90	-39.6	-41.8	14.0	3.80e-06	0	62	0	739246080	51	4491
2026-01-30 01:12:12.53	279.21	24.62	-39.8	-42.2	13.7	1.06e-05	0	62	0	750780416	51	4655
2026-01-30 01:12:16.57	278.17	24.34	-40.0	-42.4	13.4	1.44e-05	0	62	0	764411904	51	4800
2026-01-30 01:12:20.61	277.15	24.04	-39.7	-42.0	13.8	5.30e-06	0	62	0	776994816	51	4567
2026-01-30 01:12:24.65	276.15	23.74	-39.9	-42.2	13.6	3.80e-06	0	62	0	789577728	51	4683
2026-01-30 01:12:28.69	275.16	23.44	-40.1	-42.5	13.3	1.22e-05	0	62	0	802160640	51	4830
2026-01-30 01:12:32.73	274.20	23.13	-39.7	-42.0	13.8	6.10e-06	0	62	0	814743552	51	4575
2026-01-30 01:12:36.77	273.25	22.82	-39.6	-41.8	14.0	1.50e-06	0	62	0	827326464	51	4449
2026-01-30 01:12:40.81	272.33	22.50	-39.6	-41.8	14.0	2.20e-06	0	62	0	839909376	51	4490
2026-01-30 01:12:44.85	271.42	22.17	-40.2	-42.8	13.0	2.36e-05	0	62	0	852492288	51	5006
2026-01-30 01:12:48.89	270.53	21.85	-40.1	-42.6	13.2	2.13e-05	0	62	0	865075200	51	4882
2026-01-30 01:12:52.92	269.66	21.52	-39.7	-42.0	13.8	4.50e-06	0	62	0	877658112	51	4569
2026-01-30 01:12:56.97	268.81	21.19	-40.1	-42.6	13.1	2.67e-05	0	62	0	890241024	51	4925
2026-01-30 01:13:01.01	267.98	20.85	-40.1	-42.6	13.2	2.67e-05	0	62	0	902823936	51	4894
2026-01-30 01:13:05.04	267.16	20.52	-40.4	-43.0	12.7	7.17e-05	0	62	0	915406848	51	5150
2026-01-30 01:13:09.08	266.37	20.18	-40.4	-43.1	12.6	9.61e-05	0	62	0	927989760	51	5186
2026-01-30 01:13:13.12	265.59	19.84	-40.0	-42.4	13.3	1.52e-05	0	62	0	940572672	51	4804
2026-01-30 01:13:17.16	264.82	19.50	-40.0	-42.5	13.2	1.90e-05	0	62	0	953155584	51	4835
2026-01-30 01:13:21.20	264.08	19.16	-40.5	-43.1	12.5	1.08e-04	0	62	0	965738496	51	5210
2026-01-30 01:13:25.24	263.35	18.82	-40.6	-43.4	12.3	1.72e-04	0	62	0	978321408	51	5360
2026-01-30 01:13:29.28	262.63	18.48	-40.7	-43.5	12.1	2.18e-04	0	62	0	990904320	51	5452
2026-01-30 01:13:33.32	261.94	18.14	-40.3	-43.0	12.6	1.07e-04	0	62	0	1003487232	52	4838
2026-01-30 01:13:37.36	261.26	17.80	-40.2	-42.8	12.8	6.48e-05	0	62	0	1016070144	52	4731
2026-01-30 01:13:41.40	260.59	17.46	-40.2	-42.9	12.7	9.23e-05	0	62	0	1028653056	52	4762
2026-01-30 01:13:45.44	259.94	17.13	-40.2	-42.8	12.7	7.47e-05	0	62	0	1041235968	52	4732
2026-01-30 01:13:49.47	259.30	16.79	-40.0	-42.5	13.0	4.27e-05	0	62	0	1053818880	52	4574
2026-01-30 01:13:53.51	258.68	16.45	-40.2	-42.7	12.8	4.88e-05	0	62	0	1066401792	51	4979
2026-01-30 01:13:57.55	258.07	16.12	-40.5	-43.3	12.3	1.89e-04	0	62	0	1080033280	51	5318
2026-01-30 01:14:01.59	257.47	15.78	-40.3	-42.9	12.6	9.15e-05	0	62	0	1092616192	51	5074
2026-01-30 01:14:05.63	256.89	15.45	-40.2	-42.8	12.7	8.08e-05	0	62	0	1105199104	51	5033
2026-01-30 01:14:09.67	256.32	15.12	-40.5	-43.2	12.3	1.90e-04	0	62	0	1117782016	51	5271
2026-01-30 01:14:13.71	255.77	14.79	-40.6	-43.4	12.1	2.96e-04	0	62	0	1130364928	51	5380
2026-01-30 01:14:17.75	255.22	14.47	-40.2	-42.8	12.7	9.38e-05	0	62	0	1142947840	51	5032
2026-01-30 01:14:21.79	254.69	14.14	-40.5	-43.3	12.2	1.90e-04	0	62	0	1155530752	51	5302
2026-01-30 01:14:25.83	254.17	13.82	-40.8	-43.9	11.5	8.25e-04	0	62	0	1168113664	52	5343
2026-01-30 01:14:29.87	253.66	13.50	-40.7	-43.7	11.7	5.56e-04	0	62	0	1180696576	52	5227
2026-01-30 01:14:33.91	253.16	13.18	-40.5	-43.3	12.0	3.12e-04	0	62	0	1193279488	52	5031
2026-01-30 01:14:37.96	252.67	12.86	-40.5	-43.4	12.0	3.66e-04	0	62	0	1205862400	52	5042
2026-01-30 01:14:41.99	252.20	12.54	-40.7	-43.8	11.6	7.38e-04	0	62	0	1218445312	52	5297
2026-01-30 01:14:46.03	251.73	12.23	-40.7	-43.7	11.6	6.91e-04	0	62	0	1231028224	52	5269
2026-01-30 01:14:50.08	251.27	11.92	-40.3	-43.1	12.2	2.55e-04	0	62	0	1243611136	52	4924
2026-01-30 01:14:54.12	250.83	11.61	-40.2	-42.9	12.4	1.36e-04	0	62	0	1256194048	52	4777
2026-01-30 01:14:58.16	250.39	11.30	-40.4	-43.2	12.1	2.62e-04	0	62	0	1268776960	52	4962
2026-01-30 01:15:02.20	249.96	11.00	-40.8	-43.9	11.3	1.06e-03	0	62	0	1281359872	52	5379
2026-01-30 01:15:06.23	249.54	10.70	-40.9	-44.1	11.1	1.52e-03	0	62	0	1293942784	52	5503
2026-01-30 01:15:10.27	249.13	10.40	-40.7	-43.7	11.4	9.35e-04	0	62	0	1306525696	52	5273
2026-01-30 01:15:14.31	248.73	10.10	-40.6	-43.7	11.5	9.07e-04	0	62	0	1319108608	52	5265
2026-01-30 01:15:18.35	248.34	9.80	-40.7	-43.8	11.4	9.25e-04	0	62	0	1331691520	52	5297
2026-01-30 01:15:22.40	247.95	9.51	-40.9	-44.2	11.0	1.91e-03	0	62	0	1344274432	52	5540
2026-01-30 01:15:26.43	247.57	9.22	-41.0	-44.4	10.7	2.73e-03	0	62	0	1356857344	52	5663
2026-01-30 01:15:30.47	247.20	8.93	-41.0	-44.4	10.6	3.02e-03	0	62	0	1369440256	52	5717
2026-01-30 01:15:34.52	246.84	8.64	-40.9	-44.4	10.6	3.12e-03	0	62	0	1382023168	52	5678
2026-01-30 01:15:38.56	246.48	8.36	-41.0	-44.5	10.5	3.78e-03	0	62	0	1395654656	52	5728
2026-01-30 01:15:42.60	246.13	8.08	-40.9	-44.4	10.6	3.40e-03	0	62	0	1408237568	52	5691
2026-01-30 01:15:46.64	245.79	7.79	-44.8	-57.4	3.8	1.49e+00	0	62	104	1411383296	60	16007
2026-01-30 01:15:50.68	245.46	7.52	-45.1	-57.6	3.8	1.49e+00	0	62	104	1411383296	60	16484
2026-01-30 01:15:54.72	245.13	7.24	-45.0	-57.6	3.8	1.49e+00	0	62	104	1411383296	60	16500
2026-01-30 01:15:58.76	244.81	6.97	-45.0	-57.6	3.8	1.49e+00	0	62	104	1411383296	60	16383
2026-01-30 01:16:02.80	244.49	6.69	-44.9	-57.5	3.8	1.49e+00	0	62	104	1411383296	60	16265
2026-01-30 01:16:06.84	244.18	6.42	-44.9	-57.5	3.8	1.49e+00	0	62	104	1411383296	60	16267
2026-01-30 01:16:10.88	243.87	6.16	-44.9	-57.5	3.8	1.49e+00	0	62	104	1411383296	60	16233
2026-01-30 01:16:14.93	243.58	5.89	-44.9	-57.5	3.8	1.49e+00	0	62	104	1411383296	60	16284
2026-01-30 01:16:18.97	243.28	5.63	-44.9	-57.5	3.8	1.49e+00	0	62	104	1411383296	60	16284
2026-01-30 01:16:23.01	242.99	5.36	-44.9	-57.5	3.8	1.49e+00	0	62	104	1411383296	60	16282
2026-01-30 01:16:27.04	242.71	5.10	-44.9	-57.5	3.8	1.49e+00	0	62	104	1411383296	60	16181
2026-01-30 01:16:31.08	242.44	4.85	-44.8	-57.4	3.8	1.49e+00	0	62	104	1411383296	60	16112
2026-01-30 01:16:35.12	242.16	4.59	-44.8	-57.5	3.8	1.49e+00	0	62	104	1411383296	60	16129
2026-01-30 01:16:39.16	241.90	4.34	-44.8	-57.5	3.8	1.49e+00	0	62	104	1411383296	60	16143
2026-01-30 01:16:43.20	241.63	4.08	-44.8	-57.4	3.8	1.49e+00	0	62	104	1411383296	60	16056
2026-01-30 01:16:47.24	241.37	3.83	-44.8	-57.4	3.8	1.49e+00	0	62	104	1411383296	60	16054
2026-01-30 01:16:51.29	241.12	3.58	-44.8	-57.4	3.8	1.49e+00	0	62	104	1411383296	60	16099
2026-01-30 01:16:55.33	240.87	3.34	-44.8	-57.4	3.8	1.49e+00	0	62	104	1411383296	60	16097
2026-01-30 01:16:59.37	240.63	3.09	-44.8	-57.4	3.8	1.49e+00	0	62	104	1411383296	60	16021
2026-01-30 01:17:03.41	240.39	2.85	-44.8	-57.4	3.8	1.49e+00	0	62	104	1411383296	60	16058
2026-01-30 01:17:07.45	240.15	2.60	-44.8	-57.4	3.8	1.49e+00	0	62	104	1411383296	60	15967
2026-01-30 01:17:11.49	239.92	2.36	-44.8	-57.4	3.8	1.49e+00	0	62	104	1411383296	60	16106
2026-01-30 01:17:15.54	239.69	2.12	-44.8	-57.4	3.8	1.49e+00	0	62	104	1411383296	60	16044
2026-01-30 01:17:19.58	239.46	1.89	-44.8	-57.4	3.8	1.49e+00	0	62	104	1411383296	60	16059

#Closed at: 2026-01-30 01:17:20
#Recorded file [1411 MB]: D:/lorett/data/31039_260130_040411.dat