passes_logs/2026/01/30/R2.0S_Moscow/R2.0S_Moscow__20260130_162634_FENGYUN_3G_rec.log

#Pass ID: 20260130_162634_FENGYUN 3G
#Satellite: FENGYUN 3G
#Configuration: FENGYUN 3G
#almurnet v.1.7.20251203
#Start time: 2026-01-30 16:26:36

#Version: 2.2.20231116
#Station: R2.0S_Moscow
#Location: 37.707566 lon 55.798166 lat
#TLE: 1 56232U 23055A   26027.33093889  .00044881  00000+0  67100-3 0  9994
#TLE: 2 56232  49.9947 352.2708 0004101  93.7831 266.3606 15.54500775158110

#Time	Az	El	Level	Level2	SNR	BER	BlckErr	Temp	State	Recorded	gain1	gain2
2026-01-30 16:26:36.20	242.63	2.11	-43.8	-61.9	3.8	8.46e-01	0	53	0	0	59	28670
2026-01-30 16:26:38.21	242.49	2.24	-43.8	-61.9	3.8	8.48e-01	0	53	104	0	59	28528
2026-01-30 16:26:40.24	242.36	2.37	-43.8	-61.9	3.8	8.45e-01	0	54	104	0	59	28597
2026-01-30 16:26:42.26	242.22	2.51	-43.8	-61.9	3.8	8.47e-01	0	54	104	0	59	28593
2026-01-30 16:26:44.28	242.08	2.64	-43.7	-61.9	3.8	8.47e-01	0	54	104	0	59	28556
2026-01-30 16:26:46.30	241.94	2.78	-43.7	-61.9	3.8	8.45e-01	0	54	104	0	59	28558
2026-01-30 16:26:48.32	241.79	2.91	-43.8	-61.9	3.8	8.46e-01	0	54	104	0	59	28543
2026-01-30 16:26:50.34	241.65	3.05	-43.8	-61.9	3.8	8.46e-01	0	54	104	0	59	28638
2026-01-30 16:26:52.36	241.50	3.19	-43.8	-61.9	3.8	8.46e-01	0	54	104	0	59	28597
2026-01-30 16:26:54.38	241.35	3.33	-43.8	-61.9	3.8	8.47e-01	0	54	104	0	59	28630
2026-01-30 16:26:56.41	241.20	3.47	-43.8	-61.9	3.8	8.46e-01	0	55	104	0	59	28542
2026-01-30 16:26:58.43	241.05	3.61	-43.7	-61.9	3.8	8.47e-01	0	55	104	0	59	28556
2026-01-30 16:27:00.45	240.89	3.75	-43.8	-61.9	3.8	8.47e-01	0	55	104	0	59	28557
2026-01-30 16:27:02.47	240.73	3.90	-43.8	-61.9	3.8	8.45e-01	0	55	104	0	59	28612
2026-01-30 16:27:04.49	240.57	4.04	-43.7	-61.9	3.8	8.46e-01	0	55	104	0	59	28559
2026-01-30 16:27:06.51	240.41	4.19	-43.7	-61.9	3.8	8.45e-01	0	55	104	0	59	28517
2026-01-30 16:27:08.53	240.25	4.33	-43.7	-61.9	3.8	8.47e-01	0	55	104	0	59	28502
2026-01-30 16:27:10.55	240.08	4.48	-43.7	-61.9	3.8	8.47e-01	0	55	104	0	59	28448
2026-01-30 16:27:12.57	239.91	4.63	-43.7	-61.9	3.8	8.46e-01	0	55	104	0	59	28471
2026-01-30 16:27:14.59	239.74	4.78	-43.7	-61.9	3.8	8.45e-01	0	55	104	0	59	28460
2026-01-30 16:27:16.61	239.56	4.93	-43.7	-61.9	3.8	8.47e-01	0	56	104	0	59	28422
2026-01-30 16:27:18.63	239.38	5.08	-43.7	-61.9	3.8	8.46e-01	0	56	104	0	59	28472
2026-01-30 16:27:20.66	239.20	5.23	-43.7	-61.9	3.8	8.46e-01	0	56	104	0	59	28413
2026-01-30 16:27:22.68	239.02	5.39	-43.7	-61.9	3.8	8.46e-01	0	56	104	0	59	28380
2026-01-30 16:27:24.70	238.83	5.54	-43.7	-61.9	3.8	8.46e-01	0	56	104	0	59	28401
2026-01-30 16:27:26.72	238.64	5.70	-43.7	-61.8	3.8	8.46e-01	0	56	104	0	59	28277
2026-01-30 16:27:28.74	238.45	5.86	-43.7	-61.9	3.8	8.47e-01	0	56	104	0	59	28358
2026-01-30 16:27:30.76	238.25	6.02	-43.7	-61.9	3.8	8.46e-01	0	57	104	0	59	28455
2026-01-30 16:27:32.78	238.06	6.18	-43.7	-61.9	3.8	8.46e-01	0	57	104	0	59	28501
2026-01-30 16:27:34.80	237.85	6.34	-43.7	-61.9	3.8	8.46e-01	0	56	104	0	59	28401
2026-01-30 16:27:36.82	237.65	6.50	-43.7	-61.9	3.8	8.46e-01	0	57	104	0	59	28394
2026-01-30 16:27:38.84	237.44	6.67	-43.7	-61.8	3.8	8.47e-01	0	57	104	0	59	28271
2026-01-30 16:27:40.86	237.23	6.83	-43.7	-61.9	3.8	8.45e-01	0	57	104	0	59	28468
2026-01-30 16:27:42.88	237.02	7.00	-43.7	-61.9	3.8	8.45e-01	0	57	104	0	59	28365
2026-01-30 16:27:44.91	236.80	7.17	-43.7	-61.9	3.8	8.46e-01	0	57	104	0	59	28372
2026-01-30 16:27:46.93	236.57	7.34	-43.7	-61.9	3.8	8.47e-01	0	57	104	0	59	28434
2026-01-30 16:27:48.95	236.35	7.51	-43.7	-61.9	3.8	8.47e-01	0	57	104	0	59	28385
2026-01-30 16:27:50.97	236.12	7.68	-43.7	-61.9	3.8	8.48e-01	0	57	104	0	59	28417
2026-01-30 16:27:52.99	235.89	7.85	-43.7	-61.9	3.8	8.46e-01	0	57	104	0	59	28438
2026-01-30 16:27:55.01	235.65	8.03	-43.7	-61.8	3.8	8.45e-01	0	57	104	0	59	28348
2026-01-30 16:27:57.03	235.41	8.21	-43.9	-62.0	3.8	8.46e-01	0	57	104	0	59	28953
2026-01-30 16:27:59.05	235.16	8.38	-43.9	-62.0	3.8	8.46e-01	0	58	104	0	59	28879
2026-01-30 16:28:01.07	234.91	8.56	-44.0	-62.1	3.8	8.45e-01	0	57	104	0	59	29139
2026-01-30 16:28:03.10	234.66	8.75	-43.9	-62.0	3.8	8.47e-01	0	57	104	0	59	29008
2026-01-30 16:28:05.12	234.40	8.93	-44.0	-62.1	3.8	8.46e-01	0	58	104	0	59	29254
2026-01-30 16:28:07.14	234.13	9.11	-44.0	-62.1	3.8	8.46e-01	0	58	104	0	59	29249
2026-01-30 16:28:09.16	233.87	9.30	-44.0	-62.2	3.8	8.47e-01	0	58	104	0	59	29350
2026-01-30 16:28:11.18	233.59	9.49	-44.0	-62.1	3.8	8.46e-01	0	58	104	0	59	29260
2026-01-30 16:28:13.20	233.32	9.68	-44.0	-62.2	3.8	8.47e-01	0	58	104	0	59	29477
2026-01-30 16:28:15.22	233.03	9.87	-44.0	-62.2	3.8	8.48e-01	0	58	104	0	59	29440
2026-01-30 16:28:17.24	232.74	10.06	-44.1	-62.2	3.8	8.47e-01	0	58	104	0	59	29576
2026-01-30 16:28:19.26	232.45	10.26	-44.1	-62.2	3.8	8.46e-01	0	58	104	0	59	29503
2026-01-30 16:28:21.28	232.15	10.45	-44.1	-62.2	3.8	8.46e-01	0	58	104	0	59	29677
2026-01-30 16:28:23.30	231.85	10.65	-44.1	-62.2	3.8	8.45e-01	0	58	104	0	59	29658
2026-01-30 16:28:25.32	231.54	10.85	-44.1	-62.3	3.8	8.46e-01	0	59	104	0	59	29765
2026-01-30 16:28:27.34	231.22	11.05	-44.1	-62.3	3.8	8.45e-01	0	58	104	0	59	29786
2026-01-30 16:28:29.36	230.90	11.26	-44.2	-62.3	3.8	8.45e-01	0	58	104	0	59	29871
2026-01-30 16:28:31.38	230.57	11.46	-44.2	-62.3	3.8	8.46e-01	0	59	104	0	59	29791
2026-01-30 16:28:33.40	230.24	11.67	-44.2	-62.3	3.8	8.45e-01	0	59	104	0	59	30015
2026-01-30 16:28:35.42	229.90	11.88	-44.2	-62.3	3.8	8.46e-01	0	59	104	0	59	29960
2026-01-30 16:28:37.45	229.55	12.09	-44.2	-62.4	3.8	8.46e-01	0	59	104	0	59	30052
2026-01-30 16:28:39.47	229.20	12.31	-44.2	-62.4	3.8	8.45e-01	0	59	104	0	59	30036
2026-01-30 16:28:41.49	228.84	12.52	-44.3	-62.4	3.8	8.46e-01	0	59	104	0	59	30260
2026-01-30 16:28:43.50	228.47	12.74	-44.3	-62.4	3.8	8.46e-01	0	59	104	0	59	30237
2026-01-30 16:28:45.52	228.10	12.96	-44.3	-62.4	3.8	8.46e-01	0	59	104	0	59	30368
2026-01-30 16:28:47.54	227.72	13.18	-44.3	-62.4	3.8	8.46e-01	0	59	104	0	59	30365
2026-01-30 16:28:49.56	227.33	13.40	-44.3	-62.5	3.8	8.46e-01	0	59	104	0	59	30463
2026-01-30 16:28:51.58	226.93	13.63	-44.3	-62.5	3.8	8.45e-01	0	59	104	0	59	30497
2026-01-30 16:28:53.60	226.52	13.85	-44.3	-62.5	3.8	8.46e-01	0	59	104	0	59	30448
2026-01-30 16:28:55.62	226.11	14.08	-44.4	-62.5	3.8	8.46e-01	0	59	104	0	59	30533
2026-01-30 16:28:57.64	225.69	14.31	-44.4	-62.5	3.8	8.45e-01	0	60	104	0	59	30635
2026-01-30 16:28:59.66	225.25	14.55	-44.4	-62.5	3.8	8.47e-01	0	60	104	0	59	30641
2026-01-30 16:29:01.69	224.81	14.78	-44.4	-62.5	3.8	8.46e-01	0	59	104	0	59	30632
2026-01-30 16:29:03.70	224.37	15.02	-44.4	-62.6	3.8	8.45e-01	0	59	104	0	59	30734
2026-01-30 16:29:05.73	223.91	15.26	-44.4	-62.6	3.8	8.45e-01	0	59	104	0	59	30773
2026-01-30 16:29:07.75	223.44	15.50	-44.4	-62.6	3.8	8.46e-01	0	59	104	0	59	30903
2026-01-30 16:29:09.77	222.96	15.74	-44.4	-62.6	3.8	8.46e-01	0	59	104	0	59	30845
2026-01-30 16:29:11.79	222.47	15.98	-44.5	-62.6	3.8	8.45e-01	0	59	104	0	59	30991
2026-01-30 16:29:13.81	221.97	16.23	-44.5	-62.6	3.8	8.46e-01	0	59	104	0	59	30931
2026-01-30 16:29:15.83	221.47	16.48	-44.5	-62.6	3.8	8.47e-01	0	60	104	0	59	31045
2026-01-30 16:29:17.85	220.95	16.73	-44.5	-62.7	3.8	8.47e-01	0	60	104	0	59	31129
2026-01-30 16:29:19.87	220.42	16.98	-44.5	-62.7	3.8	8.46e-01	0	60	104	0	59	31195
2026-01-30 16:29:21.89	219.88	17.23	-44.5	-62.7	3.8	8.46e-01	0	60	104	0	59	31220
2026-01-30 16:29:23.91	219.32	17.48	-44.5	-62.7	3.8	8.47e-01	0	60	104	0	59	31232
2026-01-30 16:29:25.93	218.76	17.74	-44.5	-62.7	3.8	8.46e-01	0	60	104	0	59	31234
2026-01-30 16:29:27.94	218.18	18.00	-44.6	-62.7	3.8	8.46e-01	0	60	104	0	59	31333
2026-01-30 16:29:29.96	217.60	18.25	-44.4	-62.7	3.8	8.45e-01	0	60	104	0	59	31266
2026-01-30 16:29:31.98	216.99	18.51	-44.6	-62.8	3.8	8.46e-01	0	60	104	0	59	31559
2026-01-30 16:29:34.00	216.38	18.77	-44.6	-62.7	3.8	8.45e-01	0	60	104	0	59	31430
2026-01-30 16:29:36.02	215.75	19.04	-44.6	-62.8	3.8	8.47e-01	0	60	104	0	59	31556
2026-01-30 16:29:38.04	215.11	19.30	-44.6	-62.8	3.8	8.46e-01	0	60	104	0	59	31505
2026-01-30 16:29:40.06	214.46	19.56	-44.6	-62.8	3.8	8.46e-01	0	60	104	0	59	31650
2026-01-30 16:29:42.08	213.79	19.82	-44.5	-62.8	3.8	8.47e-01	0	60	104	0	60	30007
2026-01-30 16:29:44.10	213.11	20.09	-44.6	-62.8	3.8	8.46e-01	0	60	104	0	60	29921
2026-01-30 16:29:46.12	212.41	20.35	-44.6	-62.8	3.8	8.46e-01	0	60	104	0	60	29927
2026-01-30 16:29:48.14	211.70	20.62	-44.6	-62.9	3.8	8.47e-01	0	60	104	0	60	30064
2026-01-30 16:29:50.16	210.97	20.88	-44.6	-62.9	3.8	8.46e-01	0	60	104	0	60	30057
2026-01-30 16:29:52.18	210.23	21.14	-44.6	-62.9	3.8	8.46e-01	0	60	104	0	60	30180
2026-01-30 16:29:54.20	209.47	21.40	-44.6	-62.9	3.8	8.45e-01	0	60	104	0	60	30098
2026-01-30 16:29:56.22	208.70	21.67	-44.6	-62.9	3.8	8.47e-01	0	60	104	0	60	30208
2026-01-30 16:29:58.24	207.91	21.93	-44.6	-62.9	3.8	8.46e-01	0	60	104	0	60	30138
2026-01-30 16:30:00.26	207.11	22.19	-44.7	-62.9	3.8	8.47e-01	0	60	104	0	60	30160
2026-01-30 16:30:02.28	206.29	22.44	-44.6	-62.9	3.8	8.46e-01	0	60	104	0	60	30116
2026-01-30 16:30:04.29	205.46	22.70	-44.7	-62.9	3.8	8.45e-01	0	60	104	0	60	30234
2026-01-30 16:30:06.31	204.61	22.95	-44.7	-62.9	3.8	8.46e-01	0	60	104	0	60	30240
2026-01-30 16:30:08.33	203.74	23.20	-44.7	-62.9	3.8	8.46e-01	0	60	104	0	60	30287
2026-01-30 16:30:10.35	202.85	23.45	-44.7	-62.9	3.8	8.46e-01	0	60	104	0	60	30265
2026-01-30 16:30:12.38	201.95	23.69	-44.7	-62.9	3.8	8.46e-01	0	60	104	0	60	30369
2026-01-30 16:30:14.40	201.03	23.93	-44.7	-62.9	3.8	8.46e-01	0	60	104	0	60	30234
2026-01-30 16:30:16.42	200.09	24.17	-44.7	-62.9	3.8	8.45e-01	0	61	104	0	60	30354
2026-01-30 16:30:18.44	199.14	24.40	-44.7	-62.9	3.8	8.46e-01	0	61	104	0	60	30285
2026-01-30 16:30:20.46	198.18	24.62	-44.7	-63.0	3.8	8.47e-01	0	61	104	0	60	30403
2026-01-30 16:30:22.48	197.19	24.85	-44.7	-63.0	3.8	8.45e-01	0	61	104	0	60	30425
2026-01-30 16:30:24.50	196.19	25.06	-44.7	-63.0	3.8	8.47e-01	0	60	104	0	60	30443
2026-01-30 16:30:26.52	195.18	25.27	-44.7	-63.0	3.8	8.47e-01	0	61	104	0	60	30435
2026-01-30 16:30:28.54	194.15	25.47	-44.7	-63.0	3.8	8.46e-01	0	61	104	0	60	30497
2026-01-30 16:30:30.55	193.11	25.67	-44.8	-63.0	3.8	8.46e-01	0	61	104	0	60	30465
2026-01-30 16:30:32.57	192.05	25.85	-44.7	-63.0	3.8	8.47e-01	0	61	104	0	60	30453
2026-01-30 16:30:34.60	190.97	26.03	-44.7	-63.0	3.8	8.45e-01	0	61	104	0	60	30423
2026-01-30 16:30:36.61	189.89	26.20	-44.7	-63.0	3.8	8.46e-01	0	61	104	0	60	30477
2026-01-30 16:30:38.63	188.78	26.37	-44.8	-63.0	3.8	8.47e-01	0	61	104	0	60	30516
2026-01-30 16:30:40.65	187.67	26.52	-44.8	-63.0	3.8	8.46e-01	0	61	104	0	60	30622
2026-01-30 16:30:42.67	186.54	26.66	-44.8	-63.0	3.8	8.46e-01	0	61	104	0	60	30515
2026-01-30 16:30:44.69	185.41	26.80	-44.8	-63.0	3.8	8.46e-01	0	61	104	0	60	30620
2026-01-30 16:30:46.71	184.26	26.92	-44.8	-63.1	3.8	8.46e-01	0	61	104	0	60	30794
2026-01-30 16:30:48.73	183.10	27.03	-44.8	-63.0	3.8	8.45e-01	0	61	104	0	60	30689
2026-01-30 16:30:50.75	181.93	27.14	-44.8	-63.1	3.8	8.46e-01	0	61	104	0	60	30742
2026-01-30 16:30:52.77	180.76	27.23	-44.9	-63.1	3.8	8.47e-01	0	61	104	0	60	30966
2026-01-30 16:30:54.79	179.58	27.31	-44.9	-63.1	3.8	8.48e-01	0	61	104	0	60	30967
2026-01-30 16:30:56.81	178.39	27.37	-44.9	-63.1	3.8	8.47e-01	0	61	104	0	60	31003
2026-01-30 16:30:58.83	177.20	27.43	-44.9	-63.1	3.8	8.46e-01	0	61	104	0	60	31032
2026-01-30 16:31:00.85	176.00	27.47	-45.3	-63.6	3.8	8.46e-01	0	61	104	0	61	31019
2026-01-30 16:31:02.87	174.80	27.50	-45.0	-63.2	3.8	8.46e-01	0	61	104	0	61	29646
2026-01-30 16:31:04.89	173.60	27.52	-45.0	-63.2	3.8	8.46e-01	0	61	104	0	61	29550
2026-01-30 16:31:06.92	172.39	27.53	-45.0	-63.2	3.8	8.45e-01	0	61	104	0	61	29508
2026-01-30 16:31:08.94	171.18	27.52	-45.0	-63.2	3.8	8.47e-01	0	61	104	0	61	29590
2026-01-30 16:31:10.96	169.98	27.50	-45.0	-63.2	3.8	8.45e-01	0	61	104	0	61	29639
2026-01-30 16:31:12.98	168.78	27.47	-45.0	-63.2	3.8	8.46e-01	0	61	104	0	61	29634
2026-01-30 16:31:15.00	167.58	27.43	-45.1	-63.4	3.8	8.46e-01	0	61	104	0	61	30100
2026-01-30 16:31:17.02	166.39	27.37	-45.1	-63.4	3.8	8.46e-01	0	61	104	0	61	30130
2026-01-30 16:31:19.04	165.20	27.30	-45.1	-63.4	3.8	8.46e-01	0	61	104	0	61	30039
2026-01-30 16:31:21.06	164.02	27.22	-45.1	-63.3	3.8	8.46e-01	0	61	104	0	61	29919
2026-01-30 16:31:23.08	162.85	27.13	-45.1	-63.4	3.8	8.46e-01	0	61	104	0	61	30136
2026-01-30 16:31:25.10	161.68	27.03	-45.1	-63.4	3.8	8.46e-01	0	61	104	0	61	30108
2026-01-30 16:31:27.12	160.52	26.92	-45.1	-63.4	3.8	8.48e-01	0	61	104	0	61	30207
2026-01-30 16:31:29.14	159.37	26.79	-45.1	-63.4	3.8	8.46e-01	0	61	104	0	61	30147
2026-01-30 16:31:31.16	158.24	26.66	-45.1	-63.4	3.8	8.47e-01	0	61	104	0	61	30191
2026-01-30 16:31:33.18	157.11	26.52	-45.1	-63.4	3.8	8.46e-01	0	61	104	0	61	30191
2026-01-30 16:31:35.20	156.00	26.36	-45.1	-63.4	3.8	8.45e-01	0	61	104	0	61	30201
2026-01-30 16:31:37.22	154.90	26.20	-45.1	-63.4	3.8	8.46e-01	0	62	104	0	61	30344
2026-01-30 16:31:39.24	153.81	26.03	-45.1	-63.4	3.8	8.46e-01	0	61	104	0	61	30284
2026-01-30 16:31:41.26	152.74	25.85	-45.1	-63.4	3.8	8.45e-01	0	61	104	0	61	30349
2026-01-30 16:31:43.28	151.68	25.66	-45.1	-63.4	3.8	8.45e-01	0	61	104	0	61	30277
2026-01-30 16:31:45.30	150.63	25.46	-45.1	-63.4	3.8	8.47e-01	0	62	104	0	61	30271
2026-01-30 16:31:47.32	149.60	25.26	-45.1	-63.4	3.8	8.47e-01	0	61	104	0	61	30260
2026-01-30 16:31:49.34	148.59	25.05	-45.1	-63.4	3.8	8.46e-01	0	61	104	0	61	30276
2026-01-30 16:31:51.36	147.59	24.84	-45.1	-63.4	3.8	8.46e-01	0	62	104	0	61	30220
2026-01-30 16:31:53.38	146.61	24.62	-45.1	-63.4	3.8	8.47e-01	0	61	104	0	61	30289
2026-01-30 16:31:55.40	145.64	24.39	-45.1	-63.4	3.8	8.46e-01	0	61	104	0	61	30094
2026-01-30 16:31:57.42	144.69	24.16	-45.1	-63.4	3.8	8.46e-01	0	61	104	0	61	30157
2026-01-30 16:31:59.44	143.76	23.92	-45.1	-63.4	3.8	8.47e-01	0	62	104	0	61	30034
2026-01-30 16:32:01.46	142.84	23.68	-45.1	-63.4	3.8	8.47e-01	0	62	104	0	61	30066
2026-01-30 16:32:03.48	141.94	23.44	-45.0	-63.3	3.8	8.46e-01	0	62	104	0	61	29897
2026-01-30 16:32:05.50	141.05	23.19	-45.0	-63.3	3.8	8.47e-01	0	61	104	0	61	29974
2026-01-30 16:32:07.52	140.19	22.94	-45.0	-63.3	3.8	8.47e-01	0	61	104	0	61	29782
2026-01-30 16:32:09.53	139.34	22.69	-45.0	-63.3	3.8	8.47e-01	0	61	104	0	61	29817
2026-01-30 16:32:11.56	138.50	22.43	-45.0	-63.2	3.8	8.45e-01	0	61	104	0	61	29596
2026-01-30 16:32:13.58	137.68	22.18	-45.0	-63.2	3.8	8.46e-01	0	61	104	0	61	29653
2026-01-30 16:32:15.59	136.88	21.92	-44.9	-63.2	3.8	8.47e-01	0	61	104	0	60	31236
2026-01-30 16:32:17.61	136.10	21.66	-44.9	-63.2	3.8	8.46e-01	0	62	104	0	60	31301
2026-01-30 16:32:19.63	135.32	21.40	-44.9	-63.2	3.8	8.46e-01	0	61	104	0	60	31174
2026-01-30 16:32:21.65	134.57	21.14	-44.9	-63.1	3.8	8.47e-01	0	61	104	0	60	31075
2026-01-30 16:32:23.67	133.83	20.87	-44.5	-63.1	3.8	8.47e-01	0	62	104	0	60	31022
2026-01-30 16:32:25.69	133.10	20.61	-44.7	-63.2	3.8	8.46e-01	0	61	104	0	60	31105
2026-01-30 16:32:27.71	132.39	20.34	-44.7	-63.1	3.8	8.46e-01	0	61	104	0	60	30764
2026-01-30 16:32:29.73	131.69	20.08	-44.8	-63.0	3.8	8.45e-01	0	62	104	0	60	30668
2026-01-30 16:32:31.76	131.01	19.82	-44.8	-63.1	3.8	8.45e-01	0	62	104	0	60	30744
2026-01-30 16:32:33.78	130.34	19.55	-44.8	-63.1	3.8	8.45e-01	0	61	104	0	60	30825
2026-01-30 16:32:35.79	129.69	19.29	-43.7	-63.1	3.8	8.46e-01	0	62	104	0	60	30888
2026-01-30 16:32:37.81	129.05	19.03	-44.1	-63.0	3.8	8.47e-01	0	62	104	0	60	30501
2026-01-30 16:32:39.83	128.43	18.77	-44.6	-63.0	3.8	8.46e-01	0	62	104	0	60	30507
2026-01-30 16:32:41.85	127.81	18.51	-42.6	-62.1	3.8	8.46e-01	0	61	104	0	58	31074
2026-01-30 16:32:43.87	127.21	18.25	-44.6	-63.1	3.8	8.45e-01	0	62	104	0	60	30759
2026-01-30 16:32:45.89	126.62	17.99	-44.3	-62.2	3.8	8.46e-01	0	61	104	0	57	32959
2026-01-30 16:32:47.91	126.05	17.73	-43.9	-62.8	3.8	8.46e-01	0	61	104	0	59	31556
2026-01-30 16:32:49.93	125.48	17.48	-43.9	-62.6	3.7	8.46e-01	0	62	104	0	59	30810
2026-01-30 16:32:51.95	124.93	17.22	-43.9	-62.8	3.8	8.44e-01	0	62	104	0	59	31478
2026-01-30 16:32:53.97	124.39	16.97	-44.6	-62.9	3.8	8.46e-01	0	62	104	0	59	31978
2026-01-30 16:32:55.99	123.86	16.72	-44.4	-62.5	4.1	8.46e-01	0	62	104	0	56	36450
2026-01-30 16:32:58.01	123.34	16.47	-44.5	-62.7	3.8	8.47e-01	0	62	104	0	59	31317
2026-01-30 16:33:00.04	122.83	16.22	-44.4	-62.7	3.8	8.45e-01	0	62	104	0	59	31221
2026-01-30 16:33:02.06	122.34	15.98	-42.2	-63.0	3.5	8.46e-01	0	62	104	0	55	40946
2026-01-30 16:33:04.08	121.85	15.73	-43.5	-62.7	3.9	8.46e-01	0	62	104	0	58	32945
2026-01-30 16:33:06.10	121.37	15.49	-40.4	-61.5	3.9	8.46e-01	0	61	104	0	55	34156
2026-01-30 16:33:08.12	120.90	15.25	-38.3	-63.1	4.3	8.44e-01	0	62	104	0	58	34654
2026-01-30 16:33:10.14	120.45	15.01	-40.7	-61.9	3.7	8.46e-01	0	62	104	0	57	32000
2026-01-30 16:33:12.16	120.00	14.77	-42.4	-62.4	3.9	8.46e-01	0	62	104	0	57	33822
2026-01-30 16:33:14.18	119.56	14.54	-42.9	-62.6	3.8	8.47e-01	0	62	104	0	58	32649
2026-01-30 16:33:16.20	119.13	14.31	-39.6	-58.8	3.8	8.47e-01	0	62	104	0	48	37736
2026-01-30 16:33:18.22	118.71	14.08	-37.0	-61.8	3.3	8.46e-01	0	62	104	0	49	50063
2026-01-30 16:33:20.24	118.29	13.85	-30.1	-54.1	3.9	8.45e-01	0	62	104	0	29	65533
2026-01-30 16:33:22.26	117.89	13.62	-29.5	-54.6	4.4	8.28e-01	0	62	104	0	30	65535
2026-01-30 16:33:24.28	117.49	13.40	-27.2	-53.6	5.0	8.02e-01	0	62	104	0	28	65535
2026-01-30 16:33:26.30	117.10	13.17	-36.6	-58.1	4.3	8.19e-01	0	62	104	0	40	54679
2026-01-30 16:33:28.32	116.72	12.95	-10.2	-42.6	5.2	8.38e-01	0	62	104	0	6	65533
2026-01-30 16:33:30.34	116.35	12.73	-13.6	-39.6	3.0	7.70e-01	0	62	104	0	0	65535
2026-01-30 16:33:32.36	115.98	12.52	-11.5	-41.6	1.7	7.64e-01	0	62	104	0	4	65535
2026-01-30 16:33:34.38	115.62	12.30	-13.1	-42.6	3.4	7.53e-01	0	62	104	0	6	65535
2026-01-30 16:33:36.40	115.26	12.09	-25.0	-41.6	3.5	7.67e-01	0	62	104	0	4	65535
2026-01-30 16:33:38.42	114.92	11.88	-21.4	-47.1	4.2	7.92e-01	0	62	104	0	15	65535
2026-01-30 16:33:40.44	114.58	11.67	-22.4	-48.6	4.4	8.20e-01	0	62	104	0	18	65535
2026-01-30 16:33:42.46	114.25	11.46	-21.1	-48.1	5.1	7.87e-01	0	62	104	0	17	65535
2026-01-30 16:33:44.48	113.92	11.25	-22.7	-50.1	4.2	8.00e-01	0	62	104	0	21	65533
2026-01-30 16:33:46.51	113.60	11.05	-12.0	-39.6	3.6	7.46e-01	0	62	104	0	0	65535
2026-01-30 16:33:48.53	113.28	10.85	-24.2	-49.6	3.5	7.43e-01	0	62	104	0	20	65535
2026-01-30 16:33:50.55	112.97	10.65	-14.0	-40.1	3.3	7.72e-01	0	62	104	0	1	65535
2026-01-30 16:33:52.57	112.67	10.45	-23.9	-47.1	3.3	7.57e-01	0	62	104	0	15	65535
2026-01-30 16:33:54.59	112.37	10.25	-25.9	-51.6	5.0	8.09e-01	0	62	104	0	24	65535
2026-01-30 16:33:56.61	112.08	10.06	-24.0	-51.6	4.1	8.12e-01	0	62	104	0	24	65535
2026-01-30 16:33:58.63	111.79	9.87	-28.3	-51.3	3.7	8.23e-01	0	62	104	0	25	59446
2026-01-30 16:34:00.65	111.51	9.67	-24.8	-52.1	3.4	8.27e-01	0	62	104	0	25	64964
2026-01-30 16:34:02.66	111.23	9.49	-25.3	-52.5	4.1	8.34e-01	0	62	104	0	29	54325
2026-01-30 16:34:04.69	110.96	9.30	-32.9	-51.1	4.0	8.34e-01	0	62	104	0	28	48888
2026-01-30 16:34:06.70	110.69	9.11	-29.4	-51.6	4.1	8.21e-01	0	62	104	0	24	65535
2026-01-30 16:34:08.72	110.43	8.93	-26.0	-50.1	3.8	8.06e-01	0	62	104	0	24	55272
2026-01-30 16:34:10.74	110.17	8.74	-28.7	-54.1	4.0	8.36e-01	0	62	104	0	29	65535
2026-01-30 16:34:12.76	109.92	8.56	-29.8	-57.4	3.3	8.36e-01	0	62	104	0	36	64163
2026-01-30 16:34:14.79	109.67	8.38	-40.2	-61.5	3.6	8.41e-01	0	62	104	0	50	45686
2026-01-30 16:34:16.81	109.42	8.20	-34.0	-54.0	4.5	8.43e-01	0	62	104	0	39	36230
2026-01-30 16:34:18.83	109.18	8.03	-30.3	-55.6	3.7	8.40e-01	0	62	104	0	32	65531
2026-01-30 16:34:20.85	108.94	7.85	-43.9	-61.8	4.0	8.40e-01	0	62	104	0	57	31620
2026-01-30 16:34:22.87	108.71	7.68	-45.0	-63.2	3.8	8.46e-01	0	62	104	0	60	31418
2026-01-30 16:34:24.89	108.48	7.51	-45.3	-63.5	3.8	8.46e-01	0	62	104	0	61	30708
2026-01-30 16:34:26.91	108.26	7.33	-45.5	-63.8	3.8	8.46e-01	0	62	104	0	61	31613
2026-01-30 16:34:28.93	108.03	7.17	-45.6	-63.9	3.8	8.47e-01	0	62	104	0	61	31919
2026-01-30 16:34:30.95	107.82	7.00	-45.5	-63.7	3.8	8.47e-01	0	62	104	0	61	31241
2026-01-30 16:34:32.98	107.60	6.83	-45.3	-63.5	3.8	8.47e-01	0	62	104	0	61	30598
2026-01-30 16:34:35.00	107.39	6.66	-45.2	-63.4	3.8	8.46e-01	0	62	104	0	61	30277
2026-01-30 16:34:37.02	107.18	6.50	-45.1	-63.3	3.8	8.46e-01	0	62	104	0	61	29932
2026-01-30 16:34:39.04	106.98	6.34	-45.1	-63.3	3.8	8.46e-01	0	62	104	0	61	29905
2026-01-30 16:34:41.06	106.78	6.18	-45.1	-63.3	3.8	8.47e-01	0	62	104	0	61	29868
2026-01-30 16:34:43.08	106.58	6.02	-45.1	-63.3	3.8	8.46e-01	0	62	104	0	61	29891
2026-01-30 16:34:45.10	106.38	5.86	-45.1	-63.3	3.8	8.47e-01	0	62	104	0	61	29919
2026-01-30 16:34:47.12	106.19	5.70	-45.1	-63.3	3.8	8.47e-01	0	62	104	0	61	29916
2026-01-30 16:34:49.14	106.00	5.54	-45.0	-63.3	3.8	8.46e-01	0	62	104	0	61	29908
2026-01-30 16:34:51.16	105.82	5.39	-45.1	-63.3	3.8	8.46e-01	0	62	104	0	61	29768
2026-01-30 16:34:53.19	105.63	5.23	-45.1	-63.3	3.8	8.47e-01	0	62	104	0	61	29806
2026-01-30 16:34:55.20	105.45	5.08	-45.1	-63.3	3.8	8.45e-01	0	62	104	0	61	29785
2026-01-30 16:34:57.23	105.27	4.93	-45.1	-63.3	3.8	8.47e-01	0	62	104	0	61	29818
2026-01-30 16:34:59.25	105.10	4.78	-45.1	-63.3	3.8	8.47e-01	0	62	104	0	61	29802
2026-01-30 16:35:01.27	104.93	4.63	-45.1	-63.3	3.8	8.47e-01	0	62	104	0	61	29871
2026-01-30 16:35:03.29	104.76	4.48	-45.1	-63.3	3.8	8.45e-01	0	62	104	0	61	29782
2026-01-30 16:35:05.31	104.59	4.33	-45.1	-63.3	3.8	8.45e-01	0	62	104	0	61	29777
2026-01-30 16:35:07.33	104.43	4.19	-44.9	-63.3	3.8	8.46e-01	0	62	104	0	61	29795
2026-01-30 16:35:09.35	104.26	4.04	-45.0	-63.3	3.8	8.45e-01	0	62	104	0	61	29771
2026-01-30 16:35:11.37	104.10	3.90	-45.1	-63.3	3.8	8.47e-01	0	62	104	0	61	29730
2026-01-30 16:35:13.39	103.95	3.75	-45.0	-63.3	3.8	8.46e-01	0	62	104	0	61	29777
2026-01-30 16:35:15.41	103.79	3.61	-45.0	-63.3	3.8	8.45e-01	0	62	104	0	61	29728
2026-01-30 16:35:17.43	103.64	3.47	-45.0	-63.3	3.8	8.46e-01	0	62	104	0	61	29775
2026-01-30 16:35:19.45	103.49	3.33	-45.0	-63.3	3.8	8.45e-01	0	62	104	0	61	29727
2026-01-30 16:35:21.48	103.34	3.19	-45.0	-63.3	3.8	8.46e-01	0	62	104	0	61	29712
2026-01-30 16:35:23.50	103.19	3.05	-45.1	-63.3	3.8	8.47e-01	0	62	104	0	61	29787
2026-01-30 16:35:25.52	103.04	2.91	-45.0	-63.3	3.8	8.46e-01	0	62	104	0	61	29694
2026-01-30 16:35:27.54	102.90	2.78	-45.0	-63.3	3.8	8.46e-01	0	62	104	0	61	29715
2026-01-30 16:35:29.56	102.76	2.64	-45.0	-63.2	3.8	8.47e-01	0	62	104	0	61	29573
2026-01-30 16:35:31.58	102.62	2.51	-45.0	-63.2	3.8	8.47e-01	0	62	104	0	61	29649
2026-01-30 16:35:33.60	102.48	2.37	-45.0	-63.2	3.8	8.45e-01	0	62	104	0	61	29660
2026-01-30 16:35:35.62	102.35	2.24	-45.0	-63.2	3.8	8.46e-01	0	62	104	0	61	29638
2026-01-30 16:35:37.64	102.22	2.11	-45.0	-63.2	3.8	8.45e-01	0	62	104	0	61	29661
2026-01-30 16:35:39.67	102.08	1.97	-45.0	-63.2	3.8	8.46e-01	0	62	104	0	61	29673

#Closed at: 2026-01-30 16:35:40
#Recorded file [0 MB]: D:/lorett/data/31039_260130_192636.dat