passes_logs/2026/01/30/R2.0S_Moscow/R2.0S_Moscow__20260130_004959_FENGYUN_3D_rec.log

#Pass ID: 20260130_004959_FENGYUN 3D
#Satellite: FENGYUN 3D
#Configuration: FENGYUN 3D
#almurnet v.1.7.20251203
#Start time: 2026-01-30 00:49:59

#Version: 2.2.20231116
#Station: R2.0S_Moscow
#Location: 37.707566 lon 55.798166 lat
#TLE: 1 43010U 17072A   26028.95797775  .00000451  00000+0  23492-3 0  9991
#TLE: 2 43010  98.9958   0.9922 0002505  85.7480 274.3981 14.19703224425237

#Time	Az	El	Level	Level2	SNR	BER	BlckErr	Temp	State	Recorded	gain1	gain2
2026-01-30 00:49:59.08	21.62	1.98	-42.2	-53.8	3.8	8.46e-01	0	52	0	0	56	13322
2026-01-30 00:50:03.11	21.81	2.23	-42.2	-53.8	3.8	8.45e-01	0	53	104	0	56	13321
2026-01-30 00:50:07.15	22.00	2.47	-42.2	-53.8	3.8	8.45e-01	0	53	104	0	56	13298
2026-01-30 00:50:11.20	22.20	2.72	-42.2	-53.8	3.8	8.46e-01	0	53	104	0	56	13279
2026-01-30 00:50:15.24	22.39	2.97	-42.2	-53.7	3.8	8.45e-01	0	54	104	0	56	13231
2026-01-30 00:50:19.29	22.60	3.22	-42.2	-53.8	3.8	8.47e-01	0	54	104	0	56	13294
2026-01-30 00:50:23.33	22.80	3.47	-42.2	-53.8	3.8	8.45e-01	0	54	104	0	56	13283
2026-01-30 00:50:27.37	23.01	3.73	-42.2	-53.7	3.8	8.46e-01	0	54	104	0	56	13226
2026-01-30 00:50:31.42	23.22	3.98	-42.2	-53.8	3.8	8.46e-01	0	55	104	0	56	13276
2026-01-30 00:50:35.46	23.43	4.24	-42.2	-53.7	3.8	8.46e-01	0	55	104	0	56	13256
2026-01-30 00:50:39.50	23.65	4.50	-42.2	-53.7	3.8	8.46e-01	0	55	104	0	56	13245
2026-01-30 00:50:43.54	23.87	4.77	-42.2	-53.8	3.8	8.45e-01	0	55	104	0	56	13283
2026-01-30 00:50:47.58	24.10	5.03	-42.2	-53.7	3.8	8.45e-01	0	55	104	0	56	13216
2026-01-30 00:50:51.62	24.32	5.30	-42.2	-53.7	3.8	8.46e-01	0	56	104	0	56	13193
2026-01-30 00:50:55.66	24.56	5.57	-42.2	-53.7	3.8	8.47e-01	0	56	104	0	56	13227
2026-01-30 00:50:59.71	24.79	5.85	-42.2	-53.7	3.8	8.46e-01	0	56	104	0	56	13214
2026-01-30 00:51:03.75	25.03	6.12	-42.2	-53.7	3.8	8.46e-01	0	56	104	0	56	13225
2026-01-30 00:51:07.79	25.28	6.40	-42.2	-53.7	3.8	8.46e-01	0	56	104	0	56	13194
2026-01-30 00:51:11.83	25.53	6.68	-42.2	-53.7	3.8	8.46e-01	0	56	104	0	56	13115
2026-01-30 00:51:15.87	25.78	6.97	-42.1	-53.1	3.8	8.45e-01	0	57	104	0	56	12373
2026-01-30 00:51:19.91	26.04	7.25	-42.0	-52.5	3.8	8.45e-01	0	57	104	0	56	11433
2026-01-30 00:51:23.95	26.30	7.54	-41.3	-48.4	4.8	8.15e-01	0	57	0	0	54	8070
2026-01-30 00:51:27.99	26.57	7.83	-39.9	-44.1	8.2	7.73e-02	0	57	0	14680064	51	5810
2026-01-30 00:51:32.04	26.85	8.13	-39.0	-42.1	10.4	5.05e-03	0	57	0	37748736	49	5204
2026-01-30 00:51:36.08	27.12	8.43	-40.1	-43.9	9.0	8.10e-03	0	57	0	60817408	51	5699
2026-01-30 00:51:40.12	27.41	8.73	-39.6	-42.4	11.4	1.38e-03	0	58	0	82837504	50	5088
2026-01-30 00:51:44.16	27.70	9.03	-39.6	-42.3	11.6	1.10e-03	0	58	0	105906176	50	5040
2026-01-30 00:51:48.20	27.99	9.34	-39.7	-42.4	11.7	8.85e-04	0	58	0	128974848	50	5050
2026-01-30 00:51:52.24	28.29	9.65	-39.6	-42.3	11.9	8.75e-04	0	58	0	150994944	50	5000
2026-01-30 00:51:56.28	28.60	9.97	-39.8	-42.5	11.8	6.65e-04	0	58	0	174063616	50	5106
2026-01-30 00:52:00.32	28.92	10.28	-39.8	-42.4	11.9	5.12e-04	0	58	0	197132288	50	5070
2026-01-30 00:52:04.36	29.24	10.60	-39.5	-42.0	12.5	3.36e-04	0	58	0	219152384	50	4838
2026-01-30 00:52:08.40	29.56	10.93	-39.4	-41.8	12.7	1.20e-04	0	59	0	242221056	50	4729
2026-01-30 00:52:12.44	29.90	11.26	-39.3	-41.6	12.9	7.66e-05	0	58	0	265289728	50	4639
2026-01-30 00:52:16.48	30.24	11.59	-39.5	-41.8	12.7	9.84e-05	0	59	0	287309824	50	4752
2026-01-30 00:52:20.52	30.59	11.92	-39.3	-41.6	13.0	6.29e-05	0	59	0	310378496	50	4630
2026-01-30 00:52:24.56	30.94	12.26	-39.1	-41.3	13.4	4.00e-05	0	59	0	333447168	50	4449
2026-01-30 00:52:28.60	31.31	12.60	-39.1	-41.2	13.4	2.74e-05	0	59	0	355467264	49	4684
2026-01-30 00:52:32.64	31.68	12.95	-38.9	-41.1	13.6	1.83e-05	0	59	0	378535936	49	4607
2026-01-30 00:52:36.69	32.06	13.30	-38.9	-41.0	13.7	1.71e-05	0	59	0	401604608	49	4591
2026-01-30 00:52:40.73	32.45	13.65	-38.9	-41.0	13.7	1.02e-05	0	59	0	424673280	49	4557
2026-01-30 00:52:44.77	32.85	14.01	-38.9	-41.0	13.7	1.02e-05	0	59	0	446693376	49	4586
2026-01-30 00:52:48.82	33.26	14.38	-39.0	-41.1	13.7	2.05e-05	0	59	0	469762048	49	4638
2026-01-30 00:52:52.86	33.67	14.74	-39.0	-41.1	13.7	1.02e-05	0	59	0	491782144	49	4617
2026-01-30 00:52:56.90	34.10	15.11	-38.9	-41.0	13.9	1.25e-05	0	59	0	514850816	49	4556
2026-01-30 00:53:00.95	34.54	15.49	-38.6	-40.6	14.3	1.10e-06	0	59	0	537919488	49	4360
2026-01-30 00:53:04.99	34.99	15.87	-38.6	-40.6	14.3	1.10e-06	0	59	0	560988160	49	4354
2026-01-30 00:53:09.04	35.45	16.26	-38.5	-40.4	14.5	0.00e+00	0	59	0	583008256	48	4536
2026-01-30 00:53:13.07	35.92	16.64	-38.6	-40.5	14.4	1.10e-06	0	59	0	606076928	48	4589
2026-01-30 00:53:17.11	36.40	17.04	-38.7	-40.6	14.3	2.20e-06	0	60	0	629145600	48	4649
2026-01-30 00:53:21.16	36.90	17.43	-38.6	-40.5	14.4	3.40e-06	0	60	0	651165696	48	4593
2026-01-30 00:53:25.20	37.41	17.84	-38.5	-40.4	14.6	0.00e+00	0	60	0	674234368	48	4517
2026-01-30 00:53:29.24	37.93	18.24	-38.5	-40.4	14.6	1.10e-06	0	59	0	697303040	48	4519
2026-01-30 00:53:33.28	38.47	18.65	-38.3	-40.2	14.9	0.00e+00	0	60	0	719323136	48	4405
2026-01-30 00:53:37.32	39.02	19.07	-38.4	-40.3	14.8	0.00e+00	0	60	0	742391808	48	4443
2026-01-30 00:53:41.36	39.58	19.49	-38.1	-39.9	15.2	0.00e+00	0	60	0	765460480	48	4264
2026-01-30 00:53:45.40	40.16	19.91	-37.9	-39.6	15.3	0.00e+00	0	60	0	787480576	47	4377
2026-01-30 00:53:49.44	40.76	20.34	-38.0	-39.7	15.2	0.00e+00	0	60	0	810549248	47	4441
2026-01-30 00:53:53.48	41.37	20.78	-37.9	-39.7	15.3	0.00e+00	0	60	0	833617920	47	4395
2026-01-30 00:53:57.53	42.00	21.22	-37.9	-39.6	15.4	0.00e+00	0	60	0	856686592	47	4377
2026-01-30 00:54:01.57	42.65	21.66	-37.6	-39.2	15.8	0.00e+00	0	60	0	878706688	47	4185
2026-01-30 00:54:05.61	43.31	22.10	-37.6	-39.3	15.8	0.00e+00	0	60	0	901775360	46	4446
2026-01-30 00:54:09.65	44.00	22.55	-37.7	-39.4	15.7	0.00e+00	0	60	0	923795456	46	4515
2026-01-30 00:54:13.69	44.70	23.01	-37.3	-38.9	16.2	0.00e+00	0	60	0	946864128	46	4258
2026-01-30 00:54:17.73	45.43	23.47	-37.4	-39.0	16.1	0.00e+00	0	60	0	969932800	46	4319
2026-01-30 00:54:21.77	46.17	23.93	-37.3	-38.9	16.2	0.00e+00	0	60	0	991952896	46	4267
2026-01-30 00:54:25.81	46.94	24.39	-37.2	-38.8	16.3	0.00e+00	0	60	0	1015021568	46	4230
2026-01-30 00:54:29.85	47.73	24.86	-37.1	-38.7	16.3	0.00e+00	0	60	0	1038090240	46	4174
2026-01-30 00:54:33.89	48.54	25.33	-37.0	-38.5	16.5	0.00e+00	0	60	0	1061158912	46	4095
2026-01-30 00:54:37.93	49.38	25.80	-36.9	-38.5	16.6	0.00e+00	0	60	0	1083179008	45	4309
2026-01-30 00:54:41.97	50.24	26.28	-37.1	-38.6	16.5	0.00e+00	0	60	0	1106247680	45	4375
2026-01-30 00:54:46.01	51.13	26.75	-37.0	-38.6	16.5	0.00e+00	0	60	0	1128267776	45	4343
2026-01-30 00:54:50.04	52.04	27.23	-36.9	-38.7	16.3	0.00e+00	0	60	0	1151336448	45	4392
2026-01-30 00:54:54.09	52.99	27.71	-36.8	-38.5	16.4	0.00e+00	0	61	0	1174405120	45	4304
2026-01-30 00:54:58.13	53.96	28.18	-36.6	-38.2	16.7	0.00e+00	0	61	0	1197473792	45	4146
2026-01-30 00:55:02.17	54.96	28.66	-36.6	-38.3	16.7	0.00e+00	0	60	0	1219493888	45	4197
2026-01-30 00:55:06.21	55.98	29.14	-36.3	-37.8	17.2	0.00e+00	0	60	0	1242562560	44	4199
2026-01-30 00:55:10.25	57.04	29.61	-36.5	-38.1	16.8	0.00e+00	0	61	0	1265631232	44	4372
2026-01-30 00:55:14.29	58.13	30.08	-36.5	-38.1	16.8	0.00e+00	0	60	0	1287651328	44	4356
2026-01-30 00:55:18.34	59.26	30.55	-36.3	-37.9	17.1	0.00e+00	0	60	0	1310720000	44	4251
2026-01-30 00:55:22.38	60.41	31.01	-36.5	-38.1	16.9	0.00e+00	0	60	0	1333788672	44	4369
2026-01-30 00:55:26.42	61.60	31.47	-36.6	-38.3	16.7	0.00e+00	0	61	0	1355808768	44	4452
2026-01-30 00:55:30.47	62.82	31.92	-36.6	-38.2	16.8	0.00e+00	0	61	0	1378877440	44	4404
2026-01-30 00:55:34.51	64.07	32.36	-36.6	-38.2	16.8	0.00e+00	0	60	0	1401946112	44	4404
2026-01-30 00:55:38.55	65.36	32.80	-36.7	-38.3	16.7	0.00e+00	0	61	0	1423966208	44	4470
2026-01-30 00:55:42.59	66.68	33.22	-36.3	-37.9	17.2	0.00e+00	0	61	0	1447034880	44	4245
2026-01-30 00:55:46.63	68.04	33.63	-36.5	-38.0	17.0	0.00e+00	0	61	0	1470103552	44	4337
2026-01-30 00:55:50.67	69.43	34.03	-36.3	-37.8	17.2	0.00e+00	0	61	0	1493172224	44	4222
2026-01-30 00:55:54.71	70.85	34.42	-36.2	-37.7	17.3	0.00e+00	0	61	0	1515192320	44	4185
2026-01-30 00:55:58.75	72.31	34.79	-36.3	-37.8	17.3	0.00e+00	0	61	0	1538260992	44	4201
2026-01-30 00:56:02.79	73.79	35.15	-36.5	-38.0	17.1	0.00e+00	0	61	0	1560281088	44	4324
2026-01-30 00:56:06.83	75.31	35.48	-36.2	-37.7	17.4	0.00e+00	0	61	0	1583349760	44	4181
2026-01-30 00:56:10.88	76.87	35.80	-36.1	-37.6	17.5	0.00e+00	0	61	0	1606418432	44	4121
2026-01-30 00:56:14.92	78.45	36.10	-36.0	-37.5	17.5	0.00e+00	0	61	0	1628438528	43	4299
2026-01-30 00:56:18.96	80.06	36.38	-35.9	-37.4	17.5	0.00e+00	0	61	0	1651507200	43	4265
2026-01-30 00:56:23.00	81.69	36.63	-36.1	-37.6	17.4	0.00e+00	0	61	0	1674575872	43	4353
2026-01-30 00:56:27.04	83.35	36.86	-35.9	-37.3	17.6	0.00e+00	0	61	0	1697644544	43	4230
2026-01-30 00:56:31.08	85.03	37.06	-35.7	-37.1	17.8	0.00e+00	0	61	0	1719664640	43	4118
2026-01-30 00:56:35.12	86.73	37.24	-35.8	-37.2	17.7	0.00e+00	0	61	0	1742733312	43	4190
2026-01-30 00:56:39.16	88.45	37.39	-36.1	-37.6	17.4	0.00e+00	0	61	0	1764753408	43	4350
2026-01-30 00:56:43.20	90.18	37.51	-35.9	-37.3	17.6	0.00e+00	0	61	0	1787822080	43	4233
2026-01-30 00:56:47.24	91.93	37.60	-35.8	-37.3	17.7	0.00e+00	0	61	0	1810890752	43	4202
2026-01-30 00:56:51.28	93.68	37.67	-36.0	-37.4	17.5	0.00e+00	0	61	0	1833959424	43	4281
2026-01-30 00:56:55.32	95.44	37.70	-36.1	-37.6	17.3	0.00e+00	0	61	0	1855979520	43	4363
2026-01-30 00:56:59.36	97.20	37.70	-36.0	-37.5	17.4	0.00e+00	0	61	0	1879048192	43	4332
2026-01-30 00:57:03.40	98.95	37.68	-35.9	-37.3	17.6	0.00e+00	0	61	0	1902116864	43	4224
2026-01-30 00:57:07.44	100.71	37.62	-36.0	-37.5	17.5	0.00e+00	0	61	0	1924136960	43	4312
2026-01-30 00:57:11.49	102.46	37.54	-36.0	-37.5	17.5	0.00e+00	0	61	0	1947205632	43	4310
2026-01-30 00:57:15.53	104.20	37.43	-35.8	-37.2	17.7	0.00e+00	0	61	0	1970274304	43	4163
2026-01-30 00:57:19.57	105.92	37.28	-36.0	-37.5	17.5	0.00e+00	0	61	0	1992294400	43	4303
2026-01-30 00:57:23.61	107.63	37.11	-36.0	-37.4	17.5	0.00e+00	0	61	0	2015363072	43	4289
2026-01-30 00:57:27.66	109.32	36.92	-36.0	-37.5	17.4	0.00e+00	0	61	0	2038431744	43	4333
2026-01-30 00:57:31.70	110.99	36.70	-36.1	-37.6	17.3	0.00e+00	0	61	0	2060451840	43	4363
2026-01-30 00:57:35.74	112.63	36.45	-36.1	-37.6	17.3	0.00e+00	0	61	0	2083520512	43	4381
2026-01-30 00:57:39.79	114.26	36.18	-36.0	-37.5	17.5	0.00e+00	0	61	0	2106589184	43	4300
2026-01-30 00:57:43.83	115.85	35.89	-36.1	-37.6	17.4	0.00e+00	0	61	0	2129657856	43	4351
2026-01-30 00:57:47.88	117.42	35.57	-36.1	-37.6	17.3	0.00e+00	0	61	0	2151677952	43	4341
2026-01-30 00:57:51.91	118.95	35.24	-36.1	-37.6	17.3	0.00e+00	0	61	0	2174746624	43	4374
2026-01-30 00:57:55.96	120.45	34.89	-36.0	-37.5	17.4	0.00e+00	0	61	0	2196766720	43	4326
2026-01-30 00:58:00.00	121.92	34.52	-36.4	-37.9	17.0	0.00e+00	0	61	0	2219835392	43	4533
2026-01-30 00:58:04.04	123.36	34.13	-36.2	-37.6	17.3	0.00e+00	0	61	0	2242904064	43	4388
2026-01-30 00:58:08.08	124.76	33.73	-36.5	-38.0	16.9	0.00e+00	0	61	0	2265972736	43	4592
2026-01-30 00:58:12.12	126.13	33.32	-36.2	-37.7	17.2	0.00e+00	0	61	0	2287992832	43	4421
2026-01-30 00:58:16.16	127.46	32.90	-36.3	-37.9	17.0	0.00e+00	0	61	0	2311061504	43	4525
2026-01-30 00:58:20.21	128.77	32.46	-36.4	-38.0	16.9	0.00e+00	0	61	0	2333081600	43	4580
2026-01-30 00:58:24.25	130.03	32.02	-36.6	-38.2	16.7	0.00e+00	0	61	0	2356150272	43	4654
2026-01-30 00:58:28.29	131.27	31.57	-36.5	-38.1	16.8	0.00e+00	0	61	0	2379218944	43	4601
2026-01-30 00:58:32.33	132.47	31.11	-36.5	-38.1	16.8	0.00e+00	0	61	0	2402287616	43	4614
2026-01-30 00:58:36.37	133.63	30.65	-36.7	-38.3	16.6	0.00e+00	0	61	0	2424307712	43	4750
2026-01-30 00:58:40.41	134.77	30.18	-36.4	-38.0	16.9	0.00e+00	0	61	0	2447376384	43	4573
2026-01-30 00:58:44.45	135.87	29.71	-36.7	-38.3	16.6	0.00e+00	0	61	0	2470445056	43	4742
2026-01-30 00:58:48.49	136.94	29.23	-36.7	-38.3	16.6	0.00e+00	0	61	0	2492465152	44	4485
2026-01-30 00:58:52.54	137.98	28.75	-37.1	-38.8	16.2	0.00e+00	0	61	0	2515533824	44	4733
2026-01-30 00:58:56.58	138.99	28.27	-37.0	-38.7	16.4	0.00e+00	0	61	0	2538602496	44	4682
2026-01-30 00:59:00.63	139.97	27.79	-36.9	-38.5	16.5	0.00e+00	0	61	0	2560622592	44	4581
2026-01-30 00:59:04.67	140.93	27.31	-36.9	-38.5	16.5	0.00e+00	0	61	0	2583691264	44	4576
2026-01-30 00:59:08.72	141.85	26.83	-36.8	-38.5	16.6	0.00e+00	0	61	0	2606759936	44	4559
2026-01-30 00:59:12.76	142.75	26.35	-36.9	-38.6	16.5	0.00e+00	0	61	0	2628780032	44	4615
2026-01-30 00:59:16.80	143.62	25.87	-37.0	-38.6	16.4	0.00e+00	0	61	0	2651848704	44	4649
2026-01-30 00:59:20.84	144.47	25.39	-37.1	-38.7	16.3	0.00e+00	0	61	0	2674917376	44	4699
2026-01-30 00:59:24.88	145.29	24.92	-37.2	-39.0	16.1	0.00e+00	0	61	0	2697986048	45	4549
2026-01-30 00:59:28.92	146.09	24.45	-36.9	-38.6	16.4	0.00e+00	0	61	0	2720006144	45	4355
2026-01-30 00:59:32.97	146.86	23.98	-37.0	-38.7	16.2	0.00e+00	0	61	0	2743074816	45	4433
2026-01-30 00:59:37.01	147.62	23.51	-37.2	-39.0	16.0	0.00e+00	0	61	0	2765094912	45	4571
2026-01-30 00:59:41.05	148.35	23.05	-37.1	-38.9	16.1	0.00e+00	0	61	0	2788163584	45	4494
2026-01-30 00:59:45.09	149.06	22.59	-37.2	-39.0	16.0	0.00e+00	0	61	0	2811232256	45	4553
2026-01-30 00:59:49.13	149.75	22.14	-37.4	-39.2	15.8	0.00e+00	0	61	0	2834300928	45	4655
2026-01-30 00:59:53.17	150.42	21.69	-37.6	-39.4	15.6	0.00e+00	0	61	0	2856321024	45	4770
2026-01-30 00:59:57.21	151.07	21.24	-37.6	-39.4	15.6	0.00e+00	0	61	0	2879389696	45	4766
2026-01-30 01:00:01.25	151.71	20.80	-37.8	-39.6	15.3	0.00e+00	0	61	0	2902458368	46	4644
2026-01-30 01:00:05.29	152.32	20.36	-37.8	-39.7	15.2	0.00e+00	0	61	0	2924478464	46	4664
2026-01-30 01:00:09.33	152.92	19.93	-37.9	-39.8	15.1	0.00e+00	0	61	0	2947547136	46	4722
2026-01-30 01:00:13.37	153.51	19.50	-37.9	-39.8	15.0	0.00e+00	0	61	0	2970615808	46	4756
2026-01-30 01:00:17.41	154.08	19.08	-38.1	-40.0	14.9	0.00e+00	0	61	0	2992635904	46	4835
2026-01-30 01:00:21.45	154.63	18.66	-38.1	-40.1	14.8	0.00e+00	0	61	0	3015704576	46	4898
2026-01-30 01:00:25.49	155.17	18.24	-38.4	-40.4	14.5	0.00e+00	0	61	0	3038773248	47	4795
2026-01-30 01:00:29.53	155.69	17.83	-38.3	-40.3	14.6	1.10e-06	0	61	0	3060793344	47	4732
2026-01-30 01:00:33.57	156.20	17.42	-38.3	-40.3	14.5	1.10e-06	0	61	0	3083862016	47	4737
2026-01-30 01:00:37.61	156.70	17.02	-38.2	-40.2	14.6	1.10e-06	0	61	0	3106930688	47	4680
2026-01-30 01:00:41.65	157.19	16.63	-38.3	-40.3	14.5	0.00e+00	0	61	0	3128950784	47	4734
2026-01-30 01:00:45.70	157.66	16.23	-38.5	-40.5	14.3	0.00e+00	0	61	0	3152019456	47	4856
2026-01-30 01:00:49.74	158.12	15.84	-38.7	-40.8	14.0	4.50e-06	0	61	0	3175088128	47	5009
2026-01-30 01:00:53.78	158.57	15.46	-38.9	-41.1	13.8	1.25e-05	0	61	0	3197108224	48	4899
2026-01-30 01:00:57.82	159.01	15.08	-39.0	-41.2	13.7	6.80e-06	0	61	0	3220176896	48	4951
2026-01-30 01:01:01.86	159.44	14.71	-39.0	-41.2	13.6	1.37e-05	0	61	0	3243245568	48	4958
2026-01-30 01:01:05.90	159.86	14.34	-39.0	-41.2	13.6	1.37e-05	0	61	0	3265265664	48	4973
2026-01-30 01:01:09.94	160.27	13.97	-39.0	-41.2	13.6	1.71e-05	0	61	0	3288334336	48	4951
2026-01-30 01:01:13.99	160.67	13.61	-39.1	-41.3	13.5	2.28e-05	0	61	0	3311403008	48	5036
2026-01-30 01:01:18.03	161.06	13.25	-39.2	-41.5	13.2	4.80e-05	0	61	0	3334471680	49	4866
2026-01-30 01:01:22.07	161.44	12.90	-39.2	-41.6	13.2	5.37e-05	0	61	0	3356491776	49	4881
2026-01-30 01:01:26.11	161.81	12.55	-39.2	-41.6	13.1	6.63e-05	0	61	0	3379560448	49	4904
2026-01-30 01:01:30.14	162.18	12.20	-39.3	-41.7	13.0	3.66e-05	0	61	0	3401580544	49	4938
2026-01-30 01:01:34.18	162.53	11.86	-39.4	-41.9	12.8	9.84e-05	0	61	0	3424649216	49	5067
2026-01-30 01:01:38.23	162.88	11.52	-39.5	-42.1	12.5	1.40e-04	0	61	0	3447717888	49	5172
2026-01-30 01:01:42.26	163.22	11.19	-39.6	-42.2	12.4	2.08e-04	0	61	0	3469737984	49	5226
2026-01-30 01:01:46.30	163.55	10.86	-39.6	-42.2	12.3	2.46e-04	0	61	0	3492806656	49	5254
2026-01-30 01:01:50.34	163.88	10.53	-39.6	-42.2	12.3	2.92e-04	0	61	0	3515875328	49	5260
2026-01-30 01:01:54.38	164.20	10.21	-39.8	-42.4	12.2	2.79e-04	0	61	0	3538944000	50	5049
2026-01-30 01:01:58.42	164.51	9.89	-39.8	-42.4	12.1	4.21e-04	0	61	0	3560964096	50	5082
2026-01-30 01:02:02.46	164.82	9.57	-39.8	-42.5	11.9	4.94e-04	0	61	0	3584032768	50	5146
2026-01-30 01:02:06.50	165.12	9.26	-39.9	-42.7	11.7	8.66e-04	0	61	0	3606052864	50	5266
2026-01-30 01:02:10.55	165.41	8.94	-39.9	-42.7	11.7	8.55e-04	0	61	0	3629121536	50	5246
2026-01-30 01:02:14.59	165.70	8.64	-39.9	-42.7	11.6	9.63e-04	0	61	0	3652190208	50	5255
2026-01-30 01:02:18.64	165.98	8.33	-39.8	-42.6	11.7	8.40e-04	0	61	0	3675258880	50	5176
2026-01-30 01:02:22.68	166.26	8.03	-39.9	-42.7	11.5	1.02e-03	0	61	0	3697278976	50	5253
2026-01-30 01:02:26.72	166.53	7.73	-44.9	-56.7	3.8	8.46e-01	0	61	104	3703570432	60	14876
2026-01-30 01:02:30.77	166.80	7.44	-45.1	-57.0	3.8	8.46e-01	0	61	104	3703570432	60	15275
2026-01-30 01:02:34.81	167.06	7.15	-45.1	-57.1	3.8	8.45e-01	0	61	104	3703570432	60	15415
2026-01-30 01:02:38.85	167.31	6.86	-45.0	-56.9	3.8	8.46e-01	0	61	104	3703570432	60	15141
2026-01-30 01:02:42.89	167.56	6.57	-44.9	-56.9	3.8	8.46e-01	0	61	104	3703570432	60	15056
2026-01-30 01:02:46.94	167.81	6.29	-44.9	-56.8	3.8	8.46e-01	0	61	104	3703570432	60	15028
2026-01-30 01:02:50.98	168.05	6.01	-44.9	-56.8	3.8	8.46e-01	0	61	104	3703570432	60	14964
2026-01-30 01:02:55.02	168.29	5.73	-44.9	-56.8	3.8	8.47e-01	0	61	104	3703570432	60	14937
2026-01-30 01:02:59.07	168.52	5.45	-44.9	-56.8	3.8	8.47e-01	0	61	104	3703570432	60	15005
2026-01-30 01:03:03.11	168.75	5.18	-44.9	-56.8	3.8	8.46e-01	0	61	104	3703570432	60	14959
2026-01-30 01:03:07.15	168.98	4.91	-44.8	-56.8	3.8	8.45e-01	0	62	104	3703570432	60	14929
2026-01-30 01:03:11.19	169.20	4.64	-44.9	-56.8	3.8	8.46e-01	0	61	104	3703570432	60	14900
2026-01-30 01:03:15.23	169.42	4.37	-44.8	-56.8	3.8	8.46e-01	0	61	104	3703570432	60	14919
2026-01-30 01:03:19.27	169.63	4.11	-44.8	-56.8	3.8	8.46e-01	0	61	104	3703570432	60	14892
2026-01-30 01:03:23.31	169.84	3.85	-44.8	-56.8	3.8	8.47e-01	0	62	104	3703570432	60	14884
2026-01-30 01:03:27.35	170.05	3.59	-44.8	-56.7	3.8	8.45e-01	0	62	104	3703570432	60	14864
2026-01-30 01:03:31.40	170.25	3.33	-44.8	-56.8	3.8	8.45e-01	0	61	104	3703570432	60	14882
2026-01-30 01:03:35.44	170.45	3.08	-44.8	-56.7	3.8	8.47e-01	0	61	104	3703570432	60	14782
2026-01-30 01:03:39.48	170.65	2.83	-44.8	-56.7	3.8	8.46e-01	0	61	104	3703570432	60	14778
2026-01-30 01:03:43.52	170.84	2.57	-44.8	-56.7	3.8	8.47e-01	0	61	104	3703570432	60	14811
2026-01-30 01:03:47.57	171.04	2.32	-44.8	-56.7	3.8	8.47e-01	0	61	104	3703570432	60	14745
2026-01-30 01:03:51.61	171.22	2.08	-44.8	-56.7	3.8	8.46e-01	0	62	104	3703570432	60	14856

#Closed at: 2026-01-30 01:03:55
#Recorded file [3703 MB]: D:/lorett/data/31039_260130_034958.dat