passes_logs/2026/01/30/R2.0S_Moscow/R2.0S_Moscow__20260130_080549_SUOMI_NPP_rec.log

#Pass ID: 20260130_080549_SUOMI NPP
#Satellite: SUOMI NPP
#Configuration: NPP
#almurnet v.1.7.20251203
#Start time: 2026-01-30 08:05:50

#Version: 2.2.20231116
#Station: R2.0S_Moscow
#Location: 37.707566 lon 55.798166 lat
#TLE: 1 37849U 11061A   26029.48304708  .00000140  00000+0  87283-4 0  9999
#TLE: 2 37849  98.7824 331.4079 0002024  38.4342 321.6978 14.19531488738761

#Time	Az	El	Level	Level2	SNR	BER	BlckErr	Temp	State	Recorded	gain1	gain2
2026-01-30 08:05:50.07	104.50	2.03	-39.7	-54.3	3.8	1.49e+00	0	52	0	0	49	21178
2026-01-30 08:05:53.10	104.27	2.19	-38.9	-54.1	3.8	1.49e+00	0	52	104	0	48	21992
2026-01-30 08:05:56.13	104.04	2.35	-37.2	-53.7	3.8	1.49e+00	0	52	104	0	45	24757
2026-01-30 08:05:59.16	103.80	2.52	-39.7	-54.2	3.8	1.49e+00	0	52	104	0	50	19737
2026-01-30 08:06:02.19	103.56	2.68	-38.8	-54.1	3.8	1.49e+00	0	53	104	0	47	23126
2026-01-30 08:06:05.22	103.32	2.85	-36.8	-53.4	3.8	1.49e+00	0	53	104	0	44	25305
2026-01-30 08:06:08.25	103.08	3.01	-39.5	-54.1	3.8	1.49e+00	0	53	104	0	49	20740
2026-01-30 08:06:11.29	102.83	3.18	-37.1	-53.7	3.8	1.49e+00	0	53	104	0	48	20867
2026-01-30 08:06:14.32	102.58	3.35	-39.8	-54.3	3.8	1.49e+00	0	53	104	0	50	20040
2026-01-30 08:06:17.34	102.33	3.51	-39.7	-54.2	3.8	1.49e+00	0	54	104	0	50	19715
2026-01-30 08:06:20.37	102.08	3.68	-38.6	-53.8	3.8	1.49e+00	0	54	104	0	47	22432
2026-01-30 08:06:23.41	101.82	3.85	-39.5	-54.4	3.8	1.49e+00	0	54	104	0	49	21340
2026-01-30 08:06:26.44	101.56	4.02	-39.0	-54.1	3.8	1.49e+00	0	54	104	0	49	20708
2026-01-30 08:06:29.46	101.30	4.19	-38.4	-53.9	3.8	1.49e+00	0	55	104	0	48	21445
2026-01-30 08:06:32.49	101.03	4.36	-38.2	-53.9	3.8	1.49e+00	0	55	104	0	47	22597
2026-01-30 08:06:35.53	100.76	4.53	-39.4	-54.0	3.8	1.49e+00	0	55	104	0	47	22938
2026-01-30 08:06:38.56	100.48	4.70	-38.0	-54.1	3.8	1.49e+00	0	55	104	0	49	20679
2026-01-30 08:06:41.59	100.21	4.87	-39.6	-54.0	3.9	1.49e+00	0	55	104	0	48	21715
2026-01-30 08:06:44.62	99.93	5.04	-38.9	-54.1	3.8	1.49e+00	0	55	104	0	49	20593
2026-01-30 08:06:47.65	99.64	5.22	-39.7	-54.1	3.8	1.49e+00	0	55	104	0	49	20740
2026-01-30 08:06:50.68	99.36	5.39	-39.6	-54.1	3.8	1.49e+00	0	56	104	0	49	20612
2026-01-30 08:06:53.72	99.06	5.56	-39.5	-54.1	3.7	1.49e+00	0	56	104	0	49	20706
2026-01-30 08:06:56.75	98.77	5.74	-39.4	-54.2	3.7	1.49e+00	0	56	104	0	49	20825
2026-01-30 08:06:59.78	98.47	5.91	-38.7	-54.1	3.7	1.49e+00	0	56	104	0	48	21860
2026-01-30 08:07:02.81	98.17	6.09	-39.5	-54.2	3.8	1.49e+00	0	56	104	0	49	20782
2026-01-30 08:07:05.84	97.87	6.26	-39.5	-54.1	3.8	1.49e+00	0	56	104	0	49	20757
2026-01-30 08:07:08.88	97.56	6.44	-39.6	-54.1	3.9	1.49e+00	0	57	104	0	49	20699
2026-01-30 08:07:11.91	97.24	6.61	-39.2	-54.1	3.8	1.49e+00	0	57	104	0	49	20634
2026-01-30 08:07:14.94	96.93	6.79	-39.4	-54.1	3.8	1.49e+00	0	57	104	0	49	20771
2026-01-30 08:07:17.97	96.61	6.96	-39.1	-53.9	3.8	1.49e+00	0	57	104	0	49	20257
2026-01-30 08:07:21.00	96.28	7.14	-39.5	-54.2	3.8	1.49e+00	0	57	104	0	49	20803
2026-01-30 08:07:24.03	95.95	7.32	-38.8	-54.2	3.9	1.49e+00	0	57	104	0	49	20825
2026-01-30 08:07:27.07	95.62	7.50	-39.5	-54.1	3.8	1.49e+00	0	57	104	0	49	20600
2026-01-30 08:07:30.10	95.28	7.68	-39.4	-54.1	3.8	1.49e+00	0	57	104	0	49	20648
2026-01-30 08:07:33.13	94.94	7.85	-40.1	-54.5	3.8	1.49e+00	0	57	104	0	49	21625
2026-01-30 08:07:36.16	94.59	8.03	-39.4	-54.1	3.8	1.49e+00	0	58	104	0	49	20711
2026-01-30 08:07:39.19	94.24	8.21	-39.8	-54.2	3.8	1.49e+00	0	57	104	0	50	19807
2026-01-30 08:07:42.22	93.89	8.39	-38.8	-53.9	3.8	1.49e+00	0	58	104	0	48	21313
2026-01-30 08:07:45.25	93.53	8.57	-39.5	-54.2	3.8	1.49e+00	0	58	104	0	49	20847
2026-01-30 08:07:48.28	93.17	8.75	-40.1	-54.6	3.8	1.49e+00	0	58	104	0	51	19551
2026-01-30 08:07:51.31	92.80	8.93	-39.6	-54.3	3.8	1.49e+00	0	58	104	0	50	19903
2026-01-30 08:07:54.34	92.43	9.11	-40.1	-54.5	3.8	1.49e+00	0	58	104	0	51	19185
2026-01-30 08:07:57.37	92.05	9.29	-39.9	-54.4	3.8	1.49e+00	0	58	104	0	51	19007
2026-01-30 08:08:00.40	91.67	9.47	-40.2	-54.7	3.8	1.49e+00	0	58	104	0	51	19715
2026-01-30 08:08:03.43	91.28	9.65	-40.0	-54.3	3.8	1.49e+00	0	58	104	0	50	19989
2026-01-30 08:08:06.46	90.89	9.83	-40.3	-53.9	3.8	1.49e+00	0	58	104	0	51	18003
2026-01-30 08:08:09.49	90.49	10.01	-40.5	-53.4	3.8	1.49e+00	0	58	104	0	51	17042
2026-01-30 08:08:12.52	90.09	10.19	-40.8	-54.2	3.8	1.49e+00	0	58	104	0	52	17627
2026-01-30 08:08:15.55	89.69	10.37	-40.7	-55.2	3.8	1.49e+00	0	58	104	0	52	19667
2026-01-30 08:08:18.58	89.27	10.55	-40.8	-55.2	3.8	1.49e+00	0	58	104	0	52	19639
2026-01-30 08:08:21.61	88.86	10.73	-40.8	-55.2	3.8	1.49e+00	0	59	104	0	52	19829
2026-01-30 08:08:24.64	88.43	10.91	-40.7	-55.1	3.8	1.49e+00	0	59	104	0	52	19551
2026-01-30 08:08:27.67	88.01	11.09	-40.5	-55.1	3.8	1.49e+00	0	59	104	0	51	20688
2026-01-30 08:08:30.70	87.57	11.27	-40.7	-55.1	3.8	1.49e+00	0	58	104	0	52	19578
2026-01-30 08:08:33.73	87.14	11.45	-40.6	-55.1	3.8	1.49e+00	0	59	104	0	51	20588
2026-01-30 08:08:36.76	86.69	11.62	-40.5	-55.0	3.8	1.49e+00	0	59	104	0	51	20456
2026-01-30 08:08:39.79	86.24	11.80	-40.0	-54.7	3.8	1.49e+00	0	59	104	0	51	19735
2026-01-30 08:08:42.82	85.79	11.98	-40.1	-54.8	3.8	1.49e+00	0	59	104	0	51	19866
2026-01-30 08:08:45.84	85.33	12.16	-40.2	-54.7	3.8	1.49e+00	0	59	104	0	51	19628
2026-01-30 08:08:48.87	84.87	12.33	-40.2	-54.7	3.8	1.49e+00	0	59	104	0	51	19631
2026-01-30 08:08:51.90	84.39	12.51	-40.3	-54.7	3.8	1.49e+00	0	59	104	0	51	19757
2026-01-30 08:08:54.93	83.92	12.68	-40.3	-54.7	3.8	1.49e+00	0	59	104	0	51	19822
2026-01-30 08:08:57.96	83.43	12.86	-40.5	-54.9	3.8	1.49e+00	0	59	104	0	51	20266
2026-01-30 08:09:00.99	82.95	13.03	-40.1	-54.7	3.8	1.49e+00	0	60	104	0	51	19735
2026-01-30 08:09:04.02	82.45	13.21	-40.5	-54.9	3.8	1.49e+00	0	59	104	0	51	20215
2026-01-30 08:09:07.05	81.95	13.38	-40.3	-54.8	3.8	1.49e+00	0	60	104	0	52	18736
2026-01-30 08:09:10.08	81.44	13.55	-41.1	-55.2	3.8	1.49e+00	0	59	104	0	52	19616
2026-01-30 08:09:13.11	80.93	13.72	-40.5	-54.8	3.8	1.49e+00	0	59	104	0	52	18752
2026-01-30 08:09:16.14	80.41	13.89	-40.9	-52.9	3.9	1.49e+00	0	60	104	0	52	15178
2026-01-30 08:09:19.16	79.89	14.06	-40.8	-51.8	4.2	1.42e+00	0	60	0	0	52	13265
2026-01-30 08:09:22.19	79.36	14.22	-40.7	-50.5	4.7	9.03e-01	0	60	0	2097152	52	11449
2026-01-30 08:09:25.22	78.83	14.39	-40.7	-49.7	5.2	6.46e-01	0	60	0	7340032	52	10499
2026-01-30 08:09:28.25	78.28	14.55	-40.4	-50.0	4.8	9.39e-01	0	60	0	13631488	52	10899
2026-01-30 08:09:31.28	77.73	14.71	-40.4	-48.0	6.5	2.21e-01	0	60	0	18874368	52	8616
2026-01-30 08:09:34.31	77.18	14.87	-40.6	-49.5	5.3	4.92e-01	0	60	0	25165824	52	10284
2026-01-30 08:09:37.35	76.62	15.03	-40.6	-50.3	4.7	9.10e-01	0	60	0	30408704	52	11278
2026-01-30 08:09:40.38	76.05	15.19	-40.6	-49.2	5.5	5.72e-01	0	60	0	35651584	52	9845
2026-01-30 08:09:43.41	75.48	15.35	-40.8	-49.4	5.5	4.18e-01	0	60	0	40894464	52	10121
2026-01-30 08:09:46.43	74.90	15.50	-41.1	-50.2	5.1	1.10e+00	0	60	0	47185920	53	10524
2026-01-30 08:09:49.46	74.32	15.65	-41.0	-49.5	5.7	7.61e-01	0	60	0	52428800	53	9614
2026-01-30 08:09:52.49	73.73	15.80	-41.0	-49.1	5.9	3.62e-01	0	60	0	57671680	53	9262
2026-01-30 08:09:55.52	73.13	15.95	-40.7	-49.5	5.4	5.14e-01	0	60	0	63963136	53	9672
2026-01-30 08:09:58.55	72.53	16.09	-40.3	-49.6	5.0	7.51e-01	0	60	0	68157440	52	10356
2026-01-30 08:10:01.58	71.92	16.24	-40.8	-50.7	4.6	1.39e+00	0	60	0	72351744	52	11806
2026-01-30 08:10:04.61	71.31	16.38	-40.8	-48.5	6.3	3.17e-01	0	60	0	78643200	52	9174
2026-01-30 08:10:07.64	70.69	16.51	-41.2	-49.3	6.0	1.44e-01	0	60	0	83886080	52	10055
2026-01-30 08:10:10.67	70.07	16.65	-41.6	-48.5	7.1	4.08e-01	0	60	0	90177536	53	8654
2026-01-30 08:10:13.70	69.44	16.78	-41.4	-47.5	8.6	3.91e-02	0	61	0	95420416	53	7643
2026-01-30 08:10:16.73	68.80	16.91	-41.5	-46.8	9.8	1.17e-02	0	61	0	101711872	53	7085
2026-01-30 08:10:19.76	68.16	17.04	-41.4	-46.1	10.8	3.46e-03	0	60	0	106954752	53	6550
2026-01-30 08:10:22.79	67.51	17.16	-41.2	-45.2	12.0	6.76e-04	0	61	0	112197632	53	5909
2026-01-30 08:10:25.82	66.86	17.28	-41.1	-44.9	12.4	1.87e-04	0	61	0	118489088	53	5696
2026-01-30 08:10:28.85	66.20	17.40	-41.0	-44.7	12.7	8.69e-05	0	61	0	123731968	53	5544
2026-01-30 08:10:31.88	65.54	17.51	-41.2	-45.1	12.3	1.65e-04	0	61	0	130023424	53	5851
2026-01-30 08:10:34.91	64.87	17.62	-41.2	-45.2	12.2	1.79e-04	0	60	0	135266304	53	5877
2026-01-30 08:10:37.93	64.20	17.73	-41.4	-45.6	11.9	3.68e-04	0	60	0	140509184	53	6140
2026-01-30 08:10:40.97	63.53	17.83	-41.6	-45.8	11.6	6.65e-04	0	61	0	146800640	53	6314
2026-01-30 08:10:44.00	62.84	17.93	-41.6	-45.9	11.6	6.83e-04	0	60	0	152043520	53	6358
2026-01-30 08:10:47.02	62.16	18.02	-41.7	-46.0	11.4	8.06e-04	0	60	0	158334976	54	6121
2026-01-30 08:10:50.05	61.47	18.11	-41.8	-46.2	11.3	1.33e-03	0	61	0	163577856	54	6252
2026-01-30 08:10:53.08	60.78	18.20	-42.0	-46.5	11.0	1.60e-03	0	60	0	169869312	54	6490
2026-01-30 08:10:56.11	60.08	18.28	-41.8	-46.0	11.5	1.15e-03	0	60	0	175112192	54	6111
2026-01-30 08:10:59.14	59.38	18.36	-41.7	-45.8	11.7	4.76e-04	0	61	0	180355072	54	5953
2026-01-30 08:11:02.17	58.67	18.44	-41.8	-46.1	11.4	9.96e-04	0	61	0	186646528	54	6193
2026-01-30 08:11:05.20	57.97	18.51	-41.8	-46.2	11.4	6.71e-04	0	61	0	191889408	54	6218
2026-01-30 08:11:08.23	57.25	18.58	-41.9	-46.3	11.3	9.77e-04	0	61	0	198180864	54	6325
2026-01-30 08:11:11.26	56.54	18.64	-42.1	-46.8	10.8	2.06e-03	0	61	0	203423744	54	6655
2026-01-30 08:11:14.29	55.82	18.70	-42.4	-47.7	9.8	9.13e-03	0	61	0	208666624	55	6985
2026-01-30 08:11:17.32	55.10	18.75	-42.1	-47.0	10.6	5.28e-03	0	61	0	214958080	55	6432
2026-01-30 08:11:20.35	54.38	18.80	-42.0	-46.7	10.9	2.31e-03	0	61	0	220200960	55	6253
2026-01-30 08:11:23.38	53.66	18.84	-42.0	-46.6	10.9	2.16e-03	0	61	0	226492416	55	6182
2026-01-30 08:11:26.41	52.93	18.88	-42.0	-46.5	11.0	2.10e-03	0	61	0	231735296	55	6118
2026-01-30 08:11:29.44	52.20	18.91	-41.7	-46.0	11.6	7.67e-04	0	61	0	238026752	55	5753
2026-01-30 08:11:32.47	51.47	18.94	-41.6	-45.8	11.9	5.35e-04	0	61	0	243269632	55	5609
2026-01-30 08:11:35.51	50.74	18.97	-41.8	-46.0	11.7	6.77e-04	0	61	0	248512512	55	5741
2026-01-30 08:11:38.54	50.01	18.99	-41.9	-46.4	11.2	1.33e-03	0	61	0	254803968	55	5996
2026-01-30 08:11:41.57	49.27	19.00	-41.8	-46.1	11.5	7.51e-04	0	61	0	260046848	55	5834
2026-01-30 08:11:44.59	48.54	19.01	-41.9	-46.2	11.4	8.51e-04	0	61	0	266338304	55	5904
2026-01-30 08:11:47.62	47.81	19.02	-41.9	-46.3	11.3	9.57e-04	0	61	0	271581184	55	5984
2026-01-30 08:11:50.66	47.07	19.02	-42.1	-46.9	10.8	2.08e-03	0	61	0	276824064	55	6361
2026-01-30 08:11:53.69	46.34	19.01	-42.4	-47.7	9.9	7.46e-03	0	61	0	283115520	55	6995
2026-01-30 08:11:56.71	45.61	19.00	-42.2	-47.0	10.6	5.07e-03	0	61	0	288358400	55	6479
2026-01-30 08:11:59.74	44.88	18.99	-41.7	-45.8	11.9	4.58e-04	0	61	0	294649856	55	5638
2026-01-30 08:12:02.77	44.14	18.97	-41.4	-45.2	12.6	1.16e-04	0	61	0	299892736	54	5538
2026-01-30 08:12:05.80	43.41	18.95	-41.6	-45.5	12.2	2.08e-04	0	61	0	306184192	54	5778
2026-01-30 08:12:08.83	42.68	18.92	-41.4	-45.1	12.7	7.78e-05	0	61	0	311427072	54	5477
2026-01-30 08:12:11.86	41.96	18.88	-41.5	-45.3	12.5	1.14e-04	0	61	0	316669952	54	5613
2026-01-30 08:12:14.89	41.23	18.85	-41.3	-45.0	12.7	1.01e-04	0	61	0	322961408	54	5446
2026-01-30 08:12:17.92	40.51	18.80	-41.3	-44.9	12.8	5.49e-05	0	61	0	328204288	54	5370
2026-01-30 08:12:20.95	39.79	18.76	-41.1	-44.5	13.2	2.59e-05	0	61	0	334495744	54	5152
2026-01-30 08:12:23.98	39.07	18.70	-41.3	-44.9	12.8	6.17e-05	0	61	0	339738624	54	5394
2026-01-30 08:12:27.02	38.35	18.65	-41.5	-45.4	12.2	1.32e-04	0	61	0	344981504	54	5702
2026-01-30 08:12:30.05	37.63	18.59	-41.7	-45.8	12.0	3.79e-04	0	61	0	351272960	54	5931
2026-01-30 08:12:33.08	36.92	18.52	-41.7	-45.7	12.0	2.70e-04	0	61	0	356515840	54	5879
2026-01-30 08:12:36.11	36.22	18.45	-41.8	-45.9	11.7	4.06e-04	0	61	0	362807296	54	6061
2026-01-30 08:12:39.14	35.51	18.38	-42.2	-46.9	10.7	1.92e-03	0	61	0	368050176	54	6761
2026-01-30 08:12:42.17	34.81	18.30	-42.4	-47.5	10.1	5.42e-03	0	61	0	374341632	55	6858
2026-01-30 08:12:45.20	34.11	18.22	-42.2	-47.0	10.6	4.29e-03	0	61	0	379584512	55	6437
2026-01-30 08:12:48.23	33.42	18.13	-42.2	-47.0	10.6	3.75e-03	0	61	0	384827392	55	6477
2026-01-30 08:12:51.26	32.73	18.04	-42.0	-46.5	11.1	2.87e-03	0	61	0	391118848	55	6089
2026-01-30 08:12:54.29	32.05	17.94	-42.3	-47.2	10.4	3.83e-03	0	61	0	396361728	55	6581
2026-01-30 08:12:57.32	31.37	17.85	-42.2	-47.1	10.5	4.38e-03	0	61	0	402653184	55	6517
2026-01-30 08:13:00.36	30.69	17.74	-42.0	-46.5	11.1	1.75e-03	0	61	0	407896064	55	6105
2026-01-30 08:13:03.39	30.02	17.64	-41.9	-46.3	11.3	1.27e-03	0	61	0	414187520	55	5935
2026-01-30 08:13:06.42	29.35	17.53	-41.8	-46.1	11.5	8.02e-04	0	61	0	419430400	55	5845
2026-01-30 08:13:09.44	28.70	17.42	-41.8	-46.1	11.5	8.38e-04	0	62	0	424673280	55	5851
2026-01-30 08:13:12.48	28.04	17.30	-41.5	-45.5	12.2	2.66e-04	0	61	0	430964736	55	5422
2026-01-30 08:13:15.51	27.39	17.18	-41.4	-45.1	12.6	8.54e-05	0	61	0	436207616	54	5493
2026-01-30 08:13:18.54	26.74	17.06	-41.3	-45.0	12.6	6.86e-05	0	61	0	442499072	54	5447
2026-01-30 08:13:21.57	26.10	16.93	-41.7	-45.7	11.9	3.01e-04	0	61	0	447741952	54	5908
2026-01-30 08:13:24.60	25.47	16.80	-42.3	-47.3	10.2	4.32e-03	0	61	0	452984832	55	6718
2026-01-30 08:13:27.64	24.84	16.67	-42.2	-47.0	10.6	7.31e-03	0	61	0	459276288	55	6446
2026-01-30 08:13:30.67	24.21	16.54	-42.3	-47.4	10.2	3.99e-03	0	61	0	464519168	55	6767
2026-01-30 08:13:33.70	23.60	16.40	-42.4	-47.5	10.0	1.01e-02	0	61	0	470810624	55	6857
2026-01-30 08:13:36.73	22.98	16.26	-42.4	-47.8	9.7	1.02e-02	0	61	0	476053504	55	7043
2026-01-30 08:13:39.76	22.38	16.12	-42.0	-46.7	10.8	3.27e-03	0	61	0	482344960	55	6223
2026-01-30 08:13:42.79	21.78	15.98	-41.8	-46.2	11.4	9.79e-04	0	61	0	487587840	55	5860
2026-01-30 08:13:45.82	21.18	15.83	-41.8	-46.1	11.4	7.93e-04	0	61	0	492830720	55	5828
2026-01-30 08:13:48.85	20.60	15.68	-41.9	-46.3	11.0	1.06e-03	0	61	0	499122176	55	5980
2026-01-30 08:13:51.88	20.01	15.53	-42.1	-47.0	10.5	5.58e-03	0	61	0	504365056	55	6490
2026-01-30 08:13:54.91	19.44	15.38	-41.8	-46.6	10.9	2.43e-03	0	61	0	510656512	55	6189
2026-01-30 08:13:57.94	18.87	15.22	-41.7	-46.0	11.5	7.73e-04	0	62	0	515899392	55	5741
2026-01-30 08:14:00.97	18.30	15.07	-41.8	-46.9	10.6	2.74e-03	0	61	0	521142272	55	6410
2026-01-30 08:14:04.00	17.74	14.91	-42.5	-48.0	9.4	1.52e-02	0	61	0	527433728	55	7258
2026-01-30 08:14:07.03	17.19	14.75	-42.6	-48.5	8.8	3.03e-02	0	61	0	532676608	55	7718
2026-01-30 08:14:10.07	16.64	14.59	-42.4	-48.0	9.4	1.56e-02	0	61	0	538968064	55	7217
2026-01-30 08:14:13.10	16.10	14.42	-42.4	-47.8	9.6	1.06e-02	0	62	0	544210944	55	7045
2026-01-30 08:14:16.13	15.57	14.26	-42.2	-47.3	10.1	8.66e-03	0	61	0	550502400	55	6682
2026-01-30 08:14:19.16	15.04	14.09	-42.1	-47.1	10.2	5.22e-03	0	62	0	555745280	55	6532
2026-01-30 08:14:22.19	14.52	13.93	-42.3	-47.6	9.7	9.87e-03	0	61	0	560988160	55	6948
2026-01-30 08:14:25.22	14.00	13.76	-42.3	-47.9	9.4	1.53e-02	0	62	0	567279616	55	7140
2026-01-30 08:14:28.25	13.49	13.59	-42.2	-47.3	10.0	9.53e-03	0	61	0	572522496	55	6689
2026-01-30 08:14:31.28	12.99	13.42	-41.9	-46.8	10.5	4.44e-03	0	61	0	578813952	55	6299
2026-01-30 08:14:34.31	12.49	13.25	-41.9	-46.8	10.4	4.44e-03	0	61	0	584056832	55	6332
2026-01-30 08:14:37.34	12.00	13.08	-42.1	-47.4	9.7	1.02e-02	0	62	0	590348288	55	6774
2026-01-30 08:14:40.37	11.51	12.90	-42.0	-47.4	9.6	1.38e-02	0	62	0	595591168	55	6757
2026-01-30 08:14:43.40	11.03	12.73	-41.8	-47.1	9.8	1.45e-02	0	61	0	600834048	55	6511
2026-01-30 08:14:46.43	10.56	12.55	-41.6	-46.7	9.9	8.11e-03	0	62	0	607125504	54	6634
2026-01-30 08:14:49.45	10.09	12.38	-41.3	-46.4	10.1	7.20e-03	0	61	0	612368384	54	6365
2026-01-30 08:14:52.49	9.62	12.20	-40.7	-45.2	11.0	1.93e-03	0	62	0	618659840	53	5908
2026-01-30 08:14:55.51	9.17	12.03	-40.4	-45.0	10.9	2.23e-03	0	61	0	623902720	52	6097
2026-01-30 08:14:58.55	8.71	11.85	-40.7	-46.1	9.5	1.22e-02	0	62	0	629145600	52	6904
2026-01-30 08:15:01.58	8.27	11.67	-41.0	-48.2	6.9	1.49e-01	0	61	0	635437056	52	8812
2026-01-30 08:15:04.61	7.83	11.49	-41.0	-50.2	5.1	5.04e-01	0	61	0	640679936	52	11123
2026-01-30 08:15:07.64	7.39	11.32	-40.0	-53.8	3.8	1.14e+00	0	61	104	645922816	52	16715
2026-01-30 08:15:10.67	6.96	11.14	-41.2	-54.5	3.8	1.49e+00	0	62	104	645922816	54	16171
2026-01-30 08:15:13.69	6.54	10.96	-40.4	-54.2	3.8	1.49e+00	0	62	104	645922816	52	17650
2026-01-30 08:15:16.72	6.12	10.78	-39.9	-54.2	3.8	1.49e+00	0	61	104	645922816	51	18725
2026-01-30 08:15:19.75	5.70	10.60	-39.9	-54.2	3.8	1.49e+00	0	62	104	645922816	51	18711
2026-01-30 08:15:22.78	5.29	10.42	-40.2	-54.5	3.8	1.49e+00	0	62	104	645922816	51	19278
2026-01-30 08:15:25.81	4.89	10.24	-39.9	-54.3	3.8	1.49e+00	0	61	104	645922816	51	18795
2026-01-30 08:15:28.84	4.49	10.06	-39.8	-54.2	3.8	1.49e+00	0	62	104	645922816	51	18729
2026-01-30 08:15:31.87	4.10	9.88	-39.8	-54.2	3.8	1.49e+00	0	62	104	645922816	51	18636
2026-01-30 08:15:34.90	3.71	9.70	-39.9	-54.3	3.8	1.49e+00	0	61	104	645922816	51	18830
2026-01-30 08:15:37.93	3.32	9.53	-39.8	-54.2	3.8	1.49e+00	0	61	104	645922816	51	18586
2026-01-30 08:15:40.96	2.94	9.35	-39.9	-54.2	3.8	1.49e+00	0	62	104	645922816	51	18717
2026-01-30 08:15:43.99	2.57	9.17	-39.9	-54.3	3.8	1.49e+00	0	62	104	645922816	51	18740
2026-01-30 08:15:47.02	2.20	8.99	-39.9	-54.2	3.8	1.49e+00	0	62	104	645922816	51	18718
2026-01-30 08:15:50.06	1.83	8.81	-39.8	-54.2	3.8	1.49e+00	0	62	104	645922816	51	18556
2026-01-30 08:15:53.09	1.47	8.63	-39.8	-54.2	3.8	1.49e+00	0	62	104	645922816	51	18702
2026-01-30 08:15:56.12	1.12	8.45	-39.9	-54.3	3.8	1.49e+00	0	62	104	645922816	51	18764
2026-01-30 08:15:59.15	0.76	8.27	-39.8	-54.3	3.8	1.49e+00	0	62	104	645922816	51	18738
2026-01-30 08:16:02.17	0.42	8.09	-39.8	-54.2	3.8	1.49e+00	0	62	104	645922816	51	18595
2026-01-30 08:16:05.21	0.07	7.92	-44.6	-59.1	3.8	1.49e+00	0	61	104	645922816	59	20769
2026-01-30 08:16:08.24	359.73	7.74	-45.1	-60.0	3.8	1.49e+00	0	62	104	645922816	60	21511
2026-01-30 08:16:11.27	359.40	7.56	-45.3	-60.5	3.7	1.49e+00	0	62	104	645922816	60	22872
2026-01-30 08:16:14.30	359.07	7.38	-45.2	-60.0	3.8	1.49e+00	0	62	104	645922816	61	20530
2026-01-30 08:16:17.33	358.74	7.21	-45.1	-59.9	3.8	1.49e+00	0	62	104	645922816	60	21405
2026-01-30 08:16:20.36	358.42	7.03	-45.0	-59.8	3.8	1.49e+00	0	62	104	645922816	60	21155
2026-01-30 08:16:23.39	358.10	6.85	-45.0	-59.8	3.8	1.49e+00	0	62	104	645922816	60	21182
2026-01-30 08:16:26.43	357.79	6.68	-45.0	-59.8	3.8	1.49e+00	0	62	104	645922816	60	21228
2026-01-30 08:16:29.46	357.48	6.50	-45.0	-59.8	3.8	1.49e+00	0	62	104	645922816	60	21138
2026-01-30 08:16:32.49	357.17	6.33	-44.9	-59.8	3.8	1.49e+00	0	62	104	645922816	60	21171
2026-01-30 08:16:35.52	356.87	6.15	-44.9	-59.8	3.8	1.49e+00	0	62	104	645922816	60	21145
2026-01-30 08:16:38.55	356.57	5.98	-44.9	-59.8	3.8	1.49e+00	0	62	104	645922816	60	21060
2026-01-30 08:16:41.58	356.28	5.81	-44.9	-59.8	3.8	1.49e+00	0	62	104	645922816	60	21056
2026-01-30 08:16:44.61	355.98	5.63	-44.9	-59.8	3.8	1.49e+00	0	62	104	645922816	60	21073
2026-01-30 08:16:47.64	355.70	5.46	-44.9	-59.7	3.8	1.49e+00	0	62	104	645922816	60	21000
2026-01-30 08:16:50.67	355.41	5.29	-44.9	-59.7	3.8	1.49e+00	0	62	104	645922816	60	20990
2026-01-30 08:16:53.70	355.13	5.12	-44.9	-59.8	3.8	1.49e+00	0	62	104	645922816	60	21053
2026-01-30 08:16:56.73	354.85	4.94	-44.9	-59.8	3.8	1.49e+00	0	62	104	645922816	60	21039
2026-01-30 08:16:59.76	354.58	4.77	-44.9	-59.7	3.8	1.49e+00	0	62	104	645922816	60	21001
2026-01-30 08:17:02.79	354.31	4.60	-44.8	-59.8	3.8	1.49e+00	0	62	104	645922816	60	21140
2026-01-30 08:17:05.82	354.04	4.43	-44.8	-59.7	3.8	1.49e+00	0	62	104	645922816	60	20941
2026-01-30 08:17:08.85	353.78	4.26	-44.8	-59.7	3.8	1.49e+00	0	62	104	645922816	60	20984
2026-01-30 08:17:11.88	353.52	4.09	-44.9	-59.7	3.8	1.49e+00	0	62	104	645922816	60	20919
2026-01-30 08:17:14.91	353.26	3.93	-44.9	-59.7	3.8	1.49e+00	0	62	104	645922816	60	20956
2026-01-30 08:17:17.94	353.00	3.76	-44.9	-59.7	3.8	1.49e+00	0	62	104	645922816	60	20956
2026-01-30 08:17:20.97	352.75	3.59	-44.9	-59.7	3.8	1.49e+00	0	62	104	645922816	60	20965
2026-01-30 08:17:24.00	352.50	3.42	-44.9	-59.7	3.8	1.49e+00	0	62	104	645922816	60	20978
2026-01-30 08:17:27.04	352.26	3.26	-44.8	-59.6	3.8	1.49e+00	0	62	104	645922816	59	21792
2026-01-30 08:17:30.07	352.01	3.09	-44.6	-59.7	3.8	1.49e+00	0	62	104	645922816	60	20993
2026-01-30 08:17:33.10	351.77	2.93	-44.9	-59.7	3.8	1.49e+00	0	62	104	645922816	60	20941
2026-01-30 08:17:36.14	351.53	2.76	-44.9	-59.7	3.8	1.49e+00	0	62	104	645922816	60	21006
2026-01-30 08:17:39.17	351.30	2.60	-44.3	-59.5	3.8	1.49e+00	0	62	104	645922816	59	21711
2026-01-30 08:17:42.20	351.07	2.43	-44.9	-59.7	3.8	1.49e+00	0	62	104	645922816	60	20902
2026-01-30 08:17:45.23	350.84	2.27	-44.9	-59.7	3.8	1.49e+00	0	62	104	645922816	60	20960
2026-01-30 08:17:48.26	350.61	2.10	-44.9	-59.7	3.8	1.49e+00	0	62	104	645922816	60	20993
2026-01-30 08:17:51.29	350.39	1.94	-44.7	-59.7	3.8	1.49e+00	0	62	104	645922816	60	20967

#Closed at: 2026-01-30 08:17:52
#Recorded file [645 MB]: D:/lorett/data/31039_260130_110549.dat