passes_logs/2026/01/30/R2.0S_Moscow/R2.0S_Moscow__20260130_055256_FENGYUN_3E_rec.log

#Pass ID: 20260130_055256_FENGYUN 3E
#Satellite: FENGYUN 3E
#Configuration: FENGYUN 3E
#almurnet v.1.7.20251203
#Start time: 2026-01-30 05:52:58

#Version: 2.2.20231116
#Station: R2.0S_Moscow
#Location: 37.707566 lon 55.798166 lat
#TLE: 1 49008U 21062A   26029.52207456 -.00000035  00000+0  41692-5 0  9997
#TLE: 2 49008  98.7499  34.4814 0002557 110.8023 249.3427 14.19887743236900

#Time	Az	El	Level	Level2	SNR	BER	BlckErr	Temp	State	Recorded	gain1	gain2
2026-01-30 05:52:58.22	9.35	2.07	-39.9	-50.9	3.8	8.46e-01	0	51	0	0	50	12703
2026-01-30 05:53:01.25	9.13	2.24	-39.9	-50.9	3.8	8.47e-01	0	51	104	0	50	12680
2026-01-30 05:53:04.28	8.90	2.40	-39.9	-50.8	3.8	8.46e-01	0	52	104	0	50	12638
2026-01-30 05:53:07.31	8.67	2.56	-39.9	-50.8	3.8	8.46e-01	0	52	104	0	50	12651
2026-01-30 05:53:10.34	8.43	2.73	-39.9	-50.9	3.8	8.47e-01	0	52	104	0	50	12725
2026-01-30 05:53:13.37	8.20	2.89	-39.9	-50.8	3.8	8.47e-01	0	52	104	0	50	12653
2026-01-30 05:53:16.41	7.96	3.06	-39.9	-50.8	3.8	8.47e-01	0	53	104	0	50	12587
2026-01-30 05:53:19.44	7.72	3.23	-39.9	-50.8	3.8	8.45e-01	0	53	104	0	50	12585
2026-01-30 05:53:22.47	7.47	3.39	-39.9	-50.8	3.8	8.48e-01	0	53	104	0	50	12574
2026-01-30 05:53:25.50	7.23	3.56	-39.9	-50.8	3.8	8.46e-01	0	53	104	0	50	12599
2026-01-30 05:53:28.52	6.98	3.73	-39.9	-50.8	3.8	8.47e-01	0	54	104	0	50	12631
2026-01-30 05:53:31.55	6.72	3.90	-39.9	-50.8	3.8	8.46e-01	0	54	104	0	50	12613
2026-01-30 05:53:34.59	6.46	4.07	-39.9	-50.8	3.8	8.45e-01	0	54	104	0	50	12624
2026-01-30 05:53:37.62	6.21	4.24	-39.9	-50.8	3.8	8.46e-01	0	54	104	0	50	12650
2026-01-30 05:53:40.65	5.94	4.41	-39.9	-50.9	3.8	8.45e-01	0	54	104	0	50	12689
2026-01-30 05:53:43.68	5.68	4.58	-39.9	-50.8	3.8	8.46e-01	0	55	104	0	50	12583
2026-01-30 05:53:46.72	5.41	4.75	-39.9	-50.8	3.8	8.46e-01	0	55	104	0	50	12588
2026-01-30 05:53:49.74	5.13	4.92	-39.8	-50.8	3.8	8.46e-01	0	55	104	0	50	12576
2026-01-30 05:53:52.78	4.86	5.09	-39.9	-50.8	3.8	8.47e-01	0	55	104	0	50	12536
2026-01-30 05:53:55.80	4.58	5.26	-39.9	-50.8	3.8	8.47e-01	0	55	104	0	50	12626
2026-01-30 05:53:58.83	4.30	5.44	-39.9	-50.8	3.8	8.46e-01	0	55	104	0	50	12565
2026-01-30 05:54:01.86	4.01	5.61	-39.9	-50.8	3.8	8.45e-01	0	55	104	0	50	12586
2026-01-30 05:54:04.90	3.72	5.78	-39.9	-50.8	3.8	8.45e-01	0	56	104	0	50	12565
2026-01-30 05:54:07.93	3.42	5.96	-39.9	-50.8	3.8	8.45e-01	0	56	104	0	50	12564
2026-01-30 05:54:10.96	3.13	6.13	-39.9	-50.8	3.8	8.46e-01	0	56	104	0	50	12581
2026-01-30 05:54:13.99	2.83	6.31	-39.9	-50.8	3.8	8.46e-01	0	56	104	0	50	12535
2026-01-30 05:54:17.02	2.52	6.48	-39.9	-50.8	3.8	8.46e-01	0	56	104	0	50	12604
2026-01-30 05:54:20.06	2.21	6.66	-39.9	-50.8	3.8	8.45e-01	0	56	104	0	50	12587
2026-01-30 05:54:23.08	1.90	6.84	-39.9	-50.8	3.8	8.46e-01	0	56	104	0	50	12622
2026-01-30 05:54:26.12	1.58	7.01	-39.9	-50.8	3.8	8.46e-01	0	57	104	0	50	12589
2026-01-30 05:54:29.15	1.26	7.19	-39.9	-50.8	3.8	8.46e-01	0	57	104	0	50	12583
2026-01-30 05:54:32.18	0.94	7.37	-39.9	-50.8	3.8	8.46e-01	0	57	104	0	50	12594
2026-01-30 05:54:35.21	0.61	7.55	-39.9	-50.8	3.8	8.46e-01	0	57	104	0	50	12602
2026-01-30 05:54:38.24	0.28	7.73	-39.8	-50.8	3.8	8.46e-01	0	57	104	0	50	12630
2026-01-30 05:54:41.27	359.94	7.90	-39.8	-50.8	3.8	8.47e-01	0	57	104	0	50	12585
2026-01-30 05:54:44.30	359.60	8.08	-40.0	-50.9	3.8	8.46e-01	0	57	104	0	50	12723
2026-01-30 05:54:47.34	359.25	8.26	-40.1	-51.1	3.8	8.47e-01	0	57	104	0	50	12988
2026-01-30 05:54:50.37	358.90	8.44	-40.1	-51.0	3.8	8.47e-01	0	57	104	0	50	12945
2026-01-30 05:54:53.40	358.54	8.62	-40.1	-51.0	3.8	8.46e-01	0	57	104	0	50	12901
2026-01-30 05:54:56.42	358.19	8.80	-40.0	-51.0	3.8	8.47e-01	0	57	104	0	50	12814
2026-01-30 05:54:59.45	357.82	8.98	-40.0	-51.0	3.8	8.46e-01	0	58	104	0	50	12836
2026-01-30 05:55:02.48	357.45	9.16	-40.1	-51.0	3.8	8.47e-01	0	58	104	0	50	12890
2026-01-30 05:55:05.51	357.08	9.34	-40.0	-51.0	3.8	8.46e-01	0	58	104	0	50	12871
2026-01-30 05:55:08.54	356.70	9.52	-40.0	-50.9	3.8	8.46e-01	0	58	104	0	50	12800
2026-01-30 05:55:11.57	356.32	9.70	-40.0	-51.0	3.8	8.45e-01	0	58	104	0	50	12845
2026-01-30 05:55:14.60	355.93	9.88	-40.1	-51.0	3.8	8.46e-01	0	58	104	0	50	12943
2026-01-30 05:55:17.63	355.54	10.06	-40.1	-51.0	3.8	8.45e-01	0	58	104	0	50	12927
2026-01-30 05:55:20.66	355.14	10.24	-40.2	-51.1	3.8	8.46e-01	0	58	104	0	50	13091
2026-01-30 05:55:23.68	354.74	10.42	-40.2	-51.1	3.8	8.46e-01	0	58	104	0	50	13038
2026-01-30 05:55:26.72	354.33	10.61	-40.3	-51.3	3.8	8.46e-01	0	58	104	0	50	13327
2026-01-30 05:55:29.75	353.92	10.79	-40.3	-51.3	3.8	8.45e-01	0	58	104	0	50	13314
2026-01-30 05:55:32.78	353.50	10.97	-40.5	-51.4	3.8	8.46e-01	0	58	104	0	50	13550
2026-01-30 05:55:35.81	353.07	11.15	-40.4	-51.3	3.8	8.46e-01	0	59	104	0	50	13395
2026-01-30 05:55:38.84	352.64	11.33	-40.8	-51.6	3.8	8.47e-01	0	59	104	0	51	13100
2026-01-30 05:55:41.87	352.21	11.51	-40.6	-51.5	3.8	8.45e-01	0	59	104	0	51	12901
2026-01-30 05:55:44.90	351.77	11.69	-40.9	-51.8	3.8	8.46e-01	0	59	104	0	51	13341
2026-01-30 05:55:47.93	351.32	11.86	-40.6	-51.5	3.8	8.45e-01	0	59	104	0	51	12955
2026-01-30 05:55:50.96	350.87	12.04	-40.9	-51.8	3.8	8.47e-01	0	59	104	0	51	13328
2026-01-30 05:55:53.99	350.42	12.22	-40.9	-51.8	3.8	8.46e-01	0	59	104	0	51	13368
2026-01-30 05:55:57.01	349.95	12.40	-41.0	-51.9	3.8	8.46e-01	0	59	104	0	51	13512
2026-01-30 05:56:00.05	349.48	12.57	-41.0	-51.8	3.8	8.46e-01	0	59	104	0	51	13404
2026-01-30 05:56:03.08	349.01	12.75	-41.1	-52.0	3.8	8.46e-01	0	59	104	0	51	13676
2026-01-30 05:56:06.11	348.53	12.93	-40.9	-51.8	3.8	8.47e-01	0	59	104	0	52	12645
2026-01-30 05:56:09.14	348.04	13.10	-41.4	-52.3	3.8	8.46e-01	0	59	104	0	52	13275
2026-01-30 05:56:12.17	347.55	13.28	-41.2	-52.1	3.8	8.48e-01	0	59	104	0	52	13070
2026-01-30 05:56:15.20	347.05	13.45	-41.5	-52.4	3.8	8.46e-01	0	59	104	0	52	13484
2026-01-30 05:56:18.23	346.55	13.62	-41.4	-52.3	3.8	8.46e-01	0	59	104	0	52	13282
2026-01-30 05:56:21.26	346.04	13.79	-41.1	-52.0	3.8	8.48e-01	0	60	104	0	52	12857
2026-01-30 05:56:24.29	345.53	13.96	-40.9	-51.8	3.8	8.47e-01	0	59	104	0	52	12612
2026-01-30 05:56:27.32	345.00	14.13	-41.0	-51.9	3.8	8.46e-01	0	60	104	0	52	12792
2026-01-30 05:56:30.34	344.48	14.30	-41.0	-51.9	3.8	8.46e-01	0	59	104	0	52	12728
2026-01-30 05:56:33.37	343.94	14.46	-40.9	-51.8	3.8	8.45e-01	0	59	104	0	52	12595
2026-01-30 05:56:36.40	343.40	14.63	-40.8	-51.6	3.8	8.46e-01	0	59	104	0	52	12368
2026-01-30 05:56:39.43	342.86	14.79	-40.8	-51.7	3.8	8.46e-01	0	60	104	0	52	12382
2026-01-30 05:56:42.46	342.31	14.95	-40.8	-51.7	3.8	8.47e-01	0	60	104	0	52	12415
2026-01-30 05:56:45.49	341.75	15.12	-40.7	-51.6	3.8	8.45e-01	0	60	104	0	51	13014
2026-01-30 05:56:48.52	341.18	15.27	-40.5	-51.4	3.8	8.47e-01	0	60	104	0	51	12781
2026-01-30 05:56:51.55	340.61	15.43	-40.6	-51.4	3.8	8.46e-01	0	60	104	0	51	12729
2026-01-30 05:56:54.58	340.04	15.59	-40.6	-51.3	3.8	8.45e-01	0	60	104	0	51	12524
2026-01-30 05:56:57.61	339.45	15.74	-41.0	-48.8	4.2	8.40e-01	0	60	0	0	51	9458
2026-01-30 05:57:00.64	338.86	15.89	-40.3	-44.3	7.9	9.39e-02	0	60	0	10485760	51	5594
2026-01-30 05:57:03.67	338.27	16.04	-39.4	-42.2	10.7	3.13e-03	0	60	0	31457280	49	4943
2026-01-30 05:57:06.70	337.67	16.18	-39.9	-42.7	10.6	6.33e-03	0	60	0	53477376	50	4939
2026-01-30 05:57:09.73	337.06	16.33	-39.4	-41.7	11.9	5.89e-04	0	60	0	75497472	49	4660
2026-01-30 05:57:12.76	336.45	16.47	-39.6	-41.8	12.0	2.94e-04	0	60	0	97517568	49	4753
2026-01-30 05:57:15.79	335.83	16.61	-39.7	-41.9	12.1	3.56e-04	0	60	0	119537664	49	4781
2026-01-30 05:57:18.82	335.21	16.75	-39.6	-41.7	12.3	1.80e-04	0	60	0	140509184	49	4679
2026-01-30 05:57:21.85	334.58	16.88	-39.4	-41.5	12.6	1.03e-04	0	60	0	162529280	49	4574
2026-01-30 05:57:24.89	333.94	17.01	-39.4	-41.5	12.7	1.25e-04	0	60	0	184549376	49	4566
2026-01-30 05:57:27.92	333.30	17.14	-39.5	-41.6	12.5	1.30e-04	0	60	0	206569472	49	4644
2026-01-30 05:57:30.95	332.65	17.26	-39.3	-41.4	12.9	6.75e-05	0	60	0	228589568	49	4499
2026-01-30 05:57:33.98	332.00	17.38	-39.1	-41.0	13.2	2.86e-05	0	60	0	250609664	49	4312
2026-01-30 05:57:37.01	331.34	17.50	-39.0	-40.9	13.4	9.10e-06	0	60	0	272629760	48	4520
2026-01-30 05:57:40.04	330.68	17.62	-38.9	-40.8	13.5	1.94e-05	0	60	0	294649856	48	4489
2026-01-30 05:57:43.07	330.01	17.73	-39.0	-40.8	13.5	1.48e-05	0	61	0	315621376	48	4490
2026-01-30 05:57:46.11	329.33	17.84	-39.0	-41.0	13.4	1.83e-05	0	60	0	337641472	48	4553
2026-01-30 05:57:49.13	328.66	17.94	-39.0	-41.0	13.4	1.25e-05	0	60	0	359661568	48	4566
2026-01-30 05:57:52.16	327.98	18.04	-39.0	-40.9	13.5	1.60e-05	0	60	0	381681664	48	4508
2026-01-30 05:57:55.20	327.29	18.14	-38.8	-40.7	13.7	1.02e-05	0	60	0	403701760	48	4415
2026-01-30 05:57:58.23	326.59	18.23	-38.9	-40.7	13.6	1.10e-06	0	60	0	425721856	48	4439
2026-01-30 05:58:01.26	325.90	18.32	-39.0	-40.9	13.4	1.48e-05	0	60	0	447741952	48	4533
2026-01-30 05:58:04.29	325.20	18.41	-39.0	-40.9	13.5	1.60e-05	0	60	0	469762048	48	4509
2026-01-30 05:58:07.32	324.50	18.49	-38.9	-40.8	13.5	1.25e-05	0	60	0	490733568	48	4483
2026-01-30 05:58:10.35	323.79	18.56	-38.9	-40.8	13.5	1.48e-05	0	61	0	512753664	48	4485
2026-01-30 05:58:13.38	323.08	18.64	-38.9	-40.8	13.5	9.10e-06	0	60	0	534773760	48	4469
2026-01-30 05:58:16.41	322.36	18.70	-38.9	-40.8	13.5	1.37e-05	0	60	0	556793856	48	4478
2026-01-30 05:58:19.44	321.65	18.77	-38.8	-40.7	13.7	1.25e-05	0	61	0	578813952	48	4406
2026-01-30 05:58:22.47	320.93	18.82	-38.7	-40.5	13.8	3.40e-06	0	60	0	600834048	48	4324
2026-01-30 05:58:25.50	320.20	18.88	-38.8	-40.7	13.7	3.40e-06	0	61	0	622854144	48	4392
2026-01-30 05:58:28.53	319.48	18.93	-38.9	-40.7	13.6	6.80e-06	0	61	0	644874240	48	4431
2026-01-30 05:58:31.57	318.75	18.97	-38.7	-40.6	13.8	8.00e-06	0	60	0	665845760	48	4349
2026-01-30 05:58:34.60	318.02	19.01	-38.7	-40.6	13.8	8.00e-06	0	60	0	687865856	48	4347
2026-01-30 05:58:37.63	317.29	19.05	-38.8	-40.6	13.8	4.50e-06	0	60	0	709885952	48	4376
2026-01-30 05:58:40.66	316.55	19.08	-38.8	-40.6	13.8	2.20e-06	0	60	0	731906048	48	4364
2026-01-30 05:58:43.69	315.82	19.11	-38.8	-40.6	13.8	3.40e-06	0	60	0	753926144	48	4359
2026-01-30 05:58:46.72	315.08	19.13	-38.6	-40.4	14.0	1.10e-06	0	60	0	775946240	48	4267
2026-01-30 05:58:49.75	314.34	19.14	-38.4	-40.2	14.0	0.00e+00	0	60	0	797966336	47	4423
2026-01-30 05:58:52.78	313.61	19.15	-38.4	-40.1	14.1	0.00e+00	0	61	0	819986432	47	4383
2026-01-30 05:58:55.82	312.87	19.16	-38.4	-40.1	14.1	1.10e-06	0	61	0	840957952	47	4390
2026-01-30 05:58:58.85	312.13	19.16	-38.4	-40.2	14.0	1.10e-06	0	60	0	862978048	47	4412
2026-01-30 05:59:01.88	311.39	19.16	-38.3	-40.1	14.1	0.00e+00	0	61	0	884998144	47	4374
2026-01-30 05:59:04.91	310.65	19.15	-38.4	-40.2	13.9	2.20e-06	0	61	0	907018240	47	4441
2026-01-30 05:59:07.95	309.91	19.13	-38.5	-40.4	13.8	1.10e-06	0	61	0	929038336	47	4506
2026-01-30 05:59:10.98	309.17	19.11	-38.5	-40.2	14.0	2.20e-06	0	61	0	951058432	47	4439
2026-01-30 05:59:14.01	308.44	19.09	-38.5	-40.3	13.9	1.10e-06	0	61	0	973078528	47	4457
2026-01-30 05:59:17.04	307.70	19.06	-38.4	-40.2	14.0	2.20e-06	0	61	0	995098624	47	4436
2026-01-30 05:59:20.07	306.97	19.03	-38.4	-40.2	14.0	4.50e-06	0	61	0	1017118720	47	4395
2026-01-30 05:59:23.11	306.24	18.99	-38.3	-40.1	14.1	4.50e-06	0	61	0	1038090240	47	4352
2026-01-30 05:59:26.13	305.51	18.95	-38.5	-40.3	13.9	1.10e-06	0	61	0	1060110336	47	4454
2026-01-30 05:59:29.16	304.78	18.90	-38.4	-40.2	14.0	4.50e-06	0	61	0	1082130432	47	4434
2026-01-30 05:59:32.19	304.06	18.85	-38.3	-40.0	14.1	2.20e-06	0	61	0	1104150528	47	4340
2026-01-30 05:59:35.23	303.33	18.79	-38.4	-40.2	14.0	3.40e-06	0	61	0	1126170624	47	4395
2026-01-30 05:59:38.26	302.61	18.73	-38.5	-40.4	13.8	4.50e-06	0	61	0	1148190720	47	4511
2026-01-30 05:59:41.29	301.90	18.66	-38.5	-40.3	13.9	5.70e-06	0	61	0	1170210816	47	4469
2026-01-30 05:59:44.32	301.18	18.59	-38.4	-40.2	14.0	6.80e-06	0	61	0	1191182336	47	4424
2026-01-30 05:59:47.35	300.47	18.52	-38.5	-40.3	13.9	5.70e-06	0	61	0	1213202432	47	4464
2026-01-30 05:59:50.38	299.77	18.44	-38.6	-40.5	13.7	9.10e-06	0	61	0	1235222528	47	4547
2026-01-30 05:59:53.41	299.06	18.36	-38.6	-40.4	13.7	9.10e-06	0	61	0	1257242624	47	4529
2026-01-30 05:59:56.44	298.36	18.27	-38.4	-40.3	13.9	4.50e-06	0	61	0	1279262720	47	4442
2026-01-30 05:59:59.47	297.67	18.18	-38.5	-40.3	13.9	3.40e-06	0	61	0	1300234240	47	4455
2026-01-30 06:00:02.50	296.98	18.08	-38.6	-40.5	13.6	1.02e-05	0	61	0	1322254336	47	4579
2026-01-30 06:00:05.53	296.29	17.98	-38.5	-40.4	13.7	1.37e-05	0	61	0	1344274432	47	4494
2026-01-30 06:00:08.56	295.61	17.88	-38.6	-40.5	13.6	1.25e-05	0	61	0	1366294528	47	4563
2026-01-30 06:00:11.60	294.93	17.77	-38.8	-40.8	13.3	2.74e-05	0	61	0	1388314624	47	4717
2026-01-30 06:00:14.63	294.26	17.66	-39.0	-41.0	13.1	4.23e-05	0	61	0	1410334720	47	4844
2026-01-30 06:00:17.66	293.59	17.55	-38.9	-40.9	13.2	3.31e-05	0	61	0	1432354816	47	4787
2026-01-30 06:00:20.69	292.93	17.43	-38.8	-40.7	13.3	1.37e-05	0	61	0	1454374912	47	4683
2026-01-30 06:00:23.72	292.28	17.31	-38.9	-40.8	13.1	3.77e-05	0	61	0	1475346432	47	4756
2026-01-30 06:00:26.75	291.62	17.19	-39.0	-41.0	13.0	4.23e-05	0	61	0	1497366528	47	4849
2026-01-30 06:00:29.78	290.98	17.06	-39.0	-41.0	12.9	4.23e-05	0	61	0	1519386624	47	4859
2026-01-30 06:00:32.81	290.34	16.93	-39.0	-41.0	12.9	4.57e-05	0	61	0	1541406720	47	4862
2026-01-30 06:00:35.84	289.70	16.80	-38.9	-40.9	13.1	5.26e-05	0	61	0	1563426816	47	4791
2026-01-30 06:00:38.87	289.07	16.66	-39.0	-41.0	13.0	3.66e-05	0	61	0	1585446912	47	4825
2026-01-30 06:00:41.91	288.45	16.52	-39.1	-41.1	12.9	5.72e-05	0	61	0	1607467008	47	4909
2026-01-30 06:00:44.94	287.83	16.38	-39.0	-41.1	12.9	6.63e-05	0	61	0	1629487104	47	4881
2026-01-30 06:00:47.97	287.22	16.24	-39.0	-41.0	13.0	5.37e-05	0	61	0	1650458624	47	4822
2026-01-30 06:00:50.99	286.62	16.09	-38.9	-40.9	13.0	4.46e-05	0	61	0	1672478720	47	4785
2026-01-30 06:00:54.03	286.01	15.94	-39.0	-41.1	12.8	7.09e-05	0	61	0	1694498816	47	4906
2026-01-30 06:00:57.06	285.42	15.79	-39.1	-41.1	12.8	6.98e-05	0	61	0	1716518912	47	4925
2026-01-30 06:01:00.09	284.83	15.64	-38.9	-41.0	12.9	5.72e-05	0	61	0	1738539008	47	4838
2026-01-30 06:01:03.12	284.25	15.49	-39.0	-41.0	12.8	5.83e-05	0	61	0	1760559104	47	4851
2026-01-30 06:01:06.16	283.67	15.33	-39.0	-41.1	12.7	7.43e-05	0	61	0	1782579200	47	4884
2026-01-30 06:01:09.19	283.10	15.17	-39.2	-41.3	12.5	1.34e-04	0	61	0	1804599296	47	5040
2026-01-30 06:01:12.22	282.54	15.01	-39.5	-41.7	12.3	1.98e-04	0	61	0	1825570816	48	4932
2026-01-30 06:01:15.25	281.98	14.85	-39.4	-41.6	12.4	1.60e-04	0	61	0	1847590912	48	4876
2026-01-30 06:01:18.29	281.43	14.69	-39.4	-41.6	12.4	1.70e-04	0	61	0	1869611008	48	4915
2026-01-30 06:01:21.31	280.89	14.52	-39.5	-41.7	12.3	2.28e-04	0	61	0	1891631104	48	4960
2026-01-30 06:01:24.34	280.35	14.35	-39.5	-41.8	12.2	2.08e-04	0	61	0	1913651200	48	5005
2026-01-30 06:01:27.37	279.81	14.19	-39.7	-42.0	11.9	4.49e-04	0	61	0	1935671296	48	5132
2026-01-30 06:01:30.40	279.29	14.02	-39.7	-42.1	11.8	5.23e-04	0	61	0	1957691392	49	4877
2026-01-30 06:01:33.43	278.77	13.85	-39.6	-41.8	12.0	3.18e-04	0	61	0	1979711488	49	4759
2026-01-30 06:01:36.46	278.25	13.68	-39.6	-41.9	12.1	3.02e-04	0	61	0	2000683008	49	4767
2026-01-30 06:01:39.49	277.74	13.50	-39.5	-41.8	12.1	2.83e-04	0	61	0	2022703104	49	4718
2026-01-30 06:01:42.51	277.24	13.33	-39.6	-41.9	12.0	3.27e-04	0	61	0	2044723200	49	4761
2026-01-30 06:01:45.54	276.74	13.16	-39.7	-42.0	11.9	5.15e-04	0	61	0	2066743296	49	4843
2026-01-30 06:01:48.58	276.25	12.98	-39.6	-41.8	12.0	3.98e-04	0	61	0	2088763392	49	4750
2026-01-30 06:01:51.61	275.77	12.81	-39.6	-42.0	11.9	4.44e-04	0	61	0	2110783488	49	4815
2026-01-30 06:01:54.64	275.29	12.63	-39.7	-42.0	11.8	5.17e-04	0	61	0	2132803584	49	4854
2026-01-30 06:01:57.68	274.81	12.45	-39.7	-42.1	11.7	6.27e-04	0	61	0	2154823680	49	4895
2026-01-30 06:02:00.71	274.34	12.27	-39.7	-42.1	11.6	6.95e-04	0	61	0	2175795200	49	4898
2026-01-30 06:02:03.74	273.88	12.09	-39.8	-42.3	11.4	9.67e-04	0	61	0	2197815296	49	5028
2026-01-30 06:02:06.77	273.43	11.92	-39.9	-42.4	11.3	1.41e-03	0	61	0	2219835392	49	5074
2026-01-30 06:02:09.80	272.97	11.74	-40.0	-42.7	10.9	2.33e-03	0	61	0	2241855488	49	5248
2026-01-30 06:02:12.83	272.53	11.56	-40.1	-42.8	10.7	3.40e-03	0	61	0	2263875584	49	5317
2026-01-30 06:02:15.86	272.09	11.38	-39.9	-42.6	10.9	2.66e-03	0	61	0	2284847104	49	5179
2026-01-30 06:02:18.89	271.65	11.20	-39.8	-42.3	11.1	1.82e-03	0	61	0	2306867200	49	5032
2026-01-30 06:02:21.92	271.23	11.02	-39.6	-42.2	11.1	1.71e-03	0	61	0	2328887296	49	4929
2026-01-30 06:02:24.95	270.80	10.83	-39.8	-42.6	10.5	3.55e-03	0	61	0	2350907392	49	5175
2026-01-30 06:02:27.99	270.38	10.65	-39.9	-42.9	10.0	7.93e-03	0	61	0	2372927488	49	5353
2026-01-30 06:02:31.02	269.97	10.47	-39.9	-42.8	10.1	7.79e-03	0	61	0	2394947584	49	5306
2026-01-30 06:02:34.05	269.56	10.29	-39.5	-42.2	10.5	4.39e-03	0	61	0	2416967680	49	4981
2026-01-30 06:02:37.08	269.16	10.11	-38.9	-41.6	10.7	2.92e-03	0	61	0	2438987776	48	4873
2026-01-30 06:02:40.11	268.76	9.93	-39.0	-41.9	10.3	5.81e-03	0	62	0	2459959296	48	5056
2026-01-30 06:02:43.14	268.37	9.75	-39.3	-42.5	9.4	1.70e-02	0	61	0	2481979392	48	5443
2026-01-30 06:02:46.18	267.98	9.56	-39.8	-43.4	8.4	4.32e-02	0	61	0	2503999488	49	5700
2026-01-30 06:02:49.20	267.60	9.38	-40.0	-43.9	7.9	7.62e-02	0	62	0	2526019584	49	6022
2026-01-30 06:02:52.24	267.22	9.20	-40.1	-44.5	7.2	1.42e-01	0	61	0	2548039680	49	6423
2026-01-30 06:02:55.27	266.84	9.02	-40.5	-45.2	6.5	2.54e-01	0	61	0	2570059776	50	6643
2026-01-30 06:02:58.30	266.47	8.84	-40.2	-43.5	9.3	1.63e-02	0	61	0	2586836992	51	5111
2026-01-30 06:03:01.33	266.11	8.66	-40.4	-44.0	8.5	4.02e-02	0	61	0	2599419904	51	5447
2026-01-30 06:03:04.36	265.75	8.48	-40.7	-44.6	7.9	7.60e-02	0	61	0	2621440000	51	5819
2026-01-30 06:03:07.39	265.40	8.30	-41.0	-45.4	7.0	1.42e-01	0	61	0	2643460096	51	6380
2026-01-30 06:03:10.43	265.04	8.12	-41.3	-46.1	6.5	2.73e-01	0	61	0	2665480192	52	6498
2026-01-30 06:03:13.46	264.70	7.94	-44.4	-55.0	3.8	8.44e-01	0	61	104	2671771648	58	12875
2026-01-30 06:03:16.49	264.36	7.76	-45.2	-55.9	3.8	8.47e-01	0	61	104	2671771648	59	13521
2026-01-30 06:03:19.52	264.02	7.58	-45.2	-56.3	3.8	8.46e-01	0	61	104	2671771648	60	13287
2026-01-30 06:03:22.55	263.68	7.40	-45.1	-56.2	3.8	8.47e-01	0	62	104	2671771648	60	13142
2026-01-30 06:03:25.58	263.36	7.23	-45.1	-56.1	3.8	8.45e-01	0	61	104	2671771648	60	13079
2026-01-30 06:03:28.62	263.03	7.05	-45.3	-56.3	3.8	8.47e-01	0	61	104	2671771648	60	13341
2026-01-30 06:03:31.65	262.71	6.87	-45.2	-56.2	3.8	8.46e-01	0	61	104	2671771648	60	13243
2026-01-30 06:03:34.68	262.39	6.69	-45.1	-56.2	3.8	8.46e-01	0	62	104	2671771648	60	13156
2026-01-30 06:03:37.71	262.08	6.52	-45.1	-56.1	3.8	8.46e-01	0	61	104	2671771648	60	13056
2026-01-30 06:03:40.75	261.77	6.34	-45.2	-55.9	3.8	8.45e-01	0	62	104	2671771648	59	13530
2026-01-30 06:03:43.78	261.46	6.16	-45.1	-56.1	3.8	8.46e-01	0	61	104	2671771648	60	13033
2026-01-30 06:03:46.81	261.16	5.99	-45.1	-55.9	3.8	8.47e-01	0	61	104	2671771648	59	13459
2026-01-30 06:03:49.84	260.86	5.81	-45.1	-55.9	3.8	8.47e-01	0	62	104	2671771648	59	13470
2026-01-30 06:03:52.87	260.57	5.64	-45.1	-55.8	3.8	8.46e-01	0	61	104	2671771648	59	13385
2026-01-30 06:03:55.90	260.27	5.46	-45.1	-55.8	3.8	8.46e-01	0	61	104	2671771648	59	13369
2026-01-30 06:03:58.93	259.99	5.29	-45.1	-55.9	3.8	8.46e-01	0	61	104	2671771648	59	13431
2026-01-30 06:04:01.96	259.70	5.12	-45.0	-55.8	3.8	8.45e-01	0	61	104	2671771648	59	13371
2026-01-30 06:04:04.99	259.42	4.94	-45.1	-55.8	3.8	8.45e-01	0	62	104	2671771648	59	13409
2026-01-30 06:04:08.02	259.15	4.77	-45.0	-55.8	3.8	8.46e-01	0	61	104	2671771648	59	13343
2026-01-30 06:04:11.06	258.87	4.60	-45.1	-55.8	3.8	8.46e-01	0	62	104	2671771648	59	13376
2026-01-30 06:04:14.09	258.60	4.43	-45.1	-55.8	3.8	8.46e-01	0	61	104	2671771648	59	13352
2026-01-30 06:04:17.12	258.33	4.26	-45.0	-55.8	3.8	8.47e-01	0	61	104	2671771648	59	13299
2026-01-30 06:04:20.15	258.07	4.09	-45.0	-55.8	3.8	8.47e-01	0	62	104	2671771648	59	13324
2026-01-30 06:04:23.18	257.81	3.92	-45.0	-55.8	3.8	8.46e-01	0	62	104	2671771648	59	13305
2026-01-30 06:04:26.22	257.55	3.75	-45.1	-55.8	3.8	8.46e-01	0	61	104	2671771648	59	13328
2026-01-30 06:04:29.25	257.29	3.58	-45.0	-55.8	3.8	8.45e-01	0	62	104	2671771648	59	13322
2026-01-30 06:04:32.28	257.04	3.41	-45.0	-55.8	3.8	8.45e-01	0	62	104	2671771648	59	13338
2026-01-30 06:04:35.31	256.79	3.25	-45.1	-55.8	3.8	8.46e-01	0	62	104	2671771648	59	13304
2026-01-30 06:04:38.35	256.55	3.08	-45.0	-55.8	3.8	8.46e-01	0	62	104	2671771648	59	13308
2026-01-30 06:04:41.38	256.30	2.91	-45.0	-55.8	3.8	8.46e-01	0	62	104	2671771648	59	13309
2026-01-30 06:04:44.41	256.06	2.75	-45.0	-55.8	3.8	8.46e-01	0	61	104	2671771648	59	13299
2026-01-30 06:04:47.44	255.82	2.58	-45.0	-55.8	3.8	8.46e-01	0	62	104	2671771648	59	13290
2026-01-30 06:04:50.47	255.59	2.41	-45.0	-55.8	3.8	8.46e-01	0	61	104	2671771648	59	13301
2026-01-30 06:04:53.50	255.36	2.25	-44.8	-55.7	3.8	8.45e-01	0	62	104	2671771648	59	13182
2026-01-30 06:04:56.54	255.13	2.09	-45.0	-55.8	3.8	8.46e-01	0	61	104	2671771648	59	13286
2026-01-30 06:04:59.56	254.90	1.92	-45.0	-55.8	3.8	8.46e-01	0	61	104	2671771648	59	13288

#Closed at: 2026-01-30 06:04:59
#Recorded file [2671 MB]: D:/lorett/data/31039_260130_085258.dat