passes_logs/2026/01/30/R2.0S_Moscow/R2.0S_Moscow__20260130_003131_AQUA_rec.log

#Pass ID: 20260130_003131_AQUA
#Satellite: AQUA
#Configuration: AQUA
#almurnet v.1.7.20251203
#Start time: 2026-01-30 00:31:33

#Version: 2.2.20231116
#Station: R2.0S_Moscow
#Location: 37.707566 lon 55.798166 lat
#TLE: 1 27424U 02022A   26028.91948147  .00001781  00000+0  36607-3 0  9997
#TLE: 2 27424  98.4103 355.5827 0001815  62.4290   1.4641 14.61871847262923

#Time	Az	El	Level	Level2	SNR	BER	BlckErr	Temp	State	Recorded	gain1	gain2
2026-01-30 00:31:33.08	21.84	2.11	-43.3	-62.3	3.8	7.45e-01	0	54	0	0	58	31449
2026-01-30 00:31:36.11	21.99	2.30	-43.3	-62.2	3.8	7.47e-01	0	54	104	0	57	33298
2026-01-30 00:31:39.14	22.15	2.49	-43.3	-62.3	3.8	7.46e-01	0	54	104	0	57	33324
2026-01-30 00:31:42.17	22.31	2.68	-43.3	-62.2	3.8	7.47e-01	0	55	104	0	57	33268
2026-01-30 00:31:45.20	22.47	2.88	-43.3	-62.3	3.8	7.47e-01	0	55	104	0	57	33322
2026-01-30 00:31:48.23	22.63	3.07	-43.3	-62.2	3.8	7.47e-01	0	55	104	0	57	33204
2026-01-30 00:31:51.26	22.80	3.27	-43.3	-62.2	3.8	7.46e-01	0	55	104	0	57	33202
2026-01-30 00:31:54.29	22.97	3.47	-43.3	-62.2	3.8	7.45e-01	0	55	104	0	57	33197
2026-01-30 00:31:57.32	23.14	3.67	-43.3	-62.2	3.8	7.45e-01	0	55	104	0	57	33173
2026-01-30 00:32:00.35	23.31	3.87	-43.3	-62.2	3.8	7.44e-01	0	56	104	0	57	33233
2026-01-30 00:32:03.38	23.48	4.07	-43.3	-62.2	3.8	7.41e-01	0	56	104	0	57	33146
2026-01-30 00:32:06.42	23.66	4.28	-43.3	-62.2	3.8	7.50e-01	0	56	104	0	57	33172
2026-01-30 00:32:09.45	23.84	4.48	-43.3	-62.2	3.8	7.48e-01	0	56	104	0	57	33188
2026-01-30 00:32:12.48	24.02	4.69	-43.3	-62.2	3.8	7.43e-01	0	56	104	0	57	33180
2026-01-30 00:32:15.51	24.21	4.90	-43.3	-62.2	3.8	7.48e-01	0	56	104	0	57	33143
2026-01-30 00:32:18.54	24.40	5.11	-43.3	-62.2	3.8	7.43e-01	0	56	104	0	57	33138
2026-01-30 00:32:21.57	24.59	5.32	-43.3	-62.2	3.8	7.44e-01	0	56	104	0	57	33047
2026-01-30 00:32:24.60	24.78	5.53	-43.3	-62.2	3.8	7.44e-01	0	57	104	0	57	33121
2026-01-30 00:32:27.64	24.98	5.75	-43.2	-62.2	3.8	7.48e-01	0	57	104	0	57	33100
2026-01-30 00:32:30.67	25.18	5.97	-43.1	-62.1	3.8	7.42e-01	0	57	104	0	57	32889
2026-01-30 00:32:33.70	25.38	6.19	-43.0	-62.2	3.8	7.47e-01	0	57	104	0	57	33100
2026-01-30 00:32:36.73	25.58	6.41	-43.0	-62.1	3.8	7.47e-01	0	57	104	0	57	32831
2026-01-30 00:32:39.76	25.79	6.63	-42.7	-62.2	3.8	7.46e-01	0	57	104	0	57	32964
2026-01-30 00:32:42.79	26.00	6.85	-42.4	-61.5	3.8	7.44e-01	0	57	104	0	56	32346
2026-01-30 00:32:45.82	26.22	7.08	-42.4	-60.6	3.9	7.47e-01	0	57	104	0	56	29122
2026-01-30 00:32:48.85	26.44	7.31	-42.5	-59.5	3.9	7.42e-01	0	57	104	0	56	25816
2026-01-30 00:32:51.88	26.66	7.54	-42.6	-55.8	5.5	6.99e-01	13	57	0	0	56	16720
2026-01-30 00:32:54.92	26.88	7.77	-42.2	-49.9	11.1	6.10e-01	0	57	0	5242880	56	8495
2026-01-30 00:32:57.95	27.11	8.01	-41.4	-47.0	14.1	6.03e-01	0	58	0	11010048	54	6838
2026-01-30 00:33:00.98	27.35	8.25	-42.3	-51.8	8.8	6.34e-01	1	58	0	16777216	56	10573
2026-01-30 00:33:04.01	27.58	8.48	-42.4	-47.3	15.1	6.04e-01	0	58	0	22544384	56	6314
2026-01-30 00:33:07.04	27.83	8.73	-42.4	-47.4	15.2	6.01e-01	0	58	0	28311552	56	6352
2026-01-30 00:33:10.07	28.07	8.97	-42.5	-47.2	15.3	6.01e-01	0	58	0	34078720	56	6267
2026-01-30 00:33:13.09	28.32	9.21	-42.6	-47.3	15.6	5.99e-01	0	58	0	39321600	56	6282
2026-01-30 00:33:16.13	28.57	9.46	-42.6	-47.1	15.8	6.00e-01	0	58	0	45088768	56	6191
2026-01-30 00:33:19.16	28.83	9.71	-42.4	-46.7	16.3	6.01e-01	0	58	0	50855936	56	5918
2026-01-30 00:33:22.19	29.10	9.96	-42.5	-46.8	16.3	5.99e-01	0	58	0	56623104	56	5979
2026-01-30 00:33:25.21	29.36	10.22	-42.4	-46.6	16.5	6.03e-01	0	58	0	62390272	56	5840
2026-01-30 00:33:28.24	29.64	10.48	-42.4	-46.5	16.6	6.01e-01	0	58	0	68157440	56	5764
2026-01-30 00:33:31.27	29.91	10.74	-42.4	-46.6	16.7	6.02e-01	0	58	0	73400320	56	5804
2026-01-30 00:33:34.30	30.20	11.00	-42.3	-46.4	16.9	6.02e-01	0	59	0	79167488	56	5660
2026-01-30 00:33:37.33	30.48	11.26	-42.3	-46.3	17.1	6.02e-01	0	58	0	84934656	56	5617
2026-01-30 00:33:40.36	30.78	11.53	-42.4	-46.4	16.9	6.03e-01	0	59	0	90701824	56	5717
2026-01-30 00:33:43.39	31.08	11.80	-42.4	-46.3	17.0	6.01e-01	0	59	0	96468992	56	5630
2026-01-30 00:33:46.42	31.38	12.08	-42.3	-46.1	17.3	6.01e-01	0	59	0	102236160	56	5504
2026-01-30 00:33:49.45	31.69	12.35	-42.2	-46.0	17.4	6.02e-01	0	59	0	107479040	56	5453
2026-01-30 00:33:52.48	32.01	12.63	-42.2	-46.0	17.5	6.03e-01	0	59	0	113246208	56	5407
2026-01-30 00:33:55.52	32.33	12.91	-42.2	-45.9	17.5	6.02e-01	0	59	0	119013376	56	5396
2026-01-30 00:33:58.55	32.66	13.20	-42.3	-46.1	17.3	6.01e-01	0	59	0	124780544	56	5509
2026-01-30 00:34:01.58	33.00	13.48	-42.4	-46.2	17.3	6.03e-01	0	59	0	130547712	56	5548
2026-01-30 00:34:04.61	33.34	13.77	-42.2	-46.0	17.5	6.02e-01	0	59	0	136314880	56	5408
2026-01-30 00:34:07.64	33.69	14.07	-42.1	-45.7	17.8	6.05e-01	0	59	0	142082048	56	5239
2026-01-30 00:34:10.67	34.05	14.36	-42.2	-45.8	17.7	6.04e-01	0	59	0	147324928	56	5317
2026-01-30 00:34:13.70	34.41	14.66	-42.1	-45.7	17.9	6.01e-01	0	59	0	153092096	56	5228
2026-01-30 00:34:16.73	34.79	14.97	-42.1	-45.7	17.9	6.01e-01	0	59	0	158859264	56	5251
2026-01-30 00:34:19.76	35.17	15.27	-42.2	-45.7	17.9	6.01e-01	0	59	0	164626432	56	5268
2026-01-30 00:34:22.79	35.56	15.58	-42.2	-45.7	17.9	6.03e-01	0	59	0	170393600	56	5276
2026-01-30 00:34:25.82	35.95	15.89	-42.2	-45.8	17.9	6.05e-01	0	59	0	175636480	56	5308
2026-01-30 00:34:28.85	36.36	16.21	-42.1	-45.6	18.1	6.03e-01	0	59	0	181403648	56	5160
2026-01-30 00:34:31.88	36.77	16.53	-42.1	-45.5	18.2	6.02e-01	0	59	0	187170816	56	5148
2026-01-30 00:34:34.91	37.20	16.85	-42.2	-45.7	18.0	6.03e-01	0	59	0	192937984	56	5268
2026-01-30 00:34:37.94	37.63	17.18	-42.3	-45.9	17.8	6.02e-01	0	59	0	198705152	56	5345
2026-01-30 00:34:40.97	38.07	17.51	-42.4	-46.0	17.8	6.05e-01	0	60	0	204472320	56	5419
2026-01-30 00:34:44.00	38.53	17.84	-42.3	-45.8	18.0	6.02e-01	0	59	0	210239488	56	5282
2026-01-30 00:34:47.03	38.99	18.17	-42.2	-45.7	18.1	6.03e-01	0	60	0	215482368	56	5243
2026-01-30 00:34:50.06	39.46	18.51	-42.2	-45.6	18.1	6.00e-01	0	60	0	221249536	56	5215
2026-01-30 00:34:53.09	39.95	18.85	-42.2	-45.6	18.1	6.01e-01	0	59	0	227016704	56	5216
2026-01-30 00:34:56.12	40.45	19.20	-42.2	-45.7	18.1	6.01e-01	0	59	0	232783872	56	5230
2026-01-30 00:34:59.15	40.95	19.55	-42.2	-45.6	18.2	6.02e-01	0	60	0	238551040	56	5177
2026-01-30 00:35:02.18	41.48	19.90	-42.2	-45.6	18.2	6.01e-01	0	60	0	243793920	56	5183
2026-01-30 00:35:05.21	42.01	20.26	-42.2	-45.6	18.2	6.00e-01	0	60	0	249561088	56	5216
2026-01-30 00:35:08.24	42.55	20.61	-42.2	-45.6	18.3	6.00e-01	0	60	0	255328256	56	5162
2026-01-30 00:35:11.27	43.11	20.98	-42.2	-45.5	18.4	6.02e-01	0	59	0	261095424	56	5128
2026-01-30 00:35:14.29	43.68	21.34	-42.2	-45.7	18.2	6.00e-01	0	60	0	266862592	56	5223
2026-01-30 00:35:17.32	44.27	21.71	-42.3	-45.7	18.2	6.03e-01	0	60	0	272629760	56	5226
2026-01-30 00:35:20.35	44.87	22.08	-42.3	-45.8	18.1	6.03e-01	0	60	0	278396928	56	5310
2026-01-30 00:35:23.38	45.49	22.45	-42.3	-45.8	18.2	6.03e-01	0	60	0	283639808	56	5306
2026-01-30 00:35:26.42	46.12	22.83	-42.4	-45.8	18.1	6.04e-01	0	60	0	289406976	56	5340
2026-01-30 00:35:29.45	46.77	23.21	-42.4	-45.8	18.2	6.03e-01	0	60	0	295174144	56	5306
2026-01-30 00:35:32.48	47.44	23.59	-42.3	-45.7	18.2	6.02e-01	0	60	0	300941312	56	5277
2026-01-30 00:35:35.50	48.12	23.97	-42.4	-46.0	18.0	6.01e-01	0	60	0	306708480	56	5414
2026-01-30 00:35:38.53	48.82	24.36	-42.4	-46.0	17.9	6.03e-01	0	60	0	312475648	56	5417
2026-01-30 00:35:41.56	49.53	24.75	-42.4	-45.9	18.0	6.03e-01	0	60	0	317718528	56	5354
2026-01-30 00:35:44.59	50.27	25.14	-42.4	-46.0	17.9	6.02e-01	0	60	0	323485696	56	5403
2026-01-30 00:35:47.62	51.02	25.53	-42.4	-46.0	17.9	6.04e-01	0	60	0	329252864	56	5418
2026-01-30 00:35:50.65	51.79	25.92	-42.4	-45.8	18.1	6.00e-01	0	60	0	335020032	56	5340
2026-01-30 00:35:53.68	52.59	26.31	-42.6	-46.1	17.9	6.02e-01	0	60	0	340787200	56	5508
2026-01-30 00:35:56.71	53.40	26.71	-42.5	-46.0	18.0	6.02e-01	0	60	0	346554368	56	5434
2026-01-30 00:35:59.74	54.23	27.10	-42.5	-45.9	18.1	6.01e-01	0	60	0	351797248	56	5372
2026-01-30 00:36:02.77	55.09	27.49	-42.5	-45.9	18.1	6.02e-01	0	60	0	357564416	56	5399
2026-01-30 00:36:05.80	55.97	27.89	-42.4	-45.8	18.2	6.03e-01	0	60	0	363331584	56	5327
2026-01-30 00:36:08.83	56.87	28.28	-42.5	-45.9	18.2	6.02e-01	0	60	0	369098752	56	5357
2026-01-30 00:36:11.85	57.79	28.67	-42.5	-46.0	18.1	6.01e-01	0	60	0	374865920	56	5418
2026-01-30 00:36:14.88	58.73	29.06	-42.6	-46.2	17.9	6.03e-01	0	60	0	380108800	56	5567
2026-01-30 00:36:17.91	59.70	29.44	-42.5	-45.9	18.2	6.04e-01	0	60	0	385875968	56	5386
2026-01-30 00:36:20.94	60.69	29.83	-42.5	-46.0	18.1	6.02e-01	0	60	0	391643136	56	5415
2026-01-30 00:36:23.97	61.71	30.20	-42.3	-45.7	18.4	6.03e-01	0	60	0	397410304	56	5221
2026-01-30 00:36:27.00	62.75	30.58	-42.3	-45.6	18.5	6.01e-01	0	60	0	403177472	56	5201
2026-01-30 00:36:30.03	63.82	30.95	-42.4	-45.7	18.4	6.01e-01	0	60	0	408944640	56	5243
2026-01-30 00:36:33.06	64.91	31.31	-42.5	-46.0	18.1	6.00e-01	0	60	0	414711808	56	5406
2026-01-30 00:36:36.09	66.03	31.67	-42.3	-45.5	18.6	6.01e-01	0	60	0	419954688	56	5116
2026-01-30 00:36:39.12	67.17	32.02	-42.4	-45.8	18.3	6.03e-01	0	60	0	425721856	56	5327
2026-01-30 00:36:42.14	68.33	32.36	-42.4	-45.8	18.3	6.03e-01	0	60	0	431489024	56	5309
2026-01-30 00:36:45.17	69.53	32.70	-42.4	-45.8	18.3	6.02e-01	0	60	0	437256192	56	5321
2026-01-30 00:36:48.20	70.74	33.02	-42.4	-45.8	18.4	6.02e-01	0	60	0	443023360	56	5297
2026-01-30 00:36:51.23	71.99	33.33	-42.4	-45.7	18.4	6.02e-01	0	60	0	448790528	56	5259
2026-01-30 00:36:54.27	73.25	33.64	-42.4	-45.8	18.4	5.98e-01	0	60	0	454033408	56	5307
2026-01-30 00:36:57.30	74.54	33.93	-42.4	-45.8	18.4	6.01e-01	0	60	0	459800576	56	5290
2026-01-30 00:37:00.32	75.85	34.20	-42.4	-45.8	18.3	6.02e-01	0	60	0	465567744	56	5309
2026-01-30 00:37:03.35	77.19	34.46	-42.3	-45.6	18.6	6.01e-01	0	60	0	471334912	56	5185
2026-01-30 00:37:06.38	78.54	34.71	-42.5	-45.8	18.4	6.04e-01	0	60	0	477102080	56	5331
2026-01-30 00:37:09.41	79.92	34.94	-42.4	-45.8	18.3	5.99e-01	0	60	0	482869248	56	5319
2026-01-30 00:37:12.44	81.32	35.16	-42.4	-45.6	18.6	6.02e-01	0	60	0	488112128	56	5210
2026-01-30 00:37:15.47	82.73	35.36	-42.3	-45.6	18.6	6.02e-01	0	60	0	493879296	56	5184
2026-01-30 00:37:18.50	84.16	35.54	-42.4	-45.6	18.5	6.02e-01	0	60	0	499646464	56	5214
2026-01-30 00:37:21.53	85.61	35.70	-42.2	-45.4	18.8	6.02e-01	0	60	0	505413632	56	5081
2026-01-30 00:37:24.56	87.07	35.85	-42.3	-45.5	18.7	6.01e-01	0	60	0	511180800	56	5132
2026-01-30 00:37:27.59	88.55	35.97	-42.2	-45.4	18.8	6.01e-01	0	60	0	516947968	56	5099
2026-01-30 00:37:30.62	90.03	36.07	-42.2	-45.4	18.8	6.01e-01	0	60	0	522190848	56	5077
2026-01-30 00:37:33.65	91.52	36.16	-42.4	-45.6	18.7	6.00e-01	0	60	0	527958016	56	5213
2026-01-30 00:37:36.68	93.02	36.22	-42.3	-45.5	18.7	6.01e-01	0	60	0	533725184	56	5128
2026-01-30 00:37:39.71	94.53	36.26	-42.1	-45.2	19.0	6.01e-01	0	60	0	539492352	56	4965
2026-01-30 00:37:42.73	96.03	36.28	-42.4	-45.7	18.6	6.00e-01	0	60	0	545259520	56	5219
2026-01-30 00:37:45.76	97.54	36.28	-42.2	-45.3	18.9	6.01e-01	0	60	0	551026688	56	5038
2026-01-30 00:37:48.79	99.05	36.25	-42.2	-45.3	18.9	6.03e-01	0	60	0	556269568	56	5030
2026-01-30 00:37:51.82	100.55	36.21	-42.4	-45.7	18.5	6.05e-01	0	60	0	562036736	56	5235
2026-01-30 00:37:54.85	102.05	36.14	-42.4	-45.7	18.6	6.03e-01	0	60	0	567803904	56	5225
2026-01-30 00:37:57.88	103.54	36.05	-42.1	-45.2	18.9	6.02e-01	0	60	0	573571072	56	4955
2026-01-30 00:38:00.89	105.02	35.95	-42.3	-45.5	18.7	6.01e-01	0	60	0	579338240	56	5152
2026-01-30 00:38:03.92	106.49	35.82	-42.3	-45.4	18.8	6.03e-01	0	60	0	584581120	56	5097
2026-01-30 00:38:06.95	107.95	35.67	-41.9	-44.9	19.3	6.00e-01	0	61	0	590348288	55	5059
2026-01-30 00:38:09.98	109.40	35.50	-42.1	-45.3	18.8	6.02e-01	0	60	0	596115456	55	5300
2026-01-30 00:38:13.01	110.83	35.32	-42.0	-45.2	19.0	6.03e-01	0	60	0	601882624	55	5224
2026-01-30 00:38:16.04	112.24	35.11	-42.1	-45.2	18.9	6.03e-01	0	60	0	607649792	55	5268
2026-01-30 00:38:19.07	113.64	34.89	-42.0	-45.2	18.9	6.02e-01	0	60	0	613416960	55	5233
2026-01-30 00:38:22.10	115.01	34.66	-42.1	-45.3	18.8	6.02e-01	0	60	0	618659840	55	5312
2026-01-30 00:38:25.12	116.36	34.40	-41.9	-45.0	19.1	6.00e-01	0	60	0	624427008	55	5130
2026-01-30 00:38:28.15	117.70	34.14	-41.9	-44.9	19.2	6.05e-01	0	60	0	630194176	55	5085
2026-01-30 00:38:31.18	119.01	33.86	-41.9	-44.9	19.2	6.01e-01	0	60	0	635961344	55	5086
2026-01-30 00:38:34.21	120.30	33.56	-41.7	-44.6	19.5	6.04e-01	0	60	0	641728512	55	4888
2026-01-30 00:38:37.24	121.56	33.26	-41.8	-44.8	19.3	6.00e-01	0	60	0	647495680	55	4987
2026-01-30 00:38:40.27	122.80	32.94	-41.6	-44.5	19.6	6.02e-01	0	60	0	652738560	55	4859
2026-01-30 00:38:43.30	124.02	32.61	-41.7	-44.7	19.4	6.01e-01	0	60	0	658505728	55	4934
2026-01-30 00:38:46.33	125.21	32.27	-41.7	-44.5	19.6	6.01e-01	0	60	0	664272896	55	4863
2026-01-30 00:38:49.36	126.37	31.93	-41.7	-44.6	19.5	6.01e-01	0	60	0	670040064	55	4913
2026-01-30 00:38:52.39	127.51	31.57	-41.7	-44.6	19.5	6.04e-01	0	60	0	675807232	55	4899
2026-01-30 00:38:55.43	128.63	31.21	-41.7	-44.6	19.5	6.03e-01	0	60	0	681574400	55	4873
2026-01-30 00:38:58.46	129.72	30.85	-41.6	-44.5	19.6	6.01e-01	0	61	0	686817280	55	4865
2026-01-30 00:39:01.49	130.78	30.47	-41.6	-44.5	19.6	6.01e-01	0	60	0	692584448	55	4849
2026-01-30 00:39:04.52	131.82	30.09	-41.6	-44.5	19.5	6.03e-01	0	60	0	698351616	55	4854
2026-01-30 00:39:07.55	132.84	29.71	-41.7	-44.7	19.4	6.02e-01	0	60	0	704118784	55	4953
2026-01-30 00:39:10.58	133.83	29.33	-41.7	-44.6	19.5	6.02e-01	0	60	0	709885952	55	4896
2026-01-30 00:39:13.61	134.80	28.94	-41.9	-45.0	19.1	6.03e-01	0	61	0	715653120	55	5111
2026-01-30 00:39:16.63	135.74	28.55	-41.8	-44.8	19.3	6.01e-01	0	61	0	721420288	55	5018
2026-01-30 00:39:19.66	136.66	28.15	-41.8	-44.9	19.2	6.00e-01	0	61	0	726663168	55	5057
2026-01-30 00:39:22.70	137.56	27.76	-42.0	-45.1	19.0	6.01e-01	0	61	0	732430336	55	5175
2026-01-30 00:39:25.73	138.43	27.36	-42.0	-45.2	18.9	6.02e-01	0	61	0	738197504	55	5248
2026-01-30 00:39:28.76	139.29	26.96	-42.1	-45.2	18.8	6.01e-01	0	61	0	743964672	55	5265
2026-01-30 00:39:31.79	140.12	26.57	-42.2	-45.5	18.6	6.02e-01	0	60	0	749731840	55	5426
2026-01-30 00:39:34.82	140.93	26.17	-42.0	-45.2	18.8	6.04e-01	0	60	0	754974720	55	5229
2026-01-30 00:39:37.84	141.72	25.78	-42.1	-45.3	18.8	6.02e-01	0	61	0	760741888	55	5281
2026-01-30 00:39:40.87	142.49	25.38	-42.2	-45.4	18.6	6.02e-01	0	61	0	766509056	55	5380
2026-01-30 00:39:43.90	143.24	24.99	-42.0	-45.2	18.8	6.02e-01	0	61	0	772276224	55	5255
2026-01-30 00:39:46.93	143.97	24.60	-42.2	-45.5	18.5	6.00e-01	0	61	0	778043392	55	5424
2026-01-30 00:39:49.96	144.69	24.21	-42.2	-45.5	18.4	6.00e-01	0	61	0	783810560	55	5460
2026-01-30 00:39:52.99	145.39	23.82	-42.2	-45.5	18.4	6.01e-01	0	61	0	789577728	55	5463
2026-01-30 00:39:56.02	146.06	23.43	-42.2	-45.7	18.2	6.01e-01	0	61	0	794820608	55	5560
2026-01-30 00:39:59.05	146.73	23.05	-42.3	-45.7	18.3	6.01e-01	0	61	0	800587776	55	5543
2026-01-30 00:40:02.07	147.37	22.67	-42.3	-45.7	18.2	6.04e-01	0	61	0	806354944	55	5570
2026-01-30 00:40:05.10	148.00	22.29	-42.3	-45.7	18.2	5.99e-01	0	60	0	812122112	55	5533
2026-01-30 00:40:08.13	148.62	21.91	-42.2	-45.5	18.4	6.02e-01	0	61	0	817889280	54	5744
2026-01-30 00:40:11.17	149.22	21.54	-42.2	-45.5	18.4	6.03e-01	0	60	0	823132160	55	5427
2026-01-30 00:40:14.20	149.80	21.17	-42.2	-45.6	18.3	6.02e-01	0	61	0	828899328	55	5528
2026-01-30 00:40:17.23	150.37	20.80	-42.1	-45.5	18.4	6.02e-01	0	61	0	834666496	55	5427
2026-01-30 00:40:20.26	150.93	20.44	-42.1	-45.4	18.4	6.00e-01	0	61	0	840433664	55	5396
2026-01-30 00:40:23.29	151.47	20.08	-42.0	-45.3	18.6	6.02e-01	0	61	0	846200832	55	5280
2026-01-30 00:40:26.32	152.00	19.72	-42.0	-45.3	18.5	6.01e-01	0	60	0	851968000	55	5333
2026-01-30 00:40:29.35	152.52	19.37	-42.0	-45.3	18.5	6.03e-01	0	61	0	857735168	55	5313
2026-01-30 00:40:32.38	153.03	19.02	-42.1	-45.4	18.5	6.02e-01	0	61	0	862978048	55	5350
2026-01-30 00:40:35.41	153.52	18.67	-42.0	-45.2	18.5	6.02e-01	0	61	0	868745216	55	5278
2026-01-30 00:40:38.44	154.01	18.33	-41.9	-45.1	18.6	6.01e-01	0	61	0	874512384	55	5192
2026-01-30 00:40:41.47	154.48	17.99	-41.8	-45.0	18.8	6.01e-01	0	60	0	880279552	55	5109
2026-01-30 00:40:44.51	154.94	17.65	-41.8	-44.9	18.8	6.03e-01	0	61	0	886046720	55	5099
2026-01-30 00:40:47.53	155.39	17.32	-41.8	-45.0	18.7	6.02e-01	0	61	0	891813888	55	5134
2026-01-30 00:40:50.56	155.83	16.99	-41.9	-45.2	18.5	6.03e-01	0	60	0	897056768	55	5277
2026-01-30 00:40:53.60	156.26	16.66	-41.8	-45.1	18.6	6.02e-01	0	60	0	902823936	55	5187
2026-01-30 00:40:56.63	156.68	16.33	-41.9	-45.2	18.5	6.02e-01	0	61	0	908591104	55	5230
2026-01-30 00:40:59.66	157.10	16.01	-41.9	-45.2	18.5	6.04e-01	0	61	0	914358272	55	5234
2026-01-30 00:41:02.69	157.50	15.70	-41.9	-45.2	18.4	6.03e-01	0	61	0	920125440	55	5244
2026-01-30 00:41:05.72	157.89	15.38	-41.9	-45.3	18.4	6.03e-01	0	61	0	925892608	55	5305
2026-01-30 00:41:08.75	158.28	15.07	-41.9	-45.2	18.4	6.01e-01	0	61	0	931135488	55	5240
2026-01-30 00:41:11.78	158.66	14.77	-41.9	-45.3	18.2	6.01e-01	0	61	0	936902656	55	5312
2026-01-30 00:41:14.80	159.03	14.46	-41.8	-45.1	18.4	6.02e-01	0	61	0	942669824	55	5210
2026-01-30 00:41:17.83	159.39	14.16	-41.9	-45.3	18.3	6.01e-01	0	61	0	948436992	55	5298
2026-01-30 00:41:20.87	159.74	13.86	-41.9	-45.2	18.3	6.03e-01	0	61	0	954204160	55	5273
2026-01-30 00:41:23.90	160.09	13.57	-41.9	-45.3	18.2	6.03e-01	0	61	0	959971328	55	5309
2026-01-30 00:41:26.92	160.43	13.28	-42.0	-45.4	18.2	6.01e-01	0	61	0	965214208	55	5369
2026-01-30 00:41:29.96	160.77	12.99	-41.9	-45.3	18.2	6.00e-01	0	61	0	970981376	55	5326
2026-01-30 00:41:32.99	161.09	12.70	-41.9	-45.4	18.1	6.02e-01	0	60	0	976748544	55	5358
2026-01-30 00:41:36.01	161.41	12.42	-41.9	-45.4	18.0	6.03e-01	0	61	0	982515712	55	5398
2026-01-30 00:41:39.04	161.73	12.14	-42.0	-45.5	17.9	6.04e-01	0	61	0	988282880	55	5457
2026-01-30 00:41:42.08	162.04	11.86	-42.0	-45.5	17.9	6.03e-01	0	61	0	994050048	55	5457
2026-01-30 00:41:45.11	162.34	11.59	-42.0	-45.5	17.8	6.03e-01	0	61	0	999292928	55	5457
2026-01-30 00:41:48.14	162.63	11.32	-42.1	-45.8	17.5	6.00e-01	0	61	0	1005060096	55	5616
2026-01-30 00:41:51.17	162.92	11.05	-42.1	-45.8	17.5	6.01e-01	0	61	0	1010827264	55	5647
2026-01-30 00:41:54.20	163.21	10.78	-42.1	-45.8	17.5	6.01e-01	0	61	0	1016594432	55	5604
2026-01-30 00:41:57.23	163.49	10.52	-42.1	-45.8	17.5	6.02e-01	0	61	0	1022361600	55	5633
2026-01-30 00:42:00.26	163.76	10.26	-42.1	-45.9	17.3	6.00e-01	0	61	0	1028128768	55	5712
2026-01-30 00:42:03.29	164.03	10.00	-42.2	-46.1	17.1	6.00e-01	0	61	0	1033895936	55	5823
2026-01-30 00:42:06.32	164.30	9.74	-42.3	-46.3	16.9	6.01e-01	0	61	0	1039138816	55	5962
2026-01-30 00:42:09.35	164.56	9.49	-42.2	-46.2	17.0	6.01e-01	0	61	0	1044905984	55	5878
2026-01-30 00:42:12.39	164.82	9.24	-42.2	-46.2	17.0	6.03e-01	0	61	0	1050673152	55	5890
2026-01-30 00:42:15.41	165.07	8.99	-42.3	-46.4	16.7	6.04e-01	0	61	0	1056440320	55	6053
2026-01-30 00:42:18.44	165.31	8.75	-42.2	-46.3	16.8	6.04e-01	0	61	0	1062207488	55	5942
2026-01-30 00:42:21.47	165.55	8.50	-42.3	-46.4	16.7	6.02e-01	0	61	0	1067450368	55	6013
2026-01-30 00:42:24.50	165.79	8.26	-42.3	-46.5	16.6	6.02e-01	0	61	0	1073217536	55	6063
2026-01-30 00:42:27.53	166.03	8.02	-42.6	-47.1	16.3	6.03e-01	0	61	0	1078984704	55	6512
2026-01-30 00:42:30.56	166.26	7.78	-45.9	-64.8	3.8	7.46e-01	0	61	104	1079508992	62	33570
2026-01-30 00:42:33.59	166.48	7.55	-46.2	-64.9	3.8	7.45e-01	0	61	104	1079508992	62	34028
2026-01-30 00:42:36.63	166.71	7.31	-46.3	-65.2	3.8	7.48e-01	0	61	104	1079508992	63	32983
2026-01-30 00:42:39.65	166.92	7.08	-46.2	-65.1	3.8	7.49e-01	0	61	104	1079508992	63	32726
2026-01-30 00:42:42.69	167.14	6.85	-46.1	-65.0	3.8	7.44e-01	0	61	104	1079508992	63	32353
2026-01-30 00:42:45.72	167.35	6.62	-46.0	-64.9	3.8	7.44e-01	0	61	104	1079508992	63	32041
2026-01-30 00:42:48.75	167.56	6.40	-46.0	-64.9	3.8	7.46e-01	0	61	104	1079508992	63	32043
2026-01-30 00:42:51.78	167.77	6.17	-46.0	-64.9	3.8	7.45e-01	0	61	104	1079508992	63	32068
2026-01-30 00:42:54.82	167.97	5.95	-46.0	-64.9	3.8	7.44e-01	0	61	104	1079508992	63	31961
2026-01-30 00:42:57.85	168.17	5.73	-46.0	-64.9	3.8	7.44e-01	0	61	104	1079508992	63	31970
2026-01-30 00:43:00.88	168.36	5.51	-46.0	-64.9	3.8	7.45e-01	0	61	104	1079508992	63	31973
2026-01-30 00:43:03.91	168.56	5.30	-45.9	-64.8	3.8	7.48e-01	0	61	104	1079508992	63	31752
2026-01-30 00:43:06.94	168.75	5.08	-45.9	-64.8	3.8	7.43e-01	0	61	104	1079508992	63	31809
2026-01-30 00:43:09.97	168.93	4.87	-45.9	-64.8	3.8	7.45e-01	0	61	104	1079508992	63	31722
2026-01-30 00:43:13.00	169.12	4.66	-45.9	-64.8	3.8	7.46e-01	0	61	104	1079508992	63	31694
2026-01-30 00:43:16.03	169.30	4.45	-45.9	-64.8	3.8	7.47e-01	0	61	104	1079508992	63	31709
2026-01-30 00:43:19.06	169.48	4.24	-45.9	-64.8	3.8	7.47e-01	0	61	104	1079508992	63	31763
2026-01-30 00:43:22.10	169.65	4.03	-45.9	-64.8	3.8	7.45e-01	0	61	104	1079508992	63	31670
2026-01-30 00:43:25.13	169.83	3.83	-45.9	-64.8	3.8	7.44e-01	0	61	104	1079508992	63	31666
2026-01-30 00:43:28.16	170.00	3.63	-45.9	-64.8	3.8	7.47e-01	0	61	104	1079508992	63	31728
2026-01-30 00:43:31.19	170.17	3.42	-45.9	-64.8	3.8	7.44e-01	0	61	104	1079508992	63	31718
2026-01-30 00:43:34.22	170.33	3.22	-45.9	-64.8	3.8	7.46e-01	0	61	104	1079508992	63	31630
2026-01-30 00:43:37.26	170.50	3.02	-45.9	-64.8	3.8	7.46e-01	0	61	104	1079508992	63	31753
2026-01-30 00:43:40.29	170.66	2.83	-45.9	-64.8	3.8	7.44e-01	0	61	104	1079508992	63	31786
2026-01-30 00:43:43.32	170.82	2.63	-45.9	-64.8	3.8	7.44e-01	0	61	104	1079508992	63	31739
2026-01-30 00:43:46.35	170.97	2.44	-45.9	-64.8	3.8	7.45e-01	0	61	104	1079508992	63	31715
2026-01-30 00:43:49.38	171.13	2.24	-45.9	-64.8	3.8	7.44e-01	0	61	104	1079508992	63	31632
2026-01-30 00:43:52.41	171.28	2.05	-45.9	-64.8	3.8	7.44e-01	0	61	104	1079508992	63	31603

#Closed at: 2026-01-30 00:43:53
#Recorded file [1079 MB]: D:/lorett/data/31039_260130_033132.dat