passes_logs/2026/01/30/R2.0S_Moscow/R2.0S_Moscow__20260130_114654_NOAA_20_JPSS-1_rec.log

#Pass ID: 20260130_114654_NOAA 20 (JPSS-1)
#Satellite: NOAA 20 (JPSS-1)
#Configuration: NOAA 20
#almurnet v.1.7.20251203
#Start time: 2026-01-30 11:55:35

#Version: 2.2.20231116
#Station: R2.0S_Moscow
#Location: 37.707566 lon 55.798166 lat
#TLE: 1 43013U 17073A   26029.42702672  .00000137  00000+0  85918-4 0  9993
#TLE: 2 43013  98.7646 330.2153 0000804  19.9045 340.2162 14.19525092424781

#Time	Az	El	Level	Level2	SNR	BER	BlckErr	Temp	State	Recorded	gain1	gain2
2026-01-30 11:55:35.02	307.92	12.23	-46.1	-64.7	3.8	7.45e-01	0	62	0	0	62	33243
2026-01-30 11:55:36.02	308.09	12.18	-45.3	-59.9	3.8	1.49e+00	0	63	104	0	62	19144
2026-01-30 11:55:37.03	308.26	12.13	-45.3	-59.9	3.8	1.49e+00	0	62	104	0	62	19051
2026-01-30 11:55:38.04	308.42	12.08	-45.2	-59.9	3.8	1.49e+00	0	62	104	0	62	18984
2026-01-30 11:55:39.05	308.59	12.03	-45.2	-59.8	3.8	1.49e+00	0	63	104	0	62	18834
2026-01-30 11:55:40.06	308.75	11.99	-45.1	-59.7	3.8	1.49e+00	0	63	104	0	62	18650
2026-01-30 11:55:41.07	308.92	11.94	-44.9	-59.4	3.8	1.49e+00	0	62	104	0	61	19158
2026-01-30 11:55:42.08	309.08	11.89	-44.7	-59.4	3.8	1.49e+00	0	62	104	0	61	18983
2026-01-30 11:55:43.09	309.24	11.84	-44.6	-59.2	3.8	1.49e+00	0	63	104	0	61	18572
2026-01-30 11:55:44.11	309.41	11.79	-44.4	-59.0	3.8	1.49e+00	0	62	104	0	60	19233
2026-01-30 11:55:45.12	309.57	11.74	-44.2	-58.7	3.8	1.49e+00	0	62	104	0	60	18625
2026-01-30 11:55:46.13	309.73	11.69	-44.0	-58.2	3.8	1.49e+00	0	63	104	0	59	18713
2026-01-30 11:55:47.14	309.89	11.64	-43.9	-58.3	3.8	1.49e+00	0	62	104	0	59	18735
2026-01-30 11:55:48.15	310.06	11.59	-43.9	-58.3	3.8	1.49e+00	0	62	104	0	59	18751
2026-01-30 11:55:49.16	310.22	11.54	-43.9	-58.3	3.8	1.49e+00	0	63	104	0	59	18746
2026-01-30 11:55:50.17	310.38	11.48	-43.9	-58.3	3.8	1.49e+00	0	62	104	0	59	18819
2026-01-30 11:55:51.18	310.53	11.43	-43.9	-58.3	3.8	1.49e+00	0	62	104	0	59	18829
2026-01-30 11:55:52.19	310.69	11.38	-43.9	-58.3	3.8	1.49e+00	0	63	104	0	59	18838
2026-01-30 11:55:53.20	310.85	11.33	-43.9	-58.3	3.8	1.49e+00	0	62	104	0	59	18808
2026-01-30 11:55:54.21	311.01	11.28	-43.9	-58.3	3.8	1.49e+00	0	62	104	0	59	18761
2026-01-30 11:55:55.22	311.17	11.23	-43.9	-58.2	3.8	1.49e+00	0	63	104	0	59	18645
2026-01-30 11:55:56.24	311.32	11.18	-43.9	-58.1	3.8	1.49e+00	0	62	104	0	59	18490
2026-01-30 11:55:57.25	311.48	11.13	-43.9	-58.0	3.8	1.49e+00	0	62	104	0	59	18173
2026-01-30 11:55:58.26	311.64	11.08	-43.9	-57.8	3.8	1.49e+00	0	62	104	0	59	17776
2026-01-30 11:55:59.27	311.79	11.03	-43.9	-57.6	3.8	1.49e+00	0	62	104	0	59	17452
2026-01-30 11:56:00.28	311.94	10.98	-43.9	-57.3	3.8	1.49e+00	0	62	104	0	59	16875
2026-01-30 11:56:01.28	312.10	10.92	-43.9	-57.2	3.8	1.49e+00	0	62	104	0	59	16607
2026-01-30 11:56:02.30	312.25	10.87	-43.8	-57.0	3.8	1.49e+00	0	62	104	0	59	16293
2026-01-30 11:56:03.31	312.40	10.82	-43.8	-56.8	3.8	1.49e+00	0	62	104	0	59	15903
2026-01-30 11:56:04.32	312.56	10.77	-43.8	-56.7	3.8	1.49e+00	0	63	104	0	59	15699
2026-01-30 11:56:05.33	312.71	10.72	-43.8	-56.5	3.8	1.49e+00	0	62	104	0	59	15390
2026-01-30 11:56:06.34	312.86	10.67	-43.8	-56.4	3.8	1.49e+00	0	62	104	0	59	15104
2026-01-30 11:56:07.35	313.01	10.61	-43.8	-55.9	4.0	1.48e+00	0	62	104	0	59	14306
2026-01-30 11:56:08.36	313.16	10.56	-43.7	-55.6	4.0	1.49e+00	0	63	104	0	59	13734
2026-01-30 11:56:09.37	313.31	10.51	-43.7	-55.0	4.1	1.44e+00	0	63	0	0	59	12935
2026-01-30 11:56:10.38	313.46	10.46	-43.6	-53.8	4.5	1.34e+00	18	62	0	0	59	11285
2026-01-30 11:56:11.39	313.61	10.41	-43.5	-53.3	4.7	9.92e-01	0	63	0	2097152	59	10605
2026-01-30 11:56:12.40	313.76	10.35	-43.4	-52.7	5.0	7.44e-01	0	63	0	4194304	58	10476
2026-01-30 11:56:13.41	313.90	10.30	-43.3	-52.0	5.4	5.55e-01	0	63	0	6291456	58	9700
2026-01-30 11:56:14.42	314.05	10.25	-43.4	-52.2	5.4	5.12e-01	0	62	0	7340032	58	9910
2026-01-30 11:56:15.43	314.20	10.20	-43.4	-52.6	5.1	6.08e-01	0	62	0	9437184	58	10303
2026-01-30 11:56:16.44	314.34	10.15	-43.5	-53.3	4.7	7.43e-01	0	62	0	11534336	58	11244
2026-01-30 11:56:17.45	314.49	10.09	-43.6	-54.3	4.4	9.96e-01	75	62	0	13631488	58	12534
2026-01-30 11:56:18.46	314.63	10.04	-43.7	-55.1	4.1	1.42e+00	0	63	0	13631488	58	13882
2026-01-30 11:56:19.47	314.78	9.99	-43.7	-55.1	4.1	1.44e+00	0	62	0	13631488	58	13754
2026-01-30 11:56:20.48	314.92	9.94	-43.6	-53.8	4.5	1.37e+00	14	62	0	13631488	58	11952
2026-01-30 11:56:21.49	315.07	9.88	-43.4	-52.2	5.4	6.39e-01	0	62	0	15728640	58	9837
2026-01-30 11:56:22.50	315.21	9.83	-43.1	-50.6	6.5	3.12e-01	0	62	0	17825792	58	8233
2026-01-30 11:56:23.52	315.35	9.78	-42.9	-49.6	7.4	1.62e-01	0	62	0	19922944	57	7755
2026-01-30 11:56:24.52	315.49	9.73	-42.7	-48.9	8.1	6.55e-02	0	63	0	22020096	57	7154
2026-01-30 11:56:25.53	315.64	9.67	-42.6	-48.7	8.3	5.21e-02	0	62	0	23068672	57	7003
2026-01-30 11:56:26.54	315.78	9.62	-42.7	-49.0	8.1	5.60e-02	0	63	0	25165824	57	7228
2026-01-30 11:56:27.55	315.92	9.57	-42.9	-49.8	7.3	9.12e-02	0	62	0	27262976	57	7903
2026-01-30 11:56:28.56	316.06	9.52	-43.1	-50.8	6.3	2.08e-01	0	63	0	29360128	57	8950
2026-01-30 11:56:29.58	316.20	9.46	-43.6	-55.5	4.2	3.03e-01	42	63	0	31457280	57	15228
2026-01-30 11:56:30.59	316.34	9.41	-43.4	-53.4	4.0	1.39e+00	0	62	104	31457280	57	12058
2026-01-30 11:56:31.60	316.48	9.36	-43.4	-52.2	5.6	1.02e-01	0	63	0	32505856	57	10455
2026-01-30 11:56:32.61	316.61	9.30	-42.9	-50.0	6.8	1.49e+00	1	63	104	32505856	57	8090
2026-01-30 11:56:33.62	316.75	9.25	-42.9	-49.7	7.6	2.96e-01	0	62	0	33554432	57	7875
2026-01-30 11:56:34.63	316.89	9.20	-43.0	-50.1	6.7	1.45e+00	1	62	104	33554432	58	7733
2026-01-30 11:56:35.64	317.03	9.14	-42.4	-48.3	8.6	3.79e-02	0	62	0	34603008	56	7102
2026-01-30 11:56:36.65	317.16	9.09	-42.4	-48.4	8.5	3.94e-02	0	63	0	36700160	56	7126
2026-01-30 11:56:37.66	317.30	9.04	-42.4	-48.4	8.5	4.20e-02	0	63	0	37748736	56	7135
2026-01-30 11:56:38.67	317.43	8.99	-42.5	-48.5	8.4	4.43e-02	0	62	0	39845888	56	7227
2026-01-30 11:56:39.68	317.57	8.93	-42.5	-48.7	8.2	5.40e-02	0	62	0	41943040	56	7377
2026-01-30 11:56:40.69	317.70	8.88	-42.5	-48.8	8.0	6.05e-02	0	63	0	44040192	56	7517
2026-01-30 11:56:41.70	317.84	8.83	-42.6	-49.0	7.9	7.29e-02	0	62	0	46137344	56	7690
2026-01-30 11:56:42.71	317.97	8.77	-42.6	-49.0	7.8	8.05e-02	0	62	0	48234496	56	7693
2026-01-30 11:56:43.72	318.10	8.72	-42.5	-48.9	7.9	7.50e-02	0	62	0	49283072	56	7564
2026-01-30 11:56:44.72	318.23	8.67	-42.5	-49.0	7.8	7.76e-02	0	63	0	51380224	56	7643
2026-01-30 11:56:45.73	318.37	8.61	-42.4	-48.7	8.0	7.12e-02	0	62	0	53477376	56	7433
2026-01-30 11:56:46.75	318.50	8.56	-42.4	-48.7	8.1	6.08e-02	0	62	0	55574528	56	7374
2026-01-30 11:56:47.76	318.63	8.51	-42.4	-48.5	8.3	5.40e-02	0	62	0	57671680	56	7262
2026-01-30 11:56:48.77	318.76	8.45	-42.4	-48.4	8.4	4.79e-02	0	63	0	58720256	56	7186
2026-01-30 11:56:49.77	318.89	8.40	-42.4	-48.4	8.4	4.73e-02	0	62	0	60817408	56	7143
2026-01-30 11:56:50.78	319.02	8.35	-42.3	-48.3	8.5	4.15e-02	0	63	0	62914560	56	7070
2026-01-30 11:56:51.79	319.15	8.29	-42.3	-48.1	8.6	3.48e-02	0	63	0	65011712	56	6931
2026-01-30 11:56:52.80	319.28	8.24	-42.3	-48.4	8.3	4.21e-02	0	62	0	67108864	56	7182
2026-01-30 11:56:53.81	319.41	8.19	-42.4	-48.5	8.2	5.19e-02	0	62	0	68157440	56	7245
2026-01-30 11:56:54.82	319.53	8.14	-42.4	-48.7	8.0	6.28e-02	0	62	0	70254592	56	7411
2026-01-30 11:56:55.83	319.66	8.08	-42.5	-49.0	7.8	7.27e-02	0	62	0	72351744	56	7647
2026-01-30 11:56:56.84	319.79	8.03	-42.5	-49.1	7.6	8.60e-02	0	62	0	74448896	56	7761
2026-01-30 11:56:57.85	319.91	7.98	-43.7	-55.9	3.8	9.14e-01	0	62	104	75497472	57	15966
2026-01-30 11:56:58.86	320.04	7.92	-44.4	-58.5	3.8	1.49e+00	0	63	104	75497472	59	19171
2026-01-30 11:56:59.87	320.17	7.87	-44.7	-59.3	3.8	1.49e+00	0	62	104	75497472	60	19873
2026-01-30 11:57:00.88	320.29	7.82	-44.9	-59.5	3.8	1.49e+00	0	63	104	75497472	60	20466
2026-01-30 11:57:01.89	320.42	7.76	-45.1	-59.7	3.8	1.49e+00	0	63	104	75497472	60	20853
2026-01-30 11:57:02.90	320.54	7.71	-45.2	-59.8	3.8	1.49e+00	0	63	104	75497472	60	21134
2026-01-30 11:57:03.91	320.66	7.66	-45.3	-59.9	3.8	1.49e+00	0	62	104	75497472	61	20114
2026-01-30 11:57:04.92	320.79	7.60	-45.3	-59.9	3.8	1.49e+00	0	62	104	75497472	61	20254
2026-01-30 11:57:05.93	320.91	7.55	-45.3	-59.9	3.8	1.49e+00	0	63	104	75497472	61	20233
2026-01-30 11:57:06.94	321.03	7.50	-45.3	-59.9	3.8	1.49e+00	0	63	104	75497472	61	20198
2026-01-30 11:57:07.95	321.16	7.44	-45.2	-59.9	3.8	1.49e+00	0	62	104	75497472	61	20097
2026-01-30 11:57:08.96	321.28	7.39	-45.2	-59.9	3.8	1.49e+00	0	63	104	75497472	61	20119
2026-01-30 11:57:09.98	321.40	7.34	-45.2	-59.8	3.8	1.49e+00	0	63	104	75497472	61	20057
2026-01-30 11:57:10.99	321.52	7.28	-45.2	-59.8	3.8	1.49e+00	0	63	104	75497472	61	20065
2026-01-30 11:57:12.00	321.64	7.23	-45.2	-59.9	3.8	1.49e+00	0	63	104	75497472	61	20158
2026-01-30 11:57:13.01	321.76	7.18	-45.2	-59.9	3.8	1.49e+00	0	63	104	75497472	61	20090
2026-01-30 11:57:14.02	321.88	7.12	-45.1	-59.8	3.8	1.49e+00	0	63	104	75497472	61	19977
2026-01-30 11:57:15.03	322.00	7.07	-45.2	-59.8	3.8	1.49e+00	0	63	104	75497472	61	19943
2026-01-30 11:57:16.04	322.12	7.02	-45.1	-59.8	3.8	1.49e+00	0	63	104	75497472	61	19955
2026-01-30 11:57:17.05	322.24	6.96	-45.1	-59.8	3.8	1.49e+00	0	62	104	75497472	61	19878
2026-01-30 11:57:18.06	322.35	6.91	-45.1	-59.8	3.8	1.49e+00	0	63	104	75497472	61	19877
2026-01-30 11:57:19.07	322.47	6.86	-45.1	-59.8	3.8	1.49e+00	0	63	104	75497472	61	19877
2026-01-30 11:57:20.08	322.59	6.80	-45.1	-59.7	3.8	1.49e+00	0	63	104	75497472	61	19793
2026-01-30 11:57:21.09	322.71	6.75	-45.1	-59.7	3.8	1.49e+00	0	63	104	75497472	61	19826
2026-01-30 11:57:22.10	322.82	6.70	-45.1	-59.7	3.8	1.49e+00	0	63	104	75497472	61	19765
2026-01-30 11:57:23.11	322.94	6.64	-45.1	-59.7	3.8	1.49e+00	0	63	104	75497472	61	19801
2026-01-30 11:57:24.12	323.05	6.59	-45.0	-59.7	3.8	1.49e+00	0	63	104	75497472	61	19748
2026-01-30 11:57:25.13	323.17	6.54	-45.0	-59.7	3.8	1.49e+00	0	63	104	75497472	61	19809
2026-01-30 11:57:26.14	323.28	6.48	-45.1	-59.7	3.8	1.49e+00	0	63	104	75497472	61	19742
2026-01-30 11:57:27.15	323.40	6.43	-45.1	-59.7	3.8	1.49e+00	0	63	104	75497472	61	19762
2026-01-30 11:57:28.16	323.51	6.38	-45.1	-59.7	3.8	1.49e+00	0	63	104	75497472	61	19777
2026-01-30 11:57:29.17	323.63	6.32	-45.1	-59.7	3.8	1.49e+00	0	63	104	75497472	61	19806
2026-01-30 11:57:30.18	323.74	6.27	-45.1	-59.7	3.8	1.49e+00	0	63	104	75497472	61	19729
2026-01-30 11:57:31.19	323.85	6.22	-45.0	-59.7	3.8	1.49e+00	0	63	104	75497472	61	19815
2026-01-30 11:57:32.20	323.96	6.17	-45.1	-59.7	3.8	1.49e+00	0	63	104	75497472	61	19697
2026-01-30 11:57:33.21	324.08	6.11	-45.0	-59.7	3.8	1.49e+00	0	63	104	75497472	61	19747
2026-01-30 11:57:34.22	324.19	6.06	-45.0	-59.7	3.8	1.49e+00	0	63	104	75497472	60	20906
2026-01-30 11:57:35.23	324.30	6.01	-45.1	-59.7	3.8	1.49e+00	0	63	104	75497472	60	20952
2026-01-30 11:57:36.24	324.41	5.95	-45.0	-59.7	3.8	1.49e+00	0	63	104	75497472	60	20921
2026-01-30 11:57:37.26	324.52	5.90	-45.1	-59.7	3.8	1.49e+00	0	63	104	75497472	60	20853
2026-01-30 11:57:38.27	324.63	5.85	-45.0	-59.7	3.8	1.49e+00	0	63	104	75497472	60	20954
2026-01-30 11:57:39.28	324.74	5.79	-45.0	-59.7	3.8	1.49e+00	0	63	104	75497472	60	20928
2026-01-30 11:57:40.29	324.85	5.74	-44.9	-59.7	3.8	1.49e+00	0	63	104	75497472	60	20928
2026-01-30 11:57:41.30	324.96	5.69	-45.1	-59.7	3.8	1.49e+00	0	63	104	75497472	60	20976
2026-01-30 11:57:42.31	325.07	5.64	-44.7	-59.7	3.8	1.49e+00	0	63	104	75497472	60	20922
2026-01-30 11:57:43.32	325.17	5.58	-45.0	-59.7	3.8	1.49e+00	0	63	104	75497472	60	20910
2026-01-30 11:57:44.33	325.28	5.53	-44.9	-59.7	3.8	1.49e+00	0	63	104	75497472	60	20919
2026-01-30 11:57:45.34	325.39	5.48	-45.0	-59.7	3.8	1.49e+00	0	63	104	75497472	60	20836
2026-01-30 11:57:46.35	325.50	5.43	-45.1	-59.7	3.8	1.49e+00	0	63	104	75497472	60	20929
2026-01-30 11:57:47.36	325.60	5.37	-45.1	-59.7	3.8	1.49e+00	0	63	104	75497472	60	20853
2026-01-30 11:57:48.37	325.71	5.32	-45.1	-59.7	3.8	1.49e+00	0	63	104	75497472	60	20869
2026-01-30 11:57:49.38	325.81	5.27	-45.0	-59.7	3.8	1.49e+00	0	63	104	75497472	60	20951
2026-01-30 11:57:50.39	325.92	5.21	-45.0	-59.7	3.8	1.49e+00	0	62	104	75497472	60	20927
2026-01-30 11:57:51.40	326.03	5.16	-45.0	-59.7	3.8	1.49e+00	0	63	104	75497472	60	20885
2026-01-30 11:57:52.41	326.13	5.11	-45.0	-59.7	3.8	1.49e+00	0	63	104	75497472	60	20891
2026-01-30 11:57:53.42	326.23	5.06	-45.1	-59.7	3.8	1.49e+00	0	63	104	75497472	60	20860
2026-01-30 11:57:54.43	326.34	5.00	-45.0	-59.7	3.8	1.49e+00	0	63	104	75497472	60	20871
2026-01-30 11:57:55.44	326.44	4.95	-45.0	-59.7	3.8	1.49e+00	0	63	104	75497472	60	20879
2026-01-30 11:57:56.45	326.55	4.90	-45.0	-59.7	3.8	1.49e+00	0	63	104	75497472	60	20932
2026-01-30 11:57:57.46	326.65	4.85	-45.0	-59.7	3.8	1.49e+00	0	63	104	75497472	60	20926
2026-01-30 11:57:58.47	326.75	4.79	-45.1	-59.7	3.8	1.49e+00	0	63	104	75497472	60	20873
2026-01-30 11:57:59.49	326.85	4.74	-45.0	-59.7	3.8	1.49e+00	0	63	104	75497472	60	20910
2026-01-30 11:58:00.49	326.96	4.69	-45.1	-59.7	3.8	1.49e+00	0	63	104	75497472	60	20946
2026-01-30 11:58:01.50	327.06	4.64	-45.0	-59.7	3.8	1.49e+00	0	63	104	75497472	60	20907
2026-01-30 11:58:02.52	327.16	4.59	-45.0	-59.7	3.8	1.49e+00	0	63	104	75497472	60	20865
2026-01-30 11:58:03.53	327.26	4.53	-45.0	-59.7	3.8	1.49e+00	0	63	104	75497472	60	20860
2026-01-30 11:58:04.54	327.36	4.48	-45.1	-59.7	3.8	1.49e+00	0	63	104	75497472	60	20876
2026-01-30 11:58:05.55	327.46	4.43	-45.0	-59.7	3.8	1.49e+00	0	63	104	75497472	60	20871
2026-01-30 11:58:06.56	327.56	4.38	-45.0	-59.7	3.8	1.49e+00	0	63	104	75497472	60	20818
2026-01-30 11:58:07.57	327.66	4.32	-45.0	-59.7	3.8	1.49e+00	0	63	104	75497472	60	20923
2026-01-30 11:58:08.58	327.76	4.27	-45.0	-59.7	3.8	1.49e+00	0	63	104	75497472	60	20882
2026-01-30 11:58:09.59	327.86	4.22	-45.0	-59.7	3.8	1.49e+00	0	62	104	75497472	60	20824
2026-01-30 11:58:10.60	327.96	4.17	-45.0	-59.7	3.8	1.49e+00	0	63	104	75497472	60	20902
2026-01-30 11:58:11.61	328.06	4.12	-45.1	-59.7	3.8	1.49e+00	0	63	104	75497472	60	20902
2026-01-30 11:58:12.62	328.15	4.06	-45.1	-59.7	3.8	1.49e+00	0	63	104	75497472	60	20902
2026-01-30 11:58:13.63	328.25	4.01	-45.1	-59.7	3.8	1.49e+00	0	62	104	75497472	60	20868
2026-01-30 11:58:14.64	328.35	3.96	-45.1	-59.7	3.8	1.49e+00	0	63	104	75497472	60	20954
2026-01-30 11:58:15.65	328.44	3.91	-45.1	-59.7	3.8	1.49e+00	0	63	104	75497472	60	20888
2026-01-30 11:58:16.66	328.54	3.86	-45.0	-59.7	3.8	1.49e+00	0	63	104	75497472	60	20905
2026-01-30 11:58:17.67	328.64	3.81	-45.1	-59.7	3.8	1.49e+00	0	62	104	75497472	60	20912
2026-01-30 11:58:18.68	328.73	3.75	-45.0	-59.7	3.8	1.49e+00	0	62	104	75497472	60	20919
2026-01-30 11:58:19.69	328.83	3.70	-44.8	-59.7	3.8	1.49e+00	0	63	104	75497472	60	20943
2026-01-30 11:58:20.70	328.92	3.65	-45.0	-59.7	3.8	1.49e+00	0	63	104	75497472	60	20904
2026-01-30 11:58:21.71	329.02	3.60	-45.0	-59.7	3.8	1.49e+00	0	63	104	75497472	60	20895
2026-01-30 11:58:22.73	329.12	3.55	-45.1	-59.7	3.8	1.49e+00	0	63	104	75497472	60	20868
2026-01-30 11:58:23.74	329.21	3.50	-45.1	-59.7	3.8	1.49e+00	0	63	104	75497472	60	20892
2026-01-30 11:58:24.75	329.30	3.44	-45.0	-59.7	3.8	1.49e+00	0	63	104	75497472	60	20913
2026-01-30 11:58:25.76	329.40	3.39	-45.0	-59.7	3.8	1.49e+00	0	63	104	75497472	60	20950
2026-01-30 11:58:26.77	329.49	3.34	-45.0	-59.7	3.8	1.49e+00	0	63	104	75497472	60	20903
2026-01-30 11:58:27.78	329.58	3.29	-45.0	-59.7	3.8	1.49e+00	0	63	104	75497472	60	20855
2026-01-30 11:58:28.79	329.68	3.24	-45.0	-59.7	3.8	1.49e+00	0	63	104	75497472	60	20894
2026-01-30 11:58:29.80	329.77	3.19	-45.0	-59.7	3.8	1.49e+00	0	63	104	75497472	60	20891
2026-01-30 11:58:30.81	329.86	3.14	-45.1	-59.7	3.8	1.49e+00	0	63	104	75497472	60	20861
2026-01-30 11:58:31.82	329.95	3.08	-45.1	-59.7	3.8	1.49e+00	0	63	104	75497472	60	20840
2026-01-30 11:58:32.83	330.04	3.03	-45.0	-59.7	3.8	1.49e+00	0	63	104	75497472	60	20880
2026-01-30 11:58:33.84	330.14	2.98	-45.0	-59.7	3.8	1.49e+00	0	63	104	75497472	60	20898
2026-01-30 11:58:34.85	330.23	2.93	-45.0	-59.7	3.8	1.49e+00	0	63	104	75497472	60	20961
2026-01-30 11:58:35.86	330.32	2.88	-45.0	-59.7	3.8	1.49e+00	0	63	104	75497472	60	20887
2026-01-30 11:58:36.87	330.41	2.83	-45.0	-59.7	3.8	1.49e+00	0	63	104	75497472	60	20925
2026-01-30 11:58:37.88	330.50	2.78	-45.0	-59.7	3.8	1.49e+00	0	63	104	75497472	60	20925
2026-01-30 11:58:38.89	330.59	2.73	-45.0	-59.7	3.8	1.49e+00	0	63	104	75497472	60	20978
2026-01-30 11:58:39.90	330.68	2.68	-45.0	-59.7	3.8	1.49e+00	0	63	104	75497472	60	20925
2026-01-30 11:58:40.91	330.77	2.63	-45.0	-59.7	3.8	1.49e+00	0	63	104	75497472	60	20908
2026-01-30 11:58:41.92	330.86	2.57	-45.0	-59.7	3.8	1.49e+00	0	63	104	75497472	60	20867
2026-01-30 11:58:42.93	330.94	2.52	-45.0	-59.7	3.8	1.49e+00	0	63	104	75497472	60	20904
2026-01-30 11:58:43.94	331.03	2.47	-45.0	-59.7	3.8	1.49e+00	0	63	104	75497472	60	20830
2026-01-30 11:58:44.95	331.12	2.42	-45.0	-59.7	3.8	1.49e+00	0	63	104	75497472	60	20901
2026-01-30 11:58:45.96	331.21	2.37	-45.0	-59.7	3.8	1.49e+00	0	63	104	75497472	60	20886
2026-01-30 11:58:46.97	331.30	2.32	-45.0	-59.7	3.8	1.49e+00	0	63	104	75497472	60	20914
2026-01-30 11:58:47.98	331.38	2.27	-45.0	-59.7	3.8	1.49e+00	0	63	104	75497472	60	20909
2026-01-30 11:58:48.99	331.47	2.22	-45.0	-59.7	3.8	1.49e+00	0	63	104	75497472	60	20868
2026-01-30 11:58:50.00	331.56	2.17	-45.0	-59.7	3.8	1.49e+00	0	63	104	75497472	60	20879
2026-01-30 11:58:51.01	331.64	2.12	-45.0	-59.7	3.8	1.49e+00	0	63	104	75497472	60	20823
2026-01-30 11:58:52.02	331.73	2.07	-45.0	-59.7	3.8	1.49e+00	0	63	104	75497472	60	20888
2026-01-30 11:58:53.03	331.81	2.02	-45.0	-59.7	3.8	1.49e+00	0	63	104	75497472	60	20905
2026-01-30 11:58:54.04	331.90	1.97	-45.0	-59.7	3.8	1.49e+00	0	63	104	75497472	60	20827

#Closed at: 2026-01-30 11:58:54
#Recorded file [75 MB]: D:/lorett/data/31039_260130_145534.dat