passes_logs/2026/01/22/R4.6S_Anadyr/R4.6S_Anadyr__20260122_150349_AQUA_rec.log

#Pass ID: 20260122_150349_AQUA
#Satellite: AQUA
#Configuration: AQUA
#almurnet v.1.7.20251203
#Start time: 2026-01-22 15:03:52

#Version: 2.2.20231116
#Station: R4.6S_Anadyr
#Location: 177.4865 lon 64.73178 lat
#TLE: 1 27424U 02022A   26021.53721517  .00002456  00000+0  50140-3 0  9996
#TLE: 2 27424  98.4098 348.0744 0002012  70.1009  46.1672 14.61843091261845

#Time	Az	El	Level	Level2	SNR	BER	BlckErr	Temp	State	Recorded	gain1	gain2
2026-01-22 15:03:52.72	20.00	0.17	-51.7	-68.1	3.2	3.02e+01	0	40	0	0	60	97312
2026-01-22 15:03:56.75	20.21	0.40	-51.6	-69.5	3.5	3.02e+01	0	40	104	0	60	114358
2026-01-22 15:04:00.79	20.43	0.64	-51.5	-69.4	3.5	3.02e+01	0	40	104	0	60	113257
2026-01-22 15:04:04.83	20.65	0.87	-51.3	-69.2	3.5	3.02e+01	0	40	104	0	60	110527
2026-01-22 15:04:08.87	20.87	1.11	-50.9	-68.5	3.5	3.02e+01	0	40	104	0	60	102697
2026-01-22 15:04:12.92	21.10	1.35	-50.5	-68.3	3.5	3.02e+01	0	41	104	0	60	100494
2026-01-22 15:04:16.96	21.33	1.59	-50.1	-67.7	3.5	3.02e+01	0	41	104	0	60	93137
2026-01-22 15:04:21.00	21.57	1.84	-50.1	-67.4	3.5	3.02e+01	0	41	104	0	60	90165
2026-01-22 15:04:25.04	21.80	2.08	-50.1	-67.7	3.5	3.02e+01	0	41	104	0	60	93474
2026-01-22 15:04:29.08	22.05	2.33	-50.0	-66.0	3.5	3.02e+01	0	41	104	0	60	76668
2026-01-22 15:04:33.12	22.29	2.58	-50.0	-67.3	3.5	3.02e+01	0	41	104	0	60	89258
2026-01-22 15:04:37.17	22.55	2.83	-45.3	-48.0	19.4	3.02e+01	62	41	0	4194304	60	9638
2026-01-22 15:04:41.21	22.80	3.09	-41.9	-43.6	23.8	3.02e+01	59	41	0	12058624	58	6522
2026-01-22 15:04:45.25	23.06	3.34	-46.2	-57.9	3.4	3.02e+01	0	41	104	14155776	60	30388
2026-01-22 15:04:49.28	23.33	3.60	-42.7	-53.3	3.6	3.02e+01	0	41	104	14155776	58	19883
2026-01-22 15:04:53.32	23.60	3.86	-44.3	-55.3	3.5	3.02e+01	0	41	104	14155776	60	22335
2026-01-22 15:04:57.36	23.87	4.12	-41.3	-51.7	4.0	3.02e+01	0	41	104	14155776	58	16524
2026-01-22 15:05:01.40	24.15	4.39	-50.1	-67.0	3.5	3.02e+01	0	41	104	14155776	60	86460
2026-01-22 15:05:05.44	24.44	4.66	-43.2	-53.9	3.5	3.02e+01	0	41	104	14155776	60	19006
2026-01-22 15:05:09.48	24.73	4.93	-45.2	-56.5	3.6	3.02e+01	0	41	104	14155776	60	25852
2026-01-22 15:05:13.52	25.03	5.20	-41.5	-51.9	3.5	3.02e+01	0	41	104	14155776	58	17082
2026-01-22 15:05:17.55	25.33	5.47	-50.2	-67.1	3.5	3.02e+01	0	41	104	14155776	60	87498
2026-01-22 15:05:21.59	25.63	5.75	-44.3	-55.3	3.5	3.02e+01	0	41	104	14155776	60	22362
2026-01-22 15:05:25.63	25.95	6.03	-45.1	-56.2	3.5	3.02e+01	0	41	104	14155776	60	24925
2026-01-22 15:05:29.67	26.27	6.32	-44.1	-55.0	3.5	3.02e+01	0	41	104	14155776	60	21681
2026-01-22 15:05:33.71	26.60	6.60	-40.8	-51.2	3.5	3.02e+01	0	41	104	14155776	56	17616
2026-01-22 15:05:37.74	26.93	6.89	-46.6	-58.5	3.6	3.02e+01	0	41	104	14155776	60	32427
2026-01-22 15:05:41.78	27.27	7.18	-41.9	-52.5	3.5	3.02e+01	0	41	104	14155776	56	20383
2026-01-22 15:05:45.82	27.62	7.48	-42.3	-52.8	3.5	3.02e+01	0	41	104	14155776	56	21255
2026-01-22 15:05:49.86	27.97	7.78	-44.8	-55.9	3.5	3.02e+01	0	41	104	14155776	60	23892
2026-01-22 15:05:53.91	28.33	8.08	-47.5	-59.8	3.6	3.02e+01	0	41	104	14155776	60	37563
2026-01-22 15:05:57.95	28.70	8.38	-42.9	-53.5	3.5	3.02e+01	0	41	104	14155776	60	18207
2026-01-22 15:06:01.99	29.08	8.69	-50.5	-67.3	3.5	3.02e+01	0	41	104	14155776	60	88985
2026-01-22 15:06:06.02	29.47	9.00	-40.3	-50.7	3.5	3.02e+01	0	41	104	14155776	56	16653
2026-01-22 15:06:10.07	29.87	9.31	-40.9	-51.4	3.4	3.02e+01	0	41	104	14155776	58	16004
2026-01-22 15:06:14.11	30.27	9.63	-44.3	-55.4	3.5	3.02e+01	0	41	104	14155776	60	22594
2026-01-22 15:06:18.15	30.68	9.95	-49.9	-65.5	3.5	3.02e+01	0	41	104	14155776	60	72525
2026-01-22 15:06:22.19	31.11	10.28	-50.4	-67.0	3.5	3.02e+01	0	41	104	14155776	60	85879
2026-01-22 15:06:26.23	31.54	10.61	-43.6	-54.3	3.5	3.02e+01	0	41	104	14155776	60	20032
2026-01-22 15:06:30.27	31.98	10.94	-44.9	-56.1	3.5	3.02e+01	0	41	104	14155776	60	24546
2026-01-22 15:06:34.30	32.43	11.27	-39.7	-50.0	3.5	3.02e+01	0	41	104	14155776	54	17244
2026-01-22 15:06:38.34	32.90	11.61	-50.5	-67.0	3.5	3.02e+01	0	41	104	14155776	60	86245
2026-01-22 15:06:42.38	33.37	11.95	-43.2	-53.9	3.5	3.02e+01	0	41	104	14155776	60	19014
2026-01-22 15:06:46.42	33.86	12.30	-40.5	-50.8	3.5	3.02e+01	0	41	104	14155776	56	16807
2026-01-22 15:06:50.46	34.36	12.65	-43.5	-54.2	3.6	3.02e+01	0	41	104	14155776	60	19779
2026-01-22 15:06:54.50	34.87	13.00	-39.5	-49.7	3.6	3.02e+01	0	41	104	14155776	52	18721
2026-01-22 15:06:58.54	35.40	13.36	-50.0	-65.6	3.5	3.02e+01	0	41	104	14155776	60	73744
2026-01-22 15:07:02.57	35.93	13.72	-38.6	-48.8	3.6	3.02e+01	0	41	104	14155776	52	16889
2026-01-22 15:07:06.61	36.49	14.09	-39.3	-49.5	3.5	3.02e+01	0	41	104	14155776	56	14475
2026-01-22 15:07:10.65	37.05	14.45	-39.3	-49.6	3.5	3.02e+01	0	41	104	14155776	54	16335
2026-01-22 15:07:14.69	37.63	14.83	-50.3	-66.2	3.6	3.02e+01	0	41	104	14155776	60	78718
2026-01-22 15:07:18.72	38.23	15.20	-39.2	-49.5	3.5	3.02e+01	0	41	104	14155776	54	16292
2026-01-22 15:07:22.76	38.84	15.58	-47.5	-60.0	3.5	3.02e+01	0	41	104	14155776	60	38340
2026-01-22 15:07:26.80	39.47	15.97	-39.0	-49.3	3.6	3.02e+01	0	41	104	14155776	54	15868
2026-01-22 15:07:30.85	40.11	16.36	-41.9	-52.3	3.4	3.02e+01	0	41	104	14155776	60	15835
2026-01-22 15:07:34.89	40.78	16.75	-42.6	-53.2	3.5	3.02e+01	0	41	104	14155776	60	17514
2026-01-22 15:07:38.92	41.46	17.14	-48.3	-61.2	3.5	3.02e+01	0	41	104	14155776	60	43933
2026-01-22 15:07:42.96	42.16	17.54	-46.6	-58.1	3.5	3.02e+01	0	41	104	14155776	58	34746
2026-01-22 15:07:46.99	42.87	17.94	-39.5	-49.8	3.5	3.02e+01	0	41	104	14155776	54	16759
2026-01-22 15:07:51.03	43.61	18.34	-42.7	-53.3	3.5	3.02e+01	0	41	104	14155776	60	17798
2026-01-22 15:07:55.07	44.37	18.75	-38.3	-48.5	3.5	3.02e+01	0	41	104	14155776	52	16236
2026-01-22 15:07:59.11	45.15	19.16	-50.8	-66.8	3.5	3.02e+01	0	41	104	14155776	60	84432
2026-01-22 15:08:03.15	45.96	19.57	-39.4	-49.7	3.5	3.02e+01	0	41	104	14155776	54	16583
2026-01-22 15:08:07.18	46.78	19.99	-39.5	-49.8	3.5	3.02e+01	0	41	104	14155776	52	18926
2026-01-22 15:08:11.22	47.63	20.40	-39.7	-49.9	3.5	3.02e+01	0	41	104	14155776	54	17045
2026-01-22 15:08:15.27	48.50	20.82	-49.6	-64.0	3.5	3.02e+01	0	41	104	14155776	60	60652
2026-01-22 15:08:19.30	49.40	21.24	-50.2	-66.1	3.5	3.02e+01	0	41	104	14155776	60	77499
2026-01-22 15:08:23.34	50.32	21.66	-39.0	-49.2	3.5	3.02e+01	0	41	104	14155776	52	17624
2026-01-22 15:08:27.38	51.27	22.08	-41.8	-52.3	3.4	3.02e+01	0	41	104	14155776	60	15839
2026-01-22 15:08:31.41	52.25	22.50	-39.7	-49.9	3.5	3.02e+01	0	41	104	14155776	54	17014
2026-01-22 15:08:35.45	53.25	22.92	-50.7	-67.2	3.5	3.02e+01	0	41	104	14155776	60	88428
2026-01-22 15:08:39.49	54.28	23.34	-41.1	-51.4	3.5	3.02e+01	0	41	104	14155776	58	16135
2026-01-22 15:08:43.54	55.34	23.75	-41.6	-52.1	3.5	3.02e+01	0	41	104	14155776	54	21772
2026-01-22 15:08:47.58	56.43	24.17	-39.4	-49.7	3.5	3.02e+01	0	41	104	14155776	54	16692
2026-01-22 15:08:51.61	57.55	24.57	-41.2	-51.9	3.5	3.02e+01	0	41	104	14155776	60	15106
2026-01-22 15:08:55.65	58.70	24.98	-49.1	-62.6	3.5	3.02e+01	0	41	104	14155776	60	52155
2026-01-22 15:08:59.68	59.88	25.38	-39.6	-49.8	3.5	3.02e+01	0	41	104	14155776	52	18782
2026-01-22 15:09:03.72	61.09	25.77	-39.2	-49.3	3.5	3.02e+01	0	41	104	14155776	52	17888
2026-01-22 15:09:07.76	62.33	26.16	-38.4	-48.6	3.5	3.02e+01	0	41	104	14155776	52	16395
2026-01-22 15:09:11.79	63.60	26.54	-48.6	-63.1	3.6	3.02e+01	0	41	104	14155776	60	54799
2026-01-22 15:09:15.83	64.90	26.91	-39.0	-49.2	3.5	3.02e+01	0	41	104	14155776	54	15706
2026-01-22 15:09:19.87	66.24	27.27	-50.7	-67.2	3.5	3.02e+01	0	41	104	14155776	60	88411
2026-01-22 15:09:23.91	67.60	27.61	-40.3	-50.7	3.6	3.02e+01	0	41	104	14155776	54	18574
2026-01-22 15:09:27.95	69.00	27.95	-38.8	-49.1	3.5	3.02e+01	0	41	104	14155776	52	17371
2026-01-22 15:09:31.98	70.42	28.27	-41.3	-51.7	3.5	3.02e+01	0	41	104	14155776	60	14813
2026-01-22 15:09:36.03	71.88	28.58	-45.0	-56.1	3.5	3.02e+01	0	41	104	14155776	60	24486
2026-01-22 15:09:40.06	73.36	28.87	-50.1	-65.8	3.5	3.02e+01	0	41	104	14155776	60	75236
2026-01-22 15:09:44.10	74.87	29.14	-38.2	-48.5	3.5	3.02e+01	0	41	104	14155776	52	16146
2026-01-22 15:09:48.13	76.40	29.40	-42.2	-52.7	3.6	3.02e+01	0	41	104	14155776	56	21025
2026-01-22 15:09:52.17	77.96	29.63	-38.0	-48.3	3.5	3.02e+01	0	41	104	14155776	52	15900
2026-01-22 15:09:56.21	79.54	29.85	-49.8	-67.5	3.5	3.02e+01	0	41	104	14155776	60	91309
2026-01-22 15:10:00.25	81.14	30.04	-39.0	-49.3	3.6	3.02e+01	0	41	104	14155776	52	17868
2026-01-22 15:10:04.29	82.76	30.21	-39.4	-49.5	3.5	3.02e+01	0	41	104	14155776	52	18313
2026-01-22 15:10:08.33	84.40	30.36	-38.8	-49.0	3.5	3.02e+01	0	41	104	14155776	52	17242
2026-01-22 15:10:12.37	86.05	30.49	-50.3	-66.4	3.5	3.02e+01	0	41	104	14155776	60	80683
2026-01-22 15:10:16.41	87.72	30.59	-50.3	-66.1	3.5	3.02e+01	0	41	104	14155776	60	77260
2026-01-22 15:10:20.45	89.39	30.66	-37.5	-47.6	3.5	3.02e+01	0	41	104	14155776	50	16438
2026-01-22 15:10:24.49	91.07	30.71	-39.3	-49.6	3.5	3.02e+01	0	41	104	14155776	58	13034
2026-01-22 15:10:28.53	92.76	30.73	-39.5	-49.8	3.5	3.02e+01	0	41	104	14155776	54	16741
2026-01-22 15:10:32.57	94.44	30.72	-50.6	-66.6	3.5	3.02e+01	0	41	104	14155776	60	82691
2026-01-22 15:10:36.61	96.12	30.69	-37.3	-47.5	3.5	3.02e+01	0	41	104	14155776	50	16303
2026-01-22 15:10:40.64	97.80	30.64	-41.9	-52.3	3.5	3.02e+01	0	41	104	14155776	52	25041
2026-01-22 15:10:44.68	99.47	30.56	-37.8	-47.9	3.5	3.02e+01	0	41	104	14155776	50	16900
2026-01-22 15:10:48.72	101.13	30.45	-43.1	-53.8	3.6	3.02e+01	0	41	104	14155776	60	18937
2026-01-22 15:10:52.76	102.78	30.32	-50.0	-64.2	3.6	3.02e+01	0	41	104	14155776	60	62242
2026-01-22 15:10:56.80	104.42	30.16	-38.2	-48.4	3.5	3.02e+01	0	41	104	14155776	52	16088
2026-01-22 15:11:00.84	106.04	29.98	-41.3	-51.8	3.5	3.02e+01	0	41	104	14155776	48	29822
2026-01-22 15:11:04.88	107.63	29.78	-36.9	-47.0	3.6	3.02e+01	0	41	104	14155776	48	17098
2026-01-22 15:11:08.92	109.21	29.56	-41.6	-52.0	3.5	3.02e+01	0	41	104	14155776	60	15252
2026-01-22 15:11:12.95	110.76	29.31	-37.4	-47.6	3.6	3.02e+01	0	41	104	14155776	50	16442
2026-01-22 15:11:16.99	112.29	29.05	-36.6	-37.7	30.1	3.02e+01	59	41	0	18874368	48	5912
2026-01-22 15:11:21.03	113.80	28.77	-36.5	-37.7	30.1	3.02e+01	58	41	0	26214400	48	5882
2026-01-22 15:11:25.07	115.27	28.47	-36.5	-37.6	30.2	3.02e+01	58	41	0	34078720	48	5839
2026-01-22 15:11:29.11	116.72	28.16	-36.6	-37.7	29.9	3.02e+01	44	41	0	41418752	48	5923
2026-01-22 15:11:33.14	118.14	27.83	-36.5	-37.7	30.1	3.02e+01	59	41	0	48758784	48	5863
2026-01-22 15:11:37.18	119.53	27.49	-36.7	-37.9	29.9	3.02e+01	59	41	0	56623104	48	6021
2026-01-22 15:11:41.22	120.89	27.14	-36.8	-38.0	29.8	3.02e+01	59	41	0	63963136	48	6098
2026-01-22 15:11:45.26	122.22	26.77	-36.6	-37.7	29.9	3.02e+01	58	41	0	71827456	48	5910
2026-01-22 15:11:49.29	123.51	26.40	-36.7	-37.9	29.8	3.02e+01	58	41	0	79167488	48	6028
2026-01-22 15:11:53.33	124.78	26.01	-36.7	-37.9	29.8	3.02e+01	51	41	0	87031808	48	6006
2026-01-22 15:11:57.37	126.01	25.62	-37.0	-38.2	29.6	3.02e+01	60	41	0	94371840	48	6226
2026-01-22 15:12:01.40	127.21	25.23	-36.8	-38.0	29.7	3.02e+01	48	41	0	102236160	48	6121
2026-01-22 15:12:05.44	128.39	24.82	-36.9	-38.1	29.6	3.02e+01	56	41	0	109576192	48	6197
2026-01-22 15:12:09.48	129.53	24.41	-37.0	-38.2	29.6	3.02e+01	52	41	0	116916224	48	6229
2026-01-22 15:12:13.52	130.64	24.00	-37.1	-38.3	29.4	3.02e+01	58	41	0	124780544	48	6343
2026-01-22 15:12:17.55	131.72	23.58	-37.0	-38.1	29.6	3.02e+01	53	41	0	132120576	48	6194
2026-01-22 15:12:21.59	132.78	23.16	-36.9	-38.0	29.6	3.02e+01	59	41	0	139984896	48	6118
2026-01-22 15:12:25.63	133.80	22.74	-37.0	-38.1	29.5	3.02e+01	46	41	0	147324928	48	6202
2026-01-22 15:12:29.67	134.80	22.32	-36.9	-38.2	29.5	3.02e+01	59	41	0	155189248	48	6207
2026-01-22 15:12:33.70	135.77	21.90	-36.7	-37.9	29.7	3.02e+01	62	41	0	162529280	48	6010
2026-01-22 15:12:37.74	136.71	21.48	-36.9	-38.2	29.5	3.02e+01	54	41	0	170393600	48	6206
2026-01-22 15:12:41.78	137.63	21.06	-36.7	-37.9	29.7	3.02e+01	56	41	0	177733632	48	6043
2026-01-22 15:12:45.81	138.52	20.63	-36.7	-37.9	29.7	3.02e+01	58	41	0	185073664	48	6047
2026-01-22 15:12:49.85	139.39	20.21	-36.6	-37.8	29.9	3.02e+01	57	41	0	192937984	48	5979
2026-01-22 15:12:53.89	140.23	19.80	-36.8	-38.0	29.8	3.02e+01	59	41	0	200278016	48	6071
2026-01-22 15:12:57.93	141.05	19.38	-36.9	-38.1	29.4	3.02e+01	57	41	0	208142336	48	6171
2026-01-22 15:13:01.97	141.85	18.96	-36.7	-37.9	29.6	3.02e+01	58	41	0	215482368	48	6026
2026-01-22 15:13:06.01	142.63	18.55	-36.5	-37.6	29.9	3.02e+01	58	41	0	223346688	48	5845
2026-01-22 15:13:10.05	143.38	18.14	-36.7	-37.9	29.6	3.02e+01	59	41	0	230686720	48	6023
2026-01-22 15:13:14.09	144.11	17.74	-36.8	-38.0	29.5	3.02e+01	59	41	0	238026752	48	6099
2026-01-22 15:13:18.13	144.83	17.34	-36.7	-37.9	29.6	3.02e+01	52	41	0	245891072	48	6015
2026-01-22 15:13:22.16	145.52	16.94	-36.6	-37.8	29.7	3.02e+01	60	41	0	253231104	48	5974
2026-01-22 15:13:26.20	146.20	16.54	-36.6	-37.8	29.7	3.02e+01	60	41	0	261095424	48	5958
2026-01-22 15:13:30.24	146.85	16.15	-36.6	-37.8	29.6	3.02e+01	58	41	0	268435456	48	5972
2026-01-22 15:13:34.28	147.49	15.76	-36.5	-37.7	29.8	3.02e+01	58	41	0	276299776	48	5911
2026-01-22 15:13:38.33	148.12	15.37	-36.7	-38.0	29.6	3.02e+01	57	41	0	283639808	48	6067
2026-01-22 15:13:42.36	148.73	14.99	-36.9	-38.1	29.4	3.02e+01	56	41	0	291504128	48	6164
2026-01-22 15:13:46.41	149.32	14.61	-36.7	-37.8	29.6	3.02e+01	58	41	0	298844160	48	5988
2026-01-22 15:13:50.44	149.89	14.24	-36.7	-37.9	29.7	3.02e+01	47	41	0	306184192	48	6019
2026-01-22 15:13:54.48	150.45	13.87	-36.9	-38.1	29.4	3.02e+01	59	41	0	314048512	48	6148
2026-01-22 15:13:58.52	151.00	13.50	-36.8	-38.0	29.4	3.02e+01	60	41	0	321388544	48	6118
2026-01-22 15:14:02.52	151.53	13.14	-36.8	-38.0	29.5	3.02e+01	59	41	0	329252864	48	6096
2026-01-22 15:14:06.56	152.05	12.79	-36.9	-38.1	29.3	3.02e+01	53	41	0	336592896	48	6175
2026-01-22 15:14:10.60	152.56	12.43	-37.4	-38.6	28.9	3.02e+01	60	41	0	344457216	48	6535
2026-01-22 15:14:14.64	153.05	12.08	-37.9	-39.1	28.4	3.02e+01	56	41	0	351797248	48	6933
2026-01-22 15:14:18.68	153.54	11.73	-38.8	-40.1	27.2	3.02e+01	54	41	0	359661568	50	6959
2026-01-22 15:14:22.72	154.01	11.39	-40.0	-41.5	25.5	3.02e+01	55	41	0	367001600	54	6487
2026-01-22 15:14:26.76	154.47	11.05	-40.9	-42.6	23.2	3.02e+01	58	41	0	374341632	54	7292
2026-01-22 15:14:30.80	154.92	10.71	-41.8	-43.5	23.5	3.02e+01	45	41	0	382205952	56	7278
2026-01-22 15:14:34.84	155.35	10.38	-41.6	-43.3	23.9	3.02e+01	59	41	0	389545984	58	6289
2026-01-22 15:14:38.88	155.78	10.05	-40.7	-42.2	25.0	3.02e+01	45	41	0	397410304	56	6276
2026-01-22 15:14:42.91	156.20	9.73	-40.0	-41.5	25.9	3.02e+01	58	41	0	404750336	54	6433
2026-01-22 15:14:46.95	156.61	9.41	-38.7	-40.0	27.4	3.02e+01	44	41	0	412614656	52	6091
2026-01-22 15:14:50.99	157.01	9.09	-38.2	-39.5	28.0	3.02e+01	60	41	0	419954688	52	5730
2026-01-22 15:14:55.03	157.40	8.77	-38.2	-39.5	28.1	3.02e+01	54	41	0	427294720	50	6426
2026-01-22 15:14:59.07	157.78	8.46	-38.4	-39.6	27.9	3.02e+01	61	41	0	435159040	50	6568
2026-01-22 15:15:03.11	158.16	8.15	-38.4	-39.7	27.8	3.02e+01	60	41	0	442499072	50	6622
2026-01-22 15:15:07.15	158.52	7.85	-38.3	-39.6	27.9	3.02e+01	59	41	0	450363392	50	6512
2026-01-22 15:15:11.18	158.88	7.55	-38.2	-39.5	28.0	3.02e+01	60	41	0	457703424	50	6428
2026-01-22 15:15:15.22	159.23	7.25	-38.3	-39.6	27.8	3.02e+01	59	41	0	465567744	50	6515
2026-01-22 15:15:19.26	159.58	6.95	-38.4	-39.7	27.7	3.02e+01	54	41	0	472907776	50	6613
2026-01-22 15:15:23.30	159.91	6.66	-38.5	-39.9	27.5	3.02e+01	57	41	0	480772096	50	6728
2026-01-22 15:15:27.34	160.24	6.37	-39.2	-40.6	26.9	3.02e+01	57	41	0	488112128	52	6546
2026-01-22 15:15:31.38	160.56	6.08	-38.6	-40.0	27.4	3.02e+01	59	41	0	495976448	52	6080
2026-01-22 15:15:35.41	160.88	5.80	-39.2	-40.5	26.8	3.02e+01	59	41	0	503316480	52	6476
2026-01-22 15:15:39.45	161.19	5.52	-39.5	-40.9	26.5	3.02e+01	62	41	0	510656512	52	6779
2026-01-22 15:15:43.49	161.49	5.24	-39.4	-40.8	26.7	3.02e+01	57	41	0	518520832	52	6683
2026-01-22 15:15:47.53	161.79	4.97	-39.1	-40.5	26.8	3.02e+01	59	41	0	525860864	52	6462
2026-01-22 15:15:51.56	162.08	4.69	-39.1	-40.5	26.8	3.02e+01	59	41	0	533725184	52	6424
2026-01-22 15:15:55.60	162.37	4.42	-40.0	-41.4	25.9	3.02e+01	60	41	0	541065216	54	6387
2026-01-22 15:15:59.64	162.65	4.15	-39.6	-41.0	26.2	3.02e+01	63	41	0	548929536	54	6104
2026-01-22 15:16:03.67	162.92	3.89	-39.2	-40.6	26.6	3.02e+01	61	41	0	556269568	54	5800
2026-01-22 15:16:07.71	163.19	3.62	-40.0	-41.5	25.7	3.02e+01	58	41	0	563609600	54	6476
2026-01-22 15:16:11.75	163.46	3.36	-40.0	-41.5	25.6	3.02e+01	46	41	0	571473920	54	6489
2026-01-22 15:16:15.78	163.72	3.11	-40.1	-41.6	25.5	3.02e+01	62	41	0	578813952	54	6542
2026-01-22 15:16:19.82	163.98	2.85	-50.5	-68.3	3.5	3.02e+01	0	42	104	582483968	60	100277
2026-01-22 15:16:23.86	164.23	2.59	-51.0	-68.9	3.5	3.02e+01	0	41	104	582483968	60	107813
2026-01-22 15:16:27.90	164.48	2.34	-51.3	-69.2	3.5	3.02e+01	0	42	104	582483968	60	111417
2026-01-22 15:16:31.93	164.72	2.09	-51.4	-69.2	3.5	3.02e+01	0	41	104	582483968	60	111440
2026-01-22 15:16:35.97	164.96	1.84	-51.5	-69.3	3.5	3.02e+01	0	41	104	582483968	60	112310
2026-01-22 15:16:40.01	165.19	1.60	-51.6	-69.4	3.5	3.02e+01	0	42	104	582483968	60	112935
2026-01-22 15:16:44.05	165.42	1.35	-51.5	-69.3	3.5	3.02e+01	0	42	104	582483968	60	112849
2026-01-22 15:16:48.09	165.65	1.11	-51.6	-69.4	3.5	3.02e+01	0	42	104	582483968	60	112959
2026-01-22 15:16:52.14	165.87	0.87	-51.6	-69.4	3.5	3.02e+01	0	42	104	582483968	60	112991
2026-01-22 15:16:56.18	166.09	0.63	-51.6	-69.4	3.5	3.02e+01	0	42	104	582483968	60	114075
2026-01-22 15:17:00.22	166.31	0.40	-51.6	-69.4	3.5	3.02e+01	0	42	104	582483968	60	113242
2026-01-22 15:17:04.25	166.52	0.16	-51.6	-69.4	3.5	3.02e+01	0	41	104	582483968	60	114014

#Closed at: 2026-01-22 15:17:07
#Recorded file [582 MB]: D:/lorett/data/35029_260123_030352.dat