passes_logs/2026/01/22/R4.6S_Anadyr/R4.6S_Anadyr__20260122_023022_NOAA_20_JPSS-1_rec.log

#Pass ID: 20260122_023022_NOAA 20 (JPSS-1)
#Satellite: NOAA 20 (JPSS-1)
#Configuration: NOAA 20
#almurnet v.1.7.20251203
#Start time: 2026-01-22 02:30:24

#Version: 2.2.20231116
#Station: R4.6S_Anadyr
#Location: 177.4865 lon 64.73178 lat
#TLE: 1 43013U 17073A   26020.82785136  .00000155  00000+0  94366-4 0  9991
#TLE: 2 43013  98.7643 321.7058 0001260  30.3785 329.7464 14.19537992423566

#Time	Az	El	Level	Level2	SNR	BER	BlckErr	Temp	State	Recorded	gain1	gain2
2026-01-22 02:30:24.13	216.19	0.08	-51.4	-66.4	3.5	1.51e+00	0	39	0	0	60	75721
2026-01-22 02:30:28.17	216.48	0.29	-52.2	-67.5	3.6	1.51e+00	0	40	104	0	60	85514
2026-01-22 02:30:32.21	216.78	0.49	-51.8	-67.0	3.6	1.51e+00	0	40	104	0	60	81213
2026-01-22 02:30:36.25	217.07	0.69	-51.6	-66.8	3.6	1.51e+00	0	40	104	0	60	79241
2026-01-22 02:30:40.29	217.37	0.90	-51.3	-66.6	3.6	1.51e+00	0	40	104	0	60	76938
2026-01-22 02:30:44.33	217.68	1.11	-51.2	-66.4	3.5	1.51e+00	0	40	104	0	60	75427
2026-01-22 02:30:48.37	217.99	1.31	-51.0	-66.2	3.6	1.51e+00	0	40	104	0	60	74178
2026-01-22 02:30:52.41	218.30	1.52	-49.9	-65.0	3.6	1.51e+00	0	41	104	0	60	64365
2026-01-22 02:30:56.45	218.62	1.73	-49.8	-64.9	3.6	1.51e+00	0	41	104	0	60	63794
2026-01-22 02:31:00.49	218.94	1.94	-50.1	-65.2	3.6	1.51e+00	0	40	104	0	60	66068
2026-01-22 02:31:04.54	219.27	2.15	-49.7	-64.8	3.6	1.51e+00	0	41	104	0	60	62882
2026-01-22 02:31:08.57	219.60	2.36	-49.7	-64.8	3.6	1.51e+00	0	41	104	0	60	62839
2026-01-22 02:31:12.62	219.93	2.58	-49.5	-63.0	3.6	1.51e+00	0	40	104	0	60	50902
2026-01-22 02:31:16.66	220.27	2.79	-49.3	-60.7	4.2	1.49e+00	2	41	104	0	60	39141
2026-01-22 02:31:20.70	220.62	3.00	-48.7	-55.0	8.4	5.15e-02	90	41	0	6291456	60	20219
2026-01-22 02:31:24.75	220.97	3.22	-45.7	-48.2	16.5	1.51e+00	67	41	104	9437184	60	9313
2026-01-22 02:31:28.78	221.32	3.43	-45.0	-47.2	16.7	0.00e+00	90	41	0	15728640	60	8328
2026-01-22 02:31:32.83	221.68	3.65	-45.4	-47.5	17.1	0.00e+00	92	41	0	23068672	60	8570
2026-01-22 02:31:36.86	222.05	3.87	-45.3	-47.5	16.9	0.00e+00	92	41	0	30408704	60	8556
2026-01-22 02:31:40.91	222.42	4.09	-45.2	-47.4	16.7	0.00e+00	0	41	0	37748736	60	8441
2026-01-22 02:31:44.94	222.79	4.31	-45.2	-47.4	17.0	0.00e+00	92	41	0	46137344	60	8445
2026-01-22 02:31:48.98	223.17	4.52	-45.5	-47.7	16.6	0.00e+00	92	41	0	53477376	60	8789
2026-01-22 02:31:53.02	223.56	4.75	-45.7	-48.0	16.4	0.00e+00	91	41	0	60817408	60	9047
2026-01-22 02:31:57.06	223.95	4.97	-45.5	-47.8	16.4	0.00e+00	0	40	0	68157440	60	8868
2026-01-22 02:32:01.10	224.34	5.19	-46.1	-48.5	16.1	0.00e+00	92	40	0	75497472	60	9649
2026-01-22 02:32:05.13	224.75	5.41	-46.1	-48.4	16.3	0.00e+00	92	41	0	83886080	60	9500
2026-01-22 02:32:09.17	225.15	5.63	-45.8	-48.2	16.1	0.00e+00	92	40	0	91226112	60	9339
2026-01-22 02:32:13.21	225.57	5.86	-45.9	-48.3	16.2	0.00e+00	16	41	0	98566144	60	9366
2026-01-22 02:32:17.25	225.99	6.08	-46.1	-48.6	15.8	0.00e+00	90	40	0	105906176	60	9719
2026-01-22 02:32:21.28	226.42	6.31	-46.6	-49.1	15.6	0.00e+00	92	41	0	113246208	60	10337
2026-01-22 02:32:25.33	226.85	6.53	-46.6	-49.2	15.5	0.00e+00	91	41	0	121634816	60	10422
2026-01-22 02:32:29.37	227.29	6.76	-46.6	-49.2	15.6	0.00e+00	84	40	0	128974848	60	10424
2026-01-22 02:32:33.40	227.74	6.99	-47.2	-49.8	15.5	0.00e+00	92	41	0	136314880	60	11139
2026-01-22 02:32:37.44	228.19	7.22	-46.6	-49.0	15.9	0.00e+00	92	41	0	143654912	60	10208
2026-01-22 02:32:41.48	228.65	7.44	-47.0	-49.6	15.4	0.00e+00	92	41	0	152043520	60	10962
2026-01-22 02:32:45.52	229.12	7.67	-46.7	-49.3	15.5	0.00e+00	87	41	0	159383552	60	10596
2026-01-22 02:32:49.55	229.59	7.90	-46.6	-49.1	15.8	0.00e+00	92	41	0	166723584	60	10323
2026-01-22 02:32:53.59	230.07	8.13	-47.1	-49.6	15.6	0.00e+00	92	40	0	174063616	60	10929
2026-01-22 02:32:57.63	230.56	8.36	-46.9	-49.6	15.6	0.00e+00	0	41	0	181403648	60	10855
2026-01-22 02:33:01.67	231.06	8.59	-47.0	-49.6	15.5	7.00e-07	90	41	0	189792256	60	10906
2026-01-22 02:33:05.70	231.56	8.82	-46.4	-48.9	16.1	0.00e+00	92	41	0	197132288	60	10015
2026-01-22 02:33:09.73	232.07	9.05	-46.2	-48.5	16.4	0.00e+00	94	41	0	204472320	60	9658
2026-01-22 02:33:13.77	232.59	9.28	-46.5	-48.8	16.2	0.00e+00	33	41	0	211812352	60	10000
2026-01-22 02:33:17.81	233.12	9.51	-46.2	-48.5	16.4	0.00e+00	92	41	0	220200960	60	9673
2026-01-22 02:33:21.85	233.66	9.75	-45.7	-47.9	16.9	0.00e+00	90	41	0	227540992	60	8942
2026-01-22 02:33:25.89	234.20	9.98	-46.4	-48.6	16.8	0.00e+00	92	41	0	234881024	60	9741
2026-01-22 02:33:29.93	234.75	10.21	-46.1	-48.2	17.1	0.00e+00	0	41	0	242221056	60	9252
2026-01-22 02:33:33.96	235.31	10.44	-45.7	-47.7	17.4	0.00e+00	92	41	0	249561088	60	8811
2026-01-22 02:33:38.01	235.88	10.67	-45.6	-47.5	17.9	0.00e+00	90	41	0	257949696	60	8527
2026-01-22 02:33:42.05	236.46	10.90	-45.5	-47.3	18.2	0.00e+00	90	41	0	265289728	60	8403
2026-01-22 02:33:46.08	237.05	11.13	-45.1	-46.8	18.4	0.00e+00	64	41	0	272629760	60	7911
2026-01-22 02:33:50.12	237.64	11.36	-44.9	-46.5	18.9	0.00e+00	90	41	0	279969792	60	7679
2026-01-22 02:33:54.15	238.24	11.58	-44.1	-45.6	19.6	0.00e+00	92	41	0	288358400	60	6894
2026-01-22 02:33:58.20	238.86	11.81	-43.8	-45.2	19.9	0.00e+00	92	41	0	295698432	60	6557
2026-01-22 02:34:02.23	239.48	12.04	-43.3	-44.7	20.2	0.00e+00	0	41	0	303038464	60	6206
2026-01-22 02:34:06.27	240.11	12.26	-43.2	-44.4	20.9	0.00e+00	92	41	0	310378496	60	6001
2026-01-22 02:34:10.31	240.76	12.49	-42.9	-44.2	21.1	0.00e+00	92	41	0	317718528	60	5829
2026-01-22 02:34:14.35	241.41	12.71	-42.3	-43.5	21.7	0.00e+00	92	41	0	326107136	58	6038
2026-01-22 02:34:18.38	242.07	12.93	-42.0	-43.1	21.9	0.00e+00	89	41	0	333447168	58	5803
2026-01-22 02:34:22.43	242.74	13.15	-41.4	-42.4	22.6	0.00e+00	92	41	0	340787200	56	5990
2026-01-22 02:34:26.47	243.42	13.37	-41.5	-42.5	22.8	0.00e+00	92	41	0	348127232	56	6085
2026-01-22 02:34:30.50	244.11	13.59	-41.4	-42.4	22.9	0.00e+00	92	41	0	356515840	56	5978
2026-01-22 02:34:34.54	244.81	13.81	-40.8	-41.7	23.4	0.00e+00	91	41	0	363855872	56	5560
2026-01-22 02:34:38.58	245.52	14.02	-40.7	-41.6	23.4	0.00e+00	91	41	0	371195904	54	6171
2026-01-22 02:34:42.62	246.24	14.23	-41.0	-41.9	23.2	0.00e+00	91	41	0	378535936	54	6359
2026-01-22 02:34:46.66	246.97	14.44	-40.5	-41.4	23.4	0.00e+00	52	41	0	385875968	54	6010
2026-01-22 02:34:50.70	247.71	14.64	-40.6	-41.5	23.2	0.00e+00	92	41	0	394264576	54	6080
2026-01-22 02:34:54.74	248.45	14.85	-41.1	-42.1	22.9	0.00e+00	92	41	0	401604608	54	6471
2026-01-22 02:34:58.78	249.21	15.05	-41.0	-41.9	22.9	0.00e+00	92	41	0	408944640	54	6383
2026-01-22 02:35:02.82	249.98	15.24	-41.1	-42.1	22.7	0.00e+00	27	41	0	416284672	54	6483
2026-01-22 02:35:06.86	250.76	15.44	-42.0	-43.1	22.2	0.00e+00	92	41	0	424673280	56	6469
2026-01-22 02:35:10.90	251.55	15.63	-41.9	-42.9	22.3	0.00e+00	92	41	0	432013312	56	6375
2026-01-22 02:35:14.94	252.35	15.82	-41.9	-43.0	22.1	0.00e+00	92	41	0	439353344	56	6403
2026-01-22 02:35:18.98	253.16	16.00	-42.4	-43.5	21.7	0.00e+00	0	41	0	446693376	56	6792
2026-01-22 02:35:23.02	253.97	16.18	-42.1	-43.2	21.8	0.00e+00	92	41	0	454033408	56	6606
2026-01-22 02:35:27.05	254.80	16.35	-42.4	-43.5	21.5	0.00e+00	92	41	0	462422016	56	6837
2026-01-22 02:35:31.09	255.63	16.52	-42.8	-44.0	21.2	0.00e+00	3	41	0	469762048	58	6444
2026-01-22 02:35:35.13	256.48	16.69	-42.6	-43.7	21.4	0.00e+00	16	41	0	477102080	58	6221
2026-01-22 02:35:39.17	257.33	16.85	-42.1	-43.2	22.0	0.00e+00	92	41	0	484442112	58	5853
2026-01-22 02:35:43.20	258.19	17.00	-42.2	-43.3	21.7	0.00e+00	92	41	0	492830720	58	5942
2026-01-22 02:35:47.24	259.07	17.15	-42.0	-43.1	22.0	0.00e+00	0	41	0	500170752	58	5811
2026-01-22 02:35:51.27	259.94	17.30	-41.7	-42.8	22.4	0.00e+00	10	41	0	507510784	56	6258
2026-01-22 02:35:55.31	260.83	17.43	-41.5	-42.5	22.6	0.00e+00	91	41	0	514850816	56	6103
2026-01-22 02:35:59.35	261.72	17.57	-41.4	-42.4	22.7	0.00e+00	92	41	0	522190848	56	6019
2026-01-22 02:36:03.39	262.63	17.69	-41.6	-42.6	22.4	0.00e+00	3	41	0	530579456	56	6138
2026-01-22 02:36:07.42	263.53	17.81	-42.1	-43.1	22.3	0.00e+00	90	41	0	537919488	56	6509
2026-01-22 02:36:11.46	264.45	17.93	-41.9	-43.0	22.3	0.00e+00	90	41	0	545259520	56	6400
2026-01-22 02:36:15.50	265.37	18.04	-42.0	-43.0	22.3	0.00e+00	92	41	0	552599552	56	6419
2026-01-22 02:36:19.53	266.30	18.14	-41.6	-42.6	22.6	0.00e+00	0	41	0	559939584	56	6121
2026-01-22 02:36:23.57	267.24	18.23	-41.7	-42.7	22.3	0.00e+00	92	41	0	568328192	56	6235
2026-01-22 02:36:27.60	268.17	18.32	-42.0	-43.1	22.2	0.00e+00	92	41	0	575668224	56	6491
2026-01-22 02:36:31.64	269.12	18.40	-41.8	-42.8	22.4	0.00e+00	92	41	0	583008256	56	6296
2026-01-22 02:36:35.68	270.07	18.47	-41.6	-42.6	22.6	0.00e+00	63	41	0	590348288	56	6114
2026-01-22 02:36:39.72	271.02	18.53	-41.3	-42.3	22.7	0.00e+00	92	41	0	598736896	56	5944
2026-01-22 02:36:43.76	271.98	18.59	-42.0	-43.0	22.2	0.00e+00	92	41	0	606076928	56	6428
2026-01-22 02:36:47.80	272.94	18.64	-42.0	-43.0	22.1	0.00e+00	92	41	0	613416960	56	6457
2026-01-22 02:36:51.84	273.90	18.68	-42.0	-43.1	22.1	0.00e+00	0	41	0	620756992	56	6494
2026-01-22 02:36:55.88	274.87	18.72	-42.3	-43.4	21.8	0.00e+00	92	41	0	628097024	56	6748
2026-01-22 02:36:59.92	275.84	18.74	-42.0	-43.0	22.1	0.00e+00	92	41	0	636485632	56	6462
2026-01-22 02:37:03.96	276.80	18.76	-42.1	-43.2	22.1	0.00e+00	11	41	0	643825664	56	6561
2026-01-22 02:37:08.00	277.77	18.77	-42.7	-43.9	21.4	0.00e+00	0	41	0	651165696	58	6326
2026-01-22 02:37:12.04	278.74	18.77	-42.2	-43.3	21.9	0.00e+00	92	41	0	658505728	58	5904
2026-01-22 02:37:16.07	279.71	18.77	-42.1	-43.2	21.8	0.00e+00	92	41	0	666894336	58	5876
2026-01-22 02:37:20.11	280.68	18.75	-42.1	-43.2	21.9	0.00e+00	7	41	0	674234368	58	5858
2026-01-22 02:37:24.15	281.65	18.73	-42.3	-43.4	21.8	0.00e+00	80	41	0	681574400	58	5987
2026-01-22 02:37:28.18	282.61	18.70	-41.9	-42.9	22.4	0.00e+00	90	41	0	688914432	58	5693
2026-01-22 02:37:32.22	283.57	18.66	-41.8	-42.8	22.4	0.00e+00	92	41	0	696254464	58	5584
2026-01-22 02:37:36.26	284.53	18.62	-41.9	-43.0	22.1	0.00e+00	0	41	0	704643072	56	6408
2026-01-22 02:37:40.29	285.49	18.56	-42.1	-43.2	22.1	0.00e+00	91	41	0	711983104	56	6583
2026-01-22 02:37:44.33	286.44	18.50	-42.2	-43.3	22.0	0.00e+00	92	41	0	719323136	56	6642
2026-01-22 02:37:48.37	287.40	18.44	-41.6	-42.6	22.5	0.00e+00	91	41	0	726663168	56	6117
2026-01-22 02:37:52.41	288.34	18.36	-41.7	-42.7	22.3	0.00e+00	58	41	0	735051776	56	6200
2026-01-22 02:37:56.45	289.28	18.28	-41.5	-42.6	22.5	0.00e+00	91	41	0	742391808	56	6110
2026-01-22 02:38:00.49	290.22	18.19	-41.3	-42.3	22.7	0.00e+00	92	41	0	749731840	56	5914
2026-01-22 02:38:04.53	291.15	18.09	-40.6	-41.6	23.3	0.00e+00	92	41	0	757071872	54	6113
2026-01-22 02:38:08.57	292.07	17.99	-40.7	-41.7	23.3	0.00e+00	33	41	0	764411904	54	6182
2026-01-22 02:38:12.60	292.99	17.88	-40.4	-41.3	23.5	0.00e+00	92	41	0	772800512	54	5910
2026-01-22 02:38:16.64	293.90	17.76	-41.0	-42.0	22.9	0.00e+00	92	41	0	780140544	54	6429
2026-01-22 02:38:20.68	294.80	17.64	-40.8	-41.8	23.0	0.00e+00	92	41	0	787480576	54	6259
2026-01-22 02:38:24.72	295.70	17.51	-40.3	-41.2	23.6	0.00e+00	12	41	0	794820608	54	5892
2026-01-22 02:38:28.76	296.59	17.37	-39.7	-40.6	24.2	0.00e+00	90	41	0	803209216	52	6131
2026-01-22 02:38:32.80	297.47	17.23	-39.7	-40.6	24.1	0.00e+00	92	41	0	810549248	52	6119
2026-01-22 02:38:36.84	298.34	17.09	-40.2	-41.1	23.4	0.00e+00	2	41	0	817889280	52	6470
2026-01-22 02:38:40.87	299.20	16.94	-39.6	-40.5	24.0	0.00e+00	0	41	0	825229312	52	6060
2026-01-22 02:38:44.91	300.06	16.78	-39.4	-40.2	24.3	0.00e+00	92	41	0	832569344	52	5884
2026-01-22 02:38:48.95	300.90	16.62	-39.7	-40.6	24.1	0.00e+00	92	41	0	840957952	52	6106
2026-01-22 02:38:52.98	301.74	16.45	-40.4	-41.3	23.5	0.00e+00	27	41	0	848297984	52	6678
2026-01-22 02:38:57.02	302.57	16.28	-40.5	-41.5	23.4	0.00e+00	0	41	0	855638016	52	6785
2026-01-22 02:39:01.06	303.39	16.11	-40.5	-41.4	23.5	0.00e+00	92	41	0	862978048	54	5981
2026-01-22 02:39:05.10	304.20	15.93	-40.2	-41.1	23.8	0.00e+00	92	41	0	871366656	54	5815
2026-01-22 02:39:09.14	305.00	15.74	-41.2	-42.2	22.8	0.00e+00	0	41	0	878706688	54	6549
2026-01-22 02:39:13.18	305.79	15.56	-42.0	-43.1	22.2	0.00e+00	92	41	0	886046720	56	6470
2026-01-22 02:39:17.21	306.57	15.37	-41.8	-42.9	22.1	0.00e+00	91	41	0	893386752	56	6344
2026-01-22 02:39:21.25	307.34	15.17	-41.7	-42.7	22.4	0.00e+00	69	41	0	900726784	56	6222
2026-01-22 02:39:25.29	308.10	14.97	-41.7	-42.8	22.3	0.00e+00	0	41	0	909115392	56	6255
2026-01-22 02:39:29.33	308.85	14.77	-42.6	-43.8	21.5	0.00e+00	92	41	0	916455424	56	7017
2026-01-22 02:39:33.36	309.59	14.57	-42.3	-43.4	21.6	0.00e+00	92	41	0	923795456	56	6706
2026-01-22 02:39:37.40	310.32	14.37	-42.5	-43.7	21.5	0.00e+00	50	41	0	931135488	58	6193
2026-01-22 02:39:41.44	311.04	14.16	-42.1	-43.2	21.8	0.00e+00	48	41	0	939524096	58	5889
2026-01-22 02:39:45.48	311.76	13.95	-42.4	-43.6	21.5	0.00e+00	91	41	0	946864128	58	6132
2026-01-22 02:39:49.52	312.46	13.74	-42.0	-43.1	22.0	0.00e+00	92	41	0	954204160	58	5768
2026-01-22 02:39:53.55	313.15	13.52	-41.2	-42.2	22.7	0.00e+00	0	41	0	961544192	56	5843
2026-01-22 02:39:57.59	313.83	13.31	-41.5	-42.5	22.3	0.00e+00	62	41	0	968884224	56	6060
2026-01-22 02:40:01.63	314.50	13.09	-41.8	-42.9	22.0	0.00e+00	92	41	0	977272832	56	6348
2026-01-22 02:40:05.67	315.17	12.87	-42.4	-43.5	21.4	0.00e+00	92	41	0	984612864	56	6844
2026-01-22 02:40:09.71	315.82	12.65	-41.8	-42.9	22.1	0.00e+00	7	41	0	991952896	56	6343
2026-01-22 02:40:13.75	316.47	12.43	-40.9	-41.8	23.0	0.00e+00	0	41	0	999292928	56	5617
2026-01-22 02:40:17.79	317.10	12.20	-40.9	-41.8	22.9	0.00e+00	90	41	0	1007681536	54	6313
2026-01-22 02:40:21.83	317.73	11.98	-41.2	-42.2	22.7	0.00e+00	92	41	0	1015021568	54	6564
2026-01-22 02:40:25.87	318.34	11.75	-41.2	-42.2	22.7	0.00e+00	0	41	0	1022361600	54	6556
2026-01-22 02:40:29.91	318.95	11.53	-41.4	-42.4	22.4	0.00e+00	92	41	0	1029701632	54	6752
2026-01-22 02:40:33.95	319.55	11.30	-41.1	-42.1	22.6	0.00e+00	91	41	0	1037041664	54	6496
2026-01-22 02:40:37.99	320.14	11.07	-40.8	-41.8	22.9	0.00e+00	51	41	0	1045430272	54	6248
2026-01-22 02:40:42.03	320.72	10.85	-41.5	-42.5	22.3	0.00e+00	53	41	0	1052770304	54	6814
2026-01-22 02:40:46.07	321.29	10.62	-41.3	-42.3	22.4	0.00e+00	92	41	0	1060110336	54	6680
2026-01-22 02:40:50.11	321.86	10.39	-41.4	-42.4	22.6	0.00e+00	92	41	0	1067450368	56	5997
2026-01-22 02:40:54.15	322.41	10.16	-41.5	-42.6	22.3	0.00e+00	31	41	0	1075838976	56	6130
2026-01-22 02:40:58.19	322.96	9.93	-42.5	-43.7	21.2	0.00e+00	0	41	0	1083179008	56	6974
2026-01-22 02:41:02.22	323.50	9.71	-41.3	-42.3	22.6	0.00e+00	92	41	0	1090519040	56	5932
2026-01-22 02:41:06.26	324.03	9.48	-41.5	-42.5	22.5	0.00e+00	0	41	0	1097859072	56	6064
2026-01-22 02:41:10.30	324.55	9.25	-42.5	-43.6	21.2	0.00e+00	0	41	0	1105199104	56	6922
2026-01-22 02:41:14.33	325.06	9.02	-42.0	-43.2	21.7	0.00e+00	2	41	0	1113587712	58	5839
2026-01-22 02:41:18.37	325.57	8.79	-42.2	-43.3	21.6	0.00e+00	91	41	0	1120927744	58	5938
2026-01-22 02:41:22.40	326.07	8.56	-42.6	-43.8	21.0	0.00e+00	0	41	0	1128267776	58	6292
2026-01-22 02:41:26.44	326.56	8.34	-42.8	-44.0	20.8	0.00e+00	54	41	0	1135607808	58	6449
2026-01-22 02:41:30.48	327.05	8.11	-42.8	-44.0	20.9	0.00e+00	6	41	0	1142947840	58	6429
2026-01-22 02:41:34.52	327.52	7.88	-43.0	-44.3	20.5	0.00e+00	90	41	0	1151336448	58	6634
2026-01-22 02:41:38.56	327.99	7.65	-42.9	-44.2	20.7	0.00e+00	0	41	0	1158676480	58	6544
2026-01-22 02:41:42.60	328.46	7.43	-42.9	-44.1	20.5	0.00e+00	60	41	0	1166016512	58	6534
2026-01-22 02:41:46.64	328.91	7.20	-42.8	-44.0	20.7	0.00e+00	77	41	0	1173356544	58	6462
2026-01-22 02:41:50.68	329.36	6.98	-43.9	-45.3	19.6	0.00e+00	92	41	0	1181745152	60	6668
2026-01-22 02:41:54.71	329.81	6.75	-43.1	-44.3	20.5	0.00e+00	6	41	0	1189085184	60	5962
2026-01-22 02:41:58.75	330.24	6.53	-43.7	-45.2	19.6	0.00e+00	28	41	0	1196425216	60	6604
2026-01-22 02:42:02.79	330.67	6.30	-43.6	-45.1	19.8	0.00e+00	31	41	0	1203765248	60	6481
2026-01-22 02:42:06.83	331.10	6.08	-43.5	-44.9	20.1	0.00e+00	92	41	0	1211105280	60	6387
2026-01-22 02:42:10.86	331.52	5.86	-44.3	-45.9	19.0	0.00e+00	0	41	0	1219493888	60	7140
2026-01-22 02:42:14.91	331.93	5.64	-43.9	-45.5	19.2	0.00e+00	0	41	0	1226833920	60	6786
2026-01-22 02:42:18.94	332.34	5.42	-43.7	-45.3	18.8	0.00e+00	92	41	0	1234173952	60	6674
2026-01-22 02:42:22.98	332.74	5.20	-44.8	-47.0	16.4	0.00e+00	33	41	0	1241513984	60	8134
2026-01-22 02:42:27.02	333.13	4.98	-45.9	-50.1	11.8	5.86e-04	3	41	0	1249902592	60	11573
2026-01-22 02:42:31.05	333.52	4.76	-46.5	-54.0	6.1	1.96e-01	2	42	0	1257242624	60	18019
2026-01-22 02:42:35.09	333.90	4.54	-46.4	-58.5	3.6	1.47e+00	0	41	104	1261436928	60	30583
2026-01-22 02:42:39.13	334.28	4.32	-46.2	-60.7	3.6	1.51e+00	0	41	104	1261436928	60	39122
2026-01-22 02:42:43.17	334.65	4.11	-46.2	-61.4	3.6	1.51e+00	0	42	104	1261436928	60	42434
2026-01-22 02:42:47.21	335.02	3.89	-46.3	-61.5	3.6	1.51e+00	0	41	104	1261436928	60	42722
2026-01-22 02:42:51.25	335.39	3.68	-46.4	-61.5	3.6	1.51e+00	0	42	104	1261436928	60	42949
2026-01-22 02:42:55.29	335.74	3.46	-46.6	-61.8	3.6	1.51e+00	0	42	104	1261436928	60	44224
2026-01-22 02:42:59.33	336.10	3.25	-46.3	-61.4	3.6	1.51e+00	0	42	104	1261436928	60	42573
2026-01-22 02:43:03.37	336.45	3.04	-46.4	-61.6	3.6	1.51e+00	0	41	104	1261436928	60	43541
2026-01-22 02:43:07.41	336.79	2.82	-50.7	-65.9	3.6	1.51e+00	0	42	104	1261436928	60	71608
2026-01-22 02:43:11.45	337.13	2.61	-51.3	-66.5	3.6	1.51e+00	0	42	104	1261436928	60	76113
2026-01-22 02:43:15.49	337.46	2.40	-51.4	-66.6	3.6	1.51e+00	0	42	104	1261436928	60	77034
2026-01-22 02:43:19.53	337.79	2.19	-51.1	-66.5	3.6	1.51e+00	0	42	104	1261436928	60	76545
2026-01-22 02:43:23.57	338.12	1.99	-51.4	-66.6	3.6	1.51e+00	0	42	104	1261436928	60	77097
2026-01-22 02:43:27.61	338.44	1.78	-51.7	-66.9	3.6	1.51e+00	0	42	104	1261436928	60	79753
2026-01-22 02:43:31.65	338.76	1.57	-51.7	-67.0	3.6	1.51e+00	0	42	104	1261436928	60	80496
2026-01-22 02:43:35.69	339.07	1.37	-51.9	-67.2	3.6	1.51e+00	0	42	104	1261436928	60	82615
2026-01-22 02:43:39.73	339.38	1.16	-51.8	-67.0	3.6	1.51e+00	0	42	104	1261436928	60	81161
2026-01-22 02:43:43.77	339.69	0.96	-51.7	-67.0	3.6	1.51e+00	0	42	104	1261436928	60	80612
2026-01-22 02:43:47.81	339.99	0.75	-51.6	-66.8	3.6	1.51e+00	0	42	104	1261436928	60	78627
2026-01-22 02:43:51.84	340.28	0.55	-51.5	-66.8	3.6	1.51e+00	0	42	104	1261436928	60	78959
2026-01-22 02:43:55.88	340.58	0.35	-51.9	-67.1	3.6	1.51e+00	0	42	104	1261436928	60	82266
2026-01-22 02:43:59.92	340.87	0.15	-51.8	-67.0	3.6	1.51e+00	0	41	104	1261436928	60	81341
2026-01-22 02:44:03.96	341.16	-0.05	-51.9	-67.1	3.6	1.51e+00	0	42	104	1261436928	60	82133

#Closed at: 2026-01-22 02:44:04
#Recorded file [1261 MB]: D:/lorett/data/35029_260122_143024.dat