passes_logs/2026/01/22/R4.6S_Anadyr/R4.6S_Anadyr__20260122_233901_NOAA_21_JPSS-2_rec.log

#Pass ID: 20260122_233901_NOAA 21 (JPSS-2)
#Satellite: NOAA 21 (JPSS-2)
#Configuration: NOAA-21
#almurnet v.1.7.20251203
#Start time: 2026-01-22 23:39:02

#Version: 2.2.20231116
#Station: R4.6S_Anadyr
#Location: 177.4865 lon 64.73178 lat
#TLE: 1 54234U 22150A   26022.41365820  .00000211  00000+0  12084-3 0  9990
#TLE: 2 54234  98.7507 323.2240 0000658 234.5287 125.5828 14.19537645165864

#Time	Az	El	Level	Level2	SNR	BER	BlckErr	Temp	State	Recorded	gain1	gain2
2026-01-22 23:39:02.79	142.25	0.08	-51.6	-69.3	3.5	7.71e-01	0	39	0	0	60	112323
2026-01-22 23:39:06.82	142.20	0.32	-51.2	-64.1	3.5	1.51e+00	0	40	104	0	60	56196
2026-01-22 23:39:10.86	142.15	0.57	-51.2	-64.1	3.5	1.52e+00	0	40	104	0	60	56355
2026-01-22 23:39:14.90	142.10	0.82	-51.2	-64.1	3.5	1.52e+00	0	41	104	0	60	56037
2026-01-22 23:39:18.94	142.04	1.06	-50.9	-63.8	3.5	1.52e+00	0	41	104	0	60	54132
2026-01-22 23:39:22.98	141.99	1.32	-50.2	-63.0	3.5	1.52e+00	0	41	104	0	60	49747
2026-01-22 23:39:27.02	141.93	1.57	-47.3	-60.8	3.5	1.52e+00	0	41	104	0	60	38434
2026-01-22 23:39:31.06	141.88	1.82	-47.9	-60.8	3.5	1.52e+00	0	41	104	0	60	38454
2026-01-22 23:39:35.10	141.82	2.08	-47.8	-60.7	3.5	1.52e+00	0	41	104	0	60	38217
2026-01-22 23:39:39.14	141.76	2.34	-47.8	-60.7	3.5	1.52e+00	0	41	104	0	60	38207
2026-01-22 23:39:43.18	141.70	2.60	-47.8	-60.7	3.5	1.52e+00	0	41	104	0	60	38136
2026-01-22 23:39:47.23	141.64	2.87	-47.8	-60.7	3.5	1.52e+00	0	41	104	0	60	38124
2026-01-22 23:39:51.27	141.57	3.14	-47.8	-60.1	3.5	1.52e+00	0	41	104	0	60	35607
2026-01-22 23:39:55.31	141.51	3.41	-47.7	-59.8	3.5	1.51e+00	0	41	104	0	60	34437
2026-01-22 23:39:59.35	141.44	3.68	-47.9	-60.0	3.5	1.51e+00	0	41	104	0	60	35006
2026-01-22 23:40:03.38	141.37	3.95	-47.8	-59.9	3.5	1.52e+00	0	41	104	0	60	34723
2026-01-22 23:40:07.42	141.30	4.23	-47.4	-56.3	4.6	9.29e-01	0	41	104	0	60	23026
2026-01-22 23:40:11.46	141.23	4.51	-47.2	-54.7	4.0	1.14e+00	0	41	104	1048576	60	18959
2026-01-22 23:40:15.50	141.16	4.80	-46.7	-52.2	7.1	1.22e-01	0	41	0	10485760	60	14265
2026-01-22 23:40:19.54	141.09	5.08	-46.9	-52.0	7.5	1.16e-01	0	41	0	23068672	60	13972
2026-01-22 23:40:23.58	141.01	5.37	-46.7	-51.3	8.6	4.04e-02	0	41	0	35651584	60	12832
2026-01-22 23:40:27.62	140.93	5.67	-46.6	-50.9	9.2	2.01e-02	0	41	0	48234496	60	12265
2026-01-22 23:40:31.66	140.85	5.96	-46.1	-49.8	10.5	4.57e-03	0	41	0	60817408	60	10893
2026-01-22 23:40:35.70	140.77	6.26	-45.8	-49.1	11.6	1.23e-03	0	41	0	73400320	60	10056
2026-01-22 23:40:39.74	140.69	6.56	-45.0	-47.7	13.3	2.44e-05	0	41	0	85983232	60	8497
2026-01-22 23:40:43.79	140.60	6.87	-44.5	-46.9	14.3	2.20e-06	0	41	0	98566144	60	7787
2026-01-22 23:40:47.83	140.51	7.18	-43.9	-45.9	15.4	0.00e+00	0	41	0	111149056	60	6928
2026-01-22 23:40:51.87	140.43	7.50	-43.0	-44.8	16.7	0.00e+00	0	41	0	123731968	60	6072
2026-01-22 23:40:55.91	140.33	7.81	-42.0	-43.5	18.1	0.00e+00	0	41	0	137363456	58	5901
2026-01-22 23:40:59.95	140.24	8.13	-41.4	-42.8	18.9	0.00e+00	0	41	0	149946368	56	6112
2026-01-22 23:41:03.99	140.14	8.46	-40.8	-42.1	19.8	0.00e+00	0	41	0	162529280	56	5595
2026-01-22 23:41:08.03	140.04	8.79	-40.2	-41.3	20.5	0.00e+00	0	41	0	175112192	54	5769
2026-01-22 23:41:12.07	139.94	9.12	-39.8	-40.9	20.9	0.00e+00	0	41	0	187695104	54	5519
2026-01-22 23:41:16.10	139.84	9.46	-39.6	-40.7	21.2	0.00e+00	0	41	0	200278016	52	6001
2026-01-22 23:41:20.14	139.73	9.81	-39.4	-40.5	21.4	0.00e+00	0	41	0	212860928	52	5907
2026-01-22 23:41:24.18	139.62	10.15	-39.2	-40.3	21.7	0.00e+00	0	41	0	225443840	52	5746
2026-01-22 23:41:28.22	139.51	10.51	-38.9	-39.9	22.0	0.00e+00	0	41	0	238026752	52	5523
2026-01-22 23:41:32.26	139.39	10.86	-38.6	-39.7	22.3	0.00e+00	0	41	0	250609664	50	6006
2026-01-22 23:41:36.30	139.27	11.23	-38.5	-39.5	22.5	0.00e+00	0	41	0	263192576	50	5882
2026-01-22 23:41:40.34	139.15	11.59	-38.3	-39.2	22.7	0.00e+00	0	41	0	275775488	50	5720
2026-01-22 23:41:44.38	139.03	11.97	-38.0	-39.0	23.0	0.00e+00	0	41	0	288358400	50	5537
2026-01-22 23:41:48.42	138.90	12.35	-37.8	-38.8	23.2	0.00e+00	0	41	0	300941312	50	5437
2026-01-22 23:41:52.46	138.76	12.73	-37.5	-38.5	23.5	0.00e+00	0	41	0	313524224	48	5885
2026-01-22 23:41:56.50	138.63	13.12	-37.4	-38.3	23.6	0.00e+00	0	41	0	326107136	48	5777
2026-01-22 23:42:00.54	138.49	13.52	-37.4	-38.3	23.6	0.00e+00	0	41	0	338690048	48	5785
2026-01-22 23:42:04.58	138.34	13.92	-37.2	-38.1	23.8	0.00e+00	0	41	0	351272960	48	5647
2026-01-22 23:42:08.62	138.19	14.33	-37.1	-38.0	23.9	0.00e+00	0	41	0	363855872	48	5586
2026-01-22 23:42:12.67	138.04	14.75	-37.0	-38.0	23.9	0.00e+00	0	41	0	376438784	48	5531
2026-01-22 23:42:16.71	137.88	15.18	-37.1	-38.0	23.9	0.00e+00	0	41	0	389021696	48	5576
2026-01-22 23:42:20.75	137.71	15.61	-37.0	-37.9	23.9	0.00e+00	0	41	0	401604608	48	5517
2026-01-22 23:42:24.79	137.54	16.05	-37.0	-37.9	24.0	0.00e+00	0	41	0	414187520	48	5488
2026-01-22 23:42:28.84	137.37	16.50	-37.1	-38.0	24.0	0.00e+00	0	41	0	426770432	48	5542
2026-01-22 23:42:32.88	137.19	16.95	-37.2	-38.1	23.9	0.00e+00	0	41	0	439353344	48	5646
2026-01-22 23:42:36.91	137.00	17.41	-37.2	-38.1	23.8	0.00e+00	0	41	0	452984832	48	5630
2026-01-22 23:42:40.95	136.81	17.88	-37.3	-38.2	23.6	0.00e+00	0	41	0	465567744	48	5707
2026-01-22 23:42:44.99	136.61	18.36	-37.4	-38.4	23.6	0.00e+00	0	41	0	478150656	48	5803
2026-01-22 23:42:49.03	136.41	18.85	-37.4	-38.3	23.6	0.00e+00	0	41	0	490733568	48	5760
2026-01-22 23:42:53.07	136.19	19.35	-37.4	-38.3	23.7	0.00e+00	0	41	0	503316480	48	5752
2026-01-22 23:42:57.11	135.97	19.86	-37.3	-38.2	23.7	0.00e+00	0	41	0	515899392	48	5716
2026-01-22 23:43:01.15	135.75	20.38	-37.1	-38.0	24.0	0.00e+00	0	41	0	528482304	48	5568
2026-01-22 23:43:05.19	135.51	20.91	-36.7	-37.6	24.3	0.00e+00	0	41	0	541065216	46	5994
2026-01-22 23:43:09.23	135.26	21.45	-36.7	-37.6	24.2	0.00e+00	0	41	0	553648128	46	5943
2026-01-22 23:43:13.26	135.01	22.00	-36.0	-36.9	24.7	0.00e+00	0	41	0	566231040	46	5482
2026-01-22 23:43:17.30	134.75	22.56	-35.7	-36.6	24.9	0.00e+00	0	41	0	578813952	44	5934
2026-01-22 23:43:21.34	134.47	23.13	-35.7	-36.6	24.8	0.00e+00	0	41	0	591396864	44	5950
2026-01-22 23:43:25.38	134.19	23.72	-35.7	-36.6	25.0	0.00e+00	0	41	0	603979776	44	5962
2026-01-22 23:43:29.42	133.89	24.32	-35.8	-36.7	24.9	0.00e+00	0	41	0	616562688	44	6023
2026-01-22 23:43:33.46	133.58	24.93	-36.1	-37.0	24.7	0.00e+00	0	41	0	629145600	44	6210
2026-01-22 23:43:37.50	133.26	25.56	-36.5	-37.4	24.3	0.00e+00	0	41	0	641728512	44	6507
2026-01-22 23:43:41.53	132.92	26.20	-36.9	-37.8	24.1	0.00e+00	0	41	0	654311424	46	6079
2026-01-22 23:43:45.57	132.57	26.85	-37.3	-38.2	23.6	0.00e+00	0	41	0	666894336	46	6386
2026-01-22 23:43:49.61	132.21	27.52	-37.7	-38.6	23.6	0.00e+00	0	41	0	679477248	46	6709
2026-01-22 23:43:53.65	131.83	28.20	-37.6	-38.6	23.6	0.00e+00	0	41	0	692060160	46	6658
2026-01-22 23:43:57.69	131.43	28.90	-37.7	-38.6	23.6	0.00e+00	0	41	0	704643072	48	5980
2026-01-22 23:44:01.73	131.01	29.62	-37.2	-38.2	23.9	0.00e+00	0	41	0	717225984	48	5667
2026-01-22 23:44:05.77	130.57	30.35	-36.8	-37.7	24.3	0.00e+00	0	41	0	729808896	48	5385
2026-01-22 23:44:09.81	130.12	31.10	-36.7	-37.6	24.5	0.00e+00	0	41	0	742391808	46	5944
2026-01-22 23:44:13.85	129.64	31.87	-36.9	-37.8	24.4	0.00e+00	0	41	0	754974720	46	6071
2026-01-22 23:44:17.89	129.13	32.65	-36.9	-37.8	24.4	0.00e+00	0	41	0	767557632	46	6084
2026-01-22 23:44:21.92	128.60	33.45	-37.3	-38.2	24.0	0.00e+00	0	41	0	780140544	46	6384
2026-01-22 23:44:25.96	128.04	34.28	-37.8	-38.7	23.7	0.00e+00	0	41	0	793772032	48	6030
2026-01-22 23:44:30.00	127.46	35.12	-38.4	-39.3	23.2	0.00e+00	0	41	0	806354944	48	6484
2026-01-22 23:44:34.05	126.84	35.98	-39.2	-40.2	22.6	0.00e+00	0	41	0	818937856	50	6378
2026-01-22 23:44:38.09	126.18	36.86	-39.6	-40.6	22.3	0.00e+00	0	41	0	831520768	50	6697
2026-01-22 23:44:42.12	125.49	37.75	-39.9	-41.0	21.9	0.00e+00	0	41	0	844103680	52	6219
2026-01-22 23:44:46.16	124.76	38.67	-39.5	-40.5	22.3	0.00e+00	0	41	0	856686592	52	5907
2026-01-22 23:44:50.21	123.98	39.61	-39.9	-40.9	21.9	0.00e+00	0	41	0	869269504	52	6201
2026-01-22 23:44:54.24	123.16	40.56	-39.4	-40.4	22.4	0.00e+00	0	41	0	881852416	52	5817
2026-01-22 23:44:58.28	122.29	41.54	-38.6	-39.5	23.1	0.00e+00	0	41	0	894435328	50	5921
2026-01-22 23:45:02.31	121.36	42.53	-39.5	-40.5	22.3	0.00e+00	0	41	0	907018240	50	6621
2026-01-22 23:45:06.36	120.37	43.54	-40.4	-41.5	21.5	0.00e+00	0	41	0	919601152	52	6601
2026-01-22 23:45:10.39	119.32	44.57	-40.6	-41.8	21.1	0.00e+00	0	41	0	932184064	54	6066
2026-01-22 23:45:14.43	118.19	45.61	-39.6	-40.6	22.2	0.00e+00	0	41	0	944766976	52	5971
2026-01-22 23:45:18.47	116.98	46.67	-39.9	-40.9	22.1	0.00e+00	0	41	0	957349888	52	6197
2026-01-22 23:45:22.50	115.70	47.74	-38.9	-39.8	22.8	0.00e+00	0	41	0	969932800	50	6133
2026-01-22 23:45:26.55	114.31	48.82	-39.5	-40.6	22.2	0.00e+00	0	41	0	982515712	52	5937
2026-01-22 23:45:30.58	112.83	49.90	-39.3	-40.3	22.7	0.00e+00	0	41	0	995098624	52	5740
2026-01-22 23:45:34.62	111.23	50.99	-39.5	-40.6	21.8	0.00e+00	0	41	0	1007681536	52	5961
2026-01-22 23:45:38.66	109.52	52.08	-38.5	-39.5	23.1	0.00e+00	0	41	0	1020264448	50	5873
2026-01-22 23:45:42.70	107.67	53.17	-38.0	-38.9	23.6	0.00e+00	0	41	0	1032847360	50	5527
2026-01-22 23:45:46.75	105.67	54.24	-37.7	-38.6	23.5	0.00e+00	0	41	0	1045430272	48	5958
2026-01-22 23:45:50.78	103.53	55.30	-37.2	-38.1	24.2	0.00e+00	0	41	0	1058013184	48	5646
2026-01-22 23:45:54.82	101.22	56.34	-37.4	-38.4	24.1	0.00e+00	0	41	0	1070596096	48	5796
2026-01-22 23:45:58.85	98.74	57.34	-36.6	-37.5	24.4	0.00e+00	0	41	0	1083179008	46	5902
2026-01-22 23:46:02.89	96.06	58.31	-37.0	-37.9	24.3	0.00e+00	0	41	0	1095761920	46	6148
2026-01-22 23:46:06.93	93.19	59.23	-37.0	-37.9	24.4	0.00e+00	0	41	0	1108344832	46	6151
2026-01-22 23:46:10.97	90.11	60.09	-36.4	-37.3	24.8	0.00e+00	0	41	0	1120927744	46	5740
2026-01-22 23:46:15.01	86.83	60.88	-35.8	-36.6	25.3	0.00e+00	0	41	0	1134559232	44	5968
2026-01-22 23:46:19.04	83.36	61.59	-36.1	-37.0	24.9	0.00e+00	0	41	0	1146093568	44	6222
2026-01-22 23:46:23.09	79.67	62.22	-36.5	-37.4	24.6	0.00e+00	0	41	0	1159725056	44	6528
2026-01-22 23:46:27.12	75.82	62.74	-36.4	-37.3	24.6	0.00e+00	0	41	0	1172307968	44	6482
2026-01-22 23:46:31.16	71.82	63.15	-35.8	-36.7	25.1	0.00e+00	0	41	0	1184890880	44	6010
2026-01-22 23:46:35.20	67.69	63.44	-36.0	-36.9	24.7	0.00e+00	0	41	0	1197473792	44	6142
2026-01-22 23:46:39.23	63.49	63.61	-36.6	-37.6	24.3	0.00e+00	0	41	0	1210056704	44	6659
2026-01-22 23:46:43.27	59.24	63.65	-36.3	-37.2	25.0	0.00e+00	0	41	0	1222639616	44	6391
2026-01-22 23:46:47.31	55.01	63.56	-36.1	-37.0	25.1	0.00e+00	0	41	0	1235222528	44	6212
2026-01-22 23:46:51.34	50.84	63.34	-36.0	-36.8	25.1	0.00e+00	0	41	0	1247805440	44	6100
2026-01-22 23:46:55.39	46.74	63.00	-36.6	-37.5	24.8	0.00e+00	0	41	0	1260388352	44	6574
2026-01-22 23:46:59.43	42.80	62.55	-36.8	-37.7	24.5	0.00e+00	0	41	0	1272971264	46	6057
2026-01-22 23:47:03.46	39.02	61.99	-36.3	-37.2	24.7	0.00e+00	0	41	0	1285554176	46	5711
2026-01-22 23:47:07.50	35.42	61.33	-37.1	-38.0	24.4	0.00e+00	0	41	0	1298137088	46	6244
2026-01-22 23:47:11.54	32.02	60.59	-36.1	-36.9	25.2	0.00e+00	0	41	0	1310720000	46	5520
2026-01-22 23:47:15.58	28.82	59.77	-36.6	-37.6	24.2	0.00e+00	0	41	0	1323302912	46	5929
2026-01-22 23:47:19.62	25.83	58.88	-36.7	-37.5	24.8	0.00e+00	0	41	0	1335885824	46	5914
2026-01-22 23:47:23.66	23.03	57.94	-36.6	-37.5	24.4	0.00e+00	0	41	0	1348468736	46	5894
2026-01-22 23:47:27.70	20.44	56.96	-38.0	-39.0	23.7	0.00e+00	0	41	0	1361051648	48	6218
2026-01-22 23:47:31.74	18.02	55.95	-37.0	-37.9	24.4	0.00e+00	0	42	0	1373634560	48	5494
2026-01-22 23:47:35.78	15.78	54.90	-38.8	-39.9	22.8	0.00e+00	0	41	0	1386217472	50	6143
2026-01-22 23:47:39.82	13.70	53.84	-37.1	-38.0	24.3	0.00e+00	0	41	0	1398800384	48	5558
2026-01-22 23:47:43.86	11.77	52.76	-40.3	-41.6	20.2	0.00e+00	0	41	0	1411383296	52	6689
2026-01-22 23:47:47.90	9.98	51.68	-38.5	-39.5	23.1	0.00e+00	0	41	0	1423966208	50	5901
2026-01-22 23:47:51.94	8.31	50.59	-40.0	-41.1	21.9	0.00e+00	0	41	0	1436549120	52	6294
2026-01-22 23:47:55.98	6.76	49.51	-38.8	-39.7	22.8	0.00e+00	0	41	0	1449132032	50	6049
2026-01-22 23:48:00.02	5.32	48.43	-40.0	-41.1	21.9	0.00e+00	0	41	0	1461714944	52	6279
2026-01-22 23:48:04.06	3.98	47.35	-41.1	-42.3	20.8	0.00e+00	0	41	0	1475346432	54	6464
2026-01-22 23:48:08.10	2.73	46.29	-39.2	-40.2	22.6	0.00e+00	0	41	0	1487929344	52	5672
2026-01-22 23:48:12.15	1.55	45.24	-39.9	-40.9	21.9	0.00e+00	0	41	0	1500512256	52	6180
2026-01-22 23:48:16.18	0.46	44.21	-39.4	-40.4	22.4	0.00e+00	0	41	0	1513095168	52	5821
2026-01-22 23:48:20.22	359.43	43.19	-38.9	-39.9	22.6	0.00e+00	0	41	0	1525678080	52	5516
2026-01-22 23:48:24.26	358.47	42.19	-40.5	-41.7	21.4	0.00e+00	0	41	0	1538260992	52	6756
2026-01-22 23:48:28.30	357.56	41.21	-39.9	-41.0	21.7	0.00e+00	0	42	0	1550843904	54	5534
2026-01-22 23:48:32.34	356.71	40.24	-39.4	-40.4	22.4	0.00e+00	0	41	0	1563426816	52	5852
2026-01-22 23:48:36.38	355.91	39.30	-38.6	-39.6	23.0	0.00e+00	0	41	0	1576009728	50	5956
2026-01-22 23:48:40.42	355.16	38.37	-39.3	-40.3	22.5	0.00e+00	0	42	0	1588592640	50	6482
2026-01-22 23:48:44.46	354.44	37.46	-39.1	-40.1	22.5	0.00e+00	0	41	0	1601175552	50	6305
2026-01-22 23:48:48.50	353.77	36.58	-38.4	-39.3	23.2	0.00e+00	0	41	0	1613758464	50	5787
2026-01-22 23:48:52.54	353.13	35.71	-39.4	-40.5	22.1	0.00e+00	0	42	0	1626341376	50	6585
2026-01-22 23:48:56.58	352.52	34.86	-38.5	-39.5	23.0	0.00e+00	0	41	0	1638924288	50	5878
2026-01-22 23:49:00.62	351.95	34.03	-37.9	-38.8	23.5	0.00e+00	0	41	0	1651507200	50	5436
2026-01-22 23:49:04.66	351.40	33.22	-38.4	-39.4	23.2	0.00e+00	0	41	0	1664090112	50	5834
2026-01-22 23:49:08.70	350.89	32.42	-38.2	-39.1	23.4	0.00e+00	0	41	0	1676673024	50	5655
2026-01-22 23:49:12.74	350.39	31.65	-38.1	-39.1	23.5	0.00e+00	0	41	0	1689255936	50	5598
2026-01-22 23:49:16.79	349.92	30.89	-37.8	-38.7	23.5	0.00e+00	0	41	0	1701838848	48	6041
2026-01-22 23:49:20.82	349.48	30.15	-36.8	-37.7	24.3	0.00e+00	0	41	0	1714421760	46	6014
2026-01-22 23:49:24.87	349.05	29.42	-36.5	-37.4	24.6	0.00e+00	0	41	0	1727004672	46	5840
2026-01-22 23:49:28.90	348.64	28.72	-36.7	-37.6	24.4	0.00e+00	0	41	0	1739587584	46	5935
2026-01-22 23:49:32.94	348.25	28.03	-37.5	-38.4	23.9	0.00e+00	0	42	0	1752170496	46	6540
2026-01-22 23:49:36.98	347.88	27.35	-37.6	-38.6	23.5	0.00e+00	0	42	0	1764753408	48	5973
2026-01-22 23:49:41.02	347.52	26.69	-37.4	-38.3	23.9	0.00e+00	0	42	0	1777336320	48	5763
2026-01-22 23:49:45.06	347.18	26.04	-36.6	-37.5	24.4	0.00e+00	0	42	0	1790967808	46	5891
2026-01-22 23:49:49.10	346.85	25.41	-36.2	-37.1	24.8	0.00e+00	0	42	0	1802502144	46	5624
2026-01-22 23:49:53.13	346.54	24.79	-36.2	-37.0	24.8	0.00e+00	0	42	0	1816133632	46	5556
2026-01-22 23:49:57.17	346.24	24.19	-36.5	-37.4	24.6	0.00e+00	0	42	0	1828716544	46	5806
2026-01-22 23:50:01.22	345.94	23.59	-36.7	-37.6	24.4	0.00e+00	0	42	0	1841299456	46	5993
2026-01-22 23:50:05.25	345.67	23.01	-36.8	-37.7	24.4	0.00e+00	0	42	0	1853882368	46	6059
2026-01-22 23:50:09.30	345.40	22.45	-36.9	-37.8	24.3	0.00e+00	0	42	0	1866465280	46	6099
2026-01-22 23:50:13.34	345.14	21.89	-36.9	-37.8	24.3	0.00e+00	0	42	0	1879048192	46	6108
2026-01-22 23:50:17.37	344.89	21.35	-36.9	-37.8	24.2	0.00e+00	0	42	0	1891631104	46	6134
2026-01-22 23:50:21.41	344.65	20.81	-37.1	-38.0	24.1	0.00e+00	0	42	0	1904214016	46	6249
2026-01-22 23:50:25.45	344.42	20.29	-37.2	-38.1	24.2	0.00e+00	0	42	0	1916796928	46	6305
2026-01-22 23:50:29.49	344.20	19.77	-37.2	-38.1	24.0	0.00e+00	0	42	0	1929379840	46	6324
2026-01-22 23:50:33.53	343.98	19.27	-37.2	-38.1	24.0	0.00e+00	0	42	0	1941962752	46	6305
2026-01-22 23:50:37.57	343.77	18.78	-37.5	-38.4	23.7	0.00e+00	0	42	0	1954545664	46	6551
2026-01-22 23:50:41.61	343.57	18.29	-37.3	-38.2	23.8	0.00e+00	0	42	0	1967128576	46	6387
2026-01-22 23:50:45.65	343.38	17.82	-37.3	-38.3	23.8	0.00e+00	0	42	0	1979711488	46	6437
2026-01-22 23:50:49.69	343.19	17.35	-37.3	-38.2	23.7	0.00e+00	0	42	0	1992294400	46	6392
2026-01-22 23:50:53.73	343.01	16.89	-37.6	-38.5	23.5	0.00e+00	0	42	0	2004877312	46	6616
2026-01-22 23:50:57.77	342.84	16.44	-37.7	-38.6	23.4	0.00e+00	0	42	0	2017460224	48	5980
2026-01-22 23:51:01.81	342.67	16.00	-37.6	-38.5	23.5	0.00e+00	0	42	0	2030043136	48	5926
2026-01-22 23:51:05.85	342.50	15.56	-37.7	-38.6	23.3	0.00e+00	0	42	0	2042626048	48	5981
2026-01-22 23:51:09.89	342.34	15.14	-37.8	-38.7	23.4	0.00e+00	0	42	0	2055208960	48	6031
2026-01-22 23:51:13.93	342.19	14.72	-37.6	-38.5	23.5	0.00e+00	0	42	0	2067791872	48	5925
2026-01-22 23:51:17.97	342.04	14.30	-37.8	-38.7	23.4	0.00e+00	0	42	0	2080374784	48	6052
2026-01-22 23:51:22.01	341.89	13.90	-38.1	-39.0	23.1	0.00e+00	0	42	0	2092957696	48	6276
2026-01-22 23:51:26.05	341.75	13.50	-37.8	-38.8	23.2	0.00e+00	0	42	0	2106589184	48	6094
2026-01-22 23:51:30.09	341.61	13.10	-38.0	-39.0	23.0	0.00e+00	0	42	0	2118123520	48	6268
2026-01-22 23:51:34.13	341.48	12.71	-38.5	-39.5	22.8	0.00e+00	0	42	0	2131755008	48	6587
2026-01-22 23:51:38.18	341.35	12.33	-38.2	-39.2	22.9	0.00e+00	0	42	0	2144337920	48	6372
2026-01-22 23:51:42.22	341.23	11.95	-38.4	-39.4	22.6	0.00e+00	0	42	0	2156920832	48	6528
2026-01-22 23:51:46.26	341.11	11.58	-38.5	-39.5	22.5	0.00e+00	0	42	0	2169503744	48	6616
2026-01-22 23:51:50.30	340.99	11.22	-38.4	-39.4	22.6	0.00e+00	0	42	0	2182086656	48	6556
2026-01-22 23:51:54.34	340.87	10.86	-38.6	-39.6	22.4	0.00e+00	0	42	0	2194669568	48	6702
2026-01-22 23:51:58.38	340.76	10.50	-38.6	-39.6	22.3	0.00e+00	0	42	0	2207252480	48	6679
2026-01-22 23:52:02.41	340.65	10.15	-38.7	-39.8	22.2	0.00e+00	0	42	0	2219835392	50	6086
2026-01-22 23:52:06.45	340.55	9.81	-38.6	-39.6	22.3	0.00e+00	0	42	0	2232418304	50	5994
2026-01-22 23:52:10.49	340.44	9.47	-38.7	-39.8	22.2	0.00e+00	0	42	0	2245001216	50	6081
2026-01-22 23:52:14.54	340.34	9.13	-38.6	-39.7	22.3	0.00e+00	0	42	0	2257584128	50	6019
2026-01-22 23:52:18.58	340.24	8.80	-39.2	-40.3	21.8	0.00e+00	0	42	0	2270167040	50	6464
2026-01-22 23:52:22.62	340.15	8.47	-39.1	-40.1	21.9	0.00e+00	0	42	0	2282749952	50	6329
2026-01-22 23:52:26.66	340.06	8.15	-39.1	-40.2	21.8	0.00e+00	0	42	0	2295332864	50	6382
2026-01-22 23:52:30.70	339.97	7.83	-39.0	-40.1	21.9	0.00e+00	0	42	0	2307915776	50	6289
2026-01-22 23:52:34.74	339.88	7.51	-39.2	-40.3	21.8	0.00e+00	0	42	0	2320498688	50	6434
2026-01-22 23:52:38.78	339.79	7.20	-39.4	-40.5	21.6	0.00e+00	0	42	0	2333081600	50	6599
2026-01-22 23:52:42.81	339.71	6.89	-39.7	-40.8	21.1	0.00e+00	0	42	0	2345664512	50	6823
2026-01-22 23:52:46.85	339.63	6.59	-39.7	-40.8	21.2	0.00e+00	0	42	0	2358247424	52	6130
2026-01-22 23:52:50.89	339.55	6.29	-39.4	-40.5	21.3	0.00e+00	0	42	0	2370830336	52	5879
2026-01-22 23:52:54.93	339.47	5.99	-39.9	-41.0	20.9	0.00e+00	0	42	0	2383413248	52	6247
2026-01-22 23:52:58.97	339.40	5.70	-40.0	-41.2	20.4	0.00e+00	0	42	0	2395996160	52	6367
2026-01-22 23:53:03.01	339.32	5.41	-41.1	-42.5	18.8	0.00e+00	0	42	0	2408579072	54	6623
2026-01-22 23:53:07.05	339.25	5.12	-42.2	-44.0	16.8	0.00e+00	0	42	0	2422210560	56	6973
2026-01-22 23:53:11.09	339.18	4.83	-43.7	-46.3	13.7	7.60e-06	0	42	0	2433744896	58	8096
2026-01-22 23:53:15.13	339.11	4.55	-45.3	-49.8	9.0	2.04e-02	0	42	0	2447376384	60	10808
2026-01-22 23:53:19.17	339.05	4.27	-45.9	-53.4	3.9	4.64e-01	0	42	104	2458910720	60	16508
2026-01-22 23:53:23.21	338.98	3.99	-46.2	-56.8	3.9	1.49e+00	0	42	104	2458910720	60	24400
2026-01-22 23:53:27.25	338.92	3.72	-46.3	-59.0	3.5	1.52e+00	0	42	104	2458910720	60	31400
2026-01-22 23:53:31.28	338.86	3.45	-46.5	-58.6	3.5	1.51e+00	0	42	104	2458910720	60	30042
2026-01-22 23:53:35.32	338.79	3.18	-46.5	-59.4	3.5	1.52e+00	0	42	104	2458910720	60	32796
2026-01-22 23:53:39.36	338.74	2.92	-46.5	-59.4	3.5	1.52e+00	0	42	104	2458910720	60	32653
2026-01-22 23:53:43.40	338.68	2.65	-51.0	-63.9	3.5	1.51e+00	0	42	104	2458910720	60	55046
2026-01-22 23:53:47.44	338.62	2.39	-51.3	-64.2	3.5	1.51e+00	0	42	104	2458910720	60	56620
2026-01-22 23:53:51.48	338.57	2.13	-51.4	-64.2	3.5	1.52e+00	0	42	104	2458910720	60	57194
2026-01-22 23:53:55.52	338.51	1.88	-51.2	-64.1	3.5	1.51e+00	0	42	104	2458910720	60	56539
2026-01-22 23:53:59.56	338.46	1.62	-51.2	-64.1	3.5	1.52e+00	0	42	104	2458910720	60	56466
2026-01-22 23:54:03.60	338.41	1.37	-51.3	-64.2	3.5	1.52e+00	0	42	104	2458910720	60	56692
2026-01-22 23:54:07.64	338.36	1.12	-51.3	-64.2	3.5	1.52e+00	0	42	104	2458910720	60	56817
2026-01-22 23:54:11.68	338.31	0.87	-51.3	-64.2	3.5	1.52e+00	0	42	104	2458910720	60	56995
2026-01-22 23:54:15.72	338.26	0.63	-51.3	-64.2	3.5	1.52e+00	0	42	104	2458910720	60	56870
2026-01-22 23:54:19.76	338.21	0.38	-51.3	-64.2	3.5	1.52e+00	0	42	104	2458910720	60	56954
2026-01-22 23:54:23.80	338.17	0.14	-51.3	-64.2	3.5	1.52e+00	0	42	104	2458910720	60	57016

#Closed at: 2026-01-22 23:54:26
#Recorded file [2458 MB]: D:/lorett/data/35029_260123_113902.dat