passes_logs/2026/01/22/R4.6S_Anadyr/R4.6S_Anadyr__20260122_195551_AQUA_rec.log

#Pass ID: 20260122_195551_AQUA
#Satellite: AQUA
#Configuration: AQUA
#almurnet v.1.7.20251203
#Start time: 2026-01-22 19:55:53

#Version: 2.2.20231116
#Station: R4.6S_Anadyr
#Location: 177.4865 lon 64.73178 lat
#TLE: 1 27424U 02022A   26021.53721517  .00002456  00000+0  50140-3 0  9996
#TLE: 2 27424  98.4098 348.0744 0002012  70.1009  46.1672 14.61843091261845

#Time	Az	El	Level	Level2	SNR	BER	BlckErr	Temp	State	Recorded	gain1	gain2
2026-01-22 19:55:53.41	33.87	0.09	-51.1	-66.0	3.5	1.51e+00	0	38	0	0	60	72037
2026-01-22 19:55:56.43	33.61	0.24	-51.9	-69.7	3.5	3.02e+01	0	39	104	0	60	116917
2026-01-22 19:55:59.46	33.35	0.39	-51.8	-69.7	3.5	3.02e+01	0	40	104	0	60	116970
2026-01-22 19:56:02.48	33.09	0.54	-51.8	-69.6	3.5	3.02e+01	0	40	104	0	60	116085
2026-01-22 19:56:05.51	32.82	0.69	-51.6	-69.5	3.5	3.02e+01	0	40	104	0	60	114368
2026-01-22 19:56:08.55	32.54	0.84	-51.5	-69.3	3.5	3.02e+01	0	40	104	0	60	112687
2026-01-22 19:56:11.58	32.27	1.00	-51.2	-69.1	3.5	3.02e+01	0	40	104	0	60	109204
2026-01-22 19:56:14.61	31.99	1.15	-50.9	-68.9	3.5	3.02e+01	0	40	104	0	60	107027
2026-01-22 19:56:17.64	31.71	1.30	-50.4	-68.2	3.5	3.02e+01	0	40	104	0	60	99491
2026-01-22 19:56:20.67	31.42	1.45	-50.0	-67.9	3.5	3.02e+01	0	40	104	0	60	95929
2026-01-22 19:56:23.70	31.14	1.60	-49.9	-67.9	3.5	3.02e+01	0	40	104	0	60	95802
2026-01-22 19:56:26.73	30.85	1.75	-49.9	-67.9	3.5	3.02e+01	0	40	104	0	60	95873
2026-01-22 19:56:29.75	30.55	1.91	-49.9	-67.8	3.5	3.02e+01	0	40	104	0	60	94867
2026-01-22 19:56:32.78	30.25	2.06	-49.9	-67.8	3.5	3.02e+01	0	40	104	0	60	94099
2026-01-22 19:56:35.81	29.95	2.21	-49.9	-67.8	3.5	3.02e+01	0	40	104	0	60	93932
2026-01-22 19:56:38.84	29.65	2.37	-49.8	-67.4	3.5	3.02e+01	0	40	104	0	60	90719
2026-01-22 19:56:41.87	29.34	2.52	-49.9	-67.9	3.5	3.02e+01	0	40	104	0	60	95264
2026-01-22 19:56:44.90	29.02	2.67	-49.9	-67.7	3.5	3.02e+01	0	40	104	0	60	93329
2026-01-22 19:56:47.93	28.71	2.83	-49.8	-67.0	3.5	3.02e+01	0	40	104	0	60	86147
2026-01-22 19:56:50.96	28.39	2.98	-49.8	-67.1	3.5	3.02e+01	0	40	104	0	60	87477
2026-01-22 19:56:53.99	28.06	3.14	-47.7	-60.5	3.5	3.02e+01	0	40	104	0	60	40791
2026-01-22 19:56:57.02	27.73	3.29	-42.4	-53.2	3.5	3.02e+01	0	40	104	0	60	17549
2026-01-22 19:57:00.05	27.40	3.44	-42.1	-52.7	3.5	3.02e+01	0	40	104	0	58	18581
2026-01-22 19:57:03.08	27.07	3.60	-46.8	-59.0	3.5	3.02e+01	0	40	104	0	60	34116
2026-01-22 19:57:06.10	26.73	3.75	-49.9	-67.7	3.5	3.02e+01	0	40	104	0	60	93059
2026-01-22 19:57:09.14	26.38	3.91	-42.5	-53.1	3.5	3.02e+01	0	40	104	0	60	17381
2026-01-22 19:57:12.16	26.03	4.06	-45.7	-57.2	3.5	3.02e+01	0	40	104	0	60	27965
2026-01-22 19:57:15.19	25.68	4.22	-50.1	-67.6	3.5	3.02e+01	0	40	104	0	60	92182
2026-01-22 19:57:18.22	25.33	4.37	-41.1	-51.6	3.5	3.02e+01	0	40	104	0	56	18387
2026-01-22 19:57:21.25	24.96	4.53	-45.6	-57.1	3.5	3.02e+01	0	40	104	0	60	27450
2026-01-22 19:57:24.28	24.60	4.68	-50.1	-67.7	3.5	3.02e+01	0	41	104	0	60	93292
2026-01-22 19:57:27.31	24.23	4.84	-40.2	-50.5	3.5	3.02e+01	0	41	104	0	54	18218
2026-01-22 19:57:30.33	23.86	4.99	-46.0	-57.4	3.5	3.02e+01	0	41	104	0	60	28608
2026-01-22 19:57:33.36	23.48	5.15	-50.3	-67.9	3.5	3.02e+01	0	40	104	0	60	95225
2026-01-22 19:57:36.39	23.10	5.30	-41.4	-51.8	3.5	3.02e+01	0	41	104	0	56	18855
2026-01-22 19:57:39.41	22.71	5.46	-46.3	-57.9	3.5	3.02e+01	0	40	104	0	60	30256
2026-01-22 19:57:42.44	22.32	5.61	-49.9	-66.0	3.5	3.02e+01	0	41	104	0	60	77184
2026-01-22 19:57:45.47	21.92	5.76	-40.9	-51.3	3.5	3.02e+01	0	41	104	0	56	17741
2026-01-22 19:57:48.50	21.52	5.92	-48.9	-62.6	3.5	3.02e+01	0	41	104	0	60	51871
2026-01-22 19:57:51.53	21.11	6.07	-40.9	-51.3	3.5	3.02e+01	0	41	104	0	56	17812
2026-01-22 19:57:54.56	20.70	6.23	-40.1	-50.4	3.5	3.02e+01	0	41	104	0	56	16088
2026-01-22 19:57:57.59	20.29	6.38	-50.5	-67.8	3.5	3.02e+01	0	41	104	0	60	94293
2026-01-22 19:58:00.62	19.87	6.53	-50.3	-66.8	3.5	3.02e+01	0	41	104	0	60	84377
2026-01-22 19:58:03.64	19.44	6.68	-43.5	-54.2	3.5	3.02e+01	0	41	104	0	60	19841
2026-01-22 19:58:06.67	19.01	6.84	-50.6	-68.0	3.5	3.02e+01	0	41	104	0	60	96858
2026-01-22 19:58:09.70	18.57	6.99	-45.3	-56.5	3.5	3.02e+01	0	41	104	0	60	25579
2026-01-22 19:58:12.74	18.13	7.14	-40.1	-50.5	3.6	3.02e+01	0	41	104	0	56	16198
2026-01-22 19:58:15.77	17.69	7.29	-50.5	-67.5	3.5	3.02e+01	0	41	104	0	60	91745
2026-01-22 19:58:18.79	17.24	7.44	-41.9	-52.4	3.5	3.02e+01	0	41	104	0	60	16128
2026-01-22 19:58:21.82	16.78	7.59	-39.5	-49.8	3.5	3.02e+01	0	41	104	0	54	16754
2026-01-22 19:58:24.85	16.32	7.74	-50.5	-67.3	3.5	3.02e+01	0	41	104	0	60	89573
2026-01-22 19:58:27.87	15.85	7.88	-41.5	-52.0	3.5	3.02e+01	0	41	104	0	60	15288
2026-01-22 19:58:30.90	15.38	8.03	-39.5	-49.8	3.5	3.02e+01	0	41	104	0	54	16741
2026-01-22 19:58:33.93	14.90	8.18	-50.6	-67.4	3.5	3.02e+01	0	41	104	0	60	90727
2026-01-22 19:58:36.95	14.42	8.32	-40.7	-51.1	3.5	3.02e+01	0	41	104	0	56	17330
2026-01-22 19:58:39.99	13.93	8.47	-41.1	-51.5	3.5	3.02e+01	0	41	104	0	56	18191
2026-01-22 19:58:43.02	13.44	8.61	-50.7	-67.6	3.5	3.02e+01	0	41	104	0	60	92569
2026-01-22 19:58:46.05	12.94	8.75	-39.5	-49.8	3.5	3.02e+01	0	41	104	0	54	16884
2026-01-22 19:58:49.08	12.44	8.89	-39.1	-49.4	3.5	3.02e+01	0	41	104	0	52	18034
2026-01-22 19:58:52.11	11.93	9.04	-50.7	-67.6	3.5	3.02e+01	0	41	104	0	60	92851
2026-01-22 19:58:55.13	11.41	9.17	-41.3	-51.7	3.5	3.02e+01	0	41	104	0	58	16695
2026-01-22 19:58:58.16	10.89	9.31	-39.7	-50.0	3.5	3.02e+01	0	41	104	0	54	17213
2026-01-22 19:59:01.19	10.37	9.45	-50.7	-67.7	3.5	3.02e+01	0	41	104	0	60	92973
2026-01-22 19:59:04.22	9.84	9.58	-40.7	-51.0	3.5	3.02e+01	0	41	104	0	56	17236
2026-01-22 19:59:07.25	9.30	9.72	-38.7	-49.0	3.5	3.02e+01	0	41	104	0	52	17174
2026-01-22 19:59:10.28	8.76	9.85	-50.9	-68.6	3.5	3.02e+01	0	41	104	0	60	103401
2026-01-22 19:59:13.31	8.21	9.98	-39.1	-49.3	3.5	3.02e+01	0	41	104	0	54	15901
2026-01-22 19:59:16.34	7.66	10.11	-38.9	-49.2	3.6	3.02e+01	0	41	104	0	52	17562
2026-01-22 19:59:19.37	7.10	10.24	-49.7	-64.1	3.5	3.02e+01	0	41	104	0	60	61923
2026-01-22 19:59:22.40	6.54	10.36	-40.8	-51.3	3.5	3.02e+01	0	41	104	0	58	15769
2026-01-22 19:59:25.43	5.97	10.49	-42.6	-53.2	3.5	3.02e+01	0	41	104	0	54	24874
2026-01-22 19:59:28.47	5.39	10.61	-50.6	-66.8	3.5	3.02e+01	0	41	104	0	60	84152
2026-01-22 19:59:31.50	4.81	10.73	-41.6	-52.0	3.5	3.02e+01	0	41	104	0	58	17269
2026-01-22 19:59:34.53	4.23	10.85	-41.4	-51.9	3.5	3.02e+01	0	41	104	0	56	19047
2026-01-22 19:59:37.56	3.64	10.96	-48.3	-60.9	3.5	3.02e+01	0	41	104	0	60	42527
2026-01-22 19:59:40.59	3.04	11.08	-40.2	-50.5	3.5	3.02e+01	0	41	104	0	56	16322
2026-01-22 19:59:43.62	2.45	11.19	-48.8	-61.9	3.5	3.02e+01	0	41	104	0	60	47892
2026-01-22 19:59:46.65	1.84	11.30	-51.1	-68.9	3.5	3.02e+01	0	41	104	0	60	106835
2026-01-22 19:59:49.67	1.23	11.40	-40.6	-50.9	3.5	3.02e+01	0	41	104	0	54	19098
2026-01-22 19:59:52.70	0.62	11.51	-40.0	-50.3	3.6	3.02e+01	0	41	104	0	56	15830
2026-01-22 19:59:55.73	0.00	11.61	-40.4	-50.8	3.5	3.02e+01	0	41	104	0	58	15037
2026-01-22 19:59:58.76	359.38	11.71	-39.6	-49.9	3.5	3.02e+01	0	41	104	0	54	17033
2026-01-22 20:00:01.79	358.75	11.80	-50.9	-67.6	3.5	3.02e+01	0	41	104	0	60	92406
2026-01-22 20:00:04.82	358.12	11.90	-50.3	-65.6	3.5	3.02e+01	0	41	104	0	60	73616
2026-01-22 20:00:07.84	357.48	11.99	-40.9	-51.3	3.5	3.02e+01	0	41	104	0	56	17717
2026-01-22 20:00:10.87	356.84	12.07	-40.3	-50.6	3.5	3.02e+01	0	41	104	0	54	18450
2026-01-22 20:00:13.90	356.19	12.16	-39.9	-50.2	3.5	3.02e+01	0	41	104	0	56	15671
2026-01-22 20:00:16.92	355.55	12.24	-40.7	-51.0	3.5	3.02e+01	0	41	104	0	56	17186
2026-01-22 20:00:19.95	354.89	12.32	-50.9	-68.1	3.5	3.02e+01	0	41	104	0	60	97894
2026-01-22 20:00:22.98	354.24	12.39	-48.5	-61.3	3.5	3.02e+01	0	41	104	0	60	44749
2026-01-22 20:00:26.01	353.58	12.46	-40.4	-50.7	3.5	3.02e+01	0	41	104	0	56	16682
2026-01-22 20:00:29.04	352.91	12.53	-39.3	-40.9	5.2	3.02e+01	0	41	104	0	52	6795
2026-01-22 20:00:32.07	352.25	12.60	-45.4	-48.1	20.3	3.02e+01	56	41	104	1048576	60	9730
2026-01-22 20:00:35.10	351.58	12.66	-39.1	-40.4	27.7	3.02e+01	59	41	0	5767168	54	5670
2026-01-22 20:00:38.13	350.90	12.72	-38.4	-39.7	28.3	3.02e+01	52	41	0	11534336	52	5893
2026-01-22 20:00:41.16	350.23	12.77	-38.5	-39.8	28.2	3.02e+01	47	41	0	17301504	52	5969
2026-01-22 20:00:44.19	349.55	12.82	-38.5	-39.8	28.2	3.02e+01	60	41	0	22544384	52	5966
2026-01-22 20:00:47.22	348.87	12.87	-38.6	-39.9	28.2	3.02e+01	57	41	0	28311552	52	6031
2026-01-22 20:00:50.25	348.18	12.91	-38.5	-39.7	28.3	3.02e+01	58	41	0	34078720	52	5920
2026-01-22 20:00:53.28	347.50	12.95	-38.6	-39.9	28.2	3.02e+01	63	41	0	39845888	52	6009
2026-01-22 20:00:56.31	346.81	12.99	-38.5	-39.8	28.2	3.02e+01	58	41	0	45613056	52	5934
2026-01-22 20:00:59.34	346.12	13.02	-38.5	-39.8	28.3	3.02e+01	59	41	0	51380224	52	5940
2026-01-22 20:01:02.36	345.43	13.05	-38.7	-40.0	28.1	3.02e+01	41	41	0	56623104	52	6077
2026-01-22 20:01:05.39	344.74	13.08	-38.4	-39.7	28.3	3.02e+01	47	41	0	62390272	52	5864
2026-01-22 20:01:08.42	344.05	13.10	-38.6	-39.8	28.2	3.02e+01	59	41	0	68157440	52	5982
2026-01-22 20:01:11.45	343.35	13.11	-38.6	-39.8	28.2	3.02e+01	58	41	0	73924608	52	5983
2026-01-22 20:01:14.48	342.66	13.13	-38.6	-39.9	28.2	3.02e+01	56	41	0	79691776	52	6001
2026-01-22 20:01:17.51	341.96	13.14	-39.3	-40.6	27.6	3.02e+01	58	41	0	85458944	52	6517
2026-01-22 20:01:20.54	341.27	13.14	-39.2	-40.6	27.5	3.02e+01	61	41	0	90701824	52	6501
2026-01-22 20:01:23.57	340.57	13.14	-40.0	-41.4	27.2	3.02e+01	58	41	0	96468992	54	6395
2026-01-22 20:01:26.60	339.88	13.14	-39.4	-40.8	27.4	3.02e+01	49	41	0	102236160	54	5934
2026-01-22 20:01:29.63	339.18	13.13	-39.5	-40.8	27.1	3.02e+01	58	41	0	108003328	54	5977
2026-01-22 20:01:32.66	338.48	13.12	-38.8	-40.1	28.1	3.02e+01	58	41	0	113770496	52	6174
2026-01-22 20:01:35.69	337.79	13.11	-38.9	-40.1	28.0	3.02e+01	59	41	0	119537664	52	6194
2026-01-22 20:01:38.71	337.10	13.09	-38.8	-40.1	28.1	3.02e+01	61	41	0	124780544	52	6156
2026-01-22 20:01:41.74	336.41	13.07	-38.8	-40.1	28.1	3.02e+01	64	41	0	130547712	52	6174
2026-01-22 20:01:44.77	335.71	13.04	-38.7	-40.0	28.2	3.02e+01	57	41	0	136314880	52	6072
2026-01-22 20:01:47.80	335.02	13.01	-38.7	-40.0	28.1	3.02e+01	56	41	0	142082048	52	6100
2026-01-22 20:01:50.83	334.33	12.98	-38.7	-40.0	28.1	3.02e+01	58	41	0	147849216	52	6067
2026-01-22 20:01:53.86	333.65	12.94	-38.6	-39.9	28.2	3.02e+01	59	41	0	153616384	52	6014
2026-01-22 20:01:56.88	332.96	12.90	-39.0	-40.3	27.9	3.02e+01	58	41	0	158859264	52	6329
2026-01-22 20:01:59.91	332.28	12.85	-39.1	-40.4	27.8	3.02e+01	62	41	0	164626432	52	6351
2026-01-22 20:02:02.94	331.60	12.80	-38.6	-39.9	28.3	3.02e+01	56	41	0	170393600	52	6025
2026-01-22 20:02:05.97	330.92	12.75	-38.9	-40.2	28.0	3.02e+01	53	41	0	176160768	52	6230
2026-01-22 20:02:09.00	330.25	12.70	-38.7	-40.0	28.2	3.02e+01	47	41	0	181927936	52	6072
2026-01-22 20:02:12.02	329.58	12.64	-39.0	-40.2	27.9	3.02e+01	44	41	0	187695104	52	6265
2026-01-22 20:02:15.05	328.91	12.57	-39.1	-40.4	27.7	3.02e+01	61	41	0	192937984	52	6368
2026-01-22 20:02:18.08	328.24	12.51	-39.4	-40.7	27.3	3.02e+01	60	41	0	198705152	52	6598
2026-01-22 20:02:21.11	327.58	12.44	-39.8	-41.2	27.2	3.02e+01	59	41	0	204472320	52	7008
2026-01-22 20:02:24.14	326.92	12.36	-39.5	-40.8	27.4	3.02e+01	59	41	0	210239488	52	6710
2026-01-22 20:02:27.17	326.26	12.29	-39.2	-40.5	27.5	3.02e+01	57	41	0	216006656	52	6461
2026-01-22 20:02:30.19	325.61	12.21	-39.2	-40.5	27.7	3.02e+01	47	41	0	221773824	52	6483
2026-01-22 20:02:33.22	324.97	12.13	-38.8	-40.0	28.1	3.02e+01	51	41	0	227016704	52	6129
2026-01-22 20:02:36.25	324.32	12.04	-39.0	-40.3	27.9	3.02e+01	59	41	0	232783872	52	6318
2026-01-22 20:02:39.28	323.68	11.95	-39.2	-40.6	27.5	3.02e+01	57	41	0	238551040	52	6514
2026-01-22 20:02:42.30	323.05	11.86	-38.3	-39.5	28.4	3.02e+01	63	41	0	244318208	52	5782
2026-01-22 20:02:45.34	322.41	11.76	-39.2	-40.5	27.7	3.02e+01	59	41	0	250085376	52	6472
2026-01-22 20:02:48.37	321.79	11.67	-39.0	-40.3	27.9	3.02e+01	61	41	0	255328256	52	6278
2026-01-22 20:02:51.39	321.17	11.57	-39.6	-41.0	27.3	3.02e+01	60	41	0	261095424	52	6806
2026-01-22 20:02:54.42	320.55	11.47	-39.2	-40.5	27.6	3.02e+01	50	41	0	266862592	52	6465
2026-01-22 20:02:57.45	319.94	11.36	-38.9	-40.2	27.9	3.02e+01	46	41	0	272629760	52	6214
2026-01-22 20:03:00.48	319.33	11.25	-39.4	-40.7	27.3	3.02e+01	60	41	0	278396928	54	5894
2026-01-22 20:03:03.51	318.72	11.14	-39.1	-40.4	27.6	3.02e+01	55	41	0	284164096	52	6383
2026-01-22 20:03:06.54	318.13	11.03	-39.8	-41.2	27.0	3.02e+01	61	41	0	289931264	52	6998
2026-01-22 20:03:09.57	317.53	10.92	-38.7	-39.9	28.0	3.02e+01	61	41	0	295174144	52	6042
2026-01-22 20:03:12.59	316.95	10.80	-39.3	-40.6	27.7	3.02e+01	59	41	0	300941312	52	6501
2026-01-22 20:03:15.62	316.36	10.68	-39.8	-41.2	26.9	3.02e+01	59	41	0	306708480	52	6974
2026-01-22 20:03:18.65	315.79	10.56	-40.2	-41.6	26.7	3.02e+01	49	41	0	312475648	54	6548
2026-01-22 20:03:21.68	315.21	10.44	-40.4	-41.8	26.4	3.02e+01	60	41	0	318242816	54	6720
2026-01-22 20:03:24.71	314.64	10.31	-39.5	-40.8	27.3	3.02e+01	58	41	0	323485696	54	5986
2026-01-22 20:03:27.74	314.08	10.19	-39.2	-40.5	27.6	3.02e+01	59	41	0	329252864	54	5745
2026-01-22 20:03:30.77	313.53	10.06	-39.7	-41.0	27.1	3.02e+01	60	41	0	335020032	54	6132
2026-01-22 20:03:33.80	312.97	9.93	-39.4	-40.7	27.4	3.02e+01	61	41	0	340787200	54	5901
2026-01-22 20:03:36.83	312.43	9.80	-39.6	-41.0	27.1	3.02e+01	44	41	0	346554368	54	6116
2026-01-22 20:03:39.86	311.89	9.66	-39.7	-41.1	27.0	3.02e+01	47	41	0	352321536	54	6142
2026-01-22 20:03:42.89	311.35	9.53	-39.6	-41.0	27.1	3.02e+01	62	41	0	358088704	54	6065
2026-01-22 20:03:45.92	310.82	9.39	-39.8	-41.2	27.0	3.02e+01	62	41	0	363331584	54	6230
2026-01-22 20:03:48.96	310.30	9.26	-40.0	-41.4	26.9	3.02e+01	61	41	0	369098752	54	6391
2026-01-22 20:03:51.99	309.78	9.12	-39.4	-40.7	27.1	3.02e+01	57	42	0	374865920	54	5872
2026-01-22 20:03:55.02	309.26	8.98	-39.4	-40.8	27.1	3.02e+01	59	42	0	380633088	54	5931
2026-01-22 20:03:58.05	308.75	8.84	-39.3	-40.6	27.4	3.02e+01	57	42	0	386400256	54	5807
2026-01-22 20:04:01.08	308.25	8.69	-39.4	-40.8	27.2	3.02e+01	57	42	0	392167424	54	5928
2026-01-22 20:04:04.11	307.75	8.55	-39.6	-41.0	27.0	3.02e+01	57	42	0	397410304	54	6067
2026-01-22 20:04:07.13	307.26	8.41	-39.5	-40.8	27.0	3.02e+01	61	41	0	403177472	54	5992
2026-01-22 20:04:10.16	306.78	8.26	-40.0	-41.5	26.6	3.02e+01	58	41	0	408944640	54	6456
2026-01-22 20:04:13.19	306.30	8.12	-40.0	-41.5	26.5	3.02e+01	61	41	0	414711808	54	6451
2026-01-22 20:04:16.22	305.82	7.97	-40.2	-41.7	26.3	3.02e+01	57	41	0	420478976	54	6613
2026-01-22 20:04:19.25	305.35	7.82	-39.8	-41.2	26.8	3.02e+01	59	41	0	426246144	54	6212
2026-01-22 20:04:22.28	304.88	7.67	-40.0	-41.4	26.7	3.02e+01	52	41	0	431489024	54	6360
2026-01-22 20:04:25.31	304.42	7.52	-40.3	-41.8	26.3	3.02e+01	49	41	0	437256192	54	6672
2026-01-22 20:04:28.34	303.97	7.37	-40.1	-41.5	26.5	3.02e+01	59	42	0	443023360	54	6427
2026-01-22 20:04:31.36	303.52	7.22	-40.3	-41.7	26.3	3.02e+01	60	41	0	448790528	54	6605
2026-01-22 20:04:34.39	303.07	7.07	-40.0	-41.4	26.6	3.02e+01	59	42	0	454557696	54	6373
2026-01-22 20:04:37.42	302.63	6.92	-40.3	-41.7	26.3	3.02e+01	61	41	0	460324864	54	6635
2026-01-22 20:04:40.45	302.20	6.77	-40.6	-42.1	25.8	3.02e+01	60	41	0	465567744	54	6903
2026-01-22 20:04:43.48	301.77	6.62	-39.9	-41.3	26.6	3.02e+01	46	41	0	471334912	54	6291
2026-01-22 20:04:46.51	301.34	6.47	-40.0	-41.4	26.5	3.02e+01	48	42	0	477102080	54	6376
2026-01-22 20:04:49.54	300.92	6.31	-40.5	-42.0	25.9	3.02e+01	60	41	0	482869248	54	6847
2026-01-22 20:04:52.57	300.51	6.16	-40.4	-41.8	26.2	3.02e+01	61	41	0	488636416	54	6672
2026-01-22 20:04:55.60	300.10	6.00	-41.0	-42.5	25.7	3.02e+01	58	42	0	494403584	56	6492
2026-01-22 20:04:58.63	299.69	5.85	-41.3	-42.8	25.1	3.02e+01	57	42	0	499646464	56	6694
2026-01-22 20:05:01.66	299.29	5.70	-41.2	-42.7	25.2	3.02e+01	50	42	0	505413632	56	6605
2026-01-22 20:05:04.69	298.90	5.54	-41.5	-43.1	24.9	3.02e+01	62	42	0	511180800	56	6937
2026-01-22 20:05:07.71	298.51	5.39	-40.6	-42.0	26.0	3.02e+01	50	42	0	516947968	56	6092
2026-01-22 20:05:10.74	298.12	5.23	-40.9	-42.5	25.4	3.02e+01	45	42	0	522715136	56	6438
2026-01-22 20:05:13.77	297.74	5.08	-40.8	-42.2	25.7	3.02e+01	59	42	0	527958016	56	6255
2026-01-22 20:05:16.80	297.36	4.92	-40.9	-42.4	25.6	3.02e+01	59	42	0	533725184	56	6409
2026-01-22 20:05:19.82	296.99	4.77	-41.2	-42.7	25.1	3.02e+01	58	41	0	539492352	56	6608
2026-01-22 20:05:22.85	296.62	4.61	-41.2	-42.7	25.1	3.02e+01	58	42	0	545259520	56	6609
2026-01-22 20:05:25.88	296.25	4.46	-41.5	-43.1	24.6	3.02e+01	58	42	0	551026688	56	6943
2026-01-22 20:05:28.91	295.89	4.30	-41.2	-42.7	25.0	3.02e+01	46	42	0	556793856	56	6642
2026-01-22 20:05:31.94	295.54	4.15	-41.3	-42.8	24.8	3.02e+01	44	41	0	562561024	56	6718
2026-01-22 20:05:34.97	295.19	3.99	-42.1	-43.7	24.0	3.02e+01	57	42	0	567803904	58	6629
2026-01-22 20:05:38.00	294.84	3.84	-41.6	-43.3	24.4	3.02e+01	61	41	0	573571072	58	6281
2026-01-22 20:05:41.03	294.49	3.68	-41.5	-43.2	24.5	3.02e+01	57	42	0	579338240	58	6210
2026-01-22 20:05:44.06	294.16	3.53	-41.2	-42.8	24.8	3.02e+01	57	42	0	585105408	58	5934
2026-01-22 20:05:47.09	293.82	3.37	-42.1	-43.8	23.6	3.02e+01	59	42	0	590872576	58	6701
2026-01-22 20:05:50.12	293.49	3.22	-42.6	-44.5	23.1	3.02e+01	52	42	0	596639744	60	6446
2026-01-22 20:05:53.15	293.16	3.07	-42.5	-44.3	23.1	3.02e+01	50	42	0	601882624	58	7075
2026-01-22 20:05:56.17	292.84	2.91	-51.1	-68.8	3.5	3.02e+01	0	42	104	604504064	60	105900
2026-01-22 20:05:59.20	292.52	2.76	-51.5	-69.3	3.5	3.02e+01	0	42	104	604504064	60	112778
2026-01-22 20:06:02.23	292.20	2.60	-51.7	-69.5	3.5	3.02e+01	0	42	104	604504064	60	114462
2026-01-22 20:06:05.26	291.89	2.45	-51.7	-69.5	3.5	3.02e+01	0	42	104	604504064	60	114942
2026-01-22 20:06:08.29	291.58	2.30	-51.7	-69.5	3.5	3.02e+01	0	42	104	604504064	60	115453
2026-01-22 20:06:11.32	291.27	2.14	-51.5	-69.5	3.5	3.02e+01	0	42	104	604504064	60	115235
2026-01-22 20:06:14.35	290.97	1.99	-51.5	-69.5	3.5	3.02e+01	0	42	104	604504064	60	114364
2026-01-22 20:06:17.38	290.67	1.84	-51.6	-69.5	3.5	3.02e+01	0	42	104	604504064	60	114904
2026-01-22 20:06:20.41	290.38	1.68	-51.7	-69.5	3.5	3.02e+01	0	42	104	604504064	60	115356
2026-01-22 20:06:23.44	290.09	1.53	-51.7	-69.5	3.5	3.02e+01	0	42	104	604504064	60	115303
2026-01-22 20:06:26.47	289.80	1.38	-51.7	-69.6	3.5	3.02e+01	0	42	104	604504064	60	115995
2026-01-22 20:06:29.49	289.52	1.23	-51.7	-69.6	3.5	3.02e+01	0	42	104	604504064	60	115616
2026-01-22 20:06:32.53	289.23	1.08	-51.7	-69.5	3.5	3.02e+01	0	42	104	604504064	60	115474
2026-01-22 20:06:35.56	288.96	0.92	-51.8	-69.6	3.5	3.02e+01	0	42	104	604504064	60	115851
2026-01-22 20:06:38.58	288.68	0.77	-51.7	-69.5	3.5	3.02e+01	0	42	104	604504064	60	114900
2026-01-22 20:06:41.61	288.41	0.62	-51.8	-69.6	3.5	3.02e+01	0	42	104	604504064	60	115998
2026-01-22 20:06:44.64	288.14	0.47	-51.8	-69.6	3.5	3.02e+01	0	42	104	604504064	60	116583
2026-01-22 20:06:47.68	287.88	0.32	-51.8	-69.6	3.5	3.02e+01	0	42	104	604504064	60	116089
2026-01-22 20:06:50.71	287.61	0.17	-51.7	-69.6	3.5	3.02e+01	0	42	104	604504064	60	115964
2026-01-22 20:06:53.74	287.35	0.02	-51.7	-69.6	3.5	3.02e+01	0	42	104	604504064	60	116282

#Closed at: 2026-01-22 20:06:54
#Recorded file [604 MB]: D:/lorett/data/35029_260123_075553.dat