passes_logs/2026/01/22/R4.6S_Anadyr/R4.6S_Anadyr__20260122_134333_NOAA_21_JPSS-2_rec.log

#Pass ID: 20260122_134333_NOAA 21 (JPSS-2)
#Satellite: NOAA 21 (JPSS-2)
#Configuration: NOAA-21
#almurnet v.1.7.20251203
#Start time: 2026-01-22 13:43:34

#Version: 2.2.20231116
#Station: R4.6S_Anadyr
#Location: 177.4865 lon 64.73178 lat
#TLE: 1 54234U 22150A   26021.42686626  .00000211  00000+0  12107-3 0  9996
#TLE: 2 54234  98.7506 322.2490 0000636 241.9299 118.1812 14.19537149165725

#Time	Az	El	Level	Level2	SNR	BER	BlckErr	Temp	State	Recorded	gain1	gain2
2026-01-22 13:43:34.82	19.03	0.08	-51.4	-66.3	3.6	1.51e+00	0	38	0	0	60	75081
2026-01-22 13:43:38.86	19.17	0.31	-51.3	-64.2	3.5	1.51e+00	0	40	104	0	60	57013
2026-01-22 13:43:42.91	19.31	0.55	-51.3	-64.2	3.5	1.52e+00	0	40	104	0	60	56818
2026-01-22 13:43:46.95	19.45	0.78	-51.2	-64.1	3.5	1.52e+00	0	40	104	0	60	56346
2026-01-22 13:43:50.98	19.59	1.02	-50.9	-63.8	3.5	1.52e+00	0	40	104	0	60	54491
2026-01-22 13:43:55.02	19.74	1.26	-50.5	-63.4	3.5	1.52e+00	0	40	104	0	60	51835
2026-01-22 13:43:59.06	19.89	1.50	-49.8	-62.6	3.5	1.52e+00	0	40	104	0	60	47360
2026-01-22 13:44:03.09	20.04	1.75	-49.7	-62.6	3.5	1.52e+00	0	40	104	0	60	47100
2026-01-22 13:44:07.14	20.19	1.99	-49.7	-62.6	3.5	1.52e+00	0	40	104	0	60	47270
2026-01-22 13:44:11.18	20.34	2.24	-49.6	-61.7	3.5	1.51e+00	0	40	104	0	60	42910
2026-01-22 13:44:15.22	20.50	2.49	-49.6	-61.3	3.5	1.51e+00	0	40	104	0	60	40797
2026-01-22 13:44:19.26	20.66	2.75	-48.7	-54.4	6.9	3.09e-01	122	40	0	2097152	60	18435
2026-01-22 13:44:23.30	20.82	3.00	-44.6	-46.7	15.3	0.00e+00	122	40	0	14680064	60	7631
2026-01-22 13:44:27.34	20.98	3.26	-43.5	-45.3	16.6	0.00e+00	122	40	0	27262976	60	6430
2026-01-22 13:44:31.38	21.15	3.52	-47.1	-50.7	10.8	4.45e-04	122	40	0	39845888	60	12079
2026-01-22 13:44:35.42	21.31	3.78	-46.4	-49.6	9.7	0.00e+00	122	41	0	52428800	60	10611
2026-01-22 13:44:39.46	21.48	4.04	-41.6	-43.3	18.2	0.00e+00	122	41	104	52428800	56	6438
2026-01-22 13:44:43.50	21.66	4.31	-41.0	-42.3	19.6	0.00e+00	122	41	0	63963136	56	5752
2026-01-22 13:44:47.54	21.84	4.58	-40.7	-41.9	20.0	0.00e+00	122	41	0	76546048	54	6167
2026-01-22 13:44:51.58	22.01	4.85	-40.7	-41.9	20.0	0.00e+00	123	41	0	89128960	54	6163
2026-01-22 13:44:55.61	22.20	5.12	-40.7	-42.0	19.9	0.00e+00	123	41	0	101711872	54	6230
2026-01-22 13:44:59.66	22.38	5.40	-40.2	-41.4	20.6	0.00e+00	122	41	0	114294784	54	5839
2026-01-22 13:45:03.70	22.57	5.67	-40.1	-41.3	20.7	0.00e+00	123	41	0	126877696	54	5754
2026-01-22 13:45:07.74	22.76	5.96	-40.3	-41.5	20.4	0.00e+00	123	41	0	139460608	54	5910
2026-01-22 13:45:11.78	22.96	6.24	-40.1	-41.3	20.9	0.00e+00	123	41	0	152043520	54	5734
2026-01-22 13:45:15.82	23.16	6.53	-39.9	-41.0	21.1	0.00e+00	123	41	0	164626432	52	6242
2026-01-22 13:45:19.86	23.36	6.82	-39.9	-41.0	21.0	0.00e+00	122	41	0	177209344	52	6241
2026-01-22 13:45:23.91	23.57	7.11	-39.6	-40.7	21.4	0.00e+00	122	41	0	189792256	52	6044
2026-01-22 13:45:27.95	23.78	7.41	-39.4	-40.5	21.6	0.00e+00	120	41	0	203423744	52	5885
2026-01-22 13:45:31.99	23.99	7.71	-39.3	-40.4	21.6	0.00e+00	122	41	0	214958080	52	5812
2026-01-22 13:45:36.03	24.21	8.01	-39.4	-40.4	21.6	0.00e+00	123	41	0	228589568	52	5845
2026-01-22 13:45:40.07	24.43	8.32	-39.3	-40.4	21.7	0.00e+00	123	41	0	241172480	52	5837
2026-01-22 13:45:44.11	24.66	8.63	-39.1	-40.1	22.0	0.00e+00	122	41	0	253755392	52	5629
2026-01-22 13:45:48.15	24.89	8.94	-39.1	-40.2	21.9	0.00e+00	121	41	0	266338304	52	5683
2026-01-22 13:45:52.18	25.13	9.26	-38.7	-39.7	22.3	0.00e+00	120	41	0	278921216	50	6033
2026-01-22 13:45:56.22	25.37	9.58	-38.5	-39.5	22.5	0.00e+00	122	41	0	291504128	50	5904
2026-01-22 13:46:00.26	25.61	9.90	-38.4	-39.4	22.6	0.00e+00	123	41	0	304087040	50	5814
2026-01-22 13:46:04.30	25.86	10.23	-38.4	-39.4	22.6	0.00e+00	122	41	0	316669952	50	5795
2026-01-22 13:46:08.35	26.12	10.57	-38.3	-39.3	22.7	0.00e+00	120	41	0	329252864	50	5785
2026-01-22 13:46:12.39	26.38	10.90	-38.0	-39.0	23.0	0.00e+00	123	41	0	341835776	50	5554
2026-01-22 13:46:16.43	26.65	11.24	-37.9	-38.9	23.0	0.00e+00	122	41	0	354418688	50	5471
2026-01-22 13:46:20.47	26.92	11.59	-37.9	-38.8	23.0	0.00e+00	120	41	0	367001600	50	5450
2026-01-22 13:46:24.51	27.20	11.94	-37.7	-38.6	23.3	0.00e+00	122	41	0	379584512	48	5991
2026-01-22 13:46:28.55	27.49	12.29	-37.7	-38.7	23.3	0.00e+00	121	41	0	392167424	48	6003
2026-01-22 13:46:32.59	27.78	12.65	-37.6	-38.5	23.4	0.00e+00	123	41	0	404750336	48	5912
2026-01-22 13:46:36.62	28.08	13.01	-37.4	-38.3	23.6	0.00e+00	122	41	0	417333248	48	5771
2026-01-22 13:46:40.67	28.38	13.38	-37.3	-38.3	23.6	0.00e+00	123	41	0	429916160	48	5737
2026-01-22 13:46:44.70	28.70	13.75	-37.4	-38.4	23.5	0.00e+00	120	41	0	442499072	48	5799
2026-01-22 13:46:48.74	29.02	14.13	-37.3	-38.3	23.7	0.00e+00	122	41	0	455081984	48	5743
2026-01-22 13:46:52.78	29.34	14.51	-37.5	-38.5	23.5	0.00e+00	123	41	0	467664896	48	5886
2026-01-22 13:46:56.82	29.68	14.90	-37.4	-38.4	23.6	0.00e+00	122	41	0	480247808	48	5804
2026-01-22 13:47:00.85	30.03	15.30	-37.6	-38.5	23.5	0.00e+00	122	41	0	492830720	48	5924
2026-01-22 13:47:04.89	30.38	15.69	-37.8	-38.7	23.5	0.00e+00	123	41	0	505413632	48	6033
2026-01-22 13:47:08.93	30.74	16.10	-37.8	-38.8	23.3	0.00e+00	123	41	0	517996544	48	6070
2026-01-22 13:47:12.98	31.12	16.51	-38.0	-39.0	23.2	0.00e+00	123	41	0	530579456	48	6217
2026-01-22 13:47:17.01	31.50	16.93	-38.1	-39.0	23.2	0.00e+00	123	41	0	544210944	48	6266
2026-01-22 13:47:21.05	31.89	17.35	-38.0	-39.0	23.2	0.00e+00	123	41	0	556793856	48	6247
2026-01-22 13:47:25.09	32.29	17.78	-38.1	-39.1	23.2	0.00e+00	122	41	0	569376768	48	6295
2026-01-22 13:47:29.13	32.71	18.21	-38.0	-38.9	23.3	0.00e+00	123	41	0	581959680	48	6194
2026-01-22 13:47:33.16	33.13	18.66	-38.1	-39.1	23.1	0.00e+00	123	42	0	594542592	48	6304
2026-01-22 13:47:37.20	33.57	19.10	-38.0	-39.0	23.2	0.00e+00	123	42	0	607125504	48	6216
2026-01-22 13:47:41.24	34.02	19.56	-37.5	-38.5	23.6	0.00e+00	122	42	0	619708416	48	5888
2026-01-22 13:47:45.28	34.48	20.02	-37.1	-38.0	23.9	0.00e+00	123	42	0	632291328	48	5576
2026-01-22 13:47:49.32	34.96	20.49	-37.0	-37.9	24.0	0.00e+00	121	41	0	644874240	48	5475
2026-01-22 13:47:53.35	35.45	20.96	-36.7	-37.6	24.3	0.00e+00	121	42	0	657457152	46	5946
2026-01-22 13:47:57.39	35.96	21.45	-36.4	-37.3	24.5	0.00e+00	122	42	0	670040064	46	5764
2026-01-22 13:48:01.43	36.48	21.93	-36.2	-37.1	24.6	0.00e+00	122	41	0	682622976	46	5635
2026-01-22 13:48:05.47	37.02	22.43	-36.1	-37.0	24.7	0.00e+00	120	42	0	695205888	46	5559
2026-01-22 13:48:09.51	37.57	22.94	-35.9	-36.8	24.9	0.00e+00	123	42	0	707788800	46	5446
2026-01-22 13:48:13.56	38.15	23.45	-36.0	-36.8	24.9	0.00e+00	120	42	0	720371712	46	5452
2026-01-22 13:48:17.60	38.74	23.97	-35.9	-36.8	25.0	0.00e+00	123	42	0	732954624	46	5431
2026-01-22 13:48:21.64	39.35	24.49	-36.2	-37.1	24.7	0.00e+00	122	42	0	745537536	46	5649
2026-01-22 13:48:25.68	39.98	25.03	-36.5	-37.4	24.6	0.00e+00	122	42	0	758120448	46	5848
2026-01-22 13:48:29.72	40.63	25.57	-37.1	-38.0	24.1	0.00e+00	123	41	0	770703360	46	6241
2026-01-22 13:48:33.76	41.31	26.12	-37.0	-37.9	24.2	0.00e+00	122	42	0	783286272	46	6195
2026-01-22 13:48:37.80	42.01	26.67	-37.3	-38.2	24.0	0.00e+00	123	41	0	795869184	46	6398
2026-01-22 13:48:41.84	42.73	27.23	-37.1	-38.0	24.1	0.00e+00	120	42	0	808452096	46	6249
2026-01-22 13:48:45.88	43.48	27.80	-37.2	-38.1	24.0	0.00e+00	123	42	0	821035008	46	6326
2026-01-22 13:48:49.93	44.25	28.38	-37.2	-38.2	24.0	0.00e+00	122	42	0	833617920	46	6362
2026-01-22 13:48:53.97	45.05	28.96	-37.3	-38.2	24.0	0.00e+00	122	41	0	846200832	46	6417
2026-01-22 13:48:58.01	45.89	29.55	-37.0	-37.9	24.2	0.00e+00	123	42	0	859832320	46	6148
2026-01-22 13:49:02.05	46.75	30.15	-37.0	-37.9	24.3	0.00e+00	120	42	0	872415232	46	6152
2026-01-22 13:49:06.08	47.64	30.75	-37.5	-38.4	23.9	0.00e+00	122	42	0	884998144	46	6539
2026-01-22 13:49:10.12	48.56	31.35	-37.7	-38.6	23.7	0.00e+00	122	42	0	897581056	48	5975
2026-01-22 13:49:14.16	49.53	31.96	-38.1	-39.0	23.3	0.00e+00	123	42	0	910163968	48	6257
2026-01-22 13:49:18.19	50.52	32.57	-38.4	-39.4	23.1	0.00e+00	120	42	0	922746880	48	6515
2026-01-22 13:49:22.23	51.55	33.19	-37.9	-38.9	23.6	0.00e+00	123	42	0	935329792	48	6151
2026-01-22 13:49:26.27	52.63	33.81	-38.3	-39.3	23.3	0.00e+00	122	42	0	947912704	48	6429
2026-01-22 13:49:30.31	53.74	34.42	-38.1	-39.0	23.3	0.00e+00	123	42	0	960495616	48	6254
2026-01-22 13:49:34.36	54.90	35.05	-38.5	-39.5	23.0	0.00e+00	122	42	0	973078528	48	6613
2026-01-22 13:49:38.39	56.10	35.66	-38.6	-39.6	22.9	0.00e+00	120	42	0	985661440	48	6660
2026-01-22 13:49:42.43	57.35	36.28	-38.5	-39.4	23.1	0.00e+00	123	42	0	998244352	48	6557
2026-01-22 13:49:46.47	58.65	36.89	-38.8	-39.8	22.8	0.00e+00	123	42	0	1010827264	50	6068
2026-01-22 13:49:50.50	59.99	37.50	-38.7	-39.7	22.8	0.00e+00	121	42	0	1023410176	50	6022
2026-01-22 13:49:54.55	61.38	38.10	-38.8	-39.9	22.8	0.00e+00	122	42	0	1035993088	50	6137
2026-01-22 13:49:58.59	62.83	38.69	-38.8	-39.8	22.8	0.00e+00	120	42	0	1048576000	50	6080
2026-01-22 13:50:02.63	64.32	39.27	-38.9	-39.8	22.7	0.00e+00	123	42	0	1061158912	50	6132
2026-01-22 13:50:06.67	65.87	39.84	-38.9	-39.8	22.7	0.00e+00	122	42	0	1073741824	50	6128
2026-01-22 13:50:10.71	67.48	40.39	-40.1	-41.1	21.7	0.00e+00	123	42	0	1086324736	52	6344
2026-01-22 13:50:14.75	69.14	40.93	-39.7	-40.8	22.0	0.00e+00	123	42	0	1098907648	52	6097
2026-01-22 13:50:18.79	70.85	41.45	-40.1	-41.2	21.6	0.00e+00	123	42	0	1111490560	52	6354
2026-01-22 13:50:22.82	72.61	41.94	-40.6	-41.7	20.9	0.00e+00	122	42	0	1124073472	52	6804
2026-01-22 13:50:26.86	74.43	42.41	-40.4	-41.5	21.3	0.00e+00	122	42	0	1136656384	54	5885
2026-01-22 13:50:30.90	76.30	42.86	-40.3	-41.5	21.3	0.00e+00	122	42	0	1149239296	54	5876
2026-01-22 13:50:34.93	78.22	43.27	-39.8	-40.9	21.4	0.00e+00	122	42	0	1161822208	52	6158
2026-01-22 13:50:38.98	80.20	43.65	-39.7	-40.7	22.0	0.00e+00	120	42	0	1174405120	52	6016
2026-01-22 13:50:43.01	82.21	44.00	-41.4	-42.6	20.1	0.00e+00	122	42	0	1186988032	54	6724
2026-01-22 13:50:47.05	84.27	44.32	-39.9	-41.0	21.7	0.00e+00	123	42	0	1200619520	54	5540
2026-01-22 13:50:51.09	86.36	44.59	-39.8	-40.9	21.9	0.00e+00	123	42	0	1213202432	52	6136
2026-01-22 13:50:55.13	88.49	44.82	-40.0	-41.1	21.9	0.00e+00	120	42	0	1225785344	52	6292
2026-01-22 13:50:59.17	90.65	45.01	-39.9	-41.0	21.8	0.00e+00	123	42	0	1238368256	52	6207
2026-01-22 13:51:03.21	92.83	45.16	-40.0	-41.1	21.6	0.00e+00	123	42	0	1250951168	52	6334
2026-01-22 13:51:07.25	95.03	45.26	-39.8	-40.9	21.9	0.00e+00	120	42	0	1263534080	52	6177
2026-01-22 13:51:11.29	97.24	45.32	-39.6	-40.6	21.9	0.00e+00	123	42	0	1276116992	52	5977
2026-01-22 13:51:15.33	99.46	45.33	-40.0	-41.1	21.5	0.00e+00	123	42	0	1288699904	52	6295
2026-01-22 13:51:19.38	101.68	45.30	-39.5	-40.5	22.2	0.00e+00	123	42	0	1301282816	52	5884
2026-01-22 13:51:23.42	103.88	45.21	-39.5	-40.5	22.2	0.00e+00	123	42	0	1313865728	52	5865
2026-01-22 13:51:27.46	106.07	45.09	-39.6	-40.6	22.2	0.00e+00	122	42	0	1326448640	52	5985
2026-01-22 13:51:31.50	108.25	44.92	-39.7	-40.7	21.9	0.00e+00	123	42	0	1339031552	52	6028
2026-01-22 13:51:35.54	110.39	44.70	-39.2	-40.3	22.2	0.00e+00	120	42	0	1351614464	52	5749
2026-01-22 13:51:39.58	112.51	44.45	-39.6	-40.6	22.2	0.00e+00	122	42	0	1364197376	52	5966
2026-01-22 13:51:43.62	114.59	44.15	-39.5	-40.5	22.2	0.00e+00	123	42	0	1376780288	52	5907
2026-01-22 13:51:47.66	116.62	43.82	-40.0	-41.1	21.8	0.00e+00	123	42	0	1389363200	52	6279
2026-01-22 13:51:51.70	118.62	43.45	-40.9	-42.0	21.1	0.00e+00	123	42	0	1401946112	54	6250
2026-01-22 13:51:55.74	120.57	43.04	-39.6	-40.6	22.1	0.00e+00	123	42	0	1414529024	52	5951
2026-01-22 13:51:59.78	122.47	42.61	-39.9	-41.0	21.6	0.00e+00	123	42	0	1427111936	52	6253
2026-01-22 13:52:03.82	124.32	42.15	-39.5	-40.5	22.2	0.00e+00	123	42	0	1439694848	52	5920
2026-01-22 13:52:07.86	126.11	41.66	-39.2	-40.2	22.5	0.00e+00	122	42	0	1452277760	52	5692
2026-01-22 13:52:11.90	127.85	41.15	-39.0	-39.9	22.7	0.00e+00	122	42	0	1464860672	52	5524
2026-01-22 13:52:15.95	129.54	40.62	-39.0	-39.9	22.6	0.00e+00	122	42	0	1477443584	50	6197
2026-01-22 13:52:19.98	131.17	40.08	-39.3	-40.3	22.4	0.00e+00	123	42	0	1490026496	50	6493
2026-01-22 13:52:24.02	132.75	39.51	-40.1	-41.2	21.7	0.00e+00	122	42	0	1502609408	52	6372
2026-01-22 13:52:28.06	134.28	38.93	-39.6	-40.7	22.0	0.00e+00	122	42	0	1516240896	52	6007
2026-01-22 13:52:32.10	135.75	38.34	-39.3	-40.3	22.4	0.00e+00	123	42	0	1528823808	52	5751
2026-01-22 13:52:36.14	137.17	37.74	-38.9	-39.9	22.6	0.00e+00	122	42	0	1541406720	52	5481
2026-01-22 13:52:40.18	138.54	37.14	-38.0	-38.9	23.4	0.00e+00	122	42	0	1553989632	50	5518
2026-01-22 13:52:44.23	139.86	36.52	-38.0	-39.0	23.4	0.00e+00	120	42	0	1566572544	50	5547
2026-01-22 13:52:48.27	141.13	35.90	-37.9	-38.8	23.5	0.00e+00	123	42	0	1579155456	50	5432
2026-01-22 13:52:52.31	142.35	35.28	-37.9	-38.8	23.4	0.00e+00	122	42	0	1591738368	48	6126
2026-01-22 13:52:56.35	143.53	34.66	-38.1	-39.1	23.2	0.00e+00	122	42	0	1604321280	48	6280
2026-01-22 13:53:00.40	144.67	34.04	-37.8	-38.8	23.4	0.00e+00	122	42	0	1616904192	48	6087
2026-01-22 13:53:04.43	145.77	33.41	-37.9	-38.9	23.4	0.00e+00	123	42	0	1629487104	48	6149
2026-01-22 13:53:08.47	146.82	32.79	-37.9	-38.9	23.4	0.00e+00	122	42	0	1642070016	48	6145
2026-01-22 13:53:12.51	147.84	32.18	-37.6	-38.6	23.7	0.00e+00	120	42	0	1654652928	48	5949
2026-01-22 13:53:16.55	148.82	31.56	-36.9	-37.8	24.3	0.00e+00	120	42	0	1667235840	48	5428
2026-01-22 13:53:20.59	149.76	30.95	-36.7	-37.6	24.5	0.00e+00	123	42	0	1679818752	46	5928
2026-01-22 13:53:24.63	150.67	30.35	-36.8	-37.7	24.3	0.00e+00	123	42	0	1692401664	46	6000
2026-01-22 13:53:28.67	151.55	29.75	-37.0	-38.0	24.1	0.00e+00	122	42	0	1704984576	46	6218
2026-01-22 13:53:32.72	152.39	29.15	-37.4	-38.3	23.8	0.00e+00	121	42	0	1717567488	46	6458
2026-01-22 13:53:36.76	153.21	28.56	-37.2	-38.1	23.9	0.00e+00	119	42	0	1730150400	46	6344
2026-01-22 13:53:40.80	154.00	27.98	-37.3	-38.3	23.8	0.00e+00	120	42	0	1742733312	46	6429
2026-01-22 13:53:44.84	154.76	27.40	-37.1	-38.1	24.0	0.00e+00	122	42	0	1755316224	46	6288
2026-01-22 13:53:48.88	155.49	26.83	-36.5	-37.4	24.6	0.00e+00	123	42	0	1767899136	46	5820
2026-01-22 13:53:52.92	156.20	26.27	-36.6	-37.5	24.4	0.00e+00	123	42	0	1780482048	46	5894
2026-01-22 13:53:56.97	156.89	25.72	-36.7	-37.7	24.3	0.00e+00	122	42	0	1793064960	46	5999
2026-01-22 13:54:01.01	157.55	25.17	-36.4	-37.3	24.4	0.00e+00	122	42	0	1806696448	46	5760
2026-01-22 13:54:05.05	158.19	24.63	-36.1	-37.0	24.6	0.00e+00	122	42	0	1819279360	46	5534
2026-01-22 13:54:09.10	158.81	24.09	-36.4	-37.3	24.4	0.00e+00	120	42	0	1831862272	46	5771
2026-01-22 13:54:13.14	159.41	23.57	-36.5	-37.4	24.4	0.00e+00	123	42	0	1844445184	46	5817
2026-01-22 13:54:17.18	159.99	23.05	-36.5	-37.4	24.2	0.00e+00	120	42	0	1857028096	46	5804
2026-01-22 13:54:21.22	160.55	22.54	-36.6	-37.6	24.0	0.00e+00	123	42	0	1869611008	46	5936
2026-01-22 13:54:25.26	161.10	22.04	-36.8	-37.7	24.1	0.00e+00	123	42	0	1882193920	46	6032
2026-01-22 13:54:29.30	161.63	21.54	-37.1	-38.0	24.0	0.00e+00	120	42	0	1894776832	46	6248
2026-01-22 13:54:33.35	162.14	21.05	-37.6	-38.6	23.6	0.00e+00	120	42	0	1907359744	46	6662
2026-01-22 13:54:37.39	162.64	20.57	-37.5	-38.5	23.7	0.00e+00	123	42	0	1919942656	46	6585
2026-01-22 13:54:41.42	163.12	20.10	-36.9	-37.8	24.0	0.00e+00	123	42	0	1932525568	46	6107
2026-01-22 13:54:45.46	163.59	19.63	-36.6	-37.6	24.0	0.00e+00	123	42	0	1945108480	46	5934
2026-01-22 13:54:49.50	164.04	19.17	-36.5	-37.4	24.3	0.00e+00	121	42	0	1957691392	46	5818
2026-01-22 13:54:53.54	164.49	18.72	-36.4	-37.3	24.4	0.00e+00	122	42	0	1970274304	46	5773
2026-01-22 13:54:57.58	164.92	18.27	-36.5	-37.4	24.5	0.00e+00	122	42	0	1982857216	46	5799
2026-01-22 13:55:01.62	165.33	17.83	-37.0	-37.9	24.0	0.00e+00	122	42	0	1995440128	46	6154
2026-01-22 13:55:05.66	165.74	17.40	-37.4	-38.4	23.7	0.00e+00	123	42	0	2008023040	46	6511
2026-01-22 13:55:09.69	166.14	16.97	-37.6	-38.6	23.4	0.00e+00	122	42	0	2020605952	46	6676
2026-01-22 13:55:13.73	166.52	16.55	-37.5	-38.5	23.4	0.00e+00	123	42	0	2033188864	46	6593
2026-01-22 13:55:17.77	166.90	16.13	-37.2	-38.2	23.6	0.00e+00	121	42	0	2045771776	46	6368
2026-01-22 13:55:21.81	167.26	15.72	-37.3	-38.3	23.5	0.00e+00	122	42	0	2058354688	46	6433
2026-01-22 13:55:25.85	167.62	15.32	-37.2	-38.1	23.7	0.00e+00	123	42	0	2070937600	46	6345
2026-01-22 13:55:29.89	167.96	14.92	-37.3	-38.2	23.7	0.00e+00	120	42	0	2083520512	46	6382
2026-01-22 13:55:33.93	168.30	14.53	-37.2	-38.2	23.7	0.00e+00	122	42	0	2096103424	46	6369
2026-01-22 13:55:37.97	168.63	14.14	-37.6	-38.6	23.5	0.00e+00	123	42	0	2108686336	46	6656
2026-01-22 13:55:42.02	168.95	13.76	-37.9	-38.8	23.2	0.00e+00	122	42	0	2122317824	48	6118
2026-01-22 13:55:46.05	169.27	13.38	-38.0	-39.0	23.0	0.00e+00	122	42	0	2134900736	48	6208
2026-01-22 13:55:50.09	169.57	13.01	-38.0	-39.0	22.9	0.00e+00	122	42	0	2147483648	48	6207
2026-01-22 13:55:54.13	169.87	12.64	-37.9	-38.9	23.0	0.00e+00	120	42	0	2160066560	48	6178
2026-01-22 13:55:58.17	170.17	12.28	-38.1	-39.1	22.9	0.00e+00	123	42	0	2172649472	48	6287
2026-01-22 13:56:02.21	170.45	11.93	-37.9	-38.9	23.0	0.00e+00	122	42	0	2185232384	48	6141
2026-01-22 13:56:06.24	170.73	11.57	-38.2	-39.2	22.7	0.00e+00	121	42	0	2197815296	48	6393
2026-01-22 13:56:10.28	171.01	11.22	-38.4	-39.4	22.6	0.00e+00	123	42	0	2210398208	48	6511
2026-01-22 13:56:14.32	171.27	10.88	-38.4	-39.4	22.6	0.00e+00	123	42	0	2222981120	48	6543
2026-01-22 13:56:18.36	171.53	10.54	-38.4	-39.4	22.4	0.00e+00	123	41	0	2235564032	48	6556
2026-01-22 13:56:22.40	171.79	10.21	-38.5	-39.5	22.4	0.00e+00	120	42	0	2248146944	48	6590
2026-01-22 13:56:26.44	172.04	9.87	-38.9	-39.9	22.0	0.00e+00	122	41	0	2260729856	50	6157
2026-01-22 13:56:30.48	172.29	9.55	-38.9	-40.0	21.8	0.00e+00	123	41	0	2273312768	50	6229
2026-01-22 13:56:34.52	172.53	9.22	-38.8	-39.8	22.0	0.00e+00	123	42	0	2285895680	50	6107
2026-01-22 13:56:38.56	172.76	8.90	-38.8	-39.9	22.0	0.00e+00	122	42	0	2298478592	50	6158
2026-01-22 13:56:42.60	172.99	8.59	-38.9	-40.0	21.9	0.00e+00	123	41	0	2311061504	50	6239
2026-01-22 13:56:46.65	173.22	8.27	-39.0	-40.1	21.8	0.00e+00	120	41	0	2323644416	50	6297
2026-01-22 13:56:50.68	173.44	7.96	-39.0	-40.1	21.8	0.00e+00	123	42	0	2336227328	50	6298
2026-01-22 13:56:54.72	173.66	7.66	-39.2	-40.3	21.6	0.00e+00	120	42	0	2348810240	50	6454
2026-01-22 13:56:58.76	173.87	7.36	-39.2	-40.2	21.6	0.00e+00	123	42	0	2361393152	50	6418
2026-01-22 13:57:02.80	174.08	7.06	-39.2	-40.3	21.6	0.00e+00	122	42	0	2373976064	50	6466
2026-01-22 13:57:06.84	174.28	6.76	-39.5	-40.5	21.3	0.00e+00	123	41	0	2386558976	50	6646
2026-01-22 13:57:10.88	174.48	6.47	-39.5	-40.7	21.2	0.00e+00	122	41	0	2399141888	50	6732
2026-01-22 13:57:14.92	174.68	6.18	-39.5	-40.6	21.3	0.00e+00	123	42	0	2411724800	50	6651
2026-01-22 13:57:18.95	174.87	5.89	-39.7	-40.8	20.9	0.00e+00	122	41	0	2424307712	52	6121
2026-01-22 13:57:22.99	175.06	5.61	-39.9	-41.0	20.9	0.00e+00	123	42	0	2436890624	52	6227
2026-01-22 13:57:27.02	175.25	5.33	-40.1	-41.3	20.5	0.00e+00	123	41	0	2449473536	52	6443
2026-01-22 13:57:31.06	175.43	5.05	-40.7	-41.9	20.1	0.00e+00	123	42	0	2463105024	52	6942
2026-01-22 13:57:35.10	175.61	4.77	-40.7	-41.9	20.1	0.00e+00	123	42	0	2475687936	54	6196
2026-01-22 13:57:39.14	175.79	4.50	-40.6	-41.8	20.0	0.00e+00	123	41	0	2488270848	54	6106
2026-01-22 13:57:43.18	175.97	4.23	-40.8	-42.1	19.8	0.00e+00	123	42	0	2500853760	54	6291
2026-01-22 13:57:47.22	176.14	3.96	-40.5	-41.7	20.0	0.00e+00	122	41	0	2513436672	54	6057
2026-01-22 13:57:51.26	176.31	3.69	-41.2	-42.5	19.1	0.00e+00	122	42	0	2526019584	54	6647
2026-01-22 13:57:55.30	176.47	3.43	-41.5	-42.9	18.7	0.00e+00	123	42	0	2538602496	54	6884
2026-01-22 13:57:59.33	176.63	3.17	-41.3	-42.6	19.0	0.00e+00	123	42	0	2551185408	56	5958
2026-01-22 13:58:03.37	176.79	2.91	-50.4	-63.3	3.5	1.52e+00	0	42	104	2557476864	60	51217
2026-01-22 13:58:07.41	176.95	2.65	-50.9	-63.7	3.5	1.52e+00	0	42	104	2557476864	60	53839
2026-01-22 13:58:11.44	177.11	2.40	-51.0	-63.9	3.5	1.51e+00	0	42	104	2557476864	60	55265
2026-01-22 13:58:15.48	177.26	2.15	-51.1	-63.9	3.5	1.52e+00	0	42	104	2557476864	60	55104
2026-01-22 13:58:19.52	177.41	1.90	-51.0	-63.9	3.5	1.52e+00	0	42	104	2557476864	60	54936
2026-01-22 13:58:23.56	177.56	1.65	-51.0	-63.9	3.5	1.52e+00	0	42	104	2557476864	60	54943
2026-01-22 13:58:27.60	177.71	1.40	-51.1	-64.0	3.5	1.52e+00	0	42	104	2557476864	60	55367
2026-01-22 13:58:31.64	177.85	1.16	-51.1	-64.0	3.5	1.51e+00	0	42	104	2557476864	60	55687
2026-01-22 13:58:35.67	177.99	0.92	-51.1	-64.0	3.5	1.52e+00	0	42	104	2557476864	60	55492
2026-01-22 13:58:39.71	178.13	0.68	-51.1	-64.0	3.5	1.52e+00	0	42	104	2557476864	60	55671
2026-01-22 13:58:43.75	178.27	0.44	-51.1	-64.0	3.5	1.52e+00	0	42	104	2557476864	60	55792
2026-01-22 13:58:47.79	178.40	0.20	-51.1	-64.0	3.5	1.52e+00	0	42	104	2557476864	60	55602
2026-01-22 13:58:51.83	178.54	-0.04	-51.1	-64.0	3.5	1.52e+00	0	42	104	2557476864	60	55405

#Closed at: 2026-01-22 13:58:52
#Recorded file [2557 MB]: D:/lorett/data/35029_260123_014334.dat