passes_logs/2026/01/22/R4.6S_Anadyr/R4.6S_Anadyr__20260122_143356_NOAA_20_JPSS-1_rec.log

#Pass ID: 20260122_143356_NOAA 20 (JPSS-1)
#Satellite: NOAA 20 (JPSS-1)
#Configuration: NOAA 20
#almurnet v.1.7.20251203
#Start time: 2026-01-22 14:33:58

#Version: 2.2.20231116
#Station: R4.6S_Anadyr
#Location: 177.4865 lon 64.73178 lat
#TLE: 1 43013U 17073A   26021.46221703  .00000173  00000+0  10299-3 0  9999
#TLE: 2 43013  98.7644 322.3335 0001238  29.7597 330.3649 14.19538314423652

#Time	Az	El	Level	Level2	SNR	BER	BlckErr	Temp	State	Recorded	gain1	gain2
2026-01-22 14:33:58.39	20.21	0.11	-51.1	-66.0	3.5	1.51e+00	0	39	0	0	60	72306
2026-01-22 14:34:02.43	20.24	0.35	-51.0	-66.3	3.6	1.51e+00	0	40	104	0	60	74642
2026-01-22 14:34:06.47	20.28	0.59	-51.1	-66.3	3.6	1.51e+00	0	41	104	0	60	75026
2026-01-22 14:34:10.51	20.32	0.84	-51.0	-66.3	3.6	1.51e+00	0	41	104	0	60	74327
2026-01-22 14:34:14.56	20.36	1.09	-50.8	-66.0	3.6	1.51e+00	0	41	104	0	60	71991
2026-01-22 14:34:18.60	20.40	1.34	-50.3	-65.6	3.6	1.51e+00	0	40	104	0	60	68634
2026-01-22 14:34:22.64	20.44	1.59	-49.6	-64.7	3.6	1.51e+00	0	41	104	0	60	62005
2026-01-22 14:34:26.68	20.48	1.84	-49.6	-64.8	3.6	1.51e+00	0	41	104	0	60	62853
2026-01-22 14:34:30.72	20.52	2.10	-49.6	-64.8	3.6	1.51e+00	0	41	104	0	60	62956
2026-01-22 14:34:34.76	20.56	2.36	-49.6	-64.2	3.6	1.51e+00	0	41	104	0	60	58430
2026-01-22 14:34:38.80	20.60	2.62	-49.5	-63.2	3.6	1.51e+00	0	41	104	0	60	52076
2026-01-22 14:34:42.84	20.64	2.88	-49.5	-62.7	3.6	1.51e+00	0	41	104	0	60	49424
2026-01-22 14:34:46.88	20.68	3.15	-48.7	-55.1	7.8	1.77e-01	90	41	0	5242880	60	20601
2026-01-22 14:34:50.92	20.72	3.42	-48.1	-53.2	10.2	7.57e-03	5	41	0	12582912	60	16590
2026-01-22 14:34:54.96	20.76	3.69	-48.9	-56.1	6.7	7.34e-02	0	41	0	19922944	60	23171
2026-01-22 14:34:59.00	20.80	3.96	-49.5	-64.2	3.5	7.07e-01	0	41	104	27262976	60	58837
2026-01-22 14:35:03.04	20.85	4.24	-46.8	-50.1	14.3	3.80e-06	91	41	0	27262976	60	11591
2026-01-22 14:35:07.08	20.89	4.52	-44.2	-46.0	18.1	0.00e+00	0	41	0	35651584	60	7203
2026-01-22 14:35:11.12	20.93	4.80	-43.3	-44.8	19.3	0.00e+00	0	41	0	42991616	60	6276
2026-01-22 14:35:15.16	20.98	5.09	-43.3	-44.9	19.2	0.00e+00	86	41	0	50331648	60	6325
2026-01-22 14:35:19.20	21.02	5.38	-43.4	-44.9	19.2	0.00e+00	84	41	0	57671680	60	6371
2026-01-22 14:35:23.24	21.07	5.67	-43.2	-44.7	19.6	0.00e+00	0	41	0	66060288	60	6185
2026-01-22 14:35:27.27	21.11	5.97	-42.9	-44.3	19.9	0.00e+00	0	41	0	73400320	58	6655
2026-01-22 14:35:31.31	21.16	6.27	-42.7	-44.1	20.2	0.00e+00	92	41	0	80740352	58	6467
2026-01-22 14:35:35.35	21.21	6.57	-42.7	-44.1	20.2	0.00e+00	82	41	0	88080384	58	6475
2026-01-22 14:35:39.38	21.26	6.87	-42.6	-43.9	20.4	0.00e+00	0	41	0	95420416	58	6341
2026-01-22 14:35:43.42	21.30	7.18	-43.0	-44.3	19.9	0.00e+00	0	41	0	103809024	58	6689
2026-01-22 14:35:47.46	21.35	7.50	-42.3	-43.5	20.8	0.00e+00	90	41	0	111149056	58	6081
2026-01-22 14:35:51.49	21.40	7.81	-42.1	-43.3	20.9	0.00e+00	0	41	0	118489088	58	5939
2026-01-22 14:35:55.53	21.45	8.13	-42.2	-43.5	20.9	0.00e+00	0	41	0	125829120	58	6049
2026-01-22 14:35:59.57	21.51	8.46	-42.1	-43.4	21.0	0.00e+00	0	41	0	134217728	58	5965
2026-01-22 14:36:03.61	21.56	8.79	-42.1	-43.3	21.1	0.00e+00	90	41	0	141557760	58	5964
2026-01-22 14:36:07.64	21.61	9.12	-41.7	-42.9	21.5	0.00e+00	0	41	0	148897792	58	5661
2026-01-22 14:36:11.68	21.66	9.46	-41.7	-42.8	21.5	0.00e+00	0	41	0	156237824	56	6279
2026-01-22 14:36:15.72	21.72	9.81	-41.7	-42.9	21.6	0.00e+00	0	41	0	163577856	56	6321
2026-01-22 14:36:19.76	21.77	10.15	-41.6	-42.7	21.8	0.00e+00	92	41	0	171966464	56	6188
2026-01-22 14:36:23.80	21.83	10.51	-41.4	-42.5	22.0	0.00e+00	81	41	0	179306496	56	6035
2026-01-22 14:36:27.84	21.89	10.87	-41.5	-42.6	22.0	0.00e+00	0	41	0	186646528	56	6109
2026-01-22 14:36:31.83	21.94	11.22	-41.2	-42.2	22.3	0.00e+00	2	41	0	193986560	56	5861
2026-01-22 14:36:35.87	22.00	11.59	-41.1	-42.1	22.3	0.00e+00	92	41	0	201326592	56	5814
2026-01-22 14:36:39.91	22.06	11.97	-41.1	-42.2	22.3	0.00e+00	7	41	0	208666624	56	5844
2026-01-22 14:36:43.95	22.12	12.35	-40.9	-41.9	22.6	0.00e+00	80	41	0	217055232	56	5660
2026-01-22 14:36:47.99	22.19	12.73	-40.9	-42.0	22.6	0.00e+00	0	41	0	224395264	56	5698
2026-01-22 14:36:52.03	22.25	13.13	-40.9	-41.9	22.6	0.00e+00	92	41	0	231735296	56	5654
2026-01-22 14:36:56.06	22.31	13.53	-40.8	-41.8	22.6	0.00e+00	0	41	0	239075328	54	6276
2026-01-22 14:37:00.10	22.38	13.93	-40.6	-41.5	22.9	0.00e+00	0	41	0	246415360	54	6098
2026-01-22 14:37:04.14	22.45	14.34	-40.5	-41.4	23.0	0.00e+00	0	41	0	254803968	54	6019
2026-01-22 14:37:08.17	22.52	14.76	-40.5	-41.5	23.0	0.00e+00	92	41	0	262144000	54	6043
2026-01-22 14:37:12.22	22.59	15.19	-40.5	-41.5	23.0	0.00e+00	81	41	0	269484032	54	6077
2026-01-22 14:37:16.26	22.66	15.63	-40.6	-41.5	23.0	0.00e+00	0	41	0	276824064	54	6083
2026-01-22 14:37:20.30	22.73	16.07	-40.4	-41.4	23.1	0.00e+00	0	41	0	284164096	54	5977
2026-01-22 14:37:24.33	22.81	16.52	-40.6	-41.6	22.9	0.00e+00	92	41	0	292552704	54	6143
2026-01-22 14:37:28.37	22.89	16.98	-40.6	-41.6	23.0	0.00e+00	78	41	0	299892736	54	6111
2026-01-22 14:37:32.41	22.96	17.45	-40.6	-41.6	22.9	0.00e+00	79	41	0	307232768	54	6149
2026-01-22 14:37:36.45	23.05	17.92	-40.8	-41.8	22.8	0.00e+00	81	41	0	314572800	54	6251
2026-01-22 14:37:40.48	23.13	18.41	-40.9	-41.8	22.7	0.00e+00	92	41	0	322961408	54	6314
2026-01-22 14:37:44.53	23.21	18.91	-40.9	-41.9	22.7	0.00e+00	0	41	0	330301440	54	6371
2026-01-22 14:37:48.56	23.30	19.41	-41.1	-42.1	22.5	0.00e+00	80	41	0	337641472	54	6493
2026-01-22 14:37:52.60	23.39	19.93	-41.2	-42.2	22.4	0.00e+00	92	41	0	344981504	54	6547
2026-01-22 14:37:56.64	23.48	20.46	-41.2	-42.2	22.5	0.00e+00	92	41	0	352321536	54	6579
2026-01-22 14:38:00.68	23.58	20.99	-41.3	-42.4	22.3	0.00e+00	7	41	0	360710144	54	6695
2026-01-22 14:38:04.72	23.67	21.55	-41.5	-42.5	22.2	0.00e+00	1	41	0	368050176	54	6848
2026-01-22 14:38:08.75	23.78	22.11	-41.7	-42.8	22.0	0.00e+00	91	41	0	375390208	54	7033
2026-01-22 14:38:12.79	23.88	22.68	-41.8	-42.9	21.9	0.00e+00	83	41	0	382730240	56	6358
2026-01-22 14:38:16.83	23.99	23.27	-41.8	-42.9	22.0	0.00e+00	83	41	0	391118848	56	6332
2026-01-22 14:38:20.87	24.10	23.88	-41.7	-42.7	22.1	0.00e+00	6	41	0	398458880	56	6238
2026-01-22 14:38:24.90	24.21	24.49	-41.5	-42.5	22.3	0.00e+00	92	41	0	405798912	56	6092
2026-01-22 14:38:28.94	24.33	25.12	-41.6	-42.7	22.1	0.00e+00	3	41	0	413138944	56	6184
2026-01-22 14:38:32.98	24.45	25.77	-41.5	-42.5	22.4	0.00e+00	77	41	0	420478976	56	6057
2026-01-22 14:38:37.01	24.58	26.43	-41.2	-42.2	22.6	0.00e+00	0	41	0	428867584	56	5877
2026-01-22 14:38:41.06	24.71	27.11	-41.3	-42.3	22.6	0.00e+00	92	41	0	436207616	56	5956
2026-01-22 14:38:45.10	24.85	27.81	-41.4	-42.4	22.4	0.00e+00	4	41	0	443547648	56	6029
2026-01-22 14:38:49.14	24.99	28.53	-41.9	-43.0	22.0	0.00e+00	3	41	0	450887680	56	6409
2026-01-22 14:38:53.18	25.14	29.26	-42.0	-43.1	21.8	0.00e+00	61	41	0	459276288	56	6509
2026-01-22 14:38:57.22	25.29	30.01	-42.8	-44.0	21.0	0.00e+00	91	41	0	466616320	58	6405
2026-01-22 14:39:01.26	25.45	30.79	-42.8	-44.0	21.1	0.00e+00	2	41	0	473956352	58	6424
2026-01-22 14:39:05.30	25.62	31.58	-42.9	-44.1	21.0	0.00e+00	2	41	0	481296384	58	6539
2026-01-22 14:39:09.33	25.79	32.40	-42.8	-44.0	21.0	0.00e+00	7	41	0	488636416	58	6426
2026-01-22 14:39:13.37	25.98	33.24	-42.3	-43.4	21.6	0.00e+00	92	41	0	497025024	58	6018
2026-01-22 14:39:17.42	26.17	34.10	-41.8	-42.9	22.1	0.00e+00	0	41	0	504365056	56	6344
2026-01-22 14:39:21.46	26.37	34.99	-40.7	-41.6	23.2	0.00e+00	2	41	0	511705088	54	6134
2026-01-22 14:39:25.50	26.58	35.90	-40.4	-41.3	23.5	0.00e+00	92	41	0	519045120	54	5940
2026-01-22 14:39:29.54	26.81	36.84	-40.4	-41.3	23.4	0.00e+00	4	41	0	527433728	54	5964
2026-01-22 14:39:33.58	27.05	37.81	-40.1	-41.0	23.8	0.00e+00	76	41	0	534773760	54	5716
2026-01-22 14:39:37.61	27.30	38.80	-40.4	-41.3	23.5	0.00e+00	77	41	0	542113792	54	5948
2026-01-22 14:39:41.65	27.56	39.83	-41.1	-42.1	22.7	0.00e+00	92	41	0	549453824	54	6511
2026-01-22 14:39:45.68	27.84	40.88	-41.7	-42.8	22.0	0.00e+00	7	41	0	556793856	54	7047
2026-01-22 14:39:49.73	28.14	41.97	-41.8	-42.9	22.1	0.00e+00	5	41	0	565182464	56	6358
2026-01-22 14:39:53.77	28.46	43.09	-41.3	-42.2	22.7	0.00e+00	1	41	0	572522496	56	5891
2026-01-22 14:39:57.81	28.81	44.24	-41.1	-42.1	22.8	0.00e+00	91	41	0	579862528	56	5799
2026-01-22 14:40:01.84	29.17	45.42	-42.6	-43.7	21.3	0.00e+00	0	41	0	587202560	56	6975
2026-01-22 14:40:05.88	29.57	46.64	-43.0	-44.3	20.9	0.00e+00	6	41	0	595591168	58	6640
2026-01-22 14:40:09.92	29.99	47.89	-42.5	-43.7	21.6	0.00e+00	5	41	0	602931200	58	6188
2026-01-22 14:40:13.96	30.45	49.19	-42.0	-43.1	21.9	0.00e+00	92	41	0	610271232	58	5813
2026-01-22 14:40:18.00	30.95	50.51	-40.6	-41.5	23.4	0.00e+00	0	41	0	617611264	54	6088
2026-01-22 14:40:22.04	31.50	51.88	-38.6	-39.4	25.1	0.00e+00	80	41	0	624951296	50	6001
2026-01-22 14:40:26.08	32.10	53.28	-37.3	-38.0	26.2	0.00e+00	0	41	0	633339904	48	5740
2026-01-22 14:40:30.11	32.75	54.72	-37.3	-38.1	26.1	0.00e+00	92	41	0	640679936	48	5770
2026-01-22 14:40:34.15	33.48	56.19	-38.0	-38.7	25.7	0.00e+00	6	41	0	648019968	48	6217
2026-01-22 14:40:38.19	34.29	57.71	-38.8	-39.6	25.0	0.00e+00	6	41	0	655360000	50	6155
2026-01-22 14:40:42.23	35.19	59.25	-38.8	-39.6	24.9	0.00e+00	0	41	0	663748608	50	6163
2026-01-22 14:40:46.27	36.20	60.83	-38.3	-39.0	25.4	0.00e+00	91	41	0	671088640	50	5749
2026-01-22 14:40:50.31	37.35	62.44	-38.0	-38.8	25.6	0.00e+00	0	41	0	678428672	48	6274
2026-01-22 14:40:54.36	38.67	64.09	-39.1	-39.9	24.6	0.00e+00	72	41	0	685768704	50	6342
2026-01-22 14:40:58.39	40.18	65.74	-40.5	-41.4	23.4	0.00e+00	90	41	0	693108736	52	6728
2026-01-22 14:41:02.43	41.93	67.42	-41.5	-42.6	22.3	0.00e+00	91	41	0	701497344	54	6901
2026-01-22 14:41:06.47	44.00	69.11	-40.5	-41.5	22.9	0.00e+00	0	41	0	708837376	54	6049
2026-01-22 14:41:10.51	46.46	70.81	-40.7	-41.7	23.2	0.00e+00	0	41	0	716177408	54	6188
2026-01-22 14:41:14.55	49.42	72.49	-41.6	-42.7	22.3	0.00e+00	90	41	0	723517440	56	6175
2026-01-22 14:41:18.59	53.04	74.14	-43.9	-45.3	19.9	0.00e+00	81	41	0	731906048	60	6682
2026-01-22 14:41:22.62	57.52	75.74	-42.7	-43.9	21.1	0.00e+00	0	41	0	739246080	58	6373
2026-01-22 14:41:26.66	63.14	77.25	-44.9	-46.6	18.7	0.00e+00	0	41	0	746586112	60	7707
2026-01-22 14:41:30.70	70.23	78.63	-41.5	-42.5	22.4	0.00e+00	92	41	0	753926144	56	6067
2026-01-22 14:41:34.73	79.13	79.79	-40.8	-41.8	23.3	0.00e+00	7	41	0	761266176	56	5576
2026-01-22 14:41:38.77	90.06	80.67	-40.7	-41.7	23.0	0.00e+00	80	41	0	769654784	54	6190
2026-01-22 14:41:42.81	102.73	81.16	-41.1	-42.1	22.8	0.00e+00	0	41	0	776994816	54	6514
2026-01-22 14:41:46.85	116.15	81.18	-41.8	-42.9	21.9	0.00e+00	91	41	0	784334848	56	6337
2026-01-22 14:41:50.88	128.93	80.74	-40.7	-41.6	23.2	0.00e+00	0	41	0	791674880	54	6124
2026-01-22 14:41:54.92	140.07	79.90	-40.2	-41.1	23.7	0.00e+00	8	41	0	800063488	52	6500
2026-01-22 14:41:58.96	149.21	78.76	-40.4	-41.4	23.4	0.00e+00	77	41	0	807403520	52	6705
2026-01-22 14:42:03.00	156.48	77.40	-41.4	-42.4	22.6	0.00e+00	92	41	0	814743552	56	6003
2026-01-22 14:42:07.04	162.24	75.90	-42.2	-43.3	21.5	0.00e+00	74	41	0	822083584	56	6623
2026-01-22 14:42:11.08	166.83	74.30	-43.3	-44.6	20.5	0.00e+00	0	41	0	829423616	60	6134
2026-01-22 14:42:15.12	170.53	72.65	-42.4	-43.6	21.5	0.00e+00	2	41	0	837812224	58	6108
2026-01-22 14:42:19.16	173.56	70.97	-41.5	-42.5	22.4	0.00e+00	91	41	0	845152256	54	6815
2026-01-22 14:42:23.20	176.06	69.27	-42.4	-43.6	21.2	0.00e+00	0	41	0	852492288	56	6894
2026-01-22 14:42:27.24	178.16	67.58	-42.0	-43.0	21.6	0.00e+00	0	41	0	859832320	58	5749
2026-01-22 14:42:31.28	179.95	65.89	-41.2	-42.2	22.8	0.00e+00	80	41	0	868220928	56	5838
2026-01-22 14:42:35.31	181.48	64.23	-41.7	-42.8	22.1	0.00e+00	0	41	0	875560960	56	6308
2026-01-22 14:42:39.35	182.81	62.59	-39.9	-40.8	23.8	0.00e+00	8	41	0	882900992	52	6300
2026-01-22 14:42:43.38	183.98	60.97	-39.5	-40.4	24.3	0.00e+00	0	41	0	890241024	52	5968
2026-01-22 14:42:47.42	185.00	59.39	-42.6	-43.8	21.3	0.00e+00	92	41	0	897581056	56	7025
2026-01-22 14:42:51.46	185.92	57.83	-42.2	-43.4	21.6	0.00e+00	0	41	0	905969664	56	6693
2026-01-22 14:42:55.50	186.73	56.31	-40.6	-41.6	23.2	0.00e+00	2	41	0	913309696	54	6119
2026-01-22 14:42:59.54	187.46	54.83	-39.1	-40.0	24.6	0.00e+00	0	41	0	920649728	52	5712
2026-01-22 14:43:03.58	188.13	53.38	-39.6	-40.5	24.1	0.00e+00	92	41	0	927989760	52	6044
2026-01-22 14:43:07.62	188.73	51.97	-40.5	-41.4	23.1	0.00e+00	0	41	0	936378368	52	6761
2026-01-22 14:43:11.67	189.28	50.59	-45.3	-47.2	18.1	0.00e+00	0	41	0	943718400	60	8303
2026-01-22 14:43:15.70	189.79	49.26	-44.2	-45.7	19.4	0.00e+00	0	41	0	951058432	60	6989
2026-01-22 14:43:19.74	190.25	47.96	-47.9	-51.7	13.4	1.29e-05	90	41	0	958398464	60	13834
2026-01-22 14:43:23.78	190.68	46.70	-41.7	-42.8	22.3	0.00e+00	84	41	0	965738496	58	5568
2026-01-22 14:43:27.82	191.08	45.47	-41.2	-42.2	22.6	0.00e+00	0	41	0	974127104	54	6554
2026-01-22 14:43:31.86	191.44	44.28	-41.2	-42.2	22.6	0.00e+00	0	41	0	981467136	54	6556
2026-01-22 14:43:35.89	191.79	43.12	-39.6	-40.4	24.4	0.00e+00	92	41	0	988807168	52	5986
2026-01-22 14:43:39.93	192.11	42.00	-39.8	-40.7	23.9	0.00e+00	8	41	0	996147200	50	6946
2026-01-22 14:43:43.97	192.41	40.91	-41.8	-43.0	22.1	0.00e+00	0	41	0	1004535808	56	6396
2026-01-22 14:43:48.01	192.69	39.85	-39.9	-40.8	23.8	0.00e+00	0	41	0	1011875840	54	5598
2026-01-22 14:43:52.05	192.96	38.82	-42.0	-43.2	21.7	0.00e+00	90	41	0	1019215872	56	6548
2026-01-22 14:43:56.08	193.21	37.82	-45.4	-47.4	17.7	0.00e+00	0	41	0	1026555904	60	8439
2026-01-22 14:44:00.12	193.45	36.84	-43.3	-44.7	20.4	0.00e+00	4	41	0	1033895936	60	6188
2026-01-22 14:44:04.16	193.67	35.90	-40.9	-41.8	23.0	0.00e+00	3	41	0	1042284544	56	5614
2026-01-22 14:44:08.20	193.88	34.98	-42.7	-43.8	21.1	0.00e+00	91	41	0	1049624576	56	7085
2026-01-22 14:44:12.24	194.09	34.09	-46.6	-49.1	15.9	0.00e+00	0	41	0	1056964608	60	10336
2026-01-22 14:44:16.28	194.28	33.22	-45.6	-47.6	17.5	0.00e+00	0	41	0	1064304640	60	8684
2026-01-22 14:44:20.31	194.46	32.38	-43.3	-44.6	20.5	0.00e+00	89	41	0	1072693248	60	6127
2026-01-22 14:44:24.35	194.64	31.56	-43.5	-44.8	20.2	0.00e+00	77	41	0	1080033280	60	6290
2026-01-22 14:44:28.39	194.80	30.76	-43.6	-45.0	20.0	0.00e+00	3	41	0	1087373312	60	6429
2026-01-22 14:44:32.43	194.96	29.98	-43.5	-44.9	20.1	0.00e+00	0	41	0	1094713344	60	6344
2026-01-22 14:44:36.46	195.11	29.22	-43.1	-44.4	20.6	0.00e+00	92	41	0	1102053376	60	6003
2026-01-22 14:44:40.50	195.26	28.49	-42.3	-43.5	21.4	0.00e+00	0	41	0	1110441984	58	6054
2026-01-22 14:44:44.54	195.40	27.77	-41.3	-42.3	22.5	0.00e+00	0	41	0	1117782016	56	5943
2026-01-22 14:44:48.58	195.54	27.07	-40.3	-41.2	23.4	0.00e+00	0	41	0	1125122048	54	5891
2026-01-22 14:44:52.62	195.67	26.38	-40.4	-41.3	23.3	0.00e+00	92	41	0	1132462080	54	5939
2026-01-22 14:44:56.66	195.79	25.71	-40.6	-41.6	23.1	0.00e+00	5	41	0	1140850688	54	6124
2026-01-22 14:45:00.70	195.91	25.06	-40.4	-41.3	23.3	0.00e+00	0	41	0	1148190720	54	5924
2026-01-22 14:45:04.74	196.03	24.43	-40.1	-41.0	23.6	0.00e+00	0	41	0	1155530752	54	5705
2026-01-22 14:45:08.78	196.14	23.81	-39.3	-40.1	24.3	0.00e+00	92	41	0	1162870784	52	5818
2026-01-22 14:45:12.82	196.25	23.20	-39.1	-40.0	24.5	0.00e+00	84	41	0	1170210816	52	5701
2026-01-22 14:45:16.86	196.36	22.61	-39.2	-40.0	24.4	0.00e+00	8	41	0	1178599424	52	5753
2026-01-22 14:45:20.89	196.46	22.03	-39.5	-40.3	24.2	0.00e+00	4	41	0	1185939456	52	5941
2026-01-22 14:45:24.93	196.56	21.47	-39.9	-40.8	23.7	0.00e+00	92	41	0	1193279488	52	6274
2026-01-22 14:45:28.97	196.66	20.91	-39.9	-40.8	23.7	0.00e+00	0	41	0	1200619520	52	6282
2026-01-22 14:45:33.01	196.75	20.37	-40.3	-41.2	23.4	0.00e+00	0	41	0	1209008128	52	6596
2026-01-22 14:45:37.05	196.84	19.84	-40.4	-41.3	23.2	0.00e+00	82	41	0	1216348160	52	6651
2026-01-22 14:45:41.08	196.93	19.32	-40.3	-41.2	23.3	0.00e+00	92	41	0	1223688192	52	6601
2026-01-22 14:45:45.12	197.01	18.81	-40.4	-41.4	23.2	0.00e+00	0	41	0	1231028224	52	6720
2026-01-22 14:45:49.16	197.09	18.32	-40.5	-41.5	23.1	0.00e+00	81	41	0	1238368256	52	6804
2026-01-22 14:45:53.20	197.18	17.83	-40.6	-41.6	23.0	0.00e+00	88	41	0	1246756864	52	6876
2026-01-22 14:45:57.23	197.25	17.35	-40.7	-41.7	22.9	0.00e+00	92	41	0	1254096896	52	6980
2026-01-22 14:46:01.27	197.33	16.88	-40.6	-41.6	22.9	0.00e+00	0	41	0	1261436928	54	6149
2026-01-22 14:46:05.31	197.41	16.42	-40.7	-41.7	22.8	0.00e+00	0	41	0	1268776960	54	6179
2026-01-22 14:46:09.35	197.48	15.97	-40.2	-41.4	23.0	0.00e+00	91	41	0	1277165568	54	6000
2026-01-22 14:46:13.39	197.55	15.52	-40.4	-41.3	23.2	0.00e+00	44	41	0	1284505600	54	5945
2026-01-22 14:46:17.42	197.62	15.09	-40.2	-41.2	23.3	0.00e+00	82	41	0	1291845632	54	5834
2026-01-22 14:46:21.46	197.69	14.66	-40.4	-41.3	23.2	0.00e+00	0	41	0	1299185664	54	5922
2026-01-22 14:46:25.49	197.75	14.24	-40.4	-41.3	23.1	0.00e+00	92	41	0	1306525696	54	5929
2026-01-22 14:46:29.53	197.82	13.82	-40.5	-41.4	23.1	0.00e+00	2	41	0	1314914304	54	6016
2026-01-22 14:46:33.57	197.88	13.42	-40.6	-41.5	23.0	0.00e+00	81	41	0	1322254336	54	6073
2026-01-22 14:46:37.61	197.94	13.01	-40.8	-41.8	22.6	0.00e+00	81	41	0	1329594368	54	6312
2026-01-22 14:46:41.64	198.00	12.62	-40.9	-42.0	22.5	0.00e+00	92	41	0	1336934400	54	6399
2026-01-22 14:46:45.68	198.06	12.23	-41.0	-42.0	22.4	0.00e+00	6	41	0	1344274432	54	6457
2026-01-22 14:46:49.72	198.12	11.85	-41.1	-42.2	22.4	0.00e+00	0	41	0	1352663040	54	6542
2026-01-22 14:46:53.76	198.18	11.48	-41.3	-42.3	22.2	0.00e+00	58	41	0	1360003072	54	6675
2026-01-22 14:46:57.80	198.24	11.11	-41.2	-42.2	22.2	0.00e+00	92	41	0	1367343104	54	6608
2026-01-22 14:47:01.83	198.29	10.74	-41.3	-42.4	22.1	0.00e+00	0	41	0	1374683136	54	6710
2026-01-22 14:47:05.87	198.35	10.38	-41.4	-42.4	22.0	0.00e+00	0	41	0	1383071744	54	6754
2026-01-22 14:47:09.91	198.40	10.03	-41.2	-42.3	22.2	0.00e+00	0	42	0	1390411776	54	6623
2026-01-22 14:47:13.95	198.45	9.68	-41.3	-42.3	22.1	0.00e+00	91	41	0	1397751808	54	6668
2026-01-22 14:47:17.99	198.50	9.33	-41.2	-42.2	21.9	0.00e+00	0	41	0	1405091840	54	6605
2026-01-22 14:47:22.03	198.55	8.99	-41.3	-42.4	21.9	0.00e+00	81	42	0	1412431872	54	6742
2026-01-22 14:47:26.06	198.60	8.66	-41.3	-42.4	22.0	0.00e+00	70	41	0	1420820480	54	6723
2026-01-22 14:47:30.10	198.65	8.33	-41.5	-42.6	21.8	0.00e+00	71	42	0	1428160512	54	6907
2026-01-22 14:47:34.14	198.70	8.00	-41.3	-42.4	22.0	0.00e+00	0	42	0	1435500544	54	6700
2026-01-22 14:47:38.17	198.75	7.68	-41.5	-42.6	21.8	0.00e+00	81	41	0	1442840576	54	6874
2026-01-22 14:47:42.21	198.79	7.36	-41.6	-42.8	21.6	0.00e+00	91	42	0	1451229184	54	7022
2026-01-22 14:47:46.25	198.84	7.05	-41.9	-43.1	21.3	0.00e+00	1	42	0	1458569216	56	6476
2026-01-22 14:47:50.28	198.88	6.74	-41.7	-42.8	21.5	0.00e+00	0	42	0	1465909248	56	6273
2026-01-22 14:47:54.32	198.93	6.43	-41.9	-43.1	21.1	0.00e+00	2	42	0	1473249280	56	6512
2026-01-22 14:47:58.36	198.97	6.13	-42.1	-43.3	21.0	0.00e+00	90	42	0	1480589312	56	6624
2026-01-22 14:48:02.40	199.01	5.83	-42.2	-43.4	20.8	0.00e+00	2	42	0	1488977920	56	6766
2026-01-22 14:48:06.44	199.06	5.53	-42.1	-43.3	20.7	0.00e+00	81	42	0	1496317952	56	6668
2026-01-22 14:48:10.47	199.10	5.24	-42.2	-43.4	20.6	0.00e+00	2	42	0	1503657984	56	6713
2026-01-22 14:48:14.51	199.14	4.95	-42.6	-43.9	20.2	0.00e+00	92	42	0	1510998016	56	7152
2026-01-22 14:48:18.55	199.18	4.66	-42.7	-44.1	19.8	0.00e+00	0	42	0	1519386624	56	7258
2026-01-22 14:48:22.59	199.22	4.38	-42.8	-44.2	19.6	0.00e+00	0	42	0	1526726656	58	6541
2026-01-22 14:48:26.63	199.26	4.10	-43.0	-44.4	19.6	0.00e+00	0	42	0	1534066688	58	6746
2026-01-22 14:48:30.66	199.30	3.82	-42.7	-44.1	19.8	0.00e+00	90	42	0	1541406720	58	6497
2026-01-22 14:48:34.70	199.34	3.54	-43.1	-44.6	19.2	0.00e+00	0	42	0	1548746752	58	6861
2026-01-22 14:48:38.74	199.38	3.27	-42.9	-44.4	19.3	0.00e+00	6	42	0	1557135360	58	6732
2026-01-22 14:48:42.77	199.41	3.00	-49.6	-62.4	3.6	0.00e+00	0	42	104	1564475392	60	47753
2026-01-22 14:48:46.81	199.45	2.74	-50.7	-65.9	3.6	1.51e+00	0	42	104	1564475392	60	71514
2026-01-22 14:48:50.85	199.49	2.47	-50.9	-66.2	3.6	1.51e+00	0	42	104	1564475392	60	73689
2026-01-22 14:48:54.89	199.52	2.21	-50.7	-66.2	3.6	1.51e+00	0	42	104	1564475392	60	74017
2026-01-22 14:48:58.93	199.56	1.95	-51.0	-66.3	3.6	1.51e+00	0	42	104	1564475392	60	74337
2026-01-22 14:49:02.98	199.60	1.69	-51.0	-66.3	3.6	1.51e+00	0	42	104	1564475392	60	74493
2026-01-22 14:49:07.02	199.63	1.44	-51.1	-66.3	3.6	1.51e+00	0	42	104	1564475392	60	74384
2026-01-22 14:49:11.06	199.67	1.18	-51.1	-66.3	3.6	1.51e+00	0	42	104	1564475392	60	74829
2026-01-22 14:49:15.10	199.70	0.93	-51.1	-66.3	3.6	1.51e+00	0	42	104	1564475392	60	74557
2026-01-22 14:49:19.14	199.73	0.68	-51.1	-66.3	3.6	1.51e+00	0	42	104	1564475392	60	74742
2026-01-22 14:49:23.18	199.77	0.44	-51.1	-66.3	3.6	1.51e+00	0	42	104	1564475392	60	75074
2026-01-22 14:49:27.22	199.80	0.19	-51.1	-66.4	3.6	1.51e+00	0	42	104	1564475392	60	75117
2026-01-22 14:49:31.25	199.83	-0.05	-51.1	-66.3	3.6	1.51e+00	0	42	104	1564475392	60	74924

#Closed at: 2026-01-22 14:49:31
#Recorded file [1564 MB]: D:/lorett/data/35029_260123_023358.dat