passes_logs/2026/01/22/R4.6S_Anadyr/R4.6S_Anadyr__20260122_065546_TY-42_rec.log

#Pass ID: 20260122_065546_TY-42
#Satellite: TY-42
#Configuration: TY-42_900M
#almurnet v.1.7.20251203
#Start time: 2026-01-22 06:56:16

#Version: 2.2.20231116
#Station: R4.6S_Anadyr
#Location: 177.4865 lon 64.73178 lat
#TLE: 1 64048U 25103A   26021.88848380  .00008008  00000-0  38191-3 0 09992
#TLE: 2 64048 097.4124 097.1764 0001786 094.9639 294.5154 15.19162210 37869

#Time	Az	El	Level	Level2	SNR	BER	BlckErr	Temp	State	Recorded	gain1	gain2
2026-01-22 06:56:16.89	88.16	1.63	-52.3	-64.0	3.5	8.45e-01	0	38	0	0	60	57429
2026-01-22 06:56:19.92	87.82	1.79	-48.4	-51.0	6.1	0.00e+00	0	39	104	0	60	43442
2026-01-22 06:56:22.95	87.48	1.96	-48.4	-51.0	6.1	0.00e+00	0	39	104	0	60	43469
2026-01-22 06:56:25.98	87.13	2.12	-48.2	-50.8	6.1	0.00e+00	0	40	104	0	60	42660
2026-01-22 06:56:29.02	86.77	2.29	-48.3	-51.0	6.1	0.00e+00	0	40	104	0	60	43401
2026-01-22 06:56:32.04	86.42	2.45	-48.2	-50.9	6.1	0.00e+00	0	40	104	0	60	42728
2026-01-22 06:56:35.08	86.05	2.62	-48.3	-51.0	6.1	0.00e+00	0	40	104	0	60	43265
2026-01-22 06:56:38.11	85.68	2.78	-48.2	-50.8	6.1	0.00e+00	0	40	104	0	60	42698
2026-01-22 06:56:41.14	85.30	2.95	-48.2	-50.9	6.1	0.00e+00	0	40	104	0	60	42929
2026-01-22 06:56:44.17	84.92	3.12	-48.3	-51.0	6.1	0.00e+00	0	40	104	0	60	43420
2026-01-22 06:56:47.20	84.54	3.29	-48.8	-51.4	6.1	0.00e+00	0	40	104	0	60	45722
2026-01-22 06:56:50.23	84.14	3.45	-48.4	-51.1	6.1	0.00e+00	0	40	104	0	60	43755
2026-01-22 06:56:53.26	83.74	3.62	-48.8	-51.4	6.1	0.00e+00	0	40	104	0	60	45281
2026-01-22 06:56:56.28	83.34	3.79	-49.2	-51.8	6.1	0.00e+00	0	40	104	0	60	47483
2026-01-22 06:56:59.31	82.93	3.96	-49.2	-51.8	6.1	0.00e+00	0	41	104	0	60	47610
2026-01-22 06:57:02.34	82.51	4.13	-49.2	-51.7	6.1	0.00e+00	0	41	104	0	60	47279
2026-01-22 06:57:05.36	82.09	4.30	-48.7	-51.3	6.1	0.00e+00	0	41	104	0	60	44998
2026-01-22 06:57:08.39	81.66	4.47	-48.8	-51.5	6.1	0.00e+00	0	41	104	0	60	45971
2026-01-22 06:57:11.41	81.23	4.64	-48.8	-51.5	6.1	0.00e+00	0	41	104	0	60	45846
2026-01-22 06:57:14.44	80.79	4.81	-49.2	-51.8	6.1	0.00e+00	0	41	104	0	60	47648
2026-01-22 06:57:17.47	80.34	4.97	-49.9	-52.5	6.1	0.00e+00	0	41	104	0	60	51629
2026-01-22 06:57:20.50	79.88	5.14	-49.9	-52.4	6.1	0.00e+00	0	41	104	0	60	51247
2026-01-22 06:57:23.53	79.42	5.31	-49.8	-52.4	6.1	0.00e+00	0	41	104	0	60	51080
2026-01-22 06:57:26.56	78.95	5.48	-49.9	-52.5	6.1	0.00e+00	0	41	104	0	60	51448
2026-01-22 06:57:29.59	78.47	5.65	-50.2	-52.8	6.1	0.00e+00	0	41	104	0	60	53349
2026-01-22 06:57:32.61	77.99	5.82	-31.9	-32.4	15.3	1.34e-02	0	42	0	159383552	40	16139
2026-01-22 06:57:35.64	77.50	5.99	-31.7	-32.2	15.3	3.13e-03	0	42	0	503316480	38	17614
2026-01-22 06:57:38.67	77.00	6.16	-31.7	-32.2	15.1	3.61e-03	0	42	0	838860800	38	17683
2026-01-22 06:57:41.71	76.50	6.33	-32.5	-32.9	14.6	5.43e-03	0	42	0	1182793728	38	19286
2026-01-22 06:57:44.74	75.98	6.50	-32.2	-32.6	15.4	1.18e-02	0	42	0	1526726656	40	16537
2026-01-22 06:57:47.77	75.46	6.67	-31.9	-32.4	15.6	4.72e-03	0	42	0	1862270976	36	20260
2026-01-22 06:57:50.79	74.94	6.83	-31.5	-32.0	15.6	2.19e-03	0	42	0	2206203904	38	17271
2026-01-22 06:57:53.82	74.40	7.00	-32.0	-32.4	15.2	1.52e-03	0	42	0	2550136832	38	18207
2026-01-22 06:57:56.85	73.86	7.17	-31.1	-31.5	15.6	1.67e-03	0	42	0	2885681152	36	18384
2026-01-22 06:57:59.87	73.31	7.33	-31.5	-31.9	14.9	1.89e-03	0	42	0	3229614080	36	19241
2026-01-22 06:58:02.90	72.75	7.50	-30.3	-30.7	15.6	3.35e-03	0	42	0	3565158400	36	16757
2026-01-22 06:58:05.93	72.18	7.66	-30.6	-31.0	15.4	2.47e-03	0	42	0	3909091328	36	17237
2026-01-22 06:58:08.96	71.61	7.83	-30.2	-30.7	15.9	1.52e-03	0	42	0	4253024256	36	16659
2026-01-22 06:58:11.99	71.02	7.99	-30.2	-30.7	16.3	6.16e-04	0	42	0	4588568576	36	16657
2026-01-22 06:58:15.02	70.43	8.15	-29.4	-29.8	16.5	2.56e-04	0	42	0	4932501504	34	16950
2026-01-22 06:58:18.04	69.83	8.31	-29.1	-29.6	16.6	1.47e-04	0	42	0	5268045824	34	16432
2026-01-22 06:58:21.07	69.23	8.47	-29.6	-30.0	16.2	7.30e-04	0	42	0	5611978752	34	17390
2026-01-22 06:58:24.10	68.61	8.63	-29.0	-29.4	15.3	2.62e-04	0	42	0	5947523072	34	16067
2026-01-22 06:58:27.13	67.98	8.79	-29.5	-29.9	15.3	1.37e-03	0	42	0	6291456000	34	17045
2026-01-22 06:58:30.16	67.35	8.94	-29.9	-30.3	15.2	1.91e-03	0	43	0	6635388928	34	17979
2026-01-22 06:58:33.18	66.71	9.10	-29.3	-29.7	16.3	1.63e-03	0	43	0	6970933248	34	16753
2026-01-22 06:58:36.21	66.06	9.25	-29.5	-29.9	16.5	1.58e-04	0	43	0	7314866176	34	17122
2026-01-22 06:58:39.24	65.40	9.40	-29.4	-29.8	16.3	2.34e-04	0	43	0	7658799104	34	17002
2026-01-22 06:58:42.26	64.74	9.55	-29.2	-29.6	16.6	2.40e-04	0	43	0	7994343424	34	16556
2026-01-22 06:58:45.29	64.07	9.69	-29.1	-29.5	15.7	1.74e-04	0	43	0	8338276352	34	16306
2026-01-22 06:58:48.32	63.38	9.84	-29.6	-30.0	16.4	1.37e-03	0	43	0	8682209280	32	19380
2026-01-22 06:58:51.35	62.69	9.98	-29.2	-29.6	15.4	8.99e-04	0	43	0	9017753600	32	18463
2026-01-22 06:58:54.38	61.99	10.12	-29.0	-29.4	16.3	5.01e-04	0	43	0	9361686528	32	18103
2026-01-22 06:58:57.40	61.29	10.25	-29.2	-29.6	16.6	2.12e-04	0	43	0	9697230848	32	18551
2026-01-22 06:59:00.43	60.57	10.39	-28.6	-29.0	16.7	6.53e-05	0	43	0	10041163776	32	17375
2026-01-22 06:59:03.46	59.85	10.52	-28.4	-28.8	16.7	3.26e-05	0	43	0	10385096704	32	16937
2026-01-22 06:59:06.49	59.11	10.65	-28.8	-29.3	16.5	4.35e-05	0	43	0	10720641024	32	17823
2026-01-22 06:59:09.51	58.38	10.77	-29.0	-29.5	16.5	7.08e-05	0	43	0	11064573952	32	18232
2026-01-22 06:59:12.54	57.63	10.90	-28.4	-28.9	16.5	8.17e-05	0	43	0	11400118272	32	17042
2026-01-22 06:59:15.57	56.87	11.01	-29.2	-29.6	16.4	1.03e-04	0	43	0	11744051200	34	16517
2026-01-22 06:59:18.60	56.11	11.13	-30.1	-30.6	16.0	2.40e-04	0	43	0	12079595520	34	18450
2026-01-22 06:59:21.62	55.35	11.24	-29.0	-29.4	16.5	2.94e-04	0	43	0	12423528448	34	16165
2026-01-22 06:59:24.65	54.57	11.35	-29.5	-29.9	16.3	6.53e-05	0	43	0	12759072768	32	19186
2026-01-22 06:59:27.68	53.79	11.46	-28.5	-28.9	16.5	2.07e-04	0	43	0	13103005696	32	17113
2026-01-22 06:59:30.71	53.00	11.56	-28.7	-29.1	16.5	8.17e-05	0	43	0	13446938624	32	17490
2026-01-22 06:59:33.74	52.20	11.65	-28.7	-29.1	16.4	2.45e-04	0	43	0	13782482944	34	15547
2026-01-22 06:59:36.76	51.40	11.74	-29.7	-30.1	16.2	8.17e-05	0	43	0	14126415872	32	19571
2026-01-22 06:59:39.79	50.59	11.83	-28.7	-29.1	16.4	1.69e-04	0	43	0	14470348800	32	17462
2026-01-22 06:59:42.82	49.78	11.92	-28.2	-28.6	15.9	8.17e-05	0	43	0	14805893120	32	16508
2026-01-22 06:59:45.84	48.96	12.00	-28.5	-28.9	16.3	1.96e-04	0	43	0	15149826048	32	17136
2026-01-22 06:59:48.88	48.13	12.07	-28.7	-29.1	16.3	1.36e-04	0	43	0	15493758976	32	17541
2026-01-22 06:59:51.90	47.30	12.14	-28.5	-28.9	16.3	6.53e-05	0	43	0	15829303296	32	17076
2026-01-22 06:59:54.93	46.47	12.21	-28.8	-29.2	16.2	8.17e-05	0	43	0	16173236224	32	17622
2026-01-22 06:59:57.96	45.63	12.27	-28.6	-29.0	16.2	7.08e-05	0	44	0	16517169152	32	17230
2026-01-22 07:00:00.99	44.79	12.32	-29.0	-29.4	16.1	8.17e-05	0	44	0	16852713472	32	18069
2026-01-22 07:00:04.01	43.94	12.37	-30.0	-30.4	16.1	1.58e-04	0	43	0	17196646400	34	18076
2026-01-22 07:00:07.04	43.09	12.42	-28.8	-29.2	16.1	1.36e-04	0	43	0	17532190720	32	17739
2026-01-22 07:00:10.07	42.24	12.46	-29.0	-29.4	16.1	4.35e-05	0	43	0	17876123648	34	16180
2026-01-22 07:00:13.10	41.39	12.49	-28.7	-29.0	16.1	7.08e-05	0	44	0	18211667968	32	17376
2026-01-22 07:00:16.12	40.53	12.52	-28.8	-29.2	16.0	4.90e-05	0	43	0	18555600896	32	17735
2026-01-22 07:00:19.15	39.67	12.54	-29.0	-29.4	16.0	6.53e-05	0	44	0	18891145216	32	18083
2026-01-22 07:00:22.17	38.82	12.56	-28.6	-28.9	15.9	1.20e-04	0	44	0	19235078144	32	17179
2026-01-22 07:00:25.20	37.95	12.58	-28.5	-28.9	16.2	1.52e-04	0	44	0	19570622464	32	17017
2026-01-22 07:00:28.23	37.09	12.58	-28.9	-29.3	16.1	1.42e-04	0	44	0	19914555392	32	17867
2026-01-22 07:00:31.26	36.23	12.59	-28.6	-29.0	16.4	8.71e-05	0	44	0	20258488320	32	17208
2026-01-22 07:00:34.29	35.37	12.58	-28.9	-29.3	16.3	3.26e-05	0	44	0	20594032640	32	17937
2026-01-22 07:00:37.32	34.51	12.57	-29.1	-29.5	16.3	5.44e-05	0	44	0	20937965568	32	18271
2026-01-22 07:00:40.34	33.65	12.56	-28.9	-29.3	16.3	8.71e-05	0	44	0	21281898496	32	17961
2026-01-22 07:00:43.36	32.79	12.54	-29.4	-29.8	16.3	5.44e-05	0	44	0	21617442816	32	19063
2026-01-22 07:00:46.39	31.93	12.51	-28.9	-29.3	16.5	1.09e-04	0	44	0	21961375744	32	17944
2026-01-22 07:00:49.42	31.08	12.48	-28.9	-29.4	16.4	5.99e-05	0	44	0	22305308672	32	18141
2026-01-22 07:00:52.45	30.22	12.45	-28.5	-28.9	16.6	1.14e-04	0	44	0	22640852992	32	17160
2026-01-22 07:00:55.48	29.37	12.41	-28.8	-29.2	16.5	3.26e-05	0	44	0	22984785920	32	17798
2026-01-22 07:00:58.50	28.53	12.36	-29.4	-29.9	16.3	7.08e-05	0	44	0	23320330240	32	19180
2026-01-22 07:01:01.53	27.68	12.31	-28.7	-29.2	16.5	1.03e-04	0	44	0	23664263168	32	17677
2026-01-22 07:01:04.56	26.84	12.25	-28.5	-29.0	16.5	8.71e-05	0	44	0	24008196096	32	17335
2026-01-22 07:01:07.58	26.01	12.19	-28.4	-28.9	16.6	1.63e-05	0	44	0	24343740416	32	17053
2026-01-22 07:01:10.61	25.17	12.12	-28.9	-29.4	16.5	4.90e-05	0	44	0	24687673344	32	18048
2026-01-22 07:01:13.64	24.35	12.05	-28.5	-29.0	16.5	2.72e-05	0	44	0	25023217664	32	17284
2026-01-22 07:01:16.66	23.53	11.98	-28.7	-29.2	16.5	4.35e-05	0	44	0	25367150592	32	17742
2026-01-22 07:01:19.69	22.71	11.90	-28.5	-29.0	16.5	3.26e-05	0	44	0	25702694912	32	17319
2026-01-22 07:01:22.72	21.90	11.81	-28.2	-28.7	16.5	9.26e-05	0	44	0	26046627840	32	16781
2026-01-22 07:01:25.74	21.10	11.72	-29.0	-29.5	16.4	6.53e-05	0	44	0	26382172160	32	18302
2026-01-22 07:01:28.77	20.30	11.63	-28.5	-29.0	16.4	1.52e-04	0	44	0	26726105088	32	17290
2026-01-22 07:01:31.80	19.50	11.53	-28.5	-29.1	16.4	1.14e-04	0	44	0	27070038016	32	17405
2026-01-22 07:01:34.83	18.72	11.43	-29.4	-29.9	16.4	7.62e-05	0	44	0	27405582336	32	19122
2026-01-22 07:01:37.85	17.94	11.33	-29.0	-29.5	16.4	9.80e-05	0	44	0	27749515264	32	18385
2026-01-22 07:01:40.88	17.17	11.22	-29.0	-29.5	16.5	4.90e-05	0	44	0	28093448192	32	18280
2026-01-22 07:01:43.91	16.40	11.10	-29.1	-29.6	16.5	7.08e-05	0	44	0	28437381120	32	18542
2026-01-22 07:01:46.94	15.64	10.99	-29.2	-29.7	16.5	5.44e-05	0	44	0	28772925440	32	18705
2026-01-22 07:01:49.97	14.89	10.87	-28.9	-29.4	16.5	2.17e-05	0	44	0	29116858368	32	18193
2026-01-22 07:01:53.00	14.15	10.75	-31.2	-31.7	16.1	6.53e-05	0	44	0	29452402688	36	18669
2026-01-22 07:01:56.02	13.42	10.62	-51.1	-53.6	6.1	6.53e-05	0	44	104	29603397632	60	58541
2026-01-22 07:01:59.05	12.69	10.49	-51.3	-53.9	6.1	6.53e-05	0	44	104	29603397632	60	60497
2026-01-22 07:02:02.08	11.97	10.36	-51.3	-53.8	6.1	5.99e-05	0	44	104	29603397632	60	59931
2026-01-22 07:02:05.10	11.26	10.23	-51.9	-54.4	6.1	5.99e-05	0	44	104	29603397632	60	64393
2026-01-22 07:02:08.13	10.56	10.09	-50.8	-53.3	6.1	0.00e+00	0	44	104	29603397632	60	56737
2026-01-22 07:02:11.16	9.86	9.95	-50.8	-53.3	6.1	0.00e+00	0	44	104	29603397632	60	56558
2026-01-22 07:02:14.18	9.18	9.81	-51.0	-53.5	6.1	0.00e+00	0	44	104	29603397632	60	58156
2026-01-22 07:02:17.21	8.50	9.66	-50.9	-53.4	6.1	0.00e+00	0	44	104	29603397632	60	57254
2026-01-22 07:02:20.24	7.83	9.52	-50.7	-53.2	6.1	0.00e+00	0	44	104	29603397632	60	55861
2026-01-22 07:02:23.27	7.16	9.37	-50.8	-53.3	6.1	0.00e+00	0	44	104	29603397632	60	56439
2026-01-22 07:02:26.30	6.51	9.22	-51.3	-53.7	6.1	0.00e+00	0	44	104	29603397632	60	59503
2026-01-22 07:02:29.33	5.87	9.07	-51.0	-53.5	6.1	0.00e+00	0	44	104	29603397632	60	57786
2026-01-22 07:02:32.35	5.23	8.91	-51.5	-54.0	6.1	0.00e+00	0	44	104	29603397632	60	61062
2026-01-22 07:02:35.38	4.60	8.76	-51.4	-53.9	6.1	0.00e+00	0	44	104	29603397632	60	60678
2026-01-22 07:02:38.41	3.98	8.60	-51.3	-53.7	6.1	0.00e+00	0	44	104	29603397632	60	59519
2026-01-22 07:02:41.43	3.37	8.44	-51.7	-54.2	6.1	0.00e+00	0	44	104	29603397632	60	62788
2026-01-22 07:02:44.46	2.77	8.28	-50.7	-53.2	6.1	0.00e+00	0	44	104	29603397632	60	56017
2026-01-22 07:02:47.49	2.17	8.12	-52.1	-54.6	6.1	0.00e+00	0	44	104	29603397632	60	65830
2026-01-22 07:02:50.52	1.59	7.96	-51.3	-53.8	6.1	0.00e+00	0	44	104	29603397632	60	60007
2026-01-22 07:02:53.55	1.01	7.80	-51.2	-53.7	6.1	0.00e+00	0	44	104	29603397632	60	59049
2026-01-22 07:02:56.58	0.44	7.64	-50.6	-53.0	6.1	0.00e+00	0	44	104	29603397632	60	55025
2026-01-22 07:02:59.61	359.87	7.47	-50.9	-53.3	6.1	0.00e+00	0	44	104	29603397632	60	56907
2026-01-22 07:03:02.63	359.32	7.31	-50.6	-53.1	6.1	0.00e+00	0	44	104	29603397632	60	55064
2026-01-22 07:03:05.66	358.77	7.14	-50.7	-53.2	6.1	0.00e+00	0	43	104	29603397632	60	55823
2026-01-22 07:03:08.69	358.24	6.98	-50.5	-52.9	6.1	0.00e+00	0	44	104	29603397632	60	54334
2026-01-22 07:03:11.72	357.70	6.81	-50.4	-52.9	6.0	0.00e+00	0	44	104	29603397632	60	53829
2026-01-22 07:03:14.74	357.18	6.64	-50.2	-52.7	6.1	0.00e+00	0	44	104	29603397632	60	52880
2026-01-22 07:03:17.77	356.67	6.48	-50.4	-53.0	6.1	0.00e+00	0	44	104	29603397632	60	54495
2026-01-22 07:03:20.80	356.16	6.31	-51.5	-54.1	6.1	0.00e+00	0	44	104	29603397632	60	61790
2026-01-22 07:03:23.83	355.66	6.14	-51.1	-53.5	6.1	0.00e+00	0	44	104	29603397632	60	58247
2026-01-22 07:03:26.85	355.17	5.97	-51.4	-53.8	6.1	0.00e+00	0	44	104	29603397632	60	60261
2026-01-22 07:03:29.88	354.68	5.80	-51.6	-54.1	6.1	0.00e+00	0	44	104	29603397632	60	61950
2026-01-22 07:03:32.91	354.20	5.63	-51.2	-53.7	6.1	0.00e+00	0	43	104	29603397632	60	59199
2026-01-22 07:03:35.94	353.73	5.46	-51.7	-54.1	6.1	0.00e+00	0	44	104	29603397632	60	62142
2026-01-22 07:03:38.96	353.26	5.29	-50.3	-52.7	6.1	0.00e+00	0	44	104	29603397632	60	53036
2026-01-22 07:03:42.00	352.80	5.12	-50.3	-52.8	6.1	0.00e+00	0	44	104	29603397632	60	53169
2026-01-22 07:03:45.02	352.35	4.96	-50.4	-52.8	6.1	0.00e+00	0	44	104	29603397632	60	53691
2026-01-22 07:03:48.04	351.91	4.79	-50.4	-52.8	6.1	0.00e+00	0	44	104	29603397632	60	53631
2026-01-22 07:03:51.07	351.47	4.62	-50.2	-52.7	6.1	0.00e+00	0	44	104	29603397632	60	52849
2026-01-22 07:03:54.10	351.04	4.45	-50.1	-52.5	6.1	0.00e+00	0	44	104	29603397632	60	51771
2026-01-22 07:03:57.13	350.62	4.28	-50.2	-52.6	6.1	0.00e+00	0	44	104	29603397632	60	52531
2026-01-22 07:04:00.16	350.20	4.11	-50.2	-52.7	6.1	0.00e+00	0	44	104	29603397632	60	53000
2026-01-22 07:04:03.19	349.78	3.94	-50.0	-52.4	6.1	0.00e+00	0	44	104	29603397632	60	51282
2026-01-22 07:04:06.21	349.38	3.78	-50.0	-52.5	6.1	0.00e+00	0	44	104	29603397632	60	51633
2026-01-22 07:04:09.24	348.98	3.61	-50.0	-52.5	6.1	0.00e+00	0	44	104	29603397632	60	51632
2026-01-22 07:04:12.27	348.58	3.44	-49.8	-52.3	6.1	0.00e+00	0	44	104	29603397632	60	50672
2026-01-22 07:04:15.29	348.20	3.27	-48.8	-51.3	6.1	0.00e+00	0	44	104	29603397632	60	45090
2026-01-22 07:04:18.32	347.81	3.11	-47.9	-50.4	6.1	0.00e+00	0	43	104	29603397632	60	40543
2026-01-22 07:04:21.35	347.43	2.94	-50.0	-52.5	6.1	0.00e+00	0	44	104	29603397632	60	51476
2026-01-22 07:04:24.38	347.06	2.77	-51.1	-53.7	6.1	0.00e+00	0	44	104	29603397632	60	59183
2026-01-22 07:04:27.40	346.70	2.61	-51.3	-53.8	6.1	0.00e+00	0	44	104	29603397632	60	60088
2026-01-22 07:04:30.43	346.34	2.44	-52.0	-54.5	6.1	0.00e+00	0	44	104	29603397632	60	64891
2026-01-22 07:04:33.46	345.98	2.28	-52.2	-54.6	6.1	0.00e+00	0	43	104	29603397632	60	65951
2026-01-22 07:04:36.49	345.63	2.11	-51.7	-54.1	6.1	0.00e+00	0	44	104	29603397632	60	62418
2026-01-22 07:04:39.52	345.28	1.95	-52.1	-54.6	6.1	0.00e+00	0	44	104	29603397632	60	65791
2026-01-22 07:04:42.55	344.94	1.78	-52.3	-54.7	6.1	0.00e+00	0	44	104	29603397632	60	66759
2026-01-22 07:04:45.59	344.61	1.62	-52.1	-54.5	6.1	0.00e+00	0	44	104	29603397632	60	65298
2026-01-22 07:04:48.61	344.28	1.46	-52.8	-55.3	6.1	0.00e+00	0	44	104	29603397632	60	71146
2026-01-22 07:04:51.64	343.95	1.30	-53.1	-55.5	6.1	0.00e+00	0	44	104	29603397632	60	73049
2026-01-22 07:04:54.67	343.63	1.13	-52.5	-54.9	6.1	0.00e+00	0	44	104	29603397632	60	68446
2026-01-22 07:04:57.70	343.31	0.97	-52.6	-55.1	6.1	0.00e+00	0	44	104	29603397632	60	69339
2026-01-22 07:05:00.73	343.00	0.81	-52.1	-54.6	6.1	0.00e+00	0	44	104	29603397632	60	65738
2026-01-22 07:05:03.76	342.69	0.65	-53.2	-55.7	6.0	0.00e+00	0	44	104	29603397632	60	74486
2026-01-22 07:05:06.79	342.39	0.49	-52.5	-55.0	6.1	0.00e+00	0	43	104	29603397632	60	68604
2026-01-22 07:05:09.81	342.09	0.33	-51.9	-54.4	6.1	0.00e+00	0	44	104	29603397632	60	64223
2026-01-22 07:05:12.84	341.79	0.17	-52.4	-54.9	6.1	0.00e+00	0	44	104	29603397632	60	68429
2026-01-22 07:05:15.87	341.50	0.01	-53.0	-55.5	6.1	0.00e+00	0	44	104	29603397632	60	72990

#Closed at: 2026-01-22 07:05:16
#Recorded file [29603 MB]: D:/lorett/data/35029_260122_185616.dat