passes_logs/2026/01/22/R4.6S_Anadyr/R4.6S_Anadyr__20260122_213153_AQUA_rec.log

#Pass ID: 20260122_213153_AQUA
#Satellite: AQUA
#Configuration: AQUA
#almurnet v.1.7.20251203
#Start time: 2026-01-22 21:31:58

#Version: 2.2.20231116
#Station: R4.6S_Anadyr
#Location: 177.4865 lon 64.73178 lat
#TLE: 1 27424U 02022A   26022.49486490  .00002153  00000+0  44069-3 0  9997
#TLE: 2 27424  98.4099 349.0485 0001970  69.5876  43.4746 14.61847233261984

#Time	Az	El	Level	Level2	SNR	BER	BlckErr	Temp	State	Recorded	gain1	gain2
2026-01-22 21:31:58.78	53.69	0.23	-51.3	-52.7	3.3	0.00e+00	0	38	0	0	60	52864
2026-01-22 21:32:01.72	53.42	0.37	-51.5	-69.4	3.5	7.67e-01	0	40	104	0	60	113562
2026-01-22 21:32:04.65	53.14	0.51	-51.6	-69.4	3.5	7.67e-01	0	40	104	0	60	113091
2026-01-22 21:32:07.59	52.85	0.65	-51.5	-69.3	3.5	7.67e-01	0	40	104	0	60	112259
2026-01-22 21:32:10.53	52.56	0.78	-51.3	-69.3	3.5	7.67e-01	0	40	104	0	60	112294
2026-01-22 21:32:13.47	52.27	0.92	-51.2	-69.2	3.5	7.67e-01	0	40	104	0	60	110955
2026-01-22 21:32:16.41	51.98	1.06	-51.1	-69.0	3.5	7.67e-01	0	40	104	0	60	108095
2026-01-22 21:32:19.35	51.68	1.20	-50.5	-68.5	3.5	7.67e-01	0	40	104	0	60	102366
2026-01-22 21:32:22.29	51.38	1.33	-50.0	-67.8	3.5	7.67e-01	0	40	104	0	60	94871
2026-01-22 21:32:25.23	51.08	1.47	-50.0	-67.8	3.5	7.67e-01	0	40	104	0	60	94875
2026-01-22 21:32:28.17	50.78	1.61	-50.0	-67.8	3.5	7.67e-01	0	40	104	0	60	94809
2026-01-22 21:32:31.12	50.47	1.75	-50.0	-67.8	3.5	7.67e-01	0	40	104	0	60	94280
2026-01-22 21:32:34.06	50.15	1.89	-50.0	-67.8	3.5	7.67e-01	0	40	104	0	60	94294
2026-01-22 21:32:37.00	49.84	2.02	-50.0	-67.8	3.5	7.67e-01	0	40	104	0	60	94430
2026-01-22 21:32:39.96	49.52	2.16	-50.0	-67.8	3.5	7.67e-01	0	41	104	0	60	94144
2026-01-22 21:32:42.91	49.19	2.30	-50.0	-67.7	3.5	7.67e-01	0	41	104	0	60	93567
2026-01-22 21:32:45.85	48.87	2.44	-49.9	-67.5	3.5	7.67e-01	0	41	104	0	60	90888
2026-01-22 21:32:48.79	48.54	2.58	-50.0	-67.8	3.5	7.67e-01	0	41	104	0	60	94295
2026-01-22 21:32:51.73	48.20	2.72	-50.0	-67.7	3.5	7.67e-01	0	41	104	0	60	93292
2026-01-22 21:32:54.67	47.87	2.85	-49.8	-66.9	3.5	7.67e-01	0	41	104	0	60	85336
2026-01-22 21:32:57.61	47.53	2.99	-49.1	-64.1	3.5	7.67e-01	0	41	104	0	60	61584
2026-01-22 21:33:00.55	47.18	3.13	-48.8	-63.2	3.5	7.67e-01	0	41	104	0	60	55849
2026-01-22 21:33:03.50	46.84	3.27	-41.4	-52.0	3.5	7.67e-01	0	41	104	0	56	19212
2026-01-22 21:33:06.45	46.48	3.40	-41.2	-51.7	3.5	7.67e-01	0	41	104	0	56	18676
2026-01-22 21:33:09.40	46.13	3.54	-45.4	-56.8	3.5	7.67e-01	0	41	104	0	60	26759
2026-01-22 21:33:12.35	45.77	3.68	-50.0	-67.6	3.5	7.67e-01	0	41	104	0	60	92691
2026-01-22 21:33:15.30	45.41	3.82	-41.9	-52.5	3.5	7.67e-01	0	41	104	0	60	16322
2026-01-22 21:33:18.25	45.04	3.95	-43.9	-54.9	3.5	7.67e-01	0	41	104	0	60	21415
2026-01-22 21:33:21.20	44.67	4.09	-49.6	-67.5	3.5	7.67e-01	0	41	104	0	60	91256
2026-01-22 21:33:24.14	44.29	4.23	-40.4	-50.9	3.5	7.67e-01	0	41	104	0	56	16919
2026-01-22 21:33:27.08	43.92	4.36	-43.3	-54.1	3.5	7.67e-01	0	41	104	0	60	19481
2026-01-22 21:33:30.02	43.54	4.50	-49.9	-67.4	3.5	7.67e-01	0	41	104	0	60	90579
2026-01-22 21:33:32.97	43.15	4.63	-40.7	-51.1	3.5	7.67e-01	0	41	104	0	56	17391
2026-01-22 21:33:35.92	42.76	4.77	-42.3	-52.8	3.5	7.67e-01	0	41	104	0	56	21268
2026-01-22 21:33:38.87	42.36	4.90	-49.9	-67.7	3.5	7.67e-01	0	41	104	0	60	93539
2026-01-22 21:33:41.80	41.97	5.03	-40.4	-50.7	3.5	7.67e-01	0	41	104	0	56	16663
2026-01-22 21:33:44.74	41.57	5.17	-44.7	-55.8	3.5	7.67e-01	0	41	104	0	60	23825
2026-01-22 21:33:47.69	41.16	5.30	-49.3	-64.4	3.5	7.67e-01	0	41	104	0	60	63961
2026-01-22 21:33:50.63	40.75	5.43	-42.0	-52.6	3.6	7.67e-01	0	41	104	0	58	18425
2026-01-22 21:33:53.57	40.34	5.56	-41.1	-51.6	3.5	7.67e-01	0	41	104	0	58	16387
2026-01-22 21:33:56.51	39.92	5.69	-43.8	-54.6	3.5	7.67e-01	0	41	104	0	56	25924
2026-01-22 21:33:59.45	39.49	5.82	-41.4	-51.9	3.5	7.67e-01	0	41	104	0	58	16938
2026-01-22 21:34:02.39	39.07	5.95	-42.1	-52.7	3.5	7.67e-01	0	41	104	0	60	16684
2026-01-22 21:34:05.33	38.64	6.08	-40.4	-50.8	3.5	7.67e-01	0	41	104	0	58	14963
2026-01-22 21:34:08.27	38.20	6.21	-41.1	-51.5	3.5	7.67e-01	0	41	104	0	58	16283
2026-01-22 21:34:11.21	37.76	6.34	-50.1	-66.6	3.5	7.67e-01	0	41	104	0	60	82676
2026-01-22 21:34:14.16	37.32	6.47	-42.9	-53.6	3.6	7.67e-01	0	41	104	0	60	18343
2026-01-22 21:34:17.10	36.87	6.59	-40.7	-51.1	3.5	7.67e-01	0	41	104	0	56	17442
2026-01-22 21:34:20.03	36.42	6.72	-48.0	-60.7	3.5	7.67e-01	0	41	104	0	60	41619
2026-01-22 21:34:22.98	35.96	6.84	-43.6	-54.4	3.5	7.67e-01	0	41	104	0	60	20123
2026-01-22 21:34:25.91	35.50	6.96	-39.7	-50.1	3.6	7.67e-01	0	41	104	0	54	17320
2026-01-22 21:34:28.84	35.04	7.08	-48.5	-61.7	3.5	7.67e-01	0	41	104	0	60	46913
2026-01-22 21:34:31.78	34.57	7.21	-44.1	-55.0	3.5	7.67e-01	0	41	104	0	60	21635
2026-01-22 21:34:34.74	34.09	7.33	-40.8	-51.2	3.5	7.67e-01	0	41	104	0	56	17617
2026-01-22 21:34:37.68	33.62	7.45	-43.7	-54.5	3.5	7.67e-01	0	41	104	0	58	22907
2026-01-22 21:34:40.62	33.13	7.56	-44.4	-55.4	3.5	7.67e-01	0	41	104	0	60	22574
2026-01-22 21:34:43.56	32.65	7.68	-39.4	-49.8	3.5	7.67e-01	0	41	104	0	54	16752
2026-01-22 21:34:46.50	32.16	7.79	-41.5	-51.9	3.5	7.67e-01	0	41	104	0	54	21485
2026-01-22 21:34:49.44	31.66	7.91	-50.4	-67.1	3.6	7.67e-01	0	41	104	0	60	86976
2026-01-22 21:34:52.38	31.16	8.02	-40.7	-51.2	3.5	7.67e-01	0	41	104	0	56	17553
2026-01-22 21:34:55.33	30.66	8.13	-39.6	-49.9	3.5	7.67e-01	0	41	104	0	56	15174
2026-01-22 21:34:58.30	30.14	8.24	-50.6	-68.3	3.5	7.67e-01	0	41	104	0	60	100555
2026-01-22 21:35:01.28	29.63	8.35	-39.2	-49.5	3.5	7.67e-01	0	41	104	0	54	16147
2026-01-22 21:35:04.25	29.10	8.46	-39.7	-50.0	3.5	7.67e-01	0	41	104	0	54	17267
2026-01-22 21:35:07.22	28.58	8.57	-50.5	-67.4	3.5	7.67e-01	0	41	104	0	60	90325
2026-01-22 21:35:10.18	28.05	8.67	-40.9	-51.3	3.5	7.67e-01	0	41	104	0	56	17824
2026-01-22 21:35:13.15	27.52	8.77	-39.1	-49.4	3.5	7.67e-01	0	41	104	0	54	16032
2026-01-22 21:35:16.15	26.97	8.87	-50.5	-67.3	3.5	7.67e-01	0	42	104	0	60	89395
2026-01-22 21:35:19.15	26.42	8.97	-40.8	-51.2	3.6	7.67e-01	0	41	104	0	56	17623
2026-01-22 21:35:22.16	25.87	9.07	-39.5	-49.8	3.5	7.67e-01	0	41	104	0	54	16728
2026-01-22 21:35:25.15	25.32	9.17	-50.5	-67.4	3.5	7.67e-01	0	41	104	0	60	90627
2026-01-22 21:35:28.14	24.76	9.26	-41.0	-51.4	3.5	7.67e-01	0	41	104	0	58	16130
2026-01-22 21:35:31.11	24.20	9.35	-40.9	-51.3	3.5	7.67e-01	0	41	104	0	56	17872
2026-01-22 21:35:34.07	23.64	9.44	-50.5	-67.4	3.5	7.67e-01	0	41	104	0	60	89787
2026-01-22 21:35:37.03	23.08	9.53	-40.9	-51.4	3.5	7.67e-01	0	41	104	0	56	18013
2026-01-22 21:35:40.01	22.51	9.61	-39.1	-49.4	3.5	7.67e-01	0	41	104	0	52	17983
2026-01-22 21:35:42.98	21.93	9.70	-50.6	-67.3	3.5	7.67e-01	0	41	104	0	60	89410
2026-01-22 21:35:45.94	21.36	9.77	-39.7	-50.0	3.5	7.67e-01	0	41	104	0	54	17142
2026-01-22 21:35:48.91	20.78	9.85	-39.2	-49.4	3.5	7.67e-01	0	41	104	0	54	16068
2026-01-22 21:35:51.87	20.20	9.93	-50.6	-67.4	3.5	7.67e-01	0	41	104	0	60	90022
2026-01-22 21:35:54.82	19.62	10.00	-42.4	-53.1	3.5	7.67e-01	0	41	104	0	60	17294
2026-01-22 21:35:57.78	19.03	10.07	-39.0	-49.2	3.5	7.67e-01	0	41	104	0	54	15725
2026-01-22 21:36:00.75	18.44	10.14	-50.5	-67.6	3.5	7.67e-01	0	41	104	0	60	92354
2026-01-22 21:36:03.72	17.84	10.20	-42.0	-52.6	3.7	7.67e-01	0	41	104	0	60	16344
2026-01-22 21:36:06.68	17.24	10.27	-38.7	-48.9	3.5	7.67e-01	0	41	104	0	52	17075
2026-01-22 21:36:09.65	16.64	10.33	-50.7	-67.6	3.5	7.67e-01	0	42	104	0	60	91946
2026-01-22 21:36:12.60	16.04	10.38	-43.5	-54.2	3.6	7.67e-01	0	42	104	0	60	19756
2026-01-22 21:36:15.55	15.44	10.44	-38.7	-40.0	27.9	7.67e-01	61	41	0	2621440	52	6093
2026-01-22 21:36:18.54	14.83	10.49	-38.6	-39.9	27.9	7.67e-01	58	41	0	7864320	52	6027
2026-01-22 21:36:21.50	14.22	10.54	-38.4	-39.6	28.1	7.67e-01	59	41	0	13631488	52	5857
2026-01-22 21:36:24.48	13.60	10.58	-38.4	-39.7	28.0	7.67e-01	59	41	0	19398656	52	5878
2026-01-22 21:36:27.46	12.99	10.63	-38.3	-39.6	28.2	7.67e-01	46	41	0	24641536	52	5817
2026-01-22 21:36:30.44	12.37	10.67	-38.5	-39.8	28.1	7.67e-01	55	41	0	30408704	52	5968
2026-01-22 21:36:33.41	11.75	10.70	-38.3	-39.5	28.2	7.67e-01	47	41	0	36175872	52	5774
2026-01-22 21:36:36.38	11.13	10.74	-38.3	-39.6	28.2	7.67e-01	61	41	0	41418752	52	5823
2026-01-22 21:36:39.40	10.50	10.77	-38.1	-39.4	28.3	7.67e-01	57	41	0	47185920	52	5682
2026-01-22 21:36:42.40	9.87	10.80	-38.3	-39.6	28.2	7.67e-01	60	41	0	52953088	52	5807
2026-01-22 21:36:45.39	9.24	10.82	-38.2	-39.5	28.3	7.67e-01	59	41	0	58195968	52	5743
2026-01-22 21:36:48.38	8.61	10.84	-38.2	-39.5	28.3	7.67e-01	62	41	0	63963136	52	5757
2026-01-22 21:36:51.37	7.98	10.86	-38.3	-39.6	28.1	7.67e-01	62	41	0	69730304	52	5834
2026-01-22 21:36:54.37	7.35	10.88	-38.3	-39.6	28.2	7.67e-01	48	41	0	75497472	52	5801
2026-01-22 21:36:57.40	6.70	10.89	-38.3	-39.5	28.2	7.67e-01	46	41	0	80740352	52	5785
2026-01-22 21:37:00.43	6.06	10.90	-38.3	-39.5	28.2	7.67e-01	59	41	0	86507520	52	5762
2026-01-22 21:37:03.46	5.42	10.91	-38.3	-39.5	28.3	7.67e-01	59	41	0	92274688	52	5773
2026-01-22 21:37:06.48	4.78	10.91	-38.3	-39.6	28.2	7.67e-01	59	41	0	98041856	52	5813
2026-01-22 21:37:09.51	4.14	10.91	-38.1	-39.4	28.3	7.67e-01	60	41	0	103809024	52	5689
2026-01-22 21:37:12.54	3.50	10.91	-38.4	-39.7	28.1	7.67e-01	60	42	0	109576192	52	5877
2026-01-22 21:37:15.57	2.86	10.90	-38.4	-39.7	28.1	7.67e-01	59	41	0	114819072	52	5872
2026-01-22 21:37:18.60	2.22	10.89	-38.3	-39.6	28.1	7.67e-01	44	41	0	120586240	52	5834
2026-01-22 21:37:21.63	1.58	10.88	-38.7	-40.0	27.9	7.67e-01	58	41	0	126353408	52	6125
2026-01-22 21:37:24.66	0.94	10.86	-38.4	-39.7	28.0	7.67e-01	62	41	0	132120576	52	5877
2026-01-22 21:37:27.68	0.30	10.84	-38.3	-39.6	28.2	7.67e-01	56	41	0	137887744	52	5820
2026-01-22 21:37:30.72	359.66	10.82	-38.4	-39.7	28.1	7.67e-01	59	42	0	143654912	52	5861
2026-01-22 21:37:33.75	359.02	10.79	-38.3	-39.6	28.2	7.67e-01	60	41	0	148897792	52	5827
2026-01-22 21:37:36.77	358.39	10.76	-38.8	-40.1	27.8	7.67e-01	59	41	0	154664960	52	6164
2026-01-22 21:37:39.80	357.76	10.73	-38.6	-39.8	27.8	7.67e-01	45	41	0	160432128	52	5987
2026-01-22 21:37:42.83	357.12	10.69	-39.0	-40.3	27.3	7.67e-01	62	41	0	166199296	52	6325
2026-01-22 21:37:45.86	356.49	10.65	-38.8	-40.1	27.8	7.67e-01	59	41	0	171966464	52	6187
2026-01-22 21:37:48.89	355.86	10.61	-38.9	-40.2	27.6	7.67e-01	57	41	0	177209344	52	6244
2026-01-22 21:37:51.91	355.24	10.56	-39.1	-40.4	27.4	7.67e-01	54	41	0	182976512	52	6409
2026-01-22 21:37:54.94	354.62	10.52	-38.4	-39.6	28.2	7.67e-01	59	42	0	188743680	52	5858
2026-01-22 21:37:57.97	353.99	10.47	-38.4	-39.7	28.0	7.67e-01	61	42	0	194510848	52	5904
2026-01-22 21:38:01.00	353.37	10.41	-38.6	-39.9	27.9	7.67e-01	56	41	0	200278016	52	6031
2026-01-22 21:38:04.04	352.76	10.35	-38.7	-40.0	27.9	7.67e-01	48	41	0	206045184	52	6065
2026-01-22 21:38:07.07	352.14	10.29	-38.8	-40.1	27.7	7.67e-01	59	41	0	211812352	52	6180
2026-01-22 21:38:10.10	351.53	10.23	-38.6	-39.8	28.0	7.67e-01	59	42	0	217055232	52	5991
2026-01-22 21:38:13.13	350.92	10.17	-38.7	-40.0	27.7	7.67e-01	59	42	0	222822400	52	6130
2026-01-22 21:38:16.15	350.32	10.10	-38.7	-40.0	27.8	7.67e-01	60	42	0	228589568	52	6083
2026-01-22 21:38:19.18	349.72	10.03	-38.7	-40.0	27.7	7.67e-01	59	42	0	234356736	52	6087
2026-01-22 21:38:22.21	349.12	9.96	-38.7	-40.0	27.9	7.67e-01	45	41	0	240123904	52	6065
2026-01-22 21:38:25.24	348.52	9.88	-38.8	-40.1	27.6	7.67e-01	45	41	0	245891072	52	6202
2026-01-22 21:38:28.27	347.93	9.80	-38.7	-40.0	27.8	7.67e-01	59	41	0	251133952	52	6121
2026-01-22 21:38:31.30	347.34	9.72	-38.6	-39.9	27.9	7.67e-01	57	42	0	256901120	52	6038
2026-01-22 21:38:34.34	346.75	9.64	-39.1	-40.4	27.3	7.67e-01	57	41	0	262668288	52	6421
2026-01-22 21:38:37.36	346.17	9.55	-39.3	-40.6	27.2	7.67e-01	60	41	0	268435456	52	6547
2026-01-22 21:38:40.39	345.59	9.46	-39.1	-40.4	27.3	7.67e-01	61	41	0	274202624	52	6372
2026-01-22 21:38:43.41	345.02	9.37	-39.0	-40.3	27.4	7.67e-01	60	41	0	279969792	52	6341
2026-01-22 21:38:46.44	344.45	9.28	-39.0	-40.3	27.5	7.67e-01	53	41	0	285212672	52	6291
2026-01-22 21:38:49.47	343.89	9.19	-39.3	-40.7	27.2	7.67e-01	53	41	0	290979840	52	6581
2026-01-22 21:38:52.50	343.32	9.09	-38.9	-40.2	27.5	7.67e-01	60	41	0	296747008	52	6263
2026-01-22 21:38:55.53	342.77	8.99	-40.5	-42.0	26.1	7.67e-01	58	41	0	302514176	54	6817
2026-01-22 21:38:58.55	342.22	8.89	-40.3	-41.7	26.1	7.67e-01	61	41	0	308281344	54	6626
2026-01-22 21:39:01.58	341.67	8.79	-41.6	-43.2	24.6	7.67e-01	56	41	0	313524224	56	7038
2026-01-22 21:39:04.61	341.12	8.68	-38.8	-40.1	27.7	7.67e-01	58	41	0	319291392	52	6139
2026-01-22 21:39:07.63	340.58	8.58	-40.5	-42.1	25.7	7.67e-01	54	41	0	325058560	54	6893
2026-01-22 21:39:10.67	340.04	8.47	-39.0	-40.3	27.4	7.67e-01	53	41	0	330825728	52	6346
2026-01-22 21:39:13.70	339.51	8.36	-39.5	-40.9	26.8	7.67e-01	61	41	0	336592896	52	6731
2026-01-22 21:39:16.72	338.99	8.25	-39.7	-41.1	26.6	7.67e-01	61	41	0	342360064	54	6159
2026-01-22 21:39:19.75	338.46	8.14	-39.3	-40.7	27.1	7.67e-01	61	41	0	348127232	54	5875
2026-01-22 21:39:22.78	337.94	8.02	-40.2	-41.7	26.0	7.67e-01	59	41	0	353370112	54	6588
2026-01-22 21:39:25.81	337.43	7.91	-39.2	-40.5	27.0	7.67e-01	59	41	0	359137280	54	5783
2026-01-22 21:39:28.84	336.92	7.79	-39.8	-41.2	26.7	7.67e-01	44	41	0	364904448	54	6229
2026-01-22 21:39:31.87	336.41	7.67	-40.1	-41.6	26.2	7.67e-01	44	41	0	370671616	54	6508
2026-01-22 21:39:34.90	335.91	7.55	-39.9	-41.3	26.4	7.67e-01	58	41	0	376438784	54	6328
2026-01-22 21:39:37.93	335.42	7.43	-39.5	-40.9	26.8	7.67e-01	58	41	0	381681664	54	6001
2026-01-22 21:39:40.96	334.93	7.31	-40.0	-41.4	26.3	7.67e-01	59	41	0	387448832	54	6377
2026-01-22 21:39:43.98	334.44	7.18	-39.8	-41.2	26.4	7.67e-01	60	41	0	393216000	54	6265
2026-01-22 21:39:47.01	333.96	7.06	-39.6	-41.0	26.7	7.67e-01	61	41	0	398983168	54	6071
2026-01-22 21:39:50.04	333.48	6.93	-40.1	-41.5	26.1	7.67e-01	56	41	0	404750336	54	6472
2026-01-22 21:39:53.07	333.01	6.81	-40.3	-41.8	25.8	7.67e-01	53	41	0	410517504	54	6707
2026-01-22 21:39:56.09	332.54	6.68	-40.3	-41.8	25.9	7.67e-01	49	41	0	416284672	54	6660
2026-01-22 21:39:59.12	332.08	6.55	-40.0	-41.4	26.2	7.67e-01	61	41	0	421527552	54	6411
2026-01-22 21:40:02.15	331.62	6.42	-41.0	-42.6	25.2	7.67e-01	61	41	0	427294720	56	6525
2026-01-22 21:40:05.18	331.16	6.29	-39.5	-40.9	26.6	7.67e-01	65	41	0	433061888	54	6017
2026-01-22 21:40:08.21	330.71	6.16	-40.1	-41.5	26.1	7.67e-01	61	41	0	438829056	54	6446
2026-01-22 21:40:11.23	330.27	6.03	-40.6	-42.2	25.4	7.67e-01	60	41	0	444596224	54	6973
2026-01-22 21:40:14.26	329.83	5.89	-40.3	-41.8	25.8	7.67e-01	58	41	0	449839104	54	6670
2026-01-22 21:40:17.29	329.39	5.76	-39.8	-41.2	26.4	7.67e-01	52	41	0	455606272	54	6234
2026-01-22 21:40:20.32	328.96	5.62	-40.0	-41.4	26.1	7.67e-01	58	41	0	461373440	54	6379
2026-01-22 21:40:23.34	328.53	5.49	-40.5	-42.0	25.5	7.67e-01	58	41	0	467140608	54	6818
2026-01-22 21:40:26.37	328.11	5.35	-40.6	-42.1	25.5	7.67e-01	58	41	0	472907776	54	6899
2026-01-22 21:40:29.40	327.69	5.22	-40.6	-42.1	25.5	7.67e-01	57	41	0	478674944	54	6943
2026-01-22 21:40:32.43	327.27	5.08	-40.3	-41.7	25.9	7.67e-01	60	41	0	483917824	54	6626
2026-01-22 21:40:35.46	326.86	4.94	-40.5	-42.0	25.6	7.67e-01	55	41	0	489684992	54	6828
2026-01-22 21:40:38.49	326.46	4.80	-40.9	-42.4	25.3	7.67e-01	52	41	0	495452160	56	6409
2026-01-22 21:40:41.51	326.06	4.67	-40.9	-42.4	25.2	7.67e-01	59	41	0	501219328	56	6409
2026-01-22 21:40:44.54	325.66	4.53	-41.4	-43.0	24.7	7.67e-01	62	41	0	506986496	56	6818
2026-01-22 21:40:47.57	325.26	4.39	-41.4	-43.0	24.7	7.67e-01	62	41	0	512753664	58	6112
2026-01-22 21:40:50.60	324.88	4.25	-41.7	-43.4	23.9	7.67e-01	54	41	0	517996544	58	6357
2026-01-22 21:40:53.63	324.49	4.11	-42.5	-44.3	23.3	7.67e-01	58	41	0	523763712	58	7076
2026-01-22 21:40:56.66	324.11	3.97	-41.8	-43.5	24.0	7.67e-01	60	41	0	529530880	58	6455
2026-01-22 21:40:59.69	323.73	3.83	-40.7	-42.3	25.1	7.67e-01	46	41	0	535298048	56	6293
2026-01-22 21:41:02.72	323.36	3.69	-41.2	-42.8	24.7	7.67e-01	44	41	0	541065216	56	6666
2026-01-22 21:41:05.75	322.99	3.55	-41.5	-43.1	24.3	7.67e-01	60	41	0	546832384	56	6924
2026-01-22 21:41:08.78	322.63	3.41	-41.4	-43.0	24.4	7.67e-01	61	41	0	552075264	58	6106
2026-01-22 21:41:11.81	322.26	3.27	-41.5	-43.2	23.7	7.67e-01	58	41	0	557842432	58	6257
2026-01-22 21:41:14.84	321.91	3.12	-41.0	-42.6	24.7	7.67e-01	57	41	0	563609600	58	5811
2026-01-22 21:41:17.87	321.55	2.98	-50.4	-68.2	3.5	7.67e-01	0	41	104	568328192	60	99149
2026-01-22 21:41:20.89	321.21	2.84	-50.8	-68.9	3.5	7.67e-01	0	41	104	568328192	60	107803
2026-01-22 21:41:23.92	320.86	2.70	-51.2	-69.3	3.5	7.67e-01	0	41	104	568328192	60	111750
2026-01-22 21:41:26.95	320.52	2.56	-51.3	-69.3	3.5	7.67e-01	0	41	104	568328192	60	112286
2026-01-22 21:41:29.98	320.18	2.41	-51.4	-69.3	3.5	7.67e-01	0	41	104	568328192	60	112310
2026-01-22 21:41:33.01	319.84	2.27	-51.3	-69.4	3.5	7.67e-01	0	41	104	568328192	60	112970
2026-01-22 21:41:36.04	319.51	2.13	-51.4	-69.2	3.5	7.67e-01	0	41	104	568328192	60	111504
2026-01-22 21:41:39.07	319.19	1.99	-51.4	-69.3	3.5	7.67e-01	0	41	104	568328192	60	111773
2026-01-22 21:41:42.10	318.86	1.85	-51.5	-69.2	3.5	7.67e-01	0	41	104	568328192	60	111542
2026-01-22 21:41:45.13	318.54	1.70	-51.5	-69.3	3.5	7.67e-01	0	41	104	568328192	60	111902
2026-01-22 21:41:48.16	318.23	1.56	-51.5	-69.3	3.5	7.67e-01	0	41	104	568328192	60	112368
2026-01-22 21:41:51.19	317.91	1.42	-51.5	-69.3	3.5	7.67e-01	0	41	104	568328192	60	112060
2026-01-22 21:41:54.21	317.60	1.28	-51.5	-69.2	3.5	7.67e-01	0	41	104	568328192	60	111591
2026-01-22 21:41:57.24	317.30	1.14	-51.5	-69.3	3.5	7.67e-01	0	41	104	568328192	60	112137
2026-01-22 21:42:00.27	316.99	0.99	-51.5	-69.3	3.5	7.67e-01	0	41	104	568328192	60	112035
2026-01-22 21:42:03.30	316.69	0.85	-51.5	-69.3	3.5	7.67e-01	0	41	104	568328192	60	111700
2026-01-22 21:42:06.33	316.39	0.71	-51.5	-69.3	3.5	7.67e-01	0	41	104	568328192	60	112010
2026-01-22 21:42:09.37	316.10	0.57	-51.4	-69.3	3.5	7.67e-01	0	41	104	568328192	60	111688
2026-01-22 21:42:12.40	315.81	0.43	-51.4	-69.3	3.5	7.67e-01	0	41	104	568328192	60	112131
2026-01-22 21:42:15.43	315.52	0.28	-51.5	-69.3	3.5	7.67e-01	0	41	104	568328192	60	111865
2026-01-22 21:42:18.46	315.24	0.14	-51.5	-69.3	3.5	7.67e-01	0	41	104	568328192	60	111807
2026-01-22 21:42:21.49	314.96	0.00	-51.5	-69.3	3.5	7.67e-01	0	41	104	568328192	60	112255

#Closed at: 2026-01-22 21:42:21
#Recorded file [568 MB]: D:/lorett/data/35029_260123_093158.dat