passes_logs/2026/01/22/R4.6S_Anadyr/R4.6S_Anadyr__20260122_191255_SUOMI_NPP_rec.log

#Pass ID: 20260122_191255_SUOMI NPP
#Satellite: SUOMI NPP
#Configuration: NPP
#almurnet v.1.7.20251203
#Start time: 2026-01-22 19:12:55

#Version: 2.2.20231116
#Station: R4.6S_Anadyr
#Location: 177.4865 lon 64.73178 lat
#TLE: 1 37849U 11061A   26021.51818991  .00000201  00000+0  11636-3 0  9995
#TLE: 2 37849  98.7819 323.5108 0002300  52.3548 307.7836 14.19527793737637

#Time	Az	El	Level	Level2	SNR	BER	BlckErr	Temp	State	Recorded	gain1	gain2
2026-01-22 19:12:55.78	49.08	0.04	-51.2	-62.8	3.5	8.46e-01	0	38	0	0	60	49703
2026-01-22 19:12:58.80	48.85	0.19	-51.2	-66.4	3.6	1.51e+00	0	40	104	0	60	75684
2026-01-22 19:13:01.83	48.62	0.33	-51.2	-66.4	3.6	1.51e+00	0	40	104	0	60	75272
2026-01-22 19:13:04.86	48.39	0.48	-51.2	-66.4	3.6	1.51e+00	0	40	104	0	60	75207
2026-01-22 19:13:07.89	48.15	0.63	-51.0	-66.3	3.6	1.51e+00	0	40	104	0	60	74512
2026-01-22 19:13:10.92	47.92	0.78	-51.0	-66.2	3.6	1.51e+00	0	40	104	0	60	74022
2026-01-22 19:13:13.95	47.68	0.93	-50.9	-66.1	3.6	1.51e+00	0	40	104	0	60	72733
2026-01-22 19:13:16.98	47.43	1.08	-50.7	-65.9	3.6	1.51e+00	0	40	104	0	60	71459
2026-01-22 19:13:20.00	47.19	1.23	-50.2	-65.5	3.6	1.51e+00	0	40	104	0	60	67749
2026-01-22 19:13:23.03	46.94	1.37	-49.5	-64.6	3.6	1.51e+00	0	40	104	0	60	61691
2026-01-22 19:13:26.06	46.69	1.52	-49.5	-64.7	3.6	1.51e+00	0	40	104	0	60	61823
2026-01-22 19:13:29.09	46.44	1.67	-49.5	-64.6	3.6	1.51e+00	0	40	104	0	60	61721
2026-01-22 19:13:32.11	46.19	1.82	-49.5	-64.6	3.6	1.51e+00	0	40	104	0	60	61708
2026-01-22 19:13:35.14	45.93	1.98	-49.5	-64.7	3.6	1.51e+00	0	41	104	0	60	62011
2026-01-22 19:13:38.17	45.67	2.13	-49.5	-64.5	3.6	1.51e+00	0	41	104	0	60	61013
2026-01-22 19:13:41.20	45.41	2.28	-49.4	-64.3	3.6	1.51e+00	0	41	104	0	60	59238
2026-01-22 19:13:44.23	45.14	2.43	-49.5	-64.7	3.6	1.51e+00	0	41	104	0	60	61998
2026-01-22 19:13:47.25	44.87	2.58	-49.5	-64.6	3.6	1.51e+00	0	41	104	0	60	61104
2026-01-22 19:13:50.28	44.60	2.73	-49.4	-64.2	3.6	1.51e+00	0	41	104	0	60	58289
2026-01-22 19:13:53.31	44.32	2.88	-49.5	-64.3	3.6	1.51e+00	0	41	104	0	60	59164
2026-01-22 19:13:56.35	44.05	3.04	-49.2	-58.7	4.0	3.20e-01	4	41	0	1048576	60	31129
2026-01-22 19:13:59.37	43.77	3.19	-49.4	-63.8	3.6	1.50e+00	0	41	104	1048576	60	56210
2026-01-22 19:14:02.40	43.48	3.34	-47.2	-51.1	12.0	2.89e-04	92	41	0	2097152	60	12914
2026-01-22 19:14:05.43	43.20	3.49	-46.7	-50.0	14.1	2.82e-05	0	41	0	7340032	60	11463
2026-01-22 19:14:08.46	42.91	3.65	-45.8	-48.5	15.0	0.00e+00	80	41	0	13631488	60	9640
2026-01-22 19:14:11.48	42.61	3.80	-46.0	-48.9	14.9	0.00e+00	74	41	0	18874368	60	10033
2026-01-22 19:14:14.51	42.32	3.95	-45.3	-47.6	16.2	0.00e+00	0	41	0	24117248	60	8714
2026-01-22 19:14:17.54	42.02	4.11	-44.1	-45.9	18.0	0.00e+00	0	41	0	30408704	60	7144
2026-01-22 19:14:20.57	41.72	4.26	-44.5	-46.4	17.4	0.00e+00	92	41	0	35651584	60	7589
2026-01-22 19:14:23.60	41.41	4.41	-44.5	-46.5	17.6	0.00e+00	44	41	0	41943040	60	7613
2026-01-22 19:14:26.63	41.10	4.57	-44.4	-46.4	17.6	0.00e+00	0	41	0	47185920	60	7553
2026-01-22 19:14:29.66	40.79	4.72	-44.9	-47.0	17.0	0.00e+00	90	41	0	52428800	60	8084
2026-01-22 19:14:32.69	40.47	4.87	-44.3	-46.2	17.8	0.00e+00	91	41	0	58720256	60	7403
2026-01-22 19:14:35.72	40.15	5.03	-44.4	-46.3	17.6	0.00e+00	0	41	0	63963136	60	7487
2026-01-22 19:14:38.74	39.83	5.18	-44.4	-46.3	17.9	0.00e+00	52	41	0	70254592	60	7444
2026-01-22 19:14:41.77	39.50	5.34	-44.3	-46.2	17.9	0.00e+00	39	41	0	75497472	60	7409
2026-01-22 19:14:44.80	39.17	5.49	-44.0	-45.8	18.3	0.00e+00	0	41	0	81788928	60	7045
2026-01-22 19:14:47.82	38.84	5.64	-44.1	-45.9	18.1	0.00e+00	0	41	0	87031808	60	7109
2026-01-22 19:14:50.85	38.50	5.80	-44.0	-45.8	18.3	0.00e+00	92	41	0	92274688	60	7020
2026-01-22 19:14:53.88	38.16	5.95	-43.8	-45.5	18.6	0.00e+00	0	41	0	98566144	60	6784
2026-01-22 19:14:56.91	37.82	6.11	-43.6	-45.2	18.9	0.00e+00	0	41	0	103809024	60	6587
2026-01-22 19:14:59.94	37.47	6.26	-43.1	-44.5	19.4	0.00e+00	63	41	0	110100480	60	6103
2026-01-22 19:15:02.95	37.12	6.41	-43.3	-44.9	19.3	0.00e+00	90	41	0	115343360	60	6342
2026-01-22 19:15:05.98	36.76	6.57	-42.8	-44.2	19.8	0.00e+00	0	41	0	120586240	60	5883
2026-01-22 19:15:09.01	36.40	6.72	-43.0	-44.4	19.7	0.00e+00	0	41	0	126877696	58	6736
2026-01-22 19:15:12.04	36.04	6.87	-42.9	-44.4	19.7	0.00e+00	92	41	0	132120576	58	6709
2026-01-22 19:15:15.07	35.67	7.03	-43.1	-44.6	19.4	0.00e+00	0	41	0	138412032	58	6904
2026-01-22 19:15:18.10	35.30	7.18	-43.2	-44.7	19.3	0.00e+00	0	41	0	143654912	58	6950
2026-01-22 19:15:21.13	34.92	7.33	-43.7	-45.4	18.7	0.00e+00	32	41	0	148897792	58	7512
2026-01-22 19:15:24.16	34.54	7.48	-43.4	-44.9	19.2	0.00e+00	41	41	0	155189248	58	7164
2026-01-22 19:15:27.19	34.16	7.64	-43.5	-45.1	19.1	0.00e+00	0	41	0	160432128	58	7316
2026-01-22 19:15:30.22	33.77	7.79	-43.4	-45.0	19.2	0.00e+00	0	41	0	166723584	58	7180
2026-01-22 19:15:33.25	33.38	7.94	-43.0	-44.4	19.6	0.00e+00	62	41	0	171966464	58	6744
2026-01-22 19:15:36.28	32.98	8.09	-43.0	-44.5	19.7	0.00e+00	0	41	0	178257920	58	6785
2026-01-22 19:15:39.31	32.58	8.24	-42.7	-44.0	20.0	0.00e+00	0	41	0	183500800	58	6460
2026-01-22 19:15:42.34	32.17	8.39	-42.7	-44.1	20.0	0.00e+00	92	41	0	188743680	58	6507
2026-01-22 19:15:45.36	31.77	8.54	-42.9	-44.3	19.9	0.00e+00	0	41	0	195035136	58	6625
2026-01-22 19:15:48.39	31.35	8.69	-43.2	-44.7	19.5	0.00e+00	0	41	0	200278016	58	7007
2026-01-22 19:15:51.42	30.93	8.84	-43.8	-45.4	18.8	0.00e+00	0	41	0	206569472	60	6749
2026-01-22 19:15:54.46	30.51	8.99	-43.5	-45.0	19.4	0.00e+00	34	41	0	211812352	60	6451
2026-01-22 19:15:57.49	30.08	9.13	-43.1	-44.6	19.7	0.00e+00	0	41	0	217055232	60	6130
2026-01-22 19:16:00.51	29.65	9.28	-43.0	-44.4	19.8	0.00e+00	0	41	0	223346688	60	5984
2026-01-22 19:16:03.54	29.22	9.43	-42.5	-43.8	20.2	0.00e+00	75	41	0	228589568	58	6276
2026-01-22 19:16:06.57	28.78	9.57	-42.1	-43.4	20.7	0.00e+00	0	41	0	234881024	58	6003
2026-01-22 19:16:09.60	28.33	9.71	-42.2	-43.5	20.6	0.00e+00	0	41	0	240123904	58	6038
2026-01-22 19:16:12.63	27.88	9.86	-41.9	-43.2	20.9	0.00e+00	60	41	0	246415360	58	5841
2026-01-22 19:16:15.65	27.43	10.00	-41.8	-43.0	21.1	0.00e+00	0	41	0	251658240	56	6411
2026-01-22 19:16:18.68	26.97	10.14	-41.3	-42.4	21.6	0.00e+00	0	41	0	256901120	56	5997
2026-01-22 19:16:21.71	26.51	10.28	-41.1	-42.2	21.9	0.00e+00	0	41	0	263192576	56	5877
2026-01-22 19:16:24.74	26.05	10.42	-41.5	-42.7	21.4	0.00e+00	41	41	0	268435456	56	6189
2026-01-22 19:16:27.78	25.57	10.56	-41.5	-42.7	21.4	0.00e+00	0	41	0	274726912	56	6238
2026-01-22 19:16:30.80	25.10	10.70	-41.3	-42.5	21.5	0.00e+00	0	41	0	279969792	56	6066
2026-01-22 19:16:33.84	24.62	10.83	-41.4	-42.5	21.6	0.00e+00	90	41	0	285212672	56	6071
2026-01-22 19:16:36.86	24.13	10.97	-40.4	-41.4	22.3	0.00e+00	0	41	0	291504128	54	6026
2026-01-22 19:16:39.89	23.64	11.10	-40.5	-41.5	22.3	0.00e+00	0	41	0	296747008	54	6052
2026-01-22 19:16:42.92	23.15	11.23	-40.6	-41.7	22.2	0.00e+00	0	41	0	303038464	54	6177
2026-01-22 19:16:45.95	22.65	11.37	-40.7	-41.7	22.2	0.00e+00	45	41	0	308281344	54	6211
2026-01-22 19:16:48.98	22.15	11.50	-41.0	-42.1	21.9	0.00e+00	0	41	0	314572800	54	6520
2026-01-22 19:16:52.01	21.64	11.62	-40.3	-41.3	22.5	0.00e+00	0	41	0	319815680	54	5951
2026-01-22 19:16:55.04	21.12	11.75	-39.9	-40.8	22.9	0.00e+00	27	41	0	325058560	54	5620
2026-01-22 19:16:58.07	20.61	11.87	-40.2	-41.2	22.7	0.00e+00	0	41	0	331350016	54	5836
2026-01-22 19:17:01.09	20.09	12.00	-40.4	-41.4	22.5	0.00e+00	0	41	0	336592896	54	6007
2026-01-22 19:17:04.13	19.56	12.12	-40.9	-42.0	22.1	0.00e+00	90	41	0	342884352	54	6405
2026-01-22 19:17:07.16	19.03	12.24	-40.9	-41.9	22.1	0.00e+00	0	41	0	348127232	54	6386
2026-01-22 19:17:10.19	18.50	12.36	-40.8	-41.8	22.1	0.00e+00	0	42	0	353370112	54	6281
2026-01-22 19:17:13.22	17.96	12.47	-41.0	-42.1	22.0	0.00e+00	14	41	0	359661568	54	6490
2026-01-22 19:17:16.25	17.41	12.59	-41.3	-42.4	21.5	0.00e+00	45	41	0	364904448	54	6737
2026-01-22 19:17:19.28	16.87	12.70	-41.0	-42.1	22.0	0.00e+00	0	41	0	371195904	54	6468
2026-01-22 19:17:22.31	16.32	12.81	-40.4	-41.4	22.5	0.00e+00	0	41	0	376438784	54	6031
2026-01-22 19:17:25.34	15.76	12.92	-40.5	-41.5	22.4	0.00e+00	44	41	0	382730240	54	6075
2026-01-22 19:17:28.37	15.20	13.02	-40.6	-41.6	22.2	0.00e+00	0	41	0	387973120	54	6159
2026-01-22 19:17:31.39	14.64	13.12	-40.6	-41.6	22.3	0.00e+00	0	41	0	393216000	54	6154
2026-01-22 19:17:34.42	14.07	13.22	-40.3	-41.3	22.6	0.00e+00	89	41	0	399507456	54	5897
2026-01-22 19:17:37.45	13.50	13.32	-40.8	-41.8	22.2	0.00e+00	0	42	0	404750336	54	6314
2026-01-22 19:17:40.48	12.92	13.42	-41.3	-42.5	21.6	0.00e+00	0	42	0	411041792	54	6826
2026-01-22 19:17:43.51	12.35	13.51	-41.0	-42.1	22.0	0.00e+00	0	42	0	416284672	54	6496
2026-01-22 19:17:46.55	11.76	13.60	-40.5	-41.5	22.4	0.00e+00	41	42	0	422576128	54	6047
2026-01-22 19:17:49.57	11.18	13.69	-39.8	-40.7	23.0	0.00e+00	0	42	0	427819008	54	5548
2026-01-22 19:17:52.59	10.59	13.78	-40.2	-41.1	22.7	0.00e+00	0	42	0	433061888	52	6523
2026-01-22 19:17:55.63	9.99	13.86	-40.0	-41.0	22.8	0.00e+00	75	42	0	439353344	52	6427
2026-01-22 19:17:58.65	9.40	13.94	-39.8	-40.7	22.9	0.00e+00	0	42	0	444596224	52	6216
2026-01-22 19:18:01.69	8.80	14.02	-39.8	-40.7	23.1	0.00e+00	0	41	0	450887680	52	6219
2026-01-22 19:18:04.72	8.19	14.09	-40.2	-41.2	22.7	0.00e+00	41	41	0	456130560	52	6587
2026-01-22 19:18:07.74	7.59	14.16	-40.7	-41.8	22.2	0.00e+00	0	42	0	461373440	54	6251
2026-01-22 19:18:10.78	6.98	14.23	-41.0	-42.1	22.1	0.00e+00	0	42	0	467664896	54	6476
2026-01-22 19:18:13.80	6.37	14.29	-40.9	-42.0	22.0	0.00e+00	0	42	0	472907776	54	6441
2026-01-22 19:18:16.83	5.76	14.36	-41.3	-42.4	21.7	0.00e+00	30	41	0	479199232	54	6758
2026-01-22 19:18:19.86	5.14	14.41	-41.1	-42.2	21.9	0.00e+00	0	41	0	484442112	54	6597
2026-01-22 19:18:22.89	4.52	14.47	-40.9	-42.0	22.0	0.00e+00	0	41	0	490733568	54	6422
2026-01-22 19:18:25.92	3.90	14.52	-40.5	-41.5	22.5	0.00e+00	74	41	0	495976448	54	6097
2026-01-22 19:18:28.95	3.28	14.57	-40.0	-41.0	22.9	0.00e+00	0	41	0	501219328	54	5703
2026-01-22 19:18:31.98	2.65	14.62	-40.6	-41.6	22.4	0.00e+00	0	41	0	507510784	54	6136
2026-01-22 19:18:35.01	2.02	14.66	-40.5	-41.6	22.5	0.00e+00	0	41	0	512753664	54	6104
2026-01-22 19:18:38.04	1.39	14.70	-40.2	-41.2	22.7	0.00e+00	15	41	0	519045120	54	5877
2026-01-22 19:18:41.06	0.77	14.73	-40.3	-41.3	22.6	0.00e+00	0	41	0	524288000	54	5918
2026-01-22 19:18:44.09	0.13	14.77	-40.6	-41.6	22.4	0.00e+00	0	41	0	529530880	54	6171
2026-01-22 19:18:47.12	359.50	14.80	-40.6	-41.7	22.3	0.00e+00	45	41	0	535822336	54	6200
2026-01-22 19:18:50.15	358.86	14.82	-40.8	-41.9	22.2	0.00e+00	0	41	0	541065216	54	6351
2026-01-22 19:18:53.18	358.23	14.84	-40.6	-41.6	22.4	0.00e+00	0	41	0	547356672	54	6143
2026-01-22 19:18:56.21	357.59	14.86	-40.4	-41.4	22.5	0.00e+00	92	41	0	552599552	54	5985
2026-01-22 19:18:59.24	356.96	14.88	-40.4	-41.4	22.5	0.00e+00	0	41	0	558891008	54	6027
2026-01-22 19:19:02.27	356.32	14.89	-40.6	-41.7	22.3	0.00e+00	0	41	0	564133888	54	6184
2026-01-22 19:19:05.30	355.68	14.89	-40.6	-41.6	22.4	0.00e+00	0	41	0	569376768	54	6149
2026-01-22 19:19:08.33	355.04	14.90	-40.8	-42.0	22.0	0.00e+00	0	41	0	575668224	54	6395
2026-01-22 19:19:11.36	354.40	14.90	-40.8	-41.8	22.2	0.00e+00	0	41	0	580911104	54	6281
2026-01-22 19:19:14.39	353.76	14.89	-39.9	-40.8	23.1	0.00e+00	0	41	0	587202560	54	5599
2026-01-22 19:19:17.42	353.13	14.89	-40.1	-41.1	22.7	0.00e+00	90	41	0	592445440	54	5819
2026-01-22 19:19:20.45	352.49	14.88	-40.8	-41.9	22.1	0.00e+00	0	41	0	597688320	54	6376
2026-01-22 19:19:23.48	351.85	14.86	-40.9	-42.0	22.0	0.00e+00	0	41	0	603979776	54	6443
2026-01-22 19:19:26.51	351.21	14.85	-41.0	-42.0	22.0	0.00e+00	92	41	0	609222656	54	6460
2026-01-22 19:19:29.54	350.58	14.83	-41.5	-42.6	21.6	0.00e+00	0	41	0	615514112	54	6903
2026-01-22 19:19:32.58	349.94	14.80	-41.1	-42.2	21.9	0.00e+00	0	41	0	620756992	54	6591
2026-01-22 19:19:35.61	349.31	14.77	-40.9	-41.9	22.1	0.00e+00	0	41	0	627048448	54	6383
2026-01-22 19:19:38.64	348.67	14.74	-40.4	-41.4	22.7	0.00e+00	60	41	0	632291328	54	6026
2026-01-22 19:19:41.67	348.04	14.71	-40.5	-41.5	22.6	0.00e+00	0	41	0	637534208	54	6048
2026-01-22 19:19:44.70	347.41	14.67	-40.7	-41.7	22.3	0.00e+00	0	41	0	643825664	54	6243
2026-01-22 19:19:47.73	346.79	14.63	-40.1	-41.1	22.8	0.00e+00	66	41	0	649068544	54	5794
2026-01-22 19:19:50.76	346.16	14.58	-39.8	-40.7	23.0	0.00e+00	0	41	0	655360000	52	6235
2026-01-22 19:19:53.79	345.54	14.53	-40.1	-41.1	22.8	0.00e+00	0	41	0	660602880	52	6492
2026-01-22 19:19:56.82	344.91	14.48	-40.2	-41.3	22.9	0.00e+00	92	41	0	665845760	52	6616
2026-01-22 19:19:59.85	344.30	14.43	-40.5	-41.6	22.5	0.00e+00	0	41	0	672137216	52	6867
2026-01-22 19:20:02.88	343.68	14.37	-40.8	-41.9	22.1	0.00e+00	0	41	0	677380096	54	6339
2026-01-22 19:20:05.91	343.06	14.31	-40.8	-41.9	22.1	0.00e+00	0	41	0	683671552	54	6388
2026-01-22 19:20:08.94	342.45	14.24	-40.7	-41.8	22.2	0.00e+00	82	41	0	688914432	54	6311
2026-01-22 19:20:11.97	341.84	14.18	-40.1	-41.2	22.7	0.00e+00	0	41	0	695205888	54	5856
2026-01-22 19:20:15.00	341.24	14.11	-40.1	-41.2	22.7	0.00e+00	0	41	0	700448768	54	5840
2026-01-22 19:20:18.03	340.63	14.03	-40.0	-41.0	22.8	0.00e+00	27	41	0	705691648	54	5743
2026-01-22 19:20:21.06	340.03	13.96	-40.2	-41.2	22.8	0.00e+00	0	41	0	711983104	54	5890
2026-01-22 19:20:24.09	339.43	13.88	-40.5	-41.6	22.4	0.00e+00	0	41	0	717225984	54	6127
2026-01-22 19:20:27.11	338.84	13.79	-40.8	-41.9	22.2	0.00e+00	76	41	0	723517440	54	6373
2026-01-22 19:20:30.14	338.25	13.71	-40.8	-41.9	22.1	0.00e+00	42	41	0	728760320	54	6340
2026-01-22 19:20:33.17	337.67	13.62	-40.6	-41.7	22.3	0.00e+00	0	41	0	734003200	54	6236
2026-01-22 19:20:36.20	337.08	13.53	-40.8	-41.9	22.1	0.00e+00	0	41	0	740294656	54	6386
2026-01-22 19:20:39.22	336.50	13.44	-40.8	-41.9	22.2	0.00e+00	34	41	0	745537536	54	6354
2026-01-22 19:20:42.26	335.93	13.34	-40.4	-41.5	22.5	0.00e+00	0	41	0	751828992	54	6039
2026-01-22 19:20:45.28	335.36	13.25	-40.6	-41.7	22.3	0.00e+00	0	41	0	757071872	54	6191
2026-01-22 19:20:48.31	334.79	13.15	-40.6	-41.6	22.4	0.00e+00	60	41	0	763363328	54	6151
2026-01-22 19:20:51.34	334.22	13.04	-40.1	-41.1	22.7	0.00e+00	0	41	0	768606208	54	5790
2026-01-22 19:20:54.37	333.66	12.94	-39.8	-40.7	22.9	0.00e+00	0	41	0	773849088	52	6234
2026-01-22 19:20:57.40	333.10	12.83	-39.9	-40.8	22.8	0.00e+00	0	41	0	780140544	52	6278
2026-01-22 19:21:00.43	332.55	12.72	-40.3	-41.2	22.7	0.00e+00	0	41	0	785383424	52	6595
2026-01-22 19:21:03.45	332.01	12.61	-40.6	-41.6	22.3	0.00e+00	0	41	0	791674880	52	6924
2026-01-22 19:21:06.48	331.46	12.50	-41.2	-42.3	21.9	0.00e+00	0	41	0	796917760	54	6639
2026-01-22 19:21:09.51	330.92	12.38	-41.4	-42.5	21.4	0.00e+00	92	41	0	802160640	54	6800
2026-01-22 19:21:12.53	330.39	12.27	-41.1	-42.2	21.8	0.00e+00	0	41	0	808452096	54	6577
2026-01-22 19:21:15.56	329.86	12.15	-41.3	-42.3	21.8	0.00e+00	0	41	0	813694976	54	6690
2026-01-22 19:21:18.59	329.33	12.03	-41.3	-42.4	21.8	0.00e+00	90	41	0	819986432	54	6709
2026-01-22 19:21:21.62	328.81	11.90	-41.4	-42.5	21.6	0.00e+00	0	41	0	825229312	54	6833
2026-01-22 19:21:24.65	328.29	11.78	-41.5	-42.6	21.6	0.00e+00	0	41	0	831520768	54	6870
2026-01-22 19:21:27.68	327.78	11.65	-41.8	-42.9	21.3	0.00e+00	0	41	0	836763648	56	6339
2026-01-22 19:21:30.70	327.27	11.53	-42.1	-43.2	21.2	0.00e+00	30	41	0	842006528	56	6580
2026-01-22 19:21:33.73	326.77	11.40	-41.4	-42.5	21.8	0.00e+00	0	41	0	848297984	56	6040
2026-01-22 19:21:36.76	326.27	11.27	-41.3	-42.4	21.9	0.00e+00	0	41	0	853540864	56	5992
2026-01-22 19:21:39.80	325.77	11.13	-42.1	-43.3	21.1	0.00e+00	84	41	0	859832320	56	6623
2026-01-22 19:21:42.83	325.28	11.00	-43.0	-44.4	20.0	0.00e+00	0	41	0	865075200	58	6703
2026-01-22 19:21:45.86	324.79	10.86	-42.5	-43.8	20.6	0.00e+00	0	41	0	870318080	58	6288
2026-01-22 19:21:48.89	324.31	10.73	-42.1	-43.3	21.0	0.00e+00	17	41	0	876609536	58	5947
2026-01-22 19:21:51.93	323.83	10.59	-42.4	-43.7	20.8	0.00e+00	0	41	0	881852416	56	6930
2026-01-22 19:21:54.96	323.36	10.45	-43.7	-45.2	19.3	0.00e+00	33	41	0	888143872	58	7366
2026-01-22 19:21:57.98	322.89	10.31	-44.7	-46.5	18.0	0.00e+00	0	41	0	893386752	60	7632
2026-01-22 19:22:01.02	322.43	10.17	-44.3	-46.0	18.6	0.00e+00	47	41	0	899678208	60	7213
2026-01-22 19:22:04.05	321.97	10.03	-43.6	-45.1	19.4	0.00e+00	0	41	0	904921088	60	6519
2026-01-22 19:22:07.08	321.51	9.89	-43.4	-44.9	19.6	0.00e+00	0	41	0	910163968	60	6340
2026-01-22 19:22:10.11	321.06	9.75	-43.3	-44.7	19.8	0.00e+00	90	41	0	916455424	60	6195
2026-01-22 19:22:13.13	320.62	9.60	-42.7	-44.0	20.4	0.00e+00	0	41	0	921698304	58	6399
2026-01-22 19:22:16.16	320.18	9.46	-42.8	-44.1	20.3	0.00e+00	0	41	0	927989760	58	6475
2026-01-22 19:22:19.19	319.74	9.31	-42.7	-43.9	20.5	0.00e+00	88	41	0	933232640	58	6379
2026-01-22 19:22:22.22	319.31	9.17	-42.4	-43.6	20.7	0.00e+00	43	41	0	938475520	58	6169
2026-01-22 19:22:25.25	318.88	9.02	-42.3	-43.5	20.8	0.00e+00	0	41	0	944766976	58	6043
2026-01-22 19:22:28.28	318.46	8.87	-41.9	-43.1	21.1	0.00e+00	33	41	0	950009856	58	5792
2026-01-22 19:22:31.31	318.04	8.72	-41.8	-43.0	21.1	0.00e+00	53	41	0	956301312	58	5741
2026-01-22 19:22:34.34	317.63	8.57	-42.4	-43.7	20.5	0.00e+00	0	41	0	961544192	58	6214
2026-01-22 19:22:37.37	317.21	8.42	-42.8	-44.2	20.0	0.00e+00	0	41	0	967835648	58	6568
2026-01-22 19:22:40.41	316.81	8.27	-43.0	-44.4	20.0	0.00e+00	78	41	0	973078528	58	6718
2026-01-22 19:22:43.44	316.41	8.12	-42.5	-43.8	20.4	0.00e+00	0	41	0	978321408	58	6275
2026-01-22 19:22:46.46	316.01	7.97	-42.4	-43.7	20.6	0.00e+00	0	41	0	984612864	58	6214
2026-01-22 19:22:49.49	315.62	7.82	-42.2	-43.5	20.7	0.00e+00	0	41	0	989855744	58	6040
2026-01-22 19:22:52.52	315.23	7.67	-41.9	-43.1	21.0	0.00e+00	0	41	0	996147200	58	5821
2026-01-22 19:22:55.55	314.84	7.52	-41.3	-42.4	21.7	0.00e+00	0	41	0	1001390080	56	6011
2026-01-22 19:22:58.58	314.46	7.37	-40.9	-41.9	22.0	0.00e+00	0	41	0	1006632960	56	5688
2026-01-22 19:23:01.61	314.08	7.21	-41.3	-42.4	21.8	0.00e+00	45	41	0	1012924416	56	5972
2026-01-22 19:23:04.63	313.71	7.06	-41.3	-42.5	21.6	0.00e+00	0	41	0	1018167296	56	6049
2026-01-22 19:23:07.66	313.34	6.91	-41.5	-42.6	21.3	0.00e+00	0	41	0	1024458752	56	6167
2026-01-22 19:23:10.69	312.98	6.76	-41.2	-42.3	21.6	0.00e+00	72	41	0	1029701632	56	5947
2026-01-22 19:23:13.72	312.62	6.60	-41.4	-42.5	21.5	0.00e+00	0	41	0	1035993088	56	6047
2026-01-22 19:23:16.75	312.26	6.45	-42.0	-43.3	20.9	0.00e+00	0	41	0	1041235968	56	6621
2026-01-22 19:23:19.77	311.91	6.30	-42.3	-43.6	20.5	0.00e+00	0	41	0	1046478848	56	6908
2026-01-22 19:23:22.80	311.56	6.14	-42.3	-43.6	20.4	0.00e+00	18	41	0	1052770304	56	6920
2026-01-22 19:23:25.83	311.21	5.99	-42.4	-43.8	20.1	0.00e+00	0	41	0	1058013184	56	7016
2026-01-22 19:23:28.86	310.87	5.83	-42.4	-43.7	20.3	0.00e+00	0	41	0	1064304640	56	6959
2026-01-22 19:23:31.89	310.53	5.68	-42.6	-44.0	20.0	0.00e+00	73	41	0	1069547520	58	6413
2026-01-22 19:23:34.92	310.20	5.53	-42.3	-43.6	20.0	0.00e+00	0	41	0	1074790400	58	6106
2026-01-22 19:23:37.95	309.87	5.37	-42.3	-43.7	20.3	0.00e+00	0	41	0	1081081856	58	6178
2026-01-22 19:23:40.98	309.54	5.22	-42.2	-43.5	20.6	0.00e+00	77	41	0	1086324736	58	6052
2026-01-22 19:23:44.00	309.22	5.06	-42.1	-43.3	20.6	0.00e+00	0	41	0	1092616192	56	6687
2026-01-22 19:23:47.03	308.89	4.91	-41.6	-42.8	21.0	0.00e+00	0	41	0	1097859072	56	6305
2026-01-22 19:23:50.06	308.58	4.76	-42.0	-43.3	20.5	0.00e+00	0	41	0	1104150528	56	6663
2026-01-22 19:23:53.10	308.26	4.60	-42.4	-43.8	19.9	0.00e+00	34	41	0	1109393408	56	7048
2026-01-22 19:23:56.13	307.95	4.45	-42.9	-44.4	19.5	0.00e+00	0	41	0	1114636288	58	6743
2026-01-22 19:23:59.16	307.65	4.29	-42.9	-44.3	19.5	0.00e+00	29	41	0	1120927744	58	6688
2026-01-22 19:24:02.18	307.34	4.14	-42.0	-43.3	20.4	0.00e+00	91	41	0	1126170624	58	5919
2026-01-22 19:24:05.21	307.04	3.99	-42.1	-43.4	20.2	0.00e+00	0	41	0	1132462080	56	6744
2026-01-22 19:24:08.24	306.75	3.83	-41.9	-43.1	20.4	0.00e+00	0	41	0	1137704960	56	6530
2026-01-22 19:24:11.27	306.45	3.68	-42.1	-43.4	20.1	0.00e+00	32	41	0	1142947840	56	6724
2026-01-22 19:24:14.30	306.16	3.53	-42.2	-43.5	20.1	0.00e+00	41	41	0	1149239296	56	6819
2026-01-22 19:24:17.33	305.87	3.38	-42.1	-43.4	20.2	0.00e+00	0	41	0	1154482176	58	5981
2026-01-22 19:24:20.36	305.59	3.22	-43.2	-44.8	18.9	0.00e+00	0	41	0	1160773632	58	7047
2026-01-22 19:24:23.39	305.31	3.07	-43.8	-45.6	18.0	0.00e+00	31	41	0	1166016512	60	6870
2026-01-22 19:24:26.42	305.03	2.92	-50.5	-65.7	3.6	1.51e+00	0	41	104	1168113664	60	69611
2026-01-22 19:24:29.45	304.75	2.77	-50.9	-66.1	3.6	1.51e+00	0	41	104	1168113664	60	73373
2026-01-22 19:24:32.48	304.48	2.61	-51.0	-66.2	3.6	1.51e+00	0	41	104	1168113664	60	74150
2026-01-22 19:24:35.51	304.21	2.46	-51.1	-66.3	3.6	1.51e+00	0	41	104	1168113664	60	74531
2026-01-22 19:24:38.54	303.94	2.31	-51.0	-66.3	3.6	1.51e+00	0	41	104	1168113664	60	74433
2026-01-22 19:24:41.57	303.68	2.16	-51.0	-66.2	3.6	1.51e+00	0	41	104	1168113664	60	73934
2026-01-22 19:24:44.60	303.42	2.01	-50.9	-66.2	3.6	1.51e+00	0	41	104	1168113664	60	74067
2026-01-22 19:24:47.63	303.16	1.86	-51.0	-66.2	3.6	1.51e+00	0	41	104	1168113664	60	73904
2026-01-22 19:24:50.66	302.90	1.71	-51.1	-66.3	3.6	1.51e+00	0	41	104	1168113664	60	74511
2026-01-22 19:24:53.69	302.65	1.56	-51.0	-66.2	3.6	1.51e+00	0	41	104	1168113664	60	73943
2026-01-22 19:24:56.72	302.40	1.41	-51.0	-66.2	3.6	1.51e+00	0	42	104	1168113664	60	73989
2026-01-22 19:24:59.75	302.15	1.26	-51.0	-66.2	3.6	1.51e+00	0	41	104	1168113664	60	74070
2026-01-22 19:25:02.78	301.91	1.11	-51.0	-66.2	3.6	1.51e+00	0	41	104	1168113664	60	74187
2026-01-22 19:25:05.81	301.66	0.96	-51.1	-66.3	3.6	1.51e+00	0	41	104	1168113664	60	74609
2026-01-22 19:25:08.84	301.42	0.81	-51.0	-66.3	3.6	1.51e+00	0	41	104	1168113664	60	74337
2026-01-22 19:25:11.87	301.19	0.66	-51.1	-66.3	3.6	1.51e+00	0	41	104	1168113664	60	74228
2026-01-22 19:25:14.90	300.95	0.52	-51.0	-66.3	3.6	1.51e+00	0	41	104	1168113664	60	74653
2026-01-22 19:25:17.93	300.72	0.37	-51.1	-66.3	3.6	1.51e+00	0	41	104	1168113664	60	74680
2026-01-22 19:25:20.96	300.49	0.22	-51.0	-66.3	3.6	1.51e+00	0	41	104	1168113664	60	74360
2026-01-22 19:25:23.99	300.26	0.07	-51.1	-66.3	3.6	1.51e+00	0	41	104	1168113664	60	74443

#Closed at: 2026-01-22 19:25:26
#Recorded file [1168 MB]: D:/lorett/data/35029_260123_071255.dat