passes_logs/2026/01/22/R4.6S_Anadyr/R4.6S_Anadyr__20260122_193304_NOAA_20_JPSS-1_rec.log

#Pass ID: 20260122_193304_NOAA 20 (JPSS-1)
#Satellite: NOAA 20 (JPSS-1)
#Configuration: NOAA 20
#almurnet v.1.7.20251203
#Start time: 2026-01-22 19:33:06

#Version: 2.2.20231116
#Station: R4.6S_Anadyr
#Location: 177.4865 lon 64.73178 lat
#TLE: 1 43013U 17073A   26021.46221703  .00000173  00000+0  10299-3 0  9999
#TLE: 2 43013  98.7644 322.3335 0001238  29.7597 330.3649 14.19538314423652

#Time	Az	El	Level	Level2	SNR	BER	BlckErr	Temp	State	Recorded	gain1	gain2
2026-01-22 19:33:06.04	54.85	0.09	-51.1	-66.0	3.5	1.51e+00	0	39	0	0	60	71776
2026-01-22 19:33:09.07	54.62	0.24	-51.3	-66.5	3.5	1.51e+00	0	40	104	0	60	76450
2026-01-22 19:33:12.10	54.39	0.39	-51.2	-66.4	3.6	1.51e+00	0	40	104	0	60	75915
2026-01-22 19:33:15.13	54.16	0.54	-51.2	-66.4	3.5	1.51e+00	0	40	104	0	60	75385
2026-01-22 19:33:18.16	53.92	0.68	-51.1	-66.4	3.6	1.51e+00	0	41	104	0	60	75253
2026-01-22 19:33:21.18	53.68	0.83	-51.1	-66.4	3.6	1.51e+00	0	41	104	0	60	75097
2026-01-22 19:33:24.21	53.44	0.98	-51.0	-66.2	3.6	1.51e+00	0	41	104	0	60	73681
2026-01-22 19:33:27.24	53.19	1.13	-50.8	-66.0	3.6	1.51e+00	0	41	104	0	60	72237
2026-01-22 19:33:30.27	52.95	1.28	-50.3	-65.6	3.6	1.51e+00	0	41	104	0	60	68786
2026-01-22 19:33:33.30	52.70	1.42	-49.6	-64.8	3.6	1.51e+00	0	41	104	0	60	62694
2026-01-22 19:33:36.33	52.44	1.57	-49.6	-64.8	3.6	1.51e+00	0	41	104	0	60	62683
2026-01-22 19:33:39.36	52.19	1.72	-49.6	-64.8	3.5	1.51e+00	0	41	104	0	60	62607
2026-01-22 19:33:42.40	51.93	1.87	-49.6	-64.8	3.6	1.51e+00	0	41	104	0	60	62482
2026-01-22 19:33:45.43	51.67	2.02	-49.6	-64.8	3.6	1.51e+00	0	41	104	0	60	62694
2026-01-22 19:33:48.45	51.41	2.17	-49.6	-64.6	3.6	1.51e+00	0	41	104	0	60	61733
2026-01-22 19:33:51.48	51.14	2.32	-49.6	-64.6	3.6	1.51e+00	0	41	104	0	60	61202
2026-01-22 19:33:54.51	50.87	2.47	-49.6	-64.8	3.6	1.51e+00	0	41	104	0	60	63147
2026-01-22 19:33:57.54	50.60	2.63	-49.6	-64.8	3.6	1.51e+00	0	41	104	0	60	62672
2026-01-22 19:34:00.57	50.32	2.78	-49.6	-64.3	3.6	1.51e+00	0	41	104	0	60	59544
2026-01-22 19:34:03.60	50.05	2.93	-49.6	-64.6	3.6	1.51e+00	0	41	104	0	60	61050
2026-01-22 19:34:06.63	49.77	3.08	-49.4	-59.6	4.0	5.20e-01	76	41	0	1048576	60	34335
2026-01-22 19:34:09.66	49.48	3.23	-49.6	-64.0	3.6	1.51e+00	0	41	104	2097152	60	57312
2026-01-22 19:34:12.69	49.20	3.38	-47.4	-51.4	12.1	2.35e-04	92	41	0	4194304	60	13463
2026-01-22 19:34:15.72	48.91	3.53	-47.9	-52.4	11.2	7.26e-04	81	41	0	9437184	60	15138
2026-01-22 19:34:18.75	48.61	3.69	-48.0	-52.8	10.9	2.14e-03	81	41	0	15728640	60	15796
2026-01-22 19:34:21.78	48.32	3.84	-47.4	-51.3	12.4	1.90e-04	92	41	0	20971520	60	13257
2026-01-22 19:34:24.81	48.02	3.99	-47.3	-51.1	13.0	1.13e-04	0	41	0	27262976	60	12999
2026-01-22 19:34:27.84	47.72	4.14	-45.3	-47.6	16.8	0.00e+00	0	41	0	32505856	60	8637
2026-01-22 19:34:30.87	47.41	4.30	-44.7	-46.7	17.5	0.00e+00	92	41	0	37748736	60	7798
2026-01-22 19:34:33.90	47.10	4.45	-44.6	-46.6	17.6	0.00e+00	19	41	0	44040192	60	7699
2026-01-22 19:34:36.93	46.79	4.60	-44.5	-46.3	17.8	0.00e+00	81	41	0	49283072	60	7483
2026-01-22 19:34:39.96	46.47	4.75	-44.2	-45.9	18.2	0.00e+00	91	41	0	55574528	60	7132
2026-01-22 19:34:42.99	46.15	4.91	-44.1	-45.8	18.4	0.00e+00	91	41	0	60817408	60	7087
2026-01-22 19:34:46.02	45.83	5.06	-44.4	-46.2	18.3	0.00e+00	0	41	0	67108864	60	7340
2026-01-22 19:34:49.06	45.50	5.21	-44.2	-45.9	18.4	0.00e+00	92	41	0	72351744	60	7139
2026-01-22 19:34:52.09	45.17	5.37	-44.2	-45.9	18.4	0.00e+00	92	41	0	77594624	60	7140
2026-01-22 19:34:55.12	44.84	5.52	-43.8	-45.4	19.0	0.00e+00	1	41	0	83886080	60	6725
2026-01-22 19:34:58.14	44.50	5.67	-43.9	-45.5	18.9	0.00e+00	0	41	0	89128960	60	6803
2026-01-22 19:35:01.18	44.16	5.82	-43.9	-45.5	18.8	0.00e+00	90	41	0	95420416	60	6810
2026-01-22 19:35:04.21	43.82	5.98	-43.9	-45.6	18.9	0.00e+00	73	41	0	100663296	60	6851
2026-01-22 19:35:07.23	43.47	6.13	-44.0	-45.6	18.8	0.00e+00	0	41	0	105906176	60	6872
2026-01-22 19:35:10.26	43.12	6.28	-43.8	-45.4	19.0	0.00e+00	92	41	0	112197632	60	6753
2026-01-22 19:35:13.29	42.76	6.43	-43.7	-45.3	19.2	0.00e+00	92	41	0	117440512	60	6665
2026-01-22 19:35:16.32	42.41	6.59	-43.7	-45.3	19.2	0.00e+00	0	41	0	123731968	60	6616
2026-01-22 19:35:19.35	42.04	6.74	-43.6	-45.1	19.4	0.00e+00	91	41	0	128974848	60	6508
2026-01-22 19:35:22.38	41.68	6.89	-43.6	-45.1	19.4	0.00e+00	92	41	0	135266304	60	6479
2026-01-22 19:35:25.40	41.31	7.04	-43.5	-45.0	19.5	0.00e+00	0	41	0	140509184	60	6438
2026-01-22 19:35:28.43	40.93	7.19	-43.4	-44.8	19.6	0.00e+00	6	41	0	145752064	60	6296
2026-01-22 19:35:31.46	40.55	7.34	-43.5	-45.0	19.7	0.00e+00	92	41	0	152043520	60	6392
2026-01-22 19:35:34.49	40.17	7.49	-43.3	-44.7	19.8	0.00e+00	0	41	0	157286400	60	6233
2026-01-22 19:35:37.52	39.78	7.65	-43.4	-44.9	19.6	0.00e+00	0	41	0	163577856	60	6358
2026-01-22 19:35:40.54	39.39	7.79	-43.2	-44.6	20.0	0.00e+00	92	41	0	168820736	60	6160
2026-01-22 19:35:43.57	39.00	7.94	-43.2	-44.6	19.9	0.00e+00	49	41	0	174063616	60	6145
2026-01-22 19:35:46.60	38.60	8.09	-42.8	-44.2	20.3	0.00e+00	84	41	0	180355072	60	5850
2026-01-22 19:35:49.62	38.19	8.24	-42.9	-44.2	20.3	0.00e+00	92	41	0	185597952	60	5873
2026-01-22 19:35:52.66	37.79	8.39	-42.9	-44.2	20.3	0.00e+00	92	41	0	191889408	60	5883
2026-01-22 19:35:55.69	37.37	8.54	-43.1	-44.5	20.0	0.00e+00	8	41	0	197132288	60	6086
2026-01-22 19:35:58.72	36.96	8.69	-43.1	-44.4	19.9	0.00e+00	75	41	0	203423744	60	6033
2026-01-22 19:36:01.74	36.54	8.83	-42.9	-44.2	20.4	0.00e+00	90	41	0	208666624	60	5894
2026-01-22 19:36:04.78	36.11	8.98	-42.9	-44.2	20.4	0.00e+00	81	41	0	213909504	60	5871
2026-01-22 19:36:07.81	35.68	9.12	-43.0	-44.4	20.3	0.00e+00	2	41	0	220200960	60	5991
2026-01-22 19:36:10.84	35.25	9.27	-42.9	-44.2	20.5	0.00e+00	92	41	0	225443840	60	5876
2026-01-22 19:36:13.86	34.81	9.41	-42.7	-44.0	20.5	0.00e+00	2	41	0	231735296	58	6455
2026-01-22 19:36:16.89	34.37	9.55	-42.4	-43.7	20.8	0.00e+00	0	41	0	236978176	58	6197
2026-01-22 19:36:19.92	33.92	9.70	-42.2	-43.4	21.0	0.00e+00	82	41	0	242221056	58	6003
2026-01-22 19:36:22.95	33.47	9.84	-42.0	-43.2	21.3	0.00e+00	92	41	0	248512512	58	5868
2026-01-22 19:36:25.98	33.02	9.98	-41.9	-43.0	21.5	0.00e+00	0	41	0	253755392	58	5750
2026-01-22 19:36:28.99	32.56	10.12	-41.8	-42.9	21.7	0.00e+00	81	41	0	260046848	56	6371
2026-01-22 19:36:32.02	32.09	10.25	-41.4	-42.5	22.1	0.00e+00	92	41	0	265289728	56	6066
2026-01-22 19:36:35.05	31.62	10.39	-41.5	-42.6	22.0	0.00e+00	0	41	0	271581184	56	6152
2026-01-22 19:36:38.08	31.15	10.53	-41.2	-42.3	22.2	0.00e+00	4	41	0	276824064	56	5925
2026-01-22 19:36:41.11	30.67	10.66	-41.5	-42.5	22.0	0.00e+00	92	41	0	282066944	56	6097
2026-01-22 19:36:44.14	30.19	10.79	-41.0	-42.1	22.5	0.00e+00	2	41	0	288358400	56	5779
2026-01-22 19:36:47.17	29.70	10.93	-40.9	-41.9	22.6	0.00e+00	79	41	0	293601280	56	5682
2026-01-22 19:36:50.20	29.21	11.06	-40.9	-41.9	22.6	0.00e+00	0	41	0	299892736	56	5680
2026-01-22 19:36:53.23	28.72	11.19	-41.0	-42.0	22.5	0.00e+00	79	41	0	305135616	56	5710
2026-01-22 19:36:56.26	28.22	11.32	-40.7	-41.6	22.7	0.00e+00	1	41	0	310378496	54	6170
2026-01-22 19:36:59.29	27.71	11.44	-40.4	-41.4	23.0	0.00e+00	0	41	0	316669952	54	5984
2026-01-22 19:37:02.32	27.20	11.57	-40.4	-41.4	23.0	0.00e+00	92	41	0	321912832	54	5967
2026-01-22 19:37:05.35	26.69	11.69	-40.6	-41.6	23.0	0.00e+00	80	41	0	328204288	54	6107
2026-01-22 19:37:08.39	26.17	11.81	-40.6	-41.5	22.9	0.00e+00	80	41	0	333447168	54	6101
2026-01-22 19:37:11.42	25.65	11.93	-40.7	-41.7	22.7	0.00e+00	92	41	0	339738624	54	6233
2026-01-22 19:37:14.45	25.12	12.05	-40.7	-41.7	22.7	0.00e+00	0	41	0	344981504	54	6208
2026-01-22 19:37:17.48	24.59	12.17	-41.0	-42.0	22.5	0.00e+00	5	41	0	350224384	54	6426
2026-01-22 19:37:20.51	24.05	12.28	-41.3	-42.3	22.2	0.00e+00	1	41	0	356515840	54	6667
2026-01-22 19:37:23.54	23.51	12.40	-41.0	-42.0	22.5	0.00e+00	0	41	0	361758720	54	6440
2026-01-22 19:37:26.57	22.97	12.51	-41.2	-42.2	22.2	0.00e+00	84	41	0	368050176	54	6576
2026-01-22 19:37:29.60	22.42	12.61	-40.9	-42.0	22.4	0.00e+00	7	41	0	373293056	54	6399
2026-01-22 19:37:32.64	21.87	12.72	-40.9	-41.9	22.7	0.00e+00	92	41	0	378535936	54	6349
2026-01-22 19:37:35.66	21.31	12.83	-40.8	-41.8	22.7	0.00e+00	8	41	0	384827392	54	6248
2026-01-22 19:37:38.69	20.75	12.93	-40.7	-41.6	22.9	0.00e+00	3	41	0	390070272	54	6166
2026-01-22 19:37:41.72	20.19	13.03	-40.6	-41.6	22.9	0.00e+00	90	41	0	396361728	54	6139
2026-01-22 19:37:44.75	19.62	13.12	-40.7	-41.7	22.8	0.00e+00	0	41	0	401604608	54	6177
2026-01-22 19:37:47.78	19.05	13.22	-40.7	-41.7	22.8	0.00e+00	0	41	0	407896064	54	6186
2026-01-22 19:37:50.81	18.48	13.31	-40.7	-41.7	22.8	0.00e+00	90	41	0	413138944	54	6209
2026-01-22 19:37:53.84	17.90	13.40	-40.6	-41.5	22.9	0.00e+00	0	41	0	418381824	54	6088
2026-01-22 19:37:56.87	17.32	13.49	-40.5	-41.4	23.1	0.00e+00	0	41	0	424673280	54	6023
2026-01-22 19:37:59.90	16.73	13.57	-40.5	-41.4	23.1	0.00e+00	79	41	0	429916160	54	6024
2026-01-22 19:38:02.93	16.14	13.66	-40.5	-41.4	23.1	0.00e+00	92	41	0	436207616	54	6004
2026-01-22 19:38:05.96	15.55	13.74	-40.5	-41.5	23.0	0.00e+00	77	41	0	441450496	54	6067
2026-01-22 19:38:08.99	14.95	13.81	-40.6	-41.6	23.0	0.00e+00	0	41	0	446693376	54	6108
2026-01-22 19:38:12.02	14.36	13.89	-40.8	-41.8	22.7	0.00e+00	92	41	0	452984832	54	6295
2026-01-22 19:38:15.04	13.76	13.96	-41.0	-42.0	22.6	0.00e+00	0	41	0	458227712	54	6418
2026-01-22 19:38:18.08	13.15	14.02	-41.1	-42.2	22.5	0.00e+00	0	41	0	464519168	54	6553
2026-01-22 19:38:21.10	12.55	14.09	-41.2	-42.2	22.4	0.00e+00	92	41	0	469762048	54	6558
2026-01-22 19:38:24.13	11.94	14.15	-41.2	-42.3	22.4	0.00e+00	77	41	0	476053504	54	6648
2026-01-22 19:38:27.16	11.33	14.21	-41.7	-42.9	21.8	0.00e+00	0	41	0	481296384	54	7094
2026-01-22 19:38:30.19	10.71	14.26	-41.1	-42.2	22.5	0.00e+00	92	41	0	486539264	54	6564
2026-01-22 19:38:33.22	10.09	14.32	-41.1	-42.2	22.4	0.00e+00	0	41	0	492830720	54	6541
2026-01-22 19:38:36.25	9.48	14.36	-40.9	-41.9	22.6	0.00e+00	2	41	0	498073600	54	6353
2026-01-22 19:38:39.27	8.86	14.41	-40.7	-41.6	22.9	0.00e+00	3	41	0	504365056	54	6164
2026-01-22 19:38:42.30	8.24	14.45	-40.8	-41.8	22.8	0.00e+00	91	41	0	509607936	54	6263
2026-01-22 19:38:45.33	7.61	14.49	-40.8	-41.8	22.6	0.00e+00	81	41	0	514850816	54	6285
2026-01-22 19:38:48.36	6.99	14.53	-40.9	-41.9	22.8	0.00e+00	81	41	0	521142272	54	6390
2026-01-22 19:38:51.39	6.36	14.56	-41.1	-42.1	22.5	0.00e+00	92	41	0	526385152	54	6492
2026-01-22 19:38:54.42	5.73	14.59	-40.9	-41.9	22.7	0.00e+00	0	41	0	532676608	54	6335
2026-01-22 19:38:57.45	5.10	14.61	-40.9	-41.9	22.7	0.00e+00	1	41	0	537919488	54	6383
2026-01-22 19:39:00.48	4.47	14.64	-41.0	-42.1	22.6	0.00e+00	92	41	0	544210944	54	6467
2026-01-22 19:39:03.50	3.84	14.66	-40.8	-41.8	22.8	0.00e+00	61	41	0	549453824	54	6294
2026-01-22 19:39:06.53	3.21	14.67	-40.8	-41.8	22.8	0.00e+00	3	41	0	554696704	54	6309
2026-01-22 19:39:09.56	2.57	14.68	-41.2	-42.2	22.5	0.00e+00	82	41	0	560988160	54	6563
2026-01-22 19:39:12.59	1.94	14.69	-40.7	-41.6	23.0	0.00e+00	61	41	0	566231040	54	6162
2026-01-22 19:39:15.62	1.31	14.69	-40.8	-41.8	22.9	0.00e+00	7	41	0	572522496	54	6273
2026-01-22 19:39:18.65	0.67	14.70	-41.2	-42.3	22.5	0.00e+00	6	41	0	577765376	54	6620
2026-01-22 19:39:21.68	0.04	14.69	-40.8	-41.8	22.8	0.00e+00	92	41	0	583008256	54	6270
2026-01-22 19:39:24.71	359.41	14.69	-40.7	-41.6	22.9	0.00e+00	78	41	0	589299712	54	6167
2026-01-22 19:39:27.74	358.77	14.68	-41.1	-42.1	22.5	0.00e+00	79	41	0	594542592	54	6515
2026-01-22 19:39:30.76	358.14	14.67	-41.0	-42.0	22.7	0.00e+00	92	41	0	600834048	54	6427
2026-01-22 19:39:33.79	357.51	14.65	-41.0	-42.0	22.7	0.00e+00	0	41	0	606076928	54	6420
2026-01-22 19:39:36.82	356.88	14.63	-41.2	-42.2	22.4	0.00e+00	0	41	0	612368384	54	6612
2026-01-22 19:39:39.85	356.25	14.61	-41.2	-42.3	22.4	0.00e+00	72	41	0	617611264	54	6639
2026-01-22 19:39:42.88	355.62	14.58	-41.0	-42.1	22.6	0.00e+00	2	41	0	622854144	54	6468
2026-01-22 19:39:45.91	354.99	14.55	-41.4	-42.4	22.2	0.00e+00	81	41	0	629145600	54	6757
2026-01-22 19:39:48.93	354.37	14.52	-41.8	-42.9	22.0	0.00e+00	81	41	0	634388480	56	6375
2026-01-22 19:39:51.96	353.74	14.48	-41.5	-42.6	22.1	0.00e+00	92	41	0	640679936	56	6150
2026-01-22 19:39:54.99	353.12	14.44	-41.0	-42.0	22.7	0.00e+00	0	41	0	645922816	56	5761
2026-01-22 19:39:58.02	352.50	14.39	-41.0	-42.0	22.7	0.00e+00	0	41	0	651165696	56	5721
2026-01-22 19:40:01.05	351.88	14.35	-41.2	-42.2	22.6	0.00e+00	91	41	0	657457152	56	5840
2026-01-22 19:40:04.08	351.26	14.30	-41.2	-42.3	22.5	0.00e+00	2	41	0	662700032	56	5899
2026-01-22 19:40:07.11	350.64	14.24	-40.9	-41.8	22.9	0.00e+00	3	41	0	668991488	56	5628
2026-01-22 19:40:10.15	350.03	14.19	-40.8	-41.8	22.6	0.00e+00	59	41	0	674234368	54	6276
2026-01-22 19:40:13.17	349.42	14.13	-40.7	-41.7	22.9	0.00e+00	0	41	0	680525824	54	6197
2026-01-22 19:40:16.20	348.81	14.06	-40.8	-41.8	22.8	0.00e+00	0	41	0	685768704	54	6277
2026-01-22 19:40:19.23	348.21	14.00	-40.9	-41.9	22.7	0.00e+00	0	41	0	691011584	54	6376
2026-01-22 19:40:22.27	347.60	13.93	-41.0	-42.1	22.6	0.00e+00	0	41	0	697303040	54	6465
2026-01-22 19:40:25.30	347.00	13.86	-41.1	-42.2	22.5	0.00e+00	0	41	0	702545920	54	6565
2026-01-22 19:40:28.33	346.40	13.78	-41.0	-42.1	22.6	0.00e+00	79	41	0	708837376	54	6496
2026-01-22 19:40:31.36	345.81	13.71	-41.4	-42.5	22.2	0.00e+00	92	41	0	714080256	54	6805
2026-01-22 19:40:34.39	345.22	13.63	-41.1	-42.2	22.5	0.00e+00	0	41	0	719323136	54	6540
2026-01-22 19:40:37.42	344.63	13.54	-41.2	-42.3	22.2	0.00e+00	5	41	0	725614592	54	6676
2026-01-22 19:40:40.45	344.05	13.46	-41.4	-42.6	22.1	0.00e+00	92	41	0	730857472	54	6851
2026-01-22 19:40:43.47	343.47	13.37	-41.1	-42.2	22.4	0.00e+00	6	41	0	737148928	54	6604
2026-01-22 19:40:46.49	342.89	13.28	-40.9	-41.9	22.6	0.00e+00	6	41	0	742391808	54	6387
2026-01-22 19:40:49.52	342.32	13.19	-40.9	-42.0	22.5	0.00e+00	3	41	0	748683264	54	6405
2026-01-22 19:40:52.55	341.75	13.09	-40.9	-41.9	22.4	0.00e+00	75	41	0	753926144	54	6385
2026-01-22 19:40:55.58	341.19	12.99	-40.9	-42.0	22.7	0.00e+00	86	41	0	759169024	54	6419
2026-01-22 19:40:58.61	340.62	12.89	-40.7	-41.8	22.9	0.00e+00	0	41	0	765460480	54	6272
2026-01-22 19:41:01.64	340.07	12.79	-40.8	-41.9	22.6	0.00e+00	81	41	0	770703360	54	6355
2026-01-22 19:41:04.66	339.51	12.68	-40.7	-41.8	22.8	0.00e+00	2	41	0	776994816	54	6260
2026-01-22 19:41:07.69	338.96	12.58	-40.8	-41.8	22.7	0.00e+00	6	41	0	782237696	54	6283
2026-01-22 19:41:10.72	338.42	12.47	-40.7	-41.7	22.9	0.00e+00	92	41	0	787480576	54	6228
2026-01-22 19:41:13.75	337.87	12.36	-40.7	-41.7	22.9	0.00e+00	79	41	0	793772032	54	6222
2026-01-22 19:41:16.78	337.34	12.24	-40.7	-41.7	22.8	0.00e+00	81	41	0	799014912	54	6191
2026-01-22 19:41:19.81	336.80	12.13	-40.8	-41.8	22.8	0.00e+00	85	41	0	805306368	54	6295
2026-01-22 19:41:22.83	336.28	12.01	-40.9	-41.9	22.6	0.00e+00	0	41	0	810549248	54	6383
2026-01-22 19:41:25.86	335.75	11.89	-41.1	-42.2	22.3	0.00e+00	0	41	0	816840704	54	6569
2026-01-22 19:41:28.89	335.23	11.77	-41.4	-42.5	22.0	0.00e+00	75	41	0	822083584	54	6800
2026-01-22 19:41:31.92	334.71	11.65	-41.5	-42.6	22.0	0.00e+00	91	41	0	827326464	54	6883
2026-01-22 19:41:34.95	334.20	11.52	-41.8	-42.9	21.8	0.00e+00	83	41	0	833617920	56	6373
2026-01-22 19:41:37.98	333.69	11.40	-42.2	-43.3	21.4	0.00e+00	0	41	0	838860800	56	6673
2026-01-22 19:41:41.02	333.19	11.27	-42.1	-43.3	21.3	0.00e+00	92	41	0	845152256	56	6648
2026-01-22 19:41:44.05	332.69	11.14	-42.6	-43.9	20.9	0.00e+00	0	41	0	850395136	56	7089
2026-01-22 19:41:47.08	332.20	11.01	-42.5	-43.7	20.9	0.00e+00	0	41	0	855638016	56	7002
2026-01-22 19:41:50.11	331.71	10.88	-42.9	-44.2	20.5	0.00e+00	92	41	0	861929472	58	6552
2026-01-22 19:41:53.14	331.22	10.75	-43.2	-44.5	20.2	0.00e+00	81	41	0	867172352	58	6814
2026-01-22 19:41:56.17	330.74	10.61	-43.0	-44.3	20.4	0.00e+00	81	41	0	873463808	58	6637
2026-01-22 19:41:59.20	330.27	10.48	-43.2	-44.5	20.1	0.00e+00	0	41	0	878706688	58	6835
2026-01-22 19:42:02.22	329.79	10.34	-43.6	-45.0	19.8	0.00e+00	0	41	0	884998144	58	7203
2026-01-22 19:42:05.25	329.33	10.21	-43.8	-45.3	19.6	0.00e+00	0	41	0	890241024	60	6632
2026-01-22 19:42:08.28	328.86	10.07	-43.8	-45.3	19.6	0.00e+00	0	41	0	895483904	60	6622
2026-01-22 19:42:11.31	328.41	9.93	-43.9	-45.4	19.5	0.00e+00	92	41	0	901775360	60	6715
2026-01-22 19:42:14.34	327.95	9.79	-44.0	-45.5	19.3	0.00e+00	0	41	0	907018240	60	6821
2026-01-22 19:42:17.36	327.50	9.65	-44.3	-45.9	18.9	0.00e+00	0	41	0	913309696	60	7105
2026-01-22 19:42:20.39	327.06	9.50	-44.0	-45.6	19.2	0.00e+00	90	41	0	918552576	60	6883
2026-01-22 19:42:23.42	326.62	9.36	-43.9	-45.4	19.4	0.00e+00	0	41	0	923795456	60	6713
2026-01-22 19:42:26.45	326.18	9.22	-44.2	-45.8	19.1	0.00e+00	0	41	0	930086912	60	7045
2026-01-22 19:42:29.48	325.75	9.07	-44.2	-45.8	19.0	0.00e+00	92	41	0	935329792	60	7062
2026-01-22 19:42:32.51	325.32	8.93	-43.9	-45.4	19.3	0.00e+00	0	41	0	941621248	60	6749
2026-01-22 19:42:35.54	324.90	8.78	-43.6	-45.1	19.7	0.00e+00	0	41	0	946864128	60	6503
2026-01-22 19:42:38.57	324.48	8.63	-43.5	-44.9	19.8	0.00e+00	85	41	0	953155584	60	6369
2026-01-22 19:42:41.60	324.07	8.49	-43.7	-45.2	19.5	0.00e+00	77	41	0	958398464	60	6566
2026-01-22 19:42:44.63	323.66	8.34	-43.6	-45.0	19.7	0.00e+00	7	41	0	963641344	60	6452
2026-01-22 19:42:47.66	323.25	8.19	-43.5	-44.9	19.7	0.00e+00	7	41	0	969932800	60	6339
2026-01-22 19:42:50.69	322.85	8.04	-43.1	-44.5	20.3	0.00e+00	92	41	0	975175680	60	6061
2026-01-22 19:42:53.72	322.45	7.89	-42.9	-44.2	20.4	0.00e+00	80	41	0	981467136	60	5892
2026-01-22 19:42:56.75	322.06	7.74	-42.8	-44.1	20.5	0.00e+00	81	41	0	986710016	58	6470
2026-01-22 19:42:59.78	321.67	7.59	-42.4	-43.7	21.0	0.00e+00	92	41	0	991952896	58	6188
2026-01-22 19:43:02.81	321.28	7.44	-42.2	-43.4	21.1	0.00e+00	0	41	0	998244352	58	6033
2026-01-22 19:43:05.84	320.90	7.29	-42.3	-43.6	21.0	0.00e+00	0	41	0	1003487232	58	6119
2026-01-22 19:43:08.87	320.52	7.14	-42.0	-43.1	21.5	0.00e+00	92	41	0	1009778688	58	5813
2026-01-22 19:43:11.90	320.15	6.99	-42.0	-43.1	21.1	0.00e+00	0	41	0	1015021568	58	5805
2026-01-22 19:43:14.93	319.78	6.84	-42.2	-43.4	21.0	0.00e+00	0	41	0	1021313024	58	6007
2026-01-22 19:43:17.96	319.41	6.69	-41.9	-43.0	21.3	0.00e+00	0	41	0	1026555904	58	5756
2026-01-22 19:43:20.99	319.05	6.53	-41.8	-43.0	21.5	0.00e+00	89	41	0	1031798784	56	6416
2026-01-22 19:43:24.02	318.70	6.38	-42.0	-43.1	21.3	0.00e+00	0	41	0	1038090240	56	6537
2026-01-22 19:43:27.04	318.34	6.23	-41.9	-43.1	21.4	0.00e+00	0	41	0	1043333120	56	6477
2026-01-22 19:43:30.07	317.99	6.08	-41.8	-42.9	21.4	0.00e+00	91	41	0	1049624576	56	6380
2026-01-22 19:43:33.10	317.65	5.92	-42.2	-43.4	21.0	0.00e+00	0	41	0	1054867456	56	6709
2026-01-22 19:43:36.13	317.30	5.77	-41.7	-42.9	21.6	0.00e+00	81	41	0	1060110336	56	6331
2026-01-22 19:43:39.16	316.97	5.62	-41.9	-43.0	21.2	0.00e+00	0	41	0	1066401792	56	6451
2026-01-22 19:43:42.19	316.63	5.47	-42.3	-43.6	20.8	0.00e+00	81	41	0	1071644672	56	6876
2026-01-22 19:43:45.22	316.30	5.31	-42.4	-43.6	20.8	0.00e+00	0	41	0	1077936128	56	6896
2026-01-22 19:43:48.25	315.97	5.16	-42.4	-43.6	20.7	0.00e+00	0	41	0	1083179008	56	6921
2026-01-22 19:43:51.28	315.65	5.01	-42.1	-43.4	20.9	0.00e+00	0	41	0	1089470464	58	5973
2026-01-22 19:43:54.31	315.32	4.86	-42.6	-43.9	20.3	0.00e+00	0	41	0	1094713344	58	6353
2026-01-22 19:43:57.34	315.01	4.70	-42.7	-44.0	20.1	0.00e+00	81	41	0	1099956224	58	6441
2026-01-22 19:44:00.37	314.69	4.55	-42.6	-43.9	20.3	0.00e+00	92	41	0	1106247680	58	6375
2026-01-22 19:44:03.39	314.38	4.40	-42.6	-43.9	20.2	0.00e+00	0	41	0	1111490560	58	6355
2026-01-22 19:44:06.42	314.07	4.25	-42.6	-43.9	20.3	0.00e+00	6	41	0	1117782016	58	6363
2026-01-22 19:44:09.45	313.77	4.09	-42.9	-44.4	19.7	0.00e+00	91	41	0	1123024896	58	6698
2026-01-22 19:44:12.48	313.47	3.94	-43.4	-44.9	19.1	0.00e+00	0	41	0	1128267776	58	7126
2026-01-22 19:44:15.51	313.17	3.79	-43.2	-44.7	19.3	0.00e+00	0	41	0	1134559232	58	6998
2026-01-22 19:44:18.54	312.88	3.64	-44.0	-45.8	18.0	0.00e+00	82	41	0	1139802112	60	7020
2026-01-22 19:44:21.57	312.58	3.48	-43.9	-45.6	18.6	0.00e+00	23	41	0	1146093568	60	6871
2026-01-22 19:44:24.60	312.30	3.33	-43.5	-45.1	18.7	0.00e+00	7	41	0	1151336448	60	6537
2026-01-22 19:44:27.63	312.01	3.18	-43.6	-45.3	18.9	0.00e+00	6	41	0	1157627904	60	6630
2026-01-22 19:44:30.66	311.73	3.03	-44.1	-45.9	18.1	0.00e+00	92	41	0	1162870784	60	7159
2026-01-22 19:44:33.69	311.45	2.88	-50.6	-65.9	3.6	1.51e+00	0	41	104	1163919360	60	70999
2026-01-22 19:44:36.72	311.17	2.73	-51.0	-66.2	3.6	1.51e+00	0	41	104	1163919360	60	73885
2026-01-22 19:44:39.75	310.90	2.58	-51.2	-66.3	3.6	1.51e+00	0	41	104	1163919360	60	74918
2026-01-22 19:44:42.78	310.63	2.43	-51.2	-66.4	3.6	1.51e+00	0	41	104	1163919360	60	75536
2026-01-22 19:44:45.81	310.36	2.27	-51.2	-66.4	3.6	1.51e+00	0	42	104	1163919360	60	75275
2026-01-22 19:44:48.84	310.10	2.12	-51.1	-66.3	3.6	1.51e+00	0	41	104	1163919360	60	74932
2026-01-22 19:44:51.87	309.83	1.97	-51.1	-66.3	3.5	1.51e+00	0	42	104	1163919360	60	75085
2026-01-22 19:44:54.90	309.57	1.82	-51.0	-66.3	3.6	1.51e+00	0	41	104	1163919360	60	74799
2026-01-22 19:44:57.92	309.32	1.68	-51.1	-66.4	3.6	1.51e+00	0	42	104	1163919360	60	75356
2026-01-22 19:45:00.95	309.06	1.53	-51.1	-66.4	3.6	1.51e+00	0	42	104	1163919360	60	75290
2026-01-22 19:45:03.99	308.81	1.38	-51.2	-66.3	3.6	1.51e+00	0	41	104	1163919360	60	75020
2026-01-22 19:45:07.01	308.56	1.23	-51.1	-66.3	3.6	1.51e+00	0	42	104	1163919360	60	74933
2026-01-22 19:45:10.05	308.32	1.08	-51.2	-66.3	3.6	1.51e+00	0	42	104	1163919360	60	75084
2026-01-22 19:45:13.08	308.07	0.93	-51.2	-66.4	3.6	1.51e+00	0	41	104	1163919360	60	75408
2026-01-22 19:45:16.11	307.83	0.78	-51.2	-66.3	3.6	1.51e+00	0	41	104	1163919360	60	74892
2026-01-22 19:45:19.14	307.59	0.63	-51.2	-66.4	3.6	1.51e+00	0	42	104	1163919360	60	75327
2026-01-22 19:45:22.17	307.36	0.49	-51.2	-66.4	3.6	1.51e+00	0	42	104	1163919360	60	75397
2026-01-22 19:45:25.20	307.12	0.34	-51.2	-66.4	3.6	1.51e+00	0	42	104	1163919360	60	75468
2026-01-22 19:45:28.23	306.89	0.19	-51.1	-66.3	3.6	1.51e+00	0	42	104	1163919360	60	75071
2026-01-22 19:45:31.26	306.66	0.05	-51.1	-66.4	3.6	1.51e+00	0	42	104	1163919360	60	75211

#Closed at: 2026-01-22 19:45:32
#Recorded file [1163 MB]: D:/lorett/data/35029_260123_073306.dat