passes_logs/2026/01/22/R4.6S_Anadyr/R4.6S_Anadyr__20260122_183141_FENGYUN_3D_rec.log

#Pass ID: 20260122_183141_FENGYUN 3D
#Satellite: FENGYUN 3D
#Configuration: FENGYUN 3D
#almurnet v.1.7.20251203
#Start time: 2026-01-22 18:31:44

#Version: 2.2.20231116
#Station: R4.6S_Anadyr
#Location: 177.4865 lon 64.73178 lat
#TLE: 1 43010U 17072A   26021.48744220  .00000253  00000+0  14133-3 0  9991
#TLE: 2 43010  98.9948 353.4037 0002485  97.2578 262.8880 14.19697766424177

#Time	Az	El	Level	Level2	SNR	BER	BlckErr	Temp	State	Recorded	gain1	gain2
2026-01-22 18:31:44.63	26.58	0.18	-51.8	-62.5	3.3	8.42e-01	0	40	0	0	60	48403
2026-01-22 18:31:48.67	26.42	0.42	-51.2	-63.4	3.6	8.47e-01	0	40	104	0	60	53254
2026-01-22 18:31:52.71	26.26	0.65	-51.1	-63.2	3.6	8.45e-01	0	40	104	0	60	52391
2026-01-22 18:31:56.75	26.09	0.88	-50.9	-63.1	3.6	8.45e-01	0	40	104	0	60	51396
2026-01-22 18:32:00.79	25.92	1.12	-50.4	-62.7	3.6	8.45e-01	0	40	104	0	60	49094
2026-01-22 18:32:04.84	25.75	1.36	-50.0	-62.1	3.6	8.45e-01	0	40	104	0	60	45946
2026-01-22 18:32:08.88	25.58	1.60	-49.6	-61.6	3.6	8.45e-01	0	41	104	0	60	43604
2026-01-22 18:32:12.92	25.40	1.84	-49.5	-61.6	3.6	8.45e-01	0	41	104	0	60	43620
2026-01-22 18:32:16.96	25.22	2.08	-49.5	-61.2	3.6	8.45e-01	0	41	104	0	60	41281
2026-01-22 18:32:21.00	25.04	2.33	-49.5	-61.4	3.6	8.46e-01	0	41	104	0	60	42692
2026-01-22 18:32:25.04	24.85	2.58	-49.5	-61.5	3.6	8.46e-01	0	41	104	0	60	43139
2026-01-22 18:32:29.08	24.66	2.83	-49.5	-60.8	3.6	8.44e-01	0	41	104	0	60	39447
2026-01-22 18:32:33.12	24.46	3.08	-49.4	-60.9	3.6	8.46e-01	0	41	104	0	60	39981
2026-01-22 18:32:37.16	24.27	3.33	-48.8	-55.0	4.7	8.22e-01	0	41	0	0	60	20411
2026-01-22 18:32:41.20	24.07	3.58	-49.6	-61.2	3.6	8.45e-01	0	41	104	9437184	60	41727
2026-01-22 18:32:45.24	23.86	3.84	-41.0	-42.1	18.0	4.16e-02	0	41	104	15728640	56	5784
2026-01-22 18:32:49.28	23.65	4.10	-40.1	-41.1	19.5	0.00e+00	0	41	0	36700160	54	5799
2026-01-22 18:32:53.32	23.44	4.36	-38.6	-39.5	21.4	0.00e+00	0	41	0	58720256	50	6056
2026-01-22 18:32:57.37	23.22	4.62	-38.3	-39.1	21.8	0.00e+00	0	41	0	81788928	50	5813
2026-01-22 18:33:01.41	23.00	4.89	-37.7	-38.4	22.3	0.00e+00	0	41	0	104857600	48	6030
2026-01-22 18:33:05.45	22.77	5.16	-37.4	-38.2	22.6	0.00e+00	0	41	0	126877696	48	5829
2026-01-22 18:33:09.49	22.54	5.43	-37.6	-38.3	22.6	0.00e+00	0	41	0	149946368	48	5963
2026-01-22 18:33:13.53	22.31	5.70	-37.8	-38.6	22.3	0.00e+00	0	41	0	173015040	48	6147
2026-01-22 18:33:17.57	22.07	5.97	-37.6	-38.4	22.5	0.00e+00	0	41	0	195035136	48	6014
2026-01-22 18:33:21.61	21.82	6.25	-37.9	-38.7	22.3	0.00e+00	0	41	0	218103808	48	6209
2026-01-22 18:33:25.64	21.57	6.53	-38.0	-38.8	22.3	0.00e+00	0	41	0	241172480	48	6279
2026-01-22 18:33:29.69	21.32	6.81	-37.5	-38.3	22.8	0.00e+00	0	41	0	263192576	48	5917
2026-01-22 18:33:33.72	21.06	7.09	-37.4	-38.1	22.9	0.00e+00	0	41	0	286261248	48	5826
2026-01-22 18:33:37.77	20.79	7.38	-37.2	-37.9	23.1	0.00e+00	0	41	0	309329920	48	5685
2026-01-22 18:33:41.80	20.52	7.67	-37.1	-37.8	23.3	0.00e+00	0	41	0	331350016	48	5626
2026-01-22 18:33:45.84	20.24	7.96	-36.9	-37.7	23.4	0.00e+00	0	41	0	354418688	46	6180
2026-01-22 18:33:49.89	19.96	8.26	-36.9	-37.6	23.6	0.00e+00	0	41	0	377487360	46	6151
2026-01-22 18:33:53.93	19.67	8.55	-36.7	-37.4	23.8	0.00e+00	0	41	0	399507456	46	5982
2026-01-22 18:33:57.97	19.37	8.86	-36.7	-37.4	23.8	0.00e+00	0	41	0	422576128	46	6026
2026-01-22 18:34:02.00	19.07	9.16	-36.9	-37.6	23.6	0.00e+00	0	41	0	445644800	46	6155
2026-01-22 18:34:06.04	18.76	9.46	-36.6	-37.3	23.9	0.00e+00	0	41	0	467664896	46	5914
2026-01-22 18:34:10.08	18.45	9.77	-36.6	-37.3	24.0	0.00e+00	0	41	0	490733568	46	5915
2026-01-22 18:34:14.12	18.12	10.08	-36.5	-37.2	24.0	0.00e+00	0	41	0	513802240	46	5842
2026-01-22 18:34:18.16	17.79	10.40	-36.4	-37.1	24.1	0.00e+00	0	41	0	535822336	46	5762
2026-01-22 18:34:22.20	17.46	10.72	-36.3	-37.0	24.3	0.00e+00	0	41	0	558891008	46	5725
2026-01-22 18:34:26.24	17.11	11.04	-36.0	-36.7	24.5	0.00e+00	0	41	0	581959680	46	5520
2026-01-22 18:34:30.28	16.76	11.36	-36.1	-36.8	24.4	0.00e+00	0	41	0	603979776	46	5598
2026-01-22 18:34:34.32	16.39	11.69	-35.8	-36.5	24.7	0.00e+00	0	41	0	627048448	46	5409
2026-01-22 18:34:38.37	16.02	12.02	-35.8	-36.5	24.7	0.00e+00	0	41	0	650117120	44	6038
2026-01-22 18:34:42.41	15.64	12.36	-35.6	-36.3	24.8	0.00e+00	0	41	0	673185792	44	5926
2026-01-22 18:34:46.45	15.26	12.70	-35.3	-36.0	25.1	0.00e+00	0	41	0	695205888	44	5707
2026-01-22 18:34:50.49	14.86	13.04	-35.7	-36.4	24.9	0.00e+00	0	41	0	718274560	44	5989
2026-01-22 18:34:54.53	14.45	13.38	-35.7	-36.3	24.9	0.00e+00	0	41	0	740294656	44	5958
2026-01-22 18:34:58.57	14.03	13.73	-35.5	-36.2	25.1	0.00e+00	0	41	0	763363328	44	5849
2026-01-22 18:35:02.61	13.60	14.08	-35.2	-35.9	25.3	0.00e+00	0	41	0	786432000	44	5676
2026-01-22 18:35:06.65	13.17	14.43	-35.2	-35.9	25.2	0.00e+00	0	41	0	809500672	44	5670
2026-01-22 18:35:10.69	12.72	14.79	-35.2	-35.9	25.4	0.00e+00	0	41	0	831520768	44	5662
2026-01-22 18:35:14.72	12.26	15.15	-35.0	-35.6	25.6	0.00e+00	0	41	0	854589440	44	5481
2026-01-22 18:35:18.77	11.78	15.52	-34.8	-35.5	25.8	0.00e+00	0	41	0	877658112	42	6043
2026-01-22 18:35:22.81	11.30	15.89	-34.8	-35.4	25.9	0.00e+00	0	41	0	899678208	42	6016
2026-01-22 18:35:26.85	10.80	16.26	-35.0	-35.7	25.7	0.00e+00	0	41	0	922746880	42	6175
2026-01-22 18:35:30.89	10.29	16.63	-34.9	-35.6	25.7	0.00e+00	0	41	0	944766976	42	6131
2026-01-22 18:35:34.93	9.77	17.01	-34.8	-35.4	25.9	0.00e+00	0	41	0	967835648	42	6019
2026-01-22 18:35:38.97	9.23	17.39	-34.5	-35.1	26.1	0.00e+00	0	41	0	990904320	42	5796
2026-01-22 18:35:43.02	8.68	17.78	-34.5	-35.1	26.1	0.00e+00	0	41	0	1013972992	42	5819
2026-01-22 18:35:47.06	8.11	18.17	-34.2	-34.9	26.4	0.00e+00	0	41	0	1035993088	42	5631
2026-01-22 18:35:51.10	7.53	18.56	-34.0	-34.5	26.5	0.00e+00	0	41	0	1059061760	42	5438
2026-01-22 18:35:55.14	6.94	18.96	-34.0	-34.6	26.5	0.00e+00	0	41	0	1082130432	42	5496
2026-01-22 18:35:59.18	6.32	19.35	-33.9	-34.5	26.7	0.00e+00	0	41	0	1104150528	42	5410
2026-01-22 18:36:03.22	5.69	19.75	-34.0	-34.7	26.5	0.00e+00	0	41	0	1127219200	42	5509
2026-01-22 18:36:07.26	5.05	20.16	-33.8	-34.5	26.8	0.00e+00	0	41	0	1150287872	40	6049
2026-01-22 18:36:11.30	4.38	20.56	-33.9	-34.5	26.8	0.00e+00	0	41	0	1172307968	40	6065
2026-01-22 18:36:15.34	3.70	20.97	-34.0	-34.6	26.7	0.00e+00	0	41	0	1195376640	40	6146
2026-01-22 18:36:19.38	3.00	21.38	-33.2	-33.8	27.3	0.00e+00	0	41	0	1218445312	40	5622
2026-01-22 18:36:23.42	2.28	21.80	-33.5	-34.1	27.0	0.00e+00	0	41	0	1240465408	40	5806
2026-01-22 18:36:27.47	1.54	22.21	-33.4	-34.1	27.1	0.00e+00	0	41	0	1263534080	40	5782
2026-01-22 18:36:31.43	0.79	22.62	-33.3	-34.0	27.1	0.00e+00	0	41	0	1286602752	40	5698
2026-01-22 18:36:35.47	0.01	23.04	-33.6	-34.2	26.9	0.00e+00	0	41	0	1308622848	40	5889
2026-01-22 18:36:39.51	359.21	23.45	-33.2	-33.9	27.2	0.00e+00	0	41	0	1331691520	40	5642
2026-01-22 18:36:43.55	358.39	23.87	-33.1	-33.7	27.4	0.00e+00	0	41	0	1354760192	40	5515
2026-01-22 18:36:47.59	357.54	24.29	-33.0	-33.6	27.4	0.00e+00	0	41	0	1376780288	40	5467
2026-01-22 18:36:51.63	356.67	24.71	-32.8	-33.4	27.6	0.00e+00	0	41	0	1399848960	38	6027
2026-01-22 18:36:55.66	355.78	25.12	-32.9	-33.5	27.5	0.00e+00	0	41	0	1422917632	38	6102
2026-01-22 18:36:59.70	354.86	25.54	-32.7	-33.3	27.6	0.00e+00	0	41	0	1444937728	38	5926
2026-01-22 18:37:03.74	353.91	25.95	-32.5	-33.0	27.8	0.00e+00	0	41	0	1468006400	38	5759
2026-01-22 18:37:07.78	352.95	26.37	-32.4	-33.0	27.8	0.00e+00	0	41	0	1491075072	38	5724
2026-01-22 18:37:11.81	351.95	26.77	-32.5	-33.1	27.8	0.00e+00	0	41	0	1513095168	38	5828
2026-01-22 18:37:15.85	350.93	27.18	-32.3	-32.9	28.0	0.00e+00	0	41	0	1536163840	38	5652
2026-01-22 18:37:19.89	349.89	27.58	-32.6	-33.2	27.7	0.00e+00	0	41	0	1559232512	38	5866
2026-01-22 18:37:23.93	348.81	27.97	-32.4	-33.1	27.8	0.00e+00	0	41	0	1581252608	38	5767
2026-01-22 18:37:27.97	347.71	28.36	-32.6	-33.3	27.7	0.00e+00	0	41	0	1604321280	38	5897
2026-01-22 18:37:32.00	346.59	28.74	-32.5	-33.0	27.8	0.00e+00	0	41	0	1627389952	38	5761
2026-01-22 18:37:36.05	345.43	29.12	-32.3	-32.9	28.0	0.00e+00	0	41	0	1649410048	38	5642
2026-01-22 18:37:40.08	344.25	29.48	-31.9	-32.5	28.3	0.00e+00	0	41	0	1672478720	38	5414
2026-01-22 18:37:44.12	343.05	29.84	-32.4	-33.0	28.0	0.00e+00	0	41	0	1695547392	38	5733
2026-01-22 18:37:48.16	341.81	30.19	-32.4	-32.9	28.0	0.00e+00	0	41	0	1717567488	38	5695
2026-01-22 18:37:52.20	340.55	30.52	-32.2	-32.7	28.2	0.00e+00	0	41	0	1740636160	38	5553
2026-01-22 18:37:56.24	339.26	30.85	-32.0	-32.7	28.2	0.00e+00	0	41	0	1763704832	38	5520
2026-01-22 18:38:00.28	337.94	31.16	-32.2	-32.8	28.2	0.00e+00	0	41	0	1785724928	38	5602
2026-01-22 18:38:04.32	336.60	31.45	-32.0	-32.6	28.4	0.00e+00	0	41	0	1808793600	38	5461
2026-01-22 18:38:08.36	335.24	31.73	-31.9	-32.5	28.4	0.00e+00	0	41	0	1831862272	36	6041
2026-01-22 18:38:12.40	333.85	32.00	-32.1	-32.8	28.2	0.00e+00	0	41	0	1853882368	36	6252
2026-01-22 18:38:16.44	332.44	32.25	-31.7	-32.3	28.5	0.00e+00	0	41	0	1876951040	36	5950
2026-01-22 18:38:20.48	331.01	32.48	-32.1	-32.7	28.2	0.00e+00	0	41	0	1900019712	36	6219
2026-01-22 18:38:24.52	329.56	32.69	-31.7	-32.3	28.5	0.00e+00	0	41	0	1922039808	36	5923
2026-01-22 18:38:28.56	328.09	32.88	-31.6	-32.2	28.6	0.00e+00	0	41	0	1945108480	36	5875
2026-01-22 18:38:32.60	326.61	33.05	-31.7	-32.3	28.5	0.00e+00	0	41	0	1968177152	36	5947
2026-01-22 18:38:36.64	325.11	33.20	-31.7	-32.2	28.6	0.00e+00	0	41	0	1990197248	36	5872
2026-01-22 18:38:40.68	323.60	33.32	-32.0	-32.6	28.4	0.00e+00	0	41	0	2013265920	36	6108
2026-01-22 18:38:44.72	322.07	33.43	-32.1	-32.7	28.3	0.00e+00	0	41	0	2036334592	36	6198
2026-01-22 18:38:48.76	320.54	33.51	-31.9	-32.5	28.4	0.00e+00	0	41	0	2058354688	36	6085
2026-01-22 18:38:52.80	319.00	33.57	-31.7	-32.3	28.5	0.00e+00	0	41	0	2081423360	36	5958
2026-01-22 18:38:56.85	317.45	33.60	-31.8	-32.4	28.5	0.00e+00	0	41	0	2104492032	36	6009
2026-01-22 18:39:00.89	315.90	33.61	-31.9	-32.5	28.4	0.00e+00	0	41	0	2126512128	36	6045
2026-01-22 18:39:04.93	314.36	33.60	-31.7	-32.3	28.5	0.00e+00	0	41	0	2149580800	36	5914
2026-01-22 18:39:08.97	312.81	33.56	-31.9	-32.5	28.3	0.00e+00	0	41	0	2172649472	36	6066
2026-01-22 18:39:13.01	311.27	33.51	-31.7	-32.4	28.5	0.00e+00	0	41	0	2194669568	36	5971
2026-01-22 18:39:17.06	309.74	33.42	-31.8	-32.4	28.5	0.00e+00	0	41	0	2217738240	36	5982
2026-01-22 18:39:21.10	308.21	33.32	-31.8	-32.4	28.4	0.00e+00	0	41	0	2240806912	36	5998
2026-01-22 18:39:25.14	306.70	33.19	-31.6	-32.2	28.7	0.00e+00	0	41	0	2263875584	36	5858
2026-01-22 18:39:29.18	305.20	33.04	-31.5	-32.1	28.7	0.00e+00	0	41	0	2285895680	36	5825
2026-01-22 18:39:33.21	303.71	32.87	-32.0	-32.6	28.2	0.00e+00	0	41	0	2308964352	36	6138
2026-01-22 18:39:37.25	302.25	32.67	-32.1	-32.7	28.3	0.00e+00	0	41	0	2330984448	36	6208
2026-01-22 18:39:41.29	300.79	32.46	-31.8	-32.4	28.3	0.00e+00	0	41	0	2354053120	36	5995
2026-01-22 18:39:45.33	299.36	32.23	-31.8	-32.4	28.4	0.00e+00	0	41	0	2377121792	36	5966
2026-01-22 18:39:49.37	297.95	31.98	-31.8	-32.3	28.4	0.00e+00	0	41	0	2399141888	36	5951
2026-01-22 18:39:53.40	296.57	31.72	-32.0	-32.6	28.3	0.00e+00	0	41	0	2422210560	36	6114
2026-01-22 18:39:57.44	295.20	31.44	-31.8	-32.4	28.5	0.00e+00	0	41	0	2445279232	36	5968
2026-01-22 18:40:01.48	293.86	31.14	-31.9	-32.6	28.3	0.00e+00	0	41	0	2468347904	36	6121
2026-01-22 18:40:05.52	292.55	30.83	-32.1	-32.7	28.2	0.00e+00	0	41	0	2490368000	36	6215
2026-01-22 18:40:09.55	291.26	30.50	-32.0	-32.7	28.3	0.00e+00	0	41	0	2513436672	36	6203
2026-01-22 18:40:13.59	289.99	30.17	-32.6	-33.2	27.9	0.00e+00	0	41	0	2535456768	36	6561
2026-01-22 18:40:17.63	288.76	29.82	-32.0	-32.7	28.4	0.00e+00	0	41	0	2558525440	36	6183
2026-01-22 18:40:21.67	287.55	29.46	-32.2	-32.7	28.1	0.00e+00	0	41	0	2581594112	36	6218
2026-01-22 18:40:25.72	286.36	29.09	-32.5	-33.0	28.0	0.00e+00	0	41	0	2603614208	36	6441
2026-01-22 18:40:29.76	285.21	28.71	-32.6	-33.1	27.8	0.00e+00	0	41	0	2626682880	36	6502
2026-01-22 18:40:33.80	284.08	28.33	-32.6	-33.1	27.8	0.00e+00	0	41	0	2649751552	36	6506
2026-01-22 18:40:37.84	282.98	27.94	-32.4	-33.1	28.0	0.00e+00	0	41	0	2672820224	36	6491
2026-01-22 18:40:41.88	281.90	27.54	-32.4	-33.1	28.0	0.00e+00	0	41	0	2694840320	36	6479
2026-01-22 18:40:45.92	280.85	27.14	-32.5	-33.2	27.6	0.00e+00	0	41	0	2717908992	36	6560
2026-01-22 18:40:49.95	279.83	26.74	-32.6	-33.2	27.7	0.00e+00	0	41	0	2739929088	38	5875
2026-01-22 18:40:54.00	278.84	26.33	-32.6	-33.3	27.5	0.00e+00	0	41	0	2762997760	38	5917
2026-01-22 18:40:58.04	277.87	25.91	-32.4	-32.9	27.3	0.00e+00	0	41	0	2786066432	38	5670
2026-01-22 18:41:02.08	276.92	25.50	-32.9	-33.6	27.2	0.00e+00	0	41	0	2809135104	38	6140
2026-01-22 18:41:06.12	276.00	25.08	-33.0	-33.6	27.3	0.00e+00	0	41	0	2831155200	38	6173
2026-01-22 18:41:10.16	275.11	24.66	-32.9	-33.6	27.4	0.00e+00	0	41	0	2854223872	38	6143
2026-01-22 18:41:14.20	274.23	24.24	-33.1	-33.6	27.2	0.00e+00	0	41	0	2877292544	38	6146
2026-01-22 18:41:18.24	273.39	23.82	-32.9	-33.6	27.4	0.00e+00	0	41	0	2899312640	38	6110
2026-01-22 18:41:22.28	272.56	23.40	-33.0	-33.6	27.3	0.00e+00	0	41	0	2922381312	38	6116
2026-01-22 18:41:26.32	271.76	22.98	-33.1	-33.8	27.2	0.00e+00	0	41	0	2945449984	38	6292
2026-01-22 18:41:30.36	270.97	22.57	-33.3	-34.0	27.0	0.00e+00	0	41	0	2967470080	38	6455
2026-01-22 18:41:34.40	270.21	22.15	-33.5	-34.2	26.9	0.00e+00	0	41	0	2990538752	38	6573
2026-01-22 18:41:38.44	269.47	21.73	-33.2	-33.8	27.2	0.00e+00	0	41	0	3013607424	38	6271
2026-01-22 18:41:42.47	268.75	21.32	-33.3	-34.0	27.0	0.00e+00	0	41	0	3035627520	38	6421
2026-01-22 18:41:46.51	268.05	20.91	-33.3	-33.8	27.1	0.00e+00	0	41	0	3058696192	38	6289
2026-01-22 18:41:50.55	267.36	20.50	-33.1	-33.8	27.1	0.00e+00	0	41	0	3081764864	38	6304
2026-01-22 18:41:54.59	266.70	20.09	-33.3	-33.8	27.0	0.00e+00	0	41	0	3103784960	38	6316
2026-01-22 18:41:58.63	266.05	19.69	-33.4	-34.0	27.0	0.00e+00	0	41	0	3126853632	38	6398
2026-01-22 18:42:02.67	265.42	19.29	-33.5	-34.2	26.9	0.00e+00	0	41	0	3149922304	38	6608
2026-01-22 18:42:06.72	264.81	18.89	-33.7	-34.3	26.7	0.00e+00	0	41	0	3171942400	40	5931
2026-01-22 18:42:10.75	264.21	18.49	-33.6	-34.3	26.8	0.00e+00	0	41	0	3195011072	40	5946
2026-01-22 18:42:14.80	263.63	18.10	-34.0	-34.6	26.4	0.00e+00	0	41	0	3218079744	40	6133
2026-01-22 18:42:18.84	263.06	17.71	-34.2	-34.9	26.3	0.00e+00	0	41	0	3240099840	40	6352
2026-01-22 18:42:22.87	262.51	17.32	-34.1	-34.8	26.4	0.00e+00	0	41	0	3263168512	40	6291
2026-01-22 18:42:26.91	261.97	16.94	-34.6	-35.1	26.0	0.00e+00	0	41	0	3286237184	40	6523
2026-01-22 18:42:30.95	261.44	16.56	-34.6	-35.1	25.9	0.00e+00	0	41	0	3308257280	40	6533
2026-01-22 18:42:34.99	260.93	16.18	-34.6	-35.3	25.9	0.00e+00	0	41	0	3331325952	42	5924
2026-01-22 18:42:39.03	260.43	15.81	-34.9	-35.4	25.8	0.00e+00	0	41	0	3354394624	42	6026
2026-01-22 18:42:43.07	259.95	15.44	-34.9	-35.5	25.7	0.00e+00	0	41	0	3376414720	42	6067
2026-01-22 18:42:47.11	259.47	15.08	-35.4	-36.0	25.2	0.00e+00	0	41	0	3399483392	42	6391
2026-01-22 18:42:51.14	259.01	14.72	-35.2	-35.8	25.4	0.00e+00	0	41	0	3422552064	42	6265
2026-01-22 18:42:55.18	258.56	14.36	-35.4	-36.1	25.2	0.00e+00	0	41	0	3444572160	42	6530
2026-01-22 18:42:59.22	258.12	14.00	-35.3	-35.9	25.3	0.00e+00	0	41	0	3467640832	42	6376
2026-01-22 18:43:03.26	257.69	13.65	-35.5	-36.1	25.0	0.00e+00	0	41	0	3490709504	42	6520
2026-01-22 18:43:07.30	257.27	13.30	-35.4	-36.2	25.2	0.00e+00	0	41	0	3512729600	44	5842
2026-01-22 18:43:11.34	256.86	12.96	-35.5	-36.2	25.0	0.00e+00	0	41	0	3535798272	44	5833
2026-01-22 18:43:15.38	256.46	12.61	-35.7	-36.3	24.8	0.00e+00	0	41	0	3558866944	44	5958
2026-01-22 18:43:19.42	256.07	12.28	-35.9	-36.5	24.6	0.00e+00	0	41	0	3580887040	44	6092
2026-01-22 18:43:23.46	255.69	11.94	-36.2	-37.0	24.4	0.00e+00	0	41	0	3603955712	44	6427
2026-01-22 18:43:27.50	255.32	11.61	-36.0	-36.8	24.6	0.00e+00	0	41	0	3627024384	44	6250
2026-01-22 18:43:31.54	254.95	11.28	-36.0	-36.8	24.5	0.00e+00	0	41	0	3649044480	44	6247
2026-01-22 18:43:35.58	254.60	10.96	-36.2	-36.8	24.4	0.00e+00	0	41	0	3672113152	44	6267
2026-01-22 18:43:39.62	254.25	10.63	-36.2	-36.9	24.3	0.00e+00	0	41	0	3695181824	44	6331
2026-01-22 18:43:43.66	253.91	10.32	-36.6	-37.4	23.9	0.00e+00	0	41	0	3717201920	44	6734
2026-01-22 18:43:47.70	253.58	10.00	-36.4	-37.0	24.1	0.00e+00	0	41	0	3740270592	44	6440
2026-01-22 18:43:51.74	253.25	9.69	-36.4	-37.2	24.1	0.00e+00	0	41	0	3763339264	44	6552
2026-01-22 18:43:55.78	252.94	9.38	-36.5	-37.3	24.0	0.00e+00	0	41	0	3785359360	44	6627
2026-01-22 18:43:59.83	252.62	9.07	-36.6	-37.3	23.9	0.00e+00	0	41	0	3808428032	44	6687
2026-01-22 18:44:03.87	252.32	8.77	-36.7	-37.4	23.8	0.00e+00	0	41	0	3831496704	46	5998
2026-01-22 18:44:07.91	252.02	8.47	-36.7	-37.3	23.8	0.00e+00	0	42	0	3853516800	46	5944
2026-01-22 18:44:11.95	251.73	8.17	-36.8	-37.4	23.6	0.00e+00	0	41	0	3876585472	46	6031
2026-01-22 18:44:15.99	251.44	7.87	-36.8	-37.6	23.6	0.00e+00	0	41	0	3899654144	46	6149
2026-01-22 18:44:20.03	251.16	7.58	-36.9	-37.7	23.5	0.00e+00	0	41	0	3922722816	46	6182
2026-01-22 18:44:24.06	250.89	7.29	-36.9	-37.5	23.5	0.00e+00	0	41	0	3944742912	46	6084
2026-01-22 18:44:28.10	250.62	7.00	-37.2	-37.8	23.2	0.00e+00	0	41	0	3967811584	46	6295
2026-01-22 18:44:32.15	250.36	6.72	-37.4	-38.2	22.9	0.00e+00	0	41	0	3989831680	46	6571
2026-01-22 18:44:36.19	250.10	6.44	-37.6	-38.3	22.7	0.00e+00	0	41	0	4012900352	46	6661
2026-01-22 18:44:40.23	249.85	6.16	-37.5	-38.4	22.8	0.00e+00	0	41	0	4035969024	48	5979
2026-01-22 18:44:44.27	249.60	5.88	-37.9	-38.7	22.4	0.00e+00	0	41	0	4057989120	48	6225
2026-01-22 18:44:48.31	249.36	5.61	-37.8	-38.5	22.5	0.00e+00	0	41	0	4081057792	48	6095
2026-01-22 18:44:52.35	249.12	5.33	-37.9	-38.8	22.3	0.00e+00	0	41	0	4104126464	48	6273
2026-01-22 18:44:56.40	248.89	5.06	-38.0	-38.7	22.2	0.00e+00	0	41	0	4127195136	48	6240
2026-01-22 18:45:00.44	248.66	4.79	-38.4	-39.1	21.7	0.00e+00	0	41	0	4149215232	48	6515
2026-01-22 18:45:04.48	248.44	4.53	-38.6	-39.5	21.3	0.00e+00	0	41	0	4172283904	50	6043
2026-01-22 18:45:08.52	248.22	4.27	-38.9	-39.7	21.1	0.00e+00	0	41	0	4195352576	50	6180
2026-01-22 18:45:12.56	248.00	4.00	-38.9	-39.8	21.0	0.00e+00	0	42	0	4217372672	50	6248
2026-01-22 18:45:16.61	247.79	3.75	-39.7	-40.7	20.5	0.00e+00	0	42	0	4240441344	52	6194
2026-01-22 18:45:20.65	247.58	3.49	-39.3	-40.3	20.3	0.00e+00	0	41	0	4263510016	50	6651
2026-01-22 18:45:24.69	247.38	3.23	-39.6	-40.5	20.0	0.00e+00	0	42	0	4285530112	52	6040
2026-01-22 18:45:28.73	247.17	2.98	-49.9	-61.6	3.6	5.59e-01	0	42	104	4306501632	60	43357
2026-01-22 18:45:32.77	246.98	2.73	-50.9	-63.0	3.6	8.46e-01	0	42	104	4306501632	60	51091
2026-01-22 18:45:36.81	246.78	2.48	-51.1	-63.2	3.6	8.45e-01	0	42	104	4306501632	60	52335
2026-01-22 18:45:40.85	246.59	2.23	-51.2	-63.3	3.6	8.46e-01	0	42	104	4306501632	60	52770
2026-01-22 18:45:44.89	246.41	1.99	-51.1	-63.2	3.6	8.45e-01	0	42	104	4306501632	60	52323
2026-01-22 18:45:48.93	246.22	1.74	-51.0	-63.1	3.6	8.45e-01	0	42	104	4306501632	60	51864
2026-01-22 18:45:52.96	246.04	1.50	-51.1	-63.2	3.6	8.45e-01	0	42	104	4306501632	60	52476
2026-01-22 18:45:57.01	245.87	1.26	-51.1	-63.2	3.6	8.45e-01	0	42	104	4306501632	60	52517
2026-01-22 18:46:01.05	245.69	1.02	-51.3	-63.4	3.6	8.46e-01	0	42	104	4306501632	60	53634
2026-01-22 18:46:05.09	245.52	0.79	-51.2	-63.3	3.6	8.44e-01	0	42	104	4306501632	60	52591
2026-01-22 18:46:09.12	245.35	0.55	-51.3	-63.4	3.6	8.45e-01	0	42	104	4306501632	60	53529
2026-01-22 18:46:13.17	245.19	0.32	-51.3	-63.4	3.6	8.46e-01	0	42	104	4306501632	60	53699
2026-01-22 18:46:17.21	245.03	0.09	-51.1	-63.2	3.6	8.45e-01	0	42	104	4306501632	60	52345

#Closed at: 2026-01-22 18:46:18
#Recorded file [4306 MB]: D:/lorett/data/35029_260123_063144.dat