passes_logs/2026/01/22/R4.6S_Anadyr/R4.6S_Anadyr__20260122_230709_AQUA_rec.log

#Pass ID: 20260122_230709_AQUA
#Satellite: AQUA
#Configuration: AQUA
#almurnet v.1.7.20251203
#Start time: 2026-01-22 23:07:14

#Version: 2.2.20231116
#Station: R4.6S_Anadyr
#Location: 177.4865 lon 64.73178 lat
#TLE: 1 27424U 02022A   26022.49486490  .00002153  00000+0  44069-3 0  9997
#TLE: 2 27424  98.4099 349.0485 0001970  69.5876  43.4746 14.61847233261984

#Time	Az	El	Level	Level2	SNR	BER	BlckErr	Temp	State	Recorded	gain1	gain2
2026-01-22 23:07:14.49	85.44	0.28	-51.5	-53.1	5.7	0.00e+00	0	40	0	0	60	55390
2026-01-22 23:07:17.43	85.21	0.44	-51.6	-69.4	3.5	7.71e-01	0	42	104	0	60	113996
2026-01-22 23:07:20.37	84.97	0.59	-51.7	-69.4	3.5	7.71e-01	0	42	104	0	60	113902
2026-01-22 23:07:23.31	84.74	0.75	-51.5	-69.4	3.5	7.71e-01	0	42	104	0	60	113447
2026-01-22 23:07:26.26	84.50	0.90	-51.5	-69.4	3.5	7.71e-01	0	42	104	0	60	113675
2026-01-22 23:07:29.21	84.26	1.06	-51.5	-69.3	3.5	7.71e-01	0	42	104	0	60	112447
2026-01-22 23:07:32.15	84.01	1.22	-51.1	-69.1	3.5	7.71e-01	0	42	104	0	60	109502
2026-01-22 23:07:35.08	83.77	1.37	-50.2	-68.4	3.5	7.71e-01	0	42	104	0	60	101486
2026-01-22 23:07:38.03	83.52	1.53	-49.9	-67.7	3.5	7.71e-01	0	42	104	0	60	93377
2026-01-22 23:07:40.96	83.27	1.69	-49.9	-67.8	3.5	7.71e-01	0	42	104	0	60	94321
2026-01-22 23:07:43.91	83.01	1.85	-49.9	-67.7	3.5	7.71e-01	0	42	104	0	60	93842
2026-01-22 23:07:46.84	82.75	2.01	-49.9	-67.4	3.5	7.71e-01	0	42	104	0	60	90432
2026-01-22 23:07:49.79	82.49	2.17	-49.9	-67.8	3.5	7.71e-01	0	42	104	0	60	94039
2026-01-22 23:07:52.73	82.22	2.33	-49.9	-67.4	3.5	7.71e-01	0	42	104	0	60	90576
2026-01-22 23:07:55.68	81.95	2.49	-49.9	-66.0	3.5	7.71e-01	0	42	104	0	60	77018
2026-01-22 23:07:58.63	81.68	2.65	-49.9	-67.7	3.5	7.71e-01	0	42	104	0	60	93359
2026-01-22 23:08:01.58	81.40	2.81	-49.9	-67.0	3.5	7.71e-01	0	42	104	0	60	86334
2026-01-22 23:08:04.52	81.12	2.97	-49.8	-63.8	4.3	7.71e-01	0	42	104	0	60	59918
2026-01-22 23:08:07.46	80.84	3.13	-49.8	-63.4	3.8	7.71e-01	0	42	104	0	60	57105
2026-01-22 23:08:10.39	80.55	3.30	-50.3	-68.4	3.5	7.71e-01	0	42	104	1572864	60	100942
2026-01-22 23:08:13.33	80.26	3.46	-49.9	-66.4	3.5	7.71e-01	0	42	104	1572864	60	80592
2026-01-22 23:08:16.28	79.97	3.62	-42.2	-44.0	23.6	7.71e-01	91	42	0	5767168	58	6856
2026-01-22 23:08:19.22	79.67	3.79	-41.1	-42.8	24.8	7.71e-01	92	42	0	11534336	58	5927
2026-01-22 23:08:22.17	79.37	3.95	-40.7	-42.2	25.2	7.71e-01	92	42	0	16777216	54	7028
2026-01-22 23:08:25.11	79.07	4.12	-40.0	-41.4	25.9	7.71e-01	90	42	0	22544384	54	6421
2026-01-22 23:08:28.05	78.76	4.28	-39.4	-40.8	26.6	7.71e-01	91	42	0	27787264	54	5953
2026-01-22 23:08:30.99	78.44	4.45	-39.8	-41.3	26.2	7.71e-01	93	42	0	33554432	54	6311
2026-01-22 23:08:33.94	78.13	4.61	-40.0	-41.4	26.1	7.71e-01	90	42	0	38797312	54	6400
2026-01-22 23:08:36.88	77.81	4.78	-39.8	-41.2	26.2	7.71e-01	92	42	0	44564480	54	6261
2026-01-22 23:08:39.81	77.48	4.95	-39.6	-41.1	26.5	7.71e-01	92	42	0	49807360	54	6142
2026-01-22 23:08:42.75	77.15	5.11	-39.4	-40.8	26.8	7.71e-01	93	42	0	55574528	54	5938
2026-01-22 23:08:45.68	76.82	5.28	-39.7	-41.1	26.4	7.71e-01	94	42	0	60817408	54	6190
2026-01-22 23:08:48.63	76.48	5.45	-39.4	-40.8	26.7	7.71e-01	93	42	0	66584576	54	5960
2026-01-22 23:08:51.56	76.14	5.62	-39.5	-40.9	26.7	7.71e-01	90	42	0	71827456	54	6031
2026-01-22 23:08:54.49	75.80	5.78	-39.2	-40.7	26.9	7.71e-01	93	42	0	77594624	54	5864
2026-01-22 23:08:57.42	75.45	5.95	-39.2	-40.6	27.1	7.71e-01	90	42	0	82837504	52	6552
2026-01-22 23:09:00.36	75.09	6.12	-39.2	-40.7	27.0	7.71e-01	90	42	0	88604672	52	6612
2026-01-22 23:09:03.30	74.73	6.29	-39.2	-40.6	27.1	7.71e-01	91	42	0	93847552	52	6544
2026-01-22 23:09:06.24	74.37	6.46	-39.3	-40.6	27.1	7.71e-01	92	42	0	99614720	52	6565
2026-01-22 23:09:09.18	74.00	6.63	-39.1	-40.5	27.3	7.71e-01	90	42	0	104857600	52	6431
2026-01-22 23:09:12.12	73.62	6.80	-39.0	-40.3	27.4	7.71e-01	92	42	0	110624768	52	6336
2026-01-22 23:09:15.06	73.24	6.97	-38.7	-40.2	27.4	7.71e-01	90	42	0	115867648	52	6268
2026-01-22 23:09:18.00	72.86	7.14	-39.0	-40.5	27.2	7.71e-01	92	42	0	121634816	52	6464
2026-01-22 23:09:20.94	72.47	7.31	-38.7	-40.3	27.5	7.71e-01	85	42	0	126877696	52	6297
2026-01-22 23:09:23.88	72.08	7.48	-38.7	-40.2	27.6	7.71e-01	91	42	0	132644864	52	6250
2026-01-22 23:09:26.83	71.68	7.65	-38.5	-39.9	27.8	7.71e-01	85	42	0	137887744	52	6018
2026-01-22 23:09:29.77	71.27	7.82	-38.9	-40.2	27.6	7.71e-01	86	42	0	143654912	52	6232
2026-01-22 23:09:32.70	70.86	7.99	-38.9	-40.2	27.6	7.71e-01	87	42	0	149422080	52	6272
2026-01-22 23:09:35.64	70.45	8.16	-39.4	-40.7	27.1	7.71e-01	88	42	0	154664960	52	6615
2026-01-22 23:09:38.59	70.03	8.33	-38.7	-40.0	27.8	7.71e-01	92	42	0	160432128	52	6116
2026-01-22 23:09:41.54	69.60	8.50	-39.0	-40.3	27.5	7.71e-01	92	42	0	165675008	52	6314
2026-01-22 23:09:44.47	69.17	8.67	-38.7	-40.1	27.8	7.71e-01	93	42	0	171442176	52	6135
2026-01-22 23:09:47.41	68.73	8.84	-38.4	-39.8	28.0	7.71e-01	90	42	0	176685056	52	5972
2026-01-22 23:09:50.35	68.29	9.01	-38.1	-39.5	28.2	7.71e-01	91	42	0	182452224	52	5783
2026-01-22 23:09:53.30	67.84	9.18	-38.2	-39.7	28.2	7.71e-01	93	42	0	187695104	52	5866
2026-01-22 23:09:56.24	67.39	9.35	-38.5	-39.9	28.0	7.71e-01	92	42	0	193462272	52	6016
2026-01-22 23:09:59.19	66.93	9.51	-38.4	-39.8	28.1	7.71e-01	92	42	0	198705152	52	5989
2026-01-22 23:10:02.13	66.46	9.68	-38.3	-39.6	28.2	7.71e-01	91	42	0	204472320	52	5834
2026-01-22 23:10:05.06	65.99	9.85	-38.4	-39.7	28.2	7.71e-01	90	42	0	209715200	52	5860
2026-01-22 23:10:08.01	65.51	10.02	-38.2	-39.5	28.4	7.71e-01	93	42	0	215482368	52	5789
2026-01-22 23:10:10.96	65.03	10.18	-38.4	-39.7	28.2	7.71e-01	93	42	0	220725248	52	5925
2026-01-22 23:10:13.90	64.54	10.35	-38.2	-39.5	28.3	7.71e-01	90	42	0	226492416	52	5764
2026-01-22 23:10:16.84	64.04	10.51	-38.2	-39.6	28.3	7.71e-01	92	42	0	231735296	52	5845
2026-01-22 23:10:19.77	63.54	10.68	-38.3	-39.7	28.2	7.71e-01	94	42	0	237502464	52	5919
2026-01-22 23:10:22.72	63.03	10.84	-38.0	-39.4	28.5	7.71e-01	92	42	0	242745344	50	6360
2026-01-22 23:10:25.66	62.52	11.00	-38.0	-39.6	28.3	7.71e-01	91	42	0	248512512	50	6550
2026-01-22 23:10:28.60	62.00	11.17	-38.2	-39.6	28.3	7.71e-01	91	42	0	253755392	50	6520
2026-01-22 23:10:31.53	61.47	11.33	-38.1	-39.4	28.4	7.71e-01	90	42	0	259522560	50	6413
2026-01-22 23:10:34.48	60.94	11.49	-37.9	-39.1	28.8	7.71e-01	91	42	0	264765440	50	6196
2026-01-22 23:10:37.43	60.40	11.64	-37.9	-39.2	28.7	7.71e-01	92	42	0	270532608	50	6260
2026-01-22 23:10:40.37	59.85	11.80	-38.0	-39.3	28.7	7.71e-01	91	42	0	276299776	50	6285
2026-01-22 23:10:43.31	59.30	11.96	-37.9	-39.3	28.6	7.71e-01	91	42	0	281542656	50	6311
2026-01-22 23:10:46.24	58.74	12.11	-37.9	-39.2	28.6	7.71e-01	92	42	0	286785536	50	6261
2026-01-22 23:10:49.18	58.18	12.26	-37.9	-39.1	28.7	7.71e-01	92	42	0	292552704	50	6196
2026-01-22 23:10:52.13	57.60	12.41	-37.8	-39.1	28.8	7.71e-01	90	42	0	298319872	50	6154
2026-01-22 23:10:55.07	57.03	12.56	-38.1	-39.3	28.6	7.71e-01	91	42	0	303562752	50	6335
2026-01-22 23:10:58.02	56.44	12.71	-38.1	-39.3	28.6	7.71e-01	89	42	0	309329920	50	6326
2026-01-22 23:11:00.95	55.85	12.86	-38.0	-39.4	28.6	7.71e-01	93	42	0	314572800	50	6354
2026-01-22 23:11:03.89	55.26	13.00	-37.8	-39.0	28.8	7.71e-01	90	42	0	320339968	50	6120
2026-01-22 23:11:06.82	54.66	13.14	-38.0	-39.2	28.7	7.71e-01	61	42	0	325582848	50	6250
2026-01-22 23:11:09.76	54.05	13.28	-37.9	-39.2	28.7	7.71e-01	59	42	0	331350016	50	6243
2026-01-22 23:11:12.70	53.43	13.42	-37.9	-39.1	28.7	7.71e-01	57	42	0	336592896	50	6190
2026-01-22 23:11:15.64	52.81	13.56	-37.9	-39.1	28.8	7.71e-01	46	41	0	342360064	50	6180
2026-01-22 23:11:18.58	52.18	13.69	-37.9	-39.2	28.7	7.71e-01	48	41	0	347602944	50	6227
2026-01-22 23:11:21.51	51.55	13.82	-38.2	-39.4	28.6	7.71e-01	49	42	0	353370112	50	6409
2026-01-22 23:11:24.45	50.91	13.95	-37.9	-39.1	28.9	7.71e-01	56	42	0	358612992	50	6157
2026-01-22 23:11:27.38	50.27	14.07	-37.7	-38.9	28.9	7.71e-01	60	41	0	364380160	50	6062
2026-01-22 23:11:30.32	49.62	14.20	-37.9	-39.1	28.9	7.71e-01	56	42	0	369623040	50	6173
2026-01-22 23:11:33.25	48.96	14.32	-37.7	-39.0	29.0	7.71e-01	55	41	0	375390208	50	6093
2026-01-22 23:11:36.20	48.30	14.43	-38.1	-39.3	28.7	7.71e-01	57	41	0	380633088	50	6329
2026-01-22 23:11:39.15	47.63	14.55	-37.9	-39.1	28.9	7.71e-01	58	41	0	386400256	50	6181
2026-01-22 23:11:42.09	46.95	14.66	-38.0	-39.3	28.7	7.71e-01	59	41	0	391643136	50	6299
2026-01-22 23:11:45.03	46.27	14.77	-37.9	-39.1	29.0	7.71e-01	58	41	0	397410304	50	6182
2026-01-22 23:11:47.97	45.59	14.87	-37.8	-39.1	28.9	7.71e-01	45	41	0	402653184	50	6154
2026-01-22 23:11:50.91	44.90	14.97	-38.0	-39.3	28.7	7.71e-01	60	41	0	408420352	50	6283
2026-01-22 23:11:53.85	44.21	15.07	-37.8	-39.1	28.8	7.71e-01	57	41	0	413663232	50	6158
2026-01-22 23:11:56.79	43.51	15.16	-37.8	-39.1	28.9	7.71e-01	60	41	0	419430400	50	6166
2026-01-22 23:11:59.73	42.80	15.25	-37.9	-39.2	28.8	7.71e-01	59	41	0	424673280	50	6266
2026-01-22 23:12:02.67	42.10	15.34	-37.8	-39.0	28.9	7.71e-01	57	41	0	430440448	50	6119
2026-01-22 23:12:05.62	41.38	15.42	-37.9	-39.1	28.9	7.71e-01	60	41	0	435683328	50	6179
2026-01-22 23:12:08.57	40.66	15.50	-38.2	-39.4	28.6	7.71e-01	59	41	0	441450496	50	6404
2026-01-22 23:12:11.52	39.94	15.57	-37.9	-39.1	28.9	7.71e-01	43	41	0	447217664	50	6158
2026-01-22 23:12:14.45	39.22	15.64	-38.1	-39.3	28.7	7.71e-01	50	41	0	452460544	50	6338
2026-01-22 23:12:17.39	38.49	15.71	-38.1	-39.4	28.6	7.71e-01	46	41	0	457703424	50	6390
2026-01-22 23:12:20.34	37.76	15.77	-38.0	-39.3	28.8	7.71e-01	58	41	0	463470592	50	6293
2026-01-22 23:12:23.28	37.02	15.82	-38.0	-39.3	28.8	7.71e-01	61	41	0	469237760	50	6280
2026-01-22 23:12:26.23	36.29	15.88	-38.0	-39.2	28.8	7.71e-01	59	41	0	474480640	50	6252
2026-01-22 23:12:29.16	35.55	15.93	-37.9	-39.1	28.9	7.71e-01	59	41	0	480247808	50	6180
2026-01-22 23:12:32.11	34.80	15.97	-38.0	-39.2	28.8	7.71e-01	59	41	0	485490688	50	6255
2026-01-22 23:12:35.05	34.06	16.01	-38.0	-39.2	28.8	7.71e-01	59	41	0	491257856	50	6266
2026-01-22 23:12:37.99	33.31	16.04	-38.1	-39.3	28.7	7.71e-01	59	41	0	496500736	50	6320
2026-01-22 23:12:40.93	32.57	16.07	-38.1	-39.3	28.7	7.71e-01	44	41	0	502267904	50	6348
2026-01-22 23:12:43.86	31.82	16.10	-38.2	-39.5	28.6	7.71e-01	46	41	0	507510784	50	6467
2026-01-22 23:12:46.80	31.07	16.12	-38.0	-39.3	28.8	7.71e-01	45	41	0	513277952	50	6299
2026-01-22 23:12:49.75	30.32	16.13	-37.9	-39.2	28.8	7.71e-01	60	41	0	518520832	50	6243
2026-01-22 23:12:52.69	29.56	16.15	-38.1	-39.3	28.7	7.71e-01	58	41	0	524288000	50	6330
2026-01-22 23:12:55.64	28.81	16.15	-38.0	-39.2	28.8	7.71e-01	60	41	0	529530880	50	6254
2026-01-22 23:12:58.58	28.06	16.15	-38.1	-39.4	28.7	7.71e-01	61	41	0	535298048	50	6374
2026-01-22 23:13:01.53	27.30	16.15	-38.0	-39.2	28.8	7.71e-01	58	41	0	540540928	50	6264
2026-01-22 23:13:04.47	26.55	16.14	-38.0	-39.3	28.7	7.71e-01	58	41	0	546308096	50	6290
2026-01-22 23:13:07.41	25.80	16.13	-38.1	-39.3	28.7	7.71e-01	60	41	0	551550976	50	6343
2026-01-22 23:13:10.34	25.05	16.11	-38.1	-39.4	28.7	7.71e-01	58	41	0	557318144	50	6357
2026-01-22 23:13:13.28	24.30	16.09	-38.1	-39.4	28.7	7.71e-01	48	41	0	562561024	50	6361
2026-01-22 23:13:16.20	23.56	16.06	-38.1	-39.4	28.6	7.71e-01	59	41	0	568328192	50	6371
2026-01-22 23:13:19.14	22.81	16.03	-38.1	-39.3	28.7	7.71e-01	59	41	0	573571072	50	6331
2026-01-22 23:13:22.09	22.06	15.99	-38.3	-39.5	28.5	7.71e-01	58	41	0	579338240	50	6496
2026-01-22 23:13:25.02	21.32	15.95	-38.2	-39.5	28.5	7.71e-01	62	41	0	584581120	50	6456
2026-01-22 23:13:27.96	20.58	15.91	-37.9	-39.2	28.9	7.71e-01	61	41	0	590348288	50	6208
2026-01-22 23:13:30.89	19.85	15.86	-38.0	-39.3	28.8	7.71e-01	59	41	0	595591168	50	6291
2026-01-22 23:13:33.83	19.11	15.80	-38.1	-39.3	28.7	7.71e-01	63	41	0	601358336	50	6319
2026-01-22 23:13:36.77	18.38	15.75	-38.1	-39.4	28.7	7.71e-01	59	41	0	606601216	50	6352
2026-01-22 23:13:39.72	17.65	15.68	-38.1	-39.3	28.8	7.71e-01	59	41	0	612368384	50	6340
2026-01-22 23:13:42.64	16.93	15.62	-38.1	-39.4	28.7	7.71e-01	48	41	0	617611264	50	6356
2026-01-22 23:13:45.57	16.21	15.55	-38.2	-39.5	28.5	7.71e-01	59	41	0	623378432	50	6433
2026-01-22 23:13:48.51	15.49	15.47	-38.0	-39.2	28.9	7.71e-01	59	41	0	628621312	50	6231
2026-01-22 23:13:51.45	14.78	15.39	-38.0	-39.3	28.6	7.71e-01	59	41	0	634388480	50	6290
2026-01-22 23:13:54.39	14.07	15.31	-38.1	-39.4	28.7	7.71e-01	57	41	0	639631360	50	6372
2026-01-22 23:13:57.34	13.36	15.22	-37.8	-39.0	28.9	7.71e-01	60	41	0	645398528	50	6112
2026-01-22 23:14:00.28	12.66	15.13	-38.2	-39.5	28.5	7.71e-01	60	41	0	650641408	50	6462
2026-01-22 23:14:03.21	11.97	15.03	-38.0	-39.2	28.7	7.71e-01	59	41	0	656408576	50	6273
2026-01-22 23:14:06.14	11.28	14.94	-38.1	-39.3	28.7	7.71e-01	62	41	0	661651456	50	6341
2026-01-22 23:14:09.08	10.59	14.84	-38.0	-39.3	28.7	7.71e-01	45	41	0	667418624	50	6280
2026-01-22 23:14:12.02	9.91	14.73	-38.1	-39.3	28.6	7.71e-01	50	41	0	672661504	50	6324
2026-01-22 23:14:14.97	9.23	14.62	-38.1	-39.4	28.7	7.71e-01	60	41	0	678428672	50	6379
2026-01-22 23:14:17.92	8.56	14.51	-38.5	-48.6	3.6	7.71e-01	0	41	104	682622976	50	18431
2026-01-22 23:14:20.86	7.89	14.39	-38.8	-48.9	3.4	7.71e-01	0	41	104	682622976	50	19053
2026-01-22 23:14:23.80	7.23	14.28	-40.9	-51.2	3.6	7.71e-01	0	41	104	682622976	58	15682
2026-01-22 23:14:26.74	6.58	14.16	-41.0	-51.2	3.6	7.71e-01	0	41	104	682622976	56	17620
2026-01-22 23:14:29.68	5.93	14.03	-41.2	-51.6	3.4	7.71e-01	0	41	104	682622976	54	20728
2026-01-22 23:14:32.62	5.29	13.91	-45.6	-56.8	3.4	7.71e-01	0	41	104	682622976	60	26712
2026-01-22 23:14:35.56	4.66	13.78	-38.7	-48.8	4.1	7.71e-01	0	41	104	682622976	52	16797
2026-01-22 23:14:38.51	4.02	13.65	-40.0	-50.3	3.5	7.71e-01	0	41	104	682622976	52	19958
2026-01-22 23:14:41.46	3.40	13.51	-50.9	-67.9	3.5	7.71e-01	0	41	104	682622976	60	95668
2026-01-22 23:14:44.40	2.78	13.38	-41.5	-51.8	3.5	7.71e-01	0	41	104	682622976	58	16793
2026-01-22 23:14:47.34	2.17	13.24	-40.5	-50.8	3.5	7.71e-01	0	41	104	682622976	56	16896
2026-01-22 23:14:50.28	1.56	13.10	-51.1	-68.5	3.5	7.71e-01	0	41	104	682622976	60	101950
2026-01-22 23:14:53.22	0.97	12.96	-39.3	-49.7	3.5	7.71e-01	0	41	104	682622976	54	16618
2026-01-22 23:14:56.16	0.37	12.81	-39.0	-49.2	3.5	7.71e-01	0	41	104	682622976	52	17641
2026-01-22 23:14:59.10	359.79	12.66	-51.0	-68.2	3.5	7.71e-01	0	41	104	682622976	60	98449
2026-01-22 23:15:02.05	359.20	12.52	-40.0	-50.2	3.5	7.71e-01	0	41	104	682622976	56	15743
2026-01-22 23:15:05.00	358.63	12.37	-39.3	-49.6	3.5	7.71e-01	0	41	104	682622976	52	18419
2026-01-22 23:15:07.94	358.06	12.21	-51.0	-68.0	3.5	7.71e-01	0	41	104	682622976	60	96854
2026-01-22 23:15:10.88	357.50	12.06	-42.6	-53.1	3.5	7.71e-01	0	41	104	682622976	60	17314
2026-01-22 23:15:13.82	356.95	11.91	-38.8	-48.9	3.5	7.71e-01	0	41	104	682622976	52	17054
2026-01-22 23:15:16.77	356.40	11.75	-50.8	-67.5	3.5	7.71e-01	0	41	104	682622976	60	91139
2026-01-22 23:15:19.71	355.86	11.59	-39.2	-49.4	3.5	7.71e-01	0	41	104	682622976	54	16068
2026-01-22 23:15:22.64	355.32	11.44	-39.3	-49.5	3.5	7.71e-01	0	41	104	682622976	54	16286
2026-01-22 23:15:25.58	354.79	11.28	-47.3	-59.3	3.5	7.71e-01	0	41	104	682622976	60	35332
2026-01-22 23:15:28.53	354.27	11.12	-50.6	-66.8	3.6	7.71e-01	0	41	104	682622976	60	84496
2026-01-22 23:15:31.47	353.75	10.95	-39.2	-49.4	3.5	7.71e-01	0	41	104	682622976	52	17919
2026-01-22 23:15:34.41	353.24	10.79	-40.4	-50.9	3.5	7.71e-01	0	41	104	682622976	54	19092
2026-01-22 23:15:37.34	352.74	10.63	-41.4	-51.6	3.5	7.71e-01	0	41	104	682622976	58	16408
2026-01-22 23:15:40.28	352.24	10.46	-39.3	-49.5	3.5	7.71e-01	0	41	104	682622976	54	16318
2026-01-22 23:15:43.22	351.75	10.30	-39.6	-50.0	3.5	7.71e-01	0	41	104	682622976	56	15268
2026-01-22 23:15:46.18	351.26	10.13	-43.0	-53.6	3.5	7.71e-01	0	41	104	682622976	58	20781
2026-01-22 23:15:49.11	350.78	9.97	-41.0	-51.1	3.5	7.71e-01	0	41	104	682622976	56	17471
2026-01-22 23:15:52.04	350.31	9.80	-48.4	-61.2	3.5	7.71e-01	0	41	104	682622976	60	44251
2026-01-22 23:15:54.98	349.85	9.63	-50.9	-68.5	3.5	7.71e-01	0	41	104	682622976	60	102315
2026-01-22 23:15:57.92	349.38	9.47	-39.6	-49.6	3.5	7.71e-01	0	41	104	682622976	54	16503
2026-01-22 23:16:00.87	348.93	9.30	-41.1	-51.8	3.5	7.71e-01	0	41	104	682622976	60	14972
2026-01-22 23:16:03.81	348.48	9.13	-43.1	-53.4	3.5	7.71e-01	0	41	104	682622976	58	20221
2026-01-22 23:16:06.75	348.03	8.96	-41.4	-51.8	3.5	7.71e-01	0	41	104	682622976	58	16832
2026-01-22 23:16:09.69	347.59	8.79	-45.9	-57.2	3.5	7.71e-01	0	41	104	682622976	60	27922
2026-01-22 23:16:12.63	347.16	8.62	-46.3	-58.0	3.5	7.71e-01	0	41	104	682622976	58	34388
2026-01-22 23:16:15.56	346.73	8.46	-39.8	-50.0	3.5	7.71e-01	0	41	104	682622976	54	17092
2026-01-22 23:16:18.49	346.31	8.29	-47.5	-59.6	3.5	7.71e-01	0	41	104	682622976	60	36645
2026-01-22 23:16:21.43	345.90	8.12	-41.2	-52.1	3.6	7.71e-01	0	41	104	682622976	60	15420
2026-01-22 23:16:24.38	345.48	7.95	-43.3	-54.2	3.5	7.71e-01	0	41	104	682622976	60	19726
2026-01-22 23:16:27.31	345.08	7.78	-46.6	-58.2	3.6	7.71e-01	0	41	104	682622976	60	31248
2026-01-22 23:16:30.25	344.68	7.61	-40.1	-50.1	3.5	7.71e-01	0	41	104	682622976	56	15546
2026-01-22 23:16:33.19	344.28	7.44	-41.0	-51.0	3.5	7.71e-01	0	42	104	682622976	58	15306
2026-01-22 23:16:36.13	343.89	7.27	-49.4	-63.2	3.5	7.71e-01	0	42	104	682622976	60	55919
2026-01-22 23:16:39.07	343.51	7.10	-44.0	-54.8	3.5	7.71e-01	0	42	104	682622976	60	21247
2026-01-22 23:16:42.01	343.13	6.93	-40.7	-51.1	3.5	7.71e-01	0	41	104	682622976	56	17438
2026-01-22 23:16:44.96	342.75	6.76	-49.0	-62.9	3.5	7.71e-01	0	42	104	682622976	60	53880
2026-01-22 23:16:47.89	342.38	6.59	-46.0	-57.9	3.5	7.71e-01	0	42	104	682622976	60	30367
2026-01-22 23:16:50.83	342.01	6.42	-42.9	-54.1	3.6	7.71e-01	0	42	104	682622976	60	19431
2026-01-22 23:16:53.79	341.65	6.25	-41.5	-52.7	3.5	7.71e-01	0	42	104	682622976	58	18690
2026-01-22 23:16:56.73	341.29	6.08	-46.5	-59.5	3.6	7.71e-01	0	41	104	682622976	60	36436
2026-01-22 23:16:59.67	340.94	5.91	-43.4	-54.9	3.5	7.71e-01	0	41	104	682622976	60	21398
2026-01-22 23:17:02.63	340.59	5.75	-42.2	-53.3	3.6	7.71e-01	0	42	104	682622976	60	17872
2026-01-22 23:17:05.57	340.25	5.58	-47.2	-61.8	3.5	7.71e-01	0	42	104	682622976	60	47165
2026-01-22 23:17:08.51	339.91	5.41	-45.1	-56.4	3.6	7.71e-01	0	42	104	682622976	60	25474
2026-01-22 23:17:11.45	339.58	5.24	-45.7	-57.2	3.5	7.71e-01	0	41	104	682622976	60	27792
2026-01-22 23:17:14.38	339.25	5.08	-45.2	-57.2	3.5	7.71e-01	0	42	104	682622976	60	27813
2026-01-22 23:17:17.32	338.92	4.91	-44.2	-56.2	3.5	7.71e-01	0	41	104	682622976	60	24917
2026-01-22 23:17:20.26	338.60	4.74	-45.0	-57.6	3.5	7.71e-01	0	42	104	682622976	60	29040
2026-01-22 23:17:23.21	338.28	4.58	-47.8	-64.8	3.5	7.71e-01	0	42	104	682622976	60	66500
2026-01-22 23:17:26.15	337.97	4.41	-46.3	-60.2	3.5	7.71e-01	0	42	104	682622976	60	39288
2026-01-22 23:17:29.08	337.66	4.25	-46.6	-62.2	3.5	7.71e-01	0	42	104	682622976	60	49415
2026-01-22 23:17:32.03	337.35	4.08	-46.8	-64.6	3.5	7.71e-01	0	42	104	682622976	60	65254
2026-01-22 23:17:34.97	337.05	3.92	-46.9	-64.1	3.5	7.71e-01	0	42	104	682622976	60	61356
2026-01-22 23:17:37.93	336.75	3.75	-46.9	-64.5	3.5	7.71e-01	0	42	104	682622976	60	64275
2026-01-22 23:17:40.87	336.46	3.59	-46.8	-64.6	3.5	7.71e-01	0	42	104	682622976	60	65671
2026-01-22 23:17:43.81	336.17	3.43	-46.8	-64.6	3.5	7.71e-01	0	42	104	682622976	60	65574
2026-01-22 23:17:46.75	335.88	3.26	-46.7	-64.6	3.5	7.71e-01	0	42	104	682622976	60	65599
2026-01-22 23:17:49.68	335.60	3.10	-46.7	-64.5	3.5	7.71e-01	0	42	104	682622976	60	64732
2026-01-22 23:17:52.62	335.32	2.94	-49.9	-67.8	3.5	7.71e-01	0	42	104	682622976	60	94790
2026-01-22 23:17:55.57	335.04	2.78	-51.3	-69.1	3.5	7.71e-01	0	42	104	682622976	60	110300
2026-01-22 23:17:58.50	334.77	2.62	-51.4	-69.4	3.5	7.71e-01	0	42	104	682622976	60	113870
2026-01-22 23:18:01.43	334.50	2.46	-51.7	-69.5	3.5	7.71e-01	0	42	104	682622976	60	115243
2026-01-22 23:18:04.36	334.24	2.30	-51.5	-69.5	3.5	7.71e-01	0	42	104	682622976	60	115229
2026-01-22 23:18:07.31	333.97	2.14	-51.5	-69.5	3.5	7.71e-01	0	42	104	682622976	60	115409
2026-01-22 23:18:10.25	333.71	1.98	-51.6	-69.5	3.5	7.71e-01	0	42	104	682622976	60	114432
2026-01-22 23:18:13.19	333.46	1.82	-51.4	-69.5	3.5	7.71e-01	0	42	104	682622976	60	114236
2026-01-22 23:18:16.13	333.20	1.66	-51.7	-69.5	3.5	7.71e-01	0	42	104	682622976	60	114290
2026-01-22 23:18:19.07	332.95	1.51	-51.7	-69.5	3.5	7.71e-01	0	42	104	682622976	60	114461
2026-01-22 23:18:22.01	332.70	1.35	-51.6	-69.4	3.5	7.71e-01	0	42	104	682622976	60	114226
2026-01-22 23:18:24.94	332.46	1.19	-51.6	-69.5	3.5	7.71e-01	0	42	104	682622976	60	114407
2026-01-22 23:18:27.89	332.22	1.04	-51.6	-69.4	3.5	7.71e-01	0	42	104	682622976	60	114014
2026-01-22 23:18:30.83	331.98	0.88	-51.6	-69.4	3.5	7.71e-01	0	42	104	682622976	60	113990
2026-01-22 23:18:33.79	331.74	0.72	-51.6	-69.5	3.5	7.71e-01	0	42	104	682622976	60	114251
2026-01-22 23:18:36.73	331.51	0.57	-51.6	-69.4	3.5	7.71e-01	0	42	104	682622976	60	114140
2026-01-22 23:18:39.67	331.28	0.41	-51.6	-69.4	3.5	7.71e-01	0	42	104	682622976	60	114130
2026-01-22 23:18:42.60	331.05	0.26	-51.6	-69.4	3.5	7.71e-01	0	42	104	682622976	60	114048
2026-01-22 23:18:45.55	330.83	0.11	-51.6	-69.4	3.5	7.71e-01	0	42	104	682622976	60	114106
2026-01-22 23:18:48.51	330.61	-0.05	-51.6	-69.4	3.5	7.71e-01	0	42	104	682622976	60	114037

#Closed at: 2026-01-22 23:18:50
#Recorded file [682 MB]: D:/lorett/data/35029_260123_110714.dat