passes_logs/2026/01/22/R4.6S_Anadyr/R4.6S_Anadyr__20260122_044825_FENGYUN_3D_rec.log

#Pass ID: 20260122_044825_FENGYUN 3D
#Satellite: FENGYUN 3D
#Configuration: FENGYUN 3D
#almurnet v.1.7.20251203
#Start time: 2026-01-22 04:48:26

#Version: 2.2.20231116
#Station: R4.6S_Anadyr
#Location: 177.4865 lon 64.73178 lat
#TLE: 1 43010U 17072A   26020.92362722 -.00000077  00000+0 -14488-4 0  9992
#TLE: 2 43010  98.9946 352.8312 0002486  99.3651 260.7806 14.19696535424099

#Time	Az	El	Level	Level2	SNR	BER	BlckErr	Temp	State	Recorded	gain1	gain2
2026-01-22 04:48:26.88	223.14	0.07	-51.9	-63.6	3.5	8.45e-01	0	39	0	0	60	54746
2026-01-22 04:48:30.91	223.46	0.26	-52.0	-64.3	3.6	8.45e-01	0	40	104	0	60	59235
2026-01-22 04:48:34.95	223.78	0.45	-51.9	-64.2	3.6	8.45e-01	0	40	104	0	60	58609
2026-01-22 04:48:38.99	224.11	0.65	-52.3	-64.5	3.6	8.44e-01	0	40	104	0	60	60584
2026-01-22 04:48:43.03	224.44	0.84	-52.0	-64.2	3.6	8.44e-01	0	40	104	0	60	58681
2026-01-22 04:48:47.07	224.78	1.04	-51.6	-63.8	3.6	8.47e-01	0	40	104	0	60	55817
2026-01-22 04:48:51.11	225.12	1.23	-50.4	-62.4	3.6	8.44e-01	0	40	104	0	60	47417
2026-01-22 04:48:55.15	225.46	1.43	-49.0	-60.9	3.6	8.45e-01	0	40	104	0	60	40185
2026-01-22 04:48:59.19	225.81	1.63	-49.1	-61.0	3.6	8.45e-01	0	40	104	0	60	40727
2026-01-22 04:49:03.24	226.16	1.83	-49.3	-61.3	3.6	8.45e-01	0	40	104	0	60	41808
2026-01-22 04:49:07.28	226.52	2.02	-49.2	-61.1	3.6	8.44e-01	0	40	104	0	60	41112
2026-01-22 04:49:11.31	226.88	2.22	-48.8	-60.6	3.6	8.45e-01	0	40	104	0	60	38796
2026-01-22 04:49:15.35	227.25	2.42	-49.1	-60.9	3.6	8.46e-01	0	41	104	0	60	40034
2026-01-22 04:49:19.39	227.62	2.62	-48.5	-59.3	3.6	8.46e-01	0	40	104	0	60	33159
2026-01-22 04:49:23.43	228.00	2.82	-47.9	-54.1	4.6	8.02e-01	0	41	0	0	60	18333
2026-01-22 04:49:27.47	228.38	3.02	-47.5	-52.6	5.9	2.85e-01	0	41	0	17825792	60	15503
2026-01-22 04:49:31.51	228.76	3.22	-48.0	-58.5	3.6	8.45e-01	0	41	104	24117248	60	30525
2026-01-22 04:49:35.54	229.15	3.42	-47.4	-51.6	7.8	5.65e-02	0	41	0	35651584	60	13684
2026-01-22 04:49:39.58	229.55	3.62	-47.9	-52.4	7.2	1.09e-01	0	41	0	57671680	60	15014
2026-01-22 04:49:43.62	229.95	3.82	-47.8	-52.7	6.5	1.78e-01	0	41	0	80740352	60	15570
2026-01-22 04:49:47.66	230.36	4.03	-48.0	-52.9	6.4	2.24e-01	0	41	0	103809024	60	15994
2026-01-22 04:49:51.70	230.77	4.23	-47.9	-52.5	6.9	1.25e-01	0	41	0	125829120	60	15265
2026-01-22 04:49:55.74	231.19	4.43	-48.0	-52.6	6.9	2.04e-01	0	41	0	148897792	60	15411
2026-01-22 04:49:59.78	231.61	4.63	-48.0	-52.7	6.7	1.45e-01	0	41	0	170917888	60	15634
2026-01-22 04:50:03.83	232.04	4.84	-48.2	-52.8	7.0	1.18e-01	0	41	0	193986560	60	15816
2026-01-22 04:50:07.87	232.48	5.04	-48.4	-53.3	6.5	1.95e-01	0	41	0	217055232	60	16747
2026-01-22 04:50:11.90	232.92	5.24	-48.2	-52.9	6.6	1.95e-01	0	41	0	240123904	60	15984
2026-01-22 04:50:15.94	233.36	5.45	-48.3	-53.1	6.7	1.44e-01	0	41	0	262144000	60	16301
2026-01-22 04:50:19.98	233.82	5.65	-48.6	-52.9	7.4	1.30e-01	0	41	0	285212672	60	16012
2026-01-22 04:50:24.02	234.28	5.86	-49.2	-53.6	7.6	9.84e-02	0	41	0	308281344	60	17265
2026-01-22 04:50:28.06	234.74	6.06	-48.6	-52.6	8.1	4.94e-02	0	41	0	330301440	60	15456
2026-01-22 04:50:32.10	235.21	6.26	-48.0	-51.9	8.5	3.14e-02	0	41	0	353370112	60	14210
2026-01-22 04:50:36.14	235.69	6.47	-47.5	-51.0	9.4	1.28e-02	0	41	0	376438784	60	12779
2026-01-22 04:50:40.19	236.18	6.67	-48.0	-51.4	9.8	8.44e-03	0	41	0	398458880	60	13387
2026-01-22 04:50:44.23	236.67	6.88	-47.6	-50.5	11.0	1.31e-03	0	41	0	421527552	60	12128
2026-01-22 04:50:48.27	237.16	7.08	-46.8	-49.3	12.1	2.04e-04	0	41	0	444596224	60	10540
2026-01-22 04:50:52.31	237.67	7.28	-45.9	-48.0	13.4	1.60e-05	0	41	0	466616320	60	9091
2026-01-22 04:50:56.35	238.18	7.49	-45.8	-47.7	14.2	2.20e-06	0	41	0	489684992	60	8820
2026-01-22 04:51:00.39	238.70	7.69	-45.2	-47.0	14.7	0.00e+00	0	41	0	512753664	60	8091
2026-01-22 04:51:04.42	239.22	7.89	-44.0	-45.6	15.9	0.00e+00	0	41	0	534773760	60	6861
2026-01-22 04:51:08.46	239.75	8.10	-43.0	-44.3	17.1	0.00e+00	0	41	0	557842432	60	5921
2026-01-22 04:51:12.50	240.29	8.30	-43.1	-44.4	17.5	0.00e+00	0	41	0	580911104	60	5985
2026-01-22 04:51:16.54	240.84	8.50	-42.6	-43.8	18.2	0.00e+00	0	41	0	602931200	58	6272
2026-01-22 04:51:20.58	241.39	8.70	-41.4	-42.5	19.2	0.00e+00	0	41	0	625999872	56	6039
2026-01-22 04:51:24.62	241.95	8.90	-41.5	-42.5	19.5	0.00e+00	0	41	0	649068544	56	6081
2026-01-22 04:51:28.66	242.52	9.10	-40.6	-41.5	20.5	0.00e+00	0	41	0	671088640	54	6060
2026-01-22 04:51:32.69	243.10	9.30	-40.5	-41.4	20.8	0.00e+00	0	41	0	694157312	54	5979
2026-01-22 04:51:36.73	243.68	9.49	-38.6	-39.4	22.1	0.00e+00	0	41	0	717225984	50	6004
2026-01-22 04:51:40.77	244.27	9.69	-37.9	-38.7	22.5	0.00e+00	0	41	0	739246080	50	5521
2026-01-22 04:51:44.81	244.87	9.88	-37.9	-38.6	23.0	0.00e+00	0	41	0	762314752	48	6148
2026-01-22 04:51:48.85	245.48	10.08	-37.6	-38.3	23.2	0.00e+00	0	41	0	785383424	48	5956
2026-01-22 04:51:52.89	246.09	10.27	-37.6	-38.3	23.6	0.00e+00	0	41	0	807403520	48	5954
2026-01-22 04:51:56.94	246.72	10.46	-37.2	-37.9	23.7	0.00e+00	0	41	0	830472192	48	5690
2026-01-22 04:52:00.98	247.35	10.65	-37.0	-37.7	24.2	0.00e+00	0	41	0	853540864	48	5561
2026-01-22 04:52:05.02	247.98	10.84	-36.9	-37.6	24.4	0.00e+00	0	41	0	875560960	48	5497
2026-01-22 04:52:09.05	248.63	11.02	-37.0	-37.8	24.5	0.00e+00	0	41	0	898629632	48	5567
2026-01-22 04:52:13.09	249.28	11.21	-36.6	-37.3	24.5	0.00e+00	0	41	0	921698304	46	5948
2026-01-22 04:52:17.13	249.94	11.39	-36.8	-37.5	24.6	0.00e+00	0	41	0	943718400	46	6051
2026-01-22 04:52:21.17	250.61	11.57	-37.0	-37.7	24.3	0.00e+00	0	41	0	966787072	46	6222
2026-01-22 04:52:25.21	251.29	11.75	-36.4	-37.1	24.7	0.00e+00	0	41	0	989855744	46	5776
2026-01-22 04:52:29.24	251.97	11.92	-36.3	-37.0	24.7	0.00e+00	0	41	0	1011875840	46	5734
2026-01-22 04:52:33.28	252.67	12.10	-36.1	-36.8	24.9	0.00e+00	0	41	0	1034944512	46	5581
2026-01-22 04:52:37.32	253.37	12.27	-36.2	-36.9	25.0	0.00e+00	0	41	0	1058013184	46	5649
2026-01-22 04:52:41.36	254.08	12.44	-36.6	-37.3	25.0	0.00e+00	0	41	0	1080033280	46	5900
2026-01-22 04:52:45.40	254.80	12.60	-36.4	-37.0	25.2	0.00e+00	0	41	0	1103101952	46	5755
2026-01-22 04:52:49.44	255.52	12.76	-36.5	-37.2	24.9	0.00e+00	0	41	0	1126170624	46	5871
2026-01-22 04:52:53.48	256.25	12.92	-35.9	-36.6	25.0	0.00e+00	0	41	0	1148190720	46	5466
2026-01-22 04:52:57.52	256.99	13.08	-35.5	-36.2	25.1	0.00e+00	0	41	0	1171259392	44	5871
2026-01-22 04:53:01.55	257.74	13.23	-35.5	-36.2	25.2	0.00e+00	0	41	0	1194328064	44	5853
2026-01-22 04:53:05.59	258.49	13.38	-35.6	-36.3	25.1	0.00e+00	0	41	0	1216348160	44	5911
2026-01-22 04:53:09.63	259.25	13.52	-35.4	-36.1	25.2	0.00e+00	0	41	0	1239416832	44	5769
2026-01-22 04:53:13.67	260.02	13.66	-35.9	-36.5	25.4	0.00e+00	0	41	0	1262485504	44	6090
2026-01-22 04:53:17.71	260.80	13.80	-36.2	-36.8	25.1	0.00e+00	0	41	0	1284505600	44	6298
2026-01-22 04:53:21.75	261.58	13.93	-35.7	-36.4	25.3	0.00e+00	0	41	0	1307574272	44	5996
2026-01-22 04:53:25.78	262.37	14.06	-35.4	-36.0	25.6	0.00e+00	0	41	0	1330642944	44	5747
2026-01-22 04:53:29.83	263.17	14.19	-35.0	-35.7	25.7	0.00e+00	0	41	0	1352663040	44	5507
2026-01-22 04:53:33.87	263.97	14.31	-35.2	-35.9	25.5	0.00e+00	0	41	0	1375731712	44	5658
2026-01-22 04:53:37.91	264.78	14.42	-36.4	-37.1	25.5	0.00e+00	0	41	0	1398800384	46	5805
2026-01-22 04:53:41.94	265.59	14.53	-35.6	-36.3	25.5	0.00e+00	0	41	0	1420820480	44	5904
2026-01-22 04:53:45.98	266.41	14.64	-35.5	-36.2	25.3	0.00e+00	0	41	0	1443889152	44	5860
2026-01-22 04:53:50.03	267.24	14.74	-35.3	-36.0	25.4	0.00e+00	0	41	0	1466957824	44	5752
2026-01-22 04:53:54.07	268.07	14.83	-34.9	-35.5	25.8	0.00e+00	0	41	0	1488977920	44	5423
2026-01-22 04:53:58.10	268.91	14.92	-35.8	-36.5	25.6	0.00e+00	0	41	0	1512046592	44	6089
2026-01-22 04:54:02.14	269.75	15.01	-35.6	-36.3	25.7	0.00e+00	0	41	0	1535115264	44	5936
2026-01-22 04:54:06.18	270.59	15.08	-36.0	-36.7	25.0	0.00e+00	0	41	0	1557135360	44	6202
2026-01-22 04:54:10.22	271.44	15.16	-36.2	-37.0	25.1	0.00e+00	0	41	0	1580204032	46	5698
2026-01-22 04:54:14.26	272.30	15.23	-36.8	-37.5	24.9	0.00e+00	0	41	0	1603272704	46	6034
2026-01-22 04:54:18.29	273.15	15.29	-35.6	-36.2	25.5	0.00e+00	0	41	0	1625292800	44	5885
2026-01-22 04:54:22.33	274.01	15.34	-35.6	-36.2	25.8	0.00e+00	0	41	0	1648361472	44	5877
2026-01-22 04:54:26.37	274.87	15.39	-35.5	-36.2	25.8	0.00e+00	0	41	0	1671430144	44	5861
2026-01-22 04:54:30.41	275.74	15.44	-35.2	-35.9	25.7	0.00e+00	0	41	0	1693450240	44	5663
2026-01-22 04:54:34.45	276.61	15.48	-35.4	-36.1	25.8	0.00e+00	0	41	0	1716518912	44	5774
2026-01-22 04:54:38.49	277.48	15.51	-35.2	-35.8	26.0	0.00e+00	0	41	0	1739587584	44	5607
2026-01-22 04:54:42.53	278.35	15.53	-35.4	-36.1	25.7	0.00e+00	0	41	0	1761607680	44	5797
2026-01-22 04:54:46.57	279.22	15.55	-35.2	-35.9	25.8	0.00e+00	0	41	0	1784676352	44	5677
2026-01-22 04:54:50.61	280.09	15.57	-35.6	-36.3	25.4	0.00e+00	0	41	0	1807745024	44	5961
2026-01-22 04:54:54.65	280.97	15.57	-35.4	-36.0	25.7	0.00e+00	0	41	0	1829765120	44	5749
2026-01-22 04:54:58.69	281.84	15.58	-35.2	-35.8	25.8	0.00e+00	0	41	0	1852833792	44	5602
2026-01-22 04:55:02.73	282.72	15.57	-35.0	-35.6	25.7	0.00e+00	0	41	0	1875902464	44	5483
2026-01-22 04:55:06.77	283.59	15.56	-35.0	-35.7	25.7	0.00e+00	0	41	0	1897922560	44	5504
2026-01-22 04:55:10.82	284.47	15.54	-35.3	-35.9	25.4	0.00e+00	0	41	0	1920991232	44	5683
2026-01-22 04:55:14.85	285.33	15.52	-35.2	-35.8	25.6	0.00e+00	0	41	0	1944059904	44	5624
2026-01-22 04:55:18.90	286.21	15.49	-36.1	-36.8	25.1	0.00e+00	0	41	0	1967128576	44	6293
2026-01-22 04:55:22.93	287.07	15.45	-35.5	-36.1	25.7	0.00e+00	0	41	0	1989148672	44	5824
2026-01-22 04:55:26.97	287.94	15.41	-35.4	-36.1	25.7	0.00e+00	0	41	0	2012217344	44	5771
2026-01-22 04:55:31.01	288.80	15.36	-36.4	-37.1	25.1	0.00e+00	0	41	0	2034237440	44	6476
2026-01-22 04:55:35.05	289.66	15.31	-35.9	-36.6	25.3	0.00e+00	0	41	0	2057306112	44	6168
2026-01-22 04:55:39.09	290.52	15.25	-35.4	-36.2	25.4	0.00e+00	0	41	0	2080374784	44	5829
2026-01-22 04:55:43.13	291.37	15.18	-35.2	-35.9	25.6	0.00e+00	0	41	0	2102394880	44	5660
2026-01-22 04:55:47.18	292.22	15.11	-35.4	-36.0	25.3	0.00e+00	0	41	0	2125463552	44	5756
2026-01-22 04:55:51.22	293.07	15.03	-36.0	-36.7	25.1	0.00e+00	0	41	0	2148532224	44	6190
2026-01-22 04:55:55.26	293.91	14.95	-36.5	-37.1	24.8	0.00e+00	0	41	0	2171600896	44	6514
2026-01-22 04:55:59.30	294.74	14.86	-35.8	-36.4	25.3	0.00e+00	0	41	0	2193620992	44	6028
2026-01-22 04:56:03.34	295.57	14.77	-35.9	-36.6	25.3	0.00e+00	0	41	0	2216689664	44	6172
2026-01-22 04:56:07.38	296.40	14.67	-35.7	-36.5	25.0	0.00e+00	0	41	0	2238709760	44	6043
2026-01-22 04:56:11.42	297.22	14.57	-35.8	-36.5	25.0	0.00e+00	0	41	0	2261778432	44	6050
2026-01-22 04:56:15.46	298.03	14.46	-36.0	-36.6	24.6	0.00e+00	0	41	0	2284847104	44	6169
2026-01-22 04:56:19.51	298.84	14.34	-36.2	-36.8	24.9	0.00e+00	0	41	0	2307915776	46	5626
2026-01-22 04:56:23.54	299.64	14.23	-36.4	-37.1	24.7	0.00e+00	0	41	0	2329935872	46	5809
2026-01-22 04:56:27.58	300.44	14.10	-36.1	-36.7	25.0	0.00e+00	0	41	0	2353004544	46	5529
2026-01-22 04:56:31.62	301.23	13.98	-36.0	-36.6	24.9	0.00e+00	0	41	0	2376073216	44	6139
2026-01-22 04:56:35.66	302.01	13.85	-35.8	-36.5	25.0	0.00e+00	0	40	0	2398093312	44	6047
2026-01-22 04:56:39.70	302.79	13.71	-35.8	-36.4	25.1	0.00e+00	0	41	0	2421161984	44	5981
2026-01-22 04:56:43.74	303.56	13.57	-35.7	-36.4	25.1	0.00e+00	0	41	0	2443182080	44	6025
2026-01-22 04:56:47.78	304.32	13.43	-36.0	-36.7	25.0	0.00e+00	0	41	0	2466250752	44	6241
2026-01-22 04:56:51.82	305.07	13.28	-36.0	-36.7	24.7	0.00e+00	0	41	0	2489319424	44	6188
2026-01-22 04:56:55.86	305.82	13.13	-35.9	-36.5	24.7	0.00e+00	0	40	0	2512388096	44	6101
2026-01-22 04:56:59.91	306.56	12.98	-36.2	-37.0	24.4	0.00e+00	0	41	0	2534408192	44	6444
2026-01-22 04:57:03.95	307.29	12.82	-36.2	-36.9	24.4	0.00e+00	0	41	0	2557476864	44	6377
2026-01-22 04:57:07.99	308.02	12.66	-36.3	-37.0	24.6	0.00e+00	0	41	0	2580545536	44	6403
2026-01-22 04:57:12.02	308.73	12.50	-36.5	-37.2	24.7	0.00e+00	0	41	0	2602565632	46	5853
2026-01-22 04:57:16.06	309.44	12.33	-36.5	-37.2	24.5	0.00e+00	0	41	0	2625634304	46	5845
2026-01-22 04:57:20.10	310.14	12.17	-36.4	-37.0	24.4	0.00e+00	0	41	0	2648702976	46	5746
2026-01-22 04:57:24.14	310.84	11.99	-36.2	-36.9	24.5	0.00e+00	0	41	0	2670723072	46	5636
2026-01-22 04:57:28.19	311.52	11.82	-36.4	-37.2	24.3	0.00e+00	0	41	0	2693791744	46	5844
2026-01-22 04:57:32.23	312.20	11.64	-36.6	-37.2	24.3	0.00e+00	0	41	0	2716860416	46	5875
2026-01-22 04:57:36.27	312.87	11.47	-36.6	-37.3	24.0	0.00e+00	0	41	0	2738880512	46	5921
2026-01-22 04:57:40.31	313.53	11.29	-37.0	-37.7	23.8	0.00e+00	0	41	0	2761949184	46	6207
2026-01-22 04:57:44.35	314.19	11.10	-36.9	-37.6	24.0	0.00e+00	0	41	0	2785017856	46	6166
2026-01-22 04:57:48.39	314.83	10.92	-37.0	-37.8	23.8	0.00e+00	0	41	0	2807037952	46	6256
2026-01-22 04:57:52.43	315.47	10.73	-36.6	-37.4	24.0	0.00e+00	0	41	0	2830106624	46	5993
2026-01-22 04:57:56.47	316.10	10.55	-36.8	-37.6	23.8	0.00e+00	0	41	0	2853175296	46	6147
2026-01-22 04:58:00.51	316.72	10.36	-36.4	-37.2	24.0	0.00e+00	0	41	0	2875195392	46	5840
2026-01-22 04:58:04.54	317.34	10.17	-36.8	-37.5	23.9	0.00e+00	0	41	0	2898264064	46	6100
2026-01-22 04:58:08.58	317.94	9.98	-37.1	-37.8	23.6	0.00e+00	0	41	0	2921332736	46	6298
2026-01-22 04:58:12.62	318.54	9.78	-37.0	-37.7	23.7	0.00e+00	0	41	0	2943352832	46	6231
2026-01-22 04:58:16.66	319.13	9.59	-37.7	-38.4	23.3	0.00e+00	0	41	0	2966421504	48	6007
2026-01-22 04:58:20.70	319.72	9.39	-37.4	-38.1	23.3	0.00e+00	0	41	0	2989490176	48	5816
2026-01-22 04:58:24.74	320.29	9.20	-37.3	-38.0	23.2	0.00e+00	0	41	0	3011510272	48	5761
2026-01-22 04:58:28.77	320.86	9.00	-37.2	-37.8	23.2	0.00e+00	0	41	0	3034578944	48	5628
2026-01-22 04:58:32.81	321.42	8.80	-37.4	-38.1	23.2	0.00e+00	0	41	0	3057647616	48	5798
2026-01-22 04:58:36.85	321.98	8.61	-37.3	-38.1	23.2	0.00e+00	0	41	0	3079667712	48	5793
2026-01-22 04:58:40.90	322.53	8.41	-37.9	-38.6	22.6	0.00e+00	0	41	0	3102736384	48	6115
2026-01-22 04:58:44.94	323.07	8.21	-37.5	-38.2	22.9	0.00e+00	0	41	0	3125805056	48	5845
2026-01-22 04:58:48.98	323.60	8.01	-38.2	-39.0	22.2	0.00e+00	0	41	0	3147825152	48	6397
2026-01-22 04:58:53.02	324.13	7.81	-37.8	-38.5	22.7	0.00e+00	0	41	0	3170893824	48	6083
2026-01-22 04:58:57.06	324.64	7.60	-37.7	-38.5	22.7	0.00e+00	0	41	0	3193962496	48	6053
2026-01-22 04:59:01.09	325.16	7.40	-37.9	-38.8	22.4	0.00e+00	0	41	0	3217031168	48	6265
2026-01-22 04:59:05.13	325.66	7.20	-38.4	-39.3	22.1	0.00e+00	0	41	0	3239051264	48	6627
2026-01-22 04:59:09.17	326.16	7.00	-39.0	-39.8	22.1	0.00e+00	0	41	0	3262119936	50	6246
2026-01-22 04:59:13.21	326.65	6.80	-38.4	-39.2	22.4	0.00e+00	0	41	0	3284140032	50	5876
2026-01-22 04:59:17.26	327.14	6.59	-38.9	-39.6	21.6	0.00e+00	0	41	0	3307208704	50	6170
2026-01-22 04:59:21.30	327.62	6.39	-38.9	-39.7	21.9	0.00e+00	0	41	0	3330277376	50	6242
2026-01-22 04:59:25.34	328.09	6.19	-39.1	-40.0	21.6	0.00e+00	0	41	0	3352297472	50	6431
2026-01-22 04:59:29.38	328.56	5.99	-39.4	-40.3	21.4	0.00e+00	0	41	0	3375366144	50	6652
2026-01-22 04:59:33.42	329.02	5.79	-39.4	-40.2	21.6	0.00e+00	0	41	0	3398434816	50	6591
2026-01-22 04:59:37.46	329.47	5.58	-38.8	-39.5	21.8	0.00e+00	0	41	0	3421503488	50	6069
2026-01-22 04:59:41.50	329.92	5.38	-38.9	-39.8	21.9	0.00e+00	0	41	0	3443523584	50	6299
2026-01-22 04:59:45.54	330.36	5.18	-39.1	-39.9	21.3	0.00e+00	0	41	0	3466592256	50	6329
2026-01-22 04:59:49.58	330.80	4.98	-39.1	-40.0	20.9	0.00e+00	0	41	0	3488612352	50	6457
2026-01-22 04:59:53.62	331.23	4.78	-38.8	-39.6	21.2	0.00e+00	0	41	0	3511681024	50	6164
2026-01-22 04:59:57.66	331.66	4.58	-39.5	-40.5	20.3	0.00e+00	0	41	0	3534749696	50	6837
2026-01-22 05:00:01.69	332.07	4.37	-41.7	-43.0	17.1	0.00e+00	0	41	0	3557818368	56	6402
2026-01-22 05:00:05.73	332.49	4.17	-44.3	-47.0	11.4	3.41e-04	0	41	0	3579838464	60	8054
2026-01-22 05:00:09.77	332.90	3.97	-45.8	-51.4	5.3	3.73e-01	0	41	0	3601858560	60	13363
2026-01-22 05:00:13.81	333.30	3.77	-46.6	-57.7	3.6	8.44e-01	0	41	104	3602907136	60	27746
2026-01-22 05:00:17.85	333.70	3.57	-46.5	-58.4	3.6	8.47e-01	0	41	104	3602907136	60	30044
2026-01-22 05:00:21.88	334.09	3.38	-46.5	-58.6	3.6	8.46e-01	0	41	104	3602907136	60	30631
2026-01-22 05:00:25.92	334.48	3.18	-46.6	-58.7	3.6	8.44e-01	0	41	104	3602907136	60	31065
2026-01-22 05:00:29.96	334.86	2.98	-47.1	-59.1	3.6	8.46e-01	0	41	104	3602907136	60	32666
2026-01-22 05:00:34.00	335.24	2.78	-51.3	-63.4	3.6	8.44e-01	0	41	104	3602907136	60	53453
2026-01-22 05:00:38.04	335.62	2.58	-51.6	-63.8	3.6	8.45e-01	0	41	104	3602907136	60	55773
2026-01-22 05:00:42.08	335.99	2.39	-51.7	-63.8	3.6	8.45e-01	0	41	104	3602907136	60	55963
2026-01-22 05:00:46.12	336.35	2.19	-51.2	-63.4	3.6	8.45e-01	0	41	104	3602907136	60	53178
2026-01-22 05:00:50.16	336.71	1.99	-51.2	-63.4	3.6	8.46e-01	0	41	104	3602907136	60	53613
2026-01-22 05:00:54.20	337.07	1.80	-52.0	-64.2	3.6	8.45e-01	0	41	104	3602907136	60	58469
2026-01-22 05:00:58.24	337.42	1.60	-52.1	-64.3	3.6	8.45e-01	0	41	104	3602907136	60	58965
2026-01-22 05:01:02.27	337.76	1.41	-51.4	-63.6	3.6	8.45e-01	0	41	104	3602907136	60	54662
2026-01-22 05:01:06.31	338.11	1.21	-52.3	-64.4	3.6	8.45e-01	0	41	104	3602907136	60	60191
2026-01-22 05:01:10.35	338.44	1.02	-52.4	-64.5	3.6	8.45e-01	0	41	104	3602907136	60	60623
2026-01-22 05:01:14.38	338.78	0.83	-52.7	-64.8	3.6	8.45e-01	0	41	104	3602907136	60	63068
2026-01-22 05:01:18.42	339.11	0.64	-52.2	-64.4	3.6	8.45e-01	0	41	104	3602907136	60	59861
2026-01-22 05:01:22.46	339.43	0.44	-52.5	-64.5	3.6	8.44e-01	0	41	104	3602907136	60	61019
2026-01-22 05:01:26.50	339.76	0.25	-52.6	-64.7	3.6	8.46e-01	0	41	104	3602907136	60	62194
2026-01-22 05:01:30.54	340.08	0.06	-52.6	-64.7	3.6	8.46e-01	0	41	104	3602907136	60	62397

#Closed at: 2026-01-22 05:01:34
#Recorded file [3602 MB]: D:/lorett/data/35029_260122_164826.dat