passes_logs/2026/01/22/R4.6S_Anadyr/R4.6S_Anadyr__20260122_014138_AQUA_rec.log

#Pass ID: 20260122_014138_AQUA
#Satellite: AQUA
#Configuration: AQUA
#almurnet v.1.7.20251203
#Start time: 2026-01-22 01:41:40

#Version: 2.2.20231116
#Station: R4.6S_Anadyr
#Location: 177.4865 lon 64.73178 lat
#TLE: 1 27424U 02022A   26020.90316333  .00002787  00000+0  56766-3 0  9999
#TLE: 2 27424  98.4095 347.4297 0002000  71.6339 309.8236 14.61840001261750

#Time	Az	El	Level	Level2	SNR	BER	BlckErr	Temp	State	Recorded	gain1	gain2
2026-01-22 01:41:40.62	149.38	0.12	-51.2	-62.9	3.5	8.45e-01	0	40	0	0	60	50528
2026-01-22 01:41:44.64	149.35	0.37	-51.9	-69.8	3.5	3.02e+01	0	41	104	0	60	119145
2026-01-22 01:41:48.68	149.32	0.63	-51.8	-69.6	3.5	3.02e+01	0	41	104	0	60	116855
2026-01-22 01:41:52.72	149.29	0.89	-51.7	-69.6	3.5	3.02e+01	0	41	104	0	60	115641
2026-01-22 01:41:56.76	149.26	1.14	-51.3	-69.3	3.5	3.02e+01	0	41	104	0	60	111831
2026-01-22 01:42:00.80	149.23	1.41	-51.0	-68.8	3.5	3.02e+01	0	41	104	0	60	106471
2026-01-22 01:42:04.84	149.20	1.67	-50.0	-67.8	3.5	3.02e+01	0	41	104	0	60	94618
2026-01-22 01:42:08.88	149.17	1.94	-50.0	-66.9	3.5	3.02e+01	0	42	104	0	60	85486
2026-01-22 01:42:12.92	149.13	2.21	-50.0	-66.9	3.5	3.02e+01	0	41	104	0	60	85465
2026-01-22 01:42:16.96	149.10	2.48	-50.0	-67.7	3.5	3.02e+01	0	42	104	0	60	93894
2026-01-22 01:42:20.99	149.06	2.75	-50.0	-67.4	3.5	3.02e+01	0	42	104	0	60	90733
2026-01-22 01:42:25.03	149.02	3.03	-49.9	-65.7	3.6	3.02e+01	0	42	104	0	60	73925
2026-01-22 01:42:29.08	148.99	3.31	-49.8	-63.3	4.7	3.02e+01	0	42	104	0	60	56447
2026-01-22 01:42:33.11	148.95	3.60	-49.7	-62.1	5.1	3.02e+01	0	42	0	0	60	48817
2026-01-22 01:42:37.15	148.91	3.89	-48.1	-53.3	13.9	3.02e+01	92	42	0	5242880	60	17863
2026-01-22 01:42:41.19	148.87	4.18	-49.8	-62.9	4.8	3.02e+01	0	42	104	9437184	60	53972
2026-01-22 01:42:45.23	148.82	4.47	-40.9	-42.5	24.9	3.02e+01	92	41	0	13631488	56	6447
2026-01-22 01:42:49.27	148.78	4.77	-40.7	-42.2	25.3	3.02e+01	92	42	0	20971520	56	6209
2026-01-22 01:42:53.31	148.73	5.07	-40.3	-41.8	24.2	3.02e+01	91	42	0	28311552	54	6706
2026-01-22 01:42:57.35	148.69	5.38	-40.4	-41.8	25.8	3.02e+01	91	42	0	36175872	56	5972
2026-01-22 01:43:01.39	148.64	5.69	-39.9	-41.3	26.3	3.02e+01	91	42	0	43515904	54	6280
2026-01-22 01:43:05.43	148.59	6.00	-40.0	-41.4	26.3	3.02e+01	92	42	0	51380224	54	6378
2026-01-22 01:43:09.47	148.54	6.32	-39.6	-41.0	26.7	3.02e+01	90	42	0	58720256	52	6827
2026-01-22 01:43:13.51	148.49	6.65	-39.2	-40.5	27.3	3.02e+01	86	42	0	66584576	52	6471
2026-01-22 01:43:17.54	148.43	6.97	-39.2	-40.6	27.3	3.02e+01	92	42	0	73924608	52	6503
2026-01-22 01:43:21.59	148.38	7.31	-38.8	-40.1	27.7	3.02e+01	90	42	0	81788928	52	6165
2026-01-22 01:43:25.63	148.32	7.64	-39.4	-40.8	27.1	3.02e+01	88	42	0	89128960	52	6660
2026-01-22 01:43:29.67	148.26	7.98	-39.3	-40.7	27.2	3.02e+01	92	42	0	96468992	52	6577
2026-01-22 01:43:33.71	148.20	8.33	-38.8	-40.1	27.8	3.02e+01	92	42	0	104333312	52	6143
2026-01-22 01:43:37.74	148.14	8.68	-38.4	-39.7	28.1	3.02e+01	92	42	0	111673344	52	5898
2026-01-22 01:43:41.79	148.07	9.04	-38.3	-39.6	28.2	3.02e+01	92	42	0	119537664	50	6514
2026-01-22 01:43:45.83	148.01	9.41	-38.1	-39.3	28.4	3.02e+01	92	42	0	126877696	50	6331
2026-01-22 01:43:49.87	147.94	9.78	-38.0	-39.2	28.5	3.02e+01	92	42	0	134742016	50	6268
2026-01-22 01:43:53.91	147.87	10.15	-38.2	-39.4	28.4	3.02e+01	92	42	0	142082048	50	6407
2026-01-22 01:43:57.94	147.79	10.54	-38.0	-39.3	28.5	3.02e+01	92	42	0	149946368	50	6321
2026-01-22 01:44:01.98	147.72	10.93	-37.6	-38.9	29.0	3.02e+01	92	42	0	157286400	50	6001
2026-01-22 01:44:06.02	147.64	11.32	-38.1	-39.3	28.6	3.02e+01	92	42	0	164626432	50	6327
2026-01-22 01:44:10.05	147.56	11.72	-37.7	-38.9	28.9	3.02e+01	88	42	0	172490752	50	6042
2026-01-22 01:44:14.09	147.47	12.14	-37.8	-39.0	28.8	3.02e+01	90	42	0	179830784	50	6078
2026-01-22 01:44:18.14	147.38	12.56	-37.5	-38.7	29.1	3.02e+01	90	42	0	187695104	50	5889
2026-01-22 01:44:22.18	147.29	12.98	-37.4	-38.6	29.3	3.02e+01	90	42	0	195035136	50	5813
2026-01-22 01:44:26.22	147.20	13.42	-37.3	-38.4	29.4	3.02e+01	92	42	0	202899456	50	5724
2026-01-22 01:44:30.26	147.10	13.86	-37.4	-38.6	29.3	3.02e+01	90	42	0	210239488	50	5805
2026-01-22 01:44:34.30	147.00	14.32	-37.4	-38.6	29.3	3.02e+01	90	42	0	218103808	50	5818
2026-01-22 01:44:38.34	146.90	14.78	-37.5	-38.7	29.2	3.02e+01	92	42	0	225443840	50	5880
2026-01-22 01:44:42.38	146.79	15.25	-37.6	-38.8	29.2	3.02e+01	91	42	0	233308160	50	5956
2026-01-22 01:44:46.42	146.68	15.73	-37.7	-38.9	29.3	3.02e+01	92	42	0	240648192	50	6003
2026-01-22 01:44:50.46	146.56	16.23	-37.5	-38.7	29.3	3.02e+01	91	42	0	247988224	50	5881
2026-01-22 01:44:54.50	146.44	16.73	-37.3	-38.5	29.5	3.02e+01	92	42	0	255852544	50	5752
2026-01-22 01:44:58.53	146.31	17.25	-37.4	-38.7	29.3	3.02e+01	92	42	0	263192576	50	5863
2026-01-22 01:45:02.57	146.18	17.78	-37.3	-38.5	29.5	3.02e+01	91	42	0	271056896	50	5782
2026-01-22 01:45:06.61	146.04	18.32	-37.2	-38.4	29.6	3.02e+01	92	42	0	278396928	50	5711
2026-01-22 01:45:10.64	145.90	18.87	-37.2	-38.4	29.6	3.02e+01	92	42	0	286261248	50	5719
2026-01-22 01:45:14.68	145.75	19.44	-37.3	-38.5	29.6	3.02e+01	87	41	0	293601280	50	5739
2026-01-22 01:45:18.72	145.59	20.02	-37.4	-38.6	29.4	3.02e+01	92	41	0	300941312	50	5834
2026-01-22 01:45:22.76	145.43	20.62	-37.3	-38.5	29.6	3.02e+01	92	41	0	308805632	50	5730
2026-01-22 01:45:26.80	145.25	21.23	-37.4	-38.6	29.5	3.02e+01	92	41	0	316145664	50	5793
2026-01-22 01:45:30.84	145.08	21.86	-37.6	-38.8	29.3	3.02e+01	92	41	0	324009984	50	5993
2026-01-22 01:45:34.88	144.89	22.50	-37.5	-38.7	29.3	3.02e+01	92	41	0	331350016	50	5914
2026-01-22 01:45:38.91	144.69	23.17	-37.7	-38.9	29.2	3.02e+01	92	41	0	339214336	50	6023
2026-01-22 01:45:42.95	144.49	23.85	-37.7	-38.9	29.3	3.02e+01	92	41	0	346554368	50	6019
2026-01-22 01:45:46.98	144.27	24.55	-37.3	-38.6	29.5	3.02e+01	92	41	0	354418688	50	5794
2026-01-22 01:45:51.02	144.04	25.27	-37.5	-38.7	29.5	3.02e+01	92	41	0	361758720	50	5880
2026-01-22 01:45:55.05	143.81	26.02	-37.5	-38.7	29.4	3.02e+01	92	41	0	369098752	50	5920
2026-01-22 01:45:59.10	143.55	26.78	-37.8	-39.0	29.2	3.02e+01	92	41	0	376963072	50	6091
2026-01-22 01:46:03.14	143.29	27.57	-37.1	-38.3	29.8	3.02e+01	92	41	0	384303104	50	5650
2026-01-22 01:46:07.18	143.01	28.39	-36.9	-38.1	29.9	3.02e+01	92	41	0	392167424	48	6175
2026-01-22 01:46:11.22	142.71	29.23	-36.9	-38.0	30.0	3.02e+01	90	41	0	399507456	48	6128
2026-01-22 01:46:15.26	142.40	30.10	-36.8	-38.0	30.1	3.02e+01	92	41	0	407371776	48	6090
2026-01-22 01:46:19.30	142.06	30.99	-37.0	-38.2	29.8	3.02e+01	92	41	0	414711808	48	6241
2026-01-22 01:46:23.34	141.71	31.91	-36.9	-38.1	30.0	3.02e+01	92	41	0	422576128	48	6166
2026-01-22 01:46:27.38	141.33	32.87	-37.2	-38.4	29.7	3.02e+01	92	41	0	429916160	48	6392
2026-01-22 01:46:31.43	140.93	33.86	-37.6	-38.8	29.6	3.02e+01	91	41	0	437256192	48	6686
2026-01-22 01:46:35.47	140.50	34.88	-37.6	-38.8	29.5	3.02e+01	92	41	0	445120512	48	6687
2026-01-22 01:46:39.51	140.05	35.93	-38.7	-40.0	28.5	3.02e+01	93	41	0	452460544	50	6821
2026-01-22 01:46:43.55	139.56	37.02	-38.7	-39.9	28.5	3.02e+01	92	41	0	460324864	52	6047
2026-01-22 01:46:47.59	139.03	38.14	-39.8	-41.1	27.6	3.02e+01	91	41	0	467664896	52	6903
2026-01-22 01:46:51.63	138.47	39.31	-39.3	-40.6	27.8	3.02e+01	90	41	0	475529216	52	6536
2026-01-22 01:46:55.67	137.86	40.51	-38.9	-40.2	28.3	3.02e+01	92	41	0	482869248	54	5558
2026-01-22 01:46:59.71	137.20	41.75	-38.8	-40.0	28.6	3.02e+01	92	42	0	490733568	52	6098
2026-01-22 01:47:03.75	136.48	43.03	-38.1	-39.3	29.1	3.02e+01	92	41	0	498073600	52	5605
2026-01-22 01:47:07.79	135.70	44.36	-38.4	-39.6	28.9	3.02e+01	90	41	0	505937920	50	6556
2026-01-22 01:47:11.82	134.85	45.72	-38.5	-39.7	28.8	3.02e+01	92	41	0	513277952	50	6593
2026-01-22 01:47:15.87	133.92	47.14	-37.8	-39.0	29.4	3.02e+01	92	41	0	520617984	50	6084
2026-01-22 01:47:19.91	132.90	48.59	-38.0	-39.2	29.3	3.02e+01	89	41	0	528482304	50	6234
2026-01-22 01:47:23.95	131.77	50.08	-38.2	-39.5	28.9	3.02e+01	90	41	0	535822336	50	6431
2026-01-22 01:47:27.99	130.53	51.61	-38.8	-40.1	29.0	3.02e+01	90	41	0	543686656	50	6892
2026-01-22 01:47:32.02	129.14	53.17	-37.6	-38.8	29.7	3.02e+01	92	41	0	551026688	50	5972
2026-01-22 01:47:36.06	127.60	54.77	-37.3	-38.4	29.9	3.02e+01	92	41	0	558891008	50	5704
2026-01-22 01:47:40.11	125.86	56.40	-37.8	-39.0	29.5	3.02e+01	89	41	0	566231040	50	6119
2026-01-22 01:47:44.14	123.90	58.05	-38.6	-39.8	28.8	3.02e+01	92	41	0	574095360	50	6724
2026-01-22 01:47:48.18	121.69	59.71	-38.4	-39.6	28.9	3.02e+01	91	41	0	581435392	50	6518
2026-01-22 01:47:52.22	119.16	61.37	-39.0	-40.2	28.5	3.02e+01	92	41	0	588775424	52	6252
2026-01-22 01:47:56.26	116.27	63.02	-39.6	-40.8	27.8	3.02e+01	92	41	0	596639744	52	6717
2026-01-22 01:48:00.30	112.96	64.64	-40.7	-42.1	26.6	3.02e+01	90	41	0	603979776	54	6903
2026-01-22 01:48:04.34	109.14	66.20	-41.2	-42.6	26.3	3.02e+01	92	41	0	611844096	56	6505
2026-01-22 01:48:08.38	104.73	67.69	-42.1	-43.6	25.3	3.02e+01	92	41	0	619184128	58	6555
2026-01-22 01:48:12.42	99.67	69.06	-41.8	-43.2	25.8	3.02e+01	92	42	0	627048448	58	6254
2026-01-22 01:48:16.46	93.88	70.27	-42.5	-44.0	24.9	3.02e+01	92	42	0	634388480	58	6882
2026-01-22 01:48:20.50	87.35	71.28	-42.8	-44.4	24.7	3.02e+01	91	41	0	642252800	60	6365
2026-01-22 01:48:24.54	80.12	72.05	-42.7	-44.3	24.8	3.02e+01	91	41	0	649592832	58	7093
2026-01-22 01:48:28.58	72.35	72.52	-41.8	-43.3	25.6	3.02e+01	90	42	0	657457152	58	6285
2026-01-22 01:48:32.62	64.28	72.68	-41.9	-43.4	25.6	3.02e+01	90	41	0	664797184	58	6353
2026-01-22 01:48:36.67	56.20	72.50	-41.8	-43.3	25.7	3.02e+01	90	42	0	672137216	58	6281
2026-01-22 01:48:40.71	48.46	72.01	-41.7	-43.1	25.8	3.02e+01	92	41	0	680001536	58	6195
2026-01-22 01:48:44.75	41.27	71.23	-42.3	-43.9	24.8	3.02e+01	92	41	0	687341568	58	6750
2026-01-22 01:48:48.78	34.80	70.21	-43.5	-45.2	23.7	3.02e+01	91	42	0	695205888	60	6973
2026-01-22 01:48:52.82	29.06	68.99	-43.5	-45.2	23.8	3.02e+01	90	41	0	702545920	60	7025
2026-01-22 01:48:56.86	24.04	67.61	-43.9	-45.7	23.3	3.02e+01	92	42	0	710410240	60	7421
2026-01-22 01:49:00.90	19.68	66.13	-43.3	-45.0	24.1	3.02e+01	91	41	0	717750272	60	6807
2026-01-22 01:49:04.94	15.89	64.56	-42.2	-43.6	25.3	3.02e+01	92	41	0	725614592	60	5853
2026-01-22 01:49:08.98	12.60	62.94	-41.2	-42.6	26.4	3.02e+01	92	41	0	732954624	56	6518
2026-01-22 01:49:13.03	9.74	61.29	-40.1	-41.4	27.3	3.02e+01	92	41	0	740294656	54	6402
2026-01-22 01:49:17.06	7.24	59.64	-39.5	-40.8	27.9	3.02e+01	92	41	0	748158976	54	5994
2026-01-22 01:49:21.11	5.03	57.98	-39.2	-40.5	28.4	3.02e+01	92	41	0	755499008	52	6458
2026-01-22 01:49:25.14	3.10	56.34	-37.5	-38.6	29.8	3.02e+01	92	41	0	763363328	50	5853
2026-01-22 01:49:29.18	1.38	54.72	-36.7	-37.8	30.3	3.02e+01	92	42	0	770703360	48	5977
2026-01-22 01:49:33.22	359.84	53.12	-37.0	-38.2	30.1	3.02e+01	92	42	0	778567680	48	6212
2026-01-22 01:49:37.26	358.46	51.56	-37.1	-38.3	29.9	3.02e+01	92	41	0	785907712	48	6287
2026-01-22 01:49:41.30	357.23	50.04	-37.4	-38.6	29.7	3.02e+01	62	41	0	793772032	48	6559
2026-01-22 01:49:45.33	356.11	48.56	-38.0	-39.2	29.2	3.02e+01	47	42	0	801112064	50	6257
2026-01-22 01:49:49.38	355.09	47.11	-37.6	-38.9	29.5	3.02e+01	61	41	0	808452096	50	6001
2026-01-22 01:49:53.42	354.17	45.71	-38.0	-39.3	29.2	3.02e+01	43	42	0	816316416	50	6285
2026-01-22 01:49:57.46	353.33	44.35	-37.7	-39.0	29.4	3.02e+01	58	42	0	823656448	50	6065
2026-01-22 01:50:01.49	352.55	43.03	-38.3	-39.5	28.9	3.02e+01	58	42	0	831520768	50	6482
2026-01-22 01:50:05.53	351.84	41.76	-38.9	-40.2	28.2	3.02e+01	60	42	0	838860800	52	6227
2026-01-22 01:50:09.57	351.19	40.52	-39.0	-40.3	28.3	3.02e+01	59	42	0	846725120	52	6305
2026-01-22 01:50:13.61	350.58	39.32	-39.5	-40.8	27.8	3.02e+01	58	42	0	854065152	52	6711
2026-01-22 01:50:17.65	350.02	38.17	-40.0	-41.3	27.5	3.02e+01	59	42	0	861929472	52	7076
2026-01-22 01:50:21.68	349.50	37.05	-39.0	-40.2	28.4	3.02e+01	58	42	0	869269504	52	6251
2026-01-22 01:50:25.72	349.01	35.97	-38.6	-39.8	28.6	3.02e+01	56	42	0	876609536	52	5993
2026-01-22 01:50:29.76	348.56	34.92	-38.2	-39.4	29.0	3.02e+01	57	42	0	884473856	52	5693
2026-01-22 01:50:33.80	348.13	33.90	-37.3	-38.5	29.8	3.02e+01	62	42	0	891813888	50	5768
2026-01-22 01:50:37.83	347.73	32.92	-37.6	-38.8	29.5	3.02e+01	61	42	0	899678208	50	5960
2026-01-22 01:50:41.88	347.36	31.97	-37.0	-38.2	30.1	3.02e+01	60	42	0	907018240	50	5575
2026-01-22 01:50:45.91	347.01	31.05	-37.2	-38.4	29.8	3.02e+01	59	42	0	914882560	48	6355
2026-01-22 01:50:49.96	346.68	30.16	-37.1	-38.3	29.9	3.02e+01	59	42	0	922222592	48	6317
2026-01-22 01:50:54.00	346.37	29.30	-36.7	-37.9	30.2	3.02e+01	58	42	0	930086912	48	6022
2026-01-22 01:50:58.03	346.07	28.46	-37.2	-38.3	29.7	3.02e+01	60	42	0	937426944	48	6344
2026-01-22 01:51:02.07	345.79	27.65	-37.1	-38.3	30.0	3.02e+01	59	42	0	944766976	48	6287
2026-01-22 01:51:06.11	345.53	26.87	-37.8	-39.0	29.4	3.02e+01	59	42	0	952631296	48	6847
2026-01-22 01:51:10.15	345.28	26.10	-37.7	-38.9	29.3	3.02e+01	54	42	0	959971328	48	6796
2026-01-22 01:51:14.19	345.04	25.36	-37.8	-39.0	29.3	3.02e+01	58	42	0	967835648	50	6088
2026-01-22 01:51:18.23	344.82	24.64	-38.2	-39.4	29.0	3.02e+01	44	42	0	975175680	50	6388
2026-01-22 01:51:22.27	344.61	23.94	-37.9	-39.1	29.2	3.02e+01	60	42	0	983040000	50	6152
2026-01-22 01:51:26.31	344.40	23.26	-37.8	-39.0	29.2	3.02e+01	61	42	0	990380032	50	6126
2026-01-22 01:51:30.35	344.21	22.60	-37.9	-39.1	29.1	3.02e+01	61	42	0	998244352	50	6171
2026-01-22 01:51:34.39	344.02	21.96	-38.4	-39.7	28.6	3.02e+01	48	42	0	1005584384	50	6607
2026-01-22 01:51:38.43	343.85	21.33	-38.2	-39.5	28.8	3.02e+01	59	42	0	1013448704	50	6428
2026-01-22 01:51:42.47	343.68	20.72	-38.2	-39.5	28.7	3.02e+01	47	42	0	1020788736	50	6427
2026-01-22 01:51:46.51	343.52	20.12	-38.0	-39.2	28.9	3.02e+01	60	42	0	1028128768	50	6237
2026-01-22 01:51:50.55	343.36	19.54	-37.7	-38.9	29.2	3.02e+01	46	42	0	1035993088	50	5999
2026-01-22 01:51:54.59	343.21	18.98	-37.6	-38.8	29.3	3.02e+01	59	42	0	1043333120	50	5964
2026-01-22 01:51:58.63	343.07	18.43	-37.7	-38.9	29.2	3.02e+01	45	42	0	1051197440	50	6018
2026-01-22 01:52:02.67	342.94	17.89	-37.7	-38.9	29.1	3.02e+01	57	42	0	1058537472	50	6031
2026-01-22 01:52:06.71	342.81	17.36	-37.9	-39.1	29.0	3.02e+01	50	42	0	1066401792	50	6191
2026-01-22 01:52:10.74	342.68	16.85	-37.9	-39.1	29.0	3.02e+01	59	42	0	1073741824	50	6170
2026-01-22 01:52:14.79	342.56	16.34	-37.9	-39.1	29.0	3.02e+01	45	42	0	1081606144	50	6166
2026-01-22 01:52:18.83	342.45	15.85	-37.8	-39.1	29.0	3.02e+01	59	42	0	1088946176	50	6144
2026-01-22 01:52:22.86	342.34	15.37	-37.9	-39.1	29.1	3.02e+01	48	42	0	1096286208	50	6164
2026-01-22 01:52:26.90	342.23	14.90	-37.6	-38.8	29.1	3.02e+01	61	42	0	1104150528	50	5982
2026-01-22 01:52:30.94	342.13	14.44	-38.1	-39.3	28.8	3.02e+01	56	42	0	1111490560	50	6318
2026-01-22 01:52:34.98	342.03	13.99	-37.7	-38.9	29.1	3.02e+01	59	42	0	1119354880	50	6026
2026-01-22 01:52:39.02	341.94	13.55	-37.9	-39.1	29.0	3.02e+01	59	42	0	1126694912	50	6183
2026-01-22 01:52:43.06	341.84	13.11	-38.4	-48.7	3.4	3.02e+01	0	42	104	1128792064	50	18719
2026-01-22 01:52:47.10	341.76	12.69	-42.5	-53.1	3.4	3.02e+01	0	42	104	1128792064	60	17363
2026-01-22 01:52:51.14	341.67	12.27	-41.4	-51.8	3.6	3.02e+01	0	42	104	1128792064	58	16891
2026-01-22 01:52:55.17	341.59	11.86	-51.0	-68.2	3.5	3.02e+01	0	42	104	1128792064	60	98976
2026-01-22 01:52:59.21	341.51	11.46	-41.0	-51.2	3.3	3.02e+01	0	42	104	1128792064	56	17542
2026-01-22 01:53:03.25	341.43	11.06	-40.6	-50.8	3.5	3.02e+01	0	42	104	1128792064	58	14983
2026-01-22 01:53:07.29	341.36	10.67	-39.3	-49.4	3.5	3.02e+01	0	42	104	1128792064	54	16058
2026-01-22 01:53:11.32	341.29	10.29	-45.0	-55.9	3.5	3.02e+01	0	42	104	1128792064	60	23899
2026-01-22 01:53:15.36	341.22	9.92	-50.8	-68.3	3.5	3.02e+01	0	42	104	1128792064	60	99726
2026-01-22 01:53:19.40	341.15	9.55	-42.0	-52.5	3.5	3.02e+01	0	42	104	1128792064	60	16192
2026-01-22 01:53:23.44	341.09	9.18	-48.2	-61.5	3.6	3.02e+01	0	42	104	1128792064	60	45842
2026-01-22 01:53:27.47	341.03	8.83	-39.4	-49.7	3.6	3.02e+01	0	42	104	1128792064	54	16517
2026-01-22 01:53:31.51	340.97	8.48	-50.2	-65.9	3.6	3.02e+01	0	42	104	1128792064	60	75541
2026-01-22 01:53:35.55	340.91	8.13	-39.7	-50.0	3.5	3.02e+01	0	42	104	1128792064	54	17125
2026-01-22 01:53:39.58	340.86	7.79	-45.4	-56.5	3.4	3.02e+01	0	42	104	1128792064	58	28779
2026-01-22 01:53:43.62	340.80	7.45	-43.4	-54.0	3.6	3.02e+01	0	42	104	1128792064	60	19259
2026-01-22 01:53:47.66	340.75	7.12	-41.0	-51.3	3.5	3.02e+01	0	42	104	1128792064	54	20022
2026-01-22 01:53:51.70	340.70	6.79	-45.9	-57.2	3.5	3.02e+01	0	42	104	1128792064	60	28000
2026-01-22 01:53:55.73	340.65	6.47	-45.4	-56.4	3.5	3.02e+01	0	42	104	1128792064	60	25449
2026-01-22 01:53:59.76	340.60	6.15	-40.0	-50.1	3.5	3.02e+01	0	42	104	1128792064	54	17393
2026-01-22 01:54:03.80	340.56	5.84	-40.4	-50.5	3.5	3.02e+01	0	42	104	1128792064	56	16281
2026-01-22 01:54:07.84	340.51	5.53	-46.7	-59.6	3.5	3.02e+01	0	42	104	1128792064	60	36914
2026-01-22 01:54:11.88	340.47	5.23	-45.4	-57.8	3.5	3.02e+01	0	42	104	1128792064	60	29890
2026-01-22 01:54:15.91	340.43	4.93	-46.3	-58.8	3.5	3.02e+01	0	42	104	1128792064	60	33486
2026-01-22 01:54:19.95	340.39	4.63	-46.1	-59.1	3.5	3.02e+01	0	42	104	1128792064	60	34783
2026-01-22 01:54:23.99	340.35	4.33	-47.4	-63.6	3.5	3.02e+01	0	42	104	1128792064	60	57928
2026-01-22 01:54:28.03	340.31	4.04	-47.1	-63.8	3.5	3.02e+01	0	42	104	1128792064	60	59855
2026-01-22 01:54:32.07	340.27	3.75	-47.3	-65.0	3.5	3.02e+01	0	42	104	1128792064	60	68535
2026-01-22 01:54:36.10	340.24	3.47	-47.2	-65.1	3.5	3.02e+01	0	42	104	1128792064	60	69420
2026-01-22 01:54:40.14	340.20	3.19	-47.2	-65.1	3.5	3.02e+01	0	42	104	1128792064	60	68994
2026-01-22 01:54:44.18	340.17	2.91	-50.7	-68.7	3.5	3.02e+01	0	42	104	1128792064	60	104527
2026-01-22 01:54:48.22	340.14	2.64	-51.5	-69.4	3.5	3.02e+01	0	42	104	1128792064	60	113025
2026-01-22 01:54:52.25	340.10	2.37	-51.7	-69.6	3.5	3.02e+01	0	42	104	1128792064	60	115646
2026-01-22 01:54:56.29	340.07	2.10	-51.5	-69.6	3.5	3.02e+01	0	42	104	1128792064	60	115671
2026-01-22 01:55:00.33	340.04	1.83	-51.8	-69.6	3.5	3.02e+01	0	42	104	1128792064	60	116213
2026-01-22 01:55:04.37	340.02	1.57	-51.7	-69.6	3.5	3.02e+01	0	42	104	1128792064	60	115764
2026-01-22 01:55:08.42	339.99	1.31	-51.8	-69.7	3.5	3.02e+01	0	42	104	1128792064	60	116994
2026-01-22 01:55:12.46	339.96	1.05	-51.8	-69.6	3.5	3.02e+01	0	42	104	1128792064	60	115678
2026-01-22 01:55:16.50	339.94	0.79	-51.9	-69.7	3.5	3.02e+01	0	42	104	1128792064	60	117044
2026-01-22 01:55:20.54	339.91	0.54	-51.9	-69.8	3.5	3.02e+01	0	42	104	1128792064	60	118932
2026-01-22 01:55:24.58	339.89	0.29	-52.0	-69.8	3.5	3.02e+01	0	42	104	1128792064	60	118812
2026-01-22 01:55:28.62	339.86	0.04	-52.0	-69.8	3.5	3.02e+01	0	42	104	1128792064	60	118898

#Closed at: 2026-01-22 01:55:31
#Recorded file [1128 MB]: D:/lorett/data/35029_260122_134140.dat