passes_logs/2026/01/22/R4.6S_Anadyr/R4.6S_Anadyr__20260122_125329_NOAA_20_JPSS-1_rec.log

#Pass ID: 20260122_125329_NOAA 20 (JPSS-1)
#Satellite: NOAA 20 (JPSS-1)
#Configuration: NOAA 20
#almurnet v.1.7.20251203
#Start time: 2026-01-22 12:53:32

#Version: 2.2.20231116
#Station: R4.6S_Anadyr
#Location: 177.4865 lon 64.73178 lat
#TLE: 1 43013U 17073A   26021.46221703  .00000173  00000+0  10299-3 0  9999
#TLE: 2 43013  98.7644 322.3335 0001238  29.7597 330.3649 14.19538314423652

#Time	Az	El	Level	Level2	SNR	BER	BlckErr	Temp	State	Recorded	gain1	gain2
2026-01-22 12:53:32.53	18.91	0.18	-52.0	-65.8	3.3	1.54e+00	0	40	0	0	60	70609
2026-01-22 12:53:36.57	19.15	0.40	-51.4	-66.6	3.6	1.51e+00	0	40	104	0	60	77548
2026-01-22 12:53:40.61	19.39	0.61	-51.3	-66.5	3.6	1.51e+00	0	40	104	0	60	76329
2026-01-22 12:53:44.64	19.64	0.83	-51.1	-66.2	3.6	1.51e+00	0	41	104	0	60	74171
2026-01-22 12:53:48.68	19.89	1.05	-50.6	-65.9	3.6	1.51e+00	0	41	104	0	60	70906
2026-01-22 12:53:52.72	20.14	1.27	-50.1	-65.3	3.6	1.51e+00	0	41	104	0	60	66748
2026-01-22 12:53:56.76	20.40	1.49	-49.6	-64.8	3.6	1.51e+00	0	41	104	0	60	62580
2026-01-22 12:54:00.80	20.66	1.71	-49.7	-64.8	3.5	1.51e+00	0	41	104	0	60	62527
2026-01-22 12:54:04.83	20.92	1.94	-49.6	-64.8	3.6	1.51e+00	0	41	104	0	60	62707
2026-01-22 12:54:08.87	21.19	2.16	-49.6	-63.6	3.6	1.51e+00	0	41	104	0	60	55011
2026-01-22 12:54:12.90	21.46	2.39	-49.5	-62.2	3.7	1.51e+00	0	41	104	0	60	46663
2026-01-22 12:54:16.95	21.74	2.62	-46.2	-49.2	14.6	1.60e-05	92	41	0	5242880	60	10407
2026-01-22 12:54:20.99	22.02	2.85	-43.6	-45.2	18.5	0.00e+00	79	41	0	13631488	60	6606
2026-01-22 12:54:25.02	22.30	3.08	-47.2	-51.1	12.3	2.05e-05	0	41	0	20971520	60	12951
2026-01-22 12:54:29.06	22.59	3.31	-44.4	-46.4	17.4	0.00e+00	0	41	0	28311552	60	7535
2026-01-22 12:54:33.10	22.88	3.54	-45.7	-48.2	15.8	6.35e-04	91	41	0	32505856	60	9310
2026-01-22 12:54:37.14	23.18	3.78	-44.8	-46.8	17.3	0.00e+00	82	41	0	39845888	60	7870
2026-01-22 12:54:41.18	23.48	4.01	-44.0	-45.8	18.4	0.00e+00	0	41	0	47185920	60	7016
2026-01-22 12:54:45.21	23.79	4.25	-43.6	-45.2	19.0	0.00e+00	3	41	0	54525952	60	6557
2026-01-22 12:54:49.25	24.10	4.49	-43.5	-45.1	19.1	0.00e+00	90	41	0	61865984	60	6480
2026-01-22 12:54:53.29	24.41	4.73	-43.1	-44.6	19.6	0.00e+00	2	41	0	70254592	60	6146
2026-01-22 12:54:57.33	24.74	4.97	-43.1	-44.5	19.8	0.00e+00	0	41	0	77594624	60	6080
2026-01-22 12:55:01.37	25.06	5.22	-43.2	-44.6	19.8	0.00e+00	82	41	0	84934656	60	6133
2026-01-22 12:55:05.41	25.39	5.46	-42.8	-44.2	20.0	0.00e+00	92	41	0	92274688	58	6584
2026-01-22 12:55:09.44	25.73	5.71	-42.7	-44.0	20.2	0.00e+00	0	41	0	100663296	58	6440
2026-01-22 12:55:13.48	26.07	5.96	-42.7	-44.0	20.2	0.00e+00	6	41	0	108003328	58	6443
2026-01-22 12:55:17.52	26.41	6.21	-42.8	-44.1	20.1	0.00e+00	82	41	0	115343360	58	6516
2026-01-22 12:55:21.56	26.77	6.46	-42.9	-44.3	20.1	0.00e+00	32	41	0	122683392	58	6669
2026-01-22 12:55:25.60	27.13	6.71	-42.6	-43.9	20.5	0.00e+00	5	41	0	130023424	58	6335
2026-01-22 12:55:29.64	27.49	6.97	-42.9	-44.2	20.3	0.00e+00	0	41	0	138412032	58	6573
2026-01-22 12:55:33.67	27.86	7.22	-42.7	-44.0	20.4	0.00e+00	91	41	0	145752064	58	6418
2026-01-22 12:55:37.71	28.24	7.48	-42.6	-43.8	20.6	0.00e+00	81	41	0	153092096	58	6313
2026-01-22 12:55:41.75	28.62	7.74	-42.8	-44.1	20.4	0.00e+00	81	41	0	160432128	58	6502
2026-01-22 12:55:45.78	29.01	8.00	-42.4	-43.6	20.9	0.00e+00	0	41	0	167772160	58	6124
2026-01-22 12:55:49.83	29.40	8.26	-42.3	-43.5	21.1	0.00e+00	92	41	0	176160768	58	6078
2026-01-22 12:55:53.86	29.81	8.53	-42.2	-43.4	21.2	0.00e+00	0	41	0	183500800	58	5973
2026-01-22 12:55:57.90	30.22	8.79	-42.2	-43.4	20.9	0.00e+00	0	41	0	190840832	58	6003
2026-01-22 12:56:01.94	30.63	9.06	-42.4	-43.6	21.0	0.00e+00	0	41	0	198180864	58	6126
2026-01-22 12:56:05.98	31.06	9.33	-42.1	-43.3	21.2	0.00e+00	92	41	0	206569472	58	5945
2026-01-22 12:56:10.01	31.49	9.60	-42.4	-43.6	21.1	0.00e+00	2	41	0	213909504	58	6111
2026-01-22 12:56:14.05	31.93	9.87	-42.3	-43.5	21.2	0.00e+00	0	41	0	221249536	58	6039
2026-01-22 12:56:18.09	32.38	10.15	-42.0	-43.1	21.5	0.00e+00	0	41	0	228589568	58	5798
2026-01-22 12:56:22.13	32.83	10.42	-42.0	-43.1	21.5	0.00e+00	92	41	0	235929600	58	5802
2026-01-22 12:56:26.17	33.30	10.70	-41.8	-42.9	21.8	0.00e+00	0	41	0	244318208	58	5671
2026-01-22 12:56:30.20	33.77	10.98	-41.9	-43.0	21.7	0.00e+00	0	42	0	251658240	56	6453
2026-01-22 12:56:34.24	34.25	11.26	-41.6	-42.7	21.9	0.00e+00	0	41	0	258998272	56	6200
2026-01-22 12:56:38.28	34.74	11.54	-41.6	-42.7	22.0	0.00e+00	91	41	0	266338304	56	6206
2026-01-22 12:56:42.32	35.24	11.82	-41.6	-42.7	22.1	0.00e+00	0	41	0	274726912	56	6226
2026-01-22 12:56:46.36	35.75	12.11	-41.5	-42.6	22.2	0.00e+00	80	41	0	282066944	56	6104
2026-01-22 12:56:50.40	36.27	12.39	-41.3	-42.3	22.3	0.00e+00	2	41	0	289406976	56	5952
2026-01-22 12:56:54.44	36.80	12.68	-41.3	-42.3	22.4	0.00e+00	90	41	0	296747008	56	5929
2026-01-22 12:56:58.48	37.34	12.97	-41.3	-42.4	22.2	0.00e+00	5	42	0	304087040	56	5969
2026-01-22 12:57:02.52	37.88	13.26	-41.3	-42.3	21.5	0.00e+00	0	41	0	312475648	56	5959
2026-01-22 12:57:06.55	38.44	13.54	-41.2	-42.2	22.6	0.00e+00	89	41	0	319815680	56	5839
2026-01-22 12:57:10.59	39.01	13.84	-40.9	-41.9	22.8	0.00e+00	7	41	0	327155712	56	5672
2026-01-22 12:57:14.63	39.59	14.13	-41.2	-42.2	22.5	0.00e+00	6	42	0	334495744	56	5886
2026-01-22 12:57:18.67	40.18	14.42	-41.0	-42.0	22.8	0.00e+00	6	41	0	342884352	56	5728
2026-01-22 12:57:22.70	40.79	14.71	-40.9	-41.9	22.8	0.00e+00	92	41	0	350224384	56	5646
2026-01-22 12:57:26.74	41.40	15.01	-40.8	-41.8	22.9	0.00e+00	0	41	0	357564416	54	6272
2026-01-22 12:57:30.78	42.03	15.30	-40.9	-41.9	22.7	0.00e+00	0	41	0	364904448	54	6351
2026-01-22 12:57:34.82	42.67	15.60	-41.0	-42.0	22.7	0.00e+00	2	41	0	372244480	54	6403
2026-01-22 12:57:38.86	43.32	15.89	-41.0	-42.0	22.6	0.00e+00	92	41	0	380633088	54	6448
2026-01-22 12:57:42.89	43.98	16.19	-41.0	-42.0	22.7	0.00e+00	82	41	0	387973120	54	6392
2026-01-22 12:57:46.92	44.65	16.48	-41.1	-42.1	22.5	0.00e+00	0	41	0	395313152	54	6513
2026-01-22 12:57:50.96	45.34	16.78	-40.8	-41.8	22.8	0.00e+00	0	41	0	402653184	54	6291
2026-01-22 12:57:55.00	46.05	17.07	-40.5	-41.5	23.0	0.00e+00	92	41	0	411041792	54	6050
2026-01-22 12:57:59.04	46.76	17.37	-41.0	-42.0	22.8	0.00e+00	0	41	0	418381824	54	6393
2026-01-22 12:58:03.07	47.49	17.66	-40.7	-41.6	23.0	0.00e+00	0	41	0	425721856	54	6141
2026-01-22 12:58:07.11	48.23	17.95	-40.2	-41.1	23.5	0.00e+00	0	41	0	433061888	54	5804
2026-01-22 12:58:11.15	48.99	18.25	-40.3	-41.3	23.5	0.00e+00	0	41	0	440401920	54	5912
2026-01-22 12:58:15.19	49.76	18.54	-40.1	-41.0	23.7	0.00e+00	82	41	0	448790528	54	5706
2026-01-22 12:58:19.23	50.55	18.82	-40.1	-41.0	23.6	0.00e+00	0	41	0	456130560	54	5758
2026-01-22 12:58:23.27	51.35	19.11	-40.0	-40.9	23.7	0.00e+00	2	41	0	463470592	54	5664
2026-01-22 12:58:27.30	52.17	19.39	-40.2	-41.1	23.6	0.00e+00	0	41	0	470810624	54	5803
2026-01-22 12:58:31.33	53.00	19.68	-40.3	-41.3	23.5	0.00e+00	0	41	0	478150656	54	5903
2026-01-22 12:58:35.37	53.84	19.95	-40.4	-41.3	23.5	0.00e+00	3	41	0	486539264	54	5914
2026-01-22 12:58:39.40	54.70	20.23	-40.5	-41.4	23.2	0.00e+00	71	41	0	493879296	54	6028
2026-01-22 12:58:43.44	55.58	20.50	-41.0	-42.0	22.9	0.00e+00	5	41	0	501219328	54	6396
2026-01-22 12:58:47.48	56.47	20.77	-40.9	-41.8	22.9	0.00e+00	0	41	0	508559360	54	6317
2026-01-22 12:58:51.51	57.37	21.03	-41.4	-42.4	22.3	0.00e+00	84	41	0	516947968	54	6739
2026-01-22 12:58:55.55	58.29	21.29	-41.8	-42.9	22.1	0.00e+00	92	41	0	524288000	56	6358
2026-01-22 12:58:59.59	59.23	21.55	-41.3	-42.3	22.5	0.00e+00	0	41	0	531628032	56	5943
2026-01-22 12:59:03.62	60.18	21.80	-40.8	-41.8	23.0	0.00e+00	7	41	0	538968064	56	5599
2026-01-22 12:59:07.66	61.15	22.04	-41.0	-42.0	22.8	0.00e+00	1	41	0	546308096	56	5732
2026-01-22 12:59:11.70	62.13	22.28	-41.1	-42.1	22.7	0.00e+00	90	41	0	554696704	56	5816
2026-01-22 12:59:15.74	63.13	22.51	-41.1	-42.1	22.7	0.00e+00	82	41	0	562036736	56	5766
2026-01-22 12:59:19.77	64.14	22.74	-41.3	-42.4	22.5	0.00e+00	0	41	0	569376768	56	5977
2026-01-22 12:59:23.80	65.16	22.95	-42.0	-43.1	21.8	0.00e+00	0	41	0	576716800	56	6523
2026-01-22 12:59:27.83	66.19	23.16	-41.7	-42.7	22.2	0.00e+00	92	41	0	584056832	56	6225
2026-01-22 12:59:31.87	67.25	23.37	-41.4	-42.4	22.5	0.00e+00	0	41	0	592445440	56	5993
2026-01-22 12:59:35.91	68.31	23.56	-41.9	-43.0	22.0	0.00e+00	1	41	0	599785472	56	6394
2026-01-22 12:59:39.95	69.39	23.75	-41.7	-42.8	22.1	0.00e+00	80	41	0	607125504	56	6265
2026-01-22 12:59:43.98	70.48	23.92	-41.9	-43.0	22.0	0.00e+00	91	41	0	614465536	56	6456
2026-01-22 12:59:48.02	71.58	24.09	-42.4	-43.5	21.3	0.00e+00	0	41	0	622854144	56	6820
2026-01-22 12:59:52.06	72.70	24.24	-42.2	-43.3	21.6	0.00e+00	0	41	0	630194176	56	6674
2026-01-22 12:59:56.09	73.82	24.39	-42.1	-43.2	21.8	0.00e+00	0	41	0	637534208	56	6546
2026-01-22 13:00:00.13	74.95	24.52	-42.1	-43.2	21.7	0.00e+00	92	41	0	644874240	56	6591
2026-01-22 13:00:04.16	76.10	24.65	-41.4	-42.4	22.6	0.00e+00	79	41	0	652214272	56	6020
2026-01-22 13:00:08.20	77.25	24.76	-40.6	-41.6	23.1	0.00e+00	0	41	0	660602880	54	6121
2026-01-22 13:00:12.24	78.41	24.86	-40.8	-41.8	23.0	0.00e+00	0	41	0	667942912	54	6252
2026-01-22 13:00:16.28	79.58	24.95	-40.9	-41.9	22.9	0.00e+00	90	41	0	675282944	54	6341
2026-01-22 13:00:20.31	80.75	25.03	-42.0	-43.1	22.0	0.00e+00	0	41	0	682622976	56	6485
2026-01-22 13:00:24.35	81.93	25.09	-41.9	-42.9	22.1	0.00e+00	0	41	0	691011584	56	6369
2026-01-22 13:00:28.38	83.11	25.15	-41.2	-42.2	22.7	0.00e+00	66	41	0	698351616	56	5839
2026-01-22 13:00:32.42	84.29	25.19	-41.3	-42.3	22.6	0.00e+00	92	41	0	705691648	56	5927
2026-01-22 13:00:36.46	85.48	25.21	-41.3	-42.3	22.6	0.00e+00	0	41	0	713031680	56	5933
2026-01-22 13:00:40.49	86.67	25.23	-41.1	-42.0	22.9	0.00e+00	1	41	0	720371712	56	5747
2026-01-22 13:00:44.53	87.86	25.23	-41.2	-42.1	22.6	0.00e+00	77	41	0	728760320	54	6539
2026-01-22 13:00:48.57	89.05	25.22	-40.6	-41.5	22.9	0.00e+00	85	41	0	736100352	54	6096
2026-01-22 13:00:52.60	90.24	25.19	-40.8	-41.7	23.1	0.00e+00	6	41	0	743440384	54	6227
2026-01-22 13:00:56.64	91.43	25.16	-42.0	-43.2	21.8	0.00e+00	0	41	0	750780416	56	6540
2026-01-22 13:01:00.68	92.61	25.11	-41.7	-42.7	22.2	0.00e+00	92	41	0	759169024	56	6230
2026-01-22 13:01:04.71	93.79	25.05	-41.1	-42.1	22.7	0.00e+00	2	41	0	766509056	56	5763
2026-01-22 13:01:08.75	94.97	24.97	-41.5	-42.6	22.3	0.00e+00	80	41	0	773849088	56	6125
2026-01-22 13:01:12.79	96.14	24.89	-40.7	-41.7	23.1	0.00e+00	80	41	0	781189120	56	5521
2026-01-22 13:01:16.83	97.30	24.79	-41.2	-42.2	22.6	0.00e+00	92	41	0	788529152	54	6562
2026-01-22 13:01:20.87	98.46	24.68	-40.3	-41.3	23.4	0.00e+00	0	41	0	796917760	54	5908
2026-01-22 13:01:24.90	99.61	24.56	-40.6	-41.5	22.9	0.00e+00	81	41	0	804257792	54	6099
2026-01-22 13:01:28.94	100.74	24.42	-40.3	-41.2	23.5	0.00e+00	81	41	0	811597824	54	5875
2026-01-22 13:01:32.98	101.87	24.28	-39.8	-40.7	23.9	0.00e+00	92	41	0	818937856	54	5531
2026-01-22 13:01:37.02	102.99	24.12	-39.8	-40.6	24.0	0.00e+00	2	41	0	827326464	52	6171
2026-01-22 13:01:41.06	104.10	23.96	-39.4	-40.3	24.2	0.00e+00	0	41	0	834666496	52	5904
2026-01-22 13:01:45.09	105.20	23.79	-39.4	-40.3	24.3	0.00e+00	0	41	0	842006528	52	5902
2026-01-22 13:01:49.13	106.28	23.60	-39.1	-39.9	24.5	0.00e+00	92	41	0	849346560	52	5663
2026-01-22 13:01:53.17	107.35	23.41	-39.6	-40.5	24.1	0.00e+00	0	41	0	856686592	52	6075
2026-01-22 13:01:57.21	108.41	23.21	-39.6	-40.4	24.1	0.00e+00	0	41	0	865075200	52	6008
2026-01-22 13:02:01.24	109.45	23.00	-39.3	-40.1	24.3	0.00e+00	43	41	0	872415232	52	5826
2026-01-22 13:02:05.28	110.49	22.78	-39.8	-40.7	23.9	0.00e+00	92	41	0	879755264	52	6207
2026-01-22 13:02:09.32	111.50	22.56	-40.9	-41.9	22.8	0.00e+00	81	41	0	887095296	54	6350
2026-01-22 13:02:13.36	112.51	22.33	-40.7	-41.6	23.0	0.00e+00	0	41	0	895483904	54	6159
2026-01-22 13:02:17.39	113.49	22.09	-40.8	-41.8	22.9	0.00e+00	82	41	0	902823936	54	6293
2026-01-22 13:02:21.43	114.47	21.85	-40.1	-41.0	23.6	0.00e+00	7	41	0	910163968	54	5703
2026-01-22 13:02:25.46	115.42	21.60	-40.5	-41.5	23.2	0.00e+00	0	41	0	917504000	54	6048
2026-01-22 13:02:29.50	116.37	21.34	-40.6	-41.6	23.1	0.00e+00	0	41	0	924844032	54	6142
2026-01-22 13:02:33.54	117.30	21.08	-40.5	-41.5	23.1	0.00e+00	92	41	0	933232640	54	6068
2026-01-22 13:02:37.58	118.21	20.82	-40.3	-41.3	23.3	0.00e+00	85	41	0	940572672	54	5898
2026-01-22 13:02:41.62	119.11	20.55	-40.4	-41.3	23.3	0.00e+00	0	41	0	947912704	54	5920
2026-01-22 13:02:45.66	119.99	20.27	-40.5	-41.4	23.1	0.00e+00	0	41	0	955252736	54	6017
2026-01-22 13:02:49.69	120.86	20.00	-40.7	-41.6	23.0	0.00e+00	92	41	0	963641344	54	6160
2026-01-22 13:02:53.73	121.71	19.72	-41.7	-42.8	21.8	0.00e+00	81	41	0	970981376	54	7065
2026-01-22 13:02:57.77	122.55	19.43	-41.7	-42.8	22.0	0.00e+00	81	41	0	978321408	56	6291
2026-01-22 13:03:01.81	123.37	19.15	-41.0	-42.1	22.5	0.00e+00	0	41	0	985661440	56	5779
2026-01-22 13:03:05.84	124.17	18.86	-41.7	-42.8	22.0	0.00e+00	92	41	0	993001472	56	6265
2026-01-22 13:03:09.88	124.97	18.57	-40.8	-41.8	22.8	0.00e+00	0	41	0	1001390080	56	5588
2026-01-22 13:03:13.92	125.74	18.28	-41.7	-42.7	21.9	0.00e+00	0	41	0	1008730112	56	6233
2026-01-22 13:03:17.95	126.51	17.99	-41.1	-42.1	22.4	0.00e+00	0	41	0	1016070144	56	5817
2026-01-22 13:03:21.99	127.25	17.69	-42.1	-43.3	21.3	0.00e+00	91	41	0	1023410176	56	6655
2026-01-22 13:03:26.03	127.99	17.40	-40.9	-41.9	22.7	0.00e+00	0	41	0	1030750208	56	5684
2026-01-22 13:03:30.06	128.71	17.10	-41.2	-42.2	22.4	0.00e+00	0	41	0	1039138816	54	6560
2026-01-22 13:03:34.10	129.42	16.80	-42.6	-43.8	20.9	0.00e+00	0	41	0	1046478848	58	6300
2026-01-22 13:03:38.14	130.11	16.51	-41.3	-42.4	22.2	0.00e+00	92	41	0	1053818880	56	5970
2026-01-22 13:03:42.18	130.79	16.21	-41.5	-42.6	22.2	0.00e+00	0	41	0	1061158912	56	6121
2026-01-22 13:03:46.21	131.46	15.91	-41.3	-42.3	22.3	0.00e+00	0	41	0	1069547520	56	5935
2026-01-22 13:03:50.25	132.12	15.61	-41.1	-42.1	22.5	0.00e+00	73	41	0	1076887552	56	5796
2026-01-22 13:03:54.29	132.76	15.32	-41.6	-42.7	21.8	0.00e+00	0	41	0	1084227584	56	6221
2026-01-22 13:03:58.32	133.39	15.02	-41.4	-42.4	22.2	0.00e+00	81	41	0	1091567616	56	6012
2026-01-22 13:04:02.36	134.01	14.72	-41.4	-42.4	22.1	0.00e+00	0	41	0	1098907648	56	6025
2026-01-22 13:04:06.40	134.61	14.43	-41.4	-42.4	22.1	0.00e+00	92	41	0	1107296256	56	6031
2026-01-22 13:04:10.44	135.21	14.13	-41.1	-42.2	22.4	0.00e+00	0	41	0	1114636288	56	5867
2026-01-22 13:04:14.47	135.79	13.84	-41.1	-42.2	22.3	0.00e+00	6	41	0	1121976320	56	5844
2026-01-22 13:04:18.50	136.36	13.54	-41.3	-42.3	22.2	0.00e+00	82	41	0	1129316352	56	5942
2026-01-22 13:04:22.54	136.93	13.25	-41.3	-42.4	22.1	0.00e+00	92	41	0	1136656384	56	5999
2026-01-22 13:04:26.58	137.48	12.96	-41.6	-42.7	21.9	0.00e+00	86	41	0	1145044992	56	6202
2026-01-22 13:04:30.62	138.02	12.67	-41.5	-42.6	21.9	0.00e+00	0	41	0	1152385024	56	6121
2026-01-22 13:04:34.65	138.55	12.38	-41.7	-42.8	21.7	0.00e+00	0	41	0	1159725056	56	6269
2026-01-22 13:04:38.69	139.07	12.09	-41.7	-42.8	21.5	0.00e+00	92	41	0	1167065088	56	6310
2026-01-22 13:04:42.73	139.58	11.81	-42.5	-43.8	20.6	0.00e+00	0	41	0	1175453696	56	7027
2026-01-22 13:04:46.77	140.08	11.52	-43.6	-45.2	18.8	0.00e+00	81	41	0	1182793728	58	7351
2026-01-22 13:04:50.81	140.58	11.24	-44.7	-46.8	16.7	3.58e-05	0	41	0	1190133760	60	7931
2026-01-22 13:04:54.85	141.06	10.95	-45.2	-47.7	15.6	1.50e-03	91	41	0	1197473792	60	8745
2026-01-22 13:04:58.89	141.54	10.67	-44.8	-47.1	16.3	1.85e-04	0	41	0	1204813824	60	8154
2026-01-22 13:05:02.92	142.00	10.39	-44.3	-46.3	17.4	2.89e-05	82	41	0	1213202432	60	7467
2026-01-22 13:05:06.96	142.46	10.12	-44.1	-45.9	18.0	7.00e-07	0	41	0	1220542464	60	7163
2026-01-22 13:05:11.00	142.91	9.84	-43.7	-45.3	18.8	0.00e+00	92	41	0	1227882496	60	6673
2026-01-22 13:05:15.04	143.35	9.56	-43.4	-45.0	19.2	0.00e+00	2	41	0	1235222528	60	6397
2026-01-22 13:05:19.08	143.78	9.29	-43.6	-45.2	18.9	0.00e+00	0	42	0	1243611136	60	6613
2026-01-22 13:05:23.12	144.21	9.02	-43.8	-45.5	18.7	0.00e+00	0	41	0	1250951168	60	6780
2026-01-22 13:05:27.15	144.62	8.75	-43.6	-45.2	19.2	0.00e+00	92	41	0	1258291200	60	6556
2026-01-22 13:05:31.19	145.04	8.48	-42.9	-44.3	19.9	0.00e+00	0	41	0	1265631232	60	5943
2026-01-22 13:05:35.23	145.44	8.21	-42.4	-43.6	20.5	0.00e+00	0	41	0	1272971264	58	6165
2026-01-22 13:05:39.27	145.84	7.95	-42.3	-43.6	20.5	0.00e+00	0	41	0	1281359872	58	6151
2026-01-22 13:05:43.30	146.23	7.69	-42.7	-44.1	20.1	0.00e+00	52	41	0	1288699904	58	6476
2026-01-22 13:05:47.34	146.61	7.42	-42.9	-44.3	19.8	0.00e+00	0	41	0	1296039936	58	6675
2026-01-22 13:05:51.38	146.99	7.16	-43.3	-44.8	19.4	0.00e+00	3	41	0	1303379968	58	7013
2026-01-22 13:05:55.42	147.36	6.91	-42.6	-43.9	20.3	0.00e+00	92	41	0	1311768576	58	6364
2026-01-22 13:05:59.45	147.72	6.65	-42.5	-43.9	20.3	0.00e+00	33	41	0	1319108608	58	6324
2026-01-22 13:06:03.49	148.08	6.39	-42.5	-43.8	20.3	0.00e+00	5	41	0	1326448640	58	6312
2026-01-22 13:06:07.53	148.43	6.14	-42.8	-44.3	19.8	0.00e+00	83	41	0	1333788672	58	6620
2026-01-22 13:06:11.56	148.78	5.89	-42.4	-43.7	20.3	0.00e+00	92	41	0	1341128704	58	6231
2026-01-22 13:06:15.60	149.12	5.64	-42.7	-44.2	20.0	0.00e+00	11	41	0	1349517312	58	6541
2026-01-22 13:06:19.65	149.45	5.39	-42.8	-44.2	20.0	0.00e+00	6	41	0	1356857344	58	6562
2026-01-22 13:06:23.69	149.78	5.14	-42.6	-43.9	20.2	0.00e+00	0	41	0	1364197376	58	6387
2026-01-22 13:06:27.72	150.11	4.90	-42.8	-44.3	19.7	0.00e+00	92	41	0	1371537408	58	6631
2026-01-22 13:06:31.76	150.43	4.65	-43.3	-44.9	19.0	0.00e+00	0	41	0	1379926016	58	7116
2026-01-22 13:06:35.80	150.74	4.41	-43.8	-45.5	18.6	0.00e+00	0	41	0	1387266048	60	6815
2026-01-22 13:06:39.84	151.05	4.17	-43.4	-45.0	19.0	0.00e+00	0	41	0	1394606080	60	6423
2026-01-22 13:06:43.87	151.35	3.93	-43.2	-44.8	19.1	0.00e+00	92	41	0	1401946112	60	6298
2026-01-22 13:06:47.90	151.65	3.69	-43.9	-45.7	18.2	0.00e+00	78	41	0	1409286144	60	6936
2026-01-22 13:06:51.94	151.95	3.45	-43.4	-45.1	18.7	0.00e+00	80	41	0	1417674752	60	6486
2026-01-22 13:06:55.98	152.24	3.22	-43.5	-45.2	18.5	0.00e+00	70	41	0	1425014784	60	6543
2026-01-22 13:07:00.02	152.53	2.98	-49.7	-65.0	3.6	1.51e+00	0	41	104	1431306240	60	63920
2026-01-22 13:07:04.05	152.81	2.75	-50.6	-65.8	3.6	1.51e+00	0	42	104	1431306240	60	70239
2026-01-22 13:07:08.09	153.09	2.52	-50.9	-66.2	3.6	1.51e+00	0	42	104	1431306240	60	73602
2026-01-22 13:07:12.13	153.36	2.29	-51.1	-66.3	3.5	1.51e+00	0	42	104	1431306240	60	74543
2026-01-22 13:07:16.16	153.63	2.06	-51.2	-66.4	3.6	1.51e+00	0	42	104	1431306240	60	75524
2026-01-22 13:07:20.20	153.90	1.83	-51.2	-66.5	3.6	1.51e+00	0	42	104	1431306240	60	76067
2026-01-22 13:07:24.24	154.16	1.61	-51.3	-66.5	3.6	1.51e+00	0	42	104	1431306240	60	76482
2026-01-22 13:07:28.28	154.42	1.38	-51.4	-66.6	3.6	1.51e+00	0	42	104	1431306240	60	77030
2026-01-22 13:07:32.32	154.67	1.16	-51.4	-66.6	3.6	1.51e+00	0	42	104	1431306240	60	77131
2026-01-22 13:07:36.36	154.92	0.94	-51.3	-66.6	3.6	1.51e+00	0	42	104	1431306240	60	77335
2026-01-22 13:07:40.40	155.17	0.72	-51.4	-66.6	3.6	1.51e+00	0	42	104	1431306240	60	77049
2026-01-22 13:07:44.44	155.42	0.50	-51.4	-66.6	3.6	1.51e+00	0	42	104	1431306240	60	77705
2026-01-22 13:07:48.48	155.66	0.28	-51.4	-66.6	3.6	1.51e+00	0	42	104	1431306240	60	77654
2026-01-22 13:07:52.52	155.90	0.06	-51.4	-66.7	3.6	1.51e+00	0	42	104	1431306240	60	78256

#Closed at: 2026-01-22 13:07:55
#Recorded file [1431 MB]: D:/lorett/data/35029_260123_005332.dat