passes_logs/2026/01/22/R4.6S_Anadyr/R4.6S_Anadyr__20260122_020903_SUOMI_NPP_rec.log

#Pass ID: 20260122_020903_SUOMI NPP
#Satellite: SUOMI NPP
#Configuration: NPP
#almurnet v.1.7.20251203
#Start time: 2026-01-22 02:09:04

#Version: 2.2.20231116
#Station: R4.6S_Anadyr
#Location: 177.4865 lon 64.73178 lat
#TLE: 1 37849U 11061A   26020.95430537  .00000198  00000+0  11470-3 0  9999
#TLE: 2 37849  98.7819 322.9518 0002315  53.3069 306.8320 14.19527555737555

#Time	Az	El	Level	Level2	SNR	BER	BlckErr	Temp	State	Recorded	gain1	gain2
2026-01-22 02:09:04.70	204.32	0.09	-52.0	-69.7	3.5	3.02e+01	0	39	0	0	60	116957
2026-01-22 02:09:08.73	204.56	0.31	-51.5	-66.8	3.6	1.51e+00	0	40	104	0	60	78862
2026-01-22 02:09:12.76	204.80	0.53	-51.3	-66.6	3.6	1.51e+00	0	40	104	0	60	77152
2026-01-22 02:09:16.79	205.05	0.75	-51.3	-66.5	3.6	1.51e+00	0	40	104	0	60	76241
2026-01-22 02:09:20.84	205.30	0.97	-51.2	-66.4	3.6	1.51e+00	0	40	104	0	60	75850
2026-01-22 02:09:24.87	205.55	1.19	-50.8	-66.0	3.6	1.51e+00	0	40	104	0	60	72193
2026-01-22 02:09:28.92	205.81	1.41	-50.2	-65.4	3.5	1.51e+00	0	40	104	0	60	67062
2026-01-22 02:09:32.96	206.07	1.64	-49.8	-65.0	3.5	1.51e+00	0	40	104	0	60	64383
2026-01-22 02:09:37.00	206.33	1.86	-49.6	-64.9	3.6	1.51e+00	0	40	104	0	60	63408
2026-01-22 02:09:41.04	206.60	2.09	-49.6	-64.8	3.6	1.51e+00	0	40	104	0	60	62782
2026-01-22 02:09:45.07	206.87	2.32	-49.6	-64.7	3.6	1.51e+00	0	40	104	0	60	62447
2026-01-22 02:09:49.11	207.15	2.55	-49.7	-64.8	3.6	1.51e+00	0	41	104	0	60	62980
2026-01-22 02:09:53.15	207.43	2.78	-49.8	-63.1	3.6	1.51e+00	0	41	104	0	60	51696
2026-01-22 02:09:57.19	207.72	3.01	-49.7	-60.6	4.5	1.49e+00	92	40	104	0	60	38666
2026-01-22 02:10:01.23	208.01	3.25	-47.8	-52.1	12.0	2.73e-04	92	41	0	6291456	60	14551
2026-01-22 02:10:05.27	208.30	3.48	-49.7	-60.8	3.6	2.56e-02	0	41	104	9437184	60	39656
2026-01-22 02:10:09.31	208.60	3.72	-43.7	-45.3	18.8	0.00e+00	0	41	0	12582912	60	6685
2026-01-22 02:10:13.34	208.90	3.96	-43.5	-45.1	18.9	0.00e+00	92	41	0	20971520	60	6522
2026-01-22 02:10:17.38	209.21	4.20	-43.3	-44.8	19.4	0.00e+00	92	41	0	28311552	60	6313
2026-01-22 02:10:21.42	209.52	4.44	-43.5	-45.0	19.1	0.00e+00	0	41	0	35651584	60	6446
2026-01-22 02:10:25.46	209.84	4.68	-43.5	-45.0	19.2	0.00e+00	0	41	0	42991616	58	7209
2026-01-22 02:10:29.50	210.16	4.93	-42.9	-44.2	19.9	0.00e+00	92	41	0	50331648	58	6609
2026-01-22 02:10:33.54	210.48	5.17	-42.6	-43.9	20.4	0.00e+00	92	41	0	58720256	58	6343
2026-01-22 02:10:37.57	210.82	5.42	-42.3	-43.6	20.4	0.00e+00	0	41	0	66060288	58	6140
2026-01-22 02:10:41.61	211.15	5.67	-42.3	-43.5	20.6	0.00e+00	38	41	0	73400320	58	6071
2026-01-22 02:10:45.65	211.50	5.92	-42.4	-43.7	20.5	0.00e+00	73	41	0	80740352	58	6177
2026-01-22 02:10:49.69	211.85	6.17	-42.5	-43.8	20.4	0.00e+00	92	41	0	89128960	58	6311
2026-01-22 02:10:53.73	212.20	6.42	-42.9	-44.3	20.0	0.00e+00	0	41	0	96468992	58	6668
2026-01-22 02:10:57.76	212.56	6.68	-42.8	-44.1	20.3	0.00e+00	92	41	0	103809024	58	6494
2026-01-22 02:11:01.80	212.93	6.94	-42.1	-43.3	20.8	0.00e+00	92	41	0	111149056	58	5934
2026-01-22 02:11:05.84	213.30	7.19	-42.2	-43.4	21.0	0.00e+00	0	41	0	118489088	56	6755
2026-01-22 02:11:09.87	213.68	7.45	-42.4	-43.6	21.1	0.00e+00	0	41	0	126877696	56	6910
2026-01-22 02:11:13.91	214.07	7.72	-41.7	-42.9	21.3	0.00e+00	92	41	0	134217728	56	6332
2026-01-22 02:11:17.95	214.46	7.98	-42.1	-43.3	21.2	0.00e+00	92	41	0	141557760	56	6661
2026-01-22 02:11:21.99	214.86	8.24	-41.7	-42.8	21.5	0.00e+00	0	41	0	148897792	56	6310
2026-01-22 02:11:26.02	215.27	8.51	-41.5	-42.6	21.6	0.00e+00	9	41	0	157286400	56	6121
2026-01-22 02:11:30.06	215.68	8.78	-41.1	-42.2	21.9	0.00e+00	38	41	0	164626432	56	5853
2026-01-22 02:11:34.10	216.11	9.05	-41.1	-42.1	22.0	0.00e+00	92	41	0	171966464	56	5821
2026-01-22 02:11:38.14	216.53	9.32	-41.5	-42.6	21.6	0.00e+00	0	41	0	179306496	56	6168
2026-01-22 02:11:42.18	216.97	9.59	-42.0	-43.1	21.2	0.00e+00	92	41	0	186646528	56	6529
2026-01-22 02:11:46.21	217.42	9.87	-41.9	-43.1	21.3	0.00e+00	92	41	0	195035136	56	6503
2026-01-22 02:11:50.25	217.87	10.14	-41.5	-42.6	21.6	0.00e+00	92	41	0	202375168	56	6158
2026-01-22 02:11:54.29	218.33	10.42	-41.7	-42.9	21.5	0.00e+00	0	41	0	209715200	56	6322
2026-01-22 02:11:58.33	218.80	10.70	-41.1	-42.2	22.0	0.00e+00	92	41	0	217055232	56	5846
2026-01-22 02:12:02.36	219.28	10.98	-41.2	-42.2	22.0	0.00e+00	92	41	0	225443840	56	5877
2026-01-22 02:12:06.40	219.77	11.26	-41.1	-42.1	22.1	0.00e+00	0	41	0	232783872	56	5814
2026-01-22 02:12:10.44	220.26	11.55	-41.3	-42.3	22.1	0.00e+00	0	41	0	240123904	56	5938
2026-01-22 02:12:14.48	220.77	11.83	-41.4	-42.5	22.0	0.00e+00	80	41	0	247463936	56	6090
2026-01-22 02:12:18.53	221.29	12.12	-41.4	-42.5	21.9	0.00e+00	92	41	0	254803968	56	6084
2026-01-22 02:12:22.57	221.81	12.40	-41.6	-42.7	21.7	0.00e+00	0	41	0	263192576	56	6228
2026-01-22 02:12:26.61	222.35	12.69	-41.9	-43.1	21.4	0.00e+00	0	41	0	270532608	56	6467
2026-01-22 02:12:30.64	222.89	12.98	-41.7	-42.9	21.6	0.00e+00	90	41	0	277872640	56	6322
2026-01-22 02:12:34.68	223.45	13.27	-41.3	-42.4	22.1	0.00e+00	92	41	0	285212672	56	5974
2026-01-22 02:12:38.72	224.01	13.57	-41.2	-42.2	22.2	0.00e+00	0	41	0	293601280	56	5853
2026-01-22 02:12:42.76	224.59	13.86	-40.4	-41.3	22.9	0.00e+00	92	41	0	300941312	54	5944
2026-01-22 02:12:46.80	225.18	14.15	-40.4	-41.3	22.9	0.00e+00	92	41	0	308281344	54	5959
2026-01-22 02:12:50.84	225.78	14.45	-40.3	-41.3	22.9	0.00e+00	17	41	0	315621376	54	5929
2026-01-22 02:12:54.89	226.39	14.74	-41.0	-42.0	22.2	0.00e+00	0	41	0	322961408	54	6410
2026-01-22 02:12:58.93	227.02	15.04	-41.1	-42.1	22.2	0.00e+00	90	41	0	331350016	54	6524
2026-01-22 02:13:02.97	227.65	15.33	-41.3	-42.3	22.0	0.00e+00	90	41	0	338690048	54	6648
2026-01-22 02:13:07.00	228.30	15.63	-40.9	-41.9	22.5	0.00e+00	0	41	0	346030080	54	6332
2026-01-22 02:13:11.04	228.96	15.93	-40.1	-41.0	23.2	0.00e+00	0	41	0	353370112	54	5717
2026-01-22 02:13:15.08	229.64	16.22	-39.9	-40.8	23.3	0.00e+00	92	41	0	361758720	52	6317
2026-01-22 02:13:19.12	230.32	16.52	-39.4	-40.3	23.9	0.00e+00	92	41	0	369098752	52	5933
2026-01-22 02:13:23.15	231.02	16.81	-39.7	-40.6	23.5	0.00e+00	0	41	0	376438784	52	6122
2026-01-22 02:13:27.19	231.73	17.11	-40.5	-41.4	22.8	0.00e+00	92	41	0	383778816	52	6743
2026-01-22 02:13:31.23	232.46	17.40	-40.0	-41.0	23.3	0.00e+00	92	41	0	391118848	54	5696
2026-01-22 02:13:35.27	233.20	17.70	-40.6	-41.6	22.8	0.00e+00	90	41	0	399507456	54	6126
2026-01-22 02:13:39.31	233.96	17.99	-40.1	-41.0	23.3	0.00e+00	0	41	0	406847488	54	5748
2026-01-22 02:13:43.35	234.72	18.28	-39.5	-40.4	23.7	0.00e+00	92	41	0	414187520	52	6005
2026-01-22 02:13:47.38	235.51	18.57	-38.9	-39.7	24.2	0.00e+00	90	41	0	421527552	52	5552
2026-01-22 02:13:51.42	236.30	18.86	-38.8	-39.6	24.3	0.00e+00	0	41	0	429916160	50	6165
2026-01-22 02:13:55.45	237.12	19.14	-38.9	-39.8	24.3	0.00e+00	0	41	0	437256192	50	6252
2026-01-22 02:13:59.49	237.94	19.42	-39.0	-39.8	24.1	0.00e+00	90	41	0	444596224	50	6295
2026-01-22 02:14:03.53	238.79	19.70	-38.8	-39.7	24.3	0.00e+00	92	41	0	451936256	50	6175
2026-01-22 02:14:07.57	239.64	19.98	-39.2	-40.0	24.1	0.00e+00	0	41	0	459276288	50	6435
2026-01-22 02:14:11.61	240.52	20.26	-39.4	-40.3	23.9	0.00e+00	92	41	0	467664896	50	6621
2026-01-22 02:14:15.64	241.40	20.52	-39.1	-39.9	24.1	0.00e+00	71	41	0	475004928	50	6350
2026-01-22 02:14:19.68	242.30	20.79	-39.7	-40.6	23.7	0.00e+00	92	41	0	482344960	50	6856
2026-01-22 02:14:23.72	243.22	21.05	-39.8	-40.6	23.8	0.00e+00	0	42	0	489684992	52	6151
2026-01-22 02:14:27.76	244.16	21.31	-40.1	-41.0	23.3	0.00e+00	92	41	0	498073600	52	6450
2026-01-22 02:14:31.80	245.10	21.56	-39.6	-40.4	23.8	0.00e+00	84	41	0	505413632	52	5999
2026-01-22 02:14:35.84	246.07	21.81	-40.8	-41.8	22.7	0.00e+00	0	41	0	512753664	54	6314
2026-01-22 02:14:39.88	247.05	22.05	-40.2	-41.1	23.6	0.00e+00	0	41	0	520093696	54	5796
2026-01-22 02:14:43.92	248.04	22.28	-41.2	-42.2	21.8	0.00e+00	92	41	0	527433728	54	6608
2026-01-22 02:14:47.95	249.04	22.51	-39.7	-40.6	23.9	0.00e+00	92	41	0	535822336	52	6113
2026-01-22 02:14:51.99	250.06	22.73	-40.3	-41.2	23.4	0.00e+00	0	41	0	543162368	52	6553
2026-01-22 02:14:56.03	251.10	22.94	-39.8	-40.7	23.6	0.00e+00	49	41	0	550502400	52	6199
2026-01-22 02:15:00.06	252.15	23.14	-40.8	-41.8	22.7	0.00e+00	40	41	0	557842432	54	6276
2026-01-22 02:15:04.11	253.21	23.34	-41.7	-42.7	21.7	0.00e+00	90	41	0	566231040	54	6957
2026-01-22 02:15:08.15	254.28	23.53	-41.1	-42.1	22.6	0.00e+00	0	41	0	573571072	56	5775
2026-01-22 02:15:12.19	255.37	23.71	-42.5	-43.6	21.4	0.00e+00	92	41	0	580911104	56	6900
2026-01-22 02:15:16.23	256.47	23.88	-42.1	-43.1	21.7	0.00e+00	92	41	0	588251136	58	5815
2026-01-22 02:15:20.27	257.58	24.03	-42.4	-43.5	21.5	0.00e+00	0	41	0	595591168	58	6072
2026-01-22 02:15:24.30	258.70	24.18	-43.6	-45.0	20.0	0.00e+00	0	41	0	603979776	58	7196
2026-01-22 02:15:28.34	259.83	24.32	-43.9	-45.3	19.8	0.00e+00	90	41	0	611319808	60	6673
2026-01-22 02:15:32.38	260.97	24.45	-43.6	-44.9	20.1	0.00e+00	92	41	0	618659840	60	6389
2026-01-22 02:15:36.42	262.12	24.56	-42.6	-43.7	21.3	0.00e+00	0	41	0	625999872	58	6243
2026-01-22 02:15:40.46	263.27	24.67	-42.8	-44.0	21.1	0.00e+00	0	41	0	634388480	58	6418
2026-01-22 02:15:44.50	264.44	24.76	-43.3	-44.6	20.4	0.00e+00	92	41	0	641728512	58	6909
2026-01-22 02:15:48.54	265.60	24.84	-41.6	-42.6	22.3	0.00e+00	92	41	0	649068544	56	6125
2026-01-22 02:15:52.57	266.78	24.91	-40.7	-41.6	23.2	0.00e+00	0	41	0	656408576	54	6123
2026-01-22 02:15:56.61	267.96	24.97	-42.1	-43.2	21.8	0.00e+00	42	41	0	663748608	56	6545
2026-01-22 02:16:00.65	269.14	25.01	-41.0	-42.0	22.8	0.00e+00	90	41	0	672137216	56	5717
2026-01-22 02:16:04.69	270.32	25.04	-41.5	-42.5	22.3	0.00e+00	0	41	0	679477248	56	6093
2026-01-22 02:16:08.73	271.51	25.06	-41.6	-42.7	22.3	0.00e+00	0	41	0	686817280	56	6208
2026-01-22 02:16:12.76	272.70	25.07	-40.1	-41.0	23.6	0.00e+00	92	41	0	694157312	54	5729
2026-01-22 02:16:16.80	273.88	25.06	-40.5	-41.4	23.2	0.00e+00	90	41	0	701497344	52	6767
2026-01-22 02:16:20.84	275.07	25.04	-40.2	-41.1	23.4	0.00e+00	0	41	0	709885952	52	6468
2026-01-22 02:16:24.88	276.25	25.01	-40.3	-41.2	23.1	0.00e+00	0	41	0	717225984	52	6612
2026-01-22 02:16:28.92	277.44	24.96	-41.1	-42.1	22.6	0.00e+00	92	41	0	724566016	54	6475
2026-01-22 02:16:32.96	278.61	24.91	-40.5	-41.5	23.0	0.00e+00	92	41	0	731906048	54	6053
2026-01-22 02:16:37.00	279.79	24.84	-40.4	-41.3	23.2	0.00e+00	0	41	0	740294656	54	5931
2026-01-22 02:16:41.04	280.95	24.76	-40.5	-41.5	23.1	0.00e+00	92	41	0	747634688	54	6054
2026-01-22 02:16:45.08	282.11	24.66	-40.4	-41.3	23.2	0.00e+00	54	41	0	754974720	54	5920
2026-01-22 02:16:49.12	283.27	24.56	-39.7	-40.6	23.7	0.00e+00	0	41	0	762314752	54	5463
2026-01-22 02:16:53.16	284.41	24.44	-39.6	-40.5	23.7	0.00e+00	0	41	0	770703360	52	6065
2026-01-22 02:16:57.20	285.55	24.31	-39.2	-40.0	24.0	0.00e+00	92	41	0	778043392	52	5745
2026-01-22 02:17:01.24	286.68	24.17	-39.6	-40.5	23.8	0.00e+00	92	41	0	785383424	52	6036
2026-01-22 02:17:05.28	287.79	24.02	-39.1	-39.9	24.2	0.00e+00	0	41	0	792723456	52	5686
2026-01-22 02:17:09.32	288.90	23.86	-39.6	-40.4	23.9	0.00e+00	0	41	0	800063488	52	6024
2026-01-22 02:17:13.36	290.00	23.70	-39.5	-40.4	24.0	0.00e+00	47	41	0	808452096	52	5975
2026-01-22 02:17:17.40	291.08	23.52	-38.7	-39.5	24.4	0.00e+00	90	41	0	815792128	50	6069
2026-01-22 02:17:21.44	292.15	23.33	-38.7	-39.5	24.6	0.00e+00	0	41	0	823132160	50	6068
2026-01-22 02:17:25.48	293.21	23.13	-37.9	-38.6	25.1	0.00e+00	0	41	0	830472192	48	6161
2026-01-22 02:17:29.52	294.25	22.93	-39.3	-40.1	24.2	0.00e+00	49	41	0	838860800	50	6539
2026-01-22 02:17:33.56	295.28	22.72	-38.1	-38.8	25.0	0.00e+00	0	41	0	846200832	50	5610
2026-01-22 02:17:37.60	296.30	22.50	-39.0	-39.8	24.1	0.00e+00	0	41	0	853540864	50	6294
2026-01-22 02:17:41.64	297.30	22.27	-38.5	-39.3	24.7	0.00e+00	92	41	0	860880896	50	5930
2026-01-22 02:17:45.68	298.29	22.04	-39.4	-40.3	24.0	0.00e+00	91	41	0	868220928	50	6626
2026-01-22 02:17:49.73	299.26	21.80	-39.1	-39.9	23.8	0.00e+00	0	41	0	876609536	50	6387
2026-01-22 02:17:53.77	300.22	21.55	-39.2	-40.0	24.2	0.00e+00	0	41	0	883949568	50	6448
2026-01-22 02:17:57.81	301.17	21.30	-39.9	-40.8	23.5	0.00e+00	45	41	0	891289600	52	6282
2026-01-22 02:18:01.84	302.09	21.05	-40.2	-41.1	23.3	0.00e+00	92	41	0	898629632	52	6487
2026-01-22 02:18:05.88	303.01	20.79	-39.2	-40.0	24.2	0.00e+00	0	41	0	907018240	52	5748
2026-01-22 02:18:09.92	303.90	20.52	-40.1	-41.0	23.5	0.00e+00	18	41	0	914358272	52	6406
2026-01-22 02:18:13.96	304.79	20.26	-40.9	-41.9	22.8	0.00e+00	87	41	0	921698304	54	6347
2026-01-22 02:18:18.00	305.66	19.98	-40.4	-41.3	23.2	0.00e+00	0	41	0	929038336	54	5956
2026-01-22 02:18:22.03	306.51	19.71	-40.1	-41.0	23.3	0.00e+00	0	41	0	936378368	54	5755
2026-01-22 02:18:26.07	307.35	19.43	-41.1	-42.1	22.6	0.00e+00	47	41	0	944766976	54	6483
2026-01-22 02:18:30.11	308.17	19.15	-40.6	-41.5	22.9	0.00e+00	37	41	0	952107008	54	6067
2026-01-22 02:18:34.15	308.98	18.87	-41.4	-42.4	22.2	0.00e+00	0	41	0	959447040	54	6733
2026-01-22 02:18:38.19	309.77	18.58	-41.0	-42.0	22.5	0.00e+00	0	41	0	966787072	54	6455
2026-01-22 02:18:42.23	310.55	18.29	-40.8	-41.8	22.6	0.00e+00	92	41	0	975175680	54	6276
2026-01-22 02:18:46.27	311.32	18.01	-40.3	-41.2	23.1	0.00e+00	91	41	0	982515712	54	5856
2026-01-22 02:18:50.30	312.06	17.72	-40.9	-41.9	22.5	0.00e+00	0	41	0	989855744	52	7137
2026-01-22 02:18:54.34	312.80	17.42	-40.9	-41.9	22.7	0.00e+00	0	41	0	997195776	54	6351
2026-01-22 02:18:58.38	313.52	17.13	-41.0	-42.0	22.5	0.00e+00	92	41	0	1004535808	54	6401
2026-01-22 02:19:02.42	314.23	16.84	-42.6	-43.8	21.0	0.00e+00	0	41	0	1012924416	56	7066
2026-01-22 02:19:06.45	314.93	16.55	-42.0	-43.1	21.7	0.00e+00	0	41	0	1020264448	58	5795
2026-01-22 02:19:10.49	315.61	16.25	-40.4	-41.3	23.1	0.00e+00	40	41	0	1027604480	54	5957
2026-01-22 02:19:14.53	316.28	15.96	-41.2	-42.3	22.2	0.00e+00	74	41	0	1034944512	54	6641
2026-01-22 02:19:18.56	316.94	15.67	-40.4	-41.3	23.0	0.00e+00	0	41	0	1043333120	54	5956
2026-01-22 02:19:22.61	317.59	15.37	-40.6	-41.5	22.8	0.00e+00	0	41	0	1050673152	54	6080
2026-01-22 02:19:26.64	318.22	15.08	-41.1	-42.1	22.3	0.00e+00	69	41	0	1058013184	54	6510
2026-01-22 02:19:30.68	318.84	14.79	-40.9	-42.0	22.4	0.00e+00	45	41	0	1065353216	54	6391
2026-01-22 02:19:34.72	319.45	14.49	-42.0	-43.1	21.6	0.00e+00	0	41	0	1072693248	56	6522
2026-01-22 02:19:38.76	320.05	14.20	-41.6	-42.7	21.8	0.00e+00	0	41	0	1081081856	56	6214
2026-01-22 02:19:42.80	320.63	13.91	-41.7	-42.8	21.7	0.00e+00	28	41	0	1088421888	56	6278
2026-01-22 02:19:46.84	321.21	13.62	-41.9	-43.0	21.2	0.00e+00	0	41	0	1095761920	56	6421
2026-01-22 02:19:50.88	321.77	13.33	-42.3	-43.4	21.5	0.00e+00	0	41	0	1103101952	56	6744
2026-01-22 02:19:54.92	322.33	13.04	-41.9	-43.0	21.7	0.00e+00	92	41	0	1111490560	56	6425
2026-01-22 02:19:58.96	322.87	12.75	-41.8	-42.9	21.6	0.00e+00	92	41	0	1118830592	56	6337
2026-01-22 02:20:02.99	323.40	12.47	-41.5	-42.6	21.9	0.00e+00	0	41	0	1126170624	56	6159
2026-01-22 02:20:07.04	323.93	12.18	-41.0	-42.0	22.5	0.00e+00	0	41	0	1133510656	56	5759
2026-01-22 02:20:11.07	324.44	11.90	-40.8	-41.8	22.5	0.00e+00	64	41	0	1140850688	54	6273
2026-01-22 02:20:15.11	324.95	11.62	-41.2	-42.3	22.2	0.00e+00	0	41	0	1149239296	54	6642
2026-01-22 02:20:19.14	325.44	11.34	-41.1	-42.1	22.3	0.00e+00	0	41	0	1156579328	54	6499
2026-01-22 02:20:23.18	325.93	11.06	-40.8	-41.8	22.4	0.00e+00	40	41	0	1163919360	54	6311
2026-01-22 02:20:27.22	326.41	10.78	-41.2	-42.2	22.1	0.00e+00	92	41	0	1171259392	54	6609
2026-01-22 02:20:31.26	326.88	10.50	-41.7	-42.8	21.7	0.00e+00	0	41	0	1178599424	54	7072
2026-01-22 02:20:35.30	327.34	10.23	-41.4	-42.5	21.7	0.00e+00	0	41	0	1186988032	54	6796
2026-01-22 02:20:39.34	327.79	9.95	-41.4	-42.4	21.7	0.00e+00	6	41	0	1194328064	54	6758
2026-01-22 02:20:43.38	328.24	9.68	-42.1	-43.2	21.3	0.00e+00	0	41	0	1201668096	56	6599
2026-01-22 02:20:47.42	328.67	9.41	-42.3	-43.5	21.0	0.00e+00	0	41	0	1209008128	56	6810
2026-01-22 02:20:51.46	329.10	9.14	-42.6	-43.8	20.6	0.00e+00	0	41	0	1217396736	56	7082
2026-01-22 02:20:55.49	329.52	8.87	-42.3	-43.5	20.9	0.00e+00	56	41	0	1224736768	56	6775
2026-01-22 02:20:59.53	329.94	8.61	-42.3	-43.6	20.9	0.00e+00	0	41	0	1232076800	56	6853
2026-01-22 02:21:03.56	330.34	8.34	-41.8	-43.0	21.3	0.00e+00	0	41	0	1239416832	56	6400
2026-01-22 02:21:07.60	330.74	8.08	-42.2	-43.4	20.9	0.00e+00	0	41	0	1246756864	56	6750
2026-01-22 02:21:11.63	331.14	7.82	-42.1	-43.4	20.8	0.00e+00	46	41	0	1255145472	56	6705
2026-01-22 02:21:15.68	331.52	7.56	-42.6	-43.9	20.4	0.00e+00	0	41	0	1262485504	56	7166
2026-01-22 02:21:19.72	331.90	7.30	-42.1	-43.3	20.8	0.00e+00	0	41	0	1269825536	56	6658
2026-01-22 02:21:23.76	332.28	7.05	-42.3	-43.5	20.7	0.00e+00	0	41	0	1277165568	58	6076
2026-01-22 02:21:27.80	332.65	6.79	-43.0	-44.4	19.8	0.00e+00	78	41	0	1285554176	58	6758
2026-01-22 02:21:31.83	333.01	6.54	-43.6	-45.1	19.1	0.00e+00	0	41	0	1292894208	60	6518
2026-01-22 02:21:35.87	333.36	6.29	-43.6	-45.2	19.0	0.00e+00	0	41	0	1300234240	60	6572
2026-01-22 02:21:39.91	333.72	6.04	-43.6	-45.3	18.5	0.00e+00	40	41	0	1307574272	60	6682
2026-01-22 02:21:43.95	334.06	5.79	-44.0	-45.9	17.5	0.00e+00	0	41	0	1314914304	60	7141
2026-01-22 02:21:47.99	334.40	5.54	-44.7	-47.5	15.2	0.00e+00	0	41	0	1323302912	60	8530
2026-01-22 02:21:52.02	334.73	5.30	-45.7	-50.1	11.5	5.68e-04	0	41	0	1330642944	60	11576
2026-01-22 02:21:56.06	335.06	5.05	-46.1	-52.2	8.4	2.81e-02	13	41	0	1337982976	60	14769
2026-01-22 02:22:00.11	335.39	4.81	-46.5	-54.8	5.3	3.23e-01	0	41	0	1345323008	60	19846
2026-01-22 02:22:04.14	335.70	4.57	-46.4	-55.8	4.2	7.89e-01	0	41	0	1353711616	60	22245
2026-01-22 02:22:08.18	336.02	4.33	-46.4	-56.9	3.8	1.40e+00	0	41	0	1354760192	60	25159
2026-01-22 02:22:12.22	336.33	4.09	-46.5	-59.8	3.6	1.50e+00	0	41	104	1354760192	60	35491
2026-01-22 02:22:16.26	336.63	3.86	-46.4	-60.3	3.6	1.51e+00	0	41	104	1354760192	60	37469
2026-01-22 02:22:20.30	336.93	3.62	-46.4	-60.9	3.6	1.51e+00	0	41	104	1354760192	60	40198
2026-01-22 02:22:24.33	337.23	3.39	-46.3	-61.4	3.6	1.51e+00	0	41	104	1354760192	60	42373
2026-01-22 02:22:28.37	337.52	3.16	-46.3	-61.5	3.6	1.51e+00	0	41	104	1354760192	60	42950
2026-01-22 02:22:32.42	337.81	2.93	-47.1	-62.3	3.6	1.51e+00	0	41	104	1354760192	60	46996
2026-01-22 02:22:36.46	338.09	2.70	-51.0	-66.2	3.6	1.51e+00	0	41	104	1354760192	60	73557
2026-01-22 02:22:40.50	338.37	2.47	-51.2	-66.5	3.6	1.51e+00	0	41	104	1354760192	60	75996
2026-01-22 02:22:44.53	338.64	2.24	-51.3	-66.6	3.6	1.51e+00	0	41	104	1354760192	60	76839
2026-01-22 02:22:48.57	338.91	2.02	-51.4	-66.5	3.6	1.51e+00	0	41	104	1354760192	60	76810
2026-01-22 02:22:52.62	339.18	1.79	-51.2	-66.5	3.6	1.51e+00	0	41	104	1354760192	60	76388
2026-01-22 02:22:56.66	339.44	1.57	-51.4	-66.6	3.6	1.51e+00	0	41	104	1354760192	60	77505
2026-01-22 02:23:00.70	339.70	1.35	-51.4	-66.6	3.6	1.51e+00	0	41	104	1354760192	60	77571
2026-01-22 02:23:04.74	339.96	1.13	-51.4	-66.6	3.6	1.51e+00	0	41	104	1354760192	60	77578
2026-01-22 02:23:08.78	340.21	0.91	-51.7	-66.9	3.6	1.51e+00	0	42	104	1354760192	60	79991
2026-01-22 02:23:12.82	340.46	0.69	-51.5	-66.7	3.6	1.51e+00	0	41	104	1354760192	60	78453
2026-01-22 02:23:16.86	340.71	0.47	-51.6	-66.8	3.5	1.51e+00	0	41	104	1354760192	60	79414
2026-01-22 02:23:20.90	340.95	0.26	-51.7	-66.9	3.6	1.51e+00	0	41	104	1354760192	60	79777
2026-01-22 02:23:24.94	341.19	0.04	-51.8	-67.0	3.6	1.51e+00	0	42	104	1354760192	60	80497

#Closed at: 2026-01-22 02:23:27
#Recorded file [1354 MB]: D:/lorett/data/35029_260122_140904.dat