passes_logs/2026/01/22/R4.6S_Anadyr/R4.6S_Anadyr__20260122_220007_NOAA_21_JPSS-2_rec.log

#Pass ID: 20260122_220007_NOAA 21 (JPSS-2)
#Satellite: NOAA 21 (JPSS-2)
#Configuration: NOAA-21
#almurnet v.1.7.20251203
#Start time: 2026-01-22 22:00:08

#Version: 2.2.20231116
#Station: R4.6S_Anadyr
#Location: 177.4865 lon 64.73178 lat
#TLE: 1 54234U 22150A   26022.41365820  .00000211  00000+0  12084-3 0  9990
#TLE: 2 54234  98.7507 323.2240 0000658 234.5287 125.5828 14.19537645165864

#Time	Az	El	Level	Level2	SNR	BER	BlckErr	Temp	State	Recorded	gain1	gain2
2026-01-22 22:00:08.64	103.08	0.07	-51.5	-69.2	3.5	7.67e-01	0	38	0	0	60	110635
2026-01-22 22:00:12.68	102.87	0.29	-51.0	-63.8	3.5	1.52e+00	0	40	104	0	60	54579
2026-01-22 22:00:16.71	102.66	0.52	-51.0	-63.8	3.5	1.52e+00	0	40	104	0	60	54487
2026-01-22 22:00:20.76	102.44	0.74	-50.9	-63.8	3.5	1.52e+00	0	40	104	0	60	54206
2026-01-22 22:00:24.79	102.22	0.97	-50.9	-63.8	3.5	1.51e+00	0	40	104	0	60	54201
2026-01-22 22:00:28.83	102.00	1.20	-50.7	-63.5	3.5	1.51e+00	0	40	104	0	60	52473
2026-01-22 22:00:32.87	101.78	1.43	-49.9	-62.9	3.5	1.51e+00	0	40	104	0	60	48994
2026-01-22 22:00:36.91	101.55	1.66	-48.1	-61.9	3.5	1.52e+00	0	40	104	0	60	43684
2026-01-22 22:00:40.95	101.32	1.89	-48.2	-62.0	3.5	1.52e+00	0	40	104	0	60	44412
2026-01-22 22:00:44.99	101.08	2.13	-48.1	-62.0	3.5	1.52e+00	0	40	104	0	60	44037
2026-01-22 22:00:49.03	100.84	2.36	-47.7	-61.7	3.5	1.52e+00	0	40	104	0	60	42443
2026-01-22 22:00:53.07	100.59	2.60	-47.7	-62.1	3.5	1.52e+00	0	41	104	0	60	44557
2026-01-22 22:00:57.11	100.35	2.84	-47.8	-62.0	3.5	1.52e+00	0	41	104	0	60	44303
2026-01-22 22:01:01.14	100.09	3.08	-47.7	-61.2	3.5	1.51e+00	0	41	104	0	60	40125
2026-01-22 22:01:05.18	99.84	3.32	-46.6	-52.8	8.1	1.43e-01	122	41	0	0	60	15294
2026-01-22 22:01:09.22	99.57	3.57	-42.4	-44.7	16.7	0.00e+00	122	41	0	3145728	60	6014
2026-01-22 22:01:13.26	99.31	3.81	-42.0	-44.2	17.0	0.00e+00	123	41	0	9437184	58	6365
2026-01-22 22:01:17.30	99.04	4.06	-42.7	-44.7	16.5	0.00e+00	123	41	0	22020096	58	6754
2026-01-22 22:01:21.34	98.76	4.31	-42.7	-44.7	16.9	0.00e+00	121	41	0	34603008	58	6787
2026-01-22 22:01:25.37	98.48	4.55	-40.8	-42.2	19.4	0.00e+00	121	41	0	47185920	54	6362
2026-01-22 22:01:29.41	98.19	4.81	-40.3	-41.5	20.0	0.00e+00	120	41	0	59768832	54	5890
2026-01-22 22:01:33.45	97.90	5.06	-40.3	-41.5	20.1	0.00e+00	123	41	0	72351744	52	6599
2026-01-22 22:01:37.49	97.61	5.31	-39.8	-41.0	20.4	0.00e+00	123	41	0	84934656	52	6267
2026-01-22 22:01:41.53	97.31	5.57	-39.9	-41.2	20.0	0.00e+00	120	41	0	97517568	52	6361
2026-01-22 22:01:45.57	97.00	5.83	-40.0	-41.2	20.3	0.00e+00	123	41	0	110100480	52	6399
2026-01-22 22:01:49.61	96.68	6.09	-40.2	-41.4	20.4	0.00e+00	122	41	0	122683392	52	6513
2026-01-22 22:01:53.65	96.37	6.35	-39.8	-41.0	20.7	0.00e+00	122	41	0	135266304	52	6250
2026-01-22 22:01:57.69	96.04	6.62	-39.5	-40.6	21.0	0.00e+00	123	41	0	147849216	52	5957
2026-01-22 22:02:01.72	95.71	6.88	-39.5	-40.6	21.2	0.00e+00	120	41	0	160432128	52	5992
2026-01-22 22:02:05.76	95.37	7.15	-39.1	-40.2	21.4	0.00e+00	122	41	0	173015040	52	5714
2026-01-22 22:02:09.80	95.03	7.42	-39.2	-40.3	21.5	0.00e+00	123	41	0	185597952	52	5750
2026-01-22 22:02:13.84	94.68	7.69	-38.9	-39.9	21.7	0.00e+00	123	41	0	198180864	52	5524
2026-01-22 22:02:17.88	94.32	7.96	-39.0	-40.1	21.6	0.00e+00	122	41	0	210763776	52	5651
2026-01-22 22:02:21.92	93.96	8.24	-38.7	-39.8	21.7	0.00e+00	122	41	0	223346688	50	6099
2026-01-22 22:02:25.95	93.59	8.51	-38.5	-39.5	22.2	0.00e+00	121	41	0	235929600	50	5891
2026-01-22 22:02:29.99	93.21	8.79	-38.7	-39.7	22.0	0.00e+00	123	41	0	248512512	50	6036
2026-01-22 22:02:34.03	92.82	9.07	-38.0	-39.0	22.6	0.00e+00	123	41	0	261095424	50	5573
2026-01-22 22:02:38.07	92.43	9.35	-37.8	-38.8	22.8	0.00e+00	122	41	0	273678336	50	5457
2026-01-22 22:02:42.11	92.02	9.64	-38.1	-39.1	22.6	0.00e+00	120	41	0	286261248	50	5629
2026-01-22 22:02:46.15	91.61	9.92	-37.8	-38.8	23.0	0.00e+00	123	41	0	298844160	50	5408
2026-01-22 22:02:50.19	91.19	10.21	-37.6	-38.6	23.0	0.00e+00	120	41	0	311427072	48	5965
2026-01-22 22:02:54.22	90.77	10.50	-38.0	-38.9	22.8	0.00e+00	122	41	0	325058560	48	6192
2026-01-22 22:02:58.27	90.33	10.79	-37.3	-38.2	23.3	0.00e+00	123	41	0	337641472	48	5723
2026-01-22 22:03:02.31	89.89	11.09	-37.4	-38.3	23.3	0.00e+00	123	41	0	350224384	48	5764
2026-01-22 22:03:06.34	89.43	11.38	-37.4	-38.4	23.3	0.00e+00	124	41	0	362807296	48	5800
2026-01-22 22:03:10.38	88.97	11.68	-37.2	-38.1	23.5	0.00e+00	120	41	0	375390208	48	5648
2026-01-22 22:03:14.42	88.50	11.97	-37.3	-38.3	23.3	0.00e+00	121	41	0	387973120	48	5783
2026-01-22 22:03:18.45	88.02	12.27	-37.3	-38.2	23.3	0.00e+00	122	41	0	400556032	48	5725
2026-01-22 22:03:22.49	87.52	12.58	-37.3	-38.3	23.5	0.00e+00	123	41	0	413138944	48	5727
2026-01-22 22:03:26.53	87.02	12.88	-37.2	-38.1	23.5	0.00e+00	120	41	0	425721856	48	5625
2026-01-22 22:03:30.56	86.50	13.18	-37.3	-38.3	23.4	0.00e+00	123	41	0	438304768	48	5748
2026-01-22 22:03:34.60	85.98	13.49	-37.4	-38.3	23.3	0.00e+00	120	42	0	450887680	48	5777
2026-01-22 22:03:38.63	85.44	13.80	-37.1	-38.0	23.7	0.00e+00	123	41	0	463470592	48	5564
2026-01-22 22:03:42.67	84.90	14.11	-37.0	-37.9	23.7	0.00e+00	123	41	0	476053504	48	5525
2026-01-22 22:03:46.71	84.34	14.42	-37.1	-38.1	23.6	0.00e+00	123	41	0	488636416	48	5628
2026-01-22 22:03:50.74	83.77	14.73	-37.2	-38.2	23.6	0.00e+00	123	42	0	501219328	48	5673
2026-01-22 22:03:54.78	83.18	15.04	-37.0	-37.9	23.7	0.00e+00	120	42	0	513802240	48	5527
2026-01-22 22:03:58.82	82.58	15.35	-37.5	-38.4	23.2	0.00e+00	122	42	0	526385152	48	5844
2026-01-22 22:04:02.86	81.98	15.67	-37.7	-38.7	23.1	0.00e+00	118	42	0	538968064	48	5999
2026-01-22 22:04:06.89	81.35	15.98	-37.7	-38.7	23.2	0.00e+00	123	41	0	551550976	48	6048
2026-01-22 22:04:10.93	80.72	16.30	-37.6	-38.6	23.1	0.00e+00	122	42	0	564133888	48	5958
2026-01-22 22:04:14.97	80.07	16.61	-37.8	-38.8	23.1	0.00e+00	123	42	0	576716800	48	6103
2026-01-22 22:04:19.01	79.40	16.93	-37.7	-38.7	23.1	0.00e+00	122	42	0	589299712	48	6015
2026-01-22 22:04:23.05	78.73	17.24	-37.5	-38.4	23.4	0.00e+00	120	42	0	601882624	48	5852
2026-01-22 22:04:27.09	78.03	17.56	-37.4	-38.3	23.5	0.00e+00	121	42	0	614465536	48	5764
2026-01-22 22:04:31.13	77.33	17.88	-37.1	-38.1	23.7	0.00e+00	123	41	0	627048448	48	5601
2026-01-22 22:04:35.16	76.61	18.19	-36.8	-37.7	23.9	0.00e+00	123	41	0	639631360	48	5377
2026-01-22 22:04:39.21	75.87	18.50	-36.7	-37.6	24.0	0.00e+00	122	42	0	652214272	46	5967
2026-01-22 22:04:43.25	75.11	18.82	-36.9	-37.8	23.8	0.00e+00	123	42	0	664797184	46	6111
2026-01-22 22:04:47.28	74.35	19.13	-36.9	-37.8	23.9	0.00e+00	123	42	0	677380096	46	6124
2026-01-22 22:04:51.32	73.56	19.44	-36.6	-37.5	24.2	0.00e+00	120	42	0	691011584	46	5877
2026-01-22 22:04:55.36	72.76	19.75	-36.7	-37.6	24.1	0.00e+00	122	42	0	703594496	46	5991
2026-01-22 22:04:59.40	71.94	20.05	-36.3	-37.2	24.4	0.00e+00	123	42	0	716177408	46	5673
2026-01-22 22:05:03.43	71.11	20.35	-36.4	-37.3	24.2	0.00e+00	123	42	0	728760320	46	5748
2026-01-22 22:05:07.47	70.26	20.65	-36.3	-37.2	24.3	0.00e+00	120	42	0	741343232	46	5695
2026-01-22 22:05:11.52	69.39	20.95	-36.4	-37.3	24.2	0.00e+00	123	42	0	753926144	46	5761
2026-01-22 22:05:15.55	68.51	21.25	-36.6	-37.5	24.2	0.00e+00	123	42	0	766509056	46	5886
2026-01-22 22:05:19.59	67.61	21.53	-36.7	-37.6	24.1	0.00e+00	123	42	0	779091968	46	5983
2026-01-22 22:05:23.63	66.69	21.82	-36.6	-37.5	24.2	0.00e+00	120	42	0	791674880	46	5885
2026-01-22 22:05:27.67	65.75	22.10	-36.7	-37.6	24.1	0.00e+00	123	42	0	804257792	46	5974
2026-01-22 22:05:31.71	64.80	22.37	-36.6	-37.5	24.2	0.00e+00	122	42	0	816840704	46	5897
2026-01-22 22:05:35.76	63.83	22.64	-36.8	-37.7	24.1	0.00e+00	122	42	0	829423616	46	6056
2026-01-22 22:05:39.80	62.84	22.91	-36.7	-37.6	24.2	0.00e+00	120	42	0	842006528	46	5969
2026-01-22 22:05:43.84	61.84	23.16	-36.7	-37.6	24.1	0.00e+00	123	42	0	854589440	46	5993
2026-01-22 22:05:47.88	60.82	23.41	-36.4	-37.3	24.4	0.00e+00	123	42	0	867172352	46	5759
2026-01-22 22:05:51.91	59.79	23.65	-36.3	-37.1	24.4	0.00e+00	123	42	0	879755264	46	5652
2026-01-22 22:05:55.95	58.74	23.88	-36.6	-37.5	24.1	0.00e+00	122	42	0	892338176	46	5917
2026-01-22 22:06:00.00	57.67	24.11	-36.5	-37.4	24.3	0.00e+00	123	42	0	904921088	46	5819
2026-01-22 22:06:04.03	56.59	24.32	-36.3	-37.2	24.6	0.00e+00	120	42	0	917504000	46	5681
2026-01-22 22:06:08.07	55.49	24.53	-36.1	-36.9	24.5	0.00e+00	123	42	0	930086912	46	5528
2026-01-22 22:06:12.11	54.38	24.72	-36.1	-37.0	24.6	0.00e+00	123	42	0	942669824	46	5535
2026-01-22 22:06:16.15	53.26	24.91	-36.4	-37.3	24.3	0.00e+00	122	42	0	955252736	46	5784
2026-01-22 22:06:20.19	52.12	25.08	-36.3	-37.2	24.4	0.00e+00	123	42	0	967835648	46	5661
2026-01-22 22:06:24.23	50.97	25.25	-35.8	-36.7	24.8	0.00e+00	123	42	0	980418560	46	5361
2026-01-22 22:06:28.28	49.81	25.40	-35.8	-36.7	24.7	0.00e+00	122	42	0	993001472	44	6009
2026-01-22 22:06:32.31	48.64	25.54	-36.3	-37.2	24.4	0.00e+00	123	42	0	1006632960	44	6379
2026-01-22 22:06:36.35	47.46	25.66	-36.2	-37.1	24.4	0.00e+00	122	42	0	1018167296	44	6290
2026-01-22 22:06:40.39	46.27	25.77	-36.2	-37.1	24.5	0.00e+00	122	42	0	1031798784	44	6338
2026-01-22 22:06:44.43	45.08	25.87	-36.1	-37.0	24.5	0.00e+00	123	42	0	1044381696	44	6244
2026-01-22 22:06:48.48	43.87	25.96	-36.3	-37.2	24.5	0.00e+00	123	42	0	1056964608	44	6351
2026-01-22 22:06:52.51	42.66	26.03	-36.5	-37.4	24.4	0.00e+00	123	42	0	1069547520	44	6543
2026-01-22 22:06:56.55	41.44	26.09	-36.2	-37.1	24.7	0.00e+00	120	42	0	1082130432	44	6289
2026-01-22 22:07:00.59	40.22	26.14	-36.2	-37.1	24.5	0.00e+00	123	42	0	1094713344	44	6338
2026-01-22 22:07:04.63	39.00	26.17	-36.3	-37.2	24.3	0.00e+00	123	42	0	1107296256	44	6377
2026-01-22 22:07:08.67	37.78	26.18	-36.4	-37.3	24.5	0.00e+00	122	42	0	1119879168	44	6449
2026-01-22 22:07:12.71	36.55	26.18	-36.3	-37.2	24.5	0.00e+00	123	42	0	1132462080	44	6411
2026-01-22 22:07:16.75	35.33	26.17	-36.3	-37.2	24.5	0.00e+00	123	42	0	1145044992	44	6356
2026-01-22 22:07:20.79	34.10	26.14	-36.0	-36.8	24.8	0.00e+00	121	42	0	1157627904	44	6129
2026-01-22 22:07:24.83	32.88	26.10	-36.1	-36.9	24.6	0.00e+00	120	42	0	1170210816	44	6191
2026-01-22 22:07:28.88	31.67	26.05	-36.4	-37.3	24.4	0.00e+00	123	42	0	1182793728	44	6436
2026-01-22 22:07:32.91	30.46	25.98	-36.2	-37.1	24.6	0.00e+00	123	42	0	1195376640	44	6347
2026-01-22 22:07:36.95	29.25	25.89	-36.5	-37.4	24.3	0.00e+00	122	42	0	1207959552	44	6515
2026-01-22 22:07:41.00	28.05	25.80	-36.3	-37.1	24.6	0.00e+00	123	42	0	1220542464	44	6341
2026-01-22 22:07:45.04	26.86	25.68	-35.9	-36.8	24.7	0.00e+00	123	42	0	1233125376	44	6103
2026-01-22 22:07:49.08	25.68	25.56	-36.0	-36.9	24.7	0.00e+00	122	42	0	1245708288	44	6153
2026-01-22 22:07:53.12	24.51	25.43	-36.0	-36.9	24.5	0.00e+00	123	42	0	1258291200	44	6164
2026-01-22 22:07:57.15	23.35	25.28	-36.0	-36.9	24.6	0.00e+00	120	42	0	1270874112	44	6162
2026-01-22 22:08:01.20	22.20	25.12	-36.0	-36.9	24.6	0.00e+00	122	42	0	1283457024	44	6160
2026-01-22 22:08:05.24	21.06	24.95	-36.0	-36.8	24.6	0.00e+00	123	42	0	1296039936	44	6130
2026-01-22 22:08:09.28	19.93	24.76	-35.7	-36.6	25.0	0.00e+00	123	42	0	1308622848	44	5928
2026-01-22 22:08:13.32	18.82	24.57	-35.9	-36.8	24.8	0.00e+00	122	42	0	1322254336	44	6065
2026-01-22 22:08:17.36	17.73	24.37	-36.4	-37.3	24.4	0.00e+00	123	42	0	1334837248	44	6483
2026-01-22 22:08:21.40	16.64	24.15	-36.6	-37.5	24.1	0.00e+00	123	42	0	1347420160	44	6618
2026-01-22 22:08:25.44	15.58	23.93	-36.3	-37.2	24.3	0.00e+00	120	42	0	1360003072	44	6370
2026-01-22 22:08:29.48	14.52	23.70	-36.2	-37.1	24.6	0.00e+00	120	42	0	1372585984	44	6312
2026-01-22 22:08:33.52	13.49	23.46	-36.4	-37.3	24.4	0.00e+00	122	42	0	1385168896	44	6450
2026-01-22 22:08:37.56	12.47	23.21	-36.0	-36.9	24.5	0.00e+00	123	42	0	1397751808	44	6137
2026-01-22 22:08:41.60	11.47	22.96	-36.0	-36.9	24.5	0.00e+00	123	42	0	1410334720	44	6201
2026-01-22 22:08:45.64	10.48	22.70	-36.7	-37.6	24.1	0.00e+00	121	42	0	1422917632	44	6685
2026-01-22 22:08:49.68	9.51	22.43	-36.2	-37.1	24.5	0.00e+00	120	42	0	1435500544	46	5616
2026-01-22 22:08:53.72	8.56	22.16	-36.0	-36.9	24.7	0.00e+00	122	42	0	1448083456	46	5496
2026-01-22 22:08:57.76	7.62	21.88	-36.1	-36.9	24.6	0.00e+00	121	42	0	1460666368	46	5530
2026-01-22 22:09:01.80	6.70	21.60	-36.0	-36.9	24.7	0.00e+00	123	42	0	1473249280	46	5506
2026-01-22 22:09:05.85	5.80	21.31	-36.4	-37.2	24.5	0.00e+00	120	42	0	1485832192	46	5719
2026-01-22 22:09:09.89	4.91	21.02	-35.8	-36.6	24.9	0.00e+00	123	42	0	1498415104	44	5975
2026-01-22 22:09:13.93	4.04	20.72	-35.9	-36.8	24.7	0.00e+00	123	42	0	1510998016	44	6108
2026-01-22 22:09:17.97	3.19	20.42	-36.4	-37.3	24.3	0.00e+00	123	42	0	1523580928	44	6464
2026-01-22 22:09:22.01	2.36	20.12	-36.3	-37.2	24.4	0.00e+00	122	42	0	1536163840	44	6422
2026-01-22 22:09:26.05	1.54	19.82	-36.7	-37.6	24.1	0.00e+00	123	42	0	1548746752	44	6683
2026-01-22 22:09:30.09	0.74	19.51	-36.2	-37.1	24.4	0.00e+00	120	42	0	1561329664	44	6304
2026-01-22 22:09:34.13	359.95	19.20	-36.4	-37.3	24.4	0.00e+00	120	42	0	1573912576	44	6428
2026-01-22 22:09:38.17	359.18	18.89	-37.0	-37.9	23.8	0.00e+00	122	42	0	1586495488	46	6190
2026-01-22 22:09:42.21	358.43	18.58	-37.1	-38.0	23.7	0.00e+00	123	42	0	1599078400	46	6259
2026-01-22 22:09:46.25	357.69	18.27	-37.0	-38.0	23.7	0.00e+00	123	42	0	1611661312	46	6224
2026-01-22 22:09:50.29	356.97	17.95	-37.1	-38.0	23.6	0.00e+00	121	42	0	1624244224	46	6277
2026-01-22 22:09:54.33	356.26	17.64	-36.9	-37.9	23.7	0.00e+00	120	42	0	1637875712	46	6148
2026-01-22 22:09:58.37	355.57	17.32	-36.8	-37.7	23.9	0.00e+00	122	42	0	1650458624	46	6050
2026-01-22 22:10:02.40	354.89	17.01	-36.4	-37.3	24.3	0.00e+00	122	42	0	1663041536	46	5726
2026-01-22 22:10:06.44	354.23	16.70	-36.5	-37.4	24.2	0.00e+00	120	42	0	1675624448	46	5804
2026-01-22 22:10:10.49	353.57	16.38	-36.9	-37.8	23.8	0.00e+00	120	42	0	1688207360	46	6089
2026-01-22 22:10:14.53	352.94	16.06	-36.7	-37.7	23.8	0.00e+00	122	42	0	1700790272	46	5999
2026-01-22 22:10:18.57	352.32	15.75	-36.6	-37.5	24.0	0.00e+00	122	42	0	1713373184	46	5910
2026-01-22 22:10:22.61	351.71	15.44	-37.1	-38.0	23.7	0.00e+00	123	42	0	1725956096	46	6265
2026-01-22 22:10:26.65	351.11	15.12	-37.4	-38.4	23.2	0.00e+00	122	42	0	1738539008	46	6532
2026-01-22 22:10:30.69	350.53	14.81	-37.0	-37.9	23.5	0.00e+00	123	42	0	1751121920	46	6178
2026-01-22 22:10:34.73	349.95	14.50	-37.0	-37.9	23.7	0.00e+00	120	41	0	1763704832	46	6155
2026-01-22 22:10:38.78	349.39	14.19	-37.7	-38.6	23.1	0.00e+00	123	41	0	1776287744	46	6722
2026-01-22 22:10:42.82	348.84	13.88	-37.9	-38.9	22.7	0.00e+00	122	42	0	1788870656	48	6188
2026-01-22 22:10:46.86	348.31	13.58	-37.6	-38.5	23.1	0.00e+00	120	42	0	1801453568	48	5915
2026-01-22 22:10:50.90	347.78	13.27	-37.3	-38.3	23.4	0.00e+00	123	42	0	1814036480	48	5751
2026-01-22 22:10:54.94	347.27	12.97	-37.9	-38.8	22.9	0.00e+00	122	41	0	1826619392	48	6123
2026-01-22 22:10:58.98	346.77	12.66	-37.9	-38.9	22.7	0.00e+00	122	41	0	1839202304	48	6202
2026-01-22 22:11:03.01	346.28	12.36	-37.4	-38.4	23.0	0.00e+00	120	41	0	1851785216	48	5822
2026-01-22 22:11:07.06	345.79	12.06	-36.8	-37.7	23.7	0.00e+00	120	41	0	1864368128	48	5402
2026-01-22 22:11:11.10	345.32	11.76	-37.2	-38.1	23.5	0.00e+00	123	41	0	1876951040	46	6350
2026-01-22 22:11:15.14	344.86	11.47	-38.0	-39.0	22.8	0.00e+00	121	41	0	1889533952	48	6214
2026-01-22 22:11:19.18	344.40	11.17	-38.2	-39.2	22.4	0.00e+00	120	41	0	1902116864	48	6412
2026-01-22 22:11:23.22	343.96	10.88	-37.9	-38.9	22.5	0.00e+00	122	41	0	1914699776	48	6164
2026-01-22 22:11:27.25	343.53	10.59	-37.6	-38.5	22.9	0.00e+00	122	41	0	1927282688	48	5914
2026-01-22 22:11:31.29	343.10	10.30	-37.7	-38.6	23.0	0.00e+00	120	41	0	1939865600	48	5983
2026-01-22 22:11:35.33	342.68	10.01	-38.2	-39.2	22.6	0.00e+00	120	41	0	1953497088	48	6384
2026-01-22 22:11:39.37	342.27	9.73	-38.6	-39.6	22.1	0.00e+00	122	41	0	1966080000	48	6715
2026-01-22 22:11:43.41	341.87	9.44	-38.7	-39.7	21.9	0.00e+00	123	41	0	1978662912	50	6049
2026-01-22 22:11:47.44	341.48	9.16	-38.6	-39.6	22.0	0.00e+00	123	41	0	1991245824	50	5981
2026-01-22 22:11:51.48	341.09	8.88	-38.6	-39.6	22.1	0.00e+00	123	41	0	2003828736	50	5962
2026-01-22 22:11:55.53	340.71	8.60	-38.7	-39.7	21.9	0.00e+00	123	41	0	2016411648	50	6014
2026-01-22 22:11:59.57	340.34	8.33	-38.9	-39.9	21.9	0.00e+00	123	41	0	2028994560	50	6184
2026-01-22 22:12:03.61	339.98	8.05	-39.4	-40.5	21.3	0.00e+00	123	41	0	2041577472	50	6585
2026-01-22 22:12:07.64	339.63	7.78	-39.7	-40.8	21.0	0.00e+00	120	41	0	2054160384	52	6121
2026-01-22 22:12:11.68	339.28	7.51	-39.6	-40.8	20.9	0.00e+00	122	41	0	2066743296	52	6077
2026-01-22 22:12:15.72	338.93	7.24	-39.4	-40.5	21.1	0.00e+00	122	41	0	2079326208	52	5917
2026-01-22 22:12:19.77	338.60	6.97	-39.3	-40.3	21.4	0.00e+00	123	41	0	2091909120	52	5791
2026-01-22 22:12:23.81	338.27	6.71	-39.5	-40.6	21.1	0.00e+00	123	41	0	2104492032	52	5936
2026-01-22 22:12:27.85	337.94	6.44	-39.5	-40.6	21.1	0.00e+00	122	41	0	2117074944	52	5954
2026-01-22 22:12:31.89	337.63	6.18	-39.8	-41.0	20.7	0.00e+00	123	41	0	2129657856	52	6212
2026-01-22 22:12:35.93	337.32	5.92	-40.1	-41.3	20.1	0.00e+00	123	41	0	2142240768	52	6489
2026-01-22 22:12:39.96	337.01	5.66	-41.0	-42.4	18.7	0.00e+00	123	41	0	2154823680	54	6569
2026-01-22 22:12:44.00	336.71	5.41	-42.5	-44.3	16.3	0.00e+00	122	41	0	2167406592	56	7285
2026-01-22 22:12:48.04	336.42	5.15	-43.6	-46.1	13.6	3.80e-06	123	41	0	2179989504	58	7913
2026-01-22 22:12:52.08	336.13	4.90	-44.9	-49.0	9.7	5.74e-03	123	41	0	2192572416	60	9843
2026-01-22 22:12:56.12	335.84	4.65	-45.6	-53.2	3.9	1.17e+00	0	41	104	2205155328	60	15984
2026-01-22 22:13:00.15	335.56	4.40	-45.9	-56.4	3.8	1.50e+00	0	41	104	2205155328	60	23119
2026-01-22 22:13:04.19	335.29	4.15	-45.8	-58.5	3.5	1.52e+00	0	41	104	2205155328	60	29665
2026-01-22 22:13:08.23	335.02	3.91	-45.9	-58.4	3.5	1.52e+00	0	42	104	2205155328	60	29059
2026-01-22 22:13:12.27	334.76	3.66	-45.8	-58.6	3.5	1.52e+00	0	42	104	2205155328	60	29794
2026-01-22 22:13:16.31	334.50	3.42	-45.8	-58.6	3.5	1.52e+00	0	42	104	2205155328	60	29910
2026-01-22 22:13:20.34	334.24	3.18	-45.8	-58.6	3.5	1.51e+00	0	41	104	2205155328	60	29746
2026-01-22 22:13:24.38	333.99	2.94	-49.9	-62.7	3.5	1.52e+00	0	41	104	2205155328	60	48082
2026-01-22 22:13:28.42	333.74	2.70	-50.7	-63.6	3.5	1.52e+00	0	42	104	2205155328	60	52992
2026-01-22 22:13:32.46	333.50	2.46	-50.9	-63.8	3.5	1.51e+00	0	42	104	2205155328	60	54294
2026-01-22 22:13:36.50	333.26	2.22	-51.0	-63.8	3.5	1.52e+00	0	42	104	2205155328	60	54671
2026-01-22 22:13:40.54	333.03	1.99	-50.9	-63.7	3.5	1.52e+00	0	42	104	2205155328	60	54009
2026-01-22 22:13:44.58	332.80	1.76	-50.8	-63.7	3.5	1.52e+00	0	42	104	2205155328	60	53957
2026-01-22 22:13:48.62	332.57	1.53	-50.9	-63.7	3.5	1.52e+00	0	42	104	2205155328	60	53993
2026-01-22 22:13:52.66	332.35	1.30	-50.9	-63.8	3.5	1.52e+00	0	42	104	2205155328	60	54361
2026-01-22 22:13:56.69	332.13	1.07	-50.9	-63.8	3.5	1.52e+00	0	42	104	2205155328	60	54208
2026-01-22 22:14:00.73	331.91	0.84	-50.9	-63.8	3.5	1.52e+00	0	42	104	2205155328	60	54196
2026-01-22 22:14:04.77	331.70	0.61	-50.9	-63.8	3.5	1.52e+00	0	42	104	2205155328	60	54271
2026-01-22 22:14:08.81	331.49	0.39	-50.9	-63.7	3.5	1.52e+00	0	42	104	2205155328	60	53870
2026-01-22 22:14:12.85	331.29	0.17	-50.9	-63.8	3.5	1.52e+00	0	42	104	2205155328	60	54383
2026-01-22 22:14:16.88	331.08	-0.05	-50.9	-63.8	3.5	1.52e+00	0	42	104	2205155328	60	54116

#Closed at: 2026-01-22 22:14:17
#Recorded file [2205 MB]: D:/lorett/data/35029_260123_100008.dat