passes_logs/2026/01/22/R4.6S_Anadyr/R4.6S_Anadyr__20260122_161416_NOAA_20_JPSS-1_rec.log

#Pass ID: 20260122_161416_NOAA 20 (JPSS-1)
#Satellite: NOAA 20 (JPSS-1)
#Configuration: NOAA 20
#almurnet v.1.7.20251203
#Start time: 2026-01-22 16:14:19

#Version: 2.2.20231116
#Station: R4.6S_Anadyr
#Location: 177.4865 lon 64.73178 lat
#TLE: 1 43013U 17073A   26021.46221703  .00000173  00000+0  10299-3 0  9999
#TLE: 2 43013  98.7644 322.3335 0001238  29.7597 330.3649 14.19538314423652

#Time	Az	El	Level	Level2	SNR	BER	BlckErr	Temp	State	Recorded	gain1	gain2
2026-01-22 16:14:19.84	25.11	0.19	-52.2	-66.0	3.3	1.54e+00	0	40	0	0	60	72489
2026-01-22 16:14:23.87	24.97	0.42	-51.5	-66.7	3.6	1.51e+00	0	40	104	0	60	78143
2026-01-22 16:14:27.91	24.82	0.66	-51.2	-66.5	3.6	1.51e+00	0	40	104	0	60	76058
2026-01-22 16:14:31.95	24.67	0.89	-51.0	-66.2	3.6	1.51e+00	0	40	104	0	60	73667
2026-01-22 16:14:35.99	24.52	1.13	-50.5	-65.8	3.6	1.51e+00	0	41	104	0	60	70607
2026-01-22 16:14:40.03	24.37	1.37	-50.0	-65.1	3.6	1.51e+00	0	41	104	0	60	65396
2026-01-22 16:14:44.07	24.21	1.62	-49.6	-64.8	3.6	1.51e+00	0	41	104	0	60	62875
2026-01-22 16:14:48.11	24.05	1.86	-49.6	-64.8	3.6	1.51e+00	0	41	104	0	60	63004
2026-01-22 16:14:52.14	23.89	2.11	-49.6	-64.6	3.6	1.51e+00	0	41	104	0	60	61281
2026-01-22 16:14:56.18	23.72	2.35	-49.6	-64.8	3.6	1.51e+00	0	41	104	0	60	62464
2026-01-22 16:15:00.23	23.55	2.60	-49.6	-64.7	3.6	1.51e+00	0	41	104	0	60	62417
2026-01-22 16:15:04.27	23.38	2.86	-49.6	-64.4	3.6	1.51e+00	0	41	104	0	60	60329
2026-01-22 16:15:08.30	23.21	3.11	-49.7	-64.2	3.6	1.51e+00	0	41	104	0	60	58952
2026-01-22 16:15:12.35	23.03	3.37	-49.6	-62.8	3.6	1.51e+00	0	41	104	0	60	50126
2026-01-22 16:15:16.39	22.85	3.62	-49.6	-63.6	3.9	1.51e+00	0	41	104	2097152	60	54469
2026-01-22 16:15:20.42	22.66	3.88	-47.4	-51.5	12.6	1.98e-04	28	41	0	2097152	60	13627
2026-01-22 16:15:24.46	22.47	4.15	-45.8	-48.4	15.6	0.00e+00	6	41	0	9437184	60	9459
2026-01-22 16:15:28.50	22.28	4.41	-45.1	-47.3	16.6	0.00e+00	22	41	0	16777216	60	8399
2026-01-22 16:15:32.54	22.08	4.68	-45.0	-47.2	17.0	0.00e+00	92	41	0	24117248	60	8256
2026-01-22 16:15:36.57	21.88	4.95	-43.8	-45.5	18.8	0.00e+00	0	41	0	31457280	60	6787
2026-01-22 16:15:40.61	21.68	5.22	-43.6	-45.2	19.0	0.00e+00	30	41	0	39845888	60	6576
2026-01-22 16:15:44.64	21.47	5.49	-43.0	-44.5	19.9	0.00e+00	33	41	0	47185920	60	6048
2026-01-22 16:15:48.68	21.26	5.77	-43.0	-44.5	19.7	0.00e+00	92	41	0	54525952	60	6058
2026-01-22 16:15:52.71	21.04	6.05	-42.7	-44.1	20.2	0.00e+00	6	41	0	61865984	58	6501
2026-01-22 16:15:56.75	20.82	6.33	-42.9	-44.2	20.0	0.00e+00	0	41	0	69206016	58	6607
2026-01-22 16:16:00.79	20.59	6.61	-42.6	-43.9	20.3	0.00e+00	0	41	0	77594624	58	6374
2026-01-22 16:16:04.83	20.36	6.90	-42.6	-43.9	20.3	0.00e+00	92	41	0	84934656	58	6352
2026-01-22 16:16:08.87	20.12	7.19	-42.5	-43.8	20.5	0.00e+00	21	41	0	92274688	58	6302
2026-01-22 16:16:12.90	19.88	7.48	-42.9	-44.3	20.1	0.00e+00	21	41	0	99614720	58	6629
2026-01-22 16:16:16.94	19.63	7.78	-42.3	-43.5	20.7	0.00e+00	0	41	0	108003328	58	6079
2026-01-22 16:16:20.98	19.38	8.07	-42.4	-43.7	20.8	0.00e+00	92	41	0	115343360	58	6184
2026-01-22 16:16:25.01	19.13	8.38	-42.0	-43.2	21.2	0.00e+00	21	41	0	122683392	58	5852
2026-01-22 16:16:29.05	18.86	8.68	-41.9	-43.0	21.4	0.00e+00	62	41	0	130023424	58	5751
2026-01-22 16:16:33.09	18.59	8.99	-41.9	-43.0	21.4	0.00e+00	0	41	0	137363456	56	6455
2026-01-22 16:16:37.13	18.32	9.30	-41.7	-42.8	21.6	0.00e+00	18	41	0	145752064	56	6306
2026-01-22 16:16:41.17	18.04	9.61	-41.7	-42.8	21.6	0.00e+00	62	41	0	153092096	56	6315
2026-01-22 16:16:45.20	17.75	9.93	-42.2	-43.4	21.1	0.00e+00	57	41	0	160432128	56	6694
2026-01-22 16:16:49.24	17.45	10.25	-42.3	-43.5	21.0	0.00e+00	0	41	0	167772160	56	6806
2026-01-22 16:16:53.28	17.15	10.57	-42.3	-43.5	21.4	0.00e+00	2	41	0	176160768	56	6772
2026-01-22 16:16:57.31	16.84	10.90	-42.1	-43.3	21.5	0.00e+00	2	41	0	183500800	56	6636
2026-01-22 16:17:01.35	16.53	11.23	-41.9	-43.0	21.6	0.00e+00	0	41	0	190840832	56	6410
2026-01-22 16:17:05.39	16.20	11.56	-41.8	-42.9	21.8	0.00e+00	92	41	0	198180864	56	6348
2026-01-22 16:17:09.42	15.87	11.90	-41.6	-42.7	21.8	0.00e+00	61	41	0	205520896	56	6228
2026-01-22 16:17:13.46	15.53	12.24	-41.6	-42.6	21.8	0.00e+00	25	41	0	213909504	56	6171
2026-01-22 16:17:17.50	15.18	12.59	-41.5	-42.6	22.1	0.00e+00	23	41	0	221249536	56	6104
2026-01-22 16:17:21.54	14.83	12.94	-41.6	-42.7	22.0	0.00e+00	92	41	0	228589568	56	6210
2026-01-22 16:17:25.58	14.46	13.29	-41.6	-42.7	21.9	0.00e+00	0	41	0	235929600	56	6225
2026-01-22 16:17:29.62	14.09	13.65	-41.4	-42.4	22.2	0.00e+00	6	41	0	244318208	56	6004
2026-01-22 16:17:33.66	13.70	14.01	-41.6	-42.7	21.9	0.00e+00	5	41	0	251658240	56	6241
2026-01-22 16:17:37.70	13.31	14.37	-41.7	-42.7	21.9	0.00e+00	90	41	0	258998272	56	6245
2026-01-22 16:17:41.74	12.90	14.74	-41.3	-42.4	22.3	0.00e+00	7	41	0	266338304	56	5979
2026-01-22 16:17:45.78	12.49	15.12	-41.2	-42.2	22.5	0.00e+00	0	41	0	273678336	56	5852
2026-01-22 16:17:49.81	12.06	15.49	-41.0	-42.0	22.5	0.00e+00	23	41	0	282066944	56	5751
2026-01-22 16:17:53.86	11.62	15.88	-41.0	-42.0	22.6	0.00e+00	92	41	0	289406976	56	5725
2026-01-22 16:17:57.90	11.17	16.26	-41.0	-42.0	22.6	0.00e+00	0	41	0	296747008	56	5748
2026-01-22 16:18:01.94	10.71	16.65	-41.4	-42.5	22.4	0.00e+00	0	41	0	304087040	56	6048
2026-01-22 16:18:05.98	10.24	17.05	-41.6	-42.7	22.1	0.00e+00	0	41	0	312475648	56	6211
2026-01-22 16:18:10.02	9.75	17.45	-41.0	-42.0	22.7	0.00e+00	81	41	0	319815680	56	5746
2026-01-22 16:18:14.06	9.25	17.85	-41.1	-42.1	22.7	0.00e+00	0	41	0	327155712	56	5779
2026-01-22 16:18:18.09	8.74	18.26	-40.8	-41.8	22.7	0.00e+00	16	41	0	334495744	54	6294
2026-01-22 16:18:22.13	8.21	18.67	-41.1	-42.1	22.8	0.00e+00	0	41	0	341835776	54	6474
2026-01-22 16:18:26.17	7.66	19.09	-41.1	-42.1	22.7	0.00e+00	16	41	0	350224384	54	6494
2026-01-22 16:18:30.20	7.11	19.51	-41.1	-42.1	22.7	0.00e+00	66	41	0	357564416	54	6503
2026-01-22 16:18:34.24	6.53	19.93	-41.3	-42.3	22.5	0.00e+00	0	41	0	364904448	54	6642
2026-01-22 16:18:38.28	5.94	20.36	-41.5	-42.5	22.3	0.00e+00	92	41	0	372244480	54	6817
2026-01-22 16:18:42.31	5.33	20.79	-42.0	-43.2	21.8	0.00e+00	0	41	0	380633088	56	6542
2026-01-22 16:18:46.35	4.70	21.23	-41.6	-42.7	22.2	0.00e+00	0	41	0	387973120	56	6226
2026-01-22 16:18:50.37	4.06	21.67	-41.5	-42.5	22.4	0.00e+00	0	41	0	395313152	56	6091
2026-01-22 16:18:54.41	3.40	22.11	-41.3	-42.3	22.6	0.00e+00	90	41	0	402653184	56	5911
2026-01-22 16:18:58.45	2.71	22.56	-41.3	-42.3	22.5	0.00e+00	0	41	0	409993216	56	5941
2026-01-22 16:19:02.48	2.01	23.01	-41.1	-42.1	22.7	0.00e+00	6	41	0	418381824	56	5763
2026-01-22 16:19:06.52	1.28	23.46	-41.0	-42.0	22.9	0.00e+00	0	41	0	425721856	56	5708
2026-01-22 16:19:10.56	0.54	23.92	-41.2	-42.2	22.7	0.00e+00	92	41	0	433061888	56	5893
2026-01-22 16:19:14.59	359.77	24.38	-41.2	-42.2	22.6	0.00e+00	65	41	0	440401920	56	5895
2026-01-22 16:19:18.63	358.97	24.84	-41.2	-42.2	22.7	0.00e+00	64	41	0	447741952	56	5882
2026-01-22 16:19:22.67	358.16	25.30	-41.7	-42.8	22.2	0.00e+00	5	41	0	456130560	56	6249
2026-01-22 16:19:26.71	357.32	25.77	-42.8	-44.0	21.2	0.00e+00	92	41	0	463470592	56	7208
2026-01-22 16:19:30.75	356.45	26.23	-42.8	-44.0	21.1	0.00e+00	6	41	0	470810624	58	6427
2026-01-22 16:19:34.79	355.55	26.70	-43.0	-44.2	20.9	0.00e+00	0	41	0	478150656	58	6607
2026-01-22 16:19:38.83	354.63	27.17	-42.5	-43.7	21.3	0.00e+00	52	41	0	486539264	58	6226
2026-01-22 16:19:42.86	353.69	27.63	-42.5	-43.7	21.2	0.00e+00	92	41	0	493879296	58	6237
2026-01-22 16:19:46.90	352.71	28.10	-43.0	-44.2	20.8	0.00e+00	0	41	0	501219328	58	6604
2026-01-22 16:19:50.94	351.70	28.56	-42.8	-44.0	21.1	0.00e+00	0	41	0	508559360	58	6436
2026-01-22 16:19:54.98	350.67	29.02	-42.7	-43.9	21.2	0.00e+00	0	41	0	515899392	58	6372
2026-01-22 16:19:59.01	349.60	29.48	-42.7	-43.9	21.2	0.00e+00	87	41	0	524288000	58	6331
2026-01-22 16:20:03.05	348.51	29.93	-42.9	-44.2	21.0	0.00e+00	0	41	0	531628032	58	6550
2026-01-22 16:20:07.09	347.38	30.38	-42.2	-43.3	21.7	0.00e+00	2	41	0	538968064	58	5933
2026-01-22 16:20:11.13	346.22	30.82	-43.2	-44.5	20.6	0.00e+00	92	41	0	546308096	58	6783
2026-01-22 16:20:15.16	345.03	31.26	-44.0	-45.4	19.9	0.00e+00	29	41	0	554696704	60	6768
2026-01-22 16:20:19.20	343.80	31.69	-44.9	-46.6	18.6	0.00e+00	0	41	0	562036736	60	7719
2026-01-22 16:20:23.24	342.54	32.10	-45.2	-46.9	18.4	0.00e+00	66	41	0	569376768	60	8037
2026-01-22 16:20:27.27	341.26	32.51	-45.6	-47.5	17.8	0.00e+00	90	41	0	576716800	60	8556
2026-01-22 16:20:31.31	339.93	32.91	-46.4	-48.6	16.7	0.00e+00	2	41	0	584056832	60	9710
2026-01-22 16:20:35.35	338.58	33.29	-46.7	-49.0	16.3	0.00e+00	0	41	0	592445440	60	10242
2026-01-22 16:20:39.38	337.19	33.66	-45.3	-47.1	18.2	0.00e+00	0	41	0	599785472	60	8193
2026-01-22 16:20:43.42	335.77	34.01	-44.2	-45.6	19.7	0.00e+00	92	41	0	607125504	60	6923
2026-01-22 16:20:47.47	334.32	34.35	-44.1	-45.5	20.0	0.00e+00	14	41	0	614465536	60	6800
2026-01-22 16:20:51.51	332.84	34.67	-42.8	-44.0	21.1	0.00e+00	0	41	0	622854144	60	5739
2026-01-22 16:20:55.55	331.33	34.97	-42.5	-43.6	21.6	0.00e+00	0	41	0	630194176	58	6143
2026-01-22 16:20:59.58	329.80	35.25	-42.0	-43.1	22.0	0.00e+00	92	41	0	637534208	56	6476
2026-01-22 16:21:03.62	328.24	35.51	-41.6	-42.6	22.4	0.00e+00	66	41	0	644874240	56	6170
2026-01-22 16:21:07.65	326.66	35.74	-41.3	-42.3	22.8	0.00e+00	23	41	0	652214272	56	5952
2026-01-22 16:21:11.69	325.05	35.95	-40.5	-41.4	23.5	0.00e+00	20	41	0	660602880	54	6024
2026-01-22 16:21:15.73	323.42	36.14	-39.8	-40.6	24.2	0.00e+00	90	41	0	667942912	52	6138
2026-01-22 16:21:19.77	321.77	36.30	-40.0	-40.9	23.9	0.00e+00	62	41	0	675282944	52	6351
2026-01-22 16:21:23.81	320.11	36.44	-40.1	-41.1	23.8	0.00e+00	68	41	0	682622976	52	6465
2026-01-22 16:21:27.85	318.44	36.55	-39.4	-40.2	24.6	0.00e+00	37	41	0	691011584	52	5887
2026-01-22 16:21:31.89	316.76	36.63	-40.0	-40.8	24.0	0.00e+00	90	41	0	698351616	52	6312
2026-01-22 16:21:35.92	315.07	36.68	-40.6	-41.5	23.4	0.00e+00	0	41	0	705691648	52	6811
2026-01-22 16:21:39.96	313.38	36.70	-41.2	-42.2	22.7	0.00e+00	68	41	0	713031680	54	6576
2026-01-22 16:21:44.00	311.68	36.69	-41.3	-42.3	22.7	0.00e+00	0	41	0	720371712	54	6652
2026-01-22 16:21:48.04	309.99	36.66	-41.2	-42.1	22.8	0.00e+00	92	41	0	728760320	54	6524
2026-01-22 16:21:52.08	308.30	36.60	-41.7	-42.7	22.3	0.00e+00	0	41	0	736100352	54	7005
2026-01-22 16:21:56.12	306.62	36.51	-41.9	-42.9	22.3	0.00e+00	0	41	0	743440384	56	6355
2026-01-22 16:22:00.16	304.95	36.39	-42.2	-43.3	21.8	0.00e+00	91	41	0	750780416	56	6679
2026-01-22 16:22:04.20	303.29	36.24	-43.0	-44.3	21.0	0.00e+00	43	41	0	759169024	58	6635
2026-01-22 16:22:08.24	301.65	36.07	-42.5	-43.6	21.5	0.00e+00	12	41	0	766509056	58	6159
2026-01-22 16:22:12.27	300.03	35.88	-42.8	-44.0	21.1	0.00e+00	15	41	0	773849088	58	6417
2026-01-22 16:22:16.31	298.43	35.66	-42.8	-44.0	21.1	0.00e+00	91	41	0	781189120	58	6441
2026-01-22 16:22:20.35	296.85	35.41	-43.0	-44.3	21.0	0.00e+00	0	41	0	788529152	58	6617
2026-01-22 16:22:24.39	295.30	35.14	-42.3	-43.4	21.8	0.00e+00	66	41	0	796917760	58	5987
2026-01-22 16:22:28.42	293.77	34.86	-41.8	-42.8	22.4	0.00e+00	14	41	0	804257792	56	6279
2026-01-22 16:22:32.46	292.27	34.55	-41.9	-43.0	22.2	0.00e+00	92	41	0	811597824	56	6407
2026-01-22 16:22:36.50	290.80	34.22	-41.7	-42.7	22.5	0.00e+00	16	41	0	818937856	56	6208
2026-01-22 16:22:40.54	289.36	33.88	-42.1	-43.2	21.9	0.00e+00	0	41	0	827326464	56	6612
2026-01-22 16:22:44.58	287.95	33.51	-42.3	-43.4	21.8	0.00e+00	49	41	0	834666496	56	6707
2026-01-22 16:22:48.62	286.57	33.14	-42.9	-44.1	21.1	0.00e+00	92	41	0	842006528	58	6514
2026-01-22 16:22:52.66	285.23	32.75	-43.3	-44.6	20.8	0.00e+00	6	41	0	849346560	58	6865
2026-01-22 16:22:56.69	283.92	32.35	-42.6	-43.8	21.5	0.00e+00	19	41	0	856686592	58	6277
2026-01-22 16:23:00.73	282.64	31.94	-43.2	-44.5	20.8	0.00e+00	6	41	0	865075200	58	6808
2026-01-22 16:23:04.77	281.39	31.51	-42.9	-44.1	21.1	0.00e+00	92	41	0	872415232	58	6510
2026-01-22 16:23:08.81	280.17	31.08	-43.0	-44.2	21.0	0.00e+00	65	41	0	879755264	58	6605
2026-01-22 16:23:12.84	278.99	30.64	-43.0	-44.2	20.9	0.00e+00	15	41	0	887095296	58	6577
2026-01-22 16:23:16.89	277.84	30.20	-43.4	-44.7	20.3	0.00e+00	62	41	0	895483904	58	6937
2026-01-22 16:23:20.92	276.72	29.75	-42.8	-44.0	21.2	0.00e+00	92	41	0	902823936	58	6408
2026-01-22 16:23:24.96	275.63	29.29	-42.6	-43.7	21.5	0.00e+00	0	41	0	910163968	58	6225
2026-01-22 16:23:29.00	274.57	28.83	-41.9	-43.0	22.1	0.00e+00	65	41	0	917504000	58	5720
2026-01-22 16:23:33.04	273.55	28.37	-41.6	-42.7	22.5	0.00e+00	63	41	0	924844032	56	6186
2026-01-22 16:23:37.07	272.55	27.90	-41.2	-42.2	22.9	0.00e+00	0	41	0	933232640	56	5877
2026-01-22 16:23:41.11	271.58	27.43	-40.3	-41.2	23.7	0.00e+00	0	41	0	940572672	54	5858
2026-01-22 16:23:45.15	270.64	26.97	-40.1	-41.0	23.9	0.00e+00	0	41	0	947912704	54	5699
2026-01-22 16:23:49.19	269.73	26.50	-40.1	-41.0	23.9	0.00e+00	90	41	0	955252736	54	5696
2026-01-22 16:23:53.23	268.84	26.03	-39.8	-40.7	24.1	0.00e+00	17	41	0	963641344	54	5523
2026-01-22 16:23:57.27	267.98	25.56	-39.6	-40.4	24.3	0.00e+00	16	41	0	970981376	52	6003
2026-01-22 16:24:01.31	267.15	25.10	-39.8	-40.7	24.1	0.00e+00	0	41	0	978321408	52	6215
2026-01-22 16:24:05.35	266.34	24.63	-40.0	-40.9	24.0	0.00e+00	90	41	0	985661440	52	6325
2026-01-22 16:24:09.39	265.55	24.17	-40.0	-40.9	24.0	0.00e+00	62	41	0	993001472	52	6351
2026-01-22 16:24:13.42	264.79	23.71	-40.1	-41.0	23.7	0.00e+00	19	41	0	1001390080	52	6403
2026-01-22 16:24:17.46	264.05	23.25	-40.4	-41.3	23.5	0.00e+00	24	41	0	1008730112	52	6682
2026-01-22 16:24:21.50	263.33	22.80	-40.4	-41.3	23.6	0.00e+00	90	41	0	1016070144	52	6640
2026-01-22 16:24:25.53	262.63	22.35	-40.5	-41.4	23.4	0.00e+00	7	41	0	1023410176	52	6716
2026-01-22 16:24:29.57	261.95	21.90	-40.6	-41.5	23.3	0.00e+00	0	41	0	1031798784	52	6828
2026-01-22 16:24:33.61	261.29	21.46	-40.6	-41.5	23.3	0.00e+00	0	41	0	1039138816	54	6075
2026-01-22 16:24:37.65	260.65	21.02	-40.7	-41.7	23.1	0.00e+00	92	41	0	1046478848	54	6203
2026-01-22 16:24:41.69	260.02	20.58	-41.2	-42.2	22.8	0.00e+00	7	41	0	1053818880	54	6581
2026-01-22 16:24:45.73	259.42	20.15	-41.2	-42.2	22.7	0.00e+00	0	41	0	1061158912	54	6592
2026-01-22 16:24:49.77	258.83	19.72	-41.4	-42.4	22.5	0.00e+00	57	41	0	1069547520	54	6713
2026-01-22 16:24:53.80	258.26	19.30	-41.4	-42.4	22.4	0.00e+00	90	41	0	1076887552	54	6707
2026-01-22 16:24:57.84	257.71	18.88	-41.4	-42.4	22.5	0.00e+00	20	41	0	1084227584	54	6711
2026-01-22 16:25:01.88	257.17	18.46	-41.4	-42.4	22.4	0.00e+00	0	41	0	1091567616	54	6738
2026-01-22 16:25:05.92	256.64	18.05	-41.5	-42.6	22.3	0.00e+00	92	41	0	1099956224	54	6853
2026-01-22 16:25:09.96	256.13	17.64	-42.0	-43.1	21.9	0.00e+00	62	41	0	1107296256	56	6477
2026-01-22 16:25:13.99	255.63	17.24	-42.1	-43.2	21.7	0.00e+00	0	41	0	1114636288	56	6598
2026-01-22 16:25:18.03	255.15	16.84	-42.2	-43.3	21.6	0.00e+00	57	41	0	1121976320	56	6638
2026-01-22 16:25:22.07	254.68	16.45	-41.9	-43.0	21.9	0.00e+00	91	41	0	1129316352	56	6458
2026-01-22 16:25:26.11	254.22	16.06	-41.7	-42.8	22.1	0.00e+00	0	41	0	1137704960	56	6260
2026-01-22 16:25:30.14	253.77	15.67	-41.8	-42.8	22.1	0.00e+00	0	41	0	1145044992	56	6314
2026-01-22 16:25:34.18	253.33	15.29	-42.0	-43.1	21.8	0.00e+00	0	41	0	1152385024	56	6477
2026-01-22 16:25:38.22	252.91	14.91	-42.0	-43.1	21.8	0.00e+00	92	41	0	1159725056	56	6475
2026-01-22 16:25:42.26	252.50	14.54	-42.1	-43.3	21.7	0.00e+00	0	41	0	1168113664	56	6642
2026-01-22 16:25:46.29	252.09	14.17	-42.2	-43.4	21.5	0.00e+00	0	41	0	1175453696	56	6720
2026-01-22 16:25:50.33	251.70	13.81	-42.1	-43.2	21.6	0.00e+00	0	41	0	1182793728	56	6580
2026-01-22 16:25:54.37	251.32	13.45	-42.0	-43.1	21.7	0.00e+00	92	41	0	1190133760	56	6506
2026-01-22 16:25:58.41	250.94	13.09	-42.1	-43.3	21.6	0.00e+00	22	41	0	1197473792	56	6632
2026-01-22 16:26:02.45	250.58	12.74	-42.5	-43.7	21.1	0.00e+00	0	41	0	1205862400	56	6942
2026-01-22 16:26:06.49	250.22	12.39	-42.7	-43.9	20.8	0.00e+00	25	41	0	1213202432	58	6389
2026-01-22 16:26:10.53	249.88	12.04	-42.8	-44.1	20.7	0.00e+00	93	41	0	1220542464	58	6491
2026-01-22 16:26:14.56	249.54	11.70	-42.9	-44.1	20.7	0.00e+00	51	41	0	1227882496	58	6529
2026-01-22 16:26:18.60	249.21	11.37	-42.9	-44.2	20.5	0.00e+00	0	41	0	1235222528	58	6592
2026-01-22 16:26:22.64	248.88	11.03	-42.9	-44.3	20.5	0.00e+00	0	41	0	1243611136	58	6619
2026-01-22 16:26:26.67	248.57	10.70	-43.1	-44.5	20.4	0.00e+00	91	41	0	1250951168	58	6806
2026-01-22 16:26:30.71	248.26	10.38	-43.2	-44.6	20.3	0.00e+00	6	41	0	1258291200	58	6854
2026-01-22 16:26:34.75	247.96	10.05	-43.5	-44.9	19.9	0.00e+00	0	41	0	1265631232	58	7166
2026-01-22 16:26:38.78	247.66	9.74	-43.4	-44.8	19.9	0.00e+00	8	41	0	1274019840	58	7031
2026-01-22 16:26:42.82	247.37	9.42	-43.8	-45.3	19.4	0.00e+00	92	41	0	1281359872	60	6680
2026-01-22 16:26:46.86	247.09	9.11	-44.2	-45.8	18.9	0.00e+00	29	41	0	1288699904	60	7050
2026-01-22 16:26:50.89	246.82	8.80	-44.3	-46.0	18.6	0.00e+00	0	41	0	1296039936	60	7176
2026-01-22 16:26:54.93	246.55	8.49	-44.5	-46.2	18.3	0.00e+00	92	41	0	1303379968	60	7398
2026-01-22 16:26:58.97	246.28	8.19	-44.6	-46.4	18.2	0.00e+00	46	41	0	1311768576	60	7543
2026-01-22 16:27:03.01	246.03	7.88	-44.9	-46.8	17.8	0.00e+00	56	41	0	1319108608	60	7865
2026-01-22 16:27:07.05	245.77	7.59	-45.0	-47.0	17.4	0.00e+00	0	41	0	1326448640	60	8066
2026-01-22 16:27:11.09	245.52	7.29	-45.6	-47.8	16.6	0.00e+00	92	41	0	1333788672	60	8904
2026-01-22 16:27:15.13	245.28	7.00	-45.7	-48.0	16.4	0.00e+00	0	41	0	1342177280	60	9066
2026-01-22 16:27:19.16	245.05	6.71	-46.0	-48.5	15.8	0.00e+00	52	41	0	1349517312	60	9651
2026-01-22 16:27:23.20	244.81	6.43	-46.1	-48.7	15.5	0.00e+00	0	42	0	1356857344	60	9789
2026-01-22 16:27:27.24	244.59	6.14	-46.2	-48.8	15.4	0.00e+00	92	41	0	1364197376	60	9947
2026-01-22 16:27:31.28	244.36	5.86	-46.6	-49.6	14.6	7.00e-07	0	41	0	1371537408	60	10913
2026-01-22 16:27:35.31	244.14	5.58	-46.8	-49.9	14.1	0.00e+00	0	41	0	1379926016	60	11351
2026-01-22 16:27:39.35	243.93	5.31	-47.1	-50.6	13.4	1.44e-05	0	41	0	1387266048	60	12185
2026-01-22 16:27:43.39	243.72	5.03	-47.4	-51.2	12.6	7.70e-05	92	42	0	1394606080	60	13160
2026-01-22 16:27:47.43	243.51	4.76	-47.6	-51.9	11.7	3.20e-04	0	42	0	1401946112	60	14277
2026-01-22 16:27:51.47	243.31	4.49	-47.9	-52.7	10.8	2.61e-03	31	42	0	1410334720	60	15522
2026-01-22 16:27:55.50	243.11	4.23	-48.1	-53.5	9.8	5.44e-03	0	41	0	1417674752	60	17010
2026-01-22 16:27:59.54	242.92	3.96	-48.4	-54.3	8.6	2.74e-02	92	42	0	1425014784	60	18785
2026-01-22 16:28:03.58	242.73	3.70	-48.3	-54.4	8.5	4.30e-02	0	42	0	1432354816	60	18864
2026-01-22 16:28:07.62	242.54	3.44	-48.3	-55.0	7.6	1.06e-01	33	42	0	1439694848	60	20295
2026-01-22 16:28:11.66	242.36	3.18	-48.3	-55.4	6.9	1.50e-01	92	42	0	1448083456	60	21359
2026-01-22 16:28:15.70	242.18	2.93	-50.3	-65.5	3.6	1.51e+00	0	42	104	1453326336	60	67982
2026-01-22 16:28:19.74	242.00	2.67	-51.0	-66.2	3.6	1.51e+00	0	42	104	1453326336	60	73853
2026-01-22 16:28:23.78	241.83	2.42	-51.1	-66.4	3.6	1.51e+00	0	42	104	1453326336	60	75193
2026-01-22 16:28:27.82	241.66	2.17	-51.2	-66.4	3.6	1.51e+00	0	42	104	1453326336	60	75846
2026-01-22 16:28:31.85	241.49	1.93	-51.2	-66.5	3.6	1.51e+00	0	42	104	1453326336	60	75959
2026-01-22 16:28:35.88	241.32	1.68	-51.2	-66.5	3.6	1.51e+00	0	42	104	1453326336	60	76306
2026-01-22 16:28:39.92	241.16	1.44	-51.3	-66.5	3.6	1.51e+00	0	42	104	1453326336	60	76326
2026-01-22 16:28:43.96	241.00	1.20	-51.3	-66.5	3.6	1.51e+00	0	42	104	1453326336	60	76221
2026-01-22 16:28:48.01	240.85	0.96	-51.2	-66.4	3.6	1.51e+00	0	42	104	1453326336	60	75762
2026-01-22 16:28:52.05	240.69	0.72	-51.4	-66.6	3.6	1.51e+00	0	42	104	1453326336	60	77287
2026-01-22 16:28:56.09	240.54	0.48	-51.2	-66.4	3.6	1.51e+00	0	42	104	1453326336	60	75753
2026-01-22 16:29:00.13	240.39	0.24	-51.4	-66.7	3.6	1.51e+00	0	42	104	1453326336	60	77729
2026-01-22 16:29:04.17	240.25	0.01	-51.4	-66.6	3.6	1.51e+00	0	42	104	1453326336	60	77316

#Closed at: 2026-01-22 16:29:04
#Recorded file [1453 MB]: D:/lorett/data/35029_260123_041419.dat