passes_logs/2026/01/22/R4.6S_Anadyr/R4.6S_Anadyr__20260122_222922_SUOMI_NPP_rec.log

#Pass ID: 20260122_222922_SUOMI NPP
#Satellite: SUOMI NPP
#Configuration: NPP
#almurnet v.1.7.20251203
#Start time: 2026-01-22 22:29:23

#Version: 2.2.20231116
#Station: R4.6S_Anadyr
#Location: 177.4865 lon 64.73178 lat
#TLE: 1 37849U 11061A   26022.50498765  .00000208  00000+0  11976-3 0  9992
#TLE: 2 37849  98.7820 324.4892 0002275  50.8149 309.3229 14.19528284737775

#Time	Az	El	Level	Level2	SNR	BER	BlckErr	Temp	State	Recorded	gain1	gain2
2026-01-22 22:29:23.18	112.58	0.04	-50.9	-63.5	3.5	1.52e+00	0	38	0	0	60	52244
2026-01-22 22:29:27.20	112.41	0.27	-51.0	-66.2	3.6	1.51e+00	0	39	104	0	60	73414
2026-01-22 22:29:31.24	112.23	0.50	-51.0	-66.2	3.6	1.51e+00	0	40	104	0	60	73649
2026-01-22 22:29:35.28	112.05	0.73	-50.9	-66.2	3.6	1.51e+00	0	40	104	0	60	73542
2026-01-22 22:29:39.32	111.87	0.97	-50.9	-66.1	3.6	1.51e+00	0	40	104	0	60	72808
2026-01-22 22:29:43.36	111.69	1.20	-50.7	-65.9	3.6	1.51e+00	0	40	104	0	60	71294
2026-01-22 22:29:47.39	111.50	1.44	-49.6	-65.4	3.6	1.51e+00	0	40	104	0	60	67515
2026-01-22 22:29:51.43	111.31	1.68	-48.4	-64.0	3.6	1.51e+00	0	40	104	0	60	57592
2026-01-22 22:29:55.47	111.11	1.92	-48.4	-64.1	3.6	1.51e+00	0	40	104	0	60	57926
2026-01-22 22:29:59.51	110.91	2.16	-48.5	-64.1	3.6	1.51e+00	0	40	104	0	60	57953
2026-01-22 22:30:03.54	110.71	2.40	-48.4	-64.1	3.6	1.51e+00	0	40	104	0	60	57781
2026-01-22 22:30:07.58	110.50	2.65	-48.4	-64.1	3.6	1.51e+00	0	40	104	0	60	57710
2026-01-22 22:30:11.62	110.29	2.90	-48.4	-64.1	3.6	1.51e+00	0	40	104	0	60	57732
2026-01-22 22:30:15.65	110.08	3.15	-48.4	-63.8	3.6	1.51e+00	0	40	104	0	60	55952
2026-01-22 22:30:19.70	109.86	3.40	-48.2	-59.1	4.7	1.10e+00	49	40	104	0	60	32604
2026-01-22 22:30:23.73	109.64	3.65	-48.6	-60.4	3.6	1.31e-01	0	40	104	2097152	60	37986
2026-01-22 22:30:27.77	109.42	3.91	-46.2	-50.3	12.8	2.36e-05	0	40	0	4194304	60	11790
2026-01-22 22:30:31.81	109.19	4.17	-43.6	-45.7	17.7	0.00e+00	0	40	0	11534336	60	6954
2026-01-22 22:30:35.85	108.95	4.43	-44.3	-46.7	16.8	0.00e+00	62	40	0	18874368	60	7823
2026-01-22 22:30:39.88	108.72	4.69	-44.7	-47.0	16.8	0.00e+00	92	40	0	27262976	60	8050
2026-01-22 22:30:43.92	108.47	4.95	-44.2	-46.3	17.4	0.00e+00	0	40	0	34603008	60	7455
2026-01-22 22:30:47.96	108.23	5.22	-43.4	-45.4	18.3	0.00e+00	92	40	0	41943040	60	6709
2026-01-22 22:30:51.99	107.97	5.48	-43.4	-45.5	18.4	0.00e+00	92	41	0	49283072	60	6795
2026-01-22 22:30:56.03	107.72	5.75	-42.5	-44.1	19.5	0.00e+00	0	40	0	56623104	58	6534
2026-01-22 22:31:00.07	107.45	6.02	-42.3	-43.9	19.9	0.00e+00	0	40	0	65011712	58	6347
2026-01-22 22:31:04.11	107.19	6.30	-42.8	-44.5	19.3	0.00e+00	92	40	0	72351744	58	6798
2026-01-22 22:31:08.14	106.92	6.58	-42.5	-44.0	19.9	0.00e+00	92	41	0	79691776	58	6420
2026-01-22 22:31:12.18	106.64	6.85	-42.4	-43.9	19.9	0.00e+00	0	41	0	87031808	58	6362
2026-01-22 22:31:16.22	106.35	7.14	-42.9	-44.4	19.4	0.00e+00	0	41	0	95420416	58	6732
2026-01-22 22:31:20.25	106.06	7.42	-42.9	-44.4	19.5	0.00e+00	90	41	0	102760448	58	6725
2026-01-22 22:31:24.29	105.77	7.71	-42.8	-44.2	19.8	0.00e+00	92	41	0	110100480	58	6553
2026-01-22 22:31:28.32	105.47	7.99	-43.3	-44.9	19.1	0.00e+00	0	41	0	117440512	58	7101
2026-01-22 22:31:32.36	105.16	8.29	-42.8	-44.2	19.9	0.00e+00	92	41	0	124780544	58	6610
2026-01-22 22:31:36.39	104.85	8.58	-42.8	-44.3	19.6	0.00e+00	92	41	0	133169152	58	6680
2026-01-22 22:31:40.43	104.53	8.88	-43.1	-44.7	19.4	0.00e+00	92	41	0	140509184	58	6950
2026-01-22 22:31:44.47	104.20	9.18	-42.2	-43.7	20.2	0.00e+00	0	41	0	147849216	58	6199
2026-01-22 22:31:48.51	103.86	9.48	-41.9	-43.2	20.7	0.00e+00	92	41	0	155189248	58	5887
2026-01-22 22:31:52.54	103.52	9.78	-41.7	-42.9	21.0	0.00e+00	92	41	0	162529280	56	6348
2026-01-22 22:31:56.57	103.17	10.09	-41.8	-43.0	20.9	0.00e+00	69	41	0	170917888	56	6452
2026-01-22 22:32:00.61	102.81	10.40	-41.8	-43.1	21.0	0.00e+00	0	41	0	178257920	56	6509
2026-01-22 22:32:04.65	102.45	10.71	-41.9	-43.1	21.0	0.00e+00	92	41	0	185597952	56	6482
2026-01-22 22:32:08.68	102.08	11.03	-41.9	-43.1	20.9	0.00e+00	92	41	0	192937984	56	6511
2026-01-22 22:32:12.72	101.70	11.35	-41.7	-42.9	21.5	0.00e+00	0	41	0	201326592	56	6341
2026-01-22 22:32:16.76	101.30	11.67	-41.6	-42.7	21.3	0.00e+00	47	41	0	208666624	56	6240
2026-01-22 22:32:20.80	100.91	11.99	-41.6	-42.8	21.3	0.00e+00	65	41	0	216006656	56	6290
2026-01-22 22:32:24.83	100.50	12.32	-41.4	-42.6	21.4	0.00e+00	92	41	0	223346688	56	6126
2026-01-22 22:32:28.86	100.08	12.65	-41.6	-42.7	21.5	0.00e+00	0	41	0	230686720	56	6210
2026-01-22 22:32:32.90	99.65	12.98	-41.9	-43.1	21.0	0.00e+00	92	41	0	239075328	56	6510
2026-01-22 22:32:36.94	99.21	13.32	-41.5	-42.6	21.5	0.00e+00	90	41	0	246415360	56	6171
2026-01-22 22:32:40.98	98.77	13.66	-41.9	-43.1	21.1	0.00e+00	0	41	0	253755392	56	6475
2026-01-22 22:32:45.02	98.31	14.00	-41.2	-42.3	21.7	0.00e+00	0	41	0	261095424	56	5955
2026-01-22 22:32:49.06	97.84	14.35	-41.7	-42.9	21.2	0.00e+00	92	41	0	269484032	56	6382
2026-01-22 22:32:53.09	97.36	14.69	-41.1	-42.1	21.9	0.00e+00	92	41	0	276824064	56	5790
2026-01-22 22:32:57.13	96.86	15.04	-41.2	-42.3	21.9	0.00e+00	0	41	0	284164096	56	5955
2026-01-22 22:33:01.17	96.36	15.40	-40.5	-41.6	22.3	0.00e+00	0	41	0	291504128	54	6118
2026-01-22 22:33:05.21	95.84	15.75	-42.0	-43.3	21.0	0.00e+00	52	41	0	298844160	56	6619
2026-01-22 22:33:09.25	95.31	16.11	-42.0	-43.2	21.0	0.00e+00	92	41	0	307232768	56	6584
2026-01-22 22:33:13.28	94.77	16.48	-43.0	-44.5	19.9	0.00e+00	0	41	0	314572800	58	6789
2026-01-22 22:33:17.32	94.21	16.84	-41.9	-43.1	21.2	0.00e+00	4	41	0	321912832	56	6500
2026-01-22 22:33:21.36	93.64	17.21	-41.5	-42.7	21.5	0.00e+00	92	41	0	329252864	56	6184
2026-01-22 22:33:25.39	93.06	17.58	-41.4	-42.5	21.7	0.00e+00	92	41	0	337641472	56	6102
2026-01-22 22:33:29.43	92.46	17.95	-40.8	-41.9	22.3	0.00e+00	0	41	0	344981504	54	6319
2026-01-22 22:33:33.47	91.84	18.32	-40.4	-41.4	22.6	0.00e+00	92	41	0	352321536	54	6013
2026-01-22 22:33:37.51	91.21	18.70	-40.6	-41.6	22.4	0.00e+00	86	41	0	359661568	54	6137
2026-01-22 22:33:41.54	90.57	19.08	-41.0	-42.0	22.0	0.00e+00	0	41	0	367001600	54	6463
2026-01-22 22:33:45.58	89.90	19.46	-41.1	-42.2	22.0	0.00e+00	0	41	0	375390208	54	6558
2026-01-22 22:33:49.61	89.23	19.84	-41.0	-42.0	22.2	0.00e+00	92	41	0	382730240	54	6432
2026-01-22 22:33:53.65	88.53	20.23	-40.4	-41.3	22.6	0.00e+00	91	41	0	390070272	54	5942
2026-01-22 22:33:57.68	87.81	20.61	-39.8	-40.7	23.0	0.00e+00	33	41	0	397410304	54	5533
2026-01-22 22:34:01.72	87.08	21.00	-40.6	-41.6	22.5	0.00e+00	48	41	0	404750336	54	6127
2026-01-22 22:34:05.76	86.33	21.39	-41.0	-42.1	22.1	0.00e+00	87	41	0	413138944	54	6492
2026-01-22 22:34:09.80	85.55	21.77	-40.8	-41.8	22.3	0.00e+00	92	41	0	420478976	54	6282
2026-01-22 22:34:13.83	84.76	22.16	-40.7	-41.6	22.5	0.00e+00	0	41	0	427819008	54	6173
2026-01-22 22:34:17.87	83.95	22.55	-41.4	-42.5	21.9	0.00e+00	91	41	0	435159040	54	6821
2026-01-22 22:34:21.91	83.12	22.94	-41.0	-42.0	22.1	0.00e+00	92	41	0	443547648	54	6462
2026-01-22 22:34:25.94	82.27	23.32	-40.9	-41.9	22.3	0.00e+00	10	41	0	450887680	54	6373
2026-01-22 22:34:29.98	81.39	23.71	-41.5	-42.7	21.7	0.00e+00	0	41	0	458227712	54	6947
2026-01-22 22:34:34.02	80.49	24.09	-40.6	-41.6	22.6	0.00e+00	92	41	0	465567744	54	6130
2026-01-22 22:34:38.05	79.58	24.47	-40.2	-41.2	22.9	0.00e+00	75	41	0	472907776	54	5845
2026-01-22 22:34:42.09	78.63	24.85	-39.1	-39.9	23.9	0.00e+00	0	41	0	481296384	52	5678
2026-01-22 22:34:46.12	77.67	25.22	-39.2	-40.1	23.8	0.00e+00	0	41	0	488636416	52	5779
2026-01-22 22:34:50.16	76.68	25.59	-39.9	-40.8	23.3	0.00e+00	52	41	0	495976448	52	6300
2026-01-22 22:34:54.20	75.67	25.96	-40.6	-41.7	22.5	0.00e+00	92	41	0	503316480	54	6191
2026-01-22 22:34:58.24	74.64	26.32	-40.2	-41.1	23.0	0.00e+00	0	41	0	510656512	54	5814
2026-01-22 22:35:02.27	73.58	26.68	-40.6	-41.6	22.5	0.00e+00	90	41	0	519045120	54	6115
2026-01-22 22:35:06.31	72.50	27.03	-40.3	-41.2	22.9	0.00e+00	92	41	0	526385152	54	5891
2026-01-22 22:35:10.35	71.39	27.37	-39.9	-40.8	23.3	0.00e+00	0	41	0	533725184	52	6265
2026-01-22 22:35:14.39	70.26	27.70	-41.3	-42.4	21.8	0.00e+00	0	41	0	541065216	54	6727
2026-01-22 22:35:18.42	69.11	28.03	-41.9	-43.0	21.5	0.00e+00	92	41	0	549453824	56	6458
2026-01-22 22:35:22.46	67.93	28.34	-41.6	-42.7	21.8	0.00e+00	92	41	0	556793856	56	6212
2026-01-22 22:35:26.50	66.73	28.65	-40.8	-41.8	22.5	0.00e+00	0	41	0	564133888	54	6274
2026-01-22 22:35:30.54	65.50	28.94	-40.7	-41.7	22.4	0.00e+00	0	41	0	571473920	54	6236
2026-01-22 22:35:34.57	64.26	29.22	-41.5	-42.6	21.9	0.00e+00	53	41	0	578813952	54	6869
2026-01-22 22:35:38.61	62.99	29.49	-41.1	-42.1	22.2	0.00e+00	92	41	0	587202560	54	6533
2026-01-22 22:35:42.65	61.71	29.75	-40.4	-41.3	22.8	0.00e+00	0	41	0	594542592	54	5956
2026-01-22 22:35:46.69	60.40	29.99	-40.4	-41.4	22.8	0.00e+00	0	41	0	601882624	54	6002
2026-01-22 22:35:50.72	59.07	30.22	-40.8	-41.8	22.5	0.00e+00	92	41	0	609222656	54	6299
2026-01-22 22:35:54.76	57.73	30.43	-39.9	-40.8	23.3	0.00e+00	0	41	0	617611264	52	6249
2026-01-22 22:35:58.80	56.36	30.62	-40.4	-41.4	22.8	0.00e+00	0	41	0	624951296	52	6706
2026-01-22 22:36:02.83	54.99	30.80	-42.4	-43.7	20.9	0.00e+00	78	41	0	632291328	56	6992
2026-01-22 22:36:06.87	53.60	30.96	-41.9	-43.1	21.5	0.00e+00	56	41	0	639631360	58	5773
2026-01-22 22:36:10.91	52.19	31.10	-42.1	-43.2	21.4	0.00e+00	0	41	0	646971392	56	6602
2026-01-22 22:36:14.95	50.77	31.22	-40.2	-41.1	23.0	0.00e+00	0	41	0	655360000	54	5777
2026-01-22 22:36:18.98	49.35	31.32	-41.5	-42.6	21.8	0.00e+00	78	41	0	662700032	56	6155
2026-01-22 22:36:23.02	47.91	31.40	-41.4	-42.5	22.0	0.00e+00	54	41	0	670040064	56	6039
2026-01-22 22:36:27.06	46.47	31.46	-42.1	-43.2	21.3	0.00e+00	0	41	0	677380096	56	6592
2026-01-22 22:36:31.02	45.06	31.50	-41.8	-42.9	21.4	0.00e+00	0	41	0	684720128	56	6381
2026-01-22 22:36:35.05	43.61	31.53	-42.7	-44.0	20.8	0.00e+00	92	41	0	692060160	58	6426
2026-01-22 22:36:39.08	42.17	31.53	-41.6	-42.7	21.8	0.00e+00	92	41	0	700448768	56	6211
2026-01-22 22:36:43.12	40.72	31.51	-40.6	-41.6	22.6	0.00e+00	0	41	0	707788800	54	6131
2026-01-22 22:36:47.16	39.27	31.46	-41.8	-42.9	21.6	0.00e+00	25	41	0	715128832	56	6363
2026-01-22 22:36:51.20	37.83	31.40	-41.7	-42.9	21.5	0.00e+00	86	41	0	722468864	56	6320
2026-01-22 22:36:55.23	36.40	31.32	-41.6	-42.7	21.7	0.00e+00	0	41	0	730857472	56	6185
2026-01-22 22:36:59.27	34.97	31.22	-41.3	-42.4	22.0	0.00e+00	0	41	0	738197504	54	6696
2026-01-22 22:37:03.30	33.56	31.10	-42.2	-43.4	21.3	0.00e+00	0	41	0	745537536	56	6729
2026-01-22 22:37:07.34	32.16	30.96	-40.9	-42.0	22.3	0.00e+00	92	41	0	752877568	56	5699
2026-01-22 22:37:11.38	30.77	30.80	-41.1	-42.2	22.2	0.00e+00	0	41	0	760217600	56	5852
2026-01-22 22:37:15.41	29.39	30.63	-41.9	-43.1	21.4	0.00e+00	0	41	0	768606208	56	6537
2026-01-22 22:37:19.45	28.03	30.43	-41.0	-42.1	22.3	0.00e+00	92	42	0	775946240	56	5778
2026-01-22 22:37:23.49	26.69	30.22	-41.0	-42.0	22.3	0.00e+00	88	41	0	783286272	54	6447
2026-01-22 22:37:27.53	25.36	30.00	-41.2	-42.2	22.0	0.00e+00	0	41	0	790626304	54	6614
2026-01-22 22:37:31.57	24.05	29.76	-42.2	-43.4	21.3	0.00e+00	0	42	0	799014912	56	6737
2026-01-22 22:37:35.60	22.77	29.50	-43.3	-44.8	20.0	0.00e+00	29	41	0	806354944	58	7015
2026-01-22 22:37:39.64	21.50	29.23	-42.9	-44.2	20.6	0.00e+00	75	41	0	813694976	58	6606
2026-01-22 22:37:43.68	20.26	28.95	-42.9	-44.2	20.6	0.00e+00	0	41	0	821035008	58	6592
2026-01-22 22:37:47.72	19.04	28.66	-42.2	-43.4	21.1	0.00e+00	0	41	0	828375040	58	5977
2026-01-22 22:37:51.76	17.84	28.36	-39.1	-40.0	23.9	0.00e+00	91	41	0	836763648	52	5700
2026-01-22 22:37:55.79	16.67	28.04	-39.7	-40.6	23.4	0.00e+00	0	41	0	844103680	52	6110
2026-01-22 22:37:59.83	15.52	27.72	-41.6	-42.7	21.7	0.00e+00	0	41	0	851443712	56	6227
2026-01-22 22:38:03.87	14.39	27.39	-40.4	-41.4	22.6	0.00e+00	78	42	0	858783744	54	5995
2026-01-22 22:38:07.91	13.28	27.04	-43.6	-45.1	19.6	0.00e+00	80	41	0	867172352	58	7298
2026-01-22 22:38:11.94	12.20	26.70	-42.3	-43.4	21.1	0.00e+00	0	41	0	874512384	58	6029
2026-01-22 22:38:15.98	11.15	26.34	-41.5	-42.6	21.9	0.00e+00	0	41	0	881852416	56	6112
2026-01-22 22:38:20.02	10.12	25.98	-39.4	-40.2	23.7	0.00e+00	71	42	0	889192448	52	5884
2026-01-22 22:38:24.06	9.11	25.62	-39.8	-40.7	23.5	0.00e+00	0	41	0	896532480	52	6202
2026-01-22 22:38:28.10	8.12	25.25	-40.0	-40.9	23.2	0.00e+00	0	42	0	904921088	52	6365
2026-01-22 22:38:32.14	7.16	24.87	-40.1	-41.1	23.1	0.00e+00	0	41	0	912261120	52	6506
2026-01-22 22:38:36.18	6.22	24.50	-40.2	-41.2	22.9	0.00e+00	90	42	0	919601152	52	6568
2026-01-22 22:38:40.21	5.30	24.12	-39.4	-40.3	23.6	0.00e+00	0	42	0	926941184	52	5955
2026-01-22 22:38:44.25	4.41	23.74	-38.1	-38.9	24.6	0.00e+00	0	41	0	935329792	50	5652
2026-01-22 22:38:48.29	3.53	23.35	-38.8	-39.7	24.0	0.00e+00	58	42	0	942669824	50	6191
2026-01-22 22:38:52.33	2.68	22.97	-39.4	-40.3	23.4	0.00e+00	0	42	0	950009856	50	6688
2026-01-22 22:38:56.36	1.86	22.58	-38.9	-39.8	24.0	0.00e+00	0	41	0	957349888	50	6263
2026-01-22 22:39:00.40	1.05	22.20	-38.8	-39.6	24.0	0.00e+00	0	41	0	964689920	50	6157
2026-01-22 22:39:04.43	0.26	21.81	-39.3	-40.2	23.7	0.00e+00	92	41	0	973078528	50	6548
2026-01-22 22:39:08.47	359.49	21.42	-38.9	-39.7	24.0	0.00e+00	0	41	0	980418560	50	6244
2026-01-22 22:39:12.51	358.74	21.04	-39.5	-40.4	23.5	0.00e+00	0	41	0	987758592	50	6719
2026-01-22 22:39:16.55	358.01	20.65	-39.6	-40.5	23.3	0.00e+00	0	41	0	995098624	52	6066
2026-01-22 22:39:20.59	357.29	20.27	-39.1	-39.9	23.8	0.00e+00	45	41	0	1003487232	52	5684
2026-01-22 22:39:24.62	356.60	19.89	-38.6	-39.4	23.8	0.00e+00	0	41	0	1010827264	50	6032
2026-01-22 22:39:28.66	355.92	19.51	-40.0	-40.9	22.3	0.00e+00	0	41	0	1018167296	52	6388
2026-01-22 22:39:32.70	355.26	19.13	-40.9	-42.0	22.2	0.00e+00	0	41	0	1025507328	54	6435
2026-01-22 22:39:36.74	354.62	18.75	-39.5	-40.4	23.4	0.00e+00	10	41	0	1032847360	52	6022
2026-01-22 22:39:40.78	353.99	18.37	-40.2	-41.2	22.8	0.00e+00	0	41	0	1041235968	52	6554
2026-01-22 22:39:44.82	353.38	18.00	-40.8	-41.8	22.4	0.00e+00	0	41	0	1048576000	54	6278
2026-01-22 22:39:48.86	352.78	17.63	-39.7	-40.7	23.2	0.00e+00	51	41	0	1055916032	52	6189
2026-01-22 22:39:52.90	352.20	17.26	-39.6	-40.5	23.4	0.00e+00	0	41	0	1063256064	52	6060
2026-01-22 22:39:56.94	351.63	16.89	-39.7	-40.6	23.3	0.00e+00	0	41	0	1071644672	52	6109
2026-01-22 22:40:00.97	351.07	16.53	-40.4	-41.4	22.5	0.00e+00	0	41	0	1078984704	52	6704
2026-01-22 22:40:05.01	350.53	16.17	-39.9	-40.9	23.1	0.00e+00	89	41	0	1086324736	52	6322
2026-01-22 22:40:09.04	350.01	15.81	-40.5	-41.5	22.5	0.00e+00	0	41	0	1093664768	52	6813
2026-01-22 22:40:13.08	349.49	15.46	-42.8	-44.2	20.2	0.00e+00	0	41	0	1101004800	58	6605
2026-01-22 22:40:17.12	348.99	15.10	-42.3	-43.5	20.9	0.00e+00	17	41	0	1109393408	58	6075
2026-01-22 22:40:21.16	348.50	14.75	-39.6	-40.4	23.3	0.00e+00	92	41	0	1116733440	52	6031
2026-01-22 22:40:25.19	348.02	14.41	-40.0	-41.0	22.9	0.00e+00	33	41	0	1124073472	52	6434
2026-01-22 22:40:29.23	347.55	14.06	-41.5	-42.7	21.4	0.00e+00	0	41	0	1131413504	54	6960
2026-01-22 22:40:33.27	347.10	13.72	-42.2	-43.5	20.8	0.00e+00	33	41	0	1139802112	56	6786
2026-01-22 22:40:37.31	346.65	13.38	-41.8	-43.0	21.4	0.00e+00	0	41	0	1147142144	56	6436
2026-01-22 22:40:41.34	346.22	13.05	-42.0	-43.2	21.1	0.00e+00	0	41	0	1154482176	56	6555
2026-01-22 22:40:45.38	345.79	12.72	-42.1	-43.4	20.9	0.00e+00	0	41	0	1161822208	56	6703
2026-01-22 22:40:49.41	345.38	12.39	-42.2	-43.4	20.9	0.00e+00	45	41	0	1169162240	56	6753
2026-01-22 22:40:53.45	344.97	12.06	-42.1	-43.3	20.9	0.00e+00	0	41	0	1177550848	56	6690
2026-01-22 22:40:57.49	344.57	11.74	-41.5	-42.7	21.6	0.00e+00	0	41	0	1184890880	56	6176
2026-01-22 22:41:01.52	344.19	11.42	-40.9	-42.0	21.9	0.00e+00	0	41	0	1192230912	56	5716
2026-01-22 22:41:05.56	343.81	11.10	-40.8	-41.8	22.1	0.00e+00	71	41	0	1199570944	54	6300
2026-01-22 22:41:09.58	343.44	10.79	-41.7	-42.9	21.1	0.00e+00	0	41	0	1206910976	56	6377
2026-01-22 22:41:13.62	343.08	10.47	-43.2	-44.7	19.6	0.00e+00	0	41	0	1215299584	58	6978
2026-01-22 22:41:17.66	342.72	10.16	-43.9	-45.7	18.7	0.00e+00	42	41	0	1222639616	60	6954
2026-01-22 22:41:21.69	342.37	9.86	-43.8	-45.5	18.9	0.00e+00	91	41	0	1229979648	60	6774
2026-01-22 22:41:25.73	342.04	9.55	-43.4	-45.1	19.3	0.00e+00	0	41	0	1237319680	60	6480
2026-01-22 22:41:29.76	341.70	9.25	-43.3	-44.9	19.5	0.00e+00	0	41	0	1245708288	60	6330
2026-01-22 22:41:33.80	341.38	8.95	-42.6	-44.0	20.0	0.00e+00	43	41	0	1253048320	58	6461
2026-01-22 22:41:37.84	341.06	8.66	-42.2	-43.6	20.4	0.00e+00	0	41	0	1260388352	58	6120
2026-01-22 22:41:41.88	340.75	8.37	-42.1	-43.4	20.6	0.00e+00	0	41	0	1267728384	58	5992
2026-01-22 22:41:45.91	340.44	8.08	-42.5	-43.9	20.2	0.00e+00	0	41	0	1275068416	58	6377
2026-01-22 22:41:49.95	340.14	7.79	-43.3	-44.8	19.3	0.00e+00	35	41	0	1283457024	58	7069
2026-01-22 22:41:53.99	339.85	7.50	-43.9	-45.6	18.7	0.00e+00	0	41	0	1290797056	60	6916
2026-01-22 22:41:58.02	339.57	7.22	-43.6	-45.3	18.8	0.00e+00	0	41	0	1298137088	60	6640
2026-01-22 22:42:02.06	339.28	6.94	-43.8	-45.6	18.5	0.00e+00	0	41	0	1305477120	60	6885
2026-01-22 22:42:06.10	339.01	6.66	-44.1	-46.0	18.1	0.00e+00	44	41	0	1312817152	60	7203
2026-01-22 22:42:10.13	338.74	6.38	-44.0	-45.9	18.2	0.00e+00	0	41	0	1321205760	60	7149
2026-01-22 22:42:14.16	338.48	6.11	-44.2	-46.1	17.9	0.00e+00	0	41	0	1328545792	60	7329
2026-01-22 22:42:18.19	338.22	5.84	-44.7	-46.9	16.9	0.00e+00	25	41	0	1335885824	60	8005
2026-01-22 22:42:22.23	337.96	5.57	-44.7	-47.0	16.7	0.00e+00	70	41	0	1343225856	60	8088
2026-01-22 22:42:26.26	337.71	5.30	-44.9	-47.6	15.4	0.00e+00	0	41	0	1351614464	60	8683
2026-01-22 22:42:30.30	337.47	5.04	-45.4	-49.3	12.6	7.24e-05	0	41	0	1358954496	60	10544
2026-01-22 22:42:34.34	337.23	4.77	-45.6	-50.8	9.9	1.22e-02	43	41	0	1366294528	60	12592
2026-01-22 22:42:38.38	336.99	4.51	-46.1	-54.0	5.6	2.71e-01	0	41	0	1373634560	60	18083
2026-01-22 22:42:42.42	336.76	4.25	-46.1	-56.9	3.7	1.40e+00	0	41	0	1379926016	60	25188
2026-01-22 22:42:46.46	336.54	4.00	-46.1	-60.4	3.6	1.51e+00	0	41	104	1379926016	60	37645
2026-01-22 22:42:50.49	336.31	3.74	-45.9	-61.1	3.6	1.51e+00	0	41	104	1379926016	60	40874
2026-01-22 22:42:54.53	336.10	3.49	-45.9	-61.1	3.6	1.51e+00	0	41	104	1379926016	60	40825
2026-01-22 22:42:58.57	335.88	3.24	-45.9	-61.1	3.6	1.51e+00	0	41	104	1379926016	60	40807
2026-01-22 22:43:02.60	335.67	2.99	-45.9	-61.1	3.6	1.51e+00	0	41	104	1379926016	60	40886
2026-01-22 22:43:06.64	335.46	2.74	-50.6	-65.8	3.6	1.51e+00	0	41	104	1379926016	60	70641
2026-01-22 22:43:10.67	335.26	2.50	-51.0	-66.2	3.6	1.51e+00	0	41	104	1379926016	60	74109
2026-01-22 22:43:14.71	335.06	2.25	-51.1	-66.3	3.6	1.51e+00	0	41	104	1379926016	60	75013
2026-01-22 22:43:18.75	334.87	2.01	-51.0	-66.2	3.6	1.51e+00	0	41	104	1379926016	60	74106
2026-01-22 22:43:22.79	334.67	1.77	-50.9	-66.2	3.6	1.51e+00	0	41	104	1379926016	60	73960
2026-01-22 22:43:26.82	334.49	1.53	-51.0	-66.3	3.6	1.51e+00	0	41	104	1379926016	60	74331
2026-01-22 22:43:30.86	334.30	1.30	-51.0	-66.3	3.6	1.51e+00	0	41	104	1379926016	60	74641
2026-01-22 22:43:34.90	334.12	1.06	-51.0	-66.3	3.6	1.51e+00	0	41	104	1379926016	60	74582
2026-01-22 22:43:38.94	333.94	0.83	-51.1	-66.2	3.6	1.51e+00	0	41	104	1379926016	60	73959
2026-01-22 22:43:42.98	333.76	0.59	-51.0	-66.2	3.6	1.51e+00	0	41	104	1379926016	60	73968
2026-01-22 22:43:47.02	333.59	0.36	-51.0	-66.2	3.6	1.51e+00	0	41	104	1379926016	60	74083
2026-01-22 22:43:51.06	333.42	0.13	-51.0	-66.3	3.6	1.51e+00	0	41	104	1379926016	60	74394

#Closed at: 2026-01-22 22:43:53
#Recorded file [1379 MB]: D:/lorett/data/35029_260123_102923.dat