passes_logs/2026/01/22/R4.6S_Anadyr/R4.6S_Anadyr__20260122_123253_SUOMI_NPP_rec.log

#Pass ID: 20260122_123253_SUOMI NPP
#Satellite: SUOMI NPP
#Configuration: NPP
#almurnet v.1.7.20251203
#Start time: 2026-01-22 12:32:54

#Version: 2.2.20231116
#Station: R4.6S_Anadyr
#Location: 177.4865 lon 64.73178 lat
#TLE: 1 37849U 11061A   26021.51818991  .00000201  00000+0  11636-3 0  9995
#TLE: 2 37849  98.7819 323.5108 0002300  52.3548 307.7836 14.19527793737637

#Time	Az	El	Level	Level2	SNR	BER	BlckErr	Temp	State	Recorded	gain1	gain2
2026-01-22 12:32:54.30	19.07	0.06	-51.4	-63.9	3.4	1.52e+00	0	39	0	0	60	55045
2026-01-22 12:32:58.34	19.36	0.26	-51.9	-67.1	3.6	1.51e+00	0	40	104	0	60	81975
2026-01-22 12:33:02.38	19.65	0.47	-51.4	-66.6	3.6	1.51e+00	0	40	104	0	60	77243
2026-01-22 12:33:06.42	19.94	0.67	-51.3	-66.5	3.6	1.51e+00	0	40	104	0	60	75984
2026-01-22 12:33:10.47	20.25	0.87	-50.9	-66.1	3.6	1.51e+00	0	40	104	0	60	73340
2026-01-22 12:33:14.51	20.55	1.08	-50.5	-65.7	3.6	1.51e+00	0	40	104	0	60	69831
2026-01-22 12:33:18.55	20.86	1.28	-49.6	-64.8	3.6	1.51e+00	0	40	104	0	60	62494
2026-01-22 12:33:22.59	21.17	1.49	-49.6	-64.8	3.6	1.51e+00	0	40	104	0	60	62709
2026-01-22 12:33:26.63	21.48	1.69	-49.6	-64.6	3.6	1.51e+00	0	40	104	0	60	61457
2026-01-22 12:33:30.67	21.80	1.90	-49.6	-64.8	3.6	1.51e+00	0	40	104	0	60	62642
2026-01-22 12:33:34.72	22.13	2.11	-49.6	-64.2	3.6	1.51e+00	0	40	104	0	60	58372
2026-01-22 12:33:38.75	22.46	2.32	-49.6	-63.7	3.6	1.51e+00	0	40	104	0	60	55108
2026-01-22 12:33:42.80	22.79	2.53	-46.8	-50.4	13.3	5.56e-05	0	40	0	5242880	60	11939
2026-01-22 12:33:46.84	23.13	2.74	-44.9	-47.2	16.4	0.00e+00	0	40	0	12582912	60	8262
2026-01-22 12:33:50.87	23.47	2.95	-48.7	-55.5	7.4	2.42e-02	0	40	0	20971520	60	21452
2026-01-22 12:33:54.91	23.81	3.16	-49.5	-63.6	3.6	2.03e-01	0	40	104	27262976	60	54439
2026-01-22 12:33:58.95	24.17	3.38	-46.2	-49.0	15.6	0.00e+00	0	40	0	31457280	60	10182
2026-01-22 12:34:02.99	24.52	3.59	-45.4	-47.7	16.3	0.00e+00	0	40	0	38797312	60	8737
2026-01-22 12:34:07.02	24.88	3.80	-44.5	-46.5	17.4	0.00e+00	0	40	0	46137344	60	7616
2026-01-22 12:34:11.05	25.25	4.02	-44.2	-46.1	17.6	0.00e+00	66	40	0	54525952	60	7301
2026-01-22 12:34:15.09	25.62	4.24	-43.7	-45.4	18.6	0.00e+00	0	41	0	61865984	60	6715
2026-01-22 12:34:19.13	26.00	4.45	-43.8	-45.4	18.6	0.00e+00	0	41	0	69206016	60	6753
2026-01-22 12:34:23.17	26.38	4.67	-43.9	-45.6	18.5	0.00e+00	2	40	0	76546048	60	6866
2026-01-22 12:34:27.21	26.76	4.89	-43.3	-44.8	19.3	0.00e+00	0	40	0	83886080	60	6272
2026-01-22 12:34:31.24	27.16	5.11	-43.7	-45.3	18.9	0.00e+00	0	41	0	92274688	60	6638
2026-01-22 12:34:35.28	27.55	5.33	-44.0	-45.7	18.5	0.00e+00	0	41	0	99614720	60	6971
2026-01-22 12:34:39.32	27.96	5.55	-43.6	-45.2	19.0	0.00e+00	73	41	0	106954752	60	6550
2026-01-22 12:34:43.35	28.37	5.77	-44.0	-45.8	18.5	0.00e+00	0	40	0	114294784	60	7009
2026-01-22 12:34:47.39	28.78	5.99	-43.6	-45.2	19.0	0.00e+00	0	41	0	122683392	60	6608
2026-01-22 12:34:51.43	29.21	6.22	-42.8	-44.2	20.0	0.00e+00	0	41	0	130023424	60	5884
2026-01-22 12:34:55.47	29.63	6.44	-42.2	-43.4	20.5	0.00e+00	91	41	0	137363456	58	6027
2026-01-22 12:34:59.51	30.07	6.66	-42.0	-43.2	20.8	0.00e+00	0	41	0	144703488	58	5875
2026-01-22 12:35:03.55	30.51	6.89	-42.0	-43.2	20.9	0.00e+00	0	41	0	152043520	56	6608
2026-01-22 12:35:07.58	30.96	7.11	-42.3	-43.6	20.5	0.00e+00	65	41	0	160432128	56	6861
2026-01-22 12:35:11.62	31.41	7.34	-42.5	-43.9	20.3	0.00e+00	0	41	0	167772160	58	6339
2026-01-22 12:35:15.66	31.87	7.57	-42.1	-43.4	20.6	0.00e+00	0	41	0	175112192	58	5991
2026-01-22 12:35:19.69	32.34	7.79	-42.3	-43.6	20.7	0.00e+00	0	41	0	182452224	58	6107
2026-01-22 12:35:23.73	32.81	8.02	-42.2	-43.5	20.7	0.00e+00	3	41	0	190840832	58	6042
2026-01-22 12:35:27.77	33.29	8.25	-42.4	-43.7	20.6	0.00e+00	0	41	0	198180864	58	6239
2026-01-22 12:35:31.81	33.78	8.48	-42.3	-43.6	20.6	0.00e+00	0	41	0	205520896	58	6110
2026-01-22 12:35:35.85	34.28	8.71	-42.0	-43.2	21.0	0.00e+00	0	41	0	212860928	58	5861
2026-01-22 12:35:39.89	34.78	8.93	-41.7	-42.9	21.3	0.00e+00	61	41	0	220200960	56	6336
2026-01-22 12:35:43.93	35.30	9.16	-41.7	-42.8	21.2	0.00e+00	0	41	0	228589568	56	6281
2026-01-22 12:35:47.97	35.82	9.39	-41.9	-43.0	21.2	0.00e+00	0	41	0	235929600	56	6464
2026-01-22 12:35:52.01	36.34	9.62	-41.8	-43.0	21.3	0.00e+00	0	41	0	243269632	56	6399
2026-01-22 12:35:56.05	36.88	9.85	-41.6	-42.7	21.5	0.00e+00	90	41	0	250609664	56	6228
2026-01-22 12:36:00.09	37.42	10.08	-41.9	-43.0	21.3	0.00e+00	0	41	0	258998272	56	6444
2026-01-22 12:36:04.13	37.98	10.31	-41.8	-43.0	21.3	0.00e+00	0	41	0	266338304	56	6412
2026-01-22 12:36:08.17	38.54	10.54	-42.0	-43.1	21.1	0.00e+00	92	41	0	273678336	56	6536
2026-01-22 12:36:12.21	39.11	10.77	-42.2	-43.4	20.9	0.00e+00	0	41	0	281018368	56	6728
2026-01-22 12:36:16.25	39.68	10.99	-41.5	-42.6	21.8	0.00e+00	0	41	0	288358400	56	6117
2026-01-22 12:36:20.28	40.27	11.22	-41.5	-42.6	21.7	0.00e+00	0	41	0	296747008	56	6117
2026-01-22 12:36:24.32	40.86	11.45	-41.8	-43.0	21.4	0.00e+00	90	41	0	304087040	56	6426
2026-01-22 12:36:28.35	41.47	11.67	-41.3	-42.4	21.9	0.00e+00	0	41	0	311427072	56	5971
2026-01-22 12:36:32.38	42.08	11.90	-40.4	-41.3	22.6	0.00e+00	0	41	0	318767104	54	5962
2026-01-22 12:36:36.42	42.70	12.12	-40.9	-41.9	22.1	0.00e+00	16	41	0	327155712	54	6370
2026-01-22 12:36:40.45	43.33	12.35	-41.1	-42.1	22.1	0.00e+00	92	41	0	334495744	54	6535
2026-01-22 12:36:44.49	43.97	12.57	-40.9	-42.0	22.2	0.00e+00	0	41	0	341835776	54	6407
2026-01-22 12:36:48.53	44.62	12.79	-40.6	-41.7	22.5	0.00e+00	0	41	0	349175808	54	6181
2026-01-22 12:36:52.57	45.28	13.01	-40.9	-41.9	22.3	0.00e+00	8	41	0	356515840	54	6360
2026-01-22 12:36:56.60	45.95	13.23	-40.8	-41.9	22.2	0.00e+00	37	41	0	364904448	54	6348
2026-01-22 12:37:00.64	46.63	13.45	-41.0	-42.1	22.1	0.00e+00	0	41	0	372244480	54	6489
2026-01-22 12:37:04.68	47.32	13.66	-40.9	-41.9	22.2	0.00e+00	0	41	0	379584512	54	6371
2026-01-22 12:37:08.72	48.02	13.88	-41.0	-42.1	22.2	0.00e+00	92	41	0	386924544	54	6491
2026-01-22 12:37:12.75	48.72	14.09	-41.4	-42.5	21.7	0.00e+00	0	41	0	394264576	54	6824
2026-01-22 12:37:16.79	49.44	14.30	-41.6	-42.7	21.6	0.00e+00	0	41	0	402653184	54	6977
2026-01-22 12:37:20.83	50.17	14.51	-42.4	-43.7	20.8	0.00e+00	0	41	0	409993216	56	6962
2026-01-22 12:37:24.87	50.91	14.71	-42.5	-43.8	20.7	0.00e+00	92	41	0	417333248	56	7063
2026-01-22 12:37:28.91	51.66	14.91	-41.8	-43.0	21.4	0.00e+00	0	41	0	424673280	56	6396
2026-01-22 12:37:32.94	52.41	15.11	-41.9	-43.0	21.5	0.00e+00	0	41	0	433061888	56	6439
2026-01-22 12:37:36.98	53.18	15.31	-42.0	-43.2	21.3	0.00e+00	0	41	0	440401920	56	6549
2026-01-22 12:37:41.02	53.96	15.50	-42.0	-43.2	21.3	0.00e+00	0	41	0	447741952	56	6554
2026-01-22 12:37:45.06	54.74	15.69	-42.0	-43.1	21.4	0.00e+00	10	41	0	455081984	56	6525
2026-01-22 12:37:49.10	55.54	15.87	-42.4	-43.7	20.9	0.00e+00	0	41	0	462422016	56	6941
2026-01-22 12:37:53.13	56.35	16.05	-42.1	-43.3	21.2	0.00e+00	92	41	0	470810624	56	6685
2026-01-22 12:37:57.17	57.16	16.23	-42.2	-43.4	21.1	0.00e+00	0	41	0	478150656	58	5985
2026-01-22 12:38:01.21	57.99	16.40	-41.9	-43.1	21.5	0.00e+00	0	41	0	485490688	58	5764
2026-01-22 12:38:05.25	58.82	16.57	-41.9	-43.1	21.4	0.00e+00	0	41	0	492830720	56	6470
2026-01-22 12:38:09.28	59.66	16.74	-41.3	-42.4	22.0	0.00e+00	92	41	0	501219328	56	5992
2026-01-22 12:38:13.33	60.52	16.90	-41.4	-42.5	22.0	0.00e+00	0	41	0	508559360	56	6034
2026-01-22 12:38:17.37	61.38	17.05	-41.7	-42.9	21.7	0.00e+00	0	41	0	515899392	56	6321
2026-01-22 12:38:21.41	62.25	17.20	-41.7	-42.8	21.6	0.00e+00	47	41	0	523239424	56	6314
2026-01-22 12:38:25.44	63.13	17.34	-41.1	-42.1	22.4	0.00e+00	84	41	0	530579456	56	5811
2026-01-22 12:38:29.48	64.01	17.48	-40.8	-41.8	22.4	0.00e+00	0	41	0	538968064	54	6277
2026-01-22 12:38:33.52	64.91	17.61	-41.4	-42.5	21.9	0.00e+00	0	41	0	546308096	54	6789
2026-01-22 12:38:37.56	65.81	17.74	-41.0	-42.0	22.2	0.00e+00	8	41	0	553648128	54	6438
2026-01-22 12:38:41.60	66.72	17.86	-40.4	-41.3	22.9	0.00e+00	0	41	0	560988160	54	5952
2026-01-22 12:38:45.64	67.63	17.97	-40.5	-41.5	22.6	0.00e+00	0	41	0	569376768	54	6068
2026-01-22 12:38:49.67	68.55	18.08	-40.7	-41.7	22.2	0.00e+00	0	41	0	576716800	54	6204
2026-01-22 12:38:53.71	69.48	18.18	-41.1	-42.2	22.1	0.00e+00	50	41	0	584056832	54	6561
2026-01-22 12:38:57.75	70.41	18.27	-41.3	-42.4	21.9	0.00e+00	0	41	0	591396864	54	6742
2026-01-22 12:39:01.79	71.35	18.35	-41.3	-42.4	21.9	0.00e+00	0	41	0	598736896	54	6716
2026-01-22 12:39:05.83	72.30	18.43	-41.5	-42.6	21.7	0.00e+00	0	41	0	607125504	54	6893
2026-01-22 12:39:09.87	73.25	18.50	-42.2	-43.4	21.1	0.00e+00	91	41	0	614465536	56	6757
2026-01-22 12:39:13.90	74.20	18.57	-42.2	-43.4	21.1	0.00e+00	0	41	0	621805568	56	6748
2026-01-22 12:39:17.94	75.16	18.62	-42.1	-43.3	21.1	0.00e+00	0	41	0	629145600	56	6684
2026-01-22 12:39:21.98	76.12	18.67	-41.4	-42.5	21.9	0.00e+00	43	41	0	637534208	56	6048
2026-01-22 12:39:26.02	77.08	18.71	-41.7	-42.8	21.7	0.00e+00	36	41	0	644874240	56	6289
2026-01-22 12:39:30.05	78.04	18.75	-41.6	-42.7	21.8	0.00e+00	0	41	0	652214272	56	6180
2026-01-22 12:39:34.09	79.01	18.77	-41.8	-43.0	21.5	0.00e+00	0	41	0	659554304	56	6402
2026-01-22 12:39:38.13	79.98	18.79	-42.0	-43.2	21.2	0.00e+00	16	41	0	666894336	56	6582
2026-01-22 12:39:42.17	80.95	18.80	-42.3	-43.6	21.0	0.00e+00	0	41	0	675282944	56	6880
2026-01-22 12:39:46.21	81.92	18.80	-41.2	-42.3	22.1	0.00e+00	0	41	0	682622976	56	5912
2026-01-22 12:39:50.25	82.89	18.79	-41.8	-43.0	21.5	0.00e+00	0	41	0	689963008	56	6431
2026-01-22 12:39:54.29	83.86	18.78	-42.0	-43.2	21.3	0.00e+00	92	41	0	697303040	56	6576
2026-01-22 12:39:58.32	84.83	18.75	-42.1	-43.3	21.2	0.00e+00	0	41	0	705691648	56	6660
2026-01-22 12:40:02.36	85.80	18.72	-42.0	-43.2	21.3	0.00e+00	0	41	0	713031680	56	6571
2026-01-22 12:40:06.40	86.76	18.69	-41.7	-42.9	21.7	0.00e+00	2	41	0	720371712	56	6328
2026-01-22 12:40:10.44	87.72	18.64	-40.8	-41.8	22.5	0.00e+00	83	41	0	727711744	56	5576
2026-01-22 12:40:14.48	88.68	18.58	-41.1	-42.2	22.1	0.00e+00	0	41	0	735051776	54	6576
2026-01-22 12:40:18.52	89.64	18.52	-41.6	-42.8	21.6	0.00e+00	0	41	0	743440384	54	7019
2026-01-22 12:40:22.56	90.59	18.45	-41.7	-42.8	21.5	0.00e+00	31	41	0	750780416	56	6305
2026-01-22 12:40:26.60	91.54	18.38	-41.4	-42.5	21.9	0.00e+00	0	41	0	758120448	56	6068
2026-01-22 12:40:30.63	92.48	18.29	-41.4	-42.5	21.9	0.00e+00	0	41	0	765460480	56	6078
2026-01-22 12:40:34.67	93.42	18.20	-42.2	-43.4	21.1	0.00e+00	0	41	0	773849088	56	6703
2026-01-22 12:40:38.70	94.35	18.10	-40.8	-41.8	22.4	0.00e+00	92	41	0	781189120	56	5618
2026-01-22 12:40:42.74	95.27	18.00	-41.2	-42.2	22.2	0.00e+00	0	41	0	788529152	54	6608
2026-01-22 12:40:46.78	96.19	17.89	-40.2	-41.1	22.8	0.00e+00	0	41	0	795869184	54	5811
2026-01-22 12:40:50.81	97.10	17.77	-40.5	-41.5	22.5	0.00e+00	0	41	0	803209216	54	6103
2026-01-22 12:40:54.85	98.01	17.65	-40.4	-41.4	22.5	0.00e+00	92	41	0	811597824	54	6023
2026-01-22 12:40:58.89	98.91	17.52	-40.6	-41.6	22.5	0.00e+00	0	41	0	818937856	54	6116
2026-01-22 12:41:02.93	99.80	17.38	-40.7	-41.7	22.4	0.00e+00	0	41	0	826277888	54	6241
2026-01-22 12:41:06.97	100.68	17.24	-40.8	-41.9	22.3	0.00e+00	57	42	0	833617920	54	6340
2026-01-22 12:41:11.01	101.56	17.09	-40.6	-41.6	22.4	0.00e+00	0	42	0	842006528	54	6167
2026-01-22 12:41:15.04	102.42	16.94	-40.8	-41.9	22.3	0.00e+00	0	42	0	849346560	54	6337
2026-01-22 12:41:19.08	103.28	16.78	-40.6	-41.6	22.5	0.00e+00	0	41	0	856686592	54	6173
2026-01-22 12:41:23.12	104.13	16.61	-41.2	-42.3	21.9	0.00e+00	92	41	0	864026624	54	6675
2026-01-22 12:41:27.15	104.96	16.45	-41.8	-43.0	21.4	0.00e+00	0	41	0	871366656	56	6448
2026-01-22 12:41:31.19	105.80	16.27	-41.1	-42.2	22.1	0.00e+00	0	42	0	879755264	56	5880
2026-01-22 12:41:35.23	106.62	16.10	-40.4	-41.4	22.7	0.00e+00	0	42	0	887095296	54	5978
2026-01-22 12:41:39.27	107.43	15.91	-40.6	-41.6	22.3	0.00e+00	70	41	0	894435328	54	6165
2026-01-22 12:41:43.31	108.23	15.73	-42.1	-43.3	21.0	0.00e+00	0	41	0	901775360	56	6636
2026-01-22 12:41:47.35	109.02	15.54	-42.5	-43.9	20.6	0.00e+00	0	41	0	909115392	56	7098
2026-01-22 12:41:51.39	109.81	15.35	-41.7	-42.9	21.5	0.00e+00	0	41	0	917504000	56	6320
2026-01-22 12:41:55.43	110.58	15.15	-40.7	-41.8	22.3	0.00e+00	62	42	0	924844032	54	6256
2026-01-22 12:41:59.47	111.34	14.95	-41.4	-42.5	21.7	0.00e+00	0	42	0	932184064	54	6810
2026-01-22 12:42:03.51	112.10	14.75	-42.3	-43.6	21.0	0.00e+00	0	42	0	939524096	56	6873
2026-01-22 12:42:07.55	112.84	14.55	-41.8	-43.0	21.3	0.00e+00	92	42	0	947912704	56	6425
2026-01-22 12:42:11.59	113.57	14.34	-41.5	-42.7	21.6	0.00e+00	0	42	0	955252736	56	6183
2026-01-22 12:42:15.62	114.30	14.13	-41.2	-42.3	22.0	0.00e+00	0	42	0	962592768	56	5910
2026-01-22 12:42:19.66	115.01	13.92	-41.8	-42.9	21.4	0.00e+00	0	42	0	969932800	56	6387
2026-01-22 12:42:23.70	115.71	13.70	-41.4	-42.5	21.8	0.00e+00	92	42	0	977272832	56	6058
2026-01-22 12:42:27.74	116.41	13.48	-40.8	-41.9	22.2	0.00e+00	0	42	0	985661440	56	5638
2026-01-22 12:42:31.77	117.09	13.27	-41.0	-42.0	21.9	0.00e+00	0	41	0	993001472	54	6457
2026-01-22 12:42:35.81	117.76	13.05	-41.2	-42.3	21.8	0.00e+00	5	41	0	1000341504	54	6688
2026-01-22 12:42:39.85	118.43	12.82	-41.3	-42.5	21.6	0.00e+00	29	42	0	1007681536	54	6770
2026-01-22 12:42:43.89	119.08	12.60	-40.7	-41.7	22.2	0.00e+00	0	42	0	1016070144	54	6213
2026-01-22 12:42:47.93	119.73	12.38	-40.1	-41.1	22.8	0.00e+00	0	42	0	1023410176	54	5797
2026-01-22 12:42:51.97	120.37	12.15	-41.0	-42.0	22.1	0.00e+00	75	42	0	1030750208	54	6463
2026-01-22 12:42:56.01	120.99	11.93	-41.4	-42.6	21.6	0.00e+00	0	42	0	1038090240	56	6131
2026-01-22 12:43:00.05	121.61	11.70	-40.6	-41.6	22.4	0.00e+00	0	42	0	1045430272	54	6115
2026-01-22 12:43:04.09	122.22	11.47	-40.8	-41.8	22.1	0.00e+00	0	42	0	1053818880	54	6280
2026-01-22 12:43:08.13	122.82	11.24	-41.0	-42.1	21.9	0.00e+00	90	42	0	1061158912	54	6512
2026-01-22 12:43:12.16	123.41	11.01	-40.9	-42.0	22.0	0.00e+00	0	42	0	1068498944	54	6423
2026-01-22 12:43:16.21	123.99	10.78	-41.9	-43.2	21.1	0.00e+00	0	41	0	1075838976	56	6549
2026-01-22 12:43:20.25	124.56	10.55	-42.1	-43.4	20.9	0.00e+00	0	42	0	1084227584	56	6695
2026-01-22 12:43:24.29	125.13	10.32	-42.0	-43.2	21.0	0.00e+00	71	42	0	1091567616	56	6575
2026-01-22 12:43:28.32	125.68	10.09	-41.7	-42.8	21.1	0.00e+00	0	42	0	1098907648	56	6303
2026-01-22 12:43:32.36	126.23	9.86	-41.9	-43.1	21.1	0.00e+00	0	41	0	1106247680	56	6482
2026-01-22 12:43:36.40	126.77	9.63	-41.4	-42.6	21.5	0.00e+00	0	42	0	1113587712	56	6112
2026-01-22 12:43:40.43	127.30	9.40	-41.7	-42.9	21.2	0.00e+00	62	41	0	1121976320	56	6340
2026-01-22 12:43:44.47	127.82	9.17	-41.9	-43.1	20.9	0.00e+00	0	41	0	1129316352	56	6488
2026-01-22 12:43:48.51	128.33	8.94	-41.6	-42.8	21.2	0.00e+00	0	41	0	1136656384	56	6293
2026-01-22 12:43:52.55	128.84	8.70	-41.8	-42.9	21.1	0.00e+00	83	41	0	1143996416	56	6382
2026-01-22 12:43:56.59	129.34	8.47	-42.3	-43.5	20.5	0.00e+00	0	41	0	1152385024	56	6845
2026-01-22 12:44:00.62	129.83	8.24	-41.6	-42.8	21.1	0.00e+00	0	41	0	1159725056	56	6270
2026-01-22 12:44:04.66	130.32	8.01	-41.1	-42.2	21.5	0.00e+00	0	41	0	1167065088	56	5864
2026-01-22 12:44:08.70	130.79	7.79	-41.6	-42.8	21.1	0.00e+00	88	41	0	1174405120	56	6263
2026-01-22 12:44:12.74	131.26	7.56	-42.3	-43.6	20.4	0.00e+00	0	41	0	1181745152	56	6863
2026-01-22 12:44:16.78	131.73	7.33	-43.3	-44.9	19.3	0.00e+00	0	42	0	1190133760	58	7107
2026-01-22 12:44:20.81	132.18	7.10	-43.2	-44.7	19.2	0.00e+00	2	41	0	1197473792	58	6969
2026-01-22 12:44:24.86	132.63	6.87	-44.0	-45.7	18.4	0.00e+00	92	41	0	1204813824	60	6980
2026-01-22 12:44:28.90	133.07	6.64	-43.8	-45.5	18.5	0.00e+00	0	41	0	1212153856	60	6840
2026-01-22 12:44:32.94	133.51	6.42	-43.4	-45.0	19.1	0.00e+00	0	41	0	1220542464	60	6421
2026-01-22 12:44:36.98	133.94	6.19	-43.1	-44.6	19.5	0.00e+00	70	41	0	1227882496	60	6108
2026-01-22 12:44:41.02	134.36	5.97	-43.3	-44.8	19.3	0.00e+00	0	41	0	1235222528	60	6274
2026-01-22 12:44:45.05	134.78	5.74	-43.5	-45.1	19.0	0.00e+00	0	41	0	1242562560	60	6505
2026-01-22 12:44:49.09	135.19	5.52	-42.4	-43.7	20.2	0.00e+00	0	41	0	1249902592	58	6223
2026-01-22 12:44:53.13	135.59	5.30	-42.5	-43.9	19.9	0.00e+00	74	41	0	1258291200	58	6331
2026-01-22 12:44:57.17	135.99	5.07	-43.7	-45.4	18.4	0.00e+00	0	41	0	1265631232	58	7592
2026-01-22 12:45:01.21	136.39	4.85	-43.4	-45.0	18.6	0.00e+00	0	41	0	1272971264	60	6457
2026-01-22 12:45:05.24	136.77	4.63	-43.8	-45.6	18.2	0.00e+00	0	41	0	1280311296	60	6904
2026-01-22 12:45:09.28	137.16	4.41	-44.2	-46.2	17.7	0.00e+00	90	41	0	1288699904	60	7353
2026-01-22 12:45:13.32	137.53	4.19	-43.8	-45.6	18.2	0.00e+00	0	41	0	1296039936	60	6866
2026-01-22 12:45:17.35	137.90	3.97	-43.7	-45.5	18.3	0.00e+00	0	41	0	1303379968	60	6796
2026-01-22 12:45:21.39	138.27	3.76	-43.7	-45.5	18.1	0.00e+00	40	41	0	1310720000	60	6774
2026-01-22 12:45:25.43	138.63	3.54	-45.0	-47.4	16.1	0.00e+00	92	41	0	1318060032	60	8452
2026-01-22 12:45:29.47	138.99	3.32	-45.5	-48.3	14.8	0.00e+00	0	41	0	1326448640	60	9393
2026-01-22 12:45:33.51	139.34	3.11	-46.5	-51.0	11.5	3.86e-04	0	41	0	1333788672	60	12815
2026-01-22 12:45:37.54	139.68	2.90	-50.3	-65.5	3.6	1.51e+00	0	41	104	1336934400	60	68409
2026-01-22 12:45:41.58	140.02	2.68	-50.7	-66.0	3.6	1.51e+00	0	41	104	1336934400	60	72165
2026-01-22 12:45:45.62	140.36	2.47	-51.0	-66.2	3.6	1.51e+00	0	41	104	1336934400	60	73979
2026-01-22 12:45:49.66	140.69	2.26	-51.1	-66.4	3.6	1.51e+00	0	41	104	1336934400	60	75502
2026-01-22 12:45:53.70	141.02	2.05	-51.2	-66.4	3.6	1.51e+00	0	41	104	1336934400	60	75228
2026-01-22 12:45:57.74	141.34	1.84	-51.2	-66.4	3.6	1.51e+00	0	41	104	1336934400	60	75671
2026-01-22 12:46:01.78	141.66	1.63	-51.3	-66.5	3.6	1.51e+00	0	41	104	1336934400	60	76110
2026-01-22 12:46:05.82	141.98	1.42	-51.2	-66.4	3.6	1.51e+00	0	41	104	1336934400	60	75677
2026-01-22 12:46:09.86	142.29	1.21	-51.3	-66.5	3.6	1.51e+00	0	41	104	1336934400	60	76108
2026-01-22 12:46:13.89	142.59	1.00	-51.3	-66.5	3.6	1.51e+00	0	41	104	1336934400	60	76227
2026-01-22 12:46:17.94	142.90	0.80	-51.4	-66.6	3.6	1.51e+00	0	41	104	1336934400	60	77197
2026-01-22 12:46:21.97	143.19	0.59	-51.4	-66.6	3.6	1.51e+00	0	41	104	1336934400	60	77156
2026-01-22 12:46:26.01	143.49	0.39	-51.4	-66.6	3.6	1.51e+00	0	41	104	1336934400	60	77633
2026-01-22 12:46:30.05	143.78	0.18	-51.3	-66.5	3.6	1.51e+00	0	41	104	1336934400	60	76530
2026-01-22 12:46:34.08	144.07	-0.02	-51.4	-66.6	3.6	1.51e+00	0	41	104	1336934400	60	77382

#Closed at: 2026-01-22 12:46:35
#Recorded file [1336 MB]: D:/lorett/data/35029_260123_003254.dat