passes_logs/2026/01/22/R4.6S_Anadyr/R4.6S_Anadyr__20260122_155342_SUOMI_NPP_rec.log

#Pass ID: 20260122_155342_SUOMI NPP
#Satellite: SUOMI NPP
#Configuration: NPP
#almurnet v.1.7.20251203
#Start time: 2026-01-22 15:53:45

#Version: 2.2.20231116
#Station: R4.6S_Anadyr
#Location: 177.4865 lon 64.73178 lat
#TLE: 1 37849U 11061A   26021.51818991  .00000201  00000+0  11636-3 0  9995
#TLE: 2 37849  98.7819 323.5108 0002300  52.3548 307.7836 14.19527793737637

#Time	Az	El	Level	Level2	SNR	BER	BlckErr	Temp	State	Recorded	gain1	gain2
2026-01-22 15:53:45.26	23.54	0.16	-51.5	-64.0	3.5	1.52e+00	0	39	0	0	60	55637
2026-01-22 15:53:49.30	23.44	0.40	-51.8	-67.0	3.6	1.51e+00	0	40	104	0	60	81020
2026-01-22 15:53:53.34	23.33	0.64	-51.9	-67.1	3.6	1.51e+00	0	40	104	0	60	82108
2026-01-22 15:53:57.38	23.23	0.88	-51.3	-66.6	3.6	1.51e+00	0	40	104	0	60	76845
2026-01-22 15:54:01.42	23.12	1.12	-51.0	-66.2	3.6	1.51e+00	0	40	104	0	60	73579
2026-01-22 15:54:05.46	23.01	1.37	-50.5	-65.7	3.6	1.51e+00	0	40	104	0	60	69841
2026-01-22 15:54:09.50	22.90	1.62	-49.8	-64.9	3.6	1.51e+00	0	40	104	0	60	63472
2026-01-22 15:54:13.54	22.78	1.87	-49.7	-64.8	3.6	1.51e+00	0	40	104	0	60	62912
2026-01-22 15:54:17.58	22.67	2.12	-49.7	-64.3	3.6	1.51e+00	0	40	104	0	60	59500
2026-01-22 15:54:21.62	22.55	2.37	-49.6	-64.8	3.6	1.51e+00	0	40	104	0	60	62542
2026-01-22 15:54:25.66	22.43	2.63	-49.7	-64.7	3.5	1.51e+00	0	40	104	0	60	62295
2026-01-22 15:54:29.69	22.30	2.88	-49.6	-63.9	3.6	1.51e+00	0	41	104	0	60	56532
2026-01-22 15:54:33.73	22.18	3.15	-49.6	-63.7	3.6	1.51e+00	0	40	104	0	60	55072
2026-01-22 15:54:37.77	22.05	3.41	-49.5	-63.2	3.6	1.51e+00	0	41	104	0	60	51961
2026-01-22 15:54:41.81	21.92	3.67	-49.0	-56.2	6.7	2.72e-01	0	41	0	3145728	60	23404
2026-01-22 15:54:45.85	21.78	3.94	-49.5	-62.6	3.6	1.18e+00	54	41	104	6291456	60	48684
2026-01-22 15:54:49.89	21.65	4.21	-42.1	-43.5	20.3	0.00e+00	0	41	0	6291456	58	6040
2026-01-22 15:54:53.92	21.51	4.48	-41.7	-43.0	20.8	0.00e+00	0	41	0	13631488	56	6421
2026-01-22 15:54:57.95	21.36	4.76	-41.9	-43.1	20.7	0.00e+00	0	41	0	22020096	56	6531
2026-01-22 15:55:01.99	21.22	5.04	-42.2	-43.5	20.4	0.00e+00	82	41	0	29360128	56	6803
2026-01-22 15:55:06.03	21.07	5.32	-42.2	-43.5	20.3	0.00e+00	0	41	0	36700160	56	6810
2026-01-22 15:55:10.07	20.92	5.60	-42.1	-43.4	20.2	0.00e+00	0	41	0	44040192	56	6752
2026-01-22 15:55:14.10	20.76	5.89	-41.9	-43.2	20.6	0.00e+00	56	41	0	51380224	56	6555
2026-01-22 15:55:18.14	20.60	6.18	-41.8	-43.0	20.9	0.00e+00	42	41	0	59768832	56	6438
2026-01-22 15:55:22.17	20.44	6.47	-41.9	-43.1	21.0	0.00e+00	0	41	0	67108864	56	6504
2026-01-22 15:55:26.21	20.28	6.76	-41.8	-43.0	21.0	0.00e+00	33	41	0	74448896	56	6461
2026-01-22 15:55:30.25	20.11	7.06	-41.6	-42.8	21.2	0.00e+00	80	41	0	81788928	56	6273
2026-01-22 15:55:34.28	19.93	7.36	-41.4	-42.6	21.4	0.00e+00	0	41	0	90177536	56	6148
2026-01-22 15:55:38.32	19.76	7.67	-41.5	-42.6	21.5	0.00e+00	0	41	0	97517568	56	6170
2026-01-22 15:55:42.35	19.57	7.98	-41.5	-42.6	21.4	0.00e+00	0	41	0	104857600	56	6167
2026-01-22 15:55:46.39	19.39	8.29	-41.2	-42.3	21.7	0.00e+00	86	41	0	112197632	56	5915
2026-01-22 15:55:50.43	19.20	8.60	-41.1	-42.2	21.8	0.00e+00	0	41	0	119537664	56	5848
2026-01-22 15:55:54.47	19.00	8.92	-41.1	-42.2	21.9	0.00e+00	0	41	0	127926272	56	5880
2026-01-22 15:55:58.50	18.80	9.25	-41.1	-42.2	21.9	0.00e+00	0	41	0	135266304	56	5848
2026-01-22 15:56:02.54	18.60	9.57	-40.9	-42.0	22.1	0.00e+00	78	41	0	142606336	56	5707
2026-01-22 15:56:06.57	18.39	9.90	-40.7	-41.7	22.3	0.00e+00	0	41	0	149946368	54	6221
2026-01-22 15:56:10.61	18.17	10.24	-40.8	-41.9	22.1	0.00e+00	0	41	0	157286400	54	6323
2026-01-22 15:56:14.65	17.95	10.58	-40.5	-41.6	22.4	0.00e+00	65	41	0	165675008	54	6117
2026-01-22 15:56:18.69	17.73	10.92	-40.7	-41.7	22.3	0.00e+00	0	41	0	173015040	54	6204
2026-01-22 15:56:22.73	17.50	11.27	-40.5	-41.5	22.6	0.00e+00	0	41	0	180355072	54	6051
2026-01-22 15:56:26.77	17.26	11.62	-40.4	-41.4	22.6	0.00e+00	0	41	0	187695104	54	5976
2026-01-22 15:56:30.80	17.02	11.98	-40.8	-41.9	22.2	0.00e+00	80	41	0	196083712	54	6349
2026-01-22 15:56:34.84	16.77	12.34	-40.5	-41.5	22.5	0.00e+00	0	41	0	203423744	54	6043
2026-01-22 15:56:38.87	16.51	12.70	-41.0	-42.0	22.2	0.00e+00	0	41	0	210763776	54	6420
2026-01-22 15:56:42.91	16.25	13.07	-40.7	-41.7	22.4	0.00e+00	0	41	0	218103808	54	6242
2026-01-22 15:56:46.95	15.98	13.45	-40.8	-41.9	22.4	0.00e+00	59	41	0	225443840	54	6329
2026-01-22 15:56:50.99	15.70	13.83	-40.4	-41.5	22.5	0.00e+00	0	41	0	233832448	54	6036
2026-01-22 15:56:55.02	15.41	14.22	-40.4	-41.4	22.7	0.00e+00	0	41	0	241172480	54	6004
2026-01-22 15:56:59.06	15.12	14.61	-40.6	-41.7	22.4	0.00e+00	0	41	0	248512512	54	6180
2026-01-22 15:57:03.10	14.82	15.01	-40.4	-41.4	22.7	0.00e+00	92	41	0	255852544	54	6028
2026-01-22 15:57:07.14	14.51	15.41	-40.3	-41.3	22.8	0.00e+00	0	41	0	264241152	54	5939
2026-01-22 15:57:11.17	14.19	15.82	-40.5	-41.6	22.6	0.00e+00	0	41	0	271581184	54	6104
2026-01-22 15:57:15.21	13.86	16.24	-40.7	-41.7	22.5	0.00e+00	86	41	0	278921216	54	6233
2026-01-22 15:57:19.25	13.52	16.66	-40.7	-41.7	22.5	0.00e+00	0	41	0	286261248	54	6215
2026-01-22 15:57:23.28	13.17	17.09	-40.6	-41.6	22.7	0.00e+00	0	41	0	293601280	54	6115
2026-01-22 15:57:27.32	12.81	17.52	-40.3	-41.3	22.9	0.00e+00	0	41	0	301989888	54	5917
2026-01-22 15:57:31.36	12.44	17.96	-40.5	-41.5	22.7	0.00e+00	76	41	0	309329920	54	6045
2026-01-22 15:57:35.40	12.06	18.41	-40.7	-41.7	22.6	0.00e+00	0	41	0	316669952	54	6220
2026-01-22 15:57:39.43	11.67	18.86	-40.6	-41.6	22.9	0.00e+00	0	41	0	324009984	54	6134
2026-01-22 15:57:43.47	11.26	19.32	-40.2	-41.2	23.0	0.00e+00	0	41	0	332398592	54	5835
2026-01-22 15:57:47.51	10.84	19.79	-40.7	-41.7	22.6	0.00e+00	81	41	0	339738624	54	6207
2026-01-22 15:57:51.55	10.41	20.27	-41.2	-42.3	22.3	0.00e+00	0	41	0	347078656	54	6656
2026-01-22 15:57:55.58	9.96	20.75	-41.3	-42.3	22.0	0.00e+00	0	41	0	354418688	54	6690
2026-01-22 15:57:59.62	9.50	21.24	-41.1	-42.1	22.1	0.00e+00	0	41	0	361758720	54	6521
2026-01-22 15:58:03.65	9.02	21.74	-41.3	-42.4	22.1	0.00e+00	49	41	0	370147328	54	6695
2026-01-22 15:58:07.69	8.53	22.25	-41.1	-42.1	22.4	0.00e+00	0	41	0	377487360	54	6480
2026-01-22 15:58:11.73	8.02	22.76	-41.6	-42.6	22.0	0.00e+00	0	41	0	384827392	56	6166
2026-01-22 15:58:15.77	7.49	23.28	-41.4	-42.5	22.1	0.00e+00	89	41	0	392167424	56	6063
2026-01-22 15:58:19.81	6.94	23.81	-41.5	-42.6	22.0	0.00e+00	0	41	0	400556032	56	6167
2026-01-22 15:58:23.85	6.38	24.35	-41.8	-42.9	21.8	0.00e+00	0	41	0	407896064	56	6378
2026-01-22 15:58:27.88	5.79	24.89	-41.9	-43.1	21.7	0.00e+00	0	41	0	415236096	56	6488
2026-01-22 15:58:31.92	5.19	25.45	-42.0	-43.2	21.6	0.00e+00	89	41	0	422576128	56	6540
2026-01-22 15:58:35.96	4.55	26.01	-41.5	-42.6	22.2	0.00e+00	0	41	0	429916160	56	6123
2026-01-22 15:58:40.00	3.90	26.58	-42.1	-43.2	21.4	0.00e+00	0	41	0	438304768	56	6612
2026-01-22 15:58:44.04	3.22	27.16	-42.1	-43.2	21.7	0.00e+00	9	41	0	445644800	56	6596
2026-01-22 15:58:48.08	2.52	27.74	-41.5	-42.5	22.1	0.00e+00	92	41	0	452984832	56	6095
2026-01-22 15:58:52.11	1.79	28.33	-41.7	-42.8	22.0	0.00e+00	0	41	0	460324864	56	6296
2026-01-22 15:58:56.16	1.03	28.93	-41.2	-42.3	22.2	0.00e+00	0	41	0	468713472	56	5919
2026-01-22 15:59:00.19	0.24	29.54	-41.4	-42.4	22.1	0.00e+00	3	41	0	476053504	56	6033
2026-01-22 15:59:04.24	359.42	30.15	-42.2	-43.3	21.3	0.00e+00	0	41	0	483393536	56	6674
2026-01-22 15:59:08.28	358.57	30.77	-42.5	-43.7	21.0	0.00e+00	0	41	0	490733568	56	6959
2026-01-22 15:59:12.32	357.68	31.40	-42.4	-43.6	21.1	0.00e+00	0	41	0	498073600	58	6119
2026-01-22 15:59:16.36	356.76	32.03	-43.5	-44.9	20.2	0.00e+00	86	41	0	506462208	60	6328
2026-01-22 15:59:20.40	355.80	32.67	-42.3	-43.4	21.4	0.00e+00	0	41	0	513802240	58	6029
2026-01-22 15:59:24.43	354.81	33.31	-42.6	-43.8	21.1	0.00e+00	0	41	0	521142272	56	7009
2026-01-22 15:59:28.47	353.77	33.95	-43.0	-44.3	20.6	0.00e+00	0	41	0	528482304	58	6633
2026-01-22 15:59:32.51	352.69	34.60	-43.0	-44.3	20.5	0.00e+00	84	41	0	536870912	58	6631
2026-01-22 15:59:36.55	351.57	35.24	-45.1	-46.9	18.3	0.00e+00	0	41	0	544210944	60	8023
2026-01-22 15:59:40.59	350.40	35.89	-43.5	-44.9	20.2	0.00e+00	0	42	0	551550976	60	6342
2026-01-22 15:59:44.62	349.18	36.53	-41.7	-42.8	21.9	0.00e+00	81	41	0	558891008	56	6284
2026-01-22 15:59:48.66	347.91	37.18	-42.2	-43.4	21.4	0.00e+00	17	42	0	566231040	56	6722
2026-01-22 15:59:52.70	346.59	37.82	-43.0	-44.4	20.4	0.00e+00	0	41	0	574619648	58	6740
2026-01-22 15:59:56.74	345.22	38.45	-43.9	-45.4	19.6	0.00e+00	0	41	0	581959680	58	7575
2026-01-22 16:00:00.77	343.79	39.07	-42.2	-43.4	21.9	0.00e+00	86	41	0	589299712	58	5975
2026-01-22 16:00:04.81	342.31	39.69	-44.1	-45.7	19.2	0.00e+00	0	42	0	596639744	60	6976
2026-01-22 16:00:08.85	340.77	40.29	-42.1	-43.3	21.5	0.00e+00	0	42	0	605028352	58	5921
2026-01-22 16:00:12.89	339.17	40.88	-42.4	-43.5	21.1	0.00e+00	0	42	0	612368384	56	6823
2026-01-22 16:00:16.93	337.52	41.45	-41.7	-42.8	21.9	0.00e+00	87	42	0	619708416	58	5616
2026-01-22 16:00:20.96	335.80	42.00	-41.3	-42.4	22.4	0.00e+00	0	41	0	627048448	56	5983
2026-01-22 16:00:25.00	334.03	42.53	-40.1	-41.0	23.4	0.00e+00	0	42	0	634388480	54	5748
2026-01-22 16:00:29.03	332.20	43.03	-42.1	-43.2	21.9	0.00e+00	48	42	0	642777088	56	6607
2026-01-22 16:00:33.07	330.31	43.51	-40.2	-41.1	23.0	0.00e+00	91	42	0	650117120	54	5797
2026-01-22 16:00:37.11	328.36	43.96	-39.4	-40.2	24.0	0.00e+00	0	41	0	657457152	52	5856
2026-01-22 16:00:41.15	326.36	44.37	-42.1	-43.3	21.4	0.00e+00	0	42	0	664797184	56	6633
2026-01-22 16:00:45.19	324.31	44.75	-43.6	-45.1	19.8	0.00e+00	15	42	0	673185792	60	6477
2026-01-22 16:00:49.23	322.21	45.09	-41.4	-42.4	22.3	0.00e+00	0	42	0	680525824	56	6014
2026-01-22 16:00:53.27	320.07	45.38	-41.5	-42.5	21.9	0.00e+00	0	42	0	687865856	54	6825
2026-01-22 16:00:57.31	317.89	45.64	-43.3	-44.7	20.0	0.00e+00	0	42	0	695205888	58	6984
2026-01-22 16:01:01.35	315.68	45.85	-42.0	-43.0	21.8	0.00e+00	89	42	0	702545920	58	5748
2026-01-22 16:01:05.39	313.44	46.01	-42.1	-43.3	21.6	0.00e+00	0	42	0	710934528	56	6617
2026-01-22 16:01:09.42	311.19	46.12	-43.4	-44.7	20.3	0.00e+00	0	42	0	718274560	58	6993
2026-01-22 16:01:13.46	308.92	46.19	-42.4	-43.6	21.4	0.00e+00	0	42	0	725614592	58	6110
2026-01-22 16:01:17.50	306.64	46.20	-42.0	-43.1	21.8	0.00e+00	84	42	0	732954624	56	6520
2026-01-22 16:01:21.53	304.37	46.17	-41.2	-42.2	22.6	0.00e+00	0	42	0	741343232	56	5866
2026-01-22 16:01:25.57	302.10	46.08	-42.4	-43.6	21.5	0.00e+00	0	42	0	748683264	56	6880
2026-01-22 16:01:29.60	299.86	45.95	-42.4	-43.5	21.4	0.00e+00	73	42	0	756023296	58	6078
2026-01-22 16:01:33.64	297.63	45.77	-43.5	-44.9	20.1	0.00e+00	0	42	0	763363328	58	7149
2026-01-22 16:01:37.67	295.43	45.54	-44.1	-45.6	19.6	0.00e+00	0	42	0	770703360	60	6912
2026-01-22 16:01:41.71	293.27	45.27	-42.7	-43.9	21.2	0.00e+00	0	42	0	779091968	58	6343
2026-01-22 16:01:45.75	291.14	44.95	-40.9	-41.8	22.9	0.00e+00	92	42	0	786432000	56	5596
2026-01-22 16:01:49.79	289.06	44.60	-41.4	-42.4	22.3	0.00e+00	0	42	0	793772032	54	6750
2026-01-22 16:01:53.82	287.03	44.20	-42.4	-43.6	21.4	0.00e+00	0	42	0	801112064	58	6136
2026-01-22 16:01:57.86	285.05	43.78	-41.4	-42.4	22.4	0.00e+00	0	42	0	808452096	56	6011
2026-01-22 16:02:01.89	283.13	43.32	-40.6	-41.6	22.8	0.00e+00	92	42	0	816840704	54	6135
2026-01-22 16:02:05.93	281.26	42.83	-40.5	-41.5	23.1	0.00e+00	0	42	0	824180736	54	6050
2026-01-22 16:02:09.97	279.44	42.31	-39.9	-40.8	23.4	0.00e+00	0	42	0	831520768	54	5589
2026-01-22 16:02:14.01	277.69	41.77	-38.9	-39.8	24.2	0.00e+00	57	42	0	838860800	52	5568
2026-01-22 16:02:18.05	275.99	41.21	-37.4	-38.1	25.2	0.00e+00	92	42	0	847249408	48	5782
2026-01-22 16:02:22.08	274.36	40.63	-38.2	-39.0	24.8	0.00e+00	0	42	0	854589440	48	6399
2026-01-22 16:02:26.12	272.78	40.04	-39.0	-39.8	24.3	0.00e+00	0	42	0	861929472	50	6303
2026-01-22 16:02:30.16	271.26	39.43	-40.7	-41.7	22.9	0.00e+00	0	42	0	869269504	52	6942
2026-01-22 16:02:34.20	269.80	38.81	-40.1	-41.0	23.4	0.00e+00	0	41	0	876609536	52	6453
2026-01-22 16:02:38.25	268.39	38.17	-41.3	-42.3	22.3	0.00e+00	0	42	0	884998144	54	6692
2026-01-22 16:02:42.28	267.04	37.54	-40.1	-41.0	23.3	0.00e+00	0	42	0	892338176	54	5745
2026-01-22 16:02:46.32	265.74	36.90	-39.7	-40.5	23.7	0.00e+00	59	42	0	899678208	52	6071
2026-01-22 16:02:50.35	264.49	36.25	-41.3	-42.3	22.0	0.00e+00	0	42	0	907018240	54	6667
2026-01-22 16:02:54.39	263.29	35.60	-42.2	-43.2	21.6	0.00e+00	0	42	0	915406848	58	5896
2026-01-22 16:02:58.43	262.13	34.95	-43.3	-44.6	20.4	0.00e+00	0	42	0	922746880	58	6924
2026-01-22 16:03:02.47	261.02	34.31	-44.5	-46.1	19.1	0.00e+00	92	41	0	930086912	60	7323
2026-01-22 16:03:06.50	259.96	33.66	-44.2	-45.6	19.9	0.00e+00	0	42	0	937426944	60	6923
2026-01-22 16:03:10.54	258.94	33.02	-45.8	-47.7	17.5	0.00e+00	0	41	0	944766976	60	8753
2026-01-22 16:03:14.58	257.95	32.38	-44.5	-46.1	19.4	0.00e+00	83	42	0	953155584	60	7297
2026-01-22 16:03:18.62	257.01	31.74	-43.2	-44.5	20.6	0.00e+00	38	42	0	960495616	60	6060
2026-01-22 16:03:22.65	256.10	31.11	-41.9	-42.9	21.8	0.00e+00	0	41	0	967835648	58	5678
2026-01-22 16:03:26.69	255.23	30.48	-42.7	-43.9	20.9	0.00e+00	0	41	0	975175680	58	6354
2026-01-22 16:03:30.72	254.39	29.87	-42.1	-43.2	21.4	0.00e+00	78	41	0	982515712	58	5856
2026-01-22 16:03:34.76	253.58	29.25	-42.2	-43.3	21.6	0.00e+00	0	41	0	990904320	58	5933
2026-01-22 16:03:38.80	252.80	28.65	-41.9	-42.9	21.9	0.00e+00	0	41	0	998244352	56	6381
2026-01-22 16:03:42.83	252.05	28.05	-42.1	-43.1	21.8	0.00e+00	0	41	0	1005584384	56	6539
2026-01-22 16:03:46.87	251.33	27.46	-42.0	-43.1	21.8	0.00e+00	70	41	0	1012924416	56	6477
2026-01-22 16:03:50.90	250.64	26.88	-42.0	-43.1	21.6	0.00e+00	0	41	0	1021313024	56	6480
2026-01-22 16:03:54.94	249.97	26.30	-42.7	-43.9	21.1	0.00e+00	0	41	0	1028653056	58	6355
2026-01-22 16:03:59.00	249.32	25.73	-41.9	-43.1	21.8	0.00e+00	65	41	0	1035993088	58	5767
2026-01-22 16:04:03.03	248.69	25.17	-40.5	-41.4	23.0	0.00e+00	3	41	0	1043333120	54	6016
2026-01-22 16:04:07.07	248.09	24.62	-41.6	-42.6	22.0	0.00e+00	0	41	0	1050673152	54	6925
2026-01-22 16:04:11.11	247.51	24.08	-41.8	-42.8	21.9	0.00e+00	0	41	0	1059061760	56	6315
2026-01-22 16:04:15.15	246.95	23.54	-43.0	-44.2	20.9	0.00e+00	21	41	0	1066401792	58	6602
2026-01-22 16:04:19.18	246.41	23.01	-43.2	-44.5	20.8	0.00e+00	0	41	0	1073741824	58	6781
2026-01-22 16:04:23.22	245.89	22.49	-41.2	-42.2	22.4	0.00e+00	0	41	0	1081081856	56	5834
2026-01-22 16:04:27.26	245.38	21.98	-40.7	-41.7	22.6	0.00e+00	0	41	0	1089470464	54	6197
2026-01-22 16:04:31.29	244.89	21.48	-40.6	-41.6	22.8	0.00e+00	91	41	0	1096810496	54	6141
2026-01-22 16:04:35.33	244.42	20.98	-41.3	-42.3	22.3	0.00e+00	0	41	0	1104150528	54	6645
2026-01-22 16:04:39.36	243.96	20.49	-41.2	-42.2	22.3	0.00e+00	0	41	0	1111490560	54	6595
2026-01-22 16:04:43.40	243.52	20.01	-41.1	-42.1	22.5	0.00e+00	0	41	0	1118830592	54	6519
2026-01-22 16:04:47.44	243.09	19.54	-42.2	-43.3	21.5	0.00e+00	81	41	0	1127219200	56	6665
2026-01-22 16:04:51.47	242.68	19.07	-43.1	-44.5	20.3	0.00e+00	0	41	0	1134559232	58	6777
2026-01-22 16:04:55.51	242.27	18.61	-43.0	-44.3	20.3	0.00e+00	0	41	0	1141899264	58	6629
2026-01-22 16:04:59.55	241.88	18.16	-42.4	-43.6	21.0	0.00e+00	0	41	0	1149239296	58	6143
2026-01-22 16:05:03.59	241.50	17.71	-42.1	-43.2	21.4	0.00e+00	0	41	0	1157627904	58	5889
2026-01-22 16:05:07.62	241.13	17.27	-41.5	-42.6	22.0	0.00e+00	0	41	0	1164967936	56	6121
2026-01-22 16:05:11.66	240.78	16.84	-41.8	-42.9	21.8	0.00e+00	0	41	0	1172307968	56	6327
2026-01-22 16:05:15.70	240.43	16.41	-42.7	-44.0	21.0	0.00e+00	78	41	0	1179648000	56	7199
2026-01-22 16:05:19.74	240.09	15.99	-42.3	-43.5	21.3	0.00e+00	0	41	0	1186988032	58	6067
2026-01-22 16:05:23.78	239.76	15.58	-41.8	-42.9	21.6	0.00e+00	0	41	0	1195376640	56	6377
2026-01-22 16:05:27.82	239.45	15.17	-42.3	-43.5	21.2	0.00e+00	0	41	0	1202716672	56	6832
2026-01-22 16:05:31.86	239.14	14.77	-43.1	-44.5	20.2	0.00e+00	71	41	0	1210056704	58	6819
2026-01-22 16:05:35.90	238.83	14.37	-44.1	-45.7	19.2	0.00e+00	0	41	0	1217396736	60	6931
2026-01-22 16:05:39.94	238.54	13.98	-44.1	-45.7	19.2	0.00e+00	33	41	0	1225785344	60	6947
2026-01-22 16:05:43.97	238.26	13.60	-43.6	-45.1	19.7	0.00e+00	0	41	0	1233125376	60	6478
2026-01-22 16:05:48.01	237.98	13.22	-43.3	-44.7	19.9	0.00e+00	82	41	0	1240465408	60	6226
2026-01-22 16:05:52.04	237.71	12.84	-43.7	-45.2	19.6	0.00e+00	0	41	0	1247805440	60	6582
2026-01-22 16:05:56.09	237.45	12.47	-44.0	-45.5	19.2	0.00e+00	0	41	0	1255145472	60	6832
2026-01-22 16:06:00.13	237.19	12.11	-44.4	-46.0	18.6	0.00e+00	0	41	0	1263534080	60	7210
2026-01-22 16:06:04.17	236.94	11.74	-44.6	-46.4	18.2	0.00e+00	0	41	0	1270874112	60	7520
2026-01-22 16:06:08.21	236.70	11.39	-45.2	-47.1	17.6	0.00e+00	0	41	0	1278214144	60	8220
2026-01-22 16:06:12.24	236.46	11.04	-45.7	-47.9	16.8	0.00e+00	0	41	0	1285554176	60	8947
2026-01-22 16:06:16.28	236.23	10.69	-45.9	-48.1	16.5	0.00e+00	84	41	0	1293942784	60	9191
2026-01-22 16:06:20.32	236.00	10.35	-46.4	-48.9	15.7	0.00e+00	0	41	0	1301282816	60	10112
2026-01-22 16:06:24.36	235.78	10.01	-46.7	-49.4	15.2	0.00e+00	0	41	0	1308622848	60	10660
2026-01-22 16:06:28.40	235.57	9.68	-47.0	-49.9	14.7	0.00e+00	9	41	0	1315962880	60	11295
2026-01-22 16:06:32.44	235.36	9.35	-47.4	-50.6	14.0	4.50e-06	92	41	0	1323302912	60	12226
2026-01-22 16:06:36.47	235.15	9.02	-47.7	-51.3	13.1	1.60e-05	0	41	0	1331691520	60	13233
2026-01-22 16:06:40.50	234.95	8.70	-48.2	-52.2	12.3	1.68e-04	0	41	0	1339031552	60	14749
2026-01-22 16:06:44.54	234.75	8.38	-48.4	-52.9	11.3	9.54e-04	8	41	0	1346371584	60	15967
2026-01-22 16:06:48.57	234.56	8.07	-48.4	-53.1	11.0	1.90e-03	9	41	0	1353711616	60	16310
2026-01-22 16:06:52.61	234.38	7.76	-48.6	-53.6	10.4	3.89e-03	0	41	0	1361051648	60	17210
2026-01-22 16:06:56.64	234.19	7.45	-48.7	-54.1	9.6	7.51e-03	0	41	0	1369440256	60	18427
2026-01-22 16:07:00.69	234.01	7.15	-49.1	-55.0	8.6	2.72e-02	54	41	0	1376780288	60	20396
2026-01-22 16:07:04.73	233.84	6.85	-49.2	-55.6	7.9	7.26e-02	0	41	0	1384120320	60	21808
2026-01-22 16:07:08.76	233.67	6.55	-49.2	-56.3	7.0	1.51e-01	0	41	0	1391460352	60	23511
2026-01-22 16:07:12.80	233.50	6.25	-49.3	-57.0	6.0	2.61e-01	0	41	0	1399848960	60	25675
2026-01-22 16:07:16.84	233.34	5.96	-49.4	-57.9	5.1	4.66e-01	92	41	0	1407188992	60	28363
2026-01-22 16:07:20.88	233.18	5.67	-49.3	-58.2	4.7	7.23e-01	0	41	0	1414529024	60	29360
2026-01-22 16:07:24.92	233.02	5.39	-49.4	-58.9	4.2	9.68e-01	0	41	0	1421869056	60	31907
2026-01-22 16:07:28.95	232.87	5.11	-49.2	-59.6	3.8	1.35e+00	0	41	0	1428160512	60	34711
2026-01-22 16:07:33.00	232.71	4.82	-49.2	-60.9	4.1	1.47e+00	0	41	104	1429209088	60	39884
2026-01-22 16:07:37.03	232.57	4.55	-49.2	-60.8	3.9	1.43e+00	0	41	0	1429209088	60	39456
2026-01-22 16:07:41.07	232.42	4.27	-49.0	-61.3	3.8	1.45e+00	0	41	104	1429209088	60	41964
2026-01-22 16:07:45.11	232.28	4.00	-48.9	-61.8	3.7	1.50e+00	0	41	104	1429209088	60	44298
2026-01-22 16:07:49.15	232.14	3.73	-48.9	-62.2	3.6	1.51e+00	0	41	104	1429209088	60	46578
2026-01-22 16:07:53.19	232.01	3.46	-48.7	-62.2	3.6	1.50e+00	0	41	104	1429209088	60	46326
2026-01-22 16:07:57.23	231.87	3.20	-48.8	-62.9	3.6	1.51e+00	0	41	104	1429209088	60	50543
2026-01-22 16:08:01.26	231.74	2.94	-49.8	-65.1	3.6	1.51e+00	0	41	104	1429209088	60	64706
2026-01-22 16:08:05.30	231.61	2.68	-51.1	-66.3	3.6	1.51e+00	0	41	104	1429209088	60	74895
2026-01-22 16:08:09.34	231.49	2.42	-51.2	-66.4	3.6	1.51e+00	0	41	104	1429209088	60	75823
2026-01-22 16:08:13.38	231.36	2.17	-51.3	-66.5	3.6	1.51e+00	0	41	104	1429209088	60	76073
2026-01-22 16:08:17.42	231.24	1.91	-51.2	-66.5	3.6	1.51e+00	0	41	104	1429209088	60	76167
2026-01-22 16:08:21.46	231.12	1.66	-51.1	-66.4	3.6	1.51e+00	0	41	104	1429209088	60	75701
2026-01-22 16:08:25.50	231.01	1.41	-51.1	-66.5	3.6	1.51e+00	0	41	104	1429209088	60	76092
2026-01-22 16:08:29.54	230.89	1.16	-51.2	-66.5	3.6	1.51e+00	0	41	104	1429209088	60	76146
2026-01-22 16:08:33.58	230.78	0.92	-51.4	-66.7	3.6	1.51e+00	0	41	104	1429209088	60	78038
2026-01-22 16:08:37.61	230.67	0.68	-51.4	-66.6	3.6	1.51e+00	0	41	104	1429209088	60	77321
2026-01-22 16:08:41.65	230.56	0.43	-51.4	-66.7	3.6	1.51e+00	0	41	104	1429209088	60	77774
2026-01-22 16:08:45.69	230.45	0.19	-51.5	-66.7	3.6	1.51e+00	0	41	104	1429209088	60	77936
2026-01-22 16:08:49.73	230.35	-0.04	-51.3	-66.6	3.6	1.51e+00	0	41	104	1429209088	60	76869

#Closed at: 2026-01-22 16:08:51
#Recorded file [1429 MB]: D:/lorett/data/35029_260123_035345.dat