passes_logs/2026/01/22/R4.6S_Anadyr/R4.6S_Anadyr__20260122_165125_FENGYUN_3D_rec.log

#Pass ID: 20260122_165125_FENGYUN 3D
#Satellite: FENGYUN 3D
#Configuration: FENGYUN 3D
#almurnet v.1.7.20251203
#Start time: 2026-01-22 16:51:26

#Version: 2.2.20231116
#Station: R4.6S_Anadyr
#Location: 177.4865 lon 64.73178 lat
#TLE: 1 43010U 17072A   26021.48744220  .00000253  00000+0  14133-3 0  9991
#TLE: 2 43010  98.9948 353.4037 0002485  97.2578 262.8880 14.19697766424177

#Time	Az	El	Level	Level2	SNR	BER	BlckErr	Temp	State	Recorded	gain1	gain2
2026-01-22 16:51:26.82	21.13	0.05	-51.3	-66.3	3.5	1.51e+00	0	38	0	0	60	74417
2026-01-22 16:51:30.86	21.14	0.30	-52.2	-64.4	3.6	8.45e-01	0	40	104	0	60	59815
2026-01-22 16:51:34.90	21.16	0.54	-51.8	-64.0	3.6	8.45e-01	0	40	104	0	60	57226
2026-01-22 16:51:38.94	21.18	0.79	-51.3	-63.4	3.6	8.44e-01	0	40	104	0	60	53631
2026-01-22 16:51:42.99	21.19	1.03	-51.1	-63.2	3.6	8.46e-01	0	40	104	0	60	52464
2026-01-22 16:51:47.03	21.21	1.28	-50.5	-62.7	3.6	8.45e-01	0	40	104	0	60	49114
2026-01-22 16:51:51.07	21.22	1.54	-50.0	-62.2	3.6	8.45e-01	0	40	104	0	60	46306
2026-01-22 16:51:55.10	21.24	1.79	-49.7	-61.5	3.6	8.45e-01	0	40	104	0	60	43097
2026-01-22 16:51:59.14	21.25	2.05	-49.7	-61.8	3.6	8.45e-01	0	40	104	0	60	44497
2026-01-22 16:52:03.19	21.27	2.31	-49.6	-61.1	3.6	8.45e-01	0	40	104	0	60	40924
2026-01-22 16:52:07.23	21.28	2.57	-49.5	-59.4	3.7	8.42e-01	0	40	104	0	60	33549
2026-01-22 16:52:11.27	21.30	2.83	-49.5	-60.2	3.6	8.45e-01	0	40	104	0	60	36899
2026-01-22 16:52:15.31	21.31	3.10	-48.5	-53.5	6.7	3.36e-01	0	40	0	4194304	60	17013
2026-01-22 16:52:19.35	21.33	3.37	-46.5	-49.4	11.0	5.93e-03	0	40	0	26214400	60	10693
2026-01-22 16:52:23.39	21.34	3.64	-46.9	-50.1	10.2	3.20e-03	0	40	0	49283072	60	11501
2026-01-22 16:52:27.43	21.36	3.92	-45.8	-48.1	12.8	3.96e-02	0	40	0	72351744	60	9152
2026-01-22 16:52:31.47	21.37	4.19	-41.7	-42.9	17.8	0.00e+00	0	40	0	76546048	56	6328
2026-01-22 16:52:35.50	21.39	4.47	-42.0	-43.2	18.1	0.00e+00	0	40	0	99614720	56	6588
2026-01-22 16:52:39.54	21.40	4.76	-41.5	-42.6	18.7	0.00e+00	0	40	0	122683392	56	6140
2026-01-22 16:52:43.58	21.42	5.04	-38.6	-39.5	21.6	0.00e+00	0	40	0	144703488	52	5386
2026-01-22 16:52:47.62	21.43	5.33	-38.0	-38.8	22.2	0.00e+00	0	40	0	167772160	50	5603
2026-01-22 16:52:51.66	21.45	5.63	-37.9	-38.7	22.3	0.00e+00	0	40	0	190840832	50	5518
2026-01-22 16:52:55.70	21.46	5.92	-37.5	-38.3	22.8	0.00e+00	0	41	0	212860928	48	5912
2026-01-22 16:52:59.73	21.48	6.22	-37.5	-38.3	22.9	0.00e+00	0	41	0	235929600	48	5897
2026-01-22 16:53:03.77	21.49	6.52	-37.3	-38.1	23.1	0.00e+00	0	41	0	258998272	48	5776
2026-01-22 16:53:07.81	21.51	6.83	-37.3	-38.0	23.2	0.00e+00	0	40	0	281018368	48	5723
2026-01-22 16:53:11.85	21.52	7.14	-37.2	-37.9	23.2	0.00e+00	0	40	0	304087040	48	5692
2026-01-22 16:53:15.88	21.53	7.45	-37.1	-37.8	23.3	0.00e+00	0	40	0	327155712	48	5619
2026-01-22 16:53:19.92	21.55	7.77	-36.9	-37.6	23.6	0.00e+00	0	40	0	349175808	48	5502
2026-01-22 16:53:23.96	21.56	8.09	-36.7	-37.5	23.7	0.00e+00	0	40	0	372244480	48	5390
2026-01-22 16:53:27.99	21.58	8.42	-36.8	-37.5	23.7	0.00e+00	0	41	0	395313152	46	6057
2026-01-22 16:53:32.02	21.59	8.75	-36.9	-37.6	23.7	0.00e+00	0	40	0	417333248	46	6145
2026-01-22 16:53:36.06	21.60	9.08	-36.4	-37.1	24.2	0.00e+00	0	41	0	440401920	46	5824
2026-01-22 16:53:40.10	21.62	9.42	-36.4	-37.1	24.1	0.00e+00	0	41	0	463470592	46	5800
2026-01-22 16:53:44.13	21.63	9.77	-36.3	-37.0	24.2	0.00e+00	0	41	0	485490688	46	5731
2026-01-22 16:53:48.17	21.64	10.12	-36.3	-37.0	24.4	0.00e+00	0	41	0	508559360	46	5743
2026-01-22 16:53:52.21	21.66	10.47	-36.3	-37.0	24.3	0.00e+00	0	41	0	531628032	46	5748
2026-01-22 16:53:56.25	21.67	10.83	-36.1	-36.8	24.5	0.00e+00	0	41	0	553648128	46	5611
2026-01-22 16:54:00.28	21.68	11.19	-35.9	-36.6	24.6	0.00e+00	0	41	0	576716800	46	5498
2026-01-22 16:54:04.32	21.70	11.56	-35.9	-36.5	24.7	0.00e+00	0	41	0	599785472	44	6099
2026-01-22 16:54:08.36	21.71	11.94	-35.9	-36.6	24.6	0.00e+00	0	41	0	621805568	44	6142
2026-01-22 16:54:12.40	21.72	12.32	-35.7	-36.4	24.9	0.00e+00	0	41	0	644874240	44	5972
2026-01-22 16:54:16.43	21.74	12.71	-35.7	-36.4	24.9	0.00e+00	0	41	0	666894336	44	5981
2026-01-22 16:54:20.47	21.75	13.10	-35.4	-36.1	25.2	0.00e+00	0	41	0	689963008	44	5788
2026-01-22 16:54:24.51	21.76	13.50	-35.3	-36.0	25.3	0.00e+00	0	41	0	713031680	44	5704
2026-01-22 16:54:28.55	21.77	13.91	-35.0	-35.7	25.6	0.00e+00	0	41	0	736100352	44	5505
2026-01-22 16:54:32.59	21.78	14.32	-34.9	-35.6	25.7	0.00e+00	0	41	0	758120448	44	5454
2026-01-22 16:54:36.63	21.80	14.74	-35.1	-35.7	25.7	0.00e+00	0	41	0	781189120	44	5537
2026-01-22 16:54:40.66	21.81	15.17	-34.8	-35.5	25.9	0.00e+00	0	41	0	804257792	44	5400
2026-01-22 16:54:44.70	21.82	15.61	-34.7	-35.3	26.0	0.00e+00	0	41	0	826277888	42	5954
2026-01-22 16:54:48.74	21.83	16.05	-34.6	-35.2	26.1	0.00e+00	0	41	0	849346560	42	5881
2026-01-22 16:54:52.78	21.84	16.50	-34.5	-35.1	26.2	0.00e+00	0	41	0	871366656	42	5804
2026-01-22 16:54:56.82	21.85	16.97	-34.7	-35.3	25.9	0.00e+00	0	41	0	894435328	42	5946
2026-01-22 16:55:00.86	21.87	17.44	-34.2	-34.9	26.4	0.00e+00	0	41	0	917504000	42	5644
2026-01-22 16:55:04.90	21.88	17.92	-34.5	-35.1	26.4	0.00e+00	0	41	0	940572672	42	5801
2026-01-22 16:55:08.94	21.89	18.41	-34.0	-34.7	26.6	0.00e+00	0	41	0	962592768	42	5528
2026-01-22 16:55:12.98	21.90	18.90	-33.9	-34.5	26.8	0.00e+00	0	41	0	985661440	42	5409
2026-01-22 16:55:17.02	21.91	19.41	-33.7	-34.3	26.9	0.00e+00	0	41	0	1008730112	40	5932
2026-01-22 16:55:21.06	21.92	19.93	-33.6	-34.2	27.1	0.00e+00	0	41	0	1030750208	40	5889
2026-01-22 16:55:25.09	21.93	20.46	-33.6	-34.2	27.1	0.00e+00	0	41	0	1053818880	40	5881
2026-01-22 16:55:29.13	21.94	21.01	-33.5	-34.1	27.0	0.00e+00	0	41	0	1075838976	40	5820
2026-01-22 16:55:33.16	21.95	21.56	-33.5	-34.1	27.1	0.00e+00	0	41	0	1098907648	40	5791
2026-01-22 16:55:37.20	21.96	22.13	-33.5	-34.1	27.1	0.00e+00	0	41	0	1121976320	40	5822
2026-01-22 16:55:41.24	21.96	22.71	-33.1	-33.7	27.4	0.00e+00	0	41	0	1145044992	40	5559
2026-01-22 16:55:45.28	21.97	23.30	-33.0	-33.6	27.5	0.00e+00	0	41	0	1167065088	40	5445
2026-01-22 16:55:49.32	21.98	23.91	-33.0	-33.6	27.7	0.00e+00	0	41	0	1190133760	38	6135
2026-01-22 16:55:53.36	21.99	24.53	-32.8	-33.5	27.7	0.00e+00	0	41	0	1213202432	38	6036
2026-01-22 16:55:57.39	22.00	25.17	-33.1	-33.7	27.5	0.00e+00	0	41	0	1235222528	38	6235
2026-01-22 16:56:01.43	22.00	25.82	-33.1	-33.8	27.6	0.00e+00	0	41	0	1258291200	38	6253
2026-01-22 16:56:05.46	22.01	26.49	-33.2	-33.8	27.6	0.00e+00	0	41	0	1280311296	38	6268
2026-01-22 16:56:09.49	22.02	27.17	-32.8	-33.4	27.7	0.00e+00	0	41	0	1303379968	38	6026
2026-01-22 16:56:13.53	22.02	27.88	-32.6	-33.2	27.9	0.00e+00	0	41	0	1326448640	38	5877
2026-01-22 16:56:17.56	22.03	28.60	-32.5	-33.2	27.9	0.00e+00	0	41	0	1348468736	38	5843
2026-01-22 16:56:21.60	22.03	29.34	-32.6	-33.2	28.0	0.00e+00	0	41	0	1371537408	38	5843
2026-01-22 16:56:25.65	22.04	30.11	-32.6	-33.3	27.9	0.00e+00	0	41	0	1394606080	38	5920
2026-01-22 16:56:29.68	22.04	30.89	-32.8	-33.4	27.8	0.00e+00	0	41	0	1416626176	38	6025
2026-01-22 16:56:33.72	22.04	31.69	-32.9	-33.5	27.8	0.00e+00	0	41	0	1439694848	38	6072
2026-01-22 16:56:37.75	22.04	32.52	-32.5	-33.1	28.0	0.00e+00	0	41	0	1462763520	38	5818
2026-01-22 16:56:41.79	22.05	33.37	-32.7	-33.4	28.0	0.00e+00	0	41	0	1484783616	38	5966
2026-01-22 16:56:45.83	22.05	34.25	-32.5	-33.1	28.1	0.00e+00	0	41	0	1507852288	38	5800
2026-01-22 16:56:49.87	22.05	35.15	-32.5	-33.1	28.1	0.00e+00	0	41	0	1530920960	38	5816
2026-01-22 16:56:53.92	22.04	36.08	-32.1	-32.7	28.5	0.00e+00	0	41	0	1552941056	38	5520
2026-01-22 16:56:57.96	22.04	37.03	-31.9	-32.5	28.6	0.00e+00	0	41	0	1576009728	38	5396
2026-01-22 16:57:02.00	22.04	38.02	-31.9	-32.6	28.5	0.00e+00	0	41	0	1599078400	38	5442
2026-01-22 16:57:06.03	22.03	39.03	-32.1	-32.7	28.3	0.00e+00	0	41	0	1621098496	38	5511
2026-01-22 16:57:10.07	22.03	40.07	-32.4	-33.1	28.2	0.00e+00	0	41	0	1644167168	38	5770
2026-01-22 16:57:14.11	22.02	41.15	-32.4	-33.0	28.2	0.00e+00	0	41	0	1667235840	38	5734
2026-01-22 16:57:18.15	22.01	42.26	-32.9	-33.5	27.8	0.00e+00	0	41	0	1689255936	38	6099
2026-01-22 16:57:22.20	22.00	43.41	-32.6	-33.2	28.0	0.00e+00	0	41	0	1712324608	38	5896
2026-01-22 16:57:26.24	21.99	44.59	-32.5	-33.2	28.1	0.00e+00	0	41	0	1735393280	38	5838
2026-01-22 16:57:30.27	21.97	45.80	-33.2	-33.8	27.9	0.00e+00	0	41	0	1757413376	38	6298
2026-01-22 16:57:34.31	21.95	47.06	-32.9	-33.6	27.8	0.00e+00	0	41	0	1780482048	38	6115
2026-01-22 16:57:38.36	21.93	48.35	-32.7	-33.3	28.0	0.00e+00	0	41	0	1803550720	38	5899
2026-01-22 16:57:42.40	21.91	49.69	-32.3	-32.9	28.2	0.00e+00	0	41	0	1826619392	38	5645
2026-01-22 16:57:46.43	21.88	51.06	-33.4	-34.0	27.5	0.00e+00	0	41	0	1848639488	38	6429
2026-01-22 16:57:50.47	21.85	52.47	-34.2	-34.9	26.7	0.00e+00	0	41	0	1871708160	40	6333
2026-01-22 16:57:54.50	21.81	53.93	-33.6	-34.2	27.2	0.00e+00	0	41	0	1893728256	40	5875
2026-01-22 16:57:58.54	21.77	55.43	-33.7	-34.3	27.4	0.00e+00	0	41	0	1916796928	40	5963
2026-01-22 16:58:02.58	21.72	56.97	-33.7	-34.3	27.2	0.00e+00	0	41	0	1939865600	40	5943
2026-01-22 16:58:06.62	21.67	58.56	-33.9	-34.5	27.3	0.00e+00	0	41	0	1961885696	40	6078
2026-01-22 16:58:10.66	21.60	60.19	-32.6	-33.2	28.2	0.00e+00	0	41	0	1984954368	38	5851
2026-01-22 16:58:14.70	21.52	61.86	-32.9	-33.5	28.0	0.00e+00	0	41	0	2008023040	38	6067
2026-01-22 16:58:18.73	21.43	63.58	-31.9	-32.5	28.5	0.00e+00	0	41	0	2030043136	38	5400
2026-01-22 16:58:22.77	21.33	65.33	-32.1	-32.7	28.4	0.00e+00	0	41	0	2053111808	38	5515
2026-01-22 16:58:26.81	21.20	67.13	-32.1	-32.7	28.4	0.00e+00	0	41	0	2076180480	38	5538
2026-01-22 16:58:30.85	21.04	68.97	-31.5	-32.1	28.9	0.00e+00	0	41	0	2098200576	36	5794
2026-01-22 16:58:34.88	20.85	70.84	-31.7	-32.3	28.8	0.00e+00	0	41	0	2121269248	36	5933
2026-01-22 16:58:38.92	20.60	72.76	-31.2	-31.8	29.0	0.00e+00	0	41	0	2144337920	36	5600
2026-01-22 16:58:42.97	20.29	74.71	-31.3	-31.9	29.1	0.00e+00	0	41	0	2166358016	36	5692
2026-01-22 16:58:47.00	19.88	76.68	-30.9	-31.5	29.3	0.00e+00	0	41	0	2189426688	36	5428
2026-01-22 16:58:51.05	19.31	78.68	-30.7	-31.3	29.7	0.00e+00	0	41	0	2212495360	34	5932
2026-01-22 16:58:55.08	18.49	80.70	-30.2	-30.8	29.6	0.00e+00	0	41	0	2234515456	34	5599
2026-01-22 16:58:59.13	17.18	82.74	-29.9	-30.6	30.1	0.00e+00	0	41	0	2257584128	34	5463
2026-01-22 16:59:03.16	14.84	84.79	-30.2	-30.9	29.8	0.00e+00	0	42	0	2280652800	34	5632
2026-01-22 16:59:07.20	9.41	86.82	-30.9	-31.5	29.4	0.00e+00	0	41	0	2302672896	34	6077
2026-01-22 16:59:11.24	346.18	88.75	-32.1	-32.8	28.3	0.00e+00	0	42	0	2325741568	34	7020
2026-01-22 16:59:15.28	238.08	88.68	-33.4	-34.2	22.0	0.00e+00	0	41	0	2348810240	40	5829
2026-01-22 16:59:19.32	216.61	86.75	-31.3	-31.9	29.1	0.00e+00	0	41	0	2370830336	36	5667
2026-01-22 16:59:23.36	211.40	84.71	-31.3	-31.9	28.9	0.00e+00	0	42	0	2393899008	36	5648
2026-01-22 16:59:27.40	209.11	82.66	-30.9	-31.5	29.2	0.00e+00	0	41	0	2416967680	34	6077
2026-01-22 16:59:31.44	207.83	80.62	-30.4	-31.0	29.7	0.00e+00	0	42	0	2440036352	34	5725
2026-01-22 16:59:35.48	207.01	78.59	-30.2	-30.8	29.8	0.00e+00	0	41	0	2462056448	32	6261
2026-01-22 16:59:39.53	206.45	76.59	-30.9	-31.5	29.5	0.00e+00	0	41	0	2485125120	32	6821
2026-01-22 16:59:43.57	206.05	74.61	-30.9	-31.6	29.1	0.00e+00	0	41	0	2507145216	34	6120
2026-01-22 16:59:47.60	205.74	72.67	-31.6	-32.2	29.1	0.00e+00	0	41	0	2530213888	36	5868
2026-01-22 16:59:51.64	205.50	70.76	-33.1	-33.7	27.8	0.00e+00	0	41	0	2553282560	38	6191
2026-01-22 16:59:55.68	205.31	68.88	-33.1	-33.6	28.1	0.00e+00	0	42	0	2575302656	38	6157
2026-01-22 16:59:59.72	205.15	67.04	-32.4	-33.0	28.0	0.00e+00	0	42	0	2598371328	38	5759
2026-01-22 17:00:03.76	205.02	65.23	-31.9	-32.4	28.5	0.00e+00	0	42	0	2621440000	36	6007
2026-01-22 17:00:07.80	204.91	63.47	-31.9	-32.5	28.4	0.00e+00	0	42	0	2643460096	36	6043
2026-01-22 17:00:11.84	204.82	61.76	-32.1	-32.8	28.2	0.00e+00	0	42	0	2666528768	36	6311
2026-01-22 17:00:15.88	204.75	60.08	-32.2	-32.8	28.3	0.00e+00	0	42	0	2689597440	36	6282
2026-01-22 17:00:19.91	204.68	58.45	-32.8	-33.5	27.9	0.00e+00	0	42	0	2711617536	38	6060
2026-01-22 17:00:23.95	204.62	56.86	-33.2	-33.7	27.1	0.00e+00	0	42	0	2734686208	38	6225
2026-01-22 17:00:27.99	204.57	55.32	-33.3	-34.0	27.2	0.00e+00	0	42	0	2757754880	38	6447
2026-01-22 17:00:32.03	204.53	53.81	-33.1	-33.7	27.6	0.00e+00	0	42	0	2779774976	38	6184
2026-01-22 17:00:36.07	204.50	52.35	-33.2	-33.9	27.5	0.00e+00	0	42	0	2802843648	38	6373
2026-01-22 17:00:40.10	204.46	50.94	-33.2	-33.7	27.5	0.00e+00	0	42	0	2825912320	38	6233
2026-01-22 17:00:44.14	204.43	49.56	-32.7	-33.3	27.8	0.00e+00	0	42	0	2847932416	38	5916
2026-01-22 17:00:48.18	204.41	48.23	-32.2	-32.9	28.2	0.00e+00	0	42	0	2871001088	38	5655
2026-01-22 17:00:52.21	204.39	46.94	-32.6	-33.3	27.9	0.00e+00	0	42	0	2894069760	38	5914
2026-01-22 17:00:56.25	204.37	45.68	-32.3	-32.9	28.0	0.00e+00	0	42	0	2916089856	38	5670
2026-01-22 17:01:00.29	204.35	44.46	-32.4	-33.0	27.9	0.00e+00	0	42	0	2939158528	38	5712
2026-01-22 17:01:04.32	204.34	43.28	-32.3	-32.9	28.0	0.00e+00	0	42	0	2962227200	38	5655
2026-01-22 17:01:08.36	204.33	42.14	-32.4	-33.1	28.0	0.00e+00	0	42	0	2984247296	38	5792
2026-01-22 17:01:12.39	204.32	41.03	-31.9	-32.5	28.5	0.00e+00	0	42	0	3007315968	38	5439
2026-01-22 17:01:16.43	204.31	39.95	-31.6	-32.2	28.6	0.00e+00	0	42	0	3029336064	36	5852
2026-01-22 17:01:20.47	204.30	38.90	-31.5	-32.1	28.7	0.00e+00	0	42	0	3052404736	36	5804
2026-01-22 17:01:24.51	204.30	37.88	-31.2	-31.8	28.9	0.00e+00	0	42	0	3075473408	36	5616
2026-01-22 17:01:28.54	204.29	36.90	-31.7	-32.4	28.6	0.00e+00	0	42	0	3098542080	36	5983
2026-01-22 17:01:32.58	204.29	35.94	-32.1	-32.8	28.3	0.00e+00	0	42	0	3120562176	36	6268
2026-01-22 17:01:36.62	204.29	35.01	-31.9	-32.4	28.6	0.00e+00	0	42	0	3143630848	36	6023
2026-01-22 17:01:40.66	204.29	34.11	-31.8	-32.3	28.5	0.00e+00	0	42	0	3166699520	36	5963
2026-01-22 17:01:44.70	204.28	33.23	-32.0	-32.5	28.2	0.00e+00	0	42	0	3188719616	36	6088
2026-01-22 17:01:48.74	204.28	32.38	-32.5	-33.1	27.9	0.00e+00	0	42	0	3211788288	36	6492
2026-01-22 17:01:52.78	204.29	31.55	-32.7	-33.3	27.7	0.00e+00	0	42	0	3233808384	38	5942
2026-01-22 17:01:56.82	204.29	30.74	-32.7	-33.3	27.7	0.00e+00	0	42	0	3256877056	38	5925
2026-01-22 17:02:00.86	204.29	29.96	-32.8	-33.5	27.7	0.00e+00	0	42	0	3279945728	38	6093
2026-01-22 17:02:04.90	204.29	29.20	-32.4	-33.0	28.0	0.00e+00	0	42	0	3303014400	38	5709
2026-01-22 17:02:08.94	204.29	28.45	-32.1	-32.7	28.1	0.00e+00	0	42	0	3325034496	38	5558
2026-01-22 17:02:12.98	204.30	27.73	-32.0	-32.5	28.4	0.00e+00	0	42	0	3348103168	38	5415
2026-01-22 17:02:17.01	204.30	27.02	-31.9	-32.5	28.4	0.00e+00	0	42	0	3371171840	38	5436
2026-01-22 17:02:21.06	204.31	26.34	-32.3	-33.0	28.1	0.00e+00	0	42	0	3393191936	38	5708
2026-01-22 17:02:25.09	204.31	25.67	-32.2	-32.9	28.2	0.00e+00	0	42	0	3416260608	38	5676
2026-01-22 17:02:29.14	204.32	25.01	-32.6	-33.2	27.8	0.00e+00	0	42	0	3439329280	38	5846
2026-01-22 17:02:33.18	204.32	24.37	-32.7	-33.3	27.7	0.00e+00	0	42	0	3461349376	38	5899
2026-01-22 17:02:37.21	204.33	23.75	-32.6	-33.2	27.8	0.00e+00	0	42	0	3484418048	38	5845
2026-01-22 17:02:41.25	204.33	23.14	-32.8	-33.5	27.6	0.00e+00	0	42	0	3507486720	38	6041
2026-01-22 17:02:45.29	204.34	22.55	-33.0	-33.7	27.5	0.00e+00	0	41	0	3529506816	38	6177
2026-01-22 17:02:49.33	204.35	21.97	-33.1	-33.8	27.4	0.00e+00	0	41	0	3552575488	38	6292
2026-01-22 17:02:53.37	204.35	21.40	-33.6	-34.1	26.9	0.00e+00	0	41	0	3575644160	38	6528
2026-01-22 17:02:57.41	204.36	20.84	-33.4	-33.9	27.1	0.00e+00	0	41	0	3597664256	38	6386
2026-01-22 17:03:01.45	204.37	20.30	-33.7	-34.3	26.7	0.00e+00	0	41	0	3620732928	38	6672
2026-01-22 17:03:05.50	204.38	19.77	-33.7	-34.4	26.8	0.00e+00	0	41	0	3643801600	40	6007
2026-01-22 17:03:09.54	204.38	19.25	-33.8	-34.5	26.7	0.00e+00	0	41	0	3665821696	40	6072
2026-01-22 17:03:13.58	204.39	18.74	-34.0	-34.6	26.6	0.00e+00	0	41	0	3688890368	40	6112
2026-01-22 17:03:17.62	204.40	18.24	-34.2	-34.7	26.5	0.00e+00	0	41	0	3711959040	40	6244
2026-01-22 17:03:21.66	204.41	17.75	-34.3	-34.9	26.3	0.00e+00	0	41	0	3733979136	40	6342
2026-01-22 17:03:25.70	204.42	17.27	-34.4	-35.1	26.2	0.00e+00	0	41	0	3757047808	40	6533
2026-01-22 17:03:29.74	204.43	16.80	-34.8	-35.6	26.0	0.00e+00	0	41	0	3780116480	42	6113
2026-01-22 17:03:33.78	204.44	16.33	-34.7	-35.3	26.0	0.00e+00	0	41	0	3802136576	42	5928
2026-01-22 17:03:37.82	204.44	15.88	-34.9	-35.5	25.8	0.00e+00	0	41	0	3825205248	42	6034
2026-01-22 17:03:41.86	204.45	15.44	-34.9	-35.5	25.8	0.00e+00	0	41	0	3848273920	42	6044
2026-01-22 17:03:45.89	204.46	15.00	-34.8	-35.4	25.8	0.00e+00	0	41	0	3870294016	42	5979
2026-01-22 17:03:49.93	204.47	14.57	-34.9	-35.6	25.8	0.00e+00	0	41	0	3893362688	42	6146
2026-01-22 17:03:53.97	204.48	14.15	-34.9	-35.5	25.7	0.00e+00	0	41	0	3916431360	42	6064
2026-01-22 17:03:58.01	204.49	13.73	-35.0	-35.8	25.7	0.00e+00	0	41	0	3938451456	42	6257
2026-01-22 17:04:02.04	204.50	13.33	-34.9	-35.5	25.7	0.00e+00	0	41	0	3961520128	42	6095
2026-01-22 17:04:06.09	204.51	12.93	-35.2	-35.9	25.5	0.00e+00	0	41	0	3984588800	42	6351
2026-01-22 17:04:10.13	204.52	12.53	-35.2	-35.7	25.4	0.00e+00	0	41	0	4006608896	42	6240
2026-01-22 17:04:14.16	204.53	12.14	-35.4	-36.1	25.3	0.00e+00	0	41	0	4029677568	42	6501
2026-01-22 17:04:18.20	204.54	11.76	-35.4	-36.0	25.2	0.00e+00	0	41	0	4052746240	42	6427
2026-01-22 17:04:22.24	204.55	11.39	-35.4	-36.2	25.2	0.00e+00	0	41	0	4074766336	42	6561
2026-01-22 17:04:26.27	204.56	11.02	-35.5	-36.1	25.0	0.00e+00	0	41	0	4097835008	44	5804
2026-01-22 17:04:30.31	204.57	10.65	-35.6	-36.4	24.9	0.00e+00	0	41	0	4120903680	44	5978
2026-01-22 17:04:34.35	204.58	10.29	-35.8	-36.4	24.8	0.00e+00	0	41	0	4142923776	44	5986
2026-01-22 17:04:38.39	204.59	9.94	-35.8	-36.4	24.8	0.00e+00	0	41	0	4165992448	44	5983
2026-01-22 17:04:42.43	204.60	9.59	-35.8	-36.6	24.8	0.00e+00	0	41	0	4189061120	44	6107
2026-01-22 17:04:46.46	204.61	9.24	-35.9	-36.7	24.6	0.00e+00	0	41	0	4211081216	44	6219
2026-01-22 17:04:50.50	204.62	8.90	-36.1	-36.9	24.4	0.00e+00	0	41	0	4234149888	44	6349
2026-01-22 17:04:54.53	204.63	8.57	-36.3	-36.9	24.2	0.00e+00	0	41	0	4256169984	44	6354
2026-01-22 17:04:58.57	204.64	8.24	-36.4	-37.1	24.1	0.00e+00	0	41	0	4279238656	44	6534
2026-01-22 17:05:02.62	204.66	7.91	-36.3	-37.1	24.2	0.00e+00	0	41	0	4302307328	44	6509
2026-01-22 17:05:06.65	204.67	7.59	-36.7	-37.5	23.8	0.00e+00	0	41	0	4325376000	46	6093
2026-01-22 17:05:10.69	204.68	7.27	-36.6	-37.4	23.8	0.00e+00	0	41	0	4347396096	46	6020
2026-01-22 17:05:14.73	204.69	6.96	-36.8	-37.6	23.7	0.00e+00	0	41	0	4370464768	46	6169
2026-01-22 17:05:18.77	204.70	6.65	-37.3	-38.0	23.3	0.00e+00	0	41	0	4393533440	46	6396
2026-01-22 17:05:22.81	204.71	6.34	-37.2	-37.9	23.3	0.00e+00	0	41	0	4415553536	46	6328
2026-01-22 17:05:26.85	204.72	6.04	-37.4	-38.2	22.9	0.00e+00	0	41	0	4438622208	46	6613
2026-01-22 17:05:30.89	204.73	5.74	-37.4	-38.1	22.9	0.00e+00	0	41	0	4461690880	46	6525
2026-01-22 17:05:34.93	204.74	5.44	-37.3	-38.2	22.9	0.00e+00	0	41	0	4483710976	46	6553
2026-01-22 17:05:38.97	204.75	5.15	-37.4	-38.1	22.9	0.00e+00	0	41	0	4506779648	46	6467
2026-01-22 17:05:43.01	204.76	4.86	-37.9	-38.7	22.3	0.00e+00	0	41	0	4529848320	48	6175
2026-01-22 17:05:47.04	204.78	4.57	-38.2	-39.1	21.9	0.00e+00	0	41	0	4551868416	48	6518
2026-01-22 17:05:51.09	204.79	4.29	-38.4	-39.1	21.7	0.00e+00	0	41	0	4574937088	50	5808
2026-01-22 17:05:55.13	204.80	4.01	-39.0	-39.8	21.2	0.00e+00	0	41	0	4598005760	50	6286
2026-01-22 17:05:59.17	204.81	3.73	-38.7	-39.5	21.3	0.00e+00	0	41	0	4620025856	50	6068
2026-01-22 17:06:03.20	204.82	3.45	-38.3	-39.2	21.6	0.00e+00	0	41	0	4643094528	50	5841
2026-01-22 17:06:07.24	204.83	3.18	-39.2	-40.1	20.5	0.00e+00	0	41	0	4666163200	50	6475
2026-01-22 17:06:11.28	204.84	2.91	-50.4	-62.5	3.6	8.45e-01	0	41	104	4677697536	60	48335
2026-01-22 17:06:15.33	204.85	2.64	-50.8	-63.1	3.6	8.44e-01	0	41	104	4677697536	60	51426
2026-01-22 17:06:19.37	204.86	2.38	-51.1	-63.3	3.6	8.45e-01	0	41	104	4677697536	60	52559
2026-01-22 17:06:23.40	204.88	2.12	-50.9	-63.3	3.6	8.45e-01	0	41	104	4677697536	60	53095
2026-01-22 17:06:27.45	204.89	1.86	-51.1	-63.2	3.6	8.46e-01	0	41	104	4677697536	60	52445
2026-01-22 17:06:31.48	204.90	1.60	-51.2	-63.3	3.6	8.45e-01	0	41	104	4677697536	60	52889
2026-01-22 17:06:35.52	204.91	1.35	-51.2	-63.3	3.6	8.46e-01	0	41	104	4677697536	60	53122
2026-01-22 17:06:39.56	204.92	1.09	-51.3	-63.4	3.6	8.45e-01	0	41	104	4677697536	60	53465
2026-01-22 17:06:43.60	204.93	0.84	-51.3	-63.5	3.6	8.46e-01	0	41	104	4677697536	60	54014
2026-01-22 17:06:47.64	204.94	0.59	-51.4	-63.5	3.6	8.46e-01	0	41	104	4677697536	60	54275
2026-01-22 17:06:51.68	204.96	0.35	-51.3	-63.5	3.6	8.45e-01	0	41	104	4677697536	60	53937
2026-01-22 17:06:55.72	204.97	0.10	-51.4	-63.6	3.6	8.44e-01	0	41	104	4677697536	60	54450

#Closed at: 2026-01-22 17:06:58
#Recorded file [4677 MB]: D:/lorett/data/35029_260123_045126.dat