passes_logs/2026/01/22/R4.6S_Anadyr/R4.6S_Anadyr__20260122_141318_SUOMI_NPP_rec.log

#Pass ID: 20260122_141318_SUOMI NPP
#Satellite: SUOMI NPP
#Configuration: NPP
#almurnet v.1.7.20251203
#Start time: 2026-01-22 14:13:21

#Version: 2.2.20231116
#Station: R4.6S_Anadyr
#Location: 177.4865 lon 64.73178 lat
#TLE: 1 37849U 11061A   26021.51818991  .00000201  00000+0  11636-3 0  9995
#TLE: 2 37849  98.7819 323.5108 0002300  52.3548 307.7836 14.19527793737637

#Time	Az	El	Level	Level2	SNR	BER	BlckErr	Temp	State	Recorded	gain1	gain2
2026-01-22 14:13:21.86	19.61	0.17	-51.3	-65.1	3.3	1.54e+00	0	40	0	0	60	64771
2026-01-22 14:13:25.90	19.70	0.41	-51.2	-66.4	3.6	1.51e+00	0	40	104	0	60	75833
2026-01-22 14:13:29.93	19.79	0.65	-51.1	-66.3	3.6	1.51e+00	0	40	104	0	60	74875
2026-01-22 14:13:33.97	19.88	0.90	-50.9	-66.1	3.6	1.51e+00	0	40	104	0	60	72955
2026-01-22 14:13:38.02	19.97	1.14	-50.4	-65.7	3.6	1.51e+00	0	40	104	0	60	69724
2026-01-22 14:13:42.06	20.06	1.39	-49.9	-65.1	3.6	1.51e+00	0	40	104	0	60	64832
2026-01-22 14:13:46.10	20.16	1.64	-49.6	-64.8	3.6	1.51e+00	0	40	104	0	60	62984
2026-01-22 14:13:50.14	20.25	1.89	-49.6	-64.9	3.6	1.51e+00	0	40	104	0	60	63208
2026-01-22 14:13:54.17	20.35	2.14	-49.6	-64.6	3.6	1.51e+00	0	40	104	0	60	61273
2026-01-22 14:13:58.21	20.45	2.40	-49.5	-62.8	3.6	1.51e+00	0	40	104	0	60	50089
2026-01-22 14:14:02.25	20.55	2.66	-49.4	-61.3	3.7	1.50e+00	0	40	104	0	60	41923
2026-01-22 14:14:06.28	20.65	2.92	-47.9	-52.6	10.9	6.52e-03	0	40	0	5242880	60	15389
2026-01-22 14:14:10.32	20.75	3.18	-46.7	-50.0	13.7	1.50e-06	18	41	0	13631488	60	11440
2026-01-22 14:14:14.37	20.85	3.45	-47.8	-52.4	11.0	4.82e-04	49	41	0	20971520	60	15056
2026-01-22 14:14:18.40	20.96	3.72	-45.8	-48.4	15.2	7.00e-07	0	41	0	28311552	60	9455
2026-01-22 14:14:22.44	21.06	3.99	-49.6	-62.0	3.9	1.51e+00	0	41	104	30408704	60	45744
2026-01-22 14:14:26.48	21.17	4.26	-46.2	-49.0	15.0	7.00e-07	92	41	0	35651584	60	10185
2026-01-22 14:14:30.52	21.28	4.54	-45.5	-47.8	16.5	0.00e+00	0	41	0	42991616	60	8918
2026-01-22 14:14:34.56	21.39	4.82	-45.5	-47.9	16.2	0.00e+00	0	41	0	50331648	60	8940
2026-01-22 14:14:38.59	21.51	5.10	-44.6	-46.6	17.6	0.00e+00	0	41	0	57671680	60	7721
2026-01-22 14:14:42.63	21.62	5.38	-43.9	-45.6	18.5	0.00e+00	90	41	0	66060288	60	6901
2026-01-22 14:14:46.67	21.74	5.67	-43.9	-45.6	18.5	0.00e+00	0	41	0	73400320	60	6899
2026-01-22 14:14:50.71	21.86	5.96	-43.4	-45.0	19.1	0.00e+00	0	41	0	80740352	60	6402
2026-01-22 14:14:54.76	21.98	6.26	-43.9	-45.6	18.5	0.00e+00	27	41	0	88080384	60	6902
2026-01-22 14:14:58.79	22.11	6.55	-42.6	-44.0	20.0	0.00e+00	18	41	0	95420416	58	6452
2026-01-22 14:15:02.83	22.23	6.85	-42.7	-44.1	20.0	0.00e+00	0	41	0	103809024	58	6470
2026-01-22 14:15:06.87	22.36	7.16	-43.0	-44.4	19.8	0.00e+00	0	41	0	111149056	58	6722
2026-01-22 14:15:10.91	22.49	7.47	-42.1	-43.4	20.6	0.00e+00	75	41	0	118489088	58	5975
2026-01-22 14:15:14.95	22.62	7.78	-41.9	-43.2	20.9	0.00e+00	0	41	0	125829120	56	6542
2026-01-22 14:15:18.99	22.76	8.09	-41.8	-43.0	21.1	0.00e+00	9	41	0	134217728	56	6431
2026-01-22 14:15:23.03	22.90	8.41	-41.6	-42.8	21.3	0.00e+00	0	41	0	141557760	56	6292
2026-01-22 14:15:27.07	23.04	8.73	-41.7	-42.8	21.2	0.00e+00	7	41	0	148897792	56	6304
2026-01-22 14:15:31.11	23.18	9.06	-41.5	-42.7	21.3	0.00e+00	0	41	0	156237824	56	6175
2026-01-22 14:15:35.14	23.33	9.39	-41.5	-42.7	21.1	0.00e+00	0	41	0	163577856	56	6215
2026-01-22 14:15:39.18	23.47	9.73	-41.3	-42.4	21.7	0.00e+00	23	41	0	171966464	56	5977
2026-01-22 14:15:43.22	23.63	10.07	-41.3	-42.4	21.7	0.00e+00	92	41	0	179306496	56	6004
2026-01-22 14:15:47.26	23.78	10.41	-41.1	-42.1	21.9	0.00e+00	0	41	0	186646528	56	5818
2026-01-22 14:15:51.30	23.94	10.76	-41.3	-42.4	21.8	0.00e+00	0	41	0	193986560	56	5999
2026-01-22 14:15:55.33	24.10	11.12	-40.8	-41.8	22.3	0.00e+00	58	41	0	202375168	54	6296
2026-01-22 14:15:59.37	24.27	11.48	-40.8	-41.9	22.0	0.00e+00	0	41	0	209715200	54	6320
2026-01-22 14:16:03.41	24.44	11.84	-40.7	-41.8	22.3	0.00e+00	0	41	0	217055232	54	6251
2026-01-22 14:16:07.44	24.61	12.21	-40.7	-41.7	22.2	0.00e+00	0	41	0	224395264	54	6244
2026-01-22 14:16:11.48	24.79	12.59	-40.7	-41.8	22.2	0.00e+00	90	41	0	231735296	54	6272
2026-01-22 14:16:15.52	24.97	12.97	-40.6	-41.6	22.3	0.00e+00	0	41	0	240123904	54	6157
2026-01-22 14:16:19.56	25.15	13.35	-40.4	-41.4	22.6	0.00e+00	0	41	0	247463936	54	5970
2026-01-22 14:16:23.60	25.34	13.75	-40.4	-41.4	22.6	0.00e+00	0	41	0	254803968	54	6020
2026-01-22 14:16:27.64	25.54	14.15	-40.6	-41.7	22.4	0.00e+00	65	41	0	262144000	54	6183
2026-01-22 14:16:31.68	25.74	14.55	-40.7	-41.7	22.4	0.00e+00	0	41	0	270532608	54	6194
2026-01-22 14:16:35.72	25.94	14.97	-40.8	-41.8	22.4	0.00e+00	0	41	0	277872640	54	6313
2026-01-22 14:16:39.76	26.15	15.38	-40.9	-41.9	22.3	0.00e+00	23	41	0	285212672	54	6344
2026-01-22 14:16:43.80	26.36	15.81	-41.0	-42.1	22.1	0.00e+00	0	41	0	292552704	54	6490
2026-01-22 14:16:47.84	26.58	16.24	-40.7	-41.7	22.4	0.00e+00	0	41	0	299892736	54	6243
2026-01-22 14:16:51.87	26.81	16.68	-40.8	-41.9	22.3	0.00e+00	0	41	0	308281344	54	6339
2026-01-22 14:16:55.91	27.04	17.13	-40.8	-41.8	22.4	0.00e+00	49	41	0	315621376	54	6304
2026-01-22 14:16:59.95	27.28	17.59	-41.0	-42.0	22.3	0.00e+00	0	41	0	322961408	54	6436
2026-01-22 14:17:03.99	27.53	18.06	-40.8	-41.9	22.3	0.00e+00	0	41	0	330301440	54	6330
2026-01-22 14:17:08.03	27.78	18.53	-40.7	-41.7	22.5	0.00e+00	0	41	0	338690048	54	6243
2026-01-22 14:17:12.07	28.04	19.01	-40.6	-41.6	22.6	0.00e+00	50	41	0	346030080	54	6138
2026-01-22 14:17:16.10	28.31	19.50	-40.6	-41.5	22.7	0.00e+00	0	41	0	353370112	54	6100
2026-01-22 14:17:20.14	28.59	20.00	-39.9	-40.9	23.2	0.00e+00	20	41	0	360710144	54	5633
2026-01-22 14:17:24.18	28.88	20.51	-39.4	-40.3	23.7	0.00e+00	0	41	0	368050176	52	5915
2026-01-22 14:17:28.21	29.17	21.03	-38.8	-39.6	24.1	0.00e+00	92	41	0	376438784	50	6139
2026-01-22 14:17:32.25	29.48	21.56	-38.7	-39.5	24.2	0.00e+00	0	41	0	383778816	50	6076
2026-01-22 14:17:36.29	29.79	22.10	-38.7	-39.5	24.2	0.00e+00	0	41	0	391118848	50	6070
2026-01-22 14:17:40.33	30.12	22.66	-38.6	-39.4	24.3	0.00e+00	26	41	0	398458880	50	6026
2026-01-22 14:17:44.37	30.45	23.22	-38.9	-39.8	24.1	0.00e+00	0	41	0	405798912	50	6260
2026-01-22 14:17:48.41	30.80	23.79	-38.8	-39.7	24.2	0.00e+00	0	41	0	414187520	50	6193
2026-01-22 14:17:52.45	31.16	24.38	-39.1	-40.0	24.0	0.00e+00	0	41	0	421527552	50	6395
2026-01-22 14:17:56.49	31.54	24.98	-39.1	-39.9	24.1	0.00e+00	92	41	0	428867584	50	6388
2026-01-22 14:18:00.53	31.92	25.59	-38.7	-39.5	24.4	0.00e+00	0	41	0	436207616	50	6048
2026-01-22 14:18:04.56	32.32	26.22	-38.5	-39.3	24.4	0.00e+00	0	41	0	444596224	50	5952
2026-01-22 14:18:08.60	32.74	26.85	-38.4	-39.2	24.4	0.00e+00	0	41	0	451936256	50	5884
2026-01-22 14:18:12.64	33.18	27.51	-38.6	-39.4	24.3	0.00e+00	92	41	0	459276288	50	5987
2026-01-22 14:18:16.68	33.63	28.17	-38.8	-39.6	24.2	0.00e+00	0	41	0	466616320	50	6142
2026-01-22 14:18:20.72	34.10	28.85	-39.3	-40.2	23.9	0.00e+00	0	41	0	473956352	50	6563
2026-01-22 14:18:24.75	34.59	29.55	-40.3	-41.2	23.2	0.00e+00	26	41	0	482344960	52	6571
2026-01-22 14:18:28.79	35.10	30.26	-41.3	-42.3	21.9	0.00e+00	0	41	0	489684992	54	6667
2026-01-22 14:18:32.83	35.64	30.99	-42.1	-43.3	21.5	0.00e+00	0	41	0	497025024	56	6624
2026-01-22 14:18:36.87	36.20	31.73	-42.9	-44.2	20.6	0.00e+00	0	41	0	504365056	58	6565
2026-01-22 14:18:40.91	36.78	32.49	-42.7	-43.9	20.8	0.00e+00	78	41	0	512753664	58	6380
2026-01-22 14:18:44.95	37.39	33.26	-42.3	-43.5	21.4	0.00e+00	0	41	0	520093696	58	6085
2026-01-22 14:18:48.98	38.03	34.05	-41.9	-43.0	21.3	0.00e+00	0	41	0	527433728	58	5739
2026-01-22 14:18:53.02	38.70	34.86	-42.8	-44.0	20.8	0.00e+00	0	41	0	534773760	58	6437
2026-01-22 14:18:57.06	39.41	35.69	-42.6	-43.8	20.9	0.00e+00	53	41	0	542113792	58	6293
2026-01-22 14:19:01.10	40.15	36.53	-41.9	-43.0	21.7	0.00e+00	0	41	0	550502400	58	5719
2026-01-22 14:19:05.14	40.93	37.39	-41.5	-42.6	22.2	0.00e+00	0	41	0	557842432	56	6123
2026-01-22 14:19:09.18	41.75	38.27	-42.3	-43.5	21.2	0.00e+00	30	41	0	565182464	56	6803
2026-01-22 14:19:13.22	42.62	39.16	-41.5	-42.5	22.1	0.00e+00	90	41	0	572522496	56	6060
2026-01-22 14:19:17.25	43.53	40.07	-40.8	-41.7	22.7	0.00e+00	0	41	0	580911104	54	6229
2026-01-22 14:19:21.29	44.50	40.99	-41.5	-42.6	22.0	0.00e+00	0	41	0	588251136	54	6852
2026-01-22 14:19:25.33	45.53	41.93	-40.8	-41.8	22.7	0.00e+00	24	41	0	595591168	54	6286
2026-01-22 14:19:29.37	46.61	42.89	-41.7	-42.8	21.9	0.00e+00	0	41	0	602931200	56	6298
2026-01-22 14:19:33.41	47.76	43.85	-42.7	-43.9	21.0	0.00e+00	0	41	0	610271232	58	6372
2026-01-22 14:19:37.45	48.98	44.83	-42.5	-43.6	21.0	0.00e+00	0	41	0	618659840	56	6923
2026-01-22 14:19:41.48	50.28	45.82	-41.6	-42.6	22.0	0.00e+00	88	41	0	625999872	56	6171
2026-01-22 14:19:45.52	51.66	46.81	-42.2	-43.4	21.0	0.00e+00	0	41	0	633339904	58	5997
2026-01-22 14:19:49.56	53.13	47.81	-41.7	-42.8	22.0	0.00e+00	0	41	0	640679936	56	6275
2026-01-22 14:19:53.60	54.70	48.81	-42.2	-43.3	21.4	0.00e+00	0	41	0	649068544	58	5907
2026-01-22 14:19:57.64	56.37	49.81	-42.0	-43.1	21.6	0.00e+00	92	41	0	656408576	56	6531
2026-01-22 14:20:01.67	58.15	50.81	-42.2	-43.3	21.6	0.00e+00	0	41	0	663748608	56	6623
2026-01-22 14:20:05.71	60.06	51.79	-42.8	-44.1	20.8	0.00e+00	0	41	0	671088640	60	5781
2026-01-22 14:20:09.75	62.09	52.77	-42.3	-43.5	21.6	0.00e+00	30	42	0	678428672	56	6791
2026-01-22 14:20:13.79	64.26	53.72	-41.2	-42.2	22.2	0.00e+00	0	42	0	686817280	56	5884
2026-01-22 14:20:17.83	66.58	54.65	-40.0	-40.9	23.4	0.00e+00	0	42	0	694157312	54	5641
2026-01-22 14:20:21.87	69.05	55.54	-40.6	-41.6	22.8	0.00e+00	0	41	0	701497344	54	6124
2026-01-22 14:20:25.91	71.67	56.40	-41.6	-42.7	22.0	0.00e+00	88	41	0	708837376	56	6198
2026-01-22 14:20:29.94	74.45	57.20	-40.0	-40.9	23.4	0.00e+00	0	42	0	717225984	52	6370
2026-01-22 14:20:33.98	77.40	57.95	-40.4	-41.3	23.1	0.00e+00	0	42	0	724566016	52	6660
2026-01-22 14:20:38.02	80.50	58.63	-40.5	-41.4	23.0	0.00e+00	0	42	0	731906048	54	5980
2026-01-22 14:20:42.05	83.76	59.24	-39.6	-40.5	23.7	0.00e+00	55	42	0	739246080	52	6042
2026-01-22 14:20:46.09	87.17	59.77	-41.5	-42.6	21.7	0.00e+00	0	42	0	746586112	54	6893
2026-01-22 14:20:50.13	90.70	60.21	-40.9	-41.9	22.4	0.00e+00	0	41	0	754974720	54	6354
2026-01-22 14:20:54.17	94.35	60.55	-41.6	-42.7	22.0	0.00e+00	17	42	0	762314752	56	6182
2026-01-22 14:20:58.21	98.08	60.78	-42.6	-43.9	20.9	0.00e+00	92	41	0	769654784	56	7142
2026-01-22 14:21:02.24	101.85	60.92	-39.9	-40.8	23.4	0.00e+00	0	42	0	776994816	54	5598
2026-01-22 14:21:06.28	105.66	60.94	-40.0	-40.9	23.2	0.00e+00	0	42	0	785383424	52	6368
2026-01-22 14:21:10.32	109.46	60.85	-39.8	-40.7	23.3	0.00e+00	32	42	0	792723456	52	6212
2026-01-22 14:21:14.35	113.21	60.65	-40.8	-41.7	22.7	0.00e+00	0	42	0	800063488	54	6227
2026-01-22 14:21:18.39	116.89	60.35	-43.8	-45.4	19.5	0.00e+00	0	42	0	807403520	60	6733
2026-01-22 14:21:22.43	120.48	59.95	-43.7	-45.1	20.0	0.00e+00	0	42	0	814743552	60	6500
2026-01-22 14:21:26.47	123.94	59.46	-43.2	-44.5	20.3	0.00e+00	92	42	0	823132160	58	6814
2026-01-22 14:21:30.51	127.27	58.88	-41.1	-42.0	22.4	0.00e+00	0	42	0	830472192	56	5756
2026-01-22 14:21:34.55	130.44	58.22	-41.4	-42.4	22.3	0.00e+00	0	42	0	837812224	56	6027
2026-01-22 14:21:38.59	133.45	57.50	-39.4	-40.3	23.8	0.00e+00	0	42	0	845152256	52	5929
2026-01-22 14:21:42.63	136.31	56.71	-39.3	-40.2	23.8	0.00e+00	92	42	0	853540864	50	6548
2026-01-22 14:21:46.67	139.00	55.87	-40.5	-41.5	22.9	0.00e+00	0	42	0	860880896	54	6087
2026-01-22 14:21:50.71	141.53	54.99	-37.5	-38.2	25.3	0.00e+00	0	42	0	868220928	48	5891
2026-01-22 14:21:54.74	143.90	54.08	-37.4	-38.1	25.2	0.00e+00	28	42	0	875560960	46	6529
2026-01-22 14:21:58.78	146.13	53.13	-38.4	-39.2	24.5	0.00e+00	0	42	0	882900992	48	6560
2026-01-22 14:22:02.82	148.22	52.16	-37.4	-38.2	25.2	0.00e+00	0	42	0	891289600	46	6565
2026-01-22 14:22:06.86	150.18	51.18	-39.1	-40.0	24.0	0.00e+00	0	42	0	898629632	50	6409
2026-01-22 14:22:10.89	152.01	50.18	-38.7	-39.5	24.4	0.00e+00	90	42	0	905969664	50	6057
2026-01-22 14:22:14.93	153.72	49.18	-43.5	-45.0	19.9	0.00e+00	0	42	0	913309696	58	7212
2026-01-22 14:22:18.97	155.33	48.17	-44.6	-46.2	19.2	0.00e+00	0	42	0	920649728	60	7376
2026-01-22 14:22:23.00	156.84	47.17	-44.1	-45.7	19.3	0.00e+00	0	42	0	929038336	60	6975
2026-01-22 14:22:27.04	158.26	46.17	-43.2	-44.5	20.2	0.00e+00	35	42	0	936378368	58	6832
2026-01-22 14:22:31.08	159.59	45.18	-41.4	-42.4	22.2	0.00e+00	24	42	0	943718400	56	5985
2026-01-22 14:22:35.11	160.84	44.19	-41.2	-42.2	22.3	0.00e+00	0	42	0	951058432	56	5869
2026-01-22 14:22:39.15	162.02	43.22	-40.1	-41.0	23.2	0.00e+00	26	42	0	959447040	52	6424
2026-01-22 14:22:43.19	163.13	42.26	-39.6	-40.5	23.7	0.00e+00	92	42	0	966787072	54	5434
2026-01-22 14:22:47.23	164.18	41.31	-41.3	-42.3	21.8	0.00e+00	0	41	0	974127104	54	6679
2026-01-22 14:22:51.27	165.17	40.37	-39.0	-39.9	24.2	0.00e+00	0	42	0	981467136	52	5631
2026-01-22 14:22:55.31	166.10	39.46	-41.1	-42.2	22.1	0.00e+00	61	41	0	988807168	54	6586
2026-01-22 14:22:59.35	166.99	38.55	-38.8	-39.7	23.9	0.00e+00	0	42	0	997195776	52	5515
2026-01-22 14:23:03.39	167.83	37.67	-38.7	-39.4	24.2	0.00e+00	0	42	0	1004535808	48	6769
2026-01-22 14:23:07.43	168.63	36.80	-41.1	-42.1	22.3	0.00e+00	0	42	0	1011875840	54	6523
2026-01-22 14:23:11.47	169.38	35.94	-41.0	-42.1	22.5	0.00e+00	75	41	0	1019215872	54	6506
2026-01-22 14:23:15.50	170.10	35.11	-41.1	-42.1	22.3	0.00e+00	0	41	0	1027604480	54	6490
2026-01-22 14:23:19.54	170.78	34.29	-41.4	-42.5	21.9	0.00e+00	0	41	0	1034944512	54	6771
2026-01-22 14:23:23.58	171.44	33.49	-40.7	-41.8	22.6	0.00e+00	25	41	0	1042284544	54	6248
2026-01-22 14:23:27.62	172.06	32.71	-40.5	-41.4	22.5	0.00e+00	92	41	0	1049624576	54	6016
2026-01-22 14:23:31.65	172.65	31.94	-40.2	-41.1	23.0	0.00e+00	0	41	0	1056964608	54	5816
2026-01-22 14:23:35.69	173.22	31.19	-41.0	-41.9	22.4	0.00e+00	0	41	0	1065353216	54	6373
2026-01-22 14:23:39.73	173.76	30.45	-42.3	-43.5	21.0	0.00e+00	41	41	0	1072693248	56	6788
2026-01-22 14:23:43.77	174.28	29.73	-41.8	-42.9	21.6	0.00e+00	0	41	0	1080033280	56	6362
2026-01-22 14:23:47.81	174.78	29.03	-40.9	-41.9	22.5	0.00e+00	0	41	0	1087373312	56	5656
2026-01-22 14:23:51.85	175.26	28.34	-41.5	-42.6	21.6	0.00e+00	0	41	0	1095761920	54	6891
2026-01-22 14:23:55.89	175.72	27.66	-40.6	-41.6	22.7	0.00e+00	92	41	0	1103101952	54	6127
2026-01-22 14:23:59.93	176.16	27.00	-39.8	-40.7	23.4	0.00e+00	0	41	0	1110441984	52	6186
2026-01-22 14:24:03.96	176.58	26.36	-39.8	-40.7	23.3	0.00e+00	0	41	0	1117782016	52	6193
2026-01-22 14:24:08.00	176.99	25.73	-40.1	-41.1	23.2	0.00e+00	0	41	0	1125122048	52	6471
2026-01-22 14:24:12.04	177.38	25.11	-40.6	-41.6	22.6	0.00e+00	27	41	0	1133510656	52	6877
2026-01-22 14:24:16.07	177.75	24.50	-40.3	-41.3	22.7	0.00e+00	0	41	0	1140850688	54	5960
2026-01-22 14:24:20.11	178.12	23.91	-40.1	-41.1	23.0	0.00e+00	0	41	0	1148190720	54	5763
2026-01-22 14:24:24.15	178.47	23.33	-38.7	-39.5	24.1	0.00e+00	22	41	0	1155530752	52	5400
2026-01-22 14:24:28.19	178.81	22.76	-37.5	-38.2	25.2	0.00e+00	31	41	0	1163919360	48	5876
2026-01-22 14:24:32.23	179.14	22.20	-37.5	-38.3	24.9	0.00e+00	0	41	0	1171259392	48	5909
2026-01-22 14:24:36.27	179.46	21.65	-38.3	-39.0	24.5	0.00e+00	0	41	0	1178599424	48	6462
2026-01-22 14:24:40.31	179.76	21.12	-38.4	-39.3	24.3	0.00e+00	15	41	0	1185939456	48	6619
2026-01-22 14:24:44.35	180.06	20.59	-38.3	-39.1	24.5	0.00e+00	0	41	0	1193279488	48	6522
2026-01-22 14:24:48.39	180.35	20.07	-38.1	-38.9	24.6	0.00e+00	0	41	0	1201668096	48	6381
2026-01-22 14:24:52.42	180.62	19.57	-38.0	-38.8	24.5	0.00e+00	0	41	0	1209008128	48	6315
2026-01-22 14:24:56.46	180.89	19.07	-38.4	-39.2	24.3	0.00e+00	91	41	0	1216348160	48	6571
2026-01-22 14:25:00.50	181.16	18.58	-39.1	-40.0	23.8	0.00e+00	0	41	0	1223688192	50	6400
2026-01-22 14:25:04.53	181.41	18.11	-39.5	-40.5	23.4	0.00e+00	0	41	0	1232076800	50	6773
2026-01-22 14:25:08.57	181.66	17.64	-39.9	-40.9	23.1	0.00e+00	0	41	0	1239416832	52	6318
2026-01-22 14:25:12.61	181.90	17.18	-39.9	-40.8	23.1	0.00e+00	90	41	0	1246756864	52	6285
2026-01-22 14:25:16.65	182.13	16.72	-39.2	-40.1	23.6	0.00e+00	0	41	0	1254096896	52	5813
2026-01-22 14:25:20.70	182.36	16.28	-38.8	-39.6	23.9	0.00e+00	0	41	0	1261436928	50	6155
2026-01-22 14:25:24.74	182.58	15.84	-38.9	-39.8	23.8	0.00e+00	85	41	0	1269825536	50	6255
2026-01-22 14:25:28.77	182.79	15.41	-39.3	-40.1	23.6	0.00e+00	0	41	0	1277165568	50	6538
2026-01-22 14:25:32.81	183.00	14.99	-39.5	-40.4	23.3	0.00e+00	0	41	0	1284505600	50	6709
2026-01-22 14:25:36.85	183.21	14.57	-39.7	-40.6	23.1	0.00e+00	0	41	0	1291845632	50	6892
2026-01-22 14:25:40.89	183.41	14.16	-40.0	-41.0	23.0	0.00e+00	92	41	0	1300234240	52	6400
2026-01-22 14:25:44.93	183.60	13.76	-40.2	-41.1	22.8	0.00e+00	0	41	0	1307574272	52	6532
2026-01-22 14:25:48.97	183.79	13.36	-40.2	-41.2	22.6	0.00e+00	0	41	0	1314914304	52	6577
2026-01-22 14:25:53.01	183.97	12.97	-40.2	-41.2	22.5	0.00e+00	0	41	0	1322254336	52	6572
2026-01-22 14:25:57.05	184.15	12.59	-40.6	-41.6	22.3	0.00e+00	20	41	0	1329594368	52	6903
2026-01-22 14:26:01.09	184.33	12.21	-40.7	-41.7	22.3	0.00e+00	0	41	0	1337982976	54	6202
2026-01-22 14:26:05.13	184.50	11.83	-40.7	-41.7	22.2	0.00e+00	13	41	0	1345323008	54	6235
2026-01-22 14:26:09.17	184.67	11.47	-40.6	-41.6	22.3	0.00e+00	16	41	0	1352663040	54	6154
2026-01-22 14:26:13.21	184.83	11.10	-40.9	-42.0	22.0	0.00e+00	92	41	0	1360003072	54	6404
2026-01-22 14:26:17.24	184.99	10.75	-40.9	-41.9	22.1	0.00e+00	0	41	0	1368391680	54	6377
2026-01-22 14:26:21.28	185.15	10.39	-40.7	-41.7	22.3	0.00e+00	0	41	0	1375731712	54	6211
2026-01-22 14:26:25.31	185.30	10.05	-40.9	-42.0	22.0	0.00e+00	16	41	0	1383071744	54	6411
2026-01-22 14:26:29.36	185.45	9.70	-41.0	-42.0	21.9	0.00e+00	0	41	0	1390411776	54	6464
2026-01-22 14:26:33.39	185.60	9.37	-41.1	-42.2	21.8	0.00e+00	0	41	0	1397751808	54	6541
2026-01-22 14:26:37.43	185.74	9.03	-41.0	-42.0	21.9	0.00e+00	0	41	0	1406140416	54	6464
2026-01-22 14:26:41.47	185.88	8.70	-41.0	-42.1	21.9	0.00e+00	92	41	0	1413480448	54	6499
2026-01-22 14:26:45.51	186.02	8.38	-41.0	-42.1	21.8	0.00e+00	0	41	0	1420820480	54	6498
2026-01-22 14:26:49.55	186.16	8.05	-41.1	-42.2	21.7	0.00e+00	0	41	0	1428160512	54	6565
2026-01-22 14:26:53.59	186.29	7.74	-41.2	-42.3	21.6	0.00e+00	14	41	0	1436549120	54	6671
2026-01-22 14:26:57.63	186.42	7.42	-41.2	-42.4	21.6	0.00e+00	92	41	0	1443889152	54	6697
2026-01-22 14:27:01.67	186.55	7.11	-41.4	-42.6	21.5	0.00e+00	0	41	0	1451229184	54	6869
2026-01-22 14:27:05.71	186.67	6.81	-41.5	-42.6	21.4	0.00e+00	0	41	0	1458569216	56	6169
2026-01-22 14:27:09.75	186.80	6.50	-41.3	-42.5	21.5	0.00e+00	18	41	0	1465909248	56	6062
2026-01-22 14:27:13.79	186.92	6.20	-41.7	-42.9	21.1	0.00e+00	0	41	0	1474297856	56	6350
2026-01-22 14:27:17.83	187.04	5.91	-41.4	-42.5	21.4	0.00e+00	0	41	0	1481637888	56	6075
2026-01-22 14:27:21.86	187.15	5.61	-41.6	-42.8	21.1	0.00e+00	0	41	0	1488977920	56	6265
2026-01-22 14:27:25.90	187.27	5.33	-41.7	-42.9	21.0	0.00e+00	92	41	0	1496317952	56	6339
2026-01-22 14:27:29.94	187.38	5.04	-41.7	-42.9	21.0	0.00e+00	0	41	0	1504706560	56	6343
2026-01-22 14:27:33.98	187.49	4.75	-41.6	-42.7	21.0	0.00e+00	0	41	0	1512046592	56	6244
2026-01-22 14:27:38.02	187.60	4.47	-41.9	-43.1	20.7	0.00e+00	0	41	0	1519386624	56	6528
2026-01-22 14:27:42.05	187.71	4.20	-42.1	-43.4	20.4	0.00e+00	89	41	0	1526726656	56	6718
2026-01-22 14:27:46.09	187.81	3.92	-42.3	-43.6	20.1	0.00e+00	0	41	0	1534066688	56	6892
2026-01-22 14:27:50.13	187.92	3.65	-42.7	-44.2	19.3	0.00e+00	0	41	0	1542455296	58	6542
2026-01-22 14:27:54.17	188.02	3.38	-42.8	-44.2	19.3	0.00e+00	14	41	0	1549795328	58	6602
2026-01-22 14:27:58.21	188.12	3.11	-42.6	-44.1	19.4	0.00e+00	78	41	0	1557135360	58	6499
2026-01-22 14:28:02.24	188.22	2.85	-50.5	-65.7	3.6	1.51e+00	0	41	104	1559232512	60	69924
2026-01-22 14:28:06.28	188.31	2.58	-50.9	-66.0	3.6	1.51e+00	0	41	104	1559232512	60	72393
2026-01-22 14:28:10.32	188.41	2.32	-50.9	-66.2	3.6	1.51e+00	0	41	104	1559232512	60	73579
2026-01-22 14:28:14.36	188.50	2.07	-50.8	-66.2	3.6	1.51e+00	0	42	104	1559232512	60	73822
2026-01-22 14:28:18.41	188.60	1.81	-51.0	-66.2	3.6	1.51e+00	0	41	104	1559232512	60	74068
2026-01-22 14:28:22.45	188.69	1.56	-51.1	-66.3	3.6	1.51e+00	0	41	104	1559232512	60	74706
2026-01-22 14:28:26.48	188.78	1.31	-51.1	-66.3	3.6	1.51e+00	0	41	104	1559232512	60	74464
2026-01-22 14:28:30.52	188.87	1.06	-51.1	-66.3	3.6	1.51e+00	0	41	104	1559232512	60	74276
2026-01-22 14:28:34.56	188.95	0.81	-51.1	-66.2	3.6	1.51e+00	0	41	104	1559232512	60	74220
2026-01-22 14:28:38.60	189.04	0.57	-51.1	-66.3	3.6	1.51e+00	0	41	104	1559232512	60	74442
2026-01-22 14:28:42.64	189.12	0.32	-51.1	-66.3	3.6	1.51e+00	0	41	104	1559232512	60	74308
2026-01-22 14:28:46.68	189.21	0.08	-51.1	-66.3	3.6	1.51e+00	0	41	104	1559232512	60	74540

#Closed at: 2026-01-22 14:28:49
#Recorded file [1559 MB]: D:/lorett/data/35029_260123_021321.dat