passes_logs/2026/01/22/R4.6S_Anadyr/R4.6S_Anadyr__20260122_225350_TY-42_rec.log

#Pass ID: 20260122_225350_TY-42
#Satellite: TY-42
#Configuration: TY-42_900M
#almurnet v.1.7.20251203
#Start time: 2026-01-22 22:54:23

#Version: 2.2.20231116
#Station: R4.6S_Anadyr
#Location: 177.4865 lon 64.73178 lat
#TLE: 1 64048U 25103A   26022.68086806  .00008008  00000-0  38191-3 0 09998
#TLE: 2 64048 097.4120 097.9538 0001839 092.0767 308.1526 15.19160957 37986

#Time	Az	El	Level	Level2	SNR	BER	BlckErr	Temp	State	Recorded	gain1	gain2
2026-01-22 22:54:23.41	20.01	2.15	-51.0	-65.9	3.5	1.51e+00	0	39	0	0	60	71687
2026-01-22 22:54:26.44	20.13	2.36	-50.3	-52.7	6.1	0.00e+00	0	40	104	0	60	53025
2026-01-22 22:54:29.47	20.26	2.57	-50.3	-52.7	6.1	0.00e+00	0	41	104	0	60	53048
2026-01-22 22:54:32.50	20.38	2.78	-50.3	-52.7	6.1	0.00e+00	0	41	104	0	60	52972
2026-01-22 22:54:35.53	20.51	2.99	-50.2	-52.7	6.1	0.00e+00	0	41	104	0	60	52741
2026-01-22 22:54:38.56	20.64	3.21	-50.3	-52.7	6.1	0.00e+00	0	41	104	0	60	53051
2026-01-22 22:54:41.59	20.78	3.43	-50.3	-52.7	6.1	0.00e+00	0	41	104	0	60	52802
2026-01-22 22:54:44.62	20.91	3.65	-50.2	-52.7	6.1	0.00e+00	0	41	104	0	60	53053
2026-01-22 22:54:47.65	21.05	3.87	-50.3	-52.7	6.1	0.00e+00	0	41	104	0	60	52970
2026-01-22 22:54:50.68	21.19	4.09	-50.2	-52.7	6.1	0.00e+00	0	42	104	0	60	52616
2026-01-22 22:54:53.71	21.33	4.32	-50.3	-52.8	6.1	0.00e+00	0	41	104	0	60	53407
2026-01-22 22:54:56.74	21.48	4.55	-50.3	-52.8	6.1	0.00e+00	0	42	104	0	60	53161
2026-01-22 22:54:59.77	21.62	4.78	-50.3	-52.8	6.1	0.00e+00	0	42	104	0	60	53381
2026-01-22 22:55:02.79	21.77	5.02	-50.5	-53.0	6.1	0.00e+00	0	42	104	0	60	54433
2026-01-22 22:55:05.82	21.93	5.25	-50.4	-52.9	6.1	0.00e+00	0	42	104	0	60	53878
2026-01-22 22:55:08.85	22.08	5.49	-50.3	-52.8	6.1	0.00e+00	0	42	104	0	60	53612
2026-01-22 22:55:11.87	22.24	5.73	-48.5	-50.1	6.2	0.00e+00	0	42	104	0	60	39157
2026-01-22 22:55:14.90	22.40	5.98	-47.5	-48.8	6.7	0.00e+00	0	42	104	0	60	33661
2026-01-22 22:55:17.93	22.57	6.23	-33.9	-34.3	14.4	0.00e+00	0	42	0	75497472	44	16019
2026-01-22 22:55:20.96	22.73	6.48	-50.2	-52.4	6.1	0.00e+00	0	42	104	142606336	60	51195
2026-01-22 22:55:23.99	22.91	6.73	-31.6	-32.1	15.4	0.00e+00	0	42	0	268435456	40	15510
2026-01-22 22:55:27.02	23.08	6.99	-30.4	-30.8	15.8	1.33e-02	0	42	0	603979776	36	16873
2026-01-22 22:55:30.05	23.26	7.25	-29.7	-30.1	15.9	4.69e-04	0	43	0	947912704	34	17424
2026-01-22 22:55:33.08	23.44	7.52	-29.7	-30.1	15.9	3.87e-04	0	42	0	1291845632	34	17467
2026-01-22 22:55:36.10	23.63	7.79	-29.6	-30.0	16.0	3.92e-04	0	43	0	1627389952	34	17382
2026-01-22 22:55:39.13	23.82	8.06	-30.2	-30.6	15.8	3.43e-04	0	43	0	1971322880	34	18542
2026-01-22 22:55:42.16	24.01	8.33	-29.2	-29.5	16.1	2.72e-04	0	43	0	2306867200	34	16421
2026-01-22 22:55:45.19	24.21	8.61	-29.3	-29.6	16.1	1.52e-04	0	43	0	2650800128	34	16587
2026-01-22 22:55:48.21	24.42	8.89	-28.9	-29.3	16.2	1.58e-04	0	43	0	2986344448	34	15918
2026-01-22 22:55:51.24	24.62	9.18	-28.8	-29.2	16.2	9.80e-05	0	43	0	3330277376	34	15708
2026-01-22 22:55:54.27	24.84	9.47	-28.7	-29.1	16.2	9.26e-05	0	43	0	3665821696	32	17556
2026-01-22 22:55:57.30	25.06	9.77	-28.4	-28.8	16.3	9.80e-05	0	43	0	4009754624	32	16844
2026-01-22 22:56:00.33	25.28	10.07	-28.6	-29.0	16.4	3.81e-05	0	43	0	4353687552	32	17234
2026-01-22 22:56:03.36	25.51	10.37	-28.1	-28.5	16.3	1.63e-05	0	43	0	4689231872	32	16298
2026-01-22 22:56:06.38	25.74	10.68	-28.2	-28.6	16.3	3.26e-05	0	43	0	5033164800	32	16547
2026-01-22 22:56:09.41	25.98	11.00	-28.1	-28.5	16.4	5.44e-05	0	43	0	5368709120	32	16370
2026-01-22 22:56:12.44	26.23	11.31	-27.8	-28.2	16.5	2.17e-05	0	43	0	5712642048	30	17636
2026-01-22 22:56:15.47	26.48	11.64	-27.8	-28.2	16.5	1.08e-05	0	43	0	6056574976	30	17613
2026-01-22 22:56:18.49	26.73	11.97	-27.7	-28.1	16.5	1.63e-05	0	43	0	6400507904	30	17443
2026-01-22 22:56:21.53	27.00	12.30	-27.4	-27.8	16.5	5.40e-06	0	43	0	6736052224	30	16881
2026-01-22 22:56:24.55	27.27	12.64	-27.3	-27.7	16.7	1.63e-05	0	43	0	7079985152	30	16774
2026-01-22 22:56:27.58	27.55	12.99	-27.1	-27.5	16.7	1.08e-05	0	43	0	7423918080	30	16390
2026-01-22 22:56:30.61	27.84	13.34	-26.8	-27.2	16.7	0.00e+00	0	43	0	7759462400	30	15780
2026-01-22 22:56:33.64	28.13	13.70	-26.6	-27.0	16.7	0.00e+00	0	43	0	8103395328	28	17251
2026-01-22 22:56:36.66	28.44	14.07	-26.5	-26.9	16.8	5.40e-06	0	43	0	8438939648	28	17091
2026-01-22 22:56:39.69	28.75	14.44	-26.2	-26.6	16.8	0.00e+00	0	43	0	8782872576	28	16508
2026-01-22 22:56:42.72	29.07	14.82	-26.1	-26.5	16.8	0.00e+00	0	43	0	9118416896	28	16328
2026-01-22 22:56:45.75	29.40	15.20	-26.0	-26.4	16.8	0.00e+00	0	43	0	9462349824	28	16157
2026-01-22 22:56:48.78	29.74	15.60	-26.0	-26.4	16.9	0.00e+00	0	43	0	9806282752	28	16177
2026-01-22 22:56:51.81	30.09	16.00	-26.0	-26.4	16.8	0.00e+00	0	43	0	10141827072	28	16128
2026-01-22 22:56:54.84	30.46	16.41	-25.8	-26.2	16.9	0.00e+00	0	43	0	10485760000	26	17725
2026-01-22 22:56:57.87	30.83	16.82	-25.6	-26.0	17.0	0.00e+00	0	43	0	10821304320	26	17245
2026-01-22 22:57:00.90	31.21	17.25	-25.4	-25.8	17.0	0.00e+00	0	43	0	11165237248	26	16904
2026-01-22 22:57:03.93	31.61	17.68	-25.3	-25.7	17.1	0.00e+00	0	43	0	11509170176	26	16720
2026-01-22 22:57:06.96	32.02	18.12	-25.1	-25.5	17.1	0.00e+00	0	43	0	11844714496	26	16263
2026-01-22 22:57:09.99	32.45	18.58	-24.9	-25.3	17.1	0.00e+00	0	43	0	12188647424	26	15911
2026-01-22 22:57:13.02	32.89	19.04	-24.9	-25.3	17.2	0.00e+00	0	43	0	12524191744	24	17868
2026-01-22 22:57:16.05	33.34	19.51	-24.5	-24.9	17.2	0.00e+00	0	43	0	12868124672	24	17147
2026-01-22 22:57:19.08	33.81	19.99	-24.5	-24.9	17.2	0.00e+00	0	43	0	13212057600	24	17060
2026-01-22 22:57:22.10	34.30	20.47	-24.0	-24.4	17.3	0.00e+00	0	43	0	13547601920	24	16136
2026-01-22 22:57:25.13	34.80	20.98	-23.9	-24.4	17.2	0.00e+00	0	43	0	13891534848	24	16064
2026-01-22 22:57:28.16	35.32	21.49	-23.9	-24.3	17.2	0.00e+00	0	43	0	14235467776	24	15918
2026-01-22 22:57:31.19	35.87	22.01	-23.8	-24.2	17.2	0.00e+00	0	43	0	14579400704	22	17775
2026-01-22 22:57:34.22	36.43	22.54	-23.6	-24.0	17.3	0.00e+00	0	44	0	14914945024	22	17278
2026-01-22 22:57:37.25	37.01	23.09	-23.1	-23.6	17.3	0.00e+00	0	43	0	15258877952	22	16441
2026-01-22 22:57:40.28	37.62	23.64	-23.2	-23.6	17.3	0.00e+00	0	43	0	15602810880	22	16483
2026-01-22 22:57:43.31	38.26	24.21	-23.1	-23.5	17.3	0.00e+00	0	43	0	15938355200	22	16371
2026-01-22 22:57:46.34	38.91	24.79	-22.7	-23.1	17.3	0.00e+00	0	44	0	16282288128	20	17486
2026-01-22 22:57:49.37	39.60	25.38	-22.5	-22.9	17.3	0.00e+00	0	44	0	16617832448	20	17178
2026-01-22 22:57:52.39	40.31	25.98	-22.3	-22.8	17.3	0.00e+00	0	44	0	16961765376	20	16851
2026-01-22 22:57:55.42	41.05	26.60	-22.3	-22.7	17.3	0.00e+00	0	43	0	17297309696	20	16706
2026-01-22 22:57:58.45	41.83	27.23	-21.9	-22.3	17.4	0.00e+00	0	44	0	17641242624	20	15956
2026-01-22 22:58:01.48	42.64	27.87	-21.7	-22.1	17.4	0.00e+00	0	44	0	17985175552	18	17529
2026-01-22 22:58:04.51	43.49	28.53	-21.5	-21.9	17.4	0.00e+00	0	44	0	18320719872	18	17140
2026-01-22 22:58:07.54	44.37	29.19	-21.3	-21.7	17.4	0.00e+00	0	44	0	18664652800	18	16696
2026-01-22 22:58:10.56	45.30	29.87	-21.0	-21.4	17.4	0.00e+00	0	44	0	19000197120	18	16167
2026-01-22 22:58:13.59	46.26	30.56	-20.8	-21.2	17.5	0.00e+00	0	44	0	19344130048	16	17696
2026-01-22 22:58:16.62	47.28	31.26	-51.3	-53.8	6.1	0.00e+00	0	44	104	19662897152	60	59807
2026-01-22 22:58:19.65	48.34	31.97	-51.3	-53.8	6.1	0.00e+00	0	44	104	19662897152	60	60186
2026-01-22 22:58:22.68	49.45	32.69	-51.4	-53.9	6.1	0.00e+00	0	43	104	19662897152	60	60802
2026-01-22 22:58:25.71	50.62	33.42	-50.2	-52.9	6.1	0.00e+00	0	44	104	19662897152	60	53830
2026-01-22 22:58:28.73	51.84	34.16	-51.2	-53.7	6.1	0.00e+00	0	43	104	19662897152	60	59527
2026-01-22 22:58:31.76	53.12	34.90	-51.1	-53.6	6.1	0.00e+00	0	43	104	19662897152	60	58506
2026-01-22 22:58:34.79	54.47	35.65	-49.7	-52.4	6.1	0.00e+00	0	43	104	19662897152	60	51132
2026-01-22 22:58:37.82	55.88	36.41	-51.4	-53.9	6.1	0.00e+00	0	43	104	19662897152	60	60716
2026-01-22 22:58:40.85	57.37	37.16	-51.4	-53.9	6.1	0.00e+00	0	43	104	19662897152	60	60537
2026-01-22 22:58:43.87	58.92	37.91	-51.4	-53.9	6.1	0.00e+00	0	43	104	19662897152	60	60900
2026-01-22 22:58:46.90	60.55	38.66	-51.4	-53.9	6.1	0.00e+00	0	43	104	19662897152	60	60926
2026-01-22 22:58:49.93	62.27	39.40	-51.4	-53.9	6.1	0.00e+00	0	43	104	19662897152	60	60473
2026-01-22 22:58:52.95	64.06	40.12	-51.5	-54.0	6.1	0.00e+00	0	43	104	19662897152	60	61103
2026-01-22 22:58:55.98	65.94	40.84	-51.5	-54.0	6.1	0.00e+00	0	43	104	19662897152	60	61081
2026-01-22 22:58:59.01	67.90	41.54	-51.5	-54.0	6.1	0.00e+00	0	43	104	19662897152	60	61290
2026-01-22 22:59:02.03	69.95	42.21	-51.4	-53.9	6.1	0.00e+00	0	43	104	19662897152	60	60664
2026-01-22 22:59:05.06	72.10	42.85	-51.5	-54.0	6.1	0.00e+00	0	43	104	19662897152	60	61254
2026-01-22 22:59:08.09	74.33	43.47	-51.4	-53.9	6.1	0.00e+00	0	43	104	19662897152	60	60453
2026-01-22 22:59:11.11	76.65	44.04	-51.5	-54.0	6.1	0.00e+00	0	43	104	19662897152	60	61369
2026-01-22 22:59:14.14	79.06	44.57	-51.4	-53.9	6.1	0.00e+00	0	43	104	19662897152	60	60938
2026-01-22 22:59:17.17	81.54	45.06	-51.5	-54.0	6.0	0.00e+00	0	43	104	19662897152	60	61426
2026-01-22 22:59:20.20	84.11	45.49	-51.3	-53.8	6.1	0.00e+00	0	43	104	19662897152	60	59926
2026-01-22 22:59:23.23	86.74	45.87	-51.5	-54.0	6.1	0.00e+00	0	43	104	19662897152	60	61103
2026-01-22 22:59:26.26	89.43	46.18	-51.4	-53.9	6.1	0.00e+00	0	43	104	19662897152	60	60929
2026-01-22 22:59:29.29	92.17	46.43	-51.5	-53.9	6.1	0.00e+00	0	43	104	19662897152	60	60939
2026-01-22 22:59:32.32	94.95	46.60	-51.5	-54.0	6.1	0.00e+00	0	43	104	19662897152	60	61283
2026-01-22 22:59:35.35	97.76	46.71	-51.2	-53.8	6.1	0.00e+00	0	43	104	19662897152	60	59688
2026-01-22 22:59:38.38	100.58	46.75	-51.5	-54.0	6.1	0.00e+00	0	43	104	19662897152	60	61111
2026-01-22 22:59:41.40	103.39	46.71	-51.4	-53.9	6.1	0.00e+00	0	43	104	19662897152	60	60567
2026-01-22 22:59:44.43	106.20	46.60	-51.5	-54.0	6.1	0.00e+00	0	43	104	19662897152	60	61086
2026-01-22 22:59:47.47	108.99	46.42	-51.3	-53.7	6.1	0.00e+00	0	43	104	19662897152	60	59634
2026-01-22 22:59:50.49	111.72	46.17	-51.4	-54.0	6.1	0.00e+00	0	43	104	19662897152	60	61055
2026-01-22 22:59:53.52	114.41	45.85	-51.4	-53.8	6.1	0.00e+00	0	43	104	19662897152	60	60245
2026-01-22 22:59:56.55	117.04	45.48	-51.5	-54.0	6.1	0.00e+00	0	43	104	19662897152	60	61083
2026-01-22 22:59:59.58	119.61	45.04	-51.5	-54.0	6.1	0.00e+00	0	43	104	19662897152	60	61439
2026-01-22 23:00:02.61	122.10	44.55	-51.5	-54.0	6.1	0.00e+00	0	43	104	19662897152	60	61260
2026-01-22 23:00:05.64	124.51	44.02	-51.5	-53.9	6.1	0.00e+00	0	43	104	19662897152	60	60931
2026-01-22 23:00:08.67	126.83	43.44	-51.5	-54.0	6.1	0.00e+00	0	43	104	19662897152	60	61334
2026-01-22 23:00:11.69	129.06	42.83	-51.5	-54.0	6.1	0.00e+00	0	43	104	19662897152	60	61605
2026-01-22 23:00:14.72	131.21	42.18	-51.4	-53.9	6.1	0.00e+00	0	43	104	19662897152	60	60419
2026-01-22 23:00:17.75	133.27	41.50	-51.5	-53.9	6.0	0.00e+00	0	43	104	19662897152	60	60993
2026-01-22 23:00:20.78	135.24	40.80	-51.5	-53.9	6.1	0.00e+00	0	43	104	19662897152	60	60665
2026-01-22 23:00:23.80	137.11	40.08	-51.5	-54.0	6.1	0.00e+00	0	43	104	19662897152	60	61182
2026-01-22 23:00:26.83	138.91	39.35	-51.5	-53.9	6.1	0.00e+00	0	43	104	19662897152	60	60786
2026-01-22 23:00:29.86	140.63	38.61	-51.5	-53.9	6.1	0.00e+00	0	43	104	19662897152	60	60867
2026-01-22 23:00:32.89	142.26	37.85	-51.5	-54.0	6.1	0.00e+00	0	43	104	19662897152	60	61036
2026-01-22 23:00:35.91	143.82	37.10	-51.5	-53.9	6.1	0.00e+00	0	43	104	19662897152	60	60541
2026-01-22 23:00:38.94	145.30	36.34	-51.4	-53.9	6.1	0.00e+00	0	43	104	19662897152	60	60969
2026-01-22 23:00:41.97	146.71	35.59	-51.5	-54.0	6.1	0.00e+00	0	43	104	19662897152	60	61080
2026-01-22 23:00:45.00	148.06	34.83	-51.4	-53.9	6.1	0.00e+00	0	44	104	19662897152	60	60475
2026-01-22 23:00:48.02	149.34	34.09	-51.4	-53.9	6.1	0.00e+00	0	43	104	19662897152	60	60579
2026-01-22 23:00:51.05	150.57	33.35	-51.4	-53.9	6.1	0.00e+00	0	43	104	19662897152	60	60942
2026-01-22 23:00:54.08	151.73	32.61	-51.4	-53.8	6.1	0.00e+00	0	43	104	19662897152	60	60318
2026-01-22 23:00:57.11	152.85	31.89	-51.4	-53.9	6.1	0.00e+00	0	44	104	19662897152	60	60597
2026-01-22 23:01:00.14	153.91	31.17	-51.4	-53.9	6.1	0.00e+00	0	43	104	19662897152	60	60543
2026-01-22 23:01:03.17	154.92	30.47	-51.3	-53.8	6.1	0.00e+00	0	43	104	19662897152	60	60087
2026-01-22 23:01:06.20	155.89	29.78	-51.4	-53.9	6.1	0.00e+00	0	43	104	19662897152	60	60487
2026-01-22 23:01:09.22	156.82	29.10	-51.3	-53.8	6.0	0.00e+00	0	43	104	19662897152	60	59960
2026-01-22 23:01:12.25	157.70	28.43	-51.3	-53.8	6.1	0.00e+00	0	43	104	19662897152	60	60213
2026-01-22 23:01:15.28	158.55	27.77	-51.4	-53.9	6.1	0.00e+00	0	43	104	19662897152	60	60487
2026-01-22 23:01:18.31	159.36	27.12	-51.3	-53.8	6.1	0.00e+00	0	43	104	19662897152	60	60315
2026-01-22 23:01:21.34	160.13	26.49	-51.3	-53.8	6.1	0.00e+00	0	43	104	19662897152	60	59698
2026-01-22 23:01:24.37	160.88	25.87	-51.3	-53.8	6.1	0.00e+00	0	43	104	19662897152	60	60140
2026-01-22 23:01:27.40	161.59	25.27	-51.3	-53.8	6.1	0.00e+00	0	43	104	19662897152	60	59654
2026-01-22 23:01:30.42	162.28	24.67	-51.3	-53.8	6.1	0.00e+00	0	43	104	19662897152	60	60006
2026-01-22 23:01:33.45	162.93	24.09	-51.3	-53.7	6.1	0.00e+00	0	43	104	19662897152	60	59643
2026-01-22 23:01:36.47	163.56	23.52	-51.3	-53.8	6.1	0.00e+00	0	43	104	19662897152	60	59767
2026-01-22 23:01:39.50	164.17	22.96	-51.3	-53.7	6.1	0.00e+00	0	43	104	19662897152	60	59563
2026-01-22 23:01:42.52	164.75	22.42	-51.2	-53.7	6.1	0.00e+00	0	44	104	19662897152	60	59240
2026-01-22 23:01:45.55	165.32	21.88	-51.2	-53.7	6.1	0.00e+00	0	43	104	19662897152	60	59040
2026-01-22 23:01:48.58	165.86	21.36	-51.2	-53.7	6.1	0.00e+00	0	44	104	19662897152	60	59030
2026-01-22 23:01:51.61	166.38	20.85	-51.2	-53.7	6.1	0.00e+00	0	44	104	19662897152	60	59204
2026-01-22 23:01:54.64	166.89	20.34	-51.2	-53.7	6.1	0.00e+00	0	44	104	19662897152	60	59181
2026-01-22 23:01:57.67	167.37	19.85	-51.2	-53.7	6.1	0.00e+00	0	43	104	19662897152	60	59139
2026-01-22 23:02:00.69	167.84	19.37	-51.1	-53.6	6.1	0.00e+00	0	43	104	19662897152	60	58508
2026-01-22 23:02:03.72	168.29	18.90	-51.2	-53.7	6.1	0.00e+00	0	44	104	19662897152	60	59124
2026-01-22 23:02:06.75	168.73	18.44	-51.1	-53.6	6.1	0.00e+00	0	43	104	19662897152	60	58700
2026-01-22 23:02:09.78	169.16	17.99	-51.1	-53.6	6.1	0.00e+00	0	43	104	19662897152	60	58527
2026-01-22 23:02:12.81	169.57	17.54	-51.1	-53.6	6.1	0.00e+00	0	44	104	19662897152	60	58737
2026-01-22 23:02:15.83	169.96	17.11	-51.1	-53.6	6.1	0.00e+00	0	44	104	19662897152	60	58907
2026-01-22 23:02:18.86	170.35	16.68	-51.1	-53.6	6.1	0.00e+00	0	44	104	19662897152	60	58593
2026-01-22 23:02:21.89	170.72	16.26	-51.1	-53.6	6.1	0.00e+00	0	44	104	19662897152	60	58683
2026-01-22 23:02:24.92	171.08	15.85	-51.1	-53.5	6.1	0.00e+00	0	44	104	19662897152	60	58128
2026-01-22 23:02:27.95	171.43	15.45	-51.1	-53.6	6.1	0.00e+00	0	44	104	19662897152	60	58587
2026-01-22 23:02:30.98	171.77	15.06	-51.0	-53.5	6.1	0.00e+00	0	44	104	19662897152	60	57682
2026-01-22 23:02:34.01	172.10	14.67	-51.1	-53.5	6.1	0.00e+00	0	44	104	19662897152	60	58121
2026-01-22 23:02:37.04	172.42	14.29	-51.0	-53.4	6.1	0.00e+00	0	44	104	19662897152	60	57553
2026-01-22 23:02:40.07	172.73	13.92	-51.0	-53.5	6.1	0.00e+00	0	44	104	19662897152	60	57915
2026-01-22 23:02:43.09	173.03	13.55	-51.0	-53.5	6.1	0.00e+00	0	44	104	19662897152	60	57622
2026-01-22 23:02:46.12	173.33	13.19	-51.0	-53.5	6.1	0.00e+00	0	44	104	19662897152	60	57815
2026-01-22 23:02:49.15	173.61	12.84	-50.9	-53.4	6.1	0.00e+00	0	44	104	19662897152	60	57094
2026-01-22 23:02:52.18	173.89	12.49	-50.9	-53.4	6.1	0.00e+00	0	44	104	19662897152	60	57029
2026-01-22 23:02:55.21	174.16	12.15	-50.9	-53.4	6.1	0.00e+00	0	44	104	19662897152	60	57075
2026-01-22 23:02:58.23	174.42	11.81	-50.8	-53.3	6.1	0.00e+00	0	44	104	19662897152	60	56861
2026-01-22 23:03:01.26	174.68	11.48	-50.9	-53.4	6.1	0.00e+00	0	44	104	19662897152	60	57550
2026-01-22 23:03:04.29	174.93	11.15	-50.9	-53.4	6.1	0.00e+00	0	44	104	19662897152	60	57171
2026-01-22 23:03:07.32	175.18	10.83	-50.8	-53.3	6.1	0.00e+00	0	44	104	19662897152	60	56426
2026-01-22 23:03:10.35	175.42	10.52	-50.9	-53.3	6.1	0.00e+00	0	44	104	19662897152	60	56854
2026-01-22 23:03:13.38	175.65	10.21	-50.8	-53.3	6.1	0.00e+00	0	44	104	19662897152	60	56627
2026-01-22 23:03:16.40	175.87	9.90	-50.8	-53.3	6.0	0.00e+00	0	44	104	19662897152	60	56387
2026-01-22 23:03:19.44	176.10	9.60	-50.7	-53.2	6.1	0.00e+00	0	44	104	19662897152	60	55681
2026-01-22 23:03:22.47	176.31	9.31	-50.6	-53.1	6.1	0.00e+00	0	44	104	19662897152	60	55425
2026-01-22 23:03:25.50	176.52	9.01	-50.6	-53.1	6.1	0.00e+00	0	44	104	19662897152	60	55640
2026-01-22 23:03:28.52	176.73	8.73	-50.7	-53.2	6.1	0.00e+00	0	44	104	19662897152	60	55789
2026-01-22 23:03:31.55	176.93	8.44	-50.7	-53.2	6.1	0.00e+00	0	44	104	19662897152	60	55825
2026-01-22 23:03:34.57	177.13	8.16	-50.7	-53.2	6.1	0.00e+00	0	44	104	19662897152	60	55832
2026-01-22 23:03:37.60	177.32	7.89	-50.7	-53.2	6.1	0.00e+00	0	44	104	19662897152	60	55839
2026-01-22 23:03:40.63	177.51	7.62	-50.6	-53.1	6.1	0.00e+00	0	44	104	19662897152	60	55462
2026-01-22 23:03:43.66	177.69	7.35	-50.5	-53.0	6.1	0.00e+00	0	44	104	19662897152	60	54823
2026-01-22 23:03:46.69	177.87	7.08	-50.6	-53.1	6.1	0.00e+00	0	44	104	19662897152	60	55206
2026-01-22 23:03:49.71	178.05	6.82	-50.6	-53.1	6.1	0.00e+00	0	44	104	19662897152	60	55341
2026-01-22 23:03:52.74	178.22	6.56	-50.4	-52.9	6.1	0.00e+00	0	44	104	19662897152	60	54213
2026-01-22 23:03:55.77	178.39	6.31	-50.6	-53.1	6.1	0.00e+00	0	44	104	19662897152	60	55346
2026-01-22 23:03:58.80	178.56	6.05	-50.5	-53.0	6.1	0.00e+00	0	44	104	19662897152	60	54745
2026-01-22 23:04:01.82	178.72	5.81	-50.5	-53.0	6.1	0.00e+00	0	44	104	19662897152	60	54593
2026-01-22 23:04:04.85	178.88	5.56	-50.4	-52.9	6.1	0.00e+00	0	44	104	19662897152	60	54365
2026-01-22 23:04:07.88	179.04	5.32	-50.5	-53.0	6.1	0.00e+00	0	44	104	19662897152	60	54458
2026-01-22 23:04:10.91	179.19	5.08	-50.4	-52.8	6.1	0.00e+00	0	44	104	19662897152	60	53633
2026-01-22 23:04:13.94	179.34	4.84	-50.4	-52.9	6.1	0.00e+00	0	44	104	19662897152	60	53888
2026-01-22 23:04:16.97	179.49	4.60	-50.4	-52.9	6.1	0.00e+00	0	44	104	19662897152	60	54126
2026-01-22 23:04:20.00	179.64	4.37	-50.3	-52.8	6.1	0.00e+00	0	44	104	19662897152	60	53692
2026-01-22 23:04:23.02	179.78	4.14	-50.4	-52.9	6.1	0.00e+00	0	44	104	19662897152	60	53885
2026-01-22 23:04:26.05	179.92	3.91	-50.5	-53.0	6.1	0.00e+00	0	44	104	19662897152	60	54660
2026-01-22 23:04:29.08	180.06	3.69	-50.3	-52.8	6.1	0.00e+00	0	44	104	19662897152	60	53439
2026-01-22 23:04:32.11	180.19	3.47	-50.4	-52.9	6.1	0.00e+00	0	44	104	19662897152	60	54294
2026-01-22 23:04:35.14	180.33	3.25	-50.0	-52.5	6.1	0.00e+00	0	44	104	19662897152	60	51720
2026-01-22 23:04:38.16	180.46	3.03	-50.0	-52.5	6.0	0.00e+00	0	44	104	19662897152	60	51759
2026-01-22 23:04:41.19	180.58	2.81	-50.5	-53.1	6.1	0.00e+00	0	44	104	19662897152	60	55128
2026-01-22 23:04:44.22	180.71	2.60	-51.1	-53.6	6.1	0.00e+00	0	44	104	19662897152	60	58300
2026-01-22 23:04:47.25	180.83	2.39	-51.2	-53.8	6.1	0.00e+00	0	44	104	19662897152	60	59703
2026-01-22 23:04:50.29	180.96	2.17	-51.2	-53.7	6.1	0.00e+00	0	44	104	19662897152	60	59529
2026-01-22 23:04:53.32	181.08	1.97	-51.5	-54.0	6.1	0.00e+00	0	44	104	19662897152	60	61454
2026-01-22 23:04:56.35	181.19	1.76	-51.5	-54.0	6.1	0.00e+00	0	44	104	19662897152	60	61037
2026-01-22 23:04:59.38	181.31	1.56	-51.5	-54.0	6.1	0.00e+00	0	44	104	19662897152	60	61329
2026-01-22 23:05:02.41	181.42	1.35	-51.6	-54.1	6.1	0.00e+00	0	44	104	19662897152	60	61857
2026-01-22 23:05:05.44	181.54	1.15	-51.5	-54.0	6.1	0.00e+00	0	44	104	19662897152	60	61572
2026-01-22 23:05:08.47	181.65	0.95	-51.5	-54.0	6.1	0.00e+00	0	44	104	19662897152	60	61253
2026-01-22 23:05:11.50	181.76	0.76	-51.5	-54.0	6.1	0.00e+00	0	44	104	19662897152	60	61406
2026-01-22 23:05:14.53	181.86	0.56	-51.5	-54.0	6.1	0.00e+00	0	44	104	19662897152	60	61384
2026-01-22 23:05:17.55	181.97	0.37	-51.5	-54.1	6.1	0.00e+00	0	44	104	19662897152	60	61786
2026-01-22 23:05:20.58	182.07	0.17	-51.5	-54.0	6.1	0.00e+00	0	44	104	19662897152	60	61369
2026-01-22 23:05:23.61	182.18	-0.02	-51.5	-54.0	6.1	0.00e+00	0	44	104	19662897152	60	61466

#Closed at: 2026-01-22 23:05:24
#Recorded file [19662 MB]: D:/lorett/data/35029_260123_105423.dat