passes_logs/2026/01/22/R4.6S_Anadyr/R4.6S_Anadyr__20260122_152359_NOAA_21_JPSS-2_rec.log

#Pass ID: 20260122_152359_NOAA 21 (JPSS-2)
#Satellite: NOAA 21 (JPSS-2)
#Configuration: NOAA-21
#almurnet v.1.7.20251203
#Start time: 2026-01-22 15:24:00

#Version: 2.2.20231116
#Station: R4.6S_Anadyr
#Location: 177.4865 lon 64.73178 lat
#TLE: 1 54234U 22150A   26021.42686626  .00000211  00000+0  12107-3 0  9996
#TLE: 2 54234  98.7506 322.2490 0000636 241.9299 118.1812 14.19537149165725

#Time	Az	El	Level	Level2	SNR	BER	BlckErr	Temp	State	Recorded	gain1	gain2
2026-01-22 15:24:00.49	22.17	0.04	-51.7	-69.4	3.5	3.02e+01	0	38	0	0	60	113298
2026-01-22 15:24:04.53	22.11	0.28	-51.4	-64.3	3.5	1.52e+00	0	40	104	0	60	57391
2026-01-22 15:24:08.57	22.06	0.53	-51.3	-64.1	3.5	1.52e+00	0	40	104	0	60	56454
2026-01-22 15:24:12.61	22.00	0.77	-51.1	-64.0	3.5	1.52e+00	0	40	104	0	60	55557
2026-01-22 15:24:16.64	21.93	1.02	-50.9	-63.7	3.5	1.52e+00	0	40	104	0	60	54010
2026-01-22 15:24:20.69	21.87	1.26	-50.4	-63.3	3.5	1.52e+00	0	40	104	0	60	51162
2026-01-22 15:24:24.72	21.81	1.51	-49.7	-62.6	3.5	1.52e+00	0	40	104	0	60	47269
2026-01-22 15:24:28.76	21.74	1.77	-49.6	-62.0	3.5	1.52e+00	0	40	104	0	60	44389
2026-01-22 15:24:32.80	21.67	2.02	-49.6	-62.4	3.5	1.52e+00	0	40	104	0	60	46138
2026-01-22 15:24:36.84	21.61	2.28	-49.7	-62.4	3.5	1.52e+00	0	40	104	0	60	46509
2026-01-22 15:24:40.88	21.54	2.54	-49.6	-61.9	3.5	1.52e+00	0	40	104	0	60	43449
2026-01-22 15:24:44.93	21.46	2.80	-49.5	-61.4	3.5	1.51e+00	0	41	104	0	60	41328
2026-01-22 15:24:48.97	21.39	3.06	-49.6	-62.5	3.5	1.52e+00	0	41	104	0	60	46680
2026-01-22 15:24:53.00	21.32	3.33	-49.1	-57.5	4.6	1.28e+00	123	41	104	0	60	26347
2026-01-22 15:24:57.04	21.24	3.60	-48.4	-53.8	6.9	1.29e-01	123	41	0	7340032	60	17170
2026-01-22 15:25:01.08	21.16	3.87	-49.6	-62.4	3.5	1.49e+00	0	41	104	11534336	60	46134
2026-01-22 15:25:05.12	21.08	4.14	-41.3	-42.6	19.3	0.00e+00	120	41	0	12582912	56	5959
2026-01-22 15:25:09.15	21.00	4.42	-40.2	-41.4	20.3	0.00e+00	123	41	0	25165824	54	5836
2026-01-22 15:25:13.19	20.92	4.70	-40.5	-41.7	20.0	0.00e+00	123	41	0	37748736	54	6028
2026-01-22 15:25:17.23	20.83	4.98	-39.9	-41.1	20.5	0.00e+00	122	41	0	50331648	52	6321
2026-01-22 15:25:21.27	20.74	5.27	-39.8	-40.9	20.8	0.00e+00	123	41	0	62914560	52	6192
2026-01-22 15:25:25.31	20.65	5.56	-39.5	-40.6	21.1	0.00e+00	123	41	0	75497472	52	5960
2026-01-22 15:25:29.34	20.56	5.85	-39.9	-41.1	20.6	0.00e+00	122	41	0	88080384	52	6289
2026-01-22 15:25:33.38	20.47	6.14	-39.7	-40.8	21.0	0.00e+00	122	41	0	100663296	52	6078
2026-01-22 15:25:37.42	20.37	6.44	-39.6	-40.7	21.0	0.00e+00	122	41	0	113246208	52	6045
2026-01-22 15:25:41.45	20.27	6.74	-39.4	-40.4	21.3	0.00e+00	123	41	0	125829120	52	5855
2026-01-22 15:25:45.50	20.17	7.05	-39.1	-40.2	21.6	0.00e+00	122	41	0	138412032	52	5676
2026-01-22 15:25:49.54	20.06	7.36	-39.1	-40.2	21.6	0.00e+00	123	41	0	150994944	52	5683
2026-01-22 15:25:53.58	19.96	7.67	-38.9	-40.0	21.9	0.00e+00	123	41	0	163577856	52	5549
2026-01-22 15:25:57.61	19.85	7.98	-38.7	-39.8	22.0	0.00e+00	121	41	0	176160768	50	6079
2026-01-22 15:26:01.65	19.74	8.30	-38.7	-39.7	22.1	0.00e+00	122	41	0	188743680	50	6061
2026-01-22 15:26:05.68	19.62	8.63	-38.6	-39.6	22.2	0.00e+00	123	41	0	201326592	50	5973
2026-01-22 15:26:09.72	19.50	8.95	-38.5	-39.5	22.3	0.00e+00	122	41	0	213909504	50	5872
2026-01-22 15:26:13.77	19.38	9.29	-38.3	-39.3	22.6	0.00e+00	120	41	0	226492416	50	5751
2026-01-22 15:26:17.81	19.26	9.62	-38.3	-39.3	22.6	0.00e+00	122	41	0	239075328	50	5748
2026-01-22 15:26:21.84	19.13	9.96	-38.1	-39.1	22.8	0.00e+00	123	41	0	251658240	50	5607
2026-01-22 15:26:25.88	19.00	10.31	-37.9	-38.9	22.9	0.00e+00	122	41	0	264241152	50	5470
2026-01-22 15:26:29.92	18.87	10.66	-37.8	-38.7	23.0	0.00e+00	123	41	0	277872640	48	6038
2026-01-22 15:26:33.96	18.73	11.01	-38.2	-39.2	22.7	0.00e+00	122	41	0	290455552	48	6384
2026-01-22 15:26:37.99	18.59	11.37	-37.9	-38.8	23.1	0.00e+00	123	41	0	303038464	48	6131
2026-01-22 15:26:42.02	18.44	11.74	-37.5	-38.4	23.4	0.00e+00	123	41	0	315621376	48	5837
2026-01-22 15:26:46.06	18.29	12.11	-37.4	-38.4	23.5	0.00e+00	123	41	0	328204288	48	5796
2026-01-22 15:26:50.10	18.14	12.48	-37.6	-38.5	23.3	0.00e+00	121	41	0	340787200	48	5895
2026-01-22 15:26:54.13	17.98	12.86	-37.2	-38.1	23.6	0.00e+00	122	41	0	353370112	48	5638
2026-01-22 15:26:58.17	17.82	13.25	-37.1	-38.1	23.8	0.00e+00	121	41	0	365953024	48	5609
2026-01-22 15:27:02.21	17.65	13.65	-37.2	-38.2	23.7	0.00e+00	122	41	0	378535936	48	5677
2026-01-22 15:27:06.25	17.48	14.05	-37.2	-38.1	23.7	0.00e+00	122	41	0	391118848	48	5659
2026-01-22 15:27:10.28	17.30	14.45	-37.7	-38.6	23.4	0.00e+00	122	41	0	403701760	48	5964
2026-01-22 15:27:14.32	17.12	14.86	-37.2	-38.2	23.7	0.00e+00	123	41	0	416284672	48	5660
2026-01-22 15:27:18.36	16.93	15.28	-37.3	-38.2	23.6	0.00e+00	123	41	0	428867584	48	5708
2026-01-22 15:27:22.40	16.73	15.71	-37.5	-38.4	23.5	0.00e+00	120	41	0	441450496	48	5829
2026-01-22 15:27:26.44	16.53	16.14	-37.8	-38.8	23.2	0.00e+00	120	41	0	454033408	48	6068
2026-01-22 15:27:30.47	16.32	16.58	-38.0	-39.0	23.1	0.00e+00	121	41	0	466616320	48	6247
2026-01-22 15:27:34.51	16.11	17.03	-38.0	-39.0	23.3	0.00e+00	120	41	0	479199232	48	6206
2026-01-22 15:27:38.55	15.89	17.49	-37.3	-38.2	23.8	0.00e+00	122	41	0	491782144	48	5707
2026-01-22 15:27:42.58	15.66	17.95	-37.4	-38.4	23.7	0.00e+00	122	41	0	504365056	48	5804
2026-01-22 15:27:46.62	15.42	18.42	-37.6	-38.5	23.5	0.00e+00	123	41	0	516947968	48	5898
2026-01-22 15:27:50.67	15.18	18.91	-37.4	-38.4	23.6	0.00e+00	122	41	0	529530880	48	5803
2026-01-22 15:27:54.70	14.93	19.40	-37.3	-38.3	23.6	0.00e+00	120	41	0	542113792	48	5732
2026-01-22 15:27:58.73	14.66	19.89	-37.5	-38.5	23.4	0.00e+00	122	41	0	554696704	48	5894
2026-01-22 15:28:02.77	14.39	20.40	-37.1	-38.0	23.8	0.00e+00	123	41	0	567279616	48	5575
2026-01-22 15:28:06.81	14.11	20.92	-36.8	-37.8	24.1	0.00e+00	123	41	0	579862528	48	5414
2026-01-22 15:28:10.85	13.82	21.45	-37.0	-37.9	23.9	0.00e+00	120	42	0	592445440	46	6172
2026-01-22 15:28:14.89	13.52	21.99	-36.5	-37.4	24.4	0.00e+00	122	42	0	605028352	46	5854
2026-01-22 15:28:18.93	13.21	22.54	-36.4	-37.3	24.5	0.00e+00	123	41	0	617611264	46	5726
2026-01-22 15:28:22.97	12.88	23.11	-36.0	-36.8	24.8	0.00e+00	120	41	0	630194176	46	5453
2026-01-22 15:28:27.00	12.55	23.68	-36.0	-36.9	24.7	0.00e+00	122	42	0	642777088	46	5468
2026-01-22 15:28:31.04	12.19	24.26	-36.0	-36.9	24.8	0.00e+00	123	41	0	655360000	46	5490
2026-01-22 15:28:35.08	11.83	24.86	-36.3	-37.2	24.7	0.00e+00	120	41	0	667942912	46	5688
2026-01-22 15:28:39.12	11.45	25.47	-36.5	-37.4	24.5	0.00e+00	122	42	0	681574400	46	5821
2026-01-22 15:28:43.16	11.06	26.09	-36.9	-37.8	24.1	0.00e+00	122	42	0	694157312	46	6095
2026-01-22 15:28:47.19	10.64	26.72	-37.2	-38.1	23.9	0.00e+00	122	42	0	706740224	46	6322
2026-01-22 15:28:51.24	10.21	27.37	-37.5	-38.4	23.7	0.00e+00	122	42	0	719323136	46	6559
2026-01-22 15:28:55.28	9.77	28.04	-37.5	-38.4	23.8	0.00e+00	123	42	0	731906048	46	6518
2026-01-22 15:28:59.31	9.30	28.71	-37.6	-38.5	23.6	0.00e+00	123	42	0	744488960	46	6604
2026-01-22 15:29:03.35	8.81	29.40	-37.5	-38.4	23.7	0.00e+00	120	42	0	757071872	48	5852
2026-01-22 15:29:07.39	8.30	30.11	-37.7	-38.6	23.6	0.00e+00	123	42	0	769654784	48	5973
2026-01-22 15:29:11.43	7.77	30.83	-36.7	-37.6	24.5	0.00e+00	123	42	0	782237696	48	5293
2026-01-22 15:29:15.46	7.21	31.56	-36.4	-37.3	24.8	0.00e+00	123	41	0	794820608	46	5771
2026-01-22 15:29:19.50	6.62	32.32	-37.1	-38.0	24.2	0.00e+00	122	41	0	807403520	46	6252
2026-01-22 15:29:23.54	6.00	33.08	-37.2	-38.1	24.1	0.00e+00	123	42	0	819986432	46	6294
2026-01-22 15:29:27.58	5.36	33.87	-37.3	-38.2	24.1	0.00e+00	122	42	0	832569344	46	6400
2026-01-22 15:29:31.62	4.68	34.67	-37.9	-38.9	23.5	0.00e+00	123	42	0	845152256	48	6139
2026-01-22 15:29:35.66	3.96	35.48	-39.1	-40.1	22.6	0.00e+00	122	42	0	857735168	50	6284
2026-01-22 15:29:39.70	3.21	36.31	-39.4	-40.4	22.2	0.00e+00	122	42	0	870318080	50	6562
2026-01-22 15:29:43.74	2.42	37.16	-39.1	-40.1	22.7	0.00e+00	122	42	0	882900992	50	6333
2026-01-22 15:29:47.78	1.58	38.02	-39.2	-40.2	22.4	0.00e+00	123	42	0	895483904	50	6407
2026-01-22 15:29:51.82	0.70	38.90	-39.0	-40.1	22.6	0.00e+00	122	42	0	908066816	50	6283
2026-01-22 15:29:55.86	359.77	39.79	-39.3	-40.3	22.5	0.00e+00	123	42	0	920649728	50	6498
2026-01-22 15:29:59.90	358.78	40.70	-38.4	-39.3	23.2	0.00e+00	123	42	0	933232640	50	5767
2026-01-22 15:30:03.94	357.74	41.61	-38.9	-39.9	22.5	0.00e+00	122	42	0	945815552	50	6156
2026-01-22 15:30:07.98	356.63	42.54	-39.8	-40.8	22.0	0.00e+00	123	42	0	958398464	52	6129
2026-01-22 15:30:12.02	355.45	43.48	-40.4	-41.4	21.4	0.00e+00	123	42	0	970981376	52	6569
2026-01-22 15:30:16.06	354.21	44.43	-40.0	-41.1	21.8	0.00e+00	123	42	0	984612864	52	6310
2026-01-22 15:30:20.10	352.88	45.39	-39.2	-40.2	22.6	0.00e+00	120	42	0	996147200	52	5667
2026-01-22 15:30:24.14	351.47	46.35	-39.2	-40.2	22.6	0.00e+00	122	42	0	1008730112	52	5665
2026-01-22 15:30:28.18	349.98	47.32	-39.2	-40.2	22.3	0.00e+00	123	42	0	1022361600	52	5699
2026-01-22 15:30:32.22	348.38	48.28	-39.2	-40.2	22.3	0.00e+00	122	42	0	1034944512	52	5690
2026-01-22 15:30:36.26	346.68	49.24	-39.8	-40.8	21.7	0.00e+00	123	42	0	1047527424	52	6112
2026-01-22 15:30:40.30	344.88	50.19	-39.1	-40.1	22.3	0.00e+00	123	42	0	1060110336	52	5600
2026-01-22 15:30:44.33	342.96	51.12	-39.3	-40.3	22.4	0.00e+00	122	42	0	1072693248	52	5748
2026-01-22 15:30:48.37	340.91	52.04	-38.5	-39.5	23.1	0.00e+00	120	42	0	1085276160	50	5871
2026-01-22 15:30:52.40	338.74	52.93	-39.3	-40.3	22.3	0.00e+00	120	42	0	1097859072	50	6482
2026-01-22 15:30:56.44	336.42	53.80	-37.9	-38.9	23.0	0.00e+00	123	42	0	1110441984	50	5473
2026-01-22 15:31:00.48	333.97	54.63	-38.7	-39.7	22.9	0.00e+00	122	42	0	1123024896	50	6022
2026-01-22 15:31:04.52	331.37	55.41	-38.1	-39.1	23.3	0.00e+00	122	42	0	1135607808	50	5638
2026-01-22 15:31:08.56	328.62	56.15	-37.6	-38.5	23.9	0.00e+00	122	42	0	1148190720	48	5920
2026-01-22 15:31:12.60	325.73	56.83	-36.7	-37.5	24.6	0.00e+00	123	42	0	1160773632	46	5924
2026-01-22 15:31:16.63	322.72	57.44	-36.7	-37.5	24.5	0.00e+00	122	42	0	1173356544	46	5923
2026-01-22 15:31:20.67	319.56	57.97	-36.5	-37.4	24.5	0.00e+00	123	42	0	1185939456	46	5809
2026-01-22 15:31:24.72	316.27	58.43	-36.8	-37.7	24.4	0.00e+00	120	42	0	1198522368	46	6046
2026-01-22 15:31:28.76	312.89	58.80	-37.2	-38.2	24.2	0.00e+00	120	42	0	1211105280	46	6359
2026-01-22 15:31:32.79	309.43	59.07	-36.8	-37.8	24.2	0.00e+00	122	42	0	1223688192	46	6065
2026-01-22 15:31:36.83	305.91	59.25	-37.1	-38.0	24.2	0.00e+00	123	42	0	1236271104	46	6264
2026-01-22 15:31:40.87	302.34	59.32	-36.7	-37.6	24.6	0.00e+00	122	42	0	1248854016	46	5965
2026-01-22 15:31:44.91	298.78	59.30	-36.0	-36.9	24.9	0.00e+00	123	42	0	1261436928	46	5501
2026-01-22 15:31:48.95	295.23	59.17	-36.5	-37.4	24.6	0.00e+00	123	42	0	1274019840	46	5839
2026-01-22 15:31:52.99	291.73	58.95	-37.3	-38.2	24.0	0.00e+00	123	42	0	1286602752	46	6392
2026-01-22 15:31:57.03	288.30	58.63	-36.7	-37.6	24.4	0.00e+00	122	42	0	1299185664	46	5937
2026-01-22 15:32:01.06	284.97	58.21	-37.3	-38.2	23.9	0.00e+00	123	42	0	1311768576	46	6409
2026-01-22 15:32:05.10	281.75	57.72	-37.4	-38.4	23.8	0.00e+00	123	42	0	1324351488	46	6503
2026-01-22 15:32:09.14	278.65	57.14	-36.8	-37.7	24.4	0.00e+00	122	42	0	1336934400	46	6042
2026-01-22 15:32:13.17	275.69	56.50	-37.5	-38.5	23.8	0.00e+00	122	42	0	1349517312	46	6583
2026-01-22 15:32:17.21	272.87	55.79	-37.6	-38.6	23.8	0.00e+00	123	42	0	1363148800	46	6655
2026-01-22 15:32:21.25	270.19	55.03	-37.2	-38.1	24.1	0.00e+00	123	42	0	1374683136	48	5622
2026-01-22 15:32:25.29	267.66	54.22	-38.5	-39.5	23.0	0.00e+00	122	42	0	1388314624	48	6623
2026-01-22 15:32:29.33	265.27	53.37	-38.8	-39.8	22.8	0.00e+00	123	42	0	1400897536	50	6084
2026-01-22 15:32:33.37	263.02	52.49	-38.5	-39.5	23.1	0.00e+00	123	42	0	1413480448	50	5889
2026-01-22 15:32:37.41	260.90	51.58	-37.7	-38.6	23.8	0.00e+00	123	42	0	1426063360	48	5974
2026-01-22 15:32:41.45	258.91	50.64	-41.0	-42.3	20.0	0.00e+00	123	42	0	1438646272	54	6472
2026-01-22 15:32:45.49	257.04	49.70	-38.8	-39.8	22.7	0.00e+00	123	42	0	1451229184	50	6105
2026-01-22 15:32:49.52	255.29	48.74	-42.0	-43.4	19.7	0.00e+00	122	42	0	1463812096	56	6543
2026-01-22 15:32:53.57	253.64	47.78	-38.2	-39.2	23.4	0.00e+00	122	42	0	1476395008	50	5677
2026-01-22 15:32:57.61	252.09	46.81	-39.8	-40.8	22.0	0.00e+00	122	42	0	1488977920	50	6880
2026-01-22 15:33:01.64	250.64	45.85	-39.6	-40.7	21.5	0.00e+00	123	42	0	1501560832	52	6047
2026-01-22 15:33:05.68	249.27	44.88	-39.0	-40.0	22.6	0.00e+00	122	42	0	1514143744	50	6248
2026-01-22 15:33:09.72	247.98	43.93	-39.8	-40.9	21.7	0.00e+00	122	42	0	1526726656	50	6888
2026-01-22 15:33:13.76	246.77	42.98	-38.8	-39.8	22.8	0.00e+00	123	42	0	1539309568	52	5415
2026-01-22 15:33:17.79	245.63	42.04	-41.0	-42.2	20.7	0.00e+00	122	42	0	1551892480	54	6381
2026-01-22 15:33:21.83	244.55	41.11	-40.4	-41.6	20.9	0.00e+00	123	42	0	1564475392	54	5932
2026-01-22 15:33:25.87	243.53	40.20	-40.0	-41.1	21.8	0.00e+00	121	42	0	1577058304	52	6313
2026-01-22 15:33:29.91	242.57	39.30	-39.9	-41.0	21.9	0.00e+00	123	42	0	1589641216	52	6233
2026-01-22 15:33:33.95	241.66	38.41	-40.1	-41.2	21.2	0.00e+00	121	42	0	1602224128	52	6378
2026-01-22 15:33:37.99	240.80	37.53	-38.6	-39.6	23.0	0.00e+00	123	42	0	1614807040	50	5939
2026-01-22 15:33:42.03	239.98	36.68	-39.3	-40.3	22.4	0.00e+00	123	42	0	1627389952	50	6496
2026-01-22 15:33:46.07	239.21	35.84	-38.4	-39.4	23.1	0.00e+00	122	42	0	1639972864	50	5797
2026-01-22 15:33:50.12	238.47	35.01	-38.0	-39.0	23.5	0.00e+00	123	42	0	1652555776	50	5532
2026-01-22 15:33:54.16	237.77	34.20	-37.5	-38.4	23.7	0.00e+00	123	42	0	1665138688	48	5822
2026-01-22 15:33:58.20	237.11	33.40	-37.7	-38.7	23.6	0.00e+00	123	42	0	1677721600	48	6014
2026-01-22 15:34:02.24	236.47	32.63	-37.0	-37.9	24.0	0.00e+00	123	42	0	1690304512	48	5512
2026-01-22 15:34:06.27	235.87	31.87	-37.4	-38.3	24.0	0.00e+00	123	42	0	1703936000	48	5735
2026-01-22 15:34:10.31	235.30	31.12	-37.7	-38.6	23.8	0.00e+00	123	42	0	1716518912	48	5962
2026-01-22 15:34:14.34	234.75	30.39	-37.3	-38.3	23.8	0.00e+00	123	42	0	1729101824	48	5734
2026-01-22 15:34:18.38	234.22	29.67	-37.6	-38.5	23.3	0.00e+00	123	42	0	1741684736	48	5911
2026-01-22 15:34:22.42	233.72	28.97	-37.3	-38.2	23.8	0.00e+00	123	42	0	1754267648	48	5697
2026-01-22 15:34:26.45	233.24	28.29	-37.3	-38.2	24.0	0.00e+00	123	42	0	1766850560	48	5696
2026-01-22 15:34:30.49	232.78	27.62	-36.9	-37.8	24.3	0.00e+00	123	42	0	1779433472	48	5441
2026-01-22 15:34:34.53	232.34	26.96	-36.6	-37.5	24.5	0.00e+00	122	42	0	1792016384	46	5888
2026-01-22 15:34:38.57	231.92	26.31	-36.6	-37.5	24.5	0.00e+00	123	42	0	1804599296	46	5890
2026-01-22 15:34:42.61	231.51	25.68	-37.0	-37.9	24.3	0.00e+00	123	42	0	1817182208	46	6189
2026-01-22 15:34:46.65	231.12	25.07	-37.2	-38.1	24.2	0.00e+00	121	42	0	1829765120	46	6278
2026-01-22 15:34:50.68	230.75	24.46	-36.8	-37.7	24.3	0.00e+00	122	42	0	1842348032	46	6038
2026-01-22 15:34:54.72	230.39	23.87	-36.8	-37.7	24.3	0.00e+00	123	42	0	1854930944	46	6008
2026-01-22 15:34:58.76	230.05	23.29	-36.4	-37.3	24.5	0.00e+00	122	42	0	1867513856	46	5765
2026-01-22 15:35:02.79	229.71	22.72	-36.9	-37.8	24.2	0.00e+00	120	42	0	1880096768	46	6105
2026-01-22 15:35:06.83	229.39	22.16	-36.9	-37.9	24.3	0.00e+00	123	42	0	1892679680	46	6139
2026-01-22 15:35:10.87	229.08	21.62	-36.9	-37.8	24.3	0.00e+00	123	42	0	1905262592	46	6124
2026-01-22 15:35:14.91	228.78	21.08	-36.9	-37.8	24.4	0.00e+00	123	42	0	1917845504	46	6076
2026-01-22 15:35:18.94	228.50	20.55	-36.8	-37.7	24.4	0.00e+00	123	42	0	1930428416	46	6032
2026-01-22 15:35:22.98	228.22	20.04	-36.8	-37.7	24.3	0.00e+00	123	42	0	1943011328	46	6036
2026-01-22 15:35:27.03	227.95	19.53	-37.0	-37.9	24.0	0.00e+00	122	42	0	1955594240	46	6160
2026-01-22 15:35:31.07	227.69	19.03	-36.9	-37.8	23.8	0.00e+00	123	42	0	1968177152	46	6126
2026-01-22 15:35:35.10	227.44	18.55	-37.0	-37.9	23.9	0.00e+00	120	42	0	1980760064	46	6149
2026-01-22 15:35:39.14	227.20	18.07	-36.9	-37.8	24.0	0.00e+00	122	41	0	1993342976	46	6103
2026-01-22 15:35:43.18	226.96	17.60	-36.9	-37.9	24.0	0.00e+00	122	41	0	2005925888	46	6146
2026-01-22 15:35:47.22	226.73	17.14	-37.2	-38.1	23.9	0.00e+00	123	42	0	2018508800	46	6296
2026-01-22 15:35:51.26	226.51	16.68	-37.1	-38.0	24.0	0.00e+00	123	42	0	2031091712	46	6239
2026-01-22 15:35:55.29	226.30	16.24	-37.6	-38.5	23.8	0.00e+00	123	42	0	2043674624	46	6594
2026-01-22 15:35:59.33	226.10	15.80	-37.5	-38.5	23.7	0.00e+00	122	42	0	2056257536	48	5878
2026-01-22 15:36:03.37	225.89	15.37	-37.6	-38.5	23.6	0.00e+00	123	41	0	2069889024	48	5924
2026-01-22 15:36:07.41	225.70	14.95	-37.5	-38.5	23.6	0.00e+00	122	41	0	2082471936	48	5861
2026-01-22 15:36:11.45	225.51	14.53	-37.6	-38.5	23.5	0.00e+00	120	41	0	2095054848	48	5924
2026-01-22 15:36:15.49	225.33	14.12	-37.7	-38.6	23.5	0.00e+00	122	42	0	2107637760	48	5991
2026-01-22 15:36:19.52	225.15	13.72	-37.6	-38.5	23.5	0.00e+00	123	41	0	2120220672	48	5883
2026-01-22 15:36:23.56	224.98	13.32	-37.5	-38.5	23.5	0.00e+00	122	41	0	2132803584	48	5870
2026-01-22 15:36:27.61	224.81	12.93	-37.9	-38.9	23.3	0.00e+00	123	41	0	2145386496	48	6138
2026-01-22 15:36:31.60	224.65	12.54	-37.7	-38.7	23.3	0.00e+00	120	41	0	2157969408	48	6018
2026-01-22 15:36:35.64	224.49	12.16	-38.1	-39.1	23.1	0.00e+00	122	41	0	2170552320	48	6304
2026-01-22 15:36:39.68	224.33	11.79	-37.9	-38.9	23.2	0.00e+00	122	41	0	2183135232	48	6140
2026-01-22 15:36:43.72	224.18	11.42	-38.1	-39.1	23.0	0.00e+00	122	41	0	2195718144	48	6286
2026-01-22 15:36:47.76	224.04	11.06	-38.1	-39.1	23.0	0.00e+00	123	41	0	2208301056	48	6305
2026-01-22 15:36:51.79	223.89	10.70	-38.4	-39.3	22.7	0.00e+00	123	41	0	2220883968	48	6494
2026-01-22 15:36:55.84	223.75	10.35	-38.5	-39.5	22.6	0.00e+00	122	41	0	2233466880	48	6583
2026-01-22 15:36:59.88	223.62	10.00	-38.6	-39.6	22.6	0.00e+00	123	41	0	2247098368	50	5953
2026-01-22 15:37:03.91	223.49	9.66	-38.9	-39.9	22.3	0.00e+00	123	41	0	2258632704	50	6144
2026-01-22 15:37:07.95	223.36	9.32	-38.8	-39.8	22.3	0.00e+00	123	42	0	2271215616	50	6078
2026-01-22 15:37:11.99	223.23	8.98	-39.1	-40.1	22.0	0.00e+00	123	42	0	2284847104	50	6304
2026-01-22 15:37:16.03	223.11	8.65	-39.2	-40.3	21.8	0.00e+00	123	42	0	2297430016	50	6424
2026-01-22 15:37:20.06	222.99	8.32	-39.4	-40.5	21.6	0.00e+00	122	41	0	2310012928	50	6617
2026-01-22 15:37:24.09	222.88	8.00	-39.7	-40.8	21.5	0.00e+00	122	41	0	2322595840	52	6077
2026-01-22 15:37:28.13	222.76	7.68	-40.0	-41.0	21.2	0.00e+00	123	42	0	2335178752	52	6273
2026-01-22 15:37:32.16	222.65	7.37	-40.2	-41.4	20.9	0.00e+00	123	42	0	2347761664	52	6517
2026-01-22 15:37:36.21	222.54	7.06	-40.2	-41.3	20.9	0.00e+00	120	41	0	2360344576	52	6483
2026-01-22 15:37:40.25	222.44	6.75	-40.9	-42.1	20.0	0.00e+00	123	42	0	2372927488	54	6307
2026-01-22 15:37:44.28	222.33	6.45	-40.7	-41.9	20.2	0.00e+00	122	41	0	2385510400	54	6150
2026-01-22 15:37:48.32	222.23	6.15	-40.7	-41.9	20.0	0.00e+00	123	41	0	2398093312	54	6163
2026-01-22 15:37:52.36	222.13	5.85	-41.0	-42.3	19.5	0.00e+00	120	42	0	2410676224	54	6474
2026-01-22 15:37:56.40	222.04	5.56	-41.5	-42.8	18.8	0.00e+00	120	42	0	2423259136	54	6866
2026-01-22 15:38:00.44	221.94	5.27	-41.4	-42.7	19.2	0.00e+00	122	42	0	2435842048	56	6013
2026-01-22 15:38:04.48	221.85	4.98	-41.7	-43.0	18.9	0.00e+00	120	42	0	2448424960	56	6270
2026-01-22 15:38:08.52	221.76	4.69	-41.8	-43.2	18.6	0.00e+00	123	42	0	2461007872	56	6395
2026-01-22 15:38:12.55	221.67	4.41	-41.9	-43.3	18.5	0.00e+00	122	42	0	2473590784	56	6466
2026-01-22 15:38:16.59	221.59	4.13	-42.1	-43.6	18.2	0.00e+00	122	42	0	2486173696	56	6677
2026-01-22 15:38:20.63	221.50	3.86	-42.1	-43.6	18.2	0.00e+00	123	42	0	2498756608	56	6664
2026-01-22 15:38:24.67	221.42	3.58	-42.2	-43.8	17.8	0.00e+00	123	41	0	2511339520	56	6814
2026-01-22 15:38:28.71	221.34	3.31	-42.9	-44.6	17.0	0.00e+00	123	42	0	2523922432	56	7467
2026-01-22 15:38:32.75	221.26	3.05	-42.8	-44.4	17.0	0.00e+00	123	42	0	2536505344	56	7358
2026-01-22 15:38:36.79	221.18	2.78	-50.8	-63.6	3.5	1.51e+00	0	42	104	2538602496	60	53190
2026-01-22 15:38:40.83	221.11	2.52	-51.2	-64.1	3.5	1.52e+00	0	42	104	2538602496	60	56223
2026-01-22 15:38:44.87	221.03	2.26	-51.3	-64.2	3.5	1.52e+00	0	42	104	2538602496	60	56795
2026-01-22 15:38:48.91	220.96	2.00	-51.2	-64.1	3.5	1.51e+00	0	42	104	2538602496	60	56220
2026-01-22 15:38:52.95	220.89	1.74	-51.1	-64.0	3.5	1.52e+00	0	42	104	2538602496	60	55694
2026-01-22 15:38:56.99	220.82	1.49	-51.2	-64.1	3.5	1.52e+00	0	42	104	2538602496	60	56548
2026-01-22 15:39:01.03	220.75	1.24	-51.3	-64.2	3.5	1.52e+00	0	42	104	2538602496	60	56820
2026-01-22 15:39:05.07	220.68	0.99	-51.3	-64.1	3.5	1.52e+00	0	42	104	2538602496	60	56415
2026-01-22 15:39:09.12	220.61	0.74	-51.4	-64.2	3.5	1.52e+00	0	42	104	2538602496	60	57158
2026-01-22 15:39:13.16	220.55	0.49	-51.3	-64.2	3.5	1.52e+00	0	42	104	2538602496	60	56891
2026-01-22 15:39:17.19	220.49	0.25	-51.5	-64.3	3.5	1.51e+00	0	42	104	2538602496	60	57661
2026-01-22 15:39:21.24	220.42	0.01	-51.4	-64.3	3.5	1.52e+00	0	42	104	2538602496	60	57364

#Closed at: 2026-01-22 15:39:23
#Recorded file [2538 MB]: D:/lorett/data/35029_260123_032400.dat