passes_logs/2026/01/22/R4.6S_Anadyr/R4.6S_Anadyr__20260122_030548_FENGYUN_3D_rec.log

#Pass ID: 20260122_030548_FENGYUN 3D
#Satellite: FENGYUN 3D
#Configuration: FENGYUN 3D
#almurnet v.1.7.20251203
#Start time: 2026-01-22 03:05:51

#Version: 2.2.20231116
#Station: R4.6S_Anadyr
#Location: 177.4865 lon 64.73178 lat
#TLE: 1 43010U 17072A   26020.92362722 -.00000077  00000+0 -14488-4 0  9992
#TLE: 2 43010  98.9946 352.8312 0002486  99.3651 260.7806 14.19696535424099

#Time	Az	El	Level	Level2	SNR	BER	BlckErr	Temp	State	Recorded	gain1	gain2
2026-01-22 03:05:51.26	176.94	0.14	-51.8	-66.7	3.5	1.51e+00	0	38	0	0	60	78536
2026-01-22 03:05:55.29	177.05	0.38	-52.2	-64.4	3.6	8.46e-01	0	39	104	0	60	60310
2026-01-22 03:05:59.33	177.17	0.62	-51.9	-64.1	3.6	8.46e-01	0	40	104	0	60	57807
2026-01-22 03:06:03.37	177.29	0.86	-52.4	-64.5	3.6	8.45e-01	0	40	104	0	60	60907
2026-01-22 03:06:07.41	177.41	1.11	-51.4	-63.5	3.6	8.45e-01	0	40	104	0	60	53903
2026-01-22 03:06:11.45	177.53	1.35	-50.8	-63.0	3.6	8.46e-01	0	40	104	0	60	50926
2026-01-22 03:06:15.49	177.66	1.60	-50.1	-62.2	3.6	8.45e-01	0	40	104	0	60	46710
2026-01-22 03:06:19.53	177.79	1.85	-50.1	-62.1	3.6	8.45e-01	0	40	104	0	60	46173
2026-01-22 03:06:23.58	177.91	2.11	-50.0	-62.0	3.6	8.45e-01	0	40	104	0	60	45464
2026-01-22 03:06:27.61	178.04	2.36	-50.1	-62.1	3.6	8.46e-01	0	40	104	0	60	45806
2026-01-22 03:06:31.65	178.18	2.62	-50.1	-62.2	3.6	8.46e-01	0	40	104	0	60	46776
2026-01-22 03:06:35.69	178.31	2.88	-49.5	-59.0	3.9	8.43e-01	0	40	104	0	60	32031
2026-01-22 03:06:39.74	178.45	3.14	-49.6	-60.5	3.6	8.46e-01	0	40	104	0	60	38496
2026-01-22 03:06:43.78	178.59	3.40	-42.9	-44.3	16.6	0.00e+00	0	40	0	14680064	60	5911
2026-01-22 03:06:47.82	178.73	3.67	-39.9	-40.8	20.1	0.00e+00	0	40	0	37748736	52	6311
2026-01-22 03:06:51.86	178.88	3.94	-41.0	-42.1	18.1	0.00e+00	0	40	0	59768832	52	7294
2026-01-22 03:06:55.90	179.02	4.21	-38.9	-39.8	21.3	0.00e+00	0	40	0	75497472	52	5600
2026-01-22 03:06:59.94	179.17	4.48	-39.5	-40.3	21.0	0.00e+00	0	40	0	97517568	52	5963
2026-01-22 03:07:03.99	179.32	4.76	-38.6	-39.4	21.5	0.00e+00	0	40	0	120586240	50	6001
2026-01-22 03:07:08.03	179.48	5.04	-38.0	-38.8	22.1	0.00e+00	0	40	0	143654912	50	5588
2026-01-22 03:07:12.07	179.63	5.32	-37.6	-38.4	22.6	0.00e+00	0	40	0	165675008	48	5978
2026-01-22 03:07:16.11	179.79	5.61	-37.5	-38.3	22.9	0.00e+00	0	40	0	188743680	48	5922
2026-01-22 03:07:20.15	179.96	5.90	-37.6	-38.3	22.9	0.00e+00	0	40	0	211812352	48	5957
2026-01-22 03:07:24.19	180.12	6.19	-37.1	-37.9	23.4	0.00e+00	0	40	0	233832448	48	5648
2026-01-22 03:07:28.23	180.29	6.48	-37.5	-38.3	23.0	0.00e+00	0	40	0	256901120	48	5934
2026-01-22 03:07:32.27	180.46	6.78	-37.5	-38.3	22.9	0.00e+00	0	40	0	279969792	48	5942
2026-01-22 03:07:36.31	180.64	7.08	-37.4	-38.2	23.1	0.00e+00	0	40	0	301989888	48	5852
2026-01-22 03:07:40.35	180.82	7.38	-37.5	-38.2	23.0	0.00e+00	0	40	0	325058560	48	5895
2026-01-22 03:07:44.39	181.00	7.69	-37.1	-37.8	23.2	0.00e+00	0	40	0	348127232	48	5610
2026-01-22 03:07:48.43	181.18	8.00	-37.0	-37.8	23.4	0.00e+00	0	41	0	370147328	48	5581
2026-01-22 03:07:52.47	181.37	8.32	-36.7	-37.4	23.8	0.00e+00	0	41	0	393216000	46	5993
2026-01-22 03:07:56.51	181.57	8.64	-36.5	-37.2	23.8	0.00e+00	0	40	0	416284672	46	5879
2026-01-22 03:08:00.55	181.76	8.96	-36.4	-37.1	24.0	0.00e+00	0	41	0	438304768	46	5828
2026-01-22 03:08:04.59	181.97	9.29	-36.2	-36.9	24.2	0.00e+00	0	41	0	461373440	46	5672
2026-01-22 03:08:08.63	182.17	9.62	-36.1	-36.8	24.4	0.00e+00	0	41	0	484442112	46	5574
2026-01-22 03:08:12.66	182.38	9.95	-36.1	-36.8	24.5	0.00e+00	0	41	0	506462208	46	5568
2026-01-22 03:08:16.71	182.60	10.29	-36.0	-36.7	24.6	0.00e+00	0	41	0	529530880	46	5523
2026-01-22 03:08:20.75	182.82	10.63	-35.9	-36.6	24.6	0.00e+00	0	41	0	552599552	46	5490
2026-01-22 03:08:24.79	183.04	10.98	-36.0	-36.7	24.6	0.00e+00	0	41	0	574619648	46	5523
2026-01-22 03:08:28.83	183.27	11.33	-36.1	-36.8	24.6	0.00e+00	0	41	0	597688320	46	5583
2026-01-22 03:08:32.87	183.50	11.69	-36.0	-36.7	24.7	0.00e+00	0	41	0	620756992	46	5530
2026-01-22 03:08:36.91	183.74	12.05	-35.7	-36.4	24.8	0.00e+00	0	41	0	642777088	44	6021
2026-01-22 03:08:40.95	183.99	12.42	-35.6	-36.3	25.0	0.00e+00	0	41	0	665845760	44	5906
2026-01-22 03:08:44.99	184.24	12.79	-35.5	-36.2	25.1	0.00e+00	0	41	0	688914432	44	5871
2026-01-22 03:08:49.04	184.50	13.17	-35.4	-36.1	25.2	0.00e+00	0	41	0	711983104	44	5789
2026-01-22 03:08:53.07	184.76	13.55	-35.4	-36.1	25.1	0.00e+00	0	41	0	734003200	44	5770
2026-01-22 03:08:57.11	185.03	13.94	-35.4	-36.1	25.1	0.00e+00	0	41	0	757071872	44	5800
2026-01-22 03:09:01.15	185.31	14.34	-35.2	-35.9	25.4	0.00e+00	0	41	0	779091968	44	5652
2026-01-22 03:09:05.20	185.60	14.74	-34.8	-35.5	25.7	0.00e+00	0	41	0	802160640	42	6077
2026-01-22 03:09:09.24	185.89	15.14	-34.8	-35.5	25.7	0.00e+00	0	41	0	825229312	42	6034
2026-01-22 03:09:13.28	186.19	15.56	-34.7	-35.4	25.8	0.00e+00	0	41	0	848297984	42	5980
2026-01-22 03:09:17.32	186.50	15.98	-34.7	-35.3	25.9	0.00e+00	0	41	0	870318080	42	5945
2026-01-22 03:09:21.36	186.81	16.40	-34.5	-35.2	26.1	0.00e+00	0	41	0	893386752	42	5833
2026-01-22 03:09:25.40	187.14	16.84	-34.6	-35.2	26.0	0.00e+00	0	41	0	916455424	42	5873
2026-01-22 03:09:29.44	187.47	17.27	-34.4	-35.0	26.2	0.00e+00	0	41	0	938475520	42	5735
2026-01-22 03:09:33.48	187.81	17.72	-34.1	-34.7	26.4	0.00e+00	0	41	0	961544192	42	5565
2026-01-22 03:09:37.52	188.17	18.17	-33.6	-34.3	26.9	0.00e+00	0	41	0	983564288	40	5935
2026-01-22 03:09:41.55	188.53	18.63	-33.7	-34.3	26.8	0.00e+00	0	41	0	1006632960	40	5945
2026-01-22 03:09:45.59	188.90	19.10	-34.2	-34.8	26.5	0.00e+00	0	41	0	1029701632	40	6299
2026-01-22 03:09:49.63	189.29	19.58	-33.8	-34.5	26.7	0.00e+00	0	41	0	1052770304	40	6064
2026-01-22 03:09:53.67	189.69	20.07	-33.7	-34.3	26.8	0.00e+00	0	41	0	1074790400	40	5938
2026-01-22 03:09:57.71	190.10	20.56	-33.6	-34.2	27.0	0.00e+00	0	41	0	1097859072	40	5865
2026-01-22 03:10:01.71	190.51	21.06	-33.3	-33.9	27.1	0.00e+00	0	41	0	1119879168	40	5694
2026-01-22 03:10:05.75	190.95	21.57	-33.6	-34.2	27.1	0.00e+00	0	41	0	1142947840	40	5871
2026-01-22 03:10:09.79	191.40	22.08	-33.3	-34.0	27.4	0.00e+00	0	41	0	1166016512	40	5722
2026-01-22 03:10:13.84	191.87	22.61	-33.4	-34.0	27.2	0.00e+00	0	41	0	1188036608	40	5735
2026-01-22 03:10:17.87	192.35	23.15	-33.1	-33.8	27.4	0.00e+00	0	41	0	1211105280	40	5576
2026-01-22 03:10:21.92	192.84	23.70	-32.8	-33.5	27.6	0.00e+00	0	41	0	1234173952	40	5383
2026-01-22 03:10:25.96	193.36	24.25	-32.7	-33.3	27.7	0.00e+00	0	41	0	1256194048	38	5925
2026-01-22 03:10:30.00	193.89	24.82	-32.7	-33.4	27.7	0.00e+00	0	41	0	1279262720	38	5980
2026-01-22 03:10:34.04	194.44	25.39	-33.0	-33.6	27.6	0.00e+00	0	41	0	1302331392	38	6147
2026-01-22 03:10:38.08	195.01	25.98	-32.7	-33.3	27.7	0.00e+00	0	41	0	1325400064	38	5920
2026-01-22 03:10:42.12	195.60	26.57	-32.7	-33.3	27.7	0.00e+00	0	41	0	1347420160	38	5939
2026-01-22 03:10:46.16	196.22	27.18	-32.6	-33.2	27.8	0.00e+00	0	41	0	1370488832	38	5880
2026-01-22 03:10:50.20	196.85	27.79	-32.3	-33.0	28.0	0.00e+00	0	41	0	1392508928	38	5704
2026-01-22 03:10:54.25	197.52	28.42	-32.6	-33.3	27.9	0.00e+00	0	41	0	1415577600	38	5906
2026-01-22 03:10:58.29	198.21	29.06	-32.5	-33.1	27.9	0.00e+00	0	41	0	1438646272	38	5823
2026-01-22 03:11:02.32	198.92	29.70	-32.5	-33.2	27.9	0.00e+00	0	41	0	1461714944	38	5848
2026-01-22 03:11:06.36	199.66	30.36	-32.4	-33.0	28.0	0.00e+00	0	41	0	1483735040	38	5747
2026-01-22 03:11:10.40	200.44	31.02	-32.7	-33.3	28.1	0.00e+00	0	41	0	1506803712	38	5911
2026-01-22 03:11:14.45	201.24	31.70	-32.7	-33.3	27.9	0.00e+00	0	41	0	1529872384	38	5933
2026-01-22 03:11:18.49	202.08	32.39	-32.3	-32.9	28.1	0.00e+00	0	41	0	1551892480	38	5672
2026-01-22 03:11:22.53	202.96	33.08	-32.6	-33.2	27.9	0.00e+00	0	41	0	1574961152	38	5869
2026-01-22 03:11:26.57	203.87	33.78	-32.3	-32.9	28.2	0.00e+00	0	41	0	1596981248	38	5672
2026-01-22 03:11:30.60	204.82	34.49	-32.3	-32.9	28.3	0.00e+00	0	41	0	1620049920	38	5658
2026-01-22 03:11:34.65	205.81	35.21	-32.0	-32.6	28.4	0.00e+00	0	41	0	1643118592	38	5440
2026-01-22 03:11:38.69	206.85	35.93	-32.2	-32.8	28.4	0.00e+00	0	41	0	1666187264	38	5575
2026-01-22 03:11:42.73	207.94	36.66	-32.0	-32.7	28.5	0.00e+00	0	41	0	1688207360	38	5505
2026-01-22 03:11:46.77	209.07	37.40	-32.3	-33.0	28.2	0.00e+00	0	41	0	1711276032	38	5727
2026-01-22 03:11:50.81	210.25	38.14	-32.0	-32.6	28.4	0.00e+00	0	41	0	1734344704	38	5455
2026-01-22 03:11:54.85	211.49	38.88	-32.1	-32.7	28.4	0.00e+00	0	41	0	1756364800	38	5532
2026-01-22 03:11:58.89	212.79	39.62	-32.3	-33.0	28.1	0.00e+00	0	41	0	1779433472	38	5699
2026-01-22 03:12:02.92	214.14	40.36	-32.4	-32.9	28.2	0.00e+00	0	41	0	1802502144	38	5692
2026-01-22 03:12:06.97	215.56	41.10	-32.9	-33.5	28.0	0.00e+00	0	41	0	1824522240	38	6083
2026-01-22 03:12:11.00	217.04	41.83	-32.5	-33.1	28.2	0.00e+00	0	41	0	1847590912	38	5818
2026-01-22 03:12:15.05	218.59	42.55	-32.8	-33.4	27.8	0.00e+00	0	41	0	1870659584	38	5986
2026-01-22 03:12:19.09	220.21	43.27	-32.5	-33.1	28.2	0.00e+00	0	41	0	1892679680	38	5799
2026-01-22 03:12:23.13	221.90	43.97	-32.5	-33.2	28.0	0.00e+00	0	41	0	1915748352	38	5842
2026-01-22 03:12:27.17	223.67	44.66	-33.2	-33.8	28.2	0.00e+00	0	41	0	1938817024	38	6290
2026-01-22 03:12:31.21	225.51	45.32	-33.5	-34.2	27.5	0.00e+00	0	41	0	1960837120	38	6591
2026-01-22 03:12:35.25	227.42	45.97	-32.9	-33.5	28.1	0.00e+00	0	41	0	1983905792	38	6071
2026-01-22 03:12:39.29	229.42	46.59	-33.1	-33.7	27.9	0.00e+00	0	41	0	2006974464	38	6188
2026-01-22 03:12:43.33	231.49	47.17	-33.1	-33.7	28.0	0.00e+00	0	41	0	2028994560	40	5560
2026-01-22 03:12:47.37	233.64	47.73	-33.0	-33.6	28.1	0.00e+00	0	41	0	2052063232	40	5492
2026-01-22 03:12:51.41	235.86	48.25	-33.1	-33.7	27.7	0.00e+00	0	41	0	2075131904	38	6201
2026-01-22 03:12:55.45	238.16	48.72	-33.4	-34.0	27.7	0.00e+00	0	41	0	2097152000	40	5733
2026-01-22 03:12:59.49	240.52	49.15	-33.0	-33.6	28.0	0.00e+00	0	41	0	2120220672	38	6128
2026-01-22 03:13:03.53	242.95	49.53	-32.7	-33.3	28.1	0.00e+00	0	41	0	2143289344	38	5927
2026-01-22 03:13:07.57	245.43	49.86	-33.5	-34.2	27.7	0.00e+00	0	41	0	2166358016	40	5837
2026-01-22 03:13:11.61	247.96	50.14	-33.4	-34.0	28.0	0.00e+00	0	41	0	2188378112	40	5731
2026-01-22 03:13:15.65	250.53	50.35	-33.0	-33.6	28.1	0.00e+00	0	41	0	2211446784	40	5483
2026-01-22 03:13:19.69	253.14	50.51	-33.6	-34.2	28.0	0.00e+00	0	41	0	2233466880	40	5837
2026-01-22 03:13:23.74	255.77	50.60	-33.7	-34.3	28.0	0.00e+00	0	41	0	2256535552	40	5919
2026-01-22 03:13:27.78	258.40	50.64	-33.3	-33.9	28.0	0.00e+00	0	41	0	2279604224	40	5675
2026-01-22 03:13:31.82	261.04	50.61	-33.1	-33.7	28.1	0.00e+00	0	41	0	2302672896	40	5552
2026-01-22 03:13:35.86	263.66	50.51	-33.1	-33.7	28.0	0.00e+00	0	41	0	2324692992	40	5557
2026-01-22 03:13:39.91	266.27	50.36	-33.5	-34.1	27.8	0.00e+00	0	41	0	2347761664	40	5769
2026-01-22 03:13:43.95	268.84	50.15	-32.7	-33.3	28.2	0.00e+00	0	41	0	2370830336	38	5940
2026-01-22 03:13:47.99	271.37	49.87	-33.7	-34.3	27.8	0.00e+00	0	41	0	2392850432	40	5907
2026-01-22 03:13:52.03	273.86	49.55	-33.0	-33.6	28.2	0.00e+00	0	41	0	2415919104	40	5454
2026-01-22 03:13:56.07	276.28	49.17	-33.5	-34.1	28.0	0.00e+00	0	41	0	2438987776	40	5821
2026-01-22 03:14:00.12	278.65	48.74	-33.7	-34.4	27.7	0.00e+00	0	41	0	2461007872	40	5984
2026-01-22 03:14:04.16	280.94	48.27	-34.6	-35.3	27.0	0.00e+00	0	41	0	2484076544	42	5935
2026-01-22 03:14:08.20	283.17	47.75	-33.0	-33.5	27.9	0.00e+00	0	41	0	2507145216	40	5434
2026-01-22 03:14:12.23	285.31	47.20	-33.5	-34.2	27.7	0.00e+00	0	41	0	2529165312	40	5834
2026-01-22 03:14:16.28	287.39	46.62	-33.2	-33.8	28.0	0.00e+00	0	41	0	2552233984	40	5612
2026-01-22 03:14:20.32	289.38	46.00	-33.0	-33.6	27.8	0.00e+00	0	41	0	2575302656	40	5480
2026-01-22 03:14:24.36	291.30	45.36	-33.1	-33.8	27.7	0.00e+00	0	41	0	2597322752	40	5592
2026-01-22 03:14:28.40	293.14	44.70	-32.6	-33.2	28.1	0.00e+00	0	41	0	2620391424	38	5871
2026-01-22 03:14:32.44	294.90	44.01	-33.2	-33.8	27.7	0.00e+00	0	41	0	2643460096	38	6302
2026-01-22 03:14:36.49	296.60	43.31	-32.8	-33.4	27.9	0.00e+00	0	41	0	2665480192	38	5982
2026-01-22 03:14:40.53	298.21	42.60	-32.7	-33.3	27.9	0.00e+00	0	41	0	2688548864	38	5962
2026-01-22 03:14:44.57	299.76	41.88	-32.8	-33.3	27.9	0.00e+00	0	41	0	2711617536	38	5962
2026-01-22 03:14:48.61	301.24	41.15	-32.9	-33.6	28.0	0.00e+00	0	41	0	2733637632	38	6134
2026-01-22 03:14:52.65	302.66	40.42	-32.8	-33.4	28.0	0.00e+00	0	41	0	2756706304	38	6025
2026-01-22 03:14:56.69	304.02	39.68	-32.2	-32.8	27.7	0.00e+00	0	41	0	2779774976	38	5569
2026-01-22 03:15:00.74	305.31	38.94	-32.3	-32.9	28.3	0.00e+00	0	41	0	2802843648	38	5694
2026-01-22 03:15:04.78	306.55	38.20	-32.5	-33.2	28.0	0.00e+00	0	41	0	2824863744	38	5851
2026-01-22 03:15:08.82	307.74	37.47	-32.2	-32.9	28.3	0.00e+00	0	41	0	2847932416	38	5666
2026-01-22 03:15:12.86	308.87	36.74	-32.3	-33.0	28.4	0.00e+00	0	41	0	2869952512	38	5698
2026-01-22 03:15:16.90	309.95	36.01	-32.7	-33.3	28.0	0.00e+00	0	41	0	2893021184	38	5906
2026-01-22 03:15:20.94	310.99	35.29	-32.5	-33.0	28.2	0.00e+00	0	41	0	2916089856	38	5748
2026-01-22 03:15:24.98	311.98	34.57	-32.2	-32.7	28.4	0.00e+00	0	41	0	2939158528	38	5556
2026-01-22 03:15:29.02	312.94	33.87	-32.5	-33.1	28.2	0.00e+00	0	41	0	2961178624	38	5791
2026-01-22 03:15:33.06	313.85	33.17	-32.4	-32.9	28.1	0.00e+00	0	41	0	2984247296	38	5668
2026-01-22 03:15:37.10	314.72	32.47	-32.6	-33.2	28.0	0.00e+00	0	41	0	3007315968	38	5861
2026-01-22 03:15:41.14	315.56	31.79	-32.6	-33.2	28.0	0.00e+00	0	41	0	3029336064	38	5856
2026-01-22 03:15:45.18	316.37	31.12	-32.5	-33.2	28.0	0.00e+00	0	41	0	3052404736	38	5861
2026-01-22 03:15:49.21	317.14	30.46	-32.7	-33.3	27.9	0.00e+00	0	41	0	3074424832	38	5930
2026-01-22 03:15:53.25	317.89	29.81	-33.0	-33.6	27.6	0.00e+00	0	41	0	3097493504	38	6117
2026-01-22 03:15:57.29	318.60	29.16	-32.8	-33.4	27.9	0.00e+00	0	41	0	3120562176	38	5979
2026-01-22 03:16:01.34	319.29	28.53	-32.6	-33.2	27.9	0.00e+00	0	41	0	3143630848	38	5839
2026-01-22 03:16:05.38	319.96	27.90	-32.8	-33.5	27.9	0.00e+00	0	41	0	3165650944	38	6046
2026-01-22 03:16:09.42	320.59	27.29	-32.8	-33.3	27.9	0.00e+00	0	41	0	3188719616	38	5945
2026-01-22 03:16:13.45	321.21	26.69	-33.0	-33.7	27.6	0.00e+00	0	41	0	3211788288	38	6203
2026-01-22 03:16:17.50	321.80	26.10	-33.0	-33.6	27.6	0.00e+00	0	41	0	3233808384	38	6112
2026-01-22 03:16:21.54	322.37	25.51	-32.8	-33.4	27.6	0.00e+00	0	41	0	3256877056	38	5993
2026-01-22 03:16:25.58	322.93	24.94	-33.8	-34.4	27.2	0.00e+00	0	41	0	3279945728	40	5976
2026-01-22 03:16:29.62	323.46	24.38	-33.5	-34.1	27.3	0.00e+00	0	42	0	3301965824	40	5769
2026-01-22 03:16:33.66	323.98	23.82	-33.6	-34.3	27.3	0.00e+00	0	41	0	3325034496	40	5927
2026-01-22 03:16:37.70	324.47	23.28	-33.9	-34.6	27.1	0.00e+00	0	41	0	3348103168	40	6120
2026-01-22 03:16:41.75	324.96	22.74	-33.9	-34.7	26.8	0.00e+00	0	42	0	3370123264	40	6192
2026-01-22 03:16:45.79	325.42	22.22	-33.8	-34.4	26.8	0.00e+00	0	41	0	3393191936	40	6008
2026-01-22 03:16:49.83	325.87	21.70	-33.8	-34.6	26.8	0.00e+00	0	42	0	3416260608	40	6109
2026-01-22 03:16:53.87	326.31	21.19	-34.2	-34.8	26.4	0.00e+00	0	41	0	3439329280	40	6292
2026-01-22 03:16:57.91	326.74	20.69	-34.2	-34.8	26.7	0.00e+00	0	41	0	3461349376	40	6286
2026-01-22 03:17:01.95	327.15	20.20	-34.4	-35.0	26.4	0.00e+00	0	42	0	3484418048	40	6400
2026-01-22 03:17:05.99	327.55	19.72	-34.3	-34.8	26.4	0.00e+00	0	42	0	3506438144	40	6314
2026-01-22 03:17:10.03	327.93	19.24	-34.4	-35.1	26.4	0.00e+00	0	41	0	3529506816	40	6493
2026-01-22 03:17:14.07	328.31	18.77	-34.5	-35.2	26.2	0.00e+00	0	42	0	3552575488	40	6596
2026-01-22 03:17:18.11	328.68	18.32	-34.7	-35.4	26.0	0.00e+00	0	41	0	3574595584	42	6032
2026-01-22 03:17:22.16	329.03	17.86	-34.7	-35.3	26.0	0.00e+00	0	41	0	3597664256	42	5899
2026-01-22 03:17:26.20	329.38	17.42	-34.9	-35.6	25.9	0.00e+00	0	41	0	3620732928	42	6144
2026-01-22 03:17:30.24	329.71	16.98	-35.0	-35.6	25.6	0.00e+00	0	41	0	3643801600	42	6148
2026-01-22 03:17:34.28	330.04	16.55	-35.2	-35.8	25.4	0.00e+00	0	41	0	3665821696	42	6275
2026-01-22 03:17:38.32	330.36	16.12	-35.2	-35.9	25.4	0.00e+00	0	42	0	3688890368	42	6372
2026-01-22 03:17:42.37	330.67	15.71	-35.4	-36.0	25.2	0.00e+00	0	42	0	3710910464	42	6451
2026-01-22 03:17:46.41	330.97	15.29	-35.5	-36.1	25.2	0.00e+00	0	41	0	3733979136	42	6495
2026-01-22 03:17:50.45	331.26	14.89	-36.1	-36.7	24.6	0.00e+00	0	41	0	3757047808	44	6221
2026-01-22 03:17:54.49	331.55	14.49	-35.9	-36.5	24.7	0.00e+00	0	41	0	3780116480	44	6064
2026-01-22 03:17:58.53	331.83	14.10	-36.2	-36.8	24.4	0.00e+00	0	41	0	3802136576	44	6309
2026-01-22 03:18:02.56	332.10	13.71	-36.1	-36.7	24.6	0.00e+00	0	41	0	3825205248	44	6230
2026-01-22 03:18:06.60	332.37	13.33	-36.2	-36.8	24.4	0.00e+00	0	41	0	3848273920	44	6304
2026-01-22 03:18:10.64	332.63	12.95	-36.4	-37.0	24.4	0.00e+00	0	41	0	3870294016	44	6453
2026-01-22 03:18:14.67	332.88	12.58	-36.5	-37.2	24.4	0.00e+00	0	41	0	3893362688	44	6548
2026-01-22 03:18:18.72	333.13	12.21	-36.5	-37.3	24.3	0.00e+00	0	41	0	3915382784	44	6680
2026-01-22 03:18:22.75	333.38	11.85	-36.7	-37.4	24.1	0.00e+00	0	41	0	3938451456	46	5990
2026-01-22 03:18:26.80	333.61	11.50	-36.7	-37.5	24.1	0.00e+00	0	41	0	3961520128	46	6087
2026-01-22 03:18:30.84	333.85	11.15	-36.7	-37.3	24.2	0.00e+00	0	41	0	3984588800	46	5955
2026-01-22 03:18:34.88	334.07	10.80	-36.7	-37.4	24.0	0.00e+00	0	41	0	4006608896	46	5997
2026-01-22 03:18:38.92	334.29	10.46	-36.8	-37.4	23.9	0.00e+00	0	41	0	4029677568	46	6003
2026-01-22 03:18:42.96	334.51	10.12	-36.8	-37.5	24.0	0.00e+00	0	41	0	4052746240	46	6045
2026-01-22 03:18:47.01	334.73	9.79	-36.9	-37.7	23.9	0.00e+00	0	41	0	4074766336	46	6238
2026-01-22 03:18:51.05	334.93	9.46	-36.6	-37.3	24.0	0.00e+00	0	41	0	4097835008	46	5917
2026-01-22 03:18:55.09	335.14	9.13	-36.8	-37.4	23.9	0.00e+00	0	41	0	4120903680	46	6019
2026-01-22 03:18:59.14	335.34	8.81	-36.9	-37.7	23.8	0.00e+00	0	41	0	4142923776	46	6196
2026-01-22 03:19:03.18	335.54	8.49	-37.3	-38.1	23.6	0.00e+00	0	41	0	4165992448	46	6496
2026-01-22 03:19:07.21	335.73	8.18	-37.5	-38.3	23.4	0.00e+00	0	41	0	4189061120	46	6684
2026-01-22 03:19:11.26	335.92	7.87	-38.1	-38.8	22.9	0.00e+00	0	41	0	4211081216	48	6275
2026-01-22 03:19:15.29	336.10	7.56	-37.8	-38.5	23.0	0.00e+00	0	41	0	4234149888	48	6095
2026-01-22 03:19:19.34	336.29	7.26	-37.9	-38.8	22.8	0.00e+00	0	41	0	4257218560	48	6265
2026-01-22 03:19:23.38	336.46	6.96	-37.9	-38.6	22.7	0.00e+00	0	41	0	4279238656	48	6160
2026-01-22 03:19:27.41	336.64	6.66	-37.7	-38.6	22.7	0.00e+00	0	41	0	4302307328	48	6110
2026-01-22 03:19:31.45	336.81	6.37	-37.8	-38.6	22.5	0.00e+00	0	41	0	4325376000	48	6120
2026-01-22 03:19:35.49	336.98	6.08	-38.2	-38.9	22.1	0.00e+00	0	41	0	4347396096	48	6390
2026-01-22 03:19:39.53	337.15	5.79	-38.6	-39.4	21.3	0.00e+00	0	41	0	4370464768	48	6756
2026-01-22 03:19:43.58	337.31	5.50	-39.5	-40.5	19.9	0.00e+00	0	41	0	4393533440	50	6825
2026-01-22 03:19:47.62	337.47	5.22	-40.8	-42.1	17.6	0.00e+00	0	41	0	4415553536	54	6503
2026-01-22 03:19:51.66	337.63	4.94	-42.0	-43.4	16.0	0.00e+00	0	41	0	4438622208	56	6749
2026-01-22 03:19:55.70	337.79	4.67	-44.1	-46.3	13.1	1.37e-05	0	41	0	4461690880	60	7464
2026-01-22 03:19:59.74	337.94	4.40	-45.2	-48.4	10.2	9.32e-03	0	41	0	4483710976	60	9505
2026-01-22 03:20:03.79	338.09	4.12	-46.2	-51.3	6.4	2.43e-01	0	41	0	4506779648	60	13207
2026-01-22 03:20:07.83	338.24	3.86	-46.6	-54.2	3.8	8.29e-01	0	41	0	4514119680	60	18512
2026-01-22 03:20:11.86	338.38	3.59	-46.5	-57.4	3.6	8.44e-01	0	41	104	4514119680	60	26726
2026-01-22 03:20:15.90	338.53	3.33	-46.6	-58.7	3.6	8.45e-01	0	41	104	4514119680	60	31059
2026-01-22 03:20:19.94	338.67	3.07	-46.8	-58.8	3.6	8.45e-01	0	41	104	4514119680	60	31397
2026-01-22 03:20:23.98	338.81	2.81	-50.8	-62.9	3.6	8.45e-01	0	41	104	4514119680	60	50685
2026-01-22 03:20:28.02	338.94	2.55	-51.4	-63.6	3.6	8.45e-01	0	41	104	4514119680	60	54396
2026-01-22 03:20:32.06	339.08	2.30	-51.7	-63.8	3.6	8.46e-01	0	41	104	4514119680	60	56006
2026-01-22 03:20:36.11	339.21	2.05	-50.9	-63.6	3.6	8.45e-01	0	41	104	4514119680	60	54566
2026-01-22 03:20:40.14	339.34	1.80	-51.7	-63.8	3.6	8.45e-01	0	41	104	4514119680	60	56147
2026-01-22 03:20:44.18	339.47	1.55	-51.5	-63.7	3.6	8.44e-01	0	41	104	4514119680	60	55172
2026-01-22 03:20:48.23	339.60	1.30	-51.6	-63.8	3.6	8.46e-01	0	41	104	4514119680	60	55940
2026-01-22 03:20:52.26	339.72	1.06	-51.6	-63.8	3.6	8.45e-01	0	41	104	4514119680	60	55983
2026-01-22 03:20:56.30	339.85	0.82	-51.6	-63.7	3.6	8.45e-01	0	41	104	4514119680	60	55140
2026-01-22 03:21:00.34	339.97	0.58	-51.5	-63.6	3.6	8.45e-01	0	41	104	4514119680	60	54603
2026-01-22 03:21:04.38	340.09	0.34	-51.5	-63.5	3.6	8.46e-01	0	41	104	4514119680	60	54344
2026-01-22 03:21:08.42	340.21	0.11	-52.1	-64.3	3.6	8.45e-01	0	41	104	4514119680	60	59183
2026-01-22 03:21:12.46	340.33	-0.13	-52.0	-64.1	3.6	8.45e-01	0	41	104	4514119680	60	57989

#Closed at: 2026-01-22 03:21:13
#Recorded file [4514 MB]: D:/lorett/data/35029_260122_150551.dat