passes_logs/2026/01/22/R4.6S_Anadyr/R4.6S_Anadyr__20260122_210351_TY-39_rec.log

#Pass ID: 20260122_210351_TY-39
#Satellite: TY-39
#Configuration: TY-39
#almurnet v.1.7.20251203
#Start time: 2026-01-22 21:03:57

#Version: 2.2.20231116
#Station: R4.6S_Anadyr
#Location: 177.4865 lon 64.73178 lat
#TLE: 1 51832U 22019J   26022.26750231  .00003894  00000-0  18539-3 0  9994
#TLE: 2 51832  97.3626  88.7794 0009273  30.1891 329.9876 15.19696318215630

#Time	Az	El	Level	Level2	SNR	BER	BlckErr	Temp	State	Recorded	gain1	gain2
2026-01-22 21:03:57.86	23.66	0.24	-51.2	-62.7	3.5	8.44e-01	0	39	0	0	60	49506
2026-01-22 21:04:00.89	23.95	0.40	-51.5	-54.0	3.6	0.00e+00	0	40	104	0	60	61315
2026-01-22 21:04:03.92	24.24	0.56	-51.4	-53.9	3.6	0.00e+00	0	40	104	0	60	60851
2026-01-22 21:04:06.94	24.54	0.72	-51.3	-53.8	3.6	0.00e+00	0	40	104	0	60	59775
2026-01-22 21:04:09.97	24.85	0.88	-51.2	-53.7	3.6	0.00e+00	0	41	104	0	60	59490
2026-01-22 21:04:12.99	25.16	1.05	-50.7	-53.3	3.6	0.00e+00	0	41	104	0	60	56485
2026-01-22 21:04:16.02	25.47	1.21	-50.8	-53.3	3.6	0.00e+00	0	41	104	0	60	56376
2026-01-22 21:04:19.05	25.79	1.38	-50.0	-52.4	3.6	0.00e+00	0	41	104	0	60	51231
2026-01-22 21:04:22.08	26.11	1.54	-49.8	-52.3	3.6	0.00e+00	0	41	104	0	60	50270
2026-01-22 21:04:25.11	26.43	1.71	-49.8	-52.3	3.6	0.00e+00	0	41	104	0	60	50378
2026-01-22 21:04:28.14	26.76	1.87	-49.8	-52.3	3.6	0.00e+00	0	41	104	0	60	50594
2026-01-22 21:04:31.17	27.10	2.04	-49.8	-52.3	3.6	0.00e+00	0	41	104	0	60	50487
2026-01-22 21:04:34.20	27.44	2.21	-49.8	-52.3	3.6	0.00e+00	0	41	104	0	60	50527
2026-01-22 21:04:37.22	27.78	2.38	-49.8	-52.3	3.6	0.00e+00	0	41	104	0	60	50634
2026-01-22 21:04:40.25	28.13	2.55	-49.8	-52.3	3.6	0.00e+00	0	41	104	0	60	50280
2026-01-22 21:04:43.28	28.48	2.72	-49.8	-52.3	3.6	0.00e+00	0	41	104	0	60	50426
2026-01-22 21:04:46.31	28.84	2.89	-49.8	-52.3	3.6	0.00e+00	0	41	104	0	60	50592
2026-01-22 21:04:49.34	29.20	3.06	-49.8	-52.3	3.6	0.00e+00	0	41	104	0	60	50597
2026-01-22 21:04:52.37	29.57	3.23	-49.8	-52.4	3.6	0.00e+00	0	42	104	0	60	51013
2026-01-22 21:04:55.39	29.95	3.40	-49.7	-52.2	3.6	0.00e+00	0	42	104	0	60	50027
2026-01-22 21:04:58.42	30.33	3.57	-50.0	-52.4	3.6	0.00e+00	0	42	104	0	60	51192
2026-01-22 21:05:01.45	30.71	3.75	-50.0	-52.5	3.6	0.00e+00	0	42	104	0	60	51702
2026-01-22 21:05:04.47	31.10	3.92	-49.8	-52.3	3.6	0.00e+00	0	42	104	0	60	50380
2026-01-22 21:05:07.50	31.50	4.10	-49.7	-52.3	3.6	0.00e+00	0	42	104	0	60	50218
2026-01-22 21:05:10.53	31.90	4.27	-50.1	-52.6	3.6	0.00e+00	0	42	104	0	60	52065
2026-01-22 21:05:13.55	32.31	4.45	-50.2	-52.6	3.6	0.00e+00	0	42	104	0	60	52297
2026-01-22 21:05:16.58	32.72	4.62	-50.2	-52.6	3.6	0.00e+00	0	42	104	0	60	52497
2026-01-22 21:05:19.61	33.14	4.80	-50.0	-52.5	3.6	0.00e+00	0	42	104	0	60	51516
2026-01-22 21:05:22.63	33.57	4.98	-42.9	-42.9	7.7	2.80e-01	0	42	0	83886080	60	17148
2026-01-22 21:05:25.66	34.00	5.15	-36.2	-36.5	12.9	1.11e-04	0	42	0	310378496	48	16418
2026-01-22 21:05:28.69	34.44	5.33	-34.3	-34.7	14.0	0.00e+00	0	42	0	536870912	42	18767
2026-01-22 21:05:31.72	34.89	5.51	-33.7	-34.1	14.6	0.00e+00	0	43	0	763363328	42	17597
2026-01-22 21:05:34.75	35.34	5.69	-32.1	-32.6	15.2	0.00e+00	0	43	0	989855744	40	16522
2026-01-22 21:05:37.77	35.80	5.87	-33.0	-33.4	15.0	0.00e+00	0	43	0	1216348160	40	18111
2026-01-22 21:05:40.80	36.26	6.05	-31.8	-32.3	15.4	0.00e+00	0	43	0	1442840576	38	17825
2026-01-22 21:05:43.82	36.74	6.23	-31.7	-32.1	15.6	0.00e+00	0	43	0	1669332992	38	17558
2026-01-22 21:05:46.85	37.22	6.41	-31.4	-31.9	15.6	0.00e+00	0	43	0	1895825408	38	17008
2026-01-22 21:05:49.88	37.71	6.59	-31.5	-32.0	15.6	0.00e+00	0	43	0	2122317824	38	17293
2026-01-22 21:05:52.90	38.20	6.77	-31.7	-32.2	15.5	0.00e+00	0	43	0	2348810240	38	17679
2026-01-22 21:05:55.93	38.70	6.95	-31.8	-32.3	15.4	0.00e+00	0	43	0	2575302656	38	17882
2026-01-22 21:05:58.96	39.21	7.13	-31.7	-32.2	15.5	0.00e+00	0	43	0	2801795072	38	17667
2026-01-22 21:06:01.99	39.73	7.31	-31.1	-31.6	15.7	0.00e+00	0	43	0	3036676096	38	16496
2026-01-22 21:06:05.02	40.26	7.49	-31.2	-31.6	15.5	0.00e+00	0	43	0	3254779904	38	16572
2026-01-22 21:06:08.04	40.79	7.67	-31.3	-31.8	15.4	0.00e+00	0	43	0	3489660928	38	16909
2026-01-22 21:06:11.07	41.33	7.85	-31.1	-31.6	15.6	0.00e+00	0	43	0	3707764736	38	16463
2026-01-22 21:06:14.10	41.88	8.03	-30.9	-31.3	15.8	0.00e+00	0	43	0	3942645760	38	16030
2026-01-22 21:06:17.12	42.44	8.21	-31.0	-31.5	15.7	0.00e+00	0	43	0	4169138176	38	16361
2026-01-22 21:06:20.15	43.00	8.39	-30.8	-31.2	15.8	0.00e+00	0	43	0	4395630592	38	15865
2026-01-22 21:06:23.18	43.58	8.57	-31.1	-31.5	15.8	0.00e+00	0	43	0	4622123008	36	18366
2026-01-22 21:06:26.20	44.16	8.74	-31.3	-31.7	15.7	0.00e+00	0	43	0	4848615424	36	18818
2026-01-22 21:06:29.22	44.75	8.92	-31.2	-31.6	15.6	0.00e+00	0	43	0	5075107840	36	18626
2026-01-22 21:06:32.25	45.35	9.10	-31.4	-31.9	15.8	0.00e+00	0	43	0	5301600256	36	19144
2026-01-22 21:06:35.27	45.96	9.28	-30.5	-31.0	15.9	0.00e+00	0	43	0	5528092672	36	17265
2026-01-22 21:06:38.30	46.58	9.45	-30.4	-30.8	16.0	0.00e+00	0	43	0	5754585088	36	16977
2026-01-22 21:06:41.32	47.20	9.63	-30.3	-30.8	15.9	0.00e+00	0	43	0	5981077504	36	16827
2026-01-22 21:06:44.35	47.84	9.80	-30.2	-30.7	16.0	0.00e+00	0	43	0	6207569920	36	16661
2026-01-22 21:06:47.37	48.48	9.97	-30.3	-30.8	15.5	0.00e+00	0	43	0	6434062336	36	16883
2026-01-22 21:06:50.40	49.14	10.15	-30.1	-30.5	15.8	0.00e+00	0	43	0	6660554752	36	16368
2026-01-22 21:06:53.42	49.80	10.32	-30.2	-30.7	16.1	0.00e+00	0	43	0	6887047168	36	16663
2026-01-22 21:06:56.45	50.47	10.48	-30.1	-30.5	16.0	0.00e+00	0	43	0	7113539584	36	16380
2026-01-22 21:06:59.47	51.15	10.65	-30.0	-30.5	16.0	0.00e+00	0	43	0	7340032000	36	16296
2026-01-22 21:07:02.50	51.85	10.82	-30.0	-30.5	15.8	0.00e+00	0	44	0	7566524416	36	16352
2026-01-22 21:07:05.53	52.55	10.98	-30.0	-30.4	16.0	0.00e+00	0	44	0	7801405440	36	16152
2026-01-22 21:07:08.56	53.26	11.14	-29.9	-30.3	16.0	0.00e+00	0	44	0	8027897856	34	17957
2026-01-22 21:07:11.59	53.98	11.30	-29.7	-30.2	16.0	0.00e+00	0	44	0	8254390272	34	17657
2026-01-22 21:07:14.61	54.70	11.46	-29.8	-30.2	16.1	0.00e+00	0	44	0	8480882688	34	17780
2026-01-22 21:07:17.63	55.44	11.62	-29.8	-30.3	15.7	0.00e+00	0	44	0	8707375104	34	17858
2026-01-22 21:07:20.66	56.19	11.77	-29.5	-30.0	16.0	0.00e+00	0	44	0	8933867520	34	17261
2026-01-22 21:07:23.68	56.94	11.92	-29.5	-30.0	16.0	0.00e+00	0	44	0	9160359936	34	17285
2026-01-22 21:07:26.70	57.71	12.07	-29.4	-29.9	16.3	0.00e+00	0	44	0	9386852352	34	17108
2026-01-22 21:07:29.73	58.48	12.21	-29.4	-29.9	16.2	0.00e+00	0	44	0	9613344768	34	17120
2026-01-22 21:07:32.75	59.26	12.35	-29.3	-29.8	16.0	0.00e+00	0	44	0	9839837184	34	16882
2026-01-22 21:07:35.78	60.06	12.49	-29.4	-29.9	16.1	0.00e+00	0	44	0	10066329600	34	17106
2026-01-22 21:07:38.81	60.86	12.63	-29.4	-29.9	16.0	0.00e+00	0	44	0	10292822016	34	17023
2026-01-22 21:07:41.83	61.67	12.76	-29.6	-30.0	15.5	0.00e+00	0	44	0	10519314432	34	17312
2026-01-22 21:07:44.86	62.49	12.89	-29.1	-29.6	15.3	0.00e+00	0	44	0	10745806848	34	16489
2026-01-22 21:07:47.89	63.31	13.01	-29.2	-29.7	16.2	0.00e+00	0	44	0	10972299264	34	16634
2026-01-22 21:07:50.92	64.15	13.13	-29.1	-29.6	16.3	0.00e+00	0	44	0	11198791680	34	16495
2026-01-22 21:07:53.94	64.99	13.25	-29.2	-29.6	16.2	0.00e+00	0	44	0	11425284096	34	16602
2026-01-22 21:07:56.97	65.84	13.36	-28.9	-29.4	16.1	0.00e+00	0	44	0	11651776512	34	16137
2026-01-22 21:08:00.00	66.70	13.46	-29.0	-29.5	16.0	0.00e+00	0	44	0	11886657536	34	16326
2026-01-22 21:08:03.03	67.56	13.57	-29.0	-29.4	15.8	0.00e+00	0	44	0	12113149952	34	16188
2026-01-22 21:08:06.05	68.43	13.66	-28.8	-29.3	16.2	0.00e+00	0	44	0	12339642368	34	15953
2026-01-22 21:08:09.08	69.31	13.76	-28.9	-29.3	16.1	0.00e+00	0	44	0	12566134784	34	16027
2026-01-22 21:08:12.11	70.20	13.84	-28.9	-29.3	15.8	0.00e+00	0	44	0	12792627200	34	16008
2026-01-22 21:08:15.14	71.09	13.93	-28.8	-29.3	16.3	0.00e+00	0	44	0	13019119616	34	15888
2026-01-22 21:08:18.17	71.98	14.00	-28.9	-29.3	16.4	0.00e+00	0	44	0	13245612032	32	17969
2026-01-22 21:08:21.20	72.89	14.07	-29.0	-29.4	16.4	0.00e+00	0	44	0	13472104448	32	18205
2026-01-22 21:08:24.22	73.79	14.14	-28.8	-29.3	16.4	0.00e+00	0	44	0	13698596864	32	17829
2026-01-22 21:08:27.25	74.70	14.20	-28.8	-29.3	16.1	0.00e+00	0	44	0	13925089280	32	17886
2026-01-22 21:08:30.27	75.61	14.26	-28.9	-29.4	16.3	0.00e+00	0	44	0	14151581696	32	18032
2026-01-22 21:08:33.30	76.53	14.30	-28.9	-29.4	15.5	0.00e+00	0	44	0	14378074112	32	18015
2026-01-22 21:08:36.33	77.46	14.35	-28.9	-29.3	16.3	0.00e+00	0	44	0	14612955136	32	17961
2026-01-22 21:08:39.36	78.38	14.38	-28.7	-29.2	16.2	0.00e+00	0	44	0	14831058944	32	17633
2026-01-22 21:08:42.38	79.31	14.41	-29.0	-29.4	16.0	0.00e+00	0	44	0	15065939968	32	18150
2026-01-22 21:08:45.41	80.24	14.44	-28.6	-29.0	16.2	0.00e+00	0	44	0	15284043776	32	17386
2026-01-22 21:08:48.43	81.17	14.46	-28.7	-29.1	16.4	0.00e+00	0	44	0	15518924800	32	17581
2026-01-22 21:08:51.45	82.10	14.47	-28.8	-29.2	16.4	0.00e+00	0	44	0	15745417216	32	17752
2026-01-22 21:08:54.48	83.03	14.47	-28.7	-29.1	16.4	0.00e+00	0	44	0	15971909632	32	17588
2026-01-22 21:08:57.50	83.96	14.47	-28.7	-29.2	16.3	0.00e+00	0	44	0	16198402048	32	17658
2026-01-22 21:09:00.53	84.89	14.47	-28.8	-29.2	16.4	0.00e+00	0	44	0	16424894464	32	17722
2026-01-22 21:09:03.56	85.83	14.45	-28.7	-29.2	16.4	0.00e+00	0	44	0	16651386880	32	17742
2026-01-22 21:09:06.59	86.76	14.44	-28.6	-29.1	16.4	0.00e+00	0	44	0	16877879296	32	17520
2026-01-22 21:09:09.62	87.69	14.41	-28.8	-29.2	16.5	0.00e+00	0	44	0	17104371712	32	17750
2026-01-22 21:09:12.64	88.61	14.38	-28.9	-29.3	16.4	0.00e+00	0	44	0	17330864128	32	18006
2026-01-22 21:09:15.67	89.54	14.34	-28.7	-29.2	16.4	0.00e+00	0	44	0	17557356544	32	17718
2026-01-22 21:09:18.70	90.46	14.30	-28.7	-29.2	16.4	0.00e+00	0	44	0	17783848960	32	17650
2026-01-22 21:09:21.73	91.38	14.25	-28.7	-29.2	16.4	0.00e+00	0	44	0	18010341376	32	17690
2026-01-22 21:09:24.75	92.30	14.19	-28.7	-29.2	16.4	0.00e+00	0	44	0	18236833792	32	17760
2026-01-22 21:09:27.78	93.21	14.13	-28.7	-29.2	16.3	0.00e+00	0	44	0	18471714816	32	17687
2026-01-22 21:09:30.81	94.11	14.06	-29.0	-29.5	16.3	0.00e+00	0	44	0	18689818624	32	18299
2026-01-22 21:09:33.83	95.01	13.99	-29.2	-29.7	16.3	0.00e+00	0	44	0	18924699648	32	18681
2026-01-22 21:09:36.86	95.91	13.91	-28.9	-29.4	16.4	0.00e+00	0	44	0	19142803456	32	18037
2026-01-22 21:09:39.88	96.80	13.83	-28.9	-29.4	16.3	0.00e+00	0	44	0	19377684480	32	18100
2026-01-22 21:09:42.91	97.68	13.74	-29.0	-29.5	16.4	0.00e+00	0	44	0	19604176896	32	18396
2026-01-22 21:09:45.94	98.56	13.65	-28.9	-29.4	16.4	0.00e+00	0	44	0	19830669312	32	18131
2026-01-22 21:09:48.96	99.43	13.55	-29.0	-29.5	16.3	0.00e+00	0	44	0	20057161728	32	18227
2026-01-22 21:09:51.99	100.30	13.45	-29.0	-29.5	16.2	0.00e+00	0	44	0	20283654144	32	18227
2026-01-22 21:09:55.02	101.16	13.34	-29.0	-29.5	16.4	0.00e+00	0	44	0	20510146560	32	18229
2026-01-22 21:09:58.04	102.01	13.23	-29.1	-29.6	16.3	0.00e+00	0	44	0	20736638976	32	18458
2026-01-22 21:10:01.07	102.85	13.11	-29.0	-29.5	16.4	0.00e+00	0	44	0	20963131392	32	18315
2026-01-22 21:10:04.10	103.69	12.99	-29.1	-29.5	16.4	0.00e+00	0	44	0	21189623808	32	18398
2026-01-22 21:10:07.13	104.51	12.87	-29.2	-29.6	16.3	0.00e+00	0	44	0	21416116224	32	18591
2026-01-22 21:10:10.16	105.33	12.74	-29.2	-29.7	16.3	0.00e+00	0	44	0	21642608640	32	18693
2026-01-22 21:10:13.18	106.14	12.61	-29.3	-29.8	16.3	0.00e+00	0	44	0	21869101056	32	18912
2026-01-22 21:10:16.21	106.94	12.47	-29.3	-29.7	16.3	0.00e+00	0	44	0	22095593472	32	18847
2026-01-22 21:10:19.24	107.74	12.33	-29.4	-29.9	16.3	0.00e+00	0	44	0	22330474496	32	19148
2026-01-22 21:10:22.27	108.52	12.19	-29.2	-29.7	16.3	0.00e+00	0	44	0	22548578304	32	18721
2026-01-22 21:10:25.29	109.29	12.04	-29.4	-29.8	16.2	0.00e+00	0	44	0	22783459328	32	19049
2026-01-22 21:10:28.32	110.06	11.89	-29.6	-30.1	16.1	0.00e+00	0	44	0	23001563136	32	19526
2026-01-22 21:10:31.35	110.82	11.74	-29.6	-30.0	16.2	0.00e+00	0	44	0	23236444160	32	19507
2026-01-22 21:10:34.38	111.57	11.59	-29.6	-30.1	16.1	0.00e+00	0	44	0	23462936576	32	19577
2026-01-22 21:10:37.40	112.30	11.43	-29.6	-30.1	16.2	0.00e+00	0	44	0	23689428992	34	17436
2026-01-22 21:10:40.43	113.03	11.27	-29.6	-30.0	16.2	0.00e+00	0	44	0	23915921408	34	17336
2026-01-22 21:10:43.46	113.75	11.11	-29.8	-30.2	16.1	0.00e+00	0	44	0	24142413824	34	17792
2026-01-22 21:10:46.49	114.46	10.95	-30.4	-30.8	16.0	0.00e+00	0	44	0	24368906240	34	19015
2026-01-22 21:10:49.51	115.16	10.78	-29.9	-30.3	16.2	0.00e+00	0	44	0	24595398656	34	18007
2026-01-22 21:10:52.53	115.85	10.62	-30.1	-30.5	16.1	0.00e+00	0	44	0	24821891072	34	18415
2026-01-22 21:10:55.56	116.53	10.45	-29.9	-30.4	16.2	0.00e+00	0	44	0	25048383488	34	18085
2026-01-22 21:10:58.59	117.21	10.28	-29.9	-30.4	16.1	0.00e+00	0	44	0	25274875904	34	18091
2026-01-22 21:11:01.62	117.87	10.11	-30.0	-30.5	16.1	0.00e+00	0	44	0	25501368320	34	18366
2026-01-22 21:11:04.64	118.52	9.93	-30.3	-30.8	16.0	0.00e+00	0	44	0	25727860736	34	18948
2026-01-22 21:11:07.66	119.17	9.76	-30.3	-30.7	16.1	0.00e+00	0	44	0	25954353152	34	18841
2026-01-22 21:11:10.69	119.80	9.59	-30.2	-30.7	16.0	0.00e+00	0	44	0	26189234176	34	18753
2026-01-22 21:11:13.72	120.43	9.41	-30.6	-31.1	15.9	0.00e+00	0	44	0	26407337984	34	19615
2026-01-22 21:11:16.74	121.05	9.23	-30.4	-30.9	16.0	0.00e+00	0	44	0	26642219008	34	19116
2026-01-22 21:11:19.77	121.66	9.06	-30.3	-30.8	15.9	0.00e+00	0	44	0	26860322816	34	19018
2026-01-22 21:11:22.79	122.26	8.88	-30.6	-31.0	15.9	0.00e+00	0	44	0	27095203840	34	19491
2026-01-22 21:11:25.82	122.85	8.70	-30.6	-31.1	15.9	0.00e+00	0	44	0	27321696256	34	19602
2026-01-22 21:11:28.85	123.43	8.52	-30.7	-31.2	15.9	0.00e+00	0	44	0	27548188672	36	17696
2026-01-22 21:11:31.88	124.01	8.34	-30.9	-31.3	15.8	0.00e+00	0	44	0	27774681088	36	17966
2026-01-22 21:11:34.90	124.57	8.16	-30.8	-31.3	15.8	0.00e+00	0	44	0	28001173504	36	17815
2026-01-22 21:11:37.93	125.13	7.98	-30.8	-31.3	15.8	0.00e+00	0	44	0	28227665920	36	17950
2026-01-22 21:11:40.96	125.68	7.80	-31.0	-31.5	15.8	0.00e+00	0	44	0	28454158336	36	18258
2026-01-22 21:11:43.98	126.22	7.62	-31.0	-31.5	15.7	0.00e+00	0	44	0	28680650752	36	18286
2026-01-22 21:11:47.01	126.75	7.43	-31.1	-31.6	15.7	0.00e+00	0	44	0	28907143168	36	18458
2026-01-22 21:11:50.03	127.27	7.25	-31.3	-31.8	15.6	0.00e+00	0	44	0	29133635584	36	18934
2026-01-22 21:11:53.06	127.79	7.07	-30.9	-31.4	15.7	0.00e+00	0	44	0	29360128000	36	18146
2026-01-22 21:11:56.10	128.30	6.89	-31.5	-31.9	15.5	0.00e+00	0	44	0	29586620416	36	19297
2026-01-22 21:11:59.12	128.80	6.71	-31.2	-31.7	15.6	0.00e+00	0	44	0	29813112832	36	18792
2026-01-22 21:12:02.15	129.30	6.53	-31.5	-32.0	15.5	0.00e+00	0	44	0	30047993856	36	19314
2026-01-22 21:12:05.18	129.78	6.35	-31.5	-31.9	15.5	0.00e+00	0	44	0	30274486272	36	19296
2026-01-22 21:12:08.21	130.26	6.17	-31.6	-32.1	15.5	0.00e+00	0	44	0	30500978688	38	17497
2026-01-22 21:12:11.23	130.74	5.99	-31.7	-32.1	15.4	0.00e+00	0	44	0	30727471104	38	17578
2026-01-22 21:12:14.26	131.20	5.81	-32.2	-32.7	15.2	0.00e+00	0	44	0	30953963520	38	18773
2026-01-22 21:12:17.29	131.66	5.63	-31.8	-32.2	15.4	0.00e+00	0	44	0	31180455936	38	17761
2026-01-22 21:12:20.32	132.11	5.45	-31.5	-31.9	15.5	0.00e+00	0	44	0	31406948352	38	17193
2026-01-22 21:12:23.35	132.56	5.27	-32.0	-32.5	15.2	0.00e+00	0	44	0	31633440768	38	18349
2026-01-22 21:12:26.37	132.99	5.09	-32.1	-32.6	15.2	0.00e+00	0	44	0	31859933184	38	18527
2026-01-22 21:12:29.40	133.43	4.91	-32.1	-32.6	15.2	0.00e+00	0	44	0	32086425600	38	18547
2026-01-22 21:12:32.43	133.85	4.73	-32.3	-32.7	15.1	0.00e+00	0	44	0	32312918016	38	18830
2026-01-22 21:12:35.46	134.27	4.55	-32.0	-32.5	15.2	0.00e+00	0	44	0	32539410432	38	18250
2026-01-22 21:12:38.49	134.68	4.38	-32.3	-32.8	15.0	0.00e+00	0	44	0	32765902848	38	18948
2026-01-22 21:12:41.52	135.09	4.20	-32.3	-32.8	15.0	0.00e+00	0	44	0	32992395264	40	16818
2026-01-22 21:12:44.55	135.49	4.03	-50.0	-52.4	3.6	0.00e+00	0	43	104	33126612992	60	51060
2026-01-22 21:12:47.58	135.89	3.85	-49.9	-52.4	3.6	0.00e+00	0	43	104	33126612992	60	50844
2026-01-22 21:12:50.60	136.28	3.68	-49.9	-52.4	3.6	0.00e+00	0	44	104	33126612992	60	50826
2026-01-22 21:12:53.63	136.66	3.50	-49.8	-52.2	3.6	0.00e+00	0	43	104	33126612992	60	50156
2026-01-22 21:12:56.66	137.04	3.33	-49.8	-52.3	3.6	0.00e+00	0	43	104	33126612992	60	50267
2026-01-22 21:12:59.69	137.41	3.15	-49.7	-52.2	3.6	0.00e+00	0	43	104	33126612992	60	49747
2026-01-22 21:13:02.72	137.78	2.98	-49.8	-52.2	3.6	0.00e+00	0	43	104	33126612992	60	49777
2026-01-22 21:13:05.75	138.14	2.81	-50.5	-53.0	3.6	0.00e+00	0	43	104	33126612992	60	54823
2026-01-22 21:13:08.78	138.50	2.64	-50.8	-53.4	3.6	0.00e+00	0	43	104	33126612992	60	57038
2026-01-22 21:13:11.81	138.85	2.47	-51.1	-53.6	3.6	0.00e+00	0	43	104	33126612992	60	58348
2026-01-22 21:13:14.84	139.20	2.30	-51.2	-53.7	3.6	0.00e+00	0	43	104	33126612992	60	59272
2026-01-22 21:13:17.88	139.54	2.13	-51.3	-53.8	3.6	0.00e+00	0	43	104	33126612992	60	60046
2026-01-22 21:13:20.91	139.88	1.96	-51.4	-53.9	3.6	0.00e+00	0	43	104	33126612992	60	60413
2026-01-22 21:13:23.94	140.21	1.79	-51.4	-53.9	3.6	0.00e+00	0	43	104	33126612992	60	60720
2026-01-22 21:13:26.97	140.54	1.62	-51.3	-53.8	3.6	0.00e+00	0	43	104	33126612992	60	60063
2026-01-22 21:13:30.00	140.86	1.46	-51.4	-53.8	3.6	0.00e+00	0	43	104	33126612992	60	60142
2026-01-22 21:13:33.03	141.18	1.29	-51.3	-53.8	3.6	0.00e+00	0	43	104	33126612992	60	59955
2026-01-22 21:13:36.06	141.50	1.13	-51.4	-53.9	3.6	0.00e+00	0	43	104	33126612992	60	60522
2026-01-22 21:13:39.09	141.81	0.96	-51.4	-53.8	3.6	0.00e+00	0	43	104	33126612992	60	59915
2026-01-22 21:13:42.12	142.12	0.80	-51.4	-53.8	3.6	0.00e+00	0	43	104	33126612992	60	60296
2026-01-22 21:13:45.14	142.42	0.63	-51.4	-53.8	3.6	0.00e+00	0	43	104	33126612992	60	59791
2026-01-22 21:13:48.17	142.72	0.47	-51.4	-53.9	3.6	0.00e+00	0	43	104	33126612992	60	60342
2026-01-22 21:13:51.20	143.01	0.31	-51.4	-53.8	3.6	0.00e+00	0	43	104	33126612992	60	59820
2026-01-22 21:13:54.22	143.30	0.15	-51.3	-53.8	3.6	0.00e+00	0	43	104	33126612992	60	59996

#Closed at: 2026-01-22 21:13:55
#Recorded file [33126 MB]: D:/lorett/data/35029_260123_090357.dat