passes_logs/2026/01/22/R4.6S_Anadyr/R4.6S_Anadyr__20260122_002725_SUOMI_NPP_rec.log

#Pass ID: 20260122_002725_SUOMI NPP
#Satellite: SUOMI NPP
#Configuration: NPP
#almurnet v.1.7.20251203
#Start time: 2026-01-22 00:27:29

#Version: 2.2.20231116
#Station: R4.6S_Anadyr
#Location: 177.4865 lon 64.73178 lat
#TLE: 1 37849U 11061A   26020.95430537  .00000198  00000+0  11470-3 0  9999
#TLE: 2 37849  98.7819 322.9518 0002315  53.3069 306.8320 14.19527555737555

#Time	Az	El	Level	Level2	SNR	BER	BlckErr	Temp	State	Recorded	gain1	gain2
2026-01-22 00:27:29.23	160.34	0.21	-51.8	-65.6	3.3	1.54e+00	0	39	0	0	60	69184
2026-01-22 00:27:33.27	160.38	0.46	-51.2	-66.4	3.6	1.51e+00	0	39	104	0	60	75813
2026-01-22 00:27:37.31	160.41	0.70	-51.1	-66.4	3.6	1.51e+00	0	39	104	0	60	75159
2026-01-22 00:27:41.35	160.45	0.95	-50.8	-66.0	3.6	1.51e+00	0	40	104	0	60	72247
2026-01-22 00:27:45.39	160.48	1.20	-49.9	-65.1	3.6	1.51e+00	0	40	104	0	60	65217
2026-01-22 00:27:49.44	160.52	1.46	-49.7	-64.7	3.6	1.51e+00	0	40	104	0	60	62393
2026-01-22 00:27:53.47	160.55	1.71	-49.6	-64.6	3.6	1.51e+00	0	40	104	0	60	61170
2026-01-22 00:27:57.51	160.59	1.97	-49.6	-64.8	3.6	1.51e+00	0	40	104	0	60	62833
2026-01-22 00:28:01.55	160.63	2.23	-49.6	-64.8	3.6	1.51e+00	0	40	104	0	60	62516
2026-01-22 00:28:05.59	160.66	2.49	-49.6	-64.5	3.6	1.51e+00	0	40	104	0	60	60504
2026-01-22 00:28:09.62	160.70	2.76	-49.6	-64.3	3.6	1.51e+00	0	40	104	0	60	59619
2026-01-22 00:28:13.66	160.74	3.03	-49.6	-64.2	3.6	1.51e+00	0	40	104	0	60	58436
2026-01-22 00:28:17.70	160.78	3.30	-48.9	-56.2	6.7	2.87e-01	0	40	0	2097152	60	23421
2026-01-22 00:28:21.74	160.82	3.57	-47.9	-52.7	10.5	1.96e-02	63	40	0	8388608	60	15540
2026-01-22 00:28:25.78	160.86	3.85	-45.5	-48.1	15.2	1.44e+00	92	40	104	13631488	60	9219
2026-01-22 00:28:29.82	160.90	4.12	-45.8	-48.4	6.0	1.46e+00	0	40	104	13631488	60	9525
2026-01-22 00:28:33.85	160.94	4.40	-44.4	-46.3	17.6	0.00e+00	77	40	0	18874368	60	7506
2026-01-22 00:28:37.88	160.98	4.69	-44.0	-45.7	18.2	0.00e+00	92	40	0	26214400	60	6975
2026-01-22 00:28:41.92	161.02	4.98	-44.3	-46.1	17.8	0.00e+00	90	40	0	33554432	60	7333
2026-01-22 00:28:45.96	161.06	5.27	-44.3	-46.2	17.9	0.00e+00	0	40	0	41943040	60	7340
2026-01-22 00:28:50.00	161.11	5.56	-44.4	-46.3	17.6	0.00e+00	91	40	0	49283072	60	7459
2026-01-22 00:28:54.03	161.15	5.86	-44.5	-46.4	17.5	0.00e+00	77	40	0	56623104	60	7567
2026-01-22 00:28:58.07	161.20	6.16	-43.9	-45.6	18.3	0.00e+00	0	40	0	63963136	60	6882
2026-01-22 00:29:02.11	161.24	6.46	-44.7	-46.7	17.4	0.00e+00	17	40	0	72351744	60	7809
2026-01-22 00:29:06.14	161.29	6.77	-44.0	-45.7	18.4	0.00e+00	92	40	0	79691776	60	6972
2026-01-22 00:29:10.18	161.33	7.08	-43.7	-45.3	18.7	0.00e+00	90	40	0	87031808	60	6686
2026-01-22 00:29:14.21	161.38	7.39	-43.9	-45.6	18.5	0.00e+00	0	40	0	94371840	60	6919
2026-01-22 00:29:18.25	161.43	7.71	-43.7	-45.3	18.9	0.00e+00	91	40	0	101711872	60	6655
2026-01-22 00:29:22.29	161.48	8.03	-43.4	-44.9	19.1	0.00e+00	92	40	0	110100480	60	6378
2026-01-22 00:29:26.33	161.53	8.36	-43.4	-44.9	19.2	0.00e+00	92	40	0	117440512	60	6344
2026-01-22 00:29:30.36	161.58	8.69	-43.5	-45.0	19.3	0.00e+00	0	40	0	124780544	60	6431
2026-01-22 00:29:34.40	161.63	9.03	-43.4	-45.0	19.2	0.00e+00	92	40	0	132120576	60	6396
2026-01-22 00:29:38.44	161.68	9.37	-43.3	-44.8	19.4	0.00e+00	92	40	0	140509184	60	6266
2026-01-22 00:29:42.48	161.73	9.72	-42.9	-44.3	19.9	0.00e+00	0	40	0	147849216	60	5955
2026-01-22 00:29:46.52	161.79	10.07	-42.5	-43.8	20.4	0.00e+00	0	40	0	155189248	58	6279
2026-01-22 00:29:50.56	161.84	10.42	-42.4	-43.7	20.4	0.00e+00	92	40	0	162529280	58	6215
2026-01-22 00:29:54.60	161.90	10.78	-42.1	-43.3	20.8	0.00e+00	92	40	0	169869312	58	5945
2026-01-22 00:29:58.63	161.96	11.15	-41.9	-43.2	20.9	0.00e+00	0	40	0	178257920	58	5831
2026-01-22 00:30:02.68	162.01	11.52	-41.8	-43.0	21.1	0.00e+00	9	40	0	185597952	56	6412
2026-01-22 00:30:06.72	162.07	11.90	-41.3	-42.5	21.5	0.00e+00	91	40	0	192937984	56	6048
2026-01-22 00:30:10.76	162.13	12.28	-41.2	-42.3	21.7	0.00e+00	23	40	0	200278016	56	5900
2026-01-22 00:30:14.80	162.20	12.67	-40.8	-41.9	22.1	0.00e+00	0	40	0	208666624	56	5657
2026-01-22 00:30:18.83	162.26	13.06	-40.5	-41.6	22.3	0.00e+00	92	40	0	216006656	54	6109
2026-01-22 00:30:22.87	162.32	13.46	-40.1	-41.1	22.6	0.00e+00	90	41	0	223346688	54	5810
2026-01-22 00:30:26.91	162.39	13.87	-40.0	-40.9	22.8	0.00e+00	0	40	0	230686720	54	5685
2026-01-22 00:30:30.95	162.46	14.29	-40.1	-41.0	22.7	0.00e+00	0	40	0	238026752	54	5759
2026-01-22 00:30:35.00	162.53	14.71	-39.9	-40.8	23.0	0.00e+00	90	41	0	246415360	52	6296
2026-01-22 00:30:39.03	162.60	15.14	-39.7	-40.6	23.2	0.00e+00	92	40	0	253755392	52	6160
2026-01-22 00:30:43.07	162.67	15.58	-39.5	-40.4	23.2	0.00e+00	0	40	0	261095424	52	6015
2026-01-22 00:30:47.10	162.74	16.02	-39.5	-40.5	23.3	0.00e+00	0	40	0	268435456	52	6044
2026-01-22 00:30:51.15	162.82	16.48	-39.5	-40.4	23.3	0.00e+00	91	41	0	276824064	52	6005
2026-01-22 00:30:55.19	162.90	16.94	-39.4	-40.3	23.5	0.00e+00	92	40	0	284164096	52	5908
2026-01-22 00:30:59.22	162.98	17.41	-39.2	-40.1	23.7	0.00e+00	0	40	0	291504128	52	5774
2026-01-22 00:31:03.26	163.06	17.90	-39.1	-40.0	23.6	0.00e+00	92	41	0	298844160	52	5711
2026-01-22 00:31:07.30	163.14	18.39	-39.2	-40.1	23.5	0.00e+00	75	40	0	306184192	52	5796
2026-01-22 00:31:11.34	163.23	18.89	-39.5	-40.5	23.4	0.00e+00	71	41	0	314572800	52	6037
2026-01-22 00:31:15.38	163.32	19.40	-39.2	-40.1	23.6	0.00e+00	0	41	0	321912832	52	5789
2026-01-22 00:31:19.42	163.41	19.92	-39.7	-40.6	23.3	0.00e+00	92	41	0	329252864	52	6151
2026-01-22 00:31:23.46	163.50	20.45	-39.6	-40.5	23.4	0.00e+00	72	40	0	336592896	52	6073
2026-01-22 00:31:27.50	163.60	21.00	-40.0	-41.0	23.0	0.00e+00	0	41	0	344981504	52	6421
2026-01-22 00:31:31.54	163.70	21.55	-40.6	-41.6	22.6	0.00e+00	0	41	0	352321536	52	6858
2026-01-22 00:31:35.58	163.80	22.12	-40.7	-41.8	22.4	0.00e+00	92	41	0	359661568	54	6248
2026-01-22 00:31:39.62	163.91	22.70	-40.7	-41.7	22.4	0.00e+00	90	41	0	367001600	54	6225
2026-01-22 00:31:43.66	164.02	23.30	-40.9	-41.9	22.3	0.00e+00	0	41	0	374341632	54	6364
2026-01-22 00:31:47.70	164.14	23.91	-41.2	-42.2	22.0	0.00e+00	61	41	0	382730240	54	6612
2026-01-22 00:31:51.74	164.25	24.53	-40.8	-41.9	22.5	0.00e+00	92	41	0	390070272	54	6337
2026-01-22 00:31:55.78	164.38	25.17	-40.8	-41.9	22.3	0.00e+00	92	41	0	397410304	54	6323
2026-01-22 00:31:59.82	164.50	25.82	-41.0	-42.1	22.2	0.00e+00	0	41	0	404750336	54	6486
2026-01-22 00:32:03.86	164.63	26.49	-40.6	-41.6	22.5	0.00e+00	92	41	0	413138944	54	6140
2026-01-22 00:32:07.90	164.77	27.18	-40.8	-41.8	22.5	0.00e+00	91	41	0	420478976	54	6309
2026-01-22 00:32:11.93	164.91	27.88	-41.0	-42.0	22.3	0.00e+00	0	41	0	427819008	54	6406
2026-01-22 00:32:15.97	165.06	28.61	-41.1	-42.1	22.2	0.00e+00	0	41	0	435159040	54	6493
2026-01-22 00:32:20.01	165.21	29.35	-40.7	-41.7	22.5	0.00e+00	90	41	0	442499072	54	6236
2026-01-22 00:32:24.05	165.37	30.11	-40.9	-41.9	22.3	0.00e+00	92	41	0	450887680	54	6390
2026-01-22 00:32:28.09	165.54	30.89	-41.7	-42.8	21.7	0.00e+00	0	41	0	458227712	56	6264
2026-01-22 00:32:32.12	165.72	31.70	-41.6	-42.7	21.8	0.00e+00	0	41	0	465567744	56	6188
2026-01-22 00:32:36.16	165.90	32.52	-42.8	-44.1	20.5	0.00e+00	91	41	0	472907776	58	6484
2026-01-22 00:32:40.20	166.09	33.37	-42.9	-44.2	20.5	0.00e+00	91	41	0	481296384	58	6578
2026-01-22 00:32:44.24	166.29	34.25	-42.6	-43.9	20.7	0.00e+00	0	41	0	488636416	58	6344
2026-01-22 00:32:48.27	166.51	35.14	-41.6	-42.7	21.8	0.00e+00	92	41	0	495976448	56	6227
2026-01-22 00:32:52.31	166.73	36.07	-40.7	-41.8	22.7	0.00e+00	92	41	0	503316480	56	5574
2026-01-22 00:32:56.35	166.97	37.02	-39.8	-40.7	23.3	0.00e+00	0	41	0	510656512	54	5564
2026-01-22 00:33:00.39	167.22	38.00	-38.8	-39.7	24.2	0.00e+00	0	41	0	519045120	50	6187
2026-01-22 00:33:04.43	167.48	39.01	-38.8	-39.6	24.2	0.00e+00	90	41	0	526385152	50	6146
2026-01-22 00:33:08.47	167.76	40.04	-39.2	-40.1	23.7	0.00e+00	90	41	0	533725184	50	6484
2026-01-22 00:33:12.51	168.06	41.11	-40.2	-41.1	23.0	0.00e+00	33	41	0	541065216	52	6500
2026-01-22 00:33:16.55	168.38	42.21	-40.9	-41.9	22.6	0.00e+00	0	41	0	549453824	54	6338
2026-01-22 00:33:20.58	168.72	43.34	-39.9	-40.9	23.2	0.00e+00	92	41	0	556793856	54	5633
2026-01-22 00:33:24.63	169.08	44.51	-40.2	-41.1	23.0	0.00e+00	92	41	0	564133888	52	6530
2026-01-22 00:33:28.67	169.47	45.71	-42.3	-43.6	20.9	0.00e+00	0	41	0	571473920	56	6870
2026-01-22 00:33:32.71	169.89	46.94	-43.6	-45.1	19.4	0.00e+00	60	41	0	578813952	60	6532
2026-01-22 00:33:36.75	170.35	48.21	-42.6	-43.8	21.0	0.00e+00	92	41	0	587202560	60	5611
2026-01-22 00:33:40.79	170.84	49.52	-40.6	-41.6	22.8	0.00e+00	92	41	0	594542592	54	6172
2026-01-22 00:33:44.83	171.37	50.87	-38.3	-39.1	24.4	0.00e+00	0	41	0	601882624	50	5819
2026-01-22 00:33:48.86	171.96	52.24	-39.4	-40.3	23.7	0.00e+00	90	41	0	609222656	50	6638
2026-01-22 00:33:52.90	172.60	53.66	-38.5	-39.3	24.4	0.00e+00	92	41	0	617611264	50	5964
2026-01-22 00:33:56.94	173.31	55.11	-37.9	-38.7	24.9	0.00e+00	0	41	0	624951296	50	5540
2026-01-22 00:34:00.98	174.09	56.60	-37.2	-38.0	25.1	0.00e+00	0	41	0	632291328	48	5732
2026-01-22 00:34:05.02	174.96	58.13	-38.0	-38.9	24.8	0.00e+00	63	41	0	639631360	48	6320
2026-01-22 00:34:09.06	175.93	59.69	-38.7	-39.5	24.3	0.00e+00	92	41	0	646971392	48	6839
2026-01-22 00:34:13.10	177.03	61.28	-37.9	-38.7	24.8	0.00e+00	0	41	0	655360000	48	6196
2026-01-22 00:34:17.13	178.28	62.90	-37.6	-38.5	25.0	0.00e+00	0	41	0	662700032	48	6036
2026-01-22 00:34:21.17	179.71	64.54	-38.9	-39.8	24.2	0.00e+00	79	41	0	670040064	50	6276
2026-01-22 00:34:25.21	181.35	66.20	-38.7	-39.5	24.2	0.00e+00	88	41	0	677380096	50	6082
2026-01-22 00:34:29.25	183.28	67.88	-41.7	-42.8	22.1	0.00e+00	0	41	0	685768704	56	6291
2026-01-22 00:34:33.29	185.54	69.57	-42.3	-43.5	21.5	0.00e+00	72	41	0	693108736	56	6810
2026-01-22 00:34:37.33	188.24	71.25	-44.1	-45.5	19.8	0.00e+00	92	41	0	700448768	60	6826
2026-01-22 00:34:41.37	191.51	72.91	-41.2	-42.2	22.4	0.00e+00	0	41	0	707788800	56	5854
2026-01-22 00:34:45.41	195.50	74.53	-41.3	-42.3	22.2	0.00e+00	0	41	0	715128832	56	5927
2026-01-22 00:34:49.46	200.45	76.08	-42.2	-43.3	21.8	0.00e+00	73	41	0	723517440	56	6650
2026-01-22 00:34:53.50	206.61	77.52	-41.5	-42.5	22.5	0.00e+00	91	41	0	730857472	56	6089
2026-01-22 00:34:57.53	214.31	78.80	-42.1	-43.2	21.6	0.00e+00	0	41	0	738197504	56	6585
2026-01-22 00:35:01.57	223.82	79.84	-42.3	-43.5	21.4	0.00e+00	9	41	0	745537536	56	6824
2026-01-22 00:35:05.61	235.16	80.55	-43.3	-44.7	20.4	0.00e+00	63	41	0	753926144	58	6943
2026-01-22 00:35:09.65	247.78	80.85	-42.7	-43.9	21.1	0.00e+00	92	41	0	761266176	58	6377
2026-01-22 00:35:13.69	260.60	80.69	-43.1	-44.4	20.9	0.00e+00	0	41	0	768606208	58	6700
2026-01-22 00:35:17.73	272.45	80.11	-43.0	-44.2	20.8	0.00e+00	92	41	0	775946240	60	5851
2026-01-22 00:35:21.77	282.58	79.17	-43.9	-45.3	20.2	0.00e+00	90	41	0	783286272	60	6649
2026-01-22 00:35:25.80	290.84	77.97	-43.6	-45.0	20.2	0.00e+00	0	41	0	791674880	58	7220
2026-01-22 00:35:29.84	297.48	76.58	-39.8	-40.6	23.9	0.00e+00	0	41	0	799014912	54	5472
2026-01-22 00:35:33.88	302.79	75.06	-42.4	-43.6	21.6	0.00e+00	92	41	0	806354944	56	6901
2026-01-22 00:35:37.93	307.08	73.46	-41.2	-42.1	23.1	0.00e+00	92	41	0	813694976	56	5811
2026-01-22 00:35:41.97	310.56	71.81	-43.9	-45.2	20.2	0.00e+00	0	41	0	822083584	58	7411
2026-01-22 00:35:46.01	313.43	70.14	-44.1	-45.6	19.4	0.00e+00	37	41	0	829423616	60	6893
2026-01-22 00:35:50.04	315.82	68.46	-46.0	-48.1	17.5	0.00e+00	37	41	0	836763648	60	9158
2026-01-22 00:35:54.08	317.85	66.78	-39.5	-40.4	23.9	0.00e+00	75	41	0	844103680	54	5331
2026-01-22 00:35:58.12	319.58	65.12	-40.0	-40.9	23.5	0.00e+00	0	41	0	851443712	52	6361
2026-01-22 00:36:02.16	321.08	63.47	-40.5	-41.5	23.0	0.00e+00	92	41	0	859832320	52	6817
2026-01-22 00:36:06.20	322.38	61.85	-41.2	-42.2	22.9	0.00e+00	92	41	0	867172352	54	6559
2026-01-22 00:36:10.24	323.53	60.25	-39.5	-40.3	24.4	0.00e+00	0	41	0	874512384	52	5950
2026-01-22 00:36:14.29	324.54	58.68	-43.4	-44.9	20.6	0.00e+00	0	41	0	881852416	58	7148
2026-01-22 00:36:18.33	325.45	57.15	-41.1	-42.1	22.8	0.00e+00	91	41	0	890241024	54	6537
2026-01-22 00:36:22.36	326.26	55.65	-38.8	-39.6	24.5	0.00e+00	92	41	0	897581056	52	5493
2026-01-22 00:36:26.66	327.03	54.10	-39.9	-40.9	23.5	0.00e+00	0	41	0	904921088	50	7133
2026-01-22 00:36:30.70	327.69	52.68	-38.7	-39.5	24.4	0.00e+00	0	41	0	912261120	50	6100
2026-01-22 00:36:34.73	328.29	51.29	-41.3	-42.4	22.1	0.00e+00	69	41	0	919601152	54	6744
2026-01-22 00:36:38.77	328.84	49.94	-42.0	-43.2	21.9	0.00e+00	92	41	0	927989760	56	6566
2026-01-22 00:36:42.81	329.34	48.63	-42.7	-43.9	21.1	0.00e+00	0	41	0	935329792	58	6379
2026-01-22 00:36:46.85	329.81	47.36	-41.5	-42.6	22.2	0.00e+00	30	41	0	942669824	56	6137
2026-01-22 00:36:50.89	330.24	46.12	-46.0	-48.6	16.6	0.00e+00	80	41	0	950009856	60	9734
2026-01-22 00:36:54.93	330.64	44.91	-41.3	-42.3	22.4	0.00e+00	0	41	0	958398464	56	5940
2026-01-22 00:36:58.97	331.01	43.74	-41.5	-42.7	22.0	0.00e+00	0	41	0	965738496	54	6954
2026-01-22 00:37:03.00	331.35	42.60	-42.6	-43.9	21.3	0.00e+00	92	41	0	973078528	60	5675
2026-01-22 00:37:07.05	331.68	41.50	-38.4	-39.2	24.8	0.00e+00	92	41	0	980418560	50	5831
2026-01-22 00:37:11.08	331.98	40.43	-41.0	-42.0	22.6	0.00e+00	0	41	0	987758592	54	6463
2026-01-22 00:37:15.12	332.27	39.38	-40.2	-41.1	23.4	0.00e+00	0	41	0	996147200	52	6515
2026-01-22 00:37:19.16	332.54	38.37	-41.1	-42.1	22.5	0.00e+00	63	41	0	1003487232	54	6521
2026-01-22 00:37:23.20	332.79	37.39	-41.5	-42.6	21.9	0.00e+00	92	41	0	1010827264	54	6878
2026-01-22 00:37:27.24	333.03	36.43	-43.7	-45.3	19.6	0.00e+00	0	41	0	1018167296	58	7473
2026-01-22 00:37:31.28	333.26	35.51	-42.2	-43.4	21.3	0.00e+00	31	41	0	1026555904	58	6004
2026-01-22 00:37:35.32	333.48	34.60	-39.4	-40.3	23.9	0.00e+00	35	41	0	1033895936	52	5905
2026-01-22 00:37:39.35	333.68	33.73	-43.0	-44.4	20.5	0.00e+00	0	41	0	1041235968	58	6698
2026-01-22 00:37:43.38	333.88	32.88	-44.6	-46.3	18.9	0.00e+00	0	41	0	1048576000	60	7456
2026-01-22 00:37:47.42	334.07	32.05	-43.1	-44.4	20.6	0.00e+00	90	41	0	1055916032	58	6734
2026-01-22 00:37:51.46	334.25	31.24	-41.2	-42.2	22.3	0.00e+00	92	41	0	1064304640	56	5891
2026-01-22 00:37:55.50	334.42	30.45	-40.8	-41.8	22.9	0.00e+00	0	41	0	1071644672	56	5590
2026-01-22 00:37:59.54	334.58	29.69	-40.7	-41.6	22.9	0.00e+00	0	41	0	1078984704	54	6143
2026-01-22 00:38:03.57	334.74	28.94	-42.2	-43.3	21.3	0.00e+00	61	41	0	1086324736	56	6670
2026-01-22 00:38:07.61	334.89	28.22	-43.3	-44.7	20.4	0.00e+00	50	41	0	1094713344	58	6945
2026-01-22 00:38:11.65	335.03	27.51	-43.3	-44.7	20.5	0.00e+00	0	41	0	1102053376	60	6183
2026-01-22 00:38:15.69	335.17	26.82	-41.4	-42.5	22.1	0.00e+00	17	41	0	1109393408	56	6085
2026-01-22 00:38:19.73	335.31	26.15	-40.1	-41.1	23.2	0.00e+00	54	41	0	1116733440	54	5771
2026-01-22 00:38:23.77	335.44	25.49	-39.6	-40.5	23.8	0.00e+00	0	41	0	1124073472	52	6064
2026-01-22 00:38:27.81	335.56	24.85	-39.0	-39.9	24.1	0.00e+00	0	41	0	1132462080	52	5632
2026-01-22 00:38:31.84	335.68	24.22	-38.9	-39.8	24.5	0.00e+00	59	41	0	1139802112	52	5586
2026-01-22 00:38:35.88	335.80	23.61	-38.6	-39.4	24.5	0.00e+00	86	41	0	1147142144	50	5994
2026-01-22 00:38:39.91	335.91	23.02	-38.8	-39.6	24.2	0.00e+00	0	41	0	1154482176	50	6154
2026-01-22 00:38:43.95	336.02	22.43	-39.6	-40.5	23.6	0.00e+00	0	41	0	1162870784	52	6077
2026-01-22 00:38:47.99	336.13	21.86	-39.7	-40.6	23.6	0.00e+00	92	42	0	1170210816	52	6125
2026-01-22 00:38:52.03	336.23	21.30	-39.3	-40.1	23.9	0.00e+00	0	41	0	1177550848	52	5798
2026-01-22 00:38:56.06	336.33	20.76	-38.9	-39.7	24.2	0.00e+00	0	41	0	1184890880	50	6242
2026-01-22 00:39:00.11	336.43	20.22	-38.8	-39.6	24.2	0.00e+00	0	41	0	1192230912	50	6148
2026-01-22 00:39:04.15	336.52	19.70	-39.0	-39.8	23.8	0.00e+00	92	41	0	1200619520	50	6317
2026-01-22 00:39:08.18	336.62	19.19	-39.0	-39.9	23.8	0.00e+00	0	41	0	1207959552	50	6349
2026-01-22 00:39:12.22	336.71	18.69	-38.5	-39.4	24.1	0.00e+00	0	41	0	1215299584	50	5979
2026-01-22 00:39:16.26	336.79	18.20	-38.5	-39.4	24.2	0.00e+00	14	41	0	1222639616	50	5968
2026-01-22 00:39:20.29	336.88	17.71	-38.8	-39.7	23.6	0.00e+00	37	41	0	1231028224	50	6181
2026-01-22 00:39:24.34	336.96	17.24	-39.3	-40.2	23.6	0.00e+00	0	41	0	1238368256	50	6580
2026-01-22 00:39:28.37	337.04	16.78	-40.0	-40.9	23.2	0.00e+00	0	41	0	1245708288	52	6374
2026-01-22 00:39:32.40	337.12	16.32	-40.4	-41.4	22.8	0.00e+00	42	41	0	1253048320	52	6710
2026-01-22 00:39:36.44	337.20	15.87	-40.9	-42.0	22.3	0.00e+00	0	41	0	1260388352	54	6392
2026-01-22 00:39:40.48	337.27	15.44	-40.8	-41.8	22.4	0.00e+00	0	41	0	1268776960	54	6271
2026-01-22 00:39:44.52	337.35	15.00	-41.0	-42.1	22.1	0.00e+00	0	41	0	1276116992	54	6485
2026-01-22 00:39:48.56	337.42	14.58	-41.3	-42.3	21.9	0.00e+00	72	41	0	1283457024	54	6691
2026-01-22 00:39:52.60	337.49	14.16	-41.1	-42.2	22.0	0.00e+00	0	41	0	1290797056	54	6580
2026-01-22 00:39:56.64	337.56	13.75	-41.1	-42.2	22.0	0.00e+00	0	41	0	1298137088	54	6540
2026-01-22 00:40:00.68	337.62	13.35	-41.1	-42.1	22.0	0.00e+00	0	41	0	1306525696	54	6528
2026-01-22 00:40:04.72	337.69	12.95	-41.1	-42.2	21.9	0.00e+00	80	41	0	1313865728	54	6548
2026-01-22 00:40:08.76	337.76	12.56	-41.0	-42.1	22.0	0.00e+00	0	41	0	1321205760	54	6531
2026-01-22 00:40:12.80	337.82	12.18	-41.3	-42.4	21.8	0.00e+00	0	41	0	1328545792	54	6731
2026-01-22 00:40:16.84	337.88	11.80	-41.2	-42.4	21.8	0.00e+00	46	41	0	1336934400	54	6720
2026-01-22 00:40:20.87	337.94	11.43	-41.5	-42.7	21.5	0.00e+00	0	41	0	1344274432	54	6934
2026-01-22 00:40:24.91	338.00	11.06	-41.2	-42.4	21.7	0.00e+00	0	41	0	1351614464	54	6711
2026-01-22 00:40:28.94	338.06	10.70	-41.4	-42.6	21.5	0.00e+00	0	41	0	1358954496	54	6891
2026-01-22 00:40:32.99	338.12	10.35	-40.9	-42.0	22.0	0.00e+00	58	41	0	1366294528	54	6445
2026-01-22 00:40:37.02	338.18	10.00	-41.2	-42.4	21.6	0.00e+00	0	41	0	1374683136	54	6698
2026-01-22 00:40:41.07	338.24	9.65	-41.3	-42.5	21.6	0.00e+00	0	41	0	1382023168	54	6820
2026-01-22 00:40:45.10	338.29	9.31	-41.2	-42.4	21.9	0.00e+00	6	41	0	1389363200	56	5965
2026-01-22 00:40:49.14	338.35	8.97	-40.7	-41.8	22.1	0.00e+00	90	41	0	1396703232	54	6291
2026-01-22 00:40:53.18	338.40	8.64	-41.0	-42.1	21.9	0.00e+00	0	41	0	1405091840	54	6481
2026-01-22 00:40:57.22	338.45	8.31	-40.6	-41.7	22.2	0.00e+00	0	41	0	1412431872	54	6194
2026-01-22 00:41:01.25	338.51	7.99	-40.6	-41.7	22.1	0.00e+00	57	41	0	1419771904	54	6207
2026-01-22 00:41:05.29	338.56	7.67	-40.5	-41.6	22.2	0.00e+00	0	41	0	1427111936	54	6149
2026-01-22 00:41:09.33	338.61	7.36	-41.0	-42.2	21.8	0.00e+00	0	41	0	1434451968	54	6548
2026-01-22 00:41:13.37	338.66	7.04	-40.7	-41.8	22.0	0.00e+00	0	41	0	1442840576	54	6251
2026-01-22 00:41:17.41	338.71	6.74	-40.4	-41.5	22.3	0.00e+00	74	41	0	1450180608	54	6054
2026-01-22 00:41:21.44	338.76	6.43	-40.4	-41.5	22.1	0.00e+00	31	41	0	1457520640	54	6035
2026-01-22 00:41:25.48	338.80	6.13	-40.6	-41.7	21.8	0.00e+00	0	41	0	1464860672	52	7004
2026-01-22 00:41:29.51	338.85	5.84	-40.7	-41.9	21.5	0.00e+00	0	41	0	1473249280	54	6347
2026-01-22 00:41:33.55	338.90	5.54	-40.8	-42.0	21.1	0.00e+00	84	41	0	1480589312	54	6443
2026-01-22 00:41:37.59	338.95	5.25	-41.6	-43.0	20.0	0.00e+00	0	41	0	1487929344	56	6461
2026-01-22 00:41:41.63	338.99	4.96	-43.6	-46.0	16.5	0.00e+00	0	41	0	1495269376	58	8060
2026-01-22 00:41:45.67	339.04	4.68	-45.0	-48.7	13.1	5.30e-06	45	41	0	1502609408	60	9857
2026-01-22 00:41:49.70	339.08	4.40	-45.6	-51.4	9.3	7.69e-03	88	41	0	1510998016	60	13467
2026-01-22 00:41:53.74	339.13	4.12	-46.2	-55.8	4.4	6.15e-01	0	41	0	1518338048	60	22227
2026-01-22 00:41:57.78	339.17	3.84	-46.1	-58.9	3.6	1.47e+00	0	41	104	1522532352	60	31793
2026-01-22 00:42:01.82	339.21	3.57	-46.2	-61.1	3.6	1.51e+00	0	41	104	1522532352	60	40977
2026-01-22 00:42:05.85	339.26	3.30	-46.3	-61.6	3.6	1.51e+00	0	41	104	1522532352	60	43248
2026-01-22 00:42:09.89	339.30	3.03	-46.3	-61.6	3.6	1.51e+00	0	41	104	1522532352	60	43498
2026-01-22 00:42:13.93	339.34	2.77	-50.6	-65.9	3.6	1.51e+00	0	41	104	1522532352	60	71027
2026-01-22 00:42:17.97	339.38	2.50	-51.1	-66.3	3.6	1.51e+00	0	41	104	1522532352	60	74558
2026-01-22 00:42:22.01	339.42	2.24	-51.2	-66.4	3.6	1.51e+00	0	41	104	1522532352	60	75665
2026-01-22 00:42:26.05	339.46	1.99	-51.1	-66.5	3.6	1.51e+00	0	41	104	1522532352	60	76682
2026-01-22 00:42:30.08	339.50	1.73	-51.2	-66.5	3.6	1.51e+00	0	41	104	1522532352	60	76003
2026-01-22 00:42:34.12	339.54	1.48	-51.3	-66.5	3.6	1.51e+00	0	41	104	1522532352	60	76508
2026-01-22 00:42:38.16	339.58	1.23	-51.4	-66.6	3.6	1.51e+00	0	41	104	1522532352	60	77167
2026-01-22 00:42:42.20	339.62	0.98	-51.3	-66.5	3.6	1.51e+00	0	41	104	1522532352	60	76709
2026-01-22 00:42:46.24	339.66	0.73	-51.2	-66.5	3.6	1.51e+00	0	41	104	1522532352	60	75971
2026-01-22 00:42:50.28	339.70	0.49	-51.3	-66.5	3.6	1.51e+00	0	41	104	1522532352	60	76382
2026-01-22 00:42:54.32	339.74	0.24	-51.3	-66.6	3.6	1.51e+00	0	41	104	1522532352	60	76931
2026-01-22 00:42:58.35	339.78	0.00	-51.4	-66.6	3.6	1.51e+00	0	41	104	1522532352	60	77518

#Closed at: 2026-01-22 00:43:00
#Recorded file [1522 MB]: D:/lorett/data/35029_260122_122729.dat