passes_logs/2026/01/22/R4.6S_Anadyr/R4.6S_Anadyr__20260122_201124_FENGYUN_3D_rec.log

#Pass ID: 20260122_201124_FENGYUN 3D
#Satellite: FENGYUN 3D
#Configuration: FENGYUN 3D
#almurnet v.1.7.20251203
#Start time: 2026-01-22 20:11:26

#Version: 2.2.20231116
#Station: R4.6S_Anadyr
#Location: 177.4865 lon 64.73178 lat
#TLE: 1 43010U 17072A   26021.48744220  .00000253  00000+0  14133-3 0  9991
#TLE: 2 43010  98.9948 353.4037 0002485  97.2578 262.8880 14.19697766424177

#Time	Az	El	Level	Level2	SNR	BER	BlckErr	Temp	State	Recorded	gain1	gain2
2026-01-22 20:11:26.85	37.92	0.11	-51.8	-69.5	3.5	3.02e+01	0	39	0	0	60	114579
2026-01-22 20:11:30.89	37.65	0.32	-51.4	-63.6	3.6	8.46e-01	0	40	104	0	60	54421
2026-01-22 20:11:34.93	37.37	0.53	-51.3	-63.5	3.6	8.44e-01	0	40	104	0	60	54088
2026-01-22 20:11:38.97	37.09	0.74	-51.2	-63.4	3.6	8.45e-01	0	40	104	0	60	53177
2026-01-22 20:11:43.01	36.81	0.95	-51.0	-63.2	3.6	8.46e-01	0	40	104	0	60	52228
2026-01-22 20:11:47.05	36.52	1.16	-50.8	-62.9	3.6	8.47e-01	0	40	104	0	60	50653
2026-01-22 20:11:51.09	36.23	1.37	-50.3	-62.4	3.6	8.46e-01	0	40	104	0	60	47551
2026-01-22 20:11:55.13	35.93	1.58	-49.7	-61.7	3.6	8.45e-01	0	40	104	0	60	44201
2026-01-22 20:11:59.17	35.63	1.79	-49.6	-61.6	3.6	8.47e-01	0	40	104	0	60	43541
2026-01-22 20:12:03.21	35.32	2.01	-49.7	-61.8	3.6	8.45e-01	0	40	104	0	60	44315
2026-01-22 20:12:07.25	35.01	2.22	-49.6	-61.3	3.6	8.45e-01	0	40	104	0	60	41797
2026-01-22 20:12:11.29	34.69	2.44	-49.6	-61.6	3.6	8.45e-01	0	40	104	0	60	43399
2026-01-22 20:12:15.34	34.37	2.65	-49.7	-61.6	3.6	8.45e-01	0	41	104	0	60	43240
2026-01-22 20:12:19.38	34.05	2.87	-49.5	-60.1	3.6	8.44e-01	0	41	104	0	60	36462
2026-01-22 20:12:23.42	33.72	3.09	-49.3	-58.8	3.7	8.45e-01	0	41	104	0	60	31513
2026-01-22 20:12:27.46	33.38	3.30	-49.3	-57.9	5.0	8.45e-01	0	41	104	6291456	60	28423
2026-01-22 20:12:31.50	33.04	3.52	-41.3	-42.4	17.7	0.00e+00	0	41	104	12582912	56	6020
2026-01-22 20:12:35.54	32.69	3.74	-41.4	-42.5	18.3	0.00e+00	0	41	0	34603008	54	6822
2026-01-22 20:12:39.58	32.34	3.96	-41.2	-42.3	18.7	0.00e+00	0	41	0	57671680	56	5943
2026-01-22 20:12:43.63	31.98	4.19	-39.4	-40.3	20.4	0.00e+00	0	41	0	79691776	52	5964
2026-01-22 20:12:47.67	31.62	4.41	-38.6	-39.5	21.5	0.00e+00	0	41	0	102760448	50	6052
2026-01-22 20:12:51.71	31.25	4.63	-38.4	-39.2	21.8	0.00e+00	0	41	0	125829120	50	5862
2026-01-22 20:12:55.76	30.87	4.86	-38.8	-39.7	21.6	0.00e+00	0	41	0	147849216	50	6178
2026-01-22 20:12:59.80	30.49	5.08	-38.4	-39.3	21.9	0.00e+00	0	41	0	170917888	50	5903
2026-01-22 20:13:03.84	30.10	5.31	-38.1	-38.9	22.2	0.00e+00	0	41	0	193986560	50	5661
2026-01-22 20:13:07.88	29.71	5.53	-38.3	-39.1	22.0	0.00e+00	0	41	0	216006656	50	5801
2026-01-22 20:13:11.93	29.31	5.76	-37.9	-38.7	22.4	0.00e+00	0	41	0	239075328	50	5546
2026-01-22 20:13:15.97	28.90	5.98	-38.2	-39.0	22.2	0.00e+00	0	41	0	262144000	50	5757
2026-01-22 20:13:20.01	28.49	6.21	-38.2	-39.0	22.1	0.00e+00	0	41	0	284164096	50	5750
2026-01-22 20:13:24.05	28.07	6.44	-38.1	-38.9	22.4	0.00e+00	0	41	0	307232768	50	5675
2026-01-22 20:13:28.09	27.64	6.67	-37.9	-38.7	22.6	0.00e+00	0	41	0	330301440	50	5507
2026-01-22 20:13:32.13	27.21	6.90	-37.9	-38.7	22.6	0.00e+00	0	41	0	352321536	48	6211
2026-01-22 20:13:36.17	26.77	7.13	-37.7	-38.5	22.7	0.00e+00	0	41	0	375390208	48	6047
2026-01-22 20:13:40.21	26.32	7.36	-37.3	-38.0	23.3	0.00e+00	0	41	0	398458880	48	5733
2026-01-22 20:13:44.25	25.87	7.59	-37.2	-37.9	23.3	0.00e+00	0	41	0	420478976	48	5664
2026-01-22 20:13:48.29	25.40	7.82	-37.1	-37.8	23.4	0.00e+00	0	41	0	443547648	48	5606
2026-01-22 20:13:52.33	24.93	8.05	-37.2	-38.0	23.3	0.00e+00	0	41	0	466616320	48	5707
2026-01-22 20:13:56.37	24.46	8.28	-37.1	-37.9	23.5	0.00e+00	0	41	0	489684992	48	5648
2026-01-22 20:14:00.42	23.97	8.51	-37.2	-37.9	23.4	0.00e+00	0	41	0	511705088	48	5652
2026-01-22 20:14:04.46	23.48	8.74	-37.0	-37.7	23.7	0.00e+00	0	41	0	534773760	48	5539
2026-01-22 20:14:08.50	22.97	8.98	-36.8	-37.6	23.8	0.00e+00	0	41	0	556793856	48	5458
2026-01-22 20:14:12.54	22.46	9.21	-36.9	-37.6	23.7	0.00e+00	0	41	0	579862528	48	5477
2026-01-22 20:14:16.59	21.94	9.44	-36.7	-37.5	23.9	0.00e+00	0	41	0	602931200	48	5393
2026-01-22 20:14:20.63	21.42	9.67	-36.4	-37.1	24.2	0.00e+00	0	41	0	625999872	46	5818
2026-01-22 20:14:24.67	20.88	9.90	-36.2	-36.9	24.4	0.00e+00	0	41	0	648019968	46	5687
2026-01-22 20:14:28.71	20.34	10.13	-36.8	-37.6	23.8	0.00e+00	0	41	0	671088640	46	6135
2026-01-22 20:14:32.75	19.78	10.36	-36.5	-37.2	24.1	0.00e+00	0	41	0	694157312	46	5896
2026-01-22 20:14:36.80	19.22	10.59	-36.6	-37.3	24.0	0.00e+00	0	41	0	716177408	46	5963
2026-01-22 20:14:40.84	18.65	10.82	-36.4	-37.2	24.2	0.00e+00	0	41	0	739246080	46	5842
2026-01-22 20:14:44.88	18.07	11.05	-36.4	-37.1	24.2	0.00e+00	0	41	0	762314752	46	5800
2026-01-22 20:14:48.92	17.48	11.28	-36.3	-37.0	24.4	0.00e+00	0	41	0	784334848	46	5745
2026-01-22 20:14:52.96	16.88	11.50	-35.9	-36.6	24.7	0.00e+00	0	41	0	807403520	46	5495
2026-01-22 20:14:57.00	16.27	11.73	-35.9	-36.6	24.7	0.00e+00	0	41	0	830472192	46	5495
2026-01-22 20:15:01.02	15.65	11.95	-36.1	-36.8	24.6	0.00e+00	0	41	0	852492288	46	5611
2026-01-22 20:15:05.05	15.02	12.18	-35.8	-36.5	24.8	0.00e+00	0	41	0	875560960	46	5435
2026-01-22 20:15:09.09	14.39	12.40	-35.9	-36.6	24.9	0.00e+00	0	41	0	898629632	46	5456
2026-01-22 20:15:13.13	13.74	12.62	-35.7	-36.4	25.0	0.00e+00	0	41	0	920649728	44	5992
2026-01-22 20:15:17.18	13.08	12.84	-35.9	-36.6	24.8	0.00e+00	0	41	0	943718400	44	6141
2026-01-22 20:15:21.22	12.41	13.05	-35.7	-36.4	25.0	0.00e+00	0	41	0	966787072	44	6012
2026-01-22 20:15:25.26	11.73	13.27	-35.5	-36.2	25.2	0.00e+00	0	41	0	988807168	44	5852
2026-01-22 20:15:29.30	11.05	13.48	-35.1	-35.8	25.5	0.00e+00	0	41	0	1011875840	44	5606
2026-01-22 20:15:33.34	10.35	13.69	-35.4	-36.0	25.2	0.00e+00	0	41	0	1034944512	44	5761
2026-01-22 20:15:37.38	9.64	13.90	-35.1	-35.8	25.5	0.00e+00	0	41	0	1056964608	44	5597
2026-01-22 20:15:41.42	8.92	14.10	-35.5	-36.1	25.2	0.00e+00	0	41	0	1080033280	44	5806
2026-01-22 20:15:45.47	8.19	14.31	-35.2	-35.9	25.4	0.00e+00	0	41	0	1103101952	44	5687
2026-01-22 20:15:49.51	7.45	14.51	-35.2	-35.9	25.4	0.00e+00	0	41	0	1126170624	44	5664
2026-01-22 20:15:53.55	6.71	14.70	-35.1	-35.7	25.7	0.00e+00	0	41	0	1148190720	44	5543
2026-01-22 20:15:57.59	5.95	14.89	-35.0	-35.6	25.7	0.00e+00	0	41	0	1171259392	44	5496
2026-01-22 20:16:01.64	5.18	15.08	-35.2	-35.8	25.5	0.00e+00	0	41	0	1193279488	44	5621
2026-01-22 20:16:05.68	4.40	15.27	-35.1	-35.8	25.6	0.00e+00	0	41	0	1216348160	44	5591
2026-01-22 20:16:09.72	3.61	15.45	-35.1	-35.8	25.6	0.00e+00	0	41	0	1239416832	44	5574
2026-01-22 20:16:13.76	2.81	15.62	-35.0	-35.6	25.8	0.00e+00	0	41	0	1262485504	44	5478
2026-01-22 20:16:17.80	2.01	15.80	-34.7	-35.3	26.0	0.00e+00	0	41	0	1284505600	42	5953
2026-01-22 20:16:21.84	1.19	15.96	-34.5	-35.2	26.2	0.00e+00	0	41	0	1307574272	42	5847
2026-01-22 20:16:25.89	0.36	16.13	-34.4	-35.1	26.2	0.00e+00	0	41	0	1330642944	42	5777
2026-01-22 20:16:29.92	359.53	16.28	-34.4	-35.0	26.3	0.00e+00	0	41	0	1352663040	42	5760
2026-01-22 20:16:33.97	358.69	16.44	-34.3	-35.0	26.4	0.00e+00	0	41	0	1375731712	42	5713
2026-01-22 20:16:38.00	357.84	16.58	-34.3	-35.0	26.4	0.00e+00	0	41	0	1397751808	42	5730
2026-01-22 20:16:42.04	356.98	16.72	-33.9	-34.5	26.7	0.00e+00	0	41	0	1420820480	42	5385
2026-01-22 20:16:46.08	356.11	16.86	-34.0	-34.7	26.6	0.00e+00	0	41	0	1443889152	42	5511
2026-01-22 20:16:50.12	355.23	16.99	-34.3	-35.0	26.3	0.00e+00	0	41	0	1466957824	42	5707
2026-01-22 20:16:54.17	354.35	17.11	-34.4	-35.1	26.2	0.00e+00	0	41	0	1488977920	42	5775
2026-01-22 20:16:58.21	353.45	17.23	-34.3	-34.9	26.4	0.00e+00	0	42	0	1512046592	42	5687
2026-01-22 20:17:02.25	352.56	17.34	-34.5	-35.2	26.2	0.00e+00	0	41	0	1535115264	42	5868
2026-01-22 20:17:06.29	351.65	17.44	-34.3	-35.0	26.3	0.00e+00	0	41	0	1557135360	42	5752
2026-01-22 20:17:10.32	350.75	17.54	-34.5	-35.1	26.3	0.00e+00	0	41	0	1580204032	42	5825
2026-01-22 20:17:14.36	349.83	17.63	-34.0	-34.6	26.6	0.00e+00	0	41	0	1603272704	42	5494
2026-01-22 20:17:18.40	348.91	17.71	-34.0	-34.7	26.6	0.00e+00	0	42	0	1625292800	42	5518
2026-01-22 20:17:22.45	347.98	17.78	-34.0	-34.7	26.6	0.00e+00	0	41	0	1648361472	42	5531
2026-01-22 20:17:26.49	347.05	17.85	-34.0	-34.7	26.6	0.00e+00	0	41	0	1671430144	42	5513
2026-01-22 20:17:30.53	346.12	17.91	-33.8	-34.4	26.8	0.00e+00	0	41	0	1693450240	42	5354
2026-01-22 20:17:34.57	345.18	17.96	-34.0	-34.6	26.7	0.00e+00	0	42	0	1716518912	42	5480
2026-01-22 20:17:38.61	344.24	18.00	-34.1	-34.8	26.6	0.00e+00	0	42	0	1739587584	42	5582
2026-01-22 20:17:42.65	343.30	18.04	-34.1	-34.7	26.5	0.00e+00	0	41	0	1761607680	42	5521
2026-01-22 20:17:46.69	342.35	18.06	-33.9	-34.6	26.8	0.00e+00	0	42	0	1784676352	42	5469
2026-01-22 20:17:50.73	341.40	18.08	-33.7	-34.4	26.9	0.00e+00	0	42	0	1807745024	40	5975
2026-01-22 20:17:54.77	340.46	18.10	-33.5	-34.1	27.0	0.00e+00	0	42	0	1829765120	40	5807
2026-01-22 20:17:58.82	339.51	18.10	-33.8	-34.5	26.8	0.00e+00	0	42	0	1852833792	40	6039
2026-01-22 20:18:02.86	338.56	18.09	-34.1	-34.7	26.5	0.00e+00	0	42	0	1875902464	40	6230
2026-01-22 20:18:06.90	337.61	18.08	-34.2	-34.9	26.3	0.00e+00	0	41	0	1897922560	40	6353
2026-01-22 20:18:10.94	336.66	18.06	-34.0	-34.7	26.3	0.00e+00	0	42	0	1920991232	40	6221
2026-01-22 20:18:14.98	335.72	18.03	-33.8	-34.4	26.7	0.00e+00	0	42	0	1944059904	40	6010
2026-01-22 20:18:19.02	334.78	17.99	-33.9	-34.5	26.7	0.00e+00	0	42	0	1967128576	40	6099
2026-01-22 20:18:23.07	333.83	17.95	-33.7	-34.4	26.9	0.00e+00	0	41	0	1989148672	40	6004
2026-01-22 20:18:27.11	332.90	17.90	-33.9	-34.5	26.7	0.00e+00	0	42	0	2012217344	40	6099
2026-01-22 20:18:31.15	331.96	17.83	-34.2	-34.9	26.4	0.00e+00	0	42	0	2034237440	40	6324
2026-01-22 20:18:35.19	331.03	17.77	-34.2	-34.8	26.5	0.00e+00	0	42	0	2057306112	40	6294
2026-01-22 20:18:39.22	330.11	17.69	-34.1	-34.7	26.5	0.00e+00	0	42	0	2080374784	40	6228
2026-01-22 20:18:43.26	329.19	17.61	-34.4	-35.1	26.3	0.00e+00	0	42	0	2103443456	40	6466
2026-01-22 20:18:47.30	328.28	17.52	-34.3	-34.9	26.4	0.00e+00	0	42	0	2125463552	40	6362
2026-01-22 20:18:51.34	327.37	17.42	-34.3	-35.0	26.3	0.00e+00	0	42	0	2148532224	40	6394
2026-01-22 20:18:55.38	326.46	17.32	-34.6	-35.2	26.2	0.00e+00	0	42	0	2171600896	40	6567
2026-01-22 20:18:59.42	325.57	17.20	-34.5	-35.1	26.3	0.00e+00	0	42	0	2193620992	40	6488
2026-01-22 20:19:03.46	324.68	17.09	-34.2	-35.0	26.4	0.00e+00	0	42	0	2216689664	40	6398
2026-01-22 20:19:07.50	323.79	16.96	-34.2	-34.9	26.5	0.00e+00	0	42	0	2238709760	40	6355
2026-01-22 20:19:11.54	322.92	16.83	-34.5	-35.1	26.2	0.00e+00	0	41	0	2261778432	40	6504
2026-01-22 20:19:15.59	322.05	16.69	-34.6	-35.2	26.2	0.00e+00	0	42	0	2284847104	40	6560
2026-01-22 20:19:19.63	321.19	16.55	-34.5	-35.2	26.2	0.00e+00	0	41	0	2307915776	42	5876
2026-01-22 20:19:23.67	320.34	16.40	-34.2	-34.7	26.5	0.00e+00	0	42	0	2329935872	42	5555
2026-01-22 20:19:27.71	319.49	16.25	-34.6	-35.3	26.2	0.00e+00	0	41	0	2353004544	42	5907
2026-01-22 20:19:31.76	318.66	16.09	-34.8	-35.5	25.9	0.00e+00	0	41	0	2376073216	42	6058
2026-01-22 20:19:35.79	317.84	15.93	-34.8	-35.5	26.0	0.00e+00	0	42	0	2398093312	42	6069
2026-01-22 20:19:39.83	317.02	15.76	-35.0	-35.6	25.9	0.00e+00	0	42	0	2421161984	42	6109
2026-01-22 20:19:43.87	316.21	15.59	-34.8	-35.5	26.0	0.00e+00	0	42	0	2444230656	42	6045
2026-01-22 20:19:47.91	315.42	15.41	-34.9	-35.5	25.9	0.00e+00	0	42	0	2466250752	42	6095
2026-01-22 20:19:51.95	314.63	15.23	-34.9	-35.7	25.8	0.00e+00	0	42	0	2489319424	42	6181
2026-01-22 20:19:56.00	313.85	15.04	-34.9	-35.6	25.9	0.00e+00	0	42	0	2512388096	42	6107
2026-01-22 20:20:00.03	313.09	14.85	-35.2	-35.9	25.6	0.00e+00	0	42	0	2534408192	42	6328
2026-01-22 20:20:04.07	312.33	14.66	-34.9	-35.6	25.9	0.00e+00	0	42	0	2557476864	42	6142
2026-01-22 20:20:08.11	311.58	14.46	-35.3	-35.9	25.5	0.00e+00	0	42	0	2580545536	42	6370
2026-01-22 20:20:12.15	310.84	14.26	-35.3	-36.0	25.5	0.00e+00	0	42	0	2602565632	42	6436
2026-01-22 20:20:16.19	310.12	14.06	-35.3	-36.0	25.5	0.00e+00	0	42	0	2625634304	42	6427
2026-01-22 20:20:20.23	309.40	13.85	-35.5	-36.2	25.4	0.00e+00	0	42	0	2648702976	42	6550
2026-01-22 20:20:24.27	308.69	13.64	-35.7	-36.3	25.1	0.00e+00	0	42	0	2670723072	44	5959
2026-01-22 20:20:28.32	307.99	13.43	-35.6	-36.3	25.2	0.00e+00	0	42	0	2693791744	44	5950
2026-01-22 20:20:32.36	307.31	13.22	-35.5	-36.1	25.2	0.00e+00	0	42	0	2716860416	44	5810
2026-01-22 20:20:36.40	306.63	13.00	-35.3	-35.9	25.4	0.00e+00	0	42	0	2738880512	44	5652
2026-01-22 20:20:40.43	305.96	12.79	-35.6	-36.2	25.1	0.00e+00	0	42	0	2761949184	44	5878
2026-01-22 20:20:44.47	305.31	12.57	-35.4	-36.1	25.2	0.00e+00	0	42	0	2785017856	44	5822
2026-01-22 20:20:48.52	304.66	12.35	-35.8	-36.5	24.8	0.00e+00	0	42	0	2808086528	44	6064
2026-01-22 20:20:52.56	304.02	12.12	-35.9	-36.6	24.8	0.00e+00	0	42	0	2830106624	44	6137
2026-01-22 20:20:56.60	303.39	11.90	-36.1	-36.9	24.6	0.00e+00	0	42	0	2853175296	44	6364
2026-01-22 20:21:00.64	302.77	11.68	-36.1	-36.8	24.7	0.00e+00	0	42	0	2875195392	44	6251
2026-01-22 20:21:04.68	302.17	11.45	-36.5	-37.2	24.2	0.00e+00	0	42	0	2898264064	44	6540
2026-01-22 20:21:08.72	301.57	11.22	-36.9	-37.6	23.8	0.00e+00	0	42	0	2921332736	46	6133
2026-01-22 20:21:12.76	300.98	10.99	-36.5	-37.2	24.2	0.00e+00	0	42	0	2944401408	46	5852
2026-01-22 20:21:16.80	300.40	10.76	-36.8	-37.6	23.9	0.00e+00	0	42	0	2966421504	46	6159
2026-01-22 20:21:20.85	299.82	10.53	-36.9	-37.6	23.7	0.00e+00	0	42	0	2989490176	46	6166
2026-01-22 20:21:24.88	299.26	10.31	-36.7	-37.3	24.0	0.00e+00	0	42	0	3012558848	46	5949
2026-01-22 20:21:28.92	298.71	10.07	-36.8	-37.5	23.9	0.00e+00	0	42	0	3034578944	46	6050
2026-01-22 20:21:32.96	298.17	9.84	-37.3	-38.0	23.4	0.00e+00	0	42	0	3057647616	46	6435
2026-01-22 20:21:37.00	297.63	9.61	-37.1	-37.9	23.7	0.00e+00	0	42	0	3079667712	46	6364
2026-01-22 20:21:41.04	297.10	9.38	-37.0	-37.8	23.8	0.00e+00	0	42	0	3102736384	46	6250
2026-01-22 20:21:45.08	296.59	9.15	-36.7	-37.5	23.9	0.00e+00	0	42	0	3125805056	46	6098
2026-01-22 20:21:49.12	296.07	8.92	-36.9	-37.8	23.6	0.00e+00	0	42	0	3148873728	46	6246
2026-01-22 20:21:53.17	295.57	8.68	-36.9	-37.7	23.7	0.00e+00	0	42	0	3170893824	46	6180
2026-01-22 20:21:57.21	295.08	8.45	-37.2	-38.0	23.4	0.00e+00	0	42	0	3193962496	46	6414
2026-01-22 20:22:01.25	294.59	8.22	-37.4	-38.2	23.2	0.00e+00	0	42	0	3217031168	46	6559
2026-01-22 20:22:05.29	294.11	7.99	-37.5	-38.3	23.1	0.00e+00	0	42	0	3239051264	48	5942
2026-01-22 20:22:09.33	293.64	7.76	-37.4	-38.2	23.1	0.00e+00	0	42	0	3262119936	48	5832
2026-01-22 20:22:13.37	293.18	7.53	-37.3	-38.1	23.2	0.00e+00	0	42	0	3285188608	48	5810
2026-01-22 20:22:17.40	292.73	7.30	-37.2	-38.0	23.3	0.00e+00	0	42	0	3307208704	48	5734
2026-01-22 20:22:21.44	292.28	7.07	-37.4	-38.2	23.0	0.00e+00	0	42	0	3330277376	48	5830
2026-01-22 20:22:25.48	291.84	6.84	-37.3	-38.1	23.2	0.00e+00	0	42	0	3353346048	48	5785
2026-01-22 20:22:29.53	291.40	6.61	-37.9	-38.7	22.5	0.00e+00	0	42	0	3375366144	48	6197
2026-01-22 20:22:33.57	290.98	6.38	-37.8	-38.5	22.6	0.00e+00	0	42	0	3398434816	48	6050
2026-01-22 20:22:37.61	290.56	6.15	-37.9	-38.6	22.5	0.00e+00	0	42	0	3421503488	48	6155
2026-01-22 20:22:41.65	290.14	5.92	-38.0	-38.7	22.4	0.00e+00	0	42	0	3443523584	48	6207
2026-01-22 20:22:45.69	289.74	5.70	-38.1	-38.9	22.1	0.00e+00	0	41	0	3466592256	48	6337
2026-01-22 20:22:49.72	289.34	5.47	-38.2	-39.1	22.2	0.00e+00	0	42	0	3489660928	48	6493
2026-01-22 20:22:53.76	288.94	5.24	-37.9	-38.8	22.3	0.00e+00	0	42	0	3511681024	48	6252
2026-01-22 20:22:57.80	288.56	5.02	-38.1	-38.8	22.2	0.00e+00	0	42	0	3534749696	48	6287
2026-01-22 20:23:01.84	288.18	4.79	-38.2	-38.9	22.0	0.00e+00	0	42	0	3557818368	48	6363
2026-01-22 20:23:05.88	287.80	4.57	-38.4	-39.2	21.7	0.00e+00	0	41	0	3579838464	48	6587
2026-01-22 20:23:09.93	287.43	4.35	-38.6	-39.5	21.5	0.00e+00	0	41	0	3602907136	48	6812
2026-01-22 20:23:13.97	287.07	4.13	-38.1	-39.0	21.9	0.00e+00	0	41	0	3625975808	50	5732
2026-01-22 20:23:18.01	286.71	3.90	-38.7	-39.5	21.4	0.00e+00	0	41	0	3647995904	50	6046
2026-01-22 20:23:22.05	286.36	3.68	-38.5	-39.4	21.3	0.00e+00	0	41	0	3671064576	50	6025
2026-01-22 20:23:26.09	286.01	3.46	-38.7	-39.6	21.2	0.00e+00	0	41	0	3694133248	50	6149
2026-01-22 20:23:30.13	285.67	3.24	-38.6	-39.4	21.3	0.00e+00	0	41	0	3716153344	50	5977
2026-01-22 20:23:34.18	285.33	3.02	-38.9	-39.9	20.9	0.00e+00	0	41	0	3739222016	50	6329
2026-01-22 20:23:38.22	285.00	2.81	-50.9	-63.1	3.6	8.44e-01	0	41	104	3740270592	60	51387
2026-01-22 20:23:42.27	284.67	2.59	-51.1	-63.3	3.6	8.45e-01	0	41	104	3740270592	60	52992
2026-01-22 20:23:46.31	284.35	2.37	-51.1	-63.4	3.6	8.46e-01	0	41	104	3740270592	60	53372
2026-01-22 20:23:50.34	284.03	2.16	-50.9	-63.3	3.6	8.44e-01	0	41	104	3740270592	60	52652
2026-01-22 20:23:54.38	283.72	1.94	-51.1	-63.2	3.6	8.45e-01	0	41	104	3740270592	60	52356
2026-01-22 20:23:58.42	283.41	1.73	-51.1	-63.3	3.6	8.45e-01	0	41	104	3740270592	60	52587
2026-01-22 20:24:02.46	283.11	1.52	-51.2	-63.3	3.6	8.46e-01	0	41	104	3740270592	60	52904
2026-01-22 20:24:06.50	282.81	1.31	-51.2	-63.3	3.6	8.45e-01	0	41	104	3740270592	60	52623
2026-01-22 20:24:10.54	282.52	1.10	-51.2	-63.3	3.6	8.46e-01	0	41	104	3740270592	60	52840
2026-01-22 20:24:14.58	282.23	0.89	-51.2	-63.3	3.6	8.46e-01	0	41	104	3740270592	60	52643
2026-01-22 20:24:18.63	281.94	0.68	-51.2	-63.3	3.6	8.46e-01	0	41	104	3740270592	60	52725
2026-01-22 20:24:22.67	281.66	0.47	-51.2	-63.3	3.6	8.45e-01	0	41	104	3740270592	60	53009
2026-01-22 20:24:26.71	281.39	0.26	-51.2	-63.3	3.6	8.45e-01	0	41	104	3740270592	60	52988
2026-01-22 20:24:30.75	281.11	0.05	-51.2	-63.3	3.6	8.46e-01	0	41	104	3740270592	60	52845

#Closed at: 2026-01-22 20:24:32
#Recorded file [3740 MB]: D:/lorett/data/35029_260123_081126.dat