passes_logs/2026/01/22/R4.6S_Anadyr/R4.6S_Anadyr__20260122_004807_NOAA_20_JPSS-1_rec.log

#Pass ID: 20260122_004807_NOAA 20 (JPSS-1)
#Satellite: NOAA 20 (JPSS-1)
#Configuration: NOAA 20
#almurnet v.1.7.20251203
#Start time: 2026-01-22 00:48:09

#Version: 2.2.20231116
#Station: R4.6S_Anadyr
#Location: 177.4865 lon 64.73178 lat
#TLE: 1 43013U 17073A   26020.82785136  .00000155  00000+0  94366-4 0  9991
#TLE: 2 43013  98.7643 321.7058 0001260  30.3785 329.7464 14.19537992423566

#Time	Az	El	Level	Level2	SNR	BER	BlckErr	Temp	State	Recorded	gain1	gain2
2026-01-22 00:48:09.32	170.89	0.09	-51.5	-66.5	3.5	1.51e+00	0	39	0	0	60	75969
2026-01-22 00:48:13.36	170.97	0.33	-51.3	-66.5	3.6	1.51e+00	0	40	104	0	60	76762
2026-01-22 00:48:17.40	171.06	0.57	-51.2	-66.4	3.6	1.51e+00	0	40	104	0	60	75805
2026-01-22 00:48:21.44	171.14	0.82	-51.2	-66.4	3.6	1.51e+00	0	40	104	0	60	75141
2026-01-22 00:48:25.48	171.23	1.06	-51.0	-66.2	3.6	1.51e+00	0	40	104	0	60	73902
2026-01-22 00:48:29.52	171.32	1.31	-50.7	-65.9	3.6	1.51e+00	0	40	104	0	60	71582
2026-01-22 00:48:33.55	171.41	1.56	-50.0	-65.1	3.6	1.51e+00	0	40	104	0	60	65332
2026-01-22 00:48:37.59	171.50	1.82	-49.7	-64.7	3.6	1.51e+00	0	40	104	0	60	62128
2026-01-22 00:48:41.63	171.60	2.07	-49.7	-64.7	3.6	1.51e+00	0	40	104	0	60	61833
2026-01-22 00:48:45.67	171.69	2.33	-49.7	-64.9	3.6	1.51e+00	0	40	104	0	60	63197
2026-01-22 00:48:49.71	171.79	2.59	-49.7	-64.1	3.6	1.51e+00	0	40	104	0	60	57827
2026-01-22 00:48:53.75	171.88	2.85	-49.7	-64.0	3.6	1.51e+00	0	40	104	0	60	57482
2026-01-22 00:48:57.79	171.98	3.12	-49.7	-62.7	3.6	1.50e+00	0	40	104	0	60	49082
2026-01-22 00:49:01.82	172.08	3.39	-47.9	-52.4	11.7	5.76e-03	92	40	0	5242880	60	15092
2026-01-22 00:49:05.86	172.19	3.66	-45.0	-47.1	16.9	0.00e+00	92	40	0	12582912	60	8193
2026-01-22 00:49:09.90	172.29	3.93	-47.6	-51.7	10.1	0.00e+00	9	40	0	19922944	60	13981
2026-01-22 00:49:13.94	172.40	4.20	-45.6	-48.0	16.3	0.00e+00	92	40	0	22020096	60	9088
2026-01-22 00:49:17.98	172.50	4.48	-44.0	-45.7	18.5	0.00e+00	92	40	0	29360128	60	6974
2026-01-22 00:49:22.02	172.61	4.76	-43.7	-45.4	18.7	0.00e+00	90	40	0	36700160	60	6701
2026-01-22 00:49:26.06	172.72	5.05	-43.0	-44.5	19.7	0.00e+00	0	40	0	44040192	58	6771
2026-01-22 00:49:30.10	172.84	5.33	-42.3	-43.6	20.6	0.00e+00	89	41	0	52428800	58	6139
2026-01-22 00:49:34.15	172.95	5.63	-42.7	-44.1	20.1	0.00e+00	92	41	0	59768832	58	6495
2026-01-22 00:49:38.19	173.07	5.92	-42.1	-43.3	20.9	0.00e+00	92	41	0	67108864	56	6639
2026-01-22 00:49:42.23	173.19	6.21	-42.0	-43.2	20.9	0.00e+00	0	41	0	74448896	56	6610
2026-01-22 00:49:46.26	173.31	6.51	-42.0	-43.2	21.1	0.00e+00	90	41	0	81788928	56	6601
2026-01-22 00:49:50.30	173.43	6.82	-41.9	-43.1	21.0	0.00e+00	92	41	0	90177536	56	6474
2026-01-22 00:49:54.34	173.56	7.12	-42.0	-43.2	21.0	0.00e+00	7	41	0	97517568	56	6590
2026-01-22 00:49:58.37	173.69	7.43	-41.7	-42.8	21.4	0.00e+00	0	41	0	104857600	56	6287
2026-01-22 00:50:02.42	173.82	7.75	-41.2	-42.3	21.8	0.00e+00	90	41	0	112197632	56	5943
2026-01-22 00:50:06.46	173.95	8.07	-41.2	-42.3	21.9	0.00e+00	92	41	0	120586240	56	5920
2026-01-22 00:50:10.50	174.09	8.39	-41.5	-42.6	21.7	0.00e+00	6	41	0	127926272	56	6171
2026-01-22 00:50:14.53	174.23	8.71	-41.1	-42.2	22.1	0.00e+00	91	41	0	135266304	56	5866
2026-01-22 00:50:18.57	174.37	9.04	-41.3	-42.4	21.9	0.00e+00	92	41	0	142606336	54	6719
2026-01-22 00:50:22.61	174.51	9.38	-40.9	-41.9	22.3	0.00e+00	92	41	0	149946368	54	6370
2026-01-22 00:50:26.65	174.66	9.72	-40.7	-41.7	22.6	0.00e+00	0	41	0	158334976	54	6190
2026-01-22 00:50:30.68	174.81	10.06	-40.7	-41.7	22.5	0.00e+00	92	41	0	165675008	54	6207
2026-01-22 00:50:34.73	174.97	10.41	-39.2	-41.7	19.9	7.14e-03	92	41	0	173015040	52	6965
2026-01-22 00:50:38.76	175.12	10.76	-33.2	-41.7	16.7	3.43e-02	90	41	0	180355072	40	13867
2026-01-22 00:50:42.80	175.28	11.12	-35.5	-41.5	18.0	2.65e-02	84	41	0	188743680	42	12160
2026-01-22 00:50:46.84	175.45	11.48	-40.5	-41.5	22.8	0.00e+00	92	41	0	196083712	54	6070
2026-01-22 00:50:50.88	175.62	11.85	-40.5	-41.4	22.9	0.00e+00	92	41	0	203423744	54	6010
2026-01-22 00:50:54.92	175.79	12.23	-40.2	-41.2	21.6	1.01e-03	56	41	0	210763776	54	5853
2026-01-22 00:50:58.96	175.97	12.60	-40.1	-41.1	23.2	9.10e-06	6	41	0	218103808	54	5768
2026-01-22 00:51:03.00	176.15	12.99	-40.2	-41.1	23.2	0.00e+00	91	41	0	226492416	54	5819
2026-01-22 00:51:07.03	176.33	13.38	-40.5	-41.4	22.9	0.00e+00	91	41	0	233832448	54	6025
2026-01-22 00:51:11.08	176.52	13.78	-40.3	-41.3	23.2	0.00e+00	90	41	0	241172480	54	5908
2026-01-22 00:51:15.11	176.72	14.18	-40.3	-41.2	23.2	0.00e+00	0	41	0	248512512	54	5876
2026-01-22 00:51:19.15	176.92	14.59	-40.5	-41.4	23.0	0.00e+00	92	41	0	256901120	54	6008
2026-01-22 00:51:23.19	177.12	15.01	-40.2	-41.1	23.3	0.00e+00	92	41	0	264241152	54	5827
2026-01-22 00:51:27.23	177.33	15.43	-40.4	-41.4	23.1	0.00e+00	3	41	0	271581184	54	5997
2026-01-22 00:51:31.28	177.55	15.86	-40.4	-41.4	23.0	0.00e+00	0	41	0	278921216	54	5965
2026-01-22 00:51:35.31	177.77	16.30	-40.2	-41.1	23.3	0.00e+00	92	41	0	286261248	54	5819
2026-01-22 00:51:39.35	178.00	16.75	-40.4	-41.3	23.2	0.00e+00	90	41	0	294649856	54	5934
2026-01-22 00:51:43.39	178.23	17.20	-40.3	-41.3	23.2	0.00e+00	23	41	0	301989888	54	5914
2026-01-22 00:51:47.43	178.48	17.66	-40.3	-41.2	23.2	0.00e+00	92	41	0	309329920	54	5873
2026-01-22 00:51:51.47	178.72	18.13	-40.5	-41.4	23.1	0.00e+00	90	41	0	316669952	54	6023
2026-01-22 00:51:55.51	178.98	18.61	-40.4	-41.3	23.1	0.00e+00	91	41	0	325058560	54	5955
2026-01-22 00:51:59.55	179.24	19.10	-40.3	-41.2	23.2	0.00e+00	2	41	0	332398592	54	5865
2026-01-22 00:52:03.59	179.51	19.60	-40.2	-41.1	23.4	0.00e+00	92	41	0	339738624	54	5817
2026-01-22 00:52:07.63	179.80	20.11	-40.4	-41.4	23.3	0.00e+00	92	41	0	347078656	54	5972
2026-01-22 00:52:11.67	180.08	20.62	-40.4	-41.4	23.2	0.00e+00	90	41	0	354418688	54	5980
2026-01-22 00:52:15.71	180.38	21.15	-40.5	-41.4	23.2	0.00e+00	0	41	0	362807296	54	6018
2026-01-22 00:52:19.75	180.69	21.69	-40.4	-41.3	23.3	0.00e+00	91	41	0	370147328	54	5954
2026-01-22 00:52:23.79	181.01	22.23	-40.2	-41.1	23.6	0.00e+00	92	41	0	377487360	54	5769
2026-01-22 00:52:27.83	181.34	22.79	-39.9	-40.8	23.7	0.00e+00	6	41	0	384827392	54	5568
2026-01-22 00:52:31.87	181.68	23.37	-39.6	-40.5	24.0	0.00e+00	79	41	0	393216000	52	6066
2026-01-22 00:52:35.90	182.04	23.95	-39.6	-40.5	24.2	0.00e+00	90	41	0	400556032	52	6070
2026-01-22 00:52:39.94	182.40	24.54	-39.5	-40.3	24.2	0.00e+00	92	41	0	407896064	52	5933
2026-01-22 00:52:43.98	182.78	25.15	-39.3	-40.1	24.4	0.00e+00	19	41	0	415236096	52	5810
2026-01-22 00:52:48.02	183.18	25.77	-39.2	-40.0	24.5	0.00e+00	0	41	0	422576128	52	5742
2026-01-22 00:52:52.05	183.59	26.40	-39.1	-40.0	24.5	0.00e+00	90	41	0	430964736	52	5714
2026-01-22 00:52:56.09	184.01	27.05	-39.4	-40.3	24.4	0.00e+00	90	41	0	438304768	52	5901
2026-01-22 00:53:00.13	184.46	27.71	-39.8	-40.7	24.1	0.00e+00	63	41	0	445644800	52	6182
2026-01-22 00:53:04.17	184.92	28.39	-40.5	-41.4	23.5	0.00e+00	13	41	0	452984832	52	6712
2026-01-22 00:53:08.20	185.40	29.07	-40.9	-41.9	22.9	0.00e+00	92	41	0	461373440	54	6333
2026-01-22 00:53:12.24	185.90	29.78	-41.0	-42.0	22.8	0.00e+00	91	41	0	468713472	54	6436
2026-01-22 00:53:16.28	186.42	30.50	-41.4	-42.4	22.4	0.00e+00	57	41	0	476053504	54	6740
2026-01-22 00:53:20.31	186.97	31.24	-42.1	-43.2	21.8	0.00e+00	92	41	0	483393536	56	6573
2026-01-22 00:53:24.36	187.54	31.99	-42.9	-44.1	21.0	0.00e+00	92	41	0	490733568	58	6503
2026-01-22 00:53:28.40	188.14	32.76	-42.9	-44.2	21.1	0.00e+00	90	41	0	499122176	58	6546
2026-01-22 00:53:32.43	188.76	33.54	-42.5	-43.7	21.4	0.00e+00	7	41	0	506462208	58	6180
2026-01-22 00:53:36.47	189.42	34.35	-42.6	-43.8	21.3	0.00e+00	91	41	0	513802240	58	6257
2026-01-22 00:53:40.51	190.11	35.17	-42.7	-43.9	21.2	0.00e+00	91	41	0	521142272	58	6326
2026-01-22 00:53:44.55	190.83	36.00	-42.8	-44.0	21.0	0.00e+00	92	41	0	529530880	58	6426
2026-01-22 00:53:48.59	191.60	36.86	-42.6	-43.8	21.3	0.00e+00	54	41	0	536870912	58	6294
2026-01-22 00:53:52.62	192.40	37.73	-42.7	-43.9	21.2	0.00e+00	92	41	0	544210944	58	6322
2026-01-22 00:53:56.66	193.24	38.61	-42.3	-43.4	21.6	0.00e+00	92	41	0	551550976	58	6030
2026-01-22 00:54:00.70	194.13	39.52	-42.2	-43.4	21.6	0.00e+00	92	41	0	558891008	58	5979
2026-01-22 00:54:04.74	195.08	40.44	-42.0	-43.1	21.9	0.00e+00	0	41	0	567279616	58	5820
2026-01-22 00:54:08.77	196.07	41.37	-41.1	-42.1	23.0	0.00e+00	92	41	0	574619648	56	5790
2026-01-22 00:54:12.81	197.13	42.32	-41.2	-42.1	22.9	0.00e+00	91	41	0	581959680	56	5815
2026-01-22 00:54:16.85	198.25	43.28	-41.4	-42.5	22.7	0.00e+00	92	41	0	589299712	56	6034
2026-01-22 00:54:20.89	199.43	44.25	-41.5	-42.5	22.6	0.00e+00	2	41	0	597688320	56	6083
2026-01-22 00:54:24.93	200.70	45.24	-42.5	-43.6	21.6	0.00e+00	92	41	0	605028352	56	6881
2026-01-22 00:54:28.96	202.03	46.23	-41.7	-42.8	22.4	0.00e+00	90	41	0	612368384	56	6251
2026-01-22 00:54:33.00	203.46	47.23	-42.6	-43.8	21.3	0.00e+00	92	41	0	619708416	56	7033
2026-01-22 00:54:37.04	204.98	48.23	-42.7	-43.9	21.3	0.00e+00	22	41	0	627048448	58	6325
2026-01-22 00:54:41.08	206.61	49.23	-43.0	-44.3	20.9	0.00e+00	92	42	0	635437056	58	6623
2026-01-22 00:54:45.12	208.34	50.24	-43.0	-44.3	21.1	0.00e+00	90	41	0	642777088	60	5911
2026-01-22 00:54:49.16	210.18	51.23	-41.2	-42.1	22.9	0.00e+00	21	41	0	650117120	56	5820
2026-01-22 00:54:53.20	212.15	52.21	-40.7	-41.6	23.4	0.00e+00	92	41	0	657457152	54	6134
2026-01-22 00:54:57.23	214.25	53.17	-40.1	-41.0	23.9	0.00e+00	92	41	0	665845760	52	6396
2026-01-22 00:55:01.27	216.50	54.11	-39.5	-40.3	24.6	0.00e+00	92	41	0	673185792	52	5915
2026-01-22 00:55:05.31	218.89	55.02	-40.2	-41.1	23.7	0.00e+00	52	41	0	680525824	52	6526
2026-01-22 00:55:09.35	221.43	55.90	-40.7	-41.7	23.3	0.00e+00	92	41	0	687865856	54	6179
2026-01-22 00:55:13.39	224.14	56.73	-41.4	-42.4	22.7	0.00e+00	92	41	0	695205888	54	6707
2026-01-22 00:55:17.42	226.99	57.50	-41.1	-42.0	22.9	0.00e+00	92	41	0	703594496	54	6444
2026-01-22 00:55:21.46	230.02	58.22	-40.8	-41.8	23.2	0.00e+00	8	41	0	710934528	54	6273
2026-01-22 00:55:25.50	233.20	58.87	-41.4	-42.5	22.6	0.00e+00	92	41	0	718274560	54	6782
2026-01-22 00:55:29.54	236.54	59.44	-40.9	-41.8	23.3	0.00e+00	92	41	0	725614592	54	6267
2026-01-22 00:55:33.58	240.00	59.92	-40.7	-41.6	23.2	0.00e+00	90	41	0	732954624	54	6168
2026-01-22 00:55:37.61	243.58	60.31	-41.3	-42.3	22.8	0.00e+00	24	41	0	741343232	54	6621
2026-01-22 00:55:41.65	247.26	60.60	-41.3	-42.3	22.8	0.00e+00	92	41	0	748683264	54	6640
2026-01-22 00:55:45.69	251.01	60.78	-40.7	-41.6	23.4	0.00e+00	92	41	0	756023296	54	6144
2026-01-22 00:55:49.72	254.79	60.86	-41.1	-42.0	23.0	0.00e+00	92	41	0	763363328	54	6434
2026-01-22 00:55:53.77	258.60	60.82	-40.2	-41.1	23.9	0.00e+00	0	41	0	771751936	52	6476
2026-01-22 00:55:57.80	262.36	60.68	-39.9	-40.8	24.3	0.00e+00	90	41	0	779091968	52	6276
2026-01-22 00:56:01.83	266.06	60.44	-39.8	-40.7	24.2	0.00e+00	92	41	0	786432000	52	6197
2026-01-22 00:56:05.87	269.68	60.09	-40.7	-41.7	23.5	0.00e+00	51	41	0	793772032	56	5504
2026-01-22 00:56:09.91	273.20	59.64	-41.9	-43.0	22.2	0.00e+00	0	41	0	801112064	56	6426
2026-01-22 00:56:13.95	276.58	59.11	-43.9	-45.3	20.0	0.00e+00	92	41	0	809500672	60	6638
2026-01-22 00:56:17.99	279.82	58.49	-44.1	-45.5	19.9	0.00e+00	92	41	0	816840704	60	6819
2026-01-22 00:56:22.03	282.91	57.80	-41.5	-42.4	22.8	0.00e+00	64	41	0	824180736	56	6024
2026-01-22 00:56:26.07	285.84	57.05	-41.8	-42.9	22.5	0.00e+00	92	41	0	831520768	56	6329
2026-01-22 00:56:30.10	288.59	56.25	-40.4	-41.3	23.7	0.00e+00	91	41	0	839909376	54	5913
2026-01-22 00:56:34.14	291.20	55.39	-40.6	-41.5	23.6	0.00e+00	93	41	0	847249408	52	6830
2026-01-22 00:56:38.18	293.65	54.50	-39.4	-40.2	24.4	0.00e+00	55	41	0	854589440	50	6596
2026-01-22 00:56:42.22	295.95	53.57	-38.6	-39.4	25.4	0.00e+00	92	41	0	861929472	50	5979
2026-01-22 00:56:46.26	298.10	52.62	-38.4	-39.1	25.5	0.00e+00	92	41	0	869269504	50	5824
2026-01-22 00:56:50.30	300.12	51.65	-39.6	-40.4	24.3	0.00e+00	92	41	0	877658112	50	6760
2026-01-22 00:56:54.33	302.01	50.66	-39.3	-40.1	24.8	0.00e+00	0	41	0	884998144	52	5777
2026-01-22 00:56:58.37	303.78	49.67	-42.2	-43.3	22.0	0.00e+00	92	41	0	892338176	58	5936
2026-01-22 00:57:02.41	305.44	48.67	-43.0	-44.2	21.0	0.00e+00	90	41	0	899678208	58	6615
2026-01-22 00:57:06.45	307.00	47.67	-43.9	-45.3	20.2	0.00e+00	7	41	0	908066816	60	6687
2026-01-22 00:57:10.48	308.46	46.68	-46.1	-48.2	17.4	0.00e+00	0	41	0	915406848	60	9266
2026-01-22 00:57:14.52	309.84	45.68	-43.2	-44.4	21.1	0.00e+00	92	41	0	922746880	60	5973
2026-01-22 00:57:18.57	311.13	44.70	-43.4	-44.6	20.9	0.00e+00	92	41	0	930086912	60	6149
2026-01-22 00:57:22.61	312.35	43.72	-42.3	-43.3	22.0	0.00e+00	2	41	0	937426944	58	5956
2026-01-22 00:57:26.64	313.49	42.76	-42.8	-44.0	21.3	0.00e+00	80	41	0	945815552	58	6438
2026-01-22 00:57:30.68	314.57	41.81	-42.1	-43.2	22.1	0.00e+00	92	41	0	953155584	56	6569
2026-01-22 00:57:34.73	315.59	40.87	-42.4	-43.6	21.6	0.00e+00	90	41	0	960495616	56	6852
2026-01-22 00:57:38.76	316.55	39.95	-40.5	-41.4	23.7	0.00e+00	0	41	0	967835648	54	6005
2026-01-22 00:57:42.80	317.46	39.05	-42.4	-43.6	21.7	0.00e+00	0	41	0	976224256	56	6867
2026-01-22 00:57:46.84	318.33	38.16	-41.0	-41.9	23.3	0.00e+00	92	41	0	983564288	56	5678
2026-01-22 00:57:50.88	319.15	37.29	-40.0	-40.9	24.1	0.00e+00	92	41	0	990904320	54	5639
2026-01-22 00:57:54.92	319.92	36.43	-42.0	-43.1	22.2	0.00e+00	0	41	0	998244352	56	6499
2026-01-22 00:57:58.96	320.66	35.59	-40.3	-41.1	23.9	0.00e+00	92	41	0	1005584384	54	5820
2026-01-22 00:58:03.00	321.37	34.77	-41.6	-42.6	22.4	0.00e+00	92	41	0	1013972992	54	6921
2026-01-22 00:58:07.04	322.04	33.96	-43.1	-44.4	20.9	0.00e+00	55	41	0	1021313024	58	6739
2026-01-22 00:58:11.08	322.67	33.17	-41.3	-42.3	22.9	0.00e+00	0	41	0	1028653056	56	5943
2026-01-22 00:58:15.11	323.28	32.40	-42.2	-43.3	21.8	0.00e+00	92	41	0	1035993088	56	6687
2026-01-22 00:58:19.15	323.87	31.64	-42.7	-43.9	21.3	0.00e+00	92	41	0	1044381696	58	6334
2026-01-22 00:58:23.19	324.42	30.90	-42.1	-43.2	22.0	0.00e+00	24	41	0	1051721728	58	5835
2026-01-22 00:58:27.23	324.96	30.18	-42.4	-43.6	21.6	0.00e+00	0	41	0	1059061760	58	6108
2026-01-22 00:58:31.27	325.47	29.47	-42.1	-43.2	22.0	0.00e+00	91	41	0	1066401792	58	5874
2026-01-22 00:58:35.31	325.96	28.78	-41.7	-42.7	22.4	0.00e+00	92	41	0	1073741824	56	6221
2026-01-22 00:58:39.35	326.43	28.10	-42.6	-43.8	21.5	0.00e+00	24	41	0	1082130432	56	7023
2026-01-22 00:58:43.39	326.88	27.43	-43.0	-44.2	21.1	0.00e+00	0	41	0	1089470464	58	6566
2026-01-22 00:58:47.42	327.31	26.79	-42.3	-43.4	21.8	0.00e+00	92	41	0	1096810496	58	5986
2026-01-22 00:58:51.46	327.73	26.15	-41.8	-42.8	22.3	0.00e+00	29	41	0	1104150528	56	6316
2026-01-22 00:58:55.50	328.13	25.53	-42.2	-43.3	21.9	0.00e+00	0	41	0	1112539136	56	6630
2026-01-22 00:58:59.54	328.52	24.92	-42.1	-43.3	21.9	0.00e+00	0	41	0	1119879168	56	6618
2026-01-22 00:59:03.58	328.89	24.32	-41.7	-42.8	22.3	0.00e+00	91	41	0	1127219200	56	6293
2026-01-22 00:59:07.61	329.25	23.74	-41.3	-42.3	22.8	0.00e+00	0	41	0	1134559232	56	5914
2026-01-22 00:59:11.65	329.60	23.16	-40.6	-41.5	23.4	0.00e+00	5	41	0	1141899264	54	6054
2026-01-22 00:59:15.69	329.94	22.60	-40.6	-41.5	23.5	0.00e+00	0	41	0	1150287872	54	6060
2026-01-22 00:59:19.73	330.26	22.05	-40.7	-41.6	23.3	0.00e+00	90	41	0	1157627904	54	6152
2026-01-22 00:59:23.77	330.57	21.51	-41.1	-42.1	22.9	0.00e+00	19	41	0	1164967936	54	6469
2026-01-22 00:59:27.80	330.88	20.98	-40.7	-41.7	23.1	0.00e+00	22	41	0	1172307968	54	6220
2026-01-22 00:59:31.84	331.17	20.46	-40.1	-41.0	23.7	0.00e+00	90	41	0	1180696576	54	5754
2026-01-22 00:59:35.88	331.46	19.95	-39.6	-40.4	24.3	0.00e+00	92	41	0	1188036608	52	6001
2026-01-22 00:59:39.91	331.74	19.46	-39.8	-40.6	24.1	0.00e+00	7	41	0	1195376640	52	6147
2026-01-22 00:59:43.95	332.00	18.97	-39.8	-40.7	24.0	0.00e+00	1	41	0	1202716672	52	6188
2026-01-22 00:59:47.99	332.27	18.49	-40.2	-41.1	23.6	0.00e+00	92	41	0	1210056704	52	6523
2026-01-22 00:59:52.03	332.52	18.01	-40.2	-41.1	23.7	0.00e+00	61	41	0	1218445312	52	6469
2026-01-22 00:59:56.07	332.76	17.55	-40.1	-41.0	23.7	0.00e+00	0	41	0	1225785344	52	6443
2026-01-22 01:00:00.11	333.00	17.09	-40.2	-41.1	23.7	0.00e+00	2	41	0	1233125376	52	6480
2026-01-22 01:00:04.15	333.24	16.65	-40.2	-41.1	23.6	0.00e+00	92	41	0	1240465408	52	6528
2026-01-22 01:00:08.18	333.46	16.21	-40.3	-41.2	23.5	0.00e+00	18	41	0	1248854016	52	6589
2026-01-22 01:00:12.22	333.68	15.77	-40.5	-41.4	23.3	0.00e+00	62	41	0	1256194048	52	6734
2026-01-22 01:00:16.26	333.90	15.35	-40.6	-41.5	23.2	0.00e+00	0	41	0	1263534080	54	6082
2026-01-22 01:00:20.29	334.11	14.93	-40.7	-41.6	23.1	0.00e+00	91	41	0	1270874112	54	6171
2026-01-22 01:00:24.33	334.31	14.52	-40.8	-41.8	22.8	0.00e+00	0	41	0	1278214144	54	6288
2026-01-22 01:00:28.37	334.51	14.12	-40.8	-41.8	22.8	0.00e+00	0	41	0	1286602752	54	6295
2026-01-22 01:00:32.41	334.71	13.72	-41.1	-42.1	22.5	0.00e+00	76	41	0	1293942784	54	6508
2026-01-22 01:00:36.45	334.90	13.33	-41.1	-42.1	22.6	0.00e+00	92	41	0	1301282816	54	6516
2026-01-22 01:00:40.48	335.08	12.94	-41.5	-42.6	22.1	0.00e+00	0	41	0	1308622848	54	6883
2026-01-22 01:00:44.52	335.26	12.56	-41.1	-42.2	22.5	0.00e+00	0	41	0	1315962880	56	5837
2026-01-22 01:00:48.55	335.44	12.19	-41.1	-42.1	22.6	0.00e+00	0	41	0	1324351488	56	5822
2026-01-22 01:00:52.59	335.61	11.82	-41.1	-42.1	22.5	0.00e+00	92	41	0	1331691520	54	6512
2026-01-22 01:00:56.64	335.78	11.45	-41.5	-42.6	22.1	0.00e+00	64	41	0	1339031552	54	6882
2026-01-22 01:01:00.67	335.95	11.09	-41.3	-42.4	22.3	0.00e+00	65	41	0	1346371584	54	6710
2026-01-22 01:01:04.71	336.11	10.74	-41.3	-42.4	22.2	0.00e+00	76	41	0	1354760192	54	6735
2026-01-22 01:01:08.74	336.27	10.39	-41.4	-42.5	22.1	0.00e+00	75	41	0	1362100224	54	6806
2026-01-22 01:01:12.78	336.42	10.05	-41.9	-43.1	21.7	0.00e+00	69	41	0	1369440256	56	6493
2026-01-22 01:01:16.82	336.57	9.71	-41.8	-43.0	21.6	0.00e+00	17	41	0	1376780288	56	6401
2026-01-22 01:01:20.86	336.72	9.37	-42.1	-43.3	21.3	0.00e+00	92	41	0	1384120320	56	6674
2026-01-22 01:01:24.90	336.87	9.04	-42.2	-43.5	21.1	0.00e+00	2	41	0	1392508928	56	6774
2026-01-22 01:01:28.94	337.01	8.71	-42.2	-43.4	21.2	0.00e+00	3	41	0	1399848960	56	6732
2026-01-22 01:01:32.98	337.15	8.39	-42.3	-43.5	21.0	0.00e+00	17	41	0	1407188992	56	6834
2026-01-22 01:01:37.02	337.29	8.07	-42.3	-43.6	20.9	0.00e+00	92	41	0	1414529024	56	6851
2026-01-22 01:01:41.05	337.43	7.76	-42.4	-43.8	20.8	0.00e+00	66	41	0	1422917632	58	6248
2026-01-22 01:01:45.09	337.56	7.45	-42.4	-43.7	20.6	0.00e+00	3	41	0	1430257664	58	6225
2026-01-22 01:01:49.12	337.69	7.14	-42.3	-43.7	20.7	0.00e+00	0	41	0	1437597696	58	6175
2026-01-22 01:01:53.17	337.82	6.84	-42.1	-43.4	20.9	0.00e+00	92	41	0	1444937728	58	5983
2026-01-22 01:01:57.20	337.94	6.54	-42.6	-43.9	20.4	0.00e+00	66	41	0	1452277760	58	6386
2026-01-22 01:02:01.24	338.07	6.24	-42.2	-43.5	20.8	0.00e+00	0	41	0	1460666368	56	6829
2026-01-22 01:02:05.27	338.19	5.95	-42.1	-43.4	20.7	0.00e+00	0	41	0	1468006400	56	6714
2026-01-22 01:02:09.31	338.31	5.66	-42.8	-44.3	19.6	0.00e+00	90	41	0	1475346432	58	6687
2026-01-22 01:02:13.35	338.43	5.37	-43.0	-44.6	19.0	0.00e+00	0	41	0	1482686464	58	6923
2026-01-22 01:02:17.39	338.54	5.08	-44.1	-46.2	16.9	0.00e+00	72	41	0	1491075072	60	7372
2026-01-22 01:02:21.43	338.65	4.80	-45.1	-48.2	14.5	0.00e+00	11	41	0	1498415104	60	9243
2026-01-22 01:02:25.47	338.77	4.52	-46.1	-51.5	10.1	2.14e-03	91	41	0	1505755136	60	13521
2026-01-22 01:02:29.50	338.88	4.25	-46.2	-54.2	5.8	2.86e-01	0	41	0	1513095168	60	18540
2026-01-22 01:02:33.54	338.99	3.98	-46.4	-56.8	3.8	1.28e+00	0	41	0	1520435200	60	25132
2026-01-22 01:02:37.59	339.09	3.70	-46.2	-60.5	3.6	1.51e+00	0	41	104	1520435200	60	38102
2026-01-22 01:02:41.62	339.20	3.44	-46.5	-61.7	3.6	1.51e+00	0	41	104	1520435200	60	44076
2026-01-22 01:02:45.67	339.30	3.17	-46.3	-61.5	3.6	1.51e+00	0	41	104	1520435200	60	42897
2026-01-22 01:02:49.71	339.40	2.91	-48.9	-64.3	3.6	1.51e+00	0	41	104	1520435200	60	59082
2026-01-22 01:02:53.75	339.50	2.65	-51.0	-66.1	3.6	1.51e+00	0	41	104	1520435200	60	73261
2026-01-22 01:02:57.78	339.60	2.39	-51.2	-66.5	3.6	1.51e+00	0	41	104	1520435200	60	76140
2026-01-22 01:03:01.82	339.70	2.13	-51.2	-66.6	3.6	1.51e+00	0	41	104	1520435200	60	76845
2026-01-22 01:03:05.86	339.80	1.88	-51.2	-66.4	3.6	1.51e+00	0	41	104	1520435200	60	75745
2026-01-22 01:03:09.90	339.89	1.63	-51.2	-66.4	3.6	1.51e+00	0	41	104	1520435200	60	75772
2026-01-22 01:03:13.94	339.99	1.38	-51.2	-66.5	3.6	1.51e+00	0	41	104	1520435200	60	76092
2026-01-22 01:03:17.98	340.08	1.13	-51.2	-66.4	3.6	1.51e+00	0	41	104	1520435200	60	75861
2026-01-22 01:03:22.02	340.17	0.89	-51.2	-66.5	3.6	1.51e+00	0	41	104	1520435200	60	76005
2026-01-22 01:03:26.06	340.26	0.65	-51.3	-66.6	3.6	1.51e+00	0	41	104	1520435200	60	77196
2026-01-22 01:03:30.10	340.35	0.40	-51.3	-66.5	3.6	1.51e+00	0	41	104	1520435200	60	76711
2026-01-22 01:03:34.14	340.44	0.16	-51.2	-66.4	3.6	1.51e+00	0	41	104	1520435200	60	75461
2026-01-22 01:03:38.18	340.53	-0.07	-51.3	-66.5	3.6	1.51e+00	0	41	104	1520435200	60	76197

#Closed at: 2026-01-22 01:03:38
#Recorded file [1520 MB]: D:/lorett/data/35029_260122_124809.dat