passes_logs/2026/01/22/R4.6S_Anadyr/R4.6S_Anadyr__20260122_173342_SUOMI_NPP_rec.log

#Pass ID: 20260122_173342_SUOMI NPP
#Satellite: SUOMI NPP
#Configuration: NPP
#almurnet v.1.7.20251203
#Start time: 2026-01-22 17:33:43

#Version: 2.2.20231116
#Station: R4.6S_Anadyr
#Location: 177.4865 lon 64.73178 lat
#TLE: 1 37849U 11061A   26021.51818991  .00000201  00000+0  11636-3 0  9995
#TLE: 2 37849  98.7819 323.5108 0002300  52.3548 307.7836 14.19527793737637

#Time	Az	El	Level	Level2	SNR	BER	BlckErr	Temp	State	Recorded	gain1	gain2
2026-01-22 17:33:43.52	32.32	0.03	-51.4	-63.0	3.5	8.46e-01	0	38	0	0	60	51229
2026-01-22 17:33:47.56	32.08	0.24	-51.9	-67.2	3.6	1.51e+00	0	40	104	0	60	82532
2026-01-22 17:33:51.60	31.83	0.46	-51.4	-66.7	3.6	1.51e+00	0	40	104	0	60	77938
2026-01-22 17:33:55.64	31.58	0.68	-51.2	-66.5	3.6	1.51e+00	0	40	104	0	60	76295
2026-01-22 17:33:59.68	31.33	0.89	-51.0	-66.2	3.6	1.51e+00	0	40	104	0	60	73986
2026-01-22 17:34:03.72	31.08	1.11	-50.5	-65.8	3.6	1.51e+00	0	40	104	0	60	70500
2026-01-22 17:34:07.76	30.82	1.33	-49.6	-64.8	3.6	1.51e+00	0	40	104	0	60	62875
2026-01-22 17:34:11.80	30.56	1.55	-49.6	-64.7	3.6	1.51e+00	0	40	104	0	60	62219
2026-01-22 17:34:15.84	30.29	1.78	-49.5	-64.8	3.6	1.51e+00	0	40	104	0	60	62666
2026-01-22 17:34:19.88	30.02	2.00	-49.6	-64.7	3.6	1.51e+00	0	40	104	0	60	62383
2026-01-22 17:34:23.92	29.74	2.22	-49.6	-64.6	3.6	1.51e+00	0	40	104	0	60	61223
2026-01-22 17:34:27.96	29.46	2.45	-49.6	-64.8	3.6	1.51e+00	0	40	104	0	60	62759
2026-01-22 17:34:31.99	29.17	2.67	-49.6	-64.8	3.6	1.51e+00	0	40	104	0	60	62790
2026-01-22 17:34:36.03	28.88	2.90	-49.5	-63.7	3.6	1.51e+00	0	40	104	0	60	55561
2026-01-22 17:34:40.07	28.59	3.13	-49.4	-61.7	3.7	1.50e+00	0	40	104	0	60	43774
2026-01-22 17:34:44.11	28.29	3.36	-49.4	-64.2	3.6	1.21e+00	0	41	104	0	60	58848
2026-01-22 17:34:48.15	27.98	3.59	-47.9	-52.7	11.4	2.79e-02	0	40	0	2097152	60	15599
2026-01-22 17:34:52.19	27.68	3.83	-47.8	-52.3	11.1	1.20e-03	0	40	0	9437184	60	14852
2026-01-22 17:34:56.22	27.36	4.06	-46.7	-49.9	14.0	7.00e-07	68	40	0	17825792	60	11335
2026-01-22 17:35:00.26	27.04	4.29	-44.6	-46.5	17.3	0.00e+00	0	40	0	25165824	60	7683
2026-01-22 17:35:04.29	26.72	4.53	-43.6	-45.2	18.8	0.00e+00	0	40	0	32505856	60	6589
2026-01-22 17:35:08.33	26.38	4.77	-43.4	-44.9	19.0	0.00e+00	0	40	0	39845888	60	6374
2026-01-22 17:35:12.36	26.05	5.00	-43.9	-45.6	18.4	0.00e+00	63	40	0	47185920	60	6871
2026-01-22 17:35:16.40	25.71	5.24	-44.1	-45.8	18.3	0.00e+00	0	40	0	55574528	60	7079
2026-01-22 17:35:20.44	25.36	5.48	-44.3	-46.1	18.1	0.00e+00	0	40	0	62914560	60	7309
2026-01-22 17:35:24.48	25.00	5.72	-44.2	-46.0	18.2	0.00e+00	0	41	0	70254592	60	7191
2026-01-22 17:35:28.51	24.64	5.97	-44.0	-45.7	18.5	0.00e+00	76	41	0	77594624	60	6969
2026-01-22 17:35:32.54	24.28	6.21	-43.6	-45.2	18.9	0.00e+00	0	41	0	85983232	60	6608
2026-01-22 17:35:36.58	23.90	6.46	-43.6	-45.1	19.0	0.00e+00	0	41	0	93323264	60	6529
2026-01-22 17:35:40.62	23.52	6.70	-43.2	-44.7	19.5	0.00e+00	68	41	0	100663296	60	6207
2026-01-22 17:35:44.65	23.14	6.95	-43.0	-44.4	19.8	0.00e+00	0	41	0	108003328	60	6017
2026-01-22 17:35:48.69	22.74	7.20	-42.6	-44.0	20.2	0.00e+00	0	41	0	115343360	58	6404
2026-01-22 17:35:52.73	22.34	7.45	-42.6	-44.0	20.1	0.00e+00	0	41	0	123731968	58	6394
2026-01-22 17:35:56.77	21.93	7.70	-42.6	-44.0	20.2	0.00e+00	92	41	0	131072000	58	6396
2026-01-22 17:36:00.80	21.52	7.95	-42.8	-44.1	20.1	0.00e+00	0	41	0	138412032	58	6503
2026-01-22 17:36:04.84	21.10	8.20	-43.1	-44.5	19.8	0.00e+00	0	41	0	145752064	58	6799
2026-01-22 17:36:08.88	20.67	8.46	-43.4	-44.8	19.5	0.00e+00	0	41	0	153092096	58	7086
2026-01-22 17:36:12.92	20.23	8.71	-43.3	-44.8	19.4	0.00e+00	76	41	0	161480704	58	7032
2026-01-22 17:36:16.96	19.78	8.97	-43.0	-44.3	19.7	0.00e+00	0	41	0	168820736	58	6674
2026-01-22 17:36:21.00	19.33	9.22	-42.8	-44.1	20.1	0.00e+00	0	41	0	176160768	58	6525
2026-01-22 17:36:25.03	18.86	9.48	-42.7	-44.1	20.2	0.00e+00	75	41	0	183500800	58	6472
2026-01-22 17:36:29.05	18.40	9.74	-42.7	-44.1	20.2	0.00e+00	0	41	0	191889408	58	6473
2026-01-22 17:36:33.09	17.92	10.00	-42.7	-44.0	20.2	0.00e+00	0	41	0	199229440	58	6460
2026-01-22 17:36:37.12	17.43	10.26	-43.0	-44.4	20.0	0.00e+00	0	41	0	206569472	58	6748
2026-01-22 17:36:41.16	16.93	10.52	-42.5	-43.8	20.5	0.00e+00	57	41	0	213909504	58	6263
2026-01-22 17:36:45.19	16.42	10.78	-42.4	-43.7	20.6	0.00e+00	0	41	0	221249536	58	6195
2026-01-22 17:36:49.23	15.91	11.04	-42.1	-43.3	21.0	0.00e+00	0	41	0	229638144	58	5929
2026-01-22 17:36:53.27	15.38	11.30	-41.7	-42.9	21.4	0.00e+00	0	41	0	236978176	56	6329
2026-01-22 17:36:57.30	14.85	11.56	-41.9	-43.0	21.2	0.00e+00	92	41	0	244318208	56	6463
2026-01-22 17:37:01.34	14.30	11.82	-42.0	-43.2	21.0	0.00e+00	0	41	0	251658240	56	6585
2026-01-22 17:37:05.38	13.75	12.09	-42.1	-43.3	21.0	0.00e+00	0	41	0	260046848	56	6679
2026-01-22 17:37:09.41	13.18	12.35	-42.2	-43.5	20.6	0.00e+00	17	41	0	267386880	56	6802
2026-01-22 17:37:13.46	12.60	12.61	-41.8	-42.9	21.4	0.00e+00	92	41	0	274726912	56	6370
2026-01-22 17:37:17.49	12.02	12.88	-42.2	-43.5	20.9	0.00e+00	0	41	0	282066944	56	6787
2026-01-22 17:37:21.53	11.42	13.14	-42.0	-43.2	21.3	0.00e+00	0	41	0	289406976	56	6561
2026-01-22 17:37:25.57	10.81	13.40	-42.0	-43.2	21.2	0.00e+00	25	41	0	297795584	56	6595
2026-01-22 17:37:29.61	10.19	13.66	-42.5	-43.8	20.6	0.00e+00	0	41	0	305135616	56	7073
2026-01-22 17:37:33.64	9.56	13.92	-42.5	-43.8	20.4	0.00e+00	0	41	0	312475648	58	6286
2026-01-22 17:37:37.68	8.92	14.18	-42.1	-43.3	21.0	0.00e+00	0	41	0	319815680	58	5926
2026-01-22 17:37:41.72	8.27	14.44	-42.0	-43.2	21.2	0.00e+00	75	41	0	328204288	58	5868
2026-01-22 17:37:45.76	7.60	14.70	-42.5	-43.7	20.7	0.00e+00	0	41	0	335544320	58	6234
2026-01-22 17:37:49.80	6.92	14.96	-41.8	-42.9	21.6	0.00e+00	0	41	0	342884352	56	6379
2026-01-22 17:37:53.84	6.24	15.21	-42.5	-43.7	20.8	0.00e+00	0	41	0	350224384	56	6979
2026-01-22 17:37:57.87	5.54	15.47	-42.4	-43.7	20.9	0.00e+00	84	41	0	357564416	56	6952
2026-01-22 17:38:01.91	4.82	15.72	-43.0	-44.4	20.1	0.00e+00	0	41	0	365953024	58	6755
2026-01-22 17:38:05.95	4.10	15.97	-42.5	-43.9	20.7	0.00e+00	0	41	0	373293056	58	6327
2026-01-22 17:38:09.99	3.36	16.22	-42.0	-43.2	21.2	0.00e+00	0	41	0	380633088	58	5872
2026-01-22 17:38:14.03	2.61	16.46	-40.6	-41.6	22.6	0.00e+00	0	41	0	387973120	54	6136
2026-01-22 17:38:18.06	1.84	16.71	-40.9	-42.0	22.3	0.00e+00	0	41	0	396361728	54	6416
2026-01-22 17:38:22.10	1.07	16.95	-40.5	-41.5	22.6	0.00e+00	0	41	0	403701760	54	6076
2026-01-22 17:38:26.14	0.28	17.18	-40.8	-41.9	22.3	0.00e+00	53	41	0	411041792	54	6353
2026-01-22 17:38:30.18	359.48	17.42	-39.7	-40.6	23.3	0.00e+00	0	41	0	418381824	52	6156
2026-01-22 17:38:34.22	358.67	17.65	-40.1	-41.1	23.0	0.00e+00	0	41	0	425721856	52	6488
2026-01-22 17:38:38.25	357.84	17.87	-39.7	-40.7	23.3	0.00e+00	0	41	0	434110464	52	6174
2026-01-22 17:38:42.29	357.00	18.09	-40.0	-40.9	23.1	0.00e+00	92	41	0	441450496	52	6390
2026-01-22 17:38:46.33	356.15	18.31	-40.0	-41.0	22.7	0.00e+00	0	41	0	448790528	52	6398
2026-01-22 17:38:50.36	355.29	18.52	-40.2	-41.3	22.8	0.00e+00	0	41	0	456130560	52	6616
2026-01-22 17:38:54.40	354.41	18.73	-39.7	-40.6	23.4	0.00e+00	0	41	0	463470592	52	6172
2026-01-22 17:38:58.44	353.53	18.93	-39.8	-40.7	23.3	0.00e+00	74	41	0	471859200	52	6202
2026-01-22 17:39:02.48	352.63	19.13	-38.8	-39.6	24.2	0.00e+00	0	41	0	479199232	52	5466
2026-01-22 17:39:06.51	351.72	19.32	-38.8	-39.7	24.0	0.00e+00	0	41	0	486539264	50	6180
2026-01-22 17:39:10.55	350.80	19.50	-39.4	-40.3	23.5	0.00e+00	74	41	0	493879296	50	6662
2026-01-22 17:39:14.59	349.86	19.68	-39.6	-40.5	23.5	0.00e+00	0	41	0	502267904	52	6082
2026-01-22 17:39:18.63	348.92	19.85	-39.5	-40.5	23.6	0.00e+00	0	41	0	509607936	52	6052
2026-01-22 17:39:22.66	347.97	20.01	-39.5	-40.5	23.3	0.00e+00	0	41	0	516947968	52	6036
2026-01-22 17:39:26.70	347.00	20.17	-39.3	-40.2	23.8	0.00e+00	77	41	0	524288000	52	5878
2026-01-22 17:39:30.74	346.03	20.32	-38.9	-39.8	24.1	0.00e+00	0	41	0	531628032	50	6255
2026-01-22 17:39:34.77	345.05	20.46	-39.2	-40.0	23.8	0.00e+00	0	41	0	540016640	50	6441
2026-01-22 17:39:38.81	344.05	20.59	-39.4	-40.3	23.7	0.00e+00	0	41	0	547356672	50	6662
2026-01-22 17:39:42.85	343.05	20.71	-40.3	-41.3	22.8	0.00e+00	83	41	0	554696704	52	6625
2026-01-22 17:39:46.89	342.04	20.83	-40.6	-41.6	22.7	0.00e+00	0	41	0	562036736	52	6896
2026-01-22 17:39:50.93	341.03	20.93	-41.5	-42.6	21.8	0.00e+00	0	41	0	570425344	54	6872
2026-01-22 17:39:54.96	340.01	21.03	-40.9	-41.9	22.2	0.00e+00	57	41	0	577765376	54	6374
2026-01-22 17:39:59.01	338.97	21.12	-41.6	-42.8	21.5	0.00e+00	57	41	0	585105408	54	7011
2026-01-22 17:40:03.04	337.94	21.19	-41.5	-42.7	21.8	0.00e+00	0	41	0	592445440	56	6220
2026-01-22 17:40:07.08	336.90	21.26	-41.1	-42.2	22.3	0.00e+00	0	41	0	599785472	56	5856
2026-01-22 17:40:11.12	335.86	21.32	-41.6	-42.7	22.0	0.00e+00	79	41	0	608174080	56	6206
2026-01-22 17:40:15.16	334.81	21.37	-40.3	-41.3	23.0	0.00e+00	0	41	0	615514112	54	5908
2026-01-22 17:40:19.20	333.76	21.41	-41.4	-42.5	21.9	0.00e+00	0	41	0	622854144	54	6810
2026-01-22 17:40:23.24	332.71	21.43	-41.8	-42.9	21.6	0.00e+00	0	41	0	630194176	56	6377
2026-01-22 17:40:27.28	331.65	21.45	-42.0	-43.2	21.5	0.00e+00	79	41	0	638582784	56	6541
2026-01-22 17:40:31.32	330.60	21.46	-40.8	-41.8	22.6	0.00e+00	0	41	0	645922816	56	5620
2026-01-22 17:40:35.35	329.54	21.45	-40.5	-41.4	22.9	0.00e+00	33	41	0	653262848	54	6033
2026-01-22 17:40:39.39	328.49	21.44	-40.5	-41.5	22.8	0.00e+00	65	41	0	660602880	54	6078
2026-01-22 17:40:43.42	327.44	21.42	-41.0	-42.1	22.2	0.00e+00	8	41	0	667942912	54	6484
2026-01-22 17:40:47.46	326.38	21.38	-41.0	-42.1	22.4	0.00e+00	0	41	0	676331520	54	6479
2026-01-22 17:40:51.49	325.34	21.34	-39.6	-40.4	23.6	0.00e+00	0	41	0	683671552	52	6032
2026-01-22 17:40:55.53	324.29	21.28	-39.2	-40.1	24.0	0.00e+00	65	41	0	691011584	52	5764
2026-01-22 17:40:59.57	323.25	21.22	-39.0	-39.9	24.0	0.00e+00	0	41	0	698351616	52	5631
2026-01-22 17:41:03.61	322.21	21.14	-39.9	-40.8	23.4	0.00e+00	0	41	0	706740224	52	6254
2026-01-22 17:41:07.64	321.18	21.06	-38.9	-39.7	24.3	0.00e+00	0	41	0	714080256	52	5564
2026-01-22 17:41:11.68	320.16	20.97	-39.1	-40.0	24.0	0.00e+00	83	41	0	721420288	52	5726
2026-01-22 17:41:15.72	319.14	20.86	-39.9	-40.8	23.4	0.00e+00	0	41	0	728760320	52	6287
2026-01-22 17:41:19.76	318.12	20.75	-39.5	-40.4	23.7	0.00e+00	0	41	0	736100352	52	5990
2026-01-22 17:41:23.80	317.12	20.63	-39.6	-40.5	23.6	0.00e+00	0	41	0	744488960	52	6051
2026-01-22 17:41:27.83	316.13	20.50	-40.7	-41.6	22.8	0.00e+00	77	41	0	751828992	52	6924
2026-01-22 17:41:31.87	315.14	20.37	-41.5	-42.5	22.1	0.00e+00	0	41	0	759169024	54	6841
2026-01-22 17:41:35.91	314.16	20.22	-40.7	-41.7	22.6	0.00e+00	0	41	0	766509056	54	6227
2026-01-22 17:41:39.95	313.19	20.07	-41.4	-42.5	22.1	0.00e+00	0	41	0	774897664	54	6794
2026-01-22 17:41:43.98	312.23	19.91	-41.8	-43.0	21.8	0.00e+00	23	41	0	782237696	56	6397
2026-01-22 17:41:48.02	311.28	19.74	-41.3	-42.3	22.4	0.00e+00	0	41	0	789577728	56	5941
2026-01-22 17:41:52.05	310.35	19.56	-41.1	-42.1	22.5	0.00e+00	0	41	0	796917760	56	5777
2026-01-22 17:41:56.09	309.42	19.38	-41.3	-42.3	22.3	0.00e+00	58	41	0	804257792	56	5925
2026-01-22 17:42:00.13	308.50	19.19	-40.4	-41.3	23.0	0.00e+00	0	41	0	812646400	54	5939
2026-01-22 17:42:04.17	307.60	19.00	-39.6	-40.4	23.7	0.00e+00	0	41	0	819986432	52	5983
2026-01-22 17:42:08.21	306.71	18.80	-39.9	-40.8	23.5	0.00e+00	0	41	0	827326464	52	6297
2026-01-22 17:42:12.25	305.83	18.59	-41.6	-42.6	22.0	0.00e+00	83	41	0	834666496	54	6898
2026-01-22 17:42:16.28	304.96	18.38	-41.8	-42.9	21.8	0.00e+00	0	41	0	843055104	56	6365
2026-01-22 17:42:20.32	304.10	18.16	-42.5	-43.7	21.1	0.00e+00	0	41	0	850395136	56	6986
2026-01-22 17:42:24.36	303.26	17.94	-43.2	-44.5	20.4	0.00e+00	0	41	0	857735168	58	6810
2026-01-22 17:42:28.40	302.43	17.72	-41.3	-42.3	22.3	0.00e+00	77	41	0	865075200	56	5963
2026-01-22 17:42:32.43	301.61	17.49	-40.2	-41.1	23.3	0.00e+00	0	41	0	872415232	54	5788
2026-01-22 17:42:36.47	300.80	17.26	-40.6	-41.6	22.7	0.00e+00	0	41	0	880803840	54	6107
2026-01-22 17:42:40.51	300.01	17.02	-41.3	-42.4	22.2	0.00e+00	34	41	0	888143872	54	6700
2026-01-22 17:42:44.55	299.22	16.78	-40.6	-41.6	22.8	0.00e+00	0	41	0	895483904	54	6121
2026-01-22 17:42:48.59	298.46	16.54	-41.2	-42.2	22.3	0.00e+00	0	41	0	902823936	54	6565
2026-01-22 17:42:52.63	297.70	16.30	-42.9	-44.1	20.8	0.00e+00	0	41	0	910163968	58	6525
2026-01-22 17:42:56.67	296.95	16.05	-41.7	-42.7	21.9	0.00e+00	90	42	0	918552576	58	5562
2026-01-22 17:43:00.71	296.22	15.80	-41.5	-42.6	22.0	0.00e+00	0	41	0	925892608	56	6116
2026-01-22 17:43:04.75	295.50	15.55	-41.1	-42.1	22.4	0.00e+00	0	41	0	933232640	56	5824
2026-01-22 17:43:08.79	294.80	15.29	-41.6	-42.6	22.0	0.00e+00	0	41	0	940572672	56	6155
2026-01-22 17:43:12.83	294.10	15.04	-42.4	-43.6	21.1	0.00e+00	90	41	0	948961280	56	6859
2026-01-22 17:43:16.87	293.42	14.78	-41.1	-42.1	22.4	0.00e+00	0	42	0	956301312	56	5812
2026-01-22 17:43:20.91	292.75	14.52	-41.5	-42.6	22.0	0.00e+00	0	41	0	963641344	56	6154
2026-01-22 17:43:24.95	292.09	14.26	-42.1	-43.2	21.7	0.00e+00	0	42	0	970981376	56	6571
2026-01-22 17:43:28.98	291.44	14.00	-41.4	-42.4	22.0	0.00e+00	0	42	0	978321408	56	6024
2026-01-22 17:43:33.02	290.80	13.74	-40.6	-41.6	22.8	0.00e+00	0	41	0	986710016	54	6110
2026-01-22 17:43:37.06	290.18	13.48	-40.5	-41.4	22.8	0.00e+00	0	41	0	994050048	54	6016
2026-01-22 17:43:41.09	289.57	13.22	-39.6	-40.4	23.5	0.00e+00	57	41	0	1001390080	52	6017
2026-01-22 17:43:45.13	288.96	12.95	-39.8	-40.7	23.4	0.00e+00	0	41	0	1008730112	52	6196
2026-01-22 17:43:49.17	288.37	12.69	-40.7	-41.6	22.7	0.00e+00	33	41	0	1017118720	52	6926
2026-01-22 17:43:53.21	287.79	12.43	-41.0	-42.0	22.3	0.00e+00	0	42	0	1024458752	54	6424
2026-01-22 17:43:57.24	287.22	12.16	-40.6	-41.6	22.6	0.00e+00	91	41	0	1031798784	54	6115
2026-01-22 17:44:01.28	286.66	11.90	-40.1	-41.0	23.1	0.00e+00	0	41	0	1039138816	54	5719
2026-01-22 17:44:05.32	286.11	11.64	-40.5	-41.5	22.4	0.00e+00	0	41	0	1046478848	54	6072
2026-01-22 17:44:09.36	285.57	11.37	-41.2	-42.3	21.9	0.00e+00	76	41	0	1054867456	54	6652
2026-01-22 17:44:13.40	285.04	11.11	-41.5	-42.6	21.7	0.00e+00	72	42	0	1062207488	54	6918
2026-01-22 17:44:17.45	284.51	10.85	-40.8	-41.8	22.3	0.00e+00	0	41	0	1069547520	54	6312
2026-01-22 17:44:21.49	284.00	10.59	-40.0	-40.9	23.1	0.00e+00	0	41	0	1076887552	54	5643
2026-01-22 17:44:25.53	283.50	10.33	-40.3	-41.2	22.8	0.00e+00	69	42	0	1085276160	52	6584
2026-01-22 17:44:29.57	283.00	10.07	-41.4	-42.5	21.7	0.00e+00	0	41	0	1092616192	54	6804
2026-01-22 17:44:33.61	282.52	9.81	-41.8	-42.9	21.6	0.00e+00	0	42	0	1099956224	56	6356
2026-01-22 17:44:37.65	282.04	9.55	-41.1	-42.2	22.0	0.00e+00	0	42	0	1107296256	56	5840
2026-01-22 17:44:41.69	281.58	9.29	-41.2	-42.3	22.0	0.00e+00	90	42	0	1114636288	56	5919
2026-01-22 17:44:45.73	281.12	9.03	-41.4	-42.5	21.7	0.00e+00	0	41	0	1123024896	56	6091
2026-01-22 17:44:49.77	280.67	8.78	-42.0	-43.2	21.2	0.00e+00	0	41	0	1130364928	56	6557
2026-01-22 17:44:53.81	280.22	8.52	-42.2	-43.4	20.9	0.00e+00	9	42	0	1137704960	56	6711
2026-01-22 17:44:57.84	279.79	8.27	-42.5	-43.8	20.6	0.00e+00	72	41	0	1145044992	56	7009
2026-01-22 17:45:01.88	279.36	8.01	-42.1	-43.3	21.0	0.00e+00	0	41	0	1153433600	56	6666
2026-01-22 17:45:05.92	278.94	7.76	-42.5	-43.7	20.7	0.00e+00	0	42	0	1160773632	56	6962
2026-01-22 17:45:09.96	278.53	7.51	-43.2	-44.6	19.8	0.00e+00	71	42	0	1168113664	58	6923
2026-01-22 17:45:14.00	278.13	7.26	-43.6	-45.1	19.3	0.00e+00	0	41	0	1175453696	58	7318
2026-01-22 17:45:18.04	277.73	7.01	-42.9	-44.3	20.0	0.00e+00	0	41	0	1182793728	58	6659
2026-01-22 17:45:22.08	277.34	6.76	-42.6	-43.9	20.5	0.00e+00	0	41	0	1191182336	58	6321
2026-01-22 17:45:26.12	276.95	6.51	-42.3	-43.6	20.7	0.00e+00	92	42	0	1198522368	58	6122
2026-01-22 17:45:30.16	276.57	6.27	-42.5	-43.7	20.5	0.00e+00	0	42	0	1205862400	58	6241
2026-01-22 17:45:34.20	276.20	6.02	-42.7	-44.0	20.3	0.00e+00	0	42	0	1213202432	58	6409
2026-01-22 17:45:38.23	275.84	5.78	-42.5	-43.8	20.2	0.00e+00	0	42	0	1221591040	58	6287
2026-01-22 17:45:42.27	275.48	5.54	-42.5	-43.8	20.3	0.00e+00	92	42	0	1228931072	58	6303
2026-01-22 17:45:46.31	275.13	5.30	-42.9	-44.2	19.9	0.00e+00	0	42	0	1236271104	58	6603
2026-01-22 17:45:50.35	274.78	5.06	-42.8	-44.1	19.8	0.00e+00	0	42	0	1243611136	58	6525
2026-01-22 17:45:54.38	274.44	4.82	-43.2	-44.7	19.3	0.00e+00	0	42	0	1250951168	58	6952
2026-01-22 17:45:58.43	274.11	4.58	-43.7	-45.3	18.8	0.00e+00	47	42	0	1259339776	58	7447
2026-01-22 17:46:02.47	273.78	4.34	-44.1	-45.9	18.2	0.00e+00	0	42	0	1266679808	60	7139
2026-01-22 17:46:06.51	273.45	4.11	-44.8	-46.9	17.2	0.00e+00	0	42	0	1274019840	60	7972
2026-01-22 17:46:10.54	273.13	3.87	-45.4	-47.6	16.5	0.00e+00	64	42	0	1281359872	60	8713
2026-01-22 17:46:14.59	272.82	3.64	-45.3	-47.5	16.4	0.00e+00	0	42	0	1289748480	60	8565
2026-01-22 17:46:18.62	272.51	3.41	-44.9	-47.0	16.9	0.00e+00	0	42	0	1297088512	60	8123
2026-01-22 17:46:22.67	272.21	3.18	-44.8	-46.9	17.1	0.00e+00	0	42	0	1304428544	60	8013
2026-01-22 17:46:26.71	271.91	2.95	-50.5	-65.7	3.5	1.51e+00	0	42	104	1309671424	60	69485
2026-01-22 17:46:30.75	271.62	2.72	-51.0	-66.2	3.6	1.51e+00	0	42	104	1309671424	60	73821
2026-01-22 17:46:34.78	271.33	2.49	-51.2	-66.4	3.6	1.51e+00	0	42	104	1309671424	60	75338
2026-01-22 17:46:38.82	271.04	2.27	-51.2	-66.3	3.6	1.51e+00	0	42	104	1309671424	60	75040
2026-01-22 17:46:42.86	270.76	2.04	-51.1	-66.4	3.6	1.51e+00	0	42	104	1309671424	60	75253
2026-01-22 17:46:46.90	270.49	1.82	-51.1	-66.4	3.6	1.51e+00	0	42	104	1309671424	60	75122
2026-01-22 17:46:50.94	270.22	1.60	-51.3	-66.5	3.6	1.51e+00	0	42	104	1309671424	60	76142
2026-01-22 17:46:54.98	269.95	1.38	-51.4	-66.6	3.6	1.51e+00	0	42	104	1309671424	60	77414
2026-01-22 17:46:59.02	269.69	1.16	-51.4	-66.7	3.6	1.51e+00	0	42	104	1309671424	60	77732
2026-01-22 17:47:03.06	269.43	0.94	-51.4	-66.5	3.6	1.51e+00	0	42	104	1309671424	60	76800
2026-01-22 17:47:07.09	269.17	0.72	-51.4	-66.6	3.6	1.51e+00	0	42	104	1309671424	60	77505
2026-01-22 17:47:11.13	268.92	0.50	-51.4	-66.6	3.6	1.51e+00	0	42	104	1309671424	60	76869
2026-01-22 17:47:15.17	268.68	0.29	-51.4	-66.6	3.6	1.51e+00	0	42	104	1309671424	60	77441
2026-01-22 17:47:19.21	268.43	0.07	-51.5	-66.7	3.6	1.51e+00	0	42	104	1309671424	60	78129

#Closed at: 2026-01-22 17:47:22
#Recorded file [1309 MB]: D:/lorett/data/35029_260123_053343.dat