passes_logs/2026/01/22/R4.6S_Anadyr/R4.6S_Anadyr__20260122_120310_NOAA_21_JPSS-2_rec.log

#Pass ID: 20260122_120310_NOAA 21 (JPSS-2)
#Satellite: NOAA 21 (JPSS-2)
#Configuration: NOAA-21
#almurnet v.1.7.20251203
#Start time: 2026-01-22 12:03:13

#Version: 2.2.20231116
#Station: R4.6S_Anadyr
#Location: 177.4865 lon 64.73178 lat
#TLE: 1 54234U 22150A   26021.42686626  .00000211  00000+0  12107-3 0  9996
#TLE: 2 54234  98.7506 322.2490 0000636 241.9299 118.1812 14.19537149165725

#Time	Az	El	Level	Level2	SNR	BER	BlckErr	Temp	State	Recorded	gain1	gain2
2026-01-22 12:03:13.98	19.66	0.15	-52.8	-54.4	5.7	0.00e+00	0	38	0	0	60	64242
2026-01-22 12:03:17.01	19.91	0.29	-51.8	-64.6	3.5	1.52e+00	0	40	104	0	60	59947
2026-01-22 12:03:20.04	20.17	0.43	-51.5	-64.4	3.5	1.52e+00	0	40	104	0	60	58335
2026-01-22 12:03:23.07	20.43	0.57	-51.3	-64.2	3.5	1.52e+00	0	40	104	0	60	57081
2026-01-22 12:03:26.10	20.68	0.71	-51.1	-64.0	3.5	1.52e+00	0	40	104	0	60	55453
2026-01-22 12:03:29.13	20.95	0.85	-50.9	-63.7	3.5	1.52e+00	0	40	104	0	60	53488
2026-01-22 12:03:32.16	21.21	0.98	-50.6	-63.5	3.5	1.52e+00	0	40	104	0	60	52386
2026-01-22 12:03:35.19	21.48	1.12	-49.8	-62.7	3.5	1.52e+00	0	40	104	0	60	47651
2026-01-22 12:03:38.22	21.74	1.26	-49.7	-62.5	3.5	1.52e+00	0	40	104	0	60	46842
2026-01-22 12:03:41.25	22.01	1.40	-49.7	-62.5	3.5	1.52e+00	0	40	104	0	60	46941
2026-01-22 12:03:44.28	22.29	1.54	-49.7	-62.5	3.5	1.52e+00	0	40	104	0	60	46995
2026-01-22 12:03:47.31	22.56	1.68	-49.8	-62.6	3.5	1.52e+00	0	40	104	0	60	47366
2026-01-22 12:03:50.34	22.84	1.82	-49.7	-62.5	3.5	1.52e+00	0	41	104	0	60	46923
2026-01-22 12:03:53.36	23.12	1.96	-49.7	-62.4	3.5	1.52e+00	0	40	104	0	60	46047
2026-01-22 12:03:56.39	23.40	2.10	-49.6	-62.4	3.5	1.52e+00	0	41	104	0	60	46117
2026-01-22 12:03:59.43	23.69	2.25	-49.6	-62.3	3.5	1.52e+00	0	41	104	0	60	45864
2026-01-22 12:04:02.45	23.98	2.39	-49.5	-60.7	3.7	1.51e+00	0	41	104	0	60	37993
2026-01-22 12:04:05.48	24.27	2.53	-48.5	-54.4	7.4	4.26e-01	0	41	0	0	60	18405
2026-01-22 12:04:08.51	24.56	2.67	-42.3	-43.9	17.8	0.00e+00	0	41	0	9437184	58	6153
2026-01-22 12:04:11.54	24.86	2.81	-41.4	-42.8	19.1	0.00e+00	0	41	0	18874368	56	6080
2026-01-22 12:04:14.57	25.16	2.95	-45.9	-48.6	12.8	6.10e-06	0	41	0	28311552	60	9498
2026-01-22 12:04:17.60	25.46	3.09	-47.4	-51.6	4.3	0.00e+00	0	41	0	37748736	60	13324
2026-01-22 12:04:20.63	25.76	3.23	-49.6	-61.0	3.5	5.44e-01	0	41	104	39845888	60	39288
2026-01-22 12:04:23.65	26.07	3.38	-42.7	-44.3	17.7	0.00e+00	0	41	0	46137344	60	5745
2026-01-22 12:04:26.69	26.38	3.52	-41.4	-42.7	19.1	0.00e+00	0	41	0	55574528	56	6050
2026-01-22 12:04:29.71	26.69	3.66	-41.8	-43.2	18.7	0.00e+00	0	41	0	65011712	56	6409
2026-01-22 12:04:32.74	27.01	3.80	-41.6	-43.0	19.0	0.00e+00	0	41	0	74448896	56	6225
2026-01-22 12:04:35.76	27.32	3.94	-41.2	-42.5	19.5	0.00e+00	0	41	0	83886080	56	5865
2026-01-22 12:04:38.79	27.64	4.08	-41.1	-42.4	19.2	0.00e+00	0	41	0	93323264	54	6538
2026-01-22 12:04:41.82	27.97	4.23	-41.4	-42.7	19.3	0.00e+00	0	41	0	102760448	56	6045
2026-01-22 12:04:44.85	28.30	4.37	-41.1	-42.4	19.4	0.00e+00	0	41	0	112197632	56	5831
2026-01-22 12:04:47.88	28.63	4.51	-41.3	-42.6	19.4	0.00e+00	0	41	0	121634816	56	5978
2026-01-22 12:04:50.91	28.96	4.65	-41.0	-42.2	19.7	0.00e+00	0	41	0	131072000	54	6401
2026-01-22 12:04:53.94	29.30	4.79	-40.6	-41.8	20.2	0.00e+00	0	41	0	140509184	54	6111
2026-01-22 12:04:56.98	29.64	4.94	-40.7	-41.9	20.0	0.00e+00	0	41	0	149946368	54	6197
2026-01-22 12:05:00.00	29.98	5.08	-40.4	-41.6	20.4	0.00e+00	0	41	0	159383552	54	5940
2026-01-22 12:05:03.03	30.33	5.22	-39.8	-40.9	21.0	0.00e+00	0	41	0	168820736	52	6139
2026-01-22 12:05:06.06	30.68	5.36	-39.9	-41.0	20.9	0.00e+00	0	41	0	178257920	52	6236
2026-01-22 12:05:09.09	31.03	5.50	-40.3	-41.4	20.6	0.00e+00	0	41	0	187695104	52	6560
2026-01-22 12:05:12.12	31.38	5.64	-40.3	-41.5	20.4	0.00e+00	0	41	0	197132288	52	6616
2026-01-22 12:05:15.15	31.74	5.79	-40.3	-41.4	20.6	0.00e+00	0	41	0	206569472	52	6557
2026-01-22 12:05:18.17	32.11	5.93	-40.4	-41.5	20.5	0.00e+00	0	41	0	216006656	52	6639
2026-01-22 12:05:21.20	32.47	6.07	-40.1	-41.3	20.7	0.00e+00	0	41	0	225443840	52	6443
2026-01-22 12:05:24.23	32.84	6.21	-40.6	-41.8	20.3	0.00e+00	0	41	0	234881024	52	6835
2026-01-22 12:05:27.26	33.21	6.35	-40.3	-41.5	20.7	0.00e+00	0	41	0	244318208	52	6601
2026-01-22 12:05:30.29	33.59	6.49	-41.1	-42.4	19.9	0.00e+00	0	41	0	253755392	54	6539
2026-01-22 12:05:33.31	33.97	6.63	-41.7	-43.1	19.5	0.00e+00	0	41	0	263192576	56	6292
2026-01-22 12:05:36.34	34.35	6.77	-41.5	-42.8	19.5	0.00e+00	0	41	0	272629760	56	6105
2026-01-22 12:05:39.37	34.74	6.91	-41.5	-42.8	19.6	0.00e+00	0	41	0	282066944	54	6844
2026-01-22 12:05:42.40	35.13	7.05	-41.6	-42.9	19.5	0.00e+00	0	41	0	291504128	54	6909
2026-01-22 12:05:45.42	35.52	7.19	-40.6	-41.8	20.3	0.00e+00	0	41	0	300941312	54	6095
2026-01-22 12:05:48.45	35.92	7.32	-40.2	-41.4	20.8	0.00e+00	0	41	0	310378496	54	5802
2026-01-22 12:05:51.48	36.32	7.46	-40.4	-41.6	20.7	0.00e+00	0	41	0	319815680	54	5939
2026-01-22 12:05:54.51	36.73	7.60	-39.7	-40.7	21.4	0.00e+00	0	41	0	329252864	52	6061
2026-01-22 12:05:57.54	37.13	7.74	-39.5	-40.6	21.5	0.00e+00	0	41	0	338690048	52	5941
2026-01-22 12:06:00.57	37.55	7.87	-39.4	-40.5	21.6	0.00e+00	0	41	0	348127232	52	5863
2026-01-22 12:06:03.60	37.96	8.01	-39.0	-40.0	22.0	0.00e+00	0	41	0	357564416	52	5578
2026-01-22 12:06:06.62	38.38	8.15	-39.2	-40.3	21.9	0.00e+00	0	41	0	368050176	52	5733
2026-01-22 12:06:09.65	38.80	8.28	-39.1	-40.2	21.9	0.00e+00	0	41	0	377487360	52	5663
2026-01-22 12:06:12.69	39.23	8.42	-39.2	-40.3	22.0	0.00e+00	0	41	0	386924544	52	5729
2026-01-22 12:06:15.71	39.66	8.55	-39.1	-40.2	22.0	0.00e+00	0	41	0	396361728	52	5693
2026-01-22 12:06:18.74	40.10	8.68	-38.9	-40.0	22.1	0.00e+00	0	41	0	405798912	52	5563
2026-01-22 12:06:21.77	40.54	8.81	-39.0	-40.0	22.0	0.00e+00	0	41	0	415236096	52	5587
2026-01-22 12:06:24.80	40.98	8.95	-39.0	-40.1	22.0	0.00e+00	0	41	0	424673280	52	5606
2026-01-22 12:06:27.83	41.43	9.08	-39.1	-40.1	22.1	0.00e+00	0	41	0	434110464	52	5639
2026-01-22 12:06:30.86	41.88	9.21	-39.0	-40.1	22.2	0.00e+00	0	41	0	443547648	52	5607
2026-01-22 12:06:33.89	42.33	9.34	-38.9	-40.0	22.1	0.00e+00	0	41	0	452984832	50	6220
2026-01-22 12:06:36.92	42.79	9.46	-38.9	-40.0	22.1	0.00e+00	0	41	0	462422016	50	6234
2026-01-22 12:06:39.95	43.25	9.59	-38.9	-39.9	22.3	0.00e+00	0	41	0	471859200	50	6169
2026-01-22 12:06:42.97	43.72	9.72	-38.8	-39.8	22.3	0.00e+00	0	41	0	481296384	50	6079
2026-01-22 12:06:46.01	44.19	9.84	-39.0	-40.0	22.2	0.00e+00	0	41	0	490733568	50	6260
2026-01-22 12:06:49.03	44.66	9.97	-38.8	-39.8	22.3	0.00e+00	0	41	0	500170752	50	6110
2026-01-22 12:06:52.06	45.14	10.09	-38.6	-39.6	22.5	0.00e+00	0	41	0	509607936	50	5941
2026-01-22 12:06:55.09	45.62	10.21	-38.8	-39.8	22.4	0.00e+00	0	41	0	519045120	50	6077
2026-01-22 12:06:58.12	46.10	10.33	-38.6	-39.6	22.4	0.00e+00	0	41	0	528482304	50	5994
2026-01-22 12:07:01.15	46.59	10.45	-38.6	-39.6	22.5	0.00e+00	0	41	0	537919488	50	5993
2026-01-22 12:07:04.18	47.09	10.57	-39.1	-40.2	22.0	0.00e+00	0	41	0	547356672	50	6386
2026-01-22 12:07:07.21	47.58	10.69	-38.8	-39.8	22.3	0.00e+00	0	41	0	556793856	50	6084
2026-01-22 12:07:10.24	48.09	10.80	-38.9	-39.9	22.3	0.00e+00	0	42	0	566231040	50	6180
2026-01-22 12:07:13.27	48.59	10.92	-38.7	-39.8	22.4	0.00e+00	0	41	0	575668224	50	6068
2026-01-22 12:07:16.30	49.10	11.03	-38.6	-39.6	22.5	0.00e+00	0	41	0	585105408	50	5943
2026-01-22 12:07:19.33	49.61	11.14	-38.6	-39.7	22.5	0.00e+00	0	42	0	594542592	50	6004
2026-01-22 12:07:22.36	50.13	11.25	-38.5	-39.5	22.6	0.00e+00	0	42	0	603979776	50	5882
2026-01-22 12:07:25.38	50.65	11.36	-38.7	-39.7	22.4	0.00e+00	0	42	0	613416960	50	6019
2026-01-22 12:07:28.41	51.17	11.47	-38.8	-39.8	22.3	0.00e+00	0	42	0	622854144	50	6119
2026-01-22 12:07:31.44	51.70	11.57	-38.6	-39.6	22.4	0.00e+00	0	42	0	632291328	50	5929
2026-01-22 12:07:34.48	52.23	11.68	-38.7	-39.7	22.4	0.00e+00	0	42	0	641728512	50	6026
2026-01-22 12:07:37.51	52.77	11.78	-38.6	-39.6	22.5	0.00e+00	0	42	0	651165696	50	5972
2026-01-22 12:07:40.54	53.30	11.88	-38.9	-39.9	22.4	0.00e+00	0	41	0	660602880	50	6150
2026-01-22 12:07:43.57	53.85	11.98	-38.7	-39.8	22.4	0.00e+00	0	42	0	670040064	50	6069
2026-01-22 12:07:46.60	54.39	12.07	-38.9	-39.9	22.4	0.00e+00	0	42	0	680525824	50	6162
2026-01-22 12:07:49.64	54.94	12.17	-38.4	-39.4	22.8	0.00e+00	0	42	0	688914432	50	5818
2026-01-22 12:07:52.66	55.49	12.26	-38.5	-39.5	22.5	0.00e+00	0	42	0	699400192	50	5908
2026-01-22 12:07:55.69	56.05	12.35	-38.6	-39.7	22.5	0.00e+00	0	42	0	708837376	50	5998
2026-01-22 12:07:58.72	56.61	12.43	-38.8	-39.8	22.4	0.00e+00	0	41	0	718274560	50	6078
2026-01-22 12:08:01.75	57.17	12.52	-38.6	-39.6	22.6	0.00e+00	0	42	0	727711744	50	5945
2026-01-22 12:08:04.78	57.74	12.60	-38.5	-39.5	22.6	0.00e+00	0	42	0	737148928	50	5911
2026-01-22 12:08:07.81	58.30	12.68	-38.7	-39.7	22.4	0.00e+00	0	41	0	746586112	50	6038
2026-01-22 12:08:10.83	58.87	12.76	-38.7	-39.7	22.5	0.00e+00	0	42	0	756023296	50	6026
2026-01-22 12:08:13.86	59.45	12.84	-38.5	-39.5	22.7	0.00e+00	0	42	0	765460480	50	5892
2026-01-22 12:08:16.89	60.03	12.91	-38.8	-39.8	22.3	0.00e+00	0	42	0	774897664	50	6132
2026-01-22 12:08:19.92	60.61	12.99	-38.7	-39.8	22.4	0.00e+00	0	42	0	784334848	50	6069
2026-01-22 12:08:22.95	61.19	13.06	-38.4	-39.4	22.7	0.00e+00	0	42	0	793772032	50	5827
2026-01-22 12:08:25.98	61.77	13.12	-38.1	-39.0	23.1	0.00e+00	0	42	0	803209216	50	5593
2026-01-22 12:08:29.01	62.36	13.19	-38.4	-39.3	22.8	0.00e+00	0	42	0	812646400	50	5779
2026-01-22 12:08:32.04	62.95	13.25	-38.6	-39.6	22.4	0.00e+00	0	42	0	822083584	50	5967
2026-01-22 12:08:35.07	63.55	13.31	-38.2	-39.2	22.8	0.00e+00	0	42	0	831520768	50	5673
2026-01-22 12:08:38.10	64.14	13.36	-37.9	-38.8	23.1	0.00e+00	0	42	0	840957952	50	5447
2026-01-22 12:08:41.13	64.74	13.42	-38.3	-39.2	22.8	0.00e+00	0	41	0	850395136	50	5722
2026-01-22 12:08:44.16	65.34	13.47	-38.5	-39.5	22.6	0.00e+00	0	42	0	859832320	50	5884
2026-01-22 12:08:47.19	65.94	13.52	-38.2	-39.1	22.9	0.00e+00	0	42	0	869269504	50	5659
2026-01-22 12:08:50.21	66.54	13.56	-38.2	-39.2	22.8	0.00e+00	0	42	0	878706688	50	5680
2026-01-22 12:08:53.25	67.15	13.60	-38.4	-39.4	22.7	0.00e+00	0	42	0	888143872	50	5795
2026-01-22 12:08:56.28	67.75	13.64	-38.2	-39.2	22.9	0.00e+00	0	42	0	897581056	50	5703
2026-01-22 12:08:59.31	68.36	13.68	-38.4	-39.4	22.7	0.00e+00	0	42	0	907018240	50	5800
2026-01-22 12:09:02.34	68.97	13.71	-38.4	-39.4	22.6	0.00e+00	0	42	0	916455424	50	5837
2026-01-22 12:09:05.37	69.58	13.75	-38.3	-39.3	23.0	0.00e+00	0	42	0	925892608	50	5733
2026-01-22 12:09:08.40	70.20	13.77	-38.2	-39.1	22.9	0.00e+00	0	42	0	935329792	50	5653
2026-01-22 12:09:11.43	70.81	13.80	-38.2	-39.1	23.0	0.00e+00	0	42	0	944766976	50	5650
2026-01-22 12:09:14.45	71.42	13.82	-38.2	-39.2	22.9	0.00e+00	0	42	0	954204160	50	5693
2026-01-22 12:09:17.48	72.04	13.84	-38.2	-39.2	22.9	0.00e+00	0	42	0	963641344	50	5678
2026-01-22 12:09:20.51	72.65	13.86	-38.1	-39.1	23.0	0.00e+00	0	42	0	973078528	50	5616
2026-01-22 12:09:23.55	73.27	13.87	-38.1	-39.1	23.0	0.00e+00	0	42	0	982515712	50	5643
2026-01-22 12:09:26.58	73.89	13.88	-38.0	-39.0	23.1	0.00e+00	0	42	0	991952896	50	5563
2026-01-22 12:09:29.61	74.51	13.89	-38.1	-39.0	23.0	0.00e+00	0	42	0	1002438656	50	5583
2026-01-22 12:09:32.64	75.13	13.89	-38.1	-39.1	23.0	0.00e+00	0	42	0	1010827264	50	5620
2026-01-22 12:09:35.67	75.74	13.89	-37.9	-38.8	23.2	0.00e+00	0	42	0	1021313024	50	5459
2026-01-22 12:09:38.69	76.36	13.89	-38.0	-39.0	23.2	0.00e+00	0	42	0	1029701632	50	5535
2026-01-22 12:09:41.72	76.98	13.88	-38.1	-39.1	23.1	0.00e+00	0	42	0	1040187392	50	5629
2026-01-22 12:09:44.75	77.60	13.87	-38.2	-39.2	22.9	0.00e+00	0	42	0	1049624576	50	5660
2026-01-22 12:09:47.77	78.21	13.86	-38.4	-39.4	22.8	0.00e+00	0	42	0	1059061760	50	5802
2026-01-22 12:09:50.81	78.83	13.85	-38.2	-39.2	22.8	0.00e+00	0	42	0	1068498944	50	5669
2026-01-22 12:09:53.84	79.45	13.83	-38.3	-39.3	22.7	0.00e+00	0	42	0	1077936128	50	5754
2026-01-22 12:09:56.87	80.06	13.81	-38.1	-39.1	23.0	0.00e+00	0	42	0	1087373312	50	5614
2026-01-22 12:09:59.90	80.68	13.79	-38.0	-39.0	23.0	0.00e+00	0	42	0	1096810496	50	5543
2026-01-22 12:10:02.92	81.29	13.76	-38.1	-39.1	22.8	0.00e+00	0	42	0	1106247680	50	5642
2026-01-22 12:10:05.96	81.90	13.73	-38.2	-39.2	22.8	0.00e+00	0	42	0	1115684864	50	5673
2026-01-22 12:10:08.99	82.51	13.70	-37.8	-38.8	23.1	0.00e+00	0	42	0	1125122048	48	6084
2026-01-22 12:10:12.02	83.12	13.66	-37.8	-38.8	23.1	0.00e+00	0	42	0	1134559232	48	6108
2026-01-22 12:10:15.05	83.73	13.62	-37.9	-38.9	23.2	0.00e+00	0	42	0	1143996416	48	6146
2026-01-22 12:10:18.08	84.34	13.58	-37.9	-38.9	23.2	0.00e+00	0	42	0	1153433600	48	6153
2026-01-22 12:10:21.11	84.94	13.54	-38.1	-39.1	23.0	0.00e+00	0	42	0	1162870784	48	6332
2026-01-22 12:10:24.14	85.55	13.49	-38.1	-39.1	23.0	0.00e+00	0	42	0	1172307968	48	6308
2026-01-22 12:10:27.17	86.15	13.44	-37.9	-38.9	23.1	0.00e+00	0	42	0	1181745152	48	6171
2026-01-22 12:10:30.20	86.75	13.39	-38.0	-39.0	23.1	0.00e+00	0	42	0	1191182336	48	6268
2026-01-22 12:10:33.23	87.35	13.33	-37.9	-38.9	23.2	0.00e+00	0	42	0	1200619520	48	6140
2026-01-22 12:10:36.25	87.94	13.28	-38.0	-39.0	23.1	0.00e+00	0	42	0	1210056704	48	6224
2026-01-22 12:10:39.28	88.53	13.22	-38.2	-39.2	22.8	0.00e+00	0	42	0	1219493888	48	6387
2026-01-22 12:10:42.31	89.12	13.15	-38.2	-39.2	23.0	0.00e+00	0	42	0	1228931072	48	6354
2026-01-22 12:10:45.34	89.71	13.09	-38.3	-39.2	22.9	0.00e+00	0	42	0	1238368256	48	6423
2026-01-22 12:10:48.37	90.30	13.02	-38.1	-39.1	23.1	0.00e+00	0	42	0	1247805440	48	6301
2026-01-22 12:10:51.40	90.88	12.95	-38.2	-39.2	22.9	0.00e+00	0	42	0	1257242624	48	6393
2026-01-22 12:10:54.43	91.46	12.87	-38.6	-39.6	22.6	0.00e+00	0	42	0	1266679808	48	6673
2026-01-22 12:10:57.46	92.04	12.80	-38.1	-39.1	22.9	0.00e+00	0	42	0	1276116992	48	6309
2026-01-22 12:11:00.46	92.61	12.72	-38.3	-39.3	22.8	0.00e+00	0	42	0	1285554176	48	6476
2026-01-22 12:11:03.48	93.18	12.64	-38.4	-39.4	22.8	0.00e+00	0	42	0	1294991360	48	6515
2026-01-22 12:11:06.51	93.75	12.56	-38.3	-39.3	22.8	0.00e+00	0	42	0	1304428544	48	6434
2026-01-22 12:11:09.54	94.31	12.47	-38.4	-39.4	22.7	0.00e+00	0	42	0	1313865728	48	6501
2026-01-22 12:11:12.56	94.87	12.39	-38.2	-39.2	22.9	0.00e+00	0	42	0	1323302912	48	6358
2026-01-22 12:11:15.59	95.43	12.30	-38.2	-39.2	22.8	0.00e+00	0	42	0	1332740096	48	6376
2026-01-22 12:11:18.62	95.99	12.21	-38.5	-39.5	22.6	0.00e+00	0	42	0	1342177280	48	6613
2026-01-22 12:11:21.66	96.54	12.11	-38.1	-39.1	22.9	0.00e+00	0	42	0	1351614464	50	5625
2026-01-22 12:11:24.69	97.09	12.02	-38.1	-39.0	22.9	0.00e+00	0	42	0	1361051648	50	5585
2026-01-22 12:11:27.72	97.64	11.92	-38.3	-39.3	22.8	0.00e+00	0	42	0	1370488832	50	5744
2026-01-22 12:11:30.75	98.18	11.82	-38.0	-38.9	22.9	0.00e+00	0	42	0	1379926016	50	5517
2026-01-22 12:11:33.77	98.72	11.72	-38.2	-39.2	22.8	0.00e+00	0	42	0	1390411776	50	5710
2026-01-22 12:11:36.80	99.25	11.62	-38.2	-39.1	22.8	0.00e+00	0	42	0	1399848960	50	5651
2026-01-22 12:11:39.83	99.79	11.51	-38.4	-39.3	22.6	0.00e+00	0	42	0	1409286144	50	5782
2026-01-22 12:11:42.86	100.31	11.40	-38.4	-39.3	22.7	0.00e+00	0	42	0	1418723328	50	5782
2026-01-22 12:11:45.89	100.84	11.30	-38.2	-39.2	22.8	0.00e+00	0	42	0	1428160512	50	5701
2026-01-22 12:11:48.92	101.36	11.19	-38.4	-39.4	22.6	0.00e+00	0	42	0	1437597696	50	5820
2026-01-22 12:11:51.95	101.87	11.07	-38.6	-39.6	22.5	0.00e+00	0	42	0	1447034880	50	5945
2026-01-22 12:11:54.99	102.39	10.96	-38.5	-39.5	22.4	0.00e+00	0	42	0	1456472064	50	5901
2026-01-22 12:11:58.02	102.90	10.85	-38.4	-39.5	22.4	0.00e+00	0	42	0	1465909248	50	5906
2026-01-22 12:12:01.05	103.40	10.73	-38.6	-39.6	22.4	0.00e+00	0	42	0	1475346432	50	5978
2026-01-22 12:12:04.08	103.90	10.61	-38.6	-39.6	22.4	0.00e+00	0	42	0	1484783616	50	5953
2026-01-22 12:12:07.10	104.40	10.49	-38.6	-39.7	22.3	0.00e+00	0	42	0	1494220800	50	6045
2026-01-22 12:12:10.13	104.89	10.37	-38.9	-40.0	22.1	0.00e+00	0	42	0	1503657984	50	6235
2026-01-22 12:12:13.17	105.38	10.25	-39.2	-40.2	21.6	0.00e+00	0	42	0	1513095168	50	6394
2026-01-22 12:12:16.19	105.87	10.13	-39.8	-40.9	21.4	0.00e+00	0	42	0	1522532352	52	6151
2026-01-22 12:12:19.23	106.35	10.01	-39.2	-40.3	21.8	0.00e+00	0	42	0	1531969536	52	5735
2026-01-22 12:12:22.25	106.83	9.88	-38.8	-39.9	22.1	0.00e+00	0	42	0	1541406720	50	6137
2026-01-22 12:12:25.28	107.30	9.76	-38.9	-40.0	22.0	0.00e+00	0	42	0	1550843904	50	6207
2026-01-22 12:12:28.31	107.77	9.63	-39.1	-40.2	21.8	0.00e+00	0	42	0	1560281088	50	6390
2026-01-22 12:12:31.34	108.24	9.50	-39.2	-40.3	21.7	0.00e+00	0	42	0	1569718272	50	6437
2026-01-22 12:12:34.37	108.70	9.37	-39.1	-40.2	21.8	0.00e+00	0	42	0	1579155456	50	6398
2026-01-22 12:12:37.40	109.16	9.24	-39.3	-40.4	21.7	0.00e+00	0	42	0	1588592640	52	5799
2026-01-22 12:12:40.43	109.61	9.11	-39.5	-40.6	21.5	0.00e+00	0	42	0	1598029824	52	5990
2026-01-22 12:12:43.46	110.06	8.98	-39.6	-40.7	21.4	0.00e+00	0	42	0	1607467008	52	6044
2026-01-22 12:12:46.49	110.51	8.85	-39.5	-40.7	21.6	0.00e+00	0	42	0	1616904192	52	6009
2026-01-22 12:12:49.52	110.95	8.71	-39.3	-40.3	21.7	0.00e+00	0	42	0	1626341376	52	5788
2026-01-22 12:12:52.55	111.39	8.58	-39.7	-40.8	21.2	0.00e+00	0	42	0	1635778560	52	6113
2026-01-22 12:12:55.58	111.83	8.45	-39.7	-40.9	21.2	0.00e+00	0	42	0	1645215744	52	6139
2026-01-22 12:12:58.60	112.26	8.31	-39.5	-40.6	21.4	0.00e+00	0	42	0	1654652928	52	5979
2026-01-22 12:13:01.63	112.68	8.17	-39.6	-40.7	21.3	0.00e+00	0	42	0	1664090112	52	6044
2026-01-22 12:13:04.67	113.11	8.04	-39.7	-40.8	21.2	0.00e+00	0	42	0	1673527296	52	6133
2026-01-22 12:13:07.70	113.53	7.90	-39.8	-40.9	21.2	0.00e+00	0	42	0	1682964480	52	6160
2026-01-22 12:13:10.73	113.94	7.76	-40.1	-41.2	20.8	0.00e+00	0	42	0	1692401664	52	6422
2026-01-22 12:13:13.76	114.35	7.62	-39.7	-40.8	21.2	0.00e+00	0	42	0	1702887424	52	6105
2026-01-22 12:13:16.79	114.76	7.49	-39.7	-40.8	21.2	0.00e+00	0	42	0	1711276032	52	6109
2026-01-22 12:13:19.82	115.17	7.35	-39.7	-40.8	21.3	0.00e+00	0	42	0	1721761792	52	6066
2026-01-22 12:13:22.85	115.57	7.21	-39.6	-40.7	21.2	0.00e+00	0	42	0	1731198976	52	6062
2026-01-22 12:13:25.88	115.97	7.07	-39.7	-40.8	21.3	0.00e+00	0	42	0	1740636160	52	6070
2026-01-22 12:13:28.91	116.36	6.93	-39.5	-40.6	21.4	0.00e+00	0	42	0	1750073344	52	5928
2026-01-22 12:13:31.94	116.75	6.79	-39.9	-41.0	20.9	0.00e+00	0	42	0	1759510528	52	6277
2026-01-22 12:13:34.96	117.13	6.64	-40.0	-41.2	21.0	0.00e+00	0	42	0	1768947712	52	6366
2026-01-22 12:13:37.99	117.52	6.50	-40.1	-41.3	20.7	0.00e+00	0	42	0	1778384896	52	6446
2026-01-22 12:13:41.03	117.90	6.36	-40.4	-41.5	20.5	0.00e+00	0	42	0	1787822080	52	6639
2026-01-22 12:13:44.06	118.27	6.22	-40.3	-41.5	20.5	0.00e+00	0	42	0	1797259264	52	6578
2026-01-22 12:13:47.08	118.64	6.08	-40.3	-41.4	20.6	0.00e+00	0	42	0	1806696448	52	6548
2026-01-22 12:13:50.11	119.01	5.93	-40.4	-41.6	20.2	0.00e+00	0	42	0	1816133632	52	6704
2026-01-22 12:13:53.14	119.38	5.79	-40.7	-42.0	19.9	0.00e+00	0	42	0	1825570816	54	6236
2026-01-22 12:13:56.17	119.74	5.65	-41.1	-42.4	19.6	0.00e+00	0	42	0	1835008000	54	6516
2026-01-22 12:13:59.20	120.10	5.51	-40.6	-41.9	19.9	0.00e+00	0	42	0	1844445184	54	6175
2026-01-22 12:14:02.23	120.45	5.36	-40.6	-41.9	20.0	0.00e+00	0	42	0	1853882368	54	6154
2026-01-22 12:14:05.26	120.80	5.22	-40.2	-41.4	20.4	0.00e+00	0	42	0	1863319552	54	5800
2026-01-22 12:14:08.29	121.15	5.08	-40.6	-41.8	20.1	0.00e+00	0	42	0	1872756736	54	6081
2026-01-22 12:14:11.32	121.50	4.93	-40.4	-41.6	20.2	0.00e+00	0	42	0	1882193920	54	5928
2026-01-22 12:14:14.35	121.84	4.79	-40.4	-41.6	20.1	0.00e+00	0	42	0	1891631104	54	5957
2026-01-22 12:14:17.38	122.18	4.65	-40.4	-41.6	20.2	0.00e+00	0	42	0	1901068288	54	5973
2026-01-22 12:14:20.41	122.51	4.50	-40.7	-42.0	19.9	0.00e+00	0	42	0	1910505472	54	6228
2026-01-22 12:14:23.44	122.85	4.36	-40.7	-42.0	19.8	0.00e+00	0	42	0	1919942656	54	6208
2026-01-22 12:14:26.47	123.18	4.22	-41.3	-42.6	19.3	0.00e+00	0	42	0	1929379840	54	6721
2026-01-22 12:14:29.50	123.50	4.07	-41.0	-42.4	19.3	0.00e+00	0	42	0	1938817024	54	6505
2026-01-22 12:14:32.53	123.82	3.93	-40.6	-41.9	19.7	0.00e+00	0	42	0	1948254208	54	6140
2026-01-22 12:14:35.56	124.14	3.79	-40.6	-41.8	19.7	0.00e+00	0	42	0	1957691392	54	6125
2026-01-22 12:14:38.59	124.46	3.64	-41.3	-42.6	19.0	0.00e+00	0	42	0	1967128576	54	6716
2026-01-22 12:14:41.62	124.78	3.50	-41.3	-42.7	18.8	0.00e+00	0	42	0	1976565760	54	6727
2026-01-22 12:14:44.64	125.09	3.36	-41.3	-42.6	18.9	0.00e+00	0	42	0	1986002944	54	6720
2026-01-22 12:14:47.67	125.39	3.21	-40.8	-42.2	19.2	0.00e+00	0	42	0	1995440128	54	6357
2026-01-22 12:14:50.70	125.70	3.07	-41.0	-42.3	18.9	0.00e+00	0	42	0	2004877312	54	6480
2026-01-22 12:14:53.73	126.00	2.93	-50.2	-63.1	3.5	1.52e+00	0	42	104	2011168768	60	50129
2026-01-22 12:14:56.76	126.30	2.78	-50.7	-63.6	3.5	1.52e+00	0	42	104	2011168768	60	53155
2026-01-22 12:14:59.79	126.60	2.64	-51.0	-63.8	3.5	1.52e+00	0	42	104	2011168768	60	54508
2026-01-22 12:15:02.83	126.90	2.50	-51.1	-64.0	3.5	1.52e+00	0	42	104	2011168768	60	55580
2026-01-22 12:15:05.85	127.19	2.36	-51.2	-64.0	3.5	1.52e+00	0	42	104	2011168768	60	55748
2026-01-22 12:15:08.88	127.48	2.21	-51.2	-64.0	3.5	1.52e+00	0	42	104	2011168768	60	55524
2026-01-22 12:15:11.92	127.76	2.07	-51.2	-64.1	3.5	1.52e+00	0	42	104	2011168768	60	56402
2026-01-22 12:15:14.94	128.05	1.93	-51.2	-64.1	3.5	1.52e+00	0	42	104	2011168768	60	56304
2026-01-22 12:15:17.98	128.33	1.79	-51.2	-64.1	3.5	1.52e+00	0	42	104	2011168768	60	56328
2026-01-22 12:15:21.01	128.61	1.64	-51.3	-64.1	3.5	1.52e+00	0	42	104	2011168768	60	56518
2026-01-22 12:15:24.04	128.88	1.50	-51.3	-64.1	3.5	1.52e+00	0	42	104	2011168768	60	56553
2026-01-22 12:15:27.06	129.16	1.36	-51.3	-64.2	3.5	1.52e+00	0	42	104	2011168768	60	56777
2026-01-22 12:15:30.09	129.43	1.22	-51.3	-64.2	3.5	1.51e+00	0	42	104	2011168768	60	56783
2026-01-22 12:15:33.12	129.70	1.08	-51.3	-64.1	3.5	1.52e+00	0	42	104	2011168768	60	56560
2026-01-22 12:15:36.14	129.96	0.94	-51.3	-64.2	3.5	1.52e+00	0	42	104	2011168768	60	56867
2026-01-22 12:15:39.17	130.23	0.80	-51.3	-64.1	3.5	1.52e+00	0	42	104	2011168768	60	56559
2026-01-22 12:15:42.20	130.49	0.66	-51.4	-64.3	3.5	1.52e+00	0	42	104	2011168768	60	57360
2026-01-22 12:15:45.23	130.75	0.52	-51.4	-64.3	3.5	1.52e+00	0	42	104	2011168768	60	57463
2026-01-22 12:15:48.26	131.00	0.38	-51.3	-64.1	3.5	1.52e+00	0	42	104	2011168768	60	56581
2026-01-22 12:15:51.29	131.26	0.24	-51.4	-64.3	3.5	1.52e+00	0	42	104	2011168768	60	57275
2026-01-22 12:15:54.32	131.51	0.10	-51.4	-64.2	3.5	1.52e+00	0	42	104	2011168768	60	57160

#Closed at: 2026-01-22 12:15:57
#Recorded file [2011 MB]: D:/lorett/data/35029_260123_000313.dat