passes_logs/2026/01/22/R4.6S_Anadyr/R4.6S_Anadyr__20260122_175407_NOAA_20_JPSS-1_rec.log

#Pass ID: 20260122_175407_NOAA 20 (JPSS-1)
#Satellite: NOAA 20 (JPSS-1)
#Configuration: NOAA 20
#almurnet v.1.7.20251203
#Start time: 2026-01-22 17:54:10

#Version: 2.2.20231116
#Station: R4.6S_Anadyr
#Location: 177.4865 lon 64.73178 lat
#TLE: 1 43013U 17073A   26021.46221703  .00000173  00000+0  10299-3 0  9999
#TLE: 2 43013  98.7644 322.3335 0001238  29.7597 330.3649 14.19538314423652

#Time	Az	El	Level	Level2	SNR	BER	BlckErr	Temp	State	Recorded	gain1	gain2
2026-01-22 17:54:10.70	35.38	0.18	-52.2	-65.9	3.3	1.54e+00	0	40	0	0	60	71445
2026-01-22 17:54:14.73	35.12	0.39	-51.5	-66.7	3.6	1.51e+00	0	40	104	0	60	78177
2026-01-22 17:54:18.78	34.84	0.60	-51.4	-66.6	3.6	1.51e+00	0	40	104	0	60	76958
2026-01-22 17:54:22.82	34.57	0.81	-51.0	-66.2	3.6	1.51e+00	0	40	104	0	60	74150
2026-01-22 17:54:26.86	34.29	1.02	-50.8	-66.0	3.6	1.51e+00	0	40	104	0	60	72155
2026-01-22 17:54:30.89	34.01	1.23	-50.3	-65.5	3.6	1.51e+00	0	40	104	0	60	67894
2026-01-22 17:54:34.93	33.72	1.44	-49.6	-64.8	3.6	1.51e+00	0	40	104	0	60	62873
2026-01-22 17:54:38.98	33.43	1.66	-49.6	-64.8	3.6	1.51e+00	0	40	104	0	60	62715
2026-01-22 17:54:43.02	33.13	1.87	-49.6	-64.8	3.6	1.51e+00	0	40	104	0	60	63157
2026-01-22 17:54:47.06	32.83	2.09	-49.6	-64.6	3.6	1.51e+00	0	40	104	0	60	61087
2026-01-22 17:54:51.10	32.53	2.31	-49.6	-64.7	3.6	1.51e+00	0	40	104	0	60	62091
2026-01-22 17:54:55.14	32.22	2.52	-49.6	-64.7	3.6	1.51e+00	0	40	104	0	60	61934
2026-01-22 17:54:59.18	31.90	2.74	-49.5	-63.9	3.6	1.51e+00	0	41	104	0	60	56947
2026-01-22 17:55:03.22	31.58	2.96	-49.5	-63.9	3.6	1.51e+00	0	41	104	0	60	56646
2026-01-22 17:55:07.25	31.26	3.18	-49.6	-64.3	3.5	1.51e+00	0	40	104	1048576	60	59216
2026-01-22 17:55:11.29	30.93	3.40	-45.0	-47.2	16.3	1.94e-01	0	41	104	3145728	60	8247
2026-01-22 17:55:15.33	30.59	3.62	-44.7	-46.8	17.2	0.00e+00	0	40	0	9437184	60	7886
2026-01-22 17:55:19.37	30.25	3.85	-44.3	-46.1	18.0	0.00e+00	91	41	0	17825792	60	7321
2026-01-22 17:55:23.40	29.91	4.07	-44.8	-46.9	17.4	0.00e+00	0	41	0	25165824	60	7965
2026-01-22 17:55:27.44	29.56	4.30	-44.3	-46.1	18.1	0.00e+00	0	41	0	32505856	60	7289
2026-01-22 17:55:31.47	29.20	4.52	-44.5	-46.4	17.9	0.00e+00	5	41	0	39845888	60	7510
2026-01-22 17:55:35.51	28.84	4.75	-44.3	-46.2	18.2	0.00e+00	92	41	0	47185920	60	7343
2026-01-22 17:55:39.55	28.47	4.97	-44.2	-45.9	18.3	0.00e+00	0	41	0	55574528	60	7134
2026-01-22 17:55:43.59	28.09	5.20	-43.8	-45.4	18.9	0.00e+00	0	41	0	62914560	60	6765
2026-01-22 17:55:47.62	27.71	5.43	-44.2	-46.0	18.4	0.00e+00	3	41	0	70254592	60	7172
2026-01-22 17:55:51.66	27.33	5.66	-43.8	-45.4	18.9	0.00e+00	92	41	0	77594624	60	6748
2026-01-22 17:55:55.70	26.93	5.89	-44.0	-45.7	18.7	0.00e+00	1	41	0	84934656	60	6965
2026-01-22 17:55:59.74	26.53	6.12	-44.5	-46.3	18.2	0.00e+00	6	41	0	93323264	60	7443
2026-01-22 17:56:03.77	26.13	6.35	-44.4	-46.1	18.5	0.00e+00	0	41	0	100663296	60	7310
2026-01-22 17:56:07.81	25.71	6.58	-44.1	-45.7	18.7	0.00e+00	90	41	0	108003328	60	7001
2026-01-22 17:56:11.85	25.29	6.82	-44.2	-45.8	18.5	0.00e+00	0	41	0	115343360	60	7083
2026-01-22 17:56:15.89	24.87	7.05	-43.9	-45.5	19.1	0.00e+00	0	41	0	123731968	60	6787
2026-01-22 17:56:19.93	24.43	7.28	-43.9	-45.5	19.1	0.00e+00	0	41	0	131072000	60	6820
2026-01-22 17:56:23.96	23.99	7.52	-43.8	-45.4	19.2	0.00e+00	90	41	0	138412032	60	6735
2026-01-22 17:56:28.00	23.54	7.75	-44.3	-46.0	18.8	0.00e+00	0	41	0	145752064	60	7193
2026-01-22 17:56:32.03	23.09	7.99	-43.9	-45.5	19.1	0.00e+00	81	41	0	153092096	60	6824
2026-01-22 17:56:36.07	22.62	8.22	-43.6	-45.1	19.5	0.00e+00	92	41	0	161480704	60	6510
2026-01-22 17:56:40.11	22.15	8.46	-43.5	-44.9	19.6	0.00e+00	90	41	0	168820736	60	6385
2026-01-22 17:56:44.14	21.67	8.69	-43.3	-44.7	19.9	0.00e+00	0	41	0	176160768	60	6200
2026-01-22 17:56:48.18	21.18	8.93	-43.0	-44.4	20.3	0.00e+00	0	41	0	183500800	60	5979
2026-01-22 17:56:52.21	20.69	9.17	-43.0	-44.3	20.4	0.00e+00	92	41	0	191889408	60	5938
2026-01-22 17:56:56.25	20.18	9.41	-42.9	-44.2	20.5	0.00e+00	82	41	0	199229440	60	5876
2026-01-22 17:57:00.28	19.67	9.64	-43.0	-44.3	20.5	0.00e+00	2	41	0	206569472	60	5924
2026-01-22 17:57:04.32	19.15	9.88	-42.6	-43.8	20.8	0.00e+00	0	41	0	213909504	58	6284
2026-01-22 17:57:08.36	18.62	10.12	-42.7	-43.9	20.6	0.00e+00	92	41	0	221249536	58	6384
2026-01-22 17:57:12.40	18.08	10.35	-42.8	-44.1	20.5	0.00e+00	81	41	0	229638144	58	6501
2026-01-22 17:57:16.43	17.53	10.59	-42.8	-44.1	20.6	0.00e+00	0	41	0	236978176	58	6468
2026-01-22 17:57:20.47	16.98	10.83	-42.9	-44.2	20.5	0.00e+00	0	41	0	244318208	58	6586
2026-01-22 17:57:24.51	16.41	11.06	-42.5	-43.7	21.0	0.00e+00	92	41	0	251658240	58	6232
2026-01-22 17:57:28.55	15.83	11.30	-42.7	-44.0	20.7	0.00e+00	0	41	0	258998272	58	6395
2026-01-22 17:57:32.59	15.25	11.53	-42.6	-43.9	20.9	0.00e+00	86	41	0	267386880	58	6331
2026-01-22 17:57:36.62	14.65	11.76	-42.5	-43.7	21.1	0.00e+00	85	41	0	274726912	58	6241
2026-01-22 17:57:40.66	14.05	12.00	-42.6	-43.9	20.8	0.00e+00	92	41	0	282066944	58	6319
2026-01-22 17:57:44.70	13.44	12.23	-43.0	-44.3	20.5	0.00e+00	3	41	0	289406976	58	6640
2026-01-22 17:57:48.74	12.81	12.46	-42.8	-44.1	20.5	0.00e+00	6	41	0	297795584	58	6492
2026-01-22 17:57:52.78	12.18	12.69	-42.6	-43.8	21.0	0.00e+00	0	41	0	305135616	58	6275
2026-01-22 17:57:56.81	11.53	12.92	-42.8	-44.0	20.7	0.00e+00	92	41	0	312475648	58	6451
2026-01-22 17:58:00.85	10.88	13.14	-42.5	-43.7	21.0	0.00e+00	80	41	0	319815680	58	6245
2026-01-22 17:58:04.89	10.21	13.37	-42.4	-43.6	21.3	0.00e+00	0	41	0	327155712	58	6107
2026-01-22 17:58:08.92	9.54	13.59	-42.3	-43.5	21.3	0.00e+00	0	41	0	335544320	58	6071
2026-01-22 17:58:12.96	8.85	13.81	-41.6	-42.7	22.0	0.00e+00	92	41	0	342884352	56	6219
2026-01-22 17:58:17.01	8.15	14.03	-41.8	-42.8	22.0	0.00e+00	0	41	0	350224384	56	6315
2026-01-22 17:58:21.04	7.45	14.25	-41.2	-42.2	22.5	0.00e+00	81	41	0	357564416	56	5890
2026-01-22 17:58:25.08	6.73	14.46	-41.1	-42.2	22.6	0.00e+00	92	41	0	365953024	56	5833
2026-01-22 17:58:29.12	6.00	14.68	-40.9	-41.9	22.8	0.00e+00	69	41	0	373293056	56	5690
2026-01-22 17:58:33.15	5.27	14.88	-40.9	-41.9	22.9	0.00e+00	0	41	0	380633088	56	5632
2026-01-22 17:58:37.19	4.52	15.09	-40.3	-41.2	23.3	0.00e+00	81	41	0	387973120	54	5859
2026-01-22 17:58:41.23	3.76	15.29	-40.2	-41.1	23.5	0.00e+00	92	41	0	395313152	54	5807
2026-01-22 17:58:45.27	2.99	15.49	-40.1	-41.0	23.6	0.00e+00	0	41	0	403701760	54	5722
2026-01-22 17:58:49.31	2.21	15.68	-40.1	-41.1	23.6	0.00e+00	0	41	0	411041792	54	5771
2026-01-22 17:58:53.35	1.42	15.87	-40.3	-41.2	23.4	0.00e+00	0	41	0	418381824	54	5874
2026-01-22 17:58:57.38	0.62	16.06	-40.5	-41.4	23.2	0.00e+00	90	41	0	425721856	54	6021
2026-01-22 17:59:01.42	359.81	16.24	-40.6	-41.5	23.1	0.00e+00	0	41	0	434110464	54	6086
2026-01-22 17:59:05.46	358.99	16.42	-40.4	-41.3	23.0	0.00e+00	5	41	0	441450496	54	5945
2026-01-22 17:59:09.50	358.16	16.59	-40.4	-41.3	23.3	0.00e+00	0	41	0	448790528	54	5956
2026-01-22 17:59:13.54	357.32	16.76	-39.9	-40.8	23.7	0.00e+00	92	41	0	456130560	54	5619
2026-01-22 17:59:17.58	356.47	16.92	-39.8	-40.7	23.6	0.00e+00	0	41	0	463470592	52	6198
2026-01-22 17:59:21.61	355.61	17.08	-39.8	-40.7	23.8	0.00e+00	4	41	0	471859200	52	6220
2026-01-22 17:59:25.65	354.74	17.23	-39.9	-40.8	23.8	0.00e+00	86	41	0	479199232	52	6298
2026-01-22 17:59:29.69	353.87	17.38	-39.9	-40.8	23.7	0.00e+00	92	41	0	486539264	52	6278
2026-01-22 17:59:33.72	352.98	17.52	-39.8	-40.7	23.8	0.00e+00	7	41	0	493879296	52	6179
2026-01-22 17:59:37.76	352.09	17.65	-39.8	-40.7	23.9	0.00e+00	81	41	0	502267904	52	6182
2026-01-22 17:59:41.80	351.19	17.78	-39.8	-40.7	23.8	0.00e+00	0	41	0	509607936	52	6192
2026-01-22 17:59:45.84	350.28	17.90	-40.2	-41.1	23.5	0.00e+00	85	41	0	516947968	52	6531
2026-01-22 17:59:49.88	349.37	18.01	-39.7	-40.6	24.0	0.00e+00	0	41	0	524288000	52	6155
2026-01-22 17:59:53.92	348.45	18.12	-40.2	-41.1	23.6	0.00e+00	0	41	0	531628032	52	6466
2026-01-22 17:59:57.96	347.52	18.21	-40.1	-41.0	23.6	0.00e+00	31	41	0	540016640	52	6428
2026-01-22 18:00:01.99	346.59	18.30	-40.7	-41.7	23.0	0.00e+00	79	41	0	547356672	54	6211
2026-01-22 18:00:06.03	345.65	18.39	-40.7	-41.7	23.0	0.00e+00	81	41	0	554696704	54	6175
2026-01-22 18:00:10.07	344.70	18.46	-40.8	-41.8	22.9	0.00e+00	0	41	0	562036736	54	6281
2026-01-22 18:00:14.10	343.76	18.53	-40.8	-41.7	22.9	0.00e+00	92	41	0	569376768	54	6243
2026-01-22 18:00:18.14	342.80	18.59	-41.3	-42.3	22.4	0.00e+00	0	42	0	577765376	54	6661
2026-01-22 18:00:22.18	341.85	18.64	-41.3	-42.3	22.5	0.00e+00	79	42	0	585105408	54	6666
2026-01-22 18:00:26.22	340.89	18.68	-41.3	-42.4	22.3	0.00e+00	0	42	0	592445440	54	6711
2026-01-22 18:00:30.25	339.93	18.72	-41.2	-42.2	22.5	0.00e+00	90	41	0	599785472	54	6603
2026-01-22 18:00:34.29	338.96	18.75	-41.2	-42.2	22.6	0.00e+00	0	42	0	608174080	54	6600
2026-01-22 18:00:38.33	338.00	18.76	-41.2	-42.3	22.5	0.00e+00	0	42	0	615514112	54	6622
2026-01-22 18:00:42.37	337.03	18.77	-40.9	-42.0	22.7	0.00e+00	2	42	0	622854144	54	6391
2026-01-22 18:00:46.41	336.06	18.78	-41.4	-42.5	22.4	0.00e+00	92	41	0	630194176	54	6776
2026-01-22 18:00:50.44	335.10	18.77	-41.2	-42.2	22.4	0.00e+00	0	41	0	637534208	54	6582
2026-01-22 18:00:54.48	334.13	18.75	-40.7	-41.7	23.0	0.00e+00	0	42	0	645922816	54	6211
2026-01-22 18:00:58.52	333.17	18.73	-40.8	-41.8	23.0	0.00e+00	5	41	0	653262848	54	6293
2026-01-22 18:01:02.55	332.21	18.70	-40.6	-41.5	23.2	0.00e+00	92	41	0	660602880	54	6077
2026-01-22 18:01:06.59	331.25	18.65	-40.5	-41.4	23.4	0.00e+00	86	41	0	667942912	54	6032
2026-01-22 18:01:10.63	330.29	18.61	-40.3	-41.2	23.5	0.00e+00	88	41	0	676331520	54	5895
2026-01-22 18:01:14.66	329.34	18.55	-40.1	-41.0	23.7	0.00e+00	0	42	0	683671552	54	5721
2026-01-22 18:01:18.70	328.39	18.48	-39.9	-40.7	23.9	0.00e+00	92	42	0	691011584	54	5556
2026-01-22 18:01:22.74	327.44	18.41	-39.9	-40.8	23.9	0.00e+00	6	42	0	698351616	54	5611
2026-01-22 18:01:26.77	326.50	18.33	-39.7	-40.5	24.2	0.00e+00	0	42	0	705691648	52	6085
2026-01-22 18:01:30.81	325.56	18.24	-39.6	-40.5	24.2	0.00e+00	0	42	0	714080256	52	6072
2026-01-22 18:01:34.85	324.63	18.14	-39.9	-40.8	24.0	0.00e+00	92	41	0	721420288	52	6292
2026-01-22 18:01:38.88	323.71	18.04	-40.2	-41.1	23.7	0.00e+00	0	42	0	728760320	52	6525
2026-01-22 18:01:42.92	322.79	17.93	-40.5	-41.4	23.4	0.00e+00	0	42	0	736100352	52	6760
2026-01-22 18:01:46.96	321.88	17.81	-40.4	-41.3	23.4	0.00e+00	0	42	0	744488960	52	6687
2026-01-22 18:01:50.99	320.98	17.69	-40.8	-41.8	23.2	0.00e+00	83	42	0	751828992	54	6248
2026-01-22 18:01:55.02	320.09	17.56	-41.1	-42.1	22.7	0.00e+00	3	42	0	759169024	54	6496
2026-01-22 18:01:59.06	319.20	17.42	-41.4	-42.4	22.5	0.00e+00	0	42	0	766509056	54	6750
2026-01-22 18:02:03.09	318.32	17.27	-41.2	-42.2	22.6	0.00e+00	91	42	0	773849088	54	6592
2026-01-22 18:02:07.13	317.45	17.12	-41.1	-42.0	22.9	0.00e+00	0	42	0	782237696	54	6456
2026-01-22 18:02:11.17	316.59	16.97	-40.7	-41.6	23.2	0.00e+00	0	42	0	789577728	54	6158
2026-01-22 18:02:15.20	315.74	16.81	-40.9	-41.8	23.0	0.00e+00	82	42	0	796917760	54	6312
2026-01-22 18:02:19.24	314.89	16.64	-40.7	-41.7	23.1	0.00e+00	90	42	0	804257792	54	6195
2026-01-22 18:02:23.28	314.06	16.47	-40.8	-41.8	23.0	0.00e+00	0	42	0	812646400	54	6253
2026-01-22 18:02:27.31	313.24	16.29	-40.9	-41.9	22.9	0.00e+00	0	42	0	819986432	54	6359
2026-01-22 18:02:31.35	312.42	16.11	-41.3	-42.3	22.5	0.00e+00	2	42	0	827326464	54	6656
2026-01-22 18:02:35.39	311.62	15.93	-41.2	-42.3	22.6	0.00e+00	92	41	0	834666496	54	6616
2026-01-22 18:02:39.43	310.82	15.74	-41.3	-42.3	22.5	0.00e+00	81	41	0	842006528	54	6640
2026-01-22 18:02:43.46	310.04	15.54	-41.7	-42.8	22.1	0.00e+00	0	41	0	850395136	54	7063
2026-01-22 18:02:47.50	309.27	15.35	-41.6	-42.7	22.5	0.00e+00	0	41	0	857735168	56	6193
2026-01-22 18:02:51.54	308.50	15.14	-41.6	-42.6	22.4	0.00e+00	92	42	0	865075200	56	6149
2026-01-22 18:02:55.58	307.75	14.94	-41.8	-42.9	22.0	0.00e+00	84	41	0	872415232	56	6364
2026-01-22 18:02:59.61	307.01	14.73	-42.0	-43.1	21.8	0.00e+00	86	41	0	880803840	56	6480
2026-01-22 18:03:03.65	306.28	14.52	-42.2	-43.3	21.6	0.00e+00	85	41	0	888143872	56	6664
2026-01-22 18:03:07.69	305.55	14.31	-41.9	-43.0	22.0	0.00e+00	92	41	0	895483904	56	6409
2026-01-22 18:03:11.72	304.84	14.09	-42.0	-43.1	21.8	0.00e+00	0	41	0	902823936	56	6492
2026-01-22 18:03:15.76	304.14	13.87	-42.6	-43.9	21.1	0.00e+00	0	41	0	910163968	58	6318
2026-01-22 18:03:19.80	303.45	13.65	-42.6	-43.8	21.1	0.00e+00	0	41	0	918552576	58	6311
2026-01-22 18:03:23.83	302.77	13.43	-42.7	-43.9	21.1	0.00e+00	92	41	0	925892608	58	6336
2026-01-22 18:03:27.87	302.10	13.21	-42.6	-43.9	21.1	0.00e+00	0	41	0	933232640	58	6319
2026-01-22 18:03:31.91	301.44	12.98	-42.6	-43.7	21.2	0.00e+00	0	41	0	940572672	58	6243
2026-01-22 18:03:35.95	300.80	12.75	-42.5	-43.7	21.2	0.00e+00	92	41	0	947912704	58	6174
2026-01-22 18:03:39.98	300.16	12.52	-42.6	-43.8	21.1	0.00e+00	82	41	0	956301312	58	6280
2026-01-22 18:03:44.02	299.53	12.29	-42.3	-43.4	21.5	0.00e+00	82	41	0	963641344	58	6015
2026-01-22 18:03:48.06	298.91	12.06	-42.1	-43.3	21.6	0.00e+00	81	41	0	970981376	58	5901
2026-01-22 18:03:52.09	298.30	11.83	-41.8	-42.9	21.9	0.00e+00	92	41	0	978321408	58	5670
2026-01-22 18:03:56.13	297.70	11.59	-41.8	-42.9	22.0	0.00e+00	0	41	0	986710016	56	6341
2026-01-22 18:04:00.17	297.11	11.36	-41.8	-42.9	21.9	0.00e+00	0	41	0	994050048	56	6331
2026-01-22 18:04:04.21	296.53	11.12	-41.6	-42.6	22.2	0.00e+00	81	41	0	1001390080	56	6143
2026-01-22 18:04:08.25	295.96	10.89	-41.2	-42.2	22.6	0.00e+00	90	41	0	1008730112	56	5831
2026-01-22 18:04:12.28	295.40	10.65	-41.1	-42.1	22.3	0.00e+00	0	41	0	1016070144	56	5814
2026-01-22 18:04:16.32	294.85	10.41	-41.3	-42.4	22.3	0.00e+00	0	41	0	1024458752	56	5986
2026-01-22 18:04:20.36	294.30	10.18	-41.0	-42.0	22.6	0.00e+00	80	41	0	1031798784	56	5746
2026-01-22 18:04:24.40	293.77	9.94	-40.5	-41.5	23.0	0.00e+00	92	41	0	1039138816	54	6064
2026-01-22 18:04:28.43	293.25	9.70	-40.8	-41.8	22.7	0.00e+00	0	41	0	1046478848	54	6275
2026-01-22 18:04:32.47	292.73	9.46	-41.3	-42.3	22.5	0.00e+00	0	41	0	1054867456	54	6666
2026-01-22 18:04:36.50	292.22	9.23	-41.0	-42.0	22.4	0.00e+00	6	41	0	1062207488	54	6403
2026-01-22 18:04:40.54	291.72	8.99	-41.2	-42.3	22.2	0.00e+00	92	41	0	1069547520	54	6651
2026-01-22 18:04:44.58	291.23	8.75	-41.9	-43.0	21.6	0.00e+00	0	41	0	1076887552	56	6431
2026-01-22 18:04:48.62	290.75	8.52	-41.7	-42.9	21.8	0.00e+00	6	41	0	1084227584	56	6329
2026-01-22 18:04:52.66	290.27	8.28	-41.2	-42.3	22.2	0.00e+00	17	41	0	1092616192	56	5907
2026-01-22 18:04:56.69	289.80	8.04	-41.3	-42.3	22.1	0.00e+00	92	41	0	1099956224	56	5962
2026-01-22 18:05:00.74	289.34	7.81	-41.4	-42.5	22.0	0.00e+00	7	41	0	1107296256	56	6082
2026-01-22 18:05:04.77	288.89	7.57	-41.8	-42.9	21.6	0.00e+00	81	41	0	1114636288	56	6386
2026-01-22 18:05:08.81	288.44	7.34	-41.9	-43.1	21.4	0.00e+00	80	41	0	1123024896	56	6471
2026-01-22 18:05:12.85	288.01	7.10	-42.2	-43.4	21.2	0.00e+00	76	41	0	1130364928	56	6717
2026-01-22 18:05:16.89	287.57	6.87	-42.1	-43.3	21.2	0.00e+00	2	41	0	1137704960	56	6649
2026-01-22 18:05:20.93	287.15	6.64	-42.7	-44.0	20.6	0.00e+00	0	41	0	1145044992	56	7184
2026-01-22 18:05:24.96	286.73	6.40	-42.5	-43.8	20.5	0.00e+00	91	41	0	1152385024	58	6299
2026-01-22 18:05:29.00	286.32	6.17	-43.1	-44.5	20.0	0.00e+00	82	41	0	1160773632	58	6780
2026-01-22 18:05:33.04	285.92	5.94	-43.0	-44.4	20.0	0.00e+00	82	41	0	1168113664	58	6758
2026-01-22 18:05:37.07	285.52	5.71	-43.5	-45.0	19.5	0.00e+00	4	41	0	1175453696	58	7241
2026-01-22 18:05:41.11	285.13	5.48	-43.2	-44.7	19.7	0.00e+00	92	41	0	1182793728	58	6962
2026-01-22 18:05:45.15	284.75	5.25	-43.2	-44.7	19.5	0.00e+00	0	41	0	1190133760	58	6933
2026-01-22 18:05:49.18	284.37	5.02	-43.5	-45.0	19.2	0.00e+00	0	41	0	1198522368	58	7243
2026-01-22 18:05:53.22	284.00	4.80	-43.8	-45.4	18.9	0.00e+00	81	41	0	1205862400	60	6769
2026-01-22 18:05:57.25	283.63	4.57	-44.0	-45.6	18.6	0.00e+00	92	41	0	1213202432	60	6924
2026-01-22 18:06:01.28	283.27	4.35	-44.5	-46.4	17.9	0.00e+00	0	41	0	1220542464	60	7530
2026-01-22 18:06:05.33	282.92	4.12	-44.3	-46.2	18.1	0.00e+00	0	41	0	1228931072	60	7338
2026-01-22 18:06:09.36	282.57	3.90	-44.0	-45.7	18.4	0.00e+00	81	41	0	1236271104	60	6988
2026-01-22 18:06:13.40	282.23	3.67	-43.9	-45.6	18.4	0.00e+00	90	41	0	1243611136	60	6902
2026-01-22 18:06:17.44	281.89	3.45	-44.4	-46.2	17.9	0.00e+00	76	41	0	1250951168	60	7396
2026-01-22 18:06:21.48	281.55	3.23	-44.4	-46.4	17.6	0.00e+00	4	41	0	1258291200	60	7547
2026-01-22 18:06:25.52	281.23	3.01	-49.8	-64.5	3.6	0.00e+00	18	41	104	1266679808	60	60771
2026-01-22 18:06:29.56	280.90	2.79	-50.9	-66.1	3.6	1.51e+00	0	41	104	1266679808	60	72718
2026-01-22 18:06:33.60	280.59	2.57	-51.1	-66.3	3.6	1.51e+00	0	41	104	1266679808	60	74270
2026-01-22 18:06:37.64	280.27	2.35	-51.1	-66.3	3.6	1.51e+00	0	41	104	1266679808	60	74635
2026-01-22 18:06:41.68	279.96	2.13	-51.1	-66.3	3.6	1.51e+00	0	41	104	1266679808	60	74943
2026-01-22 18:06:45.72	279.66	1.92	-51.0	-66.3	3.6	1.51e+00	0	41	104	1266679808	60	74275
2026-01-22 18:06:49.76	279.36	1.70	-51.1	-66.4	3.6	1.51e+00	0	41	104	1266679808	60	75121
2026-01-22 18:06:53.80	279.07	1.49	-51.2	-66.4	3.6	1.51e+00	0	41	104	1266679808	60	75391
2026-01-22 18:06:57.84	278.78	1.27	-51.2	-66.5	3.6	1.51e+00	0	41	104	1266679808	60	76219
2026-01-22 18:07:01.88	278.49	1.06	-51.2	-66.4	3.6	1.51e+00	0	41	104	1266679808	60	75608
2026-01-22 18:07:05.92	278.21	0.85	-51.2	-66.4	3.6	1.51e+00	0	41	104	1266679808	60	75667
2026-01-22 18:07:09.96	277.93	0.64	-51.3	-66.5	3.6	1.51e+00	0	41	104	1266679808	60	76235
2026-01-22 18:07:14.00	277.66	0.43	-51.3	-66.5	3.6	1.51e+00	0	41	104	1266679808	60	76625
2026-01-22 18:07:18.04	277.39	0.22	-51.2	-66.5	3.6	1.51e+00	0	41	104	1266679808	60	76163
2026-01-22 18:07:22.08	277.12	0.01	-51.3	-66.5	3.6	1.51e+00	0	41	104	1266679808	60	76484

#Closed at: 2026-01-22 18:07:24
#Recorded file [1266 MB]: D:/lorett/data/35029_260123_055410.dat