passes_logs/2026/01/22/R4.6S_Anadyr/R4.6S_Anadyr__20260122_012532_FENGYUN_3D_rec.log

#Pass ID: 20260122_012532_FENGYUN 3D
#Satellite: FENGYUN 3D
#Configuration: FENGYUN 3D
#almurnet v.1.7.20251203
#Start time: 2026-01-22 01:25:34

#Version: 2.2.20231116
#Station: R4.6S_Anadyr
#Location: 177.4865 lon 64.73178 lat
#TLE: 1 43010U 17072A   26020.92362722 -.00000077  00000+0 -14488-4 0  9992
#TLE: 2 43010  98.9946 352.8312 0002486  99.3651 260.7806 14.19696535424099

#Time	Az	El	Level	Level2	SNR	BER	BlckErr	Temp	State	Recorded	gain1	gain2
2026-01-22 01:25:34.70	135.29	0.15	-51.3	-66.1	3.5	1.51e+00	0	39	0	0	60	73264
2026-01-22 01:25:38.74	135.21	0.39	-51.6	-63.7	3.6	8.44e-01	0	40	104	0	60	55257
2026-01-22 01:25:42.78	135.13	0.64	-51.2	-63.3	3.6	8.45e-01	0	40	104	0	60	52798
2026-01-22 01:25:46.82	135.05	0.88	-51.1	-63.2	3.6	8.45e-01	0	40	104	0	60	52281
2026-01-22 01:25:50.86	134.97	1.13	-50.8	-62.9	3.6	8.46e-01	0	40	104	0	60	50725
2026-01-22 01:25:54.90	134.88	1.38	-50.5	-62.7	3.6	8.45e-01	0	40	104	0	60	49429
2026-01-22 01:25:58.94	134.79	1.63	-49.7	-61.8	3.6	8.46e-01	0	40	104	0	60	44490
2026-01-22 01:26:02.98	134.70	1.89	-49.7	-61.8	3.6	8.45e-01	0	40	104	0	60	44676
2026-01-22 01:26:07.02	134.61	2.14	-49.6	-61.1	3.5	8.46e-01	0	41	104	0	60	40889
2026-01-22 01:26:11.06	134.52	2.40	-49.7	-61.6	3.6	8.46e-01	0	41	104	0	60	43388
2026-01-22 01:26:15.10	134.43	2.66	-49.7	-61.6	3.6	8.44e-01	0	41	104	0	60	43415
2026-01-22 01:26:19.15	134.33	2.93	-49.5	-60.1	3.6	8.45e-01	0	41	104	0	60	36457
2026-01-22 01:26:23.18	134.23	3.19	-49.6	-61.0	3.5	8.46e-01	0	41	104	0	60	40337
2026-01-22 01:26:27.22	134.13	3.46	-49.4	-59.3	3.6	8.45e-01	0	41	104	0	60	33228
2026-01-22 01:26:31.26	134.03	3.73	-46.9	-50.0	10.5	4.50e-04	0	41	0	14680064	60	11433
2026-01-22 01:26:35.30	133.93	4.00	-49.4	-59.2	3.8	8.45e-01	0	41	104	23068672	60	32810
2026-01-22 01:26:39.34	133.82	4.28	-38.2	-39.0	21.4	0.00e+00	0	41	0	32505856	50	5745
2026-01-22 01:26:43.38	133.71	4.56	-38.7	-39.6	21.3	0.00e+00	0	41	0	54525952	50	6120
2026-01-22 01:26:47.42	133.60	4.84	-37.4	-38.1	22.7	0.00e+00	0	41	0	77594624	50	5180
2026-01-22 01:26:51.46	133.49	5.12	-39.1	-40.0	21.0	0.00e+00	0	41	0	99614720	50	6440
2026-01-22 01:26:55.51	133.37	5.41	-37.8	-38.6	22.5	0.00e+00	0	41	0	122683392	50	5442
2026-01-22 01:26:59.55	133.25	5.70	-38.5	-39.3	21.6	0.00e+00	0	41	0	145752064	48	6640
2026-01-22 01:27:03.58	133.13	5.99	-37.7	-38.5	22.5	0.00e+00	0	41	0	168820736	48	6055
2026-01-22 01:27:07.62	133.01	6.29	-37.4	-38.2	22.9	0.00e+00	0	41	0	190840832	48	5860
2026-01-22 01:27:11.66	132.88	6.59	-38.6	-39.5	21.5	0.00e+00	0	41	0	213909504	50	6037
2026-01-22 01:27:15.69	132.75	6.89	-38.0	-38.8	22.2	0.00e+00	0	41	0	236978176	48	6258
2026-01-22 01:27:19.73	132.62	7.20	-37.5	-38.3	22.8	0.00e+00	0	41	0	258998272	48	5900
2026-01-22 01:27:23.77	132.48	7.51	-38.0	-38.8	22.2	0.00e+00	0	41	0	282066944	48	6310
2026-01-22 01:27:27.81	132.34	7.83	-37.1	-37.9	23.3	0.00e+00	0	41	0	304087040	48	5649
2026-01-22 01:27:31.85	132.20	8.14	-37.1	-37.8	23.3	0.00e+00	0	41	0	327155712	48	5622
2026-01-22 01:27:35.89	132.06	8.47	-37.1	-37.9	23.3	0.00e+00	0	41	0	350224384	48	5653
2026-01-22 01:27:39.93	131.91	8.79	-37.2	-37.9	23.4	0.00e+00	0	41	0	373293056	48	5664
2026-01-22 01:27:43.97	131.75	9.12	-37.4	-38.2	23.0	0.00e+00	0	41	0	395313152	48	5851
2026-01-22 01:27:48.01	131.60	9.46	-37.4	-38.2	23.1	0.00e+00	0	41	0	418381824	48	5852
2026-01-22 01:27:52.05	131.44	9.79	-36.9	-37.6	23.6	0.00e+00	0	41	0	441450496	48	5486
2026-01-22 01:27:56.09	131.27	10.14	-37.0	-37.8	23.5	0.00e+00	0	41	0	463470592	48	5585
2026-01-22 01:28:00.13	131.10	10.48	-36.7	-37.5	23.8	0.00e+00	0	41	0	486539264	46	6042
2026-01-22 01:28:04.17	130.93	10.84	-36.3	-37.1	24.2	0.00e+00	0	41	0	509607936	46	5765
2026-01-22 01:28:08.21	130.75	11.19	-36.6	-37.2	24.1	0.00e+00	0	41	0	531628032	46	5881
2026-01-22 01:28:12.25	130.57	11.56	-36.6	-37.4	24.0	0.00e+00	0	41	0	554696704	46	5968
2026-01-22 01:28:16.29	130.38	11.92	-36.0	-36.6	24.6	0.00e+00	0	41	0	577765376	46	5502
2026-01-22 01:28:20.33	130.19	12.29	-35.9	-36.6	24.7	0.00e+00	0	41	0	599785472	44	6126
2026-01-22 01:28:24.37	129.99	12.67	-35.7	-36.4	24.9	0.00e+00	0	41	0	622854144	44	5978
2026-01-22 01:28:28.41	129.79	13.06	-35.6	-36.2	25.0	0.00e+00	0	41	0	645922816	44	5891
2026-01-22 01:28:32.45	129.58	13.44	-35.7	-36.4	24.9	0.00e+00	0	41	0	667942912	44	5980
2026-01-22 01:28:36.49	129.36	13.84	-35.6	-36.3	25.0	0.00e+00	0	41	0	691011584	44	5908
2026-01-22 01:28:40.52	129.14	14.24	-35.5	-36.2	25.1	0.00e+00	0	41	0	714080256	44	5836
2026-01-22 01:28:44.57	128.91	14.65	-35.5	-36.2	25.1	0.00e+00	0	41	0	736100352	44	5852
2026-01-22 01:28:48.61	128.68	15.06	-35.3	-36.0	25.3	0.00e+00	0	41	0	759169024	44	5747
2026-01-22 01:28:52.65	128.44	15.48	-35.0	-35.6	25.6	0.00e+00	0	41	0	782237696	44	5495
2026-01-22 01:28:56.70	128.19	15.91	-34.9	-35.5	25.8	0.00e+00	0	41	0	804257792	42	6082
2026-01-22 01:29:00.73	127.93	16.34	-34.8	-35.4	25.9	0.00e+00	0	41	0	827326464	42	6033
2026-01-22 01:29:04.77	127.67	16.78	-34.7	-35.4	25.9	0.00e+00	0	41	0	850395136	42	5987
2026-01-22 01:29:08.81	127.40	17.23	-34.7	-35.4	26.0	0.00e+00	0	41	0	872415232	42	6005
2026-01-22 01:29:12.85	127.12	17.69	-34.6	-35.2	26.0	0.00e+00	0	41	0	895483904	42	5885
2026-01-22 01:29:16.89	126.83	18.15	-34.3	-35.0	26.2	0.00e+00	0	41	0	918552576	42	5707
2026-01-22 01:29:20.93	126.53	18.63	-34.1	-34.7	26.5	0.00e+00	0	41	0	940572672	42	5557
2026-01-22 01:29:24.98	126.22	19.11	-33.8	-34.5	26.7	0.00e+00	0	41	0	963641344	42	5386
2026-01-22 01:29:29.02	125.90	19.60	-34.0	-34.6	26.7	0.00e+00	0	41	0	986710016	42	5471
2026-01-22 01:29:33.06	125.57	20.10	-33.9	-34.5	26.7	0.00e+00	0	41	0	1008730112	42	5393
2026-01-22 01:29:37.09	125.23	20.60	-33.6	-34.2	26.8	0.00e+00	0	41	0	1031798784	40	5877
2026-01-22 01:29:41.13	124.87	21.12	-33.5	-34.1	27.1	0.00e+00	0	41	0	1054867456	40	5802
2026-01-22 01:29:45.17	124.50	21.65	-33.5	-34.1	27.0	0.00e+00	0	41	0	1077936128	40	5815
2026-01-22 01:29:49.21	124.12	22.18	-33.5	-34.1	27.0	0.00e+00	0	41	0	1099956224	40	5820
2026-01-22 01:29:53.26	123.73	22.73	-33.4	-34.1	27.2	0.00e+00	0	41	0	1123024896	40	5764
2026-01-22 01:29:57.30	123.32	23.28	-33.2	-33.8	27.3	0.00e+00	0	41	0	1145044992	40	5626
2026-01-22 01:30:01.33	122.90	23.85	-33.0	-33.6	27.5	0.00e+00	0	41	0	1168113664	40	5471
2026-01-22 01:30:05.37	122.46	24.43	-33.0	-33.6	27.5	0.00e+00	0	41	0	1191182336	40	5474
2026-01-22 01:30:09.41	122.00	25.02	-33.0	-33.6	27.5	0.00e+00	0	41	0	1213202432	40	5465
2026-01-22 01:30:13.44	121.53	25.61	-33.1	-33.7	27.4	0.00e+00	0	41	0	1236271104	40	5566
2026-01-22 01:30:17.48	121.04	26.22	-33.1	-33.8	27.4	0.00e+00	0	41	0	1259339776	40	5578
2026-01-22 01:30:21.52	120.52	26.85	-33.1	-33.7	27.4	0.00e+00	0	41	0	1282408448	40	5536
2026-01-22 01:30:25.56	119.99	27.48	-33.4	-34.1	27.2	0.00e+00	0	41	0	1304428544	40	5762
2026-01-22 01:30:29.59	119.43	28.13	-33.2	-33.9	27.4	0.00e+00	0	41	0	1327497216	40	5644
2026-01-22 01:30:33.63	118.85	28.79	-32.8	-33.4	27.7	0.00e+00	0	41	0	1349517312	40	5360
2026-01-22 01:30:37.67	118.25	29.46	-32.8	-33.5	27.7	0.00e+00	0	41	0	1372585984	38	6035
2026-01-22 01:30:41.71	117.62	30.14	-33.0	-33.6	27.6	0.00e+00	0	41	0	1395654656	38	6136
2026-01-22 01:30:45.75	116.96	30.84	-32.6	-33.3	27.8	0.00e+00	0	41	0	1417674752	38	5942
2026-01-22 01:30:49.79	116.27	31.54	-32.2	-32.8	28.2	0.00e+00	0	41	0	1440743424	38	5621
2026-01-22 01:30:53.84	115.54	32.27	-32.4	-33.0	28.1	0.00e+00	0	41	0	1463812096	38	5724
2026-01-22 01:30:57.87	114.79	33.00	-32.3	-32.9	28.2	0.00e+00	0	41	0	1486880768	38	5644
2026-01-22 01:31:01.92	114.00	33.74	-32.0	-32.6	28.4	0.00e+00	0	41	0	1508900864	38	5447
2026-01-22 01:31:05.95	113.17	34.50	-32.2	-32.8	28.2	0.00e+00	0	41	0	1531969536	38	5568
2026-01-22 01:31:09.99	112.30	35.27	-32.2	-32.8	28.3	0.00e+00	0	41	0	1553989632	38	5586
2026-01-22 01:31:14.03	111.39	36.05	-32.4	-33.0	28.0	0.00e+00	0	41	0	1577058304	38	5729
2026-01-22 01:31:18.08	110.44	36.84	-32.5	-33.2	28.0	0.00e+00	0	41	0	1600126976	38	5834
2026-01-22 01:31:22.12	109.43	37.64	-32.3	-32.9	28.1	0.00e+00	0	41	0	1623195648	38	5640
2026-01-22 01:31:26.16	108.38	38.44	-32.5	-33.1	28.0	0.00e+00	0	41	0	1645215744	38	5780
2026-01-22 01:31:30.21	107.26	39.26	-32.3	-32.9	28.2	0.00e+00	0	41	0	1668284416	38	5656
2026-01-22 01:31:34.25	106.10	40.08	-32.4	-33.0	28.0	0.00e+00	0	41	0	1691353088	38	5740
2026-01-22 01:31:38.29	104.87	40.91	-32.5	-33.2	28.1	0.00e+00	0	41	0	1713373184	38	5839
2026-01-22 01:31:42.33	103.57	41.74	-32.4	-33.0	28.1	0.00e+00	0	41	0	1736441856	38	5745
2026-01-22 01:31:46.37	102.21	42.57	-32.5	-33.1	28.1	0.00e+00	0	41	0	1759510528	38	5786
2026-01-22 01:31:50.40	100.78	43.39	-32.2	-32.8	28.3	0.00e+00	0	41	0	1781530624	38	5606
2026-01-22 01:31:54.44	99.26	44.22	-32.3	-32.9	28.3	0.00e+00	0	41	0	1804599296	38	5664
2026-01-22 01:31:58.49	97.67	45.04	-32.7	-33.4	27.8	0.00e+00	0	41	0	1827667968	38	5984
2026-01-22 01:32:02.52	96.00	45.85	-32.6	-33.2	28.0	0.00e+00	0	41	0	1849688064	38	5884
2026-01-22 01:32:06.56	94.23	46.65	-32.9	-33.5	27.8	0.00e+00	0	41	0	1872756736	38	6093
2026-01-22 01:32:10.60	92.37	47.43	-33.0	-33.7	27.7	0.00e+00	0	41	0	1895825408	38	6174
2026-01-22 01:32:14.63	90.43	48.19	-33.3	-34.0	27.4	0.00e+00	0	41	0	1917845504	38	6401
2026-01-22 01:32:18.67	88.38	48.92	-33.3	-33.9	27.5	0.00e+00	0	41	0	1940914176	38	6367
2026-01-22 01:32:22.71	86.23	49.63	-33.3	-33.9	27.4	0.00e+00	0	41	0	1962934272	40	5691
2026-01-22 01:32:26.75	83.98	50.30	-33.4	-34.0	27.4	0.00e+00	0	41	0	1986002944	40	5724
2026-01-22 01:32:30.79	81.64	50.93	-33.7	-34.3	27.1	0.00e+00	0	41	0	2009071616	40	5963
2026-01-22 01:32:34.83	79.20	51.52	-33.5	-34.1	27.4	0.00e+00	0	41	0	2032140288	40	5792
2026-01-22 01:32:38.87	76.66	52.05	-33.1	-33.7	27.7	0.00e+00	0	41	0	2054160384	40	5535
2026-01-22 01:32:42.91	74.03	52.53	-32.6	-33.2	28.0	0.00e+00	0	41	0	2077229056	38	5885
2026-01-22 01:32:46.95	71.33	52.95	-33.2	-33.8	27.6	0.00e+00	0	41	0	2100297728	38	6277
2026-01-22 01:32:50.99	68.55	53.31	-32.9	-33.5	27.8	0.00e+00	0	41	0	2122317824	38	6070
2026-01-22 01:32:55.03	65.71	53.60	-33.2	-33.8	27.5	0.00e+00	0	41	0	2145386496	38	6312
2026-01-22 01:32:59.06	62.82	53.81	-33.4	-34.0	27.5	0.00e+00	0	41	0	2167406592	38	6401
2026-01-22 01:33:03.11	59.89	53.96	-33.3	-33.9	27.5	0.00e+00	0	41	0	2190475264	38	6352
2026-01-22 01:33:07.14	56.94	54.02	-33.4	-34.0	27.4	0.00e+00	0	41	0	2213543936	38	6460
2026-01-22 01:33:11.19	53.98	54.01	-33.2	-33.8	27.6	0.00e+00	0	41	0	2236612608	40	5585
2026-01-22 01:33:15.22	51.05	53.92	-33.2	-33.9	27.4	0.00e+00	0	41	0	2258632704	40	5636
2026-01-22 01:33:19.26	48.13	53.76	-33.2	-33.8	27.5	0.00e+00	0	41	0	2281701376	40	5630
2026-01-22 01:33:23.31	45.25	53.52	-32.8	-33.4	27.8	0.00e+00	0	41	0	2303721472	40	5332
2026-01-22 01:33:27.35	42.42	53.21	-32.9	-33.5	27.9	0.00e+00	0	41	0	2326790144	38	6034
2026-01-22 01:33:31.39	39.67	52.84	-32.9	-33.5	27.9	0.00e+00	0	41	0	2349858816	38	6058
2026-01-22 01:33:35.43	36.98	52.40	-32.6	-33.2	28.0	0.00e+00	0	41	0	2372927488	38	5847
2026-01-22 01:33:39.47	34.39	51.90	-33.1	-33.8	27.8	0.00e+00	0	41	0	2394947584	38	6264
2026-01-22 01:33:43.51	31.88	51.35	-33.0	-33.6	27.8	0.00e+00	0	41	0	2418016256	38	6167
2026-01-22 01:33:47.56	29.46	50.75	-33.6	-34.1	27.3	0.00e+00	0	41	0	2441084928	38	6523
2026-01-22 01:33:51.60	27.15	50.11	-32.8	-33.5	27.8	0.00e+00	0	41	0	2463105024	38	6064
2026-01-22 01:33:55.63	24.94	49.43	-32.7	-33.2	28.0	0.00e+00	0	41	0	2486173696	38	5855
2026-01-22 01:33:59.67	22.83	48.72	-32.7	-33.2	28.1	0.00e+00	0	41	0	2509242368	38	5866
2026-01-22 01:34:03.72	20.81	47.97	-32.5	-33.0	28.1	0.00e+00	0	41	0	2531262464	38	5747
2026-01-22 01:34:07.76	18.89	47.21	-32.1	-32.8	28.4	0.00e+00	0	41	0	2554331136	38	5602
2026-01-22 01:34:11.79	17.07	46.43	-32.4	-32.9	28.2	0.00e+00	0	41	0	2577399808	38	5681
2026-01-22 01:34:15.83	15.33	45.63	-32.3	-33.0	28.3	0.00e+00	0	41	0	2599419904	38	5736
2026-01-22 01:34:19.87	13.68	44.81	-31.9	-32.5	28.5	0.00e+00	0	41	0	2622488576	38	5436
2026-01-22 01:34:23.92	12.12	43.99	-32.2	-32.8	28.3	0.00e+00	0	41	0	2645557248	38	5585
2026-01-22 01:34:27.96	10.63	43.17	-31.9	-32.5	28.5	0.00e+00	0	41	0	2667577344	38	5427
2026-01-22 01:34:32.00	9.22	42.34	-32.2	-32.8	28.2	0.00e+00	0	41	0	2690646016	38	5570
2026-01-22 01:34:36.04	7.88	41.51	-32.2	-32.7	28.0	0.00e+00	0	41	0	2713714688	38	5525
2026-01-22 01:34:40.08	6.61	40.69	-32.1	-32.6	28.3	0.00e+00	0	41	0	2735734784	38	5492
2026-01-22 01:34:44.11	5.40	39.87	-31.7	-32.2	28.6	0.00e+00	0	41	0	2758803456	36	5873
2026-01-22 01:34:48.15	4.26	39.05	-32.2	-32.7	28.2	0.00e+00	0	41	0	2781872128	36	6207
2026-01-22 01:34:52.19	3.17	38.24	-32.1	-32.7	28.4	0.00e+00	0	41	0	2803892224	36	6217
2026-01-22 01:34:56.23	2.13	37.44	-31.9	-32.5	28.4	0.00e+00	0	41	0	2826960896	36	6044
2026-01-22 01:35:00.27	1.14	36.64	-32.0	-32.6	28.4	0.00e+00	0	41	0	2850029568	36	6153
2026-01-22 01:35:04.31	0.20	35.86	-31.6	-32.1	28.6	0.00e+00	0	41	0	2872049664	36	5824
2026-01-22 01:35:08.35	359.31	35.09	-31.7	-32.2	28.6	0.00e+00	0	41	0	2895118336	36	5885
2026-01-22 01:35:12.39	358.45	34.32	-31.9	-32.4	28.5	0.00e+00	0	41	0	2918187008	36	6024
2026-01-22 01:35:16.43	357.64	33.57	-31.8	-32.3	28.6	0.00e+00	0	41	0	2940207104	36	5927
2026-01-22 01:35:20.47	356.86	32.83	-31.8	-32.3	28.6	0.00e+00	0	41	0	2963275776	36	5964
2026-01-22 01:35:24.51	356.12	32.11	-32.0	-32.6	28.3	0.00e+00	0	41	0	2986344448	36	6114
2026-01-22 01:35:28.55	355.41	31.39	-32.1	-32.6	28.3	0.00e+00	0	41	0	3008364544	36	6167
2026-01-22 01:35:32.59	354.73	30.69	-32.1	-32.6	28.3	0.00e+00	0	41	0	3031433216	36	6157
2026-01-22 01:35:36.63	354.08	30.00	-32.3	-32.8	28.1	0.00e+00	0	41	0	3054501888	36	6295
2026-01-22 01:35:40.67	353.46	29.32	-32.6	-33.2	27.9	0.00e+00	0	41	0	3077570560	36	6610
2026-01-22 01:35:44.71	352.86	28.66	-32.4	-33.0	28.0	0.00e+00	0	41	0	3099590656	36	6451
2026-01-22 01:35:48.76	352.29	28.00	-32.5	-33.0	28.0	0.00e+00	0	41	0	3122659328	36	6426
2026-01-22 01:35:52.80	351.74	27.36	-32.4	-32.9	28.0	0.00e+00	0	41	0	3144679424	36	6383
2026-01-22 01:35:56.84	351.22	26.73	-32.6	-33.1	27.9	0.00e+00	0	41	0	3167748096	36	6526
2026-01-22 01:36:00.88	350.71	26.11	-32.4	-33.0	28.0	0.00e+00	0	41	0	3190816768	36	6455
2026-01-22 01:36:04.92	350.23	25.51	-32.3	-32.8	28.0	0.00e+00	0	41	0	3213885440	36	6315
2026-01-22 01:36:08.97	349.76	24.91	-32.6	-33.1	27.9	0.00e+00	0	41	0	3235905536	36	6514
2026-01-22 01:36:13.00	349.31	24.33	-32.6	-33.1	27.8	0.00e+00	0	41	0	3258974208	36	6522
2026-01-22 01:36:17.04	348.88	23.76	-32.8	-33.4	27.7	0.00e+00	0	41	0	3282042880	38	5988
2026-01-22 01:36:21.08	348.46	23.20	-32.8	-33.3	27.7	0.00e+00	0	41	0	3304062976	38	5951
2026-01-22 01:36:25.12	348.06	22.64	-32.7	-33.3	27.6	0.00e+00	0	41	0	3327131648	38	5921
2026-01-22 01:36:28.94	347.69	22.13	-33.0	-33.6	27.5	0.00e+00	0	41	0	3349151744	38	6168
2026-01-22 01:36:32.98	347.32	21.60	-33.1	-33.6	27.4	0.00e+00	0	41	0	3372220416	38	6151
2026-01-22 01:36:37.02	346.96	21.08	-33.1	-33.7	27.3	0.00e+00	0	41	0	3395289088	38	6182
2026-01-22 01:36:41.06	346.61	20.57	-33.3	-33.9	27.3	0.00e+00	0	41	0	3418357760	38	6321
2026-01-22 01:36:45.10	346.27	20.06	-33.6	-34.1	27.0	0.00e+00	0	41	0	3440377856	38	6531
2026-01-22 01:36:49.15	345.95	19.57	-33.9	-34.4	26.8	0.00e+00	0	41	0	3463446528	40	6022
2026-01-22 01:36:53.18	345.63	19.08	-33.9	-34.4	26.7	0.00e+00	0	41	0	3486515200	40	6023
2026-01-22 01:36:57.22	345.33	18.60	-33.9	-34.4	26.8	0.00e+00	0	41	0	3508535296	40	6012
2026-01-22 01:37:01.26	345.03	18.13	-34.0	-34.5	26.6	0.00e+00	0	41	0	3531603968	40	6071
2026-01-22 01:37:05.30	344.75	17.67	-34.1	-34.6	26.5	0.00e+00	0	41	0	3553624064	40	6149
2026-01-22 01:37:09.34	344.47	17.22	-34.4	-35.0	26.3	0.00e+00	0	41	0	3576692736	40	6391
2026-01-22 01:37:13.38	344.20	16.77	-34.6	-35.2	26.1	0.00e+00	0	41	0	3599761408	40	6592
2026-01-22 01:37:17.42	343.94	16.33	-34.9	-35.5	25.8	0.00e+00	0	41	0	3622830080	42	6055
2026-01-22 01:37:21.46	343.69	15.90	-34.8	-35.6	26.0	0.00e+00	0	41	0	3644850176	42	6119
2026-01-22 01:37:25.50	343.45	15.48	-35.1	-35.8	25.7	0.00e+00	0	41	0	3667918848	42	6314
2026-01-22 01:37:29.54	343.21	15.06	-35.1	-35.7	25.6	0.00e+00	0	41	0	3690987520	42	6231
2026-01-22 01:37:33.58	342.98	14.65	-35.0	-35.5	25.7	0.00e+00	0	41	0	3713007616	42	6100
2026-01-22 01:37:37.62	342.75	14.24	-35.2	-35.8	25.6	0.00e+00	0	41	0	3736076288	42	6272
2026-01-22 01:37:41.66	342.54	13.85	-35.4	-36.0	25.3	0.00e+00	0	41	0	3759144960	42	6457
2026-01-22 01:37:45.70	342.33	13.45	-35.5	-36.1	25.2	0.00e+00	0	41	0	3781165056	42	6530
2026-01-22 01:37:49.74	342.12	13.07	-35.9	-36.7	24.9	0.00e+00	0	41	0	3804233728	44	6192
2026-01-22 01:37:53.77	341.92	12.69	-35.8	-36.5	24.9	0.00e+00	0	41	0	3827302400	44	6052
2026-01-22 01:37:57.81	341.73	12.31	-36.1	-36.8	24.6	0.00e+00	0	41	0	3849322496	44	6252
2026-01-22 01:38:01.85	341.54	11.94	-36.2	-36.8	24.5	0.00e+00	0	41	0	3872391168	44	6289
2026-01-22 01:38:05.90	341.36	11.57	-36.1	-36.8	24.6	0.00e+00	0	41	0	3895459840	44	6251
2026-01-22 01:38:09.94	341.18	11.21	-36.5	-37.1	24.2	0.00e+00	0	41	0	3917479936	44	6521
2026-01-22 01:38:13.97	341.00	10.86	-36.4	-37.2	24.3	0.00e+00	0	41	0	3940548608	44	6542
2026-01-22 01:38:18.02	340.83	10.51	-36.6	-37.3	24.0	0.00e+00	0	41	0	3963617280	44	6633
2026-01-22 01:38:22.06	340.67	10.16	-36.6	-37.3	24.0	0.00e+00	0	41	0	3985637376	46	5930
2026-01-22 01:38:26.10	340.51	9.82	-36.6	-37.4	24.0	0.00e+00	0	41	0	4008706048	46	6013
2026-01-22 01:38:30.14	340.35	9.49	-36.9	-37.6	23.7	0.00e+00	0	41	0	4031774720	46	6152
2026-01-22 01:38:34.18	340.20	9.15	-36.8	-37.6	23.7	0.00e+00	0	41	0	4053794816	46	6156
2026-01-22 01:38:38.22	340.05	8.83	-37.0	-37.7	23.5	0.00e+00	0	41	0	4076863488	46	6201
2026-01-22 01:38:42.26	339.90	8.50	-36.7	-37.4	23.8	0.00e+00	0	41	0	4099932160	46	5971
2026-01-22 01:38:46.30	339.76	8.18	-37.2	-38.1	23.3	0.00e+00	0	41	0	4121952256	46	6481
2026-01-22 01:38:50.33	339.62	7.87	-37.0	-37.8	23.5	0.00e+00	0	41	0	4145020928	46	6315
2026-01-22 01:38:54.37	339.49	7.55	-37.0	-37.7	23.5	0.00e+00	0	41	0	4168089600	46	6196
2026-01-22 01:38:58.41	339.36	7.24	-36.9	-37.6	23.4	0.00e+00	0	41	0	4190109696	46	6136
2026-01-22 01:39:02.45	339.23	6.94	-37.7	-38.6	22.6	0.00e+00	0	41	0	4213178368	46	6896
2026-01-22 01:39:06.49	339.10	6.64	-38.0	-38.8	22.2	0.00e+00	0	41	0	4236247040	48	6269
2026-01-22 01:39:10.52	338.98	6.34	-37.5	-38.2	22.7	0.00e+00	0	41	0	4258267136	48	5880
2026-01-22 01:39:14.56	338.86	6.04	-37.2	-37.9	23.1	0.00e+00	0	41	0	4281335808	48	5635
2026-01-22 01:39:18.60	338.74	5.75	-37.0	-37.7	23.0	0.00e+00	0	41	0	4304404480	48	5547
2026-01-22 01:39:22.64	338.63	5.46	-38.5	-39.2	21.3	0.00e+00	0	42	0	4326424576	48	6612
2026-01-22 01:39:26.68	338.51	5.17	-38.8	-39.8	20.3	0.00e+00	0	41	0	4349493248	50	6314
2026-01-22 01:39:30.71	338.40	4.89	-41.1	-42.4	16.7	0.00e+00	0	41	0	4372561920	54	6757
2026-01-22 01:39:34.75	338.30	4.61	-43.4	-45.8	12.9	1.83e-05	0	41	0	4394582016	58	7886
2026-01-22 01:39:38.79	338.19	4.33	-44.9	-48.8	8.9	2.66e-02	0	42	0	4417650688	60	9955
2026-01-22 01:39:42.83	338.09	4.06	-46.0	-52.2	4.7	7.67e-01	0	42	0	4435476480	60	14776
2026-01-22 01:39:46.87	337.99	3.79	-46.2	-56.3	3.8	8.44e-01	0	42	104	4435476480	60	23584
2026-01-22 01:39:50.90	337.89	3.52	-46.2	-57.9	3.6	8.45e-01	0	42	104	4435476480	60	28482
2026-01-22 01:39:54.94	337.79	3.25	-46.4	-58.5	3.6	8.45e-01	0	42	104	4435476480	60	30465
2026-01-22 01:39:58.98	337.70	2.99	-46.3	-58.5	3.6	8.45e-01	0	42	104	4435476480	60	30242
2026-01-22 01:40:03.01	337.61	2.72	-50.9	-63.0	3.6	8.44e-01	0	42	104	4435476480	60	51314
2026-01-22 01:40:07.06	337.52	2.46	-51.2	-63.3	3.6	8.44e-01	0	42	104	4435476480	60	53151
2026-01-22 01:40:11.10	337.43	2.21	-51.3	-63.4	3.6	8.44e-01	0	42	104	4435476480	60	53447
2026-01-22 01:40:15.14	337.34	1.95	-51.1	-63.3	3.6	8.45e-01	0	42	104	4435476480	60	53145
2026-01-22 01:40:19.18	337.26	1.70	-51.2	-63.3	3.6	8.46e-01	0	42	104	4435476480	60	52889
2026-01-22 01:40:23.22	337.18	1.45	-51.3	-63.4	3.6	8.45e-01	0	42	104	4435476480	60	53471
2026-01-22 01:40:27.26	337.09	1.20	-51.2	-63.4	3.6	8.46e-01	0	42	104	4435476480	60	53208
2026-01-22 01:40:31.30	337.01	0.95	-51.3	-63.4	3.6	8.45e-01	0	42	104	4435476480	60	53483
2026-01-22 01:40:35.34	336.94	0.71	-51.3	-63.4	3.6	8.44e-01	0	42	104	4435476480	60	53279
2026-01-22 01:40:39.38	336.86	0.46	-51.2	-63.4	3.6	8.46e-01	0	42	104	4435476480	60	53558
2026-01-22 01:40:43.42	336.78	0.22	-51.2	-63.3	3.6	8.45e-01	0	42	104	4435476480	60	53072
2026-01-22 01:40:47.46	336.71	-0.02	-51.2	-63.4	3.6	8.46e-01	0	42	104	4435476480	60	53192

#Closed at: 2026-01-22 01:40:48
#Recorded file [4435 MB]: D:/lorett/data/35029_260122_132534.dat