passes_logs/2025/01/19/XPeterburg/XPeterburg__20250119_012351_AQUA_rec.log

#Pass ID: 20250119_012351_AQUA
#Satellite: AQUA
#Configuration: AQUA
#Start time: 2025-01-19 01:23:45

#Version: 1.5.20200625
#Station: XPeterburg
#Location: 30.318091 lon 59.932769 lat
#TLE: 1 27424U 02022A   25017.13491740  .00001953  00000+0  41075-3 0  9996
#TLE: 2 27424  98.3596 333.8179 0001829 109.1235 340.1836 14.60691632207930

#Time	Az	El	Level	Level2	SNR	BER	Gain	Gain2
2025-01-19 01:23:45.42	21.29	66.70	-36.7	-46.6	3.3	7671966	90	1871
2025-01-19 01:23:45.82	21.32	66.91	-36.4	-56.0	3.5	7550659	73	5689
2025-01-19 01:23:46.22	21.35	67.13	-36.6	-47.4	3.4	7642517	90	2060
2025-01-19 01:23:46.62	21.39	67.34	-36.7	-48.0	3.5	7545623	90	2207
2025-01-19 01:23:47.02	21.42	67.56	-36.6	-47.5	3.4	7638397	90	2084
2025-01-19 01:23:47.43	21.46	67.78	-36.7	-48.0	3.5	7583923	90	2203
2025-01-19 01:23:47.83	21.49	68.00	-36.7	-47.6	3.4	7594451	90	2098
2025-01-19 01:23:48.23	21.53	68.22	-36.7	-48.1	3.5	7544250	90	2214
2025-01-19 01:23:48.63	21.57	68.44	-36.7	-47.6	3.4	7592926	90	2106
2025-01-19 01:23:49.03	21.60	68.66	-36.7	-48.1	3.5	7556457	90	2220
2025-01-19 01:23:49.44	21.64	68.88	-36.7	-47.6	3.5	7631072	90	2104
2025-01-19 01:23:49.84	21.68	69.10	-36.6	-48.0	3.4	7576599	90	2201
2025-01-19 01:23:50.24	21.72	69.32	-36.6	-47.7	3.5	7616577	90	2140
2025-01-19 01:23:50.64	21.77	69.54	-36.6	-48.0	3.3	7586212	90	2199
2025-01-19 01:23:51.04	21.81	69.77	-36.6	-47.6	3.5	7608642	90	2127
2025-01-19 01:23:51.44	21.85	69.99	-36.6	-47.2	3.4	7668457	90	2024
2025-01-19 01:23:51.85	21.90	70.22	-36.6	-47.8	3.5	7583007	90	2156
2025-01-19 01:23:52.25	21.94	70.44	-36.6	-47.3	3.4	7592163	90	2046
2025-01-19 01:23:52.65	21.99	70.67	-36.6	-47.8	3.5	7547912	90	2175
2025-01-19 01:23:53.05	22.04	70.89	-36.6	-47.4	3.4	7646331	90	2058
2025-01-19 01:23:53.45	22.08	71.12	-36.6	-47.9	3.5	7581176	90	2195
2025-01-19 01:23:53.86	22.14	71.35	-36.6	-47.4	3.4	7593994	90	2064
2025-01-19 01:23:54.26	22.19	71.57	-36.6	-47.8	3.5	7579803	90	2177
2025-01-19 01:23:54.66	22.24	71.80	-36.6	-47.4	3.4	7610321	90	2072
2025-01-19 01:23:55.06	22.29	72.03	-36.6	-47.9	3.5	7593994	90	2190
2025-01-19 01:23:55.46	22.35	72.26	-36.6	-47.5	3.5	7603607	90	2099
2025-01-19 01:23:55.86	22.40	72.48	-36.6	-48.0	3.5	7575378	90	2216
2025-01-19 01:23:56.27	22.46	72.72	-36.6	-47.5	3.4	7630157	90	2095
2025-01-19 01:23:56.67	22.52	72.95	-36.6	-48.0	3.5	7555236	90	2214
2025-01-19 01:23:57.07	22.59	73.18	-36.6	-47.5	3.5	7588500	90	2092
2025-01-19 01:23:57.47	22.65	73.41	-36.6	-47.9	3.5	7574005	90	2182
2025-01-19 01:23:57.87	22.71	73.64	-36.6	-47.5	3.5	7593994	90	2105
2025-01-19 01:23:58.28	22.78	73.87	-36.6	-47.9	3.3	7557678	90	2194
2025-01-19 01:23:58.68	22.85	74.11	-36.6	-47.6	3.5	7574462	90	2120
2025-01-19 01:23:59.08	22.92	74.34	-36.6	-47.3	3.4	7685546	90	2033
2025-01-19 01:23:59.48	23.00	74.57	-36.6	-47.8	3.5	7583007	90	2164
2025-01-19 01:23:59.88	23.07	74.80	-36.6	-47.3	3.4	7638854	90	2039
2025-01-19 01:24:00.28	23.15	75.04	-36.6	-47.8	3.5	7539978	90	2158
2025-01-19 01:24:00.69	23.23	75.28	-36.6	-47.3	3.4	7641296	90	2052
2025-01-19 01:24:01.09	23.32	75.51	-36.6	-47.9	3.5	7576751	90	2182
2025-01-19 01:24:01.49	23.40	75.74	-36.6	-47.4	3.4	7650604	90	2053
2025-01-19 01:24:01.89	23.49	75.98	-36.6	-47.9	3.5	7568969	90	2191
2025-01-19 01:24:02.29	23.59	76.21	-36.6	-47.3	3.4	7613067	90	2053
2025-01-19 01:24:02.70	23.68	76.46	-36.6	-47.8	3.5	7541656	90	2183
2025-01-19 01:24:03.10	23.78	76.69	-36.6	-47.4	3.4	7591857	90	2068
2025-01-19 01:24:03.50	23.89	76.93	-36.6	-47.9	3.5	7562408	90	2197
2025-01-19 01:24:03.90	23.99	77.16	-36.6	-47.4	3.4	7608184	90	2076
2025-01-19 01:24:04.30	24.10	77.40	-36.6	-47.7	3.4	7562103	90	2157
2025-01-19 01:24:04.71	24.22	77.64	-36.6	-47.5	3.5	7617645	90	2094
2025-01-19 01:24:05.11	24.34	77.88	-36.6	-47.9	3.2	7598266	90	2194
2025-01-19 01:24:05.51	24.47	78.12	-36.6	-47.6	3.5	7617187	90	2107
2025-01-19 01:24:05.91	24.60	78.36	-36.6	-47.1	3.4	7675018	90	1999
2025-01-19 01:24:06.31	24.73	78.60	-36.6	-47.7	3.5	7589721	90	2130
2025-01-19 01:24:06.71	24.87	78.83	-36.6	-47.2	3.4	7636260	90	2016
2025-01-19 01:24:07.12	25.02	79.08	-36.6	-47.6	3.5	7570037	90	2124
2025-01-19 01:24:07.52	25.18	79.32	-36.6	-47.1	3.4	7602386	90	1998
2025-01-19 01:24:07.92	25.34	79.56	-36.6	-47.5	3.5	7588806	90	2108
2025-01-19 01:24:08.32	25.51	79.80	-36.6	-46.9	3.4	7629852	90	1959
2025-01-19 01:24:08.72	25.68	80.04	-36.6	-47.4	3.5	7584075	90	2073
2025-01-19 01:24:09.13	25.87	80.28	-36.6	-46.9	3.4	7636108	90	1964
2025-01-19 01:24:09.53	26.07	80.53	-36.6	-47.4	3.5	7583007	90	2080
2025-01-19 01:24:09.93	26.28	80.77	-36.6	-46.8	3.4	7620239	90	1930
2025-01-19 01:24:10.33	26.49	81.01	-36.5	-46.9	3.5	7544250	90	1975
2025-01-19 01:24:10.73	26.72	81.25	-36.5	-46.2	3.5	7614288	90	1813
2025-01-19 01:24:11.13	26.97	81.49	-36.5	-46.5	3.5	7570495	90	1880
2025-01-19 01:24:11.54	27.23	81.74	-36.5	-46.3	3.5	7615661	90	1844
2025-01-19 01:24:11.94	27.50	81.98	-36.5	-47.0	3.4	7575531	90	1991
2025-01-19 01:24:12.34	27.79	82.22	-36.5	-46.6	3.5	7607574	90	1916
2025-01-19 01:24:12.74	28.10	82.46	-36.5	-46.5	3.3	7566223	90	1893
2025-01-19 01:24:13.14	28.43	82.70	-36.4	-45.7	3.5	7577667	90	1746
2025-01-19 01:24:13.55	28.79	82.95	-36.4	-45.2	3.4	7587280	90	1644
2025-01-19 01:24:13.95	29.16	83.19	-36.4	-46.0	3.5	7574768	90	1802
2025-01-19 01:24:14.35	29.57	83.43	-36.5	-45.9	3.4	7632446	90	1762
2025-01-19 01:24:14.75	30.00	83.67	-36.5	-46.6	3.5	7575225	90	1908
2025-01-19 01:24:15.15	30.47	83.91	-36.5	-46.1	3.4	7620544	90	1820
2025-01-19 01:24:15.56	31.00	84.16	-36.4	-46.3	3.5	7561798	90	1869
2025-01-19 01:24:15.96	31.55	84.40	-36.4	-45.5	3.5	7621307	90	1693
2025-01-19 01:24:16.36	32.15	84.64	-36.4	-46.0	3.5	7560729	90	1811
2025-01-19 01:24:16.76	32.81	84.88	-36.5	-46.3	3.4	7599639	90	1857
2025-01-19 01:24:17.17	33.56	85.12	-36.6	-47.6	3.5	7581024	90	2132
2025-01-19 01:24:17.57	34.36	85.36	-36.6	-47.4	3.4	7606506	90	2082
2025-01-19 01:24:17.97	35.25	85.60	-36.5	-47.5	3.5	7562103	90	2115
2025-01-19 01:24:18.37	36.24	85.83	-36.5	-46.7	3.4	7598724	90	1934
2025-01-19 01:24:18.77	37.35	86.07	-36.5	-47.1	3.5	7574310	90	2021
2025-01-19 01:24:19.18	38.63	86.31	-36.5	-46.4	3.5	7582092	90	1873
2025-01-19 01:24:19.58	40.05	86.54	-36.4	-45.8	3.5	7542572	90	1762
2025-01-19 01:24:19.98	41.67	86.77	-36.3	-44.4	3.6	7579956	90	1522
2025-01-19 01:24:20.38	43.54	86.99	-36.2	-44.2	3.4	7547149	90	1507
2025-01-19 01:24:20.78	45.72	87.22	-36.3	-44.9	3.8	7520446	90	1609
2025-01-19 01:24:21.19	48.33	87.44	-36.5	-46.3	3.4	7607727	90	1842
2025-01-19 01:24:21.59	51.36	87.65	-36.6	-47.5	3.5	7557830	90	2095
2025-01-19 01:24:21.99	54.97	87.86	-36.4	-45.5	3.4	7615509	90	1705
2025-01-19 01:24:22.39	59.32	88.05	-36.1	-43.3	4.1	7326660	90	1373
2025-01-19 01:24:22.79	64.59	88.23	-35.6	-40.3	5.7	6956939	89	1029
2025-01-19 01:24:23.19	71.00	88.39	-34.6	-37.6	8.2	6489868	87	837
2025-01-19 01:24:23.60	78.92	88.53	-33.4	-35.2	10.5	6193542	85	733
2025-01-19 01:24:24.00	88.06	88.64	-32.5	-33.8	12.2	6137084	83	694
2025-01-19 01:24:24.40	98.42	88.70	-31.9	-32.9	13.3	6084136	82	671
2025-01-19 01:24:24.80	109.47	88.72	-31.9	-32.8	13.6	6076965	82	668
2025-01-19 01:24:25.20	120.45	88.69	-32.3	-33.9	12.9	6101989	82	720
2025-01-19 01:24:25.61	130.85	88.62	-33.1	-35.6	11.4	6160888	83	793
2025-01-19 01:24:26.01	139.70	88.51	-34.4	-38.4	8.8	6441802	85	944
2025-01-19 01:24:26.41	147.17	88.36	-35.6	-41.2	5.8	7044982	88	1133
2025-01-19 01:24:26.81	153.35	88.20	-36.4	-45.7	3.7	7460174	89	1743
2025-01-19 01:24:27.21	158.44	88.02	-36.5	-46.5	3.4	7601623	90	1889
2025-01-19 01:24:27.62	162.73	87.81	-36.5	-47.2	3.5	7560882	90	2054
2025-01-19 01:24:28.02	166.21	87.61	-36.5	-46.3	3.4	7644805	90	1843
2025-01-19 01:24:28.42	169.13	87.39	-36.5	-46.9	3.5	7553558	90	1976
2025-01-19 01:24:28.82	171.60	87.18	-36.5	-46.7	3.4	7619171	90	1920
2025-01-19 01:24:29.22	173.71	86.95	-36.5	-47.6	3.5	7557525	90	2124
2025-01-19 01:24:29.62	175.53	86.73	-36.6	-47.1	3.4	7620849	90	2020
2025-01-19 01:24:30.03	177.15	86.49	-36.6	-47.6	3.5	7549591	90	2143
2025-01-19 01:24:30.43	178.54	86.26	-36.5	-46.9	3.5	7620697	90	1979
2025-01-19 01:24:30.83	179.76	86.02	-36.4	-46.6	3.5	7576751	90	1928
2025-01-19 01:24:31.23	180.84	85.79	-36.4	-45.5	3.5	7587585	90	1700
2025-01-19 01:24:31.63	181.81	85.55	-36.3	-45.3	3.5	7564239	90	1687
2025-01-19 01:24:32.04	182.71	85.31	-36.4	-45.3	3.6	7528381	90	1663
2025-01-19 01:24:32.44	183.49	85.07	-36.4	-46.2	3.2	7568664	90	1837
2025-01-19 01:24:32.84	184.20	84.83	-36.5	-46.5	3.5	7578277	90	1902
2025-01-19 01:24:33.24	184.85	84.59	-36.5	-46.5	3.4	7626953	90	1884
2025-01-19 01:24:33.64	185.45	84.35	-36.5	-46.6	3.5	7606811	90	1929
2025-01-19 01:24:34.04	185.99	84.11	-36.4	-45.5	3.4	7598266	90	1707
2025-01-19 01:24:34.45	186.51	83.87	-36.3	-45.5	3.5	7540588	90	1715
2025-01-19 01:24:34.85	186.97	83.62	-36.3	-45.0	3.5	7624969	90	1613
2025-01-19 01:24:35.25	187.40	83.38	-36.4	-45.7	3.5	7540130	90	1759
2025-01-19 01:24:35.65	187.80	83.14	-36.4	-46.0	3.4	7604217	90	1786
2025-01-19 01:24:36.05	188.17	82.90	-36.5	-47.2	3.5	7538452	90	2047
2025-01-19 01:24:36.46	188.53	82.65	-36.5	-47.0	3.4	7641601	90	2000
2025-01-19 01:24:36.86	188.85	82.41	-36.5	-47.3	3.5	7620086	90	2057
2025-01-19 01:24:37.26	189.15	82.17	-36.5	-46.2	3.4	7588348	90	1825
2025-01-19 01:24:37.66	189.44	81.93	-36.5	-46.6	3.5	7573394	90	1911
2025-01-19 01:24:38.06	189.71	81.69	-36.6	-46.6	3.5	7577056	90	1889
2025-01-19 01:24:38.47	189.97	81.44	-36.7	-47.8	3.5	7568817	90	2139
2025-01-19 01:24:38.87	190.21	81.20	-36.7	-47.7	3.5	7628631	90	2112
2025-01-19 01:24:39.27	190.44	80.96	-36.7	-48.0	3.5	7542114	90	2203
2025-01-19 01:24:39.67	190.65	80.72	-36.7	-47.7	3.5	7586212	90	2109
2025-01-19 01:24:40.07	190.86	80.48	-36.7	-47.8	3.2	7570190	90	2136
2025-01-19 01:24:40.47	191.05	80.24	-36.7	-47.6	3.5	7574920	90	2092
2025-01-19 01:24:40.88	191.24	79.99	-36.8	-47.3	3.4	7595214	90	2015
2025-01-19 01:24:41.28	191.41	79.75	-36.8	-47.9	3.5	7557678	90	2149
2025-01-19 01:24:41.68	191.58	79.51	-36.9	-47.5	3.4	7666778	90	2030
2025-01-19 01:24:42.09	191.75	79.26	-36.9	-48.1	3.5	7570800	90	2162
2025-01-19 01:24:42.49	191.90	79.02	-36.9	-47.6	3.4	7621612	90	2048
2025-01-19 01:24:42.89	192.04	78.78	-36.9	-48.4	3.5	7598266	90	2253
2025-01-19 01:24:43.29	192.18	78.55	-36.8	-47.9	3.4	7604980	90	2133
2025-01-19 01:24:43.69	192.32	78.31	-36.9	-48.7	3.5	7543792	90	2301
2025-01-19 01:24:44.09	192.45	78.07	-36.9	-48.1	3.4	7634735	90	2155
2025-01-19 01:24:44.50	192.57	77.82	-37.2	-48.6	3.5	7536773	91	2203
2025-01-19 01:24:44.90	192.69	77.59	-37.2	-48.0	3.5	7630920	91	2058
2025-01-19 01:24:45.30	192.81	77.35	-37.2	-48.8	3.5	7548980	91	2252
2025-01-19 01:24:45.70	192.92	77.11	-37.3	-48.4	3.5	7576141	91	2150
2025-01-19 01:24:46.10	193.02	76.87	-37.3	-48.9	3.5	7602539	91	2255
2025-01-19 01:24:46.51	193.13	76.63	-37.3	-48.5	3.5	7574462	91	2167
2025-01-19 01:24:46.91	193.23	76.40	-37.4	-49.1	3.3	7610015	91	2291
2025-01-19 01:24:47.31	193.32	76.16	-37.4	-48.8	3.5	7597656	91	2210
2025-01-19 01:24:47.71	193.41	75.92	-37.4	-48.4	3.4	7627716	91	2115
2025-01-19 01:24:48.11	193.50	75.69	-37.4	-48.7	3.5	7576293	91	2214
2025-01-19 01:24:48.52	193.59	75.45	-37.4	-48.2	3.4	7654876	91	2089
2025-01-19 01:24:48.92	193.67	75.21	-37.3	-48.7	3.5	7610626	91	2213
2025-01-19 01:24:49.32	193.75	74.98	-37.3	-48.3	3.4	7617645	91	2101
2025-01-19 01:24:49.72	193.83	74.75	-37.4	-49.0	3.5	7585906	91	2265
2025-01-19 01:24:50.13	193.91	74.51	-37.4	-48.4	3.4	7647857	91	2116
2025-01-19 01:24:50.53	193.98	74.28	-37.3	-48.8	3.5	7555236	91	2263
2025-01-19 01:24:50.93	194.05	74.04	-37.3	-48.3	3.4	7590637	91	2135
2025-01-19 01:24:51.33	194.12	73.81	-37.3	-48.8	3.5	7547302	91	2255
2025-01-19 01:24:51.73	194.19	73.58	-37.3	-48.4	3.4	7589416	91	2135
2025-01-19 01:24:52.13	194.25	73.35	-37.3	-48.8	3.5	7564392	91	2249
2025-01-19 01:24:52.54	194.32	73.11	-37.2	-48.3	3.4	7636260	91	2154
2025-01-19 01:24:52.94	194.38	72.88	-37.3	-49.0	3.5	7555847	91	2282
2025-01-19 01:24:53.34	194.44	72.65	-37.3	-48.4	3.5	7583770	91	2165
2025-01-19 01:24:53.74	194.49	72.43	-37.2	-48.8	3.5	7561187	91	2266
2025-01-19 01:24:54.15	194.55	72.19	-37.2	-48.4	3.5	7605438	91	2159
2025-01-19 01:24:54.55	194.61	71.96	-37.2	-48.8	3.2	7586517	91	2265
2025-01-19 01:24:54.95	194.66	71.74	-37.3	-48.5	3.5	7598114	91	2168
2025-01-19 01:24:55.35	194.71	71.51	-37.3	-48.2	3.4	7646179	91	2080
2025-01-19 01:24:55.75	194.76	71.28	-37.3	-48.7	3.5	7600860	91	2203
2025-01-19 01:24:56.16	194.82	71.05	-37.3	-48.2	3.4	7630767	91	2095
2025-01-19 01:24:56.56	194.86	70.82	-37.3	-48.6	3.5	7567901	91	2209
2025-01-19 01:24:56.96	194.91	70.60	-37.2	-48.0	3.4	7580108	91	2073
2025-01-19 01:24:57.36	194.96	70.37	-37.2	-48.7	3.5	7573242	91	2235

#Closed at: 2025-01-19 01:24:57