passes_logs/2025/01/19/XPeterburg/XPeterburg__20250119_090305_FENGYUN_3F_rec.log

#Pass ID: 20250119_090305_FENGYUN 3F
#Satellite: FENGYUN 3F
#Configuration: FENGYUN 3F
#Start time: 2025-01-19 09:03:00

#Version: 1.5.20200625
#Station: XPeterburg
#Location: 30.318091 lon 59.932769 lat
#TLE: 1 57490U 23111A   25017.16985188  .00000174  00000+0  10253-3 0  9999
#TLE: 2 57490  98.7460  90.0838 0001258 138.4389 221.6883 14.19977223 75637

#Time	Az	El	Level	Level2	SNR	BER	Gain	Gain2
2025-01-19 09:03:00.55	42.67	68.14	-40.2	-43.1	3.3	8385646	97	6927
2025-01-19 09:03:00.95	42.89	68.31	-39.6	-54.7	3.5	8211742	73	28217
2025-01-19 09:03:01.35	43.12	68.47	-40.2	-43.1	3.3	8411602	97	6938
2025-01-19 09:03:01.75	43.36	68.64	-40.1	-44.3	3.6	8420585	97	7991
2025-01-19 09:03:02.15	43.59	68.80	-40.1	-43.1	3.3	8404209	97	6915
2025-01-19 09:03:02.56	43.84	68.97	-40.1	-44.6	3.6	8437625	97	8182
2025-01-19 09:03:02.96	44.08	69.14	-40.0	-42.3	3.3	8374202	98	6434
2025-01-19 09:03:03.36	44.33	69.30	-40.1	-43.9	3.6	8347686	98	7618
2025-01-19 09:03:03.76	44.59	69.46	-40.1	-42.5	3.3	8435153	98	6467
2025-01-19 09:03:04.16	44.84	69.63	-40.1	-43.9	3.6	8385623	98	7690
2025-01-19 09:03:04.57	45.11	69.80	-40.1	-42.7	3.4	8460491	98	6644
2025-01-19 09:03:04.97	45.38	69.96	-40.1	-43.9	3.6	8394756	98	7651
2025-01-19 09:03:05.37	45.65	70.13	-40.1	-42.8	3.4	8444892	98	6775
2025-01-19 09:03:05.77	45.93	70.29	-40.1	-42.5	3.3	8387844	98	6482
2025-01-19 09:03:06.17	46.21	70.45	-40.1	-43.1	3.4	8436275	98	6978
2025-01-19 09:03:06.57	46.49	70.62	-40.1	-42.4	3.3	8395980	98	6457
2025-01-19 09:03:06.98	46.79	70.78	-40.1	-43.3	3.5	8433780	98	7157
2025-01-19 09:03:07.38	47.09	70.95	-40.1	-42.5	3.3	8381652	98	6517
2025-01-19 09:03:07.78	47.39	71.11	-40.1	-43.7	3.6	8447090	98	7451
2025-01-19 09:03:08.18	47.70	71.27	-40.1	-42.4	3.3	8412940	98	6448
2025-01-19 09:03:08.58	48.01	71.44	-40.1	-44.0	3.6	8409793	98	7704
2025-01-19 09:03:08.99	48.34	71.60	-40.4	-42.6	3.3	8411876	99	6335
2025-01-19 09:03:09.39	48.67	71.76	-40.1	-44.0	3.6	8374649	98	7671
2025-01-19 09:03:09.79	49.00	71.93	-40.1	-42.5	3.3	8408283	98	6461
2025-01-19 09:03:10.19	49.34	72.09	-40.1	-43.9	3.6	8391574	98	7632
2025-01-19 09:03:10.60	49.69	72.25	-40.5	-42.7	3.3	8373344	99	6402
2025-01-19 09:03:11.00	50.04	72.41	-40.1	-43.9	3.6	8346954	98	7636
2025-01-19 09:03:11.40	50.40	72.57	-40.1	-42.6	3.3	8415653	98	6535
2025-01-19 09:03:11.80	50.77	72.73	-40.1	-43.9	3.6	8398555	98	7616
2025-01-19 09:03:12.20	51.14	72.89	-40.1	-42.6	3.4	8435325	98	6589
2025-01-19 09:03:12.60	51.52	73.05	-40.1	-43.9	3.6	8399391	98	7602
2025-01-19 09:03:13.01	51.91	73.21	-40.1	-42.9	3.4	8434135	98	6787
2025-01-19 09:03:13.41	52.31	73.37	-40.1	-42.4	3.3	8406486	98	6462
2025-01-19 09:03:13.81	52.71	73.53	-40.1	-43.0	3.4	8438541	98	6897
2025-01-19 09:03:14.21	53.12	73.69	-40.1	-42.3	3.3	8395740	98	6391
2025-01-19 09:03:14.61	53.54	73.84	-40.0	-43.2	3.5	8442111	98	7135
2025-01-19 09:03:15.02	53.98	74.00	-40.0	-42.3	3.3	8393028	98	6395
2025-01-19 09:03:15.42	54.42	74.16	-40.0	-43.6	3.6	8426284	98	7392
2025-01-19 09:03:15.82	54.86	74.31	-40.0	-42.3	3.3	8407825	98	6383
2025-01-19 09:03:16.22	55.32	74.46	-40.0	-43.8	3.6	8427474	98	7568
2025-01-19 09:03:16.63	55.79	74.62	-40.0	-42.4	3.3	8396450	98	6427
2025-01-19 09:03:17.03	56.27	74.77	-40.0	-43.9	3.6	8399883	98	7636
2025-01-19 09:03:17.43	56.75	74.92	-40.0	-42.4	3.3	8444171	98	6428
2025-01-19 09:03:17.83	57.25	75.07	-40.1	-43.8	3.6	8392650	98	7614
2025-01-19 09:03:18.23	57.75	75.22	-40.0	-42.5	3.3	8417541	98	6533
2025-01-19 09:03:18.63	58.26	75.37	-40.1	-43.9	3.6	8389652	98	7626
2025-01-19 09:03:19.04	58.80	75.52	-40.0	-42.6	3.4	8432991	98	6615
2025-01-19 09:03:19.44	59.34	75.67	-40.0	-43.8	3.6	8384559	98	7628
2025-01-19 09:03:19.84	59.89	75.81	-40.0	-42.5	3.4	8440361	98	6586
2025-01-19 09:03:20.25	60.46	75.96	-40.0	-43.8	3.6	8396369	98	7622
2025-01-19 09:03:20.65	61.04	76.10	-40.0	-42.7	3.4	8443943	98	6699
2025-01-19 09:03:21.05	61.62	76.24	-40.0	-42.4	3.3	8399288	98	6438
2025-01-19 09:03:21.45	62.22	76.38	-40.0	-42.9	3.4	8452194	98	6881
2025-01-19 09:03:21.85	62.83	76.52	-40.0	-42.4	3.3	8391185	98	6449
2025-01-19 09:03:22.25	63.45	76.66	-40.0	-43.3	3.5	8415756	98	7169
2025-01-19 09:03:22.66	64.10	76.80	-40.0	-42.3	3.3	8410549	98	6400
2025-01-19 09:03:23.06	64.76	76.93	-40.1	-43.6	3.6	8429626	98	7425
2025-01-19 09:03:23.46	65.42	77.07	-40.0	-42.4	3.3	8393280	98	6446
2025-01-19 09:03:23.86	66.10	77.20	-40.0	-43.9	3.6	8445339	98	7667
2025-01-19 09:03:24.26	66.79	77.33	-40.0	-42.4	3.3	8426639	98	6435
2025-01-19 09:03:24.67	67.51	77.46	-40.0	-43.8	3.6	8407859	98	7582
2025-01-19 09:03:25.07	68.24	77.59	-40.0	-42.4	3.3	8418388	98	6439
2025-01-19 09:03:25.47	68.97	77.71	-40.0	-43.9	3.6	8412792	98	7672
2025-01-19 09:03:25.87	69.73	77.83	-40.1	-42.6	3.3	8390258	98	6581
2025-01-19 09:03:26.27	70.50	77.95	-40.0	-43.7	3.6	8392112	98	7575
2025-01-19 09:03:26.68	71.30	78.07	-40.1	-43.2	3.4	8401130	98	6984
2025-01-19 09:03:27.08	72.10	78.19	-40.1	-42.6	3.3	8401657	98	6512
2025-01-19 09:03:27.48	72.92	78.31	-40.0	-43.3	3.5	8360115	98	7206
2025-01-19 09:03:27.88	73.75	78.42	-40.0	-42.3	3.3	8412700	98	6393
2025-01-19 09:03:28.28	74.60	78.53	-40.0	-43.5	3.6	8428207	98	7369
2025-01-19 09:03:28.69	75.49	78.64	-40.0	-42.2	3.3	8396644	98	6352
2025-01-19 09:03:29.09	76.37	78.74	-40.0	-43.7	3.6	8407505	98	7498
2025-01-19 09:03:29.49	77.27	78.84	-40.0	-42.3	3.3	8413341	98	6406
2025-01-19 09:03:29.89	78.19	78.94	-40.0	-43.8	3.6	8400787	98	7614
2025-01-19 09:03:30.29	79.12	79.04	-40.0	-42.2	3.3	8407310	98	6364
2025-01-19 09:03:30.69	80.07	79.13	-40.0	-43.7	3.6	8430747	98	7565
2025-01-19 09:03:31.10	81.06	79.22	-40.4	-42.6	3.3	8377258	99	6335
2025-01-19 09:03:31.50	82.04	79.31	-40.0	-43.7	3.6	8386230	98	7539
2025-01-19 09:03:31.90	83.04	79.40	-40.0	-42.5	3.4	8437751	98	6578
2025-01-19 09:03:32.30	84.06	79.48	-40.0	-43.7	3.6	8391975	98	7522
2025-01-19 09:03:32.70	85.09	79.56	-40.0	-42.7	3.4	8442958	98	6741
2025-01-19 09:03:33.11	86.16	79.63	-40.0	-42.3	3.3	8388931	98	6403
2025-01-19 09:03:33.51	87.22	79.70	-40.0	-42.9	3.4	8440876	98	6879
2025-01-19 09:03:33.91	88.30	79.77	-40.1	-42.4	3.3	8396907	98	6446
2025-01-19 09:03:34.31	89.39	79.84	-40.0	-43.3	3.5	8440979	98	7162
2025-01-19 09:03:34.71	90.49	79.90	-40.0	-42.3	3.3	8413055	98	6411
2025-01-19 09:03:35.12	91.64	79.95	-40.1	-43.6	3.6	8422760	98	7412
2025-01-19 09:03:35.52	92.77	80.01	-40.0	-42.3	3.3	8399745	98	6414
2025-01-19 09:03:35.92	93.91	80.06	-40.0	-43.8	3.6	8447319	98	7565
2025-01-19 09:03:36.32	95.06	80.10	-40.0	-42.3	3.3	8424980	98	6406
2025-01-19 09:03:36.72	96.23	80.14	-40.0	-43.8	3.6	8396919	98	7593
2025-01-19 09:03:37.13	97.43	80.18	-40.0	-42.3	3.3	8418182	98	6426
2025-01-19 09:03:37.53	98.61	80.21	-40.0	-43.8	3.6	8412734	98	7559
2025-01-19 09:03:37.93	99.80	80.24	-40.0	-42.4	3.3	8456726	98	6470
2025-01-19 09:03:38.33	101.00	80.27	-40.0	-43.8	3.6	8388256	98	7607
2025-01-19 09:03:38.73	102.20	80.29	-40.0	-42.6	3.4	8441802	98	6568
2025-01-19 09:03:39.14	103.44	80.31	-40.1	-43.8	3.6	8394126	98	7599
2025-01-19 09:03:39.54	104.65	80.32	-40.1	-42.8	3.4	8440589	98	6733
2025-01-19 09:03:39.94	105.86	80.33	-40.1	-43.8	3.6	8392948	98	7572
2025-01-19 09:03:40.34	107.07	80.33	-40.1	-42.8	3.4	8439846	98	6752
2025-01-19 09:03:40.74	108.29	80.33	-40.1	-42.3	3.3	8401714	98	6387
2025-01-19 09:03:41.15	109.53	80.32	-40.0	-43.0	3.4	8438564	98	6914
2025-01-19 09:03:41.55	110.74	80.31	-40.1	-42.4	3.3	8412174	98	6403
2025-01-19 09:03:41.95	111.95	80.30	-40.1	-43.2	3.5	8423904	98	7067
2025-01-19 09:03:42.35	113.16	80.28	-40.0	-42.3	3.3	8400833	98	6410
2025-01-19 09:03:42.75	114.36	80.26	-40.0	-43.5	3.6	8444972	98	7352
2025-01-19 09:03:43.16	115.58	80.23	-40.0	-42.2	3.3	8385818	98	6336
2025-01-19 09:03:43.56	116.77	80.20	-40.0	-43.6	3.6	8399505	98	7491
2025-01-19 09:03:43.96	117.95	80.17	-40.0	-42.1	3.3	8411579	98	6292
2025-01-19 09:03:44.36	119.12	80.13	-40.0	-43.5	3.6	8410949	98	7380
2025-01-19 09:03:44.76	120.28	80.09	-39.9	-42.0	3.3	8412059	98	6264
2025-01-19 09:03:45.17	121.46	80.04	-40.0	-43.5	3.6	8396667	98	7345
2025-01-19 09:03:45.57	122.60	79.99	-40.0	-42.2	3.3	8438873	98	6334
2025-01-19 09:03:45.97	123.73	79.94	-40.0	-43.7	3.6	8390453	98	7536
2025-01-19 09:03:46.37	124.84	79.88	-40.4	-42.8	3.4	8372085	99	6497
2025-01-19 09:03:46.77	125.94	79.82	-40.0	-43.7	3.6	8402057	98	7498
2025-01-19 09:03:47.18	127.05	79.75	-40.4	-43.2	3.4	8390979	99	6752
2025-01-19 09:03:47.58	128.13	79.68	-40.4	-42.5	3.3	8399906	99	6259
2025-01-19 09:03:47.98	129.18	79.61	-40.0	-43.3	3.5	8445030	98	7203
2025-01-19 09:03:48.38	130.23	79.53	-40.0	-42.4	3.3	8415721	98	6471
2025-01-19 09:03:48.78	131.25	79.45	-40.0	-43.5	3.6	8427566	98	7382
2025-01-19 09:03:49.19	132.29	79.37	-40.0	-42.3	3.3	8397033	98	6435
2025-01-19 09:03:49.59	133.28	79.28	-40.0	-43.8	3.6	8415355	98	7612
2025-01-19 09:03:49.99	134.26	79.19	-40.0	-42.3	3.3	8392478	98	6401
2025-01-19 09:03:50.39	135.22	79.10	-40.0	-43.8	3.6	8397205	98	7621
2025-01-19 09:03:50.79	136.17	79.01	-40.0	-42.4	3.3	8423503	98	6441
2025-01-19 09:03:51.20	137.12	78.91	-40.0	-43.7	3.6	8427680	98	7508
2025-01-19 09:03:51.60	138.03	78.81	-40.0	-42.3	3.3	8413764	98	6429
2025-01-19 09:03:52.00	138.92	78.71	-40.0	-43.8	3.6	8411178	98	7541
2025-01-19 09:03:52.40	139.80	78.60	-40.1	-42.5	3.3	8434432	98	6490
2025-01-19 09:03:52.80	140.66	78.49	-40.0	-43.8	3.6	8391380	98	7576
2025-01-19 09:03:53.21	141.53	78.38	-40.0	-42.5	3.4	8447296	98	6548
2025-01-19 09:03:53.61	142.36	78.27	-40.1	-43.8	3.6	8385532	98	7576
2025-01-19 09:03:54.01	143.17	78.15	-40.0	-42.7	3.4	8439926	98	6713
2025-01-19 09:03:54.41	143.96	78.03	-40.1	-42.4	3.3	8385063	98	6449
2025-01-19 09:03:54.81	144.74	77.91	-40.0	-43.0	3.4	8448429	98	6896
2025-01-19 09:03:55.22	145.52	77.79	-40.0	-42.4	3.3	8394195	98	6444
2025-01-19 09:03:55.62	146.27	77.67	-40.3	-43.5	3.5	8425346	99	7050
2025-01-19 09:03:56.02	147.01	77.54	-40.3	-42.5	3.3	8399471	99	6292
2025-01-19 09:03:56.42	147.72	77.42	-40.0	-43.8	3.6	8367382	98	7616
2025-01-19 09:03:56.82	148.43	77.29	-40.4	-42.5	3.3	8402320	99	6286
2025-01-19 09:03:57.23	149.13	77.15	-40.0	-43.8	3.6	8391403	98	7629
2025-01-19 09:03:57.63	149.81	77.02	-40.1	-42.5	3.3	8438610	98	6548
2025-01-19 09:03:58.03	150.47	76.89	-40.1	-43.9	3.6	8400993	98	7633
2025-01-19 09:03:58.43	151.11	76.75	-40.0	-42.8	3.4	8438953	98	6770
2025-01-19 09:03:58.83	151.74	76.61	-40.0	-42.4	3.3	8400455	98	6464
2025-01-19 09:03:59.24	152.38	76.47	-40.0	-43.0	3.4	8438106	98	6923
2025-01-19 09:03:59.64	152.99	76.33	-40.0	-42.3	3.3	8395454	98	6380
2025-01-19 09:04:00.04	153.58	76.19	-40.0	-42.9	3.4	8442432	98	6881
2025-01-19 09:04:00.44	154.16	76.05	-40.0	-42.4	3.3	8393405	98	6465
2025-01-19 09:04:00.84	154.73	75.91	-40.0	-43.2	3.5	8434284	98	7115
2025-01-19 09:04:01.25	155.30	75.76	-40.0	-42.4	3.3	8394435	98	6446
2025-01-19 09:04:01.65	155.84	75.61	-40.0	-43.6	3.6	8429317	98	7456
2025-01-19 09:04:02.05	156.38	75.47	-40.0	-42.3	3.3	8404769	98	6408
2025-01-19 09:04:02.45	156.90	75.32	-40.0	-43.9	3.6	8432842	98	7665
2025-01-19 09:04:02.85	157.41	75.17	-40.0	-42.2	3.3	8424659	98	6378
2025-01-19 09:04:03.26	157.93	75.02	-40.0	-43.7	3.6	8391231	98	7521
2025-01-19 09:04:03.66	158.42	74.87	-40.0	-42.3	3.3	8409896	98	6394
2025-01-19 09:04:04.06	158.90	74.71	-40.0	-43.7	3.6	8399711	98	7563
2025-01-19 09:04:04.46	159.37	74.56	-40.4	-42.7	3.3	8388187	99	6413
2025-01-19 09:04:04.86	159.83	74.41	-40.0	-43.7	3.6	8384033	98	7567
2025-01-19 09:04:05.26	160.28	74.26	-40.0	-42.7	3.4	8438804	98	6680
2025-01-19 09:04:05.67	160.74	74.10	-40.0	-43.8	3.6	8390876	98	7627
2025-01-19 09:04:06.07	161.17	73.94	-40.0	-42.8	3.4	8455776	98	6761
2025-01-19 09:04:06.47	161.60	73.79	-40.0	-42.4	3.3	8398143	98	6433
2025-01-19 09:04:06.87	162.01	73.63	-40.0	-43.0	3.4	8437259	98	6916
2025-01-19 09:04:07.27	162.42	73.47	-40.0	-42.4	3.3	8385566	98	6448
2025-01-19 09:04:07.68	162.83	73.31	-40.0	-43.3	3.5	8427383	98	7153
2025-01-19 09:04:08.08	163.23	73.15	-40.0	-42.3	3.3	8393886	98	6423
2025-01-19 09:04:08.48	163.61	72.99	-40.0	-43.6	3.6	8418434	98	7416
2025-01-19 09:04:08.88	163.99	72.83	-40.0	-42.4	3.3	8400741	98	6454
2025-01-19 09:04:09.28	164.36	72.67	-40.0	-43.8	3.6	8456565	98	7577
2025-01-19 09:04:09.68	164.72	72.51	-40.0	-42.4	3.3	8428710	98	6469
2025-01-19 09:04:10.09	165.09	72.35	-40.0	-43.8	3.6	8407115	98	7583
2025-01-19 09:04:10.49	165.44	72.19	-40.4	-42.7	3.3	8417427	99	6368
2025-01-19 09:04:10.89	165.78	72.03	-40.0	-43.8	3.6	8361591	98	7572
2025-01-19 09:04:11.29	166.11	71.86	-40.0	-42.5	3.3	8402435	98	6501
2025-01-19 09:04:11.70	166.45	71.70	-40.0	-43.8	3.6	8396072	98	7612
2025-01-19 09:04:12.10	166.78	71.54	-40.4	-42.9	3.4	8381412	99	6551
2025-01-19 09:04:12.50	167.09	71.37	-40.0	-43.8	3.6	8390144	98	7604
2025-01-19 09:04:12.90	167.41	71.21	-40.0	-42.8	3.4	8441471	98	6800
2025-01-19 09:04:13.30	167.71	71.05	-40.0	-42.4	3.3	8407711	98	6446
2025-01-19 09:04:13.71	168.02	70.88	-40.0	-43.0	3.4	8439468	98	6964
2025-01-19 09:04:14.11	168.32	70.72	-40.0	-42.4	3.3	8386745	98	6453
2025-01-19 09:04:14.51	168.61	70.55	-40.0	-43.2	3.5	8445133	98	7122
2025-01-19 09:04:14.91	168.89	70.39	-40.0	-42.3	3.3	8397136	98	6402
2025-01-19 09:04:15.31	169.17	70.22	-40.0	-43.5	3.6	8425151	98	7375

#Closed at: 2025-01-19 09:04:15