passes_logs/2026/01/06/planumMaritime01/planumMaritime01__20260106_062537_METOP-C_rec.log

#Pass ID: 20260106_062537_METOP-C
#Satellite: METOP-C
#Configuration: METOP-C
#Start time: 2026-01-06 06:25:42.673489

#LorettStation: 1.0.0 05.05.2024
#Station: planumMaritime01
#Location: 37.49445 lon 55.92918 lat
#TLE: 1 43689U 18087A   26005.61301108  .00000231  00000+0  12558-3 0  9996
#TLE: 2 43689  98.6893  68.0125 0000094 271.4752  88.6414 14.21495293371730

#Time	Az	El	Level	SNR
2026-01-06 06:25:44.848919	35.4	10.1	-72.2	0.0
2026-01-06 06:25:47.105577	35.7	10.3	-71.1	0.0
2026-01-06 06:25:49.359088	35.9	10.5	-73.0	0.0
2026-01-06 06:25:51.614262	36.2	10.6	-67.5	0.0
2026-01-06 06:25:53.867720	36.5	10.8	-66.5	0.0
2026-01-06 06:25:56.123662	36.7	10.9	-59.7	0.0
2026-01-06 06:25:58.374190	37.0	11.1	-58.8	0.0
2026-01-06 06:26:00.630068	37.3	11.2	-63.7	0.0
2026-01-06 06:26:02.885359	37.5	11.4	-62.4	0.0
2026-01-06 06:26:05.139628	37.8	11.6	-63.5	0.0
2026-01-06 06:26:07.396198	38.1	11.7	-62.3	0.0
2026-01-06 06:26:09.650541	38.4	11.9	-62.5	0.0
2026-01-06 06:26:11.906244	38.7	12.0	-63.4	0.0
2026-01-06 06:26:14.161047	38.9	12.2	-62.3	0.0
2026-01-06 06:26:16.414007	39.2	12.4	-62.6	0.0
2026-01-06 06:26:18.668229	39.5	12.5	-59.4	0.0
2026-01-06 06:26:20.920954	39.8	12.7	-64.8	0.0
2026-01-06 06:26:23.174049	40.1	12.8	-63.8	0.0
2026-01-06 06:26:25.426405	40.4	13.0	-59.6	0.0
2026-01-06 06:26:27.680518	40.7	13.2	-61.4	0.0
2026-01-06 06:26:29.935127	41.0	13.3	-64.9	0.0
2026-01-06 06:26:32.189540	41.3	13.5	-65.4	0.0
2026-01-06 06:26:34.444049	41.7	13.7	-63.4	0.0
2026-01-06 06:26:36.697909	42.0	13.8	-62.5	0.0
2026-01-06 06:26:38.945848	42.3	14.0	-66.1	0.0
2026-01-06 06:26:41.197918	42.6	14.2	-65.5	0.0
2026-01-06 06:26:43.453039	43.0	14.3	-63.2	0.0
2026-01-06 06:26:45.705061	43.3	14.5	-63.2	0.0
2026-01-06 06:26:47.956752	43.6	14.7	-63.5	0.0
2026-01-06 06:26:50.209251	44.0	14.8	-62.6	0.0
2026-01-06 06:26:52.461147	44.3	15.0	-64.7	0.0
2026-01-06 06:26:54.713246	44.7	15.1	-65.6	0.0
2026-01-06 06:26:56.965997	45.0	15.3	-66.9	0.0
2026-01-06 06:26:59.220545	45.4	15.5	-65.0	0.0
2026-01-06 06:27:01.474657	45.7	15.6	-64.9	0.0
2026-01-06 06:27:03.727494	46.1	15.8	-67.8	0.0
2026-01-06 06:27:05.980638	46.5	16.0	-66.9	0.0
2026-01-06 06:27:08.236951	46.8	16.2	-64.1	0.0
2026-01-06 06:27:10.491863	47.2	16.3	-65.2	0.0
2026-01-06 06:27:12.745568	47.6	16.5	-65.0	0.0
2026-01-06 06:27:14.999653	48.0	16.7	-66.9	0.0
2026-01-06 06:27:17.255565	48.4	16.8	-66.1	0.0
2026-01-06 06:27:19.509123	48.7	17.0	-68.0	0.0
2026-01-06 06:27:21.764077	49.1	17.2	-66.4	0.0
2026-01-06 06:27:24.016349	49.5	17.3	-66.6	0.0
2026-01-06 06:27:26.268706	49.9	17.5	-67.7	0.0
2026-01-06 06:27:28.523486	50.4	17.7	-63.3	0.0
2026-01-06 06:27:30.777287	50.8	17.8	-68.2	0.0
2026-01-06 06:27:33.031305	51.2	18.0	-69.5	0.0
2026-01-06 06:27:35.283790	51.6	18.1	-69.1	0.0
2026-01-06 06:27:37.538023	52.0	18.3	-68.7	0.0
2026-01-06 06:27:39.792523	52.5	18.5	-68.8	0.0
2026-01-06 06:27:42.047300	52.9	18.6	-69.5	0.0
2026-01-06 06:27:44.300100	53.3	18.8	-67.5	0.0
2026-01-06 06:27:46.554019	53.8	19.0	-69.9	0.0
2026-01-06 06:27:48.808935	54.2	19.1	-70.2	0.0
2026-01-06 06:27:51.063042	54.7	19.3	-70.8	0.0
2026-01-06 06:27:53.317446	55.2	19.5	-70.0	0.0
2026-01-06 06:27:55.572338	55.6	19.6	-69.0	0.0
2026-01-06 06:27:57.824115	56.1	19.8	-67.6	0.0
2026-01-06 06:28:00.076707	56.6	19.9	-68.7	0.0
2026-01-06 06:28:02.329667	57.0	20.1	-69.3	0.0
2026-01-06 06:28:04.583460	57.5	20.2	-68.6	0.0
2026-01-06 06:28:06.838251	58.0	20.4	-69.3	0.0
2026-01-06 06:28:09.093044	58.5	20.6	-70.0	0.0
2026-01-06 06:28:11.344455	59.0	20.7	-70.9	0.0
2026-01-06 06:28:13.597854	59.5	20.9	-60.8	0.0
2026-01-06 06:28:15.851388	60.0	21.0	-66.8	0.0
2026-01-06 06:28:18.103249	60.5	21.2	-67.2	0.0
2026-01-06 06:28:20.356424	61.1	21.3	-66.8	0.0
2026-01-06 06:28:22.611204	61.6	21.5	-67.0	0.0
2026-01-06 06:28:24.865102	62.1	21.6	-69.0	0.0
2026-01-06 06:28:27.120444	62.6	21.7	-69.0	0.0
2026-01-06 06:28:29.375006	63.2	21.9	-68.0	0.0
2026-01-06 06:28:31.630676	63.7	22.0	-64.7	0.0
2026-01-06 06:28:33.885251	64.3	22.2	-68.1	0.0
2026-01-06 06:28:36.138105	64.8	22.3	-69.3	0.0
2026-01-06 06:28:38.392941	65.4	22.4	-69.8	0.0
2026-01-06 06:28:40.646732	65.9	22.6	-70.1	0.5
2026-01-06 06:28:42.903060	66.5	22.7	-69.0	0.0
2026-01-06 06:28:45.155903	67.1	22.8	-68.5	0.0
2026-01-06 06:28:47.409780	67.7	22.9	-69.8	0.0
2026-01-06 06:28:49.662968	68.2	23.1	-68.8	0.0
2026-01-06 06:28:51.917462	68.8	23.2	-69.9	1.4
2026-01-06 06:28:54.170667	69.4	23.3	-68.8	0.2
2026-01-06 06:28:56.424289	70.0	23.4	-69.5	0.0
2026-01-06 06:28:58.677526	70.6	23.5	-69.7	0.0
2026-01-06 06:29:00.932283	71.2	23.7	-69.8	0.0
2026-01-06 06:29:03.184839	71.8	23.8	-70.5	2.2
2026-01-06 06:29:05.439445	72.4	23.9	-70.2	0.2
2026-01-06 06:29:07.691856	73.0	24.0	-71.1	0.0
2026-01-06 06:29:09.946171	73.7	24.1	-71.1	2.0
2026-01-06 06:29:12.197313	74.3	24.2	-71.8	0.0
2026-01-06 06:29:14.452280	74.9	24.3	-71.0	3.0
2026-01-06 06:29:16.704895	75.5	24.3	-70.8	3.1
2026-01-06 06:29:18.956659	76.2	24.4	-70.9	0.0
2026-01-06 06:29:21.209792	76.8	24.5	-71.0	0.0
2026-01-06 06:29:23.465097	77.4	24.6	-68.9	0.6
2026-01-06 06:29:25.715690	78.1	24.7	-69.8	0.0
2026-01-06 06:29:27.968452	78.7	24.7	-65.6	0.0
2026-01-06 06:29:30.220073	79.4	24.8	-70.3	2.9
2026-01-06 06:29:32.474476	80.0	24.9	-69.9	0.0
2026-01-06 06:29:34.727836	80.7	24.9	-70.8	2.8
2026-01-06 06:29:36.981987	81.3	25.0	-71.7	2.7
2026-01-06 06:29:39.236802	82.0	25.0	-71.4	6.0
2026-01-06 06:29:41.489732	82.7	25.1	-72.4	1.0
2026-01-06 06:29:43.747392	83.3	25.1	-70.2	4.0
2026-01-06 06:29:46.002346	84.0	25.2	-69.9	3.9
2026-01-06 06:29:48.253644	84.6	25.2	-71.1	2.6
2026-01-06 06:29:50.508967	85.3	25.3	-71.8	5.6
2026-01-06 06:29:52.761760	86.0	25.3	-72.1	6.6
2026-01-06 06:29:55.013026	86.7	25.3	-71.5	4.5
2026-01-06 06:29:57.266996	87.3	25.3	-72.0	5.7
2026-01-06 06:29:59.519119	88.0	25.4	-72.1	4.4
2026-01-06 06:30:01.772812	88.7	25.4	-72.0	5.2
2026-01-06 06:30:04.027150	89.3	25.4	-72.0	3.5
2026-01-06 06:30:06.280840	90.0	25.4	-72.2	4.1
2026-01-06 06:30:08.535745	90.7	25.4	-72.2	5.4
2026-01-06 06:30:10.788742	91.4	25.4	-72.5	3.9
2026-01-06 06:30:13.041827	92.0	25.4	-70.6	1.1
2026-01-06 06:30:15.295227	92.7	25.4	-72.5	6.4
2026-01-06 06:30:17.547550	93.4	25.3	-71.8	4.8
2026-01-06 06:30:19.800004	94.1	25.3	-72.2	5.5
2026-01-06 06:30:22.052879	94.7	25.3	-71.7	3.9
2026-01-06 06:30:24.306162	95.4	25.3	-72.9	7.2
2026-01-06 06:30:26.558599	96.1	25.2	-71.8	4.7
2026-01-06 06:30:28.811769	96.7	25.2	-72.7	7.1
2026-01-06 06:30:31.065016	97.4	25.2	-72.8	7.7
2026-01-06 06:30:33.317190	98.1	25.1	-73.0	8.5
2026-01-06 06:30:35.570644	98.7	25.1	-73.1	6.7
2026-01-06 06:30:37.825064	99.4	25.0	-72.8	6.3
2026-01-06 06:30:40.079342	100.1	25.0	-73.0	7.4
2026-01-06 06:30:42.332110	100.7	24.9	-73.8	8.0
2026-01-06 06:30:44.586005	101.4	24.9	-73.1	6.0
2026-01-06 06:30:46.841054	102.0	24.8	-72.9	6.5
2026-01-06 06:30:49.092082	102.7	24.7	-73.8	6.7
2026-01-06 06:30:51.344508	103.3	24.7	-73.8	7.9
2026-01-06 06:30:53.594847	104.0	24.6	-73.9	7.3
2026-01-06 06:30:55.848262	104.6	24.5	-74.0	8.0
2026-01-06 06:30:58.102671	105.2	24.4	-73.6	8.0
2026-01-06 06:31:00.356840	105.9	24.3	-74.1	8.5
2026-01-06 06:31:02.611331	106.5	24.2	-74.0	8.9
2026-01-06 06:31:04.862845	107.1	24.1	-74.1	7.5
2026-01-06 06:31:07.114629	107.8	24.0	-74.0	8.0
2026-01-06 06:31:09.366623	108.4	23.9	-73.7	7.4
2026-01-06 06:31:11.617137	109.0	23.8	-73.8	7.8
2026-01-06 06:31:13.870510	109.6	23.7	-73.0	5.2
2026-01-06 06:31:16.122291	110.2	23.6	-73.6	6.9
2026-01-06 06:31:18.373945	110.8	23.5	-73.5	7.6
2026-01-06 06:31:20.624003	111.4	23.4	-74.3	9.0
2026-01-06 06:31:22.875748	112.0	23.3	-74.1	8.3
2026-01-06 06:31:25.127633	112.6	23.2	-74.2	5.9
2026-01-06 06:31:27.380504	113.2	23.0	-74.5	7.9
2026-01-06 06:31:29.633145	113.8	22.9	-74.3	7.7
2026-01-06 06:31:31.887804	114.3	22.8	-74.5	8.4
2026-01-06 06:31:34.140724	114.9	22.7	-74.6	8.5
2026-01-06 06:31:36.391628	115.5	22.5	-74.0	7.6
2026-01-06 06:31:38.645039	116.0	22.4	-74.0	8.1
2026-01-06 06:31:40.900050	116.6	22.3	-74.2	8.5
2026-01-06 06:31:43.153238	117.2	22.1	-74.0	7.3
2026-01-06 06:31:45.403969	117.7	22.0	-74.5	9.4
2026-01-06 06:31:47.655672	118.2	21.8	-74.2	8.5
2026-01-06 06:31:49.909366	118.8	21.7	-74.3	9.0
2026-01-06 06:31:52.160992	119.3	21.6	-74.0	7.3
2026-01-06 06:31:54.412079	119.8	21.4	-74.1	8.7
2026-01-06 06:31:56.665022	120.4	21.3	-74.2	8.1
2026-01-06 06:31:58.920255	120.9	21.1	-74.0	7.1
2026-01-06 06:32:01.173396	121.4	21.0	-73.6	7.0
2026-01-06 06:32:03.428044	121.9	20.8	-73.8	6.7
2026-01-06 06:32:05.678283	122.4	20.7	-74.1	8.3
2026-01-06 06:32:07.930723	122.9	20.5	-73.7	7.1
2026-01-06 06:32:10.183046	123.4	20.4	-73.7	6.8
2026-01-06 06:32:12.437639	123.9	20.2	-74.4	8.5
2026-01-06 06:32:14.689352	124.4	20.0	-73.9	7.9
2026-01-06 06:32:16.940639	124.9	19.9	-73.8	7.9
2026-01-06 06:32:19.192571	125.3	19.7	-74.0	8.0
2026-01-06 06:32:21.446250	125.8	19.6	-73.2	6.6
2026-01-06 06:32:23.698334	126.3	19.4	-73.7	6.7
2026-01-06 06:32:25.949905	126.7	19.2	-73.9	6.9
2026-01-06 06:32:28.205626	127.2	19.1	-73.5	5.9
2026-01-06 06:32:30.456519	127.7	18.9	-73.8	7.2
2026-01-06 06:32:32.709763	128.1	18.7	-74.0	7.3
2026-01-06 06:32:34.962998	128.5	18.6	-73.7	6.7
2026-01-06 06:32:37.215752	129.0	18.4	-73.2	5.6
2026-01-06 06:32:39.468619	129.4	18.2	-73.1	5.3
2026-01-06 06:32:41.720458	129.8	18.1	-73.8	7.1
2026-01-06 06:32:43.974230	130.3	17.9	-73.8	5.9
2026-01-06 06:32:46.226064	130.7	17.7	-74.0	6.3
2026-01-06 06:32:48.479113	131.1	17.6	-73.9	5.8
2026-01-06 06:32:50.731699	131.5	17.4	-73.9	5.7
2026-01-06 06:32:52.985171	131.9	17.2	-74.1	5.2
2026-01-06 06:32:55.238158	132.3	17.1	-73.7	4.8
2026-01-06 06:32:57.490429	132.7	16.9	-74.6	5.4
2026-01-06 06:32:59.743931	133.1	16.7	-73.6	3.8
2026-01-06 06:33:01.997857	133.5	16.6	-73.7	4.4
2026-01-06 06:33:04.248364	133.9	16.4	-74.1	3.8
2026-01-06 06:33:06.505294	134.3	16.2	-74.1	3.9
2026-01-06 06:33:08.757931	134.6	16.1	-74.1	4.7
2026-01-06 06:33:11.010941	135.0	15.9	-73.9	2.9
2026-01-06 06:33:13.263135	135.4	15.7	-73.9	3.9
2026-01-06 06:33:15.514812	135.7	15.6	-73.5	4.1
2026-01-06 06:33:17.770383	136.1	15.4	-74.1	3.7
2026-01-06 06:33:20.022834	136.5	15.2	-73.8	4.6
2026-01-06 06:33:22.277497	136.8	15.1	-73.6	3.9
2026-01-06 06:33:24.529477	137.2	14.9	-73.9	3.1
2026-01-06 06:33:26.781539	137.5	14.7	-74.2	3.9
2026-01-06 06:33:29.035438	137.8	14.5	-73.7	3.3
2026-01-06 06:33:31.285012	138.2	14.4	-74.7	4.2
2026-01-06 06:33:33.538994	138.5	14.2	-73.4	1.2
2026-01-06 06:33:35.791768	138.8	14.0	-74.1	1.6
2026-01-06 06:33:38.048269	139.2	13.9	-73.5	0.1
2026-01-06 06:33:40.302276	139.5	13.7	-73.4	0.0
2026-01-06 06:33:42.554349	139.8	13.5	-73.9	1.8
2026-01-06 06:33:44.807799	140.1	13.4	-74.5	3.2
2026-01-06 06:33:47.060710	140.4	13.2	-74.4	2.4
2026-01-06 06:33:49.313774	140.7	13.1	-74.0	2.6
2026-01-06 06:33:51.566527	141.0	12.9	-74.5	2.6
2026-01-06 06:33:53.818091	141.4	12.7	-74.7	3.8
2026-01-06 06:33:56.072531	141.6	12.6	-74.5	3.0
2026-01-06 06:33:58.325241	141.9	12.4	-74.1	2.3
2026-01-06 06:34:00.577626	142.2	12.2	-74.4	2.5
2026-01-06 06:34:02.830244	142.5	12.1	-74.3	2.6
2026-01-06 06:34:05.082042	142.8	11.9	-74.0	2.0
2026-01-06 06:34:07.337069	143.1	11.7	-74.2	1.7
2026-01-06 06:34:09.588649	143.4	11.6	-74.7	1.3
2026-01-06 06:34:11.843636	143.7	11.4	-74.7	2.8
2026-01-06 06:34:14.098049	143.9	11.3	-74.8	1.3
2026-01-06 06:34:16.353727	144.2	11.1	-74.8	2.1
2026-01-06 06:34:18.608112	144.5	10.9	-75.7	3.7
2026-01-06 06:34:20.863196	144.7	10.8	-77.9	0.0
2026-01-06 06:34:23.117677	145.0	10.6	-78.1	0.0
2026-01-06 06:34:25.370287	145.3	10.5	-79.9	0.0
2026-01-06 06:34:27.622640	145.5	10.3	-79.9	0.0
2026-01-06 06:34:29.876382	145.8	10.2	-80.0	0.0
#Closed at: 2026-01-06 06:25:37.679586