passes_logs/2026/01/06/planumMaritime01/planumMaritime01__20260106_085809_METEOR-M2_3_rec.log

#Pass ID: 20260106_085809_METEOR-M2 3
#Satellite: METEOR-M2 3
#Configuration: METEOR-M2 3
#Start time: 2026-01-06 08:58:14.998490

#LorettStation: 1.0.0 05.05.2024
#Station: planumMaritime01
#Location: 37.49445 lon 55.92918 lat
#TLE: 1 57166U 23091A   26005.65124170  .00000050  00000+0  40895-4 0  9993
#TLE: 2 57166  98.6342  63.7690 0002892 286.9740  73.1122 14.24029628131387

#Time	Az	El	Level	SNR
2026-01-06 08:58:17.170312	0.9	10.2	-71.4	0.0
2026-01-06 08:58:19.428025	0.6	10.3	-72.3	0.0
2026-01-06 08:58:21.682499	0.4	10.5	-72.5	0.0
2026-01-06 08:58:23.939312	0.2	10.6	-70.9	0.0
2026-01-06 08:58:26.190182	359.9	10.8	-71.4	0.0
2026-01-06 08:58:28.445226	359.7	11.0	-70.2	0.0
2026-01-06 08:58:30.698750	359.4	11.1	-70.1	0.0
2026-01-06 08:58:32.952738	359.2	11.3	-69.4	0.0
2026-01-06 08:58:35.206243	358.9	11.5	-71.3	0.0
2026-01-06 08:58:37.459117	358.7	11.6	-70.8	0.0
2026-01-06 08:58:39.713152	358.4	11.8	-71.7	0.0
2026-01-06 08:58:41.978761	358.1	12.0	-72.1	0.0
2026-01-06 08:58:44.251427	357.9	12.2	-70.3	0.0
2026-01-06 08:58:46.517775	357.6	12.3	-71.8	0.0
2026-01-06 08:58:48.783434	357.3	12.5	-72.5	0.0
2026-01-06 08:58:51.049548	357.0	12.7	-71.6	0.0
2026-01-06 08:58:53.319940	356.8	12.8	-70.9	0.0
2026-01-06 08:58:55.588069	356.5	13.0	-71.7	0.0
2026-01-06 08:58:57.855447	356.2	13.2	-71.6	0.0
2026-01-06 08:59:00.125592	355.9	13.4	-71.2	0.0
2026-01-06 08:59:02.403480	355.6	13.5	-71.6	0.0
2026-01-06 08:59:04.678759	355.3	13.7	-73.0	0.0
2026-01-06 08:59:06.954497	355.0	13.9	-71.7	0.0
2026-01-06 08:59:09.233888	354.7	14.1	-72.2	0.0
2026-01-06 08:59:11.511751	354.4	14.2	-71.8	0.0
2026-01-06 08:59:13.783052	354.1	14.4	-72.0	0.0
2026-01-06 08:59:16.058934	353.8	14.6	-73.4	0.0
2026-01-06 08:59:18.334984	353.4	14.8	-72.2	0.0
2026-01-06 08:59:20.610975	353.1	15.0	-70.7	0.0
2026-01-06 08:59:22.886788	352.8	15.1	-72.4	0.0
2026-01-06 08:59:25.161641	352.4	15.3	-71.6	0.0
2026-01-06 08:59:27.437304	352.1	15.5	-71.8	0.0
2026-01-06 08:59:29.712913	351.8	15.7	-72.5	0.0
2026-01-06 08:59:31.984793	351.4	15.9	-71.8	0.0
2026-01-06 08:59:34.261412	351.1	16.0	-73.5	0.0
2026-01-06 08:59:36.532708	350.7	16.2	-72.6	0.0
2026-01-06 08:59:38.806967	350.3	16.4	-71.7	0.0
2026-01-06 08:59:41.083261	350.0	16.6	-71.1	0.0
2026-01-06 08:59:43.358067	349.6	16.8	-71.2	0.0
2026-01-06 08:59:45.631618	349.2	16.9	-71.9	0.0
2026-01-06 08:59:47.905592	348.9	17.1	-72.0	0.0
2026-01-06 08:59:50.182203	348.5	17.3	-71.9	0.0
2026-01-06 08:59:52.456804	348.1	17.5	-72.1	0.0
2026-01-06 08:59:54.730064	347.7	17.7	-71.9	0.0
2026-01-06 08:59:57.001918	347.3	17.9	-71.2	0.0
2026-01-06 08:59:59.273509	346.9	18.0	-71.2	0.0
2026-01-06 09:00:01.546741	346.5	18.2	-70.7	0.0
2026-01-06 09:00:03.824016	346.1	18.4	-70.9	0.0
2026-01-06 09:00:06.099266	345.7	18.6	-70.8	0.0
2026-01-06 09:00:08.374437	345.2	18.8	-70.1	0.0
2026-01-06 09:00:10.646783	344.8	18.9	-69.5	0.0
2026-01-06 09:00:12.919683	344.4	19.1	-69.8	0.0
2026-01-06 09:00:15.196605	343.9	19.3	-68.9	0.0
2026-01-06 09:00:17.472641	343.5	19.5	-70.1	0.0
2026-01-06 09:00:19.733438	343.0	19.7	-71.1	0.0
2026-01-06 09:00:21.994400	342.6	19.8	-70.4	0.0
2026-01-06 09:00:24.250097	342.1	20.0	-69.5	0.0
2026-01-06 09:00:26.505592	341.7	20.2	-71.1	0.0
2026-01-06 09:00:28.763786	341.2	20.4	-69.3	0.0
2026-01-06 09:00:31.019478	340.7	20.5	-70.6	0.0
2026-01-06 09:00:33.279278	340.3	20.7	-69.7	0.0
2026-01-06 09:00:35.538324	339.8	20.9	-69.9	0.0
2026-01-06 09:00:37.793374	339.3	21.1	-69.5	0.0
2026-01-06 09:00:40.055773	338.8	21.2	-70.4	0.0
2026-01-06 09:00:42.323555	338.3	21.4	-70.5	0.0
2026-01-06 09:00:44.596643	337.8	21.6	-71.6	0.0
2026-01-06 09:00:46.866934	337.3	21.7	-71.0	0.0
2026-01-06 09:00:49.138160	336.7	21.9	-70.9	0.0
2026-01-06 09:00:51.413171	336.2	22.1	-71.6	0.0
2026-01-06 09:00:53.687538	335.7	22.2	-71.1	0.0
2026-01-06 09:00:55.959745	335.1	22.4	-71.9	0.0
2026-01-06 09:00:58.231280	334.6	22.6	-71.9	0.0
2026-01-06 09:01:00.501294	334.0	22.7	-72.8	0.0
2026-01-06 09:01:02.767756	333.5	22.9	-73.3	0.0
2026-01-06 09:01:05.027280	332.9	23.0	-70.7	0.0
2026-01-06 09:01:07.287353	332.4	23.2	-74.1	0.0
2026-01-06 09:01:09.544408	331.8	23.3	-72.6	0.0
2026-01-06 09:01:11.808545	331.2	23.5	-72.9	0.3
2026-01-06 09:01:14.065683	330.6	23.6	-74.1	0.4
2026-01-06 09:01:16.323681	330.1	23.8	-73.1	0.0
2026-01-06 09:01:18.583365	329.5	23.9	-73.5	1.4
2026-01-06 09:01:20.841955	328.9	24.0	-74.7	0.0
2026-01-06 09:01:23.098762	328.3	24.2	-75.5	1.8
2026-01-06 09:01:25.353826	327.7	24.3	-75.2	2.9
2026-01-06 09:01:27.608287	327.1	24.4	-74.9	2.5
2026-01-06 09:01:29.863113	326.4	24.6	-74.5	3.9
2026-01-06 09:01:32.123078	325.8	24.7	-74.4	2.4
2026-01-06 09:01:34.379813	325.2	24.8	-75.5	5.5
2026-01-06 09:01:36.639503	324.6	24.9	-74.5	3.4
2026-01-06 09:01:38.910504	323.9	25.0	-75.6	5.6
2026-01-06 09:01:41.186863	323.3	25.2	-77.0	5.8
2026-01-06 09:01:43.462407	322.6	25.3	-76.6	3.7
2026-01-06 09:01:45.742228	322.0	25.4	-74.6	2.7
2026-01-06 09:01:48.018636	321.3	25.5	-74.7	3.0
2026-01-06 09:01:50.294965	320.6	25.6	-76.6	5.6
2026-01-06 09:01:52.568491	320.0	25.7	-76.6	6.5
2026-01-06 09:01:54.842204	319.3	25.7	-74.5	1.1
2026-01-06 09:01:57.117499	318.6	25.8	-76.1	4.7
2026-01-06 09:01:59.391282	318.0	25.9	-75.3	3.4
2026-01-06 09:02:01.667603	317.3	26.0	-74.7	3.7
2026-01-06 09:02:03.940904	316.6	26.1	-75.3	5.8
2026-01-06 09:02:06.208878	315.9	26.1	-76.5	6.4
2026-01-06 09:02:08.480437	315.2	26.2	-75.5	4.9
2026-01-06 09:02:10.751063	314.5	26.3	-75.6	5.9
2026-01-06 09:02:13.018172	313.8	26.3	-74.6	2.9
2026-01-06 09:02:15.292025	313.1	26.4	-75.4	4.8
2026-01-06 09:02:17.559826	312.4	26.4	-76.1	6.1
2026-01-06 09:02:19.833438	311.7	26.4	-74.2	4.0
2026-01-06 09:02:22.105187	311.0	26.5	-74.3	1.8
2026-01-06 09:02:24.378201	310.3	26.5	-75.1	3.0
2026-01-06 09:02:26.648303	309.6	26.5	-75.6	5.6
2026-01-06 09:02:28.917001	308.9	26.6	-74.6	3.2
2026-01-06 09:02:31.177913	308.2	26.6	-76.0	3.7
2026-01-06 09:02:33.444522	307.5	26.6	-75.7	4.8
2026-01-06 09:02:35.707359	306.8	26.6	-76.7	7.0
2026-01-06 09:02:37.968438	306.1	26.6	-75.9	4.5
2026-01-06 09:02:40.222589	305.4	26.6	-75.7	3.8
2026-01-06 09:02:42.482508	304.7	26.6	-75.9	5.4
2026-01-06 09:02:44.750581	304.0	26.6	-74.1	2.5
2026-01-06 09:02:47.007864	303.3	26.6	-74.6	5.1
2026-01-06 09:02:49.263866	302.5	26.5	-74.8	3.8
2026-01-06 09:02:51.523057	301.8	26.5	-74.6	4.9
2026-01-06 09:02:53.786206	301.1	26.5	-74.0	2.8
2026-01-06 09:02:56.045199	300.4	26.5	-75.2	7.1
2026-01-06 09:02:58.301074	299.7	26.4	-75.1	5.0
2026-01-06 09:03:00.557863	299.0	26.4	-75.2	4.1
2026-01-06 09:03:02.827894	298.3	26.3	-74.6	1.3
2026-01-06 09:03:05.103465	297.7	26.3	-74.5	4.0
2026-01-06 09:03:07.374331	297.0	26.2	-75.0	3.3
2026-01-06 09:03:09.644848	296.3	26.1	-76.1	6.0
2026-01-06 09:03:11.918214	295.6	26.1	-74.7	3.3
2026-01-06 09:03:14.187773	294.9	26.0	-74.8	0.9
2026-01-06 09:03:16.454534	294.2	25.9	-75.2	3.3
2026-01-06 09:03:18.721559	293.5	25.8	-74.6	0.6
2026-01-06 09:03:20.993804	292.9	25.8	-74.4	3.9
2026-01-06 09:03:23.263053	292.2	25.7	-74.8	4.7
2026-01-06 09:03:25.534663	291.5	25.6	-74.1	3.1
2026-01-06 09:03:27.804856	290.8	25.5	-74.3	3.7
2026-01-06 09:03:30.077086	290.2	25.4	-74.6	2.1
2026-01-06 09:03:32.351129	289.5	25.3	-74.6	2.6
2026-01-06 09:03:34.620644	288.9	25.2	-75.4	4.1
2026-01-06 09:03:36.891386	288.2	25.1	-75.6	3.7
2026-01-06 09:03:39.162639	287.6	25.0	-74.0	1.6
2026-01-06 09:03:41.435223	287.0	24.8	-74.4	5.5
2026-01-06 09:03:43.708474	286.3	24.7	-76.0	4.9
2026-01-06 09:03:45.978505	285.7	24.6	-76.6	6.0
2026-01-06 09:03:48.252142	285.1	24.5	-76.9	6.1
2026-01-06 09:03:50.528552	284.4	24.3	-76.5	6.3
2026-01-06 09:03:52.804152	283.8	24.2	-74.7	0.5
2026-01-06 09:03:55.079068	283.2	24.1	-75.7	0.0
2026-01-06 09:03:57.354421	282.6	23.9	-77.4	5.8
2026-01-06 09:03:59.630936	282.0	23.8	-77.1	5.1
2026-01-06 09:04:01.909003	281.4	23.6	-76.0	2.5
2026-01-06 09:04:04.183275	280.8	23.5	-76.4	6.3
2026-01-06 09:04:06.459287	280.3	23.3	-76.1	4.7
2026-01-06 09:04:08.737420	279.7	23.2	-77.0	8.4
2026-01-06 09:04:11.012369	279.1	23.0	-76.5	7.9
2026-01-06 09:04:13.289258	278.6	22.9	-76.7	7.4
2026-01-06 09:04:15.565127	278.0	22.7	-75.8	5.0
2026-01-06 09:04:17.840552	277.4	22.6	-75.6	4.4
2026-01-06 09:04:20.118109	276.9	22.4	-76.3	3.2
2026-01-06 09:04:22.391496	276.3	22.2	-76.3	5.9
2026-01-06 09:04:24.665996	275.8	22.1	-76.7	5.7
2026-01-06 09:04:26.930795	275.3	21.9	-76.6	4.5
2026-01-06 09:04:29.203220	274.8	21.7	-76.2	3.9
2026-01-06 09:04:31.473535	274.2	21.6	-76.6	5.3
2026-01-06 09:04:33.740431	273.7	21.4	-76.7	6.0
2026-01-06 09:04:36.010187	273.2	21.2	-76.8	6.0
2026-01-06 09:04:38.282118	272.7	21.1	-77.1	6.0
2026-01-06 09:04:40.552389	272.2	20.9	-76.6	5.1
2026-01-06 09:04:42.810813	271.7	20.7	-76.1	5.6
2026-01-06 09:04:45.070381	271.3	20.5	-76.2	5.5
2026-01-06 09:04:47.332580	270.8	20.4	-77.1	5.7
2026-01-06 09:04:49.588741	270.3	20.2	-76.9	5.5
2026-01-06 09:04:51.847003	269.8	20.0	-76.8	4.9
2026-01-06 09:04:54.103949	269.4	19.8	-77.1	6.0
2026-01-06 09:04:56.362531	268.9	19.7	-76.9	5.2
2026-01-06 09:04:58.619905	268.5	19.5	-77.1	4.6
2026-01-06 09:05:00.878110	268.0	19.3	-77.2	5.5
2026-01-06 09:05:03.137023	267.6	19.1	-76.8	4.9
2026-01-06 09:05:05.395612	267.2	18.9	-77.1	4.8
2026-01-06 09:05:07.667524	266.7	18.8	-76.9	5.2
2026-01-06 09:05:09.944010	266.3	18.6	-76.7	5.5
2026-01-06 09:05:12.213341	265.9	18.4	-76.9	5.3
2026-01-06 09:05:14.486559	265.5	18.2	-76.7	4.8
2026-01-06 09:05:16.756719	265.1	18.0	-77.0	4.7
2026-01-06 09:05:19.030068	264.7	17.8	-77.2	5.0
2026-01-06 09:05:21.302093	264.3	17.7	-77.0	4.9
2026-01-06 09:05:23.567528	263.9	17.5	-76.9	4.6
2026-01-06 09:05:25.833828	263.5	17.3	-76.8	4.5
2026-01-06 09:05:28.100019	263.1	17.1	-76.8	4.4
2026-01-06 09:05:30.363699	262.7	16.9	-76.9	4.5
2026-01-06 09:05:32.628026	262.3	16.8	-76.9	4.6
2026-01-06 09:05:34.893431	262.0	16.6	-76.8	4.5
2026-01-06 09:05:37.160213	261.6	16.4	-75.5	2.7
2026-01-06 09:05:39.433958	261.2	16.2	-76.9	4.0
2026-01-06 09:05:41.707414	260.9	16.0	-76.9	4.2
2026-01-06 09:05:43.980970	260.5	15.8	-76.8	4.4
2026-01-06 09:05:46.254220	260.2	15.7	-76.5	4.4
2026-01-06 09:05:48.528724	259.8	15.5	-76.9	3.1
2026-01-06 09:05:50.807932	259.5	15.3	-77.0	4.1
2026-01-06 09:05:53.081519	259.1	15.1	-76.9	3.4
2026-01-06 09:05:55.352294	258.8	14.9	-77.0	2.9
2026-01-06 09:05:57.625872	258.5	14.8	-76.8	3.6
2026-01-06 09:05:59.902691	258.2	14.6	-76.9	3.3
2026-01-06 09:06:02.180646	257.8	14.4	-76.8	2.8
2026-01-06 09:06:04.455463	257.5	14.2	-76.8	2.4
2026-01-06 09:06:06.734134	257.2	14.0	-76.6	3.5
2026-01-06 09:06:09.005518	256.9	13.9	-76.8	2.6
2026-01-06 09:06:11.277275	256.6	13.7	-76.6	2.4
2026-01-06 09:06:13.544037	256.3	13.5	-76.3	1.4
2026-01-06 09:06:15.811663	256.0	13.3	-76.8	1.1
2026-01-06 09:06:18.078481	255.7	13.2	-76.5	2.0
2026-01-06 09:06:20.347812	255.4	13.0	-76.5	2.2
2026-01-06 09:06:22.613682	255.1	12.8	-76.4	2.7
2026-01-06 09:06:24.882365	254.8	12.6	-76.2	1.4
2026-01-06 09:06:27.153209	254.6	12.5	-76.3	1.0
2026-01-06 09:06:29.421127	254.3	12.3	-76.0	0.8
2026-01-06 09:06:31.681388	254.0	12.1	-75.8	2.1
2026-01-06 09:06:33.949439	253.7	11.9	-76.0	0.0
2026-01-06 09:06:36.218811	253.5	11.8	-76.1	0.4
2026-01-06 09:06:38.487608	253.2	11.6	-76.0	0.0
2026-01-06 09:06:40.757717	252.9	11.4	-75.8	0.0
2026-01-06 09:06:43.027607	252.7	11.3	-75.8	0.0
2026-01-06 09:06:45.300004	252.4	11.1	-75.8	0.0
2026-01-06 09:06:47.570569	252.2	10.9	-77.2	0.0
2026-01-06 09:06:49.843156	251.9	10.8	-81.0	0.0
2026-01-06 09:06:52.113157	251.7	10.6	-81.1	0.0
2026-01-06 09:06:54.381294	251.4	10.4	-81.8	0.0
2026-01-06 09:06:56.645324	251.2	10.3	-84.3	0.0
2026-01-06 09:06:58.902511	251.0	10.1	-84.5	0.0
#Closed at: 2026-01-06 08:58:10.004535