passes_logs/2026/01/06/planumMaritime01/planumMaritime01__20260106_080517_METOP-C_rec.log

#Pass ID: 20260106_080517_METOP-C
#Satellite: METOP-C
#Configuration: METOP-C
#Start time: 2026-01-06 08:05:22.843371

#LorettStation: 1.0.0 05.05.2024
#Station: planumMaritime01
#Location: 37.49445 lon 55.92918 lat
#TLE: 1 43689U 18087A   26005.61301108  .00000231  00000+0  12558-3 0  9996
#TLE: 2 43689  98.6893  68.0125 0000094 271.4752  88.6414 14.21495293371730

#Time	Az	El	Level	SNR
2026-01-06 08:05:25.006098	13.4	10.2	-65.6	0.0
2026-01-06 08:05:27.258044	13.4	10.4	-68.4	0.0
2026-01-06 08:05:29.509599	13.3	10.6	-66.8	0.0
2026-01-06 08:05:31.761270	13.3	10.8	-64.9	0.0
2026-01-06 08:05:34.015773	13.3	11.0	-63.7	0.0
2026-01-06 08:05:36.266770	13.2	11.2	-63.3	0.0
2026-01-06 08:05:38.516747	13.2	11.4	-63.3	0.0
2026-01-06 08:05:40.769518	13.1	11.6	-62.4	0.0
2026-01-06 08:05:43.024574	13.1	11.8	-62.7	0.0
2026-01-06 08:05:45.279114	13.0	12.0	-62.3	0.0
2026-01-06 08:05:47.532796	13.0	12.2	-62.4	0.0
2026-01-06 08:05:49.786163	12.9	12.4	-60.8	0.0
2026-01-06 08:05:52.037110	12.9	12.7	-61.2	0.0
2026-01-06 08:05:54.298354	12.8	12.9	-62.1	0.0
2026-01-06 08:05:56.551516	12.8	13.1	-63.5	0.0
2026-01-06 08:05:58.804415	12.7	13.3	-63.5	0.0
2026-01-06 08:06:01.055286	12.7	13.5	-63.3	0.0
2026-01-06 08:06:03.309760	12.6	13.8	-63.9	0.0
2026-01-06 08:06:05.562320	12.5	14.0	-63.0	0.0
2026-01-06 08:06:07.814534	12.5	14.2	-54.6	0.0
2026-01-06 08:06:10.066799	12.4	14.5	-64.2	0.0
2026-01-06 08:06:12.319470	12.4	14.7	-63.6	0.0
2026-01-06 08:06:14.568453	12.3	14.9	-63.4	0.0
2026-01-06 08:06:16.822912	12.2	15.2	-65.1	0.0
2026-01-06 08:06:19.075111	12.2	15.4	-62.7	0.0
2026-01-06 08:06:21.327193	12.1	15.6	-63.3	0.0
2026-01-06 08:06:23.581875	12.1	15.9	-62.0	0.0
2026-01-06 08:06:25.835669	12.0	16.1	-62.7	0.0
2026-01-06 08:06:28.090452	11.9	16.4	-63.4	0.0
2026-01-06 08:06:30.346264	11.9	16.6	-62.5	0.0
2026-01-06 08:06:32.598784	11.8	16.9	-63.6	0.0
2026-01-06 08:06:34.850771	11.7	17.2	-63.1	0.0
2026-01-06 08:06:37.102756	11.6	17.4	-63.8	0.0
2026-01-06 08:06:39.354350	11.6	17.7	-63.8	0.0
2026-01-06 08:06:41.613561	11.5	18.0	-65.3	0.0
2026-01-06 08:06:43.866938	11.4	18.2	-62.8	0.0
2026-01-06 08:06:46.122948	11.3	18.5	-62.1	0.0
2026-01-06 08:06:48.374534	11.3	18.8	-60.9	0.0
2026-01-06 08:06:50.626784	11.2	19.1	-64.5	0.0
2026-01-06 08:06:52.877913	11.1	19.3	-64.6	0.0
2026-01-06 08:06:55.131417	11.0	19.6	-67.2	0.0
2026-01-06 08:06:57.384804	10.9	19.9	-64.3	0.0
2026-01-06 08:06:59.637085	10.8	20.2	-63.1	0.0
2026-01-06 08:07:01.890211	10.7	20.5	-63.3	0.0
2026-01-06 08:07:04.142249	10.6	20.8	-62.9	0.0
2026-01-06 08:07:06.396599	10.5	21.1	-64.2	0.0
2026-01-06 08:07:08.648871	10.4	21.4	-64.8	0.0
2026-01-06 08:07:10.904870	10.3	21.7	-62.0	0.0
2026-01-06 08:07:13.157416	10.2	22.0	-60.6	0.0
2026-01-06 08:07:15.408732	10.1	22.3	-63.8	0.0
2026-01-06 08:07:17.665996	10.0	22.7	-65.2	0.0
2026-01-06 08:07:19.919419	9.9	23.0	-63.8	0.0
2026-01-06 08:07:22.174553	9.8	23.3	-63.9	0.0
2026-01-06 08:07:24.429316	9.7	23.6	-64.9	0.0
2026-01-06 08:07:26.682528	9.6	24.0	-66.1	0.0
2026-01-06 08:07:28.935830	9.5	24.3	-65.6	0.0
2026-01-06 08:07:31.192633	9.3	24.7	-65.9	0.0
2026-01-06 08:07:33.444515	9.2	25.0	-65.8	0.0
2026-01-06 08:07:35.702948	9.1	25.4	-66.4	0.0
2026-01-06 08:07:37.955949	9.0	25.7	-65.2	0.0
2026-01-06 08:07:40.211089	8.8	26.1	-66.0	0.0
2026-01-06 08:07:42.464777	8.7	26.5	-65.8	0.0
2026-01-06 08:07:44.717074	8.5	26.8	-64.9	0.0
2026-01-06 08:07:46.971702	8.4	27.2	-65.6	0.0
2026-01-06 08:07:49.225885	8.3	27.6	-64.3	0.0
2026-01-06 08:07:51.482698	8.1	28.0	-64.8	0.0
2026-01-06 08:07:53.737429	7.9	28.4	-64.0	0.0
2026-01-06 08:07:55.991084	7.8	28.8	-64.6	0.0
2026-01-06 08:07:58.242956	7.6	29.2	-63.5	0.0
2026-01-06 08:08:00.501039	7.4	29.6	-62.6	0.0
2026-01-06 08:08:02.755817	7.3	30.0	-64.8	0.0
2026-01-06 08:08:05.010451	7.1	30.5	-62.6	0.0
2026-01-06 08:08:07.265404	6.9	30.9	-62.8	0.0
2026-01-06 08:08:09.519047	6.7	31.3	-65.2	0.0
2026-01-06 08:08:11.772044	6.5	31.8	-64.7	0.0
2026-01-06 08:08:14.026892	6.3	32.2	-63.8	0.0
2026-01-06 08:08:16.282991	6.1	32.7	-65.0	0.0
2026-01-06 08:08:18.538775	5.9	33.1	-62.4	0.0
2026-01-06 08:08:20.791827	5.7	33.6	-65.0	0.0
2026-01-06 08:08:23.045472	5.5	34.1	-65.1	0.0
2026-01-06 08:08:25.301977	5.2	34.6	-65.0	0.0
2026-01-06 08:08:27.555211	5.0	35.1	-65.6	0.0
2026-01-06 08:08:29.810718	4.8	35.5	-67.4	0.0
2026-01-06 08:08:32.063376	4.5	36.1	-66.0	0.0
2026-01-06 08:08:34.317544	4.2	36.6	-67.4	0.0
2026-01-06 08:08:36.571447	4.0	37.1	-67.4	0.0
2026-01-06 08:08:38.824011	3.7	37.6	-66.7	0.0
2026-01-06 08:08:41.076759	3.4	38.1	-66.4	0.0
2026-01-06 08:08:43.327785	3.1	38.7	-67.9	0.0
2026-01-06 08:08:45.582164	2.8	39.2	-68.6	1.2
2026-01-06 08:08:47.834118	2.5	39.8	-68.7	0.0
2026-01-06 08:08:50.085815	2.1	40.3	-69.0	3.2
2026-01-06 08:08:52.337945	1.8	40.9	-69.5	1.4
2026-01-06 08:08:54.593465	1.4	41.5	-67.3	3.7
2026-01-06 08:08:56.846978	1.1	42.1	-70.6	5.3
2026-01-06 08:08:59.098996	0.7	42.7	-71.3	6.6
2026-01-06 08:09:01.349991	0.3	43.3	-70.8	5.8
2026-01-06 08:09:03.602875	359.8	43.9	-69.9	1.0
2026-01-06 08:09:05.856276	359.4	44.5	-71.1	3.9
2026-01-06 08:09:08.109813	359.0	45.2	-71.5	7.8
2026-01-06 08:09:10.365848	358.5	45.8	-71.2	5.7
2026-01-06 08:09:12.616637	358.0	46.4	-70.7	3.4
2026-01-06 08:09:14.871077	357.5	47.1	-70.4	5.9
2026-01-06 08:09:17.129209	357.0	47.8	-72.5	9.8
2026-01-06 08:09:19.380776	356.4	48.4	-71.9	9.7
2026-01-06 08:09:21.634474	355.8	49.1	-71.5	7.9
2026-01-06 08:09:23.889318	355.2	49.8	-71.4	9.5
2026-01-06 08:09:26.140628	354.6	50.5	-72.1	8.7
2026-01-06 08:09:28.393797	353.9	51.2	-71.3	8.3
2026-01-06 08:09:30.646585	353.2	51.9	-71.6	9.1
2026-01-06 08:09:32.899143	352.5	52.6	-72.4	8.9
2026-01-06 08:09:35.153389	351.7	53.3	-71.8	7.5
2026-01-06 08:09:37.406134	350.9	54.0	-71.8	8.3
2026-01-06 08:09:39.658875	350.0	54.7	-72.7	8.7
2026-01-06 08:09:41.910883	349.1	55.5	-72.5	8.2
2026-01-06 08:09:44.162634	348.2	56.2	-71.9	4.5
2026-01-06 08:09:46.412325	347.2	56.9	-72.8	9.1
2026-01-06 08:09:48.663891	346.1	57.6	-72.6	8.9
2026-01-06 08:09:50.915485	345.0	58.4	-73.0	10.2
2026-01-06 08:09:53.169434	343.9	59.1	-72.9	8.8
2026-01-06 08:09:55.423226	342.6	59.8	-72.8	10.0
2026-01-06 08:09:57.674989	341.3	60.5	-70.4	4.2
2026-01-06 08:09:59.926654	339.9	61.3	-72.4	9.7
2026-01-06 08:10:02.175857	338.5	62.0	-71.3	6.0
2026-01-06 08:10:04.429705	336.9	62.7	-71.3	7.5
2026-01-06 08:10:06.686638	335.2	63.3	-71.0	8.8
2026-01-06 08:10:08.942152	333.5	64.0	-70.8	6.6
2026-01-06 08:10:11.195987	331.6	64.7	-71.1	7.8
2026-01-06 08:10:13.449396	329.7	65.3	-71.3	8.5
2026-01-06 08:10:15.699201	327.6	65.9	-72.3	10.3
2026-01-06 08:10:17.953487	325.4	66.5	-72.5	5.8
2026-01-06 08:10:20.202904	323.1	67.0	-72.5	7.7
2026-01-06 08:10:22.456803	320.7	67.6	-72.3	4.8
2026-01-06 08:10:24.709294	318.1	68.1	-73.1	5.9
2026-01-06 08:10:26.961810	315.5	68.5	-74.0	8.1
2026-01-06 08:10:29.216367	312.7	68.9	-72.9	3.6
2026-01-06 08:10:31.469504	309.8	69.3	-73.7	5.3
2026-01-06 08:10:33.724984	306.8	69.6	-73.7	3.4
2026-01-06 08:10:35.978794	303.7	69.8	-74.5	2.4
2026-01-06 08:10:38.231912	300.5	70.0	-74.4	6.6
2026-01-06 08:10:40.486142	297.3	70.2	-73.6	6.9
2026-01-06 08:10:42.739335	294.0	70.2	-73.8	7.8
2026-01-06 08:10:44.990915	290.7	70.3	-74.6	9.2
2026-01-06 08:10:47.242566	287.4	70.2	-74.2	7.5
2026-01-06 08:10:49.496369	284.2	70.1	-75.1	9.0
2026-01-06 08:10:51.753604	280.9	69.9	-75.2	8.8
2026-01-06 08:10:54.005967	277.8	69.7	-75.2	8.6
2026-01-06 08:10:56.262195	274.7	69.4	-73.6	4.9
2026-01-06 08:10:58.517384	271.8	69.1	-74.9	8.9
2026-01-06 08:11:00.770361	268.9	68.7	-75.3	10.9
2026-01-06 08:11:03.022039	266.2	68.3	-75.1	9.5
2026-01-06 08:11:05.275843	263.5	67.9	-75.4	8.8
2026-01-06 08:11:07.528642	261.0	67.4	-75.5	11.1
2026-01-06 08:11:09.784926	258.6	66.8	-75.6	10.0
2026-01-06 08:11:12.037306	256.4	66.2	-75.4	10.5
2026-01-06 08:11:14.295440	254.2	65.6	-75.2	11.5
2026-01-06 08:11:16.547036	252.2	65.0	-74.7	11.7
2026-01-06 08:11:18.801673	250.3	64.4	-74.4	11.0
2026-01-06 08:11:21.055136	248.5	63.7	-74.5	10.9
2026-01-06 08:11:23.308578	246.8	63.0	-74.2	9.9
2026-01-06 08:11:25.561445	245.2	62.3	-74.0	11.3
2026-01-06 08:11:27.809909	243.6	61.6	-74.3	11.6
2026-01-06 08:11:30.062851	242.2	60.9	-74.2	11.6
2026-01-06 08:11:32.311897	240.8	60.2	-73.9	11.0
2026-01-06 08:11:34.563224	239.6	59.5	-73.9	10.8
2026-01-06 08:11:36.813966	238.4	58.8	-73.9	11.5
2026-01-06 08:11:39.066097	237.2	58.0	-74.2	11.9
2026-01-06 08:11:41.318490	236.1	57.3	-73.8	12.1
2026-01-06 08:11:43.570692	235.1	56.6	-74.0	11.8
2026-01-06 08:11:45.822077	234.1	55.8	-74.0	11.4
2026-01-06 08:11:48.076265	233.2	55.1	-74.2	12.9
2026-01-06 08:11:50.329923	232.3	54.4	-73.7	12.5
2026-01-06 08:11:52.585069	231.5	53.7	-73.8	12.8
2026-01-06 08:11:54.834787	230.7	52.9	-73.7	12.6
2026-01-06 08:11:57.087529	229.9	52.2	-73.9	13.6
2026-01-06 08:11:59.340194	229.2	51.5	-73.8	12.5
2026-01-06 08:12:01.592400	228.5	50.8	-73.8	13.2
2026-01-06 08:12:03.844617	227.9	50.1	-73.7	13.1
2026-01-06 08:12:06.098824	227.2	49.4	-73.7	12.8
2026-01-06 08:12:08.351627	226.6	48.8	-73.9	12.3
2026-01-06 08:12:10.605428	226.1	48.1	-73.9	13.0
2026-01-06 08:12:12.859604	225.5	47.4	-74.1	12.9
2026-01-06 08:12:15.113568	225.0	46.8	-74.2	12.3
2026-01-06 08:12:17.367558	224.5	46.1	-74.4	12.7
2026-01-06 08:12:19.620193	224.0	45.5	-74.4	12.4
2026-01-06 08:12:21.874520	223.5	44.8	-74.4	12.0
2026-01-06 08:12:24.128839	223.1	44.2	-74.6	13.3
2026-01-06 08:12:26.382910	222.7	43.6	-74.4	13.1
2026-01-06 08:12:28.637100	222.3	43.0	-74.6	13.9
2026-01-06 08:12:30.890903	221.9	42.4	-74.6	14.3
2026-01-06 08:12:33.144595	221.5	41.8	-74.6	14.0
2026-01-06 08:12:35.399793	221.1	41.2	-74.4	13.3
2026-01-06 08:12:37.655097	220.8	40.6	-74.6	12.5
2026-01-06 08:12:39.908957	220.4	40.0	-74.3	12.9
2026-01-06 08:12:42.160594	220.1	39.5	-74.6	13.6
2026-01-06 08:12:44.415803	219.8	38.9	-74.1	11.1
2026-01-06 08:12:46.670120	219.5	38.4	-74.4	12.7
2026-01-06 08:12:48.922861	219.2	37.8	-73.4	10.1
2026-01-06 08:12:51.173958	218.9	37.3	-73.6	8.9
2026-01-06 08:12:53.425350	218.6	36.8	-73.6	9.7
2026-01-06 08:12:55.679648	218.3	36.2	-73.4	9.1
2026-01-06 08:12:57.931901	218.1	35.7	-72.9	9.1
2026-01-06 08:13:00.181540	217.8	35.2	-73.0	9.2
2026-01-06 08:13:02.439662	217.6	34.7	-73.2	8.4
2026-01-06 08:13:04.693505	217.3	34.2	-72.8	7.8
2026-01-06 08:13:06.946442	217.1	33.8	-72.9	7.7
2026-01-06 08:13:09.198904	216.9	33.3	-73.1	6.2
2026-01-06 08:13:11.450460	216.7	32.8	-73.1	6.6
2026-01-06 08:13:13.703138	216.5	32.4	-72.4	6.4
2026-01-06 08:13:15.956857	216.2	31.9	-72.2	7.9
2026-01-06 08:13:18.210749	216.0	31.5	-72.1	6.3
2026-01-06 08:13:20.461487	215.9	31.0	-72.5	5.8
2026-01-06 08:13:22.713774	215.7	30.6	-73.0	6.1
2026-01-06 08:13:24.965582	215.5	30.2	-72.5	4.0
2026-01-06 08:13:27.220682	215.3	29.7	-72.9	4.6
2026-01-06 08:13:29.473875	215.1	29.3	-72.3	1.7
2026-01-06 08:13:31.726430	215.0	28.9	-72.5	4.2
2026-01-06 08:13:33.980883	214.8	28.5	-72.4	4.0
2026-01-06 08:13:36.233129	214.6	28.1	-72.0	2.1
2026-01-06 08:13:38.487996	214.5	27.7	-71.9	3.3
2026-01-06 08:13:40.741697	214.3	27.3	-72.3	2.9
2026-01-06 08:13:42.994791	214.2	26.9	-71.4	1.2
2026-01-06 08:13:45.246533	214.0	26.6	-72.1	0.6
2026-01-06 08:13:47.500168	213.9	26.2	-71.9	1.8
2026-01-06 08:13:49.755940	213.8	25.8	-72.0	1.8
2026-01-06 08:13:52.010017	213.6	25.4	-71.6	0.3
2026-01-06 08:13:54.261770	213.5	25.1	-71.6	0.5
2026-01-06 08:13:56.515980	213.4	24.7	-71.0	0.0
2026-01-06 08:13:58.769671	213.2	24.4	-71.7	0.0
2026-01-06 08:14:01.023545	213.1	24.0	-70.9	0.0
2026-01-06 08:14:03.276916	213.0	23.7	-71.0	0.0
2026-01-06 08:14:05.531168	212.9	23.4	-71.0	0.0
2026-01-06 08:14:07.783700	212.8	23.0	-70.6	0.0
2026-01-06 08:14:10.036369	212.7	22.7	-70.3	0.0
2026-01-06 08:14:12.289823	212.6	22.4	-70.5	0.0
2026-01-06 08:14:14.541984	212.4	22.1	-71.2	0.0
2026-01-06 08:14:16.796813	212.3	21.7	-71.6	0.0
2026-01-06 08:14:19.047048	212.2	21.4	-70.6	0.0
2026-01-06 08:14:21.299765	212.1	21.1	-71.0	0.0
2026-01-06 08:14:23.554826	212.0	20.8	-71.0	0.0
2026-01-06 08:14:25.808114	211.9	20.5	-70.7	0.0
2026-01-06 08:14:28.062049	211.9	20.2	-71.2	0.0
2026-01-06 08:14:30.315856	211.8	19.9	-70.4	0.0
2026-01-06 08:14:32.571781	211.7	19.6	-70.4	0.0
2026-01-06 08:14:34.826134	211.6	19.3	-70.9	0.0
2026-01-06 08:14:37.077155	211.5	19.1	-70.7	0.0
2026-01-06 08:14:39.331993	211.4	18.8	-69.3	0.0
2026-01-06 08:14:41.587726	211.3	18.5	-69.7	0.0
2026-01-06 08:14:43.841046	211.2	18.2	-69.8	0.0
2026-01-06 08:14:46.092637	211.2	17.9	-69.9	0.0
2026-01-06 08:14:48.345546	211.1	17.7	-70.2	0.0
2026-01-06 08:14:50.600882	211.0	17.4	-70.7	0.0
2026-01-06 08:14:52.853281	210.9	17.1	-70.1	0.0
2026-01-06 08:14:55.106324	210.9	16.9	-70.0	0.0
2026-01-06 08:14:57.361324	210.8	16.6	-71.3	0.0
2026-01-06 08:14:59.610679	210.7	16.4	-71.3	0.0
2026-01-06 08:15:01.862226	210.6	16.1	-70.5	0.0
2026-01-06 08:15:04.117220	210.6	15.9	-70.8	0.0
2026-01-06 08:15:06.366467	210.5	15.6	-71.2	0.0
2026-01-06 08:15:08.620153	210.4	15.4	-71.1	0.0
2026-01-06 08:15:10.874361	210.4	15.1	-69.4	0.0
2026-01-06 08:15:13.129728	210.3	14.9	-70.4	0.0
2026-01-06 08:15:15.382697	210.2	14.7	-70.0	0.0
2026-01-06 08:15:17.636453	210.2	14.4	-71.1	0.0
2026-01-06 08:15:19.888536	210.1	14.2	-70.3	0.0
2026-01-06 08:15:22.141449	210.1	14.0	-69.7	0.0
2026-01-06 08:15:24.394851	210.0	13.7	-69.9	0.0
2026-01-06 08:15:26.650906	209.9	13.5	-69.6	0.0
2026-01-06 08:15:28.905734	209.9	13.3	-69.8	0.0
2026-01-06 08:15:31.160463	209.8	13.0	-69.9	0.0
2026-01-06 08:15:33.414646	209.8	12.8	-70.4	0.0
2026-01-06 08:15:35.666992	209.7	12.6	-70.6	0.0
2026-01-06 08:15:37.917883	209.7	12.4	-70.3	0.0
2026-01-06 08:15:40.171140	209.6	12.2	-70.3	0.0
2026-01-06 08:15:42.424769	209.6	12.0	-70.8	0.0
2026-01-06 08:15:44.682943	209.5	11.7	-70.6	0.0
2026-01-06 08:15:46.939401	209.5	11.5	-70.5	0.0
2026-01-06 08:15:49.194004	209.4	11.3	-71.8	0.0
2026-01-06 08:15:51.445810	209.4	11.1	-70.4	0.0
2026-01-06 08:15:53.700996	209.3	10.9	-70.1	0.0
2026-01-06 08:15:55.953612	209.3	10.7	-75.8	0.0
2026-01-06 08:15:58.207894	209.2	10.5	-77.2	0.0
2026-01-06 08:16:00.464161	209.2	10.3	-76.9	0.0
2026-01-06 08:16:02.716805	209.1	10.1	-79.1	0.0
#Closed at: 2026-01-06 08:05:17.850299