passes_logs/2026/01/06/planumMaritime01/planumMaritime01__20260106_013208_METEOR-M2_4_rec.log

#Pass ID: 20260106_013208_METEOR-M2 4
#Satellite: METEOR-M2 4
#Configuration: METEOR-M2 4
#Start time: 2026-01-06 01:32:13.445788

#LorettStation: 1.0.0 05.05.2024
#Station: planumMaritime01
#Location: 37.49445 lon 55.92918 lat
#TLE: 1 59051U 24039A   26005.62187337  .00000055  00000+0  44203-4 0  9994
#TLE: 2 59051  98.6800 327.1603 0006009 283.2344  76.8163 14.22405842 96150

#Time	Az	El	Level	SNR
2026-01-06 01:32:15.621992	11.6	10.2	-73.1	0.0
2026-01-06 01:32:17.883804	11.6	10.4	-74.9	0.0
2026-01-06 01:32:20.151204	11.5	10.6	-73.6	0.0
2026-01-06 01:32:22.416458	11.4	10.8	-71.9	0.0
2026-01-06 01:32:24.686257	11.3	11.0	-68.3	0.0
2026-01-06 01:32:26.956702	11.3	11.2	-70.2	0.0
2026-01-06 01:32:29.223249	11.2	11.4	-69.6	0.0
2026-01-06 01:32:31.494694	11.1	11.6	-72.0	0.0
2026-01-06 01:32:33.763115	11.0	11.8	-72.3	0.0
2026-01-06 01:32:36.026413	10.9	12.0	-71.4	0.0
2026-01-06 01:32:38.293081	10.9	12.2	-71.1	0.0
2026-01-06 01:32:40.560430	10.8	12.4	-71.0	0.0
2026-01-06 01:32:42.823360	10.7	12.6	-71.7	0.0
2026-01-06 01:32:45.085392	10.6	12.9	-70.3	0.0
2026-01-06 01:32:47.349064	10.5	13.1	-71.7	0.0
2026-01-06 01:32:49.622611	10.4	13.3	-72.3	0.0
2026-01-06 01:32:51.893077	10.3	13.5	-72.2	0.0
2026-01-06 01:32:54.157648	10.2	13.7	-71.3	0.0
2026-01-06 01:32:56.422410	10.1	14.0	-71.4	0.0
2026-01-06 01:32:58.690227	10.1	14.2	-70.3	0.0
2026-01-06 01:33:00.964052	10.0	14.4	-71.2	0.0
2026-01-06 01:33:03.235503	9.9	14.7	-71.9	0.0
2026-01-06 01:33:05.507662	9.8	14.9	-72.0	0.0
2026-01-06 01:33:07.781552	9.6	15.1	-70.4	0.0
2026-01-06 01:33:10.056777	9.5	15.4	-69.5	0.0
2026-01-06 01:33:12.329660	9.4	15.6	-69.4	0.0
2026-01-06 01:33:14.603012	9.3	15.8	-72.4	0.0
2026-01-06 01:33:16.874939	9.2	16.1	-72.5	0.0
2026-01-06 01:33:19.153072	9.1	16.3	-72.2	0.0
2026-01-06 01:33:21.427587	9.0	16.6	-72.6	0.0
2026-01-06 01:33:23.702491	8.9	16.8	-71.8	0.0
2026-01-06 01:33:25.975016	8.8	17.1	-71.2	0.0
2026-01-06 01:33:28.253235	8.6	17.4	-72.0	0.0
2026-01-06 01:33:30.530543	8.5	17.6	-72.3	0.0
2026-01-06 01:33:32.806658	8.4	17.9	-72.3	0.0
2026-01-06 01:33:35.077218	8.3	18.2	-73.6	0.0
2026-01-06 01:33:37.349530	8.1	18.4	-66.9	0.0
2026-01-06 01:33:39.622791	8.0	18.7	-66.9	0.0
2026-01-06 01:33:41.901421	7.9	19.0	-69.0	0.0
2026-01-06 01:33:44.175542	7.7	19.2	-68.2	0.0
2026-01-06 01:33:46.452174	7.6	19.5	-72.0	0.0
2026-01-06 01:33:48.726298	7.4	19.8	-71.6	0.0
2026-01-06 01:33:51.000528	7.3	20.1	-71.6	0.0
2026-01-06 01:33:53.277712	7.1	20.4	-71.8	0.0
2026-01-06 01:33:55.546717	7.0	20.7	-72.8	0.0
2026-01-06 01:33:57.808405	6.8	21.0	-72.2	0.0
2026-01-06 01:34:00.067841	6.7	21.3	-73.2	0.0
2026-01-06 01:34:02.329032	6.5	21.6	-71.4	0.0
2026-01-06 01:34:04.588621	6.4	21.9	-72.7	0.0
2026-01-06 01:34:06.850925	6.2	22.2	-72.1	0.0
2026-01-06 01:34:09.116085	6.0	22.5	-73.4	0.0
2026-01-06 01:34:11.374940	5.8	22.8	-73.1	0.0
2026-01-06 01:34:13.636868	5.7	23.1	-73.2	0.0
2026-01-06 01:34:15.901345	5.5	23.5	-72.6	0.0
2026-01-06 01:34:18.162624	5.3	23.8	-73.0	0.0
2026-01-06 01:34:20.417168	5.1	24.1	-73.9	0.0
2026-01-06 01:34:22.678498	4.9	24.4	-73.8	0.0
2026-01-06 01:34:24.945741	4.7	24.8	-69.1	0.0
2026-01-06 01:34:27.212945	4.5	25.1	-71.5	0.0
2026-01-06 01:34:29.480664	4.3	25.5	-74.5	0.0
2026-01-06 01:34:31.747291	4.1	25.8	-74.4	0.0
2026-01-06 01:34:34.014589	3.9	26.2	-73.3	0.0
2026-01-06 01:34:36.273698	3.6	26.5	-69.9	0.0
2026-01-06 01:34:38.527981	3.4	26.9	-73.6	0.0
2026-01-06 01:34:40.779733	3.2	27.3	-74.4	0.0
2026-01-06 01:34:43.033988	3.0	27.6	-72.1	0.0
2026-01-06 01:34:45.283267	2.7	28.0	-73.8	0.0
2026-01-06 01:34:47.535488	2.5	28.4	-73.6	0.0
2026-01-06 01:34:49.789221	2.2	28.8	-71.9	0.0
2026-01-06 01:34:52.040069	1.9	29.2	-72.8	0.0
2026-01-06 01:34:54.291424	1.7	29.6	-72.4	0.0
2026-01-06 01:34:56.543545	1.4	30.0	-72.2	0.0
2026-01-06 01:34:58.794275	1.1	30.4	-71.7	0.0
2026-01-06 01:35:01.046957	0.8	30.8	-72.0	0.0
2026-01-06 01:35:03.308829	0.5	31.2	-70.8	0.0
2026-01-06 01:35:05.578102	0.2	31.6	-71.3	0.0
2026-01-06 01:35:07.846026	359.9	32.0	-72.3	0.0
2026-01-06 01:35:10.115314	359.6	32.5	-72.8	0.0
2026-01-06 01:35:12.379752	359.2	32.9	-73.0	0.0
2026-01-06 01:35:14.647858	358.9	33.3	-70.9	0.0
2026-01-06 01:35:16.911888	358.5	33.8	-70.3	0.0
2026-01-06 01:35:19.175377	358.2	34.2	-72.2	0.0
2026-01-06 01:35:21.443530	357.8	34.7	-72.6	0.0
2026-01-06 01:35:23.715972	357.4	35.2	-73.3	0.0
2026-01-06 01:35:25.989119	357.0	35.6	-73.5	0.0
2026-01-06 01:35:28.261177	356.6	36.1	-73.2	0.0
2026-01-06 01:35:30.535650	356.2	36.6	-72.3	0.0
2026-01-06 01:35:32.806196	355.7	37.1	-73.9	0.0
2026-01-06 01:35:35.076783	355.3	37.6	-75.6	0.2
2026-01-06 01:35:37.350322	354.8	38.1	-76.0	1.2
2026-01-06 01:35:39.618660	354.3	38.6	-75.6	0.0
2026-01-06 01:35:41.890528	353.8	39.1	-76.1	3.5
2026-01-06 01:35:44.146556	353.3	39.6	-75.9	4.5
2026-01-06 01:35:46.419993	352.8	40.1	-76.7	4.7
2026-01-06 01:35:48.690763	352.3	40.6	-76.4	4.7
2026-01-06 01:35:50.960226	351.7	41.1	-76.9	6.8
2026-01-06 01:35:53.230611	351.1	41.7	-76.0	6.2
2026-01-06 01:35:55.511341	350.5	42.2	-76.5	6.6
2026-01-06 01:35:57.785633	349.9	42.7	-76.8	5.3
2026-01-06 01:36:00.060264	349.3	43.3	-78.4	7.9
2026-01-06 01:36:02.337454	348.6	43.8	-77.3	6.3
2026-01-06 01:36:04.613911	347.9	44.4	-78.3	8.5
2026-01-06 01:36:06.888231	347.2	44.9	-78.5	9.0
2026-01-06 01:36:09.155209	346.5	45.5	-77.3	4.4
2026-01-06 01:36:11.428113	345.7	46.0	-79.0	9.7
2026-01-06 01:36:13.694312	344.9	46.6	-79.1	8.5
2026-01-06 01:36:15.962949	344.1	47.2	-78.6	10.1
2026-01-06 01:36:18.233119	343.2	47.7	-78.6	9.1
2026-01-06 01:36:20.501993	342.4	48.3	-79.1	10.4
2026-01-06 01:36:22.770147	341.4	48.8	-79.2	9.5
2026-01-06 01:36:25.040938	340.5	49.4	-79.2	9.0
2026-01-06 01:36:27.310576	339.5	50.0	-78.7	7.4
2026-01-06 01:36:29.581041	338.5	50.5	-78.6	9.4
2026-01-06 01:36:31.851530	337.4	51.1	-79.4	8.1
2026-01-06 01:36:34.122112	336.3	51.6	-78.6	7.2
2026-01-06 01:36:36.392827	335.2	52.1	-78.7	7.6
2026-01-06 01:36:38.666513	334.0	52.7	-78.4	5.9
2026-01-06 01:36:40.938438	332.8	53.2	-78.5	7.5
2026-01-06 01:36:43.197994	331.5	53.7	-79.5	8.6
2026-01-06 01:36:45.458283	330.2	54.2	-80.1	9.1
2026-01-06 01:36:47.716538	328.8	54.7	-79.3	4.4
2026-01-06 01:36:49.976844	327.4	55.2	-80.2	7.8
2026-01-06 01:36:52.234797	326.0	55.7	-80.4	6.4
2026-01-06 01:36:54.492666	324.4	56.1	-80.0	5.1
2026-01-06 01:36:56.750644	322.9	56.6	-79.7	5.6
2026-01-06 01:36:59.010302	321.3	57.0	-79.8	6.5
2026-01-06 01:37:01.269066	319.6	57.4	-80.1	6.0
2026-01-06 01:37:03.530280	317.9	57.8	-81.1	7.7
2026-01-06 01:37:05.792822	316.2	58.2	-79.9	4.2
2026-01-06 01:37:08.066171	314.3	58.5	-80.3	4.0
2026-01-06 01:37:10.337267	312.5	58.8	-81.2	4.1
2026-01-06 01:37:12.611616	310.6	59.1	-80.7	5.0
2026-01-06 01:37:14.884826	308.7	59.3	-80.0	5.0
2026-01-06 01:37:17.160474	306.7	59.6	-80.4	6.5
2026-01-06 01:37:19.430082	304.7	59.8	-79.9	6.5
2026-01-06 01:37:21.705333	302.6	59.9	-79.7	5.1
2026-01-06 01:37:23.978001	300.6	60.1	-80.2	6.7
2026-01-06 01:37:26.253409	298.5	60.2	-80.5	4.8
2026-01-06 01:37:28.526575	296.4	60.2	-80.6	7.4
2026-01-06 01:37:30.802749	294.3	60.3	-81.0	6.5
2026-01-06 01:37:33.080580	292.2	60.3	-80.1	7.4
2026-01-06 01:37:35.350637	290.1	60.2	-80.4	7.3
2026-01-06 01:37:37.628045	288.0	60.1	-80.5	8.1
2026-01-06 01:37:39.909302	285.9	60.0	-80.0	7.7
2026-01-06 01:37:42.184404	283.9	59.9	-79.9	6.9
2026-01-06 01:37:44.458889	281.8	59.7	-80.3	8.3
2026-01-06 01:37:46.735256	279.8	59.5	-80.1	7.8
2026-01-06 01:37:49.011684	277.8	59.3	-80.4	8.7
2026-01-06 01:37:51.283374	275.9	59.0	-80.6	6.9
2026-01-06 01:37:53.554553	274.0	58.7	-80.4	5.9
2026-01-06 01:37:55.829465	272.2	58.4	-80.7	7.2
2026-01-06 01:37:58.099695	270.4	58.1	-81.0	7.6
2026-01-06 01:38:00.368228	268.6	57.7	-80.9	7.8
2026-01-06 01:38:02.638068	266.9	57.3	-80.7	8.6
2026-01-06 01:38:04.909643	265.3	56.9	-80.3	8.2
2026-01-06 01:38:07.175286	263.7	56.5	-80.4	8.9
2026-01-06 01:38:09.446121	262.1	56.0	-80.6	9.3
2026-01-06 01:38:11.712205	260.6	55.5	-80.5	8.7
2026-01-06 01:38:13.975149	259.2	55.1	-80.9	9.2
2026-01-06 01:38:16.242705	257.8	54.6	-80.9	8.7
2026-01-06 01:38:18.506510	256.4	54.1	-80.8	8.5
2026-01-06 01:38:20.783021	255.1	53.6	-80.9	8.9
2026-01-06 01:38:23.054486	253.8	53.0	-81.1	9.5
2026-01-06 01:38:25.331796	252.6	52.5	-80.8	9.7
2026-01-06 01:38:27.604363	251.4	52.0	-80.9	9.2
2026-01-06 01:38:29.869016	250.3	51.4	-80.7	10.5
2026-01-06 01:38:32.129570	249.2	50.9	-80.8	10.6
2026-01-06 01:38:34.390083	248.2	50.3	-81.0	10.2
2026-01-06 01:38:36.650252	247.2	49.8	-81.0	10.4
2026-01-06 01:38:38.907320	246.2	49.2	-81.1	10.3
2026-01-06 01:38:41.162422	245.3	48.6	-80.9	10.8
2026-01-06 01:38:43.419744	244.3	48.1	-81.2	10.3
2026-01-06 01:38:45.675101	243.5	47.5	-81.4	10.9
2026-01-06 01:38:47.941622	242.6	47.0	-80.6	9.6
2026-01-06 01:38:50.212129	241.8	46.4	-80.8	10.2
2026-01-06 01:38:52.479976	241.0	45.8	-81.1	11.0
2026-01-06 01:38:54.751881	240.3	45.3	-80.9	10.9
2026-01-06 01:38:57.016868	239.5	44.7	-80.8	11.0
2026-01-06 01:38:59.288660	238.8	44.2	-80.4	11.3
2026-01-06 01:39:01.555609	238.2	43.6	-80.3	10.7
2026-01-06 01:39:03.825810	237.5	43.1	-80.0	10.7
2026-01-06 01:39:06.085911	236.9	42.5	-79.9	10.8
2026-01-06 01:39:08.350983	236.2	42.0	-80.1	10.4
2026-01-06 01:39:10.614616	235.7	41.5	-79.7	10.2
2026-01-06 01:39:12.877989	235.1	40.9	-79.3	10.9
2026-01-06 01:39:15.143822	234.5	40.4	-79.2	10.9
2026-01-06 01:39:17.411145	234.0	39.9	-79.0	10.7
2026-01-06 01:39:19.673035	233.5	39.4	-78.8	11.0
2026-01-06 01:39:21.939627	233.0	38.9	-79.1	9.8
2026-01-06 01:39:24.200407	232.5	38.4	-78.9	9.9
2026-01-06 01:39:26.466652	232.0	37.9	-79.0	9.7
2026-01-06 01:39:28.735616	231.5	37.4	-78.7	10.3
2026-01-06 01:39:31.004903	231.1	36.9	-78.6	9.9
2026-01-06 01:39:33.279371	230.6	36.4	-78.6	9.9
2026-01-06 01:39:35.550013	230.2	35.9	-78.5	9.8
2026-01-06 01:39:37.817707	229.8	35.4	-78.5	10.1
2026-01-06 01:39:40.090440	229.4	35.0	-78.5	9.6
2026-01-06 01:39:42.357707	229.0	34.5	-78.2	9.8
2026-01-06 01:39:44.626251	228.7	34.0	-78.5	9.8
2026-01-06 01:39:46.898215	228.3	33.6	-78.5	9.5
2026-01-06 01:39:49.171611	227.9	33.1	-78.3	9.7
2026-01-06 01:39:51.443363	227.6	32.7	-78.7	10.0
2026-01-06 01:39:53.716667	227.3	32.2	-78.6	10.2
2026-01-06 01:39:55.986309	226.9	31.8	-78.5	10.1
2026-01-06 01:39:58.255183	226.6	31.4	-78.6	10.8
2026-01-06 01:40:00.530289	226.3	31.0	-78.5	10.0
2026-01-06 01:40:02.805419	226.0	30.5	-79.0	10.3
2026-01-06 01:40:05.084869	225.7	30.1	-78.9	10.2
2026-01-06 01:40:07.363970	225.4	29.7	-78.8	9.9
2026-01-06 01:40:09.638872	225.1	29.3	-78.8	9.7
2026-01-06 01:40:11.914533	224.9	28.9	-79.0	10.6
2026-01-06 01:40:14.193499	224.6	28.5	-78.7	11.4
2026-01-06 01:40:16.467475	224.3	28.1	-78.7	11.7
2026-01-06 01:40:18.744683	224.1	27.8	-79.0	10.9
2026-01-06 01:40:21.019159	223.9	27.4	-78.8	11.4
2026-01-06 01:40:23.293284	223.6	27.0	-78.4	9.3
2026-01-06 01:40:25.569616	223.4	26.6	-78.9	10.7
2026-01-06 01:40:27.845743	223.1	26.3	-79.5	10.6
2026-01-06 01:40:30.120134	222.9	25.9	-79.2	10.5
2026-01-06 01:40:32.393357	222.7	25.6	-78.8	10.2
2026-01-06 01:40:34.667736	222.5	25.2	-78.8	10.3
2026-01-06 01:40:36.942712	222.3	24.9	-78.5	10.3
2026-01-06 01:40:39.214976	222.1	24.5	-78.5	10.7
2026-01-06 01:40:41.490540	221.9	24.2	-78.5	9.5
2026-01-06 01:40:43.765267	221.7	23.8	-78.5	10.7
2026-01-06 01:40:46.033800	221.5	23.5	-78.5	9.2
2026-01-06 01:40:48.292543	221.3	23.2	-78.4	9.1
2026-01-06 01:40:50.553932	221.1	22.9	-78.4	9.3
2026-01-06 01:40:52.812209	220.9	22.5	-78.1	8.4
2026-01-06 01:40:55.070444	220.8	22.2	-78.6	7.4
2026-01-06 01:40:57.330915	220.6	21.9	-78.5	7.0
2026-01-06 01:40:59.587622	220.4	21.6	-78.0	7.2
2026-01-06 01:41:01.846298	220.3	21.3	-78.2	7.0
2026-01-06 01:41:04.105756	220.1	21.0	-78.1	7.1
2026-01-06 01:41:06.368192	219.9	20.7	-78.0	6.7
2026-01-06 01:41:08.627949	219.8	20.4	-77.8	6.1
2026-01-06 01:41:10.900926	219.6	20.1	-77.8	6.0
2026-01-06 01:41:13.177565	219.5	19.8	-77.6	5.6
2026-01-06 01:41:15.455281	219.3	19.5	-77.4	5.1
2026-01-06 01:41:17.735053	219.2	19.3	-77.4	5.1
2026-01-06 01:41:20.014497	219.1	19.0	-77.5	4.7
2026-01-06 01:41:22.290705	218.9	18.7	-77.2	3.9
2026-01-06 01:41:24.564674	218.8	18.4	-77.5	3.8
2026-01-06 01:41:26.833431	218.7	18.1	-77.0	3.8
2026-01-06 01:41:29.107229	218.5	17.9	-76.9	2.5
2026-01-06 01:41:31.382481	218.4	17.6	-77.0	2.0
2026-01-06 01:41:33.656244	218.3	17.3	-77.0	3.0
2026-01-06 01:41:35.933529	218.1	17.1	-77.0	2.3
2026-01-06 01:41:38.212235	218.0	16.8	-76.8	3.0
2026-01-06 01:41:40.489341	217.9	16.6	-76.1	1.6
2026-01-06 01:41:42.759057	217.8	16.3	-76.8	1.1
2026-01-06 01:41:45.024056	217.7	16.1	-76.8	0.9
2026-01-06 01:41:47.288067	217.6	15.8	-76.8	1.5
2026-01-06 01:41:49.553768	217.4	15.6	-76.2	1.6
2026-01-06 01:41:51.814831	217.3	15.3	-76.4	1.0
2026-01-06 01:41:54.076683	217.2	15.1	-76.3	0.7
2026-01-06 01:41:56.347480	217.1	14.9	-76.4	0.6
2026-01-06 01:41:58.615216	217.0	14.6	-76.4	1.5
2026-01-06 01:42:00.894282	216.9	14.4	-76.4	0.0
2026-01-06 01:42:03.169924	216.8	14.2	-76.5	0.0
2026-01-06 01:42:05.448233	216.7	13.9	-76.5	0.0
2026-01-06 01:42:07.729205	216.6	13.7	-76.2	0.0
2026-01-06 01:42:10.004392	216.5	13.5	-76.3	0.0
2026-01-06 01:42:12.279577	216.4	13.2	-76.2	0.0
2026-01-06 01:42:14.548236	216.3	13.0	-76.0	0.0
2026-01-06 01:42:16.816095	216.2	12.8	-76.2	0.1
2026-01-06 01:42:19.083959	216.2	12.6	-76.1	0.0
2026-01-06 01:42:21.354789	216.1	12.4	-76.0	0.0
2026-01-06 01:42:23.623136	216.0	12.2	-75.9	0.0
2026-01-06 01:42:25.891241	215.9	11.9	-75.9	0.0
2026-01-06 01:42:28.162517	215.8	11.7	-76.0	0.0
2026-01-06 01:42:30.431286	215.7	11.5	-76.0	0.0
2026-01-06 01:42:32.705334	215.6	11.3	-76.0	0.0
2026-01-06 01:42:34.980484	215.6	11.1	-75.9	0.0
2026-01-06 01:42:37.257494	215.5	10.9	-76.2	0.0
2026-01-06 01:42:39.533267	215.4	10.7	-81.5	0.0
2026-01-06 01:42:41.808700	215.3	10.5	-82.2	0.0
2026-01-06 01:42:44.089234	215.3	10.3	-82.0	0.0
2026-01-06 01:42:46.368581	215.2	10.1	-83.9	0.0
#Closed at: 2026-01-06 01:32:08.450356