passes_logs/2026/01/06/planumMaritime01/planumMaritime01__20260106_112131_METEOR-M2_4_rec.log

#Pass ID: 20260106_112131_METEOR-M2 4
#Satellite: METEOR-M2 4
#Configuration: METEOR-M2 4
#Start time: 2026-01-06 11:21:36.285869

#LorettStation: 1.0.0 05.05.2024
#Station: planumMaritime01
#Location: 37.49445 lon 55.92918 lat
#TLE: 1 59051U 24039A   26005.62187337  .00000055  00000+0  44203-4 0  9994
#TLE: 2 59051  98.6800 327.1603 0006009 283.2344  76.8163 14.22405842 96150

#Time	Az	El	Level	SNR
2026-01-06 11:21:38.459941	161.9	10.2	-81.1	0.0
2026-01-06 11:21:40.725926	161.9	10.4	-80.4	0.0
2026-01-06 11:21:42.998499	161.9	10.6	-78.8	3.8
2026-01-06 11:21:45.274889	161.9	10.8	-78.3	5.0
2026-01-06 11:21:47.548739	161.9	11.0	-77.7	4.5
2026-01-06 11:21:49.824146	161.9	11.2	-78.1	6.7
2026-01-06 11:21:52.099964	161.9	11.4	-77.5	4.8
2026-01-06 11:21:54.378513	162.0	11.6	-77.6	6.3
2026-01-06 11:21:56.651230	162.0	11.9	-77.4	5.9
2026-01-06 11:21:58.924640	162.0	12.1	-77.3	6.0
2026-01-06 11:22:01.203169	162.0	12.3	-77.9	6.5
2026-01-06 11:22:03.476206	162.0	12.5	-77.9	6.9
2026-01-06 11:22:05.750772	162.0	12.7	-77.7	6.0
2026-01-06 11:22:08.024527	162.0	13.0	-77.6	6.4
2026-01-06 11:22:10.292158	162.0	13.2	-77.8	6.8
2026-01-06 11:22:12.561244	162.0	13.4	-77.5	5.8
2026-01-06 11:22:14.834539	162.1	13.6	-78.0	6.6
2026-01-06 11:22:17.105090	162.1	13.9	-77.8	6.4
2026-01-06 11:22:19.379474	162.1	14.1	-77.2	6.1
2026-01-06 11:22:21.655220	162.1	14.3	-77.9	7.4
2026-01-06 11:22:23.928377	162.1	14.6	-77.5	5.4
2026-01-06 11:22:26.206688	162.1	14.8	-77.8	5.5
2026-01-06 11:22:28.480361	162.1	15.1	-77.7	5.7
2026-01-06 11:22:30.756490	162.1	15.3	-77.8	7.2
2026-01-06 11:22:33.028767	162.1	15.6	-77.9	7.5
2026-01-06 11:22:35.307059	162.2	15.8	-77.7	6.5
2026-01-06 11:22:37.582193	162.2	16.1	-78.0	7.8
2026-01-06 11:22:39.858365	162.2	16.3	-77.2	4.5
2026-01-06 11:22:42.134559	162.2	16.6	-77.8	7.3
2026-01-06 11:22:44.406317	162.2	16.9	-78.0	7.7
2026-01-06 11:22:46.675146	162.2	17.1	-77.6	6.3
2026-01-06 11:22:48.945635	162.2	17.4	-77.4	6.0
2026-01-06 11:22:51.218291	162.2	17.7	-77.1	6.5
2026-01-06 11:22:53.488789	162.3	17.9	-77.3	8.6
2026-01-06 11:22:55.760647	162.3	18.2	-77.6	8.3
2026-01-06 11:22:58.037524	162.3	18.5	-78.2	8.2
2026-01-06 11:23:00.316206	162.3	18.8	-77.9	8.4
2026-01-06 11:23:02.589384	162.3	19.1	-77.4	7.9
2026-01-06 11:23:04.862750	162.3	19.4	-77.1	8.1
2026-01-06 11:23:07.134715	162.3	19.7	-77.3	9.1
2026-01-06 11:23:09.397907	162.3	20.0	-76.5	5.6
2026-01-06 11:23:11.655447	162.4	20.3	-77.6	9.2
2026-01-06 11:23:13.918988	162.4	20.6	-77.2	9.0
2026-01-06 11:23:16.177978	162.4	20.9	-76.8	8.6
2026-01-06 11:23:18.442777	162.4	21.2	-77.0	9.9
2026-01-06 11:23:20.702088	162.4	21.5	-77.2	10.2
2026-01-06 11:23:22.962661	162.4	21.8	-77.6	9.7
2026-01-06 11:23:25.225072	162.4	22.1	-77.5	10.0
2026-01-06 11:23:27.489760	162.5	22.5	-77.5	10.0
2026-01-06 11:23:29.748798	162.5	22.8	-77.3	9.9
2026-01-06 11:23:32.017470	162.5	23.1	-77.8	9.4
2026-01-06 11:23:34.293382	162.5	23.5	-77.0	10.4
2026-01-06 11:23:36.566722	162.5	23.8	-77.4	9.3
2026-01-06 11:23:38.841475	162.5	24.2	-77.7	9.7
2026-01-06 11:23:41.113492	162.5	24.5	-77.2	7.5
2026-01-06 11:23:43.379929	162.6	24.9	-77.0	7.0
2026-01-06 11:23:45.651913	162.6	25.3	-77.4	9.8
2026-01-06 11:23:47.925151	162.6	25.6	-77.4	8.3
2026-01-06 11:23:50.196502	162.6	26.0	-77.4	9.5
2026-01-06 11:23:52.469549	162.6	26.4	-77.4	9.8
2026-01-06 11:23:54.742540	162.6	26.8	-77.6	10.0
2026-01-06 11:23:57.020315	162.7	27.2	-77.4	9.8
2026-01-06 11:23:59.298391	162.7	27.6	-77.2	9.7
2026-01-06 11:24:01.576870	162.7	28.0	-77.2	9.2
2026-01-06 11:24:03.850141	162.7	28.4	-76.8	7.7
2026-01-06 11:24:06.123112	162.7	28.8	-76.6	9.4
2026-01-06 11:24:08.394389	162.7	29.3	-77.9	10.0
2026-01-06 11:24:10.663638	162.8	29.7	-77.4	9.9
2026-01-06 11:24:12.935682	162.8	30.1	-77.4	9.9
2026-01-06 11:24:15.204572	162.8	30.6	-77.7	9.8
2026-01-06 11:24:17.475178	162.8	31.0	-77.6	9.9
2026-01-06 11:24:19.746503	162.8	31.5	-77.7	10.4
2026-01-06 11:24:22.022543	162.9	31.9	-77.9	10.1
2026-01-06 11:24:24.297526	162.9	32.4	-77.8	10.3
2026-01-06 11:24:26.561694	162.9	32.9	-78.0	10.2
2026-01-06 11:24:28.830060	162.9	33.4	-77.6	10.3
2026-01-06 11:24:31.097389	162.9	33.9	-78.2	11.1
2026-01-06 11:24:33.364031	163.0	34.4	-78.1	11.9
2026-01-06 11:24:35.633919	163.0	34.9	-78.3	11.4
2026-01-06 11:24:37.899824	163.0	35.4	-78.1	10.7
2026-01-06 11:24:40.171668	163.0	35.9	-78.9	12.7
2026-01-06 11:24:42.445426	163.1	36.5	-78.9	11.8
2026-01-06 11:24:44.718614	163.1	37.0	-78.8	11.4
2026-01-06 11:24:46.993334	163.1	37.6	-78.7	10.3
2026-01-06 11:24:49.267890	163.1	38.2	-78.9	11.3
2026-01-06 11:24:51.540196	163.2	38.7	-79.1	11.8
2026-01-06 11:24:53.814921	163.2	39.3	-79.1	10.8
2026-01-06 11:24:56.087150	163.2	39.9	-78.9	11.3
2026-01-06 11:24:58.361605	163.2	40.5	-79.4	11.7
2026-01-06 11:25:00.636104	163.3	41.1	-79.3	11.9
2026-01-06 11:25:02.919251	163.3	41.8	-79.5	11.6
2026-01-06 11:25:05.193247	163.3	42.4	-79.4	11.5
2026-01-06 11:25:07.470519	163.4	43.1	-79.2	12.0
2026-01-06 11:25:09.745526	163.4	43.7	-79.4	11.0
2026-01-06 11:25:12.022007	163.4	44.4	-79.4	11.8
2026-01-06 11:25:14.291128	163.5	45.1	-79.6	11.4
2026-01-06 11:25:16.559077	163.5	45.8	-79.5	11.3
2026-01-06 11:25:18.826420	163.6	46.5	-79.5	11.5
2026-01-06 11:25:21.094597	163.6	47.2	-79.6	11.4
2026-01-06 11:25:23.365293	163.6	47.9	-79.6	10.9
2026-01-06 11:25:25.643530	163.7	48.7	-79.9	11.2
2026-01-06 11:25:27.917441	163.7	49.5	-80.2	11.2
2026-01-06 11:25:30.180526	163.8	50.2	-80.3	11.0
2026-01-06 11:25:32.449129	163.8	51.0	-80.7	10.6
2026-01-06 11:25:34.720088	163.9	51.8	-81.0	9.9
2026-01-06 11:25:36.988006	163.9	52.6	-81.1	9.0
2026-01-06 11:25:39.259323	164.0	53.4	-81.6	8.8
2026-01-06 11:25:41.525299	164.0	54.3	-81.7	8.6
2026-01-06 11:25:43.800492	164.1	55.1	-82.0	8.6
2026-01-06 11:25:46.064971	164.2	56.0	-81.4	9.6
2026-01-06 11:25:48.336691	164.2	56.9	-81.3	9.6
2026-01-06 11:25:50.610805	164.3	57.8	-81.5	8.9
2026-01-06 11:25:52.889403	164.4	58.7	-81.2	8.7
2026-01-06 11:25:55.163278	164.5	59.6	-81.2	7.9
2026-01-06 11:25:57.439102	164.6	60.6	-81.1	9.9
2026-01-06 11:25:59.712306	164.7	61.5	-81.1	9.5
2026-01-06 11:26:01.986171	164.8	62.5	-81.0	9.1
2026-01-06 11:26:04.257361	164.9	63.5	-80.4	9.5
2026-01-06 11:26:06.531180	165.0	64.4	-80.5	9.3
2026-01-06 11:26:08.805644	165.1	65.4	-80.5	10.0
2026-01-06 11:26:11.082134	165.3	66.5	-80.2	9.3
2026-01-06 11:26:13.356800	165.4	67.5	-80.3	11.0
2026-01-06 11:26:15.630491	165.6	68.5	-80.1	11.1
2026-01-06 11:26:17.908347	165.8	69.6	-79.8	10.2
2026-01-06 11:26:20.183653	166.0	70.7	-79.8	9.4
2026-01-06 11:26:22.456627	166.3	71.8	-79.9	9.3
2026-01-06 11:26:24.728501	166.5	72.8	-79.6	8.8
2026-01-06 11:26:26.995238	166.8	73.9	-80.0	8.7
2026-01-06 11:26:29.268540	167.2	75.0	-80.3	8.5
2026-01-06 11:26:31.540532	167.6	76.2	-80.5	9.0
2026-01-06 11:26:33.812071	168.1	77.3	-80.2	8.9
2026-01-06 11:26:36.083829	168.7	78.4	-79.8	9.7
2026-01-06 11:26:38.359955	169.4	79.6	-79.6	10.4
2026-01-06 11:26:40.636128	170.3	80.7	-79.2	10.0
2026-01-06 11:26:42.908298	171.4	81.9	-78.8	9.8
2026-01-06 11:26:45.179022	172.9	83.0	-78.3	10.0
2026-01-06 11:26:47.449647	175.0	84.1	-78.5	8.4
2026-01-06 11:26:49.713260	178.1	85.3	-78.1	6.2
2026-01-06 11:26:51.980015	183.1	86.4	-78.4	9.6
2026-01-06 11:26:54.250680	192.6	87.5	-78.2	8.3
2026-01-06 11:26:56.520847	213.9	88.4	-78.6	9.3
2026-01-06 11:26:58.790842	259.8	88.7	-77.3	7.2
2026-01-06 11:27:01.063394	299.1	88.1	-77.6	7.6
2026-01-06 11:27:03.336949	315.8	87.2	-78.0	8.3
2026-01-06 11:27:05.612085	323.6	86.1	-77.5	7.0
2026-01-06 11:27:07.881548	327.9	85.0	-77.8	6.5
2026-01-06 11:27:10.151713	330.7	83.8	-78.8	7.9
2026-01-06 11:27:12.421384	332.6	82.7	-77.8	5.8
2026-01-06 11:27:14.692538	334.0	81.5	-78.3	4.6
2026-01-06 11:27:16.958532	335.0	80.4	-78.8	7.4
2026-01-06 11:27:19.227122	335.8	79.2	-77.7	6.1
2026-01-06 11:27:21.500558	336.5	78.1	-78.1	6.7
2026-01-06 11:27:23.774463	337.0	77.0	-78.2	7.4
2026-01-06 11:27:26.051081	337.5	75.9	-77.4	2.9
2026-01-06 11:27:28.321565	337.9	74.7	-77.9	6.5
2026-01-06 11:27:30.592293	338.2	73.6	-78.0	3.1
2026-01-06 11:27:32.861221	338.5	72.6	-78.4	4.3
2026-01-06 11:27:35.126238	338.8	71.5	-78.5	4.4
2026-01-06 11:27:37.396066	339.0	70.4	-79.1	5.6
2026-01-06 11:27:39.662964	339.2	69.3	-78.8	3.1
2026-01-06 11:27:41.928573	339.4	68.3	-79.4	4.3
2026-01-06 11:27:44.192967	339.6	67.3	-78.7	4.6
2026-01-06 11:27:46.459274	339.7	66.2	-78.9	5.5
2026-01-06 11:27:48.720974	339.9	65.2	-79.0	6.9
2026-01-06 11:27:50.985164	340.0	64.2	-77.6	3.9
2026-01-06 11:27:53.248149	340.1	63.3	-78.3	5.8
2026-01-06 11:27:55.508492	340.2	62.3	-78.0	3.4
2026-01-06 11:27:57.768075	340.3	61.3	-79.1	5.1
2026-01-06 11:28:00.028293	340.4	60.4	-78.4	4.3
2026-01-06 11:28:02.295354	340.5	59.5	-78.1	4.1
2026-01-06 11:28:04.564792	340.6	58.6	-78.6	4.0
2026-01-06 11:28:06.837243	340.7	57.7	-78.9	5.9
2026-01-06 11:28:09.105533	340.8	56.8	-79.2	5.5
2026-01-06 11:28:11.372870	340.8	55.9	-78.9	5.7
2026-01-06 11:28:13.639502	340.9	55.0	-79.2	4.7
2026-01-06 11:28:15.906439	341.0	54.2	-78.8	2.6
2026-01-06 11:28:18.171623	341.0	53.4	-79.7	5.2
2026-01-06 11:28:20.438530	341.1	52.5	-78.6	3.0
2026-01-06 11:28:22.715005	341.1	51.7	-78.4	3.3
2026-01-06 11:28:24.987524	341.2	50.9	-78.2	3.1
2026-01-06 11:28:27.268714	341.2	50.2	-77.7	2.8
2026-01-06 11:28:29.545135	341.3	49.4	-77.6	3.5
2026-01-06 11:28:31.816959	341.3	48.6	-77.2	1.1
2026-01-06 11:28:34.086784	341.4	47.9	-77.5	2.5
2026-01-06 11:28:36.356842	341.4	47.2	-77.3	4.7
2026-01-06 11:28:38.620591	341.4	46.5	-76.6	3.7
2026-01-06 11:28:40.888808	341.5	45.8	-75.8	3.4
2026-01-06 11:28:43.162457	341.5	45.1	-75.5	0.0
2026-01-06 11:28:45.436262	341.6	44.4	-76.4	5.2
2026-01-06 11:28:47.706424	341.6	43.7	-75.4	2.9
2026-01-06 11:28:49.967201	341.6	43.1	-73.2	0.0
2026-01-06 11:28:52.228933	341.7	42.4	-74.6	1.0
2026-01-06 11:28:54.489113	341.7	41.8	-74.8	0.0
2026-01-06 11:28:56.755390	341.7	41.2	-74.7	0.0
2026-01-06 11:28:59.035220	341.8	40.5	-74.0	0.0
2026-01-06 11:29:01.298576	341.8	39.9	-73.3	0.0
2026-01-06 11:29:03.555638	341.8	39.4	-74.5	0.3
2026-01-06 11:29:05.816154	341.8	38.8	-74.0	0.0
2026-01-06 11:29:08.076811	341.9	38.2	-72.8	0.0
2026-01-06 11:29:10.341998	341.9	37.6	-72.8	0.0
2026-01-06 11:29:12.601710	341.9	37.1	-72.2	0.0
2026-01-06 11:29:14.860532	342.0	36.6	-72.6	0.0
2026-01-06 11:29:17.119804	342.0	36.0	-71.9	0.0
2026-01-06 11:29:19.385324	342.0	35.5	-72.0	0.0
2026-01-06 11:29:21.650434	342.0	35.0	-71.8	0.0
2026-01-06 11:29:23.919008	342.1	34.5	-72.2	0.0
2026-01-06 11:29:26.184906	342.1	34.0	-71.7	0.0
2026-01-06 11:29:28.450469	342.1	33.5	-72.6	0.0
2026-01-06 11:29:30.720358	342.1	33.0	-72.3	0.0
2026-01-06 11:29:32.989278	342.1	32.5	-72.2	0.0
2026-01-06 11:29:35.253305	342.2	32.1	-71.7	0.0
2026-01-06 11:29:37.513957	342.2	31.6	-70.7	0.0
2026-01-06 11:29:39.775193	342.2	31.1	-71.0	0.0
2026-01-06 11:29:42.042855	342.2	30.7	-72.0	0.0
2026-01-06 11:29:44.318903	342.2	30.2	-71.7	0.0
2026-01-06 11:29:46.593951	342.3	29.8	-72.4	0.0
2026-01-06 11:29:48.867308	342.3	29.4	-73.5	0.0
2026-01-06 11:29:51.144165	342.3	29.0	-72.8	0.0
2026-01-06 11:29:53.410446	342.3	28.5	-70.1	0.0
2026-01-06 11:29:55.670930	342.3	28.1	-70.3	0.0
2026-01-06 11:29:57.928652	342.4	27.7	-71.6	0.0
2026-01-06 11:30:00.190370	342.4	27.3	-72.0	0.0
2026-01-06 11:30:02.446933	342.4	27.0	-71.7	0.0
2026-01-06 11:30:04.709187	342.4	26.6	-71.0	0.0
2026-01-06 11:30:06.966764	342.4	26.2	-71.8	0.0
2026-01-06 11:30:09.227526	342.4	25.8	-70.2	0.0
2026-01-06 11:30:11.487003	342.5	25.4	-71.1	0.0
2026-01-06 11:30:13.747620	342.5	25.1	-69.5	0.0
2026-01-06 11:30:16.006045	342.5	24.7	-71.7	0.0
2026-01-06 11:30:18.266611	342.5	24.4	-69.8	0.0
2026-01-06 11:30:20.525535	342.5	24.0	-68.3	0.0
2026-01-06 11:30:22.798445	342.6	23.7	-69.2	0.0
2026-01-06 11:30:25.073107	342.6	23.3	-70.1	0.0
2026-01-06 11:30:27.341989	342.6	23.0	-69.6	0.0
2026-01-06 11:30:29.617389	342.6	22.7	-71.1	0.0
2026-01-06 11:30:31.893767	342.6	22.3	-69.9	0.0
2026-01-06 11:30:34.168416	342.6	22.0	-72.0	0.0
2026-01-06 11:30:36.435291	342.6	21.7	-70.7	0.0
2026-01-06 11:30:38.700152	342.7	21.4	-70.1	0.0
2026-01-06 11:30:40.972509	342.7	21.1	-70.2	0.0
2026-01-06 11:30:43.248555	342.7	20.8	-72.8	0.0
2026-01-06 11:30:45.523459	342.7	20.5	-70.4	0.0
2026-01-06 11:30:47.792959	342.7	20.2	-71.2	0.0
2026-01-06 11:30:50.066688	342.7	19.9	-70.5	0.0
2026-01-06 11:30:52.338649	342.8	19.6	-71.9	0.0
2026-01-06 11:30:54.614132	342.8	19.3	-72.0	0.0
2026-01-06 11:30:56.879163	342.8	19.0	-72.8	0.0
2026-01-06 11:30:59.139454	342.8	18.7	-70.8	0.0
2026-01-06 11:31:01.399344	342.8	18.4	-71.6	0.0
2026-01-06 11:31:03.665998	342.8	18.2	-70.2	0.0
2026-01-06 11:31:05.925566	342.8	17.9	-73.8	0.0
2026-01-06 11:31:08.188516	342.9	17.6	-71.8	0.0
2026-01-06 11:31:10.449917	342.9	17.3	-72.6	0.0
2026-01-06 11:31:12.711682	342.9	17.1	-72.9	0.0
2026-01-06 11:31:14.968392	342.9	16.8	-73.9	0.0
2026-01-06 11:31:17.232400	342.9	16.6	-73.2	0.0
2026-01-06 11:31:19.491187	342.9	16.3	-74.6	0.0
2026-01-06 11:31:21.744701	342.9	16.1	-73.8	0.0
2026-01-06 11:31:23.998054	342.9	15.8	-73.4	0.0
2026-01-06 11:31:26.258573	343.0	15.6	-73.3	0.0
2026-01-06 11:31:28.512439	343.0	15.3	-73.8	0.0
2026-01-06 11:31:30.773241	343.0	15.1	-73.9	0.0
2026-01-06 11:31:33.033029	343.0	14.8	-74.2	0.0
2026-01-06 11:31:35.294703	343.0	14.6	-73.8	0.0
2026-01-06 11:31:37.553822	343.0	14.4	-72.1	0.0
2026-01-06 11:31:39.813480	343.0	14.1	-74.0	0.1
2026-01-06 11:31:42.078236	343.1	13.9	-74.7	0.0
2026-01-06 11:31:44.340745	343.1	13.7	-74.1	0.0
2026-01-06 11:31:46.601748	343.1	13.4	-72.8	0.0
2026-01-06 11:31:48.864496	343.1	13.2	-73.3	0.0
2026-01-06 11:31:51.124360	343.1	13.0	-73.4	0.0
2026-01-06 11:31:53.383615	343.1	12.8	-73.6	0.0
2026-01-06 11:31:55.645170	343.1	12.6	-74.4	0.0
2026-01-06 11:31:57.902711	343.1	12.3	-74.7	0.0
2026-01-06 11:32:00.161738	343.2	12.1	-73.2	0.0
2026-01-06 11:32:02.420925	343.2	11.9	-73.6	0.0
2026-01-06 11:32:04.684734	343.2	11.7	-73.8	0.0
2026-01-06 11:32:06.961874	343.2	11.5	-74.1	0.0
2026-01-06 11:32:09.235394	343.2	11.3	-71.5	0.0
2026-01-06 11:32:11.505725	343.2	11.1	-72.8	0.0
2026-01-06 11:32:13.778450	343.2	10.9	-74.6	0.0
2026-01-06 11:32:16.044265	343.2	10.7	-73.0	0.0
2026-01-06 11:32:18.308699	343.3	10.5	-72.2	0.0
2026-01-06 11:32:20.572793	343.3	10.3	-71.9	0.0
2026-01-06 11:32:22.831379	343.3	10.1	-76.3	0.0
#Closed at: 2026-01-06 11:21:31.290519