passes_logs/2025/01/05/LEX_Murmansk/LEX_Murmansk__20250105_131531_NOAA_18_rec.log

#Pass ID: 20250105_131531_NOAA 18
#Satellite: NOAA 18
#Configuration: NOAA 18
#Start time: 2025-01-05 13:15:26.157847

#LorettStation: 1.0.0 05.05.2024
#Station: LEX_Murmansk
#Location: 33.156738 lon 68.926811 lat
#TLE: 1 28654U 05018A   25004.89869685  .00000615  00000+0  35035-3 0  9999
#TLE: 2 28654  98.8582  86.0526 0013879 207.8923 152.1507 14.13477357 11671

#Time	Az	El	Level	SNR
2025-01-05 13:15:38.457026	28.0	16.0	-90.5	6.5
2025-01-05 13:15:39.619102	27.9	16.1	-90.5	3.8
2025-01-05 13:15:40.782633	27.7	16.1	-90.8	6.0
2025-01-05 13:15:41.947665	27.5	16.2	-90.7	3.5
2025-01-05 13:15:43.108585	27.4	16.3	-90.8	7.4
2025-01-05 13:15:44.269243	27.2	16.4	-90.8	4.9
2025-01-05 13:15:45.435661	27.0	16.5	-90.7	6.4
2025-01-05 13:15:46.603438	26.8	16.6	-91.1	7.2
2025-01-05 13:15:47.778501	26.6	16.7	-91.2	7.0
2025-01-05 13:15:48.943474	26.5	16.8	-90.9	8.2
2025-01-05 13:15:50.105903	26.3	16.9	-91.0	8.0
2025-01-05 13:15:51.261330	26.1	17.0	-91.2	7.2
2025-01-05 13:15:52.421753	25.9	17.1	-90.7	3.8
2025-01-05 13:15:53.589025	25.7	17.2	-90.8	6.4
2025-01-05 13:15:54.746272	25.6	17.3	-91.0	4.8
2025-01-05 13:15:55.908959	25.4	17.3	-91.1	4.7
2025-01-05 13:15:57.068885	25.2	17.4	-91.5	7.9
2025-01-05 13:15:58.230587	25.0	17.5	-91.4	8.0
2025-01-05 13:15:59.394021	24.8	17.6	-90.3	7.7
2025-01-05 13:16:00.547122	24.6	17.7	-90.6	7.1
2025-01-05 13:16:01.704981	24.4	17.8	-91.5	9.7
2025-01-05 13:16:02.877843	24.2	17.9	-90.7	5.2
2025-01-05 13:16:04.041291	24.0	18.0	-90.3	10.3
2025-01-05 13:16:05.202318	23.8	18.1	-90.1	4.7
2025-01-05 13:16:06.366502	23.6	18.2	-89.9	5.3
2025-01-05 13:16:07.539096	23.4	18.3	-89.8	11.9
2025-01-05 13:16:08.705180	23.2	18.4	-89.8	8.2
2025-01-05 13:16:09.866408	23.0	18.5	-90.4	7.5
2025-01-05 13:16:11.039592	22.8	18.6	-89.4	9.1
2025-01-05 13:16:12.203103	22.6	18.6	-89.3	9.1
2025-01-05 13:16:13.367751	22.4	18.7	-88.9	7.2
2025-01-05 13:16:14.531971	22.2	18.8	-90.4	10.0
2025-01-05 13:16:15.701581	22.0	18.9	-91.0	7.1
2025-01-05 13:16:16.864891	21.8	19.0	-90.8	7.7
2025-01-05 13:16:18.031081	21.6	19.1	-90.7	6.6
2025-01-05 13:16:19.194560	21.4	19.2	-90.8	5.0
2025-01-05 13:16:20.355692	21.2	19.3	-90.4	8.5
2025-01-05 13:16:21.526052	21.0	19.4	-90.6	8.7
2025-01-05 13:16:22.691398	20.8	19.5	-91.2	5.8
2025-01-05 13:16:23.861691	20.5	19.6	-90.2	8.5
2025-01-05 13:16:25.019833	20.3	19.7	-89.9	11.2
2025-01-05 13:16:26.184278	20.1	19.8	-90.2	6.6
2025-01-05 13:16:27.358229	19.9	19.8	-89.4	4.2
2025-01-05 13:16:28.518238	19.7	19.9	-89.7	7.3
2025-01-05 13:16:29.677720	19.4	20.0	-89.6	5.1
2025-01-05 13:16:30.839110	19.2	20.1	-89.5	6.0
2025-01-05 13:16:31.998476	19.0	20.2	-89.5	9.9
2025-01-05 13:16:33.162433	18.8	20.3	-89.5	8.8
2025-01-05 13:16:34.322651	18.5	20.4	-89.4	8.0
2025-01-05 13:16:35.480454	18.3	20.5	-90.2	12.0
2025-01-05 13:16:36.640856	18.1	20.6	-90.7	7.7
2025-01-05 13:16:37.802716	17.9	20.7	-91.1	7.4
2025-01-05 13:16:38.963895	17.6	20.8	-91.1	11.6
2025-01-05 13:16:40.132919	17.4	20.8	-90.9	9.7
2025-01-05 13:16:41.294160	17.2	20.9	-90.7	12.0
2025-01-05 13:16:42.442636	16.9	21.0	-90.9	7.0
2025-01-05 13:16:43.608138	16.7	21.1	-90.4	3.9
2025-01-05 13:16:44.773635	16.4	21.2	-91.1	6.4
2025-01-05 13:16:45.942822	16.2	21.3	-90.9	6.0
2025-01-05 13:16:47.097313	16.0	21.4	-90.8	5.5
2025-01-05 13:16:48.260682	15.7	21.5	-91.1	5.2
2025-01-05 13:16:49.418744	15.5	21.5	-90.5	5.4
2025-01-05 13:16:50.579239	15.2	21.6	-90.6	4.8
2025-01-05 13:16:51.743309	15.0	21.7	-91.0	6.5
2025-01-05 13:16:52.904944	14.7	21.8	-91.1	5.3
2025-01-05 13:16:54.071012	14.5	21.9	-91.3	8.5
2025-01-05 13:16:55.234353	14.2	22.0	-90.1	8.5
2025-01-05 13:16:56.396851	14.0	22.1	-89.3	5.6
2025-01-05 13:16:57.558965	13.7	22.2	-89.1	8.6
2025-01-05 13:16:58.720199	13.5	22.2	-89.0	8.5
2025-01-05 13:16:59.882660	13.2	22.3	-89.6	9.9
2025-01-05 13:17:01.033254	12.9	22.4	-90.0	12.5
2025-01-05 13:17:02.192176	12.7	22.5	-90.5	10.2
2025-01-05 13:17:03.354338	12.4	22.6	-89.9	8.8
2025-01-05 13:17:04.517183	12.2	22.7	-89.6	11.4
2025-01-05 13:17:05.681733	11.9	22.7	-91.0	13.5
2025-01-05 13:17:06.840224	11.6	22.8	-91.4	15.3
2025-01-05 13:17:07.999382	11.4	22.9	-91.5	16.1
2025-01-05 13:17:09.170298	11.1	23.0	-91.2	13.8
2025-01-05 13:17:10.339237	10.8	23.1	-91.3	14.9
2025-01-05 13:17:11.494886	10.5	23.2	-91.0	15.3
2025-01-05 13:17:12.664359	10.3	23.2	-91.5	13.0
2025-01-05 13:17:13.827738	10.0	23.3	-91.1	8.5
2025-01-05 13:17:14.993662	9.7	23.4	-91.4	14.7
2025-01-05 13:17:16.155509	9.4	23.5	-91.4	13.1
2025-01-05 13:17:17.327244	9.2	23.6	-91.3	7.5
2025-01-05 13:17:18.496385	8.9	23.6	-91.3	9.7
2025-01-05 13:17:19.654172	8.6	23.7	-91.7	12.1
2025-01-05 13:17:20.821482	8.3	23.8	-91.3	9.5
2025-01-05 13:17:21.986283	8.0	23.9	-91.7	11.5
2025-01-05 13:17:23.146800	7.7	23.9	-91.5	14.7
2025-01-05 13:17:24.308299	7.4	24.0	-91.3	12.6
2025-01-05 13:17:25.471304	7.2	24.1	-90.8	15.6
2025-01-05 13:17:26.633714	6.9	24.2	-91.5	11.2
2025-01-05 13:17:27.796362	6.6	24.2	-91.8	9.6
2025-01-05 13:17:28.959029	6.3	24.3	-91.2	12.8
2025-01-05 13:17:30.121572	6.0	24.4	-91.5	12.8
2025-01-05 13:17:31.284704	5.7	24.5	-91.4	10.4
2025-01-05 13:17:32.443113	5.4	24.5	-91.2	11.2
2025-01-05 13:17:33.602350	5.1	24.6	-91.1	13.7
2025-01-05 13:17:34.763583	4.8	24.7	-91.7	11.6
2025-01-05 13:17:35.930095	4.5	24.7	-91.6	15.7
2025-01-05 13:17:37.092248	4.2	24.8	-91.6	12.3
2025-01-05 13:17:38.251677	3.9	24.9	-91.4	10.2
2025-01-05 13:17:39.411643	3.6	24.9	-90.9	12.8
2025-01-05 13:17:40.574845	3.3	25.0	-91.1	9.4
2025-01-05 13:17:41.734264	3.0	25.1	-91.5	5.7
2025-01-05 13:17:42.898795	2.7	25.1	-91.5	6.6
2025-01-05 13:17:44.063461	2.3	25.2	-91.7	13.8
2025-01-05 13:17:45.206405	2.0	25.3	-91.4	6.9
2025-01-05 13:17:46.360021	1.7	25.3	-91.1	5.4
2025-01-05 13:17:47.519575	1.4	25.4	-91.0	13.8
2025-01-05 13:17:48.683330	1.1	25.5	-90.6	8.0
2025-01-05 13:17:49.838417	0.8	25.5	-91.2	9.0
2025-01-05 13:17:50.999267	0.5	25.6	-91.2	8.1
2025-01-05 13:17:52.158189	0.1	25.6	-91.2	11.2
2025-01-05 13:17:53.326205	359.8	25.7	-91.0	9.7
2025-01-05 13:17:54.489630	359.5	25.7	-90.5	14.0
2025-01-05 13:17:55.650942	359.2	25.8	-91.3	12.6
2025-01-05 13:17:56.818916	358.9	25.9	-91.4	11.6
2025-01-05 13:17:57.975076	358.5	25.9	-91.4	12.5
2025-01-05 13:17:59.142878	358.2	26.0	-91.6	8.1
2025-01-05 13:18:00.295057	357.9	26.0	-91.2	10.5
2025-01-05 13:18:01.449047	357.6	26.1	-90.7	8.8
2025-01-05 13:18:02.609564	357.2	26.1	-90.3	9.9
2025-01-05 13:18:03.768147	356.9	26.2	-90.9	10.2
2025-01-05 13:18:04.930090	356.6	26.2	-91.3	13.2
2025-01-05 13:18:06.089406	356.2	26.3	-91.4	12.4
2025-01-05 13:18:07.251860	355.9	26.3	-90.8	6.8
2025-01-05 13:18:08.414378	355.6	26.3	-90.7	10.5
2025-01-05 13:18:09.577169	355.2	26.4	-90.8	9.6
2025-01-05 13:18:10.731103	354.9	26.4	-91.3	11.0
2025-01-05 13:18:11.893286	354.6	26.5	-91.5	13.3
2025-01-05 13:18:13.071309	354.2	26.5	-91.1	11.4
2025-01-05 13:18:14.235734	353.9	26.6	-91.1	11.0
2025-01-05 13:18:15.395086	353.5	26.6	-90.5	11.3
2025-01-05 13:18:16.558837	353.2	26.6	-91.0	13.2
2025-01-05 13:18:17.733271	352.9	26.7	-91.1	9.8
2025-01-05 13:18:18.889535	352.5	26.7	-91.3	7.3
2025-01-05 13:18:20.054205	352.2	26.7	-91.5	9.0
2025-01-05 13:18:21.213973	351.8	26.8	-91.3	8.5
2025-01-05 13:18:22.380280	351.5	26.8	-90.6	2.9
2025-01-05 13:18:23.549146	351.1	26.8	-90.1	9.3
2025-01-05 13:18:24.721392	350.8	26.9	-91.1	6.1
2025-01-05 13:18:25.881760	350.4	26.9	-91.5	5.8
2025-01-05 13:18:27.045244	350.1	26.9	-91.2	7.8
2025-01-05 13:18:28.206715	349.7	27.0	-90.9	5.3
2025-01-05 13:18:29.367713	349.4	27.0	-90.7	5.9
2025-01-05 13:18:30.528035	349.0	27.0	-90.1	6.1
2025-01-05 13:18:31.690798	348.7	27.0	-91.0	4.8
2025-01-05 13:18:32.855260	348.3	27.1	-91.1	6.7
2025-01-05 13:18:34.017990	348.0	27.1	-91.4	7.9
2025-01-05 13:18:35.185637	347.6	27.1	-91.6	7.3
2025-01-05 13:18:36.350017	347.3	27.1	-90.9	8.8
2025-01-05 13:18:37.518225	346.9	27.1	-90.9	7.1
2025-01-05 13:18:38.681983	346.6	27.1	-90.9	10.9
2025-01-05 13:18:39.841267	346.2	27.2	-89.7	9.3
2025-01-05 13:18:41.001490	345.9	27.2	-90.0	10.3
2025-01-05 13:18:42.162898	345.5	27.2	-89.9	7.6
2025-01-05 13:18:43.313101	345.2	27.2	-89.8	12.0
2025-01-05 13:18:44.455671	344.8	27.2	-89.4	8.4
2025-01-05 13:18:45.608245	344.5	27.2	-89.8	14.2
2025-01-05 13:18:46.771850	344.1	27.2	-90.9	11.3
2025-01-05 13:18:47.929644	343.8	27.2	-91.0	9.2
2025-01-05 13:18:49.089674	343.4	27.2	-90.6	9.1
2025-01-05 13:18:50.253493	343.1	27.2	-90.9	6.6
2025-01-05 13:18:51.416422	342.7	27.2	-90.3	6.5
2025-01-05 13:18:52.581085	342.4	27.2	-90.4	7.0
2025-01-05 13:18:53.744226	342.0	27.2	-91.2	6.9
2025-01-05 13:18:54.919199	341.6	27.2	-91.4	9.0
2025-01-05 13:18:56.077714	341.3	27.2	-91.4	6.8
2025-01-05 13:18:57.245990	340.9	27.2	-91.5	4.2
2025-01-05 13:18:58.411896	340.6	27.2	-90.8	5.0
2025-01-05 13:18:59.577725	340.2	27.2	-91.3	6.7
2025-01-05 13:19:00.735054	339.9	27.2	-91.8	6.1
2025-01-05 13:19:01.887258	339.5	27.2	-91.6	7.9
2025-01-05 13:19:03.052305	339.2	27.2	-91.3	5.3
2025-01-05 13:19:04.209263	338.8	27.2	-91.3	6.5
2025-01-05 13:19:05.373004	338.5	27.2	-91.3	4.9
2025-01-05 13:19:06.533666	338.1	27.2	-91.3	12.0
2025-01-05 13:19:07.700801	337.7	27.2	-91.6	7.5
2025-01-05 13:19:08.863257	337.4	27.1	-91.5	6.9
2025-01-05 13:19:10.027835	337.0	27.1	-91.4	7.2
2025-01-05 13:19:11.188679	336.7	27.1	-91.2	7.5
2025-01-05 13:19:12.351418	336.3	27.1	-90.9	9.1
2025-01-05 13:19:13.512401	336.0	27.1	-91.0	10.6
2025-01-05 13:19:14.676316	335.6	27.0	-91.4	7.5
2025-01-05 13:19:15.840452	335.3	27.0	-91.3	10.6
2025-01-05 13:19:17.012854	334.9	27.0	-90.5	9.5
2025-01-05 13:19:18.173163	334.6	27.0	-90.5	10.1
2025-01-05 13:19:19.338923	334.2	27.0	-89.8	10.8
2025-01-05 13:19:20.499409	333.9	26.9	-89.9	12.6
2025-01-05 13:19:21.657874	333.5	26.9	-90.4	6.4
2025-01-05 13:19:22.817056	333.2	26.9	-90.0	8.0
2025-01-05 13:19:23.979618	332.8	26.8	-89.8	6.9
2025-01-05 13:19:25.141156	332.5	26.8	-89.5	6.3
2025-01-05 13:19:26.309806	332.2	26.8	-89.5	5.9
2025-01-05 13:19:27.472689	331.8	26.7	-89.6	3.4
2025-01-05 13:19:28.634641	331.5	26.7	-89.8	6.3
2025-01-05 13:19:29.795464	331.1	26.7	-90.2	9.4
2025-01-05 13:19:30.960985	330.8	26.6	-90.2	8.7
2025-01-05 13:19:32.121169	330.4	26.6	-90.1	10.2
2025-01-05 13:19:33.279948	330.1	26.6	-91.0	10.7
2025-01-05 13:19:34.445500	329.8	26.5	-90.6	9.1
2025-01-05 13:19:35.608854	329.4	26.5	-90.7	11.9
2025-01-05 13:19:36.771187	329.1	26.4	-91.3	10.8
2025-01-05 13:19:37.935293	328.7	26.4	-91.4	8.9
2025-01-05 13:19:39.099485	328.4	26.3	-91.4	10.8
2025-01-05 13:19:40.261723	328.1	26.3	-91.2	11.7
2025-01-05 13:19:41.427096	327.7	26.2	-91.2	7.5
2025-01-05 13:19:42.591261	327.4	26.2	-91.3	6.2
2025-01-05 13:19:43.759026	327.1	26.2	-91.7	10.6
2025-01-05 13:19:44.922398	326.7	26.1	-91.4	10.6
2025-01-05 13:19:46.087072	326.4	26.1	-91.3	12.0
2025-01-05 13:19:47.252011	326.1	26.0	-91.1	10.9
2025-01-05 13:19:48.416139	325.8	25.9	-90.7	10.6
2025-01-05 13:19:49.583455	325.4	25.9	-91.0	9.5
2025-01-05 13:19:50.763929	325.1	25.8	-91.0	8.7
2025-01-05 13:19:51.924917	324.8	25.8	-90.9	14.1
2025-01-05 13:19:53.089835	324.4	25.7	-91.2	7.6
2025-01-05 13:19:54.252493	324.1	25.7	-91.2	7.7
2025-01-05 13:19:55.412446	323.8	25.6	-90.8	13.8
2025-01-05 13:19:56.576475	323.5	25.6	-90.8	12.8
2025-01-05 13:19:57.742019	323.2	25.5	-91.1	11.2
2025-01-05 13:19:58.900596	322.8	25.4	-90.8	7.0
2025-01-05 13:20:00.068249	322.5	25.4	-90.8	7.4
2025-01-05 13:20:01.220895	322.2	25.3	-91.5	11.9
2025-01-05 13:20:02.384112	321.9	25.2	-90.8	5.0
2025-01-05 13:20:03.547462	321.6	25.2	-90.8	11.1
2025-01-05 13:20:04.710325	321.3	25.1	-91.2	3.9
2025-01-05 13:20:05.876598	321.0	25.1	-91.1	9.1
2025-01-05 13:20:07.040808	320.7	25.0	-91.5	6.5
2025-01-05 13:20:08.205446	320.3	24.9	-91.4	7.4
2025-01-05 13:20:09.365670	320.0	24.9	-91.0	14.5
2025-01-05 13:20:10.529813	319.7	24.8	-90.8	17.6
2025-01-05 13:20:11.690213	319.4	24.7	-91.2	10.7
2025-01-05 13:20:12.853390	319.1	24.6	-91.2	7.1
2025-01-05 13:20:14.017845	318.8	24.6	-89.2	19.8
2025-01-05 13:20:15.180342	318.5	24.5	-91.3	15.5
2025-01-05 13:20:16.345063	318.2	24.4	-90.9	7.1
2025-01-05 13:20:17.504151	317.9	24.4	-91.0	10.8
2025-01-05 13:20:18.667704	317.6	24.3	-91.0	6.9
2025-01-05 13:20:19.827868	317.3	24.2	-91.4	13.2
2025-01-05 13:20:20.994196	317.1	24.1	-90.9	15.7
2025-01-05 13:20:22.157202	316.8	24.1	-90.6	18.3
2025-01-05 13:20:23.324208	316.5	24.0	-90.6	7.8
2025-01-05 13:20:24.484961	316.2	23.9	-90.4	8.9
2025-01-05 13:20:25.648178	315.9	23.8	-90.5	7.5
2025-01-05 13:20:26.811280	315.6	23.8	-90.7	4.4
2025-01-05 13:20:27.974204	315.3	23.7	-90.6	9.5
2025-01-05 13:20:29.139748	315.0	23.6	-91.2	8.2
2025-01-05 13:20:30.301250	314.8	23.5	-90.9	6.6
2025-01-05 13:20:31.466472	314.5	23.4	-91.0	8.0
2025-01-05 13:20:32.627383	314.2	23.4	-90.9	6.8
2025-01-05 13:20:33.790708	313.9	23.3	-91.0	8.4
2025-01-05 13:20:34.958474	313.6	23.2	-91.3	4.7
2025-01-05 13:20:36.125099	313.4	23.1	-91.0	6.0
2025-01-05 13:20:37.290070	313.1	23.0	-91.2	5.0
2025-01-05 13:20:38.453749	312.8	23.0	-90.7	4.5
2025-01-05 13:20:39.617697	312.6	22.9	-91.0	4.9
2025-01-05 13:20:40.778039	312.3	22.8	-91.6	5.5
2025-01-05 13:20:41.937421	312.0	22.7	-92.0	4.3
2025-01-05 13:20:43.105388	311.8	22.6	-91.6	7.0
2025-01-05 13:20:44.269708	311.5	22.5	-90.5	5.3
2025-01-05 13:20:45.433808	311.2	22.5	-91.4	5.5
2025-01-05 13:20:46.595266	311.0	22.4	-91.4	5.8
2025-01-05 13:20:47.763832	310.7	22.3	-92.2	8.3
2025-01-05 13:20:48.928913	310.4	22.2	-91.9	8.3
2025-01-05 13:20:50.092131	310.2	22.1	-91.6	7.2
2025-01-05 13:20:51.256055	309.9	22.0	-91.0	6.3
2025-01-05 13:20:52.421960	309.7	21.9	-91.0	3.5
2025-01-05 13:20:53.579752	309.4	21.9	-91.1	5.3
2025-01-05 13:20:54.743296	309.2	21.8	-91.2	6.6
2025-01-05 13:20:55.913452	308.9	21.7	-91.5	11.9
2025-01-05 13:20:57.075832	308.7	21.6	-91.5	6.9
2025-01-05 13:20:58.240098	308.4	21.5	-91.5	8.9
2025-01-05 13:20:59.400940	308.2	21.4	-91.1	15.0
2025-01-05 13:21:00.555883	307.9	21.3	-90.5	5.3
2025-01-05 13:21:01.715621	307.7	21.2	-91.5	3.2
2025-01-05 13:21:02.879617	307.4	21.1	-91.8	7.0
2025-01-05 13:21:04.048292	307.2	21.1	-92.1	8.9
2025-01-05 13:21:05.210048	307.0	21.0	-91.8	7.7
2025-01-05 13:21:06.371118	306.7	20.9	-91.4	10.1
2025-01-05 13:21:07.534181	306.5	20.8	-91.0	2.2
2025-01-05 13:21:08.699980	306.3	20.7	-90.7	4.6
2025-01-05 13:21:09.860474	306.0	20.6	-91.4	3.2
2025-01-05 13:21:11.025495	305.8	20.5	-91.5	11.2
2025-01-05 13:21:12.184781	305.6	20.4	-91.8	5.3
2025-01-05 13:21:13.348460	305.3	20.3	-91.2	8.0
2025-01-05 13:21:14.515179	305.1	20.2	-90.6	14.0
2025-01-05 13:21:15.676980	304.9	20.1	-91.5	5.8
2025-01-05 13:21:16.841534	304.6	20.1	-91.5	6.3
2025-01-05 13:21:18.004900	304.4	20.0	-91.6	6.8
2025-01-05 13:21:19.169369	304.2	19.9	-91.8	4.4
2025-01-05 13:21:20.332811	304.0	19.8	-91.5	5.3
2025-01-05 13:21:21.498901	303.8	19.7	-90.9	5.9
2025-01-05 13:21:22.661477	303.5	19.6	-91.0	8.2
2025-01-05 13:21:23.827450	303.3	19.5	-91.4	6.3
2025-01-05 13:21:24.990549	303.1	19.4	-91.4	7.8
2025-01-05 13:21:26.153678	302.9	19.3	-91.4	14.3
2025-01-05 13:21:27.319078	302.7	19.2	-90.7	4.0
2025-01-05 13:21:28.482449	302.5	19.1	-90.5	8.3
2025-01-05 13:21:29.649489	302.3	19.0	-91.0	8.9
2025-01-05 13:21:30.812335	302.0	18.9	-90.9	7.1
2025-01-05 13:21:31.973807	301.8	18.9	-91.3	6.1
2025-01-05 13:21:33.136085	301.6	18.8	-91.5	4.7
2025-01-05 13:21:34.299443	301.4	18.7	-91.3	7.3
2025-01-05 13:21:35.465979	301.2	18.6	-90.8	8.2
2025-01-05 13:21:36.629828	301.0	18.5	-90.8	10.9
2025-01-05 13:21:37.794913	300.8	18.4	-91.1	5.2
2025-01-05 13:21:38.958202	300.6	18.3	-90.8	6.1
2025-01-05 13:21:40.118283	300.4	18.2	-91.2	5.5
2025-01-05 13:21:41.280980	300.2	18.1	-90.8	6.8
2025-01-05 13:21:42.437585	300.0	18.0	-90.9	8.1
2025-01-05 13:21:43.603056	299.8	17.9	-91.0	8.3
2025-01-05 13:21:44.766280	299.6	17.8	-91.4	7.9
2025-01-05 13:21:45.928525	299.4	17.7	-91.6	2.7
2025-01-05 13:21:47.089503	299.2	17.6	-91.5	3.8
2025-01-05 13:21:48.251372	299.0	17.6	-91.2	6.8
2025-01-05 13:21:49.415646	298.9	17.5	-89.6	6.7
2025-01-05 13:21:50.582656	298.7	17.4	-90.8	11.6
2025-01-05 13:21:51.751112	298.5	17.3	-91.1	8.6
2025-01-05 13:21:52.914595	298.3	17.2	-91.6	7.6
2025-01-05 13:21:54.077366	298.1	17.1	-91.5	7.4
2025-01-05 13:21:55.239752	297.9	17.0	-91.6	8.2
2025-01-05 13:21:56.406317	297.7	16.9	-91.3	6.2
2025-01-05 13:21:57.569823	297.6	16.8	-90.9	7.6
2025-01-05 13:21:58.736590	297.4	16.7	-91.2	6.8
2025-01-05 13:21:59.900091	297.2	16.6	-91.3	8.6
2025-01-05 13:22:01.055650	297.0	16.5	-91.2	6.4
2025-01-05 13:22:02.207366	296.8	16.4	-91.7	4.9
2025-01-05 13:22:03.370894	296.7	16.3	-90.9	3.3
2025-01-05 13:22:04.535769	296.5	16.3	-90.9	5.0
2025-01-05 13:22:05.701775	296.3	16.2	-90.9	4.7
2025-01-05 13:22:06.864622	296.1	16.1	-91.2	6.7
2025-01-05 13:22:08.031529	296.0	16.0	-90.8	2.8
2025-01-05 13:22:09.192774	295.8	15.9	-91.3	6.2
2025-01-05 13:22:10.356824	295.6	15.8	-90.9	6.0
2025-01-05 13:22:11.526269	295.5	15.7	-90.7	9.1
2025-01-05 13:22:12.686399	295.3	15.6	-91.0	8.1
2025-01-05 13:22:13.861476	295.1	15.5	-91.6	4.8
2025-01-05 13:22:15.025779	295.0	15.4	-91.4	6.8
2025-01-05 13:22:16.189672	294.8	15.3	-91.7	8.4
2025-01-05 13:22:17.355326	294.6	15.2	-90.8	6.5
2025-01-05 13:22:18.519780	294.5	15.1	-90.7	4.4
2025-01-05 13:22:19.689365	294.3	15.1	-91.0	8.6
2025-01-05 13:22:20.853435	294.1	15.0	-90.8	5.6
2025-01-05 13:22:22.017639	294.0	14.9	-91.0	9.4
2025-01-05 13:22:23.175781	293.8	14.8	-87.3	5.7
2025-01-05 13:22:24.337420	293.7	14.7	-90.4	4.0
2025-01-05 13:22:25.492708	293.5	14.6	-91.0	7.2
#Closed at: 2025-01-05 13:15:31.245577