passes_logs/2025/01/05/LEX_Murmansk/LEX_Murmansk__20250105_195421_NOAA_18_rec.log

#Pass ID: 20250105_195421_NOAA 18
#Satellite: NOAA 18
#Configuration: NOAA 18
#Start time: 2025-01-05 19:54:16.884512

#LorettStation: 1.0.0 05.05.2024
#Station: LEX_Murmansk
#Location: 33.156738 lon 68.926811 lat
#TLE: 1 28654U 05018A   25004.89869685  .00000615  00000+0  35035-3 0  9999
#TLE: 2 28654  98.8582  86.0526 0013879 207.8923 152.1507 14.13477357 11671

#Time	Az	El	Level	SNR
2025-01-05 19:54:29.099831	185.0	16.2	-90.5	6.4
2025-01-05 19:54:31.397143	185.2	16.5	-90.1	6.7
2025-01-05 19:54:33.702884	185.4	16.7	-90.5	8.9
2025-01-05 19:54:36.003955	185.6	17.0	-90.3	7.6
2025-01-05 19:54:38.307912	185.7	17.2	-90.0	3.9
2025-01-05 19:54:40.602971	185.9	17.5	-90.8	5.7
2025-01-05 19:54:42.904675	186.1	17.7	-90.4	6.7
2025-01-05 19:54:45.204175	186.3	18.0	-90.2	5.1
2025-01-05 19:54:47.501401	186.5	18.2	-90.6	5.0
2025-01-05 19:54:49.805518	186.7	18.5	-90.4	5.7
2025-01-05 19:54:52.100786	186.9	18.7	-90.6	4.4
2025-01-05 19:54:54.398171	187.1	19.0	-91.0	5.9
2025-01-05 19:54:56.692216	187.3	19.3	-91.0	5.0
2025-01-05 19:54:58.985761	187.5	19.5	-90.6	4.8
2025-01-05 19:55:01.270110	187.7	19.8	-90.5	11.8
2025-01-05 19:55:03.566422	187.9	20.1	-91.0	10.5
2025-01-05 19:55:05.869595	188.1	20.3	-91.0	7.1
2025-01-05 19:55:08.166083	188.3	20.6	-90.8	4.1
2025-01-05 19:55:10.450276	188.6	20.9	-90.9	4.7
2025-01-05 19:55:12.748122	188.8	21.2	-90.8	6.1
2025-01-05 19:55:15.042700	189.0	21.5	-90.6	4.8
2025-01-05 19:55:17.334959	189.3	21.7	-90.5	6.8
2025-01-05 19:55:19.635126	189.5	22.0	-91.5	8.6
2025-01-05 19:55:21.924229	189.8	22.3	-91.1	9.1
2025-01-05 19:55:24.214457	190.0	22.6	-90.4	8.7
2025-01-05 19:55:26.509265	190.3	22.9	-91.0	8.8
2025-01-05 19:55:28.808833	190.5	23.2	-91.1	10.2
2025-01-05 19:55:31.105354	190.8	23.5	-90.3	3.8
2025-01-05 19:55:33.397864	191.0	23.8	-91.2	12.2
2025-01-05 19:55:35.693205	191.3	24.1	-90.9	7.5
2025-01-05 19:55:37.988100	191.6	24.4	-90.9	7.4
2025-01-05 19:55:40.285127	191.9	24.8	-90.9	11.3
2025-01-05 19:55:42.587047	192.2	25.1	-91.0	9.7
2025-01-05 19:55:44.887837	192.5	25.4	-90.8	7.4
2025-01-05 19:55:47.183172	192.8	25.7	-90.7	6.5
2025-01-05 19:55:49.479483	193.1	26.1	-90.8	6.9
2025-01-05 19:55:51.787111	193.4	26.4	-91.0	10.8
2025-01-05 19:55:54.078452	193.7	26.7	-90.8	9.5
2025-01-05 19:55:56.377760	194.0	27.1	-90.9	11.9
2025-01-05 19:55:58.676187	194.4	27.4	-90.7	12.2
2025-01-05 19:56:00.965028	194.7	27.7	-90.7	11.5
2025-01-05 19:56:03.262370	195.1	28.1	-90.9	9.9
2025-01-05 19:56:05.557239	195.4	28.4	-91.0	3.6
2025-01-05 19:56:07.854588	195.8	28.8	-91.0	8.9
2025-01-05 19:56:10.165003	196.1	29.2	-90.5	12.9
2025-01-05 19:56:12.460844	196.5	29.5	-91.3	10.2
2025-01-05 19:56:14.776627	196.9	29.9	-91.2	7.0
2025-01-05 19:56:17.067658	197.3	30.2	-90.9	6.1
2025-01-05 19:56:19.358464	197.7	30.6	-90.7	6.3
2025-01-05 19:56:21.663743	198.1	31.0	-90.3	8.6
2025-01-05 19:56:23.965020	198.5	31.4	-90.6	4.6
2025-01-05 19:56:26.262373	199.0	31.7	-90.4	7.7
2025-01-05 19:56:28.561434	199.4	32.1	-90.7	8.3
2025-01-05 19:56:30.861251	199.9	32.5	-90.7	5.8
2025-01-05 19:56:33.153003	200.3	32.9	-90.6	5.4
2025-01-05 19:56:35.449514	200.8	33.3	-89.8	5.5
2025-01-05 19:56:37.748526	201.3	33.7	-90.3	7.5
2025-01-05 19:56:40.053254	201.8	34.1	-90.8	5.2
2025-01-05 19:56:42.351577	202.3	34.5	-90.4	7.3
2025-01-05 19:56:44.655469	202.8	34.9	-91.1	6.4
2025-01-05 19:56:46.948537	203.3	35.3	-90.8	10.9
2025-01-05 19:56:49.236502	203.9	35.7	-90.8	12.3
2025-01-05 19:56:51.533725	204.4	36.1	-90.8	12.3
2025-01-05 19:56:53.832392	205.0	36.5	-91.0	12.8
2025-01-05 19:56:56.130161	205.6	36.9	-90.7	8.8
2025-01-05 19:56:58.428679	206.2	37.3	-90.6	10.8
2025-01-05 19:57:00.716925	206.8	37.8	-90.7	13.0
2025-01-05 19:57:03.015783	207.5	38.2	-91.0	8.0
2025-01-05 19:57:05.321911	208.1	38.6	-90.7	8.7
2025-01-05 19:57:07.620170	208.8	39.0	-90.9	3.6
2025-01-05 19:57:09.911547	209.5	39.4	-91.1	10.1
2025-01-05 19:57:12.213685	210.2	39.9	-90.9	17.0
2025-01-05 19:57:15.198035	211.1	40.4	-90.8	10.8
2025-01-05 19:57:17.490502	211.8	40.8	-90.8	8.8
2025-01-05 19:57:19.780811	212.6	41.2	-91.2	11.8
2025-01-05 19:57:22.076110	213.4	41.7	-90.9	12.9
2025-01-05 19:57:24.372093	214.2	42.1	-90.7	11.6
2025-01-05 19:57:26.668922	215.0	42.5	-91.0	9.7
2025-01-05 19:57:28.967139	215.9	42.9	-91.5	6.4
2025-01-05 19:57:31.262426	216.7	43.3	-90.6	10.0
2025-01-05 19:57:33.561752	217.6	43.7	-90.5	7.6
2025-01-05 19:57:35.857754	218.5	44.1	-90.6	9.2
2025-01-05 19:57:38.152882	219.4	44.5	-90.0	8.6
2025-01-05 19:57:40.444174	220.4	44.9	-90.9	6.2
2025-01-05 19:57:42.745321	221.4	45.3	-89.8	6.4
2025-01-05 19:57:45.042574	222.4	45.7	-90.3	5.5
2025-01-05 19:57:47.341876	223.4	46.1	-90.2	5.7
2025-01-05 19:57:49.634882	224.5	46.5	-90.5	9.4
2025-01-05 19:57:51.939663	225.6	46.9	-90.8	11.8
2025-01-05 19:57:54.230685	226.7	47.2	-90.1	12.8
2025-01-05 19:57:56.532974	227.8	47.6	-90.8	8.7
2025-01-05 19:57:58.828455	228.9	47.9	-91.0	14.6
2025-01-05 19:58:01.119872	230.1	48.2	-90.8	8.5
2025-01-05 19:58:03.418650	231.3	48.6	-90.7	6.0
2025-01-05 19:58:05.717188	232.5	48.9	-91.3	12.5
2025-01-05 19:58:08.018897	233.8	49.2	-91.3	10.1
2025-01-05 19:58:10.319195	235.1	49.4	-91.0	12.5
2025-01-05 19:58:12.612174	236.4	49.7	-90.9	6.0
2025-01-05 19:58:14.910105	237.7	50.0	-88.5	3.6
2025-01-05 19:58:17.210590	239.0	50.2	-91.2	10.1
2025-01-05 19:58:19.514541	240.4	50.4	-91.4	5.0
2025-01-05 19:58:21.805412	241.8	50.7	-91.4	6.1
2025-01-05 19:58:24.108939	243.2	50.9	-91.0	3.7
2025-01-05 19:58:26.409619	244.6	51.0	-90.9	2.6
2025-01-05 19:58:28.712255	246.1	51.2	-91.3	8.8
2025-01-05 19:58:31.012187	247.5	51.3	-90.8	10.4
2025-01-05 19:58:33.303910	249.0	51.5	-90.2	12.8
2025-01-05 19:58:35.608027	250.4	51.6	-90.8	8.1
2025-01-05 19:58:37.907282	251.9	51.6	-90.8	19.2
2025-01-05 19:58:40.153633	253.4	51.7	-90.6	10.0
2025-01-05 19:58:42.393617	254.8	51.7	-90.6	24.7
2025-01-05 19:58:44.634839	256.3	51.8	-91.1	8.7
2025-01-05 19:58:46.891231	257.8	51.8	-91.2	17.1
2025-01-05 19:58:49.204895	259.3	51.8	-91.0	20.7
2025-01-05 19:58:51.503657	260.8	51.7	-90.5	15.4
2025-01-05 19:58:53.794892	262.3	51.7	-91.4	22.3
2025-01-05 19:58:56.095894	263.8	51.6	-90.5	17.7
2025-01-05 19:58:58.388223	265.2	51.5	-90.2	17.3
2025-01-05 19:59:00.672249	266.7	51.4	-91.0	13.2
2025-01-05 19:59:02.976317	268.2	51.3	-91.0	20.5
2025-01-05 19:59:05.266886	269.6	51.1	-91.2	20.1
2025-01-05 19:59:07.558760	271.0	51.0	-91.3	19.6
2025-01-05 19:59:09.854788	272.4	50.8	-91.2	23.1
2025-01-05 19:59:12.154043	273.8	50.6	-91.1	16.3
2025-01-05 19:59:14.451421	275.2	50.4	-91.0	12.1
2025-01-05 19:59:16.739030	276.5	50.1	-91.2	16.6
2025-01-05 19:59:19.019194	277.9	49.9	-92.0	11.4
2025-01-05 19:59:21.319997	279.2	49.6	-91.3	14.8
2025-01-05 19:59:23.618029	280.5	49.3	-91.8	9.6
2025-01-05 19:59:25.916307	281.7	49.0	-91.5	6.7
2025-01-05 19:59:28.217755	283.0	48.7	-91.4	14.1
2025-01-05 19:59:30.507109	284.2	48.4	-91.3	15.3
2025-01-05 19:59:32.799702	285.4	48.1	-91.0	8.0
2025-01-05 19:59:35.105759	286.6	47.8	-90.8	7.2
2025-01-05 19:59:37.404204	287.7	47.4	-90.7	12.2
2025-01-05 19:59:39.703659	288.8	47.1	-91.4	15.5
2025-01-05 19:59:42.001771	289.9	46.7	-91.0	14.7
2025-01-05 19:59:44.289355	291.0	46.3	-90.9	14.8
2025-01-05 19:59:46.587533	292.0	46.0	-91.5	11.9
2025-01-05 19:59:48.886139	293.0	45.6	-91.5	14.4
2025-01-05 19:59:51.174956	294.0	45.2	-91.1	14.7
2025-01-05 19:59:53.493846	295.0	44.8	-91.2	11.4
2025-01-05 19:59:55.790174	296.0	44.4	-91.3	12.7
2025-01-05 19:59:58.091546	296.9	44.0	-91.3	11.9
2025-01-05 20:00:00.374795	297.8	43.6	-90.9	18.2
2025-01-05 20:00:02.669105	298.7	43.2	-90.8	12.2
2025-01-05 20:00:04.962118	299.5	42.8	-91.3	11.8
2025-01-05 20:00:07.256070	300.3	42.3	-90.6	16.3
2025-01-05 20:00:09.544608	301.2	41.9	-91.0	11.4
2025-01-05 20:00:11.839921	301.9	41.5	-91.2	18.0
2025-01-05 20:00:14.141527	302.7	41.1	-90.9	6.5
2025-01-05 20:00:16.440814	303.5	40.7	-91.0	10.7
2025-01-05 20:00:18.748799	304.2	40.2	-90.9	18.2
2025-01-05 20:00:21.047917	304.9	39.8	-91.2	12.1
2025-01-05 20:00:23.348713	305.6	39.4	-90.7	18.4
2025-01-05 20:00:25.649366	306.3	39.0	-91.5	8.0
2025-01-05 20:00:27.944114	307.0	38.6	-91.3	9.0
2025-01-05 20:00:30.239486	307.6	38.1	-91.1	9.2
2025-01-05 20:00:32.534223	308.3	37.7	-91.2	8.3
2025-01-05 20:00:34.826571	308.9	37.3	-91.2	10.1
2025-01-05 20:00:37.119556	309.5	36.9	-90.9	5.6
2025-01-05 20:00:39.413810	310.1	36.5	-90.3	6.7
2025-01-05 20:00:41.706888	310.6	36.1	-91.0	11.8
2025-01-05 20:00:44.010652	311.2	35.7	-91.0	6.8
2025-01-05 20:00:46.304318	311.7	35.3	-89.8	10.9
2025-01-05 20:00:48.595009	312.3	34.9	-91.4	18.0
2025-01-05 20:00:50.896615	312.8	34.5	-91.1	16.6
2025-01-05 20:00:53.187884	313.3	34.1	-90.5	14.3
2025-01-05 20:00:55.486077	313.8	33.7	-90.6	12.7
2025-01-05 20:00:57.786439	314.3	33.3	-91.3	6.6
2025-01-05 20:01:00.087410	314.7	32.9	-90.9	10.7
2025-01-05 20:01:02.379198	315.2	32.5	-90.5	16.1
2025-01-05 20:01:04.687001	315.6	32.1	-91.0	13.7
2025-01-05 20:01:06.980731	316.1	31.7	-90.9	16.1
2025-01-05 20:01:09.282763	316.5	31.3	-90.4	12.0
2025-01-05 20:01:11.579332	316.9	31.0	-90.6	9.1
2025-01-05 20:01:13.885699	317.4	30.6	-90.3	10.3
2025-01-05 20:01:16.189942	317.8	30.2	-90.5	8.4
2025-01-05 20:01:18.487744	318.2	29.9	-90.7	6.2
2025-01-05 20:01:20.784231	318.5	29.5	-90.6	11.4
2025-01-05 20:01:23.091308	318.9	29.1	-90.5	8.1
2025-01-05 20:01:25.398379	319.3	28.8	-90.9	12.6
2025-01-05 20:01:27.691649	319.7	28.4	-90.3	17.6
2025-01-05 20:01:29.990401	320.0	28.1	-91.1	7.5
2025-01-05 20:01:32.288347	320.4	27.7	-90.5	11.7
2025-01-05 20:01:34.581984	320.7	27.4	-90.9	7.1
2025-01-05 20:01:36.875572	321.0	27.1	-90.9	12.9
2025-01-05 20:01:39.166926	321.3	26.7	-90.3	10.1
2025-01-05 20:01:41.461155	321.7	26.4	-90.2	6.1
2025-01-05 20:01:43.757194	322.0	26.1	-89.8	14.7
2025-01-05 20:01:46.050708	322.3	25.7	-90.2	6.7
2025-01-05 20:01:48.348758	322.6	25.4	-90.3	8.0
2025-01-05 20:01:50.639493	322.9	25.1	-90.1	5.5
2025-01-05 20:01:52.934707	323.2	24.8	-91.0	7.8
2025-01-05 20:01:55.236416	323.5	24.4	-90.4	6.9
2025-01-05 20:01:57.532075	323.7	24.1	-90.9	9.2
2025-01-05 20:01:59.830084	324.0	23.8	-90.5	6.3
2025-01-05 20:02:02.125864	324.3	23.5	-90.6	8.1
2025-01-05 20:02:04.417511	324.5	23.2	-90.8	5.2
2025-01-05 20:02:06.711584	324.8	22.9	-90.6	8.8
2025-01-05 20:02:09.007561	325.1	22.6	-90.6	5.4
2025-01-05 20:02:11.305648	325.3	22.3	-90.0	8.2
2025-01-05 20:02:13.600554	325.5	22.0	-90.4	10.0
2025-01-05 20:02:15.898595	325.8	21.7	-91.1	7.0
2025-01-05 20:02:18.191710	326.0	21.5	-90.1	14.6
2025-01-05 20:02:20.496237	326.3	21.2	-90.9	9.1
2025-01-05 20:02:22.791592	326.5	20.9	-90.2	8.7
2025-01-05 20:02:25.083282	326.7	20.6	-91.1	5.4
2025-01-05 20:02:27.380192	326.9	20.3	-90.9	3.4
2025-01-05 20:02:29.674563	327.2	20.1	-90.4	4.1
2025-01-05 20:02:31.973014	327.4	19.8	-90.3	3.1
2025-01-05 20:02:34.273744	327.6	19.5	-90.7	3.9
2025-01-05 20:02:36.574861	327.8	19.3	-89.6	6.0
2025-01-05 20:02:38.867342	328.0	19.0	-90.9	3.3
2025-01-05 20:02:41.162451	328.2	18.7	-90.8	5.8
2025-01-05 20:02:43.464059	328.4	18.5	-89.7	3.4
2025-01-05 20:02:45.757542	328.6	18.2	-90.0	6.4
2025-01-05 20:02:48.055503	328.8	18.0	-90.0	2.3
2025-01-05 20:02:50.352748	329.0	17.7	-91.1	4.2
2025-01-05 20:02:52.653509	329.1	17.5	-91.3	4.1
2025-01-05 20:02:54.945144	329.3	17.2	-91.2	5.6
2025-01-05 20:02:57.234233	329.5	17.0	-91.0	4.0
2025-01-05 20:02:59.534504	329.7	16.7	-91.1	4.8
2025-01-05 20:03:01.824871	329.9	16.5	-91.1	5.6
2025-01-05 20:03:04.120377	330.0	16.3	-90.5	8.2
2025-01-05 20:03:06.416192	330.2	16.0	-90.6	4.8
2025-01-05 20:03:08.714338	330.4	15.8	-91.4	6.9
2025-01-05 20:03:11.016292	330.5	15.6	-90.7	3.6
2025-01-05 20:03:13.316754	330.7	15.3	-90.7	4.9
2025-01-05 20:03:15.608050	330.8	15.1	-90.7	4.8
2025-01-05 20:03:17.909324	331.0	14.9	-91.2	4.7
2025-01-05 20:03:20.208279	331.2	14.6	-90.6	4.3
#Closed at: 2025-01-05 19:54:21.888869