passes_logs/2025/01/05/LEX_Murmansk/LEX_Murmansk__20250105_174601_NOAA_19_rec.log

#Pass ID: 20250105_174601_NOAA 19
#Satellite: NOAA 19
#Configuration: NOAA 19
#Start time: 2025-01-05 17:45:56.074690

#LorettStation: 1.0.0 05.05.2024
#Station: LEX_Murmansk
#Location: 33.156738 lon 68.926811 lat
#TLE: 1 33591U 09005A   25004.88002234  .00000560  00000+0  32285-3 0  9996
#TLE: 2 33591  99.0214  68.5635 0014675  84.4442 275.8403 14.13251363820110

#Time	Az	El	Level	SNR
2025-01-05 17:46:10.496537	154.3	16.6	-92.1	5.0
2025-01-05 17:46:12.814932	154.4	16.8	-91.8	4.8
2025-01-05 17:46:15.136391	154.4	17.1	-91.7	1.5
2025-01-05 17:46:17.464453	154.4	17.4	-92.0	1.0
2025-01-05 17:46:19.799074	154.4	17.7	-91.9	2.5
2025-01-05 17:46:22.131456	154.4	17.9	-92.0	3.1
2025-01-05 17:46:24.463424	154.5	18.2	-92.0	2.9
2025-01-05 17:46:26.792115	154.5	18.5	-92.3	3.4
2025-01-05 17:46:29.118023	154.5	18.8	-91.9	1.3
2025-01-05 17:46:31.443467	154.5	19.1	-92.2	2.5
2025-01-05 17:46:33.757853	154.6	19.4	-92.3	2.9
2025-01-05 17:46:36.091460	154.6	19.7	-91.8	5.9
2025-01-05 17:46:38.416020	154.6	20.0	-91.7	3.3
2025-01-05 17:46:40.740522	154.6	20.3	-92.2	4.6
2025-01-05 17:46:43.071583	154.7	20.6	-91.2	4.7
2025-01-05 17:46:45.405488	154.7	20.9	-91.7	1.4
2025-01-05 17:46:47.729921	154.7	21.2	-91.3	0.6
2025-01-05 17:46:50.063110	154.7	21.5	-92.1	2.3
2025-01-05 17:46:52.392829	154.8	21.8	-92.3	7.0
2025-01-05 17:46:54.720020	154.8	22.2	-92.4	2.3
2025-01-05 17:46:57.049318	154.8	22.5	-91.8	8.2
2025-01-05 17:46:59.372437	154.8	22.8	-92.3	5.8
2025-01-05 17:47:01.685352	154.9	23.2	-92.1	2.9
2025-01-05 17:47:04.007281	154.9	23.5	-92.4	2.9
2025-01-05 17:47:06.335185	154.9	23.9	-92.2	4.6
2025-01-05 17:47:08.669695	154.9	24.2	-92.3	3.7
2025-01-05 17:47:11.000967	155.0	24.6	-92.4	8.4
2025-01-05 17:47:13.327301	155.0	24.9	-92.1	6.8
2025-01-05 17:47:15.659643	155.0	25.3	-92.3	2.7
2025-01-05 17:47:17.983123	155.1	25.7	-92.1	7.2
2025-01-05 17:47:20.313752	155.1	26.1	-91.9	2.0
2025-01-05 17:47:22.638353	155.1	26.5	-91.6	4.4
2025-01-05 17:47:24.985824	155.2	26.8	-91.4	7.3
2025-01-05 17:47:27.305043	155.2	27.2	-91.2	2.2
2025-01-05 17:47:29.633221	155.2	27.6	-92.3	5.1
2025-01-05 17:47:31.963194	155.3	28.0	-92.1	15.1
2025-01-05 17:47:34.294982	155.3	28.5	-91.9	3.3
2025-01-05 17:47:36.619479	155.3	28.9	-92.0	2.8
2025-01-05 17:47:38.946181	155.4	29.3	-92.1	5.2
2025-01-05 17:47:41.264789	155.4	29.7	-92.0	4.1
2025-01-05 17:47:43.594318	155.4	30.2	-92.1	13.1
2025-01-05 17:47:45.928325	155.5	30.6	-92.2	7.0
2025-01-05 17:47:48.251235	155.5	31.1	-91.9	13.2
2025-01-05 17:47:50.577395	155.6	31.5	-92.3	7.5
2025-01-05 17:47:52.880279	155.6	32.0	-92.0	5.4
2025-01-05 17:47:55.202888	155.6	32.5	-91.8	3.3
2025-01-05 17:47:57.519956	155.7	33.0	-92.3	2.5
2025-01-05 17:47:59.849776	155.7	33.4	-92.5	10.8
2025-01-05 17:48:02.163410	155.8	33.9	-91.6	9.3
2025-01-05 17:48:04.493112	155.8	34.4	-92.3	13.8
2025-01-05 17:48:06.822657	155.9	35.0	-92.3	7.7
2025-01-05 17:48:09.150629	155.9	35.5	-91.6	5.8
2025-01-05 17:48:11.478398	156.0	36.0	-92.2	5.1
2025-01-05 17:48:13.807134	156.0	36.6	-92.3	8.3
2025-01-05 17:48:16.136545	156.1	37.1	-92.1	11.0
2025-01-05 17:48:18.447656	156.1	37.7	-91.9	6.6
2025-01-05 17:48:20.776010	156.2	38.2	-92.4	8.1
2025-01-05 17:48:23.107908	156.2	38.8	-92.2	7.3
2025-01-05 17:48:25.449798	156.3	39.4	-92.2	7.3
2025-01-05 17:48:27.772027	156.4	40.0	-92.3	2.1
2025-01-05 17:48:30.101437	156.4	40.6	-92.1	4.1
2025-01-05 17:48:32.427180	156.5	41.2	-92.4	6.8
2025-01-05 17:48:34.754711	156.5	41.9	-92.6	9.9
2025-01-05 17:48:37.086364	156.6	42.5	-92.2	7.4
2025-01-05 17:48:39.404387	156.7	43.1	-92.5	6.7
2025-01-05 17:48:41.736334	156.8	43.8	-92.5	9.0
2025-01-05 17:48:44.059799	156.8	44.5	-92.2	13.8
2025-01-05 17:48:46.384036	156.9	45.2	-92.7	9.8
2025-01-05 17:48:48.706168	157.0	45.9	-92.6	1.1
2025-01-05 17:48:51.033101	157.1	46.6	-92.5	7.0
2025-01-05 17:48:53.360649	157.2	47.3	-91.9	11.3
2025-01-05 17:48:55.683060	157.3	48.0	-92.5	12.8
2025-01-05 17:48:58.007905	157.4	48.8	-92.6	8.6
2025-01-05 17:49:00.328025	157.5	49.5	-92.3	7.1
2025-01-05 17:49:02.645946	157.6	50.3	-92.8	11.8
2025-01-05 17:49:04.980454	157.7	51.1	-92.6	12.6
2025-01-05 17:49:07.314049	157.8	51.9	-92.0	4.3
2025-01-05 17:49:09.653081	157.9	52.7	-92.2	5.2
2025-01-05 17:49:11.976040	158.1	53.5	-92.4	7.7
2025-01-05 17:49:14.286899	158.2	54.4	-92.1	13.6
2025-01-05 17:49:16.596211	158.4	55.2	-92.6	10.2
2025-01-05 17:49:18.848265	158.5	56.0	-92.3	6.6
2025-01-05 17:49:21.088696	158.7	56.9	-92.2	9.1
2025-01-05 17:49:23.330517	158.8	57.7	-92.3	7.0
2025-01-05 17:49:25.571308	159.0	58.6	-92.9	7.0
2025-01-05 17:49:27.843716	159.2	59.5	-92.9	13.0
2025-01-05 17:49:30.164670	159.4	60.4	-92.6	8.6
2025-01-05 17:49:32.491120	159.6	61.4	-92.5	3.5
2025-01-05 17:49:34.824119	159.9	62.3	-91.4	3.5
2025-01-05 17:49:37.147373	160.1	63.3	-91.1	9.3
2025-01-05 17:49:39.467994	160.4	64.3	-91.5	17.4
2025-01-05 17:49:41.798752	160.7	65.3	-92.0	7.6
2025-01-05 17:49:44.124836	161.1	66.3	-91.4	13.4
2025-01-05 17:49:46.453118	161.4	67.3	-92.6	5.1
2025-01-05 17:49:48.772482	161.8	68.4	-92.1	8.4
2025-01-05 17:49:51.099977	162.3	69.4	-92.6	17.7
2025-01-05 17:49:53.425958	162.8	70.4	-92.5	16.2
2025-01-05 17:49:55.758031	163.4	71.5	-92.8	19.1
2025-01-05 17:49:58.075535	164.0	72.6	-92.4	16.0
2025-01-05 17:50:00.394800	164.7	73.7	-92.6	10.3
2025-01-05 17:50:02.715770	165.5	74.7	-92.6	4.2
2025-01-05 17:50:05.042745	166.5	75.8	-92.0	7.5
2025-01-05 17:50:07.360598	167.6	76.9	-92.5	6.1
2025-01-05 17:50:09.679806	168.9	78.0	-92.3	8.9
2025-01-05 17:50:12.006731	170.5	79.1	-92.5	17.9
2025-01-05 17:50:14.328565	172.5	80.2	-91.7	12.5
2025-01-05 17:50:16.654360	174.9	81.3	-91.8	18.4
2025-01-05 17:50:18.974556	178.1	82.4	-91.8	19.3
2025-01-05 17:50:21.291804	182.3	83.4	-91.6	10.1
2025-01-05 17:50:23.619563	188.0	84.4	-91.6	13.9
2025-01-05 17:50:25.946397	196.2	85.3	-91.5	11.6
2025-01-05 17:50:28.259850	207.9	86.1	-91.7	6.9
2025-01-05 17:50:30.587286	224.6	86.7	-91.5	14.7
2025-01-05 17:50:32.915362	245.4	86.9	-91.6	14.3
2025-01-05 17:50:35.253812	265.9	86.6	-92.4	16.4
2025-01-05 17:50:37.571557	281.9	86.0	-92.5	19.4
2025-01-05 17:50:39.899421	293.1	85.2	-92.8	18.9
2025-01-05 17:50:42.219624	300.8	84.3	-91.0	18.8
2025-01-05 17:50:44.541346	306.3	83.3	-91.5	21.1
2025-01-05 17:50:46.871634	310.4	82.2	-92.0	22.3
2025-01-05 17:50:49.186684	313.4	81.2	-91.5	18.7
2025-01-05 17:50:51.523141	315.8	80.1	-91.4	19.4
2025-01-05 17:50:53.852071	317.7	79.0	-91.8	19.5
2025-01-05 17:50:56.185093	319.3	77.9	-91.5	19.0
2025-01-05 17:50:58.508966	320.6	76.8	-91.6	19.3
2025-01-05 17:51:00.831485	321.7	75.7	-91.7	13.1
2025-01-05 17:51:03.160350	322.6	74.6	-91.5	20.3
2025-01-05 17:51:05.490278	323.4	73.5	-91.6	13.0
2025-01-05 17:51:07.814860	324.1	72.4	-92.1	5.2
2025-01-05 17:51:10.141726	324.8	71.4	-92.3	11.0
2025-01-05 17:51:12.465503	325.3	70.3	-92.6	5.1
2025-01-05 17:51:14.790873	325.8	69.2	-92.5	4.5
2025-01-05 17:51:17.119061	326.3	68.2	-92.5	10.5
2025-01-05 17:51:19.442782	326.7	67.2	-93.0	14.1
2025-01-05 17:51:21.769067	327.0	66.2	-92.7	16.2
2025-01-05 17:51:24.105025	327.3	65.2	-92.6	16.0
2025-01-05 17:51:26.436530	327.7	64.2	-92.9	10.8
2025-01-05 17:51:28.759793	327.9	63.2	-92.5	11.2
2025-01-05 17:51:31.080172	328.2	62.2	-92.6	13.9
2025-01-05 17:51:33.404288	328.4	61.3	-92.3	7.5
2025-01-05 17:51:35.730223	328.7	60.3	-92.7	3.7
2025-01-05 17:51:38.050692	328.9	59.4	-92.3	7.2
2025-01-05 17:51:40.373421	329.1	58.5	-92.1	7.2
2025-01-05 17:51:42.702187	329.2	57.6	-92.9	3.0
2025-01-05 17:51:45.022140	329.4	56.7	-92.9	7.6
2025-01-05 17:51:47.350278	329.6	55.8	-92.5	7.5
2025-01-05 17:51:49.676037	329.7	55.0	-92.6	3.9
2025-01-05 17:51:52.003648	329.9	54.1	-92.4	10.9
2025-01-05 17:51:54.326092	330.0	53.3	-92.2	8.1
2025-01-05 17:51:56.654542	330.1	52.5	-92.6	8.1
2025-01-05 17:51:58.976618	330.3	51.7	-92.6	12.9
2025-01-05 17:52:01.279662	330.4	50.9	-92.0	11.0
2025-01-05 17:52:03.608878	330.5	50.1	-92.5	3.5
2025-01-05 17:52:05.930570	330.6	49.3	-92.8	4.4
2025-01-05 17:52:08.259807	330.7	48.6	-92.3	4.2
2025-01-05 17:52:10.591640	330.8	47.8	-92.5	12.1
2025-01-05 17:52:12.919619	330.9	47.1	-93.1	5.2
2025-01-05 17:52:15.241704	331.0	46.4	-92.5	15.4
2025-01-05 17:52:17.569276	331.1	45.7	-92.5	18.8
2025-01-05 17:52:19.896138	331.1	45.0	-92.4	17.9
2025-01-05 17:52:22.228977	331.2	44.3	-92.3	11.2
2025-01-05 17:52:24.556894	331.3	43.6	-92.8	12.0
2025-01-05 17:52:26.883079	331.4	43.0	-92.7	9.2
2025-01-05 17:52:29.197975	331.4	42.3	-92.3	6.8
2025-01-05 17:52:31.521866	331.5	41.7	-92.6	12.2
2025-01-05 17:52:33.850161	331.6	41.1	-92.5	13.7
2025-01-05 17:52:36.173510	331.6	40.5	-91.9	13.8
2025-01-05 17:52:38.500290	331.7	39.9	-92.0	17.9
2025-01-05 17:52:40.824392	331.8	39.3	-92.4	16.1
2025-01-05 17:52:43.153804	331.8	38.7	-92.5	9.4
2025-01-05 17:52:45.479175	331.9	38.1	-92.4	11.1
2025-01-05 17:52:47.809449	331.9	37.6	-92.6	6.4
2025-01-05 17:52:50.136237	332.0	37.0	-92.4	8.6
2025-01-05 17:52:52.462453	332.0	36.5	-92.6	10.2
2025-01-05 17:52:54.786760	332.1	35.9	-92.4	12.6
2025-01-05 17:52:57.112749	332.1	35.4	-92.1	12.3
2025-01-05 17:52:59.434359	332.2	34.9	-92.4	6.2
2025-01-05 17:53:01.747573	332.2	34.4	-92.8	3.7
2025-01-05 17:53:04.076186	332.3	33.9	-92.1	6.4
2025-01-05 17:53:06.405470	332.3	33.4	-92.8	6.0
2025-01-05 17:53:08.738081	332.4	32.9	-92.7	5.2
2025-01-05 17:53:11.056672	332.4	32.4	-92.5	14.6
2025-01-05 17:53:13.376284	332.5	31.9	-92.4	8.1
2025-01-05 17:53:15.714772	332.5	31.5	-92.3	4.6
2025-01-05 17:53:18.033704	332.5	31.0	-92.5	14.8
2025-01-05 17:53:20.350715	332.6	30.6	-92.4	2.8
2025-01-05 17:53:22.674196	332.6	30.1	-92.7	12.0
2025-01-05 17:53:25.004908	332.7	29.7	-92.5	6.2
2025-01-05 17:53:27.325461	332.7	29.3	-92.0	17.7
2025-01-05 17:53:29.651499	332.7	28.8	-91.6	8.6
2025-01-05 17:53:31.962630	332.8	28.4	-91.4	4.2
2025-01-05 17:53:34.231209	332.8	28.0	-91.2	2.0
2025-01-05 17:53:36.471925	332.8	27.6	-92.7	6.8
2025-01-05 17:53:38.713303	332.9	27.2	-92.3	4.5
2025-01-05 17:53:40.955783	332.9	26.9	-92.6	6.9
2025-01-05 17:53:43.249174	332.9	26.5	-92.1	2.4
2025-01-05 17:53:45.576217	333.0	26.1	-92.4	8.3
2025-01-05 17:53:47.906478	333.0	25.7	-92.6	3.8
2025-01-05 17:53:50.237258	333.0	25.3	-92.2	3.9
2025-01-05 17:53:52.562859	333.1	25.0	-91.5	1.1
2025-01-05 17:53:54.879774	333.1	24.6	-91.8	3.9
2025-01-05 17:53:57.204892	333.1	24.3	-91.0	4.1
2025-01-05 17:53:59.521462	333.1	23.9	-91.9	5.7
2025-01-05 17:54:01.832311	333.2	23.6	-92.3	2.6
2025-01-05 17:54:04.160167	333.2	23.2	-92.6	5.3
2025-01-05 17:54:06.494322	333.2	22.9	-92.6	8.7
2025-01-05 17:54:08.823106	333.3	22.5	-92.5	14.1
2025-01-05 17:54:11.142202	333.3	22.2	-92.5	7.5
2025-01-05 17:54:13.470482	333.3	21.9	-92.7	9.7
2025-01-05 17:54:15.787100	333.3	21.6	-92.7	3.4
2025-01-05 17:54:18.110095	333.4	21.3	-92.9	9.6
2025-01-05 17:54:20.429037	333.4	20.9	-92.7	9.1
2025-01-05 17:54:22.754101	333.4	20.6	-92.9	4.3
2025-01-05 17:54:25.075187	333.4	20.3	-92.4	3.3
2025-01-05 17:54:27.395592	333.5	20.0	-92.5	0.4
2025-01-05 17:54:29.714321	333.5	19.7	-92.6	2.2
2025-01-05 17:54:32.039087	333.5	19.4	-92.3	1.7
2025-01-05 17:54:34.363532	333.5	19.1	-92.4	1.6
2025-01-05 17:54:36.688750	333.6	18.9	-92.3	2.5
2025-01-05 17:54:38.985806	333.6	18.6	-92.5	1.8
2025-01-05 17:54:41.229252	333.6	18.3	-92.2	2.4
2025-01-05 17:54:43.470560	333.6	18.0	-92.7	2.1
2025-01-05 17:54:45.711618	333.7	17.8	-92.5	1.7
2025-01-05 17:54:47.966004	333.7	17.5	-92.6	2.4
2025-01-05 17:54:50.267207	333.7	17.2	-92.2	5.3
2025-01-05 17:54:52.592957	333.7	17.0	-92.6	2.2
2025-01-05 17:54:54.920555	333.7	16.7	-92.5	1.2
2025-01-05 17:54:57.345498	333.8	16.4	-92.3	2.5
2025-01-05 17:54:59.667034	333.8	16.2	-92.9	2.5
2025-01-05 17:55:01.978884	333.8	15.9	-92.8	1.9
2025-01-05 17:55:04.299643	333.8	15.7	-92.6	2.0
2025-01-05 17:55:06.620893	333.9	15.4	-92.8	6.2
2025-01-05 17:55:08.941255	333.9	15.2	-92.8	5.6
2025-01-05 17:55:11.258169	333.9	14.9	-92.2	1.5
2025-01-05 17:55:13.583862	333.9	14.7	-92.7	2.4
2025-01-05 17:55:15.905156	333.9	14.4	-92.4	5.9
#Closed at: 2025-01-05 17:46:01.170609