passes_logs/2025/01/05/LEX_Murmansk/LEX_Murmansk__20250105_095407_NOAA_18_rec.log

#Pass ID: 20250105_095407_NOAA 18
#Satellite: NOAA 18
#Configuration: NOAA 18
#Start time: 2025-01-05 09:54:02.146404

#LorettStation: 1.0.0 05.05.2024
#Station: LEX_Murmansk
#Location: 33.156738 lon 68.926811 lat
#TLE: 1 28654U 05018A   25004.89869685  .00000615  00000+0  35035-3 0  9999
#TLE: 2 28654  98.8582  86.0526 0013879 207.8923 152.1507 14.13477357 11671

#Time	Az	El	Level	SNR
2025-01-05 09:54:14.276156	26.0	16.3	-92.5	5.7
2025-01-05 09:54:16.607303	26.0	16.6	-93.0	5.4
2025-01-05 09:54:18.935096	26.0	16.8	-92.7	5.8
2025-01-05 09:54:21.257423	26.1	17.1	-92.6	8.6
2025-01-05 09:54:23.579500	26.1	17.3	-93.0	10.5
2025-01-05 09:54:25.908718	26.1	17.6	-92.9	10.3
2025-01-05 09:54:28.240859	26.2	17.9	-92.6	12.7
2025-01-05 09:54:30.565219	26.2	18.2	-93.1	11.9
2025-01-05 09:54:32.902571	26.2	18.4	-93.1	12.9
2025-01-05 09:54:35.230656	26.3	18.7	-92.5	11.1
2025-01-05 09:54:37.558972	26.3	19.0	-93.2	10.5
2025-01-05 09:54:39.879479	26.3	19.3	-92.9	10.4
2025-01-05 09:54:42.216894	26.4	19.6	-92.8	11.6
2025-01-05 09:54:44.551147	26.4	19.9	-92.9	13.5
2025-01-05 09:54:46.883040	26.5	20.2	-93.1	11.3
2025-01-05 09:54:49.200525	26.5	20.5	-92.4	8.6
2025-01-05 09:54:51.528396	26.5	20.8	-93.3	6.6
2025-01-05 09:54:53.863273	26.6	21.1	-92.9	16.6
2025-01-05 09:54:56.193855	26.6	21.4	-92.7	15.8
2025-01-05 09:54:58.526109	26.7	21.7	-93.3	10.6
2025-01-05 09:55:00.843117	26.7	22.0	-93.1	16.2
2025-01-05 09:55:03.158448	26.7	22.3	-92.9	14.1
2025-01-05 09:55:05.490992	26.8	22.7	-93.1	5.3
2025-01-05 09:55:07.816158	26.8	23.0	-93.3	10.6
2025-01-05 09:55:10.143314	26.9	23.3	-92.7	12.0
2025-01-05 09:55:12.467625	26.9	23.7	-93.2	15.7
2025-01-05 09:55:14.803969	27.0	24.0	-92.8	13.8
2025-01-05 09:55:17.138000	27.0	24.4	-92.9	14.8
2025-01-05 09:55:19.467477	27.1	24.7	-93.2	11.9
2025-01-05 09:55:21.800077	27.1	25.1	-92.7	15.6
2025-01-05 09:55:24.129082	27.2	25.4	-92.8	7.3
2025-01-05 09:55:26.454574	27.2	25.8	-89.4	9.0
2025-01-05 09:55:28.792099	27.3	26.2	-93.0	12.8
2025-01-05 09:55:31.111303	27.3	26.6	-92.9	7.4
2025-01-05 09:55:33.440242	27.4	26.9	-93.0	8.0
2025-01-05 09:55:35.777415	27.4	27.3	-93.3	5.1
2025-01-05 09:55:38.110364	27.5	27.7	-92.6	4.5
2025-01-05 09:55:40.427273	27.5	28.1	-92.9	2.1
2025-01-05 09:55:42.756480	27.6	28.5	-93.3	7.7
2025-01-05 09:55:45.092578	27.7	29.0	-92.9	7.8
2025-01-05 09:55:47.425559	27.7	29.4	-93.1	9.0
2025-01-05 09:55:49.754931	27.8	29.8	-93.4	5.0
2025-01-05 09:55:52.080572	27.9	30.2	-93.0	3.9
2025-01-05 09:55:54.410706	27.9	30.7	-93.2	8.8
2025-01-05 09:55:56.737952	28.0	31.1	-92.9	9.6
2025-01-05 09:55:59.069829	28.1	31.6	-93.0	9.7
2025-01-05 09:56:01.389416	28.1	32.0	-93.2	15.0
2025-01-05 09:56:03.713866	28.2	32.5	-92.8	11.3
2025-01-05 09:56:06.048418	28.3	33.0	-93.0	9.8
2025-01-05 09:56:08.379839	28.3	33.4	-93.0	12.0
2025-01-05 09:56:10.708794	28.4	33.9	-93.2	10.8
2025-01-05 09:56:13.037669	28.5	34.4	-93.2	6.7
2025-01-05 09:56:15.371481	28.6	34.9	-92.9	12.6
2025-01-05 09:56:17.706182	28.7	35.4	-93.2	15.8
2025-01-05 09:56:20.023629	28.8	36.0	-93.2	17.1
2025-01-05 09:56:22.280835	28.8	36.5	-92.5	12.5
2025-01-05 09:56:24.598660	28.9	37.0	-93.1	16.6
2025-01-05 09:56:26.927397	29.0	37.5	-93.1	20.5
2025-01-05 09:56:29.257374	29.1	38.1	-92.8	15.6
2025-01-05 09:56:31.579143	29.2	38.7	-92.9	8.8
2025-01-05 09:56:33.913557	29.3	39.2	-92.6	12.0
2025-01-05 09:56:36.242338	29.4	39.8	-92.5	17.5
2025-01-05 09:56:38.569979	29.5	40.4	-93.2	19.7
2025-01-05 09:56:40.900576	29.7	41.0	-92.7	22.0
2025-01-05 09:56:43.232831	29.8	41.6	-92.7	17.0
2025-01-05 09:56:45.566918	29.9	42.2	-92.4	19.0
2025-01-05 09:56:47.899334	30.0	42.9	-92.4	16.7
2025-01-05 09:56:50.224060	30.2	43.5	-92.9	18.8
2025-01-05 09:56:52.554813	30.3	44.2	-93.1	13.4
2025-01-05 09:56:54.879859	30.4	44.8	-93.1	19.9
2025-01-05 09:56:57.211024	30.6	45.5	-92.5	19.0
2025-01-05 09:56:59.543187	30.7	46.2	-93.3	10.7
2025-01-05 09:57:01.858008	30.9	46.9	-93.4	12.9
2025-01-05 09:57:04.204681	31.1	47.6	-92.4	9.1
2025-01-05 09:57:06.530569	31.2	48.3	-93.2	12.3
2025-01-05 09:57:08.849319	31.4	49.1	-93.3	15.8
2025-01-05 09:57:11.180068	31.6	49.8	-92.5	14.6
2025-01-05 09:57:13.520496	31.8	50.6	-92.9	9.5
2025-01-05 09:57:15.850137	32.0	51.3	-93.3	7.5
2025-01-05 09:57:18.180294	32.3	52.1	-92.1	10.0
2025-01-05 09:57:20.506848	32.5	52.9	-92.9	12.6
2025-01-05 09:57:22.831046	32.7	53.7	-92.9	15.8
2025-01-05 09:57:25.162871	33.0	54.5	-92.6	14.0
2025-01-05 09:57:27.488769	33.3	55.4	-93.1	14.6
2025-01-05 09:57:29.821341	33.6	56.2	-92.8	13.9
2025-01-05 09:57:32.145470	33.9	57.1	-92.3	3.9
2025-01-05 09:57:34.475980	34.2	57.9	-93.0	8.9
2025-01-05 09:57:36.809818	34.5	58.8	-93.1	18.8
2025-01-05 09:57:39.151324	34.9	59.7	-92.0	17.4
2025-01-05 09:57:41.461170	35.3	60.6	-92.7	19.5
2025-01-05 09:57:43.793893	35.7	61.5	-93.0	18.3
2025-01-05 09:57:46.111124	36.2	62.5	-92.5	9.9
2025-01-05 09:57:48.444463	36.7	63.4	-92.4	13.5
2025-01-05 09:57:50.772617	37.2	64.4	-92.7	19.4
2025-01-05 09:57:53.106235	37.8	65.3	-92.6	19.3
2025-01-05 09:57:55.439015	38.4	66.3	-92.7	16.7
2025-01-05 09:57:57.764757	39.1	67.3	-92.7	11.6
2025-01-05 09:58:00.076599	39.9	68.3	-92.5	5.2
2025-01-05 09:58:02.386522	40.7	69.2	-92.2	10.2
2025-01-05 09:58:04.706235	41.6	70.2	-92.9	14.8
2025-01-05 09:58:07.038804	42.7	71.2	-92.6	13.7
2025-01-05 09:58:09.359471	43.8	72.3	-92.8	15.8
2025-01-05 09:58:11.686022	45.1	73.3	-93.3	21.9
2025-01-05 09:58:14.025608	46.6	74.3	-93.0	8.3
2025-01-05 09:58:16.337223	48.3	75.3	-92.5	17.7
2025-01-05 09:58:18.658224	50.2	76.3	-93.1	11.5
2025-01-05 09:58:20.985857	52.5	77.3	-93.0	14.0
2025-01-05 09:58:23.315251	55.2	78.2	-92.6	22.4
2025-01-05 09:58:25.645566	58.3	79.2	-93.2	22.3
2025-01-05 09:58:27.977812	62.0	80.1	-92.8	24.4
2025-01-05 09:58:30.304920	66.5	81.0	-92.2	21.4
2025-01-05 09:58:32.628732	72.0	81.8	-93.1	22.1
2025-01-05 09:58:34.962392	78.5	82.5	-93.0	21.7
2025-01-05 09:58:37.292994	86.4	83.1	-92.6	23.7
2025-01-05 09:58:39.568744	95.4	83.6	-92.8	14.1
2025-01-05 09:58:41.810262	105.3	83.9	-93.0	22.9
2025-01-05 09:58:44.051678	115.8	83.9	-92.8	11.3
2025-01-05 09:58:46.312823	126.3	83.8	-92.5	22.7
2025-01-05 09:58:48.606798	136.2	83.5	-92.9	14.7
2025-01-05 09:58:50.933594	145.0	83.0	-92.8	17.8
2025-01-05 09:58:53.235816	152.4	82.3	-92.1	21.3
2025-01-05 09:58:55.541751	158.6	81.6	-93.0	17.4
2025-01-05 09:58:57.859638	163.8	80.8	-93.3	20.8
2025-01-05 09:59:00.186430	168.0	79.9	-92.6	20.9
2025-01-05 09:59:02.495983	171.6	79.0	-93.2	20.2
2025-01-05 09:59:04.825064	174.6	78.0	-92.9	23.3
2025-01-05 09:59:07.155153	177.1	77.0	-92.1	18.0
2025-01-05 09:59:09.487294	179.3	76.0	-93.1	21.2
2025-01-05 09:59:11.817466	181.2	75.0	-93.1	19.2
2025-01-05 09:59:14.142663	182.8	74.0	-92.5	17.1
2025-01-05 09:59:16.468772	184.2	73.0	-92.7	17.0
2025-01-05 09:59:18.792512	185.5	72.0	-93.1	18.2
2025-01-05 09:59:21.125641	186.6	71.0	-92.8	15.1
2025-01-05 09:59:23.454071	187.6	69.9	-93.0	12.0
2025-01-05 09:59:25.786789	188.5	68.9	-93.0	18.9
2025-01-05 09:59:28.122162	189.4	67.9	-92.6	11.4
2025-01-05 09:59:30.446121	190.1	67.0	-93.1	12.5
2025-01-05 09:59:32.763099	190.8	66.0	-93.1	20.0
2025-01-05 09:59:35.096048	191.4	65.0	-92.2	15.5
2025-01-05 09:59:37.429704	192.0	64.0	-93.0	11.9
2025-01-05 09:59:39.752268	192.5	63.1	-93.2	10.6
2025-01-05 09:59:42.078938	193.0	62.2	-92.8	10.4
2025-01-05 09:59:44.410684	193.4	61.2	-92.9	13.0
2025-01-05 09:59:46.732326	193.8	60.3	-93.0	4.7
2025-01-05 09:59:49.061142	194.2	59.4	-93.1	14.5
2025-01-05 09:59:51.392805	194.6	58.5	-93.3	9.9
2025-01-05 09:59:53.727679	194.9	57.6	-93.1	10.9
2025-01-05 09:59:56.053779	195.3	56.7	-93.0	14.0
2025-01-05 09:59:58.376672	195.6	55.9	-92.8	16.2
2025-01-05 10:00:00.695473	195.9	55.1	-93.3	5.8
2025-01-05 10:00:03.017609	196.1	54.2	-92.7	13.3
2025-01-05 10:00:05.339225	196.4	53.4	-92.5	23.6
2025-01-05 10:00:07.667488	196.6	52.6	-92.4	21.5
2025-01-05 10:00:09.979031	196.8	51.8	-92.9	6.5
2025-01-05 10:00:12.304976	197.1	51.0	-92.0	10.1
2025-01-05 10:00:14.623369	197.3	50.3	-92.7	3.4
2025-01-05 10:00:16.953240	197.5	49.5	-92.8	9.5
2025-01-05 10:00:19.295918	197.7	48.7	-92.2	16.2
2025-01-05 10:00:21.618717	197.8	48.0	-92.5	12.3
2025-01-05 10:00:23.938043	198.0	47.3	-92.3	16.0
2025-01-05 10:00:26.269080	198.2	46.6	-92.3	19.9
2025-01-05 10:00:28.596714	198.3	45.9	-92.6	19.4
2025-01-05 10:00:30.915269	198.5	45.2	-92.5	19.4
2025-01-05 10:00:33.236082	198.6	44.5	-92.3	18.0
2025-01-05 10:00:35.569356	198.8	43.9	-92.5	11.2
2025-01-05 10:00:37.898878	198.9	43.2	-92.8	15.4
2025-01-05 10:00:40.228886	199.0	42.6	-92.2	15.8
2025-01-05 10:00:42.548039	199.2	41.9	-92.5	17.9
2025-01-05 10:00:44.870762	199.3	41.3	-92.6	19.9
2025-01-05 10:00:47.199906	199.4	40.7	-92.2	18.5
2025-01-05 10:00:49.524615	199.5	40.1	-92.7	13.9
2025-01-05 10:00:51.862264	199.6	39.5	-93.1	16.2
2025-01-05 10:00:54.193122	199.7	38.9	-92.2	13.6
2025-01-05 10:00:56.520177	199.8	38.3	-92.4	9.4
2025-01-05 10:00:58.831003	199.9	37.8	-92.9	15.4
2025-01-05 10:01:01.156427	200.0	37.2	-92.3	12.8
2025-01-05 10:01:03.483510	200.1	36.7	-92.4	12.8
2025-01-05 10:01:05.811738	200.2	36.1	-93.1	12.5
2025-01-05 10:01:08.135319	200.3	35.6	-92.3	8.3
2025-01-05 10:01:10.463466	200.4	35.1	-92.7	8.7
2025-01-05 10:01:12.780510	200.5	34.6	-92.7	9.3
2025-01-05 10:01:15.101905	200.5	34.1	-92.1	4.6
2025-01-05 10:01:17.427023	200.6	33.6	-92.7	8.4
2025-01-05 10:01:19.754400	200.7	33.1	-93.0	8.5
2025-01-05 10:01:22.070092	200.8	32.6	-92.6	6.5
2025-01-05 10:01:24.403401	200.8	32.2	-92.5	9.4
2025-01-05 10:01:26.731319	200.9	31.7	-93.0	7.5
2025-01-05 10:01:29.048282	201.0	31.2	-92.5	4.6
2025-01-05 10:01:31.376105	201.1	30.8	-92.2	6.3
2025-01-05 10:01:33.686272	201.1	30.3	-92.8	10.6
2025-01-05 10:01:36.015990	201.2	29.9	-92.9	10.6
2025-01-05 10:01:38.340626	201.2	29.5	-92.7	10.5
2025-01-05 10:01:40.668379	201.3	29.0	-92.8	8.6
2025-01-05 10:01:42.996186	201.4	28.6	-92.9	7.7
2025-01-05 10:01:45.327328	201.4	28.2	-92.1	11.0
2025-01-05 10:01:47.648619	201.5	27.8	-92.9	11.9
2025-01-05 10:01:49.984069	201.5	27.4	-93.1	12.7
2025-01-05 10:01:52.300679	201.6	27.0	-92.4	12.8
2025-01-05 10:01:54.636806	201.6	26.6	-92.8	9.3
2025-01-05 10:01:56.968554	201.7	26.2	-92.8	7.3
2025-01-05 10:01:59.284765	201.8	25.9	-92.5	13.2
2025-01-05 10:02:01.597971	201.8	25.5	-92.6	9.6
2025-01-05 10:02:03.914262	201.9	25.1	-92.9	13.2
2025-01-05 10:02:06.240797	201.9	24.8	-92.6	13.7
2025-01-05 10:02:08.572578	201.9	24.4	-92.9	11.5
2025-01-05 10:02:10.900497	202.0	24.0	-92.8	9.5
2025-01-05 10:02:13.217969	202.0	23.7	-92.2	10.8
2025-01-05 10:02:15.546391	202.1	23.3	-93.0	9.7
2025-01-05 10:02:17.875329	202.1	23.0	-93.2	11.2
2025-01-05 10:02:20.204985	202.2	22.7	-92.5	8.3
2025-01-05 10:02:22.527802	202.2	22.3	-92.5	8.8
2025-01-05 10:02:24.854320	202.3	22.0	-92.8	9.8
2025-01-05 10:02:27.186904	202.3	21.7	-92.5	9.4
2025-01-05 10:02:29.520109	202.3	21.4	-92.5	6.6
2025-01-05 10:02:31.856633	202.4	21.1	-92.8	12.7
2025-01-05 10:02:34.174401	202.4	20.7	-92.6	13.0
2025-01-05 10:02:36.505130	202.5	20.4	-92.8	10.6
2025-01-05 10:02:38.835612	202.5	20.1	-93.0	11.0
2025-01-05 10:02:41.135669	202.5	19.8	-92.5	7.7
2025-01-05 10:02:43.454519	202.6	19.5	-92.8	7.5
2025-01-05 10:02:45.762608	202.6	19.2	-92.8	9.2
2025-01-05 10:02:48.084328	202.7	19.0	-92.1	6.9
2025-01-05 10:02:50.415092	202.7	18.7	-92.6	6.5
2025-01-05 10:02:52.736794	202.7	18.4	-92.6	3.9
2025-01-05 10:02:55.068073	202.8	18.1	-92.5	2.0
2025-01-05 10:02:57.395436	202.8	17.8	-92.5	0.7
2025-01-05 10:02:59.729481	202.8	17.5	-93.0	3.8
2025-01-05 10:03:02.057268	202.9	17.3	-92.6	3.4
2025-01-05 10:03:04.386801	202.9	17.0	-92.6	5.1
2025-01-05 10:03:06.722187	202.9	16.7	-93.0	5.6
2025-01-05 10:03:09.057797	203.0	16.5	-92.4	4.7
2025-01-05 10:03:11.370721	203.0	16.2	-92.2	5.0
2025-01-05 10:03:13.621917	203.0	16.0	-92.8	4.7
2025-01-05 10:03:15.865051	203.1	15.7	-92.7	4.4
2025-01-05 10:03:18.105906	203.1	15.5	-92.2	4.4
2025-01-05 10:03:20.351778	203.1	15.2	-92.4	5.7
2025-01-05 10:03:22.645669	203.1	15.0	-93.1	4.4
2025-01-05 10:03:24.959347	203.2	14.8	-93.0	5.5
2025-01-05 10:03:27.282711	203.2	14.5	-92.1	8.3
#Closed at: 2025-01-05 09:54:07.062819