passes_logs/2025/01/05/LEX_Murmansk/LEX_Murmansk__20250105_074603_NOAA_19_rec.log

#Pass ID: 20250105_074603_NOAA 19
#Satellite: NOAA 19
#Configuration: NOAA 19
#Start time: 2025-01-05 07:45:58.297989

#LorettStation: 1.0.0 05.05.2024
#Station: LEX_Murmansk
#Location: 33.156738 lon 68.926811 lat
#TLE: 1 33591U 09005A   25004.88002234  .00000560  00000+0  32285-3 0  9996
#TLE: 2 33591  99.0214  68.5635 0014675  84.4442 275.8403 14.13251363820110

#Time	Az	El	Level	SNR
2025-01-05 07:46:10.578155	31.5	16.2	-92.0	1.7
2025-01-05 07:46:11.732099	31.6	16.3	-92.3	1.9
2025-01-05 07:46:12.890791	31.7	16.5	-91.5	4.1
2025-01-05 07:46:14.046147	31.8	16.6	-91.1	4.0
2025-01-05 07:46:15.207891	31.9	16.7	-92.0	3.5
2025-01-05 07:46:16.374511	32.0	16.8	-91.8	2.5
2025-01-05 07:46:17.532503	32.1	16.9	-92.3	1.7
2025-01-05 07:46:18.697229	32.2	17.1	-92.1	2.1
2025-01-05 07:46:19.860481	32.3	17.2	-92.0	2.3
2025-01-05 07:46:21.016415	32.4	17.3	-92.2	4.9
2025-01-05 07:46:22.178522	32.5	17.4	-92.1	5.7
2025-01-05 07:46:23.338346	32.6	17.6	-91.9	3.2
2025-01-05 07:46:24.497019	32.8	17.7	-92.1	2.7
2025-01-05 07:46:25.656037	32.9	17.8	-92.4	4.7
2025-01-05 07:46:26.813959	33.0	17.9	-92.4	1.7
2025-01-05 07:46:27.972971	33.1	18.1	-92.0	3.5
2025-01-05 07:46:29.132443	33.2	18.2	-91.1	6.7
2025-01-05 07:46:30.286140	33.3	18.3	-92.0	10.9
2025-01-05 07:46:31.439892	33.4	18.4	-91.8	3.8
2025-01-05 07:46:32.597216	33.5	18.6	-92.0	7.0
2025-01-05 07:46:33.756040	33.7	18.7	-92.3	2.4
2025-01-05 07:46:34.915255	33.8	18.8	-92.1	4.0
2025-01-05 07:46:36.080100	33.9	19.0	-91.7	4.2
2025-01-05 07:46:37.245081	34.0	19.1	-91.6	4.6
2025-01-05 07:46:38.407617	34.1	19.2	-91.7	4.6
2025-01-05 07:46:39.562793	34.2	19.3	-91.9	6.5
2025-01-05 07:46:40.725858	34.4	19.5	-92.0	5.3
2025-01-05 07:46:41.886436	34.5	19.6	-91.5	5.0
2025-01-05 07:46:43.042135	34.6	19.7	-92.4	6.4
2025-01-05 07:46:44.201832	34.7	19.9	-92.3	4.4
2025-01-05 07:46:45.361304	34.9	20.0	-92.1	2.3
2025-01-05 07:46:46.523947	35.0	20.1	-92.5	9.7
2025-01-05 07:46:47.686793	35.1	20.3	-92.2	3.6
2025-01-05 07:46:48.845559	35.2	20.4	-92.8	4.2
2025-01-05 07:46:50.015885	35.4	20.6	-92.7	2.4
2025-01-05 07:46:51.170354	35.5	20.7	-92.4	4.2
2025-01-05 07:46:52.330777	35.6	20.8	-91.2	1.8
2025-01-05 07:46:53.494768	35.8	21.0	-91.5	3.2
2025-01-05 07:46:54.652982	35.9	21.1	-91.2	1.9
2025-01-05 07:46:55.812314	36.0	21.3	-92.3	5.0
2025-01-05 07:46:56.967510	36.2	21.4	-92.5	8.6
2025-01-05 07:46:58.125759	36.3	21.5	-92.1	6.6
2025-01-05 07:46:59.284914	36.5	21.7	-92.2	3.9
2025-01-05 07:47:00.434655	36.6	21.8	-92.2	3.8
2025-01-05 07:47:01.593242	36.7	22.0	-91.9	4.9
2025-01-05 07:47:02.753139	36.9	22.1	-92.3	7.7
2025-01-05 07:47:03.911036	37.0	22.2	-92.2	9.0
2025-01-05 07:47:05.067754	37.2	22.4	-91.9	7.1
2025-01-05 07:47:06.225666	37.3	22.5	-91.7	9.7
2025-01-05 07:47:07.390291	37.5	22.7	-92.4	5.2
2025-01-05 07:47:08.550526	37.6	22.8	-92.4	2.7
2025-01-05 07:47:09.706324	37.8	23.0	-92.4	2.7
2025-01-05 07:47:10.861987	37.9	23.1	-92.3	0.6
2025-01-05 07:47:12.016800	38.1	23.3	-92.1	7.1
2025-01-05 07:47:13.172157	38.2	23.4	-92.1	5.2
2025-01-05 07:47:14.341303	38.4	23.6	-92.1	10.6
2025-01-05 07:47:15.502756	38.5	23.7	-92.1	6.0
2025-01-05 07:47:16.662470	38.7	23.9	-92.1	7.2
2025-01-05 07:47:17.823998	38.9	24.0	-92.7	6.8
2025-01-05 07:47:18.983775	39.0	24.2	-92.7	10.3
2025-01-05 07:47:20.143410	39.2	24.3	-92.0	7.4
2025-01-05 07:47:21.299620	39.3	24.5	-91.8	7.5
2025-01-05 07:47:22.458471	39.5	24.6	-92.5	7.3
2025-01-05 07:47:23.621159	39.7	24.8	-91.8	8.1
2025-01-05 07:47:24.784625	39.8	25.0	-92.2	9.0
2025-01-05 07:47:25.948477	40.0	25.1	-92.1	5.9
2025-01-05 07:47:27.116555	40.2	25.3	-92.1	2.3
2025-01-05 07:47:28.269947	40.4	25.4	-92.3	1.6
2025-01-05 07:47:29.435294	40.5	25.6	-92.4	3.4
2025-01-05 07:47:30.599338	40.7	25.7	-91.9	3.8
2025-01-05 07:47:31.762568	40.9	25.9	-91.5	8.7
2025-01-05 07:47:32.916692	41.1	26.1	-91.7	4.9
2025-01-05 07:47:34.080408	41.3	26.2	-91.3	10.6
2025-01-05 07:47:35.239112	41.5	26.4	-91.1	4.0
2025-01-05 07:47:36.379575	41.6	26.6	-92.2	7.2
2025-01-05 07:47:37.537803	41.8	26.7	-92.4	7.3
2025-01-05 07:47:38.695864	42.0	26.9	-92.5	6.0
2025-01-05 07:47:39.859683	42.2	27.0	-92.2	10.2
2025-01-05 07:47:41.021225	42.4	27.2	-92.4	12.9
2025-01-05 07:47:42.180444	42.6	27.4	-92.3	14.3
2025-01-05 07:47:43.338816	42.8	27.5	-92.0	5.5
2025-01-05 07:47:44.498093	43.0	27.7	-92.4	7.0
2025-01-05 07:47:45.670974	43.2	27.9	-92.2	2.7
2025-01-05 07:47:46.829919	43.4	28.0	-91.9	2.5
2025-01-05 07:47:47.982257	43.6	28.2	-92.3	2.5
2025-01-05 07:47:49.137836	43.8	28.4	-91.8	5.2
2025-01-05 07:47:50.303525	44.0	28.6	-91.8	9.0
2025-01-05 07:47:51.458787	44.3	28.7	-92.1	8.3
2025-01-05 07:47:52.616698	44.5	28.9	-92.4	7.7
2025-01-05 07:47:53.768451	44.7	29.1	-92.1	9.0
2025-01-05 07:47:54.933809	44.9	29.2	-92.0	7.0
2025-01-05 07:47:56.087208	45.1	29.4	-91.3	5.2
2025-01-05 07:47:57.248698	45.4	29.6	-91.2	0.6
2025-01-05 07:47:58.405137	45.6	29.8	-91.2	3.5
2025-01-05 07:47:59.566180	45.8	29.9	-91.3	1.5
2025-01-05 07:48:00.715596	46.0	30.1	-92.5	5.6
2025-01-05 07:48:01.875811	46.3	30.3	-91.9	8.1
2025-01-05 07:48:03.034574	46.5	30.5	-92.1	5.5
2025-01-05 07:48:04.189614	46.7	30.6	-91.7	5.9
2025-01-05 07:48:05.347014	47.0	30.8	-91.7	2.6
2025-01-05 07:48:06.507441	47.2	31.0	-92.0	1.6
2025-01-05 07:48:07.668588	47.5	31.2	-92.0	1.9
2025-01-05 07:48:08.833272	47.7	31.4	-91.9	4.7
2025-01-05 07:48:09.996815	48.0	31.5	-92.4	9.7
2025-01-05 07:48:11.158023	48.2	31.7	-91.9	9.7
2025-01-05 07:48:12.317547	48.5	31.9	-92.0	16.8
2025-01-05 07:48:13.484204	48.8	32.1	-92.2	17.4
2025-01-05 07:48:14.640794	49.0	32.3	-92.3	11.3
2025-01-05 07:48:15.799971	49.3	32.5	-92.3	6.0
2025-01-05 07:48:16.961834	49.6	32.6	-92.6	11.5
2025-01-05 07:48:18.125763	49.8	32.8	-91.8	10.7
2025-01-05 07:48:19.288748	50.1	33.0	-91.3	7.4
2025-01-05 07:48:20.452237	50.4	33.2	-92.1	14.1
2025-01-05 07:48:21.617389	50.7	33.4	-91.9	15.4
2025-01-05 07:48:22.785231	51.0	33.6	-92.1	13.3
2025-01-05 07:48:23.950528	51.3	33.8	-92.0	12.6
2025-01-05 07:48:25.119300	51.6	33.9	-92.0	9.7
2025-01-05 07:48:26.269558	51.8	34.1	-92.4	3.3
2025-01-05 07:48:27.437585	52.2	34.3	-92.0	4.6
2025-01-05 07:48:28.596606	52.5	34.5	-92.1	6.0
2025-01-05 07:48:29.757555	52.8	34.7	-92.1	4.1
2025-01-05 07:48:30.915832	53.1	34.9	-92.0	7.7
2025-01-05 07:48:32.079058	53.4	35.1	-91.8	8.2
2025-01-05 07:48:33.244844	53.7	35.3	-91.5	15.5
2025-01-05 07:48:34.400732	54.0	35.4	-92.0	18.8
2025-01-05 07:48:35.562549	54.3	35.6	-91.5	16.6
2025-01-05 07:48:36.718343	54.7	35.8	-91.2	9.9
2025-01-05 07:48:37.882340	55.0	36.0	-91.5	8.7
2025-01-05 07:48:39.041971	55.3	36.2	-90.8	12.9
2025-01-05 07:48:40.201716	55.7	36.4	-91.5	11.0
2025-01-05 07:48:41.361342	56.0	36.6	-92.0	14.4
2025-01-05 07:48:42.520117	56.4	36.8	-92.3	19.0
2025-01-05 07:48:43.681559	56.7	36.9	-92.1	17.2
2025-01-05 07:48:44.838599	57.1	37.1	-92.1	15.7
2025-01-05 07:48:45.994696	57.4	37.3	-92.3	14.1
2025-01-05 07:48:47.149199	57.8	37.5	-91.9	9.8
2025-01-05 07:48:48.298997	58.1	37.7	-92.2	5.5
2025-01-05 07:48:49.454589	58.5	37.9	-92.5	5.4
2025-01-05 07:48:50.622382	58.9	38.1	-92.3	8.2
2025-01-05 07:48:51.777259	59.3	38.3	-92.3	3.1
2025-01-05 07:48:52.936958	59.6	38.4	-92.0	7.7
2025-01-05 07:48:54.089510	60.0	38.6	-92.3	10.6
2025-01-05 07:48:55.243776	60.4	38.8	-92.3	9.3
2025-01-05 07:48:56.373409	60.8	39.0	-92.1	15.8
2025-01-05 07:48:57.493377	61.2	39.2	-92.4	19.5
2025-01-05 07:48:58.616833	61.6	39.3	-92.4	19.7
2025-01-05 07:48:59.737450	62.0	39.5	-92.2	17.3
2025-01-05 07:49:00.857726	62.4	39.7	-91.5	10.9
2025-01-05 07:49:01.978052	62.8	39.9	-91.5	12.8
2025-01-05 07:49:03.099064	63.2	40.1	-91.6	10.8
2025-01-05 07:49:04.219635	63.6	40.2	-92.0	7.0
2025-01-05 07:49:05.375018	64.0	40.4	-92.2	9.7
2025-01-05 07:49:06.525109	64.5	40.6	-91.7	15.0
2025-01-05 07:49:07.682169	64.9	40.8	-92.2	15.4
2025-01-05 07:49:08.835037	65.4	40.9	-92.1	16.4
2025-01-05 07:49:09.996157	65.8	41.1	-92.0	17.7
2025-01-05 07:49:11.165016	66.3	41.3	-91.9	16.5
2025-01-05 07:49:12.320763	66.7	41.5	-91.9	12.8
2025-01-05 07:49:13.483881	67.2	41.6	-92.1	11.5
2025-01-05 07:49:14.644695	67.7	41.8	-92.4	12.1
2025-01-05 07:49:15.808817	68.1	42.0	-92.4	3.0
2025-01-05 07:49:16.934769	68.6	42.1	-92.1	6.3
2025-01-05 07:49:18.077057	69.1	42.3	-92.0	5.3
2025-01-05 07:49:19.235020	69.6	42.5	-91.7	2.6
2025-01-05 07:49:20.387781	70.1	42.6	-92.1	4.4
2025-01-05 07:49:21.550470	70.6	42.8	-92.3	10.4
2025-01-05 07:49:22.712221	71.1	43.0	-92.2	9.4
2025-01-05 07:49:23.867592	71.6	43.1	-91.9	11.2
2025-01-05 07:49:25.021877	72.1	43.3	-92.3	15.7
2025-01-05 07:49:26.188490	72.6	43.4	-91.9	13.2
2025-01-05 07:49:27.346320	73.1	43.6	-91.8	13.0
2025-01-05 07:49:28.506497	73.7	43.7	-92.2	12.5
2025-01-05 07:49:29.664115	74.2	43.9	-92.2	12.3
2025-01-05 07:49:30.829783	74.7	44.0	-92.4	10.2
2025-01-05 07:49:31.982603	75.3	44.2	-92.2	11.6
2025-01-05 07:49:33.143648	75.8	44.3	-91.8	10.2
2025-01-05 07:49:34.309735	76.4	44.5	-91.9	6.2
2025-01-05 07:49:35.467508	76.9	44.6	-92.5	8.7
2025-01-05 07:49:36.618767	77.5	44.7	-92.2	8.6
2025-01-05 07:49:37.779683	78.1	44.9	-92.0	7.5
2025-01-05 07:49:38.935930	78.6	45.0	-92.4	10.7
2025-01-05 07:49:40.093784	79.2	45.1	-92.0	5.5
2025-01-05 07:49:41.246674	79.8	45.2	-92.0	8.9
2025-01-05 07:49:42.403792	80.4	45.4	-92.1	9.8
2025-01-05 07:49:43.568660	81.0	45.5	-92.4	9.6
2025-01-05 07:49:44.724245	81.6	45.6	-92.2	5.0
2025-01-05 07:49:45.871656	82.2	45.7	-92.4	4.5
2025-01-05 07:49:47.032175	82.8	45.8	-92.2	8.9
2025-01-05 07:49:48.197007	83.4	45.9	-92.0	5.0
2025-01-05 07:49:49.351461	84.0	46.0	-92.1	2.0
2025-01-05 07:49:50.516091	84.6	46.1	-92.1	2.8
2025-01-05 07:49:51.670069	85.2	46.2	-92.2	2.4
2025-01-05 07:49:52.825547	85.8	46.3	-92.3	0.2
2025-01-05 07:49:53.981276	86.5	46.4	-92.8	3.2
2025-01-05 07:49:55.147685	87.1	46.5	-92.4	5.4
2025-01-05 07:49:56.312529	87.7	46.6	-92.4	1.8
2025-01-05 07:49:57.471571	88.4	46.6	-92.8	4.9
2025-01-05 07:49:58.624945	89.0	46.7	-92.7	5.9
2025-01-05 07:49:59.781266	89.6	46.8	-92.7	3.1
2025-01-05 07:50:00.933994	90.3	46.9	-92.4	10.4
2025-01-05 07:50:02.093240	90.9	46.9	-92.8	9.5
2025-01-05 07:50:03.250034	91.6	47.0	-92.2	8.5
2025-01-05 07:50:04.405016	92.2	47.0	-91.7	8.7
2025-01-05 07:50:05.562543	92.9	47.1	-91.7	7.8
2025-01-05 07:50:06.726282	93.5	47.1	-91.8	6.4
2025-01-05 07:50:07.886238	94.2	47.2	-91.9	3.2
2025-01-05 07:50:09.044943	94.9	47.2	-92.3	8.5
2025-01-05 07:50:10.200609	95.5	47.3	-92.2	5.0
2025-01-05 07:50:11.353313	96.2	47.3	-92.4	10.0
2025-01-05 07:50:12.505614	96.9	47.3	-92.8	10.7
2025-01-05 07:50:13.666297	97.5	47.3	-92.7	8.8
2025-01-05 07:50:14.827710	98.2	47.4	-92.7	4.1
2025-01-05 07:50:15.997744	98.9	47.4	-92.7	6.0
2025-01-05 07:50:17.161979	99.5	47.4	-92.2	7.3
2025-01-05 07:50:18.320816	100.2	47.4	-92.0	2.8
2025-01-05 07:50:19.483368	100.9	47.4	-92.5	6.6
2025-01-05 07:50:20.639256	101.5	47.4	-92.7	10.4
2025-01-05 07:50:21.800985	102.2	47.4	-92.7	5.1
2025-01-05 07:50:22.962314	102.9	47.4	-92.8	9.4
2025-01-05 07:50:24.122655	103.6	47.4	-92.2	6.2
2025-01-05 07:50:25.283591	104.2	47.4	-92.4	5.5
2025-01-05 07:50:26.441996	104.9	47.3	-92.8	6.6
2025-01-05 07:50:27.592618	105.5	47.3	-92.4	7.6
2025-01-05 07:50:28.752134	106.2	47.3	-92.6	4.7
2025-01-05 07:50:29.905277	106.9	47.2	-92.6	7.1
2025-01-05 07:50:31.067053	107.5	47.2	-92.4	9.2
2025-01-05 07:50:32.227716	108.2	47.2	-92.2	7.4
2025-01-05 07:50:33.384899	108.9	47.1	-92.2	10.1
2025-01-05 07:50:34.540890	109.5	47.1	-92.5	13.5
2025-01-05 07:50:35.708576	110.2	47.0	-92.3	9.0
2025-01-05 07:50:36.872453	110.8	47.0	-92.2	11.0
2025-01-05 07:50:38.035533	111.5	46.9	-92.9	12.3
2025-01-05 07:50:39.190337	112.1	46.8	-92.3	11.1
2025-01-05 07:50:40.351170	112.8	46.8	-92.6	8.9
2025-01-05 07:50:41.511596	113.4	46.7	-92.9	12.2
2025-01-05 07:50:42.673108	114.0	46.6	-92.9	13.3
2025-01-05 07:50:43.830707	114.7	46.5	-92.7	10.5
2025-01-05 07:50:44.993937	115.3	46.5	-92.7	9.5
2025-01-05 07:50:46.154181	115.9	46.4	-92.1	7.7
2025-01-05 07:50:47.307448	116.6	46.3	-91.9	9.1
2025-01-05 07:50:48.466569	117.2	46.2	-92.4	7.5
2025-01-05 07:50:49.607013	117.8	46.1	-92.5	7.9
2025-01-05 07:50:50.766021	118.4	46.0	-92.6	4.3
2025-01-05 07:50:51.932828	119.0	45.9	-92.4	5.5
2025-01-05 07:50:53.092960	119.6	45.8	-92.5	7.5
2025-01-05 07:50:54.256378	120.2	45.7	-92.5	9.8
2025-01-05 07:50:55.410157	120.8	45.5	-92.4	14.4
2025-01-05 07:50:56.569853	121.4	45.4	-92.4	14.2
2025-01-05 07:50:57.730474	122.0	45.3	-92.6	12.3
2025-01-05 07:50:58.886827	122.6	45.2	-92.5	15.1
2025-01-05 07:51:00.048411	123.2	45.1	-91.9	14.7
2025-01-05 07:51:01.200912	123.8	44.9	-92.2	10.2
2025-01-05 07:51:02.362509	124.3	44.8	-92.0	13.1
2025-01-05 07:51:03.521010	124.9	44.7	-92.4	13.8
2025-01-05 07:51:04.677174	125.5	44.5	-92.2	15.1
2025-01-05 07:51:05.836408	126.0	44.4	-92.6	11.8
2025-01-05 07:51:07.002678	126.6	44.3	-92.5	8.6
2025-01-05 07:51:08.161869	127.1	44.1	-92.2	10.2
2025-01-05 07:51:09.326494	127.7	44.0	-91.8	8.3
2025-01-05 07:51:10.486805	128.2	43.8	-91.6	7.3
2025-01-05 07:51:11.653435	128.7	43.7	-91.8	8.0
2025-01-05 07:51:12.815634	129.3	43.5	-92.7	11.4
2025-01-05 07:51:13.979412	129.8	43.4	-92.6	9.6
2025-01-05 07:51:15.140948	130.3	43.2	-92.4	8.8
2025-01-05 07:51:16.297995	130.8	43.0	-92.5	6.2
2025-01-05 07:51:17.458083	131.3	42.9	-92.5	7.8
2025-01-05 07:51:18.619341	131.8	42.7	-92.2	8.2
2025-01-05 07:51:19.779111	132.3	42.6	-92.8	15.2
2025-01-05 07:51:20.941504	132.8	42.4	-92.7	9.7
2025-01-05 07:51:22.104611	133.3	42.2	-92.4	8.4
2025-01-05 07:51:23.270319	133.8	42.1	-92.3	16.5
2025-01-05 07:51:24.438194	134.3	41.9	-92.8	10.7
2025-01-05 07:51:25.594748	134.7	41.7	-92.4	9.0
2025-01-05 07:51:26.757329	135.2	41.5	-92.5	13.1
2025-01-05 07:51:27.922099	135.7	41.4	-92.6	8.6
2025-01-05 07:51:29.077569	136.1	41.2	-92.6	9.6
2025-01-05 07:51:30.237165	136.6	41.0	-92.2	15.0
2025-01-05 07:51:31.393234	137.0	40.8	-92.2	13.3
2025-01-05 07:51:32.554925	137.5	40.7	-92.1	5.6
2025-01-05 07:51:33.726817	137.9	40.5	-92.5	15.2
2025-01-05 07:51:34.897423	138.4	40.3	-92.4	12.3
2025-01-05 07:51:36.052612	138.8	40.1	-92.3	7.5
2025-01-05 07:51:37.212004	139.2	39.9	-92.0	12.7
2025-01-05 07:51:38.377048	139.6	39.8	-92.3	11.7
2025-01-05 07:51:39.537847	140.1	39.6	-92.7	7.9
2025-01-05 07:51:40.696753	140.5	39.4	-92.6	12.8
2025-01-05 07:51:41.860217	140.9	39.2	-92.5	11.2
2025-01-05 07:51:43.026823	141.3	39.0	-92.3	12.2
2025-01-05 07:51:44.182822	141.7	38.8	-92.2	10.0
2025-01-05 07:51:45.347545	142.1	38.6	-92.4	9.7
2025-01-05 07:51:46.504405	142.5	38.5	-92.6	8.0
2025-01-05 07:51:47.663115	142.8	38.3	-92.3	13.2
2025-01-05 07:51:48.827278	143.2	38.1	-92.4	13.1
2025-01-05 07:51:49.983295	143.6	37.9	-92.7	15.4
2025-01-05 07:51:51.140364	144.0	37.7	-92.2	14.5
2025-01-05 07:51:52.300897	144.3	37.5	-92.3	14.7
2025-01-05 07:51:53.459841	144.7	37.3	-92.2	17.6
2025-01-05 07:51:54.626553	145.1	37.2	-92.7	17.6
2025-01-05 07:51:55.787082	145.4	37.0	-92.9	18.6
2025-01-05 07:51:56.945956	145.8	36.8	-92.8	14.6
2025-01-05 07:51:58.104303	146.1	36.6	-92.6	12.4
2025-01-05 07:51:59.271572	146.5	36.4	-92.5	14.9
2025-01-05 07:52:00.414765	146.8	36.2	-92.3	10.7
2025-01-05 07:52:01.582053	147.1	36.0	-92.8	9.3
2025-01-05 07:52:02.740724	147.5	35.8	-92.4	12.9
2025-01-05 07:52:03.902468	147.8	35.6	-92.5	9.4
2025-01-05 07:52:05.058509	148.1	35.5	-93.0	7.2
2025-01-05 07:52:06.213300	148.4	35.3	-92.4	11.4
2025-01-05 07:52:07.370943	148.7	35.1	-92.5	11.9
2025-01-05 07:52:08.538062	149.1	34.9	-92.8	5.6
2025-01-05 07:52:09.692322	149.4	34.7	-92.2	11.4
2025-01-05 07:52:10.850617	149.7	34.5	-92.5	10.0
2025-01-05 07:52:12.015440	150.0	34.3	-92.7	5.5
2025-01-05 07:52:13.167084	150.3	34.1	-92.1	7.0
2025-01-05 07:52:14.329343	150.6	34.0	-92.4	7.4
2025-01-05 07:52:15.491206	150.9	33.8	-92.7	6.0
2025-01-05 07:52:16.647435	151.2	33.6	-92.4	9.1
2025-01-05 07:52:17.803809	151.4	33.4	-92.8	12.9
2025-01-05 07:52:18.962191	151.7	33.2	-93.0	11.0
2025-01-05 07:52:20.123800	152.0	33.0	-92.4	7.5
2025-01-05 07:52:21.282683	152.3	32.8	-92.2	6.8
2025-01-05 07:52:22.447327	152.6	32.7	-92.6	8.6
2025-01-05 07:52:23.612177	152.8	32.5	-92.9	10.0
2025-01-05 07:52:24.772356	153.1	32.3	-92.7	11.6
2025-01-05 07:52:25.928263	153.4	32.1	-92.8	9.5
2025-01-05 07:52:27.085955	153.6	31.9	-92.4	6.4
2025-01-05 07:52:28.248556	153.9	31.7	-92.8	10.3
2025-01-05 07:52:29.414632	154.1	31.6	-92.6	5.5
2025-01-05 07:52:30.572808	154.4	31.4	-93.0	4.2
2025-01-05 07:52:31.729645	154.6	31.2	-92.8	10.1
2025-01-05 07:52:32.897626	154.9	31.0	-92.7	8.1
2025-01-05 07:52:34.060496	155.1	30.8	-92.6	6.3
2025-01-05 07:52:35.214034	155.4	30.7	-92.6	11.9
2025-01-05 07:52:36.377092	155.6	30.5	-92.5	12.9
2025-01-05 07:52:37.540236	155.9	30.3	-92.5	11.0
2025-01-05 07:52:38.705023	156.1	30.1	-92.4	13.3
2025-01-05 07:52:39.858991	156.3	29.9	-92.1	13.0
2025-01-05 07:52:41.020918	156.6	29.8	-92.5	11.6
2025-01-05 07:52:42.178356	156.8	29.6	-92.4	12.3
2025-01-05 07:52:43.339479	157.0	29.4	-92.6	13.4
2025-01-05 07:52:44.501401	157.2	29.2	-92.3	13.5
2025-01-05 07:52:45.660358	157.5	29.1	-92.2	13.6
2025-01-05 07:52:46.817006	157.7	28.9	-92.5	11.1
2025-01-05 07:52:47.984068	157.9	28.7	-92.2	8.2
2025-01-05 07:52:49.147514	158.1	28.6	-92.3	8.0
2025-01-05 07:52:50.303804	158.3	28.4	-92.0	12.8
2025-01-05 07:52:51.463821	158.5	28.2	-92.2	7.5
2025-01-05 07:52:52.625866	158.7	28.0	-92.4	5.8
2025-01-05 07:52:53.785694	158.9	27.9	-93.0	11.7
2025-01-05 07:52:54.947791	159.1	27.7	-92.9	3.8
2025-01-05 07:52:56.110088	159.3	27.5	-92.8	5.3
2025-01-05 07:52:57.262946	159.5	27.4	-92.7	7.9
2025-01-05 07:52:58.418153	159.7	27.2	-92.7	8.0
2025-01-05 07:52:59.577192	159.9	27.0	-92.4	6.7
2025-01-05 07:53:00.727133	160.1	26.9	-92.2	8.1
2025-01-05 07:53:01.887898	160.3	26.7	-92.5	9.2
2025-01-05 07:53:03.049584	160.5	26.5	-92.2	10.1
2025-01-05 07:53:04.209947	160.7	26.4	-92.4	9.6
2025-01-05 07:53:05.374464	160.9	26.2	-92.4	8.4
2025-01-05 07:53:06.535308	161.1	26.1	-92.5	6.4
2025-01-05 07:53:07.698436	161.2	25.9	-93.2	8.0
2025-01-05 07:53:08.856581	161.4	25.7	-92.8	8.8
2025-01-05 07:53:10.012796	161.6	25.6	-92.1	4.0
2025-01-05 07:53:11.172423	161.8	25.4	-92.6	7.7
2025-01-05 07:53:12.334060	162.0	25.3	-92.7	8.6
2025-01-05 07:53:13.484160	162.1	25.1	-92.4	4.0
2025-01-05 07:53:14.659640	162.3	24.9	-92.6	8.3
2025-01-05 07:53:15.821069	162.5	24.8	-92.7	11.6
2025-01-05 07:53:16.973684	162.6	24.6	-92.8	10.3
2025-01-05 07:53:18.134519	162.8	24.5	-92.4	11.5
2025-01-05 07:53:19.298424	163.0	24.3	-92.4	11.1
2025-01-05 07:53:20.453546	163.1	24.2	-92.5	10.9
2025-01-05 07:53:21.618535	163.3	24.0	-92.8	10.3
2025-01-05 07:53:22.782670	163.5	23.9	-93.0	11.3
2025-01-05 07:53:23.942147	163.6	23.7	-92.5	8.1
2025-01-05 07:53:25.106165	163.8	23.6	-92.4	5.4
2025-01-05 07:53:26.261812	163.9	23.4	-92.7	7.9
2025-01-05 07:53:27.423147	164.1	23.3	-92.7	5.8
2025-01-05 07:53:28.588314	164.2	23.1	-92.7	3.0
2025-01-05 07:53:29.749055	164.4	23.0	-92.3	5.8
2025-01-05 07:53:30.905368	164.5	22.8	-92.1	3.5
2025-01-05 07:53:32.067226	164.7	22.7	-92.4	3.3
2025-01-05 07:53:33.231186	164.8	22.5	-92.1	4.9
2025-01-05 07:53:34.395114	165.0	22.4	-92.2	6.2
2025-01-05 07:53:35.557155	165.1	22.2	-91.9	6.3
2025-01-05 07:53:36.711805	165.3	22.1	-92.5	8.0
2025-01-05 07:53:37.874392	165.4	21.9	-92.4	5.8
2025-01-05 07:53:39.033864	165.6	21.8	-92.4	4.7
2025-01-05 07:53:40.192309	165.7	21.6	-91.8	4.7
2025-01-05 07:53:41.356619	165.8	21.5	-92.0	5.0
2025-01-05 07:53:42.519340	166.0	21.4	-92.8	2.8
2025-01-05 07:53:43.679661	166.1	21.2	-92.7	2.7
2025-01-05 07:53:44.839185	166.2	21.1	-92.8	4.7
2025-01-05 07:53:45.999603	166.4	20.9	-92.8	3.3
2025-01-05 07:53:47.168738	166.5	20.8	-92.6	4.7
2025-01-05 07:53:48.328869	166.6	20.7	-92.3	2.9
2025-01-05 07:53:49.497033	166.8	20.5	-92.5	3.8
2025-01-05 07:53:50.659757	166.9	20.4	-92.4	3.9
2025-01-05 07:53:51.824115	167.0	20.2	-92.3	5.6
2025-01-05 07:53:52.984130	167.2	20.1	-93.0	5.9
2025-01-05 07:53:54.139038	167.3	20.0	-92.5	7.5
2025-01-05 07:53:55.307289	167.4	19.8	-92.5	8.5
2025-01-05 07:53:56.469976	167.5	19.7	-92.8	6.5
2025-01-05 07:53:57.635609	167.7	19.6	-92.7	4.3
2025-01-05 07:53:58.793609	167.8	19.4	-92.6	5.8
2025-01-05 07:53:59.943438	167.9	19.3	-92.6	4.6
2025-01-05 07:54:01.090658	168.0	19.2	-92.1	4.6
2025-01-05 07:54:02.255955	168.1	19.0	-92.5	5.5
2025-01-05 07:54:03.415540	168.3	18.9	-92.6	2.1
2025-01-05 07:54:04.584588	168.4	18.8	-92.7	2.9
2025-01-05 07:54:05.743033	168.5	18.7	-92.7	3.5
2025-01-05 07:54:06.897881	168.6	18.5	-92.8	3.6
2025-01-05 07:54:08.052175	168.7	18.4	-92.7	0.7
2025-01-05 07:54:09.215228	168.8	18.3	-92.5	1.1
2025-01-05 07:54:10.372302	168.9	18.1	-92.4	2.3
2025-01-05 07:54:11.533828	169.1	18.0	-93.0	2.2
2025-01-05 07:54:12.694439	169.2	17.9	-92.7	2.4
2025-01-05 07:54:13.858930	169.3	17.8	-93.0	1.1
2025-01-05 07:54:15.022881	169.4	17.6	-92.9	2.7
2025-01-05 07:54:16.184332	169.5	17.5	-92.7	2.0
2025-01-05 07:54:17.347281	169.6	17.4	-92.6	2.4
2025-01-05 07:54:18.513242	169.7	17.3	-92.4	3.4
2025-01-05 07:54:19.675418	169.8	17.1	-92.0	2.9
2025-01-05 07:54:20.827859	169.9	17.0	-92.3	2.5
2025-01-05 07:54:21.985490	170.0	16.9	-92.8	3.3
2025-01-05 07:54:23.142299	170.1	16.8	-92.4	1.9
2025-01-05 07:54:24.301381	170.2	16.7	-92.3	0.6
2025-01-05 07:54:25.460968	170.3	16.5	-92.2	2.3
2025-01-05 07:54:26.627186	170.4	16.4	-92.4	0.8
2025-01-05 07:54:27.784106	170.5	16.3	-92.5	2.3
2025-01-05 07:54:28.947008	170.6	16.2	-92.1	0.9
2025-01-05 07:54:30.095208	170.7	16.1	-92.2	1.6
2025-01-05 07:54:31.255359	170.8	15.9	-92.0	1.3
2025-01-05 07:54:32.420104	170.9	15.8	-92.4	2.0
2025-01-05 07:54:33.583572	171.0	15.7	-92.2	1.3
2025-01-05 07:54:34.743792	171.1	15.6	-92.3	2.7
2025-01-05 07:54:35.904176	171.2	15.5	-92.2	4.7
2025-01-05 07:54:37.064109	171.3	15.4	-92.3	5.9
2025-01-05 07:54:38.217671	171.4	15.2	-92.0	2.6
2025-01-05 07:54:39.375721	171.5	15.1	-92.2	4.0
2025-01-05 07:54:40.531775	171.6	15.0	-92.7	5.0
2025-01-05 07:54:41.690778	171.7	14.9	-92.4	6.0
2025-01-05 07:54:42.857356	171.8	14.8	-92.4	4.5
2025-01-05 07:54:44.020346	171.9	14.7	-92.2	3.0
2025-01-05 07:54:45.176830	172.0	14.6	-92.3	2.7
2025-01-05 07:54:46.360320	172.0	14.4	-92.3	2.7
#Closed at: 2025-01-05 07:46:03.354295