passes_logs/2025/01/05/LEX_Murmansk/LEX_Murmansk__20250105_113457_NOAA_18_rec.log

#Pass ID: 20250105_113457_NOAA 18
#Satellite: NOAA 18
#Configuration: NOAA 18
#Start time: 2025-01-05 11:34:52.401959

#LorettStation: 1.0.0 05.05.2024
#Station: LEX_Murmansk
#Location: 33.156738 lon 68.926811 lat
#TLE: 1 28654U 05018A   25004.89869685  .00000615  00000+0  35035-3 0  9999
#TLE: 2 28654  98.8582  86.0526 0013879 207.8923 152.1507 14.13477357 11671

#Time	Az	El	Level	SNR
2025-01-05 11:35:04.584176	23.1	16.2	-92.3	5.0
2025-01-05 11:35:05.742987	23.0	16.3	-92.0	4.4
2025-01-05 11:35:06.904071	22.9	16.4	-92.4	3.5
2025-01-05 11:35:08.064267	22.8	16.5	-92.2	3.3
2025-01-05 11:35:09.228015	22.7	16.7	-91.8	5.4
2025-01-05 11:35:10.392239	22.6	16.8	-92.3	3.6
2025-01-05 11:35:11.552588	22.5	16.9	-92.6	4.8
2025-01-05 11:35:12.715797	22.4	17.0	-92.4	4.4
2025-01-05 11:35:13.879519	22.3	17.1	-92.3	4.7
2025-01-05 11:35:15.039579	22.1	17.3	-92.2	3.1
2025-01-05 11:35:16.200328	22.0	17.4	-91.4	4.4
2025-01-05 11:35:17.356454	21.9	17.5	-91.8	5.9
2025-01-05 11:35:18.520602	21.8	17.6	-91.9	4.6
2025-01-05 11:35:19.678632	21.7	17.8	-92.0	5.2
2025-01-05 11:35:20.839420	21.6	17.9	-91.7	6.2
2025-01-05 11:35:21.999878	21.5	18.0	-91.9	6.1
2025-01-05 11:35:23.094505	21.4	18.1	-91.5	7.1
2025-01-05 11:35:24.250031	21.3	18.2	-91.6	14.6
2025-01-05 11:35:25.413557	21.1	18.4	-91.9	14.2
2025-01-05 11:35:26.571906	21.0	18.5	-92.1	11.6
2025-01-05 11:35:27.739640	20.9	18.6	-92.0	14.3
2025-01-05 11:35:28.901020	20.8	18.7	-92.0	9.2
2025-01-05 11:35:30.061586	20.7	18.9	-91.7	4.9
2025-01-05 11:35:31.223480	20.6	19.0	-91.4	7.4
2025-01-05 11:35:32.386921	20.4	19.1	-92.2	8.4
2025-01-05 11:35:33.542810	20.3	19.3	-92.4	10.7
2025-01-05 11:35:34.700427	20.2	19.4	-92.3	8.9
2025-01-05 11:35:35.860326	20.1	19.5	-92.1	8.8
2025-01-05 11:35:37.025152	19.9	19.6	-91.8	5.8
2025-01-05 11:35:38.188907	19.8	19.8	-92.0	8.0
2025-01-05 11:35:39.348001	19.7	19.9	-92.1	10.1
2025-01-05 11:35:40.515914	19.6	20.0	-92.3	4.7
2025-01-05 11:35:41.677606	19.4	20.2	-92.6	5.3
2025-01-05 11:35:42.838385	19.3	20.3	-92.2	10.1
2025-01-05 11:35:44.000925	19.2	20.4	-92.0	8.9
2025-01-05 11:35:45.158968	19.0	20.6	-91.6	9.2
2025-01-05 11:35:46.318785	18.9	20.7	-92.0	9.1
2025-01-05 11:35:47.485464	18.8	20.8	-92.6	5.9
2025-01-05 11:35:48.649526	18.6	21.0	-92.9	11.2
2025-01-05 11:35:49.815584	18.5	21.1	-92.6	9.6
2025-01-05 11:35:50.980226	18.3	21.2	-92.7	13.0
2025-01-05 11:35:52.145287	18.2	21.4	-92.2	7.5
2025-01-05 11:35:53.309035	18.1	21.5	-92.1	11.8
2025-01-05 11:35:54.469630	17.9	21.7	-92.3	5.7
2025-01-05 11:35:55.631959	17.8	21.8	-92.5	9.4
2025-01-05 11:35:56.795612	17.6	21.9	-92.3	12.6
2025-01-05 11:35:57.959065	17.5	22.1	-92.4	7.6
2025-01-05 11:35:59.124405	17.3	22.2	-92.0	14.7
2025-01-05 11:36:00.276545	17.2	22.4	-91.9	15.8
2025-01-05 11:36:01.440069	17.0	22.5	-92.1	9.6
2025-01-05 11:36:02.596297	16.9	22.6	-92.3	8.1
2025-01-05 11:36:03.759311	16.7	22.8	-92.8	12.7
2025-01-05 11:36:04.919429	16.6	22.9	-92.6	8.2
2025-01-05 11:36:06.086042	16.4	23.1	-92.2	6.7
2025-01-05 11:36:07.246938	16.2	23.2	-92.1	9.9
2025-01-05 11:36:08.409756	16.1	23.4	-92.2	7.4
2025-01-05 11:36:09.569560	15.9	23.5	-92.3	12.1
2025-01-05 11:36:10.736252	15.7	23.6	-92.2	13.7
2025-01-05 11:36:11.898596	15.6	23.8	-92.3	6.5
2025-01-05 11:36:13.066815	15.4	23.9	-91.9	9.6
2025-01-05 11:36:14.231434	15.2	24.1	-92.0	12.1
2025-01-05 11:36:15.390668	15.1	24.2	-92.4	9.8
2025-01-05 11:36:16.559499	14.9	24.4	-92.6	10.5
2025-01-05 11:36:17.719133	14.7	24.5	-92.5	5.5
2025-01-05 11:36:18.882181	14.6	24.7	-92.7	8.6
2025-01-05 11:36:20.046530	14.4	24.8	-91.9	15.3
2025-01-05 11:36:21.210291	14.2	25.0	-91.9	7.4
2025-01-05 11:36:22.374523	14.0	25.1	-92.4	7.5
2025-01-05 11:36:23.533842	13.8	25.3	-92.3	6.3
2025-01-05 11:36:24.697204	13.7	25.4	-92.0	9.8
2025-01-05 11:36:25.862420	13.5	25.6	-92.4	11.4
2025-01-05 11:36:27.026430	13.3	25.7	-92.1	10.3
2025-01-05 11:36:28.192579	13.1	25.9	-92.2	13.6
2025-01-05 11:36:29.357450	12.9	26.1	-92.5	6.3
2025-01-05 11:36:30.519101	12.7	26.2	-92.3	7.2
2025-01-05 11:36:31.685232	12.5	26.4	-92.4	9.6
2025-01-05 11:36:32.848941	12.3	26.5	-92.5	4.7
2025-01-05 11:36:34.016249	12.1	26.7	-92.1	4.4
2025-01-05 11:36:35.170355	11.9	26.8	-91.6	9.4
2025-01-05 11:36:36.337973	11.7	27.0	-91.2	9.9
2025-01-05 11:36:37.497557	11.5	27.2	-91.3	7.7
2025-01-05 11:36:38.660418	11.3	27.3	-91.9	11.1
2025-01-05 11:36:39.820909	11.1	27.5	-92.3	6.8
2025-01-05 11:36:40.985480	10.9	27.6	-92.3	5.5
2025-01-05 11:36:42.150496	10.7	27.8	-91.9	4.8
2025-01-05 11:36:43.312549	10.4	27.9	-92.0	5.0
2025-01-05 11:36:44.479779	10.2	28.1	-92.2	5.4
2025-01-05 11:36:45.639421	10.0	28.3	-91.9	5.2
2025-01-05 11:36:46.800480	9.8	28.4	-92.0	5.6
2025-01-05 11:36:47.968251	9.6	28.6	-92.2	2.4
2025-01-05 11:36:49.130111	9.3	28.8	-92.1	6.0
2025-01-05 11:36:50.298062	9.1	28.9	-92.4	3.7
2025-01-05 11:36:51.457503	8.9	29.1	-92.6	6.7
2025-01-05 11:36:52.618622	8.6	29.2	-92.7	8.2
2025-01-05 11:36:53.779192	8.4	29.4	-92.6	7.7
2025-01-05 11:36:54.938565	8.2	29.6	-92.4	6.1
2025-01-05 11:36:56.093109	7.9	29.7	-92.2	9.7
2025-01-05 11:36:57.257783	7.7	29.9	-92.0	11.4
2025-01-05 11:36:58.416776	7.4	30.1	-92.4	8.3
2025-01-05 11:36:59.579412	7.2	30.2	-92.4	9.0
2025-01-05 11:37:00.725287	6.9	30.4	-92.7	11.6
2025-01-05 11:37:01.888542	6.7	30.6	-92.7	5.8
2025-01-05 11:37:03.049530	6.4	30.7	-92.3	6.9
2025-01-05 11:37:04.213661	6.2	30.9	-92.3	5.8
2025-01-05 11:37:05.372907	5.9	31.1	-92.3	6.5
2025-01-05 11:37:06.540103	5.6	31.2	-92.2	7.8
2025-01-05 11:37:07.701441	5.4	31.4	-92.2	6.2
2025-01-05 11:37:08.861958	5.1	31.6	-92.4	12.8
2025-01-05 11:37:10.025738	4.8	31.7	-92.3	9.1
2025-01-05 11:37:11.188713	4.5	31.9	-92.3	10.0
2025-01-05 11:37:12.352888	4.3	32.1	-92.5	11.6
2025-01-05 11:37:13.516878	4.0	32.3	-92.6	11.2
2025-01-05 11:37:14.677927	3.7	32.4	-92.3	14.9
2025-01-05 11:37:15.835897	3.4	32.6	-92.6	13.8
2025-01-05 11:37:16.994959	3.1	32.8	-92.4	12.7
2025-01-05 11:37:18.165113	2.8	32.9	-92.3	13.6
2025-01-05 11:37:19.324287	2.5	33.1	-92.3	12.0
2025-01-05 11:37:20.485843	2.2	33.3	-92.6	10.4
2025-01-05 11:37:21.654960	1.9	33.4	-91.9	8.4
2025-01-05 11:37:22.821826	1.6	33.6	-92.7	10.6
2025-01-05 11:37:23.984907	1.3	33.8	-92.4	4.1
2025-01-05 11:37:25.147412	1.0	33.9	-91.9	9.7
2025-01-05 11:37:26.306733	0.7	34.1	-92.6	11.6
2025-01-05 11:37:27.468777	0.3	34.3	-93.1	8.2
2025-01-05 11:37:28.628111	0.0	34.5	-92.7	10.3
2025-01-05 11:37:29.790612	359.7	34.6	-92.4	13.9
2025-01-05 11:37:30.955133	359.3	34.8	-92.5	13.8
2025-01-05 11:37:32.120795	359.0	35.0	-91.8	17.8
2025-01-05 11:37:33.285014	358.7	35.1	-91.8	15.1
2025-01-05 11:37:34.450863	358.3	35.3	-91.2	12.1
2025-01-05 11:37:35.614099	358.0	35.5	-92.1	13.2
2025-01-05 11:37:36.775399	357.6	35.6	-92.7	14.7
2025-01-05 11:37:37.938373	357.3	35.8	-92.8	9.0
2025-01-05 11:37:39.105652	356.9	36.0	-92.5	11.6
2025-01-05 11:37:40.265234	356.6	36.1	-92.7	14.9
2025-01-05 11:37:41.428022	356.2	36.3	-92.9	11.7
2025-01-05 11:37:42.591448	355.8	36.5	-92.8	12.0
2025-01-05 11:37:43.757960	355.5	36.6	-92.5	13.7
2025-01-05 11:37:44.922030	355.1	36.8	-92.6	6.8
2025-01-05 11:37:46.081313	354.7	37.0	-92.0	6.2
2025-01-05 11:37:47.249424	354.3	37.1	-92.0	13.6
2025-01-05 11:37:48.411885	353.9	37.3	-92.5	8.1
2025-01-05 11:37:49.569695	353.6	37.4	-92.5	7.1
2025-01-05 11:37:50.738499	353.2	37.6	-92.5	15.1
2025-01-05 11:37:51.904169	352.8	37.8	-92.3	8.7
2025-01-05 11:37:53.060926	352.4	37.9	-92.1	9.7
2025-01-05 11:37:54.233206	351.9	38.1	-92.6	16.1
2025-01-05 11:37:55.394419	351.5	38.2	-92.9	17.0
2025-01-05 11:37:56.558611	351.1	38.4	-92.7	15.0
2025-01-05 11:37:57.723570	350.7	38.6	-92.7	19.4
2025-01-05 11:37:58.887995	350.3	38.7	-92.8	12.3
2025-01-05 11:38:00.050024	349.9	38.9	-90.8	13.7
2025-01-05 11:38:01.197300	349.4	39.0	-92.2	14.0
2025-01-05 11:38:02.365090	349.0	39.2	-92.3	16.7
2025-01-05 11:38:03.521968	348.6	39.3	-92.5	9.9
2025-01-05 11:38:04.685027	348.1	39.5	-92.3	15.6
2025-01-05 11:38:05.841644	347.7	39.6	-92.6	19.3
2025-01-05 11:38:07.004666	347.2	39.8	-92.4	12.2
2025-01-05 11:38:08.158664	346.8	39.9	-92.1	20.7
2025-01-05 11:38:09.322707	346.3	40.0	-92.4	12.6
2025-01-05 11:38:10.479871	345.8	40.2	-92.7	16.4
2025-01-05 11:38:11.648110	345.4	40.3	-92.1	18.2
2025-01-05 11:38:12.809075	344.9	40.5	-92.7	17.5
2025-01-05 11:38:13.974012	344.4	40.6	-92.4	13.7
2025-01-05 11:38:15.133994	344.0	40.7	-91.8	13.1
2025-01-05 11:38:16.292488	343.5	40.9	-91.7	18.1
2025-01-05 11:38:17.452344	343.0	41.0	-92.0	8.0
2025-01-05 11:38:18.615763	342.5	41.1	-92.4	7.5
2025-01-05 11:38:19.776088	342.0	41.2	-92.7	20.3
2025-01-05 11:38:20.936270	341.5	41.4	-92.9	9.2
2025-01-05 11:38:22.097434	341.0	41.5	-91.7	12.0
2025-01-05 11:38:23.252479	340.5	41.6	-91.8	17.7
2025-01-05 11:38:24.413922	340.0	41.7	-92.7	15.0
2025-01-05 11:38:25.573814	339.5	41.8	-92.6	19.2
2025-01-05 11:38:26.741696	339.0	42.0	-92.5	19.0
2025-01-05 11:38:27.904936	338.4	42.1	-92.4	20.5
2025-01-05 11:38:29.068205	337.9	42.2	-92.1	20.0
2025-01-05 11:38:30.231258	337.4	42.3	-91.8	23.6
2025-01-05 11:38:31.389428	336.9	42.4	-92.0	19.2
2025-01-05 11:38:32.554460	336.3	42.5	-92.2	14.0
2025-01-05 11:38:33.721092	335.8	42.6	-92.0	18.8
2025-01-05 11:38:34.882524	335.2	42.7	-92.4	15.1
2025-01-05 11:38:36.043279	334.7	42.8	-92.3	9.9
2025-01-05 11:38:37.207443	334.1	42.9	-92.0	17.3
2025-01-05 11:38:38.363157	333.6	43.0	-91.7	19.0
2025-01-05 11:38:39.530592	333.0	43.1	-92.3	12.9
2025-01-05 11:38:40.689630	332.5	43.1	-92.8	19.5
2025-01-05 11:38:41.856615	331.9	43.2	-92.6	21.5
2025-01-05 11:38:43.019496	331.4	43.3	-92.2	17.1
2025-01-05 11:38:44.183994	330.8	43.4	-91.9	20.1
2025-01-05 11:38:45.348303	330.2	43.4	-92.2	20.9
2025-01-05 11:38:46.508005	329.6	43.5	-92.4	21.3
2025-01-05 11:38:47.672893	329.1	43.6	-92.2	21.1
2025-01-05 11:38:48.832852	328.5	43.6	-92.4	17.8
2025-01-05 11:38:49.998968	327.9	43.7	-92.2	19.7
2025-01-05 11:38:51.163684	327.3	43.7	-92.1	18.3
2025-01-05 11:38:52.328193	326.8	43.8	-92.6	17.4
2025-01-05 11:38:53.488585	326.2	43.8	-92.7	11.8
2025-01-05 11:38:54.656166	325.6	43.9	-92.4	13.6
2025-01-05 11:38:55.814224	325.0	43.9	-92.7	15.7
2025-01-05 11:38:56.973305	324.4	44.0	-92.4	12.4
2025-01-05 11:38:58.122928	323.8	44.0	-92.1	13.8
2025-01-05 11:38:59.287416	323.2	44.0	-91.7	17.5
2025-01-05 11:39:00.434964	322.6	44.1	-92.4	9.1
2025-01-05 11:39:01.594255	322.1	44.1	-92.5	12.2
2025-01-05 11:39:02.757416	321.5	44.1	-92.4	21.1
2025-01-05 11:39:03.920935	320.9	44.1	-92.4	10.6
2025-01-05 11:39:05.089615	320.3	44.1	-91.9	7.9
2025-01-05 11:39:06.246856	319.7	44.2	-91.8	15.2
2025-01-05 11:39:07.411483	319.1	44.2	-92.3	10.2
2025-01-05 11:39:08.584760	318.5	44.2	-92.7	9.5
2025-01-05 11:39:09.745410	317.9	44.2	-92.5	14.6
2025-01-05 11:39:10.903346	317.3	44.2	-92.3	13.7
2025-01-05 11:39:12.071594	316.7	44.2	-91.9	13.3
2025-01-05 11:39:13.235940	316.1	44.2	-91.8	16.9
2025-01-05 11:39:14.404327	315.5	44.1	-91.9	15.5
2025-01-05 11:39:15.569948	314.9	44.1	-92.0	15.4
2025-01-05 11:39:16.727587	314.3	44.1	-92.1	15.9
2025-01-05 11:39:17.892524	313.7	44.1	-92.3	17.3
2025-01-05 11:39:19.053317	313.1	44.1	-92.1	18.1
2025-01-05 11:39:20.217513	312.5	44.0	-92.0	17.5
2025-01-05 11:39:21.379116	311.9	44.0	-92.5	15.9
2025-01-05 11:39:22.547041	311.3	44.0	-92.5	15.6
2025-01-05 11:39:23.709001	310.7	43.9	-92.1	16.0
2025-01-05 11:39:24.866714	310.2	43.9	-92.2	13.7
2025-01-05 11:39:26.024609	309.6	43.8	-91.8	15.4
2025-01-05 11:39:27.191112	309.0	43.8	-91.5	17.3
2025-01-05 11:39:28.356470	308.4	43.7	-91.5	18.0
2025-01-05 11:39:29.522837	307.8	43.7	-92.1	15.7
2025-01-05 11:39:30.689006	307.2	43.6	-92.4	17.2
2025-01-05 11:39:31.854505	306.7	43.5	-92.3	16.7
2025-01-05 11:39:33.019180	306.1	43.5	-92.2	14.8
2025-01-05 11:39:34.190770	305.5	43.4	-91.8	17.1
2025-01-05 11:39:35.351615	304.9	43.3	-92.2	21.3
2025-01-05 11:39:36.507507	304.4	43.3	-92.4	17.9
2025-01-05 11:39:37.672304	303.8	43.2	-92.3	19.4
2025-01-05 11:39:38.836579	303.3	43.1	-92.2	18.5
2025-01-05 11:39:39.998500	302.7	43.0	-92.1	13.4
2025-01-05 11:39:41.159116	302.1	42.9	-92.0	17.1
2025-01-05 11:39:42.328317	301.6	42.8	-92.4	18.1
2025-01-05 11:39:43.489035	301.0	42.7	-92.5	15.5
2025-01-05 11:39:44.648801	300.5	42.6	-92.5	19.5
2025-01-05 11:39:45.812159	300.0	42.5	-92.2	18.7
2025-01-05 11:39:46.968373	299.4	42.4	-92.6	15.4
2025-01-05 11:39:48.132351	298.9	42.3	-91.8	17.8
2025-01-05 11:39:49.295744	298.4	42.2	-92.1	19.9
2025-01-05 11:39:50.459185	297.8	42.1	-92.3	15.9
2025-01-05 11:39:51.621060	297.3	42.0	-92.6	16.5
2025-01-05 11:39:52.778194	296.8	41.9	-92.6	21.6
2025-01-05 11:39:53.937889	296.3	41.8	-92.5	17.3
2025-01-05 11:39:55.102262	295.8	41.7	-91.9	16.4
2025-01-05 11:39:56.262073	295.2	41.5	-92.0	21.4
2025-01-05 11:39:57.424945	294.7	41.4	-92.7	17.9
2025-01-05 11:39:58.590053	294.2	41.3	-92.9	17.0
2025-01-05 11:39:59.752568	293.7	41.2	-92.7	20.1
2025-01-05 11:40:00.900445	293.3	41.0	-92.5	17.6
2025-01-05 11:40:02.061226	292.8	40.9	-92.2	17.6
2025-01-05 11:40:03.221792	292.3	40.8	-92.0	20.5
2025-01-05 11:40:04.383069	291.8	40.6	-92.4	20.4
2025-01-05 11:40:05.552440	291.3	40.5	-92.7	18.4
2025-01-05 11:40:06.713003	290.8	40.4	-92.7	20.4
2025-01-05 11:40:07.883577	290.4	40.2	-92.5	20.0
2025-01-05 11:40:09.049274	289.9	40.1	-92.3	20.3
2025-01-05 11:40:10.202764	289.4	40.0	-92.1	20.2
2025-01-05 11:40:11.359972	289.0	39.8	-92.6	20.0
2025-01-05 11:40:12.521112	288.5	39.7	-92.3	19.7
2025-01-05 11:40:13.683502	288.1	39.5	-92.3	19.1
2025-01-05 11:40:14.842964	287.6	39.4	-92.0	20.4
2025-01-05 11:40:16.001076	287.2	39.2	-91.7	19.8
2025-01-05 11:40:17.154051	286.8	39.1	-92.0	21.4
2025-01-05 11:40:18.317506	286.3	38.9	-92.2	20.1
2025-01-05 11:40:19.483571	285.9	38.8	-92.1	18.3
2025-01-05 11:40:20.646481	285.5	38.6	-92.3	17.9
2025-01-05 11:40:21.806931	285.0	38.5	-92.5	18.1
2025-01-05 11:40:22.980101	284.6	38.3	-92.8	17.9
2025-01-05 11:40:24.141910	284.2	38.1	-92.0	19.8
2025-01-05 11:40:25.305469	283.8	38.0	-92.4	19.0
2025-01-05 11:40:26.460976	283.4	37.8	-92.5	18.1
2025-01-05 11:40:27.621829	283.0	37.7	-92.4	17.9
2025-01-05 11:40:28.794243	282.6	37.5	-92.1	17.8
2025-01-05 11:40:29.954076	282.2	37.3	-92.2	14.2
2025-01-05 11:40:31.119762	281.8	37.2	-91.9	13.6
2025-01-05 11:40:32.287092	281.4	37.0	-91.8	17.2
2025-01-05 11:40:33.446547	281.0	36.8	-92.7	11.2
2025-01-05 11:40:34.611441	280.7	36.7	-92.7	12.2
2025-01-05 11:40:35.775687	280.3	36.5	-92.6	16.1
2025-01-05 11:40:36.934037	279.9	36.3	-92.7	9.3
2025-01-05 11:40:38.092727	279.6	36.2	-92.0	9.7
2025-01-05 11:40:39.254479	279.2	36.0	-92.0	9.9
2025-01-05 11:40:40.411771	278.8	35.8	-92.6	8.6
2025-01-05 11:40:41.572743	278.5	35.7	-92.4	11.4
2025-01-05 11:40:42.736319	278.1	35.5	-92.6	15.6
2025-01-05 11:40:43.908247	277.8	35.3	-92.6	9.4
2025-01-05 11:40:45.064605	277.4	35.2	-91.9	12.1
2025-01-05 11:40:46.226123	277.1	35.0	-91.6	17.1
2025-01-05 11:40:47.384544	276.7	34.8	-92.2	14.2
2025-01-05 11:40:48.538831	276.4	34.7	-92.0	11.6
2025-01-05 11:40:49.703985	276.1	34.5	-92.5	8.5
2025-01-05 11:40:50.869937	275.8	34.3	-92.8	12.5
2025-01-05 11:40:52.036740	275.4	34.2	-92.2	10.5
2025-01-05 11:40:53.197382	275.1	34.0	-92.1	11.4
2025-01-05 11:40:54.357228	274.8	33.8	-92.4	9.7
2025-01-05 11:40:55.518970	274.5	33.6	-92.7	14.0
2025-01-05 11:40:56.679004	274.2	33.5	-92.8	10.4
2025-01-05 11:40:57.839462	273.9	33.3	-92.6	9.1
2025-01-05 11:40:59.002554	273.6	33.1	-92.3	10.6
2025-01-05 11:41:00.161443	273.3	33.0	-91.8	10.9
2025-01-05 11:41:01.307967	273.0	32.8	-92.4	10.6
2025-01-05 11:41:02.469858	272.7	32.6	-92.4	10.2
2025-01-05 11:41:03.628407	272.4	32.4	-92.6	9.0
2025-01-05 11:41:04.797805	272.1	32.3	-92.7	12.3
2025-01-05 11:41:05.953195	271.8	32.1	-92.9	9.3
2025-01-05 11:41:07.116209	271.5	31.9	-92.3	9.1
2025-01-05 11:41:08.287181	271.2	31.8	-91.6	7.7
2025-01-05 11:41:09.460223	271.0	31.6	-92.4	7.3
2025-01-05 11:41:10.623365	270.7	31.4	-92.8	5.6
2025-01-05 11:41:11.788379	270.4	31.3	-92.6	8.8
2025-01-05 11:41:12.949748	270.1	31.1	-92.6	6.0
2025-01-05 11:41:14.117980	269.9	30.9	-91.8	9.2
2025-01-05 11:41:15.281867	269.6	30.7	-92.0	11.2
2025-01-05 11:41:16.448591	269.4	30.6	-92.3	7.5
2025-01-05 11:41:17.615843	269.1	30.4	-92.6	4.8
2025-01-05 11:41:18.773999	268.8	30.2	-92.6	4.2
2025-01-05 11:41:19.937058	268.6	30.1	-92.4	7.7
2025-01-05 11:41:21.097475	268.3	29.9	-92.2	11.6
2025-01-05 11:41:22.264527	268.1	29.7	-92.0	10.5
2025-01-05 11:41:23.428348	267.9	29.6	-92.3	10.9
2025-01-05 11:41:24.585131	267.6	29.4	-92.7	7.5
2025-01-05 11:41:25.749032	267.4	29.2	-92.4	11.9
2025-01-05 11:41:26.913137	267.1	29.1	-92.2	7.2
2025-01-05 11:41:28.073642	266.9	28.9	-91.9	8.8
2025-01-05 11:41:29.236974	266.7	28.8	-91.7	11.1
2025-01-05 11:41:30.399432	266.4	28.6	-92.3	8.3
2025-01-05 11:41:31.561162	266.2	28.4	-92.3	9.2
2025-01-05 11:41:32.720813	266.0	28.3	-92.1	9.1
2025-01-05 11:41:33.884783	265.8	28.1	-92.6	5.1
2025-01-05 11:41:35.043783	265.5	27.9	-92.2	9.1
2025-01-05 11:41:36.203064	265.3	27.8	-91.9	10.3
2025-01-05 11:41:37.362675	265.1	27.6	-92.3	12.0
2025-01-05 11:41:38.522889	264.9	27.5	-92.5	10.6
2025-01-05 11:41:39.682227	264.7	27.3	-92.5	13.8
2025-01-05 11:41:40.847817	264.5	27.1	-92.8	14.2
2025-01-05 11:41:42.012053	264.3	27.0	-92.6	12.8
2025-01-05 11:41:43.178250	264.1	26.8	-92.1	11.5
2025-01-05 11:41:44.340665	263.9	26.7	-92.2	10.3
2025-01-05 11:41:45.505198	263.7	26.5	-92.3	11.3
2025-01-05 11:41:46.659855	263.5	26.3	-92.3	13.4
2025-01-05 11:41:47.824837	263.3	26.2	-92.4	12.9
2025-01-05 11:41:48.982757	263.1	26.0	-92.7	7.3
2025-01-05 11:41:50.154538	262.9	25.9	-92.2	11.8
2025-01-05 11:41:51.320319	262.7	25.7	-92.5	9.6
2025-01-05 11:41:52.491848	262.5	25.6	-92.0	7.0
2025-01-05 11:41:53.653193	262.3	25.4	-92.6	8.4
2025-01-05 11:41:54.815325	262.1	25.3	-92.3	12.4
2025-01-05 11:41:55.988459	261.9	25.1	-92.5	8.9
2025-01-05 11:41:57.152274	261.7	24.9	-92.0	10.3
2025-01-05 11:41:58.315852	261.6	24.8	-92.1	12.4
2025-01-05 11:41:59.480922	261.4	24.6	-92.4	10.2
2025-01-05 11:42:00.635064	261.2	24.5	-92.6	10.6
2025-01-05 11:42:01.794813	261.0	24.3	-92.4	9.2
2025-01-05 11:42:02.958198	260.9	24.2	-92.3	11.8
2025-01-05 11:42:04.123473	260.7	24.0	-91.9	11.6
2025-01-05 11:42:05.279522	260.5	23.9	-91.8	16.7
2025-01-05 11:42:06.440135	260.4	23.7	-92.4	11.9
2025-01-05 11:42:07.594853	260.2	23.6	-92.3	12.6
2025-01-05 11:42:08.757355	260.0	23.5	-92.5	15.2
2025-01-05 11:42:09.918296	259.9	23.3	-92.4	11.0
2025-01-05 11:42:11.077954	259.7	23.2	-91.9	10.0
2025-01-05 11:42:12.239310	259.5	23.0	-91.9	13.0
2025-01-05 11:42:13.397017	259.4	22.9	-92.2	13.4
2025-01-05 11:42:14.551468	259.2	22.7	-92.4	13.0
2025-01-05 11:42:15.715015	259.1	22.6	-92.3	16.9
2025-01-05 11:42:16.873515	258.9	22.4	-92.5	11.0
2025-01-05 11:42:18.028562	258.8	22.3	-92.3	10.2
2025-01-05 11:42:19.193800	258.6	22.2	-92.2	11.2
2025-01-05 11:42:20.352637	258.5	22.0	-92.5	10.5
2025-01-05 11:42:21.517845	258.3	21.9	-92.4	8.7
2025-01-05 11:42:22.684262	258.2	21.7	-93.0	10.0
2025-01-05 11:42:23.843865	258.0	21.6	-92.7	8.9
2025-01-05 11:42:25.008009	257.9	21.5	-92.8	6.3
2025-01-05 11:42:26.171891	257.7	21.3	-92.1	5.3
2025-01-05 11:42:27.328808	257.6	21.2	-92.4	10.0
2025-01-05 11:42:28.494520	257.4	21.0	-92.5	6.8
2025-01-05 11:42:29.657949	257.3	20.9	-92.5	10.6
2025-01-05 11:42:30.825411	257.2	20.8	-92.6	10.4
2025-01-05 11:42:31.986175	257.0	20.6	-92.3	9.1
2025-01-05 11:42:33.145218	256.9	20.5	-91.9	10.2
2025-01-05 11:42:34.310605	256.7	20.4	-92.0	14.9
2025-01-05 11:42:35.467126	256.6	20.2	-92.5	12.1
2025-01-05 11:42:36.625834	256.5	20.1	-92.5	6.5
2025-01-05 11:42:37.784895	256.3	20.0	-92.7	9.7
2025-01-05 11:42:38.959370	256.2	19.8	-93.0	10.1
2025-01-05 11:42:40.120387	256.1	19.7	-92.1	8.9
2025-01-05 11:42:41.288931	256.0	19.6	-92.2	6.2
2025-01-05 11:42:42.445237	255.8	19.4	-92.5	4.4
2025-01-05 11:42:43.609264	255.7	19.3	-92.6	6.9
2025-01-05 11:42:44.772835	255.6	19.2	-92.3	9.3
2025-01-05 11:42:45.936375	255.5	19.0	-92.4	5.4
2025-01-05 11:42:47.095855	255.3	18.9	-92.1	6.4
2025-01-05 11:42:48.254794	255.2	18.8	-91.7	4.2
2025-01-05 11:42:49.422698	255.1	18.7	-92.3	3.0
2025-01-05 11:42:50.582792	255.0	18.5	-92.2	6.0
2025-01-05 11:42:51.749867	254.8	18.4	-92.8	5.9
2025-01-05 11:42:52.913734	254.7	18.3	-92.8	5.6
2025-01-05 11:42:54.074616	254.6	18.1	-92.4	4.1
2025-01-05 11:42:55.240874	254.5	18.0	-92.3	6.5
2025-01-05 11:42:56.402476	254.4	17.9	-92.8	5.2
2025-01-05 11:42:57.559080	254.3	17.8	-92.5	3.4
2025-01-05 11:42:58.720551	254.2	17.6	-92.5	9.5
2025-01-05 11:42:59.881161	254.0	17.5	-92.4	9.3
2025-01-05 11:43:01.033858	253.9	17.4	-92.6	8.1
2025-01-05 11:43:02.192388	253.8	17.3	-92.0	10.9
2025-01-05 11:43:03.357315	253.7	17.2	-92.7	7.6
2025-01-05 11:43:04.526104	253.6	17.0	-92.4	8.2
2025-01-05 11:43:05.683851	253.5	16.9	-92.3	7.6
2025-01-05 11:43:06.849405	253.4	16.8	-92.4	10.9
2025-01-05 11:43:08.011568	253.3	16.7	-92.2	9.2
2025-01-05 11:43:09.169397	253.2	16.6	-92.3	11.7
2025-01-05 11:43:10.329140	253.1	16.4	-92.4	10.2
2025-01-05 11:43:11.501264	253.0	16.3	-92.5	9.0
2025-01-05 11:43:12.665690	252.9	16.2	-92.6	11.1
2025-01-05 11:43:13.828066	252.8	16.1	-92.1	11.7
2025-01-05 11:43:14.992485	252.7	16.0	-92.2	9.2
2025-01-05 11:43:16.149133	252.6	15.8	-91.1	11.4
2025-01-05 11:43:17.307691	252.5	15.7	-92.4	14.7
2025-01-05 11:43:18.463497	252.4	15.6	-92.5	9.2
2025-01-05 11:43:19.625748	252.3	15.5	-92.5	12.0
2025-01-05 11:43:20.788820	252.2	15.4	-92.4	11.5
2025-01-05 11:43:21.950593	252.1	15.3	-92.6	11.4
2025-01-05 11:43:23.109959	252.0	15.2	-92.2	10.3
2025-01-05 11:43:24.267895	251.9	15.0	-92.0	11.6
2025-01-05 11:43:25.427886	251.8	14.9	-92.4	9.3
2025-01-05 11:43:26.594081	251.7	14.8	-92.3	7.5
2025-01-05 11:43:27.748395	251.6	14.7	-92.5	14.9
2025-01-05 11:43:28.913867	251.5	14.6	-92.6	9.9
2025-01-05 11:43:30.075776	251.4	14.5	-92.2	6.9
#Closed at: 2025-01-05 11:34:57.371941