passes_logs/2025/01/05/LEX_Murmansk/LEX_Murmansk__20250105_110736_NOAA_19_rec.log

#Pass ID: 20250105_110736_NOAA 19
#Satellite: NOAA 19
#Configuration: NOAA 19
#Start time: 2025-01-05 11:07:31.505200

#LorettStation: 1.0.0 05.05.2024
#Station: LEX_Murmansk
#Location: 33.156738 lon 68.926811 lat
#TLE: 1 33591U 09005A   25004.88002234  .00000560  00000+0  32285-3 0  9996
#TLE: 2 33591  99.0214  68.5635 0014675  84.4442 275.8403 14.13251363820110

#Time	Az	El	Level	SNR
2025-01-05 11:07:44.200768	24.1	16.2	-91.3	3.6
2025-01-05 11:07:45.348738	24.0	16.3	-91.6	4.6
2025-01-05 11:07:46.495710	23.8	16.4	-91.6	3.7
2025-01-05 11:07:47.644904	23.7	16.5	-92.1	5.0
2025-01-05 11:07:48.800783	23.6	16.6	-92.3	4.1
2025-01-05 11:07:49.957518	23.4	16.7	-92.1	2.6
2025-01-05 11:07:51.110286	23.3	16.8	-91.8	0.9
2025-01-05 11:07:52.257702	23.1	16.9	-91.9	1.6
2025-01-05 11:07:53.513833	23.0	17.0	-92.2	4.4
2025-01-05 11:07:54.668523	22.8	17.1	-92.1	6.5
2025-01-05 11:07:55.815007	22.7	17.3	-92.2	8.6
2025-01-05 11:07:56.970979	22.5	17.4	-91.9	5.6
2025-01-05 11:07:58.121663	22.4	17.5	-91.6	8.6
2025-01-05 11:07:59.277999	22.2	17.6	-91.4	3.4
2025-01-05 11:08:00.425227	22.1	17.7	-92.3	3.1
2025-01-05 11:08:01.572805	21.9	17.8	-92.3	8.6
2025-01-05 11:08:02.719736	21.8	17.9	-92.2	5.5
2025-01-05 11:08:03.866917	21.6	18.0	-88.6	2.2
2025-01-05 11:08:05.018550	21.5	18.1	-92.5	6.7
2025-01-05 11:08:06.169479	21.3	18.3	-91.9	0.5
2025-01-05 11:08:07.321910	21.2	18.4	-91.6	1.1
2025-01-05 11:08:08.466443	21.0	18.5	-91.9	2.0
2025-01-05 11:08:09.618037	20.8	18.6	-92.3	3.1
2025-01-05 11:08:10.771733	20.7	18.7	-92.6	2.8
2025-01-05 11:08:11.924837	20.5	18.8	-92.5	3.3
2025-01-05 11:08:13.072035	20.4	18.9	-92.0	9.5
2025-01-05 11:08:14.222046	20.2	19.0	-92.0	4.2
2025-01-05 11:08:15.379051	20.0	19.2	-92.1	9.0
2025-01-05 11:08:16.525299	19.9	19.3	-92.6	9.1
2025-01-05 11:08:17.673505	19.7	19.4	-92.0	4.8
2025-01-05 11:08:18.826741	19.5	19.5	-92.4	3.0
2025-01-05 11:08:19.979018	19.3	19.6	-92.4	9.5
2025-01-05 11:08:21.131814	19.2	19.7	-91.9	10.0
2025-01-05 11:08:22.285283	19.0	19.9	-92.0	7.4
2025-01-05 11:08:23.435265	18.8	20.0	-92.1	11.7
2025-01-05 11:08:24.586122	18.6	20.1	-92.2	5.7
2025-01-05 11:08:25.739383	18.5	20.2	-92.3	4.3
2025-01-05 11:08:26.885443	18.3	20.3	-92.6	4.8
2025-01-05 11:08:28.028920	18.1	20.4	-92.1	3.8
2025-01-05 11:08:29.177131	17.9	20.6	-91.7	2.1
2025-01-05 11:08:30.335727	17.7	20.7	-91.7	4.0
2025-01-05 11:08:31.484203	17.6	20.8	-92.2	5.9
2025-01-05 11:08:32.633111	17.4	20.9	-92.2	5.0
2025-01-05 11:08:33.788866	17.2	21.0	-92.4	7.2
2025-01-05 11:08:34.936946	17.0	21.1	-92.5	11.4
2025-01-05 11:08:36.085601	16.8	21.3	-91.9	8.0
2025-01-05 11:08:37.233117	16.6	21.4	-92.3	5.3
2025-01-05 11:08:38.380490	16.4	21.5	-92.0	7.0
2025-01-05 11:08:39.532008	16.2	21.6	-92.4	5.2
2025-01-05 11:08:40.678455	16.0	21.7	-92.5	4.8
2025-01-05 11:08:41.838500	15.8	21.9	-92.2	6.7
2025-01-05 11:08:42.986206	15.6	22.0	-91.9	4.8
2025-01-05 11:08:44.131956	15.4	22.1	-92.0	4.2
2025-01-05 11:08:45.277821	15.2	22.2	-92.1	5.0
2025-01-05 11:08:46.431915	15.0	22.3	-92.5	3.7
2025-01-05 11:08:47.581184	14.8	22.5	-92.3	2.9
2025-01-05 11:08:48.726778	14.6	22.6	-92.5	3.5
2025-01-05 11:08:49.874430	14.4	22.7	-92.4	2.5
2025-01-05 11:08:51.023316	14.2	22.8	-92.3	6.8
2025-01-05 11:08:52.173027	14.0	22.9	-92.2	6.5
2025-01-05 11:08:53.322099	13.7	23.1	-91.9	11.4
2025-01-05 11:08:54.475738	13.5	23.2	-92.4	14.0
2025-01-05 11:08:55.619550	13.3	23.3	-92.0	12.3
2025-01-05 11:08:56.744359	13.1	23.4	-92.2	10.4
2025-01-05 11:08:57.896937	12.9	23.6	-92.1	8.4
2025-01-05 11:08:59.043755	12.7	23.7	-92.3	8.2
2025-01-05 11:09:00.189932	12.4	23.8	-92.4	3.0
2025-01-05 11:09:01.333435	12.2	23.9	-91.8	10.9
2025-01-05 11:09:02.477290	12.0	24.0	-92.4	11.6
2025-01-05 11:09:03.625968	11.7	24.2	-92.1	10.8
2025-01-05 11:09:04.784076	11.5	24.3	-92.1	6.2
2025-01-05 11:09:05.932251	11.3	24.4	-92.6	4.9
2025-01-05 11:09:07.084030	11.0	24.5	-92.0	4.5
2025-01-05 11:09:08.231326	10.8	24.6	-92.3	2.0
2025-01-05 11:09:09.383806	10.6	24.8	-92.2	1.9
2025-01-05 11:09:10.535717	10.3	24.9	-92.3	5.2
2025-01-05 11:09:11.689851	10.1	25.0	-92.1	4.9
2025-01-05 11:09:12.850689	9.8	25.1	-92.5	5.6
2025-01-05 11:09:13.994671	9.6	25.3	-92.7	8.6
2025-01-05 11:09:15.143845	9.3	25.4	-92.0	9.4
2025-01-05 11:09:16.295092	9.1	25.5	-92.1	13.6
2025-01-05 11:09:17.446017	8.8	25.6	-92.3	7.8
2025-01-05 11:09:18.596019	8.6	25.8	-92.1	8.1
2025-01-05 11:09:19.750384	8.3	25.9	-92.7	2.9
2025-01-05 11:09:20.903895	8.1	26.0	-92.4	5.9
2025-01-05 11:09:22.052069	7.8	26.1	-92.1	6.9
2025-01-05 11:09:23.206658	7.5	26.2	-91.9	10.0
2025-01-05 11:09:24.352424	7.3	26.4	-92.1	7.1
2025-01-05 11:09:25.521265	7.0	26.5	-92.4	8.3
2025-01-05 11:09:26.679916	6.7	26.6	-92.3	6.5
2025-01-05 11:09:27.829502	6.4	26.7	-92.4	7.1
2025-01-05 11:09:28.979968	6.2	26.8	-92.6	3.0
2025-01-05 11:09:30.138007	5.9	27.0	-92.4	4.2
2025-01-05 11:09:31.283470	5.6	27.1	-92.3	2.6
2025-01-05 11:09:32.432274	5.3	27.2	-92.5	2.7
2025-01-05 11:09:33.580569	5.1	27.3	-92.5	5.3
2025-01-05 11:09:34.726986	4.8	27.5	-92.3	4.8
2025-01-05 11:09:35.879494	4.5	27.6	-92.4	6.4
2025-01-05 11:09:37.027933	4.2	27.7	-92.8	7.6
2025-01-05 11:09:38.175735	3.9	27.8	-91.2	7.6
2025-01-05 11:09:39.313469	3.6	27.9	-91.8	6.4
2025-01-05 11:09:40.462760	3.3	28.0	-92.6	6.6
2025-01-05 11:09:41.613012	3.0	28.2	-91.4	4.6
2025-01-05 11:09:42.767322	2.7	28.3	-91.9	2.2
2025-01-05 11:09:43.921563	2.4	28.4	-91.5	3.3
2025-01-05 11:09:45.074551	2.1	28.5	-91.6	4.2
2025-01-05 11:09:46.228480	1.8	28.6	-91.5	6.5
2025-01-05 11:09:47.375886	1.5	28.7	-91.8	6.1
2025-01-05 11:09:48.528129	1.2	28.9	-92.4	7.2
2025-01-05 11:09:49.682028	0.9	29.0	-92.4	7.5
2025-01-05 11:09:50.830046	0.6	29.1	-92.5	6.7
2025-01-05 11:09:51.984440	0.2	29.2	-92.2	4.6
2025-01-05 11:09:53.134430	359.9	29.3	-91.4	4.1
2025-01-05 11:09:54.287039	359.6	29.4	-91.5	1.7
2025-01-05 11:09:55.432252	359.3	29.5	-92.0	4.1
2025-01-05 11:09:56.586196	358.9	29.7	-92.0	0.9
2025-01-05 11:09:57.737388	358.6	29.8	-92.3	2.6
2025-01-05 11:09:58.886385	358.3	29.9	-91.6	1.6
2025-01-05 11:10:00.039231	357.9	30.0	-91.6	4.1
2025-01-05 11:10:01.180107	357.6	30.1	-91.7	6.0
2025-01-05 11:10:02.328640	357.3	30.2	-91.5	8.4
2025-01-05 11:10:03.473278	356.9	30.3	-92.5	7.8
2025-01-05 11:10:04.621077	356.6	30.4	-92.5	6.6
2025-01-05 11:10:05.775252	356.2	30.5	-92.6	7.9
2025-01-05 11:10:06.931086	355.9	30.6	-92.8	5.6
2025-01-05 11:10:08.085274	355.5	30.7	-92.1	5.9
2025-01-05 11:10:09.243925	355.2	30.8	-91.8	4.0
2025-01-05 11:10:10.393316	354.8	30.9	-92.2	4.9
2025-01-05 11:10:11.548787	354.5	31.0	-92.3	6.4
2025-01-05 11:10:12.699446	354.1	31.1	-92.9	4.3
2025-01-05 11:10:13.842751	353.8	31.2	-92.7	7.9
2025-01-05 11:10:14.998686	353.4	31.3	-92.0	9.3
2025-01-05 11:10:16.152731	353.0	31.4	-92.1	8.2
2025-01-05 11:10:17.314489	352.7	31.5	-92.1	7.3
2025-01-05 11:10:18.461883	352.3	31.6	-92.5	7.6
2025-01-05 11:10:19.612637	351.9	31.7	-93.0	7.4
2025-01-05 11:10:20.766463	351.5	31.8	-92.8	4.6
2025-01-05 11:10:21.913241	351.2	31.9	-92.7	5.2
2025-01-05 11:10:23.066588	350.8	32.0	-92.2	3.0
2025-01-05 11:10:24.220416	350.4	32.1	-92.5	2.0
2025-01-05 11:10:25.375250	350.0	32.2	-92.6	2.6
2025-01-05 11:10:26.524195	349.6	32.3	-92.9	4.6
2025-01-05 11:10:27.677967	349.2	32.4	-92.5	4.0
2025-01-05 11:10:28.821070	348.9	32.4	-92.5	2.1
2025-01-05 11:10:29.969815	348.5	32.5	-92.7	6.2
2025-01-05 11:10:31.127004	348.1	32.6	-92.5	9.7
2025-01-05 11:10:32.271575	347.7	32.7	-92.1	8.1
2025-01-05 11:10:33.418872	347.3	32.8	-92.2	9.2
2025-01-05 11:10:34.566702	346.9	32.8	-92.5	10.4
2025-01-05 11:10:35.713134	346.5	32.9	-92.3	12.1
2025-01-05 11:10:36.870660	346.1	33.0	-92.8	11.9
2025-01-05 11:10:38.020048	345.7	33.1	-92.4	12.8
2025-01-05 11:10:39.171549	345.3	33.1	-92.2	11.9
2025-01-05 11:10:40.322380	344.9	33.2	-92.5	9.2
2025-01-05 11:10:41.475560	344.5	33.3	-92.6	9.0
2025-01-05 11:10:42.629854	344.0	33.4	-92.0	9.0
2025-01-05 11:10:43.781956	343.6	33.4	-92.6	5.8
2025-01-05 11:10:44.933127	343.2	33.5	-92.6	7.8
2025-01-05 11:10:46.081958	342.8	33.6	-92.4	9.7
2025-01-05 11:10:47.236983	342.4	33.6	-92.2	6.6
2025-01-05 11:10:48.382579	342.0	33.7	-92.0	9.4
2025-01-05 11:10:49.532822	341.5	33.7	-92.7	12.4
2025-01-05 11:10:50.679470	341.1	33.8	-92.6	14.2
2025-01-05 11:10:51.830768	340.7	33.9	-92.5	13.2
2025-01-05 11:10:52.979997	340.3	33.9	-92.7	14.0
2025-01-05 11:10:54.128314	339.8	34.0	-92.3	15.2
2025-01-05 11:10:55.282545	339.4	34.0	-92.6	13.2
2025-01-05 11:10:56.442522	339.0	34.1	-92.7	11.6
2025-01-05 11:10:57.595012	338.5	34.1	-92.6	11.3
2025-01-05 11:10:58.742007	338.1	34.1	-92.7	9.8
2025-01-05 11:10:59.890540	337.7	34.2	-92.2	7.4
2025-01-05 11:11:01.030731	337.2	34.2	-92.8	7.4
2025-01-05 11:11:02.177952	336.8	34.3	-92.0	7.3
2025-01-05 11:11:03.324776	336.4	34.3	-92.1	4.8
2025-01-05 11:11:04.474838	335.9	34.3	-92.8	6.7
2025-01-05 11:11:05.633335	335.5	34.4	-92.9	6.2
2025-01-05 11:11:06.784470	335.0	34.4	-92.4	1.7
2025-01-05 11:11:07.941214	334.6	34.4	-92.6	7.2
2025-01-05 11:11:09.091817	334.2	34.5	-92.2	6.7
2025-01-05 11:11:10.240227	333.7	34.5	-92.2	3.2
2025-01-05 11:11:11.387706	333.3	34.5	-92.7	5.7
2025-01-05 11:11:12.537023	332.8	34.5	-92.4	6.1
2025-01-05 11:11:13.691782	332.4	34.6	-92.4	3.9
2025-01-05 11:11:14.839344	331.9	34.6	-92.5	4.0
2025-01-05 11:11:15.982216	331.5	34.6	-92.5	8.7
2025-01-05 11:11:17.131926	331.0	34.6	-91.8	9.7
2025-01-05 11:11:18.279104	330.6	34.6	-92.1	9.5
2025-01-05 11:11:19.430303	330.2	34.6	-92.7	14.6
2025-01-05 11:11:20.585009	329.7	34.6	-92.6	15.9
2025-01-05 11:11:21.742637	329.3	34.7	-92.6	16.0
2025-01-05 11:11:22.891523	328.8	34.7	-92.2	14.3
2025-01-05 11:11:24.043299	328.4	34.7	-92.1	13.9
2025-01-05 11:11:25.197709	327.9	34.7	-92.4	14.5
2025-01-05 11:11:26.345460	327.5	34.7	-92.4	14.0
2025-01-05 11:11:27.502512	327.0	34.7	-92.7	13.5
2025-01-05 11:11:28.651579	326.6	34.6	-92.5	14.4
2025-01-05 11:11:29.801720	326.1	34.6	-92.5	13.5
2025-01-05 11:11:30.951847	325.7	34.6	-92.7	14.3
2025-01-05 11:11:32.095003	325.2	34.6	-92.5	10.5
2025-01-05 11:11:33.245298	324.8	34.6	-92.1	8.9
2025-01-05 11:11:34.389323	324.3	34.6	-92.5	11.0
2025-01-05 11:11:35.541380	323.9	34.6	-92.1	10.0
2025-01-05 11:11:36.697842	323.4	34.6	-92.6	6.9
2025-01-05 11:11:37.848348	323.0	34.5	-92.3	6.9
2025-01-05 11:11:38.994901	322.6	34.5	-92.5	8.6
2025-01-05 11:11:40.150598	322.1	34.5	-92.4	7.2
2025-01-05 11:11:41.306235	321.7	34.5	-92.6	5.4
2025-01-05 11:11:42.460731	321.2	34.4	-92.5	6.1
2025-01-05 11:11:43.614721	320.8	34.4	-92.7	8.9
2025-01-05 11:11:44.777111	320.3	34.4	-92.7	7.1
2025-01-05 11:11:45.922553	319.9	34.3	-92.3	5.1
2025-01-05 11:11:47.080337	319.5	34.3	-92.3	7.7
2025-01-05 11:11:48.229681	319.0	34.3	-92.2	4.6
2025-01-05 11:11:49.380289	318.6	34.2	-92.6	7.3
2025-01-05 11:11:50.525205	318.2	34.2	-92.5	7.7
2025-01-05 11:11:51.674305	317.7	34.1	-92.4	5.5
2025-01-05 11:11:52.820654	317.3	34.1	-92.4	4.2
2025-01-05 11:11:53.975926	316.9	34.0	-92.5	7.4
2025-01-05 11:11:55.124758	316.4	34.0	-92.3	9.1
2025-01-05 11:11:56.277148	316.0	33.9	-91.9	5.1
2025-01-05 11:11:57.430548	315.6	33.9	-92.5	7.9
2025-01-05 11:11:58.585350	315.1	33.8	-92.6	7.8
2025-01-05 11:11:59.734503	314.7	33.8	-92.7	4.8
2025-01-05 11:12:00.879639	314.3	33.7	-92.6	6.1
2025-01-05 11:12:02.029572	313.9	33.7	-92.4	7.6
2025-01-05 11:12:03.178238	313.5	33.6	-92.1	6.1
2025-01-05 11:12:04.328037	313.0	33.5	-92.2	6.5
2025-01-05 11:12:05.477349	312.6	33.5	-92.7	8.4
2025-01-05 11:12:06.630334	312.2	33.4	-92.2	8.8
2025-01-05 11:12:07.781322	311.8	33.3	-92.5	5.0
2025-01-05 11:12:08.926891	311.4	33.3	-92.6	6.4
2025-01-05 11:12:10.079201	311.0	33.2	-92.4	8.9
2025-01-05 11:12:11.236655	310.6	33.1	-92.2	5.2
2025-01-05 11:12:12.381915	310.2	33.1	-92.6	5.1
2025-01-05 11:12:13.535928	309.7	33.0	-92.5	8.6
2025-01-05 11:12:14.685759	309.3	32.9	-92.4	5.8
2025-01-05 11:12:15.837427	308.9	32.8	-92.5	6.9
2025-01-05 11:12:16.985929	308.5	32.7	-92.6	8.4
2025-01-05 11:12:18.139067	308.1	32.7	-92.3	5.3
2025-01-05 11:12:19.291609	307.8	32.6	-92.3	4.4
2025-01-05 11:12:20.438508	307.4	32.5	-92.8	5.3
2025-01-05 11:12:21.586220	307.0	32.4	-92.5	3.9
2025-01-05 11:12:22.741218	306.6	32.3	-92.6	4.7
2025-01-05 11:12:23.892196	306.2	32.2	-92.5	5.1
2025-01-05 11:12:25.042829	305.8	32.2	-92.4	6.6
2025-01-05 11:12:26.198327	305.4	32.1	-92.3	4.9
2025-01-05 11:12:27.348498	305.0	32.0	-92.6	4.0
2025-01-05 11:12:28.499525	304.7	31.9	-92.3	6.4
2025-01-05 11:12:29.645117	304.3	31.8	-92.5	5.2
2025-01-05 11:12:30.811040	303.9	31.7	-92.5	2.5
2025-01-05 11:12:31.972262	303.5	31.6	-92.3	6.7
2025-01-05 11:12:33.118927	303.2	31.5	-92.5	7.5
2025-01-05 11:12:34.271917	302.8	31.4	-92.3	3.8
2025-01-05 11:12:35.422502	302.4	31.3	-92.4	6.3
2025-01-05 11:12:36.574311	302.1	31.2	-92.4	6.8
2025-01-05 11:12:37.720064	301.7	31.1	-92.3	1.0
2025-01-05 11:12:38.878203	301.4	31.0	-92.7	6.4
2025-01-05 11:12:40.024497	301.0	30.9	-92.4	8.0
2025-01-05 11:12:41.176282	300.6	30.8	-92.1	4.7
2025-01-05 11:12:42.331602	300.3	30.7	-92.0	5.7
2025-01-05 11:12:43.485083	299.9	30.6	-92.4	7.0
2025-01-05 11:12:44.640355	299.6	30.5	-92.6	6.9
2025-01-05 11:12:45.790191	299.2	30.4	-92.9	7.3
2025-01-05 11:12:46.938260	298.9	30.3	-92.5	6.8
2025-01-05 11:12:48.083715	298.6	30.2	-92.4	9.4
2025-01-05 11:12:49.234918	298.2	30.1	-92.4	10.9
2025-01-05 11:12:50.390949	297.9	29.9	-92.5	8.5
2025-01-05 11:12:51.543059	297.6	29.8	-92.6	12.0
2025-01-05 11:12:52.691903	297.2	29.7	-92.4	8.9
2025-01-05 11:12:53.847181	296.9	29.6	-92.2	8.7
2025-01-05 11:12:54.995422	296.6	29.5	-92.5	11.5
2025-01-05 11:12:56.145350	296.2	29.4	-91.9	12.1
2025-01-05 11:12:57.301649	295.9	29.3	-91.9	7.7
2025-01-05 11:12:58.453789	295.6	29.2	-91.5	11.5
2025-01-05 11:12:59.609282	295.3	29.0	-92.2	9.6
2025-01-05 11:13:00.750624	295.0	28.9	-91.8	12.5
2025-01-05 11:13:01.900225	294.7	28.8	-91.8	8.4
2025-01-05 11:13:03.049566	294.4	28.7	-91.8	10.7
2025-01-05 11:13:04.203860	294.0	28.6	-91.4	4.4
2025-01-05 11:13:05.353838	293.7	28.5	-91.7	8.2
2025-01-05 11:13:06.506514	293.4	28.4	-92.1	6.0
2025-01-05 11:13:07.660810	293.1	28.2	-92.2	8.4
2025-01-05 11:13:08.809035	292.8	28.1	-92.0	6.0
2025-01-05 11:13:09.953394	292.5	28.0	-91.7	9.0
2025-01-05 11:13:11.100400	292.2	27.9	-92.1	6.1
2025-01-05 11:13:12.251862	291.9	27.8	-91.6	3.3
2025-01-05 11:13:13.403695	291.7	27.6	-92.4	5.4
2025-01-05 11:13:14.549725	291.4	27.5	-92.4	5.2
2025-01-05 11:13:15.702100	291.1	27.4	-92.6	2.7
2025-01-05 11:13:16.856255	290.8	27.3	-92.9	5.1
2025-01-05 11:13:18.007657	290.5	27.2	-92.4	4.7
2025-01-05 11:13:19.155472	290.2	27.0	-92.0	3.5
2025-01-05 11:13:20.301968	290.0	26.9	-92.2	3.6
2025-01-05 11:13:21.458936	289.7	26.8	-92.7	7.6
2025-01-05 11:13:22.606977	289.4	26.7	-92.3	5.9
2025-01-05 11:13:23.758133	289.1	26.6	-92.6	6.2
2025-01-05 11:13:24.918327	288.9	26.4	-92.6	8.3
2025-01-05 11:13:26.071525	288.6	26.3	-92.2	7.6
2025-01-05 11:13:27.219728	288.3	26.2	-92.0	8.2
2025-01-05 11:13:28.378149	288.1	26.1	-92.1	11.0
2025-01-05 11:13:29.531295	287.8	25.9	-92.8	12.6
2025-01-05 11:13:30.680044	287.5	25.8	-92.2	10.5
2025-01-05 11:13:31.833640	287.3	25.7	-92.5	8.6
2025-01-05 11:13:32.979605	287.0	25.6	-92.8	10.4
2025-01-05 11:13:34.127361	286.8	25.5	-92.1	10.6
2025-01-05 11:13:35.278028	286.5	25.3	-92.3	8.5
2025-01-05 11:13:36.436046	286.3	25.2	-92.2	6.2
2025-01-05 11:13:37.593934	286.0	25.1	-92.2	7.1
2025-01-05 11:13:38.746101	285.8	25.0	-92.5	3.2
2025-01-05 11:13:39.897573	285.5	24.8	-92.4	3.4
2025-01-05 11:13:41.044974	285.3	24.7	-92.6	8.4
2025-01-05 11:13:42.194919	285.1	24.6	-92.2	3.4
2025-01-05 11:13:43.352343	284.8	24.5	-91.9	1.2
2025-01-05 11:13:44.523137	284.6	24.4	-92.5	3.7
2025-01-05 11:13:45.678138	284.3	24.2	-92.0	3.1
2025-01-05 11:13:46.832020	284.1	24.1	-92.5	2.6
2025-01-05 11:13:47.984053	283.9	24.0	-92.5	4.5
2025-01-05 11:13:49.139821	283.7	23.9	-92.2	3.7
2025-01-05 11:13:50.289170	283.4	23.7	-92.2	5.1
2025-01-05 11:13:51.441405	283.2	23.6	-92.6	3.7
2025-01-05 11:13:52.588381	283.0	23.5	-92.4	3.7
2025-01-05 11:13:53.740010	282.8	23.4	-92.5	4.5
2025-01-05 11:13:54.885333	282.5	23.3	-92.5	9.6
2025-01-05 11:13:56.034149	282.3	23.1	-92.3	7.1
2025-01-05 11:13:57.184755	282.1	23.0	-92.3	5.5
2025-01-05 11:13:58.333887	281.9	22.9	-92.4	5.2
2025-01-05 11:13:59.479133	281.7	22.8	-92.6	7.4
2025-01-05 11:14:00.628421	281.5	22.6	-92.4	7.7
2025-01-05 11:14:01.776429	281.3	22.5	-92.6	3.7
2025-01-05 11:14:02.934960	281.0	22.4	-92.3	7.8
2025-01-05 11:14:04.081885	280.8	22.3	-92.4	8.5
2025-01-05 11:14:05.230332	280.6	22.2	-92.4	3.5
2025-01-05 11:14:06.375264	280.4	22.0	-92.2	6.0
2025-01-05 11:14:07.527985	280.2	21.9	-92.5	3.3
2025-01-05 11:14:08.678235	280.0	21.8	-92.8	5.3
2025-01-05 11:14:09.830598	279.8	21.7	-92.3	3.6
2025-01-05 11:14:10.993101	279.6	21.6	-91.8	7.0
2025-01-05 11:14:12.146314	279.4	21.4	-91.8	5.4
2025-01-05 11:14:13.295318	279.2	21.3	-91.7	5.2
2025-01-05 11:14:14.441106	279.1	21.2	-91.9	9.4
2025-01-05 11:14:15.592042	278.9	21.1	-91.9	9.9
2025-01-05 11:14:16.740874	278.7	21.0	-91.8	1.6
2025-01-05 11:14:17.897181	278.5	20.9	-91.8	4.7
2025-01-05 11:14:19.051983	278.3	20.7	-91.9	1.8
2025-01-05 11:14:20.207257	278.1	20.6	-91.7	5.2
2025-01-05 11:14:21.359015	277.9	20.5	-91.7	2.7
2025-01-05 11:14:22.506813	277.7	20.4	-92.0	2.8
2025-01-05 11:14:23.657463	277.6	20.3	-92.4	3.0
2025-01-05 11:14:24.816177	277.4	20.1	-92.0	3.2
2025-01-05 11:14:25.973018	277.2	20.0	-92.0	2.9
2025-01-05 11:14:27.117919	277.0	19.9	-91.9	2.0
2025-01-05 11:14:28.268675	276.9	19.8	-92.4	1.4
2025-01-05 11:14:29.414905	276.7	19.7	-92.4	1.5
2025-01-05 11:14:30.566364	276.5	19.6	-92.2	1.6
2025-01-05 11:14:31.710914	276.3	19.4	-92.5	1.8
2025-01-05 11:14:32.864386	276.2	19.3	-91.9	6.2
2025-01-05 11:14:34.020608	276.0	19.2	-92.2	6.3
2025-01-05 11:14:35.173710	275.8	19.1	-90.1	4.8
2025-01-05 11:14:36.324944	275.7	19.0	-91.5	6.3
2025-01-05 11:14:37.474795	275.5	18.9	-91.6	4.8
2025-01-05 11:14:38.630828	275.3	18.8	-92.4	3.1
2025-01-05 11:14:39.783772	275.2	18.6	-91.5	6.4
2025-01-05 11:14:40.938376	275.0	18.5	-91.6	7.3
2025-01-05 11:14:42.090185	274.9	18.4	-89.0	4.3
2025-01-05 11:14:43.246212	274.7	18.3	-88.9	2.6
2025-01-05 11:14:44.408902	274.5	18.2	-91.4	4.7
2025-01-05 11:14:45.554578	274.4	18.1	-90.9	5.0
2025-01-05 11:14:46.695510	274.2	18.0	-91.9	3.7
2025-01-05 11:14:47.846521	274.1	17.9	-92.0	1.7
2025-01-05 11:14:49.009208	273.9	17.7	-92.3	4.6
2025-01-05 11:14:50.160105	273.8	17.6	-92.2	4.0
2025-01-05 11:14:51.311109	273.6	17.5	-92.0	6.2
2025-01-05 11:14:52.462814	273.5	17.4	-92.6	2.7
2025-01-05 11:14:53.609685	273.3	17.3	-92.5	7.1
2025-01-05 11:14:54.755794	273.2	17.2	-92.6	6.8
2025-01-05 11:14:55.907462	273.0	17.1	-92.4	4.7
2025-01-05 11:14:57.063260	272.9	17.0	-92.7	6.9
2025-01-05 11:14:58.218563	272.7	16.9	-92.2	1.2
2025-01-05 11:14:59.373793	272.6	16.8	-91.7	2.5
2025-01-05 11:15:00.513470	272.4	16.6	-91.8	3.3
2025-01-05 11:15:01.659385	272.3	16.5	-92.5	1.1
2025-01-05 11:15:02.807497	272.2	16.4	-92.5	2.0
2025-01-05 11:15:03.957281	272.0	16.3	-92.3	4.4
2025-01-05 11:15:05.111336	271.9	16.2	-91.8	1.4
2025-01-05 11:15:06.266323	271.8	16.1	-92.0	3.1
2025-01-05 11:15:07.423206	271.6	16.0	-92.5	4.9
2025-01-05 11:15:08.574045	271.5	15.9	-92.4	6.2
2025-01-05 11:15:09.715781	271.4	15.8	-92.4	6.1
2025-01-05 11:15:10.867812	271.2	15.7	-92.2	4.9
2025-01-05 11:15:12.018771	271.1	15.6	-92.5	4.2
2025-01-05 11:15:13.164635	271.0	15.5	-92.4	8.9
2025-01-05 11:15:14.312903	270.8	15.4	-91.8	5.7
2025-01-05 11:15:15.462323	270.7	15.3	-92.6	7.8
2025-01-05 11:15:16.613240	270.6	15.2	-92.5	2.8
2025-01-05 11:15:17.765652	270.4	15.1	-92.6	3.4
2025-01-05 11:15:18.913105	270.3	15.0	-92.1	4.5
2025-01-05 11:15:20.065277	270.2	14.9	-92.2	3.5
2025-01-05 11:15:21.210977	270.1	14.7	-92.6	6.8
2025-01-05 11:15:22.355294	269.9	14.6	-92.0	1.1
2025-01-05 11:15:23.504029	269.8	14.5	-92.5	4.2
#Closed at: 2025-01-05 11:07:36.531658