passes_logs/2025/01/05/LEX_Murmansk/LEX_Murmansk__20250105_124753_NOAA_19_rec.log

#Pass ID: 20250105_124753_NOAA 19
#Satellite: NOAA 19
#Configuration: NOAA 19
#Start time: 2025-01-05 12:47:48.232626

#LorettStation: 1.0.0 05.05.2024
#Station: LEX_Murmansk
#Location: 33.156738 lon 68.926811 lat
#TLE: 1 33591U 09005A   25004.88002234  .00000560  00000+0  32285-3 0  9996
#TLE: 2 33591  99.0214  68.5635 0014675  84.4442 275.8403 14.13251363820110

#Time	Az	El	Level	SNR
2025-01-05 12:48:00.406968	34.2	15.9	-90.1	2.7
2025-01-05 12:48:01.564979	34.0	16.0	-90.4	1.5
2025-01-05 12:48:02.719883	33.8	16.1	-90.7	3.2
2025-01-05 12:48:03.879539	33.6	16.2	-90.7	1.4
2025-01-05 12:48:05.034773	33.5	16.2	-90.7	3.6
2025-01-05 12:48:06.191085	33.3	16.3	-90.6	2.2
2025-01-05 12:48:07.349148	33.1	16.4	-90.4	5.3
2025-01-05 12:48:08.501579	32.9	16.5	-90.5	3.8
2025-01-05 12:48:09.656273	32.7	16.6	-90.3	2.2
2025-01-05 12:48:10.812968	32.5	16.7	-90.4	1.7
2025-01-05 12:48:11.969591	32.3	16.8	-90.8	3.9
2025-01-05 12:48:13.126078	32.1	16.8	-90.5	2.7
2025-01-05 12:48:14.295653	31.9	16.9	-90.4	1.6
2025-01-05 12:48:15.454534	31.7	17.0	-90.7	4.1
2025-01-05 12:48:16.610178	31.5	17.1	-90.4	1.9
2025-01-05 12:48:17.772123	31.3	17.2	-90.7	3.4
2025-01-05 12:48:18.930225	31.1	17.3	-90.2	2.4
2025-01-05 12:48:20.088763	30.9	17.4	-90.2	4.6
2025-01-05 12:48:21.245025	30.7	17.4	-90.1	3.1
2025-01-05 12:48:22.407348	30.5	17.5	-90.4	3.3
2025-01-05 12:48:23.555945	30.3	17.6	-90.3	2.9
2025-01-05 12:48:24.707517	30.1	17.7	-90.6	2.9
2025-01-05 12:48:25.863664	29.9	17.8	-90.1	2.9
2025-01-05 12:48:27.015001	29.7	17.9	-90.2	0.6
2025-01-05 12:48:28.174489	29.5	17.9	-90.0	1.9
2025-01-05 12:48:29.336418	29.2	18.0	-89.9	4.3
2025-01-05 12:48:30.488494	29.0	18.1	-90.3	6.8
2025-01-05 12:48:31.645207	28.8	18.2	-89.7	4.5
2025-01-05 12:48:32.803951	28.6	18.3	-89.9	4.3
2025-01-05 12:48:33.958330	28.4	18.4	-90.1	4.2
2025-01-05 12:48:35.114909	28.2	18.4	-89.9	4.8
2025-01-05 12:48:36.270892	28.0	18.5	-89.9	2.6
2025-01-05 12:48:37.430838	27.7	18.6	-90.4	3.9
2025-01-05 12:48:38.585870	27.5	18.7	-90.2	4.9
2025-01-05 12:48:39.743814	27.3	18.8	-89.7	0.9
2025-01-05 12:48:40.901726	27.1	18.9	-90.2	4.8
2025-01-05 12:48:42.060870	26.8	18.9	-90.1	4.5
2025-01-05 12:48:43.216753	26.6	19.0	-90.5	7.4
2025-01-05 12:48:44.375437	26.4	19.1	-90.7	3.6
2025-01-05 12:48:45.536448	26.2	19.2	-90.9	5.3
2025-01-05 12:48:46.700763	25.9	19.3	-90.4	6.1
2025-01-05 12:48:47.861100	25.7	19.4	-91.0	3.0
2025-01-05 12:48:49.014670	25.5	19.4	-90.9	3.2
2025-01-05 12:48:50.168220	25.2	19.5	-90.8	5.0
2025-01-05 12:48:51.329983	25.0	19.6	-90.9	4.1
2025-01-05 12:48:52.491683	24.7	19.7	-90.6	7.4
2025-01-05 12:48:53.647491	24.5	19.8	-91.1	8.0
2025-01-05 12:48:54.803937	24.3	19.8	-91.0	6.8
2025-01-05 12:48:55.959152	24.0	19.9	-90.9	6.1
2025-01-05 12:48:57.112212	23.8	20.0	-90.9	6.6
2025-01-05 12:48:58.275428	23.5	20.1	-90.4	6.5
2025-01-05 12:48:59.442053	23.3	20.2	-90.9	2.6
2025-01-05 12:49:00.584472	23.1	20.2	-90.6	6.0
2025-01-05 12:49:01.733749	22.8	20.3	-90.8	3.8
2025-01-05 12:49:02.888340	22.6	20.4	-90.7	4.4
2025-01-05 12:49:04.037709	22.3	20.5	-90.5	3.7
2025-01-05 12:49:05.193250	22.1	20.5	-90.6	7.1
2025-01-05 12:49:06.345776	21.8	20.6	-90.4	9.3
2025-01-05 12:49:07.505450	21.6	20.7	-90.6	6.7
2025-01-05 12:49:08.668392	21.3	20.8	-90.7	6.5
2025-01-05 12:49:09.826010	21.1	20.8	-90.8	3.3
2025-01-05 12:49:10.972868	20.8	20.9	-90.4	4.6
2025-01-05 12:49:12.136160	20.5	21.0	-90.4	3.9
2025-01-05 12:49:13.293602	20.3	21.1	-90.2	1.1
2025-01-05 12:49:14.448077	20.0	21.1	-90.3	1.5
2025-01-05 12:49:15.607226	19.8	21.2	-90.6	2.4
2025-01-05 12:49:16.760685	19.5	21.3	-90.8	3.9
2025-01-05 12:49:17.923209	19.2	21.4	-90.6	3.3
2025-01-05 12:49:19.084492	19.0	21.4	-90.5	3.3
2025-01-05 12:49:20.247602	18.7	21.5	-90.1	6.9
2025-01-05 12:49:21.393571	18.4	21.6	-90.3	0.9
2025-01-05 12:49:22.549832	18.2	21.6	-90.7	5.6
2025-01-05 12:49:23.683496	17.9	21.7	-90.8	10.0
2025-01-05 12:49:24.845963	17.6	21.8	-90.5	5.3
2025-01-05 12:49:26.005890	17.4	21.9	-90.7	5.8
2025-01-05 12:49:27.166434	17.1	21.9	-90.4	2.2
2025-01-05 12:49:28.323920	16.8	22.0	-90.4	4.7
2025-01-05 12:49:29.485864	16.5	22.1	-90.2	4.7
2025-01-05 12:49:30.650360	16.2	22.1	-90.5	5.9
2025-01-05 12:49:31.807269	16.0	22.2	-90.5	6.1
2025-01-05 12:49:32.964515	15.7	22.3	-90.8	5.6
2025-01-05 12:49:34.116570	15.4	22.3	-90.6	5.2
2025-01-05 12:49:35.277059	15.1	22.4	-90.4	6.4
2025-01-05 12:49:36.431724	14.8	22.5	-90.7	5.1
2025-01-05 12:49:37.583971	14.6	22.5	-90.6	8.2
2025-01-05 12:49:38.744705	14.3	22.6	-90.0	5.4
2025-01-05 12:49:39.902725	14.0	22.6	-90.2	3.5
2025-01-05 12:49:41.058362	13.7	22.7	-89.9	1.5
2025-01-05 12:49:42.221867	13.4	22.8	-89.9	3.3
2025-01-05 12:49:43.380768	13.1	22.8	-90.0	2.6
2025-01-05 12:49:44.543301	12.8	22.9	-90.2	3.3
2025-01-05 12:49:45.691609	12.5	22.9	-90.1	4.3
2025-01-05 12:49:46.856196	12.2	23.0	-90.1	3.3
2025-01-05 12:49:48.011313	11.9	23.1	-89.9	6.3
2025-01-05 12:49:49.164106	11.6	23.1	-90.0	6.3
2025-01-05 12:49:50.325912	11.3	23.2	-90.0	10.3
2025-01-05 12:49:51.479895	11.0	23.2	-90.4	12.0
2025-01-05 12:49:52.637137	10.7	23.3	-90.9	12.1
2025-01-05 12:49:53.799523	10.4	23.3	-91.1	12.0
2025-01-05 12:49:54.962260	10.1	23.4	-91.0	8.4
2025-01-05 12:49:56.121680	9.8	23.4	-90.3	8.3
2025-01-05 12:49:57.278257	9.5	23.5	-90.4	5.2
2025-01-05 12:49:58.443398	9.2	23.6	-90.7	5.4
2025-01-05 12:49:59.603997	8.9	23.6	-90.8	7.2
2025-01-05 12:50:00.757980	8.6	23.7	-90.6	4.3
2025-01-05 12:50:01.916885	8.3	23.7	-90.8	5.9
2025-01-05 12:50:03.070596	8.0	23.7	-90.7	8.3
2025-01-05 12:50:04.219944	7.7	23.8	-90.8	4.2
2025-01-05 12:50:05.379761	7.4	23.8	-90.9	7.7
2025-01-05 12:50:06.530976	7.1	23.9	-90.8	13.4
2025-01-05 12:50:07.694410	6.8	23.9	-90.8	10.1
2025-01-05 12:50:08.848083	6.4	24.0	-91.1	9.3
2025-01-05 12:50:10.005280	6.1	24.0	-91.0	7.8
2025-01-05 12:50:11.169267	5.8	24.1	-90.5	8.2
2025-01-05 12:50:12.327798	5.5	24.1	-90.8	10.0
2025-01-05 12:50:13.481038	5.2	24.1	-91.1	7.8
2025-01-05 12:50:14.640713	4.9	24.2	-91.1	7.1
2025-01-05 12:50:15.798911	4.5	24.2	-91.1	7.8
2025-01-05 12:50:16.957900	4.2	24.3	-91.1	4.4
2025-01-05 12:50:18.118480	3.9	24.3	-90.8	7.8
2025-01-05 12:50:19.270818	3.6	24.3	-90.4	4.1
2025-01-05 12:50:20.432370	3.3	24.4	-91.1	4.8
2025-01-05 12:50:21.588812	2.9	24.4	-91.2	4.9
2025-01-05 12:50:22.747828	2.6	24.4	-90.7	3.7
2025-01-05 12:50:23.903676	2.3	24.5	-90.8	2.6
2025-01-05 12:50:25.061680	2.0	24.5	-90.5	6.0
2025-01-05 12:50:26.224936	1.7	24.5	-90.4	4.3
2025-01-05 12:50:27.379742	1.3	24.6	-90.0	5.5
2025-01-05 12:50:28.539801	1.0	24.6	-90.8	6.3
2025-01-05 12:50:29.691761	0.7	24.6	-90.8	5.9
2025-01-05 12:50:30.854366	0.3	24.6	-90.3	4.3
2025-01-05 12:50:32.008317	0.0	24.7	-89.6	7.8
2025-01-05 12:50:33.160607	359.7	24.7	-89.5	8.5
2025-01-05 12:50:34.313784	359.4	24.7	-89.8	7.5
2025-01-05 12:50:35.474395	359.0	24.7	-90.3	10.2
2025-01-05 12:50:36.624461	358.7	24.8	-90.3	7.8
2025-01-05 12:50:37.781951	358.4	24.8	-91.3	10.5
2025-01-05 12:50:38.930428	358.1	24.8	-90.8	6.5
2025-01-05 12:50:40.086815	357.7	24.8	-90.8	13.8
2025-01-05 12:50:41.254807	357.4	24.8	-90.7	8.8
2025-01-05 12:50:42.417181	357.1	24.8	-91.1	8.4
2025-01-05 12:50:43.573685	356.7	24.9	-91.1	8.1
2025-01-05 12:50:44.734837	356.4	24.9	-90.8	3.1
2025-01-05 12:50:45.892672	356.1	24.9	-90.9	6.1
2025-01-05 12:50:47.069513	355.7	24.9	-90.8	5.1
2025-01-05 12:50:48.223552	355.4	24.9	-90.6	6.3
2025-01-05 12:50:49.388468	355.1	24.9	-90.3	7.7
2025-01-05 12:50:50.538302	354.7	24.9	-90.7	10.7
2025-01-05 12:50:51.703279	354.4	24.9	-90.6	4.5
2025-01-05 12:50:52.867598	354.1	24.9	-90.8	5.6
2025-01-05 12:50:54.023958	353.7	24.9	-91.0	3.8
2025-01-05 12:50:55.178692	353.4	25.0	-90.7	10.3
2025-01-05 12:50:56.333761	353.1	25.0	-90.9	9.1
2025-01-05 12:50:57.490856	352.7	25.0	-91.2	12.0
2025-01-05 12:50:58.650336	352.4	25.0	-90.9	7.9
2025-01-05 12:50:59.814865	352.0	25.0	-90.9	12.6
2025-01-05 12:51:00.968986	351.7	25.0	-91.1	10.5
2025-01-05 12:51:02.119908	351.4	25.0	-90.6	5.6
2025-01-05 12:51:03.283416	351.0	25.0	-90.6	9.8
2025-01-05 12:51:04.438192	350.7	24.9	-90.7	13.2
2025-01-05 12:51:05.598712	350.4	24.9	-90.9	8.9
2025-01-05 12:51:06.748773	350.0	24.9	-90.6	4.3
2025-01-05 12:51:07.915066	349.7	24.9	-90.5	6.8
2025-01-05 12:51:09.075375	349.4	24.9	-90.5	7.0
2025-01-05 12:51:10.242274	349.0	24.9	-90.9	6.1
2025-01-05 12:51:11.391251	348.7	24.9	-90.6	4.7
2025-01-05 12:51:12.549148	348.4	24.9	-90.6	5.1
2025-01-05 12:51:13.706776	348.0	24.9	-90.6	4.2
2025-01-05 12:51:14.868656	347.7	24.9	-91.0	5.8
2025-01-05 12:51:16.031555	347.4	24.8	-90.4	6.9
2025-01-05 12:51:17.188673	347.1	24.8	-90.2	6.5
2025-01-05 12:51:18.344614	346.7	24.8	-90.2	5.1
2025-01-05 12:51:19.498820	346.4	24.8	-90.5	5.3
2025-01-05 12:51:20.659777	346.1	24.8	-90.5	5.1
2025-01-05 12:51:21.817827	345.7	24.8	-90.3	3.2
2025-01-05 12:51:22.975917	345.4	24.7	-90.6	4.5
2025-01-05 12:51:24.132469	345.1	24.7	-90.0	3.7
2025-01-05 12:51:25.284491	344.7	24.7	-90.7	1.2
2025-01-05 12:51:26.442993	344.4	24.7	-90.6	3.7
2025-01-05 12:51:27.599332	344.1	24.6	-90.9	2.1
2025-01-05 12:51:28.756699	343.8	24.6	-90.9	3.1
2025-01-05 12:51:29.918041	343.4	24.6	-91.1	4.9
2025-01-05 12:51:31.074500	343.1	24.6	-90.9	2.8
2025-01-05 12:51:32.226781	342.8	24.5	-91.0	2.5
2025-01-05 12:51:33.380457	342.5	24.5	-90.7	3.1
2025-01-05 12:51:34.534343	342.1	24.5	-90.6	4.5
2025-01-05 12:51:35.694311	341.8	24.4	-90.5	3.9
2025-01-05 12:51:36.849982	341.5	24.4	-90.7	3.8
2025-01-05 12:51:38.011047	341.2	24.4	-90.6	3.2
2025-01-05 12:51:39.165854	340.8	24.3	-90.5	2.0
2025-01-05 12:51:40.327128	340.5	24.3	-90.5	1.6
2025-01-05 12:51:41.481245	340.2	24.3	-90.8	4.3
2025-01-05 12:51:42.638043	339.9	24.2	-90.9	5.7
2025-01-05 12:51:43.788587	339.6	24.2	-91.3	2.1
2025-01-05 12:51:44.943967	339.3	24.2	-91.1	1.3
2025-01-05 12:51:46.094550	338.9	24.1	-90.7	3.5
2025-01-05 12:51:47.248225	338.6	24.1	-90.5	3.6
2025-01-05 12:51:48.398878	338.3	24.0	-90.7	2.8
2025-01-05 12:51:49.560669	338.0	24.0	-90.8	7.4
2025-01-05 12:51:50.715679	337.7	23.9	-91.0	2.2
2025-01-05 12:51:51.876509	337.4	23.9	-91.0	4.0
2025-01-05 12:51:53.030114	337.1	23.9	-91.1	4.2
2025-01-05 12:51:54.184967	336.7	23.8	-91.2	3.3
2025-01-05 12:51:55.342869	336.4	23.8	-91.2	2.2
2025-01-05 12:51:56.498815	336.1	23.7	-91.0	1.8
2025-01-05 12:51:57.663714	335.8	23.7	-90.9	3.2
2025-01-05 12:51:58.821610	335.5	23.6	-90.7	3.8
2025-01-05 12:51:59.985751	335.2	23.6	-91.0	3.3
2025-01-05 12:52:01.137627	334.9	23.5	-90.9	4.0
2025-01-05 12:52:02.296243	334.6	23.5	-90.7	1.9
2025-01-05 12:52:03.455177	334.3	23.4	-91.1	4.1
2025-01-05 12:52:04.606928	334.0	23.4	-90.6	4.7
2025-01-05 12:52:05.765689	333.7	23.3	-90.9	2.1
2025-01-05 12:52:06.938932	333.4	23.2	-90.9	3.7
2025-01-05 12:52:08.102376	333.1	23.2	-90.8	3.2
2025-01-05 12:52:09.257966	332.8	23.1	-90.7	3.8
2025-01-05 12:52:10.417997	332.5	23.1	-90.7	3.8
2025-01-05 12:52:11.577751	332.2	23.0	-90.8	4.2
2025-01-05 12:52:12.741496	331.9	23.0	-90.6	1.7
2025-01-05 12:52:13.894235	331.6	22.9	-91.1	3.4
2025-01-05 12:52:15.053897	331.3	22.8	-90.9	2.6
2025-01-05 12:52:16.217552	331.0	22.8	-90.7	4.0
2025-01-05 12:52:17.378956	330.7	22.7	-91.0	2.9
2025-01-05 12:52:18.536079	330.4	22.7	-90.8	2.3
2025-01-05 12:52:19.691744	330.2	22.6	-91.3	2.9
2025-01-05 12:52:20.842033	329.9	22.5	-91.1	3.3
2025-01-05 12:52:22.005569	329.6	22.5	-91.1	2.8
2025-01-05 12:52:23.159405	329.3	22.4	-90.7	3.6
2025-01-05 12:52:24.304531	329.0	22.3	-90.8	3.7
2025-01-05 12:52:25.468592	328.7	22.3	-91.2	4.4
2025-01-05 12:52:26.627200	328.5	22.2	-91.0	2.3
2025-01-05 12:52:27.783668	328.2	22.1	-91.0	1.1
2025-01-05 12:52:28.946958	327.9	22.1	-90.9	5.9
2025-01-05 12:52:30.102673	327.6	22.0	-91.0	6.0
2025-01-05 12:52:31.263336	327.4	21.9	-90.9	2.4
2025-01-05 12:52:32.419306	327.1	21.9	-90.9	4.3
2025-01-05 12:52:33.573249	326.8	21.8	-90.8	7.7
2025-01-05 12:52:34.733704	326.5	21.7	-90.8	4.5
2025-01-05 12:52:35.888562	326.3	21.7	-90.6	4.1
2025-01-05 12:52:37.051183	326.0	21.6	-89.5	5.0
2025-01-05 12:52:38.208827	325.7	21.5	-90.2	6.5
2025-01-05 12:52:39.366094	325.5	21.5	-90.2	4.0
2025-01-05 12:52:40.525810	325.2	21.4	-90.5	4.2
2025-01-05 12:52:41.687965	324.9	21.3	-90.9	6.8
2025-01-05 12:52:42.860373	324.7	21.2	-90.6	5.8
2025-01-05 12:52:44.010747	324.4	21.2	-91.0	3.7
2025-01-05 12:52:45.169225	324.1	21.1	-90.5	6.4
2025-01-05 12:52:46.332602	323.9	21.0	-90.9	3.1
2025-01-05 12:52:47.485014	323.6	20.9	-91.1	6.3
2025-01-05 12:52:48.648131	323.4	20.9	-91.0	3.6
2025-01-05 12:52:49.803508	323.1	20.8	-90.6	5.5
2025-01-05 12:52:50.963455	322.8	20.7	-90.4	5.2
2025-01-05 12:52:52.133600	322.6	20.6	-90.3	3.9
2025-01-05 12:52:53.288113	322.3	20.6	-90.1	3.5
2025-01-05 12:52:54.447374	322.1	20.5	-90.5	3.1
2025-01-05 12:52:55.607454	321.8	20.4	-90.7	4.6
2025-01-05 12:52:56.765596	321.6	20.3	-90.6	3.9
2025-01-05 12:52:57.927901	321.3	20.2	-90.2	3.9
2025-01-05 12:52:59.082192	321.1	20.2	-89.9	3.4
2025-01-05 12:53:00.237123	320.9	20.1	-90.5	1.3
2025-01-05 12:53:01.394097	320.6	20.0	-90.6	1.6
2025-01-05 12:53:02.553084	320.4	19.9	-91.0	2.9
2025-01-05 12:53:03.717433	320.1	19.9	-90.8	1.0
2025-01-05 12:53:04.876328	319.9	19.8	-91.1	2.6
2025-01-05 12:53:06.031522	319.7	19.7	-91.3	4.3
2025-01-05 12:53:07.189519	319.4	19.6	-90.9	2.8
2025-01-05 12:53:08.344404	319.2	19.5	-91.0	2.3
2025-01-05 12:53:09.502756	318.9	19.5	-91.2	2.9
2025-01-05 12:53:10.664296	318.7	19.4	-90.8	2.8
2025-01-05 12:53:11.825721	318.5	19.3	-91.3	3.7
2025-01-05 12:53:12.979474	318.2	19.2	-91.4	2.4
2025-01-05 12:53:14.142861	318.0	19.1	-90.9	4.4
2025-01-05 12:53:15.298007	317.8	19.0	-91.0	4.1
2025-01-05 12:53:16.454789	317.6	19.0	-91.3	2.2
2025-01-05 12:53:17.617463	317.3	18.9	-91.4	5.8
2025-01-05 12:53:18.776209	317.1	18.8	-91.5	3.8
2025-01-05 12:53:19.937326	316.9	18.7	-91.5	4.8
2025-01-05 12:53:21.093915	316.7	18.6	-91.0	2.8
2025-01-05 12:53:22.257977	316.4	18.5	-90.9	2.5
2025-01-05 12:53:23.407239	316.2	18.5	-91.1	8.6
2025-01-05 12:53:24.559761	316.0	18.4	-91.1	1.1
2025-01-05 12:53:25.719004	315.8	18.3	-91.5	2.4
2025-01-05 12:53:26.877169	315.6	18.2	-91.2	4.4
2025-01-05 12:53:28.038947	315.4	18.1	-91.3	3.9
2025-01-05 12:53:29.201076	315.1	18.0	-91.3	2.3
2025-01-05 12:53:30.369428	314.9	18.0	-91.0	7.3
2025-01-05 12:53:31.526964	314.7	17.9	-91.3	1.0
2025-01-05 12:53:32.683883	314.5	17.8	-91.2	2.8
2025-01-05 12:53:33.849943	314.3	17.7	-91.2	2.3
2025-01-05 12:53:35.009225	314.1	17.6	-91.3	2.8
2025-01-05 12:53:36.165628	313.9	17.5	-90.9	2.4
2025-01-05 12:53:37.329523	313.7	17.5	-90.9	0.1
2025-01-05 12:53:38.479605	313.5	17.4	-91.0	2.0
2025-01-05 12:53:39.630941	313.3	17.3	-91.1	3.8
2025-01-05 12:53:40.792346	313.1	17.2	-91.4	3.6
2025-01-05 12:53:41.953074	312.9	17.1	-91.4	4.0
2025-01-05 12:53:43.110667	312.7	17.0	-91.0	4.8
2025-01-05 12:53:44.266834	312.5	16.9	-91.1	2.5
2025-01-05 12:53:45.421981	312.3	16.9	-91.2	4.9
2025-01-05 12:53:46.581142	312.1	16.8	-91.1	3.6
2025-01-05 12:53:47.738022	311.9	16.7	-90.7	9.5
2025-01-05 12:53:48.902971	311.7	16.6	-91.1	11.1
2025-01-05 12:53:50.063179	311.5	16.5	-91.3	8.1
2025-01-05 12:53:51.221469	311.3	16.4	-91.1	4.8
2025-01-05 12:53:52.380531	311.1	16.3	-91.1	4.3
2025-01-05 12:53:53.534803	310.9	16.3	-91.6	4.0
2025-01-05 12:53:54.690473	310.7	16.2	-91.1	3.0
2025-01-05 12:53:55.852968	310.6	16.1	-91.2	2.1
2025-01-05 12:53:57.017719	310.4	16.0	-91.1	4.3
2025-01-05 12:53:58.171530	310.2	15.9	-90.9	2.7
2025-01-05 12:53:59.330886	310.0	15.8	-90.9	3.0
2025-01-05 12:54:00.477301	309.8	15.7	-91.4	3.1
2025-01-05 12:54:01.638414	309.6	15.7	-91.2	3.4
2025-01-05 12:54:02.792872	309.5	15.6	-91.1	2.7
2025-01-05 12:54:04.066436	309.3	15.5	-91.0	2.2
2025-01-05 12:54:05.222274	309.1	15.4	-91.2	3.3
2025-01-05 12:54:06.393974	308.9	15.3	-91.2	4.8
2025-01-05 12:54:07.551740	308.7	15.2	-91.4	2.4
2025-01-05 12:54:08.714884	308.5	15.1	-90.9	4.7
2025-01-05 12:54:09.874890	308.4	15.1	-91.3	3.6
2025-01-05 12:54:11.030007	308.2	15.0	-90.9	5.9
2025-01-05 12:54:12.184704	308.0	14.9	-90.7	7.3
2025-01-05 12:54:13.334297	307.9	14.8	-90.9	7.9
2025-01-05 12:54:14.484505	307.7	14.7	-91.0	6.7
2025-01-05 12:54:15.644466	307.5	14.6	-90.9	4.2
#Closed at: 2025-01-05 12:47:53.203441