passes_logs/2025/01/05/LEX_Murmansk/LEX_Murmansk__20250105_181322_NOAA_18_rec.log

#Pass ID: 20250105_181322_NOAA 18
#Satellite: NOAA 18
#Configuration: NOAA 18
#Start time: 2025-01-05 18:13:17.253161

#LorettStation: 1.0.0 05.05.2024
#Station: LEX_Murmansk
#Location: 33.156738 lon 68.926811 lat
#TLE: 1 28654U 05018A   25004.89869685  .00000615  00000+0  35035-3 0  9999
#TLE: 2 28654  98.8582  86.0526 0013879 207.8923 152.1507 14.13477357 11671

#Time	Az	El	Level	SNR
2025-01-05 18:13:29.503311	132.3	16.3	-92.3	5.1
2025-01-05 18:13:31.822465	132.2	16.6	-92.3	5.9
2025-01-05 18:13:34.149010	132.1	16.8	-91.8	6.2
2025-01-05 18:13:36.472919	132.0	17.1	-92.0	6.7
2025-01-05 18:13:38.805475	131.9	17.3	-92.4	7.5
2025-01-05 18:13:41.134702	131.8	17.6	-92.2	15.7
2025-01-05 18:13:43.437956	131.7	17.9	-92.1	4.8
2025-01-05 18:13:45.757273	131.6	18.1	-92.1	11.9
2025-01-05 18:13:48.083237	131.5	18.4	-92.0	7.6
2025-01-05 18:13:50.410312	131.4	18.7	-92.1	9.9
2025-01-05 18:13:52.739427	131.3	19.0	-92.3	13.0
2025-01-05 18:13:55.059691	131.2	19.2	-92.2	10.3
2025-01-05 18:13:57.387822	131.1	19.5	-92.1	16.7
2025-01-05 18:13:59.710616	131.0	19.8	-92.3	14.0
2025-01-05 18:14:02.026502	130.9	20.1	-92.1	5.5
2025-01-05 18:14:04.350221	130.8	20.4	-91.3	8.1
2025-01-05 18:14:06.684589	130.6	20.7	-92.5	15.7
2025-01-05 18:14:09.012426	130.5	21.0	-92.1	13.1
2025-01-05 18:14:11.338310	130.4	21.3	-91.7	13.2
2025-01-05 18:14:13.666650	130.2	21.6	-92.1	13.3
2025-01-05 18:14:15.986539	130.1	21.9	-92.7	10.6
2025-01-05 18:14:18.318986	130.0	22.2	-91.8	14.4
2025-01-05 18:14:20.565567	129.9	22.5	-92.3	14.9
2025-01-05 18:14:22.886192	129.7	22.9	-92.2	16.5
2025-01-05 18:14:25.198838	129.6	23.2	-91.9	13.0
2025-01-05 18:14:27.519715	129.4	23.5	-92.2	14.0
2025-01-05 18:14:29.842540	129.3	23.8	-92.2	17.7
2025-01-05 18:14:32.184264	129.1	24.2	-92.2	13.1
2025-01-05 18:14:34.513366	129.0	24.5	-92.4	6.8
2025-01-05 18:14:36.842842	128.8	24.9	-92.7	15.1
2025-01-05 18:14:39.171304	128.6	25.2	-92.3	12.6
2025-01-05 18:14:41.491968	128.5	25.6	-92.7	15.9
2025-01-05 18:14:43.813136	128.3	25.9	-92.7	18.3
2025-01-05 18:14:46.132287	128.1	26.3	-92.3	16.7
2025-01-05 18:14:48.456096	127.9	26.7	-92.2	12.2
2025-01-05 18:14:50.784848	127.8	27.0	-92.4	9.9
2025-01-05 18:14:53.113333	127.6	27.4	-92.4	5.7
2025-01-05 18:14:55.438430	127.4	27.8	-91.8	4.2
2025-01-05 18:14:57.753292	127.2	28.2	-92.8	5.7
2025-01-05 18:15:00.014129	127.0	28.6	-92.7	4.7
2025-01-05 18:15:02.255180	126.8	29.0	-92.1	6.0
2025-01-05 18:15:04.495520	126.6	29.3	-92.7	6.1
2025-01-05 18:15:06.739499	126.4	29.7	-92.8	8.6
2025-01-05 18:15:09.033026	126.1	30.1	-92.5	5.3
2025-01-05 18:15:11.349246	125.9	30.6	-92.0	5.7
2025-01-05 18:15:13.672741	125.7	31.0	-92.5	7.9
2025-01-05 18:15:15.993135	125.4	31.4	-92.3	9.8
2025-01-05 18:15:18.325639	125.2	31.8	-92.1	14.3
2025-01-05 18:15:20.649205	124.9	32.3	-92.6	18.3
2025-01-05 18:15:22.974431	124.7	32.7	-92.6	12.8
2025-01-05 18:15:25.299854	124.4	33.2	-91.8	9.9
2025-01-05 18:15:27.632268	124.1	33.6	-92.4	7.5
2025-01-05 18:15:29.961797	123.8	34.1	-92.5	9.8
2025-01-05 18:15:32.293571	123.5	34.6	-92.0	12.1
2025-01-05 18:15:34.614763	123.2	35.1	-92.6	3.8
2025-01-05 18:15:36.927945	122.9	35.5	-92.3	10.3
2025-01-05 18:15:39.247680	122.6	36.0	-92.0	10.6
2025-01-05 18:15:41.564838	122.2	36.5	-92.3	12.5
2025-01-05 18:15:43.808162	121.9	37.0	-92.2	16.1
2025-01-05 18:15:46.052070	121.6	37.5	-92.5	6.2
2025-01-05 18:15:48.293757	121.2	38.0	-92.0	11.8
2025-01-05 18:15:50.539936	120.9	38.5	-92.8	7.0
2025-01-05 18:15:52.848944	120.5	39.0	-92.8	12.2
2025-01-05 18:15:55.166360	120.1	39.5	-92.1	10.9
2025-01-05 18:15:57.493998	119.6	40.1	-92.5	11.6
2025-01-05 18:15:59.819572	119.2	40.6	-91.6	16.5
2025-01-05 18:16:02.134205	118.8	41.2	-90.6	10.2
2025-01-05 18:16:04.460418	118.3	41.7	-91.5	8.2
2025-01-05 18:16:06.781616	117.8	42.3	-91.5	16.1
2025-01-05 18:16:09.111244	117.3	42.9	-92.0	17.0
2025-01-05 18:16:11.447047	116.8	43.4	-92.9	16.9
2025-01-05 18:16:13.771755	116.3	44.0	-92.7	17.6
2025-01-05 18:16:16.097073	115.7	44.6	-92.3	10.0
2025-01-05 18:16:18.424774	115.2	45.2	-92.5	16.3
2025-01-05 18:16:20.747308	114.6	45.8	-92.8	16.9
2025-01-05 18:16:23.073805	113.9	46.4	-92.4	11.4
2025-01-05 18:16:25.398235	113.3	47.0	-92.7	13.9
2025-01-05 18:16:27.726075	112.6	47.6	-92.8	12.9
2025-01-05 18:16:30.052038	111.9	48.3	-92.6	9.9
2025-01-05 18:16:32.377754	111.2	48.9	-92.3	10.0
2025-01-05 18:16:34.704589	110.4	49.5	-92.3	10.5
2025-01-05 18:16:37.032895	109.6	50.1	-92.9	7.1
2025-01-05 18:16:39.355810	108.8	50.8	-92.3	11.5
2025-01-05 18:16:41.691285	108.0	51.4	-92.0	11.6
2025-01-05 18:16:44.018853	107.1	52.0	-92.4	17.7
2025-01-05 18:16:46.344344	106.1	52.7	-91.9	18.0
2025-01-05 18:16:48.667663	105.1	53.3	-92.2	9.1
2025-01-05 18:16:50.987760	104.1	53.9	-92.7	6.5
2025-01-05 18:16:53.309504	103.1	54.6	-92.1	11.5
2025-01-05 18:16:55.636862	101.9	55.2	-92.3	8.5
2025-01-05 18:16:57.964240	100.8	55.8	-92.6	16.3
2025-01-05 18:17:00.277765	99.6	56.4	-92.0	14.8
2025-01-05 18:17:02.591813	98.3	57.0	-92.8	17.6
2025-01-05 18:17:04.915272	97.0	57.6	-92.3	13.7
2025-01-05 18:17:07.244012	95.6	58.2	-92.1	12.2
2025-01-05 18:17:09.570757	94.1	58.8	-92.7	16.8
2025-01-05 18:17:11.909122	92.6	59.4	-92.3	13.8
2025-01-05 18:17:14.226749	91.0	60.0	-92.3	19.8
2025-01-05 18:17:16.553527	89.3	60.5	-92.6	10.0
2025-01-05 18:17:18.889925	87.6	61.0	-92.7	19.6
2025-01-05 18:17:21.226286	85.8	61.5	-92.0	19.6
2025-01-05 18:17:23.552172	83.9	62.0	-92.6	9.1
2025-01-05 18:17:25.891500	81.9	62.5	-92.6	18.8
2025-01-05 18:17:28.225839	79.9	62.9	-92.5	15.1
2025-01-05 18:17:30.554456	77.8	63.3	-92.5	16.0
2025-01-05 18:17:32.881436	75.6	63.7	-92.6	19.1
2025-01-05 18:17:35.190203	73.4	64.0	-92.4	17.3
2025-01-05 18:17:37.441804	71.2	64.3	-92.7	18.3
2025-01-05 18:17:39.682776	68.9	64.6	-92.7	13.6
2025-01-05 18:17:41.924202	66.6	64.8	-92.7	14.2
2025-01-05 18:17:44.170863	64.2	65.0	-92.2	9.0
2025-01-05 18:17:46.476192	61.8	65.1	-92.6	10.3
2025-01-05 18:17:48.788030	59.3	65.2	-93.0	15.3
2025-01-05 18:17:51.107425	56.8	65.3	-92.3	10.5
2025-01-05 18:17:53.412428	54.2	65.3	-92.1	17.2
2025-01-05 18:17:55.728408	51.7	65.3	-92.5	21.0
2025-01-05 18:17:58.050879	49.2	65.2	-92.3	14.9
2025-01-05 18:18:00.361349	46.7	65.1	-92.0	20.2
2025-01-05 18:18:02.679157	44.2	65.0	-92.5	15.4
2025-01-05 18:18:05.019702	41.7	64.8	-92.8	12.6
2025-01-05 18:18:07.341572	39.3	64.6	-92.4	14.0
2025-01-05 18:18:09.625872	37.0	64.3	-92.4	17.8
2025-01-05 18:18:11.916772	34.8	64.0	-92.4	17.4
2025-01-05 18:18:14.227305	32.6	63.6	-92.0	19.1
2025-01-05 18:18:16.507802	30.4	63.3	-92.6	16.7
2025-01-05 18:18:18.754965	28.4	62.9	-92.5	19.4
2025-01-05 18:18:21.067626	26.4	62.5	-92.4	14.9
2025-01-05 18:18:23.388684	24.5	62.0	-92.0	18.5
2025-01-05 18:18:25.723150	22.6	61.5	-92.2	20.6
2025-01-05 18:18:28.049826	20.8	61.0	-92.5	17.6
2025-01-05 18:18:30.389199	19.0	60.5	-92.0	17.7
2025-01-05 18:18:32.711218	17.4	59.9	-92.4	18.5
2025-01-05 18:18:35.037847	15.8	59.4	-92.4	14.1
2025-01-05 18:18:37.366701	14.3	58.8	-92.2	15.2
2025-01-05 18:18:39.692064	12.8	58.2	-92.4	14.3
2025-01-05 18:18:42.013985	11.4	57.6	-92.5	17.2
2025-01-05 18:18:44.332708	10.1	57.0	-91.8	13.8
2025-01-05 18:18:46.665586	8.8	56.4	-92.5	9.4
2025-01-05 18:18:48.984007	7.6	55.8	-92.7	6.1
2025-01-05 18:18:51.313020	6.5	55.2	-92.1	12.2
2025-01-05 18:18:53.640896	5.3	54.5	-92.5	10.2
2025-01-05 18:18:55.968686	4.3	53.9	-92.3	10.1
2025-01-05 18:18:58.291318	3.3	53.3	-92.0	8.3
2025-01-05 18:19:00.609007	2.3	52.6	-91.2	9.3
2025-01-05 18:19:02.937484	1.4	52.0	-91.4	2.2
2025-01-05 18:19:05.264606	0.5	51.4	-90.8	7.1
2025-01-05 18:19:07.594290	359.6	50.7	-92.2	3.9
2025-01-05 18:19:09.920958	358.8	50.1	-92.5	8.8
2025-01-05 18:19:12.263521	358.0	49.5	-92.5	11.0
2025-01-05 18:19:14.572444	357.2	48.8	-92.7	6.0
2025-01-05 18:19:16.899654	356.5	48.2	-92.7	14.1
2025-01-05 18:19:19.232281	355.8	47.6	-92.5	17.1
2025-01-05 18:19:21.552102	355.1	47.0	-92.3	8.6
2025-01-05 18:19:23.868931	354.5	46.4	-92.7	16.2
2025-01-05 18:19:26.199338	353.9	45.8	-92.2	14.9
2025-01-05 18:19:28.523404	353.3	45.2	-91.9	17.2
2025-01-05 18:19:30.846964	352.7	44.6	-92.4	20.7
2025-01-05 18:19:33.165411	352.2	44.0	-92.3	11.0
2025-01-05 18:19:35.494237	351.6	43.4	-92.8	13.1
2025-01-05 18:19:37.814599	351.1	42.8	-92.3	24.5
2025-01-05 18:19:40.130777	350.6	42.3	-91.7	11.4
2025-01-05 18:19:42.459632	350.1	41.7	-92.2	14.4
2025-01-05 18:19:44.776788	349.7	41.2	-92.5	20.5
2025-01-05 18:19:47.099172	349.2	40.6	-91.8	19.0
2025-01-05 18:19:49.424167	348.8	40.1	-92.6	10.2
2025-01-05 18:19:51.743062	348.4	39.5	-92.2	9.0
2025-01-05 18:19:54.063861	348.0	39.0	-92.3	13.6
2025-01-05 18:19:56.389364	347.6	38.5	-92.4	16.8
2025-01-05 18:19:58.722255	347.2	37.9	-92.7	16.2
2025-01-05 18:20:01.025332	346.9	37.4	-92.9	6.0
2025-01-05 18:20:03.350354	346.5	36.9	-92.4	12.1
2025-01-05 18:20:05.677668	346.2	36.4	-92.6	5.9
2025-01-05 18:20:08.000899	345.8	35.9	-92.6	15.3
2025-01-05 18:20:10.329196	345.5	35.5	-92.6	14.7
2025-01-05 18:20:12.655659	345.2	35.0	-92.5	11.0
2025-01-05 18:20:14.968042	344.9	34.5	-92.5	8.1
2025-01-05 18:20:17.230723	344.6	34.0	-91.9	14.7
2025-01-05 18:20:19.471872	344.3	33.6	-92.3	7.8
2025-01-05 18:20:21.713265	344.1	33.2	-92.6	11.2
2025-01-05 18:20:23.957837	343.8	32.7	-92.4	13.7
2025-01-05 18:20:26.247047	343.5	32.3	-92.2	14.1
2025-01-05 18:20:28.564430	343.3	31.8	-92.7	13.0
2025-01-05 18:20:30.891901	343.0	31.4	-93.0	11.9
2025-01-05 18:20:33.217126	342.8	31.0	-91.8	10.4
2025-01-05 18:20:35.544026	342.6	30.6	-92.4	9.3
2025-01-05 18:20:37.864819	342.3	30.1	-92.5	17.8
2025-01-05 18:20:40.186950	342.1	29.7	-92.2	10.8
2025-01-05 18:20:42.517102	341.9	29.3	-91.5	5.3
2025-01-05 18:20:44.837572	341.7	28.9	-92.2	7.2
2025-01-05 18:20:47.155871	341.5	28.5	-91.8	5.7
2025-01-05 18:20:49.434013	341.3	28.1	-91.6	7.8
2025-01-05 18:20:51.741117	341.1	27.8	-91.7	13.4
2025-01-05 18:20:54.054723	340.9	27.4	-91.4	10.6
2025-01-05 18:20:56.374238	340.7	27.0	-91.6	11.3
2025-01-05 18:20:58.702197	340.5	26.6	-92.8	10.4
2025-01-05 18:21:01.018751	340.3	26.3	-92.7	13.0
2025-01-05 18:21:03.346268	340.2	25.9	-92.5	17.1
2025-01-05 18:21:05.673803	340.0	25.5	-92.7	8.0
2025-01-05 18:21:07.995660	339.8	25.2	-92.9	4.2
2025-01-05 18:21:10.327501	339.7	24.8	-92.2	7.9
2025-01-05 18:21:12.643118	339.5	24.5	-92.7	7.9
2025-01-05 18:21:14.923952	339.4	24.2	-92.4	9.5
2025-01-05 18:21:17.227727	339.2	23.8	-92.2	4.4
2025-01-05 18:21:19.552118	339.1	23.5	-92.5	4.9
2025-01-05 18:21:21.882399	338.9	23.2	-92.5	9.3
2025-01-05 18:21:24.201370	338.8	22.8	-91.9	7.1
2025-01-05 18:21:26.516378	338.6	22.5	-92.3	9.3
2025-01-05 18:21:28.845185	338.5	22.2	-92.4	11.3
2025-01-05 18:21:31.172196	338.4	21.9	-92.4	7.0
2025-01-05 18:21:33.499943	338.2	21.6	-92.5	7.1
2025-01-05 18:21:35.825465	338.1	21.3	-92.3	7.6
2025-01-05 18:21:38.140030	338.0	21.0	-92.3	6.0
2025-01-05 18:21:40.467512	337.9	20.7	-92.5	5.4
2025-01-05 18:21:42.781104	337.7	20.4	-92.6	9.2
2025-01-05 18:21:45.057650	337.6	20.1	-92.2	6.9
2025-01-05 18:21:47.357940	337.5	19.8	-92.4	4.0
2025-01-05 18:21:49.680076	337.4	19.5	-91.8	2.6
2025-01-05 18:21:51.994652	337.3	19.2	-91.8	5.8
2025-01-05 18:21:54.323251	337.2	18.9	-91.1	8.3
2025-01-05 18:21:56.640649	337.1	18.7	-91.8	8.1
2025-01-05 18:21:58.972766	337.0	18.4	-91.4	10.5
2025-01-05 18:22:01.280723	336.9	18.1	-92.3	8.8
2025-01-05 18:22:03.608640	336.8	17.8	-92.6	2.6
2025-01-05 18:22:05.925918	336.7	17.6	-92.9	3.1
2025-01-05 18:22:08.245191	336.6	17.3	-92.3	1.9
2025-01-05 18:22:10.573674	336.5	17.0	-92.6	4.0
2025-01-05 18:22:12.901513	336.4	16.8	-93.0	5.3
2025-01-05 18:22:15.228432	336.3	16.5	-92.7	5.9
2025-01-05 18:22:17.546400	336.2	16.3	-93.0	3.3
2025-01-05 18:22:19.873370	336.1	16.0	-93.1	5.6
2025-01-05 18:22:22.194090	336.0	15.8	-92.3	14.5
2025-01-05 18:22:24.514232	335.9	15.5	-92.5	14.6
2025-01-05 18:22:26.844774	335.9	15.3	-92.9	7.6
2025-01-05 18:22:29.171402	335.8	15.0	-92.6	5.1
2025-01-05 18:22:31.494653	335.7	14.8	-92.9	4.9
2025-01-05 18:22:33.822775	335.6	14.6	-92.8	4.5
#Closed at: 2025-01-05 18:13:22.291046