passes_logs/2025/01/05/LEX_Murmansk/LEX_Murmansk__20250105_142707_NOAA_19_rec.log

#Pass ID: 20250105_142707_NOAA 19
#Satellite: NOAA 19
#Configuration: NOAA 19
#Start time: 2025-01-05 14:27:02.577193

#LorettStation: 1.0.0 05.05.2024
#Station: LEX_Murmansk
#Location: 33.156738 lon 68.926811 lat
#TLE: 1 33591U 09005A   25004.88002234  .00000560  00000+0  32285-3 0  9996
#TLE: 2 33591  99.0214  68.5635 0014675  84.4442 275.8403 14.13251363820110

#Time	Az	El	Level	SNR
2025-01-05 14:27:14.762170	62.0	16.0	-90.6	5.3
2025-01-05 14:27:15.928689	61.9	16.1	-90.7	5.5
2025-01-05 14:27:17.094969	61.7	16.1	-90.6	8.5
2025-01-05 14:27:18.254073	61.5	16.2	-90.1	6.7
2025-01-05 14:27:19.417102	61.3	16.3	-90.5	6.7
2025-01-05 14:27:20.574600	61.1	16.4	-90.0	8.2
2025-01-05 14:27:21.739068	61.0	16.5	-90.2	4.5
2025-01-05 14:27:22.899623	60.8	16.6	-90.6	5.4
2025-01-05 14:27:24.064151	60.6	16.7	-90.3	4.1
2025-01-05 14:27:25.229573	60.4	16.8	-90.7	6.2
2025-01-05 14:27:26.394014	60.2	16.9	-90.9	2.6
2025-01-05 14:27:27.556798	60.0	17.0	-90.8	3.5
2025-01-05 14:27:28.716121	59.9	17.1	-90.6	3.4
2025-01-05 14:27:29.880916	59.7	17.2	-90.4	0.4
2025-01-05 14:27:31.047678	59.5	17.3	-90.5	3.8
2025-01-05 14:27:32.208966	59.3	17.3	-89.9	0.8
2025-01-05 14:27:33.372776	59.1	17.4	-89.9	2.3
2025-01-05 14:27:34.535024	58.9	17.5	-90.1	5.4
2025-01-05 14:27:35.696450	58.7	17.6	-90.9	8.2
2025-01-05 14:27:36.862659	58.5	17.7	-91.2	10.3
2025-01-05 14:27:38.019577	58.3	17.8	-90.1	8.2
2025-01-05 14:27:39.184549	58.1	17.9	-90.0	7.5
2025-01-05 14:27:40.344858	57.9	18.0	-90.3	5.5
2025-01-05 14:27:41.507953	57.7	18.1	-90.5	7.4
2025-01-05 14:27:42.679099	57.5	18.2	-90.5	5.1
2025-01-05 14:27:43.841776	57.3	18.3	-90.4	3.4
2025-01-05 14:27:45.003381	57.1	18.4	-90.7	10.3
2025-01-05 14:27:46.167661	56.9	18.5	-90.4	13.8
2025-01-05 14:27:47.332725	56.7	18.5	-90.8	12.7
2025-01-05 14:27:48.501720	56.5	18.6	-91.1	12.0
2025-01-05 14:27:49.666053	56.3	18.7	-91.3	6.0
2025-01-05 14:27:50.829163	56.1	18.8	-91.0	2.8
2025-01-05 14:27:51.993190	55.8	18.9	-90.9	2.2
2025-01-05 14:27:53.156622	55.6	19.0	-89.9	3.6
2025-01-05 14:27:54.322460	55.4	19.1	-90.5	2.0
2025-01-05 14:27:55.486372	55.2	19.2	-90.6	6.5
2025-01-05 14:27:56.654037	55.0	19.3	-91.1	8.2
2025-01-05 14:27:57.819412	54.8	19.4	-91.1	9.2
2025-01-05 14:27:58.974298	54.5	19.5	-91.0	6.8
2025-01-05 14:28:00.132493	54.3	19.6	-90.9	7.8
2025-01-05 14:28:01.278604	54.1	19.6	-90.7	9.5
2025-01-05 14:28:02.447686	53.9	19.7	-90.8	7.9
2025-01-05 14:28:03.603979	53.6	19.8	-90.9	8.2
2025-01-05 14:28:04.767669	53.4	19.9	-91.4	5.5
2025-01-05 14:28:05.926636	53.2	20.0	-91.0	8.1
2025-01-05 14:28:07.086466	53.0	20.1	-90.5	6.8
2025-01-05 14:28:08.247245	52.7	20.2	-90.6	8.2
2025-01-05 14:28:09.412475	52.5	20.3	-91.1	6.8
2025-01-05 14:28:10.576865	52.3	20.4	-91.0	10.0
2025-01-05 14:28:11.744219	52.0	20.5	-91.0	6.6
2025-01-05 14:28:12.903415	51.8	20.6	-91.1	5.5
2025-01-05 14:28:14.066288	51.5	20.6	-91.1	3.1
2025-01-05 14:28:15.229848	51.3	20.7	-91.0	2.9
2025-01-05 14:28:16.388242	51.1	20.8	-90.9	3.5
2025-01-05 14:28:17.553948	50.8	20.9	-91.0	3.4
2025-01-05 14:28:18.711175	50.6	21.0	-91.0	3.6
2025-01-05 14:28:19.871595	50.3	21.1	-91.0	5.5
2025-01-05 14:28:21.031292	50.1	21.2	-91.4	8.3
2025-01-05 14:28:22.198119	49.8	21.3	-91.2	9.5
2025-01-05 14:28:23.360989	49.6	21.3	-91.0	10.4
2025-01-05 14:28:24.522789	49.3	21.4	-91.0	8.5
2025-01-05 14:28:25.687101	49.1	21.5	-90.9	5.6
2025-01-05 14:28:26.850784	48.8	21.6	-91.0	5.7
2025-01-05 14:28:28.011033	48.6	21.7	-90.7	7.7
2025-01-05 14:28:29.165370	48.3	21.8	-91.1	4.6
2025-01-05 14:28:30.323508	48.1	21.9	-91.2	5.9
2025-01-05 14:28:31.486679	47.8	21.9	-91.0	9.9
2025-01-05 14:28:32.647394	47.5	22.0	-91.0	7.5
2025-01-05 14:28:33.814383	47.3	22.1	-90.6	11.0
2025-01-05 14:28:34.983201	47.0	22.2	-90.5	11.3
2025-01-05 14:28:36.141520	46.8	22.3	-90.9	9.1
2025-01-05 14:28:37.322337	46.5	22.4	-90.7	5.1
2025-01-05 14:28:38.476119	46.2	22.5	-90.7	6.5
2025-01-05 14:28:39.648301	45.9	22.5	-90.5	2.1
2025-01-05 14:28:40.818505	45.7	22.6	-90.7	3.5
2025-01-05 14:28:41.974755	45.4	22.7	-91.0	2.9
2025-01-05 14:28:43.134811	45.1	22.8	-90.9	7.7
2025-01-05 14:28:44.295066	44.9	22.9	-90.5	4.2
2025-01-05 14:28:45.460433	44.6	22.9	-90.7	7.3
2025-01-05 14:28:46.624981	44.3	23.0	-90.8	10.7
2025-01-05 14:28:47.790640	44.0	23.1	-90.8	12.4
2025-01-05 14:28:48.944800	43.7	23.2	-91.4	13.4
2025-01-05 14:28:50.106729	43.5	23.3	-91.2	13.2
2025-01-05 14:28:51.262015	43.2	23.3	-91.0	8.1
2025-01-05 14:28:52.426720	42.9	23.4	-91.2	5.9
2025-01-05 14:28:53.584548	42.6	23.5	-91.3	5.9
2025-01-05 14:28:54.750562	42.3	23.6	-91.2	4.3
2025-01-05 14:28:55.914665	42.0	23.6	-91.4	6.2
2025-01-05 14:28:57.076170	41.7	23.7	-91.0	7.2
2025-01-05 14:28:58.234777	41.4	23.8	-90.8	5.0
2025-01-05 14:28:59.398274	41.1	23.9	-91.0	8.8
2025-01-05 14:29:00.554767	40.9	23.9	-90.9	8.5
2025-01-05 14:29:01.709765	40.6	24.0	-90.9	10.0
2025-01-05 14:29:02.871320	40.3	24.1	-91.3	11.2
2025-01-05 14:29:04.015084	40.0	24.1	-91.2	11.4
2025-01-05 14:29:05.172359	39.7	24.2	-91.1	8.9
2025-01-05 14:29:06.329612	39.4	24.3	-91.0	5.9
2025-01-05 14:29:07.494821	39.1	24.4	-91.2	5.8
2025-01-05 14:29:08.653866	38.8	24.4	-91.4	4.3
2025-01-05 14:29:09.818459	38.5	24.5	-91.1	3.4
2025-01-05 14:29:10.976675	38.1	24.6	-90.9	6.0
2025-01-05 14:29:12.140103	37.8	24.6	-90.5	3.9
2025-01-05 14:29:13.303533	37.5	24.7	-90.9	3.8
2025-01-05 14:29:14.462851	37.2	24.8	-90.7	6.2
2025-01-05 14:29:15.623659	36.9	24.8	-91.0	5.3
2025-01-05 14:29:16.784105	36.6	24.9	-91.1	7.3
2025-01-05 14:29:17.948160	36.3	24.9	-91.0	10.1
2025-01-05 14:29:19.109123	36.0	25.0	-90.8	11.1
2025-01-05 14:29:20.285261	35.6	25.1	-90.8	12.7
2025-01-05 14:29:21.447053	35.3	25.1	-91.2	13.3
2025-01-05 14:29:22.607001	35.0	25.2	-91.2	8.7
2025-01-05 14:29:23.774998	34.7	25.2	-91.0	5.1
2025-01-05 14:29:24.942551	34.4	25.3	-90.5	5.4
2025-01-05 14:29:26.107753	34.0	25.4	-90.3	5.6
2025-01-05 14:29:27.271332	33.7	25.4	-90.2	3.7
2025-01-05 14:29:28.427495	33.4	25.5	-90.6	3.5
2025-01-05 14:29:29.590888	33.1	25.5	-91.1	5.3
2025-01-05 14:29:30.756144	32.7	25.6	-91.3	1.7
2025-01-05 14:29:31.915430	32.4	25.6	-90.9	3.7
2025-01-05 14:29:33.076887	32.1	25.7	-90.7	6.9
2025-01-05 14:29:34.239948	31.7	25.7	-90.4	8.4
2025-01-05 14:29:35.403049	31.4	25.8	-90.6	8.8
2025-01-05 14:29:36.563246	31.1	25.8	-90.6	9.8
2025-01-05 14:29:37.726596	30.7	25.9	-90.6	8.3
2025-01-05 14:29:38.889865	30.4	25.9	-91.2	7.9
2025-01-05 14:29:40.048713	30.1	26.0	-91.3	8.2
2025-01-05 14:29:41.212510	29.7	26.0	-90.8	6.2
2025-01-05 14:29:42.375112	29.4	26.1	-91.0	1.9
2025-01-05 14:29:43.534510	29.1	26.1	-91.1	4.6
2025-01-05 14:29:44.698895	28.7	26.1	-91.2	3.0
2025-01-05 14:29:45.859105	28.4	26.2	-91.5	2.8
2025-01-05 14:29:47.018952	28.0	26.2	-91.5	4.6
2025-01-05 14:29:48.187734	27.7	26.3	-91.4	5.0
2025-01-05 14:29:49.348087	27.3	26.3	-91.1	3.1
2025-01-05 14:29:50.513964	27.0	26.3	-91.5	4.8
2025-01-05 14:29:51.678471	26.7	26.4	-91.2	5.0
2025-01-05 14:29:52.837749	26.3	26.4	-91.0	5.1
2025-01-05 14:29:53.998817	26.0	26.4	-89.8	5.2
2025-01-05 14:29:55.158904	25.6	26.5	-90.8	5.9
2025-01-05 14:29:56.325734	25.3	26.5	-90.7	6.1
2025-01-05 14:29:57.487770	24.9	26.5	-90.8	10.5
2025-01-05 14:29:58.642808	24.6	26.5	-90.5	10.5
2025-01-05 14:29:59.805853	24.2	26.6	-90.8	11.5
2025-01-05 14:30:00.969831	23.9	26.6	-91.0	11.5
2025-01-05 14:30:02.132924	23.5	26.6	-90.8	6.8
2025-01-05 14:30:03.300746	23.2	26.6	-90.6	5.6
2025-01-05 14:30:04.462985	22.8	26.7	-90.8	7.9
2025-01-05 14:30:05.629384	22.5	26.7	-91.0	8.6
2025-01-05 14:30:06.789353	22.1	26.7	-91.2	6.2
2025-01-05 14:30:07.951894	21.8	26.7	-91.2	4.9
2025-01-05 14:30:09.112523	21.4	26.7	-90.8	6.5
2025-01-05 14:30:10.272465	21.1	26.8	-90.8	4.5
2025-01-05 14:30:11.431301	20.7	26.8	-91.3	5.8
2025-01-05 14:30:12.596093	20.4	26.8	-91.2	3.3
2025-01-05 14:30:13.759475	20.0	26.8	-91.4	3.8
2025-01-05 14:30:14.927225	19.6	26.8	-91.3	4.9
2025-01-05 14:30:16.087925	19.3	26.8	-91.2	5.5
2025-01-05 14:30:17.256028	18.9	26.8	-90.9	3.6
2025-01-05 14:30:18.419930	18.6	26.8	-90.9	7.2
2025-01-05 14:30:19.581681	18.2	26.8	-91.1	5.1
2025-01-05 14:30:20.745009	17.9	26.8	-90.8	5.7
2025-01-05 14:30:21.907436	17.5	26.9	-91.4	9.1
2025-01-05 14:30:23.076616	17.1	26.9	-91.3	7.5
2025-01-05 14:30:24.231141	16.8	26.9	-91.5	4.6
2025-01-05 14:30:25.398088	16.4	26.9	-91.6	5.8
2025-01-05 14:30:26.557321	16.1	26.9	-91.3	7.1
2025-01-05 14:30:27.712753	15.7	26.9	-91.1	10.1
2025-01-05 14:30:28.863541	15.4	26.8	-91.4	11.4
2025-01-05 14:30:30.031835	15.0	26.8	-91.4	10.4
2025-01-05 14:30:31.187678	14.7	26.8	-91.2	4.1
2025-01-05 14:30:32.354205	14.3	26.8	-91.1	4.9
2025-01-05 14:30:33.514116	14.0	26.8	-91.1	7.0
2025-01-05 14:30:34.676820	13.6	26.8	-91.2	6.7
2025-01-05 14:30:35.839923	13.2	26.8	-90.9	7.2
2025-01-05 14:30:37.000095	12.9	26.8	-90.5	5.4
2025-01-05 14:30:38.163222	12.5	26.8	-90.4	4.7
2025-01-05 14:30:39.316215	12.2	26.8	-90.2	2.7
2025-01-05 14:30:40.479459	11.8	26.7	-90.5	1.5
2025-01-05 14:30:41.644099	11.5	26.7	-90.4	3.8
2025-01-05 14:30:42.808057	11.1	26.7	-90.5	3.0
2025-01-05 14:30:43.963452	10.8	26.7	-90.4	3.8
2025-01-05 14:30:45.131633	10.4	26.7	-91.1	5.6
2025-01-05 14:30:46.287801	10.1	26.7	-90.8	2.9
2025-01-05 14:30:47.452432	9.7	26.6	-89.7	3.8
2025-01-05 14:30:48.618458	9.4	26.6	-90.8	4.6
2025-01-05 14:30:49.778156	9.0	26.6	-90.5	2.0
2025-01-05 14:30:50.938978	8.7	26.6	-90.5	4.1
2025-01-05 14:30:52.096741	8.3	26.5	-89.8	4.1
2025-01-05 14:30:53.260208	8.0	26.5	-90.0	3.2
2025-01-05 14:30:54.423072	7.6	26.5	-91.1	3.3
2025-01-05 14:30:55.583661	7.3	26.4	-91.0	3.5
2025-01-05 14:30:56.762021	6.9	26.4	-91.1	3.9
2025-01-05 14:30:57.928598	6.6	26.4	-91.2	4.2
2025-01-05 14:30:59.084902	6.2	26.3	-91.1	2.9
2025-01-05 14:31:00.247625	5.9	26.3	-91.2	3.3
2025-01-05 14:31:01.402825	5.6	26.3	-91.2	3.5
2025-01-05 14:31:02.570894	5.2	26.2	-91.8	3.3
2025-01-05 14:31:03.731987	4.9	26.2	-91.6	2.7
2025-01-05 14:31:04.899861	4.5	26.1	-91.3	3.7
2025-01-05 14:31:06.067131	4.2	26.1	-91.2	4.7
2025-01-05 14:31:07.228874	3.8	26.1	-91.1	1.7
2025-01-05 14:31:08.393707	3.5	26.0	-90.9	4.0
2025-01-05 14:31:09.552996	3.2	26.0	-91.5	5.3
2025-01-05 14:31:10.720656	2.8	25.9	-91.4	3.9
2025-01-05 14:31:11.886781	2.5	25.9	-91.2	4.0
2025-01-05 14:31:13.050360	2.2	25.8	-91.1	3.9
2025-01-05 14:31:14.210939	1.8	25.8	-91.2	3.8
2025-01-05 14:31:15.369550	1.5	25.7	-91.0	2.2
2025-01-05 14:31:16.533426	1.2	25.7	-91.3	4.6
2025-01-05 14:31:17.694301	0.8	25.6	-91.3	3.4
2025-01-05 14:31:18.859887	0.5	25.6	-91.0	4.2
2025-01-05 14:31:20.015299	0.2	25.5	-91.1	5.3
2025-01-05 14:31:21.180598	359.9	25.5	-91.1	3.6
2025-01-05 14:31:22.339162	359.5	25.4	-91.0	3.4
2025-01-05 14:31:23.503970	359.2	25.4	-90.8	5.8
2025-01-05 14:31:24.663993	358.9	25.3	-88.2	3.2
2025-01-05 14:31:25.831599	358.6	25.3	-91.4	2.2
2025-01-05 14:31:26.993684	358.2	25.2	-91.2	4.8
2025-01-05 14:31:28.157293	357.9	25.1	-91.0	4.1
2025-01-05 14:31:29.313684	357.6	25.1	-91.1	2.4
2025-01-05 14:31:30.469671	357.3	25.0	-91.4	6.0
2025-01-05 14:31:31.637526	357.0	25.0	-91.2	6.6
2025-01-05 14:31:32.799845	356.6	24.9	-91.1	4.4
2025-01-05 14:31:33.966150	356.3	24.8	-91.0	5.1
2025-01-05 14:31:35.129603	356.0	24.8	-90.7	6.4
2025-01-05 14:31:36.290461	355.7	24.7	-90.9	3.3
2025-01-05 14:31:37.455622	355.4	24.6	-91.7	6.4
2025-01-05 14:31:38.617258	355.1	24.6	-91.4	3.8
2025-01-05 14:31:39.783925	354.8	24.5	-91.2	3.3
2025-01-05 14:31:40.942481	354.5	24.4	-91.1	8.1
2025-01-05 14:31:42.103369	354.2	24.4	-90.8	5.0
2025-01-05 14:31:43.266689	353.9	24.3	-90.7	4.2
2025-01-05 14:31:44.425108	353.6	24.2	-90.7	5.3
2025-01-05 14:31:45.589819	353.3	24.2	-90.9	5.6
2025-01-05 14:31:46.751409	353.0	24.1	-90.7	6.3
2025-01-05 14:31:47.911537	352.7	24.0	-91.0	7.2
2025-01-05 14:31:49.074841	352.4	24.0	-91.0	4.3
2025-01-05 14:31:50.235697	352.1	23.9	-90.9	4.6
2025-01-05 14:31:51.396035	351.8	23.8	-90.2	7.5
2025-01-05 14:31:52.562726	351.5	23.7	-90.3	7.2
2025-01-05 14:31:53.723034	351.2	23.7	-90.6	8.1
2025-01-05 14:31:54.885876	350.9	23.6	-90.6	8.1
2025-01-05 14:31:56.041347	350.6	23.5	-90.4	7.7
2025-01-05 14:31:57.203032	350.3	23.4	-90.1	7.0
2025-01-05 14:31:58.366718	350.1	23.4	-90.1	8.8
2025-01-05 14:31:59.521972	349.8	23.3	-90.5	8.3
2025-01-05 14:32:00.674827	349.5	23.2	-90.8	7.2
2025-01-05 14:32:01.836268	349.2	23.1	-91.4	11.1
2025-01-05 14:32:02.997235	348.9	23.0	-91.4	9.8
2025-01-05 14:32:04.166253	348.6	23.0	-90.9	11.3
2025-01-05 14:32:05.328895	348.4	22.9	-91.0	10.4
2025-01-05 14:32:06.488917	348.1	22.8	-91.3	14.0
2025-01-05 14:32:07.650320	347.8	22.7	-91.3	9.2
2025-01-05 14:32:08.805490	347.6	22.6	-90.9	10.8
2025-01-05 14:32:09.960196	347.3	22.6	-90.8	7.2
2025-01-05 14:32:11.123980	347.0	22.5	-90.6	5.8
2025-01-05 14:32:12.285118	346.7	22.4	-90.7	5.3
2025-01-05 14:32:13.450572	346.5	22.3	-90.6	7.3
2025-01-05 14:32:14.612321	346.2	22.2	-90.4	7.2
2025-01-05 14:32:15.773815	345.9	22.1	-90.5	3.1
2025-01-05 14:32:16.939031	345.7	22.1	-90.2	4.9
2025-01-05 14:32:18.098040	345.4	22.0	-90.7	6.0
2025-01-05 14:32:19.257636	345.2	21.9	-91.3	5.5
2025-01-05 14:32:20.419273	344.9	21.8	-90.6	5.5
2025-01-05 14:32:21.590140	344.7	21.7	-91.6	4.7
2025-01-05 14:32:22.755463	344.4	21.6	-91.0	3.7
2025-01-05 14:32:23.921214	344.1	21.6	-90.9	4.7
2025-01-05 14:32:25.088272	343.9	21.5	-90.3	6.4
2025-01-05 14:32:26.249070	343.6	21.4	-90.2	2.3
2025-01-05 14:32:27.411578	343.4	21.3	-90.5	5.1
2025-01-05 14:32:28.573958	343.1	21.2	-90.4	5.1
2025-01-05 14:32:29.727373	342.9	21.1	-90.5	3.7
2025-01-05 14:32:30.890743	342.6	21.0	-90.8	3.3
2025-01-05 14:32:32.049943	342.4	20.9	-90.4	2.3
2025-01-05 14:32:33.209447	342.2	20.9	-90.8	2.2
2025-01-05 14:32:34.371658	341.9	20.8	-90.8	2.6
2025-01-05 14:32:35.535631	341.7	20.7	-90.9	4.2
2025-01-05 14:32:36.696337	341.4	20.6	-91.0	5.5
2025-01-05 14:32:37.860405	341.2	20.5	-90.6	1.6
2025-01-05 14:32:39.021857	341.0	20.4	-90.9	3.4
2025-01-05 14:32:40.178748	340.7	20.3	-91.0	2.5
2025-01-05 14:32:41.342920	340.5	20.2	-90.9	4.3
2025-01-05 14:32:42.508221	340.3	20.1	-91.1	5.3
2025-01-05 14:32:43.667145	340.0	20.0	-91.3	3.0
2025-01-05 14:32:44.830109	339.8	20.0	-90.9	3.8
2025-01-05 14:32:45.993552	339.6	19.9	-91.2	2.2
2025-01-05 14:32:47.146774	339.4	19.8	-90.6	0.7
2025-01-05 14:32:48.298814	339.1	19.7	-90.9	2.5
2025-01-05 14:32:49.437065	338.9	19.6	-90.7	0.5
2025-01-05 14:32:50.600899	338.7	19.5	-91.1	2.9
2025-01-05 14:32:51.761759	338.5	19.4	-90.9	3.7
2025-01-05 14:32:52.920093	338.3	19.3	-91.5	3.1
2025-01-05 14:32:54.082948	338.0	19.2	-91.5	3.8
2025-01-05 14:32:55.240338	337.8	19.1	-91.6	2.0
2025-01-05 14:32:56.404503	337.6	19.0	-91.4	0.1
2025-01-05 14:32:57.563627	337.4	19.0	-91.3	2.7
2025-01-05 14:32:58.730701	337.2	18.9	-91.5	2.6
2025-01-05 14:32:59.882396	337.0	18.8	-91.6	2.1
2025-01-05 14:33:01.037392	336.8	18.7	-91.3	1.2
2025-01-05 14:33:02.197183	336.6	18.6	-91.0	2.7
2025-01-05 14:33:03.359336	336.3	18.5	-91.2	3.0
2025-01-05 14:33:04.518570	336.1	18.4	-91.4	5.4
2025-01-05 14:33:05.679153	335.9	18.3	-91.4	3.4
2025-01-05 14:33:06.843367	335.7	18.2	-90.9	2.3
2025-01-05 14:33:08.003198	335.5	18.1	-90.9	2.9
2025-01-05 14:33:09.172726	335.3	18.0	-90.9	2.7
2025-01-05 14:33:10.327490	335.1	17.9	-89.6	1.7
2025-01-05 14:33:11.490027	334.9	17.9	-90.1	1.5
2025-01-05 14:33:12.649467	334.7	17.8	-90.5	1.9
2025-01-05 14:33:13.813799	334.5	17.7	-90.9	4.0
2025-01-05 14:33:14.978821	334.3	17.6	-90.9	3.9
2025-01-05 14:33:16.142961	334.1	17.5	-88.3	2.9
2025-01-05 14:33:17.306349	334.0	17.4	-89.3	3.9
2025-01-05 14:33:18.469163	333.8	17.3	-86.8	2.0
2025-01-05 14:33:19.630414	333.6	17.2	-88.5	2.2
2025-01-05 14:33:20.793667	333.4	17.1	-88.3	1.6
2025-01-05 14:33:21.964451	333.2	17.0	-90.9	0.9
2025-01-05 14:33:23.124292	333.0	16.9	-89.4	2.8
2025-01-05 14:33:24.291998	332.8	16.8	-89.9	3.4
2025-01-05 14:33:25.448580	332.6	16.7	-90.6	3.2
2025-01-05 14:33:26.615656	332.5	16.6	-90.8	3.0
2025-01-05 14:33:27.777295	332.3	16.6	-90.7	4.7
2025-01-05 14:33:28.938951	332.1	16.5	-91.3	4.9
2025-01-05 14:33:30.089138	331.9	16.4	-91.4	4.7
2025-01-05 14:33:31.248855	331.7	16.3	-91.3	4.4
2025-01-05 14:33:32.413655	331.6	16.2	-91.6	6.3
2025-01-05 14:33:33.580200	331.4	16.1	-91.2	4.0
2025-01-05 14:33:34.743893	331.2	16.0	-90.8	4.5
2025-01-05 14:33:35.905677	331.0	15.9	-90.1	4.9
2025-01-05 14:33:37.181132	330.8	15.8	-90.5	4.4
2025-01-05 14:33:38.342059	330.7	15.7	-90.9	1.7
2025-01-05 14:33:39.508533	330.5	15.6	-90.7	4.6
2025-01-05 14:33:40.669910	330.3	15.5	-91.1	2.6
2025-01-05 14:33:41.838996	330.2	15.4	-91.3	1.5
2025-01-05 14:33:43.111465	330.0	15.3	-91.3	3.6
2025-01-05 14:33:44.275055	329.8	15.3	-90.8	1.7
2025-01-05 14:33:45.438736	329.6	15.2	-90.8	1.9
2025-01-05 14:33:46.598936	329.5	15.1	-90.6	0.7
2025-01-05 14:33:47.759793	329.3	15.0	-90.9	0.6
2025-01-05 14:33:48.919049	329.1	14.9	-90.3	3.0
2025-01-05 14:33:50.076262	329.0	14.8	-90.4	4.0
2025-01-05 14:33:51.236140	328.8	14.7	-90.5	5.0
2025-01-05 14:33:52.393171	328.7	14.6	-90.8	3.4
#Closed at: 2025-01-05 14:27:07.580933