passes_logs/2025/01/05/LEX_Murmansk/LEX_Murmansk__20250105_145510_NOAA_18_rec.log

#Pass ID: 20250105_145510_NOAA 18
#Satellite: NOAA 18
#Configuration: NOAA 18
#Start time: 2025-01-05 14:55:05.585530

#LorettStation: 1.0.0 05.05.2024
#Station: LEX_Murmansk
#Location: 33.156738 lon 68.926811 lat
#TLE: 1 28654U 05018A   25004.89869685  .00000615  00000+0  35035-3 0  9999
#TLE: 2 28654  98.8582  86.0526 0013879 207.8923 152.1507 14.13477357 11671

#Time	Az	El	Level	SNR
2025-01-05 14:55:17.853761	47.9	15.9	-91.2	4.4
2025-01-05 14:55:19.019713	47.8	16.0	-91.3	6.0
2025-01-05 14:55:20.184872	47.6	16.1	-91.0	6.2
2025-01-05 14:55:21.352606	47.4	16.1	-88.6	4.8
2025-01-05 14:55:22.511166	47.2	16.2	-89.8	6.1
2025-01-05 14:55:23.675103	47.0	16.3	-89.1	2.3
2025-01-05 14:55:24.838124	46.8	16.4	-89.8	6.3
2025-01-05 14:55:26.000239	46.6	16.5	-90.4	5.2
2025-01-05 14:55:27.167026	46.4	16.6	-90.0	4.9
2025-01-05 14:55:28.331862	46.2	16.6	-90.1	3.1
2025-01-05 14:55:29.500295	46.0	16.7	-90.4	4.8
2025-01-05 14:55:30.665064	45.9	16.8	-90.5	6.2
2025-01-05 14:55:31.828612	45.7	16.9	-90.3	9.5
2025-01-05 14:55:32.990457	45.5	17.0	-90.0	5.1
2025-01-05 14:55:34.154844	45.3	17.1	-89.7	2.9
2025-01-05 14:55:35.315718	45.1	17.1	-89.6	8.2
2025-01-05 14:55:36.477273	44.9	17.2	-90.3	5.7
2025-01-05 14:55:37.645125	44.7	17.3	-89.9	4.7
2025-01-05 14:55:38.802449	44.5	17.4	-91.2	3.8
2025-01-05 14:55:39.966696	44.3	17.5	-91.1	6.3
2025-01-05 14:55:41.127357	44.1	17.6	-91.0	4.7
2025-01-05 14:55:42.290716	43.8	17.6	-91.1	5.4
2025-01-05 14:55:43.456601	43.6	17.7	-91.3	6.2
2025-01-05 14:55:44.616737	43.4	17.8	-91.3	6.1
2025-01-05 14:55:45.780035	43.2	17.9	-91.2	6.6
2025-01-05 14:55:46.934978	43.0	18.0	-91.5	7.1
2025-01-05 14:55:48.102672	42.8	18.1	-91.0	4.7
2025-01-05 14:55:49.264820	42.6	18.1	-91.0	5.7
2025-01-05 14:55:50.428142	42.4	18.2	-91.5	6.2
2025-01-05 14:55:51.588749	42.2	18.3	-91.6	5.7
2025-01-05 14:55:52.757683	41.9	18.4	-91.7	6.2
2025-01-05 14:55:53.922114	41.7	18.5	-91.6	7.3
2025-01-05 14:55:55.082436	41.5	18.6	-90.9	4.3
2025-01-05 14:55:56.250067	41.3	18.6	-91.0	7.9
2025-01-05 14:55:57.414617	41.1	18.7	-91.1	8.0
2025-01-05 14:55:58.578090	40.8	18.8	-91.4	6.5
2025-01-05 14:55:59.738478	40.6	18.9	-91.1	9.1
2025-01-05 14:56:00.899203	40.4	19.0	-91.1	10.5
2025-01-05 14:56:02.026677	40.2	19.0	-91.4	7.6
2025-01-05 14:56:03.152036	40.0	19.1	-91.0	4.4
2025-01-05 14:56:04.319817	39.7	19.2	-90.4	7.8
2025-01-05 14:56:05.483752	39.5	19.3	-91.5	5.6
2025-01-05 14:56:06.651780	39.3	19.3	-91.0	6.8
2025-01-05 14:56:07.817454	39.0	19.4	-91.4	9.7
2025-01-05 14:56:08.987537	38.8	19.5	-91.1	9.0
2025-01-05 14:56:10.152623	38.6	19.6	-91.0	8.3
2025-01-05 14:56:11.313029	38.3	19.7	-91.3	14.1
2025-01-05 14:56:12.480569	38.1	19.7	-91.2	8.1
2025-01-05 14:56:13.641418	37.9	19.8	-91.2	8.6
2025-01-05 14:56:14.805061	37.6	19.9	-91.0	9.9
2025-01-05 14:56:15.963722	37.4	20.0	-91.0	7.1
2025-01-05 14:56:17.124292	37.1	20.1	-90.7	5.1
2025-01-05 14:56:18.295647	36.9	20.1	-90.5	11.6
2025-01-05 14:56:19.454682	36.7	20.2	-90.9	8.4
2025-01-05 14:56:20.620691	36.4	20.3	-91.1	6.0
2025-01-05 14:56:21.775378	36.2	20.4	-91.3	7.3
2025-01-05 14:56:22.940171	35.9	20.4	-91.4	5.2
2025-01-05 14:56:24.099525	35.7	20.5	-91.3	7.5
2025-01-05 14:56:25.259144	35.4	20.6	-91.1	13.2
2025-01-05 14:56:26.420365	35.2	20.7	-91.6	10.7
2025-01-05 14:56:27.587317	34.9	20.7	-91.4	8.1
2025-01-05 14:56:28.750841	34.7	20.8	-91.3	10.9
2025-01-05 14:56:29.917594	34.4	20.9	-91.3	7.5
2025-01-05 14:56:31.078753	34.2	20.9	-90.9	10.2
2025-01-05 14:56:32.236845	33.9	21.0	-90.9	7.6
2025-01-05 14:56:33.402925	33.6	21.1	-91.2	11.9
2025-01-05 14:56:34.561565	33.4	21.2	-91.1	8.8
2025-01-05 14:56:35.719081	33.1	21.2	-91.0	11.4
2025-01-05 14:56:36.879339	32.9	21.3	-91.5	11.3
2025-01-05 14:56:38.043950	32.6	21.4	-91.4	13.5
2025-01-05 14:56:39.198452	32.3	21.4	-90.9	15.8
2025-01-05 14:56:40.364945	32.1	21.5	-90.9	11.7
2025-01-05 14:56:41.525741	31.8	21.6	-91.4	9.6
2025-01-05 14:56:42.695063	31.5	21.6	-91.5	9.0
2025-01-05 14:56:43.851778	31.3	21.7	-91.6	10.5
2025-01-05 14:56:45.012247	31.0	21.8	-91.5	7.5
2025-01-05 14:56:46.170623	30.7	21.8	-91.2	6.9
2025-01-05 14:56:47.334406	30.5	21.9	-91.0	11.3
2025-01-05 14:56:48.501709	30.2	22.0	-91.1	6.4
2025-01-05 14:56:49.666675	29.9	22.0	-91.2	9.2
2025-01-05 14:56:50.837346	29.6	22.1	-91.7	8.6
2025-01-05 14:56:51.996949	29.3	22.2	-91.4	13.8
2025-01-05 14:56:53.161929	29.1	22.2	-90.9	12.2
2025-01-05 14:56:54.325190	28.8	22.3	-91.3	11.2
2025-01-05 14:56:55.486544	28.5	22.4	-91.2	16.7
2025-01-05 14:56:56.652782	28.2	22.4	-91.3	12.7
2025-01-05 14:56:57.813988	27.9	22.5	-91.7	10.8
2025-01-05 14:56:58.980413	27.7	22.5	-91.5	10.0
2025-01-05 14:57:00.141820	27.4	22.6	-91.3	11.9
2025-01-05 14:57:01.290670	27.1	22.7	-90.9	14.5
2025-01-05 14:57:02.452694	26.8	22.7	-91.3	10.2
2025-01-05 14:57:03.620108	26.5	22.8	-91.4	9.7
2025-01-05 14:57:04.782531	26.2	22.8	-91.4	15.2
2025-01-05 14:57:05.939567	25.9	22.9	-91.2	9.6
2025-01-05 14:57:07.104004	25.6	22.9	-91.1	6.2
2025-01-05 14:57:08.271272	25.4	23.0	-90.5	13.6
2025-01-05 14:57:09.435177	25.1	23.1	-91.2	10.5
2025-01-05 14:57:10.599826	24.8	23.1	-91.1	12.5
2025-01-05 14:57:11.767800	24.5	23.2	-91.3	7.5
2025-01-05 14:57:12.928248	24.2	23.2	-91.2	14.1
2025-01-05 14:57:14.096502	23.9	23.3	-91.2	10.8
2025-01-05 14:57:15.260944	23.6	23.3	-91.0	12.5
2025-01-05 14:57:16.419843	23.3	23.4	-90.9	12.5
2025-01-05 14:57:17.585583	23.0	23.4	-91.1	9.7
2025-01-05 14:57:18.749420	22.7	23.5	-91.2	12.6
2025-01-05 14:57:19.913454	22.4	23.5	-91.6	15.0
2025-01-05 14:57:21.071376	22.1	23.6	-91.4	5.6
2025-01-05 14:57:22.238198	21.8	23.6	-91.1	12.5
2025-01-05 14:57:23.401518	21.5	23.7	-90.9	13.5
2025-01-05 14:57:24.560403	21.2	23.7	-90.9	8.4
2025-01-05 14:57:25.723571	20.8	23.7	-91.0	10.5
2025-01-05 14:57:26.887324	20.5	23.8	-91.3	13.2
2025-01-05 14:57:28.052351	20.2	23.8	-91.2	11.8
2025-01-05 14:57:29.215030	19.9	23.9	-90.9	11.3
2025-01-05 14:57:30.377879	19.6	23.9	-91.1	7.0
2025-01-05 14:57:31.534094	19.3	23.9	-90.8	9.5
2025-01-05 14:57:32.698113	19.0	24.0	-91.2	10.4
2025-01-05 14:57:33.859081	18.7	24.0	-91.5	12.4
2025-01-05 14:57:35.026117	18.4	24.1	-91.5	12.3
2025-01-05 14:57:36.181663	18.1	24.1	-91.2	12.1
2025-01-05 14:57:37.344724	17.7	24.1	-91.1	12.5
2025-01-05 14:57:38.505035	17.4	24.2	-91.2	10.1
2025-01-05 14:57:39.669311	17.1	24.2	-91.0	8.7
2025-01-05 14:57:40.837683	16.8	24.2	-91.7	13.5
2025-01-05 14:57:41.997180	16.5	24.3	-91.9	9.4
2025-01-05 14:57:43.159327	16.2	24.3	-91.6	7.2
2025-01-05 14:57:44.320788	15.8	24.3	-91.6	12.1
2025-01-05 14:57:45.483439	15.5	24.3	-91.7	10.0
2025-01-05 14:57:46.651860	15.2	24.4	-91.6	13.2
2025-01-05 14:57:47.816396	14.9	24.4	-91.9	12.7
2025-01-05 14:57:48.976503	14.6	24.4	-91.5	11.4
2025-01-05 14:57:50.147836	14.2	24.5	-91.4	15.3
2025-01-05 14:57:51.312367	13.9	24.5	-91.1	11.7
2025-01-05 14:57:52.476328	13.6	24.5	-91.8	11.8
2025-01-05 14:57:53.635179	13.3	24.5	-92.3	11.3
2025-01-05 14:57:54.797193	12.9	24.5	-91.7	12.1
2025-01-05 14:57:55.957290	12.6	24.6	-91.7	9.8
2025-01-05 14:57:57.121287	12.3	24.6	-91.2	7.5
2025-01-05 14:57:58.282878	12.0	24.6	-91.4	7.7
2025-01-05 14:57:59.443024	11.6	24.6	-91.2	7.9
2025-01-05 14:58:00.593342	11.3	24.6	-91.9	6.9
2025-01-05 14:58:01.748324	11.0	24.6	-91.8	5.6
2025-01-05 14:58:02.911673	10.7	24.7	-91.8	6.1
2025-01-05 14:58:04.071624	10.4	24.7	-92.0	4.5
2025-01-05 14:58:05.241777	10.0	24.7	-91.4	6.2
2025-01-05 14:58:06.402045	9.7	24.7	-91.6	9.3
2025-01-05 14:58:07.568025	9.4	24.7	-91.5	5.0
2025-01-05 14:58:08.732695	9.0	24.7	-91.2	10.0
2025-01-05 14:58:09.896380	8.7	24.7	-91.8	12.4
2025-01-05 14:58:11.065771	8.4	24.7	-91.7	5.4
2025-01-05 14:58:12.232459	8.1	24.7	-91.1	7.4
2025-01-05 14:58:13.397159	7.7	24.7	-90.9	8.4
2025-01-05 14:58:14.561599	7.4	24.7	-90.8	9.1
2025-01-05 14:58:15.722505	7.1	24.7	-91.6	11.3
2025-01-05 14:58:16.883634	6.7	24.7	-91.6	11.2
2025-01-05 14:58:18.049107	6.4	24.7	-91.8	9.9
2025-01-05 14:58:19.215475	6.1	24.7	-91.4	14.1
2025-01-05 14:58:20.376924	5.8	24.7	-91.4	13.2
2025-01-05 14:58:21.542130	5.4	24.7	-91.4	12.1
2025-01-05 14:58:22.706996	5.1	24.7	-90.6	8.1
2025-01-05 14:58:23.865160	4.8	24.7	-90.6	12.1
2025-01-05 14:58:25.030427	4.5	24.7	-90.1	13.0
2025-01-05 14:58:26.189868	4.1	24.7	-89.3	9.7
2025-01-05 14:58:27.359617	3.8	24.7	-89.8	11.9
2025-01-05 14:58:28.520042	3.5	24.7	-89.6	11.9
2025-01-05 14:58:29.684618	3.1	24.7	-90.4	12.6
2025-01-05 14:58:30.846710	2.8	24.7	-90.3	11.8
2025-01-05 14:58:32.015217	2.5	24.7	-90.4	10.4
2025-01-05 14:58:33.178970	2.2	24.7	-89.5	12.0
2025-01-05 14:58:34.344197	1.8	24.6	-90.1	13.5
2025-01-05 14:58:35.510888	1.5	24.6	-90.3	9.7
2025-01-05 14:58:36.675217	1.2	24.6	-90.1	8.2
2025-01-05 14:58:37.840366	0.9	24.6	-90.3	12.3
2025-01-05 14:58:38.969631	0.5	24.6	-90.6	9.9
2025-01-05 14:58:40.089806	0.2	24.6	-90.2	8.0
2025-01-05 14:58:41.210372	359.9	24.5	-90.1	12.5
2025-01-05 14:58:42.330458	359.6	24.5	-89.9	14.3
2025-01-05 14:58:43.450662	359.3	24.5	-90.4	6.7
2025-01-05 14:58:44.571778	359.0	24.5	-90.6	8.2
2025-01-05 14:58:45.692840	358.7	24.5	-90.6	12.0
2025-01-05 14:58:46.832057	358.4	24.4	-90.0	12.8
2025-01-05 14:58:47.987385	358.0	24.4	-90.6	8.3
2025-01-05 14:58:49.152605	357.7	24.4	-90.2	9.4
2025-01-05 14:58:50.315929	357.4	24.4	-90.9	13.9
2025-01-05 14:58:51.480834	357.1	24.3	-91.3	9.9
2025-01-05 14:58:52.650874	356.8	24.3	-91.4	10.1
2025-01-05 14:58:53.817702	356.4	24.3	-91.1	16.0
2025-01-05 14:58:54.978682	356.1	24.2	-91.2	8.5
2025-01-05 14:58:56.133532	355.8	24.2	-90.9	10.7
2025-01-05 14:58:57.292513	355.5	24.2	-91.0	16.9
2025-01-05 14:58:58.453156	355.2	24.1	-90.2	9.3
2025-01-05 14:58:59.614812	354.9	24.1	-90.9	7.6
2025-01-05 14:59:00.769729	354.5	24.1	-91.1	15.5
2025-01-05 14:59:01.930466	354.2	24.0	-91.2	13.8
2025-01-05 14:59:03.091874	353.9	24.0	-91.1	10.2
2025-01-05 14:59:04.258905	353.6	24.0	-90.6	16.2
2025-01-05 14:59:05.400110	353.3	23.9	-91.0	16.8
2025-01-05 14:59:06.556650	353.0	23.9	-91.6	10.2
2025-01-05 14:59:07.721547	352.7	23.8	-91.4	14.1
2025-01-05 14:59:08.886366	352.4	23.8	-91.5	15.8
2025-01-05 14:59:10.052022	352.1	23.8	-91.4	9.5
2025-01-05 14:59:11.214329	351.8	23.7	-91.2	11.2
2025-01-05 14:59:12.378248	351.5	23.7	-91.0	13.5
2025-01-05 14:59:13.541778	351.1	23.6	-91.0	8.0
2025-01-05 14:59:14.705649	350.8	23.6	-91.5	10.8
2025-01-05 14:59:15.865416	350.5	23.5	-91.5	11.9
2025-01-05 14:59:17.024364	350.2	23.5	-91.8	6.8
2025-01-05 14:59:18.185658	349.9	23.4	-91.3	11.0
2025-01-05 14:59:19.351943	349.6	23.4	-91.3	15.8
2025-01-05 14:59:20.515441	349.3	23.3	-91.3	10.1
2025-01-05 14:59:21.679767	349.0	23.3	-91.7	9.9
2025-01-05 14:59:22.838481	348.7	23.2	-92.0	14.6
2025-01-05 14:59:24.002251	348.4	23.2	-91.6	7.8
2025-01-05 14:59:25.166609	348.1	23.1	-91.2	8.1
2025-01-05 14:59:26.324970	347.8	23.1	-91.1	13.4
2025-01-05 14:59:27.485711	347.6	23.0	-91.7	7.5
2025-01-05 14:59:28.649379	347.3	23.0	-91.9	6.9
2025-01-05 14:59:29.812450	347.0	22.9	-92.1	11.4
2025-01-05 14:59:30.979334	346.7	22.9	-91.9	7.2
2025-01-05 14:59:32.139691	346.4	22.8	-91.4	5.7
2025-01-05 14:59:33.302469	346.1	22.7	-91.3	11.9
2025-01-05 14:59:34.472378	345.8	22.7	-91.5	8.6
2025-01-05 14:59:35.630214	345.5	22.6	-91.6	8.6
2025-01-05 14:59:36.788190	345.2	22.6	-91.1	12.9
2025-01-05 14:59:37.952753	344.9	22.5	-90.8	9.7
2025-01-05 14:59:39.116179	344.7	22.4	-91.2	8.4
2025-01-05 14:59:40.281115	344.4	22.4	-91.5	11.7
2025-01-05 14:59:41.444030	344.1	22.3	-91.5	9.3
2025-01-05 14:59:42.600736	343.8	22.3	-91.8	9.1
2025-01-05 14:59:43.772155	343.5	22.2	-91.6	11.9
2025-01-05 14:59:44.932655	343.3	22.1	-91.9	11.8
2025-01-05 14:59:46.086814	343.0	22.1	-91.6	8.5
2025-01-05 14:59:47.248449	342.7	22.0	-91.5	10.8
2025-01-05 14:59:48.414099	342.4	21.9	-91.5	13.0
2025-01-05 14:59:49.583708	342.2	21.9	-91.8	8.2
2025-01-05 14:59:50.745974	341.9	21.8	-91.6	14.3
2025-01-05 14:59:51.912891	341.6	21.7	-91.7	13.0
2025-01-05 14:59:53.075026	341.3	21.7	-91.2	6.4
2025-01-05 14:59:54.242426	341.1	21.6	-91.5	13.0
2025-01-05 14:59:55.399221	340.8	21.5	-91.2	10.8
2025-01-05 14:59:56.554993	340.5	21.5	-91.8	8.7
2025-01-05 14:59:57.721177	340.3	21.4	-91.7	11.4
2025-01-05 14:59:58.881600	340.0	21.3	-91.4	14.4
2025-01-05 15:00:00.047179	339.8	21.3	-91.5	8.9
2025-01-05 15:00:01.195890	339.5	21.2	-91.5	12.6
2025-01-05 15:00:02.356826	339.2	21.1	-90.8	11.1
2025-01-05 15:00:03.513588	339.0	21.0	-91.5	11.0
2025-01-05 15:00:04.680510	338.7	21.0	-91.6	10.0
2025-01-05 15:00:05.841846	338.5	20.9	-91.5	11.2
2025-01-05 15:00:07.001978	338.2	20.8	-91.6	5.8
2025-01-05 15:00:08.158284	338.0	20.7	-91.6	14.9
2025-01-05 15:00:09.318171	337.7	20.7	-91.4	7.8
2025-01-05 15:00:10.492753	337.4	20.6	-91.7	7.8
2025-01-05 15:00:11.653618	337.2	20.5	-91.3	10.8
2025-01-05 15:00:12.811273	336.9	20.4	-91.8	6.8
2025-01-05 15:00:13.977863	336.7	20.4	-92.0	8.9
2025-01-05 15:00:15.143031	336.4	20.3	-91.6	9.0
2025-01-05 15:00:16.314866	336.2	20.2	-91.1	5.1
2025-01-05 15:00:17.476233	336.0	20.1	-91.2	4.7
2025-01-05 15:00:18.640568	335.7	20.1	-91.0	6.4
2025-01-05 15:00:19.807314	335.5	20.0	-91.3	8.2
2025-01-05 15:00:20.968118	335.2	19.9	-91.6	4.8
2025-01-05 15:00:22.132794	335.0	19.8	-91.1	5.3
2025-01-05 15:00:23.294624	334.7	19.8	-91.4	8.9
2025-01-05 15:00:24.458094	334.5	19.7	-91.4	8.1
2025-01-05 15:00:25.621627	334.3	19.6	-91.5	3.9
2025-01-05 15:00:26.777582	334.0	19.5	-91.8	7.5
2025-01-05 15:00:27.944156	333.8	19.4	-89.2	5.3
2025-01-05 15:00:29.101641	333.6	19.4	-91.2	3.1
2025-01-05 15:00:30.265586	333.3	19.3	-91.5	10.3
2025-01-05 15:00:31.427322	333.1	19.2	-91.6	7.3
2025-01-05 15:00:32.590773	332.9	19.1	-91.6	3.4
2025-01-05 15:00:33.750552	332.7	19.0	-91.6	3.8
2025-01-05 15:00:34.921362	332.4	19.0	-91.5	4.8
2025-01-05 15:00:36.083218	332.2	18.9	-91.5	4.8
2025-01-05 15:00:37.242275	332.0	18.8	-91.6	5.5
2025-01-05 15:00:38.402069	331.8	18.7	-91.6	5.2
2025-01-05 15:00:39.565039	331.5	18.6	-91.9	7.9
2025-01-05 15:00:40.731429	331.3	18.6	-91.8	7.9
2025-01-05 15:00:41.893163	331.1	18.5	-91.7	4.2
2025-01-05 15:00:43.061500	330.9	18.4	-91.6	4.1
2025-01-05 15:00:44.228971	330.7	18.3	-91.7	3.1
2025-01-05 15:00:45.395908	330.4	18.2	-91.4	8.0
2025-01-05 15:00:46.556073	330.2	18.1	-91.9	9.6
2025-01-05 15:00:47.723340	330.0	18.1	-91.4	10.6
2025-01-05 15:00:48.888413	329.8	18.0	-91.5	8.8
2025-01-05 15:00:50.046428	329.6	17.9	-91.6	6.3
2025-01-05 15:00:51.207195	329.4	17.8	-91.5	6.1
2025-01-05 15:00:52.364839	329.2	17.7	-91.4	4.3
2025-01-05 15:00:53.531865	329.0	17.7	-91.7	3.9
2025-01-05 15:00:54.695255	328.8	17.6	-91.6	3.5
2025-01-05 15:00:55.856935	328.6	17.5	-91.3	4.1
2025-01-05 15:00:57.012430	328.3	17.4	-91.6	2.5
2025-01-05 15:00:58.183390	328.1	17.3	-91.6	3.4
2025-01-05 15:00:59.349231	327.9	17.2	-91.7	4.2
2025-01-05 15:01:00.498540	327.7	17.2	-91.6	4.0
2025-01-05 15:01:01.658568	327.5	17.1	-91.6	3.9
2025-01-05 15:01:02.827023	327.3	17.0	-92.1	5.3
2025-01-05 15:01:04.013347	327.1	16.9	-91.9	3.2
2025-01-05 15:01:05.169392	326.9	16.8	-91.5	4.3
2025-01-05 15:01:06.336744	326.7	16.7	-91.7	9.9
2025-01-05 15:01:07.497185	326.6	16.6	-92.2	5.7
2025-01-05 15:01:08.665843	326.4	16.6	-91.9	7.2
2025-01-05 15:01:09.830934	326.2	16.5	-92.1	6.0
2025-01-05 15:01:11.011434	326.0	16.4	-91.9	4.2
2025-01-05 15:01:12.173517	325.8	16.3	-91.7	4.3
2025-01-05 15:01:13.337090	325.6	16.2	-91.9	4.8
2025-01-05 15:01:14.500831	325.4	16.1	-91.8	5.8
2025-01-05 15:01:15.664132	325.2	16.1	-92.1	8.1
2025-01-05 15:01:16.821981	325.0	16.0	-91.7	4.3
2025-01-05 15:01:17.986503	324.9	15.9	-92.0	4.1
2025-01-05 15:01:19.141046	324.7	15.8	-91.8	4.3
2025-01-05 15:01:20.305394	324.5	15.7	-91.6	4.8
2025-01-05 15:01:21.466545	324.3	15.6	-91.8	5.3
2025-01-05 15:01:22.631123	324.1	15.5	-91.6	1.5
2025-01-05 15:01:23.791936	323.9	15.5	-90.4	6.7
2025-01-05 15:01:24.959510	323.8	15.4	-90.8	4.5
2025-01-05 15:01:26.122249	323.6	15.3	-90.9	5.8
2025-01-05 15:01:27.271548	323.4	15.2	-90.3	5.6
2025-01-05 15:01:28.436056	323.2	15.1	-90.3	3.0
2025-01-05 15:01:29.597008	323.1	15.0	-90.7	5.5
2025-01-05 15:01:30.761784	322.9	15.0	-92.1	5.4
2025-01-05 15:01:31.929289	322.7	14.9	-91.7	5.9
2025-01-05 15:01:33.092036	322.5	14.8	-91.7	5.8
2025-01-05 15:01:34.255448	322.4	14.7	-91.6	3.4
2025-01-05 15:01:35.411173	322.2	14.6	-91.9	7.9
#Closed at: 2025-01-05 14:55:10.641920