passes_logs/2025/01/05/LEX_Murmansk/LEX_Murmansk__20250105_163401_NOAA_18_rec.log

#Pass ID: 20250105_163401_NOAA 18
#Satellite: NOAA 18
#Configuration: NOAA 18
#Start time: 2025-01-05 16:33:56.290605

#LorettStation: 1.0.0 05.05.2024
#Station: LEX_Murmansk
#Location: 33.156738 lon 68.926811 lat
#TLE: 1 28654U 05018A   25004.89869685  .00000615  00000+0  35035-3 0  9999
#TLE: 2 28654  98.8582  86.0526 0013879 207.8923 152.1507 14.13477357 11671

#Time	Az	El	Level	SNR
2025-01-05 16:34:12.451404	84.9	16.4	-92.0	6.0
2025-01-05 16:34:13.614712	84.8	16.5	-92.1	7.2
2025-01-05 16:34:14.771497	84.6	16.7	-91.5	12.6
2025-01-05 16:34:15.928123	84.5	16.8	-92.5	9.7
2025-01-05 16:34:17.089234	84.3	16.9	-92.0	7.6
2025-01-05 16:34:18.247474	84.2	17.0	-91.7	17.9
2025-01-05 16:34:19.405741	84.0	17.1	-91.5	11.6
2025-01-05 16:34:20.562999	83.9	17.2	-88.3	11.8
2025-01-05 16:34:21.714728	83.7	17.3	-92.4	12.1
2025-01-05 16:34:22.865275	83.6	17.4	-92.6	5.1
2025-01-05 16:34:24.028905	83.4	17.5	-92.3	5.4
2025-01-05 16:34:25.175655	83.3	17.6	-92.1	13.7
2025-01-05 16:34:26.330135	83.1	17.7	-91.7	9.0
2025-01-05 16:34:27.484361	82.9	17.8	-92.4	11.6
2025-01-05 16:34:28.634557	82.8	17.9	-92.5	11.1
2025-01-05 16:34:29.795779	82.6	18.0	-92.3	6.4
2025-01-05 16:34:30.958708	82.5	18.2	-92.6	3.4
2025-01-05 16:34:32.106357	82.3	18.3	-92.1	5.1
2025-01-05 16:34:33.266669	82.1	18.4	-92.4	5.6
2025-01-05 16:34:34.418789	82.0	18.5	-92.4	6.5
2025-01-05 16:34:35.573347	81.8	18.6	-92.2	10.4
2025-01-05 16:34:36.740337	81.7	18.7	-92.7	15.6
2025-01-05 16:34:37.909649	81.5	18.8	-93.0	11.7
2025-01-05 16:34:39.068990	81.3	18.9	-91.9	14.0
2025-01-05 16:34:40.223673	81.1	19.0	-92.3	7.1
2025-01-05 16:34:41.385520	81.0	19.2	-92.5	10.5
2025-01-05 16:34:42.540522	80.8	19.3	-93.0	6.0
2025-01-05 16:34:43.700375	80.6	19.4	-93.2	10.2
2025-01-05 16:34:44.851553	80.5	19.5	-93.0	18.6
2025-01-05 16:34:46.004059	80.3	19.6	-92.8	15.1
2025-01-05 16:34:47.162688	80.1	19.7	-92.3	12.7
2025-01-05 16:34:48.322190	79.9	19.8	-92.2	6.9
2025-01-05 16:34:49.467729	79.7	19.9	-92.9	6.7
2025-01-05 16:34:50.621037	79.6	20.0	-92.9	5.7
2025-01-05 16:34:51.771442	79.4	20.2	-93.0	10.8
2025-01-05 16:34:52.915607	79.2	20.3	-92.5	10.0
2025-01-05 16:34:54.036692	79.0	20.4	-92.8	5.6
2025-01-05 16:34:55.156969	78.8	20.5	-92.5	7.2
2025-01-05 16:34:56.277719	78.7	20.6	-92.0	13.9
2025-01-05 16:34:57.397414	78.5	20.7	-92.0	13.4
2025-01-05 16:34:58.519198	78.3	20.8	-92.0	7.0
2025-01-05 16:34:59.639502	78.1	20.9	-92.2	10.6
2025-01-05 16:35:00.761735	77.9	21.0	-92.9	5.9
2025-01-05 16:35:01.894491	77.7	21.2	-92.7	19.3
2025-01-05 16:35:03.046543	77.5	21.3	-92.3	11.5
2025-01-05 16:35:04.192733	77.3	21.4	-91.9	9.4
2025-01-05 16:35:05.344856	77.1	21.5	-92.2	7.4
2025-01-05 16:35:06.498940	76.9	21.6	-92.8	11.6
2025-01-05 16:35:07.657031	76.7	21.7	-92.7	16.9
2025-01-05 16:35:08.809300	76.5	21.8	-92.8	7.8
2025-01-05 16:35:09.962678	76.3	22.0	-92.2	7.1
2025-01-05 16:35:11.120413	76.1	22.1	-92.0	5.7
2025-01-05 16:35:12.268312	75.9	22.2	-91.9	5.2
2025-01-05 16:35:13.421884	75.7	22.3	-92.4	5.1
2025-01-05 16:35:14.578795	75.5	22.4	-92.8	7.3
2025-01-05 16:35:15.733964	75.3	22.5	-92.6	6.7
2025-01-05 16:35:16.891862	75.1	22.6	-92.4	7.5
2025-01-05 16:35:18.047805	74.8	22.8	-92.6	12.1
2025-01-05 16:35:19.203475	74.6	22.9	-92.5	8.5
2025-01-05 16:35:20.351299	74.4	23.0	-92.2	8.6
2025-01-05 16:35:21.505961	74.2	23.1	-92.7	5.9
2025-01-05 16:35:22.660243	74.0	23.2	-92.9	4.0
2025-01-05 16:35:23.818578	73.7	23.3	-92.6	7.0
2025-01-05 16:35:24.963056	73.5	23.5	-92.8	10.2
2025-01-05 16:35:26.118344	73.3	23.6	-92.4	16.1
2025-01-05 16:35:27.268287	73.1	23.7	-92.3	9.1
2025-01-05 16:35:28.430634	72.8	23.8	-92.3	8.3
2025-01-05 16:35:29.582646	72.6	23.9	-92.6	7.2
2025-01-05 16:35:30.738900	72.4	24.0	-92.8	4.7
2025-01-05 16:35:31.895749	72.1	24.2	-92.5	9.1
2025-01-05 16:35:33.051279	71.9	24.3	-92.9	4.6
2025-01-05 16:35:34.203062	71.6	24.4	-92.5	7.3
2025-01-05 16:35:35.351456	71.4	24.5	-92.6	5.6
2025-01-05 16:35:36.502627	71.2	24.6	-92.5	6.8
2025-01-05 16:35:37.659321	70.9	24.7	-92.8	3.5
2025-01-05 16:35:38.812462	70.7	24.8	-92.6	5.6
2025-01-05 16:35:39.972005	70.4	25.0	-92.4	11.2
2025-01-05 16:35:41.130397	70.2	25.1	-91.9	5.9
2025-01-05 16:35:42.283559	69.9	25.2	-92.2	4.6
2025-01-05 16:35:43.433526	69.7	25.3	-92.5	4.8
2025-01-05 16:35:44.590912	69.4	25.4	-93.1	7.5
2025-01-05 16:35:45.740508	69.1	25.5	-92.6	9.7
2025-01-05 16:35:46.891768	68.9	25.7	-92.9	6.8
2025-01-05 16:35:48.045615	68.6	25.8	-92.7	3.6
2025-01-05 16:35:49.202332	68.4	25.9	-92.7	3.3
2025-01-05 16:35:50.352051	68.1	26.0	-92.4	5.4
2025-01-05 16:35:51.503490	67.8	26.1	-93.3	4.7
2025-01-05 16:35:52.656534	67.6	26.2	-92.9	3.8
2025-01-05 16:35:53.807342	67.3	26.3	-93.1	7.9
2025-01-05 16:35:54.976592	67.0	26.4	-92.7	4.4
2025-01-05 16:35:56.126800	66.7	26.6	-92.6	4.4
2025-01-05 16:35:57.286878	66.5	26.7	-92.6	6.4
2025-01-05 16:35:58.444622	66.2	26.8	-92.7	2.5
2025-01-05 16:35:59.605915	65.9	26.9	-93.1	7.2
2025-01-05 16:36:00.751571	65.6	27.0	-93.1	5.6
2025-01-05 16:36:01.915003	65.3	27.1	-93.1	5.7
2025-01-05 16:36:03.067376	65.0	27.2	-92.7	4.6
2025-01-05 16:36:04.220787	64.7	27.3	-91.4	9.5
2025-01-05 16:36:05.379904	64.5	27.5	-91.0	3.9
2025-01-05 16:36:06.536844	64.2	27.6	-91.2	4.5
2025-01-05 16:36:07.694069	63.9	27.7	-91.2	4.9
2025-01-05 16:36:08.857826	63.6	27.8	-91.9	5.5
2025-01-05 16:36:10.009194	63.3	27.9	-91.4	5.5
2025-01-05 16:36:11.162361	63.0	28.0	-92.5	4.4
2025-01-05 16:36:12.318109	62.7	28.1	-92.3	6.2
2025-01-05 16:36:13.470151	62.4	28.2	-92.8	6.4
2025-01-05 16:36:14.626195	62.0	28.3	-93.2	8.4
2025-01-05 16:36:15.786252	61.7	28.4	-93.1	4.2
2025-01-05 16:36:16.943855	61.4	28.5	-93.3	4.6
2025-01-05 16:36:18.099585	61.1	28.6	-92.7	6.1
2025-01-05 16:36:19.257728	60.8	28.7	-92.5	8.0
2025-01-05 16:36:20.411537	60.5	28.8	-92.6	4.9
2025-01-05 16:36:21.565701	60.2	29.0	-92.5	5.1
2025-01-05 16:36:22.719772	59.8	29.1	-92.8	4.5
2025-01-05 16:36:23.866243	59.5	29.2	-92.7	6.8
2025-01-05 16:36:25.018406	59.2	29.3	-93.0	6.1
2025-01-05 16:36:26.176122	58.9	29.4	-91.8	8.2
2025-01-05 16:36:27.326216	58.5	29.5	-91.9	13.7
2025-01-05 16:36:28.490338	58.2	29.6	-92.4	14.6
2025-01-05 16:36:29.646518	57.9	29.7	-92.4	5.3
2025-01-05 16:36:30.800537	57.5	29.8	-92.1	9.1
2025-01-05 16:36:31.952071	57.2	29.8	-92.2	11.4
2025-01-05 16:36:33.107363	56.8	29.9	-91.8	7.0
2025-01-05 16:36:34.260088	56.5	30.0	-92.2	8.7
2025-01-05 16:36:35.416898	56.2	30.1	-92.0	8.7
2025-01-05 16:36:36.569764	55.8	30.2	-92.6	10.3
2025-01-05 16:36:37.735766	55.5	30.3	-92.4	14.1
2025-01-05 16:36:38.891111	55.1	30.4	-92.6	15.3
2025-01-05 16:36:40.044006	54.8	30.5	-92.4	11.9
2025-01-05 16:36:41.205022	54.4	30.6	-92.3	15.3
2025-01-05 16:36:42.358484	54.0	30.7	-92.0	12.4
2025-01-05 16:36:43.507194	53.7	30.8	-92.2	7.9
2025-01-05 16:36:44.666849	53.3	30.9	-92.3	7.4
2025-01-05 16:36:45.829085	53.0	30.9	-92.1	14.6
2025-01-05 16:36:46.991347	52.6	31.0	-92.0	14.0
2025-01-05 16:36:48.148089	52.2	31.1	-91.6	6.9
2025-01-05 16:36:49.304088	51.9	31.2	-91.9	15.2
2025-01-05 16:36:50.456929	51.5	31.3	-92.2	8.7
2025-01-05 16:36:51.608155	51.1	31.4	-92.5	5.0
2025-01-05 16:36:52.764531	50.7	31.4	-92.5	12.5
2025-01-05 16:36:53.923926	50.4	31.5	-92.6	9.6
2025-01-05 16:36:55.081758	50.0	31.6	-92.2	10.3
2025-01-05 16:36:56.239973	49.6	31.7	-92.0	14.1
2025-01-05 16:36:57.396777	49.2	31.7	-92.1	13.3
2025-01-05 16:36:58.551218	48.8	31.8	-92.6	11.0
2025-01-05 16:36:59.712120	48.4	31.9	-92.6	16.0
2025-01-05 16:37:00.858629	48.1	31.9	-92.7	11.5
2025-01-05 16:37:02.017414	47.7	32.0	-92.8	16.1
2025-01-05 16:37:03.172866	47.3	32.1	-92.4	8.6
2025-01-05 16:37:04.325056	46.9	32.1	-92.7	13.9
2025-01-05 16:37:05.481455	46.5	32.2	-93.1	11.6
2025-01-05 16:37:06.630107	46.1	32.3	-93.0	11.2
2025-01-05 16:37:07.784920	45.7	32.3	-92.7	14.0
2025-01-05 16:37:08.940779	45.3	32.4	-92.7	13.9
2025-01-05 16:37:10.086760	44.9	32.5	-92.4	7.9
2025-01-05 16:37:11.244494	44.5	32.5	-92.1	20.0
2025-01-05 16:37:12.403893	44.1	32.6	-92.7	17.2
2025-01-05 16:37:13.555938	43.7	32.6	-92.8	10.0
2025-01-05 16:37:14.701605	43.3	32.7	-93.2	11.0
2025-01-05 16:37:15.851299	42.9	32.7	-92.6	12.6
2025-01-05 16:37:17.007068	42.5	32.8	-92.7	20.2
2025-01-05 16:37:18.157981	42.1	32.8	-90.4	14.8
2025-01-05 16:37:19.313306	41.7	32.9	-92.7	19.8
2025-01-05 16:37:20.468868	41.3	32.9	-93.0	10.2
2025-01-05 16:37:21.612902	40.9	33.0	-92.8	14.4
2025-01-05 16:37:22.762106	40.5	33.0	-92.8	11.3
2025-01-05 16:37:23.917656	40.0	33.0	-93.2	15.8
2025-01-05 16:37:25.076647	39.6	33.1	-92.8	13.5
2025-01-05 16:37:26.236122	39.2	33.1	-92.5	19.6
2025-01-05 16:37:27.390421	38.8	33.2	-92.6	17.8
2025-01-05 16:37:28.543796	38.4	33.2	-93.0	10.7
2025-01-05 16:37:29.692612	38.0	33.2	-93.3	11.8
2025-01-05 16:37:30.849660	37.5	33.2	-92.8	18.1
2025-01-05 16:37:32.012755	37.1	33.3	-93.0	7.3
2025-01-05 16:37:33.167191	36.7	33.3	-92.5	14.3
2025-01-05 16:37:34.330915	36.3	33.3	-92.9	14.6
2025-01-05 16:37:35.495285	35.9	33.4	-93.2	7.3
2025-01-05 16:37:36.647677	35.4	33.4	-92.9	9.4
2025-01-05 16:37:37.800113	35.0	33.4	-93.2	12.1
2025-01-05 16:37:38.950606	34.6	33.4	-93.0	8.4
2025-01-05 16:37:40.104764	34.2	33.4	-92.8	6.9
2025-01-05 16:37:41.259068	33.7	33.4	-92.5	15.3
2025-01-05 16:37:42.412073	33.3	33.5	-92.6	7.8
2025-01-05 16:37:43.574981	32.9	33.5	-92.9	9.7
2025-01-05 16:37:44.728774	32.5	33.5	-92.4	19.0
2025-01-05 16:37:45.883409	32.0	33.5	-92.7	15.8
2025-01-05 16:37:47.045186	31.6	33.5	-92.9	15.2
2025-01-05 16:37:48.199042	31.2	33.5	-92.4	18.8
2025-01-05 16:37:49.361842	30.8	33.5	-92.0	8.4
2025-01-05 16:37:50.515973	30.3	33.5	-92.8	12.0
2025-01-05 16:37:51.672029	29.9	33.5	-92.4	18.6
2025-01-05 16:37:52.823561	29.5	33.5	-92.0	12.3
2025-01-05 16:37:53.976840	29.1	33.5	-92.7	5.7
2025-01-05 16:37:55.130171	28.6	33.5	-92.6	13.8
2025-01-05 16:37:56.288357	28.2	33.5	-91.2	14.9
2025-01-05 16:37:57.445566	27.8	33.4	-92.3	11.4
2025-01-05 16:37:58.604324	27.4	33.4	-92.9	9.6
2025-01-05 16:37:59.751327	26.9	33.4	-92.3	12.8
2025-01-05 16:38:00.897310	26.5	33.4	-92.9	6.4
2025-01-05 16:38:02.055436	26.1	33.4	-92.5	9.1
2025-01-05 16:38:03.217075	25.7	33.4	-92.3	12.7
2025-01-05 16:38:04.374323	25.2	33.3	-92.2	14.6
2025-01-05 16:38:05.530311	24.8	33.3	-92.7	8.5
2025-01-05 16:38:06.693140	24.4	33.3	-92.8	9.2
2025-01-05 16:38:07.848688	24.0	33.3	-92.8	9.8
2025-01-05 16:38:09.001689	23.6	33.2	-92.9	9.3
2025-01-05 16:38:10.151380	23.1	33.2	-92.4	9.0
2025-01-05 16:38:11.298027	22.7	33.2	-92.4	8.0
2025-01-05 16:38:12.456879	22.3	33.1	-92.4	4.4
2025-01-05 16:38:13.614281	21.9	33.1	-92.8	6.3
2025-01-05 16:38:14.761122	21.5	33.1	-92.8	15.0
2025-01-05 16:38:15.915376	21.1	33.0	-92.9	10.3
2025-01-05 16:38:17.075297	20.6	33.0	-92.6	8.3
2025-01-05 16:38:18.231130	20.2	33.0	-92.5	8.8
2025-01-05 16:38:19.382914	19.8	32.9	-92.0	11.8
2025-01-05 16:38:20.545227	19.4	32.9	-92.3	7.6
2025-01-05 16:38:21.694675	19.0	32.8	-92.8	5.8
2025-01-05 16:38:22.852423	18.6	32.8	-92.5	13.1
2025-01-05 16:38:24.013738	18.2	32.7	-92.5	6.0
2025-01-05 16:38:25.168069	17.8	32.7	-92.1	5.9
2025-01-05 16:38:26.317949	17.4	32.6	-92.1	10.2
2025-01-05 16:38:27.487596	17.0	32.6	-92.7	8.4
2025-01-05 16:38:28.643067	16.6	32.5	-92.6	9.3
2025-01-05 16:38:29.805392	16.2	32.4	-92.6	9.2
2025-01-05 16:38:30.959397	15.8	32.4	-92.6	8.1
2025-01-05 16:38:32.107494	15.4	32.3	-92.4	8.7
2025-01-05 16:38:33.266508	15.0	32.3	-92.2	10.1
2025-01-05 16:38:34.424851	14.6	32.2	-92.3	13.4
2025-01-05 16:38:35.583399	14.2	32.1	-92.9	11.7
2025-01-05 16:38:36.732213	13.8	32.1	-92.5	16.6
2025-01-05 16:38:37.893794	13.4	32.0	-92.6	16.8
2025-01-05 16:38:39.046169	13.0	31.9	-92.8	6.2
2025-01-05 16:38:40.188146	12.6	31.9	-92.8	11.1
2025-01-05 16:38:41.337723	12.3	31.8	-92.2	12.7
2025-01-05 16:38:42.494331	11.9	31.7	-92.4	7.3
2025-01-05 16:38:43.650824	11.5	31.6	-92.1	6.2
2025-01-05 16:38:44.804473	11.1	31.6	-91.6	12.5
2025-01-05 16:38:45.958669	10.7	31.5	-91.7	7.4
2025-01-05 16:38:47.118052	10.4	31.4	-91.1	9.3
2025-01-05 16:38:48.272441	10.0	31.3	-91.2	9.9
2025-01-05 16:38:49.425275	9.6	31.2	-90.4	9.2
2025-01-05 16:38:50.576839	9.2	31.2	-90.9	7.9
2025-01-05 16:38:51.737726	8.9	31.1	-91.3	12.3
2025-01-05 16:38:52.895749	8.5	31.0	-92.9	14.5
2025-01-05 16:38:54.051551	8.1	30.9	-92.4	7.8
2025-01-05 16:38:55.197798	7.8	30.8	-90.8	13.8
2025-01-05 16:38:56.362175	7.4	30.7	-92.1	8.6
2025-01-05 16:38:57.518488	7.1	30.7	-90.4	7.9
2025-01-05 16:38:58.669267	6.7	30.6	-91.3	6.8
2025-01-05 16:38:59.827919	6.4	30.5	-89.0	8.3
2025-01-05 16:39:00.978387	6.0	30.4	-92.6	8.3
2025-01-05 16:39:02.136815	5.7	30.3	-92.6	5.0
2025-01-05 16:39:03.289370	5.3	30.2	-92.5	8.8
2025-01-05 16:39:04.438930	5.0	30.1	-92.4	6.1
2025-01-05 16:39:05.595259	4.6	30.0	-92.2	7.5
2025-01-05 16:39:06.743724	4.3	29.9	-92.4	9.7
2025-01-05 16:39:07.902389	3.9	29.8	-92.7	4.1
2025-01-05 16:39:09.051275	3.6	29.7	-92.4	5.2
2025-01-05 16:39:10.193194	3.3	29.6	-92.2	6.0
2025-01-05 16:39:11.343696	2.9	29.5	-92.0	7.2
2025-01-05 16:39:12.498751	2.6	29.4	-92.4	7.4
2025-01-05 16:39:13.661412	2.3	29.3	-92.4	6.4
2025-01-05 16:39:14.812542	1.9	29.2	-92.4	10.7
2025-01-05 16:39:15.976339	1.6	29.1	-92.5	10.1
2025-01-05 16:39:17.142139	1.3	29.0	-92.1	8.6
2025-01-05 16:39:18.298894	1.0	28.9	-92.0	8.9
2025-01-05 16:39:19.453234	0.6	28.8	-92.4	2.6
2025-01-05 16:39:20.617520	0.3	28.7	-92.1	5.6
2025-01-05 16:39:21.779435	0.0	28.6	-91.9	8.1
2025-01-05 16:39:22.941579	359.7	28.5	-92.2	11.5
2025-01-05 16:39:24.104584	359.4	28.4	-91.6	10.0
2025-01-05 16:39:25.261655	359.1	28.3	-91.4	6.0
2025-01-05 16:39:26.420029	358.8	28.2	-90.8	5.5
2025-01-05 16:39:27.578740	358.4	28.1	-90.9	7.7
2025-01-05 16:39:28.728266	358.1	28.0	-91.2	4.4
2025-01-05 16:39:29.884158	357.8	27.9	-91.8	8.0
2025-01-05 16:39:31.034513	357.5	27.7	-91.2	11.3
2025-01-05 16:39:32.186478	357.2	27.6	-90.4	9.0
2025-01-05 16:39:33.334510	357.0	27.5	-91.4	6.6
2025-01-05 16:39:34.490148	356.7	27.4	-92.3	7.7
2025-01-05 16:39:35.646224	356.4	27.3	-92.6	5.4
2025-01-05 16:39:36.805951	356.1	27.2	-92.7	7.7
2025-01-05 16:39:37.957245	355.8	27.1	-93.2	9.5
2025-01-05 16:39:39.106259	355.5	27.0	-92.5	8.4
2025-01-05 16:39:40.265502	355.2	26.9	-92.6	14.9
2025-01-05 16:39:41.414862	354.9	26.7	-92.6	11.7
2025-01-05 16:39:42.572048	354.7	26.6	-92.9	5.8
2025-01-05 16:39:43.725007	354.4	26.5	-92.6	11.5
2025-01-05 16:39:44.869925	354.1	26.4	-92.6	12.5
2025-01-05 16:39:46.018223	353.8	26.3	-92.4	8.8
2025-01-05 16:39:47.174190	353.6	26.2	-92.4	3.9
2025-01-05 16:39:48.328013	353.3	26.1	-92.1	19.5
2025-01-05 16:39:49.484602	353.0	26.0	-92.4	7.5
2025-01-05 16:39:50.638841	352.8	25.8	-92.7	11.8
2025-01-05 16:39:51.795369	352.5	25.7	-92.6	10.3
2025-01-05 16:39:52.952409	352.2	25.6	-92.9	9.3
2025-01-05 16:39:54.109221	352.0	25.5	-92.6	10.0
2025-01-05 16:39:55.265397	351.7	25.4	-92.2	12.8
2025-01-05 16:39:56.418935	351.5	25.3	-92.5	10.6
2025-01-05 16:39:57.576177	351.2	25.2	-92.7	14.4
2025-01-05 16:39:58.731187	351.0	25.0	-92.3	14.5
2025-01-05 16:39:59.888349	350.7	24.9	-92.9	13.8
2025-01-05 16:40:01.026765	350.5	24.8	-92.8	16.7
2025-01-05 16:40:02.182590	350.2	24.7	-92.4	10.7
2025-01-05 16:40:03.330851	350.0	24.6	-92.4	10.3
2025-01-05 16:40:04.488697	349.7	24.5	-92.6	10.6
2025-01-05 16:40:05.641215	349.5	24.3	-92.5	13.0
2025-01-05 16:40:06.797061	349.3	24.2	-92.9	14.0
2025-01-05 16:40:07.955655	349.0	24.1	-92.8	6.7
2025-01-05 16:40:09.107650	348.8	24.0	-92.6	9.4
2025-01-05 16:40:10.261963	348.5	23.9	-92.4	10.9
2025-01-05 16:40:11.413435	348.3	23.8	-92.8	9.4
2025-01-05 16:40:12.570107	348.1	23.6	-92.9	6.8
2025-01-05 16:40:13.727823	347.9	23.5	-92.6	12.9
2025-01-05 16:40:14.881728	347.6	23.4	-92.6	9.9
2025-01-05 16:40:16.042748	347.4	23.3	-92.7	6.3
2025-01-05 16:40:17.198197	347.2	23.2	-92.3	10.9
2025-01-05 16:40:18.357697	346.9	23.1	-92.4	10.0
2025-01-05 16:40:19.508988	346.7	22.9	-92.8	6.3
2025-01-05 16:40:20.662838	346.5	22.8	-92.7	8.1
2025-01-05 16:40:21.820815	346.3	22.7	-92.9	14.6
2025-01-05 16:40:22.978566	346.1	22.6	-93.0	13.6
2025-01-05 16:40:24.132716	345.9	22.5	-92.3	14.4
2025-01-05 16:40:25.287845	345.6	22.4	-92.6	12.5
2025-01-05 16:40:26.450139	345.4	22.3	-92.9	11.8
2025-01-05 16:40:27.609774	345.2	22.1	-92.8	8.6
2025-01-05 16:40:28.761476	345.0	22.0	-92.9	11.0
2025-01-05 16:40:29.906122	344.8	21.9	-92.7	13.8
2025-01-05 16:40:31.058317	344.6	21.8	-92.2	12.8
2025-01-05 16:40:32.205573	344.4	21.7	-92.4	13.0
2025-01-05 16:40:33.363580	344.2	21.6	-92.2	6.0
2025-01-05 16:40:34.519431	344.0	21.4	-92.8	3.7
2025-01-05 16:40:35.670140	343.8	21.3	-92.8	5.0
2025-01-05 16:40:36.826368	343.6	21.2	-92.9	6.0
2025-01-05 16:40:37.985441	343.4	21.1	-92.6	8.3
2025-01-05 16:40:39.143666	343.2	21.0	-92.0	8.7
2025-01-05 16:40:40.304724	343.0	20.9	-92.4	12.9
2025-01-05 16:40:41.453876	342.8	20.8	-92.8	5.1
2025-01-05 16:40:42.605784	342.6	20.6	-93.1	7.7
2025-01-05 16:40:43.757977	342.5	20.5	-91.7	11.0
2025-01-05 16:40:44.914116	342.3	20.4	-91.7	6.5
2025-01-05 16:40:46.069406	342.1	20.3	-90.9	6.3
2025-01-05 16:40:47.220939	341.9	20.2	-91.5	2.0
2025-01-05 16:40:48.378237	341.7	20.1	-91.4	3.9
2025-01-05 16:40:49.530846	341.5	20.0	-91.2	10.9
2025-01-05 16:40:50.686388	341.4	19.9	-92.1	6.9
2025-01-05 16:40:51.845637	341.2	19.7	-91.5	5.6
2025-01-05 16:40:52.994304	341.0	19.6	-93.1	6.8
2025-01-05 16:40:54.149953	340.8	19.5	-92.8	6.7
2025-01-05 16:40:55.311832	340.6	19.4	-92.5	5.9
2025-01-05 16:40:56.469294	340.5	19.3	-93.3	5.4
2025-01-05 16:40:57.631706	340.3	19.2	-93.4	5.8
2025-01-05 16:40:58.788035	340.1	19.1	-93.3	9.7
2025-01-05 16:40:59.943066	340.0	19.0	-93.0	4.2
2025-01-05 16:41:01.085786	339.8	18.8	-92.9	3.6
2025-01-05 16:41:02.235802	339.6	18.7	-92.8	5.4
2025-01-05 16:41:03.387595	339.5	18.6	-93.1	7.9
2025-01-05 16:41:04.548309	339.3	18.5	-93.4	6.9
2025-01-05 16:41:05.706451	339.1	18.4	-93.3	5.7
2025-01-05 16:41:06.868891	339.0	18.3	-93.4	10.0
2025-01-05 16:41:08.020080	338.8	18.2	-93.2	10.6
2025-01-05 16:41:09.181501	338.6	18.1	-92.9	7.5
2025-01-05 16:41:10.338519	338.5	18.0	-92.8	9.9
2025-01-05 16:41:11.495955	338.3	17.9	-92.2	7.9
2025-01-05 16:41:12.650984	338.2	17.8	-92.5	5.4
2025-01-05 16:41:13.813920	338.0	17.6	-92.6	7.5
2025-01-05 16:41:14.972472	337.8	17.5	-92.7	3.7
2025-01-05 16:41:16.130837	337.7	17.4	-92.2	4.3
2025-01-05 16:41:17.290128	337.5	17.3	-92.1	3.0
2025-01-05 16:41:18.451856	337.4	17.2	-92.3	5.3
2025-01-05 16:41:19.604519	337.2	17.1	-92.7	4.7
2025-01-05 16:41:20.759762	337.1	17.0	-92.6	3.2
2025-01-05 16:41:21.912532	336.9	16.9	-92.6	7.8
2025-01-05 16:41:23.075200	336.8	16.8	-92.3	3.5
2025-01-05 16:41:24.229612	336.6	16.7	-92.4	5.7
2025-01-05 16:41:25.379271	336.5	16.6	-92.2	3.7
2025-01-05 16:41:26.531083	336.4	16.5	-92.7	4.6
2025-01-05 16:41:27.683487	336.2	16.4	-92.5	3.4
2025-01-05 16:41:28.841801	336.1	16.3	-92.6	7.2
2025-01-05 16:41:29.993439	335.9	16.2	-92.8	3.4
2025-01-05 16:41:31.137326	335.8	16.1	-92.3	2.6
2025-01-05 16:41:32.285573	335.7	15.9	-91.9	4.2
2025-01-05 16:41:33.443142	335.5	15.8	-92.5	3.1
2025-01-05 16:41:34.604161	335.4	15.7	-93.0	5.0
2025-01-05 16:41:35.758280	335.2	15.6	-92.3	3.5
2025-01-05 16:41:36.911573	335.1	15.5	-93.0	5.1
2025-01-05 16:41:38.066989	335.0	15.4	-92.5	3.3
2025-01-05 16:41:39.219772	334.8	15.3	-92.4	4.3
2025-01-05 16:41:40.376837	334.7	15.2	-92.2	4.2
2025-01-05 16:41:41.528073	334.6	15.1	-92.8	6.7
2025-01-05 16:41:42.687212	334.4	15.0	-92.8	4.7
2025-01-05 16:41:43.846565	334.3	14.9	-92.9	8.6
2025-01-05 16:41:44.998779	334.2	14.8	-92.4	8.2
2025-01-05 16:41:46.150229	334.1	14.7	-92.1	5.9
2025-01-05 16:41:47.298463	333.9	14.6	-92.1	7.3
#Closed at: 2025-01-05 16:34:01.245601