passes_logs/2025/01/05/LEX_Murmansk/LEX_Murmansk__20250105_092648_NOAA_19_rec.log

#Pass ID: 20250105_092648_NOAA 19
#Satellite: NOAA 19
#Configuration: NOAA 19
#Start time: 2025-01-05 09:26:43.656932

#LorettStation: 1.0.0 05.05.2024
#Station: LEX_Murmansk
#Location: 33.156738 lon 68.926811 lat
#TLE: 1 33591U 09005A   25004.88002234  .00000560  00000+0  32285-3 0  9996
#TLE: 2 33591  99.0214  68.5635 0014675  84.4442 275.8403 14.13251363820110

#Time	Az	El	Level	SNR
2025-01-05 09:26:55.831360	24.5	16.3	-92.6	3.4
2025-01-05 09:26:58.165319	24.4	16.6	-92.4	4.3
2025-01-05 09:27:00.481634	24.4	16.8	-92.5	1.7
2025-01-05 09:27:02.807993	24.3	17.1	-92.6	3.1
2025-01-05 09:27:05.133278	24.2	17.4	-92.3	2.9
2025-01-05 09:27:07.457611	24.1	17.6	-92.5	4.0
2025-01-05 09:27:09.786730	24.0	17.9	-92.3	1.9
2025-01-05 09:27:12.114934	24.0	18.2	-92.3	3.9
2025-01-05 09:27:14.442646	23.9	18.5	-92.3	4.4
2025-01-05 09:27:16.770962	23.8	18.7	-92.6	1.1
2025-01-05 09:27:19.104604	23.7	19.0	-92.4	1.9
2025-01-05 09:27:21.449744	23.6	19.3	-92.6	3.9
2025-01-05 09:27:23.782819	23.5	19.6	-92.8	5.6
2025-01-05 09:27:26.115418	23.4	19.9	-92.5	6.3
2025-01-05 09:27:28.442570	23.3	20.2	-92.3	10.4
2025-01-05 09:27:30.765580	23.2	20.5	-92.8	7.4
2025-01-05 09:27:33.089104	23.1	20.8	-92.6	1.3
2025-01-05 09:27:35.409997	23.0	21.1	-92.3	3.8
2025-01-05 09:27:37.738789	22.9	21.4	-92.7	9.1
2025-01-05 09:27:40.069773	22.8	21.7	-92.3	9.6
2025-01-05 09:27:42.399442	22.7	22.0	-92.4	6.6
2025-01-05 09:27:44.724878	22.6	22.4	-92.7	10.2
2025-01-05 09:27:47.057882	22.5	22.7	-92.7	8.8
2025-01-05 09:27:49.391349	22.4	23.0	-92.7	4.0
2025-01-05 09:27:51.723771	22.3	23.4	-93.0	4.4
2025-01-05 09:27:54.051422	22.2	23.7	-92.6	9.8
2025-01-05 09:27:56.383318	22.0	24.1	-92.2	9.7
2025-01-05 09:27:58.716576	21.9	24.4	-92.7	8.3
2025-01-05 09:28:01.031633	21.8	24.8	-92.6	13.2
2025-01-05 09:28:03.356908	21.7	25.1	-92.8	8.8
2025-01-05 09:28:05.687373	21.5	25.5	-92.9	2.0
2025-01-05 09:28:08.015983	21.4	25.8	-92.6	5.4
2025-01-05 09:28:10.345848	21.2	26.2	-92.8	10.1
2025-01-05 09:28:12.686987	21.1	26.6	-92.6	8.6
2025-01-05 09:28:15.009367	20.9	27.0	-92.7	11.3
2025-01-05 09:28:17.337436	20.8	27.4	-92.7	10.4
2025-01-05 09:28:19.677404	20.6	27.8	-92.6	6.7
2025-01-05 09:28:22.003407	20.5	28.2	-92.9	3.3
2025-01-05 09:28:24.332407	20.3	28.6	-92.2	1.5
2025-01-05 09:28:26.667838	20.1	29.0	-92.8	4.5
2025-01-05 09:28:28.994394	20.0	29.4	-92.7	5.4
2025-01-05 09:28:31.326557	19.8	29.8	-92.7	3.9
2025-01-05 09:28:33.652705	19.6	30.2	-92.9	6.5
2025-01-05 09:28:35.976659	19.4	30.7	-91.8	8.6
2025-01-05 09:28:38.302524	19.2	31.1	-92.5	3.0
2025-01-05 09:28:40.633636	19.0	31.5	-92.0	2.1
2025-01-05 09:28:42.968101	18.8	32.0	-92.7	7.5
2025-01-05 09:28:45.286012	18.6	32.5	-92.6	11.5
2025-01-05 09:28:47.634325	18.4	32.9	-92.7	8.1
2025-01-05 09:28:49.963931	18.1	33.4	-92.1	7.7
2025-01-05 09:28:52.256180	17.9	33.9	-91.6	13.0
2025-01-05 09:28:54.576545	17.7	34.3	-92.3	10.7
2025-01-05 09:28:56.899072	17.4	34.8	-92.6	4.3
2025-01-05 09:28:59.234960	17.2	35.3	-92.5	2.3
2025-01-05 09:29:01.558727	16.9	35.8	-92.6	10.8
2025-01-05 09:29:03.891169	16.6	36.4	-92.5	13.3
2025-01-05 09:29:06.217022	16.4	36.9	-92.8	9.8
2025-01-05 09:29:08.550761	16.1	37.4	-93.0	11.8
2025-01-05 09:29:10.877599	15.8	37.9	-92.6	17.2
2025-01-05 09:29:13.211391	15.5	38.5	-92.6	13.1
2025-01-05 09:29:15.545350	15.1	39.0	-92.9	4.7
2025-01-05 09:29:17.874460	14.8	39.6	-92.5	5.6
2025-01-05 09:29:20.195092	14.5	40.2	-92.2	8.3
2025-01-05 09:29:22.521786	14.1	40.7	-92.9	19.4
2025-01-05 09:29:24.850735	13.7	41.3	-92.8	15.1
2025-01-05 09:29:27.187080	13.3	41.9	-92.4	9.1
2025-01-05 09:29:29.514340	12.9	42.5	-92.9	18.2
2025-01-05 09:29:31.844445	12.5	43.1	-92.9	18.0
2025-01-05 09:29:34.170612	12.1	43.7	-92.5	10.7
2025-01-05 09:29:36.497311	11.6	44.4	-92.6	6.1
2025-01-05 09:29:38.821569	11.2	45.0	-92.7	5.6
2025-01-05 09:29:41.151872	10.7	45.6	-92.5	15.7
2025-01-05 09:29:43.473008	10.2	46.3	-92.9	17.6
2025-01-05 09:29:45.796424	9.7	46.9	-93.0	8.7
2025-01-05 09:29:48.125467	9.1	47.6	-92.3	11.3
2025-01-05 09:29:50.451847	8.5	48.3	-92.8	12.3
2025-01-05 09:29:52.787290	7.9	48.9	-93.1	14.7
2025-01-05 09:29:55.114491	7.3	49.6	-92.7	10.1
2025-01-05 09:29:57.455107	6.6	50.3	-92.9	3.7
2025-01-05 09:29:59.783067	5.9	51.0	-93.0	3.1
2025-01-05 09:30:02.104812	5.2	51.7	-92.7	9.3
2025-01-05 09:30:04.419429	4.5	52.4	-92.8	15.4
2025-01-05 09:30:06.737490	3.7	53.1	-92.7	11.8
2025-01-05 09:30:09.063739	2.8	53.8	-92.7	9.3
2025-01-05 09:30:11.391191	2.0	54.6	-92.6	5.4
2025-01-05 09:30:13.720483	1.0	55.3	-92.7	8.0
2025-01-05 09:30:16.060806	0.0	56.0	-92.2	18.0
2025-01-05 09:30:18.392176	359.0	56.7	-92.1	4.4
2025-01-05 09:30:20.726312	357.9	57.5	-93.2	3.3
2025-01-05 09:30:23.054181	356.8	58.2	-92.5	4.7
2025-01-05 09:30:25.380848	355.6	58.9	-92.0	5.7
2025-01-05 09:30:27.693464	354.3	59.6	-92.1	6.1
2025-01-05 09:30:30.024455	353.0	60.3	-92.8	9.6
2025-01-05 09:30:32.356816	351.5	61.0	-92.4	12.1
2025-01-05 09:30:34.684290	350.0	61.7	-92.7	15.6
2025-01-05 09:30:37.009251	348.4	62.4	-92.9	13.9
2025-01-05 09:30:39.336121	346.8	63.1	-91.7	7.9
2025-01-05 09:30:41.662063	345.0	63.7	-92.3	10.0
2025-01-05 09:30:43.983958	343.1	64.4	-92.4	8.0
2025-01-05 09:30:46.317876	341.1	65.0	-92.3	17.2
2025-01-05 09:30:48.645239	339.0	65.6	-93.0	21.5
2025-01-05 09:30:50.967162	336.8	66.1	-92.8	16.2
2025-01-05 09:30:53.294183	334.5	66.7	-92.6	10.9
2025-01-05 09:30:55.621545	332.0	67.2	-93.2	9.3
2025-01-05 09:30:57.956375	329.5	67.6	-92.7	6.4
2025-01-05 09:31:00.275282	326.8	68.0	-92.5	0.8
2025-01-05 09:31:02.594880	324.0	68.4	-92.8	2.6
2025-01-05 09:31:04.921494	321.1	68.7	-93.1	2.7
2025-01-05 09:31:07.241554	318.2	69.0	-92.4	4.2
2025-01-05 09:31:09.571290	315.1	69.2	-93.0	6.4
2025-01-05 09:31:11.903135	312.0	69.4	-92.8	2.6
2025-01-05 09:31:14.212821	308.9	69.5	-92.5	13.1
2025-01-05 09:31:16.554324	305.7	69.6	-92.6	16.7
2025-01-05 09:31:18.887775	302.5	69.6	-92.9	16.7
2025-01-05 09:31:21.214259	299.3	69.5	-92.6	10.0
2025-01-05 09:31:23.543490	296.1	69.4	-92.6	10.9
2025-01-05 09:31:25.876405	293.0	69.2	-92.9	12.2
2025-01-05 09:31:28.208400	290.0	69.0	-91.8	6.9
2025-01-05 09:31:30.538387	287.0	68.7	-92.7	11.4
2025-01-05 09:31:32.869788	284.2	68.3	-91.9	5.1
2025-01-05 09:31:35.203351	281.4	68.0	-92.4	8.9
2025-01-05 09:31:37.532139	278.7	67.5	-92.7	12.9
2025-01-05 09:31:39.867990	276.2	67.1	-92.7	10.6
2025-01-05 09:31:42.194064	273.8	66.5	-92.5	10.0
2025-01-05 09:31:44.525007	271.5	66.0	-92.5	12.3
2025-01-05 09:31:46.849043	269.3	65.4	-93.1	5.7
2025-01-05 09:31:49.176226	267.2	64.8	-92.6	3.9
2025-01-05 09:31:51.510660	265.2	64.2	-92.9	9.0
2025-01-05 09:31:53.841965	263.4	63.6	-92.7	6.2
2025-01-05 09:31:56.170617	261.6	62.9	-92.8	5.3
2025-01-05 09:31:58.501797	259.9	62.2	-92.7	9.8
2025-01-05 09:32:00.818356	258.4	61.6	-92.7	7.8
2025-01-05 09:32:03.144256	256.9	60.9	-92.5	9.1
2025-01-05 09:32:05.468712	255.5	60.2	-92.7	11.7
2025-01-05 09:32:07.797285	254.1	59.4	-92.9	5.6
2025-01-05 09:32:10.124747	252.9	58.7	-93.0	9.2
2025-01-05 09:32:12.453291	251.7	58.0	-93.1	7.0
2025-01-05 09:32:14.777019	250.6	57.3	-93.0	5.4
2025-01-05 09:32:17.106203	249.5	56.6	-92.7	5.7
2025-01-05 09:32:19.435727	248.5	55.8	-93.2	8.2
2025-01-05 09:32:21.767335	247.5	55.1	-92.9	13.9
2025-01-05 09:32:24.096566	246.6	54.4	-92.5	9.3
2025-01-05 09:32:26.420464	245.7	53.7	-92.7	9.5
2025-01-05 09:32:28.746309	244.9	53.0	-93.4	10.0
2025-01-05 09:32:31.075031	244.1	52.2	-92.8	3.1
2025-01-05 09:32:33.401589	243.3	51.5	-92.9	2.4
2025-01-05 09:32:35.724923	242.6	50.8	-93.2	1.6
2025-01-05 09:32:38.053373	241.9	50.1	-92.8	4.8
2025-01-05 09:32:40.362325	241.3	49.5	-92.5	4.9
2025-01-05 09:32:42.697046	240.7	48.8	-93.4	9.6
2025-01-05 09:32:45.020848	240.1	48.1	-93.1	9.6
2025-01-05 09:32:47.336598	239.5	47.4	-91.7	13.6
2025-01-05 09:32:49.631679	239.0	46.8	-92.1	18.2
2025-01-05 09:32:51.892515	238.5	46.2	-92.3	19.4
2025-01-05 09:32:54.132666	238.0	45.5	-92.7	14.1
2025-01-05 09:32:56.373639	237.5	44.9	-93.0	13.3
2025-01-05 09:32:58.655074	237.0	44.3	-93.2	14.0
2025-01-05 09:33:00.957634	236.6	43.7	-92.9	7.2
2025-01-05 09:33:03.288870	236.2	43.1	-92.6	21.4
2025-01-05 09:33:05.610484	235.8	42.5	-92.9	8.4
2025-01-05 09:33:07.936486	235.4	41.9	-93.0	11.7
2025-01-05 09:33:10.265786	235.0	41.3	-92.7	20.0
2025-01-05 09:33:12.594235	234.6	40.7	-92.9	18.4
2025-01-05 09:33:14.917290	234.2	40.1	-92.9	15.9
2025-01-05 09:33:17.243414	233.9	39.5	-92.7	19.1
2025-01-05 09:33:19.580082	233.6	39.0	-92.7	9.7
2025-01-05 09:33:21.906663	233.2	38.4	-93.1	10.6
2025-01-05 09:33:24.231141	232.9	37.9	-91.1	15.2
2025-01-05 09:33:26.561029	232.6	37.3	-91.7	11.8
2025-01-05 09:33:28.909309	232.3	36.8	-92.2	15.4
2025-01-05 09:33:31.233623	232.1	36.3	-92.7	13.0
2025-01-05 09:33:33.567462	231.8	35.8	-92.9	14.1
2025-01-05 09:33:35.900643	231.5	35.3	-93.0	12.2
2025-01-05 09:33:38.219718	231.3	34.8	-92.8	18.1
2025-01-05 09:33:40.556943	231.0	34.3	-92.8	9.0
2025-01-05 09:33:42.885880	230.8	33.8	-92.4	11.8
2025-01-05 09:33:45.208605	230.6	33.3	-92.7	17.9
2025-01-05 09:33:47.537086	230.3	32.8	-93.0	15.2
2025-01-05 09:33:49.860790	230.1	32.4	-93.1	15.9
2025-01-05 09:33:52.187445	229.9	31.9	-92.0	14.9
2025-01-05 09:33:54.516844	229.7	31.5	-92.3	9.8
2025-01-05 09:33:56.837131	229.5	31.0	-92.1	13.9
2025-01-05 09:33:59.165115	229.3	30.6	-92.8	12.9
2025-01-05 09:34:01.478672	229.1	30.2	-93.0	10.5
2025-01-05 09:34:03.809616	228.9	29.7	-93.0	10.2
2025-01-05 09:34:06.127625	228.7	29.3	-92.8	10.0
2025-01-05 09:34:08.461492	228.6	28.9	-92.8	6.8
2025-01-05 09:34:10.790906	228.4	28.5	-93.0	3.8
2025-01-05 09:34:13.119032	228.2	28.1	-93.1	4.2
2025-01-05 09:34:15.446411	228.1	27.7	-93.1	4.1
2025-01-05 09:34:17.772102	227.9	27.3	-93.3	8.8
2025-01-05 09:34:20.096590	227.8	26.9	-92.8	1.9
2025-01-05 09:34:22.414783	227.6	26.5	-92.9	2.7
2025-01-05 09:34:24.755418	227.5	26.2	-93.0	2.6
2025-01-05 09:34:27.089410	227.3	25.8	-93.0	3.4
2025-01-05 09:34:29.417202	227.2	25.4	-93.2	2.5
2025-01-05 09:34:31.744539	227.0	25.0	-93.4	5.1
2025-01-05 09:34:34.068992	226.9	24.7	-92.9	9.2
2025-01-05 09:34:36.393713	226.8	24.3	-93.1	8.1
2025-01-05 09:34:38.721870	226.7	24.0	-92.8	7.6
2025-01-05 09:34:41.053157	226.5	23.6	-92.9	3.7
2025-01-05 09:34:43.375742	226.4	23.3	-93.0	7.5
2025-01-05 09:34:45.699242	226.3	23.0	-93.2	11.6
2025-01-05 09:34:48.032986	226.2	22.6	-91.9	10.5
2025-01-05 09:34:50.360700	226.1	22.3	-92.1	9.5
2025-01-05 09:34:52.702179	226.0	22.0	-92.3	11.5
2025-01-05 09:34:55.025241	225.8	21.7	-93.0	9.1
2025-01-05 09:34:57.344370	225.7	21.4	-92.5	10.4
2025-01-05 09:34:59.676198	225.6	21.0	-93.1	13.5
2025-01-05 09:35:01.989239	225.5	20.7	-92.4	11.5
2025-01-05 09:35:04.318354	225.4	20.4	-93.0	13.1
2025-01-05 09:35:06.646743	225.3	20.1	-92.8	10.4
2025-01-05 09:35:08.976289	225.3	19.8	-92.8	2.3
2025-01-05 09:35:11.309306	225.2	19.5	-93.1	8.9
2025-01-05 09:35:13.641913	225.1	19.2	-93.2	8.7
2025-01-05 09:35:15.966142	225.0	19.0	-92.4	9.2
2025-01-05 09:35:18.290036	224.9	18.7	-92.3	9.1
2025-01-05 09:35:20.623733	224.8	18.4	-93.1	7.5
2025-01-05 09:35:22.949913	224.7	18.1	-93.0	6.0
2025-01-05 09:35:25.274995	224.6	17.8	-93.0	10.6
2025-01-05 09:35:27.604461	224.6	17.6	-93.3	6.0
2025-01-05 09:35:29.938445	224.5	17.3	-93.5	9.2
2025-01-05 09:35:32.268589	224.4	17.0	-93.1	6.8
2025-01-05 09:35:34.604650	224.3	16.8	-93.2	6.5
2025-01-05 09:35:36.929331	224.3	16.5	-92.8	3.2
2025-01-05 09:35:39.257442	224.2	16.2	-92.9	5.3
2025-01-05 09:35:41.585876	224.1	16.0	-93.3	6.0
2025-01-05 09:35:43.921132	224.0	15.7	-93.0	6.8
2025-01-05 09:35:46.236042	224.0	15.5	-92.0	7.0
2025-01-05 09:35:48.561834	223.9	15.2	-92.6	4.2
2025-01-05 09:35:50.888681	223.8	15.0	-93.3	6.2
2025-01-05 09:35:53.211872	223.8	14.8	-92.6	5.6
2025-01-05 09:35:55.538109	223.7	14.5	-93.1	3.0
#Closed at: 2025-01-05 09:26:48.617119