passes_logs/2025/01/05/LEX_Murmansk/LEX_Murmansk__20250105_160603_NOAA_19_rec.log

#Pass ID: 20250105_160603_NOAA 19
#Satellite: NOAA 19
#Configuration: NOAA 19
#Start time: 2025-01-05 16:05:58.066698

#LorettStation: 1.0.0 05.05.2024
#Station: LEX_Murmansk
#Location: 33.156738 lon 68.926811 lat
#TLE: 1 33591U 09005A   25004.88002234  .00000560  00000+0  32285-3 0  9996
#TLE: 2 33591  99.0214  68.5635 0014675  84.4442 275.8403 14.13251363820110

#Time	Az	El	Level	SNR
2025-01-05 16:06:10.774553	104.6	16.3	-91.2	5.1
2025-01-05 16:06:11.926345	104.5	16.4	-91.5	1.6
2025-01-05 16:06:13.076441	104.4	16.5	-91.2	2.3
2025-01-05 16:06:14.225788	104.3	16.6	-90.7	0.4
2025-01-05 16:06:15.372553	104.1	16.7	-91.1	1.0
2025-01-05 16:06:16.520705	104.0	16.8	-91.9	5.0
2025-01-05 16:06:17.665284	103.9	17.0	-91.1	6.0
2025-01-05 16:06:18.816662	103.8	17.1	-91.7	4.1
2025-01-05 16:06:19.970641	103.7	17.2	-91.5	11.5
2025-01-05 16:06:21.117266	103.6	17.3	-91.5	7.0
2025-01-05 16:06:22.266917	103.5	17.4	-91.6	1.8
2025-01-05 16:06:23.417205	103.4	17.6	-92.0	6.6
2025-01-05 16:06:24.573025	103.2	17.7	-92.1	2.9
2025-01-05 16:06:25.721786	103.1	17.8	-92.1	7.0
2025-01-05 16:06:26.869791	103.0	17.9	-92.3	3.1
2025-01-05 16:06:28.016872	102.9	18.1	-92.2	1.8
2025-01-05 16:06:29.167644	102.8	18.2	-92.1	1.6
2025-01-05 16:06:30.323553	102.6	18.3	-91.7	1.7
2025-01-05 16:06:31.466447	102.5	18.4	-91.8	2.7
2025-01-05 16:06:32.614837	102.4	18.6	-92.2	3.1
2025-01-05 16:06:33.768185	102.3	18.7	-91.8	3.8
2025-01-05 16:06:34.917438	102.1	18.8	-92.3	3.5
2025-01-05 16:06:36.071166	102.0	18.9	-92.0	9.7
2025-01-05 16:06:37.215810	101.9	19.1	-92.0	5.4
2025-01-05 16:06:38.363402	101.8	19.2	-92.5	1.6
2025-01-05 16:06:39.510747	101.6	19.3	-92.2	7.3
2025-01-05 16:06:40.657465	101.5	19.4	-92.2	11.3
2025-01-05 16:06:41.802025	101.4	19.6	-92.2	11.9
2025-01-05 16:06:42.950146	101.2	19.7	-92.1	4.6
2025-01-05 16:06:44.099518	101.1	19.8	-91.8	2.8
2025-01-05 16:06:45.247427	101.0	20.0	-91.9	1.8
2025-01-05 16:06:46.402227	100.8	20.1	-92.2	3.2
2025-01-05 16:06:47.549401	100.7	20.2	-92.5	1.5
2025-01-05 16:06:48.698617	100.5	20.4	-92.0	3.0
2025-01-05 16:06:49.842675	100.4	20.5	-92.3	1.9
2025-01-05 16:06:50.988262	100.3	20.6	-92.4	5.0
2025-01-05 16:06:52.133264	100.1	20.7	-92.0	3.7
2025-01-05 16:06:53.280030	100.0	20.9	-92.1	7.8
2025-01-05 16:06:54.430192	99.8	21.0	-92.5	6.2
2025-01-05 16:06:55.578438	99.7	21.2	-92.0	9.1
2025-01-05 16:06:56.725618	99.5	21.3	-92.1	0.4
2025-01-05 16:06:57.870613	99.4	21.4	-92.1	5.4
2025-01-05 16:06:59.020354	99.2	21.6	-92.3	6.4
2025-01-05 16:07:00.169165	99.1	21.7	-91.9	10.2
2025-01-05 16:07:01.320045	98.9	21.8	-92.2	9.2
2025-01-05 16:07:02.462995	98.8	22.0	-92.2	7.2
2025-01-05 16:07:03.608386	98.6	22.1	-92.1	3.6
2025-01-05 16:07:04.756059	98.5	22.2	-92.3	0.7
2025-01-05 16:07:05.896972	98.3	22.4	-92.1	3.1
2025-01-05 16:07:07.045180	98.1	22.5	-91.8	3.8
2025-01-05 16:07:08.199414	98.0	22.7	-92.0	5.1
2025-01-05 16:07:09.368761	97.8	22.8	-91.8	4.2
2025-01-05 16:07:10.512967	97.7	22.9	-92.3	6.5
2025-01-05 16:07:11.663061	97.5	23.1	-92.3	6.8
2025-01-05 16:07:12.812587	97.3	23.2	-92.2	0.9
2025-01-05 16:07:13.963547	97.1	23.4	-92.3	3.5
2025-01-05 16:07:15.116264	97.0	23.5	-92.2	0.8
2025-01-05 16:07:16.269282	96.8	23.7	-92.1	1.3
2025-01-05 16:07:17.415318	96.6	23.8	-92.3	3.0
2025-01-05 16:07:18.563248	96.4	24.0	-91.8	1.1
2025-01-05 16:07:19.712308	96.3	24.1	-92.0	2.1
2025-01-05 16:07:20.858902	96.1	24.2	-92.3	3.0
2025-01-05 16:07:22.000078	95.9	24.4	-92.1	1.4
2025-01-05 16:07:23.150351	95.7	24.5	-92.2	1.7
2025-01-05 16:07:24.296375	95.5	24.7	-92.3	1.6
2025-01-05 16:07:25.445255	95.4	24.8	-92.5	2.5
2025-01-05 16:07:26.589917	95.2	25.0	-92.9	3.3
2025-01-05 16:07:27.737827	95.0	25.1	-92.8	9.2
2025-01-05 16:07:28.887027	94.8	25.3	-92.4	6.6
2025-01-05 16:07:30.036812	94.6	25.4	-92.5	7.4
2025-01-05 16:07:31.186652	94.4	25.6	-92.2	1.2
2025-01-05 16:07:32.340870	94.2	25.7	-92.1	6.9
2025-01-05 16:07:33.492564	94.0	25.9	-92.6	6.4
2025-01-05 16:07:34.644055	93.8	26.0	-92.3	2.6
2025-01-05 16:07:35.790202	93.6	26.2	-92.4	4.6
2025-01-05 16:07:36.941659	93.4	26.3	-92.2	4.4
2025-01-05 16:07:38.086711	93.2	26.5	-92.0	7.2
2025-01-05 16:07:39.234254	93.0	26.6	-92.1	2.1
2025-01-05 16:07:40.380203	92.8	26.8	-91.9	6.3
2025-01-05 16:07:41.528839	92.5	27.0	-92.4	2.7
2025-01-05 16:07:42.672046	92.3	27.1	-92.3	2.3
2025-01-05 16:07:43.816463	92.1	27.3	-92.4	2.8
2025-01-05 16:07:44.965367	91.9	27.4	-92.2	2.5
2025-01-05 16:07:46.110309	91.7	27.6	-92.0	5.2
2025-01-05 16:07:47.255009	91.4	27.7	-92.2	5.2
2025-01-05 16:07:48.395807	91.2	27.9	-91.8	4.3
2025-01-05 16:07:49.545249	91.0	28.0	-92.1	9.1
2025-01-05 16:07:50.692530	90.8	28.2	-92.4	4.0
2025-01-05 16:07:51.841099	90.5	28.4	-92.3	5.0
2025-01-05 16:07:52.984701	90.3	28.5	-92.3	6.4
2025-01-05 16:07:54.139734	90.1	28.7	-92.2	10.1
2025-01-05 16:07:55.283965	89.8	28.8	-92.2	4.6
2025-01-05 16:07:56.434893	89.6	29.0	-92.4	10.3
2025-01-05 16:07:57.587052	89.3	29.2	-92.2	17.6
2025-01-05 16:07:58.753333	89.1	29.3	-92.2	15.9
2025-01-05 16:07:59.904526	88.8	29.5	-92.2	9.6
2025-01-05 16:08:01.043286	88.6	29.6	-92.3	5.3
2025-01-05 16:08:02.194002	88.3	29.8	-91.5	4.3
2025-01-05 16:08:03.341025	88.1	30.0	-92.1	2.7
2025-01-05 16:08:04.490069	87.8	30.1	-92.6	4.1
2025-01-05 16:08:05.646386	87.5	30.3	-92.5	6.1
2025-01-05 16:08:06.804099	87.3	30.4	-92.4	9.7
2025-01-05 16:08:07.952595	87.0	30.6	-92.1	11.9
2025-01-05 16:08:09.103797	86.7	30.8	-92.1	13.0
2025-01-05 16:08:10.253603	86.4	30.9	-91.9	12.7
2025-01-05 16:08:11.402671	86.2	31.1	-92.3	19.2
2025-01-05 16:08:12.554486	85.9	31.3	-92.0	8.8
2025-01-05 16:08:13.698018	85.6	31.4	-92.2	10.9
2025-01-05 16:08:14.849685	85.3	31.6	-92.4	2.9
2025-01-05 16:08:15.996003	85.0	31.7	-92.1	9.4
2025-01-05 16:08:17.149382	84.7	31.9	-92.0	5.6
2025-01-05 16:08:18.297542	84.4	32.1	-92.0	15.1
2025-01-05 16:08:19.440879	84.1	32.2	-92.2	17.3
2025-01-05 16:08:20.588115	83.8	32.4	-92.9	8.2
2025-01-05 16:08:21.737651	83.5	32.6	-92.1	8.0
2025-01-05 16:08:22.886941	83.2	32.7	-91.6	7.2
2025-01-05 16:08:24.032252	82.9	32.9	-91.4	6.5
2025-01-05 16:08:25.184289	82.6	33.0	-91.2	2.5
2025-01-05 16:08:26.332954	82.3	33.2	-91.2	2.4
2025-01-05 16:08:27.475139	82.0	33.4	-92.0	3.7
2025-01-05 16:08:28.624457	81.7	33.5	-91.2	10.9
2025-01-05 16:08:29.770962	81.3	33.7	-91.6	13.2
2025-01-05 16:08:30.922591	81.0	33.9	-92.1	10.5
2025-01-05 16:08:32.075810	80.7	34.0	-91.4	19.5
2025-01-05 16:08:33.227758	80.3	34.2	-91.1	18.9
2025-01-05 16:08:34.376035	80.0	34.3	-91.0	12.7
2025-01-05 16:08:35.519898	79.7	34.5	-91.6	9.8
2025-01-05 16:08:36.668983	79.3	34.7	-91.4	8.1
2025-01-05 16:08:37.818501	79.0	34.8	-91.3	5.2
2025-01-05 16:08:38.972426	78.6	35.0	-91.2	9.2
2025-01-05 16:08:40.123088	78.2	35.1	-91.2	10.3
2025-01-05 16:08:41.266328	77.9	35.3	-91.6	12.9
2025-01-05 16:08:42.396491	77.5	35.5	-91.9	17.6
2025-01-05 16:08:43.529393	77.2	35.6	-91.6	16.2
2025-01-05 16:08:44.649491	76.8	35.8	-92.2	17.1
2025-01-05 16:08:45.774944	76.4	35.9	-92.2	13.6
2025-01-05 16:08:46.896180	76.1	36.1	-92.4	8.9
2025-01-05 16:08:48.016448	75.7	36.2	-92.2	5.9
2025-01-05 16:08:49.140441	75.3	36.4	-92.0	3.0
2025-01-05 16:08:50.262254	74.9	36.5	-91.9	3.2
2025-01-05 16:08:51.382565	74.6	36.7	-91.9	4.1
2025-01-05 16:08:52.502445	74.2	36.8	-92.4	4.8
2025-01-05 16:08:53.641421	73.8	37.0	-92.2	9.4
2025-01-05 16:08:57.746616	72.3	37.5	-92.4	14.9
2025-01-05 16:08:59.028104	71.9	37.7	-92.1	11.2
2025-01-05 16:09:00.151088	71.5	37.8	-92.1	14.3
2025-01-05 16:09:01.287556	71.0	37.9	-92.4	10.7
2025-01-05 16:09:02.429563	70.6	38.1	-92.4	11.3
2025-01-05 16:09:03.569178	70.2	38.2	-92.6	9.6
2025-01-05 16:09:04.717378	69.8	38.4	-91.1	7.1
2025-01-05 16:09:05.844334	69.3	38.5	-91.6	5.6
2025-01-05 16:09:06.983499	68.9	38.6	-91.2	12.8
2025-01-05 16:09:08.108863	68.4	38.8	-91.3	14.1
2025-01-05 16:09:09.246771	68.0	38.9	-91.1	13.0
2025-01-05 16:09:10.399680	67.5	39.0	-91.5	18.0
2025-01-05 16:09:11.550783	67.1	39.2	-91.3	10.7
2025-01-05 16:09:12.696599	66.6	39.3	-91.7	18.4
2025-01-05 16:09:13.841697	66.2	39.4	-91.5	12.7
2025-01-05 16:09:14.988338	65.7	39.6	-91.6	7.8
2025-01-05 16:09:16.127862	65.2	39.7	-91.1	6.1
2025-01-05 16:09:17.275698	64.8	39.8	-91.5	5.8
2025-01-05 16:09:18.420201	64.3	39.9	-91.6	2.7
2025-01-05 16:09:19.559791	63.8	40.0	-91.7	3.4
2025-01-05 16:09:20.709355	63.3	40.2	-92.0	2.5
2025-01-05 16:09:21.853324	62.8	40.3	-92.2	4.7
2025-01-05 16:09:22.994202	62.3	40.4	-92.3	9.5
2025-01-05 16:09:24.133811	61.8	40.5	-92.2	10.3
2025-01-05 16:09:25.258391	61.4	40.6	-92.0	9.3
2025-01-05 16:09:26.384197	60.9	40.7	-92.0	12.9
2025-01-05 16:09:27.522378	60.4	40.8	-92.2	12.2
2025-01-05 16:09:28.655643	59.9	40.9	-92.5	16.3
2025-01-05 16:09:29.788486	59.4	41.0	-92.1	11.9
2025-01-05 16:09:30.919375	58.8	41.1	-92.1	8.8
2025-01-05 16:09:32.550707	58.1	41.2	-92.8	15.3
2025-01-05 16:09:33.679893	57.6	41.3	-92.3	15.4
2025-01-05 16:09:34.820228	57.1	41.4	-92.3	13.8
2025-01-05 16:09:35.948882	56.6	41.5	-92.5	11.9
2025-01-05 16:09:37.089748	56.0	41.6	-92.0	9.8
2025-01-05 16:09:38.224452	55.5	41.7	-92.3	8.4
2025-01-05 16:09:39.355791	55.0	41.8	-92.3	8.1
2025-01-05 16:09:40.496850	54.4	41.8	-92.0	12.7
2025-01-05 16:09:41.638417	53.9	41.9	-92.5	12.4
2025-01-05 16:09:42.783984	53.4	42.0	-92.1	7.9
2025-01-05 16:09:43.931760	52.8	42.0	-92.5	6.7
2025-01-05 16:09:45.077510	52.3	42.1	-92.4	13.6
2025-01-05 16:09:46.213058	51.7	42.2	-91.9	14.8
2025-01-05 16:09:47.348467	51.2	42.2	-92.5	18.2
2025-01-05 16:09:48.487616	50.6	42.3	-92.4	18.5
2025-01-05 16:09:49.623445	50.1	42.3	-92.9	19.8
2025-01-05 16:09:50.763859	49.5	42.4	-92.6	23.2
2025-01-05 16:09:51.914839	48.9	42.4	-91.2	19.4
2025-01-05 16:09:53.060490	48.4	42.5	-92.2	16.4
2025-01-05 16:09:54.193031	47.8	42.5	-92.1	18.8
2025-01-05 16:09:55.333638	47.3	42.6	-91.8	13.5
2025-01-05 16:09:56.487393	46.7	42.6	-91.3	9.9
2025-01-05 16:09:57.628168	46.1	42.6	-91.7	10.3
2025-01-05 16:09:58.774758	45.6	42.7	-91.6	7.4
2025-01-05 16:09:59.909206	45.0	42.7	-91.7	10.4
2025-01-05 16:10:01.044006	44.4	42.7	-91.5	8.8
2025-01-05 16:10:02.183475	43.9	42.7	-91.1	5.3
2025-01-05 16:10:03.316914	43.3	42.8	-91.9	3.0
2025-01-05 16:10:04.469810	42.7	42.8	-92.2	5.4
2025-01-05 16:10:05.602657	42.2	42.8	-91.9	9.6
2025-01-05 16:10:06.726792	41.6	42.8	-91.5	4.0
2025-01-05 16:10:07.914956	41.0	42.8	-91.5	6.1
2025-01-05 16:10:09.183805	40.4	42.8	-92.5	6.9
2025-01-05 16:10:10.323634	39.8	42.8	-92.3	5.9
2025-01-05 16:10:11.460796	39.2	42.8	-92.8	7.6
2025-01-05 16:10:12.602752	38.7	42.8	-92.7	9.7
2025-01-05 16:10:13.742166	38.1	42.8	-92.4	7.7
2025-01-05 16:10:14.879477	37.5	42.7	-92.6	10.6
2025-01-05 16:10:16.004090	37.0	42.7	-92.4	12.1
2025-01-05 16:10:17.949165	36.0	42.7	-92.7	12.1
2025-01-05 16:10:19.972976	35.0	42.6	-92.9	13.5
2025-01-05 16:10:21.102421	34.4	42.6	-92.2	16.1
2025-01-05 16:10:22.252327	33.9	42.6	-92.5	14.8
2025-01-05 16:10:23.394066	33.3	42.5	-92.0	16.7
2025-01-05 16:10:24.547363	32.8	42.5	-92.4	18.3
2025-01-05 16:10:25.703474	32.2	42.4	-92.4	17.5
2025-01-05 16:10:26.859781	31.6	42.4	-92.8	18.1
2025-01-05 16:10:28.001733	31.1	42.3	-93.1	16.6
2025-01-05 16:10:29.147968	30.5	42.3	-92.2	17.4
2025-01-05 16:10:30.298100	30.0	42.2	-92.4	16.8
2025-01-05 16:10:31.451002	29.4	42.2	-92.5	17.5
2025-01-05 16:10:32.603201	28.8	42.1	-92.7	18.6
2025-01-05 16:10:33.751460	28.3	42.0	-92.4	18.8
2025-01-05 16:10:34.906032	27.7	42.0	-92.6	19.3
2025-01-05 16:10:36.053337	27.2	41.9	-92.3	18.7
2025-01-05 16:10:37.202184	26.7	41.8	-92.4	19.3
2025-01-05 16:10:38.350371	26.1	41.7	-92.2	18.9
2025-01-05 16:10:39.510660	25.6	41.7	-93.0	19.2
2025-01-05 16:10:40.665701	25.0	41.6	-92.3	18.2
2025-01-05 16:10:41.815912	24.5	41.5	-92.7	18.1
2025-01-05 16:10:42.965054	24.0	41.4	-92.8	18.1
2025-01-05 16:10:44.108860	23.5	41.3	-92.0	18.3
2025-01-05 16:10:45.260460	22.9	41.2	-92.5	16.9
2025-01-05 16:10:46.415191	22.4	41.1	-92.4	15.8
2025-01-05 16:10:47.570442	21.9	41.0	-92.9	15.7
2025-01-05 16:10:48.727607	21.4	40.9	-92.7	16.2
2025-01-05 16:10:49.887381	20.9	40.8	-92.6	18.8
2025-01-05 16:10:51.029138	20.4	40.7	-92.5	17.4
2025-01-05 16:10:52.174617	19.9	40.6	-92.5	17.3
2025-01-05 16:10:53.314390	19.4	40.5	-92.3	15.8
2025-01-05 16:10:54.438015	18.9	40.4	-92.4	16.0
2025-01-05 16:10:55.558023	18.4	40.3	-93.0	19.1
2025-01-05 16:10:56.678680	17.9	40.2	-93.1	18.9
2025-01-05 16:10:57.799126	17.5	40.1	-92.7	16.1
2025-01-05 16:10:58.920526	17.0	40.0	-92.9	17.0
2025-01-05 16:11:00.041138	16.5	39.8	-92.7	15.9
2025-01-05 16:11:01.164230	16.0	39.7	-92.6	15.3
2025-01-05 16:11:02.288841	15.6	39.6	-92.5	17.2
2025-01-05 16:11:03.430394	15.1	39.5	-92.6	15.2
2025-01-05 16:11:04.574846	14.7	39.3	-92.1	9.7
2025-01-05 16:11:05.728368	14.2	39.2	-92.7	6.5
2025-01-05 16:11:06.877566	13.7	39.1	-93.0	13.8
2025-01-05 16:11:08.028722	13.3	38.9	-92.6	16.0
2025-01-05 16:11:09.174856	12.8	38.8	-92.4	15.3
2025-01-05 16:11:10.323578	12.4	38.7	-92.8	15.4
2025-01-05 16:11:11.475215	11.9	38.5	-92.9	16.3
2025-01-05 16:11:12.625591	11.5	38.4	-92.8	16.2
2025-01-05 16:11:13.771693	11.1	38.3	-92.2	11.3
2025-01-05 16:11:14.924221	10.6	38.1	-92.7	12.8
2025-01-05 16:11:16.069660	10.2	38.0	-92.9	15.9
2025-01-05 16:11:17.220231	9.8	37.8	-92.3	10.1
2025-01-05 16:11:18.370601	9.4	37.7	-92.5	12.6
2025-01-05 16:11:19.524620	8.9	37.5	-92.8	14.4
2025-01-05 16:11:20.668002	8.5	37.4	-92.3	10.1
2025-01-05 16:11:21.813937	8.1	37.3	-91.9	9.0
2025-01-05 16:11:22.970161	7.7	37.1	-92.6	10.8
2025-01-05 16:11:24.120182	7.3	37.0	-92.3	12.9
2025-01-05 16:11:25.273952	6.9	36.8	-92.5	5.4
2025-01-05 16:11:26.421136	6.5	36.6	-93.0	7.3
2025-01-05 16:11:27.582995	6.1	36.5	-92.8	7.9
2025-01-05 16:11:28.739088	5.7	36.3	-92.2	3.9
2025-01-05 16:11:29.888134	5.4	36.2	-92.4	6.3
2025-01-05 16:11:31.044562	5.0	36.0	-92.5	7.5
2025-01-05 16:11:32.187145	4.6	35.9	-92.2	5.1
2025-01-05 16:11:33.340968	4.2	35.7	-91.9	4.4
2025-01-05 16:11:34.493358	3.9	35.6	-92.0	7.8
2025-01-05 16:11:35.636639	3.5	35.4	-92.8	6.7
2025-01-05 16:11:36.786840	3.1	35.2	-92.5	5.7
2025-01-05 16:11:37.937003	2.8	35.1	-93.0	6.6
2025-01-05 16:11:39.085513	2.4	34.9	-92.2	6.7
2025-01-05 16:11:40.241997	2.1	34.8	-92.3	4.7
2025-01-05 16:11:41.393435	1.7	34.6	-92.2	9.0
2025-01-05 16:11:42.552509	1.4	34.4	-92.6	8.5
2025-01-05 16:11:43.706031	1.0	34.3	-92.6	6.7
2025-01-05 16:11:44.861337	0.7	34.1	-92.6	5.8
2025-01-05 16:11:46.011580	0.4	34.0	-92.3	9.0
2025-01-05 16:11:47.158619	0.0	33.8	-92.2	9.1
2025-01-05 16:11:48.306350	359.7	33.6	-91.9	8.9
2025-01-05 16:11:49.453906	359.4	33.5	-92.0	9.9
2025-01-05 16:11:50.608680	359.1	33.3	-91.7	11.8
2025-01-05 16:11:51.757668	358.7	33.2	-92.5	12.5
2025-01-05 16:11:52.909802	358.4	33.0	-92.5	9.9
2025-01-05 16:11:54.059478	358.1	32.8	-92.1	10.6
2025-01-05 16:11:55.213459	357.8	32.7	-92.1	4.7
2025-01-05 16:11:56.357302	357.5	32.5	-91.7	3.5
2025-01-05 16:11:57.504677	357.2	32.3	-92.3	5.5
2025-01-05 16:11:58.651636	356.9	32.2	-92.7	5.5
2025-01-05 16:11:59.806444	356.6	32.0	-92.6	4.2
2025-01-05 16:12:00.949264	356.3	31.9	-92.7	5.0
2025-01-05 16:12:02.101168	356.0	31.7	-92.8	5.1
2025-01-05 16:12:03.257059	355.7	31.5	-92.5	1.3
2025-01-05 16:12:04.410906	355.5	31.4	-92.2	3.3
2025-01-05 16:12:05.556068	355.2	31.2	-92.6	2.6
2025-01-05 16:12:06.704101	354.9	31.0	-92.8	5.5
2025-01-05 16:12:07.855988	354.6	30.9	-92.6	3.0
2025-01-05 16:12:09.007760	354.3	30.7	-92.9	5.0
2025-01-05 16:12:10.165229	354.1	30.6	-92.6	4.5
2025-01-05 16:12:11.315007	353.8	30.4	-92.3	5.3
2025-01-05 16:12:12.472792	353.5	30.2	-92.4	8.5
2025-01-05 16:12:13.623729	353.3	30.1	-92.6	13.0
2025-01-05 16:12:14.773525	353.0	29.9	-93.0	8.3
2025-01-05 16:12:15.922749	352.8	29.7	-92.2	6.9
2025-01-05 16:12:17.070432	352.5	29.6	-91.7	2.8
2025-01-05 16:12:18.220544	352.3	29.4	-91.8	4.1
2025-01-05 16:12:19.373559	352.0	29.3	-91.9	3.4
2025-01-05 16:12:20.526912	351.8	29.1	-92.0	6.5
2025-01-05 16:12:21.785105	351.5	28.9	-91.9	1.2
2025-01-05 16:12:22.932631	351.2	28.8	-91.9	3.1
2025-01-05 16:12:24.083016	351.0	28.6	-91.7	4.6
2025-01-05 16:12:25.229554	350.8	28.5	-91.2	2.2
2025-01-05 16:12:26.388298	350.5	28.3	-91.1	2.3
2025-01-05 16:12:27.546174	350.3	28.1	-92.4	3.6
2025-01-05 16:12:28.702276	350.1	28.0	-92.7	3.0
2025-01-05 16:12:29.851840	349.8	27.8	-92.8	3.2
2025-01-05 16:12:30.991472	349.6	27.7	-92.7	2.4
2025-01-05 16:12:32.111673	349.4	27.5	-92.2	2.2
2025-01-05 16:12:33.256132	349.2	27.4	-92.1	3.3
2025-01-05 16:12:34.408223	349.0	27.2	-92.6	8.4
2025-01-05 16:12:35.556554	348.8	27.1	-92.5	5.4
2025-01-05 16:12:36.700416	348.5	26.9	-92.5	6.4
2025-01-05 16:12:37.854740	348.3	26.7	-92.9	3.6
2025-01-05 16:12:38.998285	348.1	26.6	-92.7	3.3
2025-01-05 16:12:40.152253	347.9	26.4	-92.4	6.7
2025-01-05 16:12:41.303611	347.7	26.3	-92.4	7.2
2025-01-05 16:12:42.449470	347.5	26.1	-92.7	5.7
2025-01-05 16:12:43.597309	347.3	26.0	-92.8	3.1
2025-01-05 16:12:44.738398	347.1	25.8	-92.4	4.2
2025-01-05 16:12:45.900115	346.9	25.7	-92.4	2.4
2025-01-05 16:12:47.046291	346.7	25.5	-92.5	2.3
2025-01-05 16:12:48.198086	346.5	25.4	-92.8	2.1
2025-01-05 16:12:49.353560	346.3	25.2	-92.6	2.0
2025-01-05 16:12:50.504437	346.1	25.1	-93.2	1.0
2025-01-05 16:12:51.653449	345.9	24.9	-92.8	4.3
2025-01-05 16:12:52.793821	345.7	24.8	-92.7	5.5
2025-01-05 16:12:53.943868	345.6	24.6	-93.0	6.9
2025-01-05 16:12:55.090799	345.4	24.5	-92.3	5.3
2025-01-05 16:12:56.240028	345.2	24.3	-92.6	5.1
2025-01-05 16:12:57.390826	345.0	24.2	-92.7	9.6
2025-01-05 16:12:58.537419	344.8	24.1	-92.3	5.8
2025-01-05 16:12:59.689295	344.7	23.9	-92.7	2.7
2025-01-05 16:13:00.837583	344.5	23.8	-93.1	1.9
2025-01-05 16:13:01.989173	344.3	23.6	-92.1	4.1
2025-01-05 16:13:03.146660	344.1	23.5	-91.5	2.7
2025-01-05 16:13:04.295723	344.0	23.3	-91.6	1.0
2025-01-05 16:13:05.444885	343.8	23.2	-91.8	1.7
2025-01-05 16:13:06.592314	343.6	23.0	-92.2	7.0
2025-01-05 16:13:07.750271	343.5	22.9	-92.0	3.5
2025-01-05 16:13:08.893668	343.3	22.8	-91.7	3.1
2025-01-05 16:13:10.042867	343.1	22.6	-91.4	1.9
2025-01-05 16:13:11.189510	343.0	22.5	-91.5	6.2
2025-01-05 16:13:12.336865	342.8	22.3	-91.8	4.7
2025-01-05 16:13:13.489236	342.7	22.2	-91.3	9.9
2025-01-05 16:13:14.641156	342.5	22.1	-91.6	9.8
2025-01-05 16:13:15.792286	342.3	21.9	-91.8	0.9
2025-01-05 16:13:16.935269	342.2	21.8	-91.7	7.3
2025-01-05 16:13:18.088209	342.0	21.7	-92.2	5.6
2025-01-05 16:13:19.232545	341.9	21.5	-92.5	3.4
2025-01-05 16:13:20.382110	341.7	21.4	-92.4	4.8
2025-01-05 16:13:21.530255	341.6	21.2	-92.6	4.6
2025-01-05 16:13:22.684636	341.4	21.1	-92.5	2.5
2025-01-05 16:13:23.833897	341.3	21.0	-92.7	0.8
2025-01-05 16:13:24.978178	341.2	20.8	-92.8	3.4
2025-01-05 16:13:26.132542	341.0	20.7	-92.2	2.3
2025-01-05 16:13:27.281679	340.9	20.6	-92.4	1.8
2025-01-05 16:13:28.439051	340.7	20.4	-92.1	3.0
2025-01-05 16:13:29.584389	340.6	20.3	-92.8	3.0
2025-01-05 16:13:30.730973	340.4	20.2	-92.6	6.7
2025-01-05 16:13:31.879286	340.3	20.1	-92.3	1.6
2025-01-05 16:13:33.028127	340.2	19.9	-93.0	5.3
2025-01-05 16:13:34.179106	340.0	19.8	-92.7	1.4
2025-01-05 16:13:35.329504	339.9	19.7	-92.6	6.2
2025-01-05 16:13:36.477969	339.8	19.5	-92.6	3.5
2025-01-05 16:13:37.629418	339.6	19.4	-92.8	1.6
2025-01-05 16:13:38.778197	339.5	19.3	-93.2	0.8
2025-01-05 16:13:39.934628	339.4	19.2	-93.0	3.2
2025-01-05 16:13:41.078764	339.3	19.0	-92.5	2.0
2025-01-05 16:13:42.229545	339.1	18.9	-92.7	2.6
2025-01-05 16:13:43.379776	339.0	18.8	-92.6	1.2
2025-01-05 16:13:44.528680	338.9	18.6	-92.7	2.5
2025-01-05 16:13:45.681875	338.8	18.5	-92.9	1.9
2025-01-05 16:13:46.825241	338.6	18.4	-93.0	2.4
2025-01-05 16:13:47.978937	338.5	18.3	-92.7	4.0
2025-01-05 16:13:49.132601	338.4	18.1	-92.4	0.7
2025-01-05 16:13:50.281625	338.3	18.0	-92.3	3.0
2025-01-05 16:13:51.434650	338.1	17.9	-92.4	0.7
2025-01-05 16:13:52.580430	338.0	17.8	-92.5	3.2
2025-01-05 16:13:53.725254	337.9	17.7	-92.6	1.9
2025-01-05 16:13:54.872420	337.8	17.5	-92.7	1.9
2025-01-05 16:13:56.021808	337.7	17.4	-92.4	0.9
2025-01-05 16:13:57.166966	337.6	17.3	-92.5	3.8
2025-01-05 16:13:58.421610	337.4	17.2	-92.4	1.2
2025-01-05 16:13:59.566146	337.3	17.1	-93.1	3.5
2025-01-05 16:14:00.707800	337.2	16.9	-92.8	0.7
2025-01-05 16:14:01.854200	337.1	16.8	-92.8	1.6
2025-01-05 16:14:03.104342	337.0	16.7	-92.5	0.9
2025-01-05 16:14:04.253000	336.9	16.6	-92.8	3.4
2025-01-05 16:14:05.404260	336.8	16.5	-93.0	1.3
2025-01-05 16:14:06.552045	336.7	16.3	-93.0	0.7
2025-01-05 16:14:07.707405	336.6	16.2	-92.7	1.1
2025-01-05 16:14:08.863986	336.5	16.1	-92.9	1.6
2025-01-05 16:14:10.014980	336.4	16.0	-92.5	2.8
2025-01-05 16:14:11.170887	336.3	15.9	-92.7	1.1
2025-01-05 16:14:12.429471	336.1	15.7	-92.7	2.0
2025-01-05 16:14:13.575567	336.0	15.6	-92.4	3.7
2025-01-05 16:14:14.721162	335.9	15.5	-92.9	2.7
2025-01-05 16:14:15.986768	335.8	15.4	-92.9	2.2
2025-01-05 16:14:17.137811	335.7	15.3	-92.6	1.1
2025-01-05 16:14:18.279388	335.6	15.2	-92.5	1.8
2025-01-05 16:14:19.436561	335.5	15.1	-92.9	1.0
2025-01-05 16:14:20.588989	335.4	14.9	-92.8	3.5
2025-01-05 16:14:21.736409	335.3	14.8	-92.6	1.0
2025-01-05 16:14:22.880301	335.3	14.7	-92.7	3.0
2025-01-05 16:14:24.027789	335.2	14.6	-92.8	2.8
2025-01-05 16:14:25.181503	335.1	14.5	-92.3	3.0
2025-01-05 16:14:26.321974	335.0	14.4	-92.7	2.4
#Closed at: 2025-01-05 16:06:03.043148