passes_logs/2025/01/05/LEX_Murmansk/LEX_Murmansk__20250105_081333_NOAA_18_rec.log

#Pass ID: 20250105_081333_NOAA 18
#Satellite: NOAA 18
#Configuration: NOAA 18
#Start time: 2025-01-05 08:13:28.453828

#LorettStation: 1.0.0 05.05.2024
#Station: LEX_Murmansk
#Location: 33.156738 lon 68.926811 lat
#TLE: 1 28654U 05018A   25004.89869685  .00000615  00000+0  35035-3 0  9999
#TLE: 2 28654  98.8582  86.0526 0013879 207.8923 152.1507 14.13477357 11671

#Time	Az	El	Level	SNR
2025-01-05 08:13:40.595395	36.1	16.0	-91.4	3.7
2025-01-05 08:13:41.760624	36.2	16.1	-92.1	4.3
2025-01-05 08:13:42.923180	36.4	16.2	-92.6	4.2
2025-01-05 08:13:44.077244	36.5	16.3	-92.1	7.2
2025-01-05 08:13:45.235608	36.7	16.4	-91.5	5.1
2025-01-05 08:13:46.392417	36.8	16.5	-92.4	7.1
2025-01-05 08:13:47.547694	37.0	16.6	-92.3	4.9
2025-01-05 08:13:48.710408	37.2	16.7	-92.3	4.7
2025-01-05 08:13:49.868465	37.3	16.8	-92.1	6.7
2025-01-05 08:13:51.023516	37.5	16.9	-92.1	3.4
2025-01-05 08:13:52.176027	37.6	17.0	-92.0	4.4
2025-01-05 08:13:53.336722	37.8	17.1	-92.3	8.1
2025-01-05 08:13:54.493258	38.0	17.2	-92.6	10.7
2025-01-05 08:13:55.648409	38.1	17.3	-92.6	10.9
2025-01-05 08:13:56.804669	38.3	17.4	-92.4	6.5
2025-01-05 08:13:57.963205	38.5	17.5	-93.1	6.8
2025-01-05 08:13:59.117298	38.6	17.7	-92.2	5.9
2025-01-05 08:14:00.273990	38.8	17.8	-92.3	4.4
2025-01-05 08:14:01.422744	39.0	17.9	-92.7	10.4
2025-01-05 08:14:02.587769	39.1	18.0	-92.5	10.6
2025-01-05 08:14:03.745219	39.3	18.1	-92.2	9.2
2025-01-05 08:14:04.909614	39.5	18.2	-92.4	12.2
2025-01-05 08:14:06.074482	39.7	18.3	-92.4	7.7
2025-01-05 08:14:07.231276	39.8	18.4	-92.1	5.6
2025-01-05 08:14:08.390329	40.0	18.5	-92.2	7.9
2025-01-05 08:14:09.557836	40.2	18.6	-93.0	3.3
2025-01-05 08:14:10.716504	40.4	18.7	-92.7	10.1
2025-01-05 08:14:11.877506	40.6	18.8	-93.0	10.4
2025-01-05 08:14:13.031789	40.7	18.9	-92.7	5.3
2025-01-05 08:14:14.190787	40.9	19.0	-92.6	9.5
2025-01-05 08:14:15.359280	41.1	19.1	-92.5	6.4
2025-01-05 08:14:16.520967	41.3	19.2	-93.0	11.3
2025-01-05 08:14:17.682318	41.5	19.3	-93.1	6.6
2025-01-05 08:14:18.839552	41.7	19.4	-92.7	12.2
2025-01-05 08:14:20.006976	41.8	19.5	-92.7	10.1
2025-01-05 08:14:21.166975	42.0	19.6	-92.0	11.3
2025-01-05 08:14:22.323075	42.2	19.7	-92.7	13.1
2025-01-05 08:14:23.495078	42.4	19.9	-92.6	9.7
2025-01-05 08:14:24.654228	42.6	20.0	-92.4	9.5
2025-01-05 08:14:25.808627	42.8	20.1	-92.6	11.7
2025-01-05 08:14:26.964140	43.0	20.2	-92.6	7.6
2025-01-05 08:14:28.123189	43.2	20.3	-92.7	6.9
2025-01-05 08:14:29.282170	43.4	20.4	-92.5	12.6
2025-01-05 08:14:30.431438	43.6	20.5	-92.8	7.7
2025-01-05 08:14:31.590202	43.8	20.6	-92.8	6.0
2025-01-05 08:14:32.750667	44.0	20.7	-92.7	12.5
2025-01-05 08:14:33.915504	44.2	20.8	-92.5	11.4
2025-01-05 08:14:35.073456	44.4	20.9	-92.6	14.7
2025-01-05 08:14:36.229105	44.6	21.0	-92.5	7.3
2025-01-05 08:14:37.383280	44.8	21.1	-92.7	14.4
2025-01-05 08:14:38.545286	45.1	21.2	-92.7	6.6
2025-01-05 08:14:39.703482	45.3	21.4	-92.8	10.7
2025-01-05 08:14:40.860595	45.5	21.5	-93.0	16.8
2025-01-05 08:14:42.012755	45.7	21.6	-92.6	13.3
2025-01-05 08:14:43.172649	45.9	21.7	-92.5	16.8
2025-01-05 08:14:44.328419	46.1	21.8	-92.8	9.9
2025-01-05 08:14:45.489000	46.3	21.9	-92.9	11.8
2025-01-05 08:14:46.647796	46.6	22.0	-92.7	10.7
2025-01-05 08:14:47.807717	46.8	22.1	-93.3	12.8
2025-01-05 08:14:48.971150	47.0	22.2	-93.1	6.7
2025-01-05 08:14:50.122504	47.2	22.3	-92.2	6.5
2025-01-05 08:14:51.285845	47.5	22.4	-92.0	15.4
2025-01-05 08:14:52.441636	47.7	22.5	-92.2	10.8
2025-01-05 08:14:53.605718	47.9	22.7	-92.3	6.2
2025-01-05 08:14:54.767643	48.1	22.8	-92.0	13.7
2025-01-05 08:14:55.922829	48.4	22.9	-91.9	17.1
2025-01-05 08:14:57.084140	48.6	23.0	-92.9	16.1
2025-01-05 08:14:58.238642	48.9	23.1	-92.9	18.7
2025-01-05 08:14:59.393204	49.1	23.2	-92.5	16.1
2025-01-05 08:15:00.540511	49.3	23.3	-93.1	11.6
2025-01-05 08:15:01.699672	49.6	23.4	-92.8	14.5
2025-01-05 08:15:02.860180	49.8	23.5	-92.7	14.8
2025-01-05 08:15:04.024157	50.1	23.6	-92.4	15.1
2025-01-05 08:15:05.187388	50.3	23.7	-92.3	11.3
2025-01-05 08:15:06.346367	50.5	23.8	-92.2	14.4
2025-01-05 08:15:07.500136	50.8	23.9	-92.6	12.4
2025-01-05 08:15:08.660772	51.0	24.1	-92.7	9.3
2025-01-05 08:15:09.823182	51.3	24.2	-92.7	11.4
2025-01-05 08:15:10.984064	51.6	24.3	-92.8	5.9
2025-01-05 08:15:12.150281	51.8	24.4	-92.7	5.5
2025-01-05 08:15:13.312379	52.1	24.5	-92.6	15.2
2025-01-05 08:15:14.475868	52.3	24.6	-92.8	7.7
2025-01-05 08:15:15.626601	52.6	24.7	-92.9	10.3
2025-01-05 08:15:16.798213	52.9	24.8	-93.1	11.6
2025-01-05 08:15:17.961027	53.1	24.9	-92.8	13.4
2025-01-05 08:15:19.125988	53.4	25.0	-92.3	11.8
2025-01-05 08:15:20.282252	53.7	25.1	-92.1	18.1
2025-01-05 08:15:21.445408	53.9	25.2	-92.9	17.5
2025-01-05 08:15:22.605559	54.2	25.3	-93.0	14.5
2025-01-05 08:15:23.766344	54.5	25.4	-92.3	14.0
2025-01-05 08:15:24.931326	54.7	25.5	-92.9	9.9
2025-01-05 08:15:26.090499	55.0	25.7	-92.8	8.4
2025-01-05 08:15:27.251124	55.3	25.8	-92.7	12.0
2025-01-05 08:15:28.410876	55.6	25.9	-92.6	11.8
2025-01-05 08:15:29.570616	55.9	26.0	-92.8	9.3
2025-01-05 08:15:30.725600	56.1	26.1	-93.1	8.6
2025-01-05 08:15:31.888103	56.4	26.2	-92.8	10.4
2025-01-05 08:15:33.048015	56.7	26.3	-92.8	10.4
2025-01-05 08:15:34.214807	57.0	26.4	-92.0	7.8
2025-01-05 08:15:35.368048	57.3	26.5	-92.7	9.7
2025-01-05 08:15:36.525131	57.6	26.6	-92.7	5.0
2025-01-05 08:15:37.690374	57.9	26.7	-92.9	5.0
2025-01-05 08:15:38.854257	58.2	26.8	-93.1	5.0
2025-01-05 08:15:40.013398	58.5	26.9	-92.8	5.0
2025-01-05 08:15:41.173187	58.8	27.0	-92.6	4.6
2025-01-05 08:15:42.337043	59.1	27.1	-93.1	5.6
2025-01-05 08:15:43.496353	59.4	27.2	-93.2	6.2
2025-01-05 08:15:44.670552	59.7	27.3	-93.2	9.8
2025-01-05 08:15:45.819952	60.0	27.4	-93.0	7.5
2025-01-05 08:15:46.986111	60.3	27.5	-93.2	8.7
2025-01-05 08:15:48.144462	60.6	27.6	-92.8	8.0
2025-01-05 08:15:49.308178	60.9	27.7	-92.6	7.9
2025-01-05 08:15:50.469592	61.3	27.8	-93.4	5.3
2025-01-05 08:15:51.639289	61.6	27.9	-93.0	5.4
2025-01-05 08:15:52.795468	61.9	28.0	-92.9	6.8
2025-01-05 08:15:53.954700	62.2	28.0	-93.1	4.8
2025-01-05 08:15:55.116950	62.5	28.1	-92.6	6.1
2025-01-05 08:15:56.273243	62.9	28.2	-92.7	3.2
2025-01-05 08:15:57.434899	63.2	28.3	-92.3	3.3
2025-01-05 08:15:58.594952	63.5	28.4	-92.0	4.0
2025-01-05 08:15:59.756402	63.9	28.5	-91.9	6.8
2025-01-05 08:16:00.897550	64.2	28.6	-93.1	8.4
2025-01-05 08:16:02.058449	64.5	28.7	-92.9	7.7
2025-01-05 08:16:03.213223	64.9	28.8	-92.8	5.7
2025-01-05 08:16:04.375420	65.2	28.9	-92.7	7.9
2025-01-05 08:16:05.526870	65.5	28.9	-93.1	5.9
2025-01-05 08:16:06.688593	65.9	29.0	-93.2	7.5
2025-01-05 08:16:07.855573	66.2	29.1	-93.1	10.3
2025-01-05 08:16:09.013777	66.6	29.2	-93.0	7.7
2025-01-05 08:16:10.169081	66.9	29.3	-92.7	11.2
2025-01-05 08:16:11.335936	67.3	29.4	-92.6	10.2
2025-01-05 08:16:12.495053	67.6	29.4	-93.0	9.3
2025-01-05 08:16:13.649926	68.0	29.5	-93.2	12.9
2025-01-05 08:16:14.807486	68.3	29.6	-93.1	13.9
2025-01-05 08:16:15.962715	68.7	29.7	-93.4	10.1
2025-01-05 08:16:17.120207	69.0	29.8	-93.0	12.0
2025-01-05 08:16:18.279969	69.4	29.8	-92.7	13.7
2025-01-05 08:16:19.442563	69.7	29.9	-93.1	11.1
2025-01-05 08:16:20.604073	70.1	30.0	-92.8	9.9
2025-01-05 08:16:21.763970	70.5	30.1	-92.9	14.8
2025-01-05 08:16:22.923657	70.8	30.1	-93.0	15.3
2025-01-05 08:16:24.079330	71.2	30.2	-92.9	9.7
2025-01-05 08:16:25.239338	71.6	30.3	-92.8	19.2
2025-01-05 08:16:26.396185	71.9	30.4	-92.8	15.9
2025-01-05 08:16:27.559728	72.3	30.4	-93.1	15.5
2025-01-05 08:16:28.721048	72.7	30.5	-92.6	16.4
2025-01-05 08:16:29.880942	73.1	30.6	-93.2	16.6
2025-01-05 08:16:31.043841	73.4	30.6	-92.8	16.6
2025-01-05 08:16:32.203326	73.8	30.7	-92.6	18.9
2025-01-05 08:16:33.366245	74.2	30.7	-92.5	14.8
2025-01-05 08:16:34.527515	74.6	30.8	-92.8	13.4
2025-01-05 08:16:35.691289	74.9	30.9	-93.0	15.0
2025-01-05 08:16:36.843679	75.3	30.9	-93.0	15.9
2025-01-05 08:16:38.002902	75.7	31.0	-92.5	9.7
2025-01-05 08:16:39.162018	76.1	31.0	-92.6	9.7
2025-01-05 08:16:40.321259	76.5	31.1	-91.9	16.6
2025-01-05 08:16:41.480660	76.9	31.1	-92.2	8.2
2025-01-05 08:16:42.636308	77.3	31.2	-92.8	7.2
2025-01-05 08:16:43.791585	77.7	31.2	-92.6	18.2
2025-01-05 08:16:44.949119	78.0	31.3	-92.7	12.6
2025-01-05 08:16:46.106159	78.4	31.3	-92.7	11.0
2025-01-05 08:16:47.278602	78.8	31.4	-92.4	19.8
2025-01-05 08:16:48.433111	79.2	31.4	-92.8	17.9
2025-01-05 08:16:49.594329	79.6	31.5	-93.0	18.1
2025-01-05 08:16:50.768960	80.0	31.5	-93.2	15.6
2025-01-05 08:16:51.925064	80.4	31.6	-92.6	18.3
2025-01-05 08:16:53.090494	80.8	31.6	-92.3	19.1
2025-01-05 08:16:54.249833	81.2	31.6	-92.5	16.8
2025-01-05 08:16:55.418911	81.6	31.7	-92.7	17.8
2025-01-05 08:16:56.573442	82.0	31.7	-92.8	18.8
2025-01-05 08:16:57.733279	82.4	31.7	-92.9	18.3
2025-01-05 08:16:58.893255	82.8	31.8	-92.6	9.2
2025-01-05 08:17:00.051464	83.2	31.8	-92.7	14.0
2025-01-05 08:17:01.196624	83.6	31.8	-91.5	9.7
2025-01-05 08:17:02.363026	84.1	31.9	-91.8	15.8
2025-01-05 08:17:03.524720	84.5	31.9	-92.2	8.0
2025-01-05 08:17:04.691860	84.9	31.9	-92.1	14.9
2025-01-05 08:17:05.849104	85.3	31.9	-92.9	19.3
2025-01-05 08:17:07.013116	85.7	32.0	-92.8	8.6
2025-01-05 08:17:08.176890	86.1	32.0	-92.6	10.6
2025-01-05 08:17:09.330213	86.5	32.0	-92.4	17.3
2025-01-05 08:17:10.496124	86.9	32.0	-92.6	13.4
2025-01-05 08:17:11.654187	87.3	32.0	-92.6	13.1
2025-01-05 08:17:12.819106	87.7	32.0	-92.5	17.5
2025-01-05 08:17:13.967607	88.2	32.1	-92.6	15.4
2025-01-05 08:17:15.133446	88.6	32.1	-92.5	15.1
2025-01-05 08:17:16.293448	89.0	32.1	-92.5	16.9
2025-01-05 08:17:17.453583	89.4	32.1	-92.7	16.5
2025-01-05 08:17:18.612568	89.8	32.1	-92.7	19.3
2025-01-05 08:17:19.772186	90.2	32.1	-92.7	13.1
2025-01-05 08:17:20.935037	90.6	32.1	-92.3	18.5
2025-01-05 08:17:22.102986	91.0	32.1	-92.8	17.0
2025-01-05 08:17:23.260659	91.5	32.1	-92.9	16.8
2025-01-05 08:17:24.424606	91.9	32.1	-93.0	18.8
2025-01-05 08:17:25.586431	92.3	32.1	-93.2	13.8
2025-01-05 08:17:26.743828	92.7	32.1	-93.2	15.4
2025-01-05 08:17:27.897930	93.1	32.1	-92.9	17.2
2025-01-05 08:17:29.059157	93.5	32.1	-93.1	14.2
2025-01-05 08:17:30.227575	93.9	32.1	-93.1	17.7
2025-01-05 08:17:31.388499	94.4	32.0	-93.1	16.5
2025-01-05 08:17:32.544258	94.8	32.0	-92.9	9.5
2025-01-05 08:17:33.702944	95.2	32.0	-93.1	16.2
2025-01-05 08:17:34.871762	95.6	32.0	-92.9	14.4
2025-01-05 08:17:36.026087	96.0	32.0	-93.3	11.1
2025-01-05 08:17:37.171590	96.4	32.0	-92.7	10.2
2025-01-05 08:17:38.338879	96.8	31.9	-92.9	15.6
2025-01-05 08:17:39.501923	97.2	31.9	-93.3	11.9
2025-01-05 08:17:40.668003	97.6	31.9	-93.1	9.2
2025-01-05 08:17:41.829985	98.0	31.9	-93.2	20.4
2025-01-05 08:17:42.987934	98.4	31.8	-92.8	8.0
2025-01-05 08:17:44.151176	98.9	31.8	-92.7	8.2
2025-01-05 08:17:45.310146	99.3	31.8	-92.9	15.5
2025-01-05 08:17:46.468543	99.7	31.7	-93.1	8.7
2025-01-05 08:17:47.634070	100.1	31.7	-93.4	8.9
2025-01-05 08:17:48.780845	100.5	31.7	-93.1	17.5
2025-01-05 08:17:49.939870	100.9	31.6	-92.6	14.0
2025-01-05 08:17:51.101601	101.3	31.6	-92.9	7.6
2025-01-05 08:17:52.266392	101.7	31.5	-92.9	26.6
2025-01-05 08:17:53.423971	102.1	31.5	-93.1	17.7
2025-01-05 08:17:54.581408	102.5	31.5	-92.7	9.0
2025-01-05 08:17:55.741004	102.9	31.4	-92.9	17.4
2025-01-05 08:17:56.895512	103.3	31.4	-93.0	18.3
2025-01-05 08:17:58.054221	103.7	31.3	-92.7	10.2
2025-01-05 08:17:59.217863	104.1	31.3	-92.8	20.3
2025-01-05 08:18:00.367257	104.4	31.2	-93.1	23.4
2025-01-05 08:18:01.527007	104.8	31.2	-93.1	12.5
2025-01-05 08:18:02.682847	105.2	31.1	-93.3	13.9
2025-01-05 08:18:03.846135	105.6	31.1	-93.3	20.6
2025-01-05 08:18:05.008030	106.0	31.0	-92.3	9.6
2025-01-05 08:18:06.169437	106.4	31.0	-91.9	11.2
2025-01-05 08:18:07.331402	106.8	30.9	-92.0	18.6
2025-01-05 08:18:08.492511	107.2	30.8	-92.2	11.8
2025-01-05 08:18:09.652734	107.5	30.8	-93.4	13.5
2025-01-05 08:18:10.810618	107.9	30.7	-93.0	21.3
2025-01-05 08:18:11.968208	108.3	30.6	-93.2	6.6
2025-01-05 08:18:13.136057	108.7	30.6	-92.9	8.9
2025-01-05 08:18:14.294668	109.1	30.5	-92.7	11.3
2025-01-05 08:18:15.450682	109.4	30.5	-93.3	11.0
2025-01-05 08:18:16.608876	109.8	30.4	-92.9	7.3
2025-01-05 08:18:17.773744	110.2	30.3	-93.2	14.3
2025-01-05 08:18:18.937812	110.6	30.2	-92.9	11.8
2025-01-05 08:18:20.100158	110.9	30.2	-92.8	10.1
2025-01-05 08:18:21.263016	111.3	30.1	-92.7	13.3
2025-01-05 08:18:22.422785	111.7	30.0	-93.2	19.0
2025-01-05 08:18:23.583831	112.0	30.0	-93.3	8.8
2025-01-05 08:18:24.740337	112.4	29.9	-92.8	7.1
2025-01-05 08:18:25.900912	112.7	29.8	-92.7	11.8
2025-01-05 08:18:27.055809	113.1	29.7	-93.1	4.4
2025-01-05 08:18:28.225254	113.5	29.6	-93.2	8.9
2025-01-05 08:18:29.384590	113.8	29.6	-93.4	6.8
2025-01-05 08:18:30.559679	114.2	29.5	-93.2	6.0
2025-01-05 08:18:31.714474	114.5	29.4	-93.1	9.3
2025-01-05 08:18:32.879025	114.9	29.3	-93.2	8.0
2025-01-05 08:18:34.042706	115.2	29.2	-93.3	2.5
2025-01-05 08:18:35.196752	115.6	29.1	-93.0	12.0
2025-01-05 08:18:36.357895	115.9	29.1	-93.1	8.4
2025-01-05 08:18:37.521305	116.3	29.0	-93.2	4.5
2025-01-05 08:18:38.688515	116.6	28.9	-93.3	10.9
2025-01-05 08:18:39.849857	117.0	28.8	-93.2	11.8
2025-01-05 08:18:41.005736	117.3	28.7	-92.9	6.9
2025-01-05 08:18:42.170995	117.6	28.6	-92.5	6.7
2025-01-05 08:18:43.339880	118.0	28.5	-92.9	5.4
2025-01-05 08:18:44.496928	118.3	28.4	-93.3	6.3
2025-01-05 08:18:45.671551	118.6	28.3	-93.1	2.1
2025-01-05 08:18:46.827634	119.0	28.3	-93.4	2.7
2025-01-05 08:18:47.987896	119.3	28.2	-93.1	6.6
2025-01-05 08:18:49.129343	119.6	28.1	-92.9	5.0
2025-01-05 08:18:50.280891	119.9	28.0	-92.9	6.8
2025-01-05 08:18:51.439146	120.3	27.9	-92.9	6.6
2025-01-05 08:18:52.595125	120.6	27.8	-92.9	5.3
2025-01-05 08:18:53.759841	120.9	27.7	-92.9	9.8
2025-01-05 08:18:54.924279	121.2	27.6	-93.3	5.3
2025-01-05 08:18:56.071962	121.5	27.5	-92.7	5.2
2025-01-05 08:18:57.231920	121.8	27.4	-92.8	6.7
2025-01-05 08:18:58.391699	122.1	27.3	-92.2	5.2
2025-01-05 08:18:59.554712	122.5	27.2	-92.3	6.6
2025-01-05 08:19:00.703811	122.8	27.1	-93.0	6.6
2025-01-05 08:19:01.883623	123.1	27.0	-93.2	9.0
2025-01-05 08:19:03.055201	123.4	26.9	-93.0	8.8
2025-01-05 08:19:04.208655	123.7	26.8	-92.9	4.5
2025-01-05 08:19:05.381056	124.0	26.7	-92.9	5.2
2025-01-05 08:19:06.532193	124.3	26.6	-93.2	7.5
2025-01-05 08:19:07.693003	124.6	26.5	-93.1	4.8
2025-01-05 08:19:08.849384	124.9	26.4	-93.2	8.6
2025-01-05 08:19:10.014110	125.2	26.3	-92.0	7.6
2025-01-05 08:19:11.174048	125.5	26.2	-92.1	11.9
2025-01-05 08:19:12.331716	125.7	26.1	-91.6	15.5
2025-01-05 08:19:13.495656	126.0	26.0	-92.8	11.5
2025-01-05 08:19:14.653305	126.3	25.9	-93.1	8.8
2025-01-05 08:19:15.811243	126.6	25.8	-93.1	13.8
2025-01-05 08:19:16.981328	126.9	25.7	-93.2	8.5
2025-01-05 08:19:18.215693	127.2	25.5	-92.8	7.3
2025-01-05 08:19:19.376623	127.5	25.4	-92.6	14.0
2025-01-05 08:19:20.532450	127.7	25.3	-92.9	8.4
2025-01-05 08:19:21.692543	128.0	25.2	-93.2	7.9
2025-01-05 08:19:22.855052	128.3	25.1	-92.6	16.7
2025-01-05 08:19:24.015592	128.5	25.0	-93.0	8.2
2025-01-05 08:19:25.172409	128.8	24.9	-92.9	10.7
2025-01-05 08:19:26.329359	129.1	24.8	-92.7	16.3
2025-01-05 08:19:27.487721	129.3	24.7	-93.1	10.3
2025-01-05 08:19:28.646746	129.6	24.6	-92.8	8.0
2025-01-05 08:19:29.801673	129.9	24.5	-93.5	14.3
2025-01-05 08:19:30.962391	130.1	24.4	-93.3	12.0
2025-01-05 08:19:32.123397	130.4	24.3	-93.0	10.0
2025-01-05 08:19:33.284979	130.6	24.2	-92.7	14.7
2025-01-05 08:19:34.444328	130.9	24.0	-93.3	12.9
2025-01-05 08:19:35.599962	131.2	23.9	-92.7	12.1
2025-01-05 08:19:36.759607	131.4	23.8	-92.8	13.6
2025-01-05 08:19:37.918757	131.7	23.7	-92.8	14.3
2025-01-05 08:19:39.076975	131.9	23.6	-92.9	16.7
2025-01-05 08:19:40.248842	132.2	23.5	-92.8	17.8
2025-01-05 08:19:41.418405	132.4	23.4	-93.0	20.4
2025-01-05 08:19:42.577519	132.6	23.3	-93.3	17.6
2025-01-05 08:19:43.746112	132.9	23.2	-93.3	14.2
2025-01-05 08:19:44.915021	133.1	23.1	-93.2	12.8
2025-01-05 08:19:46.071917	133.4	23.0	-92.6	14.3
2025-01-05 08:19:47.231599	133.6	22.8	-92.7	14.4
2025-01-05 08:19:48.391638	133.8	22.7	-92.8	18.7
2025-01-05 08:19:49.547656	134.1	22.6	-92.8	10.9
2025-01-05 08:19:50.702193	134.3	22.5	-92.9	15.1
2025-01-05 08:19:51.858041	134.5	22.4	-93.1	15.3
2025-01-05 08:19:53.012678	134.8	22.3	-93.1	11.1
2025-01-05 08:19:54.171283	135.0	22.2	-93.0	10.9
2025-01-05 08:19:55.341446	135.2	22.1	-92.8	16.0
2025-01-05 08:19:56.502018	135.4	22.0	-92.7	11.0
2025-01-05 08:19:57.659297	135.7	21.9	-92.9	9.6
2025-01-05 08:19:58.829746	135.9	21.7	-92.7	14.3
2025-01-05 08:19:59.994914	136.1	21.6	-92.6	12.1
2025-01-05 08:20:01.150050	136.3	21.5	-92.6	10.2
2025-01-05 08:20:02.309987	136.5	21.4	-92.6	13.7
2025-01-05 08:20:03.473145	136.8	21.3	-92.8	13.6
2025-01-05 08:20:04.628071	137.0	21.2	-92.6	13.2
2025-01-05 08:20:05.790318	137.2	21.1	-92.9	14.9
2025-01-05 08:20:06.956747	137.4	21.0	-93.0	12.3
2025-01-05 08:20:08.109563	137.6	20.9	-92.4	13.8
2025-01-05 08:20:09.261958	137.8	20.8	-92.3	13.7
2025-01-05 08:20:10.430999	138.0	20.7	-92.9	12.9
2025-01-05 08:20:11.588577	138.2	20.5	-93.1	9.7
2025-01-05 08:20:12.748146	138.4	20.4	-93.1	13.7
2025-01-05 08:20:13.902883	138.6	20.3	-91.5	11.7
2025-01-05 08:20:15.064356	138.8	20.2	-91.5	8.0
2025-01-05 08:20:16.221537	139.0	20.1	-91.7	12.6
2025-01-05 08:20:17.378596	139.2	20.0	-91.5	11.5
2025-01-05 08:20:18.542867	139.4	19.9	-92.3	7.7
2025-01-05 08:20:19.700734	139.6	19.8	-92.7	11.4
2025-01-05 08:20:20.858397	139.8	19.7	-93.2	12.5
2025-01-05 08:20:22.014412	140.0	19.6	-92.8	9.7
2025-01-05 08:20:23.179942	140.2	19.5	-92.6	11.0
2025-01-05 08:20:24.337527	140.4	19.4	-92.6	13.1
2025-01-05 08:20:25.498941	140.6	19.3	-92.9	10.6
2025-01-05 08:20:26.651578	140.8	19.1	-92.8	11.7
2025-01-05 08:20:27.823562	140.9	19.0	-93.2	10.7
2025-01-05 08:20:28.980885	141.1	18.9	-92.9	9.6
2025-01-05 08:20:30.151406	141.3	18.8	-93.0	8.0
2025-01-05 08:20:31.309082	141.5	18.7	-93.0	8.5
2025-01-05 08:20:32.484545	141.7	18.6	-92.9	8.7
2025-01-05 08:20:33.643628	141.9	18.5	-92.9	9.4
2025-01-05 08:20:34.809345	142.0	18.4	-92.7	9.3
2025-01-05 08:20:35.969973	142.2	18.3	-93.2	7.0
2025-01-05 08:20:37.125657	142.4	18.2	-92.7	5.1
2025-01-05 08:20:38.285255	142.6	18.1	-92.7	7.0
2025-01-05 08:20:39.442396	142.8	18.0	-92.6	7.1
2025-01-05 08:20:40.605317	142.9	17.9	-93.0	5.4
2025-01-05 08:20:41.759562	143.1	17.8	-93.0	10.6
2025-01-05 08:20:42.918740	143.3	17.7	-92.9	9.6
2025-01-05 08:20:44.075331	143.4	17.6	-92.4	7.7
2025-01-05 08:20:45.235539	143.6	17.5	-92.6	7.7
2025-01-05 08:20:46.389827	143.8	17.3	-92.7	7.4
2025-01-05 08:20:47.547582	143.9	17.2	-93.2	6.3
2025-01-05 08:20:48.707195	144.1	17.1	-93.0	5.3
2025-01-05 08:20:49.874835	144.3	17.0	-93.4	5.2
2025-01-05 08:20:51.032219	144.4	16.9	-92.8	1.8
2025-01-05 08:20:52.190410	144.6	16.8	-92.6	4.7
2025-01-05 08:20:53.351756	144.8	16.7	-92.4	3.3
2025-01-05 08:20:54.516681	144.9	16.6	-92.9	5.3
2025-01-05 08:20:55.676777	145.1	16.5	-93.0	4.4
2025-01-05 08:20:56.833256	145.2	16.4	-92.8	4.0
2025-01-05 08:20:57.999305	145.4	16.3	-92.7	4.8
2025-01-05 08:20:59.162573	145.6	16.2	-93.1	4.8
2025-01-05 08:21:00.314932	145.7	16.1	-92.9	5.7
2025-01-05 08:21:01.470169	145.9	16.0	-92.8	5.9
2025-01-05 08:21:02.629104	146.0	15.9	-92.8	4.2
2025-01-05 08:21:03.793106	146.2	15.8	-93.1	6.0
2025-01-05 08:21:04.954573	146.3	15.7	-93.5	5.7
2025-01-05 08:21:06.117312	146.5	15.6	-92.8	2.8
2025-01-05 08:21:07.277020	146.6	15.5	-92.6	7.3
2025-01-05 08:21:08.428556	146.8	15.4	-92.8	10.1
2025-01-05 08:21:09.585299	146.9	15.3	-93.1	8.5
2025-01-05 08:21:10.746980	147.1	15.2	-92.8	8.7
2025-01-05 08:21:11.916060	147.2	15.1	-93.0	5.6
2025-01-05 08:21:13.070626	147.4	15.0	-92.9	5.1
2025-01-05 08:21:14.228227	147.5	14.9	-92.7	5.1
2025-01-05 08:21:15.398600	147.6	14.8	-93.0	5.6
2025-01-05 08:21:16.557096	147.8	14.7	-93.2	5.0
2025-01-05 08:21:17.706281	147.9	14.6	-92.9	6.5
#Closed at: 2025-01-05 08:13:33.391380