passes_logs/2025/01/05/LEX_Murmansk/LEX_Murmansk__20250105_192803_NOAA_19_rec.log

#Pass ID: 20250105_192803_NOAA 19
#Satellite: NOAA 19
#Configuration: NOAA 19
#Start time: 2025-01-05 19:27:58.441635

#LorettStation: 1.0.0 05.05.2024
#Station: LEX_Murmansk
#Location: 33.156738 lon 68.926811 lat
#TLE: 1 33591U 09005A   25004.88002234  .00000560  00000+0  32285-3 0  9996
#TLE: 2 33591  99.0214  68.5635 0014675  84.4442 275.8403 14.13251363820110

#Time	Az	El	Level	SNR
2025-01-05 19:28:10.739560	211.2	16.1	-90.7	3.7
2025-01-05 19:28:11.888864	211.3	16.2	-90.9	5.1
2025-01-05 19:28:13.033762	211.5	16.3	-90.5	3.9
2025-01-05 19:28:14.193795	211.6	16.4	-90.8	0.9
2025-01-05 19:28:15.345484	211.8	16.5	-90.7	1.8
2025-01-05 19:28:16.492870	211.9	16.6	-91.1	2.5
2025-01-05 19:28:17.636139	212.1	16.7	-91.3	4.0
2025-01-05 19:28:18.783696	212.3	16.8	-90.9	4.0
2025-01-05 19:28:19.929970	212.4	16.9	-91.0	7.0
2025-01-05 19:28:21.072488	212.6	17.0	-90.8	6.2
2025-01-05 19:28:22.214949	212.7	17.1	-90.9	6.8
2025-01-05 19:28:23.360816	212.9	17.2	-90.8	5.7
2025-01-05 19:28:24.505447	213.0	17.3	-90.9	4.6
2025-01-05 19:28:25.647965	213.2	17.4	-91.2	4.4
2025-01-05 19:28:26.792891	213.4	17.5	-91.2	7.4
2025-01-05 19:28:27.937403	213.5	17.6	-91.1	8.0
2025-01-05 19:28:29.081095	213.7	17.8	-91.0	10.0
2025-01-05 19:28:30.228266	213.9	17.9	-90.8	5.4
2025-01-05 19:28:31.376314	214.0	18.0	-91.0	3.2
2025-01-05 19:28:32.524406	214.2	18.1	-90.8	4.2
2025-01-05 19:28:33.668107	214.4	18.2	-91.1	2.1
2025-01-05 19:28:34.814001	214.5	18.3	-91.1	0.3
2025-01-05 19:28:35.957788	214.7	18.4	-91.0	4.2
2025-01-05 19:28:37.102977	214.9	18.5	-90.8	4.0
2025-01-05 19:28:38.253198	215.0	18.6	-91.0	10.4
2025-01-05 19:28:39.400963	215.2	18.7	-91.1	5.6
2025-01-05 19:28:40.544334	215.4	18.8	-90.8	8.3
2025-01-05 19:28:41.690890	215.6	18.9	-91.4	7.6
2025-01-05 19:28:42.834256	215.8	19.0	-91.4	5.5
2025-01-05 19:28:43.978831	215.9	19.2	-90.9	7.0
2025-01-05 19:28:45.127064	216.1	19.3	-91.0	6.1
2025-01-05 19:28:46.275538	216.3	19.4	-91.2	5.4
2025-01-05 19:28:47.424071	216.5	19.5	-90.9	10.3
2025-01-05 19:28:48.569599	216.7	19.6	-91.2	11.7
2025-01-05 19:28:49.719306	216.9	19.7	-91.0	10.9
2025-01-05 19:28:50.869796	217.0	19.8	-91.0	6.1
2025-01-05 19:28:52.022952	217.2	19.9	-91.1	2.3
2025-01-05 19:28:53.164462	217.4	20.0	-90.7	3.6
2025-01-05 19:28:54.308265	217.6	20.1	-90.7	1.7
2025-01-05 19:28:55.454385	217.8	20.3	-91.1	5.3
2025-01-05 19:28:56.600741	218.0	20.4	-91.0	5.9
2025-01-05 19:28:57.748777	218.2	20.5	-91.1	7.0
2025-01-05 19:28:58.900674	218.4	20.6	-91.2	4.6
2025-01-05 19:29:00.050024	218.6	20.7	-91.1	11.2
2025-01-05 19:29:01.190459	218.8	20.8	-91.1	10.8
2025-01-05 19:29:02.337743	219.0	20.9	-90.9	5.8
2025-01-05 19:29:03.478527	219.2	21.0	-91.1	6.5
2025-01-05 19:29:04.623238	219.4	21.1	-91.1	8.0
2025-01-05 19:29:05.770896	219.6	21.3	-91.1	6.8
2025-01-05 19:29:06.921174	219.8	21.4	-91.4	8.6
2025-01-05 19:29:08.069644	220.0	21.5	-91.4	8.0
2025-01-05 19:29:09.216721	220.2	21.6	-91.0	10.5
2025-01-05 19:29:10.363776	220.4	21.7	-91.4	8.3
2025-01-05 19:29:11.509160	220.7	21.8	-91.2	7.2
2025-01-05 19:29:12.664712	220.9	21.9	-91.0	4.4
2025-01-05 19:29:13.808967	221.1	22.0	-91.2	4.4
2025-01-05 19:29:14.953386	221.3	22.2	-91.7	4.1
2025-01-05 19:29:16.095226	221.5	22.3	-91.1	3.2
2025-01-05 19:29:17.233820	221.7	22.4	-91.4	4.3
2025-01-05 19:29:18.385956	222.0	22.5	-91.2	7.9
2025-01-05 19:29:19.538102	222.2	22.6	-91.3	10.1
2025-01-05 19:29:20.679927	222.4	22.7	-91.4	11.3
2025-01-05 19:29:21.830196	222.6	22.8	-91.5	10.9
2025-01-05 19:29:22.973079	222.9	23.0	-91.5	12.3
2025-01-05 19:29:24.119339	223.1	23.1	-91.4	7.9
2025-01-05 19:29:25.265148	223.3	23.2	-91.1	5.0
2025-01-05 19:29:26.413321	223.6	23.3	-91.4	7.6
2025-01-05 19:29:27.560920	223.8	23.4	-91.4	5.9
2025-01-05 19:29:28.704956	224.0	23.5	-91.0	11.1
2025-01-05 19:29:29.851380	224.3	23.6	-91.4	13.2
2025-01-05 19:29:30.995878	224.5	23.7	-91.4	9.1
2025-01-05 19:29:32.146224	224.7	23.9	-91.2	5.4
2025-01-05 19:29:33.293752	225.0	24.0	-91.2	3.2
2025-01-05 19:29:34.437626	225.2	24.1	-91.6	5.8
2025-01-05 19:29:35.594453	225.5	24.2	-91.5	4.4
2025-01-05 19:29:36.743042	225.7	24.3	-91.6	2.5
2025-01-05 19:29:37.890289	226.0	24.4	-91.5	1.7
2025-01-05 19:29:39.038784	226.2	24.5	-91.5	3.7
2025-01-05 19:29:40.184745	226.5	24.7	-91.3	6.7
2025-01-05 19:29:41.333847	226.7	24.8	-91.0	7.7
2025-01-05 19:29:42.479088	227.0	24.9	-91.6	8.3
2025-01-05 19:29:43.629908	227.3	25.0	-92.0	4.5
2025-01-05 19:29:44.772531	227.5	25.1	-91.0	4.8
2025-01-05 19:29:45.919425	227.8	25.2	-91.2	4.6
2025-01-05 19:29:47.061952	228.0	25.3	-91.2	4.5
2025-01-05 19:29:48.215385	228.3	25.4	-90.8	1.9
2025-01-05 19:29:49.364736	228.6	25.6	-91.3	2.0
2025-01-05 19:29:50.514076	228.9	25.7	-91.5	3.3
2025-01-05 19:29:51.661363	229.1	25.8	-91.8	2.3
2025-01-05 19:29:52.808047	229.4	25.9	-91.8	1.1
2025-01-05 19:29:53.958114	229.7	26.0	-91.5	2.9
2025-01-05 19:29:55.106390	230.0	26.1	-91.4	3.1
2025-01-05 19:29:56.254745	230.2	26.2	-91.5	2.2
2025-01-05 19:29:57.402565	230.5	26.3	-91.2	1.6
2025-01-05 19:29:58.548401	230.8	26.4	-91.4	1.4
2025-01-05 19:29:59.697278	231.1	26.6	-91.6	2.5
2025-01-05 19:30:00.837103	231.4	26.7	-91.4	2.2
2025-01-05 19:30:01.983690	231.7	26.8	-91.6	3.5
2025-01-05 19:30:03.127793	231.9	26.9	-91.3	2.5
2025-01-05 19:30:04.275237	232.2	27.0	-91.7	2.2
2025-01-05 19:30:05.422995	232.5	27.1	-91.8	6.2
2025-01-05 19:30:06.571853	232.8	27.2	-91.8	7.2
2025-01-05 19:30:07.718017	233.1	27.3	-91.4	8.4
2025-01-05 19:30:08.866807	233.4	27.4	-91.7	10.4
2025-01-05 19:30:10.013445	233.7	27.5	-91.6	5.4
2025-01-05 19:30:11.160779	234.0	27.6	-91.1	3.5
2025-01-05 19:30:12.302800	234.3	27.7	-91.4	5.2
2025-01-05 19:30:13.448451	234.7	27.8	-91.3	5.3
2025-01-05 19:30:14.595146	235.0	28.0	-91.6	8.2
2025-01-05 19:30:15.747216	235.3	28.1	-91.3	10.3
2025-01-05 19:30:16.899437	235.6	28.2	-91.6	15.0
2025-01-05 19:30:18.046819	235.9	28.3	-91.4	11.6
2025-01-05 19:30:19.197548	236.2	28.4	-90.8	9.9
2025-01-05 19:30:20.343501	236.6	28.5	-91.4	9.7
2025-01-05 19:30:21.486722	236.9	28.6	-91.6	7.6
2025-01-05 19:30:22.633069	237.2	28.7	-91.3	4.8
2025-01-05 19:30:23.781239	237.5	28.8	-91.4	2.9
2025-01-05 19:30:24.925965	237.9	28.9	-91.7	3.6
2025-01-05 19:30:26.066962	238.2	29.0	-91.3	2.4
2025-01-05 19:30:27.209698	238.5	29.1	-91.1	2.5
2025-01-05 19:30:28.351419	238.8	29.2	-91.1	2.1
2025-01-05 19:30:29.501059	239.2	29.3	-91.4	5.9
2025-01-05 19:30:30.646278	239.5	29.4	-91.7	6.8
2025-01-05 19:30:31.792207	239.9	29.5	-91.3	7.1
2025-01-05 19:30:32.937534	240.2	29.6	-91.5	10.9
2025-01-05 19:30:34.087525	240.6	29.6	-91.3	13.2
2025-01-05 19:30:35.233944	240.9	29.7	-91.2	9.0
2025-01-05 19:30:36.387086	241.2	29.8	-91.4	15.1
2025-01-05 19:30:37.534749	241.6	29.9	-91.7	13.9
2025-01-05 19:30:38.672355	241.9	30.0	-91.7	8.3
2025-01-05 19:30:39.801676	242.3	30.1	-91.6	7.9
2025-01-05 19:30:40.922299	242.6	30.2	-91.1	10.0
2025-01-05 19:30:42.042745	243.0	30.3	-91.6	10.3
2025-01-05 19:30:43.163152	243.3	30.4	-91.1	11.1
2025-01-05 19:30:44.284047	243.7	30.4	-91.1	10.5
2025-01-05 19:30:45.404531	244.1	30.5	-92.0	12.3
2025-01-05 19:30:46.526423	244.4	30.6	-91.6	15.9
2025-01-05 19:30:47.665123	244.8	30.7	-91.4	16.9
2025-01-05 19:30:48.814845	245.1	30.8	-91.7	18.9
2025-01-05 19:30:49.960299	245.5	30.9	-91.6	17.8
2025-01-05 19:30:51.110588	245.9	30.9	-91.3	17.9
2025-01-05 19:30:52.255441	246.3	31.0	-91.3	11.8
2025-01-05 19:30:53.398796	246.6	31.1	-91.6	11.2
2025-01-05 19:30:54.544065	247.0	31.2	-91.4	7.7
2025-01-05 19:30:55.693562	247.4	31.2	-91.6	4.2
2025-01-05 19:30:56.843627	247.8	31.3	-91.7	4.9
2025-01-05 19:30:57.990100	248.2	31.4	-91.5	7.0
2025-01-05 19:30:59.135785	248.5	31.5	-91.3	5.6
2025-01-05 19:31:00.275537	248.9	31.5	-91.1	5.1
2025-01-05 19:31:01.418548	249.3	31.6	-91.4	7.2
2025-01-05 19:31:02.564604	249.7	31.7	-91.3	10.5
2025-01-05 19:31:03.707405	250.1	31.7	-91.3	12.5
2025-01-05 19:31:04.854784	250.5	31.8	-91.7	17.1
2025-01-05 19:31:06.001446	250.9	31.9	-91.6	16.0
2025-01-05 19:31:07.152572	251.3	31.9	-91.2	19.3
2025-01-05 19:31:08.296784	251.7	32.0	-91.4	15.5
2025-01-05 19:31:09.447013	252.1	32.1	-91.9	16.7
2025-01-05 19:31:10.595159	252.5	32.1	-91.5	16.0
2025-01-05 19:31:11.741027	252.9	32.2	-91.6	6.1
2025-01-05 19:31:12.891317	253.3	32.2	-91.7	19.2
2025-01-05 19:31:14.041374	253.7	32.3	-91.6	14.9
2025-01-05 19:31:15.187686	254.1	32.3	-91.0	9.2
2025-01-05 19:31:16.336189	254.5	32.4	-91.4	8.6
2025-01-05 19:31:17.486780	254.9	32.4	-91.5	11.9
2025-01-05 19:31:18.634676	255.3	32.5	-91.5	9.0
2025-01-05 19:31:19.782381	255.7	32.5	-91.5	8.1
2025-01-05 19:31:20.926167	256.1	32.6	-91.6	11.8
2025-01-05 19:31:22.074393	256.6	32.6	-91.2	9.4
2025-01-05 19:31:23.220115	257.0	32.7	-91.2	8.0
2025-01-05 19:31:24.366501	257.4	32.7	-91.6	14.0
2025-01-05 19:31:25.510081	257.8	32.7	-91.7	14.4
2025-01-05 19:31:26.658916	258.2	32.8	-91.3	15.7
2025-01-05 19:31:27.805497	258.6	32.8	-91.7	15.9
2025-01-05 19:31:28.952634	259.1	32.8	-91.8	14.4
2025-01-05 19:31:30.099564	259.5	32.9	-91.4	19.0
2025-01-05 19:31:31.249919	259.9	32.9	-91.5	11.5
2025-01-05 19:31:32.396487	260.3	32.9	-91.8	11.4
2025-01-05 19:31:33.544014	260.7	33.0	-91.8	13.9
2025-01-05 19:31:34.688555	261.2	33.0	-91.8	9.5
2025-01-05 19:31:35.833434	261.6	33.0	-91.7	8.7
2025-01-05 19:31:36.980443	262.0	33.0	-91.5	6.4
2025-01-05 19:31:38.125904	262.4	33.1	-91.3	7.2
2025-01-05 19:31:39.275561	262.9	33.1	-91.2	5.2
2025-01-05 19:31:40.422387	263.3	33.1	-91.3	5.7
2025-01-05 19:31:41.566367	263.7	33.1	-91.5	8.0
2025-01-05 19:31:42.714623	264.1	33.1	-91.8	3.6
2025-01-05 19:31:43.862190	264.6	33.1	-91.5	9.6
2025-01-05 19:31:45.012959	265.0	33.2	-91.5	9.7
2025-01-05 19:31:46.160330	265.4	33.2	-91.2	3.8
2025-01-05 19:31:47.309920	265.8	33.2	-91.7	0.7
2025-01-05 19:31:48.464979	266.3	33.2	-91.6	4.4
2025-01-05 19:31:49.610840	266.7	33.2	-91.3	7.4
2025-01-05 19:31:50.757065	267.1	33.2	-91.4	2.6
2025-01-05 19:31:51.904571	267.6	33.2	-91.8	4.1
2025-01-05 19:31:53.051644	268.0	33.2	-91.3	5.6
2025-01-05 19:31:54.203926	268.4	33.2	-91.3	7.5
2025-01-05 19:31:55.349403	268.8	33.2	-91.0	6.7
2025-01-05 19:31:56.495126	269.3	33.2	-91.0	8.6
2025-01-05 19:31:57.641361	269.7	33.2	-91.5	6.9
2025-01-05 19:31:58.787996	270.1	33.1	-91.8	10.8
2025-01-05 19:31:59.934726	270.5	33.1	-91.4	10.9
2025-01-05 19:32:01.073625	271.0	33.1	-91.7	7.4
2025-01-05 19:32:02.219895	271.4	33.1	-91.3	5.7
2025-01-05 19:32:03.361476	271.8	33.1	-91.4	7.6
2025-01-05 19:32:04.507107	272.2	33.1	-91.9	13.7
2025-01-05 19:32:05.655214	272.7	33.1	-91.3	15.7
2025-01-05 19:32:06.801734	273.1	33.0	-91.3	13.3
2025-01-05 19:32:07.942011	273.5	33.0	-91.4	5.2
2025-01-05 19:32:09.088798	273.9	33.0	-91.3	9.3
2025-01-05 19:32:10.234700	274.3	33.0	-91.6	8.0
2025-01-05 19:32:11.382056	274.8	32.9	-91.4	8.6
2025-01-05 19:32:12.528651	275.2	32.9	-91.6	3.9
2025-01-05 19:32:13.672075	275.6	32.9	-91.7	5.9
2025-01-05 19:32:14.821598	276.0	32.8	-91.2	2.6
2025-01-05 19:32:15.964693	276.4	32.8	-91.7	11.2
2025-01-05 19:32:17.113707	276.9	32.8	-91.6	9.7
2025-01-05 19:32:18.260333	277.3	32.7	-91.0	2.5
2025-01-05 19:32:19.408840	277.7	32.7	-91.7	4.3
2025-01-05 19:32:20.560309	278.1	32.6	-91.5	6.8
2025-01-05 19:32:21.708791	278.5	32.6	-91.5	7.3
2025-01-05 19:32:22.854818	278.9	32.6	-91.8	5.7
2025-01-05 19:32:23.995367	279.3	32.5	-91.7	9.0
2025-01-05 19:32:25.143774	279.8	32.5	-91.4	5.5
2025-01-05 19:32:26.290662	280.2	32.4	-91.3	3.1
2025-01-05 19:32:27.440921	280.6	32.4	-91.8	7.9
2025-01-05 19:32:28.591647	281.0	32.3	-91.6	6.4
2025-01-05 19:32:29.738551	281.4	32.2	-91.9	5.4
2025-01-05 19:32:30.886498	281.8	32.2	-91.3	6.2
2025-01-05 19:32:32.037501	282.2	32.1	-91.7	6.8
2025-01-05 19:32:33.290464	282.6	32.1	-91.6	2.1
2025-01-05 19:32:34.439755	283.0	32.0	-91.4	5.8
2025-01-05 19:32:35.585001	283.4	32.0	-91.3	5.5
2025-01-05 19:32:36.735119	283.8	31.9	-91.7	4.9
2025-01-05 19:32:37.879261	284.2	31.8	-91.3	3.2
2025-01-05 19:32:39.032026	284.6	31.8	-91.5	3.3
2025-01-05 19:32:40.176911	285.0	31.7	-91.7	5.6
2025-01-05 19:32:41.326797	285.4	31.6	-91.3	1.7
2025-01-05 19:32:42.473433	285.8	31.6	-91.6	4.9
2025-01-05 19:32:43.621873	286.2	31.5	-91.8	8.8
2025-01-05 19:32:44.771117	286.5	31.4	-91.1	3.4
2025-01-05 19:32:45.919826	286.9	31.3	-91.5	5.1
2025-01-05 19:32:47.069049	287.3	31.3	-91.3	6.0
2025-01-05 19:32:48.216026	287.7	31.2	-91.3	7.8
2025-01-05 19:32:49.364238	288.1	31.1	-91.6	4.6
2025-01-05 19:32:50.513928	288.4	31.0	-91.5	7.0
2025-01-05 19:32:51.660702	288.8	31.0	-91.8	4.5
2025-01-05 19:32:52.807064	289.2	30.9	-91.7	6.5
2025-01-05 19:32:53.954127	289.6	30.8	-91.2	2.6
2025-01-05 19:32:55.098310	289.9	30.7	-91.3	7.1
2025-01-05 19:32:56.230373	290.3	30.6	-91.0	4.7
2025-01-05 19:32:57.376402	290.7	30.6	-91.5	5.0
2025-01-05 19:32:58.523228	291.0	30.5	-91.8	6.2
2025-01-05 19:32:59.671797	291.4	30.4	-91.3	9.7
2025-01-05 19:33:00.814532	291.7	30.3	-91.8	6.8
2025-01-05 19:33:01.961760	292.1	30.2	-91.5	10.7
2025-01-05 19:33:03.107580	292.5	30.1	-91.6	10.8
2025-01-05 19:33:04.248607	292.8	30.0	-91.7	8.9
2025-01-05 19:33:05.398767	293.2	29.9	-91.4	2.0
2025-01-05 19:33:06.548194	293.5	29.9	-91.6	10.5
2025-01-05 19:33:07.695068	293.9	29.8	-91.9	9.7
2025-01-05 19:33:08.844464	294.2	29.7	-91.8	6.3
2025-01-05 19:33:09.989886	294.6	29.6	-91.5	9.0
2025-01-05 19:33:11.138489	294.9	29.5	-91.6	7.6
2025-01-05 19:33:12.290265	295.2	29.4	-91.6	7.0
2025-01-05 19:33:13.432219	295.6	29.3	-91.4	5.2
2025-01-05 19:33:14.578588	295.9	29.2	-91.7	8.5
2025-01-05 19:33:15.722606	296.2	29.1	-91.2	5.0
2025-01-05 19:33:16.874553	296.6	29.0	-91.5	6.0
2025-01-05 19:33:18.018751	296.9	28.9	-91.8	9.0
2025-01-05 19:33:19.166209	297.2	28.8	-91.3	5.4
2025-01-05 19:33:20.312379	297.6	28.7	-91.4	4.6
2025-01-05 19:33:21.465079	297.9	28.6	-91.3	4.5
2025-01-05 19:33:22.611434	298.2	28.5	-91.5	6.2
2025-01-05 19:33:23.753701	298.5	28.4	-91.6	7.5
2025-01-05 19:33:24.905256	298.8	28.3	-91.4	8.3
2025-01-05 19:33:26.050734	299.2	28.2	-91.3	8.7
2025-01-05 19:33:27.198477	299.5	28.1	-91.5	7.3
2025-01-05 19:33:28.342677	299.8	28.0	-91.2	4.9
2025-01-05 19:33:29.498240	300.1	27.9	-91.4	9.1
2025-01-05 19:33:30.645609	300.4	27.8	-91.6	9.0
2025-01-05 19:33:31.792288	300.7	27.7	-91.4	1.2
2025-01-05 19:33:32.938036	301.0	27.6	-91.5	5.4
2025-01-05 19:33:34.093781	301.3	27.5	-91.1	3.1
2025-01-05 19:33:35.236407	301.6	27.4	-91.1	2.3
2025-01-05 19:33:36.386157	301.9	27.2	-91.5	3.5
2025-01-05 19:33:37.533504	302.2	27.1	-91.4	4.2
2025-01-05 19:33:38.683247	302.5	27.0	-91.4	2.3
2025-01-05 19:33:39.830341	302.8	26.9	-91.1	2.1
2025-01-05 19:33:40.977762	303.1	26.8	-91.1	5.0
2025-01-05 19:33:42.125445	303.4	26.7	-91.2	2.5
2025-01-05 19:33:43.273432	303.7	26.6	-91.4	3.4
2025-01-05 19:33:44.419056	304.0	26.5	-91.3	6.5
2025-01-05 19:33:45.563595	304.2	26.4	-91.6	3.6
2025-01-05 19:33:46.707316	304.5	26.3	-91.4	3.7
2025-01-05 19:33:47.844852	304.8	26.2	-91.4	4.5
2025-01-05 19:33:48.991222	305.1	26.0	-91.5	10.8
2025-01-05 19:33:50.135262	305.4	25.9	-91.2	10.5
2025-01-05 19:33:51.283235	305.6	25.8	-91.2	4.4
2025-01-05 19:33:52.430577	305.9	25.7	-90.9	7.9
2025-01-05 19:33:53.580063	306.2	25.6	-91.1	14.2
2025-01-05 19:33:54.729141	306.4	25.5	-91.1	6.4
2025-01-05 19:33:55.879426	306.7	25.4	-91.4	10.4
2025-01-05 19:33:57.028912	307.0	25.3	-91.2	9.7
2025-01-05 19:33:58.168721	307.2	25.2	-91.2	12.3
2025-01-05 19:33:59.317269	307.5	25.0	-91.3	6.9
2025-01-05 19:34:00.453990	307.7	24.9	-91.6	7.9
2025-01-05 19:34:01.604506	308.0	24.8	-91.5	6.1
2025-01-05 19:34:02.750822	308.3	24.7	-92.2	7.6
2025-01-05 19:34:03.903142	308.5	24.6	-91.4	1.1
2025-01-05 19:34:05.052679	308.8	24.5	-91.5	2.0
2025-01-05 19:34:06.198348	309.0	24.4	-91.6	1.6
2025-01-05 19:34:07.345898	309.3	24.3	-91.3	1.3
2025-01-05 19:34:08.497222	309.5	24.1	-91.4	2.2
2025-01-05 19:34:09.642529	309.8	24.0	-91.9	1.9
2025-01-05 19:34:10.790426	310.0	23.9	-91.5	2.5
2025-01-05 19:34:11.937125	310.2	23.8	-91.7	3.9
2025-01-05 19:34:13.084194	310.5	23.7	-91.7	4.4
2025-01-05 19:34:14.230000	310.7	23.6	-91.3	3.9
2025-01-05 19:34:15.374383	311.0	23.5	-91.3	1.9
2025-01-05 19:34:16.522138	311.2	23.3	-91.8	6.9
2025-01-05 19:34:17.668119	311.4	23.2	-91.5	4.3
2025-01-05 19:34:18.817730	311.7	23.1	-91.3	3.3
2025-01-05 19:34:19.966411	311.9	23.0	-91.6	2.4
2025-01-05 19:34:21.111168	312.1	22.9	-91.6	2.5
2025-01-05 19:34:22.253630	312.3	22.8	-91.4	4.4
2025-01-05 19:34:23.397747	312.6	22.7	-91.3	5.7
2025-01-05 19:34:24.546184	312.8	22.6	-91.2	4.9
2025-01-05 19:34:25.701561	313.0	22.4	-90.7	5.1
2025-01-05 19:34:26.855602	313.2	22.3	-90.8	3.0
2025-01-05 19:34:28.004089	313.5	22.2	-91.3	3.4
2025-01-05 19:34:29.151297	313.7	22.1	-91.3	3.3
2025-01-05 19:34:30.296947	313.9	22.0	-91.1	2.7
2025-01-05 19:34:31.444549	314.1	21.9	-91.7	0.5
2025-01-05 19:34:32.590217	314.3	21.8	-91.7	2.5
2025-01-05 19:34:33.735712	314.5	21.7	-91.3	4.4
2025-01-05 19:34:34.884803	314.7	21.5	-90.9	1.3
2025-01-05 19:34:36.032711	314.9	21.4	-91.5	6.1
2025-01-05 19:34:37.180676	315.1	21.3	-91.3	3.9
2025-01-05 19:34:38.326994	315.4	21.2	-91.2	1.4
2025-01-05 19:34:39.472278	315.6	21.1	-91.8	2.1
2025-01-05 19:34:40.619972	315.8	21.0	-91.6	4.0
2025-01-05 19:34:41.765332	316.0	20.9	-91.0	4.7
2025-01-05 19:34:42.915572	316.2	20.8	-91.3	6.0
2025-01-05 19:34:44.067113	316.4	20.7	-91.2	1.8
2025-01-05 19:34:45.219419	316.6	20.5	-91.2	5.0
2025-01-05 19:34:46.365305	316.8	20.4	-90.9	5.1
2025-01-05 19:34:47.512762	316.9	20.3	-91.6	3.6
2025-01-05 19:34:48.661323	317.1	20.2	-91.7	4.0
2025-01-05 19:34:49.806551	317.3	20.1	-91.3	3.9
2025-01-05 19:34:50.953872	317.5	20.0	-91.6	2.6
2025-01-05 19:34:52.108748	317.7	19.9	-91.0	3.3
2025-01-05 19:34:53.261848	317.9	19.8	-90.9	2.0
2025-01-05 19:34:54.404997	318.1	19.7	-91.0	1.9
2025-01-05 19:34:55.548723	318.3	19.5	-91.5	3.8
2025-01-05 19:34:56.694372	318.5	19.4	-91.2	3.2
2025-01-05 19:34:57.842296	318.6	19.3	-91.2	2.0
2025-01-05 19:34:58.989887	318.8	19.2	-91.4	3.8
2025-01-05 19:35:00.151698	319.0	19.1	-91.3	3.0
2025-01-05 19:35:01.287965	319.2	19.0	-91.1	1.8
2025-01-05 19:35:02.433128	319.4	18.9	-91.2	4.0
2025-01-05 19:35:03.578656	319.5	18.8	-91.6	1.3
2025-01-05 19:35:04.724723	319.7	18.7	-91.5	4.3
2025-01-05 19:35:05.871318	319.9	18.6	-91.4	1.9
2025-01-05 19:35:07.018116	320.1	18.5	-91.6	3.2
2025-01-05 19:35:08.163642	320.2	18.4	-90.9	5.0
2025-01-05 19:35:09.308706	320.4	18.3	-91.1	2.6
2025-01-05 19:35:10.457836	320.6	18.1	-91.7	2.2
2025-01-05 19:35:11.600511	320.7	18.0	-91.4	3.0
2025-01-05 19:35:12.853604	320.9	17.9	-91.5	4.4
2025-01-05 19:35:13.997887	321.1	17.8	-91.5	0.0
2025-01-05 19:35:15.144413	321.2	17.7	-91.5	2.9
2025-01-05 19:35:16.295867	321.4	17.6	-91.7	2.4
2025-01-05 19:35:17.446879	321.6	17.5	-91.7	1.5
2025-01-05 19:35:18.601862	321.7	17.4	-91.5	1.7
2025-01-05 19:35:19.751370	321.9	17.3	-91.5	3.7
2025-01-05 19:35:20.895769	322.1	17.2	-91.9	2.8
2025-01-05 19:35:22.042625	322.2	17.1	-91.5	2.8
2025-01-05 19:35:23.191886	322.4	17.0	-91.3	3.5
2025-01-05 19:35:24.340911	322.5	16.9	-91.2	4.3
2025-01-05 19:35:25.485558	322.7	16.8	-91.6	2.6
2025-01-05 19:35:26.635265	322.8	16.7	-91.7	4.3
2025-01-05 19:35:27.782349	323.0	16.6	-91.9	2.1
2025-01-05 19:35:28.929098	323.1	16.5	-91.8	3.3
2025-01-05 19:35:30.074472	323.3	16.4	-91.4	1.3
2025-01-05 19:35:31.223162	323.4	16.3	-91.8	3.1
2025-01-05 19:35:32.373479	323.6	16.2	-91.6	1.6
2025-01-05 19:35:33.516455	323.7	16.1	-91.7	3.3
2025-01-05 19:35:34.661660	323.9	16.0	-91.9	3.1
2025-01-05 19:35:35.808261	324.0	15.9	-92.0	2.3
2025-01-05 19:35:36.954779	324.2	15.8	-91.6	3.5
2025-01-05 19:35:38.103574	324.3	15.6	-91.9	3.3
2025-01-05 19:35:39.252477	324.5	15.5	-91.8	3.9
2025-01-05 19:35:40.402883	324.6	15.4	-91.8	5.8
2025-01-05 19:35:41.550461	324.8	15.3	-91.5	3.5
2025-01-05 19:35:42.700281	324.9	15.2	-91.7	5.8
2025-01-05 19:35:43.847680	325.0	15.1	-91.7	3.9
2025-01-05 19:35:44.993402	325.2	15.0	-91.4	5.7
2025-01-05 19:35:46.141648	325.3	15.0	-91.4	1.9
2025-01-05 19:35:47.280230	325.4	14.9	-91.3	3.6
2025-01-05 19:35:48.421668	325.6	14.8	-91.5	1.7
2025-01-05 19:35:49.573034	325.7	14.7	-91.9	4.3
2025-01-05 19:35:50.717731	325.9	14.6	-91.5	1.5
#Closed at: 2025-01-05 19:28:03.542918