passes_logs/2025/01/12/X_MFTI_02/X_MFTI_02__20250112_233431_NOAA_20_rec.log

#Pass ID: 20250112_233431_NOAA 20
#Satellite: NOAA 20
#Configuration: NOAA 20
#Start time: 2025-01-12 23:34:25

#Version: 1.5.20200625
#Station: X_MFTI_02
#Location: 37.5186 lon 55.9291 lat
#TLE: 1 43013U 17073A   23362.44808611  .00000160  00000+0  96626-4 0  9996
#TLE: 2 43013  98.7331 297.9536 0000783  57.5916 302.5335 14.19555620316533

#Time	Az	El	Level	Level2	SNR	BER	Gain	Gain2
2025-01-12 23:34:25.88	57.77	68.34	-62.3	-87.5	3.2	15504173	84	65535
2025-01-12 23:34:26.09	57.96	68.41	-61.7	-86.9	3.2	15662506	84	65535
2025-01-12 23:34:26.30	58.14	68.48	-62.3	-87.5	3.0	15662506	84	65535
2025-01-12 23:34:26.51	58.33	68.55	-62.3	-87.5	3.0	15677299	84	65535
2025-01-12 23:34:26.71	58.52	68.62	-62.4	-87.6	3.0	15677299	84	65535
2025-01-12 23:34:26.92	58.71	68.69	-62.4	-87.6	3.1	15677299	84	65535
2025-01-12 23:34:27.13	58.91	68.76	-62.3	-87.5	3.2	15679069	85	65535
2025-01-12 23:34:27.34	59.10	68.83	-62.3	-87.5	3.2	15679069	85	65535
2025-01-12 23:34:27.54	59.29	68.90	-62.3	-87.5	3.0	15664588	84	65535
2025-01-12 23:34:27.75	59.49	68.96	-62.4	-87.6	3.4	15664588	84	65535
2025-01-12 23:34:27.96	59.69	69.03	-62.4	-87.6	3.2	15680320	84	65535
2025-01-12 23:34:28.17	59.89	69.10	-62.4	-87.6	3.3	15680320	84	65535
2025-01-12 23:34:28.37	60.08	69.17	-62.4	-87.6	3.2	15684654	84	65535
2025-01-12 23:34:28.58	60.29	69.23	-62.2	-87.4	3.1	15684654	84	65535
2025-01-12 23:34:28.79	60.49	69.30	-62.3	-87.5	3.0	15686653	84	65535
2025-01-12 23:34:29.00	60.70	69.37	-62.3	-87.5	3.0	15686653	84	65535
2025-01-12 23:34:29.21	60.91	69.44	-62.4	-87.6	3.0	15688323	84	65535
2025-01-12 23:34:29.41	61.11	69.50	-62.4	-87.6	3.0	15688323	84	65535
2025-01-12 23:34:29.62	61.32	69.57	-62.4	-87.6	3.0	15684890	84	65535
2025-01-12 23:34:29.83	61.53	69.64	-62.4	-87.6	3.2	15684890	84	65535
2025-01-12 23:34:30.03	61.74	69.70	-62.4	-87.6	3.1	15689933	84	65535
2025-01-12 23:34:30.24	61.95	69.77	-62.2	-87.4	3.0	15689933	84	65535
2025-01-12 23:34:30.44	62.16	69.83	-62.3	-87.5	3.1	15691726	84	65535
2025-01-12 23:34:30.65	62.38	69.90	-62.3	-87.5	3.1	15691726	84	65535
2025-01-12 23:34:30.86	62.60	69.96	-61.7	-86.9	3.0	15682151	84	65535
2025-01-12 23:34:31.06	62.81	70.02	-61.8	-87.0	3.0	15682151	84	65535
2025-01-12 23:34:31.27	63.03	70.09	-61.7	-86.9	2.8	15682151	84	65535
2025-01-12 23:34:31.48	63.26	70.16	-61.7	-86.9	3.2	15685447	84	65535
2025-01-12 23:34:31.68	63.47	70.22	-61.7	-86.9	3.1	15685447	84	65535
2025-01-12 23:34:31.89	63.70	70.28	-61.7	-86.9	3.0	15687812	84	65535
2025-01-12 23:34:32.10	63.93	70.35	-61.8	-87.0	3.0	15687812	84	65535
2025-01-12 23:34:32.31	64.16	70.41	-61.7	-86.9	3.0	15679229	84	65535
2025-01-12 23:34:32.51	64.39	70.47	-61.8	-87.0	3.0	15679229	84	65535
2025-01-12 23:34:32.72	64.62	70.54	-61.7	-86.9	3.0	15678855	84	65535
2025-01-12 23:34:32.93	64.86	70.60	-61.7	-86.9	2.9	15678855	84	65535
2025-01-12 23:34:33.14	65.09	70.66	-61.7	-86.9	3.1	15701583	84	65535
2025-01-12 23:34:33.34	65.32	70.72	-61.7	-86.9	3.0	15701583	84	65535
2025-01-12 23:34:33.55	65.56	70.78	-61.7	-86.9	3.0	15677207	84	65535
2025-01-12 23:34:33.76	65.81	70.85	-62.3	-87.5	3.0	15677207	84	65535
2025-01-12 23:34:33.96	66.04	70.91	-62.3	-87.5	3.0	15687919	84	65535
2025-01-12 23:34:34.17	66.28	70.97	-62.4	-87.6	3.2	15687919	84	65535
2025-01-12 23:34:34.38	66.53	71.03	-62.4	-87.6	3.0	15681419	84	65535
2025-01-12 23:34:34.58	66.77	71.09	-62.4	-87.6	2.4	15681419	84	65535
2025-01-12 23:34:34.79	67.02	71.15	-62.3	-87.5	3.0	15680099	84	65535
2025-01-12 23:34:35.00	67.27	71.21	-62.3	-87.5	3.0	15680099	84	65535
2025-01-12 23:34:35.21	67.53	71.27	-62.3	-87.5	3.0	15680099	84	65535
2025-01-12 23:34:35.41	67.77	71.33	-62.3	-87.5	3.0	15682472	84	65535
2025-01-12 23:34:35.62	68.03	71.39	-62.0	-87.2	3.2	15682472	84	65535
2025-01-12 23:34:35.83	68.29	71.45	-62.4	-87.6	3.0	15679809	84	65535
2025-01-12 23:34:36.03	68.54	71.50	-62.4	-87.6	3.0	15679809	84	65535
2025-01-12 23:34:36.24	68.80	71.56	-62.8	-88.0	2.7	15688575	83	65535
2025-01-12 23:34:36.45	69.07	71.62	-62.4	-87.6	3.0	15688575	84	65535
2025-01-12 23:34:36.65	69.32	71.68	-62.3	-87.5	3.0	15691040	84	65535
2025-01-12 23:34:36.86	69.59	71.73	-62.3	-87.6	3.0	15691040	84	65535
2025-01-12 23:34:37.06	69.84	71.79	-62.4	-87.6	3.1	15690887	84	65535
2025-01-12 23:34:37.27	70.12	71.84	-62.3	-87.5	3.1	15690887	84	65535
2025-01-12 23:34:37.48	70.39	71.90	-62.0	-87.2	3.0	15682746	84	65535
2025-01-12 23:34:37.68	70.65	71.96	-62.1	-87.3	3.0	15682746	84	65535
2025-01-12 23:34:37.89	70.93	72.01	-60.3	-85.5	3.2	15674072	82	65535
2025-01-12 23:34:38.10	71.21	72.07	-62.0	-87.2	2.7	15674072	84	65535
2025-01-12 23:34:38.31	71.49	72.12	-62.3	-87.5	3.0	15692184	84	65535
2025-01-12 23:34:38.51	71.76	72.17	-61.9	-87.1	3.0	15692184	84	65535
2025-01-12 23:34:38.72	72.04	72.23	-62.0	-87.2	3.0	15692184	84	65535
2025-01-12 23:34:38.92	72.32	72.28	-61.9	-87.1	3.0	15680122	84	65535
2025-01-12 23:34:39.13	72.60	72.33	-62.3	-87.5	3.2	15689331	84	65535
2025-01-12 23:34:39.33	72.88	72.39	-62.2	-87.4	3.1	15689331	84	65535
2025-01-12 23:34:39.54	73.17	72.44	-61.9	-87.1	3.0	15689331	84	65535
2025-01-12 23:34:39.74	73.45	72.49	-62.3	-87.6	3.0	15696853	84	65535
2025-01-12 23:34:39.95	73.75	72.54	-62.3	-87.5	3.0	15696853	84	65535
2025-01-12 23:34:40.16	74.04	72.59	-62.3	-87.5	3.0	15693626	84	65535
2025-01-12 23:34:40.36	74.33	72.64	-62.4	-87.6	3.3	15693626	84	65535
2025-01-12 23:34:40.57	74.63	72.69	-62.4	-87.6	3.4	15685905	84	65535
2025-01-12 23:34:40.77	74.92	72.74	-62.4	-87.6	3.3	15685905	84	65535
2025-01-12 23:34:40.98	75.22	72.79	-62.2	-87.4	3.0	15682220	84	65535
2025-01-12 23:34:41.19	75.53	72.84	-62.3	-87.5	3.0	15682220	84	65535
2025-01-12 23:34:41.40	75.83	72.89	-62.3	-87.5	3.0	15671409	84	65535
2025-01-12 23:34:41.60	76.13	72.94	-62.3	-87.5	3.0	15671409	84	65535
2025-01-12 23:34:41.81	76.44	72.98	-62.3	-87.6	3.0	15682334	84	65535
2025-01-12 23:34:42.02	76.75	73.03	-62.3	-87.6	3.0	15682334	84	65535
2025-01-12 23:34:42.22	77.05	73.08	-62.3	-87.5	3.0	15682334	84	65535
2025-01-12 23:34:42.43	77.37	73.12	-62.4	-87.6	3.2	15676170	84	65535
2025-01-12 23:34:42.64	77.69	73.17	-62.4	-87.6	3.1	15665779	84	65535
2025-01-12 23:34:42.85	78.01	73.22	-62.3	-87.5	3.0	15665779	84	65535
2025-01-12 23:34:43.05	78.32	73.26	-62.3	-87.5	3.0	15665779	84	65535
2025-01-12 23:34:43.26	78.64	73.31	-62.3	-87.5	3.0	15692443	84	65535
2025-01-12 23:34:43.47	78.97	73.35	-62.4	-87.6	3.3	15692443	84	65535
2025-01-12 23:34:43.67	79.28	73.39	-62.3	-87.6	3.4	15676887	84	65535
2025-01-12 23:34:43.88	79.61	73.44	-62.3	-87.5	3.0	15676887	84	65535
2025-01-12 23:34:44.08	79.93	73.48	-62.3	-87.5	3.0	15679809	84	65535
2025-01-12 23:34:44.29	80.26	73.52	-62.3	-87.5	3.1	15679809	84	65535
2025-01-12 23:34:44.50	80.60	73.56	-62.0	-87.2	3.1	15676254	84	65535
2025-01-12 23:34:44.71	80.93	73.60	-62.1	-87.3	2.8	15676254	84	65535
2025-01-12 23:34:44.91	81.25	73.64	-62.3	-87.5	3.0	15682075	84	65535
2025-01-12 23:34:45.12	81.59	73.68	-62.0	-87.2	2.9	15682075	84	65535
2025-01-12 23:34:45.33	81.94	73.72	-62.4	-87.6	3.3	15676963	84	65535
2025-01-12 23:34:45.54	82.28	73.76	-62.4	-87.6	3.2	15676963	84	65534
2025-01-12 23:34:45.74	82.61	73.80	-62.4	-87.6	3.3	15690834	84	65535
2025-01-12 23:34:45.95	82.96	73.84	-65.6	-90.8	3.1	15690834	84	65535
2025-01-12 23:34:46.16	83.31	73.88	-61.7	-86.9	3.0	15693962	84	65535
2025-01-12 23:34:46.37	83.66	73.91	-61.6	-86.8	2.4	15693962	83	65535
2025-01-12 23:34:46.57	83.99	73.95	-61.7	-86.9	3.0	15693962	84	65535
2025-01-12 23:34:46.78	84.35	73.98	-62.1	-87.3	3.0	15698104	84	65535
2025-01-12 23:34:46.99	84.70	74.02	-62.4	-87.6	3.0	15698104	84	65535
2025-01-12 23:34:47.19	85.04	74.05	-62.4	-87.6	3.0	15692749	84	65535
2025-01-12 23:34:47.40	85.40	74.09	-61.8	-87.0	3.0	15692749	84	65535
2025-01-12 23:34:47.61	85.76	74.12	-61.7	-86.9	3.0	15686157	84	65535
2025-01-12 23:34:47.82	86.12	74.15	-61.7	-86.9	3.0	15686157	84	65535
2025-01-12 23:34:48.02	86.47	74.19	-59.7	-84.9	3.2	15678611	81	65535
2025-01-12 23:34:48.23	86.83	74.22	-61.7	-86.9	3.1	15678611	83	65535
2025-01-12 23:34:48.44	87.20	74.25	-61.7	-86.9	3.2	15706550	83	65535
2025-01-12 23:34:48.64	87.55	74.28	-62.4	-87.6	3.2	15706550	84	65535
2025-01-12 23:34:48.85	87.92	74.31	-61.8	-87.0	3.2	15682418	84	65535
2025-01-12 23:34:49.06	88.29	74.34	-61.8	-87.0	3.1	15682418	84	65535
2025-01-12 23:34:49.26	88.65	74.37	-61.7	-86.9	3.0	15681892	84	65535
2025-01-12 23:34:49.47	89.02	74.39	-62.2	-87.4	3.0	15681892	84	65535
2025-01-12 23:34:49.68	89.40	74.42	-60.4	-85.6	3.1	15677246	81	65535
2025-01-12 23:34:49.88	89.75	74.45	-61.7	-86.9	3.0	15677246	84	65535
2025-01-12 23:34:50.09	90.13	74.48	-61.8	-87.0	3.0	15689453	84	65535
2025-01-12 23:34:50.30	90.51	74.50	-61.7	-86.9	3.0	15689453	84	65535
2025-01-12 23:34:50.51	90.89	74.53	-62.3	-87.5	3.0	15689453	84	65535
2025-01-12 23:34:50.72	91.27	74.55	-62.3	-87.5	3.0	15667793	84	65535
2025-01-12 23:34:50.92	91.64	74.57	-62.3	-87.5	3.1	15667793	84	65535
2025-01-12 23:34:51.13	92.02	74.60	-62.3	-87.5	3.1	15688041	84	65535
2025-01-12 23:34:51.34	92.41	74.62	-60.8	-86.0	3.2	15688041	83	65535
2025-01-12 23:34:51.54	92.78	74.64	-62.4	-87.6	3.2	15707298	84	65535
2025-01-12 23:34:51.75	93.16	74.66	-62.4	-87.6	3.3	15707298	84	65535
2025-01-12 23:34:51.95	93.53	74.68	-62.4	-87.6	3.1	15676391	84	65535
2025-01-12 23:34:52.16	93.92	74.70	-62.4	-87.6	3.2	15676391	84	65535
2025-01-12 23:34:52.37	94.31	74.72	-66.1	-91.3	3.1	15682807	84	65535
2025-01-12 23:34:52.58	94.71	74.74	-62.3	-87.5	3.0	15682807	84	65535
2025-01-12 23:34:52.79	95.10	74.76	-62.3	-87.5	3.0	15688102	84	65535
2025-01-12 23:34:52.99	95.47	74.78	-62.3	-87.5	3.1	15688102	84	65535
2025-01-12 23:34:53.20	95.87	74.79	-62.3	-87.5	3.0	15682762	84	65535
2025-01-12 23:34:53.41	96.26	74.81	-62.3	-87.5	3.0	15682762	84	65535
2025-01-12 23:34:53.62	96.66	74.82	-62.3	-87.5	3.0	15681175	84	65535
2025-01-12 23:34:53.82	97.04	74.84	-62.3	-87.5	3.0	15681175	84	65535
2025-01-12 23:34:54.03	97.44	74.85	-62.3	-87.5	3.0	15681297	84	65535
2025-01-12 23:34:54.24	97.84	74.86	-61.9	-87.1	3.0	15681297	84	65535
2025-01-12 23:34:54.45	98.24	74.88	-61.9	-87.1	3.0	15688766	84	65535
2025-01-12 23:34:54.65	98.62	74.89	-62.3	-87.6	3.3	15688766	84	65535
2025-01-12 23:34:54.86	99.02	74.90	-62.4	-87.6	3.4	15688766	84	65535
2025-01-12 23:34:55.07	99.42	74.91	-62.3	-87.5	3.3	15686035	84	65535
2025-01-12 23:34:55.28	99.82	74.92	-62.1	-87.3	3.0	15686035	84	65535
2025-01-12 23:34:55.49	100.22	74.93	-62.3	-87.5	3.1	15678001	84	65535
2025-01-12 23:34:55.69	100.61	74.94	-62.3	-87.5	3.0	15678001	84	65535
2025-01-12 23:34:55.90	101.01	74.95	-62.3	-87.5	3.0	15671760	84	65535
2025-01-12 23:34:56.11	101.41	74.95	-62.3	-87.5	3.0	15671760	84	65535
2025-01-12 23:34:56.32	101.82	74.96	-62.3	-87.5	3.0	15677131	84	65535
2025-01-12 23:34:56.52	102.20	74.96	-62.3	-87.5	3.0	15677131	84	65535
2025-01-12 23:34:56.73	102.61	74.97	-62.0	-87.2	3.3	15690460	84	65535
2025-01-12 23:34:56.94	103.01	74.97	-62.3	-87.5	3.2	15690460	84	65535
2025-01-12 23:34:57.15	103.42	74.98	-62.3	-87.5	3.1	15681770	84	65535
2025-01-12 23:34:57.35	103.80	74.98	-62.3	-87.5	3.0	15681770	84	65535
2025-01-12 23:34:57.56	104.21	74.98	-62.3	-87.5	3.0	15688415	84	65535
2025-01-12 23:34:57.77	104.62	74.98	-62.3	-87.5	3.0	15688415	84	65535
2025-01-12 23:34:57.98	105.02	74.98	-61.7	-86.9	3.3	15689521	84	65535
2025-01-12 23:34:58.18	105.41	74.98	-61.7	-86.9	3.3	15689521	84	65535
2025-01-12 23:34:58.39	105.81	74.98	-61.7	-86.9	3.1	15688194	84	65535
2025-01-12 23:34:58.60	106.22	74.98	-61.7	-86.9	3.2	15688194	84	65535
2025-01-12 23:34:58.81	106.62	74.98	-62.1	-87.3	3.2	15688194	85	65535
2025-01-12 23:34:59.01	107.01	74.98	-62.3	-87.5	3.2	15674453	85	65535
2025-01-12 23:34:59.22	107.42	74.97	-62.3	-87.5	3.2	15674453	85	65535
2025-01-12 23:34:59.43	107.82	74.97	-62.3	-87.5	3.2	15661560	85	65535
2025-01-12 23:34:59.64	108.23	74.96	-62.3	-87.5	3.3	15661560	84	65535
2025-01-12 23:34:59.84	108.61	74.96	-62.2	-87.4	3.0	15650230	84	65535
2025-01-12 23:35:00.05	109.01	74.95	-62.3	-87.5	3.1	15650230	84	65535
2025-01-12 23:35:00.25	109.40	74.94	-62.3	-87.5	3.0	15678588	84	65535
2025-01-12 23:35:00.46	109.80	74.94	-62.3	-87.5	3.3	15678588	85	65535
2025-01-12 23:35:00.67	110.21	74.93	-62.3	-87.5	3.3	15664215	85	65534
2025-01-12 23:35:00.88	110.61	74.92	-61.9	-87.1	3.4	15664215	84	65535
2025-01-12 23:35:01.08	110.99	74.91	-61.9	-87.1	3.2	15671844	84	65535
2025-01-12 23:35:01.29	111.39	74.90	-61.9	-87.2	3.3	15671844	84	65535
2025-01-12 23:35:01.49	111.77	74.89	-61.9	-87.1	2.3	15682365	83	65535
2025-01-12 23:35:01.70	112.17	74.87	-62.0	-87.2	3.1	15682365	84	65535
2025-01-12 23:35:01.91	112.57	74.86	-62.4	-87.7	3.2	15690650	84	65535
2025-01-12 23:35:02.11	112.95	74.85	-62.0	-87.2	3.0	15690650	84	65535
2025-01-12 23:35:02.32	113.35	74.83	-61.9	-87.1	3.0	15690650	84	65535
2025-01-12 23:35:02.53	113.75	74.82	-62.0	-87.2	3.0	15684059	84	65535
2025-01-12 23:35:02.74	114.14	74.80	-62.0	-87.2	3.0	15690391	84	65535
2025-01-12 23:35:02.95	114.54	74.79	-62.2	-87.4	3.0	15690391	84	65535
2025-01-12 23:35:03.15	114.91	74.77	-60.7	-85.9	3.3	15690391	82	65535
2025-01-12 23:35:03.36	115.31	74.75	-62.4	-87.6	3.0	15679908	84	65535
2025-01-12 23:35:03.57	115.70	74.74	-62.3	-87.5	3.2	15679908	85	65535
2025-01-12 23:35:03.78	116.09	74.72	-62.3	-87.5	3.2	15681457	85	65535
2025-01-12 23:35:03.98	116.47	74.70	-62.3	-87.5	3.0	15681457	84	65535
2025-01-12 23:35:04.19	116.85	74.68	-62.3	-87.5	3.1	15666923	84	65535
2025-01-12 23:35:04.40	117.24	74.66	-62.3	-87.5	3.0	15666923	84	65535
2025-01-12 23:35:04.60	117.61	74.64	-62.0	-87.2	3.0	15680526	84	65535
2025-01-12 23:35:04.81	118.00	74.61	-61.3	-86.5	3.1	15680526	84	65535
2025-01-12 23:35:05.01	118.37	74.59	-62.3	-87.5	3.0	15687828	84	65535
2025-01-12 23:35:05.21	118.73	74.57	-61.9	-87.1	3.0	15687828	84	65535
2025-01-12 23:35:05.42	119.11	74.54	-61.9	-87.1	3.0	15676910	84	65535
2025-01-12 23:35:05.63	119.50	74.52	-62.1	-87.3	3.0	15676910	84	65535
2025-01-12 23:35:05.84	119.88	74.49	-62.3	-87.5	3.0	15683128	84	65535
2025-01-12 23:35:06.04	120.24	74.47	-62.4	-87.6	3.0	15683128	84	65535
2025-01-12 23:35:06.25	120.62	74.44	-62.3	-87.5	3.0	15681671	84	65535
2025-01-12 23:35:06.46	120.99	74.42	-62.0	-87.2	3.0	15681671	84	65535
2025-01-12 23:35:06.67	121.37	74.39	-62.3	-87.5	3.0	15681671	84	65535
2025-01-12 23:35:06.87	121.72	74.36	-62.2	-87.4	3.0	15694541	84	65535
2025-01-12 23:35:07.08	122.10	74.33	-62.3	-87.5	3.0	15694541	84	65535
2025-01-12 23:35:07.29	122.47	74.30	-62.0	-87.2	3.0	15689903	84	65535
2025-01-12 23:35:07.50	122.84	74.27	-61.9	-87.1	3.0	15689903	84	65535
2025-01-12 23:35:07.70	123.19	74.24	-61.8	-87.0	3.0	15675857	84	65535
2025-01-12 23:35:07.91	123.55	74.21	-61.9	-87.1	3.0	15675857	84	65535
2025-01-12 23:35:08.11	123.90	74.18	-61.8	-87.0	3.0	15687225	84	65535
2025-01-12 23:35:08.32	124.26	74.15	-61.8	-87.0	2.9	15687225	83	65535
2025-01-12 23:35:08.53	124.62	74.11	-62.2	-87.4	3.0	15697921	84	65535
2025-01-12 23:35:08.73	124.97	74.08	-62.2	-87.4	3.0	15697921	84	65535
2025-01-12 23:35:08.94	125.33	74.05	-62.4	-87.6	3.0	15686340	84	65535
2025-01-12 23:35:09.15	125.68	74.01	-62.0	-87.2	3.0	15686340	84	65535
2025-01-12 23:35:09.36	126.04	73.97	-62.4	-87.6	3.0	15675964	84	65535
2025-01-12 23:35:09.57	126.39	73.94	-62.4	-87.6	3.0	15675964	84	65535
2025-01-12 23:35:09.77	126.73	73.90	-62.1	-87.3	3.0	15687683	84	65535
2025-01-12 23:35:09.98	127.08	73.87	-62.3	-87.5	3.0	15687683	84	65535
2025-01-12 23:35:10.19	127.43	73.83	-62.4	-87.6	3.0	15692878	84	65535
2025-01-12 23:35:10.39	127.76	73.79	-62.4	-87.6	3.1	15692878	84	65535
2025-01-12 23:35:10.60	128.10	73.75	-62.4	-87.6	3.2	15692878	84	65535
2025-01-12 23:35:10.81	128.45	73.71	-62.4	-87.6	3.2	15683074	84	65535
2025-01-12 23:35:11.02	128.79	73.67	-62.4	-87.6	3.1	15683074	84	65535
2025-01-12 23:35:11.22	129.11	73.63	-62.0	-87.3	3.0	15684265	84	65535
2025-01-12 23:35:11.43	129.45	73.59	-62.4	-87.6	3.1	15684265	84	65535
2025-01-12 23:35:11.64	129.79	73.55	-62.3	-87.5	2.9	15681121	84	65535
2025-01-12 23:35:11.85	130.12	73.51	-62.4	-87.6	3.0	15681121	84	65535
2025-01-12 23:35:12.05	130.44	73.47	-62.3	-87.5	3.2	15683120	84	65535
2025-01-12 23:35:12.26	130.77	73.42	-62.4	-87.6	3.1	15683120	84	65535
2025-01-12 23:35:12.47	131.10	73.38	-62.3	-87.5	3.2	15694908	84	65535
2025-01-12 23:35:12.67	131.41	73.34	-62.4	-87.6	3.1	15694908	84	65535
2025-01-12 23:35:12.88	131.74	73.29	-62.3	-87.5	3.2	15693832	85	65535
2025-01-12 23:35:13.09	132.06	73.25	-62.3	-87.5	3.2	15693832	85	65535
2025-01-12 23:35:13.29	132.37	73.20	-62.2	-87.4	2.8	15670730	84	65535
2025-01-12 23:35:13.50	132.69	73.16	-62.2	-87.4	3.1	15670730	84	65535
2025-01-12 23:35:13.71	133.01	73.11	-62.1	-87.3	3.1	15695114	84	65535
2025-01-12 23:35:13.92	133.33	73.06	-62.3	-87.5	3.2	15695114	84	65535
2025-01-12 23:35:14.12	133.63	73.02	-62.3	-87.5	3.1	15688377	84	65535
2025-01-12 23:35:14.33	133.94	72.97	-62.4	-87.6	3.0	15688377	84	65535
2025-01-12 23:35:14.54	134.25	72.92	-62.4	-87.6	3.0	15688842	84	65535
2025-01-12 23:35:14.74	134.55	72.88	-62.3	-87.5	3.0	15688842	84	65535
2025-01-12 23:35:14.95	134.85	72.83	-62.3	-87.5	2.1	15688842	84	65535
2025-01-12 23:35:15.16	135.16	72.78	-62.3	-87.5	3.1	15691764	84	65535
2025-01-12 23:35:15.37	135.46	72.73	-62.4	-87.6	3.2	15691764	84	65535
2025-01-12 23:35:15.58	135.77	72.68	-62.4	-87.6	3.0	15681182	84	65535
2025-01-12 23:35:15.78	136.05	72.63	-62.4	-87.6	3.0	15681182	84	65535
2025-01-12 23:35:15.99	136.35	72.57	-62.3	-87.5	3.0	15694236	84	65535
2025-01-12 23:35:16.20	136.65	72.52	-62.1	-87.3	3.0	15694236	84	65535
2025-01-12 23:35:16.40	136.93	72.47	-62.1	-87.3	3.0	15689582	84	65535
2025-01-12 23:35:16.61	137.22	72.42	-60.5	-85.7	3.3	15689582	82	65535
2025-01-12 23:35:16.82	137.51	72.37	-62.0	-87.2	2.8	15699722	83	65535
2025-01-12 23:35:17.02	137.79	72.32	-62.0	-87.2	2.8	15699722	83	65535
2025-01-12 23:35:17.23	138.08	72.26	-62.0	-87.2	3.1	15697700	83	65535
2025-01-12 23:35:17.44	138.36	72.21	-62.0	-87.2	3.0	15697700	83	65535
2025-01-12 23:35:17.65	138.64	72.15	-62.1	-87.3	3.1	15704139	84	65535
2025-01-12 23:35:17.85	138.91	72.10	-62.0	-87.2	3.0	15704139	84	65535
2025-01-12 23:35:18.06	139.19	72.04	-61.8	-87.1	3.0	15696945	84	65535
2025-01-12 23:35:18.27	139.47	71.99	-60.8	-86.0	3.3	15696945	83	65535
2025-01-12 23:35:18.48	139.75	71.93	-62.0	-87.2	3.0	15685897	84	65535
2025-01-12 23:35:18.69	140.02	71.88	-62.0	-87.2	3.0	15685897	84	65535
2025-01-12 23:35:18.89	140.28	71.82	-61.9	-87.1	3.0	15685897	84	65535
2025-01-12 23:35:19.10	140.56	71.76	-61.9	-87.1	3.0	15685432	84	65535
2025-01-12 23:35:19.31	140.83	71.71	-62.2	-87.4	3.1	15685432	84	65535
2025-01-12 23:35:19.51	141.08	71.65	-62.2	-87.4	3.0	15678817	84	65535
2025-01-12 23:35:19.72	141.35	71.59	-62.0	-87.2	3.0	15678817	84	65535
2025-01-12 23:35:19.92	141.60	71.54	-62.2	-87.4	3.0	15684089	84	65535
2025-01-12 23:35:20.13	141.86	71.48	-62.2	-87.4	3.3	15684089	84	65535
2025-01-12 23:35:20.34	142.12	71.42	-62.3	-87.5	3.1	15672378	84	65535
2025-01-12 23:35:20.54	142.37	71.36	-62.4	-87.6	3.2	15672378	84	65535
2025-01-12 23:35:20.75	142.63	71.30	-62.3	-87.5	3.2	15680145	84	65535
2025-01-12 23:35:20.96	142.88	71.24	-62.3	-87.5	3.0	15680145	84	65535
2025-01-12 23:35:21.16	143.12	71.18	-62.3	-87.5	3.0	15695861	84	65535
2025-01-12 23:35:21.37	143.38	71.12	-62.4	-87.6	3.0	15695861	84	65535
2025-01-12 23:35:21.58	143.63	71.06	-62.3	-87.5	3.3	15687690	84	65535
2025-01-12 23:35:21.78	143.86	71.00	-62.3	-87.5	3.2	15687690	84	65535
2025-01-12 23:35:21.99	144.11	70.94	-62.4	-87.6	3.2	15688362	84	65535
2025-01-12 23:35:22.20	144.36	70.88	-62.4	-87.6	3.1	15688362	84	65535
2025-01-12 23:35:22.40	144.59	70.82	-62.3	-87.5	3.0	15688362	84	65535
2025-01-12 23:35:22.61	144.83	70.76	-62.4	-87.6	3.0	15682754	84	65535
2025-01-12 23:35:22.82	145.07	70.70	-62.3	-87.5	3.1	15682754	84	65535
2025-01-12 23:35:23.03	145.31	70.63	-62.4	-87.6	2.9	15691513	84	65535
2025-01-12 23:35:23.24	145.55	70.57	-62.1	-87.3	2.9	15691513	84	65535
2025-01-12 23:35:23.44	145.77	70.51	-62.0	-87.2	2.9	15685684	84	65535
2025-01-12 23:35:23.65	146.01	70.44	-62.0	-87.2	2.9	15685684	84	65535
2025-01-12 23:35:23.86	146.24	70.38	-62.2	-87.4	3.0	15691078	84	65535
2025-01-12 23:35:24.06	146.46	70.32	-62.1	-87.3	3.2	15691078	85	65535
2025-01-12 23:35:24.27	146.69	70.25	-62.3	-87.6	3.1	15676078	85	65535
2025-01-12 23:35:24.48	146.92	70.19	-62.0	-87.2	3.2	15676078	85	65535

#Closed at: 2025-01-12 23:35:24