passes_logs/2025/01/12/X_MFTI_02/X_MFTI_02__20250112_080006_TERRA_rec.log

#Pass ID: 20250112_080006_TERRA
#Satellite: TERRA
#Configuration: TERRA
#Start time: 2025-01-12 08:00:02

#Version: 1.5.20200625
#Station: X_MFTI_02
#Location: 37.5186 lon 55.9291 lat
#TLE: 1 25994U 99068A   23362.45014226  .00000817  00000+0  18168-3 0  9993
#TLE: 2 25994  98.0729  65.8244 0002317 146.5078 343.6211 14.59509299278111

#Time	Az	El	Level	Level2	SNR	BER	Gain	Gain2
2025-01-12 08:00:02.46	1.17	68.61	-76.2	-96.1	3.2	14926002	99	35624
2025-01-12 08:00:02.89	0.98	68.84	-76.2	-96.2	3.3	14909133	99	35846
2025-01-12 08:00:03.31	0.79	69.06	-76.2	-96.2	3.2	14905632	99	35863
2025-01-12 08:00:03.71	0.60	69.27	-76.2	-96.2	3.3	14896148	99	35905
2025-01-12 08:00:04.11	0.41	69.48	-76.2	-96.2	3.3	14855232	99	35790
2025-01-12 08:00:04.51	0.22	69.69	-76.2	-96.1	3.3	14895271	99	35430
2025-01-12 08:00:04.93	0.01	69.92	-76.2	-96.2	3.3	14895271	99	35801
2025-01-12 08:00:05.36	359.78	70.15	-76.2	-96.3	3.3	14909477	99	36085
2025-01-12 08:00:05.76	359.57	70.36	-76.2	-96.2	3.3	14874626	99	36058
2025-01-12 08:00:06.18	359.35	70.58	-76.2	-96.1	3.2	14891769	99	35627
2025-01-12 08:00:06.59	359.12	70.80	-76.2	-96.2	3.3	14898635	99	35899
2025-01-12 08:00:07.02	358.88	71.03	-76.2	-96.2	3.3	14880065	99	35916
2025-01-12 08:00:07.44	358.64	71.26	-76.2	-96.1	3.3	14880065	99	35575
2025-01-12 08:00:07.85	358.39	71.47	-76.2	-96.1	3.3	14873664	99	35403
2025-01-12 08:00:08.27	358.14	71.70	-76.2	-96.1	3.3	14898971	99	35576
2025-01-12 08:00:08.69	357.87	71.92	-76.2	-96.1	3.3	14886337	99	35546
2025-01-12 08:00:09.10	357.61	72.14	-76.2	-96.1	3.3	14882469	99	35603
2025-01-12 08:00:09.52	357.33	72.37	-76.2	-96.2	3.3	14899734	99	35767
2025-01-12 08:00:09.92	357.06	72.58	-76.2	-96.2	3.4	14899734	99	35907
2025-01-12 08:00:10.34	356.77	72.81	-76.2	-96.1	3.3	14880805	99	35670
2025-01-12 08:00:10.76	356.47	73.03	-76.2	-96.1	3.2	14874565	99	35600
2025-01-12 08:00:11.17	356.16	73.25	-76.2	-96.1	3.2	14915206	99	35377
2025-01-12 08:00:11.58	355.85	73.47	-76.4	-97.3	3.4	14894058	99	39787
2025-01-12 08:00:11.99	355.53	73.69	-76.2	-96.2	3.3	14866394	99	35839
2025-01-12 08:00:12.42	355.19	73.92	-76.2	-96.1	3.3	14866394	99	35595
2025-01-12 08:00:12.83	354.85	74.14	-76.2	-96.1	3.3	14910667	99	35574
2025-01-12 08:00:13.24	354.50	74.36	-76.4	-97.2	3.2	14892173	99	39190
2025-01-12 08:00:13.67	354.13	74.59	-76.2	-96.2	3.3	14857284	99	35844
2025-01-12 08:00:14.08	353.76	74.81	-76.2	-96.2	3.2	14902229	99	35958
2025-01-12 08:00:14.49	353.37	75.03	-76.2	-96.2	3.3	14906745	99	35863
2025-01-12 08:00:14.91	352.97	75.25	-76.4	-97.4	3.2	14906745	99	40299
2025-01-12 08:00:15.31	352.58	75.47	-76.2	-96.2	3.3	14865028	99	35675
2025-01-12 08:00:15.72	352.16	75.68	-76.2	-96.2	3.2	14909233	99	35935
2025-01-12 08:00:16.12	351.74	75.90	-76.2	-96.2	3.3	14903533	99	36069
2025-01-12 08:00:16.55	351.27	76.12	-76.2	-96.2	3.2	14857620	99	35742
2025-01-12 08:00:16.97	350.80	76.34	-76.2	-96.1	3.2	14905815	99	35530
2025-01-12 08:00:17.39	350.31	76.57	-76.2	-96.1	3.2	14905815	99	35428
2025-01-12 08:00:17.80	349.81	76.78	-76.2	-96.1	3.4	14902153	99	35536
2025-01-12 08:00:18.20	349.32	76.99	-76.2	-96.1	3.2	14851730	99	35518
2025-01-12 08:00:18.62	348.78	77.21	-76.2	-96.2	3.3	14893440	99	35887
2025-01-12 08:00:19.04	348.22	77.43	-76.2	-96.2	2.9	14900230	99	35775
2025-01-12 08:00:19.45	347.65	77.64	-76.2	-96.3	3.4	14900230	99	36049
2025-01-12 08:00:19.86	347.06	77.85	-76.2	-96.1	3.3	14858619	99	35559
2025-01-12 08:00:20.28	346.44	78.07	-76.2	-96.2	3.2	14909133	99	35794
2025-01-12 08:00:20.70	345.79	78.28	-76.2	-96.2	3.3	14904495	99	35601
2025-01-12 08:00:21.10	345.15	78.48	-76.2	-96.2	3.3	14867462	99	35684
2025-01-12 08:00:21.50	344.49	78.69	-76.2	-96.2	3.3	14889167	99	35731
2025-01-12 08:00:21.90	343.81	78.89	-76.2	-96.1	3.3	14889167	99	35486
2025-01-12 08:00:22.31	343.08	79.09	-76.2	-96.2	3.4	14892890	99	35848
2025-01-12 08:00:22.71	342.34	79.29	-76.2	-96.2	3.3	14878440	99	35952
2025-01-12 08:00:23.14	341.51	79.50	-76.2	-96.2	3.2	14878524	99	35719
2025-01-12 08:00:23.56	340.67	79.70	-76.0	-95.9	3.3	14903839	99	35690
2025-01-12 08:00:23.97	339.81	79.90	-76.2	-96.2	3.3	14906135	99	35949
2025-01-12 08:00:24.41	338.86	80.11	-76.2	-96.2	3.3	14906135	99	35794
2025-01-12 08:00:24.82	337.93	80.30	-76.2	-96.2	3.3	14876037	99	35665
2025-01-12 08:00:25.22	336.99	80.48	-76.2	-96.1	3.2	14904815	99	35389
2025-01-12 08:00:25.64	335.96	80.68	-76.2	-96.2	3.3	14893051	99	35782
2025-01-12 08:00:26.04	334.94	80.86	-76.2	-96.1	3.3	14870475	99	35644
2025-01-12 08:00:26.44	333.88	81.03	-76.2	-96.2	3.3	14870475	99	35637
2025-01-12 08:00:26.86	332.72	81.22	-76.2	-96.3	3.2	14903335	99	36239
2025-01-12 08:00:27.28	331.50	81.40	-76.3	-96.3	3.3	14892700	99	36210
2025-01-12 08:00:27.71	330.21	81.58	-76.2	-96.1	3.3	14863311	99	35574
2025-01-12 08:00:28.12	328.92	81.74	-76.2	-96.2	3.3	14902343	99	35774
2025-01-12 08:00:28.56	327.48	81.92	-76.2	-96.1	3.3	14911689	99	35672
2025-01-12 08:00:28.96	326.12	82.07	-76.2	-96.1	3.3	14911689	99	35506
2025-01-12 08:00:29.38	324.63	82.23	-76.2	-96.3	3.2	14878822	99	36081
2025-01-12 08:00:29.78	323.16	82.37	-76.2	-96.2	3.2	14888702	99	35949
2025-01-12 08:00:30.18	321.62	82.51	-76.2	-96.3	3.4	14904449	99	36116
2025-01-12 08:00:30.60	319.95	82.65	-76.2	-96.2	3.3	14857475	99	35888
2025-01-12 08:00:31.02	318.22	82.79	-76.2	-96.2	3.3	14900924	99	35984
2025-01-12 08:00:31.43	316.46	82.91	-76.2	-96.0	3.4	14900924	99	35306
2025-01-12 08:00:31.85	314.59	83.03	-76.2	-96.2	3.4	14906471	99	35740
2025-01-12 08:00:32.27	312.67	83.15	-76.2	-96.1	3.2	14877616	99	35595
2025-01-12 08:00:32.68	310.72	83.25	-76.2	-96.3	3.2	14889854	99	36066
2025-01-12 08:00:33.10	308.67	83.35	-76.2	-96.2	3.2	14899101	99	35887
2025-01-12 08:00:33.50	306.66	83.43	-76.2	-96.3	3.3	14880958	99	36032
2025-01-12 08:00:33.92	304.50	83.51	-76.2	-96.2	3.3	14880958	99	35810
2025-01-12 08:00:34.32	302.39	83.58	-76.2	-96.2	3.3	14897285	99	35948
2025-01-12 08:00:34.72	300.24	83.64	-76.2	-96.2	3.3	14908737	99	35819
2025-01-12 08:00:35.14	297.95	83.69	-76.2	-96.2	3.3	14900512	99	35646
2025-01-12 08:00:35.54	295.73	83.73	-76.2	-96.2	3.3	14904129	99	35830
2025-01-12 08:00:35.96	293.37	83.76	-76.2	-96.3	3.2	14904129	99	36153
2025-01-12 08:00:36.39	290.94	83.78	-76.2	-96.2	3.3	14909934	99	35794
2025-01-12 08:00:36.79	288.66	83.79	-76.2	-96.5	3.4	14917633	99	37041
2025-01-12 08:00:37.22	286.21	83.79	-76.2	-96.1	3.2	14908378	99	35589
2025-01-12 08:00:37.62	283.94	83.78	-76.3	-96.1	3.0	14893211	99	35350
2025-01-12 08:00:38.04	281.56	83.76	-76.3	-96.2	3.2	14905761	99	35729
2025-01-12 08:00:38.45	279.26	83.73	-76.5	-97.4	3.1	14905761	99	39946
2025-01-12 08:00:38.86	276.98	83.69	-76.2	-96.2	3.2	14911499	99	35795
2025-01-12 08:00:39.28	274.69	83.63	-76.3	-96.2	3.4	14898971	99	35767
2025-01-12 08:00:39.70	272.44	83.57	-76.3	-96.2	3.3	14873710	99	35760
2025-01-12 08:00:40.12	270.23	83.50	-76.5	-97.4	3.2	14865814	99	40055
2025-01-12 08:00:40.53	268.12	83.42	-76.2	-96.1	3.3	14902008	99	35339
2025-01-12 08:00:40.95	266.02	83.33	-76.2	-96.3	3.3	14902008	99	36127
2025-01-12 08:00:41.37	263.98	83.23	-76.3	-96.3	3.3	14885261	99	36058
2025-01-12 08:00:41.77	262.09	83.13	-76.4	-97.2	3.1	14867012	99	39207
2025-01-12 08:00:42.19	260.17	83.02	-76.2	-96.2	3.3	14902359	99	35850
2025-01-12 08:00:42.60	258.36	82.90	-76.3	-96.2	3.3	14906257	99	35733
2025-01-12 08:00:43.01	256.61	82.77	-76.3	-96.2	3.2	14909477	99	35764
2025-01-12 08:00:43.41	254.96	82.64	-76.2	-96.2	3.2	14909477	99	35754
2025-01-12 08:00:43.84	253.26	82.50	-76.3	-96.2	3.2	14902488	99	35612
2025-01-12 08:00:44.24	251.73	82.36	-76.2	-96.2	3.4	14896697	99	35856
2025-01-12 08:00:44.66	250.19	82.21	-76.2	-96.1	3.3	14861938	99	35625
2025-01-12 08:00:45.08	248.71	82.05	-76.2	-96.2	3.3	14908042	99	35811
2025-01-12 08:00:45.49	247.32	81.89	-76.2	-96.3	3.3	14903518	99	36229
2025-01-12 08:00:45.91	245.95	81.72	-76.3	-96.3	3.3	14903518	99	36215
2025-01-12 08:00:46.31	244.70	81.56	-76.2	-96.2	3.3	14881057	99	35951
2025-01-12 08:00:46.73	243.44	81.38	-76.2	-96.2	3.2	14908378	99	35775
2025-01-12 08:00:47.14	242.26	81.21	-76.2	-96.2	3.3	14900993	99	35969
2025-01-12 08:00:47.58	241.05	81.01	-76.2	-96.2	3.3	14882621	99	35861
2025-01-12 08:00:48.01	239.91	80.82	-76.2	-96.2	3.3	14893272	99	35927
2025-01-12 08:00:48.42	238.87	80.64	-76.2	-96.2	3.2	14917037	99	36049
2025-01-12 08:00:48.84	237.85	80.45	-76.2	-96.3	3.3	14917037	99	36320
2025-01-12 08:00:49.24	236.92	80.26	-76.2	-96.3	3.3	14862312	99	36183
2025-01-12 08:00:49.66	235.97	80.06	-76.2	-96.2	3.3	14891380	99	35789
2025-01-12 08:00:50.08	235.07	79.86	-76.2	-96.2	3.3	14907180	99	35783
2025-01-12 08:00:50.48	234.24	79.67	-76.2	-96.2	3.3	14874282	99	35832
2025-01-12 08:00:50.90	233.40	79.47	-76.2	-96.2	3.2	14874282	99	35898
2025-01-12 08:00:51.31	232.62	79.26	-76.3	-96.3	3.3	14885513	99	35941
2025-01-12 08:00:51.72	231.86	79.06	-76.3	-96.3	3.4	14909950	99	36164
2025-01-12 08:00:52.13	231.13	78.86	-76.2	-96.3	3.4	14866378	99	36188
2025-01-12 08:00:52.54	230.43	78.65	-76.2	-96.2	3.2	14884010	99	35731
2025-01-12 08:00:52.95	229.76	78.44	-76.2	-96.2	3.2	14902496	99	35830
2025-01-12 08:00:53.37	229.09	78.23	-76.2	-96.2	3.3	14902496	99	35852
2025-01-12 08:00:53.77	228.48	78.03	-76.2	-96.2	3.3	14884429	99	35832
2025-01-12 08:00:54.19	227.86	77.81	-76.2	-96.2	3.3	14883972	99	35711
2025-01-12 08:00:54.61	227.27	77.59	-76.3	-96.2	3.3	14914154	99	35780
2025-01-12 08:00:55.04	226.68	77.37	-76.3	-96.3	3.3	14893295	99	35904
2025-01-12 08:00:55.46	226.12	77.15	-76.2	-96.2	3.2	14860382	99	35785
2025-01-12 08:00:55.89	225.57	76.93	-76.3	-96.2	3.2	14860382	99	35834
2025-01-12 08:00:56.29	225.08	76.72	-76.2	-96.2	3.3	14904243	99	35989
2025-01-12 08:00:56.69	224.60	76.51	-76.2	-96.2	3.3	14881507	99	35881
2025-01-12 08:00:57.10	224.13	76.29	-76.2	-96.2	3.2	14863449	99	35941
2025-01-12 08:00:57.50	223.68	76.08	-76.3	-96.3	3.3	14901321	99	36146
2025-01-12 08:00:57.91	223.24	75.86	-76.3	-96.3	3.3	14894302	99	35870
2025-01-12 08:00:58.32	222.81	75.64	-76.2	-96.3	3.3	14894302	99	36175
2025-01-12 08:00:58.72	222.40	75.43	-76.2	-96.2	3.3	14849678	99	35901
2025-01-12 08:00:59.14	221.99	75.21	-76.3	-96.2	3.2	14902626	99	35867
2025-01-12 08:00:59.54	221.60	74.99	-76.3	-96.2	3.5	14893196	99	35893
2025-01-12 08:00:59.97	221.20	74.76	-76.2	-96.2	3.2	14862983	99	35896
2025-01-12 08:01:00.39	220.83	74.54	-76.2	-96.2	3.3	14862983	99	35906
2025-01-12 08:01:00.79	220.48	74.33	-76.2	-96.2	3.2	14897743	99	35791
2025-01-12 08:01:01.22	220.11	74.09	-76.2	-96.2	3.3	14912185	99	35983
2025-01-12 08:01:01.63	219.78	73.87	-76.2	-96.1	3.3	14859352	99	35747
2025-01-12 08:01:02.06	219.43	73.64	-76.2	-96.2	3.3	14904556	99	35851
2025-01-12 08:01:02.49	219.10	73.41	-76.3	-96.2	3.3	14903762	99	35869
2025-01-12 08:01:02.89	218.80	73.20	-76.2	-96.2	3.3	14903762	99	35988
2025-01-12 08:01:03.31	218.49	72.97	-76.2	-96.2	3.3	14862228	99	35937
2025-01-12 08:01:03.72	218.20	72.75	-76.2	-96.3	3.2	14890411	99	36160
2025-01-12 08:01:04.16	217.90	72.52	-76.2	-96.2	3.3	14905380	99	36054
2025-01-12 08:01:04.56	217.63	72.30	-76.3	-96.3	3.2	14881996	99	36284
2025-01-12 08:01:04.98	217.35	72.08	-76.3	-96.2	3.3	14899085	99	35749
2025-01-12 08:01:05.38	217.09	71.86	-76.3	-96.3	3.3	14899085	99	36009
2025-01-12 08:01:05.80	216.83	71.64	-76.3	-96.3	3.3	14905723	99	36082
2025-01-12 08:01:06.20	216.59	71.42	-76.3	-96.2	3.3	14862319	99	35906
2025-01-12 08:01:06.62	216.34	71.20	-76.2	-96.1	3.3	14882492	99	35578
2025-01-12 08:01:07.02	216.11	70.98	-76.2	-96.3	3.4	14907142	99	36113
2025-01-12 08:01:07.42	215.88	70.77	-76.2	-96.3	3.2	14902908	99	36042
2025-01-12 08:01:07.84	215.65	70.55	-76.3	-96.3	3.3	14902908	99	35907

#Closed at: 2025-01-12 08:01:08