passes_logs/2025/01/12/X_MFTI_02/X_MFTI_02__20250112_111529_FENGYUN_3D_rec.log

#Pass ID: 20250112_111529_FENGYUN 3D
#Satellite: FENGYUN 3D
#Configuration: FENGYUN 3D
#Start time: 2025-01-12 11:15:24

#Version: 1.5.20200625
#Station: X_MFTI_02
#Location: 37.5186 lon 55.9291 lat
#TLE: 1 43010U 17072A   23362.50642187  .00000183  00000+0  10870-3 0  9994
#TLE: 2 43010  98.8887 311.3857 0002475  98.0400 262.1057 14.19259665317063

#Time	Az	El	Level	Level2	SNR	BER	Gain	Gain2
2025-01-12 11:15:24.91	143.12	68.36	-69.4	-88.2	3.7	8446414	99	31554
2025-01-12 11:15:25.34	142.95	68.55	-67.6	-88.5	3.8	8456886	95	39815
2025-01-12 11:15:25.77	142.78	68.74	-67.5	-88.3	3.9	8458339	95	39220
2025-01-12 11:15:26.20	142.60	68.93	-68.0	-88.7	3.7	8465366	95	39034
2025-01-12 11:15:26.63	142.42	69.11	-67.7	-86.4	3.8	8470493	99	31229
2025-01-12 11:15:27.03	142.25	69.29	-68.5	-88.7	3.9	8452068	96	36859
2025-01-12 11:15:27.46	142.06	69.48	-69.6	-88.4	3.9	8456565	99	31189
2025-01-12 11:15:27.89	141.87	69.67	-68.5	-88.2	3.8	8459621	97	34606
2025-01-12 11:15:28.32	141.68	69.86	-67.3	-87.6	3.8	8443439	96	37517
2025-01-12 11:15:28.75	141.48	70.05	-67.6	-87.9	3.8	8450729	96	37265
2025-01-12 11:15:29.17	141.28	70.23	-67.8	-88.2	3.8	8457298	95	37749
2025-01-12 11:15:29.60	141.07	70.42	-67.5	-88.1	3.9	8456748	95	38477
2025-01-12 11:15:30.01	140.87	70.61	-68.2	-88.6	3.8	8467586	96	38053
2025-01-12 11:15:30.44	140.66	70.80	-67.9	-88.6	3.8	8449333	95	38985
2025-01-12 11:15:30.87	140.44	70.99	-67.3	-86.3	3.8	8468856	98	31930
2025-01-12 11:15:31.30	140.21	71.18	-67.6	-88.5	3.8	8459003	95	39799
2025-01-12 11:15:31.73	139.98	71.37	-69.6	-89.1	3.8	8450935	98	33882
2025-01-12 11:15:32.15	139.75	71.55	-69.4	-88.7	3.8	8458831	98	33191
2025-01-12 11:15:32.57	139.52	71.74	-68.4	-87.0	3.8	8458305	99	30608
2025-01-12 11:15:32.98	139.28	71.92	-69.0	-88.6	3.7	8454299	97	34315
2025-01-12 11:15:33.41	139.03	72.11	-68.7	-88.2	3.7	8463764	98	34022
2025-01-12 11:15:33.84	138.78	72.30	-69.6	-88.7	3.9	8463947	98	32417
2025-01-12 11:15:34.27	138.52	72.49	-67.2	-87.9	3.8	8460479	95	39058
2025-01-12 11:15:34.70	138.25	72.68	-69.7	-88.8	3.9	8448955	98	32677
2025-01-12 11:15:35.13	137.97	72.87	-68.4	-87.9	3.9	8461212	97	33991
2025-01-12 11:15:35.55	137.70	73.06	-68.8	-88.9	3.7	8451461	96	36490
2025-01-12 11:15:35.98	137.41	73.25	-67.7	-87.2	3.9	8464084	97	33966
2025-01-12 11:15:36.41	137.12	73.44	-67.9	-88.5	3.9	8458648	95	38747
2025-01-12 11:15:36.82	136.83	73.62	-68.2	-88.5	3.7	8443988	96	37322
2025-01-12 11:15:37.25	136.52	73.81	-67.5	-88.2	3.8	8464805	95	39096
2025-01-12 11:15:37.67	136.21	74.00	-67.2	-87.5	3.8	8474842	96	37223
2025-01-12 11:15:38.10	135.89	74.19	-67.7	-88.5	3.8	8454780	95	39179
2025-01-12 11:15:38.53	135.55	74.38	-67.7	-88.4	3.8	8469406	95	38850
2025-01-12 11:15:38.96	135.21	74.57	-69.4	-89.3	3.7	8461429	97	35947
2025-01-12 11:15:39.38	134.87	74.75	-67.7	-88.5	3.7	8458042	95	39412
2025-01-12 11:15:39.81	134.51	74.94	-68.2	-88.3	3.8	8462516	97	36178
2025-01-12 11:15:40.24	134.14	75.13	-68.2	-88.4	3.8	8454860	96	36766
2025-01-12 11:15:40.65	133.78	75.31	-68.1	-88.5	3.8	8453350	96	37533
2025-01-12 11:15:41.08	133.39	75.49	-69.1	-89.4	3.8	8457824	96	37136
2025-01-12 11:15:41.51	133.00	75.68	-67.7	-87.8	3.8	8459346	96	36422
2025-01-12 11:15:41.94	132.59	75.87	-66.8	-87.0	3.9	8463478	95	37089
2025-01-12 11:15:42.36	132.17	76.05	-67.2	-87.4	3.7	8464084	96	36973
2025-01-12 11:15:42.77	131.76	76.23	-67.6	-88.4	3.8	8462928	95	39408
2025-01-12 11:15:43.20	131.32	76.41	-67.4	-88.0	3.8	8455902	95	38849
2025-01-12 11:15:43.63	130.86	76.60	-68.7	-89.0	3.7	8462768	96	36917
2025-01-12 11:15:44.06	130.39	76.78	-69.7	-88.6	3.9	8455238	99	31419
2025-01-12 11:15:44.49	129.91	76.97	-69.5	-88.3	3.7	8469875	99	31342
2025-01-12 11:15:44.93	129.40	77.15	-69.4	-88.9	3.8	8449344	97	33962
2025-01-12 11:15:45.36	128.88	77.33	-69.8	-89.0	3.9	8454540	98	32742
2025-01-12 11:15:45.79	128.36	77.52	-69.6	-90.2	3.8	8458511	96	38493
2025-01-12 11:15:46.22	127.81	77.70	-68.9	-88.9	3.8	8459346	99	36056
2025-01-12 11:15:46.63	127.28	77.87	-68.1	-87.9	3.9	8456417	97	34995
2025-01-12 11:15:47.06	126.70	78.05	-68.2	-87.8	3.8	8461338	97	34487
2025-01-12 11:15:47.49	126.10	78.22	-69.7	-89.2	3.9	8455135	98	34036
2025-01-12 11:15:47.93	125.48	78.40	-68.4	-87.7	3.9	8466693	98	33450
2025-01-12 11:15:48.36	124.84	78.58	-68.3	-88.5	3.9	8465858	96	36614
2025-01-12 11:15:48.77	124.22	78.74	-68.4	-88.1	3.8	8456336	97	34493
2025-01-12 11:15:49.20	123.54	78.92	-69.1	-88.9	3.8	8465652	97	34938
2025-01-12 11:15:49.62	122.87	79.08	-68.2	-88.2	3.8	8471878	96	35997
2025-01-12 11:15:50.05	122.15	79.25	-68.6	-87.8	3.9	8458293	98	32541
2025-01-12 11:15:50.48	121.41	79.42	-69.7	-88.6	3.7	8457344	99	31830
2025-01-12 11:15:50.91	120.64	79.59	-69.8	-88.4	3.7	8462230	99	30803
2025-01-12 11:15:51.32	119.89	79.75	-69.5	-89.1	3.7	8460605	97	34339
2025-01-12 11:15:51.76	119.05	79.91	-68.3	-87.7	3.8	8462139	98	33331
2025-01-12 11:15:52.19	118.21	80.07	-69.4	-88.2	3.8	8462047	99	31284
2025-01-12 11:15:52.62	117.34	80.23	-67.9	-87.4	3.8	8455593	97	33611
2025-01-12 11:15:53.05	116.44	80.39	-69.2	-88.0	3.8	8458625	99	31405
2025-01-12 11:15:53.48	115.50	80.54	-69.2	-88.9	4.0	8458705	97	34519
2025-01-12 11:15:53.89	114.59	80.69	-69.7	-88.2	3.7	8455352	99	30276
2025-01-12 11:15:54.31	113.62	80.83	-69.5	-88.0	3.8	8448806	99	30325
2025-01-12 11:15:54.74	112.59	80.98	-69.8	-89.4	3.7	8468433	98	34479
2025-01-12 11:15:55.17	111.53	81.13	-68.3	-87.6	3.9	8458282	98	33223
2025-01-12 11:15:55.58	110.49	81.26	-68.4	-87.4	3.8	8465812	98	32228
2025-01-12 11:15:56.01	109.36	81.40	-68.1	-88.1	3.9	8451633	96	36265
2025-01-12 11:15:56.43	108.22	81.53	-68.3	-87.8	3.7	8460342	97	33989
2025-01-12 11:15:56.85	107.05	81.66	-68.5	-88.7	3.6	8460823	96	37040
2025-01-12 11:15:57.28	105.81	81.79	-69.3	-88.0	3.8	8471729	99	31071
2025-01-12 11:15:57.71	104.53	81.91	-69.3	-90.0	3.7	8464645	95	39067
2025-01-12 11:15:58.12	103.27	82.02	-67.4	-87.9	3.8	8464382	96	37954
2025-01-12 11:15:58.55	101.92	82.14	-67.2	-87.3	3.8	8461532	96	36472
2025-01-12 11:15:58.97	100.55	82.25	-68.7	-89.2	3.7	8466236	96	38179
2025-01-12 11:15:59.40	99.12	82.36	-67.9	-88.2	3.8	8449012	96	37391
2025-01-12 11:15:59.83	97.64	82.46	-68.4	-88.7	3.8	8463489	96	37243
2025-01-12 11:16:00.25	96.16	82.55	-69.1	-89.6	3.8	8471900	96	38085
2025-01-12 11:16:00.66	94.68	82.64	-67.8	-87.8	3.8	8464359	97	35774
2025-01-12 11:16:01.08	93.12	82.72	-68.8	-88.9	3.9	8449905	97	36262
2025-01-12 11:16:01.51	91.50	82.81	-68.2	-88.5	3.8	8459896	97	37035
2025-01-12 11:16:01.94	89.83	82.88	-67.6	-87.8	3.7	8451198	96	36638
2025-01-12 11:16:02.37	88.14	82.95	-67.4	-88.3	3.8	8455650	95	39624
2025-01-12 11:16:02.80	86.41	83.01	-69.6	-88.3	3.8	8453716	99	31250
2025-01-12 11:16:03.23	84.64	83.07	-69.7	-89.3	3.9	8451450	98	34274
2025-01-12 11:16:03.66	82.86	83.12	-68.1	-88.4	3.8	8453704	96	37404
2025-01-12 11:16:04.08	81.09	83.16	-67.3	-86.5	3.9	8458465	97	32941
2025-01-12 11:16:04.51	79.26	83.20	-69.7	-89.0	3.8	8451896	98	33242
2025-01-12 11:16:04.94	77.40	83.23	-69.7	-89.2	3.9	8460742	98	34036
2025-01-12 11:16:05.37	75.54	83.25	-69.6	-88.6	3.8	8462287	99	32092
2025-01-12 11:16:05.79	73.71	83.26	-69.4	-88.8	3.8	8468158	98	33539
2025-01-12 11:16:06.20	71.91	83.27	-69.5	-88.2	3.7	8443485	99	31184
2025-01-12 11:16:06.63	70.03	83.27	-69.5	-88.0	3.8	8475643	99	30402
2025-01-12 11:16:07.06	68.15	83.26	-69.7	-88.4	3.8	8453132	99	31016
2025-01-12 11:16:07.47	66.36	83.25	-69.7	-88.5	3.8	8465320	99	31254
2025-01-12 11:16:07.90	64.49	83.23	-68.2	-87.8	3.9	8451290	97	34377
2025-01-12 11:16:08.31	62.72	83.21	-69.7	-88.4	3.8	8455833	99	31049
2025-01-12 11:16:08.74	60.88	83.17	-67.3	-87.3	4.0	8450752	96	36026
2025-01-12 11:16:09.17	59.07	83.13	-69.5	-88.2	3.8	8454093	99	30912
2025-01-12 11:16:09.59	57.31	83.08	-69.7	-88.2	3.8	8458007	99	30315
2025-01-12 11:16:10.02	55.54	83.03	-69.7	-88.5	3.9	8482006	99	31314
2025-01-12 11:16:10.45	53.80	82.97	-69.6	-88.4	3.8	8460868	99	31320
2025-01-12 11:16:10.86	52.17	82.91	-69.8	-89.2	3.8	8441905	98	33843
2025-01-12 11:16:11.29	50.50	82.83	-69.5	-88.1	3.8	8473468	99	30343
2025-01-12 11:16:11.72	48.86	82.75	-69.7	-88.4	3.8	8453315	99	31102
2025-01-12 11:16:12.16	47.22	82.67	-69.7	-88.5	3.8	8466533	99	31161
2025-01-12 11:16:12.57	45.72	82.58	-69.7	-88.7	3.7	8457939	98	32082
2025-01-12 11:16:12.99	44.23	82.49	-69.7	-88.3	3.7	8464176	99	30390
2025-01-12 11:16:13.42	42.74	82.39	-69.7	-88.6	3.7	8454563	99	31604
2025-01-12 11:16:13.85	41.29	82.28	-68.4	-87.2	3.7	8465881	99	31279
2025-01-12 11:16:14.28	39.88	82.17	-69.7	-88.2	3.8	8453807	99	30227
2025-01-12 11:16:14.71	38.52	82.06	-70.0	-89.8	3.7	8460399	99	35343
2025-01-12 11:16:15.14	37.19	81.94	-69.7	-88.8	3.8	8466934	98	32590
2025-01-12 11:16:15.56	35.93	81.82	-69.8	-88.5	3.8	8455501	99	31166
2025-01-12 11:16:15.99	34.68	81.69	-70.2	-89.3	3.8	8458305	99	32462
2025-01-12 11:16:16.40	33.52	81.57	-69.9	-89.0	3.8	8465160	99	32562
2025-01-12 11:16:16.82	32.37	81.44	-69.8	-88.5	3.8	8447902	99	31218
2025-01-12 11:16:17.25	31.23	81.30	-69.8	-88.3	3.8	8461109	99	30240
2025-01-12 11:16:17.68	30.13	81.16	-68.2	-87.7	3.8	8452732	97	34049
2025-01-12 11:16:18.11	29.06	81.02	-69.8	-88.8	4.0	8460708	99	31998
2025-01-12 11:16:18.54	28.03	80.87	-69.9	-88.6	3.8	8455055	99	31218
2025-01-12 11:16:18.97	27.03	80.72	-67.6	-87.2	3.6	8457447	98	34404
2025-01-12 11:16:19.38	26.11	80.58	-69.6	-89.1	3.7	8454563	98	33702
2025-01-12 11:16:19.80	25.19	80.43	-68.7	-88.7	3.8	8464290	99	36091
2025-01-12 11:16:20.23	24.28	80.27	-69.7	-89.7	3.6	8461029	97	35998
2025-01-12 11:16:20.66	23.40	80.12	-67.6	-87.0	3.9	8461647	97	33551
2025-01-12 11:16:21.09	22.55	79.96	-68.1	-87.8	3.7	8452720	97	34725
2025-01-12 11:16:21.51	21.75	79.80	-69.8	-88.8	3.9	8465961	98	32039
2025-01-12 11:16:21.94	20.95	79.63	-69.8	-90.5	3.7	8469326	96	38879
2025-01-12 11:16:22.37	20.18	79.47	-68.0	-87.9	3.9	8451953	97	35467
2025-01-12 11:16:22.80	19.43	79.30	-67.3	-87.3	3.6	8461864	97	36141
2025-01-12 11:16:23.22	18.73	79.13	-68.1	-87.7	3.8	8475700	97	34303
2025-01-12 11:16:23.65	18.03	78.96	-67.3	-87.6	3.9	8462779	95	37494
2025-01-12 11:16:24.08	17.35	78.79	-69.6	-88.5	3.8	8457435	99	31726
2025-01-12 11:16:24.51	16.69	78.62	-67.3	-87.9	3.8	8445487	95	38565
2025-01-12 11:16:24.94	16.05	78.44	-69.5	-89.3	3.7	8455650	97	35306
2025-01-12 11:16:25.37	15.43	78.27	-67.3	-87.9	3.7	8460742	95	38608
2025-01-12 11:16:25.78	14.86	78.10	-67.7	-88.5	3.8	8452903	95	39351
2025-01-12 11:16:26.20	14.29	77.92	-68.2	-89.0	3.8	8464450	95	39380
2025-01-12 11:16:26.63	13.73	77.75	-67.7	-88.2	3.8	8470355	95	38016
2025-01-12 11:16:27.06	13.18	77.57	-68.1	-88.9	3.7	8459403	95	39346
2025-01-12 11:16:27.49	12.65	77.39	-68.0	-88.2	3.8	8454769	96	36953
2025-01-12 11:16:27.92	12.13	77.20	-69.7	-88.5	3.8	8460136	99	31429
2025-01-12 11:16:28.35	11.63	77.02	-69.6	-89.7	3.6	8469348	97	36196
2025-01-12 11:16:28.77	11.15	76.84	-70.2	-90.9	3.8	8464061	96	39002
2025-01-12 11:16:29.20	10.68	76.66	-69.6	-88.9	3.9	8445030	98	33215
2025-01-12 11:16:29.63	10.22	76.47	-67.3	-87.4	3.6	8453178	96	36494
2025-01-12 11:16:30.06	9.77	76.29	-68.1	-88.1	3.6	8466888	96	36200
2025-01-12 11:16:30.49	9.33	76.10	-69.5	-89.2	3.8	8460330	97	34747
2025-01-12 11:16:30.91	8.92	75.92	-69.5	-90.3	3.9	8443817	95	39112
2025-01-12 11:16:31.34	8.51	75.74	-69.7	-88.3	3.8	8467220	99	30889
2025-01-12 11:16:31.77	8.11	75.55	-68.1	-88.5	3.8	8452159	96	37653
2025-01-12 11:16:32.20	7.72	75.36	-69.6	-88.9	3.8	8465103	98	33195
2025-01-12 11:16:32.63	7.34	75.17	-69.8	-88.4	3.6	8456531	99	30804
2025-01-12 11:16:33.06	6.97	74.99	-69.6	-88.4	3.8	8468914	99	31311
2025-01-12 11:16:33.49	6.60	74.80	-69.9	-88.7	3.9	8449859	99	31481
2025-01-12 11:16:33.91	6.26	74.61	-67.7	-86.7	3.8	8468914	98	32155
2025-01-12 11:16:34.34	5.92	74.43	-68.1	-88.0	3.7	8453247	98	35316
2025-01-12 11:16:34.77	5.58	74.24	-67.2	-87.1	3.9	8446723	96	35801
2025-01-12 11:16:35.17	5.28	74.06	-69.8	-88.8	3.9	8456428	99	32037
2025-01-12 11:16:35.60	4.96	73.87	-67.9	-88.2	3.8	8452995	96	37279
2025-01-12 11:16:36.03	4.65	73.68	-67.7	-87.6	3.8	8462116	96	35519
2025-01-12 11:16:36.45	4.36	73.50	-67.7	-87.7	4.0	8458820	96	35867
2025-01-12 11:16:36.88	4.06	73.31	-67.9	-88.4	3.8	8464073	96	37834
2025-01-12 11:16:37.31	3.77	73.12	-67.7	-88.1	3.7	8448234	96	37481
2025-01-12 11:16:37.74	3.49	72.93	-67.8	-88.1	3.8	8469600	96	37560
2025-01-12 11:16:38.15	3.22	72.74	-67.9	-88.4	3.8	8457515	96	38099
2025-01-12 11:16:38.58	2.95	72.55	-67.8	-87.6	3.8	8449642	98	35032
2025-01-12 11:16:39.00	2.70	72.37	-67.7	-87.3	3.7	8459598	98	34551
2025-01-12 11:16:39.41	2.45	72.19	-69.7	-89.9	3.8	8451129	97	37029
2025-01-12 11:16:39.84	2.20	72.00	-67.7	-88.2	3.8	8457286	96	37947
2025-01-12 11:16:40.27	1.95	71.81	-67.8	-88.2	3.7	8458145	96	37868
2025-01-12 11:16:40.71	1.71	71.61	-68.1	-88.4	3.9	8469131	96	37172
2025-01-12 11:16:41.14	1.47	71.42	-69.7	-90.2	3.8	8455570	96	38075
2025-01-12 11:16:41.57	1.24	71.23	-68.2	-89.0	3.8	8461795	97	39695
2025-01-12 11:16:41.98	1.02	71.05	-67.8	-88.1	3.8	8453395	96	37193
2025-01-12 11:16:42.40	0.81	70.86	-67.8	-86.9	3.8	8460159	98	32282
2025-01-12 11:16:42.83	0.59	70.67	-69.6	-88.6	3.8	8449768	99	32067
2025-01-12 11:16:43.26	0.38	70.48	-68.3	-87.9	4.0	8467586	97	34370
2025-01-12 11:16:43.69	0.17	70.29	-67.7	-87.6	3.8	8459873	97	35576
2025-01-12 11:16:44.12	359.97	70.11	-67.9	-88.3	3.7	8461338	96	37860

#Closed at: 2025-01-12 11:16:44