passes_logs/2026/01/22/Regia/Regia__20260122_095332_AURA_rec.log

#Pass ID: 20260122_095332_AURA
#Satellite: AURA
#Configuration: AURA
#Start time: 2026-01-22 09:53:37.168234

#LorettStation: 1.0.0 05.05.2024
#Station: Regia
#Location: 37.494653 lon 55.929028 lat
#TLE: 1 28376U 04026A   26021.44407879  .00002591  00000+0  53770-3 0  9993
#TLE: 2 28376  98.3243 336.8686 0001609  71.8731 288.2644 14.61027585144787

#Time	Az	El	Level	SNR
2026-01-22 09:53:43.338360	110.2	15.6	-69.4	0.0
2026-01-22 09:53:44.451909	110.0	15.7	-69.6	0.0
2026-01-22 09:53:45.565436	109.8	15.8	-69.6	0.0
2026-01-22 09:53:46.678674	109.7	15.9	-69.2	0.0
2026-01-22 09:53:47.791621	109.5	16.0	-69.2	0.0
2026-01-22 09:53:48.906256	109.3	16.1	-69.6	0.0
2026-01-22 09:53:50.019324	109.1	16.2	-69.5	0.0
2026-01-22 09:53:51.131560	108.9	16.3	-69.2	0.0
2026-01-22 09:53:52.244179	108.8	16.4	-69.4	0.0
2026-01-22 09:53:53.357602	108.6	16.5	-69.1	0.0
2026-01-22 09:53:54.469723	108.4	16.6	-69.4	0.0
2026-01-22 09:53:55.582505	108.2	16.8	-69.6	0.0
2026-01-22 09:53:56.694991	108.0	16.9	-69.4	0.0
2026-01-22 09:53:57.807844	107.8	17.0	-69.3	0.0
2026-01-22 09:53:58.921179	107.6	17.1	-69.3	0.0
2026-01-22 09:54:00.034377	107.4	17.2	-69.5	0.0
2026-01-22 09:54:01.147186	107.2	17.3	-69.2	0.0
2026-01-22 09:54:02.260344	107.0	17.4	-69.1	0.0
2026-01-22 09:54:03.373338	106.8	17.5	-69.2	0.0
2026-01-22 09:54:04.485560	106.6	17.6	-69.5	0.0
2026-01-22 09:54:05.598557	106.4	17.7	-69.0	0.0
2026-01-22 09:54:06.711173	106.2	17.8	-69.4	0.0
2026-01-22 09:54:07.823929	106.0	18.0	-69.5	0.0
2026-01-22 09:54:08.936758	105.8	18.1	-69.2	0.0
2026-01-22 09:54:10.049143	105.6	18.2	-69.4	0.0
2026-01-22 09:54:11.162064	105.4	18.3	-69.5	0.0
2026-01-22 09:54:12.275488	105.2	18.4	-69.4	0.0
2026-01-22 09:54:13.388356	105.0	18.5	-69.3	0.0
2026-01-22 09:54:14.501254	104.8	18.6	-69.1	0.0
2026-01-22 09:54:15.612622	104.6	18.7	-69.2	0.0
2026-01-22 09:54:16.725615	104.3	18.8	-69.2	0.0
2026-01-22 09:54:17.838242	104.1	19.0	-69.4	0.0
2026-01-22 09:54:18.950932	103.9	19.1	-69.4	0.0
2026-01-22 09:54:20.063703	103.7	19.2	-69.3	0.0
2026-01-22 09:54:21.177419	103.5	19.3	-69.4	0.0
2026-01-22 09:54:22.290602	103.2	19.4	-69.5	0.0
2026-01-22 09:54:23.407211	103.0	19.5	-69.5	0.0
2026-01-22 09:54:24.519370	102.8	19.6	-69.0	0.0
2026-01-22 09:54:25.632522	102.5	19.7	-69.4	0.0
2026-01-22 09:54:26.745519	102.3	19.9	-69.3	0.0
2026-01-22 09:54:27.858006	102.1	20.0	-69.6	0.0
2026-01-22 09:54:28.970238	101.8	20.1	-69.4	0.0
2026-01-22 09:54:30.083474	101.6	20.2	-69.5	0.0
2026-01-22 09:54:31.196475	101.4	20.3	-68.8	0.0
2026-01-22 09:54:32.309746	101.1	20.4	-69.2	0.0
2026-01-22 09:54:33.422304	100.9	20.5	-69.5	0.0
2026-01-22 09:54:34.539540	100.6	20.6	-69.5	0.0
2026-01-22 09:54:35.652627	100.4	20.8	-69.3	0.0
2026-01-22 09:54:36.765742	100.1	20.9	-69.3	0.0
2026-01-22 09:54:37.877384	99.9	21.0	-69.4	0.0
2026-01-22 09:54:38.990005	99.6	21.1	-69.0	0.0
2026-01-22 09:54:40.102739	99.4	21.2	-69.5	0.0
2026-01-22 09:54:41.215971	99.1	21.3	-69.6	0.0
2026-01-22 09:54:42.328709	98.8	21.4	-69.3	0.0
2026-01-22 09:54:43.441842	98.6	21.5	-69.3	0.0
2026-01-22 09:54:44.554792	98.3	21.7	-69.1	0.0
2026-01-22 09:54:45.668076	98.0	21.8	-69.0	0.0
2026-01-22 09:54:46.781133	97.8	21.9	-69.0	0.0
2026-01-22 09:54:47.893873	97.5	22.0	-69.1	0.0
2026-01-22 09:54:49.005535	97.2	22.1	-69.1	0.0
2026-01-22 09:54:50.118685	97.0	22.2	-69.4	0.0
2026-01-22 09:54:51.231058	96.7	22.3	-69.3	0.0
2026-01-22 09:54:52.343119	96.4	22.4	-69.3	0.0
2026-01-22 09:54:53.456362	96.1	22.6	-69.4	0.0
2026-01-22 09:54:54.568067	95.8	22.7	-69.4	0.0
2026-01-22 09:54:55.681140	95.6	22.8	-69.4	0.0
2026-01-22 09:54:56.794279	95.3	22.9	-69.3	0.0
2026-01-22 09:54:57.907447	95.0	23.0	-69.3	0.0
2026-01-22 09:54:59.020577	94.7	23.1	-69.3	0.0
2026-01-22 09:55:00.133958	94.4	23.2	-69.4	0.0
2026-01-22 09:55:01.246992	94.1	23.3	-69.5	0.0
2026-01-22 09:55:02.359263	93.8	23.4	-69.2	0.0
2026-01-22 09:55:03.472002	93.5	23.5	-69.3	0.0
2026-01-22 09:55:04.584877	93.2	23.7	-69.3	0.0
2026-01-22 09:55:05.697486	92.9	23.8	-69.5	0.0
2026-01-22 09:55:06.809539	92.6	23.9	-69.3	0.0
2026-01-22 09:55:07.922887	92.3	24.0	-69.3	0.0
2026-01-22 09:55:09.034967	92.0	24.1	-69.2	0.0
2026-01-22 09:55:10.147594	91.7	24.2	-69.3	0.0
2026-01-22 09:55:11.260335	91.3	24.3	-69.1	0.0
2026-01-22 09:55:12.372437	91.0	24.4	-68.9	0.0
2026-01-22 09:55:13.485537	90.7	24.5	-69.5	0.0
2026-01-22 09:55:14.599019	90.4	24.6	-69.3	0.0
2026-01-22 09:55:15.712040	90.0	24.7	-69.2	0.0
2026-01-22 09:55:16.824532	89.7	24.8	-69.2	0.0
2026-01-22 09:55:17.937760	89.4	24.9	-69.2	0.0
2026-01-22 09:55:19.050913	89.1	25.0	-68.8	0.0
2026-01-22 09:55:20.164489	88.7	25.1	-69.4	0.0
2026-01-22 09:55:21.277413	88.4	25.2	-69.5	0.0
2026-01-22 09:55:22.390666	88.1	25.3	-69.3	0.0
2026-01-22 09:55:23.503043	87.7	25.4	-69.2	0.0
2026-01-22 09:55:24.615896	87.4	25.5	-69.6	0.0
2026-01-22 09:55:25.729195	87.0	25.6	-69.1	0.0
2026-01-22 09:55:26.841964	86.7	25.7	-69.1	0.0
2026-01-22 09:55:27.954975	86.3	25.8	-69.3	0.0
2026-01-22 09:55:29.067634	86.0	25.9	-69.1	0.0
2026-01-22 09:55:30.180157	85.6	26.0	-69.5	0.0
2026-01-22 09:55:31.295963	85.3	26.1	-69.3	0.0
2026-01-22 09:55:32.409167	84.9	26.2	-69.5	0.0
2026-01-22 09:55:33.522039	84.5	26.3	-69.2	0.0
2026-01-22 09:55:34.634979	84.2	26.4	-69.6	0.0
2026-01-22 09:55:35.747849	83.8	26.5	-69.4	0.0
2026-01-22 09:55:36.860851	83.4	26.6	-69.4	0.0
2026-01-22 09:55:37.973873	83.1	26.7	-69.4	0.0
2026-01-22 09:55:39.086578	82.7	26.8	-68.9	0.0
2026-01-22 09:55:40.200320	82.3	26.9	-69.3	0.0
2026-01-22 09:55:41.313198	82.0	26.9	-69.5	0.0
2026-01-22 09:55:42.428384	81.6	27.0	-69.4	0.0
2026-01-22 09:55:43.540678	81.2	27.1	-69.4	0.0
2026-01-22 09:55:44.653051	80.8	27.2	-69.3	0.0
2026-01-22 09:55:45.765386	80.4	27.3	-69.5	0.0
2026-01-22 09:55:46.878618	80.0	27.4	-69.0	0.0
2026-01-22 09:55:47.991714	79.7	27.4	-69.4	0.0
2026-01-22 09:55:49.104536	79.3	27.5	-69.4	0.0
2026-01-22 09:55:50.217069	78.9	27.6	-69.6	0.0
2026-01-22 09:55:51.329678	78.5	27.7	-69.4	0.0
2026-01-22 09:55:52.442104	78.1	27.8	-69.5	0.0
2026-01-22 09:55:53.554771	77.7	27.8	-69.3	0.0
2026-01-22 09:55:54.667500	77.3	27.9	-69.4	0.0
2026-01-22 09:55:55.779739	76.9	28.0	-69.5	0.0
2026-01-22 09:55:56.893014	76.5	28.0	-69.2	0.0
2026-01-22 09:55:58.006563	76.1	28.1	-69.5	0.0
2026-01-22 09:55:59.118953	75.7	28.2	-69.6	0.0
2026-01-22 09:56:00.231190	75.3	28.2	-69.4	0.0
2026-01-22 09:56:01.343789	74.8	28.3	-69.4	0.0
2026-01-22 09:56:02.456825	74.4	28.4	-69.3	0.0
2026-01-22 09:56:03.569857	74.0	28.4	-69.4	0.0
2026-01-22 09:56:04.682863	73.6	28.5	-69.3	0.0
2026-01-22 09:56:05.799918	73.2	28.6	-69.4	0.0
2026-01-22 09:56:06.913018	72.8	28.6	-69.7	0.0
2026-01-22 09:56:08.026406	72.3	28.7	-69.4	0.0
2026-01-22 09:56:09.139388	71.9	28.7	-69.3	0.0
2026-01-22 09:56:10.251994	71.5	28.8	-69.4	0.0
2026-01-22 09:56:11.365122	71.1	28.8	-69.3	0.0
2026-01-22 09:56:12.477609	70.6	28.9	-69.4	0.0
2026-01-22 09:56:13.589791	70.2	28.9	-69.3	0.0
2026-01-22 09:56:14.702520	69.8	29.0	-69.1	0.0
2026-01-22 09:56:15.815202	69.3	29.0	-69.5	0.0
2026-01-22 09:56:16.928241	68.9	29.1	-69.4	0.0
2026-01-22 09:56:18.041174	68.5	29.1	-69.3	0.0
2026-01-22 09:56:19.154136	68.0	29.1	-69.4	0.0
2026-01-22 09:56:20.267318	67.6	29.2	-69.6	0.0
2026-01-22 09:56:21.383258	67.2	29.2	-69.4	0.0
2026-01-22 09:56:22.495379	66.7	29.3	-69.5	0.0
2026-01-22 09:56:23.608756	66.3	29.3	-69.7	0.0
2026-01-22 09:56:24.721461	65.9	29.3	-69.4	0.0
2026-01-22 09:56:25.833969	65.4	29.3	-69.4	0.0
2026-01-22 09:56:26.947297	65.0	29.4	-69.0	0.0
2026-01-22 09:56:28.059598	64.5	29.4	-69.1	0.0
2026-01-22 09:56:29.172678	64.1	29.4	-69.1	0.0
2026-01-22 09:56:30.286247	63.7	29.4	-69.5	0.0
2026-01-22 09:56:31.399368	63.2	29.5	-69.5	0.0
2026-01-22 09:56:32.512641	62.8	29.5	-69.3	0.0
2026-01-22 09:56:33.625385	62.3	29.5	-69.5	0.0
2026-01-22 09:56:34.738499	61.9	29.5	-69.3	0.0
2026-01-22 09:56:35.852124	61.4	29.5	-69.5	0.0
2026-01-22 09:56:36.965005	61.0	29.5	-69.5	0.0
2026-01-22 09:56:38.077680	60.5	29.5	-69.3	0.0
2026-01-22 09:56:39.191033	60.1	29.6	-69.4	0.0
2026-01-22 09:56:40.303467	59.6	29.6	-69.3	0.0
2026-01-22 09:56:41.416460	59.2	29.6	-69.3	0.0
2026-01-22 09:56:42.529582	58.8	29.6	-69.4	0.0
2026-01-22 09:56:43.642351	58.3	29.6	-69.3	0.0
2026-01-22 09:56:44.755831	57.9	29.6	-69.4	0.0
2026-01-22 09:56:45.868824	57.4	29.6	-69.3	0.0
2026-01-22 09:56:46.981550	57.0	29.5	-69.5	0.0
2026-01-22 09:56:48.094775	56.5	29.5	-69.3	0.0
2026-01-22 09:56:49.207823	56.1	29.5	-69.4	0.0
2026-01-22 09:56:50.320760	55.6	29.5	-68.8	0.0
2026-01-22 09:56:51.433956	55.2	29.5	-69.3	0.0
2026-01-22 09:56:52.547372	54.7	29.5	-69.5	0.0
2026-01-22 09:56:53.659771	54.3	29.5	-69.4	0.0
2026-01-22 09:56:54.772874	53.9	29.4	-69.2	0.0
2026-01-22 09:56:55.885878	53.4	29.4	-69.1	0.0
2026-01-22 09:56:56.999028	53.0	29.4	-69.2	0.0
2026-01-22 09:56:58.112042	52.5	29.4	-69.2	0.0
2026-01-22 09:56:59.225202	52.1	29.4	-69.4	0.0
2026-01-22 09:57:00.338121	51.7	29.3	-69.3	0.0
2026-01-22 09:57:01.454997	51.2	29.3	-69.6	0.0
2026-01-22 09:57:02.567491	50.8	29.3	-69.1	0.0
2026-01-22 09:57:03.680761	50.3	29.2	-69.0	0.0
2026-01-22 09:57:04.794080	49.9	29.2	-69.7	0.0
2026-01-22 09:57:05.906668	49.5	29.2	-69.4	0.0
2026-01-22 09:57:07.019134	49.0	29.1	-69.3	0.0
2026-01-22 09:57:08.131784	48.6	29.1	-69.4	0.0
2026-01-22 09:57:09.245122	48.2	29.0	-69.5	0.0
2026-01-22 09:57:10.357676	47.7	29.0	-69.5	0.0
2026-01-22 09:57:11.470728	47.3	28.9	-69.4	0.0
2026-01-22 09:57:12.583896	46.9	28.9	-69.0	0.0
2026-01-22 09:57:13.695940	46.5	28.8	-69.7	0.0
2026-01-22 09:57:14.808205	46.0	28.8	-69.5	0.0
2026-01-22 09:57:15.920815	45.6	28.7	-69.5	0.0
2026-01-22 09:57:17.034018	45.2	28.7	-69.6	0.0
2026-01-22 09:57:18.146630	44.8	28.6	-69.5	0.0
2026-01-22 09:57:19.259311	44.3	28.6	-69.3	0.0
2026-01-22 09:57:20.371995	43.9	28.5	-69.2	0.0
2026-01-22 09:57:21.486160	43.5	28.5	-69.6	0.0
2026-01-22 09:57:22.598830	43.1	28.4	-69.5	0.0
2026-01-22 09:57:23.711593	42.7	28.3	-69.4	0.0
2026-01-22 09:57:24.824878	42.3	28.3	-69.4	0.0
2026-01-22 09:57:25.937758	41.9	28.2	-69.4	0.0
2026-01-22 09:57:27.050649	41.5	28.1	-69.5	0.0
2026-01-22 09:57:28.163389	41.1	28.1	-69.5	0.0
2026-01-22 09:57:29.276631	40.6	28.0	-69.5	0.0
2026-01-22 09:57:30.390237	40.2	27.9	-69.3	0.0
2026-01-22 09:57:31.503024	39.8	27.9	-69.5	0.0
2026-01-22 09:57:32.616518	39.4	27.8	-69.3	0.0
2026-01-22 09:57:33.728550	39.1	27.7	-69.3	0.0
2026-01-22 09:57:34.841209	38.7	27.6	-69.5	0.0
2026-01-22 09:57:35.953716	38.3	27.5	-69.5	0.0
2026-01-22 09:57:37.066926	37.9	27.5	-69.4	0.0
2026-01-22 09:57:38.180068	37.5	27.4	-69.3	0.0
2026-01-22 09:57:39.293069	37.1	27.3	-69.7	0.0
2026-01-22 09:57:40.406141	36.7	27.2	-69.6	0.0
2026-01-22 09:57:41.519525	36.3	27.1	-69.4	0.0
2026-01-22 09:57:42.633071	36.0	27.1	-69.3	0.0
2026-01-22 09:57:43.746068	35.6	27.0	-69.1	0.0
2026-01-22 09:57:44.859132	35.2	26.9	-69.6	0.0
2026-01-22 09:57:45.972471	34.8	26.8	-69.4	0.0
2026-01-22 09:57:47.085235	34.5	26.7	-69.3	0.0
2026-01-22 09:57:48.197801	34.1	26.6	-69.4	0.0
2026-01-22 09:57:49.311173	33.7	26.5	-69.5	0.0
2026-01-22 09:57:50.424163	33.4	26.4	-69.6	0.0
2026-01-22 09:57:51.536803	33.0	26.3	-69.6	0.0
2026-01-22 09:57:52.650753	32.6	26.3	-69.6	0.0
2026-01-22 09:57:53.763875	32.3	26.2	-69.5	0.0
2026-01-22 09:57:54.876717	31.9	26.1	-69.3	0.0
2026-01-22 09:57:55.989565	31.6	26.0	-69.2	0.0
2026-01-22 09:57:57.102764	31.2	25.9	-69.6	0.0
2026-01-22 09:57:58.215852	30.9	25.8	-69.3	0.0
2026-01-22 09:57:59.328591	30.5	25.7	-69.3	0.0
2026-01-22 09:58:00.441374	30.2	25.6	-69.1	0.0
2026-01-22 09:58:01.554379	29.8	25.5	-69.5	0.0
2026-01-22 09:58:02.667396	29.5	25.4	-69.4	0.0
2026-01-22 09:58:03.779694	29.2	25.3	-69.5	0.0
2026-01-22 09:58:04.893196	28.8	25.2	-69.3	0.0
2026-01-22 09:58:06.006456	28.5	25.1	-69.5	0.0
2026-01-22 09:58:07.119563	28.2	25.0	-69.3	0.0
2026-01-22 09:58:08.232316	27.8	24.9	-69.6	0.0
2026-01-22 09:58:09.345869	27.5	24.8	-69.3	0.0
2026-01-22 09:58:10.460956	27.2	24.7	-69.4	0.0
2026-01-22 09:58:11.573468	26.9	24.6	-69.4	0.0
2026-01-22 09:58:12.686835	26.5	24.5	-69.1	0.0
2026-01-22 09:58:13.799610	26.2	24.3	-69.4	0.0
2026-01-22 09:58:14.912302	25.9	24.2	-69.4	0.0
2026-01-22 09:58:16.024862	25.6	24.1	-69.7	0.0
2026-01-22 09:58:17.138232	25.3	24.0	-69.4	0.0
2026-01-22 09:58:18.250462	25.0	23.9	-69.3	0.0
2026-01-22 09:58:19.363624	24.7	23.8	-68.8	0.0
2026-01-22 09:58:20.475650	24.4	23.7	-69.3	0.0
2026-01-22 09:58:21.589092	24.1	23.6	-69.6	0.0
2026-01-22 09:58:22.702132	23.8	23.5	-69.3	0.0
2026-01-22 09:58:23.815251	23.5	23.4	-69.4	0.0
2026-01-22 09:58:24.926432	23.2	23.3	-69.3	0.0
2026-01-22 09:58:26.038925	22.9	23.2	-69.2	0.0
2026-01-22 09:58:27.151639	22.6	23.1	-69.4	0.0
2026-01-22 09:58:28.264660	22.3	22.9	-69.4	0.0
2026-01-22 09:58:29.377082	22.0	22.8	-69.5	0.0
2026-01-22 09:58:30.489434	21.7	22.7	-69.4	0.0
2026-01-22 09:58:31.602730	21.4	22.6	-69.2	0.0
2026-01-22 09:58:32.715149	21.2	22.5	-69.4	0.0
2026-01-22 09:58:33.828229	20.9	22.4	-69.3	0.0
2026-01-22 09:58:34.941946	20.6	22.3	-69.6	0.0
2026-01-22 09:58:36.054568	20.3	22.2	-69.4	0.0
2026-01-22 09:58:37.167205	20.1	22.1	-69.4	0.0
2026-01-22 09:58:38.279652	19.8	21.9	-69.4	0.0
2026-01-22 09:58:39.392137	19.5	21.8	-69.4	0.0
2026-01-22 09:58:40.504894	19.3	21.7	-69.2	0.0
2026-01-22 09:58:41.617585	19.0	21.6	-69.5	0.0
2026-01-22 09:58:42.730466	18.7	21.5	-69.6	0.0
2026-01-22 09:58:43.843273	18.5	21.4	-69.1	0.0
2026-01-22 09:58:44.956587	18.2	21.3	-69.7	0.0
2026-01-22 09:58:46.069519	18.0	21.2	-69.4	0.0
2026-01-22 09:58:47.182655	17.7	21.0	-69.8	0.0
2026-01-22 09:58:48.295540	17.5	20.9	-69.6	0.0
2026-01-22 09:58:49.408047	17.2	20.8	-69.6	0.0
2026-01-22 09:58:50.520290	17.0	20.7	-69.6	0.0
2026-01-22 09:58:51.632694	16.7	20.6	-69.4	0.0
2026-01-22 09:58:52.745556	16.5	20.5	-69.5	0.0
2026-01-22 09:58:53.858707	16.2	20.4	-69.1	0.0
2026-01-22 09:58:54.971132	16.0	20.3	-69.2	0.0
2026-01-22 09:58:56.084855	15.7	20.2	-69.2	0.0
2026-01-22 09:58:57.198363	15.5	20.0	-69.3	0.0
2026-01-22 09:58:58.310784	15.3	19.9	-69.3	0.0
2026-01-22 09:58:59.423149	15.0	19.8	-69.5	0.0
2026-01-22 09:59:00.536616	14.8	19.7	-69.7	0.0
2026-01-22 09:59:01.649600	14.6	19.6	-69.6	0.0
2026-01-22 09:59:02.762337	14.4	19.5	-69.2	0.0
2026-01-22 09:59:03.874348	14.1	19.4	-69.1	0.0
2026-01-22 09:59:04.987604	13.9	19.3	-69.2	0.0
2026-01-22 09:59:06.099907	13.7	19.1	-69.4	0.0
2026-01-22 09:59:07.213673	13.5	19.0	-69.5	0.0
2026-01-22 09:59:08.326594	13.2	18.9	-69.4	0.0
2026-01-22 09:59:09.439478	13.0	18.8	-69.6	0.0
2026-01-22 09:59:10.552763	12.8	18.7	-69.4	0.0
2026-01-22 09:59:11.665431	12.6	18.6	-69.4	0.0
2026-01-22 09:59:12.778217	12.4	18.5	-69.6	0.0
2026-01-22 09:59:13.891174	12.2	18.4	-69.5	0.0
2026-01-22 09:59:15.003875	12.0	18.3	-69.4	0.0
2026-01-22 09:59:16.116390	11.8	18.2	-69.6	0.0
2026-01-22 09:59:17.229164	11.6	18.0	-69.4	0.0
2026-01-22 09:59:18.341967	11.4	17.9	-69.5	0.0
2026-01-22 09:59:19.454878	11.2	17.8	-69.5	0.0
2026-01-22 09:59:20.567392	11.0	17.7	-69.2	0.0
2026-01-22 09:59:21.680552	10.8	17.6	-69.7	0.0
2026-01-22 09:59:22.793510	10.6	17.5	-69.3	0.0
2026-01-22 09:59:23.906476	10.4	17.4	-69.2	0.0
2026-01-22 09:59:25.019486	10.2	17.3	-69.1	0.0
2026-01-22 09:59:26.131606	10.0	17.2	-69.1	0.0
2026-01-22 09:59:27.244595	9.8	17.1	-69.7	0.0
2026-01-22 09:59:28.358643	9.6	17.0	-68.7	0.0
2026-01-22 09:59:29.471244	9.4	16.8	-68.9	0.0
2026-01-22 09:59:30.584272	9.2	16.7	-69.4	0.0
2026-01-22 09:59:31.697216	9.0	16.6	-69.6	0.0
2026-01-22 09:59:32.809618	8.8	16.5	-69.2	0.0
2026-01-22 09:59:33.922018	8.7	16.4	-69.3	0.0
2026-01-22 09:59:35.034423	8.5	16.3	-69.4	0.0
2026-01-22 09:59:36.147899	8.3	16.2	-69.3	0.0
2026-01-22 09:59:37.260997	8.1	16.1	-69.0	0.0
2026-01-22 09:59:38.373611	7.9	16.0	-69.6	0.0
2026-01-22 09:59:39.486583	7.8	15.9	-69.4	0.0
2026-01-22 09:59:40.599412	7.6	15.8	-69.4	0.0
2026-01-22 09:59:41.713007	7.4	15.7	-69.4	0.0
2026-01-22 09:59:42.825936	7.3	15.6	-69.6	0.0
2026-01-22 09:59:43.938934	7.1	15.5	-69.3	0.0
2026-01-22 09:59:45.051008	6.9	15.4	-69.5	0.0
2026-01-22 09:59:46.163526	6.7	15.3	-69.8	0.0
2026-01-22 09:59:47.277001	6.6	15.2	-69.5	0.0
2026-01-22 09:59:48.389610	6.4	15.0	-69.5	0.0
#Closed at: 2026-01-22 09:53:32.169407