passes_logs/2025/01/08/PPK-1/PPK-1__20250108_004026_TY-39_rec.log

#Pass ID: 20250108_004026_TY-39
#Satellite: TY-39
#Configuration: TY-39
#almurnet v.1.7.20230919.trace
#Start time: 2025-01-08 00:40:26

#Version: 2.2.20231116
#Station: PPK-1
#Location: 158.6 lon 53.06666 lat
#TLE: 1 51832U 22019J   25007.21637351  .00004435  00000+0  22826-3 0  9993
#TLE: 2 51832  97.4108  77.5950 0007690 265.2897  94.7458 15.16907624157960

#Time	Az	El	Level	Level2	SNR	BER	BlckErr	Temp	State
2025-01-08 00:40:26.00	2.02	7.96	-67.2	-73.4	3.6	0.00e+00	0	46	0
2025-01-08 00:40:27.89	1.87	8.12	-67.3	-73.6	3.6	0.00e+00	0	47	104
2025-01-08 00:40:29.79	1.73	8.29	-67.4	-73.2	3.6	0.00e+00	0	47	104
2025-01-08 00:40:31.69	1.58	8.46	-67.5	-73.3	3.7	0.00e+00	0	47	104
2025-01-08 00:40:33.59	1.43	8.63	-67.4	-73.2	3.7	0.00e+00	0	47	104
2025-01-08 00:40:35.48	1.28	8.80	-67.4	-73.2	3.7	0.00e+00	0	47	104
2025-01-08 00:40:37.38	1.13	8.98	-67.4	-73.1	3.6	0.00e+00	0	48	104
2025-01-08 00:40:39.27	0.97	9.15	-67.4	-73.1	3.6	0.00e+00	0	48	104
2025-01-08 00:40:41.17	0.81	9.33	-67.4	-73.2	3.6	0.00e+00	0	48	104
2025-01-08 00:40:43.07	0.65	9.50	-67.4	-73.2	3.7	0.00e+00	0	49	104
2025-01-08 00:40:44.97	0.49	9.68	-67.5	-73.4	3.7	0.00e+00	0	49	104
2025-01-08 00:40:46.87	0.32	9.86	-67.4	-73.3	3.7	0.00e+00	0	49	104
2025-01-08 00:40:48.77	0.15	10.05	-67.4	-73.2	3.6	0.00e+00	0	50	104
2025-01-08 00:40:50.67	359.98	10.23	-67.4	-73.1	3.6	0.00e+00	0	50	104
2025-01-08 00:40:52.57	359.80	10.42	-67.6	-73.6	3.6	0.00e+00	0	50	104
2025-01-08 00:40:54.47	359.63	10.60	-67.6	-73.5	3.7	0.00e+00	0	51	104
2025-01-08 00:40:56.37	359.45	10.79	-67.5	-73.3	3.7	0.00e+00	0	51	104
2025-01-08 00:40:58.27	359.26	10.98	-67.6	-73.4	3.7	0.00e+00	0	51	104
2025-01-08 00:41:00.16	359.08	11.17	-67.6	-73.6	3.6	0.00e+00	0	51	104
2025-01-08 00:41:02.06	358.89	11.37	-67.5	-73.4	3.6	0.00e+00	0	52	104
2025-01-08 00:41:03.96	358.70	11.56	-67.6	-73.4	3.6	0.00e+00	0	52	104
2025-01-08 00:41:05.86	358.50	11.76	-67.5	-73.3	3.7	0.00e+00	0	52	104
2025-01-08 00:41:07.76	358.30	11.96	-67.6	-73.4	3.7	0.00e+00	0	52	104
2025-01-08 00:41:09.66	358.10	12.16	-67.6	-73.5	3.6	0.00e+00	0	53	104
2025-01-08 00:41:11.56	357.89	12.36	-67.6	-73.4	3.6	0.00e+00	0	53	104
2025-01-08 00:41:13.46	357.68	12.57	-67.4	-73.2	3.6	0.00e+00	0	53	104
2025-01-08 00:41:15.36	357.47	12.77	-67.3	-73.0	3.6	0.00e+00	0	54	104
2025-01-08 00:41:17.26	357.25	12.98	-67.3	-73.3	3.7	0.00e+00	0	54	104
2025-01-08 00:41:19.16	357.03	13.19	-67.4	-73.5	3.7	0.00e+00	0	54	104
2025-01-08 00:41:21.05	356.81	13.40	-67.3	-73.6	3.7	0.00e+00	0	54	104
2025-01-08 00:41:22.95	356.58	13.62	-67.3	-73.6	3.6	0.00e+00	0	54	104
2025-01-08 00:41:24.85	356.35	13.83	-67.4	-73.6	3.6	0.00e+00	0	55	104
2025-01-08 00:41:26.75	356.11	14.05	-67.6	-73.8	3.6	0.00e+00	0	55	104
2025-01-08 00:41:28.64	355.87	14.27	-67.8	-73.5	3.7	0.00e+00	0	55	104
2025-01-08 00:41:30.54	355.63	14.50	-67.7	-73.3	3.7	0.00e+00	0	55	104
2025-01-08 00:41:32.44	355.38	14.72	-53.5	-56.3	13.4	2.43e-04	0	56	0
2025-01-08 00:41:34.34	355.12	14.95	-55.1	-58.6	12.0	1.60e-04	0	56	0
2025-01-08 00:41:36.24	354.86	15.18	-53.5	-56.3	13.3	2.77e-05	0	56	0
2025-01-08 00:41:38.14	354.60	15.41	-54.0	-57.2	12.9	0.00e+00	0	57	0
2025-01-08 00:41:40.04	354.33	15.64	-52.0	-54.8	14.1	0.00e+00	0	57	0
2025-01-08 00:41:41.94	354.06	15.88	-52.1	-54.8	14.1	0.00e+00	0	57	0
2025-01-08 00:41:43.83	353.78	16.12	-51.9	-54.5	14.2	0.00e+00	0	57	0
2025-01-08 00:41:45.73	353.49	16.36	-51.9	-54.6	14.2	0.00e+00	0	58	0
2025-01-08 00:41:47.62	353.20	16.60	-51.7	-54.2	14.2	0.00e+00	0	58	0
2025-01-08 00:41:49.52	352.91	16.84	-51.5	-54.3	14.4	0.00e+00	0	58	0
2025-01-08 00:41:51.42	352.61	17.09	-51.6	-54.4	14.4	0.00e+00	0	58	0
2025-01-08 00:41:53.32	352.30	17.34	-51.4	-54.1	14.5	0.00e+00	0	59	0
2025-01-08 00:41:55.22	351.98	17.60	-51.3	-53.9	14.5	0.00e+00	0	59	0
2025-01-08 00:41:57.12	351.66	17.85	-51.6	-54.3	14.4	0.00e+00	0	59	0
2025-01-08 00:41:59.02	351.34	18.11	-51.1	-53.5	14.7	0.00e+00	0	59	0
2025-01-08 00:42:00.92	351.00	18.37	-51.3	-54.2	14.7	0.00e+00	0	59	0
2025-01-08 00:42:02.82	350.66	18.63	-51.3	-54.3	14.6	0.00e+00	0	59	0
2025-01-08 00:42:04.72	350.32	18.90	-51.2	-54.0	14.7	0.00e+00	0	60	0
2025-01-08 00:42:06.62	349.96	19.17	-51.5	-54.6	14.6	0.00e+00	0	60	0
2025-01-08 00:42:08.51	349.60	19.44	-51.1	-53.9	14.7	0.00e+00	0	60	0
2025-01-08 00:42:10.41	349.24	19.71	-51.6	-54.5	14.4	0.00e+00	0	60	0
2025-01-08 00:42:12.31	348.86	19.99	-51.2	-53.7	14.7	0.00e+00	0	60	0
2025-01-08 00:42:14.21	348.47	20.27	-50.7	-53.7	14.9	0.00e+00	0	61	0
2025-01-08 00:42:16.11	348.08	20.55	-50.4	-53.1	15.0	0.00e+00	0	61	0
2025-01-08 00:42:18.01	347.68	20.83	-50.5	-53.1	15.0	0.00e+00	0	61	0
2025-01-08 00:42:19.91	347.27	21.12	-50.8	-53.8	14.8	0.00e+00	0	61	0
2025-01-08 00:42:21.81	346.85	21.41	-50.5	-53.2	15.0	0.00e+00	0	61	0
2025-01-08 00:42:23.71	346.42	21.70	-50.8	-53.7	14.9	0.00e+00	0	61	0
2025-01-08 00:42:25.61	345.99	22.00	-50.4	-52.9	15.1	0.00e+00	0	61	0
2025-01-08 00:42:27.51	345.54	22.29	-50.1	-52.4	15.2	0.00e+00	0	62	0
2025-01-08 00:42:29.40	345.09	22.59	-50.3	-53.4	15.1	0.00e+00	0	62	0
2025-01-08 00:42:31.30	344.62	22.90	-50.5	-53.1	15.0	0.00e+00	0	62	0
2025-01-08 00:42:33.20	344.14	23.20	-50.7	-53.5	14.8	0.00e+00	0	62	0
2025-01-08 00:42:35.10	343.65	23.51	-49.9	-52.5	15.0	0.00e+00	0	62	0
2025-01-08 00:42:37.00	343.15	23.82	-50.2	-53.1	15.0	0.00e+00	0	62	0
2025-01-08 00:42:38.90	342.64	24.13	-49.9	-52.6	15.2	0.00e+00	0	62	0
2025-01-08 00:42:40.80	342.12	24.44	-50.3	-53.3	15.0	0.00e+00	0	62	0
2025-01-08 00:42:42.70	341.59	24.76	-50.1	-53.0	15.0	0.00e+00	0	62	0
2025-01-08 00:42:44.60	341.04	25.08	-49.7	-52.0	15.3	0.00e+00	0	63	0
2025-01-08 00:42:46.50	340.49	25.40	-49.8	-52.8	15.3	0.00e+00	0	63	0
2025-01-08 00:42:48.40	339.91	25.72	-49.7	-52.5	15.3	0.00e+00	0	63	0
2025-01-08 00:42:50.29	339.33	26.05	-49.7	-52.6	15.2	0.00e+00	0	63	0
2025-01-08 00:42:52.19	338.74	26.37	-49.5	-52.1	15.3	0.00e+00	0	63	0
2025-01-08 00:42:54.09	338.12	26.70	-49.5	-52.2	15.3	0.00e+00	0	63	0
2025-01-08 00:42:55.98	337.50	27.03	-49.6	-52.3	15.4	0.00e+00	0	63	0
2025-01-08 00:42:57.88	336.86	27.36	-49.7	-52.6	15.3	0.00e+00	0	63	0
2025-01-08 00:42:59.78	336.21	27.69	-49.4	-52.0	15.3	0.00e+00	0	64	0
2025-01-08 00:43:01.68	335.54	28.02	-49.6	-52.4	15.3	0.00e+00	0	64	0
2025-01-08 00:43:03.58	334.85	28.35	-49.3	-51.7	15.4	0.00e+00	0	64	0
2025-01-08 00:43:05.48	334.15	28.69	-49.2	-51.7	15.5	0.00e+00	0	64	0
2025-01-08 00:43:07.38	333.43	29.02	-47.8	-50.4	15.5	0.00e+00	0	64	0
2025-01-08 00:43:09.28	332.70	29.35	-47.8	-50.3	15.5	0.00e+00	0	64	0
2025-01-08 00:43:11.18	331.95	29.69	-47.8	-50.4	15.5	0.00e+00	0	64	0
2025-01-08 00:43:13.07	331.19	30.02	-47.8	-50.3	15.6	0.00e+00	0	65	0
2025-01-08 00:43:14.97	330.40	30.35	-47.7	-50.5	15.6	0.00e+00	0	65	0
2025-01-08 00:43:16.86	329.60	30.67	-47.8	-50.7	15.4	0.00e+00	0	65	0
2025-01-08 00:43:18.76	328.78	31.00	-47.4	-50.0	15.6	0.00e+00	0	65	0
2025-01-08 00:43:20.66	327.95	31.33	-47.5	-50.1	15.6	0.00e+00	0	65	0
2025-01-08 00:43:22.56	327.09	31.65	-47.4	-50.0	15.6	0.00e+00	0	66	0
2025-01-08 00:43:24.46	326.21	31.97	-47.2	-49.5	15.8	0.00e+00	0	65	0
2025-01-08 00:43:26.36	325.32	32.29	-47.0	-49.6	15.7	0.00e+00	0	66	0
2025-01-08 00:43:28.26	324.40	32.61	-47.3	-50.3	15.6	0.00e+00	0	65	0
2025-01-08 00:43:30.16	323.47	32.92	-47.1	-49.9	15.8	0.00e+00	0	66	0
2025-01-08 00:43:32.06	322.52	33.22	-47.3	-50.3	15.7	0.00e+00	0	66	0
2025-01-08 00:43:33.96	321.55	33.52	-47.2	-50.1	15.7	0.00e+00	0	66	0
2025-01-08 00:43:35.86	320.56	33.82	-47.0	-49.7	15.7	0.00e+00	0	66	0
2025-01-08 00:43:37.75	319.56	34.10	-46.8	-49.3	15.8	0.00e+00	0	66	0
2025-01-08 00:43:39.65	318.53	34.38	-46.7	-49.2	15.7	0.00e+00	0	66	0
2025-01-08 00:43:41.55	317.48	34.66	-48.4	-51.5	14.9	0.00e+00	0	66	0
2025-01-08 00:43:43.45	316.41	34.93	-48.4	-51.6	15.1	0.00e+00	0	67	0
2025-01-08 00:43:45.35	315.33	35.18	-49.0	-52.2	15.0	0.00e+00	0	67	0
2025-01-08 00:43:47.25	314.22	35.43	-48.9	-52.0	15.0	0.00e+00	0	67	0
2025-01-08 00:43:49.15	313.10	35.67	-49.0	-52.1	15.1	0.00e+00	0	67	0
2025-01-08 00:43:51.05	311.97	35.90	-48.7	-51.2	15.1	0.00e+00	0	67	0
2025-01-08 00:43:52.95	310.81	36.12	-49.0	-51.7	14.9	0.00e+00	0	67	0
2025-01-08 00:43:54.85	309.64	36.33	-49.0	-52.3	15.0	0.00e+00	0	67	0
2025-01-08 00:43:56.75	308.45	36.53	-48.7	-51.5	15.2	0.00e+00	0	67	0
2025-01-08 00:43:58.64	307.26	36.71	-49.0	-52.2	15.0	0.00e+00	0	67	0
2025-01-08 00:44:00.54	306.04	36.88	-49.1	-51.9	15.0	0.00e+00	0	67	0
2025-01-08 00:44:02.44	304.81	37.04	-49.1	-51.9	15.1	0.00e+00	0	67	0
2025-01-08 00:44:04.34	303.57	37.19	-48.7	-51.6	15.2	0.00e+00	0	67	0
2025-01-08 00:44:06.24	302.32	37.32	-48.8	-51.8	15.1	0.00e+00	0	68	0
2025-01-08 00:44:08.14	301.05	37.43	-48.6	-50.9	15.1	0.00e+00	0	68	0
2025-01-08 00:44:10.04	299.78	37.53	-48.9	-51.4	15.1	0.00e+00	0	68	0
2025-01-08 00:44:11.94	298.50	37.62	-49.2	-52.0	15.0	0.00e+00	0	68	0
2025-01-08 00:44:13.84	297.21	37.69	-49.5	-52.7	14.5	0.00e+00	0	68	0
2025-01-08 00:44:15.74	295.92	37.75	-48.9	-51.6	14.8	0.00e+00	0	68	0
2025-01-08 00:44:17.64	294.63	37.79	-49.4	-52.6	14.8	0.00e+00	0	68	0
2025-01-08 00:44:19.53	293.33	37.81	-49.0	-51.7	15.0	0.00e+00	0	68	0
2025-01-08 00:44:21.43	292.03	37.82	-49.3	-52.3	14.8	0.00e+00	0	68	0
2025-01-08 00:44:23.32	290.74	37.81	-49.2	-52.2	14.8	0.00e+00	0	68	0
2025-01-08 00:44:25.22	289.44	37.79	-50.8	-53.7	14.8	0.00e+00	0	68	0
2025-01-08 00:44:27.12	288.14	37.74	-50.7	-53.6	14.8	0.00e+00	0	68	0
2025-01-08 00:44:29.02	286.85	37.69	-50.1	-53.0	15.0	0.00e+00	0	68	0
2025-01-08 00:44:30.92	285.56	37.62	-50.4	-53.5	15.0	0.00e+00	0	69	0
2025-01-08 00:44:32.82	284.28	37.53	-50.1	-52.9	15.0	0.00e+00	0	68	0
2025-01-08 00:44:34.72	283.01	37.43	-50.5	-53.2	14.9	0.00e+00	0	69	0
2025-01-08 00:44:36.62	281.74	37.31	-50.9	-54.0	14.7	0.00e+00	0	69	0
2025-01-08 00:44:38.52	280.49	37.18	-51.1	-54.4	14.6	0.00e+00	0	69	0
2025-01-08 00:44:40.41	279.25	37.03	-51.9	-55.0	14.0	0.00e+00	0	69	0
2025-01-08 00:44:42.31	278.02	36.87	-50.4	-53.1	14.9	0.00e+00	0	69	0
2025-01-08 00:44:44.21	276.80	36.70	-50.7	-53.7	14.9	0.00e+00	0	69	0
2025-01-08 00:44:46.10	275.60	36.52	-51.3	-54.3	14.7	0.00e+00	0	69	0
2025-01-08 00:44:48.00	274.41	36.32	-51.0	-53.7	14.9	0.00e+00	0	69	0
2025-01-08 00:44:49.90	273.24	36.11	-50.6	-53.4	15.0	0.00e+00	0	69	0
2025-01-08 00:44:51.80	272.08	35.89	-50.2	-53.0	15.3	0.00e+00	0	69	0
2025-01-08 00:44:53.70	270.94	35.66	-50.0	-52.8	15.3	0.00e+00	0	69	0
2025-01-08 00:44:55.60	269.81	35.42	-50.8	-54.3	15.0	0.00e+00	0	69	0
2025-01-08 00:44:57.50	268.70	35.16	-50.1	-52.9	15.3	0.00e+00	0	69	0
2025-01-08 00:44:59.40	267.62	34.90	-51.0	-54.2	14.9	0.00e+00	0	69	0
2025-01-08 00:45:01.30	266.55	34.64	-51.6	-54.4	14.3	0.00e+00	0	69	0
2025-01-08 00:45:03.20	265.49	34.36	-51.5	-54.3	14.7	0.00e+00	0	70	0
2025-01-08 00:45:05.10	264.46	34.08	-52.2	-55.1	14.2	0.00e+00	0	70	0
2025-01-08 00:45:06.99	263.45	33.79	-52.0	-55.1	14.4	0.00e+00	0	70	0
2025-01-08 00:45:08.89	262.46	33.49	-50.2	-52.6	15.3	0.00e+00	0	70	0
2025-01-08 00:45:10.79	261.49	33.19	-49.9	-52.5	15.3	0.00e+00	0	70	0
2025-01-08 00:45:12.69	260.53	32.88	-50.4	-53.5	15.1	0.00e+00	0	70	0
2025-01-08 00:45:14.59	259.59	32.57	-50.7	-54.0	14.9	0.00e+00	0	70	0
2025-01-08 00:45:16.49	258.68	32.25	-51.4	-54.6	14.7	0.00e+00	0	70	0
2025-01-08 00:45:18.39	257.78	31.93	-51.7	-54.5	14.6	0.00e+00	0	70	0
2025-01-08 00:45:20.29	256.90	31.61	-51.9	-55.1	14.4	0.00e+00	0	70	0
2025-01-08 00:45:22.19	256.04	31.28	-51.4	-54.0	14.7	0.00e+00	0	70	0
2025-01-08 00:45:24.09	255.20	30.95	-51.3	-54.3	14.8	0.00e+00	0	70	0
2025-01-08 00:45:25.99	254.37	30.62	-51.5	-54.7	14.6	0.00e+00	0	70	0
2025-01-08 00:45:27.88	253.57	30.29	-50.9	-53.6	14.8	0.00e+00	0	70	0
2025-01-08 00:45:29.78	252.78	29.96	-50.9	-53.5	14.7	0.00e+00	0	70	0
2025-01-08 00:45:31.68	252.01	29.62	-51.6	-55.0	14.3	6.90e-06	0	70	0
2025-01-08 00:45:33.57	251.26	29.29	-51.8	-54.7	14.3	0.00e+00	0	70	0
2025-01-08 00:45:35.47	250.52	28.95	-51.8	-54.4	14.4	0.00e+00	0	70	0
2025-01-08 00:45:37.37	249.80	28.62	-51.7	-54.2	14.4	0.00e+00	0	70	0
2025-01-08 00:45:39.27	249.10	28.28	-51.5	-54.1	14.6	0.00e+00	0	70	0
2025-01-08 00:45:41.17	248.41	27.95	-51.5	-54.6	14.6	0.00e+00	0	71	0
2025-01-08 00:45:43.07	247.74	27.61	-51.7	-54.7	14.5	0.00e+00	0	71	0
2025-01-08 00:45:44.97	247.08	27.28	-52.1	-55.3	14.3	0.00e+00	0	71	0
2025-01-08 00:45:46.87	246.43	26.95	-51.8	-54.4	14.4	0.00e+00	0	71	0
2025-01-08 00:45:48.77	245.81	26.61	-52.6	-55.9	14.0	0.00e+00	0	71	0
2025-01-08 00:45:50.66	245.19	26.28	-52.0	-54.8	14.3	0.00e+00	0	71	0
2025-01-08 00:45:52.56	244.59	25.96	-52.0	-54.8	14.3	0.00e+00	0	71	0
2025-01-08 00:45:54.45	244.01	25.63	-51.1	-53.8	14.8	0.00e+00	0	71	0
2025-01-08 00:45:56.35	243.44	25.31	-51.2	-54.2	14.8	0.00e+00	0	71	0
2025-01-08 00:45:58.25	242.88	24.98	-52.1	-55.4	14.2	0.00e+00	0	71	0
2025-01-08 00:46:00.15	242.33	24.66	-52.3	-55.4	13.9	0.00e+00	0	71	0
2025-01-08 00:46:02.05	241.79	24.34	-52.4	-55.5	13.9	0.00e+00	0	71	0
2025-01-08 00:46:03.95	241.27	24.03	-52.5	-55.2	14.1	0.00e+00	0	71	0
2025-01-08 00:46:05.85	240.75	23.71	-52.4	-54.9	14.1	0.00e+00	0	71	0
2025-01-08 00:46:07.74	240.25	23.40	-51.6	-54.4	14.4	0.00e+00	0	71	0
2025-01-08 00:46:09.64	239.76	23.09	-51.8	-54.8	14.2	0.00e+00	0	71	0
2025-01-08 00:46:11.54	239.28	22.78	-51.8	-54.7	14.3	0.00e+00	0	71	0
2025-01-08 00:46:13.44	238.81	22.48	-51.8	-54.8	14.3	0.00e+00	0	71	0
2025-01-08 00:46:15.34	238.35	22.18	-52.5	-55.7	13.9	0.00e+00	0	71	0
2025-01-08 00:46:17.23	237.91	21.88	-52.8	-55.9	13.6	0.00e+00	0	71	0
2025-01-08 00:46:19.13	237.47	21.58	-52.7	-55.6	13.5	0.00e+00	0	71	0
2025-01-08 00:46:21.03	237.04	21.29	-52.5	-55.3	13.7	0.00e+00	0	72	0
2025-01-08 00:46:22.93	236.62	20.99	-52.2	-54.7	13.9	0.00e+00	0	72	0
2025-01-08 00:46:24.83	236.20	20.70	-51.9	-54.6	14.2	0.00e+00	0	72	0
2025-01-08 00:46:26.73	235.80	20.42	-52.2	-55.1	13.9	0.00e+00	0	71	0
2025-01-08 00:46:28.63	235.40	20.13	-52.3	-55.4	13.7	6.90e-06	0	72	0
2025-01-08 00:46:30.53	235.02	19.85	-52.7	-56.1	13.5	0.00e+00	0	72	0
2025-01-08 00:46:32.43	234.64	19.58	-53.0	-56.2	13.4	1.38e-05	0	72	0
2025-01-08 00:46:34.33	234.27	19.30	-53.1	-56.5	13.3	0.00e+00	0	72	0
2025-01-08 00:46:36.23	233.90	19.03	-53.1	-56.4	13.4	0.00e+00	0	72	0
2025-01-08 00:46:38.12	233.55	18.76	-52.8	-55.9	13.6	0.00e+00	0	72	0
2025-01-08 00:46:40.02	233.20	18.49	-52.5	-55.3	13.8	6.90e-06	0	72	0
2025-01-08 00:46:41.92	232.86	18.22	-52.8	-55.8	13.6	0.00e+00	0	72	0
2025-01-08 00:46:43.82	232.52	17.96	-53.0	-56.2	13.5	0.00e+00	0	72	0
2025-01-08 00:46:45.72	232.19	17.70	-53.2	-56.6	13.3	6.90e-06	0	72	0
2025-01-08 00:46:47.62	231.87	17.44	-53.3	-56.3	13.4	0.00e+00	0	72	0
2025-01-08 00:46:49.52	231.56	17.19	-53.6	-56.9	13.2	6.90e-06	0	72	0
2025-01-08 00:46:51.42	231.25	16.94	-53.7	-57.1	13.2	0.00e+00	0	72	0
2025-01-08 00:46:53.32	230.94	16.69	-53.6	-57.0	13.3	0.00e+00	0	72	0
2025-01-08 00:46:55.22	230.64	16.44	-53.5	-56.8	13.3	0.00e+00	0	72	0
2025-01-08 00:46:57.12	230.35	16.20	-52.9	-55.6	13.8	0.00e+00	0	72	0
2025-01-08 00:46:59.01	230.07	15.95	-53.2	-56.1	13.7	6.90e-06	0	72	0
2025-01-08 00:47:00.91	229.79	15.71	-53.4	-56.6	13.5	6.90e-06	0	72	0
2025-01-08 00:47:02.80	229.51	15.48	-53.3	-56.4	13.6	1.38e-05	0	72	0
2025-01-08 00:47:04.70	229.24	15.24	-53.7	-57.1	13.3	0.00e+00	0	72	0
2025-01-08 00:47:06.60	228.97	15.01	-53.9	-57.0	13.2	6.90e-06	0	72	0
2025-01-08 00:47:08.50	228.71	14.78	-54.1	-57.4	13.1	0.00e+00	0	72	0
2025-01-08 00:47:10.40	228.46	14.55	-54.3	-57.3	12.9	6.90e-06	0	72	0
2025-01-08 00:47:12.30	228.20	14.32	-54.2	-57.2	12.9	6.90e-06	0	72	0
2025-01-08 00:47:14.20	227.96	14.10	-54.5	-57.7	12.8	2.77e-05	0	72	0
2025-01-08 00:47:16.10	227.71	13.88	-54.4	-57.6	12.9	3.46e-05	0	72	0
2025-01-08 00:47:17.99	227.48	13.66	-54.1	-57.0	13.0	2.08e-05	0	72	0
2025-01-08 00:47:19.89	227.24	13.44	-67.8	-73.9	3.7	2.08e-05	0	72	104
2025-01-08 00:47:21.79	227.01	13.23	-67.7	-73.3	3.7	6.90e-06	0	72	104
2025-01-08 00:47:23.69	226.78	13.01	-67.7	-73.4	3.6	6.90e-06	0	72	104
2025-01-08 00:47:25.58	226.56	12.80	-67.7	-73.2	3.6	6.90e-06	0	72	104
2025-01-08 00:47:27.48	226.34	12.59	-67.5	-73.0	3.6	6.90e-06	0	72	104
2025-01-08 00:47:29.38	226.13	12.38	-67.4	-72.8	3.6	6.90e-06	0	72	104
2025-01-08 00:47:31.28	225.92	12.18	-67.4	-72.7	3.7	6.90e-06	0	72	104
2025-01-08 00:47:33.18	225.71	11.98	-67.5	-72.8	3.7	6.90e-06	0	72	104
2025-01-08 00:47:35.08	225.51	11.77	-67.6	-72.8	3.7	6.90e-06	0	72	104
2025-01-08 00:47:36.98	225.30	11.57	-67.6	-72.8	3.6	6.90e-06	0	72	104
2025-01-08 00:47:38.88	225.11	11.37	-67.5	-72.7	3.6	6.90e-06	0	72	104
2025-01-08 00:47:40.78	224.91	11.18	-67.3	-72.3	3.6	6.90e-06	0	72	104
2025-01-08 00:47:42.68	224.72	10.98	-67.2	-72.2	3.7	6.90e-06	0	72	104
2025-01-08 00:47:44.58	224.53	10.79	-67.1	-72.7	3.7	6.90e-06	0	72	104
2025-01-08 00:47:46.47	224.35	10.60	-67.1	-72.7	3.7	6.90e-06	0	72	104
2025-01-08 00:47:48.37	224.17	10.41	-67.2	-72.8	3.6	6.90e-06	0	72	104
2025-01-08 00:47:50.27	223.99	10.22	-67.3	-72.9	3.6	6.90e-06	0	72	104
2025-01-08 00:47:52.17	223.81	10.04	-67.3	-73.1	3.6	6.90e-06	0	72	104
2025-01-08 00:47:54.07	223.64	9.85	-67.4	-73.3	3.7	6.90e-06	0	72	104
2025-01-08 00:47:55.97	223.47	9.67	-67.5	-73.3	3.7	6.90e-06	0	72	104
2025-01-08 00:47:57.87	223.30	9.49	-67.5	-73.4	3.7	6.90e-06	0	72	104
2025-01-08 00:47:59.77	223.13	9.31	-67.5	-73.3	3.6	6.90e-06	0	72	104
2025-01-08 00:48:01.67	222.97	9.13	-67.4	-73.0	3.6	6.90e-06	0	72	104
2025-01-08 00:48:03.57	222.81	8.95	-67.3	-72.8	3.6	6.90e-06	0	72	104
2025-01-08 00:48:05.47	222.65	8.77	-67.3	-72.9	3.7	6.90e-06	0	72	104
2025-01-08 00:48:07.36	222.49	8.60	-67.4	-73.1	3.7	6.90e-06	0	72	104
2025-01-08 00:48:09.26	222.34	8.43	-67.5	-73.3	3.6	6.90e-06	0	72	104
2025-01-08 00:48:11.16	222.19	8.26	-67.5	-73.3	3.6	6.90e-06	0	72	104
2025-01-08 00:48:13.06	222.04	8.09	-67.3	-73.1	3.6	0.00e+00	0	72	104

#Closed at: 2025-01-08 00:48:14
#Recorded file [26021 MB]: D:/data/31015_250108_124719.dat