passes_logs/2025/01/25/XPeterburg/XPeterburg__20250125_020706_FENGYUN_3D_rec.log

#Pass ID: 20250125_020706_FENGYUN 3D
#Satellite: FENGYUN 3D
#Configuration: FENGYUN 3D
#Start time: 2025-01-25 02:07:01

#Version: 1.5.20200625
#Station: XPeterburg
#Location: 30.318091 lon 59.932769 lat
#TLE: 1 43010U 17072A   25024.14915762  .00000341  00000+0  18355-3 0  9995
#TLE: 2 43010  98.9433 346.4677 0002514  73.5220 286.6232 14.19550172372763

#Time	Az	El	Level	Level2	SNR	BER	Gain	Gain2
2025-01-25 02:07:01.58	339.28	68.76	-38.6	-40.5	3.4	8385349	95	3043
2025-01-25 02:07:01.78	339.09	68.82	-37.0	-61.2	3.8	7904869	48	39694
2025-01-25 02:07:01.98	338.91	68.89	-37.3	-48.2	4.3	7904869	74	8696
2025-01-25 02:07:02.18	338.72	68.96	-37.5	-38.8	4.4	8269706	92	2869
2025-01-25 02:07:02.38	338.53	69.02	-37.2	-37.8	4.6	8005485	92	2648
2025-01-25 02:07:02.58	338.34	69.09	-36.9	-37.1	4.9	8005485	92	2515
2025-01-25 02:07:02.79	338.14	69.16	-36.6	-36.8	5.4	7555652	91	2514
2025-01-25 02:07:02.99	337.95	69.22	-36.3	-35.9	5.8	5690883	91	2373
2025-01-25 02:07:03.19	337.75	69.29	-35.6	-35.6	6.4	5690883	89	2442
2025-01-25 02:07:03.39	337.56	69.35	-35.2	-35.1	7.0	2991943	88	2441
2025-01-25 02:07:03.59	337.36	69.42	-34.7	-34.5	7.7	1621730	87	2406
2025-01-25 02:07:03.79	337.16	69.48	-34.2	-33.7	8.3	1621730	87	2301
2025-01-25 02:07:03.99	336.96	69.55	-33.5	-33.1	9.0	779457	85	2344
2025-01-25 02:07:04.19	336.76	69.61	-32.9	-32.4	9.6	333789	84	2312
2025-01-25 02:07:04.39	336.56	69.67	-32.5	-32.1	10.2	333789	83	2330
2025-01-25 02:07:04.59	336.35	69.74	-32.2	-31.8	10.7	125827	82	2360
2025-01-25 02:07:04.80	336.14	69.80	-31.8	-31.0	11.2	44872	82	2253
2025-01-25 02:07:05.00	335.93	69.87	-31.4	-30.9	11.7	44872	81	2302
2025-01-25 02:07:05.20	335.72	69.93	-31.1	-30.7	12.1	13904	80	2344
2025-01-25 02:07:05.40	335.51	69.99	-30.8	-30.1	12.4	5310	80	2258
2025-01-25 02:07:05.60	335.30	70.06	-30.3	-29.6	12.7	1899	79	2255
2025-01-25 02:07:05.80	335.09	70.12	-30.3	-29.9	12.9	1899	78	2367
2025-01-25 02:07:06.00	334.88	70.18	-30.2	-29.7	13.1	801	78	2333
2025-01-25 02:07:06.20	334.66	70.24	-30.1	-29.6	13.1	732	78	2317
2025-01-25 02:07:06.40	334.44	70.31	-30.1	-29.6	13.1	732	78	2320
2025-01-25 02:07:06.60	334.23	70.37	-30.2	-29.8	13.1	537	78	2355
2025-01-25 02:07:06.80	334.01	70.43	-30.3	-30.0	12.9	434	78	2383
2025-01-25 02:07:07.01	333.77	70.49	-30.5	-30.4	12.7	434	78	2439
2025-01-25 02:07:07.21	333.55	70.55	-30.6	-30.5	12.5	972	78	2451
2025-01-25 02:07:07.41	333.33	70.62	-30.5	-30.3	12.7	1590	78	2420
2025-01-25 02:07:07.61	333.10	70.68	-30.4	-30.3	12.8	1590	78	2412
2025-01-25 02:07:07.81	332.87	70.74	-30.5	-30.5	12.9	1018	78	2454
2025-01-25 02:07:08.01	332.65	70.80	-30.7	-30.7	12.8	766	78	2489
2025-01-25 02:07:08.21	332.42	70.86	-30.4	-30.2	13.0	766	78	2404
2025-01-25 02:07:08.41	332.18	70.92	-30.7	-30.8	12.7	801	78	2496
2025-01-25 02:07:08.61	331.95	70.97	-30.5	-30.3	12.7	904	78	2425
2025-01-25 02:07:08.81	331.72	71.03	-30.6	-30.7	12.6	1155	78	2472
2025-01-25 02:07:09.01	331.48	71.09	-30.6	-30.7	12.6	1155	78	2484
2025-01-25 02:07:09.22	331.23	71.15	-30.8	-31.1	12.5	1670	78	2539
2025-01-25 02:07:09.42	330.99	71.21	-30.9	-31.3	12.4	2185	78	2572
2025-01-25 02:07:09.62	330.75	71.27	-30.8	-31.1	12.5	2185	78	2548
2025-01-25 02:07:09.82	330.51	71.33	-30.8	-31.1	12.5	2002	78	2547
2025-01-25 02:07:10.02	330.26	71.38	-30.7	-30.9	12.6	1831	78	2522
2025-01-25 02:07:10.22	330.02	71.44	-30.8	-31.0	12.5	1831	78	2517
2025-01-25 02:07:10.42	329.77	71.50	-30.4	-30.4	12.9	1533	78	2434
2025-01-25 02:07:10.62	329.52	71.55	-30.5	-30.4	12.8	1121	78	2433
2025-01-25 02:07:10.82	329.27	71.61	-30.1	-29.7	13.2	1121	78	2327
2025-01-25 02:07:11.02	329.02	71.67	-30.5	-30.4	12.9	595	78	2431
2025-01-25 02:07:11.23	328.75	71.72	-30.1	-29.6	13.2	652	78	2317
2025-01-25 02:07:11.43	328.49	71.78	-30.4	-30.3	12.9	652	78	2412
2025-01-25 02:07:11.63	328.23	71.83	-30.1	-29.5	13.1	617	78	2307
2025-01-25 02:07:11.83	327.98	71.89	-30.3	-30.1	12.8	514	78	2382
2025-01-25 02:07:12.03	327.71	71.94	-30.4	-30.2	12.8	663	78	2405
2025-01-25 02:07:12.23	327.45	72.00	-30.7	-30.8	12.5	663	78	2487
2025-01-25 02:07:12.43	327.19	72.05	-30.6	-30.5	12.6	1430	78	2450
2025-01-25 02:07:12.63	326.92	72.10	-30.8	-31.1	12.4	1659	78	2532
2025-01-25 02:07:12.84	326.64	72.16	-30.6	-30.6	12.6	1659	78	2462
2025-01-25 02:07:13.04	326.37	72.21	-30.9	-31.2	12.3	1705	78	2558
2025-01-25 02:07:13.24	326.10	72.26	-30.5	-30.5	12.8	2311	78	2453
2025-01-25 02:07:13.44	325.83	72.32	-30.7	-30.7	12.6	1258	78	2484
2025-01-25 02:07:13.64	325.55	72.37	-30.2	-29.7	13.2	1258	78	2340
2025-01-25 02:07:13.84	325.28	72.42	-30.1	-29.5	13.3	652	78	2312
2025-01-25 02:07:14.04	325.00	72.47	-29.7	-29.1	13.7	240	77	2319
2025-01-25 02:07:14.24	324.72	72.52	-29.8	-29.4	13.6	240	77	2365
2025-01-25 02:07:14.44	324.44	72.57	-29.4	-28.7	14.0	114	77	2260
2025-01-25 02:07:14.64	324.16	72.62	-29.7	-29.2	13.9	68	77	2331
2025-01-25 02:07:14.84	323.87	72.67	-29.6	-29.0	14.2	68	77	2307
2025-01-25 02:07:15.04	323.59	72.72	-29.5	-29.0	14.1	34	77	2306
2025-01-25 02:07:15.25	323.28	72.77	-29.6	-29.1	14.2	22	77	2322
2025-01-25 02:07:15.45	323.00	72.82	-29.6	-29.1	14.0	22	77	2315
2025-01-25 02:07:15.65	322.70	72.86	-29.5	-28.7	14.0	34	77	2265
2025-01-25 02:07:15.85	322.41	72.91	-30.0	-29.8	13.8	22	77	2427
2025-01-25 02:07:16.05	322.12	72.96	-29.7	-29.4	13.9	22	77	2355
2025-01-25 02:07:16.25	321.82	73.00	-30.0	-29.9	13.8	57	77	2442
2025-01-25 02:07:16.45	321.52	73.05	-30.1	-30.1	13.7	11	77	2477
2025-01-25 02:07:16.66	321.21	73.10	-30.1	-30.2	13.7	11	77	2481
2025-01-25 02:07:16.86	320.90	73.14	-30.1	-30.1	13.6	68	77	2465
2025-01-25 02:07:17.06	320.60	73.19	-30.0	-30.0	13.7	91	77	2454
2025-01-25 02:07:17.26	320.30	73.23	-30.1	-30.3	13.7	125	77	2497
2025-01-25 02:07:17.46	319.99	73.27	-30.1	-30.3	13.8	125	77	2513
2025-01-25 02:07:17.66	319.68	73.32	-29.8	-29.6	14.0	160	77	2400
2025-01-25 02:07:17.86	319.37	73.36	-29.8	-29.5	14.0	80	77	2378
2025-01-25 02:07:18.06	319.06	73.40	-29.7	-29.4	14.0	80	77	2364
2025-01-25 02:07:18.26	318.75	73.44	-29.7	-29.3	14.1	57	77	2348
2025-01-25 02:07:18.46	318.43	73.49	-29.6	-29.2	14.1	11	77	2340
2025-01-25 02:07:18.66	318.11	73.53	-29.7	-29.3	14.1	11	77	2349
2025-01-25 02:07:18.87	317.78	73.57	-29.6	-29.2	14.2	34	77	2340
2025-01-25 02:07:19.07	317.46	73.61	-29.6	-29.2	14.1	22	77	2336
2025-01-25 02:07:19.27	317.14	73.65	-29.8	-29.5	13.9	22	77	2383
2025-01-25 02:07:19.47	316.81	73.69	-29.9	-29.8	13.8	57	77	2422
2025-01-25 02:07:19.67	316.49	73.73	-30.1	-30.2	13.7	137	77	2485
2025-01-25 02:07:19.87	316.16	73.77	-30.3	-30.5	13.6	137	77	2540
2025-01-25 02:07:20.07	315.84	73.80	-30.2	-30.3	13.6	114	77	2512
2025-01-25 02:07:20.27	315.51	73.84	-29.9	-29.7	13.7	114	77	2404
2025-01-25 02:07:20.47	315.17	73.88	-30.2	-30.4	13.4	160	77	2517
2025-01-25 02:07:20.68	314.82	73.91	-30.3	-30.6	13.4	160	77	2546
2025-01-25 02:07:20.88	314.49	73.95	-30.3	-30.7	13.3	240	77	2564
2025-01-25 02:07:21.08	314.15	73.98	-30.1	-30.1	13.4	411	77	2468
2025-01-25 02:07:21.28	313.82	74.02	-29.8	-29.6	13.6	411	77	2400
2025-01-25 02:07:21.48	313.48	74.05	-30.1	-30.2	13.6	183	77	2493
2025-01-25 02:07:21.68	313.14	74.09	-29.9	-29.8	13.9	114	77	2419
2025-01-25 02:07:21.88	312.79	74.12	-29.9	-29.7	13.8	148	77	2414
2025-01-25 02:07:22.08	312.45	74.15	-29.8	-29.6	14.0	148	77	2390
2025-01-25 02:07:22.28	312.11	74.18	-29.7	-29.4	14.0	80	77	2362
2025-01-25 02:07:22.49	311.74	74.22	-29.4	-28.7	14.2	34	77	2271
2025-01-25 02:07:22.69	311.39	74.25	-29.5	-28.9	14.2	34	77	2292
2025-01-25 02:07:22.89	311.04	74.28	-29.4	-28.7	14.3	0	77	2274
2025-01-25 02:07:23.09	310.69	74.31	-29.2	-28.8	14.5	34	76	2336
2025-01-25 02:07:23.29	310.34	74.34	-29.2	-28.7	14.5	34	76	2324
2025-01-25 02:07:23.49	309.99	74.36	-29.3	-29.0	14.3	0	76	2375
2025-01-25 02:07:23.69	309.63	74.39	-29.5	-29.3	14.2	22	76	2406
2025-01-25 02:07:23.89	309.28	74.42	-29.4	-29.2	14.2	22	76	2395
2025-01-25 02:07:24.09	308.92	74.45	-29.6	-29.6	14.0	45	76	2457
2025-01-25 02:07:24.29	308.56	74.47	-29.5	-29.4	14.1	57	76	2425
2025-01-25 02:07:24.50	308.18	74.50	-29.7	-29.9	13.9	57	76	2493
2025-01-25 02:07:24.70	307.82	74.52	-29.8	-29.9	13.9	34	76	2507
2025-01-25 02:07:24.90	307.46	74.55	-29.8	-30.0	13.8	57	76	2508
2025-01-25 02:07:25.10	307.09	74.57	-29.8	-29.9	13.8	45	76	2508
2025-01-25 02:07:25.30	306.73	74.60	-29.8	-29.9	13.8	45	76	2498
2025-01-25 02:07:25.50	306.36	74.62	-29.5	-29.4	14.0	34	76	2427
2025-01-25 02:07:25.70	306.00	74.64	-29.4	-29.2	14.1	34	76	2398
2025-01-25 02:07:25.90	305.63	74.66	-29.2	-28.8	14.4	34	76	2339
2025-01-25 02:07:26.10	305.26	74.68	-29.2	-28.7	14.5	45	76	2326
2025-01-25 02:07:26.31	304.87	74.70	-29.2	-28.7	14.5	22	76	2320
2025-01-25 02:07:26.51	304.50	74.72	-29.4	-29.1	14.3	22	76	2376
2025-01-25 02:07:26.71	304.13	74.74	-29.4	-29.2	14.1	22	76	2387
2025-01-25 02:07:26.91	303.75	74.76	-29.5	-29.3	14.1	22	76	2410
2025-01-25 02:07:27.11	303.38	74.78	-29.6	-29.6	13.9	22	76	2448
2025-01-25 02:07:27.31	303.00	74.80	-29.6	-29.6	14.0	45	76	2444
2025-01-25 02:07:27.51	302.63	74.81	-29.8	-29.9	13.8	22	76	2502
2025-01-25 02:07:27.71	302.25	74.83	-29.8	-29.9	13.7	22	76	2500
2025-01-25 02:07:27.91	301.87	74.84	-30.0	-30.3	13.6	68	76	2554
2025-01-25 02:07:28.11	301.49	74.86	-30.0	-29.9	13.4	160	77	2429
2025-01-25 02:07:28.32	301.10	74.87	-30.0	-29.9	13.4	160	77	2434
2025-01-25 02:07:28.52	300.72	74.88	-30.1	-30.0	13.3	228	77	2436
2025-01-25 02:07:28.72	300.34	74.90	-30.1	-30.0	13.4	194	77	2445
2025-01-25 02:07:28.92	299.95	74.91	-30.0	-29.8	13.3	148	77	2416
2025-01-25 02:07:29.12	299.57	74.92	-30.0	-29.7	13.4	148	77	2395
2025-01-25 02:07:29.32	299.19	74.93	-29.9	-29.7	13.5	343	77	2394
2025-01-25 02:07:29.52	298.81	74.94	-29.9	-29.6	13.4	240	77	2377
2025-01-25 02:07:29.72	298.42	74.95	-30.0	-29.9	13.4	240	77	2422
2025-01-25 02:07:29.92	298.04	74.96	-30.1	-30.0	13.2	160	77	2441
2025-01-25 02:07:30.13	297.64	74.97	-30.1	-29.9	13.2	263	77	2424
2025-01-25 02:07:30.33	297.25	74.97	-30.0	-29.8	13.3	263	77	2398
2025-01-25 02:07:30.53	296.87	74.98	-30.3	-30.4	13.0	228	77	2489
2025-01-25 02:07:30.73	296.48	74.99	-30.2	-30.2	13.1	572	77	2470
2025-01-25 02:07:30.93	296.10	74.99	-30.2	-30.3	13.0	663	77	2477
2025-01-25 02:07:31.13	295.71	75.00	-30.5	-30.8	12.8	663	77	2557
2025-01-25 02:07:31.33	295.32	75.00	-30.4	-30.2	13.0	743	78	2404
2025-01-25 02:07:31.53	294.94	75.01	-30.8	-30.9	12.5	915	78	2495
2025-01-25 02:07:31.74	294.53	75.01	-30.4	-30.2	12.9	915	78	2405
2025-01-25 02:07:31.94	294.14	75.01	-30.7	-30.7	12.6	1110	78	2467
2025-01-25 02:07:32.14	293.76	75.01	-30.5	-30.3	12.9	1430	78	2410
2025-01-25 02:07:32.34	293.37	75.01	-30.5	-30.3	12.9	1430	78	2415
2025-01-25 02:07:32.54	292.98	75.01	-30.4	-30.1	12.9	823	78	2389
2025-01-25 02:07:32.74	292.60	75.01	-30.3	-30.1	13.0	778	78	2379
2025-01-25 02:07:32.94	292.21	75.01	-30.4	-30.2	12.9	778	78	2404
2025-01-25 02:07:33.14	291.82	75.01	-30.4	-30.3	13.0	743	78	2413
2025-01-25 02:07:33.35	291.42	75.01	-30.7	-30.7	12.7	663	78	2475
2025-01-25 02:07:33.55	291.03	75.00	-30.7	-30.7	12.6	1167	78	2467
2025-01-25 02:07:33.75	290.64	75.00	-30.6	-30.5	12.7	1167	78	2442
2025-01-25 02:07:33.95	290.26	74.99	-30.9	-31.2	12.5	1087	78	2553
2025-01-25 02:07:34.15	289.87	74.99	-30.5	-30.3	12.8	1453	78	2411
2025-01-25 02:07:34.35	289.49	74.98	-30.8	-30.9	12.5	1453	78	2491
2025-01-25 02:07:34.55	289.10	74.98	-30.8	-30.9	12.5	1350	78	2501
2025-01-25 02:07:34.75	288.72	74.97	-30.5	-30.4	12.8	1785	78	2417
2025-01-25 02:07:34.95	288.33	74.96	-31.0	-31.0	12.1	1785	79	2440
2025-01-25 02:07:35.16	287.93	74.95	-30.6	-30.0	12.7	1968	79	2301
2025-01-25 02:07:35.36	287.54	74.94	-31.2	-31.4	11.9	2403	79	2494
2025-01-25 02:07:35.56	287.16	74.93	-31.2	-31.4	12.1	2403	79	2506
2025-01-25 02:07:35.76	286.78	74.92	-31.9	-32.3	11.5	4886	80	2581
2025-01-25 02:07:35.96	286.40	74.91	-31.8	-32.0	11.7	8983	80	2539
2025-01-25 02:07:36.16	286.01	74.90	-31.8	-31.5	11.6	8983	81	2389
2025-01-25 02:07:36.36	285.63	74.89	-31.7	-31.5	11.7	11226	81	2391
2025-01-25 02:07:36.56	285.25	74.87	-31.4	-30.7	12.0	8457	81	2274
2025-01-25 02:07:36.76	284.87	74.86	-31.6	-31.1	11.9	8457	81	2328
2025-01-25 02:07:36.97	284.48	74.85	-31.3	-31.0	12.3	5241	80	2379
2025-01-25 02:07:37.17	284.10	74.83	-31.2	-30.8	12.2	4199	80	2349
2025-01-25 02:07:37.37	283.72	74.81	-31.4	-31.2	12.3	2620	80	2415
2025-01-25 02:07:37.57	283.35	74.80	-31.2	-30.8	12.3	2620	80	2340
2025-01-25 02:07:37.77	282.97	74.78	-31.7	-31.9	11.8	3376	80	2517
2025-01-25 02:07:37.97	282.60	74.76	-31.8	-31.9	11.8	5893	80	2514
2025-01-25 02:07:38.17	282.22	74.75	-31.7	-31.8	11.7	5893	80	2499
2025-01-25 02:07:38.37	281.85	74.73	-32.0	-32.4	11.5	8754	80	2593
2025-01-25 02:07:38.57	281.48	74.71	-32.0	-32.0	11.3	11203	81	2452
2025-01-25 02:07:38.77	281.11	74.69	-32.1	-32.2	11.1	11203	81	2482
2025-01-25 02:07:38.98	280.72	74.67	-32.2	-32.3	11.1	18688	81	2506
2025-01-25 02:07:39.18	280.35	74.64	-32.3	-32.6	10.8	21503	81	2546
2025-01-25 02:07:39.38	279.98	74.62	-32.2	-32.3	11.2	23586	81	2504
2025-01-25 02:07:39.58	279.62	74.60	-32.3	-32.7	10.9	23586	81	2562
2025-01-25 02:07:39.78	279.25	74.58	-32.4	-32.7	10.9	27339	81	2570
2025-01-25 02:07:39.98	278.89	74.55	-32.4	-32.9	10.8	32054	81	2589
2025-01-25 02:07:40.18	278.52	74.53	-32.4	-32.8	10.9	32054	81	2588
2025-01-25 02:07:40.38	278.16	74.50	-32.5	-32.5	10.7	32592	82	2465
2025-01-25 02:07:40.59	277.78	74.48	-32.4	-32.4	10.7	38246	82	2438
2025-01-25 02:07:40.79	277.43	74.45	-32.3	-32.1	10.9	38246	82	2404
2025-01-25 02:07:40.99	277.07	74.43	-32.6	-32.6	10.5	31150	82	2472
2025-01-25 02:07:41.19	276.71	74.40	-32.1	-31.8	11.1	40283	82	2353
2025-01-25 02:07:41.39	276.36	74.37	-32.5	-32.5	10.6	40283	82	2460
2025-01-25 02:07:41.59	276.00	74.34	-32.3	-32.1	10.9	31436	82	2393
2025-01-25 02:07:41.79	275.65	74.31	-32.6	-32.7	10.6	36952	82	2478
2025-01-25 02:07:41.99	275.30	74.28	-32.5	-32.4	10.7	39813	82	2454
2025-01-25 02:07:42.20	274.93	74.25	-32.4	-32.2	10.7	39813	82	2420
2025-01-25 02:07:42.40	274.58	74.22	-32.7	-32.9	10.4	43807	82	2530
2025-01-25 02:07:42.60	274.23	74.19	-32.7	-33.0	10.4	59532	82	2537
2025-01-25 02:07:42.80	273.89	74.16	-33.0	-33.5	10.0	59532	82	2610
2025-01-25 02:07:43.00	273.55	74.13	-32.9	-33.3	10.2	78517	82	2574
2025-01-25 02:07:43.20	273.20	74.09	-32.9	-33.0	9.9	89813	83	2470
2025-01-25 02:07:43.40	272.86	74.06	-32.9	-32.9	10.0	89813	83	2453
2025-01-25 02:07:43.60	272.52	74.03	-32.8	-32.6	10.1	103145	83	2417
2025-01-25 02:07:43.80	272.18	73.99	-33.3	-33.8	9.7	99369	83	2612
2025-01-25 02:07:44.00	271.85	73.96	-32.9	-32.8	10.0	99369	83	2447
2025-01-25 02:07:44.21	271.50	73.92	-32.5	-32.1	10.4	116981	83	2331
2025-01-25 02:07:44.41	271.16	73.88	-33.0	-33.1	10.1	70186	83	2494
2025-01-25 02:07:44.61	270.83	73.85	-32.5	-32.0	10.4	70186	83	2319
2025-01-25 02:07:44.81	270.50	73.81	-32.7	-32.3	10.2	75748	83	2367
2025-01-25 02:07:45.01	270.17	73.77	-32.8	-32.7	10.2	72486	83	2434
2025-01-25 02:07:45.21	269.84	73.73	-32.7	-32.5	10.2	81024	83	2389
2025-01-25 02:07:45.41	269.52	73.70	-32.6	-32.1	10.3	81024	83	2336
2025-01-25 02:07:45.61	269.19	73.66	-32.8	-32.6	10.0	73230	83	2415
2025-01-25 02:07:45.82	268.86	73.61	-33.1	-33.4	9.5	132373	83	2523
2025-01-25 02:07:46.02	268.54	73.57	-33.0	-32.9	9.6	132373	83	2449
2025-01-25 02:07:46.22	268.22	73.53	-33.0	-33.2	9.8	163982	83	2499
2025-01-25 02:07:46.42	267.90	73.49	-33.3	-33.8	9.4	154380	83	2599
2025-01-25 02:07:46.62	267.58	73.45	-33.1	-33.2	9.6	154380	83	2506
2025-01-25 02:07:46.82	267.27	73.41	-33.0	-33.1	9.6	166728	83	2494
2025-01-25 02:07:47.02	266.96	73.37	-32.9	-32.9	9.7	148143	83	2463
2025-01-25 02:07:47.22	266.65	73.33	-32.4	-31.8	10.5	148143	83	2304
2025-01-25 02:07:47.42	266.34	73.28	-33.2	-33.5	9.4	99700	83	2555
2025-01-25 02:07:47.63	266.02	73.24	-32.4	-31.7	10.4	148635	83	2281
2025-01-25 02:07:47.83	265.71	73.19	-33.3	-33.8	9.3	148635	83	2606
2025-01-25 02:07:48.03	265.41	73.15	-32.5	-32.0	10.2	105319	83	2326
2025-01-25 02:07:48.23	265.10	73.10	-33.4	-34.1	9.2	152709	83	2663
2025-01-25 02:07:48.43	264.80	73.06	-33.1	-33.5	9.7	180976	83	2560
2025-01-25 02:07:48.63	264.51	73.01	-33.5	-34.2	9.2	180976	83	2682
2025-01-25 02:07:48.83	264.21	72.96	-33.4	-34.1	9.3	199378	83	2661
2025-01-25 02:07:49.03	263.91	72.92	-33.6	-34.1	9.0	226135	84	2593
2025-01-25 02:07:49.24	263.60	72.87	-33.0	-32.6	10.0	226135	84	2359
2025-01-25 02:07:49.44	263.31	72.82	-33.5	-33.8	9.3	186126	84	2550
2025-01-25 02:07:49.64	263.02	72.77	-33.3	-33.3	9.6	182888	84	2475
2025-01-25 02:07:49.84	262.73	72.72	-33.3	-33.4	9.4	182888	84	2491
2025-01-25 02:07:50.04	262.45	72.68	-33.5	-33.7	9.3	180782	84	2544
2025-01-25 02:07:50.24	262.16	72.63	-33.2	-33.1	9.6	197902	84	2441
2025-01-25 02:07:50.44	261.88	72.58	-33.8	-34.5	8.9	202640	84	2665
2025-01-25 02:07:50.64	261.60	72.53	-33.2	-33.1	9.7	202640	84	2435
2025-01-25 02:07:50.84	261.32	72.48	-34.0	-34.9	8.6	210502	84	2729
2025-01-25 02:07:51.04	261.04	72.43	-33.2	-33.1	9.7	322460	84	2434
2025-01-25 02:07:51.25	260.75	72.37	-34.2	-34.8	8.4	322460	85	2641
2025-01-25 02:07:51.45	260.47	72.32	-33.5	-33.1	9.3	320354	85	2370
2025-01-25 02:07:51.65	260.20	72.27	-34.1	-34.5	8.4	300453	85	2590
2025-01-25 02:07:51.85	259.93	72.22	-33.6	-33.5	9.1	300453	85	2421
2025-01-25 02:07:52.05	259.66	72.16	-34.1	-34.5	8.5	372173	85	2588
2025-01-25 02:07:52.25	259.39	72.11	-33.7	-33.6	9.1	412982	85	2454
2025-01-25 02:07:52.45	259.13	72.06	-34.1	-34.7	8.4	412982	85	2627
2025-01-25 02:07:52.65	258.86	72.01	-33.7	-33.7	9.0	385379	85	2464
2025-01-25 02:07:52.86	258.59	71.95	-34.0	-34.4	8.6	347969	85	2573
2025-01-25 02:07:53.06	258.32	71.89	-33.6	-33.5	9.1	347969	85	2428
2025-01-25 02:07:53.26	258.06	71.84	-34.0	-34.3	8.6	340278	85	2557
2025-01-25 02:07:53.46	257.81	71.79	-33.8	-33.8	8.8	399890	85	2463
2025-01-25 02:07:53.66	257.55	71.73	-33.9	-34.0	8.7	372024	85	2509
2025-01-25 02:07:53.86	257.30	71.67	-33.6	-33.5	9.0	372024	85	2422
2025-01-25 02:07:54.06	257.04	71.62	-33.9	-34.0	8.7	327129	85	2503
2025-01-25 02:07:54.26	256.79	71.56	-33.5	-33.1	9.2	339775	85	2370
2025-01-25 02:07:54.46	256.54	71.51	-33.7	-33.6	8.8	339775	85	2442
2025-01-25 02:07:54.66	256.29	71.45	-33.2	-33.1	9.3	306072	84	2432
2025-01-25 02:07:54.87	256.03	71.39	-33.6	-34.0	8.8	250408	84	2574
2025-01-25 02:07:55.07	255.79	71.33	-33.5	-33.7	8.9	250408	84	2524
2025-01-25 02:07:55.27	255.55	71.27	-33.6	-33.9	8.8	338756	84	2552
2025-01-25 02:07:55.47	255.30	71.22	-33.6	-33.9	8.8	352672	84	2546
2025-01-25 02:07:55.67	255.06	71.16	-33.7	-34.1	8.7	352672	84	2586
2025-01-25 02:07:55.87	254.83	71.10	-33.6	-34.0	8.7	365169	84	2572
2025-01-25 02:07:56.07	254.59	71.04	-33.7	-34.2	8.6	412399	84	2610
2025-01-25 02:07:56.27	254.35	70.98	-33.6	-34.0	8.7	412399	84	2557
2025-01-25 02:07:56.47	254.12	70.92	-33.3	-33.2	9.1	457798	84	2447
2025-01-25 02:07:56.68	253.88	70.86	-33.7	-34.2	8.6	300384	84	2602
2025-01-25 02:07:56.88	253.65	70.80	-33.4	-33.5	8.9	396022	84	2488
2025-01-25 02:07:57.08	253.42	70.74	-33.6	-33.9	8.6	396022	84	2557
2025-01-25 02:07:57.28	253.19	70.68	-33.5	-33.7	8.8	375194	84	2515
2025-01-25 02:07:57.48	252.96	70.62	-33.5	-33.6	8.8	382736	84	2501
2025-01-25 02:07:57.68	252.74	70.56	-33.3	-33.3	9.0	382736	84	2455
2025-01-25 02:07:57.88	252.52	70.50	-33.5	-33.8	8.6	302032	84	2529
2025-01-25 02:07:58.08	252.29	70.44	-33.9	-34.7	8.3	394397	84	2700
2025-01-25 02:07:58.28	252.07	70.37	-39.0	-43.3	3.6	394397	95	4020
2025-01-25 02:07:58.49	251.84	70.31	-39.3	-44.0	3.6	5017055	95	4227
2025-01-25 02:07:58.69	251.63	70.25	-39.3	-43.2	3.4	8430610	95	3839
2025-01-25 02:07:58.89	251.41	70.19	-39.4	-43.4	3.3	8397148	95	3892
2025-01-25 02:07:59.09	251.20	70.12	-39.4	-44.8	3.6	8397148	95	4560
2025-01-25 02:07:59.29	250.98	70.06	-39.5	-44.4	3.6	8410537	96	4354

#Closed at: 2025-01-25 02:07:59