passes_logs/2026/01/08/T1/T1__20260108_120048_NOAA_20_JPSS-1_rec.log

#Pass ID: 20260108_120048_NOAA 20 (JPSS-1)
#Satellite: NOAA 20 (JPSS-1)
#Configuration: NOAA 20
#almurnet v.1.7.20251203
#Start time: 2026-01-08 12:00:48

#Version: 2.0.20230620
#Station: T1
#Location: 37.570604 lon 55.790049 lat
#TLE: 1 43013U 17073A   26006.30790171  .00000126  00000+0  80695-4 0  9991
#TLE: 2 43013  98.7629 307.3394 0001808  51.8724 308.2615 14.19533762421505

#Time	Az	El	Level	Level2	SNR	BER	BlckErr	Temp	State	Recorded	gain1	gain2
2026-01-08 12:00:48.31	231.93	5.00	-49.9	-65.4	3.8	1.49e+00	0	41	0	0	71	21373
2026-01-08 12:00:50.32	232.16	5.09	-49.8	-65.4	3.8	1.49e+00	0	41	104	0	71	21355
2026-01-08 12:00:52.33	232.39	5.19	-49.9	-65.4	3.8	1.49e+00	0	41	104	0	71	21308
2026-01-08 12:00:54.34	232.63	5.28	-49.9	-65.4	3.8	1.49e+00	0	41	104	0	71	21417
2026-01-08 12:00:56.34	232.86	5.38	-49.9	-65.4	3.8	1.49e+00	0	41	104	0	71	21339
2026-01-08 12:00:58.35	233.10	5.47	-49.8	-65.4	3.8	1.49e+00	0	42	104	0	71	21333
2026-01-08 12:01:00.36	233.33	5.57	-49.8	-65.4	3.8	1.49e+00	0	42	104	0	71	21279
2026-01-08 12:01:02.37	233.57	5.66	-49.9	-65.4	3.8	1.49e+00	0	42	104	0	71	21354
2026-01-08 12:01:04.38	233.81	5.76	-49.9	-65.4	3.8	1.49e+00	0	42	104	0	71	21344
2026-01-08 12:01:06.39	234.06	5.85	-49.9	-65.4	3.8	1.49e+00	0	42	104	0	71	21343
2026-01-08 12:01:08.40	234.30	5.95	-49.9	-65.4	3.8	1.49e+00	0	42	104	0	71	21288
2026-01-08 12:01:10.41	234.55	6.04	-49.9	-65.3	3.8	1.49e+00	0	42	104	0	71	21211
2026-01-08 12:01:12.42	234.79	6.14	-49.9	-65.3	3.8	1.49e+00	0	42	104	0	71	21151
2026-01-08 12:01:14.42	235.04	6.23	-49.8	-65.3	3.8	1.49e+00	0	42	104	0	71	21218
2026-01-08 12:01:16.43	235.29	6.32	-49.8	-65.3	3.8	1.49e+00	0	42	104	0	71	21139
2026-01-08 12:01:18.44	235.54	6.42	-49.8	-65.3	3.8	1.49e+00	0	42	104	0	71	21048
2026-01-08 12:01:20.45	235.79	6.51	-49.9	-65.2	3.8	1.49e+00	0	42	104	0	71	20970
2026-01-08 12:01:22.46	236.05	6.61	-49.9	-65.2	3.8	1.49e+00	0	42	104	0	71	20899
2026-01-08 12:01:24.47	236.31	6.70	-49.9	-65.3	3.8	1.49e+00	0	42	104	0	71	21088
2026-01-08 12:01:26.48	236.56	6.79	-49.9	-65.3	3.8	1.49e+00	0	42	104	0	71	21032
2026-01-08 12:01:28.48	236.82	6.89	-49.8	-65.3	3.8	1.49e+00	0	43	104	0	71	21082
2026-01-08 12:01:30.49	237.08	6.98	-49.8	-65.3	3.8	1.49e+00	0	42	104	0	71	21028
2026-01-08 12:01:32.50	237.35	7.07	-49.8	-65.3	3.8	1.49e+00	0	42	104	0	71	21084
2026-01-08 12:01:34.51	237.61	7.17	-49.8	-65.3	3.8	1.49e+00	0	43	104	0	71	21026
2026-01-08 12:01:36.52	237.88	7.26	-49.8	-65.3	3.8	1.49e+00	0	43	104	0	71	21077
2026-01-08 12:01:38.53	238.14	7.35	-49.8	-65.2	3.8	1.49e+00	0	43	104	0	71	20934
2026-01-08 12:01:40.53	238.41	7.44	-49.8	-65.1	3.8	1.49e+00	0	43	104	0	71	20714
2026-01-08 12:01:42.55	238.68	7.54	-49.8	-65.2	3.8	1.49e+00	0	43	104	0	71	20967
2026-01-08 12:01:44.55	238.96	7.63	-49.8	-65.2	3.8	1.49e+00	0	43	104	0	71	20814
2026-01-08 12:01:46.56	239.23	7.72	-49.8	-65.0	3.8	1.49e+00	0	43	104	0	71	20369
2026-01-08 12:01:48.57	239.51	7.81	-49.8	-65.0	3.8	1.49e+00	0	43	104	0	71	20513
2026-01-08 12:01:50.58	239.78	7.90	-49.8	-65.3	3.8	1.49e+00	0	43	104	0	71	21148
2026-01-08 12:01:52.59	240.06	7.99	-49.8	-65.3	3.8	1.49e+00	0	43	104	0	71	21037
2026-01-08 12:01:54.60	240.34	8.08	-49.8	-65.2	3.8	1.49e+00	0	43	104	0	71	20828
2026-01-08 12:01:56.61	240.63	8.17	-49.8	-65.2	3.8	1.49e+00	0	43	104	0	71	21009
2026-01-08 12:01:58.61	240.91	8.26	-49.7	-64.2	3.8	1.49e+00	0	43	104	0	71	18569
2026-01-08 12:02:00.62	241.20	8.35	-49.7	-63.1	3.8	1.48e+00	0	43	104	0	71	16350
2026-01-08 12:02:02.63	241.48	8.44	-49.8	-64.7	3.8	1.49e+00	0	43	104	0	71	19650
2026-01-08 12:02:04.64	241.77	8.53	-49.3	-58.7	5.6	1.29e+00	0	43	0	0	70	10468
2026-01-08 12:02:06.65	242.06	8.62	-47.3	-52.2	11.7	3.59e-03	0	43	0	4194304	66	6223
2026-01-08 12:02:08.66	242.36	8.71	-45.9	-49.6	14.4	2.20e-06	0	43	0	8388608	63	5497
2026-01-08 12:02:10.67	242.65	8.80	-45.9	-49.6	14.4	7.00e-07	0	43	0	11534336	63	5518
2026-01-08 12:02:12.68	242.95	8.89	-47.0	-51.6	12.3	8.23e-05	0	43	0	15728640	64	6530
2026-01-08 12:02:14.68	243.25	8.98	-48.4	-55.1	8.7	1.32e-02	0	43	0	18874368	67	8197
2026-01-08 12:02:16.69	243.55	9.06	-46.8	-52.0	11.8	1.75e-01	0	43	0	23068672	65	6457
2026-01-08 12:02:18.74	243.85	9.15	-48.2	-56.5	7.5	3.82e-01	0	43	0	26214400	68	9101
2026-01-08 12:02:20.81	244.17	9.24	-48.5	-60.0	4.9	4.43e-03	0	43	0	30408704	67	14452
2026-01-08 12:02:22.83	244.47	9.33	-46.1	-50.2	13.7	2.82e-05	0	43	0	33554432	64	5548
2026-01-08 12:02:24.84	244.78	9.41	-44.8	-48.0	16.0	0.00e+00	0	43	0	37748736	61	5125
2026-01-08 12:02:26.84	245.09	9.50	-44.5	-47.6	16.4	0.00e+00	0	43	0	41943040	60	5213
2026-01-08 12:02:28.85	245.40	9.58	-44.3	-47.5	16.5	0.00e+00	0	43	0	45088768	60	5130
2026-01-08 12:02:30.85	245.71	9.67	-44.2	-47.5	16.5	0.00e+00	0	43	0	49283072	60	5107
2026-01-08 12:02:32.88	246.02	9.75	-44.2	-47.5	16.5	0.00e+00	0	43	0	52428800	60	5125
2026-01-08 12:02:34.88	246.34	9.83	-44.5	-47.6	16.4	0.00e+00	0	43	0	56623104	60	5191
2026-01-08 12:02:36.89	246.66	9.92	-44.7	-47.8	16.2	0.00e+00	0	43	0	60817408	60	5318
2026-01-08 12:02:38.90	246.97	10.00	-44.5	-47.7	16.3	0.00e+00	0	43	0	63963136	60	5278
2026-01-08 12:02:40.90	247.29	10.08	-44.4	-47.8	16.3	0.00e+00	0	43	0	68157440	60	5304
2026-01-08 12:02:42.90	247.61	10.16	-44.3	-47.6	16.4	0.00e+00	0	43	0	71303168	60	5200
2026-01-08 12:02:44.91	247.94	10.24	-44.5	-47.7	16.3	0.00e+00	0	44	0	75497472	60	5256
2026-01-08 12:02:46.94	248.27	10.32	-44.8	-47.9	16.1	0.00e+00	0	43	0	78643200	60	5381
2026-01-08 12:02:48.95	248.60	10.40	-44.7	-47.9	16.2	0.00e+00	0	44	0	82837504	60	5362
2026-01-08 12:02:50.97	248.93	10.48	-44.7	-47.9	16.1	0.00e+00	0	43	0	87031808	60	5384
2026-01-08 12:02:53.06	249.27	10.56	-44.8	-48.0	16.0	0.00e+00	0	44	0	90177536	60	5439
2026-01-08 12:02:55.15	249.62	10.65	-45.0	-48.1	16.0	0.00e+00	0	43	0	94371840	60	5504
2026-01-08 12:02:57.21	249.96	10.72	-44.9	-48.1	16.0	0.00e+00	0	43	0	98566144	60	5489
2026-01-08 12:02:59.23	250.30	10.80	-44.9	-48.2	15.9	0.00e+00	0	43	0	101711872	60	5538
2026-01-08 12:03:01.23	250.64	10.88	-44.9	-48.2	15.9	0.00e+00	0	44	0	105906176	60	5589
2026-01-08 12:03:03.24	250.98	10.95	-45.1	-48.4	15.7	0.00e+00	0	44	0	110100480	60	5677
2026-01-08 12:03:05.25	251.32	11.03	-45.2	-48.5	15.6	0.00e+00	0	44	0	113246208	61	5450
2026-01-08 12:03:07.25	251.66	11.10	-45.3	-48.6	15.5	0.00e+00	0	44	0	117440512	61	5493
2026-01-08 12:03:09.26	252.00	11.17	-45.1	-48.4	15.7	0.00e+00	0	44	0	120586240	61	5381
2026-01-08 12:03:11.27	252.35	11.25	-45.1	-48.4	15.8	0.00e+00	0	43	0	124780544	61	5341
2026-01-08 12:03:13.27	252.70	11.32	-45.2	-48.5	15.7	0.00e+00	0	43	0	128974848	61	5404
2026-01-08 12:03:15.28	253.05	11.39	-45.4	-48.7	15.5	0.00e+00	0	44	0	132120576	61	5532
2026-01-08 12:03:17.35	253.41	11.46	-45.5	-48.7	15.4	0.00e+00	0	43	0	136314880	61	5579
2026-01-08 12:03:19.35	253.76	11.53	-45.5	-48.7	15.4	0.00e+00	0	44	0	139460608	61	5575
2026-01-08 12:03:21.36	254.12	11.60	-45.3	-48.5	15.7	0.00e+00	0	44	0	143654912	61	5406
2026-01-08 12:03:23.49	254.49	11.67	-45.2	-48.4	15.8	0.00e+00	0	44	0	147849216	61	5364
2026-01-08 12:03:25.71	254.89	11.75	-45.2	-48.4	15.7	0.00e+00	0	44	0	152043520	61	5355
2026-01-08 12:03:27.74	255.25	11.81	-45.0	-48.2	16.0	0.00e+00	0	44	0	155189248	61	5251
2026-01-08 12:03:29.75	255.61	11.88	-45.2	-48.4	15.7	0.00e+00	0	43	0	159383552	61	5359
2026-01-08 12:03:31.75	255.98	11.94	-45.3	-48.5	15.6	0.00e+00	0	44	0	163577856	61	5456
2026-01-08 12:03:33.76	256.34	12.01	-45.4	-48.6	15.5	0.00e+00	0	44	0	166723584	61	5513
2026-01-08 12:03:35.76	256.70	12.07	-45.5	-48.8	15.3	0.00e+00	0	44	0	170917888	61	5640
2026-01-08 12:03:37.73	257.06	12.13	-45.5	-48.8	15.4	0.00e+00	0	44	0	174063616	61	5630
2026-01-08 12:03:39.74	257.43	12.19	-45.4	-48.7	15.5	0.00e+00	0	44	0	178257920	61	5546
2026-01-08 12:03:41.74	257.80	12.25	-45.5	-48.7	15.5	0.00e+00	0	44	0	181403648	61	5590
2026-01-08 12:03:43.75	258.17	12.31	-45.6	-48.9	15.3	7.00e-07	0	44	0	185597952	61	5692
2026-01-08 12:03:45.76	258.55	12.37	-45.4	-48.7	15.5	0.00e+00	0	44	0	189792256	61	5537
2026-01-08 12:03:47.76	258.92	12.42	-45.2	-48.4	15.8	0.00e+00	0	43	0	192937984	61	5388
2026-01-08 12:03:49.85	259.31	12.48	-45.4	-48.7	15.5	0.00e+00	0	44	0	197132288	61	5535
2026-01-08 12:03:51.95	259.71	12.54	-45.5	-48.9	15.3	0.00e+00	0	43	0	201326592	61	5697
2026-01-08 12:03:53.95	260.08	12.59	-45.5	-48.9	15.3	0.00e+00	0	44	0	204472320	61	5689
2026-01-08 12:03:56.01	260.47	12.65	-45.5	-48.9	15.3	0.00e+00	0	44	0	208666624	61	5700
2026-01-08 12:03:58.02	260.85	12.70	-45.2	-48.3	15.9	0.00e+00	0	44	0	212860928	61	5319
2026-01-08 12:04:00.02	261.24	12.75	-45.2	-48.2	15.9	0.00e+00	0	44	0	216006656	61	5277
2026-01-08 12:04:02.03	261.62	12.80	-45.1	-48.1	16.1	0.00e+00	0	44	0	220200960	61	5166
2026-01-08 12:04:04.04	262.00	12.85	-44.9	-47.9	16.3	0.00e+00	0	44	0	223346688	61	5075
2026-01-08 12:04:06.04	262.39	12.90	-45.0	-48.0	16.2	0.00e+00	0	44	0	227540992	61	5141
2026-01-08 12:04:08.05	262.78	12.94	-45.0	-48.0	16.2	0.00e+00	0	43	0	231735296	61	5134
2026-01-08 12:04:10.05	263.16	12.99	-44.9	-48.0	16.3	0.00e+00	0	43	0	234881024	61	5101
2026-01-08 12:04:12.34	263.61	13.04	-44.9	-47.9	16.3	0.00e+00	0	44	0	239075328	61	5091
2026-01-08 12:04:14.38	264.01	13.08	-44.7	-47.7	16.5	0.00e+00	0	44	0	243269632	61	4949
2026-01-08 12:04:16.67	264.45	13.13	-44.6	-47.4	16.8	0.00e+00	0	44	0	247463936	61	4792
2026-01-08 12:04:18.62	264.84	13.17	-44.6	-47.4	16.7	0.00e+00	0	44	0	250609664	61	4809
2026-01-08 12:04:20.62	265.23	13.21	-44.8	-47.7	16.4	0.00e+00	0	44	0	254803968	61	4957
2026-01-08 12:04:22.63	265.62	13.25	-44.9	-47.9	16.4	0.00e+00	0	44	0	258998272	61	5046
2026-01-08 12:04:24.63	266.02	13.29	-45.1	-48.1	16.1	0.00e+00	0	44	0	262144000	61	5172
2026-01-08 12:04:26.72	266.43	13.32	-45.3	-48.3	15.9	0.00e+00	0	44	0	266338304	61	5333
2026-01-08 12:04:28.95	266.87	13.36	-45.3	-48.4	15.8	0.00e+00	0	43	0	270532608	61	5402
2026-01-08 12:04:30.96	267.27	13.40	-45.3	-48.5	15.7	0.00e+00	0	44	0	273678336	61	5406
2026-01-08 12:04:32.97	267.67	13.43	-45.3	-48.5	15.8	0.00e+00	0	44	0	277872640	61	5411
2026-01-08 12:04:34.97	268.07	13.46	-45.3	-48.5	15.7	0.00e+00	0	44	0	282066944	61	5406
2026-01-08 12:04:36.98	268.47	13.49	-45.4	-48.5	15.7	0.00e+00	0	44	0	285212672	61	5464
2026-01-08 12:04:39.11	268.90	13.52	-45.5	-48.7	15.5	7.00e-07	0	44	0	289406976	61	5562
2026-01-08 12:04:41.32	269.34	13.55	-45.5	-48.7	15.5	0.00e+00	0	44	0	293601280	61	5569
2026-01-08 12:04:43.35	269.75	13.57	-45.5	-48.7	15.5	0.00e+00	0	44	0	297795584	61	5575
2026-01-08 12:04:45.37	270.16	13.60	-45.4	-48.7	15.5	0.00e+00	0	44	0	300941312	61	5562
2026-01-08 12:04:47.37	270.56	13.62	-45.4	-48.6	15.6	0.00e+00	0	44	0	305135616	61	5517
2026-01-08 12:04:49.38	270.97	13.64	-45.4	-48.6	15.6	0.00e+00	0	44	0	308281344	61	5507
2026-01-08 12:04:51.38	271.37	13.66	-45.3	-48.5	15.7	0.00e+00	0	44	0	312475648	61	5409
2026-01-08 12:04:53.39	271.78	13.68	-45.2	-48.3	15.9	0.00e+00	0	44	0	316669952	61	5292
2026-01-08 12:04:55.40	272.19	13.70	-45.2	-48.3	15.9	0.00e+00	0	44	0	319815680	61	5300
2026-01-08 12:04:57.40	272.59	13.72	-45.2	-48.3	15.9	0.00e+00	0	44	0	324009984	61	5326
2026-01-08 12:04:59.41	273.00	13.73	-45.4	-48.5	15.7	0.00e+00	0	44	0	327155712	61	5445
2026-01-08 12:05:01.41	273.41	13.75	-45.2	-48.3	15.9	0.00e+00	0	44	0	331350016	61	5310
2026-01-08 12:05:03.42	273.82	13.76	-45.2	-48.2	16.0	0.00e+00	0	44	0	334495744	61	5279
2026-01-08 12:05:05.46	274.23	13.77	-45.2	-48.2	16.1	0.00e+00	0	44	0	338690048	61	5249
2026-01-08 12:05:07.49	274.65	13.78	-45.2	-48.2	16.0	0.00e+00	0	44	0	342884352	61	5249
2026-01-08 12:05:09.42	275.04	13.79	-45.0	-47.9	16.3	0.00e+00	0	44	0	346030080	61	5080
2026-01-08 12:05:11.42	275.45	13.79	-44.9	-47.9	16.3	0.00e+00	0	44	0	350224384	61	5064
2026-01-08 12:05:13.43	275.86	13.80	-45.0	-48.0	16.2	0.00e+00	0	44	0	353370112	61	5159
2026-01-08 12:05:15.44	276.27	13.80	-45.0	-48.0	16.2	0.00e+00	0	44	0	357564416	61	5155
2026-01-08 12:05:17.44	276.68	13.81	-45.0	-48.0	16.2	0.00e+00	0	44	0	361758720	61	5114
2026-01-08 12:05:19.45	277.09	13.81	-44.8	-47.7	16.5	0.00e+00	0	44	0	364904448	61	4981
2026-01-08 12:05:21.50	277.51	13.81	-44.7	-47.6	16.6	0.00e+00	0	44	0	369098752	61	4904
2026-01-08 12:05:23.51	277.92	13.81	-44.6	-47.4	16.9	0.00e+00	0	44	0	372244480	61	4764
2026-01-08 12:05:25.51	278.33	13.81	-44.6	-47.4	16.8	0.00e+00	0	44	0	376438784	61	4795
2026-01-08 12:05:27.52	278.74	13.80	-44.6	-47.5	16.7	0.00e+00	0	44	0	380633088	61	4828
2026-01-08 12:05:29.81	279.20	13.80	-44.7	-47.6	16.6	0.00e+00	0	44	0	384827392	61	4905
2026-01-08 12:05:31.84	279.62	13.79	-44.5	-47.3	17.0	0.00e+00	0	44	0	387973120	60	4991
2026-01-08 12:05:33.85	280.03	13.78	-44.3	-47.0	17.2	0.00e+00	0	44	0	392167424	60	4842
2026-01-08 12:05:35.85	280.44	13.77	-44.1	-46.8	17.4	0.00e+00	0	43	0	396361728	60	4712
2026-01-08 12:05:37.86	280.84	13.76	-44.2	-46.8	17.4	0.00e+00	0	44	0	399507456	60	4726
2026-01-08 12:05:39.86	281.25	13.75	-44.4	-47.1	17.1	0.00e+00	0	44	0	403701760	60	4907
2026-01-08 12:05:41.89	281.66	13.74	-44.5	-47.2	17.0	0.00e+00	0	44	0	406847488	60	4958
2026-01-08 12:05:43.85	282.06	13.72	-44.3	-47.0	17.2	0.00e+00	0	44	0	411041792	60	4819
2026-01-08 12:05:45.85	282.47	13.71	-44.2	-46.9	17.3	0.00e+00	0	44	0	414187520	60	4772
2026-01-08 12:05:47.85	282.87	13.69	-44.2	-46.8	17.3	0.00e+00	0	44	0	418381824	60	4759
2026-01-08 12:05:49.86	283.28	13.67	-44.1	-46.7	17.5	0.00e+00	0	44	0	422576128	60	4666
2026-01-08 12:05:51.87	283.69	13.65	-44.1	-46.7	17.5	0.00e+00	0	44	0	425721856	60	4665
2026-01-08 12:05:53.87	284.09	13.63	-44.1	-46.7	17.4	0.00e+00	0	44	0	429916160	60	4691
2026-01-08 12:05:55.88	284.49	13.61	-43.9	-46.5	17.6	0.00e+00	0	43	0	433061888	59	4843
2026-01-08 12:05:57.89	284.90	13.59	-44.0	-46.6	17.5	0.00e+00	0	43	0	437256192	59	4876
2026-01-08 12:05:59.89	285.30	13.56	-44.2	-46.8	17.3	0.00e+00	0	44	0	441450496	59	5033
2026-01-08 12:06:01.89	285.70	13.53	-44.3	-47.0	17.2	0.00e+00	0	44	0	444596224	59	5126
2026-01-08 12:06:03.90	286.10	13.51	-44.4	-47.1	17.1	0.00e+00	0	44	0	448790528	59	5179
2026-01-08 12:06:05.90	286.50	13.48	-44.5	-47.2	16.9	0.00e+00	0	43	0	451936256	59	5262
2026-01-08 12:06:07.91	286.90	13.45	-44.5	-47.2	16.9	0.00e+00	0	44	0	456130560	59	5225
2026-01-08 12:06:10.32	287.38	13.41	-44.5	-47.2	16.9	0.00e+00	0	44	0	460324864	59	5263
2026-01-08 12:06:12.24	287.76	13.38	-44.5	-47.3	16.8	0.00e+00	0	44	0	464519168	59	5297
2026-01-08 12:06:14.25	288.16	13.35	-44.6	-47.4	16.7	0.00e+00	0	44	0	467664896	60	5098
2026-01-08 12:06:16.25	288.56	13.31	-44.3	-47.0	17.2	0.00e+00	0	44	0	471859200	60	4843
2026-01-08 12:06:18.18	288.94	13.28	-44.3	-47.1	17.1	0.00e+00	0	43	0	475004928	60	4880
2026-01-08 12:06:20.23	289.34	13.24	-44.3	-47.0	17.2	0.00e+00	0	43	0	479199232	60	4832
2026-01-08 12:06:22.46	289.78	13.20	-44.7	-47.5	16.7	0.00e+00	0	43	0	483393536	60	5110
2026-01-08 12:06:24.47	290.17	13.16	-44.9	-47.8	16.4	0.00e+00	0	44	0	486539264	60	5282
2026-01-08 12:06:26.47	290.56	13.11	-44.9	-47.7	16.4	0.00e+00	0	43	0	490733568	60	5275
2026-01-08 12:06:28.48	290.95	13.07	-44.6	-47.4	16.8	0.00e+00	0	43	0	494927872	60	5068
2026-01-08 12:06:30.48	291.34	13.03	-44.5	-47.3	16.9	0.00e+00	0	43	0	498073600	60	4992
2026-01-08 12:06:32.49	291.73	12.98	-44.3	-47.0	17.2	0.00e+00	0	44	0	502267904	60	4817
2026-01-08 12:06:34.50	292.12	12.94	-44.2	-46.9	17.2	0.00e+00	0	44	0	505413632	60	4798
2026-01-08 12:06:36.51	292.50	12.89	-44.2	-46.8	17.3	0.00e+00	0	43	0	509607936	60	4753
2026-01-08 12:06:38.51	292.89	12.85	-44.1	-46.8	17.3	0.00e+00	0	43	0	513802240	60	4711
2026-01-08 12:06:40.52	293.27	12.80	-44.1	-46.7	17.3	0.00e+00	0	43	0	516947968	60	4695
2026-01-08 12:06:42.53	293.65	12.75	-44.3	-47.0	17.1	0.00e+00	0	43	0	521142272	60	4863
2026-01-08 12:06:44.53	294.03	12.70	-44.6	-47.3	16.8	0.00e+00	0	43	0	524288000	60	5039
2026-01-08 12:06:46.67	294.44	12.64	-44.5	-47.3	16.8	0.00e+00	0	44	0	528482304	60	5037
2026-01-08 12:06:48.85	294.85	12.58	-44.5	-47.3	16.9	0.00e+00	0	43	0	532676608	60	4989
2026-01-08 12:06:50.86	295.22	12.53	-44.4	-47.1	17.0	0.00e+00	0	43	0	536870912	60	4914
2026-01-08 12:06:52.90	295.61	12.47	-44.2	-46.9	17.2	0.00e+00	0	43	0	540016640	60	4800
2026-01-08 12:06:54.91	295.98	12.42	-44.2	-46.9	17.2	0.00e+00	0	43	0	544210944	60	4797
2026-01-08 12:06:56.91	296.35	12.36	-44.3	-47.0	17.1	0.00e+00	0	43	0	547356672	60	4833
2026-01-08 12:06:58.92	296.72	12.30	-44.4	-47.2	16.9	0.00e+00	0	43	0	551550976	60	4966
2026-01-08 12:07:00.97	297.10	12.24	-44.3	-47.1	17.0	0.00e+00	0	43	0	555745280	60	4898
2026-01-08 12:07:02.98	297.47	12.18	-44.7	-47.5	16.6	0.00e+00	0	43	0	558891008	60	5159
2026-01-08 12:07:04.98	297.83	12.12	-44.8	-47.7	16.4	0.00e+00	0	44	0	563085312	60	5243
2026-01-08 12:07:07.00	298.20	12.06	-44.6	-47.5	16.6	0.00e+00	0	43	0	566231040	60	5107
2026-01-08 12:07:09.10	298.58	11.99	-44.6	-47.4	16.7	0.00e+00	0	43	0	570425344	60	5061
2026-01-08 12:07:11.31	298.98	11.92	-44.8	-47.6	16.5	0.00e+00	0	43	0	574619648	60	5209
2026-01-08 12:07:13.34	299.34	11.86	-44.5	-47.3	16.7	0.00e+00	0	43	0	578813952	60	5040
2026-01-08 12:07:15.35	299.70	11.79	-44.7	-47.6	16.5	0.00e+00	0	43	0	581959680	60	5189
2026-01-08 12:07:17.36	300.06	11.73	-44.5	-47.3	16.7	0.00e+00	0	43	0	586153984	60	5023
2026-01-08 12:07:19.36	300.41	11.66	-44.5	-47.4	16.7	0.00e+00	0	43	0	590348288	60	5053
2026-01-08 12:07:21.37	300.77	11.59	-44.7	-47.6	16.4	0.00e+00	0	43	0	593494016	60	5212
2026-01-08 12:07:23.39	301.12	11.53	-44.8	-47.7	16.4	0.00e+00	0	43	0	597688320	60	5221
2026-01-08 12:07:25.40	301.47	11.46	-44.9	-47.9	16.2	0.00e+00	0	43	0	600834048	60	5345
2026-01-08 12:07:27.43	301.83	11.39	-45.1	-48.1	15.9	0.00e+00	0	43	0	605028352	60	5517
2026-01-08 12:07:29.43	302.17	11.32	-45.2	-48.3	15.8	0.00e+00	0	43	0	609222656	61	5301
2026-01-08 12:07:31.44	302.52	11.24	-45.3	-48.4	15.7	0.00e+00	0	43	0	612368384	61	5360
2026-01-08 12:07:33.45	302.87	11.17	-45.4	-48.6	15.5	0.00e+00	0	43	0	616562688	61	5524
2026-01-08 12:07:35.76	303.26	11.09	-45.6	-49.1	15.0	7.00e-07	0	43	0	620756992	61	5804
2026-01-08 12:07:37.83	303.61	11.01	-45.8	-49.2	14.9	0.00e+00	0	43	0	624951296	62	5568
2026-01-08 12:07:39.87	303.95	10.94	-45.9	-49.4	14.7	0.00e+00	0	43	0	628097024	62	5690
2026-01-08 12:07:41.87	304.29	10.86	-45.8	-49.2	14.9	0.00e+00	0	43	0	632291328	62	5567
2026-01-08 12:07:43.88	304.63	10.79	-45.7	-49.1	15.0	0.00e+00	0	43	0	635437056	62	5484
2026-01-08 12:07:45.88	304.96	10.71	-45.8	-49.2	14.9	7.00e-07	0	43	0	639631360	62	5574
2026-01-08 12:07:47.89	305.29	10.63	-46.0	-49.5	14.6	0.00e+00	0	43	0	643825664	62	5778
2026-01-08 12:07:49.90	305.62	10.56	-46.3	-49.9	14.2	1.50e-06	0	43	0	646971392	63	5716
2026-01-08 12:07:51.90	305.95	10.48	-46.4	-50.2	13.9	3.00e-06	0	43	0	651165696	63	5878
2026-01-08 12:07:53.91	306.28	10.40	-46.4	-50.3	13.9	3.00e-06	0	43	0	654311424	63	5948
2026-01-08 12:07:55.91	306.60	10.32	-46.7	-50.8	13.3	1.06e-05	0	44	0	658505728	64	5935
2026-01-08 12:07:58.13	306.96	10.23	-47.0	-51.4	12.6	1.38e-04	0	43	0	662700032	64	6361
2026-01-08 12:08:00.35	307.31	10.15	-47.1	-51.7	12.3	1.56e-04	0	43	0	666894336	64	6607
2026-01-08 12:08:02.28	307.62	10.07	-47.0	-51.6	12.4	1.49e-04	0	43	0	670040064	64	6525
2026-01-08 12:08:04.28	307.94	9.99	-46.7	-51.1	12.9	4.95e-05	0	43	0	674234368	64	6162
2026-01-08 12:08:06.56	308.30	9.89	-46.6	-50.8	13.2	1.90e-05	0	43	0	678428672	64	5952
2026-01-08 12:08:08.58	308.61	9.81	-46.5	-50.7	13.3	1.52e-05	0	43	0	682622976	64	5883
2026-01-08 12:08:10.59	308.93	9.73	-46.5	-50.6	13.4	1.44e-05	0	43	0	685768704	64	5823
2026-01-08 12:08:12.59	309.24	9.65	-46.4	-50.4	13.5	9.10e-06	0	43	0	689963008	64	5719
2026-01-08 12:08:14.51	309.53	9.57	-46.5	-50.6	13.4	1.06e-05	0	43	0	693108736	64	5831
2026-01-08 12:08:16.51	309.84	9.48	-46.8	-51.0	12.9	3.50e-05	0	43	0	697303040	64	6128
2026-01-08 12:08:18.52	310.15	9.40	-46.8	-51.1	12.8	3.73e-05	0	43	0	700448768	64	6183
2026-01-08 12:08:20.52	310.45	9.31	-46.9	-51.4	12.5	1.40e-04	0	43	0	704643072	64	6391
2026-01-08 12:08:22.53	310.75	9.23	-46.9	-51.3	12.6	1.02e-04	0	43	0	707788800	64	6335
2026-01-08 12:08:24.54	311.05	9.14	-46.7	-51.0	13.0	5.34e-05	0	43	0	711983104	64	6074
2026-01-08 12:08:26.54	311.35	9.06	-46.4	-50.4	13.5	1.14e-05	0	43	0	716177408	64	5720
2026-01-08 12:08:28.55	311.65	8.97	-49.8	-65.5	3.8	1.49e+00	0	43	104	718274560	70	22892
2026-01-08 12:08:30.56	311.94	8.88	-50.4	-65.7	3.8	1.49e+00	0	43	104	718274560	71	22238
2026-01-08 12:08:32.57	312.24	8.80	-50.5	-65.9	3.8	1.49e+00	0	43	104	718274560	71	22630
2026-01-08 12:08:34.58	312.53	8.71	-50.4	-66.0	3.8	1.49e+00	0	43	104	718274560	71	22883
2026-01-08 12:08:36.59	312.82	8.62	-50.6	-65.9	3.8	1.49e+00	0	43	104	718274560	72	21483
2026-01-08 12:08:38.59	313.11	8.53	-50.6	-66.0	3.8	1.49e+00	0	43	104	718274560	72	21544
2026-01-08 12:08:40.61	313.40	8.44	-50.6	-65.9	3.8	1.49e+00	0	43	104	718274560	72	21453
2026-01-08 12:08:42.61	313.68	8.36	-50.7	-66.0	3.8	1.49e+00	0	43	104	718274560	72	21542
2026-01-08 12:08:44.62	313.97	8.27	-50.6	-65.9	3.8	1.49e+00	0	43	104	718274560	72	21435
2026-01-08 12:08:46.63	314.25	8.18	-50.5	-65.9	3.8	1.49e+00	0	43	104	718274560	72	21372
2026-01-08 12:08:48.64	314.53	8.09	-50.2	-65.9	3.8	1.49e+00	0	43	104	718274560	72	21278
2026-01-08 12:08:50.65	314.81	8.00	-50.2	-65.9	3.8	1.49e+00	0	43	104	718274560	72	21282
2026-01-08 12:08:52.66	315.09	7.91	-50.2	-65.9	3.8	1.49e+00	0	43	104	718274560	72	21268
2026-01-08 12:08:54.66	315.36	7.82	-50.2	-65.9	3.8	1.49e+00	0	43	104	718274560	72	21308
2026-01-08 12:08:56.67	315.63	7.73	-50.2	-65.8	3.8	1.49e+00	0	43	104	718274560	72	21216
2026-01-08 12:08:58.68	315.91	7.64	-50.2	-65.8	3.8	1.49e+00	0	43	104	718274560	72	21234
2026-01-08 12:09:00.69	316.18	7.55	-50.2	-65.9	3.8	1.49e+00	0	43	104	718274560	72	21351
2026-01-08 12:09:02.70	316.45	7.45	-50.2	-65.9	3.8	1.49e+00	0	43	104	718274560	72	21268
2026-01-08 12:09:04.71	316.71	7.36	-50.2	-65.9	3.8	1.49e+00	0	43	104	718274560	72	21322
2026-01-08 12:09:06.72	316.98	7.27	-50.2	-65.9	3.8	1.49e+00	0	43	104	718274560	72	21275
2026-01-08 12:09:08.72	317.24	7.18	-50.2	-65.9	3.8	1.49e+00	0	43	104	718274560	72	21304
2026-01-08 12:09:10.73	317.51	7.09	-50.2	-65.9	3.8	1.49e+00	0	43	104	718274560	72	21270
2026-01-08 12:09:12.74	317.77	7.00	-50.2	-65.9	3.8	1.49e+00	0	43	104	718274560	72	21283
2026-01-08 12:09:14.75	318.03	6.90	-50.2	-65.8	3.8	1.49e+00	0	43	104	718274560	72	21256
2