passes_logs/2026/01/08/T1/T1__20260108_074944_NOAA_21_JPSS-2_rec.log

#Pass ID: 20260108_074944_NOAA 21 (JPSS-2)
#Satellite: NOAA 21 (JPSS-2)
#Configuration: NOAA 21
#almurnet v.1.7.20251203
#Start time: 2026-01-08 07:49:45

#Version: 2.0.20230620
#Station: T1
#Location: 37.570604 lon 55.790049 lat
#TLE: 1 54234U 22150A   26005.56767909  .00000152  00000+0  92756-4 0  9990
#TLE: 2 54234  98.7490 306.5820 0001036 340.2747  19.8389 14.19532370163472

#Time	Az	El	Level	Level2	SNR	BER	BlckErr	Temp	State	Recorded	gain1	gain2
2026-01-08 07:49:45.82	92.69	5.07	-49.8	-63.2	3.8	1.49e+00	0	41	0	0	71	16513
2026-01-08 07:49:48.82	92.39	5.23	-49.8	-63.1	3.8	1.49e+00	0	41	104	0	71	16485
2026-01-08 07:49:51.83	92.07	5.39	-49.8	-63.2	3.8	1.49e+00	0	41	104	0	71	16549
2026-01-08 07:49:54.84	91.76	5.55	-49.8	-63.2	3.8	1.49e+00	0	42	104	0	71	16529
2026-01-08 07:49:57.85	91.44	5.71	-49.8	-63.1	3.8	1.49e+00	0	42	104	0	71	16407
2026-01-08 07:50:00.86	91.11	5.88	-49.8	-63.1	3.8	1.49e+00	0	42	104	0	71	16377
2026-01-08 07:50:03.86	90.79	6.04	-49.7	-63.1	3.8	1.49e+00	0	42	104	0	71	16375
2026-01-08 07:50:06.87	90.46	6.20	-49.8	-63.1	3.8	1.49e+00	0	42	104	0	71	16367
2026-01-08 07:50:09.88	90.12	6.36	-49.8	-63.1	3.8	1.49e+00	0	42	104	0	71	16456
2026-01-08 07:50:12.89	89.78	6.52	-49.8	-63.1	3.8	1.49e+00	0	42	104	0	71	16466
2026-01-08 07:50:15.90	89.44	6.68	-49.8	-63.1	3.8	1.49e+00	0	42	104	0	71	16315
2026-01-08 07:50:18.91	89.10	6.84	-49.7	-62.7	3.8	1.49e+00	0	42	104	0	71	15607
2026-01-08 07:50:21.92	88.75	7.00	-49.7	-62.4	3.8	1.49e+00	0	42	104	0	71	15203
2026-01-08 07:50:24.93	88.39	7.17	-49.7	-62.5	3.8	1.49e+00	0	42	104	0	71	15302
2026-01-08 07:50:27.94	88.03	7.33	-49.7	-62.6	3.8	1.49e+00	0	42	104	0	71	15407
2026-01-08 07:50:30.95	87.67	7.49	-49.7	-62.5	3.8	1.49e+00	0	42	104	0	71	15327
2026-01-08 07:50:33.96	87.31	7.65	-49.8	-62.8	3.8	1.49e+00	0	43	104	0	71	15773
2026-01-08 07:50:36.97	86.94	7.81	-49.8	-63.1	3.8	1.49e+00	0	43	104	0	71	16356
2026-01-08 07:50:39.97	86.56	7.97	-49.7	-62.3	3.8	1.49e+00	0	43	104	0	71	14990
2026-01-08 07:50:42.98	86.19	8.13	-49.6	-61.0	3.9	1.48e+00	0	43	104	0	71	12882
2026-01-08 07:50:45.99	85.80	8.29	-49.7	-62.4	3.8	1.49e+00	0	43	104	0	71	15146
2026-01-08 07:50:49.00	85.42	8.45	-47.0	-51.4	10.2	1.08e-02	0	43	0	0	66	5716
2026-01-08 07:50:52.01	85.02	8.61	-43.6	-46.0	15.8	0.00e+00	0	43	0	0	59	4561
2026-01-08 07:50:55.02	84.63	8.77	-44.1	-46.6	15.2	0.00e+00	0	43	0	0	58	5186
2026-01-08 07:50:58.03	84.23	8.93	-47.2	-51.9	9.8	3.82e-03	0	43	0	0	65	6372
2026-01-08 07:51:01.03	83.82	9.09	-49.4	-58.9	4.0	7.36e-01	0	43	104	0	69	11413
2026-01-08 07:51:04.04	83.42	9.25	-45.5	-48.7	13.3	1.14e-03	0	43	0	0	63	4973
2026-01-08 07:51:07.05	83.00	9.41	-44.6	-47.3	14.6	1.50e-06	0	43	0	0	61	4737
2026-01-08 07:51:10.03	82.59	9.57	-43.2	-45.4	16.5	0.00e+00	0	43	0	0	58	4499
2026-01-08 07:51:13.02	82.17	9.72	-42.9	-45.0	16.8	0.00e+00	0	43	0	0	57	4596
2026-01-08 07:51:16.01	81.74	9.88	-42.9	-45.0	16.8	0.00e+00	0	43	0	0	57	4581
2026-01-08 07:51:19.00	81.31	10.04	-42.9	-45.0	16.8	0.00e+00	0	43	0	0	57	4591
2026-01-08 07:51:22.00	80.88	10.19	-42.8	-44.9	17.0	0.00e+00	0	43	0	0	57	4513
2026-01-08 07:51:25.00	80.44	10.35	-42.9	-45.0	16.9	0.00e+00	0	44	0	0	57	4587
2026-01-08 07:51:28.00	79.99	10.50	-42.9	-45.0	16.9	0.00e+00	0	43	0	0	57	4571
2026-01-08 07:51:31.01	79.54	10.65	-42.6	-44.7	17.2	0.00e+00	0	43	0	0	57	4403
2026-01-08 07:51:34.01	79.09	10.81	-42.7	-44.8	17.1	0.00e+00	0	43	0	0	57	4456
2026-01-08 07:51:37.01	78.63	10.96	-42.7	-44.8	17.1	0.00e+00	0	43	0	0	57	4469
2026-01-08 07:51:40.00	78.17	11.11	-42.4	-44.3	17.5	0.00e+00	0	43	0	0	56	4488
2026-01-08 07:51:43.00	77.70	11.26	-42.5	-44.5	17.3	0.00e+00	0	43	0	0	56	4592
2026-01-08 07:51:46.00	77.22	11.41	-42.7	-44.8	17.0	0.00e+00	0	43	0	0	56	4739
2026-01-08 07:51:49.00	76.75	11.56	-42.4	-44.4	17.4	0.00e+00	0	43	0	0	56	4539
2026-01-08 07:51:51.99	76.26	11.70	-42.3	-44.2	17.7	0.00e+00	0	43	0	0	56	4426
2026-01-08 07:51:54.99	75.78	11.85	-42.4	-44.4	17.5	0.00e+00	0	43	0	0	56	4515
2026-01-08 07:51:57.99	75.28	12.00	-42.3	-44.3	17.6	0.00e+00	0	43	0	0	56	4446
2026-01-08 07:52:00.99	74.78	12.14	-42.0	-43.9	18.0	0.00e+00	0	44	0	0	56	4266
2026-01-08 07:52:03.98	74.28	12.28	-41.8	-43.7	18.0	0.00e+00	0	44	0	0	55	4409
2026-01-08 07:52:06.97	73.78	12.42	-41.9	-43.8	17.9	0.00e+00	0	43	0	0	55	4453
2026-01-08 07:52:09.97	73.26	12.56	-41.8	-43.7	18.0	0.00e+00	0	43	0	0	55	4435
2026-01-08 07:52:12.97	72.75	12.70	-42.0	-43.9	17.8	0.00e+00	0	43	0	0	55	4529
2026-01-08 07:52:15.96	72.23	12.84	-41.8	-43.7	18.0	0.00e+00	0	44	0	0	55	4398
2026-01-08 07:52:18.95	71.70	12.97	-41.8	-43.7	17.9	0.00e+00	0	43	0	0	55	4430
2026-01-08 07:52:21.95	71.17	13.10	-41.9	-43.8	17.9	0.00e+00	0	44	0	0	55	4466
2026-01-08 07:52:24.95	70.63	13.24	-42.0	-44.0	17.8	0.00e+00	0	44	0	0	55	4557
2026-01-08 07:52:27.94	70.09	13.36	-42.0	-44.0	17.8	0.00e+00	0	43	0	0	55	4559
2026-01-08 07:52:30.94	69.54	13.49	-42.0	-44.0	17.7	0.00e+00	0	44	0	0	55	4555
2026-01-08 07:52:33.92	69.00	13.62	-41.9	-43.8	17.9	0.00e+00	0	43	0	0	55	4479
2026-01-08 07:52:36.92	68.44	13.74	-41.9	-43.8	17.9	0.00e+00	0	44	0	0	55	4482
2026-01-08 07:52:39.91	67.88	13.86	-41.8	-43.7	18.0	0.00e+00	0	44	0	0	55	4422
2026-01-08 07:52:42.91	67.32	13.98	-41.8	-43.8	17.9	0.00e+00	0	44	0	0	55	4445
2026-01-08 07:52:45.91	66.75	14.10	-41.9	-43.9	17.9	0.00e+00	0	43	0	0	55	4503
2026-01-08 07:52:48.91	66.17	14.22	-41.9	-43.9	17.9	0.00e+00	0	44	0	0	55	4512
2026-01-08 07:52:51.92	65.59	14.33	-42.0	-44.0	17.4	0.00e+00	0	43	0	0	55	4546
2026-01-08 07:52:54.92	65.01	14.44	-41.8	-43.7	18.0	0.00e+00	0	43	0	0	55	4420
2026-01-08 07:52:57.92	64.42	14.55	-41.9	-43.8	17.8	0.00e+00	0	44	0	0	55	4479
2026-01-08 07:53:00.92	63.83	14.65	-41.6	-43.4	18.3	0.00e+00	0	44	0	0	55	4275
2026-01-08 07:53:03.92	63.23	14.75	-41.6	-43.5	18.2	0.00e+00	0	44	0	0	55	4330
2026-01-08 07:53:06.91	62.64	14.85	-41.6	-43.5	18.2	0.00e+00	0	44	0	0	55	4325
2026-01-08 07:53:09.91	62.03	14.95	-41.6	-43.4	18.3	0.00e+00	0	43	0	0	55	4288
2026-01-08 07:53:12.90	61.43	15.05	-41.4	-43.3	18.3	0.00e+00	0	44	0	0	54	4474
2026-01-08 07:53:15.90	60.81	15.14	-41.6	-43.5	18.3	0.00e+00	0	43	0	0	54	4547
2026-01-08 07:53:18.89	60.20	15.23	-41.7	-43.6	18.1	0.00e+00	0	44	0	0	54	4612
2026-01-08 07:53:21.87	59.59	15.31	-41.8	-43.7	18.1	0.00e+00	0	43	0	0	54	4670
2026-01-08 07:53:24.87	58.96	15.39	-41.5	-43.4	18.3	0.00e+00	0	44	0	0	54	4530
2026-01-08 07:53:27.87	58.34	15.47	-41.3	-43.2	18.5	0.00e+00	0	43	0	0	54	4403
2026-01-08 07:53:30.87	57.71	15.55	-41.3	-43.2	18.5	0.00e+00	0	44	0	0	54	4392
2026-01-08 07:53:33.87	57.08	15.62	-41.4	-43.2	18.5	0.00e+00	0	44	0	0	54	4421
2026-01-08 07:53:36.86	56.44	15.69	-41.4	-43.3	18.4	0.00e+00	0	44	0	0	54	4444
2026-01-08 07:53:39.86	55.81	15.76	-41.5	-43.3	18.4	0.00e+00	0	44	0	0	54	4482
2026-01-08 07:53:42.86	55.17	15.82	-41.4	-43.2	18.5	0.00e+00	0	44	0	0	54	4439
2026-01-08 07:53:45.86	54.52	15.88	-41.4	-43.2	18.5	0.00e+00	0	44	0	0	54	4430
2026-01-08 07:53:48.87	53.87	15.94	-41.5	-43.4	18.4	0.00e+00	0	43	0	0	54	4496
2026-01-08 07:53:51.88	53.22	15.99	-41.3	-43.1	18.6	0.00e+00	0	44	0	0	54	4382
2026-01-08 07:53:54.88	52.57	16.04	-41.1	-43.0	18.7	0.00e+00	0	44	0	0	54	4301
2026-01-08 07:53:57.89	51.92	16.08	-41.3	-43.1	18.5	0.00e+00	0	44	0	0	54	4387
2026-01-08 07:54:00.89	51.26	16.12	-41.6	-43.4	18.3	0.00e+00	0	44	0	0	54	4544
2026-01-08 07:54:03.90	50.61	16.16	-41.8	-43.7	18.0	0.00e+00	0	44	0	0	54	4696
2026-01-08 07:54:06.90	49.95	16.19	-41.7	-43.6	18.2	0.00e+00	0	44	0	0	54	4601
2026-01-08 07:54:09.91	49.29	16.22	-41.7	-43.6	18.2	0.00e+00	0	43	0	0	54	4624
2026-01-08 07:54:12.90	48.63	16.25	-41.8	-43.7	18.1	0.00e+00	0	44	0	0	54	4669
2026-01-08 07:54:15.91	47.97	16.27	-41.7	-43.6	18.2	0.00e+00	0	44	0	0	54	4638
2026-01-08 07:54:18.91	47.30	16.29	-41.5	-43.4	18.4	0.00e+00	0	43	0	0	54	4505
2026-01-08 07:54:21.91	46.64	16.31	-41.5	-43.3	18.4	0.00e+00	0	44	0	0	54	4478
2026-01-08 07:54:24.91	45.98	16.32	-41.6	-43.5	18.3	0.00e+00	0	44	0	0	54	4559
2026-01-08 07:54:27.92	45.31	16.32	-41.6	-43.5	18.3	0.00e+00	0	44	0	0	54	4555
2026-01-08 07:54:30.93	44.65	16.33	-41.6	-43.5	18.2	0.00e+00	0	44	0	0	54	4587
2026-01-08 07:54:33.94	43.98	16.32	-41.4	-43.2	18.5	0.00e+00	0	44	0	0	54	4417
2026-01-08 07:54:36.94	43.32	16.32	-41.4	-43.2	18.5	0.00e+00	0	44	0	0	54	4428
2026-01-08 07:54:39.94	42.65	16.31	-41.3	-43.1	18.5	0.00e+00	0	44	0	0	54	4386
2026-01-08 07:54:42.94	41.99	16.30	-41.3	-43.1	18.6	0.00e+00	0	44	0	0	54	4374
2026-01-08 07:54:45.94	41.33	16.28	-41.5	-43.3	18.4	0.00e+00	0	44	0	0	54	4471
2026-01-08 07:54:48.94	40.67	16.26	-41.2	-43.1	18.6	0.00e+00	0	44	0	0	54	4348
2026-01-08 07:54:51.94	40.01	16.24	-41.4	-43.2	18.5	0.00e+00	0	44	0	0	54	4430
2026-01-08 07:54:54.94	39.35	16.21	-41.3	-43.1	18.6	0.00e+00	0	44	0	0	54	4368
2026-01-08 07:54:57.94	38.69	16.18	-41.1	-43.0	18.7	0.00e+00	0	44	0	0	54	4298
2026-01-08 07:55:00.94	38.04	16.14	-41.5	-43.4	18.3	0.00e+00	0	44	0	0	54	4498
2026-01-08 07:55:03.95	37.38	16.10	-41.5	-43.4	18.3	0.00e+00	0	44	0	0	54	4516
2026-01-08 07:55:06.95	36.73	16.06	-41.3	-43.2	18.5	0.00e+00	0	44	0	0	54	4419
2026-01-08 07:55:09.96	36.07	16.01	-41.3	-43.1	18.6	0.00e+00	0	44	0	0	54	4376
2026-01-08 07:55:12.96	35.43	15.96	-41.5	-43.4	18.3	0.00e+00	0	44	0	0	54	4537
2026-01-08 07:55:15.96	34.78	15.91	-41.7	-43.6	18.2	0.00e+00	0	44	0	0	54	4619
2026-01-08 07:55:18.97	34.13	15.85	-41.3	-43.2	18.6	0.00e+00	0	44	0	0	54	4401
2026-01-08 07:55:21.97	33.49	15.79	-41.4	-43.3	18.5	0.00e+00	0	44	0	0	54	4442
2026-01-08 07:55:24.97	32.86	15.72	-41.4	-43.2	18.5	0.00e+00	0	44	0	0	54	4437
2026-01-08 07:55:27.97	32.22	15.66	-41.3	-43.2	18.6	0.00e+00	0	44	0	0	54	4402
2026-01-08 07:55:30.98	31.59	15.58	-41.4	-43.4	18.4	0.00e+00	0	44	0	0	54	4496
2026-01-08 07:55:33.98	30.96	15.51	-41.2	-43.1	18.6	0.00e+00	0	44	0	0	54	4344
2026-01-08 07:55:36.99	30.33	15.43	-41.2	-43.0	18.7	0.00e+00	0	44	0	0	54	4310
2026-01-08 07:55:40.00	29.70	15.35	-41.3	-43.1	18.6	0.00e+00	0	44	0	0	54	4384
2026-01-08 07:55:43.00	29.09	15.27	-41.3	-43.2	18.5	0.00e+00	0	44	0	0	54	4435
2026-01-08 07:55:46.01	28.47	15.18	-41.4	-43.4	18.4	0.00e+00	0	44	0	0	54	4498
2026-01-08 07:55:49.01	27.86	15.09	-41.4	-43.4	18.3	0.00e+00	0	44	0	0	54	4522
2026-01-08 07:55:52.01	27.25	15.00	-41.3	-43.2	18.5	0.00e+00	0	44	0	0	54	4439
2026-01-08 07:55:55.01	26.65	14.90	-41.3	-43.2	18.6	0.00e+00	0	44	0	0	54	4393
2026-01-08 07:55:58.02	26.04	14.80	-41.4	-43.4	18.4	0.00e+00	0	44	0	0	54	4496
2026-01-08 07:56:01.01	25.45	14.70	-41.5	-43.4	18.3	0.00e+00	0	44	0	0	54	4524
2026-01-08 07:56:04.01	24.86	14.60	-41.5	-43.4	18.3	0.00e+00	0	44	0	0	54	4516
2026-01-08 07:56:07.02	24.27	14.49	-41.5	-43.4	18.3	0.00e+00	0	44	0	0	54	4516
2026-01-08 07:56:10.02	23.69	14.38	-41.6	-43.5	18.3	0.00e+00	0	44	0	0	54	4560
2026-01-08 07:56:13.03	23.11	14.27	-41.8	-43.7	18.1	0.00e+00	0	44	0	0	54	4687
2026-01-08 07:56:16.03	22.53	14.15	-41.5	-43.4	18.3	0.00e+00	0	44	0	0	54	4512
2026-01-08 07:56:19.04	21.96	14.04	-41.5	-43.3	18.3	0.00e+00	0	44	0	0	54	4489
2026-01-08 07:56:22.04	21.40	13.92	-41.7	-43.6	18.1	0.00e+00	0	44	0	0	54	4649
2026-01-08 07:56:25.04	20.84	13.80	-41.7	-43.8	17.9	0.00e+00	0	44	0	0	54	4720
2026-01-08 07:56:28.04	20.28	13.68	-41.4	-43.4	18.3	0.00e+00	0	44	0	0	54	4514
2026-01-08 07:56:31.05	19.73	13.55	-41.3	-43.2	18.5	0.00e+00	0	44	0	0	54	4431
2026-01-08 07:56:34.04	19.18	13.42	-41.4	-43.3	18.4	0.00e+00	0	44	0	0	54	4457
2026-01-08 07:56:37.05	18.64	13.30	-41.7	-43.6	18.1	0.00e+00	0	43	0	0	54	4634
2026-01-08 07:56:40.05	18.10	13.17	-41.8	-43.7	18.1	0.00e+00	0	44	0	0	54	4681
2026-01-08 07:56:43.05	17.57	13.03	-41.8	-43.7	18.1	0.00e+00	0	44	0	0	54	4665
2026-01-08 07:56:46.06	17.04	12.90	-41.8	-43.8	17.9	0.00e+00	0	43	0	0	54	4755
2026-01-08 07:56:49.06	16.52	12.76	-42.1	-44.3	17.5	0.00e+00	0	44	0	0	54	5009
2026-01-08 07:56:52.07	16.00	12.63	-42.1	-44.5	17.3	0.00e+00	0	44	0	0	55	4817
2026-01-08 07:56:55.07	15.49	12.49	-41.8	-44.0	17.7	0.00e+00	0	44	0	0	55	4575
2026-01-08 07:56:58.08	14.98	12.35	-41.6	-43.8	17.9	0.00e+00	0	44	0	0	55	4443
2026-01-08 07:57:01.08	14.48	12.21	-41.6	-43.7	18.0	0.00e+00	0	44	0	0	54	4677
2026-01-08 07:57:04.08	13.98	12.06	-41.6	-43.6	18.1	0.00e+00	0	44	0	0	54	4631
2026-01-08 07:57:07.09	13.49	11.92	-41.8	-43.8	17.9	0.00e+00	0	44	0	0	54	4736
2026-01-08 07:57:10.09	13.00	11.77	-42.0	-44.1	17.6	0.00e+00	0	44	0	0	54	4911
2026-01-08 07:57:13.09	12.52	11.63	-42.1	-44.2	17.4	0.00e+00	0	44	0	0	55	4696
2026-01-08 07:57:16.09	12.04	11.48	-42.1	-44.2	17.4	0.00e+00	0	44	0	0	55	4691
2026-01-08 07:57:19.10	11.57	11.33	-41.9	-44.1	17.5	0.00e+00	0	44	0	0	55	4651
2026-01-08 07:57:22.11	11.10	11.18	-42.0	-44.4	17.4	0.00e+00	0	44	0	0	55	4760
2026-01-08 07:57:25.10	10.63	11.03	-42.2	-44.6	17.1	0.00e+00	0	44	0	0	55	4925
2026-01-08 07:57:28.10	10.18	10.88	-42.2	-44.7	17.2	0.00e+00	0	44	0	0	55	4929
2026-01-08 07:57:31.10	9.72	10.73	-42.1	-44.7	17.1	0.00e+00	0	44	0	0	55	4982
2026-01-08 07:57:34.10	9.27	10.58	-41.9	-44.6	17.2	0.00e+00	0	44	0	0	55	4897
2026-01-08 07:57:37.10	8.83	10.42	-42.4	-45.0	16.7	0.00e+00	0	44	0	0	55	5150
2026-01-08 07:57:40.11	8.39	10.27	-42.3	-44.8	17.0	0.00e+00	0	44	0	0	55	5020
2026-01-08 07:57:43.11	7.96	10.11	-42.1	-44.4	17.3	0.00e+00	0	44	0	0	55	4777
2026-01-08 07:57:46.11	7.53	9.96	-42.1	-44.3	17.4	0.00e+00	0	44	0	0	55	4717
2026-01-08 07:57:49.12	7.10	9.80	-42.1	-44.4	17.4	0.00e+00	0	44	0	0	55	4766
2026-01-08 07:57:52.12	6.68	9.64	-42.2	-44.5	17.2	0.00e+00	0	44	0	0	55	4846
2026-01-08 07:57:55.13	6.26	9.49	-42.2	-44.6	17.2	0.00e+00	0	44	0	0	55	4883
2026-01-08 07:57:58.13	5.85	9.33	-42.1	-44.6	17.1	0.00e+00	0	44	0	0	55	4895
2026-01-08 07:58:01.13	5.45	9.17	-42.3	-44.7	17.0	0.00e+00	0	44	0	0	55	4932
2026-01-08 07:58:04.13	5.04	9.01	-42.3	-44.5	17.2	0.00e+00	0	44	0	0	55	4843
2026-01-08 07:58:07.14	4.64	8.85	-49.8	-63.7	3.8	1.49e+00	0	44	104	0	70	18523
2026-01-08 07:58:10.15	4.25	8.69	-50.7	-63.8	3.8	1.49e+00	0	44	104	0	72	16770
2026-01-08 07:58:13.15	3.86	8.53	-50.5	-63.9	3.8	1.49e+00	0	44	104	0	72	16946
2026-01-08 07:58:16.16	3.48	8.37	-50.7	-63.9	3.8	1.49e+00	0	44	104	0	72	17033
2026-01-08 07:58:19.17	3.09	8.21	-50.6	-63.9	3.8	1.49e+00	0	44	104	0	72	17080
2026-01-08 07:58:22.18	2.72	8.05	-50.9	-63.9	3.8	1.49e+00	0	44	104	0	72	16972
2026-01-08 07:58:25.19	2.34	7.89	-50.9	-63.9	3.8	1.49e+00	0	44	104	0	72	16970
2026-01-08 07:58:28.20	1.98	7.73	-50.7	-63.9	3.8	1.49e+00	0	44	104	0	72	16977
2026-01-08 07:58:31.21	1.61	7.57	-50.7	-63.9	3.8	1.49e+00	0	44	104	0	72	16932
2026-01-08 07:58:34.21	1.25	7.41	-50.3	-63.9	3.8	1.49e+00	0	44	104	0	72	16898
2026-01-08 07:58:37.22	0.90	7.25	-50.3	-63.8	3.8	1.49e+00	0	44	104	0	72	16841
2026-01-08 07:58:40.23	0.54	7.09	-50.3	-63.8	3.8	1.49e+00	0	44	104	0	72	16798
2026-01-08 07:58:43.24	0.20	6.93	-50.3	-63.8	3.8	1.49e+00	0	44	104	0	72	16874
2026-01-08 07:58:46.25	359.85	6.77	-50.3	-63.8	3.8	1.49e+00	0	44	104	0	72	16878
2026-01-08 07:58:49.26	359.51	6.61	-50.3	-63.8	3.8	1.49e+00	0	44	104	0	72	16787
2026-01-08 07:58:52.26	359.18	6.45	-50.3	-63.8	3.8	1.49e+00	0	44	104	0	72	16825
2026-01-08 07:58:55.27	358.84	6.29	-50.3	-63.8	3.8	1.49e+00	0	44	104	0	72	16820
2026-01-08 07:58:58.28	358.51	6.13	-50.3	-63.8	3.8	1.49e+00	0	44	104	0	72	16814
2026-01-08 07:59:01.29	358.19	5.97	-50.3	-63.8	3.8	1.49e+00	0	44	104	0	72	16827
2026-01-08 07:59:04.29	357.87	5.81	-50.3	-63.8	3.8	1.49e+00	0	44	104	0	72	16772
2026-01-08 07:59:07.30	357.55	5.65	-50.3	-63.8	3.8	1.49e+00	0	44	104	0	72	16733
2026-01-08 07:59:10.30	357.24	5.49	-50.3	-63.8	3.8	1.49e+00	0	44	104	0	72	16783
2026-01-08 07:59:13.31	356.93	5.33	-50.3	-63.8	3.8	1.49e+00	0	44	104	0	72	16872
2026-01-08 07:59:16.32	356.62	5.17	-50.3	-63.8	3.8	1.49e+00	0	44	104	0	72	16801
2026-01-08 07:59:19.32	356.32	5.01	-50.3	-63.8	3.8	1.49e+00	0	44	104	0	72	16763

#Closed at: 2026-01-08 07:59:21
#Recorded file [0 MB]: D:/Data/31040_260108_104945.dat