passes_logs/2026/01/08/T1/T1__20260108_081823_SUOMI_NPP_rec.log

#Pass ID: 20260108_081823_SUOMI NPP
#Satellite: SUOMI NPP
#Configuration: NPP
#almurnet v.1.7.20251203
#Start time: 2026-01-08 08:18:23

#Version: 2.0.20230620
#Station: T1
#Location: 37.570604 lon 55.790049 lat
#TLE: 1 37849U 11061A   26005.94084933  .00000134  00000+0  84554-4 0  9990
#TLE: 2 37849  98.7803 308.0679 0002567  79.1029 281.0436 14.19522657735426

#Time	Az	El	Level	Level2	SNR	BER	BlckErr	Temp	State	Recorded	gain1	gain2
2026-01-08 08:18:23.41	106.47	4.98	-50.1	-65.3	3.8	1.49e+00	0	41	0	0	72	19843
2026-01-08 08:18:26.41	106.21	5.16	-50.1	-65.2	3.8	1.49e+00	0	42	104	0	72	19833
2026-01-08 08:18:29.42	105.96	5.34	-50.1	-65.2	3.8	1.49e+00	0	42	104	0	72	19789
2026-01-08 08:18:32.41	105.70	5.52	-50.0	-65.3	3.8	1.49e+00	0	42	104	0	72	19877
2026-01-08 08:18:35.40	105.43	5.70	-50.0	-65.3	3.8	1.49e+00	0	42	104	0	72	19900
2026-01-08 08:18:38.39	105.17	5.89	-50.1	-65.2	3.8	1.49e+00	0	42	104	0	72	19785
2026-01-08 08:18:41.38	104.90	6.07	-50.0	-65.1	3.8	1.49e+00	0	42	104	0	72	19582
2026-01-08 08:18:44.37	104.62	6.25	-50.0	-65.0	3.8	1.49e+00	0	42	104	0	72	19368
2026-01-08 08:18:47.38	104.34	6.44	-50.0	-65.1	3.8	1.49e+00	0	42	104	0	72	19472
2026-01-08 08:18:50.38	104.06	6.62	-50.0	-65.1	3.8	1.49e+00	0	42	104	0	72	19551
2026-01-08 08:18:53.39	103.78	6.81	-50.0	-65.1	3.8	1.49e+00	0	42	104	0	72	19469
2026-01-08 08:18:56.40	103.49	6.99	-50.0	-65.0	3.8	1.49e+00	0	42	104	0	72	19275
2026-01-08 08:18:59.41	103.19	7.18	-50.0	-65.1	3.8	1.49e+00	0	42	104	0	72	19416
2026-01-08 08:19:02.41	102.89	7.37	-50.0	-65.2	3.8	1.49e+00	0	43	104	0	72	19684
2026-01-08 08:19:05.42	102.59	7.56	-50.0	-65.0	3.8	1.49e+00	0	43	104	0	71	20485
2026-01-08 08:19:08.42	102.29	7.74	-50.0	-64.4	3.8	1.49e+00	0	43	104	0	71	18981
2026-01-08 08:19:11.42	101.98	7.93	-50.0	-65.0	3.8	1.49e+00	0	43	104	0	71	20308
2026-01-08 08:19:14.43	101.67	8.12	-49.7	-60.9	4.4	1.46e+00	0	43	0	0	71	12665
2026-01-08 08:19:17.43	101.35	8.31	-47.6	-52.7	10.9	1.22e-02	0	43	0	5242880	67	6271
2026-01-08 08:19:20.43	101.03	8.51	-46.5	-50.4	13.3	3.89e-05	0	43	0	10485760	65	5392
2026-01-08 08:19:23.43	100.70	8.70	-46.5	-50.4	13.4	1.75e-05	0	43	0	16777216	64	5705
2026-01-08 08:19:26.43	100.37	8.89	-48.6	-55.7	8.0	3.15e-02	0	43	0	22020096	67	8773
2026-01-08 08:19:29.44	100.03	9.08	-49.4	-58.3	5.7	1.39e+00	0	43	104	26214400	70	10023
2026-01-08 08:19:32.45	99.69	9.28	-49.8	-61.6	3.9	1.49e+00	0	43	104	29360128	70	14557
2026-01-08 08:19:35.46	99.35	9.47	-48.0	-53.2	10.8	2.25e-01	0	43	0	30408704	68	6256
2026-01-08 08:19:38.46	99.00	9.67	-47.3	-52.0	12.0	3.33e-04	0	43	0	36700160	66	6090
2026-01-08 08:19:41.46	98.65	9.86	-46.2	-49.9	14.0	9.90e-06	0	43	0	41943040	64	5370
2026-01-08 08:19:44.47	98.29	10.06	-46.3	-50.0	14.0	0.00e+00	0	43	0	47185920	63	5779
2026-01-08 08:19:47.47	97.92	10.25	-46.0	-49.4	14.7	0.00e+00	0	43	0	53477376	63	5376
2026-01-08 08:19:50.48	97.56	10.45	-45.7	-48.9	15.1	0.00e+00	0	43	0	58720256	63	5078
2026-01-08 08:19:53.49	97.18	10.65	-46.3	-50.0	14.1	1.50e-06	0	43	0	65011712	63	5744
2026-01-08 08:19:56.49	96.80	10.84	-45.6	-48.8	15.3	0.00e+00	0	43	0	70254592	63	5021
2026-01-08 08:19:59.49	96.42	11.04	-45.7	-49.0	15.0	0.00e+00	0	43	0	75497472	63	5142
2026-01-08 08:20:02.49	96.03	11.24	-46.4	-50.2	13.9	3.00e-06	0	43	0	81788928	63	5922
2026-01-08 08:20:05.49	95.64	11.44	-45.9	-49.4	14.7	1.50e-06	0	43	0	87031808	63	5360
2026-01-08 08:20:08.50	95.23	11.64	-46.1	-49.6	14.6	0.00e+00	0	43	0	92274688	63	5478
2026-01-08 08:20:11.51	94.83	11.83	-45.8	-49.1	15.0	0.00e+00	0	43	0	98566144	63	5185
2026-01-08 08:20:14.51	94.42	12.03	-45.2	-48.2	15.9	0.00e+00	0	43	0	103809024	62	4978
2026-01-08 08:20:17.52	94.00	12.23	-45.3	-48.3	15.7	0.00e+00	0	43	0	110100480	62	5036
2026-01-08 08:20:20.52	93.58	12.43	-45.2	-48.2	15.9	0.00e+00	0	43	0	115343360	62	4980
2026-01-08 08:20:23.53	93.15	12.63	-45.3	-48.4	15.8	0.00e+00	0	43	0	120586240	62	5045
2026-01-08 08:20:26.54	92.71	12.83	-45.2	-48.3	15.9	0.00e+00	0	43	0	126877696	61	5284
2026-01-08 08:20:29.54	92.27	13.03	-45.6	-48.8	15.4	0.00e+00	0	43	0	132120576	62	5286
2026-01-08 08:20:32.55	91.83	13.23	-45.3	-48.3	15.8	0.00e+00	0	43	0	137363456	62	5038
2026-01-08 08:20:35.55	91.37	13.43	-45.5	-48.7	15.5	0.00e+00	0	43	0	143654912	62	5251
2026-01-08 08:20:38.56	90.91	13.63	-45.5	-48.7	15.5	0.00e+00	0	43	0	148897792	62	5222
2026-01-08 08:20:41.57	90.45	13.83	-45.5	-48.7	15.5	0.00e+00	0	43	0	155189248	62	5270
2026-01-08 08:20:44.57	89.98	14.03	-45.8	-49.3	14.9	0.00e+00	0	43	0	160432128	62	5653
2026-01-08 08:20:47.58	89.50	14.22	-45.3	-48.4	15.8	0.00e+00	0	43	0	165675008	62	5095
2026-01-08 08:20:50.59	89.01	14.42	-45.3	-48.4	15.8	0.00e+00	0	43	0	171966464	62	5067
2026-01-08 08:20:53.60	88.52	14.62	-45.3	-48.5	15.7	0.00e+00	0	43	0	177209344	62	5124
2026-01-08 08:20:56.60	88.02	14.82	-45.3	-48.4	15.8	0.00e+00	0	43	0	182452224	62	5059
2026-01-08 08:20:59.61	87.52	15.01	-45.5	-48.8	15.4	0.00e+00	0	43	0	188743680	62	5326
2026-01-08 08:21:02.61	87.01	15.21	-45.8	-49.3	14.9	0.00e+00	0	43	0	193986560	62	5628
2026-01-08 08:21:05.61	86.49	15.40	-45.6	-49.0	15.2	0.00e+00	0	43	0	200278016	62	5432
2026-01-08 08:21:08.61	85.97	15.60	-45.3	-48.6	15.6	0.00e+00	0	43	0	205520896	62	5195
2026-01-08 08:21:11.62	85.43	15.79	-44.8	-47.8	16.3	0.00e+00	0	43	0	210763776	61	5008
2026-01-08 08:21:14.62	84.89	15.98	-44.8	-47.9	16.2	0.00e+00	0	43	0	217055232	61	5085
2026-01-08 08:21:17.62	84.35	16.17	-44.3	-47.3	16.9	0.00e+00	0	43	0	222298112	60	5005
2026-01-08 08:21:20.63	83.80	16.36	-44.2	-47.0	17.1	0.00e+00	0	43	0	227540992	60	4868
2026-01-08 08:21:23.64	83.24	16.55	-44.1	-46.8	17.3	0.00e+00	0	43	0	233832448	60	4715
2026-01-08 08:21:26.64	82.67	16.74	-44.1	-46.7	17.3	0.00e+00	0	43	0	239075328	59	4976
2026-01-08 08:21:29.65	82.09	16.92	-43.8	-46.4	17.7	0.00e+00	0	43	0	244318208	59	4775
2026-01-08 08:21:32.65	81.51	17.11	-43.8	-46.4	17.7	0.00e+00	0	43	0	250609664	59	4765
2026-01-08 08:21:35.66	80.93	17.29	-43.7	-46.3	17.7	0.00e+00	0	43	0	255852544	59	4717
2026-01-08 08:21:38.66	80.33	17.47	-43.6	-46.1	17.8	0.00e+00	0	43	0	262144000	59	4649
2026-01-08 08:21:41.66	79.73	17.65	-43.6	-46.1	17.9	0.00e+00	0	43	0	267386880	58	4876
2026-01-08 08:21:44.67	79.12	17.82	-43.5	-46.0	18.0	0.00e+00	0	43	0	272629760	58	4837
2026-01-08 08:21:47.67	78.50	18.00	-43.7	-46.2	17.8	0.00e+00	0	43	0	278921216	58	4965
2026-01-08 08:21:50.67	77.88	18.17	-44.0	-46.6	17.5	0.00e+00	0	43	0	284164096	58	5170
2026-01-08 08:21:53.68	77.25	18.34	-43.5	-46.2	17.6	0.00e+00	0	43	0	289406976	59	4680
2026-01-08 08:21:56.68	76.61	18.51	-43.6	-46.3	17.6	0.00e+00	0	43	0	295698432	59	4725
2026-01-08 08:21:59.69	75.96	18.67	-43.5	-46.1	17.7	0.00e+00	0	43	0	300941312	58	4920
2026-01-08 08:22:02.70	75.31	18.83	-43.1	-45.6	18.2	0.00e+00	0	43	0	307232768	58	4606
2026-01-08 08:22:05.70	74.65	18.99	-42.5	-44.9	18.9	0.00e+00	0	43	0	312475648	57	4510
2026-01-08 08:22:08.70	73.99	19.15	-42.6	-44.9	18.9	0.00e+00	0	43	0	317718528	56	4784
2026-01-08 08:22:11.71	73.31	19.30	-42.7	-45.1	18.7	0.00e+00	0	43	0	324009984	56	4883
2026-01-08 08:22:14.71	72.63	19.45	-43.1	-45.6	18.3	0.00e+00	0	43	0	329252864	57	4884
2026-01-08 08:22:17.71	71.95	19.60	-43.2	-45.8	18.2	0.00e+00	0	43	0	334495744	57	4986
2026-01-08 08:22:20.71	71.26	19.74	-43.4	-46.0	17.9	0.00e+00	0	43	0	340787200	57	5145
2026-01-08 08:22:23.72	70.56	19.88	-43.5	-46.1	17.8	0.00e+00	0	43	0	346030080	57	5193
2026-01-08 08:22:26.72	69.85	20.02	-43.1	-45.6	18.3	0.00e+00	0	43	0	352321536	57	4885
2026-01-08 08:22:29.73	69.14	20.15	-42.9	-45.4	18.5	0.00e+00	0	43	0	357564416	57	4765
2026-01-08 08:22:32.73	68.42	20.28	-42.8	-45.2	18.7	0.00e+00	0	43	0	362807296	57	4652
2026-01-08 08:22:35.73	67.70	20.40	-42.7	-45.1	18.7	0.00e+00	0	43	0	369098752	57	4614
2026-01-08 08:22:38.74	66.97	20.52	-42.9	-45.3	18.6	0.00e+00	0	43	0	374341632	56	4987
2026-01-08 08:22:41.75	66.23	20.63	-43.4	-45.9	18.1	0.00e+00	0	43	0	379584512	57	5045
2026-01-08 08:22:44.76	65.49	20.74	-44.0	-46.7	17.3	0.00e+00	0	43	0	385875968	58	5261
2026-01-08 08:22:47.75	64.75	20.85	-44.2	-46.9	17.1	0.00e+00	0	43	0	391118848	59	5084
2026-01-08 08:22:50.76	64.00	20.95	-44.8	-47.9	16.2	0.00e+00	0	43	0	397410304	60	5361
2026-01-08 08:22:53.77	63.24	21.05	-44.6	-47.6	16.4	0.00e+00	0	43	0	402653184	60	5211
2026-01-08 08:22:56.77	62.48	21.14	-44.2	-47.0	17.0	0.00e+00	0	43	0	407896064	60	4852
2026-01-08 08:22:59.77	61.72	21.23	-44.0	-46.8	17.2	0.00e+00	0	43	0	414187520	59	5016
2026-01-08 08:23:02.78	60.95	21.31	-44.5	-47.5	16.5	0.00e+00	0	43	0	419430400	59	5451
2026-01-08 08:23:05.78	60.18	21.38	-44.7	-47.8	16.4	0.00e+00	0	43	0	424673280	60	5310
2026-01-08 08:23:08.78	59.40	21.45	-44.2	-46.9	17.1	0.00e+00	0	43	0	430964736	59	5097
2026-01-08 08:23:11.79	58.62	21.52	-44.4	-47.2	16.9	0.00e+00	0	43	0	436207616	59	5248
2026-01-08 08:23:14.80	57.84	21.58	-44.2	-47.0	17.0	0.00e+00	0	43	0	442499072	59	5134
2026-01-08 08:23:17.79	57.06	21.63	-44.2	-47.0	17.1	0.00e+00	0	42	0	447741952	59	5117
2026-01-08 08:23:20.79	56.27	21.68	-44.9	-48.1	16.1	0.00e+00	0	43	0	452984832	60	5466
2026-01-08 08:23:23.80	55.48	21.72	-45.1	-48.4	15.8	0.00e+00	0	43	0	459276288	60	5711
2026-01-08 08:23:26.80	54.69	21.76	-45.2	-48.7	15.5	0.00e+00	0	43	0	464519168	61	5564
2026-01-08 08:23:29.81	53.89	21.79	-44.8	-48.0	16.1	0.00e+00	0	43	0	469762048	61	5107
2026-01-08 08:23:32.82	53.09	21.82	-44.1	-47.1	17.1	0.00e+00	0	43	0	476053504	60	4874
2026-01-08 08:23:35.82	52.30	21.84	-43.8	-46.5	17.4	0.00e+00	0	43	0	481296384	59	4843
2026-01-08 08:23:38.83	51.50	21.85	-43.6	-46.3	17.6	0.00e+00	0	43	0	487587840	59	4725
2026-01-08 08:23:41.84	50.70	21.86	-43.7	-46.3	17.6	0.00e+00	0	43	0	492830720	59	4756
2026-01-08 08:23:44.84	49.90	21.86	-44.2	-47.2	16.8	0.00e+00	0	43	0	498073600	59	5230
2026-01-08 08:23:47.85	49.10	21.86	-44.1	-47.0	17.1	0.00e+00	0	43	0	504365056	59	5126
2026-01-08 08:23:50.86	48.30	21.85	-43.7	-46.4	17.5	0.00e+00	0	43	0	509607936	59	4801
2026-01-08 08:23:53.86	47.51	21.83	-43.3	-45.8	18.1	0.00e+00	0	43	0	514850816	58	4752
2026-01-08 08:23:56.86	46.71	21.81	-43.4	-46.0	17.9	0.00e+00	0	43	0	521142272	58	4846
2026-01-08 08:23:59.87	45.92	21.78	-43.1	-45.6	18.3	0.00e+00	0	43	0	526385152	58	4624
2026-01-08 08:24:02.87	45.13	21.75	-43.3	-45.8	18.2	0.00e+00	0	43	0	532676608	58	4730
2026-01-08 08:24:05.88	44.33	21.71	-43.2	-45.7	18.2	0.00e+00	0	43	0	537919488	58	4673
2026-01-08 08:24:08.88	43.55	21.66	-42.7	-45.0	18.8	0.00e+00	0	43	0	543162368	57	4592
2026-01-08 08:24:11.88	42.76	21.61	-42.8	-45.2	18.7	0.00e+00	0	43	0	549453824	57	4689
2026-01-08 08:24:14.88	41.98	21.56	-43.1	-45.6	18.4	0.00e+00	0	43	0	554696704	57	4872
2026-01-08 08:24:17.89	41.20	21.49	-43.2	-45.6	18.3	0.00e+00	0	43	0	559939584	57	4902
2026-01-08 08:24:20.89	40.42	21.43	-42.7	-45.0	18.8	0.00e+00	0	43	0	566231040	57	4577
2026-01-08 08:24:23.90	39.65	21.36	-42.6	-44.9	19.0	0.00e+00	0	43	0	571473920	57	4498
2026-01-08 08:24:26.91	38.87	21.28	-42.9	-45.3	18.6	0.00e+00	0	43	0	577765376	57	4720
2026-01-08 08:24:29.92	38.11	21.19	-43.8	-46.4	17.6	0.00e+00	0	43	0	583008256	58	5069
2026-01-08 08:24:32.92	37.35	21.11	-43.4	-46.0	18.0	0.00e+00	0	43	0	588251136	58	4843
2026-01-08 08:24:35.93	36.59	21.01	-43.5	-46.0	17.9	0.00e+00	0	43	0	594542592	58	4865
2026-01-08 08:24:38.94	35.84	20.91	-44.0	-46.8	17.3	0.00e+00	0	43	0	599785472	58	5281
2026-01-08 08:24:41.95	35.09	20.81	-44.4	-47.3	16.8	0.00e+00	0	43	0	605028352	59	5313
2026-01-08 08:24:44.96	34.34	20.70	-44.8	-48.0	16.2	0.00e+00	0	43	0	611319808	60	5439
2026-01-08 08:24:47.97	33.61	20.59	-44.5	-47.6	16.6	0.00e+00	0	43	0	616562688	60	5194
2026-01-08 08:24:50.98	32.87	20.48	-44.1	-47.1	17.0	0.00e+00	0	43	0	622854144	60	4895
2026-01-08 08:24:53.98	32.15	20.36	-44.4	-47.5	16.6	0.00e+00	0	43	0	628097024	59	5432
2026-01-08 08:24:56.99	31.43	20.23	-44.2	-47.0	17.0	0.00e+00	0	43	0	633339904	59	5154
2026-01-08 08:25:00.00	30.71	20.10	-43.8	-46.4	17.5	0.00e+00	0	43	0	639631360	59	4811
2026-01-08 08:25:03.00	30.01	19.97	-43.5	-46.2	17.8	0.00e+00	0	42	0	644874240	58	4946
2026-01-08 08:25:06.01	29.31	19.83	-43.7	-46.4	17.6	0.00e+00	0	43	0	650117120	58	5047
2026-01-08 08:25:09.01	28.61	19.69	-44.1	-46.9	17.1	0.00e+00	0	43	0	656408576	58	5396
2026-01-08 08:25:12.02	27.92	19.55	-44.8	-48.0	16.1	0.00e+00	0	43	0	661651456	60	5453
2026-01-08 08:25:15.02	27.24	19.40	-44.7	-48.1	16.1	0.00e+00	0	42	0	667942912	60	5473
2026-01-08 08:25:18.03	26.57	19.25	-44.9	-48.6	15.6	0.00e+00	0	43	0	673185792	60	5810
2026-01-08 08:25:21.03	25.90	19.10	-45.8	-50.1	14.1	3.00e-06	0	43	0	678428672	62	6194
2026-01-08 08:25:24.04	25.24	18.94	-45.5	-49.5	14.8	7.00e-07	0	43	0	684720128	62	5756
2026-01-08 08:25:27.04	24.58	18.78	-44.6	-47.9	16.2	0.00e+00	0	43	0	689963008	61	5053
2026-01-08 08:25:30.05	23.94	18.62	-43.8	-46.5	17.5	0.00e+00	0	42	0	695205888	59	4837
2026-01-08 08:25:33.06	23.30	18.45	-43.4	-46.0	17.9	0.00e+00	0	42	0	701497344	58	4852
2026-01-08 08:25:36.07	22.66	18.28	-43.6	-46.3	17.7	0.00e+00	0	42	0	706740224	58	5040
2026-01-08 08:25:39.07	22.04	18.11	-43.6	-46.4	17.6	0.00e+00	0	43	0	713031680	58	5055
2026-01-08 08:25:42.08	21.42	17.94	-43.1	-45.7	18.2	0.00e+00	0	42	0	718274560	58	4672
2026-01-08 08:25:45.08	20.81	17.77	-43.7	-46.4	17.6	0.00e+00	0	43	0	723517440	58	5092
2026-01-08 08:25:48.08	20.20	17.59	-44.7	-47.9	16.3	0.00e+00	0	43	0	729808896	60	5349
2026-01-08 08:25:51.09	19.61	17.41	-44.9	-48.4	15.8	0.00e+00	0	42	0	735051776	60	5670
2026-01-08 08:25:54.09	19.02	17.23	-44.4	-47.6	16.6	0.00e+00	0	43	0	740294656	60	5174
2026-01-08 08:25:57.09	18.43	17.05	-44.0	-47.0	17.0	0.00e+00	0	42	0	746586112	59	5111
2026-01-08 08:26:00.10	17.86	16.86	-43.7	-46.4	17.5	0.00e+00	0	42	0	751828992	59	4803
2026-01-08 08:26:03.11	17.29	16.68	-43.8	-46.4	17.5	0.00e+00	0	43	0	757071872	59	4810
2026-01-08 08:26:06.11	16.73	16.49	-44.3	-47.2	16.9	0.00e+00	0	42	0	763363328	59	5236
2026-01-08 08:26:09.12	16.17	16.30	-44.5	-47.5	16.7	0.00e+00	0	43	0	768606208	60	5114
2026-01-08 08:26:12.12	15.63	16.11	-44.1	-47.2	16.9	0.00e+00	0	43	0	774897664	60	4959
2026-01-08 08:26:15.12	15.09	15.92	-44.1	-47.4	16.7	0.00e+00	0	43	0	780140544	59	5363
2026-01-08 08:26:18.13	14.55	15.73	-44.1	-47.4	16.6	0.00e+00	0	43	0	785383424	59	5394
2026-01-08 08:26:21.13	14.03	15.54	-44.2	-47.5	16.6	0.00e+00	0	42	0	791674880	59	5437
2026-01-08 08:26:24.14	13.51	15.35	-43.7	-46.9	17.1	0.00e+00	0	43	0	796917760	59	5044
2026-01-08 08:26:27.14	13.00	15.15	-43.3	-46.2	17.7	0.00e+00	0	43	0	802160640	58	4959
2026-01-08 08:26:30.14	12.49	14.96	-43.6	-46.4	17.5	0.00e+00	0	42	0	808452096	58	5100
2026-01-08 08:26:33.14	11.99	14.76	-43.4	-46.0	18.0	0.00e+00	0	42	0	813694976	58	4824
2026-01-08 08:26:36.15	11.50	14.56	-42.7	-45.2	18.6	0.00e+00	0	42	0	819986432	57	4681
2026-01-08 08:26:39.15	11.02	14.37	-42.7	-45.3	18.5	0.00e+00	0	43	0	825229312	57	4741
2026-01-08 08:26:42.16	10.54	14.17	-43.2	-45.9	18.0	0.00e+00	0	42	0	830472192	57	5051
2026-01-08 08:26:45.17	10.06	13.97	-43.3	-46.1	17.8	0.00e+00	0	43	0	836763648	57	5183
2026-01-08 08:26:48.17	9.60	13.78	-43.5	-46.4	17.6	0.00e+00	0	42	0	842006528	57	5356
2026-01-08 08:26:51.17	9.14	13.58	-43.1	-45.8	18.1	0.00e+00	0	42	0	847249408	57	5005
2026-01-08 08:26:54.18	8.68	13.38	-42.9	-45.5	18.4	0.00e+00	0	42	0	853540864	57	4831
2026-01-08 08:26:57.19	8.23	13.18	-43.3	-46.3	17.7	0.00e+00	0	42	0	858783744	57	5289
2026-01-08 08:27:00.19	7.79	12.98	-43.7	-46.8	17.2	0.00e+00	0	42	0	865075200	57	5642
2026-01-08 08:27:03.19	7.36	12.78	-43.9	-47.1	16.9	0.00e+00	0	43	0	870318080	58	5472
2026-01-08 08:27:06.20	6.93	12.58	-43.8	-46.9	17.1	0.00e+00	0	42	0	875560960	58	5354
2026-01-08 08:27:09.21	6.51	12.39	-43.5	-46.3	17.6	0.00e+00	0	43	0	881852416	58	5035
2026-01-08 08:27:12.21	6.09	12.19	-42.9	-45.5	18.4	0.00e+00	0	42	0	887095296	57	4818
2026-01-08 08:27:15.21	5.68	11.99	-43.1	-45.9	18.0	0.00e+00	0	43	0	892338176	57	5051
2026-01-08 08:27:18.22	5.27	11.79	-43.8	-46.9	17.0	0.00e+00	0	42	0	898629632	58	5389
2026-01-08 08:27:21.22	4.87	11.59	-44.4	-47.8	16.2	0.00e+00	0	42	0	903872512	59	5638
2026-01-08 08:27:24.22	4.48	11.40	-44.5	-47.6	16.4	0.00e+00	0	42	0	910163968	60	5214
2026-01-08 08:27:27.23	4.08	11.20	-44.4	-47.5	16.5	0.00e+00	0	42	0	915406848	60	5142
2026-01-08 08:27:30.23	3.70	11.00	-44.0	-47.1	16.9	0.00e+00	0	42	0	920649728	60	4890
2026-01-08 08:27:33.23	3.32	10.80	-44.0	-46.9	17.0	0.00e+00	0	42	0	926941184	59	5062
2026-01-08 08:27:36.24	2.95	10.61	-44.1	-47.1	16.8	0.00e+00	0	42	0	932184064	59	5177
2026-01-08 08:27:39.24	2.58	10.41	-43.8	-47.2	16.7	0.00e+00	0	42	0	937426944	59	5279
2026-01-08 08:27:42.25	2.22	10.22	-44.3	-47.7	16.3	0.00e+00	0	42	0	943718400	59	5575
2026-01-08 08:27:45.25	1.86	10.02	-44.7	-48.2	15.8	0.00e+00	0	42	0	948961280	60	5578
2026-01-08 08:27:48.26	1.50	9.83	-44.3	-48.0	16.0	0.00e+00	0	43	0	955252736	60	5427
2026-01-08 08:27:51.26	1.15	9.63	-44.1	-48.0	16.0	0.00e+00	0	42	0	960495616	60	5461
2026-01-08 08:27:54.27	0.81	9.44	-44.4	-48.6	15.4	0.00e+00	0	42	0	965738496	60	5814
2026-01-08 08:27:57.27	0.47	9.24	-44.8	-49.4	14.7	0.00e+00	0	42	0	972029952	60	6377
2026-01-08 08:28:00.27	0.14	9.05	-44.8	-49.3	14.8	7.00e-07	0	42	0	977272832	60	6282
2026-01-08 08:28:03.28	359.80	8.86	-50.0	-65.6	3.8	1.49e+00	0	42	104	980418560	70	23309
2026-01-08 08:28:06.28	359.48	8.67	-50.3	-65.9	3.8	1.49e+00	0	42	104	980418560	71	22680
2026-01-08 08:28:09.29	359.16	8.48	-50.6	-66.0	3.8	1.49e+00	0	42	104	980418560	72	21537
2026-01-08 08:28:12.29	358.84	8.29	-50.7	-66.0	3.8	1.49e+00	0	43	104	980418560	72	21581
2026-01-08 08:28:15.30	358.53	8.10	-50.7	-66.0	3.8	1.49e+00	0	42	104	980418560	72	21640
2026-01-08 08:28:18.31	358.22	7.91	-50.5	-66.0	3.8	1.49e+00	0	42	104	980418560	72	21712
2026-01-08 08:28:21.31	357.91	7.72	-50.8	-66.0	3.8	1.49e+00	0	42	104	980418560	72	21702
2026-01-08 08:28:24.32	357.61	7.53	-50.7	-66.0	3.8	1.49e+00	0	42	104	980418560	72	21584
2026-01-08 08:28:27.32	357.32	7.34	-50.8	-66.0	3.8	1.49e+00	0	42	104	980418560	72	21560
2026-01-08 08:28:30.33	357.02	7.16	-50.4	-66.0	3.8	1.49e+00	0	42	104	980418560	72	21553
2026-01-08 08:28:33.33	356.73	6.97	-50.2	-65.9	3.8	1.49e+00	0	42	104	980418560	72	21442
