passes_logs/2026/01/08/T1/T1__20260108_011230_AQUA_rec.log

#Pass ID: 20260108_011230_AQUA
#Satellite: AQUA
#Configuration: AQUA
#almurnet v.1.7.20251203
#Start time: 2026-01-08 01:12:31

#Version: 2.0.20230620
#Station: T1
#Location: 37.570604 lon 55.790049 lat
#TLE: 1 27424U 02022A   26004.96787593  .00001598  00000+0  32997-3 0  9996
#TLE: 2 27424  98.4069 331.2279 0002002  90.2377   0.6092 14.61798176259425

#Time	Az	El	Level	Level2	SNR	BER	BlckErr	Temp	State	Recorded	gain1	gain2
2026-01-08 01:12:31.19	17.12	5.04	-51.9	-73.5	3.8	7.45e-01	0	37	0	0	74	45899
2026-01-08 01:12:34.18	17.16	5.26	-52.0	-73.6	3.8	7.45e-01	0	37	104	0	74	46085
2026-01-08 01:12:37.17	17.20	5.49	-52.0	-73.2	3.8	7.45e-01	0	37	104	0	74	44145
2026-01-08 01:12:40.16	17.25	5.72	-52.0	-72.8	3.8	7.47e-01	0	37	104	0	74	42215
2026-01-08 01:12:43.16	17.29	5.95	-52.0	-72.5	3.8	7.47e-01	0	37	104	0	74	40616
2026-01-08 01:12:46.17	17.33	6.18	-52.0	-72.5	3.8	7.46e-01	0	37	104	0	74	40668
2026-01-08 01:12:49.17	17.37	6.42	-52.0	-72.9	3.8	7.46e-01	0	38	104	0	74	42681
2026-01-08 01:12:52.18	17.42	6.66	-52.1	-73.5	3.8	7.46e-01	0	38	104	0	74	45973
2026-01-08 01:12:55.19	17.46	6.90	-52.0	-72.6	3.8	7.49e-01	0	38	104	0	74	41363
2026-01-08 01:12:58.19	17.51	7.14	-52.0	-69.8	3.9	7.48e-01	0	38	104	0	74	30020
2026-01-08 01:13:01.20	17.55	7.39	-51.9	-67.1	5.8	6.89e-01	0	38	0	524288	74	21882
2026-01-08 01:13:04.21	17.60	7.64	-51.9	-65.9	6.7	6.71e-01	0	38	0	5767168	74	19088
2026-01-08 01:13:07.21	17.65	7.89	-51.9	-65.6	7.0	6.66e-01	0	38	0	11534336	74	18444
2026-01-08 01:13:10.22	17.69	8.14	-51.9	-65.7	6.9	6.67e-01	0	38	0	17301504	74	18699
2026-01-08 01:13:13.21	17.74	8.40	-51.9	-65.7	6.9	6.65e-01	0	38	0	22544384	74	18622
2026-01-08 01:13:16.20	17.79	8.66	-51.8	-64.3	8.2	6.42e-01	0	38	0	28311552	74	15924
2026-01-08 01:13:19.19	17.84	8.92	-51.5	-62.0	10.7	6.17e-01	0	39	0	34078720	74	12146
2026-01-08 01:13:22.18	17.89	9.19	-51.8	-61.4	11.4	6.15e-01	0	39	0	39321600	74	11348
2026-01-08 01:13:25.18	17.94	9.46	-51.6	-69.6	4.2	7.26e-01	0	38	104	44564480	74	29185
2026-01-08 01:13:28.18	17.99	9.73	-48.5	-51.9	20.8	6.07e-01	0	39	0	49807360	69	5051
2026-01-08 01:13:31.19	18.05	10.00	-47.6	-50.6	21.9	6.04e-01	0	39	0	55050240	67	4924
2026-01-08 01:13:34.19	18.10	10.28	-47.4	-50.5	22.0	6.04e-01	0	39	0	60817408	66	5139
2026-01-08 01:13:37.20	18.15	10.57	-47.2	-50.3	22.2	6.04e-01	0	39	0	66584576	66	5037
2026-01-08 01:13:40.20	18.21	10.85	-47.1	-50.3	22.3	6.04e-01	0	39	0	72351744	66	5003
2026-01-08 01:13:43.21	18.26	11.14	-47.0	-50.2	22.4	6.06e-01	0	39	0	77594624	66	4943
2026-01-08 01:13:46.21	18.32	11.44	-47.2	-50.2	22.4	6.05e-01	0	39	0	83361792	66	4951
2026-01-08 01:13:49.21	18.38	11.74	-47.1	-50.0	22.5	6.03e-01	0	39	0	89128960	66	4847
2026-01-08 01:13:52.22	18.44	12.04	-47.2	-50.0	22.6	6.05e-01	0	39	0	94896128	66	4850
2026-01-08 01:13:55.22	18.50	12.35	-47.3	-50.1	22.4	6.05e-01	0	39	0	100139008	66	4910
2026-01-08 01:13:58.22	18.56	12.66	-47.2	-50.1	22.5	6.06e-01	0	39	0	105906176	66	4882
2026-01-08 01:14:01.22	18.62	12.97	-47.1	-49.9	22.7	6.05e-01	0	39	0	111673344	66	4813
2026-01-08 01:14:04.22	18.69	13.29	-47.1	-49.9	22.7	6.05e-01	0	39	0	117440512	66	4792
2026-01-08 01:14:07.23	18.75	13.62	-47.0	-49.8	22.8	6.04e-01	0	39	0	122683392	66	4742
2026-01-08 01:14:10.24	18.82	13.95	-46.9	-49.7	22.9	6.05e-01	0	39	0	128450560	65	4954
2026-01-08 01:14:13.24	18.88	14.28	-46.5	-49.5	22.4	6.04e-01	0	39	0	134217728	65	4858
2026-01-08 01:14:16.24	18.95	14.62	-46.4	-49.6	21.2	6.04e-01	0	39	0	139984896	64	5161
2026-01-08 01:14:19.23	19.02	14.97	-46.4	-49.6	22.3	6.04e-01	0	39	0	145227776	64	5188
2026-01-08 01:14:22.23	19.09	15.32	-46.2	-49.4	21.7	6.02e-01	0	39	0	150994944	64	5089
2026-01-08 01:14:25.23	19.17	15.67	-46.2	-49.6	21.1	6.04e-01	0	39	0	156762112	64	5166
2026-01-08 01:14:28.24	19.24	16.04	-46.4	-49.4	23.1	6.03e-01	0	39	0	162004992	64	5093
2026-01-08 01:14:31.24	19.32	16.40	-46.3	-49.4	22.8	6.04e-01	0	39	0	167772160	64	5050
2026-01-08 01:14:34.23	19.39	16.78	-46.5	-49.4	23.2	6.05e-01	0	39	0	173539328	64	5079
2026-01-08 01:14:37.23	19.47	17.16	-46.4	-49.3	23.3	6.05e-01	0	39	0	179306496	64	4986
2026-01-08 01:14:40.23	19.56	17.54	-46.6	-49.3	23.3	6.03e-01	0	39	0	184549376	64	5013
2026-01-08 01:14:43.22	19.64	17.94	-46.7	-49.4	23.2	6.05e-01	0	39	0	190316544	64	5058
2026-01-08 01:14:46.22	19.72	18.34	-46.6	-49.3	23.2	6.05e-01	0	39	0	196083712	64	5001
2026-01-08 01:14:49.21	19.81	18.75	-46.6	-49.3	23.2	6.05e-01	0	39	0	201850880	64	5036
2026-01-08 01:14:52.21	19.90	19.16	-46.6	-49.3	23.3	6.02e-01	0	39	0	207093760	64	5036
2026-01-08 01:14:55.20	19.99	19.58	-46.5	-49.4	23.2	6.03e-01	0	39	0	212860928	64	5051
2026-01-08 01:14:58.20	20.09	20.02	-46.3	-49.3	23.3	6.05e-01	0	39	0	218628096	64	5002
2026-01-08 01:15:01.19	20.18	20.45	-46.4	-49.2	23.3	6.03e-01	0	39	0	223870976	64	4961
2026-01-08 01:15:04.18	20.28	20.90	-46.4	-49.1	23.4	6.04e-01	0	39	0	229638144	64	4902
2026-01-08 01:15:07.18	20.38	21.36	-46.5	-49.3	23.3	6.03e-01	0	39	0	235405312	64	5002
2026-01-08 01:15:10.18	20.49	21.82	-46.6	-49.5	23.1	6.04e-01	0	39	0	240648192	64	5110
2026-01-08 01:15:13.17	20.60	22.30	-46.7	-49.6	23.0	6.04e-01	0	39	0	246415360	64	5204
2026-01-08 01:15:16.17	20.71	22.78	-46.8	-49.6	23.1	6.03e-01	0	39	0	252182528	64	5161
2026-01-08 01:15:19.16	20.82	23.28	-46.9	-49.7	23.0	6.05e-01	0	39	0	257949696	64	5230
2026-01-08 01:15:22.16	20.94	23.79	-46.8	-49.7	22.9	6.02e-01	0	39	0	263192576	64	5274
2026-01-08 01:15:25.16	21.06	24.30	-46.4	-49.7	23.0	6.04e-01	0	39	0	268959744	64	5249
2026-01-08 01:15:28.15	21.19	24.83	-46.3	-49.5	23.1	6.04e-01	0	39	0	274726912	64	5156
2026-01-08 01:15:31.14	21.32	25.37	-46.4	-49.5	23.1	6.04e-01	0	39	0	279969792	64	5118
2026-01-08 01:15:34.13	21.45	25.92	-46.6	-49.5	23.1	6.05e-01	0	39	0	285736960	64	5158
2026-01-08 01:15:37.13	21.59	26.48	-46.6	-49.6	23.1	6.06e-01	0	39	0	291504128	64	5160
2026-01-08 01:15:40.12	21.73	27.06	-46.5	-49.3	23.3	6.03e-01	0	39	0	297271296	64	5035
2026-01-08 01:15:43.11	21.88	27.65	-46.6	-49.2	23.4	6.03e-01	0	39	0	302514176	64	4965
2026-01-08 01:15:46.10	22.03	28.25	-46.6	-49.2	23.4	6.02e-01	0	39	0	308281344	64	4958
2026-01-08 01:15:49.09	22.19	28.87	-46.2	-48.7	23.8	6.04e-01	0	39	0	314048512	64	4688
2026-01-08 01:15:52.09	22.36	29.50	-46.3	-49.0	23.6	6.03e-01	0	39	0	319291392	64	4830
2026-01-08 01:15:55.08	22.53	30.15	-46.2	-48.8	23.7	6.05e-01	0	39	0	325058560	64	4740
2026-01-08 01:15:58.07	22.71	30.81	-46.3	-48.9	23.7	6.06e-01	0	39	0	330825728	64	4775
2026-01-08 01:16:01.07	22.89	31.50	-46.3	-48.9	23.6	6.03e-01	0	39	0	336068608	64	4779
2026-01-08 01:16:04.07	23.09	32.19	-46.2	-48.8	23.7	6.03e-01	0	39	0	341835776	64	4753
2026-01-08 01:16:07.06	23.29	32.91	-46.3	-49.0	23.6	6.03e-01	0	39	0	347602944	64	4830
2026-01-08 01:16:10.06	23.50	33.64	-46.5	-49.4	23.2	6.05e-01	0	39	0	353370112	64	5096
2026-01-08 01:16:13.06	23.72	34.40	-46.9	-49.7	22.9	6.05e-01	0	39	0	358612992	64	5242
2026-01-08 01:16:16.05	23.95	35.17	-47.0	-49.7	22.9	6.04e-01	0	39	0	364380160	65	4976
2026-01-08 01:16:19.06	24.19	35.97	-47.1	-50.1	22.7	6.03e-01	0	39	0	370147328	65	5181
2026-01-08 01:16:22.06	24.45	36.78	-47.4	-50.7	22.2	6.05e-01	0	39	0	375914496	65	5537
2026-01-08 01:16:25.05	24.71	37.61	-47.6	-50.7	22.0	6.05e-01	0	39	0	381157376	66	5273
2026-01-08 01:16:28.05	25.00	38.47	-47.9	-51.0	21.8	6.02e-01	0	39	0	386924544	66	5464
2026-01-08 01:16:31.03	25.29	39.35	-48.3	-51.3	21.6	6.03e-01	0	39	0	392691712	67	5285
2026-01-08 01:16:34.03	25.60	40.25	-48.0	-51.0	21.9	6.02e-01	0	39	0	397934592	67	5116
2026-01-08 01:16:37.02	25.93	41.18	-47.9	-50.8	22.1	6.05e-01	0	39	0	403701760	67	5009
2026-01-08 01:16:40.02	26.28	42.13	-47.2	-50.1	22.6	6.05e-01	0	39	0	409468928	66	4906
2026-01-08 01:16:43.01	26.65	43.11	-46.5	-49.4	23.2	6.04e-01	0	39	0	414711808	65	4804
2026-01-08 01:16:46.01	27.05	44.11	-46.0	-48.7	23.8	6.04e-01	0	39	0	420478976	64	4663
2026-01-08 01:16:49.00	27.46	45.14	-46.2	-48.9	23.6	6.05e-01	0	39	0	426246144	64	4808
2026-01-08 01:16:51.99	27.91	46.20	-46.3	-49.1	23.5	6.05e-01	0	39	0	432013312	64	4886
2026-01-08 01:16:54.97	28.39	47.28	-46.3	-48.9	23.6	6.03e-01	0	39	0	437256192	64	4793
2026-01-08 01:16:57.96	28.90	48.39	-46.3	-49.0	23.5	6.04e-01	0	39	0	443023360	64	4869
2026-01-08 01:17:00.95	29.45	49.52	-46.6	-49.6	23.1	6.04e-01	0	39	0	448790528	64	5173
2026-01-08 01:17:03.95	30.04	50.70	-45.8	-48.4	24.1	6.03e-01	0	40	0	454033408	63	4774
2026-01-08 01:17:06.95	30.69	51.89	-45.9	-48.4	24.1	6.04e-01	0	39	0	459800576	63	4794
2026-01-08 01:17:09.94	31.38	53.12	-45.6	-48.0	24.4	6.04e-01	0	39	0	465567744	63	4575
2026-01-08 01:17:12.94	32.14	54.37	-45.9	-48.4	24.1	6.03e-01	0	40	0	471334912	63	4785
2026-01-08 01:17:15.93	32.97	55.65	-46.1	-48.7	23.9	6.02e-01	0	39	0	476577792	63	4949
2026-01-08 01:17:18.92	33.87	56.95	-46.8	-49.5	23.2	6.05e-01	0	39	0	482344960	64	5117
2026-01-08 01:17:21.92	34.87	58.28	-47.1	-50.0	22.7	6.04e-01	0	39	0	488112128	65	5121
2026-01-08 01:17:24.91	35.98	59.63	-47.7	-50.6	22.2	6.04e-01	0	40	0	493355008	66	5188
2026-01-08 01:17:27.91	37.20	61.01	-48.0	-51.0	21.9	6.03e-01	0	39	0	499122176	66	5416
2026-01-08 01:17:30.90	38.57	62.40	-48.6	-51.8	21.2	6.05e-01	0	40	0	504889344	67	5602
2026-01-08 01:17:33.89	40.10	63.80	-49.2	-52.5	20.6	6.05e-01	0	40	0	510656512	69	5454
2026-01-08 01:17:36.89	41.83	65.22	-49.9	-53.7	19.5	6.05e-01	0	39	0	515899392	70	5867
2026-01-08 01:17:39.88	43.80	66.64	-50.3	-54.3	18.9	6.04e-01	0	39	0	521666560	71	5964
2026-01-08 01:17:42.87	46.04	68.06	-50.9	-55.3	17.9	6.06e-01	0	39	0	527433728	72	6279
2026-01-08 01:17:45.87	48.63	69.47	-50.7	-55.3	17.8	6.05e-01	0	39	0	532676608	72	6314
2026-01-08 01:17:48.86	51.61	70.85	-50.4	-54.3	18.8	6.05e-01	0	40	0	538443776	72	5623
2026-01-08 01:17:51.85	55.08	72.19	-49.8	-53.5	19.7	6.03e-01	0	40	0	544210944	71	5429
2026-01-08 01:17:54.85	59.16	73.48	-49.4	-52.9	20.2	6.05e-01	0	40	0	549453824	70	5348
2026-01-08 01:17:57.83	63.90	74.69	-49.0	-52.3	20.8	6.05e-01	0	40	0	555220992	69	5306
2026-01-08 01:18:00.82	69.47	75.79	-49.0	-52.2	20.8	6.06e-01	0	40	0	560988160	69	5230
2026-01-08 01:18:03.81	75.94	76.75	-48.6	-51.7	21.2	6.02e-01	0	39	0	566231040	69	4976
2026-01-08 01:18:06.81	83.37	77.53	-47.5	-50.5	22.3	6.07e-01	0	39	0	571998208	67	4824
2026-01-08 01:18:09.81	91.67	78.09	-47.5	-50.4	22.3	6.02e-01	0	39	0	577765376	66	5071
2026-01-08 01:18:12.80	100.56	78.38	-47.5	-50.4	22.3	6.04e-01	0	39	0	583532544	66	5084
2026-01-08 01:18:15.80	109.71	78.39	-47.8	-50.8	22.1	6.04e-01	0	39	0	588775424	66	5295
2026-01-08 01:18:18.80	118.66	78.11	-47.6	-50.7	22.1	6.05e-01	0	40	0	594542592	67	4948
2026-01-08 01:18:21.80	127.00	77.57	-48.0	-51.0	21.9	6.04e-01	0	39	0	600309760	67	5106
2026-01-08 01:18:24.79	134.46	76.80	-48.4	-51.4	21.5	6.04e-01	0	39	0	606076928	67	5397
2026-01-08 01:18:27.79	141.01	75.85	-49.3	-52.7	20.5	6.04e-01	0	39	0	611319808	69	5538
2026-01-08 01:18:30.78	146.63	74.75	-48.8	-52.1	20.9	6.06e-01	0	39	0	617086976	69	5198
2026-01-08 01:18:33.77	151.43	73.54	-48.7	-51.9	21.2	6.04e-01	0	39	0	622854144	69	5044
2026-01-08 01:18:36.76	155.52	72.25	-48.8	-51.9	21.2	6.05e-01	0	40	0	628097024	69	5088
2026-01-08 01:18:39.76	159.04	70.90	-49.4	-52.7	20.5	6.05e-01	0	39	0	633864192	69	5554
2026-01-08 01:18:42.76	162.05	69.52	-49.9	-53.4	19.9	6.04e-01	0	40	0	639631360	70	5687
2026-01-08 01:18:45.75	164.65	68.11	-49.5	-53.1	20.1	6.04e-01	0	39	0	644874240	70	5468
2026-01-08 01:18:48.73	166.90	66.70	-49.3	-52.5	20.6	6.05e-01	0	39	0	650641408	70	5154
2026-01-08 01:18:51.73	168.89	65.27	-48.9	-52.5	20.7	6.06e-01	0	39	0	656408576	69	5411
2026-01-08 01:18:54.72	170.63	63.85	-48.6	-51.6	21.6	6.03e-01	0	39	0	661651456	69	4877
2026-01-08 01:18:57.72	172.17	62.44	-48.3	-51.2	21.9	6.04e-01	0	40	0	667418624	68	4944
2026-01-08 01:19:00.71	173.55	61.04	-47.7	-50.6	22.3	6.04e-01	0	39	0	673185792	66	5197
2026-01-08 01:19:03.69	174.77	59.67	-47.3	-49.9	22.9	6.03e-01	0	39	0	678952960	66	4777
2026-01-08 01:19:06.69	175.88	58.31	-47.1	-49.7	23.1	6.06e-01	0	39	0	684195840	65	4928
2026-01-08 01:19:09.68	176.89	56.98	-47.3	-50.0	22.8	6.06e-01	0	39	0	689963008	65	5137
2026-01-08 01:19:12.68	177.80	55.66	-46.5	-49.1	23.6	6.04e-01	0	40	0	695730176	64	4879
2026-01-08 01:19:15.67	178.63	54.38	-46.1	-48.6	24.1	6.04e-01	0	39	0	700973056	63	4904
2026-01-08 01:19:18.66	179.39	53.13	-46.3	-48.7	24.0	6.03e-01	0	39	0	706740224	63	4963
2026-01-08 01:19:21.65	180.09	51.90	-46.3	-48.7	24.0	6.05e-01	0	39	0	712507392	63	4943
2026-01-08 01:19:24.65	180.73	50.69	-46.5	-48.9	23.8	6.06e-01	0	40	0	718274560	63	5079
2026-01-08 01:19:27.65	181.33	49.52	-46.9	-49.5	23.1	6.03e-01	0	39	0	723517440	64	5153
2026-01-08 01:19:30.63	181.88	48.38	-46.8	-49.4	23.2	6.07e-01	0	39	0	729284608	64	5091
2026-01-08 01:19:33.63	182.40	47.26	-46.8	-49.4	23.2	6.07e-01	0	39	0	735051776	64	5079
2026-01-08 01:19:36.63	182.88	46.17	-47.0	-49.6	23.1	6.05e-01	0	39	0	740818944	64	5183
2026-01-08 01:19:39.62	183.33	45.11	-46.9	-49.5	23.1	6.03e-01	0	39	0	746061824	64	5154
2026-01-08 01:19:42.61	183.74	44.07	-47.0	-49.7	23.0	6.04e-01	0	39	0	751828992	64	5225
2026-01-08 01:19:45.61	184.14	43.06	-47.0	-49.7	23.0	6.05e-01	0	39	0	757596160	64	5222
2026-01-08 01:19:48.60	184.51	42.08	-47.2	-49.9	22.7	6.04e-01	0	39	0	762839040	65	5095
2026-01-08 01:19:51.60	184.86	41.12	-47.4	-50.1	22.6	6.06e-01	0	39	0	768606208	65	5180
2026-01-08 01:19:54.59	185.19	40.19	-47.8	-50.7	22.1	6.04e-01	0	40	0	774373376	66	5233
2026-01-08 01:19:57.58	185.50	39.29	-47.5	-50.4	22.3	6.04e-01	0	40	0	779616256	66	5049
2026-01-08 01:20:00.58	185.80	38.40	-47.7	-50.6	22.1	6.06e-01	0	39	0	785383424	66	5185
2026-01-08 01:20:03.58	186.08	37.54	-47.8	-50.6	22.0	6.04e-01	0	40	0	791150592	66	5215
2026-01-08 01:20:06.57	186.34	36.70	-46.9	-49.6	23.0	6.03e-01	0	39	0	796393472	65	4880
2026-01-08 01:20:09.56	186.60	35.88	-46.6	-49.3	23.1	6.03e-01	0	39	0	802160640	65	4727
2026-01-08 01:20:12.56	186.84	35.09	-46.3	-48.9	23.4	6.02e-01	0	39	0	807927808	64	4788
2026-01-08 01:20:15.54	187.07	34.31	-46.2	-48.8	23.4	6.04e-01	0	39	0	813694976	64	4740
2026-01-08 01:20:18.54	187.29	33.56	-46.0	-48.5	23.7	6.03e-01	0	40	0	818937856	63	4848
2026-01-08 01:20:21.54	187.50	32.82	-45.5	-48.0	24.1	6.07e-01	0	39	0	824705024	63	4569
2026-01-08 01:20:24.52	187.70	32.10	-45.3	-47.7	24.3	6.02e-01	0	40	0	830472192	62	4673
2026-01-08 01:20:27.52	187.89	31.40	-45.4	-47.8	24.1	6.04e-01	0	39	0	835715072	62	4744
2026-01-08 01:20:30.51	188.08	30.72	-45.4	-47.8	24.1	6.03e-01	0	40	0	841482240	62	4748
2026-01-08 01:20:33.50	188.25	30.05	-45.4	-47.8	24.1	6.03e-01	0	39	0	847249408	62	4743
2026-01-08 01:20:36.50	188.43	29.40	-45.5	-48.0	24.0	6.05e-01	0	39	0	853016576	62	4836
2026-01-08 01:20:39.50	188.59	28.76	-45.5	-48.0	24.0	6.05e-01	0	40	0	858259456	62	4856
2026-01-08 01:20:42.48	188.75	28.14	-45.4	-47.9	24.0	6.07e-01	0	39	0	864026624	62	4760
2026-01-08 01:20:45.47	188.90	27.54	-45.5	-48.0	23.8	6.04e-01	0	39	0	869793792	62	4858
2026-01-08 01:20:48.47	189.05	26.94	-45.7	-48.3	23.6	6.02e-01	0	39	0	875036672	62	5007
2026-01-08 01:20:51.47	189.19	26.36	-45.8	-48.3	23.6	6.05e-01	0	39	0	880803840	62	5029
2026-01-08 01:20:54.47	189.33	25.80	-45.9	-48.4	23.5	6.04e-01	0	39	0	886571008	62	5089
2026-01-08 01:20:57.46	189.46	25.24	-46.0	-48.8	23.1	6.04e-01	0	39	0	891813888	62	5306
2026-01-08 01:21:00.46	189.59	24.70	-46.2	-48.9	23.0	6.06e-01	0	39	0	897581056	63	5070
2026-01-08 01:21:03.45	189.71	24.17	-46.3	-49.0	22.9	6.05e-01	0	39	0	903348224	63	5128
2026-01-08 01:21:06.45	189.83	23.65	-46.3	-49.0	22.9	6.04e-01	0	39	0	909115392	63	5142
2026-01-08 01:21:09.44	189.95	23.15	-46.1	-48.9	22.9	6.03e-01	0	40	0	914358272	63	5071
2026-01-08 01:21:12.44	190.06	22.65	-46.1	-48.9	22.9	6.04e-01	0	39	0	920125440	63	5046
2026-01-08 01:21:15.44	190.17	22.16	-45.9	-48.6	23.1	6.04e-01	0	39	0	925892608	63	4899
2026-01-08 01:21:18.42	190.27	21.68	-45.7	-48.4	23.2	6.03e-01	0	39	0	931659776	63	4809
2026-01-08 01:21:21.41	190.38	21.22	-45.7	-48.4	23.3	6.04e-01	0	39	0	936902656	63	4775
2026-01-08 01:21:24.42	190.48	20.76	-45.7	-48.4	23.2	6.04e-01	0	39	0	942669824	63	4808
2026-01-08 01:21:27.41	190.58	20.31	-45.7	-48.5	23.2	6.05e-01	0	40	0	948436992	63	4818
2026-01-08 01:21:30.41	190.67	19.87	-45.7	-48.4	23.2	6.04e-01	0	39	0	953679872	63	4787
2026-01-08 01:21:33.40	190.76	19.44	-45.7	-48.5	23.2	6.03e-01	0	39	0	959447040	63	4815
2026-01-08 01:21:36.40	190.85	19.01	-45.8	-48.6	23.0	6.04e-01	0	39	0	965214208	63	4917
2026-01-08 01:21:39.39	190.94	18.59	-45.6	-48.4	23.2	6.06e-01	0	40	0	970457088	63	4806
2026-01-08 01:21:42.38	191.03	18.19	-45.6	-48.4	23.2	6.04e-01	0	39	0	976224256	63	4801
2026-01-08 01:21:45.38	191.11	17.78	-45.7	-48.6	23.0	6.06e-01	0	40	0	981991424	63	4907
2026-01-08 01:21:48.39	191.19	17.39	-45.8	-48.6	22.9	6.06e-01	0	39	0	987758592	63	4900
2026-01-08 01:21:51.40	191.27	17.00	-45.8	-48.6	22.9	6.06e-01	0	39	0	993001472	63	4924
2026-01-08 01:21:54.39	191.35	16.62	-45.7	-48.6	23.0	6.04e-01	0	39	0	998768640	63	4891
2026-01-08 01:21:57.38	191.42	16.24	-45.7	-48.6	22.9	6.03e-01	0	39	0	1004535808	63	4900
2026-01-08 01:22:00.39	191.50	15.87	-45.6	-48.5	23.0	6.04e-01	0	39	0	1010302976	63	4844
2026-01-08 01:22:03.38	191.57	15.51	-45.5	-48.4	23.1	6.05e-01	0	39	0	1015545856	63	4790
2026-01-08 01:22:06.38	191.64	15.15	-45.5	-48.4	23.1	6.03e-01	0	39	0	1021313024	63	4787
2026-01-08 01:22:09.37	191.71	14.80	-45.6	-48.4	23.1	6.05e-01	0	39	0	1027080192	63	4804
2026-01-08 01:22:12.36	191.78	14.46	-45.5	-48.3	23.1	6.02e-01	0	40	0	1032323072	63	4758
2026-01-08 01:22:15.36	191.84	14.12	-45.5	-48.4	23.2	6.04e-01	0	40	0	1038090240	62	5060
2026-01-08 01:22:18.35	191.91	13.78	-45.7	-48.5	23.0	6.04e-01	0	39	0	1043857408	62	5137
2026-01-08 01:22:21.35	191.97	13.45	-45.7	-48.6	22.9	6.01e-01	0	40	0	1049624576	62	5190
2026-01-08 01:22:24.35	192.03	13.13	-45.5	-48.4	23.1	6.05e-01	0	39	0	1054867456	62	5047
2026-01-08 01:22:27.34	192.09	12.81	-45.6	-48.6	22.9	6.06e-01	0	39	0	1060634624	62	5209
2026-01-08 01:22:30.33	192.15	12.49	-45.6	-48.7	22.9	6.05e-01	0	40	0	1066401792	62	5230
2026-01-08 01:22:33.33	192.21	12.18	-45.7	-48.7	22.8	6.04e-01	0	40	0	1071644672	62	5253
2026-01-08 01:22:36.32	192.27	11.87	-45.8	-48.8	22.8	6.02e-01	0	39	0	1077411840	62	5288
2026-01-08 01:22:39.32	192.33	11.57	-45.9	-48.9	22.7	6.04e-01	0	39	0	1083179008	62	5374
2026-01-08 01:22:42.32	192.38	11.27	-45.8	-48.9	22.7	6.02e-01	0	40	0	1088421888	62	5356
2026-01-08 01:22:45.31	192.44	10.98	-45.8	-48.9	22.7	6.04e-01	0	39	0	1094189056	62	5363
2026-01-08 01:22:48.31	192.49	10.68	-45.9	-49.0	22.6	6.05e-01	0	39	0	1099956224	62	5428
2026-01-08 01:22:51.31	192.54	10.40	-45.9	-49.0	22.5	6.04e-01	0	40	0	1105723392	62	5462
2026-01-08 01:22:54.30	192.59	10.11	-46.0	-49.2	22.4	6.06e-01	0	39	0	1110966272	62	5545
2026-01-08 01:22:57.30	192.64	9.83	-46.0	-49.2	22.4	6.04e-01	0	39	0	1116733440	62	5549
2026-01-08 01:23:00.29	192.69	9.56	-46.2	-49.5	22.1	6.02e-01	0	39	0	1122500608	63	5414
2026-01-08 01:23:03.28	192.74	9.29	-46.2	-49.5	22.1	6.03e-01	0	39	0	1128267776	63	5458
2026-01-08 01:23:06.28	192.79	9.02	-46.2	-49.5	22.0	6.05e-01	0	39	0	1133510656	63	5426
2026-01-08 01:23:09.28	192.84	8.75	-52.8	-73.5	3.8	7.47e-01	0	40	104	1135083520	76	40619
2026-01-08 01:23:12.28	192.89	8.49	-53.3	-73.7	3.8	7.49e-01	0	40	104	1135083520	77	39222
2026-01-08 01:23:15.29	192.93	8.22	-53.2	-73.7	3.8	7.46e-01	0	40	104	1135083520	77	39488
2026-01-08 01:23:18.30	192.98	7.97	-53.5	-73.7	3.8	7.48e-01	0	39	104	1135083520	78	37325
2026-01-08 01:23:21.31	193.02	7.71	-53.6	-73.7	3.8	7.49e-01	0	39	104	1135083520	78	37334
2026-01-08 01:23:24.32	193.07	7.46	-53.4	-73.7	3.8	7.49e-01	0	39	104	1135083520	78	37197
2026-01-08 01:23:27.32	193.11	7.21	-53.6	-73.7	3.8	7.47e-01	0	40	104	1135083520	78	37291
2026-01-08 01:23:30.33	193.15	6.96	-52.7	-73.7	3.8	7.46e-01	0	40	104	1135083520	77	39384
2026-01-08 01:23:33.34	193.19	6.72	-52.5	-73.7	3.8	7.45e-01	0	40	104	1135083520	76	41500
2026-01-08 01:23:36.35	193.23	6.47	-52.5	-73.7	3.8	7.46e-01	0	40	104	1135083520	76	41497
2026-01-08 01:23:39.35	193.28	6.23	-52.5	-73.6	3.8	7.45e-01	0	40	104	1135083520	76	41438
2026-01-08 01:23:42.36	193.32	6.00	-52.4	-73.6	3.8	7.49e-01	0	40	104	1135083520	76	41430
2026-01-08 01:23:45.37	193.36	5.76	-52.4	-73.6	3.8	7.44e-01	0	39	104	1135083520	76	41395
2026-01-08 01:23:48.38	193.39	5.53	-52.4	-73.6	3.8	7.47e-01	0	40	104	1135083520	76	41377
2026-01-08 01:23:51.38	193.43	5.30	-52.4	-73.6	3.8	7.45e-01	0	40	104	1135083520	76	41344
2026-01-08 01:23:54.39	193.47	5.07	-52.4	-73.6	3.8	7.45e-01	0	40	104	1135083520	76	41348

#Closed at: 2026-01-08 01:23:56
#Recorded file [1135 MB]: D:/Data/31040_260108_041231.dat