passes_logs/2026/01/08/T1/T1__20260108_222808_NOAA_20_JPSS-1_rec.log

#Pass ID: 20260108_222808_NOAA 20 (JPSS-1)
#Satellite: NOAA 20 (JPSS-1)
#Configuration: NOAA 20
#almurnet v.1.7.20251203
#Start time: 2026-01-08 22:28:10

#Version: 2.0.20230620
#Station: T1
#Location: 37.570604 lon 55.790049 lat
#TLE: 1 43013U 17073A   26008.42245989  .00000120  00000+0  77990-4 0  9996
#TLE: 2 43013  98.7631 309.4315 0001737  48.7960 311.3365 14.19534455421802

#Time	Az	El	Level	Level2	SNR	BER	BlckErr	Temp	State	Recorded	gain1	gain2
2026-01-08 22:28:10.64	26.46	5.14	-48.4	-64.1	3.8	1.49e+00	0	40	0	0	68	21998
2026-01-08 22:28:13.65	26.67	5.33	-48.2	-64.0	3.8	1.49e+00	0	40	104	0	67	22881
2026-01-08 22:28:16.66	26.89	5.52	-48.2	-64.0	3.8	1.49e+00	0	40	104	0	67	22899
2026-01-08 22:28:19.68	27.12	5.72	-48.2	-64.0	3.8	1.49e+00	0	41	104	0	67	22881
2026-01-08 22:28:22.69	27.34	5.91	-48.2	-64.0	3.8	1.49e+00	0	41	104	0	67	22877
2026-01-08 22:28:25.70	27.57	6.10	-48.2	-64.0	3.8	1.49e+00	0	41	104	0	67	22816
2026-01-08 22:28:28.71	27.80	6.30	-48.2	-64.0	3.8	1.49e+00	0	41	104	0	67	22824
2026-01-08 22:28:31.73	28.03	6.50	-48.2	-64.0	3.8	1.49e+00	0	41	104	0	67	22846
2026-01-08 22:28:34.74	28.27	6.69	-48.2	-64.0	3.8	1.49e+00	0	41	104	0	67	22916
2026-01-08 22:28:37.75	28.51	6.89	-48.2	-63.9	3.8	1.49e+00	0	41	104	0	67	22665
2026-01-08 22:28:40.76	28.75	7.09	-48.2	-63.9	3.8	1.49e+00	0	41	104	0	67	22704
2026-01-08 22:28:43.78	29.00	7.29	-48.2	-63.9	3.8	1.49e+00	0	41	104	0	67	22703
2026-01-08 22:28:46.79	29.25	7.50	-48.2	-64.0	3.8	1.49e+00	0	42	104	0	67	22914
2026-01-08 22:28:49.80	29.50	7.70	-48.2	-63.9	3.8	1.49e+00	0	42	104	0	67	22664
2026-01-08 22:28:52.81	29.76	7.91	-48.2	-64.0	3.8	1.49e+00	0	42	104	0	67	22853
2026-01-08 22:28:55.83	30.02	8.11	-48.2	-63.3	3.8	1.49e+00	0	42	104	0	67	21040
2026-01-08 22:28:58.84	30.28	8.32	-48.0	-61.3	4.0	1.47e+00	0	42	104	0	67	16802
2026-01-08 22:29:01.85	30.55	8.53	-47.9	-60.2	4.2	1.38e+00	0	42	0	0	67	14852
2026-01-08 22:29:04.87	30.82	8.74	-48.0	-60.6	4.2	1.41e+00	0	42	0	0	67	15419
2026-01-08 22:29:07.88	31.09	8.95	-47.7	-58.0	5.2	7.71e-01	0	42	0	3145728	67	11450
2026-01-08 22:29:10.89	31.37	9.16	-48.4	-63.5	3.8	7.84e-01	0	42	104	8388608	67	21554
2026-01-08 22:29:13.90	31.65	9.37	-45.1	-49.2	13.7	2.44e-02	0	42	0	11534336	62	5575
2026-01-08 22:29:16.83	31.93	9.58	-44.6	-48.2	14.8	0.00e+00	0	42	0	16777216	61	5223
2026-01-08 22:29:19.98	32.23	9.81	-44.4	-48.0	15.1	0.00e+00	0	42	0	23068672	60	5417
2026-01-08 22:29:22.84	32.51	10.02	-44.4	-48.1	15.0	7.00e-07	0	42	0	28311552	60	5486
2026-01-08 22:29:26.00	32.82	10.25	-44.5	-48.1	15.0	0.00e+00	0	42	0	34603008	60	5499
2026-01-08 22:29:28.87	33.11	10.46	-44.6	-48.3	14.7	0.00e+00	0	42	0	39845888	60	5598
2026-01-08 22:29:32.10	33.44	10.69	-44.5	-48.0	15.0	0.00e+00	0	42	0	46137344	60	5464
2026-01-08 22:29:35.02	33.74	10.91	-44.6	-48.0	15.1	0.00e+00	0	42	0	51380224	60	5424
2026-01-08 22:29:38.05	34.06	11.13	-44.4	-47.8	15.3	0.00e+00	0	42	0	56623104	60	5289
2026-01-08 22:29:41.42	34.42	11.39	-44.2	-47.5	15.6	0.00e+00	0	42	0	62914560	60	5129
2026-01-08 22:29:44.20	34.72	11.60	-44.2	-47.4	15.8	0.00e+00	0	42	0	68157440	60	5044
2026-01-08 22:29:47.49	35.08	11.84	-44.1	-47.3	15.9	0.00e+00	0	42	0	74448896	60	4998
2026-01-08 22:29:50.25	35.38	12.05	-44.2	-47.4	15.8	0.00e+00	0	42	0	79691776	60	5044
2026-01-08 22:29:53.54	35.76	12.31	-44.1	-47.3	15.9	0.00e+00	0	42	0	85983232	60	4995
2026-01-08 22:29:56.27	36.07	12.52	-44.0	-47.1	16.0	0.00e+00	0	42	0	91226112	59	5215
2026-01-08 22:29:59.56	36.45	12.77	-44.0	-47.2	16.0	0.00e+00	0	43	0	97517568	59	5221
2026-01-08 22:30:02.28	36.77	12.98	-44.2	-47.4	15.7	0.00e+00	0	43	0	102760448	59	5381
2026-01-08 22:30:05.64	37.18	13.25	-44.2	-47.5	15.6	0.00e+00	0	42	0	109051904	59	5464
2026-01-08 22:30:08.37	37.51	13.46	-44.2	-47.5	15.7	0.00e+00	0	42	0	114294784	59	5414
2026-01-08 22:30:11.79	37.93	13.73	-44.1	-47.2	16.0	0.00e+00	0	42	0	120586240	59	5247
2026-01-08 22:30:14.51	38.28	13.95	-44.1	-47.1	16.1	0.00e+00	0	42	0	125829120	59	5189
2026-01-08 22:30:17.81	38.70	14.21	-44.1	-47.1	16.2	0.00e+00	0	42	0	131072000	59	5162
2026-01-08 22:30:20.66	39.07	14.44	-44.1	-47.1	16.1	0.00e+00	0	42	0	137363456	59	5211
2026-01-08 22:30:24.13	39.53	14.72	-43.9	-46.8	16.3	0.00e+00	0	43	0	143654912	59	5033
2026-01-08 22:30:26.92	39.90	14.95	-43.8	-46.7	16.5	0.00e+00	0	43	0	148897792	59	4976
2026-01-08 22:30:30.22	40.35	15.22	-44.0	-46.9	16.3	0.00e+00	0	43	0	155189248	59	5069
2026-01-08 22:30:33.25	40.77	15.47	-44.0	-47.0	16.2	0.00e+00	0	42	0	160432128	59	5116
2026-01-08 22:30:36.73	41.27	15.75	-43.9	-46.8	16.4	0.00e+00	0	42	0	166723584	59	5005
2026-01-08 22:30:39.45	41.66	15.98	-43.8	-46.7	16.5	0.00e+00	0	42	0	171966464	59	4935
2026-01-08 22:30:42.75	42.14	16.25	-43.7	-46.6	16.6	0.00e+00	0	42	0	178257920	59	4908
2026-01-08 22:30:45.76	42.58	16.50	-43.7	-46.5	16.7	0.00e+00	0	43	0	183500800	59	4840
2026-01-08 22:30:48.63	43.02	16.74	-43.6	-46.4	16.8	0.00e+00	0	43	0	188743680	59	4784
2026-01-08 22:30:51.78	43.50	17.01	-43.6	-46.5	16.7	0.00e+00	0	43	0	195035136	59	4818
2026-01-08 22:30:54.65	43.95	17.25	-43.5	-46.3	16.9	0.00e+00	0	43	0	200278016	59	4738
2026-01-08 22:30:57.89	44.46	17.53	-43.5	-46.3	17.0	0.00e+00	0	43	0	206569472	58	4992
2026-01-08 22:31:00.74	44.92	17.77	-43.4	-46.1	17.1	0.00e+00	0	43	0	211812352	58	4905
2026-01-08 22:31:04.04	45.46	18.05	-43.3	-46.0	17.3	0.00e+00	0	42	0	218103808	58	4829
2026-01-08 22:31:06.76	45.91	18.28	-43.2	-45.9	17.4	0.00e+00	0	43	0	223346688	58	4769
2026-01-08 22:31:10.06	46.47	18.56	-43.1	-45.8	17.5	0.00e+00	0	43	0	229638144	58	4712
2026-01-08 22:31:13.12	47.00	18.83	-43.2	-45.9	17.4	0.00e+00	0	43	0	234881024	58	4761
2026-01-08 22:31:16.88	47.66	19.15	-43.1	-45.7	17.5	0.00e+00	0	43	0	242221056	58	4699
2026-01-08 22:31:19.62	48.15	19.39	-43.1	-45.7	17.6	0.00e+00	0	43	0	247463936	58	4668
2026-01-08 22:31:23.38	48.83	19.71	-43.2	-45.8	17.6	0.00e+00	0	43	0	254803968	58	4721
2026-01-08 22:31:26.13	49.34	19.95	-43.0	-45.6	17.8	0.00e+00	0	43	0	260046848	58	4628
2026-01-08 22:31:29.70	50.02	20.25	-42.8	-45.3	18.0	0.00e+00	0	43	0	266338304	57	4755
2026-01-08 22:31:32.57	50.57	20.50	-42.7	-45.2	18.1	0.00e+00	0	43	0	271581184	57	4695
2026-01-08 22:31:35.72	51.18	20.77	-42.8	-45.3	18.1	0.00e+00	0	43	0	277872640	57	4721
2026-01-08 22:31:38.65	51.76	21.02	-42.9	-45.5	17.9	0.00e+00	0	43	0	283115520	57	4825
2026-01-08 22:31:41.66	52.37	21.28	-42.8	-45.4	18.0	0.00e+00	0	43	0	288358400	57	4775
2026-01-08 22:31:44.67	52.99	21.54	-42.8	-45.3	18.1	0.00e+00	0	43	0	294649856	57	4718
2026-01-08 22:31:47.74	53.63	21.80	-43.0	-45.6	17.8	0.00e+00	0	43	0	299892736	57	4882
2026-01-08 22:31:50.66	54.24	22.05	-42.9	-45.5	17.9	0.00e+00	0	42	0	305135616	57	4826
2026-01-08 22:31:53.95	54.95	22.33	-42.7	-45.2	18.2	0.00e+00	0	43	0	311427072	57	4667
2026-01-08 22:31:56.68	55.55	22.56	-42.7	-45.2	18.2	0.00e+00	0	43	0	316669952	57	4659
2026-01-08 22:31:59.97	56.28	22.84	-42.7	-45.2	18.2	0.00e+00	0	43	0	322961408	57	4671
2026-01-08 22:32:02.78	56.91	23.07	-43.0	-45.5	17.9	0.00e+00	0	43	0	328204288	57	4847
2026-01-08 22:32:06.24	57.71	23.36	-43.0	-45.5	17.9	0.00e+00	0	43	0	334495744	57	4854
2026-01-08 22:32:08.96	58.34	23.58	-43.2	-45.8	17.6	0.00e+00	0	42	0	339738624	57	5021
2026-01-08 22:32:12.25	59.12	23.85	-43.4	-46.1	17.3	0.00e+00	0	43	0	346030080	57	5173
2026-01-08 22:32:14.98	59.78	24.07	-43.6	-46.3	17.1	0.00e+00	0	43	0	351272960	57	5330
2026-01-08 22:32:18.27	60.58	24.33	-43.5	-46.2	17.3	0.00e+00	0	43	0	357564416	57	5220
2026-01-08 22:32:21.00	61.26	24.55	-43.4	-46.0	17.4	0.00e+00	0	43	0	362807296	57	5146
2026-01-08 22:32:24.27	62.08	24.80	-43.7	-46.5	17.0	0.00e+00	0	43	0	369098752	58	5115
2026-01-08 22:32:27.28	62.85	25.03	-44.0	-46.8	16.6	0.00e+00	0	43	0	374341632	58	5318
2026-01-08 22:32:30.30	63.63	25.26	-44.2	-47.1	16.4	0.00e+00	0	43	0	379584512	59	5190
2026-01-08 22:32:33.31	64.43	25.49	-44.1	-47.0	16.5	0.00e+00	0	43	0	385875968	59	5140
2026-01-08 22:32:36.60	65.30	25.73	-44.3	-47.3	16.2	0.00e+00	0	43	0	392167424	59	5317
2026-01-08 22:32:39.32	66.04	25.92	-44.6	-47.7	15.7	0.00e+00	0	43	0	396361728	59	5585
2026-01-08 22:32:42.68	66.96	26.16	-44.8	-48.0	15.6	0.00e+00	0	43	0	402653184	60	5425
2026-01-08 22:32:45.47	67.73	26.35	-44.9	-48.1	15.4	0.00e+00	0	43	0	407896064	60	5507
2026-01-08 22:32:48.75	68.66	26.57	-45.1	-48.5	15.1	0.00e+00	0	43	0	414187520	60	5735
2026-01-08 22:32:51.62	69.47	26.76	-45.1	-48.5	15.1	0.00e+00	0	43	0	419430400	61	5435
2026-01-08 22:32:54.77	70.38	26.96	-45.0	-48.3	15.2	0.00e+00	0	43	0	425721856	61	5297
2026-01-08 22:32:57.63	71.21	27.14	-45.2	-48.6	15.0	0.00e+00	0	43	0	430964736	61	5479
2026-01-08 22:33:00.95	72.19	27.34	-45.3	-48.7	14.8	7.00e-07	0	43	0	437256192	61	5592
2026-01-08 22:33:03.66	73.00	27.49	-44.9	-48.1	15.5	0.00e+00	0	43	0	442499072	61	5167
2026-01-08 22:33:07.44	74.14	27.70	-45.5	-49.0	14.5	7.00e-07	0	43	0	449839104	61	5781
2026-01-08 22:33:10.34	75.03	27.86	-46.0	-49.9	13.7	6.80e-06	0	43	0	455081984	62	6016
2026-01-08 22:33:13.63	76.04	28.02	-46.0	-50.0	13.5	1.22e-05	0	43	0	461373440	63	5788
2026-01-08 22:33:16.45	76.92	28.16	-45.8	-49.7	13.9	6.10e-06	0	43	0	466616320	63	5547
2026-01-08 22:33:19.74	77.95	28.31	-45.4	-49.1	14.5	7.00e-07	0	43	0	472907776	62	5489
2026-01-08 22:33:22.46	78.81	28.43	-45.3	-48.8	14.8	0.00e+00	0	43	0	478150656	62	5292
2026-01-08 22:33:25.79	79.88	28.56	-45.4	-49.0	14.5	0.00e+00	0	43	0	483393536	62	5458
2026-01-08 22:33:28.61	80.78	28.67	-46.0	-50.0	13.5	5.30e-06	0	43	0	489684992	62	6119
2026-01-08 22:33:31.85	81.83	28.78	-45.8	-49.9	13.7	1.52e-05	0	43	0	494927872	62	6025
2026-01-08 22:33:34.85	82.81	28.88	-45.5	-49.4	14.2	2.20e-06	0	43	0	501219328	62	5658
2026-01-08 22:33:37.86	83.79	28.96	-45.2	-48.9	14.6	0.00e+00	0	43	0	506462208	62	5380
2026-01-08 22:33:40.87	84.78	29.04	-45.2	-48.8	14.8	0.00e+00	0	43	0	511705088	62	5321
2026-01-08 22:33:43.88	85.78	29.11	-45.4	-49.0	14.6	0.00e+00	0	43	0	517996544	62	5459
2026-01-08 22:33:46.83	86.76	29.17	-45.0	-48.6	15.0	7.00e-07	0	43	0	523239424	62	5172
2026-01-08 22:33:49.98	87.81	29.22	-44.6	-47.8	15.8	0.00e+00	0	43	0	529530880	61	5018
2026-01-08 22:33:52.84	88.76	29.26	-45.4	-49.1	14.6	0.00e+00	0	43	0	534773760	61	5792
2026-01-08 22:33:56.00	89.82	29.30	-45.3	-48.8	14.7	0.00e+00	0	43	0	541065216	61	5650
2026-01-08 22:33:58.86	90.78	29.32	-44.7	-48.0	15.6	0.00e+00	0	43	0	546308096	61	5104
2026-01-08 22:34:02.02	91.84	29.33	-44.6	-47.7	15.8	0.00e+00	0	43	0	551550976	61	4981
2026-01-08 22:34:04.89	92.81	29.34	-45.0	-48.4	15.3	0.00e+00	0	43	0	556793856	61	5341
2026-01-08 22:34:08.04	93.87	29.33	-44.9	-48.4	15.2	0.00e+00	0	43	0	563085312	61	5347
2026-01-08 22:34:10.90	94.83	29.32	-44.5	-47.5	16.0	0.00e+00	0	43	0	568328192	60	5154
2026-01-08 22:34:14.05	95.89	29.29	-45.3	-48.8	14.8	0.00e+00	0	43	0	574619648	61	5596
2026-01-08 22:34:16.92	96.85	29.26	-45.8	-49.7	13.9	6.10e-06	0	43	0	579862528	62	5885
2026-01-08 22:34:20.07	97.90	29.21	-45.1	-48.6	15.0	0.00e+00	0	43	0	586153984	62	5161
2026-01-08 22:34:22.94	98.86	29.16	-45.2	-48.5	15.0	0.00e+00	0	43	0	591396864	61	5462
2026-01-08 22:34:26.10	99.91	29.10	-46.5	-50.9	12.6	7.17e-05	0	43	0	596639744	63	6407
2026-01-08 22:34:28.96	100.85	29.03	-45.9	-49.9	13.7	8.30e-06	0	43	0	602931200	63	5682
2026-01-08 22:34:32.14	101.90	28.94	-45.8	-49.6	14.0	7.00e-07	0	43	0	608174080	63	5482
2026-01-08 22:34:35.00	102.84	28.86	-45.5	-49.1	14.5	0.00e+00	0	43	0	613416960	62	5492
2026-01-08 22:34:38.16	103.87	28.76	-45.3	-48.7	14.8	0.00e+00	0	43	0	619708416	62	5265
2026-01-08 22:34:41.03	104.80	28.65	-45.7	-49.5	14.1	1.50e-06	0	43	0	624951296	62	5730
2026-01-08 22:34:44.18	105.81	28.53	-44.9	-48.2	15.3	0.00e+00	0	43	0	631242752	61	5247
2026-01-08 22:34:47.05	106.73	28.42	-44.6	-47.7	15.8	0.00e+00	0	43	0	636485632	61	4976
2026-01-08 22:34:50.20	107.72	28.28	-44.3	-47.3	16.2	0.00e+00	0	43	0	642777088	60	5034
2026-01-08 22:34:53.16	108.65	28.14	-44.4	-47.4	16.1	0.00e+00	0	43	0	648019968	60	5100
2026-01-08 22:34:56.51	109.70	27.98	-44.7	-47.9	15.7	0.00e+00	0	43	0	654311424	60	5342
2026-01-08 22:34:59.39	110.59	27.83	-44.3	-47.3	16.3	0.00e+00	0	43	0	659554304	60	5012
2026-01-08 22:35:03.19	111.74	27.63	-43.8	-46.6	16.9	0.00e+00	0	43	0	666894336	59	4903
2026-01-08 22:35:06.08	112.62	27.46	-44.3	-47.2	16.3	0.00e+00	0	43	0	672137216	59	5261
2026-01-08 22:35:09.67	113.69	27.25	-44.8	-48.1	15.5	0.00e+00	0	43	0	678428672	60	5476
2026-01-08 22:35:12.55	114.54	27.08	-44.9	-48.2	15.4	0.00e+00	0	43	0	683671552	60	5545
2026-01-08 22:35:15.70	115.45	26.88	-44.5	-47.6	16.0	0.00e+00	0	43	0	689963008	60	5165
2026-01-08 22:35:18.63	116.30	26.69	-44.3	-47.2	16.3	0.00e+00	0	43	0	695205888	60	4979
2026-01-08 22:35:22.04	117.27	26.46	-44.7	-47.8	15.7	0.00e+00	0	43	0	701497344	60	5339
2026-01-08 22:35:24.98	118.09	26.26	-44.9	-48.1	15.4	0.00e+00	0	43	0	707788800	60	5499
2026-01-08 22:35:28.27	119.00	26.03	-44.9	-48.2	15.3	0.00e+00	0	43	0	714080256	60	5588
2026-01-08 22:35:31.00	119.75	25.84	-44.5	-47.6	15.9	0.00e+00	0	43	0	718274560	60	5200
2026-01-08 22:35:34.67	120.74	25.57	-44.3	-47.2	16.4	0.00e+00	0	43	0	725614592	60	4971
2026-01-08 22:35:37.62	121.52	25.35	-43.9	-46.6	16.9	0.00e+00	0	43	0	730857472	59	4908
2026-01-08 22:35:41.36	122.50	25.07	-44.2	-47.1	16.4	0.00e+00	0	43	0	738197504	59	5215
2026-01-08 22:35:44.12	123.21	24.85	-44.0	-46.9	16.6	0.00e+00	0	43	0	743440384	59	5054
2026-01-08 22:35:47.87	124.16	24.56	-44.2	-47.1	16.3	0.00e+00	0	43	0	750780416	59	5216
2026-01-08 22:35:50.64	124.85	24.34	-43.9	-46.7	16.8	0.00e+00	0	43	0	756023296	59	4938
2026-01-08 22:35:54.64	125.83	24.02	-44.0	-46.9	16.6	0.00e+00	0	43	0	763363328	59	5050
2026-01-08 22:35:57.58	126.54	23.78	-44.2	-47.2	16.3	0.00e+00	0	43	0	768606208	59	5226
2026-01-08 22:36:00.59	127.25	23.53	-43.6	-46.4	17.1	0.00e+00	0	43	0	773849088	59	4790
2026-01-08 22:36:03.79	128.00	23.27	-45.0	-48.3	15.2	0.00e+00	0	43	0	780140544	60	5655
2026-01-08 22:36:06.66	128.66	23.03	-44.6	-47.7	15.8	0.00e+00	0	43	0	785383424	60	5262
2026-01-08 22:36:10.11	129.44	22.74	-44.7	-47.8	15.7	0.00e+00	0	43	0	791674880	60	5321
2026-01-08 22:36:12.84	130.05	22.51	-44.8	-48.1	15.4	0.00e+00	0	43	0	796917760	60	5468
2026-01-08 22:36:16.13	130.77	22.23	-43.5	-46.2	17.2	0.00e+00	0	43	0	803209216	59	4677
2026-01-08 22:36:18.86	131.35	21.99	-44.3	-47.3	16.2	0.00e+00	0	43	0	808452096	59	5287
2026-01-08 22:36:22.30	132.08	21.70	-44.3	-47.5	16.1	0.00e+00	0	43	0	814743552	60	5101
2026-01-08 22:36:25.02	132.65	21.46	-44.2	-47.2	16.3	0.00e+00	0	43	0	819986432	60	4947
2026-01-08 22:36:28.32	133.33	21.18	-45.0	-48.4	15.2	0.00e+00	0	43	0	826277888	60	5660
2026-01-08 22:36:31.05	133.88	20.94	-44.5	-47.8	15.7	0.00e+00	0	43	0	831520768	60	5284
2026-01-08 22:36:34.33	134.53	20.66	-43.7	-46.5	17.0	0.00e+00	0	43	0	837812224	59	4833
2026-01-08 22:36:37.20	135.09	20.41	-44.0	-46.9	16.5	0.00e+00	0	43	0	843055104	59	5051
2026-01-08 22:36:40.34	135.69	20.14	-43.8	-46.6	16.9	0.00e+00	0	43	0	848297984	59	4871
2026-01-08 22:36:43.29	136.24	19.88	-43.6	-46.4	17.1	0.00e+00	0	43	0	854589440	59	4764
2026-01-08 22:36:46.50	136.84	19.60	-44.0	-46.9	16.6	0.00e+00	0	43	0	859832320	59	5057
2026-01-08 22:36:49.37	137.36	19.35	-43.9	-46.7	16.7	0.00e+00	0	43	0	866123776	59	4974
2026-01-08 22:36:52.86	137.99	19.05	-43.6	-46.4	17.0	0.00e+00	0	43	0	872415232	59	4767
2026-01-08 22:36:55.58	138.47	18.81	-43.4	-46.1	17.3	0.00e+00	0	43	0	877658112	58	4902
2026-01-08 22:36:59.16	139.09	18.50	-43.1	-45.7	17.7	0.00e+00	0	43	0	883949568	58	4653
2026-01-08 22:37:02.11	139.59	18.25	-42.9	-45.5	17.9	0.00e+00	0	43	0	889192448	57	4830
2026-01-08 22:37:05.41	140.14	17.96	-43.3	-45.9	17.4	0.00e+00	0	43	0	895483904	57	5075
2026-01-08 22:37:08.13	140.59	17.73	-43.6	-46.3	17.1	0.00e+00	0	43	0	900726784	57	5306
2026-01-08 22:37:11.62	141.15	17.43	-43.8	-46.6	16.8	0.00e+00	0	43	0	907018240	58	5205
2026-01-08 22:37:14.67	141.63	17.17	-43.4	-46.1	17.2	0.00e+00	0	43	0	913309696	58	4912
2026-01-08 22:37:18.01	142.15	16.89	-43.3	-46.0	17.4	0.00e+00	0	43	0	919601152	58	4847
2026-01-08 22:37:20.73	142.57	16.66	-43.4	-46.3	17.1	0.00e+00	0	43	0	924844032	58	4992
2026-01-08 22:37:24.02	143.07	16.38	-43.7	-46.6	16.8	0.00e+00	0	43	0	931135488	58	5196
2026-01-08 22:37:26.91	143.50	16.13	-43.7	-46.6	16.7	0.00e+00	0	43	0	936378368	58	5201
2026-01-08 22:37:30.32	143.99	15.85	-44.0	-46.9	16.4	0.00e+00	0	43	0	942669824	58	5378
2026-01-08 22:37:33.03	144.38	15.62	-44.2	-47.2	16.2	0.00e+00	0	43	0	947912704	59	5224
2026-01-08 22:37:36.33	144.85	15.35	-44.3	-47.3	16.0	0.00e+00	0	43	0	954204160	59	5317
2026-01-08 22:37:39.05	145.22	15.12	-44.3	-47.3	16.0	0.00e+00	0	43	0	958398464	59	5326
2026-01-08 22:37:42.35	145.67	14.85	-44.5	-47.6	15.7	0.00e+00	0	43	0	964689920	59	5509
2026-01-08 22:37:45.07	146.04	14.63	-44.7	-47.9	15.3	0.00e+00	0	43	0	969932800	59	5709
2026-01-08 22:37:48.36	146.48	14.36	-44.8	-48.2	15.1	0.00e+00	0	43	0	976224256	60	5554
2026-01-08 22:37:51.09	146.83	14.14	-44.8	-48.3	15.0	0.00e+00	0	43	0	981467136	60	5605
2026-01-08 22:37:54.68	147.29	13.85	-44.7	-48.1	15.2	0.00e+00	0	43	0	987758592	60	5500
2026-01-08 22:37:57.54	147.65	13.62	-44.5	-47.7	15.6	0.00e+00	0	43	0	993001472	60	5245
2026-01-08 22:38:00.69	148.04	13.37	-44.5	-47.7	15.5	0.00e+00	0	43	0	999292928	60	5261
2026-01-08 22:38:03.56	148.39	13.14	-44.4	-47.7	15.6	0.00e+00	0	43	0	1004535808	60	5227
2026-01-08 22:38:06.71	148.77	12.89	-44.7	-48.1	15.1	0.00e+00	0	43	0	1010827264	60	5504
2026-01-08 22:38:09.58	149.11	12.67	-44.8	-48.3	15.0	0.00e+00	0	43	0	1016070144	60	5597
2026-01-08 22:38:12.73	149.47	12.42	-44.8	-48.2	15.0	0.00e+00	0	43	0	1022361600	60	5533
2026-01-08 22:38:15.68	149.81	12.19	-44.3	-47.5	15.7	0.00e+00	0	43	0	1027604480	60	5130
2026-01-08 22:38:19.25	150.22	11.92	-44.0	-47.2	16.0	0.00e+00	0	43	0	1033895936	60	4963
2026-01-08 22:38:22.18	150.54	11.69	-44.2	-47.4	15.8	0.00e+00	0	43	0	1039138816	60	5062
2026-01-08 22:38:25.92	150.95	11.41	-44.5	-47.8	15.4	0.00e+00	0	43	0	1046478848	60	5335
2026-01-08 22:38:29.02	151.28	11.17	-44.8	-48.2	15.0	0.00e+00	0	43	0	1052770304	60	5565
2026-01-08 22:38:32.03	151.60	10.95	-44.5	-47.8	15.3	0.00e+00	0	43	0	1058013184	60	5339
2026-01-08 22:38:35.04	151.91	10.72	-44.3	-47.5	15.5	0.00e+00	0	43	0	1063256064	60	5159
2026-01-08 22:38:38.05	152.22	10.50	-44.2	-47.4	15.7	0.00e+00	0	43	0	1069547520	60	5082
2026-01-08 22:38:41.05	152.52	10.27	-44.3	-47.6	15.5	0.00e+00	0	43	0	1074790400	60	5177
2026-01-08 22:38:44.06	152.82	10.05	-44.3	-47.8	15.3	0.00e+00	0	43	0	1081081856	60	5289
2026-01-08 22:38:47.23	153.13	9.82	-44.5	-48.1	15.0	0.00e+00	0	43	0	1086324736	60	5527
2026-01-08 22:38:51.02	153.50	9.55	-44.6	-48.2	14.8	0.00e+00	0	43	0	1093664768	60	5578
2026-01-08 22:38:53.86	153.77	9.34	-44.6	-48.2	14.8	0.00e+00	0	43	0	1098907648	60	5549
2026-01-08 22:38:57.30	154.09	9.09	-44.7	-48.4	14.7	0.00e+00	0	43	0	1105199104	60	5657
2026-01-08 22:39:00.03	154.34	8.90	-49.0	-64.3	3.8	1.49e+00	0	43	104	1109393408	68	22459
2026-01-08 22:39:03.35	154.64	8.67	-48.9	-64.8	3.8	1.49e+00	0	43	104	1109393408	69	22488
2026-01-08 22:39:06.08	154.89	8.47	-49.7	-65.0	3.8	1.49e+00	0	43	104	1109393408	70	21509
2026-01-08 22:39:09.39	155.18	8.24	-49.8	-65.0	3.8	1.49e+00	0	43	104	1109393408	70	21581
2026-01-08 22:39:12.38	155.44	8.03	-49.7	-65.0	3.8	1.49e+00	0	43	104	1109393408	70	21743
2026-01-08 22:39:15.68	155.72	7.81	-49.8	-65.1	3.8	1.49e+00	0	43	104	1109393408	70	21758
2026-01-08 22:39:18.40	155.95	7.62	-49.7	-65.0	3.8	1.49e+00	0	43	104	1109393408	70	21714
2026-01-08 22:39:21.72	156.23	7.39	-49.3	-65.0	3.8	1.49e+00	0	43	104	1109393408	70	21689
2026-01-08 22:39:24.49	156.46	7.20	-49.5	-65.0	3.8	1.49e+00	0	43	104	1109393408	70	21583
2026-01-08 22:39:27.79	156.73	6.98	-49.5	-65.0	3.8	1.49e+00	0	43	104	1109393408	70	21545
2026-01-08 22:39:30.52	156.95	6.80	-49.5	-65.0	3.8	1.49e+00	0	43	104	1109393408	70	21549
2026-01-08 22:39:33.82	157.21	6.58	-49.5	-65.0	3.8	1.49e+00	0	43	104	1109393408	70	21524
2026-01-08 22:39:36.54	157.42	6.40	-49.5	-64.9	3.8	1.49e+00	0	43	104	1109393408	70	21479
2026-01-08 22:39:39.84	157.68	6.18	-49.4	-64.9	3.8	1.49e+00	0	43	104	1109393408	70	21503
2026-01-08 22:39:42.57	157.88	6.00	-49.4	-64.9	3.8	1.49e+00	0	43	104	1109393408	70	21493
2026-01-08 22:39:45.87	158.13	5.79	-49.5	-65.0	3.8	1.49e+00	0	43	104	1109393408	70	21550
2026-01-08 22:39:48.59	158.33	5.61	-49.4	-64.9	3.8	1.49e+00	0	43	104	1109393408	70	21453
2026-01-08 22:39:51.89	158.58	5.40	-49.4	-64.9	3.8	1.49e+00	0	43	104	1109393408	70	21474
2026-01-08 22:39:54.62	158.77	5.22	-49.5	-64.9	3.8	1.49e+00	0	43	104	1109393408	70	21392
2026-01-08 22:39:57.92	159.01	5.01	-49.4	-64.9	3.8	1.49e+00	0	43	104	1109393408	70	21423

#Closed at: 2026-01-08 22:39:59
#Recorded file [1109 MB]: D:/Data/31040_260109_012810.dat