passes_logs/2026/01/08/T1/T1__20260108_123735_FENGYUN_3D_rec.log

#Pass ID: 20260108_123735_FENGYUN 3D
#Satellite: FENGYUN 3D
#Configuration: FENGYUN 3D
#almurnet v.1.7.20251203
#Start time: 2026-01-08 12:37:37

#Version: 2.0.20230620
#Station: T1
#Location: 37.570604 lon 55.790049 lat
#TLE: 1 43010U 17072A   26006.26440730  .00000376  00000+0  19957-3 0  9994
#TLE: 2 43010  98.9925 337.9455 0002045 123.9195 236.2175 14.19693586422016

#Time	Az	El	Level	Level2	SNR	BER	BlckErr	Temp	State	Recorded	gain1	gain2
2026-01-08 12:37:37.04	181.30	5.10	-49.1	-61.8	3.8	8.47e-01	0	38	0	0	70	14952
2026-01-08 12:37:40.05	181.42	5.31	-49.1	-61.8	3.8	8.47e-01	0	39	104	0	69	15798
2026-01-08 12:37:43.07	181.54	5.53	-49.1	-62.0	3.8	8.47e-01	0	38	104	0	69	16187
2026-01-08 12:37:46.08	181.66	5.74	-49.2	-62.0	3.8	8.47e-01	0	39	104	0	69	16302
2026-01-08 12:37:49.09	181.78	5.95	-49.1	-61.8	3.8	8.47e-01	0	39	104	0	69	15908
2026-01-08 12:37:52.11	181.91	6.17	-49.1	-62.0	3.8	8.47e-01	0	39	104	0	69	16172
2026-01-08 12:37:55.56	182.06	6.42	-49.0	-61.5	3.8	8.47e-01	0	39	104	0	69	15240
2026-01-08 12:37:58.29	182.17	6.62	-48.9	-59.7	3.8	8.45e-01	0	39	104	0	69	12442
2026-01-08 12:38:01.62	182.32	6.87	-48.8	-59.0	4.0	8.41e-01	0	39	0	0	69	11528
2026-01-08 12:38:04.35	182.44	7.07	-49.0	-61.0	3.8	8.48e-01	0	39	104	0	69	14400
2026-01-08 12:38:07.79	182.59	7.33	-47.5	-53.7	6.9	3.30e-01	0	39	0	3145728	67	6970
2026-01-08 12:38:10.52	182.72	7.54	-44.7	-48.1	12.6	2.86e-04	0	39	0	18874368	61	5189
2026-01-08 12:38:13.82	182.87	7.79	-42.1	-44.6	16.0	0.00e+00	0	39	0	36700160	56	4625
2026-01-08 12:38:16.54	183.00	8.00	-41.2	-43.5	16.9	0.00e+00	0	39	0	52428800	54	4586
2026-01-08 12:38:19.85	183.15	8.26	-41.9	-44.4	16.0	0.00e+00	0	40	0	71303168	54	5068
2026-01-08 12:38:22.57	183.29	8.47	-43.8	-46.8	13.9	1.10e-06	0	39	0	85983232	58	5320
2026-01-08 12:38:25.87	183.45	8.74	-46.2	-50.6	10.0	4.89e-03	0	40	0	104857600	63	6167
2026-01-08 12:38:28.59	183.58	8.95	-47.6	-54.1	6.5	2.06e-01	0	40	0	120586240	65	8178
2026-01-08 12:38:31.89	183.75	9.22	-45.5	-49.2	11.4	6.80e-02	0	40	0	131072000	63	5266
2026-01-08 12:38:34.71	183.89	9.45	-44.6	-47.9	12.8	7.79e-03	0	40	0	141557760	61	5089
2026-01-08 12:38:37.86	184.06	9.71	-43.6	-46.4	14.3	1.60e-05	0	39	0	159383552	59	4760
2026-01-08 12:38:40.72	184.21	9.95	-43.6	-46.4	14.3	1.10e-06	0	40	0	175112192	58	5050
2026-01-08 12:38:44.24	184.40	10.24	-44.1	-47.0	13.7	1.71e-05	0	40	0	195035136	59	5151
2026-01-08 12:38:46.96	184.55	10.47	-41.2	-43.5	17.0	0.00e+00	0	40	0	210763776	54	4575
2026-01-08 12:38:50.26	184.73	10.75	-39.9	-42.0	18.4	0.00e+00	0	40	0	228589568	51	4581
2026-01-08 12:38:52.98	184.89	10.99	-39.8	-41.8	18.5	0.00e+00	0	40	0	244318208	51	4493
2026-01-08 12:38:56.26	185.08	11.27	-39.9	-41.9	18.2	0.00e+00	0	40	0	262144000	51	4531
2026-01-08 12:38:59.52	185.27	11.56	-39.9	-41.9	18.4	0.00e+00	0	40	0	281018368	51	4545
2026-01-08 12:39:02.38	185.44	11.82	-39.8	-41.9	18.5	0.00e+00	0	40	0	296747008	51	4494
2026-01-08 12:39:05.54	185.63	12.10	-39.6	-41.7	18.7	0.00e+00	0	40	0	314572800	51	4394
2026-01-08 12:39:08.40	185.81	12.36	-39.5	-41.5	18.8	0.00e+00	0	40	0	331350016	50	4552
2026-01-08 12:39:11.56	186.01	12.65	-39.4	-41.4	18.9	0.00e+00	0	40	0	349175808	50	4510
2026-01-08 12:39:14.42	186.19	12.91	-39.3	-41.3	19.0	0.00e+00	0	40	0	364904448	50	4464
2026-01-08 12:39:17.58	186.40	13.21	-39.4	-41.3	19.0	0.00e+00	0	40	0	382730240	50	4480
2026-01-08 12:39:20.95	186.62	13.53	-39.2	-41.2	19.2	0.00e+00	0	40	0	401604608	50	4421
2026-01-08 12:39:23.92	186.83	13.81	-39.2	-41.1	19.3	0.00e+00	0	40	0	418381824	50	4378
2026-01-08 12:39:27.08	187.05	14.12	-39.2	-41.2	19.2	0.00e+00	0	40	0	436207616	50	4414
2026-01-08 12:39:30.14	187.26	14.42	-38.8	-40.8	19.5	0.00e+00	0	40	0	452984832	49	4444
2026-01-08 12:39:33.51	187.50	14.76	-38.7	-40.7	19.7	0.00e+00	0	40	0	471859200	49	4392
2026-01-08 12:39:36.24	187.71	15.03	-38.8	-40.7	19.6	0.00e+00	0	40	0	487587840	49	4440
2026-01-08 12:39:39.98	187.99	15.41	-38.8	-40.7	19.6	0.00e+00	0	40	0	508559360	49	4439
2026-01-08 12:39:42.72	188.20	15.69	-38.6	-40.5	19.8	0.00e+00	0	40	0	524288000	49	4335
2026-01-08 12:39:46.30	188.48	16.06	-38.5	-40.4	20.0	0.00e+00	0	40	0	544210944	48	4494
2026-01-08 12:39:49.35	188.72	16.38	-38.3	-40.2	20.1	0.00e+00	0	40	0	560988160	48	4418
2026-01-08 12:39:52.83	189.01	16.76	-38.3	-40.2	20.1	0.00e+00	0	40	0	580911104	48	4426
2026-01-08 12:39:55.56	189.23	17.05	-38.4	-40.3	20.0	0.00e+00	0	40	0	596639744	48	4480
2026-01-08 12:39:58.85	189.51	17.41	-38.1	-40.0	20.3	0.00e+00	0	40	0	614465536	48	4319
2026-01-08 12:40:01.67	189.76	17.72	-37.8	-39.7	20.4	0.00e+00	0	40	0	630194176	47	4408
2026-01-08 12:40:05.20	190.08	18.12	-37.6	-39.5	20.5	0.00e+00	0	40	0	650117120	47	4296
2026-01-08 12:40:07.92	190.32	18.43	-37.6	-39.4	20.6	0.00e+00	0	40	0	665845760	47	4273
2026-01-08 12:40:11.25	190.63	18.81	-37.8	-39.7	20.4	0.00e+00	0	40	0	684720128	47	4401
2026-01-08 12:40:14.06	190.90	19.13	-37.8	-39.7	20.3	0.00e+00	0	40	0	700448768	47	4427
2026-01-08 12:40:17.59	191.25	19.55	-37.9	-39.7	20.3	0.00e+00	0	40	0	720371712	47	4435
2026-01-08 12:40:20.36	191.52	19.88	-37.8	-39.6	20.4	0.00e+00	0	40	0	736100352	47	4377
2026-01-08 12:40:23.66	191.86	20.28	-37.5	-39.4	20.6	0.00e+00	0	40	0	753926144	47	4266
2026-01-08 12:40:26.57	192.16	20.64	-37.5	-39.3	20.7	0.00e+00	0	40	0	770703360	46	4469
2026-01-08 12:40:29.96	192.53	21.06	-37.1	-38.9	21.1	0.00e+00	0	40	0	789577728	46	4271
2026-01-08 12:40:32.72	192.83	21.40	-37.2	-39.0	21.0	0.00e+00	0	40	0	805306368	46	4329
2026-01-08 12:40:36.01	193.20	21.82	-37.1	-38.8	21.1	0.00e+00	0	40	0	824180736	46	4242
2026-01-08 12:40:39.05	193.55	22.21	-37.1	-38.9	21.1	0.00e+00	0	40	0	840957952	45	4514
2026-01-08 12:40:42.73	193.99	22.69	-37.1	-38.9	21.0	0.00e+00	0	40	0	861929472	45	4538
2026-01-08 12:40:45.47	194.32	23.06	-37.0	-38.8	21.1	0.00e+00	0	40	0	876609536	45	4472
2026-01-08 12:40:49.24	194.79	23.56	-37.0	-38.8	21.1	0.00e+00	0	40	0	897581056	45	4475
2026-01-08 12:40:51.99	195.15	23.94	-36.9	-38.7	21.3	0.00e+00	0	40	0	913309696	45	4398
2026-01-08 12:40:55.74	195.64	24.45	-36.7	-38.4	21.5	0.00e+00	0	40	0	934281216	45	4283
2026-01-08 12:40:58.63	196.03	24.86	-36.9	-38.7	21.2	0.00e+00	0	40	0	951058432	45	4423
2026-01-08 12:41:02.36	196.56	25.39	-36.9	-38.6	21.3	0.00e+00	0	40	0	972029952	45	4384
2026-01-08 12:41:05.10	196.95	25.78	-36.7	-38.5	21.4	0.00e+00	0	40	0	987758592	45	4303
2026-01-08 12:41:09.03	197.53	26.35	-36.6	-38.4	21.5	0.00e+00	0	40	0	1009778688	45	4246
2026-01-08 12:41:12.11	198.00	26.81	-36.5	-38.3	21.5	0.00e+00	0	40	0	1026555904	45	4218
2026-01-08 12:41:15.87	198.60	27.37	-36.6	-38.4	21.5	0.00e+00	0	40	0	1047527424	45	4257
2026-01-08 12:41:18.62	199.04	27.79	-36.5	-38.2	21.6	0.00e+00	0	40	0	1063256064	45	4189
2026-01-08 12:41:22.51	199.70	28.39	-36.3	-38.0	21.8	0.00e+00	0	40	0	1085276160	44	4327
2026-01-08 12:41:25.23	200.17	28.81	-36.4	-38.1	21.7	0.00e+00	0	40	0	1101004800	44	4373
2026-01-08 12:41:28.99	200.84	29.41	-36.6	-38.4	21.5	0.00e+00	0	40	0	1121976320	44	4498
2026-01-08 12:41:31.90	201.37	29.87	-36.5	-38.2	21.6	0.00e+00	0	40	0	1137704960	44	4435
2026-01-08 12:41:35.64	202.08	30.47	-36.4	-38.1	21.7	0.00e+00	0	40	0	1158676480	44	4365
2026-01-08 12:41:38.56	202.66	30.95	-36.2	-37.9	21.9	0.00e+00	0	40	0	1175453696	44	4276
2026-01-08 12:41:41.57	203.27	31.45	-36.3	-38.1	21.8	0.00e+00	0	40	0	1192230912	44	4352
2026-01-08 12:41:44.58	203.90	31.95	-36.2	-37.9	21.9	0.00e+00	0	40	0	1209008128	44	4279
2026-01-08 12:41:47.84	204.60	32.50	-36.1	-37.9	21.9	0.00e+00	0	40	0	1227882496	44	4244
2026-01-08 12:41:50.64	205.22	32.97	-36.1	-37.9	21.9	0.00e+00	0	40	0	1243611136	44	4248
2026-01-08 12:41:53.79	205.94	33.51	-36.2	-38.0	21.9	0.00e+00	0	40	0	1261436928	44	4301
2026-01-08 12:41:56.65	206.62	34.01	-36.3	-38.0	21.7	0.00e+00	0	40	0	1277165568	44	4339
2026-01-08 12:42:00.00	207.43	34.59	-35.7	-37.4	22.1	0.00e+00	0	40	0	1296039936	43	4267
2026-01-08 12:42:02.72	208.12	35.07	-35.6	-37.4	22.2	0.00e+00	0	40	0	1311768576	43	4243
2026-01-08 12:42:06.01	208.98	35.65	-35.8	-37.6	22.0	0.00e+00	0	40	0	1329594368	43	4341
2026-01-08 12:42:08.74	209.71	36.13	-35.8	-37.5	22.0	0.00e+00	0	40	0	1345323008	43	4336
2026-01-08 12:42:12.05	210.63	36.72	-35.7	-37.4	22.2	0.00e+00	0	40	0	1364197376	43	4289
2026-01-08 12:42:14.77	211.41	37.21	-35.7	-37.4	22.2	0.00e+00	0	40	0	1378877440	43	4280
2026-01-08 12:42:18.29	212.45	37.84	-35.6	-37.4	22.2	0.00e+00	0	40	0	1398800384	43	4244
2026-01-08 12:42:21.01	213.28	38.33	-35.6	-37.3	22.3	0.00e+00	0	40	0	1414529024	43	4235
2026-01-08 12:42:24.31	214.33	38.92	-35.7	-37.4	22.2	0.00e+00	0	40	0	1433403392	43	4257
2026-01-08 12:42:27.12	215.25	39.42	-35.8	-37.6	22.1	0.00e+00	0	40	0	1449132032	43	4345
2026-01-08 12:42:30.27	216.32	39.99	-35.7	-37.4	22.2	0.00e+00	0	40	0	1465909248	43	4277
2026-01-08 12:42:33.13	217.31	40.50	-35.9	-37.7	22.0	0.00e+00	0	40	0	1482686464	43	4399
2026-01-08 12:42:36.41	218.50	41.08	-36.0	-37.7	22.0	0.00e+00	0	40	0	1500512256	43	4433
2026-01-08 12:42:39.38	219.61	41.60	-35.6	-37.3	22.3	0.00e+00	0	40	0	1517289472	43	4225
2026-01-08 12:42:42.75	220.91	42.19	-36.2	-37.9	21.8	0.00e+00	0	40	0	1537212416	43	4535
2026-01-08 12:42:45.47	222.00	42.66	-35.8	-37.4	22.2	0.00e+00	0	40	0	1551892480	43	4287
2026-01-08 12:42:48.77	223.36	43.22	-36.1	-37.8	21.8	0.00e+00	0	40	0	1570766848	43	4488
2026-01-08 12:42:51.48	224.51	43.67	-36.1	-37.9	21.8	0.00e+00	0	40	0	1585446912	43	4507
2026-01-08 12:42:55.12	226.11	44.26	-36.0	-37.7	22.0	0.00e+00	0	40	0	1606418432	43	4428
2026-01-08 12:42:57.84	227.34	44.70	-36.2	-38.0	21.8	0.00e+00	0	40	0	1621098496	43	4559
2026-01-08 12:43:01.18	228.90	45.22	-36.2	-37.9	21.8	0.00e+00	0	40	0	1639972864	43	4544
2026-01-08 12:43:04.06	230.28	45.65	-36.1	-37.8	21.9	0.00e+00	0	40	0	1656750080	43	4493
2026-01-08 12:43:07.53	232.00	46.16	-36.2	-38.0	21.8	0.00e+00	0	40	0	1675624448	43	4567
2026-01-08 12:43:10.26	233.39	46.54	-36.3	-38.0	21.8	0.00e+00	0	40	0	1691353088	43	4555
2026-01-08 12:43:13.55	235.11	46.98	-36.1	-37.8	22.0	0.00e+00	0	40	0	1710227456	43	4479
2026-01-08 12:43:16.28	236.57	47.32	-36.0	-37.7	22.1	0.00e+00	0	40	0	1724907520	43	4417
2026-01-08 12:43:19.57	238.38	47.72	-36.1	-37.8	21.9	0.00e+00	0	40	0	1743781888	43	4481
2026-01-08 12:43:22.58	240.07	48.05	-36.4	-38.1	21.8	0.00e+00	0	40	0	1760559104	43	4624
2026-01-08 12:43:25.59	241.79	48.37	-36.0	-37.7	22.0	0.00e+00	0	40	0	1777336320	43	4436
2026-01-08 12:43:28.54	243.52	48.65	-36.1	-37.8	22.0	0.00e+00	0	40	0	1794113536	43	4455
2026-01-08 12:43:31.64	245.36	48.91	-36.1	-37.7	22.0	0.00e+00	0	40	0	1811939328	43	4438
2026-01-08 12:43:34.88	247.32	49.16	-36.1	-37.9	21.9	0.00e+00	0	40	0	1829765120	43	4499
2026-01-08 12:43:37.75	249.07	49.35	-36.2	-37.9	21.9	0.00e+00	0	40	0	1846542336	43	4511
2026-01-08 12:43:40.90	251.03	49.52	-36.2	-38.0	21.8	0.00e+00	0	40	0	1863319552	43	4556
2026-01-08 12:43:43.77	252.82	49.65	-36.2	-37.9	21.9	0.00e+00	0	40	0	1880096768	43	4529
2026-01-08 12:43:47.10	254.92	49.76	-36.6	-38.3	21.5	0.00e+00	0	40	0	1898971136	43	4756
2026-01-08 12:43:49.82	256.65	49.83	-36.4	-38.1	21.7	0.00e+00	0	40	0	1913651200	43	4638
2026-01-08 12:43:53.12	258.75	49.87	-36.0	-37.7	22.0	0.00e+00	0	40	0	1932525568	43	4435
2026-01-08 12:43:55.90	260.52	49.87	-36.4	-38.2	21.7	0.00e+00	0	40	0	1948254208	43	4660
2026-01-08 12:43:59.17	262.60	49.83	-36.3	-38.0	21.9	0.00e+00	0	40	0	1966080000	44	4331
2026-01-08 12:44:02.03	264.42	49.77	-36.4	-38.1	21.9	0.00e+00	0	40	0	1982857216	44	4373
2026-01-08 12:44:05.22	266.43	49.67	-36.2	-37.9	22.0	0.00e+00	0	40	0	2000683008	44	4277
2026-01-08 12:44:08.37	268.40	49.53	-36.5	-38.2	21.8	0.00e+00	0	40	0	2018508800	44	4423
2026-01-08 12:44:11.24	270.18	49.37	-36.2	-37.9	22.0	0.00e+00	0	40	0	2034237440	44	4270
2026-01-08 12:44:14.44	272.14	49.17	-36.5	-38.2	21.7	0.00e+00	0	40	0	2052063232	44	4434
2026-01-08 12:44:17.31	273.88	48.95	-36.4	-38.1	21.9	0.00e+00	0	40	0	2068840448	44	4378
2026-01-08 12:44:20.46	275.75	48.69	-36.0	-37.7	22.2	0.00e+00	0	40	0	2086666240	44	4167
2026-01-08 12:44:23.33	277.43	48.42	-36.1	-37.9	22.0	0.00e+00	0	40	0	2102394880	44	4251
2026-01-08 12:44:26.49	279.24	48.09	-36.6	-38.4	21.6	0.00e+00	0	40	0	2120220672	44	4510
2026-01-08 12:44:29.35	280.85	47.78	-36.5	-38.2	21.8	0.00e+00	0	40	0	2135949312	44	4432
2026-01-08 12:44:32.85	282.77	47.37	-36.4	-38.1	21.9	0.00e+00	0	40	0	2155872256	44	4379
2026-01-08 12:44:35.57	284.23	47.02	-36.3	-37.9	22.4	0.00e+00	0	40	0	2171600896	44	4286
2026-01-08 12:44:38.87	285.96	46.59	-36.5	-38.2	22.2	0.00e+00	0	40	0	2189426688	44	4398
2026-01-08 12:44:41.64	287.37	46.20	-36.4	-38.1	22.2	0.00e+00	0	40	0	2205155328	44	4356
2026-01-08 12:44:45.41	289.23	45.66	-36.6	-38.3	22.1	0.00e+00	0	40	0	2226126848	44	4443
2026-01-08 12:44:48.16	290.55	45.24	-36.5	-38.1	22.2	0.00e+00	0	40	0	2241855488	44	4378
2026-01-08 12:44:51.91	292.30	44.66	-36.5	-38.1	22.2	0.00e+00	0	40	0	2262827008	44	4391
2026-01-08 12:44:54.65	293.53	44.22	-36.9	-38.6	21.8	0.00e+00	0	40	0	2278555648	44	4645
2026-01-08 12:44:58.69	295.29	43.56	-36.4	-38.0	22.3	0.00e+00	0	40	0	2301624320	44	4328
2026-01-08 12:45:01.46	296.46	43.10	-36.6	-38.3	22.1	0.00e+00	0	40	0	2317352960	44	4472
2026-01-08 12:45:05.47	298.09	42.42	-36.3	-38.0	22.3	0.00e+00	0	40	0	2339373056	44	4309
2026-01-08 12:45:08.57	299.30	41.88	-36.3	-38.0	22.3	0.00e+00	0	40	0	2357198848	44	4315
2026-01-08 12:45:11.58	300.44	41.36	-36.3	-37.9	22.4	0.00e+00	0	40	0	2373976064	44	4281
2026-01-08 12:45:14.75	301.60	40.80	-36.1	-37.7	22.5	0.00e+00	0	40	0	2391801856	44	4187
2026-01-08 12:45:17.64	302.63	40.29	-36.2	-37.8	22.5	0.00e+00	0	40	0	2407530496	44	4240
2026-01-08 12:45:21.11	303.82	39.68	-35.7	-37.3	22.7	0.00e+00	0	40	0	2427453440	43	4218
2026-01-08 12:45:23.84	304.72	39.19	-35.7	-37.3	22.7	0.00e+00	0	40	0	2442133504	43	4211
2026-01-08 12:45:27.13	305.77	38.60	-35.5	-37.2	22.8	0.00e+00	0	40	0	2461007872	43	4156
2026-01-08 12:45:30.21	306.73	38.05	-35.5	-37.1	22.9	0.00e+00	0	40	0	2478833664	42	4390
2026-01-08 12:45:33.45	307.70	37.47	-35.9	-37.5	22.6	0.00e+00	0	40	0	2496659456	42	4580
2026-01-08 12:45:36.37	308.54	36.95	-35.8	-37.4	22.6	0.00e+00	0	40	0	2513436672	42	4541
2026-01-08 12:45:39.39	309.39	36.42	-35.7	-37.3	22.7	0.00e+00	0	40	0	2530213888	42	4458
2026-01-08 12:45:42.40	310.21	35.89	-35.8	-37.4	22.7	0.00e+00	0	40	0	2546991104	42	4516
2026-01-08 12:45:45.41	311.00	35.36	-35.9	-37.6	22.5	0.00e+00	0	40	0	2563768320	42	4623
2026-01-08 12:45:48.48	311.78	34.82	-35.8	-37.4	22.7	0.00e+00	0	40	0	2581594112	42	4523
2026-01-08 12:45:51.44	312.51	34.31	-36.0	-37.6	22.4	0.00e+00	0	40	0	2598371328	42	4640
2026-01-08 12:45:54.59	313.26	33.76	-35.8	-37.4	22.7	0.00e+00	0	40	0	2615148544	42	4515
2026-01-08 12:45:57.64	313.97	33.24	-35.8	-37.5	22.6	0.00e+00	0	40	0	2632974336	42	4572
2026-01-08 12:46:00.74	314.66	32.72	-36.1	-37.8	22.3	0.00e+00	0	40	0	2649751552	42	4725
2026-01-08 12:46:03.84	315.34	32.20	-36.2	-37.8	22.3	0.00e+00	0	40	0	2667577344	43	4490
2026-01-08 12:46:06.98	316.00	31.68	-36.2	-37.9	22.3	0.00e+00	0	40	0	2685403136	43	4520
2026-01-08 12:46:09.84	316.58	31.20	-36.2	-37.9	22.3	0.00e+00	0	40	0	2701131776	43	4506
2026-01-08 12:46:13.00	317.21	30.69	-36.1	-37.8	22.4	0.00e+00	0	40	0	2718957568	43	4443
2026-01-08 12:46:15.96	317.78	30.21	-36.1	-37.8	22.3	0.00e+00	0	40	0	2735734784	43	4458
2026-01-08 12:46:19.10	318.37	29.71	-36.1	-37.8	22.4	0.00e+00	0	40	0	2753560576	43	4452
2026-01-08 12:46:22.16	318.92	29.23	-36.4	-38.1	22.1	0.00e+00	0	40	0	2770337792	43	4617
2026-01-08 12:46:25.53	319.51	28.70	-36.4	-38.1	22.1	0.00e+00	0	40	0	2789212160	43	4614
2026-01-08 12:46:28.26	319.98	28.28	-36.3	-38.0	22.1	0.00e+00	0	40	0	2804940800	43	4592
2026-01-08 12:46:31.82	320.57	27.74	-36.1	-37.7	22.4	0.00e+00	0	40	0	2824863744	43	4419
2026-01-08 12:46:34.54	321.01	27.33	-35.9	-37.6	22.5	0.00e+00	0	40	0	2840592384	43	4354
2026-01-08 12:46:37.84	321.53	26.84	-36.1	-37.8	22.3	0.00e+00	0	40	0	2858418176	43	4452
2026-01-08 12:46:40.85	321.99	26.40	-36.3	-38.0	22.1	0.00e+00	0	40	0	2876243968	43	4587
2026-01-08 12:46:44.15	322.47	25.92	-36.4	-38.1	22.1	0.00e+00	0	40	0	2894069760	43	4637
2026-01-08 12:46:46.98	322.88	25.51	-36.4	-38.0	22.1	0.00e+00	0	40	0	2910846976	43	4598
2026-01-08 12:46:50.26	323.34	25.05	-36.3	-37.9	22.2	0.00e+00	0	40	0	2928672768	43	4541
2026-01-08 12:46:53.27	323.75	24.63	-36.3	-38.0	22.1	0.00e+00	0	40	0	2945449984	43	4567
2026-01-08 12:46:56.26	324.15	24.22	-36.6	-38.3	21.9	0.00e+00	0	40	0	2962227200	43	4723
2026-01-08 12:46:59.26	324.54	23.81	-37.0	-38.7	21.7	0.00e+00	0	40	0	2979004416	44	4669
2026-01-08 12:47:02.27	324.92	23.41	-37.0	-38.8	21.6	0.00e+00	0	40	0	2996830208	44	4706
2026-01-08 12:47:05.56	325.33	22.97	-37.1	-38.8	21.6	0.00e+00	0	40	0	3014656000	44	4727
2026-01-08 12:47:08.49	325.68	22.59	-37.0	-38.8	21.6	0.00e+00	0	40	0	3031433216	44	4720
2026-01-08 12:47:11.79	326.07	22.16	-37.1	-38.9	21.5	0.00e+00	0	40	0	3050307584	45	4511
2026-01-08 12:47:14.55	326.39	21.81	-37.2	-39.0	21.4	0.00e+00	0	40	0	3066036224	45	4565
2026-01-08 12:47:17.85	326.76	21.39	-37.4	-39.1	21.3	0.00e+00	0	40	0	3083862016	45	4635
2026-01-08 12:47:21.26	327.13	20.97	-37.4	-39.1	21.3	0.00e+00	0	40	0	3103784960	45	4626
2026-01-08 12:47:24.12	327.43	20.62	-37.5	-39.2	21.3	0.00e+00	0	40	0	3119513600	45	4658
2026-01-08 12:47:27.40	327.77	20.22	-37.4	-39.2	21.3	0.00e+00	0	40	0	3137339392	45	4661
2026-01-08 12:47:30.27	328.06	19.88	-37.7	-39.4	21.1	0.00e+00	0	40	0	3154116608	45	4791
2026-01-08 12:47:33.62	328.40	19.49	-37.9	-39.8	20.8	0.00e+00	0	40	0	3172990976	46	4708
2026-01-08 12:47:36.33	328.66	19.17	-38.0	-39.9	20.7	0.00e+00	0	40	0	3188719616	46	4781
2026-01-08 12:47:39.63	328.97	18.79	-38.0	-39.9	20.6	0.00e+00	0	40	0	3206545408	46	4767
2026-01-08 12:47:42.55	329.25	18.46	-38.0	-39.8	20.7	0.00e+00	0	40	0	3223322624	46	4743
2026-01-08 12:47:45.56	329.52	18.12	-38.0	-39.8	20.7	0.00e+00	0	40	0	3240099840	46	4735
2026-01-08 12:47:48.57	329.79	17.79	-38.1	-39.9	20.6	0.00e+00	0	40	0	3256877056	46	4774
2026-01-08 12:47:51.58	330.05	17.46	-38.2	-39.9	20.6	0.00e+00	0	40	0	3273654272	47	4524
2026-01-08 12:47:54.59	330.31	17.13	-38.4	-40.2	20.4	0.00e+00	0	40	0	3290431488	47	4662
2026-01-08 12:47:57.60	330.56	16.81	-38.6	-40.4	20.2	0.00e+00	0	40	0	3307208704	47	4767
2026-01-08 12:48:01.01	330.84	16.45	-38.7	-40.5	20.2	0.00e+00	0	40	0	3327131648	48	4588
2026-01-08 12:48:03.73	331.06	16.16	-38.9	-40.7	20.1	0.00e+00	0	40	0	3341811712	48	4691
2026-01-08 12:48:07.12	331.32	15.81	-38.9	-40.7	20.1	0.00e+00	0	40	0	3360686080	48	4694
2026-01-08 12:48:09.84	331.53	15.53	-38.9	-40.8	20.0	0.00e+00	0	40	0	3376414720	48	4707
2026-01-08 12:48:13.53	331.81	15.16	-38.9	-40.7	20.0	0.00e+00	0	40	0	3397386240	48	4698
2026-01-08 12:48:16.26	332.02	14.89	-39.2	-41.0	19.8	0.00e+00	0	40	0	3413114880	48	4854
2026-01-08 12:48:19.56	332.25	14.56	-39.2	-41.0	19.7	0.00e+00	0	40	0	3430940672	49	4592
2026-01-08 12:48:22.34	332.45	14.29	-39.4	-41.3	19.5	0.00e+00	0	40	0	3446669312	49	4726
2026-01-08 12:48:25.64	332.68	13.97	-39.3	-41.2	19.6	0.00e+00	0	40	0	3465543680	49	4694
2026-01-08 12:48:28.37	332.87	13.71	-39.3	-41.2	19.5	0.00e+00	0	40	0	3480223744	49	4695
2026-01-08 12:48:31.61	333.09	13.41	-39.4	-41.3	19.5	0.00e+00	0	40	0	3499098112	49	4726
2026-01-08 12:48:34.88	333.31	13.10	-39.5	-41.3	19.4	0.00e+00	0	40	0	3517972480	49	4758
2026-01-08 12:48:38.23	333.52	12.79	-39.4	-41.3	19.5	0.00e+00	0	40	0	3536846848	49	4707
2026-01-08 12:48:41.43	333.73	12.50	-39.5	-41.4	19.3	0.00e+00	0	40	0	3554672640	49	4794
2026-01-08 12:48:44.30	333.91	12.24	-39.8	-41.7	19.0	0.00e+00	0	40	0	3570401280	50	4697
2026-01-08 12:48:47.48	334.10	11.96	-39.8	-41.8	19.0	0.00e+00	0	40	0	3588227072	50	4710
2026-01-08 12:48:50.35	334.28	11.70	-39.9	-41.9	18.9	0.00e+00	0	40	0	3603955712	50	4792
2026-01-08 12:48:53.50	334.47	11.43	-40.1	-42.1	18.7	0.00e+00	0	40	0	3621781504	50	4921
2026-01-08 12:48:56.37	334.63	11.18	-40.0	-42.0	18.8	0.00e+00	0	40	0	3638558720	51	4555
2026-01-08 12:48:59.51	334.81	10.91	-40.4	-42.5	18.4	0.00e+00	0	40	0	3656384512	51	4825
2026-01-08 12:49:02.38	334.98	10.66	-40.4	-42.5	18.3	0.00e+00	0	40	0	3672113152	51	4835
2026-01-08 12:49:05.53	335.15	10.40	-40.2	-42.2	18.5	0.00e+00	0	40	0	3689938944	51	4687
2026-01-08 12:49:08.49	335.32	10.15	-40.0	-42.1	18.7	0.00e+00	0	40	0	3706716160	51	4612
2026-01-08 12:49:11.64	335.49	9.89	-40.0	-42.1	18.6	0.00e+00	0	40	0	3724541952	51	4625
2026-01-08 12:49:14.62	335.64	9.65	-40.1	-42.1	18.6	0.00e+00	0	40	0	3741319168	51	4648
2026-01-08 12:49:17.99	335.82	9.37	-40.0	-42.1	18.6	0.00e+00	0	40	0	3760193536	51	4602
2026-01-08 12:49:20.72	335.96	9.16	-40.1	-42.2	18.4	0.00e+00	0	40	0	3774873600	51	4693
2026-01-08 12:49:24.01	336.13	8.89	-49.7	-62.2	3.8	8.47e-01	0	40	104	3787456512	69	16692
2026-01-08 12:49:26.74	336.26	8.68	-49.8	-62.6	3.8	8.47e-01	0	40	104	3787456512	70	16394
2026-01-08 12:49:30.03	336.43	8.42	-50.3	-62.8	3.8	8.47e-01	0	40	104	3787456512	71	15773
2026-01-08 12:49:32.76	336.56	8.21	-50.6	-62.8	3.8	8.47e-01	0	40	104	3787456512	71	15880
2026-01-08 12:49:36.06	336.72	7.96	-50.4	-62.8	3.8	8.48e-01	0	40	104	3787456512	71	15929
2026-01-08 12:49:38.79	336.85	7.75	-50.4	-62.8	3.8	8.47e-01	0	40	104	3787456512	72	15015
2026-01-08 12:49:42.09	337.00	7.50	-50.5	-62.8	3.8	8.48e-01	0	40	104	3787456512	72	14894
2026-01-08 12:49:44.81	337.12	7.29	-50.5	-62.7	3.8	8.47e-01	0	40	104	3787456512	72	14875
2026-01-08 12:49:48.11	337.27	7.05	-50.1	-62.7	3.8	8.47e-01	0	40	104	3787456512	72	14831
2026-01-08 12:49:50.84	337.40	6.85	-50.1	-62.7	3.8	8.47e-01	0	40	104	3787456512	72	14833
2026-01-08 12:49:54.14	337.54	6.61	-50.1	-62.7	3.8	8.46e-01	0	40	104	3787456512	72	14823
2026-01-08 12:49:56.86	337.66	6.41	-50.1	-62.7	3.8	8.48e-01	0	40	104	3787456512	72	14826
2026-01-08 12:50:00.16	337.80	6.17	-50.0	-62.7	3.8	8.47e-01	0	40	104	3787456512	72	14772
2026-01-08 12:50:02.89	337.92	5.98	-50.0	-62.7	3.8	8.48e-01	0	40	104	3787456512	72	14785
2026-01-08 12:50:06.19	338.05	5.74	-50.0	-62.7	3.8	8.47e-01	0	40	104	3787456512	72	14780
2026-01-08 12:50:08.91	338.17	5.55	-50.0	-62.7	3.8	8.46e-01	0	40	104	3787456512	72	14766
2026-01-08 12:50:12.21	338.30	5.32	-50.0	-62.7	3.8	8.47e-01	0	40	104	3787456512	72	14760
2026-01-08 12:50:14.94	338.41	5.13	-50.0	-62.7	3.8	8.46e-01	0	40	104	3787456512	72	14745

#Closed at: 2026-01-08 12:50:18
#Recorded file [3787 MB]: D:/Data/31040_260108_153737.dat