passes_logs/2026/01/08/T1/T1__20260108_113850_SUOMI_NPP_rec.log

#Pass ID: 20260108_113850_SUOMI NPP
#Satellite: SUOMI NPP
#Configuration: NPP
#almurnet v.1.7.20251203
#Start time: 2026-01-08 11:38:53

#Version: 2.0.20230620
#Station: T1
#Location: 37.570604 lon 55.790049 lat
#TLE: 1 37849U 11061A   26005.94084933  .00000134  00000+0  84554-4 0  9990
#TLE: 2 37849  98.7803 308.0679 0002567  79.1029 281.0436 14.19522657735426

#Time	Az	El	Level	Level2	SNR	BER	BlckErr	Temp	State	Recorded	gain1	gain2
2026-01-08 11:38:53.01	215.05	5.13	-48.0	-65.2	3.8	1.49e+00	0	41	0	0	68	24817
2026-01-08 11:38:56.02	215.33	5.30	-47.8	-65.0	3.8	1.49e+00	0	41	104	0	66	27372
2026-01-08 11:38:59.03	215.61	5.47	-47.9	-65.0	3.8	1.49e+00	0	41	104	0	66	27296
2026-01-08 11:39:02.04	215.90	5.65	-47.8	-65.0	3.8	1.49e+00	0	42	104	0	66	27144
2026-01-08 11:39:05.05	216.19	5.82	-47.9	-65.0	3.8	1.49e+00	0	42	104	0	66	27191
2026-01-08 11:39:08.07	216.48	6.00	-47.8	-65.0	3.8	1.49e+00	0	42	104	0	66	27148
2026-01-08 11:39:11.08	216.78	6.18	-47.8	-64.9	3.8	1.49e+00	0	42	104	0	66	26833
2026-01-08 11:39:14.09	217.08	6.35	-47.8	-64.8	3.8	1.49e+00	0	42	104	0	66	26505
2026-01-08 11:39:17.11	217.39	6.53	-47.8	-64.9	3.8	1.49e+00	0	42	104	0	66	27049
2026-01-08 11:39:20.12	217.70	6.71	-47.8	-64.9	3.8	1.49e+00	0	42	104	0	66	27052
2026-01-08 11:39:23.13	218.01	6.88	-47.8	-64.6	3.8	1.49e+00	0	42	104	0	66	25983
2026-01-08 11:39:26.15	218.32	7.06	-47.9	-64.5	3.8	1.49e+00	0	42	104	0	66	25601
2026-01-08 11:39:29.16	218.64	7.24	-47.9	-64.9	3.8	1.49e+00	0	42	104	0	66	26886
2026-01-08 11:39:32.17	218.97	7.42	-47.8	-64.9	3.8	1.49e+00	0	43	104	0	66	27027
2026-01-08 11:39:35.19	219.29	7.60	-47.9	-64.8	3.8	1.49e+00	0	42	104	0	66	26746
2026-01-08 11:39:38.20	219.62	7.78	-47.9	-63.9	3.8	1.49e+00	0	43	104	0	66	23964
2026-01-08 11:39:41.21	219.96	7.97	-47.7	-63.0	3.8	1.49e+00	0	43	104	0	66	21685
2026-01-08 11:39:44.22	220.30	8.15	-47.7	-62.7	3.8	1.49e+00	0	43	104	0	66	20924
2026-01-08 11:39:47.23	220.64	8.33	-46.8	-54.5	9.1	3.61e-02	0	43	0	4194304	65	8573
2026-01-08 11:39:50.25	220.99	8.51	-45.4	-50.4	13.4	4.80e-05	0	43	0	9437184	62	6375
2026-01-08 11:39:53.26	221.34	8.70	-45.5	-50.6	13.2	9.10e-06	0	43	0	15728640	62	6519
2026-01-08 11:39:56.27	221.70	8.88	-46.7	-53.9	9.7	3.18e-03	0	43	0	20971520	64	8523
2026-01-08 11:39:59.29	222.06	9.06	-47.3	-58.0	5.8	3.10e-01	0	43	0	26214400	65	12957
2026-01-08 11:40:02.45	222.44	9.26	-47.8	-55.7	7.9	3.67e-01	0	43	0	32505856	67	8803
2026-01-08 11:40:05.35	222.79	9.43	-48.6	-56.4	7.3	2.00e-01	0	43	0	37748736	67	9503
2026-01-08 11:40:08.50	223.19	9.63	-48.7	-55.7	8.2	6.51e-02	0	43	0	44040192	68	8359
2026-01-08 11:40:11.36	223.54	9.80	-48.6	-55.5	8.4	4.95e-02	0	43	0	49283072	68	8099
2026-01-08 11:40:14.51	223.95	10.00	-48.3	-54.5	9.4	2.36e-02	0	43	0	55574528	68	7233
2026-01-08 11:40:17.45	224.32	10.18	-48.5	-55.1	8.9	4.11e-02	0	43	0	60817408	68	7757
2026-01-08 11:40:20.65	224.74	10.38	-47.3	-52.1	11.8	1.01e-03	0	43	0	67108864	66	6178
2026-01-08 11:40:23.51	225.12	10.55	-47.2	-52.0	12.0	1.65e-04	0	43	0	72351744	65	6444
2026-01-08 11:40:26.66	225.54	10.75	-47.1	-51.6	12.3	1.60e-04	0	43	0	77594624	65	6162
2026-01-08 11:40:29.83	225.97	10.94	-47.1	-51.5	12.5	1.33e-04	0	43	0	83886080	65	6113
2026-01-08 11:40:32.87	226.39	11.13	-46.8	-50.9	13.1	2.05e-05	0	43	0	89128960	65	5709
2026-01-08 11:40:35.88	226.80	11.32	-46.2	-50.1	14.1	6.80e-06	0	43	0	95420416	64	5476
2026-01-08 11:40:38.89	227.23	11.51	-46.0	-49.5	14.6	0.00e+00	0	43	0	100663296	63	5446
2026-01-08 11:40:41.94	227.66	11.70	-45.5	-48.8	15.4	0.00e+00	0	43	0	106954752	62	5281
2026-01-08 11:40:44.86	228.08	11.88	-45.0	-47.9	16.2	0.00e+00	0	43	0	112197632	61	5083
2026-01-08 11:40:47.86	228.52	12.06	-44.8	-47.7	16.4	0.00e+00	0	43	0	117440512	61	4967
2026-01-08 11:40:50.87	228.96	12.25	-44.8	-47.8	16.3	0.00e+00	0	43	0	123731968	61	4986
2026-01-08 11:40:53.88	229.41	12.44	-44.6	-47.5	16.6	0.00e+00	0	43	0	128974848	61	4818
2026-01-08 11:40:56.86	229.86	12.62	-44.6	-47.4	16.6	0.00e+00	0	43	0	134217728	61	4783
2026-01-08 11:41:00.42	230.41	12.84	-44.5	-47.3	16.8	0.00e+00	0	43	0	141557760	60	5025
2026-01-08 11:41:03.14	230.83	13.01	-44.6	-47.4	16.7	0.00e+00	0	43	0	146800640	60	5100
2026-01-08 11:41:06.63	231.38	13.22	-44.4	-47.1	16.9	0.00e+00	0	44	0	153092096	60	4926
2026-01-08 11:41:09.42	231.82	13.39	-44.1	-46.7	17.3	0.00e+00	0	43	0	158334976	60	4682
2026-01-08 11:41:12.79	232.37	13.60	-43.9	-46.5	17.5	0.00e+00	0	43	0	164626432	59	4826
2026-01-08 11:41:15.52	232.81	13.77	-44.0	-46.6	17.4	0.00e+00	0	43	0	169869312	59	4916
2026-01-08 11:41:18.81	233.36	13.97	-43.9	-46.4	17.6	0.00e+00	0	44	0	176160768	59	4804
2026-01-08 11:41:21.79	233.86	14.15	-44.1	-46.7	17.3	0.00e+00	0	44	0	181403648	59	4973
2026-01-08 11:41:25.28	234.45	14.36	-44.2	-46.9	17.2	0.00e+00	0	44	0	187695104	59	5070
2026-01-08 11:41:28.00	234.91	14.52	-44.1	-46.8	17.2	0.00e+00	0	44	0	192937984	59	5020
2026-01-08 11:41:31.30	235.49	14.72	-44.5	-47.4	16.6	0.00e+00	0	44	0	199229440	59	5389
2026-01-08 11:41:34.26	236.01	14.90	-44.6	-47.5	16.6	0.00e+00	0	44	0	204472320	59	5445
2026-01-08 11:41:38.22	236.71	15.13	-44.3	-47.0	17.0	0.00e+00	0	44	0	211812352	59	5124
2026-01-08 11:41:40.94	237.20	15.29	-44.2	-46.9	17.1	0.00e+00	0	43	0	217055232	59	5071
2026-01-08 11:41:44.94	237.93	15.53	-44.4	-47.2	17.0	0.00e+00	0	44	0	224395264	60	4933
2026-01-08 11:41:47.68	238.44	15.69	-44.1	-46.7	17.4	0.00e+00	0	44	0	229638144	60	4671
2026-01-08 11:41:51.42	239.14	15.90	-43.8	-46.5	17.6	0.00e+00	0	43	0	236978176	59	4819
2026-01-08 11:41:54.17	239.66	16.06	-43.8	-46.5	17.6	0.00e+00	0	44	0	242221056	59	4825
2026-01-08 11:41:57.76	240.35	16.26	-43.9	-46.5	17.6	0.00e+00	0	44	0	248512512	59	4828
2026-01-08 11:42:00.72	240.92	16.43	-44.1	-46.7	17.4	0.00e+00	0	44	0	254803968	59	4943
2026-01-08 11:42:04.01	241.57	16.61	-43.9	-46.6	17.4	0.00e+00	0	44	0	260046848	59	4912
2026-01-08 11:42:06.74	242.11	16.76	-43.7	-46.5	17.5	0.00e+00	0	44	0	265289728	59	4820
2026-01-08 11:42:10.03	242.77	16.93	-44.0	-46.6	17.5	0.00e+00	0	44	0	271581184	59	4903
2026-01-08 11:42:12.94	243.36	17.09	-44.3	-47.0	17.1	0.00e+00	0	44	0	276824064	59	5142
2026-01-08 11:42:16.24	244.04	17.26	-44.2	-46.9	17.2	0.00e+00	0	44	0	283115520	59	5053
2026-01-08 11:42:18.96	244.60	17.40	-44.1	-46.8	17.3	0.00e+00	0	44	0	288358400	59	5013
2026-01-08 11:42:22.26	245.29	17.57	-44.6	-47.4	16.8	0.00e+00	0	44	0	294649856	59	5369
2026-01-08 11:42:25.30	245.93	17.73	-44.6	-47.7	16.5	0.00e+00	0	44	0	299892736	60	5235
2026-01-08 11:42:28.55	246.63	17.89	-44.8	-47.8	16.4	0.00e+00	0	43	0	306184192	60	5314
2026-01-08 11:42:31.42	247.24	18.03	-45.1	-48.3	16.0	0.00e+00	0	44	0	311427072	60	5604
2026-01-08 11:42:34.57	247.93	18.18	-45.1	-48.5	15.8	0.00e+00	0	44	0	317718528	61	5427
2026-01-08 11:42:37.44	248.56	18.31	-45.6	-48.9	15.4	0.00e+00	0	44	0	322961408	61	5688
2026-01-08 11:42:40.60	249.26	18.45	-45.7	-48.9	15.4	0.00e+00	0	44	0	329252864	62	5399
2026-01-08 11:42:43.47	249.90	18.58	-45.9	-49.2	15.2	0.00e+00	0	44	0	334495744	62	5534
2026-01-08 11:42:46.52	250.58	18.72	-45.8	-49.1	15.3	0.00e+00	0	44	0	339738624	62	5481
2026-01-08 11:42:49.53	251.27	18.84	-45.2	-48.2	16.1	0.00e+00	0	44	0	346030080	62	4973
2026-01-08 11:42:52.54	251.96	18.97	-45.4	-48.5	15.9	0.00e+00	0	44	0	351272960	62	5110
2026-01-08 11:42:55.56	252.65	19.09	-44.9	-47.8	16.4	0.00e+00	0	44	0	357564416	61	4994
2026-01-08 11:42:58.57	253.35	19.21	-44.4	-47.3	16.9	0.00e+00	0	44	0	362807296	60	5006
2026-01-08 11:43:01.57	254.06	19.32	-44.8	-47.9	16.4	0.00e+00	0	44	0	368050176	60	5353
2026-01-08 11:43:04.67	254.79	19.44	-44.2	-46.9	17.3	0.00e+00	0	44	0	374341632	60	4774
2026-01-08 11:43:08.46	255.69	19.57	-44.2	-46.8	17.3	0.00e+00	0	44	0	381681664	59	5020
2026-01-08 11:43:11.19	256.34	19.66	-44.1	-46.7	17.4	0.00e+00	0	44	0	386924544	59	4935
2026-01-08 11:43:15.01	257.26	19.78	-43.6	-46.1	18.0	0.00e+00	0	44	0	393216000	58	4902
2026-01-08 11:43:17.78	257.93	19.87	-43.4	-45.9	18.1	0.00e+00	0	44	0	398458880	58	4781
2026-01-08 11:43:21.74	258.90	19.98	-43.4	-45.9	18.2	0.00e+00	0	44	0	405798912	58	4778
2026-01-08 11:43:24.50	259.58	20.06	-44.0	-46.6	17.6	0.00e+00	0	44	0	411041792	58	5176
2026-01-08 11:43:28.03	260.45	20.15	-43.7	-46.3	17.8	0.00e+00	0	44	0	418381824	58	4988
2026-01-08 11:43:30.90	261.16	20.22	-43.8	-46.3	17.8	0.00e+00	0	44	0	423624704	58	5021
2026-01-08 11:43:34.08	261.96	20.29	-43.8	-46.3	17.8	0.00e+00	0	44	0	428867584	58	5014
2026-01-08 11:43:36.95	262.67	20.35	-44.0	-46.6	17.5	0.00e+00	0	44	0	435159040	58	5203
2026-01-08 11:43:40.11	263.47	20.42	-43.6	-46.1	17.9	0.00e+00	0	44	0	440401920	59	4634
2026-01-08 11:43:42.98	264.19	20.47	-43.4	-45.8	18.2	0.00e+00	0	44	0	445644800	58	4736
2026-01-08 11:43:46.13	264.99	20.52	-44.2	-46.9	17.2	0.00e+00	0	44	0	451936256	59	5070
2026-01-08 11:43:49.01	265.72	20.56	-43.9	-46.5	17.5	0.00e+00	0	44	0	457179136	59	4836
2026-01-08 11:43:52.16	266.52	20.60	-44.6	-47.4	16.8	0.00e+00	0	44	0	463470592	59	5366
2026-01-08 11:43:55.03	267.25	20.64	-44.3	-47.0	17.2	0.00e+00	0	44	0	468713472	60	4818
2026-01-08 11:43:58.20	268.06	20.67	-43.9	-46.5	17.6	0.00e+00	0	44	0	475004928	59	4836
2026-01-08 11:44:01.35	268.87	20.69	-44.0	-46.6	17.5	0.00e+00	0	44	0	480247808	59	4892
2026-01-08 11:44:04.25	269.61	20.71	-43.8	-46.3	17.7	0.00e+00	0	44	0	485490688	59	4747
2026-01-08 11:44:07.40	270.42	20.72	-44.5	-47.3	16.9	0.00e+00	0	44	0	491782144	59	5301
2026-01-08 11:44:10.33	271.17	20.73	-44.5	-47.2	17.0	0.00e+00	0	44	0	497025024	60	4983
2026-01-08 11:44:13.85	272.08	20.73	-44.8	-47.6	16.6	0.00e+00	0	44	0	504365056	60	5212
2026-01-08 11:44:16.57	272.77	20.73	-44.6	-47.3	16.9	0.00e+00	0	44	0	508559360	60	5036
2026-01-08 11:44:19.87	273.62	20.72	-44.6	-47.4	16.8	0.00e+00	0	44	0	514850816	60	5069
2026-01-08 11:44:22.59	274.32	20.71	-44.6	-47.4	16.8	0.00e+00	0	44	0	520093696	60	5072
2026-01-08 11:44:25.89	275.16	20.69	-44.3	-47.0	17.2	0.00e+00	0	44	0	526385152	60	4840
2026-01-08 11:44:28.61	275.86	20.67	-44.9	-47.7	16.6	0.00e+00	0	44	0	531628032	60	5273
2026-01-08 11:44:32.07	276.74	20.64	-44.7	-47.4	16.8	0.00e+00	0	44	0	537919488	60	5091
2026-01-08 11:44:35.04	277.50	20.60	-44.8	-47.6	16.6	0.00e+00	0	44	0	543162368	60	5196
2026-01-08 11:44:38.06	278.27	20.56	-44.5	-47.3	16.9	0.00e+00	0	44	0	549453824	60	5015
2026-01-08 11:44:41.17	279.05	20.52	-44.0	-46.6	17.5	0.00e+00	0	43	0	554696704	60	4627
2026-01-08 11:44:44.15	279.81	20.47	-44.1	-46.7	17.4	0.00e+00	0	44	0	560988160	59	4951
2026-01-08 11:44:47.16	280.57	20.41	-44.5	-47.2	16.9	0.00e+00	0	44	0	566231040	59	5274
2026-01-08 11:44:50.17	281.32	20.36	-44.6	-47.3	16.9	0.00e+00	0	44	0	572522496	60	5037
2026-01-08 11:44:53.18	282.07	20.29	-44.4	-47.1	17.1	0.00e+00	0	44	0	577765376	60	4914
2026-01-08 11:44:56.26	282.84	20.22	-44.5	-47.2	17.1	0.00e+00	0	44	0	583008256	60	4971
2026-01-08 11:44:59.15	283.55	20.15	-44.7	-47.5	16.8	0.00e+00	0	44	0	589299712	60	5112
2026-01-08 11:45:02.48	284.37	20.07	-44.2	-46.8	17.4	0.00e+00	0	44	0	595591168	60	4733
2026-01-08 11:45:05.34	285.08	19.99	-44.2	-46.8	17.4	0.00e+00	0	44	0	600834048	59	5010
2026-01-08 11:45:08.50	285.85	19.90	-44.5	-47.2	17.0	0.00e+00	0	44	0	606076928	59	5224
2026-01-08 11:45:11.37	286.54	19.81	-44.5	-47.2	17.1	0.00e+00	0	44	0	611319808	59	5225
2026-01-08 11:45:14.52	287.30	19.71	-45.1	-48.0	16.3	0.00e+00	0	44	0	617611264	60	5408
2026-01-08 11:45:17.39	287.99	19.62	-44.7	-47.5	16.7	0.00e+00	0	44	0	622854144	60	5130
2026-01-08 11:45:20.54	288.74	19.51	-43.9	-46.5	17.6	0.00e+00	0	44	0	629145600	59	4824
2026-01-08 11:45:23.40	289.41	19.41	-44.2	-46.8	17.3	0.00e+00	0	44	0	634388480	59	5041
2026-01-08 11:45:26.56	290.15	19.29	-43.9	-46.5	17.6	0.00e+00	0	44	0	640679936	59	4857
2026-01-08 11:45:29.42	290.82	19.18	-44.0	-46.6	17.5	0.00e+00	0	44	0	645922816	59	4884
2026-01-08 11:45:32.66	291.57	19.06	-44.3	-46.9	17.2	0.00e+00	0	44	0	652214272	59	5088
2026-01-08 11:45:35.52	292.22	18.94	-44.0	-46.5	17.6	0.00e+00	0	44	0	657457152	59	4867
2026-01-08 11:45:38.63	292.93	18.81	-43.6	-46.0	18.0	0.00e+00	0	44	0	662700032	58	4865
2026-01-08 11:45:41.64	293.61	18.68	-43.7	-46.1	17.9	0.00e+00	0	44	0	668991488	58	4904
2026-01-08 11:45:44.65	294.28	18.55	-43.9	-46.5	17.6	0.00e+00	0	44	0	674234368	58	5102
2026-01-08 11:45:47.65	294.95	18.42	-44.1	-46.6	17.5	0.00e+00	0	44	0	679477248	58	5182
2026-01-08 11:45:50.64	295.61	18.28	-44.4	-47.1	16.9	0.00e+00	0	44	0	685768704	59	5202
2026-01-08 11:45:53.90	296.32	18.13	-44.4	-47.0	17.0	0.00e+00	0	44	0	691011584	59	5156
2026-01-08 11:45:56.85	296.95	17.99	-44.2	-46.9	17.2	0.00e+00	0	44	0	697303040	59	5044
2026-01-08 11:46:00.01	297.63	17.83	-44.2	-46.8	17.3	0.00e+00	0	44	0	702545920	59	5023
2026-01-08 11:46:02.87	298.23	17.69	-44.6	-47.4	16.8	0.00e+00	0	44	0	708837376	59	5372
2026-01-08 11:46:06.02	298.89	17.53	-45.1	-48.0	16.3	0.00e+00	0	44	0	714080256	60	5433
2026-01-08 11:46:08.89	299.49	17.39	-44.9	-47.8	16.4	0.00e+00	0	44	0	719323136	60	5300
2026-01-08 11:46:12.15	300.16	17.22	-45.0	-47.9	16.3	0.00e+00	0	44	0	725614592	60	5398
2026-01-08 11:46:15.32	300.80	17.05	-44.6	-47.4	16.7	0.00e+00	0	44	0	731906048	60	5097
2026-01-08 11:46:18.19	301.38	16.90	-44.7	-47.5	16.7	0.00e+00	0	44	0	737148928	60	5115
2026-01-08 11:46:21.48	302.03	16.72	-45.2	-48.2	16.0	0.00e+00	0	44	0	743440384	61	5230
2026-01-08 11:46:24.20	302.57	16.58	-45.6	-48.7	15.5	0.00e+00	0	44	0	748683264	61	5588
2026-01-08 11:46:27.50	303.21	16.39	-45.7	-48.9	15.4	0.00e+00	0	44	0	754974720	62	5341
2026-01-08 11:46:30.22	303.74	16.24	-45.7	-49.0	15.3	0.00e+00	0	44	0	759169024	62	5439
2026-01-08 11:46:33.65	304.39	16.05	-45.0	-48.1	16.0	0.00e+00	0	44	0	766509056	62	4910
2026-01-08 11:46:36.37	304.90	15.90	-44.7	-47.6	16.6	0.00e+00	0	44	0	770703360	61	4876
2026-01-08 11:46:39.80	305.54	15.70	-44.9	-48.2	15.9	0.00e+00	0	44	0	778043392	60	5563
2026-01-08 11:46:42.52	306.04	15.55	-45.6	-49.2	14.8	7.00e-07	0	44	0	782237696	61	5896
2026-01-08 11:46:45.82	306.64	15.35	-45.5	-49.0	15.1	0.00e+00	0	44	0	788529152	62	5416
2026-01-08 11:46:48.67	307.16	15.19	-45.1	-48.3	15.7	0.00e+00	0	44	0	793772032	61	5325
2026-01-08 11:46:52.12	307.77	14.99	-44.8	-48.0	16.0	0.00e+00	0	44	0	801112064	61	5124
2026-01-08 11:46:55.32	308.33	14.80	-44.5	-47.5	16.5	0.00e+00	0	44	0	806354944	61	4865
2026-01-08 11:46:58.24	308.84	14.62	-44.5	-47.5	16.5	0.00e+00	0	44	0	812646400	60	5149
2026-01-08 11:47:01.52	309.40	14.43	-44.9	-48.2	15.9	0.00e+00	0	44	0	817889280	60	5553
2026-01-08 11:47:04.45	309.89	14.25	-44.7	-48.1	15.9	0.00e+00	0	44	0	824180736	60	5494
2026-01-08 11:47:07.75	310.45	14.06	-44.5	-47.7	16.3	0.00e+00	0	44	0	830472192	60	5232
2026-01-08 11:47:10.46	310.89	13.89	-44.6	-47.8	16.2	0.00e+00	0	44	0	834666496	60	5312
2026-01-08 11:47:13.80	311.44	13.69	-44.9	-48.1	16.0	0.00e+00	0	44	0	840957952	60	5497
2026-01-08 11:47:16.52	311.88	13.53	-44.9	-48.1	15.9	0.00e+00	0	44	0	846200832	60	5519
2026-01-08 11:47:19.82	312.40	13.32	-44.9	-48.2	15.8	0.00e+00	0	44	0	852492288	60	5550
2026-01-08 11:47:22.54	312.83	13.16	-45.0	-48.3	15.7	0.00e+00	0	44	0	857735168	60	5650
2026-01-08 11:47:25.83	313.34	12.96	-44.3	-47.6	16.4	0.00e+00	0	44	0	864026624	60	5177
2026-01-08 11:47:28.55	313.76	12.79	-44.0	-46.9	17.0	0.00e+00	0	44	0	869269504	59	5049
2026-01-08 11:47:31.83	314.26	12.59	-44.0	-46.8	17.0	0.00e+00	0	44	0	875560960	59	5027
2026-01-08 11:47:34.70	314.69	12.42	-44.5	-47.5	16.3	0.00e+00	0	44	0	880803840	59	5454
2026-01-08 11:47:37.87	315.16	12.22	-44.6	-47.8	16.2	0.00e+00	0	44	0	886046720	60	5282
2026-01-08 11:47:40.79	315.59	12.04	-44.4	-47.4	16.6	0.00e+00	0	44	0	892338176	60	5076
2026-01-08 11:47:43.94	316.04	11.85	-44.0	-46.9	17.0	0.00e+00	0	44	0	897581056	59	5056
2026-01-08 11:47:46.81	316.45	11.67	-44.4	-47.3	16.6	0.00e+00	0	44	0	902823936	59	5297
2026-01-08 11:47:49.96	316.90	11.48	-44.5	-47.5	16.4	0.00e+00	0	44	0	909115392	59	5422
2026-01-08 11:47:52.82	317.29	11.30	-44.3	-47.3	16.6	0.00e+00	0	44	0	914358272	59	5316
2026-01-08 11:47:55.97	317.73	11.11	-44.5	-47.5	16.4	0.00e+00	0	44	0	920649728	59	5441
2026-01-08 11:47:58.83	318.12	10.93	-45.0	-48.3	15.7	0.00e+00	0	44	0	925892608	60	5634
2026-01-08 11:48:02.37	318.59	10.72	-45.3	-49.0	15.0	0.00e+00	0	44	0	932184064	61	5766
2026-01-08 11:48:05.17	318.96	10.55	-45.3	-48.8	15.2	0.00e+00	0	44	0	937426944	61	5645
2026-01-08 11:48:08.53	319.40	10.34	-45.0	-48.3	15.7	0.00e+00	0	44	0	943718400	61	5318
2026-01-08 11:48:11.65	319.81	10.15	-45.0	-48.4	15.6	0.00e+00	0	44	0	950009856	61	5392
2026-01-08 11:48:15.00	320.23	9.95	-44.9	-48.4	15.6	0.00e+00	0	44	0	956301312	61	5355
2026-01-08 11:48:17.72	320.58	9.78	-44.8	-48.2	15.6	0.00e+00	0	44	0	961544192	61	5277
2026-01-08 11:48:21.01	320.98	9.58	-44.7	-47.9	15.9	0.00e+00	0	44	0	967835648	61	5091
2026-01-08 11:48:23.80	321.33	9.41	-44.9	-48.2	15.7	0.00e+00	0	44	0	973078528	61	5221
2026-01-08 11:48:27.22	321.74	9.20	-45.3	-49.0	15.0	0.00e+00	0	44	0	979369984	61	5726
2026-01-08 11:48:29.94	322.07	9.04	-45.0	-48.7	15.2	7.00e-07	0	44	0	984612864	61	5564
2026-01-08 11:48:33.24	322.46	8.84	-49.9	-65.8	3.8	1.49e+00	0	44	104	985661440	71	22348
2026-01-08 11:48:35.97	322.78	8.68	-50.1	-65.9	3.8	1.49e+00	0	44	104	985661440	71	22712
2026-01-08 11:48:39.22	323.16	8.48	-50.5	-66.0	3.8	1.49e+00	0	44	104	985661440	72	21570
2026-01-08 11:48:42.51	323.53	8.28	-50.5	-65.9	3.8	1.49e+00	0	44	104	985661440	72	21506
2026-01-08 11:48:45.41	323.86	8.11	-50.8	-66.0	3.8	1.49e+00	0	44	104	985661440	72	21591
2026-01-08 11:48:48.56	324.21	7.92	-50.6	-66.0	3.8	1.49e+00	0	44	104	985661440	72	21583
2026-01-08 11:48:51.43	324.53	7.75	-50.2	-66.0	3.8	1.49e+00	0	44	104	985661440	72	21529
2026-01-08 11:48:54.59	324.87	7.57	-50.2	-65.9	3.8	1.49e+00	0	44	104	985661440	72	21428
2026-01-08 11:48:57.45	325.18	7.40	-50.2	-65.9	3.8	1.49e+00	0	44	104	985661440	72	21453
2026-01-08 11:49:00.61	325.52	7.21	-50.3	-65.9	3.8	1.49e+00	0	44	104	985661440	72	21471
2026-01-08 11:49:03.48	325.82	7.04	-50.2	-65.9	3.8	1.49e+00	0	44	104	985661440	72	21426
2026-01-08 11:49:06.63	326.14	6.86	-50.2	-65.9	3.8	1.49e+00	0	44	104	985661440	72	21368
2026-01-08 11:49:09.50	326.44	6.69	-50.2	-65.9	3.8	1.49e+00	0	44	104	985661440	72	21396
2026-01-08 11:49:12.66	326.76	6.51	-50.2	-65.9	3.8	1.49e+00	0	44	104	985661440	72	21382
2026-01-08 11:49:15.53	327.05	6.34	-50.2	-65.9	3.8	1.49e+00	0	44	104	985661440	72	21431
2026-01-08 11:49:18.68	327.36	6.16	-50.2	-65.9	3.8	1.49e+00	0	44	104	985661440	72	21471
2026-01-08 11:49:21.55	327.64	5.99	-50.2	-65.9	3.8	1.49e+00	0	44	104	985661440	72	21395
2026-01-08 11:49:24.71	327.95	5.81	-50.2	-65.9	3.8	1.49e+00	0	44	104	985661440	72	21425
2026-01-08 11:49:27.58	328.23	5.64	-50.2	-65.9	3.8	1.49e+00	0	44	104	985661440	72	21436
2026-01-08 11:49:30.74	328.53	5.46	-50.2	-65.9	3.8	1.49e+00	0	44	104	985661440	72	21429
2026-01-08 11:49:33.61	328.80	5.30	-50.2	-65.9	3.8	1.49e+00	0	44	104	985661440	72	21433
2026-01-08 11:49:36.76	329.09	5.12	-50.2	-65.9	3.8	1.49e+00	0	44	104	985661440	72	21448
2026-01-08 11:49:39.63	329.35	4.96	-50.2	-65.9	3.8	1.49e+00	0	44	104	985661440	72	21384

#Closed at: 2026-01-08 11:49:40
#Recorded file [985 MB]: D:/Data/31040_260108_143852.dat