passes_logs/2026/01/08/T1/T1__20260108_205654_KHAYYAM_rec.log

#Pass ID: 20260108_205654_KHAYYAM
#Satellite: KHAYYAM
#Configuration: KHAYYAM_480M
#almurnet v.1.7.20251203
#Start time: 2026-01-08 20:56:55

#Version: 2.0.20230620
#Station: T1
#Location: 37.570604 lon 55.790049 lat
#TLE: 1 53370U 22096A   26008.52524046  .00006305  00000+0  25727-3 0  9990
#TLE: 2 53370  97.3558 275.6513 0001251  94.0078 266.1303 15.24769206190253

#Time	Az	El	Level	Level2	SNR	BER	BlckErr	Temp	State	Recorded	gain1	gain2
2026-01-08 20:56:55.61	19.38	5.03	-47.2	-51.2	3.8	0.00e+00	0	42	0	0	66	22129
2026-01-08 20:56:57.61	19.46	5.19	-47.1	-51.1	3.7	0.00e+00	0	42	104	0	64	24664
2026-01-08 20:56:59.62	19.54	5.35	-47.0	-51.1	3.7	0.00e+00	0	43	104	0	64	24620
2026-01-08 20:57:01.63	19.63	5.51	-47.0	-51.0	3.7	0.00e+00	0	42	104	0	64	24344
2026-01-08 20:57:03.64	19.72	5.67	-47.0	-51.0	3.7	0.00e+00	0	43	104	0	64	24438
2026-01-08 20:57:05.65	19.80	5.84	-47.0	-51.1	3.7	0.00e+00	0	43	104	0	64	24561
2026-01-08 20:57:07.66	19.89	6.01	-47.0	-51.1	3.7	0.00e+00	0	43	104	0	64	24610
2026-01-08 20:57:09.67	19.98	6.17	-47.0	-51.1	3.6	0.00e+00	0	43	104	0	64	24597
2026-01-08 20:57:11.67	20.07	6.34	-47.0	-51.1	3.6	0.00e+00	0	44	104	0	64	24572
2026-01-08 20:57:13.68	20.17	6.51	-47.0	-51.0	3.7	0.00e+00	0	44	104	0	64	24409
2026-01-08 20:57:15.69	20.26	6.69	-47.0	-51.1	3.7	0.00e+00	0	44	104	0	64	24594
2026-01-08 20:57:17.70	20.36	6.86	-47.0	-51.0	3.7	0.00e+00	0	44	104	0	64	24441
2026-01-08 20:57:19.71	20.45	7.04	-47.1	-51.1	3.7	0.00e+00	0	44	104	0	64	24722
2026-01-08 20:57:21.72	20.55	7.21	-47.1	-51.1	3.7	0.00e+00	0	44	104	0	64	24647
2026-01-08 20:57:23.73	20.65	7.39	-47.0	-51.1	3.7	0.00e+00	0	44	104	0	64	24560
2026-01-08 20:57:25.74	20.75	7.57	-47.0	-51.1	3.7	0.00e+00	0	45	104	0	64	24565
2026-01-08 20:57:27.75	20.85	7.76	-47.0	-51.1	3.7	0.00e+00	0	45	104	0	64	24604
2026-01-08 20:57:29.75	20.96	7.94	-47.1	-51.1	3.6	0.00e+00	0	45	104	0	64	24684
2026-01-08 20:57:31.76	21.06	8.12	-47.1	-51.1	3.7	0.00e+00	0	45	104	0	64	24667
2026-01-08 20:57:33.77	21.17	8.31	-47.1	-51.2	3.7	0.00e+00	0	45	104	0	64	24819
2026-01-08 20:57:35.78	21.28	8.50	-47.0	-51.1	3.7	0.00e+00	0	45	104	0	64	24669
2026-01-08 20:57:37.79	21.39	8.69	-47.0	-51.0	3.6	0.00e+00	0	45	104	0	64	24517
2026-01-08 20:57:39.80	21.50	8.89	-47.0	-51.0	3.7	0.00e+00	0	45	104	0	64	24387
2026-01-08 20:57:41.80	21.61	9.08	-47.0	-50.8	3.7	0.00e+00	0	45	104	0	64	23777
2026-01-08 20:57:43.81	21.73	9.28	-47.0	-51.0	3.7	0.00e+00	0	45	104	0	66	21730
2026-01-08 20:57:45.81	21.84	9.47	-48.0	-52.3	3.7	0.00e+00	0	45	104	0	66	25359
2026-01-08 20:57:47.86	21.96	9.68	-48.6	-52.2	3.7	0.00e+00	0	45	104	0	67	23578
2026-01-08 20:57:49.89	22.09	9.89	-50.0	-53.9	3.7	0.00e+00	0	45	104	0	70	24234
2026-01-08 20:57:51.85	22.21	10.09	-49.2	-52.9	3.7	0.00e+00	0	46	104	0	70	21469
2026-01-08 20:57:53.88	22.33	10.30	-50.8	-54.8	3.7	0.00e+00	0	46	104	0	73	22529
2026-01-08 20:57:55.89	22.46	10.51	-51.5	-55.9	3.7	0.00e+00	0	46	104	0	73	25542
2026-01-08 20:57:57.89	22.59	10.72	-51.7	-56.4	3.7	0.00e+00	0	46	104	0	74	25387
2026-01-08 20:57:59.89	22.72	10.93	-51.6	-56.4	3.7	0.00e+00	0	46	104	0	74	25408
2026-01-08 20:58:01.90	22.85	11.15	-51.5	-56.1	3.7	0.00e+00	0	46	104	0	74	24532
2026-01-08 20:58:03.95	22.99	11.37	-51.3	-55.4	3.7	0.00e+00	0	46	104	0	74	22861
2026-01-08 20:58:06.16	23.14	11.62	-51.0	-54.9	3.7	0.00e+00	0	46	104	0	73	22693
2026-01-08 20:58:08.16	23.28	11.84	-51.2	-55.3	3.7	0.00e+00	0	46	104	0	73	23743
2026-01-08 20:58:10.17	23.43	12.07	-51.7	-56.2	3.7	0.00e+00	0	46	104	0	74	24890
2026-01-08 20:58:12.20	23.57	12.30	-51.6	-55.9	3.7	0.00e+00	0	46	104	0	74	24207
2026-01-08 20:58:14.16	23.72	12.53	-49.9	-53.6	3.7	0.00e+00	0	46	104	0	71	21961
2026-01-08 20:58:16.10	23.86	12.76	-50.0	-54.0	3.7	0.00e+00	0	46	104	0	71	23016
2026-01-08 20:58:18.31	24.03	13.02	-50.4	-54.7	3.7	0.00e+00	0	46	104	0	71	25016
2026-01-08 20:58:20.32	24.19	13.26	-49.7	-53.6	3.7	0.00e+00	0	46	104	0	71	22025
2026-01-08 20:58:22.32	24.35	13.51	-50.2	-54.5	3.7	0.00e+00	0	46	104	0	71	24305
2026-01-08 20:58:24.40	24.52	13.77	-50.5	-54.9	3.7	0.00e+00	0	46	104	0	71	25659
2026-01-08 20:58:26.41	24.69	14.02	-50.1	-53.8	3.7	0.00e+00	0	46	104	0	71	22433
2026-01-08 20:58:28.42	24.86	14.27	-51.6	-55.8	3.7	0.00e+00	0	46	104	0	74	23898
2026-01-08 20:58:30.43	25.03	14.53	-51.8	-56.3	3.7	0.00e+00	0	46	104	0	74	25190
2026-01-08 20:58:32.43	25.21	14.79	-51.4	-55.5	3.7	0.00e+00	0	47	104	0	73	24451
2026-01-08 20:58:34.50	25.39	15.07	-51.7	-56.1	3.7	0.00e+00	0	46	104	0	74	24792
2026-01-08 20:58:36.50	25.58	15.34	-51.3	-55.8	3.7	0.00e+00	0	46	104	0	74	23808
2026-01-08 20:58:38.51	25.76	15.61	-50.6	-55.2	3.7	0.00e+00	0	47	104	0	72	24977
2026-01-08 20:58:40.74	25.98	15.92	-49.5	-53.5	3.7	0.00e+00	0	47	104	0	71	21756
2026-01-08 20:58:42.75	26.17	16.20	-49.7	-54.2	3.7	0.00e+00	0	47	104	0	70	25021
2026-01-08 20:58:44.75	26.37	16.48	-49.9	-55.0	3.7	0.00e+00	0	47	104	0	70	27326
2026-01-08 20:58:46.76	26.58	16.77	-49.5	-53.4	3.7	0.00e+00	0	47	104	0	70	22708
2026-01-08 20:58:48.77	26.79	17.07	-49.4	-53.9	3.7	0.00e+00	0	47	104	0	70	24042
2026-01-08 20:58:50.83	27.01	17.37	-49.6	-54.6	3.7	0.00e+00	0	47	104	0	70	26187
2026-01-08 20:58:52.84	27.23	17.68	-50.2	-55.0	3.7	0.00e+00	0	47	104	0	71	25782
2026-01-08 20:58:54.94	27.46	18.00	-51.0	-54.2	3.7	0.00e+00	0	47	104	0	74	19725
2026-01-08 20:58:56.94	27.69	18.31	-50.4	-53.2	3.7	0.00e+00	0	47	104	0	72	19884
2026-01-08 20:58:59.04	27.94	18.64	-50.7	-53.9	3.7	0.00e+00	0	47	104	0	72	21417
2026-01-08 20:59:01.10	28.19	18.97	-51.2	-54.6	3.7	0.00e+00	0	47	104	0	72	23410
2026-01-08 20:59:03.07	28.43	19.29	-51.3	-54.8	3.7	0.00e+00	0	47	104	0	73	22424
2026-01-08 20:59:05.08	28.68	19.63	-51.5	-55.2	3.7	0.00e+00	0	47	104	0	74	22125
2026-01-08 20:59:07.09	28.94	19.96	-50.9	-54.0	3.7	0.00e+00	0	47	104	0	73	20498
2026-01-08 20:59:09.21	29.22	20.33	-50.9	-54.1	3.7	0.00e+00	0	47	104	0	73	20836
2026-01-08 20:59:11.21	29.50	20.67	-51.2	-54.7	3.7	0.00e+00	0	47	104	0	73	22192
2026-01-08 20:59:13.21	29.77	21.03	-51.3	-54.9	3.7	0.00e+00	0	47	104	0	73	22868
2026-01-08 20:59:15.22	30.06	21.39	-51.0	-54.4	3.7	0.00e+00	0	47	104	0	73	21417
2026-01-08 20:59:17.48	30.39	21.80	-50.2	-53.1	3.7	0.00e+00	0	47	104	0	70	22081
2026-01-08 20:59:19.49	30.70	22.17	-49.4	-52.1	3.7	0.00e+00	0	47	104	0	70	19621
2026-01-08 20:59:21.49	31.01	22.55	-51.3	-55.0	3.7	0.00e+00	0	47	104	0	73	23004
2026-01-08 20:59:23.50	31.33	22.94	-52.0	-56.4	3.7	0.00e+00	0	47	104	0	75	24212
2026-01-08 20:59:25.51	31.66	23.33	-52.0	-56.3	3.7	0.00e+00	0	47	104	0	74	25308
2026-01-08 20:59:27.61	32.02	23.75	-51.8	-55.9	3.7	0.00e+00	0	47	104	0	74	24130
2026-01-08 20:59:29.61	32.36	24.15	-50.8	-54.3	3.7	0.00e+00	0	47	104	0	73	21306
2026-01-08 20:59:31.62	32.72	24.57	-51.6	-55.8	3.7	0.00e+00	0	47	104	0	73	25132
2026-01-08 20:59:33.62	33.09	24.99	-52.1	-56.4	3.7	0.00e+00	0	47	104	0	74	25437
2026-01-08 20:59:35.63	33.47	25.41	-51.8	-55.5	3.7	0.00e+00	0	47	104	0	74	22930
2026-01-08 20:59:37.64	33.86	25.85	-51.4	-54.7	3.7	0.00e+00	0	47	104	0	73	22124
2026-01-08 20:59:39.64	34.27	26.29	-50.4	-53.2	3.7	0.00e+00	0	47	104	0	71	21011
2026-01-08 20:59:41.65	34.68	26.74	-51.5	-54.9	3.7	0.00e+00	0	47	104	0	73	22847
2026-01-08 20:59:43.74	35.13	27.22	-51.6	-55.4	3.7	0.00e+00	0	47	104	0	74	22699
2026-01-08 20:59:45.94	35.62	27.73	-51.8	-55.6	3.7	0.00e+00	0	47	104	0	74	23243
2026-01-08 20:59:47.95	36.08	28.20	-50.3	-53.2	3.7	0.00e+00	0	47	104	0	72	19714
2026-01-08 20:59:49.95	36.55	28.68	-50.5	-53.3	3.7	0.00e+00	0	47	104	0	72	20077
2026-01-08 20:59:51.96	37.04	29.18	-51.4	-54.7	3.7	0.00e+00	0	47	104	0	74	21073
2026-01-08 20:59:54.00	37.56	29.68	-51.8	-55.4	3.7	0.00e+00	0	47	104	0	74	22654
2026-01-08 20:59:56.07	38.10	30.21	-51.9	-55.5	3.7	0.00e+00	0	47	104	0	75	21845
2026-01-08 20:59:58.52	38.76	30.84	-52.6	-56.8	3.7	0.00e+00	0	47	104	0	75	25146
2026-01-08 21:00:00.53	39.33	31.37	-52.7	-57.0	3.7	0.00e+00	0	47	104	0	76	24393
2026-01-08 21:00:02.54	39.92	31.90	-52.5	-56.8	3.7	0.00e+00	0	47	104	0	76	23828
2026-01-08 21:00:04.54	40.52	32.45	-52.7	-57.3	3.7	0.00e+00	0	47	104	0	76	25137
2026-01-08 21:00:06.63	41.18	33.02	-52.4	-56.4	3.7	0.00e+00	0	47	104	0	76	22749
2026-01-08 21:00:08.65	41.84	33.59	-52.1	-56.0	3.7	0.00e+00	0	47	104	0	75	23039
2026-01-08 21:00:10.74	42.55	34.18	-52.3	-56.4	3.7	0.00e+00	0	47	104	0	75	24100
2026-01-08 21:00:12.74	43.25	34.76	-52.3	-56.2	3.7	0.00e+00	0	47	104	0	75	23648
2026-01-08 21:00:14.75	43.98	35.34	-52.6	-56.9	3.7	0.00e+00	0	47	104	0	75	25564
2026-01-08 21:00:16.75	44.74	35.94	-52.8	-57.2	3.7	0.00e+00	0	47	104	0	76	24946
2026-01-08 21:00:18.76	45.54	36.54	-52.4	-56.4	3.7	0.00e+00	0	47	104	0	76	22634
2026-01-08 21:00:20.76	46.35	37.14	-52.9	-57.4	3.7	0.00e+00	0	47	104	0	76	25580
2026-01-08 21:00:22.77	47.21	37.76	-52.5	-57.0	3.7	0.00e+00	0	47	104	0	76	24356
2026-01-08 21:00:24.99	48.20	38.45	-52.5	-57.1	3.7	0.00e+00	0	47	104	0	76	24578
2026-01-08 21:00:26.99	49.13	39.07	-52.7	-56.7	3.7	0.00e+00	0	47	104	0	76	23638
2026-01-08 21:00:29.00	50.10	39.71	-52.8	-56.9	3.7	0.00e+00	0	47	104	0	76	24014
2026-01-08 21:00:31.00	51.10	40.34	-52.8	-57.2	3.7	0.00e+00	0	47	104	0	76	24856
2026-01-08 21:00:33.10	52.20	41.01	-52.8	-57.1	3.7	0.00e+00	0	47	104	0	76	24612
2026-01-08 21:00:35.11	53.30	41.66	-53.0	-57.5	3.7	0.00e+00	0	47	104	0	76	25775
2026-01-08 21:00:37.12	54.45	42.30	-53.0	-57.6	3.6	0.00e+00	0	47	104	0	76	26115
2026-01-08 21:00:39.13	55.65	42.95	-53.0	-57.3	3.7	0.00e+00	0	47	104	0	76	25360
2026-01-08 21:00:41.14	56.89	43.59	-53.0	-57.6	3.7	0.00e+00	0	47	104	0	76	26073
2026-01-08 21:00:43.16	58.20	44.24	-53.0	-57.6	3.7	0.00e+00	0	47	104	0	76	26074
2026-01-08 21:00:45.37	59.69	44.94	-52.9	-57.3	3.7	0.00e+00	0	47	104	0	76	25316
2026-01-08 21:00:47.47	61.17	45.60	-53.1	-57.6	3.7	0.00e+00	0	47	104	0	76	26216
2026-01-08 21:00:49.48	62.65	46.22	-53.0	-57.3	3.7	0.00e+00	0	47	104	0	76	25308
2026-01-08 21:00:51.48	64.18	46.83	-53.1	-57.6	3.7	0.00e+00	0	47	104	0	76	26057
2026-01-08 21:00:53.49	65.78	47.42	-52.8	-57.0	3.7	0.00e+00	0	47	104	0	76	24259
2026-01-08 21:00:55.56	67.50	48.03	-53.1	-57.6	3.7	0.00e+00	0	48	104	0	76	26261
2026-01-08 21:00:57.56	69.22	48.59	-52.8	-57.2	3.7	0.00e+00	0	47	104	0	76	24923
2026-01-08 21:00:59.70	71.14	49.17	-53.0	-57.6	3.6	0.00e+00	0	47	104	0	76	26018
2026-01-08 21:01:01.71	73.00	49.69	-52.6	-56.8	3.7	0.00e+00	0	47	104	0	76	23740
2026-01-08 21:01:03.72	74.93	50.19	-53.0	-57.4	3.7	0.00e+00	0	47	104	0	76	25459
2026-01-08 21:01:05.72	76.92	50.65	-53.0	-57.4	3.7	0.00e+00	0	47	104	0	76	25594
2026-01-08 21:01:07.76	79.01	51.09	-52.8	-57.4	3.7	0.00e+00	0	47	104	0	76	25602
2026-01-08 21:01:09.86	81.22	51.51	-52.4	-57.3	3.7	0.00e+00	0	48	104	0	76	25215
2026-01-08 21:01:11.86	83.39	51.87	-52.2	-57.2	3.7	0.00e+00	0	47	104	0	76	24994
2026-01-08 21:01:13.86	85.60	52.19	-52.4	-57.2	3.7	0.00e+00	0	47	104	0	76	24857
2026-01-08 21:01:15.86	87.87	52.47	-52.5	-57.4	3.7	0.00e+00	0	47	104	0	76	25413
2026-01-08 21:01:17.87	90.18	52.70	-52.7	-57.4	3.7	0.00e+00	0	47	104	0	76	25510
2026-01-08 21:01:19.96	92.63	52.90	-52.1	-57.0	3.7	0.00e+00	0	48	104	0	76	24480
2026-01-08 21:01:21.96	94.99	53.04	-53.1	-57.6	3.7	0.00e+00	0	47	104	0	76	26171
2026-01-08 21:01:23.97	97.39	53.13	-53.0	-57.5	3.7	0.00e+00	0	47	104	0	76	25765
2026-01-08 21:01:26.34	100.23	53.17	-52.7	-57.4	3.7	0.00e+00	0	47	104	0	76	25568
2026-01-08 21:01:28.35	102.65	53.16	-53.0	-57.6	3.7	0.00e+00	0	47	104	0	76	26031
2026-01-08 21:01:30.36	105.05	53.09	-52.2	-57.1	3.7	0.00e+00	0	47	104	0	76	24613
2026-01-08 21:01:32.36	107.43	52.97	-52.9	-57.3	3.7	0.00e+00	0	48	104	0	76	25347
2026-01-08 21:01:34.37	109.80	52.81	-53.0	-57.2	3.7	0.00e+00	0	47	104	0	76	24975
2026-01-08 21:01:36.38	112.13	52.59	-52.9	-57.3	3.7	0.00e+00	0	47	104	0	76	25363
2026-01-08 21:01:38.60	114.67	52.30	-52.7	-57.1	3.7	0.00e+00	0	47	104	0	76	24682
2026-01-08 21:01:40.60	116.91	52.00	-52.8	-57.1	3.7	0.00e+00	0	48	104	0	76	24526
2026-01-08 21:01:42.61	119.11	51.65	-53.1	-57.5	3.7	0.00e+00	0	47	104	0	76	25915
2026-01-08 21:01:44.61	121.24	51.27	-52.8	-57.2	3.7	0.00e+00	0	48	104	0	76	24976
2026-01-08 21:01:46.62	123.33	50.85	-52.6	-57.0	3.7	0.00e+00	0	47	104	0	76	24315
2026-01-08 21:01:48.53	125.26	50.42	-53.0	-57.3	3.7	0.00e+00	0	48	104	0	76	25371
2026-01-08 21:01:50.54	127.23	49.93	-53.0	-57.3	3.7	0.00e+00	0	47	104	0	76	25342
2026-01-08 21:01:52.54	129.12	49.43	-52.8	-57.3	3.7	0.00e+00	0	47	104	0	76	25111
2026-01-08 21:01:54.55	130.96	48.89	-52.7	-56.9	3.7	0.00e+00	0	47	104	0	76	24048
2026-01-08 21:01:56.55	132.72	48.34	-52.6	-56.9	3.7	0.00e+00	0	47	104	0	76	24073
2026-01-08 21:01:58.56	134.43	47.76	-52.7	-56.9	3.7	0.00e+00	0	47	104	0	76	24128
2026-01-08 21:02:00.57	136.07	47.17	-52.8	-57.2	3.7	0.00e+00	0	47	104	0	76	24812
2026-01-08 21:02:02.57	137.65	46.56	-52.9	-57.2	3.7	0.00e+00	0	47	104	0	76	24907
2026-01-08 21:02:04.58	139.16	45.95	-53.0	-57.3	3.7	0.00e+00	0	48	104	0	76	25242
2026-01-08 21:02:06.59	140.62	45.32	-52.7	-57.0	3.7	0.00e+00	0	47	104	0	76	24382
2026-01-08 21:02:08.60	142.02	44.68	-52.4	-56.9	3.7	0.00e+00	0	47	104	0	76	24133
2026-01-08 21:02:10.60	143.36	44.04	-52.9	-57.3	3.7	0.00e+00	0	48	104	0	76	25260
2026-01-08 21:02:12.69	144.70	43.37	-52.8	-57.3	3.7	0.00e+00	0	47	104	0	76	25241
2026-01-08 21:02:14.70	145.93	42.72	-52.9	-57.3	3.7	0.00e+00	0	48	104	0	76	25121
2026-01-08 21:02:16.65	147.08	42.10	-52.6	-57.3	3.7	0.00e+00	0	47	104	0	76	25276
2026-01-08 21:02:18.66	148.22	41.45	-52.7	-57.2	3.7	0.00e+00	0	47	104	0	76	24955
2026-01-08 21:02:20.67	149.31	40.80	-52.8	-57.2	3.7	0.00e+00	0	48	104	0	76	25052
2026-01-08 21:02:22.68	150.35	40.16	-52.7	-57.2	3.7	0.00e+00	0	47	104	0	76	25022
2026-01-08 21:02:24.68	151.35	39.52	-52.9	-57.3	3.7	0.00e+00	0	47	104	0	76	25161
2026-01-08 21:02:26.69	152.32	38.88	-52.9	-57.4	3.7	0.00e+00	0	47	104	0	76	25469
2026-01-08 21:02:28.66	153.23	38.26	-52.6	-57.2	3.7	0.00e+00	0	48	104	0	76	24899
2026-01-08 21:02:30.67	154.12	37.64	-52.6	-57.2	3.7	0.00e+00	0	48	104	0	76	24919
2026-01-08 21:02:32.95	155.08	36.94	-52.9	-57.3	3.7	0.00e+00	0	47	104	0	76	25272
2026-01-08 21:02:34.99	155.91	36.32	-52.8	-57.3	3.7	0.00e+00	0	48	104	0	76	25316
2026-01-08 21:02:36.99	156.70	35.71	-52.2	-56.9	3.7	0.00e+00	0	48	104	0	76	24100
2026-01-08 21:02:39.00	157.45	35.12	-52.4	-57.0	3.7	0.00e+00	0	48	104	0	76	24282
2026-01-08 21:02:41.01	158.18	34.53	-52.6	-57.1	3.7	0.00e+00	0	47	104	0	76	24766
2026-01-08 21:02:43.02	158.88	33.95	-52.6	-57.2	3.6	0.00e+00	0	48	104	0	76	24879
2026-01-08 21:02:45.02	159.55	33.38	-52.1	-56.9	3.7	0.00e+00	0	47	104	0	75	25440
2026-01-08 21:02:47.03	160.21	32.82	-52.3	-57.1	3.7	0.00e+00	0	48	104	0	75	26066
2026-01-08 21:02:49.04	160.83	32.26	-52.2	-57.0	3.7	0.00e+00	0	47	104	0	75	25905
2026-01-08 21:02:51.04	161.44	31.72	-52.6	-57.2	3.7	0.00e+00	0	47	104	0	75	26369
2026-01-08 21:02:53.05	162.02	31.18	-52.7	-57.3	3.7	0.00e+00	0	47	104	0	76	25125
2026-01-08 21:02:55.05	162.58	30.65	-52.5	-57.0	3.7	0.00e+00	0	47	104	0	76	24497
2026-01-08 21:02:57.06	163.13	30.13	-52.3	-56.9	3.7	0.00e+00	0	47	104	0	76	24234
2026-01-08 21:02:59.08	163.66	29.62	-52.5	-57.0	3.7	0.00e+00	0	48	104	0	76	24279
2026-01-08 21:03:01.09	164.17	29.11	-52.7	-57.1	3.7	0.00e+00	0	47	104	0	76	24532
2026-01-08 21:03:03.08	164.66	28.62	-52.6	-57.1	3.7	0.00e+00	0	47	104	0	76	24576
2026-01-08 21:03:05.08	165.13	28.14	-52.4	-56.8	3.7	0.00e+00	0	47	104	0	76	23794
2026-01-08 21:03:07.09	165.59	27.66	-52.8	-57.2	3.7	0.00e+00	0	47	104	0	76	25041
2026-01-08 21:03:09.17	166.06	27.17	-52.6	-57.1	3.7	0.00e+00	0	48	104	0	76	24689
2026-01-08 21:03:11.38	166.53	26.67	-52.2	-56.8	3.7	0.00e+00	0	47	104	0	76	23791
2026-01-08 21:03:13.39	166.95	26.21	-52.2	-56.8	3.7	0.00e+00	0	47	104	0	76	23807
2026-01-08 21:03:15.39	167.35	25.77	-52.1	-56.6	3.7	0.00e+00	0	47	104	0	76	23169
2026-01-08 21:03:17.51	167.77	25.31	-51.7	-56.4	3.7	0.00e+00	0	48	104	0	75	23979
2026-01-08 21:03:19.52	168.15	24.88	-52.4	-57.0	3.7	0.00e+00	0	48	104	0	75	25820
2026-01-08 21:03:21.81	168.57	24.39	-52.6	-57.1	3.7	0.00e+00	0	47	104	0	75	26251
2026-01-08 21:03:23.85	168.94	23.97	-52.1	-56.5	3.7	0.00e+00	0	48	104	0	75	24398
2026-01-08 21:03:25.85	169.28	23.57	-52.4	-56.8	3.7	0.00e+00	0	47	104	0	75	25336
2026-01-08 21:03:27.86	169.62	23.17	-52.3	-56.9	3.7	0.00e+00	0	47	104	0	75	25553
2026-01-08 21:03:29.86	169.95	22.77	-51.5	-56.3	3.7	0.00e+00	0	47	104	0	74	25114
2026-01-08 21:03:31.87	170.27	22.39	-51.5	-56.2	3.6	0.00e+00	0	47	104	0	74	24934
2026-01-08 21:03:33.89	170.58	22.00	-51.8	-56.3	3.7	0.00e+00	0	47	104	0	74	25249
2026-01-08 21:03:35.96	170.89	21.62	-51.5	-56.1	3.7	0.00e+00	0	48	104	0	74	24786
2026-01-08 21:03:37.97	171.19	21.25	-51.3	-56.0	3.7	0.00e+00	0	47	104	0	74	24422
2026-01-08 21:03:39.98	171.48	20.89	-51.0	-55.5	3.7	0.00e+00	0	47	104	0	74	23043
2026-01-08 21:03:41.98	171.76	20.53	-50.9	-55.5	3.7	0.00e+00	0	47	104	0	73	24327
2026-01-08 21:03:43.99	172.03	20.18	-51.0	-55.8	3.7	0.00e+00	0	48	104	0	73	25260
2026-01-08 21:03:46.03	172.30	19.83	-51.1	-55.9	3.7	0.00e+00	0	47	104	0	73	25499
2026-01-08 21:03:48.04	172.56	19.49	-51.5	-56.3	3.7	0.00e+00	0	48	104	0	73	26646
2026-01-08 21:03:50.04	172.81	19.16	-51.7	-56.4	3.7	0.00e+00	0	48	104	0	74	25465
2026-01-08 21:03:52.05	173.06	18.83	-51.3	-55.6	3.7	0.00e+00	0	47	104	0	73	24734
2026-01-08 21:03:54.06	173.30	18.50	-51.0	-55.3	3.7	0.00e+00	0	47	104	0	73	23830
2026-01-08 21:03:56.06	173.53	18.19	-51.3	-55.6	3.7	0.00e+00	0	47	104	0	73	24768
2026-01-08 21:03:58.07	173.76	17.87	-51.6	-56.1	3.7	0.00e+00	0	48	104	0	73	26174
2026-01-08 21:04:00.11	173.99	17.56	-51.5	-56.2	3.7	0.00e+00	0	48	104	0	74	24853
2026-01-08 21:04:02.11	174.21	17.25	-51.3	-56.1	3.7	0.00e+00	0	47	104	0	74	24609
2026-01-08 21:04:04.12	174.43	16.95	-51.4	-56.3	3.7	0.00e+00	0	47	104	0	73	26722
2026-01-08 21:04:06.03	174.63	16.67	-51.3	-56.2	3.7	0.00e+00	0	47	104	0	73	26507
2026-01-08 21:04:08.03	174.83	16.38	-50.0	-54.7	3.7	0.00e+00	0	48	104	0	72	23614
2026-01-08 21:04:10.04	175.03	16.09	-50.0	-54.9	3.7	0.00e+00	0	47	104	0	71	25509
2026-01-08 21:04:12.05	175.23	15.81	-50.4	-55.2	3.7	0.00e+00	0	47	104	0	71	26517
2026-01-08 21:04:14.05	175.42	15.53	-50.6	-55.4	3.7	0.00e+00	0	48	104	0	71	26992
2026-01-08 21:04:16.06	175.61	15.26	-50.5	-55.3	3.7	0.00e+00	0	47	104	0	71	26710
2026-01-08 21:04:18.19	175.80	14.97	-50.6	-55.4	3.7	0.00e+00	0	48	104	0	71	26936
2026-01-08 21:04:20.42	176.00	14.67	-50.6	-55.4	3.7	0.00e+00	0	47	104	0	72	25453
2026-01-08 21:04:22.42	176.18	14.41	-50.9	-55.5	3.7	0.00e+00	0	47	104	0	72	25694
2026-01-08 21:04:24.43	176.35	14.15	-51.0	-55.6	3.7	0.00e+00	0	47	104	0	73	24600
2026-01-08 21:04:26.79	176.55	13.85	-50.7	-55.4	3.7	0.00e+00	0	48	104	0	73	24015
2026-01-08 21:04:28.95	176.73	13.57	-51.3	-55.8	3.7	0.00e+00	0	47	104	0	73	25178
2026-01-08 21:04:31.12	176.91	13.30	-51.5	-56.2	3.7	0.00e+00	0	47	104	0	73	26369
2026-01-08 21:04:33.33	177.08	13.03	-51.6	-56.3	3.7	0.00e+00	0	48	104	0	74	25244
2026-01-08 21:04:35.53	177.25	12.77	-51.6	-56.2	3.7	0.00e+00	0	47	104	0	73	26389
2026-01-08 21:04:37.70	177.41	12.51	-48.3	-53.4	3.7	0.00e+00	0	47	104	0	68	25678
2026-01-08 21:04:39.86	177.58	12.26	-46.7	-52.0	3.7	0.00e+00	0	48	104	0	65	25733
2026-01-08 21:04:41.89	177.72	12.02	-47.4	-52.6	3.7	0.00e+00	0	48	104	0	65	27707
2026-01-08 21:04:43.90	177.87	11.79	-47.0	-52.2	3.7	0.00e+00	0	48	104	0	65	26572
2026-01-08 21:04:45.90	178.01	11.56	-46.8	-52.0	3.7	0.00e+00	0	48	104	0	65	25834
2026-01-08 21:04:47.91	178.15	11.34	-47.1	-52.4	3.7	0.00e+00	0	47	104	0	65	26944
2026-01-08 21:04:49.92	178.28	11.12	-47.2	-52.4	3.7	0.00e+00	0	48	104	0	65	27056
2026-01-08 21:04:51.92	178.42	10.90	-48.1	-53.2	3.7	0.00e+00	0	47	104	0	66	28012
2026-01-08 21:04:54.27	178.57	10.64	-47.1	-52.3	3.7	0.00e+00	0	48	104	0	66	25299
2026-01-08 21:04:56.41	178.71	10.41	-47.4	-52.6	3.7	0.00e+00	0	48	104	0	66	26112
2026-01-08 21:04:58.58	178.84	10.19	-47.7	-52.9	3.7	0.00e+00	0	48	104	0	66	26969
2026-01-08 21:05:00.73	178.98	9.96	-49.8	-54.8	3.7	0.00e+00	0	47	104	0	70	26772
2026-01-08 21:05:02.89	179.11	9.74	-47.5	-52.7	3.7	0.00e+00	0	48	104	0	66	26448
2026-01-08 21:05:05.07	179.24	9.52	-47.3	-52.5	3.7	0.00e+00	0	48	104	0	66	25874
2026-01-08 21:05:07.06	179.35	9.32	-47.7	-53.0	3.7	0.00e+00	0	48	104	0	66	27403
2026-01-08 21:05:09.07	179.47	9.12	-47.9	-53.2	3.7	0.00e+00	0	48	104	0	66	28073
2026-01-08 21:05:11.16	179.59	8.91	-49.0	-54.1	3.7	0.00e+00	0	47	104	0	68	27684
2026-01-08 21:05:13.18	179.70	8.71	-51.2	-56.1	3.7	0.00e+00	0	48	104	0	73	26205
2026-01-08 21:05:15.10	179.81	8.53	-51.9	-56.6	3.7	0.00e+00	0	48	104	0	74	26129
2026-01-08 21:05:17.10	179.92	8.34	-52.5	-56.9	3.7	0.00e+00	0	48	104	0	75	25556
2026-01-08 21:05:19.11	180.02	8.15	-52.7	-57.3	3.7	0.00e+00	0	48	104	0	76	25105
2026-01-08 21:05:21.12	180.13	7.96	-52.8	-57.2	3.7	0.00e+00	0	47	104	0	76	24832
2026-01-08 21:05:23.13	180.23	7.77	-53.0	-57.4	3.7	0.00e+00	0	47	104	0	76	25486
2026-01-08 21:05:25.19	180.34	7.58	-53.0	-57.5	3.7	0.00e+00	0	47	104	0	76	25718
2026-01-08 21:05:27.08	180.43	7.41	-52.6	-57.3	3.7	0.00e+00	0	48	104	0	76	25303
2026-01-08 21:05:29.09	180.53	7.23	-52.6	-57.3	3.7	0.00e+00	0	47	104	0	77	23812
2026-01-08 21:05:31.10	180.63	7.05	-53.2	-57.7	3.7	0.00e+00	0	48	104	0	76	26370
2026-01-08 21:05:33.11	180.73	6.87	-53.1	-57.4	3.7	0.00e+00	0	48	104	0	77	24140
2026-01-08 21:05:35.12	180.82	6.70	-52.7	-57.0	3.7	0.00e+00	0	47	104	0	77	23070
2026-01-08 21:05:37.13	180.91	6.52	-52.7	-57.2	3.7	0.00e+00	0	48	104	0	76	25081
2026-01-08 21:05:39.23	181.01	6.34	-52.0	-56.7	3.7	0.00e+00	0	47	104	0	75	25064
2026-01-08 21:05:41.30	181.11	6.16	-52.1	-56.7	3.7	0.00e+00	0	47	104	0	75	25062
2026-01-08 21:05:43.31	181.20	5.99	-52.1	-56.7	3.7	0.00e+00	0	48	104	0	75	25043
2026-01-08 21:05:45.32	181.28	5.82	-52.1	-56.7	3.7	0.00e+00	0	47	104	0	75	25035
2026-01-08 21:05:47.33	181.37	5.66	-52.1	-56.7	3.7	0.00e+00	0	47	104	0	75	25018
2026-01-08 21:05:49.34	181.46	5.49	-52.1	-56.7	3.7	0.00e+00	0	47	104	0	75	25030
2026-01-08 21:05:51.35	181.54	5.33	-52.1	-56.7	3.7	0.00e+00	0	48	104	0	75	24900
2026-01-08 21:05:53.36	181.63	5.16	-52.1	-56.7	3.7	0.00e+00	0	47	104	0	75	24962
2026-01-08 21:05:55.37	181.71	5.00	-52.1	-56.7	3.7	0.00e+00	0	47	104	0	75	24966

#Closed at: 2026-01-08 21:05:56
#Recorded file [0 MB]: D:/Data/31040_260108_235655.dat