passes_logs/2026/01/08/T1/T1__20260108_160603_FENGYUN_3E_rec.log

#Pass ID: 20260108_160603_FENGYUN 3E
#Satellite: FENGYUN 3E
#Configuration: FENGYUN 3E
#almurnet v.1.7.20251203
#Start time: 2026-01-08 16:06:04

#Version: 2.0.20230620
#Station: T1
#Location: 37.570604 lon 55.790049 lat
#TLE: 1 49008U 21062A   26007.88844255 -.00000338  00000+0 -13865-3 0  9992
#TLE: 2 49008  98.7481  13.0996 0001694 151.5348 208.5921 14.19883289233834

#Time	Az	El	Level	Level2	SNR	BER	BlckErr	Temp	State	Recorded	gain1	gain2
2026-01-08 16:06:04.06	224.11	4.99	-49.0	-60.3	3.8	8.46e-01	0	41	0	0	67	14026
2026-01-08 16:06:07.07	224.42	5.15	-49.2	-60.3	3.8	8.48e-01	0	41	104	0	67	13980
2026-01-08 16:06:10.09	224.74	5.30	-48.9	-60.4	3.8	8.47e-01	0	41	104	0	67	14049
2026-01-08 16:06:13.10	225.07	5.46	-48.6	-60.3	3.8	8.46e-01	0	41	104	0	67	13986
2026-01-08 16:06:16.11	225.39	5.62	-49.0	-60.2	3.8	8.46e-01	0	42	104	0	67	13815
2026-01-08 16:06:19.12	225.72	5.78	-48.9	-60.1	3.8	8.46e-01	0	42	104	0	67	13696
2026-01-08 16:06:22.14	226.06	5.94	-49.2	-60.2	3.8	8.47e-01	0	42	104	0	67	13879
2026-01-08 16:06:25.15	226.39	6.10	-48.9	-60.2	3.8	8.47e-01	0	42	104	0	67	13868
2026-01-08 16:06:28.16	226.73	6.25	-48.9	-60.3	3.8	8.46e-01	0	42	104	0	67	13945
2026-01-08 16:06:31.17	227.08	6.41	-48.8	-60.2	3.8	8.47e-01	0	42	104	0	67	13805
2026-01-08 16:06:34.18	227.42	6.57	-48.8	-60.0	3.8	8.48e-01	0	42	104	0	67	13549
2026-01-08 16:06:37.20	227.77	6.73	-48.9	-59.7	3.8	8.47e-01	0	42	104	0	67	12995
2026-01-08 16:06:40.21	228.13	6.89	-48.8	-59.4	3.8	8.45e-01	0	43	104	0	67	12550
2026-01-08 16:06:43.22	228.49	7.05	-48.9	-59.3	3.8	8.46e-01	0	42	104	0	67	12466
2026-01-08 16:06:46.24	228.85	7.21	-49.0	-60.2	3.8	8.48e-01	0	42	104	0	67	13856
2026-01-08 16:06:49.25	229.22	7.37	-48.8	-59.2	3.8	8.47e-01	0	43	104	0	67	12313
2026-01-08 16:06:52.26	229.59	7.52	-48.8	-59.7	3.8	8.48e-01	0	43	104	0	67	12976
2026-01-08 16:06:55.28	229.96	7.68	-48.6	-60.1	3.8	8.47e-01	0	43	104	0	67	13590
2026-01-08 16:06:58.29	230.34	7.84	-48.7	-59.0	3.8	8.47e-01	0	43	104	0	67	12034
2026-01-08 16:07:01.30	230.72	8.00	-48.8	-60.1	3.8	8.47e-01	0	43	104	0	67	13591
2026-01-08 16:07:04.31	231.11	8.16	-48.6	-57.6	3.9	8.46e-01	0	43	104	0	67	10226
2026-01-08 16:07:07.33	231.50	8.32	-48.8	-59.9	3.8	8.46e-01	0	43	104	0	67	13285
2026-01-08 16:07:10.34	231.89	8.48	-46.1	-49.6	9.6	3.58e-02	0	43	0	6291456	62	5411
2026-01-08 16:07:13.35	232.29	8.64	-41.3	-42.8	16.2	0.00e+00	0	43	0	28311552	53	4178
2026-01-08 16:07:16.36	232.69	8.79	-40.6	-41.9	17.3	0.00e+00	0	43	0	50331648	51	4202
2026-01-08 16:07:19.37	233.10	8.95	-42.6	-44.4	14.7	0.00e+00	0	43	0	72351744	54	4714
2026-01-08 16:07:22.38	233.51	9.11	-48.8	-57.7	3.8	8.46e-01	0	43	104	88080384	67	10295
2026-01-08 16:07:25.35	233.92	9.26	-45.6	-48.8	9.9	8.09e-02	0	43	0	104857600	62	4967
2026-01-08 16:07:28.49	234.36	9.43	-43.9	-46.0	13.3	2.63e-05	0	43	0	127926272	58	4505
2026-01-08 16:07:31.36	234.76	9.58	-43.0	-44.7	14.5	1.10e-06	0	43	0	148897792	56	4370
2026-01-08 16:07:34.51	235.21	9.74	-42.3	-43.8	15.4	0.00e+00	0	43	0	170917888	55	4167
2026-01-08 16:07:37.40	235.62	9.89	-41.0	-42.4	16.8	0.00e+00	0	43	0	191889408	52	4196
2026-01-08 16:07:40.61	236.09	10.06	-40.7	-41.9	17.3	0.00e+00	0	43	0	214958080	51	4219
2026-01-08 16:07:43.48	236.51	10.20	-40.8	-42.1	17.2	0.00e+00	0	43	0	235929600	51	4305
2026-01-08 16:07:46.63	236.98	10.36	-39.9	-41.0	18.2	0.00e+00	0	43	0	258998272	50	4037
2026-01-08 16:07:49.50	237.41	10.51	-39.9	-41.1	18.2	0.00e+00	0	43	0	279969792	50	4060
2026-01-08 16:07:52.65	237.88	10.67	-39.4	-40.5	18.7	0.00e+00	0	43	0	301989888	49	4045
2026-01-08 16:07:55.51	238.32	10.81	-39.2	-40.2	19.0	0.00e+00	0	44	0	322961408	49	3909
2026-01-08 16:07:58.66	238.81	10.97	-39.0	-40.0	19.2	0.00e+00	0	43	0	346030080	48	4049
2026-01-08 16:08:01.53	239.26	11.12	-39.1	-40.2	19.1	0.00e+00	0	43	0	365953024	48	4102
2026-01-08 16:08:04.68	239.75	11.27	-38.9	-40.0	19.2	0.00e+00	0	44	0	389021696	48	4036
2026-01-08 16:08:07.55	240.21	11.42	-38.9	-39.9	19.3	0.00e+00	0	44	0	409993216	48	3997
2026-01-08 16:08:10.70	240.71	11.57	-38.9	-40.0	19.3	0.00e+00	0	43	0	432013312	48	4031
2026-01-08 16:08:13.63	241.19	11.71	-38.7	-39.8	19.5	0.00e+00	0	44	0	454033408	48	3937
2026-01-08 16:08:16.78	241.70	11.87	-38.6	-39.6	19.6	0.00e+00	0	43	0	476053504	48	3856
2026-01-08 16:08:19.84	242.21	12.02	-38.5	-39.6	19.5	0.00e+00	0	43	0	498073600	47	4053
2026-01-08 16:08:22.99	242.74	12.17	-38.6	-39.7	19.3	0.00e+00	0	43	0	521142272	47	4111
2026-01-08 16:08:25.85	243.22	12.30	-38.4	-39.5	19.5	0.00e+00	0	43	0	542113792	47	4022
2026-01-08 16:08:29.01	243.76	12.45	-38.4	-39.5	19.5	0.00e+00	0	44	0	564133888	47	4017
2026-01-08 16:08:31.87	244.25	12.58	-38.3	-39.4	19.6	0.00e+00	0	43	0	585105408	47	3976
2026-01-08 16:08:35.17	244.82	12.74	-38.5	-39.5	19.5	0.00e+00	0	43	0	609222656	47	4029
2026-01-08 16:08:37.89	245.30	12.86	-38.2	-39.3	19.7	0.00e+00	0	43	0	629145600	47	3917
2026-01-08 16:08:41.19	245.88	13.01	-38.1	-39.2	19.8	0.00e+00	0	44	0	652214272	46	4133
2026-01-08 16:08:43.91	246.37	13.13	-38.3	-39.4	19.7	0.00e+00	0	43	0	672137216	46	4210
2026-01-08 16:08:47.21	246.96	13.28	-38.2	-39.3	19.8	0.00e+00	0	43	0	696254464	46	4150
2026-01-08 16:08:50.01	247.47	13.40	-38.1	-39.1	19.9	0.00e+00	0	43	0	716177408	46	4081
2026-01-08 16:08:53.30	248.07	13.54	-38.0	-39.1	20.0	0.00e+00	0	43	0	740294656	46	4066
2026-01-08 16:08:56.02	248.57	13.66	-38.0	-39.0	20.0	0.00e+00	0	44	0	760217600	46	4036
2026-01-08 16:08:59.32	249.18	13.80	-37.9	-38.9	20.2	0.00e+00	0	44	0	783286272	46	3966
2026-01-08 16:09:02.04	249.69	13.91	-37.8	-38.8	20.3	0.00e+00	0	44	0	803209216	46	3920
2026-01-08 16:09:05.33	250.32	14.04	-37.7	-38.7	20.3	0.00e+00	0	44	0	827326464	46	3907
2026-01-08 16:09:08.18	250.86	14.15	-37.8	-38.8	20.2	0.00e+00	0	44	0	847249408	46	3951
2026-01-08 16:09:11.63	251.52	14.29	-37.6	-38.6	20.4	0.00e+00	0	43	0	872415232	46	3859
2026-01-08 16:09:14.67	252.11	14.41	-37.8	-38.8	20.3	0.00e+00	0	44	0	894435328	46	3943
2026-01-08 16:09:18.33	252.83	14.54	-37.9	-39.0	20.1	0.00e+00	0	43	0	920649728	46	4005
2026-01-08 16:09:21.07	253.37	14.64	-37.9	-38.9	20.1	0.00e+00	0	44	0	940572672	46	3988
2026-01-08 16:09:24.91	254.13	14.78	-37.8	-38.8	20.3	0.00e+00	0	44	0	967835648	46	3926
2026-01-08 16:09:27.66	254.68	14.88	-38.0	-39.0	20.1	0.00e+00	0	44	0	987758592	46	4037
2026-01-08 16:09:31.65	255.48	15.02	-37.9	-38.9	20.2	0.00e+00	0	43	0	1017118720	46	3971
2026-01-08 16:09:34.43	256.04	15.11	-37.8	-38.8	20.3	0.00e+00	0	43	0	1037041664	46	3928
2026-01-08 16:09:38.23	256.82	15.23	-37.6	-38.6	20.4	0.00e+00	0	43	0	1064304640	45	4080
2026-01-08 16:09:41.06	257.40	15.32	-37.7	-38.7	20.4	0.00e+00	0	43	0	1084227584	45	4102
2026-01-08 16:09:44.36	258.09	15.42	-37.6	-38.5	20.5	0.00e+00	0	43	0	1108344832	45	4048
2026-01-08 16:09:47.10	258.66	15.50	-37.6	-38.5	20.5	0.00e+00	0	43	0	1128267776	45	4046
2026-01-08 16:09:50.55	259.38	15.59	-37.7	-38.7	20.3	0.00e+00	0	43	0	1153433600	45	4141
2026-01-08 16:09:53.28	259.95	15.67	-37.6	-38.6	20.4	0.00e+00	0	44	0	1173356544	45	4082
2026-01-08 16:09:56.57	260.65	15.75	-37.3	-38.3	20.7	0.00e+00	0	44	0	1197473792	45	3939
2026-01-08 16:09:59.30	261.23	15.82	-37.4	-38.4	20.6	0.00e+00	0	43	0	1216348160	45	3985
2026-01-08 16:10:02.61	261.94	15.90	-37.5	-38.5	20.5	0.00e+00	0	43	0	1240465408	45	4025
2026-01-08 16:10:05.47	262.55	15.97	-37.6	-38.6	20.6	0.00e+00	0	43	0	1261436928	45	4055
2026-01-08 16:10:08.62	263.23	16.04	-37.6	-38.6	20.6	0.00e+00	0	43	0	1283457024	45	4057
2026-01-08 16:10:11.49	263.85	16.10	-37.6	-38.6	20.5	0.00e+00	0	43	0	1304428544	45	4067
2026-01-08 16:10:14.56	264.52	16.16	-37.5	-38.5	20.6	0.00e+00	0	43	0	1326448640	45	4031
2026-01-08 16:10:17.57	265.18	16.21	-37.7	-38.6	20.4	0.00e+00	0	43	0	1348468736	45	4083
2026-01-08 16:10:21.00	265.93	16.27	-37.6	-38.5	20.5	0.00e+00	0	43	0	1373634560	45	4050
2026-01-08 16:10:23.71	266.52	16.32	-37.4	-38.4	20.7	0.00e+00	0	43	0	1392508928	45	3976
2026-01-08 16:10:27.01	267.25	16.37	-37.4	-38.3	20.8	0.00e+00	0	43	0	1416626176	45	3956
2026-01-08 16:10:29.78	267.86	16.41	-37.4	-38.4	20.7	0.00e+00	0	43	0	1436549120	45	3983
2026-01-08 16:10:32.99	268.57	16.45	-37.5	-38.5	20.6	0.00e+00	0	43	0	1459617792	45	4025
2026-01-08 16:10:36.15	269.28	16.48	-37.5	-38.5	20.5	0.00e+00	0	43	0	1482686464	45	4035
2026-01-08 16:10:39.01	269.91	16.51	-37.5	-38.4	20.6	0.00e+00	0	44	0	1502609408	45	3994
2026-01-08 16:10:42.16	270.62	16.54	-37.3	-38.3	20.7	0.00e+00	0	43	0	1525678080	45	3933
2026-01-08 16:10:45.23	271.30	16.56	-37.2	-38.2	20.9	0.00e+00	0	44	0	1547698176	45	3888
2026-01-08 16:10:48.82	272.10	16.58	-37.3	-38.3	20.8	0.00e+00	0	43	0	1573912576	45	3923
2026-01-08 16:10:51.54	272.71	16.60	-37.4	-38.3	20.7	0.00e+00	0	43	0	1593835520	45	3935
2026-01-08 16:10:54.84	273.45	16.61	-37.4	-38.4	20.7	0.00e+00	0	43	0	1617952768	45	3963
2026-01-08 16:10:57.58	274.07	16.62	-37.5	-38.5	20.6	0.00e+00	0	43	0	1636827136	45	4017
2026-01-08 16:11:01.14	274.86	16.62	-37.5	-38.5	20.6	0.00e+00	0	43	0	1663041536	45	4018
2026-01-08 16:11:04.27	275.57	16.62	-37.4	-38.3	20.7	0.00e+00	0	43	0	1686110208	45	3952
2026-01-08 16:11:07.14	276.21	16.61	-37.3	-38.2	20.8	0.00e+00	0	43	0	1706033152	45	3909
2026-01-08 16:11:10.43	276.95	16.60	-37.1	-38.0	21.0	0.00e+00	0	43	0	1730150400	45	3821
2026-01-08 16:11:13.15	277.56	16.59	-37.2	-38.1	20.9	0.00e+00	0	43	0	1750073344	45	3855
2026-01-08 16:11:16.45	278.29	16.58	-37.4	-38.4	20.7	0.00e+00	0	43	0	1773142016	45	3963
2026-01-08 16:11:19.17	278.90	16.56	-37.5	-38.5	20.6	0.00e+00	0	43	0	1793064960	45	4015
2026-01-08 16:11:22.64	279.67	16.53	-37.5	-38.5	20.6	0.00e+00	0	43	0	1818230784	45	4025
2026-01-08 16:11:25.36	280.28	16.51	-37.6	-38.6	20.5	0.00e+00	0	43	0	1838153728	45	4075
2026-01-08 16:11:28.79	281.04	16.47	-37.4	-38.4	20.6	0.00e+00	0	43	0	1862270976	45	3970
2026-01-08 16:11:31.51	281.65	16.44	-37.4	-38.4	20.7	0.00e+00	0	43	0	1882193920	45	3962
2026-01-08 16:11:34.81	282.37	16.40	-37.5	-38.4	20.6	0.00e+00	0	43	0	1906311168	45	3995
2026-01-08 16:11:37.53	282.97	16.36	-37.7	-38.7	20.4	0.00e+00	0	43	0	1925185536	45	4111
2026-01-08 16:11:40.82	283.70	16.31	-37.7	-38.7	20.4	0.00e+00	0	43	0	1949302784	45	4106
2026-01-08 16:11:43.55	284.30	16.26	-37.5	-38.4	20.6	0.00e+00	0	43	0	1969225728	45	4000
2026-01-08 16:11:46.84	285.02	16.21	-37.5	-38.4	20.6	0.00e+00	0	43	0	1993342976	45	4004
2026-01-08 16:11:49.56	285.61	16.16	-37.7	-38.7	20.2	0.00e+00	0	44	0	2012217344	45	4128
2026-01-08 16:11:52.84	286.32	16.09	-37.6	-38.6	20.5	0.00e+00	0	43	0	2036334592	45	4074
2026-01-08 16:11:55.71	286.94	16.03	-37.7	-38.7	20.4	0.00e+00	0	43	0	2056257536	45	4109
2026-01-08 16:11:58.85	287.61	15.96	-37.8	-38.8	20.2	0.00e+00	0	43	0	2079326208	45	4173
2026-01-08 16:12:01.72	288.23	15.90	-37.8	-38.8	20.3	0.00e+00	0	43	0	2100297728	45	4161
2026-01-08 16:12:05.28	288.99	15.81	-37.9	-38.9	20.2	0.00e+00	0	43	0	2126512128	45	4207
2026-01-08 16:12:08.31	289.63	15.73	-37.7	-38.6	20.4	0.00e+00	0	43	0	2147483648	45	4087
2026-01-08 16:12:11.61	290.32	15.65	-37.8	-38.7	20.3	0.00e+00	0	43	0	2171600896	45	4134
2026-01-08 16:12:14.52	290.93	15.57	-37.9	-38.9	20.2	0.00e+00	0	43	0	2192572416	45	4194
2026-01-08 16:12:17.53	291.56	15.48	-37.9	-38.8	20.2	0.00e+00	0	43	0	2214592512	45	4191
2026-01-08 16:12:20.54	292.18	15.39	-37.9	-38.9	20.1	0.00e+00	0	43	0	2236612608	45	4200
2026-01-08 16:12:23.55	292.80	15.30	-38.0	-39.0	20.0	0.00e+00	0	43	0	2257584128	45	4278
2026-01-08 16:12:26.56	293.42	15.21	-38.3	-39.3	19.8	0.00e+00	0	43	0	2279604224	45	4416
2026-01-08 16:12:29.56	294.03	15.11	-38.2	-39.2	19.9	0.00e+00	0	43	0	2300575744	46	4114
2026-01-08 16:12:32.57	294.64	15.01	-38.1	-39.1	19.9	0.00e+00	0	43	0	2322595840	46	4085
2026-01-08 16:12:35.58	295.24	14.91	-38.1	-39.1	19.8	0.00e+00	0	43	0	2344615936	46	4098
2026-01-08 16:12:38.59	295.84	14.81	-38.2	-39.2	19.8	0.00e+00	0	43	0	2366636032	46	4126
2026-01-08 16:12:41.60	296.44	14.70	-38.2	-39.2	19.8	0.00e+00	0	43	0	2387607552	46	4142
2026-01-08 16:12:44.61	297.03	14.59	-38.3	-39.3	19.8	0.00e+00	0	43	0	2409627648	46	4153
2026-01-08 16:12:48.30	297.75	14.45	-38.3	-39.3	19.7	0.00e+00	0	43	0	2436890624	46	4161
2026-01-08 16:12:51.03	298.28	14.35	-38.4	-39.4	19.6	0.00e+00	0	43	0	2455764992	46	4231
2026-01-08 16:12:54.64	298.97	14.21	-38.6	-39.6	19.4	0.00e+00	0	43	0	2481979392	46	4326
2026-01-08 16:12:57.36	299.49	14.10	-38.7	-39.8	19.3	0.00e+00	0	43	0	2501902336	46	4395
2026-01-08 16:13:00.76	300.13	13.97	-38.8	-39.9	19.1	0.00e+00	0	43	0	2526019584	47	4218
2026-01-08 16:13:03.48	300.64	13.86	-38.6	-39.6	19.4	0.00e+00	0	43	0	2545942528	47	4070
2026-01-08 16:13:06.78	301.26	13.72	-38.7	-39.7	19.2	0.00e+00	0	43	0	2570059776	47	4136
2026-01-08 16:13:09.62	301.78	13.60	-38.5	-39.6	19.4	0.00e+00	0	43	0	2591031296	47	4054
2026-01-08 16:13:12.77	302.36	13.47	-38.5	-39.6	19.4	0.00e+00	0	43	0	2613051392	47	4056
2026-01-08 16:13:15.64	302.88	13.34	-38.6	-39.7	19.3	0.00e+00	0	43	0	2634022912	47	4115
2026-01-08 16:13:18.95	303.47	13.20	-38.5	-39.5	19.4	0.00e+00	0	43	0	2658140160	47	4041
2026-01-08 16:13:21.67	303.95	13.08	-38.5	-39.6	19.4	0.00e+00	0	43	0	2677014528	47	4068
2026-01-08 16:13:25.27	304.59	12.92	-38.7	-39.8	19.1	0.00e+00	0	43	0	2703228928	47	4181
2026-01-08 16:13:28.04	305.07	12.79	-38.8	-39.9	19.1	0.00e+00	0	43	0	2723151872	47	4222
2026-01-08 16:13:31.71	305.71	12.63	-38.9	-40.0	18.9	0.00e+00	0	43	0	2749366272	47	4281
2026-01-08 16:13:34.48	306.18	12.50	-38.8	-39.9	19.0	0.00e+00	0	43	0	2770337792	47	4225
2026-01-08 16:13:37.77	306.74	12.35	-38.9	-39.9	19.0	0.00e+00	0	43	0	2793406464	47	4240
2026-01-08 16:13:40.56	307.21	12.21	-39.0	-40.1	18.9	0.00e+00	0	43	0	2813329408	47	4312
2026-01-08 16:13:43.86	307.76	12.06	-39.0	-40.1	18.8	0.00e+00	0	43	0	2837446656	47	4319
2026-01-08 16:13:46.58	308.21	11.93	-39.1	-40.2	18.7	0.00e+00	0	43	0	2857369600	47	4380
2026-01-08 16:13:49.88	308.75	11.77	-39.1	-40.3	18.7	0.00e+00	0	43	0	2881486848	47	4401
2026-01-08 16:13:52.60	309.19	11.64	-39.0	-40.1	18.8	0.00e+00	0	43	0	2900361216	47	4323
2026-01-08 16:13:55.90	309.72	11.48	-39.2	-40.3	18.6	0.00e+00	0	43	0	2924478464	47	4407
2026-01-08 16:13:58.62	310.15	11.34	-39.2	-40.3	18.6	0.00e+00	0	43	0	2944401408	47	4401
2026-01-08 16:14:02.28	310.72	11.16	-39.4	-40.5	18.6	0.00e+00	0	43	0	2970615808	48	4289
2026-01-08 16:14:05.03	311.15	11.03	-39.4	-40.5	18.7	0.00e+00	0	43	0	2990538752	48	4245
2026-01-08 16:14:08.77	311.73	10.84	-39.2	-40.3	18.9	0.00e+00	0	43	0	3017801728	48	4163
2026-01-08 16:14:11.56	312.15	10.70	-39.2	-40.3	18.9	0.00e+00	0	43	0	3037724672	48	4169
2026-01-08 16:14:15.04	312.68	10.53	-39.3	-40.5	18.6	0.00e+00	0	43	0	3062890496	48	4271
2026-01-08 16:14:18.05	313.12	10.37	-39.6	-40.8	18.3	0.00e+00	0	43	0	3083862016	48	4437
2026-01-08 16:14:21.06	313.57	10.22	-39.6	-40.7	18.4	0.00e+00	0	43	0	3105882112	48	4386
2026-01-08 16:14:24.07	314.01	10.07	-39.8	-41.0	18.1	0.00e+00	0	43	0	3127902208	49	4283
2026-01-08 16:14:27.08	314.44	9.91	-39.7	-40.9	18.2	0.00e+00	0	43	0	3149922304	49	4208
2026-01-08 16:14:30.09	314.87	9.76	-39.5	-40.7	18.4	0.00e+00	0	43	0	3170893824	49	4132
2026-01-08 16:14:33.10	315.30	9.61	-39.3	-40.4	18.7	0.00e+00	0	43	0	3192913920	49	3988
2026-01-08 16:14:36.18	315.73	9.45	-39.3	-40.4	18.7	0.00e+00	0	43	0	3214934016	49	3967
2026-01-08 16:14:39.05	316.13	9.30	-39.5	-40.7	18.4	0.00e+00	0	43	0	3235905536	49	4116
2026-01-08 16:14:42.20	316.56	9.14	-39.8	-41.0	18.1	0.00e+00	0	43	0	3258974208	49	4256
2026-01-08 16:14:45.36	316.99	8.97	-49.5	-59.6	3.8	8.46e-01	0	43	104	3277848576	68	12183
2026-01-08 16:14:48.23	317.38	8.82	-49.9	-60.8	3.8	8.47e-01	0	43	104	3277848576	69	13215
2026-01-08 16:14:51.43	317.80	8.66	-49.8	-61.0	3.8	8.47e-01	0	43	104	3277848576	69	13458
2026-01-08 16:14:54.33	318.18	8.51	-50.2	-61.0	3.8	8.46e-01	0	43	104	3277848576	69	13520
2026-01-08 16:14:57.54	318.60	8.34	-50.2	-61.0	3.8	8.47e-01	0	43	104	3277848576	70	12791
2026-01-08 16:15:00.46	318.98	8.19	-50.2	-61.1	3.8	8.47e-01	0	43	104	3277848576	70	12828
2026-01-08 16:15:03.69	319.39	8.02	-50.0	-61.0	3.8	8.47e-01	0	43	104	3277848576	70	12783
2026-01-08 16:15:06.59	319.75	7.87	-49.8	-61.0	3.8	8.46e-01	0	43	104	3277848576	70	12676
2026-01-08 16:15:09.75	320.15	7.70	-49.7	-60.9	3.8	8.48e-01	0	43	104	3277848576	70	12663
2026-01-08 16:15:12.62	320.50	7.55	-49.8	-61.0	3.8	8.47e-01	0	43	104	3277848576	70	12698
2026-01-08 16:15:15.77	320.89	7.39	-49.7	-60.9	3.8	8.46e-01	0	43	104	3277848576	70	12550
2026-01-08 16:15:18.65	321.24	7.24	-49.8	-60.9	3.8	8.47e-01	0	43	104	3277848576	70	12571
2026-01-08 16:15:21.80	321.61	7.08	-49.7	-60.9	3.8	8.46e-01	0	43	104	3277848576	70	12635
2026-01-08 16:15:24.67	321.95	6.93	-49.7	-60.9	3.8	8.46e-01	0	43	104	3277848576	70	12585
2026-01-08 16:15:27.83	322.32	6.76	-49.7	-60.8	3.8	8.48e-01	0	43	104	3277848576	70	12497
2026-01-08 16:15:30.70	322.66	6.61	-49.7	-60.9	3.8	8.48e-01	0	43	104	3277848576	70	12654
2026-01-08 16:15:33.85	323.02	6.45	-49.7	-60.8	3.8	8.47e-01	0	43	104	3277848576	70	12500
2026-01-08 16:15:36.72	323.35	6.30	-49.7	-60.9	3.8	8.47e-01	0	43	104	3277848576	70	12617
2026-01-08 16:15:39.88	323.70	6.13	-49.7	-60.9	3.8	8.46e-01	0	43	104	3277848576	70	12572
2026-01-08 16:15:42.75	324.02	5.98	-49.7	-61.0	3.8	8.47e-01	0	43	104	3277848576	70	12679
2026-01-08 16:15:45.90	324.37	5.82	-49.7	-60.9	3.8	8.45e-01	0	43	104	3277848576	70	12579
2026-01-08 16:15:48.77	324.68	5.67	-49.7	-60.9	3.8	8.47e-01	0	43	104	3277848576	70	12625
2026-01-08 16:15:51.93	325.02	5.51	-49.7	-60.9	3.8	8.46e-01	0	43	104	3277848576	70	12570
2026-01-08 16:15:54.80	325.33	5.36	-49.8	-60.9	3.8	8.47e-01	0	43	104	3277848576	70	12599
2026-01-08 16:15:57.95	325.66	5.20	-49.7	-60.9	3.8	8.48e-01	0	43	104	3277848576	70	12533
2026-01-08 16:16:00.82	325.96	5.05	-49.7	-60.9	3.8	8.46e-01	0	43	104	3277848576	70	12578

#Closed at: 2026-01-08 16:16:02
#Recorded file [3277 MB]: D:/Data/31040_260108_190604.dat