passes_logs/2026/01/08/T1/T1__20260108_024701_FENGYUN_3D_rec.log

#Pass ID: 20260108_024701_FENGYUN 3D
#Satellite: FENGYUN 3D
#Configuration: FENGYUN 3D
#almurnet v.1.7.20251203
#Start time: 2026-01-08 02:47:02

#Version: 2.0.20230620
#Station: T1
#Location: 37.570604 lon 55.790049 lat
#TLE: 1 43010U 17072A   26007.88538054  .00000150  00000+0  92867-4 0  9992
#TLE: 2 43010  98.9932 339.5913 0002105 121.8756 238.2625 14.19694026422245

#Time	Az	El	Level	Level2	SNR	BER	BlckErr	Temp	State	Recorded	gain1	gain2
2026-01-08 02:47:02.86	10.58	5.07	-49.3	-63.0	3.8	8.47e-01	0	40	0	0	69	18195
2026-01-08 02:47:05.87	10.43	5.27	-49.4	-63.0	3.8	8.47e-01	0	41	104	0	69	18196
2026-01-08 02:47:08.88	10.28	5.48	-49.4	-63.0	3.8	8.47e-01	0	41	104	0	69	18279
2026-01-08 02:47:11.89	10.12	5.68	-49.3	-63.0	3.8	8.47e-01	0	41	104	0	69	18099
2026-01-08 02:47:14.90	9.97	5.89	-49.4	-62.9	3.8	8.46e-01	0	41	104	0	69	18067
2026-01-08 02:47:17.92	9.81	6.10	-49.3	-62.9	3.8	8.47e-01	0	41	104	0	69	18037
2026-01-08 02:47:20.93	9.64	6.31	-49.3	-63.0	3.8	8.47e-01	0	41	104	0	69	18147
2026-01-08 02:47:23.94	9.48	6.52	-49.3	-62.9	3.8	8.46e-01	0	41	104	0	69	17986
2026-01-08 02:47:26.96	9.31	6.74	-49.3	-62.3	3.8	8.47e-01	0	41	104	0	69	16829
2026-01-08 02:47:29.97	9.14	6.95	-49.2	-60.8	3.9	8.45e-01	0	41	104	0	69	14101
2026-01-08 02:47:32.98	8.97	7.17	-49.0	-59.0	4.3	8.35e-01	0	42	0	0	69	11543
2026-01-08 02:47:36.00	8.79	7.39	-48.9	-58.7	4.4	8.24e-01	0	42	0	0	69	11082
2026-01-08 02:47:39.01	8.62	7.61	-49.1	-60.1	4.0	8.42e-01	0	42	0	0	69	13031
2026-01-08 02:47:42.02	8.44	7.83	-49.3	-61.6	3.8	8.46e-01	0	42	104	0	69	15490
2026-01-08 02:47:45.03	8.25	8.05	-49.0	-58.6	4.5	8.26e-01	0	42	0	0	69	10994
2026-01-08 02:47:48.05	8.06	8.28	-47.8	-53.9	7.7	1.31e-01	0	42	0	8388608	67	7141
2026-01-08 02:47:51.06	7.87	8.51	-46.3	-50.5	11.2	3.17e-03	0	42	0	25165824	64	5748
2026-01-08 02:47:54.07	7.68	8.74	-45.6	-49.2	12.6	1.70e-04	0	42	0	42991616	63	5267
2026-01-08 02:47:57.08	7.48	8.97	-46.1	-50.1	11.6	5.72e-04	0	42	0	59768832	63	5838
2026-01-08 02:48:00.09	7.28	9.20	-48.1	-54.8	6.7	8.24e-01	0	42	0	73400320	67	7936
2026-01-08 02:48:03.10	7.08	9.43	-46.1	-49.8	11.8	1.31e-02	0	42	0	90177536	64	5332
2026-01-08 02:48:06.20	6.87	9.67	-41.4	-43.5	18.1	0.00e+00	0	42	0	108003328	54	4574
2026-01-08 02:48:09.09	6.67	9.90	-41.3	-43.5	18.1	0.00e+00	0	42	0	123731968	54	4572
2026-01-08 02:48:12.24	6.44	10.15	-41.2	-43.4	18.2	0.00e+00	0	42	0	141557760	54	4506
2026-01-08 02:48:15.11	6.24	10.38	-41.0	-43.2	18.4	0.00e+00	0	42	0	158334976	54	4430
2026-01-08 02:48:18.25	6.00	10.64	-41.1	-43.3	18.4	0.00e+00	0	42	0	176160768	53	4731
2026-01-08 02:48:21.12	5.79	10.87	-41.0	-43.2	18.5	0.00e+00	0	42	0	191889408	53	4666
2026-01-08 02:48:24.28	5.55	11.13	-40.9	-43.1	18.5	0.00e+00	0	42	0	209715200	53	4640
2026-01-08 02:48:27.14	5.33	11.37	-40.9	-43.1	18.6	0.00e+00	0	43	0	225443840	53	4615
2026-01-08 02:48:30.29	5.08	11.63	-40.8	-42.9	18.8	0.00e+00	0	43	0	243269632	53	4515
2026-01-08 02:48:33.16	4.85	11.87	-40.6	-42.7	19.0	0.00e+00	0	42	0	260046848	53	4402
2026-01-08 02:48:36.45	4.58	12.15	-40.5	-42.6	19.1	0.00e+00	0	42	0	277872640	53	4347
2026-01-08 02:48:39.32	4.34	12.40	-40.7	-42.7	19.0	0.00e+00	0	42	0	294649856	52	4677
2026-01-08 02:48:42.64	4.06	12.69	-40.6	-42.6	19.1	0.00e+00	0	42	0	312475648	52	4627
2026-01-08 02:48:45.51	3.81	12.94	-40.5	-42.5	19.2	0.00e+00	0	42	0	329252864	52	4555
2026-01-08 02:48:49.05	3.49	13.25	-40.5	-42.4	19.2	0.00e+00	0	43	0	349175808	52	4533
2026-01-08 02:48:51.77	3.25	13.49	-40.3	-42.2	19.4	0.00e+00	0	42	0	364904448	52	4428
2026-01-08 02:48:55.06	2.95	13.78	-40.3	-42.1	19.4	0.00e+00	0	43	0	382730240	52	4389
2026-01-08 02:48:57.78	2.69	14.03	-40.2	-42.1	19.4	0.00e+00	0	43	0	398458880	52	4378
2026-01-08 02:49:01.08	2.38	14.33	-40.3	-42.2	19.4	0.00e+00	0	43	0	416284672	52	4427
2026-01-08 02:49:03.80	2.11	14.58	-40.2	-42.1	19.4	0.00e+00	0	43	0	432013312	52	4371
2026-01-08 02:49:07.10	1.78	14.89	-40.2	-42.1	19.4	0.00e+00	0	43	0	450887680	52	4374
2026-01-08 02:49:10.07	1.48	15.16	-40.2	-42.2	19.3	0.00e+00	0	43	0	467664896	52	4413
2026-01-08 02:49:13.30	1.15	15.47	-40.0	-42.0	19.5	0.00e+00	0	43	0	485490688	52	4313
2026-01-08 02:49:16.45	0.82	15.77	-39.9	-41.9	19.6	0.00e+00	0	43	0	503316480	51	4505
2026-01-08 02:49:19.32	0.51	16.04	-39.7	-41.6	19.9	0.00e+00	0	43	0	519045120	51	4361
2026-01-08 02:49:22.47	0.16	16.35	-39.6	-41.5	20.0	0.00e+00	0	43	0	536870912	51	4314
2026-01-08 02:49:25.34	359.84	16.63	-39.5	-41.4	20.1	0.00e+00	0	43	0	553648128	51	4269
2026-01-08 02:49:28.49	359.48	16.94	-39.5	-41.4	20.1	0.00e+00	0	43	0	570425344	50	4505
2026-01-08 02:49:31.36	359.15	17.23	-39.4	-41.3	20.2	0.00e+00	0	43	0	587202560	50	4458
2026-01-08 02:49:34.86	358.73	17.58	-39.3	-41.1	20.4	0.00e+00	0	43	0	607125504	50	4353
2026-01-08 02:49:37.69	358.38	17.86	-39.3	-41.2	20.3	0.00e+00	0	43	0	622854144	50	4394
2026-01-08 02:49:40.99	357.97	18.20	-39.3	-41.2	20.3	0.00e+00	0	43	0	640679936	50	4409
2026-01-08 02:49:43.71	357.63	18.48	-39.2	-41.0	20.5	0.00e+00	0	43	0	656408576	50	4309
2026-01-08 02:49:47.01	357.20	18.82	-39.1	-40.9	20.5	0.00e+00	0	43	0	675282944	50	4266
2026-01-08 02:49:49.73	356.84	19.11	-39.0	-40.8	20.6	0.00e+00	0	43	0	689963008	50	4233
2026-01-08 02:49:53.03	356.39	19.45	-38.9	-40.7	20.7	0.00e+00	0	43	0	708837376	49	4407
2026-01-08 02:49:56.02	355.98	19.77	-38.6	-40.4	21.0	0.00e+00	0	43	0	725614592	49	4245
2026-01-08 02:49:59.03	355.55	20.10	-38.7	-40.4	21.0	0.00e+00	0	43	0	742391808	49	4254
2026-01-08 02:50:02.04	355.12	20.42	-38.7	-40.4	21.1	0.00e+00	0	43	0	759169024	48	4499
2026-01-08 02:50:05.13	354.66	20.76	-38.7	-40.5	21.0	0.00e+00	0	43	0	776994816	48	4546
2026-01-08 02:50:07.99	354.23	21.07	-38.9	-40.7	20.8	0.00e+00	0	43	0	792723456	48	4660
2026-01-08 02:50:11.14	353.74	21.42	-38.9	-40.6	20.9	0.00e+00	0	43	0	810549248	48	4643
2026-01-08 02:50:14.01	353.29	21.74	-38.3	-40.0	21.4	0.00e+00	0	43	0	827326464	48	4325
2026-01-08 02:50:17.28	352.76	22.10	-38.2	-39.9	21.5	0.00e+00	0	43	0	845152256	48	4260
2026-01-08 02:50:20.00	352.31	22.41	-38.1	-39.8	21.6	0.00e+00	0	43	0	860880896	48	4215
2026-01-08 02:50:23.30	351.75	22.78	-38.0	-39.7	21.7	0.00e+00	0	43	0	878706688	48	4166
2026-01-08 02:50:26.02	351.29	23.09	-37.9	-39.6	21.6	0.00e+00	0	43	0	894435328	47	4347
2026-01-08 02:50:29.32	350.70	23.47	-38.0	-39.8	21.4	0.00e+00	0	43	0	913309696	47	4448
2026-01-08 02:50:32.42	350.14	23.83	-38.0	-39.8	21.4	0.00e+00	0	43	0	930086912	47	4465
2026-01-08 02:50:35.61	349.55	24.20	-38.1	-39.8	21.4	0.00e+00	0	43	0	947912704	47	4491
2026-01-08 02:50:38.47	349.01	24.53	-38.0	-39.7	21.5	0.00e+00	0	43	0	964689920	47	4434
2026-01-08 02:50:41.63	348.40	24.90	-37.8	-39.6	21.6	0.00e+00	0	43	0	982515712	47	4343
2026-01-08 02:50:44.49	347.83	25.24	-37.8	-39.5	21.7	0.00e+00	0	43	0	998244352	47	4297
2026-01-08 02:50:47.98	347.12	25.65	-37.6	-39.4	21.8	0.00e+00	0	43	0	1018167296	47	4247
2026-01-08 02:50:50.70	346.56	25.97	-37.6	-39.3	21.8	0.00e+00	0	43	0	1032847360	47	4227
2026-01-08 02:50:54.00	345.86	26.36	-37.6	-39.3	21.9	0.00e+00	0	43	0	1051721728	46	4449
2026-01-08 02:50:56.75	345.26	26.69	-37.5	-39.1	22.0	0.00e+00	0	43	0	1067450368	46	4384
2026-01-08 02:51:00.05	344.52	27.08	-37.4	-39.1	22.0	0.00e+00	0	43	0	1086324736	46	4381
2026-01-08 02:51:02.78	343.90	27.41	-37.3	-39.0	22.1	0.00e+00	0	43	0	1101004800	46	4298
2026-01-08 02:51:06.07	343.13	27.80	-37.4	-39.1	22.0	0.00e+00	0	43	0	1119879168	46	4351
2026-01-08 02:51:08.80	342.48	28.13	-37.4	-39.1	22.0	0.00e+00	0	43	0	1134559232	46	4356
2026-01-08 02:51:12.41	341.60	28.56	-37.4	-39.1	22.0	0.00e+00	0	43	0	1155530752	46	4353
2026-01-08 02:51:15.36	340.86	28.91	-37.2	-38.8	22.2	0.00e+00	0	43	0	1172307968	46	4237
2026-01-08 02:51:19.11	339.90	29.35	-37.1	-38.8	22.2	0.00e+00	0	43	0	1193279488	46	4198
2026-01-08 02:51:21.86	339.18	29.67	-37.3	-39.0	22.1	0.00e+00	0	43	0	1209008128	46	4296
2026-01-08 02:51:25.75	338.13	30.13	-37.4	-39.1	22.0	0.00e+00	0	43	0	1229979648	46	4348
2026-01-08 02:51:28.84	337.27	30.49	-37.3	-39.0	22.0	0.00e+00	0	43	0	1247805440	46	4321
2026-01-08 02:51:32.29	336.30	30.88	-37.1	-38.8	22.2	0.00e+00	0	43	0	1267728384	46	4237
2026-01-08 02:51:35.02	335.51	31.19	-37.0	-38.7	22.3	0.00e+00	0	43	0	1282408448	46	4158
2026-01-08 02:51:38.43	334.50	31.58	-37.0	-38.7	22.3	0.00e+00	0	43	0	1302331392	45	4399
2026-01-08 02:51:41.44	333.59	31.91	-36.8	-38.5	22.4	0.00e+00	0	43	0	1319108608	45	4325
2026-01-08 02:51:44.45	332.66	32.24	-36.8	-38.5	22.4	0.00e+00	0	43	0	1335885824	45	4310
2026-01-08 02:51:47.52	331.69	32.58	-36.7	-38.4	22.5	0.00e+00	0	43	0	1352663040	45	4264
2026-01-08 02:51:50.48	330.74	32.89	-36.8	-38.4	22.4	0.00e+00	0	43	0	1369440256	45	4291
2026-01-08 02:51:53.52	329.74	33.21	-36.7	-38.3	22.6	0.00e+00	0	43	0	1387266048	45	4215
2026-01-08 02:51:56.53	328.74	33.51	-36.6	-38.3	22.5	0.00e+00	0	43	0	1404043264	45	4214
2026-01-08 02:51:59.54	327.71	33.81	-36.9	-38.5	22.4	0.00e+00	0	43	0	1420820480	45	4332
2026-01-08 02:52:02.59	326.65	34.11	-36.8	-38.5	22.4	0.00e+00	0	43	0	1437597696	45	4327
2026-01-08 02:52:05.70	325.55	34.40	-36.6	-38.2	22.6	0.00e+00	0	43	0	1455423488	45	4181
2026-01-08 02:52:08.70	324.47	34.68	-36.7	-38.3	22.6	0.00e+00	0	43	0	1472200704	45	4240
2026-01-08 02:52:11.85	323.32	34.95	-36.6	-38.3	22.6	0.00e+00	0	43	0	1490026496	45	4195
2026-01-08 02:52:14.87	322.20	35.21	-36.7	-38.4	22.5	0.00e+00	0	43	0	1506803712	45	4246
2026-01-08 02:52:18.25	320.92	35.48	-36.8	-38.4	22.5	0.00e+00	0	43	0	1525678080	45	4284
2026-01-08 02:52:20.97	319.87	35.69	-36.8	-38.5	22.5	0.00e+00	0	43	0	1541406720	45	4297
2026-01-08 02:52:24.27	318.59	35.93	-37.0	-38.7	22.3	0.00e+00	0	43	0	1560281088	45	4394
2026-01-08 02:52:26.99	317.52	36.12	-36.7	-38.4	22.6	0.00e+00	0	43	0	1574961152	45	4246
2026-01-08 02:52:30.29	316.20	36.33	-36.6	-38.3	22.6	0.00e+00	0	43	0	1593835520	45	4201
2026-01-08 02:52:33.01	315.10	36.49	-36.6	-38.3	22.6	0.00e+00	0	43	0	1608515584	45	4215
2026-01-08 02:52:36.31	313.75	36.67	-36.5	-38.1	22.8	0.00e+00	0	43	0	1627389952	45	4126
2026-01-08 02:52:39.03	312.63	36.81	-36.6	-38.2	22.7	0.00e+00	0	43	0	1643118592	44	4441
2026-01-08 02:52:42.32	311.26	36.96	-36.5	-38.1	22.7	0.00e+00	0	43	0	1660944384	44	4385
2026-01-08 02:52:45.05	310.11	37.07	-36.6	-38.2	22.7	0.00e+00	0	43	0	1676673024	44	4437
2026-01-08 02:52:48.50	308.66	37.19	-36.4	-38.0	22.8	0.00e+00	0	43	0	1695547392	44	4320
2026-01-08 02:52:51.23	307.50	37.28	-36.7	-38.4	22.5	0.00e+00	0	43	0	1711276032	44	4504
2026-01-08 02:52:54.52	306.09	37.36	-36.7	-38.3	22.5	0.00e+00	0	43	0	1730150400	44	4488
2026-01-08 02:52:57.30	304.90	37.41	-36.8	-38.4	22.5	0.00e+00	0	43	0	1745879040	44	4529
2026-01-08 02:53:00.86	303.36	37.46	-36.6	-38.2	22.6	0.00e+00	0	43	0	1765801984	44	4416
2026-01-08 02:53:03.58	302.19	37.48	-36.4	-38.1	22.7	0.00e+00	0	43	0	1780482048	44	4346
2026-01-08 02:53:06.88	300.76	37.48	-36.5	-38.1	22.6	0.00e+00	0	43	0	1799356416	44	4380
2026-01-08 02:53:09.97	299.43	37.47	-36.7	-38.3	22.4	0.00e+00	0	43	0	1817182208	44	4487
2026-01-08 02:53:13.00	298.12	37.44	-36.4	-38.0	22.6	0.00e+00	0	43	0	1833959424	44	4339
2026-01-08 02:53:16.01	296.82	37.39	-36.3	-38.0	22.7	0.00e+00	0	43	0	1850736640	44	4292
2026-01-08 02:53:19.02	295.53	37.33	-36.4	-38.0	22.7	0.00e+00	0	43	0	1867513856	44	4333
2026-01-08 02:53:22.03	294.25	37.25	-36.3	-37.9	22.7	0.00e+00	0	43	0	1884291072	44	4267
2026-01-08 02:53:25.07	292.96	37.16	-36.3	-37.9	22.7	0.00e+00	0	43	0	1902116864	44	4277
2026-01-08 02:53:28.33	291.58	37.03	-36.3	-37.9	22.7	0.00e+00	0	43	0	1919942656	44	4282
2026-01-08 02:53:31.06	290.44	36.92	-36.3	-37.9	22.7	0.00e+00	0	43	0	1935671296	44	4283
2026-01-08 02:53:34.35	289.07	36.76	-36.2	-37.9	22.7	0.00e+00	0	43	0	1953497088	44	4251
2026-01-08 02:53:37.16	287.91	36.62	-35.9	-37.5	22.9	0.00e+00	0	43	0	1969225728	43	4303
2026-01-08 02:53:40.31	286.63	36.44	-35.7	-37.4	23.0	0.00e+00	0	43	0	1987051520	43	4255
2026-01-08 02:53:43.18	285.47	36.26	-35.9	-37.6	22.8	0.00e+00	0	43	0	2003828736	43	4357
2026-01-08 02:53:46.33	284.21	36.05	-35.9	-37.6	22.8	0.00e+00	0	43	0	2021654528	43	4346
2026-01-08 02:53:49.27	283.06	35.85	-36.0	-37.6	22.8	0.00e+00	0	43	0	2037383168	43	4387
2026-01-08 02:53:52.28	281.89	35.62	-35.8	-37.4	23.0	0.00e+00	0	43	0	2055208960	43	4261
2026-01-08 02:53:55.29	280.73	35.39	-35.8	-37.5	22.9	0.00e+00	0	43	0	2071986176	43	4306
2026-01-08 02:53:58.30	279.60	35.14	-35.7	-37.3	23.0	0.00e+00	0	43	0	2088763392	43	4222
2026-01-08 02:54:01.31	278.48	34.88	-35.8	-37.4	22.9	0.00e+00	0	43	0	2105540608	43	4285
2026-01-08 02:54:04.52	277.31	34.60	-36.0	-37.6	22.7	0.00e+00	0	43	0	2123366400	43	4381
2026-01-08 02:54:07.55	276.22	34.32	-36.0	-37.7	22.7	0.00e+00	0	43	0	2140143616	43	4396
2026-01-08 02:54:10.74	275.09	34.01	-35.5	-37.1	23.1	0.00e+00	0	43	0	2159017984	43	4137
2026-01-08 02:54:13.60	274.10	33.73	-35.8	-37.4	22.9	0.00e+00	0	43	0	2174746624	43	4288
2026-01-08 02:54:16.75	273.03	33.42	-35.9	-37.5	22.9	0.00e+00	0	43	0	2192572416	43	4317
2026-01-08 02:54:19.63	272.07	33.12	-35.7	-37.3	23.0	0.00e+00	0	43	0	2208301056	43	4236
2026-01-08 02:54:22.78	271.04	32.79	-35.9	-37.5	22.8	0.00e+00	0	43	0	2226126848	43	4325
2026-01-08 02:54:25.65	270.12	32.48	-35.9	-37.5	22.8	0.00e+00	0	43	0	2241855488	43	4326
2026-01-08 02:54:28.80	269.13	32.14	-36.0	-37.6	22.8	0.00e+00	0	43	0	2259681280	43	4377
2026-01-08 02:54:32.00	268.14	31.79	-35.9	-37.5	22.8	0.00e+00	0	43	0	2278555648	43	4336
2026-01-08 02:54:34.87	267.28	31.46	-35.9	-37.6	22.8	0.00e+00	0	43	0	2294284288	43	4351
2026-01-08 02:54:38.02	266.35	31.11	-36.2	-37.8	22.6	0.00e+00	0	43	0	2312110080	43	4474
2026-01-08 02:54:40.89	265.52	30.78	-36.0	-37.7	22.7	0.00e+00	0	43	0	2327838720	43	4399
2026-01-08 02:54:44.03	264.63	30.41	-36.1	-37.7	22.6	0.00e+00	0	43	0	2345664512	43	4436
2026-01-08 02:54:46.90	263.83	30.08	-36.0	-37.6	22.7	0.00e+00	0	43	0	2361393152	43	4386
2026-01-08 02:54:50.06	262.98	29.71	-36.3	-38.0	22.5	0.00e+00	0	43	0	2379218944	43	4554
2026-01-08 02:54:52.93	262.22	29.37	-36.1	-37.8	22.6	0.00e+00	0	43	0	2395996160	43	4457
2026-01-08 02:54:56.14	261.39	28.99	-36.1	-37.7	22.7	0.00e+00	0	43	0	2413821952	43	4409
2026-01-08 02:54:59.01	260.66	28.64	-36.0	-37.7	22.7	0.00e+00	0	43	0	2430599168	43	4392
2026-01-08 02:55:02.35	259.83	28.25	-36.3	-37.9	22.5	0.00e+00	0	43	0	2448424960	43	4529
2026-01-08 02:55:05.08	259.17	27.92	-36.3	-37.9	22.5	0.00e+00	0	43	0	2464153600	43	4517
2026-01-08 02:55:08.42	258.38	27.52	-36.4	-38.1	22.4	0.00e+00	0	43	0	2483027968	43	4622
2026-01-08 02:55:11.14	257.75	27.19	-36.4	-38.1	22.4	0.00e+00	0	43	0	2498756608	43	4601
2026-01-08 02:55:14.44	257.01	26.80	-36.5	-38.2	22.3	0.00e+00	0	43	0	2516582400	43	4667
2026-01-08 02:55:17.43	256.35	26.44	-36.6	-38.3	22.2	0.00e+00	0	44	0	2533359616	43	4724
2026-01-08 02:55:20.43	255.70	26.08	-36.9	-38.6	22.1	0.00e+00	0	43	0	2550136832	44	4624
2026-01-08 02:55:23.51	255.05	25.72	-37.0	-38.7	22.0	0.00e+00	0	43	0	2567962624	45	4421
2026-01-08 02:55:26.49	254.44	25.36	-37.0	-38.6	22.0	0.00e+00	0	43	0	2584739840	45	4380
2026-01-08 02:55:29.78	253.78	24.97	-37.3	-39.0	21.8	0.00e+00	0	43	0	2603614208	45	4560
2026-01-08 02:55:32.50	253.24	24.65	-37.2	-38.9	21.8	0.00e+00	0	43	0	2618294272	45	4505
2026-01-08 02:55:35.80	252.61	24.27	-37.2	-38.9	21.8	0.00e+00	0	43	0	2637168640	45	4505
2026-01-08 02:55:38.76	252.05	23.92	-37.2	-38.9	21.8	0.00e+00	0	43	0	2653945856	45	4525
2026-01-08 02:55:41.77	251.50	23.57	-37.3	-39.0	21.7	0.00e+00	0	43	0	2670723072	45	4560
2026-01-08 02:55:44.78	250.96	23.22	-37.3	-39.1	21.7	0.00e+00	0	43	0	2687500288	45	4606
2026-01-08 02:55:47.79	250.43	22.88	-37.4	-39.0	21.7	0.00e+00	0	43	0	2704277504	45	4596
2026-01-08 02:55:50.80	249.92	22.53	-37.3	-39.0	21.7	0.00e+00	0	43	0	2721054720	45	4577
2026-01-08 02:55:53.86	249.40	22.19	-37.2	-39.0	21.8	0.00e+00	0	43	0	2738880512	45	4547
2026-01-08 02:55:57.65	248.78	21.76	-37.2	-39.0	21.7	0.00e+00	0	44	0	2759852032	45	4550
2026-01-08 02:56:00.40	248.34	21.45	-37.3	-39.0	21.7	0.00e+00	0	43	0	2775580672	45	4588
2026-01-08 02:56:04.17	247.76	21.03	-37.2	-38.9	21.8	0.00e+00	0	43	0	2796552192	45	4533
2026-01-08 02:56:06.91	247.34	20.73	-37.4	-39.1	21.6	0.00e+00	0	43	0	2812280832	45	4648
2026-01-08 02:56:10.62	246.79	20.32	-37.6	-39.3	21.4	0.00e+00	0	43	0	2833252352	45	4742
2026-01-08 02:56:13.34	246.39	20.03	-37.7	-39.5	21.3	0.00e+00	0	43	0	2847932416	46	4546
2026-01-08 02:56:16.64	245.92	19.67	-37.7	-39.5	21.3	0.00e+00	0	43	0	2866806784	46	4548
2026-01-08 02:56:19.46	245.53	19.37	-37.7	-39.4	21.3	0.00e+00	0	43	0	2882535424	46	4519
2026-01-08 02:56:22.76	245.08	19.02	-37.8	-39.6	21.2	0.00e+00	0	44	0	2901409792	46	4599
2026-01-08 02:56:25.48	244.72	18.74	-37.8	-39.6	21.2	0.00e+00	0	43	0	2916089856	46	4602
2026-01-08 02:56:28.78	244.28	18.40	-38.1	-39.9	20.9	0.00e+00	0	43	0	2934964224	46	4773
2026-01-08 02:56:31.50	243.94	18.11	-38.2	-39.9	20.9	0.00e+00	0	43	0	2950692864	47	4532
2026-01-08 02:56:34.81	243.52	17.77	-38.3	-40.0	20.7	0.00e+00	0	43	0	2969567232	47	4569
2026-01-08 02:56:37.90	243.14	17.46	-38.4	-40.1	20.6	0.00e+00	0	43	0	2986344448	47	4650
2026-01-08 02:56:41.25	242.74	17.12	-38.6	-40.4	20.4	0.00e+00	0	44	0	3005218816	47	4763
2026-01-08 02:56:43.97	242.42	16.85	-38.6	-40.4	20.4	0.00e+00	0	44	0	3020947456	47	4814
2026-01-08 02:56:47.27	242.04	16.53	-38.6	-40.4	20.6	0.00e+00	0	43	0	3038773248	48	4525
2026-01-08 02:56:50.32	241.70	16.23	-38.7	-40.5	20.5	0.00e+00	0	43	0	3056599040	48	4567
2026-01-08 02:56:53.33	241.36	15.93	-38.9	-40.7	20.4	0.00e+00	0	43	0	3073376256	48	4672
2026-01-08 02:56:56.34	241.04	15.64	-39.0	-40.8	20.3	0.00e+00	0	43	0	3090153472	48	4722
2026-01-08 02:56:59.49	240.70	15.34	-39.0	-40.8	20.3	0.00e+00	0	43	0	3107979264	48	4707
2026-01-08 02:57:02.45	240.40	15.06	-39.1	-40.9	20.1	0.00e+00	0	43	0	3124756480	49	4538
2026-01-08 02:57:05.86	240.05	14.74	-39.0	-40.9	20.2	0.00e+00	0	44	0	3143630848	49	4498
2026-01-08 02:57:08.58	239.78	14.49	-39.1	-40.9	20.1	0.00e+00	0	43	0	3159359488	49	4531
2026-01-08 02:57:11.92	239.45	14.18	-39.3	-41.1	20.0	0.00e+00	0	43	0	3178233856	49	4603
2026-01-08 02:57:14.72	239.18	13.93	-39.4	-41.2	19.9	0.00e+00	0	44	0	3193962496	49	4676
2026-01-08 02:57:17.87	238.88	13.64	-39.6	-41.4	19.7	0.00e+00	0	43	0	3210739712	49	4781
2026-01-08 02:57:20.76	238.61	13.38	-39.6	-41.4	19.6	0.00e+00	0	43	0	3227516928	49	4801
2026-01-08 02:57:23.90	238.33	13.10	-39.7	-41.5	19.6	0.00e+00	0	43	0	3245342720	50	4562
2026-01-08 02:57:26.88	238.06	12.84	-39.8	-41.6	19.5	0.00e+00	0	43	0	3262119936	50	4616
2026-01-08 02:57:29.99	237.79	12.57	-39.8	-41.6	19.5	0.00e+00	0	43	0	3278897152	50	4629
2026-01-08 02:57:33.06	237.53	12.30	-39.9	-41.7	19.4	0.00e+00	0	43	0	3296722944	50	4666
2026-01-08 02:57:36.07	237.27	12.04	-39.8	-41.7	19.4	0.00e+00	0	43	0	3313500160	50	4657
2026-01-08 02:57:39.08	237.02	11.78	-39.8	-41.7	19.4	0.00e+00	0	43	0	3330277376	50	4668
2026-01-08 02:57:42.09	236.78	11.53	-39.9	-41.8	19.3	0.00e+00	0	43	0	3347054592	50	4714
2026-01-08 02:57:45.14	236.53	11.27	-40.1	-42.0	19.0	0.00e+00	0	43	0	3364880384	50	4857
2026-01-08 02:57:48.12	236.30	11.03	-40.2	-42.1	18.9	0.00e+00	0	43	0	3381657600	51	4649
2026-01-08 02:57:51.32	236.05	10.76	-40.2	-42.1	19.0	0.00e+00	0	43	0	3399483392	51	4600
2026-01-08 02:57:54.19	235.83	10.53	-40.2	-42.1	18.9	0.00e+00	0	43	0	3415212032	51	4625
2026-01-08 02:57:57.34	235.60	10.27	-40.4	-42.4	18.7	0.00e+00	0	43	0	3433037824	51	4764
2026-01-08 02:58:00.50	235.37	10.02	-40.3	-42.2	18.8	0.00e+00	0	43	0	3450863616	51	4691
2026-01-08 02:58:03.36	235.16	9.79	-40.3	-42.3	18.7	0.00e+00	0	43	0	3467640832	51	4720
2026-01-08 02:58:06.52	234.94	9.54	-40.4	-42.3	18.7	0.00e+00	0	43	0	3484418048	51	4728
2026-01-08 02:58:09.38	234.74	9.32	-40.4	-42.3	18.7	0.00e+00	0	43	0	3501195264	51	4717
2026-01-08 02:58:12.53	234.52	9.07	-40.4	-42.3	18.6	0.00e+00	0	43	0	3519021056	51	4735
2026-01-08 02:58:15.40	234.33	8.85	-50.6	-62.9	3.8	8.47e-01	0	44	104	3524263936	71	16069
2026-01-08 02:58:18.56	234.12	8.61	-50.7	-63.1	3.8	8.45e-01	0	43	104	3524263936	72	15434
2026-01-08 02:58:21.43	233.93	8.39	-50.9	-63.1	3.8	8.47e-01	0	44	104	3524263936	72	15563
2026-01-08 02:58:24.59	233.73	8.15	-50.8	-63.1	3.8	8.47e-01	0	43	104	3524263936	72	15528
2026-01-08 02:58:27.46	233.55	7.93	-50.9	-63.1	3.8	8.46e-01	0	43	104	3524263936	72	15530
2026-01-08 02:58:30.61	233.35	7.70	-50.8	-63.1	3.8	8.47e-01	0	43	104	3524263936	72	15541
2026-01-08 02:58:33.48	233.18	7.49	-50.6	-63.1	3.8	8.48e-01	0	43	104	3524263936	72	15496
2026-01-08 02:58:36.64	232.99	7.26	-50.5	-63.0	3.8	8.47e-01	0	43	104	3524263936	72	15391
2026-01-08 02:58:39.51	232.82	7.05	-50.5	-63.1	3.8	8.48e-01	0	44	104	3524263936	72	15404
2026-01-08 02:58:42.67	232.63	6.82	-50.5	-63.1	3.8	8.47e-01	0	43	104	3524263936	72	15422
2026-01-08 02:58:45.54	232.47	6.61	-50.5	-63.0	3.8	8.46e-01	0	43	104	3524263936	72	15332
2026-01-08 02:58:48.69	232.29	6.39	-50.4	-63.1	3.8	8.48e-01	0	43	104	3524263936	72	15414
2026-01-08 02:58:51.56	232.13	6.19	-50.4	-63.0	3.8	8.47e-01	0	44	104	3524263936	72	15353
2026-01-08 02:58:54.72	231.96	5.96	-50.4	-63.0	3.8	8.48e-01	0	44	104	3524263936	72	15401
2026-01-08 02:58:57.59	231.80	5.76	-50.4	-63.0	3.8	8.47e-01	0	43	104	3524263936	72	15343
2026-01-08 02:59:00.74	231.64	5.55	-50.4	-63.0	3.8	8.46e-01	0	44	104	3524263936	72	15371
2026-01-08 02:59:03.61	231.49	5.35	-50.4	-63.0	3.8	8.47e-01	0	44	104	3524263936	72	15334
2026-01-08 02:59:06.77	231.32	5.13	-50.4	-63.0	3.8	8.48e-01	0	44	104	3524263936	72	15285

#Closed at: 2026-01-08 02:59:09
#Recorded file [3524 MB]: D:/Data/31040_260108_054702.dat