passes_logs/2026/01/08/T1/T1__20260108_014706_SUOMI_NPP_rec.log

#Pass ID: 20260108_014706_SUOMI NPP
#Satellite: SUOMI NPP
#Configuration: NPP
#almurnet v.1.7.20251203
#Start time: 2026-01-08 01:47:06

#Version: 2.0.20230620
#Station: T1
#Location: 37.570604 lon 55.790049 lat
#TLE: 1 37849U 11061A   26005.94084933  .00000134  00000+0  84554-4 0  9990
#TLE: 2 37849  98.7803 308.0679 0002567  79.1029 281.0436 14.19522657735426

#Time	Az	El	Level	Level2	SNR	BER	BlckErr	Temp	State	Recorded	gain1	gain2
2026-01-08 01:47:06.03	4.65	4.97	-52.2	-67.7	3.8	1.49e+00	0	36	0	0	75	22028
2026-01-08 01:47:09.04	4.36	5.14	-50.5	-67.4	3.8	1.49e+00	0	36	104	0	72	25280
2026-01-08 01:47:12.05	4.08	5.31	-50.4	-67.4	3.8	1.49e+00	0	36	104	0	72	25352
2026-01-08 01:47:15.06	3.78	5.48	-50.4	-67.3	3.8	1.49e+00	0	37	104	0	72	25237
2026-01-08 01:47:18.07	3.49	5.65	-50.4	-67.3	3.8	1.49e+00	0	37	104	0	72	25092
2026-01-08 01:47:21.09	3.19	5.81	-50.4	-67.3	3.8	1.49e+00	0	37	104	0	72	25132
2026-01-08 01:47:24.10	2.88	5.98	-50.4	-67.3	3.8	1.49e+00	0	37	104	0	72	25094
2026-01-08 01:47:27.11	2.58	6.15	-50.4	-67.3	3.8	1.49e+00	0	37	104	0	72	25131
2026-01-08 01:47:30.12	2.27	6.32	-50.4	-67.3	3.8	1.49e+00	0	37	104	0	72	25209
2026-01-08 01:47:33.13	1.95	6.49	-50.4	-67.3	3.8	1.49e+00	0	37	104	0	72	25231
2026-01-08 01:47:36.14	1.63	6.66	-50.4	-67.4	3.8	1.49e+00	0	37	104	0	72	25454
2026-01-08 01:47:39.15	1.31	6.83	-50.4	-67.4	3.8	1.49e+00	0	37	104	0	72	25350
2026-01-08 01:47:42.16	0.99	7.00	-50.4	-67.4	3.8	1.49e+00	0	38	104	0	72	25282
2026-01-08 01:47:45.17	0.66	7.17	-50.4	-67.3	3.8	1.49e+00	0	38	104	0	72	25120
2026-01-08 01:47:48.18	0.32	7.34	-50.4	-67.3	3.8	1.49e+00	0	38	104	0	72	25247
2026-01-08 01:47:51.19	359.99	7.52	-50.4	-67.4	3.8	1.49e+00	0	38	104	0	72	25314
2026-01-08 01:47:54.20	359.64	7.69	-50.5	-67.5	3.8	1.49e+00	0	38	104	0	72	25589
2026-01-08 01:47:57.21	359.30	7.86	-50.5	-67.4	3.8	1.49e+00	0	38	104	0	72	25542
2026-01-08 01:48:00.22	358.95	8.03	-50.5	-67.4	3.8	1.49e+00	0	38	104	0	72	25377
2026-01-08 01:48:03.22	358.59	8.20	-50.6	-66.8	3.8	1.49e+00	0	38	104	0	72	23776
2026-01-08 01:48:06.23	358.23	8.37	-50.5	-66.3	3.8	1.49e+00	0	38	104	0	72	22516
2026-01-08 01:48:09.24	357.87	8.55	-50.5	-65.4	3.8	1.49e+00	0	38	104	0	72	20229
2026-01-08 01:48:12.25	357.50	8.72	-50.3	-62.2	4.9	9.69e-01	0	38	0	1048576	72	13997
2026-01-08 01:48:15.26	357.13	8.89	-49.8	-58.3	7.9	1.20e-01	0	38	0	7340032	71	9483
2026-01-08 01:48:18.27	356.75	9.06	-49.5	-56.8	9.6	1.02e-02	0	38	0	12582912	70	8397
2026-01-08 01:48:21.27	356.37	9.24	-46.7	-52.7	13.4	1.29e-05	0	38	0	15728640	65	6964
2026-01-08 01:48:24.27	355.99	9.41	-46.7	-52.5	13.5	1.06e-05	0	38	0	20971520	65	6856
2026-01-08 01:48:27.28	355.60	9.58	-46.8	-52.3	13.8	7.60e-06	0	38	0	26214400	65	6701
2026-01-08 01:48:30.29	355.20	9.75	-46.8	-51.9	14.3	7.00e-07	0	38	0	32505856	64	6728
2026-01-08 01:48:33.30	354.80	9.92	-46.9	-51.7	14.5	7.00e-07	0	39	0	37748736	64	6575
2026-01-08 01:48:36.30	354.40	10.09	-47.0	-51.8	14.3	0.00e+00	0	38	0	42991616	64	6679
2026-01-08 01:48:39.31	353.99	10.27	-46.8	-51.3	14.8	7.00e-07	0	39	0	49283072	64	6323
2026-01-08 01:48:42.31	353.57	10.44	-46.6	-51.2	15.0	0.00e+00	0	39	0	54525952	64	6211
2026-01-08 01:48:45.30	353.15	10.61	-46.4	-51.4	14.8	7.00e-07	0	39	0	60817408	64	6392
2026-01-08 01:48:48.31	352.73	10.78	-46.3	-51.6	14.6	0.00e+00	0	39	0	66060288	64	6515
2026-01-08 01:48:51.32	352.30	10.95	-46.3	-51.3	14.8	0.00e+00	0	39	0	71303168	64	6329
2026-01-08 01:48:54.32	351.87	11.12	-46.5	-50.9	15.2	0.00e+00	0	39	0	77594624	64	6057
2026-01-08 01:48:57.33	351.42	11.28	-47.0	-51.0	15.2	0.00e+00	0	39	0	82837504	64	6082
2026-01-08 01:49:00.33	350.98	11.45	-47.4	-51.6	14.6	0.00e+00	0	39	0	88080384	65	6194
2026-01-08 01:49:03.33	350.53	11.62	-47.1	-51.4	14.7	0.00e+00	0	39	0	94371840	65	6036
2026-01-08 01:49:06.34	350.07	11.79	-47.1	-51.2	15.0	0.00e+00	0	39	0	99614720	65	5889
2026-01-08 01:49:09.34	349.61	11.95	-47.5	-51.7	14.5	0.00e+00	0	39	0	105906176	65	6203
2026-01-08 01:49:12.33	349.15	12.12	-47.6	-52.0	14.2	2.20e-06	0	39	0	111149056	66	6118
2026-01-08 01:49:15.33	348.68	12.28	-47.3	-51.7	14.5	0.00e+00	0	39	0	116391936	66	5891
2026-01-08 01:49:18.33	348.20	12.45	-47.1	-51.3	14.9	7.00e-07	0	39	0	122683392	66	5616
2026-01-08 01:49:21.34	347.72	12.61	-47.5	-51.4	14.8	0.00e+00	0	39	0	127926272	66	5701
2026-01-08 01:49:24.34	347.23	12.77	-47.8	-51.6	14.6	7.00e-07	0	39	0	133169152	66	5850
2026-01-08 01:49:27.35	346.74	12.94	-47.5	-51.3	15.0	0.00e+00	0	39	0	139460608	66	5634
2026-01-08 01:49:30.36	346.24	13.10	-47.2	-51.0	15.3	7.00e-07	0	39	0	144703488	66	5447
2026-01-08 01:49:33.36	345.73	13.26	-47.6	-51.6	14.6	0.00e+00	0	39	0	149946368	66	5819
2026-01-08 01:49:36.37	345.22	13.41	-47.2	-50.7	15.5	0.00e+00	0	39	0	156237824	66	5252
2026-01-08 01:49:39.38	344.71	13.57	-46.5	-49.7	16.5	0.00e+00	0	39	0	161480704	64	5220
2026-01-08 01:49:42.39	344.18	13.73	-46.6	-50.0	16.2	0.00e+00	0	39	0	167772160	64	5414
2026-01-08 01:49:45.39	343.66	13.88	-46.0	-49.4	16.7	0.00e+00	0	39	0	173015040	64	5087
2026-01-08 01:49:48.39	343.13	14.03	-46.0	-49.1	17.0	0.00e+00	0	39	0	178257920	63	5206
2026-01-08 01:49:51.38	342.59	14.18	-46.0	-49.0	17.2	0.00e+00	0	39	0	184549376	63	5135
2026-01-08 01:49:54.39	342.05	14.33	-46.1	-49.4	16.8	0.00e+00	0	39	0	189792256	63	5375
2026-01-08 01:49:57.39	341.50	14.48	-46.2	-49.4	16.8	0.00e+00	0	39	0	195035136	63	5384
2026-01-08 01:50:00.40	340.94	14.63	-46.3	-49.3	16.9	0.00e+00	0	39	0	201326592	63	5323
2026-01-08 01:50:03.40	340.38	14.77	-46.3	-49.9	16.4	0.00e+00	0	39	0	206569472	63	5662
2026-01-08 01:50:06.41	339.82	14.91	-46.4	-50.1	16.1	0.00e+00	0	39	0	212860928	63	5843
2026-01-08 01:50:09.42	339.24	15.05	-45.9	-49.1	17.1	0.00e+00	0	39	0	218103808	63	5175
2026-01-08 01:50:12.42	338.67	15.19	-45.3	-48.1	18.0	0.00e+00	0	39	0	223346688	62	4904
2026-01-08 01:50:15.43	338.08	15.33	-45.6	-48.7	17.5	0.00e+00	0	39	0	229638144	62	5262
2026-01-08 01:50:18.43	337.50	15.46	-45.9	-48.8	17.4	0.00e+00	0	39	0	234881024	62	5292
2026-01-08 01:50:21.44	336.90	15.59	-46.0	-48.8	17.4	0.00e+00	0	39	0	240123904	62	5327
2026-01-08 01:50:24.44	336.31	15.72	-46.3	-49.3	16.9	0.00e+00	0	39	0	246415360	63	5315
2026-01-08 01:50:27.45	335.70	15.85	-46.0	-48.9	17.3	0.00e+00	0	39	0	251658240	63	5089
2026-01-08 01:50:30.45	335.09	15.97	-45.5	-48.1	18.0	0.00e+00	0	39	0	257949696	62	4902
2026-01-08 01:50:33.46	334.48	16.09	-45.6	-48.2	18.0	0.00e+00	0	39	0	263192576	62	4965
2026-01-08 01:50:36.46	333.86	16.21	-45.8	-48.6	17.6	0.00e+00	0	39	0	268435456	62	5175
2026-01-08 01:50:39.47	333.24	16.33	-45.5	-48.2	18.0	0.00e+00	0	39	0	274726912	62	4971
2026-01-08 01:50:42.48	332.61	16.44	-45.8	-48.5	17.7	0.00e+00	0	39	0	279969792	62	5151
2026-01-08 01:50:45.49	331.97	16.55	-46.4	-49.4	16.8	0.00e+00	0	39	0	285212672	63	5398
2026-01-08 01:50:48.49	331.33	16.66	-46.3	-49.3	16.9	0.00e+00	0	39	0	291504128	63	5324
2026-01-08 01:50:51.50	330.69	16.76	-46.0	-48.8	17.4	0.00e+00	0	39	0	296747008	63	5012
2026-01-08 01:50:54.50	330.05	16.86	-45.8	-48.5	17.7	0.00e+00	0	39	0	303038464	63	4832
2026-01-08 01:50:57.51	329.39	16.96	-45.4	-47.9	18.2	0.00e+00	0	39	0	308281344	62	4769
2026-01-08 01:51:00.51	328.74	17.05	-44.6	-47.0	19.0	0.00e+00	0	39	0	313524224	61	4565
2026-01-08 01:51:03.51	328.08	17.14	-44.8	-47.3	18.7	0.00e+00	0	39	0	319815680	61	4731
2026-01-08 01:51:06.52	327.42	17.23	-45.1	-47.8	18.3	0.00e+00	0	39	0	325058560	61	5005
2026-01-08 01:51:09.52	326.75	17.31	-45.4	-48.1	18.1	0.00e+00	0	39	0	330301440	61	5170
2026-01-08 01:51:12.53	326.08	17.39	-45.6	-48.3	17.9	0.00e+00	0	39	0	336592896	61	5309
2026-01-08 01:51:15.54	325.40	17.46	-46.2	-49.0	17.2	0.00e+00	0	39	0	341835776	63	5146
2026-01-08 01:51:18.54	324.73	17.53	-46.5	-49.4	16.9	0.00e+00	0	39	0	348127232	63	5365
2026-01-08 01:51:21.55	324.04	17.60	-46.3	-49.1	17.1	0.00e+00	0	39	0	353370112	64	4877
2026-01-08 01:51:24.55	323.36	17.66	-46.2	-49.2	17.0	0.00e+00	0	39	0	358612992	64	4961
2026-01-08 01:51:27.56	322.67	17.72	-46.2	-49.1	17.1	0.00e+00	0	39	0	364904448	64	4873
2026-01-08 01:51:30.56	321.98	17.78	-45.8	-48.4	17.7	0.00e+00	0	39	0	370147328	63	4810
2026-01-08 01:51:33.56	321.29	17.83	-45.7	-48.3	17.9	0.00e+00	0	39	0	375390208	63	4717
2026-01-08 01:51:36.57	320.60	17.87	-45.7	-48.3	17.9	0.00e+00	0	39	0	381681664	63	4735
2026-01-08 01:51:39.57	319.90	17.92	-46.0	-49.0	17.3	0.00e+00	0	39	0	386924544	63	5102
2026-01-08 01:51:42.57	319.21	17.95	-46.5	-49.6	16.7	0.00e+00	0	39	0	393216000	63	5469
2026-01-08 01:51:45.58	318.51	17.99	-47.0	-50.3	16.0	0.00e+00	0	39	0	398458880	64	5595
2026-01-08 01:51:48.58	317.81	18.02	-46.9	-50.3	16.0	0.00e+00	0	39	0	403701760	64	5595
2026-01-08 01:51:51.59	317.10	18.04	-46.9	-50.2	15.9	0.00e+00	0	39	0	409993216	64	5589
2026-01-08 01:51:54.60	316.40	18.06	-46.9	-50.1	16.1	0.00e+00	0	39	0	415236096	64	5518
2026-01-08 01:51:57.60	315.69	18.08	-46.3	-49.2	17.0	0.00e+00	0	39	0	420478976	64	4939
2026-01-08 01:52:00.60	314.99	18.09	-46.0	-48.8	17.4	0.00e+00	0	39	0	426770432	63	5009
2026-01-08 01:52:03.60	314.29	18.10	-45.8	-48.5	17.7	0.00e+00	0	39	0	432013312	63	4858
2026-01-08 01:52:06.61	313.58	18.10	-46.0	-48.8	17.4	0.00e+00	0	39	0	438304768	63	5038
2026-01-08 01:52:09.61	312.87	18.10	-46.5	-49.4	16.9	0.00e+00	0	39	0	443547648	63	5355
2026-01-08 01:52:12.62	312.17	18.09	-46.5	-49.4	16.8	0.00e+00	0	39	0	448790528	64	5050
2026-01-08 01:52:15.61	311.46	18.08	-46.5	-49.3	16.8	0.00e+00	0	39	0	455081984	64	5014
2026-01-08 01:52:18.61	310.76	18.06	-46.3	-49.3	16.9	0.00e+00	0	39	0	460324864	64	4984
2026-01-08 01:52:21.62	310.06	18.04	-46.5	-49.5	16.7	0.00e+00	0	39	0	465567744	64	5145
2026-01-08 01:52:24.63	309.35	18.02	-47.1	-50.5	15.8	0.00e+00	0	39	0	471859200	64	5737
2026-01-08 01:52:27.63	308.65	17.99	-47.3	-50.6	15.6	0.00e+00	0	40	0	477102080	65	5505
2026-01-08 01:52:30.64	307.95	17.96	-46.8	-49.9	16.3	0.00e+00	0	40	0	483393536	65	5068
2026-01-08 01:52:33.64	307.25	17.92	-46.2	-49.0	17.2	0.00e+00	0	39	0	488636416	64	4835
2026-01-08 01:52:36.65	306.55	17.88	-46.1	-48.9	17.4	0.00e+00	0	39	0	493879296	63	5043
2026-01-08 01:52:39.66	305.86	17.83	-46.1	-48.8	17.4	0.00e+00	0	39	0	500170752	63	5036
2026-01-08 01:52:42.67	305.16	17.78	-46.3	-48.9	17.4	0.00e+00	0	39	0	505413632	63	5064
2026-01-08 01:52:45.67	304.47	17.73	-46.2	-48.7	17.5	0.00e+00	0	39	0	510656512	63	4976
2026-01-08 01:52:48.67	303.79	17.67	-45.8	-48.2	18.0	0.00e+00	0	39	0	516947968	63	4675
2026-01-08 01:52:51.68	303.10	17.61	-45.3	-47.7	18.5	0.00e+00	0	40	0	522190848	62	4652
2026-01-08 01:52:54.69	302.42	17.54	-45.4	-47.7	18.5	0.00e+00	0	39	0	528482304	62	4683
2026-01-08 01:52:57.70	301.74	17.47	-45.7	-48.2	18.1	0.00e+00	0	40	0	533725184	62	4935
2026-01-08 01:53:00.70	301.06	17.40	-45.8	-48.3	17.9	0.00e+00	0	40	0	538968064	62	5028
2026-01-08 01:53:03.71	300.39	17.32	-46.3	-48.9	17.4	0.00e+00	0	40	0	545259520	63	5042
2026-01-08 01:53:06.72	299.72	17.24	-46.3	-48.9	17.3	0.00e+00	0	39	0	550502400	63	5077
2026-01-08 01:53:09.72	299.05	17.15	-46.4	-49.1	17.2	0.00e+00	0	40	0	555745280	63	5179
2026-01-08 01:53:12.72	298.39	17.06	-46.6	-49.2	17.1	0.00e+00	0	40	0	562036736	63	5273
2026-01-08 01:53:15.72	297.74	16.97	-46.7	-49.5	16.8	0.00e+00	0	40	0	567279616	64	5126
2026-01-08 01:53:18.72	297.08	16.87	-46.7	-49.5	16.8	0.00e+00	0	40	0	572522496	64	5117
2026-01-08 01:53:21.73	296.43	16.77	-46.8	-49.6	16.7	0.00e+00	0	40	0	578813952	64	5190
2026-01-08 01:53:24.74	295.79	16.67	-46.7	-49.4	16.8	0.00e+00	0	39	0	584056832	64	5098
2026-01-08 01:53:27.74	295.15	16.56	-46.8	-49.5	16.7	0.00e+00	0	40	0	590348288	64	5134
2026-01-08 01:53:30.75	294.51	16.46	-47.1	-50.0	16.3	0.00e+00	0	40	0	595591168	64	5416
2026-01-08 01:53:33.75	293.88	16.34	-47.0	-49.9	16.4	0.00e+00	0	39	0	600834048	65	5049
2026-01-08 01:53:36.76	293.25	16.23	-46.9	-49.6	16.6	0.00e+00	0	40	0	607125504	65	4909
2026-01-08 01:53:39.77	292.63	16.11	-46.8	-49.6	16.6	0.00e+00	0	40	0	612368384	65	4892
2026-01-08 01:53:42.78	292.01	15.99	-46.6	-49.3	17.0	0.00e+00	0	40	0	617611264	65	4717
2026-01-08 01:53:45.78	291.40	15.86	-46.5	-49.2	17.1	0.00e+00	0	40	0	623902720	64	4927
2026-01-08 01:53:48.78	290.80	15.74	-46.0	-48.5	17.7	0.00e+00	0	40	0	629145600	63	4849
2026-01-08 01:53:51.79	290.20	15.61	-45.9	-48.4	17.9	0.00e+00	0	40	0	635437056	63	4775
2026-01-08 01:53:54.80	289.60	15.48	-46.0	-48.4	17.8	0.00e+00	0	40	0	640679936	63	4808
2026-01-08 01:53:57.80	289.01	15.34	-46.1	-48.7	17.6	0.00e+00	0	40	0	645922816	63	4931
2026-01-08 01:54:00.80	288.43	15.21	-46.8	-49.6	16.6	0.00e+00	0	40	0	652214272	64	5180
2026-01-08 01:54:03.81	287.84	15.07	-47.4	-50.4	16.0	0.00e+00	0	40	0	657457152	65	5348
2026-01-08 01:54:06.82	287.27	14.93	-47.0	-49.9	16.4	0.00e+00	0	40	0	662700032	65	5045
2026-01-08 01:54:09.82	286.70	14.79	-46.8	-49.5	16.7	0.00e+00	0	40	0	668991488	65	4848
2026-01-08 01:54:12.82	286.14	14.64	-46.9	-49.7	16.6	0.00e+00	0	40	0	674234368	65	4959
2026-01-08 01:54:15.83	285.58	14.50	-47.2	-50.1	16.2	0.00e+00	0	40	0	680525824	65	5206
2026-01-08 01:54:18.83	285.03	14.35	-46.9	-49.7	16.6	0.00e+00	0	40	0	685768704	65	4947
2026-01-08 01:54:21.83	284.48	14.20	-47.2	-50.1	16.2	0.00e+00	0	40	0	691011584	65	5184
2026-01-08 01:54:24.84	283.94	14.05	-46.6	-49.3	16.9	0.00e+00	0	40	0	697303040	65	4742
2026-01-08 01:54:27.85	283.40	13.90	-46.4	-49.0	17.2	0.00e+00	0	40	0	702545920	64	4845
2026-01-08 01:54:30.85	282.87	13.74	-46.9	-49.7	16.5	0.00e+00	0	40	0	707788800	64	5240
2026-01-08 01:54:33.86	282.35	13.59	-47.0	-49.9	16.4	0.00e+00	0	40	0	714080256	64	5346
2026-01-08 01:54:36.86	281.83	13.43	-46.9	-49.7	16.6	0.00e+00	0	40	0	719323136	64	5247
2026-01-08 01:54:39.87	281.32	13.27	-47.1	-50.0	16.3	0.00e+00	0	40	0	725614592	64	5409
2026-01-08 01:54:42.88	280.81	13.11	-47.2	-50.1	16.1	0.00e+00	0	40	0	730857472	65	5187
2026-01-08 01:54:45.88	280.31	12.95	-48.4	-51.9	14.4	0.00e+00	0	40	0	736100352	67	5714
2026-01-08 01:54:48.89	279.81	12.79	-49.4	-53.8	12.8	3.12e-05	0	40	0	742391808	69	6287
2026-01-08 01:54:51.89	279.32	12.63	-49.2	-53.4	13.1	2.51e-05	0	40	0	747634688	69	6057
2026-01-08 01:54:54.90	278.83	12.46	-48.9	-52.7	13.8	7.00e-07	0	40	0	752877568	69	5591
2026-01-08 01:54:57.90	278.35	12.30	-48.6	-52.3	14.2	4.50e-06	0	40	0	759169024	69	5283
2026-01-08 01:55:00.90	277.88	12.13	-47.8	-51.1	15.2	0.00e+00	0	40	0	764411904	67	5183
2026-01-08 01:55:03.91	277.41	11.97	-47.5	-50.7	15.5	0.00e+00	0	40	0	770703360	66	5273
2026-01-08 01:55:06.92	276.94	11.80	-47.9	-51.2	15.1	0.00e+00	0	40	0	775946240	66	5547
2026-01-08 01:55:09.92	276.48	11.63	-47.9	-51.1	15.1	0.00e+00	0	40	0	781189120	66	5514
2026-01-08 01:55:12.93	276.03	11.46	-47.5	-50.6	15.6	0.00e+00	0	40	0	787480576	66	5179
2026-01-08 01:55:15.93	275.58	11.29	-47.1	-50.0	16.2	0.00e+00	0	40	0	792723456	66	4856
2026-01-08 01:55:18.94	275.14	11.12	-46.9	-49.8	16.3	0.00e+00	0	40	0	797966336	65	5036
2026-01-08 01:55:21.95	274.70	10.95	-47.1	-50.1	16.1	0.00e+00	0	40	0	804257792	65	5180
2026-01-08 01:55:24.95	274.27	10.78	-47.5	-50.6	15.6	0.00e+00	0	40	0	809500672	65	5487
2026-01-08 01:55:27.95	273.84	10.61	-47.6	-50.8	15.4	0.00e+00	0	40	0	815792128	66	5316
2026-01-08 01:55:30.95	273.42	10.44	-47.6	-50.8	15.4	0.00e+00	0	40	0	821035008	66	5290
2026-01-08 01:55:33.96	273.00	10.27	-47.4	-50.6	15.5	0.00e+00	0	40	0	826277888	66	5213
2026-01-08 01:55:36.97	272.58	10.10	-47.1	-50.2	15.9	0.00e+00	0	40	0	832569344	66	4976
2026-01-08 01:55:39.98	272.18	9.93	-46.6	-49.5	16.6	0.00e+00	0	40	0	837812224	65	4837
2026-01-08 01:55:42.98	271.77	9.76	-46.0	-48.8	17.2	0.00e+00	0	40	0	843055104	64	4735
2026-01-08 01:55:45.98	271.38	9.58	-46.1	-48.8	17.2	0.00e+00	0	40	0	849346560	63	5009
2026-01-08 01:55:48.99	270.98	9.41	-46.5	-49.3	16.8	0.00e+00	0	40	0	854589440	63	5307
2026-01-08 01:55:52.00	270.59	9.24	-46.5	-49.3	16.7	0.00e+00	0	40	0	860880896	63	5340
2026-01-08 01:55:55.00	270.21	9.07	-46.3	-49.0	17.1	0.00e+00	0	40	0	866123776	63	5140
2026-01-08 01:55:58.01	269.83	8.89	-52.4	-67.6	3.8	1.49e+00	0	40	104	869269504	75	21891
2026-01-08 01:56:01.01	269.45	8.72	-52.9	-68.1	3.8	1.49e+00	0	40	104	869269504	76	21769
2026-01-08 01:56:04.02	269.08	8.55	-52.8	-68.2	3.8	1.49e+00	0	40	104	869269504	76	22009
2026-01-08 01:56:07.02	268.72	8.38	-53.0	-68.2	3.8	1.49e+00	0	40	104	869269504	76	22117
2026-01-08 01:56:10.02	268.35	8.20	-52.9	-68.0	3.8	1.49e+00	0	40	104	869269504	76	21722
2026-01-08 01:56:13.02	268.00	8.03	-52.8	-68.0	3.8	1.49e+00	0	40	104	869269504	76	21722
2026-01-08 01:56:16.03	267.64	7.86	-52.8	-68.1	3.8	1.49e+00	0	40	104	869269504	76	21757
2026-01-08 01:56:19.03	267.29	7.69	-52.8	-68.0	3.8	1.49e+00	0	40	104	869269504	76	21644
2026-01-08 01:56:22.03	266.95	7.52	-52.8	-68.0	3.8	1.49e+00	0	40	104	869269504	76	21537
2026-01-08 01:56:25.04	266.61	7.35	-52.8	-68.0	3.8	1.49e+00	0	40	104	869269504	76	21594
2026-01-08 01:56:28.05	266.27	7.17	-52.7	-68.0	3.8	1.49e+00	0	40	104	869269504	76	21535
2026-01-08 01:56:31.06	265.94	7.00	-52.6	-67.9	3.8	1.49e+00	0	40	104	869269504	76	21414
2026-01-08 01:56:34.06	265.61	6.83	-52.4	-67.9	3.8	1.49e+00	0	40	104	869269504	76	21349
2026-01-08 01:56:37.07	265.28	6.66	-52.3	-67.8	3.8	1.49e+00	0	40	104	869269504	76	21180
2026-01-08 01:56:40.08	264.96	6.49	-52.2	-67.7	3.8	1.49e+00	0	40	104	869269504	76	21010
2026-01-08 01:56:43.09	264.65	6.32	-52.2	-67.7	3.8	1.49e+00	0	40	104	869269504	76	20902
2026-01-08 01:56:46.10	264.33	6.15	-52.1	-67.7	3.8	1.49e+00	0	40	104	869269504	76	20895
2026-01-08 01:56:49.11	264.02	5.98	-52.1	-67.6	3.8	1.49e+00	0	40	104	869269504	76	20726
2026-01-08 01:56:52.11	263.72	5.81	-52.1	-67.6	3.8	1.49e+00	0	40	104	869269504	76	20772
2026-01-08 01:56:55.12	263.41	5.64	-52.1	-67.7	3.8	1.49e+00	0	40	104	869269504	76	20808
2026-01-08 01:56:58.13	263.11	5.48	-52.1	-67.7	3.8	1.49e+00	0	40	104	869269504	76	20786
2026-01-08 01:57:01.14	262.82	5.31	-52.1	-67.6	3.8	1.49e+00	0	40	104	869269504	76	20744
2026-01-08 01:57:04.15	262.53	5.14	-52.1	-67.6	3.8	1.49e+00	0	40	104	869269504	76	20769
2026-01-08 01:57:07.15	262.24	4.97	-52.0	-67.6	3.8	1.49e+00	0	40	104	869269504	76	20677

#Closed at: 2026-01-08 01:57:08
#Recorded file [869 MB]: D:/Data/31040_260108_044706.dat