passes_logs/2026/01/08/T1/T1__20260108_080258_KHAYYAM_rec.log

#Pass ID: 20260108_080258_KHAYYAM
#Satellite: KHAYYAM
#Configuration: KHAYYAM_480M
#almurnet v.1.7.20251203
#Start time: 2026-01-08 08:02:58

#Version: 2.0.20230620
#Station: T1
#Location: 37.570604 lon 55.790049 lat
#TLE: 1 53370U 22096A   26005.63766736  .00008095  00000+0  32978-3 0  9997
#TLE: 2 53370  97.3565 272.8146 0001238  87.7645 272.3734 15.24731212189819

#Time	Az	El	Level	Level2	SNR	BER	BlckErr	Temp	State	Recorded	gain1	gain2
2026-01-08 08:02:58.20	171.07	4.97	-53.1	-57.8	3.5	0.00e+00	0	46	0	0	77	25163
2026-01-08 08:03:01.20	171.13	5.21	-48.0	-53.4	3.7	0.00e+00	0	46	104	0	67	27039
2026-01-08 08:03:04.21	171.20	5.46	-48.1	-53.3	3.7	0.00e+00	0	47	104	0	67	26694
2026-01-08 08:03:07.22	171.27	5.71	-48.1	-53.3	3.7	0.00e+00	0	47	104	0	67	26769
2026-01-08 08:03:10.23	171.34	5.97	-48.1	-53.3	3.7	0.00e+00	0	47	104	0	67	26782
2026-01-08 08:03:13.24	171.41	6.23	-48.1	-53.3	3.7	0.00e+00	0	47	104	0	67	26855
2026-01-08 08:03:16.24	171.48	6.49	-48.1	-53.4	3.7	0.00e+00	0	48	104	0	67	26942
2026-01-08 08:03:19.25	171.56	6.76	-48.3	-53.5	3.7	0.00e+00	0	48	104	0	67	27501
2026-01-08 08:03:22.26	171.63	7.02	-48.1	-53.3	3.7	0.00e+00	0	48	104	0	67	26883
2026-01-08 08:03:25.27	171.71	7.30	-48.2	-53.4	3.7	0.00e+00	0	48	104	0	67	27036
2026-01-08 08:03:28.28	171.79	7.58	-47.9	-53.3	3.7	0.00e+00	0	49	104	0	67	26635
2026-01-08 08:03:31.29	171.87	7.86	-47.9	-53.1	3.7	0.00e+00	0	49	104	0	67	26198
2026-01-08 08:03:34.30	171.96	8.14	-48.0	-53.1	3.7	0.00e+00	0	49	104	0	67	26246
2026-01-08 08:03:37.31	172.04	8.44	-47.9	-53.2	3.7	0.00e+00	0	49	104	0	67	26337
2026-01-08 08:03:40.31	172.13	8.73	-47.9	-53.2	3.7	0.00e+00	0	49	104	0	67	26295
2026-01-08 08:03:43.32	172.22	9.03	-47.9	-53.2	3.7	0.00e+00	0	49	104	0	67	26336
2026-01-08 08:03:46.33	172.31	9.33	-47.8	-52.9	3.7	0.00e+00	0	49	104	0	66	27145
2026-01-08 08:03:49.33	172.40	9.64	-47.4	-52.8	3.7	0.00e+00	0	50	104	0	66	26632
2026-01-08 08:03:52.34	172.49	9.96	-47.3	-52.6	3.7	0.00e+00	0	50	104	0	66	25989
2026-01-08 08:03:55.34	172.59	10.28	-48.5	-53.6	3.7	0.00e+00	0	50	104	0	68	26128
2026-01-08 08:03:58.36	172.69	10.61	-47.1	-52.4	3.6	0.00e+00	0	50	104	0	66	25497
2026-01-08 08:04:01.36	172.80	10.94	-48.2	-53.3	3.7	0.00e+00	0	50	104	0	67	26719
2026-01-08 08:04:04.37	172.90	11.28	-49.3	-54.4	3.7	0.00e+00	0	50	104	0	69	27007
2026-01-08 08:04:07.38	173.01	11.62	-49.2	-54.3	3.7	0.00e+00	0	50	104	0	69	26778
2026-01-08 08:04:10.39	173.12	11.97	-49.3	-54.4	3.7	0.00e+00	0	50	104	0	69	26984
2026-01-08 08:04:13.38	173.23	12.33	-49.3	-54.5	3.7	0.00e+00	0	50	104	0	69	27207
2026-01-08 08:04:16.40	173.35	12.69	-49.2	-54.3	3.7	0.00e+00	0	50	104	0	70	25271
2026-01-08 08:04:19.40	173.47	13.06	-50.5	-55.5	3.7	0.00e+00	0	50	104	0	71	27296
2026-01-08 08:04:22.39	173.59	13.44	-52.5	-57.1	3.7	0.00e+00	0	51	104	0	75	26038
2026-01-08 08:04:25.38	173.72	13.83	-51.7	-56.4	3.7	0.00e+00	0	51	104	0	74	25670
2026-01-08 08:04:28.37	173.85	14.22	-52.4	-57.0	3.7	0.00e+00	0	51	104	0	75	25892
2026-01-08 08:04:31.35	173.99	14.62	-52.8	-57.4	3.7	0.00e+00	0	51	104	0	77	24005
2026-01-08 08:04:34.35	174.12	15.03	-52.5	-57.2	3.7	0.00e+00	0	51	104	0	76	24977
2026-01-08 08:04:37.35	174.27	15.46	-52.2	-56.9	3.7	0.00e+00	0	51	104	0	76	24161
2026-01-08 08:04:40.34	174.42	15.89	-52.2	-56.7	3.7	0.00e+00	0	51	104	0	76	23493
2026-01-08 08:04:43.34	174.57	16.33	-52.5	-57.1	3.7	0.00e+00	0	50	104	0	76	24569
2026-01-08 08:04:46.34	174.73	16.78	-52.7	-57.5	3.7	0.00e+00	0	51	104	0	76	25794
2026-01-08 08:04:49.33	174.89	17.24	-52.4	-56.9	3.7	0.00e+00	0	51	104	0	76	23990
2026-01-08 08:04:52.32	175.06	17.71	-52.5	-57.0	3.7	0.00e+00	0	51	104	0	76	24418
2026-01-08 08:04:55.32	175.23	18.20	-52.5	-57.1	3.7	0.00e+00	0	51	104	0	76	24711
2026-01-08 08:04:58.32	175.41	18.70	-52.7	-57.0	3.7	0.00e+00	0	51	104	0	76	24507
2026-01-08 08:05:01.31	175.60	19.20	-52.7	-57.1	3.7	0.00e+00	0	51	104	0	76	24804
2026-01-08 08:05:04.30	175.80	19.73	-52.9	-57.4	3.7	0.00e+00	0	51	104	0	76	25385
2026-01-08 08:05:07.30	176.00	20.27	-51.9	-55.5	3.7	0.00e+00	0	51	104	0	75	21685
2026-01-08 08:05:10.29	176.21	20.82	-52.4	-56.5	3.7	0.00e+00	0	51	104	0	75	24295
2026-01-08 08:05:13.28	176.43	21.39	-51.4	-54.9	3.7	0.00e+00	0	51	104	0	74	21596
2026-01-08 08:05:16.28	176.65	21.97	-51.4	-54.6	3.7	0.00e+00	0	51	104	0	74	20858
2026-01-08 08:05:19.27	176.89	22.57	-52.8	-57.5	3.7	0.00e+00	0	51	104	0	76	25680
2026-01-08 08:05:22.27	177.14	23.19	-53.1	-57.7	3.7	0.00e+00	0	51	104	0	76	26494
2026-01-08 08:05:25.27	177.40	23.83	-51.4	-54.6	3.7	0.00e+00	0	51	104	0	74	20709
2026-01-08 08:05:28.26	177.67	24.48	-52.6	-56.5	3.7	0.00e+00	0	51	104	0	75	24279
2026-01-08 08:05:31.26	177.95	25.16	-51.8	-54.9	3.7	0.00e+00	0	51	104	0	75	20285
2026-01-08 08:05:34.25	178.25	25.86	-51.5	-54.5	3.7	0.00e+00	0	51	104	0	75	19351
2026-01-08 08:05:37.25	178.56	26.58	-53.0	-56.9	3.7	0.00e+00	0	51	104	0	76	24149
2026-01-08 08:05:40.25	178.89	27.33	-52.8	-56.2	3.7	0.00e+00	0	51	104	0	77	20988
2026-01-08 08:05:43.25	179.23	28.10	-52.4	-55.9	3.7	0.00e+00	0	51	104	0	76	21519
2026-01-08 08:05:46.25	179.59	28.89	-53.3	-57.4	3.7	0.00e+00	0	51	104	0	77	24166
2026-01-08 08:05:49.24	179.98	29.71	-53.4	-57.9	3.7	0.00e+00	0	51	104	0	77	25559
2026-01-08 08:05:52.24	180.38	30.56	-53.3	-57.7	3.7	0.00e+00	0	51	104	0	77	24997
2026-01-08 08:05:55.23	180.81	31.44	-53.4	-57.9	3.7	0.00e+00	0	51	104	0	77	25594
2026-01-08 08:05:58.23	181.26	32.35	-52.4	-56.1	3.7	0.00e+00	0	51	104	0	76	21990
2026-01-08 08:06:01.22	181.74	33.28	-52.2	-55.3	3.7	0.00e+00	0	51	104	0	75	21208
2026-01-08 08:06:04.22	182.25	34.26	-51.8	-54.7	3.7	0.00e+00	0	51	104	0	75	19876
2026-01-08 08:06:07.21	182.79	35.26	-52.8	-56.4	3.7	0.00e+00	0	51	104	0	76	22694
2026-01-08 08:06:10.20	183.37	36.31	-52.3	-55.8	3.7	0.00e+00	0	51	104	0	76	21222
2026-01-08 08:06:13.19	183.99	37.38	-52.4	-56.0	3.7	0.00e+00	0	51	104	0	76	21693
2026-01-08 08:06:16.19	184.66	38.50	-53.1	-57.4	3.7	0.00e+00	0	51	104	0	76	25658
2026-01-08 08:06:19.18	185.37	39.66	-53.7	-58.2	3.7	0.00e+00	0	51	104	0	78	25091
2026-01-08 08:06:22.17	186.14	40.86	-53.8	-58.3	3.7	0.00e+00	0	51	104	0	78	25107
2026-01-08 08:06:25.17	186.98	42.10	-53.9	-58.4	3.7	0.00e+00	0	51	104	0	78	25400
2026-01-08 08:06:28.16	187.88	43.37	-52.4	-55.5	3.7	0.00e+00	0	51	104	0	76	20505
2026-01-08 08:06:31.15	188.86	44.69	-51.6	-54.3	3.8	0.00e+00	0	52	104	0	75	18823
2026-01-08 08:06:34.14	189.93	46.06	-53.9	-58.2	3.7	0.00e+00	0	51	104	0	78	25040
2026-01-08 08:06:37.13	191.10	47.46	-51.2	-53.8	3.8	0.00e+00	0	51	104	0	73	20065
2026-01-08 08:06:40.12	192.38	48.90	-53.9	-58.4	3.7	0.00e+00	0	51	104	0	78	25414
2026-01-08 08:06:43.11	193.79	50.38	-53.9	-58.3	3.7	0.00e+00	0	51	104	0	78	25343
2026-01-08 08:06:46.11	195.36	51.90	-53.2	-58.0	3.7	0.00e+00	0	51	104	0	78	24450
2026-01-08 08:06:49.10	197.10	53.44	-54.0	-58.4	3.7	0.00e+00	0	51	104	0	78	25419
2026-01-08 08:06:52.10	199.04	55.02	-53.9	-58.3	3.7	0.00e+00	0	52	104	0	78	25198
2026-01-08 08:06:55.09	201.21	56.60	-53.8	-58.2	3.7	0.00e+00	0	51	104	0	78	24838
2026-01-08 08:06:58.09	203.65	58.20	-54.0	-58.3	3.7	0.00e+00	0	51	104	0	78	25348
2026-01-08 08:07:01.08	206.40	59.78	-53.7	-58.1	3.7	0.00e+00	0	52	104	0	78	24648
2026-01-08 08:07:04.07	209.50	61.34	-53.8	-58.2	3.7	0.00e+00	0	52	104	0	78	24887
2026-01-08 08:07:07.07	213.03	62.86	-53.4	-58.1	3.7	0.00e+00	0	51	104	0	78	24638
2026-01-08 08:07:10.07	217.03	64.32	-54.1	-58.5	3.7	0.00e+00	0	51	104	0	78	25727
2026-01-08 08:07:13.06	221.54	65.68	-53.8	-58.3	3.7	0.00e+00	0	51	104	0	78	25283
2026-01-08 08:07:16.05	226.62	66.91	-53.5	-58.2	3.7	0.00e+00	0	51	104	0	78	24992
2026-01-08 08:07:19.05	232.30	67.97	-53.8	-58.3	3.7	0.00e+00	0	52	104	0	78	25190
2026-01-08 08:07:22.05	238.55	68.83	-54.1	-58.6	3.7	0.00e+00	0	51	104	0	78	26048
2026-01-08 08:07:25.05	245.29	69.44	-53.7	-58.3	3.7	0.00e+00	0	52	104	0	78	25190
2026-01-08 08:07:28.04	252.35	69.78	-53.6	-58.3	3.7	0.00e+00	0	51	104	0	78	25242
2026-01-08 08:07:31.03	259.55	69.83	-53.7	-58.2	3.7	0.00e+00	0	52	104	0	78	25089
2026-01-08 08:07:34.03	266.70	69.58	-53.8	-58.2	3.7	0.00e+00	0	51	104	0	78	25038
2026-01-08 08:07:37.02	273.54	69.06	-53.7	-58.2	3.7	0.00e+00	0	52	104	0	78	24930
2026-01-08 08:07:40.02	279.95	68.28	-53.7	-58.0	3.7	0.00e+00	0	52	104	0	78	24484
2026-01-08 08:07:43.01	285.80	67.28	-53.9	-58.0	3.7	0.00e+00	0	52	104	0	78	24439
2026-01-08 08:07:45.99	291.05	66.11	-53.3	-57.8	3.7	0.00e+00	0	52	104	0	78	23834
2026-01-08 08:07:48.99	295.76	64.79	-53.7	-58.0	3.7	0.00e+00	0	52	104	0	78	24266
2026-01-08 08:07:51.99	299.92	63.37	-53.9	-58.2	3.7	0.00e+00	0	52	104	0	78	24895
2026-01-08 08:07:54.99	303.59	61.87	-53.9	-58.3	3.7	0.00e+00	0	52	104	0	78	25309
2026-01-08 08:07:57.98	306.83	60.32	-53.7	-58.3	3.7	0.00e+00	0	52	104	0	78	25352
2026-01-08 08:08:00.98	309.69	58.75	-53.9	-58.3	3.7	0.00e+00	0	52	104	0	78	25104
2026-01-08 08:08:03.97	312.22	57.16	-53.3	-57.8	3.7	0.00e+00	0	52	104	0	78	23873
2026-01-08 08:08:06.96	314.47	55.58	-53.4	-57.6	3.7	0.00e+00	0	52	104	0	78	23282
2026-01-08 08:08:09.95	316.48	54.01	-53.5	-57.9	3.7	0.00e+00	0	52	104	0	78	24033
2026-01-08 08:08:12.94	318.28	52.47	-53.6	-58.1	3.7	0.00e+00	0	52	104	0	78	24608
2026-01-08 08:08:15.93	319.89	50.95	-53.3	-57.9	3.7	0.00e+00	0	51	104	0	78	24175
2026-01-08 08:08:18.92	321.35	49.46	-53.1	-57.7	3.7	0.00e+00	0	52	104	0	78	23641
2026-01-08 08:08:21.92	322.68	48.01	-53.7	-58.2	3.7	0.00e+00	0	52	104	0	78	24999
2026-01-08 08:08:24.91	323.89	46.60	-53.0	-57.8	3.7	0.00e+00	0	52	104	0	78	23951
2026-01-08 08:08:27.91	324.99	45.22	-53.5	-58.0	3.7	0.00e+00	0	52	104	0	77	25911
2026-01-08 08:08:30.91	326.00	43.89	-53.6	-58.1	3.7	0.00e+00	0	52	104	0	78	24785
2026-01-08 08:08:33.90	326.93	42.60	-53.6	-58.2	3.7	0.00e+00	0	52	104	0	78	24909
2026-01-08 08:08:36.90	327.79	41.35	-53.3	-58.1	3.7	0.00e+00	0	52	104	0	78	24712
2026-01-08 08:08:39.91	328.58	40.14	-53.1	-58.0	3.7	0.00e+00	0	52	104	0	78	24311
2026-01-08 08:08:42.91	329.32	38.98	-52.9	-57.9	3.7	0.00e+00	0	52	104	0	76	26926
2026-01-08 08:08:45.91	330.00	37.85	-53.3	-58.1	3.7	0.00e+00	0	52	104	0	77	26056
2026-01-08 08:08:48.91	330.64	36.76	-53.2	-58.1	3.7	0.00e+00	0	52	104	0	77	26062
2026-01-08 08:08:51.91	331.23	35.71	-53.4	-57.9	3.7	0.00e+00	0	51	104	0	77	25626
2026-01-08 08:08:54.91	331.79	34.69	-53.3	-57.8	3.7	0.00e+00	0	52	104	0	77	25137
2026-01-08 08:08:57.92	332.31	33.71	-53.4	-57.9	3.7	0.00e+00	0	52	104	0	77	25448
2026-01-08 08:09:00.93	332.80	32.76	-52.8	-57.5	3.7	0.00e+00	0	52	104	0	77	24447
2026-01-08 08:09:03.94	333.26	31.84	-52.1	-57.1	3.7	0.00e+00	0	52	104	0	75	26237
2026-01-08 08:09:06.94	333.70	30.95	-52.8	-57.6	3.7	0.00e+00	0	52	104	0	76	25982
2026-01-08 08:09:09.95	334.11	30.09	-52.8	-57.0	3.7	0.00e+00	0	52	104	0	77	23055
2026-01-08 08:09:12.95	334.50	29.27	-51.7	-56.7	3.7	0.00e+00	0	52	104	0	75	25021
2026-01-08 08:09:15.93	334.87	28.47	-52.2	-57.2	3.7	0.00e+00	0	52	104	0	75	26353
2026-01-08 08:09:18.93	335.22	27.70	-52.6	-57.5	3.7	0.00e+00	0	52	104	0	75	27502
2026-01-08 08:09:21.93	335.55	26.95	-52.8	-57.9	3.7	0.00e+00	0	52	104	0	77	25401
2026-01-08 08:09:24.92	335.87	26.23	-53.4	-58.0	3.7	0.00e+00	0	52	104	0	77	25870
2026-01-08 08:09:27.91	336.17	25.53	-52.6	-57.5	3.7	0.00e+00	0	52	104	0	77	24401
2026-01-08 08:09:30.90	336.46	24.85	-51.8	-57.0	3.7	0.00e+00	0	51	104	0	75	25820
2026-01-08 08:09:33.89	336.73	24.19	-52.6	-57.5	3.7	0.00e+00	0	52	104	0	75	27327
2026-01-08 08:09:36.89	336.99	23.54	-53.3	-58.1	3.7	0.00e+00	0	52	104	0	77	26146
2026-01-08 08:09:39.89	337.25	22.92	-52.8	-57.7	3.7	0.00e+00	0	52	104	0	77	25062
2026-01-08 08:09:42.88	337.49	22.32	-52.2	-57.3	3.7	0.00e+00	0	52	104	0	75	26671
2026-01-08 08:09:45.87	337.72	21.73	-52.2	-57.6	3.7	0.00e+00	0	52	104	0	75	27566
2026-01-08 08:09:48.87	337.94	21.16	-52.6	-57.7	3.7	0.00e+00	0	52	104	0	75	27895
2026-01-08 08:09:51.86	338.16	20.61	-52.0	-57.2	3.7	0.00e+00	0	52	104	0	75	26517
2026-01-08 08:09:54.85	338.36	20.07	-51.6	-57.1	3.7	0.00e+00	0	52	104	0	74	27574
2026-01-08 08:09:57.84	338.56	19.54	-52.5	-57.7	3.7	0.00e+00	0	52	104	0	75	27857
2026-01-08 08:10:00.83	338.75	19.03	-53.2	-58.1	3.7	0.00e+00	0	52	104	0	77	26072
2026-01-08 08:10:03.83	338.94	18.53	-52.5	-57.6	3.7	0.00e+00	0	52	104	0	75	27833
2026-01-08 08:10:06.83	339.11	18.04	-53.3	-58.1	3.7	0.00e+00	0	52	104	0	77	26170
2026-01-08 08:10:09.82	339.29	17.56	-53.4	-58.2	3.7	0.00e+00	0	52	104	0	77	26335
2026-01-08 08:10:12.81	339.45	17.10	-53.4	-58.1	3.7	0.00e+00	0	52	104	0	77	26126
2026-01-08 08:10:15.81	339.61	16.65	-52.3	-57.4	3.7	0.00e+00	0	52	104	0	76	25622
2026-01-08 08:10:18.80	339.77	16.21	-51.7	-57.0	3.7	0.00e+00	0	52	104	0	75	25868
2026-01-08 08:10:21.80	339.92	15.77	-52.3	-57.4	3.7	0.00e+00	0	52	104	0	75	27097
2026-01-08 08:10:24.79	340.07	15.35	-51.3	-56.8	3.7	0.00e+00	0	52	104	0	74	26856
2026-01-08 08:10:27.79	340.21	14.94	-52.1	-57.3	3.7	0.00e+00	0	52	104	0	75	26699
2026-01-08 08:10:30.78	340.35	14.53	-52.0	-57.2	3.7	0.00e+00	0	52	104	0	75	26407
2026-01-08 08:10:33.77	340.48	14.14	-50.1	-56.1	3.7	0.00e+00	0	52	104	0	72	27534
2026-01-08 08:10:36.77	340.61	13.75	-51.3	-57.0	3.7	0.00e+00	0	52	104	0	73	28892
2026-01-08 08:10:39.76	340.74	13.37	-52.0	-57.2	3.7	0.00e+00	0	52	104	0	75	26546
2026-01-08 08:10:42.75	340.86	13.00	-49.8	-55.7	3.7	0.00e+00	0	52	104	0	71	28146
2026-01-08 08:10:45.75	340.98	12.64	-50.0	-56.0	3.7	0.00e+00	0	52	104	0	71	28858
2026-01-08 08:10:48.75	341.09	12.28	-50.3	-56.1	3.7	0.00e+00	0	52	104	0	72	27617
2026-01-08 08:10:51.74	341.21	11.93	-51.2	-56.7	3.7	0.00e+00	0	52	104	0	72	29771
2026-01-08 08:10:54.73	341.32	11.58	-50.1	-56.1	3.7	0.00e+00	0	52	104	0	70	31136
2026-01-08 08:10:57.73	341.43	11.25	-51.1	-56.8	3.7	0.00e+00	0	52	104	0	72	29917
2026-01-08 08:11:00.72	341.53	10.91	-51.0	-56.8	3.7	0.00e+00	0	52	104	0	73	28304
2026-01-08 08:11:03.72	341.63	10.59	-51.8	-57.5	3.7	0.00e+00	0	52	104	0	74	28998
2026-01-08 08:11:06.70	341.73	10.27	-52.2	-57.7	3.7	0.00e+00	0	52	104	0	75	27999
2026-01-08 08:11:09.70	341.83	9.95	-52.1	-57.3	3.7	0.00e+00	0	52	104	0	75	26863
2026-01-08 08:11:12.69	341.93	9.65	-51.1	-56.9	3.7	0.00e+00	0	52	104	0	74	27162
2026-01-08 08:11:15.68	342.02	9.34	-50.5	-56.9	3.7	0.00e+00	0	52	104	0	72	30234
2026-01-08 08:11:18.68	342.11	9.04	-51.3	-57.0	3.7	0.00e+00	0	52	104	0	73	29083
2026-01-08 08:11:21.67	342.20	8.75	-50.6	-56.3	3.7	0.00e+00	0	52	104	0	73	26847
2026-01-08 08:11:24.66	342.29	8.46	-51.9	-57.2	3.7	0.00e+00	0	52	104	0	76	25064
2026-01-08 08:11:27.65	342.37	8.17	-52.7	-57.3	3.7	0.00e+00	0	52	104	0	76	25166
2026-01-08 08:11:30.65	342.46	7.89	-53.7	-58.3	3.7	0.00e+00	0	52	104	0	78	25379
2026-01-08 08:11:33.64	342.54	7.61	-53.7	-58.3	3.7	0.00e+00	0	52	104	0	79	23910
2026-01-08 08:11:36.64	342.62	7.34	-54.3	-58.7	3.7	0.00e+00	0	52	104	0	79	24871
2026-01-08 08:11:39.63	342.70	7.07	-54.0	-58.6	3.7	0.00e+00	0	52	104	0	79	24679
2026-01-08 08:11:42.63	342.78	6.80	-53.9	-58.3	3.7	0.00e+00	0	52	104	0	79	23898
2026-01-08 08:11:45.63	342.85	6.54	-53.2	-57.6	3.7	0.00e+00	0	52	104	0	78	23288
2026-01-08 08:11:48.62	342.93	6.28	-52.8	-57.5	3.7	0.00e+00	0	52	104	0	77	24327
2026-01-08 08:11:51.61	343.00	6.03	-52.8	-57.5	3.7	0.00e+00	0	52	104	0	77	24343
2026-01-08 08:11:54.61	343.07	5.78	-52.7	-57.5	3.7	0.00e+00	0	52	104	0	77	24244
2026-01-08 08:11:57.60	343.14	5.53	-52.7	-57.4	3.7	0.00e+00	0	52	104	0	77	24102
2026-01-08 08:12:00.59	343.21	5.28	-52.7	-57.4	3.7	0.00e+00	0	52	104	0	77	24120
2026-01-08 08:12:03.59	343.28	5.04	-52.7	-57.4	3.7	0.00e+00	0	52	104	0	77	24131

#Closed at: 2026-01-08 08:12:05
#Recorded file [0 MB]: D:/Data/31040_260108_110258.dat