passes_logs/2026/01/08/T1/T1__20260108_231754_NOAA_21_JPSS-2_rec.log

#Pass ID: 20260108_231754_NOAA 21 (JPSS-2)
#Satellite: NOAA 21 (JPSS-2)
#Configuration: NOAA 21
#almurnet v.1.7.20251203
#Start time: 2026-01-08 23:17:56

#Version: 2.0.20230620
#Station: T1
#Location: 37.570604 lon 55.790049 lat
#TLE: 1 54234U 22150A   26008.45757862  .00000119  00000+0  77172-4 0  9996
#TLE: 2 54234  98.7494 309.4367 0000894 328.2777  31.8345 14.19533328163889

#Time	Az	El	Level	Level2	SNR	BER	BlckErr	Temp	State	Recorded	gain1	gain2
2026-01-08 23:17:56.29	19.08	5.15	-47.2	-61.7	3.8	1.49e+00	0	41	104	0	65	19685
2026-01-08 23:17:59.30	19.15	5.36	-47.2	-61.8	3.8	1.49e+00	0	41	104	0	65	20003
2026-01-08 23:18:02.31	19.23	5.58	-47.2	-61.5	3.8	1.49e+00	0	41	104	0	65	19342
2026-01-08 23:18:05.33	19.31	5.79	-47.1	-60.6	3.8	1.49e+00	0	41	104	0	65	17408
2026-01-08 23:18:08.34	19.39	6.01	-47.0	-59.9	3.8	1.49e+00	0	42	104	0	65	15980
2026-01-08 23:18:11.35	19.47	6.23	-47.1	-59.8	3.9	1.49e+00	0	42	104	0	65	15845
2026-01-08 23:18:14.36	19.55	6.45	-47.1	-60.5	3.8	1.49e+00	0	42	104	0	65	17244
2026-01-08 23:18:17.37	19.63	6.68	-47.1	-59.5	3.9	1.49e+00	0	42	104	0	65	15286
2026-01-08 23:18:20.39	19.72	6.90	-46.9	-58.7	3.9	1.47e+00	0	42	104	0	65	14033
2026-01-08 23:18:23.40	19.80	7.13	-46.9	-58.3	4.2	1.47e+00	0	42	104	0	65	13375
2026-01-08 23:18:26.41	19.89	7.36	-47.2	-60.7	3.8	1.49e+00	0	42	104	0	65	17640
2026-01-08 23:18:29.42	19.97	7.59	-47.2	-61.4	3.8	1.49e+00	0	42	104	0	65	19149
2026-01-08 23:18:32.44	20.06	7.83	-46.9	-57.5	4.4	1.44e+00	0	42	104	0	65	12191
2026-01-08 23:18:35.45	20.15	8.06	-46.5	-55.0	5.8	4.06e-01	0	42	0	0	65	9113
2026-01-08 23:18:38.47	20.24	8.30	-46.3	-54.1	6.5	2.36e-01	0	42	0	0	64	8662
2026-01-08 23:18:41.48	20.33	8.54	-46.2	-53.6	6.9	1.68e-01	0	43	0	0	64	8177
2026-01-08 23:18:44.49	20.42	8.78	-46.0	-52.9	7.6	1.09e-01	0	43	0	0	64	7595
2026-01-08 23:18:47.51	20.52	9.03	-46.1	-52.7	7.9	7.55e-02	0	43	0	0	63	7823
2026-01-08 23:18:50.52	20.61	9.28	-46.2	-53.4	7.3	8.23e-02	0	42	0	0	63	8464
2026-01-08 23:18:53.52	20.71	9.53	-43.6	-46.9	13.8	4.50e-06	0	43	0	0	59	5087
2026-01-08 23:18:56.53	20.81	9.78	-42.9	-45.9	14.9	0.00e+00	0	43	0	0	57	5043
2026-01-08 23:18:59.54	20.91	10.03	-42.3	-45.0	15.8	0.00e+00	0	43	0	0	56	4844
2026-01-08 23:19:02.56	21.01	10.29	-41.7	-44.3	16.3	0.00e+00	0	43	0	0	55	4712
2026-01-08 23:19:05.57	21.11	10.55	-41.4	-43.8	16.8	0.00e+00	0	43	0	0	54	4754
2026-01-08 23:19:08.57	21.22	10.81	-41.4	-43.9	16.7	0.00e+00	0	43	0	0	54	4794
2026-01-08 23:19:11.58	21.32	11.08	-41.2	-43.6	17.1	0.00e+00	0	43	0	0	54	4624
2026-01-08 23:19:14.60	21.43	11.35	-41.2	-43.6	17.1	0.00e+00	0	43	0	0	54	4612
2026-01-08 23:19:17.85	21.55	11.64	-41.1	-43.4	17.3	0.00e+00	0	43	0	0	54	4515
2026-01-08 23:19:20.80	21.66	11.91	-41.1	-43.3	17.3	0.00e+00	0	43	0	0	54	4490
2026-01-08 23:19:23.98	21.78	12.20	-41.1	-43.3	17.4	0.00e+00	0	43	0	0	54	4463
2026-01-08 23:19:26.85	21.89	12.47	-41.2	-43.4	17.4	0.00e+00	0	43	0	0	54	4495
2026-01-08 23:19:30.00	22.01	12.77	-41.2	-43.3	17.4	0.00e+00	0	43	0	0	54	4492
2026-01-08 23:19:32.86	22.13	13.04	-41.3	-43.4	17.3	0.00e+00	0	43	0	0	54	4519
2026-01-08 23:19:36.01	22.25	13.34	-41.1	-43.1	17.6	0.00e+00	0	43	0	0	54	4359
2026-01-08 23:19:38.88	22.37	13.62	-40.9	-42.9	17.7	0.00e+00	0	43	0	0	53	4540
2026-01-08 23:19:42.03	22.50	13.93	-40.9	-42.9	17.7	0.00e+00	0	43	0	0	53	4525
2026-01-08 23:19:44.89	22.63	14.22	-40.8	-42.8	17.9	0.00e+00	0	43	0	0	53	4469
2026-01-08 23:19:48.04	22.76	14.54	-40.7	-42.7	18.0	0.00e+00	0	43	0	0	53	4409
2026-01-08 23:19:50.91	22.89	14.83	-40.8	-42.8	17.9	0.00e+00	0	43	0	0	53	4444
2026-01-08 23:19:54.03	23.03	15.16	-40.6	-42.6	18.1	0.00e+00	0	43	0	0	53	4370
2026-01-08 23:19:57.04	23.17	15.47	-40.5	-42.6	18.1	0.00e+00	0	43	0	0	52	4621
2026-01-08 23:20:00.04	23.31	15.79	-40.5	-42.6	18.1	0.00e+00	0	43	0	0	52	4619
2026-01-08 23:20:03.05	23.45	16.12	-40.7	-42.8	18.0	0.00e+00	0	43	0	0	52	4732
2026-01-08 23:20:06.06	23.60	16.44	-40.7	-42.8	18.0	0.00e+00	0	43	0	0	52	4721
2026-01-08 23:20:09.18	23.75	16.79	-40.8	-42.9	17.9	0.00e+00	0	43	0	0	52	4779
2026-01-08 23:20:12.04	23.90	17.11	-40.8	-42.8	17.9	0.00e+00	0	43	0	0	52	4742
2026-01-08 23:20:15.19	24.06	17.47	-40.8	-42.8	18.0	0.00e+00	0	43	0	0	52	4738
2026-01-08 23:20:18.06	24.21	17.80	-40.9	-42.9	17.9	0.00e+00	0	43	0	0	52	4785
2026-01-08 23:20:21.26	24.39	18.17	-40.9	-42.9	17.9	0.00e+00	0	43	0	0	52	4810
2026-01-08 23:20:24.42	24.56	18.55	-41.0	-43.0	17.8	0.00e+00	0	43	0	0	52	4868
2026-01-08 23:20:27.28	24.72	18.89	-40.9	-43.0	17.9	0.00e+00	0	43	0	0	52	4818
2026-01-08 23:20:30.48	24.91	19.28	-40.9	-42.9	17.9	0.00e+00	0	43	0	0	52	4810
2026-01-08 23:20:33.38	25.08	19.64	-40.7	-42.8	18.0	0.00e+00	0	43	0	0	52	4728
2026-01-08 23:20:36.53	25.27	20.03	-40.5	-42.6	18.2	0.00e+00	0	43	0	0	52	4620
2026-01-08 23:20:39.39	25.45	20.40	-40.3	-42.4	18.3	0.00e+00	0	43	0	0	52	4521
2026-01-08 23:20:42.54	25.65	20.80	-40.1	-42.1	18.6	0.00e+00	0	43	0	0	52	4367
2026-01-08 23:20:45.41	25.83	21.18	-40.0	-41.9	18.9	0.00e+00	0	43	0	0	51	4521
2026-01-08 23:20:48.57	26.04	21.60	-39.8	-41.7	19.1	0.00e+00	0	43	0	0	51	4395
2026-01-08 23:20:51.44	26.24	21.99	-39.6	-41.4	19.3	0.00e+00	0	43	0	0	51	4281
2026-01-08 23:20:54.59	26.46	22.42	-39.7	-41.5	19.3	0.00e+00	0	43	0	0	51	4331
2026-01-08 23:20:57.46	26.66	22.82	-39.5	-41.3	19.5	0.00e+00	0	43	0	0	51	4215
2026-01-08 23:21:00.62	26.90	23.27	-39.5	-41.2	19.5	0.00e+00	0	43	0	0	50	4417
2026-01-08 23:21:03.48	27.11	23.68	-39.7	-41.5	19.3	0.00e+00	0	43	0	0	50	4580
2026-01-08 23:21:06.64	27.36	24.14	-39.7	-41.5	19.2	0.00e+00	0	43	0	0	50	4583
2026-01-08 23:21:09.50	27.58	24.57	-39.8	-41.6	19.2	0.00e+00	0	43	0	0	50	4623
2026-01-08 23:21:12.66	27.84	25.04	-40.0	-41.8	19.0	0.00e+00	0	43	0	0	50	4714
2026-01-08 23:21:15.84	28.11	25.53	-40.1	-41.9	18.9	0.00e+00	0	43	0	0	50	4779
2026-01-08 23:21:18.85	28.37	26.00	-40.3	-42.1	18.7	0.00e+00	0	43	0	0	51	4621
2026-01-08 23:21:21.85	28.64	26.48	-40.5	-42.4	18.5	0.00e+00	0	43	0	0	51	4766
2026-01-08 23:21:24.89	28.91	26.97	-40.8	-42.8	18.0	0.00e+00	0	43	0	0	52	4756
2026-01-08 23:21:28.13	29.22	27.50	-40.9	-42.8	17.9	0.00e+00	0	43	0	0	52	4754
2026-01-08 23:21:30.85	29.49	27.95	-40.9	-42.9	17.9	0.00e+00	0	43	0	0	52	4793
2026-01-08 23:21:34.14	29.82	28.51	-40.8	-42.7	18.0	0.00e+00	0	43	0	0	52	4705
2026-01-08 23:21:36.87	30.10	28.98	-40.6	-42.6	18.3	0.00e+00	0	44	0	0	52	4602
2026-01-08 23:21:40.23	30.46	29.58	-40.7	-42.7	18.3	0.00e+00	0	43	0	0	52	4654
2026-01-08 23:21:42.95	30.76	30.06	-40.5	-42.5	18.5	0.00e+00	0	43	0	0	52	4554
2026-01-08 23:21:46.25	31.13	30.66	-40.4	-42.3	18.5	0.00e+00	0	43	0	0	52	4476
2026-01-08 23:21:49.07	31.46	31.18	-40.3	-42.2	18.6	0.00e+00	0	43	0	0	52	4423
2026-01-08 23:21:52.54	31.89	31.84	-40.5	-42.4	18.5	0.00e+00	0	43	0	0	52	4518
2026-01-08 23:21:55.53	32.27	32.41	-40.6	-42.5	18.4	0.00e+00	0	43	0	0	52	4555
2026-01-08 23:21:58.82	32.70	33.05	-40.6	-42.5	18.4	0.00e+00	0	43	0	0	52	4582
2026-01-08 23:22:01.54	33.07	33.60	-40.7	-42.6	18.2	0.00e+00	0	44	0	0	52	4637
2026-01-08 23:22:04.84	33.53	34.26	-41.0	-42.9	18.0	0.00e+00	0	43	0	0	52	4811
2026-01-08 23:22:07.87	33.98	34.89	-41.7	-43.7	17.2	0.00e+00	0	43	0	0	53	4968
2026-01-08 23:22:11.16	34.48	35.58	-42.2	-44.4	16.6	0.00e+00	0	43	0	0	55	4792
2026-01-08 23:22:13.88	34.91	36.16	-42.6	-44.9	16.1	0.00e+00	0	44	0	0	55	5081
2026-01-08 23:22:17.09	35.44	36.85	-42.7	-45.0	16.2	0.00e+00	0	44	0	0	56	4830
2026-01-08 23:22:20.49	36.02	37.60	-42.5	-44.7	16.5	0.00e+00	0	44	0	0	56	4681
2026-01-08 23:22:23.21	36.51	38.21	-42.6	-44.8	16.4	0.00e+00	0	44	0	0	56	4752
2026-01-08 23:22:26.50	37.12	38.96	-42.5	-44.7	16.5	0.00e+00	0	44	0	0	56	4697
2026-01-08 23:22:29.23	37.65	39.60	-42.1	-44.2	17.0	0.00e+00	0	43	0	0	56	4432
2026-01-08 23:22:32.65	38.34	40.40	-42.1	-44.2	17.0	0.00e+00	0	44	0	0	56	4419
2026-01-08 23:22:35.72	38.99	41.14	-42.3	-44.5	16.7	0.00e+00	0	43	0	0	56	4551
2026-01-08 23:22:39.01	39.73	41.93	-42.2	-44.3	16.9	0.00e+00	0	43	0	0	56	4442
2026-01-08 23:22:41.76	40.37	42.61	-42.7	-44.9	16.4	0.00e+00	0	43	0	0	56	4760
2026-01-08 23:22:45.15	41.19	43.46	-43.5	-45.9	15.4	0.00e+00	0	44	0	0	57	5057
2026-01-08 23:22:47.95	41.91	44.17	-43.9	-46.5	14.7	0.00e+00	0	44	0	0	58	5140
2026-01-08 23:22:51.25	42.80	45.01	-43.8	-46.3	14.9	0.00e+00	0	43	0	0	58	5023
2026-01-08 23:22:53.98	43.56	45.72	-43.8	-46.4	14.8	0.00e+00	0	43	0	0	58	5052
2026-01-08 23:22:57.21	44.52	46.57	-43.6	-46.2	15.0	0.00e+00	0	44	0	0	58	4943
2026-01-08 23:23:00.08	45.41	47.33	-42.3	-44.4	16.7	0.00e+00	0	43	0	0	56	4529
2026-01-08 23:23:03.23	46.44	48.17	-42.1	-44.2	16.9	0.00e+00	0	44	0	0	56	4411
2026-01-08 23:23:06.18	47.46	48.96	-42.7	-44.9	16.4	0.00e+00	0	44	0	0	56	4778
2026-01-08 23:23:09.42	48.64	49.84	-42.9	-45.2	15.9	0.00e+00	0	44	0	0	56	4967
2026-01-08 23:23:12.29	49.74	50.61	-42.5	-44.7	16.5	0.00e+00	0	43	0	0	56	4683
2026-01-08 23:23:15.82	51.17	51.57	-42.4	-44.5	16.7	0.00e+00	0	43	0	0	56	4588
2026-01-08 23:23:18.54	52.34	52.31	-42.2	-44.3	16.8	0.00e+00	0	44	0	0	56	4489
2026-01-08 23:23:21.84	53.84	53.21	-41.1	-43.0	18.1	0.00e+00	0	44	0	0	54	4320
2026-01-08 23:23:24.56	55.15	53.94	-41.0	-42.9	18.0	0.00e+00	0	43	0	0	53	4539
2026-01-08 23:23:27.83	56.81	54.82	-40.3	-42.1	18.9	0.00e+00	0	44	0	0	52	4345
2026-01-08 23:23:30.70	58.35	55.58	-40.1	-41.9	18.9	0.00e+00	0	44	0	0	51	4513
2026-01-08 23:23:33.85	60.14	56.41	-40.7	-42.5	18.2	0.00e+00	0	44	0	0	52	4586
2026-01-08 23:23:36.71	61.86	57.14	-40.5	-42.3	18.5	0.00e+00	0	44	0	0	52	4473
2026-01-08 23:23:39.86	63.87	57.93	-40.2	-42.0	18.9	0.00e+00	0	43	0	0	52	4325
2026-01-08 23:23:42.73	65.79	58.63	-40.3	-42.2	18.7	0.00e+00	0	44	0	0	52	4410
2026-01-08 23:23:45.91	68.05	59.37	-39.7	-41.4	19.4	0.00e+00	0	44	0	0	51	4280
2026-01-08 23:23:48.78	70.19	60.02	-40.0	-41.8	19.2	0.00e+00	0	43	0	0	51	4449
2026-01-08 23:23:52.12	72.83	60.73	-39.2	-40.9	20.0	0.00e+00	0	44	0	0	50	4262
2026-01-08 23:23:54.85	75.09	61.27	-39.6	-41.3	19.7	0.00e+00	0	43	0	0	50	4477
2026-01-08 23:23:58.14	77.94	61.88	-39.4	-41.1	19.7	0.00e+00	0	43	0	0	50	4360
2026-01-08 23:24:00.86	80.40	62.34	-39.6	-41.3	19.6	0.00e+00	0	44	0	0	50	4474
2026-01-08 23:24:04.16	83.51	62.84	-39.6	-41.4	19.6	0.00e+00	0	43	0	0	50	4506
2026-01-08 23:24:07.00	86.28	63.22	-39.6	-41.4	19.5	0.00e+00	0	44	0	0	50	4519
2026-01-08 23:24:10.29	89.60	63.58	-39.2	-40.9	19.9	0.00e+00	0	43	0	0	50	4264
2026-01-08 23:24:13.02	92.42	63.83	-38.7	-40.4	20.4	0.00e+00	0	43	0	0	49	4264
2026-01-08 23:24:16.31	95.90	64.05	-39.6	-41.4	19.6	0.00e+00	0	44	0	0	50	4524
2026-01-08 23:24:19.13	98.92	64.17	-39.4	-41.2	19.8	0.00e+00	0	44	0	0	50	4395
2026-01-08 23:24:22.28	102.32	64.22	-39.2	-40.8	19.9	0.00e+00	0	44	0	0	50	4238
2026-01-08 23:24:25.21	105.48	64.21	-39.1	-40.8	20.2	0.00e+00	0	44	0	0	49	4455
2026-01-08 23:24:28.36	108.87	64.11	-39.9	-41.8	19.4	0.00e+00	0	44	0	0	51	4442
2026-01-08 23:24:31.31	112.01	63.95	-38.6	-40.2	20.7	0.00e+00	0	43	0	0	49	4187
2026-01-08 23:24:34.49	115.34	63.70	-39.4	-41.2	19.8	0.00e+00	0	44	0	0	49	4655
2026-01-08 23:24:37.36	118.27	63.40	-39.5	-41.2	19.8	0.00e+00	0	44	0	0	49	4697
2026-01-08 23:24:40.51	121.40	63.02	-39.7	-41.4	19.5	0.00e+00	0	44	0	0	50	4521
2026-01-08 23:24:43.38	124.15	62.61	-38.8	-40.4	20.5	0.00e+00	0	44	0	0	49	4273
2026-01-08 23:24:46.55	127.08	62.10	-39.9	-41.7	19.4	0.00e+00	0	44	0	0	50	4653
2026-01-08 23:24:49.41	129.62	61.59	-39.6	-41.4	19.6	0.00e+00	0	44	0	0	50	4515
2026-01-08 23:24:52.57	132.30	60.98	-41.0	-43.0	18.1	0.00e+00	0	43	0	0	52	4838
2026-01-08 23:24:55.43	134.61	60.39	-38.6	-40.2	20.6	0.00e+00	0	43	0	0	49	4154
2026-01-08 23:24:58.59	137.05	59.69	-40.7	-42.6	18.5	0.00e+00	0	44	0	0	52	4644
2026-01-08 23:25:01.87	139.43	58.93	-39.2	-40.9	19.9	0.00e+00	0	43	0	0	50	4262
2026-01-08 23:25:04.59	141.31	58.28	-40.2	-42.0	19.1	0.00e+00	0	44	0	0	51	4553
2026-01-08 23:25:08.03	143.55	57.43	-39.9	-41.7	18.7	0.00e+00	0	43	0	0	51	4409
2026-01-08 23:25:10.75	145.23	56.73	-39.6	-41.3	19.6	0.00e+00	0	44	0	0	50	4459
2026-01-08 23:25:14.05	147.16	55.88	-42.0	-44.1	17.0	0.00e+00	0	44	0	0	54	4911
2026-01-08 23:25:16.77	148.65	55.16	-40.4	-42.3	18.7	0.00e+00	0	44	0	0	52	4448
2026-01-08 23:25:20.07	150.37	54.27	-41.9	-43.9	17.1	0.00e+00	0	44	0	0	54	4799
2026-01-08 23:25:23.02	151.83	53.47	-42.1	-44.2	16.8	0.00e+00	0	44	0	0	55	4696
2026-01-08 23:25:26.03	153.23	52.65	-41.6	-43.7	17.2	0.00e+00	0	43	0	0	54	4662
2026-01-08 23:25:29.04	154.55	51.83	-43.0	-45.3	16.0	0.00e+00	0	44	0	0	56	5039
2026-01-08 23:25:32.05	155.81	51.01	-43.6	-46.1	14.8	0.00e+00	0	44	0	0	58	4909
2026-01-08 23:25:35.06	157.00	50.19	-41.8	-43.9	17.2	0.00e+00	0	44	0	0	55	4507
2026-01-08 23:25:38.48	158.27	49.26	-42.5	-44.7	16.4	0.00e+00	0	44	0	0	55	4945
2026-01-08 23:25:41.30	159.27	48.50	-43.0	-45.3	16.0	0.00e+00	0	44	0	0	57	4754
2026-01-08 23:25:44.55	160.36	47.62	-41.5	-43.5	17.6	0.00e+00	0	44	0	0	54	4576
2026-01-08 23:25:47.42	161.27	46.86	-43.5	-46.0	15.2	0.00e+00	0	44	0	0	57	5104
2026-01-08 23:25:50.57	162.22	46.02	-42.9	-45.2	16.0	0.00e+00	0	44	0	0	57	4673
2026-01-08 23:25:53.50	163.07	45.26	-43.2	-45.5	15.7	0.00e+00	0	44	0	0	57	4867
2026-01-08 23:25:56.73	163.95	44.42	-43.2	-45.6	15.7	0.00e+00	0	44	0	0	57	4899
2026-01-08 23:25:59.63	164.71	43.68	-43.4	-45.8	15.4	0.00e+00	0	44	0	0	57	5018
2026-01-08 23:26:03.16	165.58	42.79	-42.7	-44.9	16.4	0.00e+00	0	44	0	0	57	4499
2026-01-08 23:26:05.89	166.23	42.11	-42.4	-44.5	16.8	0.00e+00	0	44	0	0	56	4553
2026-01-08 23:26:09.31	167.00	41.27	-42.7	-44.9	16.3	0.00e+00	0	44	0	0	56	4790
2026-01-08 23:26:12.03	167.59	40.62	-42.9	-45.2	16.0	0.00e+00	0	44	0	0	56	4958
2026-01-08 23:26:15.33	168.27	39.83	-42.9	-45.1	16.1	0.00e+00	0	44	0	0	56	4910
2026-01-08 23:26:18.51	168.90	39.08	-43.3	-45.6	15.6	0.00e+00	0	44	0	0	57	4915
2026-01-08 23:26:21.66	169.49	38.36	-42.5	-44.7	16.6	0.00e+00	0	44	0	0	57	4406
2026-01-08 23:26:24.52	170.01	37.71	-42.3	-44.5	16.6	0.00e+00	0	44	0	0	56	4580
2026-01-08 23:26:27.66	170.56	37.01	-42.2	-44.4	16.4	0.00e+00	0	44	0	0	56	4517
2026-01-08 23:26:30.90	171.10	36.30	-41.0	-42.9	17.8	0.00e+00	0	44	0	0	54	4290
2026-01-08 23:26:33.85	171.57	35.66	-41.0	-42.9	18.0	0.00e+00	0	44	0	0	54	4291
2026-01-08 23:26:37.14	172.07	34.97	-41.3	-43.3	17.7	0.00e+00	0	44	0	0	53	4756
2026-01-08 23:26:39.93	172.49	34.39	-41.1	-43.1	18.0	0.00e+00	0	44	0	0	53	4599
2026-01-08 23:26:43.22	172.96	33.71	-41.8	-43.9	17.2	0.00e+00	0	44	0	0	54	4781
2026-01-08 23:26:46.14	173.36	33.13	-42.0	-44.1	16.9	0.00e+00	0	44	0	0	54	4920
2026-01-08 23:26:49.15	173.76	32.53	-41.7	-43.7	17.2	0.00e+00	0	44	0	0	54	4696
2026-01-08 23:26:52.19	174.15	31.94	-40.7	-42.6	18.2	0.00e+00	0	44	0	0	53	4357
2026-01-08 23:26:55.15	174.51	31.38	-40.4	-42.3	18.5	0.00e+00	0	44	0	0	52	4465
2026-01-08 23:26:58.27	174.89	30.79	-40.3	-42.1	18.8	0.00e+00	0	44	0	0	52	4375
2026-01-08 23:27:01.39	175.25	30.22	-40.5	-42.3	18.6	0.00e+00	0	44	0	0	52	4490
2026-01-08 23:27:04.40	175.58	29.67	-40.6	-42.5	18.5	0.00e+00	0	43	0	0	52	4559
2026-01-08 23:27:07.41	175.91	29.14	-41.0	-43.0	18.0	0.00e+00	0	44	0	0	52	4832
2026-01-08 23:27:10.42	176.22	28.61	-41.2	-43.2	17.7	0.00e+00	0	44	0	0	53	4689
2026-01-08 23:27:13.43	176.53	28.09	-41.2	-43.2	17.7	0.00e+00	0	44	0	0	53	4667
2026-01-08 23:27:16.40	176.82	27.59	-40.9	-42.9	18.0	0.00e+00	0	43	0	0	53	4527
2026-01-08 23:27:19.41	177.11	27.09	-40.8	-42.8	18.1	0.00e+00	0	43	0	0	53	4448
2026-01-08 23:27:22.42	177.39	26.60	-40.4	-42.3	18.5	0.00e+00	0	44	0	0	52	4471
2026-01-08 23:27:25.43	177.66	26.11	-40.1	-41.9	18.9	0.00e+00	0	43	0	0	52	4276
2026-01-08 23:27:28.44	177.92	25.64	-39.9	-41.7	19.1	0.00e+00	0	44	0	0	51	4403
2026-01-08 23:27:31.51	178.18	25.16	-39.6	-41.3	19.4	0.00e+00	0	44	0	0	51	4215
2026-01-08 23:27:34.38	178.42	24.72	-39.9	-41.7	19.2	0.00e+00	0	43	0	0	51	4407
2026-01-08 23:27:37.53	178.67	24.24	-40.0	-41.8	19.1	0.00e+00	0	43	0	0	51	4477
2026-01-08 23:27:40.40	178.89	23.82	-40.2	-42.0	18.9	0.00e+00	0	44	0	0	51	4570
2026-01-08 23:27:43.66	179.14	23.34	-40.3	-42.1	18.8	0.00e+00	0	44	0	0	51	4647
2026-01-08 23:27:46.43	179.35	22.95	-40.3	-42.1	18.8	0.00e+00	0	44	0	0	51	4632
2026-01-08 23:27:49.76	179.59	22.48	-40.3	-42.2	18.7	0.00e+00	0	44	0	0	51	4661
2026-01-08 23:27:52.61	179.79	22.08	-40.4	-42.4	18.5	0.00e+00	0	44	0	0	51	4762
2026-01-08 23:27:55.76	180.00	21.65	-40.4	-42.3	18.5	0.00e+00	0	44	0	0	51	4749
2026-01-08 23:27:58.63	180.20	21.26	-40.3	-42.2	18.6	0.00e+00	0	44	0	0	51	4680
2026-01-08 23:28:01.78	180.40	20.84	-40.3	-42.2	18.7	0.00e+00	0	44	0	0	51	4668
2026-01-08 23:28:04.76	180.59	20.45	-40.4	-42.3	18.5	0.00e+00	0	44	0	0	51	4736
2026-01-08 23:28:08.12	180.80	20.02	-40.5	-42.5	18.4	0.00e+00	0	44	0	0	51	4815
2026-01-08 23:28:10.89	180.97	19.67	-40.5	-42.4	18.4	0.00e+00	0	44	0	0	51	4804
2026-01-08 23:28:14.13	181.16	19.26	-40.6	-42.5	18.3	0.00e+00	0	44	0	0	51	4828
2026-01-08 23:28:17.27	181.34	18.88	-40.6	-42.5	18.2	0.00e+00	0	44	0	0	51	4833
2026-01-08 23:28:20.14	181.50	18.53	-40.4	-42.3	18.3	0.00e+00	0	44	0	0	51	4746
2026-01-08 23:28:23.27	181.67	18.16	-40.4	-42.4	18.3	0.00e+00	0	44	0	0	51	4764
2026-01-08 23:28:26.42	181.84	17.78	-40.5	-42.5	18.2	0.00e+00	0	44	0	0	51	4827
2026-01-08 23:28:29.29	181.99	17.45	-40.6	-42.6	18.1	0.00e+00	0	44	0	0	52	4600
2026-01-08 23:28:32.53	182.16	17.08	-40.6	-42.5	18.2	0.00e+00	0	44	0	0	52	4588
2026-01-08 23:28:35.39	182.30	16.75	-40.6	-42.6	18.2	0.00e+00	0	44	0	0	52	4606
2026-01-08 23:28:38.55	182.46	16.40	-40.6	-42.6	18.2	0.00e+00	0	44	0	0	52	4628
2026-01-08 23:28:41.41	182.60	16.09	-40.6	-42.6	18.1	0.00e+00	0	44	0	0	52	4632
2026-01-08 23:28:44.57	182.75	15.74	-40.7	-42.7	18.0	0.00e+00	0	44	0	0	52	4690
2026-01-08 23:28:47.44	182.88	15.43	-40.8	-42.8	18.0	0.00e+00	0	44	0	0	52	4731
2026-01-08 23:28:50.59	183.03	15.10	-40.8	-42.9	17.9	0.00e+00	0	44	0	0	52	4778
2026-01-08 23:28:53.53	183.16	14.79	-40.9	-43.0	17.7	0.00e+00	0	44	0	0	52	4848
2026-01-08 23:28:56.54	183.29	14.48	-41.1	-43.2	17.5	0.00e+00	0	44	0	0	52	4951
2026-01-08 23:28:59.55	183.42	14.17	-41.3	-43.5	17.2	0.00e+00	0	44	0	0	53	4832
2026-01-08 23:29:02.57	183.55	13.87	-41.4	-43.6	17.1	0.00e+00	0	44	0	0	53	4914
2026-01-08 23:29:05.58	183.67	13.57	-41.5	-43.8	17.0	0.00e+00	0	44	0	0	53	4989
2026-01-08 23:29:08.58	183.79	13.27	-41.6	-43.8	16.9	0.00e+00	0	44	0	0	53	5035
2026-01-08 23:29:11.60	183.91	12.98	-41.6	-43.8	16.9	0.00e+00	0	44	0	0	53	5034
2026-01-08 23:29:14.61	184.03	12.69	-41.6	-43.9	16.9	0.00e+00	0	44	0	0	53	5044
2026-01-08 23:29:17.61	184.14	12.41	-41.6	-43.8	16.8	0.00e+00	0	44	0	0	53	5032
2026-01-08 23:29:20.69	184.26	12.12	-41.8	-44.1	16.6	0.00e+00	0	44	0	0	54	4904
2026-01-08 23:29:23.57	184.37	11.85	-41.7	-43.9	16.7	0.00e+00	0	44	0	0	54	4812
2026-01-08 23:29:26.70	184.48	11.56	-41.8	-44.0	16.6	0.00e+00	0	44	0	0	54	4859
2026-01-08 23:29:29.73	184.59	11.29	-41.7	-44.0	16.6	0.00e+00	0	44	0	0	54	4848
2026-01-08 23:29:33.02	184.71	10.99	-41.9	-44.2	16.4	0.00e+00	0	44	0	0	54	4939
2026-01-08 23:29:35.74	184.80	10.75	-41.9	-44.2	16.4	0.00e+00	0	44	0	0	54	4936
2026-01-08 23:29:39.09	184.91	10.45	-41.7	-44.0	16.5	0.00e+00	0	44	0	0	54	4852
2026-01-08 23:29:42.06	185.01	10.19	-41.8	-44.1	16.4	0.00e+00	0	44	0	0	54	4902
2026-01-08 23:29:45.07	185.11	9.93	-41.9	-44.3	16.3	0.00e+00	0	44	0	0	54	5002
2026-01-08 23:29:48.08	185.21	9.68	-41.9	-44.2	16.3	0.00e+00	0	44	0	0	54	4957
2026-01-08 23:29:51.21	185.31	9.41	-41.9	-44.2	16.3	0.00e+00	0	44	0	0	54	4974
2026-01-08 23:29:54.17	185.40	9.17	-41.9	-44.3	16.2	0.00e+00	0	44	0	0	54	5006
2026-01-08 23:29:57.18	185.50	8.92	-48.4	-61.8	3.8	2.77e-01	0	44	104	0	67	17846
2026-01-08 23:30:00.20	185.59	8.67	-49.0	-62.5	3.8	1.49e+00	0	44	104	0	68	18130
2026-01-08 23:30:03.21	185.68	8.43	-49.5	-62.5	3.8	1.49e+00	0	44	104	0	69	17276
2026-01-08 23:30:06.61	185.78	8.15	-49.6	-62.6	3.8	1.49e+00	0	44	104	0	69	17407
2026-01-08 23:30:09.54	185.86	7.92	-49.7	-62.7	3.8	1.49e+00	0	44	104	0	70	16508
2026-01-08 23:30:12.84	185.96	7.66	-49.7	-62.7	3.8	1.49e+00	0	44	104	0	70	16567
2026-01-08 23:30:15.57	186.03	7.45	-49.6	-62.7	3.8	1.49e+00	0	44	104	0	69	17490
2026-01-08 23:30:18.87	186.12	7.19	-49.6	-62.7	3.8	1.49e+00	0	44	104	0	70	16538
2026-01-08 23:30:21.60	186.20	6.98	-49.5	-62.7	3.8	1.49e+00	0	44	104	0	70	16533
2026-01-08 23:30:24.89	186.29	6.73	-49.4	-62.6	3.8	1.49e+00	0	44	104	0	70	16465
2026-01-08 23:30:27.62	186.36	6.53	-49.4	-62.6	3.8	1.49e+00	0	44	104	0	70	16436
2026-01-08 23:30:30.92	186.45	6.28	-49.4	-62.6	3.8	1.49e+00	0	44	104	0	70	16471
2026-01-08 23:30:33.64	186.52	6.08	-49.4	-62.6	3.8	1.49e+00	0	44	104	0	70	16433
2026-01-08 23:30:36.94	186.60	5.83	-49.4	-62.6	3.8	1.49e+00	0	44	104	0	70	16424
2026-01-08 23:30:39.67	186.67	5.64	-49.4	-62.6	3.8	1.49e+00	0	44	104	0	70	16447
2026-01-08 23:30:42.97	186.75	5.40	-49.4	-62.6	3.8	1.49e+00	0	44	104	0	70	16419
2026-01-08 23:30:45.69	186.82	5.20	-49.4	-62.6	3.8	1.49e+00	0	44	104	0	70	16499
2026-01-08 23:30:49.00	186.90	4.97	-49.4	-62.6	3.8	1.49e+00	0	44	104	0	70	16467

#Closed at: 2026-01-08 23:30:49
#Recorded file [0 MB]: D:/Data/31040_260109_021756.dat