passes_logs/2026/01/08/T1/T1__20260108_213834_NOAA_21_JPSS-2_rec.log

#Pass ID: 20260108_213834_NOAA 21 (JPSS-2)
#Satellite: NOAA 21 (JPSS-2)
#Configuration: NOAA 21
#almurnet v.1.7.20251203
#Start time: 2026-01-08 21:38:35

#Version: 2.0.20230620
#Station: T1
#Location: 37.570604 lon 55.790049 lat
#TLE: 1 54234U 22150A   26008.45757862  .00000119  00000+0  77172-4 0  9996
#TLE: 2 54234  98.7494 309.4367 0000894 328.2777  31.8345 14.19533328163889

#Time	Az	El	Level	Level2	SNR	BER	BlckErr	Temp	State	Recorded	gain1	gain2
2026-01-08 21:38:35.55	37.80	5.05	-48.4	-61.6	3.8	1.49e+00	0	36	0	0	67	17327
2026-01-08 21:38:37.55	38.03	5.14	-48.4	-61.6	3.8	1.49e+00	0	37	104	0	67	17319
2026-01-08 21:38:39.56	38.27	5.24	-48.4	-61.6	3.8	1.49e+00	0	37	104	0	67	17330
2026-01-08 21:38:41.57	38.51	5.33	-48.4	-61.6	3.8	1.49e+00	0	37	104	0	67	17364
2026-01-08 21:38:43.58	38.74	5.42	-48.4	-61.5	3.8	1.49e+00	0	37	104	0	67	17255
2026-01-08 21:38:45.59	38.98	5.51	-48.4	-61.5	3.8	1.49e+00	0	37	104	0	67	17271
2026-01-08 21:38:47.59	39.22	5.60	-48.4	-61.6	3.8	1.49e+00	0	37	104	0	67	17304
2026-01-08 21:38:49.60	39.46	5.69	-48.4	-61.5	3.8	1.49e+00	0	37	104	0	67	17245
2026-01-08 21:38:51.61	39.71	5.78	-48.4	-61.5	3.8	1.49e+00	0	37	104	0	67	17145
2026-01-08 21:38:53.62	39.95	5.87	-48.4	-61.6	3.8	1.49e+00	0	37	104	0	67	17307
2026-01-08 21:38:55.63	40.20	5.97	-48.4	-61.5	3.8	1.49e+00	0	37	104	0	67	17191
2026-01-08 21:38:57.64	40.45	6.06	-48.2	-61.5	3.8	1.49e+00	0	37	104	0	67	17213
2026-01-08 21:38:59.65	40.69	6.15	-48.4	-61.5	3.8	1.49e+00	0	37	104	0	67	17215
2026-01-08 21:39:01.61	40.94	6.24	-48.4	-61.6	3.8	1.49e+00	0	37	104	0	67	17390
2026-01-08 21:39:03.62	41.19	6.33	-48.4	-61.6	3.8	1.49e+00	0	37	104	0	67	17286
2026-01-08 21:39:05.63	41.45	6.42	-48.3	-61.5	3.8	1.49e+00	0	38	104	0	67	17274
2026-01-08 21:39:07.64	41.70	6.51	-48.4	-61.6	3.8	1.49e+00	0	38	104	0	67	17330
2026-01-08 21:39:09.65	41.96	6.60	-48.4	-61.5	3.8	1.49e+00	0	38	104	0	67	17263
2026-01-08 21:39:11.66	42.22	6.69	-48.4	-61.5	3.8	1.49e+00	0	38	104	0	67	17268
2026-01-08 21:39:13.67	42.48	6.78	-48.4	-61.5	3.8	1.49e+00	0	38	104	0	67	17225
2026-01-08 21:39:15.68	42.74	6.87	-48.4	-61.5	3.8	1.49e+00	0	38	104	0	67	17205
2026-01-08 21:39:17.68	43.00	6.95	-48.4	-61.5	3.8	1.49e+00	0	38	104	0	67	17243
2026-01-08 21:39:19.69	43.26	7.04	-48.4	-61.5	3.8	1.49e+00	0	38	104	0	67	17226
2026-01-08 21:39:21.70	43.53	7.13	-48.4	-61.5	3.8	1.49e+00	0	38	104	0	67	17199
2026-01-08 21:39:23.71	43.80	7.22	-48.4	-61.5	3.8	1.49e+00	0	38	104	0	67	17225
2026-01-08 21:39:25.72	44.07	7.31	-48.4	-61.5	3.8	1.49e+00	0	38	104	0	67	17269
2026-01-08 21:39:27.72	44.34	7.40	-48.4	-61.5	3.8	1.49e+00	0	38	104	0	67	17247
2026-01-08 21:39:29.73	44.61	7.49	-48.4	-61.5	3.8	1.49e+00	0	38	104	0	67	17223
2026-01-08 21:39:31.74	44.88	7.57	-47.2	-61.1	3.8	1.49e+00	0	38	104	0	66	17378
2026-01-08 21:39:33.75	45.16	7.66	-48.4	-61.5	3.8	1.49e+00	0	38	104	0	67	17277
2026-01-08 21:39:35.76	45.43	7.75	-48.4	-61.5	3.9	1.49e+00	0	39	104	0	67	17231
2026-01-08 21:39:37.77	45.71	7.84	-48.4	-61.5	3.8	1.49e+00	0	38	104	0	67	17139
2026-01-08 21:39:39.77	45.99	7.92	-48.4	-61.5	3.8	1.49e+00	0	39	104	0	67	17140
2026-01-08 21:39:41.78	46.27	8.01	-48.4	-61.4	3.8	1.49e+00	0	38	104	0	67	17042
2026-01-08 21:39:43.79	46.56	8.09	-48.4	-61.4	3.8	1.49e+00	0	38	104	0	67	17012
2026-01-08 21:39:45.80	46.84	8.18	-48.4	-61.4	3.8	1.49e+00	0	39	104	0	67	17075
2026-01-08 21:39:47.81	47.13	8.27	-48.4	-61.4	3.8	1.49e+00	0	39	104	0	67	17030
2026-01-08 21:39:49.82	47.42	8.35	-48.4	-61.3	3.8	1.49e+00	0	39	104	0	67	16777
2026-01-08 21:39:51.83	47.71	8.44	-48.4	-61.3	3.8	1.49e+00	0	39	104	0	67	16855
2026-01-08 21:39:53.84	48.00	8.52	-48.4	-61.5	3.8	1.49e+00	0	38	104	0	67	17141
2026-01-08 21:39:55.84	48.29	8.61	-48.1	-61.4	3.8	1.49e+00	0	39	104	0	67	16915
2026-01-08 21:39:57.85	48.59	8.69	-48.4	-60.9	3.8	1.49e+00	0	39	104	0	67	16013
2026-01-08 21:39:59.86	48.88	8.77	-48.3	-60.5	3.8	1.49e+00	0	39	104	0	67	15377
2026-01-08 21:40:01.87	49.18	8.86	-48.3	-60.7	3.8	1.49e+00	0	39	104	0	67	15619
2026-01-08 21:40:03.88	49.48	8.94	-48.1	-59.7	3.8	1.49e+00	0	39	104	0	67	13994
2026-01-08 21:40:05.89	49.78	9.02	-47.6	-55.5	5.2	1.02e+00	0	39	0	0	65	9675
2026-01-08 21:40:07.89	50.09	9.10	-48.4	-61.3	3.8	8.57e-01	0	39	104	0	67	16870
2026-01-08 21:40:09.90	50.39	9.18	-47.4	-54.2	6.4	1.88e-01	0	39	0	0	65	8288
2026-01-08 21:40:11.91	50.70	9.26	-43.6	-46.3	14.2	0.00e+00	0	39	0	0	57	5310
2026-01-08 21:40:13.91	51.00	9.34	-43.1	-45.7	14.8	0.00e+00	0	39	0	0	57	4965
2026-01-08 21:40:15.93	51.32	9.43	-43.2	-45.8	14.8	0.00e+00	0	39	0	0	57	5014
2026-01-08 21:40:17.94	51.63	9.51	-43.4	-46.0	14.5	1.50e-06	0	39	0	0	58	4861
2026-01-08 21:40:19.94	51.94	9.58	-43.3	-46.0	14.6	7.00e-07	0	39	0	0	57	5126
2026-01-08 21:40:21.95	52.25	9.66	-43.1	-45.6	14.9	0.00e+00	0	39	0	0	57	4914
2026-01-08 21:40:23.96	52.57	9.74	-42.7	-45.2	15.4	0.00e+00	0	39	0	0	57	4666
2026-01-08 21:40:25.96	52.89	9.82	-42.8	-45.3	15.3	0.00e+00	0	39	0	0	56	4990
2026-01-08 21:40:27.97	53.21	9.90	-42.4	-44.8	15.5	0.00e+00	0	39	0	0	55	5037
2026-01-08 21:40:29.97	53.53	9.97	-42.4	-44.8	15.6	0.00e+00	0	39	0	0	55	5017
2026-01-08 21:40:31.97	53.85	10.05	-42.3	-44.7	15.7	0.00e+00	0	39	0	0	55	4955
2026-01-08 21:40:33.98	54.17	10.12	-42.3	-44.7	15.7	0.00e+00	0	39	0	0	55	4942
2026-01-08 21:40:35.99	54.50	10.20	-42.2	-44.5	15.9	0.00e+00	0	39	0	0	55	4854
2026-01-08 21:40:37.99	54.83	10.27	-42.0	-44.4	16.0	0.00e+00	0	39	0	0	55	4807
2026-01-08 21:40:40.00	55.16	10.35	-42.2	-44.5	15.9	0.00e+00	0	39	0	0	55	4831
2026-01-08 21:40:42.01	55.49	10.42	-42.2	-44.5	15.9	0.00e+00	0	39	0	0	55	4844
2026-01-08 21:40:44.02	55.82	10.49	-42.2	-44.5	16.0	0.00e+00	0	39	0	0	55	4844
2026-01-08 21:40:46.02	56.15	10.56	-42.0	-44.3	16.1	0.00e+00	0	39	0	0	54	5037
2026-01-08 21:40:48.03	56.49	10.63	-42.0	-44.3	16.2	0.00e+00	0	39	0	0	55	4724
2026-01-08 21:40:50.04	56.83	10.70	-42.0	-44.3	16.2	0.00e+00	0	39	0	0	55	4729
2026-01-08 21:40:52.04	57.17	10.77	-42.2	-44.5	15.9	0.00e+00	0	39	0	0	55	4850
2026-01-08 21:40:54.05	57.51	10.84	-42.1	-44.4	16.0	0.00e+00	0	39	0	0	55	4795
2026-01-08 21:40:56.05	57.85	10.91	-42.1	-44.4	16.0	0.00e+00	0	39	0	0	55	4800
2026-01-08 21:40:58.06	58.19	10.98	-42.3	-44.6	15.9	0.00e+00	0	39	0	0	55	4898
2026-01-08 21:41:00.07	58.54	11.05	-42.1	-44.5	16.0	0.00e+00	0	39	0	0	55	4827
2026-01-08 21:41:02.07	58.88	11.11	-42.2	-44.5	16.0	0.00e+00	0	39	0	0	55	4828
2026-01-08 21:41:04.07	59.23	11.18	-42.1	-44.4	16.1	0.00e+00	0	39	0	0	55	4804
2026-01-08 21:41:06.08	59.58	11.24	-42.2	-44.5	16.0	0.00e+00	0	39	0	0	55	4842
2026-01-08 21:41:08.09	59.93	11.31	-42.1	-44.4	16.2	0.00e+00	0	39	0	0	55	4764
2026-01-08 21:41:10.17	60.30	11.37	-42.1	-44.4	16.1	0.00e+00	0	39	0	0	55	4802
2026-01-08 21:41:12.18	60.65	11.43	-42.1	-44.4	16.1	0.00e+00	0	39	0	0	54	5072
2026-01-08 21:41:14.19	61.01	11.50	-42.0	-44.3	16.2	0.00e+00	0	39	0	0	54	4990
2026-01-08 21:41:16.19	61.36	11.56	-42.0	-44.3	16.2	0.00e+00	0	39	0	0	54	5013
2026-01-08 21:41:18.20	61.72	11.62	-42.3	-44.6	16.0	0.00e+00	0	39	0	0	55	4885
2026-01-08 21:41:20.28	62.09	11.68	-42.0	-44.2	16.3	0.00e+00	0	39	0	0	55	4679
2026-01-08 21:41:22.29	62.46	11.74	-41.9	-44.1	16.4	0.00e+00	0	39	0	0	54	4902
2026-01-08 21:41:24.43	62.84	11.80	-42.0	-44.3	16.2	0.00e+00	0	39	0	0	54	5005
2026-01-08 21:41:26.64	63.24	11.86	-41.9	-44.2	16.4	0.00e+00	0	39	0	0	54	4946
2026-01-08 21:41:28.65	63.61	11.91	-41.9	-44.2	16.4	0.00e+00	0	39	0	0	54	4940
2026-01-08 21:41:30.57	63.96	11.96	-41.8	-44.0	16.5	0.00e+00	0	40	0	0	54	4850
2026-01-08 21:41:32.57	64.33	12.02	-41.7	-44.4	16.2	0.00e+00	0	39	0	0	54	5070
2026-01-08 21:41:34.58	64.70	12.07	-42.0	-44.3	16.3	0.00e+00	0	39	0	0	55	4733
2026-01-08 21:41:36.58	65.07	12.12	-42.1	-44.3	16.3	0.00e+00	0	39	0	0	54	5036
2026-01-08 21:41:38.59	65.44	12.17	-41.9	-44.1	16.5	0.00e+00	0	39	0	0	54	4886
2026-01-08 21:41:40.60	65.82	12.22	-41.8	-44.0	16.5	0.00e+00	0	39	0	0	54	4864
2026-01-08 21:41:42.61	66.19	12.27	-41.9	-44.1	16.4	0.00e+00	0	39	0	0	54	4913
2026-01-08 21:41:44.61	66.56	12.32	-41.9	-44.1	16.4	0.00e+00	0	39	0	0	54	4905
2026-01-08 21:41:46.62	66.94	12.36	-41.9	-44.1	16.4	0.00e+00	0	39	0	0	54	4905
2026-01-08 21:41:48.63	67.32	12.41	-41.6	-43.8	16.8	0.00e+00	0	39	0	0	54	4715
2026-01-08 21:41:50.62	67.70	12.45	-41.7	-43.9	16.8	0.00e+00	0	39	0	0	54	4762
2026-01-08 21:41:52.84	68.12	12.50	-41.8	-44.0	16.6	0.00e+00	0	39	0	0	54	4853
2026-01-08 21:41:54.85	68.50	12.54	-41.9	-44.1	16.4	0.00e+00	0	39	0	0	54	4914
2026-01-08 21:41:56.86	68.88	12.59	-42.0	-44.3	16.3	0.00e+00	0	39	0	0	54	4990
2026-01-08 21:41:58.86	69.27	12.62	-42.0	-44.2	16.3	0.00e+00	0	39	0	0	54	4979
2026-01-08 21:42:00.96	69.67	12.67	-41.8	-44.0	16.6	0.00e+00	0	39	0	0	54	4835
2026-01-08 21:42:03.20	70.10	12.71	-41.6	-43.7	16.8	0.00e+00	0	40	0	0	54	4675
2026-01-08 21:42:05.60	70.56	12.75	-41.6	-43.7	16.8	0.00e+00	0	39	0	0	53	4968
2026-01-08 21:42:07.60	70.95	12.79	-41.6	-43.8	16.8	0.00e+00	0	39	0	0	54	4707
2026-01-08 21:42:09.61	71.34	12.82	-41.7	-43.9	16.6	0.00e+00	0	40	0	0	54	4788
2026-01-08 21:42:11.61	71.73	12.85	-41.9	-44.1	16.5	0.00e+00	0	40	0	0	54	4884
2026-01-08 21:42:13.57	72.11	12.88	-42.0	-44.2	16.4	0.00e+00	0	39	0	0	54	4960
2026-01-08 21:42:15.58	72.50	12.91	-41.9	-44.0	16.5	0.00e+00	0	40	0	0	54	4859
2026-01-08 21:42:17.58	72.89	12.94	-41.9	-44.1	16.5	0.00e+00	0	39	0	0	54	4878
2026-01-08 21:42:19.59	73.29	12.97	-41.7	-43.9	16.7	0.00e+00	0	39	0	0	54	4790
2026-01-08 21:42:21.68	73.70	13.00	-41.9	-44.1	16.5	0.00e+00	0	39	0	0	54	4903
2026-01-08 21:42:23.69	74.09	13.03	-41.5	-44.0	16.6	0.00e+00	0	39	0	0	54	4829
2026-01-08 21:42:25.69	74.48	13.05	-41.8	-44.0	16.6	0.00e+00	0	39	0	0	54	4845
2026-01-08 21:42:27.64	74.87	13.07	-41.7	-43.9	16.7	0.00e+00	0	40	0	0	54	4795
2026-01-08 21:42:29.74	75.28	13.10	-41.6	-43.7	16.9	0.00e+00	0	40	0	0	54	4672
2026-01-08 21:42:31.83	75.70	13.12	-41.6	-43.7	16.9	0.00e+00	0	39	0	0	54	4699
2026-01-08 21:42:33.84	76.10	13.14	-41.5	-43.7	16.9	0.00e+00	0	40	0	0	54	4664
2026-01-08 21:42:35.84	76.49	13.15	-41.5	-43.6	17.0	0.00e+00	0	40	0	0	54	4637
2026-01-08 21:42:37.85	76.89	13.17	-41.5	-43.7	16.9	0.00e+00	0	40	0	0	54	4675
2026-01-08 21:42:39.86	77.29	13.19	-41.6	-43.8	16.9	0.00e+00	0	39	0	0	54	4711
2026-01-08 21:42:41.86	77.69	13.20	-41.6	-43.8	16.8	0.00e+00	0	40	0	0	54	4717
2026-01-08 21:42:43.87	78.09	13.22	-41.7	-43.9	16.7	0.00e+00	0	40	0	0	54	4792
2026-01-08 21:42:45.88	78.49	13.23	-41.7	-43.9	16.8	0.00e+00	0	40	0	0	54	4780
2026-01-08 21:42:47.88	78.89	13.24	-41.6	-43.8	16.9	0.00e+00	0	40	0	0	54	4713
2026-01-08 21:42:49.88	79.29	13.25	-41.6	-43.7	17.0	0.00e+00	0	40	0	0	54	4674
2026-01-08 21:42:51.89	79.69	13.26	-41.5	-43.6	17.1	0.00e+00	0	40	0	0	54	4623
2026-01-08 21:42:53.90	80.09	13.26	-41.5	-43.5	17.2	0.00e+00	0	40	0	0	54	4586
2026-01-08 21:42:55.90	80.49	13.27	-41.6	-43.7	17.0	0.00e+00	0	40	0	0	53	4953
2026-01-08 21:42:57.96	80.90	13.27	-41.7	-43.9	16.8	0.00e+00	0	40	0	0	54	4784
2026-01-08 21:42:59.96	81.30	13.28	-41.6	-43.8	16.9	0.00e+00	0	40	0	0	54	4722
2026-01-08 21:43:02.05	81.72	13.28	-41.3	-43.5	17.2	0.00e+00	0	40	0	0	53	4847
2026-01-08 21:43:04.06	82.12	13.28	-41.4	-43.6	17.1	0.00e+00	0	40	0	0	53	4892
2026-01-08 21:43:06.35	82.58	13.28	-41.5	-43.6	17.1	0.00e+00	0	40	0	0	53	4911
2026-01-08 21:43:08.39	82.99	13.27	-41.6	-43.8	16.9	0.00e+00	0	40	0	0	53	4992
2026-01-08 21:43:10.39	83.39	13.27	-41.6	-43.8	16.9	0.00e+00	0	40	0	0	53	4984
2026-01-08 21:43:12.83	83.88	13.26	-41.7	-44.0	16.7	0.00e+00	0	40	0	0	54	4835
2026-01-08 21:43:15.02	84.32	13.26	-41.7	-43.9	16.8	0.00e+00	0	40	0	0	54	4802
2026-01-08 21:43:17.18	84.75	13.25	-41.7	-43.9	16.8	0.00e+00	0	40	0	0	54	4805
2026-01-08 21:43:19.33	85.18	13.24	-41.7	-43.9	16.8	0.00e+00	0	40	0	0	54	4783
2026-01-08 21:43:21.50	85.61	13.23	-41.7	-43.9	16.8	0.00e+00	0	40	0	0	54	4798
2026-01-08 21:43:23.66	86.04	13.21	-41.4	-43.8	16.9	0.00e+00	0	40	0	0	54	4711
2026-01-08 21:43:25.59	86.43	13.20	-41.5	-43.7	17.0	0.00e+00	0	40	0	0	54	4677
2026-01-08 21:43:27.60	86.83	13.19	-41.8	-44.0	16.7	0.00e+00	0	40	0	0	54	4828
2026-01-08 21:43:29.60	87.23	13.17	-41.6	-43.8	16.9	0.00e+00	0	40	0	0	54	4750
2026-01-08 21:43:31.55	87.61	13.15	-41.8	-44.0	16.7	0.00e+00	0	40	0	0	54	4840
2026-01-08 21:43:33.56	88.01	13.13	-41.7	-43.9	16.8	0.00e+00	0	40	0	0	54	4776
2026-01-08 21:43:35.74	88.45	13.11	-41.6	-43.7	16.9	0.00e+00	0	40	0	0	53	4963
2026-01-08 21:43:37.83	88.86	13.09	-41.6	-43.7	17.0	0.00e+00	0	40	0	0	53	4953
2026-01-08 21:43:39.86	89.26	13.07	-41.5	-43.6	17.1	0.00e+00	0	40	0	0	53	4900
2026-01-08 21:43:41.87	89.66	13.04	-41.5	-43.7	17.1	0.00e+00	0	40	0	0	53	4939
2026-01-08 21:43:43.97	90.07	13.02	-41.6	-43.8	17.0	0.00e+00	0	40	0	0	53	5000
2026-01-08 21:43:46.22	90.52	12.99	-41.4	-43.5	17.2	0.00e+00	0	40	0	0	53	4859
2026-01-08 21:43:48.25	90.91	12.96	-41.8	-43.9	16.8	0.00e+00	0	40	0	0	54	4791
2026-01-08 21:43:50.26	91.31	12.93	-41.7	-43.9	16.9	0.00e+00	0	40	0	0	54	4761
2026-01-08 21:43:52.28	91.70	12.90	-41.5	-43.6	17.1	0.00e+00	0	40	0	0	54	4638
2026-01-08 21:43:54.28	92.09	12.87	-41.5	-43.6	17.1	0.00e+00	0	40	0	0	53	4912
2026-01-08 21:43:56.29	92.49	12.84	-41.6	-43.7	17.1	0.00e+00	0	40	0	0	53	4928
2026-01-08 21:43:58.29	92.88	12.81	-41.6	-43.7	17.0	0.00e+00	0	40	0	0	53	4982
2026-01-08 21:44:00.30	93.27	12.77	-41.6	-43.7	17.0	0.00e+00	0	40	0	0	53	4936
2026-01-08 21:44:02.45	93.68	12.73	-41.8	-43.9	16.8	0.00e+00	0	40	0	0	54	4796
2026-01-08 21:44:04.46	94.07	12.70	-41.9	-44.1	16.7	0.00e+00	0	40	0	0	54	4884
2026-01-08 21:44:06.47	94.46	12.66	-41.8	-43.9	16.8	0.00e+00	0	40	0	0	54	4796
2026-01-08 21:44:08.47	94.84	12.62	-41.9	-44.0	16.7	0.00e+00	0	40	0	0	54	4845
2026-01-08 21:44:10.49	95.23	12.58	-41.7	-43.8	16.9	0.00e+00	0	40	0	0	54	4747
2026-01-08 21:44:12.56	95.63	12.54	-41.7	-43.8	17.0	0.00e+00	0	40	0	0	54	4733
2026-01-08 21:44:14.57	96.01	12.49	-41.7	-43.8	16.9	0.00e+00	0	40	0	0	54	4726
2026-01-08 21:44:16.57	96.39	12.45	-41.8	-44.0	16.8	0.00e+00	0	40	0	0	54	4815
2026-01-08 21:44:18.58	96.77	12.41	-41.7	-43.9	16.9	0.00e+00	0	40	0	0	54	4775
2026-01-08 21:44:20.59	97.15	12.36	-41.9	-44.1	16.7	0.00e+00	0	40	0	0	54	4879
2026-01-08 21:44:22.59	97.53	12.31	-41.9	-44.1	16.6	0.00e+00	0	40	0	0	54	4910
2026-01-08 21:44:24.59	97.90	12.27	-41.9	-44.1	16.6	0.00e+00	0	40	0	0	54	4892
2026-01-08 21:44:26.85	98.33	12.21	-42.0	-44.1	16.6	0.00e+00	0	40	0	0	54	4915
2026-01-08 21:44:28.90	98.71	12.16	-41.9	-44.1	16.6	0.00e+00	0	40	0	0	54	4911
2026-01-08 21:44:31.27	99.15	12.10	-41.9	-44.1	16.6	0.00e+00	0	40	0	0	54	4912
2026-01-08 21:44:33.28	99.52	12.05	-41.9	-44.1	16.6	0.00e+00	0	40	0	0	54	4904
2026-01-08 21:44:35.28	99.89	11.99	-41.9	-44.2	16.5	0.00e+00	0	40	0	0	54	4944
2026-01-08 21:44:37.29	100.26	11.94	-42.0	-44.2	16.5	0.00e+00	0	40	0	0	54	4934
2026-01-08 21:44:39.33	100.63	11.88	-41.9	-44.1	16.6	0.00e+00	0	40	0	0	54	4887
2026-01-08 21:44:41.28	100.99	11.83	-41.9	-44.1	16.6	0.00e+00	0	40	0	0	54	4885
2026-01-08 21:44:43.29	101.36	11.77	-42.0	-44.2	16.5	0.00e+00	0	40	0	0	54	4936
2026-01-08 21:44:45.29	101.72	11.72	-41.9	-44.3	16.3	0.00e+00	0	40	0	0	54	5024
2026-01-08 21:44:47.30	102.08	11.66	-42.0	-44.3	16.4	0.00e+00	0	40	0	0	54	4987
2026-01-08 21:44:49.30	102.44	11.60	-41.9	-44.1	16.6	0.00e+00	0	40	0	0	54	4887
2026-01-08 21:44:51.31	102.80	11.54	-41.9	-44.1	16.5	0.00e+00	0	40	0	0	54	4911
2026-01-08 21:44:53.36	103.17	11.47	-41.9	-44.1	16.5	0.00e+00	0	40	0	0	54	4887
2026-01-08 21:44:55.29	103.51	11.42	-41.7	-43.9	16.7	0.00e+00	0	40	0	0	54	4772
2026-01-08 21:44:57.30	103.87	11.35	-41.8	-44.0	16.6	0.00e+00	0	40	0	0	54	4826
2026-01-08 21:44:59.31	104.22	11.29	-41.9	-44.1	16.5	0.00e+00	0	40	0	0	54	4895
2026-01-08 21:45:01.31	104.57	11.22	-41.9	-44.1	16.5	0.00e+00	0	40	0	0	54	4894
2026-01-08 21:45:03.32	104.92	11.16	-42.0	-44.2	16.4	0.00e+00	0	40	0	0	54	4966
2026-01-08 21:45:05.38	105.28	11.09	-42.1	-44.3	16.2	0.00e+00	0	40	0	0	54	5030
2026-01-08 21:45:07.30	105.62	11.03	-42.0	-44.2	16.3	0.00e+00	0	40	0	0	54	4974
2026-01-08 21:45:09.31	105.96	10.96	-42.1	-44.4	16.2	0.00e+00	0	40	0	0	54	5083
2026-01-08 21:45:11.31	106.31	10.89	-42.0	-44.3	16.3	0.00e+00	0	40	0	0	54	5000
2026-01-08 21:45:13.32	106.65	10.82	-42.0	-44.3	16.3	0.00e+00	0	40	0	0	53	5306
2026-01-08 21:45:15.33	106.99	10.75	-42.0	-44.3	16.3	0.00e+00	0	40	0	0	54	5023
2026-01-08 21:45:17.33	107.33	10.68	-42.2	-44.5	16.1	0.00e+00	0	40	0	0	55	4823
2026-01-08 21:45:19.34	107.67	10.61	-42.3	-44.6	15.9	0.00e+00	0	40	0	0	55	4899
2026-01-08 21:45:21.29	108.00	10.54	-42.5	-44.8	15.8	0.00e+00	0	40	0	0	55	5010
2026-01-08 21:45:23.35	108.34	10.47	-42.4	-44.7	15.8	0.00e+00	0	40	0	0	55	4980
2026-01-08 21:45:25.35	108.67	10.39	-42.4	-44.7	15.8	0.00e+00	0	40	0	0	55	4963
2026-01-08 21:45:27.36	109.01	10.32	-42.5	-44.8	15.7	0.00e+00	0	40	0	0	55	5027
2026-01-08 21:45:29.36	109.34	10.24	-42.3	-44.7	15.9	0.00e+00	0	40	0	0	55	4948
2026-01-08 21:45:31.37	109.67	10.17	-42.5	-44.9	15.7	0.00e+00	0	40	0	0	55	5045
2026-01-08 21:45:33.38	109.99	10.09	-42.6	-44.9	15.6	0.00e+00	0	40	0	0	55	5086
2026-01-08 21:45:35.38	110.32	10.02	-42.3	-44.7	15.9	0.00e+00	0	40	0	0	55	4932
2026-01-08 21:45:37.39	110.64	9.94	-42.5	-44.9	15.6	0.00e+00	0	40	0	0	55	5089
2026-01-08 21:45:39.40	110.97	9.86	-42.9	-45.3	15.4	0.00e+00	0	40	0	0	56	5018
2026-01-08 21:45:41.40	111.29	9.79	-43.0	-45.4	15.2	0.00e+00	0	40	0	0	56	5096
2026-01-08 21:45:43.41	111.61	9.71	-42.9	-45.4	15.3	0.00e+00	0	40	0	0	56	5061
2026-01-08 21:45:45.42	111.92	9.63	-42.9	-45.3	15.3	0.00e+00	0	40	0	0	56	5038
2026-01-08 21:45:47.42	112.24	9.55	-42.7	-45.1	15.4	0.00e+00	0	40	0	0	55	5186
2026-01-08 21:45:49.43	112.55	9.47	-42.9	-45.4	15.3	0.00e+00	0	40	0	0	56	5052
2026-01-08 21:45:51.45	112.87	9.39	-43.0	-45.4	15.2	7.00e-07	0	40	0	0	56	5076
2026-01-08 21:45:53.46	113.18	9.31	-42.9	-45.4	15.3	0.00e+00	0	40	0	0	56	5044
2026-01-08 21:45:55.46	113.49	9.23	-43.0	-45.5	15.1	1.50e-06	0	40	0	0	56	5126
2026-01-08 21:45:57.47	113.79	9.14	-43.1	-45.6	15.0	0.00e+00	0	40	0	0	56	5191
2026-01-08 21:45:59.47	114.10	9.06	-43.0	-45.6	15.0	0.00e+00	0	40	0	0	56	5179
2026-01-08 21:46:01.48	114.40	8.98	-49.1	-62.2	3.8	1.49e+00	0	40	104	0	68	17591
2026-01-08 21:46:03.49	114.71	8.90	-49.3	-62.5	3.8	1.49e+00	0	40	104	0	69	17241
2026-01-08 21:46:05.50	115.01	8.81	-49.6	-62.6	3.8	1.49e+00	0	40	104	0	69	17428
2026-01-08 21:46:07.53	115.31	8.73	-49.6	-62.7	3.8	1.49e+00	0	40	104	0	69	17568
2026-01-08 21:46:09.53	115.61	8.64	-49.1	-62.7	3.8	1.49e+00	0	40	104	0	69	17646
2026-01-08 21:46:11.54	115.90	8.56	-49.4	-62.8	3.7	1.49e+00	0	40	104	0	69	17830
2026-01-08 21:46:13.55	116.20	8.47	-49.3	-62.7	3.8	1.49e+00	0	40	104	0	69	17677
2026-01-08 21:46:15.56	116.49	8.39	-49.3	-62.8	3.8	1.49e+00	0	40	104	0	69	17700
2026-01-08 21:46:17.57	116.78	8.30	-49.2	-62.8	3.8	1.49e+00	0	40	104	0	69	17738
2026-01-08 21:46:19.58	117.07	8.22	-49.2	-62.8	3.8	1.49e+00	0	40	104	0	69	17712
2026-01-08 21:46:21.58	117.36	8.13	-49.5	-62.7	3.8	1.49e+00	0	40	104	0	69	17674
2026-01-08 21:46:23.59	117.64	8.04	-49.4	-62.7	3.8	1.49e+00	0	40	104	0	69	17595
2026-01-08 21:46:25.60	117.93	7.96	-49.5	-62.8	3.8	1.49e+00	0	40	104	0	69	17739
2026-01-08 21:46:27.61	118.21	7.87	-49.4	-62.7	3.8	1.49e+00	0	40	104	0	69	17578
2026-01-08 21:46:29.62	118.49	7.78	-49.4	-62.8	3.8	1.49e+00	0	40	104	0	69	17858
2026-01-08 21:46:31.62	118.77	7.69	-49.4	-62.7	3.8	1.49e+00	0	40	104	0	69	17650
2026-01-08 21:46:33.63	119.05	7.60	-49.2	-62.7	3.8	1.49e+00	0	40	104	0	69	17643
2026-01-08 21:46:35.64	119.32	7.51	-49.4	-62.7	3.8	1.49e+00	0	40	104	0	69	17654
2026-01-08 21:46:37.65	119.60	7.43	-49.4	-62.7	3.8	1.49e+00	0	40	104	0	69	17607
2026-01-08 21:46:39.66	119.87	7.34	-49.3	-62.8	3.8	1.49e+00	0	40	104	0	69	17689
2026-01-08 21:46:41.67	120.14	7.25	-48.4	-62.7	3.8	1.49e+00	0	40	104	0	69	17598
2026-01-08 21:46:43.68	120.41	7.16	-49.4	-62.7	3.8	1.49e+00	0	40	104	0	69	17624
2026-01-08 21:46:45.69	120.68	7.07	-49.4	-62.7	3.8	1.49e+00	0	40	104	0	69	17617
2026-01-08 21:46:47.69	120.95	6.98	-49.4	-62.7	3.9	1.49e+00	0	40	104	0	69	17583
2026-01-08 21:46:49.70	121.21	6.89	-49.4	-62.7	3.9	1.49e+00	0	40	104	0	69	17579
2026-01-08 21:46:51.71	121.48	6.80	-49.4	-62.7	3.8	1.49e+00	0	40	104	0	69	17620
2026-01-08 21:46:53.72	121.74	6.71	-49.4	-62.7	3.8	1.49e+00	0	40	104	0	69	17539
2026-01-08 21:46:55.73	122.00	6.62	-49.4	-62.7	3.8	1.49e+00	0	40	104	0	69	17609
2026-01-08 21:46:57.72	122.26	6.53	-49.4	-62.7	3.8	1.49e+00	0	40	104	0	69	17635
2026-01-08 21:46:59.73	122.51	6.44	-49.4	-62.7	3.8	1.49e+00	0	40	104	0	69	17580
2026-01-08 21:47:01.74	122.77	6.34	-49.4	-62.7	3.8	1.49e+00	0	40	104	0	69	17589
2026-01-08 21:47:03.75	123.02	6.25	-49.3	-62.7	3.8	1.49e+00	0	40	104	0	69	17603
2026-01-08 21:47:05.75	123.28	6.16	-49.4	-62.7	3.8	1.49e+00	0	40	104	0	69	17642
2026-01-08 21:47:07.76	123.53	6.07	-49.4	-62.7	3.8	1.49e+00	0	41	104	0	69	17554
2026-01-08 21:47:09.77	123.78	5.98	-49.4	-62.7	3.8	1.49e+00	0	40	104	0	69	17638
2026-01-08 21:47:11.78	124.02	5.89	-49.4	-62.7	3.8	1.49e+00	0	40	104	0	69	17621
2026-01-08 21:47:13.79	124.27	5.79	-49.4	-62.7	3.8	1.49e+00	0	40	104	0	69	17610
2026-01-08 21:47:15.80	124.52	5.70	-49.2	-62.7	3.8	1.49e+00	0	40	104	0	69	17652
2026-01-08 21:47:17.81	124.76	5.61	-45.1	-62.9	3.8	1.49e+00	0	40	104	0	69	17969
2026-01-08 21:47:19.82	125.00	5.52	-49.4	-62.7	3.8	1.49e+00	0	40	104	0	69	17609
2026-01-08 21:47:21.83	125.24	5.42	-49.4	-62.7	3.8	1.49e+00	0	40	104	0	69	17619
2026-01-08 21:47:23.83	125.48	5.33	-49.4	-62.7	3.8	1.49e+00	0	40	104	0	69	17651
2026-01-08 21:47:25.84	125.72	5.24	-49.4	-62.7	3.8	1.49e+00	0	40	104	0	69	17511
2026-01-08 21:47:27.85	125.96	5.15	-49.3	-62.7	3.8	1.49e+00	0	40	104	0	69	17623
2026-01-08 21:47:29.86	126.19	5.05	-49.4	-62.7	3.8	1.49e+00	0	40	104	0	69	17549

#Closed at: 2026-01-08 21:47:31
#Recorded file [0 MB]: D:/Data/31040_260109_003835.dat