passes_logs/2026/01/08/T1/T1__20260108_234729_SUOMI_NPP_rec.log

#Pass ID: 20260108_234729_SUOMI NPP
#Satellite: SUOMI NPP
#Configuration: NPP
#almurnet v.1.7.20251203
#Start time: 2026-01-08 23:47:29

#Version: 2.0.20230620
#Station: T1
#Location: 37.570604 lon 55.790049 lat
#TLE: 1 37849U 11061A   26008.05542337  .00000108  00000+0  71976-4 0  9997
#TLE: 2 37849  98.7805 310.1641 0002540  75.6410 284.5048 14.19523335735721

#Time	Az	El	Level	Level2	SNR	BER	BlckErr	Temp	State	Recorded	gain1	gain2
2026-01-08 23:47:29.78	16.20	5.00	-48.4	-64.0	3.8	1.49e+00	0	41	0	0	67	22837
2026-01-08 23:47:33.79	16.21	5.29	-48.1	-63.7	3.8	1.49e+00	0	41	104	0	66	23436
2026-01-08 23:47:37.81	16.22	5.58	-48.0	-63.3	3.8	1.49e+00	0	41	104	0	66	22349
2026-01-08 23:47:41.82	16.23	5.87	-48.0	-63.0	3.8	1.49e+00	0	41	104	0	66	21619
2026-01-08 23:47:45.84	16.24	6.17	-48.0	-63.1	3.8	1.49e+00	0	42	104	0	66	21904
2026-01-08 23:47:49.86	16.25	6.47	-48.0	-62.8	3.8	1.49e+00	0	42	104	0	66	21057
2026-01-08 23:47:53.88	16.26	6.77	-48.0	-62.9	3.8	1.49e+00	0	42	104	0	66	21397
2026-01-08 23:47:57.89	16.26	7.08	-48.0	-63.8	3.8	1.49e+00	0	42	104	0	66	23607
2026-01-08 23:48:01.91	16.27	7.39	-48.0	-62.4	3.8	1.49e+00	0	42	104	0	66	20089
2026-01-08 23:48:05.93	16.28	7.71	-47.7	-58.9	4.7	9.38e-01	0	42	0	2097152	66	13509
2026-01-08 23:48:09.94	16.29	8.03	-47.4	-57.0	5.9	3.74e-01	0	43	0	9437184	66	10866
2026-01-08 23:48:13.96	16.30	8.35	-47.1	-55.7	7.0	1.68e-01	0	43	0	16777216	66	9324
2026-01-08 23:48:17.97	16.30	8.68	-47.1	-55.4	7.3	1.20e-01	0	43	0	25165824	66	9009
2026-01-08 23:48:21.99	16.31	9.01	-47.3	-56.2	6.5	2.16e-01	0	43	0	32505856	66	9939
2026-01-08 23:48:26.00	16.32	9.34	-48.2	-60.6	4.2	1.42e+00	0	43	104	37748736	67	15424
2026-01-08 23:48:30.01	16.33	9.68	-48.2	-59.8	4.4	1.14e+00	0	43	0	44040192	67	14085
2026-01-08 23:48:34.02	16.33	10.03	-47.9	-59.9	4.3	1.22e-01	0	43	0	51380224	66	15160
2026-01-08 23:48:38.04	16.34	10.38	-45.7	-51.0	11.9	4.38e-04	0	43	0	57671680	63	6475
2026-01-08 23:48:42.05	16.35	10.74	-45.7	-50.6	12.5	1.17e-04	0	43	0	65011712	62	6532
2026-01-08 23:48:46.09	16.35	11.10	-45.2	-49.8	13.1	5.95e-05	0	43	0	73400320	62	5968
2026-01-08 23:48:50.07	16.36	11.46	-45.2	-49.8	13.1	2.89e-05	0	43	0	80740352	61	6311
2026-01-08 23:48:54.31	16.36	11.85	-45.3	-49.7	13.5	1.52e-05	0	43	0	88080384	61	6214
2026-01-08 23:48:58.35	16.37	12.23	-44.9	-49.1	13.9	1.06e-05	0	43	0	96468992	61	5797
2026-01-08 23:49:02.36	16.37	12.62	-44.9	-48.9	14.2	1.50e-06	0	43	0	103809024	61	5679
2026-01-08 23:49:06.37	16.38	13.01	-44.5	-48.3	14.8	0.00e+00	0	43	0	111149056	61	5303
2026-01-08 23:49:10.42	16.38	13.41	-44.4	-48.0	15.1	0.00e+00	0	43	0	118489088	60	5443
2026-01-08 23:49:14.44	16.39	13.81	-44.1	-47.4	15.6	0.00e+00	0	43	0	125829120	59	5373
2026-01-08 23:49:18.45	16.39	14.22	-43.9	-47.2	15.8	0.00e+00	0	43	0	133169152	59	5266
2026-01-08 23:49:22.46	16.39	14.64	-43.6	-46.7	16.4	0.00e+00	0	43	0	141557760	59	4949
2026-01-08 23:49:26.48	16.40	15.06	-43.4	-46.4	16.6	0.00e+00	0	43	0	148897792	58	5073
2026-01-08 23:49:30.49	16.40	15.49	-43.4	-46.4	16.7	0.00e+00	0	43	0	156237824	58	5064
2026-01-08 23:49:34.50	16.40	15.93	-43.5	-46.5	16.6	0.00e+00	0	43	0	163577856	58	5132
2026-01-08 23:49:38.43	16.40	16.37	-43.3	-46.2	16.8	0.00e+00	0	43	0	170917888	58	4967
2026-01-08 23:49:42.62	16.40	16.85	-43.3	-46.2	16.8	0.00e+00	0	44	0	179306496	58	4973
2026-01-08 23:49:46.72	16.40	17.32	-43.1	-46.0	17.1	0.00e+00	0	44	0	186646528	58	4830
2026-01-08 23:49:51.01	16.40	17.83	-43.1	-46.0	17.0	0.00e+00	0	44	0	195035136	57	5137
2026-01-08 23:49:55.02	16.40	18.31	-43.1	-46.0	17.0	0.00e+00	0	44	0	202375168	57	5147
2026-01-08 23:49:59.17	16.40	18.82	-43.3	-46.2	16.9	0.00e+00	0	43	0	209715200	57	5273
2026-01-08 23:50:03.35	16.40	19.35	-43.4	-46.5	16.7	0.00e+00	0	44	0	218103808	57	5422
2026-01-08 23:50:07.36	16.40	19.86	-43.4	-46.4	16.7	0.00e+00	0	44	0	225443840	57	5370
2026-01-08 23:50:11.37	16.39	20.39	-43.3	-46.3	16.8	0.00e+00	0	44	0	232783872	57	5331
2026-01-08 23:50:15.50	16.39	20.94	-43.3	-46.3	16.8	0.00e+00	0	43	0	240123904	57	5307
2026-01-08 23:50:19.51	16.39	21.49	-43.6	-46.7	16.5	0.00e+00	0	44	0	248512512	57	5565
2026-01-08 23:50:23.53	16.38	22.05	-43.7	-46.8	16.3	0.00e+00	0	44	0	255852544	58	5317
2026-01-08 23:50:27.70	16.37	22.65	-43.5	-46.6	16.5	0.00e+00	0	43	0	263192576	58	5193
2026-01-08 23:50:31.71	16.37	23.24	-43.4	-46.5	16.6	0.00e+00	0	44	0	270532608	58	5153
2026-01-08 23:50:35.79	16.36	23.85	-43.6	-46.7	16.5	0.00e+00	0	44	0	278921216	58	5234
2026-01-08 23:50:39.85	16.35	24.47	-43.7	-46.7	16.5	0.00e+00	0	44	0	286261248	58	5266
2026-01-08 23:50:43.87	16.34	25.11	-43.4	-46.4	16.7	0.00e+00	0	44	0	293601280	58	5093
2026-01-08 23:50:48.22	16.33	25.81	-43.4	-46.4	16.7	0.00e+00	0	43	0	301989888	58	5094
2026-01-08 23:50:52.26	16.32	26.48	-43.6	-46.7	16.5	0.00e+00	0	44	0	309329920	58	5236
2026-01-08 23:50:56.27	16.31	27.16	-43.7	-46.8	16.4	0.00e+00	0	43	0	316669952	58	5318
2026-01-08 23:51:00.29	16.29	27.86	-43.5	-46.5	16.7	0.00e+00	0	44	0	325058560	58	5141
2026-01-08 23:51:04.31	16.28	28.58	-44.4	-47.8	15.4	0.00e+00	0	44	0	332398592	59	5643
2026-01-08 23:51:08.32	16.26	29.32	-44.7	-48.4	14.9	7.00e-07	0	44	0	339738624	60	5659
2026-01-08 23:51:12.33	16.24	30.07	-44.8	-48.6	14.7	7.00e-07	0	44	0	347078656	60	5845
2026-01-08 23:51:16.40	16.22	30.86	-44.8	-48.7	14.7	0.00e+00	0	44	0	354418688	60	5860
2026-01-08 23:51:20.61	16.20	31.70	-44.7	-48.5	14.9	7.00e-07	0	44	0	362807296	60	5741
2026-01-08 23:51:24.65	16.17	32.53	-44.6	-48.1	15.2	7.00e-07	0	44	0	370147328	60	5487
2026-01-08 23:51:28.66	16.15	33.37	-44.8	-48.5	14.9	0.00e+00	0	44	0	377487360	60	5729
2026-01-08 23:51:32.67	16.12	34.24	-44.2	-47.5	15.8	0.00e+00	0	44	0	384827392	60	5135
2026-01-08 23:51:36.68	16.09	35.14	-43.4	-46.2	17.0	0.00e+00	0	44	0	393216000	58	4970
2026-01-08 23:51:40.69	16.06	36.06	-42.7	-45.4	17.7	0.00e+00	0	44	0	400556032	57	4797
2026-01-08 23:51:44.71	16.02	37.01	-42.2	-44.8	18.3	0.00e+00	0	44	0	407896064	56	4753
2026-01-08 23:51:48.69	15.98	37.98	-42.0	-44.5	18.4	0.00e+00	0	44	0	415236096	55	4870
2026-01-08 23:51:52.70	15.94	38.98	-41.7	-44.2	18.7	0.00e+00	0	44	0	422576128	55	4695
2026-01-08 23:51:56.80	15.89	40.04	-42.2	-44.9	18.0	0.00e+00	0	44	0	430964736	55	5069
2026-01-08 23:52:00.83	15.84	41.12	-42.4	-45.2	18.0	0.00e+00	0	44	0	438304768	56	4934
2026-01-08 23:52:04.98	15.79	42.26	-42.7	-45.5	17.7	0.00e+00	0	44	0	445644800	56	5102
2026-01-08 23:52:09.26	15.72	43.47	-43.1	-46.0	17.2	0.00e+00	0	44	0	454033408	57	5138
2026-01-08 23:52:13.27	15.66	44.64	-43.2	-46.1	17.2	0.00e+00	0	44	0	461373440	57	5205
2026-01-08 23:52:17.28	15.58	45.85	-44.6	-48.2	15.2	0.00e+00	0	44	0	468713472	59	5903
2026-01-08 23:52:21.34	15.50	47.12	-44.4	-48.0	15.4	0.00e+00	0	44	0	477102080	60	5429
2026-01-08 23:52:25.61	15.41	48.49	-45.1	-49.2	14.1	2.20e-06	0	44	0	484442112	60	6252
2026-01-08 23:52:29.63	15.31	49.82	-44.6	-48.2	15.2	0.00e+00	0	44	0	491782144	60	5548
2026-01-08 23:52:33.64	15.20	51.18	-43.0	-45.9	17.3	0.00e+00	0	44	0	499122176	57	5086
2026-01-08 23:52:37.68	15.08	52.60	-43.3	-46.2	17.0	0.00e+00	0	44	0	507510784	57	5254
2026-01-08 23:52:42.11	14.94	54.21	-41.4	-43.7	19.3	0.00e+00	0	44	0	515899392	54	4661
2026-01-08 23:52:46.18	14.78	55.72	-43.0	-45.8	17.5	0.00e+00	0	44	0	523239424	56	5301
2026-01-08 23:52:50.19	14.61	57.26	-42.7	-45.4	17.9	0.00e+00	0	44	0	530579456	56	5051
2026-01-08 23:52:54.32	14.42	58.89	-44.1	-47.4	15.9	0.00e+00	0	44	0	537919488	58	5689
2026-01-08 23:52:58.32	14.20	60.52	-43.7	-46.7	16.6	0.00e+00	0	44	0	546308096	59	4980
2026-01-08 23:53:02.61	13.92	62.30	-42.1	-44.6	18.6	0.00e+00	0	44	0	553648128	56	4614
2026-01-08 23:53:06.97	13.60	64.16	-41.0	-43.2	19.7	0.00e+00	0	44	0	562036736	53	4699
2026-01-08 23:53:10.98	13.25	65.92	-41.8	-44.1	18.8	0.00e+00	0	44	0	569376768	54	4900
2026-01-08 23:53:15.07	12.83	67.75	-43.6	-46.4	16.9	0.00e+00	0	44	0	577765376	58	5100
2026-01-08 23:53:19.02	12.34	69.55	-46.3	-50.9	12.5	2.36e-05	0	44	0	585105408	63	6352
2026-01-08 23:53:23.03	11.73	71.42	-46.1	-50.3	13.1	4.95e-05	0	44	0	592445440	63	5955
2026-01-08 23:53:27.16	10.95	73.38	-45.2	-48.8	14.6	7.00e-07	0	44	0	599785472	62	5320
2026-01-08 23:53:31.24	9.95	75.34	-44.6	-48.0	15.2	0.00e+00	0	44	0	607125504	61	5117
2026-01-08 23:53:35.25	8.65	77.29	-46.3	-51.2	12.1	3.55e-04	0	44	0	615514112	64	6215
2026-01-08 23:53:39.26	6.86	79.25	-46.1	-50.6	12.6	1.26e-03	0	44	0	622854144	64	5849
2026-01-08 23:53:43.37	4.16	81.27	-45.9	-50.2	13.2	0.00e+00	0	44	0	630194176	62	6203
2026-01-08 23:53:47.37	359.95	83.23	-43.4	-46.3	17.0	0.00e+00	0	44	0	637534208	58	5016
2026-01-08 23:53:51.38	352.32	85.14	-42.5	-45.0	18.2	0.00e+00	0	44	0	645922816	56	4860
2026-01-08 23:53:55.39	335.62	86.86	-45.1	-48.7	14.6	0.00e+00	0	44	0	653262848	61	5585
2026-01-08 23:53:59.46	293.92	87.86	-45.6	-49.7	13.8	3.58e-04	0	44	0	660602880	62	5878
2026-01-08 23:54:03.47	247.11	87.18	-44.1	-47.2	16.1	0.00e+00	0	44	0	667942912	59	5276
2026-01-08 23:54:07.57	226.41	85.50	-42.5	-45.0	18.2	0.00e+00	0	44	0	675282944	56	4819
2026-01-08 23:54:11.86	217.24	83.47	-41.9	-44.4	18.7	0.00e+00	0	44	0	683671552	55	4762
2026-01-08 23:54:15.87	212.73	81.52	-44.1	-47.2	16.1	0.00e+00	0	44	0	691011584	58	5533
2026-01-08 23:54:19.90	209.93	79.53	-42.9	-45.5	17.7	0.00e+00	0	44	0	698351616	57	4823
2026-01-08 23:54:24.26	207.91	77.39	-43.1	-45.8	17.6	0.00e+00	0	44	0	706740224	58	4710
2026-01-08 23:54:28.27	206.59	75.44	-43.4	-46.1	17.2	0.00e+00	0	44	0	714080256	57	5180
2026-01-08 23:54:32.29	205.59	73.50	-44.2	-47.2	16.1	0.00e+00	0	44	0	722468864	59	5247
2026-01-08 23:54:36.30	204.81	71.60	-45.7	-49.7	13.8	2.20e-06	0	44	0	729808896	62	5881
2026-01-08 23:54:40.22	204.20	69.76	-46.6	-51.2	12.0	1.82e-03	0	44	0	737148928	65	5909
2026-01-08 23:54:44.26	203.69	67.91	-44.9	-48.2	15.2	1.95e-04	0	44	0	744488960	61	5225
2026-01-08 23:54:48.25	203.26	66.12	-43.4	-46.0	17.3	0.00e+00	0	44	0	751828992	58	4854
2026-01-08 23:54:52.50	202.89	64.25	-44.0	-47.0	16.4	0.00e+00	0	44	0	760217600	58	5413
2026-01-08 23:54:56.42	202.59	62.56	-43.5	-46.3	17.2	0.00e+00	0	44	0	767557632	58	5019
2026-01-08 23:55:00.43	202.33	60.88	-43.0	-45.7	17.6	0.00e+00	0	44	0	774897664	56	5242
2026-01-08 23:55:04.45	202.10	59.24	-41.5	-43.6	19.3	0.00e+00	0	44	0	782237696	55	4384
2026-01-08 23:55:08.41	201.90	57.66	-43.3	-45.9	17.4	0.00e+00	0	44	0	789577728	58	4804
2026-01-08 23:55:12.42	201.73	56.10	-43.2	-45.9	17.4	0.00e+00	0	44	0	796917760	57	5047
2026-01-08 23:55:16.43	201.57	54.59	-42.4	-44.7	18.6	0.00e+00	0	44	0	805306368	56	4695
2026-01-08 23:55:20.45	201.43	53.12	-42.8	-45.3	17.9	0.00e+00	0	44	0	812646400	57	4733
2026-01-08 23:55:24.46	201.30	51.69	-44.7	-47.9	15.5	0.00e+00	0	44	0	819986432	60	5358
2026-01-08 23:55:28.47	201.19	50.30	-44.8	-48.2	15.2	0.00e+00	0	44	0	827326464	61	5226
2026-01-08 23:55:32.48	201.09	48.95	-46.1	-50.4	13.0	7.60e-06	0	44	0	834666496	62	6381
2026-01-08 23:55:36.50	201.00	47.64	-45.3	-48.9	14.5	8.30e-06	0	44	0	842006528	62	5400
2026-01-08 23:55:40.51	200.91	46.37	-43.6	-46.3	17.1	0.00e+00	0	44	0	850395136	58	5024
2026-01-08 23:55:44.52	200.83	45.14	-46.0	-49.9	13.5	9.10e-06	0	44	0	857735168	63	5713
2026-01-08 23:55:48.54	200.76	43.94	-45.2	-48.7	14.7	7.00e-07	0	44	0	865075200	62	5250
2026-01-08 23:55:52.55	200.70	42.78	-43.4	-46.1	17.2	0.00e+00	0	44	0	872415232	58	4879
2026-01-08 23:55:56.55	200.64	41.66	-45.6	-49.3	14.0	0.00e+00	0	44	0	879755264	61	5991
2026-01-08 23:56:00.57	200.59	40.57	-44.4	-47.5	16.0	0.00e+00	0	44	0	887095296	60	5102
2026-01-08 23:56:04.58	200.54	39.51	-45.1	-48.5	14.9	0.00e+00	0	44	0	895483904	61	5459
2026-01-08 23:56:08.59	200.49	38.48	-45.9	-50.1	13.4	3.00e-06	0	44	0	902823936	62	6135
2026-01-08 23:56:12.65	200.45	37.47	-45.4	-49.0	14.3	1.50e-06	0	44	0	910163968	62	5464
2026-01-08 23:56:16.59	200.41	36.52	-45.8	-49.6	13.8	2.20e-06	0	44	0	917504000	62	5840
2026-01-08 23:56:20.61	200.37	35.58	-44.9	-48.2	15.1	7.00e-07	0	44	0	924844032	61	5259
2026-01-08 23:56:24.61	200.34	34.67	-45.4	-49.0	14.4	7.00e-07	0	44	0	932184064	61	5766
2026-01-08 23:56:28.63	200.31	33.78	-47.9	-54.7	8.4	2.45e-02	0	44	0	940572672	66	8294
2026-01-08 23:56:32.64	200.28	32.92	-45.9	-49.9	13.4	2.89e-05	0	44	0	947912704	63	5702
2026-01-08 23:56:36.65	200.25	32.08	-44.2	-47.3	16.0	0.00e+00	0	44	0	955252736	60	5023
2026-01-08 23:56:41.17	200.22	31.16	-44.8	-48.2	15.1	0.00e+00	0	44	0	963641344	60	5587
2026-01-08 23:56:45.19	200.20	30.37	-44.7	-48.0	15.3	0.00e+00	0	44	0	970981376	60	5447
2026-01-08 23:56:49.30	200.18	29.58	-45.2	-48.7	14.4	1.50e-06	0	44	0	979369984	61	5570
2026-01-08 23:56:53.31	200.16	28.83	-46.2	-50.5	12.9	4.80e-05	0	44	0	986710016	63	6108
2026-01-08 23:56:57.32	200.14	28.10	-44.7	-48.0	15.3	7.00e-07	0	44	0	994050048	61	5128
2026-01-08 23:57:01.41	200.12	27.38	-43.4	-46.1	17.1	0.00e+00	0	44	0	1001390080	58	4895
2026-01-08 23:57:05.55	200.10	26.66	-42.9	-45.4	17.7	0.00e+00	0	44	0	1009778688	57	4811
2026-01-08 23:57:09.80	200.09	25.95	-43.3	-45.9	17.2	0.00e+00	0	44	0	1017118720	57	5097
2026-01-08 23:57:13.82	200.08	25.29	-44.1	-47.1	16.1	0.00e+00	0	44	0	1024458752	59	5204
2026-01-08 23:57:17.82	200.06	24.65	-43.7	-46.6	16.6	0.00e+00	0	44	0	1032847360	59	4892
2026-01-08 23:57:22.28	200.05	23.96	-42.6	-45.1	18.1	0.00e+00	0	44	0	1041235968	56	4890
2026-01-08 23:57:26.27	200.04	23.35	-42.8	-45.4	17.7	0.00e+00	0	44	0	1048576000	56	5076
2026-01-08 23:57:30.43	200.03	22.73	-43.5	-46.3	16.9	0.00e+00	0	44	0	1055916032	58	5020
2026-01-08 23:57:34.45	200.02	22.15	-43.8	-46.7	16.5	0.00e+00	0	44	0	1063256064	58	5247
2026-01-08 23:57:38.49	200.01	21.58	-43.3	-46.0	17.2	0.00e+00	0	44	0	1071644672	58	4832
2026-01-08 23:57:42.56	200.01	21.01	-43.3	-46.1	17.1	0.00e+00	0	44	0	1078984704	58	4878
2026-01-08 23:57:46.99	200.00	20.41	-43.4	-46.2	17.0	0.00e+00	0	44	0	1087373312	58	4952
2026-01-08 23:57:51.02	199.99	19.88	-43.8	-46.8	16.4	0.00e+00	0	44	0	1094713344	58	5315
2026-01-08 23:57:55.05	199.99	19.36	-44.0	-47.1	16.1	0.00e+00	0	44	0	1102053376	59	5206
2026-01-08 23:57:59.17	199.98	18.83	-44.4	-47.8	15.4	0.00e+00	0	44	0	1110441984	59	5615
2026-01-08 23:58:03.26	199.98	18.33	-45.3	-49.1	14.1	2.20e-06	0	44	0	1117782016	61	5846
2026-01-08 23:58:07.27	199.97	17.84	-45.7	-49.9	13.3	1.67e-05	0	44	0	1125122048	62	6033
2026-01-08 23:58:11.28	199.97	17.36	-45.7	-49.8	13.4	2.89e-05	0	44	0	1132462080	62	5984
2026-01-08 23:58:15.54	199.97	16.86	-45.2	-49.0	14.3	3.00e-06	0	44	0	1140850688	62	5417
2026-01-08 23:58:19.56	199.97	16.40	-44.9	-48.5	14.6	0.00e+00	0	44	0	1148190720	61	5451
2026-01-08 23:58:23.59	199.96	15.94	-44.4	-47.8	15.3	0.00e+00	0	44	0	1155530752	60	5326
2026-01-08 23:58:27.60	199.96	15.50	-44.4	-47.7	15.4	0.00e+00	0	44	0	1162870784	60	5278
2026-01-08 23:58:31.68	199.96	15.06	-44.5	-48.0	15.2	0.00e+00	0	44	0	1171259392	60	5416
2026-01-08 23:58:35.69	199.96	14.63	-44.7	-48.2	14.9	0.00e+00	0	44	0	1178599424	60	5568
2026-01-08 23:58:39.70	199.96	14.21	-44.7	-48.2	14.9	0.00e+00	0	44	0	1185939456	60	5564
2026-01-08 23:58:43.69	199.96	13.80	-44.6	-48.1	15.0	0.00e+00	0	44	0	1193279488	60	5495
2026-01-08 23:58:47.72	199.96	13.39	-44.7	-48.2	15.0	0.00e+00	0	44	0	1200619520	60	5540
2026-01-08 23:58:51.81	199.96	12.98	-44.6	-48.0	15.1	0.00e+00	0	44	0	1209008128	60	5439
2026-01-08 23:58:56.05	199.96	12.57	-44.6	-48.1	14.9	0.00e+00	0	44	0	1216348160	60	5524
2026-01-08 23:59:00.06	199.96	12.18	-44.6	-48.2	14.9	0.00e+00	0	44	0	1223688192	60	5534
2026-01-08 23:59:04.07	199.96	11.80	-44.8	-48.5	14.5	0.00e+00	0	44	0	1232076800	60	5750
2026-01-08 23:59:08.50	199.96	11.39	-44.7	-48.5	14.6	0.00e+00	0	44	0	1240465408	60	5724
2026-01-08 23:59:12.51	199.97	11.02	-44.7	-48.4	14.6	0.00e+00	0	44	0	1247805440	60	5684
2026-01-08 23:59:16.55	199.97	10.66	-44.5	-48.1	14.9	0.00e+00	0	44	0	1255145472	60	5519
2026-01-08 23:59:20.69	199.97	10.29	-44.4	-48.0	15.0	0.00e+00	0	44	0	1262485504	60	5440
2026-01-08 23:59:25.01	199.97	9.91	-44.6	-48.3	14.6	0.00e+00	0	44	0	1270874112	60	5609
2026-01-08 23:59:29.02	199.98	9.56	-44.4	-48.1	14.9	0.00e+00	0	44	0	1278214144	60	5475
2026-01-08 23:59:33.15	199.98	9.21	-44.6	-48.3	14.6	0.00e+00	0	44	0	1286602752	60	5622
2026-01-08 23:59:37.22	199.98	8.87	-48.6	-63.8	3.8	1.49e+00	0	44	104	1291845632	67	22370
2026-01-08 23:59:41.24	199.98	8.53	-49.5	-64.7	3.8	1.49e+00	0	44	104	1291845632	69	22246
2026-01-08 23:59:45.21	199.99	8.21	-49.3	-64.8	3.8	1.49e+00	0	44	104	1291845632	69	22380
2026-01-08 23:59:49.22	199.99	7.88	-49.6	-64.8	3.8	1.49e+00	0	44	104	1291845632	70	21237
2026-01-08 23:59:53.35	200.00	7.56	-49.6	-64.8	3.8	1.49e+00	0	44	104	1291845632	70	21201
2026-01-08 23:59:57.77	200.00	7.21	-49.2	-64.8	3.8	1.49e+00	0	44	104	1291845632	70	21142
2026-01-09 00:00:01.78	200.00	6.90	-49.3	-64.8	3.8	1.49e+00	0	44	104	1291845632	70	21070
2026-01-09 00:00:05.80	200.01	6.59	-49.3	-64.8	3.8	1.49e+00	0	44	104	1291845632	70	21092
2026-01-09 00:00:09.82	200.01	6.28	-49.3	-64.8	3.8	1.49e+00	0	44	104	1291845632	70	21111
2026-01-09 00:00:13.83	200.02	5.98	-49.3	-64.8	3.8	1.49e+00	0	44	104	1291845632	70	21040
2026-01-09 00:00:17.85	200.02	5.68	-49.3	-64.8	3.8	1.49e+00	0	44	104	1291845632	70	21038
2026-01-09 00:00:21.87	200.02	5.39	-49.3	-64.7	3.8	1.49e+00	0	44	104	1291845632	70	20987
2026-01-09 00:00:25.89	200.03	5.10	-49.3	-64.8	3.8	1.49e+00	0	44	104	1291845632	70	21140

#Closed at: 2026-01-09 00:00:28
#Recorded file [1291 MB]: D:/Data/31040_260109_024729.dat