passes_logs/2026/01/08/T1/T1__20260108_101738_NOAA_20_JPSS-1_rec.log

#Pass ID: 20260108_101738_NOAA 20 (JPSS-1)
#Satellite: NOAA 20 (JPSS-1)
#Configuration: NOAA 20
#almurnet v.1.7.20251203
#Start time: 2026-01-08 10:17:39

#Version: 2.0.20230620
#Station: T1
#Location: 37.570604 lon 55.790049 lat
#TLE: 1 43013U 17073A   26006.30790171  .00000126  00000+0  80695-4 0  9991
#TLE: 2 43013  98.7629 307.3394 0001808  51.8724 308.2615 14.19533762421505

#Time	Az	El	Level	Level2	SNR	BER	BlckErr	Temp	State	Recorded	gain1	gain2
2026-01-08 10:17:39.29	171.83	5.06	-50.2	-65.7	3.8	1.49e+00	0	40	0	0	72	20805
2026-01-08 10:17:43.30	171.92	5.34	-47.4	-64.7	3.8	1.49e+00	0	40	104	0	65	27721
2026-01-08 10:17:47.32	172.01	5.63	-47.3	-64.5	3.8	1.49e+00	0	40	104	0	65	27191
2026-01-08 10:17:51.34	172.10	5.93	-47.3	-64.3	3.8	1.49e+00	0	41	104	0	65	26732
2026-01-08 10:17:55.35	172.19	6.22	-47.4	-64.5	3.8	1.49e+00	0	41	104	0	65	27310
2026-01-08 10:17:59.37	172.29	6.53	-47.3	-65.1	3.8	1.49e+00	0	41	104	0	65	29127
2026-01-08 10:18:03.39	172.39	6.83	-47.4	-65.1	3.8	1.49e+00	0	41	104	0	65	29108
2026-01-08 10:18:07.41	172.49	7.14	-47.4	-63.8	3.8	1.49e+00	0	41	104	0	65	24994
2026-01-08 10:18:11.42	172.59	7.45	-47.2	-59.6	5.0	8.87e-01	0	41	0	2097152	65	15462
2026-01-08 10:18:15.44	172.69	7.77	-46.5	-55.5	8.3	8.32e-02	0	41	0	9437184	65	9665
2026-01-08 10:18:19.46	172.80	8.09	-46.3	-53.6	10.2	6.64e-03	0	41	0	16777216	64	8242
2026-01-08 10:18:23.48	172.90	8.41	-46.4	-54.6	9.3	1.56e-02	0	41	0	24117248	64	9202
2026-01-08 10:18:27.50	173.01	8.74	-47.0	-58.8	5.5	3.66e-01	0	42	0	32505856	64	14958
2026-01-08 10:18:31.51	173.12	9.07	-47.0	-62.0	3.9	1.49e+00	0	42	104	34603008	65	20401
2026-01-08 10:18:35.53	173.24	9.40	-46.5	-59.4	5.0	1.43e+00	0	42	0	36700160	65	15184
2026-01-08 10:18:39.54	173.35	9.74	-46.2	-52.5	11.5	5.18e-04	0	42	0	44040192	63	7712
2026-01-08 10:18:43.55	173.47	10.09	-46.5	-52.6	11.4	7.27e-04	0	42	0	51380224	63	7761
2026-01-08 10:18:47.57	173.59	10.44	-45.6	-50.3	13.9	9.10e-06	0	42	0	58720256	63	5941
2026-01-08 10:18:51.96	173.73	10.83	-44.7	-48.7	15.4	0.00e+00	0	42	0	67108864	61	5562
2026-01-08 10:18:56.00	173.86	11.19	-44.4	-48.3	15.8	0.00e+00	0	42	0	74448896	60	5613
2026-01-08 10:19:00.02	173.99	11.56	-44.2	-47.6	16.4	0.00e+00	0	42	0	82837504	60	5217
2026-01-08 10:19:04.15	174.12	11.94	-44.3	-47.3	16.8	0.00e+00	0	42	0	90177536	60	5034
2026-01-08 10:19:08.10	174.26	12.31	-44.1	-46.8	17.3	0.00e+00	0	42	0	97517568	60	4727
2026-01-08 10:19:12.11	174.40	12.69	-44.1	-46.8	17.3	0.00e+00	0	42	0	104857600	60	4737
2026-01-08 10:19:16.12	174.54	13.08	-44.2	-46.9	17.2	0.00e+00	0	42	0	112197632	59	5058
2026-01-08 10:19:20.71	174.71	13.53	-44.1	-46.7	17.4	0.00e+00	0	42	0	121634816	59	4959
2026-01-08 10:19:24.72	174.86	13.94	-43.9	-46.6	17.5	0.00e+00	0	42	0	128974848	59	4884
2026-01-08 10:19:28.89	175.02	14.36	-43.9	-46.6	17.5	0.00e+00	0	42	0	136314880	59	4905
2026-01-08 10:19:32.97	175.18	14.78	-44.0	-46.7	17.4	0.00e+00	0	43	0	144703488	59	4981
2026-01-08 10:19:36.98	175.34	15.21	-44.2	-46.9	17.2	0.00e+00	0	42	0	152043520	59	5075
2026-01-08 10:19:41.00	175.51	15.64	-44.2	-46.9	17.2	0.00e+00	0	43	0	159383552	59	5095
2026-01-08 10:19:45.01	175.68	16.08	-44.3	-47.1	17.1	0.00e+00	0	43	0	166723584	59	5180
2026-01-08 10:19:49.03	175.85	16.52	-44.3	-47.1	17.1	0.00e+00	0	42	0	174063616	59	5171
2026-01-08 10:19:53.04	176.04	16.98	-44.5	-47.4	16.9	0.00e+00	0	43	0	181403648	59	5351
2026-01-08 10:19:57.10	176.22	17.44	-44.7	-47.6	16.7	0.00e+00	0	43	0	189792256	60	5173
2026-01-08 10:20:01.12	176.42	17.92	-44.8	-47.8	16.5	0.00e+00	0	43	0	197132288	60	5301
2026-01-08 10:20:05.16	176.61	18.40	-44.9	-47.8	16.6	0.00e+00	0	43	0	204472320	60	5292
2026-01-08 10:20:09.30	176.82	18.90	-45.0	-47.9	16.4	0.00e+00	0	43	0	212860928	60	5388
2026-01-08 10:20:13.51	177.05	19.43	-45.0	-48.0	16.3	0.00e+00	0	43	0	220200960	60	5432
2026-01-08 10:20:17.52	177.26	19.94	-44.9	-47.9	16.5	0.00e+00	0	43	0	227540992	60	5355
2026-01-08 10:20:21.53	177.49	20.46	-44.9	-47.9	16.5	0.00e+00	0	43	0	234881024	60	5350
2026-01-08 10:20:25.84	177.73	21.03	-44.8	-47.6	16.7	0.00e+00	0	43	0	243269632	60	5217
2026-01-08 10:20:29.86	177.97	21.57	-44.8	-47.7	16.5	0.00e+00	0	43	0	250609664	60	5254
2026-01-08 10:20:34.09	178.24	22.15	-44.7	-47.6	16.8	0.00e+00	0	43	0	258998272	60	5185
2026-01-08 10:20:38.49	178.52	22.78	-44.7	-47.5	16.9	0.00e+00	0	43	0	267386880	60	5128
2026-01-08 10:20:42.57	178.79	23.36	-44.6	-47.4	17.0	0.00e+00	0	43	0	274726912	60	5086
2026-01-08 10:20:46.58	179.07	23.96	-44.5	-47.2	17.1	0.00e+00	0	43	0	282066944	60	4976
2026-01-08 10:20:50.66	179.36	24.57	-44.4	-47.1	17.2	0.00e+00	0	43	0	290455552	60	4903
2026-01-08 10:20:55.01	179.68	25.24	-44.6	-47.3	17.1	0.00e+00	0	43	0	297795584	60	5019
2026-01-08 10:20:59.02	179.99	25.88	-44.9	-47.7	16.7	0.00e+00	0	43	0	305135616	60	5272
2026-01-08 10:21:03.03	180.31	26.53	-45.1	-47.9	16.5	0.00e+00	0	43	0	313524224	60	5395
2026-01-08 10:21:07.05	180.65	27.19	-45.1	-48.0	16.4	0.00e+00	0	43	0	320864256	60	5431
2026-01-08 10:21:11.06	181.00	27.87	-45.2	-48.2	16.3	0.00e+00	0	43	0	328204288	61	5248
2026-01-08 10:21:15.03	181.36	28.56	-45.2	-48.2	16.3	0.00e+00	0	43	0	335544320	61	5240
2026-01-08 10:21:19.04	181.74	29.27	-45.1	-48.1	16.4	0.00e+00	0	43	0	342884352	61	5170
2026-01-08 10:21:23.04	182.13	30.00	-45.4	-48.5	16.0	0.00e+00	0	43	0	350224384	61	5460
2026-01-08 10:21:27.06	182.55	30.74	-45.7	-48.8	15.7	0.00e+00	0	43	0	358612992	62	5321
2026-01-08 10:21:31.07	182.98	31.51	-45.8	-49.0	15.5	0.00e+00	0	43	0	365953024	62	5458
2026-01-08 10:21:35.18	183.44	32.31	-46.1	-49.3	15.2	0.00e+00	0	43	0	373293056	63	5336
2026-01-08 10:21:39.19	183.92	33.11	-46.0	-49.3	15.3	0.00e+00	0	43	0	380633088	63	5292
2026-01-08 10:21:43.21	184.42	33.94	-45.8	-48.9	15.6	0.00e+00	0	43	0	387973120	63	5052
2026-01-08 10:21:47.21	184.94	34.78	-45.5	-48.6	16.0	0.00e+00	0	43	0	396361728	62	5183
2026-01-08 10:21:51.55	185.54	35.71	-45.6	-48.7	15.8	0.00e+00	0	43	0	403701760	62	5270
2026-01-08 10:21:55.65	186.14	36.61	-46.0	-49.4	15.2	7.00e-07	0	43	0	412090368	62	5658
2026-01-08 10:21:59.79	186.78	37.55	-46.4	-49.9	14.6	7.00e-07	0	43	0	419430400	63	5677
2026-01-08 10:22:03.81	187.43	38.48	-46.8	-50.6	13.8	7.00e-07	0	43	0	426770432	64	5836
2026-01-08 10:22:07.86	188.13	39.44	-46.9	-50.8	13.7	9.10e-06	0	43	0	435159040	65	5607
2026-01-08 10:22:12.13	188.91	40.48	-46.9	-50.6	13.9	4.50e-06	0	43	0	442499072	65	5518
2026-01-08 10:22:16.14	189.69	41.47	-46.9	-50.7	13.8	4.50e-06	0	43	0	449839104	65	5548
2026-01-08 10:22:20.15	190.52	42.49	-46.1	-49.4	15.2	0.00e+00	0	43	0	458227712	64	5050
2026-01-08 10:22:24.07	191.38	43.50	-46.1	-49.4	15.2	0.00e+00	0	43	0	465567744	63	5346
2026-01-08 10:22:28.16	192.34	44.58	-45.9	-49.0	15.6	0.00e+00	0	43	0	472907776	63	5124
2026-01-08 10:22:32.17	193.35	45.66	-46.4	-49.9	14.7	0.00e+00	0	43	0	480247808	63	5663
2026-01-08 10:22:36.38	194.48	46.82	-46.1	-49.4	15.2	0.00e+00	0	43	0	488636416	63	5362
2026-01-08 10:22:40.52	195.67	47.97	-46.0	-49.3	15.3	0.00e+00	0	43	0	495976448	63	5286
2026-01-08 10:22:44.53	196.92	49.10	-45.7	-48.8	15.8	0.00e+00	0	43	0	503316480	62	5294
2026-01-08 10:22:48.54	198.26	50.25	-44.1	-46.7	17.9	0.00e+00	0	43	0	510656512	60	4652
2026-01-08 10:22:52.56	199.71	51.41	-43.0	-45.2	19.1	0.00e+00	0	43	0	517996544	57	4678
2026-01-08 10:22:56.57	201.27	52.58	-41.4	-43.4	20.5	0.00e+00	0	43	0	526385152	54	4500
2026-01-08 10:23:00.82	203.07	53.82	-41.0	-43.0	20.9	0.00e+00	0	43	0	533725184	54	4309
2026-01-08 10:23:05.16	205.07	55.09	-41.9	-44.0	20.0	0.00e+00	0	43	0	542113792	54	4856
2026-01-08 10:23:09.49	207.25	56.35	-43.5	-45.9	18.5	0.00e+00	0	43	0	550502400	57	5058
2026-01-08 10:23:14.10	209.79	57.68	-44.4	-47.0	17.5	0.00e+00	0	43	0	558891008	59	5105
2026-01-08 10:23:18.21	212.27	58.83	-44.9	-47.7	16.9	0.00e+00	0	43	0	566231040	60	5243
2026-01-08 10:23:22.49	215.10	60.00	-44.8	-47.6	17.0	0.00e+00	0	43	0	574619648	60	5176
2026-01-08 10:23:26.50	217.98	61.06	-43.6	-46.0	18.4	0.00e+00	0	43	0	581959680	59	4563
2026-01-08 10:23:30.51	221.11	62.06	-43.4	-45.7	18.7	0.00e+00	0	43	0	589299712	58	4691
2026-01-08 10:23:34.55	224.52	63.01	-43.8	-46.3	18.1	0.00e+00	0	43	0	597688320	58	5001
2026-01-08 10:23:38.74	228.33	63.90	-43.7	-46.1	18.3	0.00e+00	0	43	0	605028352	58	4876
2026-01-08 10:23:42.86	232.37	64.69	-43.7	-46.0	18.4	0.00e+00	0	43	0	612368384	59	4594
2026-01-08 10:23:46.87	236.55	65.34	-44.4	-47.0	17.5	0.00e+00	0	43	0	620756992	59	5114
2026-01-08 10:23:50.88	240.96	65.88	-45.1	-47.9	16.7	0.00e+00	0	43	0	628097024	61	5079
2026-01-08 10:23:54.89	245.57	66.28	-45.5	-48.5	16.1	0.00e+00	0	43	0	635437056	62	5127
2026-01-08 10:23:58.90	250.32	66.55	-46.3	-49.7	15.0	0.00e+00	0	43	0	642777088	63	5541
2026-01-08 10:24:03.28	255.60	66.66	-45.4	-48.3	16.4	0.00e+00	0	43	0	651165696	61	5312
2026-01-08 10:24:07.29	260.44	66.61	-44.9	-47.7	16.8	0.00e+00	0	43	0	658505728	61	4950
2026-01-08 10:24:11.47	265.43	66.40	-44.4	-46.9	17.7	0.00e+00	0	43	0	666894336	60	4785
2026-01-08 10:24:15.76	270.42	66.02	-44.2	-46.7	17.9	0.00e+00	0	43	0	674234368	60	4693
2026-01-08 10:24:19.77	274.89	65.53	-45.3	-48.2	16.5	0.00e+00	0	43	0	681574400	62	4943
2026-01-08 10:24:23.79	279.15	64.91	-44.4	-46.9	17.6	0.00e+00	0	43	0	689963008	60	4791
2026-01-08 10:24:27.75	283.11	64.19	-43.4	-45.8	18.6	0.00e+00	0	43	0	697303040	58	4741
2026-01-08 10:24:31.76	286.86	63.36	-42.9	-45.2	19.2	0.00e+00	0	43	0	704643072	56	4949
2026-01-08 10:24:35.76	290.34	62.46	-40.6	-42.5	21.4	0.00e+00	0	43	0	711983104	51	4841
2026-01-08 10:24:39.77	293.57	61.49	-40.8	-42.7	21.1	0.00e+00	0	43	0	719323136	52	4691
2026-01-08 10:24:43.78	296.54	60.45	-42.3	-44.4	19.7	0.00e+00	0	43	0	726663168	55	4789
2026-01-08 10:24:47.80	299.29	59.37	-43.7	-46.1	18.3	0.00e+00	0	43	0	735051776	58	4915
2026-01-08 10:24:52.14	302.01	58.17	-43.3	-45.7	18.8	0.00e+00	0	43	0	742391808	58	4652
2026-01-08 10:24:56.27	304.38	57.00	-42.4	-44.5	19.8	0.00e+00	0	43	0	750780416	56	4567
2026-01-08 10:25:00.28	306.49	55.84	-41.1	-43.2	20.7	0.00e+00	0	43	0	758120448	54	4410
2026-01-08 10:25:04.68	308.62	54.57	-41.0	-43.0	20.8	0.00e+00	0	43	0	766509056	52	4866
2026-01-08 10:25:08.69	310.40	53.40	-41.5	-43.6	20.4	0.00e+00	0	43	0	773849088	53	4875
2026-01-08 10:25:12.70	312.04	52.23	-43.4	-45.8	18.7	0.00e+00	0	43	0	781189120	57	4990
2026-01-08 10:25:16.66	313.54	51.09	-44.2	-46.8	17.7	0.00e+00	0	43	0	788529152	59	5012
2026-01-08 10:25:20.68	314.96	49.93	-45.8	-49.1	15.6	0.00e+00	0	43	0	795869184	62	5492
2026-01-08 10:25:24.69	316.27	48.79	-46.6	-50.4	14.2	0.00e+00	0	43	0	803209216	64	5663
2026-01-08 10:25:28.70	317.48	47.67	-46.4	-49.9	14.7	0.00e+00	0	43	0	811597824	64	5364
2026-01-08 10:25:32.75	318.63	46.55	-45.8	-48.9	15.7	0.00e+00	0	43	0	818937856	63	5063
2026-01-08 10:25:36.76	319.68	45.46	-45.6	-48.7	15.9	0.00e+00	0	43	0	826277888	62	5236
2026-01-08 10:25:40.77	320.67	44.39	-43.4	-45.8	18.6	0.00e+00	0	43	0	833617920	58	4726
2026-01-08 10:25:44.85	321.61	43.33	-43.6	-45.9	18.5	0.00e+00	0	43	0	842006528	58	4806
2026-01-08 10:25:48.87	322.48	42.30	-43.3	-45.6	18.7	0.00e+00	0	43	0	849346560	58	4632
2026-01-08 10:25:52.98	323.32	41.26	-42.9	-45.1	19.2	0.00e+00	0	43	0	856686592	56	4878
2026-01-08 10:25:57.38	324.16	40.19	-44.1	-46.7	17.8	0.00e+00	0	43	0	865075200	60	4665
2026-01-08 10:26:01.40	324.88	39.22	-42.3	-44.5	19.7	0.00e+00	0	43	0	872415232	56	4570
2026-01-08 10:26:05.41	325.56	38.28	-44.9	-47.8	16.8	0.00e+00	0	43	0	879755264	60	5327
2026-01-08 10:26:09.50	326.21	37.35	-42.7	-45.0	19.3	0.00e+00	0	43	0	888143872	57	4576
2026-01-08 10:26:13.51	326.82	36.45	-43.1	-45.4	18.9	0.00e+00	0	43	0	895483904	56	5094
2026-01-08 10:26:17.52	327.39	35.58	-44.9	-47.9	16.6	0.00e+00	0	43	0	902823936	60	5401
2026-01-08 10:26:21.53	327.94	34.72	-44.3	-46.9	17.6	0.00e+00	0	43	0	910163968	60	4777
2026-01-08 10:26:25.61	328.47	33.88	-43.5	-45.9	18.4	0.00e+00	0	43	0	917504000	58	4810
2026-01-08 10:26:29.62	328.97	33.06	-44.7	-47.4	17.1	0.00e+00	0	43	0	925892608	59	5368
2026-01-08 10:26:33.63	329.44	32.27	-45.0	-47.8	16.7	0.00e+00	0	43	0	933232640	60	5340
2026-01-08 10:26:37.81	329.91	31.46	-45.6	-49.0	15.6	0.00e+00	0	43	0	940572672	62	5432
2026-01-08 10:26:41.83	330.34	30.70	-45.6	-48.9	15.6	0.00e+00	0	43	0	947912704	62	5390
2026-01-08 10:26:46.21	330.79	29.90	-44.8	-47.6	16.9	0.00e+00	0	43	0	956301312	61	4914
2026-01-08 10:26:50.35	331.19	29.16	-45.0	-47.9	16.6	0.00e+00	0	43	0	964689920	61	5077
2026-01-08 10:26:54.36	331.57	28.45	-45.1	-48.2	16.3	0.00e+00	0	43	0	972029952	61	5279
2026-01-08 10:26:58.37	331.93	27.77	-44.9	-48.1	16.4	0.00e+00	0	43	0	979369984	61	5199
2026-01-08 10:27:02.39	332.27	27.09	-44.5	-47.4	17.1	0.00e+00	0	43	0	986710016	61	4808
2026-01-08 10:27:06.42	332.61	26.44	-44.1	-46.7	17.8	0.00e+00	0	43	0	994050048	60	4678
2026-01-08 10:27:10.43	332.93	25.80	-44.0	-46.5	17.9	0.00e+00	0	43	0	1002438656	59	4841
2026-01-08 10:27:14.45	333.23	25.17	-44.3	-47.0	17.4	0.00e+00	0	43	0	1009778688	59	5144
2026-01-08 10:27:18.47	333.53	24.56	-44.3	-47.0	17.4	0.00e+00	0	43	0	1017118720	59	5136
2026-01-08 10:27:22.48	333.82	23.96	-43.6	-46.2	18.1	0.00e+00	0	43	0	1024458752	59	4704
2026-01-08 10:27:26.49	334.09	23.37	-43.1	-45.6	18.7	0.00e+00	0	43	0	1031798784	58	4599
2026-01-08 10:27:30.58	334.37	22.79	-42.8	-45.1	19.1	0.00e+00	0	43	0	1040187392	57	4627
2026-01-08 10:27:34.59	334.62	22.22	-42.8	-45.1	19.1	0.00e+00	0	43	0	1047527424	57	4627
2026-01-08 10:27:39.19	334.91	21.60	-43.2	-45.6	18.7	0.00e+00	0	43	0	1055916032	57	4896
2026-01-08 10:27:43.43	335.16	21.03	-43.5	-46.2	18.2	0.00e+00	0	43	0	1064304640	57	5219
2026-01-08 10:27:47.78	335.41	20.46	-43.3	-45.9	18.4	0.00e+00	0	43	0	1071644672	57	5069
2026-01-08 10:27:52.13	335.65	19.90	-43.2	-45.7	18.6	0.00e+00	0	43	0	1080033280	57	4969
2026-01-08 10:27:56.14	335.87	19.40	-42.9	-45.4	18.9	0.00e+00	0	43	0	1087373312	57	4766
2026-01-08 10:28:00.27	336.09	18.89	-42.9	-45.4	18.8	0.00e+00	0	43	0	1095761920	57	4787
2026-01-08 10:28:04.28	336.29	18.41	-43.1	-45.6	18.7	0.00e+00	0	43	0	1103101952	57	4876
2026-01-08 10:28:08.51	336.50	17.91	-43.4	-45.8	18.4	0.00e+00	0	43	0	1110441984	57	5032
2026-01-08 10:28:12.53	336.69	17.44	-43.6	-46.2	18.1	0.00e+00	0	43	0	1118830592	57	5238
2026-01-08 10:28:16.60	336.88	16.98	-43.7	-46.3	18.0	0.00e+00	0	43	0	1126170624	58	4990
2026-01-08 10:28:20.85	337.08	16.50	-43.9	-46.5	17.8	0.00e+00	0	43	0	1134559232	58	5152
2026-01-08 10:28:24.87	337.25	16.06	-44.0	-46.5	17.8	0.00e+00	0	43	0	1141899264	58	5142
2026-01-08 10:28:28.94	337.43	15.62	-44.1	-46.7	17.6	0.00e+00	0	43	0	1149239296	58	5257
2026-01-08 10:28:32.95	337.60	15.20	-44.0	-46.7	17.6	0.00e+00	0	43	0	1156579328	58	5245
2026-01-08 10:28:36.96	337.76	14.78	-43.8	-46.7	17.6	0.00e+00	0	43	0	1163919360	58	5241
2026-01-08 10:28:41.01	337.92	14.36	-44.0	-47.0	17.3	0.00e+00	0	43	0	1172307968	58	5429
2026-01-08 10:28:45.13	338.08	13.95	-44.1	-47.1	17.2	0.00e+00	0	43	0	1179648000	58	5484
2026-01-08 10:28:49.14	338.23	13.55	-44.3	-47.3	16.9	0.00e+00	0	43	0	1186988032	59	5325
2026-01-08 10:28:53.16	338.38	13.16	-44.2	-47.4	16.8	0.00e+00	0	43	0	1194328064	59	5397
2026-01-08 10:28:57.26	338.53	12.77	-44.4	-47.7	16.5	0.00e+00	0	43	0	1202716672	59	5561
2026-01-08 10:29:01.54	338.68	12.36	-44.7	-47.9	16.4	0.00e+00	0	43	0	1210056704	59	5687
2026-01-08 10:29:05.58	338.82	11.99	-44.9	-48.1	16.2	0.00e+00	0	43	0	1217396736	60	5516
2026-01-08 10:29:09.60	338.96	11.62	-44.8	-48.0	16.3	0.00e+00	0	43	0	1225785344	60	5446
2026-01-08 10:29:13.58	339.09	11.26	-44.7	-48.2	16.1	0.00e+00	0	43	0	1233125376	60	5565
2026-01-08 10:29:17.59	339.22	10.90	-44.6	-48.1	16.2	0.00e+00	0	43	0	1240465408	60	5500
2026-01-08 10:29:21.87	339.35	10.52	-44.8	-48.0	16.2	0.00e+00	0	43	0	1248854016	60	5448
2026-01-08 10:29:26.23	339.49	10.15	-44.8	-48.0	16.3	0.00e+00	0	43	0	1256194048	60	5416
2026-01-08 10:29:30.40	339.61	9.79	-44.6	-47.8	16.4	0.00e+00	0	43	0	1264582656	60	5294
2026-01-08 10:29:34.54	339.74	9.45	-44.6	-47.7	16.4	0.00e+00	0	43	0	1271922688	60	5279
2026-01-08 10:29:38.55	339.85	9.11	-44.7	-47.7	16.4	0.00e+00	0	43	0	1279262720	60	5258
2026-01-08 10:29:42.56	339.97	8.79	-50.2	-65.9	3.8	1.49e+00	0	43	104	1282408448	71	22604
2026-01-08 10:29:46.61	340.08	8.46	-50.6	-66.0	3.8	1.49e+00	0	43	104	1282408448	71	22977
2026-01-08 10:29:50.77	340.19	8.13	-50.8	-66.1	3.8	1.49e+00	0	43	104	1282408448	72	21875
2026-01-08 10:29:54.85	340.30	7.81	-50.7	-66.1	3.8	1.49e+00	0	43	104	1282408448	72	21858
2026-01-08 10:29:58.87	340.41	7.49	-50.8	-66.1	3.8	1.49e+00	0	43	104	1282408448	72	21846
2026-01-08 10:30:02.89	340.51	7.18	-50.7	-66.1	3.8	1.49e+00	0	43	104	1282408448	72	21758
2026-01-08 10:30:06.90	340.62	6.88	-50.4	-66.1	3.8	1.49e+00	0	43	104	1282408448	72	21772
2026-01-08 10:30:10.92	340.72	6.58	-50.3	-66.0	3.8	1.49e+00	0	43	104	1282408448	72	21678
2026-01-08 10:30:14.94	340.82	6.28	-50.3	-66.0	3.8	1.49e+00	0	43	104	1282408448	72	21707
2026-01-08 10:30:18.95	340.91	5.99	-50.3	-66.0	3.8	1.49e+00	0	43	104	1282408448	72	21704
2026-01-08 10:30:22.97	341.01	5.69	-50.3	-66.0	3.8	1.49e+00	0	43	104	1282408448	72	21661
2026-01-08 10:30:26.99	341.11	5.41	-50.3	-66.0	3.8	1.49e+00	0	43	104	1282408448	72	21538
2026-01-08 10:30:31.00	341.20	5.12	-50.3	-66.0	3.8	1.49e+00	0	43	104	1282408448	72	21606

#Closed at: 2026-01-08 10:30:33
#Recorded file [1282 MB]: D:/Data/31040_260108_131739.dat