passes_logs/2026/01/08/T1/T1__20260108_002707_NOAA_20_JPSS-1_rec.log

#Pass ID: 20260108_002707_NOAA 20 (JPSS-1)
#Satellite: NOAA 20 (JPSS-1)
#Configuration: NOAA 20
#almurnet v.1.7.20251203
#Start time: 2026-01-08 00:27:08

#Version: 2.0.20230620
#Station: T1
#Location: 37.570604 lon 55.790049 lat
#TLE: 1 43013U 17073A   26006.30790171  .00000126  00000+0  80695-4 0  9991
#TLE: 2 43013  98.7629 307.3394 0001808  51.8724 308.2615 14.19533762421505

#Time	Az	El	Level	Level2	SNR	BER	BlckErr	Temp	State	Recorded	gain1	gain2
2026-01-08 00:27:08.45	11.61	5.09	-50.7	-66.4	3.8	1.49e+00	0	41	0	0	72	22550
2026-01-08 00:27:11.46	11.50	5.30	-50.7	-66.3	3.8	1.49e+00	0	41	104	0	73	21177
2026-01-08 00:27:14.47	11.39	5.51	-50.7	-66.4	3.8	1.49e+00	0	41	104	0	73	21262
2026-01-08 00:27:17.49	11.28	5.72	-50.7	-66.3	3.8	1.49e+00	0	41	104	0	73	21222
2026-01-08 00:27:20.50	11.16	5.94	-50.7	-66.3	3.8	1.49e+00	0	42	104	0	73	21116
2026-01-08 00:27:23.51	11.04	6.15	-50.7	-66.3	3.8	1.49e+00	0	42	104	0	73	21037
2026-01-08 00:27:26.53	10.92	6.37	-50.7	-66.3	3.8	1.49e+00	0	42	104	0	73	21118
2026-01-08 00:27:29.54	10.80	6.59	-50.6	-66.3	3.8	1.49e+00	0	42	104	0	73	21095
2026-01-08 00:27:32.55	10.68	6.81	-50.6	-66.3	3.8	1.49e+00	0	42	104	0	73	21124
2026-01-08 00:27:35.57	10.55	7.03	-50.6	-66.3	3.8	1.49e+00	0	42	104	0	73	21101
2026-01-08 00:27:38.58	10.42	7.26	-50.6	-66.2	3.8	1.49e+00	0	42	104	0	73	20983
2026-01-08 00:27:41.59	10.29	7.48	-50.6	-66.3	3.8	1.49e+00	0	42	104	0	73	21026
2026-01-08 00:27:44.60	10.16	7.71	-50.6	-66.2	3.8	1.49e+00	0	43	104	0	73	21017
2026-01-08 00:27:47.62	10.02	7.94	-50.6	-66.2	3.8	1.49e+00	0	43	104	0	73	20995
2026-01-08 00:27:50.63	9.89	8.18	-50.6	-66.2	3.8	1.49e+00	0	43	104	0	73	20958
2026-01-08 00:27:53.64	9.75	8.41	-50.6	-66.2	3.8	1.49e+00	0	43	104	0	73	20927
2026-01-08 00:27:56.66	9.60	8.65	-50.6	-66.2	3.8	1.49e+00	0	43	104	0	73	20954
2026-01-08 00:27:59.67	9.46	8.88	-50.6	-66.2	3.8	1.49e+00	0	43	104	0	73	20964
2026-01-08 00:28:02.68	9.31	9.12	-50.6	-66.2	3.8	1.49e+00	0	43	104	0	73	20982
2026-01-08 00:28:05.69	9.16	9.37	-50.6	-66.2	3.8	1.49e+00	0	43	104	0	73	20943
2026-01-08 00:28:08.71	9.01	9.61	-50.6	-66.2	3.8	1.49e+00	0	43	104	0	73	20957
2026-01-08 00:28:11.72	8.85	9.86	-50.6	-66.3	3.8	1.49e+00	0	43	104	0	73	21022
2026-01-08 00:28:14.73	8.70	10.11	-50.6	-66.2	3.8	1.49e+00	0	43	104	0	73	20972
2026-01-08 00:28:17.75	8.53	10.36	-50.6	-66.2	3.8	1.49e+00	0	43	104	0	73	20933
2026-01-08 00:28:20.76	8.37	10.61	-50.6	-66.2	3.8	1.49e+00	0	43	104	0	73	20949
2026-01-08 00:28:23.78	8.20	10.87	-50.6	-66.2	3.8	1.49e+00	0	43	104	0	73	20967
2026-01-08 00:28:26.79	8.03	11.13	-50.6	-66.2	3.8	1.49e+00	0	43	104	0	73	20935
2026-01-08 00:28:29.80	7.86	11.39	-50.6	-66.2	3.8	1.49e+00	0	43	104	0	73	21003
2026-01-08 00:28:32.81	7.68	11.65	-50.6	-66.3	3.8	1.49e+00	0	43	104	0	73	21028
2026-01-08 00:28:35.83	7.50	11.92	-50.6	-66.3	3.8	1.49e+00	0	43	104	0	73	21040
2026-01-08 00:28:38.84	7.32	12.19	-50.6	-66.2	3.8	1.49e+00	0	43	104	0	73	21017
2026-01-08 00:28:41.85	7.13	12.46	-50.6	-66.3	3.8	1.49e+00	0	43	104	0	73	21045
2026-01-08 00:28:44.87	6.94	12.73	-50.6	-66.3	3.8	1.49e+00	0	43	104	0	73	21018
2026-01-08 00:28:47.88	6.74	13.01	-50.6	-66.2	3.8	1.49e+00	0	43	104	0	73	20982
2026-01-08 00:28:50.89	6.54	13.29	-50.6	-66.3	3.8	1.49e+00	0	43	104	0	73	21033
2026-01-08 00:28:53.90	6.34	13.57	-50.6	-66.2	3.8	1.49e+00	0	43	104	0	73	21010
2026-01-08 00:28:56.92	6.13	13.86	-50.6	-66.3	3.8	1.49e+00	0	43	104	0	73	21020
2026-01-08 00:28:59.93	5.92	14.14	-50.6	-66.2	3.8	1.49e+00	0	43	104	0	73	20978
2026-01-08 00:29:02.94	5.70	14.44	-50.6	-66.3	3.8	1.49e+00	0	44	104	0	73	21084
2026-01-08 00:29:05.96	5.48	14.73	-50.6	-66.3	3.8	1.49e+00	0	44	104	0	73	21039
2026-01-08 00:29:08.97	5.26	15.03	-50.6	-66.3	3.8	1.49e+00	0	44	104	0	73	21127
2026-01-08 00:29:11.98	5.03	15.33	-50.6	-66.3	3.8	1.49e+00	0	44	104	0	73	21049
2026-01-08 00:29:15.00	4.79	15.63	-50.7	-66.3	3.8	1.49e+00	0	44	104	0	73	21138
2026-01-08 00:29:18.01	4.55	15.94	-50.7	-66.3	3.8	1.49e+00	0	43	104	0	73	21168
2026-01-08 00:29:21.02	4.31	16.25	-50.7	-66.3	3.8	1.49e+00	0	44	104	0	73	21051
2026-01-08 00:29:24.04	4.06	16.57	-50.7	-66.3	3.8	1.49e+00	0	44	104	0	73	21096
2026-01-08 00:29:27.05	3.80	16.89	-50.7	-66.3	3.8	1.49e+00	0	43	104	0	73	21115
2026-01-08 00:29:30.06	3.54	17.21	-50.7	-66.3	3.8	1.49e+00	0	44	104	0	73	21049
2026-01-08 00:29:33.07	3.27	17.53	-50.7	-66.3	3.8	1.49e+00	0	44	104	0	73	21186
2026-01-08 00:29:36.09	3.00	17.86	-50.7	-66.3	3.8	1.49e+00	0	43	104	0	73	21075
2026-01-08 00:29:39.10	2.72	18.19	-50.7	-66.3	3.8	1.49e+00	0	44	104	0	73	21153
2026-01-08 00:29:42.12	2.43	18.53	-50.7	-66.3	3.8	1.49e+00	0	44	104	0	73	21173
2026-01-08 00:29:45.13	2.14	18.87	-50.7	-66.3	3.8	1.49e+00	0	43	104	0	73	21220
2026-01-08 00:29:48.14	1.84	19.21	-50.7	-66.3	3.8	1.49e+00	0	44	104	0	73	21181
2026-01-08 00:29:51.15	1.53	19.56	-50.7	-66.3	3.8	1.49e+00	0	43	104	0	73	21154
2026-01-08 00:29:54.17	1.21	19.92	-50.7	-66.3	3.8	1.49e+00	0	44	104	0	73	21190
2026-01-08 00:29:57.18	0.89	20.27	-50.7	-66.3	3.8	1.49e+00	0	44	104	0	73	21221
2026-01-08 00:30:00.19	0.56	20.63	-50.7	-66.3	3.8	1.49e+00	0	44	104	0	73	21230
2026-01-08 00:30:03.21	0.22	21.00	-50.7	-66.3	3.8	1.49e+00	0	44	104	0	73	21192
2026-01-08 00:30:06.22	359.88	21.37	-50.7	-66.4	3.8	1.49e+00	0	44	104	0	73	21287
2026-01-08 00:30:09.23	359.52	21.74	-50.7	-66.3	3.8	1.49e+00	0	44	104	0	73	21219
2026-01-08 00:30:12.25	359.15	22.12	-50.7	-66.3	3.8	1.49e+00	0	44	104	0	73	21217
2026-01-08 00:30:15.26	358.78	22.50	-50.7	-66.3	3.8	1.49e+00	0	44	104	0	73	21201
2026-01-08 00:30:18.27	358.40	22.88	-50.7	-66.3	3.8	1.49e+00	0	44	104	0	73	21161
2026-01-08 00:30:21.29	358.00	23.28	-50.7	-66.3	3.8	1.49e+00	0	44	104	0	73	21213
2026-01-08 00:30:24.30	357.60	23.67	-50.7	-66.3	3.8	1.49e+00	0	44	104	0	73	21259
2026-01-08 00:30:27.31	357.19	24.07	-50.7	-66.3	3.8	1.49e+00	0	44	104	0	73	21091
2026-01-08 00:30:30.33	356.76	24.47	-50.7	-66.3	3.8	1.49e+00	0	44	104	0	73	21210
2026-01-08 00:30:33.34	356.32	24.88	-50.7	-66.3	3.8	1.49e+00	0	44	104	0	73	21231
2026-01-08 00:30:36.35	355.88	25.30	-50.7	-66.3	3.8	1.49e+00	0	44	104	0	73	21241
2026-01-08 00:30:39.36	355.42	25.71	-50.7	-66.3	3.8	1.49e+00	0	44	104	0	73	21186
2026-01-08 00:30:42.38	354.94	26.14	-50.7	-66.3	3.8	1.49e+00	0	44	104	0	73	21189
2026-01-08 00:30:45.39	354.46	26.56	-50.7	-66.3	3.8	1.49e+00	0	44	104	0	73	21172
2026-01-08 00:30:48.40	353.96	26.99	-50.7	-66.3	3.8	1.49e+00	0	44	104	0	73	21213
2026-01-08 00:30:51.41	353.44	27.43	-50.7	-66.3	3.8	1.49e+00	0	44	104	0	73	21198
2026-01-08 00:30:54.43	352.91	27.87	-50.7	-66.3	3.8	1.49e+00	0	43	104	0	73	21153
2026-01-08 00:30:57.44	352.37	28.31	-50.7	-66.3	3.8	1.49e+00	0	44	104	0	73	21140
2026-01-08 00:31:00.46	351.81	28.76	-50.7	-66.3	3.8	1.49e+00	0	44	104	0	73	21152
2026-01-08 00:31:03.47	351.23	29.21	-50.7	-66.3	3.8	1.49e+00	0	44	104	0	73	21167
2026-01-08 00:31:06.48	350.64	29.67	-50.7	-66.3	3.8	1.49e+00	0	44	104	0	73	21214
2026-01-08 00:31:09.49	350.03	30.13	-50.7	-66.3	3.8	1.49e+00	0	44	104	0	73	21244
2026-01-08 00:31:12.50	349.41	30.59	-50.7	-66.3	3.8	1.49e+00	0	44	104	0	73	21138
2026-01-08 00:31:15.52	348.76	31.06	-50.7	-66.3	3.8	1.49e+00	0	44	104	0	73	21191
2026-01-08 00:31:18.53	348.09	31.53	-50.7	-66.3	3.8	1.49e+00	0	44	104	0	73	21253
2026-01-08 00:31:21.54	347.41	32.01	-50.7	-66.3	3.8	1.49e+00	0	44	104	0	73	21175
2026-01-08 00:31:24.55	346.70	32.48	-50.7	-66.3	3.8	1.49e+00	0	44	104	0	73	21211
2026-01-08 00:31:27.57	345.97	32.96	-50.7	-66.3	3.8	1.49e+00	0	44	104	0	73	21193
2026-01-08 00:31:30.58	345.22	33.44	-50.7	-66.3	3.8	1.49e+00	0	44	104	0	73	21198
2026-01-08 00:31:33.59	344.45	33.93	-50.7	-66.3	3.8	1.49e+00	0	44	104	0	73	21213
2026-01-08 00:31:36.61	343.65	34.41	-50.7	-66.3	3.8	1.49e+00	0	44	104	0	73	21241
2026-01-08 00:31:39.62	342.83	34.90	-50.7	-66.4	3.8	1.49e+00	0	44	104	0	73	21263
2026-01-08 00:31:42.63	341.99	35.38	-50.7	-66.3	3.8	1.49e+00	0	44	104	0	73	21214
2026-01-08 00:31:45.64	341.12	35.87	-50.7	-66.3	3.8	1.49e+00	0	44	104	0	73	21194
2026-01-08 00:31:48.66	340.22	36.36	-50.7	-66.3	3.8	1.49e+00	0	44	104	0	73	21257
2026-01-08 00:31:51.67	339.29	36.84	-50.7	-66.3	3.8	1.49e+00	0	44	104	0	73	21258
2026-01-08 00:31:54.68	338.34	37.32	-50.7	-66.3	3.8	1.49e+00	0	44	104	0	73	21217
2026-01-08 00:31:57.70	337.36	37.80	-50.7	-66.3	3.8	1.49e+00	0	44	104	0	73	21149
2026-01-08 00:32:00.71	336.34	38.28	-50.7	-66.3	3.8	1.49e+00	0	44	104	0	73	21152
2026-01-08 00:32:03.72	335.30	38.76	-50.7	-66.3	3.8	1.49e+00	0	43	104	0	73	21176
2026-01-08 00:32:06.74	334.23	39.23	-50.7	-66.4	3.8	1.49e+00	0	44	104	0	73	21261
2026-01-08 00:32:09.75	333.12	39.69	-50.7	-66.3	3.8	1.49e+00	0	43	104	0	73	21158
2026-01-08 00:32:12.76	331.98	40.15	-50.7	-66.3	3.8	1.49e+00	0	44	104	0	73	21149
2026-01-08 00:32:15.78	330.81	40.60	-50.7	-66.4	3.8	1.49e+00	0	44	104	0	73	21262
2026-01-08 00:32:18.79	329.61	41.04	-50.7	-66.3	3.8	1.49e+00	0	44	104	0	73	21164
2026-01-08 00:32:21.80	328.37	41.47	-50.7	-66.3	3.8	1.49e+00	0	44	104	0	73	21201
2026-01-08 00:32:24.81	327.11	41.89	-50.7	-66.3	3.8	1.49e+00	0	44	104	0	73	21173
2026-01-08 00:32:27.83	325.80	42.30	-50.7	-66.3	3.8	1.49e+00	0	44	104	0	73	21205
2026-01-08 00:32:30.84	324.46	42.70	-50.7	-66.3	3.8	1.49e+00	0	44	104	0	73	21126
2026-01-08 00:32:33.85	323.10	43.09	-50.7	-66.3	3.8	1.49e+00	0	43	104	0	73	21196
2026-01-08 00:32:36.87	321.69	43.45	-50.7	-66.3	3.8	1.49e+00	0	43	104	0	73	21127
2026-01-08 00:32:39.88	320.26	43.81	-50.7	-66.3	3.8	1.49e+00	0	44	104	0	73	21165
2026-01-08 00:32:42.89	318.79	44.14	-50.7	-66.3	3.8	1.49e+00	0	44	104	0	73	21190
2026-01-08 00:32:45.91	317.29	44.46	-50.7	-66.3	3.8	1.49e+00	0	43	104	0	73	21179
2026-01-08 00:32:48.92	315.77	44.75	-50.7	-66.3	3.8	1.49e+00	0	43	104	0	73	21165
2026-01-08 00:32:51.93	314.22	45.03	-50.7	-66.3	3.8	1.49e+00	0	44	104	0	73	21203
2026-01-08 00:32:54.95	312.63	45.28	-50.7	-66.3	3.8	1.49e+00	0	44	104	0	73	21183
2026-01-08 00:32:57.96	311.03	45.51	-50.7	-66.3	3.8	1.49e+00	0	44	104	0	73	21190
2026-01-08 00:33:00.97	309.40	45.72	-50.7	-66.3	3.8	1.49e+00	0	43	104	0	73	21171
2026-01-08 00:33:03.98	307.76	45.90	-50.7	-66.4	3.8	1.49e+00	0	43	104	0	73	21282
2026-01-08 00:33:07.00	306.09	46.06	-50.7	-66.4	3.8	1.49e+00	0	44	104	0	73	21364
2026-01-08 00:33:10.01	304.41	46.18	-50.7	-66.4	3.8	1.49e+00	0	43	104	0	73	21264
2026-01-08 00:33:13.02	302.72	46.29	-50.7	-66.4	3.8	1.49e+00	0	43	104	0	73	21326
2026-01-08 00:33:16.04	301.01	46.36	-50.7	-66.3	3.8	1.49e+00	0	44	104	0	73	21212
2026-01-08 00:33:19.05	299.30	46.41	-50.7	-66.3	3.8	1.49e+00	0	43	104	0	73	21250
2026-01-08 00:33:22.06	297.59	46.42	-50.7	-66.4	3.8	1.49e+00	0	44	104	0	73	21373
2026-01-08 00:33:25.08	295.87	46.41	-50.7	-66.4	3.8	1.49e+00	0	44	104	0	73	21279
2026-01-08 00:33:28.09	294.16	46.38	-50.7	-66.4	3.8	1.49e+00	0	43	104	0	73	21343
2026-01-08 00:33:31.11	292.45	46.31	-50.7	-66.4	3.8	1.49e+00	0	44	104	0	73	21383
2026-01-08 00:33:34.12	290.76	46.22	-50.7	-66.4	3.8	1.49e+00	0	44	104	0	73	21347
2026-01-08 00:33:37.13	289.07	46.09	-50.8	-66.4	3.8	1.49e+00	0	43	104	0	73	21433
2026-01-08 00:33:40.14	287.40	45.95	-50.8	-66.4	3.8	1.49e+00	0	44	104	0	73	21365
2026-01-08 00:33:43.16	285.74	45.77	-50.8	-66.4	3.8	1.49e+00	0	43	104	0	73	21424
2026-01-08 00:33:46.17	284.11	45.57	-50.8	-66.4	3.8	1.49e+00	0	44	104	0	73	21437
2026-01-08 00:33:49.18	282.50	45.35	-50.8	-66.4	3.8	1.49e+00	0	44	104	0	73	21425
2026-01-08 00:33:52.20	280.91	45.10	-50.8	-66.4	3.8	1.49e+00	0	43	104	0	73	21441
2026-01-08 00:33:55.21	279.34	44.83	-50.8	-66.4	3.8	1.49e+00	0	43	104	0	73	21488
2026-01-08 00:33:58.22	277.81	44.54	-50.8	-66.4	3.8	1.49e+00	0	43	104	0	73	21424
2026-01-08 00:34:01.24	276.30	44.23	-50.8	-66.4	3.8	1.49e+00	0	43	104	0	73	21459
2026-01-08 00:34:04.25	274.82	43.90	-50.8	-66.5	3.8	1.49e+00	0	43	104	0	73	21508
2026-01-08 00:34:07.26	273.37	43.55	-50.8	-66.4	3.8	1.49e+00	0	44	104	0	73	21458
2026-01-08 00:34:10.28	271.96	43.19	-50.8	-66.4	3.8	1.49e+00	0	43	104	0	73	21449
2026-01-08 00:34:13.29	270.58	42.81	-50.8	-66.4	3.8	1.49e+00	0	43	104	0	73	21394
2026-01-08 00:34:16.30	269.23	42.41	-50.8	-66.4	3.8	1.49e+00	0	43	104	0	73	21434
2026-01-08 00:34:19.32	267.91	42.00	-50.8	-66.4	3.8	1.49e+00	0	43	104	0	73	21429
2026-01-08 00:34:22.33	266.63	41.58	-50.8	-66.4	3.8	1.49e+00	0	43	104	0	73	21455
2026-01-08 00:34:25.34	265.38	41.15	-50.8	-66.4	3.8	1.49e+00	0	43	104	0	73	21494
2026-01-08 00:34:28.36	264.16	40.71	-50.8	-66.4	3.8	1.49e+00	0	43	104	0	73	21442
2026-01-08 00:34:31.37	262.98	40.26	-50.8	-66.4	3.8	1.49e+00	0	43	104	0	73	21372
2026-01-08 00:34:34.38	261.83	39.81	-50.8	-66.4	3.8	1.49e+00	0	43	104	0	73	21395
2026-01-08 00:34:37.40	260.71	39.34	-50.8	-66.4	3.8	1.49e+00	0	43	104	0	73	21392
2026-01-08 00:34:40.41	259.63	38.87	-50.8	-66.4	3.8	1.49e+00	0	43	104	0	73	21366
2026-01-08 00:34:43.42	258.57	38.40	-50.8	-66.4	3.8	1.49e+00	0	43	104	0	73	21448
2026-01-08 00:34:46.43	257.55	37.92	-50.8	-66.4	3.8	1.49e+00	0	43	104	0	73	21339
2026-01-08 00:34:49.45	256.55	37.44	-50.8	-66.4	3.8	1.49e+00	0	43	104	0	73	21438
2026-01-08 00:34:52.46	255.59	36.95	-50.8	-66.4	3.8	1.49e+00	0	43	104	0	73	21326
2026-01-08 00:34:55.47	254.65	36.47	-50.8	-66.4	3.8	1.49e+00	0	43	104	0	73	21377
2026-01-08 00:34:58.48	253.74	35.98	-50.8	-66.4	3.8	1.49e+00	0	43	104	0	73	21365
2026-01-08 00:35:01.50	252.86	35.49	-50.8	-66.4	3.8	1.49e+00	0	43	104	0	73	21384
2026-01-08 00:35:04.51	252.01	35.00	-50.8	-66.5	3.8	1.49e+00	0	43	104	0	73	21525
2026-01-08 00:35:07.52	251.18	34.51	-50.8	-66.4	3.8	1.49e+00	0	43	104	0	73	21445
2026-01-08 00:35:10.53	250.37	34.03	-50.8	-66.4	3.8	1.49e+00	0	43	104	0	73	21452
2026-01-08 00:35:13.54	249.59	33.54	-50.8	-66.4	3.8	1.49e+00	0	43	104	0	73	21439
2026-01-08 00:35:16.56	248.83	33.06	-50.8	-66.4	3.8	1.49e+00	0	43	104	0	73	21457
2026-01-08 00:35:19.57	248.09	32.58	-50.8	-66.4	3.8	1.49e+00	0	43	104	0	73	21462
2026-01-08 00:35:22.58	247.38	32.10	-50.8	-66.4	3.8	1.49e+00	0	43	104	0	73	21464
2026-01-08 00:35:25.60	246.68	31.62	-50.8	-66.4	3.8	1.49e+00	0	43	104	0	73	21436
2026-01-08 00:35:28.61	246.01	31.15	-50.8	-66.4	3.8	1.49e+00	0	43	104	0	73	21428
2026-01-08 00:35:31.62	245.35	30.68	-50.8	-66.4	3.8	1.49e+00	0	43	104	0	73	21479
2026-01-08 00:35:34.64	244.72	30.21	-50.8	-66.4	3.8	1.49e+00	0	43	104	0	73	21453
2026-01-08 00:35:37.65	244.10	29.75	-50.8	-66.5	3.8	1.49e+00	0	43	104	0	73	21528
2026-01-08 00:35:40.66	243.50	29.29	-50.8	-66.5	3.8	1.49e+00	0	43	104	0	73	21532
2026-01-08 00:35:43.67	242.92	28.83	-50.8	-66.5	3.8	1.49e+00	0	43	104	0	73	21533
2026-01-08 00:35:46.68	242.35	28.38	-50.8	-66.5	3.8	1.49e+00	0	43	104	0	73	21525
2026-01-08 00:35:49.70	241.80	27.93	-50.9	-66.5	3.8	1.49e+00	0	43	104	0	73	21580
2026-01-08 00:35:52.71	241.27	27.49	-50.9	-66.5	3.8	1.49e+00	0	43	104	0	73	21650
2026-01-08 00:35:55.72	240.75	27.05	-50.9	-66.5	3.8	1.49e+00	0	43	104	0	73	21700
2026-01-08 00:35:58.73	240.24	26.62	-50.9	-66.5	3.8	1.49e+00	0	43	104	0	73	21701
2026-01-08 00:36:01.74	239.75	26.19	-50.9	-66.5	3.8	1.49e+00	0	43	104	0	73	21700
2026-01-08 00:36:04.76	239.27	25.76	-50.9	-66.6	3.8	1.49e+00	0	43	104	0	73	21771
2026-01-08 00:36:07.77	238.80	25.34	-50.9	-66.5	3.8	1.49e+00	0	43	104	0	73	21747
2026-01-08 00:36:10.78	238.35	24.93	-51.0	-66.6	3.8	1.49e+00	0	43	104	0	73	21784
2026-01-08 00:36:13.80	237.90	24.52	-51.0	-66.6	3.8	1.49e+00	0	43	104	0	73	21874
2026-01-08 00:36:16.81	237.47	24.11	-51.0	-66.6	3.8	1.49e+00	0	43	104	0	73	21874
2026-01-08 00:36:19.82	237.05	23.71	-51.0	-66.6	3.8	1.49e+00	0	43	104	0	73	21943
2026-01-08 00:36:22.84	236.64	23.31	-51.0	-66.6	3.8	1.49e+00	0	43	104	0	73	21864
2026-01-08 00:36:25.85	236.25	22.92	-51.0	-66.7	3.8	1.49e+00	0	43	104	0	73	22041
2026-01-08 00:36:28.86	235.86	22.53	-51.1	-66.7	3.8	1.49e+00	0	43	104	0	73	22084
2026-01-08 00:36:31.88	235.48	22.14	-51.1	-66.7	3.8	1.49e+00	0	43	104	0	73	22075
2026-01-08 00:36:34.89	235.11	21.76	-51.1	-66.7	3.8	1.49e+00	0	43	104	0	73	22158
2026-01-08 00:36:37.90	234.75	21.39	-51.1	-66.7	3.8	1.49e+00	0	43	104	0	73	22249
2026-01-08 00:36:40.91	234.40	21.02	-51.1	-66.7	3.8	1.49e+00	0	43	104	0	73	22235
2026-01-08 00:36:43.93	234.05	20.65	-51.2	-66.7	3.8	1.49e+00	0	43	104	0	73	22261
2026-01-08 00:36:46.94	233.72	20.28	-51.2	-66.8	3.8	1.49e+00	0	43	104	0	73	22341
2026-01-08 00:36:49.95	233.39	19.93	-51.2	-66.8	3.8	1.49e+00	0	43	104	0	73	22410
2026-01-08 00:36:52.97	233.07	19.57	-51.2	-66.8	3.8	1.49e+00	0	43	104	0	73	22427
2026-01-08 00:36:55.98	232.76	19.22	-51.2	-66.8	3.8	1.49e+00	0	43	104	0	73	22409
2026-01-08 00:36:58.99	232.45	18.87	-51.3	-66.8	3.8	1.49e+00	0	43	104	0	73	22511
2026-01-08 00:37:01.98	232.16	18.53	-51.3	-66.9	3.8	1.49e+00	0	43	104	0	73	22578
2026-01-08 00:37:04.99	231.87	18.20	-51.2	-66.8	3.8	1.49e+00	0	43	104	0	73	22518
2026-01-08 00:37:08.01	231.58	17.86	-51.3	-66.8	3.8	1.49e+00	0	43	104	0	73	22508
2026-01-08 00:37:11.02	231.30	17.53	-51.3	-66.9	3.8	1.49e+00	0	43	104	0	73	22621
2026-01-08 00:37:14.03	231.03	17.20	-51.3	-66.9	3.8	1.49e+00	0	43	104	0	73	22634
2026-01-08 00:37:17.05	230.77	16.88	-51.3	-66.9	3.8	1.49e+00	0	43	104	0	73	22670
2026-01-08 00:37:20.06	230.51	16.56	-51.3	-66.9	3.8	1.49e+00	0	43	104	0	73	22665
2026-01-08 00:37:23.08	230.25	16.24	-51.3	-67.0	3.8	1.49e+00	0	43	104	0	73	22805
2026-01-08 00:37:26.09	230.00	15.93	-51.4	-66.9	3.8	1.49e+00	0	43	104	0	73	22676
2026-01-08 00:37:29.10	229.76	15.62	-51.4	-67.0	3.8	1.49e+00	0	43	104	0	73	22880
2026-01-08 00:37:32.11	229.52	15.31	-51.4	-67.0	3.8	1.49e+00	0	43	104	0	73	22853
2026-01-08 00:37:35.13	229.28	15.01	-51.4	-67.0	3.8	1.49e+00	0	43	104	0	73	22836
2026-01-08 00:37:38.14	229.05	14.71	-51.4	-67.0	3.8	1.49e+00	0	43	104	0	73	22906
2026-01-08 00:37:41.15	228.83	14.41	-51.4	-67.0	3.8	1.49e+00	0	43	104	0	73	22986
2026-01-08 00:37:44.17	228.61	14.12	-51.4	-67.0	3.8	1.49e+00	0	43	104	0	73	23001
2026-01-08 00:37:47.18	228.39	13.83	-51.5	-67.1	3.8	1.49e+00	0	43	104	0	73	23114
2026-01-08 00:37:50.19	228.18	13.54	-51.5	-67.1	3.8	1.49e+00	0	43	104	0	73	23135
2026-01-08 00:37:53.21	227.98	13.26	-51.5	-67.1	3.8	1.49e+00	0	43	104	0	73	23110
2026-01-08 00:37:56.22	227.77	12.98	-51.5	-67.1	3.8	1.49e+00	0	43	104	0	73	23222
2026-01-08 00:37:59.24	227.57	12.70	-51.5	-67.1	3.8	1.49e+00	0	43	104	0	73	23239
2026-01-08 00:38:02.25	227.38	12.42	-51.5	-67.1	3.8	1.49e+00	0	43	104	0	73	23261
2026-01-08 00:38:05.26	227.19	12.15	-51.6	-67.2	3.8	1.49e+00	0	43	104	0	73	23321
2026-01-08 00:38:08.28	227.00	11.88	-51.6	-67.2	3.8	1.49e+00	0	43	104	0	73	23388
2026-01-08 00:38:11.29	226.81	11.61	-51.6	-67.2	3.8	1.49e+00	0	43	104	0	73	23407
2026-01-08 00:38:14.30	226.63	11.35	-51.6	-67.3	3.8	1.49e+00	0	43	104	0	73	23596
2026-01-08 00:38:17.32	226.45	11.08	-51.7	-67.3	3.8	1.49e+00	0	43	104	0	74	22394
2026-01-08 00:38:20.33	226.28	10.82	-51.7	-67.4	3.8	1.49e+00	0	43	104	0	74	22544
2026-01-08 00:38:23.34	226.11	10.57	-51.8	-67.4	3.8	1.49e+00	0	43	104	0	74	22591
2026-01-08 00:38:26.36	225.94	10.31	-51.9	-67.4	3.8	1.49e+00	0	43	104	0	74	22620
2026-01-08 00:38:29.37	225.78	10.06	-51.9	-67.5	3.8	1.49e+00	0	43	104	0	74	22858
2026-01-08 00:38:32.38	225.61	9.81	-52.0	-67.5	3.8	1.49e+00	0	43	104	0	74	22969
2026-01-08 00:38:35.40	225.45	9.56	-52.0	-67.5	3.8	1.49e+00	0	43	104	0	74	22974
2026-01-08 00:38:38.41	225.30	9.31	-52.0	-67.6	3.8	1.49e+00	0	43	104	0	74	23133
2026-01-08 00:38:41.42	225.15	9.07	-52.0	-67.6	3.8	1.49e+00	0	43	104	0	74	23271
2026-01-08 00:38:44.44	224.99	8.83	-52.1	-67.6	3.8	1.49e+00	0	43	104	0	74	23233
2026-01-08 00:38:47.45	224.85	8.59	-52.1	-67.7	3.8	1.49e+00	0	43	104	0	74	23385
2026-01-08 00:38:50.46	224.70	8.35	-52.1	-67.7	3.8	1.49e+00	0	43	104	0	74	23414
2026-01-08 00:38:53.47	224.56	8.12	-52.2	-67.7	3.8	1.49e+00	0	43	104	0	74	23495
2026-01-08 00:38:56.49	224.41	7.88	-52.2	-67.7	3.8	1.49e+00	0	43	104	0	74	23532
2026-01-08 00:38:59.50	224.28	7.65	-52.2	-67.7	3.8	1.49e+00	0	43	104	0	74	23426
2026-01-08 00:39:02.51	224.14	7.42	-52.2	-67.7	3.8	1.49e+00	0	43	104	0	74	23466
2026-01-08 00:39:05.52	224.01	7.20	-52.2	-67.7	3.8	1.49e+00	0	43	104	0	75	22246
2026-01-08 00:39:08.53	223.87	6.97	-52.2	-67.7	3.8	1.49e+00	0	43	104	0	75	22149
2026-01-08 00:39:11.54	223.74	6.75	-52.2	-67.7	3.8	1.49e+00	0	43	104	0	75	22172
2026-01-08 00:39:14.56	223.62	6.53	-52.2	-67.7	3.8	1.49e+00	0	43	104	0	75	22193
2026-01-08 00:39:17.57	223.49	6.31	-52.2	-67.7	3.8	1.49e+00	0	43	104	0	75	22211
2026-01-08 00:39:20.58	223.37	6.09	-52.2	-67.7	3.8	1.49e+00	0	42	104	0	75	22153
2026-01-08 00:39:23.60	223.24	5.87	-52.2	-67.7	3.8	1.49e+00	0	43	104	0	75	22227
2026-01-08 00:39:26.61	223.12	5.66	-52.2	-67.7	3.8	1.49e+00	0	43	104	0	75	22220
2026-01-08 00:39:29.62	223.01	5.44	-52.2	-67.7	3.8	1.49e+00	0	43	104	0	75	22226
2026-01-08 00:39:32.64	222.89	5.23	-52.2	-67.7	3.8	1.49e+00	0	43	104	0	75	22163
2026-01-08 00:39:35.65	222.78	5.02	-52.2	-67.7	3.8	1.49e+00	0	43	104	0	75	22195

#Closed at: 2026-01-08 00:39:37
#Recorded file [0 MB]: D:/Data/31040_260108_032708.dat