passes_logs/2026/01/08/T1/T1__20260108_000618_SUOMI_NPP_rec.log

#Pass ID: 20260108_000618_SUOMI NPP
#Satellite: SUOMI NPP
#Configuration: NPP
#almurnet v.1.7.20251203
#Start time: 2026-01-08 00:06:19

#Version: 2.0.20230620
#Station: T1
#Location: 37.570604 lon 55.790049 lat
#TLE: 1 37849U 11061A   26005.94084933  .00000134  00000+0  84554-4 0  9990
#TLE: 2 37849  98.7803 308.0679 0002567  79.1029 281.0436 14.19522657735426

#Time	Az	El	Level	Level2	SNR	BER	BlckErr	Temp	State	Recorded	gain1	gain2
2026-01-08 00:06:19.08	14.19	5.05	-50.9	-66.5	3.8	1.49e+00	0	41	0	0	72	22917
2026-01-08 00:06:22.09	14.15	5.26	-50.9	-66.5	3.8	1.49e+00	0	41	104	0	73	21612
2026-01-08 00:06:25.10	14.10	5.48	-50.9	-66.5	3.8	1.49e+00	0	41	104	0	73	21603
2026-01-08 00:06:28.11	14.06	5.70	-50.9	-66.5	3.8	1.49e+00	0	41	104	0	73	21643
2026-01-08 00:06:31.12	14.01	5.92	-50.9	-66.5	3.8	1.49e+00	0	41	104	0	73	21614
2026-01-08 00:06:34.14	13.96	6.14	-50.9	-66.5	3.8	1.49e+00	0	42	104	0	73	21621
2026-01-08 00:06:37.15	13.91	6.36	-50.9	-66.5	3.8	1.49e+00	0	42	104	0	73	21640
2026-01-08 00:06:40.16	13.86	6.59	-50.9	-66.5	3.8	1.49e+00	0	42	104	0	73	21641
2026-01-08 00:06:43.17	13.81	6.81	-50.9	-66.5	3.8	1.49e+00	0	42	104	0	73	21599
2026-01-08 00:06:46.19	13.76	7.04	-50.9	-66.6	3.8	1.49e+00	0	42	104	0	73	21774
2026-01-08 00:06:49.20	13.71	7.28	-50.9	-66.5	3.8	1.49e+00	0	42	104	0	73	21747
2026-01-08 00:06:52.21	13.66	7.51	-50.9	-66.6	3.8	1.49e+00	0	42	104	0	73	21770
2026-01-08 00:06:55.23	13.60	7.74	-50.9	-66.6	3.8	1.49e+00	0	42	104	0	73	21756
2026-01-08 00:06:58.24	13.55	7.98	-51.0	-66.6	3.8	1.49e+00	0	42	104	0	73	21848
2026-01-08 00:07:01.25	13.49	8.22	-51.0	-66.6	3.8	1.49e+00	0	42	104	0	73	21892
2026-01-08 00:07:04.27	13.43	8.47	-51.0	-66.6	3.8	1.49e+00	0	42	104	0	73	21860
2026-01-08 00:07:07.28	13.38	8.71	-51.0	-66.6	3.8	1.49e+00	0	42	104	0	73	21897
2026-01-08 00:07:10.29	13.32	8.96	-51.0	-66.6	3.8	1.49e+00	0	43	104	0	73	21913
2026-01-08 00:07:13.31	13.25	9.21	-51.0	-66.6	3.8	1.49e+00	0	43	104	0	73	21901
2026-01-08 00:07:16.32	13.19	9.46	-51.0	-66.6	3.8	1.49e+00	0	43	104	0	73	21859
2026-01-08 00:07:19.33	13.13	9.71	-51.0	-66.6	3.8	1.49e+00	0	43	104	0	73	21931
2026-01-08 00:07:22.35	13.06	9.97	-51.0	-66.6	3.8	1.49e+00	0	43	104	0	73	21994
2026-01-08 00:07:25.36	13.00	10.23	-51.0	-66.7	3.8	1.49e+00	0	43	104	0	73	22117
2026-01-08 00:07:28.37	12.93	10.49	-51.0	-66.6	3.8	1.49e+00	0	43	104	0	73	21971
2026-01-08 00:07:31.38	12.86	10.76	-51.0	-66.7	3.8	1.49e+00	0	43	104	0	73	22019
2026-01-08 00:07:34.40	12.79	11.03	-51.0	-66.7	3.8	1.49e+00	0	43	104	0	73	22028
2026-01-08 00:07:37.41	12.71	11.30	-51.0	-66.7	3.8	1.49e+00	0	43	104	0	73	22046
2026-01-08 00:07:40.42	12.64	11.57	-51.0	-66.7	3.8	1.49e+00	0	43	104	0	73	22035
2026-01-08 00:07:43.44	12.56	11.85	-51.1	-66.7	3.8	1.49e+00	0	43	104	0	73	22071
2026-01-08 00:07:46.45	12.49	12.13	-51.1	-66.7	3.8	1.49e+00	0	43	104	0	73	22102
2026-01-08 00:07:49.46	12.41	12.41	-51.1	-66.7	3.8	1.49e+00	0	43	104	0	73	22069
2026-01-08 00:07:52.48	12.33	12.70	-51.1	-66.7	3.8	1.49e+00	0	43	104	0	73	22052
2026-01-08 00:07:55.49	12.24	12.99	-51.1	-66.7	3.8	1.49e+00	0	43	104	0	73	22099
2026-01-08 00:07:58.50	12.16	13.28	-51.1	-66.7	3.8	1.49e+00	0	43	104	0	73	22080
2026-01-08 00:08:01.52	12.07	13.58	-51.1	-66.7	3.8	1.49e+00	0	43	104	0	73	22149
2026-01-08 00:08:04.53	11.98	13.88	-51.1	-66.7	3.8	1.49e+00	0	43	104	0	73	22202
2026-01-08 00:08:07.54	11.89	14.19	-51.1	-66.7	3.8	1.49e+00	0	43	104	0	73	22261
2026-01-08 00:08:10.55	11.80	14.50	-51.1	-66.7	3.8	1.49e+00	0	43	104	0	73	22237
2026-01-08 00:08:13.57	11.70	14.81	-51.1	-66.8	3.8	1.49e+00	0	43	104	0	73	22284
2026-01-08 00:08:16.58	11.61	15.12	-51.1	-66.8	3.8	1.49e+00	0	43	104	0	73	22357
2026-01-08 00:08:19.59	11.51	15.44	-51.2	-66.8	3.8	1.49e+00	0	43	104	0	73	22383
2026-01-08 00:08:22.61	11.41	15.77	-51.2	-66.8	3.8	1.49e+00	0	43	104	0	73	22404
2026-01-08 00:08:25.62	11.30	16.10	-51.2	-66.8	3.8	1.49e+00	0	43	104	0	73	22368
2026-01-08 00:08:28.63	11.19	16.43	-51.2	-66.9	3.8	1.49e+00	0	43	104	0	73	22540
2026-01-08 00:08:31.65	11.08	16.77	-51.3	-66.9	3.8	1.49e+00	0	43	104	0	73	22600
2026-01-08 00:08:34.66	10.97	17.11	-51.3	-66.9	3.8	1.49e+00	0	43	104	0	73	22583
2026-01-08 00:08:37.67	10.85	17.46	-51.2	-66.9	3.8	1.49e+00	0	44	104	0	73	22601
2026-01-08 00:08:40.69	10.74	17.81	-51.3	-66.9	3.8	1.49e+00	0	43	104	0	73	22616
2026-01-08 00:08:43.70	10.61	18.17	-51.3	-66.9	3.8	1.49e+00	0	43	104	0	73	22559
2026-01-08 00:08:46.71	10.49	18.53	-51.3	-66.9	3.8	1.49e+00	0	44	104	0	73	22634
2026-01-08 00:08:49.73	10.36	18.90	-51.3	-66.9	3.8	1.49e+00	0	44	104	0	73	22634
2026-01-08 00:08:52.74	10.23	19.27	-51.3	-66.9	3.8	1.49e+00	0	43	104	0	73	22631
2026-01-08 00:08:55.76	10.09	19.65	-51.3	-66.9	3.8	1.49e+00	0	43	104	0	73	22570
2026-01-08 00:08:58.77	9.96	20.03	-51.3	-66.9	3.8	1.49e+00	0	43	104	0	73	22608
2026-01-08 00:09:01.78	9.81	20.42	-51.3	-66.9	3.8	1.49e+00	0	43	104	0	73	22666
2026-01-08 00:09:04.79	9.67	20.81	-51.3	-66.9	3.8	1.49e+00	0	44	104	0	73	22663
2026-01-08 00:09:07.81	9.51	21.22	-51.3	-66.9	3.8	1.49e+00	0	44	104	0	73	22738
2026-01-08 00:09:10.82	9.36	21.62	-51.3	-67.0	3.8	1.49e+00	0	43	104	0	73	22786
2026-01-08 00:09:13.84	9.20	22.04	-51.3	-66.9	3.8	1.49e+00	0	43	104	0	73	22660
2026-01-08 00:09:16.85	9.04	22.46	-51.3	-66.9	3.8	1.49e+00	0	44	104	0	73	22775
2026-01-08 00:09:19.86	8.87	22.89	-51.3	-66.9	3.8	1.49e+00	0	43	104	0	73	22741
2026-01-08 00:09:22.87	8.69	23.32	-51.3	-66.9	3.8	1.49e+00	0	43	104	0	73	22664
2026-01-08 00:09:25.89	8.51	23.76	-51.3	-66.9	3.8	1.49e+00	0	44	104	0	73	22692
2026-01-08 00:09:28.90	8.33	24.21	-51.3	-66.9	3.8	1.49e+00	0	44	104	0	73	22634
2026-01-08 00:09:31.91	8.14	24.67	-51.3	-66.9	3.8	1.49e+00	0	44	104	0	73	22665
2026-01-08 00:09:34.92	7.94	25.13	-51.3	-66.9	3.8	1.49e+00	0	44	104	0	73	22683
2026-01-08 00:09:37.94	7.74	25.61	-51.3	-66.9	3.8	1.49e+00	0	43	104	0	73	22604
2026-01-08 00:09:40.95	7.53	26.09	-51.3	-66.8	3.8	1.49e+00	0	44	104	0	73	22519
2026-01-08 00:09:43.96	7.31	26.57	-51.3	-66.9	3.8	1.49e+00	0	43	104	0	73	22655
2026-01-08 00:09:46.97	7.09	27.07	-51.3	-66.9	3.8	1.49e+00	0	43	104	0	73	22574
2026-01-08 00:09:49.99	6.86	27.58	-51.2	-66.9	3.8	1.49e+00	0	43	104	0	73	22523
2026-01-08 00:09:53.00	6.62	28.09	-51.3	-66.9	3.8	1.49e+00	0	44	104	0	73	22529
2026-01-08 00:09:56.01	6.37	28.61	-51.2	-66.9	3.8	1.49e+00	0	44	104	0	73	22590
2026-01-08 00:09:59.02	6.12	29.15	-51.2	-66.9	3.8	1.49e+00	0	43	104	0	73	22565
2026-01-08 00:10:02.04	5.85	29.69	-51.2	-66.8	3.8	1.49e+00	0	44	104	0	73	22439
2026-01-08 00:10:05.05	5.58	30.24	-51.2	-66.8	3.8	1.49e+00	0	44	104	0	73	22426
2026-01-08 00:10:08.06	5.29	30.81	-51.2	-66.8	3.8	1.49e+00	0	43	104	0	73	22437
2026-01-08 00:10:11.08	5.00	31.38	-51.2	-66.8	3.8	1.49e+00	0	44	104	0	73	22348
2026-01-08 00:10:14.09	4.69	31.96	-51.2	-66.8	3.8	1.49e+00	0	44	104	0	73	22451
2026-01-08 00:10:17.10	4.37	32.56	-51.2	-66.8	3.8	1.49e+00	0	44	104	0	73	22369
2026-01-08 00:10:20.12	4.04	33.17	-51.1	-66.8	3.8	1.49e+00	0	44	104	0	73	22316
2026-01-08 00:10:23.13	3.70	33.78	-51.2	-66.8	3.8	1.49e+00	0	44	104	0	73	22283
2026-01-08 00:10:26.14	3.34	34.41	-51.1	-66.8	3.8	1.49e+00	0	44	104	0	73	22277
2026-01-08 00:10:29.15	2.97	35.05	-51.1	-66.7	3.8	1.49e+00	0	44	104	0	73	22212
2026-01-08 00:10:32.17	2.58	35.70	-51.1	-66.7	3.8	1.49e+00	0	43	104	0	73	22261
2026-01-08 00:10:35.18	2.18	36.36	-51.1	-66.7	3.8	1.49e+00	0	44	104	0	73	22193
2026-01-08 00:10:38.19	1.76	37.04	-51.1	-66.7	3.8	1.49e+00	0	43	104	0	73	22252
2026-01-08 00:10:41.21	1.32	37.73	-51.1	-66.7	3.8	1.49e+00	0	44	104	0	73	22250
2026-01-08 00:10:44.22	0.86	38.43	-51.1	-66.7	3.8	1.49e+00	0	44	104	0	73	22258
2026-01-08 00:10:47.23	0.38	39.14	-51.1	-66.7	3.8	1.49e+00	0	43	104	0	73	22242
2026-01-08 00:10:50.24	359.88	39.87	-51.1	-66.7	3.8	1.49e+00	0	44	104	0	73	22197
2026-01-08 00:10:53.26	359.36	40.61	-51.1	-66.7	3.8	1.49e+00	0	44	104	0	73	22189
2026-01-08 00:10:56.27	358.81	41.36	-51.1	-66.7	3.8	1.49e+00	0	44	104	0	73	22251
2026-01-08 00:10:59.28	358.23	42.12	-51.1	-66.7	3.8	1.49e+00	0	44	104	0	73	22259
2026-01-08 00:11:02.29	357.62	42.89	-51.1	-66.7	3.8	1.49e+00	0	44	104	0	73	22195
2026-01-08 00:11:05.31	356.99	43.68	-51.1	-66.7	3.8	1.49e+00	0	44	104	0	73	22204
2026-01-08 00:11:08.32	356.32	44.48	-51.1	-66.7	3.8	1.49e+00	0	44	104	0	73	22189
2026-01-08 00:11:11.34	355.61	45.30	-51.1	-66.7	3.8	1.49e+00	0	44	104	0	73	22111
2026-01-08 00:11:14.35	354.87	46.12	-51.1	-66.8	3.8	1.49e+00	0	44	104	0	73	22292
2026-01-08 00:11:17.36	354.08	46.96	-51.1	-66.8	3.8	1.49e+00	0	44	104	0	73	22273
2026-01-08 00:11:20.37	353.26	47.80	-51.1	-66.7	3.8	1.49e+00	0	44	104	0	73	22238
2026-01-08 00:11:23.39	352.38	48.66	-51.1	-66.7	3.8	1.49e+00	0	44	104	0	73	22238
2026-01-08 00:11:26.40	351.45	49.52	-51.1	-66.7	3.8	1.49e+00	0	44	104	0	73	22217
2026-01-08 00:11:29.41	350.47	50.40	-51.1	-66.7	3.8	1.49e+00	0	44	104	0	73	22215
2026-01-08 00:11:32.42	349.44	51.28	-51.1	-66.7	3.8	1.49e+00	0	44	104	0	73	22204
2026-01-08 00:11:35.44	348.33	52.17	-51.1	-66.7	3.8	1.49e+00	0	44	104	0	73	22186
2026-01-08 00:11:38.45	347.16	53.06	-51.1	-66.7	3.8	1.49e+00	0	44	104	0	73	22152
2026-01-08 00:11:41.46	345.91	53.95	-51.1	-66.7	3.8	1.49e+00	0	44	104	0	73	22188
2026-01-08 00:11:44.47	344.58	54.85	-51.1	-66.7	3.8	1.49e+00	0	44	104	0	73	22170
2026-01-08 00:11:47.49	343.17	55.74	-51.1	-66.7	3.8	1.49e+00	0	44	104	0	73	22074
2026-01-08 00:11:50.50	341.66	56.63	-51.1	-66.7	3.8	1.49e+00	0	44	104	0	73	22152
2026-01-08 00:11:53.51	340.05	57.51	-51.1	-66.7	3.8	1.49e+00	0	44	104	0	73	22050
2026-01-08 00:11:56.52	338.33	58.39	-51.1	-66.7	3.8	1.49e+00	0	44	104	0	73	22014
2026-01-08 00:11:59.54	336.49	59.25	-51.1	-66.7	3.8	1.49e+00	0	44	104	0	73	22153
2026-01-08 00:12:02.55	334.54	60.09	-51.1	-66.7	3.8	1.49e+00	0	44	104	0	73	22087
2026-01-08 00:12:05.56	332.45	60.92	-51.1	-66.7	3.8	1.49e+00	0	44	104	0	73	22135
2026-01-08 00:12:08.58	330.21	61.72	-51.1	-66.7	3.8	1.49e+00	0	44	104	0	73	22149
2026-01-08 00:12:11.59	327.83	62.48	-51.1	-66.7	3.8	1.49e+00	0	44	104	0	73	22031
2026-01-08 00:12:14.60	325.30	63.21	-51.1	-66.7	3.8	1.49e+00	0	44	104	0	73	22055
2026-01-08 00:12:17.62	322.61	63.90	-51.1	-66.7	3.8	1.49e+00	0	44	104	0	73	22096
2026-01-08 00:12:20.63	319.77	64.54	-51.1	-66.7	3.8	1.49e+00	0	44	104	0	73	22095
2026-01-08 00:12:23.64	316.76	65.12	-51.1	-66.7	3.8	1.49e+00	0	44	104	0	73	22046
2026-01-08 00:12:26.66	313.60	65.65	-51.0	-66.7	3.8	1.49e+00	0	44	104	0	73	22011
2026-01-08 00:12:29.67	310.30	66.10	-51.1	-66.7	3.8	1.49e+00	0	44	104	0	73	22074
2026-01-08 00:12:32.68	306.87	66.49	-51.1	-66.7	3.8	1.49e+00	0	44	104	0	73	22012
2026-01-08 00:12:35.69	303.33	66.79	-51.0	-66.6	3.8	1.49e+00	0	44	104	0	73	21994
2026-01-08 00:12:38.71	299.68	67.01	-51.0	-66.7	3.8	1.49e+00	0	44	104	0	73	22042
2026-01-08 00:12:41.72	295.99	67.15	-51.0	-66.6	3.8	1.49e+00	0	44	104	0	73	21909
2026-01-08 00:12:44.73	292.26	67.20	-51.0	-66.6	3.8	1.49e+00	0	44	104	0	73	21920
2026-01-08 00:12:47.75	288.52	67.16	-51.0	-66.6	3.8	1.49e+00	0	44	104	0	73	21959
2026-01-08 00:12:50.76	284.82	67.03	-51.0	-66.6	3.8	1.49e+00	0	44	104	0	73	21916
2026-01-08 00:12:53.77	281.18	66.81	-51.0	-66.6	3.8	1.49e+00	0	44	104	0	73	21962
2026-01-08 00:12:56.79	277.61	66.51	-50.9	-66.6	3.8	1.49e+00	0	44	104	0	73	21804
2026-01-08 00:12:59.80	274.17	66.13	-50.9	-66.6	3.8	1.49e+00	0	44	104	0	73	21842
2026-01-08 00:13:02.81	270.86	65.68	-50.9	-66.6	3.8	1.49e+00	0	44	104	0	73	21858
2026-01-08 00:13:05.83	267.68	65.16	-50.9	-66.6	3.8	1.49e+00	0	44	104	0	73	21759
2026-01-08 00:13:08.84	264.67	64.58	-50.9	-66.5	3.8	1.49e+00	0	44	104	0	73	21688
2026-01-08 00:13:11.86	261.80	63.94	-50.9	-66.5	3.8	1.49e+00	0	44	104	0	73	21715
2026-01-08 00:13:14.87	259.10	63.26	-50.9	-66.5	3.8	1.49e+00	0	44	104	0	73	21634
2026-01-08 00:13:17.88	256.56	62.53	-50.9	-66.5	3.8	1.49e+00	0	44	104	0	73	21692
2026-01-08 00:13:20.90	254.16	61.76	-50.9	-66.5	3.8	1.49e+00	0	44	104	0	73	21748
2026-01-08 00:13:23.91	251.92	60.97	-50.9	-66.5	3.8	1.49e+00	0	44	104	0	73	21671
2026-01-08 00:13:26.92	249.81	60.14	-50.9	-66.5	3.8	1.49e+00	0	44	104	0	73	21731
2026-01-08 00:13:29.93	247.84	59.30	-50.9	-66.5	3.8	1.49e+00	0	44	104	0	73	21677
2026-01-08 00:13:32.95	245.99	58.43	-50.9	-66.5	3.8	1.49e+00	0	44	104	0	73	21733
2026-01-08 00:13:35.96	244.27	57.56	-50.9	-66.5	3.8	1.49e+00	0	44	104	0	73	21650
2026-01-08 00:13:38.97	242.65	56.67	-50.9	-66.5	3.8	1.49e+00	0	44	104	0	73	21638
2026-01-08 00:13:41.98	241.13	55.78	-50.9	-66.6	3.8	1.49e+00	0	44	104	0	73	21765
2026-01-08 00:13:45.00	239.70	54.88	-50.9	-66.6	3.8	1.49e+00	0	44	104	0	73	21811
2026-01-08 00:13:48.01	238.37	53.99	-50.9	-66.5	3.8	1.49e+00	0	44	104	0	73	21671
2026-01-08 00:13:51.02	237.12	53.09	-50.9	-66.5	3.8	1.49e+00	0	44	104	0	73	21739
2026-01-08 00:13:54.04	235.93	52.19	-50.9	-66.5	3.8	1.49e+00	0	44	104	0	73	21657
2026-01-08 00:13:57.05	234.82	51.30	-50.9	-66.6	3.8	1.49e+00	0	44	104	0	73	21779
2026-01-08 00:14:00.06	233.78	50.42	-50.9	-66.5	3.8	1.49e+00	0	44	104	0	73	21724
2026-01-08 00:14:03.07	232.79	49.54	-50.9	-66.5	3.8	1.49e+00	0	44	104	0	73	21738
2026-01-08 00:14:06.09	231.86	48.67	-50.9	-66.5	3.8	1.49e+00	0	44	104	0	73	21708
2026-01-08 00:14:09.10	230.98	47.81	-50.9	-66.6	3.8	1.49e+00	0	44	104	0	73	21806
2026-01-08 00:14:12.11	230.15	46.96	-51.0	-66.5	3.8	1.49e+00	0	44	104	0	73	21731
2026-01-08 00:14:15.12	229.36	46.13	-51.0	-66.6	3.8	1.49e+00	0	44	104	0	73	21816
2026-01-08 00:14:18.14	228.61	45.30	-51.0	-66.6	3.8	1.49e+00	0	44	104	0	73	22000
2026-01-08 00:14:21.15	227.90	44.48	-51.0	-66.6	3.8	1.49e+00	0	44	104	0	73	21925
2026-01-08 00:14:24.16	227.23	43.68	-51.0	-66.6	3.8	1.49e+00	0	44	104	0	73	21923
2026-01-08 00:14:27.18	226.59	42.88	-51.0	-66.7	3.8	1.49e+00	0	44	104	0	73	22026
2026-01-08 00:14:30.19	225.98	42.11	-51.0	-66.7	3.8	1.49e+00	0	44	104	0	73	22017
2026-01-08 00:14:33.20	225.40	41.34	-51.1	-66.7	3.8	1.49e+00	0	44	104	0	73	22047
2026-01-08 00:14:36.22	224.84	40.58	-51.1	-66.7	3.8	1.49e+00	0	44	104	0	73	22128
2026-01-08 00:14:39.23	224.31	39.84	-51.1	-66.7	3.8	1.49e+00	0	44	104	0	73	22187
2026-01-08 00:14:42.24	223.81	39.11	-51.1	-66.7	3.8	1.49e+00	0	44	104	0	73	22218
2026-01-08 00:14:45.25	223.33	38.40	-51.1	-66.7	3.8	1.49e+00	0	44	104	0	73	22159
2026-01-08 00:14:48.27	222.87	37.69	-51.2	-66.8	3.8	1.49e+00	0	44	104	0	73	22366
2026-01-08 00:14:51.28	222.42	37.00	-51.2	-66.8	3.8	1.49e+00	0	44	104	0	73	22353
2026-01-08 00:14:54.30	222.00	36.32	-51.2	-66.8	3.8	1.49e+00	0	44	104	0	73	22315
2026-01-08 00:14:57.31	221.59	35.66	-51.2	-66.8	3.8	1.49e+00	0	44	104	0	73	22399
2026-01-08 00:15:00.32	221.20	35.00	-51.2	-66.8	3.8	1.49e+00	0	44	104	0	73	22455
2026-01-08 00:15:03.33	220.83	34.36	-51.2	-66.8	3.8	1.49e+00	0	44	104	0	73	22466
2026-01-08 00:15:06.35	220.47	33.73	-51.3	-66.9	3.8	1.49e+00	0	44	104	0	73	22603
2026-01-08 00:15:09.36	220.13	33.11	-51.3	-66.9	3.8	1.49e+00	0	44	104	0	73	22631
2026-01-08 00:15:12.37	219.79	32.50	-51.3	-66.9	3.8	1.49e+00	0	44	104	0	73	22598
2026-01-08 00:15:15.38	219.47	31.90	-51.3	-66.9	3.8	1.49e+00	0	44	104	0	73	22667
2026-01-08 00:15:18.40	219.16	31.32	-51.3	-66.9	3.8	1.49e+00	0	44	104	0	73	22725
2026-01-08 00:15:21.41	218.87	30.74	-51.3	-66.9	3.8	1.49e+00	0	44	104	0	73	22715
2026-01-08 00:15:24.42	218.58	30.18	-51.3	-66.9	3.8	1.49e+00	0	44	104	0	73	22759
2026-01-08 00:15:27.43	218.30	29.62	-51.4	-66.9	3.8	1.49e+00	0	44	104	0	73	22778
2026-01-08 00:15:30.45	218.04	29.07	-51.4	-66.9	3.8	1.49e+00	0	44	104	0	73	22731
2026-01-08 00:15:33.46	217.78	28.54	-51.4	-67.0	3.8	1.49e+00	0	44	104	0	73	22876
2026-01-08 00:15:36.47	217.53	28.01	-51.4	-67.0	3.8	1.49e+00	0	44	104	0	73	22853
2026-01-08 00:15:39.48	217.29	27.50	-51.4	-67.0	3.8	1.49e+00	0	44	104	0	73	22909
2026-01-08 00:15:42.50	217.05	26.99	-51.4	-67.0	3.8	1.49e+00	0	44	104	0	73	22902
2026-01-08 00:15:45.51	216.83	26.49	-51.4	-67.0	3.8	1.49e+00	0	44	104	0	73	22843
2026-01-08 00:15:48.52	216.61	26.00	-51.4	-67.0	3.8	1.49e+00	0	44	104	0	73	22964
2026-01-08 00:15:51.53	216.40	25.52	-51.4	-67.0	3.8	1.49e+00	0	44	104	0	73	22950
2026-01-08 00:15:54.54	216.19	25.04	-51.4	-67.0	3.8	1.49e+00	0	44	104	0	73	22884
2026-01-08 00:15:57.56	215.99	24.58	-51.4	-67.0	3.8	1.49e+00	0	44	104	0	73	22978
2026-01-08 00:16:00.57	215.80	24.12	-51.4	-67.0	3.8	1.49e+00	0	44	104	0	73	22921
2026-01-08 00:16:03.58	215.61	23.67	-51.4	-67.0	3.8	1.49e+00	0	44	104	0	73	22968
2026-01-08 00:16:06.60	215.43	23.22	-51.4	-67.1	3.8	1.49e+00	0	44	104	0	73	23102
2026-01-08 00:16:09.61	215.26	22.79	-51.5	-67.1	3.8	1.49e+00	0	44	104	0	73	23054
2026-01-08 00:16:12.62	215.08	22.36	-51.5	-67.1	3.8	1.49e+00	0	44	104	0	73	23103
2026-01-08 00:16:15.64	214.92	21.93	-51.5	-67.1	3.8	1.49e+00	0	44	104	0	73	23075
2026-01-08 00:16:18.65	214.76	21.52	-51.5	-67.1	3.8	1.49e+00	0	44	104	0	73	23068
2026-01-08 00:16:21.66	214.60	21.11	-51.5	-67.1	3.8	1.49e+00	0	44	104	0	73	23084
2026-01-08 00:16:24.68	214.44	20.71	-51.5	-67.1	3.8	1.49e+00	0	44	104	0	73	23050
2026-01-08 00:16:27.69	214.30	20.31	-51.5	-67.1	3.8	1.49e+00	0	44	104	0	73	23097
2026-01-08 00:16:30.70	214.15	19.92	-51.5	-67.1	3.8	1.49e+00	0	44	104	0	73	23087
2026-01-08 00:16:33.71	214.01	19.53	-51.5	-67.0	3.8	1.49e+00	0	44	104	0	73	23033
2026-01-08 00:16:36.73	213.87	19.15	-51.4	-67.1	3.8	1.49e+00	0	44	104	0	73	23061
2026-01-08 00:16:39.74	213.74	18.78	-51.4	-67.0	3.8	1.49e+00	0	44	104	0	73	23002
2026-01-08 00:16:42.75	213.61	18.41	-51.4	-67.0	3.8	1.49e+00	0	44	104	0	73	23044
2026-01-08 00:16:45.77	213.48	18.05	-51.4	-67.0	3.8	1.49e+00	0	44	104	0	73	22952
2026-01-08 00:16:48.78	213.36	17.69	-51.4	-67.0	3.8	1.49e+00	0	44	104	0	73	23009
2026-01-08 00:16:51.79	213.23	17.34	-51.4	-67.0	3.8	1.49e+00	0	44	104	0	73	22994
2026-01-08 00:16:54.79	213.12	16.99	-51.4	-67.0	3.8	1.49e+00	0	44	104	0	73	23002
2026-01-08 00:16:57.80	213.00	16.65	-51.4	-67.0	3.8	1.49e+00	0	44	104	0	73	22985
2026-01-08 00:17:00.82	212.89	16.31	-51.4	-67.0	3.8	1.49e+00	0	44	104	0	73	23013
2026-01-08 00:17:03.83	212.78	15.98	-51.4	-67.0	3.8	1.49e+00	0	44	104	0	73	22992
2026-01-08 00:17:06.84	212.67	15.65	-51.4	-67.0	3.8	1.49e+00	0	44	104	0	73	22991
2026-01-08 00:17:09.86	212.57	15.32	-51.4	-67.0	3.8	1.49e+00	0	44	104	0	73	22959
2026-01-08 00:17:12.87	212.46	15.00	-51.4	-67.1	3.8	1.49e+00	0	44	104	0	73	23115
2026-01-08 00:17:15.88	212.36	14.68	-51.4	-67.0	3.8	1.49e+00	0	44	104	0	73	23027
2026-01-08 00:17:18.90	212.27	14.37	-51.5	-67.0	3.8	1.49e+00	0	44	104	0	73	23037
2026-01-08 00:17:21.91	212.17	14.06	-51.5	-67.1	3.8	1.49e+00	0	44	104	0	73	23063
2026-01-08 00:17:24.93	212.08	13.75	-51.5	-67.0	3.8	1.49e+00	0	44	104	0	73	23031
2026-01-08 00:17:27.94	211.99	13.45	-51.4	-67.0	3.8	1.49e+00	0	44	104	0	73	22979
2026-01-08 00:17:30.95	211.90	13.15	-51.4	-67.0	3.8	1.49e+00	0	44	104	0	73	22949
2026-01-08 00:17:33.97	211.81	12.86	-51.4	-67.1	3.8	1.49e+00	0	44	104	0	73	23071
2026-01-08 00:17:36.98	211.72	12.57	-51.4	-67.1	3.8	1.49e+00	0	44	104	0	73	23058
2026-01-08 00:17:39.99	211.64	12.28	-51.5	-67.1	3.8	1.49e+00	0	44	104	0	73	23105
2026-01-08 00:17:43.00	211.56	12.00	-51.5	-67.1	3.8	1.49e+00	0	44	104	0	73	23096
2026-01-08 00:17:46.02	211.48	11.71	-51.5	-67.1	3.8	1.49e+00	0	44	104	0	73	23084
2026-01-08 00:17:49.03	211.40	11.44	-51.5	-67.1	3.8	1.49e+00	0	44	104	0	73	23109
2026-01-08 00:17:52.04	211.32	11.16	-51.5	-67.1	3.8	1.49e+00	0	44	104	0	73	23127
2026-01-08 00:17:55.05	211.24	10.89	-51.5	-67.1	3.8	1.49e+00	0	44	104	0	73	23214
2026-01-08 00:17:58.07	211.17	10.62	-51.5	-67.1	3.8	1.49e+00	0	44	104	0	73	23191
2026-01-08 00:18:01.08	211.10	10.35	-51.5	-67.1	3.8	1.49e+00	0	44	104	0	73	23192
2026-01-08 00:18:04.09	211.03	10.09	-51.5	-67.1	3.8	1.49e+00	0	44	104	0	73	23197
2026-01-08 00:18:07.11	210.96	9.83	-51.5	-67.1	3.8	1.49e+00	0	44	104	0	73	23263
2026-01-08 00:18:10.12	210.89	9.57	-51.5	-67.1	3.8	1.49e+00	0	44	104	0	73	23288
2026-01-08 00:18:13.13	210.82	9.32	-51.5	-67.1	3.8	1.49e+00	0	44	104	0	73	23227
2026-01-08 00:18:16.15	210.76	9.06	-51.6	-67.1	3.8	1.49e+00	0	44	104	0	73	23261
2026-01-08 00:18:19.16	210.69	8.81	-51.6	-67.2	3.8	1.49e+00	0	44	104	0	73	23347
2026-01-08 00:18:22.17	210.63	8.57	-51.6	-67.2	3.8	1.49e+00	0	44	104	0	73	23410
2026-01-08 00:18:25.19	210.57	8.32	-51.6	-67.2	3.8	1.49e+00	0	44	104	0	73	23372
2026-01-08 00:18:28.20	210.51	8.08	-51.6	-67.2	3.8	1.49e+00	0	44	104	0	73	23445
2026-01-08 00:18:31.21	210.45	7.84	-51.6	-67.2	3.8	1.49e+00	0	44	104	0	73	23465
2026-01-08 00:18:34.22	210.39	7.60	-51.6	-67.2	3.8	1.49e+00	0	44	104	0	73	23473
2026-01-08 00:18:37.23	210.33	7.36	-51.6	-67.2	3.8	1.49e+00	0	44	104	0	73	23544
2026-01-08 00:18:40.25	210.27	7.13	-51.7	-67.3	3.8	1.49e+00	0	44	104	0	74	22385
2026-01-08 00:18:43.26	210.22	6.89	-51.7	-67.3	3.8	1.49e+00	0	44	104	0	74	22424
2026-01-08 00:18:46.27	210.16	6.66	-51.7	-67.3	3.8	1.49e+00	0	44	104	0	74	22507
2026-01-08 00:18:49.29	210.11	6.44	-51.8	-67.4	3.8	1.49e+00	0	44	104	0	74	22575
2026-01-08 00:18:52.30	210.06	6.21	-51.8	-67.4	3.8	1.49e+00	0	44	104	0	74	22578
2026-01-08 00:18:55.31	210.00	5.99	-51.8	-67.4	3.8	1.49e+00	0	44	104	0	74	22627
2026-01-08 00:18:58.32	209.95	5.76	-51.8	-67.4	3.8	1.49e+00	0	44	104	0	74	22722
2026-01-08 00:19:01.33	209.90	5.54	-51.9	-67.5	3.8	1.49e+00	0	44	104	0	74	22794
2026-01-08 00:19:04.34	209.85	5.33	-51.9	-67.4	3.8	1.49e+00	0	44	104	0	74	22776
2026-01-08 00:19:07.36	209.81	5.11	-51.9	-67.5	3.8	1.49e+00	0	44	104	0	74	22941

#Closed at: 2026-01-08 00:19:10
#Recorded file [0 MB]: D:/Data/31040_260108_030619.dat