passes_logs/2026/01/08/T1/T1__20260108_122358_AQUA_rec.log

#Pass ID: 20260108_122358_AQUA
#Satellite: AQUA
#Configuration: AQUA
#almurnet v.1.7.20251203
#Start time: 2026-01-08 12:23:58

#Version: 2.0.20230620
#Station: T1
#Location: 37.570604 lon 55.790049 lat
#TLE: 1 27424U 02022A   26004.96787593  .00001598  00000+0  32997-3 0  9996
#TLE: 2 27424  98.4069 331.2279 0002002  90.2377   0.6092 14.61798176259425

#Time	Az	El	Level	Level2	SNR	BER	BlckErr	Temp	State	Recorded	gain1	gain2
2026-01-08 12:23:58.96	186.15	5.01	-50.1	-71.7	3.8	7.43e-01	0	38	0	0	71	44362
2026-01-08 12:24:01.97	186.31	5.23	-49.5	-70.7	3.8	7.44e-01	0	38	104	0	70	41662
2026-01-08 12:24:04.98	186.47	5.45	-49.5	-69.4	3.8	7.47e-01	0	39	104	0	70	35728
2026-01-08 12:24:07.99	186.64	5.67	-49.4	-69.6	3.8	7.46e-01	0	39	104	0	70	36569
2026-01-08 12:24:11.00	186.80	5.90	-49.6	-70.9	3.8	7.48e-01	0	39	104	0	70	42870
2026-01-08 12:24:14.02	186.97	6.12	-49.5	-71.2	3.8	7.48e-01	0	39	104	0	70	43933
2026-01-08 12:24:17.03	187.14	6.35	-49.5	-70.4	3.8	7.44e-01	0	39	104	0	70	40376
2026-01-08 12:24:20.04	187.31	6.58	-49.4	-71.2	3.8	7.43e-01	0	39	104	0	70	44382
2026-01-08 12:24:23.05	187.49	6.81	-49.4	-68.9	4.0	7.45e-01	0	39	104	0	70	33754
2026-01-08 12:24:26.07	187.67	7.04	-49.3	-65.0	5.6	6.95e-01	0	39	0	524288	70	21655
2026-01-08 12:24:29.08	187.85	7.28	-49.5	-67.2	4.0	7.37e-01	0	40	104	2621440	70	27750
2026-01-08 12:24:32.09	188.04	7.52	-49.1	-60.9	9.3	6.31e-01	0	40	0	4718592	70	13434
2026-01-08 12:24:35.11	188.23	7.76	-47.3	-53.2	17.1	6.06e-01	0	40	0	9961472	66	6975
2026-01-08 12:24:38.12	188.42	8.00	-45.6	-49.7	20.4	6.09e-01	0	40	0	15728640	63	5586
2026-01-08 12:24:41.13	188.61	8.24	-45.2	-49.1	21.0	6.06e-01	0	40	0	21495808	62	5503
2026-01-08 12:24:44.15	188.81	8.49	-46.5	-51.3	19.0	6.07e-01	0	40	0	27262976	63	6667
2026-01-08 12:24:47.16	189.02	8.74	-48.0	-55.5	14.9	6.10e-01	0	40	0	32505856	66	9094
2026-01-08 12:24:50.17	189.22	8.99	-49.1	-60.2	10.1	6.23e-01	0	40	0	38273024	68	13973
2026-01-08 12:24:53.18	189.43	9.25	-48.2	-56.4	14.4	6.07e-01	0	40	0	44040192	67	9516
2026-01-08 12:24:56.37	189.66	9.52	-48.1	-54.7	15.5	6.08e-01	0	40	0	49807360	67	7868
2026-01-08 12:24:59.26	189.87	9.77	-48.0	-54.5	15.7	6.06e-01	0	40	0	55574528	67	7705
2026-01-08 12:25:02.40	190.10	10.05	-47.8	-54.0	16.5	6.07e-01	0	40	0	61341696	67	7230
2026-01-08 12:25:05.68	190.34	10.33	-47.2	-53.0	17.4	6.05e-01	0	40	0	67633152	66	6846
2026-01-08 12:25:08.56	190.56	10.59	-46.4	-51.4	18.9	6.08e-01	0	40	0	72876032	64	6406
2026-01-08 12:25:11.71	190.81	10.88	-46.5	-51.4	19.0	6.08e-01	0	40	0	78643200	64	6410
2026-01-08 12:25:14.58	191.04	11.14	-45.3	-49.2	21.1	6.08e-01	0	40	0	84410368	62	5574
2026-01-08 12:25:17.73	191.29	11.43	-45.0	-48.3	21.9	6.08e-01	0	40	0	90177536	61	5334
2026-01-08 12:25:20.59	191.53	11.70	-44.8	-47.9	22.4	6.06e-01	0	40	0	95420416	61	5077
2026-01-08 12:25:23.75	191.80	11.99	-44.7	-47.8	22.5	6.06e-01	0	40	0	101187584	61	5024
2026-01-08 12:25:26.82	192.06	12.29	-44.7	-47.8	22.6	6.07e-01	0	40	0	106954752	60	5294
2026-01-08 12:25:30.11	192.35	12.61	-44.6	-47.6	22.6	6.05e-01	0	40	0	113246208	60	5201
2026-01-08 12:25:32.88	192.60	12.88	-44.5	-47.6	22.7	6.06e-01	0	40	0	118489088	60	5171
2026-01-08 12:25:36.17	192.90	13.20	-44.5	-47.5	22.8	6.07e-01	0	40	0	124780544	60	5139
2026-01-08 12:25:38.90	193.16	13.48	-44.4	-47.5	22.7	6.07e-01	0	40	0	129499136	60	5148
2026-01-08 12:25:42.24	193.48	13.81	-44.3	-47.4	22.9	6.05e-01	0	40	0	135790592	60	5055
2026-01-08 12:25:45.25	193.77	14.12	-44.3	-47.2	23.0	6.08e-01	0	40	0	141557760	60	4978
2026-01-08 12:25:48.26	194.07	14.44	-44.4	-47.3	22.9	6.08e-01	0	40	0	147324928	60	5009
2026-01-08 12:25:51.26	194.38	14.75	-44.3	-47.1	23.1	6.06e-01	0	40	0	153092096	60	4918
2026-01-08 12:25:54.27	194.69	15.07	-44.0	-46.8	23.4	6.07e-01	0	40	0	158334976	60	4744
2026-01-08 12:25:57.28	195.01	15.40	-44.2	-47.0	23.2	6.11e-01	0	40	0	164102144	60	4855
2026-01-08 12:26:00.28	195.34	15.72	-44.2	-47.0	23.2	6.07e-01	0	40	0	169869312	60	4852
2026-01-08 12:26:03.29	195.68	16.06	-44.2	-47.0	23.3	6.07e-01	0	41	0	175636480	60	4832
2026-01-08 12:26:06.26	196.02	16.39	-44.1	-46.8	23.4	6.06e-01	0	40	0	180879360	60	4759
2026-01-08 12:26:09.40	196.39	16.74	-44.3	-47.1	23.2	6.06e-01	0	40	0	186646528	60	4880
2026-01-08 12:26:12.27	196.73	17.07	-44.2	-46.9	23.3	6.08e-01	0	41	0	192413696	60	4778
2026-01-08 12:26:15.42	197.12	17.44	-44.2	-46.9	23.4	6.07e-01	0	41	0	198180864	60	4760
2026-01-08 12:26:18.29	197.48	17.78	-44.4	-47.0	23.3	6.07e-01	0	41	0	203423744	60	4843
2026-01-08 12:26:21.61	197.91	18.17	-44.2	-46.9	23.4	6.06e-01	0	40	0	209715200	60	4765
2026-01-08 12:26:24.48	198.28	18.52	-44.2	-46.9	23.4	6.05e-01	0	40	0	214958080	60	4780
2026-01-08 12:26:27.63	198.71	18.90	-44.3	-47.0	23.3	6.07e-01	0	40	0	221249536	60	4819
2026-01-08 12:26:30.73	199.14	19.29	-44.2	-46.9	23.0	6.09e-01	0	41	0	227016704	60	4768
2026-01-08 12:26:33.80	199.58	19.67	-44.4	-47.1	23.2	6.08e-01	0	41	0	232783872	60	4891
2026-01-08 12:26:37.28	200.09	20.12	-44.4	-47.0	23.3	6.06e-01	0	41	0	239075328	60	4840
2026-01-08 12:26:40.29	200.54	20.50	-44.5	-47.1	23.2	6.06e-01	0	41	0	244842496	60	4910
2026-01-08 12:26:43.30	201.01	20.90	-44.4	-47.0	23.3	6.07e-01	0	41	0	250609664	60	4854
2026-01-08 12:26:46.24	201.48	21.29	-44.5	-47.1	23.2	6.07e-01	0	40	0	255852544	60	4925
2026-01-08 12:26:49.62	202.03	21.74	-44.6	-47.2	23.1	6.08e-01	0	40	0	262144000	60	4974
2026-01-08 12:26:52.35	202.49	22.11	-44.4	-47.0	23.3	6.08e-01	0	41	0	267386880	60	4850
2026-01-08 12:26:55.64	203.06	22.56	-44.6	-47.3	23.1	6.06e-01	0	40	0	273678336	60	4986
2026-01-08 12:26:58.57	203.57	22.97	-44.5	-47.2	23.1	6.07e-01	0	41	0	278921216	60	4948
2026-01-08 12:27:01.58	204.12	23.40	-44.4	-47.1	23.2	6.08e-01	0	41	0	284688384	60	4876
2026-01-08 12:27:04.60	204.69	23.83	-44.3	-47.0	23.3	6.08e-01	0	41	0	290455552	60	4855
2026-01-08 12:27:07.75	205.30	24.28	-44.4	-47.0	23.3	6.04e-01	0	41	0	296222720	60	4864
2026-01-08 12:27:10.67	205.88	24.71	-44.6	-47.2	23.1	6.07e-01	0	41	0	301989888	60	4967
2026-01-08 12:27:14.25	206.61	25.23	-44.5	-47.1	23.2	6.05e-01	0	41	0	308281344	60	4901
2026-01-08 12:27:16.97	207.18	25.64	-44.4	-47.0	23.3	6.07e-01	0	40	0	313524224	60	4838
2026-01-08 12:27:20.27	207.90	26.14	-44.5	-47.2	23.2	6.07e-01	0	41	0	319815680	60	4928
2026-01-08 12:27:22.99	208.51	26.55	-44.5	-47.2	23.2	6.05e-01	0	40	0	325058560	60	4939
2026-01-08 12:27:26.24	209.26	27.05	-44.4	-47.1	23.2	6.09e-01	0	41	0	330825728	60	4893
2026-01-08 12:27:29.11	209.94	27.49	-44.3	-47.0	23.4	6.06e-01	0	41	0	336592896	60	4823
2026-01-08 12:27:32.32	210.72	28.00	-44.5	-47.1	23.3	6.06e-01	0	41	0	342360064	60	4877
2026-01-08 12:27:35.25	211.46	28.46	-44.5	-47.0	23.3	6.08e-01	0	40	0	348127232	60	4856
2026-01-08 12:27:38.41	212.28	28.96	-44.5	-47.1	23.3	6.08e-01	0	40	0	353894400	60	4878
2026-01-08 12:27:41.34	213.07	29.43	-44.4	-47.0	23.3	6.08e-01	0	41	0	359137280	60	4845
2026-01-08 12:27:44.64	213.98	29.96	-44.4	-47.0	23.3	6.07e-01	0	40	0	365428736	60	4839
2026-01-08 12:27:47.46	214.79	30.41	-44.3	-47.0	23.3	6.07e-01	0	40	0	370671616	60	4840
2026-01-08 12:27:50.61	215.71	30.92	-44.6	-47.2	23.2	6.07e-01	0	41	0	376963072	60	4952
2026-01-08 12:27:53.83	216.69	31.45	-44.6	-47.3	23.1	6.08e-01	0	41	0	382730240	60	4996
2026-01-08 12:27:56.86	217.64	31.94	-44.5	-47.1	23.3	6.07e-01	0	41	0	388497408	60	4878
2026-01-08 12:27:59.87	218.62	32.43	-44.5	-47.2	23.1	6.06e-01	0	41	0	394264576	60	4976
2026-01-08 12:28:02.88	219.62	32.92	-44.6	-47.3	23.1	6.07e-01	0	41	0	399507456	60	5031
2026-01-08 12:28:05.95	220.68	33.42	-44.8	-47.4	23.0	6.08e-01	0	41	0	405274624	60	5098
2026-01-08 12:28:08.84	221.70	33.89	-44.7	-47.4	23.0	6.09e-01	0	41	0	411041792	60	5064
2026-01-08 12:28:12.00	222.85	34.39	-45.0	-47.8	22.7	6.05e-01	0	41	0	416808960	60	5301
2026-01-08 12:28:14.86	223.93	34.85	-45.0	-47.7	22.8	6.09e-01	0	41	0	422051840	60	5255
2026-01-08 12:28:18.01	225.15	35.35	-44.8	-47.6	22.9	6.07e-01	0	41	0	428343296	60	5189
2026-01-08 12:28:20.88	226.30	35.79	-44.8	-47.5	22.9	6.08e-01	0	41	0	433586176	60	5138
2026-01-08 12:28:24.03	227.59	36.28	-44.7	-47.3	23.1	6.07e-01	0	41	0	439353344	60	5033
2026-01-08 12:28:26.90	228.80	36.71	-44.8	-47.5	22.9	6.06e-01	0	40	0	444596224	60	5159
2026-01-08 12:28:30.05	230.17	37.18	-44.7	-47.4	23.0	6.06e-01	0	41	0	450887680	60	5042
2026-01-08 12:28:32.91	231.45	37.59	-44.9	-47.6	22.8	6.06e-01	0	41	0	456130560	60	5173
2026-01-08 12:28:36.13	232.92	38.04	-44.8	-47.6	22.8	6.07e-01	0	41	0	461897728	60	5161
2026-01-08 12:28:39.00	234.27	38.43	-44.6	-47.3	23.1	6.05e-01	0	40	0	467664896	60	5012
2026-01-08 12:28:42.15	235.79	38.84	-44.6	-47.2	23.1	6.05e-01	0	41	0	473432064	60	4967
2026-01-08 12:28:45.26	237.33	39.24	-44.7	-47.3	23.1	6.07e-01	0	41	0	479199232	60	5016
2026-01-08 12:28:48.12	238.78	39.58	-44.4	-46.9	23.4	6.08e-01	0	40	0	484442112	60	4799
2026-01-08 12:28:51.35	240.45	39.95	-44.4	-47.0	23.3	6.07e-01	0	40	0	490733568	60	4828
2026-01-08 12:28:54.30	242.01	40.26	-44.3	-46.7	23.6	6.04e-01	0	41	0	495976448	60	4702
2026-01-08 12:28:57.52	243.74	40.58	-44.3	-46.9	23.4	6.08e-01	0	41	0	502267904	60	4794
2026-01-08 12:29:00.36	245.30	40.84	-44.4	-47.0	23.4	6.06e-01	0	41	0	507510784	60	4817
2026-01-08 12:29:03.66	247.14	41.12	-44.1	-46.6	23.7	6.06e-01	0	40	0	513802240	60	4608
2026-01-08 12:29:06.49	248.74	41.33	-44.2	-46.7	23.7	6.07e-01	0	41	0	519045120	59	4970
2026-01-08 12:29:09.65	250.56	41.54	-44.3	-46.9	23.5	6.08e-01	0	41	0	524812288	59	5045
2026-01-08 12:29:12.51	252.22	41.70	-44.2	-46.7	23.7	6.06e-01	0	40	0	530055168	59	4977
2026-01-08 12:29:15.67	254.07	41.85	-44.2	-46.7	23.7	6.07e-01	0	40	0	536346624	59	4978
2026-01-08 12:29:18.61	255.81	41.96	-44.3	-46.8	23.6	6.04e-01	0	41	0	541589504	59	5027
2026-01-08 12:29:22.00	257.82	42.06	-44.5	-47.1	23.4	6.09e-01	0	40	0	547880960	59	5175
2026-01-08 12:29:24.95	259.58	42.10	-44.4	-46.9	23.5	6.06e-01	0	41	0	553648128	60	4792
2026-01-08 12:29:28.28	261.57	42.12	-44.2	-46.8	23.5	6.05e-01	0	41	0	559939584	60	4721
2026-01-08 12:29:31.29	263.38	42.11	-44.2	-46.8	23.6	6.07e-01	0	40	0	565706752	60	4726
2026-01-08 12:29:34.30	265.17	42.07	-44.3	-46.8	23.6	6.06e-01	0	41	0	570949632	59	5019
2026-01-08 12:29:37.30	266.96	41.99	-44.3	-46.9	23.6	6.05e-01	0	41	0	576716800	59	5050
2026-01-08 12:29:40.46	268.83	41.88	-44.3	-46.9	23.5	6.05e-01	0	40	0	582483968	59	5042
2026-01-08 12:29:43.33	270.51	41.75	-44.6	-47.2	23.3	6.07e-01	0	40	0	588251136	59	5228
2026-01-08 12:29:46.48	272.34	41.58	-44.6	-47.2	23.3	6.05e-01	0	40	0	594018304	59	5227
2026-01-08 12:29:49.35	273.99	41.40	-44.6	-47.2	23.2	6.07e-01	0	41	0	599261184	60	4945
2026-01-08 12:29:52.63	275.85	41.16	-44.4	-47.0	23.4	6.08e-01	0	40	0	605552640	60	4860
2026-01-08 12:29:55.55	277.48	40.92	-44.4	-47.0	23.4	6.05e-01	0	41	0	610795520	60	4817
2026-01-08 12:29:58.85	279.30	40.62	-44.4	-46.9	23.4	6.08e-01	0	41	0	617086976	60	4809
2026-01-08 12:30:01.57	280.76	40.36	-44.5	-47.2	23.2	6.07e-01	0	41	0	622329856	60	4940
2026-01-08 12:30:04.86	282.51	40.01	-44.4	-47.1	23.3	6.05e-01	0	40	0	628621312	60	4871
2026-01-08 12:30:07.58	283.92	39.71	-44.3	-46.9	23.4	6.07e-01	0	40	0	633339904	60	4799
2026-01-08 12:30:10.88	285.59	39.32	-44.5	-47.1	23.3	6.06e-01	0	41	0	639631360	60	4889
2026-01-08 12:30:14.07	287.18	38.93	-44.7	-47.4	23.0	6.08e-01	0	41	0	645922816	60	5072
2026-01-08 12:30:17.40	288.78	38.49	-44.5	-47.2	23.2	6.04e-01	0	40	0	651689984	60	4930
2026-01-08 12:30:20.13	290.07	38.13	-44.6	-47.2	23.2	6.06e-01	0	40	0	656932864	60	4948
2026-01-08 12:30:23.42	291.58	37.67	-44.3	-47.0	23.4	6.07e-01	0	40	0	663224320	60	4816
2026-01-08 12:30:26.29	292.86	37.26	-44.2	-46.8	23.5	6.11e-01	0	40	0	668467200	60	4730
2026-01-08 12:30:29.96	294.46	36.72	-44.1	-46.7	23.7	6.06e-01	0	40	0	675282944	59	4975
2026-01-08 12:30:32.71	295.61	36.31	-44.2	-46.8	23.7	6.08e-01	0	40	0	680525824	59	5015
2026-01-08 12:30:36.01	296.96	35.80	-44.2	-46.8	23.6	6.05e-01	0	40	0	686817280	59	5027
2026-01-08 12:30:38.78	298.07	35.37	-44.0	-46.6	23.8	6.08e-01	0	40	0	692060160	59	4871
2026-01-08 12:30:42.46	299.48	34.79	-43.6	-46.1	24.2	6.06e-01	0	40	0	698875904	59	4623
2026-01-08 12:30:45.19	300.50	34.36	-43.5	-46.1	24.3	6.07e-01	0	40	0	704118784	58	4878
2026-01-08 12:30:48.48	301.70	33.84	-43.5	-46.0	24.3	6.07e-01	0	40	0	710410240	58	4858
2026-01-08 12:30:51.30	302.69	33.38	-43.3	-45.7	24.5	6.07e-01	0	40	0	715653120	58	4696
2026-01-08 12:30:54.74	303.86	32.83	-43.4	-45.9	24.4	6.04e-01	0	40	0	721944576	58	4761
2026-01-08 12:30:57.46	304.76	32.39	-43.3	-45.7	24.5	6.06e-01	0	41	0	727187456	58	4683
2026-01-08 12:31:00.75	305.81	31.86	-43.3	-45.7	24.5	6.07e-01	0	41	0	732954624	58	4700
2026-01-08 12:31:03.47	306.66	31.42	-43.4	-45.9	24.4	6.06e-01	0	41	0	738197504	58	4775
2026-01-08 12:31:06.77	307.65	30.88	-43.2	-45.6	24.6	6.04e-01	0	41	0	744488960	58	4621
2026-01-08 12:31:09.81	308.54	30.39	-43.3	-45.7	24.5	6.08e-01	0	41	0	750256128	58	4665
2026-01-08 12:31:13.10	309.47	29.87	-43.6	-46.0	24.3	6.06e-01	0	41	0	756547584	58	4832
2026-01-08 12:31:15.98	310.25	29.41	-43.6	-46.0	24.2	6.06e-01	0	40	0	761790464	58	4858
2026-01-08 12:31:19.24	311.12	28.89	-43.5	-45.9	24.4	6.06e-01	0	40	0	768081920	58	4789
2026-01-08 12:31:22.25	311.90	28.42	-43.7	-46.1	24.1	6.06e-01	0	41	0	773324800	58	4910
2026-01-08 12:31:25.26	312.65	27.95	-43.5	-46.2	24.2	6.06e-01	0	40	0	779091968	58	4929
2026-01-08 12:31:28.26	313.37	27.48	-43.4	-46.2	24.1	6.07e-01	0	41	0	784859136	58	4955
2026-01-08 12:31:31.29	314.09	27.02	-43.7	-46.5	23.8	6.07e-01	0	40	0	790626304	58	5143
2026-01-08 12:31:34.60	314.84	26.51	-44.0	-46.6	23.8	6.05e-01	0	40	0	796393472	58	5196
2026-01-08 12:31:37.32	315.44	26.10	-43.9	-46.4	23.9	6.06e-01	0	40	0	801636352	58	5080
2026-01-08 12:31:40.65	316.16	25.60	-44.0	-46.6	23.8	6.08e-01	0	40	0	807927808	58	5190
2026-01-08 12:31:43.37	316.73	25.20	-44.1	-46.7	23.7	6.06e-01	0	40	0	813170688	58	5263
2026-01-08 12:31:46.67	317.40	24.72	-44.0	-46.7	23.7	6.07e-01	0	40	0	819462144	58	5224
2026-01-08 12:31:49.39	317.94	24.33	-44.0	-46.7	23.7	6.07e-01	0	41	0	824180736	58	5223
2026-01-08 12:31:52.79	318.59	23.84	-44.0	-46.7	23.7	6.06e-01	0	40	0	830996480	58	5244
2026-01-08 12:31:55.52	319.10	23.45	-44.0	-46.7	23.7	6.07e-01	0	41	0	835715072	58	5228
2026-01-08 12:31:58.81	319.69	23.00	-43.9	-46.8	23.6	6.06e-01	0	41	0	842006528	58	5291
2026-01-08 12:32:01.56	320.18	22.62	-43.9	-46.7	23.6	6.08e-01	0	41	0	847249408	58	5240
2026-01-08 12:32:04.86	320.75	22.17	-43.9	-46.6	23.7	6.07e-01	0	40	0	853540864	58	5193
2026-01-08 12:32:07.58	321.20	21.80	-43.7	-46.5	23.8	6.07e-01	0	40	0	858783744	58	5108
2026-01-08 12:32:11.07	321.77	21.34	-43.8	-46.5	23.8	6.07e-01	0	40	0	865075200	58	5157
2026-01-08 12:32:13.87	322.21	20.97	-43.9	-46.5	23.8	6.07e-01	0	41	0	870318080	58	5137
2026-01-08 12:32:17.13	322.71	20.55	-43.9	-46.6	23.8	6.08e-01	0	41	0	876609536	58	5161
2026-01-08 12:32:20.14	323.17	20.16	-44.0	-46.7	23.7	6.06e-01	0	41	0	881852416	58	5221
2026-01-08 12:32:23.20	323.61	19.77	-43.7	-46.4	23.8	6.06e-01	0	40	0	887619584	58	5099
2026-01-08 12:32:26.18	324.04	19.40	-43.5	-46.4	23.9	6.07e-01	0	40	0	893386752	58	5045
2026-01-08 12:32:29.19	324.46	19.03	-43.6	-46.2	24.0	6.07e-01	0	40	0	899153920	58	4963
2026-01-08 12:32:32.34	324.88	18.65	-43.7	-46.2	24.0	6.06e-01	0	40	0	904921088	58	4975
2026-01-08 12:32:35.58	325.31	18.26	-43.8	-46.4	23.8	6.06e-01	0	40	0	911212544	58	5069
2026-01-08 12:32:38.45	325.68	17.92	-43.7	-46.4	23.8	6.07e-01	0	41	0	916455424	58	5085
2026-01-08 12:32:41.52	326.07	17.56	-43.6	-46.4	23.8	6.08e-01	0	41	0	922222592	58	5093
2026-01-08 12:32:44.85	326.48	17.18	-43.6	-46.4	23.8	6.05e-01	0	40	0	928514048	58	5092
2026-01-08 12:32:47.86	326.84	16.83	-43.4	-46.4	23.8	6.03e-01	0	40	0	933756928	58	5052
2026-01-08 12:32:50.86	327.19	16.50	-43.4	-46.4	23.8	6.02e-01	0	40	0	939524096	58	5084
2026-01-08 12:32:53.87	327.53	16.16	-43.5	-46.4	23.8	6.03e-01	0	40	0	945291264	58	5062
2026-01-08 12:32:56.88	327.87	15.83	-43.6	-46.3	23.9	6.03e-01	0	40	0	951058432	58	5015
2026-01-08 12:32:59.89	328.20	15.51	-43.8	-46.3	23.9	6.02e-01	0	40	0	956825600	58	5030
2026-01-08 12:33:02.90	328.52	15.18	-43.9	-46.4	23.8	6.02e-01	0	40	0	962068480	58	5072
2026-01-08 12:33:05.91	328.84	14.87	-43.8	-46.4	23.8	6.03e-01	0	41	0	967835648	58	5066
2026-01-08 12:33:08.92	329.14	14.55	-43.9	-46.6	23.6	6.05e-01	0	40	0	973602816	58	5160
2026-01-08 12:33:12.00	329.45	14.23	-43.9	-46.7	23.5	6.04e-01	0	40	0	979369984	58	5258
2026-01-08 12:33:14.86	329.73	13.94	-43.8	-46.5	23.7	6.06e-01	0	40	0	984612864	58	5131
2026-01-08 12:33:18.01	330.04	13.63	-44.0	-46.7	23.5	6.07e-01	0	40	0	990380032	58	5262
2026-01-08 12:33:20.88	330.31	13.34	-44.0	-46.8	23.4	6.05e-01	0	41	0	996147200	58	5282
2026-01-08 12:33:24.12	330.61	13.02	-44.1	-46.8	23.4	6.05e-01	0	40	0	1001914368	58	5334
2026-01-08 12:33:27.01	330.87	12.74	-44.0	-46.7	23.4	6.04e-01	0	41	0	1007681536	58	5277
2026-01-08 12:33:30.16	331.14	12.44	-44.1	-46.8	23.4	6.04e-01	0	40	0	1013448704	58	5285
2026-01-08 12:33:33.02	331.39	12.17	-44.1	-46.8	23.3	6.05e-01	0	41	0	1018691584	59	5038
2026-01-08 12:33:36.18	331.66	11.87	-44.4	-47.1	23.1	6.03e-01	0	40	0	1024458752	59	5191
2026-01-08 12:33:39.05	331.90	11.60	-44.3	-47.0	23.2	6.02e-01	0	40	0	1030225920	59	5138
2026-01-08 12:33:42.33	332.17	11.30	-44.1	-46.9	22.1	6.01e-01	0	40	0	1035993088	59	5063
2026-01-08 12:33:45.25	332.40	11.04	-44.2	-47.1	23.1	6.03e-01	0	40	0	1041760256	59	5198
2026-01-08 12:33:48.53	332.66	10.74	-44.3	-47.2	23.0	6.03e-01	0	40	0	1048051712	59	5259
2026-01-08 12:33:51.46	332.89	10.48	-44.3	-47.2	23.0	6.03e-01	0	40	0	1053294592	59	5219
2026-01-08 12:33:54.76	333.14	10.19	-44.6	-47.7	22.5	6.01e-01	0	40	0	1059586048	59	5546
2026-01-08 12:33:57.48	333.34	9.96	-44.4	-47.7	22.5	6.05e-01	0	40	0	1064828928	59	5568
2026-01-08 12:34:00.78	333.58	9.67	-44.6	-48.0	22.3	6.03e-01	0	40	0	1070596096	59	5729
2026-01-08 12:34:03.51	333.77	9.44	-44.6	-47.7	22.3	6.04e-01	0	40	0	1075838976	60	5271
2026-01-08 12:34:06.73	334.00	9.17	-44.7	-47.8	22.3	6.02e-01	0	40	0	1082130432	60	5289
2026-01-08 12:34:09.74	334.21	8.92	-50.9	-71.1	3.9	7.48e-01	0	40	104	1086324736	72	38959
2026-01-08 12:34:12.75	334.41	8.67	-51.3	-71.9	3.9	7.44e-01	0	40	104	1086324736	73	40177
2026-01-08 12:34:15.77	334.61	8.42	-51.2	-72.0	3.8	7.48e-01	0	40	104	1086324736	72	43328
2026-01-08 12:34:18.78	334.81	8.18	-51.9	-72.1	3.8	7.44e-01	0	40	104	1086324736	74	38920
2026-01-08 12:34:21.79	335.01	7.94	-51.5	-72.1	3.8	7.45e-01	0	40	104	1086324736	74	39102
2026-01-08 12:34:24.80	335.20	7.70	-52.4	-72.2	3.8	7.47e-01	0	40	104	1086324736	75	36967
2026-01-08 12:34:27.82	335.39	7.46	-52.2	-72.1	3.8	7.49e-01	0	40	104	1086324736	75	36833
2026-01-08 12:34:30.83	335.57	7.23	-51.9	-72.1	3.8	7.46e-01	0	41	104	1086324736	75	36596
2026-01-08 12:34:33.84	335.75	7.00	-50.9	-72.1	3.8	7.46e-01	0	40	104	1086324736	73	41016
2026-01-08 12:34:36.85	335.93	6.77	-50.9	-72.0	3.8	7.50e-01	0	40	104	1086324736	73	40917
2026-01-08 12:34:39.86	336.11	6.54	-50.9	-72.0	3.8	7.48e-01	0	41	104	1086324736	73	40837
2026-01-08 12:34:42.88	336.28	6.31	-50.9	-72.0	3.8	7.47e-01	0	40	104	1086324736	73	40803
2026-01-08 12:34:45.89	336.45	6.09	-50.9	-72.0	3.8	7.48e-01	0	40	104	1086324736	73	40881
2026-01-08 12:34:48.90	336.62	5.87	-50.8	-72.0	3.8	7.46e-01	0	41	104	1086324736	73	40781
2026-01-08 12:34:51.91	336.79	5.65	-50.8	-72.0	3.8	7.47e-01	0	40	104	1086324736	73	40817
2026-01-08 12:34:54.93	336.95	5.43	-50.9	-72.0	3.8	7.43e-01	0	41	104	1086324736	73	40760
2026-01-08 12:34:57.94	337.11	5.21	-50.9	-72.0	3.8	7.47e-01	0	41	104	1086324736	73	40885
2026-01-08 12:35:00.95	337.27	5.00	-50.8	-72.0	3.8	7.47e-01	0	41	104	1086324736	73	40749

#Closed at: 2026-01-08 12:35:01
#Recorded file [1086 MB]: D:/Data/31040_260108_152358.dat