passes_logs/2026/01/08/T1/T1__20260108_020804_NOAA_20_JPSS-1_rec.log

#Pass ID: 20260108_020804_NOAA 20 (JPSS-1)
#Satellite: NOAA 20 (JPSS-1)
#Configuration: NOAA 20
#almurnet v.1.7.20251203
#Start time: 2026-01-08 02:08:05

#Version: 2.0.20230620
#Station: T1
#Location: 37.570604 lon 55.790049 lat
#TLE: 1 43013U 17073A   26007.85857786  .00000116  00000+0  75964-4 0  9990
#TLE: 2 43013  98.7630 308.8736 0001754  49.6212 310.5117 14.19534226421723

#Time	Az	El	Level	Level2	SNR	BER	BlckErr	Temp	State	Recorded	gain1	gain2
2026-01-08 02:08:05.83	1.84	5.08	-48.0	-66.1	3.8	1.49e+00	0	38	0	0	67	29225
2026-01-08 02:08:08.83	1.51	5.22	-49.3	-66.2	3.8	1.49e+00	0	39	104	0	69	26287
2026-01-08 02:08:11.85	1.16	5.37	-49.3	-66.2	3.8	1.49e+00	0	39	104	0	69	26274
2026-01-08 02:08:14.86	0.82	5.51	-49.3	-66.2	3.8	1.49e+00	0	39	104	0	69	26256
2026-01-08 02:08:17.87	0.47	5.66	-49.3	-66.2	3.8	1.49e+00	0	39	104	0	69	26195
2026-01-08 02:08:20.89	0.12	5.80	-49.3	-66.2	3.8	1.49e+00	0	39	104	0	69	26170
2026-01-08 02:08:23.90	359.76	5.95	-49.3	-66.2	3.8	1.49e+00	0	39	104	0	69	26258
2026-01-08 02:08:26.91	359.41	6.09	-49.3	-66.2	3.8	1.49e+00	0	39	104	0	69	26205
2026-01-08 02:08:29.93	359.04	6.23	-49.3	-66.2	3.8	1.49e+00	0	39	104	0	69	26240
2026-01-08 02:08:32.94	358.68	6.38	-49.3	-66.1	3.8	1.49e+00	0	39	104	0	69	26060
2026-01-08 02:08:35.95	358.31	6.52	-49.3	-66.1	3.8	1.49e+00	0	40	104	0	69	26119
2026-01-08 02:08:38.97	357.93	6.66	-49.3	-66.1	3.8	1.49e+00	0	40	104	0	69	26143
2026-01-08 02:08:41.98	357.56	6.80	-49.3	-66.1	3.8	1.49e+00	0	40	104	0	69	26113
2026-01-08 02:08:44.99	357.17	6.95	-49.3	-66.2	3.8	1.49e+00	0	40	104	0	69	26174
2026-01-08 02:08:48.01	356.79	7.09	-49.3	-66.2	3.8	1.49e+00	0	40	104	0	69	26161
2026-01-08 02:08:51.02	356.40	7.23	-49.3	-66.2	3.8	1.49e+00	0	40	104	0	69	26182
2026-01-08 02:08:54.03	356.01	7.37	-49.3	-66.1	3.8	1.49e+00	0	40	104	0	69	25970
2026-01-08 02:08:57.05	355.61	7.51	-49.3	-66.1	3.8	1.49e+00	0	40	104	0	69	26108
2026-01-08 02:09:00.06	355.21	7.65	-49.3	-66.1	3.8	1.49e+00	0	40	104	0	69	26131
2026-01-08 02:09:03.07	354.80	7.79	-49.3	-66.1	3.8	1.49e+00	0	40	104	0	69	25981
2026-01-08 02:09:06.08	354.40	7.93	-49.3	-65.9	3.8	1.49e+00	0	40	104	0	69	25309
2026-01-08 02:09:09.10	353.98	8.06	-49.2	-65.8	3.8	1.49e+00	0	40	104	0	69	25237
2026-01-08 02:09:12.11	353.57	8.20	-49.3	-66.0	3.8	1.49e+00	0	40	104	0	69	25705
2026-01-08 02:09:15.12	353.15	8.34	-49.3	-66.1	3.8	1.49e+00	0	40	104	0	69	26008
2026-01-08 02:09:18.13	352.72	8.47	-49.2	-65.2	3.8	1.49e+00	0	40	104	0	69	23378
2026-01-08 02:09:21.15	352.29	8.61	-49.2	-64.0	3.8	1.49e+00	0	40	104	0	69	20385
2026-01-08 02:09:24.16	351.86	8.74	-49.2	-63.5	3.9	1.48e+00	0	40	104	0	69	19333
2026-01-08 02:09:27.17	351.42	8.87	-49.0	-61.2	4.7	1.01e+00	0	41	0	1048576	69	14749
2026-01-08 02:09:30.18	350.98	9.01	-48.2	-55.8	8.9	4.06e-02	0	41	0	7340032	68	8450
2026-01-08 02:09:33.19	350.54	9.14	-48.5	-57.7	6.9	1.14e-01	0	41	0	12582912	67	11082
2026-01-08 02:09:36.16	350.10	9.26	-45.8	-49.7	15.1	6.10e-05	0	41	0	17825792	63	5531
2026-01-08 02:09:39.31	349.62	9.40	-45.4	-49.1	15.7	0.00e+00	0	41	0	24117248	62	5486
2026-01-08 02:09:42.31	349.17	9.53	-45.3	-48.8	16.0	0.00e+00	0	40	0	29360128	62	5316
2026-01-08 02:09:45.60	348.66	9.67	-45.1	-48.7	16.1	0.00e+00	0	41	0	35651584	62	5236
2026-01-08 02:09:48.44	348.22	9.78	-44.8	-48.7	16.0	0.00e+00	0	41	0	40894464	61	5542
2026-01-08 02:09:51.59	347.73	9.91	-44.5	-48.4	16.3	0.00e+00	0	41	0	47185920	61	5362
2026-01-08 02:09:55.11	347.18	10.06	-44.6	-48.4	16.4	0.00e+00	0	41	0	53477376	61	5377
2026-01-08 02:09:57.83	346.74	10.17	-44.4	-48.5	16.3	0.00e+00	0	41	0	58720256	60	5747
2026-01-08 02:10:01.12	346.22	10.30	-44.3	-48.3	16.4	0.00e+00	0	41	0	65011712	60	5617
2026-01-08 02:10:04.10	345.74	10.42	-44.5	-48.3	16.5	0.00e+00	0	41	0	70254592	60	5642
2026-01-08 02:10:07.21	345.23	10.54	-44.2	-48.1	16.6	0.00e+00	0	41	0	76546048	60	5512
2026-01-08 02:10:10.85	344.63	10.68	-44.1	-48.0	16.9	0.00e+00	0	41	0	82837504	60	5412
2026-01-08 02:10:13.59	344.18	10.78	-44.2	-47.8	17.0	0.00e+00	0	41	0	88080384	60	5285
2026-01-08 02:10:17.30	343.56	10.92	-44.8	-48.1	16.7	0.00e+00	0	41	0	95420416	60	5501
2026-01-08 02:10:20.12	343.08	11.02	-44.9	-48.1	16.7	0.00e+00	0	41	0	100663296	60	5515
2026-01-08 02:10:23.28	342.54	11.14	-44.8	-48.0	16.8	0.00e+00	0	41	0	106954752	60	5442
2026-01-08 02:10:26.17	342.05	11.24	-45.0	-48.3	16.6	0.00e+00	0	41	0	112197632	60	5607
2026-01-08 02:10:29.33	341.50	11.35	-45.1	-48.4	16.5	0.00e+00	0	41	0	117440512	60	5700
2026-01-08 02:10:32.24	341.00	11.45	-45.2	-48.5	16.4	0.00e+00	0	41	0	123731968	61	5408
2026-01-08 02:10:35.74	340.38	11.57	-45.4	-48.7	16.2	0.00e+00	0	41	0	130023424	61	5548
2026-01-08 02:10:38.47	339.90	11.66	-45.0	-48.3	16.5	0.00e+00	0	41	0	135266304	61	5336
2026-01-08 02:10:41.76	339.32	11.76	-44.8	-48.2	16.7	0.00e+00	0	41	0	141557760	61	5227
2026-01-08 02:10:44.48	338.83	11.85	-45.1	-48.2	16.7	0.00e+00	0	41	0	145752064	61	5243
2026-01-08 02:10:47.78	338.24	11.95	-44.9	-48.2	16.6	0.00e+00	0	41	0	152043520	61	5247
2026-01-08 02:10:50.73	337.70	12.04	-44.6	-48.2	16.7	0.00e+00	0	41	0	158334976	61	5221
2026-01-08 02:10:53.74	337.15	12.13	-44.8	-48.0	16.8	0.00e+00	0	41	0	163577856	61	5157
2026-01-08 02:10:56.78	336.60	12.22	-44.9	-48.1	16.8	0.00e+00	0	41	0	168820736	61	5172
2026-01-08 02:10:59.74	336.05	12.30	-44.8	-47.9	17.0	0.00e+00	0	41	0	175112192	61	5098
2026-01-08 02:11:02.89	335.47	12.38	-45.1	-47.9	16.9	0.00e+00	0	41	0	180355072	61	5098
2026-01-08 02:11:05.75	334.93	12.46	-45.1	-47.9	17.0	0.00e+00	0	41	0	185597952	61	5067
2026-01-08 02:11:08.90	334.34	12.54	-45.0	-47.9	17.0	0.00e+00	0	41	0	191889408	61	5084
2026-01-08 02:11:11.77	333.80	12.61	-44.9	-47.8	17.1	0.00e+00	0	41	0	197132288	61	5004
2026-01-08 02:11:15.31	333.13	12.69	-45.0	-47.9	17.1	0.00e+00	0	41	0	204472320	61	5043
2026-01-08 02:11:18.03	332.61	12.76	-44.9	-47.8	17.1	0.00e+00	0	41	0	208666624	61	5010
2026-01-08 02:11:21.32	331.98	12.83	-45.1	-47.9	17.0	0.00e+00	0	41	0	214958080	61	5073
2026-01-08 02:11:24.05	331.46	12.89	-45.3	-48.1	16.9	0.00e+00	0	41	0	220200960	61	5190
2026-01-08 02:11:27.34	330.82	12.95	-45.6	-48.6	16.4	0.00e+00	0	41	0	226492416	61	5495
2026-01-08 02:11:30.38	330.23	13.01	-45.7	-48.8	16.2	0.00e+00	0	41	0	232783872	62	5301
2026-01-08 02:11:33.31	329.66	13.06	-45.7	-48.7	16.4	0.00e+00	0	41	0	238026752	62	5221
2026-01-08 02:11:36.32	329.07	13.12	-45.5	-48.5	16.4	0.00e+00	0	41	0	243269632	62	5151
2026-01-08 02:11:39.25	328.50	13.16	-45.7	-48.8	16.2	0.00e+00	0	41	0	248512512	62	5306
2026-01-08 02:11:42.61	327.84	13.22	-45.7	-48.7	16.4	0.00e+00	0	41	0	254803968	62	5230
2026-01-08 02:11:45.33	327.30	13.25	-45.5	-48.6	16.5	0.00e+00	0	41	0	260046848	62	5168
2026-01-08 02:11:48.60	326.65	13.30	-45.4	-48.5	16.6	0.00e+00	0	41	0	266338304	62	5150
2026-01-08 02:11:51.65	326.05	13.34	-45.2	-48.5	16.7	0.00e+00	0	41	0	272629760	62	5112
2026-01-08 02:11:54.76	325.43	13.37	-45.1	-48.4	16.8	0.00e+00	0	41	0	277872640	62	5074
2026-01-08 02:11:57.86	324.81	13.40	-45.1	-48.2	16.9	0.00e+00	0	41	0	284164096	62	4961
2026-01-08 02:12:00.87	324.21	13.43	-45.2	-48.2	17.0	0.00e+00	0	41	0	289406976	62	4958
2026-01-08 02:12:03.88	323.60	13.46	-45.4	-48.3	16.9	0.00e+00	0	41	0	294649856	62	5008
2026-01-08 02:12:06.89	323.00	13.48	-45.7	-48.6	16.7	0.00e+00	0	41	0	300941312	62	5171
2026-01-08 02:12:09.85	322.40	13.50	-45.5	-48.3	16.9	0.00e+00	0	41	0	306184192	62	4987
2026-01-08 02:12:12.89	321.79	13.51	-45.3	-48.1	17.1	0.00e+00	0	41	0	312475648	62	4908
2026-01-08 02:12:15.89	321.19	13.52	-45.3	-48.2	17.1	0.00e+00	0	41	0	317718528	62	4976
2026-01-08 02:12:18.90	320.58	13.53	-45.5	-48.4	17.0	0.00e+00	0	41	0	322961408	62	5047
2026-01-08 02:12:21.91	319.98	13.54	-45.5	-48.3	17.0	0.00e+00	0	41	0	329252864	62	5008
2026-01-08 02:12:24.99	319.35	13.54	-45.4	-48.3	17.1	0.00e+00	0	41	0	334495744	62	5015
2026-01-08 02:12:27.88	318.77	13.54	-45.4	-48.3	17.0	0.00e+00	0	41	0	339738624	62	5041
2026-01-08 02:12:31.03	318.14	13.54	-45.4	-48.2	17.1	0.00e+00	0	42	0	346030080	62	4976
2026-01-08 02:12:33.90	317.56	13.53	-45.6	-48.3	17.0	0.00e+00	0	41	0	351272960	62	5036
2026-01-08 02:12:37.05	316.92	13.52	-45.7	-48.5	17.0	0.00e+00	0	41	0	357564416	62	5113
2026-01-08 02:12:39.90	316.35	13.51	-45.5	-48.4	17.1	0.00e+00	0	41	0	362807296	62	5054
2026-01-08 02:12:43.19	315.69	13.49	-45.6	-48.4	17.1	0.00e+00	0	42	0	369098752	62	5058
2026-01-08 02:12:45.92	315.14	13.47	-45.7	-48.4	17.1	0.00e+00	0	41	0	374341632	62	5053
2026-01-08 02:12:49.24	314.47	13.45	-46.0	-48.9	16.7	0.00e+00	0	41	0	380633088	62	5355
2026-01-08 02:12:52.34	313.85	13.42	-46.2	-49.3	16.3	0.00e+00	0	41	0	385875968	63	5307
2026-01-08 02:12:55.35	313.25	13.39	-46.3	-49.4	16.2	0.00e+00	0	41	0	391118848	63	5387
2026-01-08 02:12:58.36	312.65	13.36	-46.2	-49.2	16.4	0.00e+00	0	41	0	397410304	63	5237
2026-01-08 02:13:01.37	312.05	13.32	-46.4	-49.4	16.2	0.00e+00	0	41	0	402653184	63	5354
2026-01-08 02:13:04.40	311.45	13.28	-46.5	-49.4	16.2	0.00e+00	0	41	0	408944640	63	5395
2026-01-08 02:13:07.37	310.86	13.24	-46.5	-49.5	16.1	0.00e+00	0	41	0	414187520	63	5453
2026-01-08 02:13:10.51	310.24	13.20	-46.4	-49.4	16.3	0.00e+00	0	41	0	420478976	63	5359
2026-01-08 02:13:13.38	309.67	13.15	-46.4	-49.4	16.3	0.00e+00	0	41	0	425721856	63	5346
2026-01-08 02:13:16.53	309.06	13.10	-46.4	-49.4	16.2	0.00e+00	0	42	0	430964736	63	5400
2026-01-08 02:13:19.40	308.50	13.05	-46.4	-49.5	16.2	0.00e+00	0	41	0	436207616	63	5460
2026-01-08 02:13:22.55	307.88	12.99	-46.4	-49.4	16.3	0.00e+00	0	42	0	442499072	63	5345
2026-01-08 02:13:25.41	307.33	12.93	-46.4	-49.3	16.4	0.00e+00	0	42	0	447741952	63	5287
2026-01-08 02:13:28.57	306.72	12.87	-46.5	-49.4	16.3	0.00e+00	0	41	0	454033408	63	5400
2026-01-08 02:13:31.44	306.16	12.81	-46.7	-49.7	16.0	0.00e+00	0	42	0	459276288	64	5240
2026-01-08 02:13:34.58	305.56	12.74	-46.6	-49.5	16.2	0.00e+00	0	41	0	465567744	64	5148
2026-01-08 02:13:37.96	304.92	12.66	-46.5	-49.4	16.2	0.00e+00	0	41	0	471859200	64	5082
2026-01-08 02:13:40.68	304.40	12.59	-46.6	-49.6	16.2	0.00e+00	0	41	0	477102080	64	5162
2026-01-08 02:13:43.97	303.78	12.51	-46.7	-49.8	16.0	0.00e+00	0	41	0	482344960	64	5291
2026-01-08 02:13:46.70	303.27	12.44	-46.9	-49.9	15.8	0.00e+00	0	41	0	487587840	64	5397
2026-01-08 02:13:49.99	302.66	12.35	-46.9	-49.9	15.8	0.00e+00	0	41	0	493879296	64	5394
2026-01-08 02:13:53.06	302.09	12.27	-46.9	-49.9	16.0	0.00e+00	0	41	0	500170752	64	5366
2026-01-08 02:13:56.74	301.41	12.17	-46.7	-49.7	16.1	0.00e+00	0	41	0	506462208	64	5241
2026-01-08 02:13:59.50	300.90	12.09	-46.9	-50.0	15.9	0.00e+00	0	41	0	511705088	64	5415
2026-01-08 02:14:03.26	300.22	11.97	-47.3	-50.4	15.4	0.00e+00	0	41	0	519045120	65	5401
2026-01-08 02:14:06.00	299.72	11.89	-47.1	-50.2	15.7	0.00e+00	0	42	0	524288000	65	5226
2026-01-08 02:14:09.76	299.04	11.77	-46.8	-49.7	16.2	0.00e+00	0	42	0	531628032	65	4955
2026-01-08 02:14:12.56	298.55	11.68	-46.6	-49.5	16.4	0.00e+00	0	41	0	536870912	65	4822
2026-01-08 02:14:15.71	297.99	11.58	-46.7	-49.6	16.3	0.00e+00	0	41	0	542113792	65	4912
2026-01-08 02:14:18.60	297.48	11.48	-46.8	-49.8	16.2	0.00e+00	0	42	0	547356672	65	4998
2026-01-08 02:14:21.93	296.90	11.37	-46.8	-49.7	16.2	0.00e+00	0	42	0	553648128	65	4955
2026-01-08 02:14:24.68	296.42	11.27	-46.7	-49.6	16.3	0.00e+00	0	41	0	558891008	65	4894
2026-01-08 02:14:27.98	295.85	11.15	-46.6	-49.4	16.5	0.00e+00	0	42	0	565182464	65	4808
2026-01-08 02:14:30.70	295.39	11.06	-46.8	-49.6	16.3	0.00e+00	0	42	0	570425344	65	4910
2026-01-08 02:14:33.99	294.83	10.94	-46.9	-49.9	16.0	0.00e+00	0	42	0	576716800	65	5071
2026-01-08 02:14:36.72	294.37	10.83	-46.9	-49.8	16.2	0.00e+00	0	42	0	581959680	65	5019
2026-01-08 02:14:40.01	293.82	10.71	-46.8	-49.6	16.3	0.00e+00	0	42	0	588251136	65	4925
2026-01-08 02:14:42.73	293.37	10.61	-46.8	-49.6	16.4	0.00e+00	0	41	0	593494016	65	4920
2026-01-08 02:14:46.15	292.81	10.47	-46.9	-49.8	16.2	0.00e+00	0	42	0	599785472	65	4993
2026-01-08 02:14:48.88	292.36	10.37	-47.2	-50.2	15.8	0.00e+00	0	42	0	603979776	65	5238
2026-01-08 02:14:52.27	291.81	10.23	-47.4	-50.5	15.5	0.00e+00	0	42	0	611319808	65	5444
2026-01-08 02:14:55.27	291.33	10.11	-47.4	-50.5	15.5	0.00e+00	0	42	0	616562688	65	5439
2026-01-08 02:14:58.29	290.85	9.99	-47.4	-50.7	15.4	0.00e+00	0	42	0	621805568	65	5530
2026-01-08 02:15:01.25	290.39	9.87	-47.6	-50.9	15.2	0.00e+00	0	42	0	628097024	65	5678
2026-01-08 02:15:04.26	289.92	9.74	-48.0	-51.4	14.7	0.00e+00	0	42	0	633339904	66	5674
2026-01-08 02:15:07.27	289.45	9.62	-48.1	-51.7	14.5	0.00e+00	0	42	0	638582784	66	5864
2026-01-08 02:15:10.29	288.99	9.49	-48.2	-51.7	14.4	7.00e-07	0	42	0	644874240	67	5589
2026-01-08 02:15:13.36	288.52	9.36	-48.2	-51.8	14.3	0.00e+00	0	42	0	650117120	67	5619
2026-01-08 02:15:16.25	288.08	9.23	-48.2	-51.9	14.1	1.50e-06	0	42	0	655360000	67	5718
2026-01-08 02:15:19.61	287.58	9.09	-48.4	-52.3	13.9	4.50e-06	0	42	0	661651456	67	5925
2026-01-08 02:15:22.33	287.18	8.97	-52.5	-67.5	3.8	7.29e-01	0	42	104	666894336	75	21511
2026-01-08 02:15:25.63	286.69	8.82	-52.8	-68.0	3.8	1.49e+00	0	42	104	666894336	76	21514
2026-01-08 02:15:28.36	286.30	8.70	-52.7	-68.1	3.8	1.49e+00	0	42	104	666894336	76	21765
2026-01-08 02:15:31.80	285.80	8.55	-52.9	-68.1	3.8	1.49e+00	0	42	104	666894336	76	21871
2026-01-08 02:15:34.52	285.42	8.43	-52.9	-68.1	3.8	1.49e+00	0	41	104	666894336	76	21951
2026-01-08 02:15:37.83	284.95	8.28	-52.9	-68.1	3.8	1.49e+00	0	42	104	666894336	76	21978
2026-01-08 02:15:40.55	284.57	8.15	-52.8	-68.1	3.8	1.49e+00	0	42	104	666894336	76	21888
2026-01-08 02:15:43.85	284.11	8.00	-52.5	-68.1	3.8	1.49e+00	0	42	104	666894336	76	21818
2026-01-08 02:15:46.58	283.73	7.88	-52.5	-68.0	3.8	1.49e+00	0	42	104	666894336	76	21712
2026-01-08 02:15:49.88	283.29	7.73	-52.5	-68.1	3.8	1.49e+00	0	42	104	666894336	76	21808
2026-01-08 02:15:52.60	282.92	7.60	-52.5	-68.1	3.8	1.49e+00	0	42	104	666894336	76	21788
2026-01-08 02:15:55.90	282.48	7.45	-52.5	-68.0	3.8	1.49e+00	0	42	104	666894336	76	21700
2026-01-08 02:15:58.63	282.12	7.32	-52.5	-68.0	3.8	1.49e+00	0	42	104	666894336	76	21705
2026-01-08 02:16:01.93	281.69	7.17	-52.5	-68.1	3.8	1.49e+00	0	41	104	666894336	76	21794
2026-01-08 02:16:04.66	281.33	7.04	-52.5	-68.1	3.8	1.49e+00	0	42	104	666894336	76	21779
2026-01-08 02:16:07.96	280.91	6.88	-52.5	-68.1	3.8	1.49e+00	0	42	104	666894336	76	21793
2026-01-08 02:16:10.68	280.57	6.75	-52.5	-68.0	3.8	1.49e+00	0	42	104	666894336	76	21705
2026-01-08 02:16:13.98	280.15	6.60	-52.5	-68.0	3.8	1.49e+00	0	42	104	666894336	76	21704
2026-01-08 02:16:16.71	279.81	6.47	-52.5	-68.0	3.8	1.49e+00	0	42	104	666894336	76	21725
2026-01-08 02:16:20.01	279.40	6.31	-52.5	-68.0	3.8	1.49e+00	0	42	104	666894336	76	21710
2026-01-08 02:16:22.74	279.07	6.18	-52.5	-68.0	3.8	1.49e+00	0	42	104	666894336	76	21733
2026-01-08 02:16:26.04	278.67	6.02	-52.5	-68.0	3.8	1.49e+00	0	42	104	666894336	76	21753
2026-01-08 02:16:28.76	278.35	5.89	-52.5	-68.1	3.8	1.49e+00	0	42	104	666894336	76	21764
2026-01-08 02:16:32.06	277.96	5.74	-52.5	-68.0	3.8	1.49e+00	0	42	104	666894336	76	21716
2026-01-08 02:16:34.81	277.64	5.60	-52.5	-68.0	3.8	1.49e+00	0	42	104	666894336	76	21752
2026-01-08 02:16:38.11	277.25	5.44	-52.5	-68.1	3.8	1.49e+00	0	42	104	666894336	76	21815
2026-01-08 02:16:40.83	276.94	5.31	-52.5	-68.1	3.8	1.49e+00	0	42	104	666894336	76	21804
2026-01-08 02:16:44.13	276.57	5.15	-52.5	-68.0	3.8	1.49e+00	0	42	104	666894336	76	21732
2026-01-08 02:16:46.86	276.26	5.02	-52.5	-68.0	3.8	1.49e+00	0	42	104	666894336	76	21746

#Closed at: 2026-01-08 02:16:48
#Recorded file [666 MB]: D:/Data/31040_260108_050805.dat