passes_logs/2026/01/08/T1/T1__20260108_095651_SUOMI_NPP_rec.log

#Pass ID: 20260108_095651_SUOMI NPP
#Satellite: SUOMI NPP
#Configuration: NPP
#almurnet v.1.7.20251203
#Start time: 2026-01-08 09:56:51

#Version: 2.0.20230620
#Station: T1
#Location: 37.570604 lon 55.790049 lat
#TLE: 1 37849U 11061A   26005.94084933  .00000134  00000+0  84554-4 0  9990
#TLE: 2 37849  98.7803 308.0679 0002567  79.1029 281.0436 14.19522657735426

#Time	Az	El	Level	Level2	SNR	BER	BlckErr	Temp	State	Recorded	gain1	gain2
2026-01-08 09:56:51.98	158.64	5.02	-50.0	-65.3	3.8	1.49e+00	0	39	0	0	71	21222
2026-01-08 09:56:55.99	158.64	5.31	-49.9	-65.0	3.8	1.49e+00	0	40	104	0	71	20493
2026-01-08 09:57:00.01	158.63	5.61	-49.8	-65.2	3.8	1.49e+00	0	40	104	0	71	20892
2026-01-08 09:57:04.02	158.63	5.90	-49.9	-64.9	3.8	1.49e+00	0	40	104	0	71	20206
2026-01-08 09:57:08.04	158.62	6.20	-49.8	-64.3	3.8	1.49e+00	0	40	104	0	71	18821
2026-01-08 09:57:12.06	158.61	6.51	-49.8	-64.1	3.8	1.49e+00	0	40	104	0	71	18459
2026-01-08 09:57:16.08	158.61	6.81	-49.8	-64.6	3.8	1.49e+00	0	40	104	0	71	19550
2026-01-08 09:57:20.09	158.60	7.12	-49.8	-64.2	3.8	1.49e+00	0	40	104	0	71	18536
2026-01-08 09:57:24.11	158.59	7.44	-49.6	-61.7	4.2	1.47e+00	0	40	0	0	71	13917
2026-01-08 09:57:28.12	158.59	7.76	-49.1	-57.7	6.3	3.67e-01	0	41	0	6291456	70	9348
2026-01-08 09:57:32.14	158.58	8.08	-48.6	-55.7	8.1	8.78e-02	0	41	0	13631488	69	7865
2026-01-08 09:57:36.16	158.57	8.41	-48.4	-55.1	8.7	3.22e-02	0	41	0	20971520	68	7769
2026-01-08 09:57:40.18	158.56	8.74	-49.0	-57.5	6.4	2.20e-01	0	41	0	28311552	68	10247
2026-01-08 09:57:44.19	158.55	9.08	-49.6	-62.3	3.9	1.40e+00	0	41	104	34603008	69	16808
2026-01-08 09:57:48.27	158.54	9.42	-47.5	-52.4	11.5	4.17e-03	0	41	0	37748736	66	6386
2026-01-08 09:57:52.52	158.53	9.79	-48.5	-54.7	9.3	1.10e-02	0	41	0	41943040	68	7435
2026-01-08 09:57:56.53	158.52	10.14	-47.6	-52.8	11.0	1.11e-03	0	41	0	49283072	66	6679
2026-01-08 09:58:00.54	158.51	10.49	-47.4	-52.3	11.6	2.41e-02	0	41	0	56623104	66	6321
2026-01-08 09:58:04.63	158.50	10.86	-47.1	-51.7	12.2	2.25e-04	0	41	0	65011712	66	5918
2026-01-08 09:58:08.96	158.49	11.26	-47.1	-51.7	12.1	1.62e-02	0	41	0	72351744	65	6265
2026-01-08 09:58:13.01	158.47	11.63	-46.4	-50.3	13.7	1.52e-05	0	41	0	80740352	64	5618
2026-01-08 09:58:17.05	158.46	12.01	-46.1	-49.7	14.3	0.00e+00	0	41	0	88080384	63	5569
2026-01-08 09:58:20.98	158.44	12.39	-45.3	-48.5	15.6	0.00e+00	0	42	0	95420416	62	5104
2026-01-08 09:58:25.02	158.43	12.78	-44.8	-47.7	16.3	0.00e+00	0	42	0	102760448	61	4954
2026-01-08 09:58:29.10	158.41	13.19	-44.6	-47.5	16.5	1.79e-02	0	42	0	110100480	61	4834
2026-01-08 09:58:33.21	158.40	13.60	-44.7	-47.6	16.4	0.00e+00	0	42	0	118489088	61	4898
2026-01-08 09:58:37.22	158.38	14.01	-44.7	-47.6	16.4	0.00e+00	0	42	0	125829120	61	4910
2026-01-08 09:58:41.23	158.36	14.42	-44.6	-47.4	16.6	0.00e+00	0	42	0	133169152	61	4810
2026-01-08 09:58:45.26	158.34	14.85	-44.4	-47.1	16.9	0.00e+00	0	42	0	140509184	60	4917
2026-01-08 09:58:49.65	158.32	15.32	-44.1	-46.8	17.2	0.00e+00	0	42	0	148897792	59	5002
2026-01-08 09:58:53.73	158.30	15.77	-43.9	-46.6	17.3	0.00e+00	0	42	0	157286400	59	4915
2026-01-08 09:58:57.74	158.28	16.22	-43.8	-46.5	17.5	0.00e+00	0	42	0	164626432	59	4820
2026-01-08 09:59:01.76	158.26	16.68	-43.7	-46.3	17.6	0.00e+00	0	42	0	171966464	59	4745
2026-01-08 09:59:06.20	158.23	17.20	-43.7	-46.3	17.7	0.00e+00	0	42	0	180355072	59	4716
2026-01-08 09:59:10.21	158.21	17.67	-43.7	-46.2	17.7	0.00e+00	0	42	0	187695104	59	4705
2026-01-08 09:59:14.26	158.18	18.16	-43.7	-46.2	17.7	0.00e+00	0	42	0	195035136	59	4699
2026-01-08 09:59:18.27	158.15	18.66	-43.5	-45.9	18.0	5.79e-05	0	42	0	202375168	58	4807
2026-01-08 09:59:22.29	158.13	19.16	-43.4	-45.9	18.1	0.00e+00	0	42	0	210763776	58	4761
2026-01-08 09:59:26.30	158.10	19.68	-43.7	-46.2	17.8	0.00e+00	0	42	0	218103808	58	4963
2026-01-08 09:59:30.56	158.06	20.24	-44.1	-46.8	17.3	0.00e+00	0	42	0	225443840	58	5280
2026-01-08 09:59:34.58	158.03	20.78	-44.1	-46.8	17.3	0.00e+00	0	42	0	233832448	59	5018
2026-01-08 09:59:38.59	157.99	21.33	-44.2	-46.9	17.2	0.00e+00	0	42	0	241172480	59	5057
2026-01-08 09:59:42.60	157.96	21.89	-44.1	-46.8	17.3	0.00e+00	0	42	0	248512512	59	5004
2026-01-08 09:59:46.62	157.92	22.47	-44.5	-47.2	16.9	0.00e+00	0	42	0	255852544	59	5275
2026-01-08 09:59:50.64	157.88	23.06	-44.1	-46.6	17.4	0.00e+00	0	42	0	263192576	59	4925
2026-01-08 09:59:54.62	157.84	23.66	-43.9	-46.5	17.6	0.00e+00	0	42	0	270532608	59	4830
2026-01-08 09:59:58.66	157.80	24.28	-43.8	-46.4	17.7	0.00e+00	0	42	0	278921216	59	4761
2026-01-08 10:00:03.04	157.75	24.97	-44.0	-46.6	17.5	0.00e+00	0	42	0	286261248	59	4892
2026-01-08 10:00:07.20	157.69	25.64	-43.7	-46.2	17.8	0.00e+00	0	42	0	294649856	59	4693
2026-01-08 10:00:11.21	157.64	26.31	-43.5	-45.9	18.1	0.00e+00	0	42	0	301989888	58	4770
2026-01-08 10:00:15.48	157.59	27.04	-43.9	-46.4	17.6	0.00e+00	0	42	0	310378496	58	5075
2026-01-08 10:00:19.49	157.53	27.74	-44.4	-47.2	16.9	0.00e+00	0	42	0	317718528	59	5244
2026-01-08 10:00:23.57	157.47	28.47	-44.3	-47.0	17.1	0.00e+00	0	42	0	325058560	59	5148
2026-01-08 10:00:27.68	157.40	29.23	-44.7	-47.6	16.7	0.00e+00	0	42	0	332398592	60	5167
2026-01-08 10:00:32.28	157.32	30.10	-45.0	-48.1	16.2	0.00e+00	0	42	0	341835776	61	5182
2026-01-08 10:00:36.32	157.25	30.89	-45.1	-48.3	16.0	0.00e+00	0	42	0	349175808	61	5289
2026-01-08 10:00:40.59	157.17	31.75	-46.4	-50.1	14.3	1.50e-06	0	42	0	357564416	63	5805
2026-01-08 10:00:44.60	157.09	32.58	-47.0	-51.0	13.3	3.28e-05	0	42	0	364904448	65	5775
2026-01-08 10:00:48.61	157.00	33.43	-46.9	-50.9	13.4	1.44e-05	0	42	0	372244480	65	5716
2026-01-08 10:00:52.67	156.91	34.32	-46.3	-49.9	14.4	7.00e-07	0	42	0	379584512	64	5363
2026-01-08 10:00:56.75	156.81	35.23	-44.7	-47.5	16.8	0.00e+00	0	42	0	387973120	61	4834
2026-01-08 10:01:00.76	156.71	36.16	-44.0	-46.6	17.6	0.00e+00	0	42	0	395313152	59	4882
2026-01-08 10:01:04.77	156.60	37.12	-43.0	-45.4	18.7	0.00e+00	0	42	0	402653184	58	4497
2026-01-08 10:01:08.82	156.48	38.11	-42.5	-44.7	19.2	0.00e+00	0	42	0	409993216	56	4671
2026-01-08 10:01:12.87	156.35	39.14	-43.3	-45.6	18.4	0.00e+00	0	42	0	417333248	57	4917
2026-01-08 10:01:16.88	156.22	40.19	-43.2	-45.5	18.5	0.00e+00	0	42	0	425721856	57	4832
2026-01-08 10:01:20.89	156.07	41.26	-43.6	-46.0	18.1	0.00e+00	0	42	0	433061888	57	5110
2026-01-08 10:01:24.90	155.92	42.37	-44.5	-47.1	17.2	0.00e+00	0	42	0	440401920	59	5181
2026-01-08 10:01:28.92	155.75	43.52	-44.3	-46.9	17.3	0.00e+00	0	42	0	447741952	59	5058
2026-01-08 10:01:32.96	155.56	44.71	-44.9	-47.7	16.6	0.00e+00	0	42	0	455081984	61	4951
2026-01-08 10:01:36.97	155.37	45.92	-44.8	-47.5	16.8	0.00e+00	0	42	0	462422016	60	5132
2026-01-08 10:01:40.98	155.15	47.17	-46.7	-50.4	14.0	7.00e-07	0	42	0	470810624	64	5661
2026-01-08 10:01:45.25	154.90	48.55	-45.5	-48.6	15.8	0.00e+00	0	42	0	478150656	62	5161
2026-01-08 10:01:49.26	154.64	49.88	-44.3	-46.9	17.3	0.00e+00	0	42	0	485490688	60	4796
2026-01-08 10:01:53.40	154.35	51.29	-43.6	-46.1	18.1	0.00e+00	0	42	0	493879296	58	4874
2026-01-08 10:01:57.40	154.04	52.70	-43.9	-46.4	17.7	0.00e+00	0	42	0	501219328	59	4800
2026-01-08 10:02:01.61	153.68	54.22	-43.6	-46.0	18.1	0.00e+00	0	42	0	508559360	59	4551
2026-01-08 10:02:05.63	153.29	55.72	-44.1	-46.6	17.6	0.00e+00	0	42	0	516947968	58	5204
2026-01-08 10:02:09.58	152.87	57.23	-44.6	-47.3	16.9	0.00e+00	0	43	0	524288000	59	5300
2026-01-08 10:02:13.70	152.37	58.85	-45.5	-48.5	15.9	0.00e+00	0	42	0	531628032	62	5139
2026-01-08 10:02:17.71	151.82	60.47	-45.2	-48.1	16.2	0.00e+00	0	42	0	538968064	62	4914
2026-01-08 10:02:21.75	151.19	62.13	-44.5	-47.2	17.1	0.00e+00	0	42	0	546308096	61	4680
2026-01-08 10:02:25.96	150.43	63.91	-42.3	-44.5	19.4	0.00e+00	0	42	0	554696704	56	4585
2026-01-08 10:02:29.97	149.59	65.64	-43.4	-45.8	18.4	0.00e+00	0	42	0	562036736	57	5009
2026-01-08 10:02:34.07	148.57	67.44	-45.6	-48.6	15.7	0.00e+00	0	42	0	569376768	62	5201
2026-01-08 10:02:38.26	147.33	69.32	-45.7	-48.9	15.4	0.00e+00	0	42	0	577765376	63	5074
2026-01-08 10:02:42.27	145.89	71.14	-45.3	-48.4	16.0	0.00e+00	0	43	0	585105408	62	5070
2026-01-08 10:02:46.28	144.11	72.97	-42.6	-44.9	19.0	0.00e+00	0	42	0	592445440	56	4800
2026-01-08 10:02:50.29	141.87	74.82	-45.0	-48.0	16.3	0.00e+00	0	42	0	600834048	60	5409
2026-01-08 10:02:54.48	138.84	76.74	-46.6	-50.5	13.7	7.00e-07	0	42	0	608174080	63	6114
2026-01-08 10:02:58.55	134.87	78.59	-46.8	-51.1	13.2	1.67e-05	0	42	0	615514112	64	6167
2026-01-08 10:03:02.57	129.45	80.36	-45.7	-49.3	15.1	0.00e+00	0	42	0	622854144	62	5596
2026-01-08 10:03:06.58	121.64	82.02	-42.5	-44.9	18.9	0.00e+00	0	42	0	631242752	56	4809
2026-01-08 10:03:10.60	110.00	83.47	-42.8	-45.3	18.6	0.00e+00	0	42	0	638582784	56	4994
2026-01-08 10:03:14.77	92.12	84.54	-42.5	-44.9	19.0	0.00e+00	0	42	0	645922816	56	4803
2026-01-08 10:03:19.18	67.55	84.89	-43.1	-45.6	18.4	0.00e+00	0	42	0	654311424	57	4871
2026-01-08 10:03:23.23	45.88	84.36	-44.1	-46.8	17.4	0.00e+00	0	42	0	661651456	59	4989
2026-01-08 10:03:27.24	29.92	83.22	-43.7	-46.2	17.8	0.00e+00	0	42	0	670040064	58	4978
2026-01-08 10:03:31.26	19.13	81.72	-45.3	-48.5	15.8	0.00e+00	0	43	0	677380096	62	5143
2026-01-08 10:03:35.36	11.74	80.00	-46.1	-49.7	14.6	0.00e+00	0	42	0	684720128	62	5875
2026-01-08 10:03:39.38	6.68	78.22	-46.5	-50.8	13.2	2.48e-04	0	42	0	692060160	65	5597
2026-01-08 10:03:43.39	3.01	76.39	-44.9	-47.9	16.3	0.00e+00	0	43	0	699400192	62	4812
2026-01-08 10:03:47.46	0.21	74.52	-44.3	-46.9	17.3	0.00e+00	0	42	0	707788800	59	5094
2026-01-08 10:03:51.47	358.06	72.68	-42.7	-45.0	18.8	0.00e+00	0	43	0	715128832	57	4569
2026-01-08 10:03:55.61	356.29	70.79	-45.9	-49.3	15.2	0.00e+00	0	42	0	722468864	62	5627
2026-01-08 10:03:59.71	354.88	68.94	-44.3	-46.9	17.3	0.00e+00	0	42	0	730857472	60	4812
2026-01-08 10:04:03.93	353.68	67.07	-44.8	-47.9	16.4	0.00e+00	0	42	0	738197504	61	5052
2026-01-08 10:04:07.99	352.71	65.29	-45.1	-48.4	15.7	0.00e+00	0	42	0	745537536	61	5398
2026-01-08 10:04:12.00	351.89	63.58	-45.8	-49.6	14.8	0.00e+00	0	43	0	753926144	62	5821
2026-01-08 10:04:16.01	351.19	61.89	-42.8	-45.2	18.7	0.00e+00	0	42	0	761266176	57	4684
2026-01-08 10:04:20.02	350.58	60.25	-42.8	-45.1	18.9	0.00e+00	0	43	0	768606208	56	4902
2026-01-08 10:04:24.12	350.03	58.61	-43.1	-45.5	18.6	0.00e+00	0	42	0	775946240	56	5148
2026-01-08 10:04:28.13	349.56	57.05	-43.3	-45.8	18.2	0.00e+00	0	42	0	784334848	58	4749
2026-01-08 10:04:32.17	349.13	55.51	-43.3	-46.0	18.0	0.00e+00	0	42	0	791674880	58	4818
2026-01-08 10:04:36.23	348.75	54.01	-43.4	-46.1	18.0	0.00e+00	0	42	0	799014912	57	5168
2026-01-08 10:04:40.24	348.41	52.57	-43.8	-46.6	17.7	0.00e+00	0	42	0	806354944	58	5184
2026-01-08 10:04:44.25	348.11	51.17	-46.0	-50.1	14.2	0.00e+00	0	42	0	813694976	62	6169
2026-01-08 10:04:48.37	347.82	49.77	-45.7	-49.3	14.9	0.00e+00	0	43	0	822083584	62	5629
2026-01-08 10:04:52.46	347.56	48.43	-47.6	-53.4	10.8	1.13e-03	0	43	0	829423616	65	7597
2026-01-08 10:04:56.47	347.33	47.14	-43.6	-46.2	17.9	0.00e+00	0	43	0	836763648	59	4663
2026-01-08 10:05:00.61	347.11	45.86	-45.7	-49.3	15.2	0.00e+00	0	43	0	845152256	61	5929
2026-01-08 10:05:04.99	346.90	44.55	-46.9	-51.8	12.6	1.08e-03	0	43	0	852492288	65	6302
2026-01-08 10:05:09.00	346.72	43.38	-44.6	-47.6	16.7	0.00e+00	0	43	0	860880896	59	5490
2026-01-08 10:05:13.03	346.56	42.24	-47.0	-52.0	12.3	1.90e-05	0	43	0	868220928	64	6864
2026-01-08 10:05:17.25	346.40	41.08	-46.7	-51.5	12.7	1.33e-03	0	43	0	875560960	65	6128
2026-01-08 10:05:21.56	346.25	39.94	-43.4	-46.0	18.0	0.00e+00	0	43	0	883949568	58	4870
2026-01-08 10:05:25.91	346.11	38.82	-46.3	-50.6	13.7	0.00e+00	0	42	0	892338176	63	6179
2026-01-08 10:05:30.61	345.97	37.65	-46.2	-50.8	13.3	1.52e-05	0	43	0	900726784	63	6294
2026-01-08 10:05:34.97	345.84	36.61	-45.2	-48.7	15.5	0.00e+00	0	43	0	909115392	62	5239
2026-01-08 10:05:39.45	345.73	35.56	-44.6	-47.8	16.3	0.00e+00	0	43	0	917504000	60	5337
2026-01-08 10:05:43.84	345.62	34.57	-46.8	-51.9	12.3	9.68e-05	0	43	0	925892608	64	6751
2026-01-08 10:05:47.99	345.53	33.66	-47.4	-53.7	10.4	5.62e-03	0	43	0	933232640	66	7448
2026-01-08 10:05:52.01	345.45	32.81	-45.4	-49.2	15.1	0.00e+00	0	43	0	940572672	62	5575
2026-01-08 10:05:56.02	345.37	31.98	-45.8	-49.5	14.8	0.00e+00	0	43	0	948961280	62	5783
2026-01-08 10:06:00.03	345.29	31.17	-45.2	-48.6	15.7	0.00e+00	0	43	0	956301312	62	5177
2026-01-08 10:06:04.11	345.22	30.38	-46.1	-49.8	14.5	0.00e+00	0	42	0	963641344	62	5974
2026-01-08 10:06:08.12	345.15	29.61	-47.0	-52.2	12.2	1.63e-04	0	42	0	970981376	64	6978
2026-01-08 10:06:12.14	345.09	28.87	-46.1	-50.6	13.7	3.80e-06	0	43	0	978321408	64	5801
2026-01-08 10:06:16.22	345.03	28.13	-44.8	-47.8	16.4	0.00e+00	0	43	0	986710016	61	5029
2026-01-08 10:06:20.36	344.97	27.40	-43.9	-46.7	17.4	0.00e+00	0	43	0	994050048	59	4963
2026-01-08 10:06:24.52	344.92	26.69	-43.9	-46.6	17.5	0.00e+00	0	43	0	1002438656	59	4923
2026-01-08 10:06:28.53	344.87	26.02	-44.2	-47.1	17.1	0.00e+00	0	42	0	1009778688	59	5165
2026-01-08 10:06:32.53	344.82	25.37	-44.8	-48.0	16.2	0.00e+00	0	43	0	1017118720	60	5450
2026-01-08 10:06:36.55	344.77	24.73	-45.3	-48.9	15.4	0.00e+00	0	43	0	1024458752	61	5693
2026-01-08 10:06:40.57	344.73	24.11	-44.4	-47.5	16.7	0.00e+00	0	43	0	1031798784	60	5115
2026-01-08 10:06:44.58	344.69	23.50	-43.8	-46.5	17.5	0.00e+00	0	43	0	1040187392	59	4868
2026-01-08 10:06:48.59	344.65	22.91	-43.6	-46.6	17.4	0.00e+00	0	43	0	1047527424	58	5182
2026-01-08 10:06:52.60	344.62	22.33	-42.8	-45.6	18.4	0.00e+00	0	43	0	1054867456	57	4889
2026-01-08 10:06:56.88	344.58	21.72	-42.6	-45.1	18.8	0.00e+00	0	42	0	1062207488	56	4894
2026-01-08 10:07:00.90	344.55	21.17	-42.4	-44.8	19.0	0.00e+00	0	42	0	1070596096	56	4708
2026-01-08 10:07:04.99	344.52	20.61	-43.3	-46.0	18.0	0.00e+00	0	43	0	1077936128	57	5106
2026-01-08 10:07:09.25	344.49	20.05	-43.9	-46.8	17.2	0.00e+00	0	43	0	1086324736	58	5330
2026-01-08 10:07:13.35	344.46	19.52	-44.3	-47.4	16.7	0.00e+00	0	43	0	1093664768	59	5387
2026-01-08 10:07:17.36	344.43	19.01	-44.9	-48.3	15.9	0.00e+00	0	43	0	1101004800	60	5614
2026-01-08 10:07:21.38	344.41	18.51	-44.8	-48.4	15.8	0.00e+00	0	43	0	1108344832	60	5718
2026-01-08 10:07:25.39	344.39	18.03	-44.9	-48.7	15.5	0.00e+00	0	43	0	1115684864	60	5884
2026-01-08 10:07:29.40	344.36	17.55	-45.0	-48.4	15.7	0.00e+00	0	43	0	1124073472	60	5710
2026-01-08 10:07:33.42	344.34	17.08	-44.6	-47.9	16.2	0.00e+00	0	43	0	1131413504	60	5389
2026-01-08 10:07:37.44	344.32	16.62	-44.3	-48.0	16.1	0.00e+00	0	43	0	1138753536	60	5444
2026-01-08 10:07:41.44	344.30	16.17	-44.4	-48.1	15.9	0.00e+00	0	42	0	1146093568	59	5841
2026-01-08 10:07:45.46	344.29	15.72	-44.5	-48.2	15.9	0.00e+00	0	43	0	1153433600	60	5565
2026-01-08 10:07:49.75	344.27	15.26	-45.0	-48.7	15.4	0.00e+00	0	43	0	1161822208	60	5903
2026-01-08 10:07:53.87	344.25	14.82	-45.0	-49.1	15.0	0.00e+00	0	43	0	1169162240	60	6159
2026-01-08 10:07:57.89	344.24	14.40	-44.8	-49.0	15.2	0.00e+00	0	43	0	1177550848	60	6090
2026-01-08 10:08:01.90	344.22	13.99	-45.0	-49.1	15.0	7.00e-07	0	42	0	1184890880	60	6200
2026-01-08 10:08:06.02	344.21	13.57	-44.9	-48.8	15.3	0.00e+00	0	43	0	1192230912	60	5964
2026-01-08 10:08:10.03	344.20	13.17	-44.9	-48.5	15.6	0.00e+00	0	43	0	1199570944	61	5442
2026-01-08 10:08:14.04	344.19	12.78	-44.7	-48.2	15.8	0.00e+00	0	43	0	1206910976	61	5270
2026-01-08 10:08:18.05	344.18	12.39	-44.5	-48.0	16.0	0.00e+00	0	43	0	1215299584	60	5454
2026-01-08 10:08:22.06	344.17	12.01	-44.4	-47.9	16.1	0.00e+00	0	43	0	1222639616	60	5387
2026-01-08 10:08:26.07	344.16	11.64	-44.4	-47.8	16.2	0.00e+00	0	43	0	1229979648	60	5299
2026-01-08 10:08:30.16	344.15	11.26	-44.3	-47.8	16.2	0.00e+00	0	43	0	1237319680	60	5331
2026-01-08 10:08:34.15	344.14	10.90	-44.1	-47.8	16.2	0.00e+00	0	43	0	1244659712	60	5284
2026-01-08 10:08:38.30	344.13	10.53	-44.0	-47.9	16.0	0.00e+00	0	43	0	1253048320	59	5681
2026-01-08 10:08:42.70	344.12	10.15	-43.8	-47.9	16.1	7.00e-07	0	43	0	1261436928	59	5670
2026-01-08 10:08:46.71	344.12	9.80	-43.6	-47.5	16.3	6.80e-06	0	43	0	1268776960	59	5464
2026-01-08 10:08:51.07	344.11	9.43	-43.7	-47.6	16.2	0.00e+00	0	43	0	1277165568	59	5518
2026-01-08 10:08:55.33	344.11	9.07	-43.9	-47.7	16.1	0.00e+00	0	43	0	1284505600	59	5581
2026-01-08 10:08:59.75	344.10	8.71	-50.1	-65.7	3.8	1.49e+00	0	43	104	1287651328	70	23480
2026-01-08 10:09:04.06	344.10	8.35	-49.8	-66.0	3.8	1.49e+00	0	43	104	1287651328	71	22839
2026-01-08 10:09:08.55	344.09	7.99	-50.7	-66.0	3.8	1.49e+00	0	43	104	1287651328	72	21539
2026-01-08 10:09:13.32	344.09	7.61	-50.8	-66.0	3.8	1.49e+00	0	43	104	1287651328	72	21665
2026-01-08 10:09:17.33	344.09	7.30	-50.8	-66.0	3.8	1.49e+00	0	43	104	1287651328	72	21698
2026-01-08 10:09:21.41	344.08	6.99	-50.6	-66.0	3.8	1.49e+00	0	43	104	1287651328	72	21529
2026-01-08 10:09:25.56	344.08	6.67	-50.3	-66.0	3.8	1.49e+00	0	43	104	1287651328	72	21648
2026-01-08 10:09:29.58	344.08	6.37	-50.3	-66.0	3.8	1.49e+00	0	43	104	1287651328	72	21526
2026-01-08 10:09:33.59	344.08	6.07	-50.3	-66.0	3.8	1.49e+00	0	43	104	1287651328	72	21630
2026-01-08 10:09:37.61	344.08	5.77	-50.3	-66.0	3.8	1.49e+00	0	43	104	1287651328	72	21523
2026-01-08 10:09:41.63	344.08	5.48	-50.3	-65.9	3.8	1.49e+00	0	43	104	1287651328	72	21453
2026-01-08 10:09:45.64	344.08	5.19	-50.3	-65.9	3.8	1.49e+00	0	43	104	1287651328	72	21432

#Closed at: 2026-01-08 10:09:49
#Recorded file [1287 MB]: D:/Data/31040_260108_125651.dat