passes_logs/2026/01/08/T1/T1__20260108_092725_NOAA_21_JPSS-2_rec.log

#Pass ID: 20260108_092725_NOAA 21 (JPSS-2)
#Satellite: NOAA 21 (JPSS-2)
#Configuration: NOAA 21
#almurnet v.1.7.20251203
#Start time: 2026-01-08 09:27:26

#Version: 2.0.20230620
#Station: T1
#Location: 37.570604 lon 55.790049 lat
#TLE: 1 54234U 22150A   26005.56767909  .00000152  00000+0  92756-4 0  9990
#TLE: 2 54234  98.7490 306.5820 0001036 340.2747  19.8389 14.19532370163472

#Time	Az	El	Level	Level2	SNR	BER	BlckErr	Temp	State	Recorded	gain1	gain2
2026-01-08 09:27:26.40	145.60	5.04	-49.6	-62.6	3.8	1.49e+00	0	36	0	0	71	15547
2026-01-08 09:27:29.40	145.53	5.26	-49.6	-62.4	3.8	1.49e+00	0	37	104	0	71	15152
2026-01-08 09:27:32.41	145.45	5.47	-49.6	-62.5	3.8	1.49e+00	0	37	104	0	71	15364
2026-01-08 09:27:35.43	145.38	5.69	-49.6	-62.4	3.8	1.49e+00	0	37	104	0	71	15216
2026-01-08 09:27:38.44	145.30	5.91	-49.6	-62.1	3.8	1.49e+00	0	37	104	0	71	14695
2026-01-08 09:27:41.45	145.23	6.13	-49.6	-61.9	3.8	1.49e+00	0	37	104	0	71	14268
2026-01-08 09:27:44.47	145.15	6.36	-49.6	-62.2	3.8	1.49e+00	0	37	104	0	71	14869
2026-01-08 09:27:47.48	145.07	6.58	-49.7	-62.8	3.8	1.49e+00	0	38	104	0	71	15940
2026-01-08 09:27:50.49	144.99	6.81	-49.6	-62.6	3.8	1.49e+00	0	38	104	0	71	15466
2026-01-08 09:27:53.51	144.90	7.04	-49.5	-61.4	3.8	1.49e+00	0	38	104	0	71	13417
2026-01-08 09:27:56.52	144.82	7.27	-49.2	-58.3	4.5	1.31e+00	0	38	104	0	70	10025
2026-01-08 09:27:59.53	144.73	7.51	-48.2	-54.3	7.3	1.42e-01	0	38	0	0	68	7051
2026-01-08 09:28:02.54	144.65	7.74	-46.6	-50.6	10.8	3.19e-03	0	38	0	0	65	5527
2026-01-08 09:28:05.55	144.56	7.98	-45.4	-48.6	13.1	3.50e-05	0	38	0	0	62	5165
2026-01-08 09:28:08.57	144.47	8.22	-44.7	-47.6	14.0	0.00e+00	0	38	0	0	61	4915
2026-01-08 09:28:11.58	144.38	8.46	-45.2	-48.3	13.3	2.36e-05	0	38	0	0	61	5302
2026-01-08 09:28:14.59	144.28	8.71	-46.7	-50.8	10.8	1.93e-03	0	38	0	0	63	6326
2026-01-08 09:28:17.60	144.19	8.95	-48.2	-54.6	6.9	1.20e-01	0	38	0	0	67	7792
2026-01-08 09:28:20.61	144.09	9.20	-49.1	-58.2	4.7	5.76e-01	0	38	0	0	68	11088
2026-01-08 09:28:23.62	143.99	9.46	-49.4	-60.7	3.8	3.54e-02	0	38	104	0	69	13888
2026-01-08 09:28:26.69	143.89	9.71	-44.4	-47.0	14.8	0.00e+00	0	38	0	0	60	4835
2026-01-08 09:28:29.64	143.79	9.97	-44.0	-46.5	15.3	0.00e+00	0	38	0	0	59	4830
2026-01-08 09:28:33.01	143.67	10.26	-42.9	-45.1	16.6	0.00e+00	0	38	0	0	57	4606
2026-01-08 09:28:35.75	143.58	10.50	-42.6	-44.7	17.0	0.00e+00	0	39	0	0	56	4698
2026-01-08 09:28:39.04	143.46	10.78	-41.7	-43.7	17.8	0.00e+00	0	38	0	0	55	4415
2026-01-08 09:28:41.76	143.36	11.03	-41.7	-43.7	17.8	0.00e+00	0	38	0	0	55	4403
2026-01-08 09:28:45.09	143.23	11.33	-41.6	-43.5	18.0	0.00e+00	0	38	0	0	55	4337
2026-01-08 09:28:48.10	143.12	11.60	-41.4	-43.3	18.2	0.00e+00	0	38	0	0	54	4456
2026-01-08 09:28:51.15	143.00	11.88	-41.4	-43.3	18.2	0.00e+00	0	39	0	0	54	4472
2026-01-08 09:28:54.26	142.87	12.17	-41.2	-43.0	18.5	0.00e+00	0	39	0	0	54	4308
2026-01-08 09:28:57.18	142.76	12.44	-41.2	-43.0	18.5	0.00e+00	0	39	0	0	54	4325
2026-01-08 09:29:00.46	142.62	12.75	-41.2	-43.1	18.5	0.00e+00	0	39	0	0	54	4351
2026-01-08 09:29:03.22	142.50	13.02	-41.1	-42.9	18.6	0.00e+00	0	39	0	0	53	4509
2026-01-08 09:29:06.51	142.36	13.34	-40.9	-42.8	18.7	0.00e+00	0	39	0	0	53	4445
2026-01-08 09:29:09.28	142.24	13.61	-40.9	-42.7	18.7	0.00e+00	0	39	0	0	53	4415
2026-01-08 09:29:12.58	142.09	13.94	-41.1	-43.0	18.4	0.00e+00	0	39	0	0	53	4571
2026-01-08 09:29:15.70	141.94	14.25	-41.0	-42.8	18.6	0.00e+00	0	39	0	0	53	4474
2026-01-08 09:29:18.57	141.81	14.55	-41.0	-42.9	18.5	0.00e+00	0	39	0	0	53	4509
2026-01-08 09:29:21.72	141.66	14.87	-41.1	-42.9	18.5	0.00e+00	0	39	0	0	53	4531
2026-01-08 09:29:24.86	141.50	15.20	-41.1	-42.9	18.5	7.32e-05	0	39	0	0	53	4526
2026-01-08 09:29:27.80	141.35	15.51	-41.2	-43.1	18.4	0.00e+00	0	39	0	0	53	4617
2026-01-08 09:29:31.10	141.18	15.86	-41.2	-43.1	18.4	0.00e+00	0	39	0	0	53	4631
2026-01-08 09:29:33.98	141.03	16.18	-41.3	-43.2	18.4	0.00e+00	0	39	0	0	53	4652
2026-01-08 09:29:37.13	140.86	16.52	-41.4	-43.3	18.3	0.00e+00	0	39	0	0	53	4735
2026-01-08 09:29:40.00	140.70	16.84	-41.3	-43.1	18.4	0.00e+00	0	39	0	0	53	4650
2026-01-08 09:29:43.15	140.52	17.20	-41.2	-43.1	18.5	0.00e+00	0	39	0	0	53	4620
2026-01-08 09:29:46.02	140.35	17.53	-41.3	-43.1	18.5	0.00e+00	0	39	0	0	53	4632
2026-01-08 09:29:49.29	140.16	17.91	-41.2	-43.1	18.5	0.00e+00	0	39	0	0	53	4636
2026-01-08 09:29:52.21	139.98	18.25	-41.4	-43.3	18.3	0.00e+00	0	39	0	0	53	4719
2026-01-08 09:29:55.51	139.77	18.64	-41.4	-43.4	18.3	0.00e+00	0	39	0	0	53	4766
2026-01-08 09:29:58.23	139.60	18.97	-41.3	-43.2	18.4	0.00e+00	0	39	0	0	53	4698
2026-01-08 09:30:01.53	139.38	19.38	-41.3	-43.2	18.4	0.00e+00	0	39	0	0	53	4672
2026-01-08 09:30:04.35	139.19	19.73	-41.1	-43.0	18.6	0.00e+00	0	39	0	0	53	4553
2026-01-08 09:30:07.76	138.96	20.16	-41.1	-42.9	18.7	0.00e+00	0	39	0	0	53	4516
2026-01-08 09:30:10.48	138.76	20.50	-41.1	-42.9	18.7	0.00e+00	0	39	0	0	53	4538
2026-01-08 09:30:13.77	138.52	20.93	-40.8	-42.6	19.0	0.00e+00	0	39	0	0	53	4361
2026-01-08 09:30:16.50	138.32	21.29	-40.5	-42.2	19.3	0.00e+00	0	39	0	0	52	4425
2026-01-08 09:30:19.79	138.07	21.73	-40.3	-42.1	19.4	0.00e+00	0	40	0	0	52	4357
2026-01-08 09:30:22.52	137.85	22.10	-40.2	-41.9	19.5	0.00e+00	0	40	0	0	52	4261
2026-01-08 09:30:25.81	137.58	22.55	-40.0	-41.7	19.7	0.00e+00	0	39	0	0	52	4178
2026-01-08 09:30:28.53	137.35	22.93	-40.0	-41.7	19.8	0.00e+00	0	39	0	0	51	4395
2026-01-08 09:30:31.82	137.07	23.40	-39.9	-41.6	19.8	0.00e+00	0	39	0	0	51	4351
2026-01-08 09:30:34.55	136.83	23.79	-40.0	-41.7	19.7	0.00e+00	0	40	0	0	51	4426
2026-01-08 09:30:38.15	136.50	24.32	-40.0	-41.7	19.8	0.00e+00	0	40	0	0	51	4407
2026-01-08 09:30:41.29	136.21	24.79	-40.2	-41.9	19.6	0.00e+00	0	39	0	0	51	4531
2026-01-08 09:30:44.15	135.93	25.22	-40.3	-42.0	19.5	0.00e+00	0	39	0	0	51	4573
2026-01-08 09:30:47.43	135.60	25.72	-40.3	-42.0	19.5	0.00e+00	0	39	0	0	51	4596
2026-01-08 09:30:50.16	135.32	26.15	-40.7	-42.4	19.2	0.00e+00	0	40	0	0	51	4799
2026-01-08 09:30:53.97	134.92	26.75	-40.8	-42.6	18.9	0.00e+00	0	39	0	0	52	4634
2026-01-08 09:30:56.72	134.62	27.19	-41.0	-42.8	18.7	0.00e+00	0	39	0	0	52	4743
2026-01-08 09:31:00.57	134.18	27.82	-41.0	-42.8	18.9	0.00e+00	0	40	0	0	52	4719
2026-01-08 09:31:03.31	133.85	28.28	-40.8	-42.6	19.0	0.00e+00	0	39	0	0	52	4638
2026-01-08 09:31:07.29	133.37	28.96	-40.8	-42.6	19.0	0.00e+00	0	40	0	0	52	4615
2026-01-08 09:31:10.03	133.02	29.43	-40.6	-42.4	19.2	0.00e+00	0	40	0	0	52	4498
2026-01-08 09:31:13.77	132.53	30.09	-40.8	-42.6	18.9	0.00e+00	0	39	0	0	52	4637
2026-01-08 09:31:16.49	132.16	30.57	-40.9	-42.7	18.9	0.00e+00	0	39	0	0	52	4684
2026-01-08 09:31:19.79	131.70	31.17	-40.7	-42.5	19.1	0.00e+00	0	40	0	0	52	4579
2026-01-08 09:31:22.51	131.30	31.67	-40.7	-42.5	19.1	0.00e+00	0	40	0	0	52	4561
2026-01-08 09:31:25.81	130.80	32.29	-40.9	-42.7	18.8	0.00e+00	0	40	0	0	52	4689
2026-01-08 09:31:28.59	130.37	32.82	-41.2	-43.1	18.6	0.00e+00	0	40	0	0	53	4604
2026-01-08 09:31:32.28	129.77	33.53	-41.5	-43.4	18.4	0.00e+00	0	40	0	0	53	4766
2026-01-08 09:31:35.01	129.31	34.07	-41.5	-43.3	18.4	0.00e+00	0	40	0	0	53	4753
2026-01-08 09:31:38.61	128.67	34.78	-41.6	-43.5	18.3	0.00e+00	0	40	0	0	53	4823
2026-01-08 09:31:41.33	128.18	35.33	-41.8	-43.7	18.1	0.00e+00	0	40	0	0	54	4672
2026-01-08 09:31:44.63	127.55	36.01	-42.0	-44.0	17.8	0.00e+00	0	40	0	0	54	4820
2026-01-08 09:31:47.76	126.93	36.66	-42.0	-44.0	17.8	0.00e+00	0	40	0	0	54	4827
2026-01-08 09:31:50.92	126.28	37.33	-42.2	-44.2	17.6	0.00e+00	0	40	0	0	55	4665
2026-01-08 09:31:53.78	125.67	37.94	-42.2	-44.1	17.6	0.00e+00	0	40	0	0	55	4645
2026-01-08 09:31:57.02	124.94	38.64	-42.6	-44.7	17.2	0.00e+00	0	40	0	0	55	4939
2026-01-08 09:31:59.95	124.26	39.28	-42.8	-44.9	17.1	0.00e+00	0	40	0	0	56	4782
2026-01-08 09:32:03.10	123.50	39.98	-42.8	-44.9	17.2	0.00e+00	0	40	0	0	56	4778
2026-01-08 09:32:06.03	122.76	40.64	-42.6	-44.6	17.5	0.00e+00	0	40	0	0	56	4630
2026-01-08 09:32:09.04	121.96	41.32	-42.5	-44.5	17.6	0.00e+00	0	40	0	0	56	4569
2026-01-08 09:32:12.05	121.13	42.01	-43.0	-45.1	17.0	0.00e+00	0	40	0	0	56	4874
2026-01-08 09:32:15.05	120.27	42.70	-43.4	-45.6	16.6	0.00e+00	0	40	0	0	57	4875
2026-01-08 09:32:18.15	119.34	43.42	-43.1	-45.2	16.9	0.00e+00	0	40	0	0	57	4688
2026-01-08 09:32:21.13	118.40	44.11	-43.5	-45.7	16.5	0.00e+00	0	40	0	0	57	4969
2026-01-08 09:32:24.14	117.42	44.82	-43.9	-46.2	16.0	0.00e+00	0	40	0	0	58	4952
2026-01-08 09:32:27.15	116.38	45.53	-43.1	-45.2	16.9	0.00e+00	0	40	0	0	58	4409
2026-01-08 09:32:30.16	115.30	46.24	-43.4	-45.5	16.5	0.00e+00	0	40	0	0	58	4597
2026-01-08 09:32:33.17	114.17	46.95	-43.4	-45.6	16.5	0.00e+00	0	40	0	0	58	4607
2026-01-08 09:32:36.17	112.99	47.66	-43.3	-45.4	16.7	0.00e+00	0	40	0	0	58	4533
2026-01-08 09:32:39.24	111.73	48.38	-43.5	-45.7	16.5	0.00e+00	0	40	0	0	58	4677
2026-01-08 09:32:42.50	110.32	49.14	-43.9	-46.2	16.0	0.00e+00	0	40	0	0	58	4969
2026-01-08 09:32:45.37	109.02	49.81	-42.9	-44.9	17.2	0.00e+00	0	40	0	0	57	4526
2026-01-08 09:32:48.52	107.52	50.53	-43.6	-45.8	16.4	0.00e+00	0	40	0	0	57	5021
2026-01-08 09:32:51.39	106.10	51.18	-42.4	-44.4	17.7	0.00e+00	0	40	0	0	56	4508
2026-01-08 09:32:54.54	104.46	51.88	-42.7	-44.7	17.3	0.00e+00	0	40	0	0	56	4693
2026-01-08 09:32:57.50	102.85	52.53	-42.1	-44.0	18.0	0.00e+00	0	40	0	0	56	4339
2026-01-08 09:33:00.71	101.03	53.21	-42.3	-44.3	17.8	0.00e+00	0	40	0	0	56	4451
2026-01-08 09:33:03.63	99.29	53.80	-41.3	-43.1	18.7	0.00e+00	0	40	0	0	54	4369
2026-01-08 09:33:06.83	97.31	54.44	-41.3	-43.1	18.6	0.00e+00	0	40	0	0	54	4373
2026-01-08 09:33:09.84	95.36	55.01	-41.0	-42.8	18.7	0.00e+00	0	40	0	0	53	4491
2026-01-08 09:33:13.13	93.15	55.59	-41.1	-43.0	18.8	0.00e+00	0	40	0	0	53	4549
2026-01-08 09:33:16.22	90.98	56.11	-41.2	-43.0	18.7	0.00e+00	0	40	0	0	53	4594
2026-01-08 09:33:19.26	88.78	56.59	-40.9	-42.8	18.8	0.00e+00	0	40	0	0	53	4455
2026-01-08 09:33:22.27	86.52	57.02	-40.8	-42.7	18.8	0.00e+00	0	40	0	0	53	4408
2026-01-08 09:33:25.27	84.20	57.41	-40.6	-42.4	19.0	0.00e+00	0	40	0	0	53	4286
2026-01-08 09:33:28.28	81.81	57.75	-40.8	-42.6	19.1	0.00e+00	0	40	0	0	52	4618
2026-01-08 09:33:31.38	79.29	58.06	-41.0	-42.8	18.9	0.00e+00	0	40	0	0	52	4754
2026-01-08 09:33:34.27	76.89	58.30	-40.5	-42.3	19.4	0.00e+00	0	40	0	0	52	4450
2026-01-08 09:33:37.42	74.23	58.51	-40.5	-42.3	19.5	0.00e+00	0	40	0	0	52	4454
2026-01-08 09:33:40.29	71.77	58.65	-40.7	-42.5	19.2	0.00e+00	0	40	0	0	52	4571
2026-01-08 09:33:43.43	69.06	58.74	-40.9	-42.7	18.9	0.00e+00	0	40	0	0	52	4670
2026-01-08 09:33:46.39	66.49	58.78	-40.2	-41.8	19.5	0.00e+00	0	40	0	0	52	4240
2026-01-08 09:33:49.54	63.76	58.76	-40.6	-42.4	19.2	0.00e+00	0	40	0	0	52	4501
2026-01-08 09:33:52.41	61.28	58.69	-40.8	-42.6	19.1	0.00e+00	0	40	0	0	52	4648
2026-01-08 09:33:55.56	58.58	58.55	-40.3	-42.0	19.5	0.00e+00	0	40	0	0	52	4327
2026-01-08 09:33:58.43	56.14	58.38	-40.9	-42.7	18.9	0.00e+00	0	40	0	0	52	4666
2026-01-08 09:34:01.59	53.51	58.13	-41.1	-42.9	18.9	0.00e+00	0	40	0	0	53	4499
2026-01-08 09:34:04.45	51.17	57.86	-40.9	-42.7	19.0	0.00e+00	0	40	0	0	53	4396
2026-01-08 09:34:07.61	48.64	57.52	-40.7	-42.4	19.3	0.00e+00	0	40	0	0	53	4281
2026-01-08 09:34:10.66	46.26	57.13	-40.8	-42.6	19.1	0.00e+00	0	40	0	0	53	4365
2026-01-08 09:34:14.26	43.55	56.63	-41.2	-43.0	18.8	0.00e+00	0	40	0	0	53	4562
2026-01-08 09:34:16.98	41.57	56.21	-40.7	-42.4	19.3	0.00e+00	0	40	0	0	53	4283
2026-01-08 09:34:20.28	39.25	55.66	-41.6	-43.5	18.3	0.00e+00	0	40	0	0	54	4580
2026-01-08 09:34:23.00	37.41	55.19	-41.2	-43.0	18.8	0.00e+00	0	40	0	0	54	4336
2026-01-08 09:34:26.60	35.06	54.51	-42.2	-44.1	17.6	0.00e+00	0	40	0	0	55	4645
2026-01-08 09:34:29.32	33.37	53.98	-41.7	-43.6	18.2	0.00e+00	0	40	0	0	54	4627
2026-01-08 09:34:32.62	31.39	53.31	-43.9	-46.3	16.0	0.00e+00	0	40	0	0	58	4997
2026-01-08 09:34:35.34	29.83	52.74	-41.5	-43.3	18.4	0.00e+00	0	40	0	0	55	4217
2026-01-08 09:34:38.66	28.01	52.03	-43.1	-45.2	17.0	0.00e+00	0	40	0	0	56	4961
2026-01-08 09:34:41.38	26.59	51.43	-42.8	-44.9	16.7	0.00e+00	0	40	0	0	57	4536
2026-01-08 09:34:44.80	24.87	50.66	-42.6	-44.6	17.1	0.00e+00	0	40	0	0	56	4624
2026-01-08 09:34:47.52	23.57	50.04	-43.6	-45.8	16.4	0.00e+00	0	40	0	0	57	5010
2026-01-08 09:34:50.82	22.07	49.28	-42.5	-44.5	17.4	0.00e+00	0	40	0	0	57	4310
2026-01-08 09:34:53.55	20.88	48.64	-43.1	-45.2	17.0	0.00e+00	0	40	0	0	56	4936
2026-01-08 09:34:56.84	19.50	47.87	-43.6	-45.8	16.4	0.00e+00	0	40	0	0	57	5035
2026-01-08 09:34:59.56	18.42	47.24	-42.2	-44.1	17.9	0.00e+00	0	40	0	0	56	4363
2026-01-08 09:35:02.86	17.17	46.46	-42.9	-45.0	17.2	0.00e+00	0	40	0	0	56	4841
2026-01-08 09:35:05.68	16.14	45.80	-44.8	-47.3	14.7	0.00e+00	0	40	0	0	60	5041
2026-01-08 09:35:09.15	14.94	44.98	-43.1	-45.2	16.7	0.00e+00	0	40	0	0	58	4403
2026-01-08 09:35:11.89	14.04	44.34	-41.7	-43.5	18.2	0.00e+00	0	40	0	0	55	4328
2026-01-08 09:35:15.18	13.00	43.57	-45.3	-48.3	14.0	0.00e+00	0	40	0	0	61	5295
2026-01-08 09:35:18.13	12.11	42.89	-43.5	-45.7	15.7	0.00e+00	0	40	0	0	59	4424
2026-01-08 09:35:21.14	11.24	42.20	-43.4	-45.6	16.5	0.00e+00	0	40	0	0	58	4625
2026-01-08 09:35:24.56	10.29	41.42	-43.7	-46.0	16.3	0.00e+00	0	40	0	0	58	4853
2026-01-08 09:35:27.28	9.57	40.81	-43.2	-45.4	16.8	0.00e+00	0	40	0	0	58	4531
2026-01-08 09:35:30.58	8.74	40.07	-41.6	-43.5	18.1	0.00e+00	0	40	0	0	55	4308
2026-01-08 09:35:33.40	8.05	39.45	-41.5	-43.4	18.3	0.00e+00	0	40	0	0	54	4502
2026-01-08 09:35:36.79	7.27	38.71	-44.0	-46.3	15.9	0.00e+00	0	40	0	0	58	5024
2026-01-08 09:35:39.51	6.66	38.12	-43.1	-45.3	16.9	0.00e+00	0	40	0	0	58	4444
2026-01-08 09:35:42.81	5.95	37.42	-42.3	-44.3	17.8	0.00e+00	0	40	0	0	56	4452
2026-01-08 09:35:45.53	5.39	36.85	-41.4	-43.2	18.5	0.00e+00	0	40	0	0	54	4427
2026-01-08 09:35:48.83	4.74	36.16	-40.9	-42.7	18.8	0.00e+00	0	40	0	0	53	4433
2026-01-08 09:35:51.55	4.22	35.60	-41.7	-43.6	18.2	0.00e+00	0	40	0	0	53	4880
2026-01-08 09:35:54.85	3.61	34.94	-42.3	-44.3	17.6	0.00e+00	0	40	0	0	55	4734
2026-01-08 09:35:57.61	3.12	34.39	-41.8	-43.7	18.1	0.00e+00	0	40	0	0	55	4429
2026-01-08 09:36:00.91	2.56	33.74	-41.3	-43.1	18.6	0.00e+00	0	40	0	0	54	4367
2026-01-08 09:36:03.63	2.12	33.22	-41.5	-43.4	18.3	0.00e+00	0	40	0	0	54	4520
2026-01-08 09:36:06.92	1.60	32.59	-41.4	-43.4	18.3	0.00e+00	0	40	0	0	54	4498
2026-01-08 09:36:09.65	1.18	32.08	-41.5	-43.4	18.4	0.00e+00	0	40	0	0	54	4497
2026-01-08 09:36:12.94	0.70	31.47	-40.8	-42.5	19.1	0.00e+00	0	40	0	0	53	4340
2026-01-08 09:36:15.66	0.31	30.98	-40.9	-42.7	19.0	0.00e+00	0	40	0	0	53	4423
2026-01-08 09:36:18.96	359.85	30.38	-41.1	-42.9	18.7	0.00e+00	0	40	0	0	53	4533
2026-01-08 09:36:21.68	359.49	29.90	-41.3	-43.2	18.5	0.00e+00	0	40	0	0	53	4683
2026-01-08 09:36:25.30	359.03	29.28	-41.6	-43.5	18.3	0.00e+00	0	40	0	0	53	4864
2026-01-08 09:36:28.04	358.69	28.81	-41.6	-43.5	18.3	0.00e+00	0	40	0	0	53	4855
2026-01-08 09:36:31.83	358.24	28.17	-41.6	-43.5	18.3	0.00e+00	0	40	0	0	54	4561
2026-01-08 09:36:34.59	357.92	27.72	-41.3	-43.2	18.5	0.00e+00	0	40	0	0	54	4407
2026-01-08 09:36:38.11	357.52	27.15	-40.8	-42.6	19.1	0.00e+00	0	41	0	0	53	4383
2026-01-08 09:36:41.17	357.19	26.66	-40.0	-41.7	19.9	0.00e+00	0	40	0	0	51	4410
2026-01-08 09:36:44.09	356.89	26.20	-39.9	-41.6	20.1	0.00e+00	0	40	0	0	51	4349
2026-01-08 09:36:47.10	356.58	25.73	-40.0	-41.7	20.0	0.00e+00	0	40	0	0	51	4412
2026-01-08 09:36:50.11	356.29	25.28	-40.2	-41.9	19.8	0.00e+00	0	40	0	0	51	4522
2026-01-08 09:36:53.57	355.96	24.76	-40.4	-42.1	19.6	0.00e+00	0	40	0	0	51	4647
2026-01-08 09:36:56.29	355.70	24.36	-40.6	-42.4	19.3	0.00e+00	0	41	0	0	51	4805
2026-01-08 09:36:59.58	355.41	23.88	-40.7	-42.6	19.1	0.00e+00	0	40	0	0	52	4633
2026-01-08 09:37:02.59	355.15	23.45	-41.0	-42.8	18.8	0.00e+00	0	41	0	0	52	4756
2026-01-08 09:37:05.60	354.89	23.02	-41.1	-43.0	18.7	0.00e+00	0	41	0	0	52	4826
2026-01-08 09:37:08.61	354.64	22.61	-41.0	-42.8	18.8	0.00e+00	0	40	0	0	52	4742
2026-01-08 09:37:11.56	354.41	22.20	-40.9	-42.8	18.9	0.00e+00	0	41	0	0	52	4727
2026-01-08 09:37:14.85	354.15	21.76	-40.9	-42.8	18.8	0.00e+00	0	40	0	0	52	4742
2026-01-08 09:37:17.96	353.91	21.35	-40.8	-42.6	19.0	0.00e+00	0	41	0	0	52	4639
2026-01-08 09:37:20.85	353.70	20.97	-40.6	-42.4	19.2	0.00e+00	0	41	0	0	52	4528
2026-01-08 09:37:24.00	353.47	20.56	-40.6	-42.4	19.3	0.00e+00	0	40	0	0	52	4498
2026-01-08 09:37:26.87	353.27	20.20	-40.7	-42.5	19.2	0.00e+00	0	40	0	0	52	4560
2026-01-08 09:37:30.02	353.06	19.80	-40.7	-42.6	19.0	0.00e+00	0	40	0	0	52	4631
2026-01-08 09:37:33.28	352.84	19.40	-40.7	-42.7	19.0	0.00e+00	0	41	0	0	52	4658
2026-01-08 09:37:36.45	352.64	19.02	-41.0	-42.9	18.8	0.00e+00	0	41	0	0	52	4796
2026-01-08 09:37:39.31	352.46	18.67	-41.0	-43.0	18.7	0.00e+00	0	40	0	0	52	4820
2026-01-08 09:37:42.50	352.26	18.30	-41.1	-43.0	18.6	0.00e+00	0	41	0	0	52	4870
2026-01-08 09:37:45.46	352.09	17.95	-41.0	-42.9	18.6	0.00e+00	0	40	0	0	52	4810
2026-01-08 09:37:48.61	351.90	17.59	-41.0	-43.0	18.6	0.00e+00	0	40	0	0	52	4837
2026-01-08 09:37:51.61	351.73	17.25	-41.1	-43.0	18.6	0.00e+00	0	40	0	0	52	4861
2026-01-08 09:37:54.63	351.56	16.91	-41.3	-43.2	18.4	0.00e+00	0	41	0	0	53	4654
2026-01-08 09:37:58.30	351.36	16.50	-41.5	-43.5	18.1	0.00e+00	0	41	0	0	53	4851
2026-01-08 09:38:01.12	351.22	16.20	-41.6	-43.5	18.1	0.00e+00	0	41	0	0	53	4861
2026-01-08 09:38:04.35	351.05	15.85	-41.7	-43.7	18.0	0.00e+00	0	40	0	0	53	4939
2026-01-08 09:38:07.22	350.91	15.54	-41.7	-43.7	18.0	0.00e+00	0	40	0	0	54	4681
2026-01-08 09:38:10.54	350.74	15.20	-41.8	-43.9	17.8	0.00e+00	0	40	0	0	54	4783
2026-01-08 09:38:13.26	350.61	14.91	-41.8	-43.9	17.8	0.00e+00	0	41	0	0	54	4778
2026-01-08 09:38:16.55	350.46	14.58	-41.9	-44.0	17.7	0.00e+00	0	40	0	0	54	4831
2026-01-08 09:38:19.28	350.33	14.30	-42.0	-44.0	17.7	0.00e+00	0	41	0	0	54	4867
2026-01-08 09:38:22.69	350.18	13.96	-41.9	-44.0	17.6	0.00e+00	0	41	0	0	54	4851
2026-01-08 09:38:25.71	350.05	13.66	-41.6	-43.6	18.1	0.00e+00	0	41	0	0	54	4614
2026-01-08 09:38:29.00	349.90	13.34	-41.5	-43.5	18.1	0.00e+00	0	41	0	0	54	4598
2026-01-08 09:38:31.73	349.79	13.08	-41.5	-43.7	18.0	0.00e+00	0	40	0	0	54	4668
2026-01-08 09:38:35.02	349.65	12.76	-41.4	-43.7	17.9	0.00e+00	0	41	0	0	54	4687
2026-01-08 09:38:37.75	349.54	12.51	-41.4	-43.6	18.0	0.00e+00	0	41	0	0	54	4640
2026-01-08 09:38:41.04	349.41	12.20	-41.5	-43.7	18.0	0.00e+00	0	40	0	0	54	4679
2026-01-08 09:38:43.76	349.31	11.95	-41.7	-43.9	17.7	0.00e+00	0	41	0	0	54	4797
2026-01-08 09:38:47.05	349.19	11.65	-41.6	-43.9	17.7	0.00e+00	0	41	0	0	54	4803
2026-01-08 09:38:49.89	349.08	11.39	-41.7	-44.1	17.6	0.00e+00	0	41	0	0	54	4894
2026-01-08 09:38:53.25	348.96	11.09	-41.6	-44.0	17.6	0.00e+00	0	40	0	0	54	4830
2026-01-08 09:38:55.97	348.86	10.85	-41.8	-44.2	17.4	0.00e+00	0	41	0	0	54	4967
2026-01-08 09:38:59.27	348.75	10.57	-41.7	-44.1	17.6	0.00e+00	0	41	0	0	54	4873
2026-01-08 09:39:01.99	348.65	10.33	-41.6	-44.1	17.5	0.00e+00	0	41	0	0	54	4872
2026-01-08 09:39:05.29	348.54	10.05	-41.8	-44.3	17.3	0.00e+00	0	41	0	0	54	5013
2026-01-08 09:39:08.01	348.45	9.82	-41.8	-44.2	17.4	0.00e+00	0	41	0	0	54	4956
2026-01-08 09:39:11.31	348.35	9.54	-42.0	-44.4	17.2	0.00e+00	0	41	0	0	54	5044
2026-01-08 09:39:14.03	348.26	9.31	-42.0	-44.3	17.2	0.00e+00	0	41	0	0	55	4735
2026-01-08 09:39:17.32	348.16	9.04	-42.2	-44.7	16.8	0.00e+00	0	41	0	0	55	4939
2026-01-08 09:39:20.05	348.08	8.82	-49.6	-63.5	3.8	1.49e+00	0	41	104	0	70	18136
2026-01-08 09:39:23.35	347.98	8.55	-50.5	-63.7	3.8	1.49e+00	0	41	104	0	71	17547
2026-01-08 09:39:26.07	347.90	8.34	-50.5	-63.8	3.8	1.49e+00	0	41	104	0	71	17700
2026-01-08 09:39:29.63	347.80	8.05	-50.5	-63.7	3.8	1.49e+00	0	41	104	0	72	16655
2026-01-08 09:39:32.56	347.72	7.82	-50.7	-63.8	3.8	1.49e+00	0	41	104	0	72	16725
2026-01-08 09:39:35.86	347.63	7.57	-50.7	-63.8	3.8	1.49e+00	0	41	104	0	72	16720
2026-01-08 09:39:38.59	347.55	7.36	-50.7	-63.7	3.8	1.49e+00	0	41	104	0	72	16685
2026-01-08 09:39:41.89	347.46	7.11	-50.6	-63.8	3.8	1.49e+00	0	41	104	0	72	16724
2026-01-08 09:39:44.61	347.39	6.90	-50.6	-63.7	3.8	1.49e+00	0	41	104	0	72	16669
2026-01-08 09:39:47.92	347.31	6.65	-50.2	-63.7	3.8	1.49e+00	0	41	104	0	72	16653
2026-01-08 09:39:50.64	347.24	6.45	-50.2	-63.7	3.8	1.49e+00	0	41	104	0	72	16575
2026-01-08 09:39:53.94	347.16	6.21	-50.2	-63.7	3.8	1.49e+00	0	41	104	0	72	16636
2026-01-08 09:39:56.67	347.09	6.01	-50.2	-63.7	3.8	1.49e+00	0	41	104	0	72	16608
2026-01-08 09:39:59.97	347.01	5.77	-50.2	-63.7	3.8	1.49e+00	0	41	104	0	72	16642
2026-01-08 09:40:02.70	346.95	5.57	-50.2	-63.7	3.8	1.49e+00	0	41	104	0	72	16634
2026-01-08 09:40:06.00	346.87	5.33	-50.2	-63.7	3.8	1.49e+00	0	41	104	0	72	16592
2026-01-08 09:40:08.73	346.81	5.14	-50.2	-63.7	3.8	1.49e+00	0	41	104	0	72	16653

#Closed at: 2026-01-08 09:40:12
#Recorded file [0 MB]: D:/Data/31040_260108_122726.dat