passes_logs/2026/01/08/T1/T1__20260108_042257_FENGYUN_3G_rec.log

#Pass ID: 20260108_042257_FENGYUN 3G
#Satellite: FENGYUN 3G
#Configuration: FENGYUN 3G
#almurnet v.1.7.20251203
#Start time: 2026-01-08 04:22:57

#Version: 2.0.20230620
#Station: T1
#Location: 37.570604 lon 55.790049 lat
#TLE: 1 56232U 23055A   26007.71558733  .00028049  00000+0  44465-3 0  9995
#TLE: 2 56232  49.9934  93.5057 0004287 353.6464   6.4448 15.53114396155060

#Time	Az	El	Level	Level2	SNR	BER	BlckErr	Temp	State	Recorded	gain1	gain2
2026-01-08 04:22:57.86	259.09	4.77	-50.4	-69.4	3.8	8.46e-01	0	38	0	0	71	33968
2026-01-08 04:22:59.86	258.83	4.90	-50.4	-69.3	3.8	8.47e-01	0	39	104	0	72	31479
2026-01-08 04:23:01.87	258.56	5.03	-50.4	-69.3	3.8	8.47e-01	0	39	104	0	72	31766
2026-01-08 04:23:03.88	258.29	5.16	-50.4	-69.3	3.8	8.47e-01	0	39	104	0	72	31475
2026-01-08 04:23:05.88	258.02	5.30	-50.4	-69.1	3.8	8.47e-01	0	39	104	0	72	30936
2026-01-08 04:23:07.89	257.75	5.43	-50.4	-69.0	3.8	8.47e-01	0	39	104	0	72	30531
2026-01-08 04:23:09.90	257.47	5.56	-50.3	-69.2	3.8	8.47e-01	0	39	104	0	72	31179
2026-01-08 04:23:11.91	257.18	5.70	-50.4	-69.4	3.8	8.47e-01	0	39	104	0	72	31843
2026-01-08 04:23:13.92	256.89	5.83	-50.4	-69.4	3.8	8.47e-01	0	39	104	0	72	31943
2026-01-08 04:23:15.93	256.60	5.97	-50.4	-69.3	3.8	8.46e-01	0	39	104	0	72	31738
2026-01-08 04:23:17.93	256.31	6.10	-50.4	-69.2	3.8	8.47e-01	0	39	104	0	72	31349
2026-01-08 04:23:19.94	256.01	6.24	-50.4	-69.2	3.8	8.47e-01	0	39	104	0	72	31210
2026-01-08 04:23:21.95	255.71	6.38	-50.4	-69.3	3.8	8.47e-01	0	39	104	0	72	31684
2026-01-08 04:23:23.96	255.40	6.52	-50.3	-69.4	3.8	8.47e-01	0	39	104	0	72	31899
2026-01-08 04:23:25.97	255.09	6.65	-50.3	-69.3	3.8	8.47e-01	0	39	104	0	72	31762
2026-01-08 04:23:27.98	254.77	6.79	-50.3	-69.3	3.8	8.46e-01	0	39	104	0	72	31532
2026-01-08 04:23:29.99	254.45	6.93	-50.3	-69.3	3.8	8.47e-01	0	40	104	0	72	31516
2026-01-08 04:23:31.99	254.13	7.07	-50.4	-69.3	3.8	8.47e-01	0	40	104	0	72	31536
2026-01-08 04:23:34.00	253.80	7.21	-50.3	-69.3	3.8	8.46e-01	0	40	104	0	72	31718
2026-01-08 04:23:36.01	253.47	7.35	-50.4	-69.4	3.8	8.46e-01	0	40	104	0	72	31872
2026-01-08 04:23:38.02	253.13	7.50	-50.4	-69.2	3.8	8.47e-01	0	40	104	0	72	31199
2026-01-08 04:23:40.03	252.79	7.64	-50.3	-69.2	3.8	8.48e-01	0	40	104	0	72	31359
2026-01-08 04:23:42.04	252.44	7.78	-50.3	-69.2	3.8	8.48e-01	0	40	104	0	72	31417
2026-01-08 04:23:44.05	252.09	7.92	-50.4	-68.9	3.8	8.46e-01	0	40	104	0	72	30280
2026-01-08 04:23:46.06	251.73	8.06	-50.3	-68.5	3.8	8.46e-01	0	40	104	0	72	29001
2026-01-08 04:23:48.07	251.37	8.21	-50.3	-68.9	3.8	8.48e-01	0	40	104	0	72	30353
2026-01-08 04:23:50.08	251.00	8.35	-50.4	-69.3	3.8	8.48e-01	0	40	104	0	72	31498
2026-01-08 04:23:52.09	250.63	8.50	-50.3	-69.1	3.8	8.47e-01	0	40	104	0	72	30896
2026-01-08 04:23:54.10	250.26	8.64	-50.4	-69.2	3.8	8.48e-01	0	40	104	0	72	31091
2026-01-08 04:23:56.10	249.88	8.79	-50.3	-67.8	3.8	8.47e-01	0	40	104	0	72	26521
2026-01-08 04:23:58.11	249.49	8.93	-50.0	-61.6	6.4	8.35e-01	0	40	0	0	72	13005
2026-01-08 04:24:00.12	249.10	9.08	-48.8	-55.4	12.7	3.01e-01	0	40	0	0	69	7594
2026-01-08 04:24:02.18	248.69	9.23	-49.7	-59.8	8.2	7.16e-01	0	40	0	0	70	11921
2026-01-08 04:24:04.20	248.28	9.37	-44.6	-47.8	20.2	2.61e-02	0	40	0	0	61	4985
2026-01-08 04:24:06.21	247.87	9.52	-44.4	-47.4	20.3	2.33e-02	0	40	0	0	60	5074
2026-01-08 04:24:08.22	247.46	9.66	-44.3	-47.2	20.6	0.00e+00	0	40	0	0	60	4959
2026-01-08 04:24:10.23	247.04	9.81	-43.7	-46.4	21.4	0.00e+00	0	40	0	0	59	4787
2026-01-08 04:24:12.23	246.62	9.96	-42.9	-45.5	22.2	0.00e+00	0	40	0	0	57	4851
2026-01-08 04:24:14.24	246.18	10.10	-42.6	-45.2	22.4	0.00e+00	0	40	0	0	57	4703
2026-01-08 04:24:16.25	245.75	10.25	-42.6	-45.2	22.4	0.00e+00	0	40	0	0	57	4699
2026-01-08 04:24:18.25	245.31	10.40	-42.4	-44.9	22.7	0.00e+00	0	40	0	0	56	4770
2026-01-08 04:24:20.26	244.86	10.54	-42.3	-44.7	22.9	0.00e+00	0	40	0	0	56	4691
2026-01-08 04:24:22.26	244.40	10.69	-42.2	-44.5	23.1	0.00e+00	0	40	0	0	56	4573
2026-01-08 04:24:24.27	243.94	10.84	-42.1	-44.4	23.2	0.00e+00	0	40	0	0	56	4497
2026-01-08 04:24:26.29	243.47	10.98	-42.0	-44.3	23.3	0.00e+00	0	40	0	0	56	4458
2026-01-08 04:24:28.30	243.00	11.13	-41.9	-44.2	23.1	0.00e+00	0	40	0	0	55	4692
2026-01-08 04:24:30.43	242.49	11.29	-42.0	-44.5	22.9	0.00e+00	0	40	0	0	55	4856
2026-01-08 04:24:32.44	242.00	11.43	-42.0	-44.5	23.0	0.00e+00	0	40	0	0	55	4817
2026-01-08 04:24:34.45	241.51	11.58	-41.8	-44.2	23.3	0.00e+00	0	40	0	0	55	4654
2026-01-08 04:24:36.77	240.93	11.74	-41.4	-43.7	23.6	0.00e+00	0	40	0	0	54	4681
2026-01-08 04:24:39.14	240.33	11.92	-41.4	-43.7	23.6	0.00e+00	0	40	0	0	54	4655
2026-01-08 04:24:41.33	239.77	12.07	-41.8	-44.1	23.3	0.00e+00	0	40	0	0	54	4901
2026-01-08 04:24:43.49	239.20	12.23	-41.9	-44.3	23.2	0.00e+00	0	40	0	0	54	4984
2026-01-08 04:24:45.64	238.64	12.38	-41.9	-44.2	23.3	0.00e+00	0	40	0	0	54	4932
2026-01-08 04:24:47.80	238.06	12.53	-41.4	-43.6	23.7	0.00e+00	0	40	0	0	54	4645
2026-01-08 04:24:49.85	237.50	12.68	-41.3	-43.5	23.8	0.00e+00	0	40	0	0	54	4586
2026-01-08 04:24:51.86	236.95	12.82	-41.1	-43.3	23.9	0.00e+00	0	40	0	0	54	4490
2026-01-08 04:24:53.87	236.39	12.96	-41.4	-43.6	23.7	0.00e+00	0	40	0	0	54	4625
2026-01-08 04:24:56.05	235.78	13.11	-41.5	-43.8	23.6	0.00e+00	0	40	0	0	54	4719
2026-01-08 04:24:58.15	235.18	13.25	-41.6	-43.9	23.5	0.00e+00	0	41	0	0	54	4778
2026-01-08 04:25:00.47	234.51	13.41	-41.6	-44.0	23.4	0.00e+00	0	40	0	0	54	4819
2026-01-08 04:25:02.48	233.92	13.54	-41.4	-43.7	23.6	0.00e+00	0	41	0	0	54	4697
2026-01-08 04:25:04.49	233.32	13.67	-41.4	-43.7	23.7	0.00e+00	0	40	0	0	54	4661
2026-01-08 04:25:06.50	232.72	13.80	-41.0	-43.2	24.0	0.00e+00	0	41	0	0	53	4663
2026-01-08 04:25:08.54	232.10	13.94	-41.0	-43.2	24.0	0.00e+00	0	41	0	0	53	4686
2026-01-08 04:25:10.55	231.49	14.06	-41.0	-43.2	24.1	0.00e+00	0	40	0	0	53	4659
2026-01-08 04:25:12.68	230.83	14.20	-41.0	-43.1	24.0	0.00e+00	0	41	0	0	53	4646
2026-01-08 04:25:15.01	230.09	14.34	-41.0	-43.1	24.0	0.00e+00	0	40	0	0	53	4644
2026-01-08 04:25:17.02	229.46	14.47	-41.0	-43.2	24.0	0.00e+00	0	41	0	0	53	4678
2026-01-08 04:25:19.02	228.81	14.59	-41.0	-43.2	24.0	0.00e+00	0	41	0	0	53	4684
2026-01-08 04:25:21.03	228.16	14.70	-40.8	-42.9	24.2	0.00e+00	0	41	0	0	53	4524
2026-01-08 04:25:23.03	227.51	14.82	-40.3	-42.4	24.6	0.00e+00	0	41	0	0	52	4514
2026-01-08 04:25:25.04	226.84	14.93	-39.9	-41.9	25.0	0.00e+00	0	40	0	0	51	4523
2026-01-08 04:25:27.05	226.17	15.05	-39.8	-41.8	25.1	0.00e+00	0	41	0	0	51	4487
2026-01-08 04:25:29.05	225.50	15.15	-40.2	-42.3	24.7	0.00e+00	0	40	0	0	51	4721
2026-01-08 04:25:31.05	224.82	15.26	-40.6	-42.8	24.4	0.00e+00	0	40	0	0	51	4995
2026-01-08 04:25:33.04	224.13	15.36	-40.5	-42.7	24.4	0.00e+00	0	41	0	0	52	4652
2026-01-08 04:25:35.05	223.44	15.46	-40.5	-42.6	24.4	0.00e+00	0	41	0	0	52	4625
2026-01-08 04:25:37.05	222.74	15.56	-40.5	-42.6	24.5	0.00e+00	0	41	0	0	52	4639
2026-01-08 04:25:39.06	222.03	15.66	-40.8	-42.9	24.3	0.00e+00	0	41	0	0	52	4782
2026-01-08 04:25:41.13	221.30	15.75	-40.8	-43.0	24.2	0.00e+00	0	40	0	0	52	4826
2026-01-08 04:25:43.14	220.58	15.84	-40.7	-42.9	24.2	0.00e+00	0	41	0	0	52	4771
2026-01-08 04:25:45.15	219.85	15.92	-41.1	-43.3	24.0	0.00e+00	0	41	0	0	52	4997
2026-01-08 04:25:47.15	219.13	16.01	-41.2	-43.3	23.9	0.00e+00	0	41	0	0	53	4750
2026-01-08 04:25:49.17	218.39	16.08	-40.7	-42.8	24.3	0.00e+00	0	41	0	0	53	4462
2026-01-08 04:25:51.29	217.61	16.16	-40.5	-42.6	24.3	0.00e+00	0	41	0	0	53	4358
2026-01-08 04:25:53.52	216.79	16.24	-41.1	-43.3	24.0	0.00e+00	0	40	0	0	52	5026
2026-01-08 04:25:55.53	216.04	16.31	-41.2	-43.4	23.9	0.00e+00	0	40	0	0	52	5063
2026-01-08 04:25:57.80	215.19	16.38	-41.1	-43.3	23.9	0.00e+00	0	41	0	0	53	4756
2026-01-08 04:25:59.80	214.44	16.44	-40.9	-43.0	24.1	0.00e+00	0	40	0	0	53	4592
2026-01-08 04:26:01.81	213.68	16.49	-40.8	-42.9	24.2	0.00e+00	0	40	0	0	53	4527
2026-01-08 04:26:03.82	212.91	16.54	-40.5	-42.6	24.5	0.00e+00	0	41	0	0	52	4624
2026-01-08 04:26:05.82	212.15	16.59	-40.2	-42.3	24.6	0.00e+00	0	41	0	0	52	4473
2026-01-08 04:26:07.83	211.38	16.63	-40.1	-42.1	24.8	0.00e+00	0	40	0	0	52	4380
2026-01-08 04:26:09.84	210.61	16.67	-40.4	-42.5	24.6	0.00e+00	0	40	0	0	52	4553
2026-01-08 04:26:11.84	209.84	16.70	-40.3	-42.4	24.6	0.00e+00	0	40	0	0	52	4516
2026-01-08 04:26:13.85	209.06	16.73	-40.2	-42.3	24.6	0.00e+00	0	40	0	0	52	4470
2026-01-08 04:26:15.85	208.29	16.75	-40.0	-42.1	24.8	0.00e+00	0	41	0	0	52	4362
2026-01-08 04:26:17.86	207.51	16.77	-39.7	-41.7	25.1	0.00e+00	0	40	0	0	51	4439
2026-01-08 04:26:20.23	206.59	16.79	-39.4	-41.3	25.4	0.00e+00	0	41	0	0	50	4485
2026-01-08 04:26:22.58	205.67	16.80	-39.2	-41.2	25.4	0.00e+00	0	41	0	0	50	4415
2026-01-08 04:26:24.79	204.81	16.81	-39.2	-41.2	25.5	0.00e+00	0	41	0	0	50	4412
2026-01-08 04:26:26.97	203.96	16.81	-40.0	-42.1	24.8	0.00e+00	0	41	0	0	50	4896
2026-01-08 04:26:29.13	203.12	16.80	-40.5	-42.6	24.5	0.00e+00	0	40	0	0	51	4913
2026-01-08 04:26:31.31	202.27	16.79	-40.5	-42.6	24.5	0.00e+00	0	40	0	0	51	4923
2026-01-08 04:26:33.38	201.47	16.78	-40.3	-42.3	24.7	0.00e+00	0	41	0	0	51	4746
2026-01-08 04:26:35.77	200.54	16.75	-40.1	-42.2	24.8	0.00e+00	0	41	0	0	51	4680
2026-01-08 04:26:37.92	199.71	16.73	-40.0	-42.1	24.8	0.00e+00	0	40	0	0	51	4611
2026-01-08 04:26:40.09	198.87	16.70	-39.9	-41.9	24.9	0.00e+00	0	40	0	0	51	4535
2026-01-08 04:26:42.20	198.06	16.66	-39.9	-41.9	25.0	0.00e+00	0	41	0	0	51	4531
2026-01-08 04:26:44.21	197.29	16.62	-39.8	-41.9	25.0	0.00e+00	0	41	0	0	51	4515
2026-01-08 04:26:46.21	196.52	16.58	-39.9	-42.0	24.9	0.00e+00	0	41	0	0	51	4579
2026-01-08 04:26:48.24	195.74	16.54	-40.1	-42.2	24.8	0.00e+00	0	41	0	0	51	4653
2026-01-08 04:26:50.24	194.99	16.49	-40.1	-42.2	24.8	0.00e+00	0	41	0	0	51	4671
2026-01-08 04:26:52.25	194.22	16.43	-40.2	-42.3	24.6	0.00e+00	0	40	0	0	51	4747
2026-01-08 04:26:54.25	193.47	16.37	-40.3	-42.3	24.7	0.00e+00	0	41	0	0	51	4759
2026-01-08 04:26:56.26	192.72	16.31	-40.4	-42.5	24.6	0.00e+00	0	41	0	0	51	4828
2026-01-08 04:26:58.23	191.98	16.24	-40.3	-42.4	24.6	0.00e+00	0	41	0	0	51	4787
2026-01-08 04:27:00.24	191.24	16.17	-40.6	-42.7	24.4	0.00e+00	0	41	0	0	51	4958
2026-01-08 04:27:02.24	190.50	16.10	-40.7	-42.8	24.4	0.00e+00	0	41	0	0	51	5026
2026-01-08 04:27:04.25	189.77	16.02	-40.4	-42.5	24.5	0.00e+00	0	41	0	0	52	4567
2026-01-08 04:27:06.35	189.00	15.94	-40.5	-42.7	24.4	0.00e+00	0	41	0	0	52	4662
2026-01-08 04:27:08.35	188.28	15.85	-41.2	-43.4	23.9	0.00e+00	0	40	0	0	52	5067
2026-01-08 04:27:10.35	187.56	15.77	-41.3	-43.6	23.7	0.00e+00	0	41	0	0	53	4903
2026-01-08 04:27:12.36	186.85	15.68	-40.6	-42.8	24.2	0.00e+00	0	41	0	0	53	4482
2026-01-08 04:27:14.36	186.14	15.58	-40.5	-42.6	24.4	0.00e+00	0	41	0	0	52	4643
2026-01-08 04:27:16.37	185.44	15.48	-40.8	-43.0	24.1	0.00e+00	0	40	0	0	52	4823
2026-01-08 04:27:18.37	184.75	15.38	-41.0	-43.2	24.0	0.00e+00	0	41	0	0	52	4940
2026-01-08 04:27:20.37	184.06	15.28	-40.9	-43.1	24.0	0.00e+00	0	40	0	0	52	4909
2026-01-08 04:27:22.38	183.37	15.18	-40.7	-42.9	24.2	0.00e+00	0	41	0	0	52	4784
2026-01-08 04:27:24.49	182.66	15.06	-40.8	-43.0	24.1	0.00e+00	0	41	0	0	52	4821
2026-01-08 04:27:26.53	181.97	14.95	-40.8	-43.0	24.1	0.00e+00	0	40	0	0	52	4855
2026-01-08 04:27:28.53	181.31	14.84	-40.7	-42.8	24.2	0.00e+00	0	41	0	0	52	4751
2026-01-08 04:27:30.54	180.65	14.72	-40.6	-42.7	24.3	0.00e+00	0	40	0	0	52	4688
2026-01-08 04:27:32.54	180.00	14.60	-40.5	-42.6	24.4	0.00e+00	0	41	0	0	52	4644
2026-01-08 04:27:34.55	179.35	14.48	-40.3	-42.5	24.5	2.20e-06	0	41	0	0	52	4565
2026-01-08 04:27:36.55	178.72	14.36	-40.5	-42.6	24.3	0.00e+00	0	40	0	0	52	4629
2026-01-08 04:27:38.56	178.08	14.24	-40.4	-42.6	24.4	0.00e+00	0	41	0	0	52	4614
2026-01-08 04:27:40.71	177.41	14.10	-41.1	-43.3	23.9	0.00e+00	0	41	0	0	52	4996
2026-01-08 04:27:42.80	176.77	13.97	-41.5	-43.7	23.5	0.00e+00	0	41	0	0	53	4983
2026-01-08 04:27:44.80	176.16	13.84	-41.4	-43.6	23.6	0.00e+00	0	41	0	0	53	4910
2026-01-08 04:27:46.81	175.56	13.71	-40.8	-43.0	24.1	0.00e+00	0	40	0	0	53	4566
2026-01-08 04:27:48.82	174.96	13.57	-40.9	-43.1	24.0	0.00e+00	0	40	0	0	53	4621
2026-01-08 04:27:50.82	174.37	13.44	-41.2	-43.4	23.8	0.00e+00	0	41	0	0	53	4795
2026-01-08 04:27:52.83	173.78	13.30	-41.6	-43.9	22.8	0.00e+00	0	41	0	0	53	5053
2026-01-08 04:27:54.83	173.21	13.17	-41.4	-43.7	23.5	0.00e+00	0	41	0	0	53	4935
2026-01-08 04:27:56.84	172.64	13.03	-40.9	-43.1	24.0	0.00e+00	0	41	0	0	53	4629
2026-01-08 04:27:58.84	172.08	12.89	-40.9	-43.1	24.0	0.00e+00	0	41	0	0	53	4616
2026-01-08 04:28:00.85	171.52	12.75	-41.0	-43.3	23.9	0.00e+00	0	41	0	0	53	4706
2026-01-08 04:28:02.85	170.97	12.61	-41.3	-43.6	23.6	0.00e+00	0	41	0	0	53	4898
2026-01-08 04:28:04.86	170.43	12.47	-41.7	-44.0	23.3	0.00e+00	0	40	0	0	53	5116
2026-01-08 04:28:06.86	169.90	12.33	-41.8	-44.1	23.2	0.00e+00	0	40	0	0	54	4910
2026-01-08 04:28:08.87	169.37	12.19	-41.7	-44.0	23.2	0.00e+00	0	41	0	0	54	4864
2026-01-08 04:28:10.87	168.85	12.04	-41.5	-43.7	23.4	0.00e+00	0	41	0	0	54	4693
2026-01-08 04:28:12.87	168.33	11.90	-41.2	-43.5	23.7	0.00e+00	0	41	0	0	54	4576
2026-01-08 04:28:14.88	167.82	11.75	-41.7	-44.1	23.3	0.00e+00	0	41	0	0	54	4873
2026-01-08 04:28:16.89	167.32	11.61	-41.9	-44.3	23.0	0.00e+00	0	41	0	0	54	5024
2026-01-08 04:28:19.24	166.74	11.44	-41.6	-44.0	23.3	0.00e+00	0	41	0	0	54	4815
2026-01-08 04:28:21.39	166.22	11.28	-41.6	-43.9	23.3	0.00e+00	0	41	0	0	54	4786
2026-01-08 04:28:23.56	165.70	11.12	-41.9	-44.2	23.1	2.05e-05	0	40	0	0	54	4982
2026-01-08 04:28:25.77	165.17	10.96	-42.2	-44.6	22.8	1.94e-03	0	40	0	0	55	4892
2026-01-08 04:28:27.93	164.67	10.81	-42.3	-44.7	22.7	0.00e+00	0	40	0	0	55	4977
2026-01-08 04:28:30.10	164.17	10.65	-42.1	-44.5	22.8	0.00e+00	0	41	0	0	55	4852
2026-01-08 04:28:32.12	163.72	10.50	-42.1	-44.5	22.8	3.62e-03	0	41	0	0	55	4836
2026-01-08 04:28:34.21	163.25	10.35	-42.0	-44.3	22.9	0.00e+00	0	41	0	0	55	4746
2026-01-08 04:28:36.42	162.76	10.18	-42.2	-44.6	22.8	0.00e+00	0	41	0	0	55	4877
2026-01-08 04:28:38.43	162.33	10.04	-42.2	-44.6	22.7	5.70e-06	0	41	0	0	55	4908
2026-01-08 04:28:40.43	161.90	9.89	-42.3	-44.8	22.6	0.00e+00	0	41	0	0	55	4991
2026-01-08 04:28:42.51	161.46	9.74	-42.5	-44.9	22.5	0.00e+00	0	41	0	0	55	5087
2026-01-08 04:28:44.71	161.00	9.58	-42.8	-45.2	22.3	0.00e+00	0	40	0	0	56	4964
2026-01-08 04:28:46.91	160.55	9.42	-42.7	-45.2	22.3	4.80e-05	0	41	0	0	56	4962
2026-01-08 04:28:49.10	160.11	9.26	-42.8	-45.3	22.3	0.00e+00	0	40	0	0	56	5019
2026-01-08 04:28:51.11	159.71	9.11	-42.7	-45.2	22.4	0.00e+00	0	41	0	0	56	4928
2026-01-08 04:28:53.12	159.31	8.97	-50.2	-64.6	4.4	0.00e+00	0	40	0	0	71	19545
2026-01-08 04:28:55.12	158.93	8.82	-50.3	-68.9	3.8	8.46e-01	0	41	104	0	72	30302
2026-01-08 04:28:57.10	158.55	8.68	-50.8	-69.7	3.8	8.47e-01	0	41	104	0	72	33077
2026-01-08 04:28:59.11	158.17	8.53	-50.6	-69.8	3.8	8.46e-01	0	41	104	0	72	33418
2026-01-08 04:29:01.30	157.76	8.38	-51.0	-69.8	3.8	8.47e-01	0	41	104	0	72	33503
2026-01-08 04:29:03.38	157.38	8.23	-51.0	-69.9	3.8	8.47e-01	0	41	104	0	72	33730
2026-01-08 04:29:05.38	157.02	8.08	-51.1	-69.9	3.8	8.46e-01	0	40	104	0	72	33762
2026-01-08 04:29:07.39	156.66	7.94	-51.0	-69.9	3.8	8.46e-01	0	41	104	0	72	33780
2026-01-08 04:29:09.40	156.31	7.80	-50.8	-69.9	3.8	8.47e-01	0	41	104	0	72	33737
2026-01-08 04:29:11.41	155.96	7.65	-51.1	-69.8	3.8	8.46e-01	0	41	104	0	72	33576
2026-01-08 04:29:13.42	155.61	7.51	-51.1	-69.8	3.8	8.47e-01	0	41	104	0	72	33682
2026-01-08 04:29:15.48	155.26	7.37	-50.8	-69.8	3.8	8.47e-01	0	41	104	0	72	33540
2026-01-08 04:29:17.55	154.92	7.22	-50.5	-69.8	3.8	8.47e-01	0	41	104	0	72	33452
2026-01-08 04:29:19.55	154.59	7.08	-50.6	-69.8	3.8	8.47e-01	0	41	104	0	72	33357
2026-01-08 04:29:21.56	154.26	6.94	-50.5	-69.7	3.8	8.46e-01	0	40	104	0	72	33265
2026-01-08 04:29:23.57	153.94	6.80	-50.5	-69.8	3.8	8.47e-01	0	41	104	0	72	33462
2026-01-08 04:29:25.58	153.62	6.66	-50.5	-69.8	3.8	8.46e-01	0	41	104	0	72	33360
2026-01-08 04:29:27.59	153.31	6.52	-50.5	-69.8	3.8	8.47e-01	0	41	104	0	72	33374
2026-01-08 04:29:29.60	153.00	6.39	-50.5	-69.8	3.8	8.47e-01	0	41	104	0	72	33417
2026-01-08 04:29:31.60	152.70	6.25	-50.5	-69.8	3.8	8.47e-01	0	41	104	0	72	33386
2026-01-08 04:29:33.61	152.40	6.11	-50.5	-69.8	3.8	8.48e-01	0	41	104	0	72	33416
2026-01-08 04:29:35.62	152.10	5.98	-50.5	-69.8	3.8	8.46e-01	0	41	104	0	72	33418
2026-01-08 04:29:37.63	151.81	5.84	-50.5	-69.8	3.8	8.47e-01	0	40	104	0	72	33356
2026-01-08 04:29:39.64	151.52	5.70	-50.5	-69.8	3.8	8.46e-01	0	41	104	0	72	33384
2026-01-08 04:29:41.65	151.23	5.57	-50.6	-69.8	3.8	8.47e-01	0	41	104	0	72	33426
2026-01-08 04:29:43.65	150.95	5.44	-50.6	-69.8	3.8	8.47e-01	0	41	104	0	72	33342
2026-01-08 04:29:45.66	150.67	5.30	-50.6	-69.8	3.8	8.47e-01	0	41	104	0	72	33420

#Closed at: 2026-01-08 04:29:47
#Recorded file [0 MB]: D:/Data/31040_260108_072257.dat