passes_logs/2026/01/08/T1/T1__20260108_083822_NOAA_20_JPSS-1_rec.log

#Pass ID: 20260108_083822_NOAA 20 (JPSS-1)
#Satellite: NOAA 20 (JPSS-1)
#Configuration: NOAA 20
#almurnet v.1.7.20251203
#Start time: 2026-01-08 08:38:22

#Version: 2.0.20230620
#Station: T1
#Location: 37.570604 lon 55.790049 lat
#TLE: 1 43013U 17073A   26006.30790171  .00000126  00000+0  80695-4 0  9991
#TLE: 2 43013  98.7629 307.3394 0001808  51.8724 308.2615 14.19533762421505

#Time	Az	El	Level	Level2	SNR	BER	BlckErr	Temp	State	Recorded	gain1	gain2
2026-01-08 08:38:22.36	119.72	4.97	-50.0	-65.2	3.8	1.49e+00	0	38	0	0	71	20840
2026-01-08 08:38:25.36	119.52	5.16	-50.0	-65.2	3.8	1.49e+00	0	38	104	0	71	20838
2026-01-08 08:38:28.37	119.32	5.36	-50.0	-65.1	3.8	1.49e+00	0	39	104	0	71	20733
2026-01-08 08:38:31.37	119.11	5.56	-50.0	-65.1	3.8	1.49e+00	0	39	104	0	71	20687
2026-01-08 08:38:34.38	118.91	5.75	-49.9	-65.1	3.8	1.49e+00	0	39	104	0	71	20658
2026-01-08 08:38:37.39	118.70	5.95	-49.9	-65.2	3.8	1.49e+00	0	39	104	0	71	20800
2026-01-08 08:38:40.39	118.49	6.15	-49.9	-65.1	3.8	1.49e+00	0	39	104	0	71	20737
2026-01-08 08:38:43.40	118.27	6.36	-49.9	-65.1	3.8	1.49e+00	0	39	104	0	71	20640
2026-01-08 08:38:46.40	118.05	6.56	-49.9	-65.1	3.8	1.49e+00	0	39	104	0	71	20611
2026-01-08 08:38:49.41	117.83	6.76	-49.9	-65.1	3.8	1.49e+00	0	39	104	0	71	20725
2026-01-08 08:38:52.42	117.61	6.97	-49.9	-65.2	3.8	1.49e+00	0	39	104	0	71	20870
2026-01-08 08:38:55.43	117.38	7.18	-49.9	-65.1	3.8	1.49e+00	0	40	104	0	71	20578
2026-01-08 08:38:58.44	117.15	7.39	-49.9	-64.8	3.8	1.49e+00	0	40	104	0	71	19919
2026-01-08 08:39:01.44	116.91	7.59	-50.0	-65.1	3.8	1.49e+00	0	40	104	0	71	20560
2026-01-08 08:39:04.45	116.68	7.81	-49.7	-61.0	4.4	1.40e+00	0	40	0	0	71	12826
2026-01-08 08:39:07.45	116.43	8.02	-48.2	-54.2	9.6	2.47e-02	0	40	0	5242880	68	7032
2026-01-08 08:39:10.46	116.19	8.23	-46.2	-50.1	13.7	9.10e-06	0	40	0	10485760	64	5472
2026-01-08 08:39:13.47	115.94	8.45	-45.9	-49.6	14.3	7.00e-07	0	40	0	16777216	63	5477
2026-01-08 08:39:16.48	115.69	8.66	-47.0	-51.6	12.2	7.40e-05	0	40	0	22020096	64	6565
2026-01-08 08:39:19.49	115.43	8.88	-48.8	-56.3	7.5	4.34e-02	0	40	0	28311552	68	8952
2026-01-08 08:39:22.50	115.17	9.10	-49.3	-58.4	4.7	1.43e+00	0	40	104	31457280	70	10083
2026-01-08 08:39:25.49	114.90	9.32	-49.9	-63.4	3.8	1.49e+00	0	40	104	34603008	70	17991
2026-01-08 08:39:28.50	114.63	9.54	-48.1	-53.9	10.0	1.10e-02	0	40	0	38797312	68	6744
2026-01-08 08:39:31.51	114.36	9.76	-46.5	-50.7	13.2	2.28e-05	0	40	0	44040192	65	5563
2026-01-08 08:39:34.52	114.08	9.99	-46.1	-49.8	14.1	1.50e-06	0	40	0	50331648	64	5329
2026-01-08 08:39:37.52	113.80	10.21	-45.9	-49.4	14.7	0.00e+00	0	40	0	55574528	63	5341
2026-01-08 08:39:40.53	113.51	10.44	-45.8	-49.2	14.9	7.00e-07	0	40	0	61865984	63	5244
2026-01-08 08:39:43.53	113.22	10.66	-45.8	-49.2	14.9	0.00e+00	0	40	0	67108864	63	5245
2026-01-08 08:39:46.53	112.93	10.89	-45.7	-49.1	15.0	0.00e+00	0	40	0	72351744	63	5162
2026-01-08 08:39:49.53	112.63	11.12	-45.8	-49.3	14.8	0.00e+00	0	40	0	78643200	63	5286
2026-01-08 08:39:52.54	112.32	11.36	-45.7	-49.1	14.9	0.00e+00	0	40	0	83886080	63	5215
2026-01-08 08:39:55.54	112.01	11.59	-45.6	-48.9	15.2	0.00e+00	0	40	0	89128960	62	5372
2026-01-08 08:39:58.54	111.70	11.82	-45.6	-48.9	15.2	0.00e+00	0	40	0	95420416	62	5374
2026-01-08 08:40:01.55	111.38	12.06	-45.7	-49.0	15.1	0.00e+00	0	40	0	100663296	62	5450
2026-01-08 08:40:04.54	111.05	12.30	-45.4	-48.6	15.6	0.00e+00	0	40	0	106954752	62	5175
2026-01-08 08:40:07.55	110.72	12.54	-45.4	-48.6	15.6	0.00e+00	0	40	0	112197632	62	5173
2026-01-08 08:40:10.55	110.39	12.78	-45.5	-48.7	15.5	0.00e+00	0	40	0	117440512	62	5227
2026-01-08 08:40:13.55	110.04	13.02	-45.4	-48.6	15.6	0.00e+00	0	40	0	123731968	62	5185
2026-01-08 08:40:16.56	109.70	13.26	-45.3	-48.4	15.8	0.00e+00	0	40	0	128974848	62	5099
2026-01-08 08:40:19.56	109.34	13.51	-45.2	-48.3	15.9	0.00e+00	0	40	0	135266304	62	5019
2026-01-08 08:40:22.57	108.98	13.75	-45.5	-48.6	15.6	0.00e+00	0	40	0	140509184	62	5192
2026-01-08 08:40:25.57	108.62	14.00	-45.4	-48.4	15.8	0.00e+00	0	40	0	145752064	62	5098
2026-01-08 08:40:28.57	108.24	14.25	-45.3	-48.3	15.9	0.00e+00	0	40	0	152043520	62	5021
2026-01-08 08:40:31.57	107.87	14.50	-45.1	-48.1	16.1	0.00e+00	0	41	0	157286400	62	4893
2026-01-08 08:40:34.58	107.48	14.75	-44.9	-47.8	16.4	0.00e+00	0	40	0	162529280	61	5007
2026-01-08 08:40:37.59	107.09	15.00	-44.9	-47.9	16.3	0.00e+00	0	41	0	168820736	61	5070
2026-01-08 08:40:40.59	106.69	15.26	-44.8	-47.7	16.5	0.00e+00	0	41	0	174063616	61	4953
2026-01-08 08:40:43.60	106.28	15.51	-44.8	-47.7	16.5	0.00e+00	0	41	0	179306496	61	4927
2026-01-08 08:40:46.60	105.87	15.77	-44.7	-47.5	16.7	0.00e+00	0	41	0	185597952	61	4827
2026-01-08 08:40:49.60	105.45	16.03	-44.5	-47.3	16.9	0.00e+00	0	40	0	190840832	61	4725
2026-01-08 08:40:52.61	105.02	16.28	-44.5	-47.2	17.0	0.00e+00	0	41	0	197132288	60	4955
2026-01-08 08:40:55.61	104.59	16.54	-44.5	-47.3	16.9	0.00e+00	0	41	0	202375168	60	5014
2026-01-08 08:40:58.62	104.14	16.81	-44.7	-47.5	16.7	0.00e+00	0	40	0	207618048	60	5135
2026-01-08 08:41:01.62	103.69	17.07	-44.5	-47.3	16.9	0.00e+00	0	41	0	213909504	60	5023
2026-01-08 08:41:04.62	103.23	17.33	-44.6	-47.3	16.9	0.00e+00	0	40	0	219152384	60	5030
2026-01-08 08:41:07.62	102.77	17.59	-44.6	-47.3	16.9	0.00e+00	0	41	0	224395264	60	5038
2026-01-08 08:41:10.62	102.29	17.86	-44.5	-47.2	17.0	0.00e+00	0	41	0	230686720	60	4961
2026-01-08 08:41:13.62	101.81	18.12	-44.6	-47.3	16.9	0.00e+00	0	41	0	235929600	60	5036
2026-01-08 08:41:16.62	101.32	18.39	-44.5	-47.2	17.0	0.00e+00	0	41	0	242221056	60	4980
2026-01-08 08:41:19.63	100.82	18.65	-44.8	-47.6	16.7	0.00e+00	0	41	0	247463936	60	5185
2026-01-08 08:41:22.63	100.31	18.92	-44.9	-47.7	16.6	0.00e+00	0	40	0	252706816	60	5279
2026-01-08 08:41:25.64	99.79	19.19	-44.9	-47.8	16.4	0.00e+00	0	41	0	258998272	60	5324
2026-01-08 08:41:28.65	99.26	19.46	-44.9	-47.8	16.5	0.00e+00	0	40	0	264241152	60	5286
2026-01-08 08:41:31.65	98.72	19.73	-44.7	-47.5	16.7	0.00e+00	0	41	0	269484032	60	5148
2026-01-08 08:41:34.66	98.17	19.99	-44.6	-47.4	16.8	0.00e+00	0	41	0	275775488	60	5085
2026-01-08 08:41:37.66	97.62	20.26	-44.5	-47.3	17.0	0.00e+00	0	41	0	281018368	60	5015
2026-01-08 08:41:40.66	97.05	20.53	-44.4	-47.1	17.1	0.00e+00	0	41	0	287309824	60	4910
2026-01-08 08:41:43.66	96.47	20.80	-44.6	-47.3	16.9	0.00e+00	0	41	0	292552704	60	5037
2026-01-08 08:41:46.67	95.88	21.07	-44.4	-47.0	17.2	0.00e+00	0	41	0	297795584	60	4861
2026-01-08 08:41:49.67	95.29	21.34	-44.2	-46.9	17.4	0.00e+00	0	41	0	304087040	60	4779
2026-01-08 08:41:52.67	94.68	21.60	-44.1	-46.7	17.5	0.00e+00	0	41	0	309329920	60	4695
2026-01-08 08:41:55.67	94.06	21.87	-44.0	-46.5	17.6	0.00e+00	0	41	0	314572800	59	4858
2026-01-08 08:41:58.68	93.43	22.13	-43.8	-46.4	17.8	0.00e+00	0	41	0	320864256	59	4763
2026-01-08 08:42:01.69	92.79	22.40	-43.5	-46.0	18.2	0.00e+00	0	41	0	326107136	59	4554
2026-01-08 08:42:04.70	92.14	22.66	-43.5	-45.9	18.2	0.00e+00	0	41	0	331350016	58	4788
2026-01-08 08:42:07.70	91.48	22.92	-43.7	-46.2	17.9	0.00e+00	0	41	0	337641472	58	4980
2026-01-08 08:42:10.70	90.80	23.19	-43.4	-45.8	18.3	0.00e+00	0	41	0	342884352	58	4718
2026-01-08 08:42:13.71	90.12	23.44	-43.2	-45.7	18.5	0.00e+00	0	41	0	349175808	58	4657
2026-01-08 08:42:16.71	89.42	23.70	-43.2	-45.7	18.5	0.00e+00	0	40	0	354418688	58	4668
2026-01-08 08:42:19.71	88.71	23.96	-43.2	-45.7	18.5	0.00e+00	0	40	0	359661568	58	4667
2026-01-08 08:42:22.71	87.99	24.21	-43.4	-45.9	18.3	0.00e+00	0	41	0	365953024	58	4803
2026-01-08 08:42:25.72	87.26	24.46	-43.5	-46.0	18.2	0.00e+00	0	41	0	371195904	58	4864
2026-01-08 08:42:28.71	86.52	24.70	-43.6	-46.2	18.0	0.00e+00	0	41	0	376438784	58	4953
2026-01-08 08:42:31.72	85.76	24.95	-43.6	-46.1	18.1	0.00e+00	0	41	0	382730240	58	4919
2026-01-08 08:42:34.73	85.00	25.19	-43.6	-46.2	18.1	0.00e+00	0	40	0	387973120	58	4928
2026-01-08 08:42:37.73	84.22	25.43	-43.7	-46.3	18.0	0.00e+00	0	41	0	394264576	58	4994
2026-01-08 08:42:40.74	83.43	25.66	-44.1	-46.8	17.5	0.00e+00	0	41	0	399507456	58	5281
2026-01-08 08:42:43.74	82.63	25.89	-44.1	-46.7	17.5	0.00e+00	0	40	0	404750336	59	4967
2026-01-08 08:42:46.75	81.81	26.11	-43.8	-46.3	17.9	0.00e+00	0	41	0	411041792	59	4754
2026-01-08 08:42:49.74	80.99	26.33	-43.7	-46.2	18.0	0.00e+00	0	41	0	416284672	59	4675
2026-01-08 08:42:52.75	80.15	26.55	-43.6	-46.1	18.1	0.00e+00	0	41	0	421527552	59	4633
2026-01-08 08:42:55.76	79.30	26.76	-43.7	-46.2	18.0	0.00e+00	0	41	0	427819008	59	4695
2026-01-08 08:42:58.76	78.45	26.96	-44.0	-46.5	17.8	0.00e+00	0	40	0	433061888	59	4836
2026-01-08 08:43:01.77	77.57	27.16	-44.0	-46.5	17.7	0.00e+00	0	41	0	439353344	59	4866
2026-01-08 08:43:04.77	76.69	27.36	-43.9	-46.4	17.8	0.00e+00	0	40	0	444596224	59	4814
2026-01-08 08:43:07.78	75.80	27.54	-44.2	-46.8	17.5	0.00e+00	0	41	0	449839104	59	4988
2026-01-08 08:43:10.79	74.90	27.72	-44.3	-46.9	17.4	0.00e+00	0	40	0	456130560	59	5090
2026-01-08 08:43:13.80	73.99	27.90	-44.5	-47.2	17.1	0.00e+00	0	40	0	461373440	59	5226
2026-01-08 08:43:16.80	73.07	28.07	-44.8	-47.5	16.9	0.00e+00	0	41	0	466616320	60	5136
2026-01-08 08:43:19.81	72.13	28.22	-44.8	-47.6	16.8	0.00e+00	0	40	0	472907776	60	5195
2026-01-08 08:43:22.81	71.19	28.38	-44.8	-47.6	16.8	0.00e+00	0	40	0	478150656	60	5166
2026-01-08 08:43:25.81	70.25	28.52	-44.8	-47.6	16.8	0.00e+00	0	41	0	483393536	60	5181
2026-01-08 08:43:28.81	69.29	28.65	-44.9	-47.7	16.7	0.00e+00	0	41	0	489684992	60	5236
2026-01-08 08:43:31.81	68.33	28.78	-45.0	-47.9	16.5	0.00e+00	0	40	0	494927872	61	5075
2026-01-08 08:43:34.82	67.36	28.90	-44.8	-47.5	16.9	0.00e+00	0	40	0	501219328	61	4845
2026-01-08 08:43:37.82	66.38	29.01	-45.2	-48.1	16.3	0.00e+00	0	40	0	506462208	61	5190
2026-01-08 08:43:40.82	65.39	29.11	-45.3	-48.3	16.1	0.00e+00	0	41	0	511705088	61	5291
2026-01-08 08:43:43.83	64.40	29.20	-45.5	-48.5	16.0	0.00e+00	0	41	0	517996544	61	5423
2026-01-08 08:43:46.84	63.40	29.29	-45.7	-48.8	15.8	0.00e+00	0	40	0	523239424	62	5310
2026-01-08 08:43:49.85	62.40	29.36	-45.7	-48.9	15.6	0.00e+00	0	41	0	528482304	62	5379
2026-01-08 08:43:52.85	61.40	29.42	-45.5	-48.6	15.9	0.00e+00	0	41	0	534773760	62	5187
2026-01-08 08:43:55.86	60.39	29.47	-45.8	-49.0	15.4	0.00e+00	0	41	0	540016640	62	5428
2026-01-08 08:43:58.86	59.38	29.52	-45.7	-48.9	15.6	0.00e+00	0	41	0	546308096	62	5356
2026-01-08 08:44:01.87	58.36	29.55	-45.6	-48.7	15.8	0.00e+00	0	41	0	551550976	62	5222
2026-01-08 08:44:04.87	57.34	29.57	-45.7	-48.9	15.6	0.00e+00	0	40	0	556793856	62	5341
2026-01-08 08:44:07.88	56.33	29.59	-45.5	-48.5	16.0	0.00e+00	0	40	0	563085312	62	5128
2026-01-08 08:44:10.89	55.31	29.59	-45.5	-48.6	15.9	0.00e+00	0	41	0	568328192	62	5169
2026-01-08 08:44:13.90	54.29	29.58	-45.2	-48.1	16.4	0.00e+00	0	40	0	573571072	62	4871
2026-01-08 08:44:16.90	53.27	29.57	-45.2	-48.2	16.3	0.00e+00	0	41	0	579862528	62	4934
2026-01-08 08:44:19.91	52.26	29.54	-44.8	-47.6	16.8	0.00e+00	0	40	0	585105408	61	4898
2026-01-08 08:44:22.92	51.24	29.50	-44.7	-47.5	16.9	0.00e+00	0	41	0	591396864	61	4823
2026-01-08 08:44:25.92	50.23	29.46	-44.9	-47.8	16.7	0.00e+00	0	41	0	596639744	61	4998
2026-01-08 08:44:28.93	49.22	29.40	-44.8	-47.7	16.7	0.00e+00	0	41	0	601882624	61	4950
2026-01-08 08:44:31.93	48.22	29.33	-44.7	-47.4	17.0	0.00e+00	0	41	0	608174080	61	4798
2026-01-08 08:44:34.93	47.22	29.26	-44.6	-47.4	17.0	0.00e+00	0	41	0	613416960	61	4775
2026-01-08 08:44:37.94	46.23	29.17	-44.9	-47.7	16.7	0.00e+00	0	41	0	618659840	61	4968
2026-01-08 08:44:40.95	45.24	29.08	-44.5	-47.2	17.1	0.00e+00	0	41	0	624951296	61	4704
2026-01-08 08:44:43.95	44.26	28.97	-44.6	-47.3	17.1	0.00e+00	0	41	0	630194176	60	5027
2026-01-08 08:44:46.96	43.28	28.86	-44.7	-47.5	16.9	0.00e+00	0	40	0	636485632	60	5123
2026-01-08 08:44:49.97	42.31	28.74	-45.1	-48.0	16.5	0.00e+00	0	41	0	641728512	60	5427
2026-01-08 08:44:52.97	41.36	28.61	-45.5	-48.5	16.0	0.00e+00	0	41	0	646971392	61	5428
2026-01-08 08:44:55.98	40.40	28.47	-45.5	-48.5	15.9	0.00e+00	0	40	0	653262848	61	5448
2026-01-08 08:44:58.99	39.46	28.32	-45.5	-48.6	15.9	0.00e+00	0	40	0	658505728	61	5486
2026-01-08 08:45:02.00	38.52	28.17	-45.5	-48.7	15.8	0.00e+00	0	41	0	663748608	61	5530
2026-01-08 08:45:05.00	37.60	28.01	-45.5	-48.6	15.8	0.00e+00	0	41	0	670040064	61	5526
2026-01-08 08:45:08.00	36.68	27.84	-45.8	-49.0	15.5	0.00e+00	0	40	0	675282944	62	5431
2026-01-08 08:45:11.01	35.78	27.66	-45.7	-48.8	15.6	0.00e+00	0	41	0	681574400	62	5333
2026-01-08 08:45:14.02	34.88	27.48	-45.5	-48.6	15.8	0.00e+00	0	41	0	686817280	62	5210
2026-01-08 08:45:17.03	33.99	27.29	-45.3	-48.3	16.1	0.00e+00	0	41	0	692060160	62	5016
2026-01-08 08:45:20.02	33.12	27.10	-45.4	-48.5	16.0	0.00e+00	0	41	0	698351616	62	5121
2026-01-08 08:45:23.02	32.26	26.90	-45.3	-48.4	16.0	0.00e+00	0	41	0	703594496	62	5093
2026-01-08 08:45:26.02	31.41	26.69	-45.0	-47.8	16.6	0.00e+00	0	41	0	708837376	61	5027
2026-01-08 08:45:29.03	30.57	26.48	-44.8	-47.8	16.7	0.00e+00	0	41	0	715128832	61	5001
2026-01-08 08:45:32.03	29.74	26.26	-44.9	-48.1	16.4	0.00e+00	0	41	0	720371712	61	5163
2026-01-08 08:45:35.04	28.92	26.04	-44.8	-47.6	16.8	0.00e+00	0	40	0	726663168	61	4925
2026-01-08 08:45:38.04	28.12	25.82	-44.6	-47.3	17.1	0.00e+00	0	41	0	731906048	61	4730
2026-01-08 08:45:41.04	27.32	25.59	-44.4	-47.1	17.3	0.00e+00	0	41	0	737148928	60	4912
2026-01-08 08:45:44.04	26.54	25.35	-44.5	-47.2	17.3	0.00e+00	0	41	0	743440384	60	4929
2026-01-08 08:45:47.05	25.77	25.12	-44.2	-46.8	17.6	0.00e+00	0	41	0	748683264	60	4720
2026-01-08 08:45:50.06	25.01	24.87	-44.0	-46.6	17.7	0.00e+00	0	41	0	753926144	59	4881
2026-01-08 08:45:53.07	24.26	24.63	-43.8	-46.4	17.9	0.00e+00	0	41	0	760217600	59	4792
2026-01-08 08:45:56.07	23.53	24.38	-43.7	-46.3	18.0	0.00e+00	0	40	0	765460480	59	4730
2026-01-08 08:45:59.08	22.80	24.13	-43.3	-45.8	18.5	0.00e+00	0	41	0	771751936	58	4721
2026-01-08 08:46:02.08	22.09	23.88	-43.2	-45.7	18.6	0.00e+00	0	41	0	776994816	58	4659
2026-01-08 08:46:05.10	21.38	23.62	-43.1	-45.5	18.7	0.00e+00	0	41	0	782237696	58	4552
2026-01-08 08:46:08.10	20.70	23.37	-43.1	-45.5	18.8	0.00e+00	0	41	0	788529152	58	4546
2026-01-08 08:46:11.11	20.02	23.11	-42.9	-45.3	18.9	0.00e+00	0	41	0	793772032	57	4724
2026-01-08 08:46:14.12	19.35	22.85	-42.5	-44.8	19.4	0.00e+00	0	41	0	799014912	56	4717
2026-01-08 08:46:17.12	18.69	22.59	-42.2	-44.4	19.7	0.00e+00	0	40	0	805306368	56	4505
2026-01-08 08:46:20.12	18.05	22.33	-42.4	-44.7	19.4	0.00e+00	0	41	0	810549248	56	4679
2026-01-08 08:46:23.12	17.42	22.06	-42.3	-44.6	19.5	0.00e+00	0	41	0	816840704	56	4612
2026-01-08 08:46:26.13	16.79	21.80	-42.2	-44.4	19.7	0.00e+00	0	41	0	822083584	56	4505
2026-01-08 08:46:29.13	16.18	21.53	-42.3	-44.6	19.6	0.00e+00	0	40	0	827326464	56	4605
2026-01-08 08:46:32.13	15.58	21.27	-42.6	-44.8	19.3	0.00e+00	0	40	0	833617920	56	4752
2026-01-08 08:46:35.13	14.99	21.00	-42.6	-44.9	19.3	0.00e+00	0	41	0	838860800	56	4782
2026-01-08 08:46:38.14	14.41	20.73	-42.8	-45.0	19.1	0.00e+00	0	40	0	844103680	56	4850
2026-01-08 08:46:41.15	13.84	20.47	-43.0	-45.2	19.0	0.00e+00	0	40	0	850395136	56	4978
2026-01-08 08:46:44.15	13.28	20.20	-42.9	-45.3	18.9	0.00e+00	0	40	0	855638016	56	4984
2026-01-08 08:46:47.16	12.73	19.93	-42.9	-45.3	18.9	0.00e+00	0	40	0	861929472	56	5022
2026-01-08 08:46:50.17	12.19	19.66	-43.3	-45.8	18.4	0.00e+00	0	41	0	867172352	57	5015
2026-01-08 08:46:53.16	11.66	19.40	-43.5	-46.0	18.2	0.00e+00	0	41	0	872415232	57	5141
2026-01-08 08:46:56.15	11.14	19.13	-43.4	-45.9	18.3	0.00e+00	0	40	0	878706688	58	4811
2026-01-08 08:46:59.15	10.63	18.87	-43.5	-46.2	18.0	0.00e+00	0	40	0	883949568	58	4965
2026-01-08 08:47:02.16	10.12	18.60	-43.7	-46.4	17.9	0.00e+00	0	41	0	889192448	58	5061
2026-01-08 08:47:05.16	9.63	18.34	-43.8	-46.5	17.8	0.00e+00	0	41	0	895483904	58	5108
2026-01-08 08:47:08.16	9.15	18.07	-43.8	-46.6	17.7	0.00e+00	0	41	0	900726784	58	5184
2026-01-08 08:47:11.17	8.67	17.81	-43.7	-46.6	17.7	0.00e+00	0	40	0	907018240	58	5170
2026-01-08 08:47:14.17	8.20	17.54	-43.9	-46.7	17.6	0.00e+00	0	41	0	912261120	58	5224
2026-01-08 08:47:17.18	7.74	17.28	-44.0	-46.7	17.6	0.00e+00	0	41	0	917504000	58	5224
2026-01-08 08:47:20.18	7.29	17.02	-43.9	-46.7	17.6	0.00e+00	0	40	0	923795456	58	5238
2026-01-08 08:47:23.18	6.84	16.76	-44.1	-46.9	17.4	0.00e+00	0	40	0	929038336	58	5368
2026-01-08 08:47:26.19	6.40	16.50	-44.3	-47.2	17.1	0.00e+00	0	40	0	934281216	59	5243
2026-01-08 08:47:29.20	5.97	16.24	-44.5	-47.4	16.8	0.00e+00	0	40	0	940572672	59	5398
2026-01-08 08:47:32.20	5.55	15.99	-44.4	-47.4	16.9	0.00e+00	0	40	0	945815552	59	5348
2026-01-08 08:47:35.20	5.14	15.73	-44.5	-47.5	16.8	0.00e+00	0	40	0	952107008	59	5419
2026-01-08 08:47:38.21	4.73	15.48	-44.6	-47.6	16.6	0.00e+00	0	40	0	957349888	59	5518
2026-01-08 08:47:41.21	4.33	15.22	-44.7	-47.9	16.4	0.00e+00	0	40	0	962592768	60	5388
2026-01-08 08:47:44.21	3.94	14.97	-44.8	-47.9	16.4	0.00e+00	0	40	0	968884224	60	5385
2026-01-08 08:47:47.22	3.55	14.72	-44.8	-47.8	16.5	0.00e+00	0	41	0	974127104	60	5328
2026-01-08 08:47:50.22	3.17	14.47	-44.7	-47.9	16.5	0.00e+00	0	40	0	979369984	60	5343
2026-01-08 08:47:53.22	2.80	14.22	-44.8	-48.0	16.3	0.00e+00	0	41	0	985661440	60	5424
2026-01-08 08:47:56.22	2.43	13.97	-44.9	-48.0	16.3	0.00e+00	0	40	0	990904320	60	5455
2026-01-08 08:47:59.22	2.07	13.73	-44.9	-47.9	16.4	0.00e+00	0	40	0	996147200	60	5351
2026-01-08 08:48:02.23	1.72	13.48	-44.8	-47.8	16.5	0.00e+00	0	40	0	1002438656	60	5317
2026-01-08 08:48:05.23	1.37	13.24	-45.1	-48.2	16.1	0.00e+00	0	40	0	1007681536	60	5568
2026-01-08 08:48:08.24	1.02	13.00	-45.2	-48.4	15.9	0.00e+00	0	40	0	1013972992	61	5396
2026-01-08 08:48:11.25	0.69	12.76	-45.3	-48.6	15.7	0.00e+00	0	41	0	1019215872	61	5521
2026-01-08 08:48:14.25	0.36	12.52	-45.0	-48.8	15.6	0.00e+00	0	40	0	1024458752	61	5609
2026-01-08 08:48:17.26	0.03	12.28	-44.7	-48.6	15.7	0.00e+00	0	40	0	1030750208	61	5465
2026-01-08 08:48:20.27	359.71	12.04	-45.1	-48.7	15.6	0.00e+00	0	40	0	1035993088	61	5557
2026-01-08 08:48:23.28	359.39	11.81	-45.4	-49.0	15.3	0.00e+00	0	40	0	1041235968	61	5766
2026-01-08 08:48:26.28	359.08	11.58	-45.4	-49.1	15.3	0.00e+00	0	40	0	1047527424	61	5789
2026-01-08 08:48:29.29	358.78	11.34	-45.2	-49.1	15.2	0.00e+00	0	40	0	1052770304	61	5819
2026-01-08 08:48:32.29	358.48	11.11	-45.1	-49.0	15.2	0.00e+00	0	41	0	1059061760	61	5749
2026-01-08 08:48:35.30	358.18	10.88	-45.2	-48.8	15.5	0.00e+00	0	40	0	1064304640	61	5620
2026-01-08 08:48:38.31	357.89	10.66	-45.3	-48.8	15.4	0.00e+00	0	40	0	1069547520	61	5640
2026-01-08 08:48:41.30	357.61	10.43	-45.5	-48.9	15.4	0.00e+00	0	40	0	1075838976	61	5673
2026-01-08 08:48:44.31	357.32	10.20	-45.7	-49.2	15.1	0.00e+00	0	40	0	1081081856	62	5556
2026-01-08 08:48:47.32	357.05	9.98	-45.6	-49.2	15.0	0.00e+00	0	40	0	1086324736	62	5555
2026-01-08 08:48:50.32	356.77	9.76	-45.4	-49.2	15.1	0.00e+00	0	40	0	1092616192	62	5540
2026-01-08 08:48:53.32	356.51	9.54	-45.2	-49.6	14.7	0.00e+00	0	40	0	1097859072	62	5798
2026-01-08 08:48:56.33	356.24	9.32	-44.2	-49.8	14.4	7.00e-07	0	40	0	1104150528	59	7087
2026-01-08 08:48:59.34	355.98	9.10	-43.7	-50.0	14.2	1.50e-06	0	40	0	1109393408	59	7209
2026-01-08 08:49:02.34	355.72	8.88	-50.1	-65.6	3.9	1.49e+00	0	40	104	1112539136	70	23242
2026-01-08 08:49:05.35	355.47	8.67	-50.2	-65.9	3.8	1.49e+00	0	40	104	1112539136	71	22703
2026-01-08 08:49:08.35	355.22	8.45	-50.6	-65.9	3.8	1.49e+00	0	40	104	1112539136	72	21414
2026-01-08 08:49:11.36	354.98	8.24	-50.7	-66.0	3.8	1.49e+00	0	40	104	1112539136	72	21539
2026-01-08 08:49:14.36	354.74	8.03	-50.7	-66.0	3.8	1.49e+00	0	40	104	1112539136	72	21661
2026-01-08 08:49:17.37	354.50	7.82	-50.7	-66.0	3.8	1.49e+00	0	40	104	1112539136	72	21692
2026-01-08 08:49:20.38	354.27	7.61	-50.8	-66.0	3.8	1.49e+00	0	40	104	1112539136	72	21649
2026-01-08 08:49:23.38	354.04	7.40	-50.8	-66.0	3.8	1.49e+00	0	40	104	1112539136	72	21719
2026-01-08 08:49:26.39	353.81	7.19	-50.6	-66.0	3.8	1.49e+00	0	40	104	1112539136	72	21624
2026-01-08 08:49:29.40	353.59	6.98	-50.5	-66.0	3.8	1.49e+00	0	40	104	1112539136	72	21610
2026-01-08 08:49:32.40	353.37	6.78	-50.3	-66.0	3.8	1.49e+00	0	40	104	1112539136	72	21611
2026-01-08 08:49:35.40	353.15	6.58	-50.2	-66.0	3.8	1.49e+00	0	40	104	1112539136	72	21618
2026-01-08 08:49:38.40	352.94	6.38	-50.2	-66.0	3.8	1.49e+00	0	40	104	1112539136	72	21587
2026-01-08 08:49:41.41	352.73	6.17	-50.2	-66.0	3.8	1.49e+00	0	40	104	1112539136	72	21522
2026-01-08 08:49:44.42	352.52	5.97	-50.2	-65.9	3.8	1.49e+00	0	40	104	1112539136	72	21484
2026-01-08 08:49:47.42	352.32	5.78	-50.2	-65.9	3.8	1.49e+00	0	40	104	1112539136	72	21491
2026-01-08 08:49:50.43	352.11	5.58	-50.3	-66.0	3.8	1.49e+00	0	40	104	1112539136	72	21519
2026-01-08 08:49:53.43	351.91	5.38	-50.2	-66.0	3.8	1.49e+00	0	40	104	1112539136	72	21523
2026-01-08 08:49:56.44	351.72	5.19	-50.2	-66.0	3.8	1.49e+00	0	41	104	1112539136	72	21522
2026-01-08 08:49:59.45	351.53	4.99	-50.2	-65.9	3.8	1.49e+00	0	40	104	1112539136	72	21459

#Closed at: 2026-01-08 08:50:00
#Recorded file [1112 MB]: D:/Data/31040_260108_113822.dat