passes_logs/2026/01/08/T1/T1__20260108_220741_SUOMI_NPP_rec.log

#Pass ID: 20260108_220741_SUOMI NPP
#Satellite: SUOMI NPP
#Configuration: NPP
#almurnet v.1.7.20251203
#Start time: 2026-01-08 22:07:42

#Version: 2.0.20230620
#Station: T1
#Location: 37.570604 lon 55.790049 lat
#TLE: 1 37849U 11061A   26008.05542337  .00000108  00000+0  71976-4 0  9997
#TLE: 2 37849  98.7805 310.1641 0002540  75.6410 284.5048 14.19523335735721

#Time	Az	El	Level	Level2	SNR	BER	BlckErr	Temp	State	Recorded	gain1	gain2
2026-01-08 22:07:42.10	31.33	5.04	-46.8	-63.8	3.8	1.49e+00	0	39	0	0	65	25069
2026-01-08 22:07:45.11	31.61	5.21	-46.7	-63.8	3.8	1.49e+00	0	39	104	0	64	26478
2026-01-08 22:07:48.12	31.90	5.37	-46.8	-63.8	3.8	1.49e+00	0	39	104	0	64	26725
2026-01-08 22:07:51.14	32.19	5.54	-46.8	-63.7	3.8	1.49e+00	0	40	104	0	64	26263
2026-01-08 22:07:54.15	32.49	5.71	-46.7	-63.8	3.8	1.49e+00	0	40	104	0	64	26489
2026-01-08 22:07:57.16	32.78	5.88	-46.7	-63.7	3.8	1.49e+00	0	40	104	0	64	26381
2026-01-08 22:08:00.17	33.09	6.05	-46.8	-63.6	3.8	1.49e+00	0	40	104	0	64	26084
2026-01-08 22:08:03.19	33.39	6.23	-46.8	-63.7	3.8	1.49e+00	0	40	104	0	64	26392
2026-01-08 22:08:06.20	33.70	6.40	-46.7	-63.6	3.8	1.49e+00	0	40	104	0	64	26043
2026-01-08 22:08:09.21	34.01	6.57	-46.8	-63.6	3.8	1.49e+00	0	40	104	0	64	25874
2026-01-08 22:08:12.23	34.32	6.74	-46.7	-63.6	3.8	1.49e+00	0	40	104	0	64	26076
2026-01-08 22:08:15.24	34.64	6.92	-46.8	-63.7	3.8	1.49e+00	0	40	104	0	64	26192
2026-01-08 22:08:18.25	34.96	7.09	-46.8	-63.6	3.8	1.49e+00	0	40	104	0	64	26054
2026-01-08 22:08:21.27	35.29	7.26	-46.8	-63.7	3.8	1.49e+00	0	40	104	0	64	26179
2026-01-08 22:08:24.28	35.62	7.44	-46.8	-63.6	3.8	1.49e+00	0	41	104	0	64	25908
2026-01-08 22:08:27.29	35.95	7.61	-46.7	-63.7	3.8	1.49e+00	0	41	104	0	64	26198
2026-01-08 22:08:30.31	36.29	7.79	-46.8	-63.6	3.8	1.49e+00	0	41	104	0	64	26131
2026-01-08 22:08:33.32	36.63	7.96	-46.8	-63.6	3.8	1.49e+00	0	41	104	0	64	26093
2026-01-08 22:08:36.33	36.98	8.14	-46.8	-63.6	3.8	1.49e+00	0	41	104	0	64	25933
2026-01-08 22:08:39.34	37.32	8.31	-46.8	-63.1	3.8	1.49e+00	0	41	104	0	64	24659
2026-01-08 22:08:42.36	37.68	8.49	-46.7	-61.9	3.8	1.49e+00	0	41	104	0	64	21355
2026-01-08 22:08:45.37	38.04	8.67	-46.7	-61.9	3.8	1.49e+00	0	41	104	0	64	21409
2026-01-08 22:08:48.39	38.40	8.85	-46.7	-61.2	3.8	1.48e+00	0	41	104	0	64	19785
2026-01-08 22:08:51.40	38.76	9.02	-46.5	-58.0	5.1	6.47e-01	0	41	0	3145728	64	13623
2026-01-08 22:08:54.53	39.15	9.21	-47.3	-54.8	8.0	1.25e-02	0	41	0	5242880	65	8874
2026-01-08 22:08:57.40	39.50	9.38	-45.5	-49.7	13.0	4.27e-05	0	41	0	10485760	62	5916
2026-01-08 22:09:00.54	39.90	9.56	-45.1	-49.2	13.6	5.30e-06	0	41	0	16777216	62	5552
2026-01-08 22:09:03.44	40.27	9.74	-45.0	-48.9	13.9	1.50e-06	0	41	0	22020096	62	5362
2026-01-08 22:09:06.62	40.68	9.92	-44.4	-48.5	14.3	2.20e-06	0	41	0	27262976	60	5724
2026-01-08 22:09:09.49	41.05	10.09	-44.7	-48.6	14.3	7.00e-07	0	41	0	33554432	60	5798
2026-01-08 22:09:12.77	41.49	10.29	-44.7	-48.4	14.5	0.00e+00	0	41	0	38797312	60	5695
2026-01-08 22:09:15.73	41.88	10.47	-44.5	-48.0	14.9	0.00e+00	0	41	0	45088768	60	5446
2026-01-08 22:09:18.98	42.32	10.66	-44.4	-48.0	14.9	0.00e+00	0	41	0	51380224	60	5447
2026-01-08 22:09:21.88	42.72	10.83	-44.2	-47.9	15.0	0.00e+00	0	41	0	56623104	60	5370
2026-01-08 22:09:24.88	43.13	11.01	-44.2	-47.6	15.2	0.00e+00	0	41	0	61865984	60	5214
2026-01-08 22:09:27.89	43.55	11.19	-44.3	-47.8	15.1	0.00e+00	0	41	0	67108864	60	5315
2026-01-08 22:09:30.91	43.98	11.37	-44.5	-48.0	14.9	0.00e+00	0	42	0	73400320	60	5459
2026-01-08 22:09:33.92	44.41	11.55	-44.4	-47.9	15.0	0.00e+00	0	41	0	78643200	60	5376
2026-01-08 22:09:36.93	44.85	11.73	-44.4	-47.8	15.1	0.00e+00	0	42	0	84934656	60	5332
2026-01-08 22:09:39.94	45.29	11.91	-44.2	-47.6	15.3	0.00e+00	0	41	0	90177536	60	5213
2026-01-08 22:09:43.00	45.75	12.09	-44.2	-47.6	15.3	0.00e+00	0	42	0	95420416	60	5192
2026-01-08 22:09:45.92	46.19	12.26	-44.4	-47.8	15.1	0.00e+00	0	42	0	101711872	60	5339
2026-01-08 22:09:48.93	46.64	12.44	-44.2	-47.6	15.4	0.00e+00	0	41	0	106954752	60	5171
2026-01-08 22:09:51.94	47.11	12.61	-43.8	-47.0	15.9	0.00e+00	0	42	0	112197632	59	5110
2026-01-08 22:09:54.95	47.58	12.79	-43.7	-46.8	16.1	0.00e+00	0	42	0	118489088	59	4984
2026-01-08 22:09:57.96	48.05	12.97	-43.9	-47.1	15.8	0.00e+00	0	42	0	123731968	59	5212
2026-01-08 22:10:00.97	48.53	13.14	-44.1	-47.3	15.6	0.00e+00	0	41	0	130023424	59	5330
2026-01-08 22:10:03.98	49.01	13.32	-44.0	-47.3	15.7	0.00e+00	0	42	0	135266304	59	5295
2026-01-08 22:10:06.99	49.51	13.50	-43.7	-46.8	16.2	0.00e+00	0	42	0	140509184	59	4995
2026-01-08 22:10:09.99	50.00	13.67	-43.6	-46.6	16.3	0.00e+00	0	42	0	146800640	59	4919
2026-01-08 22:10:13.00	50.50	13.84	-43.7	-46.8	16.1	0.00e+00	0	42	0	152043520	59	5037
2026-01-08 22:10:16.01	51.01	14.02	-43.7	-46.7	16.2	0.00e+00	0	42	0	158334976	59	4970
2026-01-08 22:10:19.03	51.53	14.19	-43.7	-46.8	16.2	0.00e+00	0	42	0	163577856	59	5029
2026-01-08 22:10:22.03	52.04	14.36	-43.8	-47.0	16.0	0.00e+00	0	42	0	168820736	59	5114
2026-01-08 22:10:25.04	52.57	14.53	-43.8	-46.9	16.2	0.00e+00	0	42	0	175112192	59	5042
2026-01-08 22:10:28.05	53.10	14.70	-43.5	-46.6	16.4	0.00e+00	0	42	0	180355072	59	4876
2026-01-08 22:10:31.06	53.64	14.87	-43.7	-46.8	16.2	0.00e+00	0	42	0	185597952	59	5010
2026-01-08 22:10:34.19	54.20	15.04	-44.2	-47.5	15.6	0.00e+00	0	42	0	191889408	59	5403
2026-01-08 22:10:37.49	54.81	15.22	-44.1	-47.4	15.6	0.00e+00	0	42	0	198180864	59	5382
2026-01-08 22:10:40.21	55.31	15.37	-44.1	-47.4	15.6	0.00e+00	0	42	0	203423744	59	5402
2026-01-08 22:10:43.57	55.94	15.55	-44.4	-47.9	15.2	0.00e+00	0	42	0	209715200	59	5711
2026-01-08 22:10:46.35	56.46	15.70	-44.4	-47.9	15.3	0.00e+00	0	42	0	214958080	59	5667
2026-01-08 22:10:49.99	57.15	15.89	-44.5	-47.9	15.2	0.00e+00	0	42	0	221249536	59	5690
2026-01-08 22:10:52.72	57.68	16.03	-44.5	-47.9	15.2	0.00e+00	0	42	0	226492416	59	5706
2026-01-08 22:10:56.02	58.32	16.21	-44.5	-48.0	15.1	0.00e+00	0	42	0	232783872	59	5777
2026-01-08 22:10:58.74	58.86	16.34	-44.7	-48.3	14.9	0.00e+00	0	42	0	238026752	60	5618
2026-01-08 22:11:02.23	59.55	16.52	-44.7	-48.2	15.0	0.00e+00	0	42	0	244318208	60	5559
2026-01-08 22:11:04.95	60.10	16.66	-44.5	-48.0	15.3	0.00e+00	0	42	0	249561088	60	5413
2026-01-08 22:11:08.24	60.77	16.82	-44.9	-48.6	14.5	7.00e-07	0	42	0	255852544	60	5833
2026-01-08 22:11:11.06	61.34	16.95	-44.7	-48.2	15.0	0.00e+00	0	42	0	261095424	60	5588
2026-01-08 22:11:14.74	62.11	17.13	-44.5	-47.9	15.3	0.00e+00	0	42	0	268435456	60	5385
2026-01-08 22:11:17.46	62.67	17.26	-44.5	-47.9	15.4	0.00e+00	0	42	0	272629760	60	5366
2026-01-08 22:11:20.76	63.37	17.41	-44.3	-47.5	15.7	0.00e+00	0	42	0	278921216	60	5144
2026-01-08 22:11:23.48	63.95	17.53	-44.4	-47.7	15.5	0.00e+00	0	42	0	284164096	60	5275
2026-01-08 22:11:26.77	64.66	17.67	-44.7	-48.1	15.2	0.00e+00	0	42	0	290455552	60	5510
2026-01-08 22:11:29.49	65.24	17.79	-44.0	-47.1	16.1	0.00e+00	0	42	0	295698432	60	4914
2026-01-08 22:11:32.79	65.96	17.93	-44.0	-47.0	16.3	0.00e+00	0	42	0	301989888	59	5110
2026-01-08 22:11:35.51	66.56	18.04	-44.3	-47.4	15.9	0.00e+00	0	42	0	307232768	59	5366
2026-01-08 22:11:38.81	67.30	18.17	-44.0	-47.0	16.3	0.00e+00	0	42	0	313524224	59	5129
2026-01-08 22:11:41.83	67.97	18.29	-44.0	-47.0	16.2	0.00e+00	0	42	0	318767104	59	5138
2026-01-08 22:11:45.13	68.71	18.42	-43.8	-46.7	16.4	0.00e+00	0	42	0	325058560	59	4982
2026-01-08 22:11:47.91	69.35	18.52	-43.2	-45.9	17.3	0.00e+00	0	42	0	330301440	58	4769
2026-01-08 22:11:51.20	70.10	18.64	-43.5	-46.3	16.8	0.00e+00	0	42	0	336592896	58	5041
2026-01-08 22:11:54.34	70.82	18.74	-43.4	-46.2	17.0	0.00e+00	0	42	0	341835776	58	4976
2026-01-08 22:11:57.35	71.52	18.84	-43.4	-46.2	17.0	0.00e+00	0	42	0	348127232	58	4983
2026-01-08 22:12:00.36	72.22	18.94	-43.5	-46.4	16.8	0.00e+00	0	42	0	353370112	58	5053
2026-01-08 22:12:03.37	72.93	19.03	-43.4	-46.2	17.0	0.00e+00	0	42	0	359661568	58	4950
2026-01-08 22:12:06.47	73.66	19.12	-43.5	-46.3	17.0	0.00e+00	0	42	0	364904448	58	5004
2026-01-08 22:12:09.36	74.35	19.20	-43.2	-45.9	17.4	0.00e+00	0	42	0	370147328	58	4768
2026-01-08 22:12:12.51	75.10	19.28	-43.5	-46.3	16.9	0.00e+00	0	42	0	376438784	57	5340
2026-01-08 22:12:15.37	75.79	19.35	-44.0	-47.0	16.3	0.00e+00	0	42	0	381681664	58	5403
2026-01-08 22:12:18.53	76.55	19.43	-44.0	-47.1	16.3	0.00e+00	0	42	0	387973120	58	5473
2026-01-08 22:12:21.39	77.24	19.49	-44.5	-47.7	15.6	0.00e+00	0	42	0	393216000	59	5563
2026-01-08 22:12:24.64	78.03	19.56	-44.0	-47.1	16.2	0.00e+00	0	42	0	399507456	59	5168
2026-01-08 22:12:27.51	78.73	19.61	-43.9	-46.8	16.5	0.00e+00	0	42	0	404750336	59	4996
2026-01-08 22:12:30.66	79.50	19.67	-43.9	-46.8	16.4	0.00e+00	0	42	0	409993216	59	5032
2026-01-08 22:12:33.53	80.21	19.72	-43.6	-46.4	16.8	0.00e+00	0	42	0	415236096	59	4777
2026-01-08 22:12:36.68	80.99	19.76	-44.0	-46.9	16.3	0.00e+00	0	42	0	421527552	59	5074
2026-01-08 22:12:39.55	81.70	19.80	-44.3	-47.5	15.7	0.00e+00	0	42	0	426770432	59	5434
2026-01-08 22:12:42.70	82.48	19.84	-44.5	-47.8	15.5	0.00e+00	0	42	0	433061888	59	5622
2026-01-08 22:12:45.74	83.23	19.87	-44.3	-47.4	15.9	0.00e+00	0	42	0	438304768	59	5351
2026-01-08 22:12:49.10	84.07	19.89	-43.8	-46.8	16.5	0.00e+00	0	42	0	444596224	59	4998
2026-01-08 22:12:52.30	84.87	19.91	-44.4	-47.6	15.7	0.00e+00	0	42	0	450887680	59	5495
2026-01-08 22:12:55.21	85.59	19.93	-44.2	-47.3	15.9	0.00e+00	0	42	0	456130560	59	5310
2026-01-08 22:12:58.43	86.40	19.94	-44.4	-47.7	15.6	0.00e+00	0	42	0	462422016	59	5542
2026-01-08 22:13:01.29	87.11	19.94	-44.3	-47.4	15.8	0.00e+00	0	42	0	467664896	59	5394
2026-01-08 22:13:04.45	87.90	19.94	-44.2	-47.2	16.1	0.00e+00	0	42	0	473956352	59	5267
2026-01-08 22:13:07.31	88.62	19.94	-44.5	-47.7	15.6	0.00e+00	0	42	0	479199232	59	5549
2026-01-08 22:13:10.47	89.41	19.93	-44.1	-47.1	16.2	0.00e+00	0	42	0	484442112	59	5205
2026-01-08 22:13:13.34	90.13	19.91	-43.8	-46.7	16.6	0.00e+00	0	42	0	490733568	59	4974
2026-01-08 22:13:16.65	90.95	19.89	-43.9	-46.8	16.6	0.00e+00	0	42	0	497025024	59	4984
2026-01-08 22:13:19.38	91.63	19.87	-44.3	-47.3	16.0	0.00e+00	0	42	0	501219328	59	5312
2026-01-08 22:13:22.68	92.45	19.84	-44.5	-47.6	15.7	0.00e+00	0	42	0	507510784	59	5488
2026-01-08 22:13:25.76	93.22	19.80	-44.1	-47.0	16.3	0.00e+00	0	42	0	513802240	59	5111
2026-01-08 22:13:28.75	93.96	19.76	-44.1	-47.0	16.3	0.00e+00	0	42	0	519045120	59	5128
2026-01-08 22:13:31.91	94.74	19.72	-44.1	-47.1	16.2	0.00e+00	0	42	0	525336576	59	5174
2026-01-08 22:13:34.77	95.44	19.67	-43.8	-46.6	16.6	0.00e+00	0	42	0	530579456	59	4920
2026-01-08 22:13:38.04	96.24	19.61	-43.9	-46.8	16.5	0.00e+00	0	42	0	536870912	59	5007
2026-01-08 22:13:40.90	96.94	19.56	-44.1	-47.0	16.2	0.00e+00	0	42	0	542113792	59	5129
2026-01-08 22:13:44.05	97.71	19.49	-44.2	-47.2	16.1	0.00e+00	0	42	0	547356672	59	5257
2026-01-08 22:13:46.92	98.41	19.43	-44.7	-47.9	15.4	0.00e+00	0	42	0	553648128	60	5370
2026-01-08 22:13:50.07	99.17	19.35	-44.2	-47.2	16.1	0.00e+00	0	42	0	558891008	60	4969
2026-01-08 22:13:52.95	99.86	19.28	-43.7	-46.5	16.7	0.00e+00	0	42	0	564133888	59	4864
2026-01-08 22:13:56.10	100.61	19.20	-44.1	-47.0	16.4	0.00e+00	0	42	0	570425344	59	5120
2026-01-08 22:13:59.05	101.32	19.11	-43.7	-46.4	16.8	0.00e+00	0	42	0	575668224	59	4786
2026-01-08 22:14:02.05	102.03	19.03	-43.8	-46.6	16.7	0.00e+00	0	42	0	581959680	58	5194
2026-01-08 22:14:05.06	102.74	18.93	-43.7	-46.5	16.8	0.00e+00	0	42	0	587202560	58	5156
2026-01-08 22:14:08.07	103.44	18.84	-43.5	-46.2	17.0	0.00e+00	0	42	0	592445440	58	4963
2026-01-08 22:14:11.08	104.14	18.74	-43.3	-46.0	17.2	0.00e+00	0	42	0	598736896	58	4853
2026-01-08 22:14:14.09	104.84	18.63	-43.6	-46.3	17.0	0.00e+00	0	42	0	603979776	58	5024
2026-01-08 22:14:17.10	105.53	18.53	-43.5	-46.3	16.9	0.00e+00	0	42	0	610271232	58	5019
2026-01-08 22:14:20.11	106.21	18.42	-43.7	-46.5	16.8	0.00e+00	0	42	0	615514112	58	5125
2026-01-08 22:14:23.12	106.89	18.30	-44.0	-46.9	16.3	0.00e+00	0	42	0	620756992	59	5091
2026-01-08 22:14:26.15	107.57	18.18	-43.6	-46.4	16.8	0.00e+00	0	42	0	627048448	59	4797
2026-01-08 22:14:29.25	108.26	18.06	-43.6	-46.4	16.9	0.00e+00	0	42	0	632291328	59	4794
2026-01-08 22:14:32.35	108.95	17.93	-43.9	-46.7	16.5	0.00e+00	0	42	0	638582784	59	4970
2026-01-08 22:14:35.25	109.59	17.81	-44.4	-47.5	15.8	0.00e+00	0	42	0	643825664	59	5444
2026-01-08 22:14:38.40	110.27	17.67	-44.4	-47.4	15.9	0.00e+00	0	42	0	650117120	59	5392
2026-01-08 22:14:41.27	110.89	17.55	-44.4	-47.5	15.7	0.00e+00	0	42	0	655360000	59	5436
2026-01-08 22:14:44.50	111.58	17.40	-44.5	-47.6	15.7	0.00e+00	0	42	0	661651456	60	5217
2026-01-08 22:14:47.36	112.19	17.27	-44.2	-47.2	16.1	0.00e+00	0	42	0	666894336	60	4945
2026-01-08 22:14:50.69	112.89	17.11	-44.6	-47.8	15.5	0.00e+00	0	43	0	673185792	60	5324
2026-01-08 22:14:53.41	113.45	16.98	-45.1	-48.5	14.9	0.00e+00	0	42	0	678428672	60	5730
2026-01-08 22:14:56.77	114.14	16.82	-44.9	-48.2	15.1	0.00e+00	0	42	0	684720128	60	5532
2026-01-08 22:14:59.62	114.72	16.68	-44.8	-48.1	15.2	0.00e+00	0	42	0	689963008	60	5483
2026-01-08 22:15:02.77	115.36	16.52	-44.8	-48.0	15.3	0.00e+00	0	42	0	695205888	60	5445
2026-01-08 22:15:05.63	115.93	16.38	-44.5	-47.6	15.7	0.00e+00	0	42	0	700448768	60	5194
2026-01-08 22:15:08.90	116.58	16.21	-44.8	-48.1	15.2	0.00e+00	0	42	0	706740224	60	5488
2026-01-08 22:15:11.65	117.12	16.06	-45.3	-49.0	14.3	0.00e+00	0	42	0	711983104	61	5732
2026-01-08 22:15:15.28	117.82	15.87	-44.9	-48.4	14.7	0.00e+00	0	42	0	719323136	61	5341
2026-01-08 22:15:18.02	118.35	15.73	-44.9	-48.4	14.7	7.00e-07	0	42	0	724566016	61	5370
2026-01-08 22:15:21.66	119.04	15.53	-44.5	-47.7	15.5	0.00e+00	0	42	0	730857472	61	4975
2026-01-08 22:15:24.38	119.55	15.38	-44.3	-47.3	15.9	0.00e+00	0	42	0	736100352	60	5017
2026-01-08 22:15:27.80	120.19	15.19	-44.5	-47.6	15.7	0.00e+00	0	42	0	742391808	60	5178
2026-01-08 22:15:30.52	120.69	15.04	-44.6	-47.8	15.5	0.00e+00	0	42	0	747634688	60	5296
2026-01-08 22:15:33.81	121.28	14.86	-44.4	-47.6	15.7	0.00e+00	0	42	0	753926144	60	5179
2026-01-08 22:15:36.59	121.78	14.70	-44.7	-48.0	15.3	0.00e+00	0	42	0	759169024	60	5419
2026-01-08 22:15:39.90	122.37	14.52	-44.7	-47.9	15.3	0.00e+00	0	42	0	765460480	60	5387
2026-01-08 22:15:42.62	122.85	14.36	-44.5	-47.7	15.6	0.00e+00	0	42	0	770703360	60	5241
2026-01-08 22:15:46.03	123.44	14.17	-44.7	-47.9	15.4	0.00e+00	0	42	0	776994816	60	5391
2026-01-08 22:15:48.81	123.92	14.01	-44.7	-48.0	15.3	0.00e+00	0	42	0	782237696	60	5412
2026-01-08 22:15:52.49	124.54	13.79	-44.0	-46.9	16.3	0.00e+00	0	42	0	788529152	59	5048
2026-01-08 22:15:55.42	125.03	13.62	-44.2	-47.2	16.0	0.00e+00	0	42	0	793772032	59	5222
2026-01-08 22:15:59.30	125.67	13.40	-45.0	-48.5	14.8	0.00e+00	0	42	0	801112064	60	5749
2026-01-08 22:16:02.09	126.13	13.23	-44.8	-48.2	15.0	0.00e+00	0	42	0	806354944	60	5564
2026-01-08 22:16:06.17	126.78	12.99	-43.9	-46.8	16.3	0.00e+00	0	42	0	814743552	59	5009
2026-01-08 22:16:08.92	127.22	12.83	-43.8	-46.7	16.5	0.00e+00	0	43	0	819986432	59	4931
2026-01-08 22:16:12.67	127.81	12.61	-44.0	-47.0	16.2	0.00e+00	0	43	0	826277888	59	5121
2026-01-08 22:16:15.49	128.25	12.44	-44.0	-47.1	16.1	0.00e+00	0	42	0	831520768	59	5168
2026-01-08 22:16:19.21	128.81	12.22	-44.5	-47.8	15.4	0.00e+00	0	42	0	838860800	59	5613
2026-01-08 22:16:21.99	129.23	12.05	-44.9	-48.4	14.9	0.00e+00	0	42	0	844103680	60	5658
2026-01-08 22:16:25.77	129.80	11.82	-44.8	-48.1	15.0	0.00e+00	0	42	0	851443712	60	5521
2026-01-08 22:16:28.49	130.20	11.66	-44.6	-47.8	15.3	0.00e+00	0	42	0	856686592	60	5310
2026-01-08 22:16:31.99	130.71	11.45	-44.8	-48.3	14.9	0.00e+00	0	42	0	862978048	60	5599
2026-01-08 22:16:34.72	131.10	11.29	-44.6	-47.9	15.3	0.00e+00	0	42	0	868220928	60	5348
2026-01-08 22:16:38.01	131.56	11.09	-44.2	-47.3	15.8	0.00e+00	0	43	0	874512384	60	5019
2026-01-08 22:16:40.73	131.94	10.93	-44.0	-47.0	16.0	0.00e+00	0	42	0	878706688	59	5133
2026-01-08 22:16:44.02	132.40	10.73	-44.5	-47.7	15.4	0.00e+00	0	43	0	884998144	59	5553
2026-01-08 22:16:46.75	132.77	10.56	-44.6	-47.9	15.1	7.00e-07	0	43	0	890241024	59	5684
2026-01-08 22:16:50.04	133.22	10.37	-44.6	-47.9	15.1	0.00e+00	0	43	0	896532480	60	5394
2026-01-08 22:16:52.84	133.59	10.20	-44.7	-48.2	14.9	0.00e+00	0	43	0	901775360	60	5542
2026-01-08 22:16:56.48	134.07	9.98	-45.1	-48.8	14.3	7.00e-07	0	42	0	909115392	60	5924
2026-01-08 22:16:59.20	134.43	9.82	-45.2	-48.8	14.2	1.50e-06	0	43	0	914358272	61	5640
2026-01-08 22:17:02.49	134.85	9.62	-44.4	-47.7	15.3	0.00e+00	0	43	0	919601152	60	5253
2026-01-08 22:17:05.24	135.20	9.45	-43.5	-46.8	16.0	0.00e+00	0	42	0	924844032	59	5003
2026-01-08 22:17:08.54	135.61	9.26	-44.1	-47.1	15.9	0.00e+00	0	43	0	931135488	59	5179
2026-01-08 22:17:11.48	135.98	9.08	-44.6	-47.9	15.1	0.00e+00	0	42	0	936378368	59	5664
2026-01-08 22:17:14.78	136.38	8.88	-49.4	-64.7	3.8	1.49e+00	0	42	104	939524096	69	22236
2026-01-08 22:17:17.51	136.71	8.72	-49.5	-64.8	3.8	1.49e+00	0	43	104	939524096	69	22519
2026-01-08 22:17:20.81	137.11	8.53	-49.7	-64.9	3.8	1.49e+00	0	42	104	939524096	70	21289
2026-01-08 22:17:23.54	137.43	8.36	-49.7	-65.0	3.8	1.49e+00	0	43	104	939524096	70	21558
2026-01-08 22:17:26.85	137.82	8.17	-49.7	-65.0	3.8	1.49e+00	0	42	104	939524096	70	21614
2026-01-08 22:17:29.58	138.13	8.01	-49.5	-65.0	3.8	1.49e+00	0	43	104	939524096	70	21606
2026-01-08 22:17:32.88	138.51	7.81	-49.5	-65.0	3.8	1.49e+00	0	43	104	939524096	70	21670
2026-01-08 22:17:35.60	138.82	7.65	-49.5	-65.0	3.8	1.49e+00	0	43	104	939524096	70	21550
2026-01-08 22:17:38.90	139.18	7.46	-49.5	-65.0	3.8	1.49e+00	0	42	104	939524096	70	21573
2026-01-08 22:17:41.63	139.49	7.30	-49.5	-64.9	3.8	1.49e+00	0	43	104	939524096	70	21450
2026-01-08 22:17:44.93	139.84	7.11	-49.4	-64.9	3.8	1.49e+00	0	43	104	939524096	70	21462
2026-01-08 22:17:47.66	140.14	6.95	-49.5	-65.0	3.8	1.49e+00	0	43	104	939524096	70	21527
2026-01-08 22:17:50.96	140.49	6.75	-49.5	-65.0	3.8	1.49e+00	0	43	104	939524096	70	21513
2026-01-08 22:17:53.68	140.78	6.60	-49.4	-64.9	3.8	1.49e+00	0	42	104	939524096	70	21418
2026-01-08 22:17:56.98	141.12	6.41	-49.4	-64.9	3.8	1.49e+00	0	42	104	939524096	70	21497
2026-01-08 22:17:59.71	141.40	6.25	-49.4	-64.9	3.8	1.49e+00	0	42	104	939524096	70	21473
2026-01-08 22:18:03.01	141.73	6.06	-49.4	-64.9	3.8	1.49e+00	0	43	104	939524096	70	21505
2026-01-08 22:18:05.73	142.01	5.90	-49.4	-64.9	3.8	1.49e+00	0	43	104	939524096	70	21440
2026-01-08 22:18:09.03	142.34	5.71	-49.5	-64.9	3.8	1.49e+00	0	43	104	939524096	70	21494
2026-01-08 22:18:11.76	142.60	5.56	-49.4	-64.9	3.8	1.49e+00	0	43	104	939524096	70	21466
2026-01-08 22:18:15.06	142.92	5.37	-49.4	-64.9	3.8	1.49e+00	0	43	104	939524096	70	21491
2026-01-08 22:18:17.79	143.19	5.22	-49.4	-64.9	3.8	1.49e+00	0	43	104	939524096	70	21440
2026-01-08 22:18:21.09	143.50	5.03	-49.4	-64.9	3.8	1.49e+00	0	43	104	939524096	70	21352

#Closed at: 2026-01-08 22:18:23
#Recorded file [939 MB]: D:/Data/31040_260109_010742.dat