passes_logs/2026/01/08/T1/T1__20260108_105745_FENGYUN_3D_rec.log

#Pass ID: 20260108_105745_FENGYUN 3D
#Satellite: FENGYUN 3D
#Configuration: FENGYUN 3D
#almurnet v.1.7.20251203
#Start time: 2026-01-08 10:57:45

#Version: 2.0.20230620
#Station: T1
#Location: 37.570604 lon 55.790049 lat
#TLE: 1 43010U 17072A   26006.26440730  .00000376  00000+0  19957-3 0  9994
#TLE: 2 43010  98.9925 337.9455 0002045 123.9195 236.2175 14.19693586422016

#Time	Az	El	Level	Level2	SNR	BER	BlckErr	Temp	State	Recorded	gain1	gain2
2026-01-08 10:57:45.99	128.90	5.01	-49.9	-61.9	3.8	8.47e-01	0	41	0	0	71	14234
2026-01-08 10:57:49.00	128.75	5.22	-50.0	-62.0	3.8	8.47e-01	0	41	104	0	71	14517
2026-01-08 10:57:52.01	128.59	5.42	-50.0	-62.1	3.8	8.47e-01	0	41	104	0	71	14642
2026-01-08 10:57:55.03	128.44	5.63	-49.9	-62.1	3.8	8.46e-01	0	41	104	0	71	14569
2026-01-08 10:57:58.04	128.28	5.84	-50.0	-61.9	3.8	8.46e-01	0	42	104	0	71	14365
2026-01-08 10:58:01.05	128.11	6.05	-49.9	-61.6	3.8	8.47e-01	0	41	104	0	71	13802
2026-01-08 10:58:04.07	127.95	6.26	-49.8	-61.3	3.8	8.46e-01	0	42	104	0	71	13268
2026-01-08 10:58:07.08	127.78	6.48	-49.9	-61.1	3.8	8.47e-01	0	42	104	0	71	13083
2026-01-08 10:58:10.09	127.61	6.69	-49.9	-61.6	3.8	8.47e-01	0	42	104	0	71	13851
2026-01-08 10:58:13.11	127.44	6.91	-50.0	-62.1	3.8	8.47e-01	0	42	104	0	71	14657
2026-01-08 10:58:16.12	127.26	7.13	-49.9	-61.5	3.8	8.47e-01	0	42	104	0	71	13715
2026-01-08 10:58:19.13	127.08	7.35	-49.8	-60.4	3.8	8.45e-01	0	42	104	0	71	12056
2026-01-08 10:58:22.14	126.90	7.57	-49.0	-56.2	5.1	7.96e-01	0	42	0	0	70	7898
2026-01-08 10:58:25.16	126.72	7.79	-46.2	-50.0	10.6	1.01e-02	0	43	0	14680064	64	5435
2026-01-08 10:58:28.17	126.53	8.02	-43.1	-45.6	15.1	2.20e-06	0	42	0	31457280	58	4608
2026-01-08 10:58:31.18	126.34	8.24	-41.4	-43.6	16.8	0.00e+00	0	42	0	48234496	54	4633
2026-01-08 10:58:34.19	126.15	8.47	-41.6	-43.8	16.7	0.00e+00	0	43	0	65011712	54	4721
2026-01-08 10:58:37.21	125.95	8.70	-43.6	-46.2	14.5	1.10e-06	0	43	0	81788928	57	5255
2026-01-08 10:58:40.22	125.75	8.93	-46.9	-51.1	9.5	1.06e-02	0	42	0	99614720	64	6186
2026-01-08 10:58:43.29	125.54	9.17	-48.2	-53.7	7.1	2.33e-01	0	43	0	114294784	68	6586
2026-01-08 10:58:46.22	125.34	9.40	-48.1	-53.6	7.2	1.62e-01	0	43	0	122683392	68	6537
2026-01-08 10:58:49.74	125.10	9.68	-46.6	-50.9	9.7	1.77e-02	0	43	0	141557760	65	5711
2026-01-08 10:58:52.46	124.90	9.89	-45.3	-48.5	12.4	4.44e-04	0	43	0	157286400	62	5103
2026-01-08 10:58:55.76	124.67	10.16	-43.9	-46.6	14.3	5.70e-06	0	43	0	176160768	59	4878
2026-01-08 10:58:58.82	124.44	10.41	-42.3	-44.7	16.1	0.00e+00	0	43	0	192937984	56	4659
2026-01-08 10:59:01.85	124.21	10.65	-41.6	-43.9	16.8	0.00e+00	0	43	0	210763776	55	4504
2026-01-08 10:59:04.86	123.98	10.90	-41.3	-43.4	17.2	0.00e+00	0	43	0	227540992	54	4545
2026-01-08 10:59:07.87	123.75	11.15	-40.3	-42.4	18.1	0.00e+00	0	43	0	244318208	52	4494
2026-01-08 10:59:10.95	123.51	11.41	-40.1	-42.1	18.4	0.00e+00	0	43	0	261095424	52	4383
2026-01-08 10:59:13.84	123.28	11.65	-40.0	-42.0	18.5	0.00e+00	0	43	0	277872640	52	4338
2026-01-08 10:59:16.99	123.02	11.92	-40.0	-42.0	18.6	0.00e+00	0	43	0	295698432	51	4572
2026-01-08 10:59:19.85	122.78	12.16	-39.9	-41.9	18.7	0.00e+00	0	43	0	311427072	51	4517
2026-01-08 10:59:23.08	122.51	12.44	-40.0	-41.9	18.6	0.00e+00	0	43	0	329252864	51	4536
2026-01-08 10:59:26.39	122.22	12.73	-39.8	-41.8	18.8	0.00e+00	0	43	0	348127232	51	4454
2026-01-08 10:59:29.12	121.98	12.97	-40.1	-42.1	18.5	0.00e+00	0	43	0	363855872	51	4635
2026-01-08 10:59:32.46	121.68	13.27	-39.6	-41.6	19.0	0.00e+00	0	43	0	382730240	51	4371
2026-01-08 10:59:35.19	121.43	13.51	-39.6	-41.6	19.0	0.00e+00	0	43	0	397410304	50	4629
2026-01-08 10:59:38.48	121.13	13.81	-39.7	-41.7	18.9	0.00e+00	0	43	0	416284672	50	4664
2026-01-08 10:59:41.40	120.85	14.07	-39.6	-41.5	19.1	0.00e+00	0	43	0	433061888	50	4572
2026-01-08 10:59:45.12	120.49	14.42	-39.5	-41.4	19.1	0.00e+00	0	43	0	454033408	50	4517
2026-01-08 10:59:47.93	120.21	14.68	-39.4	-41.3	19.2	0.00e+00	0	43	0	469762048	50	4493
2026-01-08 10:59:52.02	119.80	15.06	-39.2	-41.2	19.3	0.00e+00	0	43	0	492830720	50	4402
2026-01-08 10:59:54.77	119.51	15.32	-39.2	-41.1	19.4	0.00e+00	0	43	0	507510784	50	4372
2026-01-08 10:59:58.50	119.12	15.68	-38.9	-40.8	19.7	0.00e+00	0	43	0	528482304	49	4468
2026-01-08 11:00:01.31	118.82	15.95	-38.9	-40.7	19.8	0.00e+00	0	43	0	544210944	49	4435
2026-01-08 11:00:05.04	118.40	16.31	-38.9	-40.8	19.8	0.00e+00	0	43	0	565182464	49	4443
2026-01-08 11:00:08.08	118.06	16.61	-38.8	-40.7	19.8	0.00e+00	0	43	0	583008256	49	4405
2026-01-08 11:00:11.23	117.70	16.92	-38.7	-40.6	19.9	0.00e+00	0	43	0	600834048	49	4371
2026-01-08 11:00:14.16	117.35	17.22	-38.8	-40.7	19.8	0.00e+00	0	43	0	616562688	49	4393
2026-01-08 11:00:17.43	116.96	17.55	-38.7	-40.6	19.9	0.00e+00	0	43	0	635437056	49	4353
2026-01-08 11:00:20.16	116.63	17.82	-38.6	-40.5	20.0	0.00e+00	0	44	0	651165696	49	4324
2026-01-08 11:00:23.46	116.21	18.16	-38.5	-40.3	20.1	0.00e+00	0	43	0	668991488	49	4232
2026-01-08 11:00:26.18	115.87	18.44	-38.4	-40.2	20.2	0.00e+00	0	43	0	684720128	48	4440
2026-01-08 11:00:29.48	115.44	18.79	-38.2	-40.1	20.3	0.00e+00	0	44	0	702545920	48	4363
2026-01-08 11:00:32.20	115.07	19.08	-38.4	-40.2	20.3	0.00e+00	0	43	0	718274560	48	4425
2026-01-08 11:00:35.50	114.63	19.43	-38.1	-39.9	20.5	0.00e+00	0	43	0	737148928	48	4276
2026-01-08 11:00:38.22	114.25	19.72	-38.1	-40.0	20.5	0.00e+00	0	44	0	751828992	48	4302
2026-01-08 11:00:41.51	113.78	20.07	-37.8	-39.7	20.4	0.00e+00	0	43	0	770703360	47	4403
2026-01-08 11:00:44.24	113.38	20.37	-38.0	-39.8	20.4	0.00e+00	0	43	0	786432000	47	4476
2026-01-08 11:00:47.53	112.90	20.73	-37.9	-39.7	20.4	0.00e+00	0	44	0	804257792	47	4420
2026-01-08 11:00:50.26	112.48	21.03	-37.6	-39.5	20.7	0.00e+00	0	44	0	819986432	47	4299
2026-01-08 11:00:53.56	111.97	21.40	-37.5	-39.3	20.8	0.00e+00	0	43	0	838860800	47	4225
2026-01-08 11:00:56.27	111.54	21.70	-37.4	-39.2	20.9	0.00e+00	0	44	0	853540864	46	4426
2026-01-08 11:00:59.57	111.01	22.07	-37.4	-39.2	20.8	0.00e+00	0	43	0	872415232	46	4427
2026-01-08 11:01:02.34	110.55	22.38	-37.4	-39.2	20.8	0.00e+00	0	44	0	888143872	46	4430
2026-01-08 11:01:05.75	109.97	22.77	-37.3	-39.1	20.9	0.00e+00	0	44	0	907018240	46	4385
2026-01-08 11:01:08.48	109.50	23.09	-37.1	-38.9	21.1	0.00e+00	0	43	0	922746880	46	4273
2026-01-08 11:01:11.77	108.92	23.47	-37.1	-38.9	21.1	0.00e+00	0	44	0	940572672	46	4255
2026-01-08 11:01:14.59	108.41	23.80	-37.2	-39.0	21.0	0.00e+00	0	43	0	956301312	46	4340
2026-01-08 11:01:17.74	107.82	24.16	-37.3	-39.1	20.9	0.00e+00	0	44	0	974127104	46	4350
2026-01-08 11:01:20.60	107.28	24.50	-37.0	-38.9	21.1	0.00e+00	0	44	0	990904320	46	4248
2026-01-08 11:01:23.75	106.67	24.87	-37.0	-38.8	21.2	0.00e+00	0	43	0	1008730112	45	4453
2026-01-08 11:01:26.80	106.07	25.23	-36.9	-38.7	21.2	0.00e+00	0	44	0	1025507328	45	4435
2026-01-08 11:01:29.87	105.44	25.60	-36.9	-38.6	21.3	0.00e+00	0	44	0	1042284544	45	4390
2026-01-08 11:01:32.74	104.85	25.94	-37.0	-38.8	21.2	0.00e+00	0	44	0	1059061760	45	4462
2026-01-08 11:01:35.89	104.18	26.32	-37.0	-38.8	21.2	0.00e+00	0	44	0	1076887552	45	4473
2026-01-08 11:01:38.76	103.55	26.66	-36.8	-38.5	21.4	0.00e+00	0	44	0	1092616192	45	4340
2026-01-08 11:01:41.91	102.85	27.04	-36.6	-38.4	21.5	0.00e+00	0	44	0	1110441984	45	4265
2026-01-08 11:01:44.78	102.20	27.38	-36.8	-38.6	21.4	0.00e+00	0	44	0	1126170624	45	4364
2026-01-08 11:01:48.01	101.45	27.77	-36.6	-38.3	21.6	0.00e+00	0	44	0	1145044992	45	4232
2026-01-08 11:01:50.88	100.76	28.12	-36.5	-38.3	21.7	0.00e+00	0	43	0	1160773632	45	4196
2026-01-08 11:01:54.14	99.97	28.51	-36.5	-38.3	21.6	0.00e+00	0	44	0	1179648000	44	4452
2026-01-08 11:01:56.87	99.28	28.84	-36.6	-38.3	21.6	0.00e+00	0	43	0	1194328064	44	4492
2026-01-08 11:02:00.17	98.44	29.23	-36.6	-38.4	21.5	0.00e+00	0	44	0	1213202432	44	4519
2026-01-08 11:02:03.19	97.65	29.59	-36.5	-38.3	21.6	0.00e+00	0	44	0	1229979648	44	4459
2026-01-08 11:02:06.49	96.77	29.98	-36.3	-38.1	21.8	0.00e+00	0	44	0	1248854016	44	4363
2026-01-08 11:02:09.21	96.03	30.30	-36.5	-38.2	21.7	0.00e+00	0	43	0	1264582656	44	4433
2026-01-08 11:02:12.51	95.10	30.69	-36.6	-38.4	21.6	0.00e+00	0	44	0	1282408448	44	4510
2026-01-08 11:02:15.34	94.29	31.01	-36.3	-38.0	21.8	0.00e+00	0	43	0	1298137088	44	4324
2026-01-08 11:02:18.58	93.35	31.39	-36.2	-37.9	21.9	0.00e+00	0	44	0	1317011456	44	4278
2026-01-08 11:02:21.72	92.41	31.74	-36.0	-37.8	22.0	0.00e+00	0	43	0	1334837248	44	4209
2026-01-08 11:02:24.62	91.52	32.07	-36.0	-37.7	22.1	0.00e+00	0	44	0	1350565888	44	4176
2026-01-08 11:02:27.95	90.49	32.43	-35.9	-37.6	22.0	0.00e+00	0	43	0	1369440256	43	4366
2026-01-08 11:02:30.67	89.62	32.73	-35.9	-37.7	22.0	0.00e+00	0	43	0	1385168896	43	4400
2026-01-08 11:02:34.46	88.39	33.13	-36.0	-37.8	21.9	0.00e+00	0	43	0	1406140416	43	4466
2026-01-08 11:02:37.21	87.47	33.42	-35.9	-37.7	22.0	0.00e+00	0	44	0	1421869056	43	4395
2026-01-08 11:02:40.90	86.22	33.80	-35.9	-37.7	22.0	0.00e+00	0	44	0	1442840576	43	4404
2026-01-08 11:02:43.82	85.21	34.08	-35.8	-37.6	22.1	0.00e+00	0	44	0	1458569216	43	4343
2026-01-08 11:02:47.58	83.89	34.45	-35.7	-37.5	22.1	0.00e+00	0	44	0	1479540736	43	4300
2026-01-08 11:02:50.38	82.88	34.70	-35.8	-37.6	22.1	0.00e+00	0	44	0	1495269376	43	4352
2026-01-08 11:02:53.87	81.60	35.02	-35.9	-37.6	22.0	0.00e+00	0	44	0	1515192320	43	4383
2026-01-08 11:02:56.83	80.50	35.27	-36.1	-37.9	21.8	0.00e+00	0	44	0	1531969536	43	4511
2026-01-08 11:03:00.63	79.06	35.58	-36.0	-37.7	22.0	0.00e+00	0	44	0	1552941056	43	4423
2026-01-08 11:03:03.35	78.01	35.79	-36.0	-37.7	22.0	0.00e+00	0	44	0	1568669696	43	4421
2026-01-08 11:03:07.11	76.54	36.07	-35.8	-37.5	22.1	0.00e+00	0	44	0	1589641216	43	4325
2026-01-08 11:03:10.31	75.27	36.29	-35.7	-37.4	22.2	0.00e+00	0	44	0	1607467008	43	4287
2026-01-08 11:03:13.34	74.05	36.48	-35.8	-37.5	22.1	0.00e+00	0	44	0	1625292800	43	4310
2026-01-08 11:03:16.35	72.82	36.66	-35.9	-37.6	22.1	0.00e+00	0	44	0	1642070016	43	4363
2026-01-08 11:03:19.36	71.59	36.83	-35.9	-37.6	22.1	0.00e+00	0	44	0	1658847232	43	4362
2026-01-08 11:03:22.38	70.33	36.98	-35.8	-37.5	22.1	0.00e+00	0	44	0	1675624448	43	4318
2026-01-08 11:03:25.46	69.04	37.12	-36.1	-37.9	21.8	0.00e+00	0	44	0	1693450240	43	4504
2026-01-08 11:03:28.44	67.79	37.24	-36.0	-37.7	21.9	0.00e+00	0	44	0	1709178880	43	4426
2026-01-08 11:03:31.45	66.51	37.34	-36.2	-38.0	21.7	0.00e+00	0	43	0	1727004672	43	4560
2026-01-08 11:03:34.46	65.22	37.43	-36.1	-37.8	21.9	0.00e+00	0	44	0	1743781888	43	4490
2026-01-08 11:03:37.47	63.93	37.50	-36.3	-38.0	21.7	0.00e+00	0	44	0	1760559104	43	4588
2026-01-08 11:03:40.48	62.63	37.56	-35.8	-37.6	22.1	0.00e+00	0	44	0	1777336320	43	4347
2026-01-08 11:03:43.48	61.33	37.60	-36.0	-37.7	22.0	0.00e+00	0	44	0	1794113536	43	4429
2026-01-08 11:03:46.50	60.02	37.62	-35.9	-37.7	22.0	0.00e+00	0	44	0	1811939328	43	4411
2026-01-08 11:03:49.51	58.72	37.62	-36.0	-37.7	22.0	0.00e+00	0	43	0	1828716544	43	4420
2026-01-08 11:03:52.52	57.42	37.61	-35.8	-37.6	22.0	0.00e+00	0	44	0	1845493760	43	4349
2026-01-08 11:03:55.53	56.11	37.58	-35.8	-37.5	22.1	0.00e+00	0	44	0	1862270976	43	4320
2026-01-08 11:03:58.57	54.80	37.53	-35.8	-37.5	22.1	0.00e+00	0	44	0	1879048192	43	4328
2026-01-08 11:04:01.58	53.50	37.47	-35.9	-37.6	22.1	0.00e+00	0	44	0	1895825408	43	4356
2026-01-08 11:04:04.58	52.22	37.39	-35.9	-37.7	22.0	0.00e+00	0	44	0	1912602624	43	4402
2026-01-08 11:04:07.88	50.81	37.29	-35.8	-37.5	22.1	0.00e+00	0	44	0	1931476992	43	4338
2026-01-08 11:04:10.70	49.62	37.18	-35.6	-37.3	22.2	0.00e+00	0	44	0	1947205632	43	4238
2026-01-08 11:04:13.86	48.29	37.05	-35.5	-37.2	22.4	0.00e+00	0	44	0	1965031424	42	4404
2026-01-08 11:04:16.77	47.08	36.91	-35.5	-37.2	22.3	0.00e+00	0	44	0	1981808640	42	4425
2026-01-08 11:04:20.01	45.75	36.74	-35.6	-37.4	22.2	0.00e+00	0	44	0	1999634432	42	4494
2026-01-08 11:04:22.87	44.58	36.58	-35.7	-37.5	22.1	0.00e+00	0	44	0	2016411648	42	4566
2026-01-08 11:04:26.02	43.31	36.38	-35.7	-37.4	22.2	0.00e+00	0	44	0	2033188864	42	4525
2026-01-08 11:04:28.88	42.17	36.19	-35.6	-37.3	22.3	0.00e+00	0	44	0	2049966080	42	4458
2026-01-08 11:04:32.05	40.92	35.97	-35.5	-37.2	22.4	0.00e+00	0	44	0	2067791872	42	4394
2026-01-08 11:04:34.92	39.80	35.75	-35.7	-37.4	22.2	0.00e+00	0	44	0	2083520512	42	4501
2026-01-08 11:04:37.96	38.64	35.51	-35.9	-37.6	22.0	0.00e+00	0	44	0	2101346304	42	4638
2026-01-08 11:04:40.97	37.50	35.27	-35.7	-37.4	22.2	0.00e+00	0	44	0	2118123520	42	4507
2026-01-08 11:04:43.98	36.38	35.01	-35.9	-37.5	22.5	0.00e+00	0	44	0	2134900736	42	4581
2026-01-08 11:04:46.99	35.28	34.74	-35.6	-37.2	22.8	0.00e+00	0	44	0	2151677952	42	4425
2026-01-08 11:04:49.95	34.22	34.47	-35.8	-37.5	22.6	0.00e+00	0	44	0	2168455168	42	4561
2026-01-08 11:04:52.97	33.15	34.18	-35.7	-37.3	22.7	0.00e+00	0	44	0	2185232384	42	4470
2026-01-08 11:04:55.98	32.11	33.88	-35.8	-37.5	22.6	0.00e+00	0	44	0	2202009600	42	4548
2026-01-08 11:04:58.99	31.08	33.58	-35.6	-37.3	22.8	0.00e+00	0	44	0	2218786816	42	4444
2026-01-08 11:05:02.00	30.08	33.27	-35.8	-37.5	22.6	0.00e+00	0	44	0	2236612608	42	4562
2026-01-08 11:05:05.00	29.10	32.96	-35.9	-37.5	22.5	0.00e+00	0	44	0	2253389824	42	4593
2026-01-08 11:05:08.01	28.13	32.63	-35.8	-37.4	22.6	0.00e+00	0	44	0	2270167040	42	4542
2026-01-08 11:05:11.02	27.18	32.31	-35.9	-37.6	22.5	0.00e+00	0	44	0	2286944256	42	4617
2026-01-08 11:05:14.03	26.25	31.97	-36.0	-37.6	22.5	0.00e+00	0	44	0	2303721472	43	4382
2026-01-08 11:05:17.05	25.34	31.63	-36.1	-37.8	22.3	0.00e+00	0	44	0	2320498688	43	4462
2026-01-08 11:05:20.05	24.45	31.29	-36.0	-37.6	22.5	0.00e+00	0	43	0	2337275904	43	4367
2026-01-08 11:05:23.06	23.58	30.95	-35.8	-37.4	22.6	0.00e+00	0	44	0	2354053120	43	4263
2026-01-08 11:05:26.09	22.72	30.60	-35.8	-37.4	22.6	0.00e+00	0	44	0	2371878912	43	4279
2026-01-08 11:05:29.03	21.91	30.26	-36.0	-37.6	22.5	0.00e+00	0	44	0	2387607552	43	4385
2026-01-08 11:05:32.19	21.05	29.88	-36.1	-37.7	22.4	0.00e+00	0	44	0	2405433344	43	4434
2026-01-08 11:05:35.27	20.24	29.52	-36.3	-38.0	22.2	0.00e+00	0	44	0	2423259136	43	4573
2026-01-08 11:05:38.31	19.45	29.16	-36.2	-37.8	22.3	0.00e+00	0	44	0	2440036352	43	4487
2026-01-08 11:05:42.05	18.51	28.71	-36.5	-38.2	22.0	0.00e+00	0	44	0	2461007872	43	4673
2026-01-08 11:05:44.80	17.83	28.39	-36.3	-38.0	22.1	0.00e+00	0	44	0	2476736512	43	4584
2026-01-08 11:05:48.59	16.92	27.93	-36.2	-37.8	22.3	0.00e+00	0	44	0	2497708032	43	4476
2026-01-08 11:05:51.65	16.20	27.57	-36.4	-38.1	22.1	0.00e+00	0	44	0	2515533824	43	4630
2026-01-08 11:05:55.80	15.26	27.07	-36.5	-38.1	22.0	0.00e+00	0	43	0	2538602496	43	4644
2026-01-08 11:05:58.54	14.65	26.74	-36.5	-38.2	22.0	0.00e+00	0	44	0	2554331136	43	4684
2026-01-08 11:06:02.51	13.79	26.27	-36.9	-38.6	21.9	0.00e+00	0	44	0	2576351232	44	4608
2026-01-08 11:06:05.29	13.21	25.94	-37.0	-38.7	21.7	0.00e+00	0	44	0	2592079872	44	4689
2026-01-08 11:06:09.05	12.43	25.49	-36.9	-38.6	21.8	0.00e+00	0	44	0	2613051392	44	4632
2026-01-08 11:06:11.82	11.88	25.16	-37.0	-38.7	21.7	0.00e+00	0	44	0	2628780032	44	4677
2026-01-08 11:06:15.62	11.13	24.72	-37.0	-38.7	21.7	0.00e+00	0	44	0	2649751552	44	4690
2026-01-08 11:06:18.58	10.57	24.37	-37.0	-38.7	21.7	0.00e+00	0	44	0	2666528768	44	4657
2026-01-08 11:06:21.67	9.99	24.01	-37.0	-38.7	21.7	0.00e+00	0	44	0	2684354560	44	4667
2026-01-08 11:06:24.56	9.47	23.67	-37.0	-38.6	21.8	0.00e+00	0	44	0	2700083200	44	4646
2026-01-08 11:06:27.88	8.88	23.29	-37.1	-38.9	21.6	0.00e+00	0	44	0	2718957568	44	4773
2026-01-08 11:06:30.80	8.37	22.96	-37.2	-39.0	21.5	0.00e+00	0	44	0	2735734784	45	4566
2026-01-08 11:06:34.10	7.81	22.58	-37.1	-38.8	21.6	0.00e+00	0	44	0	2754609152	45	4491
2026-01-08 11:06:36.82	7.36	22.27	-37.0	-38.7	21.7	0.00e+00	0	44	0	2769289216	45	4423
2026-01-08 11:06:40.12	6.82	21.90	-37.1	-38.8	21.6	0.00e+00	0	44	0	2788163584	45	4489
2026-01-08 11:06:43.46	6.29	21.53	-37.1	-38.8	21.6	0.00e+00	0	44	0	2807037952	45	4480
2026-01-08 11:06:46.22	5.86	21.22	-37.3	-39.1	21.4	0.00e+00	0	44	0	2822766592	45	4620
2026-01-08 11:06:49.52	5.36	20.86	-37.4	-39.2	21.3	0.00e+00	0	44	0	2840592384	45	4660
2026-01-08 11:06:52.23	4.96	20.56	-37.6	-39.3	21.2	0.00e+00	0	44	0	2856321024	45	4730
2026-01-08 11:06:55.53	4.48	20.20	-37.7	-39.4	21.1	0.00e+00	0	44	0	2874146816	46	4530
2026-01-08 11:06:58.69	4.03	19.86	-37.5	-39.2	21.3	0.00e+00	0	44	0	2891972608	46	4435
2026-01-08 11:07:02.01	3.57	19.51	-37.8	-39.6	21.0	0.00e+00	0	44	0	2910846976	46	4619
2026-01-08 11:07:04.73	3.21	19.22	-38.0	-39.7	20.9	0.00e+00	0	44	0	2926575616	46	4687
2026-01-08 11:07:08.04	2.77	18.87	-37.9	-39.7	20.9	0.00e+00	0	44	0	2944401408	46	4653
2026-01-08 11:07:10.89	2.40	18.58	-37.9	-39.7	20.9	0.00e+00	0	44	0	2961178624	46	4668
2026-01-08 11:07:14.28	1.97	18.23	-37.9	-39.6	20.9	0.00e+00	0	44	0	2980052992	46	4646
2026-01-08 11:07:17.01	1.63	17.95	-37.9	-39.7	20.9	0.00e+00	0	44	0	2995781632	46	4663
2026-01-08 11:07:20.30	1.23	17.61	-37.8	-39.6	21.0	0.00e+00	0	44	0	3013607424	46	4616
2026-01-08 11:07:23.26	0.87	17.31	-38.1	-40.0	20.6	0.00e+00	0	44	0	3030384640	46	4815
2026-01-08 11:07:27.20	0.41	16.92	-38.6	-40.4	20.2	0.00e+00	0	44	0	3052404736	47	4798
2026-01-08 11:07:29.98	0.10	16.65	-38.5	-40.3	20.3	0.00e+00	0	44	0	3068133376	47	4735
2026-01-08 11:07:33.72	359.68	16.28	-38.5	-40.4	20.2	0.00e+00	0	44	0	3089104896	47	4790
2026-01-08 11:07:36.63	359.36	16.00	-38.6	-40.4	20.2	0.00e+00	0	44	0	3105882112	47	4789
2026-01-08 11:07:40.12	358.99	15.67	-38.7	-40.5	20.3	0.00e+00	0	44	0	3125805056	48	4582
2026-01-08 11:07:42.97	358.69	15.39	-38.8	-40.6	20.2	0.00e+00	0	44	0	3141533696	48	4645
2026-01-08 11:07:46.25	358.36	15.09	-39.1	-41.0	20.0	0.00e+00	0	44	0	3160408064	48	4818
2026-01-08 11:07:49.26	358.06	14.80	-39.2	-41.1	19.9	0.00e+00	0	44	0	3177185280	49	4615
2026-01-08 11:07:52.27	357.76	14.53	-39.3	-41.1	19.8	0.00e+00	0	44	0	3193962496	49	4647
2026-01-08 11:07:55.28	357.47	14.25	-39.3	-41.2	19.7	0.00e+00	0	44	0	3210739712	49	4690
2026-01-08 11:07:58.30	357.19	13.97	-39.3	-41.2	19.7	0.00e+00	0	44	0	3227516928	49	4677
2026-01-08 11:08:01.25	356.91	13.71	-39.3	-41.2	19.7	0.00e+00	0	44	0	3244294144	49	4671
2026-01-08 11:08:04.40	356.62	13.43	-39.4	-41.2	19.6	0.00e+00	0	44	0	3262119936	49	4703
2026-01-08 11:08:07.26	356.37	13.17	-39.4	-41.3	19.6	0.00e+00	0	44	0	3277848576	49	4740
2026-01-08 11:08:10.42	356.09	12.89	-39.6	-41.5	19.4	0.00e+00	0	44	0	3295674368	49	4839
2026-01-08 11:08:13.28	355.85	12.64	-39.7	-41.7	19.2	0.00e+00	0	44	0	3311403008	49	4982
2026-01-08 11:08:16.43	355.58	12.37	-39.7	-41.8	19.1	0.00e+00	0	44	0	3329228800	50	4749
2026-01-08 11:08:19.30	355.34	12.13	-39.8	-41.9	19.0	0.00e+00	0	44	0	3346006016	50	4769
2026-01-08 11:08:22.45	355.09	11.86	-39.9	-41.8	19.0	0.00e+00	0	44	0	3363831808	50	4753
2026-01-08 11:08:25.32	354.86	11.62	-40.1	-42.0	18.9	0.00e+00	0	44	0	3379560448	50	4828
2026-01-08 11:08:28.47	354.61	11.35	-39.9	-41.8	19.0	0.00e+00	0	44	0	3397386240	50	4755
2026-01-08 11:08:31.33	354.39	11.12	-39.9	-42.0	18.9	0.00e+00	0	44	0	3413114880	50	4835
2026-01-08 11:08:34.48	354.15	10.86	-39.8	-42.1	18.9	0.00e+00	0	44	0	3430940672	50	4875
2026-01-08 11:08:37.35	353.94	10.62	-39.9	-42.2	18.7	0.00e+00	0	44	0	3447717888	50	4932
2026-01-08 11:08:40.50	353.70	10.37	-40.1	-42.2	18.7	0.00e+00	0	44	0	3465543680	50	4978
2026-01-08 11:08:43.37	353.50	10.14	-40.1	-42.3	18.6	0.00e+00	0	44	0	3481272320	51	4736
2026-01-08 11:08:46.52	353.28	9.89	-39.9	-42.3	18.6	0.00e+00	0	44	0	3499098112	51	4728
2026-01-08 11:08:49.39	353.08	9.66	-40.0	-42.6	18.2	0.00e+00	0	44	0	3514826752	51	4900
2026-01-08 11:08:52.54	352.86	9.41	-40.0	-42.4	18.4	0.00e+00	0	44	0	3532652544	51	4803
2026-01-08 11:08:55.40	352.67	9.19	-40.4	-42.8	18.1	0.00e+00	0	44	0	3549429760	51	4989
2026-01-08 11:08:58.56	352.46	8.95	-49.2	-62.1	3.8	8.47e-01	0	44	104	3564109824	69	16434
2026-01-08 11:09:01.43	352.27	8.73	-50.3	-62.8	3.8	8.48e-01	0	44	104	3564109824	71	15866
2026-01-08 11:09:04.58	352.07	8.49	-50.8	-62.9	3.8	8.47e-01	0	44	104	3564109824	72	15224
2026-01-08 11:09:07.45	351.89	8.27	-50.4	-63.0	3.8	8.46e-01	0	44	104	3564109824	72	15295
2026-01-08 11:09:10.62	351.70	8.04	-50.7	-63.0	3.8	8.45e-01	0	44	104	3564109824	72	15297
2026-01-08 11:09:13.49	351.52	7.82	-50.8	-63.0	3.8	8.47e-01	0	44	104	3564109824	72	15353
2026-01-08 11:09:16.65	351.33	7.59	-50.8	-63.1	3.8	8.47e-01	0	44	104	3564109824	72	15438
2026-01-08 11:09:19.52	351.17	7.38	-50.9	-63.0	3.8	8.47e-01	0	44	104	3564109824	72	15376
2026-01-08 11:09:22.68	350.98	7.15	-50.7	-63.0	3.8	8.48e-01	0	44	104	3564109824	72	15397
2026-01-08 11:09:25.58	350.82	6.94	-50.8	-63.0	3.8	8.48e-01	0	44	104	3564109824	72	15340
2026-01-08 11:09:28.74	350.64	6.71	-50.3	-63.0	3.8	8.47e-01	0	44	104	3564109824	72	15248
2026-01-08 11:09:31.60	350.48	6.51	-50.3	-62.9	3.8	8.46e-01	0	44	104	3564109824	72	15225
2026-01-08 11:09:34.76	350.31	6.29	-50.3	-63.0	3.8	8.48e-01	0	44	104	3564109824	72	15234
2026-01-08 11:09:37.63	350.16	6.09	-50.2	-62.9	3.8	8.47e-01	0	44	104	3564109824	72	15179
2026-01-08 11:09:40.79	349.99	5.87	-50.3	-63.0	3.8	8.47e-01	0	44	104	3564109824	72	15262
2026-01-08 11:09:43.66	349.84	5.67	-50.3	-62.9	3.8	8.46e-01	0	44	104	3564109824	72	15216
2026-01-08 11:09:46.81	349.68	5.45	-50.3	-62.9	3.8	8.47e-01	0	44	104	3564109824	72	15192
2026-01-08 11:09:49.68	349.54	5.26	-50.3	-62.9	3.8	8.47e-01	0	44	104	3564109824	72	15222
2026-01-08 11:09:52.84	349.38	5.04	-50.3	-62.9	3.8	8.47e-01	0	44	104	3564109824	72	15206

#Closed at: 2026-01-08 11:09:54
#Recorded file [3564 MB]: D:/Data/31040_260108_135745.dat