passes_logs/2026/01/08/T1/T1__20260108_142328_FENGYUN_3E_rec.log

#Pass ID: 20260108_142328_FENGYUN 3E
#Satellite: FENGYUN 3E
#Configuration: FENGYUN 3E
#almurnet v.1.7.20251203
#Start time: 2026-01-08 14:23:30

#Version: 2.0.20230620
#Station: T1
#Location: 37.570604 lon 55.790049 lat
#TLE: 1 49008U 21062A   26007.88844255 -.00000338  00000+0 -13865-3 0  9992
#TLE: 2 49008  98.7481  13.0996 0001694 151.5348 208.5921 14.19883289233834

#Time	Az	El	Level	Level2	SNR	BER	BlckErr	Temp	State	Recorded	gain1	gain2
2026-01-08 14:23:30.30	166.05	5.11	-49.0	-60.2	3.8	8.46e-01	0	40	0	0	67	13810
2026-01-08 14:23:34.30	166.10	5.40	-48.4	-59.8	3.8	8.46e-01	0	41	104	0	67	13193
2026-01-08 14:23:38.32	166.14	5.69	-48.5	-60.7	3.8	8.46e-01	0	41	104	0	67	14654
2026-01-08 14:23:42.34	166.19	5.99	-48.4	-59.8	3.8	8.47e-01	0	41	104	0	67	13216
2026-01-08 14:23:46.36	166.24	6.29	-48.2	-58.0	4.0	8.45e-01	0	41	104	0	67	10726
2026-01-08 14:23:50.37	166.29	6.59	-48.0	-58.1	3.9	8.42e-01	0	41	104	0	66	11458
2026-01-08 14:23:54.39	166.35	6.90	-48.2	-58.9	3.8	8.45e-01	0	41	104	0	66	12631
2026-01-08 14:23:58.41	166.40	7.21	-48.1	-58.0	3.9	8.46e-01	0	42	104	0	66	11393
2026-01-08 14:24:02.43	166.45	7.53	-47.2	-53.7	6.0	4.10e-01	0	42	0	2097152	65	7329
2026-01-08 14:24:06.44	166.51	7.85	-45.7	-49.7	9.9	1.23e-02	0	42	0	30408704	62	5475
2026-01-08 14:24:10.46	166.56	8.17	-44.6	-47.6	11.9	4.67e-04	0	42	0	59768832	59	5145
2026-01-08 14:24:14.48	166.62	8.50	-45.4	-49.0	10.6	3.01e-03	0	42	0	89128960	60	5692
2026-01-08 14:24:18.49	166.67	8.83	-47.2	-53.3	6.2	1.81e-01	0	42	0	117440512	64	7449
2026-01-08 14:24:22.51	166.73	9.17	-48.4	-60.3	3.8	8.46e-01	0	42	104	121634816	67	13998
2026-01-08 14:24:26.52	166.79	9.51	-48.8	-60.5	3.8	8.46e-01	0	42	104	131072000	67	14289
2026-01-08 14:24:30.53	166.85	9.85	-46.5	-51.5	8.1	4.43e-02	0	42	0	155189248	63	6367
2026-01-08 14:24:34.54	166.92	10.20	-45.3	-49.4	10.4	5.34e-03	0	42	0	183500800	60	5950
2026-01-08 14:24:38.55	166.98	10.56	-44.6	-47.9	10.3	8.39e-04	0	42	0	212860928	59	5283
2026-01-08 14:24:42.56	167.04	10.92	-44.8	-48.1	11.7	3.22e-04	0	42	0	242221056	59	5417
2026-01-08 14:24:46.58	167.11	11.28	-44.1	-46.7	13.0	9.84e-05	0	43	0	270532608	59	4610
2026-01-08 14:24:50.59	167.18	11.65	-43.6	-45.9	13.9	4.50e-06	0	43	0	299892736	57	4736
2026-01-08 14:24:54.60	167.24	12.03	-43.8	-46.0	13.7	2.20e-06	0	43	0	329252864	57	4802
2026-01-08 14:24:58.60	167.31	12.41	-43.3	-45.3	14.4	2.20e-06	0	43	0	357564416	56	4679
2026-01-08 14:25:02.64	167.39	12.80	-42.3	-44.1	15.5	0.00e+00	0	43	0	386924544	55	4319
2026-01-08 14:25:06.84	167.46	13.21	-42.7	-44.6	15.1	0.00e+00	0	43	0	417333248	54	4815
2026-01-08 14:25:11.19	167.54	13.65	-41.7	-43.4	16.3	0.00e+00	0	43	0	448790528	53	4452
2026-01-08 14:25:15.55	167.63	14.09	-41.1	-42.8	17.0	0.00e+00	0	43	0	480247808	51	4658
2026-01-08 14:25:19.86	167.71	14.54	-40.4	-41.9	17.8	0.00e+00	0	43	0	511705088	51	4213
2026-01-08 14:25:24.35	167.80	15.02	-39.8	-41.3	18.3	0.00e+00	0	43	0	544210944	50	4157
2026-01-08 14:25:28.94	167.90	15.51	-39.4	-40.8	18.8	0.00e+00	0	43	0	576716800	49	4178
2026-01-08 14:25:33.34	167.99	16.00	-39.2	-40.6	18.9	0.00e+00	0	43	0	608174080	48	4318
2026-01-08 14:25:37.34	168.08	16.45	-38.7	-40.1	19.3	0.00e+00	0	43	0	637534208	48	4080
2026-01-08 14:25:41.35	168.17	16.91	-38.3	-39.7	19.5	0.00e+00	0	43	0	666894336	47	4117
2026-01-08 14:25:45.59	168.27	17.40	-38.1	-39.5	19.7	0.00e+00	0	43	0	696254464	46	4248
2026-01-08 14:25:49.60	168.36	17.88	-37.2	-38.6	20.4	0.00e+00	0	43	0	725614592	45	4066
2026-01-08 14:25:53.62	168.46	18.37	-37.2	-38.5	20.5	0.00e+00	0	43	0	754974720	44	4283
2026-01-08 14:25:57.63	168.56	18.86	-36.9	-38.2	20.7	0.00e+00	0	43	0	783286272	44	4117
2026-01-08 14:26:01.76	168.67	19.38	-36.6	-37.9	20.9	0.00e+00	0	43	0	813694976	44	3999
2026-01-08 14:26:05.76	168.78	19.90	-36.5	-37.8	20.9	0.00e+00	0	43	0	843055104	43	4157
2026-01-08 14:26:09.77	168.89	20.43	-36.5	-37.8	20.9	0.00e+00	0	43	0	871366656	43	4157
2026-01-08 14:26:14.11	169.01	21.01	-36.4	-37.8	20.8	0.00e+00	0	43	0	902823936	43	4176
2026-01-08 14:26:18.12	169.13	21.57	-36.4	-37.8	20.8	0.00e+00	0	43	0	932184064	43	4163
2026-01-08 14:26:22.24	169.26	22.15	-36.6	-38.0	20.6	0.00e+00	0	43	0	961544192	43	4272
2026-01-08 14:26:26.24	169.38	22.72	-36.5	-37.9	20.7	0.00e+00	0	43	0	989855744	43	4221
2026-01-08 14:26:30.56	169.52	23.36	-36.4	-37.8	20.8	0.00e+00	0	43	0	1021313024	43	4175
2026-01-08 14:26:34.57	169.66	23.96	-35.9	-37.3	21.2	0.00e+00	0	43	0	1050673152	42	4177
2026-01-08 14:26:38.61	169.80	24.59	-36.0	-37.4	21.2	0.00e+00	0	43	0	1080033280	42	4208
2026-01-08 14:26:42.76	169.95	25.25	-35.9	-37.2	21.3	0.00e+00	0	43	0	1109393408	42	4145
2026-01-08 14:26:46.75	170.10	25.89	-35.9	-37.2	21.4	0.00e+00	0	43	0	1138753536	42	4143
2026-01-08 14:26:50.79	170.26	26.56	-35.9	-37.2	21.4	0.00e+00	0	43	0	1167065088	41	4374
2026-01-08 14:26:54.89	170.42	27.26	-35.7	-37.0	21.6	0.00e+00	0	43	0	1197473792	41	4287
2026-01-08 14:26:58.99	170.60	27.98	-35.5	-36.7	21.9	0.00e+00	0	43	0	1226833920	41	4137
2026-01-08 14:27:03.00	170.78	28.70	-35.4	-36.7	21.9	0.00e+00	0	43	0	1256194048	41	4118
2026-01-08 14:27:07.02	170.96	29.44	-35.6	-36.9	21.7	0.00e+00	0	43	0	1284505600	41	4202
2026-01-08 14:27:11.03	171.15	30.20	-35.5	-36.8	21.8	0.00e+00	0	43	0	1313865728	41	4163
2026-01-08 14:27:15.04	171.36	30.98	-35.3	-36.6	21.8	0.00e+00	0	43	0	1342177280	41	4079
2026-01-08 14:27:19.06	171.57	31.78	-35.4	-36.8	21.6	0.00e+00	0	43	0	1371537408	41	4156
2026-01-08 14:27:23.06	171.79	32.60	-35.5	-36.9	21.4	0.00e+00	0	43	0	1400897536	41	4209
2026-01-08 14:27:27.01	172.02	33.43	-35.6	-37.0	21.3	0.00e+00	0	43	0	1429209088	41	4289
2026-01-08 14:27:31.02	172.26	34.29	-35.7	-37.1	21.3	0.00e+00	0	43	0	1457520640	41	4327
2026-01-08 14:27:35.04	172.52	35.19	-35.5	-36.8	21.7	0.00e+00	0	43	0	1486880768	41	4184
2026-01-08 14:27:39.04	172.79	36.10	-35.6	-36.9	21.8	0.00e+00	0	43	0	1516240896	41	4206
2026-01-08 14:27:43.06	173.08	37.04	-35.6	-37.0	21.7	0.00e+00	0	43	0	1544552448	41	4244
2026-01-08 14:27:47.44	173.41	38.10	-35.7	-37.1	21.5	0.00e+00	0	43	0	1576009728	41	4307
2026-01-08 14:27:51.80	173.76	39.19	-35.4	-36.7	21.9	0.00e+00	0	43	0	1608515584	41	4118
2026-01-08 14:27:56.12	174.13	40.30	-35.8	-37.1	21.5	0.00e+00	0	43	0	1638924288	41	4324
2026-01-08 14:28:00.48	174.53	41.46	-35.9	-37.2	21.5	0.00e+00	0	43	0	1670381568	41	4364
2026-01-08 14:28:04.89	174.96	42.67	-36.0	-37.3	21.5	0.00e+00	0	43	0	1701838848	41	4394
2026-01-08 14:28:09.12	175.41	43.86	-36.2	-37.5	21.3	0.00e+00	0	43	0	1733296128	42	4275
2026-01-08 14:28:13.13	175.87	45.03	-37.2	-38.1	21.4	0.00e+00	0	43	0	1761607680	43	4332
2026-01-08 14:28:17.25	176.37	46.26	-37.0	-37.9	21.7	0.00e+00	0	43	0	1792016384	44	3971
2026-01-08 14:28:21.56	176.94	47.58	-37.1	-37.9	21.7	0.00e+00	0	43	0	1822425088	44	3999
2026-01-08 14:28:25.80	177.55	48.93	-37.3	-38.2	21.5	0.00e+00	0	43	0	1853882368	44	4126
2026-01-08 14:28:29.80	178.18	50.23	-37.2	-38.0	21.6	0.00e+00	0	43	0	1882193920	44	4050
2026-01-08 14:28:33.81	178.86	51.57	-38.0	-39.0	20.8	0.00e+00	0	43	0	1911554048	45	4260
2026-01-08 14:28:37.82	179.61	52.94	-37.6	-38.5	21.2	0.00e+00	0	43	0	1939865600	45	4014
2026-01-08 14:28:41.84	180.43	54.35	-37.9	-38.8	20.9	0.00e+00	0	43	0	1969225728	46	3955
2026-01-08 14:28:45.85	181.33	55.79	-38.0	-39.0	20.8	0.00e+00	0	43	0	1998585856	45	4245
2026-01-08 14:28:49.87	182.34	57.27	-37.8	-38.7	21.0	0.00e+00	0	43	0	2026897408	45	4137
2026-01-08 14:28:53.88	183.46	58.77	-37.4	-38.3	21.3	0.00e+00	0	43	0	2056257536	45	3956
2026-01-08 14:28:57.88	184.70	60.29	-37.4	-38.4	21.3	0.00e+00	0	43	0	2084569088	45	3963
2026-01-08 14:29:01.90	186.11	61.85	-37.5	-38.4	21.3	0.00e+00	0	43	0	2113929216	45	3979
2026-01-08 14:29:05.91	187.71	63.42	-36.9	-37.8	21.6	0.00e+00	0	43	0	2143289344	43	4162
2026-01-08 14:29:09.92	189.53	65.00	-36.3	-37.1	22.3	0.00e+00	0	43	0	2171600896	43	3868
2026-01-08 14:29:13.94	191.64	66.60	-36.7	-37.6	21.9	0.00e+00	0	43	0	2200961024	42	4295
2026-01-08 14:29:17.95	194.08	68.19	-35.9	-36.7	22.7	0.00e+00	0	43	0	2230321152	42	3889
2026-01-08 14:29:21.96	196.93	69.77	-36.3	-37.1	22.3	0.00e+00	0	43	0	2258632704	42	4092
2026-01-08 14:29:25.97	200.29	71.32	-36.2	-37.1	22.4	0.00e+00	0	43	0	2287992832	42	4070
2026-01-08 14:29:30.34	204.68	72.95	-36.0	-36.9	22.5	0.00e+00	0	43	0	2319450112	42	3966
2026-01-08 14:29:34.66	209.94	74.47	-35.3	-36.2	23.1	0.00e+00	0	43	0	2350907392	41	3876
2026-01-08 14:29:39.00	216.37	75.85	-35.0	-35.8	23.4	0.00e+00	0	43	0	2382364672	40	3952
2026-01-08 14:29:43.32	224.09	77.04	-34.9	-35.8	23.4	0.00e+00	0	43	0	2412773376	40	3920
2026-01-08 14:29:47.69	233.33	77.98	-34.7	-35.5	23.6	0.00e+00	0	43	0	2444230656	39	4051
2026-01-08 14:29:51.82	243.25	78.54	-35.0	-35.8	23.5	0.00e+00	0	44	0	2474639360	39	4168
2026-01-08 14:29:55.84	253.57	78.74	-34.7	-35.6	23.7	0.00e+00	0	44	0	2502950912	39	4061
2026-01-08 14:29:59.85	263.90	78.58	-34.9	-35.8	23.5	0.00e+00	0	44	0	2532311040	39	4152
2026-01-08 14:30:03.86	273.64	78.08	-34.8	-35.6	23.6	0.00e+00	0	43	0	2561671168	39	4082
2026-01-08 14:30:07.89	282.39	77.27	-35.0	-35.8	23.4	0.00e+00	0	44	0	2589982720	40	3939
2026-01-08 14:30:11.90	289.88	76.22	-35.5	-36.4	22.9	0.00e+00	0	43	0	2619342848	40	4218
2026-01-08 14:30:15.92	296.22	74.99	-35.5	-36.3	22.9	0.00e+00	0	43	0	2648702976	41	3941
2026-01-08 14:30:20.28	301.91	73.50	-36.0	-36.9	22.5	0.00e+00	0	43	0	2680160256	41	4206
2026-01-08 14:30:24.60	306.56	71.92	-36.7	-37.6	21.9	0.00e+00	0	43	0	2711617536	42	4312
2026-01-08 14:30:28.93	310.41	70.27	-36.4	-37.3	22.1	0.00e+00	0	43	0	2742026240	43	3939
2026-01-08 14:30:33.46	313.76	68.50	-36.2	-37.1	22.3	0.00e+00	0	43	0	2774532096	43	3843
2026-01-08 14:30:37.79	316.45	66.79	-36.3	-37.2	22.2	0.00e+00	0	43	0	2805989376	42	4101
2026-01-08 14:30:42.11	318.74	65.08	-35.9	-36.7	22.6	0.00e+00	0	43	0	2837446656	42	3911
2026-01-08 14:30:46.10	320.56	63.50	-36.6	-37.5	21.9	0.00e+00	0	43	0	2866806784	42	4264
2026-01-08 14:30:50.15	322.18	61.92	-37.7	-38.7	21.1	0.00e+00	0	43	0	2895118336	44	4350
2026-01-08 14:30:54.29	323.63	60.32	-37.5	-38.4	21.2	0.00e+00	0	43	0	2925527040	45	3994
2026-01-08 14:30:58.52	324.95	58.72	-37.5	-38.4	21.2	0.00e+00	0	43	0	2955935744	45	3991
2026-01-08 14:31:02.53	326.06	57.22	-38.1	-39.1	20.7	0.00e+00	0	43	0	2984247296	45	4331
2026-01-08 14:31:06.55	327.06	55.75	-38.2	-39.1	20.7	0.00e+00	0	43	0	3013607424	46	4087
2026-01-08 14:31:10.56	327.96	54.32	-37.9	-38.8	21.0	0.00e+00	0	44	0	3042967552	46	3931
2026-01-08 14:31:14.80	328.82	52.84	-37.6	-38.6	21.1	0.00e+00	0	43	0	3073376256	45	4054
2026-01-08 14:31:18.81	329.56	51.48	-37.6	-38.5	21.2	0.00e+00	0	43	0	3102736384	45	4015
2026-01-08 14:31:22.83	330.24	50.14	-37.7	-38.6	21.0	0.00e+00	0	44	0	3131047936	45	4086
2026-01-08 14:31:26.83	330.86	48.85	-37.3	-38.2	21.5	0.00e+00	0	43	0	3160408064	45	3877
2026-01-08 14:31:30.85	331.43	47.58	-37.2	-38.1	21.6	0.00e+00	0	43	0	3189768192	44	4056
2026-01-08 14:31:34.86	331.96	46.35	-36.9	-37.8	21.9	0.00e+00	0	43	0	3218079744	44	3939
2026-01-08 14:31:38.87	332.45	45.16	-36.3	-37.2	22.2	0.00e+00	0	43	0	3247439872	42	4101
2026-01-08 14:31:42.89	332.91	43.99	-36.3	-37.1	22.3	0.00e+00	0	43	0	3275751424	42	4090
2026-01-08 14:31:46.89	333.34	42.87	-36.3	-37.2	22.2	0.00e+00	0	43	0	3305111552	42	4101
2026-01-08 14:31:51.16	333.77	41.70	-35.8	-36.7	22.7	0.00e+00	0	43	0	3335520256	42	3890
2026-01-08 14:31:55.09	334.13	40.65	-36.1	-37.0	22.4	0.00e+00	0	43	0	3363831808	42	4023
2026-01-08 14:31:59.10	334.48	39.62	-36.5	-37.4	21.9	0.00e+00	0	43	0	3393191936	42	4223
2026-01-08 14:32:03.16	334.82	38.60	-36.5	-37.4	22.0	0.00e+00	0	43	0	3422552064	42	4233
2026-01-08 14:32:07.32	335.14	37.58	-36.1	-36.9	22.5	0.00e+00	0	43	0	3452960768	42	4002
2026-01-08 14:32:11.66	335.46	36.55	-35.8	-36.6	22.7	0.00e+00	0	43	0	3484418048	42	3861
2026-01-08 14:32:15.97	335.76	35.56	-35.8	-36.7	22.7	0.00e+00	0	43	0	3514826752	42	3891
2026-01-08 14:32:20.60	336.06	34.53	-35.8	-36.7	22.7	0.00e+00	0	43	0	3548381184	42	3890
2026-01-08 14:32:25.08	336.33	33.57	-35.8	-36.7	22.7	0.00e+00	0	43	0	3580887040	42	3877
2026-01-08 14:32:29.24	336.58	32.69	-35.8	-36.6	22.7	0.00e+00	0	43	0	3610247168	42	3858
2026-01-08 14:32:33.38	336.81	31.85	-35.9	-36.7	22.6	0.00e+00	0	43	0	3640655872	42	3909
2026-01-08 14:32:37.40	337.02	31.05	-36.0	-36.9	22.4	0.00e+00	0	43	0	3670016000	42	3999
2026-01-08 14:32:41.40	337.22	30.28	-36.1	-37.0	22.3	0.00e+00	0	43	0	3698327552	42	4030
2026-01-08 14:32:45.41	337.42	29.53	-36.1	-37.0	22.4	0.00e+00	0	44	0	3727687680	42	4028
2026-01-08 14:32:49.52	337.61	28.78	-36.3	-37.2	22.2	0.00e+00	0	43	0	3757047808	42	4119
2026-01-08 14:32:53.54	337.79	28.06	-36.4	-37.3	22.1	0.00e+00	0	43	0	3786407936	42	4178
2026-01-08 14:32:57.63	337.96	27.35	-36.4	-37.3	22.1	0.00e+00	0	43	0	3815768064	42	4186
2026-01-08 14:33:01.85	338.14	26.63	-36.5	-37.4	22.0	0.00e+00	0	43	0	3846176768	42	4231
2026-01-08 14:33:05.97	338.30	25.95	-36.3	-37.2	22.2	0.00e+00	0	43	0	3875536896	42	4118
2026-01-08 14:33:10.25	338.46	25.26	-36.2	-37.1	22.2	0.00e+00	0	43	0	3906994176	42	4072
2026-01-08 14:33:14.47	338.62	24.60	-36.3	-37.1	22.2	0.00e+00	0	43	0	3937402880	42	4098
2026-01-08 14:33:18.48	338.76	23.98	-36.2	-37.1	22.2	0.00e+00	0	43	0	3965714432	42	4087
2026-01-08 14:33:22.52	338.90	23.38	-36.3	-37.2	22.2	0.00e+00	0	43	0	3995074560	42	4133
2026-01-08 14:33:26.64	339.03	22.78	-36.3	-37.2	22.2	0.00e+00	0	43	0	4024434688	42	4117
2026-01-08 14:33:31.19	339.18	22.13	-36.4	-37.3	22.1	0.00e+00	0	43	0	4057989120	42	4166
2026-01-08 14:33:35.54	339.31	21.52	-36.5	-37.4	21.9	0.00e+00	0	44	0	4089446400	42	4220
2026-01-08 14:33:39.96	339.44	20.92	-36.8	-37.7	21.7	0.00e+00	0	43	0	4120903680	42	4361
2026-01-08 14:33:44.34	339.57	20.34	-37.0	-38.0	21.4	0.00e+00	0	43	0	4152360960	43	4243
2026-01-08 14:33:48.36	339.68	19.81	-37.2	-38.1	21.3	0.00e+00	0	43	0	4181721088	43	4331
2026-01-08 14:33:52.51	339.79	19.29	-37.4	-38.4	21.1	0.00e+00	0	43	0	4212129792	44	4219
2026-01-08 14:33:56.66	339.90	18.77	-37.5	-38.5	21.0	0.00e+00	0	43	0	4241489920	44	4257
2026-01-08 14:34:00.67	340.00	18.28	-37.7	-38.7	20.9	0.00e+00	0	43	0	4270850048	44	4355
2026-01-08 14:34:04.64	340.10	17.80	-37.6	-38.5	21.0	0.00e+00	0	43	0	4299161600	44	4269
2026-01-08 14:34:08.65	340.20	17.33	-37.6	-38.6	21.0	0.00e+00	0	43	0	4328521728	44	4316
2026-01-08 14:34:12.71	340.30	16.86	-37.7	-38.7	20.8	0.00e+00	0	44	0	4357881856	45	4121
2026-01-08 14:34:16.72	340.39	16.41	-37.7	-38.6	20.8	0.00e+00	0	43	0	4386193408	45	4095
2026-01-08 14:34:20.86	340.48	15.95	-37.8	-38.8	20.7	0.00e+00	0	44	0	4416602112	45	4179
2026-01-08 14:34:24.86	340.57	15.52	-37.8	-38.9	20.6	0.00e+00	0	44	0	4444913664	45	4195
2026-01-08 14:34:28.88	340.66	15.08	-38.0	-39.1	20.5	0.00e+00	0	43	0	4474273792	45	4309
2026-01-08 14:34:32.99	340.74	14.65	-38.3	-39.3	20.3	0.00e+00	0	43	0	4503633920	46	4169
2026-01-08 14:34:37.36	340.83	14.20	-38.5	-39.5	20.0	0.00e+00	0	43	0	4536139776	46	4288
2026-01-08 14:34:41.38	340.91	13.79	-38.6	-39.6	19.9	0.00e+00	0	43	0	4564451328	46	4339
2026-01-08 14:34:45.40	340.99	13.39	-38.8	-40.0	19.6	0.00e+00	0	43	0	4593811456	46	4494
2026-01-08 14:34:49.38	341.07	13.00	-38.8	-40.0	19.6	0.00e+00	0	43	0	4622123008	47	4268
2026-01-08 14:34:53.39	341.14	12.61	-39.0	-40.2	19.4	0.00e+00	0	43	0	4651483136	47	4345
2026-01-08 14:34:57.40	341.22	12.23	-39.1	-40.3	19.2	0.00e+00	0	43	0	4680843264	47	4394
2026-01-08 14:35:01.47	341.29	11.85	-38.9	-40.1	19.4	0.00e+00	0	44	0	4709154816	47	4330
2026-01-08 14:35:05.43	341.36	11.49	-39.2	-40.4	19.1	0.00e+00	0	43	0	4738514944	47	4468
2026-01-08 14:35:09.44	341.43	11.12	-39.4	-40.5	19.2	0.00e+00	0	44	0	4766826496	48	4289
2026-01-08 14:35:13.45	341.50	10.76	-39.5	-40.7	19.0	0.00e+00	0	44	0	4796186624	48	4378
2026-01-08 14:35:17.53	341.57	10.40	-39.5	-40.7	19.0	0.00e+00	0	43	0	4825546752	48	4359
2026-01-08 14:35:21.46	341.63	10.06	-39.5	-40.7	19.0	0.00e+00	0	44	0	4853858304	48	4357
2026-01-08 14:35:25.47	341.70	9.72	-39.5	-40.7	19.0	0.00e+00	0	43	0	4883218432	48	4366
2026-01-08 14:35:29.48	341.76	9.38	-39.5	-40.9	18.9	0.00e+00	0	44	0	4911529984	48	4445
2026-01-08 14:35:33.51	341.82	9.04	-40.3	-41.8	18.0	0.00e+00	0	44	0	4940890112	49	4652
2026-01-08 14:35:37.53	341.88	8.71	-49.5	-61.4	3.8	8.46e-01	0	43	104	4944035840	69	14162
2026-01-08 14:35:41.55	341.94	8.38	-50.2	-61.7	3.8	8.47e-01	0	44	104	4944035840	70	13751
2026-01-08 14:35:45.58	342.00	8.06	-50.8	-61.7	3.8	8.47e-01	0	44	104	4944035840	71	13080
2026-01-08 14:35:49.59	342.06	7.74	-50.9	-61.7	3.8	8.47e-01	0	44	104	4944035840	71	13075
2026-01-08 14:35:53.61	342.12	7.43	-50.9	-61.7	3.8	8.47e-01	0	44	104	4944035840	71	13017
2026-01-08 14:35:57.63	342.18	7.11	-50.7	-61.6	3.8	8.46e-01	0	44	104	4944035840	71	12851
2026-01-08 14:36:01.65	342.24	6.81	-50.3	-61.5	3.8	8.46e-01	0	44	104	4944035840	71	12754
2026-01-08 14:36:05.66	342.29	6.50	-50.3	-61.5	3.8	8.47e-01	0	43	104	4944035840	71	12793
2026-01-08 14:36:09.68	342.35	6.20	-50.3	-61.5	3.8	8.47e-01	0	43	104	4944035840	71	12801
2026-01-08 14:36:13.70	342.40	5.91	-50.3	-61.5	3.8	8.47e-01	0	44	104	4944035840	71	12763
2026-01-08 14:36:17.72	342.45	5.61	-50.3	-61.5	3.8	8.47e-01	0	44	104	4944035840	71	12721
2026-01-08 14:36:21.74	342.51	5.32	-50.3	-61.4	3.8	8.47e-01	0	43	104	4944035840	71	12655
2026-01-08 14:36:25.75	342.56	5.04	-50.3	-61.5	3.8	8.48e-01	0	44	104	4944035840	71	12759

#Closed at: 2026-01-08 14:36:27
#Recorded file [4944 MB]: D:/Data/31040_260108_172330.dat