passes_logs/2026/01/08/T1/T1__20260108_043307_FENGYUN_3E_rec.log

#Pass ID: 20260108_043307_FENGYUN 3E
#Satellite: FENGYUN 3E
#Configuration: FENGYUN 3E
#almurnet v.1.7.20251203
#Start time: 2026-01-08 04:33:08

#Version: 2.0.20230620
#Station: T1
#Location: 37.570604 lon 55.790049 lat
#TLE: 1 49008U 21062A   26007.88844255 -.00000338  00000+0 -13865-3 0  9992
#TLE: 2 49008  98.7481  13.0996 0001694 151.5348 208.5921 14.19883289233834

#Time	Az	El	Level	Level2	SNR	BER	BlckErr	Temp	State	Recorded	gain1	gain2
2026-01-08 04:33:08.08	12.65	5.05	-48.6	-61.6	3.8	8.46e-01	0	39	0	0	68	15240
2026-01-08 04:33:11.09	12.56	5.26	-48.5	-61.3	3.8	8.47e-01	0	38	104	0	66	16618
2026-01-08 04:33:14.10	12.48	5.47	-48.5	-61.3	3.8	8.47e-01	0	39	104	0	66	16595
2026-01-08 04:33:17.12	12.40	5.69	-48.5	-61.2	3.8	8.47e-01	0	39	104	0	66	16477
2026-01-08 04:33:20.13	12.31	5.90	-48.5	-61.2	3.8	8.47e-01	0	39	104	0	66	16493
2026-01-08 04:33:23.15	12.22	6.12	-48.4	-61.2	3.8	8.47e-01	0	39	104	0	66	16336
2026-01-08 04:33:26.16	12.13	6.34	-48.4	-60.7	3.8	8.46e-01	0	39	104	0	66	15507
2026-01-08 04:33:29.17	12.04	6.56	-48.3	-59.7	3.8	8.47e-01	0	39	104	0	66	13780
2026-01-08 04:33:32.19	11.95	6.79	-48.2	-58.3	4.1	8.43e-01	0	40	104	0	66	11715
2026-01-08 04:33:35.20	11.85	7.02	-48.2	-57.8	4.2	8.35e-01	0	40	0	0	66	11069
2026-01-08 04:33:38.21	11.75	7.24	-48.2	-57.9	4.2	8.38e-01	0	40	0	0	66	11238
2026-01-08 04:33:41.23	11.66	7.47	-48.2	-58.2	4.1	8.42e-01	0	40	0	0	66	11581
2026-01-08 04:33:44.24	11.56	7.71	-48.0	-56.6	4.7	8.15e-01	0	40	0	0	66	9695
2026-01-08 04:33:47.25	11.45	7.94	-47.4	-53.9	6.4	2.92e-01	0	40	0	6291456	65	7488
2026-01-08 04:33:50.26	11.35	8.17	-46.6	-51.3	9.0	3.35e-02	0	40	0	27262976	63	6238
2026-01-08 04:33:53.28	11.24	8.41	-45.7	-49.2	11.2	2.10e-03	0	40	0	49283072	62	5174
2026-01-08 04:33:56.29	11.14	8.65	-45.2	-48.4	12.0	3.67e-04	0	40	0	71303168	61	4987
2026-01-08 04:33:59.30	11.03	8.90	-45.5	-48.9	11.5	7.20e-04	0	40	0	93323264	61	5292
2026-01-08 04:34:02.31	10.92	9.14	-46.4	-50.6	9.7	1.89e-03	0	40	0	114294784	62	6125
2026-01-08 04:34:05.30	10.80	9.39	-41.6	-43.3	16.9	0.00e+00	0	40	0	127926272	54	4179
2026-01-08 04:34:08.31	10.69	9.64	-44.9	-48.0	12.4	3.71e-04	0	40	0	148897792	60	5066
2026-01-08 04:34:11.32	10.57	9.89	-42.4	-44.2	16.0	0.00e+00	0	40	0	170917888	55	4377
2026-01-08 04:34:14.32	10.45	10.14	-41.8	-43.5	16.7	0.00e+00	0	40	0	192937984	54	4248
2026-01-08 04:34:17.34	10.33	10.40	-41.3	-42.9	17.3	0.00e+00	0	40	0	214958080	53	4196
2026-01-08 04:34:20.44	10.20	10.66	-41.4	-42.9	17.3	0.00e+00	0	40	0	236978176	53	4232
2026-01-08 04:34:23.33	10.08	10.92	-41.0	-42.5	17.7	0.00e+00	0	40	0	257949696	52	4247
2026-01-08 04:34:26.70	9.93	11.21	-40.5	-41.8	18.4	0.00e+00	0	40	0	282066944	51	4171
2026-01-08 04:34:29.42	9.81	11.45	-40.1	-41.3	18.9	0.00e+00	0	40	0	301989888	50	4170
2026-01-08 04:34:32.71	9.66	11.75	-40.1	-41.3	18.9	0.00e+00	0	40	0	325058560	50	4178
2026-01-08 04:34:35.45	9.54	12.00	-39.8	-41.0	19.2	0.00e+00	0	40	0	344981504	50	4036
2026-01-08 04:34:38.75	9.38	12.30	-39.6	-40.8	19.5	0.00e+00	0	40	0	369098752	50	3922
2026-01-08 04:34:41.47	9.25	12.55	-39.7	-40.8	19.4	0.00e+00	0	40	0	389021696	50	3948
2026-01-08 04:34:44.76	9.09	12.86	-39.6	-40.7	19.4	0.00e+00	0	41	0	412090368	49	4135
2026-01-08 04:34:47.75	8.94	13.14	-39.7	-40.8	19.4	0.00e+00	0	40	0	434110464	49	4168
2026-01-08 04:34:50.86	8.79	13.44	-39.5	-40.5	19.6	0.00e+00	0	40	0	456130560	49	4044
2026-01-08 04:34:53.87	8.63	13.73	-39.4	-40.5	19.7	0.00e+00	0	40	0	478150656	49	4029
2026-01-08 04:34:56.88	8.47	14.03	-39.5	-40.6	19.6	0.00e+00	0	40	0	500170752	49	4057
2026-01-08 04:34:59.89	8.31	14.33	-39.3	-40.3	19.8	0.00e+00	0	40	0	522190848	49	3955
2026-01-08 04:35:02.87	8.14	14.62	-39.2	-40.2	19.9	0.00e+00	0	40	0	543162368	49	3907
2026-01-08 04:35:05.87	7.97	14.93	-39.1	-40.1	20.0	0.00e+00	0	41	0	565182464	48	4089
2026-01-08 04:35:08.88	7.80	15.24	-39.0	-40.0	20.2	0.00e+00	0	40	0	586153984	48	4009
2026-01-08 04:35:11.89	7.62	15.55	-38.8	-39.8	20.3	0.00e+00	0	41	0	608174080	48	3949
2026-01-08 04:35:15.02	7.43	15.88	-38.9	-39.9	20.2	0.00e+00	0	41	0	631242752	48	3991
2026-01-08 04:35:17.88	7.25	16.18	-38.8	-39.7	20.4	0.00e+00	0	41	0	651165696	48	3911
2026-01-08 04:35:21.04	7.05	16.52	-38.7	-39.7	20.5	0.00e+00	0	41	0	674234368	48	3889
2026-01-08 04:35:23.90	6.87	16.84	-38.5	-39.5	20.4	0.00e+00	0	41	0	695205888	47	4032
2026-01-08 04:35:27.06	6.66	17.18	-38.4	-39.4	20.5	0.00e+00	0	41	0	718274560	47	3991
2026-01-08 04:35:29.93	6.46	17.51	-38.4	-39.4	20.5	0.00e+00	0	41	0	738197504	47	3971
2026-01-08 04:35:33.05	6.24	17.86	-38.3	-39.2	20.6	0.00e+00	0	40	0	761266176	47	3906
2026-01-08 04:35:36.06	6.03	18.20	-38.3	-39.2	20.6	0.00e+00	0	41	0	783286272	47	3907
2026-01-08 04:35:39.06	5.81	18.55	-38.0	-39.0	20.9	0.00e+00	0	41	0	804257792	46	4009
2026-01-08 04:35:42.07	5.58	18.91	-38.0	-39.0	20.9	0.00e+00	0	41	0	826277888	46	4009
2026-01-08 04:35:45.18	5.35	19.28	-38.0	-39.0	20.9	0.00e+00	0	41	0	848297984	46	4017
2026-01-08 04:35:48.14	5.11	19.64	-38.1	-39.1	20.8	0.00e+00	0	41	0	870318080	46	4062
2026-01-08 04:35:51.15	4.87	20.00	-38.1	-39.0	20.9	0.00e+00	0	41	0	891289600	46	4026
2026-01-08 04:35:54.49	4.59	20.42	-38.0	-39.0	20.9	0.00e+00	0	41	0	916455424	46	4026
2026-01-08 04:35:57.21	4.36	20.76	-38.0	-39.0	20.9	0.00e+00	0	41	0	935329792	46	4015
2026-01-08 04:36:00.51	4.07	21.18	-38.2	-39.2	20.8	0.00e+00	0	41	0	959447040	46	4106
2026-01-08 04:36:03.23	3.83	21.53	-38.1	-39.1	20.8	0.00e+00	0	41	0	978321408	46	4076
2026-01-08 04:36:06.71	3.51	21.99	-37.9	-38.9	21.0	0.00e+00	0	41	0	1004535808	46	3989
2026-01-08 04:36:09.43	3.25	22.35	-37.9	-38.9	21.0	0.00e+00	0	41	0	1023410176	46	3973
2026-01-08 04:36:12.73	2.93	22.80	-37.8	-38.7	21.2	0.00e+00	0	41	0	1047527424	46	3884
2026-01-08 04:36:15.56	2.65	23.19	-37.7	-38.6	21.2	0.00e+00	0	41	0	1067450368	45	4087
2026-01-08 04:36:18.85	2.31	23.64	-37.5	-38.4	21.5	0.00e+00	0	41	0	1091567616	45	3972
2026-01-08 04:36:21.85	2.00	24.07	-37.5	-38.4	21.5	0.00e+00	0	41	0	1113587712	45	3976
2026-01-08 04:36:24.85	1.67	24.49	-37.6	-38.5	21.4	0.00e+00	0	40	0	1134559232	45	4018
2026-01-08 04:36:27.86	1.33	24.93	-37.4	-38.3	21.6	0.00e+00	0	41	0	1156579328	45	3935
2026-01-08 04:36:30.87	0.99	25.37	-37.2	-38.1	21.8	0.00e+00	0	41	0	1178599424	45	3834
2026-01-08 04:36:33.97	0.62	25.83	-37.3	-38.2	21.6	0.00e+00	0	41	0	1200619520	44	4127
2026-01-08 04:36:37.01	0.25	26.29	-37.4	-38.3	21.6	0.00e+00	0	41	0	1222639616	44	4168
2026-01-08 04:36:40.02	359.87	26.76	-37.3	-38.2	21.7	0.00e+00	0	41	0	1244659712	44	4104
2026-01-08 04:36:43.03	359.48	27.22	-37.2	-38.1	21.7	0.00e+00	0	41	0	1265631232	44	4093
2026-01-08 04:36:46.04	359.08	27.70	-37.2	-38.1	21.7	0.00e+00	0	40	0	1287651328	44	4088
2026-01-08 04:36:49.05	358.66	28.18	-37.1	-38.0	21.8	0.00e+00	0	41	0	1309671424	44	4036
2026-01-08 04:36:52.05	358.24	28.67	-37.1	-38.0	21.9	0.00e+00	0	41	0	1331691520	44	4008
2026-01-08 04:36:55.06	357.79	29.16	-37.1	-38.0	21.8	0.00e+00	0	41	0	1352663040	44	4031
2026-01-08 04:36:58.07	357.34	29.66	-37.1	-38.0	21.8	0.00e+00	0	40	0	1374683136	44	4020
2026-01-08 04:37:01.08	356.87	30.17	-37.2	-38.1	21.8	0.00e+00	0	41	0	1396703232	44	4076
2026-01-08 04:37:04.57	356.30	30.77	-37.3	-38.2	21.7	0.00e+00	0	41	0	1421869056	44	4113
2026-01-08 04:37:07.46	355.82	31.27	-37.2	-38.1	21.8	0.00e+00	0	41	0	1442840576	44	4070
2026-01-08 04:37:10.74	355.25	31.85	-37.3	-38.2	21.7	0.00e+00	0	41	0	1465909248	44	4126
2026-01-08 04:37:13.84	354.69	32.41	-37.0	-37.9	21.9	0.00e+00	0	41	0	1488977920	44	3986
2026-01-08 04:37:16.85	354.13	32.95	-36.6	-37.4	22.2	0.00e+00	0	41	0	1509949440	43	3991
2026-01-08 04:37:19.85	353.55	33.50	-36.3	-37.2	22.4	0.00e+00	0	41	0	1531969536	43	3892
2026-01-08 04:37:22.86	352.95	34.06	-36.6	-37.5	22.2	0.00e+00	0	41	0	1553989632	43	4014
2026-01-08 04:37:25.87	352.33	34.62	-36.8	-37.6	22.0	0.00e+00	0	41	0	1574961152	43	4089
2026-01-08 04:37:28.88	351.69	35.20	-37.0	-37.8	22.0	0.00e+00	0	41	0	1596981248	44	3952
2026-01-08 04:37:31.90	351.02	35.77	-36.4	-37.2	22.3	0.00e+00	0	41	0	1619001344	43	3909
2026-01-08 04:37:34.90	350.33	36.36	-36.5	-37.3	22.3	0.00e+00	0	41	0	1641021440	43	3951
2026-01-08 04:37:37.91	349.61	36.94	-36.8	-37.6	22.0	0.00e+00	0	41	0	1661992960	43	4095
2026-01-08 04:37:40.89	348.87	37.53	-36.9	-37.8	21.9	0.00e+00	0	41	0	1684013056	43	4192
2026-01-08 04:37:43.90	348.10	38.13	-36.8	-37.7	22.0	0.00e+00	0	41	0	1706033152	43	4131
2026-01-08 04:37:46.90	347.30	38.73	-36.7	-37.6	22.1	0.00e+00	0	40	0	1727004672	43	4068
2026-01-08 04:37:49.95	346.46	39.35	-36.8	-37.7	22.1	0.00e+00	0	40	0	1749024768	43	4102
2026-01-08 04:37:52.98	345.59	39.96	-36.3	-37.1	22.4	0.00e+00	0	41	0	1771044864	43	3866
2026-01-08 04:37:55.99	344.69	40.58	-37.3	-38.2	21.6	0.00e+00	0	41	0	1793064960	43	4343
2026-01-08 04:37:58.99	343.76	41.19	-37.4	-38.3	21.6	0.00e+00	0	41	0	1815085056	45	3943
2026-01-08 04:38:01.98	342.79	41.81	-37.3	-38.2	21.7	0.00e+00	0	41	0	1836056576	45	3893
2026-01-08 04:38:04.99	341.78	42.43	-37.2	-38.1	21.8	0.00e+00	0	41	0	1858076672	44	4083
2026-01-08 04:38:08.00	340.74	43.04	-37.1	-38.0	21.9	0.00e+00	0	40	0	1880096768	44	4023
2026-01-08 04:38:11.01	339.65	43.66	-37.0	-37.9	22.0	0.00e+00	0	41	0	1901068288	44	3986
2026-01-08 04:38:14.02	338.51	44.28	-37.3	-38.1	21.8	0.00e+00	0	41	0	1923088384	44	4094
2026-01-08 04:38:17.03	337.33	44.89	-37.5	-38.4	21.6	0.00e+00	0	41	0	1945108480	44	4217
2026-01-08 04:38:20.04	336.11	45.50	-37.4	-38.3	21.7	0.00e+00	0	41	0	1967128576	44	4172
2026-01-08 04:38:23.05	334.83	46.10	-37.2	-38.0	21.9	0.00e+00	0	41	0	1988100096	44	4050
2026-01-08 04:38:26.06	333.51	46.69	-37.6	-38.5	21.4	0.00e+00	0	40	0	2010120192	45	4051
2026-01-08 04:38:29.39	331.99	47.34	-38.0	-38.9	21.1	0.00e+00	0	41	0	2034237440	45	4218
2026-01-08 04:38:32.40	330.55	47.91	-38.6	-39.5	20.6	0.00e+00	0	41	0	2056257536	46	4272
2026-01-08 04:38:35.70	328.92	48.52	-38.2	-39.1	21.0	0.00e+00	0	40	0	2079326208	46	4071
2026-01-08 04:38:38.52	327.47	49.03	-38.0	-38.9	21.2	0.00e+00	0	41	0	2100297728	46	3979
2026-01-08 04:38:41.60	325.84	49.57	-38.7	-39.6	20.5	0.00e+00	0	41	0	2122317824	46	4333
2026-01-08 04:38:44.76	324.10	50.11	-39.0	-40.0	20.2	0.00e+00	0	41	0	2145386496	47	4275
2026-01-08 04:38:47.62	322.47	50.57	-38.5	-39.5	20.6	0.00e+00	0	41	0	2165309440	47	4033
2026-01-08 04:38:50.77	320.62	51.06	-38.4	-39.4	20.8	0.00e+00	0	41	0	2188378112	46	4209
2026-01-08 04:38:53.64	318.89	51.48	-38.7	-39.7	20.5	0.00e+00	0	41	0	2209349632	46	4362
2026-01-08 04:38:56.78	316.93	51.91	-39.1	-40.1	20.1	0.00e+00	0	41	0	2232418304	47	4306
2026-01-08 04:38:59.65	315.10	52.27	-38.7	-39.6	20.5	0.00e+00	0	41	0	2252341248	47	4096
2026-01-08 04:39:02.90	312.96	52.65	-38.6	-39.6	20.5	0.00e+00	0	41	0	2276458496	46	4308
2026-01-08 04:39:05.76	311.04	52.95	-38.3	-39.2	20.8	0.00e+00	0	41	0	2296381440	46	4145
2026-01-08 04:39:09.28	308.63	53.28	-38.0	-38.9	21.2	0.00e+00	0	40	0	2321547264	46	3988
2026-01-08 04:39:12.00	306.72	53.49	-38.9	-39.8	20.3	0.00e+00	0	41	0	2341470208	47	4180
2026-01-08 04:39:15.30	304.38	53.71	-38.4	-39.3	20.8	0.00e+00	0	41	0	2365587456	47	3953
2026-01-08 04:39:18.02	302.42	53.86	-38.2	-39.1	21.0	0.00e+00	0	41	0	2384461824	46	4084
2026-01-08 04:39:21.27	300.06	53.99	-38.1	-39.0	21.0	0.00e+00	0	41	0	2408579072	46	4038
2026-01-08 04:39:24.41	297.77	54.06	-38.1	-39.1	21.0	0.00e+00	0	41	0	2431647744	46	4054
2026-01-08 04:39:27.28	295.66	54.09	-38.1	-39.0	21.1	0.00e+00	0	41	0	2451570688	46	4016
2026-01-08 04:39:30.43	293.35	54.08	-38.5	-39.4	20.7	0.00e+00	0	40	0	2474639360	46	4220
2026-01-08 04:39:33.30	291.24	54.03	-38.3	-39.2	20.9	0.00e+00	0	40	0	2495610880	46	4109
2026-01-08 04:39:36.54	288.88	53.92	-38.3	-39.2	20.9	0.00e+00	0	41	0	2518679552	46	4128
2026-01-08 04:39:39.40	286.81	53.79	-37.8	-38.7	21.3	0.00e+00	0	41	0	2539651072	46	3886
2026-01-08 04:39:42.56	284.55	53.60	-38.5	-39.5	20.7	0.00e+00	0	40	0	2562719744	46	4249
2026-01-08 04:39:45.42	282.53	53.39	-38.0	-38.9	21.2	0.00e+00	0	40	0	2582642688	46	3986
2026-01-08 04:39:48.57	280.35	53.12	-38.2	-39.1	21.0	0.00e+00	0	40	0	2605711360	46	4091
2026-01-08 04:39:51.44	278.39	52.84	-38.0	-38.9	21.1	0.00e+00	0	41	0	2626682880	46	4001
2026-01-08 04:39:54.65	276.25	52.48	-38.1	-39.1	21.0	0.00e+00	0	40	0	2649751552	46	4059
2026-01-08 04:39:57.52	274.39	52.14	-37.9	-38.8	21.3	0.00e+00	0	41	0	2669674496	46	3930
2026-01-08 04:40:00.67	272.39	51.72	-37.9	-38.8	21.2	0.00e+00	0	41	0	2692743168	45	4184
2026-01-08 04:40:03.79	270.47	51.28	-38.5	-39.5	20.7	0.00e+00	0	40	0	2715811840	46	4248
2026-01-08 04:40:06.80	268.67	50.83	-38.0	-38.9	21.2	0.00e+00	0	41	0	2736783360	46	3979
2026-01-08 04:40:09.80	266.93	50.35	-38.3	-39.2	20.9	0.00e+00	0	41	0	2758803456	46	4137
2026-01-08 04:40:12.76	265.26	49.86	-37.8	-38.7	21.3	0.00e+00	0	41	0	2779774976	46	3906
2026-01-08 04:40:15.99	263.51	49.30	-38.1	-39.0	21.0	0.00e+00	0	40	0	2803892224	46	4039
2026-01-08 04:40:18.86	262.01	48.79	-38.2	-39.1	21.0	0.00e+00	0	40	0	2823815168	46	4076
2026-01-08 04:40:22.01	260.42	48.21	-37.4	-38.3	21.7	0.00e+00	0	41	0	2846883840	45	3915
2026-01-08 04:40:24.87	259.02	47.67	-37.8	-38.7	21.3	0.00e+00	0	41	0	2867855360	45	4138
2026-01-08 04:40:28.03	257.54	47.06	-37.7	-38.7	21.3	0.00e+00	0	41	0	2889875456	45	4099
2026-01-08 04:40:30.89	256.24	46.50	-37.3	-38.2	21.8	0.00e+00	0	40	0	2910846976	45	3902
2026-01-08 04:40:34.04	254.87	45.88	-37.4	-38.2	21.7	0.00e+00	0	40	0	2933915648	45	3910
2026-01-08 04:40:36.91	253.67	45.30	-37.6	-38.6	21.4	0.00e+00	0	40	0	2954887168	45	4064
2026-01-08 04:40:40.14	252.37	44.64	-37.2	-38.1	21.7	0.00e+00	0	41	0	2977955840	44	4062
2026-01-08 04:40:43.12	251.21	44.03	-37.5	-38.4	21.6	0.00e+00	0	41	0	2998927360	44	4235
2026-01-08 04:40:46.51	249.95	43.34	-36.9	-37.8	22.1	0.00e+00	0	40	0	3024093184	44	3928
2026-01-08 04:40:49.23	248.98	42.78	-37.1	-38.0	21.9	0.00e+00	0	41	0	3042967552	44	4027
2026-01-08 04:40:52.52	247.85	42.10	-37.3	-38.2	21.7	0.00e+00	0	41	0	3067084800	44	4139
2026-01-08 04:40:55.24	246.95	41.54	-37.0	-37.8	22.1	0.00e+00	0	41	0	3087007744	44	3953
2026-01-08 04:40:58.59	245.88	40.84	-37.2	-38.1	21.8	0.00e+00	0	41	0	3111124992	44	4052
2026-01-08 04:41:01.37	245.03	40.27	-36.9	-37.8	22.0	0.00e+00	0	41	0	3131047936	44	3931
2026-01-08 04:41:04.80	244.02	39.57	-37.0	-37.8	22.0	0.00e+00	0	40	0	3156213760	44	3952
2026-01-08 04:41:07.52	243.25	39.02	-37.2	-38.1	21.8	0.00e+00	0	40	0	3175088128	44	4064
2026-01-08 04:41:10.82	242.35	38.35	-37.3	-38.2	21.7	0.00e+00	0	40	0	3199205376	44	4132
2026-01-08 04:41:13.54	241.64	37.81	-36.7	-37.5	22.3	0.00e+00	0	40	0	3219128320	44	3816
2026-01-08 04:41:16.83	240.81	37.15	-36.6	-37.4	22.2	0.00e+00	0	40	0	3243245568	43	3989
2026-01-08 04:41:19.56	240.14	36.61	-37.1	-38.0	21.7	0.00e+00	0	40	0	3262119936	43	4261
2026-01-08 04:41:22.85	239.37	35.97	-36.7	-37.6	22.1	0.00e+00	0	41	0	3286237184	43	4068
2026-01-08 04:41:25.58	238.75	35.44	-36.7	-37.6	22.1	0.00e+00	0	40	0	3306160128	43	4052
2026-01-08 04:41:28.87	238.03	34.81	-36.4	-37.3	22.3	0.00e+00	0	40	0	3329228800	43	3931
2026-01-08 04:41:31.59	237.46	34.29	-36.4	-37.3	22.3	0.00e+00	0	41	0	3349151744	43	3925
2026-01-08 04:41:34.89	236.79	33.68	-36.5	-37.4	22.2	0.00e+00	0	40	0	3373268992	43	3974
2026-01-08 04:41:37.61	236.25	33.17	-36.5	-37.3	22.0	0.00e+00	0	40	0	3393191936	43	3954
2026-01-08 04:41:41.26	235.56	32.50	-36.7	-37.5	22.0	0.00e+00	0	40	0	3419406336	43	4047
2026-01-08 04:41:44.02	235.06	32.01	-36.6	-37.5	22.1	0.00e+00	0	40	0	3439329280	43	4039
2026-01-08 04:41:47.69	234.41	31.35	-36.5	-37.4	22.1	0.00e+00	0	40	0	3465543680	43	3976
2026-01-08 04:41:50.51	233.93	30.86	-36.6	-37.4	22.1	0.00e+00	0	40	0	3485466624	43	3997
2026-01-08 04:41:53.67	233.41	30.31	-36.7	-37.6	22.0	0.00e+00	0	40	0	3508535296	43	4081
2026-01-08 04:41:56.53	232.95	29.82	-36.9	-37.8	21.8	0.00e+00	0	41	0	3529506816	43	4189
2026-01-08 04:41:59.68	232.46	29.29	-36.9	-37.8	21.8	0.00e+00	0	40	0	3551526912	43	4165
2026-01-08 04:42:02.63	232.02	28.80	-36.9	-37.8	21.8	0.00e+00	0	40	0	3573547008	43	4162
2026-01-08 04:42:06.03	231.53	28.24	-37.0	-37.9	21.7	0.00e+00	0	40	0	3597664256	43	4238
2026-01-08 04:42:08.75	231.15	27.80	-37.0	-37.9	21.7	0.00e+00	0	41	0	3617587200	43	4212
2026-01-08 04:42:12.05	230.70	27.28	-36.9	-37.8	21.7	0.00e+00	0	40	0	3641704448	43	4173
2026-01-08 04:42:14.77	230.34	26.85	-37.0	-37.9	21.7	0.00e+00	0	40	0	3660578816	43	4223
2026-01-08 04:42:18.17	229.91	26.32	-37.2	-38.1	21.5	0.00e+00	0	40	0	3685744640	43	4334
2026-01-08 04:42:20.89	229.57	25.91	-37.2	-38.2	21.5	0.00e+00	0	40	0	3705667584	43	4347
2026-01-08 04:42:24.19	229.17	25.41	-37.1	-38.0	21.6	0.00e+00	0	40	0	3728736256	43	4273
2026-01-08 04:42:26.97	228.85	25.00	-37.1	-38.0	21.6	0.00e+00	0	40	0	3748659200	43	4265
2026-01-08 04:42:30.54	228.44	24.48	-36.9	-37.8	21.8	0.00e+00	0	40	0	3774873600	43	4169
2026-01-08 04:42:33.47	228.12	24.06	-37.0	-37.9	21.7	0.00e+00	0	40	0	3795845120	43	4205
2026-01-08 04:42:36.76	227.76	23.59	-37.4	-38.3	21.5	0.00e+00	0	40	0	3819962368	44	4153
2026-01-08 04:42:39.49	227.48	23.21	-37.5	-38.4	21.3	0.00e+00	0	40	0	3839885312	44	4242
2026-01-08 04:42:42.78	227.15	22.75	-37.7	-38.6	21.2	0.00e+00	0	41	0	3862953984	44	4316
2026-01-08 04:42:45.68	226.86	22.36	-37.6	-38.5	21.3	0.00e+00	0	40	0	3883925504	44	4288
2026-01-08 04:42:48.75	226.57	21.95	-37.5	-38.4	21.4	0.00e+00	0	40	0	3905945600	44	4222
2026-01-08 04:42:51.61	226.30	21.57	-37.4	-38.3	21.5	0.00e+00	0	41	0	3926917120	44	4167
2026-01-08 04:42:54.90	226.00	21.14	-37.4	-38.3	21.4	0.00e+00	0	40	0	3951034368	44	4163
2026-01-08 04:42:57.63	225.76	20.79	-37.7	-38.6	21.2	0.00e+00	0	40	0	3969908736	44	4319
2026-01-08 04:43:01.45	225.43	20.30	-37.9	-38.9	21.0	0.00e+00	0	40	0	3998220288	45	4207
2026-01-08 04:43:04.23	225.20	19.96	-38.2	-39.1	20.7	0.00e+00	0	40	0	4018143232	45	4323
2026-01-08 04:43:07.97	224.89	19.50	-38.3	-39.3	20.6	0.00e+00	0	40	0	4045406208	46	4157
2026-01-08 04:43:10.77	224.67	19.16	-38.3	-39.3	20.5	0.00e+00	0	40	0	4065329152	46	4177
2026-01-08 04:43:14.26	224.40	18.74	-38.5	-39.4	20.5	0.00e+00	0	41	0	4090494976	46	4235
2026-01-08 04:43:16.99	224.19	18.42	-38.4	-39.3	20.5	0.00e+00	0	40	0	4110417920	46	4169
2026-01-08 04:43:20.28	223.95	18.03	-38.4	-39.4	20.5	0.00e+00	0	40	0	4133486592	46	4216
2026-01-08 04:43:23.00	223.75	17.72	-38.2	-39.2	20.6	0.00e+00	0	40	0	4153409536	46	4109
2026-01-08 04:43:26.30	223.52	17.35	-38.2	-39.1	20.7	0.00e+00	0	41	0	4177526784	46	4077
2026-01-08 04:43:29.02	223.33	17.04	-38.2	-39.2	20.7	0.00e+00	0	41	0	4196401152	46	4103
2026-01-08 04:43:32.32	223.11	16.68	-38.3	-39.2	20.6	0.00e+00	0	41	0	4220518400	46	4124
2026-01-08 04:43:35.04	222.93	16.38	-38.3	-39.3	20.6	0.00e+00	0	40	0	4240441344	46	4154
2026-01-08 04:43:38.34	222.72	16.02	-38.4	-39.4	20.4	0.00e+00	0	40	0	4264558592	46	4207
2026-01-08 04:43:41.22	222.54	15.71	-38.5	-39.5	20.3	0.00e+00	0	40	0	4284481536	46	4267
2026-01-08 04:43:44.36	222.35	15.38	-38.8	-39.8	20.1	0.00e+00	0	40	0	4307550208	47	4155
2026-01-08 04:43:47.23	222.18	15.08	-38.7	-39.7	20.1	0.00e+00	0	40	0	4328521728	47	4114
2026-01-08 04:43:50.47	221.98	14.75	-38.9	-39.9	20.0	0.00e+00	0	40	0	4351590400	47	4196
2026-01-08 04:43:53.34	221.82	14.46	-39.0	-40.0	19.9	0.00e+00	0	40	0	4372561920	47	4269
2026-01-08 04:43:56.49	221.64	14.14	-39.2	-40.2	19.7	0.00e+00	0	40	0	4395630592	47	4351
2026-01-08 04:43:59.35	221.49	13.86	-39.5	-40.5	19.6	0.00e+00	0	40	0	4415553536	48	4282
2026-01-08 04:44:02.50	221.32	13.55	-39.5	-40.5	19.6	0.00e+00	0	40	0	4438622208	48	4269
2026-01-08 04:44:05.37	221.16	13.27	-39.6	-40.6	19.5	0.00e+00	0	41	0	4459593728	48	4334
2026-01-08 04:44:08.54	221.00	12.97	-39.7	-40.8	19.4	0.00e+00	0	40	0	4482662400	48	4403
2026-01-08 04:44:11.41	220.85	12.69	-39.8	-40.8	19.3	0.00e+00	0	41	0	4502585344	49	4176
2026-01-08 04:44:14.56	220.70	12.40	-39.8	-40.9	19.3	0.00e+00	0	40	0	4525654016	49	4200
2026-01-08 04:44:17.43	220.56	12.13	-39.9	-41.0	19.2	0.00e+00	0	40	0	4546625536	49	4267
2026-01-08 04:44:20.71	220.40	11.83	-40.1	-41.2	18.9	0.00e+00	0	40	0	4569694208	49	4351
2026-01-08 04:44:23.57	220.27	11.57	-40.3	-41.4	18.8	0.00e+00	0	40	0	4590665728	49	4442
2026-01-08 04:44:26.82	220.12	11.28	-40.3	-41.4	18.7	0.00e+00	0	40	0	4613734400	50	4219
2026-01-08 04:44:29.75	219.99	11.02	-40.4	-41.5	18.6	0.00e+00	0	40	0	4635754496	50	4258
2026-01-08 04:44:33.05	219.84	10.73	-40.5	-41.7	18.4	0.00e+00	0	40	0	4658823168	50	4343
2026-01-08 04:44:35.76	219.73	10.49	-40.7	-42.0	18.2	0.00e+00	0	40	0	4678746112	50	4504
2026-01-08 04:44:39.06	219.59	10.21	-40.6	-41.9	18.2	0.00e+00	0	40	0	4702863360	50	4454
2026-01-08 04:44:42.17	219.46	9.94	-40.8	-41.9	18.1	0.00e+00	0	41	0	4724883456	51	4232
2026-01-08 04:44:45.50	219.32	9.66	-40.7	-41.8	18.2	0.00e+00	0	41	0	4749000704	51	4186
2026-01-08 04:44:48.22	219.21	9.43	-40.5	-41.8	18.3	0.00e+00	0	41	0	4768923648	51	4150
2026-01-08 04:44:51.55	219.08	9.15	-40.5	-41.8	18.2	0.00e+00	0	41	0	4793040896	51	4177
2026-01-08 04:44:54.28	218.98	8.93	-50.3	-60.9	3.8	8.42e-01	0	40	104	4808769536	70	12526
2026-01-08 04:44:57.59	218.85	8.66	-51.2	-62.1	3.8	8.46e-01	0	40	104	4808769536	71	13584
2026-01-08 04:45:00.31	218.75	8.44	-50.8	-62.1	3.8	8.47e-01	0	40	104	4808769536	72	12899
2026-01-08 04:45:03.71	218.62	8.17	-51.2	-62.2	3.8	8.47e-01	0	41	104	4808769536	72	13034
2026-01-08 04:45:06.50	218.52	7.95	-51.4	-62.2	3.8	8.46e-01	0	40	104	4808769536	72	13034
2026-01-08 04:45:09.86	218.41	7.69	-51.2	-62.1	3.8	8.46e-01	0	41	104	4808769536	72	12851
2026-01-08 04:45:12.59	218.31	7.48	-50.9	-62.1	3.8	8.47e-01	0	41	104	4808769536	72	12932
2026-01-08 04:45:15.89	218.20	7.22	-50.7	-62.0	3.8	8.47e-01	0	41	104	4808769536	72	12762
2026-01-08 04:45:18.61	218.11	7.01	-50.7	-62.0	3.8	8.47e-01	0	41	104	4808769536	72	12666
2026-01-08 04:45:21.91	218.00	6.76	-50.7	-62.0	3.8	8.47e-01	0	41	104	4808769536	72	12673
2026-01-08 04:45:24.64	217.91	6.56	-50.7	-61.9	3.8	8.46e-01	0	41	104	4808769536	72	12612
2026-01-08 04:45:27.94	217.81	6.31	-50.7	-62.0	3.8	8.47e-01	0	41	104	4808769536	72	12684
2026-01-08 04:45:30.67	217.72	6.11	-50.7	-62.0	3.8	8.47e-01	0	40	104	4808769536	72	12673
2026-01-08 04:45:33.97	217.62	5.87	-50.7	-61.9	3.8	8.47e-01	0	40	104	4808769536	72	12566
2026-01-08 04:45:36.69	217.54	5.67	-50.7	-62.0	3.8	8.46e-01	0	40	104	4808769536	72	12675
2026-01-08 04:45:39.99	217.44	5.44	-50.7	-61.9	3.8	8.47e-01	0	41	104	4808769536	72	12656
2026-01-08 04:45:42.72	217.36	5.24	-50.7	-61.9	3.8	8.47e-01	0	40	104	4808769536	72	12664
2026-01-08 04:45:46.02	217.26	5.01	-50.7	-62.0	3.8	8.47e-01	0	41	104	4808769536	72	12670

#Closed at: 2026-01-08 04:45:46
#Recorded file [4808 MB]: D:/Data/31040_260108_073308.dat