passes_logs/2025/01/23/Regia/Regia__20250123_004240_AQUA_rec.log

#Pass ID: 20250123_004240_AQUA
#Satellite: AQUA
#Configuration: AQUA
#Start time: 2025-01-23 00:42:45.452104

#LorettStation: 1.0.0 05.05.2024
#Station: Regia
#Location: 37.494653 lon 55.929028 lat
#TLE: 1 27424U 02022A   25022.48183939  .00002857  00000+0  59590-3 0  9993
#TLE: 2 27424  98.3595 339.2141 0001994 103.5617   6.1482 14.60721957208675

#Time	Az	El	Level	SNR
2025-01-23 00:42:47.590586	16.8	15.2	-71.1	0.0
2025-01-23 00:42:48.705561	16.9	15.4	-71.2	0.0
2025-01-23 00:42:49.820954	16.9	15.5	-71.1	0.0
2025-01-23 00:42:50.938043	16.9	15.6	-71.2	0.0
2025-01-23 00:42:52.052875	16.9	15.8	-71.0	0.0
2025-01-23 00:42:53.167737	16.9	15.9	-71.2	0.0
2025-01-23 00:42:54.282689	16.9	16.1	-71.2	0.0
2025-01-23 00:42:55.397356	16.9	16.2	-71.1	0.0
2025-01-23 00:42:56.513629	16.9	16.3	-71.1	0.0
2025-01-23 00:42:57.630171	16.9	16.5	-71.1	0.0
2025-01-23 00:42:58.745410	16.9	16.6	-71.1	0.0
2025-01-23 00:42:59.861291	17.0	16.7	-71.1	0.0
2025-01-23 00:43:00.977397	17.0	16.9	-71.2	0.0
2025-01-23 00:43:02.093174	17.0	17.0	-71.2	0.0
2025-01-23 00:43:03.211066	17.0	17.2	-71.5	0.0
2025-01-23 00:43:04.325968	17.0	17.3	-71.2	0.0
2025-01-23 00:43:05.440835	17.0	17.5	-71.3	0.0
2025-01-23 00:43:06.555978	17.0	17.6	-71.3	0.0
2025-01-23 00:43:07.671610	17.0	17.7	-71.2	0.0
2025-01-23 00:43:08.786377	17.0	17.9	-71.2	0.0
2025-01-23 00:43:09.902306	17.0	18.0	-71.2	0.0
2025-01-23 00:43:11.017634	17.1	18.2	-71.2	0.0
2025-01-23 00:43:12.133504	17.1	18.3	-71.2	0.0
2025-01-23 00:43:13.249584	17.1	18.5	-71.3	0.0
2025-01-23 00:43:14.364312	17.1	18.6	-71.3	0.0
2025-01-23 00:43:15.480576	17.1	18.8	-71.2	0.0
2025-01-23 00:43:16.595784	17.1	19.0	-71.3	0.0
2025-01-23 00:43:17.710650	17.1	19.1	-71.3	0.0
2025-01-23 00:43:18.825895	17.1	19.3	-71.3	0.0
2025-01-23 00:43:19.940811	17.1	19.4	-71.2	0.0
2025-01-23 00:43:21.056482	17.1	19.6	-71.2	0.0
2025-01-23 00:43:22.171924	17.2	19.7	-70.8	0.0
2025-01-23 00:43:23.290731	17.2	19.9	-71.4	0.0
2025-01-23 00:43:24.406602	17.2	20.1	-71.3	0.0
2025-01-23 00:43:25.523354	17.2	20.2	-71.2	0.0
2025-01-23 00:43:26.638214	17.2	20.4	-71.2	0.0
2025-01-23 00:43:27.753393	17.2	20.6	-71.4	0.0
2025-01-23 00:43:28.869145	17.2	20.7	-71.2	0.0
2025-01-23 00:43:29.985015	17.2	20.9	-71.2	0.0
2025-01-23 00:43:31.099467	17.2	21.1	-71.2	0.0
2025-01-23 00:43:32.214330	17.3	21.2	-71.3	0.0
2025-01-23 00:43:33.328337	17.3	21.4	-71.2	0.0
2025-01-23 00:43:34.443743	17.3	21.6	-71.2	0.0
2025-01-23 00:43:35.558631	17.3	21.8	-71.3	0.0
2025-01-23 00:43:36.673399	17.3	21.9	-71.2	0.0
2025-01-23 00:43:37.788463	17.3	22.1	-71.2	0.0
2025-01-23 00:43:38.904632	17.3	22.3	-71.1	0.0
2025-01-23 00:43:40.026518	17.3	22.5	-71.2	0.0
2025-01-23 00:43:41.141848	17.4	22.6	-71.3	0.0
2025-01-23 00:43:42.256715	17.4	22.8	-71.3	0.0
2025-01-23 00:43:43.373431	17.4	23.0	-71.2	0.0
2025-01-23 00:43:44.488294	17.4	23.2	-71.4	0.0
2025-01-23 00:43:45.603481	17.4	23.4	-71.2	0.0
2025-01-23 00:43:46.718522	17.4	23.6	-71.3	0.0
2025-01-23 00:43:47.833383	17.4	23.8	-71.3	0.0
2025-01-23 00:43:48.950257	17.4	24.0	-71.4	0.0
2025-01-23 00:43:50.065752	17.5	24.1	-71.2	0.0
2025-01-23 00:43:51.181622	17.5	24.3	-71.0	0.0
2025-01-23 00:43:52.297628	17.5	24.5	-71.0	0.0
2025-01-23 00:43:53.412489	17.5	24.7	-71.4	0.0
2025-01-23 00:43:54.527356	17.5	24.9	-71.3	0.0
2025-01-23 00:43:55.643181	17.5	25.1	-71.4	0.0
2025-01-23 00:43:56.759048	17.5	25.3	-71.4	0.0
2025-01-23 00:43:57.875203	17.6	25.5	-71.1	0.0
2025-01-23 00:43:58.989813	17.6	25.8	-71.4	0.0
2025-01-23 00:44:00.106605	17.6	26.0	-71.2	0.0
2025-01-23 00:44:01.221472	17.6	26.2	-71.2	0.0
2025-01-23 00:44:02.337614	17.6	26.4	-71.3	0.0
2025-01-23 00:44:03.453477	17.6	26.6	-71.3	0.0
2025-01-23 00:44:04.568342	17.6	26.8	-71.2	0.0
2025-01-23 00:44:05.683079	17.7	27.0	-71.1	0.0
2025-01-23 00:44:06.798089	17.7	27.2	-71.3	0.0
2025-01-23 00:44:07.914395	17.7	27.5	-71.3	0.0
2025-01-23 00:44:09.029461	17.7	27.7	-71.3	0.0
2025-01-23 00:44:10.144374	17.7	27.9	-71.2	0.0
2025-01-23 00:44:11.260658	17.7	28.1	-71.2	0.0
2025-01-23 00:44:12.376251	17.7	28.4	-71.4	0.0
2025-01-23 00:44:13.491113	17.8	28.6	-71.3	0.0
2025-01-23 00:44:14.606995	17.8	28.8	-71.1	0.0
2025-01-23 00:44:15.723122	17.8	29.1	-71.4	0.0
2025-01-23 00:44:16.837986	17.8	29.3	-71.4	0.0
2025-01-23 00:44:17.953966	17.8	29.5	-71.3	0.0
2025-01-23 00:44:19.068834	17.8	29.8	-71.3	0.0
2025-01-23 00:44:20.183695	17.9	30.0	-71.2	0.0
2025-01-23 00:44:21.298138	17.9	30.3	-71.2	0.0
2025-01-23 00:44:22.415108	17.9	30.5	-71.1	0.0
2025-01-23 00:44:23.529987	17.9	30.8	-71.2	0.0
2025-01-23 00:44:24.650126	17.9	31.0	-71.2	0.0
2025-01-23 00:44:25.764993	18.0	31.3	-71.5	0.0
2025-01-23 00:44:26.880829	18.0	31.5	-71.3	0.0
2025-01-23 00:44:27.996116	18.0	31.8	-71.3	0.0
2025-01-23 00:44:29.112154	18.0	32.1	-71.2	0.0
2025-01-23 00:44:30.227969	18.0	32.3	-71.1	0.0
2025-01-23 00:44:31.343839	18.0	32.6	-71.2	0.0
2025-01-23 00:44:32.459808	18.1	32.9	-71.3	0.0
2025-01-23 00:44:33.574908	18.1	33.1	-71.2	0.0
2025-01-23 00:44:34.689651	18.1	33.4	-71.4	0.0
2025-01-23 00:44:35.805645	18.1	33.7	-71.2	0.0
2025-01-23 00:44:36.927705	18.1	34.0	-71.4	0.0
2025-01-23 00:44:38.044579	18.2	34.3	-71.3	0.0
2025-01-23 00:44:39.160408	18.2	34.5	-71.3	0.0
2025-01-23 00:44:40.275102	18.2	34.8	-71.3	0.0
2025-01-23 00:44:41.390942	18.2	35.1	-71.2	0.0
2025-01-23 00:44:42.506066	18.3	35.4	-71.3	0.0
2025-01-23 00:44:43.620931	18.3	35.7	-71.1	0.0
2025-01-23 00:44:44.736733	18.3	36.0	-71.5	0.0
2025-01-23 00:44:45.853032	18.3	36.3	-71.2	0.0
2025-01-23 00:44:46.969016	18.4	36.6	-71.3	0.0
2025-01-23 00:44:48.084251	18.4	36.9	-71.2	0.0
2025-01-23 00:44:49.199065	18.4	37.3	-71.3	0.0
2025-01-23 00:44:50.314935	18.4	37.6	-71.3	0.0
2025-01-23 00:44:51.429918	18.5	37.9	-71.2	0.0
2025-01-23 00:44:52.545509	18.5	38.2	-71.2	0.0
2025-01-23 00:44:53.660526	18.5	38.5	-71.3	0.0
2025-01-23 00:44:54.775314	18.5	38.9	-71.2	0.0
2025-01-23 00:44:55.891185	18.6	39.2	-71.3	0.0
2025-01-23 00:44:57.006762	18.6	39.5	-71.4	0.0
2025-01-23 00:44:58.122157	18.6	39.9	-71.3	0.0
2025-01-23 00:44:59.237463	18.6	40.2	-71.3	0.0
2025-01-23 00:45:00.353449	18.7	40.6	-71.3	0.0
2025-01-23 00:45:01.468179	18.7	40.9	-71.3	0.0
2025-01-23 00:45:02.583046	18.7	41.3	-71.4	0.0
2025-01-23 00:45:03.701420	18.8	41.6	-71.5	0.0
2025-01-23 00:45:04.817393	18.8	42.0	-71.3	0.0
2025-01-23 00:45:05.933577	18.8	42.4	-71.2	0.0
2025-01-23 00:45:07.048341	18.9	42.7	-71.3	0.0
2025-01-23 00:45:08.164213	18.9	43.1	-71.3	0.0
2025-01-23 00:45:09.279541	18.9	43.5	-71.3	0.0
2025-01-23 00:45:10.394406	19.0	43.9	-71.2	0.0
2025-01-23 00:45:11.508939	19.0	44.2	-71.2	0.0
2025-01-23 00:45:12.624117	19.0	44.6	-71.2	0.0
2025-01-23 00:45:13.738979	19.1	45.0	-71.5	0.0
2025-01-23 00:45:14.853844	19.1	45.4	-71.4	0.0
2025-01-23 00:45:15.969519	19.2	45.8	-71.3	0.0
2025-01-23 00:45:17.085382	19.2	46.2	-71.4	0.0
2025-01-23 00:45:18.201245	19.2	46.6	-71.4	0.0
2025-01-23 00:45:19.317107	19.3	47.1	-71.3	0.0
2025-01-23 00:45:20.431974	19.3	47.5	-71.2	0.0
2025-01-23 00:45:21.546758	19.4	47.9	-71.4	0.0
2025-01-23 00:45:22.661611	19.4	48.3	-71.3	0.0
2025-01-23 00:45:23.777476	19.5	48.7	-71.2	0.0
2025-01-23 00:45:24.893339	19.5	49.2	-71.3	0.0
2025-01-23 00:45:26.008200	19.6	49.6	-71.2	0.0
2025-01-23 00:45:27.124062	19.6	50.1	-71.2	0.0
2025-01-23 00:45:28.238921	19.7	50.5	-71.2	0.0
2025-01-23 00:45:29.353778	19.7	51.0	-71.4	0.0
2025-01-23 00:45:30.468638	19.8	51.4	-71.3	0.0
2025-01-23 00:45:31.583240	19.8	51.9	-71.3	0.0
2025-01-23 00:45:32.698107	19.9	52.4	-71.3	0.0
2025-01-23 00:45:33.813250	19.9	52.8	-71.2	0.0
2025-01-23 00:45:34.929235	20.0	53.3	-71.4	0.0
2025-01-23 00:45:36.043975	20.1	53.8	-71.3	0.0
2025-01-23 00:45:37.158837	20.1	54.3	-71.3	0.0
2025-01-23 00:45:38.273642	20.2	54.8	-71.4	0.0
2025-01-23 00:45:39.388509	20.3	55.3	-71.2	0.0
2025-01-23 00:45:40.503774	20.3	55.8	-71.3	0.0
2025-01-23 00:45:41.619667	20.4	56.3	-71.2	0.0
2025-01-23 00:45:42.734513	20.5	56.8	-71.6	0.0
2025-01-23 00:45:43.849572	20.6	57.3	-71.2	0.0
2025-01-23 00:45:44.964437	20.7	57.8	-71.3	0.0
2025-01-23 00:45:46.082206	20.7	58.3	-71.4	0.0
2025-01-23 00:45:47.197479	20.8	58.9	-71.3	0.0
2025-01-23 00:45:48.312341	20.9	59.4	-71.4	0.0
2025-01-23 00:45:49.427200	21.0	60.0	-71.4	0.0
2025-01-23 00:45:50.542976	21.1	60.5	-71.6	0.0
2025-01-23 00:45:51.657836	21.2	61.0	-71.3	0.0
2025-01-23 00:45:52.771887	21.3	61.6	-71.3	0.0
2025-01-23 00:45:53.887749	21.5	62.2	-71.2	0.0
2025-01-23 00:45:55.002608	21.6	62.7	-71.3	0.0
2025-01-23 00:45:56.117344	21.7	63.3	-71.3	0.0
2025-01-23 00:45:57.234210	21.8	63.9	-71.4	0.0
2025-01-23 00:45:58.356094	22.0	64.4	-71.4	0.0
2025-01-23 00:45:59.470947	22.1	65.0	-71.1	0.0
2025-01-23 00:46:00.585812	22.3	65.6	-71.3	0.0
2025-01-23 00:46:01.702574	22.4	66.2	-71.3	0.0
2025-01-23 00:46:02.817436	22.6	66.8	-71.4	0.0
2025-01-23 00:46:03.933306	22.8	67.4	-71.3	0.0
2025-01-23 00:46:05.048166	23.0	68.0	-71.3	0.0
2025-01-23 00:46:06.164028	23.2	68.6	-71.4	0.0
2025-01-23 00:46:07.279890	23.4	69.2	-71.3	0.0
2025-01-23 00:46:08.395752	23.6	69.8	-71.2	0.0
2025-01-23 00:46:09.510619	23.9	70.5	-71.1	0.0
2025-01-23 00:46:10.625551	24.1	71.1	-71.3	0.0
2025-01-23 00:46:11.740771	24.4	71.7	-71.2	0.0
2025-01-23 00:46:12.855630	24.7	72.3	-71.2	0.0
2025-01-23 00:46:13.970492	25.1	73.0	-71.1	0.0
2025-01-23 00:46:15.086354	25.4	73.6	-71.3	0.0
2025-01-23 00:46:16.201221	25.8	74.3	-71.3	0.0
2025-01-23 00:46:17.317384	26.2	74.9	-71.3	0.0
2025-01-23 00:46:18.432258	26.7	75.5	-71.3	0.0
2025-01-23 00:46:19.548120	27.1	76.2	-71.2	0.0
2025-01-23 00:46:20.662882	27.7	76.8	-71.2	0.0
2025-01-23 00:46:21.778168	28.3	77.5	-71.4	0.0
2025-01-23 00:46:22.894038	29.0	78.2	-71.4	0.0
2025-01-23 00:46:24.008932	29.7	78.8	-71.4	0.0
2025-01-23 00:46:25.125256	30.6	79.5	-71.4	0.0
2025-01-23 00:46:26.240133	31.5	80.1	-71.5	0.0
2025-01-23 00:46:27.354983	32.6	80.8	-71.1	0.0
2025-01-23 00:46:28.469850	33.9	81.4	-71.3	0.0
2025-01-23 00:46:29.584712	35.4	82.1	-71.3	0.0
2025-01-23 00:46:30.700627	37.1	82.7	-71.3	0.0
2025-01-23 00:46:31.816087	39.2	83.3	-71.4	0.0
2025-01-23 00:46:32.931954	41.8	84.0	-71.4	0.0
2025-01-23 00:46:34.046822	44.9	84.6	-71.4	0.0
2025-01-23 00:46:35.162000	48.8	85.2	-71.2	0.0
2025-01-23 00:46:36.277861	53.8	85.8	-71.2	0.0
2025-01-23 00:46:37.392720	60.2	86.3	-70.7	0.0
2025-01-23 00:46:38.507579	68.7	86.8	-70.1	0.0
2025-01-23 00:46:39.622438	79.6	87.1	-69.3	0.1
2025-01-23 00:46:40.737306	93.2	87.4	-70.0	0.0
2025-01-23 00:46:41.851897	108.5	87.4	-70.6	0.0
2025-01-23 00:46:42.968762	123.5	87.3	-68.3	3.8
2025-01-23 00:46:44.084140	136.5	87.0	-69.8	0.0
2025-01-23 00:46:45.199241	146.9	86.6	-70.8	0.0
2025-01-23 00:46:46.314108	154.8	86.2	-69.2	0.0
2025-01-23 00:46:47.429125	160.9	85.6	-70.1	0.0
2025-01-23 00:46:48.543739	165.6	85.1	-70.9	0.0
2025-01-23 00:46:49.658409	169.3	84.5	-71.4	0.0
2025-01-23 00:46:50.773618	172.3	83.8	-71.2	0.0
2025-01-23 00:46:51.890479	174.7	83.2	-71.0	0.0
2025-01-23 00:46:53.005346	176.7	82.6	-71.3	0.0
2025-01-23 00:46:54.121212	178.4	81.9	-71.4	0.0
2025-01-23 00:46:55.237074	179.8	81.3	-71.3	0.0
2025-01-23 00:46:56.352161	181.0	80.6	-71.4	0.0
2025-01-23 00:46:57.467012	182.1	80.0	-71.4	0.0
2025-01-23 00:46:58.581879	183.0	79.3	-71.4	0.0
2025-01-23 00:46:59.697741	183.9	78.6	-71.3	0.0
2025-01-23 00:47:00.812600	184.6	78.0	-71.4	0.0
2025-01-23 00:47:01.932594	185.3	77.3	-71.4	0.0
2025-01-23 00:47:03.047453	185.9	76.7	-71.4	0.0
2025-01-23 00:47:04.164319	186.4	76.0	-71.2	0.0
2025-01-23 00:47:05.279187	186.9	75.4	-71.4	0.0
2025-01-23 00:47:06.394045	187.3	74.7	-71.4	0.0
2025-01-23 00:47:07.508905	187.7	74.1	-71.4	0.0
2025-01-23 00:47:08.624252	188.1	73.5	-71.2	0.0
2025-01-23 00:47:09.739424	188.5	72.8	-71.1	0.0
2025-01-23 00:47:10.856118	188.8	72.2	-71.5	0.0
2025-01-23 00:47:11.971090	189.1	71.6	-71.4	0.0
2025-01-23 00:47:13.085957	189.3	70.9	-71.5	0.0
2025-01-23 00:47:14.201854	189.6	70.3	-71.5	0.0
2025-01-23 00:47:15.316978	189.8	69.7	-71.4	0.0
2025-01-23 00:47:16.431837	190.1	69.1	-71.4	0.0
2025-01-23 00:47:17.548703	190.3	68.4	-71.6	0.0
2025-01-23 00:47:18.663565	190.5	67.8	-71.4	0.0
2025-01-23 00:47:19.779427	190.7	67.2	-71.4	0.0
2025-01-23 00:47:20.894112	190.9	66.6	-71.2	0.0
2025-01-23 00:47:22.009136	191.0	66.0	-71.4	0.0
2025-01-23 00:47:23.125007	191.2	65.4	-71.4	0.0
2025-01-23 00:47:24.240656	191.3	64.9	-71.4	0.0
2025-01-23 00:47:25.355848	191.5	64.3	-71.2	0.0
2025-01-23 00:47:26.470788	191.6	63.7	-71.3	0.0
2025-01-23 00:47:27.586041	191.7	63.1	-71.5	0.0
2025-01-23 00:47:28.701278	191.9	62.6	-71.4	0.0
2025-01-23 00:47:29.817149	192.0	62.0	-71.5	0.0
2025-01-23 00:47:30.934370	192.1	61.4	-71.4	0.0
2025-01-23 00:47:32.049029	192.2	60.9	-71.4	0.0
2025-01-23 00:47:33.164718	192.3	60.3	-71.2	0.0
2025-01-23 00:47:34.280921	192.4	59.8	-71.3	0.0
2025-01-23 00:47:35.395785	192.5	59.2	-71.4	0.0
2025-01-23 00:47:36.510644	192.6	58.7	-71.4	0.0
2025-01-23 00:47:37.625339	192.7	58.2	-71.4	0.0
2025-01-23 00:47:38.740195	192.8	57.6	-71.3	0.0
2025-01-23 00:47:39.855054	192.9	57.1	-71.4	0.0
2025-01-23 00:47:40.970549	192.9	56.6	-71.4	0.0
2025-01-23 00:47:42.085411	193.0	56.1	-71.2	0.0
2025-01-23 00:47:43.200278	193.1	55.6	-71.3	0.0
2025-01-23 00:47:44.316635	193.2	55.1	-71.4	0.0
2025-01-23 00:47:45.431781	193.2	54.6	-71.4	0.0
2025-01-23 00:47:46.546481	193.3	54.1	-71.4	0.0
2025-01-23 00:47:47.662762	193.4	53.6	-71.2	0.0
2025-01-23 00:47:48.777621	193.4	53.1	-71.4	0.0
2025-01-23 00:47:49.893486	193.5	52.7	-71.4	0.0
2025-01-23 00:47:51.009138	193.6	52.2	-71.5	0.0
2025-01-23 00:47:52.124465	193.6	51.7	-71.3	0.0
2025-01-23 00:47:53.239323	193.7	51.2	-71.2	0.0
2025-01-23 00:47:54.356198	193.7	50.8	-71.3	0.0
2025-01-23 00:47:55.471060	193.8	50.3	-71.4	0.0
2025-01-23 00:47:56.586883	193.8	49.9	-71.4	0.0
2025-01-23 00:47:57.701742	193.9	49.4	-71.3	0.0
2025-01-23 00:47:58.816603	193.9	49.0	-71.3	0.0
2025-01-23 00:47:59.932915	194.0	48.6	-71.4	0.0
2025-01-23 00:48:01.047141	194.0	48.1	-71.5	0.0
2025-01-23 00:48:02.162277	194.1	47.7	-71.2	0.0
2025-01-23 00:48:03.278501	194.1	47.3	-71.2	0.0
2025-01-23 00:48:04.394361	194.1	46.9	-71.2	0.0
2025-01-23 00:48:05.509220	194.2	46.4	-71.3	0.0
2025-01-23 00:48:06.624085	194.2	46.0	-71.4	0.0
2025-01-23 00:48:07.738944	194.3	45.6	-71.3	0.0
2025-01-23 00:48:08.854807	194.3	45.2	-71.4	0.0
2025-01-23 00:48:09.969535	194.3	44.8	-71.2	0.0
2025-01-23 00:48:11.085603	194.4	44.4	-71.2	0.0
2025-01-23 00:48:12.200462	194.4	44.1	-71.3	0.0
2025-01-23 00:48:13.315329	194.5	43.7	-71.4	0.0
2025-01-23 00:48:14.431191	194.5	43.3	-71.4	0.0
2025-01-23 00:48:15.546050	194.5	42.9	-71.2	0.0
2025-01-23 00:48:16.661842	194.6	42.5	-71.3	0.0
2025-01-23 00:48:17.777697	194.6	42.2	-71.2	0.0
2025-01-23 00:48:18.892564	194.6	41.8	-71.3	0.0
2025-01-23 00:48:20.009430	194.7	41.4	-71.5	0.0
2025-01-23 00:48:21.124072	194.7	41.1	-71.4	0.0
2025-01-23 00:48:22.239935	194.7	40.7	-71.4	0.0
2025-01-23 00:48:23.354791	194.7	40.4	-71.4	0.0
2025-01-23 00:48:24.469659	194.8	40.0	-71.4	0.0
2025-01-23 00:48:25.584519	194.8	39.7	-71.4	0.0
2025-01-23 00:48:26.699629	194.8	39.3	-71.4	0.0
2025-01-23 00:48:27.815347	194.9	39.0	-71.3	0.0
2025-01-23 00:48:28.932214	194.9	38.7	-71.3	0.0
2025-01-23 00:48:30.047071	194.9	38.3	-71.3	0.0
2025-01-23 00:48:31.161938	194.9	38.0	-71.2	0.0
2025-01-23 00:48:32.277914	195.0	37.7	-71.2	0.0
2025-01-23 00:48:33.393773	195.0	37.4	-71.2	0.0
2025-01-23 00:48:34.508455	195.0	37.1	-71.0	0.0
2025-01-23 00:48:35.624654	195.0	36.7	-71.3	0.0
2025-01-23 00:48:36.740525	195.1	36.4	-71.4	0.0
2025-01-23 00:48:37.855384	195.1	36.1	-71.1	0.0
2025-01-23 00:48:38.970240	195.1	35.8	-71.1	0.0
2025-01-23 00:48:40.085969	195.1	35.5	-71.2	0.0
2025-01-23 00:48:41.201834	195.2	35.2	-71.4	0.0
2025-01-23 00:48:42.316114	195.2	34.9	-71.3	0.0
2025-01-23 00:48:43.430980	195.2	34.6	-71.3	0.0
2025-01-23 00:48:44.545842	195.2	34.3	-71.3	0.0
2025-01-23 00:48:45.660651	195.2	34.1	-71.3	0.0
2025-01-23 00:48:46.775591	195.3	33.8	-71.4	0.0
2025-01-23 00:48:47.891445	195.3	33.5	-71.3	0.0
2025-01-23 00:48:49.006312	195.3	33.2	-71.3	0.0
2025-01-23 00:48:50.121171	195.3	32.9	-71.5	0.0
2025-01-23 00:48:51.238004	195.3	32.7	-71.3	0.0
2025-01-23 00:48:52.354283	195.4	32.4	-71.4	0.0
2025-01-23 00:48:53.468642	195.4	32.1	-71.5	0.0
2025-01-23 00:48:54.583502	195.4	31.9	-71.3	0.0
2025-01-23 00:48:55.698369	195.4	31.6	-71.2	0.0
2025-01-23 00:48:56.813231	195.4	31.3	-71.3	0.0
2025-01-23 00:48:57.928591	195.4	31.1	-71.3	0.0
2025-01-23 00:48:59.044453	195.5	30.8	-71.3	0.0
2025-01-23 00:49:00.159327	195.5	30.6	-71.2	0.0
2025-01-23 00:49:01.275197	195.5	30.3	-71.3	0.0
2025-01-23 00:49:02.390394	195.5	30.1	-71.3	0.0
2025-01-23 00:49:03.512304	195.5	29.8	-71.1	0.0
2025-01-23 00:49:04.627489	195.6	29.6	-71.1	0.0
2025-01-23 00:49:05.742348	195.6	29.3	-71.4	0.0
2025-01-23 00:49:06.857206	195.6	29.1	-71.2	0.0
2025-01-23 00:49:07.973069	195.6	28.9	-71.5	0.0
2025-01-23 00:49:09.088435	195.6	28.6	-71.4	0.0
2025-01-23 00:49:10.202791	195.6	28.4	-71.4	0.0
2025-01-23 00:49:11.319271	195.6	28.2	-71.4	0.0
2025-01-23 00:49:12.434128	195.7	27.9	-71.4	0.0
2025-01-23 00:49:13.548995	195.7	27.7	-71.1	0.0
2025-01-23 00:49:14.664191	195.7	27.5	-71.4	0.0
2025-01-23 00:49:15.779050	195.7	27.3	-71.4	0.0
2025-01-23 00:49:16.894916	195.7	27.0	-71.4	0.0
2025-01-23 00:49:18.009961	195.7	26.8	-71.4	0.0
2025-01-23 00:49:19.128834	195.8	26.6	-71.3	0.0
2025-01-23 00:49:20.243701	195.8	26.4	-71.5	0.0
2025-01-23 00:49:21.359488	195.8	26.2	-71.6	0.0
2025-01-23 00:49:22.474727	195.8	26.0	-71.4	0.0
2025-01-23 00:49:23.589585	195.8	25.8	-71.4	0.0
2025-01-23 00:49:24.704444	195.8	25.5	-71.4	0.0
2025-01-23 00:49:25.819312	195.8	25.3	-71.4	0.0
2025-01-23 00:49:26.936413	195.8	25.1	-71.5	0.0
2025-01-23 00:49:28.051272	195.9	24.9	-71.4	0.0
2025-01-23 00:49:29.168141	195.9	24.7	-71.6	0.0
2025-01-23 00:49:30.283000	195.9	24.5	-71.3	0.0
2025-01-23 00:49:31.398826	195.9	24.3	-71.2	0.0
2025-01-23 00:49:32.513682	195.9	24.1	-71.5	0.0
2025-01-23 00:49:33.628549	195.9	23.9	-71.2	0.0
2025-01-23 00:49:34.743409	195.9	23.7	-71.3	0.0
2025-01-23 00:49:35.864358	196.0	23.6	-71.4	0.0
2025-01-23 00:49:36.981542	196.0	23.4	-71.4	0.0
2025-01-23 00:49:38.096602	196.0	23.2	-71.3	0.0
2025-01-23 00:49:39.211582	196.0	23.0	-71.5	0.0
2025-01-23 00:49:40.326355	196.0	22.8	-71.5	0.0
2025-01-23 00:49:41.442216	196.0	22.6	-71.3	0.0
2025-01-23 00:49:42.557081	196.0	22.4	-71.4	0.0
2025-01-23 00:49:43.671940	196.0	22.3	-71.2	0.0
2025-01-23 00:49:44.786807	196.0	22.1	-71.3	0.0
2025-01-23 00:49:45.902682	196.1	21.9	-71.2	0.0
2025-01-23 00:49:47.017575	196.1	21.7	-71.5	0.0
2025-01-23 00:49:48.133437	196.1	21.5	-71.4	0.0
2025-01-23 00:49:49.248704	196.1	21.4	-71.6	0.0
2025-01-23 00:49:50.363569	196.1	21.2	-71.5	0.0
2025-01-23 00:49:51.478734	196.1	21.0	-71.3	0.0
2025-01-23 00:49:52.593865	196.1	20.9	-71.4	0.0
2025-01-23 00:49:53.708724	196.1	20.7	-71.6	0.0
2025-01-23 00:49:54.823587	196.1	20.5	-71.4	0.0
2025-01-23 00:49:55.938397	196.2	20.3	-71.4	0.0
2025-01-23 00:49:57.055272	196.2	20.2	-71.4	0.0
2025-01-23 00:49:58.170826	196.2	20.0	-71.3	0.0
2025-01-23 00:49:59.286583	196.2	19.9	-71.6	0.0
2025-01-23 00:50:00.401756	196.2	19.7	-71.5	0.0
2025-01-23 00:50:01.516610	196.2	19.5	-71.4	0.0
2025-01-23 00:50:02.632472	196.2	19.4	-71.4	0.0
2025-01-23 00:50:03.747337	196.2	19.2	-71.4	0.0
2025-01-23 00:50:04.862194	196.2	19.1	-71.3	0.0
2025-01-23 00:50:05.979996	196.2	18.9	-71.2	0.0
2025-01-23 00:50:07.094509	196.3	18.7	-71.5	0.0
2025-01-23 00:50:08.210492	196.3	18.6	-71.3	0.0
2025-01-23 00:50:09.325359	196.3	18.4	-71.4	0.0
2025-01-23 00:50:10.440494	196.3	18.3	-71.3	0.0
2025-01-23 00:50:11.556357	196.3	18.1	-71.5	0.0
2025-01-23 00:50:12.671219	196.3	18.0	-71.4	0.0
2025-01-23 00:50:13.786045	196.3	17.8	-71.3	0.0
2025-01-23 00:50:14.902917	196.3	17.7	-71.3	0.0
2025-01-23 00:50:16.017773	196.3	17.5	-71.4	0.0
2025-01-23 00:50:17.132632	196.3	17.4	-71.3	0.0
2025-01-23 00:50:18.249504	196.4	17.2	-71.3	0.0
2025-01-23 00:50:19.364364	196.4	17.1	-71.3	0.0
2025-01-23 00:50:20.479113	196.4	17.0	-71.2	0.0
2025-01-23 00:50:21.593981	196.4	16.8	-71.4	0.0
2025-01-23 00:50:22.709208	196.4	16.7	-71.4	0.0
2025-01-23 00:50:23.824067	196.4	16.5	-71.4	0.0
2025-01-23 00:50:24.939928	196.4	16.4	-71.5	0.0
2025-01-23 00:50:26.054788	196.4	16.2	-71.5	0.0
2025-01-23 00:50:27.170658	196.4	16.1	-71.4	0.0
2025-01-23 00:50:28.285511	196.4	16.0	-71.4	0.0
2025-01-23 00:50:29.401374	196.4	15.8	-71.4	0.0
2025-01-23 00:50:30.516544	196.5	15.7	-71.3	0.0
2025-01-23 00:50:31.631403	196.5	15.6	-71.4	0.0
2025-01-23 00:50:32.746554	196.5	15.4	-71.2	0.0
2025-01-23 00:50:33.861422	196.5	15.3	-71.3	0.0
2025-01-23 00:50:34.976281	196.5	15.2	-71.5	0.0
2025-01-23 00:50:36.092143	196.5	15.0	-71.4	0.0
#Closed at: 2025-01-23 00:42:40.453373