passes_logs/2026/01/22/XPeterburg/XPeterburg__20260122_020223_AQUA_rec.log

#Pass ID: 20260122_020223_AQUA
#Satellite: AQUA
#Configuration: AQUA
#Start time: 2026-01-22 02:02:16

#Version: 1.5.20200625
#Station: XPeterburg
#Location: 30.318091 lon 59.932769 lat
#TLE: 1 27424U 02022A   26020.90316333  .00002787  00000+0  56766-3 0  9999
#TLE: 2 27424  98.4095 347.4297 0002000  71.6339 309.8236 14.61840001261750

#Time	Az	El	Level	Level2	SNR	BER	Gain	Gain2
2026-01-22 02:02:16.31	27.97	67.11	-35.2	-44.5	3.3	7670593	88	1741
2026-01-22 02:02:16.71	28.08	67.33	-35.3	-46.1	3.5	7568511	87	2090
2026-01-22 02:02:17.12	28.19	67.55	-35.3	-45.7	3.4	7607727	87	1977
2026-01-22 02:02:17.52	28.30	67.76	-35.3	-46.3	3.5	7550048	87	2136
2026-01-22 02:02:17.92	28.42	67.98	-35.3	-45.9	3.4	7623291	87	2038
2026-01-22 02:02:18.32	28.53	68.19	-35.3	-46.4	3.5	7567138	87	2141
2026-01-22 02:02:18.72	28.65	68.41	-35.2	-45.8	3.4	7625732	87	2008
2026-01-22 02:02:19.13	28.78	68.63	-35.2	-45.6	3.5	7581787	87	1994
2026-01-22 02:02:19.53	28.90	68.85	-35.1	-44.2	3.5	7591857	87	1709
2026-01-22 02:02:19.93	29.03	69.07	-34.9	-43.0	3.6	7545013	87	1524
2026-01-22 02:02:20.33	29.16	69.29	-34.6	-41.0	4.5	7281799	87	1249
2026-01-22 02:02:20.73	29.29	69.51	-34.4	-40.4	3.8	7464904	87	1192
2026-01-22 02:02:21.13	29.43	69.72	-33.9	-38.7	5.8	6914825	86	1041
2026-01-22 02:02:21.54	29.57	69.95	-33.4	-36.9	7.3	6642150	85	889
2026-01-22 02:02:21.94	29.71	70.17	-32.7	-35.4	9.1	6382141	83	813
2026-01-22 02:02:22.34	29.86	70.39	-32.3	-34.2	10.1	6295013	83	744
2026-01-22 02:02:22.74	30.01	70.61	-32.2	-34.3	10.5	6258392	82	764
2026-01-22 02:02:23.15	30.16	70.84	-32.2	-34.5	10.5	6212158	82	773
2026-01-22 02:02:23.55	30.32	71.06	-32.3	-34.8	10.1	6278076	82	797
2026-01-22 02:02:23.95	30.48	71.28	-32.1	-34.2	10.6	6233215	82	760
2026-01-22 02:02:24.35	30.64	71.50	-32.0	-33.7	11.1	6185302	82	730
2026-01-22 02:02:24.75	30.81	71.73	-31.6	-33.3	11.7	6170043	81	722
2026-01-22 02:02:25.16	30.99	71.95	-31.5	-33.0	11.9	6138916	81	711
2026-01-22 02:02:25.56	31.17	72.18	-31.7	-33.4	11.8	6163635	81	731
2026-01-22 02:02:25.96	31.35	72.40	-32.0	-34.2	11.3	6158294	81	775
2026-01-22 02:02:26.36	31.54	72.62	-32.0	-34.3	11.4	6170349	81	777
2026-01-22 02:02:26.76	31.73	72.85	-31.9	-34.2	11.6	6164093	81	773
2026-01-22 02:02:27.17	31.93	73.08	-32.0	-34.3	11.7	6140289	81	780
2026-01-22 02:02:27.57	32.14	73.30	-32.0	-34.5	11.7	6152343	81	790
2026-01-22 02:02:27.97	32.35	73.53	-31.9	-34.1	11.9	6080474	81	769
2026-01-22 02:02:28.37	32.56	73.75	-31.7	-33.5	12.5	6112518	81	738
2026-01-22 02:02:28.78	32.79	73.98	-31.8	-34.0	12.4	6089782	81	765
2026-01-22 02:02:29.18	33.02	74.21	-32.0	-34.3	12.2	6134185	81	782
2026-01-22 02:02:29.58	33.26	74.44	-31.9	-34.0	12.3	6128845	81	764
2026-01-22 02:02:29.98	33.50	74.66	-31.7	-33.4	12.5	6140594	81	732
2026-01-22 02:02:30.38	33.75	74.89	-31.7	-33.5	12.4	6111297	81	735
2026-01-22 02:02:30.79	34.01	75.12	-31.9	-33.9	12.0	6134948	81	753
2026-01-22 02:02:31.19	34.28	75.35	-31.7	-33.5	12.2	6128692	81	732
2026-01-22 02:02:31.59	34.55	75.57	-31.5	-33.0	12.3	6105499	81	706
2026-01-22 02:02:31.99	34.84	75.80	-31.4	-32.6	12.5	6136627	81	684
2026-01-22 02:02:32.39	35.13	76.02	-31.3	-32.3	12.6	6114349	81	670
2026-01-22 02:02:32.80	35.44	76.26	-31.4	-32.5	12.4	6096496	81	677
2026-01-22 02:02:33.20	35.76	76.48	-31.5	-32.8	12.2	6152496	81	690
2026-01-22 02:02:33.60	36.08	76.71	-31.3	-32.7	12.7	6112365	80	701
2026-01-22 02:02:34.00	36.42	76.94	-30.9	-31.6	13.4	6075744	80	653
2026-01-22 02:02:34.40	36.77	77.16	-30.7	-31.7	13.6	6076202	79	677
2026-01-22 02:02:34.81	37.14	77.39	-30.9	-32.3	13.3	6061706	79	707
2026-01-22 02:02:35.21	37.52	77.62	-31.0	-32.7	13.2	6068115	79	724
2026-01-22 02:02:35.61	37.91	77.85	-31.1	-33.0	13.0	6101684	79	743
2026-01-22 02:02:36.01	38.31	78.07	-31.0	-32.5	13.4	6057128	79	717
2026-01-22 02:02:36.41	38.74	78.30	-30.9	-32.5	13.6	6084136	79	716
2026-01-22 02:02:36.82	39.19	78.53	-31.1	-32.9	13.4	6085052	79	738
2026-01-22 02:02:37.22	39.64	78.75	-31.1	-32.9	13.3	6078338	79	739
2026-01-22 02:02:37.62	40.12	78.98	-30.8	-32.1	13.9	6072387	79	697
2026-01-22 02:02:38.02	40.61	79.20	-30.4	-31.4	14.4	6038970	79	664
2026-01-22 02:02:38.42	41.13	79.42	-30.4	-31.4	14.6	6043548	79	666
2026-01-22 02:02:38.82	41.67	79.65	-30.5	-31.5	14.5	6027526	79	674
2026-01-22 02:02:39.23	42.25	79.87	-30.3	-31.5	14.8	6051940	78	690
2026-01-22 02:02:39.63	42.84	80.09	-30.0	-30.8	15.3	6051483	78	658
2026-01-22 02:02:40.03	43.46	80.32	-29.8	-30.4	15.4	6021728	78	636
2026-01-22 02:02:40.43	44.10	80.53	-29.4	-29.8	15.9	6046752	77	629
2026-01-22 02:02:40.84	44.80	80.76	-29.4	-30.4	16.0	6042633	76	670
2026-01-22 02:02:41.24	45.51	80.98	-29.3	-30.2	16.1	6039123	76	663
2026-01-22 02:02:41.64	46.26	81.19	-29.3	-30.3	16.1	6055145	76	668
2026-01-22 02:02:42.04	47.04	81.41	-29.3	-30.3	16.1	6023254	76	667
2026-01-22 02:02:42.44	47.87	81.62	-29.3	-30.2	16.3	6041564	76	665
2026-01-22 02:02:42.85	48.76	81.84	-29.4	-30.5	16.2	6036529	76	676
2026-01-22 02:02:43.25	49.67	82.05	-29.2	-30.0	16.4	6032867	76	655
2026-01-22 02:02:43.65	50.64	82.25	-29.0	-29.6	16.6	6036834	76	637
2026-01-22 02:02:44.05	51.66	82.46	-28.8	-29.0	16.9	6035003	76	616
2026-01-22 02:02:44.45	52.74	82.66	-28.8	-29.1	16.9	6051330	76	619
2026-01-22 02:02:44.86	53.91	82.87	-29.0	-29.6	16.6	6029510	76	637
2026-01-22 02:02:45.26	55.12	83.07	-29.1	-29.8	16.4	5999450	76	646
2026-01-22 02:02:45.66	56.39	83.26	-29.1	-29.7	16.4	6031951	76	641
2026-01-22 02:02:46.06	57.75	83.46	-28.5	-29.0	16.8	6034088	75	631
2026-01-22 02:02:46.46	59.18	83.64	-28.3	-28.6	17.0	6008148	75	613
2026-01-22 02:02:46.86	60.71	83.83	-28.3	-28.9	17.2	6034851	74	642
2026-01-22 02:02:47.27	62.36	84.01	-28.4	-29.2	17.1	6028289	74	654
2026-01-22 02:02:47.67	64.08	84.18	-28.5	-29.3	17.1	6051177	74	660
2026-01-22 02:02:48.07	65.90	84.35	-28.7	-29.7	16.9	6038665	74	677
2026-01-22 02:02:48.47	67.83	84.52	-28.6	-29.7	16.9	6022949	74	673
2026-01-22 02:02:48.87	69.88	84.67	-28.6	-29.6	16.9	6027374	74	670
2026-01-22 02:02:49.28	72.11	84.83	-28.5	-29.4	16.9	6031799	74	660
2026-01-22 02:02:49.68	74.41	84.97	-28.4	-29.2	17.0	6054840	74	652
2026-01-22 02:02:50.08	76.84	85.10	-28.4	-29.1	17.1	6045074	74	650
2026-01-22 02:02:50.48	79.40	85.22	-28.5	-29.3	17.0	6017913	74	658
2026-01-22 02:02:50.88	82.09	85.34	-28.6	-29.5	16.9	6017913	74	663
2026-01-22 02:02:51.29	84.99	85.44	-28.7	-29.7	16.8	6037750	74	674
2026-01-22 02:02:51.69	87.93	85.54	-28.7	-29.8	16.7	6018981	74	679
2026-01-22 02:02:52.09	90.99	85.61	-28.7	-29.8	16.8	6026153	74	678
2026-01-22 02:02:52.49	94.16	85.68	-28.5	-29.5	16.9	6026306	74	663
2026-01-22 02:02:52.90	97.50	85.73	-28.5	-29.3	17.0	6051788	74	656
2026-01-22 02:02:53.30	100.82	85.77	-28.4	-29.1	17.2	6018524	74	647
2026-01-22 02:02:53.70	104.20	85.80	-28.7	-29.7	16.9	6026916	74	674
2026-01-22 02:02:54.10	107.60	85.81	-28.9	-30.2	16.6	6028747	74	697
2026-01-22 02:02:54.51	111.09	85.80	-28.8	-30.1	16.6	6035919	74	689
2026-01-22 02:02:54.91	114.47	85.78	-28.6	-29.7	16.8	6044921	74	672
2026-01-22 02:02:55.31	117.81	85.74	-28.3	-29.0	17.2	6011047	74	642
2026-01-22 02:02:55.71	121.09	85.69	-28.3	-28.8	17.4	6033782	74	637
2026-01-22 02:02:56.12	124.36	85.63	-28.5	-29.2	17.2	6032562	74	652
2026-01-22 02:02:56.52	127.44	85.55	-28.7	-29.8	16.8	6033325	74	676
2026-01-22 02:02:56.92	130.42	85.47	-28.7	-29.7	16.8	6035919	74	673
2026-01-22 02:02:57.32	133.27	85.37	-28.4	-29.2	17.1	6043701	74	650
2026-01-22 02:02:57.72	135.99	85.25	-28.6	-29.5	17.0	6036224	74	665
2026-01-22 02:02:58.13	138.65	85.13	-29.0	-30.5	16.5	6030883	74	707
2026-01-22 02:02:58.53	141.11	85.00	-28.9	-29.7	16.4	6040649	75	655
2026-01-22 02:02:58.93	143.44	84.86	-28.9	-29.8	16.4	6011657	75	662
2026-01-22 02:02:59.33	145.64	84.71	-29.0	-30.0	16.3	6026763	75	669
2026-01-22 02:02:59.74	147.77	84.55	-29.2	-30.5	16.0	6009674	75	690
2026-01-22 02:03:00.14	149.73	84.39	-29.5	-31.0	15.8	6042785	75	713
2026-01-22 02:03:00.54	151.58	84.22	-30.0	-31.7	15.4	6046142	76	725
2026-01-22 02:03:00.94	153.32	84.05	-30.0	-31.2	15.2	6039123	77	688
2026-01-22 02:03:01.34	154.96	83.87	-29.9	-30.9	15.4	6052246	77	674
2026-01-22 02:03:01.74	156.51	83.69	-30.0	-31.2	15.3	6048431	77	687
2026-01-22 02:03:02.15	158.00	83.50	-30.1	-31.5	15.1	6045684	77	699
2026-01-22 02:03:02.55	159.37	83.31	-30.3	-32.0	14.8	6068725	77	720
2026-01-22 02:03:02.95	160.67	83.11	-30.5	-31.9	14.6	6048278	78	701
2026-01-22 02:03:03.35	161.89	82.91	-30.6	-32.1	14.4	6064605	78	712
2026-01-22 02:03:03.75	163.05	82.71	-30.6	-32.2	14.4	6054534	78	712
2026-01-22 02:03:04.16	164.17	82.51	-30.9	-32.8	14.2	6048583	78	744
2026-01-22 02:03:04.56	165.20	82.30	-30.8	-32.5	14.3	6069335	78	727
2026-01-22 02:03:04.96	166.18	82.09	-30.6	-32.0	14.7	6063842	78	707
2026-01-22 02:03:05.36	167.11	81.88	-30.5	-31.9	14.9	6030731	78	699
2026-01-22 02:03:05.77	168.01	81.67	-30.7	-32.3	14.5	6048278	78	721
2026-01-22 02:03:06.17	168.84	81.45	-30.8	-32.6	14.5	6014862	78	735
2026-01-22 02:03:06.57	169.64	81.24	-30.8	-32.7	14.4	6058044	78	740
2026-01-22 02:03:06.97	170.39	81.02	-30.8	-32.5	14.4	6056823	78	732
2026-01-22 02:03:07.37	171.11	80.80	-30.9	-32.4	14.1	6059875	79	712
2026-01-22 02:03:07.78	171.81	80.58	-31.0	-32.6	14.1	6066589	79	721
2026-01-22 02:03:08.18	172.47	80.36	-31.1	-32.8	13.9	6028747	79	731
2026-01-22 02:03:08.58	173.09	80.14	-31.2	-33.2	13.7	6061706	79	750
2026-01-22 02:03:08.98	173.69	79.92	-31.7	-33.8	13.3	6068115	80	762
2026-01-22 02:03:09.39	174.27	79.69	-31.8	-34.2	13.1	6095581	80	784
2026-01-22 02:03:09.79	174.82	79.47	-32.0	-34.2	12.7	6114959	81	770
2026-01-22 02:03:10.19	175.34	79.25	-32.0	-34.1	12.6	6110839	81	765
2026-01-22 02:03:10.59	175.84	79.02	-32.3	-35.0	12.1	6123199	81	813
2026-01-22 02:03:10.99	176.32	78.80	-32.2	-34.8	12.1	6141204	81	800
2026-01-22 02:03:11.40	176.79	78.57	-32.1	-34.3	12.4	6110229	81	772
2026-01-22 02:03:11.80	177.24	78.34	-32.1	-34.3	12.3	6115875	81	774
2026-01-22 02:03:12.20	177.66	78.12	-32.2	-34.6	12.1	6141662	81	792
2026-01-22 02:03:12.60	178.07	77.89	-32.1	-34.3	12.3	6121826	81	774
2026-01-22 02:03:13.00	178.46	77.67	-32.2	-34.6	12.1	6111602	81	788
2026-01-22 02:03:13.41	178.85	77.43	-32.3	-34.8	11.9	6132202	81	803
2026-01-22 02:03:13.81	179.22	77.21	-32.4	-35.3	11.5	6183929	81	830
2026-01-22 02:03:14.21	179.57	76.98	-32.5	-34.9	11.5	6170806	82	789
2026-01-22 02:03:14.61	179.91	76.75	-32.6	-35.1	11.2	6176452	82	803
2026-01-22 02:03:15.01	180.24	76.53	-32.7	-35.4	10.9	6204528	82	818
2026-01-22 02:03:15.42	180.56	76.29	-32.8	-35.7	10.6	6232147	82	833
2026-01-22 02:03:15.82	180.87	76.07	-33.0	-36.3	10.1	6272277	82	876
2026-01-22 02:03:16.22	181.16	75.84	-32.7	-35.1	10.2	6274566	83	785
2026-01-22 02:03:16.62	181.45	75.61	-32.7	-34.9	10.3	6241760	83	770
2026-01-22 02:03:17.03	181.74	75.38	-32.6	-34.6	10.3	6261138	83	757
2026-01-22 02:03:17.43	182.00	75.15	-32.4	-34.3	10.5	6231384	83	737
2026-01-22 02:03:17.83	182.26	74.93	-32.5	-34.5	10.4	6238403	83	749
2026-01-22 02:03:18.23	182.52	74.70	-32.7	-35.1	10.0	6277313	83	788
2026-01-22 02:03:18.63	182.76	74.48	-32.8	-35.4	9.8	6323089	83	808
2026-01-22 02:03:19.04	183.00	74.24	-32.9	-35.6	9.7	6298522	83	822
2026-01-22 02:03:19.44	183.23	74.02	-32.7	-35.2	10.1	6285400	83	797
2026-01-22 02:03:19.84	183.46	73.79	-32.7	-35.2	10.3	6255035	83	799
2026-01-22 02:03:20.24	183.67	73.57	-32.6	-35.1	10.4	6251220	83	793
2026-01-22 02:03:20.55	183.84	73.39	-32.4	-34.5	10.9	6192932	83	760
2026-01-22 02:03:20.96	184.05	73.16	-32.6	-35.2	10.5	6233978	83	801
2026-01-22 02:03:21.36	184.25	72.94	-32.7	-35.3	10.3	6227722	83	808
2026-01-22 02:03:21.76	184.44	72.71	-32.7	-35.4	10.4	6255187	83	817
2026-01-22 02:03:22.16	184.63	72.49	-32.6	-35.2	10.4	6253051	83	804
2026-01-22 02:03:22.57	184.82	72.26	-32.6	-35.1	10.4	6227722	83	799
2026-01-22 02:03:22.97	185.00	72.03	-32.6	-35.0	10.4	6244659	83	788
2026-01-22 02:03:23.37	185.18	71.81	-32.6	-34.9	10.1	6278533	83	786
2026-01-22 02:03:23.77	185.35	71.59	-32.5	-34.9	10.1	6272430	83	781
2026-01-22 02:03:24.17	185.52	71.36	-32.4	-34.9	10.7	6236877	82	796
2026-01-22 02:03:24.58	185.68	71.14	-32.2	-34.3	11.1	6216430	82	761
2026-01-22 02:03:24.98	185.84	70.91	-32.2	-34.4	11.2	6183319	82	765
2026-01-22 02:03:25.38	185.99	70.69	-32.8	-36.0	10.3	6253051	82	865
2026-01-22 02:03:25.78	186.15	70.47	-35.5	-47.1	3.5	7576293	87	2277
2026-01-22 02:03:26.19	186.30	70.24	-35.5	-46.4	3.4	7617950	88	2098
2026-01-22 02:03:26.59	186.44	70.02	-35.6	-47.0	3.5	7544097	88	2236
2026-01-22 02:03:26.99	186.58	69.80	-35.7	-46.6	3.4	7609558	88	2109

#Closed at: 2026-01-22 02:03:27