passes_logs/2026/01/03/T1/T1__20260103_025459_AQUA_rec.log

#Pass ID: 20260103_025459_AQUA
#Satellite: AQUA
#Configuration: AQUA
#almurnet v.1.7.20251203
#Start time: 2026-01-03 02:54:59

#Version: 2.0.20230620
#Station: T1
#Location: 37.570604 lon 55.790049 lat
#TLE: 1 27424U 02022A   25365.92641127  .00002078  00000+0  42628-3 0  9999
#TLE: 2 27424  98.4058 327.1196 0001962  94.7781 340.6230 14.61783896258835

#Time	Az	El	Level	Level2	SNR	BER	BlckErr	Temp	State	Recorded	gain1	gain2
2026-01-03 02:54:59.78	2.68	5.00	-50.5	-71.6	3.8	7.40e-01	0	38	0	0	71	43892
2026-01-03 02:55:02.79	2.40	5.18	-43.5	-69.1	3.3	7.64e-01	0	38	104	0	59	65535
2026-01-03 02:55:05.80	2.10	5.37	-43.5	-69.1	3.3	7.65e-01	0	38	104	0	59	65535
2026-01-03 02:55:08.81	1.81	5.56	-43.5	-69.1	3.3	7.68e-01	0	38	104	0	59	65535
2026-01-03 02:55:11.83	1.51	5.75	-43.6	-69.1	3.3	7.72e-01	0	38	104	0	59	65535
2026-01-03 02:55:14.84	1.20	5.94	-43.6	-69.1	3.3	7.67e-01	0	38	104	0	59	65535
2026-01-03 02:55:17.85	0.89	6.13	-43.6	-69.1	3.4	7.66e-01	0	38	104	0	59	65535
2026-01-03 02:55:20.86	0.58	6.32	-43.6	-69.1	3.3	7.65e-01	0	38	104	0	59	65535
2026-01-03 02:55:23.88	0.26	6.52	-43.7	-69.1	3.3	7.67e-01	0	38	104	0	59	65535
2026-01-03 02:55:26.89	359.94	6.71	-43.6	-69.1	3.3	7.65e-01	0	39	104	0	59	65535
2026-01-03 02:55:29.90	359.61	6.91	-43.6	-69.1	3.3	7.65e-01	0	39	104	0	59	65535
2026-01-03 02:55:32.91	359.28	7.10	-43.5	-69.1	3.4	7.68e-01	0	39	104	0	59	65535
2026-01-03 02:55:35.93	358.94	7.30	-43.6	-69.1	3.3	7.68e-01	0	38	104	0	59	65535
2026-01-03 02:55:38.94	358.59	7.49	-43.6	-69.1	3.3	7.67e-01	0	39	104	0	59	65535
2026-01-03 02:55:41.95	358.25	7.69	-43.5	-69.1	3.4	7.64e-01	0	39	104	0	59	65534
2026-01-03 02:55:44.97	357.89	7.89	-43.3	-68.6	3.3	7.67e-01	0	39	104	0	58	65535
2026-01-03 02:55:47.98	357.53	8.09	-43.3	-68.6	3.3	7.69e-01	0	39	104	0	58	65535
2026-01-03 02:55:50.99	357.17	8.29	-43.3	-68.6	3.4	7.69e-01	0	39	104	0	58	65535
2026-01-03 02:55:54.01	356.80	8.49	-43.3	-67.2	3.8	7.46e-01	0	39	104	0	58	55516
2026-01-03 02:55:57.02	356.42	8.69	-43.1	-64.5	3.8	7.46e-01	0	39	104	0	58	40896
2026-01-03 02:56:00.03	356.04	8.89	-42.7	-61.6	3.8	7.47e-01	0	39	104	0	57	30849
2026-01-03 02:56:03.05	355.65	9.10	-43.1	-61.9	3.8	7.38e-01	0	39	104	0	57	32009
2026-01-03 02:56:06.05	355.25	9.30	-41.8	-58.8	3.8	7.47e-01	0	39	104	0	54	26462
2026-01-03 02:56:09.06	354.85	9.50	-41.0	-56.3	3.8	7.45e-01	0	39	104	0	53	21029
2026-01-03 02:56:12.39	354.40	9.73	-41.4	-56.1	3.8	7.43e-01	0	39	104	0	53	20773
2026-01-03 02:56:15.11	354.03	9.91	-44.3	-59.2	3.8	7.42e-01	0	39	104	0	59	20938
2026-01-03 02:56:19.01	353.49	10.18	-42.8	-56.0	3.8	7.45e-01	0	39	104	0	56	17175
2026-01-03 02:56:21.92	353.07	10.38	-42.4	-56.3	3.8	7.48e-01	0	39	104	0	56	17702
2026-01-03 02:56:25.54	352.55	10.63	-41.7	-56.0	3.8	7.45e-01	0	39	104	0	55	18201
2026-01-03 02:56:28.26	352.15	10.81	-40.9	-46.2	23.4	6.02e-01	0	39	0	3145728	53	6586
2026-01-03 02:56:31.56	351.66	11.04	-41.1	-46.1	23.5	6.03e-01	0	39	0	9437184	53	6555
2026-01-03 02:56:34.28	351.24	11.23	-42.1	-45.9	23.8	6.03e-01	0	39	0	14680064	54	6024
2026-01-03 02:56:37.58	350.74	11.45	-42.6	-45.9	23.8	6.02e-01	0	39	0	20447232	55	5715
2026-01-03 02:56:40.44	350.29	11.65	-42.5	-46.0	23.8	6.02e-01	0	39	0	26214400	56	5448
2026-01-03 02:56:43.73	349.77	11.88	-41.8	-45.8	23.9	6.01e-01	0	39	0	32505856	55	5604
2026-01-03 02:56:46.45	349.33	12.07	-41.5	-45.7	23.9	6.02e-01	0	39	0	37224448	55	5575
2026-01-03 02:56:49.75	348.79	12.29	-41.4	-45.7	23.9	5.99e-01	0	39	0	43515904	54	5905
2026-01-03 02:56:52.71	348.29	12.50	-41.7	-45.6	24.1	6.03e-01	0	39	0	49283072	54	5820
2026-01-03 02:56:56.01	347.73	12.73	-42.2	-45.5	24.2	6.03e-01	0	39	0	55050240	55	5432
2026-01-03 02:56:58.72	347.27	12.91	-42.2	-45.6	24.1	6.01e-01	0	39	0	60293120	55	5528
2026-01-03 02:57:02.01	346.69	13.14	-42.1	-45.8	23.9	6.01e-01	0	39	0	66584576	55	5635
2026-01-03 02:57:04.88	346.18	13.34	-42.0	-45.7	24.0	6.01e-01	0	39	0	71827456	55	5541
2026-01-03 02:57:08.30	345.57	13.57	-43.0	-45.9	24.0	6.01e-01	0	39	0	78118912	56	5371
2026-01-03 02:57:11.03	345.07	13.76	-42.9	-45.7	24.2	6.03e-01	0	39	0	83361792	56	5253
2026-01-03 02:57:14.32	344.46	13.98	-42.6	-45.7	24.3	6.05e-01	0	39	0	89653248	56	5236
2026-01-03 02:57:17.06	343.94	14.17	-42.5	-45.6	24.2	6.01e-01	0	39	0	94896128	56	5210
2026-01-03 02:57:21.04	343.17	14.44	-42.4	-45.5	24.5	6.02e-01	0	39	0	102236160	56	5101
2026-01-03 02:57:23.80	342.64	14.63	-42.1	-45.5	24.4	6.00e-01	0	39	0	107479040	56	5101
2026-01-03 02:57:27.55	341.89	14.88	-42.0	-45.4	24.3	6.00e-01	0	39	0	114294784	55	5382
2026-01-03 02:57:30.48	341.30	15.07	-42.7	-45.5	24.3	6.01e-01	0	39	0	120061952	56	5158
2026-01-03 02:57:34.04	340.57	15.31	-42.6	-45.5	24.4	6.03e-01	0	39	0	126353408	56	5129
2026-01-03 02:57:36.76	340.01	15.49	-42.9	-45.5	24.4	6.01e-01	0	39	0	131596288	56	5120
2026-01-03 02:57:40.29	339.26	15.71	-42.6	-45.6	24.3	6.04e-01	0	39	0	138412032	56	5178
2026-01-03 02:57:43.02	338.68	15.89	-42.3	-45.5	24.4	6.03e-01	0	39	0	143130624	56	5142
2026-01-03 02:57:46.31	337.96	16.10	-42.8	-45.5	24.4	6.02e-01	0	39	0	149422080	56	5131
2026-01-03 02:57:49.21	337.33	16.28	-43.0	-45.5	24.4	6.03e-01	0	39	0	155189248	56	5147
2026-01-03 02:57:52.36	336.62	16.48	-42.8	-45.6	24.3	6.02e-01	0	39	0	160956416	56	5206
2026-01-03 02:57:55.23	335.97	16.66	-42.8	-45.5	24.4	6.05e-01	0	39	0	166199296	56	5151
2026-01-03 02:57:58.38	335.25	16.85	-43.0	-45.6	24.4	6.00e-01	0	39	0	171966464	56	5170
2026-01-03 02:58:01.24	334.59	17.02	-42.8	-45.5	24.4	6.02e-01	0	39	0	177733632	56	5138
2026-01-03 02:58:04.61	333.79	17.22	-42.7	-45.6	24.4	6.03e-01	0	39	0	184025088	56	5163
2026-01-03 02:58:07.32	333.15	17.38	-42.8	-45.7	24.3	6.02e-01	0	39	0	188743680	56	5229
2026-01-03 02:58:10.62	332.35	17.57	-42.6	-45.7	24.2	6.00e-01	0	39	0	195035136	56	5278
2026-01-03 02:58:13.49	331.65	17.73	-42.6	-45.5	24.4	6.02e-01	0	39	0	200278016	56	5154
2026-01-03 02:58:16.64	330.87	17.90	-43.1	-45.7	24.3	6.04e-01	0	39	0	206569472	56	5249
2026-01-03 02:58:19.50	330.16	18.05	-43.2	-45.8	24.2	6.01e-01	0	39	0	211812352	57	5008
2026-01-03 02:58:22.65	329.36	18.22	-42.7	-45.7	24.3	6.02e-01	0	39	0	217579520	57	4944
2026-01-03 02:58:25.56	328.62	18.37	-42.5	-45.7	24.3	6.02e-01	0	39	0	223346688	57	4957
2026-01-03 02:58:28.56	327.84	18.52	-42.6	-45.6	24.3	6.02e-01	0	39	0	228589568	57	4924
2026-01-03 02:58:31.57	327.05	18.66	-42.8	-45.6	24.3	6.00e-01	0	39	0	234356736	57	4920
2026-01-03 02:58:34.58	326.26	18.80	-43.0	-45.8	24.2	6.01e-01	0	39	0	240123904	57	5002
2026-01-03 02:58:37.59	325.46	18.94	-43.2	-45.8	24.1	6.01e-01	0	39	0	245891072	57	5036
2026-01-03 02:58:40.60	324.65	19.07	-42.8	-45.7	24.3	6.03e-01	0	39	0	251133952	57	4964
2026-01-03 02:58:43.72	323.80	19.20	-42.9	-45.9	24.1	6.02e-01	0	39	0	256901120	57	5068
2026-01-03 02:58:47.01	322.90	19.33	-43.2	-45.8	24.1	6.01e-01	0	39	0	263192576	57	5017
2026-01-03 02:58:49.73	322.15	19.44	-43.3	-46.0	24.1	6.02e-01	0	39	0	268435456	57	5136
2026-01-03 02:58:53.02	321.23	19.56	-43.2	-46.1	24.1	6.02e-01	0	39	0	274726912	57	5177
2026-01-03 02:58:55.74	320.47	19.65	-43.2	-46.0	24.1	6.02e-01	0	39	0	279969792	57	5148
2026-01-03 02:58:59.04	319.54	19.76	-43.4	-46.2	23.9	6.01e-01	0	39	0	285736960	57	5275
2026-01-03 02:59:01.76	318.76	19.84	-43.3	-46.2	23.9	6.02e-01	0	39	0	290979840	57	5253
2026-01-03 02:59:05.12	317.80	19.94	-43.3	-46.0	24.2	6.03e-01	0	39	0	297271296	57	5111
2026-01-03 02:59:07.89	317.00	20.01	-43.7	-46.5	23.7	6.00e-01	0	39	0	302514176	58	5112
2026-01-03 02:59:11.27	316.02	20.09	-43.3	-46.0	24.1	6.02e-01	0	39	0	308805632	58	4841
2026-01-03 02:59:13.99	315.23	20.16	-43.5	-46.7	23.4	6.02e-01	0	39	0	314048512	58	5231
2026-01-03 02:59:17.29	314.27	20.22	-44.1	-47.3	22.9	6.01e-01	0	39	0	320339968	58	5597
2026-01-03 02:59:20.12	313.44	20.27	-43.5	-46.1	24.0	6.03e-01	0	39	0	325582848	58	4887
2026-01-03 02:59:23.28	312.51	20.32	-43.8	-46.5	23.6	6.00e-01	0	39	0	331350016	59	4822
2026-01-03 02:59:26.14	311.66	20.36	-43.9	-46.8	23.5	6.00e-01	0	39	0	336592896	58	5284
2026-01-03 02:59:29.30	310.73	20.39	-43.5	-46.4	23.8	6.03e-01	0	39	0	342884352	58	5062
2026-01-03 02:59:32.16	309.88	20.42	-43.8	-46.7	23.5	6.02e-01	0	39	0	348127232	58	5229
2026-01-03 02:59:35.54	308.87	20.44	-44.1	-46.8	23.4	6.03e-01	0	39	0	354418688	58	5285
2026-01-03 02:59:38.28	308.06	20.45	-43.8	-46.4	23.7	6.02e-01	0	39	0	359661568	59	4811
2026-01-03 02:59:41.57	307.08	20.46	-43.6	-46.3	23.9	6.01e-01	0	39	0	365428736	59	4747
2026-01-03 02:59:44.29	306.26	20.45	-43.6	-46.3	23.9	6.02e-01	0	39	0	370671616	59	4713
2026-01-03 02:59:47.59	305.28	20.44	-43.6	-46.3	23.8	6.03e-01	0	39	0	376963072	59	4721
2026-01-03 02:59:50.42	304.44	20.43	-43.7	-46.4	23.7	6.00e-01	0	39	0	382205952	59	4774
2026-01-03 02:59:53.79	303.44	20.40	-44.4	-47.3	22.9	6.00e-01	0	39	0	388497408	59	5297
2026-01-03 02:59:56.51	302.63	20.37	-44.3	-47.1	22.9	6.02e-01	0	39	0	393740288	59	5205
2026-01-03 02:59:59.81	301.65	20.33	-43.5	-46.1	24.0	6.02e-01	0	39	0	400031744	59	4635
2026-01-03 03:00:02.56	300.84	20.29	-43.6	-46.2	23.9	6.02e-01	0	39	0	404750336	58	4946
2026-01-03 03:00:05.84	299.88	20.24	-44.5	-47.3	22.7	6.03e-01	0	39	0	411041792	59	5327
2026-01-03 03:00:08.70	299.04	20.18	-44.5	-47.3	22.8	6.04e-01	0	39	0	416284672	59	5333
2026-01-03 03:00:11.85	298.12	20.11	-44.0	-46.7	23.3	6.03e-01	0	39	0	422576128	59	4961
2026-01-03 03:00:14.72	297.29	20.04	-44.2	-46.9	23.3	6.00e-01	0	39	0	427819008	59	5095
2026-01-03 03:00:17.87	296.38	19.96	-44.1	-46.9	23.2	6.02e-01	0	39	0	433586176	60	4789
2026-01-03 03:00:20.73	295.55	19.88	-43.6	-46.2	24.0	6.03e-01	0	39	0	438829056	59	4662
2026-01-03 03:00:23.90	294.65	19.79	-44.3	-47.1	23.1	6.02e-01	0	39	0	445120512	59	5174
2026-01-03 03:00:26.77	293.83	19.69	-43.4	-45.9	24.2	6.02e-01	0	39	0	450363392	58	4789
2026-01-03 03:00:30.13	292.89	19.58	-44.1	-46.8	23.4	6.01e-01	0	39	0	456654848	59	4998
2026-01-03 03:00:33.29	292.00	19.47	-44.0	-46.8	23.4	6.02e-01	0	39	0	462422016	59	4996
2026-01-03 03:00:36.44	291.13	19.35	-43.7	-46.4	23.8	6.03e-01	0	39	0	468713472	59	4766
2026-01-03 03:00:39.31	290.34	19.23	-43.7	-46.3	23.8	6.04e-01	0	39	0	473956352	59	4754
2026-01-03 03:00:42.46	289.48	19.10	-44.0	-46.7	23.4	6.00e-01	0	39	0	479723520	59	4966
2026-01-03 03:00:45.33	288.70	18.98	-44.0	-46.8	23.1	6.02e-01	0	39	0	484966400	60	4733
2026-01-03 03:00:48.48	287.86	18.84	-44.0	-46.7	23.3	6.05e-01	0	39	0	491257856	60	4680
2026-01-03 03:00:51.34	287.10	18.70	-43.9	-46.6	23.5	6.01e-01	0	39	0	496500736	59	4915
2026-01-03 03:00:54.50	286.27	18.55	-44.0	-46.7	23.3	6.03e-01	0	39	0	502267904	59	4978
2026-01-03 03:00:57.36	285.52	18.41	-44.5	-47.3	22.9	6.02e-01	0	39	0	507510784	59	5317
2026-01-03 03:01:00.86	284.62	18.23	-44.0	-46.7	23.5	6.03e-01	0	39	0	514326528	58	5236
2026-01-03 03:01:03.58	283.93	18.09	-43.5	-46.0	24.0	6.03e-01	0	39	0	519569408	59	4594
2026-01-03 03:01:07.20	283.02	17.89	-43.7	-46.4	23.8	6.01e-01	0	39	0	526385152	59	4763
2026-01-03 03:01:10.22	282.27	17.73	-43.7	-46.4	23.8	6.01e-01	0	39	0	531628032	59	4773
2026-01-03 03:01:13.96	281.35	17.52	-43.7	-46.4	23.7	5.99e-01	0	39	0	538968064	59	4768
2026-01-03 03:01:16.74	280.68	17.36	-43.7	-46.4	23.7	6.01e-01	0	39	0	544210944	59	4766
2026-01-03 03:01:20.15	279.87	17.16	-43.7	-46.4	23.8	6.01e-01	0	39	0	550502400	59	4764
2026-01-03 03:01:23.27	279.13	16.97	-43.7	-46.4	23.7	6.01e-01	0	39	0	556269568	59	4772
2026-01-03 03:01:26.57	278.37	16.77	-43.8	-46.6	23.5	5.99e-01	0	39	0	562561024	59	4886
2026-01-03 03:01:29.30	277.74	16.61	-43.7	-46.3	23.8	6.02e-01	0	39	0	567803904	59	4742
2026-01-03 03:01:32.59	276.99	16.40	-43.8	-46.4	23.7	6.02e-01	0	39	0	574095360	59	4806
2026-01-03 03:01:35.31	276.39	16.23	-43.9	-46.6	23.6	6.01e-01	0	39	0	578813952	59	4872
2026-01-03 03:01:38.60	275.66	16.02	-43.5	-46.1	24.0	6.01e-01	0	39	0	585105408	59	4600
2026-01-03 03:01:41.32	275.07	15.85	-43.7	-46.4	23.6	6.00e-01	0	39	0	590348288	59	4761
2026-01-03 03:01:44.62	274.36	15.63	-43.7	-46.3	23.8	6.01e-01	0	39	0	596115456	59	4738
2026-01-03 03:01:47.58	273.74	15.44	-43.7	-46.3	23.7	6.01e-01	0	39	0	601882624	59	4741
2026-01-03 03:01:50.58	273.11	15.24	-43.7	-46.3	23.8	6.02e-01	0	39	0	607649792	59	4757
2026-01-03 03:01:53.61	272.49	15.04	-43.9	-46.6	23.5	6.02e-01	0	39	0	613416960	59	4883
2026-01-03 03:01:56.70	271.87	14.83	-43.7	-46.3	23.8	6.03e-01	0	39	0	619184128	59	4740
2026-01-03 03:01:59.86	271.24	14.62	-43.7	-46.4	23.7	6.06e-01	0	39	0	624951296	59	4783
2026-01-03 03:02:02.81	270.66	14.42	-43.7	-46.4	23.6	6.02e-01	0	39	0	630718464	59	4810
2026-01-03 03:02:06.28	269.99	14.18	-43.7	-46.3	23.7	6.02e-01	0	39	0	637009920	59	4751
2026-01-03 03:02:09.02	269.46	14.00	-43.8	-46.5	23.5	6.04e-01	0	39	0	642252800	59	4855
2026-01-03 03:02:12.32	268.85	13.77	-43.8	-46.4	23.6	6.03e-01	0	39	0	648019968	59	4806
2026-01-03 03:02:15.04	268.34	13.58	-43.8	-46.6	23.5	6.02e-01	0	39	0	653262848	59	4886
2026-01-03 03:02:18.34	267.74	13.36	-43.9	-46.7	23.3	6.00e-01	0	39	0	659554304	59	4976
2026-01-03 03:02:21.20	267.23	13.16	-43.9	-46.7	23.3	6.05e-01	0	39	0	664797184	59	4956
2026-01-03 03:02:24.40	266.67	12.94	-43.8	-46.5	23.5	6.03e-01	0	39	0	671088640	59	4861
2026-01-03 03:02:27.26	266.17	12.74	-43.9	-46.6	23.4	5.98e-01	0	39	0	676331520	59	4905
2026-01-03 03:02:30.75	265.57	12.50	-44.0	-46.8	23.2	6.00e-01	0	39	0	682622976	59	5011
2026-01-03 03:02:33.47	265.11	12.31	-44.3	-47.1	23.1	5.99e-01	0	39	0	687865856	59	5166
2026-01-03 03:02:36.77	264.57	12.08	-43.9	-46.6	23.4	6.04e-01	0	39	0	694157312	59	4882
2026-01-03 03:02:39.49	264.12	11.89	-44.1	-46.9	23.1	6.02e-01	0	39	0	699400192	59	5055
2026-01-03 03:02:43.10	263.54	11.64	-44.1	-46.9	23.0	6.02e-01	0	39	0	706215936	59	5087
2026-01-03 03:02:45.82	263.12	11.45	-43.9	-46.8	22.5	6.03e-01	0	39	0	710934528	59	5020
2026-01-03 03:02:49.09	262.61	11.23	-44.1	-46.9	23.0	6.02e-01	0	39	0	717225984	59	5091
2026-01-03 03:02:52.17	262.14	11.01	-44.3	-47.1	22.9	6.02e-01	0	39	0	722993152	59	5192
2026-01-03 03:02:55.26	261.67	10.80	-44.2	-47.0	22.9	6.03e-01	0	39	0	728760320	59	5157
2026-01-03 03:02:58.13	261.24	10.60	-44.3	-47.2	22.7	6.01e-01	0	39	0	734003200	59	5267
2026-01-03 03:03:01.33	260.78	10.38	-44.2	-47.1	22.8	6.03e-01	0	39	0	740294656	59	5205
2026-01-03 03:03:04.19	260.37	10.18	-44.3	-47.3	22.7	6.02e-01	0	39	0	745537536	59	5280
2026-01-03 03:03:07.34	259.92	9.97	-44.3	-47.3	22.6	6.00e-01	0	39	0	751304704	59	5319
2026-01-03 03:03:10.39	259.50	9.76	-44.3	-47.3	22.5	6.04e-01	0	39	0	757071872	59	5340
2026-01-03 03:03:13.69	259.04	9.54	-44.4	-47.4	22.5	6.02e-01	0	39	0	763363328	59	5357
2026-01-03 03:03:16.49	258.67	9.34	-44.5	-47.4	22.4	6.01e-01	0	39	0	768606208	59	5385
2026-01-03 03:03:19.64	258.25	9.13	-44.4	-47.3	22.6	6.01e-01	0	39	0	774373376	59	5336
2026-01-03 03:03:22.81	257.83	8.92	-50.3	-71.2	3.8	7.47e-01	0	39	104	778567680	71	41484
2026-01-03 03:03:25.82	257.45	8.71	-51.0	-71.4	3.8	7.49e-01	0	39	104	778567680	72	40432
2026-01-03 03:03:28.83	257.06	8.51	-50.7	-71.6	3.8	7.46e-01	0	39	104	778567680	73	38920
2026-01-03 03:03:31.84	256.69	8.31	-51.2	-71.6	3.8	7.47e-01	0	39	104	778567680	73	39043
2026-01-03 03:03:34.86	256.32	8.11	-51.2	-71.6	3.8	7.42e-01	0	39	104	778567680	73	39124
2026-01-03 03:03:37.87	255.95	7.91	-51.0	-71.6	3.8	7.46e-01	0	39	104	778567680	73	39031
2026-01-03 03:03:40.88	255.59	7.71	-50.8	-71.6	3.8	7.45e-01	0	39	104	778567680	73	39004
2026-01-03 03:03:43.89	255.24	7.51	-50.6	-71.6	3.8	7.49e-01	0	39	104	778567680	73	38849
2026-01-03 03:03:46.90	254.89	7.31	-50.6	-71.6	3.8	7.48e-01	0	39	104	778567680	73	38753
2026-01-03 03:03:49.92	254.55	7.12	-50.6	-71.6	3.8	7.48e-01	0	39	104	778567680	73	38777
2026-01-03 03:03:52.93	254.21	6.92	-50.6	-71.6	3.8	7.47e-01	0	39	104	778567680	73	38740
2026-01-03 03:03:55.94	253.88	6.73	-50.6	-71.6	3.8	7.47e-01	0	39	104	778567680	73	38692
2026-01-03 03:03:58.95	253.55	6.53	-50.6	-71.6	3.8	7.48e-01	0	39	104	778567680	73	38731
2026-01-03 03:04:01.97	253.22	6.34	-50.6	-71.6	3.8	7.46e-01	0	39	104	778567680	73	38769
2026-01-03 03:04:04.98	252.90	6.14	-50.6	-71.5	3.8	7.47e-01	0	39	104	778567680	73	38680
2026-01-03 03:04:07.99	252.59	5.95	-50.6	-71.5	3.8	7.46e-01	0	39	104	778567680	73	38644
2026-01-03 03:04:11.01	252.28	5.76	-50.6	-71.5	3.8	7.46e-01	0	39	104	778567680	73	38648
2026-01-03 03:04:14.02	251.98	5.57	-50.6	-71.6	3.8	7.47e-01	0	39	104	778567680	73	38690
2026-01-03 03:04:17.03	251.68	5.38	-50.6	-71.5	3.8	7.45e-01	0	39	104	778567680	73	38683
2026-01-03 03:04:20.04	251.38	5.19	-50.6	-71.5	3.8	7.44e-01	0	39	104	778567680	73	38617
2026-01-03 03:04:23.06	251.09	5.00	-50.6	-71.5	3.8	7.44e-01	0	39	104	778567680	73	38607

#Closed at: 2026-01-03 03:04:24
#Recorded file [778 MB]: D:/Data/31040_260103_055459.dat