passes_logs/2026/01/03/T1/T1__20260103_024129_FENGYUN_3D_rec.log

#Pass ID: 20260103_024129_FENGYUN 3D
#Satellite: FENGYUN 3D
#Configuration: FENGYUN 3D
#almurnet v.1.7.20251203
#Start time: 2026-01-03 02:41:30

#Version: 2.0.20230620
#Station: T1
#Location: 37.570604 lon 55.790049 lat
#TLE: 1 43010U 17072A   26002.31768531  .00000715  00000+0  35975-3 0  9993
#TLE: 2 43010  98.9910 333.9388 0001871 131.0716 229.0622 14.19693418421454

#Time	Az	El	Level	Level2	SNR	BER	BlckErr	Temp	State	Recorded	gain1	gain2
2026-01-03 02:41:30.57	11.02	5.10	-48.9	-61.1	3.8	8.47e-01	0	37	0	0	68	15434
2026-01-03 02:41:33.58	10.88	5.30	-48.8	-61.0	3.8	8.46e-01	0	37	104	0	69	14511
2026-01-03 02:41:36.59	10.74	5.51	-48.8	-61.0	3.8	8.47e-01	0	37	104	0	69	14508
2026-01-03 02:41:39.60	10.60	5.72	-48.7	-61.0	3.8	8.46e-01	0	37	104	0	69	14507
2026-01-03 02:41:42.61	10.46	5.93	-48.7	-61.1	3.8	8.47e-01	0	37	104	0	69	14548
2026-01-03 02:41:45.63	10.31	6.14	-48.7	-61.0	3.8	8.46e-01	0	37	104	0	69	14494
2026-01-03 02:41:48.64	10.16	6.36	-48.7	-61.0	3.8	8.46e-01	0	37	104	0	69	14532
2026-01-03 02:41:51.65	10.01	6.57	-48.7	-61.0	3.8	8.47e-01	0	38	104	0	69	14515
2026-01-03 02:41:54.67	9.85	6.79	-48.7	-61.0	3.8	8.48e-01	0	38	104	0	69	14517
2026-01-03 02:41:57.68	9.70	7.01	-48.7	-61.0	3.8	8.45e-01	0	38	104	0	69	14523
2026-01-03 02:42:00.69	9.54	7.23	-48.6	-61.0	3.8	8.47e-01	0	38	104	0	69	14481
2026-01-03 02:42:03.70	9.38	7.45	-48.6	-61.1	3.8	8.47e-01	0	38	104	0	69	14553
2026-01-03 02:42:06.71	9.21	7.67	-48.6	-61.0	3.8	8.47e-01	0	38	104	0	69	14519
2026-01-03 02:42:09.73	9.05	7.90	-48.7	-61.0	3.8	8.47e-01	0	38	104	0	69	14491
2026-01-03 02:42:12.74	8.88	8.12	-48.7	-61.0	3.8	8.48e-01	0	38	104	0	69	14486
2026-01-03 02:42:15.75	8.70	8.35	-48.7	-61.0	3.8	8.48e-01	0	38	104	0	69	14505
2026-01-03 02:42:18.75	8.53	8.58	-48.7	-61.0	3.8	8.47e-01	0	38	104	0	69	14516
2026-01-03 02:42:21.77	8.35	8.81	-48.7	-61.0	3.8	8.48e-01	0	38	104	0	69	14513
2026-01-03 02:42:24.78	8.17	9.05	-48.7	-61.0	3.8	8.47e-01	0	39	104	0	69	14494
2026-01-03 02:42:27.79	7.98	9.28	-48.7	-61.0	3.8	8.47e-01	0	38	104	0	69	14480
2026-01-03 02:42:30.81	7.80	9.52	-48.8	-61.0	3.8	8.47e-01	0	39	104	0	69	14517
2026-01-03 02:42:33.82	7.60	9.76	-48.8	-61.1	3.8	8.49e-01	0	39	104	0	69	14542
2026-01-03 02:42:36.83	7.41	10.00	-48.8	-61.1	3.8	8.47e-01	0	39	104	0	69	14571
2026-01-03 02:42:39.85	7.21	10.25	-48.8	-61.0	3.8	8.47e-01	0	39	104	0	69	14519
2026-01-03 02:42:42.86	7.01	10.49	-48.8	-61.0	3.8	8.46e-01	0	39	104	0	69	14475
2026-01-03 02:42:45.87	6.80	10.74	-48.8	-61.0	3.8	8.47e-01	0	39	104	0	69	14530
2026-01-03 02:42:48.89	6.60	10.99	-48.8	-61.0	3.8	8.47e-01	0	39	104	0	69	14500
2026-01-03 02:42:51.90	6.38	11.24	-48.8	-61.0	3.8	8.46e-01	0	39	104	0	69	14459
2026-01-03 02:42:54.91	6.17	11.50	-48.9	-61.0	3.8	8.47e-01	0	39	104	0	69	14536
2026-01-03 02:42:57.92	5.95	11.75	-48.8	-61.0	3.8	8.47e-01	0	39	104	0	69	14511
2026-01-03 02:43:00.94	5.72	12.01	-48.8	-61.0	3.8	8.47e-01	0	39	104	0	69	14523
2026-01-03 02:43:03.95	5.49	12.27	-48.8	-61.0	3.8	8.47e-01	0	39	104	0	69	14490
2026-01-03 02:43:06.96	5.26	12.54	-48.8	-61.0	3.8	8.48e-01	0	39	104	0	69	14498
2026-01-03 02:43:09.98	5.02	12.81	-48.8	-61.0	3.8	8.46e-01	0	39	104	0	69	14510
2026-01-03 02:43:12.99	4.78	13.07	-48.9	-61.0	3.8	8.46e-01	0	39	104	0	69	14534
2026-01-03 02:43:16.00	4.53	13.34	-48.8	-61.0	3.8	8.46e-01	0	39	104	0	69	14493
2026-01-03 02:43:19.01	4.28	13.62	-48.8	-61.0	3.8	8.47e-01	0	39	104	0	69	14475
2026-01-03 02:43:22.02	4.02	13.89	-48.8	-61.0	3.8	8.48e-01	0	39	104	0	69	14453
2026-01-03 02:43:25.04	3.76	14.17	-48.8	-61.0	3.8	8.46e-01	0	39	104	0	69	14488
2026-01-03 02:43:28.05	3.49	14.45	-48.9	-61.0	3.8	8.47e-01	0	39	104	0	69	14533
2026-01-03 02:43:31.06	3.22	14.74	-48.8	-61.0	3.8	8.47e-01	0	39	104	0	69	14455
2026-01-03 02:43:34.07	2.94	15.02	-48.8	-61.0	3.8	8.46e-01	0	39	104	0	69	14515
2026-01-03 02:43:37.08	2.66	15.31	-48.9	-61.0	3.8	8.48e-01	0	39	104	0	69	14491
2026-01-03 02:43:40.09	2.37	15.61	-48.8	-61.0	3.8	8.47e-01	0	39	104	0	69	14434
2026-01-03 02:43:43.10	2.07	15.90	-48.9	-61.0	3.8	8.47e-01	0	39	104	0	69	14460
2026-01-03 02:43:46.12	1.77	16.20	-48.9	-61.0	3.8	8.47e-01	0	39	104	0	69	14483
2026-01-03 02:43:49.13	1.46	16.50	-48.9	-61.0	3.8	8.46e-01	0	39	104	0	69	14499
2026-01-03 02:43:52.14	1.15	16.80	-48.9	-61.0	3.8	8.47e-01	0	39	104	0	69	14493
2026-01-03 02:43:55.16	0.83	17.11	-48.9	-61.0	3.8	8.47e-01	0	39	104	0	69	14491
2026-01-03 02:43:58.17	0.50	17.42	-48.9	-61.0	3.8	8.47e-01	0	39	104	0	69	14491
2026-01-03 02:44:01.18	0.17	17.73	-48.9	-61.0	3.8	8.47e-01	0	39	104	0	69	14446
2026-01-03 02:44:04.19	359.82	18.04	-48.9	-61.0	3.8	8.46e-01	0	40	104	0	69	14472
2026-01-03 02:44:07.20	359.48	18.36	-48.9	-61.0	3.8	8.48e-01	0	39	104	0	69	14479
2026-01-03 02:44:10.22	359.12	18.68	-48.8	-61.0	3.8	8.47e-01	0	39	104	0	69	14507
2026-01-03 02:44:13.23	358.75	19.01	-48.8	-61.0	3.8	8.48e-01	0	39	104	0	69	14449
2026-01-03 02:44:16.24	358.38	19.33	-48.8	-61.0	3.8	8.46e-01	0	39	104	0	69	14496
2026-01-03 02:44:19.25	358.00	19.66	-48.8	-61.0	3.8	8.47e-01	0	39	104	0	69	14473
2026-01-03 02:44:22.27	357.61	20.00	-48.8	-61.0	3.8	8.47e-01	0	40	104	0	69	14487
2026-01-03 02:44:25.28	357.21	20.33	-48.8	-61.0	3.8	8.46e-01	0	39	104	0	69	14472
2026-01-03 02:44:28.29	356.80	20.67	-48.7	-61.0	3.8	8.47e-01	0	39	104	0	69	14472
2026-01-03 02:44:31.30	356.38	21.01	-48.7	-61.0	3.8	8.47e-01	0	39	104	0	69	14443
2026-01-03 02:44:34.31	355.96	21.36	-48.7	-61.0	3.8	8.47e-01	0	39	104	0	69	14434
2026-01-03 02:44:37.32	355.52	21.71	-48.7	-61.0	3.8	8.47e-01	0	39	104	0	69	14415
2026-01-03 02:44:40.33	355.07	22.06	-48.7	-61.0	3.8	8.48e-01	0	39	104	0	69	14430
2026-01-03 02:44:43.34	354.62	22.41	-48.7	-61.0	3.8	8.47e-01	0	39	104	0	69	14459
2026-01-03 02:44:46.35	354.15	22.77	-48.7	-61.0	3.8	8.47e-01	0	39	104	0	69	14487
2026-01-03 02:44:49.37	353.67	23.13	-48.7	-61.0	3.8	8.47e-01	0	40	104	0	69	14433
2026-01-03 02:44:52.38	353.18	23.49	-48.7	-61.0	3.8	8.47e-01	0	40	104	0	69	14501
2026-01-03 02:44:55.39	352.68	23.86	-48.7	-61.0	3.8	8.47e-01	0	39	104	0	69	14430
2026-01-03 02:44:58.40	352.16	24.23	-48.7	-61.0	3.8	8.47e-01	0	39	104	0	69	14450
2026-01-03 02:45:01.41	351.63	24.60	-48.7	-61.0	3.8	8.47e-01	0	39	104	0	69	14495
2026-01-03 02:45:04.41	351.10	24.97	-48.7	-61.0	3.8	8.47e-01	0	39	104	0	69	14445
2026-01-03 02:45:07.42	350.54	25.34	-48.7	-61.0	3.8	8.47e-01	0	39	104	0	69	14416
2026-01-03 02:45:10.43	349.98	25.72	-48.7	-61.0	3.8	8.47e-01	0	40	104	0	69	14467
2026-01-03 02:45:13.45	349.39	26.10	-48.7	-61.0	3.8	8.47e-01	0	39	104	0	69	14476
2026-01-03 02:45:16.46	348.80	26.49	-48.7	-61.0	3.8	8.48e-01	0	40	104	0	69	14414
2026-01-03 02:45:19.47	348.19	26.87	-48.6	-61.0	3.8	8.48e-01	0	39	104	0	69	14392
2026-01-03 02:45:22.48	347.56	27.26	-48.6	-61.0	3.8	8.48e-01	0	40	104	0	69	14463
2026-01-03 02:45:25.49	346.92	27.64	-48.6	-61.0	3.8	8.46e-01	0	40	104	0	69	14432
2026-01-03 02:45:28.51	346.26	28.04	-48.6	-61.0	3.8	8.47e-01	0	39	104	0	69	14409
2026-01-03 02:45:31.52	345.59	28.43	-48.6	-61.0	3.8	8.46e-01	0	39	104	0	69	14455
2026-01-03 02:45:34.53	344.90	28.82	-48.5	-61.0	3.8	8.46e-01	0	40	104	0	69	14440
2026-01-03 02:45:37.54	344.19	29.21	-48.5	-61.0	3.8	8.46e-01	0	40	104	0	69	14461
2026-01-03 02:45:40.55	343.47	29.60	-48.5	-61.0	3.8	8.47e-01	0	40	104	0	69	14399
2026-01-03 02:45:43.56	342.73	29.99	-48.5	-61.0	3.8	8.48e-01	0	39	104	0	69	14432
2026-01-03 02:45:46.57	341.96	30.39	-48.5	-61.0	3.8	8.46e-01	0	40	104	0	69	14453
2026-01-03 02:45:49.59	341.18	30.78	-48.5	-61.0	3.8	8.48e-01	0	40	104	0	69	14377
2026-01-03 02:45:52.60	340.38	31.17	-48.5	-61.0	3.8	8.47e-01	0	40	104	0	69	14422
2026-01-03 02:45:55.61	339.56	31.56	-48.5	-61.0	3.8	8.47e-01	0	40	104	0	69	14415
2026-01-03 02:45:58.62	338.72	31.95	-48.5	-61.0	3.8	8.47e-01	0	40	104	0	69	14437
2026-01-03 02:46:01.63	337.86	32.33	-48.5	-61.0	3.8	8.48e-01	0	39	104	0	69	14449
2026-01-03 02:46:04.65	336.97	32.72	-48.5	-61.0	3.8	8.47e-01	0	40	104	0	69	14425
2026-01-03 02:46:07.66	336.07	33.10	-48.5	-61.0	3.8	8.46e-01	0	39	104	0	69	14439
2026-01-03 02:46:10.67	335.15	33.48	-48.5	-61.0	3.8	8.46e-01	0	40	104	0	69	14415
2026-01-03 02:46:13.68	334.20	33.85	-48.5	-61.0	3.8	8.48e-01	0	40	104	0	69	14424
2026-01-03 02:46:16.70	333.23	34.22	-48.5	-61.0	3.8	8.47e-01	0	40	104	0	69	14447
2026-01-03 02:46:19.71	332.24	34.58	-48.5	-61.0	3.8	8.47e-01	0	39	104	0	68	15267
2026-01-03 02:46:22.72	331.23	34.94	-48.5	-61.0	3.8	8.47e-01	0	40	104	0	68	15305
2026-01-03 02:46:25.74	330.19	35.29	-48.5	-61.0	3.8	8.47e-01	0	39	104	0	68	15257
2026-01-03 02:46:28.75	329.13	35.64	-48.5	-61.0	3.8	8.47e-01	0	40	104	0	68	15304
2026-01-03 02:46:31.76	328.05	35.97	-48.5	-61.0	3.8	8.48e-01	0	40	104	0	68	15279
2026-01-03 02:46:34.76	326.95	36.30	-48.5	-61.0	3.8	8.47e-01	0	40	104	0	68	15318
2026-01-03 02:46:37.77	325.83	36.62	-48.5	-61.0	3.8	8.47e-01	0	39	104	0	68	15264
2026-01-03 02:46:40.78	324.68	36.93	-48.5	-61.0	3.8	8.47e-01	0	40	104	0	68	15287
2026-01-03 02:46:43.80	323.51	37.22	-48.5	-61.0	3.8	8.47e-01	0	40	104	0	68	15299
2026-01-03 02:46:46.81	322.31	37.51	-48.5	-61.0	3.8	8.47e-01	0	40	104	0	68	15245
2026-01-03 02:46:49.82	321.10	37.79	-48.5	-61.0	3.8	8.47e-01	0	40	104	0	68	15264
2026-01-03 02:46:52.83	319.87	38.05	-48.5	-61.0	3.8	8.47e-01	0	40	104	0	68	15286
2026-01-03 02:46:55.85	318.62	38.30	-48.5	-61.0	3.8	8.47e-01	0	40	104	0	68	15242
2026-01-03 02:46:58.86	317.35	38.53	-48.5	-61.0	3.8	8.47e-01	0	40	104	0	68	15281
2026-01-03 02:47:01.87	316.06	38.75	-48.5	-61.0	3.8	8.46e-01	0	40	104	0	68	15244
2026-01-03 02:47:04.88	314.75	38.96	-48.5	-61.0	3.8	8.47e-01	0	39	104	0	68	15261
2026-01-03 02:47:07.90	313.43	39.15	-48.5	-61.0	3.8	8.47e-01	0	40	104	0	68	15239
2026-01-03 02:47:10.91	312.09	39.32	-48.5	-61.0	3.8	8.47e-01	0	40	104	0	68	15260
2026-01-03 02:47:13.93	310.73	39.47	-48.5	-61.0	3.8	8.46e-01	0	39	104	0	68	15228
2026-01-03 02:47:16.94	309.37	39.61	-48.5	-61.0	3.8	8.47e-01	0	39	104	0	68	15288
2026-01-03 02:47:19.95	308.00	39.73	-48.4	-61.0	3.8	8.47e-01	0	40	104	0	68	15302
2026-01-03 02:47:22.97	306.61	39.83	-48.4	-60.9	3.8	8.46e-01	0	39	104	0	68	15181
2026-01-03 02:47:25.98	305.22	39.91	-48.3	-61.0	3.8	8.47e-01	0	40	104	0	68	15241
2026-01-03 02:47:28.99	303.82	39.98	-48.3	-61.0	3.8	8.47e-01	0	40	104	0	68	15292
2026-01-03 02:47:32.01	302.41	40.02	-48.3	-61.0	3.8	8.46e-01	0	39	104	0	68	15291
2026-01-03 02:47:35.02	301.01	40.04	-48.2	-60.9	3.8	8.46e-01	0	40	104	0	68	15224
2026-01-03 02:47:38.03	299.60	40.05	-48.2	-60.9	3.8	8.47e-01	0	40	104	0	68	15207
2026-01-03 02:47:41.05	298.19	40.03	-48.2	-61.0	3.8	8.48e-01	0	40	104	0	68	15284
2026-01-03 02:47:44.06	296.79	40.00	-48.1	-60.9	3.8	8.47e-01	0	40	104	0	68	15181
2026-01-03 02:47:47.07	295.39	39.94	-48.1	-61.0	3.8	8.46e-01	0	40	104	0	68	15227
2026-01-03 02:47:50.09	293.99	39.87	-48.1	-61.0	3.8	8.48e-01	0	40	104	0	68	15230
2026-01-03 02:47:53.10	292.60	39.77	-48.0	-61.0	3.8	8.46e-01	0	40	104	0	68	15268
2026-01-03 02:47:56.11	291.22	39.66	-48.0	-61.0	3.8	8.46e-01	0	40	104	0	68	15264
2026-01-03 02:47:59.13	289.85	39.53	-48.0	-61.0	3.8	8.46e-01	0	39	104	0	68	15243
2026-01-03 02:48:02.14	288.49	39.39	-48.0	-61.0	3.8	8.46e-01	0	40	104	0	68	15226
2026-01-03 02:48:05.15	287.15	39.22	-48.0	-61.0	3.8	8.47e-01	0	40	104	0	68	15267
2026-01-03 02:48:08.17	285.81	39.04	-48.0	-61.0	3.8	8.48e-01	0	40	104	0	68	15245
2026-01-03 02:48:11.18	284.50	38.84	-48.1	-61.0	3.8	8.47e-01	0	39	104	0	68	15240
2026-01-03 02:48:14.19	283.20	38.63	-48.1	-61.0	3.8	8.47e-01	0	40	104	0	68	15239
2026-01-03 02:48:17.20	281.92	38.40	-48.1	-61.0	3.8	8.48e-01	0	39	104	0	68	15265
2026-01-03 02:48:20.22	280.65	38.15	-48.1	-61.0	3.8	8.47e-01	0	40	104	0	68	15231
2026-01-03 02:48:23.23	279.41	37.89	-48.2	-61.0	3.8	8.47e-01	0	40	104	0	68	15235
2026-01-03 02:48:26.24	278.19	37.62	-48.2	-61.0	3.8	8.47e-01	0	40	104	0	68	15239
2026-01-03 02:48:29.26	276.98	37.34	-48.2	-60.9	3.8	8.46e-01	0	40	104	0	68	15213
2026-01-03 02:48:32.27	275.80	37.05	-48.2	-60.9	3.8	8.47e-01	0	40	104	0	68	15220
2026-01-03 02:48:35.29	274.64	36.74	-48.3	-61.0	3.8	8.47e-01	0	40	104	0	68	15265
2026-01-03 02:48:38.29	273.50	36.42	-48.3	-61.0	3.8	8.49e-01	0	40	104	0	68	15226
2026-01-03 02:48:41.30	272.39	36.10	-48.3	-61.0	3.8	8.47e-01	0	40	104	0	68	15238
2026-01-03 02:48:44.31	271.29	35.77	-48.3	-61.0	3.8	8.46e-01	0	39	104	0	68	15251
2026-01-03 02:48:47.32	270.22	35.42	-48.3	-60.9	3.8	8.46e-01	0	40	104	0	68	15176
2026-01-03 02:48:50.33	269.17	35.07	-48.3	-60.9	3.8	8.47e-01	0	40	104	0	68	15200
2026-01-03 02:48:53.34	268.15	34.72	-48.4	-60.9	3.8	8.48e-01	0	39	104	0	68	15223
2026-01-03 02:48:56.36	267.14	34.36	-48.4	-60.9	3.8	8.46e-01	0	40	104	0	68	15188
2026-01-03 02:48:59.37	266.16	33.99	-48.4	-60.9	3.8	8.46e-01	0	40	104	0	68	15082
2026-01-03 02:49:02.38	265.20	33.62	-48.4	-60.9	3.8	8.46e-01	0	40	104	0	68	15140
2026-01-03 02:49:05.40	264.26	33.24	-48.4	-60.9	3.8	8.48e-01	0	40	104	0	68	15219
2026-01-03 02:49:08.41	263.35	32.86	-48.4	-60.9	3.8	8.47e-01	0	40	104	0	68	15217
2026-01-03 02:49:11.42	262.45	32.47	-48.4	-60.9	3.8	8.46e-01	0	39	104	0	68	15212
2026-01-03 02:49:14.44	261.58	32.08	-48.4	-61.0	3.8	8.46e-01	0	40	104	0	68	15229
2026-01-03 02:49:17.45	260.73	31.69	-48.4	-60.9	3.8	8.47e-01	0	40	104	0	68	15164
2026-01-03 02:49:20.46	259.89	31.30	-48.4	-60.9	3.8	8.47e-01	0	40	104	0	68	15165
2026-01-03 02:49:23.47	259.08	30.91	-48.4	-60.9	3.8	8.46e-01	0	40	104	0	68	15182
2026-01-03 02:49:26.48	258.29	30.52	-48.4	-60.9	3.8	8.47e-01	0	40	104	0	68	15147
2026-01-03 02:49:29.49	257.52	30.12	-48.4	-60.9	3.8	8.47e-01	0	40	104	0	68	15154
2026-01-03 02:49:32.51	256.76	29.73	-48.4	-60.9	3.8	8.46e-01	0	40	104	0	68	15128
2026-01-03 02:49:35.52	256.02	29.33	-48.4	-60.9	3.8	8.47e-01	0	39	104	0	68	15169
2026-01-03 02:49:38.53	255.31	28.94	-48.4	-60.9	3.8	8.48e-01	0	40	104	0	68	15129
2026-01-03 02:49:41.55	254.60	28.54	-48.4	-60.9	3.8	8.48e-01	0	40	104	0	68	15135
2026-01-03 02:49:44.56	253.92	28.15	-48.4	-60.9	3.8	8.46e-01	0	40	104	0	68	15180
2026-01-03 02:49:47.57	253.25	27.76	-48.4	-60.9	3.8	8.46e-01	0	40	104	0	68	15142
2026-01-03 02:49:50.58	252.60	27.37	-48.4	-60.9	3.8	8.47e-01	0	40	104	0	68	15153
2026-01-03 02:49:53.60	251.97	26.98	-48.4	-60.9	3.8	8.46e-01	0	40	104	0	68	15156
2026-01-03 02:49:56.61	251.35	26.59	-48.4	-60.9	3.8	8.46e-01	0	40	104	0	68	15060
2026-01-03 02:49:59.62	250.74	26.21	-48.4	-60.9	3.8	8.47e-01	0	40	104	0	68	15133
2026-01-03 02:50:02.63	250.15	25.83	-48.4	-60.9	3.8	8.47e-01	0	40	104	0	68	15074
2026-01-03 02:50:05.65	249.58	25.44	-48.4	-60.9	3.8	8.48e-01	0	40	104	0	68	15108
2026-01-03 02:50:08.66	249.02	25.06	-48.4	-60.9	3.8	8.48e-01	0	40	104	0	68	15166
2026-01-03 02:50:11.67	248.47	24.69	-48.4	-60.9	3.8	8.47e-01	0	40	104	0	68	15145
2026-01-03 02:50:14.69	247.93	24.31	-48.4	-60.9	3.8	8.47e-01	0	40	104	0	68	15114
2026-01-03 02:50:17.70	247.41	23.94	-48.4	-60.9	3.8	8.49e-01	0	40	104	0	68	15102
2026-01-03 02:50:20.71	246.90	23.57	-48.4	-60.9	3.8	8.46e-01	0	40	104	0	68	15172
2026-01-03 02:50:23.72	246.40	23.21	-48.4	-60.9	3.8	8.47e-01	0	40	104	0	68	15105
2026-01-03 02:50:26.73	245.91	22.85	-48.4	-60.9	3.8	8.47e-01	0	40	104	0	68	15088
2026-01-03 02:50:29.75	245.44	22.49	-48.4	-60.9	3.8	8.47e-01	0	40	104	0	68	15080
2026-01-03 02:50:32.76	244.97	22.13	-48.4	-60.9	3.8	8.48e-01	0	40	104	0	68	15118
2026-01-03 02:50:35.77	244.52	21.78	-48.4	-60.9	3.8	8.47e-01	0	39	104	0	68	15148
2026-01-03 02:50:38.78	244.07	21.42	-48.4	-60.9	3.8	8.47e-01	0	40	104	0	68	15099
2026-01-03 02:50:41.80	243.64	21.08	-48.4	-60.8	3.8	8.48e-01	0	40	104	0	68	15041
2026-01-03 02:50:44.80	243.22	20.73	-48.4	-60.9	3.8	8.48e-01	0	40	104	0	68	15058
2026-01-03 02:50:47.81	242.80	20.39	-48.4	-60.9	3.8	8.46e-01	0	40	104	0	68	15058
2026-01-03 02:50:50.83	242.40	20.05	-48.4	-60.9	3.8	8.47e-01	0	40	104	0	68	15089
2026-01-03 02:50:53.84	242.00	19.72	-48.4	-60.9	3.8	8.48e-01	0	40	104	0	68	15095
2026-01-03 02:50:56.85	241.61	19.38	-48.4	-60.9	3.8	8.48e-01	0	40	104	0	68	15073
2026-01-03 02:50:59.87	241.23	19.05	-48.4	-60.8	3.8	8.47e-01	0	40	104	0	68	15047
2026-01-03 02:51:02.88	240.86	18.73	-48.4	-60.8	3.8	8.48e-01	0	40	104	0	68	15016
2026-01-03 02:51:05.89	240.50	18.40	-48.4	-60.8	3.8	8.47e-01	0	40	104	0	68	15035
2026-01-03 02:51:08.90	240.14	18.08	-48.4	-60.9	3.8	8.47e-01	0	40	104	0	68	15101
2026-01-03 02:51:11.92	239.80	17.76	-48.4	-60.9	3.8	8.47e-01	0	40	104	0	68	15095
2026-01-03 02:51:14.93	239.46	17.45	-48.4	-60.9	3.8	8.46e-01	0	40	104	0	68	15083
2026-01-03 02:51:17.94	239.12	17.14	-48.4	-60.9	3.8	8.47e-01	0	40	104	0	68	15108
2026-01-03 02:51:20.96	238.79	16.83	-48.4	-60.8	3.8	8.47e-01	0	40	104	0	68	14999
2026-01-03 02:51:23.97	238.48	16.52	-48.4	-60.8	3.8	8.46e-01	0	40	104	0	68	15045
2026-01-03 02:51:26.98	238.16	16.22	-48.4	-60.8	3.8	8.47e-01	0	39	104	0	68	15032
2026-01-03 02:51:29.99	237.86	15.92	-48.4	-60.8	3.8	8.47e-01	0	40	104	0	68	15049
2026-01-03 02:51:33.01	237.55	15.62	-48.4	-60.8	3.8	8.47e-01	0	40	104	0	68	15030
2026-01-03 02:51:36.02	237.26	15.33	-48.4	-60.8	3.8	8.46e-01	0	40	104	0	68	14999
2026-01-03 02:51:39.03	236.97	15.04	-48.4	-60.8	3.8	8.47e-01	0	40	104	0	68	15025
2026-01-03 02:51:42.04	236.69	14.75	-48.4	-60.8	3.8	8.48e-01	0	39	104	0	68	15042
2026-01-03 02:51:45.06	236.41	14.46	-48.4	-60.9	3.8	8.46e-01	0	40	104	0	68	15052
2026-01-03 02:51:48.07	236.14	14.18	-48.4	-60.8	3.8	8.47e-01	0	40	104	0	68	15039
2026-01-03 02:51:51.08	235.87	13.90	-48.4	-60.8	3.8	8.47e-01	0	40	104	0	68	14964
2026-01-03 02:51:54.10	235.61	13.62	-48.3	-60.8	3.8	8.47e-01	0	40	104	0	68	15026
2026-01-03 02:51:57.11	235.35	13.34	-48.3	-60.8	3.8	8.47e-01	0	40	104	0	68	15025
2026-01-03 02:52:00.12	235.10	13.07	-48.3	-60.8	3.8	8.47e-01	0	40	104	0	68	14941
2026-01-03 02:52:03.14	234.85	12.80	-48.3	-60.8	3.8	8.45e-01	0	39	104	0	68	15033
2026-01-03 02:52:06.15	234.61	12.53	-48.3	-60.8	3.8	8.46e-01	0	39	104	0	68	14965
2026-01-03 02:52:09.16	234.37	12.27	-48.3	-60.8	3.8	8.48e-01	0	40	104	0	68	14997
2026-01-03 02:52:12.18	234.14	12.00	-48.4	-60.8	3.8	8.46e-01	0	40	104	0	68	14981
2026-01-03 02:52:15.19	233.91	11.74	-48.4	-60.8	3.8	8.48e-01	0	39	104	0	68	15016
2026-01-03 02:52:18.20	233.69	11.48	-48.4	-60.8	3.8	8.46e-01	0	40	104	0	68	14985
2026-01-03 02:52:21.22	233.46	11.23	-48.4	-60.8	3.8	8.47e-01	0	40	104	0	68	14950
2026-01-03 02:52:24.23	233.25	10.97	-48.4	-60.8	3.8	8.46e-01	0	39	104	0	68	14978
2026-01-03 02:52:27.24	233.03	10.72	-47.7	-60.5	3.8	8.48e-01	0	40	104	0	67	15353
2026-01-03 02:52:30.26	232.82	10.47	-48.1	-60.3	3.8	8.47e-01	0	40	104	0	66	15901
2026-01-03 02:52:33.27	232.62	10.22	-47.7	-60.2	3.8	8.47e-01	0	40	104	0	65	16685
2026-01-03 02:52:36.28	232.41	9.98	-48.4	-59.6	3.8	8.46e-01	0	40	104	0	67	13873
2026-01-03 02:52:39.32	232.21	9.73	-45.2	-49.2	10.3	3.24e-02	0	40	0	14680064	62	5574
2026-01-03 02:52:42.38	232.01	9.49	-45.6	-49.8	9.6	7.58e-02	0	40	0	31457280	63	5607
2026-01-03 02:52:45.48	231.82	9.24	-40.2	-42.3	17.2	0.00e+00	0	40	0	49283072	52	4485
2026-01-03 02:52:48.34	231.64	9.02	-39.9	-42.0	17.7	0.00e+00	0	40	0	65011712	51	4564
2026-01-03 02:52:51.49	231.44	8.77	-48.6	-61.3	3.8	8.47e-01	0	40	104	68157440	68	15858
2026-01-03 02:52:54.36	231.27	8.55	-49.2	-61.4	3.8	8.47e-01	0	40	104	68157440	69	15187
2026-01-03 02:52:57.60	231.08	8.30	-49.4	-61.5	3.8	8.48e-01	0	39	104	68157440	69	15288
2026-01-03 02:53:00.53	230.90	8.07	-49.4	-61.5	3.8	8.47e-01	0	40	104	68157440	69	15314
2026-01-03 02:53:03.68	230.72	7.84	-49.3	-61.5	3.8	8.46e-01	0	40	104	68157440	69	15333
2026-01-03 02:53:06.55	230.56	7.62	-49.3	-61.5	3.8	8.47e-01	0	40	104	68157440	69	15285
2026-01-03 02:53:09.70	230.38	7.39	-49.2	-61.4	3.8	8.48e-01	0	40	104	68157440	69	15211
2026-01-03 02:53:12.57	230.22	7.17	-49.2	-61.4	3.8	8.48e-01	0	40	104	68157440	69	15221
2026-01-03 02:53:15.73	230.05	6.94	-49.2	-61.4	3.8	8.48e-01	0	40	104	68157440	69	15208
2026-01-03 02:53:18.60	229.90	6.73	-49.1	-61.5	3.8	8.46e-01	0	39	104	68157440	69	15228
2026-01-03 02:53:21.75	229.74	6.51	-49.1	-61.4	3.8	8.46e-01	0	39	104	68157440	69	15179
2026-01-03 02:53:24.62	229.59	6.30	-49.1	-61.4	3.8	8.47e-01	0	39	104	68157440	69	15213
2026-01-03 02:53:27.78	229.43	6.07	-49.1	-61.5	3.8	8.47e-01	0	39	104	68157440	69	15285
2026-01-03 02:53:30.65	229.28	5.87	-49.1	-61.4	3.8	8.47e-01	0	40	104	68157440	69	15196
2026-01-03 02:53:33.80	229.13	5.65	-49.1	-61.4	3.8	8.47e-01	0	40	104	68157440	69	15194
2026-01-03 02:53:36.67	228.99	5.45	-49.1	-61.4	3.8	8.46e-01	0	39	104	68157440	69	15197
2026-01-03 02:53:39.83	228.84	5.23	-49.1	-61.4	3.8	8.47e-01	0	39	104	68157440	69	15183
2026-01-03 02:53:42.70	228.70	5.04	-49.1	-61.4	3.8	8.48e-01	0	39	104	68157440	69	15191

#Closed at: 2026-01-03 02:53:44
#Recorded file [68 MB]: D:/Data/31040_260103_054130.dat