passes_logs/2026/01/03/T1/T1__20260103_070311_FENGYUN_3G_rec.log

#Pass ID: 20260103_070311_FENGYUN 3G
#Satellite: FENGYUN 3G
#Configuration: FENGYUN 3G
#almurnet v.1.7.20251203
#Start time: 2026-01-03 07:03:14

#Version: 2.0.20230620
#Station: T1
#Location: 37.570604 lon 55.790049 lat
#TLE: 1 56232U 23055A   26002.31058000  .00046172  00000+0  73618-3 0  9997
#TLE: 2 56232  49.9934 121.3649 0004156 328.0230  32.0484 15.52711916154221

#Time	Az	El	Level	Level2	SNR	BER	BlckErr	Temp	State	Recorded	gain1	gain2
2026-01-03 07:03:14.17	253.49	5.17	-52.5	-71.5	3.8	8.46e-01	0	38	0	0	76	32246
2026-01-03 07:03:16.17	253.14	5.28	-52.3	-71.4	3.8	8.47e-01	0	38	104	0	76	31839
2026-01-03 07:03:18.18	252.79	5.39	-52.3	-71.3	3.8	8.46e-01	0	38	104	0	76	31714
2026-01-03 07:03:20.19	252.43	5.49	-52.0	-71.0	3.8	8.46e-01	0	38	104	0	74	34101
2026-01-03 07:03:22.19	252.08	5.60	-52.5	-71.5	3.8	8.47e-01	0	38	104	0	75	34139
2026-01-03 07:03:24.20	251.71	5.71	-52.5	-71.6	3.8	8.47e-01	0	38	104	0	75	34576
2026-01-03 07:03:26.21	251.35	5.82	-52.5	-71.6	3.8	8.46e-01	0	38	104	0	75	34530
2026-01-03 07:03:28.22	250.98	5.93	-52.4	-71.5	3.8	8.48e-01	0	38	104	0	75	34113
2026-01-03 07:03:30.23	250.60	6.03	-52.3	-71.4	3.8	8.46e-01	0	38	104	0	75	33723
2026-01-03 07:03:32.24	250.22	6.14	-52.3	-71.2	3.8	8.48e-01	0	38	104	0	75	33026
2026-01-03 07:03:34.24	249.84	6.25	-52.1	-71.1	3.8	8.47e-01	0	39	104	0	74	34544
2026-01-03 07:03:36.25	249.46	6.35	-52.0	-71.0	3.8	8.46e-01	0	38	104	0	74	34226
2026-01-03 07:03:38.26	249.07	6.46	-51.9	-71.0	3.8	8.46e-01	0	38	104	0	75	32380
2026-01-03 07:03:40.27	248.67	6.57	-51.9	-70.9	3.8	8.47e-01	0	38	104	0	75	32118
2026-01-03 07:03:42.28	248.28	6.67	-52.1	-71.1	3.8	8.46e-01	0	38	104	0	75	32744
2026-01-03 07:03:44.29	247.87	6.78	-52.2	-71.2	3.8	8.47e-01	0	38	104	0	75	33117
2026-01-03 07:03:46.30	247.47	6.88	-52.2	-71.2	3.8	8.47e-01	0	38	104	0	75	33287
2026-01-03 07:03:48.30	247.06	6.99	-52.1	-71.1	3.8	8.47e-01	0	38	104	0	75	32899
2026-01-03 07:03:50.32	246.64	7.09	-51.9	-70.6	3.8	8.46e-01	0	38	104	0	75	31083
2026-01-03 07:03:52.32	246.23	7.20	-51.9	-70.6	3.8	8.47e-01	0	38	104	0	75	31072
2026-01-03 07:03:54.33	245.80	7.30	-51.9	-70.8	3.8	8.47e-01	0	39	104	0	75	31532
2026-01-03 07:03:56.34	245.38	7.40	-51.9	-70.8	3.8	8.47e-01	0	39	104	0	75	31671
2026-01-03 07:03:58.35	244.94	7.50	-51.9	-70.8	3.8	8.45e-01	0	38	104	0	75	31756
2026-01-03 07:04:00.36	244.51	7.61	-51.9	-70.6	3.8	8.47e-01	0	39	104	0	75	31023
2026-01-03 07:04:02.37	244.07	7.71	-51.9	-70.7	3.8	8.48e-01	0	39	104	0	75	31260
2026-01-03 07:04:04.38	243.63	7.81	-51.9	-70.7	3.8	8.47e-01	0	39	104	0	75	31118
2026-01-03 07:04:06.39	243.18	7.91	-51.9	-70.8	3.8	8.47e-01	0	39	104	0	75	31797
2026-01-03 07:04:08.40	242.73	8.01	-51.9	-70.9	3.8	8.47e-01	0	39	104	0	75	32154
2026-01-03 07:04:10.41	242.27	8.10	-51.9	-70.9	3.8	8.46e-01	0	39	104	0	75	32137
2026-01-03 07:04:12.41	241.81	8.20	-51.9	-70.9	3.8	8.47e-01	0	39	104	0	75	32132
2026-01-03 07:04:14.42	241.35	8.30	-51.9	-70.6	3.8	8.47e-01	0	39	104	0	75	30959
2026-01-03 07:04:16.43	240.88	8.39	-51.9	-69.8	3.8	8.48e-01	0	39	104	0	75	28072
2026-01-03 07:04:18.44	240.40	8.49	-51.9	-70.7	3.8	8.47e-01	0	39	104	0	75	31089
2026-01-03 07:04:20.45	239.93	8.58	-52.0	-70.4	3.8	8.46e-01	0	39	104	0	75	30296
2026-01-03 07:04:22.45	239.45	8.68	-52.0	-70.7	3.8	8.46e-01	0	39	104	0	75	31216
2026-01-03 07:04:24.46	238.96	8.77	-52.0	-70.6	3.8	8.47e-01	0	38	104	0	75	30787
2026-01-03 07:04:26.47	238.47	8.86	-51.9	-70.0	3.8	8.49e-01	0	39	104	0	75	28891
2026-01-03 07:04:28.48	237.98	8.95	-51.6	-63.4	6.2	7.72e-01	0	39	0	0	75	13558
2026-01-03 07:04:30.49	237.48	9.04	-50.4	-57.0	12.7	1.01e-01	0	39	0	0	72	7688
2026-01-03 07:04:32.50	236.97	9.13	-51.0	-59.2	10.0	3.56e-04	0	39	0	0	73	9340
2026-01-03 07:04:34.50	236.47	9.21	-49.0	-53.5	17.5	1.10e-06	0	39	0	0	68	6462
2026-01-03 07:04:36.50	235.96	9.30	-45.9	-48.7	21.4	2.36e-01	0	39	0	0	63	4935
2026-01-03 07:04:38.51	235.45	9.38	-45.5	-48.3	21.5	0.00e+00	0	39	0	0	63	4711
2026-01-03 07:04:40.51	234.93	9.47	-45.7	-48.4	21.4	0.00e+00	0	39	0	0	62	5089
2026-01-03 07:04:42.52	234.41	9.55	-45.1	-47.7	22.2	0.00e+00	0	39	0	0	62	4692
2026-01-03 07:04:44.52	233.88	9.63	-44.3	-46.8	23.0	0.00e+00	0	39	0	0	60	4707
2026-01-03 07:04:46.53	233.35	9.71	-44.0	-46.4	23.4	0.00e+00	0	39	0	0	60	4526
2026-01-03 07:04:48.53	232.82	9.78	-44.3	-46.8	23.2	0.00e+00	0	39	0	0	59	4986
2026-01-03 07:04:50.54	232.28	9.86	-44.2	-46.6	23.2	1.10e-06	0	39	0	0	58	5183
2026-01-03 07:04:52.54	231.74	9.93	-43.8	-46.2	23.5	0.00e+00	0	39	0	0	59	4696
2026-01-03 07:04:54.55	231.20	10.01	-44.2	-46.5	23.7	0.00e+00	0	39	0	0	59	4850
2026-01-03 07:04:56.55	230.65	10.08	-44.5	-46.9	23.4	0.00e+00	0	38	0	0	59	5057
2026-01-03 07:04:58.56	230.10	10.15	-44.5	-46.8	23.6	0.00e+00	0	38	0	0	59	5029
2026-01-03 07:05:00.57	229.54	10.21	-44.2	-46.5	23.9	0.00e+00	0	39	0	0	59	4839
2026-01-03 07:05:02.57	228.98	10.28	-43.9	-46.2	24.1	0.00e+00	0	39	0	0	59	4697
2026-01-03 07:05:04.58	228.42	10.34	-44.0	-46.3	24.0	0.00e+00	0	38	0	0	59	4729
2026-01-03 07:05:06.58	227.85	10.40	-44.2	-46.5	23.7	0.00e+00	0	38	0	0	59	4854
2026-01-03 07:05:08.70	227.25	10.47	-44.5	-46.9	23.5	0.00e+00	0	39	0	0	59	5057
2026-01-03 07:05:10.70	226.68	10.53	-44.5	-46.9	23.4	0.00e+00	0	39	0	0	59	5066
2026-01-03 07:05:12.71	226.11	10.58	-44.2	-46.5	23.6	0.00e+00	0	39	0	0	59	4855
2026-01-03 07:05:14.71	225.53	10.64	-43.6	-45.8	24.3	0.00e+00	0	39	0	0	58	4734
2026-01-03 07:05:16.80	224.93	10.69	-43.5	-45.7	24.4	0.00e+00	0	38	0	0	58	4689
2026-01-03 07:05:18.89	224.32	10.74	-43.6	-45.9	24.0	0.00e+00	0	39	0	0	58	4799
2026-01-03 07:05:20.96	223.71	10.79	-43.2	-45.5	24.5	0.00e+00	0	38	0	0	58	4548
2026-01-03 07:05:22.97	223.12	10.84	-43.4	-45.7	24.3	0.00e+00	0	39	0	0	58	4670
2026-01-03 07:05:24.97	222.53	10.88	-44.0	-46.3	23.7	0.00e+00	0	39	0	0	58	5040
2026-01-03 07:05:26.98	221.94	10.92	-43.8	-46.2	23.8	0.00e+00	0	39	0	0	59	4654
2026-01-03 07:05:28.99	221.34	10.96	-43.4	-45.7	24.1	0.00e+00	0	39	0	0	58	4682
2026-01-03 07:05:30.99	220.74	11.00	-43.9	-46.3	23.8	1.10e-06	0	39	0	0	58	5003
2026-01-03 07:05:33.00	220.14	11.03	-43.8	-46.2	23.9	0.00e+00	0	39	0	0	58	4945
2026-01-03 07:05:35.01	219.54	11.06	-43.6	-45.9	24.2	0.00e+00	0	39	0	0	58	4785
2026-01-03 07:05:37.01	218.94	11.09	-43.6	-45.8	24.2	0.00e+00	0	39	0	0	58	4743
2026-01-03 07:05:39.01	218.34	11.12	-43.4	-45.7	24.3	0.00e+00	0	39	0	0	58	4652
2026-01-03 07:05:41.02	217.73	11.14	-43.3	-45.5	24.3	0.00e+00	0	39	0	0	58	4586
2026-01-03 07:05:43.02	217.12	11.17	-43.1	-45.3	24.5	0.00e+00	0	39	0	0	58	4486
2026-01-03 07:05:45.02	216.52	11.19	-43.6	-45.9	24.2	0.00e+00	0	39	0	0	58	4763
2026-01-03 07:05:47.03	215.91	11.20	-43.5	-45.8	24.4	0.00e+00	0	39	0	0	58	4726
2026-01-03 07:05:49.03	215.30	11.22	-43.7	-45.9	24.2	0.00e+00	0	39	0	0	58	4785
2026-01-03 07:05:51.04	214.68	11.23	-43.4	-45.6	24.5	0.00e+00	0	39	0	0	58	4646
2026-01-03 07:05:53.05	214.07	11.24	-43.3	-45.5	24.6	0.00e+00	0	38	0	0	58	4583
2026-01-03 07:05:55.05	213.46	11.25	-43.4	-45.6	24.3	0.00e+00	0	39	0	0	58	4632
2026-01-03 07:05:57.07	212.84	11.25	-42.9	-45.1	24.5	0.00e+00	0	38	0	0	57	4641
2026-01-03 07:05:59.53	212.09	11.26	-43.7	-46.0	24.0	0.00e+00	0	39	0	0	58	4838
2026-01-03 07:06:01.53	211.48	11.26	-43.5	-45.8	24.2	0.00e+00	0	39	0	0	58	4724
2026-01-03 07:06:03.54	210.86	11.25	-43.6	-45.9	24.0	0.00e+00	0	39	0	0	58	4787
2026-01-03 07:06:05.54	210.25	11.25	-43.8	-46.1	23.8	0.00e+00	0	38	0	0	58	4897
2026-01-03 07:06:07.55	209.64	11.24	-43.6	-45.9	24.2	0.00e+00	0	39	0	0	58	4761
2026-01-03 07:06:09.71	208.98	11.23	-43.9	-46.2	23.8	0.00e+00	0	39	0	0	58	4968
2026-01-03 07:06:11.75	208.36	11.21	-43.6	-45.9	23.9	0.00e+00	0	39	0	0	58	4774
2026-01-03 07:06:13.82	207.73	11.20	-43.5	-45.8	24.1	0.00e+00	0	39	0	0	58	4709
2026-01-03 07:06:15.82	207.12	11.18	-43.4	-45.6	24.4	0.00e+00	0	39	0	0	58	4637
2026-01-03 07:06:17.91	206.48	11.16	-43.2	-45.5	24.5	0.00e+00	0	39	0	0	58	4565
2026-01-03 07:06:20.10	205.82	11.13	-43.4	-45.6	24.2	0.00e+00	0	38	0	0	58	4651
2026-01-03 07:06:22.14	205.20	11.11	-43.2	-45.4	24.4	0.00e+00	0	39	0	0	58	4515
2026-01-03 07:06:24.21	204.58	11.08	-43.2	-45.4	24.4	0.00e+00	0	38	0	0	58	4531
2026-01-03 07:06:26.22	203.98	11.05	-43.2	-45.5	24.3	0.00e+00	0	38	0	0	58	4574
2026-01-03 07:06:28.48	203.30	11.01	-43.2	-45.5	24.3	0.00e+00	0	39	0	0	58	4578
2026-01-03 07:06:30.49	202.70	10.97	-43.6	-45.9	24.0	0.00e+00	0	39	0	0	58	4802
2026-01-03 07:06:32.50	202.10	10.93	-43.5	-45.8	24.1	0.00e+00	0	38	0	0	58	4725
2026-01-03 07:06:34.51	201.50	10.89	-43.6	-45.9	24.0	0.00e+00	0	38	0	0	58	4777
2026-01-03 07:06:36.52	200.91	10.85	-43.7	-46.1	23.8	0.00e+00	0	38	0	0	58	4875
2026-01-03 07:06:38.68	200.27	10.80	-43.5	-45.8	24.1	0.00e+00	0	39	0	0	58	4728
2026-01-03 07:06:41.26	199.52	10.74	-43.2	-45.5	24.3	0.00e+00	0	39	0	0	58	4560
2026-01-03 07:06:43.26	198.94	10.69	-43.1	-45.3	24.4	0.00e+00	0	38	0	0	58	4489
2026-01-03 07:06:45.35	198.33	10.64	-42.7	-45.0	24.6	0.00e+00	0	39	0	0	57	4558
2026-01-03 07:06:47.36	197.75	10.58	-43.0	-45.3	24.3	0.00e+00	0	39	0	0	57	4749
2026-01-03 07:06:49.36	197.18	10.53	-43.4	-45.7	24.2	0.00e+00	0	38	0	0	57	4970
2026-01-03 07:06:51.36	196.60	10.47	-43.5	-45.9	24.1	0.00e+00	0	39	0	0	57	5060
2026-01-03 07:06:53.48	196.00	10.41	-43.6	-46.0	23.9	0.00e+00	0	39	0	0	58	4827
2026-01-03 07:06:55.49	195.43	10.34	-43.3	-45.6	24.2	0.00e+00	0	38	0	0	58	4614
2026-01-03 07:06:57.49	194.87	10.28	-43.2	-45.6	24.2	0.00e+00	0	39	0	0	58	4601
2026-01-03 07:06:59.50	194.31	10.21	-43.2	-45.5	24.2	0.00e+00	0	39	0	0	58	4582
2026-01-03 07:07:01.50	193.75	10.15	-43.0	-45.3	24.3	0.00e+00	0	38	0	0	58	4467
2026-01-03 07:07:03.50	193.20	10.08	-43.3	-45.6	24.0	0.00e+00	0	39	0	0	58	4639
2026-01-03 07:07:05.51	192.65	10.01	-43.6	-46.0	23.7	0.00e+00	0	38	0	0	58	4869
2026-01-03 07:07:07.52	192.10	9.93	-43.8	-46.3	23.5	0.00e+00	0	38	0	0	58	5008
2026-01-03 07:07:09.67	191.52	9.85	-43.8	-46.4	23.5	0.00e+00	0	38	0	0	58	5069
2026-01-03 07:07:11.68	190.98	9.78	-43.7	-46.2	23.8	0.00e+00	0	39	0	0	58	4930
2026-01-03 07:07:13.68	190.45	9.70	-43.9	-46.3	23.7	0.00e+00	0	38	0	0	58	5038
2026-01-03 07:07:15.69	189.92	9.62	-43.9	-46.3	23.7	0.00e+00	0	38	0	0	58	5026
2026-01-03 07:07:17.69	189.39	9.54	-43.8	-46.2	23.8	0.00e+00	0	38	0	0	58	4948
2026-01-03 07:07:19.72	188.86	9.46	-43.9	-46.3	23.7	0.00e+00	0	39	0	0	58	5025
2026-01-03 07:07:21.69	188.35	9.38	-43.9	-46.3	23.7	0.00e+00	0	39	0	0	58	5016
2026-01-03 07:07:23.89	187.79	9.28	-44.0	-46.4	23.5	0.00e+00	0	38	0	0	58	5065
2026-01-03 07:07:25.89	187.28	9.20	-44.0	-46.4	23.6	0.00e+00	0	38	0	0	58	5068
2026-01-03 07:07:27.97	186.75	9.11	-43.9	-46.3	23.6	0.00e+00	0	39	0	0	58	5015
2026-01-03 07:07:30.21	186.19	9.01	-44.1	-46.4	23.5	0.00e+00	0	39	0	0	58	5091
2026-01-03 07:07:32.41	185.65	8.91	-52.0	-70.9	3.8	5.94e-01	0	39	104	0	75	32168
2026-01-03 07:07:34.52	185.13	8.82	-52.5	-71.5	3.8	8.46e-01	0	38	104	0	75	34192
2026-01-03 07:07:36.70	184.60	8.72	-52.8	-71.7	3.8	8.47e-01	0	38	104	0	76	32942
2026-01-03 07:07:38.71	184.11	8.62	-52.9	-71.7	3.8	8.48e-01	0	38	104	0	76	33004
2026-01-03 07:07:40.72	183.63	8.53	-53.0	-71.7	3.8	8.48e-01	0	39	104	0	76	33132
2026-01-03 07:07:42.73	183.15	8.43	-53.0	-71.7	3.8	8.46e-01	0	39	104	0	76	33246
2026-01-03 07:07:44.74	182.68	8.34	-53.0	-71.7	3.8	8.47e-01	0	39	104	0	76	33104
2026-01-03 07:07:46.75	182.21	8.24	-53.0	-71.7	3.8	8.46e-01	0	38	104	0	76	32963
2026-01-03 07:07:48.77	181.74	8.14	-52.8	-71.6	3.8	8.47e-01	0	39	104	0	76	32926
2026-01-03 07:07:50.87	181.26	8.04	-53.0	-71.7	3.8	8.46e-01	0	38	104	0	76	33143
2026-01-03 07:07:52.88	180.81	7.94	-52.8	-71.7	3.8	8.48e-01	0	39	104	0	76	33206
2026-01-03 07:07:54.89	180.36	7.84	-53.0	-71.7	3.8	8.46e-01	0	39	104	0	76	33165
2026-01-03 07:07:56.90	179.91	7.74	-52.8	-71.7	3.8	8.46e-01	0	38	104	0	76	33000
2026-01-03 07:07:58.91	179.46	7.64	-52.7	-71.6	3.8	8.47e-01	0	38	104	0	76	32770
2026-01-03 07:08:00.92	179.03	7.54	-52.7	-71.6	3.8	8.48e-01	0	39	104	0	76	32883
2026-01-03 07:08:02.93	178.59	7.44	-52.7	-71.6	3.8	8.46e-01	0	38	104	0	76	32919
2026-01-03 07:08:04.94	178.16	7.33	-52.7	-71.6	3.8	8.48e-01	0	38	104	0	76	32887
2026-01-03 07:08:06.94	177.74	7.23	-52.7	-71.6	3.8	8.46e-01	0	39	104	0	76	32927
2026-01-03 07:08:08.95	177.31	7.13	-52.7	-71.6	3.8	8.46e-01	0	38	104	0	76	32860
2026-01-03 07:08:10.96	176.90	7.02	-52.7	-71.6	3.8	8.46e-01	0	39	104	0	76	32843
2026-01-03 07:08:12.97	176.48	6.92	-52.7	-71.7	3.8	8.46e-01	0	39	104	0	76	32937
2026-01-03 07:08:14.98	176.07	6.81	-52.7	-71.6	3.8	8.47e-01	0	38	104	0	76	32871
2026-01-03 07:08:16.99	175.67	6.71	-52.7	-71.6	3.8	8.47e-01	0	38	104	0	76	32825
2026-01-03 07:08:19.00	175.27	6.60	-52.7	-71.6	3.8	8.48e-01	0	39	104	0	76	32803
2026-01-03 07:08:21.01	174.87	6.49	-52.7	-71.6	3.8	8.47e-01	0	38	104	0	76	32789
2026-01-03 07:08:23.02	174.48	6.39	-52.7	-71.6	3.8	8.47e-01	0	39	104	0	76	32886
2026-01-03 07:08:25.02	174.09	6.28	-52.7	-71.7	3.8	8.46e-01	0	38	104	0	76	32941
2026-01-03 07:08:27.03	173.70	6.17	-52.7	-71.6	3.8	8.46e-01	0	39	104	0	76	32826
2026-01-03 07:08:29.04	173.32	6.07	-52.7	-71.6	3.8	8.46e-01	0	38	104	0	76	32721
2026-01-03 07:08:31.05	172.94	5.96	-52.7	-71.6	3.8	8.48e-01	0	39	104	0	76	32810
2026-01-03 07:08:33.06	172.57	5.85	-52.7	-71.6	3.8	8.47e-01	0	39	104	0	76	32739
2026-01-03 07:08:35.07	172.20	5.74	-52.7	-71.6	3.8	8.48e-01	0	38	104	0	76	32922
2026-01-03 07:08:37.07	171.83	5.64	-52.7	-71.6	3.8	8.47e-01	0	39	104	0	76	32615
2026-01-03 07:08:39.08	171.47	5.53	-52.7	-71.6	3.8	8.47e-01	0	39	104	0	76	32794
2026-01-03 07:08:41.09	171.11	5.42	-52.7	-71.6	3.8	8.47e-01	0	39	104	0	76	32927
2026-01-03 07:08:43.10	170.76	5.31	-52.7	-71.6	3.8	8.46e-01	0	39	104	0	76	32703
2026-01-03 07:08:45.11	170.41	5.20	-52.7	-71.6	3.8	8.47e-01	0	39	104	0	76	32681
2026-01-03 07:08:47.12	170.06	5.09	-52.7	-71.6	3.8	8.47e-01	0	39	104	0	76	32626
2026-01-03 07:08:49.13	169.72	4.98	-52.7	-71.6	3.8	8.47e-01	0	39	104	0	76	32652

#Closed at: 2026-01-03 07:08:51
#Recorded file [0 MB]: D:/Data/31040_260103_100314.dat