passes_logs/2026/01/03/T1/T1__20260103_095029_SUOMI_NPP_rec.log

#Pass ID: 20260103_095029_SUOMI NPP
#Satellite: SUOMI NPP
#Configuration: NPP
#almurnet v.1.7.20251203
#Start time: 2026-01-03 09:50:29

#Version: 2.0.20230620
#Station: T1
#Location: 37.570604 lon 55.790049 lat
#TLE: 1 37849U 11061A   26001.07732418  .00000182  00000+0  10735-3 0  9990
#TLE: 2 37849  98.7795 303.2470 0002580  87.2016 272.9455 14.19520779734739

#Time	Az	El	Level	Level2	SNR	BER	BlckErr	Temp	State	Recorded	gain1	gain2
2026-01-03 09:50:29.64	155.37	5.03	-52.7	-67.9	3.8	1.49e+00	0	41	0	0	77	20143
2026-01-03 09:50:33.65	155.35	5.32	-52.8	-67.9	3.8	1.49e+00	0	41	104	0	77	20272
2026-01-03 09:50:37.67	155.32	5.61	-52.7	-67.7	3.8	1.49e+00	0	41	104	0	77	19706
2026-01-03 09:50:41.69	155.29	5.91	-52.7	-66.7	3.8	1.49e+00	0	41	104	0	77	17611
2026-01-03 09:50:45.70	155.26	6.21	-52.9	-66.4	3.8	1.49e+00	0	41	104	0	77	16955
2026-01-03 09:50:49.72	155.23	6.51	-52.7	-67.0	3.8	1.49e+00	0	42	104	0	77	18169
2026-01-03 09:50:53.74	155.19	6.82	-52.7	-67.6	3.8	1.49e+00	0	42	104	0	77	19492
2026-01-03 09:50:57.76	155.16	7.13	-52.6	-66.5	3.8	1.49e+00	0	42	104	0	77	17268
2026-01-03 09:51:01.78	155.13	7.45	-52.2	-62.2	5.0	8.47e-01	0	42	0	2097152	76	11143
2026-01-03 09:51:05.79	155.09	7.76	-51.5	-57.9	8.8	4.95e-02	0	42	0	9437184	75	7202
2026-01-03 09:51:09.81	155.06	8.09	-50.6	-55.8	10.9	3.06e-03	0	42	0	16777216	73	6302
2026-01-03 09:51:13.82	155.02	8.41	-50.8	-56.4	10.2	4.12e-03	0	42	0	25165824	72	7170
2026-01-03 09:51:17.84	154.98	8.75	-52.2	-60.2	6.7	1.45e-01	0	42	0	32505856	75	9354
2026-01-03 09:51:21.86	154.94	9.08	-50.2	-55.0	11.7	4.43e-01	0	42	0	38797312	72	6120
2026-01-03 09:51:25.87	154.90	9.42	-49.7	-53.9	12.8	1.89e-01	0	42	0	42991616	71	5695
2026-01-03 09:51:29.88	154.86	9.76	-48.0	-51.1	15.7	0.00e+00	0	43	0	50331648	68	4905
2026-01-03 09:51:33.89	154.82	10.11	-47.4	-50.2	16.7	0.00e+00	0	43	0	58720256	66	4974
2026-01-03 09:51:37.90	154.78	10.47	-47.2	-50.1	16.7	0.00e+00	0	43	0	66060288	66	4889
2026-01-03 09:51:41.91	154.73	10.83	-47.1	-49.8	16.8	0.00e+00	0	43	0	73400320	66	4752
2026-01-03 09:51:45.92	154.68	11.19	-46.9	-49.7	16.9	0.00e+00	0	43	0	80740352	65	4957
2026-01-03 09:51:49.93	154.64	11.56	-47.0	-49.9	16.8	0.00e+00	0	43	0	88080384	65	5058
2026-01-03 09:51:53.94	154.59	11.94	-46.8	-49.6	16.9	0.00e+00	0	43	0	96468992	65	4910
2026-01-03 09:51:57.96	154.53	12.32	-46.6	-49.4	17.3	0.00e+00	0	43	0	103809024	65	4801
2026-01-03 09:52:01.97	154.48	12.71	-46.7	-49.4	17.5	0.00e+00	0	43	0	111149056	65	4778
2026-01-03 09:52:05.98	154.43	13.10	-46.3	-48.9	17.8	0.00e+00	0	43	0	118489088	64	4784
2026-01-03 09:52:09.99	154.37	13.50	-46.3	-48.9	17.9	0.00e+00	0	43	0	125829120	64	4779
2026-01-03 09:52:14.00	154.31	13.91	-46.4	-49.0	17.8	0.00e+00	0	43	0	133169152	64	4849
2026-01-03 09:52:18.01	154.25	14.32	-46.6	-49.3	17.4	0.00e+00	0	43	0	141557760	64	5016
2026-01-03 09:52:22.02	154.19	14.75	-46.2	-48.9	17.9	0.00e+00	0	43	0	148897792	64	4764
2026-01-03 09:52:26.03	154.13	15.17	-46.1	-48.6	18.1	0.00e+00	0	43	0	156237824	64	4638
2026-01-03 09:52:30.04	154.06	15.61	-45.8	-48.3	18.5	0.00e+00	0	43	0	163577856	63	4706
2026-01-03 09:52:34.05	153.99	16.05	-46.0	-48.4	18.4	0.00e+00	0	43	0	170917888	63	4802
2026-01-03 09:52:38.07	153.92	16.51	-45.8	-48.2	18.5	0.00e+00	0	43	0	178257920	63	4685
2026-01-03 09:52:42.08	153.85	16.97	-45.6	-47.9	19.0	0.00e+00	0	43	0	186646528	63	4511
2026-01-03 09:52:46.08	153.77	17.44	-45.5	-47.7	19.1	0.00e+00	0	43	0	193986560	62	4697
2026-01-03 09:52:50.10	153.69	17.92	-45.7	-48.0	18.8	0.00e+00	0	43	0	201326592	62	4867
2026-01-03 09:52:54.11	153.61	18.41	-45.8	-48.2	18.7	0.00e+00	0	43	0	208666624	62	4933
2026-01-03 09:52:58.11	153.53	18.90	-45.8	-48.1	19.0	0.00e+00	0	43	0	216006656	62	4890
2026-01-03 09:53:02.11	153.44	19.41	-45.5	-47.8	19.0	0.00e+00	0	43	0	223346688	62	4717
2026-01-03 09:53:06.11	153.35	19.93	-45.8	-48.2	18.7	0.00e+00	0	43	0	231735296	62	4929
2026-01-03 09:53:10.12	153.25	20.46	-45.9	-48.4	18.4	0.00e+00	0	43	0	239075328	63	4795
2026-01-03 09:53:14.12	153.15	21.00	-45.9	-48.2	18.8	0.00e+00	0	43	0	246415360	63	4682
2026-01-03 09:53:18.12	153.05	21.55	-45.8	-48.2	18.7	0.00e+00	0	43	0	253755392	63	4666
2026-01-03 09:53:22.12	152.94	22.11	-45.7	-48.0	18.9	0.00e+00	0	43	0	261095424	63	4585
2026-01-03 09:53:26.12	152.83	22.69	-45.8	-48.0	19.0	0.00e+00	0	44	0	268435456	63	4580
2026-01-03 09:53:30.13	152.72	23.28	-45.4	-47.6	19.3	0.00e+00	0	43	0	275775488	62	4650
2026-01-03 09:53:34.13	152.59	23.88	-45.5	-47.7	19.2	0.00e+00	0	43	0	284164096	62	4702
2026-01-03 09:53:38.13	152.47	24.50	-45.7	-48.0	18.9	0.00e+00	0	43	0	291504128	62	4838
2026-01-03 09:53:42.13	152.34	25.13	-46.0	-48.4	18.6	0.00e+00	0	44	0	298844160	64	4509
2026-01-03 09:53:46.13	152.20	25.78	-46.0	-48.4	18.7	0.00e+00	0	43	0	306184192	63	4778
2026-01-03 09:53:50.14	152.06	26.44	-45.7	-48.0	18.9	0.00e+00	0	43	0	313524224	63	4598
2026-01-03 09:53:54.15	151.90	27.12	-45.9	-48.3	18.6	0.00e+00	0	43	0	320864256	63	4730
2026-01-03 09:53:58.15	151.75	27.82	-46.2	-48.7	18.4	0.00e+00	0	43	0	329252864	64	4657
2026-01-03 09:54:02.16	151.58	28.54	-46.0	-48.5	18.6	0.00e+00	0	43	0	336592896	63	4830
2026-01-03 09:54:06.17	151.41	29.27	-46.5	-49.0	18.1	0.00e+00	0	43	0	343932928	63	5125
2026-01-03 09:54:10.17	151.23	30.03	-47.4	-50.2	16.9	0.00e+00	0	43	0	351272960	65	5276
2026-01-03 09:54:14.18	151.03	30.80	-47.1	-49.8	17.2	0.00e+00	0	43	0	358612992	66	4717
2026-01-03 09:54:18.18	150.83	31.59	-47.4	-50.0	17.2	0.00e+00	0	43	0	365953024	66	4852
2026-01-03 09:54:22.17	150.62	32.41	-48.3	-51.4	15.8	0.00e+00	0	44	0	374341632	67	5368
2026-01-03 09:54:26.17	150.40	33.24	-48.4	-51.3	15.9	0.00e+00	0	43	0	381681664	68	5040
2026-01-03 09:54:30.17	150.16	34.10	-49.4	-52.9	14.6	0.00e+00	0	44	0	389021696	69	5670
2026-01-03 09:54:34.18	149.91	34.99	-48.7	-52.0	15.1	7.00e-07	0	44	0	396361728	69	5134
2026-01-03 09:54:38.19	149.64	35.90	-48.0	-51.0	16.1	0.00e+00	0	44	0	403701760	67	5141
2026-01-03 09:54:42.20	149.36	36.84	-48.5	-51.7	15.4	0.00e+00	0	43	0	411041792	67	5569
2026-01-03 09:54:46.21	149.06	37.80	-47.3	-49.8	17.4	0.00e+00	0	43	0	419430400	66	4755
2026-01-03 09:54:50.22	148.74	38.79	-47.2	-49.9	17.3	0.00e+00	0	43	0	426770432	65	5056
2026-01-03 09:54:54.22	148.41	39.81	-48.4	-51.6	15.5	0.00e+00	0	43	0	434110464	67	5498
2026-01-03 09:54:58.23	148.04	40.86	-47.9	-50.8	16.2	0.00e+00	0	44	0	441450496	67	5037
2026-01-03 09:55:02.24	147.65	41.93	-48.3	-51.4	15.9	7.00e-07	0	44	0	448790528	67	5350
2026-01-03 09:55:06.25	147.24	43.04	-49.0	-52.4	15.0	7.00e-07	0	43	0	456130560	69	5341
2026-01-03 09:55:10.25	146.79	44.18	-48.9	-52.3	14.9	0.00e+00	0	44	0	464519168	69	5327
2026-01-03 09:55:14.27	146.31	45.36	-47.4	-50.0	17.2	0.00e+00	0	43	0	471859200	66	4844
2026-01-03 09:55:18.28	145.79	46.56	-47.8	-50.7	16.5	0.00e+00	0	44	0	479199232	66	5240
2026-01-03 09:55:22.29	145.23	47.80	-47.9	-50.8	16.3	0.00e+00	0	44	0	486539264	67	5031
2026-01-03 09:55:26.29	144.62	49.07	-46.5	-48.9	18.1	0.00e+00	0	44	0	493879296	64	4784
2026-01-03 09:55:30.30	143.95	50.38	-45.4	-47.5	19.7	0.00e+00	0	43	0	501219328	62	4594
2026-01-03 09:55:34.30	143.23	51.71	-45.7	-47.9	19.1	0.00e+00	0	44	0	509607936	63	4516
2026-01-03 09:55:38.31	142.43	53.08	-47.3	-50.0	17.0	0.00e+00	0	44	0	516947968	66	4847
2026-01-03 09:55:42.31	141.55	54.48	-45.8	-48.0	19.2	0.00e+00	0	44	0	524288000	63	4587
2026-01-03 09:55:46.31	140.58	55.91	-45.7	-48.0	19.0	0.00e+00	0	44	0	531628032	63	4584
2026-01-03 09:55:50.31	139.51	57.37	-46.0	-48.3	18.8	0.00e+00	0	44	0	538968064	62	5004
2026-01-03 09:55:54.32	138.31	58.86	-46.9	-49.6	17.6	0.00e+00	0	44	0	546308096	64	5197
2026-01-03 09:55:58.32	136.96	60.37	-46.5	-49.1	18.1	0.00e+00	0	43	0	553648128	64	4872
2026-01-03 09:56:02.33	135.44	61.91	-45.2	-47.4	19.5	0.00e+00	0	43	0	562036736	62	4535
2026-01-03 09:56:06.34	133.71	63.46	-45.3	-47.5	19.5	0.00e+00	0	43	0	569376768	61	4853
2026-01-03 09:56:10.36	131.73	65.02	-45.5	-47.7	19.3	0.00e+00	0	44	0	576716800	63	4417
2026-01-03 09:56:14.36	129.47	66.58	-46.8	-49.4	17.7	0.00e+00	0	43	0	584056832	64	5065
2026-01-03 09:56:18.37	126.84	68.13	-46.3	-48.7	18.4	0.00e+00	0	44	0	591396864	64	4678
2026-01-03 09:56:22.38	123.78	69.65	-48.3	-51.5	15.6	0.00e+00	0	44	0	598736896	67	5429
2026-01-03 09:56:26.39	120.19	71.14	-46.7	-49.1	18.1	0.00e+00	0	44	0	607125504	64	4921
2026-01-03 09:56:30.39	115.97	72.56	-48.9	-52.2	15.3	0.00e+00	0	43	0	614465536	68	5533
2026-01-03 09:56:34.39	110.98	73.89	-45.4	-47.6	19.4	0.00e+00	0	44	0	621805568	62	4638
2026-01-03 09:56:38.39	105.09	75.09	-46.7	-49.2	17.8	0.00e+00	0	44	0	629145600	65	4705
2026-01-03 09:56:42.40	98.19	76.13	-46.0	-48.3	18.7	0.00e+00	0	44	0	636485632	63	4722
2026-01-03 09:56:46.40	90.29	76.95	-46.9	-49.4	17.8	0.00e+00	0	43	0	643825664	65	4779
2026-01-03 09:56:50.41	81.47	77.50	-48.7	-51.8	15.7	0.00e+00	0	44	0	652214272	68	5333
2026-01-03 09:56:54.43	72.04	77.74	-47.7	-50.4	16.8	0.00e+00	0	43	0	659554304	66	5084
2026-01-03 09:56:58.44	62.52	77.64	-46.8	-49.3	17.8	0.00e+00	0	44	0	666894336	65	4719
2026-01-03 09:57:02.45	53.39	77.23	-49.5	-53.1	14.5	0.00e+00	0	44	0	674234368	69	5822
2026-01-03 09:57:06.46	45.05	76.52	-46.0	-48.3	18.8	0.00e+00	0	44	0	681574400	63	4734
2026-01-03 09:57:10.47	37.70	75.58	-48.8	-52.0	15.4	0.00e+00	0	44	0	688914432	68	5431
2026-01-03 09:57:14.48	31.38	74.44	-49.8	-53.8	13.5	3.00e-06	0	44	0	697303040	70	5968
2026-01-03 09:57:18.50	25.99	73.15	-46.6	-49.0	18.1	0.00e+00	0	44	0	704643072	64	4829
2026-01-03 09:57:22.51	21.45	71.77	-48.3	-51.2	16.4	0.00e+00	0	44	0	711983104	68	4937
2026-01-03 09:57:26.52	17.60	70.31	-48.5	-51.5	15.8	0.00e+00	0	44	0	719323136	69	4857
2026-01-03 09:57:30.54	14.31	68.79	-47.8	-50.7	16.5	0.00e+00	0	44	0	726663168	67	4940
2026-01-03 09:57:34.55	11.51	67.26	-47.3	-50.0	17.2	0.00e+00	0	44	0	735051776	66	4833
2026-01-03 09:57:38.56	9.10	65.70	-45.1	-47.3	19.9	0.00e+00	0	44	0	742391808	61	4713
2026-01-03 09:57:42.57	7.01	64.15	-46.8	-49.4	17.9	0.00e+00	0	44	0	749731840	64	5050
2026-01-03 09:57:46.58	5.19	62.60	-48.8	-52.3	15.1	0.00e+00	0	44	0	757071872	69	5283
2026-01-03 09:57:50.60	3.58	61.05	-48.4	-51.3	16.1	0.00e+00	0	44	0	764411904	68	5037
2026-01-03 09:57:54.61	2.16	59.54	-44.7	-46.8	20.3	0.00e+00	0	44	0	771751936	61	4472
2026-01-03 09:57:58.62	0.90	58.04	-45.6	-47.8	19.6	0.00e+00	0	44	0	780140544	62	4707
2026-01-03 09:58:02.63	359.78	56.57	-46.2	-48.5	18.8	0.00e+00	0	44	0	787480576	63	4868
2026-01-03 09:58:06.65	358.76	55.12	-48.2	-51.2	16.2	0.00e+00	0	44	0	794820608	67	5262
2026-01-03 09:58:10.66	357.85	53.71	-46.9	-49.5	17.7	0.00e+00	0	44	0	802160640	65	4827
2026-01-03 09:58:14.67	357.02	52.33	-45.9	-48.2	19.0	0.00e+00	0	43	0	809500672	63	4658
2026-01-03 09:58:18.68	356.27	50.98	-47.3	-49.9	17.3	0.00e+00	0	44	0	816840704	66	4802
2026-01-03 09:58:22.70	355.58	49.67	-48.4	-51.4	16.2	0.00e+00	0	44	0	825229312	67	5343
2026-01-03 09:58:26.71	354.94	48.38	-49.7	-53.3	14.5	0.00e+00	0	44	0	832569344	70	5599
2026-01-03 09:58:30.73	354.36	47.13	-48.3	-51.2	16.3	0.00e+00	0	44	0	839909376	68	4976
2026-01-03 09:58:34.73	353.83	45.92	-47.8	-50.6	16.7	0.00e+00	0	43	0	847249408	66	5198
2026-01-03 09:58:38.75	353.33	44.74	-48.4	-51.4	16.1	0.00e+00	0	44	0	854589440	67	5352
2026-01-03 09:58:42.76	352.87	43.59	-50.3	-54.4	13.2	1.52e-05	0	44	0	862978048	71	6030
2026-01-03 09:58:46.77	352.45	42.47	-50.5	-55.0	12.5	1.22e-03	0	44	0	870318080	73	5736
2026-01-03 09:58:50.78	352.05	41.38	-48.4	-51.4	16.0	0.00e+00	0	44	0	877658112	67	5382
2026-01-03 09:58:54.79	351.68	40.32	-49.6	-53.3	14.5	7.00e-07	0	44	0	884998144	70	5629
2026-01-03 09:58:58.80	351.33	39.30	-48.4	-51.4	16.2	7.00e-07	0	44	0	892338176	68	5049
2026-01-03 09:59:02.81	351.01	38.30	-46.8	-49.5	17.9	0.00e+00	0	44	0	899678208	64	5113
2026-01-03 09:59:06.82	350.70	37.33	-49.8	-53.7	13.9	5.30e-06	0	44	0	908066816	70	5860
2026-01-03 09:59:10.83	350.41	36.38	-49.2	-52.8	14.6	0.00e+00	0	44	0	915406848	69	5637
2026-01-03 09:59:14.85	350.14	35.46	-49.4	-52.8	15.1	0.00e+00	0	44	0	922746880	69	5619
2026-01-03 09:59:18.86	349.89	34.57	-47.5	-50.2	17.2	0.00e+00	0	44	0	930086912	66	4961
2026-01-03 09:59:22.87	349.65	33.70	-48.1	-51.1	16.2	0.00e+00	0	44	0	937426944	66	5500
2026-01-03 09:59:26.88	349.42	32.86	-50.4	-54.9	12.5	3.35e-05	0	44	0	944766976	71	6383
2026-01-03 09:59:30.90	349.21	32.03	-50.1	-54.5	12.9	2.74e-05	0	43	0	953155584	71	6115
2026-01-03 09:59:34.91	349.00	31.23	-49.1	-52.5	15.0	0.00e+00	0	44	0	960495616	70	5136
2026-01-03 09:59:38.92	348.81	30.45	-48.0	-51.1	16.1	0.00e+00	0	44	0	967835648	67	5202
2026-01-03 09:59:42.94	348.62	29.69	-47.1	-49.9	17.2	0.00e+00	0	43	0	975175680	66	4770
2026-01-03 09:59:46.95	348.45	28.95	-47.8	-50.6	16.8	0.00e+00	0	44	0	982515712	66	5179
2026-01-03 09:59:50.96	348.28	28.23	-48.5	-51.8	15.5	0.00e+00	0	44	0	989855744	67	5631
2026-01-03 09:59:54.98	348.12	27.52	-48.2	-51.4	15.7	0.00e+00	0	44	0	998244352	67	5352
2026-01-03 09:59:58.99	347.97	26.84	-46.8	-49.5	17.5	0.00e+00	0	43	0	1005584384	65	4836
2026-01-03 10:00:03.00	347.83	26.17	-46.0	-48.4	18.6	0.00e+00	0	44	0	1012924416	63	4813
2026-01-03 10:00:07.02	347.69	25.51	-46.8	-49.5	17.6	0.00e+00	0	44	0	1020264448	64	5150
2026-01-03 10:00:11.03	347.56	24.88	-49.1	-52.6	14.8	0.00e+00	0	44	0	1027604480	68	5831
2026-01-03 10:00:15.04	347.43	24.25	-48.5	-51.9	15.4	0.00e+00	0	44	0	1034944512	69	5051
2026-01-03 10:00:19.05	347.31	23.65	-46.6	-49.6	17.7	0.00e+00	0	44	0	1043333120	64	5180
2026-01-03 10:00:23.06	347.20	23.05	-46.0	-48.7	18.2	0.00e+00	0	44	0	1050673152	64	4685
2026-01-03 10:00:27.07	347.09	22.47	-46.3	-48.9	18.1	0.00e+00	0	43	0	1058013184	64	4798
2026-01-03 10:00:31.08	346.98	21.90	-46.2	-48.8	18.2	0.00e+00	0	43	0	1065353216	64	4719
2026-01-03 10:00:35.09	346.88	21.35	-46.2	-48.8	18.1	0.00e+00	0	43	0	1072693248	64	4742
2026-01-03 10:00:39.10	346.78	20.80	-47.0	-49.7	17.4	0.00e+00	0	44	0	1081081856	64	5266
2026-01-03 10:00:43.12	346.69	20.27	-46.9	-49.6	17.5	0.00e+00	0	43	0	1088421888	65	4871
2026-01-03 10:00:47.13	346.60	19.75	-47.2	-49.9	17.1	0.00e+00	0	43	0	1095761920	65	5079
2026-01-03 10:00:51.14	346.51	19.24	-47.4	-50.5	16.5	0.00e+00	0	44	0	1103101952	65	5403
2026-01-03 10:00:55.15	346.43	18.74	-48.3	-51.4	15.8	0.00e+00	0	43	0	1110441984	67	5365
2026-01-03 10:00:59.17	346.35	18.25	-49.0	-52.5	14.8	0.00e+00	0	43	0	1117782016	68	5751
2026-01-03 10:01:03.18	346.27	17.77	-48.8	-52.8	14.2	1.50e-06	0	43	0	1126170624	69	5593
2026-01-03 10:01:07.20	346.20	17.29	-48.5	-53.2	14.1	3.00e-06	0	43	0	1133510656	68	6205
2026-01-03 10:01:11.21	346.12	16.83	-48.0	-52.1	15.1	0.00e+00	0	44	0	1140850688	68	5496
2026-01-03 10:01:15.22	346.06	16.38	-47.6	-50.9	16.0	0.00e+00	0	44	0	1148190720	67	5074
2026-01-03 10:01:19.24	345.99	15.93	-47.6	-50.8	16.1	0.00e+00	0	43	0	1155530752	66	5318
2026-01-03 10:01:23.25	345.93	15.49	-47.3	-50.6	16.6	0.00e+00	0	43	0	1162870784	66	5217
2026-01-03 10:01:27.26	345.86	15.06	-47.3	-50.8	16.3	0.00e+00	0	44	0	1171259392	66	5289
2026-01-03 10:01:31.27	345.80	14.64	-47.4	-50.8	16.1	0.00e+00	0	43	0	1178599424	66	5287
2026-01-03 10:01:35.28	345.75	14.22	-47.7	-51.2	15.8	0.00e+00	0	43	0	1185939456	66	5541
2026-01-03 10:01:39.30	345.69	13.81	-47.6	-51.1	15.8	0.00e+00	0	43	0	1193279488	66	5480
2026-01-03 10:01:43.31	345.64	13.41	-47.3	-50.9	16.0	0.00e+00	0	43	0	1200619520	66	5376
2026-01-03 10:01:47.32	345.59	13.02	-47.0	-50.7	16.0	0.00e+00	0	43	0	1207959552	66	5257
2026-01-03 10:01:51.34	345.54	12.63	-47.2	-50.8	16.1	0.00e+00	0	44	0	1216348160	65	5636
2026-01-03 10:01:55.36	345.49	12.24	-47.5	-51.0	15.9	0.00e+00	0	43	0	1223688192	65	5725
2026-01-03 10:01:59.37	345.44	11.87	-47.4	-50.8	16.0	0.00e+00	0	43	0	1231028224	66	5316
2026-01-03 10:02:03.38	345.40	11.50	-47.0	-50.7	16.1	0.00e+00	0	43	0	1238368256	66	5248
2026-01-03 10:02:07.39	345.36	11.13	-47.1	-51.0	16.1	0.00e+00	0	43	0	1245708288	65	5756
2026-01-03 10:02:11.40	345.31	10.77	-46.6	-50.6	16.2	7.00e-07	0	43	0	1254096896	65	5523
2026-01-03 10:02:15.42	345.27	10.41	-46.5	-50.6	16.2	0.00e+00	0	44	0	1261436928	64	5808
2026-01-03 10:02:19.43	345.23	10.06	-46.9	-50.7	16.1	0.00e+00	0	43	0	1268776960	64	5908
2026-01-03 10:02:23.45	345.20	9.72	-46.8	-50.9	15.9	0.00e+00	0	43	0	1276116992	64	6005
2026-01-03 10:02:27.46	345.16	9.38	-46.2	-50.5	16.2	0.00e+00	0	43	0	1283457024	64	5738
2026-01-03 10:02:31.47	345.12	9.04	-46.1	-50.7	16.0	0.00e+00	0	43	0	1290797056	64	5918
2026-01-03 10:02:35.49	345.09	8.71	-52.7	-68.4	3.8	1.49e+00	0	43	104	1291845632	77	21424
2026-01-03 10:02:39.50	345.06	8.38	-53.2	-68.6	3.8	1.49e+00	0	43	104	1291845632	77	21795
2026-01-03 10:02:43.52	345.03	8.06	-53.4	-68.5	3.8	1.49e+00	0	43	104	1291845632	77	21694
2026-01-03 10:02:47.54	345.00	7.74	-53.6	-68.7	3.8	1.49e+00	0	43	104	1291845632	78	20980
2026-01-03 10:02:51.56	344.97	7.42	-53.5	-68.7	3.8	1.49e+00	0	43	104	1291845632	78	20928
2026-01-03 10:02:55.58	344.94	7.11	-53.5	-68.6	3.8	1.49e+00	0	43	104	1291845632	78	20621
2026-01-03 10:02:59.59	344.91	6.80	-53.3	-68.6	3.8	1.49e+00	0	43	104	1291845632	78	20637
2026-01-03 10:03:03.61	344.88	6.50	-53.6	-68.9	3.8	1.49e+00	0	43	104	1291845632	78	21320
2026-01-03 10:03:07.63	344.86	6.20	-53.4	-68.6	3.8	1.49e+00	0	43	104	1291845632	78	20768
2026-01-03 10:03:11.65	344.83	5.90	-53.3	-68.6	3.8	1.49e+00	0	43	104	1291845632	78	20621
2026-01-03 10:03:15.66	344.81	5.61	-53.2	-68.5	3.8	1.49e+00	0	44	104	1291845632	78	20384
2026-01-03 10:03:19.68	344.78	5.32	-53.5	-68.7	3.8	1.49e+00	0	43	104	1291845632	78	20997
2026-01-03 10:03:23.70	344.76	5.03	-53.3	-68.5	3.8	1.49e+00	0	43	104	1291845632	78	20537

#Closed at: 2026-01-03 10:03:25
#Recorded file [1291 MB]: D:/Data/31040_260103_125029.dat