passes_logs/2026/01/03/T1/T1__20260103_021430_FENGYUN_3G_rec.log

#Pass ID: 20260103_021430_FENGYUN 3G
#Satellite: FENGYUN 3G
#Configuration: FENGYUN 3G
#almurnet v.1.7.20251203
#Start time: 2026-01-03 02:14:30

#Version: 2.0.20230620
#Station: T1
#Location: 37.570604 lon 55.790049 lat
#TLE: 1 56232U 23055A   26002.31058000  .00046172  00000+0  73618-3 0  9997
#TLE: 2 56232  49.9934 121.3649 0004156 328.0230  32.0484 15.52711916154221

#Time	Az	El	Level	Level2	SNR	BER	BlckErr	Temp	State	Recorded	gain1	gain2
2026-01-03 02:14:30.14	206.74	5.02	-49.3	-68.2	3.8	8.48e-01	0	38	0	0	69	33224
2026-01-03 02:14:32.14	206.45	5.15	-49.4	-68.4	3.8	8.48e-01	0	38	104	0	70	31841
2026-01-03 02:14:34.14	206.17	5.28	-49.4	-68.4	3.8	8.46e-01	0	38	104	0	70	31894
2026-01-03 02:14:36.15	205.88	5.41	-49.2	-68.2	3.8	8.47e-01	0	39	104	0	70	31402
2026-01-03 02:14:38.16	205.58	5.54	-49.2	-68.2	3.8	8.46e-01	0	39	104	0	70	31359
2026-01-03 02:14:40.17	205.28	5.68	-49.3	-68.3	3.8	8.47e-01	0	39	104	0	70	31794
2026-01-03 02:14:42.18	204.98	5.81	-49.3	-68.3	3.8	8.47e-01	0	39	104	0	70	31800
2026-01-03 02:14:44.19	204.68	5.94	-49.3	-68.4	3.8	8.48e-01	0	39	104	0	70	31946
2026-01-03 02:14:46.19	204.37	6.07	-49.2	-68.3	3.8	8.46e-01	0	39	104	0	70	31455
2026-01-03 02:14:48.20	204.05	6.21	-49.1	-68.2	3.8	8.46e-01	0	39	104	0	70	31425
2026-01-03 02:14:50.21	203.74	6.34	-49.3	-68.4	3.8	8.46e-01	0	39	104	0	70	31838
2026-01-03 02:14:52.22	203.42	6.48	-49.3	-68.4	3.8	8.47e-01	0	39	104	0	70	31906
2026-01-03 02:14:54.23	203.09	6.61	-49.3	-68.4	3.8	8.47e-01	0	39	104	0	70	31900
2026-01-03 02:14:56.24	202.76	6.74	-49.3	-68.4	3.8	8.47e-01	0	39	104	0	70	31853
2026-01-03 02:14:58.25	202.42	6.88	-49.3	-68.3	3.8	8.47e-01	0	39	104	0	70	31749
2026-01-03 02:15:00.26	202.08	7.02	-49.2	-68.2	3.8	8.48e-01	0	39	104	0	70	31411
2026-01-03 02:15:02.26	201.74	7.15	-49.2	-68.2	3.8	8.47e-01	0	39	104	0	70	31444
2026-01-03 02:15:04.27	201.40	7.29	-49.4	-68.3	3.8	8.46e-01	0	40	104	0	70	31783
2026-01-03 02:15:06.28	201.04	7.43	-49.4	-68.4	3.8	8.46e-01	0	40	104	0	70	31848
2026-01-03 02:15:08.29	200.69	7.56	-49.4	-68.3	3.8	8.47e-01	0	39	104	0	70	31693
2026-01-03 02:15:10.30	200.32	7.70	-49.3	-68.3	3.8	8.48e-01	0	40	104	0	70	31489
2026-01-03 02:15:12.31	199.96	7.84	-49.3	-68.2	3.8	8.48e-01	0	40	104	0	70	31424
2026-01-03 02:15:14.31	199.59	7.98	-49.3	-68.2	3.8	8.48e-01	0	40	104	0	70	31365
2026-01-03 02:15:16.32	199.21	8.11	-49.4	-68.2	3.8	8.48e-01	0	40	104	0	70	31404
2026-01-03 02:15:18.33	198.83	8.25	-49.4	-68.2	3.8	8.46e-01	0	40	104	0	70	31429
2026-01-03 02:15:20.34	198.44	8.39	-49.4	-68.3	3.8	8.47e-01	0	40	104	0	70	31460
2026-01-03 02:15:22.35	198.05	8.53	-49.5	-68.3	3.8	8.47e-01	0	40	104	0	70	31734
2026-01-03 02:15:24.36	197.66	8.67	-49.4	-68.2	3.8	8.46e-01	0	40	104	0	70	31428
2026-01-03 02:15:26.36	197.26	8.81	-49.4	-68.3	3.8	8.48e-01	0	40	104	0	70	31534
2026-01-03 02:15:28.37	196.85	8.95	-49.4	-68.2	3.8	8.47e-01	0	40	104	0	70	31421
2026-01-03 02:15:30.38	196.44	9.09	-49.4	-68.2	3.8	8.47e-01	0	40	104	0	70	31423
2026-01-03 02:15:32.39	196.02	9.23	-49.4	-68.3	3.8	8.46e-01	0	40	104	0	70	31513
2026-01-03 02:15:34.40	195.60	9.37	-49.4	-68.2	3.8	8.47e-01	0	40	104	0	70	31402
2026-01-03 02:15:36.41	195.17	9.51	-49.4	-68.2	3.8	8.47e-01	0	40	104	0	70	31396
2026-01-03 02:15:38.42	194.74	9.64	-49.4	-68.3	3.8	8.47e-01	0	40	104	0	70	31453
2026-01-03 02:15:40.43	194.30	9.78	-49.4	-68.2	3.8	8.46e-01	0	40	104	0	70	31316
2026-01-03 02:15:42.43	193.85	9.92	-49.4	-68.2	3.8	8.47e-01	0	40	104	0	70	31368
2026-01-03 02:15:44.44	193.40	10.06	-49.4	-68.2	3.8	8.48e-01	0	40	104	0	70	31331
2026-01-03 02:15:46.45	192.95	10.20	-49.4	-68.2	3.8	8.46e-01	0	40	104	0	70	31396
2026-01-03 02:15:48.46	192.48	10.34	-49.4	-68.2	3.8	8.46e-01	0	40	104	0	70	31389
2026-01-03 02:15:50.47	192.01	10.48	-49.4	-68.3	3.8	8.47e-01	0	40	104	0	70	31477
2026-01-03 02:15:52.48	191.54	10.62	-49.4	-68.3	3.8	8.46e-01	0	40	104	0	70	31500
2026-01-03 02:15:54.49	191.06	10.75	-49.4	-68.2	3.8	8.47e-01	0	40	104	0	70	31364
2026-01-03 02:15:56.50	190.57	10.89	-49.4	-68.2	3.8	8.47e-01	0	40	104	0	70	31421
2026-01-03 02:15:58.50	190.08	11.03	-49.4	-68.2	3.8	8.47e-01	0	40	104	0	70	31358
2026-01-03 02:16:00.51	189.58	11.16	-49.4	-68.3	3.8	8.47e-01	0	40	104	0	70	31458
2026-01-03 02:16:02.52	189.08	11.30	-49.4	-68.2	3.8	8.48e-01	0	40	104	0	70	31435
2026-01-03 02:16:04.53	188.57	11.44	-49.4	-68.2	3.8	8.46e-01	0	40	104	0	70	31423
2026-01-03 02:16:06.53	188.05	11.57	-49.4	-68.2	3.8	8.47e-01	0	40	104	0	70	31416
2026-01-03 02:16:08.54	187.53	11.70	-49.3	-68.3	3.8	8.48e-01	0	40	104	0	70	31454
2026-01-03 02:16:10.55	187.00	11.84	-49.3	-68.2	3.8	8.47e-01	0	40	104	0	70	31446
2026-01-03 02:16:12.56	186.47	11.97	-49.3	-68.2	3.8	8.47e-01	0	40	104	0	70	31375
2026-01-03 02:16:14.57	185.92	12.10	-49.3	-68.2	3.8	8.47e-01	0	40	104	0	70	31378
2026-01-03 02:16:16.58	185.37	12.23	-49.3	-68.3	3.8	8.46e-01	0	40	104	0	70	31461
2026-01-03 02:16:18.59	184.82	12.36	-49.3	-68.3	3.8	8.46e-01	0	40	104	0	70	31508
2026-01-03 02:16:20.60	184.26	12.49	-49.3	-68.3	3.8	8.46e-01	0	40	104	0	70	31507
2026-01-03 02:16:22.61	183.69	12.62	-49.3	-68.3	3.8	8.46e-01	0	40	104	0	70	31499
2026-01-03 02:16:24.62	183.12	12.74	-49.3	-68.2	3.8	8.48e-01	0	40	104	0	70	31385
2026-01-03 02:16:26.62	182.54	12.87	-49.3	-68.2	3.8	8.48e-01	0	40	104	0	70	31407
2026-01-03 02:16:28.63	181.95	12.99	-49.3	-68.3	3.8	8.47e-01	0	40	104	0	70	31461
2026-01-03 02:16:30.64	181.36	13.11	-49.3	-68.3	3.8	8.46e-01	0	41	104	0	70	31473
2026-01-03 02:16:32.63	180.76	13.23	-49.3	-68.3	3.8	8.46e-01	0	40	104	0	70	31457
2026-01-03 02:16:34.64	180.16	13.35	-49.4	-68.3	3.8	8.47e-01	0	40	104	0	70	31483
2026-01-03 02:16:36.65	179.55	13.46	-49.4	-68.2	3.8	8.47e-01	0	40	104	0	70	31424
2026-01-03 02:16:38.66	178.93	13.58	-49.4	-68.2	3.8	8.46e-01	0	40	104	0	70	31391
2026-01-03 02:16:40.67	178.30	13.69	-49.4	-68.2	3.8	8.47e-01	0	40	104	0	70	31437
2026-01-03 02:16:42.68	177.67	13.80	-49.4	-68.3	3.8	8.48e-01	0	40	104	0	70	31462
2026-01-03 02:16:44.68	177.04	13.91	-49.4	-68.2	3.8	8.48e-01	0	41	104	0	70	31426
2026-01-03 02:16:46.69	176.40	14.02	-49.4	-68.2	3.8	8.47e-01	0	40	104	0	70	31415
2026-01-03 02:16:48.70	175.75	14.12	-49.4	-68.2	3.8	8.46e-01	0	40	104	0	70	31425
2026-01-03 02:16:50.71	175.10	14.22	-49.4	-68.2	3.8	8.47e-01	0	40	104	0	70	31412
2026-01-03 02:16:52.71	174.44	14.32	-49.4	-68.2	3.8	8.47e-01	0	41	104	0	70	31421
2026-01-03 02:16:54.72	173.78	14.42	-49.4	-68.3	3.8	8.48e-01	0	40	104	0	70	31462
2026-01-03 02:16:56.73	173.11	14.51	-49.5	-68.3	3.8	8.46e-01	0	40	104	0	70	31452
2026-01-03 02:16:58.74	172.43	14.61	-49.5	-68.3	3.8	8.46e-01	0	40	104	0	70	31449
2026-01-03 02:17:00.75	171.75	14.70	-49.5	-68.2	3.8	8.47e-01	0	40	104	0	70	31396
2026-01-03 02:17:02.76	171.06	14.78	-49.5	-68.3	3.8	8.47e-01	0	40	104	0	70	31479
2026-01-03 02:17:04.77	170.37	14.86	-49.5	-68.2	3.8	8.48e-01	0	41	104	0	70	31389
2026-01-03 02:17:06.78	169.68	14.95	-49.5	-68.3	3.8	8.46e-01	0	41	104	0	70	31478
2026-01-03 02:17:08.78	168.98	15.02	-49.5	-68.2	3.8	8.48e-01	0	41	104	0	70	31418
2026-01-03 02:17:10.79	168.27	15.10	-49.5	-68.2	3.8	8.47e-01	0	41	104	0	70	31399
2026-01-03 02:17:12.80	167.56	15.17	-49.5	-68.3	3.8	8.47e-01	0	41	104	0	70	31501
2026-01-03 02:17:14.81	166.85	15.23	-49.5	-68.3	3.8	8.47e-01	0	41	104	0	70	31480
2026-01-03 02:17:16.82	166.13	15.30	-49.5	-68.2	3.8	8.47e-01	0	40	104	0	70	31399
2026-01-03 02:17:18.83	165.41	15.36	-49.5	-68.3	3.8	8.47e-01	0	40	104	0	70	31479
2026-01-03 02:17:20.83	164.69	15.42	-49.5	-68.2	3.8	8.48e-01	0	40	104	0	70	31423
2026-01-03 02:17:22.84	163.96	15.47	-49.5	-68.3	3.8	8.47e-01	0	40	104	0	70	31448
2026-01-03 02:17:24.85	163.23	15.52	-49.5	-68.3	3.8	8.45e-01	0	40	104	0	70	31461
2026-01-03 02:17:26.86	162.50	15.56	-49.5	-68.3	3.8	8.47e-01	0	40	104	0	70	31555
2026-01-03 02:17:28.87	161.76	15.61	-49.4	-68.2	3.8	8.47e-01	0	40	104	0	70	31356
2026-01-03 02:17:30.88	161.02	15.65	-49.4	-68.3	3.8	8.48e-01	0	40	104	0	70	31452
2026-01-03 02:17:32.89	160.28	15.68	-49.4	-68.3	3.8	8.48e-01	0	41	104	0	70	31470
2026-01-03 02:17:34.90	159.54	15.71	-49.4	-68.3	3.8	8.46e-01	0	41	104	0	70	31449
2026-01-03 02:17:36.91	158.79	15.74	-49.4	-68.2	3.8	8.47e-01	0	41	104	0	70	31430
2026-01-03 02:17:38.91	158.05	15.76	-49.4	-68.3	3.8	8.47e-01	0	40	104	0	70	31464
2026-01-03 02:17:40.92	157.30	15.78	-49.4	-68.2	3.8	8.46e-01	0	41	104	0	70	31404
2026-01-03 02:17:42.93	156.55	15.79	-49.4	-68.3	3.8	8.49e-01	0	40	104	0	70	31488
2026-01-03 02:17:44.94	155.80	15.80	-49.4	-68.3	3.8	8.47e-01	0	41	104	0	70	31482
2026-01-03 02:17:46.95	155.05	15.81	-49.4	-68.3	3.8	8.46e-01	0	41	104	0	70	31549
2026-01-03 02:17:48.96	154.30	15.81	-49.4	-68.3	3.8	8.47e-01	0	41	104	0	70	31529
2026-01-03 02:17:50.97	153.55	15.81	-49.4	-68.2	3.8	8.47e-01	0	40	104	0	70	31430
2026-01-03 02:17:52.98	152.80	15.81	-49.4	-68.3	3.8	8.48e-01	0	41	104	0	70	31493
2026-01-03 02:17:54.99	152.05	15.80	-49.4	-68.3	3.8	8.48e-01	0	41	104	0	70	31449
2026-01-03 02:17:56.99	151.31	15.78	-49.4	-68.3	3.8	8.47e-01	0	40	104	0	70	31553
2026-01-03 02:17:59.00	150.56	15.77	-49.4	-68.2	3.8	8.48e-01	0	40	104	0	70	31409
2026-01-03 02:18:01.01	149.81	15.74	-49.4	-68.3	3.8	8.47e-01	0	40	104	0	70	31499
2026-01-03 02:18:03.01	149.07	15.72	-49.4	-68.3	3.8	8.47e-01	0	41	104	0	70	31516
2026-01-03 02:18:05.02	148.33	15.69	-49.4	-68.3	3.8	8.47e-01	0	40	104	0	70	31510
2026-01-03 02:18:07.03	147.59	15.66	-49.4	-68.3	3.8	8.47e-01	0	41	104	0	70	31510
2026-01-03 02:18:09.03	146.85	15.62	-49.4	-68.3	3.8	8.47e-01	0	40	104	0	70	31587
2026-01-03 02:18:11.04	146.12	15.58	-49.5	-68.3	3.8	8.47e-01	0	41	104	0	70	31533
2026-01-03 02:18:13.05	145.38	15.53	-49.5	-68.3	3.8	8.48e-01	0	40	104	0	70	31483
2026-01-03 02:18:15.05	144.66	15.48	-49.5	-68.3	3.8	8.47e-01	0	40	104	0	70	31484
2026-01-03 02:18:17.06	143.93	15.43	-49.5	-68.3	3.8	8.48e-01	0	41	104	0	70	31480
2026-01-03 02:18:19.07	143.21	15.38	-49.5	-68.3	3.8	8.46e-01	0	40	104	0	70	31530
2026-01-03 02:18:21.08	142.49	15.32	-49.5	-68.2	3.8	8.46e-01	0	40	104	0	70	31441
2026-01-03 02:18:23.09	141.77	15.25	-49.5	-68.3	3.8	8.47e-01	0	41	104	0	70	31561
2026-01-03 02:18:25.09	141.06	15.19	-49.5	-68.3	3.8	8.48e-01	0	41	104	0	70	31551
2026-01-03 02:18:27.10	140.35	15.12	-49.5	-68.3	3.8	8.47e-01	0	41	104	0	70	31477
2026-01-03 02:18:29.11	139.65	15.05	-49.5	-68.3	3.8	8.46e-01	0	40	104	0	70	31500
2026-01-03 02:18:31.12	138.95	14.97	-49.5	-68.3	3.8	8.46e-01	0	40	104	0	70	31494
2026-01-03 02:18:33.13	138.25	14.89	-49.5	-68.2	3.8	8.47e-01	0	41	104	0	70	31412
2026-01-03 02:18:35.14	137.56	14.81	-49.5	-68.3	3.8	8.47e-01	0	40	104	0	70	31511
2026-01-03 02:18:37.15	136.88	14.72	-49.5	-68.3	3.8	8.46e-01	0	41	104	0	70	31526
2026-01-03 02:18:39.15	136.20	14.64	-49.5	-68.3	3.8	8.47e-01	0	41	104	0	70	31484
2026-01-03 02:18:41.16	135.52	14.54	-49.5	-68.3	3.8	8.47e-01	0	40	104	0	70	31486
2026-01-03 02:18:43.17	134.85	14.45	-49.5	-68.3	3.8	8.48e-01	0	41	104	0	70	31459
2026-01-03 02:18:45.18	134.19	14.36	-49.5	-68.3	3.8	8.48e-01	0	40	104	0	70	31494
2026-01-03 02:18:47.19	133.53	14.26	-49.5	-68.2	3.8	8.46e-01	0	40	104	0	70	31413
2026-01-03 02:18:49.20	132.88	14.16	-49.5	-68.3	3.8	8.47e-01	0	40	104	0	70	31492
2026-01-03 02:18:51.21	132.23	14.05	-49.5	-68.3	3.8	8.47e-01	0	41	104	0	70	31530
2026-01-03 02:18:53.21	131.59	13.95	-49.5	-68.3	3.8	8.47e-01	0	40	104	0	70	31494
2026-01-03 02:18:55.22	130.96	13.84	-49.5	-68.3	3.8	8.48e-01	0	40	104	0	70	31603
2026-01-03 02:18:57.23	130.33	13.73	-49.5	-68.3	3.8	8.47e-01	0	40	104	0	70	31478
2026-01-03 02:18:59.24	129.71	13.62	-49.4	-68.3	3.8	8.47e-01	0	41	104	0	70	31501
2026-01-03 02:19:01.25	129.09	13.51	-49.4	-68.3	3.8	8.47e-01	0	41	104	0	70	31559
2026-01-03 02:19:03.26	128.48	13.39	-49.4	-68.3	3.8	8.47e-01	0	41	104	0	70	31526
2026-01-03 02:19:05.27	127.87	13.27	-49.4	-68.3	3.8	8.46e-01	0	41	104	0	70	31596
2026-01-03 02:19:07.28	127.27	13.15	-49.4	-68.3	3.8	8.47e-01	0	41	104	0	70	31535
2026-01-03 02:19:09.28	126.69	13.03	-49.4	-68.3	3.8	8.48e-01	0	41	104	0	70	31479
2026-01-03 02:19:11.29	126.10	12.91	-49.4	-68.3	3.8	8.47e-01	0	40	104	0	70	31571
2026-01-03 02:19:13.30	125.52	12.79	-49.4	-68.3	3.8	8.47e-01	0	41	104	0	70	31606
2026-01-03 02:19:15.31	124.95	12.66	-49.4	-68.3	3.8	8.46e-01	0	41	104	0	70	31593
2026-01-03 02:19:17.32	124.38	12.54	-49.4	-68.3	3.8	8.47e-01	0	40	104	0	70	31503
2026-01-03 02:19:19.33	123.82	12.41	-49.4	-68.3	3.8	8.47e-01	0	40	104	0	70	31569
2026-01-03 02:19:21.33	123.27	12.28	-49.4	-68.3	3.8	8.47e-01	0	41	104	0	70	31474
2026-01-03 02:19:23.34	122.72	12.15	-49.4	-68.3	3.8	8.46e-01	0	40	104	0	70	31479
2026-01-03 02:19:25.35	122.18	12.02	-49.4	-68.3	3.8	8.47e-01	0	40	104	0	70	31521
2026-01-03 02:19:27.36	121.65	11.89	-49.4	-68.3	3.8	8.49e-01	0	41	104	0	70	31491
2026-01-03 02:19:29.37	121.12	11.76	-49.4	-68.2	3.8	8.48e-01	0	41	104	0	70	31442
2026-01-03 02:19:31.38	120.59	11.63	-49.4	-68.3	3.8	8.47e-01	0	40	104	0	70	31553
2026-01-03 02:19:33.38	120.08	11.49	-49.4	-68.3	3.8	8.47e-01	0	40	104	0	70	31588
2026-01-03 02:19:35.39	119.57	11.36	-49.4	-68.3	3.8	8.47e-01	0	40	104	0	70	31515
2026-01-03 02:19:37.40	119.07	11.22	-49.4	-68.3	3.8	8.47e-01	0	41	104	0	70	31494
2026-01-03 02:19:39.41	118.57	11.09	-49.4	-68.3	3.8	8.47e-01	0	41	104	0	70	31567
2026-01-03 02:19:41.42	118.08	10.95	-49.4	-68.3	3.8	8.48e-01	0	40	104	0	70	31553
2026-01-03 02:19:43.43	117.59	10.82	-49.4	-68.3	3.8	8.47e-01	0	41	104	0	70	31527
2026-01-03 02:19:45.44	117.11	10.68	-49.4	-68.3	3.8	8.47e-01	0	40	104	0	70	31532
2026-01-03 02:19:47.44	116.64	10.54	-49.4	-68.3	3.8	8.48e-01	0	40	104	0	70	31508
2026-01-03 02:19:49.45	116.18	10.40	-49.3	-68.2	3.8	8.47e-01	0	40	104	0	70	31427
2026-01-03 02:19:51.46	115.71	10.27	-49.3	-68.3	3.8	8.46e-01	0	40	104	0	70	31512
2026-01-03 02:19:53.47	115.26	10.13	-49.3	-68.3	3.8	8.47e-01	0	40	104	0	70	31550
2026-01-03 02:19:55.48	114.81	9.99	-49.3	-68.3	3.8	8.48e-01	0	41	104	0	70	31574
2026-01-03 02:19:57.49	114.37	9.85	-49.3	-68.3	3.8	8.46e-01	0	40	104	0	70	31555
2026-01-03 02:19:59.49	113.93	9.71	-49.4	-68.2	3.8	8.48e-01	0	40	104	0	70	31441
2026-01-03 02:20:01.50	113.50	9.57	-49.4	-68.3	3.8	8.46e-01	0	40	104	0	70	31565
2026-01-03 02:20:03.50	113.07	9.44	-49.4	-68.3	3.8	8.47e-01	0	41	104	0	70	31569
2026-01-03 02:20:05.51	112.65	9.30	-49.4	-68.3	3.8	8.48e-01	0	40	104	0	70	31628
2026-01-03 02:20:07.52	112.23	9.16	-49.4	-68.3	3.8	8.46e-01	0	40	104	0	70	31484
2026-01-03 02:20:09.53	111.82	9.02	-49.4	-68.3	3.8	8.47e-01	0	40	104	0	70	31494
2026-01-03 02:20:11.54	111.42	8.88	-49.4	-68.3	3.8	8.47e-01	0	40	104	0	70	31508
2026-01-03 02:20:13.55	111.02	8.74	-49.4	-68.3	3.8	8.46e-01	0	40	104	0	70	31543
2026-01-03 02:20:15.55	110.62	8.61	-49.4	-68.3	3.8	8.47e-01	0	40	104	0	70	31530
2026-01-03 02:20:17.56	110.23	8.47	-49.4	-68.3	3.8	8.47e-01	0	41	104	0	70	31540
2026-01-03 02:20:19.57	109.85	8.33	-49.4	-68.3	3.8	8.47e-01	0	40	104	0	70	31557
2026-01-03 02:20:21.58	109.47	8.19	-49.4	-68.3	3.8	8.47e-01	0	40	104	0	70	31574
2026-01-03 02:20:23.58	109.09	8.06	-49.4	-68.3	3.8	8.46e-01	0	40	104	0	70	31502
2026-01-03 02:20:25.59	108.72	7.92	-49.4	-68.3	3.8	8.47e-01	0	40	104	0	70	31582
2026-01-03 02:20:27.60	108.36	7.78	-49.4	-68.3	3.8	8.46e-01	0	40	104	0	70	31530
2026-01-03 02:20:29.61	108.00	7.64	-49.3	-68.3	3.8	8.46e-01	0	40	104	0	70	31538
2026-01-03 02:20:31.62	107.64	7.51	-49.3	-68.3	3.8	8.46e-01	0	40	104	0	70	31591
2026-01-03 02:20:33.63	107.29	7.37	-49.3	-68.3	3.8	8.47e-01	0	40	104	0	70	31549
2026-01-03 02:20:35.64	106.94	7.24	-49.3	-68.3	3.8	8.47e-01	0	40	104	0	70	31559
2026-01-03 02:20:37.65	106.60	7.10	-49.3	-68.3	3.8	8.46e-01	0	40	104	0	70	31525
2026-01-03 02:20:39.66	106.26	6.96	-49.3	-68.3	3.8	8.47e-01	0	40	104	0	70	31535
2026-01-03 02:20:41.66	105.93	6.83	-49.3	-68.3	3.8	8.47e-01	0	40	104	0	70	31550
2026-01-03 02:20:43.67	105.60	6.70	-49.3	-68.3	3.8	8.46e-01	0	40	104	0	70	31547
2026-01-03 02:20:45.68	105.28	6.56	-49.3	-68.3	3.8	8.47e-01	0	40	104	0	70	31491
2026-01-03 02:20:47.69	104.96	6.43	-49.3	-68.3	3.8	8.48e-01	0	41	104	0	70	31517
2026-01-03 02:20:49.70	104.64	6.29	-49.3	-68.3	3.8	8.47e-01	0	41	104	0	70	31508
2026-01-03 02:20:51.70	104.33	6.16	-49.3	-68.3	3.8	8.47e-01	0	40	104	0	70	31560
2026-01-03 02:20:53.71	104.02	6.03	-49.3	-68.3	3.8	8.47e-01	0	40	104	0	70	31617
2026-01-03 02:20:55.72	103.71	5.90	-49.3	-68.3	3.8	8.47e-01	0	41	104	0	70	31611
2026-01-03 02:20:57.73	103.41	5.77	-49.3	-68.3	3.8	8.47e-01	0	40	104	0	70	31470
2026-01-03 02:20:59.74	103.12	5.64	-49.3	-68.3	3.8	8.47e-01	0	41	104	0	70	31510
2026-01-03 02:21:01.75	102.82	5.50	-49.3	-68.3	3.8	8.48e-01	0	40	104	0	70	31481
2026-01-03 02:21:03.76	102.53	5.37	-49.2	-68.2	3.8	8.48e-01	0	40	104	0	70	31443
2026-01-03 02:21:05.76	102.25	5.25	-49.3	-68.3	3.8	8.47e-01	0	40	104	0	70	31528
2026-01-03 02:21:07.77	101.97	5.12	-49.3	-68.3	3.8	8.48e-01	0	40	104	0	70	31561
2026-01-03 02:21:09.78	101.69	4.99	-49.3	-68.3	3.8	8.47e-01	0	40	104	0	70	31558

#Closed at: 2026-01-03 02:21:11
#Recorded file [0 MB]: D:/Data/31040_260103_051430.dat