passes_logs/2026/01/03/T1/T1__20260103_234105_SUOMI_NPP_rec.log

#Pass ID: 20260103_234105_SUOMI NPP
#Satellite: SUOMI NPP
#Configuration: NPP
#almurnet v.1.7.20251203
#Start time: 2026-01-03 23:41:07

#Version: 2.0.20230620
#Station: T1
#Location: 37.570604 lon 55.790049 lat
#TLE: 1 37849U 11061A   26001.07732418  .00000182  00000+0  10735-3 0  9990
#TLE: 2 37849  98.7795 303.2470 0002580  87.2016 272.9455 14.19520779734739

#Time	Az	El	Level	Level2	SNR	BER	BlckErr	Temp	State	Recorded	gain1	gain2
2026-01-03 23:41:07.96	16.91	5.15	-52.9	-68.5	3.8	1.49e+00	0	39	0	0	76	22985
2026-01-03 23:41:11.97	16.95	5.43	-53.0	-68.6	3.8	1.49e+00	0	40	104	0	76	23115
2026-01-03 23:41:15.99	16.98	5.73	-52.9	-68.3	3.8	1.49e+00	0	40	104	0	76	22506
2026-01-03 23:41:20.01	17.01	6.02	-52.9	-68.4	3.8	1.49e+00	0	40	104	0	76	22545
2026-01-03 23:41:24.02	17.05	6.32	-53.0	-68.5	3.8	1.49e+00	0	40	104	0	76	23038
2026-01-03 23:41:28.04	17.08	6.62	-53.0	-68.4	3.8	1.49e+00	0	40	104	0	76	22761
2026-01-03 23:41:32.06	17.12	6.93	-52.9	-67.6	3.8	1.49e+00	0	40	104	0	76	20712
2026-01-03 23:41:36.07	17.15	7.23	-53.0	-66.9	3.8	1.49e+00	0	40	104	0	76	19133
2026-01-03 23:41:40.09	17.19	7.55	-52.8	-66.3	3.8	1.48e+00	0	41	104	0	76	17724
2026-01-03 23:41:44.11	17.22	7.86	-52.9	-66.0	3.9	1.47e+00	0	41	104	0	76	17247
2026-01-03 23:41:48.13	17.26	8.19	-52.7	-64.9	4.2	1.40e+00	0	41	0	0	76	15219
2026-01-03 23:41:52.14	17.29	8.51	-52.6	-62.9	5.1	6.74e-01	0	41	0	5242880	76	12033
2026-01-03 23:41:56.16	17.33	8.84	-52.2	-60.6	6.7	2.18e-01	0	41	0	12582912	76	9276
2026-01-03 23:42:00.17	17.37	9.17	-52.3	-61.0	6.3	2.13e-01	0	41	0	20971520	75	10284
2026-01-03 23:42:04.18	17.41	9.51	-49.5	-53.6	13.8	2.79e-02	0	41	0	26214400	70	5817
2026-01-03 23:42:08.19	17.44	9.85	-47.8	-51.1	16.1	0.00e+00	0	41	0	33554432	67	5200
2026-01-03 23:42:12.50	17.49	10.23	-47.8	-50.9	16.3	0.00e+00	0	41	0	40894464	67	5081
2026-01-03 23:42:16.51	17.52	10.58	-47.5	-50.6	16.6	0.00e+00	0	41	0	49283072	67	4885
2026-01-03 23:42:20.52	17.56	10.94	-47.5	-50.4	16.8	0.00e+00	0	41	0	56623104	66	5082
2026-01-03 23:42:24.56	17.60	11.30	-47.5	-50.4	16.9	0.00e+00	0	42	0	63963136	66	5067
2026-01-03 23:42:28.73	17.65	11.68	-47.4	-50.2	17.0	0.00e+00	0	41	0	71303168	66	4972
2026-01-03 23:42:32.73	17.69	12.06	-47.1	-49.8	17.4	0.00e+00	0	42	0	79691776	66	4707
2026-01-03 23:42:36.75	17.73	12.44	-47.2	-49.8	17.5	0.00e+00	0	42	0	87031808	66	4740
2026-01-03 23:42:41.08	17.78	12.86	-47.2	-49.8	17.6	0.00e+00	0	42	0	95420416	66	4738
2026-01-03 23:42:45.14	17.82	13.25	-47.0	-49.6	17.7	0.00e+00	0	42	0	102760448	66	4612
2026-01-03 23:42:49.15	17.87	13.65	-46.9	-49.5	17.8	0.00e+00	0	42	0	110100480	65	4822
2026-01-03 23:42:53.22	17.91	14.06	-46.9	-49.4	18.0	0.00e+00	0	42	0	117440512	65	4778
2026-01-03 23:42:57.23	17.96	14.48	-46.7	-49.2	18.1	0.00e+00	0	42	0	124780544	65	4669
2026-01-03 23:43:01.24	18.00	14.90	-46.9	-49.3	18.0	0.00e+00	0	42	0	133169152	65	4744
2026-01-03 23:43:05.66	18.06	15.37	-46.6	-49.0	18.3	0.00e+00	0	42	0	141557760	65	4575
2026-01-03 23:43:09.70	18.11	15.81	-46.5	-48.9	18.4	0.00e+00	0	42	0	148897792	65	4523
2026-01-03 23:43:13.72	18.16	16.25	-46.5	-48.9	18.4	0.00e+00	0	42	0	156237824	65	4531
2026-01-03 23:43:17.72	18.21	16.71	-46.5	-49.0	18.3	0.00e+00	0	42	0	163577856	64	4816
2026-01-03 23:43:21.73	18.26	17.17	-46.6	-49.1	18.2	0.00e+00	0	42	0	170917888	64	4908
2026-01-03 23:43:25.75	18.31	17.64	-46.8	-49.4	18.0	0.00e+00	0	42	0	178257920	64	5067
2026-01-03 23:43:30.20	18.37	18.17	-47.1	-49.8	17.6	0.00e+00	0	42	0	186646528	65	5019
2026-01-03 23:43:34.28	18.43	18.67	-47.2	-50.0	17.6	0.00e+00	0	42	0	195035136	65	5108
2026-01-03 23:43:38.29	18.48	19.17	-47.3	-50.0	17.5	0.00e+00	0	42	0	202375168	65	5110
2026-01-03 23:43:42.49	18.54	19.70	-47.5	-50.3	17.3	0.00e+00	0	42	0	209715200	66	5009
2026-01-03 23:43:46.77	18.61	20.26	-47.9	-50.8	16.8	0.00e+00	0	42	0	218103808	66	5308
2026-01-03 23:43:50.78	18.67	20.79	-48.0	-50.9	16.6	0.00e+00	0	42	0	225443840	67	5081
2026-01-03 23:43:54.79	18.73	21.34	-48.3	-51.4	16.2	0.00e+00	0	42	0	232783872	67	5366
2026-01-03 23:43:58.79	18.79	21.89	-48.1	-51.2	16.4	0.00e+00	0	42	0	240123904	67	5252
2026-01-03 23:44:02.80	18.86	22.46	-48.2	-51.3	16.3	0.00e+00	0	42	0	248512512	67	5312
2026-01-03 23:44:06.81	18.93	23.05	-48.7	-51.8	16.0	0.00e+00	0	42	0	255852544	68	5316
2026-01-03 23:44:10.87	19.00	23.65	-48.5	-51.5	16.2	0.00e+00	0	42	0	263192576	68	5134
2026-01-03 23:44:14.88	19.07	24.26	-48.3	-51.1	16.5	0.00e+00	0	42	0	270532608	68	4919
2026-01-03 23:44:18.89	19.15	24.88	-48.4	-51.3	16.4	0.00e+00	0	42	0	277872640	68	5039
2026-01-03 23:44:23.29	19.23	25.59	-47.7	-50.4	17.1	0.00e+00	0	42	0	286261248	67	4760
2026-01-03 23:44:27.61	19.32	26.30	-47.5	-50.2	17.4	0.00e+00	0	42	0	294649856	67	4672
2026-01-03 23:44:31.67	19.40	26.98	-47.2	-49.9	17.7	0.00e+00	0	42	0	301989888	65	5046
2026-01-03 23:44:36.26	19.50	27.77	-47.6	-50.4	17.3	0.00e+00	0	42	0	310378496	65	5342
2026-01-03 23:44:40.72	19.60	28.57	-47.2	-49.9	17.7	0.00e+00	0	42	0	318767104	66	4775
2026-01-03 23:44:45.22	19.70	29.39	-47.0	-49.5	18.0	0.00e+00	0	42	0	328204288	65	4841
2026-01-03 23:44:49.73	19.81	30.25	-47.8	-50.5	17.0	0.00e+00	0	42	0	336592896	66	5122
2026-01-03 23:44:53.70	19.91	31.02	-47.8	-50.5	17.0	0.00e+00	0	42	0	343932928	66	5139
2026-01-03 23:44:57.71	20.02	31.82	-48.6	-51.5	16.2	0.00e+00	0	42	0	351272960	67	5430
2026-01-03 23:45:01.70	20.13	32.64	-49.7	-53.2	14.5	7.00e-07	0	42	0	358612992	70	5585
2026-01-03 23:45:05.72	20.24	33.49	-49.7	-53.1	14.7	0.00e+00	0	42	0	365953024	70	5525
2026-01-03 23:45:09.80	20.37	34.37	-49.2	-52.6	15.2	7.00e-07	0	42	0	373293056	70	5172
2026-01-03 23:45:13.80	20.49	35.26	-48.4	-51.3	16.5	0.00e+00	0	42	0	381681664	68	5038
2026-01-03 23:45:17.81	20.63	36.19	-47.1	-49.8	17.7	0.00e+00	0	42	0	389021696	66	4753
2026-01-03 23:45:21.95	20.77	37.17	-46.4	-48.7	18.7	0.00e+00	0	43	0	396361728	64	4687
2026-01-03 23:45:25.97	20.92	38.15	-46.3	-48.6	19.0	0.00e+00	0	42	0	403701760	63	4894
2026-01-03 23:45:29.98	21.07	39.15	-46.1	-48.4	19.0	0.00e+00	0	42	0	412090368	63	4807
2026-01-03 23:45:34.31	21.25	40.28	-47.0	-49.6	17.9	0.00e+00	0	43	0	419430400	64	5163
2026-01-03 23:45:38.32	21.43	41.35	-47.6	-50.1	17.6	0.00e+00	0	42	0	426770432	66	4901
2026-01-03 23:45:42.32	21.62	42.45	-47.8	-50.5	17.1	0.00e+00	0	42	0	435159040	67	4835
2026-01-03 23:45:46.68	21.83	43.69	-47.2	-49.7	17.9	0.00e+00	0	42	0	442499072	66	4667
2026-01-03 23:45:50.63	22.05	44.84	-47.5	-50.1	17.7	0.00e+00	0	43	0	449839104	66	4889
2026-01-03 23:45:54.74	22.28	46.08	-48.7	-51.7	16.1	7.00e-07	0	42	0	458227712	68	5245
2026-01-03 23:45:58.86	22.54	47.37	-49.1	-52.1	15.7	0.00e+00	0	42	0	465567744	69	5207
2026-01-03 23:46:03.02	22.82	48.70	-48.6	-51.5	16.4	0.00e+00	0	42	0	473956352	69	4845
2026-01-03 23:46:07.26	23.13	50.10	-46.5	-48.9	18.7	0.00e+00	0	42	0	481296384	65	4495
2026-01-03 23:46:11.27	23.45	51.47	-45.6	-47.7	19.8	0.00e+00	0	42	0	488636416	62	4669
2026-01-03 23:46:15.29	23.80	52.88	-46.6	-49.0	18.6	0.00e+00	0	42	0	497025024	64	4826
2026-01-03 23:46:19.29	24.18	54.32	-46.1	-48.3	19.0	7.00e-07	0	42	0	504365056	63	4759
2026-01-03 23:46:23.31	24.60	55.81	-45.3	-47.5	20.0	0.00e+00	0	43	0	511705088	62	4546
2026-01-03 23:46:27.31	25.07	57.34	-45.3	-47.4	20.1	0.00e+00	0	42	0	519045120	62	4514
2026-01-03 23:46:31.84	25.67	59.11	-45.2	-47.2	20.2	0.00e+00	0	42	0	527433728	62	4425
2026-01-03 23:46:35.89	26.27	60.74	-45.7	-47.8	19.7	0.00e+00	0	42	0	534773760	62	4736
2026-01-03 23:46:39.86	26.95	62.37	-44.8	-46.8	20.5	0.00e+00	0	43	0	543162368	61	4490
2026-01-03 23:46:43.87	27.72	64.06	-45.1	-47.1	20.3	0.00e+00	0	42	0	550502400	61	4649
2026-01-03 23:46:47.97	28.65	65.82	-46.9	-49.3	18.3	0.00e+00	0	42	0	557842432	65	4749
2026-01-03 23:46:51.97	29.70	67.58	-48.0	-50.7	17.1	0.00e+00	0	42	0	565182464	66	5264
2026-01-03 23:46:55.98	30.95	69.36	-50.1	-53.6	14.4	7.00e-07	0	42	0	572522496	71	5511
2026-01-03 23:46:59.98	32.45	71.16	-49.0	-52.0	15.9	0.00e+00	0	42	0	579862528	70	4829
2026-01-03 23:47:03.99	34.30	72.99	-46.9	-49.2	18.3	0.00e+00	0	42	0	588251136	65	4684
2026-01-03 23:47:07.99	36.61	74.82	-46.9	-49.3	18.2	0.00e+00	0	42	0	595591168	65	4751
2026-01-03 23:47:11.98	39.56	76.64	-47.4	-50.0	17.7	0.00e+00	0	42	0	602931200	65	5119
2026-01-03 23:47:16.00	43.51	78.45	-49.6	-52.9	15.2	0.00e+00	0	43	0	610271232	69	5663
2026-01-03 23:47:20.01	48.92	80.21	-50.1	-53.8	14.1	3.80e-06	0	43	0	617611264	71	5630
2026-01-03 23:47:24.01	56.61	81.85	-47.8	-50.5	17.3	0.00e+00	0	43	0	624951296	67	4854
2026-01-03 23:47:28.01	67.91	83.29	-45.8	-48.0	19.5	0.00e+00	0	42	0	633339904	63	4551
2026-01-03 23:47:32.01	84.37	84.35	-46.1	-48.4	19.2	0.00e+00	0	43	0	640679936	62	5049
2026-01-03 23:47:36.01	105.74	84.78	-44.3	-46.3	20.9	0.00e+00	0	42	0	648019968	60	4462
2026-01-03 23:47:40.01	127.43	84.43	-45.2	-47.3	20.1	0.00e+00	0	42	0	655360000	62	4470
2026-01-03 23:47:44.01	144.49	83.42	-45.9	-48.0	19.5	0.00e+00	0	43	0	662700032	62	4848
2026-01-03 23:47:48.03	156.33	82.01	-49.3	-52.6	15.5	0.00e+00	0	43	0	670040064	69	5505
2026-01-03 23:47:52.04	164.34	80.38	-47.9	-50.5	17.2	0.00e+00	0	42	0	678428672	66	5147
2026-01-03 23:47:56.43	170.37	78.46	-50.3	-54.1	13.7	9.38e-05	0	43	0	685768704	72	5486
2026-01-03 23:48:00.47	174.34	76.63	-49.5	-52.7	15.2	0.00e+00	0	43	0	694157312	71	4953
2026-01-03 23:48:04.47	177.31	74.80	-48.4	-51.2	16.5	0.00e+00	0	43	0	701497344	67	5263
2026-01-03 23:48:08.49	179.62	72.96	-52.2	-57.9	10.1	2.20e-03	0	43	0	708837376	74	7595
2026-01-03 23:48:12.50	181.47	71.13	-51.4	-55.8	12.2	9.18e-04	0	42	0	716177408	74	5972
2026-01-03 23:48:16.50	182.97	69.32	-47.6	-50.1	17.5	0.00e+00	0	43	0	723517440	67	4638
2026-01-03 23:48:20.51	184.22	67.54	-48.2	-51.0	16.7	0.00e+00	0	42	0	731906048	67	5135
2026-01-03 23:48:24.73	185.32	65.69	-47.1	-49.6	17.9	0.00e+00	0	42	0	739246080	65	4880
2026-01-03 23:48:28.74	186.21	63.96	-46.8	-49.3	18.4	0.00e+00	0	42	0	746586112	64	4984
2026-01-03 23:48:32.75	186.99	62.27	-45.7	-47.8	19.8	0.00e+00	0	42	0	753926144	63	4472
2026-01-03 23:48:36.72	187.66	60.63	-50.7	-54.8	13.0	1.50e-06	0	43	0	761266176	72	5964
2026-01-03 23:48:40.74	188.25	59.01	-47.2	-49.7	17.9	0.00e+00	0	42	0	769654784	65	4946
2026-01-03 23:48:44.75	188.78	57.44	-47.9	-50.6	17.0	0.00e+00	0	43	0	776994816	67	4903
2026-01-03 23:48:48.75	189.26	55.90	-46.8	-49.2	18.2	0.00e+00	0	42	0	784334848	64	4980
2026-01-03 23:48:52.97	189.70	54.33	-47.5	-50.1	17.4	0.00e+00	0	42	0	792723456	66	4919
2026-01-03 23:48:56.97	190.09	52.88	-46.7	-49.0	18.4	0.00e+00	0	42	0	800063488	64	4864
2026-01-03 23:49:00.98	190.44	51.47	-49.1	-52.3	15.7	0.00e+00	0	43	0	807403520	68	5631
2026-01-03 23:49:04.99	190.75	50.10	-47.4	-49.9	17.8	0.00e+00	0	42	0	814743552	66	4813
2026-01-03 23:49:09.01	191.05	48.76	-50.1	-53.8	14.1	0.00e+00	0	42	0	822083584	70	5932
2026-01-03 23:49:13.08	191.32	47.44	-46.4	-48.7	18.8	0.00e+00	0	42	0	829423616	64	4660
2026-01-03 23:49:17.09	191.57	46.19	-47.4	-49.9	17.8	0.00e+00	0	43	0	837812224	65	5053
2026-01-03 23:49:21.27	191.82	44.92	-47.8	-50.6	17.0	0.00e+00	0	42	0	845152256	67	4883
2026-01-03 23:49:25.49	192.04	43.67	-44.9	-46.9	20.4	0.00e+00	0	43	0	853540864	61	4517
2026-01-03 23:49:29.50	192.24	42.53	-47.9	-50.6	17.2	0.00e+00	0	43	0	860880896	66	5180
2026-01-03 23:49:33.51	192.43	41.41	-49.1	-52.3	15.6	0.00e+00	0	42	0	868220928	70	4984
2026-01-03 23:49:37.71	192.61	40.28	-45.9	-48.1	19.3	0.00e+00	0	43	0	876609536	63	4620
2026-01-03 23:49:41.82	192.78	39.21	-49.9	-53.4	14.4	0.00e+00	0	42	0	883949568	70	5722
2026-01-03 23:49:45.82	192.94	38.20	-52.8	-60.1	7.8	1.48e-01	0	43	0	891289600	76	8713
2026-01-03 23:49:49.84	193.09	37.21	-49.4	-52.7	15.0	3.00e-06	0	42	0	898629632	70	5234
2026-01-03 23:49:54.12	193.24	36.19	-48.3	-51.1	16.5	0.00e+00	0	42	0	907018240	67	5187
2026-01-03 23:49:58.14	193.37	35.26	-52.0	-57.6	10.0	1.28e-03	0	43	0	914358272	74	7370
2026-01-03 23:50:02.24	193.50	34.34	-52.9	-60.9	6.9	2.51e-01	0	43	0	921698304	76	9567
2026-01-03 23:50:06.48	193.62	33.41	-51.5	-56.7	10.9	4.09e-03	0	43	0	930086912	74	6603
2026-01-03 23:50:10.48	193.74	32.56	-50.5	-54.5	13.3	1.14e-05	0	43	0	937426944	72	5740
2026-01-03 23:50:14.49	193.85	31.74	-49.5	-52.8	15.0	0.00e+00	0	43	0	944766976	70	5331
2026-01-03 23:50:18.50	193.95	30.93	-48.6	-51.4	16.4	0.00e+00	0	43	0	953155584	68	5099
2026-01-03 23:50:22.51	194.05	30.15	-49.1	-52.3	15.5	0.00e+00	0	43	0	960495616	69	5287
2026-01-03 23:50:26.52	194.15	29.39	-50.9	-55.3	12.5	4.34e-05	0	43	0	967835648	72	6314
2026-01-03 23:50:30.53	194.24	28.64	-50.4	-54.3	13.4	7.78e-05	0	43	0	975175680	72	5641
2026-01-03 23:50:34.54	194.33	27.92	-47.6	-50.3	17.2	0.00e+00	0	43	0	982515712	67	4733
2026-01-03 23:50:38.54	194.41	27.22	-46.8	-49.3	18.0	0.00e+00	0	43	0	989855744	65	4717
2026-01-03 23:50:42.55	194.49	26.53	-47.1	-49.6	17.9	0.00e+00	0	42	0	998244352	65	4916
2026-01-03 23:50:46.64	194.57	25.85	-46.8	-49.2	18.2	0.00e+00	0	43	0	1005584384	65	4705
2026-01-03 23:50:50.76	194.65	25.18	-46.9	-49.3	18.1	0.00e+00	0	42	0	1012924416	65	4732
2026-01-03 23:50:54.97	194.73	24.51	-46.4	-48.7	18.6	0.00e+00	0	43	0	1021313024	64	4684
2026-01-03 23:50:59.24	194.80	23.85	-46.4	-48.8	18.7	0.00e+00	0	43	0	1028653056	64	4709
2026-01-03 23:51:03.26	194.87	23.24	-46.5	-48.9	18.5	0.00e+00	0	43	0	1037041664	64	4791
2026-01-03 23:51:07.23	194.94	22.65	-46.1	-48.4	19.1	0.00e+00	0	43	0	1044381696	63	4763
2026-01-03 23:51:11.32	195.00	22.06	-45.8	-48.0	19.2	0.00e+00	0	43	0	1051721728	63	4574
2026-01-03 23:51:15.32	195.07	21.50	-45.9	-48.2	19.2	0.00e+00	0	43	0	1059061760	63	4669
2026-01-03 23:51:19.33	195.13	20.95	-46.5	-48.9	18.4	0.00e+00	0	43	0	1066401792	64	4810
2026-01-03 23:51:23.61	195.19	20.37	-47.1	-49.8	17.5	0.00e+00	0	43	0	1074790400	65	4993
2026-01-03 23:51:27.61	195.25	19.84	-47.9	-50.8	16.7	0.00e+00	0	43	0	1082130432	66	5301
2026-01-03 23:51:31.71	195.31	19.31	-48.0	-50.9	16.5	0.00e+00	0	43	0	1089470464	67	5090
2026-01-03 23:51:35.64	195.36	18.81	-48.1	-51.1	16.3	0.00e+00	0	43	0	1096810496	67	5188
2026-01-03 23:51:39.65	195.41	18.32	-48.1	-51.0	16.4	0.00e+00	0	43	0	1105199104	67	5151
2026-01-03 23:51:43.65	195.46	17.83	-47.7	-50.4	17.0	0.00e+00	0	43	0	1112539136	67	4805
2026-01-03 23:51:47.90	195.52	17.32	-47.5	-50.3	17.0	0.00e+00	0	43	0	1119879168	66	5008
2026-01-03 23:51:52.10	195.57	16.83	-47.6	-50.4	17.0	0.00e+00	0	43	0	1128267776	66	5080
2026-01-03 23:51:56.16	195.62	16.37	-47.7	-50.5	17.0	0.00e+00	0	43	0	1135607808	66	5107
2026-01-03 23:52:00.09	195.66	15.93	-47.9	-50.8	16.7	0.00e+00	0	43	0	1142947840	66	5283
2026-01-03 23:52:04.30	195.71	15.46	-48.3	-51.4	16.1	0.00e+00	0	43	0	1151336448	67	5370
2026-01-03 23:52:08.31	195.76	15.03	-48.2	-51.3	16.1	0.00e+00	0	43	0	1158676480	67	5310
2026-01-03 23:52:12.70	195.80	14.56	-48.5	-51.6	15.8	2.20e-06	0	43	0	1167065088	67	5516
2026-01-03 23:52:16.84	195.85	14.13	-48.4	-51.6	15.8	0.00e+00	0	43	0	1174405120	67	5483
2026-01-03 23:52:20.84	195.89	13.72	-48.3	-51.4	16.0	0.00e+00	0	43	0	1181745152	67	5376
2026-01-03 23:52:24.85	195.93	13.31	-48.0	-50.9	16.5	0.00e+00	0	43	0	1189085184	67	5098
2026-01-03 23:52:28.85	195.97	12.92	-47.7	-50.6	16.8	0.00e+00	0	43	0	1197473792	67	4909
2026-01-03 23:52:32.86	196.01	12.53	-47.4	-50.2	17.1	0.00e+00	0	43	0	1204813824	66	4946
2026-01-03 23:52:36.87	196.05	12.14	-47.4	-50.2	17.2	0.00e+00	0	43	0	1212153856	66	4928
2026-01-03 23:52:40.96	196.09	11.75	-47.4	-50.2	17.1	0.00e+00	0	43	0	1219493888	66	4941
2026-01-03 23:52:45.01	196.13	11.38	-47.6	-50.5	16.9	0.00e+00	0	43	0	1226833920	66	5119
2026-01-03 23:52:49.14	196.16	11.00	-47.3	-50.1	17.1	0.00e+00	0	43	0	1235222528	66	4919
2026-01-03 23:52:53.21	196.20	10.63	-47.3	-50.2	17.0	0.00e+00	0	43	0	1242562560	66	4945
2026-01-03 23:52:57.23	196.24	10.27	-47.4	-50.2	17.1	0.00e+00	0	43	0	1249902592	66	4935
2026-01-03 23:53:01.47	196.27	9.90	-47.3	-50.1	17.0	1.06e-05	0	43	0	1258291200	66	4909
2026-01-03 23:53:05.48	196.31	9.56	-47.5	-50.3	16.9	0.00e+00	0	43	0	1265631232	66	5030
2026-01-03 23:53:09.49	196.34	9.22	-47.5	-50.4	16.8	0.00e+00	0	43	0	1272971264	66	5046
2026-01-03 23:53:13.50	196.38	8.88	-52.9	-66.4	3.9	7.75e-01	0	42	104	1279262720	76	17988
2026-01-03 23:53:17.52	196.41	8.55	-54.0	-69.2	3.8	1.49e+00	0	43	104	1279262720	78	22123
2026-01-03 23:53:21.54	196.44	8.22	-53.7	-69.1	3.8	1.49e+00	0	42	104	1279262720	79	20639
2026-01-03 23:53:25.55	196.47	7.89	-54.3	-69.2	3.8	1.49e+00	0	43	104	1279262720	79	21004
2026-01-03 23:53:29.57	196.50	7.57	-54.3	-69.3	3.8	1.49e+00	0	43	104	1279262720	79	21098
2026-01-03 23:53:33.58	196.53	7.26	-54.2	-69.3	3.8	1.49e+00	0	43	104	1279262720	79	21054
2026-01-03 23:53:37.60	196.56	6.94	-53.7	-69.1	3.8	1.49e+00	0	43	104	1279262720	79	20578
2026-01-03 23:53:41.62	196.59	6.63	-53.9	-69.2	3.8	1.49e+00	0	43	104	1279262720	79	21016
2026-01-03 23:53:45.64	196.62	6.33	-54.0	-69.3	3.8	1.49e+00	0	43	104	1279262720	79	21188
2026-01-03 23:53:49.65	196.65	6.03	-54.0	-69.3	3.8	1.49e+00	0	43	104	1279262720	78	22370
2026-01-03 23:53:53.67	196.68	5.73	-54.0	-69.4	3.8	1.49e+00	0	43	104	1279262720	78	22533
2026-01-03 23:53:57.69	196.71	5.44	-54.0	-69.3	3.8	1.49e+00	0	43	104	1279262720	78	22453
2026-01-03 23:54:01.70	196.74	5.14	-54.0	-69.3	3.8	1.49e+00	0	43	104	1279262720	79	21180

#Closed at: 2026-01-03 23:54:04
#Recorded file [1279 MB]: D:/Data/31040_260104_024107.dat