passes_logs/2026/01/03/T1/T1__20260103_110433_FENGYUN_3E_rec.log

#Pass ID: 20260103_110433_FENGYUN 3E
#Satellite: FENGYUN 3E
#Configuration: FENGYUN 3E
#almurnet v.1.7.20251203
#Start time: 2026-01-03 11:04:35

#Version: 2.0.20230620
#Station: T1
#Location: 37.570604 lon 55.790049 lat
#TLE: 1 49008U 21062A   26002.95568549 -.00000227  00000+0 -86494-4 0  9990
#TLE: 2 49008  98.7475   8.2258 0001442 163.3458 196.7766 14.19882681233131

#Time	Az	El	Level	Level2	SNR	BER	BlckErr	Temp	State	Recorded	gain1	gain2
2026-01-03 11:04:35.34	53.78	5.05	-53.7	-64.7	3.8	8.46e-01	0	37	0	0	78	12291
2026-01-03 11:04:37.34	53.50	5.11	-53.9	-64.9	3.8	8.46e-01	0	37	104	0	78	12563
2026-01-03 11:04:39.35	53.22	5.17	-53.8	-64.8	3.8	8.47e-01	0	38	104	0	78	12432
2026-01-03 11:04:41.36	52.94	5.22	-53.8	-64.7	3.8	8.46e-01	0	37	104	0	78	12326
2026-01-03 11:04:43.36	52.66	5.28	-53.8	-64.8	3.8	8.48e-01	0	38	104	0	78	12388
2026-01-03 11:04:45.37	52.38	5.34	-53.8	-64.8	3.8	8.47e-01	0	38	104	0	78	12378
2026-01-03 11:04:47.38	52.09	5.39	-53.7	-64.7	3.8	8.47e-01	0	38	104	0	78	12268
2026-01-03 11:04:49.39	51.81	5.45	-54.1	-65.1	3.8	8.45e-01	0	38	104	0	78	12835
2026-01-03 11:04:51.40	51.52	5.50	-53.8	-64.7	3.8	8.46e-01	0	38	104	0	78	12249
2026-01-03 11:04:53.41	51.23	5.55	-53.8	-64.7	3.8	8.47e-01	0	38	104	0	78	12324
2026-01-03 11:04:55.42	50.94	5.61	-53.7	-64.7	3.8	8.46e-01	0	38	104	0	78	12281
2026-01-03 11:04:57.43	50.65	5.66	-53.7	-64.6	3.8	8.47e-01	0	38	104	0	78	12227
2026-01-03 11:04:59.44	50.36	5.71	-53.7	-64.7	3.8	8.46e-01	0	38	104	0	78	12246
2026-01-03 11:05:01.44	50.07	5.76	-54.1	-65.0	3.8	8.47e-01	0	38	104	0	78	12707
2026-01-03 11:05:03.45	49.78	5.81	-53.8	-64.7	3.8	8.48e-01	0	38	104	0	78	12342
2026-01-03 11:05:05.46	49.49	5.86	-53.7	-64.7	3.8	8.47e-01	0	38	104	0	78	12307
2026-01-03 11:05:07.47	49.19	5.91	-53.7	-64.7	3.8	8.47e-01	0	38	104	0	78	12260
2026-01-03 11:05:09.48	48.90	5.96	-53.7	-64.7	3.8	8.48e-01	0	38	104	0	78	12336
2026-01-03 11:05:11.49	48.60	6.01	-53.8	-64.7	3.8	8.47e-01	0	38	104	0	78	12374
2026-01-03 11:05:13.50	48.30	6.06	-53.7	-64.7	3.8	8.46e-01	0	39	104	0	78	12256
2026-01-03 11:05:15.50	48.00	6.11	-53.8	-64.7	3.8	8.47e-01	0	38	104	0	78	12358
2026-01-03 11:05:17.51	47.70	6.15	-54.0	-65.0	3.8	8.47e-01	0	39	104	0	78	12697
2026-01-03 11:05:19.52	47.40	6.20	-53.8	-64.7	3.8	8.46e-01	0	39	104	0	78	12314
2026-01-03 11:05:21.53	47.10	6.24	-54.2	-65.2	3.8	8.46e-01	0	38	104	0	78	13055
2026-01-03 11:05:23.54	46.80	6.29	-53.8	-64.7	3.8	8.47e-01	0	38	104	0	78	12367
2026-01-03 11:05:25.55	46.49	6.33	-53.8	-64.7	3.8	8.47e-01	0	39	104	0	78	12313
2026-01-03 11:05:27.56	46.19	6.37	-53.7	-64.7	3.8	8.47e-01	0	38	104	0	78	12323
2026-01-03 11:05:29.57	45.88	6.42	-53.8	-64.7	3.8	8.46e-01	0	39	104	0	78	12372
2026-01-03 11:05:31.58	45.58	6.46	-53.9	-64.9	3.8	8.48e-01	0	39	104	0	78	12533
2026-01-03 11:05:33.58	45.27	6.50	-53.8	-64.8	3.8	8.46e-01	0	39	104	0	78	12389
2026-01-03 11:05:35.59	44.96	6.54	-54.2	-65.2	3.8	8.47e-01	0	39	104	0	78	12996
2026-01-03 11:05:37.60	44.65	6.58	-53.8	-64.7	3.8	8.46e-01	0	39	104	0	78	12357
2026-01-03 11:05:39.61	44.34	6.62	-53.8	-64.8	3.8	8.46e-01	0	39	104	0	78	12386
2026-01-03 11:05:41.62	44.03	6.66	-53.8	-64.7	3.8	8.46e-01	0	39	104	0	78	12351
2026-01-03 11:05:43.63	43.72	6.69	-53.7	-64.7	3.8	8.48e-01	0	39	104	0	78	12280
2026-01-03 11:05:45.64	43.41	6.73	-53.8	-64.8	3.8	8.46e-01	0	39	104	0	78	12397
2026-01-03 11:05:47.65	43.10	6.77	-53.8	-64.8	3.8	8.47e-01	0	39	104	0	78	12387
2026-01-03 11:05:49.65	42.78	6.80	-54.4	-65.3	3.8	8.48e-01	0	39	104	0	78	13147
2026-01-03 11:05:51.66	42.47	6.84	-53.8	-64.7	3.8	8.47e-01	0	39	104	0	78	12247
2026-01-03 11:05:53.67	42.15	6.87	-53.7	-64.7	3.8	8.48e-01	0	39	104	0	78	12304
2026-01-03 11:05:55.68	41.84	6.90	-53.7	-64.7	3.8	8.47e-01	0	39	104	0	78	12316
2026-01-03 11:05:57.69	41.52	6.94	-53.8	-64.7	3.8	8.48e-01	0	39	104	0	78	12289
2026-01-03 11:05:59.70	41.20	6.97	-53.8	-64.7	3.8	8.46e-01	0	39	104	0	78	12336
2026-01-03 11:06:01.70	40.89	7.00	-53.8	-64.7	3.8	8.46e-01	0	39	104	0	78	12333
2026-01-03 11:06:03.71	40.57	7.03	-53.9	-64.8	3.8	8.47e-01	0	39	104	0	78	12459
2026-01-03 11:06:05.72	40.25	7.06	-53.8	-64.8	3.8	8.47e-01	0	39	104	0	78	12382
2026-01-03 11:06:07.73	39.93	7.09	-53.7	-64.7	3.8	8.47e-01	0	39	104	0	78	12266
2026-01-03 11:06:09.74	39.61	7.11	-53.7	-64.6	3.8	8.47e-01	0	39	104	0	78	12182
2026-01-03 11:06:11.75	39.28	7.14	-53.7	-64.7	3.8	8.47e-01	0	39	104	0	78	12270
2026-01-03 11:06:13.76	38.96	7.17	-53.7	-64.7	3.8	8.47e-01	0	39	104	0	78	12289
2026-01-03 11:06:15.76	38.64	7.19	-54.0	-65.0	3.8	8.47e-01	0	39	104	0	78	12729
2026-01-03 11:06:17.77	38.32	7.22	-53.8	-64.7	3.8	8.47e-01	0	39	104	0	78	12329
2026-01-03 11:06:19.78	37.99	7.24	-53.8	-64.7	3.8	8.45e-01	0	39	104	0	78	12270
2026-01-03 11:06:21.79	37.67	7.26	-53.7	-64.7	3.8	8.47e-01	0	39	104	0	78	12325
2026-01-03 11:06:23.80	37.35	7.28	-53.7	-64.7	3.8	8.47e-01	0	39	104	0	78	12248
2026-01-03 11:06:25.80	37.02	7.30	-53.7	-64.6	3.8	8.47e-01	0	39	104	0	78	12221
2026-01-03 11:06:27.81	36.70	7.32	-53.8	-64.7	3.8	8.47e-01	0	39	104	0	78	12320
2026-01-03 11:06:29.82	36.37	7.34	-53.9	-64.8	3.8	8.46e-01	0	39	104	0	78	12406
2026-01-03 11:06:31.83	36.04	7.36	-53.8	-64.8	3.8	8.46e-01	0	39	104	0	78	12442
2026-01-03 11:06:33.84	35.72	7.38	-53.7	-64.7	3.8	8.46e-01	0	39	104	0	78	12247
2026-01-03 11:06:35.85	35.39	7.40	-53.7	-64.7	3.8	8.48e-01	0	39	104	0	78	12278
2026-01-03 11:06:37.86	35.06	7.41	-53.7	-64.7	3.8	8.46e-01	0	39	104	0	78	12251
2026-01-03 11:06:39.86	34.74	7.43	-53.7	-64.8	3.8	8.47e-01	0	39	104	0	78	12426
2026-01-03 11:06:41.87	34.41	7.44	-54.2	-65.2	3.8	8.48e-01	0	39	104	0	78	13010
2026-01-03 11:06:43.88	34.08	7.45	-54.0	-65.0	3.8	8.46e-01	0	40	104	0	78	12702
2026-01-03 11:06:45.89	33.75	7.47	-53.8	-64.7	3.8	8.46e-01	0	39	104	0	78	12285
2026-01-03 11:06:47.90	33.42	7.48	-53.8	-64.8	3.8	8.47e-01	0	39	104	0	78	12436
2026-01-03 11:06:49.91	33.09	7.49	-53.8	-64.7	3.8	8.47e-01	0	40	104	0	78	12317
2026-01-03 11:06:51.92	32.76	7.50	-53.7	-64.7	3.8	8.48e-01	0	40	104	0	78	12268
2026-01-03 11:06:53.93	32.43	7.51	-53.8	-64.7	3.8	8.47e-01	0	39	104	0	78	12339
2026-01-03 11:06:55.94	32.10	7.51	-53.7	-64.6	3.8	8.46e-01	0	40	104	0	78	12216
2026-01-03 11:06:57.94	31.77	7.52	-53.9	-64.9	3.8	8.47e-01	0	39	104	0	78	12600
2026-01-03 11:06:59.95	31.44	7.53	-53.8	-64.7	3.8	8.46e-01	0	40	104	0	78	12316
2026-01-03 11:07:01.96	31.11	7.53	-53.7	-64.7	3.8	8.47e-01	0	39	104	0	78	12305
2026-01-03 11:07:03.97	30.78	7.54	-53.7	-64.7	3.8	8.48e-01	0	39	104	0	78	12338
2026-01-03 11:07:05.98	30.45	7.54	-53.8	-64.7	3.8	8.48e-01	0	39	104	0	78	12305
2026-01-03 11:07:07.99	30.12	7.54	-53.8	-64.7	3.8	8.48e-01	0	39	104	0	78	12349
2026-01-03 11:07:10.00	29.79	7.54	-53.7	-64.7	3.8	8.46e-01	0	40	104	0	78	12341
2026-01-03 11:07:12.01	29.46	7.54	-53.7	-64.7	3.8	8.46e-01	0	40	104	0	78	12299
2026-01-03 11:07:14.02	29.13	7.54	-53.7	-64.7	3.8	8.47e-01	0	40	104	0	78	12315
2026-01-03 11:07:16.02	28.80	7.54	-54.3	-65.2	3.8	8.47e-01	0	40	104	0	78	13098
2026-01-03 11:07:18.04	28.47	7.54	-53.8	-64.7	3.8	8.46e-01	0	40	104	0	78	12326
2026-01-03 11:07:20.04	28.14	7.54	-53.7	-64.7	3.8	8.46e-01	0	40	104	0	78	12240
2026-01-03 11:07:22.05	27.81	7.53	-53.7	-64.7	3.8	8.47e-01	0	40	104	0	78	12280
2026-01-03 11:07:24.06	27.48	7.53	-53.7	-64.7	3.8	8.46e-01	0	40	104	0	78	12297
2026-01-03 11:07:26.07	27.15	7.52	-53.7	-64.6	3.8	8.47e-01	0	40	104	0	78	12226
2026-01-03 11:07:28.08	26.82	7.52	-53.8	-64.6	3.8	8.46e-01	0	39	104	0	78	12223
2026-01-03 11:07:30.09	26.49	7.51	-53.8	-64.7	3.8	8.46e-01	0	40	104	0	78	12362
2026-01-03 11:07:32.10	26.16	7.50	-53.8	-64.7	3.8	8.46e-01	0	40	104	0	78	12321
2026-01-03 11:07:34.10	25.83	7.49	-54.3	-65.2	3.8	8.48e-01	0	40	104	0	78	13081
2026-01-03 11:07:36.11	25.50	7.48	-53.8	-64.8	3.8	8.47e-01	0	40	104	0	78	12454
2026-01-03 11:07:38.12	25.17	7.47	-53.8	-64.8	3.8	8.46e-01	0	40	104	0	78	12424
2026-01-03 11:07:40.13	24.84	7.46	-53.8	-64.7	3.8	8.47e-01	0	40	104	0	78	12293
2026-01-03 11:07:42.14	24.51	7.45	-53.7	-64.7	3.8	8.46e-01	0	39	104	0	78	12369
2026-01-03 11:07:44.15	24.18	7.43	-53.7	-64.7	3.8	8.47e-01	0	39	104	0	78	12302
2026-01-03 11:07:46.15	23.86	7.42	-53.7	-64.7	3.8	8.48e-01	0	40	104	0	78	12267
2026-01-03 11:07:48.16	23.53	7.41	-53.8	-64.8	3.8	8.48e-01	0	40	104	0	78	12431
2026-01-03 11:07:50.17	23.20	7.39	-54.1	-65.0	3.8	8.47e-01	0	40	104	0	78	12784
2026-01-03 11:07:52.18	22.88	7.37	-53.8	-64.7	3.8	8.47e-01	0	40	104	0	78	12329
2026-01-03 11:07:54.19	22.55	7.35	-53.8	-64.7	3.8	8.46e-01	0	40	104	0	78	12341
2026-01-03 11:07:56.19	22.22	7.34	-53.7	-64.7	3.8	8.47e-01	0	40	104	0	78	12311
2026-01-03 11:07:58.20	21.90	7.32	-53.8	-64.7	3.8	8.47e-01	0	39	104	0	78	12374
2026-01-03 11:08:00.21	21.57	7.30	-53.8	-64.8	3.8	8.47e-01	0	39	104	0	78	12424
2026-01-03 11:08:02.22	21.25	7.27	-53.8	-64.7	3.8	8.47e-01	0	40	104	0	78	12307
2026-01-03 11:08:04.23	20.92	7.25	-54.2	-65.2	3.8	8.46e-01	0	40	104	0	78	13051
2026-01-03 11:08:06.24	20.60	7.23	-53.8	-64.7	3.8	8.47e-01	0	40	104	0	78	12347
2026-01-03 11:08:08.24	20.28	7.21	-53.8	-64.7	3.8	8.46e-01	0	40	104	0	78	12319
2026-01-03 11:08:10.25	19.96	7.18	-53.8	-64.7	3.8	8.46e-01	0	40	104	0	78	12350
2026-01-03 11:08:12.26	19.63	7.16	-53.8	-64.8	3.8	8.46e-01	0	40	104	0	78	12422
2026-01-03 11:08:14.27	19.31	7.13	-53.8	-64.7	3.8	8.48e-01	0	40	104	0	78	12336
2026-01-03 11:08:16.27	18.99	7.10	-53.8	-64.8	3.8	8.48e-01	0	40	104	0	78	12405
2026-01-03 11:08:18.28	18.67	7.07	-53.8	-64.8	3.8	8.46e-01	0	40	104	0	78	12392
2026-01-03 11:08:20.29	18.35	7.05	-54.3	-65.3	3.8	8.46e-01	0	40	104	0	78	13246
2026-01-03 11:08:22.30	18.04	7.02	-53.8	-64.7	3.8	8.47e-01	0	39	104	0	78	12355
2026-01-03 11:08:24.31	17.72	6.99	-53.8	-64.7	3.8	8.46e-01	0	40	104	0	78	12347
2026-01-03 11:08:26.32	17.40	6.96	-53.8	-64.7	3.8	8.46e-01	0	40	104	0	78	12354
2026-01-03 11:08:28.33	17.08	6.92	-53.8	-64.7	3.8	8.46e-01	0	39	104	0	78	12279
2026-01-03 11:08:30.34	16.77	6.89	-53.8	-64.7	3.8	8.47e-01	0	40	104	0	78	12347
2026-01-03 11:08:32.35	16.45	6.86	-53.9	-64.9	3.8	8.47e-01	0	40	104	0	78	12614
2026-01-03 11:08:34.35	16.14	6.82	-53.8	-64.7	3.8	8.47e-01	0	40	104	0	78	12350
2026-01-03 11:08:36.36	15.82	6.79	-53.8	-64.8	3.8	8.47e-01	0	39	104	0	78	12394
2026-01-03 11:08:38.37	15.51	6.75	-53.7	-64.7	3.8	8.47e-01	0	40	104	0	78	12369
2026-01-03 11:08:40.38	15.20	6.72	-53.8	-64.8	3.8	8.47e-01	0	40	104	0	78	12392
2026-01-03 11:08:42.39	14.89	6.68	-54.3	-65.2	3.8	8.47e-01	0	40	104	0	78	13063
2026-01-03 11:08:44.40	14.58	6.64	-53.8	-64.8	3.8	8.46e-01	0	39	104	0	78	12458
2026-01-03 11:08:46.41	14.27	6.60	-53.8	-64.7	3.8	8.47e-01	0	40	104	0	78	12354
2026-01-03 11:08:48.41	13.96	6.56	-53.8	-64.7	3.8	8.47e-01	0	39	104	0	78	12306
2026-01-03 11:08:50.42	13.65	6.52	-54.0	-65.0	3.8	8.48e-01	0	39	104	0	78	12726
2026-01-03 11:08:52.43	13.34	6.48	-53.8	-64.8	3.8	8.46e-01	0	40	104	0	78	12385
2026-01-03 11:08:54.44	13.04	6.44	-53.7	-64.6	3.8	8.45e-01	0	40	104	0	78	12230
2026-01-03 11:08:56.45	12.73	6.40	-53.7	-64.7	3.8	8.48e-01	0	39	104	0	78	12270
2026-01-03 11:08:58.45	12.43	6.36	-53.7	-64.7	3.8	8.46e-01	0	40	104	0	78	12267
2026-01-03 11:09:00.47	12.12	6.31	-53.7	-64.6	3.8	8.47e-01	0	39	104	0	78	12233
2026-01-03 11:09:02.47	11.82	6.27	-53.8	-64.7	3.8	8.46e-01	0	40	104	0	78	12341
2026-01-03 11:09:04.48	11.52	6.23	-54.3	-65.3	3.8	8.46e-01	0	40	104	0	78	13205
2026-01-03 11:09:06.49	11.22	6.18	-53.9	-64.9	3.8	8.47e-01	0	40	104	0	78	12563
2026-01-03 11:09:08.50	10.92	6.13	-53.8	-64.8	3.8	8.47e-01	0	40	104	0	78	12479
2026-01-03 11:09:10.51	10.62	6.09	-53.8	-64.8	3.8	8.46e-01	0	40	104	0	78	12381
2026-01-03 11:09:12.52	10.32	6.04	-53.8	-64.7	3.8	8.47e-01	0	40	104	0	78	12301
2026-01-03 11:09:14.53	10.02	5.99	-53.8	-64.8	3.8	8.46e-01	0	40	104	0	78	12403
2026-01-03 11:09:16.53	9.73	5.94	-53.8	-64.8	3.8	8.46e-01	0	40	104	0	78	12385
2026-01-03 11:09:18.54	9.44	5.89	-54.0	-64.9	3.8	8.47e-01	0	39	104	0	78	12624
2026-01-03 11:09:20.55	9.14	5.84	-53.8	-64.8	3.8	8.47e-01	0	40	104	0	78	12502
2026-01-03 11:09:22.56	8.85	5.79	-53.8	-64.7	3.8	8.47e-01	0	39	104	0	78	12321
2026-01-03 11:09:24.57	8.56	5.74	-53.8	-64.8	3.8	8.48e-01	0	40	104	0	78	12393
2026-01-03 11:09:26.58	8.27	5.69	-53.8	-64.7	3.8	8.47e-01	0	40	104	0	78	12274
2026-01-03 11:09:28.59	7.98	5.64	-53.8	-64.8	3.8	8.48e-01	0	40	104	0	78	12401
2026-01-03 11:09:30.60	7.69	5.59	-54.3	-65.2	3.8	8.47e-01	0	39	104	0	78	13070
2026-01-03 11:09:32.61	7.40	5.53	-53.9	-64.8	3.8	8.47e-01	0	40	104	0	78	12485
2026-01-03 11:09:34.61	7.11	5.48	-53.8	-64.8	3.8	8.46e-01	0	40	104	0	78	12390
2026-01-03 11:09:36.62	6.83	5.42	-53.8	-64.8	3.8	8.47e-01	0	40	104	0	78	12434
2026-01-03 11:09:38.63	6.55	5.37	-53.8	-64.8	3.8	8.47e-01	0	40	104	0	78	12384
2026-01-03 11:09:40.64	6.26	5.31	-53.8	-64.6	3.8	8.47e-01	0	40	104	0	78	12206
2026-01-03 11:09:42.65	5.98	5.26	-53.7	-64.7	3.8	8.47e-01	0	40	104	0	78	12294
2026-01-03 11:09:44.66	5.70	5.20	-53.7	-64.7	3.8	8.47e-01	0	40	104	0	78	12297
2026-01-03 11:09:46.67	5.42	5.14	-54.1	-65.1	3.8	8.46e-01	0	40	104	0	78	12834
2026-01-03 11:09:48.68	5.14	5.09	-54.0	-64.9	3.8	8.47e-01	0	40	104	0	78	12662
2026-01-03 11:09:50.69	4.86	5.03	-53.8	-64.8	3.8	8.47e-01	0	40	104	0	78	12452

#Closed at: 2026-01-03 11:09:52
#Recorded file [0 MB]: D:/Data/31040_260103_140435.dat