passes_logs/2026/01/03/T1/T1__20260103_065616_NOAA_20_JPSS-1_rec.log

#Pass ID: 20260103_065616_NOAA 20 (JPSS-1)
#Satellite: NOAA 20 (JPSS-1)
#Configuration: NOAA 20
#almurnet v.1.7.20251203
#Start time: 2026-01-03 06:56:17

#Version: 2.0.20230620
#Station: T1
#Location: 37.570604 lon 55.790049 lat
#TLE: 1 43013U 17073A   26002.21975278  .00000202  00000+0  11669-3 0  9999
#TLE: 2 43013  98.7622 303.2950 0001915  57.9213 302.2149 14.19532512420923

#Time	Az	El	Level	Level2	SNR	BER	BlckErr	Temp	State	Recorded	gain1	gain2
2026-01-03 06:56:17.10	59.95	5.01	-53.5	-68.8	3.8	1.49e+00	0	42	0	0	77	22518
2026-01-03 06:56:19.11	59.68	5.07	-52.8	-68.1	3.8	1.49e+00	0	42	104	0	76	21785
2026-01-03 06:56:21.12	59.41	5.14	-52.7	-68.0	3.8	1.49e+00	0	42	104	0	77	20343
2026-01-03 06:56:23.12	59.14	5.21	-52.4	-67.7	3.8	1.49e+00	0	41	104	0	75	22140
2026-01-03 06:56:25.13	58.87	5.27	-52.4	-67.7	3.8	1.49e+00	0	41	104	0	75	22085
2026-01-03 06:56:27.14	58.59	5.34	-54.1	-69.4	3.8	1.49e+00	0	41	104	0	78	22572
2026-01-03 06:56:29.15	58.31	5.40	-53.5	-68.8	3.8	1.49e+00	0	41	104	0	78	21090
2026-01-03 06:56:31.16	58.04	5.47	-53.9	-69.2	3.8	1.49e+00	0	41	104	0	78	22171
2026-01-03 06:56:33.17	57.76	5.53	-53.1	-68.4	3.8	1.49e+00	0	41	104	0	77	21371
2026-01-03 06:56:35.18	57.48	5.59	-53.3	-68.6	3.8	1.49e+00	0	41	104	0	77	21939
2026-01-03 06:56:37.18	57.20	5.66	-53.3	-68.6	3.8	1.49e+00	0	41	104	0	77	21865
2026-01-03 06:56:39.19	56.92	5.72	-53.0	-68.4	3.8	1.49e+00	0	41	104	0	77	21274
2026-01-03 06:56:41.20	56.64	5.78	-53.4	-68.8	3.8	1.49e+00	0	41	104	0	78	21185
2026-01-03 06:56:43.21	56.35	5.84	-53.8	-69.1	3.8	1.49e+00	0	40	104	0	78	21870
2026-01-03 06:56:45.22	56.07	5.90	-53.2	-68.5	3.8	1.49e+00	0	41	104	0	77	21649
2026-01-03 06:56:47.22	55.78	5.96	-53.6	-69.0	3.8	1.49e+00	0	41	104	0	78	21543
2026-01-03 06:56:49.23	55.49	6.02	-53.6	-68.9	3.8	1.49e+00	0	40	104	0	77	22533
2026-01-03 06:56:51.24	55.20	6.08	-53.0	-68.3	3.8	1.49e+00	0	41	104	0	77	21064
2026-01-03 06:56:53.25	54.91	6.14	-53.3	-68.5	3.8	1.49e+00	0	40	104	0	77	21712
2026-01-03 06:56:55.26	54.62	6.20	-53.0	-68.3	3.8	1.49e+00	0	40	104	0	77	21092
2026-01-03 06:56:57.27	54.33	6.26	-53.2	-68.5	3.8	1.49e+00	0	40	104	0	77	21737
2026-01-03 06:56:59.28	54.03	6.31	-53.9	-69.2	3.8	1.49e+00	0	40	104	0	78	22055
2026-01-03 06:57:01.29	53.74	6.37	-53.1	-68.4	3.8	1.49e+00	0	40	104	0	78	20149
2026-01-03 06:57:03.30	53.44	6.43	-53.2	-68.5	3.8	1.49e+00	0	40	104	0	78	20420
2026-01-03 06:57:05.30	53.15	6.48	-53.0	-68.3	3.8	1.49e+00	0	40	104	0	77	21044
2026-01-03 06:57:07.31	52.85	6.54	-53.3	-68.6	3.8	1.49e+00	0	40	104	0	77	21769
2026-01-03 06:57:09.32	52.55	6.59	-53.4	-68.7	3.8	1.49e+00	0	40	104	0	78	20919
2026-01-03 06:57:11.33	52.25	6.64	-53.3	-68.6	3.8	1.49e+00	0	40	104	0	77	21802
2026-01-03 06:57:13.34	51.95	6.70	-53.3	-68.5	3.8	1.49e+00	0	40	104	0	78	20505
2026-01-03 06:57:15.35	51.64	6.75	-53.3	-68.6	3.8	1.49e+00	0	40	104	0	77	21777
2026-01-03 06:57:17.36	51.34	6.80	-53.0	-68.3	3.8	1.49e+00	0	40	104	0	77	21235
2026-01-03 06:57:19.37	51.03	6.85	-52.8	-68.0	3.8	1.49e+00	0	40	104	0	76	21665
2026-01-03 06:57:21.38	50.73	6.90	-52.4	-67.7	3.8	1.49e+00	0	40	104	0	76	20841
2026-01-03 06:57:23.39	50.42	6.95	-52.7	-68.3	3.8	1.49e+00	0	40	104	0	76	22313
2026-01-03 06:57:25.40	50.11	7.00	-53.4	-68.7	3.8	1.49e+00	0	40	104	0	77	22110
2026-01-03 06:57:27.40	49.80	7.05	-53.5	-68.8	3.8	1.49e+00	0	40	104	0	77	22368
2026-01-03 06:57:29.41	49.49	7.09	-53.4	-68.6	3.8	1.49e+00	0	40	104	0	77	21978
2026-01-03 06:57:31.42	49.18	7.14	-53.4	-68.6	3.8	1.49e+00	0	40	104	0	77	21974
2026-01-03 06:57:33.43	48.87	7.19	-53.4	-68.7	3.8	1.49e+00	0	40	104	0	77	22080
2026-01-03 06:57:35.44	48.55	7.23	-53.5	-68.8	3.8	1.49e+00	0	40	104	0	77	22475
2026-01-03 06:57:37.45	48.24	7.28	-53.3	-68.6	3.8	1.49e+00	0	40	104	0	77	21964
2026-01-03 06:57:39.46	47.93	7.32	-53.5	-68.7	3.8	1.49e+00	0	40	104	0	77	22215
2026-01-03 06:57:41.46	47.61	7.36	-53.3	-68.6	3.8	1.49e+00	0	40	104	0	77	21779
2026-01-03 06:57:43.47	47.29	7.41	-53.4	-68.7	3.8	1.49e+00	0	40	104	0	77	22070
2026-01-03 06:57:45.48	46.97	7.45	-53.4	-68.7	3.8	1.49e+00	0	40	104	0	77	22085
2026-01-03 06:57:47.49	46.66	7.49	-53.4	-68.7	3.8	1.49e+00	0	40	104	0	77	22123
2026-01-03 06:57:49.50	46.34	7.53	-53.4	-68.7	3.8	1.49e+00	0	40	104	0	77	22120
2026-01-03 06:57:51.51	46.01	7.57	-53.4	-68.7	3.8	1.49e+00	0	40	104	0	77	22013
2026-01-03 06:57:53.52	45.69	7.61	-53.3	-68.6	3.8	1.49e+00	0	40	104	0	77	21908
2026-01-03 06:57:55.53	45.37	7.65	-53.3	-68.6	3.8	1.49e+00	0	40	104	0	77	21899
2026-01-03 06:57:57.53	45.05	7.68	-52.9	-68.2	3.8	1.49e+00	0	40	104	0	76	22105
2026-01-03 06:57:59.54	44.72	7.72	-53.0	-68.3	3.8	1.49e+00	0	39	104	0	76	22411
2026-01-03 06:58:01.55	44.40	7.75	-53.0	-68.3	3.8	1.49e+00	0	40	104	0	76	22265
2026-01-03 06:58:03.56	44.07	7.79	-52.9	-68.2	3.8	1.49e+00	0	40	104	0	77	20870
2026-01-03 06:58:05.57	43.75	7.82	-52.9	-68.2	3.8	1.49e+00	0	40	104	0	77	20895
2026-01-03 06:58:07.58	43.42	7.85	-52.9	-68.2	3.8	1.49e+00	0	39	104	0	77	20850
2026-01-03 06:58:09.59	43.09	7.89	-52.9	-68.2	3.8	1.49e+00	0	39	104	0	77	20869
2026-01-03 06:58:11.59	42.76	7.92	-52.9	-68.2	3.8	1.49e+00	0	39	104	0	76	22255
2026-01-03 06:58:13.60	42.43	7.95	-52.1	-67.5	3.8	1.49e+00	0	40	104	0	76	20331
2026-01-03 06:58:15.61	42.10	7.98	-52.2	-67.5	3.8	1.49e+00	0	40	104	0	75	21722
2026-01-03 06:58:17.62	41.77	8.01	-52.8	-68.1	3.8	1.49e+00	0	40	104	0	76	21876
2026-01-03 06:58:19.63	41.44	8.03	-52.5	-67.8	3.8	1.49e+00	0	39	104	0	76	21031
2026-01-03 06:58:21.64	41.11	8.06	-52.5	-67.8	3.8	1.49e+00	0	40	104	0	76	21154
2026-01-03 06:58:23.65	40.78	8.09	-52.6	-67.8	3.8	1.49e+00	0	40	104	0	76	21183
2026-01-03 06:58:25.65	40.44	8.11	-52.5	-67.8	3.8	1.49e+00	0	40	104	0	76	21205
2026-01-03 06:58:27.66	40.11	8.14	-52.5	-67.8	3.8	1.49e+00	0	39	104	0	76	21154
2026-01-03 06:58:29.67	39.78	8.16	-52.6	-67.8	3.8	1.49e+00	0	39	104	0	76	21196
2026-01-03 06:58:31.68	39.44	8.18	-52.5	-67.8	3.8	1.49e+00	0	40	104	0	76	21081
2026-01-03 06:58:33.69	39.11	8.20	-52.5	-67.8	3.8	1.49e+00	0	40	104	0	76	21158
2026-01-03 06:58:35.70	38.77	8.22	-52.6	-67.9	3.8	1.49e+00	0	40	104	0	76	21313
2026-01-03 06:58:37.71	38.43	8.24	-52.5	-67.8	3.8	1.49e+00	0	39	104	0	76	21174
2026-01-03 06:58:39.71	38.10	8.26	-52.6	-67.8	3.8	1.49e+00	0	40	104	0	76	21204
2026-01-03 06:58:41.72	37.76	8.28	-52.5	-67.9	3.8	1.49e+00	0	39	104	0	76	21303
2026-01-03 06:58:43.73	37.42	8.30	-52.6	-67.9	3.8	1.49e+00	0	39	104	0	76	21271
2026-01-03 06:58:45.74	37.09	8.31	-52.5	-67.8	3.8	1.49e+00	0	39	104	0	76	21174
2026-01-03 06:58:47.75	36.75	8.33	-52.5	-67.8	3.8	1.49e+00	0	39	104	0	76	21163
2026-01-03 06:58:49.75	36.41	8.34	-52.5	-67.8	3.8	1.49e+00	0	39	104	0	75	22464
2026-01-03 06:58:51.76	36.07	8.36	-52.5	-67.8	3.8	1.49e+00	0	40	104	0	75	22341
2026-01-03 06:58:53.77	35.73	8.37	-52.2	-67.5	3.8	1.49e+00	0	39	104	0	75	21674
2026-01-03 06:58:55.78	35.39	8.38	-52.2	-67.5	3.8	1.49e+00	0	39	104	0	75	21593
2026-01-03 06:58:57.79	35.05	8.39	-52.3	-67.6	3.8	1.49e+00	0	39	104	0	75	21850
2026-01-03 06:58:59.80	34.71	8.40	-52.1	-67.4	3.8	1.49e+00	0	40	104	0	75	21365
2026-01-03 06:59:01.81	34.37	8.41	-52.1	-67.4	3.8	1.49e+00	0	39	104	0	75	21340
2026-01-03 06:59:03.82	34.03	8.42	-52.2	-67.5	3.8	1.49e+00	0	39	104	0	75	21514
2026-01-03 06:59:05.83	33.69	8.42	-52.2	-67.5	3.8	1.49e+00	0	39	104	0	75	21696
2026-01-03 06:59:07.83	33.35	8.43	-52.2	-67.5	3.8	1.49e+00	0	40	104	0	75	21726
2026-01-03 06:59:09.84	33.01	8.43	-52.3	-67.6	3.8	1.49e+00	0	40	104	0	75	21909
2026-01-03 06:59:11.85	32.67	8.44	-52.3	-67.6	3.8	1.49e+00	0	39	104	0	75	21821
2026-01-03 06:59:13.85	32.33	8.44	-52.3	-67.6	3.8	1.49e+00	0	39	104	0	75	21866
2026-01-03 06:59:15.86	31.99	8.44	-52.4	-67.6	3.8	1.49e+00	0	39	104	0	75	21826
2026-01-03 06:59:17.87	31.65	8.44	-52.3	-67.6	3.8	1.49e+00	0	40	104	0	75	21921
2026-01-03 06:59:19.88	31.31	8.44	-52.3	-67.6	3.8	1.49e+00	0	40	104	0	75	21887
2026-01-03 06:59:21.89	30.96	8.44	-52.3	-67.6	3.8	1.49e+00	0	39	104	0	75	21830
2026-01-03 06:59:23.90	30.62	8.44	-52.3	-67.6	3.8	1.49e+00	0	40	104	0	75	21900
2026-01-03 06:59:25.91	30.28	8.44	-52.3	-67.6	3.8	1.49e+00	0	39	104	0	75	21812
2026-01-03 06:59:27.91	29.94	8.43	-52.3	-67.6	3.8	1.49e+00	0	39	104	0	75	21881
2026-01-03 06:59:29.92	29.60	8.43	-52.3	-67.6	3.8	1.49e+00	0	39	104	0	75	21857
2026-01-03 06:59:31.93	29.26	8.42	-52.3	-67.6	3.8	1.49e+00	0	39	104	0	75	21850
2026-01-03 06:59:33.94	28.92	8.41	-52.3	-67.6	3.8	1.49e+00	0	39	104	0	75	21963
2026-01-03 06:59:35.95	28.58	8.41	-52.3	-67.6	3.8	1.49e+00	0	39	104	0	75	21824
2026-01-03 06:59:37.96	28.24	8.40	-52.3	-67.6	3.8	1.49e+00	0	39	104	0	75	21831
2026-01-03 06:59:39.97	27.90	8.39	-52.3	-67.6	3.8	1.49e+00	0	39	104	0	75	21951
2026-01-03 06:59:41.98	27.56	8.38	-52.3	-67.6	3.8	1.49e+00	0	39	104	0	75	21877
2026-01-03 06:59:43.99	27.22	8.37	-52.3	-67.6	3.8	1.49e+00	0	39	104	0	75	21809
2026-01-03 06:59:45.99	26.88	8.35	-52.3	-67.6	3.8	1.49e+00	0	39	104	0	75	21909
2026-01-03 06:59:48.00	26.55	8.34	-52.3	-67.6	3.8	1.49e+00	0	40	104	0	75	21897
2026-01-03 06:59:50.01	26.21	8.33	-52.3	-67.6	3.8	1.49e+00	0	39	104	0	75	21878
2026-01-03 06:59:52.02	25.87	8.31	-52.3	-67.6	3.8	1.49e+00	0	39	104	0	75	21801
2026-01-03 06:59:54.03	25.53	8.30	-52.3	-67.6	3.8	1.49e+00	0	39	104	0	75	21769
2026-01-03 06:59:56.04	25.19	8.28	-52.3	-67.6	3.8	1.49e+00	0	39	104	0	75	21879
2026-01-03 06:59:58.04	24.86	8.26	-52.3	-67.6	3.8	1.49e+00	0	39	104	0	75	21831
2026-01-03 07:00:00.05	24.52	8.24	-52.4	-67.6	3.8	1.49e+00	0	39	104	0	75	21964
2026-01-03 07:00:02.06	24.19	8.22	-52.3	-67.6	3.8	1.49e+00	0	39	104	0	75	21944
2026-01-03 07:00:04.07	23.85	8.20	-52.3	-67.6	3.8	1.49e+00	0	39	104	0	75	21811
2026-01-03 07:00:06.08	23.52	8.18	-52.3	-67.6	3.8	1.49e+00	0	39	104	0	75	21893
2026-01-03 07:00:08.09	23.18	8.16	-52.3	-67.6	3.8	1.49e+00	0	40	104	0	75	21869
2026-01-03 07:00:10.10	22.85	8.13	-52.3	-67.6	3.8	1.49e+00	0	39	104	0	75	21828
2026-01-03 07:00:12.11	22.51	8.11	-52.3	-67.6	3.8	1.49e+00	0	39	104	0	75	21795
2026-01-03 07:00:14.11	22.18	8.08	-52.3	-67.6	3.8	1.49e+00	0	39	104	0	75	21887
2026-01-03 07:00:16.12	21.85	8.06	-52.3	-67.6	3.8	1.49e+00	0	39	104	0	75	21832
2026-01-03 07:00:18.13	21.52	8.03	-52.3	-67.6	3.8	1.49e+00	0	39	104	0	75	21824
2026-01-03 07:00:20.14	21.19	8.00	-52.3	-67.6	3.8	1.49e+00	0	39	104	0	75	21871
2026-01-03 07:00:22.15	20.86	7.97	-52.3	-67.6	3.8	1.49e+00	0	39	104	0	75	21888
2026-01-03 07:00:24.16	20.53	7.94	-52.3	-67.6	3.8	1.49e+00	0	39	104	0	75	21828
2026-01-03 07:00:26.17	20.20	7.91	-52.3	-67.6	3.8	1.49e+00	0	39	104	0	75	21876
2026-01-03 07:00:28.17	19.87	7.88	-52.3	-67.6	3.8	1.49e+00	0	39	104	0	75	21810
2026-01-03 07:00:30.18	19.55	7.85	-52.3	-67.6	3.8	1.49e+00	0	39	104	0	75	21832
2026-01-03 07:00:32.19	19.22	7.82	-52.3	-67.6	3.8	1.49e+00	0	39	104	0	75	21887
2026-01-03 07:00:34.20	18.89	7.78	-52.3	-67.6	3.8	1.49e+00	0	39	104	0	75	21949
2026-01-03 07:00:36.20	18.57	7.75	-52.3	-67.6	3.8	1.49e+00	0	39	104	0	75	21881
2026-01-03 07:00:38.21	18.24	7.71	-52.3	-67.6	3.8	1.49e+00	0	39	104	0	75	21766
2026-01-03 07:00:40.22	17.92	7.68	-52.3	-67.6	3.8	1.49e+00	0	39	104	0	75	21815
2026-01-03 07:00:42.23	17.60	7.64	-52.3	-67.6	3.8	1.49e+00	0	39	104	0	75	21834
2026-01-03 07:00:44.24	17.28	7.60	-52.3	-67.5	3.8	1.49e+00	0	39	104	0	75	21752
2026-01-03 07:00:46.25	16.96	7.56	-52.3	-67.6	3.8	1.49e+00	0	39	104	0	75	21783
2026-01-03 07:00:48.26	16.64	7.52	-52.3	-67.6	3.8	1.49e+00	0	39	104	0	75	21789
2026-01-03 07:00:50.27	16.32	7.48	-52.3	-67.6	3.8	1.49e+00	0	39	104	0	75	21860
2026-01-03 07:00:52.27	16.00	7.44	-52.3	-67.6	3.8	1.49e+00	0	39	104	0	75	21892
2026-01-03 07:00:54.28	15.68	7.40	-52.3	-67.6	3.8	1.49e+00	0	39	104	0	75	21874
2026-01-03 07:00:56.29	15.37	7.36	-52.3	-67.6	3.8	1.49e+00	0	39	104	0	75	21830
2026-01-03 07:00:58.30	15.05	7.31	-52.3	-67.6	3.8	1.49e+00	0	39	104	0	75	21844
2026-01-03 07:01:00.31	14.74	7.27	-52.4	-67.6	3.8	1.49e+00	0	39	104	0	75	21959
2026-01-03 07:01:02.31	14.42	7.23	-52.4	-67.6	3.8	1.49e+00	0	39	104	0	75	21983
2026-01-03 07:01:04.32	14.11	7.18	-52.5	-67.7	3.8	1.49e+00	0	39	104	0	76	20908
2026-01-03 07:01:06.33	13.80	7.13	-52.5	-67.8	3.8	1.49e+00	0	39	104	0	76	21075
2026-01-03 07:01:08.34	13.49	7.09	-52.6	-67.7	3.8	1.49e+00	0	39	104	0	76	20960
2026-01-03 07:01:10.34	13.18	7.04	-52.5	-67.8	3.8	1.49e+00	0	39	104	0	76	21155
2026-01-03 07:01:12.35	12.87	6.99	-52.5	-67.8	3.8	1.49e+00	0	39	104	0	76	21032
2026-01-03 07:01:14.36	12.57	6.94	-52.4	-67.7	3.8	1.49e+00	0	39	104	0	76	20916
2026-01-03 07:01:16.37	12.26	6.89	-52.5	-67.8	3.8	1.49e+00	0	39	104	0	76	21172
2026-01-03 07:01:18.38	11.95	6.84	-52.5	-67.8	3.8	1.49e+00	0	39	104	0	76	21082
2026-01-03 07:01:20.39	11.65	6.79	-52.4	-67.8	3.8	1.49e+00	0	39	104	0	76	21043
2026-01-03 07:01:22.40	11.35	6.74	-52.6	-67.8	3.8	1.49e+00	0	39	104	0	76	21173
2026-01-03 07:01:24.41	11.05	6.69	-52.7	-67.9	3.8	1.49e+00	0	39	104	0	77	20278
2026-01-03 07:01:26.41	10.75	6.64	-52.4	-67.7	3.8	1.49e+00	0	39	104	0	76	20983
2026-01-03 07:01:28.42	10.45	6.58	-52.6	-67.9	3.8	1.49e+00	0	39	104	0	77	20149
2026-01-03 07:01:30.43	10.15	6.53	-52.4	-67.7	3.8	1.49e+00	0	39	104	0	76	20966
2026-01-03 07:01:32.44	9.85	6.47	-52.6	-67.8	3.8	1.49e+00	0	39	104	0	76	21071
2026-01-03 07:01:34.45	9.55	6.42	-52.6	-67.9	3.8	1.49e+00	0	39	104	0	76	21301
2026-01-03 07:01:36.46	9.26	6.36	-52.5	-67.7	3.8	1.49e+00	0	39	104	0	76	20974
2026-01-03 07:01:38.46	8.97	6.31	-53.3	-68.6	3.8	1.49e+00	0	39	104	0	77	21997
2026-01-03 07:01:40.47	8.67	6.25	-52.7	-68.0	3.8	1.49e+00	0	39	104	0	77	20446
2026-01-03 07:01:42.48	8.38	6.19	-53.7	-69.0	3.8	1.49e+00	0	39	104	0	78	21507
2026-01-03 07:01:44.49	8.09	6.13	-52.9	-68.2	3.8	1.49e+00	0	39	104	0	77	20894
2026-01-03 07:01:46.50	7.80	6.07	-52.9	-68.2	3.8	1.49e+00	0	39	104	0	77	20906
2026-01-03 07:01:48.51	7.51	6.02	-53.1	-68.4	3.8	1.49e+00	0	39	104	0	78	20183
2026-01-03 07:01:50.51	7.23	5.96	-53.1	-68.5	3.8	1.49e+00	0	39	104	0	78	20433
2026-01-03 07:01:52.52	6.94	5.90	-53.9	-69.2	3.8	1.49e+00	0	39	104	0	78	22238
2026-01-03 07:01:54.53	6.66	5.83	-53.1	-68.4	3.8	1.49e+00	0	39	104	0	77	21285
2026-01-03 07:01:56.54	6.38	5.77	-53.1	-68.3	3.8	1.49e+00	0	39	104	0	78	20058
2026-01-03 07:01:58.55	6.09	5.71	-53.1	-68.4	3.8	1.49e+00	0	39	104	0	77	21393
2026-01-03 07:02:00.56	5.81	5.65	-53.1	-68.4	3.8	1.49e+00	0	39	104	0	77	21314
2026-01-03 07:02:02.57	5.53	5.59	-53.2	-68.4	3.8	1.49e+00	0	39	104	0	77	21340
2026-01-03 07:02:04.57	5.26	5.52	-53.2	-68.6	3.8	1.49e+00	0	39	104	0	77	21770
2026-01-03 07:02:06.58	4.98	5.46	-53.3	-68.6	3.8	1.49e+00	0	39	104	0	78	20643
2026-01-03 07:02:08.59	4.70	5.40	-53.1	-68.4	3.8	1.49e+00	0	39	104	0	78	20135
2026-01-03 07:02:10.60	4.43	5.33	-54.0	-69.2	3.8	1.49e+00	0	39	104	0	78	22023
2026-01-03 07:02:12.61	4.16	5.27	-54.0	-69.3	3.8	1.49e+00	0	39	104	0	78	22292
2026-01-03 07:02:14.62	3.88	5.20	-53.0	-68.2	3.8	1.49e+00	0	39	104	0	77	20962
2026-01-03 07:02:16.62	3.61	5.13	-53.0	-68.2	3.8	1.49e+00	0	39	104	0	77	20985
2026-01-03 07:02:18.63	3.35	5.07	-53.0	-68.3	3.8	1.49e+00	0	39	104	0	77	21069
2026-01-03 07:02:20.64	3.08	5.00	-52.9	-68.2	3.8	1.49e+00	0	39	104	0	77	20950

#Closed at: 2026-01-03 07:02:21
#Recorded file [0 MB]: D:/Data/31040_260103_095617.dat