passes_logs/2026/01/03/T1/T1__20260103_160115_FENGYUN_3E_rec.log

#Pass ID: 20260103_160115_FENGYUN 3E
#Satellite: FENGYUN 3E
#Configuration: FENGYUN 3E
#almurnet v.1.7.20251203
#Start time: 2026-01-03 16:01:15

#Version: 2.0.20230620
#Station: T1
#Location: 37.570604 lon 55.790049 lat
#TLE: 1 49008U 21062A   26002.95568549 -.00000227  00000+0 -86494-4 0  9990
#TLE: 2 49008  98.7475   8.2258 0001442 163.3458 196.7766 14.19882681233131

#Time	Az	El	Level	Level2	SNR	BER	BlckErr	Temp	State	Recorded	gain1	gain2
2026-01-03 16:01:15.19	221.00	4.97	-53.7	-64.8	3.8	8.48e-01	0	40	0	0	77	13179
2026-01-03 16:01:18.20	221.30	5.13	-53.7	-64.8	3.8	8.47e-01	0	40	104	0	78	12398
2026-01-03 16:01:21.21	221.61	5.30	-53.7	-64.8	3.8	8.46e-01	0	40	104	0	78	12426
2026-01-03 16:01:24.22	221.92	5.46	-53.8	-64.8	3.8	8.47e-01	0	41	104	0	77	13132
2026-01-03 16:01:27.24	222.23	5.62	-53.7	-64.8	3.8	8.48e-01	0	41	104	0	77	13147
2026-01-03 16:01:30.25	222.55	5.79	-53.7	-64.6	3.8	8.47e-01	0	41	104	0	77	12938
2026-01-03 16:01:33.26	222.87	5.95	-53.6	-64.7	3.8	8.46e-01	0	41	104	0	77	12970
2026-01-03 16:01:36.27	223.19	6.11	-53.7	-64.7	3.8	8.46e-01	0	41	104	0	77	13100
2026-01-03 16:01:39.29	223.52	6.28	-53.8	-64.7	3.8	8.46e-01	0	41	104	0	77	13064
2026-01-03 16:01:42.30	223.85	6.44	-53.5	-64.5	3.8	8.48e-01	0	41	104	0	77	12750
2026-01-03 16:01:45.31	224.18	6.61	-53.6	-64.3	3.8	8.46e-01	0	42	104	0	77	12477
2026-01-03 16:01:48.32	224.52	6.78	-53.6	-64.0	3.8	8.47e-01	0	42	104	0	77	12075
2026-01-03 16:01:51.34	224.86	6.94	-53.7	-64.5	3.8	8.47e-01	0	42	104	0	77	12672
2026-01-03 16:01:54.35	225.21	7.11	-53.7	-64.6	3.8	8.46e-01	0	41	104	0	77	12869
2026-01-03 16:01:57.36	225.56	7.27	-53.7	-64.4	3.8	8.47e-01	0	42	104	0	77	12528
2026-01-03 16:02:00.38	225.91	7.44	-53.7	-64.3	3.8	8.47e-01	0	42	104	0	77	12506
2026-01-03 16:02:03.39	226.27	7.61	-53.6	-64.0	3.8	8.46e-01	0	42	104	0	77	12054
2026-01-03 16:02:06.40	226.63	7.77	-53.7	-64.2	3.8	8.47e-01	0	42	104	0	77	12370
2026-01-03 16:02:09.41	227.00	7.94	-53.7	-64.4	3.8	8.47e-01	0	42	104	0	77	12524
2026-01-03 16:02:12.43	227.37	8.11	-53.6	-63.3	3.8	8.46e-01	0	42	104	0	77	11114
2026-01-03 16:02:15.44	227.74	8.27	-53.0	-59.6	4.8	8.39e-01	0	42	0	0	76	7681
2026-01-03 16:02:18.45	228.12	8.44	-47.4	-49.2	14.4	5.70e-06	0	42	0	18874368	65	4352
2026-01-03 16:02:21.46	228.50	8.61	-44.6	-45.8	17.8	0.00e+00	0	42	0	40894464	60	3953
2026-01-03 16:02:24.47	228.88	8.77	-45.9	-47.3	16.3	0.00e+00	0	42	0	61865984	61	4433
2026-01-03 16:02:27.48	229.27	8.94	-50.0	-52.7	10.9	7.91e-04	0	42	0	83886080	69	5192
2026-01-03 16:02:30.50	229.67	9.11	-50.2	-52.9	10.3	8.25e-01	0	42	104	99614720	71	4731
2026-01-03 16:02:33.51	230.07	9.28	-50.6	-53.7	10.1	3.08e-05	0	42	0	113246208	70	5483
2026-01-03 16:02:36.51	230.47	9.44	-45.1	-46.4	17.3	0.00e+00	0	42	0	131072000	61	3962
2026-01-03 16:02:39.52	230.88	9.61	-43.8	-44.8	18.6	0.00e+00	0	42	0	153092096	58	3957
2026-01-03 16:02:42.53	231.29	9.77	-43.7	-44.9	18.6	0.00e+00	0	42	0	174063616	57	4200
2026-01-03 16:02:45.54	231.71	9.94	-43.5	-44.6	18.8	0.00e+00	0	43	0	196083712	57	4096
2026-01-03 16:02:48.55	232.13	10.11	-43.2	-44.3	19.1	0.00e+00	0	42	0	218103808	57	3929
2026-01-03 16:02:51.55	232.55	10.27	-43.1	-44.1	19.3	0.00e+00	0	43	0	240123904	56	4093
2026-01-03 16:02:54.56	232.98	10.44	-43.1	-44.2	19.3	0.00e+00	0	43	0	261095424	56	4119
2026-01-03 16:02:57.57	233.42	10.60	-43.4	-44.5	19.0	0.00e+00	0	43	0	283115520	56	4243
2026-01-03 16:03:00.58	233.86	10.77	-43.1	-44.2	19.3	0.00e+00	0	43	0	305135616	56	4104
2026-01-03 16:03:03.58	234.30	10.93	-43.0	-44.0	19.5	0.00e+00	0	42	0	326107136	56	4016
2026-01-03 16:03:06.59	234.75	11.09	-42.7	-43.7	19.7	0.00e+00	0	43	0	348127232	56	3887
2026-01-03 16:03:09.61	235.21	11.26	-42.8	-43.8	19.6	0.00e+00	0	43	0	370147328	56	3931
2026-01-03 16:03:12.62	235.67	11.42	-42.7	-43.7	19.7	0.00e+00	0	43	0	392167424	56	3897
2026-01-03 16:03:15.62	236.13	11.58	-42.7	-43.6	19.7	0.00e+00	0	43	0	413138944	56	3863
2026-01-03 16:03:18.63	236.60	11.74	-42.6	-43.6	19.7	0.00e+00	0	43	0	435159040	55	4077
2026-01-03 16:03:21.64	237.08	11.91	-42.5	-43.5	19.9	0.00e+00	0	43	0	457179136	55	4016
2026-01-03 16:03:24.65	237.56	12.07	-42.4	-43.4	19.9	0.00e+00	0	43	0	479199232	55	3985
2026-01-03 16:03:27.66	238.04	12.22	-42.4	-43.4	20.0	0.00e+00	0	43	0	500170752	55	3968
2026-01-03 16:03:30.67	238.53	12.38	-42.3	-43.3	20.0	0.00e+00	0	43	0	522190848	55	3926
2026-01-03 16:03:33.68	239.03	12.54	-42.3	-43.2	20.1	0.00e+00	0	43	0	543162368	55	3902
2026-01-03 16:03:36.69	239.53	12.70	-42.3	-43.2	20.1	0.00e+00	0	43	0	565182464	55	3906
2026-01-03 16:03:39.70	240.03	12.85	-42.3	-43.3	20.0	0.00e+00	0	43	0	587202560	55	3936
2026-01-03 16:03:42.71	240.54	13.01	-42.4	-43.4	19.9	0.00e+00	0	43	0	609222656	55	3985
2026-01-03 16:03:45.73	241.06	13.16	-42.1	-43.1	20.2	0.00e+00	0	43	0	630194176	55	3856
2026-01-03 16:03:48.73	241.58	13.31	-42.1	-43.1	20.2	0.00e+00	0	43	0	652214272	54	4057
2026-01-03 16:03:51.74	242.11	13.47	-42.3	-43.2	20.1	0.00e+00	0	43	0	674234368	54	4140
2026-01-03 16:03:54.75	242.64	13.61	-42.1	-43.0	20.3	0.00e+00	0	43	0	696254464	54	4028
2026-01-03 16:03:57.76	243.17	13.76	-41.9	-42.9	20.4	0.00e+00	0	43	0	717225984	54	3967
2026-01-03 16:04:00.77	243.72	13.91	-41.9	-42.9	20.4	0.00e+00	0	43	0	739246080	54	4000
2026-01-03 16:04:03.78	244.26	14.06	-41.9	-42.9	20.4	0.00e+00	0	43	0	761266176	54	3977
2026-01-03 16:04:06.79	244.82	14.20	-41.8	-42.7	20.6	0.00e+00	0	43	0	782237696	54	3907
2026-01-03 16:04:09.79	245.37	14.34	-41.8	-42.8	20.5	0.00e+00	0	43	0	804257792	54	3930
2026-01-03 16:04:12.80	245.93	14.48	-41.8	-42.8	20.6	0.00e+00	0	43	0	826277888	54	3932
2026-01-03 16:04:15.81	246.50	14.62	-41.7	-42.6	20.7	0.00e+00	0	43	0	848297984	54	3867
2026-01-03 16:04:18.81	247.07	14.76	-41.8	-42.8	20.6	0.00e+00	0	43	0	869269504	54	3921
2026-01-03 16:04:21.82	247.65	14.89	-41.9	-42.8	20.5	0.00e+00	0	43	0	891289600	54	3946
2026-01-03 16:04:24.83	248.23	15.03	-41.7	-42.6	20.6	0.00e+00	0	43	0	913309696	54	3863
2026-01-03 16:04:27.84	248.82	15.16	-41.5	-42.4	20.8	0.00e+00	0	43	0	935329792	53	3984
2026-01-03 16:04:30.85	249.41	15.29	-41.5	-42.4	20.8	0.00e+00	0	43	0	956301312	53	3986
2026-01-03 16:04:33.85	250.01	15.41	-41.6	-42.5	20.7	0.00e+00	0	43	0	978321408	53	4037
2026-01-03 16:04:36.86	250.61	15.54	-41.6	-42.5	20.8	0.00e+00	0	43	0	1000341504	53	4025
2026-01-03 16:04:39.87	251.22	15.66	-41.5	-42.4	20.8	0.00e+00	0	43	0	1021313024	53	4000
2026-01-03 16:04:42.88	251.83	15.78	-41.5	-42.5	20.8	0.00e+00	0	43	0	1043333120	53	4012
2026-01-03 16:04:45.89	252.45	15.89	-41.6	-42.5	20.8	0.00e+00	0	43	0	1065353216	53	4045
2026-01-03 16:04:48.90	253.07	16.01	-41.5	-42.5	20.8	0.00e+00	0	43	0	1087373312	53	4012
2026-01-03 16:04:51.91	253.70	16.12	-41.5	-42.4	20.9	0.00e+00	0	43	0	1108344832	53	3983
2026-01-03 16:04:54.92	254.33	16.23	-41.6	-42.5	20.9	0.00e+00	0	43	0	1130364928	53	4020
2026-01-03 16:04:57.93	254.96	16.34	-41.4	-42.3	21.0	0.00e+00	0	43	0	1151336448	53	3926
2026-01-03 16:05:00.94	255.60	16.44	-41.3	-42.2	21.0	0.00e+00	0	43	0	1173356544	53	3903
2026-01-03 16:05:03.94	256.25	16.54	-41.4	-42.3	21.0	0.00e+00	0	43	0	1195376640	53	3927
2026-01-03 16:05:06.95	256.89	16.64	-41.3	-42.2	21.1	0.00e+00	0	43	0	1217396736	53	3885
2026-01-03 16:05:09.96	257.54	16.73	-41.3	-42.2	21.1	0.00e+00	0	43	0	1238368256	53	3888
2026-01-03 16:05:12.97	258.20	16.82	-41.1	-42.0	21.2	0.00e+00	0	43	0	1260388352	52	4051
2026-01-03 16:05:15.98	258.86	16.91	-41.1	-42.1	21.2	0.00e+00	0	43	0	1282408448	52	4056
2026-01-03 16:05:18.99	259.52	16.99	-41.1	-42.0	21.2	0.00e+00	0	43	0	1303379968	52	4032
2026-01-03 16:05:22.00	260.19	17.07	-41.2	-42.2	21.1	0.00e+00	0	43	0	1325400064	52	4105
2026-01-03 16:05:25.00	260.86	17.15	-41.2	-42.1	21.1	0.00e+00	0	43	0	1347420160	52	4057
2026-01-03 16:05:28.01	261.53	17.22	-41.2	-42.1	21.1	0.00e+00	0	43	0	1369440256	52	4066
2026-01-03 16:05:31.02	262.21	17.29	-41.5	-42.4	20.9	0.00e+00	0	43	0	1390411776	52	4217
2026-01-03 16:05:34.03	262.89	17.36	-41.4	-42.3	21.0	0.00e+00	0	43	0	1412431872	52	4186
2026-01-03 16:05:37.04	263.57	17.42	-41.4	-42.3	21.0	0.00e+00	0	43	0	1434451968	52	4163
2026-01-03 16:05:40.05	264.25	17.48	-41.6	-42.5	20.8	0.00e+00	0	43	0	1456472064	52	4268
2026-01-03 16:05:43.06	264.94	17.54	-41.5	-42.4	20.9	0.00e+00	0	43	0	1477443584	52	4215
2026-01-03 16:05:46.06	265.63	17.59	-41.1	-42.0	21.3	0.00e+00	0	43	0	1499463680	52	4014
2026-01-03 16:05:49.07	266.32	17.63	-41.0	-41.9	21.4	0.00e+00	0	43	0	1521483776	52	3960
2026-01-03 16:05:52.08	267.01	17.68	-41.0	-41.9	21.3	0.00e+00	0	43	0	1542455296	52	3988
2026-01-03 16:05:55.09	267.71	17.72	-41.2	-42.1	21.2	0.00e+00	0	43	0	1564475392	52	4065
2026-01-03 16:05:58.11	268.41	17.75	-41.2	-42.1	21.2	0.00e+00	0	43	0	1586495488	52	4062
2026-01-03 16:06:01.12	269.11	17.78	-41.3	-42.2	21.1	0.00e+00	0	43	0	1608515584	52	4109
2026-01-03 16:06:04.12	269.80	17.81	-41.0	-41.9	21.3	0.00e+00	0	43	0	1629487104	52	4003
2026-01-03 16:06:07.13	270.50	17.83	-41.1	-42.0	21.3	0.00e+00	0	43	0	1651507200	52	4027
2026-01-03 16:06:10.14	271.21	17.85	-41.1	-42.0	21.3	0.00e+00	0	43	0	1673527296	52	4014
2026-01-03 16:06:13.14	271.91	17.87	-41.2	-42.0	21.2	0.00e+00	0	43	0	1695547392	52	4047
2026-01-03 16:06:16.15	272.61	17.88	-41.1	-42.0	21.3	0.00e+00	0	43	0	1716518912	52	4017
2026-01-03 16:06:19.16	273.31	17.89	-41.1	-42.0	21.3	0.00e+00	0	43	0	1738539008	52	4033
2026-01-03 16:06:22.17	274.02	17.89	-41.2	-42.1	21.2	0.00e+00	0	44	0	1759510528	52	4055
2026-01-03 16:06:25.18	274.72	17.89	-41.0	-41.9	21.4	0.00e+00	0	43	0	1781530624	52	3966
2026-01-03 16:06:28.19	275.42	17.88	-40.9	-41.7	21.5	0.00e+00	0	43	0	1803550720	52	3913
2026-01-03 16:06:31.20	276.13	17.87	-41.0	-41.8	21.4	0.00e+00	0	43	0	1825570816	52	3956
2026-01-03 16:06:34.21	276.83	17.86	-41.1	-42.0	21.3	0.00e+00	0	43	0	1846542336	52	4013
2026-01-03 16:06:37.22	277.53	17.84	-41.1	-42.0	21.2	0.00e+00	0	43	0	1868562432	52	4038
2026-01-03 16:06:40.23	278.23	17.82	-41.4	-42.3	21.0	0.00e+00	0	43	0	1890582528	52	4164
2026-01-03 16:06:43.24	278.93	17.79	-41.2	-42.1	21.2	0.00e+00	0	43	0	1911554048	52	4061
2026-01-03 16:06:46.24	279.62	17.76	-41.3	-42.2	21.1	0.00e+00	0	43	0	1933574144	52	4118
2026-01-03 16:06:49.25	280.32	17.72	-41.1	-42.1	21.2	0.00e+00	0	43	0	1955594240	52	4053
2026-01-03 16:06:52.26	281.02	17.69	-41.2	-42.1	21.2	0.00e+00	0	43	0	1977614336	52	4078
2026-01-03 16:06:55.27	281.71	17.64	-41.3	-42.2	21.1	0.00e+00	0	43	0	1998585856	52	4108
2026-01-03 16:06:58.28	282.40	17.60	-41.2	-42.1	21.2	0.00e+00	0	43	0	2020605952	52	4057
2026-01-03 16:07:01.29	283.09	17.55	-41.1	-42.0	21.2	0.00e+00	0	43	0	2042626048	52	4032
2026-01-03 16:07:04.30	283.77	17.49	-41.2	-42.1	21.2	0.00e+00	0	43	0	2064646144	52	4062
2026-01-03 16:07:07.31	284.46	17.43	-41.4	-42.3	21.0	0.00e+00	0	43	0	2085617664	52	4167
2026-01-03 16:07:10.31	285.14	17.37	-41.4	-42.4	20.9	0.00e+00	0	43	0	2107637760	52	4200
2026-01-03 16:07:13.32	285.82	17.31	-41.4	-42.3	21.0	0.00e+00	0	44	0	2129657856	52	4169
2026-01-03 16:07:16.33	286.49	17.24	-41.2	-42.1	21.2	0.00e+00	0	43	0	2150629376	52	4072
2026-01-03 16:07:19.35	287.16	17.16	-41.3	-42.2	21.0	0.00e+00	0	43	0	2172649472	52	4134
2026-01-03 16:07:22.36	287.83	17.09	-41.4	-42.3	21.0	0.00e+00	0	43	0	2194669568	52	4169
2026-01-03 16:07:25.36	288.50	17.01	-41.4	-42.3	20.9	0.00e+00	0	43	0	2216689664	52	4153
2026-01-03 16:07:28.37	289.16	16.93	-41.4	-42.3	20.9	0.00e+00	0	44	0	2237661184	52	4153
2026-01-03 16:07:31.38	289.82	16.84	-41.6	-42.5	20.8	0.00e+00	0	43	0	2259681280	52	4278
2026-01-03 16:07:34.39	290.47	16.75	-41.5	-42.4	20.8	0.00e+00	0	43	0	2281701376	52	4214
2026-01-03 16:07:37.40	291.12	16.66	-41.5	-42.5	20.8	0.00e+00	0	44	0	2303721472	52	4245
2026-01-03 16:07:40.40	291.77	16.56	-41.7	-42.7	20.6	0.00e+00	0	43	0	2324692992	53	4108
2026-01-03 16:07:43.41	292.41	16.46	-41.7	-42.7	20.6	0.00e+00	0	43	0	2346713088	53	4107
2026-01-03 16:07:46.42	293.05	16.36	-41.8	-42.7	20.6	0.00e+00	0	43	0	2367684608	53	4120
2026-01-03 16:07:49.42	293.68	16.26	-41.7	-42.6	20.6	0.00e+00	0	43	0	2389704704	53	4078
2026-01-03 16:07:52.43	294.31	16.15	-41.7	-42.6	20.6	0.00e+00	0	43	0	2411724800	53	4085
2026-01-03 16:07:55.45	294.93	16.04	-41.6	-42.6	20.7	0.00e+00	0	43	0	2433744896	53	4058
2026-01-03 16:07:58.46	295.55	15.92	-41.8	-42.7	20.5	0.00e+00	0	43	0	2454716416	53	4133
2026-01-03 16:08:01.47	296.17	15.81	-41.8	-42.7	20.5	0.00e+00	0	43	0	2476736512	53	4132
2026-01-03 16:08:04.48	296.78	15.69	-41.8	-42.7	20.6	0.00e+00	0	43	0	2498756608	53	4121
2026-01-03 16:08:07.48	297.38	15.57	-41.9	-42.8	20.4	0.00e+00	0	43	0	2519728128	53	4188
2026-01-03 16:08:10.49	297.99	15.45	-42.1	-43.1	20.2	0.00e+00	0	43	0	2541748224	53	4302
2026-01-03 16:08:13.50	298.58	15.32	-42.4	-43.3	20.0	0.00e+00	0	43	0	2563768320	54	4178
2026-01-03 16:08:16.51	299.17	15.19	-42.4	-43.4	19.9	0.00e+00	0	43	0	2585788416	54	4221
2026-01-03 16:08:19.52	299.76	15.06	-42.4	-43.3	19.9	0.00e+00	0	43	0	2606759936	54	4184
2026-01-03 16:08:22.53	300.34	14.93	-42.2	-43.2	20.1	0.00e+00	0	43	0	2628780032	54	4133
2026-01-03 16:08:25.53	300.92	14.80	-42.4	-43.4	19.8	0.00e+00	0	43	0	2650800128	54	4232
2026-01-03 16:08:28.54	301.49	14.66	-42.3	-43.2	20.0	0.00e+00	0	43	0	2671771648	54	4137
2026-01-03 16:08:31.55	302.05	14.53	-42.3	-43.2	20.0	0.00e+00	0	43	0	2693791744	54	4141
2026-01-03 16:08:34.56	302.62	14.39	-42.3	-43.2	19.7	0.00e+00	0	43	0	2715811840	54	4145
2026-01-03 16:08:37.56	303.17	14.25	-42.4	-43.4	19.4	3.40e-06	0	43	0	2737831936	54	4230
2026-01-03 16:08:40.57	303.72	14.10	-42.5	-43.5	19.6	1.02e-05	0	44	0	2758803456	54	4254
2026-01-03 16:08:43.58	304.27	13.96	-42.6	-43.7	19.7	0.00e+00	0	43	0	2780823552	54	4341
2026-01-03 16:08:46.59	304.81	13.82	-42.7	-43.7	19.7	0.00e+00	0	43	0	2802843648	54	4373
2026-01-03 16:08:49.59	305.34	13.67	-42.6	-43.6	19.8	0.00e+00	0	43	0	2824863744	54	4312
2026-01-03 16:08:52.60	305.87	13.52	-42.6	-43.5	19.8	0.00e+00	0	43	0	2845835264	54	4283
2026-01-03 16:08:55.61	306.40	13.37	-42.7	-43.7	19.7	0.00e+00	0	43	0	2867855360	54	4366
2026-01-03 16:08:58.62	306.92	13.22	-42.9	-43.9	19.5	0.00e+00	0	43	0	2888826880	55	4220
2026-01-03 16:09:01.64	307.43	13.07	-43.1	-44.1	19.2	0.00e+00	0	43	0	2910846976	55	4323
2026-01-03 16:09:04.64	307.94	12.92	-43.2	-44.3	19.3	0.00e+00	0	43	0	2932867072	55	4401
2026-01-03 16:09:07.65	308.44	12.76	-43.2	-44.2	19.2	0.00e+00	0	43	0	2954887168	55	4390
2026-01-03 16:09:10.66	308.94	12.61	-43.5	-44.6	19.0	0.00e+00	0	43	0	2975858688	56	4325
2026-01-03 16:09:13.67	309.44	12.45	-43.7	-44.8	18.9	0.00e+00	0	43	0	2997878784	56	4399
2026-01-03 16:09:16.67	309.92	12.29	-43.4	-44.5	19.1	0.00e+00	0	43	0	3019898880	56	4264
2026-01-03 16:09:19.68	310.41	12.14	-43.4	-44.4	19.1	0.00e+00	0	43	0	3040870400	56	4237
2026-01-03 16:09:22.69	310.89	11.98	-43.2	-44.3	19.2	0.00e+00	0	43	0	3062890496	56	4163
2026-01-03 16:09:25.70	311.36	11.82	-43.2	-44.3	19.2	0.00e+00	0	43	0	3084910592	56	4149
2026-01-03 16:09:28.71	311.83	11.66	-43.4	-44.5	18.9	0.00e+00	0	43	0	3106930688	56	4269
2026-01-03 16:09:31.72	312.29	11.50	-43.5	-44.6	18.8	0.00e+00	0	43	0	3127902208	56	4323
2026-01-03 16:09:34.73	312.75	11.34	-43.6	-44.7	18.8	0.00e+00	0	43	0	3149922304	56	4353
2026-01-03 16:09:37.74	313.21	11.18	-43.5	-44.6	18.9	0.00e+00	0	43	0	3171942400	56	4298
2026-01-03 16:09:40.75	313.66	11.01	-43.3	-44.4	19.1	0.00e+00	0	44	0	3193962496	56	4211
2026-01-03 16:09:43.75	314.10	10.85	-43.2	-44.2	19.2	0.00e+00	0	44	0	3214934016	56	4131
2026-01-03 16:09:46.76	314.54	10.69	-43.2	-44.2	19.1	0.00e+00	0	43	0	3236954112	56	4139
2026-01-03 16:09:49.77	314.98	10.53	-43.3	-44.3	19.1	0.00e+00	0	43	0	3258974208	56	4179
2026-01-03 16:09:52.78	315.41	10.36	-43.5	-44.6	18.8	0.00e+00	0	43	0	3279945728	56	4329
2026-01-03 16:09:55.79	315.83	10.20	-43.9	-45.0	18.4	0.00e+00	0	43	0	3301965824	57	4252
2026-01-03 16:09:58.80	316.25	10.03	-43.9	-45.1	18.3	0.00e+00	0	44	0	3323985920	57	4318
2026-01-03 16:10:01.80	316.67	9.87	-44.0	-45.2	18.2	0.00e+00	0	43	0	3346006016	57	4369
2026-01-03 16:10:04.81	317.08	9.71	-43.9	-45.1	18.2	0.00e+00	0	43	0	3366977536	57	4319
2026-01-03 16:10:07.81	317.49	9.54	-43.8	-45.0	18.4	0.00e+00	0	43	0	3388997632	57	4246
2026-01-03 16:10:10.82	317.89	9.38	-43.5	-44.7	18.7	0.00e+00	0	43	0	3411017728	57	4108
2026-01-03 16:10:13.83	318.29	9.21	-43.7	-44.8	18.6	0.00e+00	0	43	0	3431989248	57	4171
2026-01-03 16:10:16.84	318.68	9.05	-43.7	-44.8	18.6	0.00e+00	0	43	0	3454009344	57	4186
2026-01-03 16:10:19.85	319.07	8.88	-53.7	-65.0	3.8	8.47e-01	0	43	104	3461349376	77	13462
2026-01-03 16:10:22.86	319.46	8.72	-54.3	-65.2	3.8	8.46e-01	0	43	104	3461349376	78	13058
2026-01-03 16:10:25.88	319.84	8.55	-54.5	-65.4	3.8	8.47e-01	0	44	104	3461349376	78	13320
2026-01-03 16:10:28.89	320.22	8.39	-54.6	-65.4	3.8	8.46e-01	0	43	104	3461349376	78	13281
2026-01-03 16:10:31.90	320.59	8.22	-54.7	-65.4	3.8	8.46e-01	0	44	104	3461349376	78	13378
2026-01-03 16:10:34.91	320.96	8.06	-54.6	-65.4	3.8	8.46e-01	0	43	104	3461349376	78	13359
2026-01-03 16:10:37.92	321.33	7.89	-54.2	-65.3	3.8	8.46e-01	0	43	104	3461349376	78	13222
2026-01-03 16:10:40.93	321.69	7.73	-54.2	-65.2	3.8	8.47e-01	0	44	104	3461349376	78	13086
2026-01-03 16:10:43.95	322.05	7.56	-54.2	-65.3	3.8	8.47e-01	0	43	104	3461349376	78	13177
2026-01-03 16:10:46.96	322.40	7.40	-54.2	-65.3	3.8	8.47e-01	0	44	104	3461349376	78	13166
2026-01-03 16:10:49.97	322.75	7.23	-54.2	-65.3	3.8	8.46e-01	0	43	104	3461349376	78	13173
2026-01-03 16:10:52.99	323.10	7.07	-54.1	-65.3	3.8	8.46e-01	0	44	104	3461349376	78	13188
2026-01-03 16:10:56.00	323.44	6.91	-54.1	-65.2	3.8	8.46e-01	0	43	104	3461349376	78	13003
2026-01-03 16:10:59.01	323.78	6.74	-54.1	-65.2	3.8	8.46e-01	0	44	104	3461349376	78	13109
2026-01-03 16:11:02.02	324.12	6.58	-54.1	-65.2	3.8	8.46e-01	0	44	104	3461349376	78	13013
2026-01-03 16:11:05.04	324.45	6.41	-54.1	-65.3	3.8	8.46e-01	0	44	104	3461349376	78	13112
2026-01-03 16:11:08.05	324.78	6.25	-54.2	-65.2	3.8	8.48e-01	0	43	104	3461349376	78	13094
2026-01-03 16:11:11.06	325.10	6.09	-54.2	-65.3	3.8	8.46e-01	0	44	104	3461349376	78	13149
2026-01-03 16:11:14.08	325.42	5.93	-54.2	-65.3	3.8	8.47e-01	0	44	104	3461349376	78	13123
2026-01-03 16:11:17.09	325.74	5.76	-54.2	-65.3	3.8	8.47e-01	0	44	104	3461349376	78	13187
2026-01-03 16:11:20.10	326.06	5.60	-54.2	-65.3	3.8	8.46e-01	0	44	104	3461349376	78	13156
2026-01-03 16:11:23.11	326.37	5.44	-54.1	-65.2	3.8	8.46e-01	0	44	104	3461349376	78	13073
2026-01-03 16:11:26.12	326.67	5.28	-54.2	-65.3	3.8	8.46e-01	0	44	104	3461349376	78	13186
2026-01-03 16:11:29.14	326.98	5.12	-54.1	-65.3	3.8	8.46e-01	0	44	104	3461349376	78	13150

#Closed at: 2026-01-03 16:11:32
#Recorded file [3461 MB]: D:/Data/31040_260103_190115.dat