passes_logs/2026/01/03/T1/T1__20260103_123200_FENGYUN_3D_rec.log

#Pass ID: 20260103_123200_FENGYUN 3D
#Satellite: FENGYUN 3D
#Configuration: FENGYUN 3D
#almurnet v.1.7.20251203
#Start time: 2026-01-03 12:32:00

#Version: 2.0.20230620
#Station: T1
#Location: 37.570604 lon 55.790049 lat
#TLE: 1 43010U 17072A   26002.95198047  .00000207  00000+0  11963-3 0  9999
#TLE: 2 43010  98.9912 334.5826 0001910 130.7105 229.4237 14.19692231421540

#Time	Az	El	Level	Level2	SNR	BER	BlckErr	Temp	State	Recorded	gain1	gain2
2026-01-03 12:32:00.90	178.57	5.01	-53.6	-66.1	3.8	8.47e-01	0	40	0	0	79	14590
2026-01-03 12:32:04.91	178.71	5.29	-52.3	-65.0	3.8	8.47e-01	0	40	104	0	76	15303
2026-01-03 12:32:08.93	178.85	5.58	-52.3	-65.1	3.8	8.47e-01	0	40	104	0	76	15442
2026-01-03 12:32:12.95	179.00	5.87	-52.3	-65.3	3.8	8.49e-01	0	41	104	0	76	15849
2026-01-03 12:32:16.96	179.14	6.16	-52.3	-65.5	3.8	8.46e-01	0	41	104	0	76	16129
2026-01-03 12:32:20.98	179.29	6.46	-52.2	-64.4	3.8	8.46e-01	0	41	104	0	76	14344
2026-01-03 12:32:25.00	179.45	6.75	-52.1	-63.7	3.9	8.46e-01	0	41	104	0	76	13164
2026-01-03 12:32:29.01	179.60	7.06	-52.0	-62.8	3.9	8.45e-01	0	41	104	0	76	11867
2026-01-03 12:32:33.03	179.76	7.36	-49.2	-53.4	10.8	6.60e-03	0	41	0	13631488	70	5704
2026-01-03 12:32:37.05	179.92	7.67	-45.7	-48.3	16.0	0.00e+00	0	42	0	36700160	63	4715
2026-01-03 12:32:41.06	180.09	7.98	-44.4	-46.7	17.4	0.00e+00	0	42	0	58720256	60	4696
2026-01-03 12:32:45.08	180.25	8.30	-45.9	-48.6	15.7	0.00e+00	0	42	0	81788928	62	5176
2026-01-03 12:32:49.10	180.43	8.62	-49.3	-53.6	10.7	2.02e-03	0	42	0	103809024	69	6167
2026-01-03 12:32:53.11	180.60	8.94	-51.6	-60.6	4.6	7.89e-01	0	42	0	121634816	73	10984
2026-01-03 12:32:57.12	180.78	9.27	-51.9	-64.9	3.8	8.48e-01	0	42	104	133169152	74	16936
2026-01-03 12:33:01.14	180.96	9.60	-47.1	-50.0	14.4	5.70e-06	0	42	0	150994944	65	5129
2026-01-03 12:33:05.15	181.15	9.93	-48.2	-51.4	12.9	3.66e-05	0	42	0	174063616	67	5350
2026-01-03 12:33:09.16	181.34	10.27	-47.8	-50.8	13.6	1.83e-05	0	42	0	196083712	66	5282
2026-01-03 12:33:13.18	181.53	10.62	-47.2	-50.0	14.3	0.00e+00	0	42	0	219152384	65	5132
2026-01-03 12:33:17.20	181.73	10.97	-47.9	-50.9	13.4	2.17e-05	0	42	0	241172480	66	5379
2026-01-03 12:33:21.21	181.94	11.32	-47.8	-50.8	13.6	1.10e-06	0	42	0	264241152	66	5294
2026-01-03 12:33:25.22	182.15	11.68	-47.7	-50.7	13.6	5.70e-06	0	42	0	286261248	66	5268
2026-01-03 12:33:29.24	182.36	12.05	-47.0	-49.7	14.7	0.00e+00	0	43	0	309329920	65	4935
2026-01-03 12:33:33.25	182.58	12.42	-46.8	-49.4	14.9	0.00e+00	0	43	0	331350016	64	5089
2026-01-03 12:33:37.26	182.80	12.79	-46.8	-49.5	14.9	0.00e+00	0	42	0	354418688	64	5105
2026-01-03 12:33:41.27	183.03	13.17	-46.9	-49.5	14.8	0.00e+00	0	43	0	376438784	65	4834
2026-01-03 12:33:45.29	183.26	13.55	-45.8	-48.1	16.3	0.00e+00	0	42	0	399507456	63	4623
2026-01-03 12:33:49.30	183.51	13.95	-45.4	-47.7	16.7	0.00e+00	0	43	0	421527552	62	4671
2026-01-03 12:33:53.31	183.75	14.34	-44.9	-47.1	17.3	0.00e+00	0	43	0	444596224	61	4651
2026-01-03 12:33:57.32	184.00	14.75	-44.7	-46.8	17.6	0.00e+00	0	43	0	466616320	60	4750
2026-01-03 12:34:01.34	184.27	15.16	-44.0	-46.1	18.2	0.00e+00	0	43	0	489684992	59	4609
2026-01-03 12:34:05.35	184.53	15.57	-42.9	-44.8	19.3	0.00e+00	0	43	0	512753664	57	4464
2026-01-03 12:34:09.37	184.81	16.00	-41.7	-43.6	20.3	0.00e+00	0	43	0	534773760	55	4343
2026-01-03 12:34:13.39	185.09	16.43	-41.4	-43.3	20.5	0.00e+00	0	43	0	556793856	54	4457
2026-01-03 12:34:17.40	185.38	16.86	-41.3	-43.2	20.7	0.00e+00	0	43	0	579862528	54	4394
2026-01-03 12:34:21.42	185.68	17.31	-41.1	-43.0	20.8	0.00e+00	0	43	0	602931200	54	4297
2026-01-03 12:34:25.43	185.98	17.76	-41.1	-42.9	20.9	0.00e+00	0	43	0	624951296	54	4280
2026-01-03 12:34:29.44	186.30	18.22	-41.0	-42.8	20.9	0.00e+00	0	43	0	648019968	53	4488
2026-01-03 12:34:33.46	186.62	18.69	-40.8	-42.7	21.1	0.00e+00	0	43	0	670040064	53	4395
2026-01-03 12:34:37.47	186.95	19.16	-40.7	-42.5	21.2	0.00e+00	0	43	0	693108736	53	4340
2026-01-03 12:34:41.48	187.30	19.64	-40.8	-42.6	21.1	0.00e+00	0	43	0	715128832	53	4371
2026-01-03 12:34:45.50	187.65	20.14	-40.7	-42.5	21.2	0.00e+00	0	43	0	738197504	53	4326
2026-01-03 12:34:49.51	188.02	20.64	-40.5	-42.3	21.4	0.00e+00	0	43	0	760217600	53	4221
2026-01-03 12:34:53.53	188.40	21.15	-40.5	-42.3	21.5	0.00e+00	0	43	0	783286272	52	4448
2026-01-03 12:34:57.54	188.79	21.67	-40.3	-42.1	21.6	0.00e+00	0	43	0	805306368	52	4362
2026-01-03 12:35:01.53	189.19	22.19	-40.4	-42.1	21.7	0.00e+00	0	43	0	828375040	52	4383
2026-01-03 12:35:05.54	189.61	22.73	-40.2	-42.0	21.7	0.00e+00	0	43	0	850395136	52	4315
2026-01-03 12:35:09.55	190.04	23.28	-40.1	-41.8	21.8	0.00e+00	0	43	0	873463808	52	4236
2026-01-03 12:35:13.57	190.48	23.84	-40.1	-41.9	21.8	0.00e+00	0	43	0	895483904	52	4261
2026-01-03 12:35:17.58	190.94	24.41	-39.9	-41.6	22.2	0.00e+00	0	43	0	918552576	51	4362
2026-01-03 12:35:21.59	191.42	24.99	-40.0	-41.7	22.1	0.00e+00	0	43	0	940572672	51	4408
2026-01-03 12:35:25.60	191.92	25.58	-39.9	-41.6	22.2	0.00e+00	0	43	0	963641344	51	4377
2026-01-03 12:35:29.61	192.43	26.18	-39.8	-41.5	22.3	0.00e+00	0	43	0	985661440	51	4333
2026-01-03 12:35:33.62	192.96	26.79	-39.9	-41.6	22.2	0.00e+00	0	43	0	1008730112	51	4384
2026-01-03 12:35:37.63	193.52	27.42	-39.9	-41.6	22.2	0.00e+00	0	43	0	1030750208	51	4389
2026-01-03 12:35:41.64	194.09	28.05	-39.9	-41.6	22.2	0.00e+00	0	43	0	1053818880	51	4365
2026-01-03 12:35:45.66	194.69	28.70	-39.5	-41.2	22.6	0.00e+00	0	43	0	1076887552	51	4188
2026-01-03 12:35:49.67	195.32	29.36	-39.7	-41.4	22.4	0.00e+00	0	43	0	1098907648	51	4269
2026-01-03 12:35:53.68	195.96	30.03	-40.0	-41.8	22.1	0.00e+00	0	43	0	1121976320	51	4445
2026-01-03 12:35:57.70	196.64	30.72	-40.2	-41.9	22.0	0.00e+00	0	43	0	1143996416	51	4540
2026-01-03 12:36:01.71	197.34	31.41	-39.2	-40.9	22.9	0.00e+00	0	43	0	1167065088	50	4263
2026-01-03 12:36:05.72	198.08	32.12	-39.7	-41.4	22.4	0.00e+00	0	43	0	1189085184	50	4517
2026-01-03 12:36:09.74	198.85	32.84	-39.7	-41.4	22.5	0.00e+00	0	43	0	1212153856	50	4509
2026-01-03 12:36:13.75	199.65	33.57	-39.4	-41.1	22.8	0.00e+00	0	43	0	1234173952	50	4387
2026-01-03 12:36:17.77	200.49	34.32	-39.4	-41.0	22.8	0.00e+00	0	43	0	1257242624	50	4334
2026-01-03 12:36:21.78	201.36	35.07	-39.3	-41.1	22.7	0.00e+00	0	43	0	1279262720	50	4343
2026-01-03 12:36:25.79	202.28	35.83	-39.3	-41.0	22.8	0.00e+00	0	43	0	1302331392	50	4313
2026-01-03 12:36:29.80	203.24	36.61	-39.2	-40.9	22.9	0.00e+00	0	43	0	1324351488	50	4243
2026-01-03 12:36:33.82	204.25	37.39	-39.2	-40.9	22.8	0.00e+00	0	43	0	1347420160	50	4275
2026-01-03 12:36:37.83	205.30	38.18	-39.3	-41.0	22.8	0.00e+00	0	43	0	1369440256	50	4315
2026-01-03 12:36:41.84	206.41	38.98	-39.4	-41.1	22.8	0.00e+00	0	43	0	1392508928	50	4362
2026-01-03 12:36:45.86	207.57	39.79	-39.2	-40.9	23.0	0.00e+00	0	43	0	1415577600	50	4250
2026-01-03 12:36:49.87	208.79	40.60	-39.2	-40.9	23.0	0.00e+00	0	43	0	1437597696	50	4256
2026-01-03 12:36:53.88	210.08	41.42	-39.2	-40.9	23.0	0.00e+00	0	43	0	1459617792	50	4267
2026-01-03 12:36:57.89	211.42	42.23	-39.6	-41.4	22.6	0.00e+00	0	43	0	1482686464	50	4495
2026-01-03 12:37:01.89	212.84	43.05	-39.5	-41.1	22.8	0.00e+00	0	43	0	1504706560	50	4390
2026-01-03 12:37:05.91	214.33	43.86	-39.8	-41.5	22.4	0.00e+00	0	43	0	1527775232	50	4570
2026-01-03 12:37:09.92	215.90	44.67	-39.7	-41.4	22.6	0.00e+00	0	43	0	1550843904	50	4503
2026-01-03 12:37:13.93	217.54	45.47	-39.9	-41.6	22.4	0.00e+00	0	43	0	1572864000	50	4615
2026-01-03 12:37:17.94	219.27	46.26	-39.9	-41.7	22.3	0.00e+00	0	43	0	1594884096	50	4660
2026-01-03 12:37:21.95	221.09	47.04	-39.8	-41.5	22.5	0.00e+00	0	43	0	1617952768	50	4569
2026-01-03 12:37:25.96	223.00	47.79	-39.6	-41.3	22.7	0.00e+00	0	43	0	1641021440	50	4446
2026-01-03 12:37:29.97	225.00	48.53	-39.8	-41.5	22.5	0.00e+00	0	43	0	1663041536	50	4550
2026-01-03 12:37:33.99	227.10	49.24	-39.9	-41.7	22.4	0.00e+00	0	43	0	1686110208	51	4393
2026-01-03 12:37:38.00	229.29	49.91	-40.1	-41.8	22.3	0.00e+00	0	43	0	1708130304	51	4491
2026-01-03 12:37:42.02	231.58	50.55	-40.2	-41.9	22.2	0.00e+00	0	43	0	1731198976	51	4494
2026-01-03 12:37:46.03	233.97	51.15	-40.4	-42.1	22.1	0.00e+00	0	43	0	1753219072	51	4622
2026-01-03 12:37:50.05	236.45	51.71	-40.1	-41.8	22.3	0.00e+00	0	43	0	1776287744	51	4481
2026-01-03 12:37:54.06	239.01	52.21	-40.2	-42.0	22.1	0.00e+00	0	43	0	1798307840	51	4547
2026-01-03 12:37:58.07	241.66	52.66	-40.2	-41.9	22.1	0.00e+00	0	43	0	1821376512	51	4544
2026-01-03 12:38:02.09	244.38	53.04	-40.2	-41.9	22.3	0.00e+00	0	43	0	1843396608	51	4500
2026-01-03 12:38:06.10	247.17	53.36	-40.3	-42.0	22.1	0.00e+00	0	43	0	1866465280	51	4584
2026-01-03 12:38:10.11	250.01	53.62	-40.7	-42.4	21.7	0.00e+00	0	43	0	1888485376	52	4540
2026-01-03 12:38:14.13	252.90	53.80	-40.2	-41.9	22.2	0.00e+00	0	43	0	1911554048	52	4253
2026-01-03 12:38:18.14	255.82	53.91	-40.6	-42.4	21.8	0.00e+00	0	43	0	1933574144	51	4775
2026-01-03 12:38:22.15	258.75	53.95	-40.5	-42.2	21.8	0.00e+00	0	43	0	1956642816	52	4413
2026-01-03 12:38:26.17	261.68	53.91	-40.3	-42.0	22.1	0.00e+00	0	44	0	1979711488	52	4326
2026-01-03 12:38:30.19	264.60	53.80	-40.2	-41.9	22.1	0.00e+00	0	43	0	2001731584	52	4254
2026-01-03 12:38:34.20	267.49	53.62	-40.1	-41.9	22.1	0.00e+00	0	43	0	2024800256	52	4247
2026-01-03 12:38:38.22	270.33	53.36	-40.5	-42.3	21.9	0.00e+00	0	43	0	2046820352	51	4712
2026-01-03 12:38:42.23	273.12	53.04	-40.7	-42.4	21.7	0.00e+00	0	43	0	2069889024	52	4524
2026-01-03 12:38:46.24	275.84	52.66	-40.5	-42.3	21.8	0.00e+00	0	43	0	2091909120	52	4460
2026-01-03 12:38:50.25	278.48	52.21	-40.1	-41.9	22.1	0.00e+00	0	43	0	2114977792	52	4253
2026-01-03 12:38:54.26	281.04	51.71	-40.3	-42.0	22.0	0.00e+00	0	43	0	2136997888	51	4585
2026-01-03 12:38:58.27	283.51	51.16	-39.9	-41.6	22.4	0.00e+00	0	43	0	2160066560	51	4367
2026-01-03 12:39:02.29	285.89	50.56	-40.1	-41.8	22.2	0.00e+00	0	43	0	2182086656	51	4465
2026-01-03 12:39:06.30	288.18	49.92	-39.8	-41.5	22.6	0.00e+00	0	43	0	2205155328	51	4298
2026-01-03 12:39:10.31	290.36	49.25	-39.7	-41.4	22.6	0.00e+00	0	43	0	2227175424	51	4281
2026-01-03 12:39:14.33	292.46	48.54	-39.9	-41.5	22.9	0.00e+00	0	43	0	2250244096	51	4338
2026-01-03 12:39:18.34	294.46	47.81	-40.2	-41.9	22.6	0.00e+00	0	43	0	2272264192	51	4503
2026-01-03 12:39:22.35	296.36	47.06	-39.9	-41.5	22.9	0.00e+00	0	43	0	2295332864	51	4307
2026-01-03 12:39:26.37	298.18	46.29	-39.9	-41.6	22.8	0.00e+00	0	43	0	2318401536	51	4361
2026-01-03 12:39:30.38	299.91	45.50	-40.1	-41.8	22.6	0.00e+00	0	43	0	2340421632	51	4476
2026-01-03 12:39:34.40	301.55	44.70	-40.1	-41.7	22.7	0.00e+00	0	43	0	2363490304	51	4413
2026-01-03 12:39:38.41	303.12	43.90	-40.1	-41.8	22.7	0.00e+00	0	43	0	2385510400	51	4447
2026-01-03 12:39:42.42	304.61	43.09	-39.8	-41.4	23.0	0.00e+00	0	43	0	2408579072	51	4283
2026-01-03 12:39:46.44	306.02	42.27	-39.7	-41.3	23.0	0.00e+00	0	43	0	2430599168	51	4222
2026-01-03 12:39:50.45	307.37	41.46	-39.7	-41.3	23.1	0.00e+00	0	43	0	2453667840	51	4208
2026-01-03 12:39:54.46	308.65	40.65	-39.6	-41.2	23.2	0.00e+00	0	43	0	2475687936	51	4167
2026-01-03 12:39:58.47	309.87	39.84	-39.4	-41.0	23.3	0.00e+00	0	43	0	2498756608	50	4318
2026-01-03 12:40:02.48	311.03	39.04	-39.7	-41.4	23.0	0.00e+00	0	43	0	2520776704	50	4517
2026-01-03 12:40:06.50	312.14	38.24	-39.4	-41.0	23.3	0.00e+00	0	43	0	2543845376	50	4307
2026-01-03 12:40:10.51	313.19	37.46	-39.5	-41.2	23.3	0.00e+00	0	43	0	2565865472	50	4395
2026-01-03 12:40:14.52	314.19	36.68	-39.1	-40.7	23.6	0.00e+00	0	43	0	2588934144	50	4179
2026-01-03 12:40:18.54	315.16	35.90	-39.5	-41.1	23.3	0.00e+00	0	43	0	2610954240	50	4367
2026-01-03 12:40:22.55	316.07	35.14	-39.4	-41.0	23.3	0.00e+00	0	43	0	2634022912	50	4310
2026-01-03 12:40:26.56	316.95	34.39	-39.2	-40.9	23.4	0.00e+00	0	43	0	2656043008	50	4244
2026-01-03 12:40:30.58	317.79	33.65	-39.4	-41.0	23.3	0.00e+00	0	43	0	2679111680	50	4314
2026-01-03 12:40:34.59	318.59	32.93	-39.4	-41.0	23.3	0.00e+00	0	43	0	2701131776	50	4314
2026-01-03 12:40:38.61	319.35	32.21	-39.7	-41.3	23.0	0.00e+00	0	43	0	2724200448	50	4493
2026-01-03 12:40:42.62	320.09	31.51	-40.0	-41.7	22.8	0.00e+00	0	43	0	2747269120	50	4668
2026-01-03 12:40:46.64	320.80	30.81	-40.1	-41.8	22.7	0.00e+00	0	43	0	2769289216	51	4460
2026-01-03 12:40:50.64	321.47	30.13	-40.1	-41.8	22.7	0.00e+00	0	43	0	2791309312	51	4459
2026-01-03 12:40:54.66	322.12	29.46	-39.9	-41.6	22.9	0.00e+00	0	43	0	2814377984	51	4367
2026-01-03 12:40:58.67	322.74	28.81	-39.9	-41.6	22.8	0.00e+00	0	43	0	2837446656	51	4367
2026-01-03 12:41:02.69	323.34	28.16	-40.0	-41.6	22.7	0.00e+00	0	43	0	2859466752	51	4391
2026-01-03 12:41:06.70	323.92	27.53	-39.8	-41.5	23.0	0.00e+00	0	43	0	2882535424	51	4301
2026-01-03 12:41:10.72	324.48	26.91	-39.9	-41.6	22.9	0.00e+00	0	43	0	2904555520	51	4341
2026-01-03 12:41:14.73	325.01	26.30	-39.9	-41.6	22.8	0.00e+00	0	43	0	2927624192	51	4372
2026-01-03 12:41:18.74	325.52	25.70	-39.9	-41.5	22.9	0.00e+00	0	43	0	2949644288	51	4315
2026-01-03 12:41:22.76	326.02	25.11	-40.0	-41.6	22.8	0.00e+00	0	43	0	2972712960	51	4377
2026-01-03 12:41:26.77	326.50	24.53	-40.4	-42.1	22.3	0.00e+00	0	43	0	2994733056	51	4619
2026-01-03 12:41:30.79	326.97	23.97	-40.6	-42.4	22.2	0.00e+00	0	43	0	3017801728	51	4760
2026-01-03 12:41:34.80	327.41	23.41	-40.3	-42.0	22.5	0.00e+00	0	43	0	3040870400	51	4584
2026-01-03 12:41:38.82	327.85	22.86	-40.3	-42.0	22.5	0.00e+00	0	43	0	3062890496	51	4564
2026-01-03 12:41:42.83	328.26	22.33	-40.7	-42.4	22.1	0.00e+00	0	43	0	3084910592	52	4507
2026-01-03 12:41:46.85	328.67	21.80	-40.9	-42.6	21.8	0.00e+00	0	43	0	3107979264	52	4634
2026-01-03 12:41:50.86	329.06	21.28	-41.0	-42.7	21.7	0.00e+00	0	43	0	3131047936	52	4684
2026-01-03 12:41:54.87	329.44	20.78	-40.9	-42.6	21.8	0.00e+00	0	43	0	3153068032	52	4642
2026-01-03 12:41:58.89	329.81	20.28	-40.9	-42.6	21.9	0.00e+00	0	43	0	3176136704	52	4616
2026-01-03 12:42:02.90	330.17	19.79	-41.0	-42.7	21.7	0.00e+00	0	43	0	3198156800	52	4683
2026-01-03 12:42:06.91	330.51	19.31	-41.2	-42.9	21.5	0.00e+00	0	43	0	3221225472	53	4508
2026-01-03 12:42:10.93	330.85	18.83	-41.3	-43.0	21.4	0.00e+00	0	43	0	3243245568	53	4570
2026-01-03 12:42:14.94	331.18	18.37	-41.3	-43.1	21.3	0.00e+00	0	44	0	3266314240	53	4622
2026-01-03 12:42:18.95	331.49	17.91	-41.5	-43.3	21.2	0.00e+00	0	44	0	3288334336	53	4718
2026-01-03 12:42:22.96	331.80	17.46	-41.5	-43.3	21.1	0.00e+00	0	44	0	3311403008	53	4722
2026-01-03 12:42:26.97	332.10	17.02	-41.7	-43.6	20.9	0.00e+00	0	43	0	3333423104	54	4600
2026-01-03 12:42:30.99	332.39	16.59	-41.9	-43.8	20.7	0.00e+00	0	43	0	3356491776	54	4710
2026-01-03 12:42:35.00	332.68	16.16	-42.1	-44.0	20.5	0.00e+00	0	43	0	3379560448	54	4824
2026-01-03 12:42:39.02	332.96	15.74	-42.2	-44.0	20.4	0.00e+00	0	43	0	3401580544	55	4596
2026-01-03 12:42:43.03	333.22	15.32	-42.3	-44.1	20.3	0.00e+00	0	43	0	3423600640	55	4619
2026-01-03 12:42:47.04	333.49	14.91	-42.4	-44.2	20.2	0.00e+00	0	43	0	3446669312	55	4681
2026-01-03 12:42:51.06	333.74	14.51	-42.4	-44.2	20.1	0.00e+00	0	44	0	3469737984	55	4700
2026-01-03 12:42:55.07	333.99	14.12	-42.6	-44.4	20.0	0.00e+00	0	43	0	3491758080	55	4794
2026-01-03 12:42:59.08	334.24	13.73	-42.9	-44.7	19.9	0.00e+00	0	43	0	3514826752	56	4696
2026-01-03 12:43:03.10	334.48	13.34	-43.0	-44.9	19.7	0.00e+00	0	43	0	3536846848	56	4786
2026-01-03 12:43:07.11	334.71	12.96	-43.0	-44.9	19.7	0.00e+00	0	43	0	3559915520	56	4793
2026-01-03 12:43:11.12	334.93	12.59	-43.1	-45.0	19.6	0.00e+00	0	43	0	3581935616	57	4555
2026-01-03 12:43:15.13	335.16	12.22	-43.0	-44.9	19.7	0.00e+00	0	44	0	3605004288	57	4494
2026-01-03 12:43:19.14	335.37	11.86	-43.1	-45.0	19.6	0.00e+00	0	43	0	3627024384	57	4572
2026-01-03 12:43:23.16	335.58	11.50	-43.1	-45.1	19.5	0.00e+00	0	43	0	3650093056	57	4619
2026-01-03 12:43:27.17	335.79	11.15	-43.1	-45.1	19.5	0.00e+00	0	43	0	3672113152	57	4610
2026-01-03 12:43:31.18	335.99	10.80	-43.1	-45.1	19.4	0.00e+00	0	43	0	3695181824	57	4645
2026-01-03 12:43:35.20	336.19	10.46	-43.2	-45.2	19.3	0.00e+00	0	43	0	3717201920	57	4670
2026-01-03 12:43:39.21	336.39	10.12	-43.3	-45.4	19.1	0.00e+00	0	43	0	3740270592	57	4767
2026-01-03 12:43:43.22	336.58	9.79	-43.3	-45.4	19.1	0.00e+00	0	44	0	3762290688	57	4775
2026-01-03 12:43:47.23	336.76	9.46	-43.6	-45.7	18.8	0.00e+00	0	43	0	3785359360	57	4941
2026-01-03 12:43:51.24	336.95	9.13	-43.8	-45.9	18.6	0.00e+00	0	43	0	3807379456	58	4805
2026-01-03 12:43:55.26	337.13	8.81	-53.4	-66.2	3.8	8.47e-01	0	43	104	3817865216	78	15704
2026-01-03 12:43:59.28	337.30	8.49	-53.4	-66.4	3.8	8.47e-01	0	44	104	3817865216	78	16086
2026-01-03 12:44:03.30	337.47	8.18	-54.1	-66.6	3.8	8.47e-01	0	44	104	3817865216	79	15441
2026-01-03 12:44:07.31	337.64	7.87	-54.5	-66.6	3.8	8.48e-01	0	43	104	3817865216	79	15419
2026-01-03 12:44:11.33	337.81	7.56	-54.3	-66.5	3.8	8.47e-01	0	43	104	3817865216	79	15334
2026-01-03 12:44:15.35	337.97	7.25	-54.3	-66.5	3.8	8.47e-01	0	43	104	3817865216	79	15358
2026-01-03 12:44:19.36	338.13	6.95	-54.1	-66.5	3.8	8.47e-01	0	43	104	3817865216	79	15291
2026-01-03 12:44:23.38	338.29	6.66	-54.2	-66.5	3.8	8.48e-01	0	43	104	3817865216	79	15356
2026-01-03 12:44:27.40	338.44	6.36	-54.2	-66.5	3.8	8.46e-01	0	44	104	3817865216	79	15383
2026-01-03 12:44:31.41	338.59	6.07	-54.2	-66.5	3.8	8.48e-01	0	43	104	3817865216	79	15268
2026-01-03 12:44:35.43	338.74	5.79	-54.1	-66.4	3.8	8.46e-01	0	43	104	3817865216	79	15221
2026-01-03 12:44:39.45	338.89	5.50	-54.1	-66.5	3.8	8.46e-01	0	43	104	3817865216	79	15278
2026-01-03 12:44:43.47	339.03	5.22	-54.1	-66.5	3.8	8.46e-01	0	43	104	3817865216	79	15245

#Closed at: 2026-01-03 12:44:47
#Recorded file [3817 MB]: D:/Data/31040_260103_153200.dat