passes_logs/2026/01/03/T1/T1__20260103_211431_KHAYYAM_rec.log

#Pass ID: 20260103_211431_KHAYYAM
#Satellite: KHAYYAM
#Configuration: KHAYYAM_480M
#almurnet v.1.7.20251203
#Start time: 2026-01-03 21:14:32

#Version: 2.0.20230620
#Station: T1
#Location: 37.570604 lon 55.790049 lat
#TLE: 1 53370U 22096A   26003.53756503  .00011169  00000+0  45423-3 0  9990
#TLE: 2 53370  97.3571 270.7516 0001260  83.4645 276.6737 15.24698418189496

#Time	Az	El	Level	Level2	SNR	BER	BlckErr	Temp	State	Recorded	gain1	gain2
2026-01-03 21:14:32.36	15.23	5.22	-53.0	-57.6	3.4	0.00e+00	0	46	0	0	77	24635
2026-01-03 21:14:34.36	15.25	5.38	-53.0	-57.6	3.7	0.00e+00	0	46	104	0	76	25987
2026-01-03 21:14:36.36	15.27	5.55	-52.9	-57.5	3.7	0.00e+00	0	46	104	0	76	25924
2026-01-03 21:14:38.37	15.30	5.72	-53.0	-57.6	3.6	0.00e+00	0	46	104	0	77	24792
2026-01-03 21:14:40.37	15.32	5.88	-52.9	-57.6	3.7	0.00e+00	0	47	104	0	77	24572
2026-01-03 21:14:42.38	15.35	6.05	-52.9	-57.5	3.7	0.00e+00	0	47	104	0	77	24467
2026-01-03 21:14:44.38	15.37	6.22	-52.9	-57.5	3.7	0.00e+00	0	47	104	0	77	24360
2026-01-03 21:14:46.39	15.40	6.40	-52.8	-57.5	3.7	0.00e+00	0	47	104	0	77	24292
2026-01-03 21:14:48.39	15.42	6.57	-52.9	-57.5	3.7	0.00e+00	0	47	104	0	77	24374
2026-01-03 21:14:50.40	15.45	6.75	-53.0	-57.5	3.7	0.00e+00	0	47	104	0	77	24468
2026-01-03 21:14:52.40	15.47	6.93	-53.0	-57.6	3.7	0.00e+00	0	47	104	0	77	24534
2026-01-03 21:14:54.41	15.50	7.11	-52.9	-57.5	3.7	0.00e+00	0	48	104	0	77	24398
2026-01-03 21:14:56.42	15.53	7.29	-53.0	-57.5	3.7	0.00e+00	0	48	104	0	77	24474
2026-01-03 21:14:58.42	15.55	7.47	-53.0	-57.6	3.7	0.00e+00	0	48	104	0	77	24600
2026-01-03 21:15:00.43	15.58	7.65	-52.9	-57.6	3.7	0.00e+00	0	48	104	0	77	24534
2026-01-03 21:15:02.43	15.61	7.84	-52.9	-57.5	3.7	0.00e+00	0	48	104	0	77	24390
2026-01-03 21:15:04.44	15.63	8.03	-52.9	-57.6	3.7	0.00e+00	0	48	104	0	77	24654
2026-01-03 21:15:06.44	15.66	8.22	-53.0	-57.7	3.7	0.00e+00	0	48	104	0	77	24852
2026-01-03 21:15:08.45	15.69	8.41	-53.1	-57.7	3.7	0.00e+00	0	48	104	0	77	24903
2026-01-03 21:15:10.45	15.72	8.61	-52.9	-57.5	3.7	0.00e+00	0	49	104	0	77	24417
2026-01-03 21:15:12.45	15.75	8.80	-53.0	-57.6	3.7	0.00e+00	0	49	104	0	77	24571
2026-01-03 21:15:14.46	15.78	9.00	-52.9	-57.6	3.7	0.00e+00	0	49	104	0	77	24570
2026-01-03 21:15:16.46	15.81	9.20	-53.4	-58.7	3.7	0.00e+00	0	49	104	0	77	28048
2026-01-03 21:15:18.46	15.83	9.40	-53.0	-57.6	3.7	0.00e+00	0	49	104	0	77	24552
2026-01-03 21:15:20.46	15.87	9.61	-52.9	-57.7	3.7	0.00e+00	0	49	104	0	77	24896
2026-01-03 21:15:22.46	15.90	9.82	-53.2	-58.0	3.7	0.00e+00	0	49	104	0	77	25828
2026-01-03 21:15:24.46	15.93	10.02	-53.3	-58.6	3.7	0.00e+00	0	49	104	0	77	27560
2026-01-03 21:15:26.47	15.96	10.24	-53.3	-58.7	3.7	0.00e+00	0	49	104	0	77	27879
2026-01-03 21:15:28.47	15.99	10.45	-53.6	-58.8	3.7	0.00e+00	0	49	104	0	78	26661
2026-01-03 21:15:30.47	16.02	10.67	-53.5	-58.7	3.7	0.00e+00	0	49	104	0	78	26542
2026-01-03 21:15:32.48	16.06	10.89	-53.6	-59.2	3.7	0.00e+00	0	49	104	0	78	27891
2026-01-03 21:15:34.48	16.09	11.11	-53.7	-59.4	3.7	0.00e+00	0	49	104	0	78	28591
2026-01-03 21:15:36.48	16.12	11.34	-54.1	-59.7	3.7	0.00e+00	0	50	104	0	79	27840
2026-01-03 21:15:38.48	16.16	11.56	-53.5	-59.4	3.7	0.00e+00	0	50	104	0	78	28497
2026-01-03 21:15:40.48	16.19	11.79	-53.8	-59.4	3.7	0.00e+00	0	50	104	0	78	28705
2026-01-03 21:15:42.48	16.23	12.03	-54.1	-59.8	3.7	0.00e+00	0	50	104	0	79	28347
2026-01-03 21:15:44.48	16.26	12.26	-54.7	-60.0	3.7	0.00e+00	0	50	104	0	79	28944
2026-01-03 21:15:46.49	16.30	12.50	-55.1	-60.3	3.7	0.00e+00	0	50	104	0	81	26682
2026-01-03 21:15:48.49	16.33	12.75	-54.4	-59.6	3.7	0.00e+00	0	50	104	0	80	26141
2026-01-03 21:15:50.49	16.37	12.99	-54.8	-60.0	3.7	0.00e+00	0	50	104	0	80	27507
2026-01-03 21:15:52.49	16.41	13.24	-55.0	-60.3	3.7	0.00e+00	0	50	104	0	80	28255
2026-01-03 21:15:54.50	16.45	13.49	-56.7	-61.2	3.7	0.00e+00	0	50	104	0	84	25001
2026-01-03 21:15:56.50	16.49	13.75	-55.7	-60.6	3.7	0.00e+00	0	50	104	0	83	24570
2026-01-03 21:15:58.51	16.53	14.01	-56.1	-60.9	3.7	0.00e+00	0	50	104	0	83	25577
2026-01-03 21:16:00.51	16.57	14.28	-55.9	-60.8	3.7	0.00e+00	0	50	104	0	83	25279
2026-01-03 21:16:02.52	16.61	14.54	-56.9	-61.3	3.7	0.00e+00	0	50	104	0	84	25201
2026-01-03 21:16:04.52	16.65	14.82	-57.1	-61.5	3.7	0.00e+00	0	50	104	0	84	25955
2026-01-03 21:16:06.52	16.70	15.09	-56.6	-60.5	3.7	0.00e+00	0	50	104	0	85	21743
2026-01-03 21:16:08.52	16.74	15.37	-56.9	-61.1	3.7	0.00e+00	0	50	104	0	85	23174
2026-01-03 21:16:10.52	16.78	15.65	-57.0	-61.6	3.7	0.00e+00	0	50	104	0	85	24754
2026-01-03 21:16:12.52	16.83	15.94	-56.6	-60.5	3.7	0.00e+00	0	50	104	0	85	21823
2026-01-03 21:16:14.52	16.87	16.23	-56.8	-61.0	3.7	0.00e+00	0	50	104	0	84	24333
2026-01-03 21:16:16.53	16.92	16.53	-57.1	-61.5	3.7	0.00e+00	0	51	104	0	84	25774
2026-01-03 21:16:18.53	16.97	16.84	-56.8	-61.5	3.7	0.00e+00	0	51	104	0	84	25818
2026-01-03 21:16:20.53	17.02	17.14	-56.5	-61.3	3.7	0.00e+00	0	51	104	0	84	25370
2026-01-03 21:16:22.54	17.07	17.46	-55.6	-60.4	3.7	0.00e+00	0	51	104	0	82	25616
2026-01-03 21:16:24.54	17.12	17.77	-55.5	-60.5	3.7	0.00e+00	0	51	104	0	82	25713
2026-01-03 21:16:26.54	17.17	18.10	-55.5	-60.6	3.7	0.00e+00	0	51	104	0	82	25994
2026-01-03 21:16:28.54	17.22	18.43	-55.7	-60.6	3.7	0.00e+00	0	50	104	0	82	26160
2026-01-03 21:16:30.54	17.28	18.76	-55.7	-60.8	3.7	0.00e+00	0	51	104	0	82	26654
2026-01-03 21:16:32.55	17.34	19.10	-55.7	-60.7	3.7	0.00e+00	0	51	104	0	82	26428
2026-01-03 21:16:34.55	17.39	19.45	-55.0	-59.0	3.7	0.00e+00	0	51	104	0	82	21621
2026-01-03 21:16:36.56	17.45	19.80	-54.9	-59.0	3.7	0.00e+00	0	51	104	0	81	22889
2026-01-03 21:16:38.55	17.51	20.16	-55.6	-59.9	3.7	0.00e+00	0	51	104	0	81	25437
2026-01-03 21:16:40.54	17.57	20.52	-56.4	-61.1	3.7	0.00e+00	0	51	104	0	83	26113
2026-01-03 21:16:42.54	17.63	20.89	-56.1	-60.7	3.7	0.00e+00	0	51	104	0	83	24983
2026-01-03 21:16:44.55	17.70	21.28	-56.0	-60.8	3.7	0.00e+00	0	51	104	0	83	25120
2026-01-03 21:16:46.55	17.76	21.66	-55.6	-60.7	3.7	0.00e+00	0	51	104	0	82	26511
2026-01-03 21:16:48.55	17.83	22.06	-55.5	-60.6	3.7	0.00e+00	0	51	104	0	82	26124
2026-01-03 21:16:50.56	17.90	22.46	-55.6	-60.6	3.7	0.00e+00	0	51	104	0	82	26198
2026-01-03 21:16:52.56	17.97	22.87	-56.0	-60.8	3.7	0.00e+00	0	51	104	0	83	25233
2026-01-03 21:16:54.57	18.04	23.29	-56.4	-61.1	3.7	0.00e+00	0	51	104	0	83	26047
2026-01-03 21:16:56.57	18.12	23.72	-56.3	-60.8	3.7	0.00e+00	0	51	104	0	83	25148
2026-01-03 21:16:58.57	18.19	24.15	-54.7	-57.7	3.7	0.00e+00	0	51	104	0	81	19912
2026-01-03 21:17:00.57	18.27	24.60	-55.2	-58.3	3.7	0.00e+00	0	51	104	0	81	21272
2026-01-03 21:17:02.57	18.35	25.05	-56.3	-60.8	3.7	0.00e+00	0	51	104	0	83	25346
2026-01-03 21:17:04.58	18.44	25.52	-54.7	-57.7	3.7	0.00e+00	0	51	104	0	81	19800
2026-01-03 21:17:06.58	18.53	26.00	-55.9	-59.6	3.7	0.00e+00	0	51	104	0	82	23239
2026-01-03 21:17:08.58	18.61	26.48	-56.2	-61.0	3.7	0.00e+00	0	51	104	0	83	25714
2026-01-03 21:17:10.58	18.71	26.98	-55.3	-60.2	3.7	0.00e+00	0	51	104	0	82	24916
2026-01-03 21:17:12.58	18.80	27.48	-55.9	-60.8	3.7	0.00e+00	0	51	104	0	82	26735
2026-01-03 21:17:14.58	18.90	28.00	-55.8	-60.5	3.7	0.00e+00	0	51	104	0	82	25737
2026-01-03 21:17:16.58	19.00	28.53	-55.8	-60.4	3.7	0.00e+00	0	51	104	0	82	25513
2026-01-03 21:17:18.58	19.11	29.08	-55.6	-59.9	3.7	0.00e+00	0	51	104	0	82	24200
2026-01-03 21:17:20.59	19.21	29.64	-56.2	-60.3	3.7	0.00e+00	0	51	104	0	83	23808
2026-01-03 21:17:22.59	19.33	30.21	-56.6	-60.8	3.7	0.00e+00	0	51	104	0	84	23905
2026-01-03 21:17:24.59	19.44	30.79	-56.7	-60.9	3.7	0.00e+00	0	51	104	0	84	24084
2026-01-03 21:17:26.60	19.57	31.39	-56.7	-61.1	3.7	0.00e+00	0	51	104	0	84	24703
2026-01-03 21:17:28.60	19.69	32.00	-56.8	-61.4	3.7	0.00e+00	0	51	104	0	84	25496
2026-01-03 21:17:30.60	19.82	32.63	-56.9	-61.5	3.7	0.00e+00	0	51	104	0	84	25687
2026-01-03 21:17:32.60	19.96	33.27	-56.8	-61.3	3.7	0.00e+00	0	51	104	0	84	25347
2026-01-03 21:17:34.61	20.10	33.94	-56.3	-61.1	3.7	0.00e+00	0	51	104	0	84	24719
2026-01-03 21:17:36.61	20.25	34.61	-55.8	-60.9	3.7	0.00e+00	0	51	104	0	83	25487
2026-01-03 21:17:38.61	20.40	35.31	-56.0	-60.8	3.7	0.00e+00	0	51	104	0	82	26863
2026-01-03 21:17:40.61	20.56	36.02	-55.9	-60.7	3.7	0.00e+00	0	51	104	0	82	26507
2026-01-03 21:17:42.62	20.73	36.75	-56.8	-61.2	3.7	0.00e+00	0	51	104	0	84	24827
2026-01-03 21:17:44.63	20.91	37.51	-55.7	-59.9	3.7	0.00e+00	0	51	104	0	83	22707
2026-01-03 21:17:46.64	21.10	38.28	-56.4	-61.0	3.7	0.00e+00	0	51	104	0	84	24426
2026-01-03 21:17:48.64	21.29	39.07	-56.6	-61.3	3.7	0.00e+00	0	51	104	0	84	25198
2026-01-03 21:17:50.64	21.50	39.88	-57.3	-62.0	3.7	0.00e+00	0	51	104	0	85	25704
2026-01-03 21:17:52.64	21.71	40.72	-57.1	-61.7	3.7	0.00e+00	0	51	104	0	85	25084
2026-01-03 21:17:54.65	21.94	41.58	-57.3	-61.7	3.7	0.00e+00	0	51	104	0	85	24995
2026-01-03 21:17:56.65	22.18	42.45	-57.3	-61.8	3.7	0.00e+00	0	51	104	0	85	25310
2026-01-03 21:17:58.65	22.43	43.36	-57.2	-61.5	3.7	0.00e+00	0	51	104	0	85	24337
2026-01-03 21:18:00.66	22.70	44.29	-56.2	-60.4	3.7	0.00e+00	0	51	104	0	84	22811
2026-01-03 21:18:02.67	22.99	45.25	-56.6	-61.1	3.7	0.00e+00	0	51	104	0	83	26106
2026-01-03 21:18:04.67	23.29	46.22	-56.3	-60.1	3.7	0.00e+00	0	51	104	0	84	21891
2026-01-03 21:18:06.68	23.61	47.23	-56.1	-59.9	3.7	0.00e+00	0	51	104	0	84	21496
2026-01-03 21:18:08.68	23.96	48.26	-56.1	-59.8	3.7	0.00e+00	0	51	104	0	84	21267
2026-01-03 21:18:10.68	24.33	49.32	-56.8	-60.9	3.7	0.00e+00	0	51	104	0	84	24196
2026-01-03 21:18:12.69	24.73	50.41	-56.5	-60.6	3.7	0.00e+00	0	51	104	0	84	23361
2026-01-03 21:18:14.69	25.15	51.52	-55.6	-59.3	3.7	0.00e+00	0	51	104	0	82	22448
2026-01-03 21:18:16.69	25.61	52.66	-56.4	-60.2	3.7	0.00e+00	0	51	104	0	83	23638
2026-01-03 21:18:18.69	26.11	53.83	-57.0	-61.1	3.7	0.00e+00	0	51	104	0	84	24762
2026-01-03 21:18:20.70	26.65	55.03	-56.0	-59.5	3.7	0.00e+00	0	51	104	0	83	21854
2026-01-03 21:18:22.70	27.24	56.26	-56.3	-59.9	3.7	0.00e+00	0	51	104	0	83	22769
2026-01-03 21:18:24.70	27.89	57.51	-56.5	-60.4	3.7	0.00e+00	0	51	104	0	83	23994
2026-01-03 21:18:26.71	28.60	58.79	-56.5	-60.6	3.7	0.00e+00	0	51	104	0	84	23245
2026-01-03 21:18:28.71	29.38	60.10	-56.8	-60.8	3.7	0.00e+00	0	51	104	0	84	23817
2026-01-03 21:18:30.71	30.25	61.43	-57.0	-61.0	3.7	0.00e+00	0	51	104	0	84	24517
2026-01-03 21:18:32.71	31.22	62.78	-56.8	-61.1	3.7	0.00e+00	0	51	104	0	84	24591
2026-01-03 21:18:34.71	32.30	64.16	-57.3	-61.5	3.7	0.00e+00	0	51	104	0	85	24427
2026-01-03 21:18:36.72	33.53	65.56	-57.2	-61.5	3.7	0.00e+00	0	51	104	0	85	24245
2026-01-03 21:18:38.73	34.93	66.98	-57.3	-61.8	3.7	0.00e+00	0	51	104	0	85	25202
2026-01-03 21:18:40.73	36.52	68.40	-57.5	-61.9	3.7	0.00e+00	0	51	104	0	85	25574
2026-01-03 21:18:42.73	38.36	69.83	-57.4	-62.0	3.7	0.00e+00	0	51	104	0	85	25734
2026-01-03 21:18:44.73	40.51	71.27	-57.0	-61.7	3.7	0.00e+00	0	51	104	0	85	24854
2026-01-03 21:18:46.74	43.04	72.70	-57.3	-61.9	3.7	0.00e+00	0	52	104	0	85	25501
2026-01-03 21:18:48.74	46.05	74.11	-57.0	-61.7	3.7	0.00e+00	0	51	104	0	85	25002
2026-01-03 21:18:50.73	49.63	75.47	-57.1	-61.7	3.7	0.00e+00	0	51	104	0	85	24907
2026-01-03 21:18:52.73	54.00	76.80	-57.2	-61.8	3.7	0.00e+00	0	51	104	0	85	25362
2026-01-03 21:18:54.74	59.37	78.04	-57.2	-61.7	3.7	0.00e+00	0	51	104	0	85	24978
2026-01-03 21:18:56.74	65.93	79.17	-56.9	-61.5	3.7	0.00e+00	0	51	104	0	85	24499
2026-01-03 21:18:58.74	73.91	80.14	-57.1	-61.6	3.7	0.00e+00	0	52	104	0	85	24786
2026-01-03 21:19:00.74	83.44	80.88	-56.0	-61.3	3.7	0.00e+00	0	51	104	0	84	25109
2026-01-03 21:19:02.75	94.38	81.34	-56.7	-61.4	3.7	0.00e+00	0	51	104	0	84	25388
2026-01-03 21:19:04.75	106.02	81.46	-56.4	-61.1	3.7	0.00e+00	0	52	104	0	84	24735
2026-01-03 21:19:06.75	117.52	81.23	-56.9	-61.5	3.7	0.00e+00	0	51	104	0	84	25931
2026-01-03 21:19:08.76	128.09	80.68	-57.3	-61.9	3.7	0.00e+00	0	51	104	0	85	25427
2026-01-03 21:19:10.76	137.15	79.86	-57.3	-61.8	3.7	0.00e+00	0	51	104	0	85	25334
2026-01-03 21:19:12.76	144.68	78.84	-57.2	-61.7	3.7	0.00e+00	0	51	104	0	85	24813
2026-01-03 21:19:14.77	150.87	77.66	-57.2	-61.4	3.7	0.00e+00	0	51	104	0	85	24122
2026-01-03 21:19:16.77	155.89	76.39	-56.7	-61.4	3.7	0.00e+00	0	51	104	0	85	24062
2026-01-03 21:19:18.77	160.01	75.05	-57.2	-61.7	3.7	0.00e+00	0	51	104	0	85	24822
2026-01-03 21:19:20.78	163.42	73.65	-57.4	-61.7	3.7	0.00e+00	0	51	104	0	85	25045
2026-01-03 21:19:22.78	166.26	72.24	-57.4	-62.0	3.7	0.00e+00	0	51	104	0	85	25698
2026-01-03 21:19:24.78	168.66	70.81	-57.4	-61.7	3.7	0.00e+00	0	51	104	0	85	25035
2026-01-03 21:19:26.78	170.70	69.37	-56.8	-61.5	3.7	0.00e+00	0	51	104	0	85	24462
2026-01-03 21:19:28.79	172.47	67.93	-57.3	-61.7	3.7	0.00e+00	0	51	104	0	85	24990
2026-01-03 21:19:30.79	173.99	66.51	-56.7	-61.5	3.7	0.00e+00	0	51	104	0	85	24335
2026-01-03 21:19:32.79	175.33	65.09	-56.9	-61.6	3.7	0.00e+00	0	51	104	0	84	26165
2026-01-03 21:19:34.79	176.51	63.70	-57.4	-61.9	3.7	0.00e+00	0	51	104	0	85	25475
2026-01-03 21:19:36.79	177.55	62.33	-57.0	-61.7	3.7	0.00e+00	0	51	104	0	85	24867
2026-01-03 21:19:38.79	178.49	60.98	-57.4	-62.0	3.7	0.00e+00	0	51	104	0	85	25810
2026-01-03 21:19:40.79	179.33	59.65	-57.5	-61.9	3.7	0.00e+00	0	51	104	0	85	25606
2026-01-03 21:19:42.80	180.09	58.34	-57.4	-61.9	3.7	0.00e+00	0	51	104	0	86	24090
2026-01-03 21:19:44.80	180.78	57.07	-57.3	-61.8	3.7	0.00e+00	0	52	104	0	85	25211
2026-01-03 21:19:46.80	181.41	55.82	-56.5	-61.3	3.7	0.00e+00	0	51	104	0	84	25308
2026-01-03 21:19:48.80	181.98	54.60	-56.9	-61.6	3.7	0.00e+00	0	51	104	0	84	26214
2026-01-03 21:19:50.81	182.51	53.40	-57.3	-61.8	3.7	0.00e+00	0	51	104	0	85	25334
2026-01-03 21:19:52.82	183.00	52.23	-57.4	-61.8	3.7	0.00e+00	0	52	104	0	85	25095
2026-01-03 21:19:54.82	183.45	51.10	-57.0	-61.5	3.7	0.00e+00	0	51	104	0	85	24405
2026-01-03 21:19:56.82	183.86	49.99	-57.2	-61.7	3.7	0.00e+00	0	52	104	0	84	26530
2026-01-03 21:19:58.83	184.25	48.90	-57.3	-61.7	3.7	0.00e+00	0	52	104	0	85	25072
2026-01-03 21:20:00.83	184.61	47.85	-57.4	-61.8	3.7	0.00e+00	0	52	104	0	85	25363
2026-01-03 21:20:02.82	184.95	46.83	-57.3	-61.6	3.7	0.00e+00	0	51	104	0	85	24707
2026-01-03 21:20:04.83	185.27	45.83	-57.0	-61.4	3.7	0.00e+00	0	51	104	0	85	24216
2026-01-03 21:20:06.84	185.57	44.85	-57.3	-61.8	3.7	0.00e+00	0	51	104	0	85	25100
2026-01-03 21:20:08.84	185.85	43.90	-57.3	-61.7	3.7	0.00e+00	0	52	104	0	85	25024
2026-01-03 21:20:10.84	186.11	42.98	-57.3	-61.9	3.7	0.00e+00	0	51	104	0	85	25407
2026-01-03 21:20:12.84	186.36	42.08	-57.2	-61.7	3.7	0.00e+00	0	51	104	0	85	24899
2026-01-03 21:20:14.85	186.59	41.20	-57.2	-61.6	3.7	0.00e+00	0	52	104	0	85	24777
2026-01-03 21:20:16.85	186.82	40.35	-56.7	-61.4	3.7	0.00e+00	0	52	104	0	85	24004
2026-01-03 21:20:18.85	187.03	39.52	-57.1	-61.6	3.7	0.00e+00	0	52	104	0	85	24701
2026-01-03 21:20:20.86	187.23	38.71	-57.3	-61.7	3.7	0.00e+00	0	51	104	0	85	25078
2026-01-03 21:20:22.87	187.42	37.92	-56.7	-61.0	3.7	0.00e+00	0	52	104	0	85	23003
2026-01-03 21:20:24.87	187.60	37.15	-56.7	-61.1	3.7	0.00e+00	0	51	104	0	85	23160
2026-01-03 21:20:26.88	187.78	36.40	-56.6	-61.1	3.7	0.00e+00	0	51	104	0	85	23355
2026-01-03 21:20:28.88	187.94	35.67	-56.8	-61.2	3.7	0.00e+00	0	51	104	0	85	23462
2026-01-03 21:20:30.88	188.10	34.96	-57.2	-61.6	3.7	0.00e+00	0	51	104	0	85	24769
2026-01-03 21:20:32.88	188.25	34.27	-57.1	-61.6	3.7	0.00e+00	0	51	104	0	85	24553
2026-01-03 21:20:34.88	188.40	33.60	-56.2	-60.3	3.7	0.00e+00	0	51	104	0	84	22521
2026-01-03 21:20:36.89	188.54	32.94	-57.1	-61.4	3.7	0.00e+00	0	52	104	0	85	24154
2026-01-03 21:20:38.89	188.67	32.30	-56.8	-61.3	3.7	0.00e+00	0	51	104	0	85	23704
2026-01-03 21:20:40.90	188.80	31.67	-56.4	-60.9	3.7	0.00e+00	0	52	104	0	83	25651
2026-01-03 21:20:42.89	188.92	31.06	-56.7	-61.2	3.7	0.00e+00	0	52	104	0	83	26343
2026-01-03 21:20:44.90	189.04	30.47	-56.8	-61.3	3.7	0.00e+00	0	52	104	0	84	25196
2026-01-03 21:20:46.90	189.16	29.88	-56.8	-61.4	3.7	0.00e+00	0	52	104	0	84	25625
2026-01-03 21:20:48.90	189.27	29.32	-56.8	-61.4	3.7	0.00e+00	0	52	104	0	84	25499
2026-01-03 21:20:50.91	189.38	28.76	-56.5	-60.9	3.7	0.00e+00	0	51	104	0	84	24210
2026-01-03 21:20:52.91	189.48	28.22	-56.8	-61.1	3.7	0.00e+00	0	52	104	0	84	24657
2026-01-03 21:20:54.91	189.58	27.69	-57.1	-61.7	3.7	0.00e+00	0	51	104	0	85	24980
2026-01-03 21:20:56.92	189.68	27.17	-56.7	-61.4	3.7	0.00e+00	0	52	104	0	85	24136
2026-01-03 21:20:58.92	189.77	26.67	-56.5	-61.1	3.7	0.00e+00	0	51	104	0	85	23152
2026-01-03 21:21:00.92	189.86	26.17	-56.8	-61.3	3.7	0.00e+00	0	51	104	0	84	25170
2026-01-03 21:21:02.92	189.95	25.69	-56.9	-61.6	3.7	0.00e+00	0	52	104	0	84	26011
2026-01-03 21:21:04.92	190.03	25.22	-56.7	-61.4	3.7	0.00e+00	0	52	104	0	84	25557
2026-01-03 21:21:06.92	190.11	24.75	-56.6	-61.4	3.7	0.00e+00	0	52	104	0	84	25445
2026-01-03 21:21:08.93	190.19	24.30	-56.6	-61.3	3.7	0.00e+00	0	51	104	0	84	25144
2026-01-03 21:21:10.93	190.27	23.85	-56.4	-61.0	3.7	0.00e+00	0	52	104	0	84	24493
2026-01-03 21:21:12.93	190.35	23.42	-56.4	-61.1	3.7	0.00e+00	0	52	104	0	84	24551
2026-01-03 21:21:14.93	190.42	22.99	-56.3	-61.0	3.7	0.00e+00	0	52	104	0	84	24284
2026-01-03 21:21:16.93	190.49	22.58	-56.4	-61.0	3.7	0.00e+00	0	52	104	0	84	24462
2026-01-03 21:21:18.94	190.56	22.16	-56.3	-60.9	3.7	0.00e+00	0	52	104	0	84	24099
2026-01-03 21:21:20.94	190.63	21.76	-56.5	-61.0	3.7	0.00e+00	0	51	104	0	84	24344
2026-01-03 21:21:22.94	190.69	21.37	-56.1	-60.7	3.7	0.00e+00	0	52	104	0	84	23547
2026-01-03 21:21:24.95	190.76	20.98	-56.0	-60.8	3.7	0.00e+00	0	52	104	0	84	23816
2026-01-03 21:21:26.95	190.82	20.61	-55.8	-60.5	3.7	0.00e+00	0	52	104	0	83	24468
2026-01-03 21:21:28.95	190.88	20.23	-55.9	-60.5	3.7	0.00e+00	0	52	104	0	83	24393
2026-01-03 21:21:30.96	190.94	19.87	-56.1	-60.7	3.7	0.00e+00	0	52	104	0	83	25093
2026-01-03 21:21:32.96	191.00	19.51	-56.2	-60.9	3.7	0.00e+00	0	52	104	0	83	25398
2026-01-03 21:21:34.96	191.06	19.16	-56.2	-60.8	3.7	0.00e+00	0	52	104	0	83	25362
2026-01-03 21:21:36.96	191.11	18.81	-56.1	-60.8	3.7	0.00e+00	0	52	104	0	83	25372
2026-01-03 21:21:38.97	191.17	18.47	-55.9	-60.7	3.7	0.00e+00	0	52	104	0	83	24904
2026-01-03 21:21:40.97	191.22	18.14	-55.8	-60.7	3.7	0.00e+00	0	52	104	0	83	24913
2026-01-03 21:21:42.97	191.27	17.81	-55.8	-60.6	3.7	0.00e+00	0	52	104	0	83	24671
2026-01-03 21:21:44.97	191.32	17.49	-55.9	-60.7	3.7	0.00e+00	0	51	104	0	83	24817
2026-01-03 21:21:46.98	191.37	17.17	-55.6	-60.3	3.7	0.00e+00	0	52	104	0	83	23880
2026-01-03 21:21:48.98	191.42	16.86	-55.9	-60.7	3.7	0.00e+00	0	52	104	0	83	25031
2026-01-03 21:21:50.99	191.47	16.55	-55.8	-60.5	3.7	0.00e+00	0	52	104	0	82	25963
2026-01-03 21:21:53.00	191.51	16.25	-55.7	-60.5	3.7	0.00e+00	0	52	104	0	82	25826
2026-01-03 21:21:54.99	191.56	15.96	-55.7	-60.4	3.7	0.00e+00	0	52	104	0	82	25612
2026-01-03 21:21:57.00	191.61	15.66	-55.9	-60.5	3.7	0.00e+00	0	52	104	0	82	25928
2026-01-03 21:21:59.00	191.65	15.38	-55.6	-60.3	3.7	0.00e+00	0	52	104	0	82	25177
2026-01-03 21:22:01.00	191.69	15.09	-55.9	-60.6	3.7	0.00e+00	0	52	104	0	82	26246
2026-01-03 21:22:03.01	191.73	14.81	-55.7	-60.3	3.6	0.00e+00	0	52	104	0	82	25199
2026-01-03 21:22:05.01	191.78	14.54	-55.7	-60.4	3.7	0.00e+00	0	51	104	0	82	25401
2026-01-03 21:22:07.01	191.82	14.27	-55.8	-60.6	3.7	0.00e+00	0	52	104	0	82	26270
2026-01-03 21:22:09.02	191.86	14.00	-55.4	-60.4	3.7	0.00e+00	0	52	104	0	82	25408
2026-01-03 21:22:11.03	191.90	13.73	-55.5	-60.3	3.7	0.00e+00	0	51	104	0	82	25194
2026-01-03 21:22:13.02	191.93	13.48	-55.4	-60.3	3.7	0.00e+00	0	52	104	0	82	25154
2026-01-03 21:22:15.03	191.97	13.22	-55.3	-60.0	3.7	0.00e+00	0	52	104	0	82	24341
2026-01-03 21:22:17.03	192.01	12.97	-55.4	-60.0	3.7	0.00e+00	0	52	104	0	82	24314
2026-01-03 21:22:19.03	192.05	12.72	-55.4	-60.2	3.7	0.00e+00	0	52	104	0	82	24942
2026-01-03 21:22:21.03	192.08	12.47	-55.6	-60.2	3.7	0.00e+00	0	52	104	0	82	24873
2026-01-03 21:22:23.04	192.12	12.23	-55.5	-60.2	3.7	0.00e+00	0	52	104	0	81	26563
2026-01-03 21:22:25.04	192.15	11.99	-54.8	-59.6	3.7	0.00e+00	0	52	104	0	80	25993
2026-01-03 21:22:27.04	192.19	11.76	-54.5	-59.4	3.7	0.00e+00	0	52	104	0	80	25573
2026-01-03 21:22:29.04	192.22	11.52	-54.4	-59.5	3.7	0.00e+00	0	52	104	0	80	25756
2026-01-03 21:22:31.05	192.25	11.29	-54.3	-59.4	3.7	0.00e+00	0	52	104	0	80	25616
2026-01-03 21:22:33.05	192.28	11.07	-54.1	-59.4	3.7	0.00e+00	0	52	104	0	80	25429
2026-01-03 21:22:35.05	192.32	10.84	-54.2	-59.4	3.7	0.00e+00	0	52	104	0	80	25437
2026-01-03 21:22:37.05	192.35	10.62	-54.3	-59.4	3.7	0.00e+00	0	52	104	0	80	25469
2026-01-03 21:22:39.05	192.38	10.40	-54.3	-59.4	3.7	0.00e+00	0	52	104	0	80	25564
2026-01-03 21:22:41.06	192.41	10.18	-54.3	-59.3	3.7	0.00e+00	0	52	104	0	80	25241
2026-01-03 21:22:43.06	192.44	9.97	-54.5	-59.5	3.7	0.00e+00	0	52	104	0	80	25711
2026-01-03 21:22:45.05	192.47	9.76	-54.4	-59.4	3.7	0.00e+00	0	52	104	0	80	25567
2026-01-03 21:22:47.05	192.50	9.55	-54.5	-59.5	3.7	0.00e+00	0	52	104	0	80	25734
2026-01-03 21:22:49.05	192.53	9.34	-54.3	-59.2	3.7	0.00e+00	0	52	104	0	80	25001
2026-01-03 21:22:51.06	192.56	9.14	-54.4	-59.4	3.7	0.00e+00	0	52	104	0	80	25413
2026-01-03 21:22:53.06	192.59	8.94	-55.0	-60.0	3.7	0.00e+00	0	52	104	0	80	27353
2026-01-03 21:22:55.07	192.61	8.74	-55.9	-60.7	3.7	0.00e+00	0	52	104	0	82	26277
2026-01-03 21:22:57.07	192.64	8.54	-56.6	-61.3	3.7	0.00e+00	0	52	104	0	84	25248
2026-01-03 21:22:59.08	192.67	8.34	-56.8	-61.3	3.7	0.00e+00	0	52	104	0	85	23860
2026-01-03 21:23:01.08	192.69	8.15	-57.3	-61.8	3.7	0.00e+00	0	52	104	0	85	25184
2026-01-03 21:23:03.09	192.72	7.95	-57.1	-61.7	3.7	0.00e+00	0	52	104	0	85	25070
2026-01-03 21:23:05.09	192.75	7.77	-57.1	-61.8	3.7	0.00e+00	0	52	104	0	85	25274
2026-01-03 21:23:07.09	192.77	7.58	-57.6	-62.0	3.7	0.00e+00	0	52	104	0	85	25927
2026-01-03 21:23:09.10	192.80	7.39	-57.0	-61.8	3.7	0.00e+00	0	52	104	0	85	25125
2026-01-03 21:23:11.11	192.82	7.21	-57.5	-61.8	3.7	0.00e+00	0	52	104	0	85	25292
2026-01-03 21:23:13.11	192.85	7.02	-56.8	-61.3	3.7	0.00e+00	0	52	104	0	85	23862
2026-01-03 21:23:15.12	192.87	6.84	-57.5	-61.9	3.7	0.00e+00	0	52	104	0	85	25517
2026-01-03 21:23:17.13	192.90	6.66	-57.0	-61.7	3.7	0.00e+00	0	52	104	0	85	24959
2026-01-03 21:23:19.13	192.92	6.49	-56.6	-61.2	3.7	0.00e+00	0	52	104	0	84	24843
2026-01-03 21:23:21.14	192.94	6.31	-56.6	-61.2	3.7	0.00e+00	0	52	104	0	84	24848
2026-01-03 21:23:23.14	192.97	6.14	-56.5	-61.1	3.7	0.00e+00	0	52	104	0	84	24752
2026-01-03 21:23:25.15	192.99	5.96	-56.7	-61.2	3.7	0.00e+00	0	51	104	0	84	25021
2026-01-03 21:23:27.15	193.01	5.79	-56.5	-61.1	3.7	0.00e+00	0	52	104	0	84	24740
2026-01-03 21:23:29.16	193.04	5.62	-56.5	-61.1	3.7	0.00e+00	0	52	104	0	84	24743
2026-01-03 21:23:31.17	193.06	5.45	-56.5	-61.1	3.7	0.00e+00	0	52	104	0	84	24797
2026-