passes_logs/2026/01/03/T1/T1__20260103_220123_SUOMI_NPP_rec.log

#Pass ID: 20260103_220123_SUOMI NPP
#Satellite: SUOMI NPP
#Configuration: NPP
#almurnet v.1.7.20251203
#Start time: 2026-01-03 22:01:24

#Version: 2.0.20230620
#Station: T1
#Location: 37.570604 lon 55.790049 lat
#TLE: 1 37849U 11061A   26001.07732418  .00000182  00000+0  10735-3 0  9990
#TLE: 2 37849  98.7795 303.2470 0002580  87.2016 272.9455 14.19520779734739

#Time	Az	El	Level	Level2	SNR	BER	BlckErr	Temp	State	Recorded	gain1	gain2
2026-01-03 22:01:24.58	32.81	5.05	-53.2	-68.6	3.8	1.49e+00	0	37	0	0	77	21835
2026-01-03 22:01:27.59	33.11	5.21	-53.3	-68.7	3.8	1.49e+00	0	37	104	0	77	22010
2026-01-03 22:01:30.60	33.42	5.37	-53.3	-68.6	3.8	1.49e+00	0	37	104	0	77	21844
2026-01-03 22:01:33.61	33.72	5.54	-53.3	-68.6	3.8	1.49e+00	0	38	104	0	77	22006
2026-01-03 22:01:36.63	34.04	5.70	-53.3	-68.6	3.8	1.49e+00	0	38	104	0	77	21968
2026-01-03 22:01:39.64	34.35	5.86	-53.4	-68.7	3.8	1.49e+00	0	38	104	0	77	22131
2026-01-03 22:01:42.66	34.67	6.03	-53.4	-68.7	3.8	1.49e+00	0	38	104	0	77	22038
2026-01-03 22:01:45.67	34.99	6.19	-53.5	-68.8	3.8	1.49e+00	0	38	104	0	77	22484
2026-01-03 22:01:48.68	35.32	6.35	-53.4	-68.8	3.8	1.49e+00	0	38	104	0	77	22297
2026-01-03 22:01:51.69	35.65	6.52	-53.4	-68.7	3.8	1.49e+00	0	38	104	0	77	22149
2026-01-03 22:01:54.71	35.98	6.68	-53.5	-68.8	3.8	1.49e+00	0	38	104	0	77	22287
2026-01-03 22:01:57.72	36.31	6.85	-53.6	-68.8	3.8	1.49e+00	0	38	104	0	77	22314
2026-01-03 22:02:00.73	36.65	7.01	-53.5	-68.8	3.8	1.49e+00	0	38	104	0	77	22467
2026-01-03 22:02:03.75	37.00	7.18	-53.4	-68.7	3.8	1.49e+00	0	39	104	0	77	22178
2026-01-03 22:02:06.76	37.35	7.34	-53.5	-68.8	3.8	1.49e+00	0	39	104	0	77	22489
2026-01-03 22:02:09.77	37.70	7.51	-53.4	-68.7	3.8	1.49e+00	0	39	104	0	77	22224
2026-01-03 22:02:12.79	38.05	7.67	-53.5	-68.8	3.8	1.49e+00	0	39	104	0	78	21201
2026-01-03 22:02:15.80	38.41	7.84	-53.5	-68.7	3.8	1.49e+00	0	39	104	0	78	20993
2026-01-03 22:02:18.81	38.77	8.00	-53.5	-68.4	3.8	1.49e+00	0	39	104	0	78	20231
2026-01-03 22:02:21.82	39.14	8.17	-53.4	-68.6	3.8	1.49e+00	0	39	104	0	78	20630
2026-01-03 22:02:24.84	39.51	8.34	-53.4	-68.7	3.8	1.49e+00	0	39	104	0	78	20851
2026-01-03 22:02:27.85	39.89	8.50	-53.4	-68.5	3.8	1.49e+00	0	39	104	0	78	20309
2026-01-03 22:02:30.86	40.26	8.67	-53.4	-67.7	3.8	1.49e+00	0	39	104	0	78	18682
2026-01-03 22:02:33.87	40.65	8.84	-53.5	-67.5	3.8	1.49e+00	0	39	104	0	78	18138
2026-01-03 22:02:36.89	41.04	9.00	-52.8	-62.3	5.5	7.43e-01	0	39	0	1048576	77	10615
2026-01-03 22:02:39.90	41.43	9.17	-51.9	-58.0	9.3	5.90e-01	0	39	0	4194304	75	7271
2026-01-03 22:02:42.91	41.82	9.33	-50.0	-53.9	13.8	5.30e-06	0	39	0	7340032	71	5683
2026-01-03 22:02:45.97	42.23	9.50	-49.9	-53.7	14.1	2.20e-06	0	39	0	12582912	71	5553
2026-01-03 22:02:48.98	42.63	9.67	-49.6	-53.4	14.2	1.50e-06	0	39	0	18874368	71	5367
2026-01-03 22:02:51.99	43.04	9.84	-49.4	-52.9	14.8	0.00e+00	0	39	0	24117248	70	5381
2026-01-03 22:02:54.99	43.45	10.00	-48.9	-52.1	15.5	0.00e+00	0	39	0	29360128	69	5216
2026-01-03 22:02:58.00	43.87	10.17	-48.5	-51.7	15.8	0.00e+00	0	39	0	35651584	69	4938
2026-01-03 22:03:01.00	44.29	10.33	-48.4	-51.4	16.2	0.00e+00	0	39	0	40894464	68	5082
2026-01-03 22:03:04.01	44.72	10.50	-48.3	-51.2	16.4	0.00e+00	0	39	0	46137344	68	4976
2026-01-03 22:03:07.02	45.15	10.66	-47.8	-50.6	17.0	0.00e+00	0	39	0	52428800	67	4887
2026-01-03 22:03:10.03	45.59	10.83	-47.2	-49.8	17.6	0.00e+00	0	39	0	57671680	66	4722
2026-01-03 22:03:13.03	46.03	10.99	-47.4	-50.0	17.7	0.00e+00	0	39	0	63963136	66	4841
2026-01-03 22:03:16.03	46.48	11.15	-47.7	-50.4	17.2	0.00e+00	0	39	0	69206016	66	5077
2026-01-03 22:03:19.05	46.93	11.32	-47.6	-50.4	17.2	7.00e-07	0	39	0	74448896	66	5055
2026-01-03 22:03:22.05	47.38	11.48	-47.5	-50.2	17.2	1.14e-05	0	39	0	80740352	66	4970
2026-01-03 22:03:25.05	47.84	11.64	-47.4	-50.1	17.4	0.00e+00	0	39	0	85983232	66	4897
2026-01-03 22:03:28.14	48.32	11.81	-47.3	-50.0	17.4	0.00e+00	0	40	0	92274688	66	4859
2026-01-03 22:03:31.28	48.81	11.97	-47.3	-50.0	17.6	1.50e-06	0	39	0	97517568	66	4852
2026-01-03 22:03:34.20	49.27	12.13	-47.2	-49.9	17.7	0.00e+00	0	39	0	102760448	66	4787
2026-01-03 22:03:37.73	49.84	12.32	-47.2	-49.9	17.6	0.00e+00	0	39	0	110100480	66	4786
2026-01-03 22:03:40.46	50.28	12.46	-47.4	-50.2	17.3	0.00e+00	0	39	0	115343360	66	4933
2026-01-03 22:03:43.75	50.82	12.63	-47.5	-50.2	17.5	0.00e+00	0	39	0	121634816	66	4939
2026-01-03 22:03:46.47	51.27	12.78	-47.3	-50.0	17.5	0.00e+00	0	39	0	125829120	66	4851
2026-01-03 22:03:49.68	51.80	12.94	-47.5	-50.3	17.3	0.00e+00	0	39	0	132120576	66	5026
2026-01-03 22:03:52.69	52.31	13.10	-47.9	-50.9	16.8	0.00e+00	0	39	0	138412032	66	5343
2026-01-03 22:03:55.70	52.83	13.25	-47.9	-50.7	16.9	7.00e-07	0	39	0	143654912	67	4976
2026-01-03 22:03:58.99	53.39	13.42	-47.7	-50.6	16.9	0.00e+00	0	39	0	149946368	67	4915
2026-01-03 22:04:01.72	53.87	13.56	-47.7	-50.7	16.7	0.00e+00	0	39	0	155189248	67	4940
2026-01-03 22:04:05.00	54.44	13.72	-47.7	-50.7	16.5	2.59e-05	0	39	0	161480704	66	5241
2026-01-03 22:04:07.73	54.93	13.86	-47.8	-50.7	16.7	0.00e+00	0	39	0	165675008	67	4956
2026-01-03 22:04:11.01	55.52	14.02	-47.6	-50.4	16.9	0.00e+00	0	39	0	171966464	66	5064
2026-01-03 22:04:13.74	56.01	14.15	-47.6	-50.5	16.8	0.00e+00	0	39	0	177209344	66	5110
2026-01-03 22:04:17.02	56.61	14.31	-47.8	-50.8	16.6	0.00e+00	0	40	0	183500800	66	5306
2026-01-03 22:04:19.73	57.11	14.44	-48.1	-51.2	16.3	0.00e+00	0	39	0	188743680	67	5248
2026-01-03 22:04:23.11	57.74	14.60	-48.0	-51.1	16.3	0.00e+00	0	39	0	195035136	67	5181
2026-01-03 22:04:26.18	58.32	14.74	-47.7	-50.6	16.7	0.00e+00	0	39	0	200278016	66	5200
2026-01-03 22:04:29.28	58.90	14.88	-47.9	-50.9	16.4	0.00e+00	0	40	0	206569472	66	5400
2026-01-03 22:04:32.43	59.51	15.02	-48.2	-51.3	16.1	0.00e+00	0	40	0	212860928	67	5295
2026-01-03 22:04:35.29	60.06	15.15	-48.2	-51.3	16.1	0.00e+00	0	39	0	218103808	67	5316
2026-01-03 22:04:38.50	60.69	15.29	-48.5	-51.7	15.9	0.00e+00	0	39	0	223346688	68	5235
2026-01-03 22:04:41.36	61.25	15.41	-48.4	-51.5	16.1	0.00e+00	0	39	0	229638144	68	5147
2026-01-03 22:04:44.51	61.88	15.55	-48.0	-50.9	16.6	0.00e+00	0	40	0	234881024	67	5051
2026-01-03 22:04:47.38	62.45	15.67	-48.1	-51.2	16.4	5.30e-06	0	40	0	240123904	67	5223
2026-01-03 22:04:50.53	63.08	15.79	-48.3	-51.3	16.3	0.00e+00	0	40	0	246415360	67	5306
2026-01-03 22:04:53.39	63.67	15.91	-47.6	-50.5	16.9	0.00e+00	0	39	0	251658240	67	4817
2026-01-03 22:04:56.54	64.31	16.03	-47.5	-50.2	17.2	0.00e+00	0	39	0	257949696	66	4982
2026-01-03 22:04:59.41	64.90	16.14	-47.3	-50.0	17.2	0.00e+00	0	40	0	263192576	66	4862
2026-01-03 22:05:02.55	65.56	16.26	-47.2	-49.9	17.6	0.00e+00	0	40	0	268435456	66	4773
2026-01-03 22:05:05.42	66.16	16.37	-47.4	-50.1	17.4	0.00e+00	0	40	0	274726912	66	4898
2026-01-03 22:05:08.62	66.83	16.48	-47.1	-49.7	17.6	0.00e+00	0	39	0	279969792	66	4694
2026-01-03 22:05:11.48	67.44	16.58	-47.0	-49.6	17.8	0.00e+00	0	40	0	285212672	66	4607
2026-01-03 22:05:14.63	68.12	16.68	-47.5	-50.2	17.2	0.00e+00	0	40	0	291504128	66	4969
2026-01-03 22:05:17.50	68.73	16.78	-47.8	-50.7	16.7	0.00e+00	0	39	0	296747008	66	5227
2026-01-03 22:05:20.68	69.42	16.88	-47.8	-50.7	16.7	0.00e+00	0	40	0	303038464	67	4958
2026-01-03 22:05:23.57	70.05	16.97	-47.7	-50.4	17.2	0.00e+00	0	40	0	308281344	67	4789
2026-01-03 22:05:26.72	70.75	17.06	-47.1	-49.7	17.9	0.00e+00	0	40	0	314572800	66	4668
2026-01-03 22:05:29.62	71.39	17.14	-47.5	-50.1	17.7	0.00e+00	0	40	0	319815680	65	5217
2026-01-03 22:05:32.72	72.07	17.23	-47.8	-50.5	17.2	3.89e-05	0	40	0	325058560	66	5127
2026-01-03 22:05:35.98	72.80	17.31	-47.3	-49.9	17.6	0.00e+00	0	40	0	331350016	66	4803
2026-01-03 22:05:38.85	73.44	17.38	-47.8	-50.6	17.0	0.00e+00	0	39	0	336592896	66	5210
2026-01-03 22:05:42.00	74.15	17.46	-47.3	-49.9	17.6	0.00e+00	0	40	0	342884352	66	4813
2026-01-03 22:05:44.87	74.80	17.52	-47.2	-49.8	17.7	0.00e+00	0	40	0	348127232	66	4748
2026-01-03 22:05:48.02	75.52	17.59	-47.6	-50.3	17.3	0.00e+00	0	39	0	354418688	66	5022
2026-01-03 22:05:50.88	76.17	17.64	-47.4	-49.9	17.7	0.00e+00	0	40	0	359661568	66	4787
2026-01-03 22:05:54.03	76.89	17.70	-47.8	-50.5	17.3	0.00e+00	0	40	0	364904448	66	5134
2026-01-03 22:05:56.89	77.55	17.75	-48.7	-51.7	16.2	0.00e+00	0	40	0	371195904	69	4933
2026-01-03 22:06:00.17	78.31	17.81	-48.9	-51.9	16.1	0.00e+00	0	40	0	376438784	69	5045
2026-01-03 22:06:02.98	78.96	17.85	-49.0	-52.0	15.9	0.00e+00	0	40	0	382730240	69	5141
2026-01-03 22:06:06.06	79.67	17.89	-48.8	-51.6	16.6	0.00e+00	0	40	0	387973120	69	4882
2026-01-03 22:06:09.21	80.41	17.93	-48.6	-51.4	16.8	0.00e+00	0	40	0	394264576	68	5044
2026-01-03 22:06:12.08	81.08	17.96	-48.1	-50.8	17.1	0.00e+00	0	40	0	399507456	68	4717
2026-01-03 22:06:15.22	81.81	17.98	-48.0	-50.7	17.2	0.00e+00	0	40	0	404750336	67	4957
2026-01-03 22:06:18.15	82.50	18.01	-48.3	-51.1	16.8	0.00e+00	0	40	0	411041792	67	5205
2026-01-03 22:06:21.44	83.27	18.03	-48.0	-50.7	17.1	2.20e-06	0	40	0	417333248	67	4944
2026-01-03 22:06:24.34	83.95	18.04	-48.0	-50.9	16.7	0.00e+00	0	40	0	422576128	67	5097
2026-01-03 22:06:28.11	84.83	18.06	-48.0	-50.9	16.9	0.00e+00	0	40	0	428867584	67	5084
2026-01-03 22:06:30.93	85.50	18.06	-47.5	-50.1	17.6	0.00e+00	0	39	0	434110464	66	4898
2026-01-03 22:06:34.36	86.30	18.06	-47.7	-50.4	17.3	0.00e+00	0	40	0	441450496	66	5074
2026-01-03 22:06:37.39	87.02	18.06	-48.0	-50.9	16.8	0.00e+00	0	40	0	446693376	67	5054
2026-01-03 22:06:40.34	87.71	18.05	-48.3	-51.2	16.5	0.00e+00	0	39	0	451936256	67	5247
2026-01-03 22:06:43.35	88.42	18.04	-48.8	-51.8	16.2	0.00e+00	0	40	0	458227712	68	5321
2026-01-03 22:06:46.35	89.12	18.03	-48.9	-52.0	16.0	0.00e+00	0	40	0	463470592	68	5452
2026-01-03 22:06:49.45	89.85	18.00	-48.6	-51.6	16.4	0.00e+00	0	40	0	469762048	68	5179
2026-01-03 22:06:52.40	90.54	17.98	-48.3	-51.1	16.8	0.00e+00	0	40	0	475004928	68	4881
2026-01-03 22:06:55.41	91.24	17.95	-47.7	-50.3	17.6	0.00e+00	0	40	0	480247808	67	4716
2026-01-03 22:06:58.42	91.95	17.92	-47.1	-49.6	18.1	0.00e+00	0	39	0	486539264	66	4599
2026-01-03 22:07:01.43	92.65	17.88	-47.4	-49.9	17.7	0.00e+00	0	40	0	491782144	65	5072
2026-01-03 22:07:04.49	93.36	17.84	-47.9	-50.6	16.9	0.00e+00	0	39	0	497025024	66	5191
2026-01-03 22:07:07.43	94.04	17.80	-48.3	-51.1	16.6	0.00e+00	0	40	0	503316480	67	5180
2026-01-03 22:07:10.72	94.80	17.74	-48.6	-51.4	16.5	0.00e+00	0	39	0	509607936	68	5092
2026-01-03 22:07:13.45	95.43	17.70	-48.1	-50.8	17.1	0.00e+00	0	40	0	513802240	68	4713
2026-01-03 22:07:16.75	96.19	17.63	-47.9	-50.5	17.4	0.00e+00	0	40	0	520093696	67	4833
2026-01-03 22:07:19.71	96.86	17.58	-47.8	-50.4	17.1	2.20e-06	0	39	0	526385152	67	4811
2026-01-03 22:07:22.71	97.55	17.51	-47.7	-50.4	17.2	0.00e+00	0	40	0	531628032	67	4776
2026-01-03 22:07:25.72	98.23	17.44	-47.5	-50.0	17.6	0.00e+00	0	39	0	536870912	66	4835
2026-01-03 22:07:29.10	98.99	17.36	-47.4	-49.9	17.6	0.00e+00	0	39	0	543162368	66	4794
2026-01-03 22:07:31.81	99.60	17.29	-47.3	-49.9	17.5	5.30e-06	0	40	0	548405248	66	4792
2026-01-03 22:07:35.04	100.32	17.21	-46.8	-49.3	18.1	0.00e+00	0	40	0	554696704	65	4720
2026-01-03 22:07:37.91	100.96	17.13	-46.9	-49.3	18.1	0.00e+00	0	40	0	559939584	65	4751
2026-01-03 22:07:41.10	101.66	17.04	-47.1	-49.6	18.0	0.00e+00	0	40	0	566231040	65	4881
2026-01-03 22:07:43.96	102.29	16.95	-47.1	-49.5	18.1	0.00e+00	0	40	0	571473920	65	4842
2026-01-03 22:07:47.11	102.98	16.86	-47.2	-49.6	17.9	0.00e+00	0	39	0	577765376	65	4923
2026-01-03 22:07:50.10	103.63	16.76	-47.1	-49.6	17.9	0.00e+00	0	40	0	583008256	65	4890
2026-01-03 22:07:53.49	104.36	16.65	-47.3	-49.9	17.6	0.00e+00	0	40	0	589299712	65	5076
2026-01-03 22:07:56.21	104.95	16.55	-47.2	-49.8	17.6	0.00e+00	0	40	0	594542592	65	5005
2026-01-03 22:07:59.51	105.65	16.44	-46.8	-49.2	18.1	0.00e+00	0	39	0	600834048	65	4705
2026-01-03 22:08:02.23	106.22	16.34	-47.1	-49.6	17.8	0.00e+00	0	40	0	606076928	65	4899
2026-01-03 22:08:05.58	106.93	16.22	-47.2	-49.8	17.6	0.00e+00	0	40	0	612368384	65	5031
2026-01-03 22:08:08.30	107.49	16.11	-47.0	-49.5	17.9	0.00e+00	0	40	0	617611264	65	4847
2026-01-03 22:08:11.86	108.23	15.98	-48.0	-50.7	16.9	0.00e+00	0	40	0	623902720	66	5270
2026-01-03 22:08:14.57	108.79	15.87	-48.4	-51.3	16.2	0.00e+00	0	40	0	629145600	67	5320
2026-01-03 22:08:17.87	109.46	15.73	-48.0	-50.7	16.9	0.00e+00	0	39	0	635437056	67	4948
2026-01-03 22:08:20.58	110.00	15.62	-47.6	-50.2	17.2	0.00e+00	0	40	0	640679936	67	4703
2026-01-03 22:08:24.43	110.77	15.46	-47.1	-49.7	17.7	0.00e+00	0	39	0	646971392	66	4656
2026-01-03 22:08:27.20	111.32	15.34	-47.4	-50.0	17.4	0.00e+00	0	40	0	652214272	66	4823
2026-01-03 22:08:30.94	112.06	15.17	-48.8	-51.8	16.1	0.00e+00	0	40	0	659554304	68	5285
2026-01-03 22:08:33.73	112.60	15.05	-49.3	-52.6	15.2	0.00e+00	0	40	0	664797184	69	5505
2026-01-03 22:08:37.46	113.32	14.88	-48.8	-51.8	16.0	0.00e+00	0	40	0	672137216	69	5029
2026-01-03 22:08:40.20	113.84	14.76	-48.6	-51.4	16.6	0.00e+00	0	40	0	677380096	69	4800
2026-01-03 22:08:44.04	114.57	14.58	-47.8	-50.5	17.0	0.00e+00	0	40	0	683671552	67	4839
2026-01-03 22:08:47.13	115.15	14.43	-47.8	-50.5	17.0	0.00e+00	0	40	0	689963008	67	4842
2026-01-03 22:08:50.97	115.86	14.24	-48.9	-51.9	15.7	0.00e+00	0	40	0	697303040	68	5401
2026-01-03 22:08:53.89	116.39	14.10	-48.8	-51.8	15.9	0.00e+00	0	40	0	702545920	68	5286
2026-01-03 22:08:57.18	116.99	13.94	-48.2	-51.1	16.5	0.00e+00	0	40	0	708837376	68	4900
2026-01-03 22:08:59.90	117.48	13.81	-48.3	-51.2	16.3	0.00e+00	0	40	0	714080256	68	4968
2026-01-03 22:09:03.21	118.07	13.64	-47.8	-50.6	16.8	0.00e+00	0	40	0	720371712	67	4885
2026-01-03 22:09:05.92	118.54	13.50	-48.1	-50.9	16.6	0.00e+00	0	39	0	725614592	67	5070
2026-01-03 22:09:09.21	119.12	13.34	-48.3	-51.3	16.2	0.00e+00	0	39	0	730857472	67	5287
2026-01-03 22:09:12.21	119.63	13.18	-48.5	-51.4	16.2	0.00e+00	0	40	0	737148928	67	5384
2026-01-03 22:09:15.21	120.15	13.03	-47.7	-50.3	17.3	0.00e+00	0	39	0	742391808	67	4748
2026-01-03 22:09:18.21	120.65	12.87	-47.8	-50.5	17.0	0.00e+00	0	40	0	748683264	67	4856
2026-01-03 22:09:21.20	121.15	12.71	-47.8	-50.5	17.0	0.00e+00	0	40	0	753926144	67	4861
2026-01-03 22:09:24.61	121.72	12.53	-48.1	-50.9	16.5	0.00e+00	0	40	0	760217600	67	5084
2026-01-03 22:09:27.32	122.16	12.39	-48.1	-50.8	16.7	0.00e+00	0	40	0	765460480	67	5017
2026-01-03 22:09:30.61	122.69	12.21	-47.9	-50.6	16.9	0.00e+00	0	39	0	771751936	67	4909
2026-01-03 22:09:33.34	123.13	12.07	-47.4	-50.1	17.2	0.00e+00	0	39	0	776994816	66	4909
2026-01-03 22:09:36.60	123.65	11.89	-47.1	-49.6	17.6	0.00e+00	0	40	0	782237696	65	4894
2026-01-03 22:09:39.75	124.14	11.72	-47.2	-49.9	17.4	0.00e+00	0	39	0	788529152	65	5072
2026-01-03 22:09:42.62	124.58	11.56	-47.7	-50.4	16.9	0.00e+00	0	40	0	793772032	66	5088
2026-01-03 22:09:45.90	125.09	11.39	-47.6	-50.3	17.1	0.00e+00	0	39	0	800063488	66	4992
2026-01-03 22:09:48.85	125.53	11.22	-47.5	-50.2	17.2	0.00e+00	0	40	0	805306368	66	4948
2026-01-03 22:09:52.60	126.10	11.02	-47.9	-50.7	16.7	0.00e+00	0	40	0	812646400	66	5224
2026-01-03 22:09:55.38	126.51	10.87	-47.9	-50.8	16.5	0.00e+00	0	39	0	817889280	66	5304
2026-01-03 22:09:59.13	127.06	10.66	-47.8	-50.5	16.7	0.00e+00	0	40	0	825229312	66	5147
2026-01-03 22:10:01.93	127.46	10.50	-47.8	-50.6	16.7	0.00e+00	0	39	0	830472192	66	5203
2026-01-03 22:10:05.30	127.94	10.32	-48.3	-51.4	16.0	0.00e+00	0	40	0	836763648	67	5356
2026-01-03 22:10:08.02	128.33	10.17	-48.8	-52.1	15.5	0.00e+00	0	40	0	842006528	68	5466
2026-01-03 22:10:11.31	128.79	9.98	-48.8	-52.1	15.4	0.00e+00	0	40	0	848297984	68	5478
2026-01-03 22:10:14.03	129.16	9.83	-48.6	-51.8	15.6	0.00e+00	0	39	0	852492288	68	5315
2026-01-03 22:10:17.32	129.61	9.65	-48.7	-51.9	15.4	0.00e+00	0	39	0	858783744	68	5390
2026-01-03 22:10:20.04	129.98	9.50	-48.7	-51.8	15.5	0.00e+00	0	40	0	864026624	68	5324
2026-01-03 22:10:23.33	130.42	9.31	-48.6	-51.7	15.6	0.00e+00	0	40	0	870318080	68	5266
2026-01-03 22:10:26.05	130.78	9.16	-48.6	-51.8	15.6	0.00e+00	0	39	0	875560960	68	5291
2026-01-03 22:10:29.31	131.21	8.98	-53.5	-68.6	3.8	1.36e+00	0	40	104	880803840	77	21987
2026-01-03 22:10:32.18	131.58	8.82	-53.9	-69.1	3.8	1.49e+00	0	40	104	880803840	78	21920
2026-01-03 22:10:35.43	131.99	8.64	-54.0	-69.2	3.8	1.49e+00	0	40	104	880803840	79	21002
2026-01-03 22:10:38.34	132.36	8.48	-54.2	-69.3	3.8	1.49e+00	0	40	104	880803840	79	21185
2026-01-03 22:10:41.64	132.77	8.29	-54.1	-69.5	3.8	1.49e+00	0	40	104	880803840	79	21577
2026-01-03 22:10:44.57	133.13	8.13	-54.0	-69.4	3.8	1.49e+00	0	40	104	880803840	79	21320
2026-01-03 22:10:47.72	133.52	7.95	-53.9	-69.4	3.8	1.49e+00	0	40	104	880803840	79	21379
2026-01-03 22:10:50.59	133.87	7.79	-54.0	-69.4	3.8	1.49e+00	0	40	104	880803840	79	21390
2026-01-03 22:10:53.75	134.24	7.62	-54.0	-69.4	3.8	1.49e+00	0	40	104	880803840	79	21374
2026-01-03 22:10:56.62	134.58	7.46	-54.0	-69.4	3.8	1.49e+00	0	40	104	880803840	79	21271
2026-01-03 22:10:59.77	134.95	7.28	-53.9	-69.2	3.8	1.49e+00	0	40	104	880803840	79	20961
2026-01-03 22:11:02.64	135.28	7.12	-53.8	-69.2	3.8	1.49e+00	0	40	104	880803840	79	20836
2026-01-03 22:11:05.80	135.64	6.95	-53.8	-69.2	3.8	1.49e+00	0	39	104	880803840	79	21005
2026-01-03 22:11:08.67	135.97	6.79	-53.9	-69.4	3.8	1.49e+00	0	39	104	880803840	79	21264
2026-01-03 22:11:11.82	136.32	6.62	-53.9	-69.3	3.8	1.49e+00	0	40	104	880803840	79	21181
2026-01-03 22:11:14.70	136.64	6.46	-53.9	-69.3	3.8	1.49e+00	0	39	104	880803840	79	21088
2026-01-03 22:11:17.85	136.98	6.28	-53.8	-69.2	3.8	1.49e+00	0	40	104	880803840	79	20956
2026-01-03 22:11:20.72	137.29	6.13	-53.9	-69.3	3.8	1.49e+00	0	40	104	880803840	79	21038
2026-01-03 22:11:23.88	137.63	5.95	-53.9	-69.3	3.8	1.49e+00	0	40	104	880803840	79	21205
2026-01-03 22:11:26.75	137.93	5.79	-53.9	-69.3	3.8	1.49e+00	0	40	104	880803840	79	21145
2026-01-03 22:11:29.90	138.26	5.62	-53.8	-69.3	3.8	1.49e+00	0	40	104	880803840	79	21053
2026-01-03 22:11:32.77	138.56	5.47	-53.9	-69.3	3.8	1.49e+00	0	40	104	880803840	79	21078
2026-01-03 22:11:35.93	138.88	5.29	-53.9	-69.3	3.8	1.49e+00	0	40	104	880803840	79	21126
2026-01-03 22:11:38.80	139.17	5.14	-54.0	-69.3	3.8	1.49e+00	0	40	104	880803840	79	21248
2026-01-03 22:11:41.96	139.49	4.97	-54.0	-69.4	3.8	1.49e+00	0	40	104	880803840	79	21443

#Closed at: 2026-01-03 22:11:42
#Recorded file [880 MB]: D:/Data/31040_260104_010124.dat