passes_logs/2026/01/03/T1/T1__20260103_014039_SUOMI_NPP_rec.log

#Pass ID: 20260103_014039_SUOMI NPP
#Satellite: SUOMI NPP
#Configuration: NPP
#almurnet v.1.7.20251203
#Start time: 2026-01-03 01:40:39

#Version: 2.0.20230620
#Station: T1
#Location: 37.570604 lon 55.790049 lat
#TLE: 1 37849U 11061A   26001.07732418  .00000182  00000+0  10735-3 0  9990
#TLE: 2 37849  98.7795 303.2470 0002580  87.2016 272.9455 14.19520779734739

#Time	Az	El	Level	Level2	SNR	BER	BlckErr	Temp	State	Recorded	gain1	gain2
2026-01-03 01:40:39.28	5.27	4.96	-48.7	-64.4	3.8	1.49e+00	0	40	0	0	69	21281
2026-01-03 01:40:42.29	4.99	5.14	-46.8	-63.8	3.8	1.49e+00	0	41	104	0	65	25235
2026-01-03 01:40:45.30	4.72	5.31	-46.8	-63.8	3.8	1.49e+00	0	41	104	0	65	25189
2026-01-03 01:40:48.32	4.44	5.48	-46.8	-63.8	3.8	1.49e+00	0	41	104	0	65	25152
2026-01-03 01:40:51.33	4.16	5.66	-46.8	-63.8	3.8	1.49e+00	0	41	104	0	65	25032
2026-01-03 01:40:54.34	3.87	5.83	-46.8	-63.8	3.8	1.49e+00	0	41	104	0	65	25044
2026-01-03 01:40:57.36	3.58	6.00	-46.8	-63.8	3.8	1.49e+00	0	41	104	0	65	24995
2026-01-03 01:41:00.37	3.29	6.18	-46.7	-63.5	3.9	1.49e+00	0	41	104	0	65	24356
2026-01-03 01:41:03.38	2.99	6.35	-46.7	-63.5	3.9	1.49e+00	0	41	104	0	65	24324
2026-01-03 01:41:06.39	2.69	6.53	-46.8	-63.8	3.8	1.49e+00	0	42	104	0	65	25187
2026-01-03 01:41:09.40	2.38	6.71	-46.8	-63.8	3.8	1.49e+00	0	42	104	0	65	25256
2026-01-03 01:41:12.42	2.07	6.88	-46.8	-63.8	3.8	1.49e+00	0	42	104	0	65	25088
2026-01-03 01:41:15.43	1.76	7.06	-46.8	-63.7	3.8	1.49e+00	0	42	104	0	65	24803
2026-01-03 01:41:18.44	1.45	7.24	-46.8	-63.8	3.8	1.49e+00	0	42	104	0	65	25062
2026-01-03 01:41:21.46	1.13	7.42	-46.8	-63.8	3.8	1.49e+00	0	42	104	0	65	25246
2026-01-03 01:41:24.47	0.80	7.59	-46.8	-63.7	3.8	1.49e+00	0	42	104	0	65	24785
2026-01-03 01:41:27.48	0.47	7.77	-46.8	-63.7	3.8	1.49e+00	0	42	104	0	65	24701
2026-01-03 01:41:30.49	0.14	7.95	-46.8	-63.6	3.8	1.49e+00	0	43	104	0	65	24671
2026-01-03 01:41:33.51	359.80	8.13	-46.8	-63.8	3.8	1.49e+00	0	43	104	0	65	25211
2026-01-03 01:41:36.52	359.46	8.31	-46.8	-63.3	3.8	1.49e+00	0	43	104	0	65	23821
2026-01-03 01:41:39.53	359.12	8.49	-46.6	-60.4	4.2	1.47e+00	0	43	0	0	65	17042
2026-01-03 01:41:42.55	358.77	8.67	-46.2	-56.2	6.4	3.82e-01	0	43	0	4194304	64	11108
2026-01-03 01:41:45.56	358.41	8.85	-45.8	-53.5	9.0	3.44e-02	0	43	0	9437184	63	8599
2026-01-03 01:41:48.57	358.05	9.03	-45.6	-52.8	9.8	9.78e-03	0	43	0	15728640	63	7951
2026-01-03 01:41:51.58	357.69	9.21	-45.8	-53.7	9.0	9.34e-03	0	43	0	20971520	63	8788
2026-01-03 01:41:55.23	357.24	9.43	-43.2	-47.9	14.7	1.50e-06	0	43	0	26214400	58	6007
2026-01-03 01:41:58.12	356.88	9.61	-42.7	-47.6	15.0	0.00e+00	0	43	0	31457280	57	6146
2026-01-03 01:42:02.80	356.29	9.89	-43.0	-47.5	15.1	0.00e+00	0	43	0	39845888	57	6108
2026-01-03 01:42:05.81	355.91	10.07	-42.9	-47.2	15.4	0.00e+00	0	43	0	46137344	57	5869
2026-01-03 01:42:10.54	355.29	10.35	-42.8	-47.3	15.2	3.00e-06	0	43	0	54525952	57	5991
2026-01-03 01:42:13.55	354.89	10.54	-43.0	-48.2	14.5	9.90e-06	0	43	0	59768832	57	6582
2026-01-03 01:42:18.33	354.25	10.82	-42.9	-48.2	14.4	1.52e-05	0	43	0	69206016	57	6576
2026-01-03 01:42:21.34	353.83	11.00	-42.8	-47.7	15.1	7.00e-07	0	43	0	74448896	57	6207
2026-01-03 01:42:26.14	353.17	11.29	-43.1	-47.5	15.2	0.00e+00	0	43	0	83886080	57	6094
2026-01-03 01:42:29.15	352.74	11.47	-43.2	-47.2	15.4	0.00e+00	0	43	0	89128960	57	5901
2026-01-03 01:42:33.93	352.05	11.76	-42.8	-46.4	16.2	0.00e+00	0	43	0	98566144	57	5396
2026-01-03 01:42:36.94	351.61	11.94	-42.9	-47.0	15.7	0.00e+00	0	43	0	103809024	57	5758
2026-01-03 01:42:41.70	350.90	12.22	-42.5	-47.2	15.5	0.00e+00	0	43	0	113246208	57	5920
2026-01-03 01:42:44.71	350.45	12.40	-42.3	-46.6	16.1	0.00e+00	0	43	0	118489088	56	5814
2026-01-03 01:42:49.46	349.72	12.69	-43.0	-47.3	15.5	0.00e+00	0	43	0	127926272	56	6329
2026-01-03 01:42:52.48	349.25	12.86	-43.3	-47.5	15.2	0.00e+00	0	43	0	133169152	57	6128
2026-01-03 01:42:57.22	348.50	13.14	-43.5	-47.1	15.7	0.00e+00	0	43	0	141557760	57	5843
2026-01-03 01:43:00.22	348.02	13.32	-43.4	-47.4	15.3	0.00e+00	0	43	0	147849216	57	6052
2026-01-03 01:43:05.11	347.22	13.60	-43.0	-47.3	15.3	0.00e+00	0	43	0	157286400	57	5982
2026-01-03 01:43:08.00	346.74	13.77	-42.9	-46.8	16.0	0.00e+00	0	43	0	162529280	57	5602
2026-01-03 01:43:11.15	346.21	13.95	-43.6	-47.1	15.7	0.00e+00	0	43	0	167772160	57	5820
2026-01-03 01:43:14.30	345.67	14.13	-43.8	-47.4	15.4	0.00e+00	0	43	0	174063616	58	5694
2026-01-03 01:43:17.32	345.15	14.30	-43.8	-47.6	15.2	0.00e+00	0	43	0	179306496	58	5843
2026-01-03 01:43:20.33	344.63	14.47	-43.4	-47.2	15.6	0.00e+00	0	43	0	185597952	58	5565
2026-01-03 01:43:23.34	344.10	14.64	-43.4	-47.1	15.7	0.00e+00	0	43	0	190840832	58	5477
2026-01-03 01:43:26.35	343.56	14.80	-42.9	-46.4	16.3	0.00e+00	0	44	0	197132288	57	5391
2026-01-03 01:43:29.46	343.00	14.97	-42.0	-45.4	17.2	0.00e+00	0	43	0	202375168	56	5100
2026-01-03 01:43:32.33	342.47	15.13	-41.8	-45.3	17.3	0.00e+00	0	43	0	207618048	55	5302
2026-01-03 01:43:35.48	341.89	15.30	-42.2	-45.4	17.1	0.00e+00	0	44	0	213909504	55	5385
2026-01-03 01:43:38.34	341.36	15.45	-42.0	-44.9	17.6	0.00e+00	0	44	0	219152384	55	5085
2026-01-03 01:43:41.54	340.76	15.62	-41.7	-44.5	18.0	0.00e+00	0	43	0	225443840	55	4818
2026-01-03 01:43:44.47	340.20	15.77	-42.2	-45.1	17.5	0.00e+00	0	43	0	230686720	55	5162
2026-01-03 01:43:47.71	339.57	15.94	-42.3	-45.2	17.3	0.00e+00	0	43	0	236978176	55	5271
2026-01-03 01:43:50.58	339.01	16.09	-41.8	-44.8	17.7	0.00e+00	0	43	0	242221056	55	5007
2026-01-03 01:43:53.72	338.40	16.24	-42.0	-45.0	17.6	0.00e+00	0	43	0	248512512	55	5132
2026-01-03 01:43:56.59	337.83	16.39	-42.1	-44.9	17.6	0.00e+00	0	44	0	253755392	55	5082
2026-01-03 01:43:59.74	337.19	16.54	-41.5	-44.1	18.4	0.00e+00	0	43	0	258998272	54	4904
2026-01-03 01:44:02.60	336.61	16.68	-41.7	-44.5	18.0	0.00e+00	0	44	0	264241152	54	5134
2026-01-03 01:44:05.90	335.94	16.83	-42.4	-45.4	17.2	0.00e+00	0	43	0	270532608	55	5368
2026-01-03 01:44:08.89	335.32	16.97	-41.9	-44.6	17.9	0.00e+00	0	43	0	276824064	55	4897
2026-01-03 01:44:12.25	334.62	17.12	-41.9	-44.6	17.8	0.00e+00	0	43	0	283115520	55	4909
2026-01-03 01:44:14.96	334.05	17.24	-41.7	-44.5	18.1	0.00e+00	0	43	0	288358400	55	4819
2026-01-03 01:44:18.26	333.34	17.38	-41.1	-43.6	18.9	0.00e+00	0	43	0	293601280	54	4635
2026-01-03 01:44:20.98	332.76	17.49	-40.5	-43.0	19.4	0.00e+00	0	43	0	298844160	52	4835
2026-01-03 01:44:24.21	332.06	17.63	-40.8	-43.4	19.0	0.00e+00	0	43	0	305135616	52	5079
2026-01-03 01:44:27.21	331.41	17.75	-41.4	-44.0	18.5	0.00e+00	0	44	0	310378496	53	5137
2026-01-03 01:44:30.27	330.74	17.87	-41.5	-44.0	18.5	0.00e+00	0	43	0	316669952	53	5138
2026-01-03 01:44:33.23	330.08	17.98	-42.2	-44.9	17.7	0.00e+00	0	43	0	321912832	55	5083
2026-01-03 01:44:36.38	329.38	18.09	-42.1	-45.0	17.6	0.00e+00	0	44	0	328204288	55	5153
2026-01-03 01:44:39.25	328.73	18.19	-41.2	-43.9	18.7	0.00e+00	0	44	0	333447168	54	4783
2026-01-03 01:44:42.40	328.02	18.30	-40.8	-43.4	19.0	0.00e+00	0	44	0	339738624	53	4773
2026-01-03 01:44:45.27	327.36	18.40	-41.0	-43.6	18.9	0.00e+00	0	43	0	344981504	53	4893
2026-01-03 01:44:48.60	326.60	18.50	-41.0	-43.5	19.0	0.00e+00	0	43	0	351272960	53	4835
2026-01-03 01:44:51.51	325.93	18.59	-40.7	-43.1	19.4	0.00e+00	0	43	0	356515840	53	4616
2026-01-03 01:44:54.80	325.16	18.68	-41.3	-43.7	18.8	0.00e+00	0	44	0	362807296	53	4943
2026-01-03 01:44:57.52	324.53	18.76	-41.7	-44.4	18.2	0.00e+00	0	44	0	368050176	54	5076
2026-01-03 01:45:00.81	323.75	18.84	-41.5	-44.2	18.3	0.00e+00	0	44	0	373293056	54	4952
2026-01-03 01:45:03.83	323.04	18.92	-42.0	-44.6	18.0	0.00e+00	0	44	0	379584512	54	5202
2026-01-03 01:45:07.12	322.26	18.99	-42.9	-45.9	16.9	0.00e+00	0	44	0	385875968	56	5366
2026-01-03 01:45:10.21	321.52	19.06	-42.7	-45.6	17.3	0.00e+00	0	43	0	391118848	56	5160
2026-01-03 01:45:13.45	320.74	19.12	-41.5	-44.1	18.4	0.00e+00	0	43	0	397410304	55	4639
2026-01-03 01:45:16.35	320.05	19.17	-42.1	-44.8	17.8	0.00e+00	0	44	0	402653184	54	5329
2026-01-03 01:45:19.50	319.29	19.23	-42.6	-45.6	17.1	0.00e+00	0	43	0	408944640	55	5474
2026-01-03 01:45:22.36	318.59	19.27	-41.8	-44.6	18.0	0.00e+00	0	43	0	414187520	55	4898
2026-01-03 01:45:25.52	317.83	19.31	-42.3	-45.2	17.4	0.00e+00	0	44	0	420478976	55	5235
2026-01-03 01:45:28.38	317.13	19.35	-43.5	-46.8	16.0	0.00e+00	0	44	0	425721856	57	5649
2026-01-03 01:45:31.62	316.34	19.38	-43.4	-46.5	16.2	0.00e+00	0	43	0	432013312	58	5159
2026-01-03 01:45:34.49	315.64	19.40	-42.4	-45.3	17.4	0.00e+00	0	44	0	437256192	56	5039
2026-01-03 01:45:37.64	314.87	19.43	-42.4	-45.4	17.3	0.00e+00	0	43	0	442499072	56	5093
2026-01-03 01:45:40.65	314.13	19.44	-42.7	-45.9	16.9	0.00e+00	0	44	0	448790528	56	5341
2026-01-03 01:45:43.69	313.38	19.45	-42.7	-45.5	17.2	0.00e+00	0	44	0	454033408	56	5155
2026-01-03 01:45:46.98	312.57	19.46	-42.4	-45.2	17.6	0.00e+00	0	44	0	460324864	56	4937
2026-01-03 01:45:49.70	311.91	19.46	-42.4	-45.1	17.6	0.00e+00	0	44	0	465567744	56	4921
2026-01-03 01:45:53.00	311.09	19.45	-42.4	-45.3	17.5	0.00e+00	0	44	0	471859200	56	4995
2026-01-03 01:45:55.87	310.39	19.45	-42.6	-45.6	17.1	0.00e+00	0	44	0	477102080	56	5198
2026-01-03 01:45:59.29	309.55	19.43	-42.6	-45.4	17.3	0.00e+00	0	44	0	483393536	56	5092
2026-01-03 01:46:02.28	308.82	19.41	-42.7	-45.5	17.2	0.00e+00	0	44	0	488636416	56	5115
2026-01-03 01:46:05.29	308.08	19.38	-43.1	-46.0	16.7	0.00e+00	0	43	0	494927872	57	5154
2026-01-03 01:46:08.29	307.35	19.36	-43.3	-46.5	16.3	0.00e+00	0	44	0	500170752	57	5437
2026-01-03 01:46:11.24	306.63	19.32	-42.8	-45.8	17.0	0.00e+00	0	43	0	505413632	57	4993
2026-01-03 01:46:14.58	305.82	19.28	-42.1	-44.8	17.9	0.00e+00	0	44	0	511705088	56	4724
2026-01-03 01:46:17.30	305.16	19.24	-41.4	-43.9	18.6	0.00e+00	0	44	0	516947968	54	4811
2026-01-03 01:46:20.61	304.36	19.18	-41.6	-44.1	18.4	0.00e+00	0	43	0	523239424	54	4913
2026-01-03 01:46:23.75	303.60	19.13	-41.4	-43.6	19.0	0.00e+00	0	44	0	529530880	54	4646
2026-01-03 01:46:26.86	302.85	19.07	-41.5	-43.8	18.8	0.00e+00	0	43	0	534773760	54	4735
2026-01-03 01:46:29.87	302.13	19.00	-41.3	-43.6	18.9	0.00e+00	0	44	0	541065216	54	4649
2026-01-03 01:46:32.86	301.42	18.94	-41.2	-43.4	19.1	0.00e+00	0	44	0	546308096	54	4535
2026-01-03 01:46:35.87	300.71	18.86	-41.2	-43.5	19.1	0.00e+00	0	44	0	552599552	53	4816
2026-01-03 01:46:39.05	299.96	18.78	-41.8	-44.2	18.5	0.00e+00	0	43	0	557842432	54	4929
2026-01-03 01:46:41.92	299.28	18.70	-41.8	-44.2	18.4	0.00e+00	0	44	0	563085312	54	4961
2026-01-03 01:46:45.06	298.55	18.62	-41.9	-44.4	18.3	0.00e+00	0	44	0	569376768	54	5049
2026-01-03 01:46:47.93	297.89	18.53	-41.9	-44.3	18.3	0.00e+00	0	44	0	574619648	54	4997
2026-01-03 01:46:51.16	297.14	18.43	-42.4	-45.1	17.6	0.00e+00	0	44	0	580911104	55	5178
2026-01-03 01:46:54.08	296.47	18.34	-43.0	-45.8	17.1	0.00e+00	0	43	0	586153984	56	5315
2026-01-03 01:46:57.49	295.70	18.22	-43.1	-45.8	17.0	0.00e+00	0	44	0	592445440	57	5024
2026-01-03 01:47:00.22	295.08	18.12	-43.1	-45.8	17.1	0.00e+00	0	44	0	597688320	57	4987
2026-01-03 01:47:03.85	294.27	17.99	-42.9	-45.6	17.2	0.00e+00	0	44	0	605028352	57	4898
2026-01-03 01:47:06.60	293.66	17.89	-43.1	-45.8	17.1	0.00e+00	0	43	0	609222656	57	4990
2026-01-03 01:47:10.40	292.82	17.74	-43.3	-46.1	16.7	0.00e+00	0	44	0	616562688	57	5212
2026-01-03 01:47:13.18	292.21	17.63	-43.2	-45.9	17.0	0.00e+00	0	44	0	621805568	57	5065
2026-01-03 01:47:17.26	291.32	17.46	-42.9	-45.6	17.3	0.00e+00	0	44	0	629145600	57	4878
2026-01-03 01:47:20.04	290.73	17.34	-43.0	-45.7	17.2	0.00e+00	0	44	0	634388480	57	4932
2026-01-03 01:47:23.94	289.90	17.17	-42.9	-45.5	17.3	0.00e+00	0	44	0	641728512	57	4868
2026-01-03 01:47:26.67	289.32	17.05	-42.5	-45.0	17.8	0.00e+00	0	44	0	646971392	57	4578
2026-01-03 01:47:30.44	288.54	16.88	-41.7	-44.1	18.5	0.00e+00	0	44	0	654311424	55	4611
2026-01-03 01:47:33.18	287.97	16.75	-41.8	-44.1	18.4	0.00e+00	0	44	0	659554304	55	4637
2026-01-03 01:47:37.10	287.17	16.57	-42.3	-44.8	17.8	0.00e+00	0	44	0	666894336	55	5028
2026-01-03 01:47:40.07	286.57	16.42	-43.7	-46.6	16.3	0.00e+00	0	44	0	672137216	57	5492
2026-01-03 01:47:43.08	285.97	16.27	-43.5	-46.3	16.5	0.00e+00	0	44	0	678428672	58	5026
2026-01-03 01:47:46.20	285.35	16.12	-43.4	-46.2	16.8	0.00e+00	0	44	0	683671552	58	4948
2026-01-03 01:47:49.07	284.79	15.97	-43.8	-46.7	16.1	0.00e+00	0	44	0	688914432	58	5279
2026-01-03 01:47:52.14	284.19	15.82	-43.7	-46.7	16.2	0.00e+00	0	44	0	695205888	58	5236
2026-01-03 01:47:55.29	283.59	15.65	-43.2	-46.0	16.9	0.00e+00	0	44	0	701497344	58	4826
2026-01-03 01:47:58.16	283.04	15.50	-42.8	-45.4	17.4	0.00e+00	0	44	0	706740224	57	4762
2026-01-03 01:48:01.32	282.45	15.33	-42.8	-45.4	17.3	0.00e+00	0	44	0	711983104	57	4811
2026-01-03 01:48:04.20	281.91	15.18	-42.8	-45.5	17.3	0.00e+00	0	43	0	717225984	57	4826
2026-01-03 01:48:07.50	281.31	15.00	-43.5	-46.4	16.4	0.00e+00	0	44	0	723517440	57	5358
2026-01-03 01:48:10.40	280.78	14.84	-43.1	-45.8	17.0	0.00e+00	0	44	0	729808896	57	5009
2026-01-03 01:48:14.15	280.11	14.63	-42.5	-45.1	17.7	0.00e+00	0	44	0	736100352	56	4877
2026-01-03 01:48:17.06	279.59	14.47	-42.9	-45.6	17.2	0.00e+00	0	44	0	741343232	56	5160
2026-01-03 01:48:20.76	278.94	14.26	-44.0	-47.0	15.8	0.00e+00	0	44	0	748683264	58	5460
2026-01-03 01:48:23.52	278.47	14.10	-44.6	-48.1	14.7	7.00e-07	0	44	0	753926144	60	5465
2026-01-03 01:48:27.16	277.85	13.89	-44.7	-48.3	14.6	0.00e+00	0	44	0	760217600	60	5594
2026-01-03 01:48:30.09	277.35	13.72	-44.2	-47.6	15.3	0.00e+00	0	44	0	766509056	60	5203
2026-01-03 01:48:33.10	276.85	13.55	-44.3	-47.5	15.4	0.00e+00	0	43	0	771751936	60	5153
2026-01-03 01:48:36.14	276.35	13.37	-43.7	-46.6	16.2	0.00e+00	0	44	0	778043392	59	4920
2026-01-03 01:48:39.24	275.85	13.19	-43.6	-46.6	16.2	0.00e+00	0	44	0	783286272	58	5207
2026-01-03 01:48:42.20	275.37	13.02	-44.2	-47.4	15.4	0.00e+00	0	44	0	788529152	59	5382
2026-01-03 01:48:45.59	274.83	12.82	-43.8	-46.8	15.9	0.00e+00	0	44	0	794820608	59	5021
2026-01-03 01:48:48.31	274.41	12.66	-43.2	-46.0	16.8	0.00e+00	0	43	0	800063488	58	4842
2026-01-03 01:48:51.62	273.90	12.46	-43.0	-45.7	17.0	0.00e+00	0	44	0	806354944	57	4966
2026-01-03 01:48:54.47	273.46	12.29	-43.3	-46.1	16.6	0.00e+00	0	43	0	811597824	57	5195
2026-01-03 01:48:57.62	272.99	12.10	-43.6	-46.6	16.1	0.00e+00	0	44	0	817889280	57	5522
2026-01-03 01:49:00.48	272.56	11.93	-43.7	-46.8	16.0	0.00e+00	0	44	0	823132160	58	5292
2026-01-03 01:49:03.73	272.08	11.73	-43.6	-46.6	16.2	0.00e+00	0	44	0	829423616	58	5189
2026-01-03 01:49:06.87	271.62	11.55	-43.2	-46.1	16.6	0.00e+00	0	44	0	835715072	58	4902
2026-01-03 01:49:09.74	271.21	11.37	-43.1	-45.9	16.8	0.00e+00	0	44	0	840957952	58	4784
2026-01-03 01:49:13.10	270.74	11.17	-42.4	-45.0	17.6	0.00e+00	0	44	0	847249408	56	4856
2026-01-03 01:49:15.82	270.36	11.01	-42.1	-44.6	18.0	0.00e+00	0	44	0	852492288	56	4646
2026-01-03 01:49:19.13	269.90	10.81	-42.1	-44.6	18.0	0.00e+00	0	44	0	857735168	56	4603
2026-01-03 01:49:21.85	269.53	10.64	-42.4	-45.0	17.7	0.00e+00	0	44	0	862978048	56	4822
2026-01-03 01:49:25.17	269.08	10.44	-42.5	-45.1	17.5	0.00e+00	0	44	0	869269504	56	4911
2026-01-03 01:49:27.90	268.72	10.28	-42.3	-44.9	17.7	0.00e+00	0	44	0	874512384	56	4760
2026-01-03 01:49:31.30	268.27	10.07	-42.2	-44.8	17.8	0.00e+00	0	44	0	880803840	56	4726
2026-01-03 01:49:34.02	267.92	9.91	-42.2	-44.8	17.8	0.00e+00	0	44	0	886046720	56	4725
2026-01-03 01:49:37.32	267.50	9.71	-42.5	-45.1	17.5	0.00e+00	0	44	0	892338176	56	4912
2026-01-03 01:49:40.04	267.16	9.54	-42.6	-45.3	17.3	0.00e+00	0	44	0	897581056	56	5032
2026-01-03 01:49:43.34	266.74	9.34	-42.9	-45.7	16.9	0.00e+00	0	44	0	903872512	56	5228
2026-01-03 01:49:46.06	266.41	9.18	-43.1	-46.1	16.5	0.00e+00	0	44	0	909115392	56	5484
2026-01-03 01:49:49.35	266.01	8.98	-43.3	-46.3	16.3	0.00e+00	0	44	0	914358272	57	5302
2026-01-03 01:49:52.08	265.68	8.82	-49.0	-64.3	3.8	1.49e+00	0	44	104	915406848	68	22496
2026-01-03 01:49:55.38	265.29	8.62	-49.2	-64.5	3.8	1.49e+00	0	44	104	915406848	69	21687
2026-01-03 01:49:58.11	264.97	8.46	-49.1	-64.6	3.8	1.49e+00	0	44	104	915406848	69	21774
2026-01-03 01:50:01.76	264.55	8.24	-49.3	-64.6	3.8	1.49e+00	0	44	104	915406848	69	21768
2026-01-03 01:50:04.70	264.21	8.06	-49.3	-64.6	3.8	1.49e+00	0	44	104	915406848	69	21784
2026-01-03 01:50:08.46	263.79	7.84	-49.4	-64.6	3.8	1.49e+00	0	44	104	915406848	69	21798
2026-01-03 01:50:11.21	263.49	7.67	-49.4	-64.6	3.8	1.49e+00	0	44	104	915406848	69	21849
2026-01-03 01:50:14.95	263.08	7.45	-49.2	-64.5	3.8	1.49e+00	0	44	104	915406848	69	21691
2026-01-03 01:50:17.71	262.78	7.29	-49.2	-64.5	3.8	1.49e+00	0	44	104	915406848	69	21646
2026-01-03 01:50:21.47	262.38	7.06	-49.2	-64.5	3.8	1.49e+00	0	44	104	915406848	69	21631
2026-01-03 01:50:24.20	262.09	6.90	-49.1	-64.5	3.8	1.49e+00	0	44	104	915406848	69	21650
2026-01-03 01:50:27.98	261.70	6.68	-49.1	-64.5	3.8	1.49e+00	0	44	104	915406848	69	21621
2026-01-03 01:50:30.72	261.42	6.52	-49.1	-64.5	3.8	1.49e+00	0	44	104	915406848	69	21633
2026-01-03 01:50:34.46	261.04	6.30	-49.1	-64.5	3.8	1.49e+00	0	44	104	915406848	69	21536
2026-01-03 01:50:37.20	260.77	6.14	-49.1	-64.5	3.8	1.49e+00	0	44	104	915406848	69	21591
2026-01-03 01:50:40.95	260.40	5.92	-49.1	-64.5	3.8	1.49e+00	0	44	104	915406848	69	21529
2026-01-03 01:50:43.68	260.14	5.77	-49.1	-64.5	3.8	1.49e+00	0	44	104	915406848	69	21648
2026-01-03 01:50:47.42	259.78	5.55	-49.1	-64.4	3.8	1.49e+00	0	44	104	915406848	69	21504
2026-01-03 01:50:50.15	259.52	5.39	-49.1	-64.5	3.8	1.49e+00	0	44	104	915406848	69	21538
2026-01-03 01:50:53.89	259.17	5.18	-49.1	-64.5	3.8	1.49e+00	0	44	104	915406848	69	21574
2026-01-03 01:50:56.64	258.92	5.02	-49.1	-64.4	3.8	1.49e+00	0	44	104	915406848	69	21505

#Closed at: 2026-01-03 01:50:58
#Recorded file [915 MB]: D:/Data/31040_260103_044039.dat