passes_logs/2026/01/03/T1/T1__20260103_083212_NOAA_20_JPSS-1_rec.log

#Pass ID: 20260103_083212_NOAA 20 (JPSS-1)
#Satellite: NOAA 20 (JPSS-1)
#Configuration: NOAA 20
#almurnet v.1.7.20251203
#Start time: 2026-01-03 08:32:12

#Version: 2.0.20230620
#Station: T1
#Location: 37.570604 lon 55.790049 lat
#TLE: 1 43013U 17073A   26002.92460628  .00000184  00000+0  10833-3 0  9996
#TLE: 2 43013  98.7623 303.9923 0001887  56.9179 303.2178 14.19532741421028

#Time	Az	El	Level	Level2	SNR	BER	BlckErr	Temp	State	Recorded	gain1	gain2
2026-01-03 08:32:12.30	116.41	4.99	-52.8	-68.0	3.8	1.49e+00	0	41	0	0	77	20499
2026-01-03 08:32:15.29	116.20	5.18	-52.6	-67.8	3.8	1.49e+00	0	42	104	0	77	20063
2026-01-03 08:32:18.28	115.98	5.37	-52.6	-67.8	3.8	1.49e+00	0	42	104	0	77	20032
2026-01-03 08:32:21.28	115.77	5.56	-52.5	-67.8	3.8	1.49e+00	0	42	104	0	77	19939
2026-01-03 08:32:24.27	115.55	5.76	-52.9	-68.1	3.8	1.49e+00	0	42	104	0	77	20723
2026-01-03 08:32:27.26	115.32	5.95	-52.6	-67.9	3.8	1.49e+00	0	42	104	0	77	20280
2026-01-03 08:32:30.26	115.09	6.15	-52.5	-67.8	3.8	1.49e+00	0	42	104	0	77	20008
2026-01-03 08:32:33.26	114.86	6.34	-52.5	-67.8	3.8	1.49e+00	0	42	104	0	77	19920
2026-01-03 08:32:36.26	114.63	6.54	-52.6	-67.8	3.8	1.49e+00	0	42	104	0	77	19917
2026-01-03 08:32:39.26	114.39	6.74	-52.5	-67.7	3.8	1.49e+00	0	42	104	0	77	19714
2026-01-03 08:32:42.26	114.15	6.94	-52.7	-67.9	3.8	1.49e+00	0	42	104	0	77	20199
2026-01-03 08:32:45.26	113.91	7.15	-52.6	-67.7	3.8	1.49e+00	0	42	104	0	77	19766
2026-01-03 08:32:48.27	113.66	7.35	-52.6	-67.6	3.8	1.49e+00	0	42	104	0	77	19401
2026-01-03 08:32:51.27	113.41	7.55	-52.6	-67.3	3.8	1.49e+00	0	42	104	0	77	18839
2026-01-03 08:32:54.27	113.16	7.76	-52.5	-66.8	3.8	1.49e+00	0	42	104	0	77	17874
2026-01-03 08:32:57.26	112.90	7.96	-51.9	-60.7	6.1	6.02e-01	0	42	0	2097152	75	9838
2026-01-03 08:33:00.27	112.64	8.17	-50.1	-55.1	11.6	2.18e-03	0	43	0	7340032	72	6134
2026-01-03 08:33:03.26	112.37	8.38	-48.9	-52.6	14.2	2.20e-06	0	43	0	13631488	69	5504
2026-01-03 08:33:06.26	112.10	8.59	-49.0	-52.8	13.9	2.20e-06	0	43	0	18874368	69	5608
2026-01-03 08:33:09.26	111.83	8.80	-50.7	-56.2	10.3	2.47e-03	0	43	0	24117248	72	7033
2026-01-03 08:33:12.25	111.55	9.01	-52.3	-63.3	4.5	8.28e-01	0	43	0	30408704	75	13328
2026-01-03 08:33:15.25	111.27	9.22	-52.5	-64.4	4.2	3.46e-01	0	43	0	32505856	75	15115
2026-01-03 08:33:18.24	110.98	9.44	-52.6	-67.1	3.8	1.33e+00	0	43	104	33554432	75	20624
2026-01-03 08:33:21.25	110.69	9.65	-50.7	-55.9	10.8	6.78e-03	0	43	0	37748736	73	6394
2026-01-03 08:33:24.24	110.40	9.87	-49.6	-53.7	13.1	6.10e-05	0	43	0	42991616	71	5542
2026-01-03 08:33:27.24	110.10	10.09	-49.6	-53.5	13.6	1.75e-05	0	43	0	48234496	71	5406
2026-01-03 08:33:30.24	109.79	10.31	-48.9	-52.3	14.5	0.00e+00	0	43	0	54525952	69	5340
2026-01-03 08:33:33.24	109.48	10.53	-48.2	-51.3	15.7	0.00e+00	0	43	0	59768832	68	4987
2026-01-03 08:33:36.24	109.17	10.75	-48.2	-51.4	15.6	0.00e+00	0	43	0	65011712	68	5047
2026-01-03 08:33:39.24	108.85	10.97	-48.1	-51.2	15.8	0.00e+00	0	43	0	71303168	68	4932
2026-01-03 08:33:42.24	108.53	11.19	-48.4	-51.5	15.5	0.00e+00	0	43	0	76546048	68	5146
2026-01-03 08:33:45.23	108.20	11.42	-48.1	-51.1	15.8	0.00e+00	0	43	0	81788928	68	4912
2026-01-03 08:33:48.23	107.87	11.64	-48.2	-51.3	15.7	0.00e+00	0	43	0	88080384	68	4995
2026-01-03 08:33:51.23	107.53	11.87	-48.2	-51.3	15.7	0.00e+00	0	43	0	93323264	68	5005
2026-01-03 08:33:54.22	107.18	12.10	-48.2	-51.2	16.0	0.00e+00	0	43	0	99614720	67	5271
2026-01-03 08:33:57.22	106.83	12.33	-47.9	-51.0	15.9	0.00e+00	0	43	0	104857600	67	5109
2026-01-03 08:34:00.22	106.48	12.56	-47.8	-50.8	16.1	0.00e+00	0	43	0	110100480	67	5029
2026-01-03 08:34:03.22	106.12	12.79	-47.6	-50.5	16.4	0.00e+00	0	43	0	116391936	67	4853
2026-01-03 08:34:06.22	105.75	13.02	-47.7	-50.7	16.2	0.00e+00	0	43	0	121634816	67	4961
2026-01-03 08:34:09.22	105.38	13.25	-47.6	-50.5	16.3	0.00e+00	0	43	0	126877696	67	4867
2026-01-03 08:34:12.22	105.00	13.49	-47.8	-50.7	16.4	0.00e+00	0	43	0	133169152	67	4961
2026-01-03 08:34:15.22	104.61	13.72	-47.6	-50.4	16.5	0.00e+00	0	43	0	138412032	67	4799
2026-01-03 08:34:18.22	104.22	13.96	-47.5	-50.3	16.7	0.00e+00	0	43	0	143654912	66	5010
2026-01-03 08:34:21.22	103.82	14.20	-47.3	-50.0	16.9	0.00e+00	0	43	0	149946368	66	4862
2026-01-03 08:34:24.22	103.42	14.44	-47.6	-50.4	16.8	0.00e+00	0	43	0	155189248	66	5058
2026-01-03 08:34:27.22	103.01	14.67	-47.5	-50.3	16.8	0.00e+00	0	43	0	161480704	66	4999
2026-01-03 08:34:30.21	102.59	14.91	-47.4	-50.1	16.8	0.00e+00	0	43	0	166723584	66	4924
2026-01-03 08:34:33.21	102.17	15.15	-47.4	-50.2	16.9	0.00e+00	0	43	0	171966464	66	4934
2026-01-03 08:34:36.21	101.74	15.40	-47.2	-49.9	17.1	0.00e+00	0	43	0	178257920	66	4773
2026-01-03 08:34:39.21	101.30	15.64	-47.5	-50.2	17.0	0.00e+00	0	43	0	183500800	66	4974
2026-01-03 08:34:42.21	100.85	15.88	-47.1	-49.7	17.3	0.00e+00	0	43	0	188743680	65	4958
2026-01-03 08:34:45.20	100.40	16.12	-47.1	-49.7	17.3	0.00e+00	0	43	0	195035136	65	4958
2026-01-03 08:34:48.21	99.94	16.37	-47.2	-49.8	17.2	0.00e+00	0	43	0	200278016	65	5033
2026-01-03 08:34:51.21	99.47	16.61	-47.3	-50.1	16.9	0.00e+00	0	43	0	205520896	65	5173
2026-01-03 08:34:54.21	98.99	16.86	-47.4	-50.2	16.9	0.00e+00	0	43	0	211812352	66	4954
2026-01-03 08:34:57.20	98.51	17.10	-47.2	-49.9	17.1	0.00e+00	0	43	0	217055232	66	4779
2026-01-03 08:35:00.19	98.02	17.35	-47.3	-50.1	16.9	0.00e+00	0	43	0	222298112	66	4897
2026-01-03 08:35:03.16	97.52	17.59	-47.3	-50.0	17.0	0.00e+00	0	43	0	228589568	66	4842
2026-01-03 08:35:06.16	97.01	17.84	-47.5	-50.2	16.8	0.00e+00	0	44	0	233832448	66	4967
2026-01-03 08:35:09.16	96.50	18.08	-47.2	-49.8	17.2	0.00e+00	0	43	0	240123904	66	4738
2026-01-03 08:35:12.16	95.97	18.33	-47.3	-50.0	17.0	0.00e+00	0	43	0	245366784	66	4866
2026-01-03 08:35:15.16	95.44	18.58	-47.6	-50.4	16.7	0.00e+00	0	43	0	250609664	66	5047
2026-01-03 08:35:18.16	94.89	18.82	-47.6	-50.5	16.7	0.00e+00	0	43	0	256901120	66	5106
2026-01-03 08:35:21.15	94.34	19.07	-47.4	-50.2	16.9	0.00e+00	0	43	0	262144000	66	4935
2026-01-03 08:35:24.16	93.78	19.32	-47.3	-50.1	16.9	0.00e+00	0	43	0	267386880	66	4884
2026-01-03 08:35:27.15	93.21	19.56	-47.4	-50.2	16.8	0.00e+00	0	43	0	273678336	66	4950
2026-01-03 08:35:30.14	92.63	19.80	-46.9	-49.6	17.4	0.00e+00	0	43	0	278921216	65	4874
2026-01-03 08:35:33.13	92.05	20.05	-46.8	-49.4	17.7	0.00e+00	0	43	0	284164096	65	4804
2026-01-03 08:35:36.12	91.45	20.29	-46.8	-49.4	17.7	0.00e+00	0	43	0	290455552	65	4766
2026-01-03 08:35:39.11	90.84	20.53	-46.5	-49.0	18.1	0.00e+00	0	43	0	295698432	64	4830
2026-01-03 08:35:42.11	90.23	20.77	-46.2	-48.7	18.3	0.00e+00	0	43	0	300941312	64	4683
2026-01-03 08:35:45.10	89.60	21.01	-46.1	-48.6	18.4	0.00e+00	0	43	0	307232768	64	4608
2026-01-03 08:35:48.09	88.97	21.25	-45.9	-48.2	18.9	0.00e+00	0	43	0	312475648	63	4682
2026-01-03 08:35:51.09	88.32	21.48	-45.6	-47.9	19.2	0.00e+00	0	43	0	317718528	63	4531
2026-01-03 08:35:54.07	87.67	21.71	-45.5	-47.8	19.2	0.00e+00	0	43	0	324009984	62	4728
2026-01-03 08:35:57.06	87.00	21.95	-45.6	-47.9	19.2	0.00e+00	0	43	0	329252864	62	4798
2026-01-03 08:36:00.05	86.33	22.18	-45.5	-47.8	19.3	0.00e+00	0	43	0	334495744	62	4725
2026-01-03 08:36:03.05	85.64	22.40	-45.4	-47.7	19.3	0.00e+00	0	43	0	340787200	62	4693
2026-01-03 08:36:06.05	84.94	22.63	-45.7	-48.0	19.2	0.00e+00	0	43	0	346030080	62	4837
2026-01-03 08:36:09.04	84.24	22.85	-45.4	-47.8	19.3	0.00e+00	0	43	0	352321536	62	4727
2026-01-03 08:36:12.05	83.52	23.07	-45.4	-47.7	19.4	0.00e+00	0	43	0	357564416	62	4660
2026-01-03 08:36:15.05	82.79	23.29	-45.5	-47.7	19.4	0.00e+00	0	43	0	362807296	62	4702
2026-01-03 08:36:18.04	82.06	23.51	-45.7	-48.1	19.1	0.00e+00	0	43	0	369098752	62	4882
2026-01-03 08:36:21.05	81.31	23.72	-45.7	-48.1	19.0	0.00e+00	0	43	0	374341632	62	4885
2026-01-03 08:36:24.04	80.55	23.92	-45.9	-48.2	19.0	0.00e+00	0	43	0	379584512	62	4963
2026-01-03 08:36:27.04	79.78	24.13	-45.8	-48.1	19.0	0.00e+00	0	43	0	385875968	62	4898
2026-01-03 08:36:30.03	79.01	24.32	-45.6	-47.9	19.2	0.00e+00	0	43	0	391118848	62	4774
2026-01-03 08:36:33.03	78.22	24.52	-45.8	-48.1	19.2	0.00e+00	0	43	0	396361728	62	4883
2026-01-03 08:36:36.02	77.42	24.71	-45.5	-47.8	19.3	0.00e+00	0	43	0	402653184	62	4736
2026-01-03 08:36:39.01	76.62	24.89	-45.3	-47.5	19.6	0.00e+00	0	43	0	407896064	62	4586
2026-01-03 08:36:42.00	75.81	25.07	-45.3	-47.5	19.6	0.00e+00	0	43	0	413138944	62	4598
2026-01-03 08:36:45.00	74.98	25.25	-45.3	-47.5	19.6	0.00e+00	0	43	0	419430400	62	4592
2026-01-03 08:36:47.99	74.15	25.42	-45.5	-47.7	19.5	0.00e+00	0	43	0	424673280	62	4677
2026-01-03 08:36:50.99	73.30	25.58	-45.8	-48.1	19.1	0.00e+00	0	43	0	430964736	62	4917
2026-01-03 08:36:53.98	72.46	25.74	-46.0	-48.3	18.9	0.00e+00	0	43	0	436207616	62	5037
2026-01-03 08:36:56.97	71.60	25.89	-46.2	-48.5	18.6	0.00e+00	0	43	0	441450496	63	4861
2026-01-03 08:36:59.97	70.73	26.04	-46.2	-48.6	18.6	0.00e+00	0	43	0	447741952	63	4910
2026-01-03 08:37:02.96	69.86	26.17	-46.7	-49.1	18.2	0.00e+00	0	43	0	452984832	64	4909
2026-01-03 08:37:05.96	68.97	26.31	-46.5	-49.0	18.2	0.00e+00	0	43	0	458227712	64	4818
2026-01-03 08:37:08.96	68.08	26.43	-46.9	-49.4	17.8	0.00e+00	0	43	0	464519168	64	5067
2026-01-03 08:37:11.96	67.18	26.55	-47.0	-49.5	17.7	0.00e+00	0	43	0	469762048	64	5144
2026-01-03 08:37:14.96	66.28	26.66	-47.2	-49.8	17.4	0.00e+00	0	43	0	475004928	65	5030
2026-01-03 08:37:17.96	65.37	26.77	-47.1	-49.6	17.7	0.00e+00	0	43	0	481296384	65	4909
2026-01-03 08:37:20.96	64.45	26.86	-47.2	-49.8	17.4	0.00e+00	0	43	0	486539264	65	5034
2026-01-03 08:37:23.95	63.53	26.95	-47.1	-49.7	17.5	0.00e+00	0	43	0	492830720	65	4938
2026-01-03 08:37:26.95	62.61	27.03	-47.5	-50.2	17.0	0.00e+00	0	43	0	498073600	65	5272
2026-01-03 08:37:29.95	61.68	27.10	-47.7	-50.4	17.1	0.00e+00	0	43	0	503316480	66	5080
2026-01-03 08:37:32.94	60.74	27.17	-47.3	-50.0	17.3	0.00e+00	0	43	0	509607936	66	4848
2026-01-03 08:37:35.94	59.81	27.22	-47.6	-50.4	16.9	0.00e+00	0	43	0	514850816	66	5062
2026-01-03 08:37:38.94	58.86	27.27	-47.6	-50.3	16.9	0.00e+00	0	43	0	520093696	66	5036
2026-01-03 08:37:41.94	57.92	27.31	-47.2	-49.8	17.4	0.00e+00	0	43	0	526385152	66	4749
2026-01-03 08:37:44.94	56.98	27.34	-46.9	-49.4	17.7	0.00e+00	0	43	0	531628032	65	4813
2026-01-03 08:37:47.94	56.03	27.36	-46.9	-49.4	17.8	0.00e+00	0	43	0	536870912	65	4798
2026-01-03 08:37:50.94	55.08	27.37	-46.8	-49.2	18.1	0.00e+00	0	43	0	543162368	65	4702
2026-01-03 08:37:53.94	54.13	27.38	-46.8	-49.3	18.0	0.00e+00	0	43	0	548405248	65	4731
2026-01-03 08:37:56.94	53.18	27.37	-46.7	-49.1	18.2	0.00e+00	0	43	0	553648128	65	4641
2026-01-03 08:37:59.94	52.24	27.36	-46.7	-49.2	18.1	0.00e+00	0	43	0	559939584	65	4680
2026-01-03 08:38:02.94	51.29	27.34	-46.4	-48.8	18.3	0.00e+00	0	43	0	565182464	64	4756
2026-01-03 08:38:05.93	50.35	27.31	-46.1	-48.5	18.8	0.00e+00	0	43	0	571473920	64	4548
2026-01-03 08:38:08.92	49.41	27.27	-46.2	-48.5	19.1	0.00e+00	0	43	0	576716800	63	4815
2026-01-03 08:38:11.91	48.47	27.22	-46.0	-48.3	19.1	0.00e+00	0	43	0	581959680	63	4740
2026-01-03 08:38:14.90	47.54	27.17	-45.8	-48.1	19.2	0.00e+00	0	44	0	588251136	63	4611
2026-01-03 08:38:17.90	46.60	27.10	-45.6	-47.9	19.4	0.00e+00	0	43	0	593494016	63	4511
2026-01-03 08:38:20.89	45.67	27.03	-46.0	-48.4	19.0	0.00e+00	0	43	0	598736896	63	4761
2026-01-03 08:38:23.88	44.75	26.95	-46.1	-48.4	19.0	0.00e+00	0	43	0	605028352	63	4790
2026-01-03 08:38:26.87	43.84	26.86	-46.1	-48.4	19.0	0.00e+00	0	43	0	610271232	63	4789
2026-01-03 08:38:29.86	42.92	26.77	-46.0	-48.3	19.0	0.00e+00	0	43	0	615514112	63	4724
2026-01-03 08:38:32.85	42.02	26.66	-46.3	-48.7	18.7	0.00e+00	0	43	0	621805568	63	4938
2026-01-03 08:38:35.84	41.12	26.55	-46.8	-49.2	18.5	0.00e+00	0	43	0	627048448	64	4968
2026-01-03 08:38:38.84	40.22	26.43	-46.6	-49.1	18.3	0.00e+00	0	43	0	632291328	64	4898
2026-01-03 08:38:41.83	39.34	26.31	-46.9	-49.4	18.0	0.00e+00	0	43	0	638582784	64	5093
2026-01-03 08:38:44.83	38.45	26.18	-47.0	-49.5	17.9	0.00e+00	0	43	0	643825664	64	5135
2026-01-03 08:38:47.82	37.58	26.04	-47.3	-49.9	17.4	0.00e+00	0	43	0	650117120	65	5082
2026-01-03 08:38:50.82	36.72	25.89	-47.4	-50.1	17.3	0.00e+00	0	43	0	655360000	65	5179
2026-01-03 08:38:53.82	35.86	25.74	-47.3	-50.1	17.3	0.00e+00	0	43	0	660602880	65	5160
2026-01-03 08:38:56.81	35.01	25.58	-47.9	-50.7	17.0	0.00e+00	0	43	0	666894336	66	5253
2026-01-03 08:38:59.80	34.17	25.42	-47.5	-50.3	17.1	0.00e+00	0	43	0	672137216	66	4992
2026-01-03 08:39:02.79	33.34	25.25	-47.3	-50.1	17.3	0.00e+00	0	43	0	677380096	66	4906
2026-01-03 08:39:05.78	32.52	25.08	-47.4	-50.1	17.2	0.00e+00	0	43	0	683671552	66	4905
2026-01-03 08:39:08.78	31.71	24.90	-47.4	-50.0	17.3	0.00e+00	0	43	0	688914432	66	4867
2026-01-03 08:39:11.77	30.91	24.71	-47.1	-49.8	17.5	0.00e+00	0	43	0	694157312	66	4737
2026-01-03 08:39:14.77	30.11	24.52	-47.2	-49.8	17.5	0.00e+00	0	43	0	700448768	66	4734
2026-01-03 08:39:17.77	29.33	24.33	-47.3	-49.9	17.5	0.00e+00	0	43	0	705691648	66	4813
2026-01-03 08:39:20.76	28.56	24.13	-46.9	-49.4	17.9	0.00e+00	0	43	0	710934528	65	4809
2026-01-03 08:39:23.76	27.79	23.93	-46.8	-49.3	18.1	0.00e+00	0	43	0	717225984	65	4713
2026-01-03 08:39:26.75	27.04	23.73	-46.6	-49.1	18.2	0.00e+00	0	43	0	722468864	65	4637
2026-01-03 08:39:29.74	26.30	23.52	-46.2	-48.6	18.7	0.00e+00	0	43	0	727711744	64	4626
2026-01-03 08:39:32.73	25.56	23.30	-46.2	-48.6	18.6	0.00e+00	0	43	0	734003200	64	4636
2026-01-03 08:39:35.72	24.84	23.09	-46.1	-48.5	18.9	0.00e+00	0	43	0	739246080	64	4569
2026-01-03 08:39:38.71	24.13	22.87	-46.2	-48.6	18.8	0.00e+00	0	43	0	745537536	63	4892
2026-01-03 08:39:41.70	23.43	22.65	-46.1	-48.6	18.8	0.00e+00	0	43	0	750780416	63	4886
2026-01-03 08:39:44.70	22.73	22.42	-46.2	-48.7	18.7	0.00e+00	0	43	0	756023296	63	4929
2026-01-03 08:39:47.69	22.05	22.20	-45.9	-48.2	19.1	0.00e+00	0	43	0	762314752	63	4696
2026-01-03 08:39:50.69	21.38	21.97	-45.8	-48.1	19.3	0.00e+00	0	43	0	767557632	63	4613
2026-01-03 08:39:53.68	20.71	21.74	-45.8	-48.0	19.3	0.00e+00	0	43	0	772800512	63	4596
2026-01-03 08:39:56.68	20.06	21.50	-45.5	-47.8	19.6	0.00e+00	0	43	0	779091968	63	4465
2026-01-03 08:39:59.67	19.42	21.27	-45.4	-47.7	19.7	0.00e+00	0	43	0	784334848	62	4664
2026-01-03 08:40:02.66	18.79	21.03	-45.2	-47.4	19.9	0.00e+00	0	43	0	789577728	62	4516
2026-01-03 08:40:05.66	18.16	20.79	-45.0	-47.1	20.1	0.00e+00	0	43	0	795869184	61	4641
2026-01-03 08:40:08.66	17.55	20.55	-44.8	-46.9	20.3	0.00e+00	0	43	0	801112064	61	4527
2026-01-03 08:40:11.65	16.95	20.31	-44.8	-47.0	20.3	0.00e+00	0	43	0	806354944	61	4547
2026-01-03 08:40:14.64	16.35	20.07	-45.0	-47.1	20.2	0.00e+00	0	43	0	812646400	61	4635
2026-01-03 08:40:17.63	15.77	19.83	-45.2	-47.3	20.0	0.00e+00	0	43	0	817889280	61	4746
2026-01-03 08:40:20.63	15.19	19.59	-45.1	-47.2	20.1	0.00e+00	0	43	0	823132160	61	4677
2026-01-03 08:40:23.63	14.62	19.34	-45.1	-47.2	20.1	0.00e+00	0	43	0	829423616	61	4686
2026-01-03 08:40:26.63	14.07	19.10	-45.0	-47.2	20.1	0.00e+00	0	43	0	834666496	61	4672
2026-01-03 08:40:29.63	13.52	18.85	-45.0	-47.3	19.9	0.00e+00	0	43	0	840957952	61	4711
2026-01-03 08:40:32.62	12.98	18.61	-45.3	-47.6	19.7	0.00e+00	0	43	0	846200832	61	4901
2026-01-03 08:40:35.61	12.45	18.37	-45.6	-47.9	19.4	0.00e+00	0	43	0	851443712	62	4808
2026-01-03 08:40:38.60	11.93	18.12	-45.6	-48.0	19.3	0.00e+00	0	43	0	857735168	62	4834
2026-01-03 08:40:41.59	11.42	17.88	-45.6	-48.2	19.1	0.00e+00	0	43	0	862978048	62	4956
2026-01-03 08:40:44.59	10.91	17.63	-45.9	-48.4	18.9	0.00e+00	0	43	0	868220928	62	5063
2026-01-03 08:40:47.58	10.42	17.39	-46.1	-48.5	18.8	0.00e+00	0	43	0	874512384	62	5157
2026-01-03 08:40:50.58	9.93	17.14	-46.1	-48.7	18.6	0.00e+00	0	43	0	879755264	62	5245
2026-01-03 08:40:53.57	9.45	16.90	-46.1	-48.7	18.7	0.00e+00	0	43	0	884998144	63	4948
2026-01-03 08:40:56.57	8.97	16.65	-46.3	-48.8	18.7	0.00e+00	0	43	0	891289600	63	4984
2026-01-03 08:40:59.56	8.51	16.41	-46.4	-48.9	18.4	0.00e+00	0	43	0	896532480	63	5078
2026-01-03 08:41:02.55	8.05	16.17	-46.4	-49.1	18.2	0.00e+00	0	43	0	901775360	63	5201
2026-01-03 08:41:05.54	7.60	15.93	-46.3	-49.0	18.2	0.00e+00	0	43	0	908066816	63	5126
2026-01-03 08:41:08.54	7.16	15.69	-46.4	-49.1	18.2	0.00e+00	0	43	0	913309696	63	5164
2026-01-03 08:41:11.54	6.72	15.45	-46.4	-49.0	18.3	0.00e+00	0	43	0	918552576	64	4869
2026-01-03 08:41:14.53	6.30	15.21	-46.4	-49.2	18.0	0.00e+00	0	43	0	924844032	64	4948
2026-01-03 08:41:17.52	5.88	14.97	-46.7	-49.4	17.9	0.00e+00	0	43	0	930086912	64	5064
2026-01-03 08:41:20.51	5.46	14.73	-46.7	-49.4	17.8	0.00e+00	0	43	0	936378368	64	5082
2026-01-03 08:41:23.50	5.06	14.49	-46.8	-49.5	17.8	0.00e+00	0	43	0	941621248	64	5103
2026-01-03 08:41:26.49	4.66	14.25	-46.8	-49.5	17.6	0.00e+00	0	43	0	946864128	64	5145
2026-01-03 08:41:29.48	4.26	14.02	-47.0	-49.7	17.4	0.00e+00	0	43	0	953155584	64	5275
2026-01-03 08:41:32.48	3.88	13.78	-47.0	-50.0	17.3	0.00e+00	0	43	0	958398464	65	5159
2026-01-03 08:41:35.47	3.49	13.55	-47.1	-50.2	17.0	0.00e+00	0	43	0	963641344	65	5248
2026-01-03 08:41:38.45	3.12	13.32	-47.6	-50.5	16.7	0.00e+00	0	43	0	969932800	65	5438
2026-01-03 08:41:41.44	2.75	13.09	-47.6	-50.5	16.7	0.00e+00	0	43	0	975175680	66	5122
2026-01-03 08:41:44.45	2.39	12.85	-47.4	-50.4	16.7	0.00e+00	0	43	0	980418560	66	5098
2026-01-03 08:41:47.44	2.03	12.62	-47.6	-50.6	16.8	0.00e+00	0	43	0	986710016	66	5171
2026-01-03 08:41:50.44	1.68	12.40	-47.5	-50.5	16.7	0.00e+00	0	43	0	991952896	66	5143
2026-01-03 08:41:53.43	1.33	12.17	-47.6	-50.7	16.5	0.00e+00	0	43	0	997195776	66	5253
2026-01-03 08:41:56.42	0.99	11.94	-47.3	-50.8	16.4	0.00e+00	0	43	0	1003487232	66	5286
2026-01-03 08:41:59.42	0.65	11.72	-47.5	-50.8	16.3	0.00e+00	0	43	0	1008730112	66	5321
2026-01-03 08:42:02.42	0.32	11.49	-47.5	-50.7	16.5	0.00e+00	0	43	0	1013972992	66	5227
2026-01-03 08:42:05.41	360.00	11.27	-47.5	-50.7	16.4	0.00e+00	0	43	0	1020264448	66	5250
2026-01-03 08:42:08.41	359.68	11.05	-47.8	-51.2	16.1	0.00e+00	0	43	0	1025507328	66	5538
2026-01-03 08:42:11.41	359.36	10.82	-48.0	-51.3	15.9	0.00e+00	0	43	0	1031798784	66	5626
2026-01-03 08:42:14.41	359.05	10.60	-47.8	-51.2	15.9	0.00e+00	0	43	0	1037041664	66	5532
2026-01-03 08:42:17.40	358.75	10.38	-48.0	-51.4	15.7	0.00e+00	0	43	0	1042284544	66	5677
2026-01-03 08:42:20.40	358.44	10.17	-48.2	-51.5	15.6	0.00e+00	0	43	0	1048576000	66	5767
2026-01-03 08:42:23.39	358.15	9.95	-48.3	-51.8	15.3	0.00e+00	0	43	0	1053818880	67	5624
2026-01-03 08:42:26.39	357.86	9.73	-48.2	-52.0	15.1	0.00e+00	0	43	0	1059061760	67	5740
2026-01-03 08:42:29.38	357.57	9.52	-48.1	-52.3	14.9	0.00e+00	0	43	0	1065353216	67	5950
2026-01-03 08:42:32.38	357.29	9.31	-47.5	-51.9	15.1	0.00e+00	0	43	0	1070596096	67	5700
2026-01-03 08:42:35.38	357.01	9.09	-46.9	-51.7	15.3	0.00e+00	0	43	0	1075838976	65	6261
2026-01-03 08:42:38.38	356.73	8.88	-52.9	-68.5	3.9	1.49e+00	0	43	104	1078984704	76	22926
2026-01-03 08:42:41.38	356.46	8.67	-53.0	-68.7	3.8	1.49e+00	0	43	104	1078984704	77	22014
2026-01-03 08:42:44.38	356.19	8.46	-53.6	-68.8	3.8	1.49e+00	0	44	104	1078984704	78	21114
2026-01-03 08:42:47.38	355.93	8.26	-53.9	-68.9	3.8	1.49e+00	0	43	104	1078984704	78	21502
2026-01-03 08:42:50.37	355.67	8.05	-53.7	-68.9	3.8	1.49e+00	0	43	104	1078984704	78	21323
2026-01-03 08:42:53.38	355.42	7.84	-53.5	-68.9	3.8	1.49e+00	0	43	104	1078984704	78	21504
2026-01-03 08:42:56.38	355.17	7.64	-53.9	-68.9	3.8	1.49e+00	0	43	104	1078984704	78	21480
2026-01-03 08:42:59.38	354.92	7.44	-53.7	-68.9	3.8	1.49e+00	0	43	104	1078984704	78	21417
2026-01-03 08:43:02.37	354.67	7.23	-53.7	-68.9	3.8	1.49e+00	0	44	104	1078984704	78	21376
2026-01-03 08:43:05.36	354.43	7.03	-54.1	-69.3	3.8	1.49e+00	0	44	104	1078984704	79	21133
2026-01-03 08:43:08.36	354.20	6.83	-53.7	-68.9	3.8	1.49e+00	0	43	104	1078984704	79	20223
2026-01-03 08:43:11.35	353.96	6.64	-53.7	-68.9	3.8	1.49e+00	0	44	104	1078984704	79	20204
2026-01-03 08:43:14.35	353.73	6.44	-53.7	-69.0	3.8	1.49e+00	0	44	104	1078984704	79	20323
2026-01-03 08:43:17.34	353.51	6.24	-53.7	-68.9	3.8	1.49e+00	0	43	104	1078984704	79	20209
2026-01-03 08:43:20.33	353.28	6.05	-53.7	-68.9	3.8	1.49e+00	0	44	104	1078984704	79	20089
2026-01-03 08:43:23.32	353.06	5.85	-53.6	-68.8	3.8	1.49e+00	0	43	104	1078984704	79	20023
2026-01-03 08:43:26.31	352.85	5.66	-53.6	-68.9	3.8	1.49e+00	0	43	104	1078984704	79	20091
2026-01-03 08:43:29.31	352.63	5.47	-53.6	-68.8	3.8	1.49e+00	0	43	104	1078984704	79	20026
2026-01-03 08:43:32.30	352.42	5.27	-53.9	-69.1	3.8	1.49e+00	0	43	104	1078984704	79	20714
2026-01-03 08:43:35.30	352.21	5.08	-53.7	-68.9	3.8	1.49e+00	0	44	104	1078984704	79	20156

#Closed at: 2026-01-03 08:43:38
#Recorded file [1078 MB]: D:/Data/31040_260103_113212.dat