passes_logs/2026/01/03/T1/T1__20260103_141852_FENGYUN_3E_rec.log

#Pass ID: 20260103_141852_FENGYUN 3E
#Satellite: FENGYUN 3E
#Configuration: FENGYUN 3E
#almurnet v.1.7.20251203
#Start time: 2026-01-03 14:18:53

#Version: 2.0.20230620
#Station: T1
#Location: 37.570604 lon 55.790049 lat
#TLE: 1 49008U 21062A   26002.95568549 -.00000227  00000+0 -86494-4 0  9990
#TLE: 2 49008  98.7475   8.2258 0001442 163.3458 196.7766 14.19882681233131

#Time	Az	El	Level	Level2	SNR	BER	BlckErr	Temp	State	Recorded	gain1	gain2
2026-01-03 14:18:53.43	163.65	5.04	-52.2	-64.4	3.8	8.46e-01	0	37	0	0	74	14975
2026-01-03 14:18:57.44	163.68	5.33	-52.0	-64.1	3.8	8.47e-01	0	37	104	0	73	15352
2026-01-03 14:19:01.45	163.71	5.62	-52.1	-64.3	3.8	8.47e-01	0	38	104	0	73	15748
2026-01-03 14:19:05.47	163.74	5.92	-51.9	-62.8	3.8	8.46e-01	0	37	104	0	73	13208
2026-01-03 14:19:09.48	163.77	6.21	-51.7	-60.7	4.3	8.36e-01	0	38	0	0	73	10400
2026-01-03 14:19:13.50	163.81	6.52	-51.7	-61.1	4.1	8.38e-01	0	38	0	0	73	10855
2026-01-03 14:19:17.51	163.84	6.83	-51.9	-63.1	3.8	8.46e-01	0	38	104	0	73	13671
2026-01-03 14:19:21.53	163.87	7.14	-52.0	-63.8	3.8	8.47e-01	0	39	104	0	73	14812
2026-01-03 14:19:25.55	163.91	7.45	-51.5	-60.1	4.4	8.30e-01	0	38	0	0	73	9662
2026-01-03 14:19:29.57	163.94	7.77	-49.9	-54.3	8.8	5.11e-02	0	39	0	16777216	70	5914
2026-01-03 14:19:33.58	163.97	8.09	-48.0	-51.0	12.1	4.06e-04	0	39	0	46137344	66	5100
2026-01-03 14:19:37.60	164.01	8.42	-48.2	-51.4	11.9	3.73e-04	0	39	0	75497472	66	5312
2026-01-03 14:19:41.62	164.05	8.75	-50.2	-55.1	8.1	4.24e-02	0	39	0	103809024	69	6864
2026-01-03 14:19:45.64	164.08	9.09	-51.6	-60.9	4.2	8.42e-01	0	39	0	117440512	73	10626
2026-01-03 14:19:49.65	164.12	9.43	-51.4	-60.0	4.6	1.21e-01	0	39	0	128974848	72	10094
2026-01-03 14:19:53.66	164.16	9.77	-44.7	-46.4	16.6	0.00e+00	0	39	0	149946368	59	4484
2026-01-03 14:19:57.68	164.19	10.12	-43.8	-45.4	17.6	0.00e+00	0	39	0	179306496	58	4213
2026-01-03 14:20:01.69	164.23	10.48	-42.9	-44.4	18.5	0.00e+00	0	39	0	207618048	56	4226
2026-01-03 14:20:05.70	164.27	10.84	-42.4	-43.9	18.9	0.00e+00	0	39	0	236978176	55	4211
2026-01-03 14:20:09.71	164.31	11.20	-42.3	-43.8	18.9	0.00e+00	0	39	0	266338304	55	4171
2026-01-03 14:20:13.72	164.35	11.57	-41.9	-43.4	19.4	0.00e+00	0	39	0	294649856	54	4200
2026-01-03 14:20:17.74	164.39	11.95	-41.9	-43.3	19.4	0.00e+00	0	39	0	324009984	54	4176
2026-01-03 14:20:21.75	164.44	12.33	-41.7	-43.1	19.6	0.00e+00	0	39	0	353370112	54	4080
2026-01-03 14:20:25.76	164.48	12.72	-41.8	-43.2	19.5	0.00e+00	0	39	0	381681664	54	4135
2026-01-03 14:20:29.77	164.52	13.11	-41.5	-42.9	19.9	0.00e+00	0	39	0	411041792	53	4196
2026-01-03 14:20:33.78	164.57	13.51	-41.5	-42.9	19.9	0.00e+00	0	39	0	439353344	53	4201
2026-01-03 14:20:37.80	164.62	13.92	-41.5	-42.9	19.9	0.00e+00	0	39	0	468713472	53	4205
2026-01-03 14:20:41.81	164.66	14.34	-41.3	-42.6	20.1	0.00e+00	0	39	0	498073600	53	4092
2026-01-03 14:20:45.83	164.71	14.76	-41.2	-42.5	20.2	0.00e+00	0	39	0	526385152	53	4030
2026-01-03 14:20:49.83	164.76	15.19	-41.1	-42.4	20.3	0.00e+00	0	39	0	555745280	52	4223
2026-01-03 14:20:53.85	164.81	15.62	-41.1	-42.4	20.3	0.00e+00	0	40	0	585105408	52	4214
2026-01-03 14:20:57.86	164.86	16.07	-41.0	-42.3	20.2	0.00e+00	0	40	0	613416960	52	4177
2026-01-03 14:21:01.87	164.91	16.52	-41.0	-42.3	20.4	0.00e+00	0	40	0	642777088	52	4189
2026-01-03 14:21:05.88	164.97	16.98	-40.8	-42.1	20.6	0.00e+00	0	39	0	671088640	52	4073
2026-01-03 14:21:09.89	165.02	17.45	-40.7	-42.0	20.6	0.00e+00	0	40	0	700448768	52	4035
2026-01-03 14:21:13.90	165.08	17.93	-41.0	-42.3	20.4	0.00e+00	0	40	0	729808896	51	4411
2026-01-03 14:21:17.91	165.14	18.42	-40.6	-42.0	20.7	0.00e+00	0	40	0	758120448	51	4253
2026-01-03 14:21:21.92	165.20	18.92	-40.4	-41.7	21.0	0.00e+00	0	40	0	787480576	51	4113
2026-01-03 14:21:25.93	165.26	19.43	-40.3	-41.6	21.0	0.00e+00	0	40	0	815792128	51	4083
2026-01-03 14:21:29.94	165.32	19.95	-40.1	-41.3	21.2	0.00e+00	0	40	0	845152256	50	4181
2026-01-03 14:21:33.95	165.38	20.48	-40.0	-41.2	21.4	0.00e+00	0	40	0	874512384	50	4135
2026-01-03 14:21:37.96	165.45	21.03	-39.7	-41.0	21.6	0.00e+00	0	40	0	902823936	50	4013
2026-01-03 14:21:41.98	165.52	21.58	-39.6	-40.8	21.6	0.00e+00	0	40	0	932184064	50	3955
2026-01-03 14:21:45.99	165.59	22.15	-39.6	-40.8	21.6	0.00e+00	0	40	0	961544192	49	4172
2026-01-03 14:21:50.00	165.66	22.73	-39.7	-41.0	21.4	0.00e+00	0	40	0	989855744	49	4253
2026-01-03 14:21:54.01	165.74	23.32	-39.6	-40.9	21.5	0.00e+00	0	40	0	1019215872	49	4206
2026-01-03 14:21:58.02	165.81	23.93	-39.6	-40.9	21.5	0.00e+00	0	39	0	1047527424	49	4230
2026-01-03 14:22:02.04	165.89	24.56	-39.7	-41.1	21.4	0.00e+00	0	40	0	1076887552	49	4299
2026-01-03 14:22:06.05	165.98	25.19	-39.7	-41.1	21.3	0.00e+00	0	40	0	1106247680	49	4297
2026-01-03 14:22:10.07	166.06	25.85	-39.5	-40.8	21.6	0.00e+00	0	40	0	1134559232	49	4164
2026-01-03 14:22:14.08	166.15	26.52	-39.0	-40.3	21.9	0.00e+00	0	40	0	1163919360	49	3946
2026-01-03 14:22:18.09	166.24	27.20	-39.0	-40.3	22.0	0.00e+00	0	40	0	1193279488	48	4153
2026-01-03 14:22:22.10	166.34	27.91	-39.0	-40.2	22.1	0.00e+00	0	40	0	1221591040	48	4127
2026-01-03 14:22:26.11	166.44	28.63	-39.0	-40.2	22.1	0.00e+00	0	40	0	1250951168	48	4140
2026-01-03 14:22:30.13	166.54	29.37	-39.1	-40.3	22.1	0.00e+00	0	40	0	1279262720	48	4177
2026-01-03 14:22:34.14	166.65	30.13	-39.5	-40.8	21.8	0.00e+00	0	40	0	1308622848	48	4392
2026-01-03 14:22:38.15	166.76	30.91	-39.1	-40.4	22.0	0.00e+00	0	40	0	1337982976	48	4214
2026-01-03 14:22:42.16	166.88	31.72	-39.3	-40.6	21.8	0.00e+00	0	40	0	1366294528	48	4311
2026-01-03 14:22:46.17	167.00	32.54	-39.2	-40.5	21.9	0.00e+00	0	40	0	1395654656	48	4249
2026-01-03 14:22:50.18	167.13	33.39	-38.9	-40.2	22.1	0.00e+00	0	40	0	1425014784	48	4110
2026-01-03 14:22:54.19	167.26	34.26	-39.0	-40.4	21.9	0.00e+00	0	40	0	1453326336	48	4195
2026-01-03 14:22:58.20	167.40	35.16	-39.0	-40.4	21.9	0.00e+00	0	40	0	1482686464	48	4226
2026-01-03 14:23:02.21	167.55	36.09	-38.8	-40.1	22.2	0.00e+00	0	40	0	1510998016	48	4091
2026-01-03 14:23:06.22	167.71	37.04	-38.9	-40.1	22.3	0.00e+00	0	40	0	1540358144	48	4090
2026-01-03 14:23:10.24	167.88	38.02	-39.2	-40.5	22.0	0.00e+00	0	40	0	1569718272	48	4266
2026-01-03 14:23:14.25	168.05	39.03	-39.5	-40.8	21.8	0.00e+00	0	40	0	1598029824	48	4398
2026-01-03 14:23:18.26	168.24	40.07	-39.7	-41.0	21.5	0.00e+00	0	40	0	1627389952	49	4285
2026-01-03 14:23:22.27	168.44	41.14	-39.7	-40.9	21.6	0.00e+00	0	40	0	1655701504	49	4239
2026-01-03 14:23:26.28	168.65	42.24	-39.4	-40.6	21.9	0.00e+00	0	39	0	1685061632	49	4089
2026-01-03 14:23:30.30	168.87	43.38	-39.6	-40.8	21.8	0.00e+00	0	40	0	1714421760	49	4168
2026-01-03 14:23:34.31	169.11	44.55	-39.5	-40.7	22.0	0.00e+00	0	40	0	1742733312	49	4100
2026-01-03 14:23:38.32	169.37	45.75	-40.7	-41.6	21.9	0.00e+00	0	40	0	1772093440	50	4324
2026-01-03 14:23:42.33	169.64	46.99	-40.6	-41.4	22.0	0.00e+00	0	40	0	1801453568	51	3999
2026-01-03 14:23:46.34	169.94	48.27	-40.8	-41.7	21.8	0.00e+00	0	40	0	1829765120	51	4099
2026-01-03 14:23:50.35	170.27	49.59	-41.2	-42.1	21.3	0.00e+00	0	40	0	1859125248	52	4088
2026-01-03 14:23:54.37	170.62	50.94	-41.0	-41.9	21.5	0.00e+00	0	40	0	1887436800	52	3988
2026-01-03 14:23:58.38	171.01	52.34	-41.0	-41.9	21.5	0.00e+00	0	40	0	1916796928	52	3963
2026-01-03 14:24:02.39	171.43	53.77	-41.4	-42.3	21.3	0.00e+00	0	40	0	1946157056	52	4151
2026-01-03 14:24:06.40	171.90	55.24	-41.2	-42.1	21.3	0.00e+00	0	40	0	1974468608	52	4087
2026-01-03 14:24:10.42	172.41	56.76	-41.2	-42.0	21.4	0.00e+00	0	40	0	2003828736	52	4036
2026-01-03 14:24:14.43	172.99	58.31	-40.9	-41.8	21.6	0.00e+00	0	40	0	2032140288	52	3936
2026-01-03 14:24:18.44	173.63	59.90	-41.4	-42.3	21.2	0.00e+00	0	40	0	2061500416	52	4179
2026-01-03 14:24:22.46	174.37	61.54	-40.3	-41.1	22.2	0.00e+00	0	40	0	2090860544	51	3859
2026-01-03 14:24:26.47	175.20	63.20	-39.3	-40.1	22.8	0.00e+00	0	40	0	2119172096	49	3864
2026-01-03 14:24:30.48	176.15	64.90	-39.6	-40.4	22.8	0.00e+00	0	40	0	2148532224	49	3970
2026-01-03 14:24:34.50	177.27	66.64	-39.8	-40.7	22.6	0.00e+00	0	40	0	2177892352	49	4104
2026-01-03 14:24:38.51	178.58	68.39	-39.4	-40.3	23.0	0.00e+00	0	40	0	2206203904	48	4150
2026-01-03 14:24:42.53	180.14	70.18	-39.4	-40.2	23.1	0.00e+00	0	40	0	2235564032	48	4126
2026-01-03 14:24:46.54	182.03	71.98	-39.7	-40.5	22.8	0.00e+00	0	40	0	2263875584	49	4023
2026-01-03 14:24:50.56	184.37	73.79	-39.7	-40.6	22.7	0.00e+00	0	40	0	2293235712	50	3830
2026-01-03 14:24:54.57	187.31	75.58	-39.4	-40.2	23.0	0.00e+00	0	40	0	2322595840	49	3889
2026-01-03 14:24:58.58	191.12	77.36	-38.4	-39.2	23.4	0.00e+00	0	40	0	2350907392	47	3881
2026-01-03 14:25:02.60	196.20	79.09	-38.1	-38.9	23.5	0.00e+00	0	40	0	2380267520	46	3968
2026-01-03 14:25:06.61	203.14	80.71	-38.1	-38.9	23.7	0.00e+00	0	40	0	2409627648	46	3989
2026-01-03 14:25:10.62	212.86	82.16	-38.2	-39.0	23.6	0.00e+00	0	40	0	2437939200	46	4033
2026-01-03 14:25:14.63	226.42	83.30	-38.6	-39.4	23.3	0.00e+00	0	40	0	2467299328	46	4216
2026-01-03 14:25:18.65	244.16	83.94	-38.4	-39.2	23.4	0.00e+00	0	40	0	2495610880	47	3881
2026-01-03 14:25:22.66	263.71	83.91	-38.3	-39.1	23.6	0.00e+00	0	40	0	2524971008	47	3829
2026-01-03 14:25:26.67	281.15	83.23	-38.4	-39.3	23.4	0.00e+00	0	40	0	2554331136	46	4161
2026-01-03 14:25:30.68	294.41	82.07	-38.1	-38.9	23.7	0.00e+00	0	40	0	2582642688	46	3983
2026-01-03 14:25:34.69	303.90	80.61	-38.0	-38.8	23.7	0.00e+00	0	40	0	2612002816	46	3936
2026-01-03 14:25:38.71	310.70	78.97	-37.9	-38.7	23.9	0.00e+00	0	40	0	2641362944	46	3896
2026-01-03 14:25:42.72	315.66	77.24	-38.3	-39.1	23.4	0.00e+00	0	40	0	2669674496	46	4080
2026-01-03 14:25:46.73	319.39	75.47	-39.5	-40.3	22.9	0.00e+00	0	40	0	2699034624	48	4180
2026-01-03 14:25:50.75	322.29	73.67	-39.6	-40.4	22.9	0.00e+00	0	40	0	2727346176	48	4209
2026-01-03 14:25:54.76	324.59	71.87	-40.3	-41.2	22.3	0.00e+00	0	40	0	2756706304	50	4100
2026-01-03 14:25:58.77	326.45	70.07	-40.4	-41.2	22.3	0.00e+00	0	40	0	2786066432	50	4123
2026-01-03 14:26:02.78	327.99	68.30	-39.7	-40.5	22.8	0.00e+00	0	40	0	2814377984	50	3824
2026-01-03 14:26:06.79	329.29	66.55	-39.4	-40.2	23.1	0.00e+00	0	40	0	2843738112	49	3895
2026-01-03 14:26:10.80	330.39	64.82	-40.0	-40.8	22.6	0.00e+00	0	40	0	2872049664	49	4172
2026-01-03 14:26:14.81	331.34	63.13	-40.2	-41.0	22.4	0.00e+00	0	40	0	2901409792	49	4284
2026-01-03 14:26:18.83	332.16	61.47	-41.0	-41.9	21.6	0.00e+00	0	40	0	2930769920	51	4222
2026-01-03 14:26:22.84	332.89	59.85	-41.5	-42.4	21.2	0.00e+00	0	39	0	2959081472	52	4237
2026-01-03 14:26:26.86	333.53	58.26	-41.4	-42.3	21.2	0.00e+00	0	40	0	2988441600	52	4187
2026-01-03 14:26:30.87	334.10	56.71	-41.4	-42.3	21.1	0.00e+00	0	40	0	3017801728	52	4166
2026-01-03 14:26:34.88	334.62	55.21	-40.7	-41.6	21.9	0.00e+00	0	40	0	3046113280	52	3848
2026-01-03 14:26:38.89	335.08	53.74	-41.1	-42.0	21.4	0.00e+00	0	40	0	3075473408	52	4018
2026-01-03 14:26:42.90	335.50	52.32	-41.1	-42.0	21.4	0.00e+00	0	40	0	3103784960	52	4026
2026-01-03 14:26:46.91	335.88	50.93	-41.0	-41.9	21.7	0.00e+00	0	40	0	3133145088	52	3959
2026-01-03 14:26:50.93	336.24	49.58	-41.1	-42.0	21.4	0.00e+00	0	39	0	3162505216	52	4044
2026-01-03 14:26:54.94	336.56	48.27	-40.8	-41.7	21.7	0.00e+00	0	40	0	3190816768	52	3869
2026-01-03 14:26:58.95	336.86	47.00	-40.0	-40.9	22.5	0.00e+00	0	40	0	3220176896	50	3964
2026-01-03 14:27:02.96	337.14	45.76	-40.2	-41.0	22.4	0.00e+00	0	40	0	3248488448	50	4041
2026-01-03 14:27:06.98	337.40	44.56	-39.8	-40.6	22.7	0.00e+00	0	40	0	3277848576	50	3850
2026-01-03 14:27:10.99	337.64	43.40	-39.5	-40.4	22.9	0.00e+00	0	39	0	3307208704	49	3965
2026-01-03 14:27:15.01	337.86	42.27	-40.0	-40.9	22.5	0.00e+00	0	40	0	3335520256	49	4207
2026-01-03 14:27:19.02	338.07	41.17	-39.9	-40.8	22.6	0.00e+00	0	40	0	3364880384	49	4149
2026-01-03 14:27:23.03	338.27	40.11	-40.1	-41.0	22.4	0.00e+00	0	40	0	3394240512	49	4253
2026-01-03 14:27:27.04	338.46	39.07	-40.4	-41.3	22.1	0.00e+00	0	40	0	3422552064	50	4178
2026-01-03 14:27:31.05	338.63	38.07	-39.8	-40.7	22.7	0.00e+00	0	40	0	3451912192	50	3872
2026-01-03 14:27:35.06	338.80	37.09	-39.4	-40.2	22.9	0.00e+00	0	40	0	3480223744	49	3910
2026-01-03 14:27:39.07	338.96	36.15	-39.2	-40.0	23.3	0.00e+00	0	40	0	3509583872	49	3799
2026-01-03 14:27:43.09	339.11	35.23	-39.2	-40.0	23.2	0.00e+00	0	40	0	3538944000	49	3812
2026-01-03 14:27:47.10	339.25	34.33	-39.2	-40.1	23.2	0.00e+00	0	40	0	3567255552	49	3830
2026-01-03 14:27:51.12	339.39	33.46	-39.4	-40.2	23.0	0.00e+00	0	40	0	3596615680	49	3887
2026-01-03 14:27:55.13	339.52	32.62	-39.3	-40.2	23.1	0.00e+00	0	40	0	3625975808	49	3882
2026-01-03 14:27:59.14	339.64	31.80	-39.4	-40.3	22.8	0.00e+00	0	40	0	3654287360	49	3937
2026-01-03 14:28:03.15	339.76	31.00	-39.6	-40.5	22.9	0.00e+00	0	40	0	3683647488	49	4015
2026-01-03 14:28:07.17	339.87	30.22	-39.8	-40.7	22.7	0.00e+00	0	40	0	3711959040	49	4104
2026-01-03 14:28:11.18	339.98	29.46	-40.2	-41.0	22.4	0.00e+00	0	40	0	3741319168	49	4283
2026-01-03 14:28:15.19	340.09	28.72	-40.3	-41.1	22.3	0.00e+00	0	40	0	3770679296	50	4092
2026-01-03 14:28:19.20	340.19	28.00	-40.4	-41.3	22.2	0.00e+00	0	40	0	3798990848	50	4164
2026-01-03 14:28:23.21	340.29	27.30	-40.7	-41.5	22.2	0.00e+00	0	40	0	3828350976	50	4289
2026-01-03 14:28:27.22	340.38	26.62	-40.7	-41.6	22.1	0.00e+00	0	40	0	3856662528	50	4304
2026-01-03 14:28:31.24	340.47	25.95	-40.9	-41.8	22.2	0.00e+00	0	40	0	3886022656	51	4151
2026-01-03 14:28:35.25	340.56	25.30	-40.1	-41.0	22.4	0.00e+00	0	40	0	3915382784	50	4017
2026-01-03 14:28:39.26	340.65	24.67	-39.9	-40.8	22.5	0.00e+00	0	40	0	3943694336	50	3926
2026-01-03 14:28:43.27	340.73	24.05	-39.8	-40.6	22.6	0.00e+00	0	40	0	3973054464	50	3852
2026-01-03 14:28:47.28	340.81	23.45	-39.8	-40.6	22.5	0.00e+00	0	40	0	4002414592	50	3862
2026-01-03 14:28:51.29	340.88	22.85	-39.9	-40.7	22.4	0.00e+00	0	40	0	4030726144	50	3905
2026-01-03 14:28:55.30	340.96	22.28	-40.0	-40.8	22.4	0.00e+00	0	40	0	4060086272	50	3943
2026-01-03 14:28:59.31	341.03	21.71	-40.0	-40.9	22.4	0.00e+00	0	40	0	4088397824	50	3974
2026-01-03 14:29:03.32	341.10	21.16	-40.3	-41.2	22.2	0.00e+00	0	40	0	4117757952	50	4099
2026-01-03 14:29:07.34	341.17	20.62	-40.4	-41.3	22.1	0.00e+00	0	40	0	4147118080	50	4171
2026-01-03 14:29:11.35	341.24	20.09	-40.4	-41.3	22.0	0.00e+00	0	40	0	4175429632	50	4164
2026-01-03 14:29:15.36	341.30	19.57	-40.6	-41.4	21.9	0.00e+00	0	40	0	4204789760	50	4230
2026-01-03 14:29:19.37	341.37	19.06	-40.6	-41.5	21.7	0.00e+00	0	40	0	4233101312	50	4281
2026-01-03 14:29:23.38	341.43	18.57	-40.8	-41.7	21.6	0.00e+00	0	40	0	4262461440	51	4116
2026-01-03 14:29:27.39	341.49	18.08	-41.0	-41.9	21.4	0.00e+00	0	40	0	4291821568	51	4197
2026-01-03 14:29:31.40	341.55	17.60	-41.2	-42.1	21.1	0.00e+00	0	40	0	4320133120	52	4065
2026-01-03 14:29:35.41	341.61	17.13	-41.2	-42.1	21.1	0.00e+00	0	40	0	4349493248	52	4068
2026-01-03 14:29:39.43	341.67	16.67	-41.1	-42.1	21.0	0.00e+00	0	40	0	4378853376	52	4070
2026-01-03 14:29:43.44	341.72	16.22	-41.4	-42.4	20.8	0.00e+00	0	40	0	4407164928	52	4198
2026-01-03 14:29:47.45	341.78	15.78	-41.6	-42.6	20.7	0.00e+00	0	40	0	4436525056	52	4300
2026-01-03 14:29:51.46	341.83	15.34	-41.8	-42.8	20.4	0.00e+00	0	40	0	4464836608	53	4158
2026-01-03 14:29:55.47	341.88	14.91	-41.8	-42.8	20.3	0.00e+00	0	40	0	4494196736	53	4176
2026-01-03 14:29:59.48	341.93	14.49	-41.9	-42.9	20.3	0.00e+00	0	40	0	4523556864	53	4223
2026-01-03 14:30:03.50	341.98	14.08	-42.1	-43.2	20.1	0.00e+00	0	40	0	4551868416	53	4347
2026-01-03 14:30:07.51	342.03	13.67	-41.9	-43.0	20.2	0.00e+00	0	40	0	4581228544	53	4263
2026-01-03 14:30:11.51	342.08	13.27	-42.1	-43.3	20.0	0.00e+00	0	40	0	4609540096	53	4392
2026-01-03 14:30:15.53	342.13	12.88	-42.1	-43.3	19.9	0.00e+00	0	40	0	4638900224	53	4394
2026-01-03 14:30:19.54	342.18	12.49	-42.2	-43.3	19.9	0.00e+00	0	40	0	4668260352	53	4440
2026-01-03 14:30:23.54	342.22	12.11	-42.4	-43.5	19.7	0.00e+00	0	40	0	4696571904	54	4257
2026-01-03 14:30:27.55	342.27	11.74	-42.6	-43.7	19.5	0.00e+00	0	40	0	4725932032	54	4367
2026-01-03 14:30:31.57	342.31	11.37	-42.6	-43.7	19.5	0.00e+00	0	40	0	4755292160	54	4384
2026-01-03 14:30:35.58	342.36	11.01	-42.6	-43.9	19.4	0.00e+00	0	40	0	4783603712	54	4458
2026-01-03 14:30:39.59	342.40	10.65	-42.6	-43.9	19.3	0.00e+00	0	40	0	4812963840	55	4219
2026-01-03 14:30:43.61	342.44	10.29	-42.8	-44.1	19.2	0.00e+00	0	40	0	4841275392	55	4308
2026-01-03 14:30:47.62	342.49	9.94	-43.0	-44.3	19.1	0.00e+00	0	40	0	4870635520	55	4421
2026-01-03 14:30:51.63	342.53	9.60	-43.0	-44.4	19.0	0.00e+00	0	40	0	4899995648	55	4475
2026-01-03 14:30:55.65	342.57	9.26	-42.9	-44.4	18.9	0.00e+00	0	40	0	4928307200	55	4488
2026-01-03 14:30:59.67	342.61	8.93	-52.7	-64.4	3.8	8.46e-01	0	40	104	4952424448	75	14190
2026-01-03 14:31:03.68	342.65	8.60	-53.9	-65.2	3.8	8.47e-01	0	40	104	4952424448	77	13810
2026-01-03 14:31:07.70	342.69	8.27	-54.3	-65.4	3.8	8.47e-01	0	40	104	4952424448	78	13336
2026-01-03 14:31:11.72	342.73	7.95	-54.4	-65.4	3.8	8.49e-01	0	40	104	4952424448	78	13359
2026-01-03 14:31:15.74	342.77	7.63	-54.6	-65.4	3.8	8.47e-01	0	40	104	4952424448	78	13293
2026-01-03 14:31:19.75	342.80	7.32	-54.5	-65.3	3.8	8.47e-01	0	40	104	4952424448	78	13193
2026-01-03 14:31:23.77	342.84	7.01	-54.3	-65.2	3.8	8.48e-01	0	40	104	4952424448	78	13002
2026-01-03 14:31:27.79	342.88	6.70	-54.2	-65.2	3.8	8.47e-01	0	40	104	4952424448	78	13055
2026-01-03 14:31:31.81	342.92	6.40	-54.2	-65.2	3.8	8.46e-01	0	40	104	4952424448	78	13092
2026-01-03 14:31:35.82	342.95	6.10	-54.2	-65.3	3.8	8.46e-01	0	40	104	4952424448	78	13132
2026-01-03 14:31:39.84	342.99	5.80	-54.3	-65.4	3.8	8.46e-01	0	40	104	4952424448	78	13303
2026-01-03 14:31:43.86	343.02	5.51	-54.3	-65.3	3.8	8.46e-01	0	40	104	4952424448	78	13164
2026-01-03 14:31:47.87	343.06	5.22	-54.3	-65.3	3.8	8.46e-01	0	40	104	4952424448	78	13224

#Closed at: 2026-01-03 14:31:51
#Recorded file [4952 MB]: D:/Data/31040_260103_171853.dat