passes_logs/2026/01/03/T1/T1__20260103_042830_FENGYUN_3E_rec.log

#Pass ID: 20260103_042830_FENGYUN 3E
#Satellite: FENGYUN 3E
#Configuration: FENGYUN 3E
#almurnet v.1.7.20251203
#Start time: 2026-01-03 04:28:31

#Version: 2.0.20230620
#Station: T1
#Location: 37.570604 lon 55.790049 lat
#TLE: 1 49008U 21062A   26002.32147302  .00000239  00000+0  13357-3 0  9999
#TLE: 2 49008  98.7477   7.5995 0001398 164.3382 195.7838 14.19884140233041

#Time	Az	El	Level	Level2	SNR	BER	BlckErr	Temp	State	Recorded	gain1	gain2
2026-01-03 04:28:31.10	13.12	5.00	-52.7	-64.2	3.8	8.47e-01	0	40	0	0	75	13841
2026-01-03 04:28:34.10	13.05	5.21	-51.4	-63.7	3.8	8.47e-01	0	40	104	0	73	14548
2026-01-03 04:28:37.11	12.98	5.42	-51.5	-63.7	3.8	8.46e-01	0	41	104	0	73	14612
2026-01-03 04:28:40.13	12.90	5.64	-51.9	-64.2	3.8	8.46e-01	0	41	104	0	73	15470
2026-01-03 04:28:43.14	12.83	5.86	-51.5	-63.6	3.8	8.48e-01	0	41	104	0	73	14404
2026-01-03 04:28:46.15	12.76	6.08	-52.0	-63.8	3.8	8.46e-01	0	41	104	0	73	14856
2026-01-03 04:28:49.17	12.68	6.30	-51.5	-63.0	3.8	8.47e-01	0	41	104	0	73	13517
2026-01-03 04:28:52.18	12.60	6.52	-51.4	-62.6	3.8	8.46e-01	0	41	104	0	73	12812
2026-01-03 04:28:55.19	12.52	6.75	-51.4	-62.7	3.8	8.47e-01	0	41	104	0	73	13048
2026-01-03 04:28:58.20	12.44	6.97	-51.6	-63.5	3.8	8.47e-01	0	42	104	0	73	14285
2026-01-03 04:29:01.21	12.36	7.20	-51.7	-64.1	3.8	8.46e-01	0	41	104	0	73	15244
2026-01-03 04:29:04.22	12.27	7.43	-51.7	-62.7	3.8	8.46e-01	0	42	104	0	73	13101
2026-01-03 04:29:07.24	12.19	7.67	-50.9	-59.1	4.6	8.17e-01	0	42	0	0	72	9142
2026-01-03 04:29:10.25	12.10	7.90	-50.2	-55.5	7.2	1.48e-01	0	42	0	11534336	70	6767
2026-01-03 04:29:13.26	12.01	8.14	-49.0	-52.5	10.5	5.19e-03	0	42	0	33554432	68	5376
2026-01-03 04:29:16.27	11.92	8.38	-47.5	-50.1	12.8	9.95e-05	0	42	0	54525952	65	4870
2026-01-03 04:29:19.28	11.83	8.62	-46.7	-49.1	13.7	3.18e-04	0	42	0	76546048	64	4549
2026-01-03 04:29:22.30	11.74	8.86	-47.2	-49.8	13.0	1.25e-04	0	42	0	98566144	64	4953
2026-01-03 04:29:25.31	11.64	9.11	-48.9	-52.9	9.6	6.90e-03	0	42	0	120586240	67	5927
2026-01-03 04:29:28.32	11.54	9.36	-44.9	-46.7	16.2	0.00e+00	0	43	0	137363456	60	4359
2026-01-03 04:29:31.39	11.44	9.61	-43.5	-45.0	17.9	0.00e+00	0	42	0	159383552	57	4262
2026-01-03 04:29:34.34	11.34	9.86	-43.2	-44.6	18.1	0.00e+00	0	42	0	180355072	56	4334
2026-01-03 04:29:37.72	11.23	10.15	-43.0	-44.4	18.4	0.00e+00	0	42	0	204472320	56	4219
2026-01-03 04:29:40.47	11.13	10.38	-43.0	-44.5	18.4	0.00e+00	0	42	0	224395264	56	4249
2026-01-03 04:29:43.77	11.01	10.67	-42.6	-44.0	18.7	0.00e+00	0	42	0	248512512	55	4254
2026-01-03 04:29:46.82	10.90	10.94	-42.3	-43.6	19.1	0.00e+00	0	43	0	270532608	55	4082
2026-01-03 04:29:49.85	10.79	11.20	-42.3	-43.5	19.3	0.00e+00	0	43	0	292552704	54	4277
2026-01-03 04:29:52.86	10.67	11.47	-41.9	-43.1	19.4	0.00e+00	0	43	0	314572800	54	4095
2026-01-03 04:29:55.87	10.56	11.75	-42.2	-43.4	19.6	0.00e+00	0	43	0	335544320	54	4204
2026-01-03 04:29:58.94	10.44	12.03	-42.0	-43.1	19.9	0.00e+00	0	43	0	357564416	54	4072
2026-01-03 04:30:01.85	10.32	12.29	-41.6	-42.7	20.0	0.00e+00	0	43	0	379584512	54	3898
2026-01-03 04:30:04.86	10.20	12.58	-41.3	-42.4	20.3	0.00e+00	0	43	0	400556032	53	3970
2026-01-03 04:30:07.86	10.07	12.86	-41.4	-42.5	20.2	0.00e+00	0	43	0	422576128	53	4028
2026-01-03 04:30:10.89	9.94	13.15	-41.7	-42.8	20.0	0.00e+00	0	43	0	444596224	53	4161
2026-01-03 04:30:13.96	9.80	13.45	-41.4	-42.5	20.6	0.00e+00	0	43	0	466616320	53	4018
2026-01-03 04:30:16.99	9.67	13.74	-41.2	-42.2	20.6	0.00e+00	0	43	0	488636416	53	3912
2026-01-03 04:30:20.00	9.53	14.04	-41.3	-42.4	20.6	0.00e+00	0	43	0	510656512	53	3976
2026-01-03 04:30:23.01	9.39	14.34	-41.3	-42.3	20.7	0.00e+00	0	43	0	531628032	52	4166
2026-01-03 04:30:26.02	9.24	14.65	-41.5	-42.5	20.6	0.00e+00	0	43	0	553648128	52	4261
2026-01-03 04:30:29.03	9.10	14.95	-41.6	-42.6	20.5	0.00e+00	0	43	0	575668224	52	4334
2026-01-03 04:30:32.03	8.95	15.27	-41.6	-42.6	20.6	0.00e+00	0	43	0	596639744	52	4313
2026-01-03 04:30:35.04	8.79	15.58	-41.4	-42.4	20.8	0.00e+00	0	43	0	618659840	52	4225
2026-01-03 04:30:38.05	8.63	15.90	-41.4	-42.4	20.8	0.00e+00	0	43	0	639631360	52	4206
2026-01-03 04:30:41.06	8.47	16.23	-41.1	-42.1	20.9	0.00e+00	0	43	0	661651456	52	4072
2026-01-03 04:30:44.35	8.29	16.58	-41.3	-42.3	20.9	0.00e+00	0	43	0	685768704	52	4153
2026-01-03 04:30:47.31	8.12	16.91	-41.3	-42.3	20.9	0.00e+00	0	43	0	707788800	52	4176
2026-01-03 04:30:50.69	7.93	17.29	-40.9	-41.8	21.1	2.20e-06	0	43	0	731906048	52	3939
2026-01-03 04:30:53.43	7.77	17.60	-40.9	-41.8	21.3	0.00e+00	0	43	0	750780416	52	3932
2026-01-03 04:30:56.66	7.57	17.97	-40.8	-41.7	21.4	0.00e+00	0	43	0	774897664	51	4129
2026-01-03 04:30:59.73	7.38	18.33	-40.5	-41.4	21.6	0.00e+00	0	43	0	796917760	51	4000
2026-01-03 04:31:02.60	7.19	18.67	-40.7	-41.6	21.6	0.00e+00	0	43	0	817889280	51	4077
2026-01-03 04:31:05.75	6.99	19.05	-40.6	-41.6	21.5	0.00e+00	0	43	0	840957952	51	4052
2026-01-03 04:31:08.71	6.79	19.41	-40.5	-41.5	21.5	0.00e+00	0	43	0	861929472	51	4008
2026-01-03 04:31:12.10	6.56	19.83	-40.2	-41.1	21.7	0.00e+00	0	43	0	886046720	51	3862
2026-01-03 04:31:14.83	6.36	20.17	-40.3	-41.2	21.7	0.00e+00	0	43	0	905969664	51	3893
2026-01-03 04:31:18.06	6.13	20.58	-40.4	-41.3	21.6	0.00e+00	0	43	0	929038336	51	3941
2026-01-03 04:31:21.26	5.89	20.99	-40.1	-41.0	21.7	0.00e+00	0	43	0	952107008	51	3818
2026-01-03 04:31:24.32	5.65	21.39	-40.4	-41.3	21.7	0.00e+00	0	43	0	974127104	50	4164
2026-01-03 04:31:27.62	5.39	21.83	-40.1	-41.0	22.0	0.00e+00	0	43	0	998244352	50	4005
2026-01-03 04:31:30.34	5.17	22.19	-40.2	-41.0	22.0	0.00e+00	0	43	0	1018167296	50	4039
2026-01-03 04:31:33.66	4.90	22.64	-39.5	-40.3	22.4	0.00e+00	0	43	0	1042284544	49	3943
2026-01-03 04:31:36.82	4.62	23.08	-39.9	-40.7	22.2	0.00e+00	0	43	0	1064304640	49	4143
2026-01-03 04:31:39.69	4.37	23.49	-39.5	-40.4	22.3	0.00e+00	0	43	0	1085276160	49	3980
2026-01-03 04:31:42.84	4.08	23.94	-39.7	-40.6	22.3	0.00e+00	0	43	0	1108344832	49	4064
2026-01-03 04:31:45.78	3.81	24.36	-39.4	-40.3	22.7	0.00e+00	0	43	0	1129316352	49	3923
2026-01-03 04:31:49.10	3.49	24.85	-39.4	-40.3	22.4	0.00e+00	0	43	0	1153433600	49	3915
2026-01-03 04:31:51.96	3.20	25.28	-39.5	-40.4	22.6	0.00e+00	0	43	0	1174405120	49	3967
2026-01-03 04:31:55.11	2.88	25.76	-39.5	-40.3	22.6	0.00e+00	0	43	0	1196425216	49	3931
2026-01-03 04:31:58.15	2.56	26.23	-39.8	-40.7	22.4	0.00e+00	0	43	0	1218445312	49	4104
2026-01-03 04:32:01.52	2.19	26.76	-39.3	-40.1	22.6	4.50e-06	0	43	0	1242562560	49	3846
2026-01-03 04:32:04.47	1.86	27.23	-39.3	-40.1	22.8	0.00e+00	0	43	0	1264582656	49	3850
2026-01-03 04:32:07.77	1.48	27.76	-39.4	-40.2	22.6	0.00e+00	0	43	0	1287651328	49	3913
2026-01-03 04:32:10.49	1.15	28.21	-39.3	-40.2	22.7	0.00e+00	0	43	0	1307574272	49	3876
2026-01-03 04:32:13.80	0.74	28.76	-39.4	-40.2	22.6	0.00e+00	0	43	0	1331691520	49	3907
2026-01-03 04:32:16.81	0.35	29.27	-39.4	-40.3	22.8	0.00e+00	0	43	0	1353711616	49	3920
2026-01-03 04:32:19.89	359.94	29.81	-39.6	-40.4	22.8	0.00e+00	0	43	0	1375731712	49	3974
2026-01-03 04:32:22.75	359.55	30.31	-39.1	-39.9	22.9	0.00e+00	0	43	0	1396703232	48	3970
2026-01-03 04:32:26.03	359.08	30.89	-38.8	-39.6	23.4	0.00e+00	0	43	0	1419771904	48	3828
2026-01-03 04:32:28.96	358.65	31.42	-38.7	-39.5	23.3	0.00e+00	0	43	0	1440743424	48	3822
2026-01-03 04:32:32.27	358.15	32.03	-38.9	-39.7	23.2	0.00e+00	0	43	0	1464860672	48	3909
2026-01-03 04:32:34.99	357.72	32.53	-39.3	-40.1	23.0	0.00e+00	0	43	0	1484783616	48	4076
2026-01-03 04:32:38.28	357.18	33.15	-39.0	-39.9	22.9	0.00e+00	0	43	0	1507852288	48	3971
2026-01-03 04:32:41.33	356.66	33.74	-39.3	-40.1	22.8	0.00e+00	0	43	0	1529872384	48	4082
2026-01-03 04:32:44.62	356.08	34.38	-39.3	-40.1	22.9	0.00e+00	0	43	0	1553989632	48	4083
2026-01-03 04:32:47.34	355.58	34.92	-39.1	-39.9	23.1	0.00e+00	0	43	0	1573912576	48	3993
2026-01-03 04:32:50.64	354.95	35.58	-39.3	-40.1	22.8	0.00e+00	0	43	0	1596981248	48	4078
2026-01-03 04:32:53.74	354.34	36.21	-38.9	-39.7	23.1	0.00e+00	0	43	0	1620049920	48	3899
2026-01-03 04:32:56.98	353.67	36.87	-39.1	-39.9	23.0	0.00e+00	0	43	0	1643118592	48	3997
2026-01-03 04:32:59.84	353.06	37.47	-38.9	-39.7	23.2	0.00e+00	0	43	0	1664090112	48	3884
2026-01-03 04:33:03.00	352.35	38.14	-39.2	-40.1	22.8	0.00e+00	0	43	0	1687158784	48	4062
2026-01-03 04:33:05.86	351.69	38.75	-39.2	-40.1	22.9	0.00e+00	0	44	0	1707081728	48	4066
2026-01-03 04:33:09.02	350.93	39.43	-39.4	-40.3	22.8	0.00e+00	0	44	0	1730150400	48	4154
2026-01-03 04:33:11.88	350.21	40.06	-39.5	-40.3	22.7	0.00e+00	0	44	0	1751121920	48	4174
2026-01-03 04:33:15.03	349.38	40.75	-39.9	-40.7	22.4	0.00e+00	0	43	0	1773142016	49	4132
2026-01-03 04:33:17.89	348.60	41.39	-39.9	-40.8	22.4	0.00e+00	0	43	0	1794113536	49	4175
2026-01-03 04:33:21.04	347.70	42.09	-39.7	-40.5	22.7	0.00e+00	0	43	0	1817182208	49	4046
2026-01-03 04:33:23.91	346.84	42.74	-39.2	-40.0	23.2	0.00e+00	0	43	0	1838153728	48	4026
2026-01-03 04:33:27.06	345.87	43.45	-38.7	-39.5	23.3	0.00e+00	0	43	0	1860173824	48	3812
2026-01-03 04:33:30.26	344.82	44.19	-39.1	-39.9	22.6	0.00e+00	0	44	0	1883242496	47	4223
2026-01-03 04:33:33.26	343.80	44.87	-39.7	-40.5	22.2	0.00e+00	0	43	0	1905262592	48	4282
2026-01-03 04:33:36.41	342.68	45.60	-39.6	-40.5	22.5	0.00e+00	0	43	0	1928331264	49	4012
2026-01-03 04:33:39.28	341.62	46.26	-39.8	-40.7	22.5	0.00e+00	0	43	0	1948254208	49	4115
2026-01-03 04:33:42.43	340.39	46.98	-40.1	-41.0	22.0	0.00e+00	0	43	0	1971322880	49	4243
2026-01-03 04:33:45.30	339.22	47.63	-40.8	-41.7	21.4	0.00e+00	0	43	0	1992294400	51	4135
2026-01-03 04:33:48.61	337.82	48.39	-41.1	-42.1	21.1	0.00e+00	0	43	0	2016411648	51	4294
2026-01-03 04:33:51.33	336.61	49.00	-41.3	-42.2	21.2	0.00e+00	0	43	0	2035286016	52	4120
2026-01-03 04:33:54.63	335.07	49.73	-40.6	-41.5	21.5	0.00e+00	0	43	0	2059403264	51	4043
2026-01-03 04:33:57.35	333.75	50.33	-41.0	-41.9	21.4	5.70e-06	0	43	0	2079326208	52	3983
2026-01-03 04:34:00.76	332.02	51.07	-40.5	-41.3	21.8	0.00e+00	0	44	0	2103443456	51	3951
2026-01-03 04:34:03.49	330.57	51.65	-40.8	-41.7	21.4	0.00e+00	0	43	0	2123366400	52	3872
2026-01-03 04:34:06.78	328.75	52.32	-41.3	-42.2	21.3	0.00e+00	0	44	0	2147483648	52	4105
2026-01-03 04:34:09.51	327.17	52.87	-40.8	-41.6	21.8	0.00e+00	0	43	0	2167406592	52	3856
2026-01-03 04:34:13.13	324.99	53.57	-41.4	-42.3	21.1	0.00e+00	0	43	0	2192572416	52	4184
2026-01-03 04:34:15.86	323.27	54.07	-40.4	-41.3	21.8	2.20e-06	0	43	0	2212495360	51	3952
2026-01-03 04:34:19.22	321.08	54.66	-40.7	-41.5	21.8	3.08e-05	0	43	0	2236612608	51	4041
2026-01-03 04:34:21.94	319.24	55.10	-41.2	-42.1	21.3	0.00e+00	0	44	0	2256535552	52	4097
2026-01-03 04:34:25.23	316.93	55.61	-40.8	-41.7	21.7	0.00e+00	0	43	0	2280652800	51	4114
2026-01-03 04:34:28.05	314.89	56.01	-40.3	-41.1	22.0	0.00e+00	0	43	0	2300575744	51	3864
2026-01-03 04:34:31.34	312.44	56.43	-40.7	-41.6	21.5	0.00e+00	0	43	0	2324692992	51	4080
2026-01-03 04:34:34.09	310.34	56.75	-40.8	-41.7	21.4	0.00e+00	0	43	0	2344615936	51	4131
2026-01-03 04:34:37.78	307.44	57.12	-40.4	-41.3	21.9	0.00e+00	0	43	0	2370830336	51	3930
2026-01-03 04:34:40.50	305.26	57.34	-41.1	-41.9	20.9	0.00e+00	0	43	0	2390753280	51	4237
2026-01-03 04:34:44.07	302.34	57.58	-40.7	-41.6	21.6	0.00e+00	0	43	0	2415919104	51	4052
2026-01-03 04:34:46.98	299.93	57.72	-41.3	-42.3	21.0	0.00e+00	0	43	0	2436890624	52	4152
2026-01-03 04:34:49.99	297.42	57.81	-40.9	-41.8	21.2	0.00e+00	0	44	0	2458910720	52	3956
2026-01-03 04:34:53.00	294.89	57.85	-41.2	-42.1	21.2	0.00e+00	0	43	0	2480930816	52	4059
2026-01-03 04:34:56.01	292.36	57.84	-41.3	-42.3	20.8	0.00e+00	0	43	0	2502950912	52	4160
2026-01-03 04:34:59.01	289.85	57.78	-40.6	-41.5	21.7	0.00e+00	0	43	0	2523922432	51	4010
2026-01-03 04:35:02.00	287.36	57.67	-40.9	-41.8	21.5	0.00e+00	0	43	0	2545942528	51	4188
2026-01-03 04:35:05.00	284.88	57.50	-41.1	-42.0	21.5	0.00e+00	0	43	0	2567962624	51	4285
2026-01-03 04:35:08.00	282.44	57.29	-40.9	-41.8	21.7	0.00e+00	0	43	0	2588934144	51	4156
2026-01-03 04:35:11.02	280.03	57.02	-40.7	-41.5	21.7	0.00e+00	0	43	0	2610954240	51	4045
2026-01-03 04:35:14.02	277.69	56.71	-40.7	-41.6	21.8	0.00e+00	0	43	0	2632974336	51	4080
2026-01-03 04:35:17.03	275.39	56.36	-41.2	-42.1	21.4	0.00e+00	0	43	0	2653945856	51	4307
2026-01-03 04:35:20.04	273.15	55.96	-40.6	-41.5	21.6	1.10e-06	0	44	0	2675965952	51	4009
2026-01-03 04:35:23.05	270.98	55.53	-40.9	-41.8	21.3	0.00e+00	0	43	0	2697986048	51	4172
2026-01-03 04:35:26.06	268.88	55.06	-41.2	-42.1	21.3	0.00e+00	0	43	0	2718957568	52	4059
2026-01-03 04:35:29.06	266.85	54.56	-40.7	-41.6	21.8	0.00e+00	0	44	0	2740977664	51	4074
2026-01-03 04:35:32.08	264.88	54.03	-40.7	-41.5	21.7	0.00e+00	0	43	0	2762997760	51	4049
2026-01-03 04:35:35.21	262.92	53.45	-40.7	-41.6	21.6	0.00e+00	0	44	0	2785017856	51	4052
2026-01-03 04:35:38.15	261.15	52.88	-41.1	-42.0	21.1	0.00e+00	0	44	0	2807037952	51	4257
2026-01-03 04:35:41.80	259.05	52.14	-40.5	-41.4	21.6	0.00e+00	0	43	0	2833252352	51	3973
2026-01-03 04:35:44.52	257.55	51.58	-40.9	-41.8	21.3	0.00e+00	0	43	0	2853175296	51	4160
2026-01-03 04:35:48.26	255.58	50.78	-40.4	-41.2	21.9	0.00e+00	0	44	0	2879389696	51	3904
2026-01-03 04:35:51.25	254.08	50.13	-40.6	-41.4	21.9	0.00e+00	0	44	0	2901409792	51	4003
2026-01-03 04:35:54.75	252.41	49.35	-41.0	-41.9	21.4	0.00e+00	0	44	0	2926575616	51	4215
2026-01-03 04:35:57.48	251.16	48.74	-40.5	-41.3	22.0	0.00e+00	0	44	0	2946498560	51	3946
2026-01-03 04:36:00.77	249.72	47.99	-40.6	-41.4	21.9	0.00e+00	0	44	0	2969567232	51	3989
2026-01-03 04:36:03.62	248.53	47.34	-40.6	-41.5	21.9	0.00e+00	0	44	0	2990538752	51	4016
2026-01-03 04:36:07.12	247.14	46.53	-39.8	-40.6	22.5	0.00e+00	0	44	0	3015704576	50	3852
2026-01-03 04:36:09.84	246.10	45.91	-40.4	-41.3	22.0	0.00e+00	0	43	0	3035627520	50	4156
2026-01-03 04:36:13.14	244.90	45.15	-39.7	-40.6	22.6	0.00e+00	0	44	0	3058696192	49	4062
2026-01-03 04:36:16.00	243.90	44.49	-39.8	-40.7	22.6	0.00e+00	0	44	0	3079667712	49	4107
2026-01-03 04:36:19.15	242.85	43.76	-39.5	-40.3	22.9	0.00e+00	0	43	0	3102736384	49	3930
2026-01-03 04:36:22.02	241.93	43.11	-39.1	-40.0	22.9	0.00e+00	0	44	0	3123707904	48	4011
2026-01-03 04:36:25.17	240.97	42.39	-39.8	-40.7	22.5	0.00e+00	0	44	0	3145728000	49	4118
2026-01-03 04:36:28.11	240.11	41.73	-39.8	-40.6	22.6	0.00e+00	0	43	0	3167748096	49	4066
2026-01-03 04:36:31.29	239.22	41.01	-39.7	-40.6	21.7	0.00e+00	0	44	0	3189768192	49	4067
2026-01-03 04:36:34.16	238.45	40.37	-39.7	-40.5	22.4	0.00e+00	0	43	0	3210739712	49	4036
2026-01-03 04:36:37.31	237.63	39.68	-39.6	-40.4	22.7	0.00e+00	0	44	0	3233808384	49	3989
2026-01-03 04:36:40.17	236.92	39.06	-39.5	-40.4	22.5	0.00e+00	0	44	0	3254779904	49	3963
2026-01-03 04:36:43.35	236.17	38.37	-39.2	-40.0	23.0	0.00e+00	0	44	0	3277848576	49	3802
2026-01-03 04:36:46.22	235.51	37.76	-38.8	-39.6	23.1	0.00e+00	0	44	0	3297771520	48	3832
2026-01-03 04:36:49.36	234.82	37.09	-39.0	-39.9	22.9	0.00e+00	0	44	0	3320840192	48	3977
2026-01-03 04:36:52.22	234.22	36.50	-39.3	-40.2	22.8	0.00e+00	0	43	0	3341811712	48	4107
2026-01-03 04:36:55.37	233.58	35.85	-39.0	-39.9	22.9	0.00e+00	0	44	0	3363831808	48	3978
2026-01-03 04:36:58.23	233.02	35.27	-39.3	-40.2	22.8	0.00e+00	0	43	0	3384803328	48	4113
2026-01-03 04:37:01.54	232.39	34.61	-39.1	-40.0	23.1	0.00e+00	0	43	0	3408920576	48	4016
2026-01-03 04:37:04.50	231.86	34.03	-39.0	-39.8	23.3	0.00e+00	0	43	0	3429892096	48	3948
2026-01-03 04:37:07.86	231.27	33.37	-39.1	-39.9	23.1	0.00e+00	0	43	0	3454009344	48	3985
2026-01-03 04:37:10.58	230.82	32.85	-39.1	-40.0	23.1	0.00e+00	0	43	0	3473932288	48	4013
2026-01-03 04:37:13.88	230.28	32.23	-38.9	-39.7	23.1	0.00e+00	0	43	0	3498049536	48	3887
2026-01-03 04:37:16.62	229.85	31.72	-39.3	-40.2	23.0	0.00e+00	0	44	0	3517972480	48	4101
2026-01-03 04:37:20.44	229.28	31.02	-38.8	-39.6	23.3	0.00e+00	0	43	0	3545235456	48	3861
2026-01-03 04:37:23.33	228.86	30.50	-39.0	-39.9	23.1	0.00e+00	0	44	0	3566206976	48	3961
2026-01-03 04:37:26.65	228.39	29.91	-39.1	-39.9	23.0	0.00e+00	0	43	0	3590324224	48	3978
2026-01-03 04:37:29.96	227.94	29.34	-39.0	-39.8	23.0	0.00e+00	0	44	0	3613392896	48	3928
2026-01-03 04:37:32.71	227.58	28.86	-39.0	-39.8	23.0	0.00e+00	0	44	0	3633315840	48	3944
2026-01-03 04:37:36.00	227.17	28.31	-39.1	-39.9	22.8	0.00e+00	0	43	0	3657433088	48	3979
2026-01-03 04:37:38.72	226.83	27.86	-39.8	-40.6	22.6	0.00e+00	0	44	0	3677356032	48	4310
2026-01-03 04:37:42.02	226.44	27.32	-39.4	-40.2	22.7	0.00e+00	0	44	0	3700424704	48	4138
2026-01-03 04:37:44.74	226.13	26.88	-39.7	-40.5	22.6	0.00e+00	0	44	0	3720347648	48	4260
2026-01-03 04:37:48.04	225.76	26.35	-39.5	-40.4	22.4	0.00e+00	0	43	0	3744464896	48	4199
2026-01-03 04:37:50.77	225.47	25.93	-39.7	-40.5	22.3	0.00e+00	0	44	0	3764387840	49	4047
2026-01-03 04:37:54.14	225.11	25.41	-40.0	-40.9	22.0	0.00e+00	0	44	0	3788505088	49	4219
2026-01-03 04:37:56.99	224.82	24.98	-39.7	-40.5	22.6	0.00e+00	0	44	0	3808428032	49	4050
2026-01-03 04:38:00.28	224.50	24.49	-39.7	-40.6	22.6	0.00e+00	0	44	0	3832545280	49	4065
2026-01-03 04:38:03.00	224.24	24.09	-39.5	-40.3	22.5	0.00e+00	0	44	0	3852468224	49	3937
2026-01-03 04:38:06.29	223.93	23.61	-39.4	-40.2	22.8	0.00e+00	0	44	0	3875536896	49	3904
2026-01-03 04:38:09.01	223.68	23.22	-39.4	-40.2	22.6	0.00e+00	0	44	0	3895459840	48	4144
2026-01-03 04:38:12.31	223.39	22.76	-39.6	-40.4	22.4	0.00e+00	0	43	0	3919577088	48	4233
2026-01-03 04:38:15.02	223.16	22.38	-39.6	-40.4	22.3	0.00e+00	0	43	0	3939500032	49	3983
2026-01-03 04:38:18.32	222.88	21.93	-40.2	-41.1	22.1	0.00e+00	0	44	0	3962568704	49	4294
2026-01-03 04:38:21.19	222.65	21.55	-39.9	-40.7	22.1	0.00e+00	0	44	0	3983540224	49	4130
2026-01-03 04:38:24.65	222.38	21.09	-40.1	-40.9	22.0	0.00e+00	0	44	0	4008706048	49	4228
2026-01-03 04:38:27.36	222.17	20.73	-40.3	-41.2	22.0	0.00e+00	0	44	0	4028628992	50	4117
2026-01-03 04:38:30.65	221.92	20.31	-40.3	-41.1	22.0	0.00e+00	0	44	0	4051697664	50	4096
2026-01-03 04:38:33.61	221.71	19.94	-39.9	-40.8	22.0	0.00e+00	0	44	0	4073717760	50	3928
2026-01-03 04:38:36.61	221.50	19.56	-40.6	-41.5	21.7	0.00e+00	0	44	0	4094689280	50	4263
2026-01-03 04:38:39.62	221.29	19.19	-40.3	-41.2	21.7	1.71e-05	0	44	0	4116709376	50	4104
2026-01-03 04:38:42.68	221.08	18.82	-40.2	-41.1	21.6	0.00e+00	0	44	0	4138729472	50	4090
2026-01-03 04:38:45.55	220.89	18.47	-40.8	-41.6	21.5	0.00e+00	0	43	0	4159700992	50	4339
2026-01-03 04:38:48.62	220.69	18.11	-40.9	-41.8	21.4	0.00e+00	0	44	0	4181721088	51	4156
2026-01-03 04:38:51.77	220.50	17.74	-40.7	-41.6	21.2	0.00e+00	0	44	0	4204789760	51	4086
2026-01-03 04:38:54.63	220.32	17.41	-40.9	-41.8	21.1	0.00e+00	0	44	0	4224712704	51	4178
2026-01-03 04:38:57.92	220.12	17.04	-41.3	-42.2	20.9	0.00e+00	0	43	0	4248829952	52	4130
2026-01-03 04:39:00.65	219.97	16.73	-41.2	-42.2	20.8	0.00e+00	0	44	0	4268752896	52	4101
2026-01-03 04:39:04.43	219.75	16.32	-41.5	-42.5	20.6	0.00e+00	0	44	0	4296015872	52	4245
2026-01-03 04:39:07.36	219.59	16.00	-41.3	-42.2	20.8	0.00e+00	0	44	0	4316987392	52	4119
2026-01-03 04:39:10.65	219.41	15.64	-41.1	-42.0	20.7	0.00e+00	0	43	0	4341104640	52	4018
2026-01-03 04:39:13.70	219.25	15.32	-41.4	-42.3	20.8	0.00e+00	0	44	0	4363124736	52	4188
2026-01-03 04:39:17.55	219.05	14.91	-41.4	-42.4	20.6	0.00e+00	0	44	0	4390387712	52	4209
2026-01-03 04:39:20.40	218.91	14.62	-41.3	-42.3	20.5	3.40e-06	0	44	0	4411359232	52	4151
2026-01-03 04:39:24.15	218.72	14.24	-41.6	-42.5	20.4	0.00e+00	0	44	0	4438622208	52	4278
2026-01-03 04:39:27.00	218.58	13.95	-41.3	-42.3	20.3	0.00e+00	0	44	0	4458545152	53	3942
2026-01-03 04:39:31.05	218.39	13.55	-41.5	-42.5	20.1	0.00e+00	0	43	0	4487905280	53	4018
2026-01-03 04:39:33.80	218.27	13.28	-42.0	-43.0	20.0	0.00e+00	0	44	0	4507828224	53	4272
2026-01-03 04:39:37.54	218.10	12.92	-41.7	-42.7	20.0	0.00e+00	0	43	0	4534042624	53	4099
2026-01-03 04:39:40.35	217.98	12.65	-41.9	-42.9	19.9	0.00e+00	0	44	0	4555014144	53	4232
2026-01-03 04:39:44.15	217.82	12.29	-42.0	-43.0	19.7	0.00e+00	0	44	0	4582277120	54	4025
2026-01-03 04:39:46.92	217.70	12.03	-42.1	-43.1	19.5	3.40e-06	0	44	0	4602200064	54	4063
2026-01-03 04:39:50.77	217.54	11.68	-42.3	-43.3	19.3	0.00e+00	0	44	0	4630511616	54	4189
2026-01-03 04:39:53.54	217.43	11.42	-42.2	-43.2	19.3	0.00e+00	0	43	0	4650434560	54	4137
2026-01-03 04:39:57.18	217.29	11.10	-42.5	-43.5	19.3	0.00e+00	0	44	0	4676648960	54	4262
2026-01-03 04:40:00.42	217.16	10.81	-42.9	-43.9	19.1	0.00e+00	0	44	0	4699717632	55	4227
2026-01-03 04:40:03.27	217.06	10.56	-42.7	-43.8	18.9	0.00e+00	0	44	0	4720689152	55	4162
2026-01-03 04:40:06.41	216.94	10.28	-42.7	-43.8	18.9	0.00e+00	0	44	0	4742709248	55	4176
2026-01-03 04:40:09.28	216.84	10.04	-42.8	-43.9	18.7	0.00e+00	0	44	0	4763680768	55	4231
2026-01-03 04:40:12.58	216.72	9.75	-42.8	-43.9	18.7	0.00e+00	0	44	0	4787798016	55	4216
2026-01-03 04:40:15.29	216.63	9.52	-43.5	-44.6	18.6	0.00e+00	0	44	0	4806672384	56	4327
2026-01-03 04:40:18.59	216.51	9.25	-43.2	-44.4	18.3	0.00e+00	0	44	0	4830789632	56	4199
2026-01-03 04:40:21.30	216.42	9.02	-43.3	-44.5	18.3	0.00e+00	0	44	0	4850712576	56	4244
2026-01-03 04:40:24.82	216.31	8.73	-53.4	-64.4	3.8	8.47e-01	0	44	104	4854906880	76	13348
2026-01-03 04:40:27.54	216.22	8.51	-53.9	-65.1	3.8	8.48e-01	0	44	104	4854906880	77	13626
2026-01-03 04:40:30.84	216.11	8.25	-54.3	-65.1	3.8	8.46e-01	0	44	104	4854906880	78	12879
2026-01-03 04:40:33.56	216.03	8.03	-53.7	-64.7	3.8	8.47e-01	0	44	104	4854906880	77	13095
2026-01-03 04:40:36.85	215.93	7.77	-53.8	-64.7	3.8	8.47e-01	0	44	104	4854906880	77	13094
2026-01-03 04:40:39.57	215.85	7.56	-53.6	-64.6	3.8	8.47e-01	0	44	104	4854906880	77	12930
2026-01-03 04:40:42.87	215.75	7.30	-53.6	-64.6	3.8	8.46e-01	0	44	104	4854906880	77	12907
2026-01-03 04:40:45.60	215.67	7.09	-53.9	-64.9	3.8	8.46e-01	0	44	104	4854906880	77	13397
2026-01-03 04:40:48.90	215.58	6.84	-53.6	-64.7	3.8	8.47e-01	0	44	104	4854906880	77	12963
2026-01-03 04:40:51.62	215.50	6.63	-53.8	-64.8	3.8	8.46e-01	0	44	104	4854906880	77	13172
2026-01-03 04:40:54.92	215.41	6.39	-53.4	-64.4	3.8	8.46e-01	0	44	104	4854906880	77	12614
2026-01-03 04:40:57.65	215.33	6.18	-53.6	-64.7	3.8	8.47e-01	0	44	104	4854906880	77	13015
2026-01-03 04:41:00.95	215.25	5.94	-53.5	-64.6	3.8	8.46e-01	0	44	104	4854906880	77	12835
2026-01-03 04:41:03.67	215.17	5.74	-53.6	-64.6	3.8	8.47e-01	0	44	104	4854906880	77	12883
2026-01-03 04:41:06.97	215.09	5.50	-53.4	-64.5	3.8	8.46e-01	0	44	104	4854906880	77	12672
2026-01-03 04:41:09.69	215.02	5.31	-53.5	-64.5	3.8	8.47e-01	0	44	104	4854906880	77	12786
2026-01-03 04:41:12.99	214.94	5.07	-53.8	-64.8	3.8	8.46e-01	0	44	104	4854906880	77	13152

#Closed at: 2026-01-03 04:41:15
#Recorded file [4854 MB]: D:/Data/31040_260103_072831.dat