passes_logs/2026/01/03/T1/T1__20260103_052615_FENGYUN_3G_rec.log

#Pass ID: 20260103_052615_FENGYUN 3G
#Satellite: FENGYUN 3G
#Configuration: FENGYUN 3G
#almurnet v.1.7.20251203
#Start time: 2026-01-03 05:26:17

#Version: 2.0.20230620
#Station: T1
#Location: 37.570604 lon 55.790049 lat
#TLE: 1 56232U 23055A   26002.31058000  .00046172  00000+0  73618-3 0  9997
#TLE: 2 56232  49.9934 121.3649 0004156 328.0230  32.0484 15.52711916154221

#Time	Az	El	Level	Level2	SNR	BER	BlckErr	Temp	State	Recorded	gain1	gain2
2026-01-03 05:26:17.80	257.56	5.21	-52.7	-71.9	3.8	8.48e-01	0	40	0	0	77	32110
2026-01-03 05:26:19.80	257.37	5.36	-52.9	-72.0	3.8	8.48e-01	0	41	104	0	77	32324
2026-01-03 05:26:21.81	257.17	5.51	-53.0	-72.1	3.8	8.48e-01	0	41	104	0	77	32770
2026-01-03 05:26:23.82	256.97	5.66	-52.9	-72.1	3.8	8.48e-01	0	41	104	0	77	32593
2026-01-03 05:26:25.83	256.76	5.81	-52.7	-72.0	3.8	8.47e-01	0	41	104	0	77	32258
2026-01-03 05:26:27.84	256.56	5.97	-52.6	-71.9	3.8	8.47e-01	0	41	104	0	77	32169
2026-01-03 05:26:29.85	256.34	6.12	-52.6	-71.9	3.8	8.47e-01	0	41	104	0	77	32010
2026-01-03 05:26:31.85	256.13	6.28	-52.7	-71.9	3.8	8.47e-01	0	41	104	0	77	32171
2026-01-03 05:26:33.86	255.91	6.43	-52.8	-71.9	3.8	8.47e-01	0	41	104	0	77	32104
2026-01-03 05:26:35.87	255.69	6.59	-52.8	-71.8	3.8	8.46e-01	0	41	104	0	77	31751
2026-01-03 05:26:37.88	255.47	6.75	-52.5	-71.5	3.8	8.47e-01	0	41	104	0	77	30702
2026-01-03 05:26:39.89	255.24	6.91	-52.6	-71.7	3.8	8.47e-01	0	41	104	0	77	31137
2026-01-03 05:26:41.90	255.01	7.07	-52.6	-71.8	3.8	8.47e-01	0	41	104	0	77	31683
2026-01-03 05:26:43.90	254.77	7.24	-52.6	-71.9	3.8	8.47e-01	0	42	104	0	77	32158
2026-01-03 05:26:45.91	254.54	7.40	-52.6	-71.9	3.8	8.48e-01	0	42	104	0	77	31989
2026-01-03 05:26:47.92	254.29	7.57	-52.6	-71.3	3.8	8.47e-01	0	42	104	0	77	29730
2026-01-03 05:26:49.93	254.05	7.73	-52.5	-69.2	3.8	8.46e-01	0	42	104	0	77	23379
2026-01-03 05:26:51.94	253.80	7.90	-52.4	-67.2	4.5	8.39e-01	0	42	0	0	76	19840
2026-01-03 05:26:53.95	253.54	8.07	-52.5	-67.5	4.5	8.18e-01	0	42	0	0	76	20473
2026-01-03 05:26:55.96	253.28	8.24	-52.5	-69.3	3.8	8.36e-01	0	42	104	0	76	24993
2026-01-03 05:26:57.97	253.02	8.41	-52.5	-70.3	3.8	8.45e-01	0	42	104	0	76	28094
2026-01-03 05:26:59.98	252.75	8.58	-52.4	-66.7	4.7	8.46e-01	0	42	0	0	76	18669
2026-01-03 05:27:01.98	252.48	8.76	-51.7	-60.6	9.9	3.87e-01	0	42	0	0	75	9763
2026-01-03 05:27:03.99	252.20	8.93	-50.5	-56.2	14.5	1.23e-02	0	42	0	0	73	6626
2026-01-03 05:27:06.00	251.92	9.11	-52.7	-68.9	3.9	1.61e-01	0	42	104	0	76	23948
2026-01-03 05:27:08.00	251.64	9.29	-49.3	-53.7	17.2	4.90e-01	0	42	0	0	70	5891
2026-01-03 05:27:10.01	251.35	9.47	-50.9	-58.6	12.1	0.00e+00	0	42	0	0	73	8742
2026-01-03 05:27:12.01	251.05	9.65	-50.8	-57.8	12.9	1.29e-04	0	42	0	0	73	7913
2026-01-03 05:27:14.02	250.75	9.83	-50.9	-57.5	13.3	6.06e-05	0	43	0	0	73	7697
2026-01-03 05:27:16.02	250.45	10.01	-51.0	-57.6	13.1	3.89e-05	0	42	0	0	73	7796
2026-01-03 05:27:18.03	250.14	10.20	-51.0	-57.3	13.5	3.08e-05	0	42	0	0	73	7539
2026-01-03 05:27:20.04	249.82	10.39	-50.5	-56.1	14.8	1.71e-05	0	42	0	0	73	6568
2026-01-03 05:27:22.04	249.50	10.57	-50.0	-54.9	16.2	0.00e+00	0	42	0	0	72	5997
2026-01-03 05:27:24.05	249.17	10.76	-49.9	-54.6	16.4	0.00e+00	0	43	0	0	71	6184
2026-01-03 05:27:26.05	248.84	10.95	-49.6	-54.1	16.9	0.00e+00	0	42	0	0	70	6184
2026-01-03 05:27:28.14	248.49	11.15	-48.5	-52.1	18.8	0.00e+00	0	42	0	0	68	5523
2026-01-03 05:27:30.05	248.16	11.34	-48.1	-51.7	19.2	0.00e+00	0	42	0	0	68	5256
2026-01-03 05:27:32.31	247.77	11.56	-47.1	-50.3	20.5	0.00e+00	0	42	0	0	66	4990
2026-01-03 05:27:34.31	247.41	11.76	-47.1	-50.1	20.8	0.00e+00	0	43	0	0	65	5186
2026-01-03 05:27:36.61	246.99	11.98	-46.4	-49.1	21.7	0.00e+00	0	42	0	0	64	4913
2026-01-03 05:27:38.61	246.62	12.18	-46.2	-48.9	21.9	0.00e+00	0	42	0	0	64	4776
2026-01-03 05:27:40.62	246.24	12.38	-45.6	-48.2	22.6	0.00e+00	0	42	0	0	63	4689
2026-01-03 05:27:42.63	245.86	12.59	-45.0	-47.4	23.4	0.00e+00	0	43	0	0	61	4788
2026-01-03 05:27:44.63	245.47	12.79	-45.5	-48.0	22.9	0.00e+00	0	43	0	0	61	5120
2026-01-03 05:27:46.64	245.07	13.00	-44.5	-46.8	24.0	0.00e+00	0	43	0	0	61	4480
2026-01-03 05:27:48.64	244.66	13.20	-44.1	-46.4	24.2	0.00e+00	0	43	0	0	60	4497
2026-01-03 05:27:50.65	244.24	13.41	-44.0	-46.3	24.4	0.00e+00	0	42	0	0	60	4467
2026-01-03 05:27:52.65	243.82	13.62	-43.5	-45.7	25.0	0.00e+00	0	43	0	0	59	4398
2026-01-03 05:27:54.65	243.39	13.83	-43.6	-45.7	24.9	0.00e+00	0	43	0	0	58	4694
2026-01-03 05:27:56.61	242.97	14.04	-43.7	-45.9	24.7	0.00e+00	0	43	0	0	58	4784
2026-01-03 05:27:58.73	242.49	14.27	-43.7	-45.9	24.9	0.00e+00	0	43	0	0	58	4786
2026-01-03 05:28:00.73	242.04	14.48	-43.6	-45.7	25.1	0.00e+00	0	43	0	0	58	4690
2026-01-03 05:28:02.74	241.58	14.70	-43.2	-45.3	25.4	0.00e+00	0	43	0	0	58	4467
2026-01-03 05:28:04.74	241.11	14.92	-43.1	-45.2	25.5	0.00e+00	0	43	0	0	58	4423
2026-01-03 05:28:06.75	240.62	15.14	-42.7	-44.8	25.7	0.00e+00	0	43	0	0	57	4458
2026-01-03 05:28:08.76	240.13	15.36	-42.5	-44.5	25.8	0.00e+00	0	43	0	0	56	4594
2026-01-03 05:28:10.85	239.61	15.59	-42.5	-44.6	26.0	0.00e+00	0	43	0	0	56	4615
2026-01-03 05:28:12.89	239.09	15.82	-42.7	-44.8	25.9	0.00e+00	0	43	0	0	56	4708
2026-01-03 05:28:14.82	238.59	16.03	-42.7	-44.8	25.8	0.00e+00	0	43	0	0	56	4707
2026-01-03 05:28:16.82	238.07	16.25	-42.2	-44.2	26.4	0.00e+00	0	43	0	0	56	4403
2026-01-03 05:28:18.83	237.53	16.48	-42.0	-44.1	26.5	0.00e+00	0	43	0	0	56	4347
2026-01-03 05:28:20.84	236.98	16.71	-42.1	-44.1	26.4	0.00e+00	0	43	0	0	56	4384
2026-01-03 05:28:22.84	236.42	16.93	-42.2	-44.3	26.3	0.00e+00	0	43	0	0	56	4463
2026-01-03 05:28:24.85	235.85	17.16	-42.2	-44.3	26.3	0.00e+00	0	43	0	0	56	4450
2026-01-03 05:28:26.87	235.26	17.39	-42.3	-44.3	26.4	0.00e+00	0	43	0	0	56	4463
2026-01-03 05:28:28.87	234.67	17.62	-42.0	-44.0	26.6	0.00e+00	0	43	0	0	56	4299
2026-01-03 05:28:30.88	234.07	17.85	-42.0	-44.1	26.5	0.00e+00	0	43	0	0	56	4349
2026-01-03 05:28:32.88	233.45	18.08	-42.0	-44.0	26.6	0.00e+00	0	43	0	0	56	4304
2026-01-03 05:28:34.97	232.80	18.31	-41.6	-43.6	26.7	0.00e+00	0	43	0	0	55	4354
2026-01-03 05:28:36.97	232.16	18.54	-42.2	-44.2	26.5	0.00e+00	0	43	0	0	55	4668
2026-01-03 05:28:38.98	231.51	18.77	-42.2	-44.2	26.3	0.00e+00	0	43	0	0	55	4681
2026-01-03 05:28:40.98	230.85	19.00	-41.3	-43.3	27.0	0.00e+00	0	43	0	0	54	4465
2026-01-03 05:28:42.99	230.18	19.23	-41.3	-43.3	27.1	0.00e+00	0	43	0	0	54	4470
2026-01-03 05:28:45.10	229.45	19.47	-41.6	-43.6	26.7	0.00e+00	0	43	0	0	54	4639
2026-01-03 05:28:47.15	228.74	19.70	-41.4	-43.4	27.0	0.00e+00	0	43	0	0	54	4505
2026-01-03 05:28:49.42	227.93	19.95	-41.3	-43.2	27.1	0.00e+00	0	43	0	0	54	4441
2026-01-03 05:28:51.43	227.20	20.18	-41.2	-43.2	27.1	0.00e+00	0	43	0	0	54	4397
2026-01-03 05:28:53.43	226.46	20.40	-41.1	-43.0	27.2	0.00e+00	0	43	0	0	53	4567
2026-01-03 05:28:55.44	225.71	20.62	-41.0	-43.0	27.3	0.00e+00	0	43	0	0	53	4553
2026-01-03 05:28:57.44	224.94	20.84	-41.2	-43.2	27.1	0.00e+00	0	43	0	0	53	4677
2026-01-03 05:28:59.45	224.16	21.05	-41.1	-43.1	27.2	0.00e+00	0	43	0	0	53	4605
2026-01-03 05:29:01.45	223.37	21.27	-41.0	-42.9	27.3	0.00e+00	0	43	0	0	53	4545
2026-01-03 05:29:03.46	222.57	21.48	-41.1	-43.0	27.3	0.00e+00	0	43	0	0	53	4586
2026-01-03 05:29:05.47	221.75	21.69	-41.0	-43.0	27.4	0.00e+00	0	43	0	0	53	4561
2026-01-03 05:29:07.47	220.92	21.89	-40.5	-42.4	27.8	0.00e+00	0	43	0	0	53	4258
2026-01-03 05:29:09.48	220.07	22.10	-40.7	-42.6	27.6	0.00e+00	0	43	0	0	53	4390
2026-01-03 05:29:11.49	219.21	22.30	-40.9	-42.8	27.3	0.00e+00	0	43	0	0	53	4492
2026-01-03 05:29:13.49	218.34	22.49	-41.0	-43.0	27.2	0.00e+00	0	43	0	0	53	4554
2026-01-03 05:29:15.50	217.46	22.68	-40.9	-42.9	27.5	0.00e+00	0	43	0	0	53	4507
2026-01-03 05:29:17.43	216.59	22.86	-41.0	-42.9	27.4	0.00e+00	0	43	0	0	53	4518
2026-01-03 05:29:19.43	215.69	23.04	-41.1	-43.0	27.3	0.00e+00	0	43	0	0	53	4594
2026-01-03 05:29:21.44	214.76	23.21	-40.4	-42.3	27.6	0.00e+00	0	43	0	0	52	4480
2026-01-03 05:29:23.44	213.84	23.38	-40.5	-42.4	27.8	0.00e+00	0	43	0	0	52	4523
2026-01-03 05:29:25.77	212.74	23.57	-40.3	-42.1	28.1	0.00e+00	0	43	0	0	51	4639
2026-01-03 05:29:27.97	211.69	23.75	-40.4	-42.3	27.8	0.00e+00	0	43	0	0	52	4470
2026-01-03 05:29:29.98	210.71	23.90	-40.4	-42.3	28.0	0.00e+00	0	43	0	0	52	4447
2026-01-03 05:29:31.99	209.73	24.04	-40.3	-42.2	27.9	0.00e+00	0	43	0	0	52	4429
2026-01-03 05:29:33.99	208.74	24.18	-40.4	-42.4	27.8	0.00e+00	0	43	0	0	52	4494
2026-01-03 05:29:36.00	207.74	24.31	-40.4	-42.3	27.9	0.00e+00	0	43	0	0	52	4461
2026-01-03 05:29:38.00	206.73	24.43	-40.1	-41.9	28.1	0.00e+00	0	43	0	0	52	4284
2026-01-03 05:29:40.02	205.71	24.54	-39.9	-41.8	28.4	0.00e+00	0	43	0	0	51	4449
2026-01-03 05:29:42.09	204.65	24.65	-39.9	-41.7	28.3	0.00e+00	0	43	0	0	51	4439
2026-01-03 05:29:44.09	203.62	24.75	-40.2	-42.0	28.2	0.00e+00	0	43	0	0	51	4584
2026-01-03 05:29:46.10	202.57	24.84	-40.1	-41.9	28.3	0.00e+00	0	43	0	0	51	4539
2026-01-03 05:29:48.03	201.56	24.91	-40.0	-41.9	28.3	0.00e+00	0	43	0	0	51	4516
2026-01-03 05:29:50.03	200.51	24.99	-40.1	-42.0	28.2	0.00e+00	0	43	0	0	51	4554
2026-01-03 05:29:52.04	199.45	25.05	-40.1	-42.0	28.2	0.00e+00	0	43	0	0	51	4552
2026-01-03 05:29:54.04	198.39	25.10	-40.4	-42.2	28.0	0.00e+00	0	43	0	0	51	4693
2026-01-03 05:29:56.05	197.32	25.14	-40.9	-42.8	27.5	0.00e+00	0	43	0	0	52	4749
2026-01-03 05:29:58.06	196.25	25.18	-40.3	-42.1	28.1	0.00e+00	0	43	0	0	52	4382
2026-01-03 05:30:00.06	195.18	25.20	-40.0	-41.9	28.3	0.00e+00	0	43	0	0	52	4245
2026-01-03 05:30:02.07	194.10	25.22	-40.5	-42.4	27.9	0.00e+00	0	43	0	0	51	4779
2026-01-03 05:30:04.20	192.96	25.22	-40.4	-42.3	27.9	0.00e+00	0	43	0	0	51	4752
2026-01-03 05:30:06.24	191.87	25.22	-40.1	-42.1	28.2	0.00e+00	0	43	0	0	51	4600
2026-01-03 05:30:08.31	190.76	25.20	-40.6	-42.5	27.7	0.00e+00	0	43	0	0	51	4868
2026-01-03 05:30:10.31	189.69	25.18	-40.3	-42.2	27.8	0.00e+00	0	43	0	0	52	4441
2026-01-03 05:30:12.32	188.62	25.14	-40.1	-42.0	28.2	0.00e+00	0	43	0	0	52	4329
2026-01-03 05:30:14.33	187.55	25.10	-40.5	-42.4	27.9	0.00e+00	0	43	0	0	52	4513
2026-01-03 05:30:16.33	186.49	25.04	-40.5	-42.4	28.0	0.00e+00	0	43	0	0	52	4507
2026-01-03 05:30:18.36	185.41	24.98	-40.9	-42.8	27.6	0.00e+00	0	43	0	0	52	4730
2026-01-03 05:30:20.36	184.36	24.91	-40.4	-42.3	28.0	0.00e+00	0	43	0	0	52	4470
2026-01-03 05:30:22.49	183.25	24.82	-40.6	-42.5	27.8	0.00e+00	0	43	0	0	52	4586
2026-01-03 05:30:24.50	182.21	24.73	-40.3	-42.2	28.0	0.00e+00	0	43	0	0	52	4397
2026-01-03 05:30:26.50	181.18	24.63	-40.1	-42.0	28.2	0.00e+00	0	43	0	0	52	4298
2026-01-03 05:30:28.51	180.15	24.53	-40.3	-42.2	28.0	0.00e+00	0	43	0	0	52	4426
2026-01-03 05:30:30.58	179.10	24.41	-40.5	-42.4	27.8	0.00e+00	0	43	0	0	52	4503
2026-01-03 05:30:32.66	178.05	24.28	-40.3	-42.2	28.0	0.00e+00	0	43	0	0	52	4432
2026-01-03 05:30:34.83	176.97	24.14	-40.1	-41.9	28.1	0.00e+00	0	43	0	0	52	4291
2026-01-03 05:30:36.83	175.99	24.00	-40.2	-42.0	28.2	0.00e+00	0	43	0	0	52	4340
2026-01-03 05:30:38.84	175.01	23.86	-40.2	-42.1	28.2	0.00e+00	0	43	0	0	52	4343
2026-01-03 05:30:40.84	174.04	23.70	-40.5	-42.5	27.8	0.00e+00	0	43	0	0	52	4547
2026-01-03 05:30:42.85	173.09	23.54	-40.5	-42.4	27.8	0.00e+00	0	43	0	0	51	4807
2026-01-03 05:30:45.16	172.00	23.35	-40.4	-42.4	27.9	0.00e+00	0	43	0	0	51	4764
2026-01-03 05:30:47.19	171.06	23.18	-40.4	-42.3	28.0	0.00e+00	0	43	0	0	51	4752
2026-01-03 05:30:49.20	170.14	23.00	-40.2	-42.1	28.2	0.00e+00	0	43	0	0	51	4634
2026-01-03 05:30:51.21	169.23	22.82	-40.7	-42.6	27.6	0.00e+00	0	43	0	0	52	4640
2026-01-03 05:30:53.22	168.33	22.64	-41.0	-42.9	27.4	0.00e+00	0	43	0	0	52	4793
2026-01-03 05:30:55.27	167.43	22.44	-40.8	-42.8	27.5	0.00e+00	0	43	0	0	52	4716
2026-01-03 05:30:57.39	166.52	22.23	-40.4	-42.3	27.9	0.00e+00	0	43	0	0	52	4453
2026-01-03 05:30:59.46	165.64	22.03	-40.4	-42.3	27.9	0.00e+00	0	43	0	0	52	4472
2026-01-03 05:31:01.47	164.79	21.82	-41.3	-43.3	27.1	0.00e+00	0	43	0	0	53	4708
2026-01-03 05:31:03.48	163.96	21.62	-40.9	-42.9	27.4	0.00e+00	0	43	0	0	53	4511
2026-01-03 05:31:05.48	163.15	21.41	-40.8	-42.8	27.4	0.00e+00	0	43	0	0	53	4442
2026-01-03 05:31:07.51	162.34	21.19	-40.9	-42.8	27.6	0.00e+00	0	43	0	0	53	4490
2026-01-03 05:31:09.60	161.52	20.97	-41.1	-43.0	27.4	0.00e+00	0	43	0	0	53	4573
2026-01-03 05:31:11.78	160.68	20.73	-41.3	-43.3	27.2	0.00e+00	0	43	0	0	53	4718
2026-01-03 05:31:14.26	159.74	20.46	-41.6	-43.6	26.9	0.00e+00	0	43	0	0	53	4886
2026-01-03 05:31:16.30	158.99	20.23	-41.3	-43.3	27.2	0.00e+00	0	43	0	0	53	4717
2026-01-03 05:31:18.30	158.26	20.01	-41.3	-43.3	27.1	0.00e+00	0	43	0	0	53	4720
2026-01-03 05:31:20.46	157.48	19.77	-41.7	-43.6	26.8	0.00e+00	0	43	0	0	53	4923
2026-01-03 05:31:22.47	156.78	19.54	-41.4	-43.3	27.1	0.00e+00	0	43	0	0	54	4486
2026-01-03 05:31:24.47	156.09	19.32	-41.8	-43.8	26.7	0.00e+00	0	43	0	0	54	4713
2026-01-03 05:31:26.85	155.28	19.05	-41.8	-43.8	26.7	0.00e+00	0	43	0	0	54	4746
2026-01-03 05:31:28.85	154.62	18.82	-41.5	-43.5	27.1	0.00e+00	0	43	0	0	54	4546
2026-01-03 05:31:30.86	153.96	18.59	-41.9	-43.9	26.4	0.00e+00	0	43	0	0	54	4771
2026-01-03 05:31:32.86	153.32	18.36	-42.0	-44.0	26.6	0.00e+00	0	43	0	0	54	4816
2026-01-03 05:31:34.86	152.70	18.13	-41.9	-43.9	26.7	0.00e+00	0	43	0	0	54	4777
2026-01-03 05:31:37.06	152.02	17.88	-41.9	-43.9	26.7	0.00e+00	0	43	0	0	54	4779
2026-01-03 05:31:39.24	151.36	17.63	-42.2	-44.2	26.4	0.00e+00	0	43	0	0	54	4965
2026-01-03 05:31:41.25	150.77	17.40	-42.1	-44.1	26.4	0.00e+00	0	43	0	0	55	4620
2026-01-03 05:31:43.26	150.19	17.18	-42.1	-44.1	26.4	0.00e+00	0	43	0	0	55	4621
2026-01-03 05:31:45.26	149.62	16.95	-42.3	-44.3	26.2	0.00e+00	0	43	0	0	55	4753
2026-01-03 05:31:47.26	149.06	16.72	-42.3	-44.4	26.1	0.00e+00	0	43	0	0	55	4784
2026-01-03 05:31:49.27	148.51	16.50	-42.4	-44.5	26.0	0.00e+00	0	43	0	0	55	4852
2026-01-03 05:31:51.62	147.87	16.23	-42.5	-44.6	25.8	0.00e+00	0	43	0	0	55	4891
2026-01-03 05:31:53.87	147.28	15.98	-42.3	-44.4	26.0	0.00e+00	0	43	0	0	55	4772
2026-01-03 05:31:55.86	146.77	15.76	-42.1	-44.1	26.2	0.00e+00	0	43	0	0	55	4621
2026-01-03 05:31:57.87	146.26	15.54	-42.3	-44.4	26.0	0.00e+00	0	43	0	0	55	4768
2026-01-03 05:31:59.88	145.76	15.31	-43.0	-45.1	25.4	0.00e+00	0	43	0	0	56	4921
2026-01-03 05:32:01.88	145.27	15.09	-43.1	-45.2	25.3	0.00e+00	0	43	0	0	56	4969
2026-01-03 05:32:04.25	144.71	14.84	-43.1	-45.2	25.6	0.00e+00	0	43	0	0	56	4931
2026-01-03 05:32:06.45	144.19	14.60	-43.2	-45.3	25.4	0.00e+00	0	43	0	0	56	5008
2026-01-03 05:32:08.61	143.70	14.36	-43.2	-45.4	25.3	0.00e+00	0	43	0	0	57	4778
2026-01-03 05:32:10.81	143.20	14.13	-43.3	-45.5	25.2	0.00e+00	0	43	0	0	57	4825
2026-01-03 05:32:12.96	142.73	13.90	-43.6	-45.8	24.9	0.00e+00	0	43	0	0	57	4993
2026-01-03 05:32:15.13	142.26	13.67	-44.0	-46.2	24.4	0.00e+00	0	43	0	0	58	4978
2026-01-03 05:32:17.14	141.84	13.46	-43.6	-45.8	24.8	0.00e+00	0	43	0	0	58	4744
2026-01-03 05:32:19.16	141.42	13.25	-43.7	-45.9	24.7	0.00e+00	0	43	0	0	58	4798
2026-01-03 05:32:21.15	141.01	13.04	-43.7	-45.9	24.7	0.00e+00	0	43	0	0	58	4791
2026-01-03 05:32:23.15	140.61	12.84	-43.8	-46.1	24.6	0.00e+00	0	43	0	0	58	4873
2026-01-03 05:32:25.16	140.22	12.63	-44.2	-46.4	24.3	0.00e+00	0	43	0	0	58	5079
2026-01-03 05:32:27.29	139.81	12.42	-44.6	-46.9	23.8	0.00e+00	0	43	0	0	59	5072
2026-01-03 05:32:29.29	139.43	12.21	-44.6	-46.9	23.7	0.00e+00	0	43	0	0	60	4788
2026-01-03 05:32:31.30	139.05	12.01	-44.1	-46.3	24.3	0.00e+00	0	43	0	0	60	4465
2026-01-03 05:32:33.31	138.69	11.81	-44.2	-46.5	24.2	0.00e+00	0	43	0	0	60	4552
2026-01-03 05:32:35.32	138.33	11.62	-44.4	-46.7	23.9	0.00e+00	0	43	0	0	60	4693
2026-01-03 05:32:37.40	137.96	11.41	-44.9	-47.3	23.4	0.00e+00	0	43	0	0	60	4995
2026-01-03 05:32:39.40	137.61	11.22	-45.1	-47.5	23.2	0.00e+00	0	43	0	0	60	5143
2026-01-03 05:32:41.41	137.27	11.03	-45.3	-47.7	23.0	0.00e+00	0	43	0	0	61	4963
2026-01-03 05:32:43.42	136.94	10.83	-45.3	-47.7	22.9	0.00e+00	0	43	0	0	61	4970
2026-01-03 05:32:45.43	136.61	10.64	-45.1	-47.5	23.2	0.00e+00	0	43	0	0	61	4843
2026-01-03 05:32:47.43	136.28	10.46	-44.8	-47.2	23.4	0.00e+00	0	43	0	0	61	4664
2026-01-03 05:32:49.44	135.96	10.27	-44.7	-47.0	23.5	0.00e+00	0	43	0	0	61	4575
2026-01-03 05:32:51.44	135.65	10.08	-44.9	-47.3	23.3	0.00e+00	0	43	0	0	61	4742
2026-01-03 05:32:53.45	135.34	9.90	-45.3	-47.8	22.7	0.00e+00	0	43	0	0	61	5015
2026-01-03 05:32:55.66	135.01	9.70	-45.5	-48.1	22.4	0.00e+00	0	43	0	0	61	5181
2026-01-03 05:32:57.67	134.71	9.52	-45.8	-48.3	22.3	0.00e+00	0	43	0	0	62	5027
2026-01-03 05:32:59.68	134.42	9.34	-45.9	-48.5	22.2	0.00e+00	0	43	0	0	62	5130
2026-01-03 05:33:01.87	134.11	9.14	-45.8	-48.4	22.2	0.00e+00	0	43	0	0	62	5062
2026-01-03 05:33:03.91	133.82	8.96	-52.4	-61.8	11.3	0.00e+00	0	43	0	0	75	11251
2026-01-03 05:33:05.92	133.55	8.78	-53.4	-71.8	3.8	8.45e-01	0	43	104	0	77	31472
2026-01-03 05:33:07.92	133.27	8.61	-53.6	-72.4	3.8	8.46e-01	0	43	104	0	77	33728
2026-01-03 05:33:09.93	133.01	8.44	-53.6	-72.4	3.8	8.47e-01	0	43	104	0	78	31943
2026-01-03 05:33:11.94	132.74	8.27	-53.7	-72.5	3.8	8.48e-01	0	43	104	0	78	32362
2026-01-03 05:33:13.94	132.48	8.10	-53.7	-72.5	3.8	8.46e-01	0	43	104	0	78	32454
2026-01-03 05:33:15.95	132.23	7.93	-53.5	-72.5	3.8	8.47e-01	0	43	104	0	78	32427
2026-01-03 05:33:17.96	131.98	7.76	-53.8	-72.5	3.8	8.47e-01	0	43	104	0	78	32343
2026-01-03 05:33:19.97	131.73	7.59	-53.5	-72.5	3.8	8.47e-01	0	43	104	0	78	32316
2026-01-03 05:33:22.06	131.47	7.42	-53.5	-72.5	3.8	8.46e-01	0	43	104	0	78	32363
2026-01-03 05:33:24.06	131.24	7.26	-53.5	-72.5	3.8	8.48e-01	0	43	104	0	78	32204
2026-01-03 05:33:26.07	131.00	7.09	-53.5	-72.4	3.8	8.46e-01	0	43	104	0	78	31978
2026-01-03 05:33:28.08	130.77	6.93	-53.5	-72.4	3.8	8.46e-01	0	43	104	0	78	32084
2026-01-03 05:33:30.09	130.54	6.77	-53.5	-72.5	3.8	8.48e-01	0	43	104	0	78	32327
2026-01-03 05:33:32.09	130.31	6.61	-53.5	-72.4	3.8	8.46e-01	0	43	104	0	78	32077
2026-01-03 05:33:34.10	130.09	6.45	-53.6	-72.5	3.8	8.47e-01	0	43	104	0	78	32450
2026-01-03 05:33:36.11	129.87	6.30	-53.6	-72.5	3.8	8.46e-01	0	43	104	0	78	32330
2026-01-03 05:33:38.11	129.66	6.14	-53.5	-72.5	3.8	8.47e-01	0	43	104	0	78	32259
2026-01-03 05:33:40.12	129.45	5.99	-53.5	-72.5	3.8	8.48e-01	0	43	104	0	78	32388
2026-01-03 05:33:42.13	129.24	5.83	-53.5	-72.5	3.8	8.46e-01	0	43	104	0	78	32319
2026-01-03 05:33:44.13	129.03	5.68	-53.5	-72.5	3.8	8.45e-01	0	43	104	0	78	32304
2026-01-03 05:33:46.14	128.83	5.53	-53.5	-72.5	3.8	8.47e-01	0	43	104	0	78	32253
2026-01-03 05:33:48.15	128.63	5.38	-53.5	-72.5	3.8	8.47e-01	0	43	104	0	78	32215
2026-01-03 05:33:50.15	128.44	5.23	-53.5	-72.4	3.8	8.47e-01	0	43	104	0	78	32116
2026-01-03 05:33:52.16	128.24	5.08	-53.5	-72.5	3.8	8.47e-01	0	43	104	0	78	32317
2026-01-03 05:33:54.17	128.05	4.93	-53.6	-72.6	3.8	8.46e-01	0	43	104	0	78	32569

#Closed at: 2026-01-03 05:33:55
#Recorded file [0 MB]: D:/Data/31040_260103_082617.dat