passes_logs/2026/01/03/T1/T1__20260103_224845_KHAYYAM_rec.log

#Pass ID: 20260103_224845_KHAYYAM
#Satellite: KHAYYAM
#Configuration: KHAYYAM_480M
#almurnet v.1.7.20251203
#Start time: 2026-01-03 22:48:45

#Version: 2.0.20230620
#Station: T1
#Location: 37.570604 lon 55.790049 lat
#TLE: 1 53370U 22096A   26003.53756503  .00011169  00000+0  45423-3 0  9990
#TLE: 2 53370  97.3571 270.7516 0001260  83.4645 276.6737 15.24698418189496

#Time	Az	El	Level	Level2	SNR	BER	BlckErr	Temp	State	Recorded	gain1	gain2
2026-01-03 22:48:45.32	352.96	5.07	-52.7	-59.4	3.8	0.00e+00	0	41	104	0	76	32026
2026-01-03 22:48:47.33	352.68	5.20	-52.6	-59.3	3.8	0.00e+00	0	41	104	0	76	31752
2026-01-03 22:48:49.34	352.39	5.32	-52.7	-59.4	3.8	0.00e+00	0	41	104	0	76	32032
2026-01-03 22:48:51.34	352.11	5.44	-52.6	-59.3	3.8	0.00e+00	0	41	104	0	76	31817
2026-01-03 22:48:53.35	351.82	5.57	-52.7	-59.4	3.8	0.00e+00	0	41	104	0	76	32153
2026-01-03 22:48:55.35	351.53	5.69	-52.7	-59.4	3.8	0.00e+00	0	42	104	0	76	32094
2026-01-03 22:48:57.36	351.24	5.82	-52.6	-59.3	3.8	0.00e+00	0	42	104	0	76	31666
2026-01-03 22:48:59.36	350.94	5.94	-52.7	-59.4	3.8	0.00e+00	0	42	104	0	76	31974
2026-01-03 22:49:01.37	350.64	6.07	-52.7	-59.3	3.8	0.00e+00	0	42	104	0	76	31773
2026-01-03 22:49:03.38	350.33	6.19	-52.6	-59.3	3.8	0.00e+00	0	42	104	0	76	31808
2026-01-03 22:49:05.39	350.02	6.32	-52.6	-59.3	3.8	0.00e+00	0	42	104	0	76	31839
2026-01-03 22:49:07.39	349.71	6.45	-52.6	-59.3	3.7	0.00e+00	0	42	104	0	76	31929
2026-01-03 22:49:09.40	349.40	6.57	-52.5	-59.2	3.8	0.00e+00	0	43	104	0	76	31348
2026-01-03 22:49:11.41	349.08	6.70	-52.5	-59.2	3.8	0.00e+00	0	43	104	0	76	31502
2026-01-03 22:49:13.42	348.76	6.82	-52.5	-59.2	3.8	0.00e+00	0	43	104	0	76	31537
2026-01-03 22:49:15.43	348.43	6.95	-52.5	-59.2	3.8	0.00e+00	0	43	104	0	76	31497
2026-01-03 22:49:17.43	348.10	7.08	-52.6	-59.2	3.8	0.00e+00	0	43	104	0	76	31426
2026-01-03 22:49:19.44	347.77	7.20	-52.5	-59.2	3.8	0.00e+00	0	43	104	0	76	31574
2026-01-03 22:49:21.45	347.43	7.33	-52.4	-59.1	3.8	0.00e+00	0	43	104	0	76	31220
2026-01-03 22:49:23.46	347.09	7.46	-52.4	-59.1	3.8	0.00e+00	0	43	104	0	76	31000
2026-01-03 22:49:25.47	346.74	7.58	-52.4	-59.0	3.8	0.00e+00	0	44	104	0	76	30871
2026-01-03 22:49:27.48	346.39	7.71	-52.5	-59.2	3.8	0.00e+00	0	44	104	0	76	31343
2026-01-03 22:49:29.48	346.04	7.84	-52.5	-59.2	3.8	0.00e+00	0	44	104	0	76	31316
2026-01-03 22:49:31.49	345.68	7.96	-52.4	-59.1	3.8	0.00e+00	0	44	104	0	76	30942
2026-01-03 22:49:33.50	345.32	8.09	-52.4	-59.1	3.8	0.00e+00	0	44	104	0	76	30940
2026-01-03 22:49:35.51	344.96	8.22	-52.3	-59.0	3.8	0.00e+00	0	44	104	0	76	30548
2026-01-03 22:49:37.51	344.59	8.34	-52.3	-59.0	3.8	0.00e+00	0	44	104	0	76	30659
2026-01-03 22:49:39.52	344.22	8.47	-52.4	-59.1	3.8	0.00e+00	0	44	104	0	76	31028
2026-01-03 22:49:41.53	343.84	8.60	-52.5	-59.1	3.8	0.00e+00	0	44	104	0	76	31137
2026-01-03 22:49:43.54	343.46	8.72	-52.6	-59.3	3.8	0.00e+00	0	44	104	0	76	31631
2026-01-03 22:49:45.55	343.07	8.85	-52.6	-59.2	3.8	0.00e+00	0	44	104	0	76	31406
2026-01-03 22:49:47.55	342.68	8.98	-52.5	-59.2	3.8	0.00e+00	0	44	104	0	76	31405
2026-01-03 22:49:49.56	342.29	9.10	-53.2	-59.6	3.7	0.00e+00	0	44	104	0	76	32917
2026-01-03 22:49:51.57	341.89	9.23	-53.9	-60.0	3.7	0.00e+00	0	44	104	0	78	30651
2026-01-03 22:49:53.57	341.49	9.35	-53.6	-59.9	3.7	0.00e+00	0	45	104	0	78	30295
2026-01-03 22:49:55.58	341.08	9.48	-54.7	-60.5	3.7	0.00e+00	0	45	104	0	80	28884
2026-01-03 22:49:57.58	340.67	9.60	-56.1	-61.4	3.7	0.00e+00	0	45	104	0	83	26998
2026-01-03 22:49:59.59	340.26	9.73	-56.6	-61.4	3.7	0.00e+00	0	45	104	0	83	27029
2026-01-03 22:50:01.59	339.84	9.85	-56.9	-61.8	3.7	0.00e+00	0	45	104	0	84	26755
2026-01-03 22:50:03.60	339.41	9.97	-56.4	-61.7	3.7	0.00e+00	0	45	104	0	83	27837
2026-01-03 22:50:05.55	338.99	10.09	-54.8	-60.4	3.7	0.00e+00	0	45	104	0	81	27194
2026-01-03 22:50:07.65	338.54	10.22	-54.8	-60.6	3.7	0.00e+00	0	45	104	0	80	29163
2026-01-03 22:50:09.66	338.10	10.34	-53.8	-59.9	3.7	0.00e+00	0	45	104	0	79	28570
2026-01-03 22:50:11.94	337.60	10.48	-53.5	-59.6	3.7	0.00e+00	0	45	104	0	78	29471
2026-01-03 22:50:13.98	337.14	10.60	-54.1	-60.0	3.7	0.00e+00	0	45	104	0	78	30813
2026-01-03 22:50:15.98	336.69	10.72	-54.7	-60.5	3.7	0.00e+00	0	45	104	0	80	28823
2026-01-03 22:50:17.99	336.23	10.84	-55.5	-61.0	3.7	0.00e+00	0	45	104	0	81	28908
2026-01-03 22:50:19.99	335.77	10.96	-56.2	-61.4	3.7	0.00e+00	0	45	104	0	83	27149
2026-01-03 22:50:22.17	335.26	11.09	-56.5	-61.7	3.7	0.00e+00	0	45	104	0	83	27924
2026-01-03 22:50:24.24	334.77	11.21	-56.7	-61.8	3.7	0.00e+00	0	45	104	0	84	26708
2026-01-03 22:50:26.24	334.30	11.32	-56.6	-61.8	3.7	0.00e+00	0	45	104	0	84	26700
2026-01-03 22:50:28.24	333.82	11.44	-56.9	-61.9	3.7	0.00e+00	0	45	104	0	84	27040
2026-01-03 22:50:30.25	333.33	11.55	-56.5	-61.6	3.7	0.00e+00	0	45	104	0	84	26179
2026-01-03 22:50:32.25	332.84	11.66	-57.1	-62.0	3.7	0.00e+00	0	45	104	0	84	27448
2026-01-03 22:50:34.26	332.34	11.78	-57.1	-62.0	3.7	0.00e+00	0	45	104	0	85	25828
2026-01-03 22:50:36.62	331.76	11.91	-56.7	-61.3	3.7	0.00e+00	0	45	104	0	84	25227
2026-01-03 22:50:38.62	331.25	12.02	-56.7	-61.4	3.7	0.00e+00	0	45	104	0	84	25386
2026-01-03 22:50:40.62	330.74	12.12	-56.3	-61.3	3.7	0.00e+00	0	45	104	0	84	25348
2026-01-03 22:50:42.63	330.23	12.23	-56.6	-61.6	3.7	0.00e+00	0	46	104	0	83	27724
2026-01-03 22:50:44.61	329.71	12.33	-56.6	-61.7	3.7	0.00e+00	0	45	104	0	84	26299
2026-01-03 22:50:46.61	329.19	12.44	-56.4	-61.4	3.7	0.00e+00	0	45	104	0	84	25553
2026-01-03 22:50:48.62	328.66	12.54	-57.1	-61.8	3.7	0.00e+00	0	46	104	0	84	26672
2026-01-03 22:50:50.69	328.11	12.65	-56.9	-61.9	3.7	0.00e+00	0	45	104	0	85	25422
2026-01-03 22:50:52.68	327.58	12.75	-56.2	-61.6	3.7	0.00e+00	0	46	104	0	84	26087
2026-01-03 22:50:54.69	327.03	12.84	-55.7	-61.2	3.7	0.00e+00	0	45	104	0	83	26518
2026-01-03 22:50:56.70	326.48	12.94	-54.0	-60.0	3.7	0.00e+00	0	46	104	0	79	29005
2026-01-03 22:50:58.78	325.91	13.04	-54.1	-59.9	3.7	0.00e+00	0	46	104	0	79	28555
2026-01-03 22:51:00.85	325.34	13.13	-55.3	-60.9	3.7	0.00e+00	0	46	104	0	81	28490
2026-01-03 22:51:02.86	324.78	13.23	-55.3	-60.8	3.7	0.00e+00	0	46	104	0	81	28203
2026-01-03 22:51:04.95	324.19	13.32	-56.8	-61.8	3.7	0.00e+00	0	46	104	0	84	26736
2026-01-03 22:51:07.41	323.49	13.43	-56.7	-61.5	3.7	0.00e+00	0	46	104	0	83	27430
2026-01-03 22:51:09.42	322.91	13.51	-57.4	-61.9	3.7	0.00e+00	0	46	104	0	85	25533
2026-01-03 22:51:11.46	322.33	13.59	-56.5	-61.6	3.7	0.00e+00	0	46	104	0	84	26068
2026-01-03 22:51:13.53	321.73	13.68	-50.9	-53.2	4.7	0.00e+00	0	46	104	0	74	17637
2026-01-03 22:51:15.60	321.12	13.76	-53.4	-56.0	4.2	0.00e+00	0	46	104	0	78	19467
2026-01-03 22:51:17.69	320.51	13.84	-56.0	-61.2	3.7	0.00e+00	0	46	104	0	83	26350
2026-01-03 22:51:19.98	319.83	13.92	-55.2	-60.5	3.7	0.00e+00	0	46	104	0	82	25972
2026-01-03 22:51:21.98	319.23	13.99	-55.2	-60.5	3.7	0.00e+00	0	46	104	0	82	25896
2026-01-03 22:51:23.99	318.63	14.06	-55.9	-61.0	3.7	0.00e+00	0	46	104	0	82	27408
2026-01-03 22:51:25.99	318.03	14.13	-56.5	-61.5	3.7	0.00e+00	0	46	104	0	85	24443
2026-01-03 22:51:28.07	317.40	14.19	-56.8	-61.7	3.7	0.00e+00	0	46	104	0	85	25093
2026-01-03 22:51:30.38	316.69	14.26	-56.0	-61.2	3.7	0.00e+00	0	46	104	0	83	26470
2026-01-03 22:51:32.74	315.97	14.33	-56.4	-61.4	3.7	0.00e+00	0	46	104	0	83	27167
2026-01-03 22:51:34.90	315.31	14.39	-56.7	-61.5	3.7	0.00e+00	0	46	104	0	84	25785
2026-01-03 22:51:37.08	314.63	14.45	-56.0	-61.1	3.7	0.00e+00	0	46	104	0	84	24774
2026-01-03 22:51:39.19	313.98	14.50	-56.8	-61.5	3.7	0.00e+00	0	46	104	0	84	25945
2026-01-03 22:51:41.13	313.37	14.54	-56.6	-61.4	3.7	0.00e+00	0	46	104	0	84	25555
2026-01-03 22:51:43.26	312.70	14.59	-56.7	-61.5	3.7	0.00e+00	0	46	104	0	84	25717
2026-01-03 22:51:45.26	312.07	14.63	-57.0	-61.7	3.7	0.00e+00	0	46	104	0	84	26321
2026-01-03 22:51:47.27	311.44	14.66	-57.2	-61.8	3.7	0.00e+00	0	46	104	0	85	25331
2026-01-03 22:51:49.28	310.80	14.70	-56.9	-61.7	3.7	0.00e+00	0	46	104	0	85	24908
2026-01-03 22:51:51.28	310.17	14.73	-56.8	-61.6	3.7	0.00e+00	0	46	104	0	85	24655
2026-01-03 22:51:53.29	309.53	14.76	-56.6	-61.5	3.7	0.00e+00	0	46	104	0	85	24484
2026-01-03 22:51:55.22	308.92	14.78	-57.1	-62.0	3.7	0.00e+00	0	46	104	0	85	25688
2026-01-03 22:51:57.30	308.25	14.81	-57.5	-62.0	3.7	0.00e+00	0	46	104	0	85	25889
2026-01-03 22:51:59.30	307.61	14.83	-57.3	-61.8	3.7	0.00e+00	0	46	104	0	85	25137
2026-01-03 22:52:01.36	306.95	14.84	-57.3	-61.7	3.7	0.00e+00	0	46	104	0	85	25085
2026-01-03 22:52:03.37	306.31	14.86	-57.3	-62.0	3.7	0.00e+00	0	46	104	0	86	24361
2026-01-03 22:52:05.36	305.67	14.86	-57.3	-61.9	3.7	0.00e+00	0	46	104	0	86	24206
2026-01-03 22:52:07.37	305.02	14.87	-57.4	-61.9	3.7	0.00e+00	0	46	104	0	86	24208
2026-01-03 22:52:09.38	304.38	14.88	-57.3	-61.8	3.7	0.00e+00	0	46	104	0	86	23844
2026-01-03 22:52:11.38	303.73	14.88	-57.3	-61.7	3.7	0.00e+00	0	46	104	0	86	23449
2026-01-03 22:52:13.39	303.09	14.87	-57.3	-61.6	3.7	0.00e+00	0	46	104	0	86	23193
2026-01-03 22:52:15.39	302.44	14.87	-57.4	-61.8	3.7	0.00e+00	0	46	104	0	86	23825
2026-01-03 22:52:17.39	301.80	14.86	-57.5	-61.8	3.7	0.00e+00	0	46	104	0	86	23751
2026-01-03 22:52:19.51	301.12	14.85	-57.5	-62.0	3.7	0.00e+00	0	46	104	0	86	24387
2026-01-03 22:52:21.74	300.41	14.83	-57.4	-61.8	3.7	0.00e+00	0	46	104	0	86	23763
2026-01-03 22:52:23.75	299.76	14.81	-57.2	-61.6	3.7	0.00e+00	0	46	104	0	86	23268
2026-01-03 22:52:25.75	299.12	14.79	-57.3	-61.9	3.7	0.00e+00	0	46	104	0	86	24027
2026-01-03 22:52:27.76	298.48	14.76	-57.3	-61.7	3.7	0.00e+00	0	46	104	0	86	23561
2026-01-03 22:52:29.76	297.84	14.74	-57.3	-61.8	3.7	0.00e+00	0	46	104	0	86	23758
2026-01-03 22:52:31.77	297.21	14.71	-57.2	-61.8	3.7	0.00e+00	0	46	104	0	86	23791
2026-01-03 22:52:33.78	296.57	14.67	-57.3	-61.6	3.7	0.00e+00	0	46	104	0	86	23408
2026-01-03 22:52:35.78	295.94	14.64	-57.3	-61.5	3.7	0.00e+00	0	46	104	0	86	23052
2026-01-03 22:52:37.98	295.24	14.59	-57.4	-61.8	3.7	0.00e+00	0	46	104	0	86	23940
2026-01-03 22:52:39.99	294.61	14.55	-57.3	-61.5	3.6	0.00e+00	0	46	104	0	86	23085
2026-01-03 22:52:41.99	293.99	14.50	-57.5	-61.9	3.7	0.00e+00	0	46	104	0	86	24085
2026-01-03 22:52:44.00	293.36	14.45	-57.7	-62.2	3.7	0.00e+00	0	46	104	0	86	24878
2026-01-03 22:52:46.01	292.74	14.40	-57.6	-62.1	3.7	0.00e+00	0	46	104	0	86	24716
2026-01-03 22:52:48.01	292.12	14.35	-57.7	-62.2	3.7	0.00e+00	0	46	104	0	86	24968
2026-01-03 22:52:50.01	291.50	14.29	-57.5	-62.1	3.7	0.00e+00	0	46	104	0	86	24540
2026-01-03 22:52:52.02	290.89	14.23	-57.4	-61.8	3.7	0.00e+00	0	46	104	0	86	23831
2026-01-03 22:52:54.02	290.28	14.17	-57.6	-62.1	3.7	0.00e+00	0	46	104	0	86	24697
2026-01-03 22:52:56.03	289.67	14.11	-57.5	-62.1	3.7	0.00e+00	0	46	104	0	86	24639
2026-01-03 22:52:58.04	289.06	14.04	-57.6	-62.1	3.7	0.00e+00	0	46	104	0	86	24739
2026-01-03 22:53:00.04	288.46	13.97	-57.6	-62.2	3.7	0.00e+00	0	46	104	0	86	24819
2026-01-03 22:53:02.12	287.84	13.90	-57.6	-62.1	3.7	0.00e+00	0	46	104	0	86	24653
2026-01-03 22:53:04.11	287.25	13.82	-57.4	-61.7	3.7	0.00e+00	0	47	104	0	86	23623
2026-01-03 22:53:06.12	286.65	13.75	-57.5	-61.9	3.7	0.00e+00	0	46	104	0	86	24076
2026-01-03 22:53:08.12	286.07	13.67	-57.7	-62.1	3.7	0.00e+00	0	46	104	0	86	24564
2026-01-03 22:53:10.13	285.48	13.59	-57.8	-62.3	3.7	0.00e+00	0	46	104	0	86	25230
2026-01-03 22:53:12.13	284.91	13.50	-57.5	-62.1	3.7	0.00e+00	0	46	104	0	86	24783
2026-01-03 22:53:14.14	284.33	13.42	-57.8	-62.2	3.7	0.00e+00	0	46	104	0	86	25080
2026-01-03 22:53:16.36	283.70	13.32	-58.0	-62.4	3.7	0.00e+00	0	46	104	0	87	24123
2026-01-03 22:53:18.55	283.08	13.22	-57.8	-62.5	3.7	0.00e+00	0	46	104	0	87	24303
2026-01-03 22:53:20.77	282.45	13.12	-57.5	-62.1	3.7	0.00e+00	0	46	104	0	87	23393
2026-01-03 22:53:22.97	281.84	13.02	-57.8	-62.4	3.7	0.00e+00	0	46	104	0	86	25474
2026-01-03 22:53:24.98	281.29	12.92	-57.8	-62.5	3.7	0.00e+00	0	46	104	0	86	25681
2026-01-03 22:53:26.98	280.74	12.83	-57.4	-62.1	3.7	0.00e+00	0	46	104	0	86	24773
2026-01-03 22:53:28.99	280.19	12.73	-57.5	-62.1	3.7	0.00e+00	0	46	104	0	86	24640
2026-01-03 22:53:31.00	279.65	12.63	-57.5	-62.2	3.7	0.00e+00	0	47	104	0	86	24939
2026-01-03 22:53:33.00	279.12	12.53	-57.6	-62.4	3.7	0.00e+00	0	46	104	0	86	25511
2026-01-03 22:53:35.00	278.59	12.42	-57.3	-62.2	3.7	0.00e+00	0	46	104	0	86	24920
2026-01-03 22:53:37.01	278.06	12.32	-57.2	-62.1	3.7	0.00e+00	0	47	104	0	86	24647
2026-01-03 22:53:39.02	277.54	12.21	-57.5	-62.0	3.7	0.00e+00	0	46	104	0	86	24492
2026-01-03 22:53:41.02	277.02	12.10	-57.5	-62.1	3.7	0.00e+00	0	47	104	0	86	24607
2026-01-03 22:53:43.03	276.51	12.00	-57.2	-62.0	3.7	0.00e+00	0	46	104	0	86	24372
2026-01-03 22:53:45.03	276.00	11.89	-57.5	-62.3	3.7	0.00e+00	0	47	104	0	86	25149
2026-01-03 22:53:47.03	275.50	11.77	-57.5	-61.9	3.7	0.00e+00	0	47	104	0	86	23981
2026-01-03 22:53:49.04	275.00	11.66	-57.2	-61.7	3.7	0.00e+00	0	46	104	0	86	23509
2026-01-03 22:53:51.06	274.50	11.55	-57.3	-61.9	3.7	0.00e+00	0	47	104	0	86	24180
2026-01-03 22:53:53.51	273.90	11.41	-57.3	-62.0	3.7	0.00e+00	0	47	104	0	86	24499
2026-01-03 22:53:55.85	273.34	11.27	-57.4	-62.2	3.7	0.00e+00	0	46	104	0	86	24946
2026-01-03 22:53:57.86	272.86	11.16	-57.3	-62.2	3.7	0.00e+00	0	47	104	0	86	24877
2026-01-03 22:53:59.86	272.38	11.04	-57.2	-62.1	3.7	0.00e+00	0	46	104	0	86	24601
2026-01-03 22:54:01.89	271.91	10.92	-56.9	-61.8	3.7	0.00e+00	0	47	104	0	85	25115
2026-01-03 22:54:03.89	271.45	10.80	-57.1	-61.8	3.7	0.00e+00	0	47	104	0	85	25197
2026-01-03 22:54:06.02	270.96	10.67	-57.4	-62.0	3.7	0.00e+00	0	47	104	0	85	25823
2026-01-03 22:54:08.23	270.46	10.54	-57.4	-62.0	3.7	0.00e+00	0	47	104	0	85	25718
2026-01-03 22:54:10.24	270.01	10.42	-57.6	-62.3	3.7	0.00e+00	0	47	104	0	85	26584
2026-01-03 22:54:12.25	269.56	10.29	-57.4	-62.1	3.7	0.00e+00	0	46	104	0	85	26061
2026-01-03 22:54:14.26	269.12	10.17	-57.3	-62.1	3.7	0.00e+00	0	47	104	0	85	26030
2026-01-03 22:54:16.26	268.69	10.05	-57.0	-61.9	3.7	0.00e+00	0	46	104	0	85	25554
2026-01-03 22:54:18.52	268.20	9.91	-57.0	-62.0	3.7	0.00e+00	0	47	104	0	85	25880
2026-01-03 22:54:20.53	267.77	9.79	-57.4	-62.2	3.7	0.00e+00	0	46	104	0	85	26445
2026-01-03 22:54:22.53	267.35	9.66	-57.1	-61.8	3.7	0.00e+00	0	47	104	0	85	25253
2026-01-03 22:54:24.54	266.93	9.54	-57.0	-61.7	3.7	0.00e+00	0	47	104	0	85	24984
2026-01-03 22:54:26.54	266.52	9.41	-57.1	-61.9	3.7	0.00e+00	0	46	104	0	85	25456
2026-01-03 22:54:28.55	266.11	9.29	-57.1	-62.0	3.7	0.00e+00	0	47	104	0	85	25737
2026-01-03 22:54:30.56	265.71	9.16	-57.0	-62.1	3.7	0.00e+00	0	47	104	0	85	26022
2026-01-03 22:54:32.56	265.31	9.03	-57.0	-62.1	3.7	0.00e+00	0	47	104	0	85	26013
2026-01-03 22:54:34.57	264.91	8.91	-57.6	-62.2	3.7	0.00e+00	0	47	104	0	86	24948
2026-01-03 22:54:36.58	264.52	8.78	-57.3	-62.3	3.7	0.00e+00	0	47	104	0	86	25106
2026-01-03 22:54:38.58	264.14	8.65	-57.9	-62.4	3.7	0.00e+00	0	47	104	0	86	25445
2026-01-03 22:54:40.59	263.75	8.53	-57.7	-62.5	3.7	0.00e+00	0	47	104	0	86	25882
2026-01-03 22:54:42.60	263.37	8.40	-58.1	-62.8	3.7	0.00e+00	0	47	104	0	86	26588
2026-01-03 22:54:44.61	263.00	8.27	-57.8	-62.5	3.7	0.00e+00	0	47	104	0	86	25885
2026-01-03 22:54:46.68	262.62	8.14	-58.0	-62.6	3.7	0.00e+00	0	47	104	0	86	26099
2026-01-03 22:54:48.74	262.24	8.01	-57.7	-62.2	3.7	0.00e+00	0	47	104	0	86	25091
2026-01-03 22:54:50.77	261.87	7.88	-58.0	-62.5	3.7	0.00e+00	0	47	104	0	86	25873
2026-01-03 22:54:52.81	261.51	7.75	-57.8	-62.3	3.7	0.00e+00	0	47	104	0	86	25254
2026-01-03 22:54:54.85	261.15	7.62	-57.6	-62.4	3.7	0.00e+00	0	47	104	0	86	25544
2026-01-03 22:54:56.86	260.80	7.49	-57.2	-61.9	3.7	0.00e+00	0	47	104	0	86	24014
2026-01-03 22:54:58.87	260.45	7.37	-57.2	-61.8	3.7	0.00e+00	0	47	104	0	86	23932
2026-01-03 22:55:00.87	260.11	7.24	-57.2	-61.8	3.7	0.00e+00	0	47	104	0	86	23955
2026-01-03 22:55:02.88	259.77	7.11	-57.4	-62.0	3.7	0.00e+00	0	47	104	0	86	24375
2026-01-03 22:55:04.89	259.44	6.98	-57.2	-61.9	3.7	0.00e+00	0	47	104	0	86	24044
2026-01-03 22:55:06.90	259.11	6.86	-57.2	-61.9	3.7	0.00e+00	0	47	104	0	86	24001
2026-01-03 22:55:08.90	258.78	6.73	-57.3	-62.0	3.7	0.00e+00	0	47	104	0	86	24320
2026-01-03 22:55:10.91	258.46	6.60	-57.2	-61.9	3.7	0.00e+00	0	47	104	0	86	23978
2026-01-03 22:55:12.92	258.14	6.48	-57.2	-61.8	3.7	0.00e+00	0	46	104	0	86	23898
2026-01-03 22:55:14.92	257.82	6.35	-57.2	-61.9	3.7	0.00e+00	0	46	104	0	86	23996
2026-01-03 22:55:16.93	257.51	6.22	-57.2	-61.8	3.7	0.00e+00	0	47	104	0	86	23865
2026-01-03 22:55:18.94	257.20	6.10	-57.3	-62.0	3.7	0.00e+00	0	47	104	0	86	24421
2026-01-03 22:55:20.95	256.89	5.97	-57.5	-62.2	3.7	0.00e+00	0	47	104	0	86	24865
2026-01-03 22:55:22.96	256.59	5.84	-57.3	-61.9	3.7	0.00e+00	0	47	104	0	86	24091
2026-01-03 22:55:24.97	256.29	5.72	-57.3	-62.0	3.7	0.00e+00	0	47	104	0	86	24307
2026-01-03 22:55:26.97	255.99	5.59	-57.2	-61.9	3.7	0.00e+00	0	47	104	0	86	23989
2026-01-03 22:55:28.98	255.70	5.47	-57.2	-61.8	3.7	0.00e+00	0	47	104	0	86	23905
2026-01-03 22:55:30.99	255.41	5.34	-57.2	-61.9	3.7	0.00e+00	0	47	104	0	86	24066
2026-01-03 22:55:32.99	255.12	5.22	-57.3	-61.9	3.7	0.00e+00	0	47	104	0	86	24116
2026-01-03 22:55:35.00	254.84	5.09	-57.4	-62.0	3.7	0.00e+00	0	47	104	0	86	24510
2026-01-03 22:55:37.01	254.56	4.97	-57.3	-62.0	3.7	0.00e+00	0	47	104	0	86	24245
2026-01-03 22:55:39.02	254.28	4.85	-57.3	-61.9	3.7	0.00e+00	0	47	104	0	86	24094

#Closed at: 2026-01-03 22:55:39
#Recorded file [0 MB]: D:/Data/31040_260104_014845.dat