passes_logs/2026/01/03/T1/T1__20260103_010107_FENGYUN_3D_rec.log

#Pass ID: 20260103_010107_FENGYUN 3D
#Satellite: FENGYUN 3D
#Configuration: FENGYUN 3D
#almurnet v.1.7.20251203
#Start time: 2026-01-03 01:01:08

#Version: 2.0.20230620
#Station: T1
#Location: 37.570604 lon 55.790049 lat
#TLE: 1 43010U 17072A   26002.31768531  .00000715  00000+0  35975-3 0  9993
#TLE: 2 43010  98.9910 333.9388 0001871 131.0716 229.0622 14.19693418421454

#Time	Az	El	Level	Level2	SNR	BER	BlckErr	Temp	State	Recorded	gain1	gain2
2026-01-03 01:01:08.22	22.17	5.02	-47.6	-60.5	3.8	8.47e-01	0	41	0	0	66	16264
2026-01-03 01:01:11.23	22.30	5.23	-47.6	-60.5	3.8	8.47e-01	0	41	104	0	66	16146
2026-01-03 01:01:14.25	22.44	5.44	-47.7	-60.5	3.8	8.47e-01	0	41	104	0	66	16140
2026-01-03 01:01:17.26	22.57	5.65	-47.6	-60.6	3.8	8.47e-01	0	41	104	0	66	16454
2026-01-03 01:01:20.27	22.71	5.86	-47.7	-60.7	3.8	8.47e-01	0	41	104	0	66	16590
2026-01-03 01:01:23.28	22.85	6.07	-47.7	-60.7	3.8	8.48e-01	0	41	104	0	66	16552
2026-01-03 01:01:26.29	22.99	6.28	-47.6	-60.5	3.8	8.46e-01	0	41	104	0	66	16219
2026-01-03 01:01:29.31	23.14	6.50	-47.6	-60.2	3.8	8.48e-01	0	41	104	0	66	15652
2026-01-03 01:01:32.32	23.28	6.72	-47.6	-59.8	3.8	8.46e-01	0	42	104	0	66	15013
2026-01-03 01:01:35.33	23.43	6.93	-47.6	-60.0	3.8	8.47e-01	0	42	104	0	66	15374
2026-01-03 01:01:38.34	23.58	7.15	-47.7	-60.6	3.8	8.47e-01	0	42	104	0	66	16446
2026-01-03 01:01:41.36	23.73	7.38	-47.6	-60.5	3.8	8.47e-01	0	42	104	0	66	16293
2026-01-03 01:01:44.37	23.89	7.60	-47.5	-59.0	3.8	8.46e-01	0	42	104	0	66	13659
2026-01-03 01:01:47.38	24.04	7.83	-47.2	-56.7	4.3	8.34e-01	0	42	0	0	66	10476
2026-01-03 01:01:50.39	24.20	8.05	-47.0	-55.4	4.8	7.92e-01	0	42	0	0	66	8973
2026-01-03 01:01:53.41	24.36	8.29	-46.9	-55.2	5.0	7.76e-01	0	42	0	0	65	9311
2026-01-03 01:01:56.42	24.53	8.52	-46.9	-55.1	5.0	7.70e-01	0	42	0	0	65	9198
2026-01-03 01:01:59.43	24.69	8.75	-46.5	-53.6	6.0	4.13e-01	0	42	0	4194304	65	7754
2026-01-03 01:02:02.44	24.86	8.99	-46.0	-51.6	7.8	1.15e-01	0	42	0	20971520	63	6945
2026-01-03 01:02:05.45	25.03	9.22	-46.2	-52.6	6.8	6.66e-01	0	42	0	36700160	64	7293
2026-01-03 01:02:08.46	25.21	9.46	-39.9	-42.1	17.4	0.00e+00	0	43	0	46137344	51	4639
2026-01-03 01:02:11.47	25.38	9.70	-38.7	-40.7	18.8	0.00e+00	0	42	0	62914560	49	4413
2026-01-03 01:02:14.48	25.56	9.95	-38.4	-40.4	19.1	0.00e+00	0	43	0	79691776	48	4501
2026-01-03 01:02:17.48	25.74	10.19	-38.2	-40.2	19.3	0.00e+00	0	43	0	97517568	48	4403
2026-01-03 01:02:20.49	25.93	10.44	-38.2	-40.2	19.3	0.00e+00	0	43	0	114294784	48	4398
2026-01-03 01:02:23.49	26.11	10.69	-38.3	-40.2	19.3	0.00e+00	0	43	0	131072000	48	4426
2026-01-03 01:02:26.50	26.30	10.94	-38.4	-40.3	19.2	0.00e+00	0	43	0	147849216	48	4470
2026-01-03 01:02:29.51	26.50	11.20	-38.4	-40.3	19.3	0.00e+00	0	43	0	164626432	48	4489
2026-01-03 01:02:32.52	26.69	11.46	-38.3	-40.2	19.4	0.00e+00	0	43	0	181403648	48	4409
2026-01-03 01:02:35.53	26.89	11.72	-38.3	-40.2	19.4	0.00e+00	0	43	0	198180864	48	4420
2026-01-03 01:02:38.53	27.09	11.98	-38.3	-40.2	19.4	0.00e+00	0	43	0	216006656	48	4405
2026-01-03 01:02:41.54	27.30	12.25	-38.2	-40.1	19.5	0.00e+00	0	43	0	232783872	48	4371
2026-01-03 01:02:44.55	27.51	12.51	-38.1	-40.0	19.6	0.00e+00	0	43	0	249561088	48	4302
2026-01-03 01:02:47.57	27.73	12.79	-37.9	-39.8	19.6	0.00e+00	0	43	0	266338304	47	4482
2026-01-03 01:02:50.58	27.94	13.06	-37.8	-39.7	19.8	0.00e+00	0	43	0	283115520	47	4395
2026-01-03 01:02:53.70	28.17	13.34	-37.7	-39.5	19.9	0.00e+00	0	43	0	300941312	47	4333
2026-01-03 01:02:57.23	28.44	13.67	-37.5	-39.4	20.0	0.00e+00	0	43	0	320864256	47	4251
2026-01-03 01:02:59.95	28.65	13.93	-37.5	-39.4	20.0	0.00e+00	0	43	0	336592896	47	4265
2026-01-03 01:03:03.24	28.90	14.24	-37.5	-39.3	20.2	0.00e+00	0	43	0	354418688	46	4488
2026-01-03 01:03:06.06	29.12	14.51	-37.4	-39.3	20.2	0.00e+00	0	43	0	370147328	46	4462
2026-01-03 01:03:09.74	29.42	14.87	-37.3	-39.1	20.3	0.00e+00	0	43	0	391118848	46	4366
2026-01-03 01:03:12.46	29.65	15.13	-37.2	-39.0	20.4	0.00e+00	0	43	0	406847488	46	4338
2026-01-03 01:03:15.75	29.92	15.46	-37.2	-39.0	20.5	0.00e+00	0	43	0	424673280	46	4307
2026-01-03 01:03:18.50	30.16	15.73	-37.1	-38.9	20.6	0.00e+00	0	43	0	440401920	46	4262
2026-01-03 01:03:21.79	30.45	16.07	-37.0	-38.8	20.7	0.00e+00	0	43	0	459276288	46	4200
2026-01-03 01:03:24.75	30.71	16.37	-36.8	-38.6	20.8	0.00e+00	0	43	0	476053504	45	4391
2026-01-03 01:03:28.05	31.01	16.71	-36.5	-38.3	21.1	0.00e+00	0	43	0	493879296	45	4220
2026-01-03 01:03:30.78	31.26	17.00	-36.3	-38.1	21.4	0.00e+00	0	43	0	509607936	44	4356
2026-01-03 01:03:34.48	31.61	17.39	-36.5	-38.3	21.2	0.00e+00	0	43	0	530579456	44	4452
2026-01-03 01:03:37.20	31.88	17.68	-36.5	-38.3	21.2	0.00e+00	0	43	0	545259520	44	4442
2026-01-03 01:03:40.49	32.20	18.03	-36.5	-38.2	21.2	0.00e+00	0	43	0	564133888	44	4416
2026-01-03 01:03:43.21	32.48	18.33	-36.3	-38.1	21.3	0.00e+00	0	43	0	579862528	44	4350
2026-01-03 01:03:46.51	32.82	18.70	-36.3	-38.0	21.3	0.00e+00	0	43	0	597688320	44	4326
2026-01-03 01:03:49.42	33.12	19.02	-36.2	-38.0	21.4	0.00e+00	0	43	0	614465536	44	4297
2026-01-03 01:03:53.16	33.53	19.45	-36.0	-37.8	21.7	0.00e+00	0	43	0	635437056	44	4194
2026-01-03 01:03:55.95	33.83	19.77	-36.1	-37.8	21.7	0.00e+00	0	43	0	651165696	44	4219
2026-01-03 01:03:59.29	34.21	20.16	-35.7	-37.4	21.9	0.00e+00	0	43	0	670040064	43	4273
2026-01-03 01:04:02.01	34.53	20.48	-35.7	-37.4	21.9	0.00e+00	0	43	0	684720128	43	4270
2026-01-03 01:04:05.31	34.92	20.87	-36.0	-37.7	21.6	0.00e+00	0	43	0	703594496	43	4411
2026-01-03 01:04:08.03	35.24	21.20	-35.8	-37.5	21.8	0.00e+00	0	43	0	719323136	43	4333
2026-01-03 01:04:11.33	35.65	21.60	-35.6	-37.4	21.9	0.00e+00	0	43	0	737148928	43	4244
2026-01-03 01:04:14.04	35.99	21.93	-35.7	-37.4	21.9	0.00e+00	0	43	0	752877568	43	4268
2026-01-03 01:04:17.34	36.42	22.34	-35.7	-37.4	21.9	0.00e+00	0	43	0	771751936	43	4254
2026-01-03 01:04:20.25	36.81	22.71	-35.6	-37.3	21.9	0.00e+00	0	43	0	787480576	43	4221
2026-01-03 01:04:24.01	37.32	23.19	-35.5	-37.2	22.1	0.00e+00	0	43	0	808452096	42	4420
2026-01-03 01:04:27.16	37.76	23.59	-35.1	-36.7	22.6	0.00e+00	0	43	0	826277888	42	4184
2026-01-03 01:04:30.34	38.21	24.01	-35.0	-36.6	22.6	0.00e+00	0	43	0	844103680	41	4383
2026-01-03 01:04:33.30	38.65	24.40	-35.0	-36.7	22.5	0.00e+00	0	43	0	860880896	41	4425
2026-01-03 01:04:36.48	39.13	24.82	-34.8	-36.5	22.8	0.00e+00	0	43	0	878706688	41	4295
2026-01-03 01:04:39.35	39.57	25.21	-34.9	-36.5	22.7	0.00e+00	0	43	0	895483904	41	4321
2026-01-03 01:04:42.50	40.07	25.64	-34.6	-36.3	22.9	0.00e+00	0	43	0	913309696	41	4208
2026-01-03 01:04:45.37	40.54	26.04	-34.6	-36.2	23.0	0.00e+00	0	43	0	929038336	41	4193
2026-01-03 01:04:48.53	41.06	26.48	-34.6	-36.3	23.0	0.00e+00	0	43	0	946864128	41	4199
2026-01-03 01:04:51.42	41.56	26.89	-34.6	-36.2	23.1	0.00e+00	0	43	0	962592768	40	4412
2026-01-03 01:04:54.57	42.11	27.33	-34.7	-36.4	22.8	0.00e+00	0	43	0	980418560	40	4510
2026-01-03 01:04:57.43	42.63	27.75	-34.7	-36.3	22.9	0.00e+00	0	43	0	997195776	40	4485
2026-01-03 01:05:00.59	43.22	28.20	-34.7	-36.3	22.9	0.00e+00	0	43	0	1015021568	40	4488
2026-01-03 01:05:03.45	43.76	28.62	-34.7	-36.4	22.9	0.00e+00	0	43	0	1030750208	40	4500
2026-01-03 01:05:06.65	44.39	29.10	-34.3	-36.0	23.3	0.00e+00	0	43	0	1048576000	40	4295
2026-01-03 01:05:09.52	44.96	29.52	-34.7	-36.3	22.9	0.00e+00	0	43	0	1065353216	40	4481
2026-01-03 01:05:12.64	45.61	29.99	-34.7	-36.3	22.9	0.00e+00	0	43	0	1082130432	40	4492
2026-01-03 01:05:15.77	46.27	30.47	-34.5	-36.2	22.5	0.00e+00	0	44	0	1099956224	40	4417
2026-01-03 01:05:18.78	46.93	30.93	-34.3	-36.0	22.7	0.00e+00	0	43	0	1116733440	40	4306
2026-01-03 01:05:21.79	47.61	31.39	-34.3	-36.0	22.7	0.00e+00	0	43	0	1133510656	40	4312
2026-01-03 01:05:24.80	48.31	31.86	-34.4	-36.1	22.6	0.00e+00	0	43	0	1151336448	40	4383
2026-01-03 01:05:28.04	49.08	32.36	-34.3	-36.0	22.7	0.00e+00	0	43	0	1169162240	40	4334
2026-01-03 01:05:30.76	49.74	32.79	-34.2	-35.9	22.8	0.00e+00	0	43	0	1184890880	40	4254
2026-01-03 01:05:34.05	50.57	33.30	-34.2	-35.9	22.8	0.00e+00	0	43	0	1202716672	40	4277
2026-01-03 01:05:36.78	51.28	33.73	-34.3	-36.0	22.7	0.00e+00	0	43	0	1218445312	40	4315
2026-01-03 01:05:40.19	52.19	34.28	-34.2	-36.0	22.8	0.00e+00	0	43	0	1237319680	40	4300
2026-01-03 01:05:43.19	53.02	34.75	-34.1	-35.9	22.8	0.00e+00	0	43	0	1254096896	40	4243
2026-01-03 01:05:47.00	54.11	35.36	-34.0	-35.7	22.9	0.00e+00	0	43	0	1276116992	40	4166
2026-01-03 01:05:49.74	54.91	35.79	-34.0	-35.7	23.0	0.00e+00	0	43	0	1290797056	39	4407
2026-01-03 01:05:53.52	56.06	36.39	-34.3	-36.0	22.8	0.00e+00	0	44	0	1312817152	39	4563
2026-01-03 01:05:56.64	57.04	36.89	-33.9	-35.5	23.1	0.00e+00	0	43	0	1329594368	39	4333
2026-01-03 01:06:00.41	58.26	37.48	-33.9	-35.6	23.1	0.00e+00	0	43	0	1351614464	39	4391
2026-01-03 01:06:03.18	59.18	37.92	-34.2	-35.9	22.9	0.00e+00	0	43	0	1367343104	39	4517
2026-01-03 01:06:07.14	60.55	38.53	-33.8	-35.5	23.2	0.00e+00	0	43	0	1389363200	39	4318
2026-01-03 01:06:09.89	61.53	38.96	-34.1	-35.9	22.9	0.00e+00	0	43	0	1405091840	39	4501
2026-01-03 01:06:13.63	62.90	39.52	-34.1	-35.9	22.9	0.00e+00	0	43	0	1426063360	39	4494
2026-01-03 01:06:16.53	64.00	39.96	-34.2	-35.9	22.9	0.00e+00	0	44	0	1441792000	39	4536
2026-01-03 01:06:20.63	65.60	40.56	-33.9	-35.7	23.1	0.00e+00	0	43	0	1464860672	39	4392
2026-01-03 01:06:23.37	66.71	40.96	-34.2	-35.9	22.9	0.00e+00	0	44	0	1480589312	39	4499
2026-01-03 01:06:27.15	68.27	41.49	-34.2	-35.9	22.8	0.00e+00	0	43	0	1501560832	39	4529
2026-01-03 01:06:29.95	69.47	41.87	-34.4	-36.1	22.7	0.00e+00	0	44	0	1517289472	39	4626
2026-01-03 01:06:33.69	71.11	42.37	-34.3	-36.0	22.7	0.00e+00	0	43	0	1538260992	39	4595
2026-01-03 01:06:36.49	72.36	42.73	-34.5	-36.3	22.6	0.00e+00	0	43	0	1553989632	39	4715
2026-01-03 01:06:39.95	73.96	43.15	-34.6	-36.3	22.4	0.00e+00	0	43	0	1573912576	40	4484
2026-01-03 01:06:42.66	75.24	43.47	-34.4	-36.1	22.6	0.00e+00	0	43	0	1588592640	40	4350
2026-01-03 01:06:45.96	76.83	43.85	-34.5	-36.2	22.6	0.00e+00	0	44	0	1607467008	39	4691
2026-01-03 01:06:48.68	78.16	44.14	-34.6	-36.3	22.5	0.00e+00	0	43	0	1623195648	40	4473
2026-01-03 01:06:51.98	79.82	44.47	-34.3	-36.1	22.7	0.00e+00	0	43	0	1641021440	40	4350
2026-01-03 01:06:54.70	81.21	44.72	-34.3	-36.1	22.7	0.00e+00	0	43	0	1656750080	40	4347
2026-01-03 01:06:58.26	83.06	45.03	-34.4	-36.1	22.7	1.10e-06	0	43	0	1676673024	40	4356
2026-01-03 01:07:00.98	84.50	45.25	-34.2	-36.0	22.9	0.00e+00	0	43	0	1691353088	40	4300
2026-01-03 01:07:04.28	86.26	45.48	-34.7	-36.5	22.4	0.00e+00	0	43	0	1710227456	40	4560
2026-01-03 01:07:07.00	87.74	45.66	-34.7	-36.5	22.3	0.00e+00	0	43	0	1725956096	40	4563
2026-01-03 01:07:10.29	89.55	45.84	-34.5	-36.2	22.6	0.00e+00	0	44	0	1744830464	40	4423
2026-01-03 01:07:13.01	91.06	45.97	-34.6	-36.3	22.6	5.70e-06	0	43	0	1759510528	40	4477
2026-01-03 01:07:16.30	92.90	46.10	-34.6	-36.3	22.6	0.00e+00	0	44	0	1778384896	40	4478
2026-01-03 01:07:19.18	94.52	46.18	-34.7	-36.4	22.4	0.00e+00	0	43	0	1794113536	40	4521
2026-01-03 01:07:22.65	96.48	46.25	-34.6	-36.3	22.6	0.00e+00	0	43	0	1814036480	40	4470
2026-01-03 01:07:25.37	98.03	46.28	-34.5	-36.2	22.7	0.00e+00	0	43	0	1828716544	40	4413
2026-01-03 01:07:28.64	99.88	46.28	-34.7	-36.4	22.5	0.00e+00	0	44	0	1847590912	40	4529
2026-01-03 01:07:31.74	101.64	46.26	-34.5	-36.2	22.6	0.00e+00	0	44	0	1865416704	40	4441
2026-01-03 01:07:34.88	103.42	46.20	-34.6	-36.3	22.6	0.00e+00	0	43	0	1882193920	40	4474
2026-01-03 01:07:37.88	105.12	46.12	-34.6	-36.3	22.6	0.00e+00	0	44	0	1900019712	40	4452
2026-01-03 01:07:40.88	106.80	46.02	-34.7	-36.4	22.5	0.00e+00	0	43	0	1916796928	40	4525
2026-01-03 01:07:43.89	108.47	45.89	-34.2	-35.9	22.8	0.00e+00	0	44	0	1933574144	40	4291
2026-01-03 01:07:46.90	110.14	45.73	-34.4	-36.2	22.6	0.00e+00	0	43	0	1950351360	40	4412
2026-01-03 01:07:49.91	111.78	45.54	-34.6	-36.3	22.5	0.00e+00	0	43	0	1967128576	40	4492
2026-01-03 01:07:52.92	113.40	45.34	-34.5	-36.2	22.7	0.00e+00	0	43	0	1983905792	40	4409
2026-01-03 01:07:55.93	115.00	45.10	-34.6	-36.3	22.6	0.00e+00	0	44	0	2000683008	40	4475
2026-01-03 01:07:59.00	116.61	44.85	-34.8	-36.5	22.4	0.00e+00	0	43	0	2018508800	40	4574
2026-01-03 01:08:01.87	118.09	44.58	-34.4	-36.1	22.7	0.00e+00	0	44	0	2034237440	40	4382
2026-01-03 01:08:05.02	119.69	44.27	-34.6	-36.3	22.5	0.00e+00	0	43	0	2052063232	40	4492
2026-01-03 01:08:07.88	121.11	43.98	-34.3	-36.0	22.9	0.00e+00	0	43	0	2068840448	40	4295
2026-01-03 01:08:11.03	122.64	43.63	-34.9	-36.7	22.2	0.00e+00	0	43	0	2085617664	40	4665
2026-01-03 01:08:13.90	124.01	43.29	-35.0	-36.8	22.1	0.00e+00	0	43	0	2102394880	40	4727
2026-01-03 01:08:17.10	125.51	42.91	-34.4	-36.1	22.6	0.00e+00	0	43	0	2120220672	40	4359
2026-01-03 01:08:19.97	126.82	42.54	-34.4	-36.2	22.6	0.00e+00	0	44	0	2135949312	40	4401
2026-01-03 01:08:23.12	128.22	42.13	-34.5	-36.3	22.6	0.00e+00	0	43	0	2153775104	40	4444
2026-01-03 01:08:25.99	129.47	41.74	-34.5	-36.2	22.5	0.00e+00	0	43	0	2170552320	40	4437
2026-01-03 01:08:29.14	130.80	41.31	-34.3	-36.0	22.7	0.00e+00	0	43	0	2188378112	40	4320
2026-01-03 01:08:32.34	132.12	40.85	-34.1	-35.8	22.9	0.00e+00	0	44	0	2206203904	40	4221
2026-01-03 01:08:35.59	133.42	40.38	-34.3	-36.0	22.7	0.00e+00	0	44	0	2224029696	40	4340
2026-01-03 01:08:38.46	134.54	39.95	-34.5	-36.2	22.5	0.00e+00	0	43	0	2239758336	40	4420
2026-01-03 01:08:41.61	135.74	39.48	-34.3	-36.1	22.7	0.00e+00	0	43	0	2257584128	40	4352
2026-01-03 01:08:44.81	136.92	38.99	-34.2	-35.9	22.8	0.00e+00	0	44	0	2275409920	40	4262
2026-01-03 01:08:47.85	138.00	38.52	-34.2	-36.0	22.8	0.00e+00	0	43	0	2293235712	40	4296
2026-01-03 01:08:50.85	139.05	38.05	-34.1	-35.8	22.9	0.00e+00	0	44	0	2310012928	40	4235
2026-01-03 01:08:53.85	140.06	37.57	-34.1	-35.8	22.9	0.00e+00	0	44	0	2326790144	40	4203
2026-01-03 01:08:56.86	141.05	37.10	-34.2	-36.0	22.8	0.00e+00	0	44	0	2343567360	40	4295
2026-01-03 01:08:59.86	142.01	36.62	-34.2	-35.9	22.8	0.00e+00	0	44	0	2360344576	40	4276
2026-01-03 01:09:02.87	142.94	36.14	-34.2	-36.0	22.7	0.00e+00	0	44	0	2377121792	40	4317
2026-01-03 01:09:05.87	143.85	35.66	-34.3	-36.0	22.7	0.00e+00	0	44	0	2393899008	40	4337
2026-01-03 01:09:08.88	144.73	35.18	-34.0	-35.8	22.9	0.00e+00	0	43	0	2411724800	40	4194
2026-01-03 01:09:11.84	145.57	34.71	-34.3	-36.0	22.6	0.00e+00	0	44	0	2428502016	40	4331
2026-01-03 01:09:14.99	146.44	34.20	-34.2	-35.9	22.7	0.00e+00	0	44	0	2445279232	40	4283
2026-01-03 01:09:17.85	147.21	33.75	-34.1	-35.8	22.8	0.00e+00	0	43	0	2462056448	40	4235
2026-01-03 01:09:21.00	148.03	33.25	-34.2	-35.9	22.7	0.00e+00	0	44	0	2479882240	40	4291
2026-01-03 01:09:23.95	148.78	32.78	-34.2	-35.9	22.7	0.00e+00	0	43	0	2495610880	40	4285
2026-01-03 01:09:27.11	149.55	32.28	-34.5	-36.3	22.4	0.00e+00	0	43	0	2513436672	40	4457
2026-01-03 01:09:30.03	150.25	31.82	-34.6	-36.4	22.3	0.00e+00	0	44	0	2530213888	40	4516
2026-01-03 01:09:33.05	150.95	31.35	-34.5	-36.3	22.5	0.00e+00	0	44	0	2546991104	40	4448
2026-01-03 01:09:36.05	151.63	30.89	-34.5	-36.3	22.4	0.00e+00	0	43	0	2563768320	40	4465
2026-01-03 01:09:39.06	152.29	30.42	-34.4	-36.2	22.5	0.00e+00	0	43	0	2580545536	40	4425
2026-01-03 01:09:42.06	152.93	29.97	-34.4	-36.1	22.5	0.00e+00	0	44	0	2598371328	40	4374
2026-01-03 01:09:45.15	153.57	29.50	-34.4	-36.2	22.5	0.00e+00	0	43	0	2615148544	40	4399
2026-01-03 01:09:48.52	154.25	28.99	-34.7	-36.5	22.2	0.00e+00	0	43	0	2634022912	40	4572
2026-01-03 01:09:51.25	154.79	28.59	-34.8	-36.6	22.1	0.00e+00	0	43	0	2649751552	40	4613
2026-01-03 01:09:54.54	155.42	28.10	-34.6	-36.4	22.3	0.00e+00	0	43	0	2668625920	40	4496
2026-01-03 01:09:57.26	155.92	27.70	-34.4	-36.1	22.6	0.00e+00	0	44	0	2683305984	40	4379
2026-01-03 01:10:00.59	156.52	27.22	-34.3	-36.0	22.6	0.00e+00	0	44	0	2702180352	40	4334
2026-01-03 01:10:03.68	157.07	26.78	-34.5	-36.2	22.4	0.00e+00	0	44	0	2718957568	40	4435
2026-01-03 01:10:07.02	157.64	26.31	-34.7	-36.4	21.6	0.00e+00	0	43	0	2737831936	40	4539
2026-01-03 01:10:09.74	158.09	25.92	-34.7	-36.5	22.2	0.00e+00	0	44	0	2753560576	40	4583
2026-01-03 01:10:13.04	158.63	25.47	-34.8	-36.5	22.2	0.00e+00	0	44	0	2772434944	40	4586
2026-01-03 01:10:16.24	159.13	25.03	-34.8	-36.5	22.2	0.00e+00	0	44	0	2790260736	40	4573
2026-01-03 01:10:19.25	159.59	24.62	-34.8	-36.5	22.2	0.00e+00	0	44	0	2807037952	40	4587
2026-01-03 01:10:22.25	160.04	24.22	-34.8	-36.5	22.2	0.00e+00	0	44	0	2823815168	40	4592
2026-01-03 01:10:25.35	160.50	23.80	-35.0	-36.8	22.0	0.00e+00	0	44	0	2841640960	40	4728
2026-01-03 01:10:28.45	160.94	23.40	-35.0	-36.8	21.9	0.00e+00	0	43	0	2858418176	40	4741
2026-01-03 01:10:31.37	161.35	23.02	-35.1	-36.9	21.9	0.00e+00	0	43	0	2875195392	41	4526
2026-01-03 01:10:34.38	161.75	22.63	-35.3	-37.1	21.7	0.00e+00	0	43	0	2891972608	41	4633
2026-01-03 01:10:37.39	162.15	22.25	-35.5	-37.3	21.5	0.00e+00	0	43	0	2908749824	41	4735
2026-01-03 01:10:40.40	162.54	21.87	-35.5	-37.3	21.5	0.00e+00	0	44	0	2926575616	41	4752
2026-01-03 01:10:43.41	162.92	21.50	-35.5	-37.4	21.4	0.00e+00	0	44	0	2943352832	41	4770
2026-01-03 01:10:46.51	163.31	21.12	-35.6	-37.4	21.4	0.00e+00	0	43	0	2960130048	41	4772
2026-01-03 01:10:49.38	163.65	20.77	-35.6	-37.4	21.4	0.00e+00	0	44	0	2976907264	41	4783
2026-01-03 01:10:52.53	164.03	20.39	-35.6	-37.4	21.4	0.00e+00	0	44	0	2993684480	41	4781
2026-01-03 01:10:55.39	164.36	20.06	-35.8	-37.6	21.2	0.00e+00	0	44	0	3010461696	42	4610
2026-01-03 01:10:58.60	164.72	19.68	-35.8	-37.7	21.1	0.00e+00	0	44	0	3028287488	42	4668
2026-01-03 01:11:01.46	165.03	19.35	-35.9	-37.8	21.0	0.00e+00	0	44	0	3044016128	42	4710
2026-01-03 01:11:04.61	165.37	18.99	-36.0	-37.8	21.0	0.00e+00	0	44	0	3061841920	42	4754
2026-01-03 01:11:07.72	165.70	18.64	-36.1	-37.9	20.9	0.00e+00	0	44	0	3079667712	42	4803
2026-01-03 01:11:10.87	166.03	18.28	-36.1	-38.0	20.9	0.00e+00	0	44	0	3097493504	43	4570
2026-01-03 01:11:13.75	166.32	17.97	-36.3	-38.2	20.7	0.00e+00	0	44	0	3113222144	43	4653
2026-01-03 01:11:16.92	166.63	17.62	-36.4	-38.2	20.7	0.00e+00	0	44	0	3131047936	43	4705
2026-01-03 01:11:19.86	166.92	17.30	-36.5	-38.3	20.6	0.00e+00	0	44	0	3147825152	43	4754
2026-01-03 01:11:23.06	167.22	16.96	-36.6	-38.5	20.5	0.00e+00	0	43	0	3165650944	43	4821
2026-01-03 01:11:25.92	167.49	16.66	-36.6	-38.5	20.4	0.00e+00	0	43	0	3182428160	43	4840
2026-01-03 01:11:29.07	167.77	16.33	-37.0	-38.9	20.2	0.00e+00	0	44	0	3200253952	44	4770
2026-01-03 01:11:31.93	168.03	16.03	-37.0	-38.9	20.2	0.00e+00	0	43	0	3215982592	44	4770
2026-01-03 01:11:35.08	168.31	15.71	-37.2	-39.1	20.0	0.00e+00	0	43	0	3233808384	44	4893
2026-01-03 01:11:37.94	168.55	15.42	-37.2	-39.1	19.9	0.00e+00	0	44	0	3249537024	45	4645
2026-01-03 01:11:41.09	168.82	15.11	-37.4	-39.3	19.7	0.00e+00	0	43	0	3267362816	45	4759
2026-01-03 01:11:43.96	169.05	14.82	-37.3	-39.3	19.7	0.00e+00	0	43	0	3283091456	45	4742
2026-01-03 01:11:47.14	169.31	14.51	-37.5	-39.4	19.6	0.00e+00	0	43	0	3301965824	45	4813
2026-01-03 01:11:50.00	169.54	14.23	-37.5	-39.5	19.6	0.00e+00	0	43	0	3317694464	45	4829
2026-01-03 01:11:53.15	169.78	13.93	-37.6	-39.6	19.4	0.00e+00	0	44	0	3335520256	45	4913
2026-01-03 01:11:56.02	170.00	13.66	-37.6	-39.7	19.4	0.00e+00	0	44	0	3351248896	45	4946
2026-01-03 01:11:59.32	170.25	13.35	-37.7	-39.7	19.3	0.00e+00	0	44	0	3370123264	46	4703
2026-01-03 01:12:02.53	170.49	13.05	-37.8	-39.9	19.2	0.00e+00	0	43	0	3387949056	46	4764
2026-01-03 01:12:05.39	170.70	12.79	-37.9	-39.9	19.2	0.00e+00	0	44	0	3404726272	46	4787
2026-01-03 01:12:08.54	170.92	12.50	-37.9	-39.9	19.2	0.00e+00	0	44	0	3421503488	46	4779
2026-01-03 01:12:11.41	171.12	12.24	-38.0	-40.0	19.0	0.00e+00	0	44	0	3438280704	46	4864
2026-01-03 01:12:14.64	171.34	11.96	-38.0	-40.0	19.1	0.00e+00	0	44	0	3456106496	46	4844
2026-01-03 01:12:17.51	171.54	11.70	-37.9	-40.0	19.1	0.00e+00	0	44	0	3471835136	46	4821
2026-01-03 01:12:20.66	171.74	11.43	-37.9	-40.1	19.0	0.00e+00	0	44	0	3489660928	46	4884
2026-01-03 01:12:23.52	171.93	11.18	-38.0	-40.1	19.0	0.00e+00	0	44	0	3506438144	46	4912
2026-01-03 01:12:26.83	172.14	10.89	-37.8	-40.0	19.1	0.00e+00	0	44	0	3525312512	46	4832
2026-01-03 01:12:30.02	172.34	10.62	-37.9	-40.2	18.9	0.00e+00	0	44	0	3543138304	46	4942
2026-01-03 01:12:32.88	172.52	10.38	-37.8	-40.1	19.0	0.00e+00	0	44	0	3558866944	46	4893
2026-01-03 01:12:36.03	172.71	10.12	-37.8	-40.2	18.9	0.00e+00	0	44	0	3576692736	46	4935
2026-01-03 01:12:38.90	172.88	9.88	-37.9	-40.4	18.7	0.00e+00	0	44	0	3592421376	46	5051
2026-01-03 01:12:42.05	173.07	9.63	-38.1	-40.5	18.5	0.00e+00	0	44	0	3610247168	46	5122
2026-01-03 01:12:44.91	173.24	9.39	-38.2	-40.5	18.5	0.00e+00	0	44	0	3625975808	47	4866
2026-01-03 01:12:48.06	173.42	9.14	-38.3	-40.7	18.4	0.00e+00	0	44	0	3643801600	47	4941
2026-01-03 01:12:50.93	173.58	8.91	-48.1	-60.1	3.8	8.38e-01	0	44	104	3654287360	66	15406
2026-01-03 01:12:54.08	173.75	8.66	-48.7	-61.2	3.8	8.46e-01	0	44	104	3654287360	68	15659
2026-01-03 01:12:56.95	173.91	8.44	-48.8	-61.3	3.8	8.48e-01	0	43	104	3654287360	69	14960
2026-01-03 01:13:00.11	174.08	8.19	-49.2	-61.4	3.8	8.47e-01	0	44	104	3654287360	69	15130
2026-01-03 01:13:02.98	174.23	7.97	-49.3	-61.4	3.8	8.47e-01	0	44	104	3654287360	69	15100
2026-01-03 01:13:06.04	174.39	7.74	-49.1	-61.4	3.8	8.47e-01	0	44	104	3654287360	69	15196
2026-01-03 01:13:09.05	174.54	7.51	-49.2	-61.4	3.8	8.46e-01	0	44	104	3654287360	69	15124
2026-01-03 01:13:12.06	174.70	7.28	-49.3	-61.4	3.8	8.47e-01	0	44	104	3654287360	69	15177
2026-01-03 01:13:15.08	174.85	7.06	-49.3	-61.4	3.8	8.48e-01	0	44	104	3654287360	69	15131
2026-01-03 01:13:18.09	175.00	6.84	-49.0	-61.4	3.8	8.48e-01	0	44	104	3654287360	69	15064
2026-01-03 01:13:21.10	175.14	6.62	-49.0	-61.3	3.8	8.47e-01	0	44	104	3654287360	69	15046
2026-01-03 01:13:24.12	175.29	6.40	-49.0	-61.3	3.8	8.46e-01	0	44	104	3654287360	69	15025
2026-01-03 01:13:27.13	175.43	6.18	-49.0	-61.3	3.8	8.47e-01	0	44	104	3654287360	69	15047
2026-01-03 01:13:30.15	175.57	5.96	-49.0	-61.3	3.8	8.48e-01	0	44	104	3654287360	69	15047
2026-01-03 01:13:33.16	175.71	5.75	-49.0	-61.3	3.8	8.48e-01	0	44	104	3654287360	69	15044
2026-01-03 01:13:36.17	175.84	5.54	-49.0	-61.3	3.8	8.47e-01	0	44	104	3654287360	69	15043
2026-01-03 01:13:39.18	175.98	5.33	-49.0	-61.4	3.8	8.46e-01	0	44	104	3654287360	69	15080
2026-01-03 01:13:42.20	176.11	5.12	-49.0	-61.4	3.8	8.46e-01	0	44	104	3654287360	69	15080

#Closed at: 2026-01-03 01:13:45
#Recorded file [3654 MB]: D:/Data/31040_260103_040108.dat