passes_logs/2026/01/03/T1/T1__20260103_101116_NOAA_20_JPSS-1_rec.log

#Pass ID: 20260103_101116_NOAA 20 (JPSS-1)
#Satellite: NOAA 20 (JPSS-1)
#Configuration: NOAA 20
#almurnet v.1.7.20251203
#Start time: 2026-01-03 10:11:17

#Version: 2.0.20230620
#Station: T1
#Location: 37.570604 lon 55.790049 lat
#TLE: 1 43013U 17073A   26002.92460628  .00000184  00000+0  10833-3 0  9996
#TLE: 2 43013  98.7623 303.9923 0001887  56.9179 303.2178 14.19532741421028

#Time	Az	El	Level	Level2	SNR	BER	BlckErr	Temp	State	Recorded	gain1	gain2
2026-01-03 10:11:17.46	168.51	5.10	-50.1	-67.7	3.8	1.49e+00	0	39	0	0	72	26439
2026-01-03 10:11:21.47	168.58	5.39	-49.7	-67.4	3.8	1.49e+00	0	40	104	0	70	28674
2026-01-03 10:11:25.48	168.65	5.68	-49.8	-67.5	3.8	1.49e+00	0	40	104	0	70	28764
2026-01-03 10:11:29.50	168.71	5.98	-49.6	-66.9	3.8	1.49e+00	0	40	104	0	70	27057
2026-01-03 10:11:33.52	168.78	6.28	-49.5	-66.4	3.8	1.49e+00	0	40	104	0	70	25295
2026-01-03 10:11:37.54	168.85	6.58	-49.6	-66.8	3.8	1.49e+00	0	40	104	0	70	26512
2026-01-03 10:11:41.56	168.92	6.89	-50.0	-67.7	3.8	1.49e+00	0	40	104	0	70	29533
2026-01-03 10:11:45.57	169.00	7.20	-49.6	-66.8	3.8	1.49e+00	0	40	104	0	70	26725
2026-01-03 10:11:49.59	169.07	7.51	-49.4	-63.4	4.4	1.38e+00	0	40	0	0	70	17919
2026-01-03 10:11:53.60	169.14	7.83	-49.0	-59.2	7.1	1.85e-01	0	40	0	7340032	70	11037
2026-01-03 10:11:57.61	169.22	8.15	-48.9	-57.5	8.8	2.99e-02	0	41	0	14680064	69	9680
2026-01-03 10:12:01.62	169.30	8.48	-49.1	-58.9	7.3	1.06e-01	0	40	0	22020096	69	11407
2026-01-03 10:12:05.64	169.38	8.81	-49.6	-64.3	4.1	1.34e+00	0	41	0	29360128	69	21091
2026-01-03 10:12:09.65	169.46	9.14	-49.7	-61.4	5.3	1.49e+00	0	41	104	29360128	70	14297
2026-01-03 10:12:13.65	169.54	9.48	-48.3	-54.0	12.5	1.72e-04	0	41	0	32505856	68	6877
2026-01-03 10:12:17.66	169.63	9.82	-47.2	-51.3	15.0	0.00e+00	0	41	0	39845888	66	5626
2026-01-03 10:12:21.66	169.71	10.17	-46.7	-50.0	16.4	0.00e+00	0	41	0	47185920	65	5145
2026-01-03 10:12:25.66	169.80	10.52	-46.7	-50.1	16.5	0.00e+00	0	41	0	54525952	65	5179
2026-01-03 10:12:29.67	169.89	10.88	-46.5	-49.8	16.7	0.00e+00	0	41	0	62914560	65	5005
2026-01-03 10:12:33.67	169.98	11.24	-46.4	-49.6	16.8	0.00e+00	0	41	0	70254592	64	5174
2026-01-03 10:12:37.68	170.08	11.61	-46.5	-49.5	17.0	0.00e+00	0	41	0	77594624	64	5116
2026-01-03 10:12:41.69	170.17	11.99	-46.6	-49.4	17.2	0.00e+00	0	41	0	84934656	64	5090
2026-01-03 10:12:45.69	170.27	12.37	-46.6	-49.3	17.3	0.00e+00	0	41	0	92274688	64	5031
2026-01-03 10:12:49.70	170.37	12.75	-46.6	-49.2	17.4	0.00e+00	0	41	0	99614720	64	4983
2026-01-03 10:12:53.71	170.48	13.15	-46.5	-49.1	17.6	0.00e+00	0	41	0	108003328	64	4883
2026-01-03 10:12:57.71	170.58	13.54	-46.5	-49.2	17.4	0.00e+00	0	41	0	115343360	64	4966
2026-01-03 10:13:01.71	170.69	13.95	-46.4	-49.2	17.3	0.00e+00	0	41	0	122683392	64	4957
2026-01-03 10:13:05.72	170.80	14.36	-46.3	-49.0	17.5	0.00e+00	0	41	0	130023424	64	4827
2026-01-03 10:13:09.72	170.91	14.78	-46.2	-48.8	17.7	0.00e+00	0	41	0	137363456	64	4714
2026-01-03 10:13:13.73	171.03	15.20	-46.3	-48.9	18.0	0.00e+00	0	41	0	144703488	64	4774
2026-01-03 10:13:17.73	171.15	15.64	-46.1	-48.6	18.1	0.00e+00	0	41	0	153092096	64	4632
2026-01-03 10:13:21.73	171.27	16.08	-46.1	-48.6	18.1	0.00e+00	0	41	0	160432128	64	4650
2026-01-03 10:13:25.74	171.40	16.53	-46.6	-49.1	18.1	0.00e+00	0	41	0	167772160	63	5216
2026-01-03 10:13:29.75	171.53	16.99	-46.1	-48.6	17.9	0.00e+00	0	41	0	175112192	64	4650
2026-01-03 10:13:33.75	171.66	17.45	-46.0	-48.5	18.0	0.00e+00	0	41	0	182452224	63	4860
2026-01-03 10:13:37.76	171.80	17.93	-46.2	-48.7	17.9	0.00e+00	0	41	0	189792256	63	4963
2026-01-03 10:13:41.77	171.94	18.41	-46.5	-49.1	17.8	0.00e+00	0	41	0	198180864	63	5183
2026-01-03 10:13:45.77	172.08	18.91	-46.6	-49.2	17.6	0.00e+00	0	41	0	205520896	63	5239
2026-01-03 10:13:49.79	172.23	19.41	-46.7	-49.3	17.5	0.00e+00	0	41	0	212860928	64	5023
2026-01-03 10:13:53.78	172.38	19.92	-46.8	-49.5	17.3	0.00e+00	0	41	0	220200960	64	5120
2026-01-03 10:13:57.79	172.54	20.45	-46.7	-49.4	17.3	0.00e+00	0	41	0	227540992	64	5080
2026-01-03 10:14:01.79	172.71	20.99	-46.8	-49.6	17.3	0.00e+00	0	41	0	234881024	64	5179
2026-01-03 10:14:05.80	172.88	21.53	-46.9	-49.7	17.1	0.00e+00	0	41	0	243269632	64	5264
2026-01-03 10:14:09.80	173.05	22.09	-47.1	-49.9	16.8	0.00e+00	0	41	0	250609664	65	5077
2026-01-03 10:14:13.81	173.23	22.67	-47.0	-49.7	17.0	0.00e+00	0	41	0	257949696	65	4977
2026-01-03 10:14:17.82	173.42	23.25	-47.1	-49.9	16.9	0.00e+00	0	41	0	265289728	65	5051
2026-01-03 10:14:21.82	173.62	23.85	-47.0	-49.7	17.0	0.00e+00	0	41	0	272629760	65	4965
2026-01-03 10:14:25.83	173.82	24.46	-46.7	-49.4	17.3	0.00e+00	0	41	0	279969792	65	4784
2026-01-03 10:14:29.83	174.03	25.08	-46.5	-49.2	17.6	0.00e+00	0	41	0	288358400	65	4653
2026-01-03 10:14:33.83	174.24	25.72	-46.4	-49.0	17.8	0.00e+00	0	41	0	295698432	64	4822
2026-01-03 10:14:37.84	174.47	26.38	-46.7	-49.2	17.8	0.00e+00	0	41	0	303038464	64	4979
2026-01-03 10:14:41.85	174.70	27.05	-46.5	-49.0	17.8	0.00e+00	0	41	0	310378496	64	4832
2026-01-03 10:14:45.85	174.95	27.74	-46.9	-49.5	17.4	0.00e+00	0	41	0	317718528	64	5117
2026-01-03 10:14:49.86	175.20	28.45	-47.2	-50.0	16.7	0.00e+00	0	41	0	325058560	65	5151
2026-01-03 10:14:53.87	175.47	29.17	-47.6	-50.6	16.3	0.00e+00	0	41	0	333447168	65	5469
2026-01-03 10:14:57.87	175.74	29.91	-47.9	-51.0	15.8	0.00e+00	0	41	0	340787200	66	5404
2026-01-03 10:15:01.88	176.03	30.67	-48.2	-51.4	15.6	0.00e+00	0	41	0	348127232	67	5371
2026-01-03 10:15:05.88	176.34	31.45	-48.5	-51.8	15.3	0.00e+00	0	41	0	355467264	67	5614
2026-01-03 10:15:09.89	176.65	32.26	-47.9	-51.0	15.8	0.00e+00	0	41	0	362807296	67	5129
2026-01-03 10:15:13.90	176.99	33.08	-47.5	-50.3	16.5	0.00e+00	0	41	0	370147328	66	5016
2026-01-03 10:15:17.91	177.34	33.92	-47.4	-50.1	16.8	0.00e+00	0	41	0	377487360	66	4925
2026-01-03 10:15:21.91	177.71	34.79	-46.5	-49.0	17.8	0.00e+00	0	41	0	385875968	65	4586
2026-01-03 10:15:25.92	178.09	35.68	-46.3	-48.7	18.1	0.00e+00	0	41	0	393216000	64	4698
2026-01-03 10:15:29.93	178.50	36.60	-46.7	-49.2	18.0	0.00e+00	0	41	0	400556032	64	4952
2026-01-03 10:15:33.93	178.93	37.53	-46.1	-48.6	18.4	0.00e+00	0	41	0	407896064	64	4605
2026-01-03 10:15:37.93	179.39	38.50	-46.9	-49.6	17.4	0.00e+00	0	41	0	415236096	64	5171
2026-01-03 10:15:41.93	179.87	39.48	-47.1	-49.7	17.5	0.00e+00	0	41	0	422576128	65	4964
2026-01-03 10:15:45.92	180.39	40.50	-47.0	-49.6	17.3	0.00e+00	0	41	0	430964736	65	4910
2026-01-03 10:15:49.93	180.93	41.54	-47.3	-50.0	16.9	0.00e+00	0	41	0	438304768	65	5130
2026-01-03 10:15:53.93	181.52	42.61	-47.5	-50.2	17.2	0.00e+00	0	41	0	445644800	65	5254
2026-01-03 10:15:57.93	182.14	43.71	-47.7	-50.6	16.3	0.00e+00	0	41	0	452984832	66	5216
2026-01-03 10:16:01.93	182.80	44.84	-48.1	-51.0	16.3	0.00e+00	0	41	0	460324864	66	5407
2026-01-03 10:16:05.94	183.52	45.99	-48.0	-51.0	15.9	0.00e+00	0	41	0	467664896	67	5120
2026-01-03 10:16:09.95	184.29	47.18	-48.1	-51.1	15.8	0.00e+00	0	41	0	476053504	67	5206
2026-01-03 10:16:13.96	185.12	48.39	-48.2	-51.4	15.4	0.00e+00	0	41	0	483393536	67	5378
2026-01-03 10:16:17.96	186.01	49.63	-46.9	-49.5	17.6	0.00e+00	0	41	0	490733568	65	4822
2026-01-03 10:16:21.96	186.98	50.90	-45.7	-48.1	18.8	0.00e+00	0	41	0	498073600	63	4600
2026-01-03 10:16:25.97	188.04	52.19	-44.8	-47.0	19.8	0.00e+00	0	41	0	505413632	61	4559
2026-01-03 10:16:29.97	189.19	53.51	-44.0	-46.1	20.6	0.00e+00	0	41	0	512753664	60	4365
2026-01-03 10:16:33.99	190.45	54.85	-43.9	-45.9	20.9	0.00e+00	0	41	0	521142272	59	4520
2026-01-03 10:16:37.99	191.84	56.21	-44.9	-47.1	19.8	0.00e+00	0	41	0	528482304	60	4876
2026-01-03 10:16:41.99	193.36	57.58	-45.1	-47.3	19.5	0.00e+00	0	41	0	535822336	61	4727
2026-01-03 10:16:45.98	195.04	58.97	-44.4	-46.5	20.3	0.00e+00	0	41	0	543162368	60	4582
2026-01-03 10:16:49.98	196.92	60.36	-43.5	-45.4	21.4	0.00e+00	0	41	0	550502400	59	4271
2026-01-03 10:16:53.99	199.01	61.75	-43.1	-45.0	21.6	0.00e+00	0	41	0	557842432	57	4579
2026-01-03 10:16:57.99	201.34	63.14	-43.3	-45.3	21.3	0.00e+00	0	41	0	565182464	57	4713
2026-01-03 10:17:02.00	203.97	64.51	-44.4	-46.5	20.3	0.00e+00	0	41	0	573571072	59	4824
2026-01-03 10:17:06.00	206.92	65.85	-46.2	-48.6	18.3	0.00e+00	0	41	0	580911104	63	4897
2026-01-03 10:17:10.00	210.24	67.15	-46.6	-49.1	17.9	0.00e+00	0	41	0	588251136	63	5187
2026-01-03 10:17:13.99	213.98	68.39	-46.6	-49.2	17.6	0.00e+00	0	41	0	595591168	65	4669
2026-01-03 10:17:17.99	218.21	69.54	-47.5	-50.3	16.7	0.00e+00	0	41	0	602931200	65	5335
2026-01-03 10:17:22.00	222.97	70.60	-46.8	-49.5	17.4	0.00e+00	0	41	0	610271232	65	4820
2026-01-03 10:17:26.00	228.26	71.53	-47.5	-50.4	16.7	0.00e+00	0	41	0	618659840	65	5345
2026-01-03 10:17:30.01	234.10	72.30	-46.9	-49.4	17.7	0.00e+00	0	41	0	625999872	65	4797
2026-01-03 10:17:34.01	240.42	72.88	-46.3	-48.7	18.1	0.00e+00	0	41	0	633339904	64	4701
2026-01-03 10:17:38.02	247.14	73.26	-46.0	-48.3	19.1	0.00e+00	0	41	0	640679936	63	4724
2026-01-03 10:17:42.03	254.08	73.41	-45.4	-47.6	19.4	0.00e+00	0	41	0	648019968	62	4643
2026-01-03 10:17:46.03	261.03	73.33	-46.4	-48.8	18.3	0.00e+00	0	41	0	655360000	63	5011
2026-01-03 10:17:50.04	267.83	73.02	-46.7	-49.3	17.7	0.00e+00	0	41	0	663748608	64	5030
2026-01-03 10:17:54.04	274.28	72.50	-47.4	-50.1	16.8	0.00e+00	0	41	0	671088640	66	4923
2026-01-03 10:17:58.04	280.26	71.78	-47.4	-50.2	16.7	0.00e+00	0	41	0	678428672	65	5276
2026-01-03 10:18:02.04	285.71	70.90	-46.4	-48.9	18.0	0.00e+00	0	41	0	685768704	64	4788
2026-01-03 10:18:06.05	290.63	69.88	-47.5	-50.3	16.8	0.00e+00	0	41	0	693108736	66	5002
2026-01-03 10:18:10.05	295.01	68.76	-47.5	-50.4	16.5	0.00e+00	0	41	0	700448768	66	5065
2026-01-03 10:18:14.06	298.90	67.54	-47.7	-50.6	16.3	0.00e+00	0	41	0	707788800	67	4879
2026-01-03 10:18:18.06	302.35	66.26	-48.2	-51.2	15.8	0.00e+00	0	41	0	716177408	68	4978
2026-01-03 10:18:22.06	305.40	64.94	-46.5	-49.0	18.0	0.00e+00	0	41	0	723517440	65	4549
2026-01-03 10:18:26.07	308.12	63.57	-44.0	-46.0	20.7	0.00e+00	0	41	0	730857472	59	4589
2026-01-03 10:18:30.08	310.54	62.19	-41.7	-43.5	22.7	0.00e+00	0	41	0	738197504	55	4336
2026-01-03 10:18:34.08	312.69	60.81	-42.4	-44.3	22.4	0.00e+00	0	41	0	745537536	56	4442
2026-01-03 10:18:38.08	314.62	59.42	-45.0	-47.2	19.5	0.00e+00	0	41	0	752877568	61	4692
2026-01-03 10:18:42.09	316.37	58.03	-46.9	-49.7	17.2	0.00e+00	0	41	0	761266176	64	5238
2026-01-03 10:18:46.10	317.94	56.65	-44.4	-46.5	20.4	0.00e+00	0	41	0	768606208	60	4549
2026-01-03 10:18:50.10	319.36	55.29	-45.5	-47.9	19.0	0.00e+00	0	41	0	775946240	63	4503
2026-01-03 10:18:54.11	320.66	53.95	-42.7	-44.5	22.0	0.00e+00	0	41	0	783286272	57	4338
2026-01-03 10:18:58.11	321.84	52.64	-43.8	-45.7	21.3	0.00e+00	0	41	0	790626304	59	4426
2026-01-03 10:19:02.11	322.92	51.34	-44.5	-46.6	20.1	0.00e+00	0	41	0	797966336	59	4913
2026-01-03 10:19:06.11	323.92	50.07	-46.8	-49.4	17.6	0.00e+00	0	41	0	806354944	64	5097
2026-01-03 10:19:10.11	324.83	48.83	-48.0	-51.1	16.1	0.00e+00	0	41	0	813694976	66	5479
2026-01-03 10:19:14.13	325.68	47.61	-47.4	-50.2	16.8	0.00e+00	0	41	0	821035008	66	4933
2026-01-03 10:19:18.13	326.47	46.42	-46.3	-48.7	18.1	0.00e+00	0	41	0	828375040	64	4682
2026-01-03 10:19:22.13	327.20	45.27	-48.3	-51.6	15.3	0.00e+00	0	41	0	835715072	67	5511
2026-01-03 10:19:26.14	327.88	44.13	-44.9	-47.1	19.8	0.00e+00	0	41	0	843055104	61	4636
2026-01-03 10:19:30.15	328.52	43.03	-46.8	-49.5	17.3	0.00e+00	0	41	0	851443712	64	5130
2026-01-03 10:19:34.15	329.11	41.96	-46.1	-48.7	18.1	0.00e+00	0	41	0	858783744	64	4672
2026-01-03 10:19:38.16	329.67	40.91	-44.6	-46.7	20.1	0.00e+00	0	41	0	866123776	61	4426
2026-01-03 10:19:42.17	330.19	39.89	-47.9	-51.0	16.2	0.00e+00	0	41	0	873463808	66	5429
2026-01-03 10:19:46.18	330.69	38.89	-46.1	-48.7	18.2	0.00e+00	0	41	0	880803840	64	4664
2026-01-03 10:19:50.18	331.15	37.93	-45.3	-47.6	19.3	0.00e+00	0	41	0	888143872	62	4621
2026-01-03 10:19:54.18	331.59	36.99	-47.2	-49.9	17.5	0.00e+00	0	41	0	896532480	65	5085
2026-01-03 10:19:58.19	332.01	36.07	-46.9	-49.5	17.4	0.00e+00	0	41	0	903872512	65	4869
2026-01-03 10:20:02.19	332.41	35.18	-46.0	-48.4	18.4	0.00e+00	0	41	0	911212544	64	4541
2026-01-03 10:20:06.20	332.78	34.30	-45.6	-48.0	18.9	0.00e+00	0	41	0	918552576	63	4566
2026-01-03 10:20:10.21	333.14	33.46	-46.6	-49.4	17.4	1.50e-06	0	41	0	925892608	63	5348
2026-01-03 10:20:14.21	333.48	32.63	-47.4	-50.7	16.0	0.00e+00	0	41	0	933232640	65	5545
2026-01-03 10:20:18.22	333.80	31.83	-47.9	-51.0	16.3	1.29e-05	0	41	0	941621248	66	5419
2026-01-03 10:20:22.22	334.11	31.05	-47.2	-50.1	16.7	0.00e+00	0	41	0	948961280	66	4914
2026-01-03 10:20:26.23	334.41	30.28	-46.5	-49.2	17.6	0.00e+00	0	41	0	956301312	65	4685
2026-01-03 10:20:30.23	334.69	29.54	-46.3	-49.1	17.9	0.00e+00	0	41	0	963641344	64	4896
2026-01-03 10:20:34.23	334.96	28.81	-46.2	-48.8	18.0	0.00e+00	0	41	0	970981376	64	4734
2026-01-03 10:20:38.24	335.22	28.10	-46.4	-49.1	17.7	0.00e+00	0	41	0	978321408	64	4905
2026-01-03 10:20:42.25	335.47	27.41	-46.4	-48.9	18.4	0.00e+00	0	41	0	985661440	64	4781
2026-01-03 10:20:46.26	335.71	26.74	-45.1	-47.3	19.6	0.00e+00	0	41	0	994050048	62	4454
2026-01-03 10:20:50.27	335.94	26.08	-44.6	-46.9	19.8	0.00e+00	0	41	0	1001390080	61	4518
2026-01-03 10:20:54.28	336.16	25.43	-45.3	-47.7	19.1	0.00e+00	0	41	0	1008730112	61	4942
2026-01-03 10:20:58.28	336.37	24.81	-45.6	-48.0	18.9	0.00e+00	0	41	0	1016070144	61	5114
2026-01-03 10:21:02.29	336.58	24.19	-45.5	-47.9	18.8	0.00e+00	0	41	0	1023410176	62	4780
2026-01-03 10:21:06.30	336.78	23.59	-44.9	-47.3	19.4	0.00e+00	0	41	0	1030750208	61	4715
2026-01-03 10:21:10.31	336.97	23.01	-45.1	-47.4	19.3	0.00e+00	0	41	0	1039138816	61	4806
2026-01-03 10:21:14.32	337.16	22.43	-44.9	-47.3	19.4	0.00e+00	0	41	0	1046478848	61	4728
2026-01-03 10:21:18.33	337.34	21.87	-45.3	-47.7	19.4	0.00e+00	0	41	0	1053818880	61	4944
2026-01-03 10:21:22.34	337.51	21.32	-45.0	-47.4	19.3	0.00e+00	0	41	0	1061158912	61	4766
2026-01-03 10:21:26.34	337.68	20.78	-44.8	-47.3	19.4	0.00e+00	0	41	0	1068498944	61	4710
2026-01-03 10:21:30.35	337.84	20.26	-45.1	-47.6	19.2	0.00e+00	0	41	0	1075838976	61	4899
2026-01-03 10:21:34.37	338.00	19.74	-44.9	-47.1	19.5	0.00e+00	0	41	0	1084227584	61	4632
2026-01-03 10:21:38.37	338.15	19.23	-44.8	-47.0	19.6	0.00e+00	0	41	0	1091567616	61	4587
2026-01-03 10:21:42.39	338.30	18.74	-45.4	-47.7	19.4	0.00e+00	0	41	0	1098907648	61	4977
2026-01-03 10:21:46.40	338.45	18.25	-44.9	-47.2	19.4	0.00e+00	0	41	0	1106247680	61	4701
2026-01-03 10:21:50.41	338.59	17.77	-45.3	-47.7	19.0	0.00e+00	0	41	0	1113587712	61	4937
2026-01-03 10:21:54.42	338.73	17.31	-45.6	-48.1	18.6	0.00e+00	0	41	0	1121976320	61	5174
2026-01-03 10:21:58.44	338.86	16.85	-45.9	-48.6	18.1	0.00e+00	0	41	0	1129316352	62	5166
2026-01-03 10:22:02.45	338.99	16.40	-46.0	-48.8	17.9	0.00e+00	0	41	0	1136656384	62	5289
2026-01-03 10:22:06.47	339.12	15.95	-46.1	-48.9	17.7	0.00e+00	0	41	0	1143996416	62	5388
2026-01-03 10:22:10.48	339.24	15.52	-46.4	-49.2	17.5	0.00e+00	0	41	0	1151336448	64	4980
2026-01-03 10:22:14.49	339.36	15.09	-46.1	-48.9	17.7	0.00e+00	0	41	0	1158676480	63	5059
2026-01-03 10:22:18.50	339.48	14.67	-45.7	-48.7	17.8	0.00e+00	0	41	0	1167065088	63	4973
2026-01-03 10:22:22.51	339.60	14.26	-45.2	-49.0	17.6	0.00e+00	0	41	0	1174405120	61	5746
2026-01-03 10:22:26.52	339.71	13.85	-45.9	-48.9	17.7	0.00e+00	0	41	0	1181745152	62	5359
2026-01-03 10:22:30.54	339.82	13.45	-46.1	-48.9	17.5	0.00e+00	0	41	0	1189085184	62	5386
2026-01-03 10:22:34.55	339.92	13.06	-46.6	-49.5	17.2	0.00e+00	0	41	0	1196425216	64	5129
2026-01-03 10:22:38.56	340.03	12.67	-46.1	-49.1	17.2	0.00e+00	0	41	0	1203765248	64	4925
2026-01-03 10:22:42.57	340.13	12.29	-46.3	-49.4	17.2	0.00e+00	0	41	0	1212153856	64	5072
2026-01-03 10:22:46.58	340.23	11.92	-46.2	-49.2	17.2	0.00e+00	0	41	0	1219493888	64	4944
2026-01-03 10:22:50.59	340.33	11.55	-46.1	-49.0	17.3	0.00e+00	0	41	0	1226833920	64	4836
2026-01-03 10:22:54.61	340.43	11.18	-46.0	-48.9	17.4	0.00e+00	0	41	0	1234173952	63	5098
2026-01-03 10:22:58.62	340.52	10.82	-46.3	-49.2	17.4	0.00e+00	0	41	0	1241513984	63	5261
2026-01-03 10:23:02.63	340.61	10.47	-46.3	-49.2	17.2	0.00e+00	0	41	0	1249902592	63	5249
2026-01-03 10:23:06.64	340.71	10.12	-46.1	-48.9	17.4	0.00e+00	0	41	0	1257242624	63	5098
2026-01-03 10:23:10.65	340.79	9.78	-46.0	-48.9	17.5	0.00e+00	0	41	0	1264582656	63	5043
2026-01-03 10:23:14.65	340.88	9.44	-45.7	-48.8	17.6	0.00e+00	0	41	0	1271922688	63	5027
2026-01-03 10:23:18.66	340.97	9.11	-45.6	-48.9	17.4	0.00e+00	0	41	0	1279262720	63	5091
2026-01-03 10:23:22.67	341.05	8.78	-52.2	-67.9	3.8	1.49e+00	0	41	104	1281359872	75	22706
2026-01-03 10:23:26.68	341.14	8.45	-52.8	-68.2	3.8	1.49e+00	0	41	104	1281359872	76	22174
2026-01-03 10:23:30.69	341.22	8.13	-53.0	-68.2	3.8	1.49e+00	0	41	104	1281359872	76	22051
2026-01-03 10:23:34.70	341.30	7.81	-53.1	-68.2	3.8	1.49e+00	0	41	104	1281359872	76	22126
2026-01-03 10:23:38.72	341.38	7.50	-53.1	-68.2	3.8	1.49e+00	0	41	104	1281359872	77	20811
2026-01-03 10:23:42.74	341.45	7.19	-53.3	-68.3	3.8	1.49e+00	0	41	104	1281359872	77	21210
2026-01-03 10:23:46.75	341.53	6.88	-52.9	-68.2	3.8	1.49e+00	0	41	104	1281359872	77	20790
2026-01-03 10:23:50.76	341.60	6.58	-52.9	-68.2	3.8	1.49e+00	0	41	104	1281359872	77	20837
2026-01-03 10:23:54.78	341.68	6.28	-53.0	-68.2	3.8	1.49e+00	0	41	104	1281359872	77	20973
2026-01-03 10:23:58.80	341.75	5.98	-52.9	-68.1	3.8	1.49e+00	0	41	104	1281359872	77	20709
2026-01-03 10:24:02.81	341.82	5.69	-53.0	-68.3	3.8	1.49e+00	0	41	104	1281359872	77	21047
2026-01-03 10:24:06.83	341.89	5.40	-52.9	-68.2	3.8	1.49e+00	0	41	104	1281359872	77	20847
