passes_logs/2026/01/03/T1/T1__20260103_020140_NOAA_20_JPSS-1_rec.log

#Pass ID: 20260103_020140_NOAA 20 (JPSS-1)
#Satellite: NOAA 20 (JPSS-1)
#Configuration: NOAA 20
#almurnet v.1.7.20251203
#Start time: 2026-01-03 02:01:40

#Version: 2.0.20230620
#Station: T1
#Location: 37.570604 lon 55.790049 lat
#TLE: 1 43013U 17073A   26002.21975278  .00000202  00000+0  11669-3 0  9999
#TLE: 2 43013  98.7622 303.2950 0001915  57.9213 302.2149 14.19532512420923

#Time	Az	El	Level	Level2	SNR	BER	BlckErr	Temp	State	Recorded	gain1	gain2
2026-01-03 02:01:40.53	2.63	5.02	-47.8	-64.2	3.8	1.49e+00	0	40	0	0	67	23531
2026-01-03 02:01:43.54	2.30	5.17	-45.0	-64.1	3.8	1.49e+00	0	40	104	0	62	30764
2026-01-03 02:01:46.56	1.97	5.33	-45.0	-64.0	3.8	1.49e+00	0	40	104	0	62	30620
2026-01-03 02:01:49.57	1.64	5.48	-45.0	-64.0	3.8	1.49e+00	0	41	104	0	62	30475
2026-01-03 02:01:52.58	1.31	5.63	-45.0	-64.0	3.8	1.49e+00	0	40	104	0	62	30627
2026-01-03 02:01:55.60	0.97	5.78	-45.0	-64.0	3.8	1.49e+00	0	41	104	0	62	30536
2026-01-03 02:01:58.61	0.63	5.93	-45.1	-64.0	3.8	1.49e+00	0	41	104	0	62	30511
2026-01-03 02:02:01.63	0.28	6.08	-45.0	-64.0	3.8	1.49e+00	0	41	104	0	62	30633
2026-01-03 02:02:04.64	359.93	6.23	-45.1	-64.0	3.8	1.49e+00	0	41	104	0	62	30552
2026-01-03 02:02:07.65	359.58	6.38	-45.1	-64.0	3.8	1.49e+00	0	41	104	0	62	30500
2026-01-03 02:02:10.66	359.22	6.53	-45.1	-64.0	3.8	1.49e+00	0	41	104	0	62	30504
2026-01-03 02:02:13.67	358.86	6.68	-45.1	-64.0	3.8	1.49e+00	0	41	104	0	62	30538
2026-01-03 02:02:16.69	358.49	6.83	-45.1	-64.0	3.8	1.49e+00	0	41	104	0	62	30546
2026-01-03 02:02:19.70	358.12	6.98	-45.1	-64.0	3.8	1.49e+00	0	41	104	0	62	30565
2026-01-03 02:02:22.71	357.75	7.13	-45.1	-64.0	3.8	1.49e+00	0	41	104	0	62	30489
2026-01-03 02:02:25.72	357.38	7.28	-45.1	-64.0	3.8	1.49e+00	0	41	104	0	62	30673
2026-01-03 02:02:28.74	356.99	7.43	-45.1	-64.0	3.8	1.49e+00	0	42	104	0	62	30629
2026-01-03 02:02:31.75	356.61	7.58	-45.1	-64.0	3.8	1.49e+00	0	42	104	0	62	30581
2026-01-03 02:02:34.76	356.22	7.72	-45.1	-63.9	3.8	1.49e+00	0	42	104	0	62	30239
2026-01-03 02:02:37.77	355.83	7.87	-45.1	-63.8	3.8	1.49e+00	0	42	104	0	62	29759
2026-01-03 02:02:40.79	355.43	8.02	-45.1	-63.8	3.8	1.49e+00	0	42	104	0	62	29828
2026-01-03 02:02:43.80	355.03	8.17	-45.2	-63.9	3.8	1.49e+00	0	42	104	0	62	30341
2026-01-03 02:02:46.81	354.63	8.31	-45.2	-63.7	3.8	1.49e+00	0	42	104	0	62	29403
2026-01-03 02:02:49.82	354.22	8.46	-45.2	-63.7	3.8	1.49e+00	0	42	104	0	62	29464
2026-01-03 02:02:52.83	353.80	8.60	-45.1	-61.1	4.1	1.49e+00	0	42	104	0	62	21924
2026-01-03 02:02:55.85	353.39	8.75	-44.9	-57.8	5.4	6.17e-01	0	42	0	3145728	61	15897
2026-01-03 02:02:58.86	352.96	8.89	-44.6	-54.7	7.9	9.09e-02	0	42	0	9437184	61	11037
2026-01-03 02:03:01.87	352.54	9.03	-44.0	-51.7	11.0	2.40e-03	0	42	0	14680064	60	8324
2026-01-03 02:03:04.85	352.11	9.17	-44.0	-51.2	11.6	1.20e-02	0	42	0	19922944	60	7862
2026-01-03 02:03:08.00	351.66	9.32	-43.4	-48.0	14.8	0.00e+00	0	42	0	24117248	58	6089
2026-01-03 02:03:10.86	351.24	9.46	-43.6	-48.1	14.7	0.00e+00	0	42	0	29360128	58	6146
2026-01-03 02:03:14.01	350.78	9.60	-44.1	-48.0	14.8	7.00e-07	0	42	0	35651584	58	6126
2026-01-03 02:03:16.87	350.35	9.73	-44.1	-47.8	15.1	0.00e+00	0	42	0	40894464	59	5593
2026-01-03 02:03:20.02	349.88	9.88	-43.8	-47.4	15.4	0.00e+00	0	42	0	47185920	59	5383
2026-01-03 02:03:22.88	349.44	10.01	-43.2	-47.2	15.6	0.00e+00	0	42	0	52428800	58	5572
2026-01-03 02:03:26.03	348.96	10.15	-43.0	-47.2	15.6	0.00e+00	0	42	0	57671680	57	5898
2026-01-03 02:03:28.90	348.52	10.28	-42.7	-47.0	15.8	0.00e+00	0	42	0	63963136	57	5746
2026-01-03 02:03:32.04	348.03	10.42	-42.7	-46.5	16.3	0.00e+00	0	42	0	69206016	57	5448
2026-01-03 02:03:34.90	347.58	10.55	-42.5	-46.3	16.5	0.00e+00	0	42	0	74448896	57	5338
2026-01-03 02:03:38.06	347.08	10.68	-42.5	-46.4	16.5	0.00e+00	0	42	0	80740352	56	5672
2026-01-03 02:03:40.92	346.62	10.81	-42.3	-46.3	16.6	0.00e+00	0	42	0	85983232	56	5611
2026-01-03 02:03:44.07	346.11	10.94	-42.0	-46.4	16.4	0.00e+00	0	42	0	92274688	56	5689
2026-01-03 02:03:47.14	345.61	11.07	-41.7	-46.1	16.6	0.00e+00	0	42	0	97517568	55	5804
2026-01-03 02:03:50.50	345.05	11.21	-42.0	-46.0	16.7	0.00e+00	0	42	0	103809024	55	5749
2026-01-03 02:03:53.22	344.60	11.33	-42.2	-45.8	16.9	0.00e+00	0	42	0	109051904	55	5621
2026-01-03 02:03:56.51	344.05	11.46	-42.4	-45.8	16.9	0.00e+00	0	42	0	115343360	55	5600
2026-01-03 02:03:59.24	343.59	11.57	-42.3	-45.6	17.0	0.00e+00	0	42	0	120586240	55	5506
2026-01-03 02:04:02.53	343.03	11.70	-42.4	-45.5	17.2	0.00e+00	0	42	0	126877696	55	5412
2026-01-03 02:04:05.43	342.53	11.82	-42.3	-45.3	17.4	0.00e+00	0	42	0	132120576	55	5336
2026-01-03 02:04:09.36	341.85	11.97	-42.3	-45.5	17.2	0.00e+00	0	42	0	139460608	55	5424
2026-01-03 02:04:12.10	341.37	12.07	-42.4	-45.6	17.1	0.00e+00	0	42	0	144703488	55	5491
2026-01-03 02:04:16.19	340.64	12.22	-42.4	-45.8	16.9	0.00e+00	0	42	0	152043520	55	5593
2026-01-03 02:04:18.96	340.15	12.33	-42.4	-45.9	16.8	0.00e+00	0	42	0	157286400	55	5685
2026-01-03 02:04:22.86	339.45	12.47	-42.9	-46.0	16.8	0.00e+00	0	42	0	164626432	56	5437
2026-01-03 02:04:25.61	338.95	12.56	-43.0	-46.0	16.9	0.00e+00	0	42	0	169869312	56	5410
2026-01-03 02:04:29.68	338.20	12.70	-42.8	-46.1	16.8	0.00e+00	0	42	0	177209344	56	5498
2026-01-03 02:04:32.44	337.70	12.79	-42.7	-45.7	17.1	0.00e+00	0	42	0	182452224	56	5261
2026-01-03 02:04:36.33	336.97	12.92	-42.5	-45.8	17.1	0.00e+00	0	42	0	189792256	56	5295
2026-01-03 02:04:39.09	336.46	13.01	-42.4	-45.7	17.2	0.00e+00	0	42	0	195035136	56	5225
2026-01-03 02:04:43.10	335.70	13.13	-42.6	-45.4	17.5	0.00e+00	0	42	0	202375168	56	5075
2026-01-03 02:04:46.12	335.13	13.22	-42.7	-45.5	17.4	0.00e+00	0	42	0	208666624	56	5118
2026-01-03 02:04:49.08	334.56	13.31	-42.6	-45.5	17.4	0.00e+00	0	42	0	213909504	56	5118
2026-01-03 02:04:52.09	333.99	13.39	-42.5	-45.2	17.7	0.00e+00	0	42	0	219152384	56	4956
2026-01-03 02:04:55.09	333.41	13.47	-42.5	-45.2	17.7	0.00e+00	0	42	0	225443840	56	4934
2026-01-03 02:04:58.26	332.79	13.56	-42.5	-45.1	17.8	0.00e+00	0	42	0	230686720	56	4902
2026-01-03 02:05:01.56	332.15	13.64	-42.6	-45.3	17.6	0.00e+00	0	42	0	236978176	56	5026
2026-01-03 02:05:04.28	331.61	13.71	-42.4	-45.1	17.8	0.00e+00	0	42	0	242221056	56	4897
2026-01-03 02:05:07.57	330.96	13.78	-42.2	-45.0	17.9	0.00e+00	0	42	0	248512512	56	4821
2026-01-03 02:05:10.68	330.35	13.85	-42.5	-45.3	17.6	0.00e+00	0	42	0	254803968	56	5010
2026-01-03 02:05:14.00	329.68	13.93	-42.7	-45.5	17.4	0.00e+00	0	42	0	261095424	56	5126
2026-01-03 02:05:16.72	329.14	13.98	-42.8	-45.6	17.3	0.00e+00	0	42	0	265289728	56	5172
2026-01-03 02:05:20.13	328.45	14.05	-43.1	-45.8	17.1	0.00e+00	0	42	0	271581184	56	5325
2026-01-03 02:05:22.85	327.90	14.10	-43.1	-46.0	17.0	0.00e+00	0	42	0	276824064	57	5107
2026-01-03 02:05:26.28	327.21	14.16	-43.0	-46.1	16.8	0.00e+00	0	42	0	283115520	57	5166
2026-01-03 02:05:29.00	326.66	14.20	-42.9	-46.1	16.9	0.00e+00	0	42	0	288358400	57	5161
2026-01-03 02:05:32.29	325.98	14.25	-43.0	-46.2	16.7	0.00e+00	0	42	0	294649856	57	5260
2026-01-03 02:05:35.01	325.43	14.29	-42.7	-45.8	17.1	0.00e+00	0	42	0	299892736	57	5024
2026-01-03 02:05:38.31	324.75	14.34	-42.5	-45.6	17.4	0.00e+00	0	42	0	306184192	57	4872
2026-01-03 02:05:41.03	324.19	14.37	-42.5	-45.4	17.5	0.00e+00	0	42	0	311427072	56	5100
2026-01-03 02:05:44.33	323.51	14.41	-42.8	-45.5	17.4	0.00e+00	0	42	0	317718528	56	5153
2026-01-03 02:05:47.07	322.94	14.43	-42.8	-45.5	17.5	0.00e+00	0	42	0	322961408	56	5106
2026-01-03 02:05:51.10	322.11	14.47	-42.7	-45.6	17.3	0.00e+00	0	42	0	330301440	56	5214
2026-01-03 02:05:53.83	321.54	14.49	-42.6	-45.6	17.4	0.00e+00	0	42	0	335544320	56	5172
2026-01-03 02:05:57.58	320.76	14.51	-42.7	-45.4	17.5	0.00e+00	0	42	0	341835776	56	5098
2026-01-03 02:06:00.53	320.15	14.52	-42.8	-45.6	17.3	0.00e+00	0	42	0	348127232	56	5197
2026-01-03 02:06:04.30	319.36	14.54	-42.7	-45.6	17.3	0.00e+00	0	42	0	355467264	56	5176
2026-01-03 02:06:07.05	318.79	14.55	-42.6	-45.5	17.4	0.00e+00	0	42	0	359661568	56	5109
2026-01-03 02:06:10.87	317.99	14.55	-42.9	-45.6	17.3	0.00e+00	0	42	0	367001600	56	5185
2026-01-03 02:06:13.61	317.42	14.55	-42.8	-45.5	17.4	0.00e+00	0	42	0	372244480	56	5150
2026-01-03 02:06:17.73	316.56	14.54	-42.7	-45.6	17.4	0.00e+00	0	42	0	379584512	56	5165
2026-01-03 02:06:20.48	315.99	14.54	-42.9	-45.7	17.2	0.00e+00	0	42	0	384827392	56	5251
2026-01-03 02:06:24.29	315.19	14.52	-42.9	-45.6	17.3	0.00e+00	0	42	0	392167424	56	5188
2026-01-03 02:06:27.06	314.61	14.51	-42.8	-45.4	17.5	0.00e+00	0	42	0	397410304	56	5085
2026-01-03 02:06:31.12	313.77	14.48	-42.8	-45.6	17.3	0.00e+00	0	42	0	404750336	56	5180
2026-01-03 02:06:33.85	313.20	14.46	-42.9	-45.9	17.1	0.00e+00	0	42	0	409993216	56	5375
2026-01-03 02:06:37.61	312.42	14.43	-43.1	-46.1	16.8	0.00e+00	0	42	0	417333248	56	5488
2026-01-03 02:06:40.57	311.81	14.40	-43.2	-46.2	16.7	0.00e+00	0	42	0	422576128	57	5247
2026-01-03 02:06:43.72	311.16	14.36	-43.2	-46.0	16.9	0.00e+00	0	42	0	428867584	57	5132
2026-01-03 02:06:46.85	310.52	14.32	-43.2	-46.0	16.9	0.00e+00	0	42	0	435159040	57	5102
2026-01-03 02:06:49.72	309.93	14.28	-43.3	-46.3	16.7	0.00e+00	0	42	0	440401920	57	5292
2026-01-03 02:06:52.87	309.28	14.24	-43.4	-46.4	16.5	0.00e+00	0	42	0	445644800	57	5369
2026-01-03 02:06:55.82	308.68	14.19	-43.2	-46.1	16.8	0.00e+00	0	42	0	451936256	57	5176
2026-01-03 02:06:59.03	308.03	14.14	-43.2	-46.0	16.9	0.00e+00	0	42	0	457179136	57	5114
2026-01-03 02:07:01.88	307.45	14.09	-43.2	-46.0	16.9	0.00e+00	0	42	0	462422016	57	5128
2026-01-03 02:07:05.17	306.79	14.03	-43.2	-46.0	16.9	0.00e+00	0	42	0	468713472	57	5141
2026-01-03 02:07:07.89	306.24	13.97	-43.1	-45.9	17.0	0.00e+00	0	42	0	473956352	57	5050
2026-01-03 02:07:11.19	305.58	13.90	-43.1	-45.9	17.0	0.00e+00	0	42	0	480247808	57	5070
2026-01-03 02:07:13.99	305.02	13.84	-43.3	-46.1	16.8	0.00e+00	0	42	0	485490688	57	5194
2026-01-03 02:07:17.29	304.36	13.77	-43.2	-46.1	16.8	0.00e+00	0	42	0	491782144	57	5181
2026-01-03 02:07:20.00	303.83	13.70	-43.1	-45.9	16.9	0.00e+00	0	42	0	497025024	57	5081
2026-01-03 02:07:23.30	303.18	13.62	-43.2	-46.1	16.8	0.00e+00	0	42	0	503316480	57	5171
2026-01-03 02:07:26.02	302.65	13.55	-43.4	-46.3	16.6	0.00e+00	0	42	0	508559360	57	5284
2026-01-03 02:07:29.32	302.00	13.46	-43.6	-46.5	16.4	0.00e+00	0	42	0	513802240	57	5424
2026-01-03 02:07:32.04	301.48	13.39	-43.6	-46.4	16.4	0.00e+00	0	42	0	519045120	58	5099
2026-01-03 02:07:35.33	300.85	13.30	-43.6	-46.5	16.4	0.00e+00	0	42	0	525336576	58	5121
2026-01-03 02:07:38.37	300.26	13.21	-43.4	-46.3	16.6	0.00e+00	0	42	0	531628032	58	4992
2026-01-03 02:07:41.66	299.64	13.11	-43.5	-46.4	16.5	0.00e+00	0	42	0	537919488	58	5044
2026-01-03 02:07:44.38	299.12	13.02	-43.7	-46.6	16.3	0.00e+00	0	42	0	542113792	58	5202
2026-01-03 02:07:47.68	298.51	12.92	-43.8	-46.7	16.2	0.00e+00	0	42	0	548405248	58	5260
2026-01-03 02:07:50.49	297.98	12.83	-43.5	-46.4	16.5	0.00e+00	0	42	0	553648128	58	5077
2026-01-03 02:07:53.86	297.36	12.72	-43.2	-46.0	16.9	0.00e+00	0	42	0	559939584	58	4821
2026-01-03 02:07:56.58	296.86	12.62	-43.1	-45.9	17.0	0.00e+00	0	42	0	565182464	58	4760
2026-01-03 02:07:59.87	296.26	12.51	-43.4	-46.3	16.6	0.00e+00	0	42	0	571473920	58	4995
2026-01-03 02:08:02.60	295.76	12.41	-43.2	-46.0	16.8	0.00e+00	0	42	0	576716800	58	4860
2026-01-03 02:08:05.89	295.17	12.30	-43.3	-46.0	16.8	0.00e+00	0	42	0	583008256	58	4870
2026-01-03 02:08:08.61	294.68	12.20	-43.2	-46.0	16.9	0.00e+00	0	42	0	588251136	58	4837
2026-01-03 02:08:12.17	294.05	12.06	-43.2	-45.9	16.9	0.00e+00	0	42	0	594542592	58	4814
2026-01-03 02:08:14.95	293.57	11.96	-43.4	-46.2	16.6	0.00e+00	0	42	0	599785472	58	4969
2026-01-03 02:08:18.25	292.99	11.83	-43.2	-46.0	16.9	0.00e+00	0	42	0	606076928	58	4833
2026-01-03 02:08:20.97	292.52	11.72	-43.1	-45.8	17.1	0.00e+00	0	42	0	611319808	58	4717
2026-01-03 02:08:24.19	291.97	11.59	-42.9	-45.6	17.3	0.00e+00	0	42	0	617611264	57	4871
2026-01-03 02:08:27.36	291.43	11.47	-43.1	-45.8	17.0	0.00e+00	0	42	0	622854144	57	5022
2026-01-03 02:08:30.37	290.92	11.34	-43.5	-46.3	16.5	0.00e+00	0	42	0	629145600	57	5312
2026-01-03 02:08:33.38	290.42	11.22	-43.7	-46.6	16.2	0.00e+00	0	42	0	634388480	58	5214
2026-01-03 02:08:36.39	289.92	11.09	-43.8	-46.7	16.1	0.00e+00	0	42	0	639631360	58	5255
2026-01-03 02:08:39.39	289.43	10.97	-43.8	-46.8	16.1	0.00e+00	0	42	0	645922816	58	5310
2026-01-03 02:08:42.48	288.92	10.83	-44.0	-47.1	15.7	0.00e+00	0	42	0	651165696	58	5525
2026-01-03 02:08:45.34	288.46	10.71	-44.3	-47.5	15.3	7.00e-07	0	42	0	656408576	59	5436
2026-01-03 02:08:48.50	287.96	10.57	-44.5	-47.8	15.0	7.00e-07	0	42	0	662700032	59	5638
2026-01-03 02:08:51.45	287.49	10.44	-44.4	-47.8	15.1	7.00e-07	0	42	0	667942912	59	5599
2026-01-03 02:08:54.60	287.00	10.30	-44.5	-47.9	15.0	0.00e+00	0	42	0	674234368	59	5659
2026-01-03 02:08:57.46	286.55	10.17	-44.7	-48.2	14.6	0.00e+00	0	42	0	679477248	60	5574
2026-01-03 02:09:00.61	286.07	10.03	-44.8	-48.4	14.5	0.00e+00	0	42	0	685768704	60	5668
2026-01-03 02:09:03.80	285.58	9.88	-44.8	-48.4	14.4	1.50e-06	0	42	0	691011584	60	5711
2026-01-03 02:09:06.88	285.11	9.74	-45.0	-48.7	14.1	1.50e-06	0	42	0	697303040	60	5896
2026-01-03 02:09:10.03	284.64	9.60	-45.1	-48.9	13.9	7.00e-07	0	41	0	703594496	60	6047
2026-01-03 02:09:12.89	284.22	9.46	-45.2	-49.1	13.7	5.30e-06	0	42	0	708837376	61	5812
2026-01-03 02:09:16.04	283.76	9.32	-45.2	-49.0	13.7	2.20e-06	0	42	0	714080256	61	5784
2026-01-03 02:09:18.91	283.34	9.18	-45.3	-49.2	13.6	7.60e-06	0	42	0	719323136	61	5860
2026-01-03 02:09:22.06	282.89	9.03	-45.2	-49.0	13.8	4.50e-06	0	42	0	725614592	61	5779
2026-01-03 02:09:25.10	282.45	8.89	-49.1	-64.4	3.8	1.49e+00	0	42	104	726663168	68	22579
2026-01-03 02:09:28.11	282.03	8.74	-49.4	-64.5	3.8	1.49e+00	0	42	104	726663168	69	21744
2026-01-03 02:09:31.54	281.55	8.58	-49.4	-64.6	3.8	1.49e+00	0	42	104	726663168	69	21877
2026-01-03 02:09:34.30	281.17	8.45	-49.4	-64.6	3.8	1.49e+00	0	42	104	726663168	69	21954
2026-01-03 02:09:37.60	280.72	8.29	-49.4	-64.6	3.8	1.49e+00	0	42	104	726663168	69	21906
2026-01-03 02:09:40.34	280.35	8.15	-49.3	-64.6	3.8	1.49e+00	0	42	104	726663168	69	21839
2026-01-03 02:09:43.77	279.89	7.99	-49.2	-64.5	3.8	1.49e+00	0	42	104	726663168	69	21741
2026-01-03 02:09:46.56	279.52	7.85	-49.1	-64.5	3.8	1.49e+00	0	42	104	726663168	69	21702
2026-01-03 02:09:49.86	279.09	7.69	-49.1	-64.5	3.8	1.49e+00	0	42	104	726663168	69	21721
2026-01-03 02:09:52.58	278.74	7.55	-49.1	-64.5	3.8	1.49e+00	0	42	104	726663168	69	21689
2026-01-03 02:09:55.88	278.31	7.39	-49.1	-64.5	3.8	1.49e+00	0	42	104	726663168	69	21620
2026-01-03 02:09:58.61	277.97	7.25	-49.1	-64.5	3.8	1.49e+00	0	42	104	726663168	69	21613
2026-01-03 02:10:01.91	277.55	7.09	-49.1	-64.5	3.8	1.49e+00	0	42	104	726663168	69	21602
2026-01-03 02:10:04.63	277.21	6.96	-49.1	-64.5	3.8	1.49e+00	0	42	104	726663168	69	21667
2026-01-03 02:10:07.94	276.81	6.79	-49.1	-64.5	3.8	1.49e+00	0	42	104	726663168	69	21618
2026-01-03 02:10:10.66	276.48	6.66	-49.1	-64.5	3.8	1.49e+00	0	42	104	726663168	69	21661
2026-01-03 02:10:13.96	276.08	6.49	-49.1	-64.5	3.8	1.49e+00	0	42	104	726663168	69	21559
2026-01-03 02:10:16.68	275.75	6.35	-49.1	-64.5	3.8	1.49e+00	0	42	104	726663168	69	21602
2026-01-03 02:10:19.98	275.36	6.19	-49.1	-64.5	3.8	1.49e+00	0	42	104	726663168	69	21645
2026-01-03 02:10:22.71	275.05	6.05	-49.1	-64.5	3.8	1.49e+00	0	42	104	726663168	69	21625
2026-01-03 02:10:26.01	274.66	5.89	-49.1	-64.5	3.8	1.49e+00	0	42	104	726663168	69	21641
2026-01-03 02:10:28.73	274.35	5.75	-49.1	-64.5	3.8	1.49e+00	0	41	104	726663168	69	21553
2026-01-03 02:10:32.03	273.98	5.59	-49.1	-64.5	3.8	1.49e+00	0	42	104	726663168	69	21509
2026-01-03 02:10:34.76	273.67	5.45	-49.1	-64.5	3.8	1.49e+00	0	42	104	726663168	69	21600
2026-01-03 02:10:38.06	273.31	5.28	-49.1	-64.5	3.8	1.49e+00	0	41	104	726663168	69	21604
2026-01-03 02:10:40.80	273.01	5.15	-49.1	-64.5	3.8	1.49e+00	0	42	104	726663168	69	21579
2026-01-03 02:10:44.10	272.65	4.98	-49.1	-64.4	3.8	1.49e+00	0	42	104	726663168	69	21495

#Closed at: 2026-01-03 02:10:44
#Recorded file [726 MB]: D:/Data/31040_260103_050140.dat