passes_logs/2026/01/03/T1/T1__20260103_194158_KHAYYAM_rec.log

#Pass ID: 20260103_194158_KHAYYAM
#Satellite: KHAYYAM
#Configuration: KHAYYAM_480M
#almurnet v.1.7.20251203
#Start time: 2026-01-03 19:42:00

#Version: 2.0.20230620
#Station: T1
#Location: 37.570604 lon 55.790049 lat
#TLE: 1 53370U 22096A   26003.01253182  .00010523  00000+0  42828-3 0  9997
#TLE: 2 53370  97.3571 270.2359 0001218  82.0403 278.0973 15.24686356189414

#Time	Az	El	Level	Level2	SNR	BER	BlckErr	Temp	State	Recorded	gain1	gain2
2026-01-03 19:42:00.68	45.78	5.15	-55.2	-59.4	3.5	0.00e+00	0	45	0	0	82	22757
2026-01-03 19:42:02.68	46.13	5.25	-55.2	-59.4	3.7	0.00e+00	0	45	104	0	81	24116
2026-01-03 19:42:04.69	46.47	5.35	-55.2	-59.4	3.7	0.00e+00	0	45	104	0	81	24127
2026-01-03 19:42:06.70	46.83	5.44	-55.2	-59.4	3.7	0.00e+00	0	45	104	0	81	24117
2026-01-03 19:42:08.71	47.18	5.54	-55.2	-59.4	3.7	0.00e+00	0	46	104	0	81	24223
2026-01-03 19:42:10.72	47.54	5.63	-55.3	-59.5	3.7	0.00e+00	0	46	104	0	81	24256
2026-01-03 19:42:12.73	47.90	5.73	-55.3	-59.5	3.7	0.00e+00	0	46	104	0	81	24317
2026-01-03 19:42:14.74	48.26	5.82	-55.3	-59.5	3.7	0.00e+00	0	46	104	0	81	24317
2026-01-03 19:42:16.74	48.63	5.92	-55.3	-59.5	3.7	0.00e+00	0	46	104	0	81	24419
2026-01-03 19:42:18.75	49.00	6.01	-55.3	-59.5	3.7	0.00e+00	0	46	104	0	81	24367
2026-01-03 19:42:20.76	49.37	6.11	-55.3	-59.5	3.7	0.00e+00	0	46	104	0	81	24401
2026-01-03 19:42:22.77	49.75	6.20	-55.2	-59.4	3.7	0.00e+00	0	47	104	0	81	24150
2026-01-03 19:42:24.78	50.12	6.29	-55.2	-59.5	3.7	0.00e+00	0	47	104	0	81	24265
2026-01-03 19:42:26.79	50.51	6.39	-55.2	-59.4	3.7	0.00e+00	0	47	104	0	81	24179
2026-01-03 19:42:28.79	50.89	6.48	-55.2	-59.4	3.7	0.00e+00	0	47	104	0	81	24149
2026-01-03 19:42:30.80	51.28	6.57	-55.2	-59.4	3.7	0.00e+00	0	47	104	0	81	24065
2026-01-03 19:42:32.81	51.67	6.66	-55.2	-59.3	3.7	0.00e+00	0	47	104	0	81	23963
2026-01-03 19:42:34.82	52.06	6.75	-55.1	-59.3	3.7	0.00e+00	0	47	104	0	81	23870
2026-01-03 19:42:36.83	52.46	6.84	-55.1	-59.3	3.7	0.00e+00	0	47	104	0	81	23934
2026-01-03 19:42:38.84	52.86	6.93	-55.1	-59.3	3.7	0.00e+00	0	47	104	0	81	23780
2026-01-03 19:42:40.85	53.26	7.02	-55.1	-59.3	3.7	0.00e+00	0	48	104	0	81	23888
2026-01-03 19:42:42.86	53.67	7.11	-55.1	-59.3	3.7	0.00e+00	0	47	104	0	81	23834
2026-01-03 19:42:44.87	54.08	7.20	-55.1	-59.3	3.7	0.00e+00	0	48	104	0	81	23866
2026-01-03 19:42:46.87	54.49	7.29	-55.1	-59.3	3.7	0.00e+00	0	48	104	0	81	23800
2026-01-03 19:42:48.88	54.90	7.37	-55.1	-59.3	3.7	0.00e+00	0	48	104	0	81	23778
2026-01-03 19:42:50.89	55.32	7.46	-55.1	-59.3	3.7	0.00e+00	0	48	104	0	81	23833
2026-01-03 19:42:52.90	55.74	7.54	-55.1	-59.2	3.7	0.00e+00	0	48	104	0	81	23658
2026-01-03 19:42:54.91	56.17	7.63	-55.1	-59.3	3.7	0.00e+00	0	48	104	0	81	23742
2026-01-03 19:42:56.92	56.59	7.71	-55.0	-59.3	3.7	0.00e+00	0	48	104	0	81	23693
2026-01-03 19:42:58.93	57.02	7.80	-55.1	-59.3	3.7	0.00e+00	0	48	104	0	81	23693
2026-01-03 19:43:00.94	57.46	7.88	-55.1	-59.3	3.7	0.00e+00	0	48	104	0	81	23763
2026-01-03 19:43:02.94	57.89	7.96	-55.1	-59.3	3.7	0.00e+00	0	49	104	0	81	23791
2026-01-03 19:43:04.95	58.33	8.04	-55.1	-59.2	3.7	0.00e+00	0	49	104	0	81	23657
2026-01-03 19:43:06.96	58.77	8.12	-55.1	-59.3	3.7	0.00e+00	0	49	104	0	81	23930
2026-01-03 19:43:08.97	59.22	8.20	-55.1	-59.3	3.7	0.00e+00	0	49	104	0	81	23831
2026-01-03 19:43:10.98	59.67	8.27	-55.1	-59.3	3.7	0.00e+00	0	49	104	0	81	23820
2026-01-03 19:43:12.99	60.12	8.35	-55.1	-59.3	3.7	0.00e+00	0	49	104	0	81	23924
2026-01-03 19:43:14.99	60.57	8.43	-55.1	-59.3	3.7	0.00e+00	0	49	104	0	81	23781
2026-01-03 19:43:17.00	61.03	8.50	-55.1	-59.3	3.7	0.00e+00	0	49	104	0	81	23775
2026-01-03 19:43:19.01	61.49	8.57	-55.1	-59.3	3.7	0.00e+00	0	49	104	0	81	23750
2026-01-03 19:43:21.02	61.95	8.65	-55.1	-59.3	3.7	0.00e+00	0	49	104	0	81	23734
2026-01-03 19:43:23.03	62.42	8.72	-55.0	-59.2	3.7	0.00e+00	0	49	104	0	81	23648
2026-01-03 19:43:25.04	62.89	8.79	-55.0	-59.2	3.7	0.00e+00	0	49	104	0	81	23684
2026-01-03 19:43:27.05	63.36	8.86	-55.1	-59.2	3.7	0.00e+00	0	49	104	0	81	23683
2026-01-03 19:43:29.06	63.83	8.92	-55.1	-59.3	3.7	0.00e+00	0	49	104	0	81	23738
2026-01-03 19:43:31.06	64.31	8.99	-55.1	-59.3	3.7	0.00e+00	0	49	104	0	81	23766
2026-01-03 19:43:33.07	64.79	9.06	-54.8	-58.5	3.7	0.00e+00	0	49	104	0	81	21754
2026-01-03 19:43:35.08	65.27	9.12	-55.4	-59.5	3.7	0.00e+00	0	49	104	0	81	24349
2026-01-03 19:43:37.09	65.75	9.18	-55.1	-58.8	3.7	0.00e+00	0	49	104	0	81	22391
2026-01-03 19:43:39.09	66.24	9.24	-54.8	-59.1	3.7	0.00e+00	0	49	104	0	81	23293
2026-01-03 19:43:41.10	66.73	9.30	-55.1	-59.8	3.7	0.00e+00	0	49	104	0	81	25222
2026-01-03 19:43:43.10	67.22	9.36	-55.6	-60.2	3.7	0.00e+00	0	49	104	0	81	26523
2026-01-03 19:43:45.11	67.71	9.42	-55.3	-59.5	3.7	0.00e+00	0	49	104	0	81	24433
2026-01-03 19:43:47.11	68.21	9.48	-55.5	-59.7	3.7	0.00e+00	0	49	104	0	81	25048
2026-01-03 19:43:49.12	68.71	9.53	-55.7	-59.9	3.7	0.00e+00	0	49	104	0	82	24002
2026-01-03 19:43:51.13	69.21	9.58	-55.5	-59.8	3.7	0.00e+00	0	49	104	0	82	23798
2026-01-03 19:43:53.13	69.71	9.63	-55.8	-60.3	3.7	0.00e+00	0	49	104	0	82	25147
2026-01-03 19:43:55.14	70.22	9.68	-55.6	-60.1	3.7	0.00e+00	0	50	104	0	82	24798
2026-01-03 19:43:57.14	70.72	9.73	-55.7	-60.2	3.7	0.00e+00	0	49	104	0	82	24858
2026-01-03 19:43:59.15	71.23	9.78	-55.6	-60.1	3.7	0.00e+00	0	50	104	0	82	24567
2026-01-03 19:44:01.16	71.75	9.82	-55.4	-59.9	3.7	0.00e+00	0	49	104	0	82	23996
2026-01-03 19:44:03.17	72.26	9.87	-55.3	-59.6	3.7	0.00e+00	0	49	104	0	82	23309
2026-01-03 19:44:05.17	72.77	9.91	-54.9	-58.9	3.7	0.00e+00	0	49	104	0	81	22797
2026-01-03 19:44:07.18	73.29	9.95	-55.1	-58.9	3.7	0.00e+00	0	50	104	0	81	22810
2026-01-03 19:44:09.19	73.81	9.99	-55.1	-58.9	3.7	0.00e+00	0	50	104	0	81	22743
2026-01-03 19:44:11.19	74.33	10.02	-54.6	-58.2	3.7	0.00e+00	0	50	104	0	81	20991
2026-01-03 19:44:13.20	74.85	10.06	-54.6	-58.1	3.7	0.00e+00	0	50	104	0	81	20637
2026-01-03 19:44:15.21	75.38	10.09	-54.6	-58.3	3.7	0.00e+00	0	50	104	0	81	21333
2026-01-03 19:44:17.21	75.90	10.12	-54.9	-59.1	3.7	0.00e+00	0	50	104	0	81	23393
2026-01-03 19:44:19.22	76.43	10.15	-54.7	-58.6	3.7	0.00e+00	0	50	104	0	81	22010
2026-01-03 19:44:21.23	76.96	10.18	-54.6	-58.5	3.7	0.00e+00	0	50	104	0	81	21825
2026-01-03 19:44:23.23	77.48	10.21	-55.3	-59.3	3.7	0.00e+00	0	50	104	0	81	23770
2026-01-03 19:44:25.24	78.02	10.23	-54.8	-58.5	3.7	0.00e+00	0	50	104	0	81	21712
2026-01-03 19:44:27.25	78.55	10.26	-54.8	-58.7	3.7	0.00e+00	0	50	104	0	81	22187
2026-01-03 19:44:29.25	79.08	10.28	-55.3	-59.5	3.7	0.00e+00	0	50	104	0	81	24246
2026-01-03 19:44:31.26	79.61	10.29	-55.2	-59.2	3.7	0.00e+00	0	50	104	0	81	23453
2026-01-03 19:44:33.27	80.15	10.31	-55.6	-60.0	3.7	0.00e+00	0	50	104	0	81	25833
2026-01-03 19:44:35.27	80.68	10.33	-55.2	-59.5	3.7	0.00e+00	0	50	104	0	81	24463
2026-01-03 19:44:37.28	81.22	10.34	-55.0	-59.2	3.7	0.00e+00	0	50	104	0	81	23648
2026-01-03 19:44:39.29	81.75	10.35	-54.9	-58.9	3.7	0.00e+00	0	50	104	0	81	22886
2026-01-03 19:44:41.29	82.29	10.36	-55.0	-59.0	3.7	0.00e+00	0	50	104	0	81	22995
2026-01-03 19:44:43.30	82.83	10.37	-55.2	-59.5	3.7	0.00e+00	0	50	104	0	81	24446
2026-01-03 19:44:45.31	83.36	10.37	-54.9	-59.7	3.7	0.00e+00	0	50	104	0	81	25017
2026-01-03 19:44:47.31	83.90	10.38	-54.7	-59.7	3.7	0.00e+00	0	50	104	0	80	26312
2026-01-03 19:44:49.32	84.44	10.38	-54.6	-59.5	3.7	0.00e+00	0	50	104	0	80	25967
2026-01-03 19:44:51.33	84.98	10.38	-55.1	-60.0	3.7	0.00e+00	0	50	104	0	80	27265
2026-01-03 19:44:53.33	85.51	10.38	-55.1	-60.0	3.7	0.00e+00	0	50	104	0	81	25770
2026-01-03 19:44:55.34	86.05	10.37	-55.0	-59.6	3.7	0.00e+00	0	50	104	0	81	24731
2026-01-03 19:44:57.34	86.59	10.37	-55.1	-59.7	3.7	0.00e+00	0	50	104	0	81	25049
2026-01-03 19:44:59.35	87.12	10.36	-55.3	-59.6	3.7	0.00e+00	0	50	104	0	81	24788
2026-01-03 19:45:01.36	87.66	10.35	-55.4	-59.7	3.7	0.00e+00	0	50	104	0	81	24859
2026-01-03 19:45:03.36	88.20	10.34	-55.4	-59.9	3.7	0.00e+00	0	50	104	0	81	25421
2026-01-03 19:45:05.37	88.73	10.32	-55.5	-60.1	3.7	0.00e+00	0	50	104	0	81	26140
2026-01-03 19:45:07.38	89.27	10.31	-55.4	-60.1	3.7	0.00e+00	0	50	104	0	81	26137
2026-01-03 19:45:09.39	89.80	10.29	-55.4	-60.2	3.7	0.00e+00	0	50	104	0	81	26461
2026-01-03 19:45:11.39	90.34	10.27	-55.8	-60.3	3.7	0.00e+00	0	50	104	0	82	25285
2026-01-03 19:45:13.40	90.87	10.25	-55.7	-60.1	3.7	0.00e+00	0	50	104	0	82	24687
2026-01-03 19:45:15.40	91.40	10.23	-55.2	-59.6	3.7	0.00e+00	0	50	104	0	82	23376
2026-01-03 19:45:17.41	91.93	10.20	-55.3	-59.8	3.7	0.00e+00	0	50	104	0	82	23851
2026-01-03 19:45:19.42	92.46	10.17	-55.7	-60.3	3.7	0.00e+00	0	50	104	0	82	25249
2026-01-03 19:45:21.42	92.99	10.14	-55.6	-60.2	3.7	0.00e+00	0	50	104	0	82	24975
2026-01-03 19:45:23.43	93.52	10.11	-55.7	-60.2	3.7	0.00e+00	0	50	104	0	82	25019
2026-01-03 19:45:25.44	94.04	10.08	-55.7	-60.2	3.7	0.00e+00	0	50	104	0	82	24886
2026-01-03 19:45:27.45	94.57	10.05	-55.5	-60.0	3.7	0.00e+00	0	50	104	0	82	24302
2026-01-03 19:45:29.45	95.09	10.01	-55.4	-59.9	3.7	0.00e+00	0	50	104	0	82	24146
2026-01-03 19:45:31.46	95.61	9.97	-55.6	-60.1	3.7	0.00e+00	0	50	104	0	82	24721
2026-01-03 19:45:33.47	96.13	9.94	-55.8	-60.3	3.7	0.00e+00	0	50	104	0	82	25186
2026-01-03 19:45:35.48	96.65	9.89	-55.8	-60.3	3.7	0.00e+00	0	50	104	0	82	25280
2026-01-03 19:45:37.48	97.17	9.85	-55.7	-60.2	3.7	0.00e+00	0	50	104	0	82	24847
2026-01-03 19:45:39.49	97.68	9.81	-55.8	-60.3	3.7	0.00e+00	0	50	104	0	82	25096
2026-01-03 19:45:41.50	98.20	9.76	-55.9	-60.3	3.7	0.00e+00	0	50	104	0	82	25384
2026-01-03 19:45:43.51	98.71	9.71	-56.0	-60.4	3.7	0.00e+00	0	50	104	0	82	25545
2026-01-03 19:45:45.51	99.22	9.67	-55.9	-60.4	3.7	0.00e+00	0	50	104	0	82	25409
2026-01-03 19:45:47.51	99.72	9.62	-56.0	-60.4	3.7	0.00e+00	0	50	104	0	82	25600
2026-01-03 19:45:49.52	100.23	9.56	-55.8	-60.3	3.7	0.00e+00	0	50	104	0	82	25173
2026-01-03 19:45:51.53	100.73	9.51	-55.8	-60.3	3.7	0.00e+00	0	50	104	0	82	25328
2026-01-03 19:45:53.53	101.23	9.45	-55.8	-60.3	3.7	0.00e+00	0	50	104	0	82	25188
2026-01-03 19:45:55.54	101.73	9.40	-55.7	-60.2	3.7	0.00e+00	0	50	104	0	82	25040
2026-01-03 19:45:57.55	102.22	9.34	-55.8	-60.2	3.7	0.00e+00	0	50	104	0	82	25083
2026-01-03 19:45:59.55	102.71	9.28	-55.7	-60.1	3.7	0.00e+00	0	50	104	0	82	24746
2026-01-03 19:46:01.56	103.21	9.22	-55.7	-60.2	3.7	0.00e+00	0	50	104	0	82	24962
2026-01-03 19:46:03.57	103.69	9.16	-55.8	-60.2	3.7	0.00e+00	0	50	104	0	82	25033
2026-01-03 19:46:05.57	104.18	9.09	-55.8	-60.3	3.7	0.00e+00	0	50	104	0	82	25207
2026-01-03 19:46:07.58	104.66	9.03	-55.8	-60.4	3.7	0.00e+00	0	50	104	0	82	25460
2026-01-03 19:46:09.59	105.14	8.96	-56.4	-60.8	3.7	0.00e+00	0	50	104	0	83	25365
2026-01-03 19:46:11.60	105.62	8.89	-56.4	-60.8	3.7	0.00e+00	0	51	104	0	83	25301
2026-01-03 19:46:13.61	106.10	8.83	-56.3	-60.9	3.7	0.00e+00	0	50	104	0	83	25665
2026-01-03 19:46:15.62	106.57	8.76	-55.7	-60.6	3.7	0.00e+00	0	50	104	0	82	26195
2026-01-03 19:46:17.62	107.04	8.68	-55.5	-60.4	3.7	0.00e+00	0	51	104	0	82	25510
2026-01-03 19:46:19.63	107.51	8.61	-55.8	-60.7	3.7	0.00e+00	0	50	104	0	82	26451
2026-01-03 19:46:21.64	107.97	8.54	-56.3	-61.0	3.7	0.00e+00	0	50	104	0	83	25942
2026-01-03 19:46:23.65	108.43	8.46	-55.9	-60.7	3.7	0.00e+00	0	50	104	0	83	24851
2026-01-03 19:46:25.66	108.89	8.39	-56.1	-60.9	3.7	0.00e+00	0	50	104	0	83	25493
2026-01-03 19:46:27.67	109.35	8.31	-55.8	-60.6	3.7	0.00e+00	0	50	104	0	83	24571
2026-01-03 19:46:29.68	109.80	8.23	-55.7	-60.3	3.7	0.00e+00	0	50	104	0	82	25364
2026-01-03 19:46:31.69	110.25	8.16	-55.7	-60.3	3.7	0.00e+00	0	50	104	0	82	25292
2026-01-03 19:46:33.70	110.70	8.08	-55.7	-60.3	3.7	0.00e+00	0	51	104	0	82	25246
2026-01-03 19:46:35.70	111.14	8.00	-55.7	-60.3	3.7	0.00e+00	0	50	104	0	82	25317
2026-01-03 19:46:37.71	111.58	7.92	-55.7	-60.3	3.7	0.00e+00	0	51	104	0	82	25270
2026-01-03 19:46:39.70	112.02	7.83	-55.7	-60.3	3.7	0.00e+00	0	51	104	0	82	25252
2026-01-03 19:46:41.71	112.45	7.75	-55.7	-60.3	3.7	0.00e+00	0	51	104	0	82	25330
2026-01-03 19:46:43.72	112.89	7.67	-55.7	-60.3	3.7	0.00e+00	0	50	104	0	82	25226
2026-01-03 19:46:45.73	113.31	7.58	-55.7	-60.4	3.7	0.00e+00	0	51	104	0	82	25419
2026-01-03 19:46:47.74	113.74	7.50	-55.7	-60.4	3.7	0.00e+00	0	50	104	0	82	25492
2026-01-03 19:46:49.75	114.16	7.41	-55.8	-60.4	3.7	0.00e+00	0	50	104	0	82	25581
2026-01-03 19:46:51.76	114.58	7.32	-55.8	-60.4	3.7	0.00e+00	0	50	104	0	82	25659
2026-01-03 19:46:53.77	115.00	7.24	-55.8	-60.5	3.7	0.00e+00	0	50	104	0	82	25717
2026-01-03 19:46:55.78	115.41	7.15	-55.8	-60.5	3.7	0.00e+00	0	50	104	0	82	25756
2026-01-03 19:46:57.78	115.82	7.06	-55.9	-60.5	3.7	0.00e+00	0	51	104	0	82	25836
2026-01-0