passes_logs/2026/01/03/T1/T1__20260103_105113_AQUA_rec.log

#Pass ID: 20260103_105113_AQUA
#Satellite: AQUA
#Configuration: AQUA
#almurnet v.1.7.20251203
#Start time: 2026-01-03 10:51:15

#Version: 2.0.20230620
#Station: T1
#Location: 37.570604 lon 55.790049 lat
#TLE: 1 27424U 02022A   25365.92641127  .00002078  00000+0  42628-3 0  9999
#TLE: 2 27424  98.4058 327.1196 0001962  94.7781 340.6230 14.61783896258835

#Time	Az	El	Level	Level2	SNR	BER	BlckErr	Temp	State	Recorded	gain1	gain2
2026-01-03 10:51:15.97	134.02	5.16	-53.9	-73.6	3.8	7.43e-01	0	36	0	0	79	34566
2026-01-03 10:51:18.98	133.86	5.38	-53.9	-74.3	3.8	7.48e-01	0	37	104	0	78	39983
2026-01-03 10:51:21.99	133.70	5.60	-54.0	-74.4	3.8	7.45e-01	0	37	104	0	79	38196
2026-01-03 10:51:25.00	133.54	5.82	-54.0	-74.5	3.8	7.45e-01	0	37	104	0	79	38369
2026-01-03 10:51:28.02	133.37	6.04	-53.9	-74.4	3.8	7.45e-01	0	37	104	0	79	38085
2026-01-03 10:51:31.03	133.20	6.27	-53.9	-73.4	3.8	7.44e-01	0	37	104	0	79	33927
2026-01-03 10:51:34.04	133.02	6.50	-53.9	-72.4	3.8	7.43e-01	0	37	104	0	79	30321
2026-01-03 10:51:37.06	132.85	6.73	-53.9	-72.9	3.9	7.43e-01	0	37	104	0	79	32130
2026-01-03 10:51:40.07	132.67	6.96	-54.0	-74.6	3.8	7.47e-01	0	37	104	0	79	39066
2026-01-03 10:51:43.08	132.48	7.19	-53.9	-70.7	4.1	7.27e-01	0	38	104	0	79	24742
2026-01-03 10:51:46.10	132.30	7.43	-53.7	-66.6	6.8	6.71e-01	0	38	0	2097152	79	15461
2026-01-03 10:51:49.11	132.10	7.67	-52.8	-60.8	12.6	6.13e-01	0	37	0	7864320	77	8900
2026-01-03 10:51:52.12	131.91	7.91	-50.8	-55.4	18.1	6.08e-01	0	38	0	13107200	73	6011
2026-01-03 10:51:55.13	131.71	8.15	-48.8	-52.1	21.3	6.08e-01	0	38	0	18874368	69	5209
2026-01-03 10:51:58.14	131.51	8.40	-48.7	-51.9	21.8	6.08e-01	0	38	0	24641536	69	5053
2026-01-03 10:52:01.16	131.31	8.65	-50.2	-54.1	19.5	6.08e-01	0	38	0	30408704	70	6198
2026-01-03 10:52:04.17	131.10	8.90	-52.6	-59.9	13.7	6.08e-01	0	38	0	35651584	75	8974
2026-01-03 10:52:07.18	130.88	9.15	-53.5	-64.6	8.7	6.38e-01	0	38	0	41418752	77	13777
2026-01-03 10:52:10.19	130.67	9.40	-51.8	-57.6	15.7	6.06e-01	0	38	0	45088768	75	6890
2026-01-03 10:52:13.20	130.44	9.66	-51.2	-55.9	17.9	6.05e-01	0	38	0	50331648	73	6381
2026-01-03 10:52:16.21	130.22	9.92	-49.1	-52.4	21.2	6.08e-01	0	38	0	56098816	70	5048
2026-01-03 10:52:19.22	129.99	10.18	-47.7	-50.5	23.0	6.07e-01	0	38	0	61865984	67	4821
2026-01-03 10:52:22.22	129.75	10.45	-47.4	-50.2	23.3	6.05e-01	0	38	0	67633152	66	4928
2026-01-03 10:52:25.24	129.51	10.72	-47.3	-50.0	23.5	6.07e-01	0	38	0	72876032	66	4840
2026-01-03 10:52:28.24	129.27	10.99	-47.1	-49.8	23.7	6.08e-01	0	38	0	78643200	66	4719
2026-01-03 10:52:31.25	129.02	11.26	-47.3	-50.0	23.6	6.05e-01	0	38	0	84410368	66	4835
2026-01-03 10:52:34.26	128.76	11.54	-47.1	-49.8	23.7	6.05e-01	0	38	0	90177536	66	4744
2026-01-03 10:52:37.27	128.50	11.82	-46.9	-49.6	23.9	6.10e-01	0	38	0	95420416	65	4893
2026-01-03 10:52:40.28	128.23	12.10	-47.0	-49.7	23.9	6.08e-01	0	38	0	101187584	65	4952
2026-01-03 10:52:43.29	127.96	12.39	-47.0	-49.7	23.8	6.06e-01	0	38	0	106954752	65	4935
2026-01-03 10:52:46.30	127.68	12.68	-47.3	-49.8	24.2	6.07e-01	0	38	0	112721920	65	5030
2026-01-03 10:52:49.31	127.40	12.97	-47.0	-49.5	24.1	6.05e-01	0	39	0	117964800	65	4859
2026-01-03 10:52:52.32	127.11	13.26	-46.6	-49.1	24.5	6.09e-01	0	39	0	123731968	65	4624
2026-01-03 10:52:55.32	126.81	13.56	-46.6	-49.1	24.5	6.08e-01	0	38	0	129499136	65	4604
2026-01-03 10:52:58.33	126.51	13.86	-46.6	-49.0	24.6	6.08e-01	0	39	0	135266304	65	4568
2026-01-03 10:53:01.34	126.20	14.17	-46.5	-48.9	24.7	6.08e-01	0	38	0	141033472	65	4529
2026-01-03 10:53:04.35	125.88	14.48	-46.6	-49.0	24.6	6.06e-01	0	38	0	146276352	65	4578
2026-01-03 10:53:07.35	125.56	14.79	-46.5	-48.9	24.8	6.06e-01	0	38	0	152043520	65	4529
2026-01-03 10:53:10.36	125.22	15.11	-46.7	-49.2	24.5	6.06e-01	0	38	0	157810688	65	4655
2026-01-03 10:53:13.38	124.88	15.43	-46.6	-49.0	24.6	6.07e-01	0	39	0	163577856	65	4594
2026-01-03 10:53:16.38	124.53	15.75	-46.5	-48.9	24.7	6.08e-01	0	38	0	168820736	65	4529
2026-01-03 10:53:19.39	124.18	16.08	-46.4	-48.8	24.8	6.06e-01	0	38	0	174587904	64	4752
2026-01-03 10:53:22.40	123.81	16.41	-46.4	-48.7	25.0	6.04e-01	0	38	0	180355072	64	4696
2026-01-03 10:53:25.40	123.44	16.74	-46.5	-48.9	24.8	6.04e-01	0	39	0	186122240	64	4776
2026-01-03 10:53:28.41	123.06	17.08	-46.5	-48.8	24.9	6.05e-01	0	39	0	191365120	64	4756
2026-01-03 10:53:31.42	122.66	17.42	-46.6	-48.9	24.9	6.05e-01	0	39	0	197132288	64	4811
2026-01-03 10:53:34.43	122.26	17.77	-46.4	-48.8	24.9	6.08e-01	0	39	0	202899456	64	4748
2026-01-03 10:53:37.44	121.85	18.12	-46.6	-49.0	24.8	6.06e-01	0	39	0	208666624	64	4820
2026-01-03 10:53:40.45	121.42	18.48	-46.5	-48.9	24.8	6.07e-01	0	39	0	213909504	64	4801
2026-01-03 10:53:43.46	120.99	18.83	-46.3	-48.7	25.0	6.06e-01	0	39	0	219676672	64	4673
2026-01-03 10:53:46.47	120.54	19.20	-46.7	-49.1	24.9	6.06e-01	0	39	0	225443840	64	4889
2026-01-03 10:53:49.48	120.09	19.56	-46.5	-48.9	24.9	6.08e-01	0	38	0	231211008	64	4760
2026-01-03 10:53:52.49	119.62	19.93	-46.7	-49.1	24.7	6.07e-01	0	39	0	236453888	64	4903
2026-01-03 10:53:55.49	119.14	20.31	-46.7	-49.1	24.7	6.06e-01	0	39	0	242221056	64	4918
2026-01-03 10:53:58.50	118.65	20.69	-46.6	-49.0	24.7	6.06e-01	0	39	0	247988224	64	4862
2026-01-03 10:54:01.51	118.14	21.07	-46.8	-49.2	24.6	6.05e-01	0	39	0	253755392	64	4976
2026-01-03 10:54:04.52	117.62	21.46	-46.7	-49.2	24.7	6.08e-01	0	39	0	258998272	64	4947
2026-01-03 10:54:07.53	117.08	21.85	-46.7	-49.1	24.8	6.06e-01	0	39	0	264765440	64	4913
2026-01-03 10:54:10.53	116.54	22.24	-46.5	-48.9	24.9	6.06e-01	0	39	0	270532608	64	4784
2026-01-03 10:54:13.54	115.97	22.64	-46.9	-49.4	24.7	6.07e-01	0	39	0	276299776	64	5059
2026-01-03 10:54:16.55	115.39	23.05	-47.0	-49.5	24.5	6.08e-01	0	39	0	281542656	64	5123
2026-01-03 10:54:19.56	114.80	23.45	-46.9	-49.4	24.5	6.06e-01	0	39	0	287309824	64	5054
2026-01-03 10:54:22.56	114.19	23.86	-46.8	-49.2	24.6	6.06e-01	0	39	0	293076992	64	4971
2026-01-03 10:54:25.57	113.56	24.28	-46.7	-49.2	24.6	6.05e-01	0	39	0	298844160	64	4929
2026-01-03 10:54:28.58	112.91	24.70	-46.9	-49.4	24.6	6.07e-01	0	39	0	304611328	64	5049
2026-01-03 10:54:31.59	112.24	25.12	-46.6	-49.1	24.8	6.07e-01	0	39	0	309854208	64	4901
2026-01-03 10:54:34.59	111.56	25.54	-46.7	-49.2	24.7	6.07e-01	0	39	0	315621376	64	4948
2026-01-03 10:54:37.60	110.86	25.97	-46.7	-49.1	24.9	6.10e-01	0	39	0	321388544	64	4892
2026-01-03 10:54:40.61	110.13	26.40	-46.5	-48.9	25.0	6.06e-01	0	39	0	326631424	64	4799
2026-01-03 10:54:43.62	109.39	26.83	-46.6	-49.0	25.0	6.07e-01	0	39	0	332398592	64	4851
2026-01-03 10:54:46.63	108.62	27.26	-46.5	-48.8	25.1	6.07e-01	0	39	0	338165760	64	4749
2026-01-03 10:54:49.64	107.83	27.70	-46.2	-48.5	25.3	6.06e-01	0	39	0	343932928	64	4598
2026-01-03 10:54:52.65	107.02	28.14	-46.2	-48.6	25.3	6.07e-01	0	39	0	349700096	64	4613
2026-01-03 10:54:55.66	106.18	28.57	-46.0	-48.4	25.5	6.06e-01	0	39	0	354942976	64	4500
2026-01-03 10:54:58.66	105.33	29.01	-46.6	-48.9	25.4	6.06e-01	0	39	0	360710144	64	4792
2026-01-03 10:55:01.67	104.44	29.45	-46.0	-48.4	25.5	6.06e-01	0	39	0	366477312	64	4499
2026-01-03 10:55:04.68	103.53	29.89	-46.0	-48.3	25.6	6.06e-01	0	39	0	372244480	63	4715
2026-01-03 10:55:07.69	102.60	30.33	-46.3	-48.6	25.4	6.05e-01	0	39	0	377487360	63	4912
2026-01-03 10:55:10.69	101.64	30.76	-46.1	-48.4	25.5	6.06e-01	0	39	0	383254528	63	4791
2026-01-03 10:55:13.70	100.65	31.20	-46.1	-48.4	25.6	6.06e-01	0	39	0	389021696	63	4781
2026-01-03 10:55:16.71	99.63	31.63	-46.1	-48.4	25.5	6.08e-01	0	39	0	394788864	63	4807
2026-01-03 10:55:19.72	98.59	32.06	-46.1	-48.4	25.5	6.07e-01	0	39	0	400031744	63	4801
2026-01-03 10:55:22.73	97.51	32.48	-46.5	-48.8	25.7	6.05e-01	0	39	0	405798912	63	4996
2026-01-03 10:55:25.74	96.41	32.90	-46.3	-48.7	25.2	6.07e-01	0	39	0	411566080	64	4667
2026-01-03 10:55:28.76	95.28	33.31	-46.2	-48.5	25.4	6.06e-01	0	39	0	417333248	64	4563
2026-01-03 10:55:31.77	94.11	33.72	-46.4	-48.9	25.1	6.06e-01	0	39	0	422576128	64	4780
2026-01-03 10:55:34.78	92.92	34.12	-46.5	-48.9	22.7	6.07e-01	0	39	0	428343296	64	4803
2026-01-03 10:55:37.79	91.70	34.50	-46.6	-49.1	24.9	6.08e-01	0	39	0	434110464	64	4880
2026-01-03 10:55:40.80	90.45	34.88	-47.3	-49.7	24.8	6.06e-01	0	39	0	439877632	65	4981
2026-01-03 10:55:43.80	89.17	35.25	-46.7	-49.2	24.7	6.09e-01	0	39	0	445644800	65	4699
2026-01-03 10:55:46.82	87.85	35.61	-46.7	-49.3	24.7	6.07e-01	0	39	0	450887680	65	4715
2026-01-03 10:55:49.82	86.52	35.95	-46.9	-49.6	24.5	6.04e-01	0	39	0	456654848	65	4880
2026-01-03 10:55:52.83	85.15	36.28	-47.0	-49.6	24.4	6.05e-01	0	39	0	462422016	65	4917
2026-01-03 10:55:55.83	83.76	36.59	-47.6	-50.2	24.3	6.06e-01	0	39	0	468189184	65	5274
2026-01-03 10:55:58.84	82.33	36.89	-47.2	-49.8	24.3	6.05e-01	0	39	0	473432064	65	5011
2026-01-03 10:56:01.85	80.89	37.17	-47.6	-50.2	24.2	6.06e-01	0	39	0	479199232	66	4946
2026-01-03 10:56:04.86	79.41	37.43	-47.5	-50.1	24.1	6.09e-01	0	39	0	484966400	66	4883
2026-01-03 10:56:07.87	77.91	37.67	-47.3	-49.8	24.4	6.06e-01	0	39	0	490733568	66	4721
2026-01-03 10:56:10.88	76.39	37.89	-47.3	-49.9	24.3	6.06e-01	0	39	0	495976448	66	4803
2026-01-03 10:56:13.90	74.85	38.09	-47.6	-50.2	23.9	6.08e-01	0	39	0	501743616	66	4959
2026-01-03 10:56:16.90	73.30	38.27	-47.6	-50.1	24.0	6.06e-01	0	39	0	507510784	66	4917
2026-01-03 10:56:19.92	71.72	38.43	-47.5	-50.0	24.1	6.09e-01	0	39	0	513277952	66	4854
2026-01-03 10:56:22.92	70.13	38.56	-47.4	-50.0	24.2	6.05e-01	0	39	0	518520832	66	4836
2026-01-03 10:56:25.93	68.53	38.66	-48.1	-50.6	24.1	6.07e-01	0	39	0	524288000	66	5200
2026-01-03 10:56:28.94	66.92	38.75	-47.3	-49.8	24.3	6.06e-01	0	39	0	530055168	66	4711
2026-01-03 10:56:31.94	65.31	38.80	-47.6	-50.1	23.9	6.06e-01	0	39	0	535822336	66	4916
2026-01-03 10:56:34.95	63.69	38.83	-47.4	-49.9	24.2	6.08e-01	0	39	0	541065216	66	4801
2026-01-03 10:56:37.96	62.07	38.84	-47.3	-49.9	24.2	6.07e-01	0	39	0	546832384	66	4762
2026-01-03 10:56:40.96	60.45	38.82	-47.3	-49.7	24.4	6.08e-01	0	39	0	552599552	66	4692
2026-01-03 10:56:43.97	58.83	38.77	-47.6	-50.2	24.1	6.08e-01	0	39	0	558366720	66	4931
2026-01-03 10:56:46.97	57.23	38.70	-47.2	-49.8	24.3	6.07e-01	0	39	0	563609600	66	4716
2026-01-03 10:56:49.98	55.62	38.61	-47.1	-49.7	24.4	6.06e-01	0	39	0	569376768	66	4653
2026-01-03 10:56:52.99	54.03	38.49	-47.6	-50.1	24.0	6.08e-01	0	39	0	575143936	66	4919
2026-01-03 10:56:56.00	52.45	38.34	-47.2	-49.8	24.3	6.07e-01	0	39	0	580911104	66	4708
2026-01-03 10:56:59.01	50.89	38.18	-47.6	-50.1	24.3	6.07e-01	0	39	0	586153984	66	4913
2026-01-03 10:57:02.01	49.35	37.99	-47.5	-50.1	24.0	6.08e-01	0	39	0	591921152	66	4895
2026-01-03 10:57:05.01	47.83	37.78	-47.5	-50.1	24.1	6.07e-01	0	39	0	597688320	66	4878
2026-01-03 10:57:08.02	46.32	37.54	-47.5	-50.1	24.1	6.06e-01	0	39	0	603455488	66	4890
2026-01-03 10:57:11.03	44.84	37.29	-47.6	-50.2	23.9	6.07e-01	0	39	0	609222656	66	4947
2026-01-03 10:57:14.03	43.38	37.02	-47.6	-50.1	23.9	6.06e-01	0	39	0	614465536	66	4919
2026-01-03 10:57:17.04	41.95	36.73	-47.6	-50.2	23.9	6.07e-01	0	39	0	620232704	66	4975
2026-01-03 10:57:20.05	40.55	36.43	-47.8	-59.6	3.8	7.47e-01	0	39	104	620232704	66	14605
2026-01-03 10:57:23.06	39.17	36.11	-54.7	-74.1	3.8	7.44e-01	0	39	104	620232704	80	34811
2026-01-03 10:57:26.07	37.82	35.77	-49.4	-61.8	3.8	7.46e-01	0	39	104	620232704	70	14946
2026-01-03 10:57:29.07	36.50	35.42	-49.2	-61.4	3.9	7.40e-01	0	39	104	620232704	69	15215
2026-01-03 10:57:32.08	35.21	35.06	-53.8	-74.2	3.8	7.46e-01	0	39	104	620232704	78	39195
2026-01-03 10:57:35.09	33.95	34.69	-48.8	-61.6	3.4	7.58e-01	0	39	104	620232704	69	15558
2026-01-03 10:57:38.10	32.72	34.30	-48.1	-59.9	4.1	7.35e-01	0	39	104	620232704	68	13513
2026-01-03 10:57:41.11	31.52	33.91	-53.6	-74.1	3.8	7.43e-01	0	39	104	620232704	77	41408
2026-01-03 10:57:44.12	30.34	33.51	-48.8	-61.1	3.8	7.40e-01	0	39	104	620232704	69	14657
2026-01-03 10:57:47.13	29.20	33.10	-48.3	-60.4	3.8	7.44e-01	0	39	104	620232704	68	14268
2026-01-03 10:57:50.14	28.09	32.69	-54.3	-74.1	3.8	7.45e-01	0	39	104	620232704	79	36657
2026-01-03 10:57:53.15	27.01	32.27	-48.7	-60.8	3.8	7.46e-01	0	39	104	620232704	69	14125
2026-01-03 10:57:56.16	25.95	31.85	-47.7	-59.7	3.8	7.44e-01	0	39	104	620232704	67	13996
2026-01-03 10:57:59.17	24.93	31.42	-54.0	-74.3	3.8	7.47e-01	0	39	104	620232704	78	39786
2026-01-03 10:58:02.18	23.93	30.99	-48.4	-60.4	3.8	7.48e-01	0	39	104	620232704	68	14242
2026-01-03 10:58:05.19	22.96	30.55	-48.0	-60.3	3.8	7.45e-01	0	39	104	620232704	67	15003
2026-01-03 10:58:08.20	22.02	30.12	-54.4	-74.2	3.8	7.46e-01	0	39	104	620232704	79	36974
2026-01-03 10:58:11.21	21.10	29.68	-48.9	-61.1	3.8	7.46e-01	0	39	104	620232704	68	15446
2026-01-03 10:58:14.22	20.21	29.25	-47.2	-58.8	3.8	7.48e-01	0	39	104	620232704	66	13380
2026-01-03 10:58:17.23	19.34	28.81	-54.5	-74.4	3.8	7.46e-01	0	39	104	620232704	79	38217
2026-01-03 10:58:20.24	18.50	28.37	-48.4	-60.7	3.8	7.42e-01	0	39	104	620232704	68	14861
2026-01-03 10:58:23.25	17.68	27.94	-47.3	-59.1	3.8	7.46e-01	0	39	104	620232704	66	13785
2026-01-03 10:58:26.26	16.88	27.50	-54.2	-75.0	3.8	7.47e-01	0	39	104	620232704	79	40775
2026-01-03 10:58:29.28	16.11	27.07	-48.5	-60.5	3.8	7.44e-01	0	39	104	620232704	68	14426
2026-01-03 10:58:32.29	15.35	26.64	-48.1	-60.0	3.8	7.44e-01	0	39	104	620232704	68	13644
2026-01-03 10:58:35.30	14.62	26.21	-54.5	-74.4	3.8	7.48e-01	0	39	104	620232704	79	38089
2026-01-03 10:58:38.31	13.91	25.78	-48.4	-60.7	3.8	7.45e-01	0	39	104	620232704	68	14713
2026-01-03 10:58:41.32	13.22	25.36	-48.1	-60.2	3.8	7.44e-01	0	39	104	620232704	67	14804
2026-01-03 10:58:44.33	12.55	24.94	-54.0	-73.6	3.8	7.44e-01	0	39	104	620232704	78	36680
2026-01-03 10:58:47.34	11.90	24.52	-48.5	-60.9	3.8	7.42e-01	0	39	104	620232704	68	15184
2026-01-03 10:58:50.35	11.27	24.11	-47.7	-59.6	3.8	7.43e-01	0	39	104	620232704	67	13805
2026-01-03 10:58:53.36	10.65	23.70	-53.9	-73.9	3.8	7.45e-01	0	39	104	620232704	78	37925
2026-01-03 10:58:56.37	10.05	23.29	-48.2	-60.5	3.8	7.46e-01	0	39	104	620232704	68	14493
2026-01-03 10:58:59.38	9.47	22.89	-48.2	-60.4	3.8	7.47e-01	0	39	104	620232704	68	14258
2026-01-03 10:59:02.39	8.90	22.49	-53.8	-73.2	3.9	7.45e-01	0	39	104	620232704	78	35128
2026-01-03 10:59:05.40	8.34	22.09	-47.9	-59.9	3.8	7.44e-01	0	39	104	620232704	67	14308
2026-01-03 10:59:08.41	7.81	21.70	-47.7	-60.5	3.8	7.48e-01	0	39	104	620232704	66	16181
2026-01-03 10:59:11.42	7.28	21.31	-51.9	-71.1	4.0	7.38e-01	0	39	104	620232704	75	32672
2026-01-03 10:59:14.44	6.77	20.93	-47.7	-59.9	3.8	7.47e-01	0	39	104	620232704	67	14334
2026-01-03 10:59:17.45	6.27	20.55	-47.0	-59.2	3.8	7.45e-01	0	39	104	620232704	66	14036
2026-01-03 10:59:20.46	5.79	20.17	-52.2	-71.1	3.9	7.43e-01	0	39	104	620232704	76	30796
2026-01-03 10:59:23.47	5.32	19.80	-48.2	-60.4	3.8	7.44e-01	0	39	104	620232704	67	15167
2026-01-03 10:59:26.48	4.86	19.44	-47.1	-59.5	3.8	7.43e-01	0	39	104	620232704	66	14412
2026-01-03 10:59:29.49	4.41	19.07	-52.3	-68.7	3.9	7.44e-01	0	39	104	620232704	76	23453
2026-01-03 10:59:32.50	3.98	18.71	-47.6	-59.8	3.8	7.44e-01	0	39	104	620232704	66	14909
2026-01-03 10:59:35.51	3.55	18.36	-47.3	-59.6	3.8	7.46e-01	0	39	104	620232704	66	14615
2026-01-03 10:59:38.52	3.14	18.01	-52.3	-67.5	4.0	7.40e-01	0	39	104	620232704	76	20433
2026-01-03 10:59:41.54	2.73	17.66	-48.0	-60.0	3.8	7.40e-01	0	39	104	620232704	67	14513
2026-01-03 10:59:44.55	2.34	17.32	-47.3	-59.5	3.8	7.46e-01	0	39	104	620232704	66	14519
2026-01-03 10:59:47.56	1.95	16.98	-52.5	-67.7	3.9	7.43e-01	0	39	104	620232704	77	19668
2026-01-03 10:59:50.57	1.58	16.64	-47.3	-59.5	3.8	7.44e-01	0	39	104	620232704	66	14478
2026-01-03 10:59:53.58	1.21	16.31	-47.3	-59.7	3.8	7.43e-01	0	39	104	620232704	66	14736
2026-01-03 10:59:56.59	0.85	15.98	-52.3	-67.0	4.0	7.44e-01	0	39	104	620232704	76	19346
2026-01-03 10:59:59.60	0.51	15.66	-46.9	-59.6	3.8	7.45e-01	0	39	104	620232704	65	15548
2026-01-03 11:00:02.61	0.16	15.34	-47.2	-59.4	3.8	7.43e-01	0	39	104	620232704	65	15110
2026-01-03 11:00:05.62	359.83	15.02	-51.2	-66.7	4.0	7.42e-01	0	39	104	620232704	73	22262
2026-01-03 11:00:08.63	359.51	14.71	-47.4	-59.6	3.8	7.44e-01	0	39	104	620232704	66	14682
2026-01-03 11:00:11.64	359.19	14.40	-47.7	-59.8	3.8	7.45e-01	0	39	104	620232704	66	14920
2026-01-03 11:00:14.65	358.88	14.10	-52.3	-67.1	3.9	7.47e-01	0	39	104	620232704	76	19499
2026-01-03 11:00:17.66	358.57	13.79	-47.5	-59.8	3.8	7.46e-01	0	39	104	620232704	67	14079
2026-01-03 11:00:20.67	358.28	13.49	-47.3	-59.8	3.8	7.45e-01	0	39	104	620232704	66	14990
2026-01-03 11:00:23.68	357.98	13.20	-51.7	-66.8	3.9	7.44e-01	0	39	104	620232704	75	19992
2026-01-03 11:00:26.69	357.70	12.91	-47.4	-59.6	3.8	7.45e-01	0	39	104	620232704	66	14598
2026-01-03 11:00:29.70	357.42	12.62	-47.8	-60.0	3.8	7.44e-01	0	39	104	620232704	66	15267
2026-01-03 11:00:32.71	357.15	12.33	-51.6	-67.0	3.9	7.45e-01	0	39	104	620232704	75	20360
2026-01-03 11:00:35.72	356.88	12.05	-47.4	-59.8	3.8	7.47e-01	0	39	104	620232704	66	14997
2026-01-03 11:00:38.73	356.62	11.77	-47.9	-60.6	3.8	7.46e-01	0	39	104	620232704	66	16461
2026-01-03 11:00:41.74	356.37	11.49	-51.5	-67.2	3.9	7.43e-01	0	39	104	620232704	75	20873
2026-01-03 11:00:44.74	356.12	11.22	-47.4	-60.0	3.8	7.44e-01	0	39	104	620232704	66	15381
2026-01-03 11:00:47.76	355.87	10.95	-47.2	-60.2	3.9	7.48e-01	0	39	104	620232704	66	15712
2026-01-03 11:00:50.77	355.64	10.68	-51.1	-67.5	3.8	7.44e-01	0	39	104	620232704	73	24337
2026-01-03 11:00:53.78	355.40	10.41	-46.4	-60.1	3.8	7.45e-01	0	39	104	620232704	64	17433
2026-01-03 11:00:56.79	355.17	10.15	-46.4	-60.4	3.8	7.46e-01	0	39	104	620232704	64	18014
2026-01-03 11:00:59.80	354.95	9.89	-46.3	-60.3	3.8	7.46e-01	0	39	104	620232704	64	17789
2026-01-03 11:01:02.81	354.72	9.63	-46.0	-60.5	3.8	7.46e-01	0	39	104	620232704	63	19184
2026-01-03 11:01:05.82	354.51	9.37	-48.3	-63.4	3.8	7.49e-01	0	39	104	620232704	67	21264
2026-01-03 11:01:08.83	354.30	9.12	-47.0	-60.9	3.8	7.46e-01	0	39	104	620232704	65	17943
2026-01-03 11:01:11.85	354.09	8.87	-52.7	-75.2	3.8	7.43e-01	0	39	104	620232704	76	49659
2026-01-03 11:01:14.86	353.88	8.62	-54.5	-75.5	3.8	7.47e-01	0	39	104	620232704	80	40616
2026-01-03 11:01:17.87	353.68	8.38	-54.7	-75.6	3.8	7.46e-01	0	39	104	620232704	81	38696
