passes_logs/2026/01/03/T1/T1__20260103_115406_NOAA_20_JPSS-1_rec.log

#Pass ID: 20260103_115406_NOAA 20 (JPSS-1)
#Satellite: NOAA 20 (JPSS-1)
#Configuration: NOAA 20
#almurnet v.1.7.20251203
#Start time: 2026-01-03 11:54:08

#Version: 2.0.20230620
#Station: T1
#Location: 37.570604 lon 55.790049 lat
#TLE: 1 43013U 17073A   26002.92460628  .00000184  00000+0  10833-3 0  9996
#TLE: 2 43013  98.7623 303.9923 0001887  56.9179 303.2178 14.19532741421028

#Time	Az	El	Level	Level2	SNR	BER	BlckErr	Temp	State	Recorded	gain1	gain2
2026-01-03 11:54:08.03	227.56	5.07	-52.6	-68.0	3.8	1.49e+00	0	39	0	0	77	20465
2026-01-03 11:54:11.04	227.89	5.22	-52.7	-68.0	3.8	1.49e+00	0	39	104	0	77	20393
2026-01-03 11:54:14.05	228.22	5.37	-52.7	-68.1	3.8	1.49e+00	0	39	104	0	77	20555
2026-01-03 11:54:17.06	228.56	5.52	-52.7	-68.0	3.8	1.49e+00	0	40	104	0	77	20436
2026-01-03 11:54:20.08	228.90	5.67	-52.7	-68.0	3.8	1.49e+00	0	40	104	0	77	20401
2026-01-03 11:54:23.09	229.25	5.82	-52.7	-68.0	3.8	1.49e+00	0	40	104	0	77	20478
2026-01-03 11:54:26.10	229.59	5.98	-52.7	-68.0	3.8	1.49e+00	0	40	104	0	77	20496
2026-01-03 11:54:29.12	229.95	6.13	-52.7	-68.0	3.8	1.49e+00	0	40	104	0	77	20424
2026-01-03 11:54:32.13	230.30	6.28	-52.6	-68.0	3.8	1.49e+00	0	40	104	0	77	20338
2026-01-03 11:54:35.14	230.66	6.43	-52.7	-67.9	3.8	1.49e+00	0	40	104	0	77	20249
2026-01-03 11:54:38.15	231.02	6.58	-52.7	-68.0	3.8	1.49e+00	0	40	104	0	77	20465
2026-01-03 11:54:41.17	231.39	6.73	-52.7	-68.0	3.8	1.49e+00	0	40	104	0	77	20365
2026-01-03 11:54:44.18	231.76	6.88	-52.7	-68.0	3.8	1.49e+00	0	40	104	0	77	20420
2026-01-03 11:54:47.19	232.13	7.04	-52.7	-67.9	3.8	1.49e+00	0	40	104	0	77	20253
2026-01-03 11:54:50.21	232.51	7.19	-52.7	-67.8	3.8	1.49e+00	0	41	104	0	77	19891
2026-01-03 11:54:53.22	232.89	7.34	-52.7	-67.9	3.8	1.49e+00	0	41	104	0	77	20298
2026-01-03 11:54:56.24	233.27	7.49	-52.7	-68.0	3.8	1.49e+00	0	41	104	0	77	20368
2026-01-03 11:54:59.25	233.66	7.64	-52.7	-67.9	3.8	1.49e+00	0	41	104	0	77	20211
2026-01-03 11:55:02.26	234.05	7.79	-52.7	-68.0	3.8	1.49e+00	0	41	104	0	77	20340
2026-01-03 11:55:05.27	234.45	7.94	-52.7	-67.8	3.8	1.49e+00	0	41	104	0	77	20004
2026-01-03 11:55:08.29	234.85	8.09	-52.7	-67.9	3.8	1.49e+00	0	41	104	0	77	20269
2026-01-03 11:55:11.30	235.25	8.24	-52.6	-66.9	3.8	1.49e+00	0	41	104	0	77	18010
2026-01-03 11:55:14.31	235.66	8.39	-52.6	-65.7	3.8	1.49e+00	0	41	104	0	77	15728
2026-01-03 11:55:17.32	236.07	8.54	-50.4	-55.5	11.2	6.58e-03	0	41	0	4194304	72	6483
2026-01-03 11:55:20.33	236.49	8.68	-48.7	-52.2	14.7	0.00e+00	0	41	0	10485760	69	5257
2026-01-03 11:55:23.35	236.91	8.83	-49.8	-54.0	12.9	2.21e-05	0	41	0	15728640	70	6109
2026-01-03 11:55:26.36	237.34	8.98	-51.9	-60.0	6.9	1.15e-01	0	41	0	20971520	74	9623
2026-01-03 11:55:29.37	237.76	9.13	-52.3	-64.7	3.9	1.49e+00	0	41	104	25165824	75	15679
2026-01-03 11:55:32.38	238.20	9.27	-52.6	-64.5	4.2	1.04e+00	0	41	104	28311552	75	15301
2026-01-03 11:55:35.38	238.63	9.42	-49.5	-53.4	13.6	6.48e-05	0	41	0	33554432	71	5398
2026-01-03 11:55:38.39	239.07	9.56	-48.2	-51.2	15.8	0.00e+00	0	41	0	38797312	68	4960
2026-01-03 11:55:41.40	239.52	9.71	-47.1	-49.8	17.0	0.00e+00	0	41	0	44040192	66	4746
2026-01-03 11:55:44.41	239.97	9.85	-46.8	-49.5	17.3	0.00e+00	0	41	0	50331648	65	4861
2026-01-03 11:55:47.42	240.42	9.99	-46.7	-49.3	17.6	0.00e+00	0	41	0	55574528	65	4711
2026-01-03 11:55:50.43	240.88	10.14	-46.7	-49.3	17.6	0.00e+00	0	41	0	61865984	65	4717
2026-01-03 11:55:53.44	241.34	10.28	-46.9	-49.7	17.3	0.00e+00	0	41	0	67108864	65	4927
2026-01-03 11:55:56.45	241.81	10.42	-46.7	-49.5	17.4	0.00e+00	0	41	0	72351744	65	4860
2026-01-03 11:55:59.45	242.28	10.56	-46.6	-49.5	17.4	0.00e+00	0	42	0	78643200	65	4837
2026-01-03 11:56:02.46	242.75	10.70	-46.8	-49.6	17.3	0.00e+00	0	41	0	83886080	65	4895
2026-01-03 11:56:05.47	243.23	10.83	-46.8	-49.3	17.6	0.00e+00	0	41	0	89128960	65	4757
2026-01-03 11:56:08.48	243.72	10.97	-47.0	-49.6	17.3	0.00e+00	0	42	0	95420416	65	4893
2026-01-03 11:56:11.49	244.21	11.10	-46.9	-49.5	17.4	0.00e+00	0	42	0	100663296	65	4861
2026-01-03 11:56:14.50	244.70	11.24	-46.6	-49.2	17.7	0.00e+00	0	42	0	106954752	65	4688
2026-01-03 11:56:17.50	245.19	11.37	-46.8	-49.4	17.6	0.00e+00	0	42	0	112197632	65	4774
2026-01-03 11:56:20.51	245.70	11.50	-46.9	-49.6	17.3	0.00e+00	0	42	0	117440512	65	4890
2026-01-03 11:56:23.51	246.20	11.63	-46.8	-49.5	17.4	0.00e+00	0	42	0	123731968	65	4858
2026-01-03 11:56:26.52	246.71	11.76	-46.9	-49.5	17.4	0.00e+00	0	42	0	128974848	65	4856
2026-01-03 11:56:29.53	247.22	11.89	-46.9	-49.7	17.3	0.00e+00	0	42	0	134217728	65	4953
2026-01-03 11:56:32.54	247.74	12.02	-47.1	-49.9	17.0	0.00e+00	0	42	0	140509184	65	5085
2026-01-03 11:56:35.55	248.27	12.14	-47.2	-50.0	16.9	0.00e+00	0	42	0	145752064	65	5151
2026-01-03 11:56:38.56	248.79	12.27	-47.3	-50.2	16.9	0.00e+00	0	42	0	152043520	65	5220
2026-01-03 11:56:41.57	249.33	12.39	-47.5	-50.4	16.6	0.00e+00	0	42	0	157286400	65	5394
2026-01-03 11:56:44.58	249.86	12.51	-47.6	-50.6	16.4	0.00e+00	0	42	0	162529280	65	5511
2026-01-03 11:56:47.58	250.40	12.63	-47.7	-50.9	16.1	0.00e+00	0	42	0	168820736	66	5367
2026-01-03 11:56:50.59	250.94	12.74	-47.8	-50.9	16.1	0.00e+00	0	42	0	174063616	66	5394
2026-01-03 11:56:53.60	251.49	12.86	-47.8	-50.8	16.2	0.00e+00	0	42	0	179306496	66	5340
2026-01-03 11:56:56.61	252.05	12.97	-48.0	-51.1	15.9	0.00e+00	0	42	0	185597952	66	5503
2026-01-03 11:56:59.62	252.60	13.08	-48.1	-51.2	15.8	0.00e+00	0	42	0	190840832	66	5591
2026-01-03 11:57:02.63	253.16	13.19	-48.1	-51.2	15.8	0.00e+00	0	42	0	197132288	67	5273
2026-01-03 11:57:05.64	253.73	13.30	-48.1	-51.2	15.8	0.00e+00	0	42	0	202375168	67	5259
2026-01-03 11:57:08.65	254.30	13.41	-48.0	-51.2	15.9	0.00e+00	0	42	0	207618048	67	5253
2026-01-03 11:57:11.66	254.87	13.51	-48.2	-51.6	15.5	0.00e+00	0	42	0	213909504	67	5492
2026-01-03 11:57:14.67	255.45	13.61	-48.5	-51.9	15.1	0.00e+00	0	42	0	219152384	67	5688
2026-01-03 11:57:17.68	256.03	13.71	-48.4	-51.6	15.4	0.00e+00	0	42	0	225443840	67	5512
2026-01-03 11:57:20.68	256.61	13.80	-48.0	-51.1	15.9	0.00e+00	0	42	0	230686720	67	5208
2026-01-03 11:57:23.70	257.20	13.90	-48.0	-51.0	16.0	0.00e+00	0	42	0	235929600	67	5133
2026-01-03 11:57:26.71	257.79	13.99	-48.1	-51.1	16.0	0.00e+00	0	42	0	242221056	67	5190
2026-01-03 11:57:29.71	258.38	14.08	-48.0	-51.1	15.9	0.00e+00	0	42	0	247463936	67	5199
2026-01-03 11:57:32.73	258.98	14.16	-47.9	-50.9	16.2	0.00e+00	0	42	0	252706816	67	5064
2026-01-03 11:57:35.73	259.58	14.25	-47.4	-50.1	16.9	0.00e+00	0	42	0	258998272	66	4923
2026-01-03 11:57:38.74	260.19	14.33	-46.8	-49.5	17.4	0.00e+00	0	42	0	264241152	65	4870
2026-01-03 11:57:41.75	260.79	14.41	-46.9	-49.6	17.4	0.00e+00	0	42	0	270532608	65	4920
2026-01-03 11:57:44.76	261.40	14.48	-47.1	-49.8	17.2	0.00e+00	0	42	0	275775488	65	5003
2026-01-03 11:57:47.76	262.02	14.55	-46.9	-49.5	17.5	0.00e+00	0	42	0	281018368	65	4865
2026-01-03 11:57:50.77	262.63	14.62	-46.9	-49.5	17.5	0.00e+00	0	42	0	287309824	65	4858
2026-01-03 11:57:53.78	263.25	14.69	-46.8	-49.5	17.6	0.00e+00	0	42	0	292552704	65	4824
2026-01-03 11:57:56.79	263.87	14.76	-47.0	-49.7	17.3	0.00e+00	0	42	0	298844160	65	4960
2026-01-03 11:57:59.80	264.50	14.82	-47.3	-50.1	17.0	0.00e+00	0	42	0	304087040	65	5194
2026-01-03 11:58:02.81	265.12	14.87	-47.4	-50.2	16.9	0.00e+00	0	42	0	309329920	65	5243
2026-01-03 11:58:05.82	265.75	14.93	-47.7	-50.6	16.5	0.00e+00	0	42	0	315621376	67	4891
2026-01-03 11:58:08.83	266.39	14.98	-47.7	-50.5	16.5	0.00e+00	0	42	0	320864256	67	4865
2026-01-03 11:58:11.84	267.02	15.03	-47.7	-50.6	16.5	0.00e+00	0	42	0	326107136	67	4877
2026-01-03 11:58:14.85	267.65	15.08	-47.7	-50.5	16.5	0.00e+00	0	42	0	332398592	67	4857
2026-01-03 11:58:17.86	268.29	15.12	-47.5	-50.4	16.6	0.00e+00	0	42	0	337641472	67	4784
2026-01-03 11:58:20.87	268.93	15.16	-47.6	-50.4	16.7	0.00e+00	0	42	0	343932928	66	5077
2026-01-03 11:58:23.88	269.57	15.19	-47.6	-50.5	16.6	0.00e+00	0	42	0	349175808	66	5112
2026-01-03 11:58:26.89	270.21	15.23	-47.6	-50.5	16.6	0.00e+00	0	42	0	354418688	66	5119
2026-01-03 11:58:29.90	270.85	15.25	-47.4	-50.2	16.9	0.00e+00	0	42	0	360710144	66	4945
2026-01-03 11:58:32.91	271.50	15.28	-47.5	-50.3	16.8	0.00e+00	0	42	0	365953024	66	5027
2026-01-03 11:58:35.92	272.14	15.30	-47.4	-50.2	16.9	0.00e+00	0	42	0	371195904	66	4931
2026-01-03 11:58:38.93	272.79	15.32	-47.4	-50.2	16.8	0.00e+00	0	42	0	377487360	66	4971
2026-01-03 11:58:41.94	273.43	15.34	-47.3	-50.1	17.0	0.00e+00	0	42	0	382730240	66	4881
2026-01-03 11:58:44.95	274.08	15.35	-47.2	-49.8	17.2	0.00e+00	0	42	0	389021696	66	4754
2026-01-03 11:58:47.96	274.73	15.36	-47.3	-50.0	17.0	0.00e+00	0	42	0	394264576	66	4847
2026-01-03 11:58:50.97	275.38	15.36	-47.2	-49.9	17.2	0.00e+00	0	42	0	399507456	66	4764
2026-01-03 11:58:53.99	276.02	15.37	-47.0	-49.6	17.4	0.00e+00	0	42	0	405798912	66	4642
2026-01-03 11:58:57.00	276.67	15.36	-47.0	-49.6	17.5	0.00e+00	0	42	0	411041792	65	4899
2026-01-03 11:59:00.01	277.32	15.36	-47.0	-49.7	17.4	0.00e+00	0	42	0	417333248	65	4928
2026-01-03 11:59:03.02	277.97	15.35	-47.0	-49.7	17.4	0.00e+00	0	42	0	422576128	65	4931
2026-01-03 11:59:06.03	278.61	15.34	-46.7	-49.3	17.7	0.00e+00	0	42	0	427819008	65	4721
2026-01-03 11:59:09.04	279.26	15.32	-46.6	-49.1	17.9	0.00e+00	0	42	0	434110464	65	4631
2026-01-03 11:59:12.05	279.90	15.30	-46.8	-49.3	17.7	0.00e+00	0	42	0	439353344	65	4753
2026-01-03 11:59:15.07	280.55	15.28	-46.9	-49.6	17.5	0.00e+00	0	42	0	444596224	65	4878
2026-01-03 11:59:18.08	281.19	15.26	-46.8	-49.3	17.7	0.00e+00	0	42	0	450887680	65	4755
2026-01-03 11:59:21.09	281.84	15.23	-46.6	-49.1	17.9	0.00e+00	0	42	0	456130560	65	4629
2026-01-03 11:59:24.09	282.47	15.20	-46.7	-49.2	17.8	0.00e+00	0	42	0	462422016	65	4687
2026-01-03 11:59:27.11	283.12	15.16	-46.6	-49.1	17.9	0.00e+00	0	42	0	467664896	65	4635
2026-01-03 11:59:30.12	283.75	15.12	-46.6	-49.2	17.9	0.00e+00	0	42	0	472907776	65	4664
2026-01-03 11:59:33.13	284.39	15.08	-46.9	-49.5	17.5	0.00e+00	0	42	0	479199232	65	4859
2026-01-03 11:59:36.14	285.02	15.04	-46.9	-49.5	17.6	0.00e+00	0	42	0	484442112	65	4815
2026-01-03 11:59:39.15	285.66	14.99	-46.7	-49.2	17.9	0.00e+00	0	42	0	490733568	65	4662
2026-01-03 11:59:42.16	286.29	14.94	-46.8	-49.4	17.7	0.00e+00	0	42	0	495976448	65	4793
2026-01-03 11:59:45.17	286.91	14.88	-46.8	-49.4	17.6	0.00e+00	0	42	0	501219328	65	4791
2026-01-03 11:59:48.18	287.54	14.82	-46.6	-49.1	17.9	0.00e+00	0	42	0	507510784	65	4633
2026-01-03 11:59:51.19	288.16	14.76	-46.6	-49.1	17.9	0.00e+00	0	42	0	512753664	65	4612
2026-01-03 11:59:54.20	288.78	14.70	-46.8	-49.4	17.7	0.00e+00	0	42	0	517996544	65	4776
2026-01-03 11:59:57.21	289.40	14.63	-46.8	-49.4	17.6	0.00e+00	0	42	0	524288000	65	4780
2026-01-03 12:00:00.22	290.02	14.57	-46.6	-49.1	17.9	0.00e+00	0	42	0	529530880	65	4617
2026-01-03 12:00:03.23	290.63	14.49	-46.5	-48.9	18.1	0.00e+00	0	42	0	535822336	64	4801
2026-01-03 12:00:06.24	291.24	14.42	-46.2	-48.6	18.3	0.00e+00	0	42	0	541065216	64	4648
2026-01-03 12:00:09.25	291.84	14.34	-46.4	-48.8	18.2	0.00e+00	0	42	0	546308096	64	4751
2026-01-03 12:00:12.26	292.44	14.26	-46.7	-49.3	17.8	0.00e+00	0	42	0	552599552	64	4984
2026-01-03 12:00:15.27	293.04	14.18	-46.6	-49.2	17.8	0.00e+00	0	42	0	557842432	64	4948
2026-01-03 12:00:18.28	293.64	14.09	-46.6	-49.2	17.8	0.00e+00	0	42	0	564133888	64	4956
2026-01-03 12:00:21.29	294.23	14.00	-46.2	-48.7	18.3	0.00e+00	0	42	0	569376768	64	4676
2026-01-03 12:00:24.30	294.82	13.91	-46.4	-48.8	18.2	0.00e+00	0	42	0	574619648	64	4747
2026-01-03 12:00:27.31	295.41	13.82	-46.5	-49.0	18.1	0.00e+00	0	42	0	580911104	64	4815
2026-01-03 12:00:30.32	295.99	13.73	-46.7	-49.2	17.8	0.00e+00	0	42	0	586153984	64	4974
2026-01-03 12:00:33.32	296.57	13.63	-46.9	-49.5	17.5	0.00e+00	0	42	0	591396864	64	5135
2026-01-03 12:00:36.34	297.14	13.53	-46.7	-49.2	17.8	0.00e+00	0	42	0	597688320	64	4979
2026-01-03 12:00:39.35	297.71	13.43	-46.5	-49.1	18.0	0.00e+00	0	42	0	602931200	64	4876
2026-01-03 12:00:42.35	298.28	13.32	-46.7	-49.3	17.7	0.00e+00	0	42	0	609222656	64	4999
2026-01-03 12:00:45.36	298.84	13.22	-46.7	-49.3	17.7	0.00e+00	0	42	0	614465536	64	5012
2026-01-03 12:00:48.37	299.40	13.11	-46.9	-49.5	17.5	0.00e+00	0	42	0	619708416	64	5125
2026-01-03 12:00:51.38	299.96	13.00	-47.2	-50.0	17.1	0.00e+00	0	42	0	625999872	65	5120
2026-01-03 12:00:54.39	300.51	12.89	-47.5	-50.3	16.8	0.00e+00	0	42	0	631242752	65	5284
2026-01-03 12:00:57.40	301.05	12.77	-47.5	-50.3	16.7	0.00e+00	0	42	0	636485632	65	5317
2026-01-03 12:01:00.42	301.60	12.66	-47.7	-50.6	16.4	0.00e+00	0	42	0	642777088	66	5198
2026-01-03 12:01:03.43	302.14	12.54	-47.8	-50.7	16.3	0.00e+00	0	42	0	648019968	66	5257
2026-01-03 12:01:06.44	302.67	12.42	-47.8	-50.7	16.3	0.00e+00	0	42	0	654311424	66	5257
2026-01-03 12:01:09.45	303.20	12.30	-48.0	-51.0	16.1	0.00e+00	0	42	0	659554304	66	5406
2026-01-03 12:01:12.46	303.73	12.18	-48.3	-51.5	15.5	0.00e+00	0	42	0	664797184	67	5451
2026-01-03 12:01:15.47	304.25	12.05	-48.9	-52.4	14.8	0.00e+00	0	42	0	671088640	68	5691
2026-01-03 12:01:18.48	304.76	11.93	-49.2	-52.8	14.4	7.00e-07	0	42	0	676331520	68	5932
2026-01-03 12:01:21.50	305.28	11.80	-49.5	-53.2	13.9	3.80e-06	0	42	0	682622976	69	5921
2026-01-03 12:01:24.51	305.79	11.67	-49.8	-53.7	13.5	6.80e-06	0	42	0	687865856	70	5883
2026-01-03 12:01:27.52	306.29	11.54	-49.4	-53.2	14.0	7.00e-07	0	42	0	693108736	70	5534
2026-01-03 12:01:30.53	306.79	11.41	-48.9	-52.3	14.8	0.00e+00	0	42	0	699400192	69	5326
2026-01-03 12:01:33.54	307.29	11.28	-49.0	-52.4	14.8	7.00e-07	0	42	0	704643072	69	5387
2026-01-03 12:01:36.55	307.78	11.15	-49.2	-52.8	14.4	0.00e+00	0	42	0	709885952	69	5617
2026-01-03 12:01:39.56	308.26	11.01	-49.3	-53.1	14.0	7.00e-07	0	42	0	716177408	69	5839
2026-01-03 12:01:42.57	308.75	10.88	-49.6	-53.7	13.4	9.90e-06	0	42	0	721420288	69	6261
2026-01-03 12:01:45.58	309.22	10.74	-49.4	-53.2	13.8	7.60e-06	0	42	0	727711744	69	5920
2026-01-03 12:01:48.60	309.70	10.61	-49.2	-52.9	14.2	7.00e-07	0	42	0	732954624	69	5678
2026-01-03 12:01:51.61	310.17	10.47	-49.1	-52.7	14.3	0.00e+00	0	42	0	738197504	69	5586
2026-01-03 12:01:54.62	310.63	10.33	-49.1	-52.6	14.5	0.00e+00	0	42	0	744488960	69	5526
2026-01-03 12:01:57.63	311.09	10.19	-49.0	-52.4	14.8	0.00e+00	0	42	0	749731840	69	5377
2026-01-03 12:02:00.64	311.55	10.05	-48.4	-51.6	15.5	0.00e+00	0	42	0	756023296	68	5183
2026-01-03 12:02:03.64	312.00	9.91	-48.3	-51.5	15.6	0.00e+00	0	42	0	761266176	68	5142
2026-01-03 12:02:06.65	312.45	9.77	-48.3	-51.8	15.2	0.00e+00	0	42	0	766509056	68	5336
2026-01-03 12:02:09.66	312.89	9.62	-48.4	-51.9	15.1	0.00e+00	0	42	0	772800512	68	5389
2026-01-03 12:02:12.67	313.33	9.48	-48.5	-52.0	15.0	7.00e-07	0	42	0	778043392	68	5453
2026-01-03 12:02:15.68	313.77	9.34	-48.8	-52.2	14.8	0.00e+00	0	42	0	783286272	68	5565
2026-01-03 12:02:18.69	314.20	9.19	-48.5	-51.9	15.1	0.00e+00	0	42	0	789577728	68	5385
2026-01-03 12:02:21.70	314.63	9.05	-48.1	-51.3	15.8	0.00e+00	0	42	0	794820608	68	4987
2026-01-03 12:02:24.71	315.05	8.90	-53.0	-68.4	3.8	1.49e+00	0	42	104	796917760	77	21424
2026-01-03 12:02:27.72	315.47	8.76	-53.7	-68.8	3.8	1.49e+00	0	42	104	796917760	78	21050
2026-01-03 12:02:30.74	315.88	8.61	-53.6	-68.8	3.8	1.49e+00	0	42	104	796917760	78	21213
2026-01-03 12:02:33.75	316.29	8.46	-53.6	-68.9	3.8	1.49e+00	0	42	104	796917760	78	21346
2026-01-03 12:02:36.76	316.70	8.31	-53.7	-68.9	3.8	1.49e+00	0	42	104	796917760	78	21420
2026-01-03 12:02:39.78	317.11	8.17	-53.7	-68.9	3.8	1.49e+00	0	42	104	796917760	78	21370
2026-01-03 12:02:42.79	317.50	8.02	-53.6	-68.8	3.8	1.49e+00	0	42	104	796917760	78	21192
2026-01-03 12:02:45.80	317.90	7.87	-53.6	-68.8	3.8	1.49e+00	0	42	104	796917760	78	21173
2026-01-03 12:02:48.82	318.29	7.72	-53.5	-68.8	3.8	1.49e+00	0	42	104	796917760	78	21206
2026-01-03 12:02:51.83	318.68	7.57	-53.5	-68.8	3.8	1.49e+00	0	42	104	796917760	78	21057
2026-01-03 12:02:54.84	319.06	7.42	-53.5	-68.8	3.8	1.49e+00	0	42	104	796917760	78	21149
2026-01-03 12:02:57.86	319.44	7.28	-53.5	-68.8	3.8	1.49e+00	0	42	104	796917760	78	21082
2026-01-03 12:03:00.87	319.82	7.13	-53.5	-68.8	3.8	1.49e+00	0	43	104	796917760	78	21141
2026-01-03 12:03:03.88	320.19	6.98	-53.5	-68.8	3.8	1.49e+00	0	43	104	796917760	78	21127
2026-01-03 12:03:06.90	320.56	6.83	-53.5	-68.8	3.8	1.49e+00	0	42	104	796917760	78	21060
2026-01-03 12:03:09.91	320.93	6.68	-53.5	-68.8	3.8	1.49e+00	0	42	104	796917760	78	21046
2026-01-03 12:03:12.93	321.29	6.53	-53.5	-68.8	3.8	1.49e+00	0	42	104	796917760	78	21114
2026-01-03 12:03:15.94	321.65	6.38	-53.5	-68.8	3.8	1.49e+00	0	42	104	796917760	78	21101
2026-01-03 12:03:18.95	322.00	6.23	-53.5	-68.8	3.8	1.49e+00	0	42	104	796917760	78	21193
2026-01-03 12:03:21.96	322.35	6.08	-53.5	-68.8	3.8	1.49e+00	0	43	104	796917760	78	21184
2026-01-03 12:03:24.98	322.70	5.93	-53.5	-68.8	3.8	1.49e+00	0	42	104	796917760	78	21039
2026-01-03 12:03:27.99	323.05	5.78	-53.5	-68.8	3.8	1.49e+00	0	43	104	796917760	78	21119
2026-01-03 12:03:31.00	323.39	5.63	-53.5	-68.8	3.8	1.49e+00	0	43	104	796917760	78	21123
2026-01-03 12:03:34.02	323.72	5.48	-53.5	-68.8	3.8	1.49e+00	0	42	104	796917760	78	21105
2026-01-03 12:03:37.03	324.06	5.33	-53.6	-68.8	3.8	1.49e+00	0	42	104	796917760	78	21143
2026-01-03 12:03:40.04	324.39	5.18	-53.5	-68.8	3.8	1.49e+00	0	42	104	796917760	78	21089
2026-01-03 12:03:43.06	324.72	5.03	-53.6	-68.8	3.8	1.49e+00	0	43	104	796917760	78	21179

#Closed at: 2026-01-03 12:03:45
#Recorded file [796 MB]: D:/Data/31040_260103_145408.dat