passes_logs/2026/01/03/T1/T1__20260103_082041_KHAYYAM_rec.log

#Pass ID: 20260103_082041_KHAYYAM
#Satellite: KHAYYAM
#Configuration: KHAYYAM_480M
#almurnet v.1.7.20251203
#Start time: 2026-01-03 08:20:42

#Version: 2.0.20230620
#Station: T1
#Location: 37.570604 lon 55.790049 lat
#TLE: 1 53370U 22096A   26003.01253182  .00010523  00000+0  42828-3 0  9997
#TLE: 2 53370  97.3571 270.2359 0001218  82.0403 278.0973 15.24686356189414

#Time	Az	El	Level	Level2	SNR	BER	BlckErr	Temp	State	Recorded	gain1	gain2
2026-01-03 08:20:42.05	182.62	5.08	-56.0	-60.5	3.5	0.00e+00	0	44	0	0	83	24433
2026-01-03 08:20:45.05	182.78	5.32	-54.7	-59.8	3.7	0.00e+00	0	45	104	0	80	26857
2026-01-03 08:20:48.05	182.94	5.56	-54.7	-59.8	3.7	0.00e+00	0	45	104	0	80	26879
2026-01-03 08:20:51.04	183.11	5.81	-54.6	-59.8	3.7	0.00e+00	0	46	104	0	80	26615
2026-01-03 08:20:54.04	183.28	6.05	-54.8	-59.9	3.7	0.00e+00	0	46	104	0	80	27128
2026-01-03 08:20:57.03	183.45	6.31	-54.7	-59.8	3.7	0.00e+00	0	46	104	0	80	26875
2026-01-03 08:21:00.04	183.62	6.56	-54.6	-59.8	3.7	0.00e+00	0	47	104	0	80	26747
2026-01-03 08:21:03.03	183.80	6.82	-54.6	-59.8	3.7	0.00e+00	0	47	104	0	80	26699
2026-01-03 08:21:06.03	183.99	7.08	-54.7	-59.8	3.7	0.00e+00	0	47	104	0	80	26717
2026-01-03 08:21:09.03	184.17	7.35	-54.7	-59.8	3.7	0.00e+00	0	47	104	0	80	26786
2026-01-03 08:21:12.02	184.37	7.62	-54.7	-59.9	3.7	0.00e+00	0	47	104	0	80	26926
2026-01-03 08:21:15.01	184.56	7.89	-54.6	-59.7	3.7	0.00e+00	0	48	104	0	80	26455
2026-01-03 08:21:18.00	184.76	8.16	-54.7	-59.8	3.7	0.00e+00	0	48	104	0	81	25303
2026-01-03 08:21:21.01	184.97	8.44	-54.6	-59.8	3.7	0.00e+00	0	48	104	0	81	25143
2026-01-03 08:21:24.00	185.18	8.73	-54.6	-59.8	3.7	0.00e+00	0	48	104	0	81	25148
2026-01-03 08:21:27.00	185.39	9.02	-54.6	-59.7	3.7	0.00e+00	0	48	104	0	81	24948
2026-01-03 08:21:30.00	185.61	9.31	-54.9	-60.0	3.7	0.00e+00	0	49	104	0	81	25820
2026-01-03 08:21:32.99	185.84	9.61	-55.2	-60.2	3.7	0.00e+00	0	48	104	0	81	26577
2026-01-03 08:21:35.99	186.07	9.91	-55.3	-60.3	3.7	0.00e+00	0	49	104	0	81	26647
2026-01-03 08:21:38.99	186.31	10.21	-56.0	-60.8	3.7	0.00e+00	0	49	104	0	82	26621
2026-01-03 08:21:41.98	186.55	10.52	-55.4	-60.3	3.7	0.00e+00	0	49	104	0	82	25377
2026-01-03 08:21:44.97	186.80	10.84	-55.3	-60.2	3.7	0.00e+00	0	49	104	0	82	25006
2026-01-03 08:21:47.97	187.05	11.16	-55.3	-60.2	3.7	0.00e+00	0	49	104	0	82	24938
2026-01-03 08:21:50.97	187.32	11.49	-54.9	-59.9	3.7	0.00e+00	0	49	104	0	81	25561
2026-01-03 08:21:53.97	187.58	11.82	-55.2	-59.9	3.6	0.00e+00	0	49	104	0	81	25566
2026-01-03 08:21:56.97	187.86	12.16	-55.7	-60.4	3.7	0.00e+00	0	49	104	0	82	25550
2026-01-03 08:21:59.96	188.15	12.50	-56.0	-60.8	3.7	0.00e+00	0	49	104	0	82	26784
2026-01-03 08:22:02.96	188.44	12.85	-55.9	-60.7	3.7	0.00e+00	0	49	104	0	82	26368
2026-01-03 08:22:05.94	188.74	13.20	-55.8	-60.6	3.7	0.00e+00	0	49	104	0	82	26166
2026-01-03 08:22:08.94	189.05	13.57	-54.9	-59.9	3.7	0.00e+00	0	49	104	0	81	25641
2026-01-03 08:22:11.94	189.36	13.94	-54.3	-59.3	3.7	0.00e+00	0	49	104	0	80	25177
2026-01-03 08:22:14.93	189.69	14.31	-54.4	-59.4	3.7	0.00e+00	0	49	104	0	80	25513
2026-01-03 08:22:17.93	190.03	14.69	-54.8	-59.5	3.7	0.00e+00	0	49	104	0	80	25834
2026-01-03 08:22:20.93	190.38	15.08	-55.0	-59.9	3.7	0.00e+00	0	50	104	0	80	27075
2026-01-03 08:22:23.93	190.73	15.48	-55.2	-60.0	3.7	0.00e+00	0	50	104	0	81	25914
2026-01-03 08:22:26.92	191.10	15.88	-55.5	-60.2	3.7	0.00e+00	0	49	104	0	81	26553
2026-01-03 08:22:29.92	191.48	16.30	-56.2	-61.0	3.7	0.00e+00	0	50	104	0	83	25946
2026-01-03 08:22:32.91	191.88	16.72	-56.0	-60.7	3.7	0.00e+00	0	50	104	0	83	24826
2026-01-03 08:22:35.91	192.28	17.15	-56.3	-61.0	3.7	0.00e+00	0	50	104	0	83	25827
2026-01-03 08:22:38.90	192.70	17.59	-55.9	-60.6	3.7	0.00e+00	0	50	104	0	83	24655
2026-01-03 08:22:41.90	193.14	18.03	-55.9	-60.7	3.7	0.00e+00	0	50	104	0	83	24929
2026-01-03 08:22:44.89	193.58	18.49	-55.8	-60.4	3.7	0.00e+00	0	50	104	0	83	24007
2026-01-03 08:22:47.90	194.05	18.96	-55.4	-60.2	3.7	0.00e+00	0	50	104	0	82	24851
2026-01-03 08:22:50.89	194.53	19.43	-55.6	-60.3	3.7	0.00e+00	0	50	104	0	82	25384
2026-01-03 08:22:53.88	195.03	19.92	-55.9	-60.7	3.7	0.00e+00	0	50	104	0	82	26486
2026-01-03 08:22:56.87	195.54	20.41	-56.4	-61.0	3.7	0.00e+00	0	50	104	0	83	25804
2026-01-03 08:22:59.87	196.08	20.92	-56.2	-60.7	3.7	0.00e+00	0	50	104	0	83	24971
2026-01-03 08:23:02.87	196.64	21.44	-56.4	-60.8	3.7	0.00e+00	0	50	104	0	83	25355
2026-01-03 08:23:05.87	197.21	21.97	-56.5	-61.1	3.7	0.00e+00	0	50	104	0	84	24652
2026-01-03 08:23:08.88	197.82	22.51	-56.3	-60.9	3.7	0.00e+00	0	50	104	0	84	24160
2026-01-03 08:23:11.88	198.44	23.06	-56.5	-61.1	3.7	0.00e+00	0	50	104	0	84	24773
2026-01-03 08:23:14.88	199.09	23.63	-56.7	-61.2	3.7	0.00e+00	0	50	104	0	85	23475
2026-01-03 08:23:17.89	199.77	24.20	-56.8	-61.4	3.7	0.00e+00	0	50	104	0	84	25606
2026-01-03 08:23:20.88	200.47	24.79	-56.9	-61.1	3.7	0.00e+00	0	50	104	0	84	24622
2026-01-03 08:23:23.88	201.20	25.39	-56.8	-61.1	3.7	0.00e+00	0	50	104	0	85	23155
2026-01-03 08:23:26.88	201.97	26.00	-57.0	-61.4	3.7	0.00e+00	0	50	104	0	85	24119
2026-01-03 08:23:29.88	202.77	26.63	-56.1	-60.2	3.7	0.00e+00	0	50	104	0	84	22161
2026-01-03 08:23:32.87	203.60	27.26	-56.0	-59.8	3.7	0.00e+00	0	50	104	0	83	22437
2026-01-03 08:23:35.87	204.47	27.91	-56.6	-61.0	3.7	0.00e+00	0	50	104	0	83	25740
2026-01-03 08:23:38.87	205.38	28.57	-56.7	-60.9	3.7	0.00e+00	0	50	104	0	84	24151
2026-01-03 08:23:41.87	206.33	29.24	-57.1	-61.5	3.7	0.00e+00	0	50	104	0	84	25931
2026-01-03 08:23:44.86	207.32	29.93	-57.0	-61.7	3.7	0.00e+00	0	50	104	0	85	24823
2026-01-03 08:23:47.86	208.36	30.62	-56.9	-61.4	3.7	0.00e+00	0	51	104	0	85	24201
2026-01-03 08:23:50.85	209.45	31.32	-57.1	-61.7	3.7	0.00e+00	0	50	104	0	85	25059
2026-01-03 08:23:53.85	210.60	32.04	-56.8	-61.0	3.7	0.00e+00	0	50	104	0	85	22950
2026-01-03 08:23:56.86	211.80	32.76	-56.1	-60.5	3.7	0.00e+00	0	50	104	0	84	22951
2026-01-03 08:23:59.85	213.05	33.49	-56.8	-61.4	3.7	0.00e+00	0	51	104	0	84	25603
2026-01-03 08:24:02.86	214.37	34.23	-57.0	-61.3	3.7	0.00e+00	0	50	104	0	85	23775
2026-01-03 08:24:05.87	215.76	34.97	-56.7	-61.5	3.7	0.00e+00	0	50	104	0	84	25750
2026-01-03 08:24:08.87	217.21	35.71	-56.4	-61.3	3.7	0.00e+00	0	51	104	0	84	25189
2026-01-03 08:24:11.87	218.73	36.45	-56.7	-61.8	3.7	0.00e+00	0	50	104	0	84	26603
2026-01-03 08:24:14.87	220.32	37.18	-57.1	-61.8	3.7	0.00e+00	0	51	104	0	84	26796
2026-01-03 08:24:17.86	221.99	37.91	-56.8	-61.9	3.7	0.00e+00	0	51	104	0	84	26982
2026-01-03 08:24:20.86	223.74	38.64	-56.8	-61.7	3.7	0.00e+00	0	51	104	0	85	24874
2026-01-03 08:24:23.86	225.57	39.35	-57.2	-61.6	3.7	0.00e+00	0	50	104	0	85	24613
2026-01-03 08:24:26.86	227.49	40.04	-57.0	-61.6	3.7	0.00e+00	0	51	104	0	85	24699
2026-01-03 08:24:29.85	229.49	40.71	-56.9	-60.7	3.7	0.00e+00	0	51	104	0	85	22272
2026-01-03 08:24:32.86	231.59	41.36	-55.5	-59.1	3.7	0.00e+00	0	51	104	0	83	20651
2026-01-03 08:24:35.86	233.76	41.98	-57.3	-61.9	3.7	0.00e+00	0	51	104	0	85	25391
2026-01-03 08:24:38.85	236.02	42.56	-57.2	-61.4	3.7	0.00e+00	0	50	104	0	85	24146
2026-01-03 08:24:41.85	238.36	43.10	-56.7	-60.9	3.7	0.00e+00	0	51	104	0	85	22709
2026-01-03 08:24:44.85	240.78	43.60	-57.0	-61.8	3.7	0.00e+00	0	51	104	0	85	25176
2026-01-03 08:24:47.84	243.28	44.05	-56.5	-61.4	3.7	0.00e+00	0	50	104	0	84	25583
2026-01-03 08:24:50.84	245.84	44.45	-57.6	-62.2	3.7	0.00e+00	0	51	104	0	86	24900
2026-01-03 08:24:53.84	248.47	44.78	-56.9	-61.6	3.7	0.00e+00	0	51	104	0	85	24535
2026-01-03 08:24:56.83	251.15	45.06	-57.5	-62.0	3.7	0.00e+00	0	50	104	0	85	25931
2026-01-03 08:24:59.83	253.87	45.26	-57.3	-61.7	3.7	0.00e+00	0	50	104	0	85	24992
2026-01-03 08:25:02.83	256.62	45.41	-56.8	-61.0	3.7	0.00e+00	0	51	104	0	85	23120
2026-01-03 08:25:05.83	259.40	45.48	-57.1	-61.7	3.7	0.00e+00	0	51	104	0	85	24870
2026-01-03 08:25:08.82	262.17	45.48	-56.9	-61.4	3.7	0.00e+00	0	51	104	0	85	24238
2026-01-03 08:25:11.81	264.93	45.40	-57.0	-61.7	3.7	0.00e+00	0	51	104	0	85	25062
2026-01-03 08:25:14.80	267.67	45.26	-57.0	-61.5	3.7	0.00e+00	0	51	104	0	85	24359
2026-01-03 08:25:17.79	270.38	45.06	-57.1	-61.8	3.7	0.00e+00	0	50	104	0	85	25296
2026-01-03 08:25:20.79	273.06	44.78	-57.2	-61.9	3.7	0.00e+00	0	51	104	0	85	25672
2026-01-03 08:25:23.79	275.69	44.44	-56.7	-60.6	3.7	0.00e+00	0	51	104	0	85	21892
2026-01-03 08:25:26.78	278.24	44.05	-57.1	-61.6	3.7	0.00e+00	0	50	104	0	84	26225
2026-01-03 08:25:29.78	280.74	43.60	-57.4	-62.0	3.7	0.00e+00	0	51	104	0	85	25806
2026-01-03 08:25:32.77	283.15	43.11	-29.2	-30.1	4.7	0.00e+00	0	51	104	0	30	15476
2026-01-03 08:25:35.77	285.49	42.57	-32.6	-33.5	4.6	0.00e+00	0	51	104	0	35	17189
2026-01-03 08:25:38.77	287.74	41.98	-35.3	-36.2	4.6	0.00e+00	0	51	104	0	42	15711
2026-01-03 08:25:41.76	289.90	41.37	-29.1	-30.0	4.6	0.00e+00	0	51	104	0	28	17197
2026-01-03 08:25:44.75	291.98	40.73	-26.9	-27.7	4.7	0.00e+00	0	51	104	0	25	15747
2026-01-03 08:25:47.75	293.98	40.06	-35.3	-36.2	4.6	0.00e+00	0	51	104	0	42	15711
2026-01-03 08:25:50.74	295.88	39.37	-28.0	-28.8	21.3	0.00e+00	0	51	0	100663296	28	15108
2026-01-03 08:25:53.73	297.70	38.67	-27.9	-28.7	21.3	0.00e+00	0	51	0	276824064	27	15793
2026-01-03 08:25:56.73	299.45	37.95	-27.3	-28.1	21.5	0.00e+00	0	51	0	452984832	26	15587
2026-01-03 08:25:59.71	301.11	37.23	-27.7	-28.5	21.4	0.00e+00	0	51	0	637534208	26	16293
2026-01-03 08:26:02.71	302.70	36.49	-27.3	-28.1	21.6	0.00e+00	0	52	0	813694976	26	15651
2026-01-03 08:26:05.72	304.22	35.76	-27.5	-28.3	21.4	0.00e+00	0	51	0	998244352	26	15964
2026-01-03 08:26:08.72	305.67	35.02	-27.8	-28.6	21.4	0.00e+00	0	52	0	1174405120	27	15617
2026-01-03 08:26:11.72	307.04	34.29	-28.0	-28.8	21.4	0.00e+00	0	52	0	1358954496	27	15915
2026-01-03 08:26:14.72	308.36	33.56	-28.6	-29.4	21.1	0.00e+00	0	51	0	1535115264	28	16152
2026-01-03 08:26:17.70	309.60	32.84	-28.4	-29.2	21.3	0.00e+00	0	52	0	1711276032	27	16667
2026-01-03 08:26:20.69	310.80	32.12	-28.5	-29.4	21.2	0.00e+00	0	52	0	1895825408	28	16018
2026-01-03 08:26:23.69	311.94	31.41	-28.8	-29.7	21.0	0.00e+00	0	52	0	2071986176	28	16613
2026-01-03 08:26:26.68	313.02	30.71	-29.0	-29.8	21.0	0.00e+00	0	52	0	2256535552	29	15905
2026-01-03 08:26:29.67	314.06	30.02	-29.1	-29.9	20.8	0.00e+00	0	52	0	2432696320	29	16169
2026-01-03 08:26:32.68	315.06	29.34	-29.2	-30.1	20.5	0.00e+00	0	52	0	2617245696	30	15539
2026-01-03 08:26:35.67	316.01	28.68	-29.4	-30.2	20.5	0.00e+00	0	52	0	2793406464	30	15826
2026-01-03 08:26:38.67	316.91	28.02	-29.7	-30.5	20.4	0.00e+00	0	52	0	2977955840	30	16308
2026-01-03 08:26:41.67	317.78	27.37	-30.1	-30.9	20.3	0.00e+00	0	52	0	3154116608	32	15201
2026-01-03 08:26:44.67	318.62	26.74	-30.4	-31.2	19.8	0.00e+00	0	52	0	3330277376	32	15748
2026-01-03 08:26:47.67	319.41	26.12	-30.3	-31.2	19.9	0.00e+00	0	52	0	3514826752	32	15689
2026-01-03 08:26:50.65	320.17	25.51	-30.5	-31.4	19.9	0.00e+00	0	52	0	3690987520	32	16019
2026-01-03 08:26:53.64	320.90	24.92	-30.6	-31.5	19.8	0.00e+00	0	52	0	3867148288	32	16236
2026-01-03 08:26:56.64	321.61	24.33	-31.2	-32.1	19.3	0.00e+00	0	52	0	4051697664	33	16457
2026-01-03 08:26:59.64	322.28	23.76	-31.4	-32.2	19.1	0.00e+00	0	52	0	4227858432	34	15767
2026-01-03 08:27:02.63	322.93	23.20	-31.6	-32.5	19.2	0.00e+00	0	52	0	4412407808	35	15387
2026-01-03 08:27:05.63	323.56	22.65	-31.8	-32.7	19.3	0.00e+00	0	52	0	4588568576	35	15759
2026-01-03 08:27:08.62	324.16	22.12	-31.9	-32.8	19.3	0.00e+00	0	52	0	4773117952	35	15852
2026-01-03 08:27:11.62	324.73	21.59	-32.2	-33.1	18.9	0.00e+00	0	52	0	4949278720	35	16429
2026-01-03 08:27:14.62	325.29	21.07	-33.6	-34.5	19.3	0.00e+00	0	52	0	5133828096	38	16234
2026-01-03 08:27:17.61	325.83	20.57	-34.2	-35.1	19.0	0.00e+00	0	52	0	5309988864	38	17373
2026-01-03 08:27:20.61	326.34	20.08	-34.0	-34.9	19.4	0.00e+00	0	52	0	5494538240	39	16071
2026-01-03 08:27:23.60	326.84	19.59	-34.3	-35.2	19.2	0.00e+00	0	52	0	5670699008	39	16710
2026-01-03 08:27:26.60	327.33	19.12	-34.2	-35.1	19.1	0.00e+00	0	52	0	5846859776	40	15554
2026-01-03 08:27:29.58	327.79	18.66	-34.9	-35.8	18.7	0.00e+00	0	52	0	6031409152	40	16818
2026-01-03 08:27:32.58	328.24	18.20	-34.4	-35.3	18.6	0.00e+00	0	52	0	6207569920	40	15914
2026-01-03 08:27:35.58	328.67	17.76	-34.7	-35.6	18.5	0.00e+00	0	53	0	6383730688	40	16528
2026-01-03 08:27:38.58	329.10	17.32	-35.0	-35.8	18.9	0.00e+00	0	52	0	6568280064	41	16005
2026-01-03 08:27:41.57	329.50	16.89	-35.3	-36.2	18.9	0.00e+00	0	53	0	6744440832	41	16612
2026-01-03 08:27:44.58	329.90	16.47	-35.6	-36.5	18.8	0.00e+00	0	53	0	6928990208	42	16342
2026-01-03 08:27:47.57	330.28	16.06	-35.5	-36.4	18.8	0.00e+00	0	52	0	7105150976	42	16116
2026-01-03 08:27:50.56	330.65	15.66	-35.8	-36.6	18.2	0.00e+00	0	52	0	7289700352	42	16546
2026-01-03 08:27:53.56	331.01	15.26	-35.7	-36.6	18.3	0.00e+00	0	52	0	7465861120	42	16496
2026-01-03 08:27:56.56	331.36	14.87	-36.2	-37.1	18.0	0.00e+00	0	52	0	7650410496	43	16530
2026-01-03 08:27:59.54	331.70	14.50	-36.3	-37.1	18.0	0.00e+00	0	52	0	7826571264	43	16564
2026-01-03 08:28:02.53	332.02	14.12	-36.4	-37.3	18.3	0.00e+00	0	52	0	8002732032	44	15983
2026-01-03 08:28:05.53	332.34	13.75	-36.6	-37.5	18.1	0.00e+00	0	52	0	8187281408	44	16289
2026-01-03 08:28:08.53	332.65	13.39	-36.8	-37.6	18.0	0.00e+00	0	53	0	8363442176	44	16565
2026-01-03 08:28:11.53	332.96	13.04	-37.0	-37.9	18.3	0.00e+00	0	52	0	8547991552	44	17088
2026-01-03 08:28:14.52	333.25	12.69	-36.8	-37.7	18.2	0.00e+00	0	52	0	8724152320	44	16723
2026-01-03 08:28:17.52	333.54	12.35	-37.3	-38.2	17.5	0.00e+00	0	52	0	8908701696	45	16757
2026-01-03 08:28:20.52	333.81	12.01	-37.6	-38.5	17.3	0.00e+00	0	53	0	9084862464	45	17223
2026-01-03 08:28:23.52	334.09	11.68	-37.1	-38.0	17.7	0.00e+00	0	53	0	9261023232	46	15443
2026-01-03 08:28:26.51	334.35	11.36	-37.6	-38.5	17.5	0.00e+00	0	53	0	9445572608	46	16352
2026-01-03 08:28:29.51	334.61	11.04	-55.6	-60.8	3.7	0.00e+00	229	52	0	9621733376	79	31785
2026-01-03 08:28:32.50	334.86	10.72	-55.2	-60.6	3.7	0.00e+00	0	52	104	9621733376	81	27532
2026-01-03 08:28:35.49	335.10	10.41	-55.6	-60.7	3.6	0.00e+00	0	52	104	9621733376	82	26344
2026-01-03 08:28:38.49	335.34	10.11	-54.4	-59.8	3.7	1.10e-03	0	52	104	9621733376	79	28344
2026-01-03 08:28:41.48	335.57	9.81	-53.7	-59.5	3.7	1.10e-03	0	52	104	9621733376	79	27206
2026-01-03 08:28:44.47	335.80	9.51	-53.4	-59.5	3.7	1.10e-03	0	52	104	9621733376	78	28924
2026-01-03 08:28:47.46	336.02	9.22	-53.1	-59.3	3.7	1.10e-03	0	52	104	9621733376	77	29866
2026-01-03 08:28:50.46	336.24	8.93	-55.6	-60.6	3.7	1.10e-03	0	52	104	9621733376	81	27774
2026-01-03 08:28:53.46	336.45	8.65	-54.4	-60.1	3.7	1.10e-03	0	52	104	9621733376	80	27604
2026-01-03 08:28:56.46	336.66	8.37	-56.4	-61.0	3.7	1.10e-03	0	52	104	9621733376	83	25955
2026-01-03 08:28:59.45	336.86	8.10	-56.6	-61.4	3.7	1.10e-03	0	52	104	9621733376	84	25622
2026-01-03 08:29:02.45	337.06	7.82	-57.3	-62.2	3.7	1.10e-03	0	52	104	9621733376	85	26331
2026-01-03 08:29:05.44	337.25	7.56	-57.0	-62.1	3.7	1.10e-03	0	52	104	9621733376	86	24535
2026-01-03 08:29:08.45	337.44	7.29	-57.8	-62.4	3.7	1.10e-03	0	52	104	9621733376	86	25675
2026-01-03 08:29:11.45	337.63	7.03	-57.0	-61.7	3.7	1.10e-03	0	52	104	9621733376	86	23620
2026-01-03 08:29:14.46	337.81	6.77	-57.0	-61.6	3.7	1.10e-03	0	51	104	9621733376	85	24576
2026-01-03 08:29:17.47	337.99	6.52	-56.9	-61.5	3.7	1.10e-03	0	52	104	9621733376	85	24343
2026-01-03 08:29:20.47	338.17	6.26	-56.9	-61.5	3.7	1.10e-03	0	52	104	9621733376	85	24405
2026-01-03 08:29:23.47	338.34	6.02	-56.8	-61.5	3.7	1.10e-03	0	52	104	9621733376	85	24254
2026-01-03 08:29:26.46	338.51	5.77	-57.0	-61.6	3.7	1.10e-03	0	51	104	9621733376	85	24642
2026-01-03 08:29:29.46	338.67	5.53	-56.9	-61.5	3.7	1.10e-03	0	52	104	9621733376	85	24341
2026-01-03 08:29:32.46	338.83	5.29	-56.8	-61.4	3.7	1.10e-03	0	52	104	9621733376	85	24090
2026-01-03 08:29:35.45	338.99	5.05	-56.7	-61.3	3.7	1.10e-03	0	52	104	9621733376	85	23953

#Closed at: 2026-01-03 08:29:38
#Recorded file [9621 MB]: D:/Data/31040_260103_112042.dat