passes_logs/2026/01/03/T1/T1__20260103_034959_FENGYUN_3G_rec.log

#Pass ID: 20260103_034959_FENGYUN 3G
#Satellite: FENGYUN 3G
#Configuration: FENGYUN 3G
#almurnet v.1.7.20251203
#Start time: 2026-01-03 03:49:59

#Version: 2.0.20230620
#Station: T1
#Location: 37.570604 lon 55.790049 lat
#TLE: 1 56232U 23055A   26002.31058000  .00046172  00000+0  73618-3 0  9997
#TLE: 2 56232  49.9934 121.3649 0004156 328.0230  32.0484 15.52711916154221

#Time	Az	El	Level	Level2	SNR	BER	BlckErr	Temp	State	Recorded	gain1	gain2
2026-01-03 03:49:59.09	241.19	5.03	-52.6	-71.7	3.8	8.47e-01	0	38	0	0	77	31220
2026-01-03 03:50:01.09	241.02	5.18	-52.6	-71.6	3.8	8.46e-01	0	39	104	0	77	31005
2026-01-03 03:50:03.10	240.85	5.33	-52.5	-71.6	3.8	8.48e-01	0	39	104	0	77	31017
2026-01-03 03:50:05.11	240.67	5.49	-52.5	-71.6	3.8	8.47e-01	0	39	104	0	77	30887
2026-01-03 03:50:07.12	240.49	5.64	-52.6	-71.6	3.8	8.46e-01	0	39	104	0	77	31055
2026-01-03 03:50:09.13	240.31	5.80	-52.6	-71.6	3.8	8.47e-01	0	39	104	0	77	30984
2026-01-03 03:50:11.14	240.12	5.96	-52.6	-71.6	3.8	8.46e-01	0	39	104	0	77	31000
2026-01-03 03:50:13.15	239.94	6.11	-52.6	-71.5	3.8	8.46e-01	0	39	104	0	77	30703
2026-01-03 03:50:15.15	239.75	6.27	-52.6	-71.6	3.8	8.46e-01	0	39	104	0	77	30819
2026-01-03 03:50:17.16	239.55	6.44	-52.6	-71.6	3.8	8.47e-01	0	39	104	0	77	30841
2026-01-03 03:50:19.17	239.36	6.60	-52.5	-71.4	3.8	8.48e-01	0	39	104	0	77	30300
2026-01-03 03:50:21.18	239.16	6.76	-52.6	-71.4	3.8	8.47e-01	0	40	104	0	77	30269
2026-01-03 03:50:23.19	238.96	6.93	-52.6	-71.6	3.8	8.47e-01	0	39	104	0	77	30942
2026-01-03 03:50:25.20	238.75	7.10	-52.6	-71.7	3.8	8.47e-01	0	40	104	0	77	31096
2026-01-03 03:50:27.21	238.54	7.26	-52.6	-71.6	3.8	8.47e-01	0	40	104	0	77	30841
2026-01-03 03:50:29.22	238.33	7.43	-52.6	-71.1	3.8	8.46e-01	0	40	104	0	77	29151
2026-01-03 03:50:31.23	238.11	7.60	-52.5	-69.2	3.8	8.46e-01	0	40	104	0	77	23386
2026-01-03 03:50:33.23	237.89	7.78	-52.5	-67.2	4.4	8.41e-01	0	40	0	0	76	19779
2026-01-03 03:50:35.24	237.67	7.95	-52.4	-66.3	4.9	8.20e-01	0	40	0	0	76	17687
2026-01-03 03:50:37.25	237.44	8.13	-52.5	-67.8	4.3	8.07e-01	0	40	0	0	76	21075
2026-01-03 03:50:39.26	237.21	8.30	-52.6	-70.0	3.8	8.37e-01	0	40	104	0	76	27152
2026-01-03 03:50:41.27	236.97	8.48	-52.6	-70.2	3.8	8.45e-01	0	40	104	0	76	27874
2026-01-03 03:50:43.27	236.74	8.66	-52.4	-65.1	5.6	8.38e-01	0	40	0	0	76	15478
2026-01-03 03:50:45.28	236.49	8.84	-51.6	-59.8	10.6	4.18e-01	0	40	0	0	75	8905
2026-01-03 03:50:47.29	236.24	9.03	-50.4	-56.0	14.6	2.18e-04	0	40	0	0	72	6823
2026-01-03 03:50:49.38	235.98	9.22	-50.0	-55.0	15.6	1.10e-06	0	40	0	0	71	6459
2026-01-03 03:50:51.59	235.70	9.42	-50.7	-56.7	13.8	6.83e-04	0	40	0	0	73	7038
2026-01-03 03:50:53.59	235.44	9.61	-49.1	-53.1	17.5	4.00e-05	0	40	0	0	70	5516
2026-01-03 03:50:55.60	235.17	9.80	-49.1	-53.2	17.6	0.00e+00	0	40	0	0	69	5892
2026-01-03 03:50:57.61	234.90	9.99	-49.0	-52.9	17.8	0.00e+00	0	40	0	0	69	5663
2026-01-03 03:50:59.61	234.63	10.19	-48.2	-51.7	18.8	0.00e+00	0	40	0	0	68	5245
2026-01-03 03:51:01.71	234.33	10.39	-48.2	-51.8	18.9	0.00e+00	0	40	0	0	68	5313
2026-01-03 03:51:03.79	234.04	10.59	-48.3	-51.9	18.7	0.00e+00	0	40	0	0	68	5394
2026-01-03 03:51:05.83	233.74	10.80	-47.8	-51.4	19.2	0.00e+00	0	41	0	0	67	5341
2026-01-03 03:51:07.84	233.44	11.00	-46.8	-49.9	20.5	0.00e+00	0	41	0	0	65	5094
2026-01-03 03:51:09.85	233.14	11.20	-46.7	-49.8	20.8	0.00e+00	0	41	0	0	65	5014
2026-01-03 03:51:11.85	232.83	11.40	-46.3	-49.2	21.3	0.00e+00	0	41	0	0	64	4958
2026-01-03 03:51:13.86	232.52	11.61	-45.7	-48.3	22.2	0.00e+00	0	41	0	0	63	4735
2026-01-03 03:51:15.88	232.20	11.82	-45.5	-48.0	22.7	0.00e+00	0	41	0	0	62	4830
2026-01-03 03:51:17.95	231.86	12.04	-45.7	-48.3	22.4	0.00e+00	0	41	0	0	62	5007
2026-01-03 03:51:19.95	231.53	12.25	-45.2	-47.7	22.9	0.00e+00	0	41	0	0	62	4652
2026-01-03 03:51:22.01	231.18	12.47	-44.5	-46.9	23.6	0.00e+00	0	41	0	0	61	4504
2026-01-03 03:51:24.01	230.84	12.68	-44.0	-46.3	24.1	0.00e+00	0	41	0	0	60	4475
2026-01-03 03:51:26.01	230.49	12.90	-43.8	-46.0	24.6	0.00e+00	0	41	0	0	59	4551
2026-01-03 03:51:28.01	230.13	13.12	-43.4	-45.5	25.0	0.00e+00	0	41	0	0	58	4586
2026-01-03 03:51:30.02	229.76	13.34	-43.4	-45.6	24.9	0.00e+00	0	41	0	0	58	4599
2026-01-03 03:51:32.03	229.39	13.57	-43.5	-45.7	24.7	0.00e+00	0	41	0	0	58	4683
2026-01-03 03:51:34.03	229.01	13.79	-43.4	-45.5	24.9	0.00e+00	0	41	0	0	58	4595
2026-01-03 03:51:36.03	228.62	14.02	-43.1	-45.2	25.2	0.00e+00	0	41	0	0	58	4433
2026-01-03 03:51:38.04	228.23	14.25	-43.2	-45.4	25.1	0.00e+00	0	41	0	0	58	4514
2026-01-03 03:51:40.05	227.82	14.48	-43.5	-45.6	24.9	0.00e+00	0	41	0	0	58	4650
2026-01-03 03:51:42.05	227.41	14.72	-43.8	-46.0	24.5	0.00e+00	0	41	0	0	58	4858
2026-01-03 03:51:44.05	226.99	14.95	-43.3	-45.5	25.1	0.00e+00	0	41	0	0	58	4569
2026-01-03 03:51:46.05	226.56	15.19	-42.6	-44.6	25.8	0.00e+00	0	41	0	0	57	4375
2026-01-03 03:51:48.12	226.11	15.44	-42.3	-44.4	26.0	0.00e+00	0	41	0	0	56	4517
2026-01-03 03:51:50.16	225.66	15.69	-42.6	-44.7	25.7	0.00e+00	0	41	0	0	56	4691
2026-01-03 03:51:52.25	225.18	15.94	-42.5	-44.5	25.9	0.00e+00	0	41	0	0	56	4582
2026-01-03 03:51:54.25	224.71	16.19	-41.8	-43.8	26.4	0.00e+00	0	41	0	0	55	4466
2026-01-03 03:51:56.26	224.24	16.44	-42.0	-44.0	26.2	0.00e+00	0	41	0	0	55	4591
2026-01-03 03:51:58.26	223.75	16.68	-42.1	-44.2	26.0	0.00e+00	0	41	0	0	55	4666
2026-01-03 03:52:00.26	223.25	16.94	-41.7	-43.7	26.5	0.00e+00	0	41	0	0	55	4423
2026-01-03 03:52:02.29	222.74	17.19	-41.6	-43.6	26.5	0.00e+00	0	41	0	0	55	4385
2026-01-03 03:52:04.29	222.22	17.45	-41.8	-43.8	26.4	0.00e+00	0	41	0	0	55	4454
2026-01-03 03:52:06.41	221.66	17.72	-41.6	-43.6	26.5	0.00e+00	0	41	0	0	55	4357
2026-01-03 03:52:08.49	221.10	17.99	-41.5	-43.4	26.8	0.00e+00	0	41	0	0	54	4539
2026-01-03 03:52:10.55	220.53	18.26	-41.5	-43.5	26.7	0.00e+00	0	41	0	0	54	4559
2026-01-03 03:52:12.55	219.97	18.52	-41.7	-43.7	26.5	0.00e+00	0	41	0	0	54	4689
2026-01-03 03:52:14.56	219.39	18.78	-41.8	-43.8	26.4	0.00e+00	0	41	0	0	54	4747
2026-01-03 03:52:16.56	218.80	19.05	-41.6	-43.5	26.7	0.00e+00	0	41	0	0	54	4596
2026-01-03 03:52:18.65	218.17	19.33	-41.2	-43.2	26.9	0.00e+00	0	41	0	0	54	4415
2026-01-03 03:52:21.23	217.38	19.67	-41.0	-43.0	27.2	0.00e+00	0	41	0	0	54	4296
2026-01-03 03:52:23.29	216.73	19.95	-41.2	-43.2	27.0	0.00e+00	0	41	0	0	54	4429
2026-01-03 03:52:25.29	216.08	20.22	-41.3	-43.2	26.9	0.00e+00	0	41	0	0	54	4426
2026-01-03 03:52:27.30	215.42	20.49	-41.1	-43.1	27.2	0.00e+00	0	41	0	0	54	4342
2026-01-03 03:52:29.30	214.75	20.76	-41.5	-43.5	26.7	0.00e+00	0	41	0	0	54	4584
2026-01-03 03:52:31.31	214.06	21.03	-41.2	-43.2	27.0	0.00e+00	0	41	0	0	54	4406
2026-01-03 03:52:33.39	213.32	21.31	-41.0	-42.9	27.3	0.00e+00	0	41	0	0	53	4512
2026-01-03 03:52:35.40	212.60	21.58	-40.9	-42.9	27.3	0.00e+00	0	41	0	0	53	4515
2026-01-03 03:52:37.40	211.87	21.85	-40.9	-42.9	27.3	0.00e+00	0	41	0	0	53	4510
2026-01-03 03:52:39.41	211.12	22.12	-40.9	-42.9	27.3	0.00e+00	0	41	0	0	53	4516
2026-01-03 03:52:41.41	210.35	22.39	-41.0	-43.0	27.2	0.00e+00	0	41	0	0	53	4550
2026-01-03 03:52:43.41	209.58	22.66	-40.6	-42.5	27.6	0.00e+00	0	41	0	0	53	4326
2026-01-03 03:52:45.42	208.78	22.92	-40.8	-42.7	27.5	0.00e+00	0	41	0	0	53	4425
2026-01-03 03:52:47.42	207.96	23.19	-40.3	-42.2	27.8	0.00e+00	0	41	0	0	52	4401
2026-01-03 03:52:49.43	207.13	23.45	-40.3	-42.2	27.9	0.00e+00	0	41	0	0	52	4423
2026-01-03 03:52:51.43	206.29	23.71	-40.3	-42.2	27.8	0.00e+00	0	41	0	0	52	4420
2026-01-03 03:52:53.44	205.42	23.97	-40.2	-42.1	27.9	0.00e+00	0	41	0	0	52	4359
2026-01-03 03:52:55.44	204.55	24.23	-40.5	-42.4	27.7	0.00e+00	0	41	0	0	52	4517
2026-01-03 03:52:57.45	203.65	24.48	-40.5	-42.5	27.6	0.00e+00	0	41	0	0	52	4550
2026-01-03 03:52:59.45	202.74	24.73	-40.6	-42.5	27.5	0.00e+00	0	41	0	0	52	4597
2026-01-03 03:53:01.46	201.81	24.97	-40.3	-42.3	27.8	0.00e+00	0	41	0	0	52	4445
2026-01-03 03:53:03.46	200.86	25.21	-40.2	-42.1	27.8	0.00e+00	0	41	0	0	52	4356
2026-01-03 03:53:05.47	199.90	25.45	-39.9	-41.8	28.3	0.00e+00	0	41	0	0	51	4447
2026-01-03 03:53:07.49	198.91	25.68	-39.6	-41.4	28.6	0.00e+00	0	41	0	0	51	4280
2026-01-03 03:53:09.49	197.92	25.91	-39.9	-41.7	28.3	0.00e+00	0	41	0	0	51	4433
2026-01-03 03:53:11.49	196.91	26.12	-40.0	-41.9	28.2	0.00e+00	0	41	0	0	51	4534
2026-01-03 03:53:13.50	195.88	26.34	-40.3	-42.2	27.8	0.00e+00	0	41	0	0	51	4699
2026-01-03 03:53:15.50	194.84	26.54	-40.1	-42.0	28.1	0.00e+00	0	41	0	0	51	4562
2026-01-03 03:53:17.51	193.78	26.74	-39.7	-41.6	28.4	0.00e+00	0	41	0	0	51	4357
2026-01-03 03:53:19.82	192.54	26.95	-40.1	-42.0	28.1	0.00e+00	0	41	0	0	51	4565
2026-01-03 03:53:21.85	191.44	27.14	-39.4	-41.2	28.7	0.00e+00	0	41	0	0	50	4439
2026-01-03 03:53:23.86	190.33	27.31	-39.3	-41.2	28.8	0.00e+00	0	41	0	0	50	4403
2026-01-03 03:53:25.86	189.22	27.47	-39.8	-41.6	28.3	0.00e+00	0	41	0	0	50	4644
2026-01-03 03:53:27.87	188.09	27.62	-39.2	-41.0	28.6	0.00e+00	0	41	0	0	50	4313
2026-01-03 03:53:29.90	186.94	27.76	-39.8	-41.6	28.4	0.00e+00	0	41	0	0	50	4651
2026-01-03 03:53:31.90	185.79	27.89	-40.2	-42.1	28.0	0.00e+00	0	41	0	0	51	4627
2026-01-03 03:53:33.90	184.63	28.01	-40.0	-41.9	28.2	0.00e+00	0	41	0	0	51	4507
2026-01-03 03:53:35.91	183.45	28.12	-39.6	-41.5	28.4	0.00e+00	0	41	0	0	51	4324
2026-01-03 03:53:37.92	182.27	28.22	-40.1	-42.0	28.2	0.00e+00	0	41	0	0	51	4556
2026-01-03 03:53:39.92	181.09	28.31	-40.3	-42.3	27.8	0.00e+00	0	41	0	0	51	4710
2026-01-03 03:53:41.93	179.89	28.38	-39.7	-41.6	28.4	0.00e+00	0	41	0	0	51	4358
2026-01-03 03:53:43.93	178.70	28.44	-40.0	-41.9	28.2	0.00e+00	0	41	0	0	51	4505
2026-01-03 03:53:45.93	177.50	28.49	-39.9	-41.8	28.3	0.00e+00	0	41	0	0	51	4475
2026-01-03 03:53:47.94	176.28	28.53	-39.3	-41.2	28.7	0.00e+00	0	41	0	0	50	4398
2026-01-03 03:53:49.94	175.08	28.55	-39.2	-41.1	28.7	0.00e+00	0	41	0	0	50	4346
2026-01-03 03:53:51.95	173.86	28.56	-39.3	-41.1	28.7	0.00e+00	0	41	0	0	50	4356
2026-01-03 03:53:53.95	172.66	28.56	-39.3	-41.1	28.7	0.00e+00	0	41	0	0	50	4391
2026-01-03 03:53:56.02	171.41	28.54	-39.7	-41.5	28.4	0.00e+00	0	41	0	0	50	4588
2026-01-03 03:53:58.04	170.19	28.51	-39.2	-41.1	28.8	0.00e+00	0	41	0	0	50	4357
2026-01-03 03:54:00.04	168.98	28.47	-39.6	-41.5	28.4	0.00e+00	0	41	0	0	50	4569
2026-01-03 03:54:02.05	167.78	28.42	-39.6	-41.4	28.5	0.00e+00	0	41	0	0	50	4540
2026-01-03 03:54:04.05	166.59	28.35	-39.0	-40.8	28.9	0.00e+00	0	41	0	0	50	4236
2026-01-03 03:54:06.06	165.39	28.28	-39.2	-41.1	28.7	0.00e+00	0	41	0	0	49	4609
2026-01-03 03:54:08.07	164.21	28.19	-39.9	-41.8	28.1	0.00e+00	0	41	0	0	50	4757
2026-01-03 03:54:10.07	163.03	28.09	-39.6	-41.5	28.4	0.00e+00	0	41	0	0	50	4585
2026-01-03 03:54:12.08	161.86	27.97	-39.7	-41.5	28.3	0.00e+00	0	41	0	0	50	4596
2026-01-03 03:54:14.29	160.59	27.84	-39.5	-41.4	28.5	0.00e+00	0	41	0	0	50	4520
2026-01-03 03:54:16.49	159.33	27.69	-39.6	-41.5	28.3	0.00e+00	0	41	0	0	50	4554
2026-01-03 03:54:18.49	158.20	27.54	-40.1	-42.0	28.1	0.00e+00	0	41	0	0	50	4837
2026-01-03 03:54:20.50	157.08	27.38	-39.9	-41.8	28.2	0.00e+00	0	41	0	0	51	4479
2026-01-03 03:54:22.82	155.80	27.19	-39.7	-41.6	28.3	0.00e+00	0	41	0	0	51	4341
2026-01-03 03:54:25.05	154.59	26.99	-39.7	-41.5	28.4	0.00e+00	0	41	0	0	51	4334
2026-01-03 03:54:27.22	153.42	26.79	-39.5	-41.3	28.6	0.00e+00	0	41	0	0	50	4478
2026-01-03 03:54:29.33	152.31	26.59	-39.7	-41.5	28.4	0.00e+00	0	41	0	0	50	4586
2026-01-03 03:54:31.33	151.26	26.38	-40.1	-42.0	28.0	0.00e+00	0	41	0	0	50	4865
2026-01-03 03:54:33.34	150.23	26.17	-39.8	-41.7	28.2	0.00e+00	0	41	0	0	50	4685
2026-01-03 03:54:35.35	149.22	25.96	-39.8	-41.6	28.3	0.00e+00	0	41	0	0	50	4648
2026-01-03 03:54:37.35	148.22	25.74	-39.8	-41.7	28.3	0.00e+00	0	41	0	0	50	4683
2026-01-03 03:54:39.46	147.19	25.49	-39.5	-41.4	28.6	0.00e+00	0	41	0	0	50	4510
2026-01-03 03:54:41.53	146.19	25.25	-39.6	-41.5	28.4	0.00e+00	0	41	0	0	50	4576
2026-01-03 03:54:43.54	145.24	25.01	-39.6	-41.5	28.4	0.00e+00	0	41	0	0	50	4557
2026-01-03 03:54:45.68	144.25	24.75	-40.1	-42.0	28.0	0.00e+00	0	41	0	0	50	4850
2026-01-03 03:54:47.98	143.21	24.47	-39.8	-41.7	28.2	0.00e+00	0	41	0	0	51	4404
2026-01-03 03:54:49.99	142.31	24.22	-39.7	-41.6	28.3	0.00e+00	0	41	0	0	51	4379
2026-01-03 03:54:51.99	141.44	23.96	-39.8	-41.7	28.2	0.00e+00	0	41	0	0	51	4420
2026-01-03 03:54:54.00	140.57	23.70	-39.9	-41.7	28.3	0.00e+00	0	41	0	0	51	4434
2026-01-03 03:54:56.00	139.73	23.44	-40.0	-41.9	28.2	0.00e+00	0	41	0	0	51	4499
2026-01-03 03:54:58.01	138.90	23.18	-40.3	-42.2	27.9	0.00e+00	0	41	0	0	51	4690
2026-01-03 03:55:00.02	138.09	22.91	-40.3	-42.2	27.8	0.00e+00	0	41	0	0	51	4699
2026-01-03 03:55:02.02	137.30	22.65	-39.9	-41.8	28.1	0.00e+00	0	41	0	0	51	4468
2026-01-03 03:55:04.03	136.52	22.38	-40.3	-42.2	27.9	0.00e+00	0	42	0	0	51	4666
2026-01-03 03:55:06.03	135.76	22.11	-40.7	-42.6	27.4	0.00e+00	0	41	0	0	52	4651
2026-01-03 03:55:08.09	134.99	21.83	-40.7	-42.6	27.4	0.00e+00	0	41	0	0	52	4624
2026-01-03 03:55:10.13	134.25	21.56	-40.2	-42.1	27.8	0.00e+00	0	41	0	0	52	4364
2026-01-03 03:55:12.17	133.52	21.29	-40.9	-42.8	27.2	0.00e+00	0	41	0	0	52	4739
2026-01-03 03:55:14.13	132.83	21.02	-41.1	-43.1	27.0	0.00e+00	0	41	0	0	52	4872
2026-01-03 03:55:16.14	132.14	20.75	-41.0	-43.0	27.1	0.00e+00	0	42	0	0	53	4549
2026-01-03 03:55:18.14	131.47	20.48	-41.5	-43.5	26.6	0.00e+00	0	41	0	0	53	4819
2026-01-03 03:55:20.18	130.80	20.21	-41.5	-43.5	26.6	0.00e+00	0	41	0	0	53	4868
2026-01-03 03:55:22.26	130.13	19.93	-40.8	-42.8	27.3	0.00e+00	0	42	0	0	53	4445
2026-01-03 03:55:24.20	129.52	19.67	-40.7	-42.7	27.4	0.00e+00	0	41	0	0	53	4393
2026-01-03 03:55:26.20	128.91	19.40	-41.1	-43.1	26.9	0.00e+00	0	41	0	0	53	4627
2026-01-03 03:55:28.21	128.30	19.14	-41.3	-43.2	26.8	0.00e+00	0	41	0	0	53	4699
2026-01-03 03:55:30.55	127.61	18.83	-41.4	-43.4	26.6	0.00e+00	0	41	0	0	53	4790
2026-01-03 03:55:32.56	127.03	18.56	-41.4	-43.4	26.7	0.00e+00	0	42	0	0	53	4808
2026-01-03 03:55:34.56	126.47	18.30	-41.2	-43.2	26.9	0.00e+00	0	42	0	0	53	4676
2026-01-03 03:55:36.57	125.91	18.04	-41.2	-43.1	26.9	0.00e+00	0	41	0	0	53	4649
2026-01-03 03:55:38.61	125.36	17.78	-41.4	-43.4	26.7	0.00e+00	0	41	0	0	53	4764
2026-01-03 03:55:40.69	124.81	17.51	-41.4	-43.3	26.7	0.00e+00	0	42	0	0	53	4754
2026-01-03 03:55:42.74	124.28	17.25	-41.8	-43.8	26.3	0.00e+00	0	41	0	0	54	4722
2026-01-03 03:55:44.75	123.77	17.00	-42.2	-44.3	25.9	0.00e+00	0	41	0	0	55	4741
2026-01-03 03:55:46.75	123.28	16.74	-41.8	-43.8	26.3	0.00e+00	0	41	0	0	55	4453
2026-01-03 03:55:48.76	122.79	16.49	-41.5	-43.5	26.5	0.00e+00	0	41	0	0	54	4576
2026-01-03 03:55:50.76	122.31	16.25	-42.2	-44.2	26.0	0.00e+00	0	41	0	0	54	4981
2026-01-03 03:55:52.75	121.85	16.00	-42.6	-44.7	25.5	0.00e+00	0	41	0	0	55	4956
2026-01-03 03:55:54.76	121.39	15.76	-42.8	-44.9	25.5	0.00e+00	0	41	0	0	56	4769
2026-01-03 03:55:56.76	120.94	15.52	-42.4	-44.4	25.9	0.00e+00	0	42	0	0	56	4534
2026-01-03 03:55:58.76	120.51	15.28	-42.3	-44.4	25.9	0.00e+00	0	42	0	0	56	4510
2026-01-03 03:56:00.78	120.07	15.04	-42.3	-44.3	26.0	0.00e+00	0	41	0	0	56	4469
2026-01-03 03:56:02.94	119.62	14.78	-43.0	-45.1	25.3	0.00e+00	0	42	0	0	56	4891
2026-01-03 03:56:04.94	119.21	14.55	-43.4	-45.6	24.9	0.00e+00	0	41	0	0	57	4876
2026-01-03 03:56:07.23	118.75	14.28	-43.5	-45.7	24.7	0.00e+00	0	42	0	0	57	4952
2026-01-03 03:56:09.27	118.34	14.05	-43.0	-45.2	25.1	0.00e+00	0	42	0	0	57	4672
2026-01-03 03:56:11.28	117.96	13.82	-43.0	-45.1	25.2	0.00e+00	0	41	0	0	57	4624
2026-01-03 03:56:13.28	117.58	13.60	-43.0	-45.2	25.1	0.00e+00	0	42	0	0	57	4663
2026-01-03 03:56:15.29	117.20	13.37	-43.5	-45.6	24.7	0.00e+00	0	41	0	0	57	4923
2026-01-03 03:56:17.29	116.84	13.15	-43.8	-46.0	24.4	0.00e+00	0	42	0	0	58	4844
2026-01-03 03:56:19.71	116.41	12.89	-43.9	-46.1	24.3	0.00e+00	0	42	0	0	58	4917
2026-01-03 03:56:22.10	115.99	12.63	-43.9	-46.1	24.3	0.00e+00	0	42	0	0	58	4924
2026-01-03 03:56:24.25	115.63	12.40	-44.0	-46.2	24.1	0.00e+00	0	42	0	0	58	4973
2026-01-03 03:56:26.41	115.27	12.17	-44.0	-46.3	24.1	0.00e+00	0	42	0	0	58	5001
2026-01-03 03:56:28.59	114.91	11.94	-44.4	-46.7	23.7	0.00e+00	0	42	0	0	59	4952
2026-01-03 03:56:30.96	114.53	11.70	-44.6	-46.9	23.5	0.00e+00	0	42	0	0	59	5083
2026-01-03 03:56:33.12	114.19	11.47	-44.5	-46.9	23.5	0.00e+00	0	42	0	0	59	5043
2026-01-03 03:56:35.27	113.86	11.26	-44.6	-47.0	23.4	0.00e+00	0	41	0	0	59	5109
2026-01-03 03:56:37.42	113.54	11.04	-44.6	-46.9	23.4	0.00e+00	0	41	0	0	59	5082
2026-01-03 03:56:39.59	113.22	10.82	-44.4	-46.7	23.7	0.00e+00	0	41	0	0	59	4934
2026-01-03 03:56:41.52	112.94	10.63	-44.5	-46.8	23.6	0.00e+00	0	42	0	0	59	5016
2026-01-03 03:56:43.53	112.66	10.44	-44.7	-47.1	23.3	0.00e+00	0	41	0	0	59	5167
2026-01-03 03:56:45.54	112.37	10.24	-44.8	-47.2	23.1	0.00e+00	0	42	0	0	60	4979
2026-01-03 03:56:47.62	112.09	10.04	-45.1	-47.7	22.7	0.00e+00	0	42	0	0	60	5224
2026-01-03 03:56:49.62	111.82	9.85	-45.3	-47.9	22.4	0.00e+00	0	41	0	0	61	5046
2026-01-03 03:56:51.63	111.55	9.66	-45.4	-48.0	22.3	0.00e+00	0	42	0	0	61	5139
2026-01-03 03:56:53.63	111.29	9.47	-45.3	-47.8	22.4	0.00e+00	0	42	0	0	61	5038
2026-01-03 03:56:55.78	111.02	9.27	-45.2	-47.8	22.5	0.00e+00	0	42	0	0	61	4986
2026-01-03 03:56:57.99	110.74	9.07	-45.1	-47.6	22.7	0.00e+00	0	42	0	0	61	4912
2026-01-03 03:57:00.00	110.50	8.89	-53.0	-71.3	3.9	0.00e+00	0	41	104	0	76	31693
2026-01-03 03:57:02.01	110.25	8.71	-53.3	-72.0	3.8	8.47e-01	0	42	104	0	77	32193
2026-01-03 03:57:04.02	110.02	8.53	-53.3	-72.1	3.8	8.46e-01	0	42	104	0	77	32567
2026-01-03 03:57:06.03	109.78	8.35	-53.3	-72.1	3.8	8.47e-01	0	42	104	0	77	32812
2026-01-03 03:57:08.04	109.55	8.17	-53.1	-72.2	3.8	8.47e-01	0	42	104	0	77	33105
2026-01-03 03:57:10.05	109.32	8.00	-53.2	-72.2	3.8	8.47e-01	0	42	104	0	77	33119
2026-01-03 03:57:12.06	109.10	7.82	-53.3	-72.3	3.8	8.46e-01	0	42	104	0	77	33451
2026-01-03 03:57:14.06	108.88	7.65	-53.3	-72.3	3.8	8.47e-01	0	42	104	0	77	33327
2026-01-03 03:57:16.07	108.67	7.48	-53.3	-72.3	3.8	8.45e-01	0	42	104	0	77	33568
2026-01-03 03:57:18.08	108.45	7.31	-53.3	-72.3	3.8	8.47e-01	0	42	104	0	77	33400
2026-01-03 03:57:20.09	108.24	7.14	-53.3	-72.2	3.8	8.47e-01	0	42	104	0	77	33307
2026-01-03 03:57:22.10	108.04	6.98	-53.3	-72.3	3.8	8.46e-01	0	42	104	0	77	33429
2026-01-03 03:57:24.11	107.84	6.81	-53.3	-72.2	3.8	8.48e-01	0	42	104	0	77	33300
2026-01-03 03:57:26.12	107.64	6.65	-53.3	-72.3	3.8	8.47e-01	0	42	104	0	77	33414
2026-01-03 03:57:28.13	107.44	6.48	-53.3	-72.2	3.8	8.47e-01	0	42	104	0	77	33238
2026-01-03 03:57:30.14	107.25	6.32	-53.3	-72.2	3.8	8.46e-01	0	42	104	0	77	33291
2026-01-03 03:57:32.14	107.06	6.16	-53.3	-72.2	3.8	8.48e-01	0	42	104	0	77	33143
2026-01-03 03:57:34.15	106.87	6.00	-53.3	-72.3	3.8	8.46e-01	0	42	104	0	77	33314
2026-01-03 03:57:36.16	106.69	5.85	-53.3	-72.3	3.8	8.47e-01	0	42	104	0	77	33347
2026-01-03 03:57:38.17	106.51	5.69	-53.3	-72.2	3.8	8.47e-01	0	42	104	0	77	33259
2026-01-03 03:57:40.18	106.33	5.54	-53.2	-72.2	3.8	8.47e-01	0	42	104	0	77	33183
2026-01-03 03:57:42.18	106.15	5.38	-53.2	-72.2	3.8	8.48e-01	0	42	104	0	77	33073
2026-01-03 03:57:44.19	105.98	5.23	-53.3	-72.2	3.8	8.48e-01	0	42	104	0	77	33196
2026-01-03 03:57:46.20	105.81	5.08	-53.2	-72.2	3.8	8.47e-01	0	42	104	0	77	33134
2026-01-03 03:57:48.21	105.64	4.93	-53.3	-72.3	3.8	8.48e-01	0	42	104	0	77	33393

#Closed at: 2026-01-03 03:57:48
#Recorded file [0 MB]: D:/Data/31040_260103_064959.dat