passes_logs/2026/01/03/T1/T1__20260103_002045_NOAA_20_JPSS-1_rec.log

#Pass ID: 20260103_002045_NOAA 20 (JPSS-1)
#Satellite: NOAA 20 (JPSS-1)
#Configuration: NOAA 20
#almurnet v.1.7.20251203
#Start time: 2026-01-03 00:20:45

#Version: 2.0.20230620
#Station: T1
#Location: 37.570604 lon 55.790049 lat
#TLE: 1 43013U 17073A   26002.21975278  .00000202  00000+0  11669-3 0  9999
#TLE: 2 43013  98.7622 303.2950 0001915  57.9213 302.2149 14.19532512420923

#Time	Az	El	Level	Level2	SNR	BER	BlckErr	Temp	State	Recorded	gain1	gain2
2026-01-03 00:20:45.20	12.27	4.99	-47.9	-64.0	3.8	1.49e+00	0	40	0	0	67	22793
2026-01-03 00:20:48.21	12.18	5.20	-46.3	-64.0	3.8	1.49e+00	0	40	104	0	63	28936
2026-01-03 00:20:51.22	12.08	5.42	-46.2	-64.0	3.8	1.49e+00	0	40	104	0	63	28739
2026-01-03 00:20:54.23	11.98	5.63	-46.2	-63.9	3.8	1.49e+00	0	40	104	0	63	28387
2026-01-03 00:20:57.24	11.89	5.85	-46.2	-63.8	3.8	1.49e+00	0	40	104	0	63	28111
2026-01-03 00:21:00.26	11.78	6.06	-46.2	-63.6	3.8	1.49e+00	0	40	104	0	63	27697
2026-01-03 00:21:03.27	11.68	6.28	-46.2	-63.4	3.8	1.49e+00	0	41	104	0	63	26874
2026-01-03 00:21:06.28	11.58	6.50	-46.2	-63.1	3.8	1.49e+00	0	41	104	0	63	26105
2026-01-03 00:21:09.30	11.47	6.72	-46.2	-63.1	3.8	1.49e+00	0	41	104	0	63	25994
2026-01-03 00:21:12.31	11.37	6.95	-46.2	-63.6	3.8	1.49e+00	0	41	104	0	63	27438
2026-01-03 00:21:15.32	11.26	7.17	-46.3	-64.0	3.8	1.49e+00	0	41	104	0	63	28814
2026-01-03 00:21:18.34	11.15	7.40	-46.2	-63.5	3.8	1.49e+00	0	41	104	0	63	27257
2026-01-03 00:21:21.35	11.03	7.63	-46.1	-61.3	3.9	1.49e+00	0	41	104	0	63	21099
2026-01-03 00:21:24.36	10.92	7.86	-45.9	-57.6	5.5	6.37e-01	0	41	0	3145728	63	13872
2026-01-03 00:21:27.37	10.80	8.10	-45.4	-54.2	8.4	6.74e-02	0	41	0	8388608	62	9922
2026-01-03 00:21:30.38	10.68	8.33	-44.8	-51.8	10.9	2.84e-03	0	41	0	14680064	61	7934
2026-01-03 00:21:33.39	10.56	8.57	-44.5	-50.7	12.1	3.29e-04	0	42	0	19922944	61	6997
2026-01-03 00:21:36.40	10.44	8.81	-44.8	-51.5	11.2	1.03e-03	0	42	0	25165824	61	7715
2026-01-03 00:21:39.41	10.32	9.05	-45.5	-54.6	8.1	5.08e-02	0	42	0	31457280	61	10949
2026-01-03 00:21:42.45	10.19	9.30	-46.2	-61.8	3.8	1.16e+00	0	42	104	35651584	63	22379
2026-01-03 00:21:45.58	10.05	9.56	-43.6	-48.4	14.3	0.00e+00	0	42	0	39845888	59	6041
2026-01-03 00:21:48.44	9.93	9.79	-42.5	-46.3	16.5	0.00e+00	0	42	0	46137344	57	5325
2026-01-03 00:21:51.60	9.78	10.06	-42.6	-46.6	16.2	0.00e+00	0	42	0	51380224	56	5807
2026-01-03 00:21:54.46	9.65	10.30	-42.3	-45.9	16.9	0.00e+00	0	42	0	56623104	56	5352
2026-01-03 00:21:57.69	9.50	10.57	-42.2	-45.6	17.3	0.00e+00	0	42	0	62914560	56	5160
2026-01-03 00:22:00.84	9.35	10.84	-42.2	-45.5	17.3	0.00e+00	0	42	0	69206016	56	5154
2026-01-03 00:22:03.70	9.21	11.09	-42.1	-45.3	17.6	0.00e+00	0	42	0	74448896	56	4987
2026-01-03 00:22:07.02	9.05	11.38	-41.7	-44.7	18.0	0.00e+00	0	42	0	80740352	55	4958
2026-01-03 00:22:09.95	8.90	11.64	-41.7	-44.6	18.1	0.00e+00	0	42	0	85983232	55	4883
2026-01-03 00:22:13.25	8.73	11.94	-41.8	-44.7	18.0	0.00e+00	0	42	0	92274688	55	4976
2026-01-03 00:22:16.02	8.59	12.19	-41.7	-44.6	18.1	0.00e+00	0	42	0	97517568	55	4905
2026-01-03 00:22:19.60	8.39	12.52	-41.8	-44.7	18.0	0.00e+00	0	42	0	103809024	55	4950
2026-01-03 00:22:22.32	8.25	12.77	-41.8	-44.6	18.2	0.00e+00	0	42	0	109051904	55	4921
2026-01-03 00:22:25.61	8.06	13.08	-41.7	-44.5	18.3	0.00e+00	0	42	0	115343360	55	4832
2026-01-03 00:22:28.48	7.90	13.35	-41.7	-44.5	18.3	0.00e+00	0	42	0	120586240	55	4829
2026-01-03 00:22:31.63	7.71	13.65	-41.8	-44.5	18.3	0.00e+00	0	42	0	126877696	55	4848
2026-01-03 00:22:34.91	7.52	13.97	-41.7	-44.4	18.4	0.00e+00	0	42	0	133169152	55	4768
2026-01-03 00:22:37.77	7.34	14.25	-41.8	-44.4	18.4	0.00e+00	0	42	0	138412032	55	4810
2026-01-03 00:22:40.93	7.15	14.56	-41.8	-44.4	18.4	0.00e+00	0	42	0	143654912	55	4766
2026-01-03 00:22:43.79	6.97	14.85	-41.7	-44.4	18.4	0.00e+00	0	42	0	149946368	55	4769
2026-01-03 00:22:47.03	6.76	15.17	-41.9	-44.5	18.3	0.00e+00	0	42	0	155189248	55	4848
2026-01-03 00:22:49.89	6.57	15.47	-41.8	-44.3	18.5	0.00e+00	0	42	0	160432128	55	4732
2026-01-03 00:22:53.04	6.35	15.79	-41.8	-44.4	18.5	0.00e+00	0	42	0	166723584	55	4787
2026-01-03 00:22:55.91	6.15	16.09	-41.9	-44.5	18.4	0.00e+00	0	42	0	171966464	55	4828
2026-01-03 00:22:59.06	5.93	16.43	-41.8	-44.3	18.5	0.00e+00	0	42	0	178257920	55	4753
2026-01-03 00:23:01.97	5.72	16.74	-41.8	-44.4	18.5	0.00e+00	0	42	0	183500800	55	4777
2026-01-03 00:23:05.13	5.48	17.08	-42.0	-44.5	18.3	0.00e+00	0	42	0	189792256	55	4863
2026-01-03 00:23:07.99	5.27	17.40	-42.1	-44.6	18.3	0.00e+00	0	43	0	195035136	55	4897
2026-01-03 00:23:11.14	5.02	17.75	-42.1	-44.6	18.2	0.00e+00	0	42	0	200278016	55	4924
2026-01-03 00:23:14.00	4.79	18.07	-42.0	-44.5	18.4	0.00e+00	0	42	0	206569472	55	4847
2026-01-03 00:23:17.16	4.54	18.43	-42.1	-44.5	18.4	0.00e+00	0	42	0	211812352	55	4868
2026-01-03 00:23:20.10	4.29	18.77	-41.9	-44.4	18.5	0.00e+00	0	42	0	218103808	55	4781
2026-01-03 00:23:23.50	4.00	19.17	-41.9	-44.5	18.4	0.00e+00	0	42	0	224395264	55	4822
2026-01-03 00:23:26.22	3.76	19.49	-42.0	-44.5	18.4	0.00e+00	0	42	0	228589568	55	4856
2026-01-03 00:23:29.97	3.42	19.94	-42.1	-44.7	18.3	0.00e+00	0	42	0	235929600	55	4933
2026-01-03 00:23:32.79	3.16	20.28	-42.1	-44.7	18.2	0.00e+00	0	42	0	241172480	55	4951
2026-01-03 00:23:36.23	2.84	20.71	-42.1	-44.6	18.3	0.00e+00	0	42	0	247463936	55	4892
2026-01-03 00:23:39.14	2.55	21.07	-42.4	-44.9	18.0	0.00e+00	0	42	0	253755392	55	5100
2026-01-03 00:23:42.86	2.18	21.54	-42.5	-45.1	17.9	0.00e+00	0	42	0	260046848	55	5180
2026-01-03 00:23:45.60	1.90	21.89	-42.6	-45.4	17.6	0.00e+00	0	42	0	265289728	55	5348
2026-01-03 00:23:49.37	1.50	22.38	-42.8	-45.6	17.6	0.00e+00	0	43	0	272629760	56	5194
2026-01-03 00:23:52.14	1.20	22.75	-43.2	-46.1	17.1	0.00e+00	0	42	0	277872640	56	5487
2026-01-03 00:23:56.21	0.74	23.30	-43.3	-46.1	17.0	0.00e+00	0	42	0	285212672	57	5216
2026-01-03 00:23:58.97	0.42	23.67	-43.5	-46.4	16.8	0.00e+00	0	42	0	290455552	57	5353
2026-01-03 00:24:02.93	359.95	24.22	-43.6	-46.6	16.7	0.00e+00	0	43	0	297795584	58	5160
2026-01-03 00:24:06.06	359.56	24.66	-43.5	-46.4	16.8	0.00e+00	0	43	0	304087040	58	5085
2026-01-03 00:24:09.07	359.18	25.09	-43.6	-46.6	16.7	0.00e+00	0	43	0	309329920	58	5164
2026-01-03 00:24:12.07	358.79	25.52	-43.8	-46.8	16.5	0.00e+00	0	43	0	314572800	58	5286
2026-01-03 00:24:15.14	358.38	25.97	-44.0	-47.0	16.2	0.00e+00	0	43	0	320864256	58	5431
2026-01-03 00:24:18.24	357.95	26.42	-44.2	-47.2	16.0	0.00e+00	0	43	0	326107136	59	5271
2026-01-03 00:24:21.48	357.49	26.91	-44.3	-47.4	15.8	0.00e+00	0	43	0	332398592	59	5377
2026-01-03 00:24:24.35	357.06	27.34	-44.5	-47.7	15.6	0.00e+00	0	43	0	337641472	59	5553
2026-01-03 00:24:27.50	356.59	27.83	-44.2	-47.3	15.9	0.00e+00	0	43	0	343932928	59	5321
2026-01-03 00:24:30.37	356.14	28.27	-44.2	-47.3	16.0	0.00e+00	0	43	0	349175808	59	5307
2026-01-03 00:24:33.60	355.62	28.78	-43.9	-46.8	16.5	0.00e+00	0	43	0	355467264	59	5000
2026-01-03 00:24:36.46	355.15	29.24	-44.0	-47.0	16.3	0.00e+00	0	43	0	360710144	59	5106
2026-01-03 00:24:39.61	354.61	29.75	-43.7	-46.7	16.6	0.00e+00	0	43	0	367001600	59	4939
2026-01-03 00:24:42.48	354.11	30.22	-44.0	-47.0	16.2	0.00e+00	0	42	0	372244480	59	5143
2026-01-03 00:24:45.66	353.53	30.74	-44.1	-47.1	16.2	0.00e+00	0	43	0	378535936	59	5193
2026-01-03 00:24:48.66	352.97	31.24	-44.4	-47.4	15.8	0.00e+00	0	43	0	383778816	59	5377
2026-01-03 00:24:51.98	352.32	31.80	-44.5	-47.7	15.7	0.00e+00	0	43	0	390070272	59	5541
2026-01-03 00:24:54.70	351.78	32.27	-44.6	-47.9	15.4	0.00e+00	0	43	0	395313152	59	5665
2026-01-03 00:24:58.00	351.10	32.84	-44.5	-47.9	15.4	0.00e+00	0	43	0	400556032	60	5346
2026-01-03 00:25:00.91	350.47	33.34	-44.7	-48.1	15.3	0.00e+00	0	43	0	406847488	60	5484
2026-01-03 00:25:04.28	349.73	33.94	-44.8	-48.5	14.9	0.00e+00	0	43	0	413138944	60	5743
2026-01-03 00:25:07.00	349.11	34.42	-44.7	-48.3	15.1	0.00e+00	0	43	0	418381824	60	5601
2026-01-03 00:25:10.29	348.33	35.01	-44.7	-48.2	15.2	0.00e+00	0	43	0	423624704	60	5567
2026-01-03 00:25:13.09	347.64	35.51	-44.2	-47.4	16.0	0.00e+00	0	43	0	429916160	60	5073
2026-01-03 00:25:16.57	346.76	36.14	-44.1	-47.2	16.2	0.00e+00	0	43	0	436207616	60	4944
2026-01-03 00:25:19.29	346.04	36.64	-44.2	-47.4	16.0	0.00e+00	0	43	0	441450496	60	5053
2026-01-03 00:25:22.59	345.15	37.24	-44.0	-47.2	16.2	0.00e+00	0	43	0	446693376	59	5226
2026-01-03 00:25:25.31	344.38	37.75	-43.9	-47.1	16.2	0.00e+00	0	43	0	451936256	59	5197
2026-01-03 00:25:28.57	343.43	38.35	-44.4	-47.7	15.7	0.00e+00	0	43	0	458227712	59	5543
2026-01-03 00:25:31.58	342.52	38.91	-44.8	-48.1	15.2	0.00e+00	0	43	0	464519168	60	5516
2026-01-03 00:25:34.59	341.58	39.46	-44.5	-47.7	15.7	0.00e+00	0	43	0	469762048	60	5234
2026-01-03 00:25:37.55	340.63	40.01	-44.4	-47.6	15.7	0.00e+00	0	43	0	475004928	60	5199
2026-01-03 00:25:40.65	339.59	40.59	-44.1	-47.3	16.1	0.00e+00	0	43	0	481296384	60	5023
2026-01-03 00:25:43.89	338.46	41.19	-44.0	-47.0	16.4	0.00e+00	0	43	0	487587840	59	5130
2026-01-03 00:25:46.75	337.43	41.71	-45.1	-48.8	14.6	0.00e+00	0	43	0	492830720	60	5935
2026-01-03 00:25:49.91	336.26	42.29	-45.1	-48.9	14.5	0.00e+00	0	43	0	498073600	61	5706
2026-01-03 00:25:52.77	335.16	42.80	-44.6	-48.3	15.1	0.00e+00	0	43	0	503316480	61	5300
2026-01-03 00:25:56.07	333.84	43.39	-44.7	-48.0	15.4	0.00e+00	0	43	0	509607936	61	5146
2026-01-03 00:25:58.79	332.72	43.87	-44.6	-47.8	15.6	7.00e-07	0	43	0	514850816	61	5018
2026-01-03 00:26:02.04	331.33	44.44	-44.7	-48.0	15.4	0.00e+00	0	43	0	521142272	60	5412
2026-01-03 00:26:04.90	330.07	44.93	-44.7	-48.2	15.3	0.00e+00	0	43	0	526385152	60	5542
2026-01-03 00:26:08.05	328.64	45.45	-43.8	-46.8	16.5	0.00e+00	0	43	0	532676608	59	5013
2026-01-03 00:26:11.00	327.25	45.93	-43.9	-46.9	16.4	0.00e+00	0	43	0	537919488	59	5075
2026-01-03 00:26:14.15	325.72	46.43	-43.9	-46.9	16.3	0.00e+00	0	43	0	544210944	59	5097
2026-01-03 00:26:17.01	324.29	46.86	-43.7	-46.6	16.7	0.00e+00	0	43	0	549453824	59	4885
2026-01-03 00:26:20.17	322.67	47.33	-43.6	-46.4	17.0	0.00e+00	0	43	0	554696704	58	5054
2026-01-03 00:26:23.03	321.15	47.73	-43.5	-46.2	17.1	0.00e+00	0	43	0	560988160	58	4959
2026-01-03 00:26:26.18	319.44	48.15	-44.5	-47.6	15.7	0.00e+00	0	43	0	566231040	59	5498
2026-01-03 00:26:29.05	317.84	48.51	-44.5	-47.8	15.5	0.00e+00	0	43	0	571473920	59	5626
2026-01-03 00:26:32.20	316.04	48.88	-45.1	-48.9	14.5	0.00e+00	0	43	0	577765376	60	5995
2026-01-03 00:26:35.07	314.37	49.19	-45.2	-49.0	14.4	0.00e+00	0	43	0	583008256	61	5741
2026-01-03 00:26:38.61	312.26	49.55	-45.4	-49.2	14.2	4.50e-06	0	43	0	589299712	61	5872
2026-01-03 00:26:41.33	310.60	49.79	-45.1	-48.8	14.5	7.00e-07	0	43	0	594542592	61	5638
2026-01-03 00:26:44.63	308.56	50.05	-44.5	-47.6	15.7	0.00e+00	0	43	0	600834048	60	5216
2026-01-03 00:26:47.72	306.62	50.26	-44.3	-47.4	15.9	0.00e+00	0	43	0	607125504	60	5095
2026-01-03 00:26:50.96	304.55	50.45	-43.0	-45.6	17.8	0.00e+00	0	43	0	613416960	58	4614
2026-01-03 00:26:53.85	302.69	50.58	-42.7	-45.3	18.0	0.00e+00	0	43	0	618659840	57	4715
2026-01-03 00:26:57.01	300.64	50.69	-42.7	-45.2	18.1	0.00e+00	0	43	0	623902720	57	4666
2026-01-03 00:26:59.87	298.78	50.75	-42.3	-44.6	18.6	0.00e+00	0	43	0	629145600	56	4625
2026-01-03 00:27:03.02	296.71	50.78	-42.3	-44.7	18.6	0.00e+00	0	43	0	635437056	56	4682
2026-01-03 00:27:06.37	294.52	50.77	-41.8	-44.1	19.0	0.00e+00	0	43	0	641728512	55	4648
2026-01-03 00:27:09.10	292.73	50.73	-42.1	-44.5	18.6	0.00e+00	0	43	0	646971392	55	4837
2026-01-03 00:27:12.39	290.59	50.65	-43.0	-45.6	17.7	0.00e+00	0	43	0	653262848	57	4904
2026-01-03 00:27:15.28	288.72	50.54	-42.6	-45.0	18.2	0.00e+00	0	43	0	658505728	56	4861
2026-01-03 00:27:18.65	286.55	50.37	-43.0	-45.5	17.8	0.00e+00	0	43	0	664797184	56	5150
2026-01-03 00:27:21.72	284.61	50.18	-43.0	-45.6	17.8	0.00e+00	0	43	0	671088640	56	5170
2026-01-03 00:27:24.58	282.82	49.97	-42.8	-45.3	18.0	0.00e+00	0	43	0	676331520	56	5002
2026-01-03 00:27:27.83	280.82	49.70	-43.3	-46.0	17.3	0.00e+00	0	43	0	681574400	57	5118
2026-01-03 00:27:30.75	279.05	49.43	-43.3	-46.0	17.3	0.00e+00	0	43	0	687865856	57	5158
2026-01-03 00:27:34.28	276.96	49.06	-43.4	-46.1	17.3	0.00e+00	0	43	0	694157312	57	5161
2026-01-03 00:27:37.00	275.38	48.75	-44.5	-47.6	15.7	0.00e+00	0	43	0	699400192	59	5515
2026-01-03 00:27:40.30	273.51	48.35	-43.9	-46.8	16.5	0.00e+00	0	43	0	705691648	59	5025
2026-01-03 00:27:43.16	271.93	47.98	-44.1	-47.1	16.2	0.00e+00	0	43	0	710934528	59	5203
2026-01-03 00:27:46.82	269.96	47.48	-44.6	-47.9	15.4	0.00e+00	0	43	0	717225984	60	5350
2026-01-03 00:27:49.54	268.54	47.09	-44.4	-47.5	15.9	0.00e+00	0	43	0	722468864	60	5136
2026-01-03 00:27:52.84	266.87	46.59	-43.6	-46.4	16.9	0.00e+00	0	43	0	728760320	59	4775
2026-01-03 00:27:55.61	265.51	46.16	-43.7	-46.4	16.8	0.00e+00	0	43	0	734003200	58	5095
2026-01-03 00:27:58.90	263.93	45.63	-43.5	-46.3	17.0	0.00e+00	0	43	0	740294656	58	5018
2026-01-03 00:28:01.63	262.67	45.18	-43.2	-45.8	17.4	0.00e+00	0	43	0	745537536	58	4744
2026-01-03 00:28:04.98	261.17	44.62	-43.3	-46.0	17.3	0.00e+00	0	43	0	751828992	57	5146
2026-01-03 00:28:07.77	259.96	44.13	-43.4	-46.1	17.2	0.00e+00	0	43	0	757071872	57	5210
2026-01-03 00:28:11.06	258.58	43.55	-42.9	-45.4	17.8	0.00e+00	0	43	0	763363328	57	4785
2026-01-03 00:28:13.78	257.47	43.07	-43.4	-46.1	17.2	0.00e+00	0	43	0	768606208	57	5204
2026-01-03 00:28:17.06	256.19	42.48	-43.6	-46.3	17.0	0.00e+00	0	43	0	774897664	58	5037
2026-01-03 00:28:19.92	255.10	41.96	-42.6	-45.1	18.1	0.00e+00	0	43	0	780140544	57	4635
2026-01-03 00:28:23.09	253.94	41.37	-43.0	-45.6	17.7	0.00e+00	0	43	0	785383424	57	4872
2026-01-03 00:28:25.95	252.93	40.84	-43.2	-45.8	17.4	0.00e+00	0	43	0	790626304	57	5028
2026-01-03 00:28:29.11	251.85	40.26	-43.1	-45.8	17.5	0.00e+00	0	43	0	796917760	57	5006
2026-01-03 00:28:32.02	250.89	39.72	-43.7	-46.4	16.8	0.00e+00	0	43	0	802160640	58	5091
2026-01-03 00:28:35.02	249.93	39.16	-43.8	-46.7	16.6	0.00e+00	0	43	0	808452096	58	5236
2026-01-03 00:28:38.03	249.01	38.60	-44.1	-47.1	16.2	0.00e+00	0	43	0	813694976	58	5481
2026-01-03 00:28:41.04	248.11	38.04	-44.0	-46.9	16.4	0.00e+00	0	43	0	818937856	58	5388
2026-01-03 00:28:44.05	247.24	37.48	-44.6	-47.8	15.4	0.00e+00	0	43	0	825229312	59	5632
2026-01-03 00:28:47.05	246.41	36.92	-44.7	-48.0	15.3	0.00e+00	0	43	0	830472192	60	5439
2026-01-03 00:28:50.06	245.60	36.37	-44.7	-48.1	15.2	0.00e+00	0	43	0	836763648	60	5488
2026-01-03 00:28:53.18	244.79	35.80	-45.2	-48.7	14.6	0.00e+00	0	43	0	842006528	61	5579
2026-01-03 00:28:56.16	244.05	35.26	-44.6	-47.8	15.5	0.00e+00	0	43	0	847249408	61	5041
2026-01-03 00:28:59.39	243.27	34.68	-44.7	-48.1	15.2	0.00e+00	0	43	0	853540864	61	5197
2026-01-03 00:29:02.32	242.58	34.15	-45.1	-48.7	14.6	0.00e+00	0	43	0	858783744	61	5585
2026-01-03 00:29:05.33	241.90	33.62	-45.2	-48.7	14.6	0.00e+00	0	43	0	865075200	61	5589
2026-01-03 00:29:08.34	241.24	33.09	-44.9	-48.4	14.9	0.00e+00	0	43	0	870318080	61	5346
2026-01-03 00:29:11.35	240.60	32.57	-45.0	-48.4	15.0	0.00e+00	0	43	0	876609536	61	5373
2026-01-03 00:29:14.36	239.98	32.05	-44.9	-48.3	15.0	7.00e-07	0	43	0	881852416	61	5318
2026-01-03 00:29:17.72	239.32	31.47	-45.1	-48.5	14.8	0.00e+00	0	43	0	888143872	61	5456
2026-01-03 00:29:20.43	238.80	31.02	-44.9	-48.3	14.9	0.00e+00	0	43	0	893386752	61	5295
2026-01-03 00:29:23.72	238.18	30.47	-44.8	-48.2	15.1	0.00e+00	0	43	0	899678208	61	5262
2026-01-03 00:29:26.57	237.67	30.00	-44.5	-47.8	15.4	0.00e+00	0	43	0	904921088	61	5001
2026-01-03 00:29:29.70	237.12	29.49	-44.4	-47.6	15.7	0.00e+00	0	43	0	910163968	60	5180
2026-01-03 00:29:32.85	236.59	28.98	-44.3	-47.4	15.8	0.00e+00	0	43	0	916455424	60	5079
2026-01-03 00:29:35.72	236.12	28.52	-44.1	-47.2	16.0	0.00e+00	0	43	0	921698304	60	4967
2026-01-03 00:29:38.95	235.60	28.01	-43.7	-46.5	16.6	0.00e+00	0	43	0	927989760	59	4861
2026-01-03 00:29:41.81	235.16	27.57	-43.8	-46.7	16.5	0.00e+00	0	43	0	933232640	59	4941
2026-01-03 00:29:44.96	234.69	27.08	-43.8	-46.7	16.5	0.00e+00	0	43	0	939524096	59	4951
2026-01-03 00:29:47.82	234.27	26.65	-43.7	-46.5	16.7	0.00e+00	0	43	0	944766976	59	4859
2026-01-03 00:29:51.06	233.81	26.17	-43.5	-46.3	16.8	0.00e+00	0	43	0	951058432	59	4744
2026-01-03 00:29:53.92	233.42	25.74	-43.8	-46.7	16.4	0.00e+00	0	43	0	956301312	59	4975
2026-01-03 00:29:57.07	233.00	25.29	-43.8	-46.8	16.4	0.00e+00	0	43	0	961544192	59	5013
2026-01-03 00:30:00.15	232.60	24.84	-43.7	-46.5	16.6	0.00e+00	0	43	0	967835648	59	4854
2026-01-03 00:30:03.51	232.17	24.37	-43.3	-46.0	17.1	0.00e+00	0	43	0	974127104	58	4841
2026-01-03 00:30:06.23	231.84	23.98	-43.2	-45.9	17.2	0.00e+00	0	43	0	979369984	58	4808
2026-01-03 00:30:09.54	231.45	23.53	-43.3	-46.0	17.1	0.00e+00	0	43	0	985661440	58	4867
2026-01-03 00:30:12.26	231.13	23.16	-43.3	-46.1	17.0	0.00e+00	0	43	0	990904320	58	4914
2026-01-03 00:30:15.65	230.75	22.70	-43.2	-45.9	17.2	0.00e+00	0	43	0	997195776	58	4801
2026-01-03 00:30:18.67	230.41	22.30	-43.2	-46.0	17.1	0.00e+00	0	43	0	1002438656	58	4832
2026-01-03 00:30:22.02	230.06	21.86	-43.3	-46.1	17.0	0.00e+00	0	43	0	1008730112	58	4918
2026-01-03 00:30:24.75	229.77	21.51	-43.3	-46.1	17.0	0.00e+00	0	43	0	1013972992	58	4880
2026-01-03 00:30:28.09	229.43	21.08	-43.2	-45.9	17.1	0.00e+00	0	43	0	1020264448	58	4801
2026-01-03 00:30:30.88	229.16	20.73	-43.3	-46.0	17.0	0.00e+00	0	43	0	1025507328	58	4870
2026-01-03 00:30:34.29	228.83	20.31	-43.3	-46.1	17.0	0.00e+00	0	43	0	1031798784	58	4885
2026-01-03 00:30:37.00	228.57	19.97	-43.3	-46.1	16.9	0.00e+00	0	43	0	1037041664	58	4901
2026-01-03 00:30:40.29	228.27	19.58	-43.3	-46.0	17.0	0.00e+00	0	43	0	1043333120	58	4854
2026-01-03 00:30:43.08	228.02	19.24	-43.1	-45.8	17.2	0.00e+00	0	43	0	1048576000	58	4756
2026-01-03 00:30:46.73	227.70	18.81	-43.2	-45.9	17.1	0.00e+00	0	43	0	1054867456	58	4809
2026-01-03 00:30:49.45	227.47	18.49	-43.3	-46.0	17.0	0.00e+00	0	43	0	1060110336	58	4861
2026-01-03 00:30:52.75	227.20	18.12	-43.6	-46.4	16.6	0.00e+00	0	43	0	1066401792	58	5073
2026-01-03 00:30:55.48	226.97	17.81	-43.8	-46.8	16.2	0.00e+00	0	43	0	1071644672	58	5290
2026-01-03 00:30:58.81	226.71	17.43	-43.9	-47.0	16.1	0.00e+00	0	43	0	1077936128	58	5416
2026-01-03 00:31:01.59	226.49	17.12	-43.8	-46.8	16.2	0.00e+00	0	43	0	1083179008	58	5317
2026-01-03 00:31:05.44	226.20	16.70	-43.7	-46.6	16.3	0.00e+00	0	43	0	1090519040	58	5217
2026-01-03 00:31:08.20	226.00	16.40	-43.8	-46.7	16.3	0.00e+00	0	43	0	1094713344	58	5248
2026-01-03 00:31:11.95	225.73	16.01	-43.8	-46.7	16.3	0.00e+00	0	43	0	1102053376	58	5226
2026-01-03 00:31:15.03	225.51	15.68	-43.6	-46.4	16.5	0.00e+00	0	43	0	1108344832	58	5097
2026-01-03 00:31:18.04	225.30	15.37	-43.5	-46.4	16.5	0.00e+00	0	43	0	1113587712	58	5074
2026-01-03 00:31:21.05	225.10	15.06	-43.5	-46.3	16.6	0.00e+00	0	43	0	1118830592	58	5018
2026-01-03 00:31:24.06	224.90	14.75	-43.6	-46.4	16.5	0.00e+00	0	43	0	1125122048	58	5089
2026-01-03 00:31:27.06	224.71	14.45	-43.7	-46.6	16.3	0.00e+00	0	43	0	1130364928	58	5215
2026-01-03 00:31:30.07	224.52	14.15	-43.9	-47.0	15.9	0.00e+00	0	43	0	1136656384	58	5425
2026-01-03 00:31:33.18	224.33	13.85	-44.2	-47.3	15.6	0.00e+00	0	43	0	1141899264	58	5613
2026-01-03 00:31:36.07	224.15	13.57	-44.2	-47.4	15.5	0.00e+00	0	43	0	1147142144	59	5362
2026-01-03 00:31:39.44	223.95	13.24	-44.2	-47.3	15.5	0.00e+00	0	43	0	1153433600	59	5337
2026-01-03 00:31:42.16	223.80	12.99	-44.2	-47.4	15.5	0.00e+00	0	43	0	1158676480	59	5349
2026-01-03 00:31:45.40	223.61	12.68	-44.0	-47.1	15.7	0.00e+00	0	43	0	1164967936	59	5208
2026-01-03 00:31:48.26	223.45	12.42	-44.1	-47.3	15.6	0.00e+00	0	43	0	1170210816	59	5292
2026-01-03 00:31:51.41	223.28	12.13	-44.1	-47.3	15.6	0.00e+00	0	43	0	1176502272	59	5281
2026-01-03 00:31:54.27	223.13	11.87	-44.2	-47.5	15.4	0.00e+00	0	43	0	1181745152	59	5415
2026-01-03 00:31:57.42	222.96	11.58	-44.2	-47.5	15.3	0.00e+00	0	43	0	1188036608	59	5461
2026-01-03 00:32:00.29	222.81	11.33	-44.2	-47.6	15.1	0.00e+00	0	43	0	1193279488	59	5527
2026-01-03 00:32:03.44	222.65	11.05	-44.2	-47.7	15.0	0.00e+00	0	43	0	1198522368	59	5565
2026-01-03 00:32:06.30	222.51	10.80	-44.1	-47.5	15.2	0.00e+00	0	43	0	1203765248	59	5463
2026-01-03 00:32:09.46	222.35	10.53	-44.2	-47.6	15.2	0.00e+00	0	43	0	1210056704	59	5479
2026-01-03 00:32:12.41	222.21	10.27	-44.1	-47.5	15.3	0.00e+00	0	43	0	1215299584	59	5413
2026-01-03 00:32:15.71	222.06	9.99	-44.0	-47.4	15.3	0.00e+00	0	43	0	1221591040	59	5366
2026-01-03 00:32:18.58	221.93	9.75	-44.0	-47.5	15.2	0.00e+00	0	43	0	1226833920	59	5447
2026-01-03 00:32:21.73	221.78	9.49	-44.0	-47.7	14.9	0.00e+00	0	43	0	1233125376	59	5547
2026-01-03 00:32:24.59	221.66	9.25	-43.8	-47.9	14.7	0.00e+00	0	43	0	1238368256	59	5662
2026-01-03 00:32:27.74	221.52	9.00	-46.2	-52.5	10.8	2.13e-05	0	43	0	1244659712	62	8098
2026-01-03 00:32:30.61	221.40	8.77	-49.1	-64.4	3.8	1.49e+00	0	43	104	1244659712	68	22529
2026-01-03 00:32:33.77	221.26	8.51	-49.3	-64.6	3.8	1.49e+00	0	43	104	1244659712	69	21802
2026-01-03 00:32:36.64	221.14	8.28	-49.3	-64.6	3.8	1.49e+00	0	43	104	1244659712	69	21775
2026-01-03 00:32:39.80	221.01	8.04	-49.4	-64.6	3.8	1.49e+00	0	43	104	1244659712	69	21778
2026-01-03 00:32:42.66	220.90	7.81	-49.3	-64.6	3.8	1.49e+00	0	43	104	1244659712	69	21811
2026-01-03 00:32:45.82	220.78	7.57	-49.2	-64.6	3.8	1.49e+00	0	43	104	1244659712	69	21812
2026-01-03 00:32:48.69	220.66	7.35	-49.2	-64.5	3.8	1.49e+00	0	43	104	1244659712	69	21745
2026-01-03 00:32:51.85	220.54	7.11	-49.1	-64.5	3.8	1.49e+00	0	43	104	1244659712	69	21675
2026-01-03 00:32:54.72	220.44	6.89	-49.1	-64.5	3.8	1.49e+00	0	43	104	1244659712	69	21587
2026-01-03 00:32:57.87	220.32	6.66	-49.1	-64.5	3.8	1.49e+00	0	43	104	1244659712	69	21578
2026-01-03 00:33:00.74	220.22	6.44	-49.1	-64.5	3.8	1.49e+00	0	43	104	1244659712	69	21556
2026-01-03 00:33:03.90	220.10	6.21	-49.1	-64.5	3.8	1.49e+00	0	43	104	1244659712	69	21638
2026-01-03 00:33:06.77	220.00	6.00	-49.1	-64.5	3.8	1.49e+00	0	43	104	1244659712	69	21538
2026-01-03 00:33:09.92	219.90	5.77	-49.1	-64.5	3.8	1.49e+00	0	43	104	1244659712	69	21624
2026-01-03 00:33:12.79	219.80	5.57	-49.1	-64.5	3.8	1.49e+00	0	43	104	1244659712	69	21575
2026-01-03 00:33:15.95	219.69	5.34	-49.1	-64.5	3.8	1.49e+00	0	43	104	1244659712	69	21621
2026-01-03 00:33:18.82	219.60	5.14	-49.1	-64.5	3.8	1.49e+00	0	43	104	1244659712	69	21544

#Closed at: 2026-01-03 00:33:21
#Recorded file [1244 MB]: D:/Data/31040_260103_032045.dat