passes_logs/2026/01/03/T1/T1__20260103_011704_AQUA_rec.log

#Pass ID: 20260103_011704_AQUA
#Satellite: AQUA
#Configuration: AQUA
#almurnet v.1.7.20251203
#Start time: 2026-01-03 01:17:04

#Version: 2.0.20230620
#Station: T1
#Location: 37.570604 lon 55.790049 lat
#TLE: 1 27424U 02022A   25365.92641127  .00002078  00000+0  42628-3 0  9999
#TLE: 2 27424  98.4058 327.1196 0001962  94.7781 340.6230 14.61783896258835

#Time	Az	El	Level	Level2	SNR	BER	BlckErr	Temp	State	Recorded	gain1	gain2
2026-01-03 01:17:04.06	16.33	4.99	-47.6	-70.7	3.8	7.47e-01	0	41	0	0	67	49835
2026-01-03 01:17:07.07	16.35	5.21	-47.5	-70.7	3.8	7.46e-01	0	41	104	0	65	55850
2026-01-03 01:17:10.08	16.38	5.44	-47.5	-70.7	3.8	7.47e-01	0	41	104	0	65	55483
2026-01-03 01:17:13.09	16.40	5.67	-47.4	-70.6	3.8	7.46e-01	0	41	104	0	65	54837
2026-01-03 01:17:16.10	16.42	5.90	-47.4	-70.5	3.8	7.46e-01	0	41	104	0	65	54489
2026-01-03 01:17:19.11	16.45	6.13	-47.4	-70.6	3.8	7.44e-01	0	41	104	0	65	55146
2026-01-03 01:17:22.13	16.47	6.37	-47.4	-70.7	3.8	7.46e-01	0	41	104	0	65	55743
2026-01-03 01:17:25.14	16.49	6.61	-47.4	-70.7	3.8	7.48e-01	0	42	104	0	65	55386
2026-01-03 01:17:28.15	16.52	6.85	-47.4	-70.6	3.8	7.43e-01	0	42	104	0	65	54947
2026-01-03 01:17:31.16	16.54	7.10	-47.4	-70.6	3.8	7.43e-01	0	42	104	0	65	55008
2026-01-03 01:17:34.17	16.57	7.34	-47.4	-70.0	3.8	7.45e-01	0	42	104	0	65	51296
2026-01-03 01:17:37.18	16.59	7.59	-47.3	-68.5	3.8	7.42e-01	0	42	104	0	65	42985
2026-01-03 01:17:40.20	16.62	7.84	-47.1	-67.0	3.8	7.45e-01	0	42	104	0	65	36258
2026-01-03 01:17:43.21	16.64	8.10	-47.0	-66.1	3.8	7.49e-01	0	42	104	0	65	32918
2026-01-03 01:17:46.23	16.67	8.36	-46.8	-65.8	3.8	7.44e-01	0	42	104	0	65	31631
2026-01-03 01:17:49.24	16.70	8.62	-46.8	-65.6	3.8	7.46e-01	0	42	104	0	65	30739
2026-01-03 01:17:52.25	16.72	8.88	-46.9	-65.7	3.8	7.46e-01	0	42	104	0	65	31409
2026-01-03 01:17:55.26	16.75	9.15	-47.3	-67.8	3.8	7.44e-01	0	42	104	0	65	40025
2026-01-03 01:17:58.27	16.78	9.42	-45.3	-60.1	3.8	7.47e-01	0	43	104	0	62	19506
2026-01-03 01:18:01.30	16.80	9.70	-45.7	-60.6	3.8	7.49e-01	0	43	104	0	62	20686
2026-01-03 01:18:04.29	16.83	9.97	-44.8	-58.9	3.8	7.44e-01	0	43	104	0	61	17892
2026-01-03 01:18:07.56	16.86	10.28	-45.0	-58.9	3.8	7.51e-01	0	43	104	0	62	16900
2026-01-03 01:18:10.29	16.89	10.53	-44.5	-58.2	3.8	7.48e-01	0	42	104	0	60	17639
2026-01-03 01:18:13.58	16.92	10.85	-44.8	-58.2	3.8	7.43e-01	0	43	104	0	60	17595
2026-01-03 01:18:16.39	16.94	11.12	-46.6	-60.8	3.8	7.45e-01	0	43	104	0	65	17766
2026-01-03 01:18:19.74	16.98	11.45	-46.0	-59.9	3.8	7.45e-01	0	43	104	0	63	17973
2026-01-03 01:18:22.46	17.00	11.72	-45.5	-58.6	3.8	7.43e-01	0	43	104	0	62	16464
2026-01-03 01:18:25.76	17.04	12.05	-45.9	-59.2	3.8	7.44e-01	0	43	104	0	63	16654
2026-01-03 01:18:28.48	17.06	12.33	-45.4	-58.3	3.9	7.41e-01	0	43	104	0	62	15800
2026-01-03 01:18:32.00	17.10	12.70	-45.0	-48.4	21.3	6.05e-01	0	43	0	2621440	61	5367
2026-01-03 01:18:34.73	17.13	12.99	-44.3	-47.3	22.6	6.04e-01	0	43	0	7864320	59	5283
2026-01-03 01:18:38.02	17.16	13.34	-43.3	-46.0	23.8	6.05e-01	0	43	0	13631488	58	4852
2026-01-03 01:18:40.78	17.19	13.64	-43.0	-45.7	24.1	6.05e-01	0	43	0	18874368	58	4702
2026-01-03 01:18:44.13	17.23	14.01	-43.1	-45.7	24.1	6.01e-01	0	43	0	25165824	58	4679
2026-01-03 01:18:47.23	17.26	14.36	-43.0	-45.6	24.2	6.03e-01	0	43	0	30932992	57	4897
2026-01-03 01:18:50.24	17.30	14.70	-43.0	-45.5	24.3	6.04e-01	0	43	0	36700160	57	4864
2026-01-03 01:18:53.28	17.33	15.05	-43.0	-45.5	24.4	6.05e-01	0	43	0	42467328	57	4853
2026-01-03 01:18:56.20	17.36	15.40	-43.1	-45.7	24.2	6.05e-01	0	43	0	47710208	57	4954
2026-01-03 01:18:59.58	17.40	15.80	-43.1	-45.7	24.2	6.01e-01	0	43	0	54525952	57	4944
2026-01-03 01:19:02.30	17.44	16.13	-43.0	-45.6	24.3	6.06e-01	0	43	0	59244544	57	4892
2026-01-03 01:19:05.55	17.48	16.53	-42.8	-45.4	24.5	6.04e-01	0	43	0	65536000	57	4779
2026-01-03 01:19:08.41	17.51	16.89	-42.8	-45.3	24.5	6.01e-01	0	43	0	70778880	57	4758
2026-01-03 01:19:11.56	17.55	17.30	-42.7	-45.4	24.5	6.03e-01	0	43	0	76546048	57	4782
2026-01-03 01:19:14.44	17.59	17.67	-42.5	-45.2	24.7	6.05e-01	0	43	0	82313216	57	4692
2026-01-03 01:19:17.60	17.63	18.09	-42.6	-45.4	24.5	6.04e-01	0	43	0	88080384	57	4780
2026-01-03 01:19:20.47	17.67	18.48	-42.7	-45.4	24.5	6.04e-01	0	43	0	93323264	57	4808
2026-01-03 01:19:23.62	17.71	18.91	-42.7	-45.4	24.6	6.04e-01	0	43	0	99614720	57	4772
2026-01-03 01:19:26.88	17.76	19.37	-42.8	-45.4	24.5	6.03e-01	0	43	0	105381888	57	4807
2026-01-03 01:19:29.75	17.80	19.78	-42.8	-45.5	24.4	6.04e-01	0	43	0	110624768	57	4858
2026-01-03 01:19:32.91	17.84	20.24	-42.6	-45.4	24.5	6.03e-01	0	43	0	116916224	57	4806
2026-01-03 01:19:35.78	17.89	20.67	-42.7	-45.4	24.5	6.03e-01	0	43	0	122159104	57	4807
2026-01-03 01:19:39.04	17.93	21.16	-42.8	-45.5	24.5	6.04e-01	0	43	0	128450560	57	4836
2026-01-03 01:19:41.81	17.98	21.59	-43.0	-45.7	24.3	6.03e-01	0	43	0	133169152	57	4970
2026-01-03 01:19:45.10	18.03	22.11	-43.0	-45.8	24.2	6.04e-01	0	43	0	139460608	57	5019
2026-01-03 01:19:47.89	18.08	22.56	-43.0	-45.7	24.3	6.03e-01	0	43	0	144703488	57	4965
2026-01-03 01:19:51.18	18.13	23.11	-43.0	-45.7	24.2	6.05e-01	0	43	0	150994944	57	4981
2026-01-03 01:19:53.91	18.18	23.57	-43.0	-45.7	24.3	6.05e-01	0	43	0	156237824	57	4950
2026-01-03 01:19:57.30	18.24	24.15	-43.0	-45.6	24.4	6.03e-01	0	43	0	162529280	57	4926
2026-01-03 01:20:00.02	18.29	24.63	-43.1	-45.9	24.2	6.03e-01	0	43	0	167772160	57	5044
2026-01-03 01:20:03.66	18.36	25.28	-43.0	-45.9	24.1	6.04e-01	0	43	0	174587904	57	5086
2026-01-03 01:20:06.52	18.41	25.81	-43.1	-45.8	24.2	6.04e-01	0	43	0	179830784	57	5036
2026-01-03 01:20:09.68	18.47	26.41	-43.0	-45.8	24.3	6.03e-01	0	43	0	185597952	57	4984
2026-01-03 01:20:12.54	18.53	26.96	-42.7	-45.5	24.5	6.02e-01	0	43	0	190840832	57	4838
2026-01-03 01:20:15.90	18.60	27.63	-42.6	-45.3	24.7	6.04e-01	0	43	0	197132288	57	4721
2026-01-03 01:20:18.83	18.67	28.22	-42.6	-45.2	24.8	6.06e-01	0	43	0	202899456	57	4680
2026-01-03 01:20:22.12	18.74	28.90	-42.3	-45.0	25.0	6.04e-01	0	43	0	209190912	56	4842
2026-01-03 01:20:24.99	18.81	29.52	-42.4	-45.0	25.0	6.02e-01	0	43	0	214433792	56	4832
2026-01-03 01:20:28.14	18.89	30.21	-42.5	-45.0	25.0	6.06e-01	0	43	0	220200960	56	4845
2026-01-03 01:20:31.00	18.96	30.85	-42.5	-44.9	25.1	6.05e-01	0	43	0	225443840	56	4801
2026-01-03 01:20:34.15	19.04	31.57	-42.7	-45.2	24.8	6.05e-01	0	43	0	231735296	56	4927
2026-01-03 01:20:37.01	19.12	32.24	-42.7	-45.2	24.9	6.02e-01	0	43	0	236978176	56	4946
2026-01-03 01:20:40.17	19.21	33.01	-42.7	-45.3	24.8	6.02e-01	0	43	0	242745344	56	4986
2026-01-03 01:20:43.04	19.29	33.72	-43.1	-45.6	24.5	6.02e-01	0	43	0	247988224	56	5196
2026-01-03 01:20:46.19	19.39	34.52	-43.2	-45.8	24.3	6.03e-01	0	43	0	254279680	57	5021
2026-01-03 01:20:49.06	19.48	35.28	-43.5	-46.2	23.9	6.02e-01	0	43	0	259522560	57	5274
2026-01-03 01:20:52.31	19.59	36.15	-43.7	-46.5	23.7	6.05e-01	0	43	0	265814016	58	5114
2026-01-03 01:20:55.24	19.69	36.96	-43.9	-46.7	23.5	6.05e-01	0	43	0	271056896	58	5260
2026-01-03 01:20:58.85	19.83	37.99	-44.4	-47.5	22.7	6.05e-01	0	43	0	277872640	59	5443
2026-01-03 01:21:01.58	19.93	38.79	-44.6	-47.7	22.6	6.05e-01	0	43	0	283115520	59	5537
2026-01-03 01:21:05.08	20.08	39.85	-44.5	-47.5	22.8	6.03e-01	0	43	0	289406976	59	5419
2026-01-03 01:21:08.14	20.21	40.80	-44.4	-47.2	23.0	6.06e-01	0	43	0	295174144	59	5257
2026-01-03 01:21:11.46	20.36	41.86	-43.9	-46.6	23.6	6.05e-01	0	43	0	301465600	59	4886
2026-01-03 01:21:14.17	20.50	42.75	-43.7	-46.4	23.7	6.03e-01	0	43	0	306708480	59	4804
2026-01-03 01:21:17.47	20.67	43.87	-43.0	-45.6	24.5	6.02e-01	0	43	0	312999936	58	4626
2026-01-03 01:21:20.57	20.84	44.95	-43.0	-45.5	24.6	6.03e-01	0	43	0	318767104	57	4859
2026-01-03 01:21:23.58	21.02	46.03	-42.7	-45.3	24.9	6.04e-01	0	44	0	324534272	57	4709
2026-01-03 01:21:26.59	21.21	47.14	-42.8	-45.4	24.7	6.06e-01	0	44	0	329777152	57	4778
2026-01-03 01:21:29.60	21.41	48.29	-42.9	-45.5	24.6	6.04e-01	0	43	0	335544320	57	4828
2026-01-03 01:21:32.71	21.63	49.50	-42.9	-45.4	24.7	6.04e-01	0	43	0	341311488	57	4796
2026-01-03 01:21:35.67	21.87	50.69	-42.4	-44.8	25.2	6.04e-01	0	43	0	347078656	56	4747
2026-01-03 01:21:38.72	22.12	51.95	-42.2	-44.7	25.4	6.03e-01	0	43	0	352845824	56	4666
2026-01-03 01:21:42.02	22.43	53.35	-42.1	-44.6	25.5	6.04e-01	0	43	0	359137280	56	4613
2026-01-03 01:21:44.74	22.70	54.53	-42.0	-44.5	25.4	6.04e-01	0	44	0	363855872	55	4829
2026-01-03 01:21:48.04	23.07	56.01	-42.6	-45.1	25.0	6.04e-01	0	43	0	370147328	55	5184
2026-01-03 01:21:50.76	23.40	57.26	-43.0	-45.6	24.6	6.02e-01	0	43	0	375390208	56	5161
2026-01-03 01:21:54.06	23.84	58.81	-43.5	-46.2	23.9	6.05e-01	0	43	0	381157376	57	5279
2026-01-03 01:21:56.97	24.28	60.21	-43.8	-46.5	23.8	6.05e-01	0	43	0	386924544	58	5107
2026-01-03 01:21:59.98	24.78	61.69	-44.1	-47.0	23.2	6.03e-01	0	43	0	392691712	58	5437
2026-01-03 01:22:02.99	25.35	63.21	-45.0	-48.0	22.1	6.04e-01	0	43	0	397934592	60	5447
2026-01-03 01:22:05.99	25.99	64.75	-46.1	-49.6	20.6	6.06e-01	0	43	0	403701760	62	5820
2026-01-03 01:22:09.00	26.73	66.33	-46.7	-50.5	19.7	6.03e-01	0	43	0	409468928	64	5759
2026-01-03 01:22:12.01	27.58	67.94	-46.8	-50.6	19.6	6.03e-01	0	43	0	415236096	64	5798
2026-01-03 01:22:15.02	28.59	69.57	-47.1	-50.9	19.3	6.05e-01	0	43	0	421003264	64	6043
2026-01-03 01:22:18.03	29.78	71.23	-46.6	-50.3	19.9	6.03e-01	0	43	0	426246144	65	5313
2026-01-03 01:22:21.02	31.20	72.89	-46.0	-49.4	20.9	6.03e-01	0	43	0	432013312	63	5353
2026-01-03 01:22:24.04	32.97	74.59	-45.3	-48.5	21.7	6.05e-01	0	43	0	437780480	62	5143
2026-01-03 01:22:27.04	35.18	76.28	-45.5	-48.6	21.6	6.02e-01	0	44	0	443023360	62	5189
2026-01-03 01:22:30.05	38.05	77.97	-44.7	-47.6	22.5	6.04e-01	0	43	0	448790528	61	4891
2026-01-03 01:22:33.06	41.86	79.64	-44.5	-47.3	22.7	6.04e-01	0	43	0	454557696	60	5011
2026-01-03 01:22:36.46	47.98	81.46	-43.6	-46.1	24.1	6.04e-01	0	44	0	460849152	59	4635
2026-01-03 01:22:39.41	55.82	82.95	-43.4	-46.0	24.2	6.04e-01	0	43	0	466616320	58	4827
2026-01-03 01:22:43.15	71.54	84.53	-43.3	-45.9	24.3	6.06e-01	0	43	0	473432064	58	4762
2026-01-03 01:22:45.95	89.32	85.30	-43.6	-46.3	23.1	6.03e-01	0	43	0	478674944	58	5038
2026-01-03 01:22:49.69	118.42	85.41	-42.8	-45.4	24.7	6.02e-01	0	43	0	485490688	57	4760
2026-01-03 01:22:52.51	137.61	84.76	-43.0	-45.5	24.6	6.03e-01	0	43	0	490733568	57	4857
2026-01-03 01:22:56.08	154.23	83.34	-43.4	-46.0	24.2	6.04e-01	0	43	0	497549312	58	4822
2026-01-03 01:22:59.10	163.17	81.86	-43.4	-46.0	24.2	6.05e-01	0	43	0	503316480	58	4822
2026-01-03 01:23:02.90	170.51	79.84	-43.9	-46.5	23.8	6.05e-01	0	43	0	510656512	58	5112
2026-01-03 01:23:05.75	174.29	78.26	-44.6	-47.5	22.8	6.04e-01	0	43	0	515899392	59	5445
2026-01-03 01:23:09.13	177.61	76.36	-45.1	-48.2	22.0	6.02e-01	0	43	0	522190848	60	5591
2026-01-03 01:23:12.61	180.16	74.40	-46.1	-49.4	20.8	6.04e-01	0	43	0	528482304	62	5695
2026-01-03 01:23:15.33	181.74	72.87	-45.5	-48.5	21.7	6.04e-01	0	43	0	533725184	62	5129
2026-01-03 01:23:18.62	183.29	71.04	-45.4	-48.4	21.8	6.04e-01	0	44	0	540016640	62	5064
2026-01-03 01:23:21.35	184.36	69.53	-46.2	-49.5	20.8	6.03e-01	0	44	0	545259520	63	5431
2026-01-03 01:23:24.74	185.48	67.69	-46.3	-50.2	20.1	6.04e-01	0	43	0	551550976	64	5543
2026-01-03 01:23:27.47	186.24	66.23	-45.7	-49.1	21.2	6.04e-01	0	43	0	556793856	63	5164
2026-01-03 01:23:30.76	187.04	64.50	-45.1	-48.3	22.0	6.04e-01	0	43	0	562561024	62	4986
2026-01-03 01:23:33.49	187.61	63.10	-44.2	-46.9	23.2	6.02e-01	0	43	0	567803904	60	4804
2026-01-03 01:23:36.78	188.23	61.44	-44.1	-46.7	23.5	6.06e-01	0	43	0	574095360	59	4970
2026-01-03 01:23:39.50	188.68	60.10	-44.0	-46.6	23.6	6.04e-01	0	44	0	579338240	59	4903
2026-01-03 01:23:42.79	189.16	58.51	-43.6	-46.1	24.1	6.03e-01	0	44	0	585105408	59	4625
2026-01-03 01:23:45.52	189.53	57.23	-43.9	-46.5	23.8	6.07e-01	0	43	0	590348288	59	4817
2026-01-03 01:23:48.80	189.92	55.72	-42.6	-44.9	25.2	6.03e-01	0	43	0	596639744	57	4527
2026-01-03 01:23:51.70	190.24	54.42	-42.4	-44.7	25.3	6.04e-01	0	43	0	601882624	56	4693
2026-01-03 01:23:54.84	190.55	53.06	-42.0	-44.5	25.6	6.04e-01	0	43	0	607649792	56	4549
2026-01-03 01:23:57.71	190.81	51.84	-42.3	-44.7	25.3	6.03e-01	0	43	0	613416960	55	4928
2026-01-03 01:24:00.92	191.08	50.51	-43.1	-45.5	24.7	6.06e-01	0	43	0	619184128	56	5145
2026-01-03 01:24:03.78	191.30	49.36	-42.9	-45.3	24.8	6.03e-01	0	43	0	624427008	56	5010
2026-01-03 01:24:06.94	191.53	48.12	-43.5	-46.0	24.2	6.03e-01	0	43	0	630718464	57	5125
2026-01-03 01:24:09.80	191.72	47.04	-43.3	-45.8	24.4	6.04e-01	0	43	0	635961344	57	4991
2026-01-03 01:24:13.06	191.93	45.83	-43.4	-46.0	24.2	6.02e-01	0	43	0	642252800	57	5105
2026-01-03 01:24:15.80	192.09	44.85	-43.2	-45.6	24.5	6.05e-01	0	43	0	646971392	57	4920
2026-01-03 01:24:19.03	192.26	43.72	-43.4	-45.9	24.2	6.03e-01	0	43	0	653262848	57	5074
2026-01-03 01:24:21.90	192.41	42.74	-43.3	-45.9	24.3	6.02e-01	0	43	0	658505728	57	5042
2026-01-03 01:24:25.12	192.57	41.67	-43.8	-46.4	23.8	6.03e-01	0	43	0	664797184	58	5091
2026-01-03 01:24:27.98	192.70	40.76	-44.4	-47.1	23.1	6.06e-01	0	43	0	670040064	59	5209
2026-01-03 01:24:31.13	192.83	39.77	-43.9	-46.7	23.5	6.03e-01	0	43	0	675807232	59	4930
2026-01-03 01:24:34.30	192.96	38.81	-44.3	-47.2	23.0	6.05e-01	0	43	0	682098688	59	5220
2026-01-03 01:24:37.27	193.08	37.93	-44.3	-47.2	23.0	6.03e-01	0	43	0	687341568	59	5224
2026-01-03 01:24:40.28	193.19	37.07	-44.1	-46.8	23.4	6.02e-01	0	43	0	693108736	59	4989
2026-01-03 01:24:43.29	193.30	36.23	-43.8	-46.4	23.7	6.01e-01	0	43	0	698875904	59	4795
2026-01-03 01:24:46.25	193.40	35.42	-43.4	-46.0	24.2	6.04e-01	0	43	0	704118784	58	4823
2026-01-03 01:24:49.62	193.50	34.53	-43.5	-46.1	24.1	6.01e-01	0	43	0	710410240	58	4873
2026-01-03 01:24:52.55	193.59	33.78	-42.8	-45.3	24.8	6.03e-01	0	43	0	716177408	57	4708
2026-01-03 01:24:55.84	193.69	32.95	-42.4	-44.7	25.3	6.03e-01	0	43	0	722468864	56	4697
2026-01-03 01:24:58.56	193.77	32.29	-42.3	-44.7	25.3	6.03e-01	0	43	0	727187456	56	4684
2026-01-03 01:25:02.12	193.86	31.45	-42.5	-44.9	25.1	6.06e-01	0	43	0	734003200	56	4793
2026-01-03 01:25:04.84	193.93	30.82	-42.3	-44.7	25.3	6.02e-01	0	44	0	739246080	56	4676
2026-01-03 01:25:08.13	194.01	30.08	-42.3	-44.6	25.3	6.04e-01	0	43	0	745537536	56	4632
2026-01-03 01:25:10.85	194.08	29.48	-42.4	-44.8	25.2	6.05e-01	0	44	0	750256128	56	4723
2026-01-03 01:25:14.15	194.16	28.77	-42.6	-45.0	25.0	6.03e-01	0	44	0	756547584	56	4815
2026-01-03 01:25:16.99	194.22	28.18	-42.4	-44.7	25.2	6.05e-01	0	44	0	761790464	56	4704
2026-01-03 01:25:20.28	194.29	27.51	-42.5	-45.0	25.0	6.02e-01	0	44	0	768081920	56	4833
2026-01-03 01:25:23.00	194.35	26.96	-42.7	-45.2	24.8	6.05e-01	0	43	0	773324800	56	4965
2026-01-03 01:25:26.29	194.41	26.32	-43.0	-45.5	24.5	6.03e-01	0	43	0	779091968	56	5130
2026-01-03 01:25:29.01	194.47	25.81	-43.0	-45.5	24.5	6.04e-01	0	43	0	784334848	56	5152
2026-01-03 01:25:32.32	194.53	25.19	-43.2	-45.8	24.3	6.04e-01	0	43	0	790626304	56	5310
2026-01-03 01:25:35.04	194.58	24.70	-43.2	-45.9	24.1	6.04e-01	0	44	0	795869184	57	5088
2026-01-03 01:25:38.33	194.64	24.11	-43.4	-46.1	23.9	6.03e-01	0	43	0	802160640	57	5196
2026-01-03 01:25:41.36	194.69	23.58	-43.2	-45.9	24.0	6.03e-01	0	43	0	807403520	57	5070
2026-01-03 01:25:44.66	194.74	23.02	-43.3	-46.0	24.0	6.03e-01	0	43	0	813694976	57	5138
2026-01-03 01:25:47.38	194.79	22.57	-43.2	-45.9	24.1	6.04e-01	0	44	0	818937856	57	5100
2026-01-03 01:25:50.68	194.84	22.03	-43.1	-45.8	24.2	6.04e-01	0	44	0	825229312	57	5024
2026-01-03 01:25:53.50	194.89	21.59	-43.1	-45.8	24.2	6.03e-01	0	43	0	830472192	57	5024
2026-01-03 01:25:56.86	194.94	21.06	-43.1	-45.8	24.2	6.06e-01	0	44	0	836763648	57	5023
2026-01-03 01:25:59.58	194.98	20.65	-43.1	-45.8	24.2	6.04e-01	0	44	0	842006528	57	5023
2026-01-03 01:26:02.88	195.02	20.15	-43.1	-45.8	24.1	6.03e-01	0	44	0	847773696	57	5019
2026-01-03 01:26:05.74	195.06	19.73	-43.1	-45.9	24.1	6.04e-01	0	43	0	853540864	57	5060
2026-01-03 01:26:08.89	195.11	19.28	-43.0	-45.8	24.2	6.02e-01	0	43	0	859308032	57	4998
2026-01-03 01:26:11.74	195.14	18.87	-42.9	-45.7	24.3	6.02e-01	0	43	0	864550912	57	4934
2026-01-03 01:26:14.89	195.19	18.44	-43.0	-45.7	24.2	6.05e-01	0	43	0	870318080	57	4957
2026-01-03 01:26:17.85	195.22	18.03	-42.9	-45.7	24.2	6.04e-01	0	44	0	876085248	57	4953
2026-01-03 01:26:21.00	195.26	17.61	-43.0	-45.9	24.0	6.04e-01	0	43	0	881852416	57	5070
2026-01-03 01:26:23.86	195.30	17.24	-43.0	-45.8	24.1	6.04e-01	0	43	0	887095296	57	5018
2026-01-03 01:26:27.16	195.34	16.81	-43.0	-45.8	24.1	6.02e-01	0	43	0	893386752	57	5018
2026-01-03 01:26:29.91	195.37	16.46	-43.0	-45.8	24.0	6.05e-01	0	43	0	898629632	57	5014
2026-01-03 01:26:33.26	195.41	16.04	-43.0	-45.8	24.1	6.04e-01	0	43	0	904921088	57	5012
2026-01-03 01:26:35.99	195.44	15.71	-42.9	-45.7	24.1	6.03e-01	0	44	0	910163968	57	4961
2026-01-03 01:26:39.28	195.47	15.31	-42.8	-45.6	24.2	6.02e-01	0	43	0	916455424	57	4895
2026-01-03 01:26:42.00	195.50	14.99	-42.8	-45.6	24.3	6.04e-01	0	44	0	921174016	57	4877
2026-01-03 01:26:45.30	195.54	14.61	-42.8	-45.6	24.2	6.03e-01	0	43	0	927465472	57	4896
2026-01-03 01:26:48.10	195.57	14.28	-42.8	-45.6	24.2	6.02e-01	0	44	0	932708352	57	4908
2026-01-03 01:26:51.34	195.60	13.92	-42.8	-45.6	24.2	6.05e-01	0	43	0	938999808	57	4886
2026-01-03 01:26:54.35	195.63	13.58	-42.8	-45.5	24.2	6.03e-01	0	43	0	944242688	57	4854
2026-01-03 01:26:57.36	195.66	13.25	-42.7	-45.4	24.3	6.03e-01	0	44	0	950009856	57	4810
2026-01-03 01:27:00.37	195.69	12.93	-42.8	-45.5	24.3	6.03e-01	0	43	0	955777024	57	4857
2026-01-03 01:27:03.37	195.72	12.61	-42.8	-45.6	24.2	6.03e-01	0	43	0	961544192	57	4879
2026-01-03 01:27:06.51	195.75	12.28	-42.9	-45.6	24.1	6.04e-01	0	43	0	967311360	57	4911
2026-01-03 01:27:09.43	195.78	11.98	-42.9	-45.7	24.0	6.07e-01	0	43	0	972554240	57	4978
2026-01-03 01:27:12.73	195.81	11.64	-43.1	-46.0	23.7	6.02e-01	0	44	0	978845696	57	5111
2026-01-03 01:27:15.45	195.83	11.37	-43.0	-45.9	23.8	6.04e-01	0	43	0	984088576	57	5095
2026-01-03 01:27:18.74	195.86	11.04	-43.2	-46.1	23.6	6.03e-01	0	43	0	990380032	57	5218
2026-01-03 01:27:21.78	195.89	10.75	-43.2	-46.1	23.6	6.04e-01	0	44	0	996147200	57	5212
2026-01-03 01:27:25.03	195.91	10.43	-43.3	-46.3	23.5	6.04e-01	0	43	0	1001914368	57	5290
2026-01-03 01:27:27.89	195.94	10.16	-43.4	-46.4	23.4	6.06e-01	0	44	0	1007157248	57	5355
2026-01-03 01:27:31.04	195.97	9.87	-43.4	-46.4	23.3	6.05e-01	0	43	0	1013448704	57	5359
2026-01-03 01:27:33.90	195.99	9.60	-43.5	-46.4	23.3	6.04e-01	0	43	0	1018691584	57	5382
2026-01-03 01:27:37.05	196.01	9.31	-43.7	-46.7	23.0	6.05e-01	0	43	0	1024458752	58	5236
2026-01-03 01:27:39.91	196.04	9.06	-43.8	-46.8	22.9	6.05e-01	0	43	0	1029701632	58	5294
2026-01-03 01:27:43.07	196.06	8.77	-49.7	-71.2	3.8	7.47e-01	0	44	104	1031798784	70	43988
2026-01-03 01:27:45.94	196.08	8.52	-50.2	-71.3	3.8	7.46e-01	0	43	104	1031798784	72	39894
2026-01-03 01:27:49.09	196.11	8.25	-51.1	-71.4	3.9	7.47e-01	0	43	104	1031798784	73	38021
2026-01-03 01:27:51.96	196.13	8.00	-50.2	-71.4	3.8	7.45e-01	0	43	104	1031798784	72	40414
2026-01-03 01:27:55.11	196.15	7.73	-51.2	-71.4	3.8	7.46e-01	0	44	104	1031798784	73	38193
2026-01-03 01:27:58.46	196.18	7.45	-51.3	-71.4	3.8	7.43e-01	0	44	104	1031798784	73	38145
2026-01-03 01:28:01.23	196.20	7.22	-50.9	-71.4	3.8	7.45e-01	0	44	104	1031798784	73	38203
2026-01-03 01:28:04.69	196.23	6.93	-50.3	-71.4	3.8	7.49e-01	0	43	104	1031798784	72	40208
2026-01-03 01:28:07.48	196.25	6.71	-50.4	-71.4	3.8	7.46e-01	0	44	104	1031798784	72	40056
2026-01-03 01:28:10.78	196.27	6.44	-50.4	-71.4	3.8	7.46e-01	0	44	104	1031798784	72	40067
2026-01-03 01:28:13.50	196.29	6.22	-50.4	-71.4	3.8	7.48e-01	0	44	104	1031798784	72	40163
2026-01-03 01:28:16.80	196.31	5.96	-50.4	-71.4	3.8	7.45e-01	0	43	104	1031798784	72	40136
2026-01-03 01:28:19.53	196.33	5.75	-50.4	-71.4	3.8	7.43e-01	0	44	104	1031798784	72	40062
2026-01-03 01:28:22.82	196.35	5.50	-50.3	-71.4	3.8	7.46e-01	0	43	104	1031798784	72	40115
2026-01-03 01:28:25.55	196.37	5.29	-50.4	-71.4	3.8	7.46e-01	0	43	104	1031798784	72	40096
2026-01-03 01:28:28.85	196.39	5.04	-50.3	-71.3	3.8	7.47e-01	0	44	104	1031798784	72	40030

#Closed at: 2026-01-03 01:28:30
#Recorded file [1031 MB]: D:/Data/31040_260103_041704.dat