passes_logs/2026/01/03/T1/T1__20260103_113212_SUOMI_NPP_rec.log

#Pass ID: 20260103_113212_SUOMI NPP
#Satellite: SUOMI NPP
#Configuration: NPP
#almurnet v.1.7.20251203
#Start time: 2026-01-03 11:32:13

#Version: 2.0.20230620
#Station: T1
#Location: 37.570604 lon 55.790049 lat
#TLE: 1 37849U 11061A   26001.07732418  .00000182  00000+0  10735-3 0  9990
#TLE: 2 37849  98.7795 303.2470 0002580  87.2016 272.9455 14.19520779734739

#Time	Az	El	Level	Level2	SNR	BER	BlckErr	Temp	State	Recorded	gain1	gain2
2026-01-03 11:32:13.92	210.99	5.08	-52.4	-67.9	3.8	1.49e+00	0	37	0	0	76	21321
2026-01-03 11:32:16.93	211.26	5.26	-52.4	-67.9	3.8	1.49e+00	0	38	104	0	76	21318
2026-01-03 11:32:19.94	211.52	5.44	-52.7	-68.2	3.8	1.49e+00	0	38	104	0	76	22060
2026-01-03 11:32:22.95	211.79	5.62	-52.9	-68.2	3.8	1.49e+00	0	38	104	0	76	22211
2026-01-03 11:32:25.97	212.06	5.80	-52.3	-67.5	3.8	1.49e+00	0	38	104	0	76	20528
2026-01-03 11:32:28.98	212.34	5.98	-52.7	-67.9	3.8	1.49e+00	0	38	104	0	76	21432
2026-01-03 11:32:31.99	212.62	6.17	-52.5	-67.8	3.8	1.49e+00	0	38	104	0	76	21103
2026-01-03 11:32:35.01	212.90	6.35	-52.4	-67.7	3.8	1.49e+00	0	38	104	0	76	20968
2026-01-03 11:32:38.02	213.18	6.53	-52.5	-68.0	3.8	1.49e+00	0	38	104	0	76	21536
2026-01-03 11:32:41.03	213.47	6.72	-52.4	-67.7	3.8	1.49e+00	0	38	104	0	76	20885
2026-01-03 11:32:44.05	213.77	6.90	-52.4	-67.6	3.8	1.49e+00	0	39	104	0	76	20631
2026-01-03 11:32:47.06	214.06	7.09	-52.3	-67.2	3.8	1.49e+00	0	39	104	0	76	19680
2026-01-03 11:32:50.07	214.36	7.28	-52.2	-67.3	3.8	1.49e+00	0	39	104	0	76	19861
2026-01-03 11:32:53.08	214.67	7.47	-52.3	-67.6	3.8	1.49e+00	0	39	104	0	76	20543
2026-01-03 11:32:56.10	214.97	7.65	-52.4	-67.6	3.8	1.49e+00	0	39	104	0	76	20715
2026-01-03 11:32:59.11	215.28	7.84	-52.5	-66.6	3.8	1.49e+00	0	39	104	0	76	18444
2026-01-03 11:33:02.12	215.60	8.03	-52.4	-67.4	3.8	1.49e+00	0	39	104	0	76	20230
2026-01-03 11:33:05.14	215.92	8.22	-51.1	-57.6	9.0	5.18e-02	0	39	0	3145728	74	7302
2026-01-03 11:33:08.15	216.24	8.42	-48.6	-52.2	14.5	0.00e+00	0	39	0	8388608	69	5244
2026-01-03 11:33:11.16	216.57	8.61	-47.8	-51.2	15.4	0.00e+00	0	39	0	14680064	67	5221
2026-01-03 11:33:14.17	216.90	8.80	-49.7	-54.2	12.4	1.75e-05	0	39	0	19922944	70	6246
2026-01-03 11:33:17.18	217.24	8.99	-51.6	-59.8	6.8	8.61e-02	0	39	0	25165824	73	10059
2026-01-03 11:33:20.19	217.58	9.19	-50.8	-56.6	10.1	7.22e-03	0	39	0	28311552	72	7368
2026-01-03 11:33:23.20	217.92	9.38	-50.4	-55.5	11.4	3.65e-04	0	39	0	33554432	72	6457
2026-01-03 11:33:26.22	218.27	9.58	-49.3	-53.3	13.5	1.90e-05	0	39	0	38797312	70	5632
2026-01-03 11:33:29.22	218.62	9.77	-48.2	-51.5	15.3	0.00e+00	0	40	0	44040192	68	5151
2026-01-03 11:33:32.23	218.98	9.97	-48.6	-52.0	15.3	0.00e+00	0	40	0	50331648	68	5413
2026-01-03 11:33:35.24	219.34	10.17	-47.7	-51.0	15.6	0.00e+00	0	40	0	55574528	67	5117
2026-01-03 11:33:38.25	219.71	10.36	-47.4	-50.7	15.9	0.00e+00	0	40	0	60817408	66	5239
2026-01-03 11:33:41.26	220.08	10.56	-47.3	-50.5	16.1	0.00e+00	0	40	0	67108864	66	5131
2026-01-03 11:33:44.27	220.46	10.76	-47.5	-50.6	16.0	0.00e+00	0	40	0	72351744	66	5205
2026-01-03 11:33:47.28	220.84	10.96	-47.3	-50.2	16.5	0.00e+00	0	40	0	78643200	66	4971
2026-01-03 11:33:50.29	221.23	11.16	-47.1	-49.9	16.7	0.00e+00	0	40	0	83886080	65	5047
2026-01-03 11:33:53.29	221.62	11.36	-46.8	-49.6	17.0	0.00e+00	0	40	0	89128960	65	4917
2026-01-03 11:33:56.31	222.02	11.56	-46.8	-49.6	17.1	0.00e+00	0	40	0	95420416	65	4888
2026-01-03 11:33:59.32	222.42	11.76	-47.0	-49.7	17.5	0.00e+00	0	40	0	100663296	65	4931
2026-01-03 11:34:02.33	222.83	11.96	-46.4	-48.9	17.7	0.00e+00	0	40	0	106954752	64	4803
2026-01-03 11:34:05.33	223.24	12.16	-46.4	-48.9	17.7	0.00e+00	0	40	0	112197632	64	4796
2026-01-03 11:34:08.34	223.66	12.36	-46.4	-49.0	17.6	0.00e+00	0	40	0	117440512	64	4838
2026-01-03 11:34:11.35	224.09	12.56	-46.8	-49.4	17.6	0.00e+00	0	40	0	123731968	64	5071
2026-01-03 11:34:14.36	224.52	12.77	-46.5	-49.1	17.6	0.00e+00	0	40	0	128974848	64	4920
2026-01-03 11:34:17.37	224.95	12.97	-46.7	-49.3	17.5	0.00e+00	0	40	0	134217728	64	5040
2026-01-03 11:34:20.38	225.39	13.17	-46.8	-49.5	17.2	0.00e+00	0	40	0	140509184	64	5140
2026-01-03 11:34:23.39	225.84	13.38	-46.9	-49.6	17.2	0.00e+00	0	40	0	145752064	65	4897
2026-01-03 11:34:26.40	226.30	13.58	-46.6	-49.2	17.5	0.00e+00	0	40	0	152043520	64	4930
2026-01-03 11:34:29.40	226.76	13.78	-46.3	-48.8	18.0	0.00e+00	0	40	0	157286400	64	4724
2026-01-03 11:34:32.41	227.22	13.98	-46.2	-48.7	18.1	0.00e+00	0	40	0	162529280	64	4663
2026-01-03 11:34:35.42	227.69	14.19	-46.1	-48.6	18.1	0.00e+00	0	40	0	168820736	64	4618
2026-01-03 11:34:38.43	228.17	14.39	-46.4	-48.9	18.2	0.00e+00	0	40	0	174063616	64	4776
2026-01-03 11:34:41.45	228.66	14.59	-46.2	-48.6	18.1	0.00e+00	0	40	0	179306496	64	4644
2026-01-03 11:34:44.46	229.15	14.79	-46.2	-48.7	18.1	0.00e+00	0	40	0	185597952	64	4689
2026-01-03 11:34:47.47	229.65	15.00	-46.4	-48.9	17.8	0.00e+00	0	40	0	190840832	64	4792
2026-01-03 11:34:50.48	230.15	15.20	-47.0	-49.5	17.8	0.00e+00	0	40	0	197132288	65	4858
2026-01-03 11:34:53.49	230.67	15.40	-46.4	-48.9	17.9	0.00e+00	0	40	0	202375168	64	4761
2026-01-03 11:34:56.50	231.18	15.60	-46.1	-48.5	18.2	0.00e+00	0	40	0	207618048	64	4572
2026-01-03 11:34:59.51	231.71	15.80	-46.0	-48.4	18.3	0.00e+00	0	40	0	213909504	64	4541
2026-01-03 11:35:02.50	232.24	16.00	-46.6	-49.0	18.4	0.00e+00	0	40	0	219152384	64	4828
2026-01-03 11:35:05.51	232.78	16.20	-45.9	-48.3	18.6	0.00e+00	0	40	0	224395264	63	4726
2026-01-03 11:35:08.52	233.32	16.40	-45.8	-48.1	18.6	0.00e+00	0	40	0	230686720	63	4646
2026-01-03 11:35:11.53	233.87	16.59	-45.8	-48.2	18.7	0.00e+00	0	40	0	235929600	63	4655
2026-01-03 11:35:14.54	234.43	16.79	-45.9	-48.3	18.5	0.00e+00	0	40	0	242221056	63	4726
2026-01-03 11:35:17.55	235.00	16.98	-46.2	-48.6	18.2	0.00e+00	0	40	0	247463936	63	4913
2026-01-03 11:35:20.56	235.57	17.18	-46.1	-48.5	18.4	0.00e+00	0	40	0	252706816	63	4846
2026-01-03 11:35:23.57	236.16	17.37	-46.1	-48.6	18.3	0.00e+00	0	40	0	258998272	63	4876
2026-01-03 11:35:26.57	236.74	17.56	-46.6	-49.2	18.0	0.00e+00	0	40	0	264241152	64	4943
2026-01-03 11:35:29.58	237.34	17.75	-46.6	-49.2	17.8	0.00e+00	0	40	0	270532608	64	4930
2026-01-03 11:35:32.59	237.94	17.94	-46.3	-48.8	18.1	0.00e+00	0	40	0	275775488	64	4724
2026-01-03 11:35:35.60	238.55	18.13	-46.2	-48.7	18.1	0.00e+00	0	40	0	281018368	64	4671
2026-01-03 11:35:38.61	239.17	18.31	-46.3	-48.7	18.1	0.00e+00	0	40	0	287309824	64	4698
2026-01-03 11:35:41.62	239.79	18.49	-46.3	-48.7	18.3	0.00e+00	0	40	0	292552704	63	4949
2026-01-03 11:35:44.64	240.43	18.68	-46.7	-49.4	17.5	0.00e+00	0	40	0	297795584	64	5051
2026-01-03 11:35:47.65	241.07	18.85	-46.4	-49.0	17.8	0.00e+00	0	40	0	304087040	64	4857
2026-01-03 11:35:50.65	241.71	19.03	-46.5	-49.1	17.9	0.00e+00	0	40	0	309329920	64	4905
2026-01-03 11:35:53.66	242.37	19.20	-47.0	-49.7	17.3	0.00e+00	0	40	0	315621376	64	5225
2026-01-03 11:35:56.67	243.03	19.38	-46.9	-49.4	17.7	0.00e+00	0	40	0	320864256	65	4805
2026-01-03 11:35:59.68	243.70	19.55	-46.7	-49.2	17.7	0.00e+00	0	40	0	326107136	65	4700
2026-01-03 11:36:02.70	244.38	19.71	-47.4	-50.2	16.7	0.00e+00	0	40	0	332398592	65	5262
2026-01-03 11:36:05.71	245.06	19.88	-47.7	-50.4	17.1	0.00e+00	0	40	0	337641472	66	5093
2026-01-03 11:36:08.72	245.75	20.04	-47.1	-49.8	17.1	0.00e+00	0	40	0	342884352	65	4999
2026-01-03 11:36:11.73	246.45	20.19	-47.7	-50.5	16.9	0.00e+00	0	40	0	349175808	66	5138
2026-01-03 11:36:14.74	247.15	20.35	-47.1	-49.9	17.0	0.00e+00	0	40	0	354418688	65	5058
2026-01-03 11:36:17.75	247.86	20.50	-47.4	-50.4	16.5	0.00e+00	0	40	0	360710144	65	5369
2026-01-03 11:36:20.75	248.58	20.65	-47.4	-50.4	16.7	3.80e-06	0	40	0	365953024	66	5067
2026-01-03 11:36:23.76	249.30	20.79	-46.6	-49.3	17.6	0.00e+00	0	40	0	371195904	65	4745
2026-01-03 11:36:26.77	250.03	20.93	-46.5	-49.1	17.9	0.00e+00	0	41	0	377487360	65	4608
2026-01-03 11:36:29.78	250.77	21.06	-47.1	-49.8	17.2	0.00e+00	0	41	0	382730240	64	5302
2026-01-03 11:36:32.79	251.51	21.20	-47.7	-50.6	16.5	0.00e+00	0	41	0	389021696	66	5210
2026-01-03 11:36:35.81	252.26	21.32	-46.9	-49.5	17.5	0.00e+00	0	40	0	394264576	65	4846
2026-01-03 11:36:38.82	253.02	21.45	-46.8	-49.3	17.7	0.00e+00	0	41	0	399507456	64	5011
2026-01-03 11:36:41.83	253.78	21.57	-47.0	-49.7	17.4	0.00e+00	0	41	0	405798912	64	5239
2026-01-03 11:36:44.84	254.55	21.68	-47.1	-49.8	17.3	0.00e+00	0	41	0	411041792	65	4987
2026-01-03 11:36:47.85	255.32	21.79	-47.3	-50.1	16.9	0.00e+00	0	41	0	416284672	65	5165
2026-01-03 11:36:50.86	256.10	21.89	-46.3	-48.7	18.2	0.00e+00	0	41	0	422576128	64	4698
2026-01-03 11:36:53.87	256.88	21.99	-46.8	-49.3	17.9	0.00e+00	0	41	0	427819008	64	5008
2026-01-03 11:36:56.88	257.66	22.09	-47.1	-49.7	17.4	0.00e+00	0	41	0	434110464	66	4699
2026-01-03 11:36:59.89	258.46	22.18	-46.8	-49.4	17.8	0.00e+00	0	41	0	439353344	65	4777
2026-01-03 11:37:02.89	259.25	22.26	-46.5	-49.0	17.9	0.00e+00	0	41	0	444596224	64	4853
2026-01-03 11:37:05.90	260.05	22.34	-47.0	-49.5	18.0	0.00e+00	0	41	0	450887680	64	5103
2026-01-03 11:37:08.91	260.85	22.41	-46.5	-49.0	17.9	0.00e+00	0	40	0	456130560	64	4863
2026-01-03 11:37:11.92	261.66	22.48	-47.0	-49.6	17.4	0.00e+00	0	40	0	461373440	64	5210
2026-01-03 11:37:14.93	262.47	22.54	-47.2	-49.8	17.2	0.00e+00	0	40	0	467664896	65	5026
2026-01-03 11:37:17.94	263.28	22.60	-46.8	-49.4	17.6	0.00e+00	0	41	0	472907776	65	4796
2026-01-03 11:37:20.94	264.10	22.65	-46.9	-49.6	17.4	0.00e+00	0	41	0	479199232	65	4876
2026-01-03 11:37:23.95	264.92	22.69	-46.2	-48.6	18.4	0.00e+00	0	41	0	484442112	64	4630
2026-01-03 11:37:26.96	265.74	22.73	-46.9	-49.6	17.3	0.00e+00	0	41	0	489684992	64	5215
2026-01-03 11:37:29.97	266.56	22.77	-46.7	-49.4	17.6	0.00e+00	0	41	0	495976448	65	4776
2026-01-03 11:37:32.98	267.38	22.79	-46.7	-49.2	18.1	0.00e+00	0	40	0	501219328	64	4932
2026-01-03 11:37:35.99	268.21	22.81	-47.1	-49.7	17.9	0.00e+00	0	41	0	507510784	65	4935
2026-01-03 11:37:39.00	269.03	22.83	-46.4	-48.9	18.1	0.00e+00	0	41	0	512753664	64	4781
2026-01-03 11:37:42.01	269.86	22.84	-46.7	-49.2	17.8	0.00e+00	0	41	0	517996544	64	4968
2026-01-03 11:37:45.01	270.68	22.84	-46.3	-48.8	18.3	0.00e+00	0	41	0	524288000	64	4712
2026-01-03 11:37:48.02	271.51	22.84	-47.8	-50.4	17.3	0.00e+00	0	41	0	529530880	66	5080
2026-01-03 11:37:51.03	272.34	22.83	-46.9	-49.5	17.5	0.00e+00	0	41	0	534773760	65	4851
2026-01-03 11:37:54.04	273.16	22.81	-46.8	-49.3	17.7	0.00e+00	0	41	0	541065216	65	4751
2026-01-03 11:37:57.05	273.99	22.79	-46.3	-48.8	18.1	0.00e+00	0	41	0	546308096	64	4732
2026-01-03 11:38:00.05	274.81	22.77	-46.5	-49.0	18.0	0.00e+00	0	41	0	552599552	64	4832
2026-01-03 11:38:03.05	275.63	22.73	-47.4	-49.9	17.8	0.00e+00	0	41	0	557842432	65	5079
2026-01-03 11:38:06.06	276.45	22.69	-46.1	-48.5	18.5	0.00e+00	0	41	0	563085312	64	4572
2026-01-03 11:38:09.07	277.26	22.65	-45.8	-48.1	18.8	0.00e+00	0	41	0	569376768	63	4632
2026-01-03 11:38:12.08	278.08	22.60	-45.7	-47.9	19.0	0.00e+00	0	41	0	574619648	63	4533
2026-01-03 11:38:15.08	278.89	22.54	-46.0	-48.4	18.5	0.00e+00	0	41	0	580911104	63	4771
2026-01-03 11:38:18.10	279.70	22.48	-46.1	-48.5	18.5	0.00e+00	0	41	0	586153984	63	4828
2026-01-03 11:38:21.10	280.50	22.41	-46.2	-48.7	18.2	0.00e+00	0	41	0	591396864	64	4653
2026-01-03 11:38:24.11	281.30	22.34	-46.3	-48.8	18.1	0.00e+00	0	41	0	597688320	64	4720
2026-01-03 11:38:27.12	282.10	22.26	-46.2	-48.6	18.3	0.00e+00	0	41	0	602931200	63	4911
2026-01-03 11:38:30.13	282.90	22.18	-46.6	-49.2	17.8	0.00e+00	0	41	0	608174080	64	4947
2026-01-03 11:38:33.13	283.68	22.09	-46.3	-48.8	18.1	0.00e+00	0	40	0	614465536	64	4719
2026-01-03 11:38:36.13	284.47	21.99	-45.6	-47.9	19.0	0.00e+00	0	41	0	619708416	63	4534
2026-01-03 11:38:39.14	285.25	21.89	-45.8	-48.1	18.7	0.00e+00	0	41	0	625999872	63	4643
2026-01-03 11:38:42.15	286.02	21.79	-45.5	-47.7	19.1	0.00e+00	0	41	0	631242752	63	4425
2026-01-03 11:38:45.16	286.79	21.68	-46.1	-48.3	19.3	0.00e+00	0	41	0	636485632	62	5020
2026-01-03 11:38:48.16	287.55	21.57	-45.9	-48.2	18.7	7.00e-07	0	41	0	642777088	63	4669
2026-01-03 11:38:51.17	288.31	21.45	-45.7	-48.1	18.9	0.00e+00	0	41	0	648019968	63	4601
2026-01-03 11:38:54.17	289.06	21.33	-45.8	-48.2	18.7	0.00e+00	0	41	0	653262848	63	4655
2026-01-03 11:38:57.18	289.81	21.20	-46.0	-48.4	18.5	0.00e+00	0	41	0	659554304	63	4787
2026-01-03 11:39:00.18	290.55	21.07	-45.9	-48.2	18.7	0.00e+00	0	41	0	664797184	63	4696
2026-01-03 11:39:03.19	291.28	20.94	-46.3	-48.7	18.9	0.00e+00	0	41	0	671088640	64	4652
2026-01-03 11:39:06.19	292.01	20.80	-45.5	-47.7	19.4	0.00e+00	0	41	0	676331520	62	4698
2026-01-03 11:39:09.20	292.73	20.66	-45.6	-47.9	19.2	0.00e+00	0	41	0	681574400	62	4760
2026-01-03 11:39:12.21	293.45	20.51	-45.8	-48.1	18.8	0.00e+00	0	41	0	687865856	62	4907
2026-01-03 11:39:15.21	294.15	20.36	-45.8	-48.1	18.8	0.00e+00	0	41	0	693108736	62	4902
2026-01-03 11:39:18.22	294.85	20.21	-46.9	-49.3	18.4	0.00e+00	0	41	0	698351616	64	5003
2026-01-03 11:39:21.22	295.55	20.05	-46.5	-49.0	18.0	0.00e+00	0	41	0	704643072	64	4837
2026-01-03 11:39:24.22	296.23	19.89	-46.1	-48.5	18.6	0.00e+00	0	41	0	709885952	64	4568
2026-01-03 11:39:27.22	296.91	19.73	-45.8	-48.1	19.0	0.00e+00	0	41	0	716177408	63	4599
2026-01-03 11:39:30.23	297.58	19.57	-45.9	-48.2	18.9	0.00e+00	0	41	0	721420288	63	4686
2026-01-03 11:39:33.24	298.25	19.40	-46.8	-49.4	17.7	0.00e+00	0	41	0	726663168	64	5052
2026-01-03 11:39:36.24	298.91	19.23	-47.7	-50.5	16.6	0.00e+00	0	41	0	732954624	66	5159
2026-01-03 11:39:39.24	299.56	19.06	-47.3	-50.0	17.0	0.00e+00	0	41	0	738197504	66	4867
2026-01-03 11:39:42.25	300.20	18.88	-47.6	-50.2	17.4	0.00e+00	0	41	0	743440384	66	4936
2026-01-03 11:39:45.25	300.84	18.70	-47.2	-49.9	17.1	0.00e+00	0	41	0	749731840	66	4785
2026-01-03 11:39:48.25	301.46	18.53	-46.8	-49.4	17.5	0.00e+00	0	41	0	754974720	65	4792
2026-01-03 11:39:51.26	302.09	18.34	-46.8	-49.4	17.5	0.00e+00	0	41	0	760217600	65	4798
2026-01-03 11:39:54.26	302.70	18.16	-47.0	-49.6	17.3	0.00e+00	0	41	0	766509056	65	4912
2026-01-03 11:39:57.26	303.31	17.98	-47.8	-50.7	16.3	0.00e+00	0	41	0	771751936	66	5251
2026-01-03 11:40:00.26	303.90	17.79	-48.9	-52.0	15.7	0.00e+00	0	41	0	778043392	68	5432
2026-01-03 11:40:03.27	304.50	17.60	-48.1	-51.1	16.1	0.00e+00	0	41	0	783286272	68	4918
2026-01-03 11:40:06.28	305.08	17.41	-47.7	-50.5	16.6	0.00e+00	0	41	0	788529152	67	4866
2026-01-03 11:40:09.29	305.66	17.22	-48.0	-51.0	16.1	0.00e+00	0	41	0	794820608	67	5129
2026-01-03 11:40:12.29	306.23	17.03	-48.0	-51.0	16.2	0.00e+00	0	41	0	800063488	67	5117
2026-01-03 11:40:15.29	306.80	16.84	-47.3	-50.0	16.9	0.00e+00	0	41	0	805306368	66	4844
2026-01-03 11:40:18.30	307.36	16.64	-47.0	-49.6	17.3	0.00e+00	0	41	0	811597824	65	4899
2026-01-03 11:40:21.31	307.91	16.45	-47.2	-50.0	16.9	0.00e+00	0	41	0	816840704	65	5117
2026-01-03 11:40:24.31	308.45	16.25	-47.0	-49.7	17.3	0.00e+00	0	41	0	823132160	65	4948
2026-01-03 11:40:27.31	308.98	16.06	-47.5	-50.4	16.7	0.00e+00	0	41	0	828375040	65	5357
2026-01-03 11:40:30.32	309.51	15.86	-48.4	-51.6	16.0	0.00e+00	0	41	0	833617920	67	5477
2026-01-03 11:40:33.33	310.04	15.66	-47.6	-50.6	16.4	0.00e+00	0	41	0	839909376	67	4895
2026-01-03 11:40:36.34	310.55	15.46	-46.8	-49.5	17.4	0.00e+00	0	41	0	845152256	65	4855
2026-01-03 11:40:39.34	311.06	15.26	-47.2	-50.0	16.9	0.00e+00	0	41	0	850395136	65	5116
2026-01-03 11:40:42.35	311.57	15.06	-47.4	-50.2	16.7	0.00e+00	0	41	0	856686592	65	5272
2026-01-03 11:40:45.36	312.06	14.86	-47.6	-50.4	17.0	0.00e+00	0	41	0	861929472	66	5049
2026-01-03 11:40:48.36	312.55	14.66	-47.0	-49.8	17.1	0.00e+00	0	41	0	868220928	65	4994
2026-01-03 11:40:51.36	313.03	14.46	-47.5	-50.6	16.3	0.00e+00	0	41	0	873463808	65	5486
2026-01-03 11:40:54.37	313.51	14.26	-47.6	-50.8	16.1	0.00e+00	0	41	0	878706688	66	5321
2026-01-03 11:40:57.37	313.98	14.06	-46.8	-49.6	17.3	0.00e+00	0	41	0	884998144	65	4897
2026-01-03 11:41:00.38	314.45	13.86	-46.8	-49.3	17.9	0.00e+00	0	41	0	890241024	65	4734
2026-01-03 11:41:03.38	314.91	13.66	-46.8	-49.4	17.8	0.00e+00	0	41	0	895483904	64	5057
2026-01-03 11:41:06.39	315.36	13.46	-46.2	-48.7	18.1	0.00e+00	0	41	0	901775360	64	4671
2026-01-03 11:41:09.39	315.81	13.26	-46.1	-48.6	18.3	0.00e+00	0	41	0	907018240	63	4889
2026-01-03 11:41:12.39	316.25	13.06	-46.5	-49.0	17.8	0.00e+00	0	41	0	913309696	63	5147
2026-01-03 11:41:15.40	316.68	12.86	-47.8	-50.6	16.8	0.00e+00	0	41	0	918552576	66	5215
2026-01-03 11:41:18.40	317.11	12.66	-47.5	-50.4	16.6	0.00e+00	0	41	0	923795456	66	5057
2026-01-03 11:41:21.41	317.53	12.46	-47.2	-50.1	16.8	0.00e+00	0	41	0	930086912	66	4887
2026-01-03 11:41:24.41	317.95	12.26	-47.4	-50.3	16.8	0.00e+00	0	41	0	935329792	66	5008
2026-01-03 11:41:27.42	318.37	12.06	-47.6	-50.7	16.2	0.00e+00	0	41	0	940572672	66	5227
2026-01-03 11:41:30.43	318.77	11.86	-47.3	-50.3	16.6	0.00e+00	0	41	0	946864128	66	4985
2026-01-03 11:41:33.43	319.17	11.66	-46.5	-49.3	17.4	0.00e+00	0	41	0	952107008	65	4742
2026-01-03 11:41:36.44	319.57	11.47	-46.4	-49.2	17.6	0.00e+00	0	41	0	958398464	64	4931
2026-01-03 11:41:39.44	319.96	11.27	-46.5	-49.3	17.4	7.00e-07	0	41	0	963641344	64	5008
2026-01-03 11:41:42.45	320.35	11.07	-46.7	-49.5	17.2	0.00e+00	0	41	0	968884224	64	5156
2026-01-03 11:41:45.46	320.73	10.87	-46.9	-49.8	16.9	0.00e+00	0	41	0	975175680	64	5290
2026-01-03 11:41:48.47	321.11	10.68	-47.4	-50.3	16.8	0.00e+00	0	41	0	980418560	65	5286
2026-01-03 11:41:51.48	321.48	10.48	-47.6	-50.7	16.2	0.00e+00	0	41	0	985661440	65	5534
2026-01-03 11:41:54.48	321.85	10.29	-48.1	-51.2	15.6	0.00e+00	0	41	0	991952896	66	5583
2026-01-03 11:41:57.49	322.21	10.09	-47.7	-50.9	15.8	0.00e+00	0	41	0	997195776	67	5090
2026-01-03 11:42:00.49	322.57	9.90	-47.4	-50.5	16.3	0.00e+00	0	41	0	1003487232	66	5128
2026-01-03 11:42:03.50	322.92	9.70	-46.7	-49.7	17.0	0.00e+00	0	41	0	1008730112	65	4981
2026-01-03 11:42:06.51	323.27	9.51	-47.1	-50.0	17.2	0.00e+00	0	41	0	1013972992	65	5121
2026-01-03 11:42:09.51	323.62	9.32	-46.8	-50.0	16.7	0.00e+00	0	41	0	1020264448	65	5109
2026-01-03 11:42:12.52	323.96	9.13	-47.0	-50.5	16.2	0.00e+00	0	41	0	1025507328	65	5411
2026-01-03 11:42:15.53	324.29	8.93	-53.0	-68.1	3.8	1.49e+00	0	41	104	1029701632	76	22004
2026-01-03 11:42:18.54	324.63	8.74	-53.0	-68.6	3.8	1.49e+00	0	41	104	1029701632	76	23151
2026-01-03 11:42:21.56	324.96	8.55	-53.5	-68.7	3.8	1.49e+00	0	41	104	1029701632	77	22120
2026-01-03 11:42:24.57	325.28	8.36	-53.7	-68.7	3.8	1.49e+00	0	41	104	1029701632	77	22207
2026-01-03 11:42:27.58	325.60	8.17	-53.9	-68.9	3.8	1.49e+00	0	41	104	1029701632	78	21401
2026-01-03 11:42:30.59	325.92	7.99	-54.1	-69.1	3.8	1.49e+00	0	41	104	1029701632	78	21797
2026-01-03 11:42:33.61	326.23	7.80	-53.7	-68.7	3.8	1.49e+00	0	41	104	1029701632	78	20976
2026-01-03 11:42:36.62	326.54	7.61	-53.4	-68.7	3.8	1.49e+00	0	41	104	1029701632	78	20923
2026-01-03 11:42:39.63	326.84	7.43	-53.5	-68.7	3.8	1.49e+00	0	41	104	1029701632	78	20962
2026-01-03 11:42:42.65	327.14	7.24	-53.5	-68.7	3.8	1.49e+00	0	41	104	1029701632	78	20835
2026-01-03 11:42:45.66	327.44	7.06	-53.5	-68.7	3.8	1.49e+00	0	41	104	1029701632	78	20905
2026-01-03 11:42:48.67	327.74	6.87	-53.5	-68.7	3.8	1.49e+00	0	41	104	1029701632	78	21006
2026-01-03 11:42:51.68	328.03	6.69	-53.6	-68.8	3.8	1.49e+00	0	41	104	1029701632	78	21244
2026-01-03 11:42:54.70	328.31	6.51	-53.5	-68.7	3.8	1.49e+00	0	41	104	1029701632	78	21007
2026-01-03 11:42:57.71	328.60	6.32	-53.5	-68.7	3.8	1.49e+00	0	41	104	1029701632	78	20970
2026-01-03 11:43:00.73	328.88	6.14	-53.5	-68.7	3.8	1.49e+00	0	41	104	1029701632	78	20917
2026-01-03 11:43:03.74	329.15	5.96	-53.5	-68.7	3.8	1.49e+00	0	41	104	1029701632	78	20910
2026-01-03 11:43:06.75	329.43	5.78	-53.5	-68.7	3.8	1.49e+00	0	41	104	1029701632	78	21016
2026-01-03 11:43:09.77	329.70	5.60	-53.4	-68.7	3.8	1.49e+00	0	41	104	1029701632	78	20869
2026-01-03 11:43:12.78	329.97	5.43	-53.4	-68.7	3.8	1.49e+00	0	41	104	1029701632	78	20966
2026-01-03 11:43:15.79	330.23	5.25	-53.4	-68.7	3.8	1.49e+00	0	41	104	1029701632	78	20899
2026-01-03 11:43:18.81	330.49	5.07	-53.4	-68.7	3.8	1.49e+00	0	41	104	1029701632	78	20844

#Closed at: 2026-01-03 11:43:21
#Recorded file [1029 MB]: D:/Data/31040_260103_143213.dat