passes_logs/2026/01/03/T1/T1__20260103_231133_NOAA_21_JPSS-2_rec.log

#Pass ID: 20260103_231133_NOAA 21 (JPSS-2)
#Satellite: NOAA 21 (JPSS-2)
#Configuration: NOAA 21
#almurnet v.1.7.20251203
#Start time: 2026-01-03 23:11:35

#Version: 2.0.20230620
#Station: T1
#Location: 37.570604 lon 55.790049 lat
#TLE: 1 54234U 22150A   26003.45311712  .00000198  00000+0  11468-3 0  9993
#TLE: 2 54234  98.7487 304.4932 0001159 347.5017  12.6130 14.19531745163172

#Time	Az	El	Level	Level2	SNR	BER	BlckErr	Temp	State	Recorded	gain1	gain2
2026-01-03 23:11:35.25	19.86	5.10	-53.2	-67.4	3.8	1.49e+00	0	38	104	0	77	18959
2026-01-03 23:11:38.26	19.95	5.32	-53.4	-67.5	3.8	1.49e+00	0	38	104	0	77	19207
2026-01-03 23:11:41.27	20.05	5.53	-53.3	-67.4	3.8	1.49e+00	0	38	104	0	77	19067
2026-01-03 23:11:44.28	20.14	5.74	-53.0	-67.1	3.8	1.49e+00	0	39	104	0	77	18517
2026-01-03 23:11:47.29	20.24	5.96	-53.2	-67.3	3.8	1.49e+00	0	39	104	0	77	18834
2026-01-03 23:11:50.30	20.34	6.18	-53.1	-67.3	3.8	1.49e+00	0	38	104	0	77	18880
2026-01-03 23:11:53.31	20.44	6.40	-53.2	-67.4	3.8	1.49e+00	0	39	104	0	77	18968
2026-01-03 23:11:56.33	20.54	6.62	-53.4	-67.5	3.8	1.49e+00	0	39	104	0	77	19289
2026-01-03 23:11:59.34	20.64	6.84	-53.3	-67.3	3.8	1.49e+00	0	39	104	0	77	18741
2026-01-03 23:12:02.35	20.75	7.07	-53.3	-66.3	3.8	1.49e+00	0	39	104	0	77	16696
2026-01-03 23:12:05.37	20.85	7.29	-53.0	-64.5	4.0	1.48e+00	0	39	104	0	77	13722
2026-01-03 23:12:08.38	20.96	7.52	-53.0	-64.6	3.9	1.47e+00	0	39	104	0	77	13815
2026-01-03 23:12:11.39	21.07	7.75	-53.0	-64.8	4.0	1.48e+00	0	39	104	0	77	14125
2026-01-03 23:12:14.40	21.18	7.99	-53.1	-66.0	3.8	1.49e+00	0	39	104	0	77	16133
2026-01-03 23:12:17.41	21.29	8.22	-53.0	-66.0	3.8	1.49e+00	0	39	104	0	77	16171
2026-01-03 23:12:20.42	21.40	8.46	-52.8	-64.9	3.9	1.49e+00	0	40	104	0	77	14365
2026-01-03 23:12:23.44	21.51	8.70	-52.3	-62.3	4.0	1.04e+00	0	40	104	0	76	11204
2026-01-03 23:12:26.45	21.63	8.94	-51.7	-58.5	7.2	1.48e-01	0	40	0	0	75	7633
2026-01-03 23:12:29.46	21.75	9.19	-53.0	-64.2	4.0	1.48e+00	0	40	104	0	76	13930
2026-01-03 23:12:32.47	21.87	9.43	-49.0	-52.3	13.5	1.76e-03	0	40	0	0	70	5014
2026-01-03 23:12:35.48	21.99	9.68	-46.7	-49.2	16.7	0.00e+00	0	40	0	0	65	4659
2026-01-03 23:12:38.49	22.11	9.93	-46.6	-48.9	17.0	0.00e+00	0	40	0	0	64	4791
2026-01-03 23:12:41.49	22.24	10.19	-46.2	-48.3	17.5	0.00e+00	0	40	0	0	64	4479
2026-01-03 23:12:44.50	22.37	10.44	-45.9	-47.9	18.0	0.00e+00	0	40	0	0	63	4523
2026-01-03 23:12:47.51	22.49	10.70	-45.6	-47.6	18.3	0.00e+00	0	40	0	0	63	4353
2026-01-03 23:12:50.52	22.63	10.96	-45.8	-47.8	18.2	0.00e+00	0	40	0	0	63	4459
2026-01-03 23:12:53.53	22.76	11.23	-45.5	-47.4	18.4	0.00e+00	0	40	0	0	63	4276
2026-01-03 23:12:56.53	22.89	11.49	-45.8	-47.7	18.2	0.00e+00	0	40	0	0	62	4689
2026-01-03 23:12:59.54	23.03	11.76	-45.6	-47.4	18.4	0.00e+00	0	40	0	0	62	4541
2026-01-03 23:13:02.55	23.17	12.04	-45.6	-47.5	18.3	0.00e+00	0	40	0	0	62	4583
2026-01-03 23:13:05.56	23.32	12.31	-45.4	-47.3	18.6	0.00e+00	0	40	0	0	62	4456
2026-01-03 23:13:08.56	23.46	12.59	-45.3	-47.2	18.8	0.00e+00	0	40	0	0	62	4397
2026-01-03 23:13:11.57	23.61	12.87	-45.3	-47.2	18.7	0.00e+00	0	40	0	0	62	4424
2026-01-03 23:13:14.58	23.76	13.16	-45.4	-47.3	18.7	0.00e+00	0	40	0	0	62	4468
2026-01-03 23:13:18.00	23.93	13.48	-45.2	-47.1	18.7	0.00e+00	0	40	0	0	62	4369
2026-01-03 23:13:20.72	24.07	13.75	-45.3	-47.2	18.7	0.00e+00	0	40	0	0	62	4405
2026-01-03 23:13:24.05	24.25	14.07	-45.4	-47.3	18.8	0.00e+00	0	40	0	0	62	4454
2026-01-03 23:13:26.77	24.39	14.34	-45.4	-47.2	18.9	0.00e+00	0	40	0	0	62	4435
2026-01-03 23:13:30.22	24.58	14.69	-45.3	-47.2	18.9	0.00e+00	0	40	0	0	62	4394
2026-01-03 23:13:32.94	24.73	14.97	-45.3	-47.2	18.9	0.00e+00	0	40	0	0	62	4423
2026-01-03 23:13:36.24	24.92	15.31	-45.3	-47.1	18.9	0.00e+00	0	40	0	0	62	4389
2026-01-03 23:13:38.96	25.08	15.59	-45.4	-47.2	18.9	0.00e+00	0	41	0	0	62	4416
2026-01-03 23:13:42.26	25.28	15.94	-45.3	-47.1	19.0	0.00e+00	0	40	0	0	62	4359
2026-01-03 23:13:44.97	25.44	16.23	-45.3	-47.1	19.0	0.00e+00	0	40	0	0	62	4368
2026-01-03 23:13:48.27	25.64	16.58	-45.3	-47.2	18.9	0.00e+00	0	40	0	0	62	4399
2026-01-03 23:13:50.99	25.81	16.88	-45.5	-47.4	18.6	0.00e+00	0	41	0	0	62	4538
2026-01-03 23:13:54.29	26.02	17.25	-45.1	-47.1	18.8	0.00e+00	0	40	0	0	62	4354
2026-01-03 23:13:57.01	26.20	17.55	-45.3	-47.2	18.7	0.00e+00	0	41	0	0	62	4439
2026-01-03 23:14:00.29	26.42	17.92	-45.1	-47.0	18.9	0.00e+00	0	41	0	0	62	4340
2026-01-03 23:14:03.02	26.61	18.24	-45.2	-47.2	18.9	0.00e+00	0	41	0	0	62	4394
2026-01-03 23:14:06.32	26.84	18.62	-45.5	-47.5	18.7	0.00e+00	0	41	0	0	62	4559
2026-01-03 23:14:09.04	27.03	18.95	-45.4	-47.3	18.8	0.00e+00	0	41	0	0	62	4467
2026-01-03 23:14:12.33	27.27	19.34	-45.5	-47.4	18.7	0.00e+00	0	40	0	0	62	4542
2026-01-03 23:14:15.05	27.47	19.67	-45.5	-47.4	18.7	0.00e+00	0	41	0	0	62	4512
2026-01-03 23:14:18.63	27.75	20.11	-45.2	-47.0	18.9	0.00e+00	0	41	0	0	62	4321
2026-01-03 23:14:21.41	27.97	20.46	-45.0	-46.8	19.2	0.00e+00	0	41	0	0	62	4207
2026-01-03 23:14:24.78	28.24	20.89	-44.9	-46.7	19.3	0.00e+00	0	41	0	0	61	4397
2026-01-03 23:14:27.51	28.46	21.24	-44.5	-46.3	19.5	0.00e+00	0	41	0	0	61	4214
2026-01-03 23:14:30.80	28.74	21.67	-44.5	-46.2	19.8	0.00e+00	0	41	0	0	60	4430
2026-01-03 23:14:33.52	28.97	22.03	-44.3	-46.0	19.9	0.00e+00	0	41	0	0	60	4335
2026-01-03 23:14:36.81	29.26	22.47	-44.2	-45.9	20.2	0.00e+00	0	41	0	0	60	4260
2026-01-03 23:14:39.54	29.51	22.85	-44.0	-45.6	20.1	0.00e+00	0	41	0	0	59	4380
2026-01-03 23:14:42.83	29.81	23.30	-43.9	-45.5	20.2	0.00e+00	0	41	0	0	59	4338
2026-01-03 23:14:45.57	30.07	23.69	-43.8	-45.5	20.2	0.00e+00	0	41	0	0	59	4308
2026-01-03 23:14:48.86	30.40	24.16	-44.0	-45.7	20.2	0.00e+00	0	41	0	0	59	4430
2026-01-03 23:14:51.58	30.67	24.55	-44.0	-45.7	20.2	0.00e+00	0	41	0	0	59	4402
2026-01-03 23:14:55.04	31.03	25.06	-44.1	-45.8	20.0	0.00e+00	0	41	0	0	59	4473
2026-01-03 23:14:57.75	31.31	25.46	-44.3	-46.0	20.0	0.00e+00	0	41	0	0	59	4560
2026-01-03 23:15:01.49	31.72	26.03	-44.5	-46.2	19.6	0.00e+00	0	41	0	0	59	4703
2026-01-03 23:15:04.41	32.05	26.48	-44.9	-46.7	19.5	0.00e+00	0	41	0	0	60	4664
2026-01-03 23:15:08.23	32.49	27.08	-45.2	-47.1	19.1	0.00e+00	0	41	0	0	61	4604
2026-01-03 23:15:11.02	32.83	27.53	-45.3	-47.1	19.2	0.00e+00	0	41	0	0	61	4624
2026-01-03 23:15:14.59	33.27	28.11	-45.1	-46.9	19.4	0.00e+00	0	41	0	0	61	4509
2026-01-03 23:15:17.47	33.64	28.58	-45.0	-46.8	19.3	0.00e+00	0	41	0	0	61	4485
2026-01-03 23:15:20.69	34.06	29.12	-45.2	-47.0	19.2	0.00e+00	0	41	0	0	61	4552
2026-01-03 23:15:23.56	34.45	29.61	-45.2	-47.0	19.2	0.00e+00	0	41	0	0	61	4548
2026-01-03 23:15:26.71	34.89	30.15	-44.9	-46.7	19.3	0.00e+00	0	41	0	0	61	4410
2026-01-03 23:15:29.84	35.35	30.70	-45.0	-46.7	19.5	0.00e+00	0	41	0	0	61	4440
2026-01-03 23:15:32.84	35.80	31.24	-44.8	-46.6	19.6	0.00e+00	0	41	0	0	61	4354
2026-01-03 23:15:35.85	36.26	31.78	-44.9	-46.6	19.4	0.00e+00	0	41	0	0	61	4386
2026-01-03 23:15:38.86	36.74	32.33	-44.8	-46.6	19.5	0.00e+00	0	41	0	0	61	4347
2026-01-03 23:15:41.88	37.24	32.90	-45.1	-46.8	19.4	0.00e+00	0	41	0	0	61	4469
2026-01-03 23:15:45.00	37.78	33.48	-45.5	-47.3	19.0	0.00e+00	0	41	0	0	61	4756
2026-01-03 23:15:47.87	38.28	34.04	-46.2	-48.2	18.3	0.00e+00	0	41	0	0	63	4653
2026-01-03 23:15:51.02	38.86	34.65	-46.6	-48.5	17.8	0.00e+00	0	41	0	0	63	4864
2026-01-03 23:15:53.89	39.41	35.21	-46.6	-48.6	17.7	0.00e+00	0	41	0	0	64	4611
2026-01-03 23:15:57.11	40.04	35.86	-46.7	-48.8	17.6	0.00e+00	0	41	0	0	64	4718
2026-01-03 23:15:59.98	40.63	36.44	-46.6	-48.6	17.7	0.00e+00	0	41	0	0	64	4604
2026-01-03 23:16:03.16	41.30	37.09	-46.7	-48.7	17.7	0.00e+00	0	41	0	0	64	4663
2026-01-03 23:16:06.16	41.96	37.72	-46.3	-48.3	18.0	0.00e+00	0	41	0	0	64	4455
2026-01-03 23:16:09.50	42.73	38.42	-46.4	-48.3	17.8	0.00e+00	0	41	0	0	64	4462
2026-01-03 23:16:12.22	43.37	39.00	-46.8	-48.8	17.2	0.00e+00	0	41	0	0	64	4736
2026-01-03 23:16:16.05	44.33	39.83	-46.6	-48.6	17.3	0.00e+00	0	41	0	0	64	4643
2026-01-03 23:16:18.86	45.06	40.44	-46.9	-48.9	17.1	0.00e+00	0	41	0	0	64	4807
2026-01-03 23:16:22.66	46.09	41.28	-47.0	-49.1	17.0	0.00e+00	0	41	0	0	64	4914
2026-01-03 23:16:25.62	46.93	41.94	-47.2	-49.3	17.0	0.00e+00	0	41	0	0	65	4722
2026-01-03 23:16:29.77	48.17	42.87	-47.7	-49.9	16.3	0.00e+00	0	41	0	0	66	4789
2026-01-03 23:16:32.52	49.03	43.49	-47.6	-49.8	16.6	0.00e+00	0	41	0	0	66	4711
2026-01-03 23:16:36.15	50.22	44.32	-47.5	-49.7	16.7	0.00e+00	0	41	0	0	66	4683
2026-01-03 23:16:39.14	51.24	45.00	-47.1	-49.2	17.0	0.00e+00	0	41	0	0	66	4440
2026-01-03 23:16:42.82	52.56	45.84	-46.6	-48.6	17.5	0.00e+00	0	41	0	0	65	4377
2026-01-03 23:16:45.59	53.61	46.48	-46.9	-49.0	17.2	0.00e+00	0	41	0	0	65	4552
2026-01-03 23:16:49.43	55.12	47.35	-47.0	-49.1	17.2	0.00e+00	0	41	0	0	65	4621
2026-01-03 23:16:52.18	56.26	47.98	-46.5	-48.4	17.9	0.00e+00	0	41	0	0	64	4512
2026-01-03 23:16:56.19	58.01	48.89	-46.1	-47.9	18.2	0.00e+00	0	41	0	0	64	4291
2026-01-03 23:16:58.94	59.27	49.50	-46.0	-47.9	18.3	0.00e+00	0	41	0	0	63	4513
2026-01-03 23:17:02.70	61.07	50.33	-46.4	-48.4	17.9	0.00e+00	0	41	0	0	63	4769
2026-01-03 23:17:05.47	62.46	50.94	-46.4	-48.4	17.6	0.00e+00	0	41	0	0	63	4788
2026-01-03 23:17:09.03	64.33	51.70	-46.1	-48.0	18.2	0.00e+00	0	41	0	0	63	4548
2026-01-03 23:17:12.04	65.99	52.32	-45.4	-47.2	18.6	0.00e+00	0	41	0	0	62	4416
2026-01-03 23:17:15.05	67.71	52.93	-45.3	-47.1	19.0	0.00e+00	0	41	0	0	62	4359
2026-01-03 23:17:18.06	69.51	53.52	-45.9	-47.8	18.2	0.00e+00	0	41	0	0	62	4728
2026-01-03 23:17:21.07	71.38	54.08	-45.7	-47.6	18.1	0.00e+00	0	41	0	0	62	4646
2026-01-03 23:17:24.44	73.56	54.68	-45.6	-47.5	18.6	0.00e+00	0	41	0	0	62	4555
2026-01-03 23:17:27.19	75.41	55.15	-44.7	-46.5	19.6	0.00e+00	0	41	0	0	61	4301
2026-01-03 23:17:30.49	77.70	55.67	-44.9	-46.7	19.3	0.00e+00	0	41	0	0	60	4654
2026-01-03 23:17:33.23	79.67	56.08	-44.9	-46.7	19.5	0.00e+00	0	41	0	0	61	4406
2026-01-03 23:17:36.53	82.11	56.52	-44.3	-46.0	20.0	0.00e+00	0	41	0	0	60	4326
2026-01-03 23:17:39.25	84.19	56.85	-44.0	-45.6	20.3	0.00e+00	0	41	0	0	59	4370
2026-01-03 23:17:42.54	86.76	57.21	-44.1	-45.8	20.2	0.00e+00	0	41	0	0	59	4452
2026-01-03 23:17:45.26	88.93	57.46	-44.9	-46.7	19.3	0.00e+00	0	41	0	0	60	4661
2026-01-03 23:17:48.62	91.66	57.72	-44.1	-45.8	19.8	0.00e+00	0	41	0	0	59	4484
2026-01-03 23:17:51.66	94.18	57.90	-44.1	-45.8	19.9	0.00e+00	0	41	0	0	59	4466
2026-01-03 23:17:54.98	96.96	58.04	-43.9	-45.6	19.9	0.00e+00	0	41	0	0	59	4372
2026-01-03 23:17:58.04	99.54	58.12	-44.2	-45.9	19.5	0.00e+00	0	41	0	0	59	4501
2026-01-03 23:18:00.91	101.97	58.14	-44.2	-45.9	19.9	0.00e+00	0	41	0	0	59	4502
2026-01-03 23:18:04.06	104.64	58.10	-44.5	-46.2	19.7	0.00e+00	0	41	0	0	59	4693
2026-01-03 23:18:07.32	107.38	58.01	-44.6	-46.3	19.4	0.00e+00	0	41	0	0	60	4473
2026-01-03 23:18:10.33	109.90	57.87	-44.5	-46.2	19.6	4.50e-06	0	41	0	0	60	4419
2026-01-03 23:18:13.34	112.38	57.68	-44.0	-45.6	20.1	0.00e+00	0	41	0	0	59	4381
2026-01-03 23:18:16.36	114.84	57.44	-44.6	-46.3	19.7	0.00e+00	0	41	0	0	60	4461
2026-01-03 23:18:19.32	117.20	57.16	-44.7	-46.4	19.7	0.00e+00	0	41	0	0	60	4529
2026-01-03 23:18:22.47	119.65	56.81	-44.5	-46.2	19.7	0.00e+00	0	41	0	0	60	4404
2026-01-03 23:18:25.33	121.82	56.45	-44.9	-46.6	19.4	0.00e+00	0	41	0	0	60	4621
2026-01-03 23:18:28.49	124.16	56.02	-45.4	-47.2	18.7	0.00e+00	0	41	0	0	62	4412
2026-01-03 23:18:31.36	126.21	55.59	-45.1	-46.9	19.4	0.00e+00	0	41	0	0	62	4247
2026-01-03 23:18:34.51	128.40	55.09	-45.3	-47.2	18.9	0.00e+00	0	41	0	0	62	4398
2026-01-03 23:18:37.39	130.32	54.59	-45.4	-47.3	18.6	0.00e+00	0	41	0	0	61	4734
2026-01-03 23:18:40.68	132.44	54.00	-45.9	-47.8	18.3	0.00e+00	0	41	0	0	62	4720
2026-01-03 23:18:43.51	134.20	53.46	-45.5	-47.3	18.6	0.00e+00	0	41	0	0	62	4466
2026-01-03 23:18:46.67	136.08	52.84	-45.3	-47.1	18.9	0.00e+00	0	41	0	0	62	4390
2026-01-03 23:18:49.54	137.72	52.26	-46.4	-48.4	17.7	0.00e+00	0	41	0	0	63	4786
2026-01-03 23:18:52.69	139.45	51.60	-46.1	-48.0	17.7	0.00e+00	0	41	0	0	63	4580
2026-01-03 23:18:55.63	141.00	50.97	-45.8	-47.7	18.4	0.00e+00	0	41	0	0	63	4398
2026-01-03 23:18:58.64	142.52	50.31	-46.6	-48.6	17.7	0.00e+00	0	41	0	0	64	4642
2026-01-03 23:19:01.65	143.97	49.65	-46.5	-48.5	17.5	0.00e+00	0	41	0	0	64	4583
2026-01-03 23:19:04.66	145.36	48.97	-46.5	-48.5	17.8	0.00e+00	0	41	0	0	64	4556
2026-01-03 23:19:07.67	146.69	48.29	-47.6	-49.7	16.9	0.00e+00	0	41	0	0	65	4959
2026-01-03 23:19:10.84	148.03	47.57	-47.7	-49.8	16.6	0.00e+00	0	41	0	0	67	4479
2026-01-03 23:19:13.79	149.23	46.89	-47.0	-49.1	17.4	0.00e+00	0	41	0	0	65	4627
2026-01-03 23:19:17.08	150.50	46.13	-47.4	-49.6	16.7	0.00e+00	0	41	0	0	66	4628
2026-01-03 23:19:19.80	151.50	45.51	-47.7	-49.9	16.3	0.00e+00	0	41	0	0	66	4794
2026-01-03 23:19:23.11	152.68	44.75	-46.4	-48.4	17.7	0.00e+00	0	41	0	0	64	4503
2026-01-03 23:19:26.18	153.72	44.04	-47.2	-49.2	17.1	0.00e+00	0	41	0	0	65	4701
2026-01-03 23:19:29.04	154.65	43.39	-47.7	-49.9	16.3	0.00e+00	0	41	0	0	66	4788
2026-01-03 23:19:32.20	155.63	42.67	-47.2	-49.3	16.9	0.00e+00	0	41	0	0	66	4472
2026-01-03 23:19:35.06	156.49	42.03	-46.7	-48.7	17.7	0.00e+00	0	41	0	0	65	4400
2026-01-03 23:19:38.39	157.44	41.28	-47.7	-49.9	16.4	0.00e+00	0	41	0	0	66	4782
2026-01-03 23:19:41.11	158.19	40.68	-47.6	-49.8	16.5	0.00e+00	0	41	0	0	67	4467
2026-01-03 23:19:44.92	159.19	39.84	-46.9	-48.8	17.6	0.00e+00	0	41	0	0	65	4483
2026-01-03 23:19:47.74	159.90	39.23	-46.9	-48.9	17.3	0.00e+00	0	41	0	0	64	4773
2026-01-03 23:19:51.18	160.73	38.49	-46.9	-48.9	17.2	0.00e+00	0	41	0	0	64	4810
2026-01-03 23:19:53.90	161.36	37.91	-46.5	-48.5	17.7	0.00e+00	0	41	0	0	64	4592
2026-01-03 23:19:57.18	162.10	37.22	-46.0	-47.9	18.2	0.00e+00	0	41	0	0	64	4283
2026-01-03 23:20:00.18	162.74	36.60	-45.6	-47.4	18.7	0.00e+00	0	41	0	0	63	4264
2026-01-03 23:20:03.23	163.37	35.97	-46.4	-48.4	17.7	0.00e+00	0	41	0	0	63	4764
2026-01-03 23:20:06.23	163.97	35.37	-46.3	-48.2	17.9	0.00e+00	0	41	0	0	63	4685
2026-01-03 23:20:09.37	164.57	34.74	-45.9	-47.8	18.4	0.00e+00	0	41	0	0	63	4457
2026-01-03 23:20:12.37	165.13	34.15	-45.7	-47.6	18.6	0.00e+00	0	41	0	0	62	4628
2026-01-03 23:20:15.38	165.67	33.57	-46.3	-48.3	17.9	0.00e+00	0	41	0	0	63	4723
2026-01-03 23:20:18.39	166.19	32.99	-46.2	-48.1	18.0	0.00e+00	0	41	0	0	63	4626
2026-01-03 23:20:21.39	166.69	32.43	-45.7	-47.6	18.6	0.00e+00	0	41	0	0	63	4354
2026-01-03 23:20:24.46	167.19	31.86	-45.5	-47.3	19.0	0.00e+00	0	41	0	0	62	4456
2026-01-03 23:20:27.40	167.65	31.32	-45.0	-46.8	19.3	0.00e+00	0	41	0	0	62	4212
2026-01-03 23:20:30.55	168.12	30.76	-44.9	-46.6	19.5	0.00e+00	0	41	0	0	61	4388
2026-01-03 23:20:33.41	168.54	30.25	-44.8	-46.6	19.5	0.00e+00	0	41	0	0	61	4361
2026-01-03 23:20:36.56	168.99	29.70	-45.1	-46.8	19.2	0.00e+00	0	41	0	0	61	4492
2026-01-03 23:20:39.48	169.39	29.20	-45.1	-46.9	19.1	0.00e+00	0	41	0	0	61	4510
2026-01-03 23:20:42.63	169.81	28.66	-45.2	-47.0	18.9	0.00e+00	0	41	0	0	61	4595
2026-01-03 23:20:45.49	170.18	28.19	-44.9	-46.6	19.3	0.00e+00	0	41	0	0	61	4379
2026-01-03 23:20:48.64	170.57	27.67	-44.4	-46.1	19.7	0.00e+00	0	41	0	0	60	4368
2026-01-03 23:20:52.08	170.99	27.11	-44.4	-46.1	19.7	0.00e+00	0	41	0	0	60	4386
2026-01-03 23:20:54.80	171.31	26.68	-44.5	-46.2	19.8	0.00e+00	0	41	0	0	60	4416
2026-01-03 23:20:58.16	171.69	26.16	-44.4	-46.1	19.9	0.00e+00	0	41	0	0	60	4372
2026-01-03 23:21:00.98	172.00	25.72	-44.1	-45.7	20.2	0.00e+00	0	41	0	0	60	4189
2026-01-03 23:21:04.18	172.35	25.23	-44.3	-46.0	19.9	0.00e+00	0	41	0	0	60	4332
2026-01-03 23:21:07.66	172.71	24.72	-44.6	-46.3	19.7	0.00e+00	0	41	0	0	60	4478
2026-01-03 23:21:10.38	172.99	24.32	-44.7	-46.4	19.6	0.00e+00	0	41	0	0	60	4542
2026-01-03 23:21:13.68	173.32	23.84	-45.1	-46.8	19.3	0.00e+00	0	41	0	0	61	4486
2026-01-03 23:21:16.44	173.58	23.44	-45.1	-46.9	19.1	0.00e+00	0	41	0	0	61	4497
2026-01-03 23:21:19.74	173.89	22.98	-45.1	-46.8	19.0	0.00e+00	0	41	0	0	61	4490
2026-01-03 23:21:22.46	174.14	22.60	-44.9	-46.7	19.1	0.00e+00	0	41	0	0	61	4424
2026-01-03 23:21:25.76	174.44	22.15	-44.7	-46.5	19.2	0.00e+00	0	42	0	0	61	4328
2026-01-03 23:21:28.62	174.69	21.77	-44.5	-46.2	19.5	0.00e+00	0	41	0	0	60	4433
2026-01-03 23:21:32.09	174.98	21.31	-44.3	-46.1	19.8	0.00e+00	0	41	0	0	60	4350
2026-01-03 23:21:34.88	175.21	20.95	-44.1	-45.8	19.9	0.00e+00	0	41	0	0	60	4216
2026-01-03 23:21:38.22	175.48	20.52	-44.3	-46.0	19.6	0.00e+00	0	42	0	0	60	4327
2026-01-03 23:21:40.95	175.69	20.17	-44.8	-46.6	19.2	0.00e+00	0	41	0	0	60	4625
2026-01-03 23:21:44.25	175.95	19.76	-45.0	-46.8	19.0	0.00e+00	0	42	0	0	60	4752
2026-01-03 23:21:46.97	176.15	19.42	-45.2	-47.0	19.1	0.00e+00	0	41	0	0	60	4832
2026-01-03 23:21:50.27	176.39	19.02	-45.1	-46.9	19.1	0.00e+00	0	41	0	0	60	4788
2026-01-03 23:21:53.10	176.60	18.68	-44.9	-46.6	19.2	0.00e+00	0	41	0	0	60	4647
2026-01-03 23:21:56.26	176.82	18.31	-45.1	-46.9	19.1	0.00e+00	0	41	0	0	61	4515
2026-01-03 23:21:59.30	177.03	17.95	-45.1	-47.0	19.0	0.00e+00	0	41	0	0	61	4558
2026-01-03 23:22:03.03	177.28	17.52	-45.4	-47.3	18.8	0.00e+00	0	41	0	0	61	4726
2026-01-03 23:22:05.98	177.47	17.19	-45.3	-47.2	18.8	0.00e+00	0	41	0	0	61	4681
2026-01-03 23:22:09.13	177.67	16.84	-45.5	-47.4	18.8	0.00e+00	0	41	0	0	61	4788
2026-01-03 23:22:12.00	177.85	16.52	-45.5	-47.4	18.8	0.00e+00	0	41	0	0	61	4769
2026-01-03 23:22:15.18	178.05	16.17	-45.6	-47.5	18.6	0.00e+00	0	41	0	0	62	4591
2026-01-03 23:22:18.04	178.22	15.87	-45.7	-47.6	18.5	0.00e+00	0	41	0	0	62	4625
2026-01-03 23:22:21.20	178.40	15.53	-45.8	-47.7	18.4	0.00e+00	0	42	0	0	62	4698
2026-01-03 23:22:24.40	178.59	15.19	-45.8	-47.7	18.5	0.00e+00	0	41	0	0	62	4702
2026-01-03 23:22:27.25	178.75	14.90	-45.7	-47.6	18.6	0.00e+00	0	42	0	0	62	4599
2026-01-03 23:22:30.40	178.92	14.58	-45.7	-47.6	18.5	0.00e+00	0	41	0	0	62	4608
2026-01-03 23:22:33.27	179.08	14.29	-45.7	-47.6	18.4	0.00e+00	0	41	0	0	62	4637
2026-01-03 23:22:36.57	179.25	13.96	-45.6	-47.6	18.4	0.00e+00	0	42	0	0	62	4604
2026-01-03 23:22:39.29	179.40	13.69	-45.6	-47.6	18.3	0.00e+00	0	41	0	0	62	4613
2026-01-03 23:22:42.58	179.56	13.37	-45.6	-47.6	18.2	0.00e+00	0	41	0	0	62	4630
2026-01-03 23:22:45.68	179.72	13.07	-46.1	-48.2	17.9	0.00e+00	0	41	0	0	62	4938
2026-01-03 23:22:48.71	179.87	12.78	-45.8	-47.8	18.3	0.00e+00	0	41	0	0	62	4721
2026-01-03 23:22:51.72	180.02	12.49	-45.9	-47.8	18.3	0.00e+00	0	41	0	0	62	4759
2026-01-03 23:22:54.72	180.16	12.21	-45.7	-47.7	18.4	0.00e+00	0	41	0	0	62	4676
2026-01-03 23:22:57.73	180.30	11.94	-45.8	-47.8	18.3	0.00e+00	0	42	0	0	62	4717
2026-01-03 23:23:00.98	180.45	11.64	-45.8	-47.7	18.3	0.00e+00	0	42	0	0	62	4697
2026-01-03 23:23:03.84	180.58	11.38	-45.9	-47.9	18.2	0.00e+00	0	42	0	0	62	4780
2026-01-03 23:23:06.99	180.72	11.10	-45.8	-47.7	18.3	0.00e+00	0	41	0	0	62	4687
2026-01-03 23:23:09.86	180.84	10.85	-45.7	-47.6	18.3	0.00e+00	0	42	0	0	62	4637
2026-01-03 23:23:13.01	180.98	10.57	-45.8	-47.7	18.2	0.00e+00	0	41	0	0	62	4697
2026-01-03 23:23:15.94	181.10	10.32	-45.7	-47.6	18.2	0.00e+00	0	42	0	0	62	4643
2026-01-03 23:23:19.09	181.23	10.05	-45.9	-47.8	18.0	0.00e+00	0	41	0	0	62	4755
2026-01-03 23:23:22.09	181.35	9.79	-45.9	-47.9	17.8	0.00e+00	0	42	0	0	62	4777
2026-01-03 23:23:25.48	181.49	9.51	-46.1	-48.2	17.6	0.00e+00	0	41	0	0	63	4668
2026-01-03 23:23:28.20	181.60	9.28	-46.2	-48.3	17.4	0.00e+00	0	42	0	0	63	4741
2026-01-03 23:23:31.50	181.72	9.01	-47.1	-49.4	16.5	0.00e+00	0	42	0	0	64	5044
2026-01-03 23:23:34.23	181.83	8.79	-54.5	-67.6	3.8	1.49e+00	0	42	104	0	79	17349
2026-01-03 23:23:37.69	181.96	8.51	-54.6	-67.6	3.8	1.49e+00	0	42	104	0	80	16478
2026-01-03 23:23:40.48	182.06	8.29	-54.7	-67.6	3.8	1.49e+00	0	41	104	0	80	16418
2026-01-03 23:23:43.84	182.18	8.02	-54.9	-67.8	3.8	1.49e+00	0	42	104	0	80	16785
2026-01-03 23:23:46.56	182.28	7.81	-55.0	-67.9	3.8	1.49e+00	0	42	104	0	80	16937
2026-01-03 23:23:49.86	182.40	7.55	-55.1	-68.0	3.8	1.49e+00	0	42	104	0	81	16305
2026-01-03 23:23:52.59	182.49	7.34	-55.1	-68.0	3.8	1.49e+00	0	42	104	0	81	16222
2026-01-03 23:23:55.88	182.61	7.09	-54.9	-67.9	3.8	1.49e+00	0	42	104	0	81	16013
2026-01-03 23:23:58.61	182.70	6.88	-54.8	-67.9	3.8	1.49e+00	0	42	104	0	81	16047
2026-01-03 23:24:01.91	182.81	6.63	-54.5	-67.8	3.8	1.49e+00	0	42	104	0	80	16836
2026-01-03 23:24:04.64	182.90	6.43	-54.4	-67.7	3.8	1.49e+00	0	42	104	0	80	16603
2026-01-03 23:24:07.94	183.01	6.18	-54.8	-68.0	3.8	1.49e+00	0	42	104	0	80	17267
2026-01-03 23:24:10.66	183.09	5.99	-54.6	-67.8	3.8	1.49e+00	0	42	104	0	80	16796
2026-01-03 23:24:13.96	183.20	5.75	-54.6	-67.8	3.8	1.49e+00	0	42	104	0	80	16826
2026-01-03 23:24:16.69	183.28	5.55	-54.6	-67.9	3.8	1.49e+00	0	42	104	0	80	16982
2026-01-03 23:24:19.99	183.38	5.31	-54.7	-68.0	3.8	1.49e+00	0	42	104	0	80	17085
2026-01-03 23:24:22.71	183.47	5.12	-54.5	-67.8	3.8	1.49e+00	0	42	104	0	80	16771

#Closed at: 2026-01-03 23:24:26
#Recorded file [0 MB]: D:/Data/31040_260104_021135.dat