passes_logs/2026/01/03/T1/T1__20260103_092109_NOAA_21_JPSS-2_rec.log

#Pass ID: 20260103_092109_NOAA 21 (JPSS-2)
#Satellite: NOAA 21 (JPSS-2)
#Configuration: NOAA 21
#almurnet v.1.7.20251203
#Start time: 2026-01-03 09:21:09

#Version: 2.0.20230620
#Station: T1
#Location: 37.570604 lon 55.790049 lat
#TLE: 1 54234U 22150A   26002.88923379  .00000185  00000+0  10883-3 0  9993
#TLE: 2 54234  98.7486 303.9362 0001189 349.0578  11.0572 14.19531433163092

#Time	Az	El	Level	Level2	SNR	BER	BlckErr	Temp	State	Recorded	gain1	gain2
2026-01-03 09:21:09.00	142.37	4.98	-52.7	-65.8	3.8	1.49e+00	0	40	0	0	77	15787
2026-01-03 09:21:12.01	142.28	5.19	-52.6	-65.6	3.8	1.49e+00	0	41	104	0	77	15463
2026-01-03 09:21:15.02	142.19	5.41	-52.7	-65.5	3.8	1.49e+00	0	41	104	0	77	15343
2026-01-03 09:21:18.03	142.10	5.63	-52.6	-65.2	3.8	1.49e+00	0	41	104	0	77	14820
2026-01-03 09:21:21.05	142.00	5.84	-52.6	-64.7	3.8	1.49e+00	0	41	104	0	77	14035
2026-01-03 09:21:24.06	141.91	6.06	-52.7	-64.5	3.8	1.49e+00	0	41	104	0	77	13717
2026-01-03 09:21:27.07	141.81	6.29	-52.6	-64.6	3.8	1.49e+00	0	41	104	0	76	14578
2026-01-03 09:21:30.08	141.71	6.51	-52.6	-65.2	3.8	1.49e+00	0	41	104	0	76	15619
2026-01-03 09:21:33.09	141.62	6.73	-52.6	-65.6	3.8	1.49e+00	0	41	104	0	76	16458
2026-01-03 09:21:36.10	141.51	6.96	-52.7	-64.9	3.8	1.49e+00	0	42	104	0	76	15201
2026-01-03 09:21:39.11	141.41	7.19	-52.4	-63.0	3.9	1.47e+00	0	42	104	0	76	12178
2026-01-03 09:21:42.12	141.31	7.42	-51.7	-59.0	5.7	4.92e-01	0	42	0	0	75	8137
2026-01-03 09:21:45.13	141.20	7.65	-50.3	-54.9	9.6	2.32e-02	0	42	0	0	72	6056
2026-01-03 09:21:48.14	141.09	7.89	-48.5	-51.6	13.0	8.23e-05	0	42	0	0	69	4919
2026-01-03 09:21:51.15	140.98	8.13	-47.0	-49.7	14.8	0.00e+00	0	42	0	0	66	4661
2026-01-03 09:21:54.16	140.87	8.36	-46.9	-49.5	14.9	0.00e+00	0	42	0	0	65	4842
2026-01-03 09:21:57.17	140.76	8.61	-48.1	-51.1	13.4	5.30e-06	0	42	0	0	66	5500
2026-01-03 09:22:00.18	140.64	8.85	-50.4	-55.0	9.6	8.07e-03	0	42	0	0	71	6429
2026-01-03 09:22:03.19	140.52	9.10	-52.0	-60.2	5.0	5.74e-01	0	43	0	0	74	9848
2026-01-03 09:22:06.20	140.40	9.34	-52.1	-61.6	4.0	1.40e+00	0	42	104	0	75	10951
2026-01-03 09:22:09.21	140.28	9.59	-48.1	-51.1	13.6	6.32e-04	0	42	0	0	68	4877
2026-01-03 09:22:12.22	140.16	9.85	-45.0	-47.0	17.6	0.00e+00	0	43	0	0	62	4330
2026-01-03 09:22:15.22	140.03	10.10	-45.1	-47.1	17.8	0.00e+00	0	42	0	0	61	4619
2026-01-03 09:22:18.23	139.90	10.36	-44.6	-46.5	18.1	0.00e+00	0	43	0	0	61	4336
2026-01-03 09:22:21.24	139.77	10.62	-44.6	-46.5	18.2	0.00e+00	0	43	0	0	61	4330
2026-01-03 09:22:24.25	139.64	10.88	-44.2	-46.1	18.6	0.00e+00	0	43	0	0	60	4355
2026-01-03 09:22:27.26	139.50	11.15	-44.3	-46.2	18.5	0.00e+00	0	43	0	0	60	4417
2026-01-03 09:22:30.26	139.36	11.42	-44.3	-46.1	18.7	0.00e+00	0	43	0	0	60	4369
2026-01-03 09:22:33.27	139.22	11.69	-44.1	-45.9	18.8	0.00e+00	0	43	0	0	60	4267
2026-01-03 09:22:36.28	139.08	11.96	-43.9	-45.7	18.8	0.00e+00	0	43	0	0	59	4398
2026-01-03 09:22:39.29	138.93	12.24	-43.7	-45.5	19.1	0.00e+00	0	43	0	0	59	4302
2026-01-03 09:22:42.30	138.78	12.52	-44.1	-45.8	18.9	0.00e+00	0	43	0	0	59	4493
2026-01-03 09:22:45.31	138.62	12.80	-43.7	-45.5	19.1	0.00e+00	0	43	0	0	59	4306
2026-01-03 09:22:48.31	138.47	13.09	-43.8	-45.5	19.0	0.00e+00	0	43	0	0	59	4328
2026-01-03 09:22:51.32	138.31	13.38	-43.7	-45.5	19.0	0.00e+00	0	43	0	0	59	4319
2026-01-03 09:22:54.33	138.14	13.67	-43.6	-45.3	19.1	3.00e-06	0	43	0	0	59	4228
2026-01-03 09:22:57.34	137.98	13.97	-43.7	-45.4	19.1	0.00e+00	0	43	0	0	59	4288
2026-01-03 09:23:00.35	137.81	14.27	-43.8	-45.6	19.1	0.00e+00	0	43	0	0	59	4357
2026-01-03 09:23:03.35	137.63	14.57	-43.8	-45.5	19.1	0.00e+00	0	43	0	0	59	4338
2026-01-03 09:23:06.36	137.46	14.88	-43.8	-45.6	19.1	0.00e+00	0	43	0	0	59	4342
2026-01-03 09:23:09.37	137.28	15.19	-43.6	-45.4	19.2	0.00e+00	0	43	0	0	59	4256
2026-01-03 09:23:12.38	137.09	15.50	-43.6	-45.3	19.2	0.00e+00	0	43	0	0	59	4227
2026-01-03 09:23:15.38	136.90	15.82	-44.0	-45.8	19.0	0.00e+00	0	43	0	0	59	4473
2026-01-03 09:23:18.39	136.71	16.14	-43.6	-45.3	19.3	0.00e+00	0	43	0	0	59	4242
2026-01-03 09:23:21.40	136.51	16.46	-43.6	-45.4	19.2	0.00e+00	0	43	0	0	59	4265
2026-01-03 09:23:24.41	136.31	16.79	-43.9	-45.7	19.0	0.00e+00	0	43	0	0	59	4393
2026-01-03 09:23:27.41	136.10	17.13	-43.9	-45.6	19.0	0.00e+00	0	43	0	0	59	4388
2026-01-03 09:23:30.42	135.89	17.46	-44.0	-45.8	18.8	0.00e+00	0	43	0	0	59	4474
2026-01-03 09:23:33.43	135.67	17.81	-44.0	-45.8	18.8	0.00e+00	0	43	0	0	59	4475
2026-01-03 09:23:36.44	135.45	18.15	-44.1	-45.9	18.8	0.00e+00	0	43	0	0	59	4510
2026-01-03 09:23:39.45	135.22	18.50	-44.3	-46.2	18.7	0.00e+00	0	43	0	0	59	4670
2026-01-03 09:23:42.46	134.99	18.86	-44.1	-45.9	18.8	0.00e+00	0	43	0	0	59	4512
2026-01-03 09:23:45.47	134.75	19.22	-44.2	-46.0	18.9	0.00e+00	0	43	0	0	59	4579
2026-01-03 09:23:48.48	134.50	19.58	-43.9	-45.7	19.0	0.00e+00	0	43	0	0	59	4417
2026-01-03 09:23:51.48	134.25	19.95	-43.8	-45.6	19.1	0.00e+00	0	43	0	0	59	4345
2026-01-03 09:23:54.50	134.00	20.33	-43.7	-45.5	19.2	0.00e+00	0	43	0	0	59	4305
2026-01-03 09:23:57.51	133.73	20.71	-43.4	-45.1	19.5	0.00e+00	0	43	0	0	58	4371
2026-01-03 09:24:00.51	133.46	21.09	-43.1	-44.8	19.8	0.00e+00	0	43	0	0	58	4224
2026-01-03 09:24:03.52	133.18	21.48	-42.8	-44.5	20.1	0.00e+00	0	43	0	0	57	4301
2026-01-03 09:24:06.53	132.90	21.88	-42.9	-44.6	20.2	0.00e+00	0	43	0	0	57	4345
2026-01-03 09:24:09.54	132.61	22.28	-42.6	-44.2	20.4	0.00e+00	0	43	0	0	57	4183
2026-01-03 09:24:12.55	132.31	22.68	-42.4	-44.1	20.5	0.00e+00	0	43	0	0	56	4362
2026-01-03 09:24:15.56	132.00	23.10	-42.6	-44.2	20.3	0.00e+00	0	43	0	0	56	4424
2026-01-03 09:24:18.56	131.68	23.51	-42.6	-44.3	20.3	0.00e+00	0	43	0	0	56	4458
2026-01-03 09:24:21.57	131.36	23.94	-43.0	-44.6	20.2	0.00e+00	0	43	0	0	56	4649
2026-01-03 09:24:24.58	131.02	24.37	-42.9	-44.6	20.1	0.00e+00	0	43	0	0	56	4628
2026-01-03 09:24:27.59	130.68	24.80	-42.8	-44.5	20.2	0.00e+00	0	43	0	0	56	4549
2026-01-03 09:24:30.59	130.32	25.24	-43.0	-44.7	20.0	0.00e+00	0	43	0	0	56	4654
2026-01-03 09:24:33.60	129.96	25.69	-43.1	-44.9	19.8	0.00e+00	0	43	0	0	56	4761
2026-01-03 09:24:36.61	129.58	26.14	-43.3	-45.0	19.6	0.00e+00	0	43	0	0	57	4587
2026-01-03 09:24:39.62	129.20	26.60	-43.6	-45.4	19.4	0.00e+00	0	43	0	0	58	4517
2026-01-03 09:24:42.63	128.80	27.07	-43.8	-45.6	19.3	0.00e+00	0	43	0	0	58	4626
2026-01-03 09:24:45.63	128.39	27.54	-43.8	-45.6	19.3	0.00e+00	0	43	0	0	58	4600
2026-01-03 09:24:48.64	127.97	28.02	-43.6	-45.3	19.3	0.00e+00	0	43	0	0	58	4478
2026-01-03 09:24:51.65	127.53	28.51	-43.6	-45.3	19.3	0.00e+00	0	43	0	0	58	4492
2026-01-03 09:24:54.66	127.08	29.00	-44.1	-45.9	19.1	0.00e+00	0	43	0	0	59	4534
2026-01-03 09:24:57.66	126.62	29.50	-43.9	-45.7	19.2	0.00e+00	0	43	0	0	59	4407
2026-01-03 09:25:00.67	126.14	30.01	-43.5	-45.2	19.5	0.00e+00	0	43	0	0	59	4192
2026-01-03 09:25:03.68	125.64	30.52	-43.5	-45.2	19.6	0.00e+00	0	43	0	0	58	4397
2026-01-03 09:25:06.69	125.13	31.04	-43.5	-45.2	19.3	0.00e+00	0	43	0	0	58	4439
2026-01-03 09:25:09.70	124.61	31.57	-43.9	-45.6	19.1	0.00e+00	0	43	0	0	58	4649
2026-01-03 09:25:12.70	124.06	32.10	-43.8	-45.6	19.3	0.00e+00	0	43	0	0	58	4614
2026-01-03 09:25:15.71	123.50	32.64	-43.3	-45.0	19.7	0.00e+00	0	43	0	0	58	4336
2026-01-03 09:25:18.72	122.92	33.18	-43.6	-45.3	19.6	0.00e+00	0	43	0	0	58	4492
2026-01-03 09:25:21.73	122.31	33.74	-44.0	-45.8	19.1	0.00e+00	0	43	0	0	58	4713
2026-01-03 09:25:24.74	121.69	34.30	-44.4	-46.2	18.7	0.00e+00	0	43	0	0	59	4705
2026-01-03 09:25:27.75	121.04	34.86	-44.5	-46.4	18.5	0.00e+00	0	43	0	0	59	4771
2026-01-03 09:25:30.75	120.37	35.43	-44.8	-46.6	18.3	0.00e+00	0	43	0	0	60	4650
2026-01-03 09:25:33.76	119.68	36.01	-45.2	-47.1	18.0	0.00e+00	0	43	0	0	61	4605
2026-01-03 09:25:36.77	118.96	36.59	-45.4	-47.3	17.9	0.00e+00	0	43	0	0	61	4747
2026-01-03 09:25:39.78	118.21	37.18	-45.6	-47.6	17.5	0.00e+00	0	43	0	0	61	4884
2026-01-03 09:25:42.79	117.44	37.77	-45.7	-47.7	17.4	0.00e+00	0	43	0	0	62	4699
2026-01-03 09:25:45.80	116.64	38.37	-45.2	-47.2	18.0	0.00e+00	0	43	0	0	62	4398
2026-01-03 09:25:48.80	115.81	38.96	-45.4	-47.4	18.0	0.00e+00	0	43	0	0	62	4502
2026-01-03 09:25:51.81	114.94	39.57	-45.3	-47.3	17.9	0.00e+00	0	43	0	0	62	4445
2026-01-03 09:25:54.82	114.04	40.17	-45.0	-46.9	18.2	0.00e+00	0	43	0	0	61	4494
2026-01-03 09:25:57.83	113.11	40.78	-45.1	-47.1	17.9	0.00e+00	0	43	0	0	61	4604
2026-01-03 09:26:00.83	112.15	41.39	-45.2	-47.2	17.8	0.00e+00	0	44	0	0	61	4657
2026-01-03 09:26:03.84	111.14	42.00	-45.6	-47.6	17.3	0.00e+00	0	43	0	0	62	4641
2026-01-03 09:26:06.85	110.10	42.61	-46.4	-48.6	16.4	0.00e+00	0	43	0	0	63	4896
2026-01-03 09:26:09.86	109.02	43.22	-46.2	-48.3	16.8	0.00e+00	0	43	0	0	63	4750
2026-01-03 09:26:12.87	107.89	43.82	-46.1	-48.3	16.7	0.00e+00	0	43	0	0	63	4719
2026-01-03 09:26:15.88	106.72	44.43	-46.2	-48.3	16.9	0.00e+00	0	44	0	0	64	4467
2026-01-03 09:26:18.89	105.51	45.02	-45.9	-48.0	17.1	0.00e+00	0	43	0	0	63	4562
2026-01-03 09:26:21.89	104.25	45.61	-45.6	-47.6	17.4	0.00e+00	0	43	0	0	63	4368
2026-01-03 09:26:24.90	102.94	46.20	-45.5	-47.5	17.4	0.00e+00	0	43	0	0	63	4312
2026-01-03 09:26:27.91	101.58	46.77	-45.4	-47.4	17.5	0.00e+00	0	43	0	0	62	4518
2026-01-03 09:26:30.92	100.17	47.34	-45.5	-47.5	17.5	0.00e+00	0	43	0	0	62	4573
2026-01-03 09:26:33.93	98.71	47.89	-45.4	-47.3	17.9	0.00e+00	0	43	0	0	62	4468
2026-01-03 09:26:36.93	97.20	48.43	-45.8	-47.8	17.3	0.00e+00	0	44	0	0	62	4749
2026-01-03 09:26:39.94	95.64	48.95	-45.5	-47.5	17.6	0.00e+00	0	44	0	0	62	4568
2026-01-03 09:26:42.94	94.02	49.45	-45.5	-47.6	17.4	0.00e+00	0	43	0	0	62	4646
2026-01-03 09:26:45.95	92.35	49.94	-45.4	-47.4	17.7	0.00e+00	0	43	0	0	62	4513
2026-01-03 09:26:48.96	90.62	50.40	-45.4	-47.4	18.1	0.00e+00	0	43	0	0	62	4534
2026-01-03 09:26:51.97	88.85	50.84	-43.4	-45.6	19.3	0.00e+00	0	43	0	0	59	4386
2026-01-03 09:26:54.98	87.02	51.25	-44.4	-46.3	18.4	0.00e+00	0	44	0	0	59	4739
2026-01-03 09:26:57.98	85.15	51.63	-44.7	-46.6	18.3	0.00e+00	0	43	0	0	60	4606
2026-01-03 09:27:00.99	83.22	51.99	-45.0	-46.9	17.9	0.00e+00	0	43	0	0	60	4808
2026-01-03 09:27:04.00	81.25	52.31	-45.1	-47.1	17.7	0.00e+00	0	43	0	0	60	4898
2026-01-03 09:27:07.01	79.24	52.60	-45.0	-46.9	18.2	0.00e+00	0	44	0	0	60	4802
2026-01-03 09:27:10.01	77.20	52.85	-45.0	-46.9	18.1	0.00e+00	0	43	0	0	60	4814
2026-01-03 09:27:13.02	75.12	53.07	-44.3	-46.1	18.7	0.00e+00	0	44	0	0	60	4369
2026-01-03 09:27:16.03	73.01	53.24	-44.3	-46.0	18.6	0.00e+00	0	44	0	0	59	4596
2026-01-03 09:27:19.04	70.88	53.38	-44.9	-46.8	17.8	0.00e+00	0	43	0	0	60	4729
2026-01-03 09:27:22.04	68.74	53.48	-44.4	-46.3	18.5	0.00e+00	0	44	0	0	60	4465
2026-01-03 09:27:25.05	66.58	53.53	-44.9	-46.8	18.3	0.00e+00	0	43	0	0	61	4456
2026-01-03 09:27:28.06	64.41	53.55	-44.4	-46.2	18.8	0.00e+00	0	44	0	0	60	4429
2026-01-03 09:27:31.07	62.25	53.52	-44.9	-46.8	18.2	0.00e+00	0	44	0	0	60	4756
2026-01-03 09:27:34.08	60.09	53.45	-44.7	-46.6	18.4	0.00e+00	0	43	0	0	60	4642
2026-01-03 09:27:37.08	57.96	53.34	-45.1	-47.1	18.0	0.00e+00	0	44	0	0	60	4882
2026-01-03 09:27:40.09	55.83	53.19	-43.9	-45.7	19.3	0.00e+00	0	43	0	0	59	4405
2026-01-03 09:27:43.10	53.73	53.01	-45.4	-47.4	17.7	0.00e+00	0	43	0	0	61	4790
2026-01-03 09:27:46.10	51.67	52.78	-44.6	-46.5	18.5	0.00e+00	0	44	0	0	61	4302
2026-01-03 09:27:49.11	49.64	52.52	-44.6	-46.4	18.6	0.00e+00	0	43	0	0	61	4271
2026-01-03 09:27:52.12	47.64	52.22	-44.5	-46.3	18.6	0.00e+00	0	44	0	0	60	4456
2026-01-03 09:27:55.13	45.69	51.89	-45.4	-47.3	17.7	0.00e+00	0	43	0	0	61	4745
2026-01-03 09:27:58.13	43.79	51.52	-43.9	-45.7	19.0	0.00e+00	0	44	0	0	59	4411
2026-01-03 09:28:01.13	41.93	51.13	-44.8	-46.6	18.1	0.00e+00	0	44	0	0	60	4651
2026-01-03 09:28:04.14	40.12	50.71	-44.3	-46.2	18.5	0.00e+00	0	44	0	0	60	4394
2026-01-03 09:28:07.15	38.36	50.27	-45.2	-47.2	17.7	0.00e+00	0	44	0	0	61	4686
2026-01-03 09:28:10.16	36.66	49.80	-46.3	-48.5	16.3	0.00e+00	0	44	0	0	64	4577
2026-01-03 09:28:13.17	35.01	49.31	-45.1	-47.0	18.0	0.00e+00	0	44	0	0	62	4302
2026-01-03 09:28:16.17	33.41	48.81	-46.0	-48.1	17.0	0.00e+00	0	43	0	0	63	4638
2026-01-03 09:28:19.18	31.87	48.28	-45.2	-47.3	17.6	0.00e+00	0	43	0	0	62	4460
2026-01-03 09:28:22.19	30.37	47.74	-46.6	-48.9	16.3	0.00e+00	0	44	0	0	63	5059
2026-01-03 09:28:25.19	28.94	47.19	-45.1	-47.1	17.7	0.00e+00	0	44	0	0	62	4345
2026-01-03 09:28:28.20	27.54	46.62	-45.0	-47.0	18.2	0.00e+00	0	44	0	0	60	4824
2026-01-03 09:28:31.20	26.21	46.05	-46.9	-49.3	15.7	0.00e+00	0	44	0	0	64	4996
2026-01-03 09:28:34.21	24.92	45.46	-45.4	-47.4	17.2	0.00e+00	0	43	0	0	62	4504
2026-01-03 09:28:37.22	23.67	44.87	-45.8	-47.8	17.2	0.00e+00	0	43	0	0	62	4757
2026-01-03 09:28:40.22	22.48	44.28	-46.9	-49.4	15.6	0.00e+00	0	44	0	0	65	4781
2026-01-03 09:28:43.23	21.33	43.67	-45.2	-47.1	17.7	0.00e+00	0	44	0	0	62	4381
2026-01-03 09:28:46.24	20.22	43.07	-45.1	-47.0	18.2	0.00e+00	0	44	0	0	61	4553
2026-01-03 09:28:49.25	19.15	42.46	-46.4	-48.6	16.2	0.00e+00	0	43	0	0	64	4650
2026-01-03 09:28:52.25	18.12	41.86	-44.7	-46.5	18.0	0.00e+00	0	44	0	0	61	4334
2026-01-03 09:28:55.26	17.13	41.25	-45.7	-47.8	17.1	0.00e+00	0	43	0	0	62	4758
2026-01-03 09:28:58.27	16.18	40.64	-46.1	-48.3	16.8	0.00e+00	0	44	0	0	62	4996
2026-01-03 09:29:01.27	15.26	40.04	-44.9	-46.9	18.0	0.00e+00	0	44	0	0	61	4503
2026-01-03 09:29:04.28	14.38	39.44	-43.6	-45.3	19.4	0.00e+00	0	44	0	0	59	4242
2026-01-03 09:29:07.29	13.53	38.84	-45.2	-47.3	17.8	0.00e+00	0	44	0	0	61	4714
2026-01-03 09:29:10.29	12.71	38.24	-45.3	-47.4	17.3	0.00e+00	0	44	0	0	62	4499
2026-01-03 09:29:13.30	11.92	37.65	-45.3	-47.3	17.6	0.00e+00	0	43	0	0	62	4452
2026-01-03 09:29:16.31	11.15	37.06	-44.5	-46.8	17.9	0.00e+00	0	44	0	0	61	4468
2026-01-03 09:29:19.32	10.42	36.48	-45.0	-47.0	17.9	0.00e+00	0	43	0	0	61	4555
2026-01-03 09:29:22.32	9.71	35.91	-45.1	-47.0	17.7	0.00e+00	0	44	0	0	61	4586
2026-01-03 09:29:25.33	9.03	35.33	-44.0	-45.7	18.8	0.00e+00	0	44	0	0	59	4437
2026-01-03 09:29:28.34	8.37	34.77	-44.4	-46.2	18.6	0.00e+00	0	44	0	0	59	4692
2026-01-03 09:29:31.34	7.73	34.21	-44.8	-46.8	18.1	0.00e+00	0	44	0	0	60	4747
2026-01-03 09:29:34.35	7.11	33.65	-44.2	-46.1	18.8	0.00e+00	0	44	0	0	60	4358
2026-01-03 09:29:37.36	6.52	33.10	-44.1	-45.9	19.1	0.00e+00	0	44	0	0	60	4269
2026-01-03 09:29:40.37	5.94	32.56	-43.8	-45.6	19.2	0.00e+00	0	43	0	0	59	4350
2026-01-03 09:29:43.37	5.39	32.03	-43.7	-45.5	19.3	0.00e+00	0	44	0	0	59	4310
2026-01-03 09:29:46.38	4.85	31.50	-43.6	-45.4	19.5	0.00e+00	0	44	0	0	59	4247
2026-01-03 09:29:49.39	4.33	30.98	-43.4	-45.2	19.4	0.00e+00	0	43	0	0	58	4395
2026-01-03 09:29:52.39	3.83	30.46	-43.1	-44.8	19.6	0.00e+00	0	44	0	0	58	4204
2026-01-03 09:29:55.40	3.34	29.95	-43.4	-45.1	19.4	0.00e+00	0	44	0	0	58	4383
2026-01-03 09:29:58.41	2.87	29.45	-43.7	-45.4	19.3	0.00e+00	0	44	0	0	58	4541
2026-01-03 09:30:01.41	2.41	28.96	-43.7	-45.5	19.2	0.00e+00	0	44	0	0	58	4583
2026-01-03 09:30:04.42	1.97	28.47	-43.5	-45.3	19.3	0.00e+00	0	44	0	0	58	4449
2026-01-03 09:30:07.43	1.54	27.99	-43.0	-44.7	19.6	0.00e+00	0	44	0	0	58	4180
2026-01-03 09:30:10.44	1.12	27.51	-42.6	-44.3	20.1	0.00e+00	0	44	0	0	57	4218
2026-01-03 09:30:13.44	0.72	27.04	-42.3	-43.9	20.5	0.00e+00	0	44	0	0	56	4291
2026-01-03 09:30:16.45	0.33	26.58	-42.3	-43.9	20.6	0.00e+00	0	44	0	0	56	4288
2026-01-03 09:30:19.46	359.95	26.12	-42.7	-44.3	20.3	0.00e+00	0	44	0	0	56	4468
2026-01-03 09:30:22.46	359.58	25.67	-42.7	-44.4	20.2	0.00e+00	0	43	0	0	56	4507
2026-01-03 09:30:25.47	359.22	25.23	-42.9	-44.6	20.0	0.00e+00	0	44	0	0	56	4617
2026-01-03 09:30:28.47	358.87	24.79	-43.1	-44.8	19.7	0.00e+00	0	43	0	0	56	4749
2026-01-03 09:30:31.48	358.53	24.36	-43.5	-45.3	19.5	0.00e+00	0	44	0	0	57	4723
2026-01-03 09:30:34.48	358.20	23.94	-43.5	-45.3	19.3	0.00e+00	0	43	0	0	57	4754
2026-01-03 09:30:37.49	357.88	23.52	-43.3	-45.1	19.4	0.00e+00	0	44	0	0	57	4644
2026-01-03 09:30:40.49	357.57	23.10	-43.2	-45.0	19.6	0.00e+00	0	44	0	0	57	4546
2026-01-03 09:30:43.50	357.26	22.70	-43.2	-44.9	19.6	0.00e+00	0	43	0	0	57	4537
2026-01-03 09:30:46.51	356.97	22.29	-43.2	-44.9	19.6	0.00e+00	0	43	0	0	57	4529
2026-01-03 09:30:49.51	356.68	21.90	-43.1	-44.9	19.7	0.00e+00	0	43	0	0	57	4495
2026-01-03 09:30:52.52	356.40	21.50	-42.9	-44.7	19.9	0.00e+00	0	44	0	0	57	4395
2026-01-03 09:30:55.53	356.13	21.12	-42.9	-44.6	19.9	0.00e+00	0	44	0	0	57	4364
2026-01-03 09:30:58.53	355.86	20.74	-43.0	-44.7	19.9	0.00e+00	0	44	0	0	57	4425
2026-01-03 09:31:01.54	355.60	20.36	-42.9	-44.5	20.0	0.00e+00	0	44	0	0	57	4340
2026-01-03 09:31:04.54	355.35	19.99	-43.0	-44.7	19.8	0.00e+00	0	44	0	0	57	4434
2026-01-03 09:31:07.55	355.10	19.62	-43.1	-44.8	19.7	0.00e+00	0	44	0	0	57	4482
2026-01-03 09:31:10.57	354.86	19.26	-43.0	-44.8	19.6	0.00e+00	0	43	0	0	57	4479
2026-01-03 09:31:13.58	354.63	18.90	-43.2	-45.0	19.4	0.00e+00	0	44	0	0	57	4565
2026-01-03 09:31:16.59	354.40	18.55	-43.1	-44.9	19.5	0.00e+00	0	44	0	0	57	4520
2026-01-03 09:31:19.60	354.17	18.20	-43.0	-44.8	19.5	0.00e+00	0	43	0	0	57	4489
2026-01-03 09:31:22.61	353.96	17.86	-42.8	-44.7	19.7	0.00e+00	0	43	0	0	57	4400
2026-01-03 09:31:25.62	353.74	17.52	-43.1	-44.9	19.7	0.00e+00	0	44	0	0	57	4531
2026-01-03 09:31:28.63	353.53	17.18	-43.2	-44.9	19.6	0.00e+00	0	43	0	0	57	4534
2026-01-03 09:31:31.64	353.33	16.85	-43.3	-45.0	19.4	0.00e+00	0	44	0	0	57	4598
2026-01-03 09:31:34.65	353.13	16.52	-43.5	-45.3	19.2	0.00e+00	0	43	0	0	57	4714
2026-01-03 09:31:37.66	352.94	16.20	-43.5	-45.4	19.0	0.00e+00	0	44	0	0	57	4799
2026-01-03 09:31:40.67	352.75	15.88	-44.1	-46.0	18.9	0.00e+00	0	44	0	0	58	4826
2026-01-03 09:31:43.68	352.56	15.56	-44.1	-46.0	18.6	0.00e+00	0	44	0	0	58	4829
2026-01-03 09:31:46.70	352.38	15.25	-44.0	-45.9	18.6	0.00e+00	0	44	0	0	58	4798
2026-01-03 09:31:49.71	352.20	14.94	-43.9	-45.9	18.7	0.00e+00	0	44	0	0	58	4766
2026-01-03 09:31:52.72	352.03	14.64	-43.8	-45.6	18.8	0.00e+00	0	44	0	0	58	4640
2026-01-03 09:31:55.73	351.86	14.34	-43.9	-45.7	18.7	0.00e+00	0	43	0	0	58	4697
2026-01-03 09:31:58.74	351.69	14.04	-43.8	-45.7	18.7	0.00e+00	0	44	0	0	58	4691
2026-01-03 09:32:01.75	351.53	13.75	-43.7	-45.6	18.9	0.00e+00	0	44	0	0	58	4620
2026-01-03 09:32:04.76	351.37	13.45	-43.7	-45.6	18.9	0.00e+00	0	44	0	0	58	4608
2026-01-03 09:32:07.76	351.21	13.17	-43.7	-45.6	18.7	0.00e+00	0	44	0	0	58	4633
2026-01-03 09:32:10.77	351.06	12.88	-43.6	-45.5	18.8	0.00e+00	0	43	0	0	58	4578
2026-01-03 09:32:13.78	350.91	12.60	-44.2	-46.1	18.4	0.00e+00	0	44	0	0	59	4646
2026-01-03 09:32:16.80	350.76	12.32	-43.9	-45.9	18.5	0.00e+00	0	44	0	0	59	4496
2026-01-03 09:32:19.81	350.62	12.05	-43.9	-45.8	18.6	0.00e+00	0	43	0	0	59	4464
2026-01-03 09:32:22.82	350.48	11.77	-43.9	-46.0	18.5	0.00e+00	0	44	0	0	59	4588
2026-01-03 09:32:25.83	350.34	11.50	-43.9	-46.0	18.4	0.00e+00	0	44	0	0	59	4587
2026-01-03 09:32:28.84	350.20	11.24	-43.9	-46.1	18.2	0.00e+00	0	43	0	0	59	4611
2026-01-03 09:32:31.85	350.07	10.97	-43.8	-46.1	18.3	0.00e+00	0	43	0	0	59	4649
2026-01-03 09:32:34.85	349.94	10.71	-43.9	-46.2	18.3	0.00e+00	0	44	0	0	59	4697
2026-01-03 09:32:37.87	349.81	10.45	-43.8	-46.2	18.3	0.00e+00	0	44	0	0	59	4671
2026-01-03 09:32:40.88	349.69	10.19	-43.9	-46.3	18.2	0.00e+00	0	43	0	0	59	4729
2026-01-03 09:32:43.89	349.56	9.94	-44.1	-46.3	18.1	0.00e+00	0	43	0	0	59	4728
2026-01-03 09:32:46.90	349.44	9.69	-44.2	-46.5	17.9	0.00e+00	0	44	0	0	59	4836
2026-01-03 09:32:49.91	349.32	9.44	-44.1	-46.4	17.7	0.00e+00	0	43	0	0	59	4779
2026-01-03 09:32:52.92	349.21	9.19	-44.2	-46.5	17.8	0.00e+00	0	44	0	0	59	4854
2026-01-03 09:32:55.93	349.09	8.95	-50.0	-56.8	8.2	0.00e+00	0	44	0	0	70	8371
2026-01-03 09:32:58.95	348.98	8.71	-53.0	-66.3	3.8	1.49e+00	0	44	104	0	76	17729
2026-01-03 09:33:01.96	348.87	8.46	-53.4	-66.5	3.8	1.49e+00	0	44	104	0	77	17103
2026-01-03 09:33:04.97	348.76	8.23	-53.2	-66.4	3.8	1.49e+00	0	44	104	0	77	17083
2026-01-03 09:33:07.99	348.66	7.99	-53.5	-66.5	3.8	1.49e+00	0	43	104	0	77	17194
2026-01-03 09:33:11.00	348.55	7.76	-53.5	-66.5	3.8	1.49e+00	0	44	104	0	77	17227
2026-01-03 09:33:14.02	348.45	7.52	-53.6	-66.8	3.8	1.49e+00	0	44	104	0	78	16735
2026-01-03 09:33:17.03	348.35	7.29	-53.8	-66.7	3.8	1.49e+00	0	44	104	0	78	16583
2026-01-03 09:33:20.04	348.25	7.07	-53.7	-66.6	3.8	1.49e+00	0	44	104	0	78	16368
2026-01-03 09:33:23.06	348.15	6.84	-53.6	-66.6	3.8	1.49e+00	0	44	104	0	78	16419
2026-01-03 09:33:26.07	348.06	6.62	-53.4	-66.6	3.8	1.49e+00	0	44	104	0	78	16348
2026-01-03 09:33:29.08	347.96	6.39	-53.4	-66.6	3.8	1.49e+00	0	44	104	0	78	16333
2026-01-03 09:33:32.10	347.87	6.17	-53.5	-66.7	3.8	1.49e+00	0	44	104	0	78	16509
2026-01-03 09:33:35.11	347.78	5.95	-53.5	-66.6	3.8	1.49e+00	0	44	104	0	78	16437
2026-01-03 09:33:38.12	347.69	5.74	-53.5	-66.6	3.8	1.49e+00	0	44	104	0	78	16392
2026-01-03 09:33:41.14	347.60	5.52	-53.4	-66.6	3.8	1.49e+00	0	44	104	0	78	16393
2026-01-03 09:33:44.15	347.52	5.31	-53.4	-66.5	3.8	1.49e+00	0	44	104	0	78	16306
2026-01-03 09:33:47.16	347.43	5.10	-53.7	-66.8	3.8	1.49e+00	0	44	104	0	78	16876

#Closed at: 2026-01-03 09:33:50
#Recorded file [0 MB]: D:/Data/31040_260103_122108.dat