passes_logs/2026/01/03/T1/T1__20260103_060921_FENGYUN_3E_rec.log

#Pass ID: 20260103_060921_FENGYUN 3E
#Satellite: FENGYUN 3E
#Configuration: FENGYUN 3E
#almurnet v.1.7.20251203
#Start time: 2026-01-03 06:09:22

#Version: 2.0.20230620
#Station: T1
#Location: 37.570604 lon 55.790049 lat
#TLE: 1 49008U 21062A   26002.32147302  .00000239  00000+0  13357-3 0  9999
#TLE: 2 49008  98.7477   7.5995 0001398 164.3382 195.7838 14.19884140233041

#Time	Az	El	Level	Level2	SNR	BER	BlckErr	Temp	State	Recorded	gain1	gain2
2026-01-03 06:09:22.84	3.39	5.07	-52.1	-64.4	3.8	8.47e-01	0	38	0	0	74	14931
2026-01-03 06:09:25.84	3.08	5.23	-48.2	-64.2	3.8	8.47e-01	0	39	104	0	66	23082
2026-01-03 06:09:28.85	2.77	5.39	-48.1	-64.1	3.8	8.48e-01	0	39	104	0	66	22883
2026-01-03 06:09:31.86	2.45	5.55	-48.1	-64.0	3.8	8.47e-01	0	39	104	0	66	22578
2026-01-03 06:09:34.86	2.14	5.71	-48.1	-64.0	3.8	8.47e-01	0	39	104	0	66	22606
2026-01-03 06:09:37.87	1.81	5.87	-48.1	-64.1	3.8	8.47e-01	0	39	104	0	66	22856
2026-01-03 06:09:40.87	1.49	6.03	-48.3	-64.3	3.8	8.48e-01	0	39	104	0	66	23321
2026-01-03 06:09:43.87	1.16	6.19	-48.4	-64.3	3.8	8.47e-01	0	39	104	0	66	23502
2026-01-03 06:09:46.87	0.83	6.35	-48.4	-64.3	3.8	8.47e-01	0	39	104	0	66	23433
2026-01-03 06:09:49.88	0.49	6.51	-48.3	-64.2	3.8	8.46e-01	0	39	104	0	66	23145
2026-01-03 06:09:52.88	0.15	6.66	-48.3	-64.3	3.8	8.47e-01	0	40	104	0	66	23314
2026-01-03 06:09:55.89	359.81	6.82	-48.3	-64.2	3.8	8.46e-01	0	40	104	0	66	23143
2026-01-03 06:09:58.89	359.46	6.98	-48.3	-64.1	3.8	8.47e-01	0	40	104	0	66	22912
2026-01-03 06:10:01.90	359.11	7.14	-48.2	-64.0	3.8	8.48e-01	0	40	104	0	66	22612
2026-01-03 06:10:04.90	358.75	7.30	-48.2	-64.1	3.8	8.46e-01	0	40	104	0	66	22941
2026-01-03 06:10:07.90	358.39	7.46	-48.2	-64.0	3.8	8.47e-01	0	40	104	0	66	22677
2026-01-03 06:10:10.91	358.02	7.62	-48.4	-64.3	3.8	8.46e-01	0	40	104	0	66	23434
2026-01-03 06:10:13.91	357.66	7.78	-48.2	-63.8	3.8	8.46e-01	0	40	104	0	66	22178
2026-01-03 06:10:16.92	357.28	7.94	-48.1	-63.5	3.8	8.47e-01	0	40	104	0	66	21362
2026-01-03 06:10:19.92	356.91	8.10	-48.1	-64.0	3.8	8.46e-01	0	40	104	0	66	22528
2026-01-03 06:10:22.92	356.53	8.26	-48.1	-63.5	3.8	8.47e-01	0	40	104	0	66	21467
2026-01-03 06:10:25.93	356.14	8.41	-48.1	-63.4	3.8	8.46e-01	0	40	104	0	66	21215
2026-01-03 06:10:28.94	355.75	8.57	-47.9	-58.1	5.3	7.66e-01	0	40	0	0	66	11434
2026-01-03 06:10:31.94	355.36	8.73	-47.2	-53.9	9.0	4.00e-02	0	40	0	18874368	65	7492
2026-01-03 06:10:34.94	354.96	8.89	-46.0	-50.4	12.6	1.42e-04	0	40	0	40894464	62	5968
2026-01-03 06:10:37.95	354.56	9.04	-45.1	-48.5	14.6	1.10e-06	0	40	0	61865984	60	5352
2026-01-03 06:10:40.95	354.15	9.20	-45.5	-49.3	13.8	0.00e+00	0	40	0	83886080	61	5548
2026-01-03 06:10:43.95	353.74	9.36	-43.1	-44.9	18.0	0.00e+00	0	41	0	98566144	57	4232
2026-01-03 06:10:46.95	353.32	9.51	-42.9	-44.7	18.4	0.00e+00	0	40	0	120586240	56	4341
2026-01-03 06:10:49.95	352.90	9.67	-42.9	-44.6	18.4	0.00e+00	0	41	0	141557760	56	4314
2026-01-03 06:10:52.95	352.48	9.82	-43.1	-44.7	18.4	0.00e+00	0	40	0	163577856	56	4382
2026-01-03 06:10:55.95	352.05	9.98	-43.2	-44.6	18.6	0.00e+00	0	41	0	185597952	56	4292
2026-01-03 06:10:58.95	351.61	10.13	-43.3	-44.6	18.6	0.00e+00	0	41	0	206569472	56	4330
2026-01-03 06:11:01.95	351.17	10.28	-43.2	-44.6	18.6	0.00e+00	0	41	0	228589568	56	4324
2026-01-03 06:11:04.95	350.73	10.43	-43.5	-45.0	18.5	0.00e+00	0	41	0	250609664	56	4505
2026-01-03 06:11:07.96	350.28	10.59	-43.4	-45.0	18.3	0.00e+00	0	41	0	271581184	56	4517
2026-01-03 06:11:10.96	349.83	10.74	-43.5	-45.0	18.2	0.00e+00	0	41	0	293601280	56	4511
2026-01-03 06:11:13.96	349.37	10.89	-43.7	-45.2	18.2	0.00e+00	0	41	0	315621376	57	4341
2026-01-03 06:11:16.96	348.91	11.03	-43.4	-44.8	18.5	0.00e+00	0	41	0	336592896	57	4148
2026-01-03 06:11:19.96	348.44	11.18	-43.2	-44.6	18.7	0.00e+00	0	41	0	358612992	57	4058
2026-01-03 06:11:22.95	347.97	11.33	-43.1	-44.5	18.9	0.00e+00	0	41	0	380633088	56	4252
2026-01-03 06:11:25.96	347.49	11.47	-43.2	-44.6	18.8	0.00e+00	0	41	0	401604608	56	4336
2026-01-03 06:11:28.96	347.01	11.62	-43.6	-45.1	18.8	0.00e+00	0	41	0	423624704	56	4559
2026-01-03 06:11:31.96	346.52	11.76	-43.7	-45.1	18.9	0.00e+00	0	41	0	445644800	56	4559
2026-01-03 06:11:34.96	346.03	11.91	-43.7	-45.0	19.0	0.00e+00	0	41	0	466616320	56	4506
2026-01-03 06:11:37.97	345.53	12.05	-42.8	-44.0	19.3	0.00e+00	0	41	0	488636416	56	4038
2026-01-03 06:11:40.98	345.03	12.19	-42.9	-44.1	19.4	0.00e+00	0	41	0	509607936	56	4086
2026-01-03 06:11:43.98	344.52	12.32	-43.0	-44.2	19.2	0.00e+00	0	41	0	531628032	56	4142
2026-01-03 06:11:46.98	344.01	12.46	-43.3	-44.4	19.1	0.00e+00	0	41	0	553648128	56	4223
2026-01-03 06:11:49.99	343.49	12.60	-43.3	-44.4	19.1	0.00e+00	0	41	0	574619648	56	4225
2026-01-03 06:11:52.99	342.97	12.73	-43.3	-44.4	19.3	0.00e+00	0	41	0	596639744	56	4240
2026-01-03 06:11:55.99	342.44	12.86	-43.1	-44.4	19.3	0.00e+00	0	41	0	618659840	56	4213
2026-01-03 06:11:59.00	341.91	12.99	-42.9	-44.1	19.3	0.00e+00	0	41	0	640679936	56	4079
2026-01-03 06:12:02.00	341.38	13.12	-42.7	-43.9	19.6	0.00e+00	0	41	0	661651456	56	3979
2026-01-03 06:12:05.00	340.84	13.25	-42.8	-44.0	19.6	0.00e+00	0	41	0	683671552	56	4009
2026-01-03 06:12:08.01	340.29	13.37	-42.8	-43.9	19.7	0.00e+00	0	41	0	705691648	56	3984
2026-01-03 06:12:11.00	339.74	13.50	-42.9	-44.0	19.6	0.00e+00	0	41	0	726663168	56	4018
2026-01-03 06:12:14.01	339.19	13.62	-43.0	-44.1	19.5	0.00e+00	0	41	0	748683264	56	4064
2026-01-03 06:12:17.01	338.63	13.74	-43.0	-44.1	19.6	0.00e+00	0	41	0	770703360	56	4052
2026-01-03 06:12:20.01	338.06	13.85	-42.9	-44.0	19.7	0.00e+00	0	41	0	791674880	56	4011
2026-01-03 06:12:23.02	337.49	13.97	-42.8	-44.0	19.7	0.00e+00	0	41	0	813694976	56	4019
2026-01-03 06:12:26.02	336.92	14.08	-42.9	-44.0	19.6	0.00e+00	0	41	0	835715072	56	4028
2026-01-03 06:12:29.02	336.35	14.19	-43.1	-44.2	19.6	0.00e+00	0	41	0	856686592	56	4101
2026-01-03 06:12:32.03	335.76	14.30	-43.1	-44.1	19.6	0.00e+00	0	41	0	878706688	56	4066
2026-01-03 06:12:35.03	335.18	14.40	-42.8	-43.9	19.7	0.00e+00	0	41	0	900726784	56	3978
2026-01-03 06:12:38.04	334.59	14.51	-42.8	-43.9	19.8	0.00e+00	0	41	0	921698304	56	3976
2026-01-03 06:12:41.05	333.99	14.61	-42.8	-43.8	19.9	0.00e+00	0	41	0	943718400	56	3940
2026-01-03 06:12:44.04	333.39	14.70	-42.7	-43.7	19.9	0.00e+00	0	41	0	965738496	56	3898
2026-01-03 06:12:47.05	332.79	14.80	-42.7	-43.7	19.9	0.00e+00	0	41	0	987758592	56	3888
2026-01-03 06:12:50.06	332.18	14.89	-42.7	-43.8	19.9	0.00e+00	0	41	0	1008730112	56	3918
2026-01-03 06:12:53.07	331.57	14.98	-42.5	-43.5	20.0	0.00e+00	0	41	0	1030750208	55	4012
2026-01-03 06:12:56.07	330.96	15.06	-42.5	-43.5	20.0	0.00e+00	0	41	0	1051721728	55	4026
2026-01-03 06:12:59.07	330.34	15.15	-42.4	-43.4	20.0	0.00e+00	0	41	0	1073741824	55	3992
2026-01-03 06:13:02.08	329.72	15.23	-42.4	-43.4	20.0	0.00e+00	0	41	0	1095761920	55	3985
2026-01-03 06:13:05.08	329.10	15.30	-42.2	-43.1	20.3	0.00e+00	0	41	0	1116733440	55	3858
2026-01-03 06:13:08.08	328.47	15.38	-42.0	-43.0	20.3	0.00e+00	0	41	0	1138753536	54	4023
2026-01-03 06:13:11.08	327.84	15.44	-42.0	-43.0	20.4	0.00e+00	0	41	0	1160773632	54	4033
2026-01-03 06:13:14.08	327.21	15.51	-41.8	-42.9	20.5	0.00e+00	0	41	0	1181745152	54	3969
2026-01-03 06:13:17.08	326.57	15.57	-42.0	-43.0	20.4	0.00e+00	0	41	0	1203765248	54	4023
2026-01-03 06:13:20.09	325.93	15.63	-41.9	-43.0	20.4	0.00e+00	0	41	0	1225785344	54	4008
2026-01-03 06:13:23.09	325.29	15.69	-41.9	-42.9	20.4	0.00e+00	0	41	0	1247805440	54	4004
2026-01-03 06:13:26.10	324.65	15.74	-41.8	-42.8	20.6	0.00e+00	0	41	0	1268776960	54	3939
2026-01-03 06:13:29.11	324.00	15.79	-41.7	-42.6	20.8	0.00e+00	0	41	0	1290797056	54	3853
2026-01-03 06:13:32.12	323.35	15.84	-41.6	-42.5	20.9	0.00e+00	0	41	0	1312817152	53	4015
2026-01-03 06:13:35.12	322.70	15.88	-41.7	-42.6	20.7	0.00e+00	0	41	0	1333788672	53	4090
2026-01-03 06:13:38.13	322.05	15.92	-41.9	-42.9	20.6	0.00e+00	0	41	0	1355808768	53	4209
2026-01-03 06:13:41.13	321.40	15.95	-42.0	-43.0	20.5	0.00e+00	0	41	0	1377828864	53	4263
2026-01-03 06:13:44.13	320.74	15.99	-41.8	-42.8	20.7	0.00e+00	0	41	0	1398800384	53	4154
2026-01-03 06:13:47.13	320.09	16.01	-41.7	-42.7	20.8	0.00e+00	0	41	0	1420820480	53	4119
2026-01-03 06:13:50.14	319.43	16.04	-41.5	-42.5	20.8	0.00e+00	0	41	0	1442840576	53	4033
2026-01-03 06:13:53.14	318.77	16.06	-41.1	-42.1	20.9	0.00e+00	0	41	0	1464860672	53	3831
2026-01-03 06:13:56.15	318.11	16.07	-41.0	-42.0	21.0	0.00e+00	0	41	0	1485832192	52	4005
2026-01-03 06:13:59.15	317.45	16.08	-41.0	-42.0	21.0	0.00e+00	0	41	0	1507852288	52	4011
2026-01-03 06:14:02.15	316.79	16.09	-41.2	-42.1	20.9	0.00e+00	0	41	0	1529872384	52	4079
2026-01-03 06:14:05.16	316.13	16.10	-41.5	-42.4	20.6	0.00e+00	0	41	0	1550843904	52	4230
2026-01-03 06:14:08.15	315.47	16.10	-41.4	-42.4	20.6	0.00e+00	0	41	0	1572864000	52	4203
2026-01-03 06:14:11.16	314.81	16.09	-41.5	-42.4	20.5	0.00e+00	0	41	0	1593835520	52	4238
2026-01-03 06:14:14.15	314.15	16.09	-41.6	-42.6	20.4	0.00e+00	0	41	0	1615855616	52	4299
2026-01-03 06:14:17.16	313.49	16.07	-41.4	-42.4	20.5	0.00e+00	0	41	0	1637875712	52	4219
2026-01-03 06:14:20.16	312.83	16.06	-41.5	-42.5	20.4	0.00e+00	0	41	0	1658847232	52	4256
2026-01-03 06:14:23.17	312.17	16.04	-41.1	-42.1	20.7	0.00e+00	0	41	0	1680867328	52	4074
2026-01-03 06:14:26.17	311.52	16.02	-41.0	-41.9	20.9	0.00e+00	0	41	0	1702887424	52	3998
2026-01-03 06:14:29.18	310.86	15.99	-41.1	-42.1	20.8	0.00e+00	0	41	0	1723858944	52	4060
2026-01-03 06:14:32.18	310.20	15.96	-41.2	-42.1	20.7	0.00e+00	0	41	0	1745879040	52	4095
2026-01-03 06:14:35.19	309.55	15.93	-41.1	-42.0	20.9	0.00e+00	0	41	0	1767899136	52	4036
2026-01-03 06:14:38.19	308.89	15.89	-41.0	-42.0	20.9	0.00e+00	0	41	0	1789919232	52	4015
2026-01-03 06:14:41.20	308.24	15.85	-41.1	-42.0	20.9	0.00e+00	0	41	0	1810890752	52	4031
2026-01-03 06:14:44.21	307.59	15.80	-41.2	-42.2	20.7	0.00e+00	0	41	0	1832910848	52	4110
2026-01-03 06:14:47.21	306.94	15.76	-41.4	-42.3	20.5	0.00e+00	0	41	0	1854930944	52	4175
2026-01-03 06:14:50.21	306.30	15.70	-41.2	-42.2	20.6	0.00e+00	0	41	0	1875902464	52	4105
2026-01-03 06:14:53.21	305.66	15.65	-41.5	-42.4	20.4	0.00e+00	0	41	0	1897922560	52	4231
2026-01-03 06:14:56.22	305.02	15.59	-41.3	-42.3	20.5	0.00e+00	0	41	0	1919942656	52	4154
2026-01-03 06:14:59.22	304.38	15.53	-41.3	-42.2	20.5	0.00e+00	0	41	0	1940914176	52	4145
2026-01-03 06:15:02.23	303.74	15.46	-41.6	-42.5	20.3	0.00e+00	0	41	0	1962934272	52	4286
2026-01-03 06:15:05.23	303.11	15.39	-41.5	-42.4	20.3	0.00e+00	0	41	0	1984954368	52	4240
2026-01-03 06:15:08.24	302.48	15.32	-41.4	-42.4	20.3	0.00e+00	0	41	0	2005925888	52	4213
2026-01-03 06:15:11.24	301.85	15.24	-41.5	-42.5	20.3	0.00e+00	0	41	0	2027945984	52	4262
2026-01-03 06:15:14.24	301.23	15.16	-41.6	-42.6	20.2	0.00e+00	0	41	0	2049966080	52	4317
2026-01-03 06:15:17.25	300.61	15.08	-41.6	-42.6	20.2	0.00e+00	0	41	0	2071986176	52	4319
2026-01-03 06:15:20.25	300.00	15.00	-41.6	-42.6	20.2	0.00e+00	0	41	0	2092957696	53	4066
2026-01-03 06:15:23.25	299.38	14.91	-41.7	-42.6	20.1	0.00e+00	0	41	0	2114977792	53	4085
2026-01-03 06:15:26.25	298.78	14.82	-41.7	-42.7	20.2	0.00e+00	0	41	0	2135949312	53	4099
2026-01-03 06:15:29.26	298.17	14.72	-42.0	-43.0	20.0	0.00e+00	0	41	0	2157969408	53	4245
2026-01-03 06:15:32.26	297.57	14.63	-42.0	-43.0	19.9	0.00e+00	0	41	0	2179989504	53	4248
2026-01-03 06:15:35.26	296.97	14.53	-41.8	-42.7	20.1	0.00e+00	0	41	0	2200961024	53	4144
2026-01-03 06:15:38.27	296.38	14.43	-41.8	-42.8	20.1	0.00e+00	0	41	0	2222981120	53	4164
2026-01-03 06:15:41.28	295.79	14.32	-41.9	-42.9	20.0	0.00e+00	0	41	0	2245001216	53	4204
2026-01-03 06:15:44.28	295.20	14.21	-42.0	-43.0	19.8	0.00e+00	0	41	0	2265972736	53	4268
2026-01-03 06:15:47.29	294.62	14.10	-42.3	-43.3	19.8	0.00e+00	0	41	0	2287992832	54	4170
2026-01-03 06:15:50.30	294.05	13.99	-41.9	-42.9	20.0	0.00e+00	0	41	0	2310012928	54	3988
2026-01-03 06:15:53.30	293.47	13.88	-41.6	-42.6	20.1	0.00e+00	0	41	0	2332033024	53	4054
2026-01-03 06:15:56.30	292.91	13.76	-42.0	-42.9	19.9	0.00e+00	0	41	0	2353004544	53	4237
2026-01-03 06:15:59.29	292.35	13.64	-41.9	-42.9	19.7	0.00e+00	0	41	0	2375024640	53	4236
2026-01-03 06:16:02.30	291.79	13.52	-42.0	-43.1	19.6	0.00e+00	0	41	0	2397044736	53	4292
2026-01-03 06:16:05.29	291.24	13.40	-42.0	-43.0	19.7	0.00e+00	0	41	0	2418016256	53	4252
2026-01-03 06:16:08.29	290.69	13.27	-42.0	-43.0	19.8	0.00e+00	0	41	0	2440036352	53	4284
2026-01-03 06:16:11.29	290.14	13.15	-42.1	-43.1	19.6	0.00e+00	0	41	0	2461007872	53	4317
2026-01-03 06:16:14.29	289.61	13.02	-42.3	-43.3	19.5	0.00e+00	0	41	0	2483027968	54	4191
2026-01-03 06:16:17.29	289.07	12.89	-42.4	-43.4	19.5	0.00e+00	0	41	0	2505048064	54	4226
2026-01-03 06:16:20.29	288.54	12.76	-42.4	-43.4	19.5	0.00e+00	0	41	0	2527068160	54	4216
2026-01-03 06:16:23.29	288.02	12.62	-42.5	-43.5	19.4	0.00e+00	0	41	0	2548039680	54	4259
2026-01-03 06:16:26.32	287.49	12.49	-42.7	-43.7	19.4	0.00e+00	0	41	0	2570059776	54	4354
2026-01-03 06:16:29.34	286.97	12.35	-42.5	-43.5	19.4	0.00e+00	0	41	0	2592079872	54	4275
2026-01-03 06:16:32.70	286.40	12.19	-42.4	-43.4	19.5	0.00e+00	0	41	0	2616197120	54	4232
2026-01-03 06:16:35.47	285.94	12.06	-42.2	-43.2	19.7	0.00e+00	0	41	0	2636120064	54	4131
2026-01-03 06:16:38.75	285.39	11.91	-42.3	-43.3	19.6	0.00e+00	0	41	0	2660237312	54	4180
2026-01-03 06:16:41.48	284.94	11.78	-42.1	-43.1	19.8	0.00e+00	0	41	0	2679111680	54	4089
2026-01-03 06:16:44.77	284.40	11.62	-42.4	-43.5	19.4	0.00e+00	0	41	0	2703228928	54	4252
2026-01-03 06:16:47.48	283.96	11.49	-42.6	-43.6	19.2	0.00e+00	0	41	0	2723151872	54	4328
2026-01-03 06:16:50.83	283.43	11.33	-42.6	-43.6	19.2	0.00e+00	0	40	0	2747269120	54	4335
2026-01-03 06:16:53.56	282.99	11.19	-42.6	-43.7	19.2	0.00e+00	0	41	0	2766143488	55	4102
2026-01-03 06:16:56.85	282.48	11.03	-42.5	-43.5	19.3	0.00e+00	0	41	0	2790260736	55	4043
2026-01-03 06:16:59.58	282.05	10.90	-42.6	-43.6	19.2	0.00e+00	0	41	0	2810183680	55	4091
2026-01-03 06:17:02.87	281.55	10.73	-42.6	-43.6	19.4	0.00e+00	0	41	0	2833252352	55	4070
2026-01-03 06:17:05.80	281.10	10.58	-42.5	-43.5	19.3	0.00e+00	0	41	0	2855272448	55	4026
2026-01-03 06:17:09.53	280.54	10.40	-42.7	-43.7	19.1	0.00e+00	0	41	0	2882535424	55	4140
2026-01-03 06:17:12.30	280.13	10.25	-42.8	-43.8	18.9	0.00e+00	0	41	0	2902458368	55	4181
2026-01-03 06:17:16.02	279.58	10.06	-42.8	-43.9	18.8	1.10e-06	0	41	0	2928672768	55	4214
2026-01-03 06:17:19.05	279.14	9.91	-42.8	-43.9	18.9	0.00e+00	0	41	0	2950692864	55	4199
2026-01-03 06:17:22.82	278.60	9.71	-42.9	-43.9	19.0	0.00e+00	0	41	0	2977955840	56	4001
2026-01-03 06:17:25.63	278.20	9.57	-42.7	-43.7	19.1	2.20e-06	0	41	0	2997878784	56	3905
2026-01-03 06:17:29.57	277.65	9.36	-42.6	-43.6	19.1	0.00e+00	0	40	0	3026190336	55	4085
2026-01-03 06:17:33.12	277.16	9.18	-42.4	-43.4	19.2	0.00e+00	0	41	0	3052404736	55	3983
2026-01-03 06:17:36.17	276.74	9.02	-42.4	-43.4	19.1	0.00e+00	0	41	0	3074424832	55	3994
2026-01-03 06:17:39.09	276.35	8.87	-53.4	-64.3	3.8	8.46e-01	0	41	104	3079667712	76	13164
2026-01-03 06:17:42.10	275.95	8.71	-53.6	-64.5	3.8	8.47e-01	0	41	104	3079667712	76	13527
2026-01-03 06:17:45.11	275.55	8.55	-53.8	-64.7	3.8	8.47e-01	0	41	104	3079667712	77	12971
2026-01-03 06:17:48.12	275.16	8.39	-53.9	-64.8	3.8	8.46e-01	0	41	104	3079667712	77	13217
2026-01-03 06:17:51.12	274.77	8.23	-53.6	-64.7	3.8	8.47e-01	0	41	104	3079667712	77	12966
2026-01-03 06:17:54.15	274.38	8.07	-53.7	-64.5	3.8	8.47e-01	0	41	104	3079667712	77	12726
2026-01-03 06:17:57.56	273.95	7.89	-53.5	-64.6	3.8	8.47e-01	0	41	104	3079667712	77	12873
2026-01-03 06:18:00.49	273.59	7.74	-53.5	-64.6	3.8	8.47e-01	0	41	104	3079667712	77	12900
2026-01-03 06:18:03.78	273.18	7.56	-53.4	-64.5	3.8	8.47e-01	0	41	104	3079667712	77	12809
2026-01-03 06:18:06.51	272.85	7.42	-53.4	-64.5	3.8	8.46e-01	0	41	104	3079667712	77	12760
2026-01-03 06:18:09.81	272.45	7.24	-53.4	-64.5	3.8	8.47e-01	0	41	104	3079667712	77	12789
2026-01-03 06:18:12.53	272.12	7.09	-53.4	-64.5	3.8	8.46e-01	0	41	104	3079667712	77	12803
2026-01-03 06:18:15.83	271.73	6.92	-53.4	-64.6	3.8	8.47e-01	0	41	104	3079667712	77	12841
2026-01-03 06:18:18.55	271.42	6.77	-53.4	-64.5	3.8	8.46e-01	0	41	104	3079667712	77	12743
2026-01-03 06:18:21.85	271.04	6.60	-53.3	-64.5	3.8	8.47e-01	0	41	104	3079667712	77	12678
2026-01-03 06:18:24.58	270.72	6.45	-53.3	-64.5	3.8	8.47e-01	0	41	104	3079667712	77	12742
2026-01-03 06:18:27.88	270.35	6.28	-53.4	-64.5	3.8	8.47e-01	0	41	104	3079667712	77	12759
2026-01-03 06:18:30.60	270.05	6.13	-53.4	-64.5	3.8	8.46e-01	0	41	104	3079667712	77	12765
2026-01-03 06:18:33.90	269.68	5.96	-53.4	-64.6	3.8	8.47e-01	0	41	104	3079667712	77	12928
2026-01-03 06:18:36.63	269.39	5.81	-53.4	-64.6	3.8	8.47e-01	0	41	104	3079667712	77	12851
2026-01-03 06:18:39.93	269.03	5.64	-53.4	-64.5	3.8	8.47e-01	0	41	104	3079667712	77	12746
2026-01-03 06:18:42.65	268.74	5.49	-53.4	-64.5	3.8	8.47e-01	0	41	104	3079667712	77	12786
2026-01-03 06:18:45.95	268.39	5.32	-53.4	-64.7	3.8	8.47e-01	0	41	104	3079667712	77	12963
2026-01-03 06:18:48.68	268.11	5.17	-53.2	-64.4	3.8	8.46e-01	0	40	104	3079667712	77	12602
2026-01-03 06:18:51.98	267.77	5.00	-53.3	-64.3	3.8	8.47e-01	0	41	104	3079667712	77	12509

#Closed at: 2026-01-03 06:18:52
#Recorded file [3079 MB]: D:/Data/31040_260103_090922.dat