passes_logs/2026/01/03/T1/T1__20260103_222151_NOAA_20_JPSS-1_rec.log

#Pass ID: 20260103_222151_NOAA 20 (JPSS-1)
#Satellite: NOAA 20 (JPSS-1)
#Configuration: NOAA 20
#almurnet v.1.7.20251203
#Start time: 2026-01-03 22:21:51

#Version: 2.0.20230620
#Station: T1
#Location: 37.570604 lon 55.790049 lat
#TLE: 1 43013U 17073A   26003.41800368  .00000169  00000+0  10117-3 0  9998
#TLE: 2 43013  98.7624 304.4804 0001884  56.1176 304.0179 14.19532918421092

#Time	Az	El	Level	Level2	SNR	BER	BlckErr	Temp	State	Recorded	gain1	gain2
2026-01-03 22:21:51.98	27.47	5.05	-53.1	-69.1	3.8	1.49e+00	0	36	0	0	78	21983
2026-01-03 22:21:54.98	27.70	5.23	-53.1	-69.1	3.8	1.49e+00	0	37	104	0	77	23288
2026-01-03 22:21:57.99	27.94	5.42	-53.0	-69.1	3.8	1.49e+00	0	37	104	0	77	23082
2026-01-03 22:22:01.00	28.18	5.61	-53.0	-69.0	3.8	1.49e+00	0	37	104	0	77	22965
2026-01-03 22:22:04.02	28.42	5.79	-53.0	-68.9	3.8	1.49e+00	0	37	104	0	77	22687
2026-01-03 22:22:07.03	28.66	5.98	-52.9	-68.9	3.8	1.49e+00	0	37	104	0	77	22610
2026-01-03 22:22:10.04	28.91	6.17	-53.1	-69.0	3.8	1.49e+00	0	37	104	0	77	22936
2026-01-03 22:22:13.06	29.16	6.36	-53.1	-69.1	3.8	1.49e+00	0	37	104	0	77	23298
2026-01-03 22:22:16.07	29.41	6.56	-53.0	-69.1	3.8	1.49e+00	0	38	104	0	77	23310
2026-01-03 22:22:19.08	29.67	6.75	-53.0	-69.0	3.8	1.49e+00	0	37	104	0	77	22802
2026-01-03 22:22:22.09	29.93	6.94	-53.0	-68.9	3.8	1.49e+00	0	38	104	0	77	22597
2026-01-03 22:22:25.11	30.20	7.14	-53.2	-69.1	3.8	1.49e+00	0	38	104	0	77	23047
2026-01-03 22:22:28.12	30.46	7.33	-53.2	-69.1	3.8	1.49e+00	0	38	104	0	77	23238
2026-01-03 22:22:31.13	30.73	7.53	-53.1	-68.7	3.8	1.49e+00	0	38	104	0	77	22238
2026-01-03 22:22:34.15	31.01	7.73	-53.0	-68.9	3.8	1.49e+00	0	38	104	0	77	22524
2026-01-03 22:22:37.16	31.28	7.93	-53.1	-69.0	3.8	1.49e+00	0	38	104	0	77	22981
2026-01-03 22:22:40.17	31.56	8.13	-53.0	-69.0	3.8	1.49e+00	0	38	104	0	77	22855
2026-01-03 22:22:43.19	31.85	8.33	-53.0	-69.1	3.8	1.49e+00	0	38	104	0	77	23099
2026-01-03 22:22:46.20	32.14	8.53	-52.9	-68.2	3.8	1.49e+00	0	38	104	0	77	20990
2026-01-03 22:22:49.21	32.43	8.73	-52.9	-67.8	3.8	1.49e+00	0	38	104	0	77	19876
2026-01-03 22:22:52.23	32.73	8.94	-52.7	-65.0	4.3	1.43e+00	0	38	0	0	77	14453
2026-01-03 22:22:55.30	33.03	9.15	-52.6	-62.6	5.6	3.35e-01	0	38	0	5242880	76	11649
2026-01-03 22:22:58.31	33.34	9.35	-53.6	-67.4	3.8	1.44e+00	0	38	104	6291456	78	17895
2026-01-03 22:23:01.48	33.66	9.57	-53.5	-67.0	3.8	1.49e+00	0	38	104	7340032	78	17180
2026-01-03 22:23:04.35	33.96	9.77	-53.4	-66.9	3.9	1.49e+00	0	38	104	7340032	78	16955
2026-01-03 22:23:07.50	34.29	9.99	-52.2	-58.4	9.1	9.22e-01	0	39	0	10485760	76	7133
2026-01-03 22:23:10.38	34.60	10.19	-49.1	-52.3	15.8	0.00e+00	0	39	0	15728640	70	5002
2026-01-03 22:23:13.57	34.94	10.41	-48.9	-51.9	16.2	0.00e+00	0	38	0	22020096	69	5060
2026-01-03 22:23:16.44	35.26	10.61	-48.8	-51.7	16.4	0.00e+00	0	38	0	27262976	69	4975
2026-01-03 22:23:19.78	35.63	10.85	-48.8	-51.7	16.4	0.00e+00	0	39	0	33554432	69	4962
2026-01-03 22:23:22.71	35.96	11.06	-48.5	-51.5	16.5	0.00e+00	0	39	0	38797312	69	4858
2026-01-03 22:23:26.01	36.34	11.30	-48.4	-51.4	16.5	0.00e+00	0	39	0	45088768	68	5086
2026-01-03 22:23:28.74	36.66	11.49	-48.2	-51.2	16.9	0.00e+00	0	39	0	50331648	68	4943
2026-01-03 22:23:32.03	37.04	11.73	-48.3	-51.1	17.0	0.00e+00	0	39	0	56623104	68	4906
2026-01-03 22:23:34.75	37.37	11.93	-48.3	-51.1	17.0	0.00e+00	0	39	0	61865984	68	4879
2026-01-03 22:23:38.19	37.79	12.18	-48.1	-50.8	17.3	0.00e+00	0	39	0	68157440	68	4736
2026-01-03 22:23:40.98	38.13	12.38	-48.1	-51.0	17.1	0.00e+00	0	39	0	73400320	68	4816
2026-01-03 22:23:44.27	38.54	12.62	-47.7	-50.5	17.3	0.00e+00	0	39	0	79691776	67	4829
2026-01-03 22:23:46.99	38.89	12.82	-47.7	-50.5	17.3	0.00e+00	0	39	0	84934656	67	4840
2026-01-03 22:23:50.28	39.31	13.07	-47.9	-50.7	17.2	0.00e+00	0	39	0	90177536	67	4929
2026-01-03 22:23:53.00	39.66	13.27	-47.9	-50.7	17.1	0.00e+00	0	39	0	95420416	67	4944
2026-01-03 22:23:56.29	40.10	13.52	-47.8	-50.5	17.4	0.00e+00	0	39	0	101711872	67	4844
2026-01-03 22:23:59.01	40.46	13.72	-47.8	-50.4	17.5	0.00e+00	0	39	0	106954752	67	4773
2026-01-03 22:24:02.31	40.92	13.97	-47.9	-50.5	17.4	0.00e+00	0	39	0	113246208	67	4828
2026-01-03 22:24:05.31	41.33	14.19	-47.9	-50.5	17.5	0.00e+00	0	39	0	118489088	67	4844
2026-01-03 22:24:08.61	41.80	14.44	-48.0	-50.6	17.6	0.00e+00	0	39	0	124780544	67	4886
2026-01-03 22:24:11.33	42.18	14.65	-47.9	-50.4	17.6	0.00e+00	0	39	0	130023424	67	4792
2026-01-03 22:24:14.63	42.66	14.90	-47.8	-50.3	17.7	0.00e+00	0	39	0	136314880	67	4752
2026-01-03 22:24:17.38	43.07	15.11	-47.7	-50.3	17.7	0.00e+00	0	39	0	141557760	67	4718
2026-01-03 22:24:20.74	43.57	15.37	-47.7	-50.2	17.8	0.00e+00	0	39	0	147849216	67	4688
2026-01-03 22:24:23.46	43.98	15.58	-47.5	-50.0	18.0	0.00e+00	0	39	0	153092096	67	4581
2026-01-03 22:24:26.75	44.49	15.83	-47.4	-49.8	18.1	0.00e+00	0	39	0	159383552	66	4758
2026-01-03 22:24:29.48	44.91	16.04	-47.2	-49.6	18.2	0.00e+00	0	39	0	164626432	66	4647
2026-01-03 22:24:32.84	45.45	16.30	-47.3	-49.8	18.2	7.00e-07	0	39	0	170917888	66	4706
2026-01-03 22:24:35.56	45.89	16.51	-47.4	-49.9	18.1	0.00e+00	0	39	0	175112192	66	4781
2026-01-03 22:24:38.86	46.43	16.77	-47.5	-50.0	18.1	0.00e+00	0	39	0	181403648	66	4854
2026-01-03 22:24:41.58	46.88	16.98	-47.7	-50.2	17.9	0.00e+00	0	39	0	186646528	66	4931
2026-01-03 22:24:45.15	47.48	17.26	-47.7	-50.2	17.8	0.00e+00	0	39	0	193986560	66	4966
2026-01-03 22:24:47.88	47.95	17.47	-47.7	-50.2	17.8	0.00e+00	0	39	0	198180864	66	4947
2026-01-03 22:24:51.13	48.51	17.72	-47.5	-50.0	18.0	0.00e+00	0	39	0	204472320	66	4822
2026-01-03 22:24:54.30	49.07	17.97	-47.2	-49.6	18.3	0.00e+00	0	39	0	210763776	66	4642
2026-01-03 22:24:57.33	49.62	18.20	-47.1	-49.5	18.4	0.00e+00	0	39	0	216006656	65	4857
2026-01-03 22:25:00.34	50.17	18.44	-46.8	-49.2	18.6	0.00e+00	0	39	0	222298112	65	4671
2026-01-03 22:25:03.35	50.72	18.67	-46.7	-49.0	18.7	0.00e+00	0	39	0	227540992	65	4596
2026-01-03 22:25:06.35	51.29	18.90	-46.5	-48.7	19.0	0.00e+00	0	39	0	232783872	64	4704
2026-01-03 22:25:09.36	51.86	19.13	-46.4	-48.7	19.2	1.50e-06	0	39	0	239075328	64	4665
2026-01-03 22:25:12.56	52.48	19.38	-46.2	-48.4	19.2	0.00e+00	0	39	0	245366784	64	4539
2026-01-03 22:25:15.43	53.05	19.60	-46.0	-48.2	19.2	0.00e+00	0	39	0	250609664	64	4426
2026-01-03 22:25:18.58	53.67	19.84	-46.0	-48.2	19.4	0.00e+00	0	39	0	255852544	63	4677
2026-01-03 22:25:21.80	54.33	20.08	-46.1	-48.3	19.4	0.00e+00	0	39	0	262144000	63	4735
2026-01-03 22:25:24.84	54.95	20.31	-46.1	-48.4	19.3	0.00e+00	0	39	0	268435456	63	4779
2026-01-03 22:25:27.85	55.58	20.54	-46.1	-48.3	19.4	0.00e+00	0	39	0	273678336	63	4755
2026-01-03 22:25:30.86	56.22	20.77	-46.2	-48.4	19.3	0.00e+00	0	39	0	278921216	63	4781
2026-01-03 22:25:33.89	56.87	20.99	-46.4	-48.7	19.0	0.00e+00	0	39	0	285212672	63	4933
2026-01-03 22:25:36.99	57.54	21.22	-46.3	-48.5	19.1	0.00e+00	0	39	0	290455552	63	4858
2026-01-03 22:25:39.85	58.18	21.43	-46.5	-48.8	18.9	0.00e+00	0	39	0	295698432	63	5027
2026-01-03 22:25:43.00	58.88	21.65	-46.7	-49.0	18.6	0.00e+00	0	39	0	301989888	64	4854
2026-01-03 22:25:45.87	59.53	21.86	-46.8	-49.2	18.4	0.00e+00	0	39	0	307232768	64	4982
2026-01-03 22:25:49.02	60.26	22.08	-46.8	-49.3	18.4	0.00e+00	0	39	0	313524224	64	4992
2026-01-03 22:25:51.88	60.92	22.28	-46.8	-49.1	18.6	0.00e+00	0	39	0	318767104	64	4914
2026-01-03 22:25:55.04	61.67	22.50	-46.8	-49.3	18.4	0.00e+00	0	39	0	325058560	64	5003
2026-01-03 22:25:57.90	62.36	22.70	-46.9	-49.3	18.4	0.00e+00	0	39	0	330301440	64	5017
2026-01-03 22:26:01.14	63.14	22.92	-46.9	-49.3	18.4	0.00e+00	0	39	0	335544320	64	5011
2026-01-03 22:26:04.00	63.85	23.10	-46.8	-49.1	18.6	0.00e+00	0	39	0	341835776	64	4921
2026-01-03 22:26:07.14	64.63	23.31	-47.2	-49.7	18.0	0.00e+00	0	39	0	347078656	65	4966
2026-01-03 22:26:10.01	65.35	23.49	-47.5	-50.1	17.6	0.00e+00	0	39	0	352321536	65	5192
2026-01-03 22:26:13.16	66.15	23.69	-47.6	-50.2	17.5	0.00e+00	0	39	0	358612992	66	4976
2026-01-03 22:26:16.11	66.92	23.87	-47.8	-50.4	17.4	0.00e+00	0	39	0	363855872	66	5096
2026-01-03 22:26:19.29	67.75	24.06	-48.1	-50.9	16.9	0.00e+00	0	39	0	370147328	67	5045
2026-01-03 22:26:22.15	68.50	24.23	-48.5	-51.3	16.5	0.00e+00	0	39	0	375390208	67	5339
2026-01-03 22:26:25.31	69.34	24.41	-48.3	-51.0	16.9	0.00e+00	0	39	0	381681664	68	4850
2026-01-03 22:26:28.18	70.12	24.56	-48.0	-50.6	17.4	0.00e+00	0	39	0	386924544	68	4648
2026-01-03 22:26:31.39	70.99	24.74	-48.3	-51.1	16.7	0.00e+00	0	39	0	393216000	67	5177
2026-01-03 22:26:34.26	71.78	24.89	-49.3	-52.5	15.5	0.00e+00	0	39	0	398458880	69	5405
2026-01-03 22:26:37.54	72.69	25.05	-49.2	-52.2	15.8	0.00e+00	0	39	0	404750336	69	5264
2026-01-03 22:26:40.26	73.46	25.18	-48.8	-51.8	16.2	0.00e+00	0	39	0	408944640	69	4985
2026-01-03 22:26:43.55	74.39	25.33	-49.0	-52.1	15.8	0.00e+00	0	39	0	415236096	69	5175
2026-01-03 22:26:46.27	75.17	25.45	-49.0	-52.1	15.8	0.00e+00	0	39	0	420478976	69	5194
2026-01-03 22:26:49.57	76.12	25.59	-48.7	-51.7	16.3	0.00e+00	0	39	0	426770432	69	4927
2026-01-03 22:26:52.50	76.97	25.71	-48.7	-51.8	16.1	0.00e+00	0	39	0	432013312	69	5006
2026-01-03 22:26:55.79	77.93	25.84	-48.7	-51.7	16.3	0.00e+00	0	39	0	438304768	69	4954
2026-01-03 22:26:58.51	78.73	25.93	-48.4	-51.2	16.9	0.00e+00	0	39	0	443547648	68	4939
2026-01-03 22:27:02.08	79.79	26.05	-47.6	-50.2	17.5	0.00e+00	0	39	0	449839104	67	4689
2026-01-03 22:27:04.80	80.60	26.14	-47.8	-50.4	17.2	0.00e+00	0	39	0	455081984	67	4814
2026-01-03 22:27:08.03	81.57	26.23	-47.9	-50.6	17.1	0.00e+00	0	39	0	461373440	67	4923
2026-01-03 22:27:10.89	82.43	26.31	-48.1	-50.9	16.8	0.00e+00	0	39	0	466616320	67	5098
2026-01-03 22:27:14.04	83.39	26.38	-48.3	-51.3	16.4	0.00e+00	0	39	0	472907776	67	5332
2026-01-03 22:27:16.96	84.28	26.44	-48.2	-51.2	16.5	0.00e+00	0	39	0	478150656	67	5268
2026-01-03 22:27:20.10	85.23	26.50	-47.7	-50.5	17.2	0.00e+00	0	39	0	484442112	67	4839
2026-01-03 22:27:23.01	86.13	26.55	-47.5	-50.2	17.5	0.00e+00	0	39	0	489684992	66	4947
2026-01-03 22:27:26.03	87.06	26.59	-47.5	-50.2	17.6	0.00e+00	0	39	0	494927872	66	4965
2026-01-03 22:27:29.03	87.98	26.62	-47.7	-50.5	17.3	0.00e+00	0	39	0	501219328	66	5112
2026-01-03 22:27:32.04	88.91	26.65	-47.2	-49.7	17.9	0.00e+00	0	39	0	506462208	66	4695
2026-01-03 22:27:35.05	89.84	26.67	-46.6	-49.1	18.5	0.00e+00	0	39	0	511705088	65	4602
2026-01-03 22:27:38.06	90.77	26.68	-47.1	-49.7	18.0	0.00e+00	0	39	0	517996544	65	4936
2026-01-03 22:27:41.06	91.70	26.68	-47.5	-50.1	17.6	0.00e+00	0	39	0	523239424	66	4876
2026-01-03 22:27:44.07	92.63	26.67	-47.2	-49.7	17.9	0.00e+00	0	39	0	528482304	66	4697
2026-01-03 22:27:47.19	93.60	26.66	-47.8	-50.4	17.3	0.00e+00	0	39	0	534773760	66	5098
2026-01-03 22:27:50.17	94.52	26.63	-49.1	-52.2	15.8	3.80e-06	0	39	0	540016640	68	5531
2026-01-03 22:27:53.17	95.44	26.60	-48.9	-51.9	16.1	0.00e+00	0	39	0	546308096	69	5075
2026-01-03 22:27:56.18	96.37	26.56	-47.9	-50.5	17.5	0.00e+00	0	39	0	551550976	67	4855
2026-01-03 22:27:59.26	97.32	26.52	-47.8	-50.4	17.5	0.00e+00	0	39	0	557842432	66	5047
2026-01-03 22:28:02.14	98.20	26.47	-47.9	-50.6	17.2	0.00e+00	0	39	0	563085312	66	5174
2026-01-03 22:28:05.28	99.16	26.40	-47.5	-50.0	17.7	0.00e+00	0	39	0	568328192	66	4851
2026-01-03 22:28:08.15	100.03	26.34	-47.3	-49.8	17.9	0.00e+00	0	39	0	574619648	66	4756
2026-01-03 22:28:11.33	100.99	26.26	-47.8	-50.4	17.3	0.00e+00	0	39	0	579862528	66	5092
2026-01-03 22:28:14.27	101.88	26.17	-47.6	-50.2	17.6	0.00e+00	0	39	0	585105408	66	4937
2026-01-03 22:28:17.61	102.88	26.07	-47.6	-50.2	17.6	0.00e+00	0	39	0	591396864	66	4983
2026-01-03 22:28:20.55	103.75	25.98	-47.3	-49.8	18.1	0.00e+00	0	39	0	597688320	66	4732
2026-01-03 22:28:23.79	104.71	25.86	-47.1	-49.6	18.2	0.00e+00	0	39	0	603979776	65	4881
2026-01-03 22:28:26.66	105.55	25.76	-46.8	-49.2	18.6	0.00e+00	0	39	0	609222656	65	4653
2026-01-03 22:28:29.95	106.51	25.63	-46.7	-49.1	18.7	0.00e+00	0	39	0	615514112	65	4607
2026-01-03 22:28:32.67	107.30	25.51	-46.4	-48.8	19.0	0.00e+00	0	39	0	619708416	64	4719
2026-01-03 22:28:35.96	108.25	25.37	-46.9	-49.3	18.5	0.00e+00	0	39	0	625999872	64	5012
2026-01-03 22:28:38.78	109.05	25.24	-46.4	-48.7	19.0	0.00e+00	0	39	0	631242752	64	4690
2026-01-03 22:28:42.25	110.03	25.07	-46.6	-48.9	18.8	0.00e+00	0	39	0	638582784	64	4791
2026-01-03 22:28:45.22	110.86	24.92	-46.9	-49.4	18.4	0.00e+00	0	39	0	643825664	64	5052
2026-01-03 22:28:48.23	111.69	24.77	-46.5	-48.8	18.9	0.00e+00	0	39	0	649068544	64	4757
2026-01-03 22:28:51.25	112.52	24.61	-46.3	-48.6	19.1	0.00e+00	0	39	0	655360000	64	4651
2026-01-03 22:28:54.35	113.36	24.44	-46.8	-49.2	18.6	0.00e+00	0	39	0	660602880	64	4932
2026-01-03 22:28:57.31	114.15	24.27	-47.3	-49.8	18.0	0.00e+00	0	39	0	665845760	65	5019
2026-01-03 22:29:00.84	115.09	24.06	-47.2	-49.7	17.9	0.00e+00	0	39	0	673185792	65	4952
2026-01-03 22:29:03.57	115.81	23.90	-47.1	-49.6	18.2	0.00e+00	0	39	0	678428672	65	4888
2026-01-03 22:29:06.87	116.66	23.70	-47.2	-49.7	18.1	0.00e+00	0	39	0	684720128	65	4951
2026-01-03 22:29:09.81	117.42	23.51	-47.3	-49.9	17.8	0.00e+00	0	39	0	689963008	65	5042
2026-01-03 22:29:13.79	118.42	23.25	-47.2	-49.8	17.9	0.00e+00	0	39	0	697303040	65	5001
2026-01-03 22:29:16.52	119.10	23.08	-47.2	-49.7	18.0	0.00e+00	0	39	0	702545920	65	4938
2026-01-03 22:29:20.40	120.06	22.82	-47.5	-50.0	17.9	0.00e+00	0	39	0	709885952	65	5149
2026-01-03 22:29:23.14	120.72	22.63	-47.1	-49.6	18.2	0.00e+00	0	39	0	715128832	65	4871
2026-01-03 22:29:27.67	121.80	22.32	-47.7	-50.2	17.8	0.00e+00	0	39	0	723517440	66	4929
2026-01-03 22:29:30.41	122.45	22.12	-47.1	-49.5	18.3	0.00e+00	0	39	0	728760320	66	4561
2026-01-03 22:29:34.15	123.31	21.86	-47.1	-49.6	18.1	0.00e+00	0	39	0	735051776	65	4895
2026-01-03 22:29:37.09	123.99	21.65	-47.0	-49.5	18.2	0.00e+00	0	39	0	741343232	65	4824
2026-01-03 22:29:40.10	124.66	21.43	-47.5	-50.1	17.7	0.00e+00	0	39	0	746586112	65	5162
2026-01-03 22:29:43.15	125.34	21.20	-48.6	-51.6	16.2	0.00e+00	0	39	0	751828992	67	5499
2026-01-03 22:29:46.53	126.08	20.95	-48.1	-50.9	17.0	0.00e+00	0	39	0	759169024	68	4769
2026-01-03 22:29:49.25	126.67	20.75	-48.1	-51.0	16.6	0.00e+00	0	39	0	763363328	67	5147
2026-01-03 22:29:52.55	127.37	20.50	-48.9	-51.9	16.0	0.00e+00	0	39	0	769654784	68	5381
2026-01-03 22:29:55.27	127.94	20.29	-48.1	-50.8	17.0	0.00e+00	0	39	0	774897664	68	4725
2026-01-03 22:29:58.56	128.62	20.04	-48.5	-51.4	16.5	0.00e+00	0	39	0	781189120	68	5057
2026-01-03 22:30:01.38	129.19	19.83	-48.0	-50.7	17.2	0.00e+00	0	39	0	786432000	68	4683
2026-01-03 22:30:04.80	129.87	19.56	-47.2	-49.6	18.1	0.00e+00	0	39	0	792723456	66	4650
2026-01-03 22:30:07.52	130.41	19.35	-48.1	-50.8	16.9	0.00e+00	0	39	0	797966336	66	5329
2026-01-03 22:30:10.81	131.05	19.10	-48.1	-50.9	17.0	0.00e+00	0	39	0	804257792	67	5059
2026-01-03 22:30:13.53	131.57	18.89	-47.8	-50.4	17.6	0.00e+00	0	39	0	809500672	67	4802
2026-01-03 22:30:16.83	132.20	18.63	-48.5	-51.3	16.8	0.00e+00	0	39	0	815792128	67	5319
2026-01-03 22:30:19.55	132.70	18.42	-48.2	-51.1	16.5	0.00e+00	0	39	0	821035008	68	4913
2026-01-03 22:30:22.85	133.31	18.16	-47.4	-49.9	17.7	0.00e+00	0	39	0	826277888	66	4811
2026-01-03 22:30:25.58	133.80	17.95	-47.5	-50.1	17.5	0.00e+00	0	39	0	831520768	66	4917
2026-01-03 22:30:28.87	134.38	17.69	-47.5	-50.1	17.4	0.00e+00	0	39	0	837812224	66	4915
2026-01-03 22:30:31.84	134.90	17.46	-47.2	-49.7	17.8	0.00e+00	0	39	0	844103680	66	4705
2026-01-03 22:30:35.59	135.55	17.16	-47.7	-50.3	17.5	0.00e+00	0	39	0	850395136	66	5027
2026-01-03 22:30:38.57	136.05	16.93	-47.7	-50.4	17.3	0.00e+00	0	39	0	856686592	66	5046
2026-01-03 22:30:41.60	136.55	16.69	-47.5	-50.1	17.6	0.00e+00	0	39	0	861929472	66	4922
2026-01-03 22:30:44.60	137.05	16.46	-47.1	-49.6	18.1	0.00e+00	0	39	0	867172352	66	4620
2026-01-03 22:30:47.61	137.53	16.22	-47.1	-49.7	17.7	0.00e+00	0	39	0	873463808	66	4658
2026-01-03 22:30:50.70	138.02	15.98	-47.2	-49.8	17.8	0.00e+00	0	39	0	878706688	66	4736
2026-01-03 22:30:53.66	138.49	15.75	-47.1	-49.6	18.1	0.00e+00	0	39	0	884998144	65	4882
2026-01-03 22:30:57.11	139.02	15.48	-46.8	-49.3	18.1	4.50e-06	0	39	0	891289600	64	5029
2026-01-03 22:31:00.02	139.46	15.26	-47.4	-49.9	17.9	0.00e+00	0	39	0	896532480	65	5062
2026-01-03 22:31:03.31	139.95	15.00	-47.6	-50.2	17.4	0.00e+00	0	39	0	902823936	66	4961
2026-01-03 22:31:06.03	140.35	14.79	-47.7	-50.4	17.2	0.00e+00	0	39	0	908066816	66	5069
2026-01-03 22:31:09.33	140.83	14.54	-47.8	-50.5	17.2	0.00e+00	0	39	0	914358272	66	5141
2026-01-03 22:31:12.06	141.22	14.33	-47.7	-50.4	17.2	3.80e-06	0	39	0	918552576	67	4777
2026-01-03 22:31:15.45	141.70	14.07	-47.7	-50.4	17.2	0.00e+00	0	39	0	924844032	67	4791
2026-01-03 22:31:18.17	142.07	13.86	-47.5	-50.2	17.4	0.00e+00	0	39	0	930086912	66	4940
2026-01-03 22:31:21.46	142.52	13.61	-47.6	-50.2	17.4	0.00e+00	0	39	0	936378368	66	4969
2026-01-03 22:31:24.19	142.89	13.41	-48.0	-50.9	16.9	0.00e+00	0	39	0	941621248	66	5341
2026-01-03 22:31:27.59	143.34	13.15	-48.6	-51.6	16.1	0.00e+00	0	39	0	947912704	67	5472
2026-01-03 22:31:30.38	143.70	12.94	-48.8	-51.9	16.0	0.00e+00	0	39	0	953155584	68	5345
2026-01-03 22:31:34.02	144.17	12.67	-48.7	-51.8	16.0	0.00e+00	0	39	0	960495616	68	5294
2026-01-03 22:31:36.74	144.51	12.47	-48.7	-51.8	16.0	0.00e+00	0	39	0	965738496	68	5303
2026-01-03 22:31:40.04	144.92	12.22	-49.0	-52.0	16.0	0.00e+00	0	39	0	970981376	69	5145
2026-01-03 22:31:42.76	145.26	12.02	-49.0	-52.1	15.9	0.00e+00	0	39	0	976224256	69	5189
2026-01-03 22:31:46.49	145.71	11.75	-49.1	-52.4	15.5	0.00e+00	0	39	0	983564288	69	5400
2026-01-03 22:31:49.21	146.03	11.55	-49.1	-52.4	15.5	0.00e+00	0	39	0	988807168	69	5367
2026-01-03 22:31:52.51	146.42	11.31	-49.2	-52.4	15.6	0.00e+00	0	39	0	995098624	69	5374
2026-01-03 22:31:55.23	146.73	11.11	-49.5	-52.7	15.6	0.00e+00	0	39	0	1000341504	69	5555
2026-01-03 22:31:58.65	147.12	10.87	-49.8	-53.0	15.4	0.00e+00	0	39	0	1006632960	70	5438
2026-01-03 22:32:01.69	147.46	10.65	-49.7	-53.0	15.4	0.00e+00	0	39	0	1011875840	70	5412
2026-01-03 22:32:04.98	147.83	10.42	-49.5	-52.7	15.7	0.00e+00	0	39	0	1018167296	70	5223
2026-01-03 22:32:07.70	148.12	10.22	-49.3	-52.3	16.1	0.00e+00	0	39	0	1023410176	70	5024
2026-01-03 22:32:11.11	148.49	9.98	-49.0	-51.8	16.5	0.00e+00	0	39	0	1029701632	69	5020
2026-01-03 22:32:13.89	148.78	9.79	-48.7	-51.5	16.7	0.00e+00	0	39	0	1034944512	69	4869
2026-01-03 22:32:17.25	149.13	9.55	-48.9	-51.8	16.5	0.00e+00	0	39	0	1041235968	69	4990
2026-01-03 22:32:19.97	149.41	9.36	-49.2	-52.2	16.2	0.00e+00	0	39	0	1046478848	69	5243
2026-01-03 22:32:23.26	149.75	9.13	-49.4	-52.6	15.7	0.00e+00	0	39	0	1052770304	69	5488
2026-01-03 22:32:26.26	150.05	8.93	-54.4	-69.4	3.8	1.20e+00	0	39	104	1058013184	79	21306
2026-01-03 22:32:29.56	150.37	8.70	-54.7	-69.9	3.8	1.49e+00	0	39	104	1058013184	80	21306
2026-01-03 22:32:32.28	150.64	8.52	-54.7	-69.8	3.8	1.49e+00	0	39	104	1058013184	80	21135
2026-01-03 22:32:35.64	150.96	8.29	-54.8	-69.9	3.8	1.49e+00	0	39	104	1058013184	80	21476
2026-01-03 22:32:38.42	151.22	8.10	-55.0	-70.0	3.8	1.49e+00	0	39	104	1058013184	80	21688
2026-01-03 22:32:41.88	151.54	7.87	-54.8	-69.9	3.8	1.49e+00	0	39	104	1058013184	80	21388
2026-01-03 22:32:44.60	151.80	7.69	-54.9	-70.0	3.8	1.49e+00	0	39	104	1058013184	80	21657
2026-01-03 22:32:47.91	152.10	7.47	-54.7	-70.1	3.8	1.49e+00	0	39	104	1058013184	80	21830
2026-01-03 22:32:50.63	152.34	7.29	-54.7	-70.0	3.8	1.49e+00	0	39	104	1058013184	80	21718
2026-01-03 22:32:53.93	152.63	7.07	-54.6	-70.0	3.8	1.49e+00	0	39	104	1058013184	80	21569
2026-01-03 22:32:56.65	152.87	6.89	-54.7	-70.1	3.8	1.49e+00	0	39	104	1058013184	80	21824
2026-01-03 22:32:59.95	153.15	6.68	-54.6	-70.0	3.8	1.49e+00	0	39	104	1058013184	80	21629
2026-01-03 22:33:02.68	153.39	6.50	-54.5	-69.9	3.8	1.49e+00	0	39	104	1058013184	80	21309
2026-01-03 22:33:05.98	153.66	6.29	-54.7	-70.0	3.8	1.49e+00	0	39	104	1058013184	80	21755
2026-01-03 22:33:08.70	153.89	6.11	-54.6	-70.0	3.8	1.49e+00	0	39	104	1058013184	80	21569
