passes_logs/2026/01/03/T1/T1__20260103_064747_KHAYYAM_rec.log

#Pass ID: 20260103_064747_KHAYYAM
#Satellite: KHAYYAM
#Configuration: KHAYYAM_480M
#almurnet v.1.7.20251203
#Start time: 2026-01-03 06:47:49

#Version: 2.0.20230620
#Station: T1
#Location: 37.570604 lon 55.790049 lat
#TLE: 1 53370U 22096A   26002.29060447  .00010341  00000+0  42111-3 0  9999
#TLE: 2 53370  97.3571 269.5268 0001216  80.5229 279.6146 15.24671812189309

#Time	Az	El	Level	Level2	SNR	BER	BlckErr	Temp	State	Recorded	gain1	gain2
2026-01-03 06:47:49.02	121.73	5.15	-55.9	-60.6	3.6	0.00e+00	0	41	0	0	83	24755
2026-01-03 06:47:51.03	121.52	5.29	-55.9	-60.6	3.7	0.00e+00	0	41	104	0	82	26216
2026-01-03 06:47:53.03	121.30	5.44	-56.0	-60.7	3.7	0.00e+00	0	42	104	0	82	26375
2026-01-03 06:47:55.04	121.09	5.58	-56.0	-60.7	3.7	0.00e+00	0	42	104	0	82	26488
2026-01-03 06:47:57.05	120.87	5.73	-56.0	-60.7	3.7	0.00e+00	0	42	104	0	82	26381
2026-01-03 06:47:59.06	120.64	5.88	-56.0	-60.7	3.7	0.00e+00	0	42	104	0	82	26400
2026-01-03 06:48:01.07	120.42	6.03	-56.0	-60.7	3.7	0.00e+00	0	43	104	0	82	26373
2026-01-03 06:48:03.08	120.19	6.18	-55.9	-60.6	3.7	0.00e+00	0	43	104	0	82	26160
2026-01-03 06:48:05.08	119.96	6.33	-56.0	-60.6	3.7	0.00e+00	0	43	104	0	82	26182
2026-01-03 06:48:07.09	119.72	6.48	-56.0	-60.7	3.7	0.00e+00	0	43	104	0	82	26334
2026-01-03 06:48:09.10	119.48	6.63	-56.0	-60.7	3.7	0.00e+00	0	43	104	0	82	26404
2026-01-03 06:48:11.11	119.24	6.78	-55.9	-60.6	3.7	0.00e+00	0	43	104	0	82	26180
2026-01-03 06:48:13.12	118.99	6.94	-56.0	-60.7	3.7	0.00e+00	0	43	104	0	82	26449
2026-01-03 06:48:15.12	118.75	7.09	-56.0	-60.7	3.7	0.00e+00	0	44	104	0	82	26341
2026-01-03 06:48:17.13	118.50	7.25	-55.9	-60.6	3.7	0.00e+00	0	44	104	0	82	26244
2026-01-03 06:48:19.14	118.24	7.40	-56.1	-60.8	3.7	0.00e+00	0	43	104	0	82	26747
2026-01-03 06:48:21.14	117.98	7.56	-56.0	-60.6	3.7	0.00e+00	0	44	104	0	82	26276
2026-01-03 06:48:23.15	117.72	7.72	-55.9	-60.6	3.7	0.00e+00	0	44	104	0	82	26266
2026-01-03 06:48:25.16	117.45	7.87	-56.0	-60.7	3.7	0.00e+00	0	44	104	0	82	26473
2026-01-03 06:48:27.17	117.18	8.03	-56.0	-60.6	3.7	0.00e+00	0	44	104	0	82	26246
2026-01-03 06:48:29.18	116.91	8.19	-56.0	-60.7	3.7	0.00e+00	0	44	104	0	82	26359
2026-01-03 06:48:31.19	116.63	8.36	-56.0	-60.7	3.7	0.00e+00	0	44	104	0	82	26331
2026-01-03 06:48:33.19	116.35	8.52	-56.0	-60.7	3.7	0.00e+00	0	44	104	0	82	26422
2026-01-03 06:48:35.20	116.07	8.68	-56.1	-60.8	3.7	0.00e+00	0	44	104	0	82	26613
2026-01-03 06:48:37.21	115.78	8.84	-56.0	-60.7	3.7	0.00e+00	0	44	104	0	82	26504
2026-01-03 06:48:39.22	115.48	9.01	-56.0	-60.7	3.7	0.00e+00	0	44	104	0	82	26400
2026-01-03 06:48:41.32	115.17	9.18	-56.1	-60.9	3.7	0.00e+00	0	45	104	0	82	26935
2026-01-03 06:48:43.41	114.86	9.35	-56.0	-60.8	3.7	0.00e+00	0	45	104	0	82	26663
2026-01-03 06:48:45.49	114.54	9.53	-55.8	-60.7	3.7	0.00e+00	0	45	104	0	82	26412
2026-01-03 06:48:47.70	114.19	9.71	-55.9	-60.8	3.6	0.00e+00	0	45	104	0	82	26629
2026-01-03 06:48:49.71	113.88	9.88	-55.9	-60.7	3.7	0.00e+00	0	45	104	0	82	26364
2026-01-03 06:48:51.72	113.56	10.05	-55.9	-60.7	3.7	0.00e+00	0	45	104	0	82	26289
2026-01-03 06:48:53.73	113.23	10.22	-56.1	-60.7	3.7	0.00e+00	0	45	104	0	82	26348
2026-01-03 06:48:55.74	112.90	10.39	-56.1	-60.7	3.7	0.00e+00	0	45	104	0	83	25015
2026-01-03 06:48:57.75	112.56	10.57	-56.2	-60.9	3.7	0.00e+00	0	45	104	0	83	25457
2026-01-03 06:48:59.80	112.21	10.74	-56.2	-60.9	3.7	0.00e+00	0	45	104	0	83	25464
2026-01-03 06:49:01.80	111.87	10.92	-56.1	-60.8	3.7	0.00e+00	0	45	104	0	83	25201
2026-01-03 06:49:03.81	111.52	11.09	-55.9	-60.7	3.7	0.00e+00	0	45	104	0	83	25074
2026-01-03 06:49:05.82	111.16	11.27	-55.9	-60.8	3.7	0.00e+00	0	45	104	0	83	25138
2026-01-03 06:49:07.82	110.80	11.44	-55.8	-60.6	3.7	0.00e+00	0	45	104	0	83	24725
2026-01-03 06:49:09.83	110.43	11.62	-56.2	-60.9	3.7	0.00e+00	0	45	104	0	83	25485
2026-01-03 06:49:12.11	110.01	11.82	-56.2	-60.9	3.7	0.00e+00	0	45	104	0	83	25401
2026-01-03 06:49:14.11	109.63	12.00	-56.2	-60.9	3.7	0.00e+00	0	46	104	0	83	25624
2026-01-03 06:49:16.12	109.25	12.18	-56.2	-60.9	3.7	0.00e+00	0	46	104	0	83	25454
2026-01-03 06:49:18.17	108.85	12.36	-56.2	-60.8	3.7	0.00e+00	0	46	104	0	83	25311
2026-01-03 06:49:20.13	108.46	12.54	-56.3	-61.0	3.7	0.00e+00	0	45	104	0	83	25704
2026-01-03 06:49:22.26	108.04	12.73	-56.4	-61.1	3.7	0.00e+00	0	46	104	0	83	26050
2026-01-03 06:49:24.27	107.63	12.91	-56.4	-61.0	3.7	0.00e+00	0	46	104	0	83	25958
2026-01-03 06:49:26.53	107.16	13.12	-56.2	-61.0	3.7	0.00e+00	0	46	104	0	83	25766
2026-01-03 06:49:28.54	106.74	13.30	-56.2	-61.0	3.7	0.00e+00	0	46	104	0	83	25701
2026-01-03 06:49:30.54	106.31	13.49	-56.0	-60.8	3.7	0.00e+00	0	46	104	0	83	25145
2026-01-03 06:49:32.55	105.88	13.67	-56.2	-60.9	3.7	0.00e+00	0	46	104	0	83	25611
2026-01-03 06:49:34.63	105.42	13.86	-56.1	-60.9	3.7	0.00e+00	0	46	104	0	83	25498
2026-01-03 06:49:36.63	104.97	14.05	-56.1	-60.9	3.7	0.00e+00	0	46	104	0	83	25652
2026-01-03 06:49:38.76	104.49	14.24	-56.4	-61.0	3.7	0.00e+00	0	46	104	0	83	25894
2026-01-03 06:49:40.77	104.03	14.43	-56.4	-61.0	3.7	0.00e+00	0	46	104	0	83	25935
2026-01-03 06:49:42.78	103.56	14.61	-56.4	-61.1	3.7	0.00e+00	0	46	104	0	83	25984
2026-01-03 06:49:44.78	103.08	14.80	-56.4	-61.1	3.7	0.00e+00	0	46	104	0	83	26112
2026-01-03 06:49:46.79	102.60	14.98	-56.4	-61.1	3.7	0.00e+00	0	46	104	0	83	25997
2026-01-03 06:49:48.80	102.11	15.17	-56.4	-61.1	3.7	0.00e+00	0	46	104	0	83	26021
2026-01-03 06:49:50.78	101.61	15.35	-56.3	-61.0	3.7	0.00e+00	0	46	104	0	83	25704
2026-01-03 06:49:53.11	101.03	15.57	-56.5	-61.1	3.7	0.00e+00	0	46	104	0	83	26141
2026-01-03 06:49:55.12	100.51	15.76	-56.4	-61.1	3.7	0.00e+00	0	46	104	0	83	26019
2026-01-03 06:49:57.12	99.99	15.94	-56.3	-61.0	3.7	0.00e+00	0	46	104	0	83	25894
2026-01-03 06:49:59.12	99.46	16.13	-56.3	-61.1	3.7	0.00e+00	0	46	104	0	83	26114
2026-01-03 06:50:01.10	98.93	16.31	-56.4	-61.1	3.7	0.00e+00	0	46	104	0	83	26067
2026-01-03 06:50:03.10	98.39	16.49	-56.1	-60.7	3.7	0.00e+00	0	46	104	0	83	25066
2026-01-03 06:50:05.11	97.84	16.68	-55.9	-60.6	3.7	0.00e+00	0	46	104	0	83	24534
2026-01-03 06:50:07.15	97.27	16.86	-56.2	-60.8	3.7	0.00e+00	0	46	104	0	83	25180
2026-01-03 06:50:09.15	96.70	17.05	-56.5	-61.2	3.7	0.00e+00	0	46	104	0	83	26405
2026-01-03 06:50:11.16	96.12	17.23	-56.1	-60.7	3.7	0.00e+00	0	46	104	0	83	25010
2026-01-03 06:50:13.27	95.50	17.42	-56.1	-60.7	3.7	0.00e+00	0	46	104	0	83	25032
2026-01-03 06:50:15.38	94.88	17.61	-56.2	-60.8	3.7	0.00e+00	0	46	104	0	83	25209
2026-01-03 06:50:17.60	94.21	17.80	-56.1	-60.7	3.7	0.00e+00	0	46	104	0	83	24981
2026-01-03 06:50:19.61	93.60	17.98	-56.0	-60.7	3.7	0.00e+00	0	46	104	0	83	24919
2026-01-03 06:50:21.61	92.98	18.16	-56.2	-60.7	3.7	0.00e+00	0	46	104	0	83	25088
2026-01-03 06:50:23.62	92.35	18.33	-55.9	-60.6	3.7	0.00e+00	0	46	104	0	83	24526
2026-01-03 06:50:25.62	91.71	18.50	-56.0	-60.6	3.7	0.00e+00	0	46	104	0	83	24630
2026-01-03 06:50:27.63	91.06	18.68	-56.0	-60.5	3.7	0.00e+00	0	46	104	0	83	24272
2026-01-03 06:50:29.68	90.40	18.85	-56.1	-60.5	3.7	0.00e+00	0	46	104	0	83	24349
2026-01-03 06:50:31.75	89.71	19.02	-55.6	-59.8	3.7	0.00e+00	0	46	104	0	83	22471
2026-01-03 06:50:33.76	89.04	19.19	-55.3	-59.7	3.7	0.00e+00	0	46	104	0	82	23658
2026-01-03 06:50:35.76	88.36	19.35	-55.9	-60.6	3.7	0.00e+00	0	47	104	0	82	26169
2026-01-03 06:50:37.77	87.67	19.51	-54.9	-58.7	3.7	0.00e+00	0	46	104	0	81	22245
2026-01-03 06:50:39.78	86.97	19.67	-54.5	-58.6	3.7	0.00e+00	0	47	104	0	81	21889
2026-01-03 06:50:41.78	86.27	19.82	-54.9	-59.6	3.7	0.00e+00	0	46	104	0	81	24622
2026-01-03 06:50:43.79	85.56	19.97	-55.7	-60.8	3.7	0.00e+00	0	46	104	0	81	28311
2026-01-03 06:50:46.13	84.71	20.15	-55.8	-60.9	3.7	0.00e+00	0	46	104	0	82	26946
2026-01-03 06:50:48.14	83.98	20.29	-55.8	-60.8	3.7	0.00e+00	0	46	104	0	82	26774
2026-01-03 06:50:50.14	83.25	20.43	-55.4	-60.3	3.7	0.00e+00	0	46	104	0	82	25113
2026-01-03 06:50:52.13	82.51	20.57	-55.5	-60.4	3.7	0.00e+00	0	47	104	0	82	25413
2026-01-03 06:50:54.12	81.76	20.71	-55.8	-60.8	3.7	0.00e+00	0	46	104	0	82	26876
2026-01-03 06:50:56.13	81.00	20.84	-55.9	-60.8	3.7	0.00e+00	0	46	104	0	82	26659
2026-01-03 06:50:58.14	80.23	20.96	-55.8	-60.9	3.7	0.00e+00	0	46	104	0	82	27096
2026-01-03 06:51:00.14	79.45	21.09	-56.6	-61.2	3.7	0.00e+00	0	46	104	0	83	26339
2026-01-03 06:51:02.13	78.68	21.20	-56.4	-61.1	3.7	0.00e+00	0	46	104	0	83	26238
2026-01-03 06:51:04.13	77.89	21.32	-56.3	-61.1	3.7	0.00e+00	0	47	104	0	83	26201
2026-01-03 06:51:06.14	77.09	21.43	-56.6	-61.1	3.7	0.00e+00	0	46	104	0	83	26078
2026-01-03 06:51:08.14	76.29	21.53	-56.2	-61.1	3.7	0.00e+00	0	46	104	0	83	26033
2026-01-03 06:51:10.14	75.49	21.63	-56.3	-61.2	3.7	0.00e+00	0	46	104	0	83	26288
2026-01-03 06:51:12.15	74.67	21.73	-56.9	-61.4	3.7	0.00e+00	0	47	104	0	84	25486
2026-01-03 06:51:14.15	73.86	21.82	-56.7	-61.2	3.7	0.00e+00	0	46	104	0	84	24888
2026-01-03 06:51:16.16	73.03	21.90	-56.5	-61.0	3.7	0.00e+00	0	47	104	0	84	24269
2026-01-03 06:51:18.17	72.20	21.98	-56.5	-61.1	3.7	0.00e+00	0	46	104	0	84	24670
2026-01-03 06:51:20.17	71.37	22.06	-56.2	-60.3	3.7	0.00e+00	0	46	104	0	84	22520
2026-01-03 06:51:22.18	70.53	22.13	-56.4	-60.7	3.7	0.00e+00	0	47	104	0	84	23589
2026-01-03 06:51:24.30	69.64	22.19	-56.4	-60.8	3.7	0.00e+00	0	47	104	0	84	23881
2026-01-03 06:51:26.67	68.64	22.26	-56.7	-61.4	3.7	0.00e+00	0	47	104	0	84	25430
2026-01-03 06:51:28.71	67.77	22.31	-56.8	-61.4	3.7	0.00e+00	0	46	104	0	84	25568
2026-01-03 06:51:30.71	66.92	22.36	-56.9	-61.4	3.7	0.00e+00	0	46	104	0	84	25419
2026-01-03 06:51:32.72	66.07	22.39	-56.5	-61.3	3.7	0.00e+00	0	47	104	0	84	25166
2026-01-03 06:51:34.73	65.21	22.43	-56.6	-61.4	3.7	0.00e+00	0	46	104	0	84	25438
2026-01-03 06:51:36.72	64.35	22.45	-56.5	-60.8	3.7	0.00e+00	0	46	104	0	84	23881
2026-01-03 06:51:38.73	63.49	22.47	-56.5	-61.0	3.7	0.00e+00	0	47	104	0	84	24504
2026-01-03 06:51:40.73	62.63	22.48	-56.6	-61.2	3.7	0.00e+00	0	47	104	0	84	24937
2026-01-03 06:51:42.74	61.77	22.49	-56.4	-61.0	3.7	0.00e+00	0	47	104	0	84	24420
2026-01-03 06:51:44.74	60.91	22.49	-56.3	-61.2	3.7	0.00e+00	0	46	104	0	84	24874
2026-01-03 06:51:46.75	60.05	22.49	-56.5	-61.2	3.7	0.00e+00	0	47	104	0	84	24878
2026-01-03 06:51:48.88	59.13	22.47	-55.6	-59.8	3.7	0.00e+00	0	47	104	0	83	22478
2026-01-03 06:51:50.95	58.24	22.46	-56.1	-60.3	3.7	0.00e+00	0	46	104	0	83	23943
2026-01-03 06:51:52.96	57.38	22.43	-55.9	-60.0	3.7	0.00e+00	0	47	104	0	83	23009
2026-01-03 06:51:54.97	56.52	22.40	-55.9	-59.7	3.7	0.00e+00	0	46	104	0	83	22318
2026-01-03 06:51:56.97	55.67	22.36	-56.5	-61.0	3.7	0.00e+00	0	47	104	0	83	25943
2026-01-03 06:51:58.97	54.82	22.32	-56.4	-61.0	3.7	0.00e+00	0	47	104	0	83	25908
2026-01-03 06:52:00.98	53.97	22.27	-56.3	-61.2	3.7	0.00e+00	0	47	104	0	83	26402
2026-01-03 06:52:02.99	53.12	22.22	-56.2	-60.9	3.7	0.00e+00	0	47	104	0	83	25552
2026-01-03 06:52:05.00	52.28	22.16	-56.5	-61.3	3.7	0.00e+00	0	47	104	0	83	26858
2026-01-03 06:52:07.29	51.32	22.08	-56.2	-61.0	3.7	0.00e+00	0	47	104	0	83	25932
2026-01-03 06:52:09.30	50.49	22.01	-56.0	-60.6	3.7	0.00e+00	0	47	104	0	83	24562
2026-01-03 06:52:11.30	49.66	21.93	-56.5	-61.2	3.7	0.00e+00	0	47	104	0	83	26303
2026-01-03 06:52:13.31	48.83	21.85	-56.2	-60.9	3.7	0.00e+00	0	47	104	0	83	25420
2026-01-03 06:52:15.31	48.02	21.76	-56.0	-60.4	3.7	0.00e+00	0	47	104	0	83	24208
2026-01-03 06:52:17.39	47.17	21.67	-56.2	-60.7	3.7	0.00e+00	0	47	104	0	83	24894
2026-01-03 06:52:19.62	46.28	21.56	-56.2	-60.8	3.7	0.00e+00	0	47	104	0	83	25367
2026-01-03 06:52:21.62	45.48	21.45	-55.5	-59.3	3.7	0.00e+00	0	47	104	0	82	22607
2026-01-03 06:52:23.63	44.68	21.34	-55.1	-58.8	3.7	0.00e+00	0	47	104	0	81	22428
2026-01-03 06:52:25.64	43.89	21.23	-55.5	-59.6	3.7	0.00e+00	0	47	104	0	81	24658
2026-01-03 06:52:27.61	43.13	21.11	-55.6	-59.8	3.7	0.00e+00	0	47	104	0	82	23913
2026-01-03 06:52:29.61	42.35	20.99	-55.5	-59.7	3.7	0.00e+00	0	47	104	0	82	23481
2026-01-03 06:52:31.61	41.59	20.87	-56.5	-61.2	3.7	0.00e+00	0	46	104	0	83	26301
2026-01-03 06:52:33.61	40.83	20.74	-56.4	-60.9	3.7	0.00e+00	0	47	104	0	83	25458
2026-01-03 06:52:35.62	40.08	20.60	-55.9	-59.8	3.7	0.00e+00	0	47	104	0	83	22488
2026-01-03 06:52:37.63	39.33	20.47	-55.6	-59.5	3.7	0.00e+00	0	47	104	0	83	21828
2026-01-03 06:52:39.63	38.60	20.33	-54.4	-57.5	3.8	0.00e+00	0	47	104	0	80	20497
2026-01-03 06:52:41.64	37.87	20.18	-54.9	-58.1	3.7	0.00e+00	0	47	104	0	80	22002
2026-01-03 06:52:43.66	37.14	20.03	-53.6	-56.3	3.7	0.00e+00	0	47	104	0	79	18994
2026-01-03 06:52:46.11	36.27	19.85	-52.5	-54.9	3.6	0.00e+00	0	47	104	0	76	19203
2026-01-03 06:52:48.47	35.45	19.67	-54.8	-58.7	3.7	0.00e+00	0	47	104	0	80	23684
2026-01-03 06:52:50.51	34.74	19.51	-54.9	-59.1	3.7	0.00e+00	0	47	104	0	80	24766
2026-01-03 06:52:52.58	34.04	19.35	-55.4	-59.6	3.7	0.00e+00	0	47	104	0	81	24746
2026-01-03 06:52:54.59	33.36	19.18	-55.1	-59.3	3.7	0.00e+00	0	47	104	0	82	22403
2026-01-03 06:52:56.59	32.69	19.02	-52.2	-54.9	3.7	0.00e+00	0	47	104	0	76	19250
2026-01-03 06:52:58.53	32.06	18.86	-52.0	-54.4	3.7	0.00e+00	0	47	104	0	75	19118
2026-01-03 06:53:00.53	31.41	18.69	-55.2	-58.9	3.7	0.00e+00	0	47	104	0	80	23999
2026-01-03 06:53:02.54	30.76	18.52	-56.0	-60.5	3.7	0.00e+00	0	47	104	0	82	25700
2026-01-03 06:53:04.54	30.13	18.35	-56.1	-60.8	3.7	0.00e+00	0	47	104	0	82	26641
2026-01-03 06:53:06.55	29.51	18.18	-55.6	-60.6	3.7	0.00e+00	0	47	104	0	82	26176
2026-01-03 06:53:08.55	28.89	18.00	-55.6	-60.0	3.7	0.00e+00	0	47	104	0	82	24326
2026-01-03 06:53:10.56	28.28	17.82	-55.2	-58.9	3.7	0.00e+00	0	47	104	0	81	22805
2026-01-03 06:53:12.56	27.68	17.65	-54.2	-58.5	3.7	0.00e+00	0	47	104	0	80	23119
2026-01-03 06:53:14.57	27.09	17.47	-53.3	-58.0	3.7	0.00e+00	0	47	104	0	78	24302
2026-01-03 06:53:16.58	26.50	17.29	-53.1	-57.6	3.7	0.00e+00	0	47	104	0	78	23396
2026-01-03 06:53:18.58	25.93	17.11	-52.7	-57.1	3.7	0.00e+00	0	47	104	0	77	23303
2026-01-03 06:53:20.59	25.36	16.93	-53.9	-58.5	3.7	0.00e+00	0	47	104	0	78	25938
2026-01-03 06:53:22.59	24.80	16.75	-53.5	-58.0	3.7	0.00e+00	0	47	104	0	78	24420
2026-01-03 06:53:24.60	24.25	16.56	-54.9	-60.0	3.7	0.00e+00	0	47	104	0	80	27396
2026-01-03 06:53:26.61	23.71	16.38	-55.5	-60.5	3.7	0.00e+00	0	47	104	0	81	27217
2026-01-03 06:53:28.62	23.17	16.20	-55.4	-60.2	3.7	0.00e+00	0	47	104	0	81	26389
2026-01-03 06:53:30.61	22.65	16.01	-54.2	-58.8	3.7	0.00e+00	0	47	104	0	80	23900
2026-01-03 06:53:32.80	22.08	15.81	-54.2	-58.3	3.7	0.00e+00	0	47	104	0	79	23920
2026-01-03 06:53:34.95	21.53	15.61	-54.6	-59.4	3.7	0.00e+00	0	47	104	0	80	25449
2026-01-03 06:53:37.11	20.99	15.42	-55.1	-59.4	3.7	0.00e+00	0	47	104	0	80	25532
2026-01-03 06:53:39.29	20.45	15.21	-54.3	-58.2	3.7	0.00e+00	0	47	104	0	80	22158
2026-01-03 06:53:41.50	19.91	15.01	-53.2	-56.9	3.7	0.00e+00	0	47	104	0	78	21474
2026-01-03 06:53:44.06	19.30	14.78	-51.9	-56.2	3.7	0.00e+00	0	47	104	0	75	23595
2026-01-03 06:53:46.07	18.83	14.59	-52.5	-57.6	3.7	0.00e+00	0	47	104	0	75	27714
2026-01-03 06:53:48.07	18.37	14.41	-54.7	-59.7	3.7	0.00e+00	0	47	104	0	80	26362
2026-01-03 06:53:50.16	17.89	14.22	-53.8	-58.8	3.7	0.00e+00	0	47	104	0	78	26714
2026-01-03 06:53:52.18	17.44	14.03	-55.4	-59.8	3.7	0.00e+00	0	47	104	0	81	25366
2026-01-03 06:53:54.30	16.97	13.84	-56.3	-60.5	3.7	0.00e+00	0	47	104	0	83	24263
2026-01-03 06:53:56.51	16.50	13.64	-56.5	-61.1	3.7	0.00e+00	0	47	104	0	83	26158
2026-01-03 06:53:58.76	16.02	13.43	-55.7	-60.5	3.7	0.00e+00	0	46	104	0	81	27513
2026-01-03 06:54:00.86	15.57	13.24	-54.2	-59.6	3.7	0.00e+00	0	47	104	0	79	27541
2026-01-03 06:54:02.87	15.16	13.06	-53.7	-59.4	3.7	0.00e+00	0	47	104	0	79	26979
2026-01-03 06:54:04.88	14.75	12.88	-53.2	-59.1	3.7	0.00e+00	0	47	104	0	78	27722
2026-01-03 06:54:07.13	14.30	12.68	-51.9	-57.6	3.7	0.00e+00	0	47	104	0	75	27741
2026-01-03 06:54:09.14	13.90	12.50	-52.4	-58.5	3.7	0.00e+00	0	47	104	0	75	30732
2026-01-03 06:54:11.06	13.53	12.32	-53.7	-59.3	3.7	0.00e+00	0	47	104	0	78	28193
2026-01-03 06:54:13.07	13.15	12.15	-54.9	-60.2	3.7	0.00e+00	0	47	104	0	80	27919
2026-01-03 06:54:15.16	12.75	11.96	-55.5	-60.4	3.7	0.00e+00	0	47	104	0	81	27109
2026-01-03 06:54:17.16	12.38	11.78	-54.3	-59.6	3.7	0.00e+00	0	47	104	0	80	26004
2026-01-03 06:54:19.15	12.02	11.61	-53.8	-59.1	3.7	0.00e+00	0	47	104	0	79	26046
2026-01-03 06:54:21.16	11.65	11.43	-53.7	-58.9	3.7	0.00e+00	0	47	104	0	78	26914
2026-01-03 06:54:23.16	11.30	11.26	-53.2	-58.7	3.7	0.00e+00	0	47	104	0	78	26489
2026-01-03 06:54:25.17	10.95	11.09	-53.1	-59.0	3.7	0.00e+00	0	47	104	0	77	29041
2026-01-03 06:54:27.18	10.60	10.91	-52.2	-57.9	3.7	0.00e+00	0	47	104	0	75	28586
2026-01-03 06:54:29.18	10.26	10.74	-51.7	-58.1	3.8	0.00e+00	0	47	104	0	74	31103
2026-01-03 06:54:31.19	9.93	10.57	-51.6	-58.2	3.8	0.00e+00	0	47	104	0	74	31349
2026-01-03 06:54:33.20	9.59	10.40	-52.1	-58.4	3.7	0.00e+00	0	47	104	0	75	30369
2026-01-03 06:54:35.31	9.25	10.22	-50.4	-57.0	3.9	0.00e+00	0	47	104	0	72	30807
2026-01-03 06:54:37.37	8.92	10.04	-51.1	-57.7	3.8	0.00e+00	0	47	104	0	72	33165
2026-01-03 06:54:39.71	8.55	9.85	-52.2	-58.7	3.7	0.00e+00	0	47	104	0	75	31277
2026-01-03 06:54:41.72	8.24	9.68	-52.7	-59.0	3.7	0.00e+00	0	47	104	0	76	30604
2026-01-03 06:54:43.72	7.94	9.51	-51.9	-58.3	3.7	0.00e+00	0	47	104	0	75	29846
2026-01-03 06:54:45.73	7.63	9.35	-51.1	-57.2	3.7	0.00e+00	0	47	104	0	73	29577
2026-01-03 06:54:47.74	7.34	9.18	-52.4	-58.4	3.7	0.00e+00	0	47	104	0	75	30176
2026-01-03 06:54:49.74	7.04	9.02	-51.6	-57.9	3.7	0.00e+00	0	47	104	0	74	30222
2026-01-03 06:54:51.75	6.75	8.86	-53.0	-58.8	3.7	0.00e+00	0	47	104	0	77	28249
2026-01-03 06:54:53.76	6.47	8.69	-54.6	-58.2	3.7	0.00e+00	0	47	104	0	81	21011
2026-01-03 06:54:55.77	6.19	8.53	-55.0	-59.7	3.7	0.00e+00	0	47	104	0	81	24840
2026-01-03 06:54:57.78	5.91	8.37	-56.4	-61.0	3.7	0.00e+00	0	47	104	0	83	25835
2026-01-03 06:54:59.79	5.64	8.21	-55.8	-60.7	3.7	0.00e+00	0	47	104	0	83	25049
2026-01-03 06:55:01.80	5.37	8.05	-56.3	-60.8	3.7	0.00e+00	0	47	104	0	83	25379
2026-01-03 06:55:03.81	5.10	7.89	-56.2	-60.7	3.7	0.00e+00	0	47	104	0	83	24873
2026-01-03 06:55:05.82	4.84	7.74	-57.1	-61.8	3.7	0.00e+00	0	47	104	0	85	25313
2026-01-03 06:55:07.83	4.58	7.58	-56.9	-61.9	3.7	0.00e+00	0	47	104	0	85	25605
2026-01-03 06:55:09.83	4.33	7.42	-57.6	-62.3	3.7	0.00e+00	0	47	104	0	86	25248
2026-01-03 06:55:11.85	4.07	7.27	-57.4	-62.0	3.7	0.00e+00	0	47	104	0	86	24406
2026-01-03 06:55:13.85	3.83	7.12	-56.2	-60.8	3.7	0.00e+00	0	47	104	0	84	23881
2026-01-03 06:55:15.86	3.58	6.96	-56.3	-60.6	3.7	0.00e+00	0	47	104	0	83	24797
2026-01-03 06:55:17.87	3.34	6.81	-55.8	-60.5	3.7	0.00e+00	0	47	104	0	83	24321
2026-01-03 06:55:19.88	3.10	6.66	-55.7	-60.4	3.7	0.00e+00	0	47	104	0	83	24046
2026-01-03 06:55:21.89	2.87	6.51	-55.7	-60.4	3.7	0.00e+00	0	47	104	0	83	24043
2026-01-03 06:55:23.89	2.64	6.36	-55.6	-60.3	3.7	0.00e+00	0	47	104	0	83	23896
2026-01-03 06:55:25.90	2.41	6.21	-55.6	-60.3	3.7	0.00e+00	0	47	104	0	83	23833
2026-01-03 06:55:27.91	2.18	6.06	-55.7	-60.4	3.7	0.00e+00	0	47	104	0	83	24108
2026-01-03 06:55:29.92	1.96	5.91	-55.9	-60.7	3.7	0.00e+00	0	47	104	0	83	24853
2026-01-03 06:55:31.93	1.74	5.77	-56.1	-60.9	3.7	0.00e+00	0	47	104	0	83	25387
2026-01-03 06:55:33.94	1.52	5.62	-55.8	-60.6	3.7	0.00e+00	0	47	104	0	83	24532
2026-01-03 06:55:35.95	1.31	5.47	-56.3	-61.0	3.7	0.00e+00	0	47	104	0	83	25936
2026-01-03 06:55:37.95	1.10	5.33	-56.4	-61.1	3.7	0.00e+00	0	47	104	0	83	26174
2026-01-03 06:55:39.96	0.89	5.19	-56.4	-61.1	3.7	0.00e+00	0	47	104	0	83	26182
2026-01-03 06:55:41.97	0.68	5.04	-56.4	-61.1	3.7	0.00e+00	0	47	104	0	83	26119
2026-01-03 06:55:43.98	0.48	4.90	-55.9	-60.7	3.7	0.00e+00	0	47	104	0	83	24871

#Closed at: 2026-01-03 06:55:44
#Recorded file [0 MB]: D:/Data/31040_260103_094749.dat