passes_logs/2025/01/18/SPB_Silybum_02/SPB_Silybum_02__20250118_023723_SUOMI_NPP_rec.log

#Pass ID: 20250118_023723_SUOMI NPP
#Satellite: SUOMI NPP
#Configuration: NPP
#Start time: 2025-01-18 02:37:24

#Version: 2.0.20230423
#Station: SPB_Silybum_02
#Location: 30.233357 lon 59.946436 lat
#TLE: 1 37849U 11061A   25017.17539025  .00000183  00000+0  10766-3 0  9991
#TLE: 2 37849  98.7449 318.1364 0001599  37.8052 322.3236 14.19539290685226

#Time	Az	El	Level	Level2	SNR	BER	Gain	Gain2
2025-01-18 02:37:26.16	13.92	4.14	
2025-01-18 02:37:27.38	13.82	4.21	
2025-01-18 02:37:28.60	13.71	4.27	
2025-01-18 02:37:29.82	13.60	4.34	
2025-01-18 02:37:31.04	13.50	4.41	
2025-01-18 02:37:32.25	13.39	4.48	
2025-01-18 02:37:33.47	13.28	4.55	
2025-01-18 02:37:34.69	13.18	4.62	
2025-01-18 02:37:35.91	13.07	4.68	
2025-01-18 02:37:37.12	12.96	4.75	
2025-01-18 02:37:38.34	12.85	4.82	
2025-01-18 02:37:39.56	12.74	4.89	
2025-01-18 02:37:40.78	12.63	4.96	
2025-01-18 02:37:42.00	12.52	5.03	
2025-01-18 02:37:43.21	12.41	5.10	
2025-01-18 02:37:44.43	12.29	5.17	
2025-01-18 02:37:45.65	12.18	5.24	
2025-01-18 02:37:46.87	12.07	5.30	
2025-01-18 02:37:48.09	11.95	5.37	
2025-01-18 02:37:49.30	11.84	5.44	
2025-01-18 02:37:50.52	11.73	5.51	
2025-01-18 02:37:51.74	11.61	5.58	
2025-01-18 02:37:52.96	11.49	5.65	
2025-01-18 02:37:54.18	11.38	5.72	
2025-01-18 02:37:55.39	11.26	5.79	
2025-01-18 02:37:56.61	11.14	5.86	
2025-01-18 02:37:57.83	11.02	5.93	
2025-01-18 02:37:59.05	10.90	6.00	
2025-01-18 02:38:00.26	10.78	6.07	
2025-01-18 02:38:01.48	10.66	6.14	
2025-01-18 02:38:02.70	10.54	6.21	
2025-01-18 02:38:03.92	10.42	6.28	
2025-01-18 02:38:05.14	10.30	6.35	
2025-01-18 02:38:06.35	10.18	6.42	
2025-01-18 02:38:07.57	10.05	6.49	
2025-01-18 02:38:08.79	9.93	6.56	
2025-01-18 02:38:10.01	9.81	6.63	
2025-01-18 02:38:11.23	9.68	6.70	
2025-01-18 02:38:12.44	9.55	6.77	
2025-01-18 02:38:13.66	9.43	6.85	
2025-01-18 02:38:14.88	9.30	6.92	
2025-01-18 02:38:16.10	9.17	6.99	
2025-01-18 02:38:17.31	9.05	7.06	
2025-01-18 02:38:18.53	8.92	7.13	
2025-01-18 02:38:19.75	8.79	7.20	
2025-01-18 02:38:20.97	8.66	7.27	
2025-01-18 02:38:22.19	8.52	7.34	
2025-01-18 02:38:23.40	8.39	7.41	
2025-01-18 02:38:24.62	8.26	7.48	
2025-01-18 02:38:25.84	8.13	7.56	
2025-01-18 02:38:27.06	7.99	7.63	
2025-01-18 02:38:28.28	7.86	7.70	
2025-01-18 02:38:29.49	7.73	7.77	
2025-01-18 02:38:30.71	7.59	7.84	
2025-01-18 02:38:31.93	7.45	7.91	
2025-01-18 02:38:33.15	7.32	7.99	
2025-01-18 02:38:34.37	7.18	8.06	
2025-01-18 02:38:35.58	7.04	8.13	
2025-01-18 02:38:36.80	6.90	8.20	
2025-01-18 02:38:38.02	6.76	8.27	
2025-01-18 02:38:39.24	6.62	8.34	
2025-01-18 02:38:40.45	6.48	8.42	
2025-01-18 02:38:41.67	6.34	8.49	
2025-01-18 02:38:42.89	6.19	8.56	
2025-01-18 02:38:44.11	6.05	8.63	
2025-01-18 02:38:45.33	5.91	8.70	
2025-01-18 02:38:46.54	5.76	8.77	
2025-01-18 02:38:47.76	5.62	8.85	
2025-01-18 02:38:48.98	5.47	8.92	
2025-01-18 02:38:50.20	5.32	8.99	
2025-01-18 02:38:51.42	5.17	9.06	
2025-01-18 02:38:52.63	5.03	9.14	
2025-01-18 02:38:53.85	4.88	9.21	
2025-01-18 02:38:55.07	4.73	9.28	
2025-01-18 02:38:56.29	4.58	9.35	
2025-01-18 02:38:57.50	4.43	9.42	
2025-01-18 02:38:58.72	4.27	9.50	
2025-01-18 02:38:59.94	4.12	9.57	
2025-01-18 02:39:01.16	3.96	9.64	
2025-01-18 02:39:02.38	3.81	9.71	
2025-01-18 02:39:03.59	3.66	9.79	
2025-01-18 02:39:04.81	3.50	9.86	
2025-01-18 02:39:06.03	3.34	9.93	
2025-01-18 02:39:07.25	3.18	10.00	
2025-01-18 02:39:08.47	3.02	10.07	
2025-01-18 02:39:09.68	2.87	10.15	
2025-01-18 02:39:10.90	2.70	10.22	
2025-01-18 02:39:12.12	2.54	10.29	
2025-01-18 02:39:13.34	2.38	10.36	
2025-01-18 02:39:14.56	2.22	10.44	
2025-01-18 02:39:15.77	2.05	10.51	
2025-01-18 02:39:16.99	1.89	10.58	
2025-01-18 02:39:18.21	1.72	10.65	
2025-01-18 02:39:19.43	1.56	10.72	
2025-01-18 02:39:20.64	1.39	10.80	
2025-01-18 02:39:21.86	1.22	10.87	
2025-01-18 02:39:23.08	1.05	10.94	
2025-01-18 02:39:24.30	0.88	11.01	
2025-01-18 02:39:25.52	0.71	11.08	
2025-01-18 02:39:26.73	0.54	11.16	
2025-01-18 02:39:27.95	0.37	11.23	
2025-01-18 02:39:29.17	0.20	11.30	
2025-01-18 02:39:30.39	0.02	11.37	
2025-01-18 02:39:31.61	359.85	11.44	
2025-01-18 02:39:32.82	359.67	11.52	
2025-01-18 02:39:34.04	359.50	11.59	
2025-01-18 02:39:35.26	359.32	11.66	
2025-01-18 02:39:36.48	359.14	11.73	
2025-01-18 02:39:37.69	358.96	11.80	
2025-01-18 02:39:38.91	358.78	11.87	
2025-01-18 02:39:40.13	358.60	11.94	
2025-01-18 02:39:41.35	358.42	12.02	
2025-01-18 02:39:42.57	358.24	12.09	
2025-01-18 02:39:43.78	358.05	12.16	
2025-01-18 02:39:45.00	357.87	12.23	
2025-01-18 02:39:46.22	357.68	12.30	
2025-01-18 02:39:47.44	357.50	12.37	
2025-01-18 02:39:48.66	357.31	12.44	
2025-01-18 02:39:49.87	357.12	12.51	
2025-01-18 02:39:51.09	356.93	12.58	
2025-01-18 02:39:52.31	356.74	12.65	
2025-01-18 02:39:53.53	356.55	12.72	
2025-01-18 02:39:54.75	356.36	12.79	
2025-01-18 02:39:55.96	356.17	12.86	
2025-01-18 02:39:57.18	355.97	12.93	
2025-01-18 02:39:58.40	355.78	13.00	
2025-01-18 02:39:59.62	355.58	13.07	
2025-01-18 02:40:00.83	355.39	13.14	
2025-01-18 02:40:02.05	355.19	13.21	
2025-01-18 02:40:03.27	354.99	13.28	
2025-01-18 02:40:04.49	354.79	13.35	
2025-01-18 02:40:05.71	354.59	13.42	
2025-01-18 02:40:06.92	354.39	13.49	
2025-01-18 02:40:08.14	354.19	13.56	
2025-01-18 02:40:09.36	353.98	13.62	
2025-01-18 02:40:10.58	353.78	13.69	
2025-01-18 02:40:11.80	353.57	13.76	
2025-01-18 02:40:13.01	353.37	13.83	
2025-01-18 02:40:14.23	353.16	13.90	
2025-01-18 02:40:15.45	352.95	13.96	
2025-01-18 02:40:16.67	352.74	14.03	
2025-01-18 02:40:17.88	352.53	14.10	
2025-01-18 02:40:19.10	352.32	14.17	
2025-01-18 02:40:20.32	352.11	14.23	
2025-01-18 02:40:21.54	351.90	14.30	
2025-01-18 02:40:22.76	351.68	14.37	
2025-01-18 02:40:23.97	351.47	14.43	
2025-01-18 02:40:25.19	351.25	14.50	
2025-01-18 02:40:26.41	351.03	14.56	
2025-01-18 02:40:27.63	350.82	14.63	
2025-01-18 02:40:28.85	350.60	14.69	
2025-01-18 02:40:30.06	350.38	14.76	
2025-01-18 02:40:31.28	350.16	14.82	
2025-01-18 02:40:32.50	349.94	14.89	
2025-01-18 02:40:33.72	349.71	14.95	
2025-01-18 02:40:34.94	349.49	15.02	
2025-01-18 02:40:36.15	349.27	15.08	
2025-01-18 02:40:37.37	349.04	15.14	
2025-01-18 02:40:38.59	348.81	15.21	
2025-01-18 02:40:39.81	348.58	15.27	
2025-01-18 02:40:41.02	348.36	15.33	
2025-01-18 02:40:42.24	348.13	15.39	
2025-01-18 02:40:43.46	347.90	15.45	
2025-01-18 02:40:44.68	347.66	15.52	
2025-01-18 02:40:45.90	347.43	15.58	
2025-01-18 02:40:47.11	347.20	15.64	
2025-01-18 02:40:48.33	346.96	15.70	
2025-01-18 02:40:49.55	346.73	15.76	
2025-01-18 02:40:50.77	346.49	15.82	
2025-01-18 02:40:51.99	346.25	15.88	
2025-01-18 02:40:53.20	346.02	15.94	
2025-01-18 02:40:54.42	345.78	16.00	
2025-01-18 02:40:55.64	345.54	16.05	
2025-01-18 02:40:56.86	345.30	16.11	
2025-01-18 02:40:58.08	345.05	16.17	
2025-01-18 02:40:59.29	344.81	16.23	
2025-01-18 02:41:00.51	344.57	16.28	
2025-01-18 02:41:01.73	344.32	16.34	
2025-01-18 02:41:02.95	344.08	16.40	
2025-01-18 02:41:04.16	343.83	16.45	
2025-01-18 02:41:05.38	343.58	16.51	
2025-01-18 02:41:06.60	343.33	16.56	
2025-01-18 02:41:07.82	343.08	16.62	
2025-01-18 02:41:09.04	342.83	16.67	
2025-01-18 02:41:10.25	342.58	16.72	
2025-01-18 02:41:11.47	342.33	16.78	
2025-01-18 02:41:12.69	342.08	16.83	
2025-01-18 02:41:13.91	341.82	16.88	
2025-01-18 02:41:15.13	341.57	16.93	
2025-01-18 02:41:16.34	341.31	16.99	
2025-01-18 02:41:17.56	341.06	17.04	
2025-01-18 02:41:18.78	340.80	17.09	
2025-01-18 02:41:20.00	340.54	17.14	
2025-01-18 02:41:21.21	340.28	17.19	
2025-01-18 02:41:22.43	340.02	17.23	
2025-01-18 02:41:23.65	339.76	17.28	
2025-01-18 02:41:24.87	339.50	17.33	
2025-01-18 02:41:26.09	339.23	17.38	
2025-01-18 02:41:27.30	338.97	17.42	
2025-01-18 02:41:28.52	338.71	17.47	
2025-01-18 02:41:29.74	338.44	17.52	
2025-01-18 02:41:30.96	338.18	17.56	
2025-01-18 02:41:32.18	337.91	17.61	
2025-01-18 02:41:33.39	337.64	17.65	
2025-01-18 02:41:34.61	337.37	17.69	
2025-01-18 02:41:35.83	337.10	17.74	
2025-01-18 02:41:37.05	336.83	17.78	
2025-01-18 02:41:38.27	336.56	17.82	
2025-01-18 02:41:39.48	336.29	17.86	
2025-01-18 02:41:40.70	336.02	17.90	
2025-01-18 02:41:41.92	335.75	17.94	
2025-01-18 02:41:43.14	335.47	17.98	
2025-01-18 02:41:44.35	335.20	18.02	
2025-01-18 02:41:45.57	334.93	18.06	
2025-01-18 02:41:46.79	334.65	18.09	
2025-01-18 02:41:48.01	334.37	18.13	
2025-01-18 02:41:49.23	334.10	18.17	
2025-01-18 02:41:50.44	333.82	18.20	
2025-01-18 02:41:51.66	333.54	18.24	
2025-01-18 02:41:52.88	333.26	18.27	
2025-01-18 02:41:54.10	332.98	18.30	
2025-01-18 02:41:55.32	332.70	18.34	
2025-01-18 02:41:56.53	332.42	18.37	
2025-01-18 02:41:57.75	332.14	18.40	
2025-01-18 02:41:58.97	331.86	18.43	
2025-01-18 02:42:00.19	331.57	18.46	
2025-01-18 02:42:01.41	331.29	18.49	
2025-01-18 02:42:02.63	331.01	18.52	
2025-01-18 02:42:03.84	330.72	18.55	
2025-01-18 02:42:05.06	330.44	18.57	
2025-01-18 02:42:06.28	330.15	18.60	
2025-01-18 02:42:07.50	329.87	18.63	
2025-01-18 02:42:08.72	329.58	18.65	
2025-01-18 02:42:09.95	329.29	18.68	
2025-01-18 02:42:11.16	329.00	18.70	
2025-01-18 02:42:12.38	328.72	18.72	
2025-01-18 02:42:13.60	328.43	18.75	
2025-01-18 02:42:14.82	328.14	18.77	
2025-01-18 02:42:16.03	327.85	18.79	
2025-01-18 02:42:17.25	327.56	18.81	
2025-01-18 02:42:18.47	327.27	18.83	
2025-01-18 02:42:19.69	326.98	18.85	
2025-01-18 02:42:20.91	326.69	18.86	
2025-01-18 02:42:22.12	326.40	18.88	
2025-01-18 02:42:23.34	326.11	18.90	
2025-01-18 02:42:24.56	325.82	18.91	
2025-01-18 02:42:25.78	325.52	18.93	
2025-01-18 02:42:27.00	325.23	18.94	
2025-01-18 02:42:28.21	324.94	18.96	
2025-01-18 02:42:29.43	324.65	18.97	
2025-01-18 02:42:30.65	324.35	18.98	
2025-01-18 02:42:31.87	324.06	18.99	
2025-01-18 02:42:33.09	323.77	19.00	
2025-01-18 02:42:34.30	323.47	19.01	
2025-01-18 02:42:35.52	323.18	19.02	
2025-01-18 02:42:36.74	322.89	19.03	
2025-01-18 02:42:37.96	322.59	19.03	
2025-01-18 02:42:39.17	322.30	19.04	
2025-01-18 02:42:40.39	322.00	19.04	
2025-01-18 02:42:41.61	321.71	19.05	
2025-01-18 02:42:42.83	321.42	19.05	
2025-01-18 02:42:44.05	321.12	19.06	
2025-01-18 02:42:45.26	320.83	19.06	
2025-01-18 02:42:46.48	320.53	19.06	
2025-01-18 02:42:47.70	320.24	19.06	
2025-01-18 02:42:48.92	319.94	19.06	
2025-01-18 02:42:50.14	319.65	19.06	
2025-01-18 02:42:51.35	319.35	19.06	
2025-01-18 02:42:52.57	319.06	19.06	
2025-01-18 02:42:53.79	318.76	19.05	
2025-01-18 02:42:55.01	318.47	19.05	
2025-01-18 02:42:56.23	318.17	19.04	
2025-01-18 02:42:57.44	317.88	19.04	
2025-01-18 02:42:58.66	317.59	19.03	
2025-01-18 02:42:59.88	317.29	19.03	
2025-01-18 02:43:01.10	317.00	19.02	
2025-01-18 02:43:02.31	316.71	19.01	
2025-01-18 02:43:03.53	316.41	19.00	
2025-01-18 02:43:04.75	316.12	18.99	
2025-01-18 02:43:05.97	315.82	18.98	
2025-01-18 02:43:07.19	315.53	18.97	
2025-01-18 02:43:08.40	315.24	18.95	
2025-01-18 02:43:09.62	314.95	18.94	
2025-01-18 02:43:10.84	314.65	18.93	
2025-01-18 02:43:12.06	314.36	18.91	
2025-01-18 02:43:13.28	314.07	18.90	
2025-01-18 02:43:14.49	313.78	18.88	
2025-01-18 02:43:15.71	313.49	18.86	
2025-01-18 02:43:16.93	313.20	18.84	
2025-01-18 02:43:18.15	312.91	18.83	
2025-01-18 02:43:19.36	312.62	18.81	
2025-01-18 02:43:20.59	312.33	18.79	
2025-01-18 02:43:21.81	312.04	18.77	
2025-01-18 02:43:23.02	311.75	18.74	
2025-01-18 02:43:24.24	311.46	18.72	
2025-01-18 02:43:25.46	311.17	18.70	
2025-01-18 02:43:26.68	310.88	18.67	
2025-01-18 02:43:27.90	310.60	18.65	
2025-01-18 02:43:29.11	310.31	18.62	
2025-01-18 02:43:30.33	310.03	18.60	
2025-01-18 02:43:31.55	309.74	18.57	
2025-01-18 02:43:32.77	309.45	18.54	
2025-01-18 02:43:33.99	309.17	18.52	
2025-01-18 02:43:35.20	308.89	18.49	
2025-01-18 02:43:36.42	308.60	18.46	
2025-01-18 02:43:37.64	308.32	18.43	
2025-01-18 02:43:38.86	308.04	18.40	
2025-01-18 02:43:40.07	307.76	18.37	
2025-01-18 02:43:41.29	307.47	18.33	
2025-01-18 02:43:42.51	307.19	18.30	
2025-01-18 02:43:43.73	306.91	18.27	
2025-01-18 02:43:44.95	306.63	18.23	
2025-01-18 02:43:46.16	306.36	18.20	
2025-01-18 02:43:47.38	306.08	18.16	
2025-01-18 02:43:48.60	305.80	18.13	
2025-01-18 02:43:49.82	305.52	18.09	
2025-01-18 02:43:51.04	305.25	18.05	
2025-01-18 02:43:52.25	304.97	18.01	
2025-01-18 02:43:53.47	304.70	17.97	
2025-01-18 02:43:54.69	304.42	17.94	
2025-01-18 02:43:55.91	304.15	17.90	
2025-01-18 02:43:57.13	303.88	17.85	
2025-01-18 02:43:58.34	303.60	17.81	
2025-01-18 02:43:59.56	303.33	17.77	
2025-01-18 02:44:00.78	303.06	17.73	
2025-01-18 02:44:02.00	302.79	17.69	
2025-01-18 02:44:03.21	302.53	17.64	
2025-01-18 02:44:04.43	302.26	17.60	
2025-01-18 02:44:05.65	301.99	17.55	
2025-01-18 02:44:06.87	301.72	17.51	
2025-01-18 02:44:08.09	301.46	17.46	
2025-01-18 02:44:09.30	301.19	17.42	
2025-01-18 02:44:10.52	300.93	17.37	
2025-01-18 02:44:11.74	300.67	17.32	
2025-01-18 02:44:12.96	300.40	17.28	
2025-01-18 02:44:14.18	300.14	17.23	
2025-01-18 02:44:15.39	299.88	17.18	
2025-01-18 02:44:16.61	299.62	17.13	
2025-01-18 02:44:17.83	299.36	17.08	
2025-01-18 02:44:19.05	299.10	17.03	
2025-01-18 02:44:20.26	298.85	16.98	
2025-01-18 02:44:21.48	298.59	16.93	
2025-01-18 02:44:22.70	298.33	16.87	
2025-01-18 02:44:23.92	298.08	16.82	
2025-01-18 02:44:25.14	297.83	16.77	
2025-01-18 02:44:26.35	297.57	16.72	
2025-01-18 02:44:27.57	297.32	16.66	
2025-01-18 02:44:28.79	297.07	16.61	
2025-01-18 02:44:30.01	296.82	16.55	
2025-01-18 02:44:31.23	296.57	16.50	
2025-01-18 02:44:32.44	296.32	16.44	
2025-01-18 02:44:33.66	296.08	16.39	
2025-01-18 02:44:34.88	295.83	16.33	
2025-01-18 02:44:36.10	295.58	16.28	
2025-01-18 02:44:37.32	295.34	16.22	
2025-01-18 02:44:38.53	295.10	16.16	
2025-01-18 02:44:39.75	294.85	16.10	
2025-01-18 02:44:40.97	294.61	16.04	
2025-01-18 02:44:42.19	294.37	15.99	
2025-01-18 02:44:43.40	294.13	15.93	
2025-01-18 02:44:44.62	293.89	15.87	
2025-01-18 02:44:45.84	293.65	15.81	
2025-01-18 02:44:47.06	293.42	15.75	
2025-01-18 02:44:48.28	293.18	15.69	
2025-01-18 02:44:49.49	292.95	15.63	
2025-01-18 02:44:50.71	292.71	15.57	
2025-01-18 02:44:51.93	292.48	15.50	
2025-01-18 02:44:53.15	292.25	15.44	
2025-01-18 02:44:54.37	292.02	15.38	
2025-01-18 02:44:55.58	291.79	15.32	
2025-01-18 02:44:56.80	291.56	15.26	
2025-01-18 02:44:58.02	291.33	15.19	
2025-01-18 02:44:59.24	291.10	15.13	
2025-01-18 02:45:00.45	290.88	15.07	
2025-01-18 02:45:01.67	290.65	15.00	
2025-01-18 02:45:02.89	290.43	14.94	
2025-01-18 02:45:04.11	290.20	14.87	
2025-01-18 02:45:05.33	289.98	14.81	
2025-01-18 02:45:06.54	289.76	14.75	
2025-01-18 02:45:07.76	289.54	14.68	
2025-01-18 02:45:08.98	289.32	14.61	
2025-01-18 02:45:10.20	289.10	14.55	
2025-01-18 02:45:11.42	288.88	14.48	
2025-01-18 02:45:12.63	288.67	14.42	
2025-01-18 02:45:13.85	288.45	14.35	
2025-01-18 02:45:15.07	288.24	14.28	
2025-01-18 02:45:16.29	288.02	14.22	
2025-01-18 02:45:17.51	287.81	14.15	
2025-01-18 02:45:18.72	287.60	14.08	
2025-01-18 02:45:19.94	287.39	14.02	
2025-01-18 02:45:21.16	287.18	13.95	
2025-01-18 02:45:22.38	286.97	13.88	
2025-01-18 02:45:23.59	286.76	13.81	
2025-01-18 02:45:24.81	286.55	13.74	
2025-01-18 02:45:26.03	286.35	13.68	
2025-01-18 02:45:27.25	286.14	13.61	
2025-01-18 02:45:28.47	285.94	13.54	
2025-01-18 02:45:29.68	285.74	13.47	
2025-01-18 02:45:30.90	285.53	13.40	
2025-01-18 02:45:32.12	285.33	13.33	
2025-01-18 02:45:33.34	285.13	13.26	
2025-01-18 02:45:34.56	284.93	13.19	
2025-01-18 02:45:35.77	284.73	13.12	
2025-01-18 02:45:36.99	284.54	13.05	
2025-01-18 02:45:38.21	284.34	12.98	
2025-01-18 02:45:39.43	284.14	12.91	
2025-01-18 02:45:40.64	283.95	12.84	
2025-01-18 02:45:41.86	283.76	12.77	
2025-01-18 02:45:43.08	283.56	12.70	
2025-01-18 02:45:44.30	283.37	12.63	
2025-01-18 02:45:45.52	283.18	12.56	
2025-01-18 02:45:46.73	282.99	12.49	
2025-01-18 02:45:47.95	282.80	12.42	
2025-01-18 02:45:49.17	282.61	12.35	
2025-01-18 02:45:50.39	282.43	12.28	
2025-01-18 02:45:51.61	282.24	12.21	
2025-01-18 02:45:52.82	282.06	12.14	
2025-01-18 02:45:54.04	281.87	12.07	
2025-01-18 02:45:55.26	281.69	11.99	
2025-01-18 02:45:56.48	281.50	11.92	
2025-01-18 02:45:57.70	281.32	11.85	
2025-01-18 02:45:58.91	281.14	11.78	
2025-01-18 02:46:00.13	280.96	11.71	
2025-01-18 02:46:01.35	280.78	11.64	
2025-01-18 02:46:02.57	280.60	11.56	
2025-01-18 02:46:03.78	280.43	11.49	
2025-01-18 02:46:05.00	280.25	11.42	
2025-01-18 02:46:06.22	280.08	11.35	
2025-01-18 02:46:07.44	279.90	11.28	
2025-01-18 02:46:08.66	279.73	11.21	
2025-01-18 02:46:09.87	279.55	11.13	
2025-01-18 02:46:11.09	279.38	11.06	
2025-01-18 02:46:12.31	279.21	10.99	
2025-01-18 02:46:13.53	279.04	10.92	
2025-01-18 02:46:14.75	278.87	10.84	
2025-01-18 02:46:15.96	278.70	10.77	
2025-01-18 02:46:17.18	278.53	10.70	
2025-01-18 02:46:18.40	278.37	10.63	
2025-01-18 02:46:19.62	278.20	10.56	
2025-01-18 02:46:20.83	278.04	10.48	
2025-01-18 02:46:22.05	277.87	10.41	
2025-01-18 02:46:23.27	277.71	10.34	
2025-01-18 02:46:24.49	277.55	10.27	
2025-01-18 02:46:25.71	277.38	10.19	
2025-01-18 02:46:26.92	277.22	10.12	
2025-01-18 02:46:28.14	277.06	10.05	
2025-01-18 02:46:29.36	276.90	9.98	
2025-01-18 02:46:30.58	276.74	9.90	
2025-01-18 02:46:31.80	276.58	9.83	
2025-01-18 02:46:33.01	276.43	9.76	
2025-01-18 02:46:34.23	276.27	9.69	
2025-01-18 02:46:35.45	276.12	9.61	
2025-01-18 02:46:36.67	275.96	9.54	
2025-01-18 02:46:37.89	275.81	9.47	
2025-01-18 02:46:39.10	275.65	9.40	
2025-01-18 02:46:40.32	275.50	9.32	
2025-01-18 02:46:41.54	275.35	9.25	
2025-01-18 02:46:42.76	275.20	9.18	
2025-01-18 02:46:43.97	275.05	9.11	
2025-01-18 02:46:45.19	274.90	9.04	
2025-01-18 02:46:46.41	274.75	8.96	
2025-01-18 02:46:47.63	274.60	8.89	
2025-01-18 02:46:48.85	274.45	8.82	
2025-01-18 02:46:50.06	274.31	8.75	
2025-01-18 02:46:51.28	274.16	8.67	
2025-01-18 02:46:52.50	274.02	8.60	
2025-01-18 02:46:53.72	273.87	8.53	
2025-01-18 02:46:54.94	273.73	8.46	
2025-01-18 02:46:56.15	273.59	8.39	
2025-01-18 02:46:57.38	273.44	8.31	
2025-01-18 02:46:58.60	273.30	8.24	
2025-01-18 02:46:59.81	273.16	8.17	
2025-01-18 02:47:01.03	273.02	8.10	
2025-01-18 02:47:02.25	272.88	8.03	
2025-01-18 02:47:03.47	272.74	7.95	
2025-01-18 02:47:04.68	272.61	7.88	
2025-01-18 02:47:05.90	272.47	7.81	
2025-01-18 02:47:07.12	272.33	7.74	
2025-01-18 02:47:08.34	272.20	7.67	
2025-01-18 02:47:09.56	272.06	7.60	
2025-01-18 02:47:10.77	271.93	7.53	
2025-01-18 02:47:11.99	271.79	7.45	
2025-01-18 02:47:13.21	271.66	7.38	
2025-01-18 02:47:14.43	271.53	7.31	
2025-01-18 02:47:15.65	271.40	7.24	
2025-01-18 02:47:16.86	271.27	7.17	
2025-01-18 02:47:18.08	271.13	7.10	
2025-01-18 02:47:19.30	271.00	7.03	
2025-01-18 02:47:20.52	270.88	6.95	
2025-01-18 02:47:21.73	270.75	6.88	
2025-01-18 02:47:22.95	270.62	6.81	
2025-01-18 02:47:24.17	270.49	6.74	
2025-01-18 02:47:25.39	270.37	6.67	
2025-01-18 02:47:26.61	270.24	6.60	
2025-01-18 02:47:27.82	270.11	6.53	
2025-01-18 02:47:29.04	269.99	6.46	
2025-01-18 02:47:30.26	269.86	6.39	
2025-01-18 02:47:31.48	269.74	6.32	
2025-01-18 02:47:32.70	269.62	6.25	
2025-01-18 02:47:33.91	269.50	6.18	
2025-01-18 02:47:35.13	269.37	6.11	
2025-01-18 02:47:36.35	269.25	6.04	
2025-01-18 02:47:37.57	269.13	5.97	
2025-01-18 02:47:38.79	269.01	5.90	
2025-01-18 02:47:40.00	268.89	5.83	
2025-01-18 02:47:41.22	268.77	5.76	
2025-01-18 02:47:42.44	268.66	5.69	
2025-01-18 02:47:43.66	268.54	5.62	
2025-01-18 02:47:44.87	268.42	5.55	
2025-01-18 02:47:46.09	268.31	5.48	
2025-01-18 02:47:47.31	268.19	5.41	
2025-01-18 02:47:48.53	268.07	5.34	
2025-01-18 02:47:49.75	267.96	5.27	
2025-01-18 02:47:50.96	267.85	5.20	
2025-01-18 02:47:52.18	267.73	5.13	
2025-01-18 02:47:53.40	267.62	5.06	
2025-01-18 02:47:54.62	267.51	4.99	
2025-01-18 02:47:55.84	267.39	4.92	
2025-01-18 02:47:57.05	267.28	4.85	
2025-01-18 02:47:58.27	267.17	4.78	
2025-01-18 02:47:59.49	267.06	4.72	
2025-01-18 02:48:00.71	266.95	4.65	
2025-01-18 02:48:01.92	266.84	4.58	
2025-01-18 02:48:03.14	266.73	4.51	
2025-01-18 02:48:04.36	266.63	4.44	
2025-01-18 02:48:05.58	266.52	4.37	
2025-01-18 02:48:06.80	266.41	4.30	
2025-01-18 02:48:08.01	266.30	4.24	
2025-01-18 02:48:09.23	266.20	4.17	
2025-01-18 02:48:10.45	266.09	4.10	
2025-01-18 02:48:11.67	265.99	4.03	

#Closed at: 2025-01-18 02:48:12