passes_logs/2025/01/18/SPB_Silybum_02/SPB_Silybum_02__20250118_084126_AQUA_rec.log

#Pass ID: 20250118_084126_AQUA
#Satellite: AQUA
#Configuration: AQUA
#Start time: 2025-01-18 08:41:25

#Version: 2.0.20230423
#Station: SPB_Silybum_02
#Location: 30.233357 lon 59.946436 lat
#TLE: 1 27424U 02022A   25017.88331103  .00002112  00000+0  44339-3 0  9998
#TLE: 2 27424  98.3596 334.5732 0001847 108.4912 313.9167 14.60695357208043

#Time	Az	El	Level	Level2	SNR	BER	Gain	Gain2
2025-01-18 08:41:27.42	76.48	4.05	
2025-01-18 08:41:28.24	76.38	4.09	
2025-01-18 08:41:29.05	76.28	4.12	
2025-01-18 08:41:29.86	76.18	4.16	
2025-01-18 08:41:30.67	76.08	4.20	
2025-01-18 08:41:31.49	75.98	4.24	
2025-01-18 08:41:32.30	75.88	4.28	
2025-01-18 08:41:33.11	75.78	4.32	
2025-01-18 08:41:33.92	75.68	4.36	
2025-01-18 08:41:34.74	75.57	4.40	
2025-01-18 08:41:35.55	75.47	4.43	
2025-01-18 08:41:36.36	75.37	4.47	
2025-01-18 08:41:37.17	75.26	4.51	
2025-01-18 08:41:37.98	75.16	4.55	
2025-01-18 08:41:38.80	75.06	4.59	
2025-01-18 08:41:39.61	74.95	4.63	
2025-01-18 08:41:40.42	74.85	4.67	
2025-01-18 08:41:41.23	74.74	4.70	
2025-01-18 08:41:42.05	74.64	4.74	
2025-01-18 08:41:42.86	74.53	4.78	
2025-01-18 08:41:43.67	74.43	4.82	
2025-01-18 08:41:44.48	74.32	4.86	
2025-01-18 08:41:45.30	74.21	4.90	
2025-01-18 08:41:46.11	74.11	4.94	
2025-01-18 08:41:46.92	74.00	4.97	
2025-01-18 08:41:47.73	73.89	5.01	
2025-01-18 08:41:48.55	73.78	5.05	
2025-01-18 08:41:49.36	73.68	5.09	
2025-01-18 08:41:50.17	73.57	5.13	
2025-01-18 08:41:50.98	73.46	5.17	
2025-01-18 08:41:51.80	73.35	5.20	
2025-01-18 08:41:52.61	73.24	5.24	
2025-01-18 08:41:53.42	73.13	5.28	
2025-01-18 08:41:54.23	73.02	5.32	
2025-01-18 08:41:55.05	72.91	5.36	
2025-01-18 08:41:55.86	72.80	5.39	
2025-01-18 08:41:56.67	72.69	5.43	
2025-01-18 08:41:57.48	72.58	5.47	
2025-01-18 08:41:58.30	72.47	5.51	
2025-01-18 08:41:59.11	72.36	5.55	
2025-01-18 08:41:59.92	72.25	5.58	
2025-01-18 08:42:00.73	72.13	5.62	
2025-01-18 08:42:01.55	72.02	5.66	
2025-01-18 08:42:02.36	71.91	5.70	
2025-01-18 08:42:03.17	71.79	5.74	
2025-01-18 08:42:03.98	71.68	5.77	
2025-01-18 08:42:04.80	71.56	5.81	
2025-01-18 08:42:05.61	71.45	5.85	
2025-01-18 08:42:06.42	71.34	5.89	
2025-01-18 08:42:07.23	71.22	5.92	
2025-01-18 08:42:08.05	71.11	5.96	
2025-01-18 08:42:08.86	70.99	6.00	
2025-01-18 08:42:09.67	70.87	6.04	
2025-01-18 08:42:10.48	70.76	6.07	
2025-01-18 08:42:11.29	70.64	6.11	
2025-01-18 08:42:12.11	70.52	6.15	
2025-01-18 08:42:12.92	70.41	6.19	
2025-01-18 08:42:13.73	70.29	6.22	
2025-01-18 08:42:14.54	70.17	6.26	
2025-01-18 08:42:15.36	70.05	6.30	
2025-01-18 08:42:16.17	69.93	6.33	
2025-01-18 08:42:16.98	69.82	6.37	
2025-01-18 08:42:17.79	69.70	6.41	
2025-01-18 08:42:18.61	69.58	6.45	
2025-01-18 08:42:19.42	69.46	6.48	
2025-01-18 08:42:20.23	69.34	6.52	
2025-01-18 08:42:21.04	69.22	6.56	
2025-01-18 08:42:21.86	69.09	6.59	
2025-01-18 08:42:22.67	68.97	6.63	
2025-01-18 08:42:23.48	68.85	6.67	
2025-01-18 08:42:24.29	68.73	6.70	
2025-01-18 08:42:25.11	68.61	6.74	
2025-01-18 08:42:25.92	68.48	6.78	
2025-01-18 08:42:26.73	68.36	6.81	
2025-01-18 08:42:27.54	68.24	6.85	
2025-01-18 08:42:28.36	68.11	6.88	
2025-01-18 08:42:29.17	67.99	6.92	
2025-01-18 08:42:29.98	67.87	6.96	
2025-01-18 08:42:30.79	67.74	6.99	
2025-01-18 08:42:31.61	67.62	7.03	
2025-01-18 08:42:32.42	67.49	7.07	
2025-01-18 08:42:33.23	67.36	7.10	
2025-01-18 08:42:34.04	67.24	7.14	
2025-01-18 08:42:34.86	67.11	7.17	
2025-01-18 08:42:35.67	66.99	7.21	
2025-01-18 08:42:36.48	66.86	7.24	
2025-01-18 08:42:37.29	66.73	7.28	
2025-01-18 08:42:38.11	66.60	7.32	
2025-01-18 08:42:38.92	66.47	7.35	
2025-01-18 08:42:39.73	66.35	7.39	
2025-01-18 08:42:40.54	66.22	7.42	
2025-01-18 08:42:41.35	66.09	7.46	
2025-01-18 08:42:42.17	65.96	7.49	
2025-01-18 08:42:42.98	65.83	7.53	
2025-01-18 08:42:43.79	65.70	7.56	
2025-01-18 08:42:44.60	65.57	7.60	
2025-01-18 08:42:45.42	65.44	7.63	
2025-01-18 08:42:46.23	65.31	7.67	
2025-01-18 08:42:47.04	65.17	7.70	
2025-01-18 08:42:47.85	65.04	7.73	
2025-01-18 08:42:48.67	64.91	7.77	
2025-01-18 08:42:49.48	64.78	7.80	
2025-01-18 08:42:50.29	64.65	7.84	
2025-01-18 08:42:51.10	64.51	7.87	
2025-01-18 08:42:51.92	64.38	7.91	
2025-01-18 08:42:52.73	64.24	7.94	
2025-01-18 08:42:53.54	64.11	7.97	
2025-01-18 08:42:54.35	63.98	8.01	
2025-01-18 08:42:55.17	63.84	8.04	
2025-01-18 08:42:55.98	63.70	8.08	
2025-01-18 08:42:56.79	63.57	8.11	
2025-01-18 08:42:57.60	63.43	8.14	
2025-01-18 08:42:58.42	63.30	8.18	
2025-01-18 08:42:59.23	63.16	8.21	
2025-01-18 08:43:00.04	63.02	8.24	
2025-01-18 08:43:00.85	62.89	8.28	
2025-01-18 08:43:01.67	62.75	8.31	
2025-01-18 08:43:02.48	62.61	8.34	
2025-01-18 08:43:03.29	62.47	8.37	
2025-01-18 08:43:04.10	62.33	8.41	
2025-01-18 08:43:04.92	62.19	8.44	
2025-01-18 08:43:05.73	62.05	8.47	
2025-01-18 08:43:06.54	61.91	8.51	
2025-01-18 08:43:07.35	61.77	8.54	
2025-01-18 08:43:08.17	61.63	8.57	
2025-01-18 08:43:08.98	61.49	8.60	
2025-01-18 08:43:09.79	61.35	8.63	
2025-01-18 08:43:10.60	61.21	8.67	
2025-01-18 08:43:11.41	61.07	8.70	
2025-01-18 08:43:12.23	60.93	8.73	
2025-01-18 08:43:13.04	60.78	8.76	
2025-01-18 08:43:13.85	60.64	8.79	
2025-01-18 08:43:14.66	60.50	8.82	
2025-01-18 08:43:15.48	60.35	8.85	
2025-01-18 08:43:16.29	60.21	8.89	
2025-01-18 08:43:17.10	60.07	8.92	
2025-01-18 08:43:17.91	59.92	8.95	
2025-01-18 08:43:18.73	59.78	8.98	
2025-01-18 08:43:19.54	59.63	9.01	
2025-01-18 08:43:20.35	59.49	9.04	
2025-01-18 08:43:21.16	59.34	9.07	
2025-01-18 08:43:21.98	59.19	9.10	
2025-01-18 08:43:22.79	59.05	9.13	
2025-01-18 08:43:23.60	58.90	9.16	
2025-01-18 08:43:24.41	58.75	9.19	
2025-01-18 08:43:25.23	58.60	9.22	
2025-01-18 08:43:26.04	58.46	9.25	
2025-01-18 08:43:26.85	58.31	9.28	
2025-01-18 08:43:27.66	58.16	9.31	
2025-01-18 08:43:28.48	58.01	9.34	
2025-01-18 08:43:29.29	57.86	9.37	
2025-01-18 08:43:30.10	57.71	9.39	
2025-01-18 08:43:30.91	57.56	9.42	
2025-01-18 08:43:31.73	57.41	9.45	
2025-01-18 08:43:32.54	57.26	9.48	
2025-01-18 08:43:33.35	57.11	9.51	
2025-01-18 08:43:34.16	56.96	9.54	
2025-01-18 08:43:34.98	56.81	9.57	
2025-01-18 08:43:35.79	56.66	9.59	
2025-01-18 08:43:36.60	56.51	9.62	
2025-01-18 08:43:37.41	56.36	9.65	
2025-01-18 08:43:38.23	56.20	9.68	
2025-01-18 08:43:39.04	56.05	9.70	
2025-01-18 08:43:39.85	55.90	9.73	
2025-01-18 08:43:40.66	55.74	9.76	
2025-01-18 08:43:41.47	55.59	9.78	
2025-01-18 08:43:42.29	55.43	9.81	
2025-01-18 08:43:43.10	55.28	9.84	
2025-01-18 08:43:43.91	55.13	9.86	
2025-01-18 08:43:44.72	54.97	9.89	
2025-01-18 08:43:45.54	54.81	9.92	
2025-01-18 08:43:46.35	54.66	9.94	
2025-01-18 08:43:47.16	54.50	9.97	
2025-01-18 08:43:47.97	54.35	9.99	
2025-01-18 08:43:48.79	54.19	10.02	
2025-01-18 08:43:49.60	54.03	10.04	
2025-01-18 08:43:50.41	53.88	10.07	
2025-01-18 08:43:51.22	53.72	10.09	
2025-01-18 08:43:52.04	53.56	10.12	
2025-01-18 08:43:52.85	53.40	10.14	
2025-01-18 08:43:53.66	53.24	10.17	
2025-01-18 08:43:54.47	53.09	10.19	
2025-01-18 08:43:55.29	52.93	10.22	
2025-01-18 08:43:56.10	52.77	10.24	
2025-01-18 08:43:56.91	52.61	10.26	
2025-01-18 08:43:57.72	52.45	10.29	
2025-01-18 08:43:58.55	52.29	10.31	
2025-01-18 08:43:59.36	52.13	10.33	
2025-01-18 08:44:00.18	51.96	10.36	
2025-01-18 08:44:00.99	51.80	10.38	
2025-01-18 08:44:01.80	51.64	10.40	
2025-01-18 08:44:02.61	51.48	10.42	
2025-01-18 08:44:03.43	51.32	10.45	
2025-01-18 08:44:04.24	51.16	10.47	
2025-01-18 08:44:05.05	51.00	10.49	
2025-01-18 08:44:05.86	50.83	10.51	
2025-01-18 08:44:06.68	50.67	10.53	
2025-01-18 08:44:07.49	50.51	10.56	
2025-01-18 08:44:08.30	50.34	10.58	
2025-01-18 08:44:09.13	50.18	10.60	
2025-01-18 08:44:09.94	50.01	10.62	
2025-01-18 08:44:10.75	49.85	10.64	
2025-01-18 08:44:11.56	49.69	10.66	
2025-01-18 08:44:12.38	49.52	10.68	
2025-01-18 08:44:13.19	49.36	10.70	
2025-01-18 08:44:14.00	49.19	10.72	
2025-01-18 08:44:14.81	49.03	10.74	
2025-01-18 08:44:15.63	48.86	10.76	
2025-01-18 08:44:16.44	48.70	10.78	
2025-01-18 08:44:17.25	48.53	10.80	
2025-01-18 08:44:18.06	48.36	10.81	
2025-01-18 08:44:18.88	48.20	10.83	
2025-01-18 08:44:19.69	48.03	10.85	
2025-01-18 08:44:20.50	47.86	10.87	
2025-01-18 08:44:21.31	47.70	10.89	
2025-01-18 08:44:22.13	47.53	10.91	
2025-01-18 08:44:22.94	47.36	10.92	
2025-01-18 08:44:23.75	47.20	10.94	
2025-01-18 08:44:24.56	47.03	10.96	
2025-01-18 08:44:25.37	46.86	10.97	
2025-01-18 08:44:26.19	46.69	10.99	
2025-01-18 08:44:27.00	46.52	11.01	
2025-01-18 08:44:27.81	46.35	11.02	
2025-01-18 08:44:28.62	46.19	11.04	
2025-01-18 08:44:29.44	46.02	11.06	
2025-01-18 08:44:30.25	45.85	11.07	
2025-01-18 08:44:31.06	45.68	11.09	
2025-01-18 08:44:31.87	45.51	11.10	
2025-01-18 08:44:32.69	45.34	11.12	
2025-01-18 08:44:33.50	45.17	11.13	
2025-01-18 08:44:34.31	45.00	11.15	
2025-01-18 08:44:35.12	44.83	11.16	
2025-01-18 08:44:35.94	44.66	11.17	
2025-01-18 08:44:36.75	44.49	11.19	
2025-01-18 08:44:37.56	44.31	11.20	
2025-01-18 08:44:38.37	44.14	11.22	
2025-01-18 08:44:39.19	43.97	11.23	
2025-01-18 08:44:40.00	43.80	11.24	
2025-01-18 08:44:40.81	43.63	11.25	
2025-01-18 08:44:41.62	43.46	11.27	
2025-01-18 08:44:42.44	43.28	11.28	
2025-01-18 08:44:43.25	43.11	11.29	
2025-01-18 08:44:44.06	42.94	11.30	
2025-01-18 08:44:44.87	42.77	11.31	
2025-01-18 08:44:45.69	42.60	11.33	
2025-01-18 08:44:46.50	42.42	11.34	
2025-01-18 08:44:47.31	42.25	11.35	
2025-01-18 08:44:48.12	42.08	11.36	
2025-01-18 08:44:48.94	41.90	11.37	
2025-01-18 08:44:49.75	41.73	11.38	
2025-01-18 08:44:50.56	41.56	11.39	
2025-01-18 08:44:51.37	41.39	11.40	
2025-01-18 08:44:52.19	41.21	11.41	
2025-01-18 08:44:53.00	41.04	11.42	
2025-01-18 08:44:53.81	40.86	11.43	
2025-01-18 08:44:54.62	40.69	11.43	
2025-01-18 08:44:55.43	40.52	11.44	
2025-01-18 08:44:56.25	40.34	11.45	
2025-01-18 08:44:57.06	40.17	11.46	
2025-01-18 08:44:57.87	39.99	11.47	
2025-01-18 08:44:58.68	39.82	11.47	
2025-01-18 08:44:59.50	39.64	11.48	
2025-01-18 08:45:00.31	39.47	11.49	
2025-01-18 08:45:01.12	39.30	11.50	
2025-01-18 08:45:01.93	39.12	11.50	
2025-01-18 08:45:02.75	38.94	11.51	
2025-01-18 08:45:03.56	38.77	11.51	
2025-01-18 08:45:04.37	38.60	11.52	
2025-01-18 08:45:05.18	38.42	11.53	
2025-01-18 08:45:06.00	38.24	11.53	
2025-01-18 08:45:06.81	38.07	11.54	
2025-01-18 08:45:07.62	37.89	11.54	
2025-01-18 08:45:08.43	37.72	11.55	
2025-01-18 08:45:09.25	37.54	11.55	
2025-01-18 08:45:10.06	37.37	11.55	
2025-01-18 08:45:10.87	37.19	11.56	
2025-01-18 08:45:11.68	37.02	11.56	
2025-01-18 08:45:12.50	36.84	11.57	
2025-01-18 08:45:13.31	36.67	11.57	
2025-01-18 08:45:14.12	36.49	11.57	
2025-01-18 08:45:14.93	36.32	11.57	
2025-01-18 08:45:15.75	36.14	11.58	
2025-01-18 08:45:16.56	35.96	11.58	
2025-01-18 08:45:17.37	35.79	11.58	
2025-01-18 08:45:18.18	35.61	11.58	
2025-01-18 08:45:19.00	35.43	11.58	
2025-01-18 08:45:19.81	35.26	11.59	
2025-01-18 08:45:20.62	35.08	11.59	
2025-01-18 08:45:21.43	34.91	11.59	
2025-01-18 08:45:22.25	34.73	11.59	
2025-01-18 08:45:23.06	34.56	11.59	
2025-01-18 08:45:23.87	34.38	11.59	
2025-01-18 08:45:24.68	34.21	11.59	
2025-01-18 08:45:25.50	34.03	11.59	
2025-01-18 08:45:26.31	33.85	11.59	
2025-01-18 08:45:27.12	33.68	11.58	
2025-01-18 08:45:27.93	33.50	11.58	
2025-01-18 08:45:28.74	33.33	11.58	
2025-01-18 08:45:29.56	33.15	11.58	
2025-01-18 08:45:30.37	32.97	11.58	
2025-01-18 08:45:31.18	32.80	11.58	
2025-01-18 08:45:31.99	32.62	11.57	
2025-01-18 08:45:32.81	32.45	11.57	
2025-01-18 08:45:33.62	32.27	11.57	
2025-01-18 08:45:34.43	32.10	11.56	
2025-01-18 08:45:35.24	31.92	11.56	
2025-01-18 08:45:36.06	31.74	11.56	
2025-01-18 08:45:36.87	31.57	11.55	
2025-01-18 08:45:37.68	31.39	11.55	
2025-01-18 08:45:38.49	31.22	11.54	
2025-01-18 08:45:39.31	31.04	11.54	
2025-01-18 08:45:40.12	30.87	11.53	
2025-01-18 08:45:40.93	30.69	11.53	
2025-01-18 08:45:41.74	30.52	11.52	
2025-01-18 08:45:42.56	30.34	11.52	
2025-01-18 08:45:43.37	30.17	11.51	
2025-01-18 08:45:44.18	29.99	11.51	
2025-01-18 08:45:44.99	29.82	11.50	
2025-01-18 08:45:45.81	29.64	11.49	
2025-01-18 08:45:46.62	29.47	11.49	
2025-01-18 08:45:47.43	29.30	11.48	
2025-01-18 08:45:48.24	29.12	11.47	
2025-01-18 08:45:49.06	28.95	11.46	
2025-01-18 08:45:49.87	28.77	11.45	
2025-01-18 08:45:50.68	28.60	11.45	
2025-01-18 08:45:51.49	28.42	11.44	
2025-01-18 08:45:52.31	28.25	11.43	
2025-01-18 08:45:53.12	28.08	11.42	
2025-01-18 08:45:53.93	27.90	11.41	
2025-01-18 08:45:54.74	27.73	11.40	
2025-01-18 08:45:55.56	27.56	11.39	
2025-01-18 08:45:56.37	27.38	11.38	
2025-01-18 08:45:57.18	27.21	11.37	
2025-01-18 08:45:57.99	27.04	11.36	
2025-01-18 08:45:58.80	26.87	11.35	
2025-01-18 08:45:59.62	26.69	11.34	
2025-01-18 08:46:00.43	26.52	11.33	
2025-01-18 08:46:01.24	26.35	11.32	
2025-01-18 08:46:02.05	26.18	11.31	
2025-01-18 08:46:02.87	26.00	11.30	
2025-01-18 08:46:03.68	25.83	11.28	
2025-01-18 08:46:04.49	25.66	11.27	
2025-01-18 08:46:05.30	25.49	11.26	
2025-01-18 08:46:06.12	25.31	11.25	
2025-01-18 08:46:06.93	25.14	11.23	
2025-01-18 08:46:07.74	24.97	11.22	
2025-01-18 08:46:08.55	24.80	11.21	
2025-01-18 08:46:09.37	24.63	11.19	
2025-01-18 08:46:10.18	24.46	11.18	
2025-01-18 08:46:10.99	24.29	11.17	
2025-01-18 08:46:11.80	24.12	11.15	
2025-01-18 08:46:12.62	23.95	11.14	
2025-01-18 08:46:13.43	23.78	11.12	
2025-01-18 08:46:14.24	23.61	11.11	
2025-01-18 08:46:15.05	23.44	11.09	
2025-01-18 08:46:15.87	23.27	11.08	
2025-01-18 08:46:16.68	23.10	11.06	
2025-01-18 08:46:17.49	22.93	11.05	
2025-01-18 08:46:18.30	22.77	11.03	
2025-01-18 08:46:19.12	22.60	11.01	
2025-01-18 08:46:19.93	22.43	11.00	
2025-01-18 08:46:20.74	22.26	10.98	
2025-01-18 08:46:21.55	22.09	10.97	
2025-01-18 08:46:22.37	21.92	10.95	
2025-01-18 08:46:23.18	21.76	10.93	
2025-01-18 08:46:23.99	21.59	10.91	
2025-01-18 08:46:24.80	21.42	10.90	
2025-01-18 08:46:25.62	21.25	10.88	
2025-01-18 08:46:26.43	21.09	10.86	
2025-01-18 08:46:27.24	20.92	10.84	
2025-01-18 08:46:28.05	20.76	10.82	
2025-01-18 08:46:28.86	20.59	10.81	
2025-01-18 08:46:29.68	20.42	10.79	
2025-01-18 08:46:30.49	20.26	10.77	
2025-01-18 08:46:31.30	20.09	10.75	
2025-01-18 08:46:32.11	19.93	10.73	
2025-01-18 08:46:32.93	19.76	10.71	
2025-01-18 08:46:33.74	19.60	10.69	
2025-01-18 08:46:34.55	19.44	10.67	
2025-01-18 08:46:35.36	19.27	10.65	
2025-01-18 08:46:36.18	19.11	10.63	
2025-01-18 08:46:36.99	18.94	10.61	
2025-01-18 08:46:37.80	18.78	10.59	
2025-01-18 08:46:38.61	18.62	10.57	
2025-01-18 08:46:39.43	18.45	10.54	
2025-01-18 08:46:40.24	18.29	10.52	
2025-01-18 08:46:41.05	18.13	10.50	
2025-01-18 08:46:41.86	17.97	10.48	
2025-01-18 08:46:42.68	17.81	10.46	
2025-01-18 08:46:43.49	17.65	10.44	
2025-01-18 08:46:44.30	17.48	10.41	
2025-01-18 08:46:45.11	17.32	10.39	
2025-01-18 08:46:45.93	17.16	10.37	
2025-01-18 08:46:46.74	17.00	10.34	
2025-01-18 08:46:47.55	16.84	10.32	
2025-01-18 08:46:48.36	16.68	10.30	
2025-01-18 08:46:49.18	16.52	10.28	
2025-01-18 08:46:49.99	16.36	10.25	
2025-01-18 08:46:50.80	16.21	10.23	
2025-01-18 08:46:51.61	16.05	10.20	
2025-01-18 08:46:52.43	15.89	10.18	
2025-01-18 08:46:53.24	15.73	10.16	
2025-01-18 08:46:54.05	15.57	10.13	
2025-01-18 08:46:54.86	15.42	10.11	
2025-01-18 08:46:55.68	15.26	10.08	
2025-01-18 08:46:56.49	15.10	10.06	
2025-01-18 08:46:57.30	14.94	10.03	
2025-01-18 08:46:58.11	14.79	10.01	
2025-01-18 08:46:58.92	14.63	9.98	
2025-01-18 08:46:59.74	14.48	9.96	
2025-01-18 08:47:00.55	14.32	9.93	
2025-01-18 08:47:01.36	14.17	9.90	
2025-01-18 08:47:02.17	14.01	9.88	
2025-01-18 08:47:02.99	13.86	9.85	
2025-01-18 08:47:03.80	13.70	9.82	
2025-01-18 08:47:04.61	13.55	9.80	
2025-01-18 08:47:05.42	13.40	9.77	
2025-01-18 08:47:06.24	13.24	9.74	
2025-01-18 08:47:07.05	13.09	9.72	
2025-01-18 08:47:07.86	12.94	9.69	
2025-01-18 08:47:08.67	12.78	9.66	
2025-01-18 08:47:09.49	12.63	9.64	
2025-01-18 08:47:10.30	12.48	9.61	
2025-01-18 08:47:11.11	12.33	9.58	
2025-01-18 08:47:11.92	12.18	9.55	
2025-01-18 08:47:12.74	12.03	9.52	
2025-01-18 08:47:13.55	11.88	9.50	
2025-01-18 08:47:14.36	11.73	9.47	
2025-01-18 08:47:15.17	11.58	9.44	
2025-01-18 08:47:15.99	11.43	9.41	
2025-01-18 08:47:16.80	11.28	9.38	
2025-01-18 08:47:17.61	11.13	9.35	
2025-01-18 08:47:18.42	10.98	9.32	
2025-01-18 08:47:19.24	10.83	9.29	
2025-01-18 08:47:20.05	10.68	9.27	
2025-01-18 08:47:20.86	10.54	9.24	
2025-01-18 08:47:21.67	10.39	9.21	
2025-01-18 08:47:22.49	10.24	9.18	
2025-01-18 08:47:23.30	10.10	9.15	
2025-01-18 08:47:24.11	9.95	9.12	
2025-01-18 08:47:24.92	9.81	9.09	
2025-01-18 08:47:25.74	9.66	9.06	
2025-01-18 08:47:26.55	9.51	9.03	
2025-01-18 08:47:27.36	9.37	9.00	
2025-01-18 08:47:28.17	9.22	8.97	
2025-01-18 08:47:28.98	9.08	8.93	
2025-01-18 08:47:29.80	8.94	8.90	
2025-01-18 08:47:30.61	8.79	8.87	
2025-01-18 08:47:31.42	8.65	8.84	
2025-01-18 08:47:32.23	8.51	8.81	
2025-01-18 08:47:33.05	8.36	8.78	
2025-01-18 08:47:33.86	8.22	8.75	
2025-01-18 08:47:34.67	8.08	8.72	
2025-01-18 08:47:35.48	7.94	8.68	
2025-01-18 08:47:36.30	7.80	8.65	
2025-01-18 08:47:37.11	7.66	8.62	
2025-01-18 08:47:37.92	7.52	8.59	
2025-01-18 08:47:38.73	7.38	8.56	
2025-01-18 08:47:39.55	7.24	8.52	
2025-01-18 08:47:40.36	7.10	8.49	
2025-01-18 08:47:41.17	6.96	8.46	
2025-01-18 08:47:41.98	6.82	8.43	
2025-01-18 08:47:42.80	6.68	8.39	
2025-01-18 08:47:43.61	6.54	8.36	
2025-01-18 08:47:44.42	6.41	8.33	
2025-01-18 08:47:45.23	6.27	8.30	
2025-01-18 08:47:46.05	6.13	8.26	
2025-01-18 08:47:46.86	5.99	8.23	
2025-01-18 08:47:47.67	5.86	8.20	
2025-01-18 08:47:48.48	5.72	8.16	
2025-01-18 08:47:49.30	5.58	8.13	
2025-01-18 08:47:50.11	5.45	8.10	
2025-01-18 08:47:50.92	5.32	8.06	
2025-01-18 08:47:51.73	5.18	8.03	
2025-01-18 08:47:52.55	5.05	8.00	
2025-01-18 08:47:53.36	4.91	7.96	
2025-01-18 08:47:54.17	4.78	7.93	
2025-01-18 08:47:54.98	4.65	7.89	
2025-01-18 08:47:55.80	4.51	7.86	
2025-01-18 08:47:56.61	4.38	7.83	
2025-01-18 08:47:57.42	4.25	7.79	
2025-01-18 08:47:58.23	4.12	7.76	
2025-01-18 08:47:59.05	3.98	7.72	
2025-01-18 08:47:59.86	3.85	7.69	
2025-01-18 08:48:00.67	3.72	7.65	
2025-01-18 08:48:01.48	3.59	7.62	
2025-01-18 08:48:02.29	3.46	7.58	
2025-01-18 08:48:03.11	3.33	7.55	
2025-01-18 08:48:03.92	3.20	7.51	
2025-01-18 08:48:04.73	3.07	7.48	
2025-01-18 08:48:05.54	2.94	7.44	
2025-01-18 08:48:06.36	2.82	7.41	
2025-01-18 08:48:07.17	2.69	7.37	
2025-01-18 08:48:07.98	2.56	7.34	
2025-01-18 08:48:08.79	2.43	7.30	
2025-01-18 08:48:09.61	2.30	7.27	
2025-01-18 08:48:10.42	2.18	7.23	
2025-01-18 08:48:11.23	2.05	7.20	
2025-01-18 08:48:12.04	1.93	7.16	
2025-01-18 08:48:12.86	1.80	7.12	
2025-01-18 08:48:13.67	1.67	7.09	
2025-01-18 08:48:14.48	1.55	7.05	
2025-01-18 08:48:15.29	1.43	7.02	
2025-01-18 08:48:16.11	1.30	6.98	
2025-01-18 08:48:16.92	1.18	6.95	
2025-01-18 08:48:17.73	1.05	6.91	
2025-01-18 08:48:18.54	0.93	6.87	
2025-01-18 08:48:19.36	0.81	6.84	
2025-01-18 08:48:20.17	0.68	6.80	
2025-01-18 08:48:20.98	0.56	6.76	
2025-01-18 08:48:21.79	0.44	6.73	
2025-01-18 08:48:22.61	0.32	6.69	
2025-01-18 08:48:23.42	0.20	6.65	
2025-01-18 08:48:24.23	0.08	6.62	
2025-01-18 08:48:25.04	359.96	6.58	
2025-01-18 08:48:25.86	359.83	6.54	
2025-01-18 08:48:26.67	359.72	6.51	
2025-01-18 08:48:27.48	359.60	6.47	
2025-01-18 08:48:28.29	359.48	6.43	
2025-01-18 08:48:29.11	359.36	6.40	
2025-01-18 08:48:29.92	359.24	6.36	
2025-01-18 08:48:30.73	359.12	6.32	
2025-01-18 08:48:31.54	359.00	6.29	
2025-01-18 08:48:32.35	358.89	6.25	
2025-01-18 08:48:33.17	358.77	6.21	
2025-01-18 08:48:33.98	358.65	6.18	
2025-01-18 08:48:34.79	358.53	6.14	
2025-01-18 08:48:35.60	358.42	6.10	
2025-01-18 08:48:36.42	358.30	6.06	
2025-01-18 08:48:37.23	358.19	6.03	
2025-01-18 08:48:38.04	358.07	5.99	
2025-01-18 08:48:38.85	357.96	5.95	
2025-01-18 08:48:39.67	357.84	5.91	
2025-01-18 08:48:40.48	357.73	5.88	
2025-01-18 08:48:41.29	357.61	5.84	
2025-01-18 08:48:42.10	357.50	5.80	
2025-01-18 08:48:42.92	357.39	5.76	
2025-01-18 08:48:43.73	357.27	5.73	
2025-01-18 08:48:44.54	357.16	5.69	
2025-01-18 08:48:45.35	357.05	5.65	
2025-01-18 08:48:46.17	356.94	5.61	
2025-01-18 08:48:46.98	356.82	5.57	
2025-01-18 08:48:47.79	356.71	5.54	
2025-01-18 08:48:48.60	356.60	5.50	
2025-01-18 08:48:49.42	356.49	5.46	
2025-01-18 08:48:50.23	356.38	5.42	
2025-01-18 08:48:51.04	356.27	5.39	
2025-01-18 08:48:51.85	356.16	5.35	
2025-01-18 08:48:52.67	356.05	5.31	
2025-01-18 08:48:53.48	355.94	5.27	
2025-01-18 08:48:54.29	355.83	5.23	
2025-01-18 08:48:55.10	355.73	5.19	
2025-01-18 08:48:55.92	355.62	5.16	
2025-01-18 08:48:56.73	355.51	5.12	
2025-01-18 08:48:57.54	355.40	5.08	
2025-01-18 08:48:58.35	355.30	5.04	
2025-01-18 08:48:59.17	355.19	5.00	
2025-01-18 08:48:59.98	355.08	4.96	
2025-01-18 08:49:00.79	354.98	4.93	
2025-01-18 08:49:01.60	354.87	4.89	
2025-01-18 08:49:02.41	354.76	4.85	
2025-01-18 08:49:03.23	354.66	4.81	
2025-01-18 08:49:04.04	354.55	4.77	
2025-01-18 08:49:04.85	354.45	4.73	
2025-01-18 08:49:05.66	354.34	4.70	
2025-01-18 08:49:06.48	354.24	4.66	
2025-01-18 08:49:07.29	354.14	4.62	
2025-01-18 08:49:08.10	354.03	4.58	
2025-01-18 08:49:08.91	353.93	4.54	
2025-01-18 08:49:09.73	353.83	4.50	
2025-01-18 08:49:10.54	353.72	4.46	
2025-01-18 08:49:11.35	353.62	4.43	
2025-01-18 08:49:12.16	353.52	4.39	
2025-01-18 08:49:12.98	353.42	4.35	
2025-01-18 08:49:13.79	353.32	4.31	
2025-01-18 08:49:14.60	353.22	4.27	
2025-01-18 08:49:15.41	353.12	4.23	
2025-01-18 08:49:16.23	353.01	4.19	
2025-01-18 08:49:17.04	352.91	4.16	
2025-01-18 08:49:17.85	352.81	4.12	
2025-01-18 08:49:18.66	352.72	4.08	
2025-01-18 08:49:19.48	352.62	4.04	
2025-01-18 08:49:20.29	352.52	4.00	

#Closed at: 2025-01-18 08:49:20