passes_logs/2025/01/18/SPB_Silybum_02/SPB_Silybum_02__20250118_021655_AQUA_rec.log

#Pass ID: 20250118_021655_AQUA
#Satellite: AQUA
#Configuration: AQUA
#Start time: 2025-01-18 02:16:55

#Version: 2.0.20230423
#Station: SPB_Silybum_02
#Location: 30.233357 lon 59.946436 lat
#TLE: 1 27424U 02022A   25017.13491740  .00001953  00000+0  41075-3 0  9996
#TLE: 2 27424  98.3596 333.8179 0001829 109.1235 340.1836 14.60691632207930

#Time	Az	El	Level	Level2	SNR	BER	Gain	Gain2
2025-01-18 02:16:57.27	13.04	4.16	
2025-01-18 02:16:58.49	12.99	4.24	
2025-01-18 02:16:59.70	12.93	4.33	
2025-01-18 02:17:00.92	12.87	4.41	
2025-01-18 02:17:02.14	12.82	4.50	
2025-01-18 02:17:03.36	12.76	4.58	
2025-01-18 02:17:04.58	12.70	4.67	
2025-01-18 02:17:05.79	12.64	4.75	
2025-01-18 02:17:07.01	12.58	4.84	
2025-01-18 02:17:08.23	12.52	4.93	
2025-01-18 02:17:09.45	12.46	5.01	
2025-01-18 02:17:10.67	12.40	5.10	
2025-01-18 02:17:11.88	12.34	5.19	
2025-01-18 02:17:13.10	12.27	5.28	
2025-01-18 02:17:14.32	12.21	5.36	
2025-01-18 02:17:15.54	12.15	5.45	
2025-01-18 02:17:16.76	12.09	5.54	
2025-01-18 02:17:17.97	12.02	5.63	
2025-01-18 02:17:19.19	11.96	5.72	
2025-01-18 02:17:20.41	11.89	5.81	
2025-01-18 02:17:21.63	11.83	5.90	
2025-01-18 02:17:22.84	11.76	5.99	
2025-01-18 02:17:24.06	11.70	6.08	
2025-01-18 02:17:25.28	11.63	6.17	
2025-01-18 02:17:26.50	11.56	6.26	
2025-01-18 02:17:27.72	11.50	6.35	
2025-01-18 02:17:28.93	11.43	6.44	
2025-01-18 02:17:30.15	11.36	6.53	
2025-01-18 02:17:31.37	11.29	6.62	
2025-01-18 02:17:32.59	11.22	6.72	
2025-01-18 02:17:33.81	11.15	6.81	
2025-01-18 02:17:35.02	11.08	6.90	
2025-01-18 02:17:36.24	11.01	6.99	
2025-01-18 02:17:37.46	10.94	7.09	
2025-01-18 02:17:38.68	10.87	7.18	
2025-01-18 02:17:39.89	10.80	7.28	
2025-01-18 02:17:41.11	10.72	7.37	
2025-01-18 02:17:42.33	10.65	7.47	
2025-01-18 02:17:43.55	10.57	7.56	
2025-01-18 02:17:44.77	10.50	7.66	
2025-01-18 02:17:45.98	10.42	7.75	
2025-01-18 02:17:47.20	10.35	7.85	
2025-01-18 02:17:48.42	10.27	7.95	
2025-01-18 02:17:49.64	10.19	8.05	
2025-01-18 02:17:50.86	10.12	8.14	
2025-01-18 02:17:52.07	10.04	8.24	
2025-01-18 02:17:53.29	9.96	8.34	
2025-01-18 02:17:54.51	9.88	8.44	
2025-01-18 02:17:55.73	9.80	8.54	
2025-01-18 02:17:56.95	9.72	8.64	
2025-01-18 02:17:58.16	9.64	8.74	
2025-01-18 02:17:59.38	9.56	8.84	
2025-01-18 02:18:00.60	9.47	8.94	
2025-01-18 02:18:01.82	9.39	9.04	
2025-01-18 02:18:03.03	9.31	9.14	
2025-01-18 02:18:04.25	9.22	9.24	
2025-01-18 02:18:05.47	9.14	9.34	
2025-01-18 02:18:06.69	9.05	9.45	
2025-01-18 02:18:07.91	8.96	9.55	
2025-01-18 02:18:09.12	8.88	9.65	
2025-01-18 02:18:10.34	8.79	9.76	
2025-01-18 02:18:11.56	8.70	9.86	
2025-01-18 02:18:12.78	8.61	9.97	
2025-01-18 02:18:14.00	8.52	10.07	
2025-01-18 02:18:15.22	8.43	10.18	
2025-01-18 02:18:16.44	8.34	10.28	
2025-01-18 02:18:17.65	8.24	10.39	
2025-01-18 02:18:18.87	8.15	10.50	
2025-01-18 02:18:20.09	8.06	10.60	
2025-01-18 02:18:21.31	7.96	10.71	
2025-01-18 02:18:22.53	7.87	10.82	
2025-01-18 02:18:23.74	7.77	10.93	
2025-01-18 02:18:24.96	7.67	11.04	
2025-01-18 02:18:26.18	7.57	11.15	
2025-01-18 02:18:27.40	7.47	11.26	
2025-01-18 02:18:28.62	7.37	11.37	
2025-01-18 02:18:29.83	7.27	11.48	
2025-01-18 02:18:31.05	7.17	11.59	
2025-01-18 02:18:32.27	7.07	11.70	
2025-01-18 02:18:33.49	6.97	11.82	
2025-01-18 02:18:34.70	6.86	11.93	
2025-01-18 02:18:35.92	6.76	12.04	
2025-01-18 02:18:37.14	6.65	12.16	
2025-01-18 02:18:38.36	6.55	12.27	
2025-01-18 02:18:39.58	6.44	12.39	
2025-01-18 02:18:40.79	6.33	12.50	
2025-01-18 02:18:42.01	6.22	12.62	
2025-01-18 02:18:43.23	6.11	12.73	
2025-01-18 02:18:44.45	6.00	12.85	
2025-01-18 02:18:45.67	5.88	12.97	
2025-01-18 02:18:46.88	5.77	13.09	
2025-01-18 02:18:48.10	5.66	13.20	
2025-01-18 02:18:49.32	5.54	13.32	
2025-01-18 02:18:50.54	5.42	13.44	
2025-01-18 02:18:51.76	5.30	13.56	
2025-01-18 02:18:52.97	5.19	13.68	
2025-01-18 02:18:54.19	5.07	13.80	
2025-01-18 02:18:55.41	4.95	13.93	
2025-01-18 02:18:56.63	4.82	14.05	
2025-01-18 02:18:57.84	4.70	14.17	
2025-01-18 02:18:59.06	4.58	14.30	
2025-01-18 02:19:00.28	4.45	14.42	
2025-01-18 02:19:01.50	4.32	14.54	
2025-01-18 02:19:02.72	4.19	14.67	
2025-01-18 02:19:03.93	4.07	14.79	
2025-01-18 02:19:05.15	3.94	14.92	
2025-01-18 02:19:06.37	3.80	15.05	
2025-01-18 02:19:07.59	3.67	15.18	
2025-01-18 02:19:08.81	3.54	15.30	
2025-01-18 02:19:10.02	3.40	15.43	
2025-01-18 02:19:11.24	3.27	15.56	
2025-01-18 02:19:12.46	3.13	15.69	
2025-01-18 02:19:13.68	2.99	15.82	
2025-01-18 02:19:14.89	2.85	15.95	
2025-01-18 02:19:16.11	2.71	16.08	
2025-01-18 02:19:17.33	2.56	16.22	
2025-01-18 02:19:18.55	2.42	16.35	
2025-01-18 02:19:19.77	2.27	16.48	
2025-01-18 02:19:20.98	2.12	16.62	
2025-01-18 02:19:22.20	1.97	16.75	
2025-01-18 02:19:23.42	1.82	16.89	
2025-01-18 02:19:24.64	1.67	17.02	
2025-01-18 02:19:25.86	1.52	17.16	
2025-01-18 02:19:27.07	1.36	17.30	
2025-01-18 02:19:28.29	1.21	17.43	
2025-01-18 02:19:29.51	1.05	17.57	
2025-01-18 02:19:30.73	0.89	17.71	
2025-01-18 02:19:31.95	0.73	17.85	
2025-01-18 02:19:33.16	0.57	17.99	
2025-01-18 02:19:34.38	0.40	18.13	
2025-01-18 02:19:35.60	0.23	18.28	
2025-01-18 02:19:36.82	0.07	18.42	
2025-01-18 02:19:38.03	359.90	18.56	
2025-01-18 02:19:39.25	359.73	18.70	
2025-01-18 02:19:40.47	359.55	18.85	
2025-01-18 02:19:41.69	359.38	18.99	
2025-01-18 02:19:42.91	359.20	19.14	
2025-01-18 02:19:44.12	359.02	19.29	
2025-01-18 02:19:45.34	358.84	19.43	
2025-01-18 02:19:46.56	358.66	19.58	
2025-01-18 02:19:47.78	358.47	19.73	
2025-01-18 02:19:49.00	358.29	19.88	
2025-01-18 02:19:50.21	358.10	20.03	
2025-01-18 02:19:51.43	357.91	20.18	
2025-01-18 02:19:52.65	357.72	20.33	
2025-01-18 02:19:53.87	357.52	20.48	
2025-01-18 02:19:55.08	357.33	20.63	
2025-01-18 02:19:56.30	357.13	20.79	
2025-01-18 02:19:57.52	356.93	20.94	
2025-01-18 02:19:58.74	356.72	21.10	
2025-01-18 02:19:59.96	356.52	21.25	
2025-01-18 02:20:01.17	356.31	21.41	
2025-01-18 02:20:02.39	356.10	21.56	
2025-01-18 02:20:03.61	355.89	21.72	
2025-01-18 02:20:04.83	355.68	21.88	
2025-01-18 02:20:06.05	355.46	22.04	
2025-01-18 02:20:07.26	355.24	22.19	
2025-01-18 02:20:08.48	355.02	22.35	
2025-01-18 02:20:09.70	354.80	22.51	
2025-01-18 02:20:10.92	354.57	22.68	
2025-01-18 02:20:12.14	354.34	22.84	
2025-01-18 02:20:13.35	354.11	23.00	
2025-01-18 02:20:14.57	353.88	23.16	
2025-01-18 02:20:15.79	353.64	23.32	
2025-01-18 02:20:17.01	353.40	23.49	
2025-01-18 02:20:18.22	353.16	23.65	
2025-01-18 02:20:19.44	352.92	23.82	
2025-01-18 02:20:20.66	352.67	23.98	
2025-01-18 02:20:21.88	352.42	24.15	
2025-01-18 02:20:23.10	352.17	24.32	
2025-01-18 02:20:24.31	351.91	24.48	
2025-01-18 02:20:25.53	351.65	24.65	
2025-01-18 02:20:26.75	351.39	24.82	
2025-01-18 02:20:27.97	351.13	24.99	
2025-01-18 02:20:29.19	350.86	25.16	
2025-01-18 02:20:30.40	350.59	25.33	
2025-01-18 02:20:31.62	350.32	25.50	
2025-01-18 02:20:32.84	350.04	25.67	
2025-01-18 02:20:34.06	349.76	25.84	
2025-01-18 02:20:35.27	349.48	26.02	
2025-01-18 02:20:36.49	349.19	26.19	
2025-01-18 02:20:37.71	348.90	26.36	
2025-01-18 02:20:38.93	348.61	26.53	
2025-01-18 02:20:40.15	348.31	26.71	
2025-01-18 02:20:41.36	348.01	26.88	
2025-01-18 02:20:42.58	347.71	27.06	
2025-01-18 02:20:43.80	347.40	27.23	
2025-01-18 02:20:45.02	347.09	27.41	
2025-01-18 02:20:46.24	346.78	27.58	
2025-01-18 02:20:47.45	346.46	27.76	
2025-01-18 02:20:48.67	346.14	27.93	
2025-01-18 02:20:49.89	345.81	28.11	
2025-01-18 02:20:51.11	345.49	28.29	
2025-01-18 02:20:52.33	345.15	28.46	
2025-01-18 02:20:53.54	344.82	28.64	
2025-01-18 02:20:54.76	344.48	28.82	
2025-01-18 02:20:55.98	344.13	28.99	
2025-01-18 02:20:57.20	343.78	29.17	
2025-01-18 02:20:58.41	343.43	29.35	
2025-01-18 02:20:59.63	343.08	29.52	
2025-01-18 02:21:00.85	342.72	29.70	
2025-01-18 02:21:02.07	342.35	29.88	
2025-01-18 02:21:03.29	341.98	30.05	
2025-01-18 02:21:04.50	341.61	30.23	
2025-01-18 02:21:05.72	341.23	30.41	
2025-01-18 02:21:06.94	340.85	30.58	
2025-01-18 02:21:08.16	340.46	30.76	
2025-01-18 02:21:09.38	340.07	30.93	
2025-01-18 02:21:10.59	339.68	31.11	
2025-01-18 02:21:11.81	339.28	31.28	
2025-01-18 02:21:13.03	338.88	31.46	
2025-01-18 02:21:14.25	338.47	31.63	
2025-01-18 02:21:15.46	338.06	31.80	
2025-01-18 02:21:16.68	337.64	31.98	
2025-01-18 02:21:17.90	337.22	32.15	
2025-01-18 02:21:19.12	336.79	32.32	
2025-01-18 02:21:20.34	336.36	32.49	
2025-01-18 02:21:21.55	335.92	32.66	
2025-01-18 02:21:22.77	335.48	32.83	
2025-01-18 02:21:23.99	335.03	33.00	
2025-01-18 02:21:25.21	334.58	33.17	
2025-01-18 02:21:26.43	334.13	33.33	
2025-01-18 02:21:27.64	333.67	33.50	
2025-01-18 02:21:28.86	333.20	33.66	
2025-01-18 02:21:30.08	332.73	33.82	
2025-01-18 02:21:31.30	332.26	33.99	
2025-01-18 02:21:32.52	331.78	34.15	
2025-01-18 02:21:33.73	331.30	34.30	
2025-01-18 02:21:34.95	330.81	34.46	
2025-01-18 02:21:36.17	330.31	34.62	
2025-01-18 02:21:37.39	329.81	34.77	
2025-01-18 02:21:38.60	329.31	34.93	
2025-01-18 02:21:39.82	328.80	35.08	
2025-01-18 02:21:41.04	328.29	35.23	
2025-01-18 02:21:42.26	327.77	35.37	
2025-01-18 02:21:43.48	327.24	35.52	
2025-01-18 02:21:44.69	326.72	35.66	
2025-01-18 02:21:45.91	326.18	35.80	
2025-01-18 02:21:47.13	325.64	35.94	
2025-01-18 02:21:48.35	325.10	36.08	
2025-01-18 02:21:49.57	324.55	36.21	
2025-01-18 02:21:50.78	324.00	36.35	
2025-01-18 02:21:52.00	323.45	36.48	
2025-01-18 02:21:53.22	322.88	36.60	
2025-01-18 02:21:54.44	322.32	36.73	
2025-01-18 02:21:55.65	321.75	36.85	
2025-01-18 02:21:56.87	321.18	36.97	
2025-01-18 02:21:58.09	320.60	37.09	
2025-01-18 02:21:59.31	320.01	37.20	
2025-01-18 02:22:00.53	319.42	37.31	
2025-01-18 02:22:01.74	318.84	37.42	
2025-01-18 02:22:02.98	318.23	37.53	
2025-01-18 02:22:04.20	317.63	37.63	
2025-01-18 02:22:05.41	317.03	37.73	
2025-01-18 02:22:06.63	316.42	37.82	
2025-01-18 02:22:07.85	315.81	37.91	
2025-01-18 02:22:09.07	315.20	38.00	
2025-01-18 02:22:10.29	314.58	38.09	
2025-01-18 02:22:11.50	313.96	38.17	
2025-01-18 02:22:12.72	313.34	38.25	
2025-01-18 02:22:13.94	312.71	38.32	
2025-01-18 02:22:15.16	312.08	38.39	
2025-01-18 02:22:16.37	311.45	38.46	
2025-01-18 02:22:17.59	310.82	38.52	
2025-01-18 02:22:18.81	310.18	38.58	
2025-01-18 02:22:20.03	309.54	38.63	
2025-01-18 02:22:21.25	308.89	38.69	
2025-01-18 02:22:22.46	308.25	38.73	
2025-01-18 02:22:23.68	307.61	38.78	
2025-01-18 02:22:24.90	306.96	38.82	
2025-01-18 02:22:26.12	306.31	38.85	
2025-01-18 02:22:27.34	305.66	38.88	
2025-01-18 02:22:28.55	305.01	38.91	
2025-01-18 02:22:29.77	304.36	38.93	
2025-01-18 02:22:30.99	303.70	38.95	
2025-01-18 02:22:32.21	303.05	38.97	
2025-01-18 02:22:33.42	302.40	38.98	
2025-01-18 02:22:34.64	301.74	38.98	
2025-01-18 02:22:35.86	301.08	38.99	
2025-01-18 02:22:37.08	300.43	38.98	
2025-01-18 02:22:38.30	299.77	38.98	
2025-01-18 02:22:39.51	299.12	38.97	
2025-01-18 02:22:40.73	298.47	38.95	
2025-01-18 02:22:41.95	297.81	38.93	
2025-01-18 02:22:43.17	297.16	38.91	
2025-01-18 02:22:44.39	296.50	38.88	
2025-01-18 02:22:45.60	295.86	38.85	
2025-01-18 02:22:46.82	295.21	38.82	
2025-01-18 02:22:48.04	294.56	38.78	
2025-01-18 02:22:49.26	293.91	38.74	
2025-01-18 02:22:50.48	293.27	38.69	
2025-01-18 02:22:51.69	292.63	38.64	
2025-01-18 02:22:52.91	291.99	38.58	
2025-01-18 02:22:54.13	291.35	38.52	
2025-01-18 02:22:55.35	290.71	38.46	
2025-01-18 02:22:56.56	290.08	38.39	
2025-01-18 02:22:57.78	289.45	38.32	
2025-01-18 02:22:59.00	288.82	38.25	
2025-01-18 02:23:00.22	288.20	38.17	
2025-01-18 02:23:01.44	287.57	38.09	
2025-01-18 02:23:02.65	286.96	38.01	
2025-01-18 02:23:03.87	286.34	37.92	
2025-01-18 02:23:05.09	285.73	37.82	
2025-01-18 02:23:06.31	285.12	37.73	
2025-01-18 02:23:07.53	284.52	37.63	
2025-01-18 02:23:08.74	283.92	37.53	
2025-01-18 02:23:09.96	283.32	37.42	
2025-01-18 02:23:11.18	282.73	37.32	
2025-01-18 02:23:12.40	282.14	37.21	
2025-01-18 02:23:13.61	281.56	37.09	
2025-01-18 02:23:14.83	280.98	36.98	
2025-01-18 02:23:16.05	280.40	36.86	
2025-01-18 02:23:17.27	279.83	36.73	
2025-01-18 02:23:18.49	279.26	36.61	
2025-01-18 02:23:19.70	278.70	36.48	
2025-01-18 02:23:20.92	278.14	36.35	
2025-01-18 02:23:22.14	277.59	36.22	
2025-01-18 02:23:23.36	277.04	36.08	
2025-01-18 02:23:24.58	276.49	35.95	
2025-01-18 02:23:25.79	275.96	35.81	
2025-01-18 02:23:27.01	275.42	35.66	
2025-01-18 02:23:28.23	274.89	35.52	
2025-01-18 02:23:29.45	274.36	35.37	
2025-01-18 02:23:30.67	273.84	35.23	
2025-01-18 02:23:31.88	273.33	35.08	
2025-01-18 02:23:33.10	272.82	34.93	
2025-01-18 02:23:34.32	272.31	34.77	
2025-01-18 02:23:35.54	271.81	34.62	
2025-01-18 02:23:36.75	271.32	34.46	
2025-01-18 02:23:37.97	270.82	34.30	
2025-01-18 02:23:39.19	270.34	34.14	
2025-01-18 02:23:40.41	269.85	33.98	
2025-01-18 02:23:41.63	269.38	33.82	
2025-01-18 02:23:42.84	268.91	33.66	
2025-01-18 02:23:44.06	268.44	33.49	
2025-01-18 02:23:45.28	267.98	33.33	
2025-01-18 02:23:46.50	267.52	33.16	
2025-01-18 02:23:47.72	267.07	32.99	
2025-01-18 02:23:48.93	266.62	32.83	
2025-01-18 02:23:50.15	266.18	32.66	
2025-01-18 02:23:51.37	265.74	32.48	
2025-01-18 02:23:52.59	265.31	32.31	
2025-01-18 02:23:53.80	264.88	32.14	
2025-01-18 02:23:55.02	264.46	31.97	
2025-01-18 02:23:56.24	264.04	31.79	
2025-01-18 02:23:57.46	263.62	31.62	
2025-01-18 02:23:58.68	263.21	31.45	
2025-01-18 02:23:59.89	262.81	31.27	
2025-01-18 02:24:01.11	262.41	31.10	
2025-01-18 02:24:02.33	262.01	30.92	
2025-01-18 02:24:03.55	261.62	30.74	
2025-01-18 02:24:04.77	261.23	30.57	
2025-01-18 02:24:05.98	260.85	30.39	
2025-01-18 02:24:07.20	260.47	30.21	
2025-01-18 02:24:08.42	260.09	30.04	
2025-01-18 02:24:09.64	259.72	29.86	
2025-01-18 02:24:10.85	259.36	29.68	
2025-01-18 02:24:12.07	258.99	29.50	
2025-01-18 02:24:13.29	258.63	29.33	
2025-01-18 02:24:14.51	258.28	29.15	
2025-01-18 02:24:15.73	257.93	28.97	
2025-01-18 02:24:16.94	257.59	28.79	
2025-01-18 02:24:18.16	257.24	28.61	
2025-01-18 02:24:19.38	256.91	28.44	
2025-01-18 02:24:20.60	256.57	28.26	
2025-01-18 02:24:21.82	256.24	28.08	
2025-01-18 02:24:23.03	255.92	27.91	
2025-01-18 02:24:24.25	255.59	27.73	
2025-01-18 02:24:25.47	255.27	27.55	
2025-01-18 02:24:26.69	254.96	27.38	
2025-01-18 02:24:27.91	254.64	27.20	
2025-01-18 02:24:29.12	254.34	27.03	
2025-01-18 02:24:30.34	254.03	26.85	
2025-01-18 02:24:31.56	253.73	26.67	
2025-01-18 02:24:32.78	253.43	26.50	
2025-01-18 02:24:33.99	253.14	26.33	
2025-01-18 02:24:35.21	252.85	26.15	
2025-01-18 02:24:36.43	252.56	25.98	
2025-01-18 02:24:37.65	252.28	25.81	
2025-01-18 02:24:38.87	251.99	25.63	
2025-01-18 02:24:40.08	251.72	25.46	
2025-01-18 02:24:41.30	251.44	25.29	
2025-01-18 02:24:42.52	251.17	25.12	
2025-01-18 02:24:43.74	250.90	24.95	
2025-01-18 02:24:44.96	250.63	24.78	
2025-01-18 02:24:46.17	250.37	24.61	
2025-01-18 02:24:47.39	250.11	24.44	
2025-01-18 02:24:48.61	249.86	24.27	
2025-01-18 02:24:49.83	249.60	24.10	
2025-01-18 02:24:51.05	249.35	23.94	
2025-01-18 02:24:52.26	249.10	23.77	
2025-01-18 02:24:53.48	248.86	23.60	
2025-01-18 02:24:54.70	248.61	23.44	
2025-01-18 02:24:55.92	248.37	23.27	
2025-01-18 02:24:57.13	248.14	23.11	
2025-01-18 02:24:58.35	247.90	22.95	
2025-01-18 02:24:59.57	247.67	22.78	
2025-01-18 02:25:00.79	247.44	22.62	
2025-01-18 02:25:02.01	247.21	22.46	
2025-01-18 02:25:03.22	246.99	22.30	
2025-01-18 02:25:04.44	246.76	22.14	
2025-01-18 02:25:05.66	246.54	21.98	
2025-01-18 02:25:06.88	246.33	21.82	
2025-01-18 02:25:08.10	246.11	21.66	
2025-01-18 02:25:09.31	245.90	21.50	
2025-01-18 02:25:10.53	245.69	21.35	
2025-01-18 02:25:11.75	245.48	21.19	
2025-01-18 02:25:12.97	245.27	21.03	
2025-01-18 02:25:14.18	245.07	20.88	
2025-01-18 02:25:15.40	244.87	20.72	
2025-01-18 02:25:16.62	244.67	20.57	
2025-01-18 02:25:17.84	244.47	20.42	
2025-01-18 02:25:19.06	244.27	20.26	
2025-01-18 02:25:20.27	244.08	20.11	
2025-01-18 02:25:21.49	243.89	19.96	
2025-01-18 02:25:22.71	243.70	19.81	
2025-01-18 02:25:23.93	243.51	19.66	
2025-01-18 02:25:25.15	243.33	19.51	
2025-01-18 02:25:26.36	243.15	19.36	
2025-01-18 02:25:27.58	242.96	19.22	
2025-01-18 02:25:28.80	242.78	19.07	
2025-01-18 02:25:30.02	242.60	18.92	
2025-01-18 02:25:31.24	242.43	18.78	
2025-01-18 02:25:32.45	242.26	18.63	
2025-01-18 02:25:33.67	242.08	18.49	
2025-01-18 02:25:34.89	241.91	18.34	
2025-01-18 02:25:36.11	241.74	18.20	
2025-01-18 02:25:37.32	241.58	18.06	
2025-01-18 02:25:38.54	241.41	17.92	
2025-01-18 02:25:39.76	241.25	17.78	
2025-01-18 02:25:40.98	241.08	17.64	
2025-01-18 02:25:42.20	240.92	17.50	
2025-01-18 02:25:43.41	240.76	17.36	
2025-01-18 02:25:44.63	240.61	17.22	
2025-01-18 02:25:45.85	240.45	17.08	
2025-01-18 02:25:47.07	240.29	16.94	
2025-01-18 02:25:48.29	240.14	16.81	
2025-01-18 02:25:49.50	239.99	16.67	
2025-01-18 02:25:50.72	239.84	16.54	
2025-01-18 02:25:51.94	239.69	16.40	
2025-01-18 02:25:53.16	239.54	16.27	
2025-01-18 02:25:54.37	239.40	16.13	
2025-01-18 02:25:55.59	239.25	16.00	
2025-01-18 02:25:56.81	239.11	15.87	
2025-01-18 02:25:58.03	238.97	15.74	
2025-01-18 02:25:59.25	238.83	15.61	
2025-01-18 02:26:00.46	238.69	15.48	
2025-01-18 02:26:01.68	238.55	15.35	
2025-01-18 02:26:02.90	238.42	15.22	
2025-01-18 02:26:04.12	238.28	15.09	
2025-01-18 02:26:05.34	238.15	14.96	
2025-01-18 02:26:06.55	238.01	14.83	
2025-01-18 02:26:07.77	237.88	14.71	
2025-01-18 02:26:08.99	237.75	14.58	
2025-01-18 02:26:10.21	237.62	14.45	
2025-01-18 02:26:11.43	237.49	14.33	
2025-01-18 02:26:12.64	237.37	14.20	
2025-01-18 02:26:13.86	237.24	14.08	
2025-01-18 02:26:15.08	237.12	13.96	
2025-01-18 02:26:16.30	237.00	13.83	
2025-01-18 02:26:17.51	236.87	13.71	
2025-01-18 02:26:18.73	236.75	13.59	
2025-01-18 02:26:19.95	236.63	13.47	
2025-01-18 02:26:21.17	236.51	13.35	
2025-01-18 02:26:22.39	236.40	13.23	
2025-01-18 02:26:23.60	236.28	13.11	
2025-01-18 02:26:24.82	236.16	12.99	
2025-01-18 02:26:26.04	236.05	12.87	
2025-01-18 02:26:27.26	235.93	12.75	
2025-01-18 02:26:28.48	235.82	12.63	
2025-01-18 02:26:29.69	235.71	12.52	
2025-01-18 02:26:30.91	235.60	12.40	
2025-01-18 02:26:32.13	235.49	12.29	
2025-01-18 02:26:33.35	235.38	12.17	
2025-01-18 02:26:34.56	235.27	12.06	
2025-01-18 02:26:35.78	235.17	11.94	
2025-01-18 02:26:37.00	235.06	11.83	
2025-01-18 02:26:38.22	234.95	11.71	
2025-01-18 02:26:39.44	234.85	11.60	
2025-01-18 02:26:40.65	234.75	11.49	
2025-01-18 02:26:41.87	234.64	11.38	
2025-01-18 02:26:43.09	234.54	11.27	
2025-01-18 02:26:44.31	234.44	11.15	
2025-01-18 02:26:45.53	234.34	11.04	
2025-01-18 02:26:46.74	234.24	10.93	
2025-01-18 02:26:47.96	234.14	10.82	
2025-01-18 02:26:49.18	234.05	10.72	
2025-01-18 02:26:50.40	233.95	10.61	
2025-01-18 02:26:51.62	233.85	10.50	
2025-01-18 02:26:52.83	233.76	10.39	
2025-01-18 02:26:54.05	233.66	10.28	
2025-01-18 02:26:55.27	233.57	10.18	
2025-01-18 02:26:56.49	233.48	10.07	
2025-01-18 02:26:57.70	233.39	9.96	
2025-01-18 02:26:58.92	233.29	9.86	
2025-01-18 02:27:00.14	233.20	9.75	
2025-01-18 02:27:01.36	233.11	9.65	
2025-01-18 02:27:02.58	233.02	9.54	
2025-01-18 02:27:03.79	232.94	9.44	
2025-01-18 02:27:05.01	232.85	9.34	
2025-01-18 02:27:06.23	232.76	9.23	
2025-01-18 02:27:07.45	232.67	9.13	
2025-01-18 02:27:08.67	232.59	9.03	
2025-01-18 02:27:09.88	232.50	8.93	
2025-01-18 02:27:11.10	232.42	8.83	
2025-01-18 02:27:12.32	232.34	8.73	
2025-01-18 02:27:13.54	232.25	8.62	
2025-01-18 02:27:14.75	232.17	8.53	
2025-01-18 02:27:15.97	232.09	8.43	
2025-01-18 02:27:17.19	232.01	8.33	
2025-01-18 02:27:18.41	231.93	8.23	
2025-01-18 02:27:19.63	231.85	8.13	
2025-01-18 02:27:20.84	231.77	8.03	
2025-01-18 02:27:22.06	231.69	7.93	
2025-01-18 02:27:23.28	231.61	7.83	
2025-01-18 02:27:24.50	231.53	7.74	
2025-01-18 02:27:25.72	231.46	7.64	
2025-01-18 02:27:26.93	231.38	7.54	
2025-01-18 02:27:28.15	231.30	7.45	
2025-01-18 02:27:29.37	231.23	7.35	
2025-01-18 02:27:30.59	231.15	7.26	
2025-01-18 02:27:31.81	231.08	7.16	
2025-01-18 02:27:33.02	231.01	7.07	
2025-01-18 02:27:34.24	230.93	6.97	
2025-01-18 02:27:35.46	230.86	6.88	
2025-01-18 02:27:36.68	230.79	6.78	
2025-01-18 02:27:37.89	230.72	6.69	
2025-01-18 02:27:39.11	230.65	6.60	
2025-01-18 02:27:40.33	230.58	6.51	
2025-01-18 02:27:41.55	230.51	6.41	
2025-01-18 02:27:42.77	230.44	6.32	
2025-01-18 02:27:43.98	230.37	6.23	
2025-01-18 02:27:45.20	230.30	6.14	
2025-01-18 02:27:46.42	230.23	6.05	
2025-01-18 02:27:47.64	230.16	5.96	
2025-01-18 02:27:48.86	230.10	5.87	
2025-01-18 02:27:50.07	230.03	5.78	
2025-01-18 02:27:51.29	229.96	5.69	
2025-01-18 02:27:52.51	229.90	5.60	
2025-01-18 02:27:53.73	229.83	5.51	
2025-01-18 02:27:54.94	229.77	5.42	
2025-01-18 02:27:56.16	229.70	5.33	
2025-01-18 02:27:57.38	229.64	5.24	
2025-01-18 02:27:58.60	229.58	5.15	
2025-01-18 02:27:59.82	229.51	5.07	
2025-01-18 02:28:01.03	229.45	4.98	
2025-01-18 02:28:02.25	229.39	4.89	
2025-01-18 02:28:03.47	229.33	4.80	
2025-01-18 02:28:04.69	229.27	4.72	
2025-01-18 02:28:05.91	229.20	4.63	
2025-01-18 02:28:07.12	229.14	4.55	
2025-01-18 02:28:08.34	229.08	4.46	
2025-01-18 02:28:09.56	229.02	4.37	
2025-01-18 02:28:10.78	228.96	4.29	
2025-01-18 02:28:12.00	228.91	4.20	
2025-01-18 02:28:13.21	228.85	4.12	
2025-01-18 02:28:14.43	228.79	4.04	

#Closed at: 2025-01-18 02:28:15