passes_logs/2025/01/18/SPB_Silybum_02/SPB_Silybum_02__20250118_225749_SUOMI_NPP_rec.log

#Pass ID: 20250118_225749_SUOMI NPP
#Satellite: SUOMI NPP
#Configuration: NPP
#Start time: 2025-01-18 22:57:48

#Version: 2.0.20230423
#Station: SPB_Silybum_02
#Location: 30.233357 lon 59.946436 lat
#TLE: 1 37849U 11061A   25018.16218063  .00000203  00000+0  11733-3 0  9995
#TLE: 2 37849  98.7450 319.1107 0001555  36.1075 324.0206 14.19539838685362

#Time	Az	El	Level	Level2	SNR	BER	Gain	Gain2
2025-01-18 22:57:50.88	24.05	4.08	
2025-01-18 22:57:52.30	24.14	4.17	
2025-01-18 22:57:53.72	24.24	4.25	
2025-01-18 22:57:55.14	24.33	4.34	
2025-01-18 22:57:56.56	24.43	4.43	
2025-01-18 22:57:57.98	24.52	4.52	
2025-01-18 22:57:59.41	24.62	4.61	
2025-01-18 22:58:00.83	24.72	4.70	
2025-01-18 22:58:02.25	24.81	4.78	
2025-01-18 22:58:03.67	24.91	4.87	
2025-01-18 22:58:05.09	25.01	4.96	
2025-01-18 22:58:06.51	25.11	5.05	
2025-01-18 22:58:07.93	25.21	5.14	
2025-01-18 22:58:09.36	25.31	5.23	
2025-01-18 22:58:10.78	25.41	5.32	
2025-01-18 22:58:12.20	25.51	5.41	
2025-01-18 22:58:13.62	25.62	5.50	
2025-01-18 22:58:15.04	25.72	5.59	
2025-01-18 22:58:16.46	25.82	5.69	
2025-01-18 22:58:17.89	25.93	5.78	
2025-01-18 22:58:19.31	26.03	5.87	
2025-01-18 22:58:20.73	26.14	5.96	
2025-01-18 22:58:22.15	26.24	6.05	
2025-01-18 22:58:23.57	26.35	6.15	
2025-01-18 22:58:24.99	26.46	6.24	
2025-01-18 22:58:26.41	26.56	6.33	
2025-01-18 22:58:27.84	26.67	6.42	
2025-01-18 22:58:29.26	26.78	6.52	
2025-01-18 22:58:30.69	26.89	6.61	
2025-01-18 22:58:32.11	27.00	6.71	
2025-01-18 22:58:33.54	27.11	6.80	
2025-01-18 22:58:34.96	27.23	6.90	
2025-01-18 22:58:36.38	27.34	6.99	
2025-01-18 22:58:37.80	27.45	7.08	
2025-01-18 22:58:39.23	27.57	7.18	
2025-01-18 22:58:40.66	27.68	7.28	
2025-01-18 22:58:42.08	27.80	7.37	
2025-01-18 22:58:43.50	27.91	7.47	
2025-01-18 22:58:44.92	28.03	7.57	
2025-01-18 22:58:46.34	28.15	7.66	
2025-01-18 22:58:47.76	28.26	7.76	
2025-01-18 22:58:49.18	28.38	7.86	
2025-01-18 22:58:50.61	28.50	7.95	
2025-01-18 22:58:52.03	28.62	8.05	
2025-01-18 22:58:53.45	28.74	8.15	
2025-01-18 22:58:54.87	28.87	8.25	
2025-01-18 22:58:56.29	28.99	8.35	
2025-01-18 22:58:57.71	29.11	8.44	
2025-01-18 22:58:59.13	29.24	8.54	
2025-01-18 22:59:00.56	29.36	8.64	
2025-01-18 22:59:01.98	29.49	8.74	
2025-01-18 22:59:03.40	29.62	8.84	
2025-01-18 22:59:04.82	29.74	8.94	
2025-01-18 22:59:06.24	29.87	9.04	
2025-01-18 22:59:07.66	30.00	9.14	
2025-01-18 22:59:09.08	30.13	9.25	
2025-01-18 22:59:10.51	30.26	9.35	
2025-01-18 22:59:11.93	30.39	9.45	
2025-01-18 22:59:13.35	30.53	9.55	
2025-01-18 22:59:14.77	30.66	9.65	
2025-01-18 22:59:16.19	30.79	9.76	
2025-01-18 22:59:17.61	30.93	9.86	
2025-01-18 22:59:19.03	31.07	9.96	
2025-01-18 22:59:20.46	31.20	10.07	
2025-01-18 22:59:21.88	31.34	10.17	
2025-01-18 22:59:23.30	31.48	10.27	
2025-01-18 22:59:24.72	31.62	10.38	
2025-01-18 22:59:26.14	31.76	10.48	
2025-01-18 22:59:27.56	31.90	10.59	
2025-01-18 22:59:28.99	32.05	10.69	
2025-01-18 22:59:30.41	32.19	10.80	
2025-01-18 22:59:31.83	32.34	10.90	
2025-01-18 22:59:33.25	32.48	11.01	
2025-01-18 22:59:34.67	32.63	11.12	
2025-01-18 22:59:36.09	32.78	11.22	
2025-01-18 22:59:37.51	32.93	11.33	
2025-01-18 22:59:38.94	33.08	11.44	
2025-01-18 22:59:40.36	33.23	11.55	
2025-01-18 22:59:41.78	33.38	11.65	
2025-01-18 22:59:43.20	33.53	11.76	
2025-01-18 22:59:44.62	33.69	11.87	
2025-01-18 22:59:46.04	33.84	11.98	
2025-01-18 22:59:47.46	34.00	12.09	
2025-01-18 22:59:48.89	34.16	12.20	
2025-01-18 22:59:50.31	34.32	12.31	
2025-01-18 22:59:51.73	34.48	12.42	
2025-01-18 22:59:53.15	34.64	12.53	
2025-01-18 22:59:54.57	34.80	12.64	
2025-01-18 22:59:55.99	34.96	12.75	
2025-01-18 22:59:57.41	35.13	12.86	
2025-01-18 22:59:58.84	35.29	12.97	
2025-01-18 23:00:00.26	35.46	13.09	
2025-01-18 23:00:01.68	35.63	13.20	
2025-01-18 23:00:03.10	35.80	13.31	
2025-01-18 23:00:04.52	35.97	13.42	
2025-01-18 23:00:05.94	36.14	13.54	
2025-01-18 23:00:07.36	36.31	13.65	
2025-01-18 23:00:08.79	36.49	13.77	
2025-01-18 23:00:10.21	36.66	13.88	
2025-01-18 23:00:11.63	36.84	13.99	
2025-01-18 23:00:13.05	37.02	14.11	
2025-01-18 23:00:14.47	37.20	14.22	
2025-01-18 23:00:15.89	37.38	14.34	
2025-01-18 23:00:17.32	37.56	14.45	
2025-01-18 23:00:18.74	37.75	14.57	
2025-01-18 23:00:20.16	37.93	14.69	
2025-01-18 23:00:21.58	38.12	14.80	
2025-01-18 23:00:23.00	38.31	14.92	
2025-01-18 23:00:24.42	38.50	15.04	
2025-01-18 23:00:25.84	38.69	15.15	
2025-01-18 23:00:27.27	38.88	15.27	
2025-01-18 23:00:28.69	39.08	15.39	
2025-01-18 23:00:30.11	39.27	15.51	
2025-01-18 23:00:31.53	39.47	15.62	
2025-01-18 23:00:32.95	39.67	15.74	
2025-01-18 23:00:34.37	39.87	15.86	
2025-01-18 23:00:35.79	40.07	15.98	
2025-01-18 23:00:37.22	40.27	16.10	
2025-01-18 23:00:38.64	40.48	16.22	
2025-01-18 23:00:40.06	40.68	16.34	
2025-01-18 23:00:41.48	40.89	16.46	
2025-01-18 23:00:42.90	41.10	16.58	
2025-01-18 23:00:44.32	41.31	16.70	
2025-01-18 23:00:45.74	41.52	16.82	
2025-01-18 23:00:47.17	41.74	16.94	
2025-01-18 23:00:48.59	41.95	17.07	
2025-01-18 23:00:50.01	42.17	17.19	
2025-01-18 23:00:51.43	42.39	17.31	
2025-01-18 23:00:52.85	42.61	17.43	
2025-01-18 23:00:54.27	42.83	17.55	
2025-01-18 23:00:55.69	43.06	17.67	
2025-01-18 23:00:57.12	43.29	17.80	
2025-01-18 23:00:58.54	43.51	17.92	
2025-01-18 23:00:59.96	43.74	18.04	
2025-01-18 23:01:01.38	43.97	18.17	
2025-01-18 23:01:02.80	44.21	18.29	
2025-01-18 23:01:04.22	44.44	18.41	
2025-01-18 23:01:05.65	44.68	18.54	
2025-01-18 23:01:07.07	44.92	18.66	
2025-01-18 23:01:08.49	45.16	18.78	
2025-01-18 23:01:09.91	45.41	18.91	
2025-01-18 23:01:11.33	45.65	19.03	
2025-01-18 23:01:12.75	45.90	19.16	
2025-01-18 23:01:14.17	46.15	19.28	
2025-01-18 23:01:15.60	46.40	19.41	
2025-01-18 23:01:17.02	46.65	19.53	
2025-01-18 23:01:18.44	46.91	19.66	
2025-01-18 23:01:19.86	47.16	19.78	
2025-01-18 23:01:21.28	47.42	19.90	
2025-01-18 23:01:22.70	47.68	20.03	
2025-01-18 23:01:24.12	47.94	20.15	
2025-01-18 23:01:25.55	48.21	20.28	
2025-01-18 23:01:26.97	48.48	20.40	
2025-01-18 23:01:28.39	48.75	20.53	
2025-01-18 23:01:29.81	49.02	20.65	
2025-01-18 23:01:31.23	49.29	20.78	
2025-01-18 23:01:32.65	49.57	20.90	
2025-01-18 23:01:34.07	49.85	21.03	
2025-01-18 23:01:35.50	50.13	21.15	
2025-01-18 23:01:36.92	50.41	21.28	
2025-01-18 23:01:38.34	50.70	21.40	
2025-01-18 23:01:39.76	50.98	21.53	
2025-01-18 23:01:41.18	51.27	21.65	
2025-01-18 23:01:42.60	51.56	21.78	
2025-01-18 23:01:44.02	51.86	21.90	
2025-01-18 23:01:45.45	52.16	22.03	
2025-01-18 23:01:46.87	52.45	22.15	
2025-01-18 23:01:48.29	52.75	22.27	
2025-01-18 23:01:49.71	53.06	22.40	
2025-01-18 23:01:51.13	53.36	22.52	
2025-01-18 23:01:52.55	53.67	22.64	
2025-01-18 23:01:53.97	53.98	22.77	
2025-01-18 23:01:55.40	54.30	22.89	
2025-01-18 23:01:56.82	54.61	23.01	
2025-01-18 23:01:58.24	54.93	23.13	
2025-01-18 23:01:59.66	55.25	23.26	
2025-01-18 23:02:01.08	55.57	23.38	
2025-01-18 23:02:02.50	55.89	23.50	
2025-01-18 23:02:03.93	56.22	23.62	
2025-01-18 23:02:05.35	56.55	23.74	
2025-01-18 23:02:06.77	56.89	23.86	
2025-01-18 23:02:08.19	57.22	23.98	
2025-01-18 23:02:09.61	57.56	24.10	
2025-01-18 23:02:11.03	57.90	24.22	
2025-01-18 23:02:12.45	58.24	24.33	
2025-01-18 23:02:13.88	58.59	24.45	
2025-01-18 23:02:15.30	58.93	24.57	
2025-01-18 23:02:16.72	59.28	24.68	
2025-01-18 23:02:18.14	59.64	24.80	
2025-01-18 23:02:19.56	59.99	24.92	
2025-01-18 23:02:20.98	60.35	25.03	
2025-01-18 23:02:22.40	60.71	25.14	
2025-01-18 23:02:23.83	61.07	25.26	
2025-01-18 23:02:25.25	61.44	25.37	
2025-01-18 23:02:26.67	61.81	25.48	
2025-01-18 23:02:28.09	62.18	25.59	
2025-01-18 23:02:29.51	62.55	25.70	
2025-01-18 23:02:30.93	62.93	25.81	
2025-01-18 23:02:32.35	63.30	25.92	
2025-01-18 23:02:33.78	63.69	26.03	
2025-01-18 23:02:35.20	64.07	26.14	
2025-01-18 23:02:36.62	64.46	26.24	
2025-01-18 23:02:38.04	64.84	26.35	
2025-01-18 23:02:39.46	65.23	26.45	
2025-01-18 23:02:40.88	65.63	26.55	
2025-01-18 23:02:42.30	66.02	26.65	
2025-01-18 23:02:43.73	66.42	26.76	
2025-01-18 23:02:45.15	66.82	26.86	
2025-01-18 23:02:46.57	67.23	26.95	
2025-01-18 23:02:47.99	67.63	27.05	
2025-01-18 23:02:49.41	68.04	27.15	
2025-01-18 23:02:50.83	68.45	27.24	
2025-01-18 23:02:52.26	68.87	27.34	
2025-01-18 23:02:53.68	69.28	27.43	
2025-01-18 23:02:55.10	69.70	27.52	
2025-01-18 23:02:56.52	70.12	27.61	
2025-01-18 23:02:57.94	70.54	27.70	
2025-01-18 23:02:59.36	70.97	27.79	
2025-01-18 23:03:00.78	71.39	27.87	
2025-01-18 23:03:02.21	71.83	27.96	
2025-01-18 23:03:03.63	72.26	28.04	
2025-01-18 23:03:05.05	72.69	28.12	
2025-01-18 23:03:06.47	73.13	28.20	
2025-01-18 23:03:07.89	73.56	28.28	
2025-01-18 23:03:09.31	74.00	28.36	
2025-01-18 23:03:10.73	74.45	28.43	
2025-01-18 23:03:12.16	74.89	28.51	
2025-01-18 23:03:13.58	75.34	28.58	
2025-01-18 23:03:15.00	75.79	28.65	
2025-01-18 23:03:16.42	76.24	28.72	
2025-01-18 23:03:17.84	76.69	28.78	
2025-01-18 23:03:19.26	77.14	28.85	
2025-01-18 23:03:20.68	77.60	28.91	
2025-01-18 23:03:22.11	78.06	28.98	
2025-01-18 23:03:23.53	78.52	29.04	
2025-01-18 23:03:24.95	78.98	29.09	
2025-01-18 23:03:26.37	79.44	29.15	
2025-01-18 23:03:27.79	79.90	29.20	
2025-01-18 23:03:29.21	80.37	29.26	
2025-01-18 23:03:30.63	80.84	29.31	
2025-01-18 23:03:32.06	81.31	29.35	
2025-01-18 23:03:33.48	81.78	29.40	
2025-01-18 23:03:34.90	82.25	29.45	
2025-01-18 23:03:36.32	82.72	29.49	
2025-01-18 23:03:37.74	83.19	29.53	
2025-01-18 23:03:39.16	83.67	29.57	
2025-01-18 23:03:40.58	84.14	29.60	
2025-01-18 23:03:42.01	84.62	29.64	
2025-01-18 23:03:43.43	85.10	29.67	
2025-01-18 23:03:44.85	85.58	29.70	
2025-01-18 23:03:46.27	86.06	29.73	
2025-01-18 23:03:47.69	86.54	29.75	
2025-01-18 23:03:49.11	87.02	29.78	
2025-01-18 23:03:50.54	87.51	29.80	
2025-01-18 23:03:51.96	87.99	29.82	
2025-01-18 23:03:53.38	88.47	29.83	
2025-01-18 23:03:54.80	88.96	29.85	
2025-01-18 23:03:56.22	89.44	29.86	
2025-01-18 23:03:57.64	89.92	29.87	
2025-01-18 23:03:59.06	90.41	29.88	
2025-01-18 23:04:00.49	90.90	29.89	
2025-01-18 23:04:01.91	91.38	29.89	
2025-01-18 23:04:03.33	91.87	29.89	
2025-01-18 23:04:04.75	92.35	29.89	
2025-01-18 23:04:06.17	92.84	29.89	
2025-01-18 23:04:07.59	93.32	29.88	
2025-01-18 23:04:09.01	93.81	29.88	
2025-01-18 23:04:10.44	94.29	29.87	
2025-01-18 23:04:11.86	94.78	29.86	
2025-01-18 23:04:13.28	95.26	29.84	
2025-01-18 23:04:14.70	95.75	29.83	
2025-01-18 23:04:16.12	96.23	29.81	
2025-01-18 23:04:17.54	96.71	29.79	
2025-01-18 23:04:18.96	97.19	29.77	
2025-01-18 23:04:20.39	97.68	29.74	
2025-01-18 23:04:21.81	98.16	29.72	
2025-01-18 23:04:23.23	98.64	29.69	
2025-01-18 23:04:24.65	99.12	29.66	
2025-01-18 23:04:26.07	99.59	29.62	
2025-01-18 23:04:27.49	100.07	29.59	
2025-01-18 23:04:28.91	100.55	29.55	
2025-01-18 23:04:30.34	101.02	29.51	
2025-01-18 23:04:31.76	101.50	29.47	
2025-01-18 23:04:33.18	101.97	29.43	
2025-01-18 23:04:34.60	102.44	29.38	
2025-01-18 23:04:36.02	102.91	29.33	
2025-01-18 23:04:37.44	103.38	29.28	
2025-01-18 23:04:38.87	103.85	29.23	
2025-01-18 23:04:40.29	104.32	29.18	
2025-01-18 23:04:41.71	104.78	29.12	
2025-01-18 23:04:43.13	105.24	29.07	
2025-01-18 23:04:44.55	105.70	29.01	
2025-01-18 23:04:45.97	106.16	28.95	
2025-01-18 23:04:47.39	106.62	28.88	
2025-01-18 23:04:48.82	107.08	28.82	
2025-01-18 23:04:50.24	107.53	28.75	
2025-01-18 23:04:51.66	107.98	28.69	
2025-01-18 23:04:53.08	108.43	28.62	
2025-01-18 23:04:54.50	108.88	28.54	
2025-01-18 23:04:55.92	109.33	28.47	
2025-01-18 23:04:57.34	109.77	28.40	
2025-01-18 23:04:58.77	110.22	28.32	
2025-01-18 23:05:00.19	110.66	28.24	
2025-01-18 23:05:01.61	111.10	28.16	
2025-01-18 23:05:03.03	111.53	28.08	
2025-01-18 23:05:04.45	111.97	28.00	
2025-01-18 23:05:05.87	112.40	27.92	
2025-01-18 23:05:07.29	112.83	27.83	
2025-01-18 23:05:08.72	113.26	27.74	
2025-01-18 23:05:10.14	113.68	27.65	
2025-01-18 23:05:11.56	114.10	27.56	
2025-01-18 23:05:12.98	114.52	27.47	
2025-01-18 23:05:14.40	114.94	27.38	
2025-01-18 23:05:15.82	115.36	27.29	
2025-01-18 23:05:17.24	115.77	27.19	
2025-01-18 23:05:18.67	116.18	27.10	
2025-01-18 23:05:20.09	116.59	27.00	
2025-01-18 23:05:21.51	117.00	26.90	
2025-01-18 23:05:22.93	117.40	26.80	
2025-01-18 23:05:24.35	117.80	26.70	
2025-01-18 23:05:25.77	118.20	26.60	
2025-01-18 23:05:27.20	118.60	26.49	
2025-01-18 23:05:28.62	118.99	26.39	
2025-01-18 23:05:30.04	119.38	26.29	
2025-01-18 23:05:31.46	119.77	26.18	
2025-01-18 23:05:32.88	120.16	26.07	
2025-01-18 23:05:34.30	120.54	25.97	
2025-01-18 23:05:35.72	120.92	25.86	
2025-01-18 23:05:37.15	121.30	25.75	
2025-01-18 23:05:38.57	121.68	25.64	
2025-01-18 23:05:39.99	122.05	25.53	
2025-01-18 23:05:41.41	122.42	25.41	
2025-01-18 23:05:42.83	122.79	25.30	
2025-01-18 23:05:44.25	123.15	25.19	
2025-01-18 23:05:45.67	123.51	25.07	
2025-01-18 23:05:47.10	123.88	24.96	
2025-01-18 23:05:48.52	124.23	24.84	
2025-01-18 23:05:49.94	124.59	24.73	
2025-01-18 23:05:51.36	124.94	24.61	
2025-01-18 23:05:52.78	125.29	24.49	
2025-01-18 23:05:54.20	125.64	24.37	
2025-01-18 23:05:55.62	125.98	24.26	
2025-01-18 23:05:57.05	126.33	24.14	
2025-01-18 23:05:58.47	126.67	24.02	
2025-01-18 23:05:59.89	127.01	23.90	
2025-01-18 23:06:01.31	127.34	23.78	
2025-01-18 23:06:02.73	127.67	23.66	
2025-01-18 23:06:04.15	128.00	23.53	
2025-01-18 23:06:05.57	128.33	23.41	
2025-01-18 23:06:07.00	128.66	23.29	
2025-01-18 23:06:08.42	128.98	23.17	
2025-01-18 23:06:09.84	129.30	23.05	
2025-01-18 23:06:11.26	129.62	22.92	
2025-01-18 23:06:12.68	129.93	22.80	
2025-01-18 23:06:14.10	130.24	22.68	
2025-01-18 23:06:15.53	130.56	22.55	
2025-01-18 23:06:16.95	130.86	22.43	
2025-01-18 23:06:18.37	131.17	22.30	
2025-01-18 23:06:19.79	131.47	22.18	
2025-01-18 23:06:21.21	131.77	22.05	
2025-01-18 23:06:22.63	132.07	21.93	
2025-01-18 23:06:24.05	132.37	21.80	
2025-01-18 23:06:25.48	132.66	21.68	
2025-01-18 23:06:26.90	132.95	21.55	
2025-01-18 23:06:28.32	133.24	21.43	
2025-01-18 23:06:29.74	133.53	21.30	
2025-01-18 23:06:31.16	133.81	21.18	
2025-01-18 23:06:32.58	134.10	21.05	
2025-01-18 23:06:34.00	134.38	20.92	
2025-01-18 23:06:35.43	134.66	20.80	
2025-01-18 23:06:36.85	134.93	20.67	
2025-01-18 23:06:38.27	135.20	20.55	
2025-01-18 23:06:39.69	135.48	20.42	
2025-01-18 23:06:41.11	135.74	20.29	
2025-01-18 23:06:42.53	136.01	20.17	
2025-01-18 23:06:43.95	136.28	20.04	
2025-01-18 23:06:45.38	136.54	19.92	
2025-01-18 23:06:46.80	136.80	19.79	
2025-01-18 23:06:48.22	137.06	19.66	
2025-01-18 23:06:49.64	137.32	19.54	
2025-01-18 23:06:51.06	137.57	19.41	
2025-01-18 23:06:52.48	137.82	19.29	
2025-01-18 23:06:53.90	138.07	19.16	
2025-01-18 23:06:55.33	138.32	19.04	
2025-01-18 23:06:56.75	138.57	18.91	
2025-01-18 23:06:58.17	138.81	18.79	
2025-01-18 23:06:59.59	139.06	18.66	
2025-01-18 23:07:01.01	139.30	18.54	
2025-01-18 23:07:02.43	139.54	18.41	
2025-01-18 23:07:03.86	139.77	18.29	
2025-01-18 23:07:05.28	140.01	18.16	
2025-01-18 23:07:06.70	140.24	18.04	
2025-01-18 23:07:08.12	140.47	17.92	
2025-01-18 23:07:09.54	140.70	17.79	
2025-01-18 23:07:10.96	140.93	17.67	
2025-01-18 23:07:12.38	141.16	17.55	
2025-01-18 23:07:13.81	141.38	17.42	
2025-01-18 23:07:15.23	141.60	17.30	
2025-01-18 23:07:16.65	141.82	17.18	
2025-01-18 23:07:18.07	142.04	17.05	
2025-01-18 23:07:19.49	142.26	16.93	
2025-01-18 23:07:20.91	142.48	16.81	
2025-01-18 23:07:22.33	142.69	16.69	
2025-01-18 23:07:23.76	142.90	16.56	
2025-01-18 23:07:25.18	143.11	16.44	
2025-01-18 23:07:26.60	143.32	16.32	
2025-01-18 23:07:28.02	143.53	16.20	
2025-01-18 23:07:29.44	143.73	16.08	
2025-01-18 23:07:30.86	143.94	15.96	
2025-01-18 23:07:32.28	144.14	15.84	
2025-01-18 23:07:33.71	144.34	15.72	
2025-01-18 23:07:35.13	144.54	15.60	
2025-01-18 23:07:36.55	144.74	15.48	
2025-01-18 23:07:37.97	144.94	15.36	
2025-01-18 23:07:39.39	145.13	15.24	
2025-01-18 23:07:40.81	145.32	15.12	
2025-01-18 23:07:42.23	145.51	15.01	
2025-01-18 23:07:43.66	145.71	14.89	
2025-01-18 23:07:45.08	145.90	14.77	
2025-01-18 23:07:46.50	146.08	14.65	
2025-01-18 23:07:47.92	146.27	14.54	
2025-01-18 23:07:49.34	146.45	14.42	
2025-01-18 23:07:50.76	146.64	14.30	
2025-01-18 23:07:52.18	146.82	14.19	
2025-01-18 23:07:53.61	147.00	14.07	
2025-01-18 23:07:55.03	147.18	13.95	
2025-01-18 23:07:56.45	147.36	13.84	
2025-01-18 23:07:57.87	147.53	13.72	
2025-01-18 23:07:59.29	147.71	13.61	
2025-01-18 23:08:00.71	147.88	13.49	
2025-01-18 23:08:02.14	148.05	13.38	
2025-01-18 23:08:03.56	148.23	13.27	
2025-01-18 23:08:04.98	148.39	13.15	
2025-01-18 23:08:06.40	148.56	13.04	
2025-01-18 23:08:07.82	148.73	12.93	
2025-01-18 23:08:09.24	148.90	12.81	
2025-01-18 23:08:10.66	149.06	12.70	
2025-01-18 23:08:12.09	149.23	12.59	
2025-01-18 23:08:13.51	149.39	12.48	
2025-01-18 23:08:14.93	149.55	12.37	
2025-01-18 23:08:16.35	149.71	12.25	
2025-01-18 23:08:17.77	149.87	12.14	
2025-01-18 23:08:19.19	150.03	12.03	
2025-01-18 23:08:20.61	150.18	11.92	
2025-01-18 23:08:22.04	150.34	11.81	
2025-01-18 23:08:23.46	150.50	11.70	
2025-01-18 23:08:24.88	150.65	11.59	
2025-01-18 23:08:26.30	150.80	11.48	
2025-01-18 23:08:27.72	150.95	11.38	
2025-01-18 23:08:29.14	151.10	11.27	
2025-01-18 23:08:30.56	151.25	11.16	
2025-01-18 23:08:31.99	151.40	11.05	
2025-01-18 23:08:33.41	151.55	10.94	
2025-01-18 23:08:34.83	151.69	10.84	
2025-01-18 23:08:36.25	151.84	10.73	
2025-01-18 23:08:37.67	151.98	10.62	
2025-01-18 23:08:39.09	152.12	10.52	
2025-01-18 23:08:40.51	152.27	10.41	
2025-01-18 23:08:41.94	152.41	10.31	
2025-01-18 23:08:43.36	152.55	10.20	
2025-01-18 23:08:44.78	152.69	10.10	
2025-01-18 23:08:46.20	152.83	9.99	
2025-01-18 23:08:47.62	152.96	9.89	
2025-01-18 23:08:49.04	153.10	9.78	
2025-01-18 23:08:50.47	153.23	9.68	
2025-01-18 23:08:51.89	153.37	9.57	
2025-01-18 23:08:53.31	153.50	9.47	
2025-01-18 23:08:54.73	153.63	9.37	
2025-01-18 23:08:56.15	153.77	9.27	
2025-01-18 23:08:57.57	153.90	9.16	
2025-01-18 23:08:58.99	154.03	9.06	
2025-01-18 23:09:00.42	154.16	8.96	
2025-01-18 23:09:01.84	154.28	8.86	
2025-01-18 23:09:03.26	154.41	8.76	
2025-01-18 23:09:04.68	154.54	8.66	
2025-01-18 23:09:06.10	154.66	8.56	
2025-01-18 23:09:07.52	154.79	8.46	
2025-01-18 23:09:08.94	154.91	8.36	
2025-01-18 23:09:10.37	155.04	8.26	
2025-01-18 23:09:11.79	155.16	8.16	
2025-01-18 23:09:13.21	155.28	8.06	
2025-01-18 23:09:14.63	155.40	7.96	
2025-01-18 23:09:16.05	155.52	7.86	
2025-01-18 23:09:17.47	155.64	7.76	
2025-01-18 23:09:18.89	155.76	7.66	
2025-01-18 23:09:20.32	155.88	7.56	
2025-01-18 23:09:21.74	155.99	7.47	
2025-01-18 23:09:23.16	156.11	7.37	
2025-01-18 23:09:24.58	156.23	7.27	
2025-01-18 23:09:26.00	156.34	7.18	
2025-01-18 23:09:27.42	156.45	7.08	
2025-01-18 23:09:28.84	156.57	6.98	
2025-01-18 23:09:30.27	156.68	6.89	
2025-01-18 23:09:31.69	156.79	6.79	
2025-01-18 23:09:33.11	156.90	6.70	
2025-01-18 23:09:34.53	157.01	6.60	
2025-01-18 23:09:35.95	157.12	6.51	
2025-01-18 23:09:37.37	157.23	6.41	
2025-01-18 23:09:38.80	157.34	6.32	
2025-01-18 23:09:40.22	157.45	6.22	
2025-01-18 23:09:41.64	157.56	6.13	
2025-01-18 23:09:43.06	157.66	6.04	
2025-01-18 23:09:44.48	157.77	5.94	
2025-01-18 23:09:45.90	157.88	5.85	
2025-01-18 23:09:47.32	157.98	5.76	
2025-01-18 23:09:48.75	158.08	5.67	
2025-01-18 23:09:50.17	158.19	5.57	
2025-01-18 23:09:51.59	158.29	5.48	
2025-01-18 23:09:53.01	158.39	5.39	
2025-01-18 23:09:54.43	158.49	5.30	
2025-01-18 23:09:55.85	158.59	5.21	
2025-01-18 23:09:57.27	158.69	5.12	
2025-01-18 23:09:58.70	158.79	5.02	
2025-01-18 23:10:00.12	158.89	4.93	
2025-01-18 23:10:01.54	158.99	4.84	
2025-01-18 23:10:02.96	159.09	4.75	
2025-01-18 23:10:04.38	159.19	4.66	
2025-01-18 23:10:05.80	159.28	4.57	
2025-01-18 23:10:07.22	159.38	4.49	
2025-01-18 23:10:08.65	159.48	4.40	
2025-01-18 23:10:10.07	159.57	4.31	
2025-01-18 23:10:11.49	159.67	4.22	
2025-01-18 23:10:12.91	159.76	4.13	
2025-01-18 23:10:14.33	159.85	4.04	

#Closed at: 2025-01-18 23:10:15