passes_logs/2025/01/18/SPB_Silybum_02/SPB_Silybum_02__20250118_113619_TERRA_rec.log

#Pass ID: 20250118_113619_TERRA
#Satellite: TERRA
#Configuration: TERRA
#Start time: 2025-01-18 11:36:19

#Version: 2.0.20230423
#Station: SPB_Silybum_02
#Location: 30.233357 lon 59.946436 lat
#TLE: 1 25994U 99068A   25017.80257355  .00000903  00000+0  19577-3 0  9994
#TLE: 2 25994  98.0211  80.7437 0003372  66.8373  47.3878 14.60400955334482

#Time	Az	El	Level	Level2	SNR	BER	Gain	Gain2
2025-01-18 11:36:21.84	4.49	4.10	
2025-01-18 11:36:22.65	4.37	4.13	
2025-01-18 11:36:23.46	4.26	4.16	
2025-01-18 11:36:24.27	4.15	4.19	
2025-01-18 11:36:25.08	4.04	4.22	
2025-01-18 11:36:25.90	3.92	4.25	
2025-01-18 11:36:26.71	3.81	4.28	
2025-01-18 11:36:27.52	3.70	4.31	
2025-01-18 11:36:28.33	3.58	4.35	
2025-01-18 11:36:29.14	3.47	4.38	
2025-01-18 11:36:29.96	3.35	4.41	
2025-01-18 11:36:30.77	3.24	4.44	
2025-01-18 11:36:31.58	3.12	4.47	
2025-01-18 11:36:32.39	3.01	4.50	
2025-01-18 11:36:33.20	2.89	4.53	
2025-01-18 11:36:34.02	2.77	4.56	
2025-01-18 11:36:34.83	2.66	4.59	
2025-01-18 11:36:35.64	2.54	4.62	
2025-01-18 11:36:36.45	2.43	4.65	
2025-01-18 11:36:37.26	2.31	4.68	
2025-01-18 11:36:38.07	2.19	4.71	
2025-01-18 11:36:38.89	2.07	4.74	
2025-01-18 11:36:39.70	1.95	4.77	
2025-01-18 11:36:40.51	1.84	4.80	
2025-01-18 11:36:41.32	1.72	4.83	
2025-01-18 11:36:42.13	1.60	4.86	
2025-01-18 11:36:42.95	1.48	4.89	
2025-01-18 11:36:43.76	1.36	4.92	
2025-01-18 11:36:44.57	1.24	4.95	
2025-01-18 11:36:45.38	1.12	4.98	
2025-01-18 11:36:46.19	1.00	5.01	
2025-01-18 11:36:47.01	0.88	5.04	
2025-01-18 11:36:47.82	0.76	5.07	
2025-01-18 11:36:48.63	0.64	5.10	
2025-01-18 11:36:49.44	0.52	5.13	
2025-01-18 11:36:50.25	0.40	5.16	
2025-01-18 11:36:51.07	0.27	5.19	
2025-01-18 11:36:51.88	0.15	5.22	
2025-01-18 11:36:52.69	0.03	5.25	
2025-01-18 11:36:53.50	359.91	5.27	
2025-01-18 11:36:54.31	359.79	5.30	
2025-01-18 11:36:55.13	359.66	5.33	
2025-01-18 11:36:55.94	359.54	5.36	
2025-01-18 11:36:56.75	359.42	5.39	
2025-01-18 11:36:57.56	359.29	5.42	
2025-01-18 11:36:58.37	359.17	5.45	
2025-01-18 11:36:59.19	359.04	5.47	
2025-01-18 11:37:00.00	358.92	5.50	
2025-01-18 11:37:00.81	358.79	5.53	
2025-01-18 11:37:01.62	358.67	5.56	
2025-01-18 11:37:02.43	358.54	5.59	
2025-01-18 11:37:03.25	358.42	5.61	
2025-01-18 11:37:04.06	358.29	5.64	
2025-01-18 11:37:04.87	358.16	5.67	
2025-01-18 11:37:05.68	358.04	5.70	
2025-01-18 11:37:06.49	357.91	5.72	
2025-01-18 11:37:07.30	357.78	5.75	
2025-01-18 11:37:08.12	357.66	5.78	
2025-01-18 11:37:08.93	357.53	5.81	
2025-01-18 11:37:09.74	357.40	5.83	
2025-01-18 11:37:10.55	357.27	5.86	
2025-01-18 11:37:11.36	357.15	5.89	
2025-01-18 11:37:12.18	357.02	5.91	
2025-01-18 11:37:12.99	356.89	5.94	
2025-01-18 11:37:13.80	356.76	5.97	
2025-01-18 11:37:14.61	356.63	5.99	
2025-01-18 11:37:15.42	356.50	6.02	
2025-01-18 11:37:16.24	356.37	6.05	
2025-01-18 11:37:17.05	356.24	6.07	
2025-01-18 11:37:17.86	356.11	6.10	
2025-01-18 11:37:18.67	355.98	6.13	
2025-01-18 11:37:19.48	355.85	6.15	
2025-01-18 11:37:20.30	355.71	6.18	
2025-01-18 11:37:21.11	355.58	6.20	
2025-01-18 11:37:21.92	355.45	6.23	
2025-01-18 11:37:22.73	355.32	6.25	
2025-01-18 11:37:23.54	355.19	6.28	
2025-01-18 11:37:24.36	355.05	6.31	
2025-01-18 11:37:25.17	354.92	6.33	
2025-01-18 11:37:25.98	354.79	6.36	
2025-01-18 11:37:26.79	354.66	6.38	
2025-01-18 11:37:27.60	354.52	6.41	
2025-01-18 11:37:28.42	354.39	6.43	
2025-01-18 11:37:29.23	354.25	6.46	
2025-01-18 11:37:30.04	354.12	6.48	
2025-01-18 11:37:30.85	353.98	6.50	
2025-01-18 11:37:31.66	353.85	6.53	
2025-01-18 11:37:32.48	353.71	6.55	
2025-01-18 11:37:33.29	353.58	6.58	
2025-01-18 11:37:34.10	353.44	6.60	
2025-01-18 11:37:34.91	353.31	6.62	
2025-01-18 11:37:35.72	353.17	6.65	
2025-01-18 11:37:36.53	353.04	6.67	
2025-01-18 11:37:37.35	352.90	6.70	
2025-01-18 11:37:38.16	352.76	6.72	
2025-01-18 11:37:38.97	352.62	6.74	
2025-01-18 11:37:39.78	352.49	6.77	
2025-01-18 11:37:40.59	352.35	6.79	
2025-01-18 11:37:41.41	352.21	6.81	
2025-01-18 11:37:42.22	352.07	6.83	
2025-01-18 11:37:43.03	351.94	6.86	
2025-01-18 11:37:43.84	351.80	6.88	
2025-01-18 11:37:44.65	351.66	6.90	
2025-01-18 11:37:45.47	351.52	6.92	
2025-01-18 11:37:46.28	351.38	6.95	
2025-01-18 11:37:47.09	351.24	6.97	
2025-01-18 11:37:47.90	351.10	6.99	
2025-01-18 11:37:48.71	350.96	7.01	
2025-01-18 11:37:49.53	350.82	7.03	
2025-01-18 11:37:50.34	350.68	7.06	
2025-01-18 11:37:51.15	350.54	7.08	
2025-01-18 11:37:51.96	350.40	7.10	
2025-01-18 11:37:52.77	350.26	7.12	
2025-01-18 11:37:53.59	350.12	7.14	
2025-01-18 11:37:54.40	349.97	7.16	
2025-01-18 11:37:55.21	349.83	7.18	
2025-01-18 11:37:56.02	349.69	7.20	
2025-01-18 11:37:56.83	349.55	7.22	
2025-01-18 11:37:57.65	349.41	7.24	
2025-01-18 11:37:58.46	349.26	7.26	
2025-01-18 11:37:59.27	349.12	7.28	
2025-01-18 11:38:00.08	348.98	7.30	
2025-01-18 11:38:00.89	348.84	7.32	
2025-01-18 11:38:01.71	348.69	7.34	
2025-01-18 11:38:02.52	348.55	7.36	
2025-01-18 11:38:03.33	348.40	7.38	
2025-01-18 11:38:04.14	348.26	7.40	
2025-01-18 11:38:04.95	348.12	7.42	
2025-01-18 11:38:05.76	347.97	7.44	
2025-01-18 11:38:06.58	347.83	7.46	
2025-01-18 11:38:07.39	347.68	7.48	
2025-01-18 11:38:08.20	347.54	7.49	
2025-01-18 11:38:09.01	347.39	7.51	
2025-01-18 11:38:09.82	347.25	7.53	
2025-01-18 11:38:10.64	347.10	7.55	
2025-01-18 11:38:11.45	346.95	7.57	
2025-01-18 11:38:12.26	346.81	7.58	
2025-01-18 11:38:13.07	346.66	7.60	
2025-01-18 11:38:13.88	346.51	7.62	
2025-01-18 11:38:14.70	346.37	7.64	
2025-01-18 11:38:15.51	346.22	7.65	
2025-01-18 11:38:16.32	346.07	7.67	
2025-01-18 11:38:17.13	345.93	7.69	
2025-01-18 11:38:17.94	345.78	7.70	
2025-01-18 11:38:18.76	345.63	7.72	
2025-01-18 11:38:19.57	345.48	7.74	
2025-01-18 11:38:20.38	345.33	7.75	
2025-01-18 11:38:21.19	345.19	7.77	
2025-01-18 11:38:22.00	345.04	7.79	
2025-01-18 11:38:22.82	344.89	7.80	
2025-01-18 11:38:23.63	344.74	7.82	
2025-01-18 11:38:24.44	344.59	7.83	
2025-01-18 11:38:25.25	344.44	7.85	
2025-01-18 11:38:26.06	344.29	7.86	
2025-01-18 11:38:26.88	344.14	7.88	
2025-01-18 11:38:27.69	343.99	7.89	
2025-01-18 11:38:28.50	343.84	7.91	
2025-01-18 11:38:29.31	343.69	7.92	
2025-01-18 11:38:30.12	343.54	7.93	
2025-01-18 11:38:30.94	343.39	7.95	
2025-01-18 11:38:31.75	343.24	7.96	
2025-01-18 11:38:32.56	343.09	7.98	
2025-01-18 11:38:33.37	342.94	7.99	
2025-01-18 11:38:34.18	342.79	8.00	
2025-01-18 11:38:34.99	342.64	8.02	
2025-01-18 11:38:35.81	342.49	8.03	
2025-01-18 11:38:36.62	342.34	8.04	
2025-01-18 11:38:37.43	342.19	8.06	
2025-01-18 11:38:38.24	342.03	8.07	
2025-01-18 11:38:39.05	341.88	8.08	
2025-01-18 11:38:39.87	341.73	8.09	
2025-01-18 11:38:40.68	341.58	8.10	
2025-01-18 11:38:41.49	341.43	8.12	
2025-01-18 11:38:42.30	341.27	8.13	
2025-01-18 11:38:43.11	341.12	8.14	
2025-01-18 11:38:43.93	340.97	8.15	
2025-01-18 11:38:44.74	340.82	8.16	
2025-01-18 11:38:45.55	340.66	8.17	
2025-01-18 11:38:46.36	340.51	8.18	
2025-01-18 11:38:47.17	340.36	8.19	
2025-01-18 11:38:47.99	340.20	8.20	
2025-01-18 11:38:48.80	340.05	8.21	
2025-01-18 11:38:49.61	339.90	8.22	
2025-01-18 11:38:50.42	339.74	8.23	
2025-01-18 11:38:51.23	339.59	8.24	
2025-01-18 11:38:52.05	339.43	8.25	
2025-01-18 11:38:52.86	339.28	8.26	
2025-01-18 11:38:53.67	339.13	8.27	
2025-01-18 11:38:54.48	338.97	8.28	
2025-01-18 11:38:55.29	338.82	8.29	
2025-01-18 11:38:56.11	338.66	8.30	
2025-01-18 11:38:56.92	338.51	8.31	
2025-01-18 11:38:57.73	338.36	8.32	
2025-01-18 11:38:58.54	338.20	8.32	
2025-01-18 11:38:59.35	338.05	8.33	
2025-01-18 11:39:00.17	337.89	8.34	
2025-01-18 11:39:00.98	337.74	8.35	
2025-01-18 11:39:01.79	337.58	8.35	
2025-01-18 11:39:02.60	337.43	8.36	
2025-01-18 11:39:03.41	337.27	8.37	
2025-01-18 11:39:04.23	337.11	8.38	
2025-01-18 11:39:05.04	336.96	8.38	
2025-01-18 11:39:05.85	336.80	8.39	
2025-01-18 11:39:06.66	336.65	8.39	
2025-01-18 11:39:07.47	336.49	8.40	
2025-01-18 11:39:08.28	336.34	8.41	
2025-01-18 11:39:09.10	336.18	8.41	
2025-01-18 11:39:09.91	336.03	8.42	
2025-01-18 11:39:10.72	335.87	8.42	
2025-01-18 11:39:11.53	335.71	8.43	
2025-01-18 11:39:12.34	335.56	8.43	
2025-01-18 11:39:13.16	335.40	8.44	
2025-01-18 11:39:13.97	335.25	8.44	
2025-01-18 11:39:14.78	335.09	8.45	
2025-01-18 11:39:15.59	334.93	8.45	
2025-01-18 11:39:16.40	334.78	8.46	
2025-01-18 11:39:17.22	334.62	8.46	
2025-01-18 11:39:18.03	334.46	8.46	
2025-01-18 11:39:18.84	334.31	8.47	
2025-01-18 11:39:19.65	334.15	8.47	
2025-01-18 11:39:20.46	334.00	8.47	
2025-01-18 11:39:21.28	333.84	8.48	
2025-01-18 11:39:22.09	333.68	8.48	
2025-01-18 11:39:22.90	333.53	8.48	
2025-01-18 11:39:23.71	333.37	8.48	
2025-01-18 11:39:24.52	333.21	8.49	
2025-01-18 11:39:25.34	333.06	8.49	
2025-01-18 11:39:26.15	332.90	8.49	
2025-01-18 11:39:26.96	332.74	8.49	
2025-01-18 11:39:27.77	332.59	8.49	
2025-01-18 11:39:28.58	332.43	8.49	
2025-01-18 11:39:29.40	332.27	8.49	
2025-01-18 11:39:30.21	332.11	8.49	
2025-01-18 11:39:31.02	331.96	8.50	
2025-01-18 11:39:31.83	331.80	8.50	
2025-01-18 11:39:32.64	331.65	8.50	
2025-01-18 11:39:33.46	331.49	8.50	
2025-01-18 11:39:34.27	331.33	8.50	
2025-01-18 11:39:35.08	331.17	8.50	
2025-01-18 11:39:35.89	331.02	8.49	
2025-01-18 11:39:36.70	330.86	8.49	
2025-01-18 11:39:37.51	330.71	8.49	
2025-01-18 11:39:38.33	330.55	8.49	
2025-01-18 11:39:39.14	330.39	8.49	
2025-01-18 11:39:39.95	330.23	8.49	
2025-01-18 11:39:40.76	330.08	8.49	
2025-01-18 11:39:41.57	329.92	8.49	
2025-01-18 11:39:42.39	329.76	8.48	
2025-01-18 11:39:43.20	329.61	8.48	
2025-01-18 11:39:44.01	329.45	8.48	
2025-01-18 11:39:44.82	329.29	8.48	
2025-01-18 11:39:45.63	329.14	8.47	
2025-01-18 11:39:46.45	328.98	8.47	
2025-01-18 11:39:47.26	328.82	8.47	
2025-01-18 11:39:48.07	328.67	8.46	
2025-01-18 11:39:48.88	328.51	8.46	
2025-01-18 11:39:49.69	328.36	8.46	
2025-01-18 11:39:50.51	328.20	8.45	
2025-01-18 11:39:51.32	328.04	8.45	
2025-01-18 11:39:52.13	327.89	8.44	
2025-01-18 11:39:52.94	327.73	8.44	
2025-01-18 11:39:53.75	327.58	8.43	
2025-01-18 11:39:54.57	327.42	8.43	
2025-01-18 11:39:55.38	327.26	8.42	
2025-01-18 11:39:56.19	327.11	8.42	
2025-01-18 11:39:57.00	326.95	8.41	
2025-01-18 11:39:57.81	326.80	8.41	
2025-01-18 11:39:58.63	326.64	8.40	
2025-01-18 11:39:59.44	326.48	8.40	
2025-01-18 11:40:00.25	326.33	8.39	
2025-01-18 11:40:01.06	326.17	8.38	
2025-01-18 11:40:01.87	326.02	8.38	
2025-01-18 11:40:02.69	325.86	8.37	
2025-01-18 11:40:03.50	325.71	8.36	
2025-01-18 11:40:04.31	325.55	8.36	
2025-01-18 11:40:05.12	325.40	8.35	
2025-01-18 11:40:05.93	325.24	8.34	
2025-01-18 11:40:06.74	325.09	8.33	
2025-01-18 11:40:07.56	324.93	8.32	
2025-01-18 11:40:08.37	324.78	8.32	
2025-01-18 11:40:09.18	324.62	8.31	
2025-01-18 11:40:09.99	324.47	8.30	
2025-01-18 11:40:10.80	324.31	8.29	
2025-01-18 11:40:11.62	324.16	8.28	
2025-01-18 11:40:12.43	324.00	8.27	
2025-01-18 11:40:13.24	323.85	8.26	
2025-01-18 11:40:14.05	323.70	8.26	
2025-01-18 11:40:14.86	323.54	8.25	
2025-01-18 11:40:15.68	323.39	8.24	
2025-01-18 11:40:16.49	323.23	8.23	
2025-01-18 11:40:17.30	323.08	8.22	
2025-01-18 11:40:18.11	322.93	8.21	
2025-01-18 11:40:18.92	322.77	8.20	
2025-01-18 11:40:19.74	322.62	8.18	
2025-01-18 11:40:20.55	322.47	8.17	
2025-01-18 11:40:21.36	322.31	8.16	
2025-01-18 11:40:22.17	322.16	8.15	
2025-01-18 11:40:22.98	322.01	8.14	
2025-01-18 11:40:23.80	321.85	8.13	
2025-01-18 11:40:24.61	321.70	8.12	
2025-01-18 11:40:25.42	321.55	8.11	
2025-01-18 11:40:26.23	321.40	8.09	
2025-01-18 11:40:27.04	321.25	8.08	
2025-01-18 11:40:27.86	321.09	8.07	
2025-01-18 11:40:28.67	320.94	8.06	
2025-01-18 11:40:29.48	320.79	8.04	
2025-01-18 11:40:30.29	320.64	8.03	
2025-01-18 11:40:31.10	320.49	8.02	
2025-01-18 11:40:31.91	320.34	8.00	
2025-01-18 11:40:32.73	320.18	7.99	
2025-01-18 11:40:33.54	320.03	7.98	
2025-01-18 11:40:34.35	319.88	7.96	
2025-01-18 11:40:35.16	319.73	7.95	
2025-01-18 11:40:35.97	319.58	7.94	
2025-01-18 11:40:36.79	319.43	7.92	
2025-01-18 11:40:37.60	319.28	7.91	
2025-01-18 11:40:38.41	319.13	7.89	
2025-01-18 11:40:39.22	318.98	7.88	
2025-01-18 11:40:40.03	318.83	7.86	
2025-01-18 11:40:40.85	318.68	7.85	
2025-01-18 11:40:41.66	318.53	7.83	
2025-01-18 11:40:42.47	318.38	7.82	
2025-01-18 11:40:43.28	318.24	7.80	
2025-01-18 11:40:44.09	318.09	7.79	
2025-01-18 11:40:44.91	317.94	7.77	
2025-01-18 11:40:45.72	317.79	7.75	
2025-01-18 11:40:46.53	317.64	7.74	
2025-01-18 11:40:47.34	317.49	7.72	
2025-01-18 11:40:48.15	317.35	7.71	
2025-01-18 11:40:48.97	317.20	7.69	
2025-01-18 11:40:49.78	317.05	7.67	
2025-01-18 11:40:50.59	316.90	7.66	
2025-01-18 11:40:51.40	316.76	7.64	
2025-01-18 11:40:52.21	316.61	7.62	
2025-01-18 11:40:53.03	316.46	7.60	
2025-01-18 11:40:53.84	316.31	7.59	
2025-01-18 11:40:54.65	316.17	7.57	
2025-01-18 11:40:55.46	316.02	7.55	
2025-01-18 11:40:56.27	315.88	7.53	
2025-01-18 11:40:57.09	315.73	7.51	
2025-01-18 11:40:57.90	315.58	7.50	
2025-01-18 11:40:58.71	315.44	7.48	
2025-01-18 11:40:59.52	315.29	7.46	
2025-01-18 11:41:00.33	315.15	7.44	
2025-01-18 11:41:01.15	315.00	7.42	
2025-01-18 11:41:01.96	314.86	7.40	
2025-01-18 11:41:02.77	314.71	7.38	
2025-01-18 11:41:03.58	314.57	7.36	
2025-01-18 11:41:04.39	314.43	7.34	
2025-01-18 11:41:05.20	314.28	7.32	
2025-01-18 11:41:06.02	314.14	7.31	
2025-01-18 11:41:06.83	314.00	7.29	
2025-01-18 11:41:07.64	313.85	7.27	
2025-01-18 11:41:08.45	313.71	7.25	
2025-01-18 11:41:09.26	313.57	7.22	
2025-01-18 11:41:10.08	313.42	7.20	
2025-01-18 11:41:10.89	313.28	7.18	
2025-01-18 11:41:11.70	313.14	7.16	
2025-01-18 11:41:12.51	313.00	7.14	
2025-01-18 11:41:13.32	312.86	7.12	
2025-01-18 11:41:14.14	312.72	7.10	
2025-01-18 11:41:14.95	312.57	7.08	
2025-01-18 11:41:15.76	312.43	7.06	
2025-01-18 11:41:16.57	312.29	7.04	
2025-01-18 11:41:17.38	312.15	7.01	
2025-01-18 11:41:18.20	312.01	6.99	
2025-01-18 11:41:19.01	311.87	6.97	
2025-01-18 11:41:19.82	311.73	6.95	
2025-01-18 11:41:20.63	311.59	6.93	
2025-01-18 11:41:21.44	311.45	6.90	
2025-01-18 11:41:22.26	311.31	6.88	
2025-01-18 11:41:23.07	311.18	6.86	
2025-01-18 11:41:23.88	311.04	6.84	
2025-01-18 11:41:24.69	310.90	6.81	
2025-01-18 11:41:25.50	310.76	6.79	
2025-01-18 11:41:26.32	310.62	6.77	
2025-01-18 11:41:27.13	310.48	6.74	
2025-01-18 11:41:27.94	310.35	6.72	
2025-01-18 11:41:28.75	310.21	6.70	
2025-01-18 11:41:29.56	310.07	6.67	
2025-01-18 11:41:30.38	309.94	6.65	
2025-01-18 11:41:31.19	309.80	6.63	
2025-01-18 11:41:32.00	309.66	6.60	
2025-01-18 11:41:32.81	309.53	6.58	
2025-01-18 11:41:33.62	309.39	6.55	
2025-01-18 11:41:34.43	309.26	6.53	
2025-01-18 11:41:35.25	309.12	6.51	
2025-01-18 11:41:36.06	308.99	6.48	
2025-01-18 11:41:36.87	308.85	6.46	
2025-01-18 11:41:37.68	308.72	6.43	
2025-01-18 11:41:38.49	308.58	6.41	
2025-01-18 11:41:39.31	308.45	6.38	
2025-01-18 11:41:40.12	308.32	6.36	
2025-01-18 11:41:40.93	308.18	6.33	
2025-01-18 11:41:41.74	308.05	6.31	
2025-01-18 11:41:42.55	307.92	6.28	
2025-01-18 11:41:43.37	307.78	6.26	
2025-01-18 11:41:44.18	307.65	6.23	
2025-01-18 11:41:44.99	307.52	6.20	
2025-01-18 11:41:45.80	307.39	6.18	
2025-01-18 11:41:46.61	307.26	6.15	
2025-01-18 11:41:47.43	307.12	6.13	
2025-01-18 11:41:48.24	306.99	6.10	
2025-01-18 11:41:49.05	306.86	6.08	
2025-01-18 11:41:49.86	306.73	6.05	
2025-01-18 11:41:50.67	306.60	6.02	
2025-01-18 11:41:51.49	306.47	6.00	
2025-01-18 11:41:52.30	306.34	5.97	
2025-01-18 11:41:53.11	306.21	5.94	
2025-01-18 11:41:53.92	306.08	5.92	
2025-01-18 11:41:54.73	305.95	5.89	
2025-01-18 11:41:55.55	305.82	5.86	
2025-01-18 11:41:56.36	305.70	5.83	
2025-01-18 11:41:57.17	305.57	5.81	
2025-01-18 11:41:57.98	305.44	5.78	
2025-01-18 11:41:58.79	305.31	5.75	
2025-01-18 11:41:59.61	305.18	5.73	
2025-01-18 11:42:00.42	305.06	5.70	
2025-01-18 11:42:01.23	304.93	5.67	
2025-01-18 11:42:02.04	304.80	5.64	
2025-01-18 11:42:02.85	304.68	5.62	
2025-01-18 11:42:03.66	304.55	5.59	
2025-01-18 11:42:04.48	304.43	5.56	
2025-01-18 11:42:05.29	304.30	5.53	
2025-01-18 11:42:06.10	304.18	5.50	
2025-01-18 11:42:06.91	304.05	5.47	
2025-01-18 11:42:07.72	303.93	5.45	
2025-01-18 11:42:08.54	303.80	5.42	
2025-01-18 11:42:09.35	303.68	5.39	
2025-01-18 11:42:10.16	303.55	5.36	
2025-01-18 11:42:10.97	303.43	5.33	
2025-01-18 11:42:11.78	303.31	5.30	
2025-01-18 11:42:12.60	303.18	5.27	
2025-01-18 11:42:13.41	303.06	5.25	
2025-01-18 11:42:14.22	302.94	5.22	
2025-01-18 11:42:15.03	302.81	5.19	
2025-01-18 11:42:15.84	302.69	5.16	
2025-01-18 11:42:16.66	302.57	5.13	
2025-01-18 11:42:17.47	302.45	5.10	
2025-01-18 11:42:18.28	302.33	5.07	
2025-01-18 11:42:19.09	302.21	5.04	
2025-01-18 11:42:19.90	302.09	5.01	
2025-01-18 11:42:20.72	301.96	4.98	
2025-01-18 11:42:21.53	301.84	4.95	
2025-01-18 11:42:22.34	301.72	4.92	
2025-01-18 11:42:23.15	301.61	4.89	
2025-01-18 11:42:23.96	301.49	4.86	
2025-01-18 11:42:24.78	301.37	4.83	
2025-01-18 11:42:25.59	301.25	4.80	
2025-01-18 11:42:26.40	301.13	4.77	
2025-01-18 11:42:27.21	301.01	4.74	
2025-01-18 11:42:28.02	300.89	4.71	
2025-01-18 11:42:28.84	300.77	4.68	
2025-01-18 11:42:29.65	300.66	4.65	
2025-01-18 11:42:30.46	300.54	4.62	
2025-01-18 11:42:31.27	300.42	4.59	
2025-01-18 11:42:32.08	300.31	4.56	
2025-01-18 11:42:32.89	300.19	4.53	
2025-01-18 11:42:33.71	300.07	4.50	
2025-01-18 11:42:34.52	299.96	4.47	
2025-01-18 11:42:35.33	299.84	4.44	
2025-01-18 11:42:36.14	299.73	4.41	
2025-01-18 11:42:36.95	299.61	4.38	
2025-01-18 11:42:37.77	299.50	4.35	
2025-01-18 11:42:38.58	299.38	4.31	
2025-01-18 11:42:39.39	299.27	4.28	
2025-01-18 11:42:40.20	299.15	4.25	
2025-01-18 11:42:41.01	299.04	4.22	
2025-01-18 11:42:41.83	298.93	4.19	
2025-01-18 11:42:42.64	298.81	4.16	
2025-01-18 11:42:43.45	298.70	4.13	
2025-01-18 11:42:44.26	298.59	4.10	
2025-01-18 11:42:45.07	298.48	4.06	
2025-01-18 11:42:45.89	298.36	4.03	
2025-01-18 11:42:46.70	298.25	4.00	

#Closed at: 2025-01-18 11:42:46