passes_logs/2025/01/18/SPB_Silybum_02/SPB_Silybum_02__20250118_035450_AQUA_rec.log

#Pass ID: 20250118_035450_AQUA
#Satellite: AQUA
#Configuration: AQUA
#Start time: 2025-01-18 03:54:50

#Version: 2.0.20230423
#Station: SPB_Silybum_02
#Location: 30.233357 lon 59.946436 lat
#TLE: 1 27424U 02022A   25017.13491740  .00001953  00000+0  41075-3 0  9996
#TLE: 2 27424  98.3596 333.8179 0001829 109.1235 340.1836 14.60691632207930

#Time	Az	El	Level	Level2	SNR	BER	Gain	Gain2
2025-01-18 03:54:52.71	7.71	4.10	
2025-01-18 03:54:53.72	7.59	4.15	
2025-01-18 03:54:54.74	7.47	4.20	
2025-01-18 03:54:55.75	7.35	4.25	
2025-01-18 03:54:56.77	7.23	4.30	
2025-01-18 03:54:57.79	7.11	4.35	
2025-01-18 03:54:58.80	6.99	4.40	
2025-01-18 03:54:59.82	6.87	4.45	
2025-01-18 03:55:00.83	6.75	4.50	
2025-01-18 03:55:01.85	6.62	4.56	
2025-01-18 03:55:02.86	6.50	4.61	
2025-01-18 03:55:03.88	6.38	4.66	
2025-01-18 03:55:04.89	6.25	4.71	
2025-01-18 03:55:05.91	6.13	4.76	
2025-01-18 03:55:06.92	6.00	4.81	
2025-01-18 03:55:07.94	5.88	4.86	
2025-01-18 03:55:08.96	5.75	4.91	
2025-01-18 03:55:09.97	5.63	4.96	
2025-01-18 03:55:10.99	5.50	5.02	
2025-01-18 03:55:12.00	5.37	5.07	
2025-01-18 03:55:13.02	5.24	5.12	
2025-01-18 03:55:14.03	5.12	5.17	
2025-01-18 03:55:15.05	4.99	5.22	
2025-01-18 03:55:16.06	4.86	5.27	
2025-01-18 03:55:17.08	4.73	5.32	
2025-01-18 03:55:18.09	4.60	5.37	
2025-01-18 03:55:19.11	4.47	5.42	
2025-01-18 03:55:20.13	4.33	5.47	
2025-01-18 03:55:21.14	4.20	5.53	
2025-01-18 03:55:22.16	4.07	5.58	
2025-01-18 03:55:23.17	3.94	5.63	
2025-01-18 03:55:24.19	3.80	5.68	
2025-01-18 03:55:25.20	3.67	5.73	
2025-01-18 03:55:26.22	3.53	5.78	
2025-01-18 03:55:27.23	3.40	5.83	
2025-01-18 03:55:28.25	3.26	5.88	
2025-01-18 03:55:29.26	3.13	5.93	
2025-01-18 03:55:30.28	2.99	5.98	
2025-01-18 03:55:31.29	2.85	6.03	
2025-01-18 03:55:32.31	2.71	6.08	
2025-01-18 03:55:33.33	2.58	6.13	
2025-01-18 03:55:34.34	2.44	6.18	
2025-01-18 03:55:35.36	2.30	6.23	
2025-01-18 03:55:36.37	2.16	6.28	
2025-01-18 03:55:37.39	2.02	6.34	
2025-01-18 03:55:38.40	1.88	6.39	
2025-01-18 03:55:39.42	1.73	6.44	
2025-01-18 03:55:40.43	1.59	6.49	
2025-01-18 03:55:41.45	1.45	6.54	
2025-01-18 03:55:42.46	1.31	6.59	
2025-01-18 03:55:43.48	1.16	6.64	
2025-01-18 03:55:44.50	1.02	6.69	
2025-01-18 03:55:45.51	0.87	6.74	
2025-01-18 03:55:46.53	0.73	6.79	
2025-01-18 03:55:47.54	0.58	6.84	
2025-01-18 03:55:48.56	0.43	6.89	
2025-01-18 03:55:49.57	0.29	6.93	
2025-01-18 03:55:50.59	0.14	6.98	
2025-01-18 03:55:51.60	359.99	7.03	
2025-01-18 03:55:52.62	359.84	7.08	
2025-01-18 03:55:53.63	359.69	7.13	
2025-01-18 03:55:54.65	359.54	7.18	
2025-01-18 03:55:55.66	359.39	7.23	
2025-01-18 03:55:56.68	359.24	7.28	
2025-01-18 03:55:57.70	359.09	7.33	
2025-01-18 03:55:58.71	358.94	7.38	
2025-01-18 03:55:59.73	358.79	7.43	
2025-01-18 03:56:00.74	358.63	7.48	
2025-01-18 03:56:01.76	358.48	7.53	
2025-01-18 03:56:02.77	358.32	7.57	
2025-01-18 03:56:03.79	358.17	7.62	
2025-01-18 03:56:04.80	358.01	7.67	
2025-01-18 03:56:05.82	357.86	7.72	
2025-01-18 03:56:06.83	357.70	7.77	
2025-01-18 03:56:07.85	357.54	7.82	
2025-01-18 03:56:08.87	357.38	7.87	
2025-01-18 03:56:09.88	357.23	7.91	
2025-01-18 03:56:10.90	357.07	7.96	
2025-01-18 03:56:11.91	356.91	8.01	
2025-01-18 03:56:12.93	356.75	8.06	
2025-01-18 03:56:13.94	356.59	8.11	
2025-01-18 03:56:14.96	356.43	8.15	
2025-01-18 03:56:15.97	356.26	8.20	
2025-01-18 03:56:16.99	356.10	8.25	
2025-01-18 03:56:18.00	355.94	8.29	
2025-01-18 03:56:19.02	355.77	8.34	
2025-01-18 03:56:20.03	355.61	8.39	
2025-01-18 03:56:21.05	355.44	8.44	
2025-01-18 03:56:22.07	355.28	8.48	
2025-01-18 03:56:23.08	355.11	8.53	
2025-01-18 03:56:24.10	354.95	8.58	
2025-01-18 03:56:25.11	354.78	8.62	
2025-01-18 03:56:26.13	354.61	8.67	
2025-01-18 03:56:27.14	354.44	8.72	
2025-01-18 03:56:28.16	354.27	8.76	
2025-01-18 03:56:29.17	354.10	8.81	
2025-01-18 03:56:30.19	353.93	8.85	
2025-01-18 03:56:31.20	353.76	8.90	
2025-01-18 03:56:32.22	353.59	8.95	
2025-01-18 03:56:33.24	353.42	8.99	
2025-01-18 03:56:34.25	353.25	9.04	
2025-01-18 03:56:35.27	353.07	9.08	
2025-01-18 03:56:36.28	352.90	9.13	
2025-01-18 03:56:37.30	352.72	9.17	
2025-01-18 03:56:38.31	352.55	9.22	
2025-01-18 03:56:39.33	352.37	9.26	
2025-01-18 03:56:40.34	352.20	9.30	
2025-01-18 03:56:41.36	352.02	9.35	
2025-01-18 03:56:42.37	351.84	9.39	
2025-01-18 03:56:43.39	351.67	9.44	
2025-01-18 03:56:44.40	351.49	9.48	
2025-01-18 03:56:45.42	351.31	9.52	
2025-01-18 03:56:46.44	351.13	9.57	
2025-01-18 03:56:47.45	350.95	9.61	
2025-01-18 03:56:48.47	350.77	9.65	
2025-01-18 03:56:49.48	350.59	9.70	
2025-01-18 03:56:50.50	350.40	9.74	
2025-01-18 03:56:51.51	350.22	9.78	
2025-01-18 03:56:52.53	350.04	9.83	
2025-01-18 03:56:53.54	349.85	9.87	
2025-01-18 03:56:54.56	349.67	9.91	
2025-01-18 03:56:55.57	349.49	9.95	
2025-01-18 03:56:56.59	349.30	9.99	
2025-01-18 03:56:57.61	349.11	10.03	
2025-01-18 03:56:58.62	348.93	10.08	
2025-01-18 03:56:59.64	348.74	10.12	
2025-01-18 03:57:00.65	348.55	10.16	
2025-01-18 03:57:01.67	348.36	10.20	
2025-01-18 03:57:02.68	348.17	10.24	
2025-01-18 03:57:03.70	347.98	10.28	
2025-01-18 03:57:04.71	347.79	10.32	
2025-01-18 03:57:05.73	347.60	10.36	
2025-01-18 03:57:06.74	347.41	10.40	
2025-01-18 03:57:07.76	347.22	10.44	
2025-01-18 03:57:08.78	347.03	10.48	
2025-01-18 03:57:09.79	346.83	10.52	
2025-01-18 03:57:10.81	346.64	10.55	
2025-01-18 03:57:11.82	346.45	10.59	
2025-01-18 03:57:12.84	346.25	10.63	
2025-01-18 03:57:13.85	346.06	10.67	
2025-01-18 03:57:14.87	345.86	10.71	
2025-01-18 03:57:15.88	345.66	10.74	
2025-01-18 03:57:16.90	345.47	10.78	
2025-01-18 03:57:17.91	345.27	10.82	
2025-01-18 03:57:18.93	345.07	10.85	
2025-01-18 03:57:19.94	344.87	10.89	
2025-01-18 03:57:20.96	344.67	10.93	
2025-01-18 03:57:21.98	344.47	10.96	
2025-01-18 03:57:22.99	344.27	11.00	
2025-01-18 03:57:24.01	344.07	11.03	
2025-01-18 03:57:25.02	343.87	11.07	
2025-01-18 03:57:26.04	343.67	11.10	
2025-01-18 03:57:27.05	343.47	11.14	
2025-01-18 03:57:28.07	343.26	11.17	
2025-01-18 03:57:29.08	343.06	11.21	
2025-01-18 03:57:30.10	342.86	11.24	
2025-01-18 03:57:31.11	342.65	11.27	
2025-01-18 03:57:32.13	342.45	11.31	
2025-01-18 03:57:33.15	342.24	11.34	
2025-01-18 03:57:34.16	342.04	11.37	
2025-01-18 03:57:35.18	341.83	11.41	
2025-01-18 03:57:36.19	341.62	11.44	
2025-01-18 03:57:37.21	341.42	11.47	
2025-01-18 03:57:38.22	341.21	11.50	
2025-01-18 03:57:39.24	341.00	11.53	
2025-01-18 03:57:40.25	340.79	11.56	
2025-01-18 03:57:41.27	340.58	11.59	
2025-01-18 03:57:42.28	340.37	11.62	
2025-01-18 03:57:43.30	340.16	11.65	
2025-01-18 03:57:44.31	339.95	11.68	
2025-01-18 03:57:45.33	339.74	11.71	
2025-01-18 03:57:46.35	339.53	11.74	
2025-01-18 03:57:47.36	339.32	11.77	
2025-01-18 03:57:48.38	339.10	11.80	
2025-01-18 03:57:49.39	338.89	11.83	
2025-01-18 03:57:50.41	338.68	11.85	
2025-01-18 03:57:51.42	338.46	11.88	
2025-01-18 03:57:52.44	338.25	11.91	
2025-01-18 03:57:53.45	338.03	11.93	
2025-01-18 03:57:54.47	337.82	11.96	
2025-01-18 03:57:55.48	337.60	11.99	
2025-01-18 03:57:56.50	337.39	12.01	
2025-01-18 03:57:57.52	337.17	12.04	
2025-01-18 03:57:58.53	336.95	12.06	
2025-01-18 03:57:59.55	336.74	12.09	
2025-01-18 03:58:00.56	336.52	12.11	
2025-01-18 03:58:01.58	336.30	12.14	
2025-01-18 03:58:02.59	336.08	12.16	
2025-01-18 03:58:03.61	335.86	12.18	
2025-01-18 03:58:04.62	335.65	12.20	
2025-01-18 03:58:05.64	335.43	12.23	
2025-01-18 03:58:06.65	335.21	12.25	
2025-01-18 03:58:07.67	334.99	12.27	
2025-01-18 03:58:08.68	334.77	12.29	
2025-01-18 03:58:09.70	334.54	12.31	
2025-01-18 03:58:10.72	334.32	12.33	
2025-01-18 03:58:11.73	334.10	12.35	
2025-01-18 03:58:12.75	333.88	12.37	
2025-01-18 03:58:13.76	333.66	12.39	
2025-01-18 03:58:14.78	333.43	12.41	
2025-01-18 03:58:15.79	333.21	12.43	
2025-01-18 03:58:16.81	332.99	12.45	
2025-01-18 03:58:17.82	332.77	12.47	
2025-01-18 03:58:18.84	332.54	12.48	
2025-01-18 03:58:19.85	332.32	12.50	
2025-01-18 03:58:20.87	332.09	12.52	
2025-01-18 03:58:21.89	331.87	12.53	
2025-01-18 03:58:22.90	331.64	12.55	
2025-01-18 03:58:23.92	331.42	12.57	
2025-01-18 03:58:24.93	331.19	12.58	
2025-01-18 03:58:25.95	330.97	12.60	
2025-01-18 03:58:26.96	330.74	12.61	
2025-01-18 03:58:27.98	330.51	12.62	
2025-01-18 03:58:28.99	330.29	12.64	
2025-01-18 03:58:30.01	330.06	12.65	
2025-01-18 03:58:31.02	329.83	12.66	
2025-01-18 03:58:32.04	329.61	12.68	
2025-01-18 03:58:33.05	329.38	12.69	
2025-01-18 03:58:34.07	329.15	12.70	
2025-01-18 03:58:35.09	328.92	12.71	
2025-01-18 03:58:36.10	328.70	12.72	
2025-01-18 03:58:37.12	328.47	12.73	
2025-01-18 03:58:38.13	328.24	12.74	
2025-01-18 03:58:39.15	328.01	12.75	
2025-01-18 03:58:40.16	327.78	12.76	
2025-01-18 03:58:41.18	327.55	12.77	
2025-01-18 03:58:42.19	327.33	12.78	
2025-01-18 03:58:43.21	327.10	12.78	
2025-01-18 03:58:44.22	326.87	12.79	
2025-01-18 03:58:45.24	326.64	12.80	
2025-01-18 03:58:46.26	326.41	12.80	
2025-01-18 03:58:47.27	326.18	12.81	
2025-01-18 03:58:48.29	325.95	12.81	
2025-01-18 03:58:49.30	325.72	12.82	
2025-01-18 03:58:50.32	325.49	12.82	
2025-01-18 03:58:51.33	325.26	12.83	
2025-01-18 03:58:52.35	325.03	12.83	
2025-01-18 03:58:53.36	324.80	12.84	
2025-01-18 03:58:54.38	324.57	12.84	
2025-01-18 03:58:55.39	324.34	12.84	
2025-01-18 03:58:56.41	324.11	12.84	
2025-01-18 03:58:57.42	323.88	12.85	
2025-01-18 03:58:58.44	323.65	12.85	
2025-01-18 03:58:59.46	323.42	12.85	
2025-01-18 03:59:00.47	323.19	12.85	
2025-01-18 03:59:01.49	322.96	12.85	
2025-01-18 03:59:02.50	322.73	12.85	
2025-01-18 03:59:03.52	322.50	12.85	
2025-01-18 03:59:04.53	322.27	12.85	
2025-01-18 03:59:05.55	322.04	12.84	
2025-01-18 03:59:06.56	321.81	12.84	
2025-01-18 03:59:07.58	321.58	12.84	
2025-01-18 03:59:08.59	321.35	12.84	
2025-01-18 03:59:09.61	321.12	12.83	
2025-01-18 03:59:10.63	320.89	12.83	
2025-01-18 03:59:11.64	320.66	12.82	
2025-01-18 03:59:12.66	320.43	12.82	
2025-01-18 03:59:13.67	320.20	12.81	
2025-01-18 03:59:14.69	319.97	12.81	
2025-01-18 03:59:15.70	319.74	12.80	
2025-01-18 03:59:16.72	319.51	12.80	
2025-01-18 03:59:17.73	319.28	12.79	
2025-01-18 03:59:18.75	319.05	12.78	
2025-01-18 03:59:19.76	318.83	12.77	
2025-01-18 03:59:20.78	318.60	12.77	
2025-01-18 03:59:21.79	318.37	12.76	
2025-01-18 03:59:22.81	318.14	12.75	
2025-01-18 03:59:23.83	317.91	12.74	
2025-01-18 03:59:24.84	317.68	12.73	
2025-01-18 03:59:25.86	317.45	12.72	
2025-01-18 03:59:26.87	317.23	12.71	
2025-01-18 03:59:27.89	317.00	12.70	
2025-01-18 03:59:28.90	316.77	12.69	
2025-01-18 03:59:29.92	316.54	12.67	
2025-01-18 03:59:30.93	316.32	12.66	
2025-01-18 03:59:31.95	316.09	12.65	
2025-01-18 03:59:32.96	315.86	12.64	
2025-01-18 03:59:33.98	315.63	12.62	
2025-01-18 03:59:35.00	315.41	12.61	
2025-01-18 03:59:36.01	315.18	12.59	
2025-01-18 03:59:37.03	314.96	12.58	
2025-01-18 03:59:38.04	314.73	12.56	
2025-01-18 03:59:39.06	314.50	12.55	
2025-01-18 03:59:40.07	314.28	12.53	
2025-01-18 03:59:41.09	314.05	12.52	
2025-01-18 03:59:42.10	313.83	12.50	
2025-01-18 03:59:43.12	313.61	12.48	
2025-01-18 03:59:44.13	313.38	12.46	
2025-01-18 03:59:45.15	313.16	12.45	
2025-01-18 03:59:46.16	312.94	12.43	
2025-01-18 03:59:47.18	312.71	12.41	
2025-01-18 03:59:48.20	312.49	12.39	
2025-01-18 03:59:49.21	312.27	12.37	
2025-01-18 03:59:50.23	312.04	12.35	
2025-01-18 03:59:51.24	311.82	12.33	
2025-01-18 03:59:52.26	311.60	12.31	
2025-01-18 03:59:53.27	311.38	12.29	
2025-01-18 03:59:54.29	311.16	12.27	
2025-01-18 03:59:55.30	310.94	12.25	
2025-01-18 03:59:56.32	310.72	12.22	
2025-01-18 03:59:57.33	310.50	12.20	
2025-01-18 03:59:58.35	310.28	12.18	
2025-01-18 03:59:59.37	310.06	12.15	
2025-01-18 04:00:00.38	309.84	12.13	
2025-01-18 04:00:01.40	309.62	12.11	
2025-01-18 04:00:02.41	309.40	12.08	
2025-01-18 04:00:03.43	309.19	12.06	
2025-01-18 04:00:04.44	308.97	12.03	
2025-01-18 04:00:05.46	308.75	12.01	
2025-01-18 04:00:06.47	308.54	11.98	
2025-01-18 04:00:07.49	308.32	11.96	
2025-01-18 04:00:08.50	308.10	11.93	
2025-01-18 04:00:09.52	307.89	11.90	
2025-01-18 04:00:10.54	307.67	11.88	
2025-01-18 04:00:11.55	307.46	11.85	
2025-01-18 04:00:12.57	307.24	11.82	
2025-01-18 04:00:13.58	307.03	11.79	
2025-01-18 04:00:14.60	306.82	11.76	
2025-01-18 04:00:15.61	306.61	11.74	
2025-01-18 04:00:16.63	306.39	11.71	
2025-01-18 04:00:17.64	306.18	11.68	
2025-01-18 04:00:18.66	305.97	11.65	
2025-01-18 04:00:19.67	305.76	11.62	
2025-01-18 04:00:20.69	305.55	11.59	
2025-01-18 04:00:21.70	305.34	11.56	
2025-01-18 04:00:22.72	305.13	11.53	
2025-01-18 04:00:23.74	304.92	11.49	
2025-01-18 04:00:24.75	304.71	11.46	
2025-01-18 04:00:25.77	304.51	11.43	
2025-01-18 04:00:26.78	304.30	11.40	
2025-01-18 04:00:27.80	304.09	11.37	
2025-01-18 04:00:28.81	303.89	11.33	
2025-01-18 04:00:29.83	303.68	11.30	
2025-01-18 04:00:30.84	303.48	11.27	
2025-01-18 04:00:31.86	303.27	11.23	
2025-01-18 04:00:32.87	303.07	11.20	
2025-01-18 04:00:33.89	302.86	11.17	
2025-01-18 04:00:34.91	302.66	11.13	
2025-01-18 04:00:35.92	302.46	11.10	
2025-01-18 04:00:36.94	302.25	11.06	
2025-01-18 04:00:37.95	302.05	11.03	
2025-01-18 04:00:38.97	301.85	10.99	
2025-01-18 04:00:39.98	301.65	10.95	
2025-01-18 04:00:41.00	301.45	10.92	
2025-01-18 04:00:42.01	301.25	10.88	
2025-01-18 04:00:43.03	301.05	10.85	
2025-01-18 04:00:44.04	300.85	10.81	
2025-01-18 04:00:45.06	300.65	10.77	
2025-01-18 04:00:46.07	300.46	10.73	
2025-01-18 04:00:47.09	300.26	10.70	
2025-01-18 04:00:48.11	300.06	10.66	
2025-01-18 04:00:49.12	299.87	10.62	
2025-01-18 04:00:50.14	299.67	10.58	
2025-01-18 04:00:51.15	299.48	10.54	
2025-01-18 04:00:52.17	299.28	10.50	
2025-01-18 04:00:53.18	299.09	10.47	
2025-01-18 04:00:54.20	298.90	10.43	
2025-01-18 04:00:55.21	298.70	10.39	
2025-01-18 04:00:56.23	298.51	10.35	
2025-01-18 04:00:57.24	298.32	10.31	
2025-01-18 04:00:58.26	298.13	10.27	
2025-01-18 04:00:59.28	297.94	10.23	
2025-01-18 04:01:00.29	297.75	10.19	
2025-01-18 04:01:01.31	297.56	10.15	
2025-01-18 04:01:02.32	297.37	10.11	
2025-01-18 04:01:03.34	297.18	10.06	
2025-01-18 04:01:04.35	297.00	10.02	
2025-01-18 04:01:05.37	296.81	9.98	
2025-01-18 04:01:06.38	296.62	9.94	
2025-01-18 04:01:07.40	296.44	9.90	
2025-01-18 04:01:08.41	296.25	9.86	
2025-01-18 04:01:09.43	296.07	9.81	
2025-01-18 04:01:10.44	295.88	9.77	
2025-01-18 04:01:11.46	295.70	9.73	
2025-01-18 04:01:12.48	295.52	9.68	
2025-01-18 04:01:13.49	295.34	9.64	
2025-01-18 04:01:14.51	295.15	9.60	
2025-01-18 04:01:15.52	294.97	9.55	
2025-01-18 04:01:16.54	294.79	9.51	
2025-01-18 04:01:17.55	294.61	9.47	
2025-01-18 04:01:18.57	294.43	9.42	
2025-01-18 04:01:19.58	294.26	9.38	
2025-01-18 04:01:20.60	294.08	9.34	
2025-01-18 04:01:21.61	293.90	9.29	
2025-01-18 04:01:22.63	293.72	9.25	
2025-01-18 04:01:23.65	293.55	9.20	
2025-01-18 04:01:24.66	293.37	9.16	
2025-01-18 04:01:25.68	293.20	9.11	
2025-01-18 04:01:26.69	293.02	9.07	
2025-01-18 04:01:27.71	292.85	9.02	
2025-01-18 04:01:28.72	292.67	8.98	
2025-01-18 04:01:29.74	292.50	8.93	
2025-01-18 04:01:30.75	292.33	8.88	
2025-01-18 04:01:31.77	292.16	8.84	
2025-01-18 04:01:32.78	291.99	8.79	
2025-01-18 04:01:33.80	291.82	8.75	
2025-01-18 04:01:34.81	291.65	8.70	
2025-01-18 04:01:35.83	291.48	8.65	
2025-01-18 04:01:36.85	291.31	8.61	
2025-01-18 04:01:37.86	291.14	8.56	
2025-01-18 04:01:38.88	290.97	8.51	
2025-01-18 04:01:39.89	290.81	8.47	
2025-01-18 04:01:40.91	290.64	8.42	
2025-01-18 04:01:41.92	290.48	8.37	
2025-01-18 04:01:42.94	290.31	8.32	
2025-01-18 04:01:43.95	290.15	8.28	
2025-01-18 04:01:44.97	289.98	8.23	
2025-01-18 04:01:45.98	289.82	8.18	
2025-01-18 04:01:47.00	289.66	8.13	
2025-01-18 04:01:48.02	289.49	8.09	
2025-01-18 04:01:49.03	289.33	8.04	
2025-01-18 04:01:50.05	289.17	7.99	
2025-01-18 04:01:51.06	289.01	7.94	
2025-01-18 04:01:52.08	288.85	7.89	
2025-01-18 04:01:53.09	288.69	7.85	
2025-01-18 04:01:54.11	288.53	7.80	
2025-01-18 04:01:55.12	288.38	7.75	
2025-01-18 04:01:56.14	288.22	7.70	
2025-01-18 04:01:57.15	288.06	7.65	
2025-01-18 04:01:58.17	287.90	7.60	
2025-01-18 04:01:59.18	287.75	7.56	
2025-01-18 04:02:00.20	287.59	7.51	
2025-01-18 04:02:01.22	287.44	7.46	
2025-01-18 04:02:02.23	287.28	7.41	
2025-01-18 04:02:03.25	287.13	7.36	
2025-01-18 04:02:04.26	286.98	7.31	
2025-01-18 04:02:05.28	286.83	7.26	
2025-01-18 04:02:06.29	286.67	7.21	
2025-01-18 04:02:07.31	286.52	7.16	
2025-01-18 04:02:08.32	286.37	7.11	
2025-01-18 04:02:09.34	286.22	7.06	
2025-01-18 04:02:10.35	286.07	7.01	
2025-01-18 04:02:11.37	285.92	6.96	
2025-01-18 04:02:12.39	285.77	6.91	
2025-01-18 04:02:13.40	285.63	6.86	
2025-01-18 04:02:14.42	285.48	6.81	
2025-01-18 04:02:15.43	285.33	6.76	
2025-01-18 04:02:16.45	285.19	6.71	
2025-01-18 04:02:17.46	285.04	6.66	
2025-01-18 04:02:18.48	284.90	6.61	
2025-01-18 04:02:19.49	284.75	6.56	
2025-01-18 04:02:20.51	284.61	6.51	
2025-01-18 04:02:21.52	284.46	6.46	
2025-01-18 04:02:22.54	284.32	6.41	
2025-01-18 04:02:23.55	284.18	6.36	
2025-01-18 04:02:24.57	284.04	6.31	
2025-01-18 04:02:25.59	283.90	6.26	
2025-01-18 04:02:26.60	283.76	6.21	
2025-01-18 04:02:27.62	283.61	6.16	
2025-01-18 04:02:28.63	283.48	6.11	
2025-01-18 04:02:29.65	283.34	6.06	
2025-01-18 04:02:30.66	283.20	6.01	
2025-01-18 04:02:31.68	283.06	5.96	
2025-01-18 04:02:32.69	282.92	5.91	
2025-01-18 04:02:33.71	282.78	5.86	
2025-01-18 04:02:34.72	282.65	5.81	
2025-01-18 04:02:35.74	282.51	5.75	
2025-01-18 04:02:36.76	282.38	5.70	
2025-01-18 04:02:37.77	282.24	5.65	
2025-01-18 04:02:38.79	282.11	5.60	
2025-01-18 04:02:39.80	281.97	5.55	
2025-01-18 04:02:40.82	281.84	5.50	
2025-01-18 04:02:41.83	281.71	5.45	
2025-01-18 04:02:42.85	281.58	5.40	
2025-01-18 04:02:43.86	281.44	5.35	
2025-01-18 04:02:44.88	281.31	5.30	
2025-01-18 04:02:45.89	281.18	5.24	
2025-01-18 04:02:46.91	281.05	5.19	
2025-01-18 04:02:47.92	280.92	5.14	
2025-01-18 04:02:48.94	280.79	5.09	
2025-01-18 04:02:49.96	280.66	5.04	
2025-01-18 04:02:50.97	280.54	4.99	
2025-01-18 04:02:51.99	280.41	4.94	
2025-01-18 04:02:53.00	280.28	4.89	
2025-01-18 04:02:54.02	280.15	4.83	
2025-01-18 04:02:55.03	280.03	4.78	
2025-01-18 04:02:56.05	279.90	4.73	
2025-01-18 04:02:57.06	279.78	4.68	
2025-01-18 04:02:58.08	279.65	4.63	
2025-01-18 04:02:59.09	279.53	4.58	
2025-01-18 04:03:00.11	279.40	4.53	
2025-01-18 04:03:01.13	279.28	4.48	
2025-01-18 04:03:02.14	279.16	4.42	
2025-01-18 04:03:03.16	279.03	4.37	
2025-01-18 04:03:04.17	278.91	4.32	
2025-01-18 04:03:05.19	278.79	4.27	
2025-01-18 04:03:06.20	278.67	4.22	
2025-01-18 04:03:07.22	278.55	4.17	
2025-01-18 04:03:08.23	278.43	4.12	
2025-01-18 04:03:09.25	278.31	4.07	
2025-01-18 04:03:10.26	278.19	4.01	

#Closed at: 2025-01-18 04:03:10