passes_logs/2025/01/18/SPB_Silybum_02/SPB_Silybum_02__20250118_133325_AQUA_rec.log

#Pass ID: 20250118_133325_AQUA
#Satellite: AQUA
#Configuration: AQUA
#Start time: 2025-01-18 13:33:25

#Version: 2.0.20230423
#Station: SPB_Silybum_02
#Location: 30.233357 lon 59.946436 lat
#TLE: 1 27424U 02022A   25017.88331103  .00002112  00000+0  44339-3 0  9998
#TLE: 2 27424  98.3596 334.5732 0001847 108.4912 313.9167 14.60695357208043

#Time	Az	El	Level	Level2	SNR	BER	Gain	Gain2
2025-01-18 13:33:27.61	233.94	4.12	
2025-01-18 13:33:28.62	234.07	4.17	
2025-01-18 13:33:29.64	234.20	4.22	
2025-01-18 13:33:30.65	234.32	4.27	
2025-01-18 13:33:31.67	234.45	4.32	
2025-01-18 13:33:32.68	234.58	4.37	
2025-01-18 13:33:33.70	234.71	4.41	
2025-01-18 13:33:34.71	234.83	4.46	
2025-01-18 13:33:35.73	234.96	4.51	
2025-01-18 13:33:36.74	235.09	4.56	
2025-01-18 13:33:37.76	235.22	4.61	
2025-01-18 13:33:38.77	235.35	4.66	
2025-01-18 13:33:39.79	235.49	4.71	
2025-01-18 13:33:40.80	235.62	4.75	
2025-01-18 13:33:41.82	235.75	4.80	
2025-01-18 13:33:42.83	235.88	4.85	
2025-01-18 13:33:43.85	236.01	4.90	
2025-01-18 13:33:44.86	236.15	4.95	
2025-01-18 13:33:45.88	236.28	5.00	
2025-01-18 13:33:46.89	236.42	5.04	
2025-01-18 13:33:47.91	236.55	5.09	
2025-01-18 13:33:48.93	236.69	5.14	
2025-01-18 13:33:49.95	236.82	5.19	
2025-01-18 13:33:50.96	236.96	5.24	
2025-01-18 13:33:51.98	237.10	5.29	
2025-01-18 13:33:52.99	237.23	5.34	
2025-01-18 13:33:54.01	237.37	5.38	
2025-01-18 13:33:55.02	237.51	5.43	
2025-01-18 13:33:56.04	237.65	5.48	
2025-01-18 13:33:57.06	237.79	5.53	
2025-01-18 13:33:58.07	237.93	5.58	
2025-01-18 13:33:59.09	238.07	5.62	
2025-01-18 13:34:00.10	238.21	5.67	
2025-01-18 13:34:01.12	238.35	5.72	
2025-01-18 13:34:02.13	238.49	5.77	
2025-01-18 13:34:03.16	238.63	5.82	
2025-01-18 13:34:04.17	238.78	5.86	
2025-01-18 13:34:05.19	238.92	5.91	
2025-01-18 13:34:06.20	239.06	5.96	
2025-01-18 13:34:07.22	239.21	6.01	
2025-01-18 13:34:08.23	239.35	6.06	
2025-01-18 13:34:09.25	239.50	6.10	
2025-01-18 13:34:10.27	239.64	6.15	
2025-01-18 13:34:11.28	239.79	6.20	
2025-01-18 13:34:12.30	239.93	6.25	
2025-01-18 13:34:13.31	240.08	6.29	
2025-01-18 13:34:14.34	240.23	6.34	
2025-01-18 13:34:15.36	240.38	6.39	
2025-01-18 13:34:16.38	240.53	6.44	
2025-01-18 13:34:17.39	240.68	6.48	
2025-01-18 13:34:18.41	240.83	6.53	
2025-01-18 13:34:19.42	240.98	6.58	
2025-01-18 13:34:20.47	241.13	6.63	
2025-01-18 13:34:21.51	241.29	6.67	
2025-01-18 13:34:22.53	241.44	6.72	
2025-01-18 13:34:23.54	241.59	6.77	
2025-01-18 13:34:24.56	241.74	6.82	
2025-01-18 13:34:25.57	241.90	6.86	
2025-01-18 13:34:26.59	242.05	6.91	
2025-01-18 13:34:27.60	242.20	6.95	
2025-01-18 13:34:28.62	242.36	7.00	
2025-01-18 13:34:29.63	242.51	7.05	
2025-01-18 13:34:30.65	242.67	7.09	
2025-01-18 13:34:31.66	242.82	7.14	
2025-01-18 13:34:32.68	242.98	7.19	
2025-01-18 13:34:33.69	243.14	7.23	
2025-01-18 13:34:34.71	243.30	7.28	
2025-01-18 13:34:35.72	243.45	7.32	
2025-01-18 13:34:36.74	243.61	7.37	
2025-01-18 13:34:37.75	243.77	7.42	
2025-01-18 13:34:38.77	243.93	7.46	
2025-01-18 13:34:39.78	244.09	7.51	
2025-01-18 13:34:40.80	244.25	7.55	
2025-01-18 13:34:41.81	244.42	7.60	
2025-01-18 13:34:42.83	244.58	7.64	
2025-01-18 13:34:43.84	244.74	7.69	
2025-01-18 13:34:44.86	244.90	7.73	
2025-01-18 13:34:45.87	245.07	7.78	
2025-01-18 13:34:46.89	245.23	7.82	
2025-01-18 13:34:47.90	245.40	7.87	
2025-01-18 13:34:48.92	245.56	7.91	
2025-01-18 13:34:49.93	245.73	7.96	
2025-01-18 13:34:50.95	245.89	8.00	
2025-01-18 13:34:51.96	246.06	8.05	
2025-01-18 13:34:52.98	246.23	8.09	
2025-01-18 13:34:53.99	246.39	8.13	
2025-01-18 13:34:55.00	246.56	8.18	
2025-01-18 13:34:56.02	246.73	8.22	
2025-01-18 13:34:57.03	246.90	8.27	
2025-01-18 13:34:58.05	247.07	8.31	
2025-01-18 13:34:59.06	247.24	8.35	
2025-01-18 13:35:00.08	247.41	8.40	
2025-01-18 13:35:01.09	247.58	8.44	
2025-01-18 13:35:02.11	247.76	8.48	
2025-01-18 13:35:03.12	247.93	8.53	
2025-01-18 13:35:04.14	248.10	8.57	
2025-01-18 13:35:05.15	248.27	8.61	
2025-01-18 13:35:06.17	248.45	8.66	
2025-01-18 13:35:07.18	248.62	8.70	
2025-01-18 13:35:08.20	248.80	8.74	
2025-01-18 13:35:09.21	248.97	8.78	
2025-01-18 13:35:10.23	249.15	8.82	
2025-01-18 13:35:11.24	249.33	8.87	
2025-01-18 13:35:12.26	249.51	8.91	
2025-01-18 13:35:13.27	249.68	8.95	
2025-01-18 13:35:14.29	249.86	8.99	
2025-01-18 13:35:15.30	250.04	9.03	
2025-01-18 13:35:16.32	250.22	9.07	
2025-01-18 13:35:17.33	250.40	9.11	
2025-01-18 13:35:18.35	250.58	9.16	
2025-01-18 13:35:19.36	250.76	9.20	
2025-01-18 13:35:20.38	250.94	9.24	
2025-01-18 13:35:21.39	251.13	9.28	
2025-01-18 13:35:22.41	251.31	9.32	
2025-01-18 13:35:23.42	251.49	9.36	
2025-01-18 13:35:24.44	251.68	9.40	
2025-01-18 13:35:25.45	251.86	9.44	
2025-01-18 13:35:26.47	252.05	9.48	
2025-01-18 13:35:27.48	252.23	9.52	
2025-01-18 13:35:28.50	252.42	9.55	
2025-01-18 13:35:29.51	252.60	9.59	
2025-01-18 13:35:30.53	252.79	9.63	
2025-01-18 13:35:31.54	252.98	9.67	
2025-01-18 13:35:32.56	253.17	9.71	
2025-01-18 13:35:33.57	253.35	9.75	
2025-01-18 13:35:34.59	253.54	9.79	
2025-01-18 13:35:35.60	253.73	9.82	
2025-01-18 13:35:36.63	253.92	9.86	
2025-01-18 13:35:37.65	254.12	9.90	
2025-01-18 13:35:38.66	254.31	9.94	
2025-01-18 13:35:39.68	254.50	9.97	
2025-01-18 13:35:40.69	254.69	10.01	
2025-01-18 13:35:41.71	254.88	10.05	
2025-01-18 13:35:42.72	255.07	10.08	
2025-01-18 13:35:43.74	255.27	10.12	
2025-01-18 13:35:44.75	255.46	10.16	
2025-01-18 13:35:45.77	255.66	10.19	
2025-01-18 13:35:46.78	255.85	10.23	
2025-01-18 13:35:47.80	256.05	10.26	
2025-01-18 13:35:48.81	256.24	10.30	
2025-01-18 13:35:49.83	256.44	10.33	
2025-01-18 13:35:50.84	256.64	10.37	
2025-01-18 13:35:51.86	256.83	10.40	
2025-01-18 13:35:52.87	257.03	10.43	
2025-01-18 13:35:53.89	257.23	10.47	
2025-01-18 13:35:54.90	257.43	10.50	
2025-01-18 13:35:55.92	257.63	10.54	
2025-01-18 13:35:56.93	257.83	10.57	
2025-01-18 13:35:57.95	258.03	10.60	
2025-01-18 13:35:58.96	258.23	10.63	
2025-01-18 13:35:59.98	258.43	10.67	
2025-01-18 13:36:00.99	258.63	10.70	
2025-01-18 13:36:02.01	258.84	10.73	
2025-01-18 13:36:03.02	259.04	10.76	
2025-01-18 13:36:04.04	259.24	10.79	
2025-01-18 13:36:05.05	259.44	10.83	
2025-01-18 13:36:06.07	259.65	10.86	
2025-01-18 13:36:07.08	259.85	10.89	
2025-01-18 13:36:08.10	260.06	10.92	
2025-01-18 13:36:09.11	260.26	10.95	
2025-01-18 13:36:10.13	260.47	10.98	
2025-01-18 13:36:11.14	260.67	11.01	
2025-01-18 13:36:12.16	260.88	11.04	
2025-01-18 13:36:13.17	261.09	11.07	
2025-01-18 13:36:14.19	261.30	11.09	
2025-01-18 13:36:15.20	261.50	11.12	
2025-01-18 13:36:16.22	261.71	11.15	
2025-01-18 13:36:17.23	261.92	11.18	
2025-01-18 13:36:18.24	262.13	11.21	
2025-01-18 13:36:19.26	262.34	11.23	
2025-01-18 13:36:20.27	262.55	11.26	
2025-01-18 13:36:21.29	262.76	11.29	
2025-01-18 13:36:22.30	262.97	11.31	
2025-01-18 13:36:23.32	263.18	11.34	
2025-01-18 13:36:24.33	263.39	11.37	
2025-01-18 13:36:25.35	263.60	11.39	
2025-01-18 13:36:26.36	263.81	11.42	
2025-01-18 13:36:27.38	264.03	11.44	
2025-01-18 13:36:28.39	264.24	11.47	
2025-01-18 13:36:29.41	264.45	11.49	
2025-01-18 13:36:30.42	264.67	11.51	
2025-01-18 13:36:31.44	264.88	11.54	
2025-01-18 13:36:32.45	265.10	11.56	
2025-01-18 13:36:33.47	265.31	11.58	
2025-01-18 13:36:34.48	265.53	11.61	
2025-01-18 13:36:35.50	265.74	11.63	
2025-01-18 13:36:36.51	265.96	11.65	
2025-01-18 13:36:37.53	266.17	11.67	
2025-01-18 13:36:38.54	266.39	11.69	
2025-01-18 13:36:39.56	266.61	11.71	
2025-01-18 13:36:40.57	266.82	11.74	
2025-01-18 13:36:41.59	267.04	11.76	
2025-01-18 13:36:42.60	267.26	11.78	
2025-01-18 13:36:43.62	267.48	11.80	
2025-01-18 13:36:44.63	267.70	11.81	
2025-01-18 13:36:45.65	267.91	11.83	
2025-01-18 13:36:46.66	268.13	11.85	
2025-01-18 13:36:47.68	268.35	11.87	
2025-01-18 13:36:48.69	268.57	11.89	
2025-01-18 13:36:49.71	268.79	11.91	
2025-01-18 13:36:50.73	269.01	11.92	
2025-01-18 13:36:51.74	269.23	11.94	
2025-01-18 13:36:52.76	269.45	11.96	
2025-01-18 13:36:53.77	269.67	11.97	
2025-01-18 13:36:54.79	269.90	11.99	
2025-01-18 13:36:55.80	270.12	12.01	
2025-01-18 13:36:56.82	270.34	12.02	
2025-01-18 13:36:57.83	270.56	12.04	
2025-01-18 13:36:58.85	270.78	12.05	
2025-01-18 13:36:59.86	271.00	12.06	
2025-01-18 13:37:00.87	271.23	12.08	
2025-01-18 13:37:01.89	271.45	12.09	
2025-01-18 13:37:02.90	271.67	12.10	
2025-01-18 13:37:03.92	271.89	12.12	
2025-01-18 13:37:04.93	272.12	12.13	
2025-01-18 13:37:05.95	272.34	12.14	
2025-01-18 13:37:06.96	272.56	12.15	
2025-01-18 13:37:07.98	272.79	12.16	
2025-01-18 13:37:08.99	273.01	12.17	
2025-01-18 13:37:10.02	273.24	12.19	
2025-01-18 13:37:11.03	273.46	12.20	
2025-01-18 13:37:12.05	273.69	12.20	
2025-01-18 13:37:13.06	273.91	12.21	
2025-01-18 13:37:14.08	274.14	12.22	
2025-01-18 13:37:15.09	274.36	12.23	
2025-01-18 13:37:16.10	274.58	12.24	
2025-01-18 13:37:17.12	274.81	12.25	
2025-01-18 13:37:18.13	275.03	12.25	
2025-01-18 13:37:19.15	275.26	12.26	
2025-01-18 13:37:20.16	275.49	12.27	
2025-01-18 13:37:21.18	275.71	12.28	
2025-01-18 13:37:22.19	275.94	12.28	
2025-01-18 13:37:23.21	276.16	12.29	
2025-01-18 13:37:24.22	276.39	12.29	
2025-01-18 13:37:25.24	276.61	12.30	
2025-01-18 13:37:26.25	276.84	12.30	
2025-01-18 13:37:27.27	277.07	12.30	
2025-01-18 13:37:28.28	277.29	12.31	
2025-01-18 13:37:29.30	277.52	12.31	
2025-01-18 13:37:30.31	277.74	12.31	
2025-01-18 13:37:31.33	277.97	12.32	
2025-01-18 13:37:32.34	278.20	12.32	
2025-01-18 13:37:33.36	278.42	12.32	
2025-01-18 13:37:34.37	278.65	12.32	
2025-01-18 13:37:35.39	278.88	12.32	
2025-01-18 13:37:36.40	279.10	12.32	
2025-01-18 13:37:37.42	279.33	12.32	
2025-01-18 13:37:38.43	279.55	12.32	
2025-01-18 13:37:39.45	279.78	12.32	
2025-01-18 13:37:40.46	280.01	12.32	
2025-01-18 13:37:41.48	280.23	12.32	
2025-01-18 13:37:42.49	280.46	12.32	
2025-01-18 13:37:43.51	280.69	12.32	
2025-01-18 13:37:44.52	280.91	12.31	
2025-01-18 13:37:45.54	281.14	12.31	
2025-01-18 13:37:46.55	281.36	12.31	
2025-01-18 13:37:47.57	281.59	12.30	
2025-01-18 13:37:48.58	281.81	12.30	
2025-01-18 13:37:49.60	282.04	12.30	
2025-01-18 13:37:50.61	282.27	12.29	
2025-01-18 13:37:51.63	282.49	12.29	
2025-01-18 13:37:52.64	282.72	12.28	
2025-01-18 13:37:53.66	282.94	12.27	
2025-01-18 13:37:54.67	283.17	12.27	
2025-01-18 13:37:55.69	283.39	12.26	
2025-01-18 13:37:56.70	283.62	12.25	
2025-01-18 13:37:57.72	283.84	12.25	
2025-01-18 13:37:58.73	284.07	12.24	
2025-01-18 13:37:59.75	284.29	12.23	
2025-01-18 13:38:00.76	284.52	12.22	
2025-01-18 13:38:01.78	284.74	12.21	
2025-01-18 13:38:02.79	284.97	12.20	
2025-01-18 13:38:03.81	285.19	12.19	
2025-01-18 13:38:04.82	285.41	12.18	
2025-01-18 13:38:05.84	285.64	12.17	
2025-01-18 13:38:06.85	285.86	12.16	
2025-01-18 13:38:07.87	286.09	12.15	
2025-01-18 13:38:08.88	286.31	12.14	
2025-01-18 13:38:09.90	286.53	12.13	
2025-01-18 13:38:10.91	286.75	12.11	
2025-01-18 13:38:11.93	286.98	12.10	
2025-01-18 13:38:12.94	287.20	12.09	
2025-01-18 13:38:13.96	287.42	12.08	
2025-01-18 13:38:14.97	287.64	12.06	
2025-01-18 13:38:15.99	287.87	12.05	
2025-01-18 13:38:17.00	288.09	12.03	
2025-01-18 13:38:18.02	288.31	12.02	
2025-01-18 13:38:19.03	288.53	12.00	
2025-01-18 13:38:20.05	288.75	11.99	
2025-01-18 13:38:21.06	288.97	11.97	
2025-01-18 13:38:22.08	289.19	11.96	
2025-01-18 13:38:23.09	289.41	11.94	
2025-01-18 13:38:24.11	289.63	11.92	
2025-01-18 13:38:25.12	289.85	11.90	
2025-01-18 13:38:26.14	290.07	11.89	
2025-01-18 13:38:27.15	290.29	11.87	
2025-01-18 13:38:28.17	290.51	11.85	
2025-01-18 13:38:29.18	290.72	11.83	
2025-01-18 13:38:30.19	290.94	11.81	
2025-01-18 13:38:31.21	291.16	11.79	
2025-01-18 13:38:32.22	291.38	11.77	
2025-01-18 13:38:33.24	291.59	11.75	
2025-01-18 13:38:34.25	291.81	11.73	
2025-01-18 13:38:35.27	292.03	11.71	
2025-01-18 13:38:36.28	292.24	11.69	
2025-01-18 13:38:37.30	292.46	11.67	
2025-01-18 13:38:38.31	292.67	11.65	
2025-01-18 13:38:39.33	292.89	11.63	
2025-01-18 13:38:40.34	293.10	11.60	
2025-01-18 13:38:41.36	293.32	11.58	
2025-01-18 13:38:42.37	293.53	11.56	
2025-01-18 13:38:43.39	293.75	11.54	
2025-01-18 13:38:44.40	293.96	11.51	
2025-01-18 13:38:45.42	294.17	11.49	
2025-01-18 13:38:46.43	294.38	11.46	
2025-01-18 13:38:47.45	294.60	11.44	
2025-01-18 13:38:48.46	294.81	11.41	
2025-01-18 13:38:49.48	295.02	11.39	
2025-01-18 13:38:50.49	295.23	11.36	
2025-01-18 13:38:51.51	295.44	11.34	
2025-01-18 13:38:52.52	295.65	11.31	
2025-01-18 13:38:53.54	295.86	11.29	
2025-01-18 13:38:54.55	296.07	11.26	
2025-01-18 13:38:55.57	296.28	11.23	
2025-01-18 13:38:56.58	296.49	11.21	
2025-01-18 13:38:57.60	296.70	11.18	
2025-01-18 13:38:58.61	296.91	11.15	
2025-01-18 13:38:59.63	297.11	11.12	
2025-01-18 13:39:00.64	297.32	11.09	
2025-01-18 13:39:01.66	297.53	11.06	
2025-01-18 13:39:02.67	297.73	11.04	
2025-01-18 13:39:03.69	297.94	11.01	
2025-01-18 13:39:04.70	298.14	10.98	
2025-01-18 13:39:05.72	298.35	10.95	
2025-01-18 13:39:06.73	298.55	10.92	
2025-01-18 13:39:07.75	298.76	10.89	
2025-01-18 13:39:08.76	298.96	10.86	
2025-01-18 13:39:09.78	299.17	10.83	
2025-01-18 13:39:10.79	299.37	10.80	
2025-01-18 13:39:11.81	299.57	10.76	
2025-01-18 13:39:12.82	299.77	10.73	
2025-01-18 13:39:13.84	299.97	10.70	
2025-01-18 13:39:14.85	300.17	10.67	
2025-01-18 13:39:15.87	300.37	10.64	
2025-01-18 13:39:16.88	300.57	10.60	
2025-01-18 13:39:17.90	300.77	10.57	
2025-01-18 13:39:18.91	300.97	10.54	
2025-01-18 13:39:19.93	301.17	10.50	
2025-01-18 13:39:20.94	301.37	10.47	
2025-01-18 13:39:21.96	301.57	10.44	
2025-01-18 13:39:22.97	301.76	10.40	
2025-01-18 13:39:23.99	301.96	10.37	
2025-01-18 13:39:25.00	302.15	10.34	
2025-01-18 13:39:26.02	302.35	10.30	
2025-01-18 13:39:27.03	302.55	10.27	
2025-01-18 13:39:28.05	302.74	10.23	
2025-01-18 13:39:29.06	302.93	10.20	
2025-01-18 13:39:30.08	303.13	10.16	
2025-01-18 13:39:31.09	303.32	10.12	
2025-01-18 13:39:32.11	303.51	10.09	
2025-01-18 13:39:33.12	303.71	10.05	
2025-01-18 13:39:34.14	303.90	10.02	
2025-01-18 13:39:35.15	304.09	9.98	
2025-01-18 13:39:36.17	304.28	9.94	
2025-01-18 13:39:37.18	304.47	9.91	
2025-01-18 13:39:38.20	304.66	9.87	
2025-01-18 13:39:39.21	304.85	9.83	
2025-01-18 13:39:40.23	305.04	9.79	
2025-01-18 13:39:41.24	305.22	9.76	
2025-01-18 13:39:42.26	305.41	9.72	
2025-01-18 13:39:43.27	305.60	9.68	
2025-01-18 13:39:44.28	305.78	9.64	
2025-01-18 13:39:45.30	305.97	9.60	
2025-01-18 13:39:46.31	306.16	9.56	
2025-01-18 13:39:47.33	306.34	9.53	
2025-01-18 13:39:48.34	306.52	9.49	
2025-01-18 13:39:49.36	306.71	9.45	
2025-01-18 13:39:50.37	306.89	9.41	
2025-01-18 13:39:51.39	307.08	9.37	
2025-01-18 13:39:52.40	307.26	9.33	
2025-01-18 13:39:53.42	307.44	9.29	
2025-01-18 13:39:54.43	307.62	9.25	
2025-01-18 13:39:55.45	307.80	9.21	
2025-01-18 13:39:56.46	307.98	9.17	
2025-01-18 13:39:57.48	308.16	9.13	
2025-01-18 13:39:58.49	308.34	9.09	
2025-01-18 13:39:59.51	308.52	9.05	
2025-01-18 13:40:00.52	308.70	9.01	
2025-01-18 13:40:01.54	308.87	8.96	
2025-01-18 13:40:02.55	309.05	8.92	
2025-01-18 13:40:03.57	309.23	8.88	
2025-01-18 13:40:04.58	309.40	8.84	
2025-01-18 13:40:05.60	309.58	8.80	
2025-01-18 13:40:06.61	309.75	8.76	
2025-01-18 13:40:07.63	309.93	8.71	
2025-01-18 13:40:08.64	310.10	8.67	
2025-01-18 13:40:09.66	310.28	8.63	
2025-01-18 13:40:10.67	310.45	8.59	
2025-01-18 13:40:11.69	310.62	8.54	
2025-01-18 13:40:12.70	310.79	8.50	
2025-01-18 13:40:13.72	310.96	8.46	
2025-01-18 13:40:14.73	311.13	8.42	
2025-01-18 13:40:15.75	311.30	8.37	
2025-01-18 13:40:16.76	311.47	8.33	
2025-01-18 13:40:17.78	311.64	8.29	
2025-01-18 13:40:18.79	311.81	8.24	
2025-01-18 13:40:19.81	311.98	8.20	
2025-01-18 13:40:20.82	312.15	8.16	
2025-01-18 13:40:21.84	312.31	8.11	
2025-01-18 13:40:22.85	312.48	8.07	
2025-01-18 13:40:23.87	312.65	8.02	
2025-01-18 13:40:24.88	312.81	7.98	
2025-01-18 13:40:25.90	312.98	7.94	
2025-01-18 13:40:26.91	313.14	7.89	
2025-01-18 13:40:27.93	313.31	7.85	
2025-01-18 13:40:28.94	313.47	7.80	
2025-01-18 13:40:29.96	313.63	7.76	
2025-01-18 13:40:30.97	313.79	7.71	
2025-01-18 13:40:31.99	313.96	7.67	
2025-01-18 13:40:33.00	314.12	7.62	
2025-01-18 13:40:34.02	314.28	7.58	
2025-01-18 13:40:35.03	314.44	7.53	
2025-01-18 13:40:36.05	314.60	7.49	
2025-01-18 13:40:37.06	314.75	7.44	
2025-01-18 13:40:38.08	314.91	7.40	
2025-01-18 13:40:39.09	315.07	7.35	
2025-01-18 13:40:40.11	315.23	7.31	
2025-01-18 13:40:41.12	315.39	7.26	
2025-01-18 13:40:42.14	315.54	7.22	
2025-01-18 13:40:43.15	315.70	7.17	
2025-01-18 13:40:44.17	315.85	7.13	
2025-01-18 13:40:45.18	316.01	7.08	
2025-01-18 13:40:46.20	316.16	7.03	
2025-01-18 13:40:47.21	316.32	6.99	
2025-01-18 13:40:48.23	316.47	6.94	
2025-01-18 13:40:49.24	316.62	6.90	
2025-01-18 13:40:50.26	316.78	6.85	
2025-01-18 13:40:51.27	316.93	6.80	
2025-01-18 13:40:52.29	317.08	6.76	
2025-01-18 13:40:53.30	317.23	6.71	
2025-01-18 13:40:54.32	317.38	6.66	
2025-01-18 13:40:55.33	317.53	6.62	
2025-01-18 13:40:56.35	317.68	6.57	
2025-01-18 13:40:57.36	317.83	6.52	
2025-01-18 13:40:58.37	317.98	6.48	
2025-01-18 13:40:59.39	318.12	6.43	
2025-01-18 13:41:00.40	318.27	6.38	
2025-01-18 13:41:01.42	318.42	6.34	
2025-01-18 13:41:02.43	318.56	6.29	
2025-01-18 13:41:03.45	318.71	6.24	
2025-01-18 13:41:04.46	318.86	6.20	
2025-01-18 13:41:05.48	319.00	6.15	
2025-01-18 13:41:06.49	319.14	6.10	
2025-01-18 13:41:07.51	319.29	6.05	
2025-01-18 13:41:08.52	319.43	6.01	
2025-01-18 13:41:09.54	319.58	5.96	
2025-01-18 13:41:10.55	319.72	5.91	
2025-01-18 13:41:11.57	319.86	5.86	
2025-01-18 13:41:12.58	320.00	5.82	
2025-01-18 13:41:13.60	320.14	5.77	
2025-01-18 13:41:14.61	320.28	5.72	
2025-01-18 13:41:15.63	320.42	5.68	
2025-01-18 13:41:16.64	320.56	5.63	
2025-01-18 13:41:17.66	320.70	5.58	
2025-01-18 13:41:18.67	320.84	5.53	
2025-01-18 13:41:19.69	320.98	5.48	
2025-01-18 13:41:20.70	321.11	5.44	
2025-01-18 13:41:21.72	321.25	5.39	
2025-01-18 13:41:22.73	321.39	5.34	
2025-01-18 13:41:23.75	321.53	5.29	
2025-01-18 13:41:24.76	321.66	5.25	
2025-01-18 13:41:25.78	321.80	5.20	
2025-01-18 13:41:26.79	321.93	5.15	
2025-01-18 13:41:27.81	322.07	5.10	
2025-01-18 13:41:28.82	322.20	5.05	
2025-01-18 13:41:29.84	322.33	5.01	
2025-01-18 13:41:30.85	322.47	4.96	
2025-01-18 13:41:31.87	322.60	4.91	
2025-01-18 13:41:32.88	322.73	4.86	
2025-01-18 13:41:33.90	322.86	4.81	
2025-01-18 13:41:34.91	322.99	4.77	
2025-01-18 13:41:35.93	323.12	4.72	
2025-01-18 13:41:36.94	323.25	4.67	
2025-01-18 13:41:37.96	323.38	4.62	
2025-01-18 13:41:38.97	323.51	4.57	
2025-01-18 13:41:39.99	323.64	4.53	
2025-01-18 13:41:41.00	323.77	4.48	
2025-01-18 13:41:42.02	323.90	4.43	
2025-01-18 13:41:43.03	324.03	4.38	
2025-01-18 13:41:44.05	324.15	4.33	
2025-01-18 13:41:45.06	324.28	4.29	
2025-01-18 13:41:46.08	324.41	4.24	
2025-01-18 13:41:47.09	324.53	4.19	
2025-01-18 13:41:48.11	324.66	4.14	
2025-01-18 13:41:49.12	324.78	4.09	
2025-01-18 13:41:50.14	324.91	4.04	
2025-01-18 13:41:51.15	325.03	4.00	

#Closed at: 2025-01-18 13:41:51