passes_logs/2025/01/18/SPB_Silybum_02/SPB_Silybum_02__20250118_003915_AQUA_rec.log

#Pass ID: 20250118_003915_AQUA
#Satellite: AQUA
#Configuration: AQUA
#Start time: 2025-01-18 00:39:15

#Version: 2.0.20230423
#Station: SPB_Silybum_02
#Location: 30.233357 lon 59.946436 lat
#TLE: 1 27424U 02022A   25017.13491740  .00001953  00000+0  41075-3 0  9996
#TLE: 2 27424  98.3596 333.8179 0001829 109.1235 340.1836 14.60691632207930

#Time	Az	El	Level	Level2	SNR	BER	Gain	Gain2
2025-01-18 00:39:17.60	21.16	4.15	
2025-01-18 00:39:18.82	21.22	4.24	
2025-01-18 00:39:20.04	21.27	4.32	
2025-01-18 00:39:21.26	21.32	4.41	
2025-01-18 00:39:22.47	21.37	4.49	
2025-01-18 00:39:23.69	21.42	4.58	
2025-01-18 00:39:24.91	21.48	4.67	
2025-01-18 00:39:26.13	21.53	4.75	
2025-01-18 00:39:27.35	21.58	4.84	
2025-01-18 00:39:28.56	21.64	4.93	
2025-01-18 00:39:29.78	21.69	5.01	
2025-01-18 00:39:31.00	21.75	5.10	
2025-01-18 00:39:32.22	21.80	5.19	
2025-01-18 00:39:33.44	21.86	5.28	
2025-01-18 00:39:34.65	21.91	5.37	
2025-01-18 00:39:35.87	21.97	5.46	
2025-01-18 00:39:37.09	22.02	5.55	
2025-01-18 00:39:38.31	22.08	5.64	
2025-01-18 00:39:39.53	22.14	5.73	
2025-01-18 00:39:40.74	22.19	5.81	
2025-01-18 00:39:41.96	22.25	5.91	
2025-01-18 00:39:43.18	22.31	6.00	
2025-01-18 00:39:44.40	22.37	6.09	
2025-01-18 00:39:45.61	22.43	6.18	
2025-01-18 00:39:46.83	22.48	6.27	
2025-01-18 00:39:48.05	22.54	6.36	
2025-01-18 00:39:49.27	22.60	6.46	
2025-01-18 00:39:50.49	22.66	6.55	
2025-01-18 00:39:51.70	22.72	6.64	
2025-01-18 00:39:52.92	22.78	6.74	
2025-01-18 00:39:54.14	22.85	6.83	
2025-01-18 00:39:55.36	22.91	6.92	
2025-01-18 00:39:56.58	22.97	7.02	
2025-01-18 00:39:57.79	23.03	7.11	
2025-01-18 00:39:59.01	23.09	7.21	
2025-01-18 00:40:00.23	23.16	7.31	
2025-01-18 00:40:01.45	23.22	7.40	
2025-01-18 00:40:02.67	23.29	7.50	
2025-01-18 00:40:03.88	23.35	7.59	
2025-01-18 00:40:05.10	23.41	7.69	
2025-01-18 00:40:06.32	23.48	7.79	
2025-01-18 00:40:07.54	23.55	7.89	
2025-01-18 00:40:08.75	23.61	7.99	
2025-01-18 00:40:09.97	23.68	8.09	
2025-01-18 00:40:11.19	23.75	8.19	
2025-01-18 00:40:12.41	23.81	8.29	
2025-01-18 00:40:13.63	23.88	8.39	
2025-01-18 00:40:14.84	23.95	8.49	
2025-01-18 00:40:16.06	24.02	8.59	
2025-01-18 00:40:17.28	24.09	8.69	
2025-01-18 00:40:18.50	24.16	8.79	
2025-01-18 00:40:19.72	24.23	8.89	
2025-01-18 00:40:20.93	24.30	8.99	
2025-01-18 00:40:22.15	24.37	9.10	
2025-01-18 00:40:23.37	24.44	9.20	
2025-01-18 00:40:24.59	24.51	9.31	
2025-01-18 00:40:25.80	24.59	9.41	
2025-01-18 00:40:27.02	24.66	9.52	
2025-01-18 00:40:28.24	24.73	9.62	
2025-01-18 00:40:29.46	24.81	9.73	
2025-01-18 00:40:30.68	24.88	9.83	
2025-01-18 00:40:31.89	24.96	9.94	
2025-01-18 00:40:33.11	25.04	10.05	
2025-01-18 00:40:34.33	25.11	10.15	
2025-01-18 00:40:35.55	25.19	10.26	
2025-01-18 00:40:36.77	25.27	10.37	
2025-01-18 00:40:37.98	25.35	10.48	
2025-01-18 00:40:39.20	25.43	10.59	
2025-01-18 00:40:40.42	25.51	10.70	
2025-01-18 00:40:41.64	25.59	10.81	
2025-01-18 00:40:42.86	25.67	10.92	
2025-01-18 00:40:44.07	25.75	11.03	
2025-01-18 00:40:45.29	25.83	11.15	
2025-01-18 00:40:46.51	25.91	11.26	
2025-01-18 00:40:47.73	26.00	11.37	
2025-01-18 00:40:48.94	26.08	11.49	
2025-01-18 00:40:50.16	26.16	11.60	
2025-01-18 00:40:51.38	26.25	11.72	
2025-01-18 00:40:52.60	26.34	11.83	
2025-01-18 00:40:53.82	26.42	11.95	
2025-01-18 00:40:55.03	26.51	12.07	
2025-01-18 00:40:56.25	26.60	12.18	
2025-01-18 00:40:57.47	26.69	12.30	
2025-01-18 00:40:58.69	26.78	12.42	
2025-01-18 00:40:59.91	26.87	12.54	
2025-01-18 00:41:01.12	26.96	12.66	
2025-01-18 00:41:02.34	27.05	12.78	
2025-01-18 00:41:03.56	27.14	12.90	
2025-01-18 00:41:04.78	27.24	13.02	
2025-01-18 00:41:05.99	27.33	13.14	
2025-01-18 00:41:07.21	27.43	13.26	
2025-01-18 00:41:08.43	27.52	13.39	
2025-01-18 00:41:09.65	27.62	13.51	
2025-01-18 00:41:10.87	27.72	13.64	
2025-01-18 00:41:12.08	27.81	13.76	
2025-01-18 00:41:13.30	27.91	13.89	
2025-01-18 00:41:14.52	28.01	14.01	
2025-01-18 00:41:15.74	28.11	14.14	
2025-01-18 00:41:16.96	28.21	14.27	
2025-01-18 00:41:18.17	28.32	14.40	
2025-01-18 00:41:19.39	28.42	14.53	
2025-01-18 00:41:20.61	28.52	14.66	
2025-01-18 00:41:21.84	28.63	14.79	
2025-01-18 00:41:23.06	28.74	14.92	
2025-01-18 00:41:24.28	28.84	15.05	
2025-01-18 00:41:25.50	28.95	15.19	
2025-01-18 00:41:26.71	29.06	15.32	
2025-01-18 00:41:27.93	29.17	15.45	
2025-01-18 00:41:29.15	29.28	15.59	
2025-01-18 00:41:30.37	29.40	15.72	
2025-01-18 00:41:31.59	29.51	15.86	
2025-01-18 00:41:32.80	29.62	16.00	
2025-01-18 00:41:34.02	29.74	16.13	
2025-01-18 00:41:35.24	29.85	16.27	
2025-01-18 00:41:36.46	29.97	16.41	
2025-01-18 00:41:37.68	30.09	16.55	
2025-01-18 00:41:38.89	30.21	16.69	
2025-01-18 00:41:40.11	30.33	16.84	
2025-01-18 00:41:41.33	30.45	16.98	
2025-01-18 00:41:42.55	30.58	17.12	
2025-01-18 00:41:43.76	30.70	17.27	
2025-01-18 00:41:44.98	30.83	17.41	
2025-01-18 00:41:46.20	30.95	17.56	
2025-01-18 00:41:47.42	31.08	17.70	
2025-01-18 00:41:48.64	31.21	17.85	
2025-01-18 00:41:49.85	31.34	18.00	
2025-01-18 00:41:51.07	31.47	18.15	
2025-01-18 00:41:52.29	31.61	18.30	
2025-01-18 00:41:53.51	31.74	18.45	
2025-01-18 00:41:54.73	31.88	18.60	
2025-01-18 00:41:55.94	32.01	18.75	
2025-01-18 00:41:57.16	32.15	18.91	
2025-01-18 00:41:58.38	32.29	19.06	
2025-01-18 00:41:59.60	32.43	19.22	
2025-01-18 00:42:00.82	32.58	19.37	
2025-01-18 00:42:02.03	32.72	19.53	
2025-01-18 00:42:03.25	32.87	19.69	
2025-01-18 00:42:04.47	33.02	19.85	
2025-01-18 00:42:05.69	33.17	20.01	
2025-01-18 00:42:06.90	33.32	20.17	
2025-01-18 00:42:08.12	33.47	20.33	
2025-01-18 00:42:09.34	33.62	20.50	
2025-01-18 00:42:10.56	33.78	20.66	
2025-01-18 00:42:11.78	33.94	20.82	
2025-01-18 00:42:12.99	34.10	20.99	
2025-01-18 00:42:14.21	34.26	21.16	
2025-01-18 00:42:15.43	34.42	21.32	
2025-01-18 00:42:16.65	34.58	21.49	
2025-01-18 00:42:17.87	34.75	21.66	
2025-01-18 00:42:19.08	34.92	21.83	
2025-01-18 00:42:20.30	35.09	22.01	
2025-01-18 00:42:21.52	35.26	22.18	
2025-01-18 00:42:22.74	35.44	22.35	
2025-01-18 00:42:23.95	35.61	22.53	
2025-01-18 00:42:25.17	35.79	22.70	
2025-01-18 00:42:26.39	35.97	22.88	
2025-01-18 00:42:27.61	36.15	23.06	
2025-01-18 00:42:28.83	36.34	23.24	
2025-01-18 00:42:30.04	36.52	23.42	
2025-01-18 00:42:31.26	36.71	23.60	
2025-01-18 00:42:32.48	36.90	23.78	
2025-01-18 00:42:33.70	37.10	23.97	
2025-01-18 00:42:34.92	37.29	24.15	
2025-01-18 00:42:36.13	37.49	24.34	
2025-01-18 00:42:37.35	37.69	24.53	
2025-01-18 00:42:38.57	37.89	24.71	
2025-01-18 00:42:39.79	38.10	24.90	
2025-01-18 00:42:41.01	38.31	25.09	
2025-01-18 00:42:42.22	38.52	25.29	
2025-01-18 00:42:43.44	38.73	25.48	
2025-01-18 00:42:44.66	38.95	25.67	
2025-01-18 00:42:45.88	39.17	25.87	
2025-01-18 00:42:47.09	39.39	26.06	
2025-01-18 00:42:48.31	39.61	26.26	
2025-01-18 00:42:49.53	39.84	26.46	
2025-01-18 00:42:50.75	40.07	26.66	
2025-01-18 00:42:51.97	40.30	26.86	
2025-01-18 00:42:53.18	40.53	27.06	
2025-01-18 00:42:54.40	40.77	27.26	
2025-01-18 00:42:55.62	41.02	27.47	
2025-01-18 00:42:56.84	41.26	27.67	
2025-01-18 00:42:58.06	41.51	27.88	
2025-01-18 00:42:59.27	41.76	28.08	
2025-01-18 00:43:00.49	42.01	28.29	
2025-01-18 00:43:01.71	42.27	28.50	
2025-01-18 00:43:02.93	42.54	28.71	
2025-01-18 00:43:04.14	42.80	28.92	
2025-01-18 00:43:05.36	43.07	29.14	
2025-01-18 00:43:06.58	43.34	29.35	
2025-01-18 00:43:07.80	43.62	29.57	
2025-01-18 00:43:09.02	43.90	29.78	
2025-01-18 00:43:10.23	44.18	30.00	
2025-01-18 00:43:11.45	44.47	30.22	
2025-01-18 00:43:12.67	44.76	30.44	
2025-01-18 00:43:13.89	45.06	30.66	
2025-01-18 00:43:15.11	45.36	30.88	
2025-01-18 00:43:16.32	45.66	31.10	
2025-01-18 00:43:17.54	45.97	31.32	
2025-01-18 00:43:18.76	46.28	31.55	
2025-01-18 00:43:19.98	46.60	31.77	
2025-01-18 00:43:21.20	46.92	32.00	
2025-01-18 00:43:22.41	47.24	32.23	
2025-01-18 00:43:23.63	47.57	32.45	
2025-01-18 00:43:24.85	47.91	32.68	
2025-01-18 00:43:26.07	48.25	32.91	
2025-01-18 00:43:27.28	48.59	33.14	
2025-01-18 00:43:28.50	48.94	33.37	
2025-01-18 00:43:29.72	49.30	33.60	
2025-01-18 00:43:30.94	49.66	33.84	
2025-01-18 00:43:32.16	50.03	34.07	
2025-01-18 00:43:33.37	50.40	34.30	
2025-01-18 00:43:34.59	50.77	34.54	
2025-01-18 00:43:35.81	51.16	34.77	
2025-01-18 00:43:37.03	51.54	35.01	
2025-01-18 00:43:38.25	51.94	35.24	
2025-01-18 00:43:39.46	52.33	35.48	
2025-01-18 00:43:40.68	52.74	35.72	
2025-01-18 00:43:41.90	53.15	35.95	
2025-01-18 00:43:43.12	53.57	36.19	
2025-01-18 00:43:44.33	53.99	36.43	
2025-01-18 00:43:45.55	54.42	36.66	
2025-01-18 00:43:46.77	54.86	36.90	
2025-01-18 00:43:47.99	55.30	37.14	
2025-01-18 00:43:49.21	55.75	37.38	
2025-01-18 00:43:50.42	56.20	37.61	
2025-01-18 00:43:51.64	56.66	37.85	
2025-01-18 00:43:52.86	57.13	38.09	
2025-01-18 00:43:54.08	57.61	38.32	
2025-01-18 00:43:55.30	58.09	38.56	
2025-01-18 00:43:56.51	58.58	38.79	
2025-01-18 00:43:57.73	59.08	39.03	
2025-01-18 00:43:58.95	59.58	39.26	
2025-01-18 00:44:00.17	60.10	39.50	
2025-01-18 00:44:01.39	60.62	39.73	
2025-01-18 00:44:02.60	61.14	39.96	
2025-01-18 00:44:03.82	61.68	40.19	
2025-01-18 00:44:05.04	62.22	40.42	
2025-01-18 00:44:06.26	62.77	40.65	
2025-01-18 00:44:07.47	63.33	40.88	
2025-01-18 00:44:08.69	63.89	41.10	
2025-01-18 00:44:09.91	64.47	41.33	
2025-01-18 00:44:11.13	65.05	41.55	
2025-01-18 00:44:12.35	65.64	41.77	
2025-01-18 00:44:13.56	66.24	41.99	
2025-01-18 00:44:14.78	66.84	42.20	
2025-01-18 00:44:16.00	67.46	42.42	
2025-01-18 00:44:17.22	68.08	42.63	
2025-01-18 00:44:18.44	68.72	42.84	
2025-01-18 00:44:19.65	69.35	43.04	
2025-01-18 00:44:20.87	70.00	43.25	
2025-01-18 00:44:22.09	70.66	43.45	
2025-01-18 00:44:23.31	71.32	43.65	
2025-01-18 00:44:24.52	71.99	43.84	
2025-01-18 00:44:25.74	72.67	44.03	
2025-01-18 00:44:26.96	73.36	44.22	
2025-01-18 00:44:28.18	74.06	44.41	
2025-01-18 00:44:29.40	74.77	44.59	
2025-01-18 00:44:30.61	75.48	44.76	
2025-01-18 00:44:31.83	76.20	44.94	
2025-01-18 00:44:33.05	76.93	45.11	
2025-01-18 00:44:34.27	77.67	45.27	
2025-01-18 00:44:35.49	78.42	45.43	
2025-01-18 00:44:36.70	79.16	45.59	
2025-01-18 00:44:37.92	79.92	45.74	
2025-01-18 00:44:39.14	80.69	45.88	
2025-01-18 00:44:40.36	81.47	46.03	
2025-01-18 00:44:41.58	82.25	46.16	
2025-01-18 00:44:42.79	83.03	46.29	
2025-01-18 00:44:44.01	83.83	46.42	
2025-01-18 00:44:45.23	84.63	46.54	
2025-01-18 00:44:46.45	85.44	46.65	
2025-01-18 00:44:47.66	86.25	46.76	
2025-01-18 00:44:48.88	87.07	46.86	
2025-01-18 00:44:50.10	87.89	46.96	
2025-01-18 00:44:51.32	88.72	47.05	
2025-01-18 00:44:52.54	89.55	47.13	
2025-01-18 00:44:53.75	90.39	47.21	
2025-01-18 00:44:54.97	91.23	47.28	
2025-01-18 00:44:56.19	92.08	47.35	
2025-01-18 00:44:57.41	92.93	47.41	
2025-01-18 00:44:58.63	93.78	47.46	
2025-01-18 00:44:59.84	94.63	47.50	
2025-01-18 00:45:01.06	95.49	47.54	
2025-01-18 00:45:02.28	96.35	47.57	
2025-01-18 00:45:03.50	97.21	47.60	
2025-01-18 00:45:04.71	98.06	47.62	
2025-01-18 00:45:05.93	98.93	47.63	
2025-01-18 00:45:07.15	99.79	47.63	
2025-01-18 00:45:08.37	100.66	47.63	
2025-01-18 00:45:09.59	101.52	47.62	
2025-01-18 00:45:10.80	102.38	47.61	
2025-01-18 00:45:12.02	103.24	47.58	
2025-01-18 00:45:13.24	104.10	47.55	
2025-01-18 00:45:14.46	104.96	47.52	
2025-01-18 00:45:15.68	105.82	47.47	
2025-01-18 00:45:16.89	106.67	47.43	
2025-01-18 00:45:18.11	107.52	47.37	
2025-01-18 00:45:19.33	108.37	47.31	
2025-01-18 00:45:20.55	109.21	47.24	
2025-01-18 00:45:21.77	110.05	47.16	
2025-01-18 00:45:22.98	110.88	47.08	
2025-01-18 00:45:24.20	111.71	46.99	
2025-01-18 00:45:25.42	112.54	46.89	
2025-01-18 00:45:26.64	113.36	46.79	
2025-01-18 00:45:27.85	114.17	46.69	
2025-01-18 00:45:29.07	114.99	46.57	
2025-01-18 00:45:30.29	115.79	46.46	
2025-01-18 00:45:31.51	116.59	46.33	
2025-01-18 00:45:32.73	117.38	46.20	
2025-01-18 00:45:33.94	118.16	46.07	
2025-01-18 00:45:35.16	118.94	45.93	
2025-01-18 00:45:36.38	119.71	45.78	
2025-01-18 00:45:37.60	120.48	45.63	
2025-01-18 00:45:38.82	121.24	45.48	
2025-01-18 00:45:40.03	121.98	45.32	
2025-01-18 00:45:41.25	122.72	45.16	
2025-01-18 00:45:42.47	123.46	44.99	
2025-01-18 00:45:43.69	124.18	44.82	
2025-01-18 00:45:44.90	124.90	44.64	
2025-01-18 00:45:46.12	125.61	44.46	
2025-01-18 00:45:47.34	126.31	44.28	
2025-01-18 00:45:48.56	127.01	44.09	
2025-01-18 00:45:49.78	127.69	43.90	
2025-01-18 00:45:50.99	128.36	43.70	
2025-01-18 00:45:52.21	129.03	43.50	
2025-01-18 00:45:53.43	129.70	43.30	
2025-01-18 00:45:54.65	130.35	43.10	
2025-01-18 00:45:55.87	130.99	42.89	
2025-01-18 00:45:57.08	131.63	42.68	
2025-01-18 00:45:58.30	132.25	42.47	
2025-01-18 00:45:59.52	132.87	42.26	
2025-01-18 00:46:00.74	133.49	42.04	
2025-01-18 00:46:01.96	134.09	41.82	
2025-01-18 00:46:03.17	134.68	41.60	
2025-01-18 00:46:04.39	135.27	41.38	
2025-01-18 00:46:05.61	135.85	41.15	
2025-01-18 00:46:06.83	136.42	40.93	
2025-01-18 00:46:08.04	136.97	40.70	
2025-01-18 00:46:09.26	137.53	40.47	
2025-01-18 00:46:10.48	138.08	40.24	
2025-01-18 00:46:11.70	138.62	40.01	
2025-01-18 00:46:12.92	139.15	39.78	
2025-01-18 00:46:14.13	139.67	39.55	
2025-01-18 00:46:15.35	140.18	39.31	
2025-01-18 00:46:16.57	140.69	39.08	
2025-01-18 00:46:17.79	141.20	38.84	
2025-01-18 00:46:19.01	141.69	38.60	
2025-01-18 00:46:20.22	142.17	38.37	
2025-01-18 00:46:21.44	142.65	38.13	
2025-01-18 00:46:22.66	143.13	37.89	
2025-01-18 00:46:23.88	143.59	37.65	
2025-01-18 00:46:25.09	144.05	37.41	
2025-01-18 00:46:26.31	144.50	37.18	
2025-01-18 00:46:27.53	144.95	36.94	
2025-01-18 00:46:28.75	145.39	36.70	
2025-01-18 00:46:29.97	145.82	36.46	
2025-01-18 00:46:31.18	146.24	36.22	
2025-01-18 00:46:32.40	146.67	35.98	
2025-01-18 00:46:33.62	147.08	35.74	
2025-01-18 00:46:34.84	147.49	35.51	
2025-01-18 00:46:36.06	147.89	35.27	
2025-01-18 00:46:37.27	148.28	35.03	
2025-01-18 00:46:38.49	148.68	34.79	
2025-01-18 00:46:39.71	149.06	34.56	
2025-01-18 00:46:40.93	149.44	34.32	
2025-01-18 00:46:42.15	149.81	34.09	
2025-01-18 00:46:43.36	150.18	33.85	
2025-01-18 00:46:44.58	150.54	33.62	
2025-01-18 00:46:45.80	150.90	33.39	
2025-01-18 00:46:47.02	151.25	33.15	
2025-01-18 00:46:48.23	151.60	32.92	
2025-01-18 00:46:49.45	151.94	32.69	
2025-01-18 00:46:50.67	152.28	32.46	
2025-01-18 00:46:51.89	152.61	32.23	
2025-01-18 00:46:53.11	152.94	32.00	
2025-01-18 00:46:54.32	153.26	31.78	
2025-01-18 00:46:55.54	153.58	31.55	
2025-01-18 00:46:56.76	153.90	31.32	
2025-01-18 00:46:57.98	154.21	31.10	
2025-01-18 00:46:59.20	154.52	30.87	
2025-01-18 00:47:00.41	154.82	30.65	
2025-01-18 00:47:01.63	155.11	30.43	
2025-01-18 00:47:02.85	155.41	30.21	
2025-01-18 00:47:04.07	155.70	29.99	
2025-01-18 00:47:05.28	155.98	29.77	
2025-01-18 00:47:06.50	156.26	29.55	
2025-01-18 00:47:07.72	156.54	29.34	
2025-01-18 00:47:08.94	156.82	29.12	
2025-01-18 00:47:10.16	157.09	28.91	
2025-01-18 00:47:11.37	157.35	28.69	
2025-01-18 00:47:12.59	157.61	28.48	
2025-01-18 00:47:13.81	157.87	28.27	
2025-01-18 00:47:15.03	158.13	28.06	
2025-01-18 00:47:16.25	158.38	27.85	
2025-01-18 00:47:17.46	158.63	27.64	
2025-01-18 00:47:18.68	158.88	27.44	
2025-01-18 00:47:19.90	159.12	27.23	
2025-01-18 00:47:21.12	159.36	27.03	
2025-01-18 00:47:22.34	159.60	26.82	
2025-01-18 00:47:23.55	159.83	26.62	
2025-01-18 00:47:24.77	160.06	26.42	
2025-01-18 00:47:25.99	160.29	26.22	
2025-01-18 00:47:27.21	160.52	26.02	
2025-01-18 00:47:28.42	160.74	25.83	
2025-01-18 00:47:29.64	160.96	25.63	
2025-01-18 00:47:30.86	161.17	25.43	
2025-01-18 00:47:32.08	161.39	25.24	
2025-01-18 00:47:33.30	161.60	25.05	
2025-01-18 00:47:34.51	161.81	24.86	
2025-01-18 00:47:35.73	162.01	24.66	
2025-01-18 00:47:36.95	162.22	24.47	
2025-01-18 00:47:38.17	162.42	24.29	
2025-01-18 00:47:39.39	162.62	24.10	
2025-01-18 00:47:40.60	162.81	23.91	
2025-01-18 00:47:41.82	163.01	23.73	
2025-01-18 00:47:43.04	163.20	23.54	
2025-01-18 00:47:44.26	163.39	23.36	
2025-01-18 00:47:45.47	163.58	23.18	
2025-01-18 00:47:46.69	163.76	23.00	
2025-01-18 00:47:47.91	163.94	22.82	
2025-01-18 00:47:49.13	164.13	22.64	
2025-01-18 00:47:50.35	164.31	22.46	
2025-01-18 00:47:51.56	164.48	22.29	
2025-01-18 00:47:52.78	164.66	22.11	
2025-01-18 00:47:54.00	164.83	21.94	
2025-01-18 00:47:55.22	165.00	21.76	
2025-01-18 00:47:56.44	165.17	21.59	
2025-01-18 00:47:57.65	165.33	21.42	
2025-01-18 00:47:58.87	165.50	21.25	
2025-01-18 00:48:00.09	165.66	21.08	
2025-01-18 00:48:01.31	165.82	20.91	
2025-01-18 00:48:02.52	165.98	20.75	
2025-01-18 00:48:03.74	166.14	20.58	
2025-01-18 00:48:04.96	166.30	20.41	
2025-01-18 00:48:06.18	166.45	20.25	
2025-01-18 00:48:07.40	166.61	20.09	
2025-01-18 00:48:08.61	166.76	19.93	
2025-01-18 00:48:09.83	166.91	19.76	
2025-01-18 00:48:11.05	167.05	19.60	
2025-01-18 00:48:12.27	167.20	19.44	
2025-01-18 00:48:13.49	167.35	19.29	
2025-01-18 00:48:14.70	167.49	19.13	
2025-01-18 00:48:15.92	167.63	18.97	
2025-01-18 00:48:17.14	167.77	18.82	
2025-01-18 00:48:18.36	167.91	18.66	
2025-01-18 00:48:19.58	168.05	18.51	
2025-01-18 00:48:20.79	168.18	18.35	
2025-01-18 00:48:22.01	168.32	18.20	
2025-01-18 00:48:23.23	168.45	18.05	
2025-01-18 00:48:24.45	168.58	17.90	
2025-01-18 00:48:25.66	168.71	17.75	
2025-01-18 00:48:26.88	168.84	17.60	
2025-01-18 00:48:28.10	168.97	17.46	
2025-01-18 00:48:29.32	169.10	17.31	
2025-01-18 00:48:30.54	169.22	17.16	
2025-01-18 00:48:31.75	169.35	17.02	
2025-01-18 00:48:32.97	169.47	16.87	
2025-01-18 00:48:34.19	169.59	16.73	
2025-01-18 00:48:35.41	169.71	16.59	
2025-01-18 00:48:36.63	169.83	16.44	
2025-01-18 00:48:37.84	169.95	16.30	
2025-01-18 00:48:39.06	170.07	16.16	
2025-01-18 00:48:40.28	170.18	16.02	
2025-01-18 00:48:41.50	170.30	15.89	
2025-01-18 00:48:42.72	170.41	15.75	
2025-01-18 00:48:43.93	170.53	15.61	
2025-01-18 00:48:45.15	170.64	15.47	
2025-01-18 00:48:46.37	170.75	15.34	
2025-01-18 00:48:47.59	170.86	15.20	
2025-01-18 00:48:48.80	170.97	15.07	
2025-01-18 00:48:50.02	171.08	14.94	
2025-01-18 00:48:51.24	171.18	14.80	
2025-01-18 00:48:52.46	171.29	14.67	
2025-01-18 00:48:53.68	171.39	14.54	
2025-01-18 00:48:54.89	171.50	14.41	
2025-01-18 00:48:56.11	171.60	14.28	
2025-01-18 00:48:57.33	171.70	14.15	
2025-01-18 00:48:58.55	171.80	14.02	
2025-01-18 00:48:59.77	171.90	13.89	
2025-01-18 00:49:00.98	172.00	13.77	
2025-01-18 00:49:02.20	172.10	13.64	
2025-01-18 00:49:03.42	172.20	13.51	
2025-01-18 00:49:04.64	172.30	13.39	
2025-01-18 00:49:05.85	172.39	13.26	
2025-01-18 00:49:07.07	172.49	13.14	
2025-01-18 00:49:08.29	172.58	13.01	
2025-01-18 00:49:09.51	172.68	12.89	
2025-01-18 00:49:10.73	172.77	12.77	
2025-01-18 00:49:11.94	172.86	12.65	
2025-01-18 00:49:13.16	172.95	12.53	
2025-01-18 00:49:14.38	173.04	12.41	
2025-01-18 00:49:15.60	173.13	12.29	
2025-01-18 00:49:16.82	173.22	12.17	
2025-01-18 00:49:18.03	173.31	12.05	
2025-01-18 00:49:19.25	173.40	11.93	
2025-01-18 00:49:20.47	173.49	11.81	
2025-01-18 00:49:21.69	173.57	11.70	
2025-01-18 00:49:22.91	173.66	11.58	
2025-01-18 00:49:24.12	173.74	11.47	
2025-01-18 00:49:25.34	173.83	11.35	
2025-01-18 00:49:26.56	173.91	11.24	
2025-01-18 00:49:27.78	173.99	11.12	
2025-01-18 00:49:28.99	174.07	11.01	
2025-01-18 00:49:30.21	174.16	10.90	
2025-01-18 00:49:31.43	174.24	10.78	
2025-01-18 00:49:32.65	174.32	10.67	
2025-01-18 00:49:33.87	174.40	10.56	
2025-01-18 00:49:35.08	174.48	10.45	
2025-01-18 00:49:36.30	174.55	10.34	
2025-01-18 00:49:37.52	174.63	10.23	
2025-01-18 00:49:38.74	174.71	10.12	
2025-01-18 00:49:39.96	174.79	10.01	
2025-01-18 00:49:41.17	174.86	9.90	
2025-01-18 00:49:42.39	174.94	9.79	
2025-01-18 00:49:43.61	175.01	9.69	
2025-01-18 00:49:44.83	175.09	9.58	
2025-01-18 00:49:46.04	175.16	9.47	
2025-01-18 00:49:47.26	175.23	9.37	
2025-01-18 00:49:48.48	175.31	9.26	
2025-01-18 00:49:49.70	175.38	9.16	
2025-01-18 00:49:50.92	175.45	9.05	
2025-01-18 00:49:52.13	175.52	8.95	
2025-01-18 00:49:53.35	175.59	8.84	
2025-01-18 00:49:54.57	175.66	8.74	
2025-01-18 00:49:55.79	175.73	8.64	
2025-01-18 00:49:57.01	175.80	8.53	
2025-01-18 00:49:58.22	175.87	8.43	
2025-01-18 00:49:59.44	175.94	8.33	
2025-01-18 00:50:00.66	176.01	8.23	
2025-01-18 00:50:01.88	176.07	8.13	
2025-01-18 00:50:03.10	176.14	8.03	
2025-01-18 00:50:04.31	176.21	7.93	
2025-01-18 00:50:05.53	176.27	7.83	
2025-01-18 00:50:06.75	176.34	7.73	
2025-01-18 00:50:07.97	176.40	7.63	
2025-01-18 00:50:09.18	176.47	7.53	
2025-01-18 00:50:10.40	176.53	7.44	
2025-01-18 00:50:11.62	176.59	7.34	
2025-01-18 00:50:12.84	176.66	7.24	
2025-01-18 00:50:14.06	176.72	7.14	
2025-01-18 00:50:15.27	176.78	7.05	
2025-01-18 00:50:16.49	176.84	6.95	
2025-01-18 00:50:17.71	176.91	6.86	
2025-01-18 00:50:18.93	176.97	6.76	
2025-01-18 00:50:20.15	177.03	6.67	
2025-01-18 00:50:21.36	177.09	6.57	
2025-01-18 00:50:22.58	177.15	6.48	
2025-01-18 00:50:23.80	177.21	6.38	
2025-01-18 00:50:25.02	177.27	6.29	
2025-01-18 00:50:26.23	177.32	6.20	
2025-01-18 00:50:27.45	177.38	6.11	
2025-01-18 00:50:28.67	177.44	6.01	
2025-01-18 00:50:29.89	177.50	5.92	
2025-01-18 00:50:31.11	177.56	5.83	
2025-01-18 00:50:32.32	177.61	5.74	
2025-01-18 00:50:33.54	177.67	5.65	
2025-01-18 00:50:34.76	177.72	5.56	
2025-01-18 00:50:35.98	177.78	5.47	
2025-01-18 00:50:37.20	177.84	5.38	
2025-01-18 00:50:38.41	177.89	5.29	
2025-01-18 00:50:39.63	177.95	5.20	
2025-01-18 00:50:40.85	178.00	5.11	
2025-01-18 00:50:42.07	178.05	5.02	
2025-01-18 00:50:43.29	178.11	4.93	
2025-01-18 00:50:44.50	178.16	4.84	
2025-01-18 00:50:45.72	178.21	4.75	
2025-01-18 00:50:46.94	178.27	4.67	
2025-01-18 00:50:48.16	178.32	4.58	
2025-01-18 00:50:49.37	178.37	4.49	
2025-01-18 00:50:50.59	178.42	4.41	
2025-01-18 00:50:51.81	178.48	4.32	
2025-01-18 00:50:53.03	178.53	4.23	
2025-01-18 00:50:54.25	178.58	4.15	
2025-01-18 00:50:55.46	178.63	4.06	

#Closed at: 2025-01-18 00:50:56