passes_logs/2025/01/18/SPB_Silybum_02/SPB_Silybum_02__20250118_090955_SUOMI_NPP_rec.log

#Pass ID: 20250118_090955_SUOMI NPP
#Satellite: SUOMI NPP
#Configuration: NPP
#Start time: 2025-01-18 09:09:55

#Version: 2.0.20230423
#Station: SPB_Silybum_02
#Location: 30.233357 lon 59.946436 lat
#TLE: 1 37849U 11061A   25017.80975554  .00000187  00000+0  10930-3 0  9999
#TLE: 2 37849  98.7450 318.7628 0001577  36.7528 323.3756 14.19539590685310

#Time	Az	El	Level	Level2	SNR	BER	Gain	Gain2
2025-01-18 09:09:57.15	127.29	4.12	
2025-01-18 09:09:58.57	127.23	4.21	
2025-01-18 09:10:00.00	127.17	4.31	
2025-01-18 09:10:01.42	127.10	4.40	
2025-01-18 09:10:02.84	127.04	4.50	
2025-01-18 09:10:04.26	126.97	4.59	
2025-01-18 09:10:05.68	126.90	4.69	
2025-01-18 09:10:07.10	126.84	4.78	
2025-01-18 09:10:08.53	126.77	4.88	
2025-01-18 09:10:09.95	126.70	4.98	
2025-01-18 09:10:11.37	126.63	5.07	
2025-01-18 09:10:12.79	126.57	5.17	
2025-01-18 09:10:14.21	126.50	5.27	
2025-01-18 09:10:15.63	126.43	5.36	
2025-01-18 09:10:17.06	126.36	5.46	
2025-01-18 09:10:18.48	126.29	5.56	
2025-01-18 09:10:19.90	126.22	5.66	
2025-01-18 09:10:21.32	126.14	5.76	
2025-01-18 09:10:22.74	126.07	5.86	
2025-01-18 09:10:24.17	126.00	5.96	
2025-01-18 09:10:25.59	125.93	6.06	
2025-01-18 09:10:27.01	125.85	6.16	
2025-01-18 09:10:28.43	125.78	6.26	
2025-01-18 09:10:29.85	125.70	6.36	
2025-01-18 09:10:31.27	125.63	6.46	
2025-01-18 09:10:32.70	125.55	6.56	
2025-01-18 09:10:34.12	125.48	6.67	
2025-01-18 09:10:35.54	125.40	6.77	
2025-01-18 09:10:36.96	125.32	6.87	
2025-01-18 09:10:38.38	125.25	6.98	
2025-01-18 09:10:39.80	125.17	7.08	
2025-01-18 09:10:41.23	125.09	7.18	
2025-01-18 09:10:42.65	125.01	7.29	
2025-01-18 09:10:44.07	124.93	7.39	
2025-01-18 09:10:45.49	124.85	7.50	
2025-01-18 09:10:46.91	124.76	7.60	
2025-01-18 09:10:48.34	124.68	7.71	
2025-01-18 09:10:49.76	124.60	7.82	
2025-01-18 09:10:51.18	124.52	7.92	
2025-01-18 09:10:52.60	124.43	8.03	
2025-01-18 09:10:54.02	124.35	8.14	
2025-01-18 09:10:55.44	124.26	8.24	
2025-01-18 09:10:56.87	124.18	8.35	
2025-01-18 09:10:58.29	124.09	8.46	
2025-01-18 09:10:59.71	124.00	8.57	
2025-01-18 09:11:01.13	123.91	8.68	
2025-01-18 09:11:02.55	123.82	8.79	
2025-01-18 09:11:03.97	123.74	8.90	
2025-01-18 09:11:05.40	123.64	9.01	
2025-01-18 09:11:06.82	123.55	9.12	
2025-01-18 09:11:08.24	123.46	9.23	
2025-01-18 09:11:09.66	123.37	9.35	
2025-01-18 09:11:11.08	123.28	9.46	
2025-01-18 09:11:12.52	123.18	9.57	
2025-01-18 09:11:13.94	123.09	9.69	
2025-01-18 09:11:15.36	122.99	9.80	
2025-01-18 09:11:16.79	122.89	9.92	
2025-01-18 09:11:18.21	122.80	10.03	
2025-01-18 09:11:19.63	122.70	10.14	
2025-01-18 09:11:21.05	122.60	10.26	
2025-01-18 09:11:22.47	122.50	10.38	
2025-01-18 09:11:23.89	122.40	10.49	
2025-01-18 09:11:25.32	122.30	10.61	
2025-01-18 09:11:26.74	122.20	10.73	
2025-01-18 09:11:28.16	122.10	10.85	
2025-01-18 09:11:29.58	121.99	10.96	
2025-01-18 09:11:31.00	121.89	11.08	
2025-01-18 09:11:32.43	121.78	11.20	
2025-01-18 09:11:33.85	121.68	11.32	
2025-01-18 09:11:35.27	121.57	11.44	
2025-01-18 09:11:36.69	121.46	11.56	
2025-01-18 09:11:38.11	121.35	11.68	
2025-01-18 09:11:39.53	121.24	11.81	
2025-01-18 09:11:40.96	121.13	11.93	
2025-01-18 09:11:42.38	121.02	12.05	
2025-01-18 09:11:43.80	120.91	12.17	
2025-01-18 09:11:45.22	120.79	12.30	
2025-01-18 09:11:46.64	120.68	12.42	
2025-01-18 09:11:48.06	120.56	12.55	
2025-01-18 09:11:49.49	120.45	12.67	
2025-01-18 09:11:50.91	120.33	12.80	
2025-01-18 09:11:52.33	120.21	12.93	
2025-01-18 09:11:53.75	120.09	13.05	
2025-01-18 09:11:55.17	119.97	13.18	
2025-01-18 09:11:56.60	119.85	13.31	
2025-01-18 09:11:58.02	119.72	13.44	
2025-01-18 09:11:59.44	119.60	13.57	
2025-01-18 09:12:00.86	119.47	13.70	
2025-01-18 09:12:02.28	119.35	13.83	
2025-01-18 09:12:03.70	119.22	13.96	
2025-01-18 09:12:05.13	119.09	14.09	
2025-01-18 09:12:06.55	118.96	14.22	
2025-01-18 09:12:07.97	118.83	14.35	
2025-01-18 09:12:09.39	118.70	14.49	
2025-01-18 09:12:10.81	118.56	14.62	
2025-01-18 09:12:12.23	118.43	14.75	
2025-01-18 09:12:13.66	118.29	14.89	
2025-01-18 09:12:15.08	118.15	15.02	
2025-01-18 09:12:16.50	118.01	15.16	
2025-01-18 09:12:17.92	117.87	15.30	
2025-01-18 09:12:19.34	117.73	15.43	
2025-01-18 09:12:20.77	117.59	15.57	
2025-01-18 09:12:22.19	117.45	15.71	
2025-01-18 09:12:23.61	117.30	15.85	
2025-01-18 09:12:25.03	117.15	15.99	
2025-01-18 09:12:26.45	117.01	16.13	
2025-01-18 09:12:27.87	116.86	16.27	
2025-01-18 09:12:29.30	116.70	16.41	
2025-01-18 09:12:30.72	116.55	16.55	
2025-01-18 09:12:32.14	116.40	16.70	
2025-01-18 09:12:33.56	116.24	16.84	
2025-01-18 09:12:34.98	116.09	16.98	
2025-01-18 09:12:36.40	115.93	17.13	
2025-01-18 09:12:37.83	115.77	17.27	
2025-01-18 09:12:39.25	115.61	17.42	
2025-01-18 09:12:40.67	115.44	17.57	
2025-01-18 09:12:42.09	115.28	17.71	
2025-01-18 09:12:43.51	115.11	17.86	
2025-01-18 09:12:44.94	114.94	18.01	
2025-01-18 09:12:46.36	114.77	18.16	
2025-01-18 09:12:47.78	114.60	18.31	
2025-01-18 09:12:49.20	114.43	18.46	
2025-01-18 09:12:50.62	114.25	18.61	
2025-01-18 09:12:52.04	114.08	18.76	
2025-01-18 09:12:53.47	113.90	18.91	
2025-01-18 09:12:54.89	113.72	19.06	
2025-01-18 09:12:56.31	113.53	19.22	
2025-01-18 09:12:57.73	113.35	19.37	
2025-01-18 09:12:59.15	113.16	19.53	
2025-01-18 09:13:00.57	112.97	19.68	
2025-01-18 09:13:02.00	112.78	19.84	
2025-01-18 09:13:03.42	112.59	19.99	
2025-01-18 09:13:04.84	112.40	20.15	
2025-01-18 09:13:06.26	112.20	20.31	
2025-01-18 09:13:07.68	112.00	20.47	
2025-01-18 09:13:09.10	111.80	20.63	
2025-01-18 09:13:10.53	111.60	20.79	
2025-01-18 09:13:11.95	111.40	20.95	
2025-01-18 09:13:13.37	111.19	21.11	
2025-01-18 09:13:14.79	110.98	21.27	
2025-01-18 09:13:16.21	110.77	21.43	
2025-01-18 09:13:17.64	110.56	21.60	
2025-01-18 09:13:19.06	110.34	21.76	
2025-01-18 09:13:20.48	110.12	21.92	
2025-01-18 09:13:21.90	109.90	22.09	
2025-01-18 09:13:23.32	109.68	22.25	
2025-01-18 09:13:24.74	109.45	22.42	
2025-01-18 09:13:26.17	109.23	22.59	
2025-01-18 09:13:27.59	109.00	22.75	
2025-01-18 09:13:29.01	108.76	22.92	
2025-01-18 09:13:30.43	108.53	23.09	
2025-01-18 09:13:31.85	108.29	23.26	
2025-01-18 09:13:33.27	108.05	23.43	
2025-01-18 09:13:34.70	107.81	23.60	
2025-01-18 09:13:36.12	107.56	23.77	
2025-01-18 09:13:37.54	107.31	23.94	
2025-01-18 09:13:38.96	107.06	24.11	
2025-01-18 09:13:40.38	106.81	24.28	
2025-01-18 09:13:41.81	106.55	24.46	
2025-01-18 09:13:43.23	106.29	24.63	
2025-01-18 09:13:44.65	106.03	24.80	
2025-01-18 09:13:46.07	105.76	24.98	
2025-01-18 09:13:47.49	105.49	25.15	
2025-01-18 09:13:48.91	105.22	25.33	
2025-01-18 09:13:50.34	104.95	25.50	
2025-01-18 09:13:51.76	104.67	25.68	
2025-01-18 09:13:53.18	104.39	25.85	
2025-01-18 09:13:54.60	104.10	26.03	
2025-01-18 09:13:56.02	103.82	26.21	
2025-01-18 09:13:57.44	103.53	26.38	
2025-01-18 09:13:58.87	103.23	26.56	
2025-01-18 09:14:00.29	102.93	26.74	
2025-01-18 09:14:01.71	102.63	26.92	
2025-01-18 09:14:03.13	102.33	27.10	
2025-01-18 09:14:04.55	102.02	27.28	
2025-01-18 09:14:05.98	101.71	27.46	
2025-01-18 09:14:07.40	101.40	27.64	
2025-01-18 09:14:08.82	101.08	27.82	
2025-01-18 09:14:10.24	100.76	28.00	
2025-01-18 09:14:11.66	100.43	28.18	
2025-01-18 09:14:13.08	100.10	28.35	
2025-01-18 09:14:14.51	99.77	28.54	
2025-01-18 09:14:15.93	99.43	28.72	
2025-01-18 09:14:17.35	99.09	28.90	
2025-01-18 09:14:18.77	98.75	29.08	
2025-01-18 09:14:20.19	98.40	29.26	
2025-01-18 09:14:21.61	98.05	29.44	
2025-01-18 09:14:23.04	97.69	29.62	
2025-01-18 09:14:24.46	97.33	29.80	
2025-01-18 09:14:25.88	96.97	29.98	
2025-01-18 09:14:27.30	96.60	30.16	
2025-01-18 09:14:28.72	96.23	30.34	
2025-01-18 09:14:30.15	95.85	30.52	
2025-01-18 09:14:31.57	95.47	30.69	
2025-01-18 09:14:32.99	95.08	30.87	
2025-01-18 09:14:34.41	94.70	31.05	
2025-01-18 09:14:35.83	94.30	31.23	
2025-01-18 09:14:37.25	93.91	31.41	
2025-01-18 09:14:38.68	93.50	31.58	
2025-01-18 09:14:40.10	93.09	31.76	
2025-01-18 09:14:41.52	92.68	31.93	
2025-01-18 09:14:42.94	92.27	32.11	
2025-01-18 09:14:44.36	91.85	32.28	
2025-01-18 09:14:45.78	91.42	32.46	
2025-01-18 09:14:47.21	90.99	32.63	
2025-01-18 09:14:47.91	90.78	32.71	
2025-01-18 09:14:49.33	90.34	32.89	
2025-01-18 09:14:50.75	89.90	33.06	
2025-01-18 09:14:52.17	89.46	33.22	
2025-01-18 09:14:53.59	89.01	33.39	
2025-01-18 09:14:55.02	88.55	33.56	
2025-01-18 09:14:56.44	88.09	33.73	
2025-01-18 09:14:57.86	87.63	33.89	
2025-01-18 09:14:59.28	87.16	34.05	
2025-01-18 09:15:00.70	86.69	34.22	
2025-01-18 09:15:02.12	86.21	34.38	
2025-01-18 09:15:03.54	85.72	34.54	
2025-01-18 09:15:04.96	85.24	34.69	
2025-01-18 09:15:06.38	84.74	34.85	
2025-01-18 09:15:07.80	84.25	35.00	
2025-01-18 09:15:09.22	83.75	35.16	
2025-01-18 09:15:10.65	83.24	35.31	
2025-01-18 09:15:12.07	82.73	35.46	
2025-01-18 09:15:13.49	82.21	35.60	
2025-01-18 09:15:14.91	81.69	35.75	
2025-01-18 09:15:16.33	81.16	35.89	
2025-01-18 09:15:17.75	80.64	36.03	
2025-01-18 09:15:19.17	80.10	36.17	
2025-01-18 09:15:20.59	79.56	36.31	
2025-01-18 09:15:22.01	79.02	36.44	
2025-01-18 09:15:23.43	78.47	36.57	
2025-01-18 09:15:24.85	77.92	36.70	
2025-01-18 09:15:26.28	77.36	36.83	
2025-01-18 09:15:27.70	76.80	36.95	
2025-01-18 09:15:29.12	76.24	37.07	
2025-01-18 09:15:30.54	75.67	37.19	
2025-01-18 09:15:31.96	75.09	37.30	
2025-01-18 09:15:33.38	74.52	37.42	
2025-01-18 09:15:34.80	73.94	37.53	
2025-01-18 09:15:36.22	73.35	37.63	
2025-01-18 09:15:37.64	72.76	37.74	
2025-01-18 09:15:39.06	72.17	37.84	
2025-01-18 09:15:40.48	71.57	37.93	
2025-01-18 09:15:41.91	70.97	38.03	
2025-01-18 09:15:43.33	70.37	38.12	
2025-01-18 09:15:44.76	69.76	38.21	
2025-01-18 09:15:46.18	69.15	38.29	
2025-01-18 09:15:47.60	68.54	38.37	
2025-01-18 09:15:49.02	67.92	38.44	
2025-01-18 09:15:50.44	67.30	38.52	
2025-01-18 09:15:51.86	66.68	38.59	
2025-01-18 09:15:53.28	66.06	38.65	
2025-01-18 09:15:54.70	65.43	38.71	
2025-01-18 09:15:56.12	64.81	38.77	
2025-01-18 09:15:57.55	64.17	38.83	
2025-01-18 09:15:58.97	63.54	38.88	
2025-01-18 09:16:00.39	62.90	38.92	
2025-01-18 09:16:01.81	62.27	38.96	
2025-01-18 09:16:03.23	61.63	39.00	
2025-01-18 09:16:04.65	60.99	39.04	
2025-01-18 09:16:06.07	60.35	39.07	
2025-01-18 09:16:07.49	59.71	39.09	
2025-01-18 09:16:08.91	59.07	39.11	
2025-01-18 09:16:10.33	58.43	39.13	
2025-01-18 09:16:11.75	57.78	39.15	
2025-01-18 09:16:13.18	57.14	39.16	
2025-01-18 09:16:14.60	56.49	39.16	
2025-01-18 09:16:16.02	55.85	39.16	
2025-01-18 09:16:17.44	55.20	39.16	
2025-01-18 09:16:18.86	54.56	39.15	
2025-01-18 09:16:20.28	53.92	39.14	
2025-01-18 09:16:21.70	53.27	39.13	
2025-01-18 09:16:23.12	52.63	39.11	
2025-01-18 09:16:24.54	51.99	39.08	
2025-01-18 09:16:25.96	51.35	39.06	
2025-01-18 09:16:27.38	50.71	39.03	
2025-01-18 09:16:28.81	50.07	38.99	
2025-01-18 09:16:30.23	49.43	38.95	
2025-01-18 09:16:31.65	48.80	38.91	
2025-01-18 09:16:33.07	48.16	38.86	
2025-01-18 09:16:34.49	47.53	38.81	
2025-01-18 09:16:35.91	46.90	38.75	
2025-01-18 09:16:37.33	46.28	38.70	
2025-01-18 09:16:38.75	45.65	38.63	
2025-01-18 09:16:40.17	45.03	38.57	
2025-01-18 09:16:41.59	44.41	38.50	
2025-01-18 09:16:43.01	43.80	38.42	
2025-01-18 09:16:44.44	43.18	38.35	
2025-01-18 09:16:45.86	42.57	38.27	
2025-01-18 09:16:47.28	41.96	38.18	
2025-01-18 09:16:48.70	41.36	38.09	
2025-01-18 09:16:50.12	40.76	38.00	
2025-01-18 09:16:51.54	40.16	37.91	
2025-01-18 09:16:52.96	39.56	37.81	
2025-01-18 09:16:54.38	38.97	37.71	
2025-01-18 09:16:55.80	38.39	37.61	
2025-01-18 09:16:57.22	37.81	37.50	
2025-01-18 09:16:58.64	37.23	37.39	
2025-01-18 09:17:00.07	36.65	37.27	
2025-01-18 09:17:01.49	36.08	37.16	
2025-01-18 09:17:02.91	35.51	37.04	
2025-01-18 09:17:04.33	34.95	36.92	
2025-01-18 09:17:05.75	34.39	36.79	
2025-01-18 09:17:07.17	33.84	36.67	
2025-01-18 09:17:08.59	33.29	36.54	
2025-01-18 09:17:10.01	32.74	36.41	
2025-01-18 09:17:11.43	32.20	36.27	
2025-01-18 09:17:12.85	31.67	36.14	
2025-01-18 09:17:14.27	31.14	36.00	
2025-01-18 09:17:15.70	30.61	35.86	
2025-01-18 09:17:17.12	30.08	35.71	
2025-01-18 09:17:18.54	29.57	35.57	
2025-01-18 09:17:19.96	29.05	35.42	
2025-01-18 09:17:21.38	28.54	35.27	
2025-01-18 09:17:22.80	28.04	35.12	
2025-01-18 09:17:24.22	27.54	34.97	
2025-01-18 09:17:25.64	27.05	34.82	
2025-01-18 09:17:27.06	26.56	34.66	
2025-01-18 09:17:28.48	26.07	34.50	
2025-01-18 09:17:29.90	25.59	34.34	
2025-01-18 09:17:31.33	25.12	34.18	
2025-01-18 09:17:32.75	24.65	34.02	
2025-01-18 09:17:34.17	24.18	33.86	
2025-01-18 09:17:35.59	23.72	33.69	
2025-01-18 09:17:37.01	23.26	33.53	
2025-01-18 09:17:38.43	22.81	33.36	
2025-01-18 09:17:39.85	22.36	33.19	
2025-01-18 09:17:41.27	21.92	33.03	
2025-01-18 09:17:42.69	21.48	32.86	
2025-01-18 09:17:44.11	21.05	32.68	
2025-01-18 09:17:45.53	20.62	32.51	
2025-01-18 09:17:46.96	20.20	32.34	
2025-01-18 09:17:48.38	19.78	32.17	
2025-01-18 09:17:49.80	19.36	31.99	
2025-01-18 09:17:51.22	18.95	31.82	
2025-01-18 09:17:52.64	18.55	31.64	
2025-01-18 09:17:54.06	18.14	31.47	
2025-01-18 09:17:55.48	17.75	31.29	
2025-01-18 09:17:56.90	17.35	31.12	
2025-01-18 09:17:58.32	16.97	30.94	
2025-01-18 09:17:59.74	16.58	30.76	
2025-01-18 09:18:01.16	16.20	30.58	
2025-01-18 09:18:02.59	15.82	30.40	
2025-01-18 09:18:04.01	15.45	30.23	
2025-01-18 09:18:05.43	15.08	30.05	
2025-01-18 09:18:06.85	14.72	29.87	
2025-01-18 09:18:08.27	14.36	29.69	
2025-01-18 09:18:09.69	14.01	29.51	
2025-01-18 09:18:11.11	13.66	29.33	
2025-01-18 09:18:12.53	13.31	29.15	
2025-01-18 09:18:13.95	12.97	28.97	
2025-01-18 09:18:15.37	12.63	28.79	
2025-01-18 09:18:16.79	12.29	28.61	
2025-01-18 09:18:18.22	11.96	28.43	
2025-01-18 09:18:19.64	11.63	28.25	
2025-01-18 09:18:21.06	11.30	28.08	
2025-01-18 09:18:22.48	10.98	27.90	
2025-01-18 09:18:23.90	10.67	27.72	
2025-01-18 09:18:25.32	10.35	27.54	
2025-01-18 09:18:26.74	10.04	27.36	
2025-01-18 09:18:28.16	9.74	27.18	
2025-01-18 09:18:29.58	9.43	27.01	
2025-01-18 09:18:31.00	9.13	26.83	
2025-01-18 09:18:32.42	8.84	26.65	
2025-01-18 09:18:33.85	8.54	26.47	
2025-01-18 09:18:35.27	8.25	26.30	
2025-01-18 09:18:36.69	7.97	26.12	
2025-01-18 09:18:38.11	7.68	25.94	
2025-01-18 09:18:39.53	7.40	25.77	
2025-01-18 09:18:40.95	7.13	25.59	
2025-01-18 09:18:42.37	6.85	25.42	
2025-01-18 09:18:43.79	6.58	25.24	
2025-01-18 09:18:45.21	6.31	25.07	
2025-01-18 09:18:46.63	6.05	24.90	
2025-01-18 09:18:48.05	5.79	24.73	
2025-01-18 09:18:49.48	5.53	24.55	
2025-01-18 09:18:50.90	5.27	24.38	
2025-01-18 09:18:52.32	5.02	24.21	
2025-01-18 09:18:53.74	4.77	24.04	
2025-01-18 09:18:55.16	4.52	23.87	
2025-01-18 09:18:56.58	4.27	23.70	
2025-01-18 09:18:58.00	4.03	23.53	
2025-01-18 09:18:59.42	3.79	23.36	
2025-01-18 09:19:00.84	3.56	23.19	
2025-01-18 09:19:02.26	3.32	23.02	
2025-01-18 09:19:03.68	3.09	22.86	
2025-01-18 09:19:05.11	2.86	22.69	
2025-01-18 09:19:06.53	2.63	22.52	
2025-01-18 09:19:07.95	2.41	22.36	
2025-01-18 09:19:09.37	2.19	22.19	
2025-01-18 09:19:10.80	1.96	22.03	
2025-01-18 09:19:12.22	1.75	21.87	
2025-01-18 09:19:13.64	1.53	21.70	
2025-01-18 09:19:15.06	1.32	21.54	
2025-01-18 09:19:16.48	1.11	21.38	
2025-01-18 09:19:17.92	0.90	21.22	
2025-01-18 09:19:19.34	0.69	21.06	
2025-01-18 09:19:20.76	0.49	20.90	
2025-01-18 09:19:22.18	0.29	20.74	
2025-01-18 09:19:23.60	0.09	20.58	
2025-01-18 09:19:25.03	359.89	20.42	
2025-01-18 09:19:26.45	359.69	20.26	
2025-01-18 09:19:27.87	359.50	20.11	
2025-01-18 09:19:29.29	359.31	19.95	
2025-01-18 09:19:30.71	359.12	19.79	
2025-01-18 09:19:32.13	358.93	19.64	
2025-01-18 09:19:33.55	358.75	19.49	
2025-01-18 09:19:34.97	358.57	19.33	
2025-01-18 09:19:36.39	358.38	19.18	
2025-01-18 09:19:37.81	358.20	19.03	
2025-01-18 09:19:39.23	358.03	18.88	
2025-01-18 09:19:40.66	357.85	18.72	
2025-01-18 09:19:42.08	357.67	18.57	
2025-01-18 09:19:43.50	357.50	18.42	
2025-01-18 09:19:44.92	357.33	18.28	
2025-01-18 09:19:46.34	357.16	18.13	
2025-01-18 09:19:47.76	357.00	17.98	
2025-01-18 09:19:49.18	356.83	17.83	
2025-01-18 09:19:50.60	356.67	17.69	
2025-01-18 09:19:52.02	356.50	17.54	
2025-01-18 09:19:53.44	356.34	17.40	
2025-01-18 09:19:54.86	356.18	17.25	
2025-01-18 09:19:56.28	356.03	17.11	
2025-01-18 09:19:57.71	355.87	16.96	
2025-01-18 09:19:59.13	355.71	16.82	
2025-01-18 09:20:00.55	355.56	16.68	
2025-01-18 09:20:01.97	355.41	16.54	
2025-01-18 09:20:03.39	355.26	16.40	
2025-01-18 09:20:04.81	355.11	16.26	
2025-01-18 09:20:06.23	354.96	16.12	
2025-01-18 09:20:07.65	354.82	15.98	
2025-01-18 09:20:09.07	354.67	15.84	
2025-01-18 09:20:10.49	354.53	15.70	
2025-01-18 09:20:11.91	354.39	15.56	
2025-01-18 09:20:13.34	354.25	15.43	
2025-01-18 09:20:14.76	354.11	15.29	
2025-01-18 09:20:16.18	353.97	15.15	
2025-01-18 09:20:17.60	353.83	15.02	
2025-01-18 09:20:19.02	353.70	14.89	
2025-01-18 09:20:20.44	353.56	14.75	
2025-01-18 09:20:21.86	353.43	14.62	
2025-01-18 09:20:23.28	353.30	14.49	
2025-01-18 09:20:24.70	353.17	14.35	
2025-01-18 09:20:26.12	353.04	14.22	
2025-01-18 09:20:27.54	352.91	14.09	
2025-01-18 09:20:28.97	352.79	13.96	
2025-01-18 09:20:30.39	352.66	13.83	
2025-01-18 09:20:31.81	352.54	13.70	
2025-01-18 09:20:33.23	352.41	13.57	
2025-01-18 09:20:34.65	352.29	13.44	
2025-01-18 09:20:36.07	352.17	13.32	
2025-01-18 09:20:37.49	352.05	13.19	
2025-01-18 09:20:38.91	351.93	13.06	
2025-01-18 09:20:40.33	351.81	12.94	
2025-01-18 09:20:41.75	351.70	12.81	
2025-01-18 09:20:43.17	351.58	12.69	
2025-01-18 09:20:44.60	351.46	12.56	
2025-01-18 09:20:46.02	351.35	12.44	
2025-01-18 09:20:47.44	351.24	12.31	
2025-01-18 09:20:48.86	351.13	12.19	
2025-01-18 09:20:50.28	351.01	12.07	
2025-01-18 09:20:51.70	350.90	11.95	
2025-01-18 09:20:53.12	350.80	11.82	
2025-01-18 09:20:54.54	350.69	11.70	
2025-01-18 09:20:55.96	350.58	11.58	
2025-01-18 09:20:57.38	350.48	11.46	
2025-01-18 09:20:58.80	350.37	11.34	
2025-01-18 09:21:00.23	350.26	11.22	
2025-01-18 09:21:01.65	350.16	11.11	
2025-01-18 09:21:03.07	350.06	10.99	
2025-01-18 09:21:04.49	349.96	10.87	
2025-01-18 09:21:05.91	349.86	10.75	
2025-01-18 09:21:07.33	349.76	10.64	
2025-01-18 09:21:08.75	349.66	10.52	
2025-01-18 09:21:10.17	349.56	10.40	
2025-01-18 09:21:11.59	349.46	10.29	
2025-01-18 09:21:13.01	349.36	10.17	
2025-01-18 09:21:14.44	349.27	10.06	
2025-01-18 09:21:15.86	349.17	9.95	
2025-01-18 09:21:17.28	349.08	9.83	
2025-01-18 09:21:18.70	348.99	9.72	
2025-01-18 09:21:20.12	348.89	9.61	
2025-01-18 09:21:21.54	348.80	9.49	
2025-01-18 09:21:22.96	348.71	9.38	
2025-01-18 09:21:24.38	348.62	9.27	
2025-01-18 09:21:25.80	348.53	9.16	
2025-01-18 09:21:27.22	348.44	9.05	
2025-01-18 09:21:28.64	348.35	8.94	
2025-01-18 09:21:30.07	348.26	8.83	
2025-01-18 09:21:31.49	348.18	8.72	
2025-01-18 09:21:32.91	348.09	8.61	
2025-01-18 09:21:34.33	348.00	8.50	
2025-01-18 09:21:35.75	347.92	8.40	
2025-01-18 09:21:37.17	347.84	8.29	
2025-01-18 09:21:38.59	347.75	8.18	
2025-01-18 09:21:40.01	347.67	8.07	
2025-01-18 09:21:41.43	347.59	7.97	
2025-01-18 09:21:42.85	347.50	7.86	
2025-01-18 09:21:44.27	347.42	7.76	
2025-01-18 09:21:45.70	347.34	7.65	
2025-01-18 09:21:47.12	347.26	7.54	
2025-01-18 09:21:48.54	347.18	7.44	
2025-01-18 09:21:49.96	347.11	7.34	
2025-01-18 09:21:51.38	347.03	7.23	
2025-01-18 09:21:52.80	346.95	7.13	
2025-01-18 09:21:54.22	346.87	7.03	
2025-01-18 09:21:55.64	346.80	6.92	
2025-01-18 09:21:57.06	346.72	6.82	
2025-01-18 09:21:58.48	346.65	6.72	
2025-01-18 09:21:59.90	346.57	6.62	
2025-01-18 09:22:01.33	346.50	6.52	
2025-01-18 09:22:02.75	346.42	6.41	
2025-01-18 09:22:04.17	346.35	6.31	
2025-01-18 09:22:05.59	346.28	6.21	
2025-01-18 09:22:07.01	346.21	6.11	
2025-01-18 09:22:08.43	346.14	6.01	
2025-01-18 09:22:09.85	346.07	5.92	
2025-01-18 09:22:11.27	345.99	5.82	
2025-01-18 09:22:12.69	345.93	5.72	
2025-01-18 09:22:14.11	345.86	5.62	
2025-01-18 09:22:15.53	345.79	5.52	
2025-01-18 09:22:16.96	345.72	5.42	
2025-01-18 09:22:18.38	345.65	5.33	
2025-01-18 09:22:19.80	345.58	5.23	
2025-01-18 09:22:21.22	345.52	5.13	
2025-01-18 09:22:22.64	345.45	5.04	
2025-01-18 09:22:24.06	345.39	4.94	
2025-01-18 09:22:25.48	345.32	4.84	
2025-01-18 09:22:26.90	345.26	4.75	
2025-01-18 09:22:28.32	345.19	4.65	
2025-01-18 09:22:29.74	345.13	4.56	
2025-01-18 09:22:31.16	345.06	4.46	
2025-01-18 09:22:32.59	345.00	4.37	
2025-01-18 09:22:34.01	344.94	4.28	
2025-01-18 09:22:35.43	344.88	4.18	
2025-01-18 09:22:36.85	344.81	4.09	

#Closed at: 2025-01-18 09:22:38