passes_logs/2025/01/18/SPB_Silybum_02/SPB_Silybum_02__20250118_162127_TERRA_rec.log

#Pass ID: 20250118_162127_TERRA
#Satellite: TERRA
#Configuration: TERRA
#Start time: 2025-01-18 16:21:27

#Version: 2.0.20230423
#Station: SPB_Silybum_02
#Location: 30.233357 lon 59.946436 lat
#TLE: 1 25994U 99068A   25017.80257355  .00000903  00000+0  19577-3 0  9994
#TLE: 2 25994  98.0211  80.7437 0003372  66.8373  47.3878 14.60400955334482

#Time	Az	El	Level	Level2	SNR	BER	Gain	Gain2
2025-01-18 16:21:29.59	94.01	4.13	
2025-01-18 16:21:30.61	93.91	4.19	
2025-01-18 16:21:31.62	93.80	4.25	
2025-01-18 16:21:32.64	93.69	4.30	
2025-01-18 16:21:33.65	93.59	4.36	
2025-01-18 16:21:34.67	93.48	4.42	
2025-01-18 16:21:35.68	93.37	4.48	
2025-01-18 16:21:36.70	93.26	4.53	
2025-01-18 16:21:37.71	93.15	4.59	
2025-01-18 16:21:38.73	93.04	4.65	
2025-01-18 16:21:39.74	92.93	4.70	
2025-01-18 16:21:40.76	92.82	4.76	
2025-01-18 16:21:41.78	92.71	4.82	
2025-01-18 16:21:42.79	92.60	4.88	
2025-01-18 16:21:43.81	92.48	4.94	
2025-01-18 16:21:44.82	92.37	4.99	
2025-01-18 16:21:45.84	92.26	5.05	
2025-01-18 16:21:46.85	92.14	5.11	
2025-01-18 16:21:47.87	92.03	5.17	
2025-01-18 16:21:48.88	91.91	5.22	
2025-01-18 16:21:49.90	91.80	5.28	
2025-01-18 16:21:50.91	91.68	5.34	
2025-01-18 16:21:51.93	91.57	5.40	
2025-01-18 16:21:52.95	91.45	5.46	
2025-01-18 16:21:53.96	91.33	5.51	
2025-01-18 16:21:54.98	91.21	5.57	
2025-01-18 16:21:55.99	91.10	5.63	
2025-01-18 16:21:57.01	90.98	5.69	
2025-01-18 16:21:58.02	90.86	5.75	
2025-01-18 16:21:59.04	90.74	5.80	
2025-01-18 16:22:00.05	90.62	5.86	
2025-01-18 16:22:01.07	90.49	5.92	
2025-01-18 16:22:02.08	90.37	5.98	
2025-01-18 16:22:03.10	90.25	6.04	
2025-01-18 16:22:04.11	90.13	6.09	
2025-01-18 16:22:05.13	90.00	6.15	
2025-01-18 16:22:06.15	89.88	6.21	
2025-01-18 16:22:07.16	89.76	6.27	
2025-01-18 16:22:08.18	89.63	6.33	
2025-01-18 16:22:09.19	89.51	6.39	
2025-01-18 16:22:10.21	89.38	6.45	
2025-01-18 16:22:11.22	89.25	6.50	
2025-01-18 16:22:12.24	89.12	6.56	
2025-01-18 16:22:13.25	89.00	6.62	
2025-01-18 16:22:14.27	88.87	6.68	
2025-01-18 16:22:15.28	88.74	6.74	
2025-01-18 16:22:16.30	88.61	6.80	
2025-01-18 16:22:17.32	88.48	6.86	
2025-01-18 16:22:18.33	88.35	6.91	
2025-01-18 16:22:19.35	88.22	6.97	
2025-01-18 16:22:20.36	88.09	7.03	
2025-01-18 16:22:21.38	87.95	7.09	
2025-01-18 16:22:22.39	87.82	7.15	
2025-01-18 16:22:23.41	87.69	7.21	
2025-01-18 16:22:24.42	87.55	7.27	
2025-01-18 16:22:25.44	87.42	7.32	
2025-01-18 16:22:26.45	87.28	7.38	
2025-01-18 16:22:27.47	87.15	7.44	
2025-01-18 16:22:28.49	87.01	7.50	
2025-01-18 16:22:29.50	86.87	7.56	
2025-01-18 16:22:30.52	86.73	7.62	
2025-01-18 16:22:31.53	86.60	7.68	
2025-01-18 16:22:32.55	86.46	7.74	
2025-01-18 16:22:33.56	86.32	7.79	
2025-01-18 16:22:34.58	86.18	7.85	
2025-01-18 16:22:35.59	86.04	7.91	
2025-01-18 16:22:36.61	85.89	7.97	
2025-01-18 16:22:37.62	85.75	8.03	
2025-01-18 16:22:38.64	85.61	8.09	
2025-01-18 16:22:39.65	85.47	8.15	
2025-01-18 16:22:40.67	85.32	8.21	
2025-01-18 16:22:41.69	85.18	8.26	
2025-01-18 16:22:42.70	85.03	8.32	
2025-01-18 16:22:43.72	84.88	8.38	
2025-01-18 16:22:44.73	84.74	8.44	
2025-01-18 16:22:45.75	84.59	8.50	
2025-01-18 16:22:46.76	84.44	8.56	
2025-01-18 16:22:47.78	84.29	8.62	
2025-01-18 16:22:48.79	84.15	8.67	
2025-01-18 16:22:49.81	84.00	8.73	
2025-01-18 16:22:50.82	83.85	8.79	
2025-01-18 16:22:51.84	83.69	8.85	
2025-01-18 16:22:52.86	83.54	8.91	
2025-01-18 16:22:53.87	83.39	8.97	
2025-01-18 16:22:54.89	83.23	9.03	
2025-01-18 16:22:55.90	83.08	9.08	
2025-01-18 16:22:56.92	82.93	9.14	
2025-01-18 16:22:57.93	82.77	9.20	
2025-01-18 16:22:58.95	82.62	9.26	
2025-01-18 16:22:59.96	82.46	9.32	
2025-01-18 16:23:00.98	82.30	9.38	
2025-01-18 16:23:01.99	82.14	9.43	
2025-01-18 16:23:03.01	81.98	9.49	
2025-01-18 16:23:04.03	81.82	9.55	
2025-01-18 16:23:05.04	81.66	9.61	
2025-01-18 16:23:06.06	81.50	9.67	
2025-01-18 16:23:07.07	81.34	9.72	
2025-01-18 16:23:08.09	81.18	9.78	
2025-01-18 16:23:09.10	81.02	9.84	
2025-01-18 16:23:10.12	80.85	9.90	
2025-01-18 16:23:11.13	80.69	9.95	
2025-01-18 16:23:12.15	80.52	10.01	
2025-01-18 16:23:13.16	80.36	10.07	
2025-01-18 16:23:14.18	80.19	10.13	
2025-01-18 16:23:15.19	80.03	10.18	
2025-01-18 16:23:16.21	79.86	10.24	
2025-01-18 16:23:17.23	79.69	10.30	
2025-01-18 16:23:18.24	79.52	10.36	
2025-01-18 16:23:19.26	79.35	10.41	
2025-01-18 16:23:20.27	79.18	10.47	
2025-01-18 16:23:21.29	79.01	10.53	
2025-01-18 16:23:22.30	78.83	10.58	
2025-01-18 16:23:23.32	78.66	10.64	
2025-01-18 16:23:24.33	78.49	10.70	
2025-01-18 16:23:25.35	78.31	10.75	
2025-01-18 16:23:26.36	78.14	10.81	
2025-01-18 16:23:27.38	77.96	10.87	
2025-01-18 16:23:28.40	77.78	10.92	
2025-01-18 16:23:29.41	77.61	10.98	
2025-01-18 16:23:30.43	77.43	11.03	
2025-01-18 16:23:31.44	77.25	11.09	
2025-01-18 16:23:32.46	77.07	11.15	
2025-01-18 16:23:33.47	76.89	11.20	
2025-01-18 16:23:34.49	76.71	11.26	
2025-01-18 16:23:35.50	76.53	11.31	
2025-01-18 16:23:36.52	76.34	11.37	
2025-01-18 16:23:37.53	76.16	11.42	
2025-01-18 16:23:38.55	75.98	11.48	
2025-01-18 16:23:39.56	75.79	11.53	
2025-01-18 16:23:40.58	75.61	11.59	
2025-01-18 16:23:41.60	75.42	11.64	
2025-01-18 16:23:42.61	75.23	11.70	
2025-01-18 16:23:43.63	75.04	11.75	
2025-01-18 16:23:44.64	74.86	11.81	
2025-01-18 16:23:45.66	74.67	11.86	
2025-01-18 16:23:46.67	74.48	11.91	
2025-01-18 16:23:47.69	74.29	11.97	
2025-01-18 16:23:48.70	74.10	12.02	
2025-01-18 16:23:49.72	73.90	12.07	
2025-01-18 16:23:50.73	73.71	12.13	
2025-01-18 16:23:51.75	73.52	12.18	
2025-01-18 16:23:52.77	73.32	12.23	
2025-01-18 16:23:53.78	73.13	12.29	
2025-01-18 16:23:54.80	72.93	12.34	
2025-01-18 16:23:55.81	72.73	12.39	
2025-01-18 16:23:56.83	72.53	12.44	
2025-01-18 16:23:57.84	72.34	12.49	
2025-01-18 16:23:58.86	72.14	12.55	
2025-01-18 16:23:59.87	71.94	12.60	
2025-01-18 16:24:00.89	71.74	12.65	
2025-01-18 16:24:01.90	71.54	12.70	
2025-01-18 16:24:02.92	71.33	12.75	
2025-01-18 16:24:03.94	71.13	12.80	
2025-01-18 16:24:04.95	70.93	12.85	
2025-01-18 16:24:05.97	70.72	12.90	
2025-01-18 16:24:06.98	70.52	12.95	
2025-01-18 16:24:08.00	70.31	13.00	
2025-01-18 16:24:09.01	70.10	13.05	
2025-01-18 16:24:10.03	69.90	13.10	
2025-01-18 16:24:11.04	69.69	13.15	
2025-01-18 16:24:12.06	69.48	13.20	
2025-01-18 16:24:13.07	69.27	13.25	
2025-01-18 16:24:14.09	69.06	13.29	
2025-01-18 16:24:15.10	68.85	13.34	
2025-01-18 16:24:16.12	68.64	13.39	
2025-01-18 16:24:17.14	68.42	13.44	
2025-01-18 16:24:18.15	68.21	13.48	
2025-01-18 16:24:19.17	68.00	13.53	
2025-01-18 16:24:20.18	67.78	13.58	
2025-01-18 16:24:21.20	67.57	13.62	
2025-01-18 16:24:22.21	67.35	13.67	
2025-01-18 16:24:23.23	67.13	13.72	
2025-01-18 16:24:24.24	66.92	13.76	
2025-01-18 16:24:25.26	66.70	13.81	
2025-01-18 16:24:26.27	66.48	13.85	
2025-01-18 16:24:27.29	66.26	13.90	
2025-01-18 16:24:28.31	66.04	13.94	
2025-01-18 16:24:29.32	65.82	13.99	
2025-01-18 16:24:30.34	65.59	14.03	
2025-01-18 16:24:31.35	65.37	14.07	
2025-01-18 16:24:32.37	65.15	14.12	
2025-01-18 16:24:33.38	64.92	14.16	
2025-01-18 16:24:34.40	64.70	14.20	
2025-01-18 16:24:35.41	64.47	14.24	
2025-01-18 16:24:36.43	64.25	14.28	
2025-01-18 16:24:37.44	64.02	14.32	
2025-01-18 16:24:38.46	63.79	14.37	
2025-01-18 16:24:39.48	63.56	14.41	
2025-01-18 16:24:40.49	63.34	14.45	
2025-01-18 16:24:41.51	63.11	14.49	
2025-01-18 16:24:42.52	62.88	14.53	
2025-01-18 16:24:43.54	62.65	14.57	
2025-01-18 16:24:44.55	62.42	14.60	
2025-01-18 16:24:45.57	62.18	14.64	
2025-01-18 16:24:46.58	61.95	14.68	
2025-01-18 16:24:47.60	61.72	14.72	
2025-01-18 16:24:48.61	61.48	14.76	
2025-01-18 16:24:49.63	61.25	14.79	
2025-01-18 16:24:50.64	61.01	14.83	
2025-01-18 16:24:51.66	60.78	14.87	
2025-01-18 16:24:52.68	60.54	14.90	
2025-01-18 16:24:53.69	60.30	14.94	
2025-01-18 16:24:54.71	60.07	14.97	
2025-01-18 16:24:55.72	59.83	15.01	
2025-01-18 16:24:56.74	59.59	15.04	
2025-01-18 16:24:57.75	59.35	15.07	
2025-01-18 16:24:58.77	59.11	15.11	
2025-01-18 16:24:59.78	58.87	15.14	
2025-01-18 16:25:00.80	58.63	15.17	
2025-01-18 16:25:01.81	58.39	15.20	
2025-01-18 16:25:02.83	58.14	15.23	
2025-01-18 16:25:03.85	57.90	15.27	
2025-01-18 16:25:04.86	57.66	15.30	
2025-01-18 16:25:05.88	57.41	15.33	
2025-01-18 16:25:06.89	57.17	15.36	
2025-01-18 16:25:07.91	56.93	15.39	
2025-01-18 16:25:08.93	56.68	15.41	
2025-01-18 16:25:09.94	56.43	15.44	
2025-01-18 16:25:10.96	56.19	15.47	
2025-01-18 16:25:11.97	55.94	15.50	
2025-01-18 16:25:12.99	55.69	15.52	
2025-01-18 16:25:14.00	55.45	15.55	
2025-01-18 16:25:15.02	55.20	15.58	
2025-01-18 16:25:16.03	54.95	15.60	
2025-01-18 16:25:17.05	54.70	15.63	
2025-01-18 16:25:18.07	54.45	15.65	
2025-01-18 16:25:19.08	54.20	15.67	
2025-01-18 16:25:20.10	53.95	15.70	
2025-01-18 16:25:21.11	53.70	15.72	
2025-01-18 16:25:22.13	53.45	15.74	
2025-01-18 16:25:23.14	53.20	15.76	
2025-01-18 16:25:24.16	52.94	15.79	
2025-01-18 16:25:25.17	52.69	15.81	
2025-01-18 16:25:26.19	52.44	15.83	
2025-01-18 16:25:27.20	52.19	15.85	
2025-01-18 16:25:28.22	51.93	15.87	
2025-01-18 16:25:29.24	51.68	15.89	
2025-01-18 16:25:30.25	51.43	15.90	
2025-01-18 16:25:31.27	51.17	15.92	
2025-01-18 16:25:32.28	50.92	15.94	
2025-01-18 16:25:33.30	50.66	15.96	
2025-01-18 16:25:34.31	50.41	15.97	
2025-01-18 16:25:35.33	50.15	15.99	
2025-01-18 16:25:36.34	49.90	16.00	
2025-01-18 16:25:37.36	49.64	16.02	
2025-01-18 16:25:38.37	49.38	16.03	
2025-01-18 16:25:39.39	49.13	16.04	
2025-01-18 16:25:40.41	48.87	16.06	
2025-01-18 16:25:41.42	48.61	16.07	
2025-01-18 16:25:42.44	48.35	16.08	
2025-01-18 16:25:43.45	48.10	16.09	
2025-01-18 16:25:44.47	47.84	16.10	
2025-01-18 16:25:45.48	47.58	16.11	
2025-01-18 16:25:46.50	47.32	16.12	
2025-01-18 16:25:47.51	47.07	16.13	
2025-01-18 16:25:48.53	46.81	16.14	
2025-01-18 16:25:49.54	46.55	16.15	
2025-01-18 16:25:50.56	46.29	16.16	
2025-01-18 16:25:51.57	46.03	16.16	
2025-01-18 16:25:52.59	45.77	16.17	
2025-01-18 16:25:53.61	45.51	16.17	
2025-01-18 16:25:54.62	45.25	16.18	
2025-01-18 16:25:55.64	44.99	16.18	
2025-01-18 16:25:56.65	44.74	16.19	
2025-01-18 16:25:57.67	44.48	16.19	
2025-01-18 16:25:58.68	44.22	16.19	
2025-01-18 16:25:59.70	43.96	16.20	
2025-01-18 16:26:00.71	43.70	16.20	
2025-01-18 16:26:01.73	43.44	16.20	
2025-01-18 16:26:02.74	43.18	16.20	
2025-01-18 16:26:03.76	42.92	16.20	
2025-01-18 16:26:04.78	42.66	16.20	
2025-01-18 16:26:05.79	42.40	16.20	
2025-01-18 16:26:06.81	42.14	16.20	
2025-01-18 16:26:07.82	41.88	16.19	
2025-01-18 16:26:08.84	41.62	16.19	
2025-01-18 16:26:09.85	41.36	16.19	
2025-01-18 16:26:10.87	41.10	16.18	
2025-01-18 16:26:11.88	40.85	16.18	
2025-01-18 16:26:12.90	40.59	16.17	
2025-01-18 16:26:13.91	40.33	16.17	
2025-01-18 16:26:14.93	40.07	16.16	
2025-01-18 16:26:15.95	39.81	16.15	
2025-01-18 16:26:16.96	39.55	16.15	
2025-01-18 16:26:17.98	39.29	16.14	
2025-01-18 16:26:18.99	39.04	16.13	
2025-01-18 16:26:20.01	38.78	16.12	
2025-01-18 16:26:21.02	38.52	16.11	
2025-01-18 16:26:22.04	38.26	16.10	
2025-01-18 16:26:23.05	38.00	16.09	
2025-01-18 16:26:24.07	37.75	16.08	
2025-01-18 16:26:25.08	37.49	16.07	
2025-01-18 16:26:26.10	37.23	16.06	
2025-01-18 16:26:27.11	36.98	16.04	
2025-01-18 16:26:28.13	36.72	16.03	
2025-01-18 16:26:29.15	36.46	16.02	
2025-01-18 16:26:30.16	36.21	16.00	
2025-01-18 16:26:31.18	35.95	15.99	
2025-01-18 16:26:32.19	35.70	15.97	
2025-01-18 16:26:33.21	35.44	15.95	
2025-01-18 16:26:34.22	35.19	15.94	
2025-01-18 16:26:35.24	34.93	15.92	
2025-01-18 16:26:36.25	34.68	15.90	
2025-01-18 16:26:37.27	34.43	15.88	
2025-01-18 16:26:38.28	34.17	15.87	
2025-01-18 16:26:39.30	33.92	15.85	
2025-01-18 16:26:40.32	33.67	15.83	
2025-01-18 16:26:41.33	33.41	15.81	
2025-01-18 16:26:42.35	33.16	15.79	
2025-01-18 16:26:43.36	32.91	15.76	
2025-01-18 16:26:44.38	32.66	15.74	
2025-01-18 16:26:45.39	32.41	15.72	
2025-01-18 16:26:46.41	32.16	15.70	
2025-01-18 16:26:47.42	31.91	15.67	
2025-01-18 16:26:48.44	31.66	15.65	
2025-01-18 16:26:49.45	31.41	15.63	
2025-01-18 16:26:50.47	31.16	15.60	
2025-01-18 16:26:51.48	30.92	15.58	
2025-01-18 16:26:52.50	30.67	15.55	
2025-01-18 16:26:53.52	30.42	15.52	
2025-01-18 16:26:54.53	30.17	15.50	
2025-01-18 16:26:55.55	29.93	15.47	
2025-01-18 16:26:56.56	29.68	15.44	
2025-01-18 16:26:57.58	29.43	15.41	
2025-01-18 16:26:58.59	29.19	15.39	
2025-01-18 16:26:59.61	28.95	15.36	
2025-01-18 16:27:00.62	28.70	15.33	
2025-01-18 16:27:01.64	28.46	15.30	
2025-01-18 16:27:02.65	28.22	15.27	
2025-01-18 16:27:03.67	27.97	15.23	
2025-01-18 16:27:04.69	27.73	15.20	
2025-01-18 16:27:05.70	27.49	15.17	
2025-01-18 16:27:06.72	27.25	15.14	
2025-01-18 16:27:07.73	27.01	15.11	
2025-01-18 16:27:08.75	26.77	15.07	
2025-01-18 16:27:09.76	26.53	15.04	
2025-01-18 16:27:10.78	26.30	15.01	
2025-01-18 16:27:11.79	26.06	14.97	
2025-01-18 16:27:12.81	25.82	14.94	
2025-01-18 16:27:13.82	25.59	14.90	
2025-01-18 16:27:14.84	25.35	14.87	
2025-01-18 16:27:15.85	25.12	14.83	
2025-01-18 16:27:16.87	24.88	14.79	
2025-01-18 16:27:17.89	24.65	14.76	
2025-01-18 16:27:18.90	24.41	14.72	
2025-01-18 16:27:19.92	24.18	14.68	
2025-01-18 16:27:20.93	23.95	14.64	
2025-01-18 16:27:21.95	23.72	14.61	
2025-01-18 16:27:22.96	23.49	14.57	
2025-01-18 16:27:23.98	23.26	14.53	
2025-01-18 16:27:24.99	23.03	14.49	
2025-01-18 16:27:26.01	22.80	14.45	
2025-01-18 16:27:27.02	22.57	14.41	
2025-01-18 16:27:28.04	22.34	14.37	
2025-01-18 16:27:29.06	22.12	14.33	
2025-01-18 16:27:30.07	21.89	14.29	
2025-01-18 16:27:31.09	21.66	14.24	
2025-01-18 16:27:32.10	21.44	14.20	
2025-01-18 16:27:33.12	21.22	14.16	
2025-01-18 16:27:34.13	20.99	14.12	
2025-01-18 16:27:35.15	20.77	14.07	
2025-01-18 16:27:36.16	20.55	14.03	
2025-01-18 16:27:37.18	20.33	13.99	
2025-01-18 16:27:38.19	20.11	13.94	
2025-01-18 16:27:39.21	19.89	13.90	
2025-01-18 16:27:40.23	19.67	13.86	
2025-01-18 16:27:41.24	19.45	13.81	
2025-01-18 16:27:42.26	19.23	13.77	
2025-01-18 16:27:43.27	19.02	13.72	
2025-01-18 16:27:44.29	18.80	13.67	
2025-01-18 16:27:45.30	18.58	13.63	
2025-01-18 16:27:46.32	18.37	13.58	
2025-01-18 16:27:47.33	18.16	13.54	
2025-01-18 16:27:48.35	17.94	13.49	
2025-01-18 16:27:49.36	17.73	13.44	
2025-01-18 16:27:50.38	17.52	13.39	
2025-01-18 16:27:51.39	17.31	13.35	
2025-01-18 16:27:52.41	17.10	13.30	
2025-01-18 16:27:53.43	16.89	13.25	
2025-01-18 16:27:54.44	16.68	13.20	
2025-01-18 16:27:55.46	16.47	13.15	
2025-01-18 16:27:56.47	16.26	13.11	
2025-01-18 16:27:57.49	16.06	13.06	
2025-01-18 16:27:58.50	15.85	13.01	
2025-01-18 16:27:59.52	15.65	12.96	
2025-01-18 16:28:00.53	15.44	12.91	
2025-01-18 16:28:01.55	15.24	12.86	
2025-01-18 16:28:02.56	15.04	12.81	
2025-01-18 16:28:03.58	14.83	12.76	
2025-01-18 16:28:04.60	14.63	12.71	
2025-01-18 16:28:05.61	14.43	12.66	
2025-01-18 16:28:06.63	14.23	12.60	
2025-01-18 16:28:07.64	14.03	12.55	
2025-01-18 16:28:08.66	13.83	12.50	
2025-01-18 16:28:09.67	13.64	12.45	
2025-01-18 16:28:10.69	13.44	12.40	
2025-01-18 16:28:11.70	13.25	12.35	
2025-01-18 16:28:12.72	13.05	12.29	
2025-01-18 16:28:13.73	12.86	12.24	
2025-01-18 16:28:14.75	12.66	12.19	
2025-01-18 16:28:15.77	12.47	12.14	
2025-01-18 16:28:16.78	12.28	12.08	
2025-01-18 16:28:17.80	12.08	12.03	
2025-01-18 16:28:18.81	11.89	11.98	
2025-01-18 16:28:19.83	11.70	11.92	
2025-01-18 16:28:20.84	11.52	11.87	
2025-01-18 16:28:21.86	11.33	11.82	
2025-01-18 16:28:22.87	11.14	11.76	
2025-01-18 16:28:23.89	10.95	11.71	
2025-01-18 16:28:24.90	10.77	11.65	
2025-01-18 16:28:25.92	10.58	11.60	
2025-01-18 16:28:26.93	10.40	11.54	
2025-01-18 16:28:27.95	10.21	11.49	
2025-01-18 16:28:28.97	10.03	11.43	
2025-01-18 16:28:29.98	9.85	11.38	
2025-01-18 16:28:31.00	9.66	11.32	
2025-01-18 16:28:32.01	9.48	11.27	
2025-01-18 16:28:33.03	9.30	11.21	
2025-01-18 16:28:34.04	9.12	11.16	
2025-01-18 16:28:35.06	8.95	11.10	
2025-01-18 16:28:36.07	8.77	11.05	
2025-01-18 16:28:37.09	8.59	10.99	
2025-01-18 16:28:38.10	8.42	10.94	
2025-01-18 16:28:39.12	8.24	10.88	
2025-01-18 16:28:40.14	8.06	10.82	
2025-01-18 16:28:41.15	7.89	10.77	
2025-01-18 16:28:42.17	7.72	10.71	
2025-01-18 16:28:43.18	7.54	10.66	
2025-01-18 16:28:44.20	7.37	10.60	
2025-01-18 16:28:45.21	7.20	10.54	
2025-01-18 16:28:46.23	7.03	10.49	
2025-01-18 16:28:47.24	6.86	10.43	
2025-01-18 16:28:48.26	6.69	10.37	
2025-01-18 16:28:49.27	6.52	10.31	
2025-01-18 16:28:50.29	6.35	10.26	
2025-01-18 16:28:51.31	6.19	10.20	
2025-01-18 16:28:52.32	6.02	10.14	
2025-01-18 16:28:53.34	5.85	10.09	
2025-01-18 16:28:54.35	5.69	10.03	
2025-01-18 16:28:55.37	5.53	9.97	
2025-01-18 16:28:56.38	5.36	9.91	
2025-01-18 16:28:57.40	5.20	9.86	
2025-01-18 16:28:58.41	5.04	9.80	
2025-01-18 16:28:59.43	4.88	9.74	
2025-01-18 16:29:00.44	4.72	9.68	
2025-01-18 16:29:01.46	4.56	9.63	
2025-01-18 16:29:02.47	4.40	9.57	
2025-01-18 16:29:03.49	4.24	9.51	
2025-01-18 16:29:04.51	4.08	9.45	
2025-01-18 16:29:05.52	3.92	9.39	
2025-01-18 16:29:06.54	3.77	9.34	
2025-01-18 16:29:07.55	3.61	9.28	
2025-01-18 16:29:08.57	3.46	9.22	
2025-01-18 16:29:09.58	3.30	9.16	
2025-01-18 16:29:10.60	3.15	9.10	
2025-01-18 16:29:11.61	3.00	9.05	
2025-01-18 16:29:12.63	2.84	8.99	
2025-01-18 16:29:13.64	2.69	8.93	
2025-01-18 16:29:14.66	2.54	8.87	
2025-01-18 16:29:15.68	2.39	8.81	
2025-01-18 16:29:16.69	2.24	8.75	
2025-01-18 16:29:17.71	2.09	8.70	
2025-01-18 16:29:18.72	1.94	8.64	
2025-01-18 16:29:19.74	1.80	8.58	
2025-01-18 16:29:20.75	1.65	8.52	
2025-01-18 16:29:21.77	1.50	8.46	
2025-01-18 16:29:22.78	1.36	8.40	
2025-01-18 16:29:23.80	1.21	8.35	
2025-01-18 16:29:24.81	1.07	8.29	
2025-01-18 16:29:25.83	0.92	8.23	
2025-01-18 16:29:26.85	0.78	8.17	
2025-01-18 16:29:27.86	0.64	8.11	
2025-01-18 16:29:28.88	0.50	8.05	
2025-01-18 16:29:29.89	0.36	7.99	
2025-01-18 16:29:30.91	0.21	7.94	
2025-01-18 16:29:31.92	0.07	7.88	
2025-01-18 16:29:32.94	359.93	7.82	
2025-01-18 16:29:33.95	359.80	7.76	
2025-01-18 16:29:34.97	359.66	7.70	
2025-01-18 16:29:35.98	359.52	7.64	
2025-01-18 16:29:37.00	359.38	7.59	
2025-01-18 16:29:38.01	359.25	7.53	
2025-01-18 16:29:39.03	359.11	7.47	
2025-01-18 16:29:40.05	358.98	7.41	
2025-01-18 16:29:41.06	358.84	7.35	
2025-01-18 16:29:42.08	358.71	7.29	
2025-01-18 16:29:43.09	358.58	7.23	
2025-01-18 16:29:44.11	358.44	7.18	
2025-01-18 16:29:45.12	358.31	7.12	
2025-01-18 16:29:46.14	358.18	7.06	
2025-01-18 16:29:47.15	358.05	7.00	
2025-01-18 16:29:48.17	357.92	6.94	
2025-01-18 16:29:49.18	357.79	6.88	
2025-01-18 16:29:50.20	357.66	6.82	
2025-01-18 16:29:51.22	357.53	6.77	
2025-01-18 16:29:52.23	357.40	6.71	
2025-01-18 16:29:53.25	357.27	6.65	
2025-01-18 16:29:54.26	357.15	6.59	
2025-01-18 16:29:55.28	357.02	6.53	
2025-01-18 16:29:56.29	356.90	6.48	
2025-01-18 16:29:57.31	356.77	6.42	
2025-01-18 16:29:58.32	356.65	6.36	
2025-01-18 16:29:59.34	356.52	6.30	
2025-01-18 16:30:00.35	356.40	6.24	
2025-01-18 16:30:01.37	356.28	6.18	
2025-01-18 16:30:02.38	356.15	6.13	
2025-01-18 16:30:03.40	356.03	6.07	
2025-01-18 16:30:04.42	355.91	6.01	
2025-01-18 16:30:05.43	355.79	5.95	
2025-01-18 16:30:06.45	355.67	5.89	
2025-01-18 16:30:07.46	355.55	5.84	
2025-01-18 16:30:08.48	355.43	5.78	
2025-01-18 16:30:09.49	355.31	5.72	
2025-01-18 16:30:10.51	355.19	5.66	
2025-01-18 16:30:11.52	355.08	5.60	
2025-01-18 16:30:12.54	354.96	5.55	
2025-01-18 16:30:13.55	354.84	5.49	
2025-01-18 16:30:14.57	354.73	5.43	
2025-01-18 16:30:15.59	354.61	5.37	
2025-01-18 16:30:16.60	354.50	5.32	
2025-01-18 16:30:17.62	354.38	5.26	
2025-01-18 16:30:18.63	354.27	5.20	
2025-01-18 16:30:19.65	354.15	5.14	
2025-01-18 16:30:20.66	354.04	5.09	
2025-01-18 16:30:21.68	353.93	5.03	
2025-01-18 16:30:22.69	353.82	4.97	
2025-01-18 16:30:23.71	353.71	4.91	
2025-01-18 16:30:24.72	353.59	4.86	
2025-01-18 16:30:25.74	353.48	4.80	
2025-01-18 16:30:26.76	353.37	4.74	
2025-01-18 16:30:27.77	353.26	4.68	
2025-01-18 16:30:28.79	353.15	4.63	
2025-01-18 16:30:29.80	353.05	4.57	
2025-01-18 16:30:30.82	352.94	4.51	
2025-01-18 16:30:31.83	352.83	4.46	
2025-01-18 16:30:32.85	352.72	4.40	
2025-01-18 16:30:33.86	352.62	4.34	
2025-01-18 16:30:34.88	352.51	4.28	
2025-01-18 16:30:35.89	352.41	4.23	
2025-01-18 16:30:36.91	352.30	4.17	
2025-01-18 16:30:37.92	352.20	4.11	
2025-01-18 16:30:38.94	352.09	4.06	
2025-01-18 16:30:39.96	351.99	4.00	

#Closed at: 2025-01-18 16:30:40