passes_logs/2025/01/18/SPB_Silybum_02/SPB_Silybum_02__20250118_193459_TERRA_rec.log

#Pass ID: 20250118_193459_TERRA
#Satellite: TERRA
#Configuration: TERRA
#Start time: 2025-01-18 19:34:59

#Version: 2.0.20230423
#Station: SPB_Silybum_02
#Location: 30.233357 lon 59.946436 lat
#TLE: 1 25994U 99068A   25017.80257355  .00000903  00000+0  19577-3 0  9994
#TLE: 2 25994  98.0211  80.7437 0003372  66.8373  47.3878 14.60400955334482

#Time	Az	El	Level	Level2	SNR	BER	Gain	Gain2
2025-01-18 19:35:01.61	195.25	4.17	
2025-01-18 19:35:02.83	195.32	4.25	
2025-01-18 19:35:04.05	195.40	4.33	
2025-01-18 19:35:05.27	195.48	4.42	
2025-01-18 19:35:06.49	195.56	4.50	
2025-01-18 19:35:07.70	195.65	4.58	
2025-01-18 19:35:08.92	195.73	4.66	
2025-01-18 19:35:10.14	195.81	4.75	
2025-01-18 19:35:11.36	195.89	4.83	
2025-01-18 19:35:12.58	195.97	4.91	
2025-01-18 19:35:13.80	196.06	5.00	
2025-01-18 19:35:15.02	196.14	5.08	
2025-01-18 19:35:16.23	196.23	5.17	
2025-01-18 19:35:17.45	196.31	5.25	
2025-01-18 19:35:18.67	196.40	5.34	
2025-01-18 19:35:19.89	196.48	5.42	
2025-01-18 19:35:21.11	196.57	5.51	
2025-01-18 19:35:22.33	196.66	5.59	
2025-01-18 19:35:23.54	196.74	5.68	
2025-01-18 19:35:24.76	196.83	5.76	
2025-01-18 19:35:25.98	196.92	5.85	
2025-01-18 19:35:27.20	197.01	5.94	
2025-01-18 19:35:28.42	197.10	6.02	
2025-01-18 19:35:29.64	197.19	6.11	
2025-01-18 19:35:30.85	197.28	6.20	
2025-01-18 19:35:32.07	197.37	6.29	
2025-01-18 19:35:33.29	197.46	6.37	
2025-01-18 19:35:34.51	197.56	6.46	
2025-01-18 19:35:35.73	197.65	6.55	
2025-01-18 19:35:36.95	197.74	6.64	
2025-01-18 19:35:38.16	197.84	6.73	
2025-01-18 19:35:39.38	197.93	6.82	
2025-01-18 19:35:40.60	198.03	6.91	
2025-01-18 19:35:41.82	198.13	7.00	
2025-01-18 19:35:43.04	198.22	7.09	
2025-01-18 19:35:44.26	198.32	7.18	
2025-01-18 19:35:45.48	198.42	7.27	
2025-01-18 19:35:46.69	198.52	7.36	
2025-01-18 19:35:47.91	198.62	7.45	
2025-01-18 19:35:49.13	198.72	7.54	
2025-01-18 19:35:50.35	198.82	7.64	
2025-01-18 19:35:51.57	198.92	7.73	
2025-01-18 19:35:52.79	199.02	7.82	
2025-01-18 19:35:54.00	199.12	7.91	
2025-01-18 19:35:55.22	199.23	8.01	
2025-01-18 19:35:56.44	199.33	8.10	
2025-01-18 19:35:57.66	199.44	8.20	
2025-01-18 19:35:58.88	199.54	8.29	
2025-01-18 19:36:00.10	199.65	8.38	
2025-01-18 19:36:01.31	199.75	8.48	
2025-01-18 19:36:02.53	199.86	8.57	
2025-01-18 19:36:03.75	199.97	8.67	
2025-01-18 19:36:04.97	200.08	8.77	
2025-01-18 19:36:06.19	200.19	8.86	
2025-01-18 19:36:07.41	200.30	8.96	
2025-01-18 19:36:08.62	200.41	9.05	
2025-01-18 19:36:09.84	200.52	9.15	
2025-01-18 19:36:11.06	200.64	9.25	
2025-01-18 19:36:12.28	200.75	9.35	
2025-01-18 19:36:13.50	200.86	9.45	
2025-01-18 19:36:14.72	200.98	9.54	
2025-01-18 19:36:15.94	201.10	9.64	
2025-01-18 19:36:17.15	201.21	9.74	
2025-01-18 19:36:18.37	201.33	9.84	
2025-01-18 19:36:19.59	201.45	9.94	
2025-01-18 19:36:20.81	201.57	10.04	
2025-01-18 19:36:22.03	201.69	10.14	
2025-01-18 19:36:23.25	201.81	10.24	
2025-01-18 19:36:24.46	201.93	10.34	
2025-01-18 19:36:25.68	202.05	10.45	
2025-01-18 19:36:26.90	202.18	10.55	
2025-01-18 19:36:28.12	202.30	10.65	
2025-01-18 19:36:29.34	202.43	10.75	
2025-01-18 19:36:30.56	202.56	10.86	
2025-01-18 19:36:31.77	202.68	10.96	
2025-01-18 19:36:32.99	202.81	11.06	
2025-01-18 19:36:34.21	202.94	11.17	
2025-01-18 19:36:35.43	203.07	11.27	
2025-01-18 19:36:36.65	203.20	11.38	
2025-01-18 19:36:37.87	203.33	11.48	
2025-01-18 19:36:39.08	203.47	11.59	
2025-01-18 19:36:40.30	203.60	11.69	
2025-01-18 19:36:41.52	203.74	11.80	
2025-01-18 19:36:42.74	203.87	11.91	
2025-01-18 19:36:43.96	204.01	12.02	
2025-01-18 19:36:45.18	204.15	12.12	
2025-01-18 19:36:46.40	204.29	12.23	
2025-01-18 19:36:47.61	204.43	12.34	
2025-01-18 19:36:48.83	204.57	12.45	
2025-01-18 19:36:50.05	204.71	12.56	
2025-01-18 19:36:51.27	204.86	12.67	
2025-01-18 19:36:52.49	205.00	12.78	
2025-01-18 19:36:53.71	205.15	12.89	
2025-01-18 19:36:54.92	205.29	13.00	
2025-01-18 19:36:56.14	205.44	13.11	
2025-01-18 19:36:57.36	205.59	13.22	
2025-01-18 19:36:58.58	205.74	13.33	
2025-01-18 19:36:59.80	205.89	13.44	
2025-01-18 19:37:01.02	206.05	13.56	
2025-01-18 19:37:02.23	206.20	13.67	
2025-01-18 19:37:03.45	206.36	13.78	
2025-01-18 19:37:04.67	206.51	13.90	
2025-01-18 19:37:05.89	206.67	14.01	
2025-01-18 19:37:07.11	206.83	14.13	
2025-01-18 19:37:08.33	206.99	14.24	
2025-01-18 19:37:09.54	207.15	14.36	
2025-01-18 19:37:10.76	207.31	14.47	
2025-01-18 19:37:11.98	207.48	14.59	
2025-01-18 19:37:13.20	207.65	14.71	
2025-01-18 19:37:14.42	207.81	14.82	
2025-01-18 19:37:15.64	207.98	14.94	
2025-01-18 19:37:16.86	208.15	15.06	
2025-01-18 19:37:18.07	208.32	15.18	
2025-01-18 19:37:19.29	208.49	15.30	
2025-01-18 19:37:20.51	208.67	15.42	
2025-01-18 19:37:21.73	208.84	15.54	
2025-01-18 19:37:22.95	209.02	15.66	
2025-01-18 19:37:24.17	209.20	15.78	
2025-01-18 19:37:25.38	209.38	15.90	
2025-01-18 19:37:26.60	209.56	16.02	
2025-01-18 19:37:27.82	209.74	16.14	
2025-01-18 19:37:29.04	209.93	16.26	
2025-01-18 19:37:30.26	210.11	16.39	
2025-01-18 19:37:31.48	210.30	16.51	
2025-01-18 19:37:32.69	210.49	16.63	
2025-01-18 19:37:33.91	210.68	16.76	
2025-01-18 19:37:35.13	210.87	16.88	
2025-01-18 19:37:36.35	211.07	17.01	
2025-01-18 19:37:37.57	211.26	17.13	
2025-01-18 19:37:38.79	211.46	17.26	
2025-01-18 19:37:40.00	211.66	17.38	
2025-01-18 19:37:41.22	211.86	17.51	
2025-01-18 19:37:42.44	212.06	17.63	
2025-01-18 19:37:43.66	212.27	17.76	
2025-01-18 19:37:44.88	212.47	17.89	
2025-01-18 19:37:46.10	212.68	18.02	
2025-01-18 19:37:47.32	212.89	18.14	
2025-01-18 19:37:48.53	213.10	18.27	
2025-01-18 19:37:49.75	213.32	18.40	
2025-01-18 19:37:50.97	213.53	18.53	
2025-01-18 19:37:52.19	213.75	18.66	
2025-01-18 19:37:53.41	213.97	18.79	
2025-01-18 19:37:54.63	214.19	18.92	
2025-01-18 19:37:55.84	214.41	19.05	
2025-01-18 19:37:57.06	214.64	19.18	
2025-01-18 19:37:58.28	214.86	19.31	
2025-01-18 19:37:59.50	215.09	19.45	
2025-01-18 19:38:00.72	215.32	19.58	
2025-01-18 19:38:01.94	215.56	19.71	
2025-01-18 19:38:03.15	215.79	19.84	
2025-01-18 19:38:04.37	216.03	19.98	
2025-01-18 19:38:05.59	216.27	20.11	
2025-01-18 19:38:06.81	216.51	20.24	
2025-01-18 19:38:08.03	216.75	20.38	
2025-01-18 19:38:09.25	217.00	20.51	
2025-01-18 19:38:10.46	217.25	20.64	
2025-01-18 19:38:11.68	217.50	20.78	
2025-01-18 19:38:12.90	217.75	20.91	
2025-01-18 19:38:14.12	218.00	21.05	
2025-01-18 19:38:15.34	218.26	21.19	
2025-01-18 19:38:16.56	218.52	21.32	
2025-01-18 19:38:17.78	218.78	21.46	
2025-01-18 19:38:18.99	219.05	21.59	
2025-01-18 19:38:20.21	219.31	21.73	
2025-01-18 19:38:21.43	219.58	21.87	
2025-01-18 19:38:22.65	219.85	22.00	
2025-01-18 19:38:23.87	220.13	22.14	
2025-01-18 19:38:25.09	220.40	22.28	
2025-01-18 19:38:26.30	220.68	22.41	
2025-01-18 19:38:27.52	220.96	22.55	
2025-01-18 19:38:28.74	221.25	22.69	
2025-01-18 19:38:29.96	221.53	22.83	
2025-01-18 19:38:31.18	221.82	22.96	
2025-01-18 19:38:32.40	222.12	23.10	
2025-01-18 19:38:33.61	222.41	23.24	
2025-01-18 19:38:34.83	222.71	23.38	
2025-01-18 19:38:36.05	223.01	23.52	
2025-01-18 19:38:37.27	223.31	23.65	
2025-01-18 19:38:38.49	223.61	23.79	
2025-01-18 19:38:39.71	223.92	23.93	
2025-01-18 19:38:40.93	224.23	24.07	
2025-01-18 19:38:42.14	224.54	24.20	
2025-01-18 19:38:43.36	224.86	24.34	
2025-01-18 19:38:44.58	225.18	24.48	
2025-01-18 19:38:45.80	225.50	24.62	
2025-01-18 19:38:47.02	225.83	24.76	
2025-01-18 19:38:48.24	226.16	24.89	
2025-01-18 19:38:49.45	226.48	25.03	
2025-01-18 19:38:50.67	226.82	25.17	
2025-01-18 19:38:51.89	227.16	25.30	
2025-01-18 19:38:53.11	227.50	25.44	
2025-01-18 19:38:54.33	227.84	25.58	
2025-01-18 19:38:55.55	228.18	25.71	
2025-01-18 19:38:56.76	228.53	25.85	
2025-01-18 19:38:57.98	228.88	25.98	
2025-01-18 19:38:59.20	229.24	26.12	
2025-01-18 19:39:00.42	229.60	26.25	
2025-01-18 19:39:01.64	229.96	26.38	
2025-01-18 19:39:02.86	230.32	26.52	
2025-01-18 19:39:04.07	230.69	26.65	
2025-01-18 19:39:05.29	231.06	26.78	
2025-01-18 19:39:06.51	231.43	26.92	
2025-01-18 19:39:07.73	231.81	27.05	
2025-01-18 19:39:08.95	232.19	27.18	
2025-01-18 19:39:10.17	232.57	27.31	
2025-01-18 19:39:11.39	232.96	27.44	
2025-01-18 19:39:12.60	233.34	27.57	
2025-01-18 19:39:13.82	233.74	27.69	
2025-01-18 19:39:15.04	234.13	27.82	
2025-01-18 19:39:16.26	234.53	27.95	
2025-01-18 19:39:17.48	234.93	28.07	
2025-01-18 19:39:18.70	235.34	28.20	
2025-01-18 19:39:19.91	235.75	28.32	
2025-01-18 19:39:21.13	236.16	28.44	
2025-01-18 19:39:22.35	236.57	28.57	
2025-01-18 19:39:23.57	236.99	28.69	
2025-01-18 19:39:24.79	237.41	28.81	
2025-01-18 19:39:26.01	237.84	28.93	
2025-01-18 19:39:27.22	238.26	29.04	
2025-01-18 19:39:28.44	238.69	29.16	
2025-01-18 19:39:29.66	239.13	29.28	
2025-01-18 19:39:30.88	239.57	29.39	
2025-01-18 19:39:32.10	240.01	29.50	
2025-01-18 19:39:33.32	240.45	29.61	
2025-01-18 19:39:34.53	240.89	29.72	
2025-01-18 19:39:35.75	241.34	29.83	
2025-01-18 19:39:36.97	241.80	29.94	
2025-01-18 19:39:38.19	242.25	30.05	
2025-01-18 19:39:39.41	242.71	30.15	
2025-01-18 19:39:40.63	243.17	30.25	
2025-01-18 19:39:41.85	243.64	30.36	
2025-01-18 19:39:43.06	244.10	30.45	
2025-01-18 19:39:44.28	244.57	30.55	
2025-01-18 19:39:45.50	245.05	30.65	
2025-01-18 19:39:46.72	245.53	30.74	
2025-01-18 19:39:47.94	246.00	30.84	
2025-01-18 19:39:49.16	246.49	30.93	
2025-01-18 19:39:50.37	246.97	31.02	
2025-01-18 19:39:51.59	247.46	31.10	
2025-01-18 19:39:52.81	247.95	31.19	
2025-01-18 19:39:54.03	248.44	31.27	
2025-01-18 19:39:55.25	248.93	31.35	
2025-01-18 19:39:56.47	249.43	31.43	
2025-01-18 19:39:57.68	249.93	31.51	
2025-01-18 19:39:58.90	250.43	31.59	
2025-01-18 19:40:00.12	250.94	31.66	
2025-01-18 19:40:01.34	251.44	31.73	
2025-01-18 19:40:02.56	251.95	31.80	
2025-01-18 19:40:03.78	252.46	31.86	
2025-01-18 19:40:04.99	252.97	31.93	
2025-01-18 19:40:06.21	253.49	31.99	
2025-01-18 19:40:07.43	254.01	32.05	
2025-01-18 19:40:08.65	254.53	32.11	
2025-01-18 19:40:09.87	255.05	32.16	
2025-01-18 19:40:11.09	255.57	32.21	
2025-01-18 19:40:12.31	256.09	32.26	
2025-01-18 19:40:13.52	256.62	32.31	
2025-01-18 19:40:14.74	257.14	32.35	
2025-01-18 19:40:15.96	257.67	32.40	
2025-01-18 19:40:17.18	258.20	32.44	
2025-01-18 19:40:18.40	258.74	32.47	
2025-01-18 19:40:19.62	259.27	32.51	
2025-01-18 19:40:20.83	259.80	32.54	
2025-01-18 19:40:22.05	260.33	32.57	
2025-01-18 19:40:23.27	260.87	32.59	
2025-01-18 19:40:24.49	261.40	32.62	
2025-01-18 19:40:25.71	261.94	32.64	
2025-01-18 19:40:26.93	262.48	32.66	
2025-01-18 19:40:28.14	263.01	32.67	
2025-01-18 19:40:29.36	263.55	32.69	
2025-01-18 19:40:30.58	264.09	32.70	
2025-01-18 19:40:31.80	264.63	32.71	
2025-01-18 19:40:33.02	265.17	32.71	
2025-01-18 19:40:34.24	265.71	32.71	
2025-01-18 19:40:35.45	266.25	32.71	
2025-01-18 19:40:36.67	266.79	32.71	
2025-01-18 19:40:37.89	267.33	32.70	
2025-01-18 19:40:39.11	267.87	32.70	
2025-01-18 19:40:40.33	268.41	32.68	
2025-01-18 19:40:41.55	268.94	32.67	
2025-01-18 19:40:42.77	269.48	32.65	
2025-01-18 19:40:43.98	270.02	32.63	
2025-01-18 19:40:45.20	270.55	32.61	
2025-01-18 19:40:46.42	271.09	32.59	
2025-01-18 19:40:47.64	271.62	32.56	
2025-01-18 19:40:48.86	272.16	32.53	
2025-01-18 19:40:50.08	272.69	32.50	
2025-01-18 19:40:51.29	273.22	32.46	
2025-01-18 19:40:52.51	273.75	32.43	
2025-01-18 19:40:53.73	274.28	32.39	
2025-01-18 19:40:54.95	274.81	32.34	
2025-01-18 19:40:56.17	275.33	32.30	
2025-01-18 19:40:57.39	275.86	32.25	
2025-01-18 19:40:58.60	276.38	32.20	
2025-01-18 19:40:59.82	276.90	32.15	
2025-01-18 19:41:01.04	277.42	32.09	
2025-01-18 19:41:02.26	277.94	32.04	
2025-01-18 19:41:03.48	278.45	31.98	
2025-01-18 19:41:04.70	278.97	31.91	
2025-01-18 19:41:05.91	279.48	31.85	
2025-01-18 19:41:07.13	279.99	31.78	
2025-01-18 19:41:08.35	280.49	31.71	
2025-01-18 19:41:09.57	281.00	31.64	
2025-01-18 19:41:10.79	281.50	31.57	
2025-01-18 19:41:12.01	282.00	31.49	
2025-01-18 19:41:13.23	282.50	31.42	
2025-01-18 19:41:14.44	282.99	31.34	
2025-01-18 19:41:15.66	283.49	31.26	
2025-01-18 19:41:16.88	283.98	31.17	
2025-01-18 19:41:18.10	284.47	31.09	
2025-01-18 19:41:19.32	284.95	31.00	
2025-01-18 19:41:20.54	285.44	30.91	
2025-01-18 19:41:21.75	285.91	30.82	
2025-01-18 19:41:22.97	286.39	30.73	
2025-01-18 19:41:24.19	286.86	30.63	
2025-01-18 19:41:25.41	287.34	30.54	
2025-01-18 19:41:26.63	287.80	30.44	
2025-01-18 19:41:27.85	288.27	30.34	
2025-01-18 19:41:29.06	288.73	30.24	
2025-01-18 19:41:30.28	289.19	30.13	
2025-01-18 19:41:31.50	289.65	30.03	
2025-01-18 19:41:32.72	290.10	29.92	
2025-01-18 19:41:33.94	290.55	29.82	
2025-01-18 19:41:35.16	291.00	29.71	
2025-01-18 19:41:36.37	291.44	29.60	
2025-01-18 19:41:37.59	291.88	29.49	
2025-01-18 19:41:38.81	292.32	29.37	
2025-01-18 19:41:40.03	292.76	29.26	
2025-01-18 19:41:41.25	293.19	29.15	
2025-01-18 19:41:42.47	293.62	29.03	
2025-01-18 19:41:43.69	294.04	28.91	
2025-01-18 19:41:44.90	294.46	28.79	
2025-01-18 19:41:46.12	294.88	28.67	
2025-01-18 19:41:47.34	295.30	28.55	
2025-01-18 19:41:48.56	295.71	28.43	
2025-01-18 19:41:49.78	296.12	28.31	
2025-01-18 19:41:51.00	296.53	28.19	
2025-01-18 19:41:52.21	296.93	28.06	
2025-01-18 19:41:53.43	297.33	27.94	
2025-01-18 19:41:54.65	297.72	27.81	
2025-01-18 19:41:55.87	298.12	27.68	
2025-01-18 19:41:57.09	298.51	27.56	
2025-01-18 19:41:58.31	298.90	27.43	
2025-01-18 19:41:59.52	299.28	27.30	
2025-01-18 19:42:00.74	299.66	27.17	
2025-01-18 19:42:01.96	300.04	27.04	
2025-01-18 19:42:03.18	300.41	26.91	
2025-01-18 19:42:04.40	300.78	26.78	
2025-01-18 19:42:05.62	301.15	26.65	
2025-01-18 19:42:06.83	301.51	26.52	
2025-01-18 19:42:08.05	301.88	26.38	
2025-01-18 19:42:09.27	302.23	26.25	
2025-01-18 19:42:10.49	302.59	26.12	
2025-01-18 19:42:11.71	302.94	25.98	
2025-01-18 19:42:12.93	303.29	25.85	
2025-01-18 19:42:14.15	303.64	25.71	
2025-01-18 19:42:15.36	303.98	25.58	
2025-01-18 19:42:16.58	304.32	25.44	
2025-01-18 19:42:17.80	304.66	25.31	
2025-01-18 19:42:19.02	305.00	25.17	
2025-01-18 19:42:20.24	305.33	25.04	
2025-01-18 19:42:21.46	305.66	24.90	
2025-01-18 19:42:22.67	305.98	24.76	
2025-01-18 19:42:23.89	306.30	24.63	
2025-01-18 19:42:25.11	306.62	24.49	
2025-01-18 19:42:26.33	306.94	24.35	
2025-01-18 19:42:27.55	307.26	24.22	
2025-01-18 19:42:28.77	307.57	24.08	
2025-01-18 19:42:29.98	307.88	23.95	
2025-01-18 19:42:31.20	308.18	23.81	
2025-01-18 19:42:32.42	308.49	23.67	
2025-01-18 19:42:33.64	308.79	23.53	
2025-01-18 19:42:34.86	309.09	23.40	
2025-01-18 19:42:36.08	309.38	23.26	
2025-01-18 19:42:37.29	309.67	23.12	
2025-01-18 19:42:38.51	309.96	22.99	
2025-01-18 19:42:39.73	310.25	22.85	
2025-01-18 19:42:40.95	310.54	22.71	
2025-01-18 19:42:42.17	310.82	22.58	
2025-01-18 19:42:43.39	311.10	22.44	
2025-01-18 19:42:44.61	311.38	22.30	
2025-01-18 19:42:45.82	311.65	22.17	
2025-01-18 19:42:47.04	311.92	22.03	
2025-01-18 19:42:48.26	312.19	21.90	
2025-01-18 19:42:49.48	312.46	21.76	
2025-01-18 19:42:50.70	312.73	21.63	
2025-01-18 19:42:51.92	312.99	21.49	
2025-01-18 19:42:53.13	313.25	21.36	
2025-01-18 19:42:54.35	313.51	21.22	
2025-01-18 19:42:55.57	313.76	21.09	
2025-01-18 19:42:56.79	314.02	20.95	
2025-01-18 19:42:58.01	314.27	20.82	
2025-01-18 19:42:59.23	314.52	20.69	
2025-01-18 19:43:00.44	314.76	20.55	
2025-01-18 19:43:01.66	315.01	20.42	
2025-01-18 19:43:02.88	315.25	20.29	
2025-01-18 19:43:04.10	315.49	20.15	
2025-01-18 19:43:05.32	315.73	20.02	
2025-01-18 19:43:06.54	315.96	19.89	
2025-01-18 19:43:07.75	316.20	19.76	
2025-01-18 19:43:08.97	316.43	19.63	
2025-01-18 19:43:10.19	316.66	19.50	
2025-01-18 19:43:11.41	316.89	19.37	
2025-01-18 19:43:12.63	317.11	19.24	
2025-01-18 19:43:13.85	317.34	19.10	
2025-01-18 19:43:15.07	317.56	18.98	
2025-01-18 19:43:16.28	317.78	18.85	
2025-01-18 19:43:17.50	318.00	18.72	
2025-01-18 19:43:18.72	318.21	18.59	
2025-01-18 19:43:19.94	318.43	18.46	
2025-01-18 19:43:21.16	318.64	18.33	
2025-01-18 19:43:22.38	318.85	18.21	
2025-01-18 19:43:23.59	319.06	18.08	
2025-01-18 19:43:24.81	319.27	17.95	
2025-01-18 19:43:26.03	319.47	17.83	
2025-01-18 19:43:27.25	319.68	17.70	
2025-01-18 19:43:28.47	319.88	17.57	
2025-01-18 19:43:29.69	320.08	17.45	
2025-01-18 19:43:30.90	320.28	17.32	
2025-01-18 19:43:32.12	320.47	17.20	
2025-01-18 19:43:33.34	320.67	17.08	
2025-01-18 19:43:34.56	320.86	16.95	
2025-01-18 19:43:35.78	321.05	16.83	
2025-01-18 19:43:37.00	321.24	16.71	
2025-01-18 19:43:38.21	321.43	16.58	
2025-01-18 19:43:39.43	321.62	16.46	
2025-01-18 19:43:40.65	321.80	16.34	
2025-01-18 19:43:41.87	321.99	16.22	
2025-01-18 19:43:43.09	322.17	16.10	
2025-01-18 19:43:44.31	322.35	15.98	
2025-01-18 19:43:45.53	322.53	15.86	
2025-01-18 19:43:46.74	322.71	15.74	
2025-01-18 19:43:47.96	322.89	15.62	
2025-01-18 19:43:49.18	323.06	15.50	
2025-01-18 19:43:50.40	323.23	15.38	
2025-01-18 19:43:51.62	323.41	15.26	
2025-01-18 19:43:52.84	323.58	15.15	
2025-01-18 19:43:54.05	323.75	15.03	
2025-01-18 19:43:55.27	323.91	14.91	
2025-01-18 19:43:56.49	324.08	14.80	
2025-01-18 19:43:57.71	324.25	14.68	
2025-01-18 19:43:58.94	324.41	14.56	
2025-01-18 19:44:00.16	324.58	14.45	
2025-01-18 19:44:01.38	324.74	14.33	
2025-01-18 19:44:02.60	324.90	14.22	
2025-01-18 19:44:03.82	325.06	14.11	
2025-01-18 19:44:05.04	325.21	13.99	
2025-01-18 19:44:06.25	325.37	13.88	
2025-01-18 19:44:07.47	325.53	13.77	
2025-01-18 19:44:08.69	325.68	13.65	
2025-01-18 19:44:09.91	325.83	13.54	
2025-01-18 19:44:11.13	325.98	13.43	
2025-01-18 19:44:12.35	326.13	13.32	
2025-01-18 19:44:13.56	326.28	13.21	
2025-01-18 19:44:14.78	326.43	13.10	
2025-01-18 19:44:16.00	326.58	12.99	
2025-01-18 19:44:17.22	326.72	12.88	
2025-01-18 19:44:18.44	326.87	12.77	
2025-01-18 19:44:19.66	327.01	12.66	
2025-01-18 19:44:20.87	327.15	12.55	
2025-01-18 19:44:22.09	327.30	12.45	
2025-01-18 19:44:23.31	327.44	12.34	
2025-01-18 19:44:24.53	327.58	12.23	
2025-01-18 19:44:25.75	327.72	12.12	
2025-01-18 19:44:26.97	327.85	12.02	
2025-01-18 19:44:28.19	327.99	11.91	
2025-01-18 19:44:29.40	328.12	11.81	
2025-01-18 19:44:30.62	328.26	11.70	
2025-01-18 19:44:31.84	328.39	11.60	
2025-01-18 19:44:33.06	328.52	11.49	
2025-01-18 19:44:34.28	328.66	11.39	
2025-01-18 19:44:35.50	328.79	11.28	
2025-01-18 19:44:36.71	328.91	11.18	
2025-01-18 19:44:37.93	329.04	11.08	
2025-01-18 19:44:39.15	329.17	10.97	
2025-01-18 19:44:40.37	329.30	10.87	
2025-01-18 19:44:41.59	329.42	10.77	
2025-01-18 19:44:42.81	329.55	10.67	
2025-01-18 19:44:44.02	329.67	10.57	
2025-01-18 19:44:45.24	329.80	10.47	
2025-01-18 19:44:46.46	329.92	10.37	
2025-01-18 19:44:47.68	330.04	10.27	
2025-01-18 19:44:48.90	330.16	10.17	
2025-01-18 19:44:50.12	330.28	10.07	
2025-01-18 19:44:51.33	330.40	9.97	
2025-01-18 19:44:52.55	330.52	9.87	
2025-01-18 19:44:53.77	330.63	9.77	
2025-01-18 19:44:54.99	330.75	9.67	
2025-01-18 19:44:56.21	330.87	9.57	
2025-01-18 19:44:57.43	330.98	9.48	
2025-01-18 19:44:58.65	331.09	9.38	
2025-01-18 19:44:59.86	331.21	9.28	
2025-01-18 19:45:01.08	331.32	9.19	
2025-01-18 19:45:02.30	331.43	9.09	
2025-01-18 19:45:03.52	331.54	8.99	
2025-01-18 19:45:04.74	331.65	8.90	
2025-01-18 19:45:05.96	331.76	8.80	
2025-01-18 19:45:07.17	331.87	8.71	
2025-01-18 19:45:08.39	331.98	8.61	
2025-01-18 19:45:09.61	332.09	8.52	
2025-01-18 19:45:10.83	332.19	8.43	
2025-01-18 19:45:12.05	332.30	8.33	
2025-01-18 19:45:13.27	332.40	8.24	
2025-01-18 19:45:14.48	332.51	8.15	
2025-01-18 19:45:15.70	332.61	8.05	
2025-01-18 19:45:16.92	332.72	7.96	
2025-01-18 19:45:18.14	332.82	7.87	
2025-01-18 19:45:19.36	332.92	7.78	
2025-01-18 19:45:20.58	333.02	7.69	
2025-01-18 19:45:21.79	333.12	7.60	
2025-01-18 19:45:23.01	333.22	7.50	
2025-01-18 19:45:24.23	333.32	7.41	
2025-01-18 19:45:25.45	333.42	7.32	
2025-01-18 19:45:26.67	333.52	7.23	
2025-01-18 19:45:27.89	333.62	7.14	
2025-01-18 19:45:29.11	333.71	7.05	
2025-01-18 19:45:30.32	333.81	6.97	
2025-01-18 19:45:31.54	333.90	6.88	
2025-01-18 19:45:32.76	334.00	6.79	
2025-01-18 19:45:33.98	334.09	6.70	
2025-01-18 19:45:35.20	334.19	6.61	
2025-01-18 19:45:36.42	334.28	6.52	
2025-01-18 19:45:37.63	334.37	6.44	
2025-01-18 19:45:38.85	334.47	6.35	
2025-01-18 19:45:40.07	334.56	6.26	
2025-01-18 19:45:41.29	334.65	6.18	
2025-01-18 19:45:42.51	334.74	6.09	
2025-01-18 19:45:43.73	334.83	6.00	
2025-01-18 19:45:44.94	334.92	5.92	
2025-01-18 19:45:46.16	335.01	5.83	
2025-01-18 19:45:47.38	335.09	5.75	
2025-01-18 19:45:48.60	335.18	5.66	
2025-01-18 19:45:49.82	335.27	5.58	
2025-01-18 19:45:51.04	335.36	5.49	
2025-01-18 19:45:52.25	335.44	5.41	
2025-01-18 19:45:53.47	335.53	5.33	
2025-01-18 19:45:54.69	335.61	5.24	
2025-01-18 19:45:55.91	335.70	5.16	
2025-01-18 19:45:57.13	335.78	5.07	
2025-01-18 19:45:58.35	335.87	4.99	
2025-01-18 19:45:59.57	335.95	4.91	
2025-01-18 19:46:00.78	336.03	4.83	
2025-01-18 19:46:02.00	336.11	4.74	
2025-01-18 19:46:03.22	336.20	4.66	
2025-01-18 19:46:04.44	336.28	4.58	
2025-01-18 19:46:05.66	336.36	4.50	
2025-01-18 19:46:06.88	336.44	4.42	
2025-01-18 19:46:08.09	336.52	4.34	
2025-01-18 19:46:09.31	336.60	4.26	
2025-01-18 19:46:10.53	336.68	4.17	
2025-01-18 19:46:11.75	336.76	4.09	
2025-01-18 19:46:12.97	336.84	4.01	

#Closed at: 2025-01-18 19:46:13