passes_logs/2025/01/18/SPB_Silybum_02/SPB_Silybum_02__20250118_073222_SUOMI_NPP_rec.log

#Pass ID: 20250118_073222_SUOMI NPP
#Satellite: SUOMI NPP
#Configuration: NPP
#Start time: 2025-01-18 07:32:21

#Version: 2.0.20230423
#Station: SPB_Silybum_02
#Location: 30.233357 lon 59.946436 lat
#TLE: 1 37849U 11061A   25017.80975554  .00000187  00000+0  10930-3 0  9999
#TLE: 2 37849  98.7450 318.7628 0001577  36.7528 323.3756 14.19539590685310

#Time	Az	El	Level	Level2	SNR	BER	Gain	Gain2
2025-01-18 07:32:23.28	80.60	4.06	
2025-01-18 07:32:24.29	80.50	4.11	
2025-01-18 07:32:25.31	80.40	4.17	
2025-01-18 07:32:26.32	80.30	4.22	
2025-01-18 07:32:27.34	80.20	4.27	
2025-01-18 07:32:28.35	80.09	4.32	
2025-01-18 07:32:29.37	79.99	4.37	
2025-01-18 07:32:30.38	79.89	4.42	
2025-01-18 07:32:31.40	79.78	4.47	
2025-01-18 07:32:32.42	79.68	4.53	
2025-01-18 07:32:33.43	79.57	4.58	
2025-01-18 07:32:34.45	79.47	4.63	
2025-01-18 07:32:35.46	79.36	4.68	
2025-01-18 07:32:36.48	79.25	4.73	
2025-01-18 07:32:37.49	79.15	4.78	
2025-01-18 07:32:38.51	79.04	4.84	
2025-01-18 07:32:39.52	78.93	4.89	
2025-01-18 07:32:40.54	78.83	4.94	
2025-01-18 07:32:41.55	78.72	4.99	
2025-01-18 07:32:42.57	78.61	5.04	
2025-01-18 07:32:43.59	78.50	5.09	
2025-01-18 07:32:44.60	78.39	5.14	
2025-01-18 07:32:45.62	78.28	5.20	
2025-01-18 07:32:46.63	78.17	5.25	
2025-01-18 07:32:47.65	78.06	5.30	
2025-01-18 07:32:48.66	77.95	5.35	
2025-01-18 07:32:49.68	77.84	5.40	
2025-01-18 07:32:50.69	77.73	5.45	
2025-01-18 07:32:51.71	77.62	5.51	
2025-01-18 07:32:52.73	77.50	5.56	
2025-01-18 07:32:53.74	77.39	5.61	
2025-01-18 07:32:54.76	77.28	5.66	
2025-01-18 07:32:55.77	77.16	5.71	
2025-01-18 07:32:56.79	77.05	5.76	
2025-01-18 07:32:57.80	76.94	5.81	
2025-01-18 07:32:58.82	76.82	5.87	
2025-01-18 07:32:59.83	76.71	5.92	
2025-01-18 07:33:00.85	76.59	5.97	
2025-01-18 07:33:01.87	76.47	6.02	
2025-01-18 07:33:02.88	76.36	6.07	
2025-01-18 07:33:03.90	76.24	6.12	
2025-01-18 07:33:04.91	76.12	6.18	
2025-01-18 07:33:05.93	76.00	6.23	
2025-01-18 07:33:06.94	75.89	6.28	
2025-01-18 07:33:07.96	75.77	6.33	
2025-01-18 07:33:08.97	75.65	6.38	
2025-01-18 07:33:09.99	75.53	6.43	
2025-01-18 07:33:11.01	75.41	6.48	
2025-01-18 07:33:12.02	75.29	6.54	
2025-01-18 07:33:13.04	75.17	6.59	
2025-01-18 07:33:14.05	75.05	6.64	
2025-01-18 07:33:15.07	74.92	6.69	
2025-01-18 07:33:16.08	74.80	6.74	
2025-01-18 07:33:17.10	74.68	6.79	
2025-01-18 07:33:18.11	74.56	6.84	
2025-01-18 07:33:19.13	74.43	6.90	
2025-01-18 07:33:20.15	74.31	6.95	
2025-01-18 07:33:21.16	74.18	7.00	
2025-01-18 07:33:22.18	74.06	7.05	
2025-01-18 07:33:23.19	73.93	7.10	
2025-01-18 07:33:24.21	73.81	7.15	
2025-01-18 07:33:25.22	73.68	7.20	
2025-01-18 07:33:26.24	73.56	7.25	
2025-01-18 07:33:27.25	73.43	7.30	
2025-01-18 07:33:28.27	73.30	7.36	
2025-01-18 07:33:29.29	73.17	7.41	
2025-01-18 07:33:30.30	73.04	7.46	
2025-01-18 07:33:31.32	72.92	7.51	
2025-01-18 07:33:32.33	72.79	7.56	
2025-01-18 07:33:33.35	72.66	7.61	
2025-01-18 07:33:34.36	72.53	7.66	
2025-01-18 07:33:35.38	72.40	7.71	
2025-01-18 07:33:36.39	72.26	7.76	
2025-01-18 07:33:37.41	72.13	7.81	
2025-01-18 07:33:38.43	72.00	7.86	
2025-01-18 07:33:39.44	71.87	7.91	
2025-01-18 07:33:40.46	71.73	7.96	
2025-01-18 07:33:41.47	71.60	8.01	
2025-01-18 07:33:42.49	71.47	8.07	
2025-01-18 07:33:43.50	71.33	8.12	
2025-01-18 07:33:44.52	71.20	8.17	
2025-01-18 07:33:45.53	71.06	8.22	
2025-01-18 07:33:46.55	70.93	8.27	
2025-01-18 07:33:47.57	70.79	8.32	
2025-01-18 07:33:48.58	70.65	8.37	
2025-01-18 07:33:49.60	70.51	8.42	
2025-01-18 07:33:50.61	70.38	8.47	
2025-01-18 07:33:51.63	70.24	8.52	
2025-01-18 07:33:52.64	70.10	8.57	
2025-01-18 07:33:53.66	69.96	8.62	
2025-01-18 07:33:54.67	69.82	8.67	
2025-01-18 07:33:55.69	69.68	8.72	
2025-01-18 07:33:56.71	69.54	8.77	
2025-01-18 07:33:57.72	69.40	8.82	
2025-01-18 07:33:58.74	69.26	8.87	
2025-01-18 07:33:59.75	69.12	8.91	
2025-01-18 07:34:00.77	68.97	8.96	
2025-01-18 07:34:01.78	68.83	9.01	
2025-01-18 07:34:02.80	68.69	9.06	
2025-01-18 07:34:03.81	68.54	9.11	
2025-01-18 07:34:04.83	68.40	9.16	
2025-01-18 07:34:05.84	68.25	9.21	
2025-01-18 07:34:06.86	68.11	9.26	
2025-01-18 07:34:07.88	67.96	9.31	
2025-01-18 07:34:08.89	67.81	9.36	
2025-01-18 07:34:09.91	67.67	9.41	
2025-01-18 07:34:10.92	67.52	9.45	
2025-01-18 07:34:11.94	67.37	9.50	
2025-01-18 07:34:12.95	67.22	9.55	
2025-01-18 07:34:13.97	67.07	9.60	
2025-01-18 07:34:14.98	66.92	9.65	
2025-01-18 07:34:16.00	66.77	9.70	
2025-01-18 07:34:17.02	66.62	9.74	
2025-01-18 07:34:18.03	66.47	9.79	
2025-01-18 07:34:19.05	66.32	9.84	
2025-01-18 07:34:20.06	66.17	9.89	
2025-01-18 07:34:21.08	66.01	9.93	
2025-01-18 07:34:22.09	65.86	9.98	
2025-01-18 07:34:23.11	65.71	10.03	
2025-01-18 07:34:24.12	65.55	10.08	
2025-01-18 07:34:25.14	65.40	10.12	
2025-01-18 07:34:26.16	65.24	10.17	
2025-01-18 07:34:27.17	65.09	10.22	
2025-01-18 07:34:28.19	64.93	10.26	
2025-01-18 07:34:29.20	64.78	10.31	
2025-01-18 07:34:30.22	64.62	10.36	
2025-01-18 07:34:31.23	64.46	10.40	
2025-01-18 07:34:32.25	64.30	10.45	
2025-01-18 07:34:33.26	64.14	10.50	
2025-01-18 07:34:34.28	63.98	10.54	
2025-01-18 07:34:35.30	63.82	10.59	
2025-01-18 07:34:36.31	63.66	10.63	
2025-01-18 07:34:37.33	63.50	10.68	
2025-01-18 07:34:38.34	63.34	10.73	
2025-01-18 07:34:39.36	63.18	10.77	
2025-01-18 07:34:40.37	63.02	10.82	
2025-01-18 07:34:41.39	62.85	10.86	
2025-01-18 07:34:42.40	62.69	10.91	
2025-01-18 07:34:43.42	62.53	10.95	
2025-01-18 07:34:44.44	62.36	11.00	
2025-01-18 07:34:45.45	62.20	11.04	
2025-01-18 07:34:46.47	62.03	11.09	
2025-01-18 07:34:47.48	61.87	11.13	
2025-01-18 07:34:48.50	61.70	11.17	
2025-01-18 07:34:49.51	61.53	11.22	
2025-01-18 07:34:50.53	61.37	11.26	
2025-01-18 07:34:51.54	61.20	11.31	
2025-01-18 07:34:52.56	61.03	11.35	
2025-01-18 07:34:53.58	60.86	11.39	
2025-01-18 07:34:54.59	60.69	11.44	
2025-01-18 07:34:55.61	60.52	11.48	
2025-01-18 07:34:56.62	60.35	11.52	
2025-01-18 07:34:57.64	60.18	11.56	
2025-01-18 07:34:58.65	60.01	11.61	
2025-01-18 07:34:59.67	59.84	11.65	
2025-01-18 07:35:00.68	59.67	11.69	
2025-01-18 07:35:01.70	59.49	11.73	
2025-01-18 07:35:02.72	59.32	11.78	
2025-01-18 07:35:03.73	59.15	11.82	
2025-01-18 07:35:04.75	58.97	11.86	
2025-01-18 07:35:05.76	58.80	11.90	
2025-01-18 07:35:06.78	58.62	11.94	
2025-01-18 07:35:07.79	58.45	11.98	
2025-01-18 07:35:08.81	58.27	12.02	
2025-01-18 07:35:09.82	58.09	12.06	
2025-01-18 07:35:10.84	57.91	12.10	
2025-01-18 07:35:11.86	57.74	12.14	
2025-01-18 07:35:12.87	57.56	12.18	
2025-01-18 07:35:13.89	57.38	12.22	
2025-01-18 07:35:14.90	57.20	12.26	
2025-01-18 07:35:15.92	57.02	12.30	
2025-01-18 07:35:16.93	56.84	12.34	
2025-01-18 07:35:17.95	56.66	12.38	
2025-01-18 07:35:18.96	56.48	12.42	
2025-01-18 07:35:19.98	56.30	12.45	
2025-01-18 07:35:21.00	56.11	12.49	
2025-01-18 07:35:22.01	55.93	12.53	
2025-01-18 07:35:23.03	55.75	12.57	
2025-01-18 07:35:24.04	55.56	12.61	
2025-01-18 07:35:25.06	55.38	12.64	
2025-01-18 07:35:26.07	55.20	12.68	
2025-01-18 07:35:27.09	55.01	12.72	
2025-01-18 07:35:28.10	54.83	12.75	
2025-01-18 07:35:29.12	54.64	12.79	
2025-01-18 07:35:30.13	54.45	12.82	
2025-01-18 07:35:31.15	54.27	12.86	
2025-01-18 07:35:32.17	54.08	12.90	
2025-01-18 07:35:33.18	53.89	12.93	
2025-01-18 07:35:34.20	53.70	12.97	
2025-01-18 07:35:35.21	53.52	13.00	
2025-01-18 07:35:36.23	53.33	13.04	
2025-01-18 07:35:37.24	53.14	13.07	
2025-01-18 07:35:38.26	52.95	13.10	
2025-01-18 07:35:39.27	52.76	13.14	
2025-01-18 07:35:40.29	52.56	13.17	
2025-01-18 07:35:41.31	52.37	13.20	
2025-01-18 07:35:42.32	52.18	13.24	
2025-01-18 07:35:43.34	51.99	13.27	
2025-01-18 07:35:44.35	51.80	13.30	
2025-01-18 07:35:45.37	51.60	13.33	
2025-01-18 07:35:46.38	51.41	13.37	
2025-01-18 07:35:47.40	51.22	13.40	
2025-01-18 07:35:48.41	51.02	13.43	
2025-01-18 07:35:49.43	50.83	13.46	
2025-01-18 07:35:50.45	50.63	13.49	
2025-01-18 07:35:51.46	50.44	13.52	
2025-01-18 07:35:52.48	50.24	13.55	
2025-01-18 07:35:53.49	50.05	13.58	
2025-01-18 07:35:54.51	49.85	13.61	
2025-01-18 07:35:55.52	49.65	13.64	
2025-01-18 07:35:56.54	49.45	13.67	
2025-01-18 07:35:57.55	49.26	13.70	
2025-01-18 07:35:58.57	49.06	13.72	
2025-01-18 07:35:59.59	48.86	13.75	
2025-01-18 07:36:00.60	48.66	13.78	
2025-01-18 07:36:01.62	48.46	13.81	
2025-01-18 07:36:02.63	48.26	13.83	
2025-01-18 07:36:03.65	48.06	13.86	
2025-01-18 07:36:04.66	47.86	13.89	
2025-01-18 07:36:05.68	47.66	13.91	
2025-01-18 07:36:06.69	47.46	13.94	
2025-01-18 07:36:07.71	47.26	13.96	
2025-01-18 07:36:08.73	47.06	13.99	
2025-01-18 07:36:09.74	46.85	14.01	
2025-01-18 07:36:10.76	46.65	14.04	
2025-01-18 07:36:11.77	46.45	14.06	
2025-01-18 07:36:12.79	46.25	14.09	
2025-01-18 07:36:13.80	46.04	14.11	
2025-01-18 07:36:14.82	45.84	14.13	
2025-01-18 07:36:15.83	45.64	14.15	
2025-01-18 07:36:16.85	45.43	14.18	
2025-01-18 07:36:17.87	45.23	14.20	
2025-01-18 07:36:18.88	45.02	14.22	
2025-01-18 07:36:19.90	44.82	14.24	
2025-01-18 07:36:20.91	44.61	14.26	
2025-01-18 07:36:21.93	44.40	14.28	
2025-01-18 07:36:22.94	44.20	14.30	
2025-01-18 07:36:23.96	43.99	14.32	
2025-01-18 07:36:24.97	43.79	14.34	
2025-01-18 07:36:25.99	43.58	14.36	
2025-01-18 07:36:27.01	43.37	14.38	
2025-01-18 07:36:28.02	43.16	14.40	
2025-01-18 07:36:29.04	42.95	14.42	
2025-01-18 07:36:30.05	42.75	14.44	
2025-01-18 07:36:31.07	42.54	14.45	
2025-01-18 07:36:32.08	42.33	14.47	
2025-01-18 07:36:33.10	42.12	14.49	
2025-01-18 07:36:34.11	41.91	14.50	
2025-01-18 07:36:35.13	41.70	14.52	
2025-01-18 07:36:36.15	41.49	14.53	
2025-01-18 07:36:37.16	41.28	14.55	
2025-01-18 07:36:38.18	41.07	14.56	
2025-01-18 07:36:39.19	40.87	14.58	
2025-01-18 07:36:40.21	40.65	14.59	
2025-01-18 07:36:41.22	40.44	14.61	
2025-01-18 07:36:42.24	40.23	14.62	
2025-01-18 07:36:43.25	40.02	14.63	
2025-01-18 07:36:44.27	39.81	14.65	
2025-01-18 07:36:45.29	39.60	14.66	
2025-01-18 07:36:46.30	39.39	14.67	
2025-01-18 07:36:47.32	39.18	14.68	
2025-01-18 07:36:48.33	38.97	14.69	
2025-01-18 07:36:49.35	38.75	14.70	
2025-01-18 07:36:50.36	38.54	14.71	
2025-01-18 07:36:51.38	38.33	14.72	
2025-01-18 07:36:52.39	38.12	14.73	
2025-01-18 07:36:53.41	37.91	14.74	
2025-01-18 07:36:54.42	37.69	14.75	
2025-01-18 07:36:55.44	37.48	14.76	
2025-01-18 07:36:56.46	37.27	14.77	
2025-01-18 07:36:57.47	37.06	14.77	
2025-01-18 07:36:58.49	36.84	14.78	
2025-01-18 07:36:59.50	36.63	14.79	
2025-01-18 07:37:00.52	36.42	14.79	
2025-01-18 07:37:01.53	36.20	14.80	
2025-01-18 07:37:02.55	35.99	14.80	
2025-01-18 07:37:03.56	35.78	14.81	
2025-01-18 07:37:04.58	35.56	14.81	
2025-01-18 07:37:05.60	35.35	14.82	
2025-01-18 07:37:06.61	35.14	14.82	
2025-01-18 07:37:07.63	34.92	14.83	
2025-01-18 07:37:08.64	34.71	14.83	
2025-01-18 07:37:09.66	34.49	14.83	
2025-01-18 07:37:10.67	34.28	14.83	
2025-01-18 07:37:11.69	34.07	14.84	
2025-01-18 07:37:12.70	33.85	14.84	
2025-01-18 07:37:13.72	33.64	14.84	
2025-01-18 07:37:14.74	33.42	14.84	
2025-01-18 07:37:15.75	33.21	14.84	
2025-01-18 07:37:16.77	33.00	14.84	
2025-01-18 07:37:17.78	32.79	14.84	
2025-01-18 07:37:18.80	32.57	14.84	
2025-01-18 07:37:19.81	32.36	14.84	
2025-01-18 07:37:20.83	32.14	14.84	
2025-01-18 07:37:21.84	31.93	14.83	
2025-01-18 07:37:22.86	31.72	14.83	
2025-01-18 07:37:23.88	31.50	14.83	
2025-01-18 07:37:24.89	31.29	14.82	
2025-01-18 07:37:25.91	31.07	14.82	
2025-01-18 07:37:26.92	30.86	14.82	
2025-01-18 07:37:27.94	30.65	14.81	
2025-01-18 07:37:28.95	30.44	14.81	
2025-01-18 07:37:29.97	30.22	14.80	
2025-01-18 07:37:30.98	30.01	14.80	
2025-01-18 07:37:32.00	29.80	14.79	
2025-01-18 07:37:33.02	29.58	14.78	
2025-01-18 07:37:34.03	29.37	14.78	
2025-01-18 07:37:35.05	29.16	14.77	
2025-01-18 07:37:36.06	28.94	14.76	
2025-01-18 07:37:37.08	28.73	14.75	
2025-01-18 07:37:38.09	28.52	14.75	
2025-01-18 07:37:39.11	28.31	14.74	
2025-01-18 07:37:40.12	28.10	14.73	
2025-01-18 07:37:41.14	27.88	14.72	
2025-01-18 07:37:42.16	27.67	14.71	
2025-01-18 07:37:43.17	27.46	14.70	
2025-01-18 07:37:44.19	27.25	14.69	
2025-01-18 07:37:45.20	27.04	14.68	
2025-01-18 07:37:46.22	26.82	14.67	
2025-01-18 07:37:47.23	26.61	14.65	
2025-01-18 07:37:48.25	26.40	14.64	
2025-01-18 07:37:49.26	26.19	14.63	
2025-01-18 07:37:50.28	25.98	14.62	
2025-01-18 07:37:51.30	25.77	14.60	
2025-01-18 07:37:52.31	25.56	14.59	
2025-01-18 07:37:53.33	25.35	14.57	
2025-01-18 07:37:54.34	25.14	14.56	
2025-01-18 07:37:55.36	24.93	14.54	
2025-01-18 07:37:56.37	24.72	14.53	
2025-01-18 07:37:57.39	24.51	14.51	
2025-01-18 07:37:58.40	24.31	14.50	
2025-01-18 07:37:59.42	24.10	14.48	
2025-01-18 07:38:00.44	23.89	14.46	
2025-01-18 07:38:01.45	23.68	14.45	
2025-01-18 07:38:02.47	23.47	14.43	
2025-01-18 07:38:03.48	23.26	14.41	
2025-01-18 07:38:04.50	23.06	14.39	
2025-01-18 07:38:05.51	22.85	14.37	
2025-01-18 07:38:06.53	22.64	14.36	
2025-01-18 07:38:07.54	22.44	14.34	
2025-01-18 07:38:08.56	22.23	14.32	
2025-01-18 07:38:09.58	22.02	14.30	
2025-01-18 07:38:10.59	21.82	14.28	
2025-01-18 07:38:11.61	21.61	14.26	
2025-01-18 07:38:12.62	21.41	14.23	
2025-01-18 07:38:13.64	21.20	14.21	
2025-01-18 07:38:14.65	21.00	14.19	
2025-01-18 07:38:15.67	20.79	14.17	
2025-01-18 07:38:16.68	20.59	14.15	
2025-01-18 07:38:17.70	20.39	14.12	
2025-01-18 07:38:18.71	20.18	14.10	
2025-01-18 07:38:19.73	19.98	14.08	
2025-01-18 07:38:20.75	19.78	14.05	
2025-01-18 07:38:21.76	19.57	14.03	
2025-01-18 07:38:22.78	19.37	14.01	
2025-01-18 07:38:23.79	19.17	13.98	
2025-01-18 07:38:24.81	18.97	13.96	
2025-01-18 07:38:25.82	18.77	13.93	
2025-01-18 07:38:26.84	18.57	13.90	
2025-01-18 07:38:27.85	18.37	13.88	
2025-01-18 07:38:28.87	18.17	13.85	
2025-01-18 07:38:29.89	17.97	13.82	
2025-01-18 07:38:30.90	17.77	13.80	
2025-01-18 07:38:31.92	17.57	13.77	
2025-01-18 07:38:32.93	17.37	13.74	
2025-01-18 07:38:33.95	17.17	13.71	
2025-01-18 07:38:34.96	16.98	13.69	
2025-01-18 07:38:35.98	16.78	13.66	
2025-01-18 07:38:36.99	16.58	13.63	
2025-01-18 07:38:38.01	16.39	13.60	
2025-01-18 07:38:39.03	16.19	13.57	
2025-01-18 07:38:40.04	16.00	13.54	
2025-01-18 07:38:41.06	15.80	13.51	
2025-01-18 07:38:42.07	15.61	13.48	
2025-01-18 07:38:43.09	15.41	13.45	
2025-01-18 07:38:44.10	15.22	13.42	
2025-01-18 07:38:45.12	15.02	13.39	
2025-01-18 07:38:46.13	14.83	13.36	
2025-01-18 07:38:47.15	14.64	13.32	
2025-01-18 07:38:48.17	14.44	13.29	
2025-01-18 07:38:49.18	14.25	13.26	
2025-01-18 07:38:50.20	14.06	13.23	
2025-01-18 07:38:51.21	13.87	13.19	
2025-01-18 07:38:52.23	13.68	13.16	
2025-01-18 07:38:53.24	13.49	13.13	
2025-01-18 07:38:54.26	13.30	13.09	
2025-01-18 07:38:55.27	13.11	13.06	
2025-01-18 07:38:56.29	12.92	13.03	
2025-01-18 07:38:57.31	12.73	12.99	
2025-01-18 07:38:58.32	12.55	12.96	
2025-01-18 07:38:59.34	12.36	12.92	
2025-01-18 07:39:00.35	12.17	12.89	
2025-01-18 07:39:01.37	11.98	12.85	
2025-01-18 07:39:02.38	11.80	12.82	
2025-01-18 07:39:03.40	11.61	12.78	
2025-01-18 07:39:04.41	11.43	12.74	
2025-01-18 07:39:05.43	11.24	12.71	
2025-01-18 07:39:06.45	11.06	12.67	
2025-01-18 07:39:07.46	10.87	12.63	
2025-01-18 07:39:08.48	10.69	12.60	
2025-01-18 07:39:09.51	10.50	12.56	
2025-01-18 07:39:10.52	10.32	12.52	
2025-01-18 07:39:11.54	10.14	12.48	
2025-01-18 07:39:12.55	9.96	12.44	
2025-01-18 07:39:13.57	9.78	12.41	
2025-01-18 07:39:14.59	9.60	12.37	
2025-01-18 07:39:15.60	9.42	12.33	
2025-01-18 07:39:16.62	9.24	12.29	
2025-01-18 07:39:17.63	9.06	12.25	
2025-01-18 07:39:18.65	8.88	12.21	
2025-01-18 07:39:19.66	8.70	12.17	
2025-01-18 07:39:20.68	8.53	12.13	
2025-01-18 07:39:21.69	8.35	12.09	
2025-01-18 07:39:22.71	8.17	12.05	
2025-01-18 07:39:23.73	8.00	12.01	
2025-01-18 07:39:24.74	7.82	11.97	
2025-01-18 07:39:25.76	7.64	11.93	
2025-01-18 07:39:26.77	7.47	11.89	
2025-01-18 07:39:27.79	7.30	11.85	
2025-01-18 07:39:28.80	7.12	11.81	
2025-01-18 07:39:29.82	6.95	11.76	
2025-01-18 07:39:30.83	6.78	11.72	
2025-01-18 07:39:31.85	6.61	11.68	
2025-01-18 07:39:32.87	6.43	11.64	
2025-01-18 07:39:33.88	6.26	11.60	
2025-01-18 07:39:34.90	6.09	11.55	
2025-01-18 07:39:35.91	5.92	11.51	
2025-01-18 07:39:36.93	5.75	11.47	
2025-01-18 07:39:37.94	5.58	11.43	
2025-01-18 07:39:38.96	5.41	11.38	
2025-01-18 07:39:39.97	5.25	11.34	
2025-01-18 07:39:40.99	5.08	11.30	
2025-01-18 07:39:42.00	4.91	11.25	
2025-01-18 07:39:43.02	4.75	11.21	
2025-01-18 07:39:44.04	4.58	11.16	
2025-01-18 07:39:45.05	4.41	11.12	
2025-01-18 07:39:46.07	4.25	11.08	
2025-01-18 07:39:47.08	4.08	11.03	
2025-01-18 07:39:48.10	3.92	10.99	
2025-01-18 07:39:49.11	3.76	10.94	
2025-01-18 07:39:50.13	3.59	10.90	
2025-01-18 07:39:51.14	3.43	10.85	
2025-01-18 07:39:52.16	3.27	10.81	
2025-01-18 07:39:53.18	3.11	10.76	
2025-01-18 07:39:54.19	2.95	10.72	
2025-01-18 07:39:55.21	2.79	10.67	
2025-01-18 07:39:56.22	2.63	10.63	
2025-01-18 07:39:57.24	2.47	10.58	
2025-01-18 07:39:58.25	2.31	10.53	
2025-01-18 07:39:59.27	2.15	10.49	
2025-01-18 07:40:00.28	1.99	10.44	
2025-01-18 07:40:01.30	1.83	10.40	
2025-01-18 07:40:02.32	1.68	10.35	
2025-01-18 07:40:03.33	1.52	10.30	
2025-01-18 07:40:04.35	1.37	10.26	
2025-01-18 07:40:05.36	1.21	10.21	
2025-01-18 07:40:06.38	1.06	10.16	
2025-01-18 07:40:07.39	0.90	10.12	
2025-01-18 07:40:08.41	0.75	10.07	
2025-01-18 07:40:09.42	0.59	10.02	
2025-01-18 07:40:10.44	0.44	9.97	
2025-01-18 07:40:11.46	0.29	9.93	
2025-01-18 07:40:12.47	0.14	9.88	
2025-01-18 07:40:13.49	359.99	9.83	
2025-01-18 07:40:14.50	359.84	9.78	
2025-01-18 07:40:15.52	359.68	9.74	
2025-01-18 07:40:16.53	359.54	9.69	
2025-01-18 07:40:17.55	359.39	9.64	
2025-01-18 07:40:18.56	359.24	9.59	
2025-01-18 07:40:19.58	359.09	9.54	
2025-01-18 07:40:20.60	358.94	9.49	
2025-01-18 07:40:21.61	358.79	9.45	
2025-01-18 07:40:22.63	358.65	9.40	
2025-01-18 07:40:23.64	358.50	9.35	
2025-01-18 07:40:24.66	358.35	9.30	
2025-01-18 07:40:25.67	358.21	9.25	
2025-01-18 07:40:26.69	358.06	9.20	
2025-01-18 07:40:27.70	357.92	9.15	
2025-01-18 07:40:28.72	357.78	9.11	
2025-01-18 07:40:29.74	357.63	9.06	
2025-01-18 07:40:30.75	357.49	9.01	
2025-01-18 07:40:31.77	357.35	8.96	
2025-01-18 07:40:32.78	357.21	8.91	
2025-01-18 07:40:33.80	357.07	8.86	
2025-01-18 07:40:34.81	356.93	8.81	
2025-01-18 07:40:35.83	356.78	8.76	
2025-01-18 07:40:36.84	356.65	8.71	
2025-01-18 07:40:37.86	356.51	8.66	
2025-01-18 07:40:38.88	356.37	8.61	
2025-01-18 07:40:39.89	356.23	8.56	
2025-01-18 07:40:40.91	356.09	8.51	
2025-01-18 07:40:41.92	355.95	8.46	
2025-01-18 07:40:42.94	355.82	8.41	
2025-01-18 07:40:43.95	355.68	8.36	
2025-01-18 07:40:44.97	355.54	8.31	
2025-01-18 07:40:45.98	355.41	8.26	
2025-01-18 07:40:47.00	355.27	8.21	
2025-01-18 07:40:48.02	355.14	8.16	
2025-01-18 07:40:49.03	355.00	8.11	
2025-01-18 07:40:50.05	354.87	8.06	
2025-01-18 07:40:51.06	354.74	8.01	
2025-01-18 07:40:52.08	354.60	7.96	
2025-01-18 07:40:53.09	354.47	7.91	
2025-01-18 07:40:54.11	354.34	7.86	
2025-01-18 07:40:55.12	354.21	7.81	
2025-01-18 07:40:56.14	354.08	7.76	
2025-01-18 07:40:57.16	353.95	7.71	
2025-01-18 07:40:58.17	353.82	7.66	
2025-01-18 07:40:59.19	353.69	7.61	
2025-01-18 07:41:00.20	353.56	7.56	
2025-01-18 07:41:01.22	353.43	7.51	
2025-01-18 07:41:02.23	353.30	7.45	
2025-01-18 07:41:03.25	353.18	7.40	
2025-01-18 07:41:04.26	353.05	7.35	
2025-01-18 07:41:05.28	352.92	7.30	
2025-01-18 07:41:06.30	352.80	7.25	
2025-01-18 07:41:07.31	352.67	7.20	
2025-01-18 07:41:08.33	352.54	7.15	
2025-01-18 07:41:09.34	352.42	7.10	
2025-01-18 07:41:10.36	352.30	7.05	
2025-01-18 07:41:11.37	352.17	7.00	
2025-01-18 07:41:12.39	352.05	6.94	
2025-01-18 07:41:13.40	351.93	6.89	
2025-01-18 07:41:14.42	351.80	6.84	
2025-01-18 07:41:15.43	351.68	6.79	
2025-01-18 07:41:16.45	351.56	6.74	
2025-01-18 07:41:17.47	351.44	6.69	
2025-01-18 07:41:18.48	351.32	6.64	
2025-01-18 07:41:19.50	351.20	6.59	
2025-01-18 07:41:20.51	351.08	6.54	
2025-01-18 07:41:21.53	350.96	6.48	
2025-01-18 07:41:22.54	350.84	6.43	
2025-01-18 07:41:23.56	350.72	6.38	
2025-01-18 07:41:24.57	350.60	6.33	
2025-01-18 07:41:25.59	350.48	6.28	
2025-01-18 07:41:26.61	350.37	6.23	
2025-01-18 07:41:27.62	350.25	6.18	
2025-01-18 07:41:28.64	350.13	6.12	
2025-01-18 07:41:29.65	350.02	6.07	
2025-01-18 07:41:30.67	349.90	6.02	
2025-01-18 07:41:31.68	349.79	5.97	
2025-01-18 07:41:32.70	349.67	5.92	
2025-01-18 07:41:33.71	349.56	5.87	
2025-01-18 07:41:34.73	349.44	5.82	
2025-01-18 07:41:35.75	349.33	5.76	
2025-01-18 07:41:36.76	349.22	5.71	
2025-01-18 07:41:37.78	349.10	5.66	
2025-01-18 07:41:38.79	348.99	5.61	
2025-01-18 07:41:39.81	348.88	5.56	
2025-01-18 07:41:40.82	348.77	5.51	
2025-01-18 07:41:41.84	348.66	5.46	
2025-01-18 07:41:42.85	348.55	5.40	
2025-01-18 07:41:43.87	348.43	5.35	
2025-01-18 07:41:44.89	348.32	5.30	
2025-01-18 07:41:45.90	348.22	5.25	
2025-01-18 07:41:46.92	348.11	5.20	
2025-01-18 07:41:47.93	348.00	5.15	
2025-01-18 07:41:48.95	347.89	5.10	
2025-01-18 07:41:49.96	347.78	5.04	
2025-01-18 07:41:50.98	347.67	4.99	
2025-01-18 07:41:51.99	347.57	4.94	
2025-01-18 07:41:53.01	347.46	4.89	
2025-01-18 07:41:54.03	347.35	4.84	
2025-01-18 07:41:55.04	347.25	4.79	
2025-01-18 07:41:56.06	347.14	4.74	
2025-01-18 07:41:57.07	347.04	4.68	
2025-01-18 07:41:58.09	346.93	4.63	
2025-01-18 07:41:59.10	346.83	4.58	
2025-01-18 07:42:00.12	346.72	4.53	
2025-01-18 07:42:01.13	346.62	4.48	
2025-01-18 07:42:02.15	346.52	4.43	
2025-01-18 07:42:03.17	346.41	4.38	
2025-01-18 07:42:04.18	346.31	4.33	
2025-01-18 07:42:05.20	346.21	4.27	
2025-01-18 07:42:06.21	346.11	4.22	
2025-01-18 07:42:07.23	346.00	4.17	
2025-01-18 07:42:08.24	345.90	4.12	
2025-01-18 07:42:09.26	345.80	4.07	
2025-01-18 07:42:10.27	345.70	4.02	

#Closed at: 2025-01-18 07:42:10