passes_logs/2025/01/18/SPB_Silybum_02/SPB_Silybum_02__20250118_041729_SUOMI_NPP_rec.log

#Pass ID: 20250118_041729_SUOMI NPP
#Satellite: SUOMI NPP
#Configuration: NPP
#Start time: 2025-01-18 04:17:28

#Version: 2.0.20230423
#Station: SPB_Silybum_02
#Location: 30.233357 lon 59.946436 lat
#TLE: 1 37849U 11061A   25017.17539025  .00000183  00000+0  10766-3 0  9991
#TLE: 2 37849  98.7449 318.1364 0001599  37.8052 322.3236 14.19539290685226

#Time	Az	El	Level	Level2	SNR	BER	Gain	Gain2
2025-01-18 04:17:31.06	17.60	4.06	
2025-01-18 04:17:31.87	17.50	4.09	
2025-01-18 04:17:32.68	17.40	4.12	
2025-01-18 04:17:33.49	17.30	4.15	
2025-01-18 04:17:34.31	17.20	4.18	
2025-01-18 04:17:35.12	17.10	4.21	
2025-01-18 04:17:35.93	17.00	4.24	
2025-01-18 04:17:36.74	16.90	4.27	
2025-01-18 04:17:37.55	16.80	4.30	
2025-01-18 04:17:38.37	16.70	4.33	
2025-01-18 04:17:39.18	16.60	4.36	
2025-01-18 04:17:39.99	16.50	4.39	
2025-01-18 04:17:40.80	16.39	4.42	
2025-01-18 04:17:41.62	16.29	4.45	
2025-01-18 04:17:42.43	16.19	4.48	
2025-01-18 04:17:43.24	16.09	4.51	
2025-01-18 04:17:44.05	15.98	4.54	
2025-01-18 04:17:44.87	15.88	4.57	
2025-01-18 04:17:45.68	15.78	4.60	
2025-01-18 04:17:46.49	15.68	4.63	
2025-01-18 04:17:47.30	15.57	4.66	
2025-01-18 04:17:48.12	15.47	4.69	
2025-01-18 04:17:48.93	15.36	4.71	
2025-01-18 04:17:49.74	15.26	4.74	
2025-01-18 04:17:50.55	15.16	4.77	
2025-01-18 04:17:51.36	15.05	4.80	
2025-01-18 04:17:52.18	14.95	4.83	
2025-01-18 04:17:52.99	14.84	4.86	
2025-01-18 04:17:53.80	14.74	4.89	
2025-01-18 04:17:54.61	14.63	4.92	
2025-01-18 04:17:55.43	14.52	4.95	
2025-01-18 04:17:56.24	14.42	4.98	
2025-01-18 04:17:57.05	14.31	5.01	
2025-01-18 04:17:57.86	14.21	5.03	
2025-01-18 04:17:58.68	14.10	5.06	
2025-01-18 04:17:59.49	13.99	5.09	
2025-01-18 04:18:00.30	13.89	5.12	
2025-01-18 04:18:01.11	13.78	5.15	
2025-01-18 04:18:01.92	13.67	5.18	
2025-01-18 04:18:02.74	13.56	5.21	
2025-01-18 04:18:03.55	13.46	5.23	
2025-01-18 04:18:04.36	13.35	5.26	
2025-01-18 04:18:05.17	13.24	5.29	
2025-01-18 04:18:05.99	13.13	5.32	
2025-01-18 04:18:06.80	13.02	5.35	
2025-01-18 04:18:07.61	12.92	5.38	
2025-01-18 04:18:08.42	12.81	5.40	
2025-01-18 04:18:09.24	12.70	5.43	
2025-01-18 04:18:10.05	12.59	5.46	
2025-01-18 04:18:10.86	12.48	5.49	
2025-01-18 04:18:11.67	12.37	5.51	
2025-01-18 04:18:12.49	12.26	5.54	
2025-01-18 04:18:13.30	12.15	5.57	
2025-01-18 04:18:14.11	12.04	5.60	
2025-01-18 04:18:14.92	11.93	5.62	
2025-01-18 04:18:15.73	11.82	5.65	
2025-01-18 04:18:16.55	11.70	5.68	
2025-01-18 04:18:17.36	11.59	5.71	
2025-01-18 04:18:18.17	11.48	5.73	
2025-01-18 04:18:18.98	11.37	5.76	
2025-01-18 04:18:19.80	11.26	5.79	
2025-01-18 04:18:20.61	11.14	5.81	
2025-01-18 04:18:21.42	11.03	5.84	
2025-01-18 04:18:22.23	10.92	5.87	
2025-01-18 04:18:23.05	10.81	5.89	
2025-01-18 04:18:23.87	10.69	5.92	
2025-01-18 04:18:24.69	10.58	5.95	
2025-01-18 04:18:25.50	10.46	5.97	
2025-01-18 04:18:26.32	10.35	6.00	
2025-01-18 04:18:27.13	10.24	6.03	
2025-01-18 04:18:27.94	10.12	6.05	
2025-01-18 04:18:28.75	10.01	6.08	
2025-01-18 04:18:29.58	9.89	6.11	
2025-01-18 04:18:30.39	9.78	6.13	
2025-01-18 04:18:31.20	9.66	6.16	
2025-01-18 04:18:32.01	9.55	6.18	
2025-01-18 04:18:32.83	9.43	6.21	
2025-01-18 04:18:33.64	9.31	6.24	
2025-01-18 04:18:34.45	9.20	6.26	
2025-01-18 04:18:35.27	9.08	6.29	
2025-01-18 04:18:36.08	8.97	6.31	
2025-01-18 04:18:36.89	8.85	6.34	
2025-01-18 04:18:37.70	8.73	6.36	
2025-01-18 04:18:38.52	8.62	6.39	
2025-01-18 04:18:39.33	8.50	6.41	
2025-01-18 04:18:40.14	8.38	6.44	
2025-01-18 04:18:40.95	8.27	6.46	
2025-01-18 04:18:41.76	8.15	6.49	
2025-01-18 04:18:42.58	8.03	6.51	
2025-01-18 04:18:43.39	7.91	6.54	
2025-01-18 04:18:44.20	7.79	6.56	
2025-01-18 04:18:45.01	7.67	6.59	
2025-01-18 04:18:45.83	7.56	6.61	
2025-01-18 04:18:46.64	7.44	6.63	
2025-01-18 04:18:47.45	7.32	6.66	
2025-01-18 04:18:48.26	7.20	6.68	
2025-01-18 04:18:49.08	7.08	6.71	
2025-01-18 04:18:49.89	6.96	6.73	
2025-01-18 04:18:50.70	6.84	6.75	
2025-01-18 04:18:51.51	6.72	6.78	
2025-01-18 04:18:52.32	6.60	6.80	
2025-01-18 04:18:53.14	6.48	6.82	
2025-01-18 04:18:53.95	6.36	6.85	
2025-01-18 04:18:54.76	6.24	6.87	
2025-01-18 04:18:55.57	6.12	6.89	
2025-01-18 04:18:56.39	5.99	6.92	
2025-01-18 04:18:57.20	5.87	6.94	
2025-01-18 04:18:58.01	5.75	6.96	
2025-01-18 04:18:58.82	5.63	6.99	
2025-01-18 04:18:59.64	5.51	7.01	
2025-01-18 04:19:00.45	5.38	7.03	
2025-01-18 04:19:01.26	5.26	7.05	
2025-01-18 04:19:02.07	5.14	7.08	
2025-01-18 04:19:02.89	5.02	7.10	
2025-01-18 04:19:03.70	4.89	7.12	
2025-01-18 04:19:04.51	4.77	7.14	
2025-01-18 04:19:05.32	4.65	7.16	
2025-01-18 04:19:06.13	4.52	7.19	
2025-01-18 04:19:06.95	4.40	7.21	
2025-01-18 04:19:07.76	4.28	7.23	
2025-01-18 04:19:08.57	4.15	7.25	
2025-01-18 04:19:09.38	4.03	7.27	
2025-01-18 04:19:10.20	3.90	7.29	
2025-01-18 04:19:11.01	3.78	7.31	
2025-01-18 04:19:11.82	3.65	7.34	
2025-01-18 04:19:12.63	3.53	7.36	
2025-01-18 04:19:13.45	3.40	7.38	
2025-01-18 04:19:14.26	3.28	7.40	
2025-01-18 04:19:15.07	3.15	7.42	
2025-01-18 04:19:15.88	3.03	7.44	
2025-01-18 04:19:16.69	2.90	7.46	
2025-01-18 04:19:17.51	2.77	7.48	
2025-01-18 04:19:18.32	2.65	7.50	
2025-01-18 04:19:19.13	2.52	7.52	
2025-01-18 04:19:19.94	2.39	7.54	
2025-01-18 04:19:20.76	2.27	7.56	
2025-01-18 04:19:21.57	2.14	7.58	
2025-01-18 04:19:22.38	2.01	7.60	
2025-01-18 04:19:23.19	1.89	7.62	
2025-01-18 04:19:24.01	1.76	7.64	
2025-01-18 04:19:24.82	1.63	7.66	
2025-01-18 04:19:25.63	1.50	7.68	
2025-01-18 04:19:26.44	1.37	7.69	
2025-01-18 04:19:27.26	1.25	7.71	
2025-01-18 04:19:28.07	1.12	7.73	
2025-01-18 04:19:28.88	0.99	7.75	
2025-01-18 04:19:29.69	0.86	7.77	
2025-01-18 04:19:30.50	0.73	7.79	
2025-01-18 04:19:31.32	0.60	7.81	
2025-01-18 04:19:32.13	0.47	7.82	
2025-01-18 04:19:32.94	0.34	7.84	
2025-01-18 04:19:33.75	0.21	7.86	
2025-01-18 04:19:34.57	0.08	7.88	
2025-01-18 04:19:35.38	359.95	7.90	
2025-01-18 04:19:36.19	359.82	7.91	
2025-01-18 04:19:37.00	359.69	7.93	
2025-01-18 04:19:37.82	359.56	7.95	
2025-01-18 04:19:38.63	359.43	7.96	
2025-01-18 04:19:39.44	359.30	7.98	
2025-01-18 04:19:40.25	359.17	8.00	
2025-01-18 04:19:41.06	359.04	8.02	
2025-01-18 04:19:41.88	358.91	8.03	
2025-01-18 04:19:42.69	358.78	8.05	
2025-01-18 04:19:43.50	358.65	8.06	
2025-01-18 04:19:44.31	358.52	8.08	
2025-01-18 04:19:45.13	358.38	8.10	
2025-01-18 04:19:45.94	358.25	8.11	
2025-01-18 04:19:46.75	358.12	8.13	
2025-01-18 04:19:47.56	357.99	8.14	
2025-01-18 04:19:48.38	357.85	8.16	
2025-01-18 04:19:49.19	357.72	8.17	
2025-01-18 04:19:50.00	357.59	8.19	
2025-01-18 04:19:50.81	357.46	8.21	
2025-01-18 04:19:51.63	357.32	8.22	
2025-01-18 04:19:52.44	357.19	8.24	
2025-01-18 04:19:53.25	357.06	8.25	
2025-01-18 04:19:54.06	356.92	8.26	
2025-01-18 04:19:54.87	356.79	8.28	
2025-01-18 04:19:55.69	356.66	8.29	
2025-01-18 04:19:56.50	356.52	8.31	
2025-01-18 04:19:57.31	356.39	8.32	
2025-01-18 04:19:58.12	356.26	8.33	
2025-01-18 04:19:58.94	356.12	8.35	
2025-01-18 04:19:59.75	355.99	8.36	
2025-01-18 04:20:00.56	355.85	8.38	
2025-01-18 04:20:01.37	355.72	8.39	
2025-01-18 04:20:02.19	355.58	8.40	
2025-01-18 04:20:03.00	355.45	8.42	
2025-01-18 04:20:03.81	355.31	8.43	
2025-01-18 04:20:04.62	355.18	8.44	
2025-01-18 04:20:05.43	355.04	8.45	
2025-01-18 04:20:06.25	354.91	8.47	
2025-01-18 04:20:07.06	354.77	8.48	
2025-01-18 04:20:07.87	354.64	8.49	
2025-01-18 04:20:08.68	354.50	8.50	
2025-01-18 04:20:09.50	354.37	8.51	
2025-01-18 04:20:10.31	354.23	8.53	
2025-01-18 04:20:11.12	354.09	8.54	
2025-01-18 04:20:11.93	353.96	8.55	
2025-01-18 04:20:12.75	353.82	8.56	
2025-01-18 04:20:13.56	353.69	8.57	
2025-01-18 04:20:14.37	353.55	8.58	
2025-01-18 04:20:15.18	353.41	8.59	
2025-01-18 04:20:16.00	353.28	8.60	
2025-01-18 04:20:16.81	353.14	8.61	
2025-01-18 04:20:17.62	353.00	8.62	
2025-01-18 04:20:18.43	352.87	8.63	
2025-01-18 04:20:19.24	352.73	8.64	
2025-01-18 04:20:20.06	352.59	8.65	
2025-01-18 04:20:20.87	352.45	8.66	
2025-01-18 04:20:21.68	352.32	8.67	
2025-01-18 04:20:22.49	352.18	8.68	
2025-01-18 04:20:23.31	352.04	8.69	
2025-01-18 04:20:24.12	351.91	8.70	
2025-01-18 04:20:24.93	351.77	8.71	
2025-01-18 04:20:25.74	351.63	8.72	
2025-01-18 04:20:26.56	351.49	8.73	
2025-01-18 04:20:27.37	351.35	8.74	
2025-01-18 04:20:28.18	351.22	8.75	
2025-01-18 04:20:28.99	351.08	8.75	
2025-01-18 04:20:29.81	350.94	8.76	
2025-01-18 04:20:30.62	350.80	8.77	
2025-01-18 04:20:31.43	350.66	8.78	
2025-01-18 04:20:32.24	350.53	8.78	
2025-01-18 04:20:33.05	350.39	8.79	
2025-01-18 04:20:33.87	350.25	8.80	
2025-01-18 04:20:34.68	350.11	8.81	
2025-01-18 04:20:35.49	349.97	8.81	
2025-01-18 04:20:36.30	349.83	8.82	
2025-01-18 04:20:37.12	349.69	8.83	
2025-01-18 04:20:37.93	349.56	8.83	
2025-01-18 04:20:38.74	349.42	8.84	
2025-01-18 04:20:39.55	349.28	8.85	
2025-01-18 04:20:40.37	349.14	8.85	
2025-01-18 04:20:41.18	349.00	8.86	
2025-01-18 04:20:41.99	348.86	8.86	
2025-01-18 04:20:42.80	348.72	8.87	
2025-01-18 04:20:43.61	348.58	8.87	
2025-01-18 04:20:44.43	348.44	8.88	
2025-01-18 04:20:45.24	348.30	8.88	
2025-01-18 04:20:46.05	348.17	8.89	
2025-01-18 04:20:46.86	348.03	8.89	
2025-01-18 04:20:47.68	347.89	8.90	
2025-01-18 04:20:48.49	347.75	8.90	
2025-01-18 04:20:49.30	347.61	8.91	
2025-01-18 04:20:50.11	347.47	8.91	
2025-01-18 04:20:50.93	347.33	8.92	
2025-01-18 04:20:51.74	347.19	8.92	
2025-01-18 04:20:52.55	347.05	8.92	
2025-01-18 04:20:53.36	346.91	8.93	
2025-01-18 04:20:54.18	346.77	8.93	
2025-01-18 04:20:54.99	346.63	8.93	
2025-01-18 04:20:55.80	346.49	8.94	
2025-01-18 04:20:56.61	346.35	8.94	
2025-01-18 04:20:57.42	346.21	8.94	
2025-01-18 04:20:58.24	346.07	8.94	
2025-01-18 04:20:59.05	345.93	8.95	
2025-01-18 04:20:59.86	345.79	8.95	
2025-01-18 04:21:00.67	345.65	8.95	
2025-01-18 04:21:01.49	345.51	8.95	
2025-01-18 04:21:02.30	345.37	8.95	
2025-01-18 04:21:03.11	345.23	8.96	
2025-01-18 04:21:03.92	345.09	8.96	
2025-01-18 04:21:04.74	344.95	8.96	
2025-01-18 04:21:05.55	344.81	8.96	
2025-01-18 04:21:06.36	344.67	8.96	
2025-01-18 04:21:07.17	344.53	8.96	
2025-01-18 04:21:07.98	344.39	8.96	
2025-01-18 04:21:08.80	344.25	8.96	
2025-01-18 04:21:09.61	344.11	8.96	
2025-01-18 04:21:10.42	343.97	8.96	
2025-01-18 04:21:11.23	343.83	8.96	
2025-01-18 04:21:12.05	343.69	8.96	
2025-01-18 04:21:12.86	343.55	8.96	
2025-01-18 04:21:13.67	343.41	8.96	
2025-01-18 04:21:14.48	343.27	8.96	
2025-01-18 04:21:15.30	343.13	8.96	
2025-01-18 04:21:16.11	342.99	8.96	
2025-01-18 04:21:16.92	342.85	8.96	
2025-01-18 04:21:17.73	342.71	8.95	
2025-01-18 04:21:18.55	342.57	8.95	
2025-01-18 04:21:19.36	342.43	8.95	
2025-01-18 04:21:20.17	342.29	8.95	
2025-01-18 04:21:20.98	342.15	8.95	
2025-01-18 04:21:21.79	342.01	8.94	
2025-01-18 04:21:22.61	341.87	8.94	
2025-01-18 04:21:23.42	341.73	8.94	
2025-01-18 04:21:24.23	341.59	8.94	
2025-01-18 04:21:25.04	341.45	8.93	
2025-01-18 04:21:25.86	341.31	8.93	
2025-01-18 04:21:26.67	341.17	8.93	
2025-01-18 04:21:27.48	341.03	8.92	
2025-01-18 04:21:28.29	340.89	8.92	
2025-01-18 04:21:29.11	340.75	8.92	
2025-01-18 04:21:29.92	340.61	8.91	
2025-01-18 04:21:30.73	340.47	8.91	
2025-01-18 04:21:31.54	340.33	8.91	
2025-01-18 04:21:32.35	340.19	8.90	
2025-01-18 04:21:33.17	340.05	8.90	
2025-01-18 04:21:33.98	339.91	8.89	
2025-01-18 04:21:34.79	339.77	8.89	
2025-01-18 04:21:35.60	339.64	8.88	
2025-01-18 04:21:36.42	339.49	8.88	
2025-01-18 04:21:37.23	339.36	8.87	
2025-01-18 04:21:38.04	339.22	8.87	
2025-01-18 04:21:38.85	339.08	8.86	
2025-01-18 04:21:39.67	338.94	8.85	
2025-01-18 04:21:40.48	338.80	8.85	
2025-01-18 04:21:41.29	338.66	8.84	
2025-01-18 04:21:42.10	338.52	8.84	
2025-01-18 04:21:42.92	338.38	8.83	
2025-01-18 04:21:43.73	338.24	8.82	
2025-01-18 04:21:44.54	338.11	8.82	
2025-01-18 04:21:45.35	337.97	8.81	
2025-01-18 04:21:46.16	337.83	8.80	
2025-01-18 04:21:46.98	337.69	8.80	
2025-01-18 04:21:47.79	337.55	8.79	
2025-01-18 04:21:48.60	337.41	8.78	
2025-01-18 04:21:49.41	337.27	8.77	
2025-01-18 04:21:50.23	337.14	8.77	
2025-01-18 04:21:51.04	337.00	8.76	
2025-01-18 04:21:51.85	336.86	8.75	
2025-01-18 04:21:52.66	336.72	8.74	
2025-01-18 04:21:53.48	336.58	8.73	
2025-01-18 04:21:54.29	336.45	8.72	
2025-01-18 04:21:55.10	336.31	8.72	
2025-01-18 04:21:55.91	336.17	8.71	
2025-01-18 04:21:56.72	336.03	8.70	
2025-01-18 04:21:57.54	335.89	8.69	
2025-01-18 04:21:58.35	335.76	8.68	
2025-01-18 04:21:59.16	335.62	8.67	
2025-01-18 04:21:59.97	335.48	8.66	
2025-01-18 04:22:00.79	335.35	8.65	
2025-01-18 04:22:01.60	335.21	8.64	
2025-01-18 04:22:02.41	335.07	8.63	
2025-01-18 04:22:03.22	334.94	8.62	
2025-01-18 04:22:04.04	334.80	8.61	
2025-01-18 04:22:04.85	334.66	8.60	
2025-01-18 04:22:05.66	334.53	8.59	
2025-01-18 04:22:06.47	334.39	8.58	
2025-01-18 04:22:07.29	334.25	8.57	
2025-01-18 04:22:08.10	334.12	8.55	
2025-01-18 04:22:08.91	333.98	8.54	
2025-01-18 04:22:09.72	333.84	8.53	
2025-01-18 04:22:10.53	333.71	8.52	
2025-01-18 04:22:11.35	333.57	8.51	
2025-01-18 04:22:12.16	333.44	8.50	
2025-01-18 04:22:12.97	333.30	8.48	
2025-01-18 04:22:13.78	333.17	8.47	
2025-01-18 04:22:14.60	333.03	8.46	
2025-01-18 04:22:15.41	332.89	8.45	
2025-01-18 04:22:16.22	332.76	8.43	
2025-01-18 04:22:17.03	332.63	8.42	
2025-01-18 04:22:17.85	332.49	8.41	
2025-01-18 04:22:18.66	332.35	8.40	
2025-01-18 04:22:19.47	332.22	8.38	
2025-01-18 04:22:20.28	332.09	8.37	
2025-01-18 04:22:21.09	331.95	8.36	
2025-01-18 04:22:21.91	331.82	8.34	
2025-01-18 04:22:22.72	331.68	8.33	
2025-01-18 04:22:23.53	331.55	8.31	
2025-01-18 04:22:24.34	331.42	8.30	
2025-01-18 04:22:25.16	331.28	8.29	
2025-01-18 04:22:25.97	331.15	8.27	
2025-01-18 04:22:26.78	331.01	8.26	
2025-01-18 04:22:27.59	330.88	8.24	
2025-01-18 04:22:28.41	330.75	8.23	
2025-01-18 04:22:29.22	330.61	8.21	
2025-01-18 04:22:30.03	330.48	8.20	
2025-01-18 04:22:30.84	330.35	8.18	
2025-01-18 04:22:31.66	330.22	8.17	
2025-01-18 04:22:32.47	330.08	8.15	
2025-01-18 04:22:33.28	329.95	8.14	
2025-01-18 04:22:34.09	329.82	8.12	
2025-01-18 04:22:34.90	329.69	8.10	
2025-01-18 04:22:35.72	329.55	8.09	
2025-01-18 04:22:36.53	329.42	8.07	
2025-01-18 04:22:37.34	329.29	8.06	
2025-01-18 04:22:38.15	329.16	8.04	
2025-01-18 04:22:38.97	329.03	8.02	
2025-01-18 04:22:39.78	328.90	8.01	
2025-01-18 04:22:40.59	328.77	7.99	
2025-01-18 04:22:41.40	328.64	7.97	
2025-01-18 04:22:42.22	328.50	7.96	
2025-01-18 04:22:43.03	328.37	7.94	
2025-01-18 04:22:43.84	328.24	7.92	
2025-01-18 04:22:44.65	328.11	7.90	
2025-01-18 04:22:45.46	327.98	7.89	
2025-01-18 04:22:46.28	327.85	7.87	
2025-01-18 04:22:47.09	327.72	7.85	
2025-01-18 04:22:47.90	327.59	7.83	
2025-01-18 04:22:48.71	327.47	7.82	
2025-01-18 04:22:49.53	327.33	7.80	
2025-01-18 04:22:50.34	327.21	7.78	
2025-01-18 04:22:51.15	327.08	7.76	
2025-01-18 04:22:51.96	326.95	7.74	
2025-01-18 04:22:52.78	326.82	7.72	
2025-01-18 04:22:53.59	326.69	7.70	
2025-01-18 04:22:54.40	326.56	7.69	
2025-01-18 04:22:55.21	326.44	7.67	
2025-01-18 04:22:56.03	326.31	7.65	
2025-01-18 04:22:56.84	326.18	7.63	
2025-01-18 04:22:57.65	326.05	7.61	
2025-01-18 04:22:58.46	325.92	7.59	
2025-01-18 04:22:59.27	325.80	7.57	
2025-01-18 04:23:00.09	325.67	7.55	
2025-01-18 04:23:00.90	325.54	7.53	
2025-01-18 04:23:01.71	325.42	7.51	
2025-01-18 04:23:02.52	325.29	7.49	
2025-01-18 04:23:03.34	325.16	7.47	
2025-01-18 04:23:04.15	325.04	7.45	
2025-01-18 04:23:04.96	324.91	7.43	
2025-01-18 04:23:05.77	324.79	7.41	
2025-01-18 04:23:06.59	324.66	7.39	
2025-01-18 04:23:07.40	324.53	7.37	
2025-01-18 04:23:08.21	324.41	7.35	
2025-01-18 04:23:09.02	324.28	7.32	
2025-01-18 04:23:09.84	324.16	7.30	
2025-01-18 04:23:10.65	324.03	7.28	
2025-01-18 04:23:11.46	323.91	7.26	
2025-01-18 04:23:12.27	323.78	7.24	
2025-01-18 04:23:13.08	323.66	7.22	
2025-01-18 04:23:13.90	323.54	7.20	
2025-01-18 04:23:14.71	323.41	7.17	
2025-01-18 04:23:15.52	323.29	7.15	
2025-01-18 04:23:16.33	323.17	7.13	
2025-01-18 04:23:17.15	323.04	7.11	
2025-01-18 04:23:17.96	322.92	7.09	
2025-01-18 04:23:18.77	322.80	7.06	
2025-01-18 04:23:19.58	322.67	7.04	
2025-01-18 04:23:20.40	322.55	7.02	
2025-01-18 04:23:21.21	322.43	7.00	
2025-01-18 04:23:22.02	322.31	6.97	
2025-01-18 04:23:22.83	322.18	6.95	
2025-01-18 04:23:23.64	322.06	6.93	
2025-01-18 04:23:24.46	321.94	6.91	
2025-01-18 04:23:25.27	321.82	6.88	
2025-01-18 04:23:26.08	321.70	6.86	
2025-01-18 04:23:26.89	321.58	6.84	
2025-01-18 04:23:27.71	321.46	6.81	
2025-01-18 04:23:28.52	321.34	6.79	
2025-01-18 04:23:29.33	321.22	6.77	
2025-01-18 04:23:30.14	321.10	6.74	
2025-01-18 04:23:30.96	320.98	6.72	
2025-01-18 04:23:31.77	320.86	6.69	
2025-01-18 04:23:32.58	320.74	6.67	
2025-01-18 04:23:33.39	320.62	6.65	
2025-01-18 04:23:34.21	320.50	6.62	
2025-01-18 04:23:35.02	320.38	6.60	
2025-01-18 04:23:35.83	320.26	6.57	
2025-01-18 04:23:36.64	320.14	6.55	
2025-01-18 04:23:37.45	320.02	6.52	
2025-01-18 04:23:38.27	319.90	6.50	
2025-01-18 04:23:39.08	319.79	6.47	
2025-01-18 04:23:39.89	319.67	6.45	
2025-01-18 04:23:40.70	319.55	6.43	
2025-01-18 04:23:41.52	319.43	6.40	
2025-01-18 04:23:42.33	319.32	6.37	
2025-01-18 04:23:43.14	319.20	6.35	
2025-01-18 04:23:43.95	319.08	6.32	
2025-01-18 04:23:44.77	318.97	6.30	
2025-01-18 04:23:45.58	318.85	6.27	
2025-01-18 04:23:46.39	318.74	6.25	
2025-01-18 04:23:47.20	318.62	6.22	
2025-01-18 04:23:48.01	318.50	6.20	
2025-01-18 04:23:48.83	318.39	6.17	
2025-01-18 04:23:49.64	318.27	6.15	
2025-01-18 04:23:50.45	318.16	6.12	
2025-01-18 04:23:51.26	318.04	6.09	
2025-01-18 04:23:52.08	317.93	6.07	
2025-01-18 04:23:52.89	317.81	6.04	
2025-01-18 04:23:53.70	317.70	6.01	
2025-01-18 04:23:54.51	317.59	5.99	
2025-01-18 04:23:55.33	317.47	5.96	
2025-01-18 04:23:56.14	317.36	5.94	
2025-01-18 04:23:56.95	317.24	5.91	
2025-01-18 04:23:57.76	317.13	5.88	
2025-01-18 04:23:58.58	317.02	5.86	
2025-01-18 04:23:59.39	316.91	5.83	
2025-01-18 04:24:00.20	316.79	5.80	
2025-01-18 04:24:01.01	316.68	5.78	
2025-01-18 04:24:01.82	316.57	5.75	
2025-01-18 04:24:02.64	316.46	5.72	
2025-01-18 04:24:03.45	316.35	5.69	
2025-01-18 04:24:04.26	316.23	5.67	
2025-01-18 04:24:05.07	316.12	5.64	
2025-01-18 04:24:05.89	316.01	5.61	
2025-01-18 04:24:06.70	315.90	5.58	
2025-01-18 04:24:07.51	315.79	5.56	
2025-01-18 04:24:08.32	315.68	5.53	
2025-01-18 04:24:09.14	315.57	5.50	
2025-01-18 04:24:09.95	315.46	5.47	
2025-01-18 04:24:10.76	315.35	5.45	
2025-01-18 04:24:11.57	315.24	5.42	
2025-01-18 04:24:12.38	315.13	5.39	
2025-01-18 04:24:13.20	315.02	5.36	
2025-01-18 04:24:14.01	314.91	5.33	
2025-01-18 04:24:14.82	314.80	5.31	
2025-01-18 04:24:15.63	314.70	5.28	
2025-01-18 04:24:16.45	314.59	5.25	
2025-01-18 04:24:17.26	314.48	5.22	
2025-01-18 04:24:18.07	314.37	5.19	
2025-01-18 04:24:18.88	314.26	5.16	
2025-01-18 04:24:19.70	314.16	5.14	
2025-01-18 04:24:20.51	314.05	5.11	
2025-01-18 04:24:21.32	313.94	5.08	
2025-01-18 04:24:22.13	313.84	5.05	
2025-01-18 04:24:22.95	313.73	5.02	
2025-01-18 04:24:23.76	313.62	4.99	
2025-01-18 04:24:24.57	313.52	4.96	
2025-01-18 04:24:25.38	313.41	4.93	
2025-01-18 04:24:26.19	313.31	4.91	
2025-01-18 04:24:27.01	313.20	4.88	
2025-01-18 04:24:27.82	313.09	4.85	
2025-01-18 04:24:28.63	312.99	4.82	
2025-01-18 04:24:29.44	312.88	4.79	
2025-01-18 04:24:30.26	312.78	4.76	
2025-01-18 04:24:31.07	312.67	4.73	
2025-01-18 04:24:31.88	312.57	4.70	
2025-01-18 04:24:32.69	312.47	4.67	
2025-01-18 04:24:33.51	312.36	4.64	
2025-01-18 04:24:34.32	312.26	4.61	
2025-01-18 04:24:35.13	312.16	4.58	
2025-01-18 04:24:35.94	312.05	4.55	
2025-01-18 04:24:36.75	311.95	4.52	
2025-01-18 04:24:37.57	311.85	4.49	
2025-01-18 04:24:38.38	311.74	4.46	
2025-01-18 04:24:39.19	311.64	4.43	
2025-01-18 04:24:40.00	311.54	4.40	
2025-01-18 04:24:40.82	311.44	4.37	
2025-01-18 04:24:41.63	311.34	4.34	
2025-01-18 04:24:42.44	311.24	4.31	
2025-01-18 04:24:43.25	311.13	4.28	
2025-01-18 04:24:44.07	311.03	4.25	
2025-01-18 04:24:44.88	310.93	4.22	
2025-01-18 04:24:45.69	310.83	4.19	
2025-01-18 04:24:46.50	310.73	4.16	
2025-01-18 04:24:47.32	310.63	4.13	
2025-01-18 04:24:48.13	310.53	4.10	
2025-01-18 04:24:48.94	310.43	4.07	
2025-01-18 04:24:49.75	310.33	4.04	
2025-01-18 04:24:50.56	310.23	4.01	

#Closed at: 2025-01-18 04:24:50