passes_logs/2025/01/18/SPB_Silybum_02/SPB_Silybum_02__20250118_095814_TERRA_rec.log

#Pass ID: 20250118_095814_TERRA
#Satellite: TERRA
#Configuration: TERRA
#Start time: 2025-01-18 09:58:13

#Version: 2.0.20230423
#Station: SPB_Silybum_02
#Location: 30.233357 lon 59.946436 lat
#TLE: 1 25994U 99068A   25017.80257355  .00000903  00000+0  19577-3 0  9994
#TLE: 2 25994  98.0211  80.7437 0003372  66.8373  47.3878 14.60400955334482

#Time	Az	El	Level	Level2	SNR	BER	Gain	Gain2
2025-01-18 09:58:15.37	9.94	4.04	
2025-01-18 09:58:16.58	9.84	4.12	
2025-01-18 09:58:17.80	9.75	4.19	
2025-01-18 09:58:19.02	9.65	4.27	
2025-01-18 09:58:20.24	9.56	4.35	
2025-01-18 09:58:21.46	9.46	4.43	
2025-01-18 09:58:22.67	9.36	4.50	
2025-01-18 09:58:23.89	9.26	4.58	
2025-01-18 09:58:25.11	9.17	4.66	
2025-01-18 09:58:26.33	9.07	4.74	
2025-01-18 09:58:27.55	8.97	4.82	
2025-01-18 09:58:28.76	8.87	4.90	
2025-01-18 09:58:29.98	8.77	4.98	
2025-01-18 09:58:31.20	8.66	5.05	
2025-01-18 09:58:32.42	8.56	5.13	
2025-01-18 09:58:33.64	8.46	5.21	
2025-01-18 09:58:34.85	8.36	5.29	
2025-01-18 09:58:36.07	8.25	5.37	
2025-01-18 09:58:37.29	8.15	5.45	
2025-01-18 09:58:38.51	8.04	5.53	
2025-01-18 09:58:39.72	7.94	5.61	
2025-01-18 09:58:40.94	7.83	5.69	
2025-01-18 09:58:42.16	7.72	5.77	
2025-01-18 09:58:43.38	7.61	5.85	
2025-01-18 09:58:44.60	7.50	5.94	
2025-01-18 09:58:45.81	7.39	6.02	
2025-01-18 09:58:47.03	7.28	6.10	
2025-01-18 09:58:48.25	7.17	6.18	
2025-01-18 09:58:49.47	7.06	6.26	
2025-01-18 09:58:50.69	6.95	6.34	
2025-01-18 09:58:51.90	6.84	6.43	
2025-01-18 09:58:53.12	6.72	6.51	
2025-01-18 09:58:54.34	6.61	6.59	
2025-01-18 09:58:55.56	6.49	6.67	
2025-01-18 09:58:56.78	6.38	6.76	
2025-01-18 09:58:57.99	6.26	6.84	
2025-01-18 09:58:59.21	6.14	6.92	
2025-01-18 09:59:00.43	6.02	7.01	
2025-01-18 09:59:01.65	5.90	7.09	
2025-01-18 09:59:02.87	5.78	7.17	
2025-01-18 09:59:04.08	5.66	7.26	
2025-01-18 09:59:05.30	5.54	7.34	
2025-01-18 09:59:06.52	5.42	7.43	
2025-01-18 09:59:07.74	5.30	7.51	
2025-01-18 09:59:08.95	5.17	7.60	
2025-01-18 09:59:10.17	5.05	7.68	
2025-01-18 09:59:11.39	4.92	7.77	
2025-01-18 09:59:12.61	4.80	7.85	
2025-01-18 09:59:13.83	4.67	7.94	
2025-01-18 09:59:15.04	4.54	8.02	
2025-01-18 09:59:16.26	4.41	8.11	
2025-01-18 09:59:17.48	4.28	8.20	
2025-01-18 09:59:18.70	4.15	8.28	
2025-01-18 09:59:19.92	4.02	8.37	
2025-01-18 09:59:21.13	3.89	8.45	
2025-01-18 09:59:22.35	3.76	8.54	
2025-01-18 09:59:23.57	3.62	8.63	
2025-01-18 09:59:24.79	3.49	8.72	
2025-01-18 09:59:26.01	3.35	8.80	
2025-01-18 09:59:27.22	3.22	8.89	
2025-01-18 09:59:28.44	3.08	8.98	
2025-01-18 09:59:29.66	2.94	9.07	
2025-01-18 09:59:30.88	2.80	9.16	
2025-01-18 09:59:32.10	2.66	9.24	
2025-01-18 09:59:33.31	2.52	9.33	
2025-01-18 09:59:34.53	2.38	9.42	
2025-01-18 09:59:35.75	2.23	9.51	
2025-01-18 09:59:36.97	2.09	9.60	
2025-01-18 09:59:38.18	1.94	9.69	
2025-01-18 09:59:39.40	1.80	9.78	
2025-01-18 09:59:40.62	1.65	9.87	
2025-01-18 09:59:41.84	1.50	9.96	
2025-01-18 09:59:43.06	1.35	10.05	
2025-01-18 09:59:44.27	1.20	10.14	
2025-01-18 09:59:45.49	1.05	10.23	
2025-01-18 09:59:46.71	0.90	10.32	
2025-01-18 09:59:47.93	0.75	10.41	
2025-01-18 09:59:49.15	0.59	10.50	
2025-01-18 09:59:50.36	0.44	10.59	
2025-01-18 09:59:51.58	0.28	10.69	
2025-01-18 09:59:52.80	0.12	10.78	
2025-01-18 09:59:54.02	359.96	10.87	
2025-01-18 09:59:55.24	359.80	10.96	
2025-01-18 09:59:56.45	359.64	11.05	
2025-01-18 09:59:57.67	359.48	11.14	
2025-01-18 09:59:58.89	359.32	11.24	
2025-01-18 10:00:00.11	359.15	11.33	
2025-01-18 10:00:01.33	358.98	11.42	
2025-01-18 10:00:02.54	358.82	11.52	
2025-01-18 10:00:03.76	358.65	11.61	
2025-01-18 10:00:04.98	358.48	11.70	
2025-01-18 10:00:06.20	358.31	11.80	
2025-01-18 10:00:07.41	358.14	11.89	
2025-01-18 10:00:08.63	357.97	11.98	
2025-01-18 10:00:09.85	357.79	12.08	
2025-01-18 10:00:11.07	357.62	12.17	
2025-01-18 10:00:12.29	357.44	12.27	
2025-01-18 10:00:13.50	357.26	12.36	
2025-01-18 10:00:14.72	357.09	12.45	
2025-01-18 10:00:15.94	356.91	12.55	
2025-01-18 10:00:17.16	356.72	12.64	
2025-01-18 10:00:18.38	356.54	12.74	
2025-01-18 10:00:19.59	356.36	12.83	
2025-01-18 10:00:20.81	356.17	12.93	
2025-01-18 10:00:22.03	355.98	13.02	
2025-01-18 10:00:23.25	355.80	13.12	
2025-01-18 10:00:24.47	355.61	13.22	
2025-01-18 10:00:25.68	355.42	13.31	
2025-01-18 10:00:26.90	355.23	13.41	
2025-01-18 10:00:28.12	355.03	13.50	
2025-01-18 10:00:29.34	354.84	13.60	
2025-01-18 10:00:30.56	354.64	13.70	
2025-01-18 10:00:31.77	354.44	13.79	
2025-01-18 10:00:32.99	354.24	13.89	
2025-01-18 10:00:34.21	354.04	13.98	
2025-01-18 10:00:35.43	353.84	14.08	
2025-01-18 10:00:36.64	353.64	14.18	
2025-01-18 10:00:37.86	353.44	14.27	
2025-01-18 10:00:39.08	353.23	14.37	
2025-01-18 10:00:40.30	353.02	14.47	
2025-01-18 10:00:41.52	352.81	14.56	
2025-01-18 10:00:42.73	352.60	14.66	
2025-01-18 10:00:43.95	352.39	14.76	
2025-01-18 10:00:45.17	352.18	14.85	
2025-01-18 10:00:46.39	351.96	14.95	
2025-01-18 10:00:47.61	351.74	15.05	
2025-01-18 10:00:48.82	351.53	15.15	
2025-01-18 10:00:50.04	351.31	15.24	
2025-01-18 10:00:51.26	351.09	15.34	
2025-01-18 10:00:52.48	350.86	15.44	
2025-01-18 10:00:53.70	350.64	15.54	
2025-01-18 10:00:54.91	350.41	15.63	
2025-01-18 10:00:56.13	350.19	15.73	
2025-01-18 10:00:57.35	349.96	15.83	
2025-01-18 10:00:58.57	349.72	15.92	
2025-01-18 10:00:59.79	349.49	16.02	
2025-01-18 10:01:01.02	349.26	16.12	
2025-01-18 10:01:02.24	349.02	16.22	
2025-01-18 10:01:03.45	348.78	16.31	
2025-01-18 10:01:04.67	348.54	16.41	
2025-01-18 10:01:05.89	348.30	16.51	
2025-01-18 10:01:07.11	348.06	16.60	
2025-01-18 10:01:08.33	347.82	16.70	
2025-01-18 10:01:09.54	347.57	16.80	
2025-01-18 10:01:10.76	347.32	16.89	
2025-01-18 10:01:11.98	347.08	16.99	
2025-01-18 10:01:13.20	346.82	17.09	
2025-01-18 10:01:14.42	346.57	17.18	
2025-01-18 10:01:15.63	346.32	17.28	
2025-01-18 10:01:16.85	346.06	17.37	
2025-01-18 10:01:18.07	345.80	17.47	
2025-01-18 10:01:19.29	345.54	17.57	
2025-01-18 10:01:20.51	345.28	17.66	
2025-01-18 10:01:21.72	345.02	17.76	
2025-01-18 10:01:22.94	344.76	17.85	
2025-01-18 10:01:24.16	344.49	17.95	
2025-01-18 10:01:25.38	344.22	18.04	
2025-01-18 10:01:26.60	343.95	18.14	
2025-01-18 10:01:27.81	343.68	18.23	
2025-01-18 10:01:29.03	343.40	18.32	
2025-01-18 10:01:30.25	343.13	18.42	
2025-01-18 10:01:31.47	342.85	18.51	
2025-01-18 10:01:32.68	342.57	18.60	
2025-01-18 10:01:33.90	342.29	18.70	
2025-01-18 10:01:35.12	342.01	18.79	
2025-01-18 10:01:36.34	341.72	18.88	
2025-01-18 10:01:37.56	341.43	18.97	
2025-01-18 10:01:38.77	341.15	19.06	
2025-01-18 10:01:39.99	340.86	19.15	
2025-01-18 10:01:41.21	340.56	19.25	
2025-01-18 10:01:42.43	340.27	19.34	
2025-01-18 10:01:43.65	339.97	19.43	
2025-01-18 10:01:44.86	339.68	19.51	
2025-01-18 10:01:46.08	339.38	19.60	
2025-01-18 10:01:47.30	339.07	19.69	
2025-01-18 10:01:48.52	338.77	19.78	
2025-01-18 10:01:49.74	338.46	19.87	
2025-01-18 10:01:50.95	338.16	19.96	
2025-01-18 10:01:52.17	337.85	20.04	
2025-01-18 10:01:53.39	337.54	20.13	
2025-01-18 10:01:54.61	337.23	20.21	
2025-01-18 10:01:55.83	336.91	20.30	
2025-01-18 10:01:57.04	336.60	20.38	
2025-01-18 10:01:58.26	336.28	20.47	
2025-01-18 10:01:59.48	335.96	20.55	
2025-01-18 10:02:00.70	335.63	20.63	
2025-01-18 10:02:01.91	335.31	20.72	
2025-01-18 10:02:03.13	334.99	20.80	
2025-01-18 10:02:04.35	334.66	20.88	
2025-01-18 10:02:05.57	334.33	20.96	
2025-01-18 10:02:06.79	334.00	21.04	
2025-01-18 10:02:08.00	333.66	21.12	
2025-01-18 10:02:09.22	333.33	21.19	
2025-01-18 10:02:10.44	332.99	21.27	
2025-01-18 10:02:11.66	332.65	21.35	
2025-01-18 10:02:12.88	332.31	21.42	
2025-01-18 10:02:14.09	331.97	21.50	
2025-01-18 10:02:15.31	331.63	21.57	
2025-01-18 10:02:16.53	331.28	21.65	
2025-01-18 10:02:17.75	330.93	21.72	
2025-01-18 10:02:18.97	330.59	21.79	
2025-01-18 10:02:20.18	330.24	21.86	
2025-01-18 10:02:21.40	329.88	21.93	
2025-01-18 10:02:22.62	329.53	22.00	
2025-01-18 10:02:23.84	329.17	22.07	
2025-01-18 10:02:25.06	328.82	22.13	
2025-01-18 10:02:26.27	328.46	22.20	
2025-01-18 10:02:27.49	328.10	22.27	
2025-01-18 10:02:28.71	327.74	22.33	
2025-01-18 10:02:29.93	327.37	22.39	
2025-01-18 10:02:31.14	327.01	22.45	
2025-01-18 10:02:32.36	326.64	22.52	
2025-01-18 10:02:33.58	326.27	22.58	
2025-01-18 10:02:34.80	325.90	22.63	
2025-01-18 10:02:36.02	325.53	22.69	
2025-01-18 10:02:37.23	325.16	22.75	
2025-01-18 10:02:38.45	324.79	22.80	
2025-01-18 10:02:39.67	324.41	22.86	
2025-01-18 10:02:40.89	324.03	22.91	
2025-01-18 10:02:42.11	323.65	22.96	
2025-01-18 10:02:43.32	323.28	23.02	
2025-01-18 10:02:44.54	322.89	23.07	
2025-01-18 10:02:45.76	322.51	23.11	
2025-01-18 10:02:46.98	322.13	23.16	
2025-01-18 10:02:48.20	321.74	23.21	
2025-01-18 10:02:49.41	321.36	23.25	
2025-01-18 10:02:50.63	320.97	23.30	
2025-01-18 10:02:51.85	320.58	23.34	
2025-01-18 10:02:53.07	320.19	23.38	
2025-01-18 10:02:54.29	319.80	23.42	
2025-01-18 10:02:55.50	319.41	23.46	
2025-01-18 10:02:56.72	319.02	23.49	
2025-01-18 10:02:57.94	318.63	23.53	
2025-01-18 10:02:59.16	318.23	23.56	
2025-01-18 10:03:00.37	317.84	23.60	
2025-01-18 10:03:01.59	317.44	23.63	
2025-01-18 10:03:02.81	317.05	23.66	
2025-01-18 10:03:04.03	316.65	23.69	
2025-01-18 10:03:05.25	316.25	23.71	
2025-01-18 10:03:06.46	315.85	23.74	
2025-01-18 10:03:07.68	315.45	23.76	
2025-01-18 10:03:08.90	315.05	23.79	
2025-01-18 10:03:10.12	314.65	23.81	
2025-01-18 10:03:11.34	314.25	23.83	
2025-01-18 10:03:12.55	313.85	23.85	
2025-01-18 10:03:13.77	313.44	23.87	
2025-01-18 10:03:14.99	313.04	23.88	
2025-01-18 10:03:16.21	312.64	23.90	
2025-01-18 10:03:17.43	312.23	23.91	
2025-01-18 10:03:18.64	311.83	23.92	
2025-01-18 10:03:19.86	311.43	23.93	
2025-01-18 10:03:21.08	311.02	23.94	
2025-01-18 10:03:22.30	310.61	23.95	
2025-01-18 10:03:23.52	310.21	23.95	
2025-01-18 10:03:24.73	309.81	23.95	
2025-01-18 10:03:25.95	309.40	23.96	
2025-01-18 10:03:27.17	308.99	23.96	
2025-01-18 10:03:28.39	308.59	23.96	
2025-01-18 10:03:29.60	308.19	23.96	
2025-01-18 10:03:30.82	307.78	23.95	
2025-01-18 10:03:32.04	307.37	23.95	
2025-01-18 10:03:33.26	306.97	23.94	
2025-01-18 10:03:34.48	306.56	23.93	
2025-01-18 10:03:35.69	306.16	23.92	
2025-01-18 10:03:36.91	305.76	23.91	
2025-01-18 10:03:38.13	305.35	23.90	
2025-01-18 10:03:39.35	304.95	23.89	
2025-01-18 10:03:40.57	304.54	23.87	
2025-01-18 10:03:41.78	304.14	23.85	
2025-01-18 10:03:43.00	303.74	23.83	
2025-01-18 10:03:44.22	303.34	23.82	
2025-01-18 10:03:45.44	302.93	23.79	
2025-01-18 10:03:46.66	302.53	23.77	
2025-01-18 10:03:47.87	302.13	23.75	
2025-01-18 10:03:49.09	301.73	23.72	
2025-01-18 10:03:50.31	301.34	23.69	
2025-01-18 10:03:51.53	300.94	23.67	
2025-01-18 10:03:52.75	300.54	23.64	
2025-01-18 10:03:53.96	300.14	23.61	
2025-01-18 10:03:55.18	299.75	23.57	
2025-01-18 10:03:56.40	299.35	23.54	
2025-01-18 10:03:57.62	298.96	23.50	
2025-01-18 10:03:58.83	298.57	23.47	
2025-01-18 10:04:00.05	298.17	23.43	
2025-01-18 10:04:01.27	297.78	23.39	
2025-01-18 10:04:02.49	297.39	23.35	
2025-01-18 10:04:03.71	297.00	23.31	
2025-01-18 10:04:04.92	296.62	23.26	
2025-01-18 10:04:06.14	296.23	23.22	
2025-01-18 10:04:07.36	295.84	23.17	
2025-01-18 10:04:08.58	295.46	23.13	
2025-01-18 10:04:09.80	295.08	23.08	
2025-01-18 10:04:11.01	294.70	23.03	
2025-01-18 10:04:12.23	294.31	22.98	
2025-01-18 10:04:13.45	293.94	22.93	
2025-01-18 10:04:14.67	293.56	22.87	
2025-01-18 10:04:15.89	293.18	22.82	
2025-01-18 10:04:17.10	292.81	22.76	
2025-01-18 10:04:18.32	292.43	22.71	
2025-01-18 10:04:19.54	292.06	22.65	
2025-01-18 10:04:20.76	291.69	22.59	
2025-01-18 10:04:21.98	291.32	22.53	
2025-01-18 10:04:23.19	290.95	22.47	
2025-01-18 10:04:24.41	290.58	22.41	
2025-01-18 10:04:25.63	290.22	22.35	
2025-01-18 10:04:26.85	289.86	22.28	
2025-01-18 10:04:28.07	289.49	22.22	
2025-01-18 10:04:29.28	289.14	22.15	
2025-01-18 10:04:30.50	288.78	22.08	
2025-01-18 10:04:31.72	288.42	22.02	
2025-01-18 10:04:32.94	288.06	21.95	
2025-01-18 10:04:34.15	287.71	21.88	
2025-01-18 10:04:35.37	287.36	21.81	
2025-01-18 10:04:36.59	287.01	21.73	
2025-01-18 10:04:37.81	286.66	21.66	
2025-01-18 10:04:39.03	286.31	21.59	
2025-01-18 10:04:40.24	285.97	21.52	
2025-01-18 10:04:41.46	285.62	21.44	
2025-01-18 10:04:42.68	285.28	21.36	
2025-01-18 10:04:43.90	284.94	21.29	
2025-01-18 10:04:45.12	284.60	21.21	
2025-01-18 10:04:46.33	284.27	21.13	
2025-01-18 10:04:47.55	283.93	21.05	
2025-01-18 10:04:48.77	283.60	20.97	
2025-01-18 10:04:49.99	283.27	20.89	
2025-01-18 10:04:51.21	282.94	20.81	
2025-01-18 10:04:52.42	282.62	20.73	
2025-01-18 10:04:53.64	282.29	20.65	
2025-01-18 10:04:54.86	281.97	20.57	
2025-01-18 10:04:56.08	281.64	20.48	
2025-01-18 10:04:57.30	281.32	20.40	
2025-01-18 10:04:58.51	281.01	20.32	
2025-01-18 10:04:59.73	280.69	20.23	
2025-01-18 10:05:00.95	280.37	20.14	
2025-01-18 10:05:02.17	280.06	20.06	
2025-01-18 10:05:03.38	279.75	19.97	
2025-01-18 10:05:04.60	279.44	19.88	
2025-01-18 10:05:05.82	279.14	19.80	
2025-01-18 10:05:07.04	278.83	19.71	
2025-01-18 10:05:08.26	278.53	19.62	
2025-01-18 10:05:09.47	278.23	19.53	
2025-01-18 10:05:10.69	277.93	19.44	
2025-01-18 10:05:11.91	277.63	19.35	
2025-01-18 10:05:13.13	277.33	19.26	
2025-01-18 10:05:14.35	277.04	19.17	
2025-01-18 10:05:15.56	276.75	19.08	
2025-01-18 10:05:16.78	276.46	18.99	
2025-01-18 10:05:18.00	276.17	18.89	
2025-01-18 10:05:19.22	275.88	18.80	
2025-01-18 10:05:20.44	275.60	18.71	
2025-01-18 10:05:21.65	275.32	18.62	
2025-01-18 10:05:22.87	275.04	18.52	
2025-01-18 10:05:24.09	274.76	18.43	
2025-01-18 10:05:25.31	274.48	18.33	
2025-01-18 10:05:26.53	274.20	18.24	
2025-01-18 10:05:27.74	273.93	18.15	
2025-01-18 10:05:28.96	273.66	18.05	
2025-01-18 10:05:30.18	273.39	17.96	
2025-01-18 10:05:31.40	273.12	17.86	
2025-01-18 10:05:32.61	272.85	17.77	
2025-01-18 10:05:33.83	272.59	17.67	
2025-01-18 10:05:35.05	272.32	17.58	
2025-01-18 10:05:36.27	272.06	17.48	
2025-01-18 10:05:37.49	271.80	17.38	
2025-01-18 10:05:38.70	271.55	17.29	
2025-01-18 10:05:39.92	271.29	17.19	
2025-01-18 10:05:41.14	271.04	17.09	
2025-01-18 10:05:42.36	270.78	17.00	
2025-01-18 10:05:43.58	270.53	16.90	
2025-01-18 10:05:44.79	270.29	16.80	
2025-01-18 10:05:46.01	270.04	16.71	
2025-01-18 10:05:47.23	269.79	16.61	
2025-01-18 10:05:48.45	269.55	16.51	
2025-01-18 10:05:49.67	269.30	16.42	
2025-01-18 10:05:50.88	269.07	16.32	
2025-01-18 10:05:52.10	268.83	16.22	
2025-01-18 10:05:53.32	268.59	16.12	
2025-01-18 10:05:54.54	268.35	16.03	
2025-01-18 10:05:55.76	268.12	15.93	
2025-01-18 10:05:56.97	267.89	15.83	
2025-01-18 10:05:58.19	267.66	15.73	
2025-01-18 10:05:59.41	267.43	15.64	
2025-01-18 10:06:00.63	267.20	15.54	
2025-01-18 10:06:01.84	266.97	15.44	
2025-01-18 10:06:03.06	266.75	15.34	
2025-01-18 10:06:04.28	266.53	15.25	
2025-01-18 10:06:05.50	266.31	15.15	
2025-01-18 10:06:06.72	266.09	15.05	
2025-01-18 10:06:07.93	265.87	14.95	
2025-01-18 10:06:09.15	265.65	14.86	
2025-01-18 10:06:10.37	265.44	14.76	
2025-01-18 10:06:11.59	265.22	14.66	
2025-01-18 10:06:12.81	265.01	14.56	
2025-01-18 10:06:14.02	264.80	14.47	
2025-01-18 10:06:15.24	264.59	14.37	
2025-01-18 10:06:16.46	264.38	14.27	
2025-01-18 10:06:17.68	264.18	14.18	
2025-01-18 10:06:18.90	263.97	14.08	
2025-01-18 10:06:20.11	263.77	13.98	
2025-01-18 10:06:21.33	263.57	13.89	
2025-01-18 10:06:22.55	263.37	13.79	
2025-01-18 10:06:23.77	263.17	13.69	
2025-01-18 10:06:24.99	262.97	13.60	
2025-01-18 10:06:26.20	262.78	13.50	
2025-01-18 10:06:27.42	262.58	13.40	
2025-01-18 10:06:28.64	262.39	13.31	
2025-01-18 10:06:29.86	262.19	13.21	
2025-01-18 10:06:31.07	262.00	13.12	
2025-01-18 10:06:32.29	261.81	13.02	
2025-01-18 10:06:33.51	261.63	12.92	
2025-01-18 10:06:34.73	261.44	12.83	
2025-01-18 10:06:35.95	261.25	12.73	
2025-01-18 10:06:37.16	261.07	12.64	
2025-01-18 10:06:38.38	260.89	12.54	
2025-01-18 10:06:39.60	260.71	12.45	
2025-01-18 10:06:40.82	260.52	12.35	
2025-01-18 10:06:42.04	260.35	12.26	
2025-01-18 10:06:43.25	260.17	12.16	
2025-01-18 10:06:44.47	259.99	12.07	
2025-01-18 10:06:45.69	259.82	11.97	
2025-01-18 10:06:46.91	259.64	11.88	
2025-01-18 10:06:48.13	259.47	11.79	
2025-01-18 10:06:49.34	259.30	11.69	
2025-01-18 10:06:50.56	259.13	11.60	
2025-01-18 10:06:51.78	258.96	11.50	
2025-01-18 10:06:53.00	258.79	11.41	
2025-01-18 10:06:54.22	258.62	11.32	
2025-01-18 10:06:55.43	258.46	11.23	
2025-01-18 10:06:56.65	258.29	11.13	
2025-01-18 10:06:57.87	258.13	11.04	
2025-01-18 10:06:59.09	257.96	10.95	
2025-01-18 10:07:00.30	257.80	10.86	
2025-01-18 10:07:01.52	257.64	10.76	
2025-01-18 10:07:02.74	257.48	10.67	
2025-01-18 10:07:03.96	257.33	10.58	
2025-01-18 10:07:05.18	257.17	10.49	
2025-01-18 10:07:06.39	257.01	10.40	
2025-01-18 10:07:07.61	256.86	10.30	
2025-01-18 10:07:08.83	256.71	10.21	
2025-01-18 10:07:10.05	256.55	10.12	
2025-01-18 10:07:11.27	256.40	10.03	
2025-01-18 10:07:12.48	256.25	9.94	
2025-01-18 10:07:13.70	256.10	9.85	
2025-01-18 10:07:14.92	255.95	9.76	
2025-01-18 10:07:16.14	255.80	9.67	
2025-01-18 10:07:17.36	255.66	9.58	
2025-01-18 10:07:18.57	255.51	9.49	
2025-01-18 10:07:19.79	255.37	9.40	
2025-01-18 10:07:21.01	255.22	9.31	
2025-01-18 10:07:22.23	255.08	9.22	
2025-01-18 10:07:23.45	254.94	9.14	
2025-01-18 10:07:24.66	254.80	9.05	
2025-01-18 10:07:25.88	254.66	8.96	
2025-01-18 10:07:27.10	254.52	8.87	
2025-01-18 10:07:28.32	254.38	8.78	
2025-01-18 10:07:29.53	254.24	8.69	
2025-01-18 10:07:30.75	254.11	8.61	
2025-01-18 10:07:31.97	253.97	8.52	
2025-01-18 10:07:33.19	253.84	8.43	
2025-01-18 10:07:34.41	253.70	8.34	
2025-01-18 10:07:35.62	253.57	8.26	
2025-01-18 10:07:36.84	253.44	8.17	
2025-01-18 10:07:38.06	253.31	8.08	
2025-01-18 10:07:39.28	253.18	8.00	
2025-01-18 10:07:40.50	253.05	7.91	
2025-01-18 10:07:41.71	252.92	7.83	
2025-01-18 10:07:42.93	252.79	7.74	
2025-01-18 10:07:44.15	252.67	7.66	
2025-01-18 10:07:45.37	252.54	7.57	
2025-01-18 10:07:46.59	252.42	7.48	
2025-01-18 10:07:47.80	252.29	7.40	
2025-01-18 10:07:49.02	252.17	7.32	
2025-01-18 10:07:50.24	252.05	7.23	
2025-01-18 10:07:51.46	251.92	7.15	
2025-01-18 10:07:52.68	251.80	7.06	
2025-01-18 10:07:53.89	251.68	6.98	
2025-01-18 10:07:55.11	251.56	6.89	
2025-01-18 10:07:56.33	251.44	6.81	
2025-01-18 10:07:57.55	251.33	6.73	
2025-01-18 10:07:58.76	251.21	6.64	
2025-01-18 10:07:59.98	251.09	6.56	
2025-01-18 10:08:01.22	250.98	6.48	
2025-01-18 10:08:02.43	250.86	6.40	
2025-01-18 10:08:03.65	250.75	6.31	
2025-01-18 10:08:04.87	250.63	6.23	
2025-01-18 10:08:06.09	250.52	6.15	
2025-01-18 10:08:07.31	250.41	6.07	
2025-01-18 10:08:08.52	250.30	5.98	
2025-01-18 10:08:09.74	250.19	5.90	
2025-01-18 10:08:10.96	250.07	5.82	
2025-01-18 10:08:12.18	249.97	5.74	
2025-01-18 10:08:13.40	249.86	5.66	
2025-01-18 10:08:14.61	249.75	5.58	
2025-01-18 10:08:15.83	249.64	5.50	
2025-01-18 10:08:17.05	249.53	5.42	
2025-01-18 10:08:18.27	249.43	5.34	
2025-01-18 10:08:19.49	249.32	5.26	
2025-01-18 10:08:20.70	249.22	5.18	
2025-01-18 10:08:21.92	249.11	5.10	
2025-01-18 10:08:23.14	249.01	5.02	
2025-01-18 10:08:24.36	248.91	4.94	
2025-01-18 10:08:25.57	248.81	4.86	
2025-01-18 10:08:26.79	248.70	4.78	
2025-01-18 10:08:28.01	248.60	4.70	
2025-01-18 10:08:29.23	248.50	4.62	
2025-01-18 10:08:30.45	248.40	4.55	
2025-01-18 10:08:31.66	248.30	4.47	
2025-01-18 10:08:32.88	248.20	4.39	
2025-01-18 10:08:34.10	248.11	4.31	
2025-01-18 10:08:35.32	248.01	4.23	
2025-01-18 10:08:36.54	247.91	4.16	
2025-01-18 10:08:37.75	247.82	4.08	
2025-01-18 10:08:38.97	247.72	4.00	

#Closed at: 2025-01-18 10:08:39