passes_logs/2025/01/18/SPB_Silybum_02/SPB_Silybum_02__20250118_005653_SUOMI_NPP_rec.log

#Pass ID: 20250118_005653_SUOMI NPP
#Satellite: SUOMI NPP
#Configuration: NPP
#Start time: 2025-01-18 00:56:52

#Version: 2.0.20230423
#Station: SPB_Silybum_02
#Location: 30.233357 lon 59.946436 lat
#TLE: 1 37849U 11061A   25017.17539025  .00000183  00000+0  10766-3 0  9991
#TLE: 2 37849  98.7449 318.1364 0001599  37.8052 322.3236 14.19539290685226

#Time	Az	El	Level	Level2	SNR	BER	Gain	Gain2
2025-01-18 00:56:54.63	16.19	4.06	
2025-01-18 00:56:56.05	16.16	4.16	
2025-01-18 00:56:57.47	16.13	4.25	
2025-01-18 00:56:58.89	16.09	4.35	
2025-01-18 00:57:00.31	16.06	4.45	
2025-01-18 00:57:01.73	16.02	4.55	
2025-01-18 00:57:03.15	15.99	4.65	
2025-01-18 00:57:04.57	15.95	4.74	
2025-01-18 00:57:06.00	15.92	4.84	
2025-01-18 00:57:07.42	15.88	4.94	
2025-01-18 00:57:08.84	15.85	5.04	
2025-01-18 00:57:10.26	15.81	5.14	
2025-01-18 00:57:11.68	15.77	5.24	
2025-01-18 00:57:13.10	15.74	5.34	
2025-01-18 00:57:14.52	15.70	5.44	
2025-01-18 00:57:15.94	15.66	5.54	
2025-01-18 00:57:17.36	15.63	5.65	
2025-01-18 00:57:18.78	15.59	5.75	
2025-01-18 00:57:20.20	15.55	5.85	
2025-01-18 00:57:21.63	15.51	5.95	
2025-01-18 00:57:23.05	15.47	6.06	
2025-01-18 00:57:24.47	15.43	6.16	
2025-01-18 00:57:25.89	15.39	6.27	
2025-01-18 00:57:27.31	15.35	6.37	
2025-01-18 00:57:28.73	15.31	6.48	
2025-01-18 00:57:30.15	15.27	6.58	
2025-01-18 00:57:31.57	15.23	6.69	
2025-01-18 00:57:32.99	15.19	6.79	
2025-01-18 00:57:34.41	15.15	6.90	
2025-01-18 00:57:35.83	15.11	7.01	
2025-01-18 00:57:37.25	15.06	7.11	
2025-01-18 00:57:38.68	15.02	7.22	
2025-01-18 00:57:40.10	14.98	7.33	
2025-01-18 00:57:41.52	14.94	7.44	
2025-01-18 00:57:42.94	14.89	7.55	
2025-01-18 00:57:44.36	14.85	7.66	
2025-01-18 00:57:45.78	14.80	7.77	
2025-01-18 00:57:47.20	14.76	7.88	
2025-01-18 00:57:48.62	14.71	7.99	
2025-01-18 00:57:50.04	14.67	8.10	
2025-01-18 00:57:51.46	14.62	8.21	
2025-01-18 00:57:52.88	14.58	8.33	
2025-01-18 00:57:54.30	14.53	8.44	
2025-01-18 00:57:55.73	14.48	8.55	
2025-01-18 00:57:57.15	14.43	8.67	
2025-01-18 00:57:58.57	14.39	8.78	
2025-01-18 00:57:59.99	14.34	8.90	
2025-01-18 00:58:01.41	14.29	9.01	
2025-01-18 00:58:02.83	14.24	9.13	
2025-01-18 00:58:04.25	14.19	9.24	
2025-01-18 00:58:05.67	14.14	9.36	
2025-01-18 00:58:07.09	14.09	9.48	
2025-01-18 00:58:08.51	14.04	9.60	
2025-01-18 00:58:09.93	13.98	9.71	
2025-01-18 00:58:11.36	13.93	9.83	
2025-01-18 00:58:12.78	13.88	9.95	
2025-01-18 00:58:14.20	13.83	10.07	
2025-01-18 00:58:15.62	13.77	10.20	
2025-01-18 00:58:17.04	13.72	10.32	
2025-01-18 00:58:18.46	13.66	10.44	
2025-01-18 00:58:19.88	13.61	10.56	
2025-01-18 00:58:21.30	13.55	10.68	
2025-01-18 00:58:22.72	13.50	10.81	
2025-01-18 00:58:24.14	13.44	10.93	
2025-01-18 00:58:25.56	13.38	11.06	
2025-01-18 00:58:26.98	13.33	11.18	
2025-01-18 00:58:28.41	13.27	11.31	
2025-01-18 00:58:29.83	13.21	11.44	
2025-01-18 00:58:31.25	13.15	11.56	
2025-01-18 00:58:32.67	13.09	11.69	
2025-01-18 00:58:34.09	13.03	11.82	
2025-01-18 00:58:35.51	12.97	11.95	
2025-01-18 00:58:36.93	12.91	12.08	
2025-01-18 00:58:38.35	12.84	12.21	
2025-01-18 00:58:39.77	12.78	12.34	
2025-01-18 00:58:41.19	12.72	12.47	
2025-01-18 00:58:42.61	12.65	12.61	
2025-01-18 00:58:44.04	12.59	12.74	
2025-01-18 00:58:45.46	12.52	12.87	
2025-01-18 00:58:46.88	12.46	13.01	
2025-01-18 00:58:48.30	12.39	13.14	
2025-01-18 00:58:49.72	12.32	13.28	
2025-01-18 00:58:51.14	12.26	13.42	
2025-01-18 00:58:52.56	12.19	13.55	
2025-01-18 00:58:53.98	12.12	13.69	
2025-01-18 00:58:55.40	12.05	13.83	
2025-01-18 00:58:56.82	11.98	13.97	
2025-01-18 00:58:58.24	11.91	14.11	
2025-01-18 00:58:59.66	11.83	14.25	
2025-01-18 00:59:01.09	11.76	14.40	
2025-01-18 00:59:02.51	11.69	14.54	
2025-01-18 00:59:03.93	11.61	14.68	
2025-01-18 00:59:05.35	11.54	14.83	
2025-01-18 00:59:06.77	11.46	14.97	
2025-01-18 00:59:08.19	11.38	15.12	
2025-01-18 00:59:09.61	11.31	15.27	
2025-01-18 00:59:11.03	11.23	15.41	
2025-01-18 00:59:12.45	11.15	15.56	
2025-01-18 00:59:13.87	11.07	15.71	
2025-01-18 00:59:15.29	10.99	15.86	
2025-01-18 00:59:16.71	10.90	16.01	
2025-01-18 00:59:18.14	10.82	16.17	
2025-01-18 00:59:19.56	10.74	16.32	
2025-01-18 00:59:20.98	10.65	16.47	
2025-01-18 00:59:22.40	10.57	16.63	
2025-01-18 00:59:23.82	10.48	16.78	
2025-01-18 00:59:25.24	10.39	16.94	
2025-01-18 00:59:26.66	10.30	17.10	
2025-01-18 00:59:28.08	10.22	17.26	
2025-01-18 00:59:29.50	10.12	17.41	
2025-01-18 00:59:30.92	10.03	17.58	
2025-01-18 00:59:32.34	9.94	17.74	
2025-01-18 00:59:33.77	9.85	17.90	
2025-01-18 00:59:35.19	9.75	18.06	
2025-01-18 00:59:36.61	9.66	18.23	
2025-01-18 00:59:38.03	9.56	18.39	
2025-01-18 00:59:39.45	9.46	18.56	
2025-01-18 00:59:40.87	9.36	18.73	
2025-01-18 00:59:42.29	9.26	18.90	
2025-01-18 00:59:43.71	9.16	19.06	
2025-01-18 00:59:45.13	9.06	19.24	
2025-01-18 00:59:46.55	8.95	19.41	
2025-01-18 00:59:47.97	8.85	19.58	
2025-01-18 00:59:49.39	8.74	19.75	
2025-01-18 00:59:50.82	8.63	19.93	
2025-01-18 00:59:52.24	8.53	20.11	
2025-01-18 00:59:53.66	8.42	20.28	
2025-01-18 00:59:55.08	8.30	20.46	
2025-01-18 00:59:56.50	8.19	20.64	
2025-01-18 00:59:57.92	8.08	20.82	
2025-01-18 00:59:59.34	7.96	21.00	
2025-01-18 01:00:00.76	7.84	21.19	
2025-01-18 01:00:02.18	7.72	21.37	
2025-01-18 01:00:03.60	7.60	21.56	
2025-01-18 01:00:05.02	7.48	21.74	
2025-01-18 01:00:06.44	7.36	21.93	
2025-01-18 01:00:07.87	7.23	22.12	
2025-01-18 01:00:09.29	7.11	22.31	
2025-01-18 01:00:10.71	6.98	22.51	
2025-01-18 01:00:12.13	6.85	22.70	
2025-01-18 01:00:13.55	6.72	22.89	
2025-01-18 01:00:14.97	6.59	23.09	
2025-01-18 01:00:16.39	6.45	23.29	
2025-01-18 01:00:17.81	6.31	23.48	
2025-01-18 01:00:19.23	6.18	23.68	
2025-01-18 01:00:20.65	6.04	23.88	
2025-01-18 01:00:22.07	5.89	24.09	
2025-01-18 01:00:23.50	5.75	24.29	
2025-01-18 01:00:24.92	5.60	24.50	
2025-01-18 01:00:26.34	5.45	24.70	
2025-01-18 01:00:27.76	5.30	24.91	
2025-01-18 01:00:29.18	5.15	25.12	
2025-01-18 01:00:30.60	5.00	25.33	
2025-01-18 01:00:32.02	4.84	25.55	
2025-01-18 01:00:33.44	4.68	25.76	
2025-01-18 01:00:34.86	4.52	25.97	
2025-01-18 01:00:36.28	4.36	26.19	
2025-01-18 01:00:37.70	4.19	26.41	
2025-01-18 01:00:39.12	4.03	26.63	
2025-01-18 01:00:40.55	3.85	26.85	
2025-01-18 01:00:41.97	3.68	27.08	
2025-01-18 01:00:43.39	3.51	27.30	
2025-01-18 01:00:44.81	3.33	27.53	
2025-01-18 01:00:46.23	3.15	27.75	
2025-01-18 01:00:47.65	2.96	27.98	
2025-01-18 01:00:49.07	2.78	28.21	
2025-01-18 01:00:50.49	2.59	28.45	
2025-01-18 01:00:51.91	2.40	28.68	
2025-01-18 01:00:53.33	2.20	28.91	
2025-01-18 01:00:54.75	2.01	29.15	
2025-01-18 01:00:56.17	1.81	29.39	
2025-01-18 01:00:57.60	1.60	29.63	
2025-01-18 01:00:59.02	1.40	29.87	
2025-01-18 01:01:00.44	1.19	30.12	
2025-01-18 01:01:01.86	0.97	30.36	
2025-01-18 01:01:03.28	0.76	30.61	
2025-01-18 01:01:04.70	0.54	30.86	
2025-01-18 01:01:06.12	0.31	31.11	
2025-01-18 01:01:07.54	0.09	31.36	
2025-01-18 01:01:08.96	359.86	31.61	
2025-01-18 01:01:10.38	359.62	31.87	
2025-01-18 01:01:11.80	359.39	32.13	
2025-01-18 01:01:13.23	359.14	32.39	
2025-01-18 01:01:14.65	358.90	32.65	
2025-01-18 01:01:16.07	358.65	32.91	
2025-01-18 01:01:17.49	358.39	33.17	
2025-01-18 01:01:18.91	358.13	33.44	
2025-01-18 01:01:20.33	357.87	33.70	
2025-01-18 01:01:21.75	357.60	33.97	
2025-01-18 01:01:23.17	357.33	34.24	
2025-01-18 01:01:24.59	357.06	34.51	
2025-01-18 01:01:26.01	356.78	34.79	
2025-01-18 01:01:27.43	356.49	35.06	
2025-01-18 01:01:28.85	356.20	35.34	
2025-01-18 01:01:30.28	355.90	35.62	
2025-01-18 01:01:31.70	355.60	35.90	
2025-01-18 01:01:33.12	355.29	36.18	
2025-01-18 01:01:34.54	354.98	36.46	
2025-01-18 01:01:35.96	354.67	36.75	
2025-01-18 01:01:37.38	354.34	37.03	
2025-01-18 01:01:38.80	354.01	37.32	
2025-01-18 01:01:40.22	353.68	37.61	
2025-01-18 01:01:41.64	353.34	37.90	
2025-01-18 01:01:43.06	352.99	38.19	
2025-01-18 01:01:44.48	352.64	38.48	
2025-01-18 01:01:45.90	352.28	38.77	
2025-01-18 01:01:47.33	351.91	39.07	
2025-01-18 01:01:48.75	351.54	39.37	
2025-01-18 01:01:50.17	351.16	39.66	
2025-01-18 01:01:51.59	350.77	39.96	
2025-01-18 01:01:53.01	350.37	40.26	
2025-01-18 01:01:54.43	349.97	40.56	
2025-01-18 01:01:55.85	349.56	40.86	
2025-01-18 01:01:57.27	349.14	41.16	
2025-01-18 01:01:58.69	348.72	41.46	
2025-01-18 01:02:00.11	348.29	41.77	
2025-01-18 01:02:01.53	347.84	42.07	
2025-01-18 01:02:02.96	347.39	42.38	
2025-01-18 01:02:04.38	346.93	42.68	
2025-01-18 01:02:05.80	346.46	42.99	
2025-01-18 01:02:07.22	345.99	43.29	
2025-01-18 01:02:08.64	345.50	43.60	
2025-01-18 01:02:10.06	345.00	43.91	
2025-01-18 01:02:11.48	344.50	44.21	
2025-01-18 01:02:12.90	343.98	44.52	
2025-01-18 01:02:14.32	343.46	44.82	
2025-01-18 01:02:15.74	342.92	45.13	
2025-01-18 01:02:17.16	342.37	45.43	
2025-01-18 01:02:18.58	341.82	45.73	
2025-01-18 01:02:20.01	341.25	46.04	
2025-01-18 01:02:21.43	340.67	46.34	
2025-01-18 01:02:22.85	340.08	46.64	
2025-01-18 01:02:24.27	339.47	46.94	
2025-01-18 01:02:25.69	338.86	47.24	
2025-01-18 01:02:27.11	338.23	47.54	
2025-01-18 01:02:28.53	337.60	47.83	
2025-01-18 01:02:29.95	336.95	48.12	
2025-01-18 01:02:31.37	336.28	48.41	
2025-01-18 01:02:32.79	335.61	48.70	
2025-01-18 01:02:34.21	334.92	48.99	
2025-01-18 01:02:35.64	334.22	49.27	
2025-01-18 01:02:37.06	333.50	49.55	
2025-01-18 01:02:38.48	332.77	49.83	
2025-01-18 01:02:39.90	332.03	50.11	
2025-01-18 01:02:41.32	331.28	50.38	
2025-01-18 01:02:42.74	330.51	50.64	
2025-01-18 01:02:44.16	329.73	50.91	
2025-01-18 01:02:45.58	328.94	51.16	
2025-01-18 01:02:47.00	328.13	51.42	
2025-01-18 01:02:48.42	327.30	51.67	
2025-01-18 01:02:49.84	326.47	51.91	
2025-01-18 01:02:51.26	325.62	52.15	
2025-01-18 01:02:52.69	324.75	52.38	
2025-01-18 01:02:54.11	323.87	52.61	
2025-01-18 01:02:55.53	322.98	52.83	
2025-01-18 01:02:56.95	322.07	53.05	
2025-01-18 01:02:58.37	321.15	53.26	
2025-01-18 01:02:59.79	320.22	53.46	
2025-01-18 01:03:01.21	319.28	53.65	
2025-01-18 01:03:02.63	318.32	53.84	
2025-01-18 01:03:04.05	317.35	54.02	
2025-01-18 01:03:05.48	316.36	54.19	
2025-01-18 01:03:06.90	315.37	54.36	
2025-01-18 01:03:08.32	314.37	54.51	
2025-01-18 01:03:09.74	313.35	54.66	
2025-01-18 01:03:11.16	312.33	54.80	
2025-01-18 01:03:12.58	311.29	54.93	
2025-01-18 01:03:14.00	310.25	55.05	
2025-01-18 01:03:15.42	309.20	55.16	
2025-01-18 01:03:16.84	308.14	55.26	
2025-01-18 01:03:18.27	307.06	55.35	
2025-01-18 01:03:19.69	305.99	55.43	
2025-01-18 01:03:21.11	304.90	55.51	
2025-01-18 01:03:22.53	303.82	55.57	
2025-01-18 01:03:23.95	302.73	55.62	
2025-01-18 01:03:25.37	301.63	55.66	
2025-01-18 01:03:26.79	300.54	55.70	
2025-01-18 01:03:28.21	299.44	55.72	
2025-01-18 01:03:29.63	298.34	55.73	
2025-01-18 01:03:31.05	297.24	55.73	
2025-01-18 01:03:32.47	296.14	55.72	
2025-01-18 01:03:33.89	295.04	55.70	
2025-01-18 01:03:35.32	293.93	55.67	
2025-01-18 01:03:36.74	292.84	55.63	
2025-01-18 01:03:38.16	291.74	55.58	
2025-01-18 01:03:39.58	290.66	55.51	
2025-01-18 01:03:41.00	289.58	55.44	
2025-01-18 01:03:42.42	288.50	55.36	
2025-01-18 01:03:43.84	287.43	55.27	
2025-01-18 01:03:45.26	286.37	55.17	
2025-01-18 01:03:46.68	285.31	55.06	
2025-01-18 01:03:48.10	284.27	54.94	
2025-01-18 01:03:49.52	283.23	54.81	
2025-01-18 01:03:50.95	282.20	54.67	
2025-01-18 01:03:52.37	281.18	54.53	
2025-01-18 01:03:53.79	280.17	54.37	
2025-01-18 01:03:55.21	279.18	54.21	
2025-01-18 01:03:56.63	278.20	54.04	
2025-01-18 01:03:58.05	277.22	53.86	
2025-01-18 01:03:59.47	276.26	53.67	
2025-01-18 01:04:00.89	275.32	53.48	
2025-01-18 01:04:02.31	274.38	53.27	
2025-01-18 01:04:03.73	273.46	53.07	
2025-01-18 01:04:05.15	272.55	52.85	
2025-01-18 01:04:06.57	271.66	52.63	
2025-01-18 01:04:08.00	270.77	52.40	
2025-01-18 01:04:09.42	269.91	52.17	
2025-01-18 01:04:10.84	269.05	51.93	
2025-01-18 01:04:12.26	268.21	51.69	
2025-01-18 01:04:13.68	267.39	51.44	
2025-01-18 01:04:15.10	266.58	51.18	
2025-01-18 01:04:16.52	265.78	50.93	
2025-01-18 01:04:17.94	264.99	50.66	
2025-01-18 01:04:19.36	264.22	50.40	
2025-01-18 01:04:20.78	263.47	50.13	
2025-01-18 01:04:22.20	262.72	49.85	
2025-01-18 01:04:23.62	261.99	49.57	
2025-01-18 01:04:25.05	261.27	49.29	
2025-01-18 01:04:26.47	260.57	49.01	
2025-01-18 01:04:27.89	259.88	48.72	
2025-01-18 01:04:29.31	259.20	48.43	
2025-01-18 01:04:30.73	258.53	48.14	
2025-01-18 01:04:32.15	257.88	47.85	
2025-01-18 01:04:33.57	257.24	47.55	
2025-01-18 01:04:34.99	256.61	47.25	
2025-01-18 01:04:36.41	256.00	46.95	
2025-01-18 01:04:37.83	255.39	46.65	
2025-01-18 01:04:39.25	254.80	46.35	
2025-01-18 01:04:40.68	254.21	46.05	
2025-01-18 01:04:42.10	253.64	45.74	
2025-01-18 01:04:43.52	253.08	45.44	
2025-01-18 01:04:44.94	252.54	45.13	
2025-01-18 01:04:46.36	252.00	44.83	
2025-01-18 01:04:47.78	251.47	44.52	
2025-01-18 01:04:49.20	250.95	44.22	
2025-01-18 01:04:50.62	250.44	43.91	
2025-01-18 01:04:52.04	249.95	43.60	
2025-01-18 01:04:53.46	249.46	43.30	
2025-01-18 01:04:54.88	248.98	42.99	
2025-01-18 01:04:56.30	248.51	42.68	
2025-01-18 01:04:57.73	248.04	42.38	
2025-01-18 01:04:59.15	247.59	42.07	
2025-01-18 01:05:00.57	247.15	41.76	
2025-01-18 01:05:01.99	246.71	41.46	
2025-01-18 01:05:03.41	246.28	41.16	
2025-01-18 01:05:04.83	245.86	40.85	
2025-01-18 01:05:06.25	245.45	40.55	
2025-01-18 01:05:07.67	245.05	40.25	
2025-01-18 01:05:09.09	244.65	39.95	
2025-01-18 01:05:10.51	244.26	39.65	
2025-01-18 01:05:11.93	243.88	39.35	
2025-01-18 01:05:13.35	243.51	39.06	
2025-01-18 01:05:14.78	243.14	38.76	
2025-01-18 01:05:16.20	242.77	38.46	
2025-01-18 01:05:17.62	242.42	38.17	
2025-01-18 01:05:19.04	242.07	37.88	
2025-01-18 01:05:20.46	241.73	37.59	
2025-01-18 01:05:21.88	241.39	37.30	
2025-01-18 01:05:23.30	241.06	37.01	
2025-01-18 01:05:24.72	240.74	36.72	
2025-01-18 01:05:26.14	240.42	36.44	
2025-01-18 01:05:27.56	240.11	36.15	
2025-01-18 01:05:28.98	239.80	35.87	
2025-01-18 01:05:30.41	239.49	35.59	
2025-01-18 01:05:31.83	239.20	35.31	
2025-01-18 01:05:33.25	238.90	35.03	
2025-01-18 01:05:34.67	238.62	34.76	
2025-01-18 01:05:36.09	238.33	34.48	
2025-01-18 01:05:37.51	238.06	34.21	
2025-01-18 01:05:38.93	237.78	33.94	
2025-01-18 01:05:40.35	237.52	33.67	
2025-01-18 01:05:41.77	237.25	33.40	
2025-01-18 01:05:43.19	236.99	33.13	
2025-01-18 01:05:44.61	236.74	32.87	
2025-01-18 01:05:46.03	236.49	32.61	
2025-01-18 01:05:47.46	236.24	32.34	
2025-01-18 01:05:48.88	235.99	32.08	
2025-01-18 01:05:50.30	235.75	31.83	
2025-01-18 01:05:51.72	235.52	31.57	
2025-01-18 01:05:53.14	235.29	31.32	
2025-01-18 01:05:54.56	235.06	31.06	
2025-01-18 01:05:55.98	234.84	30.81	
2025-01-18 01:05:57.40	234.61	30.56	
2025-01-18 01:05:58.82	234.40	30.31	
2025-01-18 01:06:00.24	234.18	30.07	
2025-01-18 01:06:01.66	233.97	29.82	
2025-01-18 01:06:03.09	233.76	29.58	
2025-01-18 01:06:04.51	233.56	29.34	
2025-01-18 01:06:05.93	233.36	29.10	
2025-01-18 01:06:07.35	233.16	28.86	
2025-01-18 01:06:08.77	232.96	28.62	
2025-01-18 01:06:10.19	232.77	28.39	
2025-01-18 01:06:11.61	232.58	28.15	
2025-01-18 01:06:13.03	232.39	27.92	
2025-01-18 01:06:14.45	232.21	27.69	
2025-01-18 01:06:15.87	232.03	27.46	
2025-01-18 01:06:17.29	231.85	27.24	
2025-01-18 01:06:18.71	231.67	27.01	
2025-01-18 01:06:20.14	231.50	26.79	
2025-01-18 01:06:21.56	231.33	26.56	
2025-01-18 01:06:22.98	231.16	26.34	
2025-01-18 01:06:24.40	230.99	26.12	
2025-01-18 01:06:25.82	230.83	25.91	
2025-01-18 01:06:27.24	230.67	25.69	
2025-01-18 01:06:28.66	230.51	25.48	
2025-01-18 01:06:30.08	230.35	25.26	
2025-01-18 01:06:31.50	230.19	25.05	
2025-01-18 01:06:32.92	230.04	24.84	
2025-01-18 01:06:34.34	229.89	24.63	
2025-01-18 01:06:35.76	229.74	24.42	
2025-01-18 01:06:37.19	229.59	24.22	
2025-01-18 01:06:38.61	229.45	24.01	
2025-01-18 01:06:40.03	229.30	23.81	
2025-01-18 01:06:41.45	229.16	23.61	
2025-01-18 01:06:42.87	229.02	23.41	
2025-01-18 01:06:44.29	228.88	23.21	
2025-01-18 01:06:45.71	228.75	23.01	
2025-01-18 01:06:47.13	228.61	22.81	
2025-01-18 01:06:48.55	228.48	22.62	
2025-01-18 01:06:49.97	228.35	22.42	
2025-01-18 01:06:51.39	228.22	22.23	
2025-01-18 01:06:52.82	228.09	22.04	
2025-01-18 01:06:54.24	227.97	21.85	
2025-01-18 01:06:55.66	227.84	21.66	
2025-01-18 01:06:57.08	227.72	21.47	
2025-01-18 01:06:58.50	227.60	21.29	
2025-01-18 01:06:59.92	227.48	21.10	
2025-01-18 01:07:01.34	227.36	20.92	
2025-01-18 01:07:02.76	227.25	20.73	
2025-01-18 01:07:04.18	227.13	20.55	
2025-01-18 01:07:05.60	227.02	20.37	
2025-01-18 01:07:07.02	226.90	20.19	
2025-01-18 01:07:08.44	226.79	20.02	
2025-01-18 01:07:09.87	226.68	19.84	
2025-01-18 01:07:11.29	226.57	19.66	
2025-01-18 01:07:12.71	226.46	19.49	
2025-01-18 01:07:14.13	226.36	19.31	
2025-01-18 01:07:15.55	226.25	19.14	
2025-01-18 01:07:16.97	226.15	18.97	
2025-01-18 01:07:18.39	226.05	18.80	
2025-01-18 01:07:19.81	225.95	18.63	
2025-01-18 01:07:21.23	225.85	18.46	
2025-01-18 01:07:22.65	225.75	18.30	
2025-01-18 01:07:24.07	225.65	18.13	
2025-01-18 01:07:25.49	225.55	17.97	
2025-01-18 01:07:26.92	225.46	17.80	
2025-01-18 01:07:28.34	225.36	17.64	
2025-01-18 01:07:29.76	225.27	17.48	
2025-01-18 01:07:31.18	225.18	17.32	
2025-01-18 01:07:32.60	225.08	17.16	
2025-01-18 01:07:34.02	224.99	17.00	
2025-01-18 01:07:35.44	224.90	16.84	
2025-01-18 01:07:36.86	224.81	16.68	
2025-01-18 01:07:38.28	224.73	16.53	
2025-01-18 01:07:39.70	224.64	16.37	
2025-01-18 01:07:41.12	224.55	16.22	
2025-01-18 01:07:42.55	224.47	16.06	
2025-01-18 01:07:43.97	224.39	15.91	
2025-01-18 01:07:45.39	224.30	15.76	
2025-01-18 01:07:46.81	224.22	15.61	
2025-01-18 01:07:48.23	224.14	15.46	
2025-01-18 01:07:49.65	224.06	15.31	
2025-01-18 01:07:51.07	223.98	15.16	
2025-01-18 01:07:52.49	223.90	15.01	
2025-01-18 01:07:53.91	223.82	14.87	
2025-01-18 01:07:55.33	223.74	14.72	
2025-01-18 01:07:56.75	223.67	14.57	
2025-01-18 01:07:58.17	223.59	14.43	
2025-01-18 01:07:59.60	223.52	14.29	
2025-01-18 01:08:01.02	223.44	14.14	
2025-01-18 01:08:02.44	223.37	14.00	
2025-01-18 01:08:03.86	223.30	13.86	
2025-01-18 01:08:05.28	223.23	13.72	
2025-01-18 01:08:06.70	223.15	13.58	
2025-01-18 01:08:08.12	223.08	13.44	
2025-01-18 01:08:09.54	223.01	13.31	
2025-01-18 01:08:10.96	222.94	13.17	
2025-01-18 01:08:12.38	222.88	13.03	
2025-01-18 01:08:13.80	222.81	12.90	
2025-01-18 01:08:15.22	222.74	12.76	
2025-01-18 01:08:16.65	222.67	12.63	
2025-01-18 01:08:18.07	222.61	12.49	
2025-01-18 01:08:19.49	222.54	12.36	
2025-01-18 01:08:20.91	222.48	12.23	
2025-01-18 01:08:22.33	222.41	12.09	
2025-01-18 01:08:23.75	222.35	11.96	
2025-01-18 01:08:25.17	222.29	11.83	
2025-01-18 01:08:26.59	222.23	11.70	
2025-01-18 01:08:28.01	222.16	11.58	
2025-01-18 01:08:29.43	222.10	11.45	
2025-01-18 01:08:30.85	222.04	11.32	
2025-01-18 01:08:32.28	221.98	11.19	
2025-01-18 01:08:33.70	221.92	11.06	
2025-01-18 01:08:35.12	221.86	10.94	
2025-01-18 01:08:36.54	221.81	10.81	
2025-01-18 01:08:37.96	221.75	10.69	
2025-01-18 01:08:39.38	221.69	10.57	
2025-01-18 01:08:40.80	221.63	10.44	
2025-01-18 01:08:42.22	221.58	10.32	
2025-01-18 01:08:43.64	221.52	10.20	
2025-01-18 01:08:45.06	221.47	10.08	
2025-01-18 01:08:46.48	221.41	9.95	
2025-01-18 01:08:47.90	221.36	9.83	
2025-01-18 01:08:49.33	221.30	9.71	
2025-01-18 01:08:50.75	221.25	9.59	
2025-01-18 01:08:52.17	221.20	9.47	
2025-01-18 01:08:53.59	221.14	9.36	
2025-01-18 01:08:55.01	221.09	9.24	
2025-01-18 01:08:56.43	221.04	9.12	
2025-01-18 01:08:57.85	220.99	9.00	
2025-01-18 01:08:59.27	220.94	8.89	
2025-01-18 01:09:00.69	220.89	8.77	
2025-01-18 01:09:02.11	220.84	8.66	
2025-01-18 01:09:03.53	220.79	8.54	
2025-01-18 01:09:04.95	220.74	8.43	
2025-01-18 01:09:06.38	220.69	8.31	
2025-01-18 01:09:07.80	220.64	8.20	
2025-01-18 01:09:09.22	220.60	8.09	
2025-01-18 01:09:10.64	220.55	7.98	
2025-01-18 01:09:12.06	220.50	7.86	
2025-01-18 01:09:13.48	220.46	7.75	
2025-01-18 01:09:14.90	220.41	7.64	
2025-01-18 01:09:16.32	220.36	7.53	
2025-01-18 01:09:17.74	220.32	7.42	
2025-01-18 01:09:19.16	220.27	7.31	
2025-01-18 01:09:20.58	220.23	7.20	
2025-01-18 01:09:22.01	220.18	7.09	
2025-01-18 01:09:23.43	220.14	6.99	
2025-01-18 01:09:24.85	220.10	6.88	
2025-01-18 01:09:26.27	220.05	6.77	
2025-01-18 01:09:27.69	220.01	6.66	
2025-01-18 01:09:29.11	219.97	6.56	
2025-01-18 01:09:30.53	219.92	6.45	
2025-01-18 01:09:31.95	219.88	6.35	
2025-01-18 01:09:33.37	219.84	6.24	
2025-01-18 01:09:34.79	219.80	6.14	
2025-01-18 01:09:36.21	219.76	6.03	
2025-01-18 01:09:37.63	219.72	5.93	
2025-01-18 01:09:39.06	219.68	5.82	
2025-01-18 01:09:40.48	219.64	5.72	
2025-01-18 01:09:41.90	219.60	5.62	
2025-01-18 01:09:43.32	219.56	5.52	
2025-01-18 01:09:44.74	219.52	5.41	
2025-01-18 01:09:46.16	219.48	5.31	
2025-01-18 01:09:47.58	219.44	5.21	
2025-01-18 01:09:49.00	219.40	5.11	
2025-01-18 01:09:50.42	219.37	5.01	
2025-01-18 01:09:51.84	219.33	4.91	
2025-01-18 01:09:53.26	219.29	4.81	
2025-01-18 01:09:54.69	219.25	4.71	
2025-01-18 01:09:56.11	219.22	4.61	
2025-01-18 01:09:57.53	219.18	4.51	
2025-01-18 01:09:58.95	219.14	4.41	
2025-01-18 01:10:00.37	219.11	4.32	
2025-01-18 01:10:01.79	219.07	4.22	
2025-01-18 01:10:03.21	219.04	4.12	
2025-01-18 01:10:04.63	219.00	4.02	

#Closed at: 2025-01-18 01:10:05