passes_logs/2025/01/18/SPB_Silybum_02/SPB_Silybum_02__20250118_175656_TERRA_rec.log

#Pass ID: 20250118_175656_TERRA
#Satellite: TERRA
#Configuration: TERRA
#Start time: 2025-01-18 17:56:56

#Version: 2.0.20230423
#Station: SPB_Silybum_02
#Location: 30.233357 lon 59.946436 lat
#TLE: 1 25994U 99068A   25017.80257355  .00000903  00000+0  19577-3 0  9994
#TLE: 2 25994  98.0211  80.7437 0003372  66.8373  47.3878 14.60400955334482

#Time	Az	El	Level	Level2	SNR	BER	Gain	Gain2
2025-01-18 17:56:58.67	143.73	4.19	
2025-01-18 17:56:59.89	143.70	4.28	
2025-01-18 17:57:01.11	143.66	4.37	
2025-01-18 17:57:02.33	143.63	4.45	
2025-01-18 17:57:03.55	143.60	4.54	
2025-01-18 17:57:04.77	143.56	4.63	
2025-01-18 17:57:05.98	143.53	4.72	
2025-01-18 17:57:07.20	143.49	4.81	
2025-01-18 17:57:08.42	143.46	4.90	
2025-01-18 17:57:09.64	143.42	4.99	
2025-01-18 17:57:10.86	143.38	5.08	
2025-01-18 17:57:12.08	143.35	5.17	
2025-01-18 17:57:13.29	143.31	5.26	
2025-01-18 17:57:14.51	143.27	5.35	
2025-01-18 17:57:15.73	143.24	5.44	
2025-01-18 17:57:16.95	143.20	5.54	
2025-01-18 17:57:18.17	143.16	5.63	
2025-01-18 17:57:19.39	143.12	5.72	
2025-01-18 17:57:20.60	143.09	5.81	
2025-01-18 17:57:21.82	143.05	5.91	
2025-01-18 17:57:23.04	143.01	6.00	
2025-01-18 17:57:24.26	142.97	6.10	
2025-01-18 17:57:25.48	142.93	6.19	
2025-01-18 17:57:26.70	142.89	6.29	
2025-01-18 17:57:27.92	142.85	6.38	
2025-01-18 17:57:29.13	142.81	6.48	
2025-01-18 17:57:30.35	142.77	6.57	
2025-01-18 17:57:31.57	142.73	6.67	
2025-01-18 17:57:32.79	142.69	6.77	
2025-01-18 17:57:34.01	142.64	6.86	
2025-01-18 17:57:35.23	142.60	6.96	
2025-01-18 17:57:36.44	142.56	7.06	
2025-01-18 17:57:37.66	142.52	7.16	
2025-01-18 17:57:38.88	142.47	7.26	
2025-01-18 17:57:40.10	142.43	7.36	
2025-01-18 17:57:41.32	142.39	7.46	
2025-01-18 17:57:42.54	142.34	7.56	
2025-01-18 17:57:43.75	142.30	7.66	
2025-01-18 17:57:44.97	142.25	7.76	
2025-01-18 17:57:46.19	142.21	7.86	
2025-01-18 17:57:47.41	142.16	7.96	
2025-01-18 17:57:48.63	142.12	8.06	
2025-01-18 17:57:49.85	142.07	8.16	
2025-01-18 17:57:51.06	142.02	8.27	
2025-01-18 17:57:52.28	141.98	8.37	
2025-01-18 17:57:53.50	141.93	8.48	
2025-01-18 17:57:54.72	141.88	8.58	
2025-01-18 17:57:55.94	141.83	8.68	
2025-01-18 17:57:57.16	141.79	8.79	
2025-01-18 17:57:58.38	141.74	8.90	
2025-01-18 17:57:59.59	141.69	9.00	
2025-01-18 17:58:00.83	141.64	9.11	
2025-01-18 17:58:02.05	141.59	9.22	
2025-01-18 17:58:03.26	141.54	9.33	
2025-01-18 17:58:04.48	141.49	9.43	
2025-01-18 17:58:05.70	141.43	9.54	
2025-01-18 17:58:06.92	141.38	9.65	
2025-01-18 17:58:08.14	141.33	9.76	
2025-01-18 17:58:09.36	141.28	9.87	
2025-01-18 17:58:10.57	141.22	9.98	
2025-01-18 17:58:11.79	141.17	10.10	
2025-01-18 17:58:13.01	141.11	10.21	
2025-01-18 17:58:14.23	141.06	10.32	
2025-01-18 17:58:15.45	141.00	10.43	
2025-01-18 17:58:16.67	140.95	10.55	
2025-01-18 17:58:17.89	140.89	10.66	
2025-01-18 17:58:19.10	140.84	10.78	
2025-01-18 17:58:20.32	140.78	10.89	
2025-01-18 17:58:21.54	140.72	11.01	
2025-01-18 17:58:22.76	140.66	11.12	
2025-01-18 17:58:23.98	140.60	11.24	
2025-01-18 17:58:25.20	140.54	11.36	
2025-01-18 17:58:26.41	140.48	11.48	
2025-01-18 17:58:27.63	140.42	11.60	
2025-01-18 17:58:28.85	140.36	11.72	
2025-01-18 17:58:30.07	140.30	11.84	
2025-01-18 17:58:31.29	140.24	11.96	
2025-01-18 17:58:32.51	140.18	12.08	
2025-01-18 17:58:33.72	140.11	12.20	
2025-01-18 17:58:34.94	140.05	12.32	
2025-01-18 17:58:36.16	139.98	12.45	
2025-01-18 17:58:37.38	139.92	12.57	
2025-01-18 17:58:38.60	139.85	12.69	
2025-01-18 17:58:39.82	139.79	12.82	
2025-01-18 17:58:41.03	139.72	12.95	
2025-01-18 17:58:42.25	139.65	13.07	
2025-01-18 17:58:43.47	139.58	13.20	
2025-01-18 17:58:44.69	139.52	13.33	
2025-01-18 17:58:45.91	139.45	13.46	
2025-01-18 17:58:47.13	139.37	13.59	
2025-01-18 17:58:48.35	139.30	13.72	
2025-01-18 17:58:49.56	139.23	13.85	
2025-01-18 17:58:50.78	139.16	13.98	
2025-01-18 17:58:52.00	139.09	14.11	
2025-01-18 17:58:53.22	139.01	14.24	
2025-01-18 17:58:54.44	138.94	14.38	
2025-01-18 17:58:55.66	138.86	14.51	
2025-01-18 17:58:56.87	138.79	14.65	
2025-01-18 17:58:58.09	138.71	14.79	
2025-01-18 17:58:59.31	138.63	14.92	
2025-01-18 17:59:00.53	138.55	15.06	
2025-01-18 17:59:01.75	138.47	15.20	
2025-01-18 17:59:02.97	138.39	15.34	
2025-01-18 17:59:04.18	138.31	15.48	
2025-01-18 17:59:05.40	138.23	15.62	
2025-01-18 17:59:06.62	138.15	15.76	
2025-01-18 17:59:07.84	138.06	15.91	
2025-01-18 17:59:09.06	137.98	16.05	
2025-01-18 17:59:10.28	137.89	16.19	
2025-01-18 17:59:11.49	137.81	16.34	
2025-01-18 17:59:12.71	137.72	16.49	
2025-01-18 17:59:13.93	137.63	16.63	
2025-01-18 17:59:15.15	137.54	16.78	
2025-01-18 17:59:16.37	137.45	16.93	
2025-01-18 17:59:17.59	137.36	17.08	
2025-01-18 17:59:18.81	137.27	17.23	
2025-01-18 17:59:20.02	137.18	17.38	
2025-01-18 17:59:21.24	137.08	17.54	
2025-01-18 17:59:22.46	136.99	17.69	
2025-01-18 17:59:23.68	136.89	17.85	
2025-01-18 17:59:24.90	136.79	18.00	
2025-01-18 17:59:26.12	136.69	18.16	
2025-01-18 17:59:27.33	136.60	18.32	
2025-01-18 17:59:28.55	136.49	18.48	
2025-01-18 17:59:29.77	136.39	18.64	
2025-01-18 17:59:30.99	136.29	18.80	
2025-01-18 17:59:32.21	136.18	18.96	
2025-01-18 17:59:33.43	136.08	19.12	
2025-01-18 17:59:34.64	135.97	19.29	
2025-01-18 17:59:35.86	135.86	19.45	
2025-01-18 17:59:37.08	135.75	19.62	
2025-01-18 17:59:38.30	135.64	19.79	
2025-01-18 17:59:39.52	135.53	19.96	
2025-01-18 17:59:40.74	135.42	20.13	
2025-01-18 17:59:41.95	135.30	20.30	
2025-01-18 17:59:43.17	135.19	20.47	
2025-01-18 17:59:44.39	135.07	20.64	
2025-01-18 17:59:45.61	134.95	20.82	
2025-01-18 17:59:46.83	134.83	20.99	
2025-01-18 17:59:48.05	134.71	21.17	
2025-01-18 17:59:49.27	134.59	21.35	
2025-01-18 17:59:50.48	134.46	21.53	
2025-01-18 17:59:51.70	134.34	21.71	
2025-01-18 17:59:52.92	134.21	21.89	
2025-01-18 17:59:54.14	134.08	22.07	
2025-01-18 17:59:55.36	133.95	22.26	
2025-01-18 17:59:56.58	133.81	22.44	
2025-01-18 17:59:57.79	133.68	22.63	
2025-01-18 17:59:59.01	133.54	22.82	
2025-01-18 18:00:00.23	133.40	23.01	
2025-01-18 18:00:01.45	133.26	23.20	
2025-01-18 18:00:02.67	133.12	23.39	
2025-01-18 18:00:03.89	132.98	23.59	
2025-01-18 18:00:05.10	132.83	23.78	
2025-01-18 18:00:06.32	132.68	23.98	
2025-01-18 18:00:07.54	132.53	24.18	
2025-01-18 18:00:08.76	132.38	24.38	
2025-01-18 18:00:09.98	132.23	24.58	
2025-01-18 18:00:11.20	132.07	24.78	
2025-01-18 18:00:12.42	131.91	24.98	
2025-01-18 18:00:13.63	131.75	25.19	
2025-01-18 18:00:14.85	131.59	25.39	
2025-01-18 18:00:16.07	131.43	25.60	
2025-01-18 18:00:17.29	131.26	25.81	
2025-01-18 18:00:18.51	131.09	26.02	
2025-01-18 18:00:19.73	130.92	26.24	
2025-01-18 18:00:20.94	130.74	26.45	
2025-01-18 18:00:22.16	130.57	26.67	
2025-01-18 18:00:23.38	130.39	26.88	
2025-01-18 18:00:24.60	130.21	27.10	
2025-01-18 18:00:25.82	130.02	27.32	
2025-01-18 18:00:27.04	129.83	27.55	
2025-01-18 18:00:28.25	129.64	27.77	
2025-01-18 18:00:29.47	129.45	28.00	
2025-01-18 18:00:30.69	129.25	28.22	
2025-01-18 18:00:31.91	129.06	28.45	
2025-01-18 18:00:33.13	128.85	28.68	
2025-01-18 18:00:34.35	128.65	28.91	
2025-01-18 18:00:35.56	128.44	29.15	
2025-01-18 18:00:36.78	128.23	29.38	
2025-01-18 18:00:38.00	128.02	29.62	
2025-01-18 18:00:39.22	127.80	29.86	
2025-01-18 18:00:40.44	127.58	30.10	
2025-01-18 18:00:41.66	127.35	30.34	
2025-01-18 18:00:42.88	127.12	30.59	
2025-01-18 18:00:44.09	126.89	30.83	
2025-01-18 18:00:45.31	126.66	31.08	
2025-01-18 18:00:46.53	126.42	31.33	
2025-01-18 18:00:47.75	126.17	31.58	
2025-01-18 18:00:48.97	125.92	31.83	
2025-01-18 18:00:50.19	125.67	32.08	
2025-01-18 18:00:51.40	125.42	32.34	
2025-01-18 18:00:52.62	125.16	32.60	
2025-01-18 18:00:53.84	124.90	32.86	
2025-01-18 18:00:55.06	124.63	33.12	
2025-01-18 18:00:56.28	124.35	33.38	
2025-01-18 18:00:57.50	124.08	33.64	
2025-01-18 18:00:58.71	123.79	33.91	
2025-01-18 18:00:59.93	123.51	34.18	
2025-01-18 18:01:01.15	123.22	34.44	
2025-01-18 18:01:02.37	122.92	34.72	
2025-01-18 18:01:03.59	122.61	34.99	
2025-01-18 18:01:04.81	122.31	35.26	
2025-01-18 18:01:06.02	122.00	35.54	
2025-01-18 18:01:07.24	121.68	35.81	
2025-01-18 18:01:08.46	121.35	36.09	
2025-01-18 18:01:09.68	121.02	36.37	
2025-01-18 18:01:10.90	120.69	36.65	
2025-01-18 18:01:12.12	120.34	36.94	
2025-01-18 18:01:13.34	120.00	37.22	
2025-01-18 18:01:14.55	119.64	37.51	
2025-01-18 18:01:15.77	119.28	37.79	
2025-01-18 18:01:16.99	118.91	38.08	
2025-01-18 18:01:18.21	118.54	38.37	
2025-01-18 18:01:19.43	118.16	38.66	
2025-01-18 18:01:20.65	117.77	38.96	
2025-01-18 18:01:21.86	117.38	39.25	
2025-01-18 18:01:23.08	116.97	39.54	
2025-01-18 18:01:24.30	116.56	39.84	
2025-01-18 18:01:25.52	116.15	40.14	
2025-01-18 18:01:26.74	115.72	40.43	
2025-01-18 18:01:27.96	115.28	40.73	
2025-01-18 18:01:29.17	114.84	41.03	
2025-01-18 18:01:30.39	114.39	41.33	
2025-01-18 18:01:31.61	113.93	41.63	
2025-01-18 18:01:32.83	113.47	41.93	
2025-01-18 18:01:34.05	112.99	42.23	
2025-01-18 18:01:35.27	112.50	42.53	
2025-01-18 18:01:36.48	112.01	42.83	
2025-01-18 18:01:37.70	111.50	43.13	
2025-01-18 18:01:38.92	110.99	43.43	
2025-01-18 18:01:40.14	110.46	43.73	
2025-01-18 18:01:41.36	109.93	44.04	
2025-01-18 18:01:42.58	109.38	44.34	
2025-01-18 18:01:43.80	108.82	44.64	
2025-01-18 18:01:45.01	108.26	44.93	
2025-01-18 18:01:46.23	107.68	45.23	
2025-01-18 18:01:47.45	107.09	45.53	
2025-01-18 18:01:48.67	106.49	45.83	
2025-01-18 18:01:49.89	105.88	46.12	
2025-01-18 18:01:51.11	105.25	46.42	
2025-01-18 18:01:52.32	104.62	46.71	
2025-01-18 18:01:53.54	103.97	47.00	
2025-01-18 18:01:54.76	103.31	47.29	
2025-01-18 18:01:55.98	102.64	47.57	
2025-01-18 18:01:57.20	101.95	47.86	
2025-01-18 18:01:58.42	101.26	48.14	
2025-01-18 18:01:59.63	100.55	48.42	
2025-01-18 18:02:00.85	99.83	48.69	
2025-01-18 18:02:02.07	99.09	48.96	
2025-01-18 18:02:03.29	98.34	49.23	
2025-01-18 18:02:04.51	97.57	49.50	
2025-01-18 18:02:05.73	96.79	49.76	
2025-01-18 18:02:06.94	96.01	50.02	
2025-01-18 18:02:08.16	95.20	50.27	
2025-01-18 18:02:09.38	94.39	50.52	
2025-01-18 18:02:10.60	93.55	50.76	
2025-01-18 18:02:11.82	92.71	51.00	
2025-01-18 18:02:13.04	91.85	51.23	
2025-01-18 18:02:14.26	90.98	51.46	
2025-01-18 18:02:15.47	90.10	51.68	
2025-01-18 18:02:16.69	89.20	51.90	
2025-01-18 18:02:17.91	88.29	52.11	
2025-01-18 18:02:19.13	87.36	52.31	
2025-01-18 18:02:20.35	86.42	52.50	
2025-01-18 18:02:21.57	85.47	52.69	
2025-01-18 18:02:22.78	84.52	52.87	
2025-01-18 18:02:24.00	83.54	53.04	
2025-01-18 18:02:25.22	82.56	53.21	
2025-01-18 18:02:26.44	81.56	53.37	
2025-01-18 18:02:27.66	80.56	53.51	
2025-01-18 18:02:28.88	79.54	53.65	
2025-01-18 18:02:30.09	78.52	53.78	
2025-01-18 18:02:31.31	77.48	53.91	
2025-01-18 18:02:32.53	76.44	54.02	
2025-01-18 18:02:33.75	75.39	54.12	
2025-01-18 18:02:34.97	74.33	54.22	
2025-01-18 18:02:36.19	73.26	54.30	
2025-01-18 18:02:37.40	72.20	54.38	
2025-01-18 18:02:38.62	71.12	54.44	
2025-01-18 18:02:39.84	70.04	54.50	
2025-01-18 18:02:41.06	68.95	54.54	
2025-01-18 18:02:42.28	67.86	54.57	
2025-01-18 18:02:43.50	66.77	54.60	
2025-01-18 18:02:44.72	65.68	54.61	
2025-01-18 18:02:45.93	64.60	54.62	
2025-01-18 18:02:47.15	63.50	54.61	
2025-01-18 18:02:48.37	62.41	54.59	
2025-01-18 18:02:49.59	61.32	54.56	
2025-01-18 18:02:50.81	60.24	54.53	
2025-01-18 18:02:52.03	59.15	54.48	
2025-01-18 18:02:53.24	58.08	54.42	
2025-01-18 18:02:54.46	57.01	54.35	
2025-01-18 18:02:55.68	55.94	54.27	
2025-01-18 18:02:56.90	54.87	54.19	
2025-01-18 18:02:58.12	53.82	54.09	
2025-01-18 18:02:59.34	52.77	53.98	
2025-01-18 18:03:00.55	51.74	53.87	
2025-01-18 18:03:01.77	50.70	53.74	
2025-01-18 18:03:02.99	49.68	53.61	
2025-01-18 18:03:04.21	48.67	53.46	
2025-01-18 18:03:05.43	47.67	53.31	
2025-01-18 18:03:06.65	46.68	53.15	
2025-01-18 18:03:07.86	45.70	52.99	
2025-01-18 18:03:09.08	44.74	52.81	
2025-01-18 18:03:10.30	43.78	52.63	
2025-01-18 18:03:11.52	42.83	52.44	
2025-01-18 18:03:12.74	41.90	52.24	
2025-01-18 18:03:13.96	40.98	52.03	
2025-01-18 18:03:15.18	40.08	51.82	
2025-01-18 18:03:16.39	39.19	51.61	
2025-01-18 18:03:17.61	38.31	51.39	
2025-01-18 18:03:18.83	37.45	51.16	
2025-01-18 18:03:20.05	36.59	50.92	
2025-01-18 18:03:21.27	35.75	50.68	
2025-01-18 18:03:22.49	34.93	50.44	
2025-01-18 18:03:23.70	34.12	50.19	
2025-01-18 18:03:24.92	33.32	49.94	
2025-01-18 18:03:26.14	32.54	49.68	
2025-01-18 18:03:27.36	31.77	49.42	
2025-01-18 18:03:28.58	31.01	49.15	
2025-01-18 18:03:29.80	30.26	48.88	
2025-01-18 18:03:31.01	29.54	48.61	
2025-01-18 18:03:32.23	28.82	48.33	
2025-01-18 18:03:33.45	28.12	48.05	
2025-01-18 18:03:34.67	27.42	47.77	
2025-01-18 18:03:35.89	26.74	47.49	
2025-01-18 18:03:37.11	26.08	47.20	
2025-01-18 18:03:38.32	25.43	46.92	
2025-01-18 18:03:39.54	24.78	46.63	
2025-01-18 18:03:40.76	24.15	46.33	
2025-01-18 18:03:41.98	23.53	46.04	
2025-01-18 18:03:43.20	22.93	45.75	
2025-01-18 18:03:44.42	22.33	45.45	
2025-01-18 18:03:45.64	21.75	45.15	
2025-01-18 18:03:46.85	21.18	44.86	
2025-01-18 18:03:48.07	20.62	44.56	
2025-01-18 18:03:49.29	20.07	44.26	
2025-01-18 18:03:50.51	19.52	43.96	
2025-01-18 18:03:51.73	18.99	43.66	
2025-01-18 18:03:52.95	18.47	43.36	
2025-01-18 18:03:54.16	17.97	43.06	
2025-01-18 18:03:55.38	17.46	42.76	
2025-01-18 18:03:56.60	16.97	42.46	
2025-01-18 18:03:57.82	16.49	42.16	
2025-01-18 18:03:59.04	16.02	41.86	
2025-01-18 18:04:00.26	15.55	41.56	
2025-01-18 18:04:01.47	15.10	41.26	
2025-01-18 18:04:02.69	14.65	40.97	
2025-01-18 18:04:03.91	14.22	40.67	
2025-01-18 18:04:05.13	13.79	40.37	
2025-01-18 18:04:06.35	13.36	40.08	
2025-01-18 18:04:07.57	12.95	39.78	
2025-01-18 18:04:08.78	12.54	39.49	
2025-01-18 18:04:10.00	12.14	39.20	
2025-01-18 18:04:11.22	11.75	38.90	
2025-01-18 18:04:12.44	11.37	38.61	
2025-01-18 18:04:13.66	10.99	38.32	
2025-01-18 18:04:14.88	10.62	38.04	
2025-01-18 18:04:16.10	10.25	37.75	
2025-01-18 18:04:17.31	9.90	37.46	
2025-01-18 18:04:18.53	9.55	37.18	
2025-01-18 18:04:19.75	9.20	36.90	
2025-01-18 18:04:20.97	8.86	36.62	
2025-01-18 18:04:22.19	8.53	36.34	
2025-01-18 18:04:23.41	8.20	36.06	
2025-01-18 18:04:24.62	7.88	35.78	
2025-01-18 18:04:25.84	7.57	35.51	
2025-01-18 18:04:27.06	7.26	35.23	
2025-01-18 18:04:28.28	6.95	34.96	
2025-01-18 18:04:29.50	6.65	34.69	
2025-01-18 18:04:30.72	6.36	34.42	
2025-01-18 18:04:31.93	6.07	34.15	
2025-01-18 18:04:33.15	5.79	33.89	
2025-01-18 18:04:34.37	5.51	33.62	
2025-01-18 18:04:35.59	5.23	33.36	
2025-01-18 18:04:36.81	4.96	33.10	
2025-01-18 18:04:38.03	4.69	32.84	
2025-01-18 18:04:39.24	4.43	32.58	
2025-01-18 18:04:40.46	4.18	32.33	
2025-01-18 18:04:41.68	3.92	32.07	
2025-01-18 18:04:42.90	3.67	31.82	
2025-01-18 18:04:44.12	3.43	31.57	
2025-01-18 18:04:45.34	3.19	31.32	
2025-01-18 18:04:46.56	2.95	31.07	
2025-01-18 18:04:47.77	2.72	30.83	
2025-01-18 18:04:48.99	2.49	30.59	
2025-01-18 18:04:50.21	2.26	30.34	
2025-01-18 18:04:51.43	2.04	30.10	
2025-01-18 18:04:52.65	1.82	29.86	
2025-01-18 18:04:53.87	1.60	29.63	
2025-01-18 18:04:55.08	1.39	29.39	
2025-01-18 18:04:56.30	1.18	29.16	
2025-01-18 18:04:57.52	0.97	28.93	
2025-01-18 18:04:58.74	0.77	28.69	
2025-01-18 18:04:59.96	0.57	28.47	
2025-01-18 18:05:01.18	0.37	28.24	
2025-01-18 18:05:02.39	0.18	28.01	
2025-01-18 18:05:03.61	359.99	27.79	
2025-01-18 18:05:04.83	359.80	27.57	
2025-01-18 18:05:06.05	359.61	27.35	
2025-01-18 18:05:07.27	359.43	27.13	
2025-01-18 18:05:08.49	359.25	26.91	
2025-01-18 18:05:09.70	359.07	26.69	
2025-01-18 18:05:10.92	358.90	26.48	
2025-01-18 18:05:12.14	358.73	26.27	
2025-01-18 18:05:13.36	358.56	26.05	
2025-01-18 18:05:14.58	358.39	25.84	
2025-01-18 18:05:15.80	358.22	25.63	
2025-01-18 18:05:17.03	358.06	25.43	
2025-01-18 18:05:18.24	357.90	25.22	
2025-01-18 18:05:19.46	357.74	25.02	
2025-01-18 18:05:20.68	357.58	24.81	
2025-01-18 18:05:21.90	357.43	24.61	
2025-01-18 18:05:23.12	357.27	24.41	
2025-01-18 18:05:24.34	357.12	24.21	
2025-01-18 18:05:25.56	356.98	24.02	
2025-01-18 18:05:26.78	356.83	23.82	
2025-01-18 18:05:28.00	356.68	23.63	
2025-01-18 18:05:29.22	356.54	23.43	
2025-01-18 18:05:30.43	356.40	23.24	
2025-01-18 18:05:31.65	356.26	23.05	
2025-01-18 18:05:32.87	356.13	22.87	
2025-01-18 18:05:34.09	355.99	22.68	
2025-01-18 18:05:35.31	355.86	22.49	
2025-01-18 18:05:36.53	355.73	22.31	
2025-01-18 18:05:37.74	355.60	22.13	
2025-01-18 18:05:38.96	355.47	21.94	
2025-01-18 18:05:40.18	355.34	21.76	
2025-01-18 18:05:41.40	355.22	21.58	
2025-01-18 18:05:42.62	355.09	21.40	
2025-01-18 18:05:43.84	354.97	21.23	
2025-01-18 18:05:45.05	354.85	21.05	
2025-01-18 18:05:46.27	354.73	20.88	
2025-01-18 18:05:47.49	354.61	20.70	
2025-01-18 18:05:48.71	354.50	20.53	
2025-01-18 18:05:49.93	354.38	20.36	
2025-01-18 18:05:51.15	354.27	20.19	
2025-01-18 18:05:52.37	354.16	20.02	
2025-01-18 18:05:53.58	354.05	19.85	
2025-01-18 18:05:54.80	353.94	19.69	
2025-01-18 18:05:56.02	353.83	19.52	
2025-01-18 18:05:57.24	353.72	19.35	
2025-01-18 18:05:58.46	353.62	19.19	
2025-01-18 18:05:59.68	353.51	19.03	
2025-01-18 18:06:00.89	353.41	18.87	
2025-01-18 18:06:02.11	353.31	18.71	
2025-01-18 18:06:03.33	353.21	18.55	
2025-01-18 18:06:04.55	353.11	18.39	
2025-01-18 18:06:05.77	353.01	18.23	
2025-01-18 18:06:06.99	352.91	18.08	
2025-01-18 18:06:08.20	352.81	17.92	
2025-01-18 18:06:09.42	352.72	17.77	
2025-01-18 18:06:10.64	352.62	17.62	
2025-01-18 18:06:11.86	352.53	17.46	
2025-01-18 18:06:13.08	352.44	17.31	
2025-01-18 18:06:14.30	352.35	17.16	
2025-01-18 18:06:15.51	352.26	17.01	
2025-01-18 18:06:16.73	352.17	16.86	
2025-01-18 18:06:17.95	352.08	16.72	
2025-01-18 18:06:19.17	351.99	16.57	
2025-01-18 18:06:20.39	351.91	16.42	
2025-01-18 18:06:21.61	351.82	16.28	
2025-01-18 18:06:22.83	351.74	16.13	
2025-01-18 18:06:24.04	351.66	15.99	
2025-01-18 18:06:25.26	351.57	15.85	
2025-01-18 18:06:26.48	351.49	15.71	
2025-01-18 18:06:27.70	351.41	15.57	
2025-01-18 18:06:28.92	351.33	15.43	
2025-01-18 18:06:30.14	351.25	15.29	
2025-01-18 18:06:31.35	351.17	15.15	
2025-01-18 18:06:32.57	351.10	15.01	
2025-01-18 18:06:33.79	351.02	14.88	
2025-01-18 18:06:35.01	350.94	14.74	
2025-01-18 18:06:36.23	350.87	14.61	
2025-01-18 18:06:37.45	350.79	14.47	
2025-01-18 18:06:38.66	350.72	14.34	
2025-01-18 18:06:39.88	350.65	14.21	
2025-01-18 18:06:41.10	350.58	14.08	
2025-01-18 18:06:42.32	350.50	13.94	
2025-01-18 18:06:43.54	350.43	13.81	
2025-01-18 18:06:44.76	350.36	13.68	
2025-01-18 18:06:45.97	350.29	13.56	
2025-01-18 18:06:47.19	350.23	13.43	
2025-01-18 18:06:48.41	350.16	13.30	
2025-01-18 18:06:49.63	350.09	13.17	
2025-01-18 18:06:50.85	350.02	13.05	
2025-01-18 18:06:52.07	349.96	12.92	
2025-01-18 18:06:53.29	349.89	12.80	
2025-01-18 18:06:54.52	349.83	12.67	
2025-01-18 18:06:55.74	349.76	12.55	
2025-01-18 18:06:56.96	349.70	12.42	
2025-01-18 18:06:58.17	349.64	12.30	
2025-01-18 18:06:59.39	349.58	12.18	
2025-01-18 18:07:00.61	349.51	12.06	
2025-01-18 18:07:01.83	349.45	11.94	
2025-01-18 18:07:03.05	349.39	11.82	
2025-01-18 18:07:04.27	349.33	11.70	
2025-01-18 18:07:05.48	349.27	11.58	
2025-01-18 18:07:06.70	349.21	11.47	
2025-01-18 18:07:07.92	349.16	11.35	
2025-01-18 18:07:09.14	349.10	11.23	
2025-01-18 18:07:10.36	349.04	11.12	
2025-01-18 18:07:11.58	348.98	11.00	
2025-01-18 18:07:12.80	348.93	10.89	
2025-01-18 18:07:14.01	348.87	10.77	
2025-01-18 18:07:15.23	348.82	10.66	
2025-01-18 18:07:16.45	348.76	10.54	
2025-01-18 18:07:17.67	348.71	10.43	
2025-01-18 18:07:18.89	348.65	10.32	
2025-01-18 18:07:20.11	348.60	10.21	
2025-01-18 18:07:21.32	348.55	10.10	
2025-01-18 18:07:22.54	348.50	9.99	
2025-01-18 18:07:23.76	348.45	9.88	
2025-01-18 18:07:24.98	348.39	9.77	
2025-01-18 18:07:26.20	348.34	9.66	
2025-01-18 18:07:27.42	348.29	9.55	
2025-01-18 18:07:28.63	348.24	9.44	
2025-01-18 18:07:29.85	348.19	9.33	
2025-01-18 18:07:31.07	348.14	9.23	
2025-01-18 18:07:32.29	348.10	9.12	
2025-01-18 18:07:33.51	348.05	9.02	
2025-01-18 18:07:34.73	348.00	8.91	
2025-01-18 18:07:35.94	347.95	8.81	
2025-01-18 18:07:37.16	347.90	8.70	
2025-01-18 18:07:38.38	347.86	8.60	
2025-01-18 18:07:39.60	347.81	8.49	
2025-01-18 18:07:40.82	347.77	8.39	
2025-01-18 18:07:42.04	347.72	8.29	
2025-01-18 18:07:43.26	347.68	8.18	
2025-01-18 18:07:44.47	347.63	8.08	
2025-01-18 18:07:45.69	347.59	7.98	
2025-01-18 18:07:46.91	347.54	7.88	
2025-01-18 18:07:48.13	347.50	7.78	
2025-01-18 18:07:49.35	347.46	7.68	
2025-01-18 18:07:50.57	347.41	7.58	
2025-01-18 18:07:51.78	347.37	7.48	
2025-01-18 18:07:53.00	347.33	7.38	
2025-01-18 18:07:54.22	347.29	7.28	
2025-01-18 18:07:55.44	347.25	7.19	
2025-01-18 18:07:56.66	347.20	7.09	
2025-01-18 18:07:57.88	347.16	6.99	
2025-01-18 18:07:59.09	347.12	6.89	
2025-01-18 18:08:00.31	347.08	6.80	
2025-01-18 18:08:01.53	347.04	6.70	
2025-01-18 18:08:02.75	347.00	6.61	
2025-01-18 18:08:03.97	346.96	6.51	
2025-01-18 18:08:05.19	346.93	6.41	
2025-01-18 18:08:06.40	346.89	6.32	
2025-01-18 18:08:07.62	346.85	6.23	
2025-01-18 18:08:08.84	346.81	6.13	
2025-01-18 18:08:10.06	346.77	6.04	
2025-01-18 18:08:11.28	346.74	5.95	
2025-01-18 18:08:12.50	346.70	5.85	
2025-01-18 18:08:13.72	346.66	5.76	
2025-01-18 18:08:14.93	346.63	5.67	
2025-01-18 18:08:16.15	346.59	5.58	
2025-01-18 18:08:17.37	346.55	5.49	
2025-01-18 18:08:18.59	346.52	5.39	
2025-01-18 18:08:19.81	346.48	5.30	
2025-01-18 18:08:21.03	346.45	5.21	
2025-01-18 18:08:22.24	346.41	5.12	
2025-01-18 18:08:23.46	346.38	5.03	
2025-01-18 18:08:24.68	346.34	4.94	
2025-01-18 18:08:25.90	346.31	4.85	
2025-01-18 18:08:27.12	346.28	4.77	
2025-01-18 18:08:28.34	346.24	4.68	
2025-01-18 18:08:29.55	346.21	4.59	
2025-01-18 18:08:30.77	346.18	4.50	
2025-01-18 18:08:31.99	346.14	4.41	
2025-01-18 18:08:33.21	346.11	4.33	
2025-01-18 18:08:34.43	346.08	4.24	
2025-01-18 18:08:35.65	346.05	4.15	
2025-01-18 18:08:36.87	346.01	4.07	

#Closed at: 2025-01-18 18:08:38