passes_logs/2025/01/18/SPB_Silybum_02/SPB_Silybum_02__20250118_064304_TERRA_rec.log

#Pass ID: 20250118_064304_TERRA
#Satellite: TERRA
#Configuration: TERRA
#Start time: 2025-01-18 06:43:03

#Version: 2.0.20230423
#Station: SPB_Silybum_02
#Location: 30.233357 lon 59.946436 lat
#TLE: 1 25994U 99068A   25017.80257355  .00000903  00000+0  19577-3 0  9994
#TLE: 2 25994  98.0211  80.7437 0003372  66.8373  47.3878 14.60400955334482

#Time	Az	El	Level	Level2	SNR	BER	Gain	Gain2
2025-01-18 06:43:06.03	28.52	4.11	
2025-01-18 06:43:07.04	28.62	4.16	
2025-01-18 06:43:08.06	28.72	4.22	
2025-01-18 06:43:09.07	28.82	4.28	
2025-01-18 06:43:10.09	28.92	4.34	
2025-01-18 06:43:11.10	29.02	4.40	
2025-01-18 06:43:12.12	29.12	4.46	
2025-01-18 06:43:13.14	29.22	4.52	
2025-01-18 06:43:14.15	29.32	4.58	
2025-01-18 06:43:15.17	29.42	4.64	
2025-01-18 06:43:16.18	29.53	4.70	
2025-01-18 06:43:17.20	29.63	4.76	
2025-01-18 06:43:18.21	29.73	4.81	
2025-01-18 06:43:19.23	29.84	4.87	
2025-01-18 06:43:20.24	29.94	4.93	
2025-01-18 06:43:21.26	30.05	4.99	
2025-01-18 06:43:22.27	30.15	5.05	
2025-01-18 06:43:23.29	30.26	5.11	
2025-01-18 06:43:24.30	30.37	5.17	
2025-01-18 06:43:25.32	30.47	5.23	
2025-01-18 06:43:26.33	30.58	5.29	
2025-01-18 06:43:27.35	30.69	5.35	
2025-01-18 06:43:28.37	30.80	5.41	
2025-01-18 06:43:29.38	30.90	5.47	
2025-01-18 06:43:30.40	31.01	5.54	
2025-01-18 06:43:31.41	31.12	5.60	
2025-01-18 06:43:32.43	31.23	5.66	
2025-01-18 06:43:33.44	31.34	5.72	
2025-01-18 06:43:34.46	31.45	5.78	
2025-01-18 06:43:35.47	31.57	5.84	
2025-01-18 06:43:36.49	31.68	5.90	
2025-01-18 06:43:37.50	31.79	5.96	
2025-01-18 06:43:38.52	31.90	6.02	
2025-01-18 06:43:39.53	32.02	6.08	
2025-01-18 06:43:40.55	32.13	6.14	
2025-01-18 06:43:41.57	32.25	6.21	
2025-01-18 06:43:42.58	32.36	6.27	
2025-01-18 06:43:43.60	32.48	6.33	
2025-01-18 06:43:44.61	32.59	6.39	
2025-01-18 06:43:45.63	32.71	6.45	
2025-01-18 06:43:46.64	32.83	6.51	
2025-01-18 06:43:47.66	32.94	6.57	
2025-01-18 06:43:48.67	33.06	6.64	
2025-01-18 06:43:49.69	33.18	6.70	
2025-01-18 06:43:50.70	33.30	6.76	
2025-01-18 06:43:51.72	33.42	6.82	
2025-01-18 06:43:52.73	33.54	6.88	
2025-01-18 06:43:53.75	33.66	6.95	
2025-01-18 06:43:54.77	33.78	7.01	
2025-01-18 06:43:55.78	33.90	7.07	
2025-01-18 06:43:56.80	34.02	7.13	
2025-01-18 06:43:57.81	34.15	7.19	
2025-01-18 06:43:58.83	34.27	7.26	
2025-01-18 06:43:59.84	34.39	7.32	
2025-01-18 06:44:00.86	34.52	7.38	
2025-01-18 06:44:01.87	34.64	7.44	
2025-01-18 06:44:02.89	34.77	7.51	
2025-01-18 06:44:03.90	34.90	7.57	
2025-01-18 06:44:04.92	35.02	7.63	
2025-01-18 06:44:05.93	35.15	7.70	
2025-01-18 06:44:06.95	35.28	7.76	
2025-01-18 06:44:07.97	35.41	7.82	
2025-01-18 06:44:08.98	35.54	7.88	
2025-01-18 06:44:10.00	35.67	7.95	
2025-01-18 06:44:11.01	35.80	8.01	
2025-01-18 06:44:12.03	35.93	8.07	
2025-01-18 06:44:13.04	36.06	8.14	
2025-01-18 06:44:14.06	36.19	8.20	
2025-01-18 06:44:15.07	36.32	8.26	
2025-01-18 06:44:16.09	36.46	8.33	
2025-01-18 06:44:17.10	36.59	8.39	
2025-01-18 06:44:18.12	36.72	8.46	
2025-01-18 06:44:19.13	36.86	8.52	
2025-01-18 06:44:20.15	37.00	8.58	
2025-01-18 06:44:21.17	37.13	8.65	
2025-01-18 06:44:22.18	37.27	8.71	
2025-01-18 06:44:23.20	37.41	8.77	
2025-01-18 06:44:24.21	37.54	8.84	
2025-01-18 06:44:25.23	37.68	8.90	
2025-01-18 06:44:26.24	37.82	8.97	
2025-01-18 06:44:27.26	37.96	9.03	
2025-01-18 06:44:28.27	38.10	9.09	
2025-01-18 06:44:29.29	38.25	9.16	
2025-01-18 06:44:30.30	38.39	9.22	
2025-01-18 06:44:31.32	38.53	9.29	
2025-01-18 06:44:32.33	38.67	9.35	
2025-01-18 06:44:33.35	38.82	9.41	
2025-01-18 06:44:34.36	38.96	9.48	
2025-01-18 06:44:35.38	39.11	9.54	
2025-01-18 06:44:36.40	39.25	9.61	
2025-01-18 06:44:37.41	39.40	9.67	
2025-01-18 06:44:38.43	39.55	9.74	
2025-01-18 06:44:39.44	39.69	9.80	
2025-01-18 06:44:40.46	39.84	9.87	
2025-01-18 06:44:41.47	39.99	9.93	
2025-01-18 06:44:42.49	40.14	9.99	
2025-01-18 06:44:43.50	40.29	10.06	
2025-01-18 06:44:44.52	40.45	10.12	
2025-01-18 06:44:45.53	40.60	10.19	
2025-01-18 06:44:46.55	40.75	10.25	
2025-01-18 06:44:47.56	40.90	10.32	
2025-01-18 06:44:48.58	41.06	10.38	
2025-01-18 06:44:49.60	41.21	10.45	
2025-01-18 06:44:50.61	41.37	10.51	
2025-01-18 06:44:51.63	41.53	10.58	
2025-01-18 06:44:52.64	41.68	10.64	
2025-01-18 06:44:53.66	41.84	10.71	
2025-01-18 06:44:54.67	42.00	10.77	
2025-01-18 06:44:55.69	42.16	10.84	
2025-01-18 06:44:56.70	42.32	10.90	
2025-01-18 06:44:57.72	42.48	10.97	
2025-01-18 06:44:58.73	42.64	11.03	
2025-01-18 06:44:59.75	42.81	11.10	
2025-01-18 06:45:00.76	42.97	11.16	
2025-01-18 06:45:01.78	43.13	11.22	
2025-01-18 06:45:02.80	43.30	11.29	
2025-01-18 06:45:03.81	43.46	11.35	
2025-01-18 06:45:04.83	43.63	11.42	
2025-01-18 06:45:05.84	43.80	11.48	
2025-01-18 06:45:06.86	43.96	11.55	
2025-01-18 06:45:07.87	44.13	11.61	
2025-01-18 06:45:08.89	44.30	11.68	
2025-01-18 06:45:09.90	44.47	11.74	
2025-01-18 06:45:10.92	44.64	11.81	
2025-01-18 06:45:11.93	44.81	11.87	
2025-01-18 06:45:12.95	44.99	11.94	
2025-01-18 06:45:13.96	45.16	12.00	
2025-01-18 06:45:14.98	45.33	12.07	
2025-01-18 06:45:16.00	45.51	12.13	
2025-01-18 06:45:17.01	45.68	12.19	
2025-01-18 06:45:18.03	45.86	12.26	
2025-01-18 06:45:19.04	46.04	12.32	
2025-01-18 06:45:20.06	46.22	12.39	
2025-01-18 06:45:21.07	46.39	12.45	
2025-01-18 06:45:22.09	46.57	12.52	
2025-01-18 06:45:23.10	46.75	12.58	
2025-01-18 06:45:24.12	46.94	12.64	
2025-01-18 06:45:25.13	47.12	12.71	
2025-01-18 06:45:26.15	47.30	12.77	
2025-01-18 06:45:27.16	47.48	12.84	
2025-01-18 06:45:28.18	47.67	12.90	
2025-01-18 06:45:29.20	47.86	12.96	
2025-01-18 06:45:30.21	48.04	13.03	
2025-01-18 06:45:31.23	48.23	13.09	
2025-01-18 06:45:32.24	48.42	13.15	
2025-01-18 06:45:33.26	48.61	13.22	
2025-01-18 06:45:34.27	48.79	13.28	
2025-01-18 06:45:35.29	48.99	13.35	
2025-01-18 06:45:36.30	49.18	13.41	
2025-01-18 06:45:37.32	49.37	13.47	
2025-01-18 06:45:38.33	49.56	13.53	
2025-01-18 06:45:39.35	49.76	13.60	
2025-01-18 06:45:40.36	49.95	13.66	
2025-01-18 06:45:41.38	50.15	13.72	
2025-01-18 06:45:42.39	50.34	13.79	
2025-01-18 06:45:43.41	50.54	13.85	
2025-01-18 06:45:44.43	50.74	13.91	
2025-01-18 06:45:45.44	50.94	13.97	
2025-01-18 06:45:46.46	51.14	14.03	
2025-01-18 06:45:47.47	51.34	14.10	
2025-01-18 06:45:48.49	51.54	14.16	
2025-01-18 06:45:49.50	51.74	14.22	
2025-01-18 06:45:50.52	51.95	14.28	
2025-01-18 06:45:51.53	52.15	14.34	
2025-01-18 06:45:52.55	52.36	14.40	
2025-01-18 06:45:53.56	52.56	14.47	
2025-01-18 06:45:54.58	52.77	14.53	
2025-01-18 06:45:55.59	52.98	14.59	
2025-01-18 06:45:56.61	53.19	14.65	
2025-01-18 06:45:57.63	53.40	14.71	
2025-01-18 06:45:58.64	53.61	14.77	
2025-01-18 06:45:59.66	53.82	14.83	
2025-01-18 06:46:00.67	54.03	14.89	
2025-01-18 06:46:01.69	54.25	14.95	
2025-01-18 06:46:02.70	54.46	15.01	
2025-01-18 06:46:03.72	54.67	15.07	
2025-01-18 06:46:04.73	54.89	15.13	
2025-01-18 06:46:05.75	55.11	15.19	
2025-01-18 06:46:06.76	55.32	15.24	
2025-01-18 06:46:07.78	55.54	15.30	
2025-01-18 06:46:08.79	55.76	15.36	
2025-01-18 06:46:09.81	55.98	15.42	
2025-01-18 06:46:10.83	56.21	15.48	
2025-01-18 06:46:11.84	56.43	15.53	
2025-01-18 06:46:12.86	56.65	15.59	
2025-01-18 06:46:13.87	56.87	15.65	
2025-01-18 06:46:14.89	57.10	15.71	
2025-01-18 06:46:15.90	57.32	15.76	
2025-01-18 06:46:16.92	57.55	15.82	
2025-01-18 06:46:17.93	57.78	15.87	
2025-01-18 06:46:18.95	58.01	15.93	
2025-01-18 06:46:19.96	58.24	15.99	
2025-01-18 06:46:20.98	58.47	16.04	
2025-01-18 06:46:21.99	58.70	16.10	
2025-01-18 06:46:23.01	58.93	16.15	
2025-01-18 06:46:24.03	59.17	16.21	
2025-01-18 06:46:25.04	59.40	16.26	
2025-01-18 06:46:26.06	59.63	16.31	
2025-01-18 06:46:27.07	59.87	16.37	
2025-01-18 06:46:28.09	60.11	16.42	
2025-01-18 06:46:29.10	60.34	16.47	
2025-01-18 06:46:30.12	60.58	16.53	
2025-01-18 06:46:31.13	60.82	16.58	
2025-01-18 06:46:32.15	61.06	16.63	
2025-01-18 06:46:33.16	61.30	16.68	
2025-01-18 06:46:34.18	61.54	16.73	
2025-01-18 06:46:35.19	61.78	16.78	
2025-01-18 06:46:36.21	62.03	16.83	
2025-01-18 06:46:37.23	62.27	16.88	
2025-01-18 06:46:38.24	62.52	16.93	
2025-01-18 06:46:39.26	62.76	16.98	
2025-01-18 06:46:40.27	63.01	17.03	
2025-01-18 06:46:41.29	63.26	17.08	
2025-01-18 06:46:42.30	63.51	17.13	
2025-01-18 06:46:43.32	63.76	17.18	
2025-01-18 06:46:44.33	64.00	17.23	
2025-01-18 06:46:45.35	64.26	17.27	
2025-01-18 06:46:46.36	64.51	17.32	
2025-01-18 06:46:47.38	64.76	17.37	
2025-01-18 06:46:48.39	65.01	17.41	
2025-01-18 06:46:49.41	65.27	17.46	
2025-01-18 06:46:50.42	65.52	17.50	
2025-01-18 06:46:51.44	65.78	17.55	
2025-01-18 06:46:52.46	66.04	17.59	
2025-01-18 06:46:53.47	66.29	17.63	
2025-01-18 06:46:54.49	66.55	17.68	
2025-01-18 06:46:55.50	66.81	17.72	
2025-01-18 06:46:56.52	67.07	17.76	
2025-01-18 06:46:57.53	67.33	17.80	
2025-01-18 06:46:58.55	67.59	17.85	
2025-01-18 06:46:59.56	67.85	17.89	
2025-01-18 06:47:00.58	68.12	17.93	
2025-01-18 06:47:01.59	68.38	17.97	
2025-01-18 06:47:02.61	68.64	18.01	
2025-01-18 06:47:03.62	68.91	18.05	
2025-01-18 06:47:04.64	69.17	18.08	
2025-01-18 06:47:05.66	69.44	18.12	
2025-01-18 06:47:06.67	69.71	18.16	
2025-01-18 06:47:07.69	69.97	18.20	
2025-01-18 06:47:08.70	70.24	18.23	
2025-01-18 06:47:09.72	70.51	18.27	
2025-01-18 06:47:10.73	70.78	18.30	
2025-01-18 06:47:11.75	71.05	18.34	
2025-01-18 06:47:12.76	71.32	18.37	
2025-01-18 06:47:13.78	71.59	18.41	
2025-01-18 06:47:14.79	71.86	18.44	
2025-01-18 06:47:15.81	72.14	18.47	
2025-01-18 06:47:16.82	72.41	18.51	
2025-01-18 06:47:17.84	72.69	18.54	
2025-01-18 06:47:18.86	72.96	18.57	
2025-01-18 06:47:19.87	73.23	18.60	
2025-01-18 06:47:20.89	73.51	18.63	
2025-01-18 06:47:21.90	73.79	18.66	
2025-01-18 06:47:22.92	74.06	18.69	
2025-01-18 06:47:23.93	74.34	18.71	
2025-01-18 06:47:24.95	74.62	18.74	
2025-01-18 06:47:25.96	74.90	18.77	
2025-01-18 06:47:26.98	75.18	18.79	
2025-01-18 06:47:27.99	75.45	18.82	
2025-01-18 06:47:29.01	75.74	18.84	
2025-01-18 06:47:30.02	76.01	18.87	
2025-01-18 06:47:31.04	76.30	18.89	
2025-01-18 06:47:32.06	76.58	18.92	
2025-01-18 06:47:33.07	76.86	18.94	
2025-01-18 06:47:34.09	77.14	18.96	
2025-01-18 06:47:35.10	77.42	18.98	
2025-01-18 06:47:36.12	77.71	19.00	
2025-01-18 06:47:37.13	77.99	19.02	
2025-01-18 06:47:38.15	78.28	19.04	
2025-01-18 06:47:39.16	78.56	19.06	
2025-01-18 06:47:40.18	78.84	19.08	
2025-01-18 06:47:41.19	79.13	19.10	
2025-01-18 06:47:42.21	79.41	19.11	
2025-01-18 06:47:43.22	79.70	19.13	
2025-01-18 06:47:44.24	79.98	19.14	
2025-01-18 06:47:45.26	80.27	19.16	
2025-01-18 06:47:46.27	80.56	19.17	
2025-01-18 06:47:47.29	80.85	19.19	
2025-01-18 06:47:48.30	81.13	19.20	
2025-01-18 06:47:49.32	81.42	19.21	
2025-01-18 06:47:50.33	81.71	19.22	
2025-01-18 06:47:51.35	81.99	19.23	
2025-01-18 06:47:52.36	82.28	19.24	
2025-01-18 06:47:53.38	82.57	19.25	
2025-01-18 06:47:54.39	82.86	19.26	
2025-01-18 06:47:55.41	83.15	19.27	
2025-01-18 06:47:56.42	83.43	19.28	
2025-01-18 06:47:57.44	83.72	19.28	
2025-01-18 06:47:58.45	84.01	19.29	
2025-01-18 06:47:59.47	84.30	19.29	
2025-01-18 06:48:00.49	84.59	19.30	
2025-01-18 06:48:01.50	84.88	19.30	
2025-01-18 06:48:02.52	85.17	19.31	
2025-01-18 06:48:03.53	85.46	19.31	
2025-01-18 06:48:04.55	85.75	19.31	
2025-01-18 06:48:05.56	86.04	19.31	
2025-01-18 06:48:06.58	86.33	19.31	
2025-01-18 06:48:07.59	86.61	19.31	
2025-01-18 06:48:08.61	86.91	19.31	
2025-01-18 06:48:09.62	87.19	19.31	
2025-01-18 06:48:10.64	87.48	19.31	
2025-01-18 06:48:11.65	87.77	19.30	
2025-01-18 06:48:12.67	88.06	19.30	
2025-01-18 06:48:13.69	88.35	19.30	
2025-01-18 06:48:14.70	88.64	19.29	
2025-01-18 06:48:15.72	88.93	19.28	
2025-01-18 06:48:16.73	89.22	19.28	
2025-01-18 06:48:17.75	89.51	19.27	
2025-01-18 06:48:18.76	89.80	19.26	
2025-01-18 06:48:19.78	90.09	19.26	
2025-01-18 06:48:20.79	90.37	19.25	
2025-01-18 06:48:21.81	90.66	19.24	
2025-01-18 06:48:22.82	90.95	19.23	
2025-01-18 06:48:23.84	91.24	19.21	
2025-01-18 06:48:24.85	91.52	19.20	
2025-01-18 06:48:25.87	91.81	19.19	
2025-01-18 06:48:26.89	92.10	19.18	
2025-01-18 06:48:27.90	92.39	19.16	
2025-01-18 06:48:28.92	92.67	19.15	
2025-01-18 06:48:29.93	92.96	19.13	
2025-01-18 06:48:30.95	93.25	19.12	
2025-01-18 06:48:31.96	93.53	19.10	
2025-01-18 06:48:32.98	93.82	19.08	
2025-01-18 06:48:33.99	94.10	19.06	
2025-01-18 06:48:35.01	94.39	19.05	
2025-01-18 06:48:36.02	94.67	19.03	
2025-01-18 06:48:37.04	94.95	19.01	
2025-01-18 06:48:38.05	95.24	18.99	
2025-01-18 06:48:39.07	95.52	18.97	
2025-01-18 06:48:40.09	95.80	18.94	
2025-01-18 06:48:41.10	96.09	18.92	
2025-01-18 06:48:42.12	96.37	18.90	
2025-01-18 06:48:43.13	96.65	18.87	
2025-01-18 06:48:44.15	96.93	18.85	
2025-01-18 06:48:45.16	97.21	18.83	
2025-01-18 06:48:46.18	97.49	18.80	
2025-01-18 06:48:47.19	97.77	18.77	
2025-01-18 06:48:48.21	98.05	18.75	
2025-01-18 06:48:49.22	98.33	18.72	
2025-01-18 06:48:50.24	98.61	18.69	
2025-01-18 06:48:51.25	98.88	18.66	
2025-01-18 06:48:52.27	99.16	18.63	
2025-01-18 06:48:53.28	99.44	18.60	
2025-01-18 06:48:54.30	99.71	18.57	
2025-01-18 06:48:55.32	99.99	18.54	
2025-01-18 06:48:56.33	100.26	18.51	
2025-01-18 06:48:57.35	100.54	18.48	
2025-01-18 06:48:58.36	100.81	18.45	
2025-01-18 06:48:59.38	101.08	18.41	
2025-01-18 06:49:00.39	101.36	18.38	
2025-01-18 06:49:01.41	101.63	18.35	
2025-01-18 06:49:02.42	101.90	18.31	
2025-01-18 06:49:03.44	102.17	18.28	
2025-01-18 06:49:04.45	102.44	18.24	
2025-01-18 06:49:05.47	102.71	18.20	
2025-01-18 06:49:06.49	102.98	18.17	
2025-01-18 06:49:07.50	103.24	18.13	
2025-01-18 06:49:08.52	103.51	18.09	
2025-01-18 06:49:09.53	103.78	18.05	
2025-01-18 06:49:10.55	104.04	18.01	
2025-01-18 06:49:11.56	104.31	17.97	
2025-01-18 06:49:12.58	104.57	17.93	
2025-01-18 06:49:13.59	104.84	17.89	
2025-01-18 06:49:14.61	105.10	17.85	
2025-01-18 06:49:15.62	105.36	17.81	
2025-01-18 06:49:16.64	105.62	17.77	
2025-01-18 06:49:17.65	105.88	17.73	
2025-01-18 06:49:18.67	106.14	17.68	
2025-01-18 06:49:19.68	106.40	17.64	
2025-01-18 06:49:20.70	106.66	17.60	
2025-01-18 06:49:21.72	106.92	17.55	
2025-01-18 06:49:22.73	107.17	17.51	
2025-01-18 06:49:23.75	107.43	17.46	
2025-01-18 06:49:24.76	107.69	17.42	
2025-01-18 06:49:25.78	107.94	17.37	
2025-01-18 06:49:26.79	108.19	17.32	
2025-01-18 06:49:27.81	108.45	17.28	
2025-01-18 06:49:28.82	108.70	17.23	
2025-01-18 06:49:29.84	108.95	17.18	
2025-01-18 06:49:30.85	109.20	17.13	
2025-01-18 06:49:31.87	109.45	17.08	
2025-01-18 06:49:32.88	109.70	17.04	
2025-01-18 06:49:33.90	109.95	16.99	
2025-01-18 06:49:34.92	110.20	16.94	
2025-01-18 06:49:35.93	110.44	16.89	
2025-01-18 06:49:36.95	110.69	16.84	
2025-01-18 06:49:37.96	110.93	16.79	
2025-01-18 06:49:38.98	111.17	16.73	
2025-01-18 06:49:39.99	111.42	16.68	
2025-01-18 06:49:41.01	111.66	16.63	
2025-01-18 06:49:42.02	111.90	16.58	
2025-01-18 06:49:43.04	112.14	16.53	
2025-01-18 06:49:44.05	112.38	16.47	
2025-01-18 06:49:45.07	112.62	16.42	
2025-01-18 06:49:46.08	112.85	16.37	
2025-01-18 06:49:47.10	113.09	16.31	
2025-01-18 06:49:48.12	113.33	16.26	
2025-01-18 06:49:49.13	113.56	16.20	
2025-01-18 06:49:50.15	113.80	16.15	
2025-01-18 06:49:51.16	114.03	16.09	
2025-01-18 06:49:52.18	114.26	16.04	
2025-01-18 06:49:53.19	114.49	15.98	
2025-01-18 06:49:54.21	114.72	15.93	
2025-01-18 06:49:55.22	114.95	15.87	
2025-01-18 06:49:56.24	115.18	15.82	
2025-01-18 06:49:57.25	115.41	15.76	
2025-01-18 06:49:58.27	115.64	15.70	
2025-01-18 06:49:59.28	115.86	15.64	
2025-01-18 06:50:00.30	116.09	15.59	
2025-01-18 06:50:01.32	116.31	15.53	
2025-01-18 06:50:02.33	116.54	15.47	
2025-01-18 06:50:03.35	116.76	15.41	
2025-01-18 06:50:04.36	116.98	15.35	
2025-01-18 06:50:05.38	117.20	15.30	
2025-01-18 06:50:06.39	117.42	15.24	
2025-01-18 06:50:07.41	117.64	15.18	
2025-01-18 06:50:08.42	117.86	15.12	
2025-01-18 06:50:09.44	118.07	15.06	
2025-01-18 06:50:10.45	118.29	15.00	
2025-01-18 06:50:11.47	118.51	14.94	
2025-01-18 06:50:12.48	118.72	14.88	
2025-01-18 06:50:13.50	118.93	14.82	
2025-01-18 06:50:14.52	119.15	14.76	
2025-01-18 06:50:15.53	119.36	14.70	
2025-01-18 06:50:16.55	119.57	14.64	
2025-01-18 06:50:17.56	119.78	14.58	
2025-01-18 06:50:18.58	119.99	14.51	
2025-01-18 06:50:19.59	120.20	14.45	
2025-01-18 06:50:20.61	120.40	14.39	
2025-01-18 06:50:21.62	120.61	14.33	
2025-01-18 06:50:22.64	120.82	14.27	
2025-01-18 06:50:23.65	121.02	14.21	
2025-01-18 06:50:24.67	121.22	14.14	
2025-01-18 06:50:25.68	121.43	14.08	
2025-01-18 06:50:26.70	121.63	14.02	
2025-01-18 06:50:27.71	121.83	13.96	
2025-01-18 06:50:28.73	122.03	13.89	
2025-01-18 06:50:29.75	122.23	13.83	
2025-01-18 06:50:30.76	122.43	13.77	
2025-01-18 06:50:31.78	122.63	13.70	
2025-01-18 06:50:32.79	122.82	13.64	
2025-01-18 06:50:33.81	123.02	13.58	
2025-01-18 06:50:34.82	123.21	13.52	
2025-01-18 06:50:35.84	123.41	13.45	
2025-01-18 06:50:36.85	123.60	13.39	
2025-01-18 06:50:37.87	123.79	13.32	
2025-01-18 06:50:38.88	123.98	13.26	
2025-01-18 06:50:39.90	124.17	13.20	
2025-01-18 06:50:40.91	124.36	13.13	
2025-01-18 06:50:41.93	124.55	13.07	
2025-01-18 06:50:42.95	124.74	13.00	
2025-01-18 06:50:43.96	124.93	12.94	
2025-01-18 06:50:44.98	125.11	12.88	
2025-01-18 06:50:45.99	125.30	12.81	
2025-01-18 06:50:47.01	125.48	12.75	
2025-01-18 06:50:48.02	125.67	12.68	
2025-01-18 06:50:49.04	125.85	12.62	
2025-01-18 06:50:50.05	126.03	12.55	
2025-01-18 06:50:51.07	126.21	12.49	
2025-01-18 06:50:52.08	126.39	12.42	
2025-01-18 06:50:53.10	126.57	12.36	
2025-01-18 06:50:54.11	126.75	12.29	
2025-01-18 06:50:55.13	126.93	12.23	
2025-01-18 06:50:56.15	127.11	12.16	
2025-01-18 06:50:57.16	127.28	12.10	
2025-01-18 06:50:58.18	127.46	12.03	
2025-01-18 06:50:59.19	127.64	11.97	
2025-01-18 06:51:00.21	127.81	11.90	
2025-01-18 06:51:01.22	127.98	11.84	
2025-01-18 06:51:02.24	128.16	11.77	
2025-01-18 06:51:03.25	128.33	11.71	
2025-01-18 06:51:04.27	128.50	11.64	
2025-01-18 06:51:05.28	128.67	11.58	
2025-01-18 06:51:06.30	128.84	11.51	
2025-01-18 06:51:07.31	129.00	11.45	
2025-01-18 06:51:08.33	129.17	11.38	
2025-01-18 06:51:09.35	129.34	11.32	
2025-01-18 06:51:10.36	129.51	11.25	
2025-01-18 06:51:11.38	129.67	11.19	
2025-01-18 06:51:12.39	129.84	11.12	
2025-01-18 06:51:13.41	130.00	11.06	
2025-01-18 06:51:14.42	130.16	10.99	
2025-01-18 06:51:15.44	130.33	10.92	
2025-01-18 06:51:16.45	130.49	10.86	
2025-01-18 06:51:17.47	130.65	10.79	
2025-01-18 06:51:18.48	130.81	10.73	
2025-01-18 06:51:19.50	130.97	10.66	
2025-01-18 06:51:20.51	131.12	10.60	
2025-01-18 06:51:21.53	131.28	10.53	
2025-01-18 06:51:22.55	131.44	10.47	
2025-01-18 06:51:23.56	131.60	10.40	
2025-01-18 06:51:24.58	131.75	10.34	
2025-01-18 06:51:25.59	131.91	10.27	
2025-01-18 06:51:26.61	132.06	10.21	
2025-01-18 06:51:27.62	132.21	10.14	
2025-01-18 06:51:28.64	132.37	10.08	
2025-01-18 06:51:29.65	132.52	10.01	
2025-01-18 06:51:30.67	132.67	9.95	
2025-01-18 06:51:31.68	132.82	9.88	
2025-01-18 06:51:32.70	132.97	9.82	
2025-01-18 06:51:33.71	133.12	9.75	
2025-01-18 06:51:34.73	133.27	9.69	
2025-01-18 06:51:35.74	133.42	9.62	
2025-01-18 06:51:36.76	133.56	9.56	
2025-01-18 06:51:37.78	133.71	9.49	
2025-01-18 06:51:38.79	133.86	9.43	
2025-01-18 06:51:39.81	134.00	9.36	
2025-01-18 06:51:40.82	134.15	9.30	
2025-01-18 06:51:41.84	134.29	9.23	
2025-01-18 06:51:42.85	134.43	9.17	
2025-01-18 06:51:43.87	134.58	9.10	
2025-01-18 06:51:44.88	134.72	9.04	
2025-01-18 06:51:45.90	134.86	8.97	
2025-01-18 06:51:46.91	135.00	8.91	
2025-01-18 06:51:47.93	135.14	8.84	
2025-01-18 06:51:48.94	135.28	8.78	
2025-01-18 06:51:49.96	135.42	8.71	
2025-01-18 06:51:50.98	135.55	8.65	
2025-01-18 06:51:51.99	135.69	8.58	
2025-01-18 06:51:53.01	135.83	8.52	
2025-01-18 06:51:54.02	135.96	8.46	
2025-01-18 06:51:55.04	136.10	8.39	
2025-01-18 06:51:56.05	136.23	8.33	
2025-01-18 06:51:57.07	136.37	8.26	
2025-01-18 06:51:58.08	136.50	8.20	
2025-01-18 06:51:59.10	136.64	8.14	
2025-01-18 06:52:00.11	136.77	8.07	
2025-01-18 06:52:01.13	136.90	8.01	
2025-01-18 06:52:02.14	137.03	7.94	
2025-01-18 06:52:03.16	137.16	7.88	
2025-01-18 06:52:04.18	137.29	7.82	
2025-01-18 06:52:05.19	137.42	7.75	
2025-01-18 06:52:06.21	137.55	7.69	
2025-01-18 06:52:07.22	137.68	7.63	
2025-01-18 06:52:08.24	137.80	7.56	
2025-01-18 06:52:09.27	137.93	7.50	
2025-01-18 06:52:10.28	138.06	7.43	
2025-01-18 06:52:11.30	138.19	7.37	
2025-01-18 06:52:12.31	138.31	7.31	
2025-01-18 06:52:13.33	138.44	7.25	
2025-01-18 06:52:14.34	138.56	7.18	
2025-01-18 06:52:15.36	138.68	7.12	
2025-01-18 06:52:16.37	138.81	7.06	
2025-01-18 06:52:17.39	138.93	6.99	
2025-01-18 06:52:18.40	139.05	6.93	
2025-01-18 06:52:19.42	139.17	6.87	
2025-01-18 06:52:20.44	139.29	6.80	
2025-01-18 06:52:21.45	139.41	6.74	
2025-01-18 06:52:22.47	139.53	6.68	
2025-01-18 06:52:23.48	139.65	6.62	
2025-01-18 06:52:24.50	139.77	6.56	
2025-01-18 06:52:25.51	139.89	6.49	
2025-01-18 06:52:26.53	140.01	6.43	
2025-01-18 06:52:27.54	140.12	6.37	
2025-01-18 06:52:28.56	140.24	6.31	
2025-01-18 06:52:29.57	140.35	6.24	
2025-01-18 06:52:30.59	140.47	6.18	
2025-01-18 06:52:31.60	140.58	6.12	
2025-01-18 06:52:32.62	140.70	6.06	
2025-01-18 06:52:33.64	140.81	6.00	
2025-01-18 06:52:34.65	140.93	5.94	
2025-01-18 06:52:35.67	141.04	5.87	
2025-01-18 06:52:36.68	141.15	5.81	
2025-01-18 06:52:37.70	141.27	5.75	
2025-01-18 06:52:38.71	141.38	5.69	
2025-01-18 06:52:39.73	141.49	5.63	
2025-01-18 06:52:40.74	141.60	5.57	
2025-01-18 06:52:41.76	141.71	5.51	
2025-01-18 06:52:42.77	141.82	5.44	
2025-01-18 06:52:43.79	141.93	5.38	
2025-01-18 06:52:44.80	142.03	5.32	
2025-01-18 06:52:45.82	142.14	5.26	
2025-01-18 06:52:46.84	142.25	5.20	
2025-01-18 06:52:47.85	142.36	5.14	
2025-01-18 06:52:48.87	142.46	5.08	
2025-01-18 06:52:49.88	142.57	5.02	
2025-01-18 06:52:50.90	142.68	4.96	
2025-01-18 06:52:51.91	142.78	4.90	
2025-01-18 06:52:52.93	142.89	4.84	
2025-01-18 06:52:53.94	142.99	4.78	
2025-01-18 06:52:54.96	143.09	4.72	
2025-01-18 06:52:55.97	143.20	4.66	
2025-01-18 06:52:56.99	143.30	4.60	
2025-01-18 06:52:58.00	143.40	4.54	
2025-01-18 06:52:59.02	143.51	4.48	
2025-01-18 06:53:00.03	143.61	4.42	
2025-01-18 06:53:01.05	143.71	4.36	
2025-01-18 06:53:02.07	143.81	4.30	
2025-01-18 06:53:03.08	143.91	4.24	
2025-01-18 06:53:04.10	144.01	4.18	
2025-01-18 06:53:05.11	144.11	4.12	
2025-01-18 06:53:06.13	144.21	4.06	
2025-01-18 06:53:07.14	144.31	4.00	

#Closed at: 2025-01-18 06:53:07