passes_logs/2025/01/18/SPB_Silybum_02/SPB_Silybum_02__20250118_082022_TERRA_rec.log

#Pass ID: 20250118_082022_TERRA
#Satellite: TERRA
#Configuration: TERRA
#Start time: 2025-01-18 08:20:23

#Version: 2.0.20230423
#Station: SPB_Silybum_02
#Location: 30.233357 lon 59.946436 lat
#TLE: 1 25994U 99068A   25017.80257355  .00000903  00000+0  19577-3 0  9994
#TLE: 2 25994  98.0211  80.7437 0003372  66.8373  47.3878 14.60400955334482

#Time	Az	El	Level	Level2	SNR	BER	Gain	Gain2
2025-01-18 08:20:25.60	16.77	4.22	
2025-01-18 08:20:26.82	16.78	4.31	
2025-01-18 08:20:28.04	16.79	4.39	
2025-01-18 08:20:29.25	16.80	4.48	
2025-01-18 08:20:30.47	16.80	4.57	
2025-01-18 08:20:31.69	16.81	4.66	
2025-01-18 08:20:32.91	16.82	4.75	
2025-01-18 08:20:34.13	16.83	4.84	
2025-01-18 08:20:35.35	16.83	4.93	
2025-01-18 08:20:36.57	16.84	5.02	
2025-01-18 08:20:37.78	16.85	5.11	
2025-01-18 08:20:39.00	16.85	5.20	
2025-01-18 08:20:40.22	16.86	5.29	
2025-01-18 08:20:41.44	16.87	5.39	
2025-01-18 08:20:42.66	16.88	5.48	
2025-01-18 08:20:43.88	16.88	5.57	
2025-01-18 08:20:45.10	16.89	5.67	
2025-01-18 08:20:46.31	16.90	5.76	
2025-01-18 08:20:47.53	16.91	5.85	
2025-01-18 08:20:48.75	16.91	5.95	
2025-01-18 08:20:49.97	16.92	6.04	
2025-01-18 08:20:51.19	16.93	6.14	
2025-01-18 08:20:52.41	16.94	6.23	
2025-01-18 08:20:53.63	16.94	6.33	
2025-01-18 08:20:54.85	16.95	6.42	
2025-01-18 08:20:56.06	16.96	6.52	
2025-01-18 08:20:57.28	16.97	6.62	
2025-01-18 08:20:58.50	16.97	6.71	
2025-01-18 08:20:59.72	16.98	6.81	
2025-01-18 08:21:00.94	16.99	6.91	
2025-01-18 08:21:02.16	17.00	7.01	
2025-01-18 08:21:03.38	17.00	7.11	
2025-01-18 08:21:04.59	17.01	7.21	
2025-01-18 08:21:05.81	17.02	7.31	
2025-01-18 08:21:07.03	17.03	7.41	
2025-01-18 08:21:08.25	17.03	7.51	
2025-01-18 08:21:09.47	17.04	7.61	
2025-01-18 08:21:10.69	17.05	7.71	
2025-01-18 08:21:11.91	17.06	7.81	
2025-01-18 08:21:13.13	17.06	7.92	
2025-01-18 08:21:14.34	17.07	8.02	
2025-01-18 08:21:15.56	17.08	8.12	
2025-01-18 08:21:16.78	17.09	8.23	
2025-01-18 08:21:18.00	17.10	8.33	
2025-01-18 08:21:19.22	17.10	8.44	
2025-01-18 08:21:20.44	17.11	8.54	
2025-01-18 08:21:21.66	17.12	8.65	
2025-01-18 08:21:22.87	17.13	8.75	
2025-01-18 08:21:24.09	17.13	8.86	
2025-01-18 08:21:25.31	17.14	8.97	
2025-01-18 08:21:26.53	17.15	9.07	
2025-01-18 08:21:27.75	17.16	9.18	
2025-01-18 08:21:28.97	17.17	9.29	
2025-01-18 08:21:30.19	17.17	9.40	
2025-01-18 08:21:31.40	17.18	9.51	
2025-01-18 08:21:32.62	17.19	9.62	
2025-01-18 08:21:33.84	17.20	9.73	
2025-01-18 08:21:35.06	17.21	9.85	
2025-01-18 08:21:36.28	17.21	9.96	
2025-01-18 08:21:37.50	17.22	10.07	
2025-01-18 08:21:38.72	17.23	10.18	
2025-01-18 08:21:39.94	17.24	10.30	
2025-01-18 08:21:41.15	17.25	10.41	
2025-01-18 08:21:42.37	17.26	10.53	
2025-01-18 08:21:43.59	17.26	10.64	
2025-01-18 08:21:44.81	17.27	10.76	
2025-01-18 08:21:46.03	17.28	10.88	
2025-01-18 08:21:47.25	17.29	10.99	
2025-01-18 08:21:48.47	17.30	11.11	
2025-01-18 08:21:49.68	17.31	11.23	
2025-01-18 08:21:50.90	17.31	11.35	
2025-01-18 08:21:52.12	17.32	11.47	
2025-01-18 08:21:53.34	17.33	11.59	
2025-01-18 08:21:54.56	17.34	11.71	
2025-01-18 08:21:55.78	17.35	11.84	
2025-01-18 08:21:57.00	17.36	11.96	
2025-01-18 08:21:58.22	17.37	12.08	
2025-01-18 08:21:59.43	17.37	12.21	
2025-01-18 08:22:00.65	17.38	12.33	
2025-01-18 08:22:01.87	17.39	12.46	
2025-01-18 08:22:03.09	17.40	12.58	
2025-01-18 08:22:04.31	17.41	12.71	
2025-01-18 08:22:05.53	17.42	12.84	
2025-01-18 08:22:06.75	17.43	12.97	
2025-01-18 08:22:07.96	17.44	13.10	
2025-01-18 08:22:09.18	17.44	13.23	
2025-01-18 08:22:10.40	17.45	13.36	
2025-01-18 08:22:11.62	17.46	13.49	
2025-01-18 08:22:12.84	17.47	13.62	
2025-01-18 08:22:14.06	17.48	13.76	
2025-01-18 08:22:15.28	17.49	13.89	
2025-01-18 08:22:16.50	17.50	14.03	
2025-01-18 08:22:17.71	17.51	14.16	
2025-01-18 08:22:18.93	17.52	14.30	
2025-01-18 08:22:20.15	17.53	14.43	
2025-01-18 08:22:21.37	17.54	14.57	
2025-01-18 08:22:22.59	17.55	14.71	
2025-01-18 08:22:23.81	17.56	14.85	
2025-01-18 08:22:25.03	17.56	14.99	
2025-01-18 08:22:26.24	17.57	15.14	
2025-01-18 08:22:27.46	17.58	15.28	
2025-01-18 08:22:28.68	17.59	15.42	
2025-01-18 08:22:29.90	17.60	15.57	
2025-01-18 08:22:31.12	17.61	15.71	
2025-01-18 08:22:32.34	17.62	15.86	
2025-01-18 08:22:33.56	17.63	16.01	
2025-01-18 08:22:34.77	17.64	16.16	
2025-01-18 08:22:35.99	17.65	16.30	
2025-01-18 08:22:37.21	17.66	16.46	
2025-01-18 08:22:38.43	17.67	16.61	
2025-01-18 08:22:39.65	17.68	16.76	
2025-01-18 08:22:40.87	17.69	16.91	
2025-01-18 08:22:42.09	17.70	17.07	
2025-01-18 08:22:43.31	17.71	17.23	
2025-01-18 08:22:44.52	17.72	17.38	
2025-01-18 08:22:45.74	17.73	17.54	
2025-01-18 08:22:46.96	17.74	17.70	
2025-01-18 08:22:48.18	17.75	17.86	
2025-01-18 08:22:49.40	17.76	18.02	
2025-01-18 08:22:50.62	17.77	18.18	
2025-01-18 08:22:51.84	17.79	18.35	
2025-01-18 08:22:53.05	17.80	18.51	
2025-01-18 08:22:54.27	17.81	18.68	
2025-01-18 08:22:55.49	17.82	18.85	
2025-01-18 08:22:56.71	17.83	19.02	
2025-01-18 08:22:57.93	17.84	19.19	
2025-01-18 08:22:59.15	17.85	19.36	
2025-01-18 08:23:00.37	17.86	19.53	
2025-01-18 08:23:01.59	17.87	19.71	
2025-01-18 08:23:02.80	17.88	19.88	
2025-01-18 08:23:04.02	17.90	20.06	
2025-01-18 08:23:05.24	17.91	20.24	
2025-01-18 08:23:06.46	17.92	20.42	
2025-01-18 08:23:07.68	17.93	20.60	
2025-01-18 08:23:08.90	17.94	20.78	
2025-01-18 08:23:10.12	17.95	20.96	
2025-01-18 08:23:11.33	17.97	21.15	
2025-01-18 08:23:12.55	17.98	21.33	
2025-01-18 08:23:13.77	17.99	21.52	
2025-01-18 08:23:14.99	18.00	21.71	
2025-01-18 08:23:16.21	18.01	21.91	
2025-01-18 08:23:17.43	18.03	22.10	
2025-01-18 08:23:18.65	18.04	22.29	
2025-01-18 08:23:19.87	18.05	22.49	
2025-01-18 08:23:21.08	18.06	22.69	
2025-01-18 08:23:22.30	18.08	22.89	
2025-01-18 08:23:23.52	18.09	23.09	
2025-01-18 08:23:24.74	18.10	23.29	
2025-01-18 08:23:25.96	18.11	23.50	
2025-01-18 08:23:27.18	18.13	23.70	
2025-01-18 08:23:28.40	18.14	23.91	
2025-01-18 08:23:29.61	18.15	24.12	
2025-01-18 08:23:30.83	18.17	24.33	
2025-01-18 08:23:32.05	18.18	24.55	
2025-01-18 08:23:33.27	18.20	24.76	
2025-01-18 08:23:34.49	18.21	24.98	
2025-01-18 08:23:35.71	18.22	25.20	
2025-01-18 08:23:36.93	18.24	25.42	
2025-01-18 08:23:38.14	18.25	25.65	
2025-01-18 08:23:39.36	18.27	25.87	
2025-01-18 08:23:40.58	18.28	26.10	
2025-01-18 08:23:41.80	18.30	26.33	
2025-01-18 08:23:43.02	18.31	26.56	
2025-01-18 08:23:44.24	18.33	26.80	
2025-01-18 08:23:45.46	18.34	27.04	
2025-01-18 08:23:46.68	18.36	27.28	
2025-01-18 08:23:47.89	18.37	27.51	
2025-01-18 08:23:49.11	18.39	27.76	
2025-01-18 08:23:50.33	18.40	28.00	
2025-01-18 08:23:51.55	18.42	28.25	
2025-01-18 08:23:52.77	18.43	28.50	
2025-01-18 08:23:53.99	18.45	28.76	
2025-01-18 08:23:55.21	18.47	29.01	
2025-01-18 08:23:56.42	18.48	29.27	
2025-01-18 08:23:57.64	18.50	29.53	
2025-01-18 08:23:58.86	18.52	29.79	
2025-01-18 08:24:00.08	18.54	30.06	
2025-01-18 08:24:01.30	18.55	30.33	
2025-01-18 08:24:02.52	18.57	30.60	
2025-01-18 08:24:03.74	18.59	30.87	
2025-01-18 08:24:04.96	18.61	31.15	
2025-01-18 08:24:06.17	18.63	31.43	
2025-01-18 08:24:07.39	18.65	31.71	
2025-01-18 08:24:08.61	18.66	32.00	
2025-01-18 08:24:09.83	18.68	32.29	
2025-01-18 08:24:11.05	18.70	32.58	
2025-01-18 08:24:12.27	18.72	32.87	
2025-01-18 08:24:13.49	18.74	33.17	
2025-01-18 08:24:14.70	18.76	33.47	
2025-01-18 08:24:15.92	18.78	33.77	
2025-01-18 08:24:17.14	18.81	34.08	
2025-01-18 08:24:18.36	18.83	34.39	
2025-01-18 08:24:19.58	18.85	34.71	
2025-01-18 08:24:20.80	18.87	35.02	
2025-01-18 08:24:22.02	18.89	35.34	
2025-01-18 08:24:23.23	18.92	35.67	
2025-01-18 08:24:24.45	18.94	35.99	
2025-01-18 08:24:25.67	18.96	36.33	
2025-01-18 08:24:26.89	18.99	36.66	
2025-01-18 08:24:28.11	19.01	37.00	
2025-01-18 08:24:29.33	19.03	37.34	
2025-01-18 08:24:30.55	19.06	37.69	
2025-01-18 08:24:31.77	19.09	38.04	
2025-01-18 08:24:32.98	19.11	38.39	
2025-01-18 08:24:34.20	19.14	38.75	
2025-01-18 08:24:35.42	19.16	39.11	
2025-01-18 08:24:36.64	19.19	39.48	
2025-01-18 08:24:37.86	19.22	39.85	
2025-01-18 08:24:39.08	19.25	40.22	
2025-01-18 08:24:40.30	19.28	40.60	
2025-01-18 08:24:41.51	19.31	40.98	
2025-01-18 08:24:42.73	19.34	41.37	
2025-01-18 08:24:43.95	19.37	41.76	
2025-01-18 08:24:45.17	19.40	42.15	
2025-01-18 08:24:46.39	19.43	42.56	
2025-01-18 08:24:47.61	19.47	42.96	
2025-01-18 08:24:48.83	19.50	43.37	
2025-01-18 08:24:50.05	19.54	43.78	
2025-01-18 08:24:51.26	19.57	44.20	
2025-01-18 08:24:52.48	19.61	44.62	
2025-01-18 08:24:53.70	19.64	45.05	
2025-01-18 08:24:54.92	19.68	45.49	
2025-01-18 08:24:56.14	19.72	45.93	
2025-01-18 08:24:57.36	19.76	46.37	
2025-01-18 08:24:58.58	19.80	46.82	
2025-01-18 08:24:59.79	19.84	47.27	
2025-01-18 08:25:01.01	19.89	47.73	
2025-01-18 08:25:02.23	19.93	48.19	
2025-01-18 08:25:03.45	19.98	48.66	
2025-01-18 08:25:04.67	20.02	49.13	
2025-01-18 08:25:05.89	20.07	49.61	
2025-01-18 08:25:07.11	20.12	50.10	
2025-01-18 08:25:08.32	20.17	50.59	
2025-01-18 08:25:09.54	20.23	51.08	
2025-01-18 08:25:10.76	20.28	51.59	
2025-01-18 08:25:11.98	20.34	52.09	
2025-01-18 08:25:13.20	20.39	52.61	
2025-01-18 08:25:14.42	20.45	53.12	
2025-01-18 08:25:15.64	20.52	53.65	
2025-01-18 08:25:16.86	20.58	54.18	
2025-01-18 08:25:18.07	20.65	54.71	
2025-01-18 08:25:19.29	20.71	55.25	
2025-01-18 08:25:20.51	20.79	55.80	
2025-01-18 08:25:21.73	20.86	56.35	
2025-01-18 08:25:22.95	20.94	56.91	
2025-01-18 08:25:24.17	21.02	57.47	
2025-01-18 08:25:25.39	21.10	58.04	
2025-01-18 08:25:26.60	21.18	58.61	
2025-01-18 08:25:27.82	21.27	59.20	
2025-01-18 08:25:29.04	21.37	59.78	
2025-01-18 08:25:30.26	21.47	60.38	
2025-01-18 08:25:31.48	21.57	60.97	
2025-01-18 08:25:32.70	21.68	61.58	
2025-01-18 08:25:33.92	21.79	62.19	
2025-01-18 08:25:35.14	21.91	62.81	
2025-01-18 08:25:36.35	22.03	63.42	
2025-01-18 08:25:37.57	22.16	64.05	
2025-01-18 08:25:38.79	22.30	64.68	
2025-01-18 08:25:40.01	22.45	65.32	
2025-01-18 08:25:41.23	22.60	65.96	
2025-01-18 08:25:42.45	22.76	66.61	
2025-01-18 08:25:43.67	22.94	67.26	
2025-01-18 08:25:44.88	23.12	67.92	
2025-01-18 08:25:46.10	23.32	68.58	
2025-01-18 08:25:47.32	23.53	69.25	
2025-01-18 08:25:48.54	23.75	69.92	
2025-01-18 08:25:49.76	23.99	70.60	
2025-01-18 08:25:50.98	24.25	71.28	
2025-01-18 08:25:52.20	24.53	71.97	
2025-01-18 08:25:53.42	24.84	72.66	
2025-01-18 08:25:54.63	25.16	73.35	
2025-01-18 08:25:55.85	25.52	74.05	
2025-01-18 08:25:57.07	25.92	74.75	
2025-01-18 08:25:58.29	26.35	75.46	
2025-01-18 08:25:59.51	26.83	76.16	
2025-01-18 08:26:00.73	27.36	76.88	
2025-01-18 08:26:01.95	27.95	77.59	
2025-01-18 08:26:03.16	28.61	78.30	
2025-01-18 08:26:04.38	29.37	79.02	
2025-01-18 08:26:05.60	30.23	79.73	
2025-01-18 08:26:06.82	31.23	80.45	
2025-01-18 08:26:08.04	32.39	81.17	
2025-01-18 08:26:09.26	33.75	81.88	
2025-01-18 08:26:10.48	35.39	82.60	
2025-01-18 08:26:11.69	37.35	83.30	
2025-01-18 08:26:12.91	39.79	84.00	
2025-01-18 08:26:14.13	42.88	84.68	
2025-01-18 08:26:15.35	46.87	85.35	
2025-01-18 08:26:16.57	52.16	85.99	
2025-01-18 08:26:17.79	59.39	86.58	
2025-01-18 08:26:19.01	69.42	87.10	
2025-01-18 08:26:20.23	83.17	87.50	
2025-01-18 08:26:21.44	100.49	87.70	
2025-01-18 08:26:22.66	119.31	87.67	
2025-01-18 08:26:23.88	135.94	87.41	
2025-01-18 08:26:25.10	148.67	86.98	
2025-01-18 08:26:26.32	157.88	86.44	
2025-01-18 08:26:27.54	164.54	85.83	
2025-01-18 08:26:28.76	169.45	85.18	
2025-01-18 08:26:29.97	173.14	84.51	
2025-01-18 08:26:31.19	176.05	83.82	
2025-01-18 08:26:32.41	178.36	83.12	
2025-01-18 08:26:33.63	180.24	82.41	
2025-01-18 08:26:34.85	181.80	81.70	
2025-01-18 08:26:36.07	183.11	80.98	
2025-01-18 08:26:37.29	184.22	80.26	
2025-01-18 08:26:38.51	185.18	79.54	
2025-01-18 08:26:39.72	186.00	78.83	
2025-01-18 08:26:40.94	186.74	78.11	
2025-01-18 08:26:42.16	187.38	77.40	
2025-01-18 08:26:43.38	187.96	76.68	
2025-01-18 08:26:44.60	188.48	75.97	
2025-01-18 08:26:45.82	188.94	75.26	
2025-01-18 08:26:47.04	189.37	74.56	
2025-01-18 08:26:48.25	189.75	73.86	
2025-01-18 08:26:49.47	190.10	73.16	
2025-01-18 08:26:50.69	190.42	72.47	
2025-01-18 08:26:51.91	190.72	71.78	
2025-01-18 08:26:53.13	190.99	71.09	
2025-01-18 08:26:54.35	191.25	70.41	
2025-01-18 08:26:55.57	191.48	69.73	
2025-01-18 08:26:56.78	191.70	69.06	
2025-01-18 08:26:58.00	191.91	68.39	
2025-01-18 08:26:59.22	192.10	67.73	
2025-01-18 08:27:00.44	192.28	67.07	
2025-01-18 08:27:01.66	192.45	66.42	
2025-01-18 08:27:02.88	192.62	65.77	
2025-01-18 08:27:04.10	192.77	65.13	
2025-01-18 08:27:05.32	192.91	64.49	
2025-01-18 08:27:06.53	193.05	63.86	
2025-01-18 08:27:07.75	193.17	63.23	
2025-01-18 08:27:08.97	193.30	62.61	
2025-01-18 08:27:10.19	193.41	62.00	
2025-01-18 08:27:11.41	193.53	61.39	
2025-01-18 08:27:12.63	193.63	60.78	
2025-01-18 08:27:13.85	193.73	60.18	
2025-01-18 08:27:15.06	193.83	59.59	
2025-01-18 08:27:16.28	193.92	59.01	
2025-01-18 08:27:17.50	194.01	58.43	
2025-01-18 08:27:18.72	194.10	57.85	
2025-01-18 08:27:19.94	194.18	57.28	
2025-01-18 08:27:21.16	194.26	56.72	
2025-01-18 08:27:22.38	194.33	56.16	
2025-01-18 08:27:23.60	194.41	55.60	
2025-01-18 08:27:24.81	194.48	55.06	
2025-01-18 08:27:26.03	194.54	54.52	
2025-01-18 08:27:27.25	194.61	53.99	
2025-01-18 08:27:28.47	194.67	53.46	
2025-01-18 08:27:29.69	194.73	52.93	
2025-01-18 08:27:30.91	194.79	52.41	
2025-01-18 08:27:32.13	194.85	51.90	
2025-01-18 08:27:33.34	194.90	51.40	
2025-01-18 08:27:34.56	194.96	50.90	
2025-01-18 08:27:35.78	195.01	50.40	
2025-01-18 08:27:37.00	195.06	49.91	
2025-01-18 08:27:38.22	195.11	49.42	
2025-01-18 08:27:39.44	195.16	48.94	
2025-01-18 08:27:40.66	195.20	48.47	
2025-01-18 08:27:41.87	195.25	48.00	
2025-01-18 08:27:43.09	195.29	47.54	
2025-01-18 08:27:44.31	195.34	47.08	
2025-01-18 08:27:45.53	195.38	46.63	
2025-01-18 08:27:46.75	195.42	46.18	
2025-01-18 08:27:47.97	195.46	45.73	
2025-01-18 08:27:49.19	195.50	45.30	
2025-01-18 08:27:50.41	195.53	44.86	
2025-01-18 08:27:51.62	195.57	44.44	
2025-01-18 08:27:52.84	195.60	44.01	
2025-01-18 08:27:54.06	195.64	43.59	
2025-01-18 08:27:55.28	195.67	43.18	
2025-01-18 08:27:56.50	195.71	42.77	
2025-01-18 08:27:57.72	195.74	42.36	
2025-01-18 08:27:58.94	195.77	41.96	
2025-01-18 08:28:00.15	195.80	41.57	
2025-01-18 08:28:01.37	195.83	41.18	
2025-01-18 08:28:02.59	195.86	40.79	
2025-01-18 08:28:03.81	195.89	40.41	
2025-01-18 08:28:05.03	195.92	40.03	
2025-01-18 08:28:06.25	195.95	39.66	
2025-01-18 08:28:07.47	195.98	39.29	
2025-01-18 08:28:08.69	196.00	38.92	
2025-01-18 08:28:09.90	196.03	38.56	
2025-01-18 08:28:11.12	196.06	38.20	
2025-01-18 08:28:12.34	196.08	37.85	
2025-01-18 08:28:13.56	196.11	37.50	
2025-01-18 08:28:14.78	196.13	37.15	
2025-01-18 08:28:16.00	196.16	36.81	
2025-01-18 08:28:17.22	196.18	36.47	
2025-01-18 08:28:18.43	196.20	36.14	
2025-01-18 08:28:19.65	196.23	35.81	
2025-01-18 08:28:20.87	196.25	35.48	
2025-01-18 08:28:22.09	196.27	35.15	
2025-01-18 08:28:23.31	196.29	34.83	
2025-01-18 08:28:24.53	196.31	34.52	
2025-01-18 08:28:25.75	196.34	34.20	
2025-01-18 08:28:26.97	196.36	33.89	
2025-01-18 08:28:28.18	196.38	33.59	
2025-01-18 08:28:29.40	196.40	33.28	
2025-01-18 08:28:30.62	196.42	32.98	
2025-01-18 08:28:31.84	196.44	32.68	
2025-01-18 08:28:33.06	196.46	32.39	
2025-01-18 08:28:34.28	196.47	32.10	
2025-01-18 08:28:35.50	196.49	31.81	
2025-01-18 08:28:36.71	196.51	31.52	
2025-01-18 08:28:37.93	196.53	31.24	
2025-01-18 08:28:39.15	196.55	30.96	
2025-01-18 08:28:40.37	196.57	30.68	
2025-01-18 08:28:41.59	196.58	30.41	
2025-01-18 08:28:42.81	196.60	30.14	
2025-01-18 08:28:44.03	196.62	29.87	
2025-01-18 08:28:45.24	196.63	29.61	
2025-01-18 08:28:46.46	196.65	29.34	
2025-01-18 08:28:47.68	196.67	29.08	
2025-01-18 08:28:48.90	196.68	28.82	
2025-01-18 08:28:50.12	196.70	28.57	
2025-01-18 08:28:51.34	196.72	28.31	
2025-01-18 08:28:52.56	196.73	28.06	
2025-01-18 08:28:53.78	196.75	27.81	
2025-01-18 08:28:54.99	196.76	27.57	
2025-01-18 08:28:56.21	196.78	27.33	
2025-01-18 08:28:57.43	196.79	27.08	
2025-01-18 08:28:58.65	196.81	26.85	
2025-01-18 08:28:59.87	196.82	26.61	
2025-01-18 08:29:01.09	196.84	26.37	
2025-01-18 08:29:02.31	196.85	26.14	
2025-01-18 08:29:03.52	196.86	25.91	
2025-01-18 08:29:04.74	196.88	25.68	
2025-01-18 08:29:05.96	196.89	25.46	
2025-01-18 08:29:07.18	196.91	25.23	
2025-01-18 08:29:08.40	196.92	25.01	
2025-01-18 08:29:09.62	196.93	24.79	
2025-01-18 08:29:10.84	196.95	24.57	
2025-01-18 08:29:12.06	196.96	24.36	
2025-01-18 08:29:13.27	196.97	24.14	
2025-01-18 08:29:14.49	196.98	23.93	
2025-01-18 08:29:15.71	197.00	23.72	
2025-01-18 08:29:16.93	197.01	23.51	
2025-01-18 08:29:18.15	197.02	23.31	
2025-01-18 08:29:19.37	197.03	23.10	
2025-01-18 08:29:20.59	197.05	22.90	
2025-01-18 08:29:21.80	197.06	22.70	
2025-01-18 08:29:23.02	197.07	22.50	
2025-01-18 08:29:24.24	197.08	22.30	
2025-01-18 08:29:25.46	197.10	22.10	
2025-01-18 08:29:26.68	197.11	21.91	
2025-01-18 08:29:27.90	197.12	21.71	
2025-01-18 08:29:29.12	197.13	21.52	
2025-01-18 08:29:30.33	197.14	21.33	
2025-01-18 08:29:31.55	197.15	21.15	
2025-01-18 08:29:32.77	197.16	20.96	
2025-01-18 08:29:33.99	197.18	20.77	
2025-01-18 08:29:35.21	197.19	20.59	
2025-01-18 08:29:36.43	197.20	20.41	
2025-01-18 08:29:37.65	197.21	20.22	
2025-01-18 08:29:38.87	197.22	20.04	
2025-01-18 08:29:40.08	197.23	19.87	
2025-01-18 08:29:41.30	197.24	19.69	
2025-01-18 08:29:42.52	197.25	19.51	
2025-01-18 08:29:43.74	197.26	19.34	
2025-01-18 08:29:44.96	197.27	19.17	
2025-01-18 08:29:46.18	197.28	19.00	
2025-01-18 08:29:47.40	197.29	18.83	
2025-01-18 08:29:48.61	197.30	18.66	
2025-01-18 08:29:49.83	197.31	18.49	
2025-01-18 08:29:51.05	197.32	18.32	
2025-01-18 08:29:52.27	197.33	18.16	
2025-01-18 08:29:53.49	197.34	17.99	
2025-01-18 08:29:54.71	197.35	17.83	
2025-01-18 08:29:55.93	197.36	17.67	
2025-01-18 08:29:57.15	197.37	17.51	
2025-01-18 08:29:58.36	197.38	17.35	
2025-01-18 08:29:59.58	197.39	17.19	
2025-01-18 08:30:00.80	197.40	17.03	
2025-01-18 08:30:02.02	197.41	16.88	
2025-01-18 08:30:03.24	197.42	16.72	
2025-01-18 08:30:04.46	197.43	16.57	
2025-01-18 08:30:05.68	197.44	16.42	
2025-01-18 08:30:06.89	197.45	16.27	
2025-01-18 08:30:08.11	197.46	16.11	
2025-01-18 08:30:09.33	197.47	15.96	
2025-01-18 08:30:10.55	197.47	15.82	
2025-01-18 08:30:11.77	197.48	15.67	
2025-01-18 08:30:12.99	197.49	15.52	
2025-01-18 08:30:14.21	197.50	15.38	
2025-01-18 08:30:15.42	197.51	15.23	
2025-01-18 08:30:16.64	197.52	15.09	
2025-01-18 08:30:17.86	197.53	14.94	
2025-01-18 08:30:19.08	197.54	14.80	
2025-01-18 08:30:20.30	197.54	14.66	
2025-01-18 08:30:21.52	197.55	14.52	
2025-01-18 08:30:22.74	197.56	14.38	
2025-01-18 08:30:23.96	197.57	14.24	
2025-01-18 08:30:25.17	197.58	14.11	
2025-01-18 08:30:26.39	197.59	13.97	
2025-01-18 08:30:27.61	197.60	13.83	
2025-01-18 08:30:28.83	197.60	13.70	
2025-01-18 08:30:30.05	197.61	13.56	
2025-01-18 08:30:31.27	197.62	13.43	
2025-01-18 08:30:32.49	197.63	13.30	
2025-01-18 08:30:33.70	197.64	13.17	
2025-01-18 08:30:34.92	197.64	13.04	
2025-01-18 08:30:36.14	197.65	12.91	
2025-01-18 08:30:37.36	197.66	12.78	
2025-01-18 08:30:38.58	197.67	12.65	
2025-01-18 08:30:39.80	197.68	12.52	
2025-01-18 08:30:41.02	197.68	12.39	
2025-01-18 08:30:42.24	197.69	12.26	
2025-01-18 08:30:43.45	197.70	12.14	
2025-01-18 08:30:44.67	197.71	12.01	
2025-01-18 08:30:45.89	197.72	11.89	
2025-01-18 08:30:47.11	197.72	11.77	
2025-01-18 08:30:48.33	197.73	11.64	
2025-01-18 08:30:49.55	197.74	11.52	
2025-01-18 08:30:50.77	197.75	11.40	
2025-01-18 08:30:51.98	197.75	11.28	
2025-01-18 08:30:53.20	197.76	11.16	
2025-01-18 08:30:54.42	197.77	11.04	
2025-01-18 08:30:55.64	197.78	10.92	
2025-01-18 08:30:56.86	197.78	10.80	
2025-01-18 08:30:58.08	197.79	10.68	
2025-01-18 08:30:59.30	197.80	10.57	
2025-01-18 08:31:00.52	197.81	10.45	
2025-01-18 08:31:01.73	197.81	10.33	
2025-01-18 08:31:02.95	197.82	10.22	
2025-01-18 08:31:04.17	197.83	10.10	
2025-01-18 08:31:05.39	197.83	9.99	
2025-01-18 08:31:06.61	197.84	9.88	
2025-01-18 08:31:07.83	197.85	9.76	
2025-01-18 08:31:09.05	197.86	9.65	
2025-01-18 08:31:10.26	197.86	9.54	
2025-01-18 08:31:11.48	197.87	9.43	
2025-01-18 08:31:12.70	197.88	9.32	
2025-01-18 08:31:13.92	197.88	9.21	
2025-01-18 08:31:15.14	197.89	9.10	
2025-01-18 08:31:16.36	197.90	8.99	
2025-01-18 08:31:17.58	197.91	8.88	
2025-01-18 08:31:18.79	197.91	8.77	
2025-01-18 08:31:20.01	197.92	8.67	
2025-01-18 08:31:21.23	197.93	8.56	
2025-01-18 08:31:22.45	197.93	8.45	
2025-01-18 08:31:23.67	197.94	8.35	
2025-01-18 08:31:24.89	197.95	8.24	
2025-01-18 08:31:26.11	197.95	8.14	
2025-01-18 08:31:27.33	197.96	8.03	
2025-01-18 08:31:28.54	197.97	7.93	
2025-01-18 08:31:29.76	197.97	7.82	
2025-01-18 08:31:30.98	197.98	7.72	
2025-01-18 08:31:32.20	197.99	7.62	
2025-01-18 08:31:33.42	197.99	7.52	
2025-01-18 08:31:34.64	198.00	7.41	
2025-01-18 08:31:35.86	198.01	7.31	
2025-01-18 08:31:37.07	198.01	7.21	
2025-01-18 08:31:38.29	198.02	7.11	
2025-01-18 08:31:39.51	198.03	7.01	
2025-01-18 08:31:40.73	198.03	6.91	
2025-01-18 08:31:41.95	198.04	6.81	
2025-01-18 08:31:43.17	198.05	6.71	
2025-01-18 08:31:44.39	198.05	6.62	
2025-01-18 08:31:45.60	198.06	6.52	
2025-01-18 08:31:46.82	198.06	6.42	
2025-01-18 08:31:48.04	198.07	6.32	
2025-01-18 08:31:49.26	198.08	6.23	
2025-01-18 08:31:50.48	198.08	6.13	
2025-01-18 08:31:51.70	198.09	6.04	
2025-01-18 08:31:52.92	198.10	5.94	
2025-01-18 08:31:54.14	198.10	5.84	
2025-01-18 08:31:55.35	198.11	5.75	
2025-01-18 08:31:56.57	198.11	5.66	
2025-01-18 08:31:57.79	198.12	5.56	
2025-01-18 08:31:59.01	198.13	5.47	
2025-01-18 08:32:00.23	198.13	5.38	
2025-01-18 08:32:01.45	198.14	5.28	
2025-01-18 08:32:02.67	198.15	5.19	
2025-01-18 08:32:03.88	198.15	5.10	
2025-01-18 08:32:05.10	198.16	5.01	
2025-01-18 08:32:06.32	198.16	4.92	
2025-01-18 08:32:07.54	198.17	4.82	
2025-01-18 08:32:08.76	198.18	4.73	
2025-01-18 08:32:09.98	198.18	4.64	
2025-01-18 08:32:11.20	198.19	4.55	
2025-01-18 08:32:12.42	198.19	4.46	
2025-01-18 08:32:13.63	198.20	4.37	
2025-01-18 08:32:14.85	198.21	4.29	
2025-01-18 08:32:16.07	198.21	4.20	
2025-01-18 08:32:17.29	198.22	4.11	
2025-01-18 08:32:18.51	198.22	4.02	

#Closed at: 2025-01-18 08:32:19