passes_logs/2025/01/18/SPB_Silybum_02/SPB_Silybum_02__20250118_104944_SUOMI_NPP_rec.log

#Pass ID: 20250118_104944_SUOMI NPP
#Satellite: SUOMI NPP
#Configuration: NPP
#Start time: 2025-01-18 10:49:44

#Version: 2.0.20230423
#Station: SPB_Silybum_02
#Location: 30.233357 lon 59.946436 lat
#TLE: 1 37849U 11061A   25017.80975554  .00000187  00000+0  10930-3 0  9999
#TLE: 2 37849  98.7450 318.7628 0001577  36.7528 323.3756 14.19539590685310

#Time	Az	El	Level	Level2	SNR	BER	Gain	Gain2
2025-01-18 10:49:46.13	175.54	4.10	
2025-01-18 10:49:47.55	175.58	4.19	
2025-01-18 10:49:48.97	175.62	4.29	
2025-01-18 10:49:50.39	175.66	4.39	
2025-01-18 10:49:51.81	175.71	4.49	
2025-01-18 10:49:53.23	175.75	4.59	
2025-01-18 10:49:54.66	175.79	4.68	
2025-01-18 10:49:56.08	175.83	4.78	
2025-01-18 10:49:57.50	175.87	4.88	
2025-01-18 10:49:58.92	175.92	4.98	
2025-01-18 10:50:00.34	175.96	5.08	
2025-01-18 10:50:01.76	176.00	5.18	
2025-01-18 10:50:03.18	176.05	5.28	
2025-01-18 10:50:04.60	176.09	5.39	
2025-01-18 10:50:06.02	176.14	5.49	
2025-01-18 10:50:07.44	176.18	5.59	
2025-01-18 10:50:08.86	176.23	5.69	
2025-01-18 10:50:10.29	176.27	5.79	
2025-01-18 10:50:11.71	176.32	5.90	
2025-01-18 10:50:13.13	176.36	6.00	
2025-01-18 10:50:14.55	176.41	6.10	
2025-01-18 10:50:15.97	176.45	6.21	
2025-01-18 10:50:17.39	176.50	6.31	
2025-01-18 10:50:18.81	176.55	6.42	
2025-01-18 10:50:20.23	176.60	6.52	
2025-01-18 10:50:21.65	176.64	6.63	
2025-01-18 10:50:23.07	176.69	6.74	
2025-01-18 10:50:24.49	176.74	6.84	
2025-01-18 10:50:25.92	176.79	6.95	
2025-01-18 10:50:27.34	176.84	7.06	
2025-01-18 10:50:28.76	176.89	7.17	
2025-01-18 10:50:30.18	176.94	7.28	
2025-01-18 10:50:31.60	176.99	7.39	
2025-01-18 10:50:33.02	177.04	7.49	
2025-01-18 10:50:34.44	177.09	7.60	
2025-01-18 10:50:35.86	177.14	7.71	
2025-01-18 10:50:37.28	177.19	7.83	
2025-01-18 10:50:38.70	177.24	7.94	
2025-01-18 10:50:40.12	177.29	8.05	
2025-01-18 10:50:41.55	177.34	8.16	
2025-01-18 10:50:42.97	177.40	8.27	
2025-01-18 10:50:44.39	177.45	8.39	
2025-01-18 10:50:45.81	177.50	8.50	
2025-01-18 10:50:47.23	177.56	8.62	
2025-01-18 10:50:48.65	177.61	8.73	
2025-01-18 10:50:50.07	177.67	8.85	
2025-01-18 10:50:51.49	177.72	8.96	
2025-01-18 10:50:52.91	177.78	9.08	
2025-01-18 10:50:54.33	177.83	9.19	
2025-01-18 10:50:55.75	177.89	9.31	
2025-01-18 10:50:57.18	177.95	9.43	
2025-01-18 10:50:58.60	178.00	9.55	
2025-01-18 10:51:00.02	178.06	9.67	
2025-01-18 10:51:01.44	178.12	9.79	
2025-01-18 10:51:02.86	178.18	9.91	
2025-01-18 10:51:04.28	178.24	10.03	
2025-01-18 10:51:05.70	178.30	10.15	
2025-01-18 10:51:07.12	178.36	10.27	
2025-01-18 10:51:08.54	178.42	10.39	
2025-01-18 10:51:09.96	178.48	10.52	
2025-01-18 10:51:11.38	178.54	10.64	
2025-01-18 10:51:12.81	178.60	10.77	
2025-01-18 10:51:14.23	178.66	10.89	
2025-01-18 10:51:15.65	178.72	11.02	
2025-01-18 10:51:17.07	178.79	11.14	
2025-01-18 10:51:18.49	178.85	11.27	
2025-01-18 10:51:19.91	178.91	11.40	
2025-01-18 10:51:21.33	178.98	11.52	
2025-01-18 10:51:22.75	179.04	11.65	
2025-01-18 10:51:24.17	179.11	11.78	
2025-01-18 10:51:25.59	179.18	11.91	
2025-01-18 10:51:27.01	179.24	12.04	
2025-01-18 10:51:28.44	179.31	12.17	
2025-01-18 10:51:29.86	179.38	12.31	
2025-01-18 10:51:31.28	179.45	12.44	
2025-01-18 10:51:32.70	179.52	12.57	
2025-01-18 10:51:34.12	179.59	12.70	
2025-01-18 10:51:35.54	179.66	12.84	
2025-01-18 10:51:36.96	179.73	12.97	
2025-01-18 10:51:38.38	179.80	13.11	
2025-01-18 10:51:39.80	179.87	13.25	
2025-01-18 10:51:41.22	179.94	13.39	
2025-01-18 10:51:42.64	180.02	13.52	
2025-01-18 10:51:44.07	180.09	13.66	
2025-01-18 10:51:45.49	180.17	13.80	
2025-01-18 10:51:46.91	180.24	13.94	
2025-01-18 10:51:48.33	180.32	14.09	
2025-01-18 10:51:49.75	180.39	14.23	
2025-01-18 10:51:51.17	180.47	14.37	
2025-01-18 10:51:52.59	180.55	14.51	
2025-01-18 10:51:54.01	180.63	14.66	
2025-01-18 10:51:55.43	180.71	14.80	
2025-01-18 10:51:56.85	180.79	14.95	
2025-01-18 10:51:58.27	180.87	15.10	
2025-01-18 10:51:59.70	180.95	15.25	
2025-01-18 10:52:01.12	181.03	15.39	
2025-01-18 10:52:02.54	181.12	15.54	
2025-01-18 10:52:03.96	181.20	15.69	
2025-01-18 10:52:05.38	181.29	15.85	
2025-01-18 10:52:06.80	181.37	16.00	
2025-01-18 10:52:08.22	181.46	16.15	
2025-01-18 10:52:09.64	181.55	16.31	
2025-01-18 10:52:11.06	181.63	16.46	
2025-01-18 10:52:12.48	181.72	16.62	
2025-01-18 10:52:13.90	181.81	16.77	
2025-01-18 10:52:15.33	181.90	16.93	
2025-01-18 10:52:16.75	182.00	17.09	
2025-01-18 10:52:18.17	182.09	17.25	
2025-01-18 10:52:19.59	182.18	17.41	
2025-01-18 10:52:21.01	182.28	17.57	
2025-01-18 10:52:22.43	182.37	17.74	
2025-01-18 10:52:23.85	182.47	17.90	
2025-01-18 10:52:25.27	182.57	18.06	
2025-01-18 10:52:26.69	182.67	18.23	
2025-01-18 10:52:28.11	182.76	18.40	
2025-01-18 10:52:29.53	182.87	18.56	
2025-01-18 10:52:30.96	182.97	18.73	
2025-01-18 10:52:32.38	183.07	18.90	
2025-01-18 10:52:33.80	183.17	19.08	
2025-01-18 10:52:35.22	183.28	19.25	
2025-01-18 10:52:36.64	183.39	19.42	
2025-01-18 10:52:38.06	183.49	19.60	
2025-01-18 10:52:39.48	183.60	19.77	
2025-01-18 10:52:40.90	183.71	19.95	
2025-01-18 10:52:42.32	183.82	20.13	
2025-01-18 10:52:43.74	183.93	20.30	
2025-01-18 10:52:45.16	184.05	20.48	
2025-01-18 10:52:46.59	184.16	20.67	
2025-01-18 10:52:48.01	184.28	20.85	
2025-01-18 10:52:49.43	184.40	21.03	
2025-01-18 10:52:50.85	184.51	21.22	
2025-01-18 10:52:52.27	184.63	21.41	
2025-01-18 10:52:53.69	184.76	21.59	
2025-01-18 10:52:55.11	184.88	21.78	
2025-01-18 10:52:56.53	185.00	21.97	
2025-01-18 10:52:57.95	185.13	22.16	
2025-01-18 10:52:59.37	185.26	22.36	
2025-01-18 10:53:00.79	185.38	22.55	
2025-01-18 10:53:02.22	185.51	22.75	
2025-01-18 10:53:03.64	185.65	22.95	
2025-01-18 10:53:05.06	185.78	23.14	
2025-01-18 10:53:06.48	185.92	23.34	
2025-01-18 10:53:07.90	186.05	23.54	
2025-01-18 10:53:09.32	186.19	23.75	
2025-01-18 10:53:10.74	186.33	23.95	
2025-01-18 10:53:12.16	186.47	24.16	
2025-01-18 10:53:13.58	186.62	24.36	
2025-01-18 10:53:15.00	186.76	24.57	
2025-01-18 10:53:16.42	186.91	24.78	
2025-01-18 10:53:17.84	187.06	24.99	
2025-01-18 10:53:19.27	187.21	25.21	
2025-01-18 10:53:20.69	187.36	25.42	
2025-01-18 10:53:22.11	187.52	25.64	
2025-01-18 10:53:23.53	187.68	25.85	
2025-01-18 10:53:24.95	187.84	26.07	
2025-01-18 10:53:26.37	188.00	26.29	
2025-01-18 10:53:27.79	188.16	26.51	
2025-01-18 10:53:29.21	188.33	26.74	
2025-01-18 10:53:30.63	188.50	26.96	
2025-01-18 10:53:32.05	188.67	27.19	
2025-01-18 10:53:33.47	188.84	27.42	
2025-01-18 10:53:34.90	189.02	27.65	
2025-01-18 10:53:36.32	189.19	27.88	
2025-01-18 10:53:37.74	189.38	28.12	
2025-01-18 10:53:39.16	189.56	28.35	
2025-01-18 10:53:40.58	189.74	28.59	
2025-01-18 10:53:42.00	189.93	28.83	
2025-01-18 10:53:43.42	190.12	29.07	
2025-01-18 10:53:44.84	190.32	29.31	
2025-01-18 10:53:46.26	190.51	29.55	
2025-01-18 10:53:47.68	190.71	29.80	
2025-01-18 10:53:49.10	190.92	30.05	
2025-01-18 10:53:50.53	191.12	30.30	
2025-01-18 10:53:51.95	191.33	30.55	
2025-01-18 10:53:53.37	191.54	30.80	
2025-01-18 10:53:54.79	191.76	31.05	
2025-01-18 10:53:56.21	191.98	31.31	
2025-01-18 10:53:57.63	192.20	31.57	
2025-01-18 10:53:59.05	192.43	31.83	
2025-01-18 10:54:00.47	192.65	32.09	
2025-01-18 10:54:01.89	192.89	32.35	
2025-01-18 10:54:03.31	193.12	32.62	
2025-01-18 10:54:04.73	193.36	32.89	
2025-01-18 10:54:06.16	193.61	33.16	
2025-01-18 10:54:07.58	193.86	33.43	
2025-01-18 10:54:09.00	194.11	33.70	
2025-01-18 10:54:10.42	194.37	33.97	
2025-01-18 10:54:11.84	194.63	34.25	
2025-01-18 10:54:13.26	194.89	34.53	
2025-01-18 10:54:14.68	195.16	34.81	
2025-01-18 10:54:16.10	195.43	35.09	
2025-01-18 10:54:17.52	195.71	35.37	
2025-01-18 10:54:18.94	196.00	35.66	
2025-01-18 10:54:20.36	196.28	35.95	
2025-01-18 10:54:21.79	196.58	36.24	
2025-01-18 10:54:23.21	196.88	36.53	
2025-01-18 10:54:24.63	197.18	36.82	
2025-01-18 10:54:26.05	197.49	37.11	
2025-01-18 10:54:27.47	197.81	37.41	
2025-01-18 10:54:28.89	198.13	37.71	
2025-01-18 10:54:30.31	198.45	38.01	
2025-01-18 10:54:31.73	198.79	38.31	
2025-01-18 10:54:33.15	199.12	38.61	
2025-01-18 10:54:34.57	199.47	38.92	
2025-01-18 10:54:35.99	199.82	39.22	
2025-01-18 10:54:37.42	200.18	39.53	
2025-01-18 10:54:38.84	200.54	39.84	
2025-01-18 10:54:40.26	200.91	40.15	
2025-01-18 10:54:41.68	201.29	40.46	
2025-01-18 10:54:43.10	201.68	40.77	
2025-01-18 10:54:44.52	202.07	41.09	
2025-01-18 10:54:45.94	202.47	41.40	
2025-01-18 10:54:47.36	202.88	41.72	
2025-01-18 10:54:48.78	203.29	42.04	
2025-01-18 10:54:50.20	203.72	42.36	
2025-01-18 10:54:51.62	204.15	42.68	
2025-01-18 10:54:53.05	204.60	43.00	
2025-01-18 10:54:54.47	205.05	43.32	
2025-01-18 10:54:55.89	205.50	43.64	
2025-01-18 10:54:57.31	205.97	43.97	
2025-01-18 10:54:58.73	206.45	44.29	
2025-01-18 10:55:00.15	206.94	44.61	
2025-01-18 10:55:01.57	207.43	44.94	
2025-01-18 10:55:02.99	207.94	45.26	
2025-01-18 10:55:04.41	208.46	45.59	
2025-01-18 10:55:05.83	208.99	45.91	
2025-01-18 10:55:07.25	209.53	46.24	
2025-01-18 10:55:08.68	210.08	46.56	
2025-01-18 10:55:10.10	210.64	46.89	
2025-01-18 10:55:11.52	211.22	47.21	
2025-01-18 10:55:12.94	211.80	47.54	
2025-01-18 10:55:14.36	212.40	47.86	
2025-01-18 10:55:15.78	213.01	48.18	
2025-01-18 10:55:17.20	213.63	48.50	
2025-01-18 10:55:18.62	214.27	48.82	
2025-01-18 10:55:20.04	214.91	49.14	
2025-01-18 10:55:21.46	215.58	49.45	
2025-01-18 10:55:22.88	216.25	49.77	
2025-01-18 10:55:24.31	216.94	50.08	
2025-01-18 10:55:25.73	217.65	50.39	
2025-01-18 10:55:27.15	218.37	50.70	
2025-01-18 10:55:28.57	219.10	51.00	
2025-01-18 10:55:29.99	219.84	51.30	
2025-01-18 10:55:31.41	220.61	51.60	
2025-01-18 10:55:32.83	221.38	51.90	
2025-01-18 10:55:34.25	222.18	52.19	
2025-01-18 10:55:35.67	222.98	52.47	
2025-01-18 10:55:37.09	223.81	52.76	
2025-01-18 10:55:38.51	224.65	53.04	
2025-01-18 10:55:39.94	225.51	53.31	
2025-01-18 10:55:41.36	226.38	53.58	
2025-01-18 10:55:42.78	227.26	53.84	
2025-01-18 10:55:44.20	228.17	54.10	
2025-01-18 10:55:45.62	229.09	54.35	
2025-01-18 10:55:47.04	230.02	54.60	
2025-01-18 10:55:48.46	230.97	54.84	
2025-01-18 10:55:49.88	231.94	55.07	
2025-01-18 10:55:51.30	232.92	55.30	
2025-01-18 10:55:52.72	233.92	55.51	
2025-01-18 10:55:54.14	234.93	55.72	
2025-01-18 10:55:55.57	235.97	55.93	
2025-01-18 10:55:56.99	237.01	56.12	
2025-01-18 10:55:58.41	238.06	56.31	
2025-01-18 10:55:59.83	239.13	56.48	
2025-01-18 10:56:01.25	240.22	56.65	
2025-01-18 10:56:02.67	241.31	56.81	
2025-01-18 10:56:04.09	242.42	56.96	
2025-01-18 10:56:05.51	243.54	57.09	
2025-01-18 10:56:06.93	244.67	57.22	
2025-01-18 10:56:08.35	245.81	57.34	
2025-01-18 10:56:09.77	246.96	57.45	
2025-01-18 10:56:11.20	248.13	57.55	
2025-01-18 10:56:12.62	249.30	57.63	
2025-01-18 10:56:14.04	250.47	57.71	
2025-01-18 10:56:15.46	251.65	57.77	
2025-01-18 10:56:16.88	252.83	57.82	
2025-01-18 10:56:18.30	254.02	57.86	
2025-01-18 10:56:19.72	255.21	57.89	
2025-01-18 10:56:21.14	256.41	57.91	
2025-01-18 10:56:22.56	257.60	57.92	
2025-01-18 10:56:23.98	258.79	57.91	
2025-01-18 10:56:25.40	259.99	57.90	
2025-01-18 10:56:26.83	261.19	57.87	
2025-01-18 10:56:28.25	262.38	57.83	
2025-01-18 10:56:29.67	263.56	57.78	
2025-01-18 10:56:31.09	264.74	57.71	
2025-01-18 10:56:32.51	265.91	57.64	
2025-01-18 10:56:33.93	267.08	57.56	
2025-01-18 10:56:35.35	268.24	57.46	
2025-01-18 10:56:36.77	269.39	57.35	
2025-01-18 10:56:38.19	270.53	57.24	
2025-01-18 10:56:39.61	271.66	57.11	
2025-01-18 10:56:41.03	272.78	56.97	
2025-01-18 10:56:42.45	273.89	56.83	
2025-01-18 10:56:43.88	274.99	56.67	
2025-01-18 10:56:45.30	276.08	56.50	
2025-01-18 10:56:46.72	277.15	56.33	
2025-01-18 10:56:48.14	278.20	56.14	
2025-01-18 10:56:49.56	279.24	55.95	
2025-01-18 10:56:50.98	280.27	55.75	
2025-01-18 10:56:52.40	281.28	55.54	
2025-01-18 10:56:53.82	282.28	55.33	
2025-01-18 10:56:55.24	283.27	55.10	
2025-01-18 10:56:56.66	284.23	54.87	
2025-01-18 10:56:58.09	285.19	54.63	
2025-01-18 10:56:59.51	286.12	54.39	
2025-01-18 10:57:00.93	287.04	54.14	
2025-01-18 10:57:02.35	287.95	53.88	
2025-01-18 10:57:03.77	288.83	53.62	
2025-01-18 10:57:05.19	289.71	53.35	
2025-01-18 10:57:06.61	290.56	53.08	
2025-01-18 10:57:08.03	291.40	52.80	
2025-01-18 10:57:09.45	292.22	52.52	
2025-01-18 10:57:10.87	293.03	52.24	
2025-01-18 10:57:12.29	293.83	51.95	
2025-01-18 10:57:13.71	294.60	51.65	
2025-01-18 10:57:15.14	295.37	51.36	
2025-01-18 10:57:16.56	296.12	51.06	
2025-01-18 10:57:17.98	296.85	50.75	
2025-01-18 10:57:19.40	297.57	50.45	
2025-01-18 10:57:20.82	298.27	50.14	
2025-01-18 10:57:22.24	298.96	49.83	
2025-01-18 10:57:23.66	299.64	49.52	
2025-01-18 10:57:25.08	300.30	49.20	
2025-01-18 10:57:26.50	300.95	48.89	
2025-01-18 10:57:27.92	301.58	48.57	
2025-01-18 10:57:29.35	302.21	48.25	
2025-01-18 10:57:30.77	302.82	47.93	
2025-01-18 10:57:32.19	303.42	47.61	
2025-01-18 10:57:33.61	304.00	47.29	
2025-01-18 10:57:35.03	304.58	46.96	
2025-01-18 10:57:36.45	305.14	46.64	
2025-01-18 10:57:37.87	305.69	46.32	
2025-01-18 10:57:39.29	306.23	45.99	
2025-01-18 10:57:40.71	306.76	45.67	
2025-01-18 10:57:42.13	307.27	45.35	
2025-01-18 10:57:43.55	307.78	45.02	
2025-01-18 10:57:44.97	308.28	44.70	
2025-01-18 10:57:46.40	308.77	44.38	
2025-01-18 10:57:47.82	309.25	44.05	
2025-01-18 10:57:49.24	309.72	43.73	
2025-01-18 10:57:50.66	310.18	43.41	
2025-01-18 10:57:52.08	310.63	43.09	
2025-01-18 10:57:53.50	311.07	42.77	
2025-01-18 10:57:54.92	311.50	42.45	
2025-01-18 10:57:56.34	311.93	42.14	
2025-01-18 10:57:57.76	312.34	41.82	
2025-01-18 10:57:59.18	312.75	41.51	
2025-01-18 10:58:00.60	313.15	41.19	
2025-01-18 10:58:02.03	313.55	40.88	
2025-01-18 10:58:03.45	313.93	40.57	
2025-01-18 10:58:04.87	314.31	40.26	
2025-01-18 10:58:06.29	314.68	39.95	
2025-01-18 10:58:07.71	315.05	39.64	
2025-01-18 10:58:09.13	315.41	39.33	
2025-01-18 10:58:10.55	315.76	39.03	
2025-01-18 10:58:11.97	316.10	38.73	
2025-01-18 10:58:13.39	316.44	38.43	
2025-01-18 10:58:14.81	316.78	38.13	
2025-01-18 10:58:16.23	317.10	37.83	
2025-01-18 10:58:17.66	317.42	37.53	
2025-01-18 10:58:19.08	317.74	37.23	
2025-01-18 10:58:20.50	318.05	36.94	
2025-01-18 10:58:21.92	318.35	36.65	
2025-01-18 10:58:23.34	318.65	36.36	
2025-01-18 10:58:24.76	318.95	36.07	
2025-01-18 10:58:26.18	319.24	35.79	
2025-01-18 10:58:27.60	319.52	35.50	
2025-01-18 10:58:29.02	319.80	35.22	
2025-01-18 10:58:30.44	320.07	34.94	
2025-01-18 10:58:31.86	320.34	34.66	
2025-01-18 10:58:33.29	320.61	34.38	
2025-01-18 10:58:34.71	320.87	34.11	
2025-01-18 10:58:36.13	321.13	33.83	
2025-01-18 10:58:37.55	321.38	33.56	
2025-01-18 10:58:38.97	321.63	33.29	
2025-01-18 10:58:40.39	321.87	33.03	
2025-01-18 10:58:41.81	322.12	32.76	
2025-01-18 10:58:43.23	322.35	32.50	
2025-01-18 10:58:44.65	322.59	32.23	
2025-01-18 10:58:46.07	322.82	31.97	
2025-01-18 10:58:47.49	323.04	31.71	
2025-01-18 10:58:48.92	323.27	31.45	
2025-01-18 10:58:50.34	323.48	31.20	
2025-01-18 10:58:51.77	323.70	30.94	
2025-01-18 10:58:53.20	323.92	30.69	
2025-01-18 10:58:54.62	324.13	30.44	
2025-01-18 10:58:56.04	324.33	30.19	
2025-01-18 10:58:57.46	324.54	29.95	
2025-01-18 10:58:58.88	324.74	29.70	
2025-01-18 10:59:00.30	324.93	29.46	
2025-01-18 10:59:01.72	325.13	29.22	
2025-01-18 10:59:03.15	325.32	28.98	
2025-01-18 10:59:04.57	325.51	28.74	
2025-01-18 10:59:05.99	325.70	28.50	
2025-01-18 10:59:07.41	325.88	28.27	
2025-01-18 10:59:08.83	326.06	28.04	
2025-01-18 10:59:10.25	326.24	27.81	
2025-01-18 10:59:11.67	326.41	27.58	
2025-01-18 10:59:13.09	326.59	27.35	
2025-01-18 10:59:14.51	326.76	27.12	
2025-01-18 10:59:15.93	326.93	26.90	
2025-01-18 10:59:17.35	327.10	26.68	
2025-01-18 10:59:18.78	327.26	26.45	
2025-01-18 10:59:20.20	327.42	26.23	
2025-01-18 10:59:21.62	327.58	26.02	
2025-01-18 10:59:23.04	327.74	25.80	
2025-01-18 10:59:24.46	327.90	25.59	
2025-01-18 10:59:25.88	328.05	25.37	
2025-01-18 10:59:27.30	328.20	25.16	
2025-01-18 10:59:28.72	328.35	24.95	
2025-01-18 10:59:30.14	328.50	24.74	
2025-01-18 10:59:31.56	328.65	24.53	
2025-01-18 10:59:32.98	328.79	24.33	
2025-01-18 10:59:34.41	328.94	24.12	
2025-01-18 10:59:35.83	329.08	23.92	
2025-01-18 10:59:37.25	329.22	23.72	
2025-01-18 10:59:38.67	329.35	23.52	
2025-01-18 10:59:40.09	329.49	23.32	
2025-01-18 10:59:41.51	329.62	23.12	
2025-01-18 10:59:42.93	329.76	22.92	
2025-01-18 10:59:44.35	329.89	22.73	
2025-01-18 10:59:45.77	330.02	22.54	
2025-01-18 10:59:47.19	330.15	22.34	
2025-01-18 10:59:48.61	330.27	22.15	
2025-01-18 10:59:50.04	330.40	21.96	
2025-01-18 10:59:51.46	330.52	21.77	
2025-01-18 10:59:52.88	330.64	21.59	
2025-01-18 10:59:54.30	330.76	21.40	
2025-01-18 10:59:55.72	330.88	21.22	
2025-01-18 10:59:57.14	331.00	21.03	
2025-01-18 10:59:58.56	331.12	20.85	
2025-01-18 10:59:59.98	331.23	20.67	
2025-01-18 11:00:01.40	331.35	20.49	
2025-01-18 11:00:02.82	331.46	20.31	
2025-01-18 11:00:04.24	331.57	20.14	
2025-01-18 11:00:05.67	331.68	19.96	
2025-01-18 11:00:07.09	331.79	19.78	
2025-01-18 11:00:08.51	331.90	19.61	
2025-01-18 11:00:09.93	332.01	19.44	
2025-01-18 11:00:11.35	332.11	19.26	
2025-01-18 11:00:12.77	332.22	19.09	
2025-01-18 11:00:14.19	332.32	18.92	
2025-01-18 11:00:15.61	332.43	18.76	
2025-01-18 11:00:17.03	332.53	18.59	
2025-01-18 11:00:18.45	332.63	18.42	
2025-01-18 11:00:19.87	332.73	18.26	
2025-01-18 11:00:21.30	332.83	18.09	
2025-01-18 11:00:22.72	332.92	17.93	
2025-01-18 11:00:24.14	333.02	17.77	
2025-01-18 11:00:25.56	333.12	17.61	
2025-01-18 11:00:26.98	333.21	17.45	
2025-01-18 11:00:28.40	333.30	17.29	
2025-01-18 11:00:29.82	333.40	17.13	
2025-01-18 11:00:31.24	333.49	16.97	
2025-01-18 11:00:32.66	333.58	16.82	
2025-01-18 11:00:34.08	333.67	16.66	
2025-01-18 11:00:35.50	333.76	16.51	
2025-01-18 11:00:36.93	333.85	16.35	
2025-01-18 11:00:38.35	333.94	16.20	
2025-01-18 11:00:39.77	334.02	16.05	
2025-01-18 11:00:41.19	334.11	15.90	
2025-01-18 11:00:42.61	334.19	15.75	
2025-01-18 11:00:44.03	334.28	15.60	
2025-01-18 11:00:45.45	334.36	15.45	
2025-01-18 11:00:46.87	334.44	15.30	
2025-01-18 11:00:48.29	334.53	15.15	
2025-01-18 11:00:49.71	334.61	15.01	
2025-01-18 11:00:51.13	334.69	14.86	
2025-01-18 11:00:52.56	334.77	14.72	
2025-01-18 11:00:53.98	334.85	14.58	
2025-01-18 11:00:55.40	334.93	14.43	
2025-01-18 11:00:56.82	335.00	14.29	
2025-01-18 11:00:58.24	335.08	14.15	
2025-01-18 11:00:59.66	335.16	14.01	
2025-01-18 11:01:01.08	335.23	13.87	
2025-01-18 11:01:02.50	335.31	13.73	
2025-01-18 11:01:03.92	335.38	13.60	
2025-01-18 11:01:05.34	335.46	13.46	
2025-01-18 11:01:06.76	335.53	13.32	
2025-01-18 11:01:08.18	335.60	13.19	
2025-01-18 11:01:09.61	335.68	13.05	
2025-01-18 11:01:11.03	335.75	12.92	
2025-01-18 11:01:12.45	335.82	12.78	
2025-01-18 11:01:13.87	335.89	12.65	
2025-01-18 11:01:15.29	335.96	12.52	
2025-01-18 11:01:16.71	336.03	12.39	
2025-01-18 11:01:18.13	336.09	12.26	
2025-01-18 11:01:19.55	336.16	12.13	
2025-01-18 11:01:20.97	336.23	12.00	
2025-01-18 11:01:22.39	336.30	11.87	
2025-01-18 11:01:23.81	336.36	11.74	
2025-01-18 11:01:25.24	336.43	11.61	
2025-01-18 11:01:26.66	336.50	11.48	
2025-01-18 11:01:28.08	336.56	11.36	
2025-01-18 11:01:29.50	336.62	11.23	
2025-01-18 11:01:30.92	336.69	11.11	
2025-01-18 11:01:32.34	336.75	10.98	
2025-01-18 11:01:33.76	336.81	10.86	
2025-01-18 11:01:35.18	336.88	10.74	
2025-01-18 11:01:36.60	336.94	10.61	
2025-01-18 11:01:38.02	337.00	10.49	
2025-01-18 11:01:39.44	337.06	10.37	
2025-01-18 11:01:40.87	337.12	10.25	
2025-01-18 11:01:42.29	337.18	10.13	
2025-01-18 11:01:43.71	337.24	10.01	
2025-01-18 11:01:45.13	337.30	9.89	
2025-01-18 11:01:46.55	337.36	9.77	
2025-01-18 11:01:47.97	337.42	9.65	
2025-01-18 11:01:49.39	337.48	9.53	
2025-01-18 11:01:50.81	337.53	9.42	
2025-01-18 11:01:52.23	337.59	9.30	
2025-01-18 11:01:53.65	337.65	9.19	
2025-01-18 11:01:55.07	337.70	9.07	
2025-01-18 11:01:56.50	337.76	8.95	
2025-01-18 11:01:57.92	337.82	8.84	
2025-01-18 11:01:59.34	337.87	8.73	
2025-01-18 11:02:00.76	337.93	8.61	
2025-01-18 11:02:02.18	337.98	8.50	
2025-01-18 11:02:03.60	338.04	8.39	
2025-01-18 11:02:05.02	338.09	8.28	
2025-01-18 11:02:06.44	338.14	8.16	
2025-01-18 11:02:07.86	338.20	8.05	
2025-01-18 11:02:09.28	338.25	7.94	
2025-01-18 11:02:10.70	338.30	7.83	
2025-01-18 11:02:12.13	338.35	7.72	
2025-01-18 11:02:13.55	338.40	7.61	
2025-01-18 11:02:14.97	338.46	7.50	
2025-01-18 11:02:16.39	338.51	7.40	
2025-01-18 11:02:17.81	338.56	7.29	
2025-01-18 11:02:19.23	338.61	7.18	
2025-01-18 11:02:20.65	338.66	7.07	
2025-01-18 11:02:22.07	338.71	6.97	
2025-01-18 11:02:23.49	338.76	6.86	
2025-01-18 11:02:24.91	338.81	6.76	
2025-01-18 11:02:26.33	338.85	6.65	
2025-01-18 11:02:27.76	338.90	6.55	
2025-01-18 11:02:29.18	338.95	6.44	
2025-01-18 11:02:30.60	339.00	6.34	
2025-01-18 11:02:32.02	339.05	6.23	
2025-01-18 11:02:33.44	339.09	6.13	
2025-01-18 11:02:34.86	339.14	6.03	
2025-01-18 11:02:36.28	339.19	5.93	
2025-01-18 11:02:37.70	339.23	5.82	
2025-01-18 11:02:39.12	339.28	5.72	
2025-01-18 11:02:40.54	339.33	5.62	
2025-01-18 11:02:41.96	339.37	5.52	
2025-01-18 11:02:43.39	339.42	5.42	
2025-01-18 11:02:44.81	339.46	5.32	
2025-01-18 11:02:46.23	339.51	5.22	
2025-01-18 11:02:47.65	339.55	5.12	
2025-01-18 11:02:49.07	339.60	5.02	
2025-01-18 11:02:50.49	339.64	4.92	
2025-01-18 11:02:51.91	339.68	4.82	
2025-01-18 11:02:53.33	339.73	4.73	
2025-01-18 11:02:54.75	339.77	4.63	
2025-01-18 11:02:56.17	339.81	4.53	
2025-01-18 11:02:57.59	339.86	4.43	
2025-01-18 11:02:59.02	339.90	4.34	
2025-01-18 11:03:00.44	339.94	4.24	
2025-01-18 11:03:01.86	339.98	4.14	
2025-01-18 11:03:03.28	340.02	4.05	

#Closed at: 2025-01-18 11:03:04