passes_logs/2025/01/18/SPB_Silybum_02/SPB_Silybum_02__20250118_115311_AQUA_rec.log

#Pass ID: 20250118_115311_AQUA
#Satellite: AQUA
#Configuration: AQUA
#Start time: 2025-01-18 11:53:11

#Version: 2.0.20230423
#Station: SPB_Silybum_02
#Location: 30.233357 lon 59.946436 lat
#TLE: 1 27424U 02022A   25017.88331103  .00002112  00000+0  44339-3 0  9998
#TLE: 2 27424  98.3596 334.5732 0001847 108.4912 313.9167 14.60695357208043

#Time	Az	El	Level	Level2	SNR	BER	Gain	Gain2
2025-01-18 11:53:13.64	175.97	4.20	
2025-01-18 11:53:14.86	176.00	4.28	
2025-01-18 11:53:16.08	176.04	4.37	
2025-01-18 11:53:17.30	176.08	4.46	
2025-01-18 11:53:18.51	176.12	4.55	
2025-01-18 11:53:19.73	176.16	4.63	
2025-01-18 11:53:20.95	176.20	4.72	
2025-01-18 11:53:22.17	176.24	4.81	
2025-01-18 11:53:23.39	176.28	4.90	
2025-01-18 11:53:24.60	176.33	4.99	
2025-01-18 11:53:25.82	176.37	5.08	
2025-01-18 11:53:27.04	176.41	5.17	
2025-01-18 11:53:28.26	176.45	5.26	
2025-01-18 11:53:29.48	176.49	5.35	
2025-01-18 11:53:30.69	176.53	5.44	
2025-01-18 11:53:31.91	176.58	5.53	
2025-01-18 11:53:33.13	176.62	5.63	
2025-01-18 11:53:34.35	176.66	5.72	
2025-01-18 11:53:35.57	176.70	5.81	
2025-01-18 11:53:36.78	176.75	5.90	
2025-01-18 11:53:38.00	176.79	6.00	
2025-01-18 11:53:39.22	176.84	6.09	
2025-01-18 11:53:40.44	176.88	6.19	
2025-01-18 11:53:41.66	176.93	6.28	
2025-01-18 11:53:42.87	176.97	6.38	
2025-01-18 11:53:44.09	177.02	6.47	
2025-01-18 11:53:45.31	177.06	6.57	
2025-01-18 11:53:46.53	177.11	6.66	
2025-01-18 11:53:47.76	177.15	6.76	
2025-01-18 11:53:48.98	177.20	6.86	
2025-01-18 11:53:50.20	177.25	6.95	
2025-01-18 11:53:51.41	177.29	7.05	
2025-01-18 11:53:52.63	177.34	7.15	
2025-01-18 11:53:53.85	177.39	7.25	
2025-01-18 11:53:55.07	177.44	7.35	
2025-01-18 11:53:56.29	177.48	7.45	
2025-01-18 11:53:57.50	177.53	7.54	
2025-01-18 11:53:58.72	177.58	7.65	
2025-01-18 11:53:59.94	177.63	7.75	
2025-01-18 11:54:01.16	177.68	7.85	
2025-01-18 11:54:02.38	177.73	7.95	
2025-01-18 11:54:03.59	177.78	8.05	
2025-01-18 11:54:04.81	177.83	8.15	
2025-01-18 11:54:06.03	177.88	8.25	
2025-01-18 11:54:07.25	177.93	8.36	
2025-01-18 11:54:08.47	177.99	8.46	
2025-01-18 11:54:09.68	178.04	8.57	
2025-01-18 11:54:10.90	178.09	8.67	
2025-01-18 11:54:12.12	178.14	8.77	
2025-01-18 11:54:13.34	178.20	8.88	
2025-01-18 11:54:14.55	178.25	8.99	
2025-01-18 11:54:15.77	178.31	9.09	
2025-01-18 11:54:16.99	178.36	9.20	
2025-01-18 11:54:18.21	178.41	9.31	
2025-01-18 11:54:19.43	178.47	9.41	
2025-01-18 11:54:20.64	178.53	9.52	
2025-01-18 11:54:21.86	178.58	9.63	
2025-01-18 11:54:23.08	178.64	9.74	
2025-01-18 11:54:24.30	178.70	9.85	
2025-01-18 11:54:25.52	178.75	9.96	
2025-01-18 11:54:26.73	178.81	10.07	
2025-01-18 11:54:27.95	178.87	10.18	
2025-01-18 11:54:29.17	178.93	10.30	
2025-01-18 11:54:30.39	178.99	10.41	
2025-01-18 11:54:31.61	179.05	10.52	
2025-01-18 11:54:32.82	179.11	10.64	
2025-01-18 11:54:34.04	179.17	10.75	
2025-01-18 11:54:35.26	179.23	10.86	
2025-01-18 11:54:36.48	179.29	10.98	
2025-01-18 11:54:37.70	179.35	11.10	
2025-01-18 11:54:38.91	179.41	11.21	
2025-01-18 11:54:40.13	179.48	11.33	
2025-01-18 11:54:41.35	179.54	11.45	
2025-01-18 11:54:42.57	179.61	11.57	
2025-01-18 11:54:43.78	179.67	11.68	
2025-01-18 11:54:45.00	179.73	11.80	
2025-01-18 11:54:46.22	179.80	11.92	
2025-01-18 11:54:47.44	179.87	12.05	
2025-01-18 11:54:48.66	179.93	12.17	
2025-01-18 11:54:49.87	180.00	12.29	
2025-01-18 11:54:51.09	180.07	12.41	
2025-01-18 11:54:52.31	180.14	12.54	
2025-01-18 11:54:53.53	180.21	12.66	
2025-01-18 11:54:54.75	180.28	12.78	
2025-01-18 11:54:55.96	180.35	12.91	
2025-01-18 11:54:57.18	180.42	13.04	
2025-01-18 11:54:58.40	180.49	13.16	
2025-01-18 11:54:59.62	180.56	13.29	
2025-01-18 11:55:00.84	180.63	13.42	
2025-01-18 11:55:02.05	180.71	13.55	
2025-01-18 11:55:03.27	180.78	13.68	
2025-01-18 11:55:04.49	180.85	13.81	
2025-01-18 11:55:05.71	180.93	13.94	
2025-01-18 11:55:06.93	181.01	14.07	
2025-01-18 11:55:08.14	181.08	14.20	
2025-01-18 11:55:09.36	181.16	14.34	
2025-01-18 11:55:10.58	181.24	14.47	
2025-01-18 11:55:11.80	181.32	14.61	
2025-01-18 11:55:13.01	181.40	14.74	
2025-01-18 11:55:14.23	181.48	14.88	
2025-01-18 11:55:15.45	181.56	15.01	
2025-01-18 11:55:16.67	181.64	15.15	
2025-01-18 11:55:17.89	181.72	15.29	
2025-01-18 11:55:19.10	181.80	15.43	
2025-01-18 11:55:20.32	181.89	15.57	
2025-01-18 11:55:21.54	181.97	15.71	
2025-01-18 11:55:22.76	182.06	15.86	
2025-01-18 11:55:23.98	182.15	16.00	
2025-01-18 11:55:25.19	182.23	16.14	
2025-01-18 11:55:26.41	182.32	16.29	
2025-01-18 11:55:27.63	182.41	16.43	
2025-01-18 11:55:28.85	182.50	16.58	
2025-01-18 11:55:30.07	182.59	16.73	
2025-01-18 11:55:31.28	182.68	16.88	
2025-01-18 11:55:32.50	182.78	17.03	
2025-01-18 11:55:33.72	182.87	17.18	
2025-01-18 11:55:34.94	182.96	17.33	
2025-01-18 11:55:36.16	183.06	17.48	
2025-01-18 11:55:37.37	183.16	17.63	
2025-01-18 11:55:38.59	183.25	17.79	
2025-01-18 11:55:39.81	183.35	17.94	
2025-01-18 11:55:41.03	183.45	18.10	
2025-01-18 11:55:42.24	183.55	18.26	
2025-01-18 11:55:43.46	183.65	18.42	
2025-01-18 11:55:44.68	183.76	18.58	
2025-01-18 11:55:45.90	183.86	18.74	
2025-01-18 11:55:47.12	183.97	18.90	
2025-01-18 11:55:48.33	184.07	19.06	
2025-01-18 11:55:49.55	184.18	19.22	
2025-01-18 11:55:50.77	184.29	19.39	
2025-01-18 11:55:51.99	184.40	19.56	
2025-01-18 11:55:53.21	184.51	19.72	
2025-01-18 11:55:54.42	184.62	19.89	
2025-01-18 11:55:55.64	184.73	20.06	
2025-01-18 11:55:56.86	184.85	20.23	
2025-01-18 11:55:58.08	184.96	20.40	
2025-01-18 11:55:59.30	185.08	20.58	
2025-01-18 11:56:00.51	185.20	20.75	
2025-01-18 11:56:01.73	185.32	20.92	
2025-01-18 11:56:02.95	185.44	21.10	
2025-01-18 11:56:04.17	185.56	21.28	
2025-01-18 11:56:05.39	185.69	21.46	
2025-01-18 11:56:06.60	185.81	21.64	
2025-01-18 11:56:07.82	185.94	21.82	
2025-01-18 11:56:09.04	186.07	22.00	
2025-01-18 11:56:10.26	186.20	22.19	
2025-01-18 11:56:11.47	186.33	22.37	
2025-01-18 11:56:12.69	186.46	22.56	
2025-01-18 11:56:13.91	186.60	22.75	
2025-01-18 11:56:15.13	186.74	22.94	
2025-01-18 11:56:16.35	186.87	23.13	
2025-01-18 11:56:17.56	187.01	23.32	
2025-01-18 11:56:18.78	187.16	23.51	
2025-01-18 11:56:20.00	187.30	23.71	
2025-01-18 11:56:21.22	187.45	23.91	
2025-01-18 11:56:22.44	187.59	24.10	
2025-01-18 11:56:23.65	187.74	24.30	
2025-01-18 11:56:24.87	187.89	24.50	
2025-01-18 11:56:26.09	188.05	24.71	
2025-01-18 11:56:27.31	188.20	24.91	
2025-01-18 11:56:28.53	188.36	25.12	
2025-01-18 11:56:29.74	188.52	25.32	
2025-01-18 11:56:30.96	188.68	25.53	
2025-01-18 11:56:32.18	188.84	25.74	
2025-01-18 11:56:33.40	189.01	25.95	
2025-01-18 11:56:34.62	189.18	26.17	
2025-01-18 11:56:35.83	189.34	26.38	
2025-01-18 11:56:37.05	189.52	26.60	
2025-01-18 11:56:38.27	189.69	26.81	
2025-01-18 11:56:39.49	189.87	27.03	
2025-01-18 11:56:40.70	190.05	27.25	
2025-01-18 11:56:41.92	190.23	27.48	
2025-01-18 11:56:43.14	190.42	27.70	
2025-01-18 11:56:44.36	190.60	27.93	
2025-01-18 11:56:45.58	190.79	28.16	
2025-01-18 11:56:46.79	190.99	28.38	
2025-01-18 11:56:48.01	191.18	28.62	
2025-01-18 11:56:49.23	191.38	28.85	
2025-01-18 11:56:50.45	191.58	29.08	
2025-01-18 11:56:51.67	191.79	29.32	
2025-01-18 11:56:52.88	192.00	29.56	
2025-01-18 11:56:54.10	192.21	29.80	
2025-01-18 11:56:55.32	192.42	30.04	
2025-01-18 11:56:56.54	192.64	30.28	
2025-01-18 11:56:57.76	192.86	30.53	
2025-01-18 11:56:58.97	193.08	30.77	
2025-01-18 11:57:00.19	193.31	31.02	
2025-01-18 11:57:01.41	193.54	31.27	
2025-01-18 11:57:02.63	193.78	31.53	
2025-01-18 11:57:03.85	194.02	31.78	
2025-01-18 11:57:05.06	194.26	32.04	
2025-01-18 11:57:06.28	194.50	32.30	
2025-01-18 11:57:07.50	194.75	32.56	
2025-01-18 11:57:08.73	195.01	32.82	
2025-01-18 11:57:09.95	195.27	33.08	
2025-01-18 11:57:11.17	195.53	33.35	
2025-01-18 11:57:12.39	195.80	33.62	
2025-01-18 11:57:13.60	196.07	33.88	
2025-01-18 11:57:14.82	196.35	34.15	
2025-01-18 11:57:16.04	196.63	34.43	
2025-01-18 11:57:17.26	196.91	34.70	
2025-01-18 11:57:18.48	197.20	34.98	
2025-01-18 11:57:19.69	197.50	35.26	
2025-01-18 11:57:20.91	197.80	35.54	
2025-01-18 11:57:22.13	198.10	35.82	
2025-01-18 11:57:23.35	198.42	36.10	
2025-01-18 11:57:24.57	198.73	36.39	
2025-01-18 11:57:25.78	199.05	36.67	
2025-01-18 11:57:27.00	199.38	36.96	
2025-01-18 11:57:28.22	199.72	37.25	
2025-01-18 11:57:29.44	200.06	37.54	
2025-01-18 11:57:30.66	200.40	37.84	
2025-01-18 11:57:31.87	200.75	38.13	
2025-01-18 11:57:33.09	201.11	38.43	
2025-01-18 11:57:34.31	201.48	38.72	
2025-01-18 11:57:35.53	201.85	39.02	
2025-01-18 11:57:36.74	202.23	39.32	
2025-01-18 11:57:37.96	202.61	39.62	
2025-01-18 11:57:39.18	203.01	39.93	
2025-01-18 11:57:40.40	203.41	40.23	
2025-01-18 11:57:41.62	203.82	40.54	
2025-01-18 11:57:42.83	204.23	40.85	
2025-01-18 11:57:44.05	204.66	41.15	
2025-01-18 11:57:45.27	205.09	41.46	
2025-01-18 11:57:46.49	205.53	41.77	
2025-01-18 11:57:47.71	205.99	42.09	
2025-01-18 11:57:48.92	206.44	42.40	
2025-01-18 11:57:50.14	206.91	42.71	
2025-01-18 11:57:51.36	207.39	43.02	
2025-01-18 11:57:52.58	207.87	43.34	
2025-01-18 11:57:53.80	208.37	43.65	
2025-01-18 11:57:55.01	208.87	43.96	
2025-01-18 11:57:56.23	209.39	44.28	
2025-01-18 11:57:57.45	209.92	44.59	
2025-01-18 11:57:58.67	210.45	44.91	
2025-01-18 11:57:59.89	211.00	45.23	
2025-01-18 11:58:01.10	211.56	45.54	
2025-01-18 11:58:02.32	212.13	45.85	
2025-01-18 11:58:03.54	212.71	46.17	
2025-01-18 11:58:04.76	213.30	46.48	
2025-01-18 11:58:05.97	213.90	46.79	
2025-01-18 11:58:07.19	214.52	47.10	
2025-01-18 11:58:08.41	215.15	47.41	
2025-01-18 11:58:09.63	215.80	47.72	
2025-01-18 11:58:10.85	216.45	48.03	
2025-01-18 11:58:12.06	217.12	48.33	
2025-01-18 11:58:13.28	217.80	48.63	
2025-01-18 11:58:14.50	218.49	48.94	
2025-01-18 11:58:15.72	219.20	49.24	
2025-01-18 11:58:16.94	219.93	49.53	
2025-01-18 11:58:18.15	220.66	49.82	
2025-01-18 11:58:19.37	221.41	50.11	
2025-01-18 11:58:20.59	222.18	50.40	
2025-01-18 11:58:21.81	222.96	50.69	
2025-01-18 11:58:23.03	223.75	50.97	
2025-01-18 11:58:24.24	224.56	51.24	
2025-01-18 11:58:25.46	225.38	51.51	
2025-01-18 11:58:26.68	226.22	51.78	
2025-01-18 11:58:27.90	227.08	52.04	
2025-01-18 11:58:29.12	227.95	52.30	
2025-01-18 11:58:30.33	228.83	52.55	
2025-01-18 11:58:31.55	229.73	52.79	
2025-01-18 11:58:32.77	230.65	53.03	
2025-01-18 11:58:33.99	231.58	53.27	
2025-01-18 11:58:35.20	232.51	53.49	
2025-01-18 11:58:36.42	233.47	53.71	
2025-01-18 11:58:37.64	234.45	53.93	
2025-01-18 11:58:38.86	235.44	54.13	
2025-01-18 11:58:40.08	236.44	54.33	
2025-01-18 11:58:41.29	237.45	54.52	
2025-01-18 11:58:42.51	238.48	54.70	
2025-01-18 11:58:43.73	239.52	54.87	
2025-01-18 11:58:44.95	240.58	55.04	
2025-01-18 11:58:46.17	241.65	55.20	
2025-01-18 11:58:47.38	242.72	55.34	
2025-01-18 11:58:48.60	243.80	55.48	
2025-01-18 11:58:49.82	244.90	55.60	
2025-01-18 11:58:51.04	246.01	55.72	
2025-01-18 11:58:52.26	247.13	55.83	
2025-01-18 11:58:53.47	248.25	55.92	
2025-01-18 11:58:54.69	249.38	56.01	
2025-01-18 11:58:55.91	250.52	56.09	
2025-01-18 11:58:57.13	251.67	56.15	
2025-01-18 11:58:58.35	252.82	56.21	
2025-01-18 11:58:59.56	253.97	56.25	
2025-01-18 11:59:00.80	255.14	56.28	
2025-01-18 11:59:02.01	256.29	56.30	
2025-01-18 11:59:03.23	257.45	56.31	
2025-01-18 11:59:04.45	258.62	56.31	
2025-01-18 11:59:05.67	259.78	56.29	
2025-01-18 11:59:06.89	260.94	56.27	
2025-01-18 11:59:08.10	262.08	56.24	
2025-01-18 11:59:09.32	263.24	56.19	
2025-01-18 11:59:10.54	264.38	56.13	
2025-01-18 11:59:11.76	265.53	56.06	
2025-01-18 11:59:12.98	266.67	55.99	
2025-01-18 11:59:14.19	267.79	55.90	
2025-01-18 11:59:15.41	268.91	55.80	
2025-01-18 11:59:16.63	270.03	55.69	
2025-01-18 11:59:17.85	271.13	55.57	
2025-01-18 11:59:19.07	272.23	55.44	
2025-01-18 11:59:20.28	273.30	55.30	
2025-01-18 11:59:21.50	274.38	55.15	
2025-01-18 11:59:22.72	275.44	54.99	
2025-01-18 11:59:23.94	276.49	54.82	
2025-01-18 11:59:25.15	277.52	54.65	
2025-01-18 11:59:26.37	278.54	54.47	
2025-01-18 11:59:27.59	279.55	54.27	
2025-01-18 11:59:28.81	280.55	54.07	
2025-01-18 11:59:30.03	281.54	53.86	
2025-01-18 11:59:31.24	282.50	53.65	
2025-01-18 11:59:32.46	283.45	53.43	
2025-01-18 11:59:33.68	284.39	53.20	
2025-01-18 11:59:34.90	285.32	52.97	
2025-01-18 11:59:36.12	286.22	52.72	
2025-01-18 11:59:37.33	287.11	52.48	
2025-01-18 11:59:38.55	287.99	52.23	
2025-01-18 11:59:39.77	288.86	51.97	
2025-01-18 11:59:40.99	289.71	51.71	
2025-01-18 11:59:42.21	290.54	51.44	
2025-01-18 11:59:43.42	291.35	51.17	
2025-01-18 11:59:44.64	292.16	50.89	
2025-01-18 11:59:45.86	292.95	50.61	
2025-01-18 11:59:47.08	293.72	50.33	
2025-01-18 11:59:48.30	294.48	50.04	
2025-01-18 11:59:49.51	295.22	49.75	
2025-01-18 11:59:50.73	295.96	49.46	
2025-01-18 11:59:51.95	296.67	49.16	
2025-01-18 11:59:53.17	297.38	48.86	
2025-01-18 11:59:54.39	298.07	48.56	
2025-01-18 11:59:55.60	298.74	48.26	
2025-01-18 11:59:56.82	299.40	47.96	
2025-01-18 11:59:58.04	300.05	47.65	
2025-01-18 11:59:59.26	300.69	47.34	
2025-01-18 12:00:00.47	301.31	47.04	
2025-01-18 12:00:01.69	301.92	46.72	
2025-01-18 12:00:02.91	302.53	46.41	
2025-01-18 12:00:04.13	303.12	46.10	
2025-01-18 12:00:05.35	303.69	45.79	
2025-01-18 12:00:06.56	304.25	45.48	
2025-01-18 12:00:07.78	304.81	45.16	
2025-01-18 12:00:09.00	305.35	44.85	
2025-01-18 12:00:10.22	305.89	44.54	
2025-01-18 12:00:11.44	306.41	44.22	
2025-01-18 12:00:12.65	306.92	43.91	
2025-01-18 12:00:13.87	307.42	43.60	
2025-01-18 12:00:15.09	307.91	43.28	
2025-01-18 12:00:16.31	308.40	42.97	
2025-01-18 12:00:17.53	308.87	42.66	
2025-01-18 12:00:18.74	309.33	42.35	
2025-01-18 12:00:19.96	309.79	42.04	
2025-01-18 12:00:21.18	310.24	41.73	
2025-01-18 12:00:22.40	310.67	41.42	
2025-01-18 12:00:23.62	311.10	41.11	
2025-01-18 12:00:24.83	311.52	40.81	
2025-01-18 12:00:26.05	311.94	40.50	
2025-01-18 12:00:27.27	312.34	40.20	
2025-01-18 12:00:28.49	312.74	39.89	
2025-01-18 12:00:29.70	313.13	39.59	
2025-01-18 12:00:30.92	313.52	39.29	
2025-01-18 12:00:32.14	313.89	38.99	
2025-01-18 12:00:33.36	314.26	38.70	
2025-01-18 12:00:34.58	314.63	38.40	
2025-01-18 12:00:35.79	314.98	38.11	
2025-01-18 12:00:37.01	315.33	37.81	
2025-01-18 12:00:38.23	315.68	37.52	
2025-01-18 12:00:39.45	316.01	37.23	
2025-01-18 12:00:40.67	316.35	36.94	
2025-01-18 12:00:41.88	316.67	36.66	
2025-01-18 12:00:43.10	316.99	36.37	
2025-01-18 12:00:44.32	317.31	36.09	
2025-01-18 12:00:45.54	317.62	35.81	
2025-01-18 12:00:46.76	317.92	35.53	
2025-01-18 12:00:47.97	318.22	35.25	
2025-01-18 12:00:49.19	318.51	34.98	
2025-01-18 12:00:50.41	318.80	34.70	
2025-01-18 12:00:51.63	319.08	34.43	
2025-01-18 12:00:52.85	319.36	34.16	
2025-01-18 12:00:54.06	319.64	33.89	
2025-01-18 12:00:55.28	319.91	33.62	
2025-01-18 12:00:56.50	320.17	33.36	
2025-01-18 12:00:57.72	320.43	33.09	
2025-01-18 12:00:58.93	320.69	32.83	
2025-01-18 12:01:00.15	320.94	32.57	
2025-01-18 12:01:01.37	321.19	32.31	
2025-01-18 12:01:02.59	321.44	32.06	
2025-01-18 12:01:03.81	321.68	31.80	
2025-01-18 12:01:05.02	321.92	31.55	
2025-01-18 12:01:06.24	322.15	31.30	
2025-01-18 12:01:07.46	322.38	31.05	
2025-01-18 12:01:08.68	322.61	30.80	
2025-01-18 12:01:09.90	322.83	30.56	
2025-01-18 12:01:11.11	323.05	30.32	
2025-01-18 12:01:12.33	323.27	30.07	
2025-01-18 12:01:13.55	323.48	29.83	
2025-01-18 12:01:14.77	323.69	29.59	
2025-01-18 12:01:15.99	323.90	29.36	
2025-01-18 12:01:17.20	324.10	29.12	
2025-01-18 12:01:18.42	324.30	28.89	
2025-01-18 12:01:19.64	324.50	28.66	
2025-01-18 12:01:20.86	324.69	28.43	
2025-01-18 12:01:22.08	324.89	28.20	
2025-01-18 12:01:23.29	325.08	27.98	
2025-01-18 12:01:24.51	325.26	27.75	
2025-01-18 12:01:25.73	325.45	27.53	
2025-01-18 12:01:26.95	325.63	27.31	
2025-01-18 12:01:28.16	325.81	27.09	
2025-01-18 12:01:29.38	325.99	26.87	
2025-01-18 12:01:30.60	326.16	26.65	
2025-01-18 12:01:31.82	326.33	26.44	
2025-01-18 12:01:33.04	326.50	26.22	
2025-01-18 12:01:34.25	326.67	26.01	
2025-01-18 12:01:35.47	326.83	25.80	
2025-01-18 12:01:36.69	327.00	25.59	
2025-01-18 12:01:37.91	327.16	25.39	
2025-01-18 12:01:39.13	327.32	25.18	
2025-01-18 12:01:40.34	327.47	24.98	
2025-01-18 12:01:41.56	327.63	24.77	
2025-01-18 12:01:42.78	327.78	24.57	
2025-01-18 12:01:44.00	327.93	24.37	
2025-01-18 12:01:45.22	328.08	24.17	
2025-01-18 12:01:46.43	328.23	23.98	
2025-01-18 12:01:47.65	328.37	23.78	
2025-01-18 12:01:48.87	328.52	23.59	
2025-01-18 12:01:50.09	328.66	23.40	
2025-01-18 12:01:51.31	328.80	23.21	
2025-01-18 12:01:52.52	328.94	23.02	
2025-01-18 12:01:53.74	329.07	22.83	
2025-01-18 12:01:54.96	329.21	22.64	
2025-01-18 12:01:56.18	329.34	22.45	
2025-01-18 12:01:57.39	329.47	22.27	
2025-01-18 12:01:58.61	329.60	22.09	
2025-01-18 12:01:59.83	329.73	21.91	
2025-01-18 12:02:01.05	329.86	21.73	
2025-01-18 12:02:02.27	329.99	21.55	
2025-01-18 12:02:03.48	330.11	21.37	
2025-01-18 12:02:04.70	330.23	21.19	
2025-01-18 12:02:05.92	330.35	21.02	
2025-01-18 12:02:07.14	330.47	20.84	
2025-01-18 12:02:08.36	330.59	20.67	
2025-01-18 12:02:09.57	330.71	20.50	
2025-01-18 12:02:10.79	330.83	20.33	
2025-01-18 12:02:12.01	330.94	20.16	
2025-01-18 12:02:13.23	331.05	19.99	
2025-01-18 12:02:14.45	331.17	19.82	
2025-01-18 12:02:15.66	331.28	19.66	
2025-01-18 12:02:16.88	331.39	19.49	
2025-01-18 12:02:18.10	331.50	19.33	
2025-01-18 12:02:19.32	331.60	19.16	
2025-01-18 12:02:20.54	331.71	19.00	
2025-01-18 12:02:21.75	331.81	18.84	
2025-01-18 12:02:22.97	331.92	18.68	
2025-01-18 12:02:24.19	332.02	18.52	
2025-01-18 12:02:25.41	332.12	18.36	
2025-01-18 12:02:26.62	332.22	18.21	
2025-01-18 12:02:27.84	332.32	18.05	
2025-01-18 12:02:29.06	332.42	17.90	
2025-01-18 12:02:30.28	332.52	17.74	
2025-01-18 12:02:31.50	332.62	17.59	
2025-01-18 12:02:32.71	332.71	17.44	
2025-01-18 12:02:33.93	332.81	17.29	
2025-01-18 12:02:35.15	332.90	17.14	
2025-01-18 12:02:36.37	333.00	16.99	
2025-01-18 12:02:37.59	333.09	16.84	
2025-01-18 12:02:38.80	333.18	16.70	
2025-01-18 12:02:40.02	333.27	16.55	
2025-01-18 12:02:41.24	333.36	16.41	
2025-01-18 12:02:42.46	333.45	16.26	
2025-01-18 12:02:43.68	333.54	16.12	
2025-01-18 12:02:44.89	333.62	15.98	
2025-01-18 12:02:46.11	333.71	15.83	
2025-01-18 12:02:47.33	333.79	15.69	
2025-01-18 12:02:48.55	333.88	15.55	
2025-01-18 12:02:49.77	333.96	15.41	
2025-01-18 12:02:50.98	334.05	15.28	
2025-01-18 12:02:52.20	334.13	15.14	
2025-01-18 12:02:53.42	334.21	15.00	
2025-01-18 12:02:54.64	334.29	14.87	
2025-01-18 12:02:55.85	334.37	14.73	
2025-01-18 12:02:57.07	334.45	14.60	
2025-01-18 12:02:58.29	334.53	14.46	
2025-01-18 12:02:59.51	334.61	14.33	
2025-01-18 12:03:00.73	334.68	14.20	
2025-01-18 12:03:01.94	334.76	14.07	
2025-01-18 12:03:03.16	334.84	13.94	
2025-01-18 12:03:04.38	334.91	13.81	
2025-01-18 12:03:05.60	334.99	13.68	
2025-01-18 12:03:06.82	335.06	13.55	
2025-01-18 12:03:08.03	335.13	13.42	
2025-01-18 12:03:09.25	335.20	13.30	
2025-01-18 12:03:10.47	335.28	13.17	
2025-01-18 12:03:11.69	335.35	13.04	
2025-01-18 12:03:12.91	335.42	12.92	
2025-01-18 12:03:14.12	335.49	12.80	
2025-01-18 12:03:15.34	335.56	12.67	
2025-01-18 12:03:16.56	335.63	12.55	
2025-01-18 12:03:17.78	335.70	12.43	
2025-01-18 12:03:19.00	335.77	12.30	
2025-01-18 12:03:20.21	335.83	12.18	
2025-01-18 12:03:21.43	335.90	12.06	
2025-01-18 12:03:22.65	335.97	11.94	
2025-01-18 12:03:23.87	336.03	11.83	
2025-01-18 12:03:25.08	336.10	11.71	
2025-01-18 12:03:26.30	336.16	11.59	
2025-01-18 12:03:27.52	336.23	11.47	
2025-01-18 12:03:28.74	336.29	11.36	
2025-01-18 12:03:29.96	336.35	11.24	
2025-01-18 12:03:31.17	336.42	11.12	
2025-01-18 12:03:32.39	336.48	11.01	
2025-01-18 12:03:33.61	336.54	10.89	
2025-01-18 12:03:34.83	336.60	10.78	
2025-01-18 12:03:36.05	336.66	10.67	
2025-01-18 12:03:37.26	336.72	10.56	
2025-01-18 12:03:38.48	336.78	10.44	
2025-01-18 12:03:39.70	336.84	10.33	
2025-01-18 12:03:40.92	336.90	10.22	
2025-01-18 12:03:42.14	336.96	10.11	
2025-01-18 12:03:43.35	337.02	10.00	
2025-01-18 12:03:44.57	337.08	9.89	
2025-01-18 12:03:45.79	337.13	9.78	
2025-01-18 12:03:47.01	337.19	9.67	
2025-01-18 12:03:48.23	337.25	9.57	
2025-01-18 12:03:49.44	337.30	9.46	
2025-01-18 12:03:50.66	337.36	9.35	
2025-01-18 12:03:51.88	337.41	9.24	
2025-01-18 12:03:53.10	337.47	9.14	
2025-01-18 12:03:54.31	337.52	9.03	
2025-01-18 12:03:55.53	337.58	8.93	
2025-01-18 12:03:56.75	337.63	8.82	
2025-01-18 12:03:57.97	337.69	8.72	
2025-01-18 12:03:59.19	337.74	8.62	
2025-01-18 12:04:00.40	337.79	8.51	
2025-01-18 12:04:01.62	337.84	8.41	
2025-01-18 12:04:02.84	337.90	8.31	
2025-01-18 12:04:04.06	337.95	8.21	
2025-01-18 12:04:05.28	338.00	8.11	
2025-01-18 12:04:06.49	338.05	8.00	
2025-01-18 12:04:07.71	338.10	7.90	
2025-01-18 12:04:08.93	338.15	7.80	
2025-01-18 12:04:10.15	338.20	7.70	
2025-01-18 12:04:11.37	338.25	7.60	
2025-01-18 12:04:12.58	338.30	7.51	
2025-01-18 12:04:13.80	338.35	7.41	
2025-01-18 12:04:15.02	338.40	7.31	
2025-01-18 12:04:16.24	338.45	7.21	
2025-01-18 12:04:17.46	338.49	7.12	
2025-01-18 12:04:18.67	338.54	7.02	
2025-01-18 12:04:19.89	338.59	6.92	
2025-01-18 12:04:21.11	338.64	6.83	
2025-01-18 12:04:22.33	338.68	6.73	
2025-01-18 12:04:23.54	338.73	6.64	
2025-01-18 12:04:24.76	338.77	6.54	
2025-01-18 12:04:25.98	338.82	6.45	
2025-01-18 12:04:27.20	338.87	6.35	
2025-01-18 12:04:28.42	338.91	6.26	
2025-01-18 12:04:29.63	338.96	6.17	
2025-01-18 12:04:30.85	339.00	6.07	
2025-01-18 12:04:32.07	339.05	5.98	
2025-01-18 12:04:33.29	339.09	5.89	
2025-01-18 12:04:34.51	339.14	5.79	
2025-01-18 12:04:35.72	339.18	5.70	
2025-01-18 12:04:36.94	339.22	5.61	
2025-01-18 12:04:38.16	339.27	5.52	
2025-01-18 12:04:39.38	339.31	5.43	
2025-01-18 12:04:40.60	339.35	5.34	
2025-01-18 12:04:41.81	339.39	5.25	
2025-01-18 12:04:43.03	339.44	5.16	
2025-01-18 12:04:44.25	339.48	5.07	
2025-01-18 12:04:45.47	339.52	4.98	
2025-01-18 12:04:46.69	339.56	4.89	
2025-01-18 12:04:47.90	339.60	4.81	
2025-01-18 12:04:49.12	339.64	4.72	
2025-01-18 12:04:50.34	339.68	4.63	
2025-01-18 12:04:51.56	339.73	4.54	
2025-01-18 12:04:52.77	339.77	4.46	
2025-01-18 12:04:53.99	339.81	4.37	
2025-01-18 12:04:55.21	339.85	4.28	
2025-01-18 12:04:56.43	339.89	4.20	
2025-01-18 12:04:57.65	339.92	4.11	
2025-01-18 12:04:58.86	339.96	4.03	

#Closed at: 2025-01-18 12:04:59