passes_logs/2025/01/18/SPB_Silybum_02/SPB_Silybum_02__20250118_101609_AQUA_rec.log

#Pass ID: 20250118_101609_AQUA
#Satellite: AQUA
#Configuration: AQUA
#Start time: 2025-01-18 10:16:08

#Version: 2.0.20230423
#Station: SPB_Silybum_02
#Location: 30.233357 lon 59.946436 lat
#TLE: 1 27424U 02022A   25017.88331103  .00002112  00000+0  44339-3 0  9998
#TLE: 2 27424  98.3596 334.5732 0001847 108.4912 313.9167 14.60695357208043

#Time	Az	El	Level	Level2	SNR	BER	Gain	Gain2
2025-01-18 10:16:10.63	126.01	4.11	
2025-01-18 10:16:11.85	125.94	4.19	
2025-01-18 10:16:13.07	125.87	4.27	
2025-01-18 10:16:14.29	125.80	4.36	
2025-01-18 10:16:15.50	125.73	4.44	
2025-01-18 10:16:16.72	125.66	4.52	
2025-01-18 10:16:17.94	125.59	4.61	
2025-01-18 10:16:19.16	125.52	4.69	
2025-01-18 10:16:20.38	125.45	4.78	
2025-01-18 10:16:21.59	125.37	4.86	
2025-01-18 10:16:22.81	125.30	4.95	
2025-01-18 10:16:24.03	125.23	5.03	
2025-01-18 10:16:25.25	125.15	5.12	
2025-01-18 10:16:26.46	125.08	5.20	
2025-01-18 10:16:27.68	125.00	5.29	
2025-01-18 10:16:28.90	124.93	5.38	
2025-01-18 10:16:30.12	124.85	5.46	
2025-01-18 10:16:31.34	124.78	5.55	
2025-01-18 10:16:32.55	124.70	5.64	
2025-01-18 10:16:33.77	124.62	5.73	
2025-01-18 10:16:34.99	124.54	5.82	
2025-01-18 10:16:36.21	124.47	5.90	
2025-01-18 10:16:37.43	124.39	5.99	
2025-01-18 10:16:38.64	124.31	6.08	
2025-01-18 10:16:39.86	124.23	6.17	
2025-01-18 10:16:41.08	124.15	6.26	
2025-01-18 10:16:42.30	124.07	6.35	
2025-01-18 10:16:43.52	123.98	6.44	
2025-01-18 10:16:44.73	123.90	6.53	
2025-01-18 10:16:45.95	123.82	6.62	
2025-01-18 10:16:47.17	123.73	6.71	
2025-01-18 10:16:48.39	123.65	6.80	
2025-01-18 10:16:49.61	123.57	6.89	
2025-01-18 10:16:50.82	123.48	6.99	
2025-01-18 10:16:52.04	123.39	7.08	
2025-01-18 10:16:53.26	123.31	7.17	
2025-01-18 10:16:54.48	123.22	7.26	
2025-01-18 10:16:55.69	123.13	7.36	
2025-01-18 10:16:56.91	123.04	7.45	
2025-01-18 10:16:58.13	122.96	7.54	
2025-01-18 10:16:59.35	122.87	7.64	
2025-01-18 10:17:00.57	122.77	7.73	
2025-01-18 10:17:01.78	122.68	7.83	
2025-01-18 10:17:03.00	122.59	7.92	
2025-01-18 10:17:04.22	122.50	8.02	
2025-01-18 10:17:05.44	122.41	8.11	
2025-01-18 10:17:06.66	122.31	8.21	
2025-01-18 10:17:07.87	122.22	8.31	
2025-01-18 10:17:09.09	122.12	8.40	
2025-01-18 10:17:10.31	122.03	8.50	
2025-01-18 10:17:11.53	121.93	8.60	
2025-01-18 10:17:12.75	121.83	8.69	
2025-01-18 10:17:13.96	121.74	8.79	
2025-01-18 10:17:15.18	121.64	8.89	
2025-01-18 10:17:16.40	121.54	8.99	
2025-01-18 10:17:17.62	121.44	9.09	
2025-01-18 10:17:18.84	121.34	9.19	
2025-01-18 10:17:20.05	121.23	9.29	
2025-01-18 10:17:21.27	121.13	9.39	
2025-01-18 10:17:22.49	121.03	9.49	
2025-01-18 10:17:23.71	120.92	9.59	
2025-01-18 10:17:24.92	120.82	9.69	
2025-01-18 10:17:26.14	120.71	9.79	
2025-01-18 10:17:27.36	120.61	9.90	
2025-01-18 10:17:28.58	120.50	10.00	
2025-01-18 10:17:29.80	120.39	10.10	
2025-01-18 10:17:31.01	120.28	10.20	
2025-01-18 10:17:32.23	120.17	10.31	
2025-01-18 10:17:33.45	120.06	10.41	
2025-01-18 10:17:34.67	119.95	10.52	
2025-01-18 10:17:35.89	119.84	10.62	
2025-01-18 10:17:37.10	119.72	10.73	
2025-01-18 10:17:38.32	119.61	10.83	
2025-01-18 10:17:39.54	119.49	10.94	
2025-01-18 10:17:40.76	119.38	11.04	
2025-01-18 10:17:41.98	119.26	11.15	
2025-01-18 10:17:43.19	119.14	11.26	
2025-01-18 10:17:44.41	119.02	11.36	
2025-01-18 10:17:45.63	118.90	11.47	
2025-01-18 10:17:46.85	118.78	11.58	
2025-01-18 10:17:48.07	118.66	11.69	
2025-01-18 10:17:49.28	118.54	11.80	
2025-01-18 10:17:50.50	118.41	11.91	
2025-01-18 10:17:51.72	118.29	12.02	
2025-01-18 10:17:52.94	118.16	12.13	
2025-01-18 10:17:54.15	118.03	12.24	
2025-01-18 10:17:55.37	117.90	12.35	
2025-01-18 10:17:56.59	117.77	12.46	
2025-01-18 10:17:57.81	117.64	12.58	
2025-01-18 10:17:59.03	117.51	12.69	
2025-01-18 10:18:00.24	117.38	12.80	
2025-01-18 10:18:01.46	117.25	12.91	
2025-01-18 10:18:02.68	117.11	13.03	
2025-01-18 10:18:03.90	116.98	13.14	
2025-01-18 10:18:05.12	116.84	13.26	
2025-01-18 10:18:06.33	116.70	13.37	
2025-01-18 10:18:07.55	116.56	13.49	
2025-01-18 10:18:08.77	116.42	13.60	
2025-01-18 10:18:09.99	116.28	13.72	
2025-01-18 10:18:11.21	116.13	13.84	
2025-01-18 10:18:12.42	115.99	13.96	
2025-01-18 10:18:13.64	115.85	14.07	
2025-01-18 10:18:14.86	115.70	14.19	
2025-01-18 10:18:16.08	115.55	14.31	
2025-01-18 10:18:17.30	115.40	14.43	
2025-01-18 10:18:18.51	115.25	14.55	
2025-01-18 10:18:19.73	115.10	14.67	
2025-01-18 10:18:20.95	114.94	14.79	
2025-01-18 10:18:22.17	114.79	14.91	
2025-01-18 10:18:23.38	114.63	15.03	
2025-01-18 10:18:24.60	114.48	15.16	
2025-01-18 10:18:25.82	114.32	15.28	
2025-01-18 10:18:27.04	114.16	15.40	
2025-01-18 10:18:28.26	113.99	15.53	
2025-01-18 10:18:29.47	113.83	15.65	
2025-01-18 10:18:30.69	113.67	15.77	
2025-01-18 10:18:31.91	113.50	15.90	
2025-01-18 10:18:33.13	113.33	16.02	
2025-01-18 10:18:34.35	113.16	16.15	
2025-01-18 10:18:35.56	112.99	16.28	
2025-01-18 10:18:36.78	112.82	16.40	
2025-01-18 10:18:38.00	112.65	16.53	
2025-01-18 10:18:39.22	112.47	16.66	
2025-01-18 10:18:40.44	112.29	16.79	
2025-01-18 10:18:41.65	112.11	16.91	
2025-01-18 10:18:42.87	111.93	17.04	
2025-01-18 10:18:44.09	111.75	17.17	
2025-01-18 10:18:45.31	111.57	17.30	
2025-01-18 10:18:46.53	111.38	17.43	
2025-01-18 10:18:47.74	111.19	17.56	
2025-01-18 10:18:48.96	111.01	17.70	
2025-01-18 10:18:50.18	110.81	17.83	
2025-01-18 10:18:51.40	110.62	17.96	
2025-01-18 10:18:52.62	110.43	18.09	
2025-01-18 10:18:53.83	110.23	18.23	
2025-01-18 10:18:55.05	110.03	18.36	
2025-01-18 10:18:56.27	109.83	18.49	
2025-01-18 10:18:57.49	109.63	18.63	
2025-01-18 10:18:58.70	109.43	18.76	
2025-01-18 10:18:59.92	109.22	18.90	
2025-01-18 10:19:01.14	109.01	19.04	
2025-01-18 10:19:02.36	108.80	19.17	
2025-01-18 10:19:03.58	108.59	19.31	
2025-01-18 10:19:04.79	108.38	19.45	
2025-01-18 10:19:06.01	108.16	19.58	
2025-01-18 10:19:07.23	107.94	19.72	
2025-01-18 10:19:08.45	107.72	19.86	
2025-01-18 10:19:09.67	107.50	20.00	
2025-01-18 10:19:10.88	107.28	20.14	
2025-01-18 10:19:12.10	107.05	20.28	
2025-01-18 10:19:13.32	106.82	20.42	
2025-01-18 10:19:14.55	106.59	20.56	
2025-01-18 10:19:15.77	106.36	20.70	
2025-01-18 10:19:16.99	106.12	20.84	
2025-01-18 10:19:18.20	105.88	20.98	
2025-01-18 10:19:19.43	105.64	21.13	
2025-01-18 10:19:20.65	105.40	21.27	
2025-01-18 10:19:21.87	105.15	21.41	
2025-01-18 10:19:23.09	104.91	21.56	
2025-01-18 10:19:24.31	104.66	21.70	
2025-01-18 10:19:25.52	104.40	21.84	
2025-01-18 10:19:26.74	104.15	21.99	
2025-01-18 10:19:27.96	103.89	22.13	
2025-01-18 10:19:29.18	103.63	22.28	
2025-01-18 10:19:30.40	103.37	22.42	
2025-01-18 10:19:31.61	103.11	22.57	
2025-01-18 10:19:32.83	102.84	22.71	
2025-01-18 10:19:34.05	102.57	22.86	
2025-01-18 10:19:35.27	102.29	23.00	
2025-01-18 10:19:36.49	102.02	23.15	
2025-01-18 10:19:37.70	101.74	23.29	
2025-01-18 10:19:38.92	101.46	23.44	
2025-01-18 10:19:40.14	101.18	23.59	
2025-01-18 10:19:41.36	100.89	23.73	
2025-01-18 10:19:42.57	100.60	23.88	
2025-01-18 10:19:43.79	100.31	24.03	
2025-01-18 10:19:45.01	100.01	24.18	
2025-01-18 10:19:46.23	99.71	24.32	
2025-01-18 10:19:47.45	99.41	24.47	
2025-01-18 10:19:48.66	99.11	24.62	
2025-01-18 10:19:49.88	98.80	24.76	
2025-01-18 10:19:51.10	98.49	24.91	
2025-01-18 10:19:52.32	98.18	25.06	
2025-01-18 10:19:53.54	97.86	25.21	
2025-01-18 10:19:54.75	97.55	25.35	
2025-01-18 10:19:55.97	97.22	25.50	
2025-01-18 10:19:57.19	96.90	25.65	
2025-01-18 10:19:58.41	96.57	25.80	
2025-01-18 10:19:59.63	96.24	25.94	
2025-01-18 10:20:00.84	95.90	26.09	
2025-01-18 10:20:02.06	95.56	26.24	
2025-01-18 10:20:03.28	95.22	26.38	
2025-01-18 10:20:04.50	94.88	26.53	
2025-01-18 10:20:05.72	94.53	26.67	
2025-01-18 10:20:06.93	94.18	26.82	
2025-01-18 10:20:08.15	93.82	26.96	
2025-01-18 10:20:09.37	93.46	27.11	
2025-01-18 10:20:10.59	93.10	27.25	
2025-01-18 10:20:11.81	92.74	27.40	
2025-01-18 10:20:13.02	92.37	27.54	
2025-01-18 10:20:14.24	92.00	27.68	
2025-01-18 10:20:15.46	91.62	27.83	
2025-01-18 10:20:16.68	91.24	27.97	
2025-01-18 10:20:17.89	90.86	28.11	
2025-01-18 10:20:19.11	90.47	28.25	
2025-01-18 10:20:20.33	90.08	28.39	
2025-01-18 10:20:21.55	89.69	28.53	
2025-01-18 10:20:22.77	89.29	28.67	
2025-01-18 10:20:23.98	88.90	28.81	
2025-01-18 10:20:25.20	88.49	28.94	
2025-01-18 10:20:26.42	88.08	29.08	
2025-01-18 10:20:27.64	87.67	29.21	
2025-01-18 10:20:28.86	87.26	29.35	
2025-01-18 10:20:30.07	86.84	29.48	
2025-01-18 10:20:31.29	86.42	29.61	
2025-01-18 10:20:32.51	85.99	29.75	
2025-01-18 10:20:33.73	85.56	29.88	
2025-01-18 10:20:34.95	85.13	30.01	
2025-01-18 10:20:36.16	84.70	30.13	
2025-01-18 10:20:37.38	84.26	30.26	
2025-01-18 10:20:38.60	83.81	30.39	
2025-01-18 10:20:39.82	83.37	30.51	
2025-01-18 10:20:41.04	82.91	30.63	
2025-01-18 10:20:42.25	82.46	30.75	
2025-01-18 10:20:43.47	82.01	30.87	
2025-01-18 10:20:44.69	81.54	30.99	
2025-01-18 10:20:45.91	81.08	31.11	
2025-01-18 10:20:47.12	80.61	31.22	
2025-01-18 10:20:48.34	80.14	31.34	
2025-01-18 10:20:49.56	79.67	31.45	
2025-01-18 10:20:50.78	79.19	31.56	
2025-01-18 10:20:52.00	78.71	31.67	
2025-01-18 10:20:53.21	78.23	31.77	
2025-01-18 10:20:54.43	77.74	31.88	
2025-01-18 10:20:55.65	77.25	31.98	
2025-01-18 10:20:56.87	76.75	32.08	
2025-01-18 10:20:58.09	76.25	32.18	
2025-01-18 10:20:59.30	75.76	32.28	
2025-01-18 10:21:00.52	75.25	32.37	
2025-01-18 10:21:01.74	74.74	32.47	
2025-01-18 10:21:02.96	74.23	32.56	
2025-01-18 10:21:04.18	73.72	32.64	
2025-01-18 10:21:05.39	73.21	32.73	
2025-01-18 10:21:06.61	72.69	32.81	
2025-01-18 10:21:07.83	72.17	32.90	
2025-01-18 10:21:09.05	71.65	32.97	
2025-01-18 10:21:10.27	71.12	33.05	
2025-01-18 10:21:11.48	70.59	33.12	
2025-01-18 10:21:12.70	70.06	33.20	
2025-01-18 10:21:13.92	69.53	33.26	
2025-01-18 10:21:15.14	68.99	33.33	
2025-01-18 10:21:16.35	68.46	33.39	
2025-01-18 10:21:17.57	67.92	33.45	
2025-01-18 10:21:18.79	67.38	33.51	
2025-01-18 10:21:20.01	66.83	33.57	
2025-01-18 10:21:21.23	66.29	33.62	
2025-01-18 10:21:22.44	65.74	33.67	
2025-01-18 10:21:23.66	65.19	33.72	
2025-01-18 10:21:24.88	64.64	33.76	
2025-01-18 10:21:26.10	64.09	33.80	
2025-01-18 10:21:27.32	63.53	33.84	
2025-01-18 10:21:28.53	62.98	33.88	
2025-01-18 10:21:29.75	62.43	33.91	
2025-01-18 10:21:30.97	61.87	33.94	
2025-01-18 10:21:32.19	61.31	33.97	
2025-01-18 10:21:33.41	60.75	33.99	
2025-01-18 10:21:34.62	60.20	34.01	
2025-01-18 10:21:35.84	59.64	34.03	
2025-01-18 10:21:37.06	59.07	34.04	
2025-01-18 10:21:38.28	58.51	34.05	
2025-01-18 10:21:39.50	57.95	34.06	
2025-01-18 10:21:40.71	57.39	34.07	
2025-01-18 10:21:41.93	56.83	34.07	
2025-01-18 10:21:43.15	56.27	34.07	
2025-01-18 10:21:44.37	55.71	34.06	
2025-01-18 10:21:45.58	55.15	34.06	
2025-01-18 10:21:46.80	54.59	34.05	
2025-01-18 10:21:48.02	54.02	34.03	
2025-01-18 10:21:49.24	53.46	34.02	
2025-01-18 10:21:50.46	52.90	34.00	
2025-01-18 10:21:51.67	52.35	33.98	
2025-01-18 10:21:52.89	51.79	33.95	
2025-01-18 10:21:54.11	51.23	33.92	
2025-01-18 10:21:55.33	50.68	33.89	
2025-01-18 10:21:56.55	50.12	33.86	
2025-01-18 10:21:57.76	49.57	33.82	
2025-01-18 10:21:58.98	49.02	33.78	
2025-01-18 10:22:00.20	48.47	33.74	
2025-01-18 10:22:01.42	47.92	33.69	
2025-01-18 10:22:02.64	47.37	33.65	
2025-01-18 10:22:03.85	46.83	33.60	
2025-01-18 10:22:05.07	46.28	33.54	
2025-01-18 10:22:06.29	45.74	33.48	
2025-01-18 10:22:07.51	45.20	33.42	
2025-01-18 10:22:08.73	44.66	33.36	
2025-01-18 10:22:09.94	44.13	33.30	
2025-01-18 10:22:11.16	43.59	33.23	
2025-01-18 10:22:12.38	43.06	33.16	
2025-01-18 10:22:13.60	42.53	33.09	
2025-01-18 10:22:14.81	42.01	33.01	
2025-01-18 10:22:16.03	41.49	32.94	
2025-01-18 10:22:17.25	40.96	32.86	
2025-01-18 10:22:18.47	40.44	32.77	
2025-01-18 10:22:19.69	39.93	32.69	
2025-01-18 10:22:20.90	39.42	32.60	
2025-01-18 10:22:22.12	38.91	32.51	
2025-01-18 10:22:23.34	38.40	32.42	
2025-01-18 10:22:24.56	37.90	32.33	
2025-01-18 10:22:25.78	37.39	32.23	
2025-01-18 10:22:26.99	36.90	32.14	
2025-01-18 10:22:28.21	36.40	32.04	
2025-01-18 10:22:29.43	35.91	31.94	
2025-01-18 10:22:30.65	35.42	31.83	
2025-01-18 10:22:31.87	34.94	31.73	
2025-01-18 10:22:33.08	34.46	31.62	
2025-01-18 10:22:34.30	33.98	31.51	
2025-01-18 10:22:35.52	33.50	31.40	
2025-01-18 10:22:36.74	33.03	31.29	
2025-01-18 10:22:37.96	32.56	31.17	
2025-01-18 10:22:39.17	32.10	31.06	
2025-01-18 10:22:40.39	31.64	30.94	
2025-01-18 10:22:41.61	31.18	30.82	
2025-01-18 10:22:42.83	30.73	30.70	
2025-01-18 10:22:44.04	30.28	30.58	
2025-01-18 10:22:45.26	29.83	30.46	
2025-01-18 10:22:46.48	29.39	30.33	
2025-01-18 10:22:47.70	28.94	30.21	
2025-01-18 10:22:48.92	28.51	30.08	
2025-01-18 10:22:50.13	28.08	29.95	
2025-01-18 10:22:51.35	27.65	29.82	
2025-01-18 10:22:52.57	27.22	29.69	
2025-01-18 10:22:53.79	26.80	29.56	
2025-01-18 10:22:55.01	26.38	29.43	
2025-01-18 10:22:56.22	25.97	29.29	
2025-01-18 10:22:57.44	25.55	29.16	
2025-01-18 10:22:58.66	25.15	29.02	
2025-01-18 10:22:59.88	24.74	28.89	
2025-01-18 10:23:01.10	24.34	28.75	
2025-01-18 10:23:02.31	23.95	28.61	
2025-01-18 10:23:03.53	23.55	28.48	
2025-01-18 10:23:04.75	23.16	28.34	
2025-01-18 10:23:05.97	22.77	28.20	
2025-01-18 10:23:07.19	22.39	28.06	
2025-01-18 10:23:08.40	22.01	27.92	
2025-01-18 10:23:09.62	21.64	27.77	
2025-01-18 10:23:10.84	21.26	27.63	
2025-01-18 10:23:12.06	20.89	27.49	
2025-01-18 10:23:13.27	20.53	27.35	
2025-01-18 10:23:14.49	20.17	27.20	
2025-01-18 10:23:15.71	19.81	27.06	
2025-01-18 10:23:16.93	19.45	26.91	
2025-01-18 10:23:18.15	19.10	26.77	
2025-01-18 10:23:19.36	18.75	26.62	
2025-01-18 10:23:20.58	18.41	26.48	
2025-01-18 10:23:21.80	18.07	26.33	
2025-01-18 10:23:23.02	17.73	26.19	
2025-01-18 10:23:24.24	17.39	26.04	
2025-01-18 10:23:25.45	17.06	25.90	
2025-01-18 10:23:26.67	16.73	25.75	
2025-01-18 10:23:27.89	16.40	25.60	
2025-01-18 10:23:29.11	16.08	25.46	
2025-01-18 10:23:30.33	15.76	25.31	
2025-01-18 10:23:31.54	15.45	25.16	
2025-01-18 10:23:32.76	15.13	25.02	
2025-01-18 10:23:33.98	14.82	24.87	
2025-01-18 10:23:35.20	14.52	24.72	
2025-01-18 10:23:36.42	14.21	24.58	
2025-01-18 10:23:37.63	13.91	24.43	
2025-01-18 10:23:38.85	13.61	24.28	
2025-01-18 10:23:40.07	13.32	24.14	
2025-01-18 10:23:41.29	13.02	23.99	
2025-01-18 10:23:42.50	12.74	23.84	
2025-01-18 10:23:43.72	12.45	23.70	
2025-01-18 10:23:44.94	12.16	23.55	
2025-01-18 10:23:46.16	11.88	23.41	
2025-01-18 10:23:47.38	11.60	23.26	
2025-01-18 10:23:48.59	11.33	23.11	
2025-01-18 10:23:49.81	11.06	22.97	
2025-01-18 10:23:51.03	10.79	22.82	
2025-01-18 10:23:52.25	10.52	22.68	
2025-01-18 10:23:53.47	10.25	22.53	
2025-01-18 10:23:54.68	9.99	22.39	
2025-01-18 10:23:55.90	9.73	22.25	
2025-01-18 10:23:57.12	9.47	22.10	
2025-01-18 10:23:58.34	9.22	21.96	
2025-01-18 10:23:59.56	8.97	21.82	
2025-01-18 10:24:00.77	8.72	21.67	
2025-01-18 10:24:01.99	8.47	21.53	
2025-01-18 10:24:03.21	8.22	21.39	
2025-01-18 10:24:04.43	7.98	21.25	
2025-01-18 10:24:05.65	7.74	21.10	
2025-01-18 10:24:06.86	7.51	20.96	
2025-01-18 10:24:08.08	7.27	20.82	
2025-01-18 10:24:09.30	7.04	20.68	
2025-01-18 10:24:10.52	6.80	20.54	
2025-01-18 10:24:11.73	6.58	20.40	
2025-01-18 10:24:12.95	6.35	20.26	
2025-01-18 10:24:14.17	6.13	20.12	
2025-01-18 10:24:15.39	5.90	19.99	
2025-01-18 10:24:16.61	5.68	19.85	
2025-01-18 10:24:17.82	5.47	19.71	
2025-01-18 10:24:19.04	5.25	19.57	
2025-01-18 10:24:20.26	5.04	19.44	
2025-01-18 10:24:21.48	4.82	19.30	
2025-01-18 10:24:22.70	4.61	19.16	
2025-01-18 10:24:23.91	4.41	19.03	
2025-01-18 10:24:25.13	4.20	18.89	
2025-01-18 10:24:26.35	4.00	18.76	
2025-01-18 10:24:27.57	3.79	18.62	
2025-01-18 10:24:28.79	3.59	18.49	
2025-01-18 10:24:30.00	3.40	18.36	
2025-01-18 10:24:31.22	3.20	18.22	
2025-01-18 10:24:32.44	3.01	18.09	
2025-01-18 10:24:33.66	2.81	17.96	
2025-01-18 10:24:34.88	2.62	17.83	
2025-01-18 10:24:36.09	2.44	17.70	
2025-01-18 10:24:37.31	2.25	17.56	
2025-01-18 10:24:38.53	2.06	17.43	
2025-01-18 10:24:39.75	1.88	17.30	
2025-01-18 10:24:40.96	1.70	17.18	
2025-01-18 10:24:42.18	1.52	17.05	
2025-01-18 10:24:43.40	1.34	16.92	
2025-01-18 10:24:44.62	1.16	16.79	
2025-01-18 10:24:45.84	0.98	16.66	
2025-01-18 10:24:47.05	0.81	16.54	
2025-01-18 10:24:48.27	0.64	16.41	
2025-01-18 10:24:49.49	0.47	16.28	
2025-01-18 10:24:50.71	0.30	16.16	
2025-01-18 10:24:51.93	0.13	16.03	
2025-01-18 10:24:53.14	359.97	15.91	
2025-01-18 10:24:54.36	359.80	15.78	
2025-01-18 10:24:55.58	359.64	15.66	
2025-01-18 10:24:56.80	359.48	15.54	
2025-01-18 10:24:58.02	359.32	15.41	
2025-01-18 10:24:59.23	359.16	15.29	
2025-01-18 10:25:00.45	359.00	15.17	
2025-01-18 10:25:01.67	358.84	15.05	
2025-01-18 10:25:02.89	358.69	14.93	
2025-01-18 10:25:04.11	358.54	14.81	
2025-01-18 10:25:05.32	358.39	14.69	
2025-01-18 10:25:06.54	358.23	14.57	
2025-01-18 10:25:07.76	358.09	14.45	
2025-01-18 10:25:08.98	357.94	14.33	
2025-01-18 10:25:10.19	357.79	14.21	
2025-01-18 10:25:11.41	357.65	14.09	
2025-01-18 10:25:12.63	357.50	13.98	
2025-01-18 10:25:13.85	357.36	13.86	
2025-01-18 10:25:15.07	357.22	13.74	
2025-01-18 10:25:16.28	357.08	13.63	
2025-01-18 10:25:17.50	356.94	13.51	
2025-01-18 10:25:18.72	356.80	13.40	
2025-01-18 10:25:19.94	356.66	13.28	
2025-01-18 10:25:21.16	356.53	13.17	
2025-01-18 10:25:22.37	356.39	13.05	
2025-01-18 10:25:23.59	356.26	12.94	
2025-01-18 10:25:24.81	356.13	12.83	
2025-01-18 10:25:26.03	356.00	12.72	
2025-01-18 10:25:27.25	355.87	12.60	
2025-01-18 10:25:28.46	355.74	12.49	
2025-01-18 10:25:29.68	355.61	12.38	
2025-01-18 10:25:30.90	355.48	12.27	
2025-01-18 10:25:32.12	355.36	12.16	
2025-01-18 10:25:33.34	355.23	12.05	
2025-01-18 10:25:34.55	355.11	11.94	
2025-01-18 10:25:35.77	354.99	11.83	
2025-01-18 10:25:36.99	354.87	11.72	
2025-01-18 10:25:38.21	354.74	11.61	
2025-01-18 10:25:39.42	354.63	11.51	
2025-01-18 10:25:40.64	354.51	11.40	
2025-01-18 10:25:41.86	354.39	11.29	
2025-01-18 10:25:43.08	354.27	11.19	
2025-01-18 10:25:44.30	354.16	11.08	
2025-01-18 10:25:45.51	354.04	10.97	
2025-01-18 10:25:46.73	353.93	10.87	
2025-01-18 10:25:47.95	353.81	10.76	
2025-01-18 10:25:49.17	353.70	10.66	
2025-01-18 10:25:50.39	353.59	10.55	
2025-01-18 10:25:51.60	353.48	10.45	
2025-01-18 10:25:52.82	353.37	10.35	
2025-01-18 10:25:54.04	353.26	10.24	
2025-01-18 10:25:55.26	353.16	10.14	
2025-01-18 10:25:56.48	353.05	10.04	
2025-01-18 10:25:57.69	352.94	9.94	
2025-01-18 10:25:58.91	352.84	9.84	
2025-01-18 10:26:00.13	352.73	9.73	
2025-01-18 10:26:01.35	352.63	9.63	
2025-01-18 10:26:02.57	352.53	9.53	
2025-01-18 10:26:03.78	352.42	9.43	
2025-01-18 10:26:05.00	352.32	9.33	
2025-01-18 10:26:06.22	352.22	9.23	
2025-01-18 10:26:07.44	352.12	9.13	
2025-01-18 10:26:08.65	352.02	9.04	
2025-01-18 10:26:09.87	351.93	8.94	
2025-01-18 10:26:11.09	351.83	8.84	
2025-01-18 10:26:12.31	351.73	8.74	
2025-01-18 10:26:13.53	351.64	8.64	
2025-01-18 10:26:14.74	351.54	8.55	
2025-01-18 10:26:15.96	351.45	8.45	
2025-01-18 10:26:17.18	351.35	8.36	
2025-01-18 10:26:18.40	351.26	8.26	
2025-01-18 10:26:19.62	351.17	8.16	
2025-01-18 10:26:20.83	351.08	8.07	
2025-01-18 10:26:22.05	350.98	7.97	
2025-01-18 10:26:23.27	350.89	7.88	
2025-01-18 10:26:24.49	350.80	7.78	
2025-01-18 10:26:25.71	350.71	7.69	
2025-01-18 10:26:26.92	350.63	7.60	
2025-01-18 10:26:28.14	350.54	7.50	
2025-01-18 10:26:29.36	350.45	7.41	
2025-01-18 10:26:30.58	350.37	7.32	
2025-01-18 10:26:31.80	350.28	7.23	
2025-01-18 10:26:33.01	350.19	7.13	
2025-01-18 10:26:34.23	350.11	7.04	
2025-01-18 10:26:35.45	350.03	6.95	
2025-01-18 10:26:36.67	349.94	6.86	
2025-01-18 10:26:37.89	349.86	6.77	
2025-01-18 10:26:39.10	349.78	6.68	
2025-01-18 10:26:40.32	349.70	6.59	
2025-01-18 10:26:41.54	349.61	6.50	
2025-01-18 10:26:42.76	349.53	6.41	
2025-01-18 10:26:43.97	349.45	6.32	
2025-01-18 10:26:45.19	349.38	6.23	
2025-01-18 10:26:46.41	349.30	6.14	
2025-01-18 10:26:47.63	349.22	6.05	
2025-01-18 10:26:48.85	349.14	5.96	
2025-01-18 10:26:50.06	349.06	5.88	
2025-01-18 10:26:51.28	348.99	5.79	
2025-01-18 10:26:52.50	348.91	5.70	
2025-01-18 10:26:53.72	348.83	5.61	
2025-01-18 10:26:54.94	348.76	5.53	
2025-01-18 10:26:56.15	348.69	5.44	
2025-01-18 10:26:57.37	348.61	5.35	
2025-01-18 10:26:58.59	348.54	5.27	
2025-01-18 10:26:59.81	348.46	5.18	
2025-01-18 10:27:01.03	348.39	5.10	
2025-01-18 10:27:02.24	348.32	5.01	
2025-01-18 10:27:03.46	348.25	4.93	
2025-01-18 10:27:04.68	348.18	4.84	
2025-01-18 10:27:05.90	348.11	4.76	
2025-01-18 10:27:07.12	348.04	4.67	
2025-01-18 10:27:08.33	347.97	4.59	
2025-01-18 10:27:09.55	347.90	4.51	
2025-01-18 10:27:10.77	347.83	4.42	
2025-01-18 10:27:11.99	347.76	4.34	
2025-01-18 10:27:13.20	347.69	4.26	
2025-01-18 10:27:14.42	347.63	4.17	
2025-01-18 10:27:15.64	347.56	4.09	
2025-01-18 10:27:16.86	347.49	4.01	

#Closed at: 2025-01-18 10:27:17