passes_logs/2025/01/18/SPB_Silybum_02/SPB_Silybum_02__20250118_234110_AQUA_rec.log

#Pass ID: 20250118_234110_AQUA
#Satellite: AQUA
#Configuration: AQUA
#Start time: 2025-01-18 23:41:09

#Version: 2.0.20230423
#Station: SPB_Silybum_02
#Location: 30.233357 lon 59.946436 lat
#TLE: 1 27424U 02022A   25018.15645899  .00002321  00000+0  48623-3 0  9991
#TLE: 2 27424  98.3597 334.8489 0001860 108.2535 309.6560 14.60697098208087

#Time	Az	El	Level	Level2	SNR	BER	Gain	Gain2
2025-01-18 23:41:11.12	29.00	4.04	
2025-01-18 23:41:12.14	29.10	4.10	
2025-01-18 23:41:13.16	29.20	4.16	
2025-01-18 23:41:14.17	29.29	4.22	
2025-01-18 23:41:15.19	29.39	4.28	
2025-01-18 23:41:16.20	29.49	4.33	
2025-01-18 23:41:17.22	29.59	4.39	
2025-01-18 23:41:18.24	29.69	4.45	
2025-01-18 23:41:19.25	29.79	4.51	
2025-01-18 23:41:20.27	29.90	4.57	
2025-01-18 23:41:21.28	30.00	4.63	
2025-01-18 23:41:22.30	30.10	4.69	
2025-01-18 23:41:23.32	30.20	4.75	
2025-01-18 23:41:24.33	30.31	4.81	
2025-01-18 23:41:25.35	30.41	4.87	
2025-01-18 23:41:26.36	30.51	4.93	
2025-01-18 23:41:27.38	30.62	4.99	
2025-01-18 23:41:28.40	30.72	5.05	
2025-01-18 23:41:29.41	30.83	5.11	
2025-01-18 23:41:30.43	30.93	5.17	
2025-01-18 23:41:31.44	31.04	5.23	
2025-01-18 23:41:32.46	31.15	5.29	
2025-01-18 23:41:33.48	31.26	5.35	
2025-01-18 23:41:34.49	31.36	5.41	
2025-01-18 23:41:35.51	31.47	5.47	
2025-01-18 23:41:36.52	31.58	5.53	
2025-01-18 23:41:37.54	31.69	5.59	
2025-01-18 23:41:38.56	31.80	5.66	
2025-01-18 23:41:39.57	31.91	5.72	
2025-01-18 23:41:40.59	32.02	5.78	
2025-01-18 23:41:41.61	32.13	5.84	
2025-01-18 23:41:42.62	32.24	5.90	
2025-01-18 23:41:43.64	32.35	5.96	
2025-01-18 23:41:44.65	32.47	6.02	
2025-01-18 23:41:45.67	32.58	6.08	
2025-01-18 23:41:46.69	32.69	6.15	
2025-01-18 23:41:47.70	32.81	6.21	
2025-01-18 23:41:48.72	32.92	6.27	
2025-01-18 23:41:49.73	33.04	6.33	
2025-01-18 23:41:50.75	33.15	6.39	
2025-01-18 23:41:51.77	33.27	6.45	
2025-01-18 23:41:52.78	33.38	6.52	
2025-01-18 23:41:53.80	33.50	6.58	
2025-01-18 23:41:54.81	33.62	6.64	
2025-01-18 23:41:55.83	33.74	6.70	
2025-01-18 23:41:56.85	33.86	6.76	
2025-01-18 23:41:57.86	33.97	6.83	
2025-01-18 23:41:58.89	34.10	6.89	
2025-01-18 23:41:59.91	34.22	6.95	
2025-01-18 23:42:00.93	34.34	7.01	
2025-01-18 23:42:01.94	34.46	7.08	
2025-01-18 23:42:02.96	34.58	7.14	
2025-01-18 23:42:03.97	34.70	7.20	
2025-01-18 23:42:04.99	34.83	7.26	
2025-01-18 23:42:06.01	34.95	7.33	
2025-01-18 23:42:07.02	35.07	7.39	
2025-01-18 23:42:08.04	35.20	7.45	
2025-01-18 23:42:09.05	35.32	7.52	
2025-01-18 23:42:10.07	35.45	7.58	
2025-01-18 23:42:11.09	35.58	7.64	
2025-01-18 23:42:12.10	35.70	7.71	
2025-01-18 23:42:13.12	35.83	7.77	
2025-01-18 23:42:14.13	35.96	7.83	
2025-01-18 23:42:15.15	36.09	7.90	
2025-01-18 23:42:16.17	36.22	7.96	
2025-01-18 23:42:17.18	36.35	8.02	
2025-01-18 23:42:18.20	36.48	8.09	
2025-01-18 23:42:19.22	36.61	8.15	
2025-01-18 23:42:20.23	36.74	8.21	
2025-01-18 23:42:21.25	36.87	8.28	
2025-01-18 23:42:22.26	37.00	8.34	
2025-01-18 23:42:23.28	37.14	8.41	
2025-01-18 23:42:24.30	37.27	8.47	
2025-01-18 23:42:25.31	37.41	8.53	
2025-01-18 23:42:26.33	37.54	8.60	
2025-01-18 23:42:27.34	37.68	8.66	
2025-01-18 23:42:28.36	37.81	8.73	
2025-01-18 23:42:29.38	37.95	8.79	
2025-01-18 23:42:30.39	38.09	8.85	
2025-01-18 23:42:31.41	38.23	8.92	
2025-01-18 23:42:32.42	38.37	8.98	
2025-01-18 23:42:33.44	38.51	9.05	
2025-01-18 23:42:34.46	38.65	9.11	
2025-01-18 23:42:35.47	38.79	9.18	
2025-01-18 23:42:36.49	38.93	9.24	
2025-01-18 23:42:37.50	39.07	9.31	
2025-01-18 23:42:38.52	39.21	9.37	
2025-01-18 23:42:39.54	39.36	9.44	
2025-01-18 23:42:40.55	39.50	9.50	
2025-01-18 23:42:41.57	39.65	9.57	
2025-01-18 23:42:42.58	39.79	9.63	
2025-01-18 23:42:43.60	39.94	9.69	
2025-01-18 23:42:44.62	40.09	9.76	
2025-01-18 23:42:45.63	40.23	9.82	
2025-01-18 23:42:46.65	40.38	9.89	
2025-01-18 23:42:47.66	40.53	9.95	
2025-01-18 23:42:48.68	40.68	10.02	
2025-01-18 23:42:49.70	40.83	10.08	
2025-01-18 23:42:50.71	40.98	10.15	
2025-01-18 23:42:51.73	41.14	10.21	
2025-01-18 23:42:52.75	41.29	10.28	
2025-01-18 23:42:53.76	41.44	10.35	
2025-01-18 23:42:54.78	41.60	10.41	
2025-01-18 23:42:55.79	41.75	10.48	
2025-01-18 23:42:56.81	41.91	10.54	
2025-01-18 23:42:57.83	42.06	10.61	
2025-01-18 23:42:58.84	42.22	10.67	
2025-01-18 23:42:59.86	42.38	10.74	
2025-01-18 23:43:00.87	42.53	10.80	
2025-01-18 23:43:01.89	42.69	10.87	
2025-01-18 23:43:02.91	42.85	10.93	
2025-01-18 23:43:03.92	43.01	11.00	
2025-01-18 23:43:04.94	43.18	11.06	
2025-01-18 23:43:05.95	43.34	11.13	
2025-01-18 23:43:06.97	43.50	11.19	
2025-01-18 23:43:07.99	43.66	11.26	
2025-01-18 23:43:09.00	43.83	11.32	
2025-01-18 23:43:10.02	43.99	11.39	
2025-01-18 23:43:11.03	44.16	11.45	
2025-01-18 23:43:12.05	44.33	11.52	
2025-01-18 23:43:13.07	44.49	11.59	
2025-01-18 23:43:14.08	44.66	11.65	
2025-01-18 23:43:15.10	44.83	11.72	
2025-01-18 23:43:16.11	45.00	11.78	
2025-01-18 23:43:17.13	45.17	11.85	
2025-01-18 23:43:18.15	45.34	11.91	
2025-01-18 23:43:19.16	45.52	11.98	
2025-01-18 23:43:20.18	45.69	12.04	
2025-01-18 23:43:21.19	45.86	12.11	
2025-01-18 23:43:22.21	46.04	12.17	
2025-01-18 23:43:23.23	46.21	12.24	
2025-01-18 23:43:24.24	46.39	12.30	
2025-01-18 23:43:25.26	46.57	12.37	
2025-01-18 23:43:26.28	46.74	12.43	
2025-01-18 23:43:27.29	46.92	12.50	
2025-01-18 23:43:28.31	47.10	12.56	
2025-01-18 23:43:29.32	47.28	12.63	
2025-01-18 23:43:30.34	47.46	12.69	
2025-01-18 23:43:31.36	47.65	12.76	
2025-01-18 23:43:32.37	47.83	12.82	
2025-01-18 23:43:33.39	48.01	12.89	
2025-01-18 23:43:34.40	48.20	12.95	
2025-01-18 23:43:35.42	48.38	13.01	
2025-01-18 23:43:36.44	48.57	13.08	
2025-01-18 23:43:37.45	48.76	13.14	
2025-01-18 23:43:38.47	48.94	13.21	
2025-01-18 23:43:39.48	49.13	13.27	
2025-01-18 23:43:40.50	49.32	13.34	
2025-01-18 23:43:41.52	49.51	13.40	
2025-01-18 23:43:42.53	49.70	13.46	
2025-01-18 23:43:43.55	49.90	13.53	
2025-01-18 23:43:44.56	50.09	13.59	
2025-01-18 23:43:45.58	50.28	13.65	
2025-01-18 23:43:46.60	50.48	13.72	
2025-01-18 23:43:47.61	50.67	13.78	
2025-01-18 23:43:48.63	50.87	13.84	
2025-01-18 23:43:49.64	51.07	13.91	
2025-01-18 23:43:50.66	51.27	13.97	
2025-01-18 23:43:51.68	51.47	14.03	
2025-01-18 23:43:52.69	51.67	14.10	
2025-01-18 23:43:53.71	51.87	14.16	
2025-01-18 23:43:54.72	52.07	14.22	
2025-01-18 23:43:55.74	52.27	14.28	
2025-01-18 23:43:56.76	52.48	14.35	
2025-01-18 23:43:57.77	52.68	14.41	
2025-01-18 23:43:58.79	52.89	14.47	
2025-01-18 23:43:59.81	53.09	14.53	
2025-01-18 23:44:00.82	53.30	14.59	
2025-01-18 23:44:01.84	53.51	14.66	
2025-01-18 23:44:02.85	53.72	14.72	
2025-01-18 23:44:03.87	53.93	14.78	
2025-01-18 23:44:04.89	54.14	14.84	
2025-01-18 23:44:05.90	54.35	14.90	
2025-01-18 23:44:06.92	54.56	14.96	
2025-01-18 23:44:07.93	54.78	15.02	
2025-01-18 23:44:08.95	54.99	15.08	
2025-01-18 23:44:09.97	55.21	15.14	
2025-01-18 23:44:10.98	55.42	15.20	
2025-01-18 23:44:12.00	55.64	15.26	
2025-01-18 23:44:13.01	55.86	15.32	
2025-01-18 23:44:14.03	56.08	15.38	
2025-01-18 23:44:15.05	56.30	15.44	
2025-01-18 23:44:16.06	56.52	15.50	
2025-01-18 23:44:17.08	56.74	15.56	
2025-01-18 23:44:18.09	56.96	15.61	
2025-01-18 23:44:19.11	57.19	15.67	
2025-01-18 23:44:20.13	57.41	15.73	
2025-01-18 23:44:21.14	57.64	15.79	
2025-01-18 23:44:22.16	57.86	15.85	
2025-01-18 23:44:23.17	58.09	15.90	
2025-01-18 23:44:24.19	58.32	15.96	
2025-01-18 23:44:25.21	58.55	16.02	
2025-01-18 23:44:26.22	58.78	16.07	
2025-01-18 23:44:27.24	59.01	16.13	
2025-01-18 23:44:28.25	59.24	16.19	
2025-01-18 23:44:29.27	59.47	16.24	
2025-01-18 23:44:30.29	59.71	16.30	
2025-01-18 23:44:31.30	59.94	16.35	
2025-01-18 23:44:32.32	60.18	16.41	
2025-01-18 23:44:33.34	60.41	16.46	
2025-01-18 23:44:34.35	60.65	16.51	
2025-01-18 23:44:35.37	60.89	16.57	
2025-01-18 23:44:36.38	61.13	16.62	
2025-01-18 23:44:37.40	61.37	16.67	
2025-01-18 23:44:38.42	61.61	16.73	
2025-01-18 23:44:39.43	61.85	16.78	
2025-01-18 23:44:40.45	62.09	16.83	
2025-01-18 23:44:41.46	62.33	16.88	
2025-01-18 23:44:42.48	62.58	16.93	
2025-01-18 23:44:43.50	62.82	16.99	
2025-01-18 23:44:44.51	63.07	17.04	
2025-01-18 23:44:45.53	63.32	17.09	
2025-01-18 23:44:46.54	63.56	17.14	
2025-01-18 23:44:47.56	63.81	17.19	
2025-01-18 23:44:48.58	64.06	17.24	
2025-01-18 23:44:49.59	64.31	17.28	
2025-01-18 23:44:50.61	64.56	17.33	
2025-01-18 23:44:51.62	64.81	17.38	
2025-01-18 23:44:52.64	65.07	17.43	
2025-01-18 23:44:53.66	65.32	17.48	
2025-01-18 23:44:54.67	65.58	17.52	
2025-01-18 23:44:55.69	65.83	17.57	
2025-01-18 23:44:56.70	66.09	17.61	
2025-01-18 23:44:57.72	66.34	17.66	
2025-01-18 23:44:58.74	66.60	17.70	
2025-01-18 23:44:59.75	66.86	17.75	
2025-01-18 23:45:00.77	67.12	17.79	
2025-01-18 23:45:01.79	67.38	17.84	
2025-01-18 23:45:02.80	67.64	17.88	
2025-01-18 23:45:03.82	67.90	17.92	
2025-01-18 23:45:04.83	68.16	17.96	
2025-01-18 23:45:05.85	68.43	18.01	
2025-01-18 23:45:06.87	68.69	18.05	
2025-01-18 23:45:07.88	68.96	18.09	
2025-01-18 23:45:08.90	69.22	18.13	
2025-01-18 23:45:09.91	69.49	18.17	
2025-01-18 23:45:10.93	69.75	18.21	
2025-01-18 23:45:11.95	70.02	18.25	
2025-01-18 23:45:12.96	70.29	18.28	
2025-01-18 23:45:13.98	70.56	18.32	
2025-01-18 23:45:14.99	70.83	18.36	
2025-01-18 23:45:16.01	71.10	18.40	
2025-01-18 23:45:17.03	71.37	18.43	
2025-01-18 23:45:18.04	71.64	18.47	
2025-01-18 23:45:19.06	71.91	18.50	
2025-01-18 23:45:20.07	72.19	18.54	
2025-01-18 23:45:21.09	72.46	18.57	
2025-01-18 23:45:22.11	72.74	18.60	
2025-01-18 23:45:23.12	73.01	18.64	
2025-01-18 23:45:24.14	73.29	18.67	
2025-01-18 23:45:25.15	73.56	18.70	
2025-01-18 23:45:26.17	73.84	18.73	
2025-01-18 23:45:27.19	74.12	18.76	
2025-01-18 23:45:28.20	74.39	18.79	
2025-01-18 23:45:29.22	74.67	18.82	
2025-01-18 23:45:30.23	74.95	18.85	
2025-01-18 23:45:31.25	75.23	18.88	
2025-01-18 23:45:32.27	75.51	18.91	
2025-01-18 23:45:33.28	75.79	18.93	
2025-01-18 23:45:34.30	76.07	18.96	
2025-01-18 23:45:35.32	76.36	18.99	
2025-01-18 23:45:36.33	76.64	19.01	
2025-01-18 23:45:37.35	76.92	19.03	
2025-01-18 23:45:38.36	77.20	19.06	
2025-01-18 23:45:39.38	77.49	19.08	
2025-01-18 23:45:40.40	77.77	19.10	
2025-01-18 23:45:41.41	78.05	19.13	
2025-01-18 23:45:42.43	78.34	19.15	
2025-01-18 23:45:43.44	78.62	19.17	
2025-01-18 23:45:44.46	78.91	19.19	
2025-01-18 23:45:45.48	79.20	19.21	
2025-01-18 23:45:46.49	79.48	19.23	
2025-01-18 23:45:47.51	79.77	19.24	
2025-01-18 23:45:48.52	80.06	19.26	
2025-01-18 23:45:49.54	80.34	19.28	
2025-01-18 23:45:50.56	80.63	19.29	
2025-01-18 23:45:51.57	80.92	19.31	
2025-01-18 23:45:52.59	81.21	19.32	
2025-01-18 23:45:53.60	81.50	19.34	
2025-01-18 23:45:54.62	81.79	19.35	
2025-01-18 23:45:55.64	82.08	19.36	
2025-01-18 23:45:56.65	82.36	19.37	
2025-01-18 23:45:57.67	82.66	19.39	
2025-01-18 23:45:58.68	82.94	19.40	
2025-01-18 23:45:59.70	83.24	19.41	
2025-01-18 23:46:00.72	83.53	19.42	
2025-01-18 23:46:01.73	83.82	19.42	
2025-01-18 23:46:02.75	84.11	19.43	
2025-01-18 23:46:03.76	84.40	19.44	
2025-01-18 23:46:04.78	84.69	19.44	
2025-01-18 23:46:05.80	84.98	19.45	
2025-01-18 23:46:06.81	85.27	19.46	
2025-01-18 23:46:07.84	85.57	19.46	
2025-01-18 23:46:08.86	85.86	19.46	
2025-01-18 23:46:09.87	86.15	19.47	
2025-01-18 23:46:10.89	86.44	19.47	
2025-01-18 23:46:11.91	86.73	19.47	
2025-01-18 23:46:12.92	87.02	19.47	
2025-01-18 23:46:13.94	87.32	19.47	
2025-01-18 23:46:14.95	87.61	19.47	
2025-01-18 23:46:15.97	87.90	19.47	
2025-01-18 23:46:16.99	88.19	19.47	
2025-01-18 23:46:18.00	88.48	19.46	
2025-01-18 23:46:19.02	88.77	19.46	
2025-01-18 23:46:20.04	89.07	19.46	
2025-01-18 23:46:21.05	89.36	19.45	
2025-01-18 23:46:22.07	89.65	19.44	
2025-01-18 23:46:23.08	89.94	19.44	
2025-01-18 23:46:24.10	90.23	19.43	
2025-01-18 23:46:25.12	90.52	19.42	
2025-01-18 23:46:26.13	90.81	19.42	
2025-01-18 23:46:27.15	91.10	19.41	
2025-01-18 23:46:28.16	91.39	19.40	
2025-01-18 23:46:29.18	91.68	19.39	
2025-01-18 23:46:30.20	91.97	19.37	
2025-01-18 23:46:31.21	92.26	19.36	
2025-01-18 23:46:32.23	92.55	19.35	
2025-01-18 23:46:33.24	92.84	19.34	
2025-01-18 23:46:34.26	93.13	19.32	
2025-01-18 23:46:35.28	93.42	19.31	
2025-01-18 23:46:36.29	93.71	19.29	
2025-01-18 23:46:37.31	94.00	19.28	
2025-01-18 23:46:38.32	94.28	19.26	
2025-01-18 23:46:39.34	94.57	19.24	
2025-01-18 23:46:40.36	94.86	19.23	
2025-01-18 23:46:41.37	95.15	19.21	
2025-01-18 23:46:42.39	95.43	19.19	
2025-01-18 23:46:43.40	95.72	19.17	
2025-01-18 23:46:44.42	96.01	19.15	
2025-01-18 23:46:45.44	96.29	19.13	
2025-01-18 23:46:46.45	96.57	19.10	
2025-01-18 23:46:47.47	96.86	19.08	
2025-01-18 23:46:48.48	97.14	19.06	
2025-01-18 23:46:49.50	97.43	19.03	
2025-01-18 23:46:50.52	97.71	19.01	
2025-01-18 23:46:51.53	97.99	18.98	
2025-01-18 23:46:52.55	98.28	18.96	
2025-01-18 23:46:53.57	98.56	18.93	
2025-01-18 23:46:54.58	98.84	18.91	
2025-01-18 23:46:55.60	99.12	18.88	
2025-01-18 23:46:56.61	99.40	18.85	
2025-01-18 23:46:57.63	99.68	18.82	
2025-01-18 23:46:58.65	99.96	18.79	
2025-01-18 23:46:59.66	100.24	18.76	
2025-01-18 23:47:00.68	100.52	18.73	
2025-01-18 23:47:01.69	100.79	18.70	
2025-01-18 23:47:02.71	101.07	18.67	
2025-01-18 23:47:03.73	101.35	18.64	
2025-01-18 23:47:04.74	101.62	18.60	
2025-01-18 23:47:05.76	101.90	18.57	
2025-01-18 23:47:06.77	102.17	18.53	
2025-01-18 23:47:07.79	102.45	18.50	
2025-01-18 23:47:08.81	102.72	18.46	
2025-01-18 23:47:09.82	102.99	18.43	
2025-01-18 23:47:10.84	103.26	18.39	
2025-01-18 23:47:11.85	103.53	18.36	
2025-01-18 23:47:12.87	103.81	18.32	
2025-01-18 23:47:13.89	104.08	18.28	
2025-01-18 23:47:14.90	104.34	18.24	
2025-01-18 23:47:15.92	104.61	18.20	
2025-01-18 23:47:16.93	104.88	18.16	
2025-01-18 23:47:17.95	105.15	18.12	
2025-01-18 23:47:18.97	105.41	18.08	
2025-01-18 23:47:19.98	105.68	18.04	
2025-01-18 23:47:21.00	105.94	18.00	
2025-01-18 23:47:22.01	106.21	17.96	
2025-01-18 23:47:23.03	106.47	17.92	
2025-01-18 23:47:24.05	106.73	17.87	
2025-01-18 23:47:25.06	106.99	17.83	
2025-01-18 23:47:26.08	107.26	17.79	
2025-01-18 23:47:27.10	107.52	17.74	
2025-01-18 23:47:28.11	107.78	17.70	
2025-01-18 23:47:29.13	108.04	17.65	
2025-01-18 23:47:30.14	108.29	17.61	
2025-01-18 23:47:31.16	108.55	17.56	
2025-01-18 23:47:32.18	108.81	17.51	
2025-01-18 23:47:33.19	109.06	17.47	
2025-01-18 23:47:34.21	109.32	17.42	
2025-01-18 23:47:35.22	109.57	17.37	
2025-01-18 23:47:36.24	109.82	17.32	
2025-01-18 23:47:37.26	110.08	17.27	
2025-01-18 23:47:38.27	110.33	17.22	
2025-01-18 23:47:39.29	110.58	17.18	
2025-01-18 23:47:40.30	110.82	17.13	
2025-01-18 23:47:41.32	111.07	17.08	
2025-01-18 23:47:42.34	111.32	17.02	
2025-01-18 23:47:43.35	111.57	16.97	
2025-01-18 23:47:44.37	111.82	16.92	
2025-01-18 23:47:45.38	112.06	16.87	
2025-01-18 23:47:46.40	112.31	16.82	
2025-01-18 23:47:47.42	112.55	16.77	
2025-01-18 23:47:48.43	112.79	16.71	
2025-01-18 23:47:49.45	113.03	16.66	
2025-01-18 23:47:50.46	113.27	16.61	
2025-01-18 23:47:51.48	113.51	16.55	
2025-01-18 23:47:52.50	113.75	16.50	
2025-01-18 23:47:53.51	113.99	16.44	
2025-01-18 23:47:54.53	114.23	16.39	
2025-01-18 23:47:55.54	114.46	16.33	
2025-01-18 23:47:56.56	114.70	16.28	
2025-01-18 23:47:57.58	114.94	16.22	
2025-01-18 23:47:58.59	115.17	16.17	
2025-01-18 23:47:59.61	115.40	16.11	
2025-01-18 23:48:00.63	115.63	16.05	
2025-01-18 23:48:01.64	115.86	16.00	
2025-01-18 23:48:02.66	116.10	15.94	
2025-01-18 23:48:03.67	116.32	15.88	
2025-01-18 23:48:04.69	116.55	15.83	
2025-01-18 23:48:05.71	116.78	15.77	
2025-01-18 23:48:06.72	117.01	15.71	
2025-01-18 23:48:07.74	117.23	15.65	
2025-01-18 23:48:08.75	117.46	15.59	
2025-01-18 23:48:09.77	117.68	15.53	
2025-01-18 23:48:10.79	117.90	15.47	
2025-01-18 23:48:11.80	118.12	15.42	
2025-01-18 23:48:12.82	118.35	15.36	
2025-01-18 23:48:13.83	118.57	15.30	
2025-01-18 23:48:14.85	118.79	15.24	
2025-01-18 23:48:15.87	119.00	15.18	
2025-01-18 23:48:16.88	119.22	15.12	
2025-01-18 23:48:17.90	119.44	15.05	
2025-01-18 23:48:18.91	119.65	14.99	
2025-01-18 23:48:19.93	119.87	14.93	
2025-01-18 23:48:20.95	120.08	14.87	
2025-01-18 23:48:21.96	120.29	14.81	
2025-01-18 23:48:22.98	120.51	14.75	
2025-01-18 23:48:23.99	120.72	14.69	
2025-01-18 23:48:25.01	120.93	14.62	
2025-01-18 23:48:26.03	121.14	14.56	
2025-01-18 23:48:27.04	121.34	14.50	
2025-01-18 23:48:28.06	121.55	14.44	
2025-01-18 23:48:29.08	121.76	14.38	
2025-01-18 23:48:30.09	121.96	14.31	
2025-01-18 23:48:31.11	122.17	14.25	
2025-01-18 23:48:32.12	122.37	14.19	
2025-01-18 23:48:33.14	122.58	14.12	
2025-01-18 23:48:34.16	122.78	14.06	
2025-01-18 23:48:35.17	122.98	14.00	
2025-01-18 23:48:36.19	123.18	13.93	
2025-01-18 23:48:37.20	123.38	13.87	
2025-01-18 23:48:38.22	123.58	13.81	
2025-01-18 23:48:39.24	123.77	13.74	
2025-01-18 23:48:40.25	123.97	13.68	
2025-01-18 23:48:41.27	124.17	13.61	
2025-01-18 23:48:42.28	124.36	13.55	
2025-01-18 23:48:43.30	124.56	13.49	
2025-01-18 23:48:44.32	124.75	13.42	
2025-01-18 23:48:45.33	124.94	13.36	
2025-01-18 23:48:46.35	125.13	13.29	
2025-01-18 23:48:47.36	125.32	13.23	
2025-01-18 23:48:48.38	125.51	13.16	
2025-01-18 23:48:49.40	125.70	13.10	
2025-01-18 23:48:50.41	125.89	13.03	
2025-01-18 23:48:51.43	126.08	12.97	
2025-01-18 23:48:52.44	126.26	12.90	
2025-01-18 23:48:53.46	126.45	12.84	
2025-01-18 23:48:54.48	126.63	12.77	
2025-01-18 23:48:55.49	126.82	12.71	
2025-01-18 23:48:56.51	127.00	12.64	
2025-01-18 23:48:57.52	127.18	12.58	
2025-01-18 23:48:58.54	127.36	12.51	
2025-01-18 23:48:59.56	127.54	12.45	
2025-01-18 23:49:00.57	127.72	12.38	
2025-01-18 23:49:01.59	127.90	12.32	
2025-01-18 23:49:02.61	128.08	12.25	
2025-01-18 23:49:03.62	128.25	12.18	
2025-01-18 23:49:04.64	128.43	12.12	
2025-01-18 23:49:05.65	128.61	12.05	
2025-01-18 23:49:06.67	128.78	11.99	
2025-01-18 23:49:07.69	128.96	11.92	
2025-01-18 23:49:08.70	129.13	11.86	
2025-01-18 23:49:09.72	129.30	11.79	
2025-01-18 23:49:10.73	129.47	11.72	
2025-01-18 23:49:11.75	129.64	11.66	
2025-01-18 23:49:12.77	129.81	11.59	
2025-01-18 23:49:13.78	129.98	11.53	
2025-01-18 23:49:14.80	130.15	11.46	
2025-01-18 23:49:15.81	130.32	11.39	
2025-01-18 23:49:16.83	130.48	11.33	
2025-01-18 23:49:17.85	130.65	11.26	
2025-01-18 23:49:18.86	130.81	11.20	
2025-01-18 23:49:19.88	130.98	11.13	
2025-01-18 23:49:20.89	131.14	11.06	
2025-01-18 23:49:21.91	131.30	11.00	
2025-01-18 23:49:22.93	131.47	10.93	
2025-01-18 23:49:23.94	131.63	10.87	
2025-01-18 23:49:24.96	131.79	10.80	
2025-01-18 23:49:25.97	131.95	10.73	
2025-01-18 23:49:26.99	132.11	10.67	
2025-01-18 23:49:28.01	132.26	10.60	
2025-01-18 23:49:29.02	132.42	10.54	
2025-01-18 23:49:30.04	132.58	10.47	
2025-01-18 23:49:31.05	132.73	10.41	
2025-01-18 23:49:32.07	132.89	10.34	
2025-01-18 23:49:33.09	133.04	10.27	
2025-01-18 23:49:34.10	133.20	10.21	
2025-01-18 23:49:35.12	133.35	10.14	
2025-01-18 23:49:36.14	133.50	10.08	
2025-01-18 23:49:37.15	133.65	10.01	
2025-01-18 23:49:38.17	133.81	9.94	
2025-01-18 23:49:39.18	133.96	9.88	
2025-01-18 23:49:40.20	134.11	9.81	
2025-01-18 23:49:41.22	134.26	9.75	
2025-01-18 23:49:42.23	134.40	9.68	
2025-01-18 23:49:43.25	134.55	9.62	
2025-01-18 23:49:44.26	134.70	9.55	
2025-01-18 23:49:45.28	134.84	9.49	
2025-01-18 23:49:46.30	134.99	9.42	
2025-01-18 23:49:47.31	135.13	9.35	
2025-01-18 23:49:48.33	135.28	9.29	
2025-01-18 23:49:49.34	135.42	9.22	
2025-01-18 23:49:50.36	135.56	9.16	
2025-01-18 23:49:51.38	135.71	9.09	
2025-01-18 23:49:52.39	135.85	9.03	
2025-01-18 23:49:53.41	135.99	8.96	
2025-01-18 23:49:54.42	136.13	8.90	
2025-01-18 23:49:55.44	136.27	8.83	
2025-01-18 23:49:56.46	136.41	8.77	
2025-01-18 23:49:57.47	136.54	8.70	
2025-01-18 23:49:58.49	136.68	8.64	
2025-01-18 23:49:59.50	136.82	8.57	
2025-01-18 23:50:00.52	136.95	8.51	
2025-01-18 23:50:01.54	137.09	8.44	
2025-01-18 23:50:02.55	137.22	8.38	
2025-01-18 23:50:03.57	137.36	8.32	
2025-01-18 23:50:04.58	137.49	8.25	
2025-01-18 23:50:05.60	137.62	8.19	
2025-01-18 23:50:06.62	137.76	8.12	
2025-01-18 23:50:07.63	137.89	8.06	
2025-01-18 23:50:08.65	138.02	7.99	
2025-01-18 23:50:09.67	138.15	7.93	
2025-01-18 23:50:10.68	138.28	7.86	
2025-01-18 23:50:11.70	138.41	7.80	
2025-01-18 23:50:12.71	138.54	7.74	
2025-01-18 23:50:13.73	138.67	7.67	
2025-01-18 23:50:14.75	138.80	7.61	
2025-01-18 23:50:15.76	138.92	7.54	
2025-01-18 23:50:16.78	139.05	7.48	
2025-01-18 23:50:17.79	139.17	7.42	
2025-01-18 23:50:18.81	139.30	7.35	
2025-01-18 23:50:19.83	139.43	7.29	
2025-01-18 23:50:20.84	139.55	7.23	
2025-01-18 23:50:21.86	139.67	7.16	
2025-01-18 23:50:22.87	139.79	7.10	
2025-01-18 23:50:23.89	139.92	7.04	
2025-01-18 23:50:24.91	140.04	6.97	
2025-01-18 23:50:25.92	140.16	6.91	
2025-01-18 23:50:26.94	140.28	6.85	
2025-01-18 23:50:27.95	140.40	6.78	
2025-01-18 23:50:28.97	140.52	6.72	
2025-01-18 23:50:29.99	140.64	6.66	
2025-01-18 23:50:31.00	140.76	6.60	
2025-01-18 23:50:32.02	140.88	6.53	
2025-01-18 23:50:33.03	141.00	6.47	
2025-01-18 23:50:34.05	141.11	6.41	
2025-01-18 23:50:35.07	141.23	6.34	
2025-01-18 23:50:36.08	141.34	6.28	
2025-01-18 23:50:37.10	141.46	6.22	
2025-01-18 23:50:38.11	141.58	6.16	
2025-01-18 23:50:39.13	141.69	6.10	
2025-01-18 23:50:40.15	141.80	6.03	
2025-01-18 23:50:41.16	141.92	5.97	
2025-01-18 23:50:42.18	142.03	5.91	
2025-01-18 23:50:43.20	142.14	5.85	
2025-01-18 23:50:44.21	142.25	5.79	
2025-01-18 23:50:45.23	142.37	5.72	
2025-01-18 23:50:46.24	142.48	5.66	
2025-01-18 23:50:47.26	142.59	5.60	
2025-01-18 23:50:48.28	142.70	5.54	
2025-01-18 23:50:49.29	142.81	5.48	
2025-01-18 23:50:50.31	142.92	5.42	
2025-01-18 23:50:51.32	143.02	5.36	
2025-01-18 23:50:52.34	143.13	5.29	
2025-01-18 23:50:53.36	143.24	5.23	
2025-01-18 23:50:54.37	143.35	5.17	
2025-01-18 23:50:55.39	143.45	5.11	
2025-01-18 23:50:56.40	143.56	5.05	
2025-01-18 23:50:57.42	143.67	4.99	
2025-01-18 23:50:58.44	143.77	4.93	
2025-01-18 23:50:59.45	143.88	4.87	
2025-01-18 23:51:00.47	143.98	4.81	
2025-01-18 23:51:01.48	144.08	4.75	
2025-01-18 23:51:02.50	144.19	4.69	
2025-01-18 23:51:03.52	144.29	4.63	
2025-01-18 23:51:04.53	144.39	4.57	
2025-01-18 23:51:05.55	144.50	4.51	
2025-01-18 23:51:06.56	144.60	4.45	
2025-01-18 23:51:07.58	144.70	4.39	
2025-01-18 23:51:08.60	144.80	4.33	
2025-01-18 23:51:09.61	144.90	4.27	
2025-01-18 23:51:10.63	145.00	4.21	
2025-01-18 23:51:11.65	145.10	4.15	
2025-01-18 23:51:12.66	145.20	4.09	
2025-01-18 23:51:13.68	145.30	4.03	

#Closed at: 2025-01-18 23:51:14