passes_logs/2025/01/18/SPB_Silybum_02/SPB_Silybum_02__20250118_123248_SUOMI_NPP_rec.log

#Pass ID: 20250118_123248_SUOMI NPP
#Satellite: SUOMI NPP
#Configuration: NPP
#Start time: 2025-01-18 12:32:49

#Version: 2.0.20230423
#Station: SPB_Silybum_02
#Location: 30.233357 lon 59.946436 lat
#TLE: 1 37849U 11061A   25017.80975554  .00000187  00000+0  10930-3 0  9999
#TLE: 2 37849  98.7450 318.7628 0001577  36.7528 323.3756 14.19539590685310

#Time	Az	El	Level	Level2	SNR	BER	Gain	Gain2
2025-01-18 12:32:51.15	231.10	4.12	
2025-01-18 12:32:52.16	231.21	4.17	
2025-01-18 12:32:53.18	231.32	4.22	
2025-01-18 12:32:54.19	231.43	4.27	
2025-01-18 12:32:55.21	231.54	4.32	
2025-01-18 12:32:56.22	231.65	4.37	
2025-01-18 12:32:57.24	231.76	4.42	
2025-01-18 12:32:58.25	231.87	4.47	
2025-01-18 12:32:59.27	231.98	4.52	
2025-01-18 12:33:00.28	232.09	4.57	
2025-01-18 12:33:01.30	232.20	4.62	
2025-01-18 12:33:02.31	232.31	4.66	
2025-01-18 12:33:03.33	232.42	4.71	
2025-01-18 12:33:04.34	232.53	4.76	
2025-01-18 12:33:05.36	232.65	4.81	
2025-01-18 12:33:06.37	232.76	4.86	
2025-01-18 12:33:07.38	232.87	4.91	
2025-01-18 12:33:08.40	232.99	4.96	
2025-01-18 12:33:09.41	233.10	5.01	
2025-01-18 12:33:10.43	233.21	5.06	
2025-01-18 12:33:11.44	233.33	5.11	
2025-01-18 12:33:12.46	233.44	5.15	
2025-01-18 12:33:13.47	233.56	5.20	
2025-01-18 12:33:14.49	233.67	5.25	
2025-01-18 12:33:15.50	233.79	5.30	
2025-01-18 12:33:16.52	233.91	5.35	
2025-01-18 12:33:17.53	234.02	5.40	
2025-01-18 12:33:18.55	234.14	5.45	
2025-01-18 12:33:19.56	234.26	5.50	
2025-01-18 12:33:20.58	234.38	5.55	
2025-01-18 12:33:21.59	234.50	5.60	
2025-01-18 12:33:22.61	234.61	5.64	
2025-01-18 12:33:23.62	234.73	5.69	
2025-01-18 12:33:24.64	234.85	5.74	
2025-01-18 12:33:25.65	234.97	5.79	
2025-01-18 12:33:26.67	235.09	5.84	
2025-01-18 12:33:27.68	235.21	5.89	
2025-01-18 12:33:28.70	235.34	5.94	
2025-01-18 12:33:29.71	235.46	5.99	
2025-01-18 12:33:30.73	235.58	6.04	
2025-01-18 12:33:31.74	235.70	6.08	
2025-01-18 12:33:32.76	235.82	6.13	
2025-01-18 12:33:33.77	235.95	6.18	
2025-01-18 12:33:34.79	236.07	6.23	
2025-01-18 12:33:35.80	236.19	6.28	
2025-01-18 12:33:36.82	236.32	6.33	
2025-01-18 12:33:37.83	236.44	6.38	
2025-01-18 12:33:38.85	236.57	6.43	
2025-01-18 12:33:39.86	236.69	6.47	
2025-01-18 12:33:40.88	236.82	6.52	
2025-01-18 12:33:41.89	236.95	6.57	
2025-01-18 12:33:42.91	237.07	6.62	
2025-01-18 12:33:43.92	237.20	6.67	
2025-01-18 12:33:44.94	237.33	6.72	
2025-01-18 12:33:45.95	237.45	6.77	
2025-01-18 12:33:46.97	237.58	6.82	
2025-01-18 12:33:47.98	237.71	6.86	
2025-01-18 12:33:49.00	237.84	6.91	
2025-01-18 12:33:50.01	237.97	6.96	
2025-01-18 12:33:51.03	238.10	7.01	
2025-01-18 12:33:52.04	238.23	7.06	
2025-01-18 12:33:53.06	238.36	7.11	
2025-01-18 12:33:54.07	238.49	7.15	
2025-01-18 12:33:55.09	238.63	7.20	
2025-01-18 12:33:56.10	238.76	7.25	
2025-01-18 12:33:57.12	238.89	7.30	
2025-01-18 12:33:58.13	239.02	7.35	
2025-01-18 12:33:59.15	239.16	7.39	
2025-01-18 12:34:00.16	239.29	7.44	
2025-01-18 12:34:01.18	239.42	7.49	
2025-01-18 12:34:02.19	239.56	7.54	
2025-01-18 12:34:03.21	239.69	7.59	
2025-01-18 12:34:04.22	239.83	7.63	
2025-01-18 12:34:05.24	239.97	7.68	
2025-01-18 12:34:06.25	240.10	7.73	
2025-01-18 12:34:07.27	240.24	7.78	
2025-01-18 12:34:08.28	240.38	7.83	
2025-01-18 12:34:09.30	240.51	7.87	
2025-01-18 12:34:10.31	240.65	7.92	
2025-01-18 12:34:11.33	240.79	7.97	
2025-01-18 12:34:12.34	240.93	8.02	
2025-01-18 12:34:13.36	241.07	8.06	
2025-01-18 12:34:14.37	241.21	8.11	
2025-01-18 12:34:15.39	241.35	8.16	
2025-01-18 12:34:16.40	241.49	8.21	
2025-01-18 12:34:17.42	241.63	8.25	
2025-01-18 12:34:18.43	241.77	8.30	
2025-01-18 12:34:19.44	241.91	8.35	
2025-01-18 12:34:20.46	242.06	8.39	
2025-01-18 12:34:21.47	242.20	8.44	
2025-01-18 12:34:22.49	242.34	8.49	
2025-01-18 12:34:23.50	242.49	8.53	
2025-01-18 12:34:24.52	242.63	8.58	
2025-01-18 12:34:25.53	242.78	8.63	
2025-01-18 12:34:26.55	242.92	8.67	
2025-01-18 12:34:27.56	243.07	8.72	
2025-01-18 12:34:28.58	243.21	8.77	
2025-01-18 12:34:29.59	243.36	8.81	
2025-01-18 12:34:30.61	243.51	8.86	
2025-01-18 12:34:31.62	243.65	8.91	
2025-01-18 12:34:32.64	243.80	8.95	
2025-01-18 12:34:33.65	243.95	9.00	
2025-01-18 12:34:34.67	244.10	9.04	
2025-01-18 12:34:35.68	244.25	9.09	
2025-01-18 12:34:36.70	244.40	9.14	
2025-01-18 12:34:37.71	244.55	9.18	
2025-01-18 12:34:38.73	244.70	9.23	
2025-01-18 12:34:39.74	244.85	9.27	
2025-01-18 12:34:40.76	245.00	9.32	
2025-01-18 12:34:41.77	245.15	9.36	
2025-01-18 12:34:42.79	245.30	9.41	
2025-01-18 12:34:43.80	245.46	9.45	
2025-01-18 12:34:44.82	245.61	9.50	
2025-01-18 12:34:45.83	245.76	9.54	
2025-01-18 12:34:46.85	245.92	9.59	
2025-01-18 12:34:47.86	246.07	9.63	
2025-01-18 12:34:48.88	246.23	9.68	
2025-01-18 12:34:49.89	246.38	9.72	
2025-01-18 12:34:50.91	246.54	9.77	
2025-01-18 12:34:51.92	246.70	9.81	
2025-01-18 12:34:52.94	246.85	9.86	
2025-01-18 12:34:53.95	247.01	9.90	
2025-01-18 12:34:54.97	247.17	9.94	
2025-01-18 12:34:55.98	247.33	9.99	
2025-01-18 12:34:57.00	247.49	10.03	
2025-01-18 12:34:58.01	247.65	10.08	
2025-01-18 12:34:59.03	247.81	10.12	
2025-01-18 12:35:00.04	247.97	10.16	
2025-01-18 12:35:01.06	248.13	10.21	
2025-01-18 12:35:02.07	248.29	10.25	
2025-01-18 12:35:03.09	248.45	10.29	
2025-01-18 12:35:04.10	248.61	10.34	
2025-01-18 12:35:05.12	248.77	10.38	
2025-01-18 12:35:06.13	248.94	10.42	
2025-01-18 12:35:07.15	249.10	10.46	
2025-01-18 12:35:08.16	249.26	10.51	
2025-01-18 12:35:09.18	249.43	10.55	
2025-01-18 12:35:10.19	249.59	10.59	
2025-01-18 12:35:11.21	249.76	10.63	
2025-01-18 12:35:12.22	249.92	10.67	
2025-01-18 12:35:13.24	250.09	10.72	
2025-01-18 12:35:14.25	250.26	10.76	
2025-01-18 12:35:15.27	250.42	10.80	
2025-01-18 12:35:16.28	250.59	10.84	
2025-01-18 12:35:17.30	250.76	10.88	
2025-01-18 12:35:18.31	250.93	10.92	
2025-01-18 12:35:19.33	251.10	10.96	
2025-01-18 12:35:20.34	251.27	11.01	
2025-01-18 12:35:21.36	251.44	11.05	
2025-01-18 12:35:22.37	251.61	11.09	
2025-01-18 12:35:23.39	251.78	11.13	
2025-01-18 12:35:24.40	251.95	11.17	
2025-01-18 12:35:25.42	252.12	11.21	
2025-01-18 12:35:26.43	252.29	11.25	
2025-01-18 12:35:27.45	252.46	11.29	
2025-01-18 12:35:28.46	252.64	11.33	
2025-01-18 12:35:29.48	252.81	11.36	
2025-01-18 12:35:30.49	252.98	11.40	
2025-01-18 12:35:31.51	253.16	11.44	
2025-01-18 12:35:32.52	253.33	11.48	
2025-01-18 12:35:33.54	253.51	11.52	
2025-01-18 12:35:34.55	253.68	11.56	
2025-01-18 12:35:35.56	253.86	11.60	
2025-01-18 12:35:36.58	254.04	11.63	
2025-01-18 12:35:37.59	254.21	11.67	
2025-01-18 12:35:38.61	254.39	11.71	
2025-01-18 12:35:39.62	254.57	11.75	
2025-01-18 12:35:40.64	254.75	11.78	
2025-01-18 12:35:41.65	254.92	11.82	
2025-01-18 12:35:42.67	255.10	11.86	
2025-01-18 12:35:43.68	255.28	11.90	
2025-01-18 12:35:44.70	255.46	11.93	
2025-01-18 12:35:45.71	255.64	11.97	
2025-01-18 12:35:46.73	255.83	12.00	
2025-01-18 12:35:47.74	256.01	12.04	
2025-01-18 12:35:48.76	256.19	12.08	
2025-01-18 12:35:49.77	256.37	12.11	
2025-01-18 12:35:50.79	256.55	12.15	
2025-01-18 12:35:51.80	256.74	12.18	
2025-01-18 12:35:52.82	256.92	12.22	
2025-01-18 12:35:53.83	257.10	12.25	
2025-01-18 12:35:54.85	257.29	12.29	
2025-01-18 12:35:55.86	257.47	12.32	
2025-01-18 12:35:56.88	257.66	12.35	
2025-01-18 12:35:57.89	257.84	12.39	
2025-01-18 12:35:58.91	258.03	12.42	
2025-01-18 12:35:59.92	258.21	12.45	
2025-01-18 12:36:00.94	258.40	12.49	
2025-01-18 12:36:01.95	258.59	12.52	
2025-01-18 12:36:02.97	258.78	12.55	
2025-01-18 12:36:03.98	258.96	12.58	
2025-01-18 12:36:05.00	259.15	12.62	
2025-01-18 12:36:06.01	259.34	12.65	
2025-01-18 12:36:07.03	259.53	12.68	
2025-01-18 12:36:08.04	259.72	12.71	
2025-01-18 12:36:09.06	259.91	12.74	
2025-01-18 12:36:10.07	260.10	12.77	
2025-01-18 12:36:11.09	260.29	12.80	
2025-01-18 12:36:12.10	260.48	12.84	
2025-01-18 12:36:13.12	260.67	12.87	
2025-01-18 12:36:14.13	260.86	12.90	
2025-01-18 12:36:15.15	261.06	12.92	
2025-01-18 12:36:16.16	261.25	12.95	
2025-01-18 12:36:17.18	261.44	12.98	
2025-01-18 12:36:18.19	261.63	13.01	
2025-01-18 12:36:19.21	261.83	13.04	
2025-01-18 12:36:20.22	262.02	13.07	
2025-01-18 12:36:21.24	262.22	13.10	
2025-01-18 12:36:22.25	262.41	13.12	
2025-01-18 12:36:23.27	262.61	13.15	
2025-01-18 12:36:24.28	262.80	13.18	
2025-01-18 12:36:25.30	263.00	13.21	
2025-01-18 12:36:26.31	263.19	13.23	
2025-01-18 12:36:27.33	263.39	13.26	
2025-01-18 12:36:28.34	263.59	13.29	
2025-01-18 12:36:29.36	263.79	13.31	
2025-01-18 12:36:30.37	263.98	13.34	
2025-01-18 12:36:31.39	264.18	13.36	
2025-01-18 12:36:32.40	264.38	13.39	
2025-01-18 12:36:33.42	264.58	13.41	
2025-01-18 12:36:34.43	264.77	13.44	
2025-01-18 12:36:35.45	264.97	13.46	
2025-01-18 12:36:36.46	265.17	13.48	
2025-01-18 12:36:37.48	265.37	13.51	
2025-01-18 12:36:38.49	265.57	13.53	
2025-01-18 12:36:39.51	265.77	13.55	
2025-01-18 12:36:40.52	265.97	13.58	
2025-01-18 12:36:41.54	266.17	13.60	
2025-01-18 12:36:42.55	266.37	13.62	
2025-01-18 12:36:43.57	266.58	13.64	
2025-01-18 12:36:44.58	266.78	13.67	
2025-01-18 12:36:45.60	266.98	13.69	
2025-01-18 12:36:46.61	267.18	13.71	
2025-01-18 12:36:47.62	267.38	13.73	
2025-01-18 12:36:48.64	267.59	13.75	
2025-01-18 12:36:49.65	267.79	13.77	
2025-01-18 12:36:50.67	267.99	13.79	
2025-01-18 12:36:51.68	268.20	13.81	
2025-01-18 12:36:52.70	268.40	13.83	
2025-01-18 12:36:53.71	268.60	13.84	
2025-01-18 12:36:54.73	268.81	13.86	
2025-01-18 12:36:55.74	269.01	13.88	
2025-01-18 12:36:56.76	269.22	13.90	
2025-01-18 12:36:57.77	269.42	13.92	
2025-01-18 12:36:58.79	269.63	13.93	
2025-01-18 12:36:59.80	269.83	13.95	
2025-01-18 12:37:00.82	270.04	13.97	
2025-01-18 12:37:01.83	270.25	13.98	
2025-01-18 12:37:02.85	270.45	14.00	
2025-01-18 12:37:03.86	270.66	14.01	
2025-01-18 12:37:04.88	270.86	14.03	
2025-01-18 12:37:05.89	271.07	14.04	
2025-01-18 12:37:06.91	271.28	14.06	
2025-01-18 12:37:07.92	271.48	14.07	
2025-01-18 12:37:08.94	271.69	14.08	
2025-01-18 12:37:09.95	271.90	14.10	
2025-01-18 12:37:10.97	272.11	14.11	
2025-01-18 12:37:11.98	272.31	14.12	
2025-01-18 12:37:13.00	272.52	14.14	
2025-01-18 12:37:14.01	272.73	14.15	
2025-01-18 12:37:15.03	272.94	14.16	
2025-01-18 12:37:16.04	273.15	14.17	
2025-01-18 12:37:17.06	273.36	14.18	
2025-01-18 12:37:18.07	273.56	14.19	
2025-01-18 12:37:19.09	273.77	14.20	
2025-01-18 12:37:20.10	273.98	14.21	
2025-01-18 12:37:21.12	274.19	14.22	
2025-01-18 12:37:22.13	274.40	14.23	
2025-01-18 12:37:23.15	274.61	14.24	
2025-01-18 12:37:24.16	274.82	14.25	
2025-01-18 12:37:25.18	275.03	14.26	
2025-01-18 12:37:26.19	275.24	14.26	
2025-01-18 12:37:27.21	275.45	14.27	
2025-01-18 12:37:28.22	275.66	14.28	
2025-01-18 12:37:29.24	275.87	14.29	
2025-01-18 12:37:30.25	276.08	14.29	
2025-01-18 12:37:31.27	276.29	14.30	
2025-01-18 12:37:32.28	276.50	14.30	
2025-01-18 12:37:33.30	276.71	14.31	
2025-01-18 12:37:34.31	276.92	14.31	
2025-01-18 12:37:35.33	277.13	14.32	
2025-01-18 12:37:36.34	277.34	14.32	
2025-01-18 12:37:37.36	277.55	14.33	
2025-01-18 12:37:38.37	277.76	14.33	
2025-01-18 12:37:39.39	277.97	14.33	
2025-01-18 12:37:40.40	278.18	14.34	
2025-01-18 12:37:41.42	278.39	14.34	
2025-01-18 12:37:42.43	278.60	14.34	
2025-01-18 12:37:43.45	278.82	14.34	
2025-01-18 12:37:44.46	279.03	14.34	
2025-01-18 12:37:45.48	279.24	14.35	
2025-01-18 12:37:46.49	279.45	14.35	
2025-01-18 12:37:47.51	279.66	14.35	
2025-01-18 12:37:48.52	279.87	14.35	
2025-01-18 12:37:49.54	280.08	14.35	
2025-01-18 12:37:50.57	280.29	14.35	
2025-01-18 12:37:51.58	280.50	14.34	
2025-01-18 12:37:52.60	280.72	14.34	
2025-01-18 12:37:53.61	280.93	14.34	
2025-01-18 12:37:54.63	281.14	14.34	
2025-01-18 12:37:55.64	281.35	14.34	
2025-01-18 12:37:56.66	281.56	14.33	
2025-01-18 12:37:57.67	281.77	14.33	
2025-01-18 12:37:58.69	281.98	14.33	
2025-01-18 12:37:59.70	282.19	14.32	
2025-01-18 12:38:00.72	282.40	14.32	
2025-01-18 12:38:01.73	282.61	14.31	
2025-01-18 12:38:02.75	282.82	14.31	
2025-01-18 12:38:03.76	283.03	14.30	
2025-01-18 12:38:04.78	283.24	14.30	
2025-01-18 12:38:05.79	283.45	14.29	
2025-01-18 12:38:06.81	283.66	14.29	
2025-01-18 12:38:07.82	283.87	14.28	
2025-01-18 12:38:08.84	284.08	14.27	
2025-01-18 12:38:09.85	284.29	14.26	
2025-01-18 12:38:10.87	284.50	14.26	
2025-01-18 12:38:11.88	284.71	14.25	
2025-01-18 12:38:12.89	284.92	14.24	
2025-01-18 12:38:13.91	285.13	14.23	
2025-01-18 12:38:14.92	285.33	14.22	
2025-01-18 12:38:15.94	285.54	14.21	
2025-01-18 12:38:16.95	285.75	14.20	
2025-01-18 12:38:17.97	285.96	14.19	
2025-01-18 12:38:18.98	286.17	14.18	
2025-01-18 12:38:20.00	286.38	14.17	
2025-01-18 12:38:21.01	286.58	14.16	
2025-01-18 12:38:22.03	286.79	14.15	
2025-01-18 12:38:23.04	287.00	14.13	
2025-01-18 12:38:24.06	287.21	14.12	
2025-01-18 12:38:25.07	287.41	14.11	
2025-01-18 12:38:26.09	287.62	14.10	
2025-01-18 12:38:27.10	287.83	14.08	
2025-01-18 12:38:28.12	288.04	14.07	
2025-01-18 12:38:29.13	288.24	14.06	
2025-01-18 12:38:30.15	288.45	14.04	
2025-01-18 12:38:31.16	288.66	14.03	
2025-01-18 12:38:32.18	288.86	14.01	
2025-01-18 12:38:33.19	289.07	14.00	
2025-01-18 12:38:34.21	289.27	13.98	
2025-01-18 12:38:35.22	289.48	13.96	
2025-01-18 12:38:36.24	289.68	13.95	
2025-01-18 12:38:37.25	289.89	13.93	
2025-01-18 12:38:38.27	290.09	13.91	
2025-01-18 12:38:39.28	290.30	13.90	
2025-01-18 12:38:40.30	290.50	13.88	
2025-01-18 12:38:41.31	290.71	13.86	
2025-01-18 12:38:42.33	290.91	13.84	
2025-01-18 12:38:43.34	291.11	13.83	
2025-01-18 12:38:44.36	291.32	13.81	
2025-01-18 12:38:45.37	291.52	13.79	
2025-01-18 12:38:46.39	291.72	13.77	
2025-01-18 12:38:47.40	291.92	13.75	
2025-01-18 12:38:48.42	292.13	13.73	
2025-01-18 12:38:49.43	292.33	13.71	
2025-01-18 12:38:50.45	292.53	13.69	
2025-01-18 12:38:51.46	292.73	13.67	
2025-01-18 12:38:52.48	292.93	13.64	
2025-01-18 12:38:53.49	293.13	13.62	
2025-01-18 12:38:54.51	293.34	13.60	
2025-01-18 12:38:55.52	293.53	13.58	
2025-01-18 12:38:56.54	293.74	13.56	
2025-01-18 12:38:57.55	293.93	13.53	
2025-01-18 12:38:58.57	294.13	13.51	
2025-01-18 12:38:59.58	294.33	13.49	
2025-01-18 12:39:00.60	294.53	13.46	
2025-01-18 12:39:01.61	294.73	13.44	
2025-01-18 12:39:02.63	294.93	13.41	
2025-01-18 12:39:03.64	295.12	13.39	
2025-01-18 12:39:04.66	295.32	13.36	
2025-01-18 12:39:05.67	295.52	13.34	
2025-01-18 12:39:06.69	295.72	13.31	
2025-01-18 12:39:07.70	295.91	13.29	
2025-01-18 12:39:08.72	296.11	13.26	
2025-01-18 12:39:09.73	296.30	13.24	
2025-01-18 12:39:10.75	296.50	13.21	
2025-01-18 12:39:11.76	296.69	13.18	
2025-01-18 12:39:12.78	296.89	13.15	
2025-01-18 12:39:13.79	297.08	13.13	
2025-01-18 12:39:14.81	297.28	13.10	
2025-01-18 12:39:15.82	297.47	13.07	
2025-01-18 12:39:16.84	297.67	13.04	
2025-01-18 12:39:17.85	297.86	13.02	
2025-01-18 12:39:18.87	298.05	12.99	
2025-01-18 12:39:19.88	298.24	12.96	
2025-01-18 12:39:20.90	298.43	12.93	
2025-01-18 12:39:21.91	298.63	12.90	
2025-01-18 12:39:22.93	298.82	12.87	
2025-01-18 12:39:23.94	299.01	12.84	
2025-01-18 12:39:24.96	299.20	12.81	
2025-01-18 12:39:25.97	299.39	12.78	
2025-01-18 12:39:26.98	299.58	12.75	
2025-01-18 12:39:28.00	299.77	12.72	
2025-01-18 12:39:29.01	299.95	12.69	
2025-01-18 12:39:30.03	300.14	12.65	
2025-01-18 12:39:31.04	300.33	12.62	
2025-01-18 12:39:32.06	300.52	12.59	
2025-01-18 12:39:33.07	300.70	12.56	
2025-01-18 12:39:34.09	300.89	12.53	
2025-01-18 12:39:35.10	301.08	12.49	
2025-01-18 12:39:36.12	301.26	12.46	
2025-01-18 12:39:37.13	301.45	12.43	
2025-01-18 12:39:38.15	301.63	12.39	
2025-01-18 12:39:39.16	301.82	12.36	
2025-01-18 12:39:40.18	302.00	12.33	
2025-01-18 12:39:41.19	302.19	12.29	
2025-01-18 12:39:42.21	302.37	12.26	
2025-01-18 12:39:43.22	302.55	12.22	
2025-01-18 12:39:44.24	302.74	12.19	
2025-01-18 12:39:45.25	302.92	12.16	
2025-01-18 12:39:46.27	303.10	12.12	
2025-01-18 12:39:47.28	303.28	12.09	
2025-01-18 12:39:48.30	303.46	12.05	
2025-01-18 12:39:49.31	303.64	12.01	
2025-01-18 12:39:50.33	303.82	11.98	
2025-01-18 12:39:51.34	304.00	11.94	
2025-01-18 12:39:52.36	304.18	11.91	
2025-01-18 12:39:53.37	304.36	11.87	
2025-01-18 12:39:54.39	304.54	11.83	
2025-01-18 12:39:55.40	304.72	11.80	
2025-01-18 12:39:56.42	304.89	11.76	
2025-01-18 12:39:57.43	305.07	11.72	
2025-01-18 12:39:58.45	305.25	11.68	
2025-01-18 12:39:59.46	305.42	11.65	
2025-01-18 12:40:00.48	305.60	11.61	
2025-01-18 12:40:01.49	305.77	11.57	
2025-01-18 12:40:02.51	305.95	11.53	
2025-01-18 12:40:03.52	306.12	11.50	
2025-01-18 12:40:04.54	306.30	11.46	
2025-01-18 12:40:05.55	306.47	11.42	
2025-01-18 12:40:06.57	306.64	11.38	
2025-01-18 12:40:07.58	306.82	11.34	
2025-01-18 12:40:08.60	306.99	11.30	
2025-01-18 12:40:09.61	307.16	11.26	
2025-01-18 12:40:10.63	307.33	11.22	
2025-01-18 12:40:11.64	307.50	11.18	
2025-01-18 12:40:12.66	307.67	11.14	
2025-01-18 12:40:13.67	307.84	11.10	
2025-01-18 12:40:14.69	308.01	11.06	
2025-01-18 12:40:15.70	308.18	11.02	
2025-01-18 12:40:16.72	308.35	10.98	
2025-01-18 12:40:17.73	308.52	10.94	
2025-01-18 12:40:18.75	308.69	10.90	
2025-01-18 12:40:19.76	308.85	10.86	
2025-01-18 12:40:20.78	309.02	10.82	
2025-01-18 12:40:21.79	309.19	10.78	
2025-01-18 12:40:22.81	309.35	10.74	
2025-01-18 12:40:23.82	309.52	10.70	
2025-01-18 12:40:24.84	309.68	10.65	
2025-01-18 12:40:25.85	309.85	10.61	
2025-01-18 12:40:26.87	310.01	10.57	
2025-01-18 12:40:27.88	310.17	10.53	
2025-01-18 12:40:28.90	310.34	10.49	
2025-01-18 12:40:29.91	310.50	10.45	
2025-01-18 12:40:30.93	310.66	10.40	
2025-01-18 12:40:31.94	310.82	10.36	
2025-01-18 12:40:32.96	310.99	10.32	
2025-01-18 12:40:33.97	311.15	10.28	
2025-01-18 12:40:34.99	311.31	10.23	
2025-01-18 12:40:36.00	311.47	10.19	
2025-01-18 12:40:37.02	311.63	10.15	
2025-01-18 12:40:38.03	311.78	10.10	
2025-01-18 12:40:39.05	311.94	10.06	
2025-01-18 12:40:40.06	312.10	10.02	
2025-01-18 12:40:41.07	312.26	9.97	
2025-01-18 12:40:42.09	312.41	9.93	
2025-01-18 12:40:43.10	312.57	9.89	
2025-01-18 12:40:44.12	312.73	9.84	
2025-01-18 12:40:45.13	312.88	9.80	
2025-01-18 12:40:46.15	313.04	9.75	
2025-01-18 12:40:47.16	313.19	9.71	
2025-01-18 12:40:48.18	313.35	9.67	
2025-01-18 12:40:49.19	313.50	9.62	
2025-01-18 12:40:50.21	313.66	9.58	
2025-01-18 12:40:51.22	313.81	9.53	
2025-01-18 12:40:52.24	313.96	9.49	
2025-01-18 12:40:53.25	314.11	9.44	
2025-01-18 12:40:54.27	314.27	9.40	
2025-01-18 12:40:55.28	314.42	9.35	
2025-01-18 12:40:56.30	314.57	9.31	
2025-01-18 12:40:57.31	314.72	9.26	
2025-01-18 12:40:58.33	314.87	9.22	
2025-01-18 12:40:59.34	315.02	9.17	
2025-01-18 12:41:00.36	315.17	9.13	
2025-01-18 12:41:01.37	315.31	9.08	
2025-01-18 12:41:02.39	315.46	9.04	
2025-01-18 12:41:03.40	315.61	8.99	
2025-01-18 12:41:04.42	315.76	8.95	
2025-01-18 12:41:05.43	315.90	8.90	
2025-01-18 12:41:06.45	316.05	8.85	
2025-01-18 12:41:07.46	316.20	8.81	
2025-01-18 12:41:08.48	316.34	8.76	
2025-01-18 12:41:09.49	316.49	8.72	
2025-01-18 12:41:10.51	316.63	8.67	
2025-01-18 12:41:11.52	316.77	8.62	
2025-01-18 12:41:12.54	316.92	8.58	
2025-01-18 12:41:13.55	317.06	8.53	
2025-01-18 12:41:14.57	317.20	8.48	
2025-01-18 12:41:15.58	317.35	8.44	
2025-01-18 12:41:16.60	317.49	8.39	
2025-01-18 12:41:17.61	317.63	8.35	
2025-01-18 12:41:18.63	317.77	8.30	
2025-01-18 12:41:19.64	317.91	8.25	
2025-01-18 12:41:20.66	318.05	8.21	
2025-01-18 12:41:21.67	318.19	8.16	
2025-01-18 12:41:22.69	318.33	8.11	
2025-01-18 12:41:23.70	318.47	8.06	
2025-01-18 12:41:24.72	318.61	8.02	
2025-01-18 12:41:25.73	318.75	7.97	
2025-01-18 12:41:26.75	318.88	7.92	
2025-01-18 12:41:27.76	319.02	7.88	
2025-01-18 12:41:28.78	319.16	7.83	
2025-01-18 12:41:29.79	319.29	7.78	
2025-01-18 12:41:30.81	319.43	7.74	
2025-01-18 12:41:31.82	319.56	7.69	
2025-01-18 12:41:32.84	319.70	7.64	
2025-01-18 12:41:33.85	319.83	7.59	
2025-01-18 12:41:34.87	319.97	7.55	
2025-01-18 12:41:35.88	320.10	7.50	
2025-01-18 12:41:36.90	320.24	7.45	
2025-01-18 12:41:37.91	320.37	7.40	
2025-01-18 12:41:38.93	320.50	7.36	
2025-01-18 12:41:39.94	320.63	7.31	
2025-01-18 12:41:40.96	320.77	7.26	
2025-01-18 12:41:41.97	320.90	7.21	
2025-01-18 12:41:42.99	321.03	7.16	
2025-01-18 12:41:44.00	321.16	7.12	
2025-01-18 12:41:45.02	321.29	7.07	
2025-01-18 12:41:46.03	321.42	7.02	
2025-01-18 12:41:47.05	321.55	6.97	
2025-01-18 12:41:48.06	321.67	6.93	
2025-01-18 12:41:49.08	321.80	6.88	
2025-01-18 12:41:50.09	321.93	6.83	
2025-01-18 12:41:51.11	322.06	6.78	
2025-01-18 12:41:52.12	322.19	6.73	
2025-01-18 12:41:53.14	322.31	6.69	
2025-01-18 12:41:54.15	322.44	6.64	
2025-01-18 12:41:55.16	322.56	6.59	
2025-01-18 12:41:56.18	322.69	6.54	
2025-01-18 12:41:57.19	322.81	6.49	
2025-01-18 12:41:58.21	322.94	6.45	
2025-01-18 12:41:59.22	323.06	6.40	
2025-01-18 12:42:00.24	323.19	6.35	
2025-01-18 12:42:01.25	323.31	6.30	
2025-01-18 12:42:02.27	323.43	6.25	
2025-01-18 12:42:03.28	323.56	6.20	
2025-01-18 12:42:04.30	323.68	6.16	
2025-01-18 12:42:05.31	323.80	6.11	
2025-01-18 12:42:06.33	323.92	6.06	
2025-01-18 12:42:07.34	324.04	6.01	
2025-01-18 12:42:08.36	324.17	5.96	
2025-01-18 12:42:09.37	324.29	5.91	
2025-01-18 12:42:10.39	324.41	5.87	
2025-01-18 12:42:11.40	324.53	5.82	
2025-01-18 12:42:12.42	324.65	5.77	
2025-01-18 12:42:13.43	324.76	5.72	
2025-01-18 12:42:14.45	324.88	5.67	
2025-01-18 12:42:15.46	325.00	5.62	
2025-01-18 12:42:16.48	325.12	5.58	
2025-01-18 12:42:17.49	325.24	5.53	
2025-01-18 12:42:18.51	325.35	5.48	
2025-01-18 12:42:19.52	325.47	5.43	
2025-01-18 12:42:20.54	325.59	5.38	
2025-01-18 12:42:21.55	325.70	5.33	
2025-01-18 12:42:22.57	325.82	5.29	
2025-01-18 12:42:23.58	325.93	5.24	
2025-01-18 12:42:24.60	326.05	5.19	
2025-01-18 12:42:25.61	326.16	5.14	
2025-01-18 12:42:26.63	326.28	5.09	
2025-01-18 12:42:27.64	326.39	5.04	
2025-01-18 12:42:28.66	326.50	4.99	
2025-01-18 12:42:29.67	326.62	4.95	
2025-01-18 12:42:30.69	326.73	4.90	
2025-01-18 12:42:31.70	326.84	4.85	
2025-01-18 12:42:32.72	326.95	4.80	
2025-01-18 12:42:33.73	327.06	4.75	
2025-01-18 12:42:34.75	327.18	4.70	
2025-01-18 12:42:35.76	327.29	4.66	
2025-01-18 12:42:36.78	327.40	4.61	
2025-01-18 12:42:37.79	327.51	4.56	
2025-01-18 12:42:38.81	327.62	4.51	
2025-01-18 12:42:39.82	327.73	4.46	
2025-01-18 12:42:40.84	327.84	4.41	
2025-01-18 12:42:41.85	327.94	4.36	
2025-01-18 12:42:42.87	328.05	4.32	
2025-01-18 12:42:43.88	328.16	4.27	
2025-01-18 12:42:44.90	328.27	4.22	
2025-01-18 12:42:45.91	328.38	4.17	
2025-01-18 12:42:46.93	328.48	4.12	
2025-01-18 12:42:47.94	328.59	4.07	
2025-01-18 12:42:48.96	328.70	4.03	

#Closed at: 2025-01-18 12:42:49