passes_logs/2026/01/19/R2M6_AANII_01/R2M6_AANII_01__20260119_222204_NOAA_20_JPSS-1_rec.log

#Pass ID: 20260119_222204_NOAA 20 (JPSS-1)
#Satellite: NOAA 20 (JPSS-1)
#Configuration: NOAA 20
#almurnet v.1.7.20240730
#Start time: 2026-01-19 22:22:04

#Version: 2.2.20231116
#Station: R2M6_AANII_01
#Location: 30.233357 lon 59.946436 lat
#TLE: 1 43013U 17073A   26019.27717929  .00000087  00000+0  62288-4 0  9995
#TLE: 2 43013  98.7641 320.1715 0001339  33.1986 326.9274 14.19537047423343

#Time	Az	El	Level	Level2	SNR	BER	BlckErr	Temp	State	Recorded	gain1	gain2
2026-01-19 22:22:04.06	34.48	6.96	-31.6	-37.0	5.3	1.15e+00	0	41	0	0	23	6671
2026-01-19 22:22:07.07	34.83	7.12	-32.7	-41.2	5.5	5.54e-01	0	42	0	1048576	25	9632
2026-01-19 22:22:10.07	35.17	7.28	-32.5	-40.1	6.1	3.38e-01	0	42	0	7340032	25	8597
2026-01-19 22:22:13.07	35.52	7.44	-32.0	-38.0	8.1	1.08e-01	0	42	0	12582912	24	7175
2026-01-19 22:22:16.08	35.88	7.61	-31.4	-35.4	10.2	1.94e-02	0	42	0	17825792	24	5712
2026-01-19 22:22:19.08	36.24	7.77	-31.4	-36.0	10.1	8.02e-03	0	42	0	24117248	23	6085
2026-01-19 22:22:22.10	36.60	7.94	-31.0	-34.7	11.1	2.13e-03	0	42	0	29360128	23	5479
2026-01-19 22:22:25.11	36.97	8.10	-31.0	-34.5	11.3	1.59e-03	0	42	0	35651584	23	5412
2026-01-19 22:22:28.11	37.34	8.26	-31.1	-34.7	11.2	1.32e-03	0	42	0	40894464	23	5478
2026-01-19 22:22:31.12	37.72	8.43	-31.1	-34.7	11.2	1.28e-03	0	43	0	46137344	23	5492
2026-01-19 22:22:34.13	38.09	8.59	-31.1	-34.7	11.2	1.68e-03	0	42	0	52428800	23	5483
2026-01-19 22:22:37.14	38.48	8.76	-31.2	-35.2	10.9	1.51e-03	0	43	0	57671680	23	5693
2026-01-19 22:22:40.15	38.87	8.92	-31.2	-35.1	11.0	3.06e-03	0	43	0	62914560	23	5647
2026-01-19 22:22:43.15	39.26	9.09	-31.0	-34.5	11.4	9.05e-04	0	43	0	69206016	23	5385
2026-01-19 22:22:46.15	39.65	9.25	-31.0	-34.5	11.5	1.01e-03	0	43	0	74448896	23	5385
2026-01-19 22:22:49.16	40.05	9.41	-31.0	-34.3	11.6	8.22e-04	0	43	0	80740352	23	5278
2026-01-19 22:22:52.17	40.46	9.58	-30.9	-34.1	11.8	5.68e-04	0	43	0	85983232	23	5197
2026-01-19 22:22:55.18	40.87	9.74	-30.9	-34.2	11.7	4.85e-04	0	43	0	91226112	23	5252
2026-01-19 22:22:58.19	41.28	9.90	-30.7	-34.0	12.3	1.97e-04	0	43	0	97517568	22	5241
2026-01-19 22:23:01.20	41.70	10.07	-30.7	-33.8	12.3	2.36e-04	0	43	0	102760448	22	5192
2026-01-19 22:23:04.20	42.12	10.23	-30.6	-33.5	12.6	1.60e-04	0	43	0	108003328	22	5057
2026-01-19 22:23:07.21	42.55	10.39	-30.7	-33.9	12.4	1.52e-04	0	43	0	114294784	22	5201
2026-01-19 22:23:10.21	42.98	10.56	-30.5	-33.4	12.8	4.73e-05	0	43	0	119537664	22	4996
2026-01-19 22:23:13.21	43.41	10.72	-30.4	-33.5	13.0	3.28e-05	0	43	0	125829120	21	5158
2026-01-19 22:23:16.23	43.85	10.88	-30.2	-33.1	13.3	3.66e-05	0	43	0	131072000	21	4985
2026-01-19 22:23:19.23	44.30	11.04	-30.3	-33.4	13.1	4.95e-05	0	43	0	136314880	21	5099
2026-01-19 22:23:22.25	44.75	11.20	-30.4	-33.4	13.0	3.35e-05	0	43	0	142606336	21	5126
2026-01-19 22:23:25.27	45.21	11.36	-30.4	-33.5	12.9	6.02e-05	0	43	0	147849216	21	5137
2026-01-19 22:23:28.27	45.67	11.52	-30.5	-33.8	12.8	5.34e-05	0	43	0	154140672	21	5264
2026-01-19 22:23:31.28	46.13	11.68	-30.4	-33.4	13.0	8.54e-05	0	43	0	159383552	21	5110
2026-01-19 22:23:34.29	46.60	11.84	-30.4	-33.5	13.1	4.11e-05	0	43	0	164626432	21	5121
2026-01-19 22:23:37.30	47.08	12.00	-30.5	-33.7	12.9	3.05e-05	0	44	0	170917888	21	5204
2026-01-19 22:23:40.31	47.56	12.16	-30.5	-33.7	12.9	3.81e-05	0	44	0	176160768	21	5214
2026-01-19 22:23:43.31	48.04	12.31	-30.6	-34.0	12.7	9.23e-05	0	43	0	181403648	21	5326
2026-01-19 22:23:46.31	48.53	12.47	-30.4	-33.3	13.1	2.28e-05	0	44	0	187695104	21	5084
2026-01-19 22:23:49.31	49.02	12.62	-30.4	-33.6	13.0	2.67e-05	0	44	0	192937984	21	5161
2026-01-19 22:23:52.32	49.52	12.77	-30.6	-34.2	12.6	8.62e-05	0	44	0	199229440	21	5403
2026-01-19 22:23:55.34	50.03	12.93	-30.7	-34.3	12.6	4.75e-04	0	44	0	204472320	21	5441
2026-01-19 22:23:58.35	50.54	13.08	-31.0	-34.7	12.0	4.48e-04	0	44	0	209715200	22	5501
2026-01-19 22:24:01.37	51.06	13.23	-31.0	-34.6	12.0	2.64e-04	0	44	0	216006656	22	5474
2026-01-19 22:24:04.37	51.58	13.38	-31.0	-34.8	11.9	4.61e-04	0	44	0	221249536	22	5532
2026-01-19 22:24:07.37	52.10	13.53	-30.9	-34.4	12.3	2.08e-04	0	44	0	226492416	22	5365
2026-01-19 22:24:10.37	52.63	13.67	-31.1	-34.9	11.8	2.94e-04	0	44	0	232783872	22	5597
2026-01-19 22:24:13.39	53.17	13.82	-31.2	-35.3	11.6	6.93e-04	0	44	0	238026752	22	5749
2026-01-19 22:24:16.40	53.71	13.96	-31.3	-35.7	11.4	1.06e-03	0	44	0	244318208	22	5936
2026-01-19 22:24:19.40	54.25	14.11	-31.3	-35.6	11.4	7.80e-04	0	44	0	249561088	22	5901
2026-01-19 22:24:22.41	54.80	14.25	-31.3	-35.1	11.4	1.24e-03	0	44	0	254803968	23	5580
2026-01-19 22:24:25.42	55.36	14.39	-31.4	-35.7	11.3	1.20e-03	0	44	0	261095424	22	5944
2026-01-19 22:24:28.43	55.92	14.52	-31.5	-35.7	11.0	1.59e-03	0	44	0	266338304	23	5847
2026-01-19 22:24:31.44	56.49	14.66	-31.6	-35.9	10.8	2.23e-03	0	44	0	272629760	23	5911
2026-01-19 22:24:34.45	57.06	14.79	-31.7	-36.4	10.6	3.67e-03	0	44	0	277872640	23	6146
2026-01-19 22:24:37.45	57.64	14.92	-31.8	-36.5	10.4	6.17e-03	0	44	0	283115520	23	6229
2026-01-19 22:24:40.45	58.22	15.05	-31.9	-37.1	10.1	7.78e-03	0	44	0	289406976	23	6506
2026-01-19 22:24:43.47	58.80	15.18	-31.9	-37.1	10.0	8.13e-03	0	44	0	294649856	23	6506
2026-01-19 22:24:46.49	59.40	15.31	-31.8	-36.8	10.2	7.92e-03	0	44	0	299892736	23	6360
2026-01-19 22:24:49.50	59.99	15.43	-31.3	-35.6	11.5	7.95e-04	0	44	0	306184192	22	5877
2026-01-19 22:24:52.50	60.59	15.55	-31.2	-35.0	11.9	4.18e-04	0	44	0	311427072	22	5607
2026-01-19 22:24:55.50	61.20	15.67	-31.3	-35.3	11.8	7.43e-04	0	44	0	317718528	22	5741
2026-01-19 22:24:58.51	61.81	15.79	-30.9	-34.8	12.4	7.33e-04	0	44	0	322961408	21	5649
2026-01-19 22:25:01.52	62.42	15.90	-30.6	-34.0	13.0	5.90e-04	0	44	0	328204288	21	5306
2026-01-19 22:25:04.53	63.04	16.01	-30.6	-33.8	13.1	5.50e-04	0	44	0	334495744	21	5222
2026-01-19 22:25:07.54	63.67	16.12	-30.4	-33.7	13.5	4.49e-04	0	44	0	339738624	20	5301
2026-01-19 22:25:10.55	64.30	16.23	-30.3	-33.7	13.6	2.56e-04	0	44	0	344981504	20	5284
2026-01-19 22:25:13.56	64.93	16.33	-30.4	-33.7	13.5	8.62e-05	0	44	0	351272960	20	5307
2026-01-19 22:25:16.57	65.57	16.43	-30.6	-33.9	13.1	1.91e-04	0	44	0	356515840	21	5241
2026-01-19 22:25:19.58	66.21	16.53	-30.8	-34.4	12.8	1.21e-04	0	44	0	362807296	21	5439
2026-01-19 22:25:22.58	66.85	16.62	-30.8	-34.6	12.6	1.59e-04	0	44	0	368050176	21	5533
2026-01-19 22:25:25.58	67.50	16.71	-30.7	-34.3	12.7	1.56e-04	0	44	0	373293056	21	5437
2026-01-19 22:25:28.58	68.15	16.80	-30.9	-34.7	12.4	9.46e-05	0	44	0	379584512	21	5596
2026-01-19 22:25:31.60	68.81	16.88	-30.9	-34.1	12.6	8.31e-05	0	44	0	384827392	22	5222
2026-01-19 22:25:34.60	69.47	16.97	-30.9	-34.6	12.6	7.93e-05	0	44	0	390070272	21	5555
2026-01-19 22:25:37.61	70.13	17.04	-30.9	-34.7	12.6	5.19e-04	0	44	0	396361728	21	5597
2026-01-19 22:25:40.62	70.80	17.12	-30.9	-34.7	12.6	3.90e-04	0	44	0	401604608	21	5588
2026-01-19 22:25:43.63	71.47	17.19	-30.8	-34.5	12.7	1.22e-04	0	44	0	407896064	21	5490
2026-01-19 22:25:46.63	72.14	17.26	-30.8	-33.9	12.8	8.23e-05	0	44	0	413138944	22	5158
2026-01-19 22:25:49.63	72.81	17.32	-30.9	-34.1	12.5	6.63e-05	0	44	0	418381824	22	5248
2026-01-19 22:25:52.64	73.49	17.38	-30.9	-34.1	12.6	9.99e-05	0	44	0	424673280	22	5229
2026-01-19 22:25:55.64	74.17	17.44	-30.9	-34.2	12.6	1.51e-04	0	44	0	429916160	22	5260
2026-01-19 22:25:58.65	74.85	17.49	-31.0	-34.6	12.3	1.91e-04	0	44	0	435159040	22	5418
2026-01-19 22:26:01.66	75.54	17.54	-30.9	-34.3	12.5	7.09e-05	0	44	0	441450496	22	5290
2026-01-19 22:26:04.67	76.23	17.58	-31.2	-35.0	12.0	3.78e-04	0	44	0	446693376	22	5616
2026-01-19 22:26:07.68	76.92	17.62	-31.1	-34.9	12.1	3.53e-04	0	44	0	452984832	22	5530
2026-01-19 22:26:10.69	77.61	17.66	-30.8	-34.5	12.7	8.62e-05	0	44	0	458227712	21	5502
2026-01-19 22:26:13.69	78.30	17.70	-30.7	-34.2	12.9	6.10e-05	0	44	0	463470592	21	5364
2026-01-19 22:26:16.68	79.00	17.72	-30.8	-34.4	12.7	7.09e-05	0	44	0	469762048	21	5469
2026-01-19 22:26:19.69	79.69	17.75	-31.0	-34.9	12.4	1.08e-04	0	44	0	475004928	21	5677
2026-01-19 22:26:22.71	80.39	17.77	-30.9	-34.2	12.6	9.61e-05	0	44	0	481296384	22	5269
2026-01-19 22:26:25.72	81.09	17.79	-30.8	-33.9	12.8	4.80e-05	0	44	0	486539264	22	5168
2026-01-19 22:26:28.73	81.79	17.80	-30.8	-34.0	12.7	7.93e-05	0	44	0	491782144	22	5208
2026-01-19 22:26:31.74	82.49	17.81	-30.9	-34.1	12.6	7.01e-05	0	44	0	498073600	22	5233
2026-01-19 22:26:34.74	83.19	17.81	-31.0	-34.4	12.5	1.44e-04	0	44	0	503316480	22	5344
2026-01-19 22:26:37.74	83.89	17.81	-30.9	-34.2	12.6	7.85e-05	0	44	0	508559360	22	5275
2026-01-19 22:26:40.75	84.59	17.81	-30.8	-33.8	12.8	5.56e-05	0	44	0	514850816	22	5099
2026-01-19 22:26:43.74	85.28	17.80	-30.9	-34.1	12.7	6.71e-05	0	44	0	520093696	22	5221
2026-01-19 22:26:46.75	85.98	17.79	-30.8	-34.1	12.7	8.85e-05	0	44	0	525336576	22	5217
2026-01-19 22:26:49.75	86.68	17.78	-31.0	-34.6	12.3	1.68e-04	0	44	0	531628032	22	5416
2026-01-19 22:26:52.74	87.37	17.76	-31.2	-35.0	12.0	3.34e-04	0	44	0	536870912	22	5592
2026-01-19 22:26:55.75	88.07	17.73	-31.1	-34.8	12.1	4.10e-04	0	44	0	543162368	22	5531
2026-01-19 22:26:58.76	88.77	17.70	-31.0	-34.4	12.4	2.04e-04	0	44	0	548405248	22	5369
2026-01-19 22:27:01.77	89.46	17.67	-30.6	-33.5	12.9	3.28e-05	0	44	0	553648128	22	4997
2026-01-19 22:27:04.77	90.15	17.64	-30.6	-33.5	13.0	5.18e-05	0	44	0	559939584	22	5006
2026-01-19 22:27:07.78	90.85	17.60	-30.7	-33.7	12.9	4.88e-05	0	44	0	565182464	22	5079
2026-01-19 22:27:10.79	91.54	17.55	-30.6	-33.3	13.2	3.20e-05	0	44	0	570425344	22	4940
2026-01-19 22:27:13.80	92.22	17.51	-30.4	-33.0	13.3	2.67e-05	0	44	0	576716800	22	4806
2026-01-19 22:27:16.81	92.91	17.45	-30.3	-33.0	13.7	1.06e-05	0	44	0	581959680	21	4925
2026-01-19 22:27:19.82	93.59	17.40	-30.4	-33.4	13.4	6.10e-06	0	44	0	588251136	21	5069
2026-01-19 22:27:22.83	94.27	17.34	-30.2	-32.9	13.7	5.30e-06	0	44	0	593494016	21	4893
2026-01-19 22:27:25.84	94.95	17.28	-30.3	-33.0	13.6	9.10e-06	0	44	0	598736896	21	4916
2026-01-19 22:27:28.86	95.63	17.21	-30.3	-33.6	13.5	1.29e-05	0	44	0	605028352	20	5272
2026-01-19 22:27:31.86	96.30	17.14	-30.4	-33.8	13.4	9.10e-06	0	44	0	610271232	20	5333
2026-01-19 22:27:34.88	96.97	17.06	-30.1	-33.0	14.0	3.80e-06	0	44	0	616562688	20	5017
2026-01-19 22:27:37.88	97.64	16.99	-30.0	-32.7	14.1	1.50e-06	0	44	0	621805568	20	4929
2026-01-19 22:27:40.89	98.30	16.91	-29.9	-32.6	14.1	3.00e-06	0	44	0	627048448	20	4907
2026-01-19 22:27:43.90	98.96	16.82	-29.7	-31.9	14.6	0.00e+00	0	44	0	633339904	20	4656
2026-01-19 22:27:46.90	99.62	16.74	-30.0	-32.7	14.0	3.00e-06	0	44	0	638582784	20	4936
2026-01-19 22:27:49.91	100.27	16.65	-29.9	-32.5	14.2	3.00e-06	0	44	0	643825664	20	4871
2026-01-19 22:27:52.92	100.92	16.55	-29.8	-32.3	14.3	7.00e-07	0	44	0	650117120	20	4799
2026-01-19 22:27:55.93	101.56	16.45	-29.8	-32.2	14.4	7.00e-07	0	44	0	655360000	20	4766
2026-01-19 22:27:58.93	102.20	16.36	-30.1	-33.0	13.9	2.20e-06	0	44	0	661651456	20	5045
2026-01-19 22:28:01.94	102.84	16.25	-30.3	-33.5	13.5	9.10e-06	0	44	0	666894336	20	5241
2026-01-19 22:28:04.95	103.47	16.15	-30.3	-33.6	13.4	1.44e-05	0	44	0	672137216	20	5291
2026-01-19 22:28:07.96	104.09	16.04	-30.3	-33.1	13.4	1.22e-05	0	44	0	678428672	21	4962
2026-01-19 22:28:10.97	104.72	15.93	-30.0	-32.4	13.9	6.10e-06	0	44	0	683671552	21	4721
2026-01-19 22:28:13.96	105.33	15.81	-30.0	-32.3	13.9	3.80e-06	0	44	0	688914432	21	4693
2026-01-19 22:28:16.97	105.95	15.70	-30.1	-33.2	13.6	5.30e-06	0	44	0	695205888	20	5133
2026-01-19 22:28:19.98	106.56	15.58	-30.7	-34.4	12.5	8.62e-05	0	44	0	700448768	21	5492
2026-01-19 22:28:22.99	107.16	15.46	-30.8	-34.7	12.3	1.45e-04	0	44	0	706740224	21	5609
2026-01-19 22:28:26.00	107.76	15.33	-30.8	-34.7	12.3	1.62e-04	0	44	0	711983104	21	5606
2026-01-19 22:28:28.99	108.35	15.21	-30.9	-34.2	12.3	2.06e-04	0	44	0	717225984	22	5314
2026-01-19 22:28:32.00	108.94	15.08	-30.7	-33.6	12.8	1.40e-04	0	44	0	723517440	22	5069
2026-01-19 22:28:35.00	109.53	14.95	-30.6	-33.6	12.7	6.40e-05	0	44	0	728760320	22	5074
2026-01-19 22:28:38.01	110.11	14.82	-30.8	-34.1	12.4	1.50e-04	0	44	0	734003200	22	5247
2026-01-19 22:28:41.02	110.68	14.68	-30.9	-34.4	12.2	2.37e-04	0	45	0	740294656	22	5394
2026-01-19 22:28:44.02	111.25	14.55	-30.9	-34.5	12.1	3.90e-04	0	44	0	745537536	22	5452
2026-01-19 22:28:47.03	111.82	14.41	-31.1	-35.1	11.6	7.99e-04	0	44	0	751828992	22	5675
2026-01-19 22:28:50.03	112.37	14.27	-31.0	-34.8	11.8	6.33e-04	0	44	0	757071872	22	5574
2026-01-19 22:28:53.05	112.93	14.13	-31.0	-34.8	11.8	5.82e-04	0	44	0	762314752	22	5576
2026-01-19 22:28:56.07	113.48	13.98	-31.0	-34.6	12.0	3.65e-04	0	44	0	768606208	22	5466
2026-01-19 22:28:59.08	114.03	13.84	-30.9	-34.4	12.1	3.58e-04	0	44	0	773849088	22	5385
2026-01-19 22:29:02.09	114.57	13.69	-30.8	-34.1	12.2	1.90e-04	0	44	0	779091968	22	5277
2026-01-19 22:29:05.09	115.10	13.55	-31.0	-34.7	11.8	4.81e-04	0	44	0	785383424	22	5508
2026-01-19 22:29:08.09	115.63	13.40	-30.6	-34.2	12.5	5.34e-04	0	44	0	790626304	21	5422
2026-01-19 22:29:11.10	116.15	13.25	-31.1	-35.1	11.5	7.12e-04	0	44	0	796917760	22	5711
2026-01-19 22:29:14.12	116.67	13.10	-31.3	-35.7	11.0	1.90e-03	0	44	0	802160640	22	6004
2026-01-19 22:29:17.12	117.19	12.94	-31.1	-35.1	11.5	1.11e-03	0	44	0	807403520	22	5711
2026-01-19 22:29:20.12	117.69	12.79	-30.8	-34.3	12.0	3.49e-04	0	44	0	813694976	22	5370
2026-01-19 22:29:23.12	118.19	12.64	-30.7	-33.8	12.4	1.49e-04	0	44	0	818937856	22	5174
2026-01-19 22:29:26.13	118.69	12.48	-30.7	-34.0	12.2	1.88e-04	0	44	0	824180736	22	5244
2026-01-19 22:29:29.15	119.19	12.32	-30.5	-33.2	12.8	1.52e-04	0	44	0	830472192	22	4950
2026-01-19 22:29:32.15	119.68	12.17	-30.5	-33.8	12.6	2.05e-04	0	44	0	835715072	21	5295
2026-01-19 22:29:35.16	120.16	12.01	-30.6	-34.2	12.3	1.62e-04	0	44	0	842006528	21	5464
2026-01-19 22:29:38.16	120.64	11.85	-30.6	-34.4	12.3	1.93e-04	0	44	0	847249408	21	5520
2026-01-19 22:29:41.16	121.11	11.69	-30.4	-33.7	12.7	1.01e-04	0	44	0	852492288	21	5233
2026-01-19 22:29:44.16	121.57	11.53	-30.2	-33.2	13.0	4.95e-05	0	44	0	858783744	21	5038
2026-01-19 22:29:47.17	122.04	11.37	-30.6	-34.3	12.3	1.58e-04	0	44	0	864026624	21	5471
2026-01-19 22:29:50.16	122.49	11.21	-30.5	-33.9	12.5	1.18e-04	0	44	0	869269504	21	5325
2026-01-19 22:29:53.17	122.95	11.05	-30.2	-33.2	13.0	5.79e-05	0	44	0	875560960	21	5065
2026-01-19 22:29:56.19	123.40	10.88	-30.3	-33.2	13.0	6.40e-05	0	44	0	880803840	21	5063
2026-01-19 22:29:59.18	123.84	10.72	-30.6	-34.2	12.3	2.04e-04	0	44	0	887095296	21	5455
2026-01-19 22:30:02.20	124.28	10.56	-30.7	-34.7	11.8	3.81e-04	0	44	0	892338176	21	5709
2026-01-19 22:30:05.21	124.71	10.39	-30.7	-34.6	11.9	3.74e-04	0	44	0	897581056	21	5634
2026-01-19 22:30:08.23	125.15	10.23	-30.6	-34.4	12.1	2.66e-04	0	45	0	903872512	21	5563
2026-01-19 22:30:11.23	125.57	10.06	-30.7	-34.8	11.8	4.28e-04	0	44	0	909115392	21	5717
2026-01-19 22:30:14.23	125.99	9.90	-30.7	-34.8	11.8	5.55e-04	0	44	0	914358272	21	5720
2026-01-19 22:30:17.25	126.41	9.73	-30.8	-35.0	11.5	6.42e-04	0	44	0	920649728	21	5839
2026-01-19 22:30:20.26	126.82	9.57	-30.6	-34.5	11.9	4.75e-04	0	44	0	925892608	21	5628
2026-01-19 22:30:23.27	127.22	9.40	-30.8	-35.1	11.5	8.15e-04	0	44	0	932184064	21	5891
2026-01-19 22:30:26.27	127.63	9.24	-31.2	-35.7	10.7	2.53e-03	0	44	0	937426944	22	6078
2026-01-19 22:30:29.27	128.02	9.07	-31.1	-35.5	10.8	2.68e-03	0	44	0	942669824	22	5955
2026-01-19 22:30:32.28	128.42	8.90	-31.0	-35.2	11.0	2.25e-03	0	45	0	948961280	22	5821
2026-01-19 22:30:35.28	128.81	8.74	-30.9	-35.1	11.0	1.93e-03	0	44	0	954204160	22	5791
2026-01-19 22:30:38.29	129.19	8.57	-31.1	-35.6	10.6	3.65e-03	0	45	0	959447040	22	6087
2026-01-19 22:30:41.30	129.57	8.41	-30.9	-35.3	10.8	3.22e-03	0	44	0	965738496	22	5922
2026-01-19 22:30:44.29	129.95	8.24	-30.9	-35.3	10.6	2.89e-03	0	44	0	970981376	22	5978
2026-01-19 22:30:47.30	130.32	8.08	-31.2	-36.3	9.9	8.22e-03	0	44	0	977272832	22	6485
2026-01-19 22:30:50.31	130.69	7.91	-31.4	-36.8	9.5	1.68e-02	0	44	0	982515712	22	6721
2026-01-19 22:30:53.32	131.05	7.74	-31.6	-37.2	8.7	5.07e-02	0	44	0	987758592	23	6889
2026-01-19 22:30:56.33	131.41	7.58	-31.7	-37.7	8.3	3.91e-02	0	44	0	994050048	23	7207
2026-01-19 22:30:59.33	131.77	7.41	-31.3	-36.4	9.3	2.19e-02	0	44	0	999292928	23	6448
2026-01-19 22:31:02.33	132.12	7.25	-31.1	-36.1	10.0	8.06e-03	0	44	0	1004535808	22	6364
2026-01-19 22:31:05.33	132.47	7.08	-32.5	-42.4	5.2	5.37e-02	0	44	0	1010827264	24	11262
2026-01-19 22:31:08.33	132.81	6.92	-34.0	-48.6	3.8	1.49e+00	0	45	104	1010827264	27	19388

#Closed at: 2026-01-19 22:31:08
#Recorded file [1010 MB]: D:/data/31010_260120_012205.dat