passes_logs/2026/01/19/R2M6_AANII_01/R2M6_AANII_01__20260119_074554_NOAA_21_JPSS-2_rec.log

#Pass ID: 20260119_074554_NOAA 21 (JPSS-2)
#Satellite: NOAA 21 (JPSS-2)
#Configuration: NOAA 21
#almurnet v.1.7.20240730
#Start time: 2026-01-19 07:45:53

#Version: 2.2.20231116
#Station: R2M6_AANII_01
#Location: 30.233357 lon 59.946436 lat
#TLE: 1 54234U 22150A   26017.90260625  .00000050  00000+0  44518-4 0  9994
#TLE: 2 54234  98.7502 318.7672 0000612 269.1755  90.9351 14.19535344165221

#Time	Az	El	Level	Level2	SNR	BER	BlckErr	Temp	State	Recorded	gain1	gain2
2026-01-19 07:45:53.89	80.71	6.97	-32.8	-40.6	3.9	1.48e+00	0	41	0	0	27	8874
2026-01-19 07:45:55.89	80.48	7.08	-31.2	-35.1	8.5	5.13e-02	0	41	0	0	23	5621
2026-01-19 07:45:57.90	80.24	7.19	-31.2	-35.0	8.6	4.29e-02	0	41	0	6291456	23	5563
2026-01-19 07:45:59.90	80.01	7.29	-31.1	-34.6	8.9	3.60e-02	0	41	0	12582912	23	5389
2026-01-19 07:46:01.89	79.77	7.40	-31.4	-35.7	8.1	5.19e-02	0	41	0	18874368	23	5904
2026-01-19 07:46:03.90	79.53	7.51	-30.7	-33.9	9.8	1.26e-02	0	41	0	24117248	22	5199
2026-01-19 07:46:05.91	79.29	7.62	-30.0	-32.4	11.1	2.65e-03	0	41	0	30408704	21	4731
2026-01-19 07:46:07.91	79.05	7.73	-29.4	-31.3	12.2	2.39e-04	0	41	0	36700160	20	4465
2026-01-19 07:46:09.91	78.80	7.84	-29.3	-31.5	12.5	1.37e-04	0	42	0	42991616	19	4631
2026-01-19 07:46:11.92	78.55	7.94	-29.4	-31.7	12.4	1.13e-04	0	42	0	49283072	19	4682
2026-01-19 07:46:13.92	78.31	8.05	-29.5	-32.0	12.2	2.66e-04	0	42	0	55574528	19	4785
2026-01-19 07:46:15.93	78.05	8.16	-29.2	-31.1	12.8	9.46e-05	0	42	0	61865984	19	4518
2026-01-19 07:46:17.93	77.80	8.27	-29.1	-31.0	12.9	6.48e-05	0	42	0	68157440	19	4476
2026-01-19 07:46:19.95	77.55	8.38	-29.2	-31.2	12.8	5.26e-05	0	42	0	74448896	19	4530
2026-01-19 07:46:21.96	77.29	8.48	-29.3	-31.3	12.7	8.01e-05	0	42	0	80740352	19	4567
2026-01-19 07:46:23.96	77.03	8.59	-29.1	-30.9	13.0	4.65e-05	0	42	0	87031808	19	4441
2026-01-19 07:46:25.97	76.77	8.70	-29.2	-31.1	12.9	5.03e-05	0	42	0	93323264	19	4499
2026-01-19 07:46:27.98	76.51	8.81	-29.0	-30.8	13.1	3.05e-05	0	42	0	99614720	19	4407
2026-01-19 07:46:29.98	76.24	8.91	-29.1	-31.0	13.0	5.18e-05	0	42	0	105906176	19	4463
2026-01-19 07:46:31.98	75.98	9.02	-29.2	-31.1	12.9	3.28e-05	0	42	0	112197632	19	4485
2026-01-19 07:46:33.99	75.71	9.13	-29.2	-31.1	12.9	4.19e-05	0	42	0	118489088	19	4498
2026-01-19 07:46:36.00	75.44	9.24	-29.0	-30.7	13.2	1.75e-05	0	42	0	124780544	19	4355
2026-01-19 07:46:37.99	75.17	9.34	-29.0	-30.7	13.1	2.67e-05	0	42	0	131072000	19	4380
2026-01-19 07:46:40.01	74.89	9.45	-29.1	-30.9	13.1	4.42e-05	0	42	0	137363456	19	4417
2026-01-19 07:46:42.01	74.62	9.56	-29.1	-30.9	13.1	3.20e-05	0	42	0	143654912	19	4415
2026-01-19 07:46:44.01	74.34	9.66	-29.0	-30.7	13.2	2.28e-05	0	42	0	149946368	19	4358
2026-01-19 07:46:46.02	74.06	9.77	-29.2	-31.0	13.0	3.35e-05	0	42	0	156237824	19	4465
2026-01-19 07:46:48.02	73.78	9.87	-29.2	-31.2	12.9	5.79e-05	0	42	0	162529280	19	4523
2026-01-19 07:46:50.03	73.49	9.98	-29.2	-31.3	12.9	5.49e-05	0	42	0	168820736	19	4538
2026-01-19 07:46:52.03	73.21	10.08	-29.3	-31.5	12.7	6.79e-05	0	42	0	175112192	19	4619
2026-01-19 07:46:54.04	72.92	10.19	-29.3	-31.5	12.8	7.47e-05	0	43	0	181403648	19	4603
2026-01-19 07:46:56.04	72.63	10.30	-29.3	-31.4	12.8	6.63e-05	0	42	0	187695104	19	4576
2026-01-19 07:46:58.05	72.33	10.40	-29.3	-31.4	12.8	5.64e-05	0	42	0	193986560	19	4577
2026-01-19 07:47:00.06	72.04	10.50	-29.2	-31.2	13.0	5.34e-05	0	42	0	200278016	19	4514
2026-01-19 07:47:02.07	71.74	10.61	-29.2	-31.2	13.0	3.58e-05	0	42	0	206569472	19	4523
2026-01-19 07:47:04.07	71.44	10.71	-29.3	-31.4	12.9	4.57e-05	0	43	0	212860928	19	4584
2026-01-19 07:47:06.08	71.14	10.82	-29.4	-31.5	12.8	4.50e-05	0	43	0	219152384	19	4605
2026-01-19 07:47:08.08	70.83	10.92	-29.7	-32.4	12.3	1.52e-04	0	43	0	225443840	19	4908
2026-01-19 07:47:10.08	70.53	11.02	-29.4	-31.5	12.8	5.87e-05	0	43	0	231735296	19	4620
2026-01-19 07:47:12.09	70.22	11.12	-29.4	-31.6	12.7	5.11e-05	0	43	0	238026752	19	4653
2026-01-19 07:47:14.10	69.91	11.23	-29.4	-31.6	12.8	5.79e-05	0	43	0	244318208	19	4632
2026-01-19 07:47:16.11	69.60	11.33	-29.2	-31.2	13.0	4.42e-05	0	43	0	250609664	19	4505
2026-01-19 07:47:18.11	69.28	11.43	-28.9	-30.4	13.5	8.30e-06	0	43	0	256901120	19	4267
2026-01-19 07:47:20.12	68.97	11.53	-28.8	-30.1	13.7	4.50e-06	0	43	0	263192576	19	4194
2026-01-19 07:47:22.13	68.65	11.63	-28.9	-30.8	13.6	6.80e-06	0	43	0	269484032	18	4505
2026-01-19 07:47:24.13	68.33	11.73	-28.9	-30.8	13.6	4.50e-06	0	43	0	275775488	18	4489
2026-01-19 07:47:26.13	68.00	11.83	-29.0	-31.2	13.4	1.52e-05	0	43	0	281018368	18	4617
2026-01-19 07:47:28.14	67.68	11.93	-29.0	-31.1	13.4	1.06e-05	0	43	0	288358400	18	4585
2026-01-19 07:47:30.15	67.35	12.03	-29.2	-31.6	13.2	3.20e-05	0	43	0	294649856	18	4729
2026-01-19 07:47:32.16	67.02	12.12	-28.9	-30.8	13.7	4.50e-06	0	43	0	300941312	18	4479
2026-01-19 07:47:34.17	66.68	12.22	-28.9	-30.9	13.7	4.50e-06	0	43	0	306184192	18	4509
2026-01-19 07:47:36.18	66.35	12.32	-28.9	-30.8	13.7	8.30e-06	0	43	0	312475648	18	4474
2026-01-19 07:47:38.19	66.01	12.41	-28.9	-30.9	13.7	8.30e-06	0	43	0	318767104	18	4503
2026-01-19 07:47:40.19	65.67	12.51	-28.8	-30.6	13.8	1.50e-06	0	43	0	325058560	18	4425
2026-01-19 07:47:42.19	65.33	12.60	-29.0	-31.1	13.6	8.30e-06	0	43	0	331350016	18	4579
2026-01-19 07:47:44.20	64.99	12.70	-28.8	-30.6	13.9	7.00e-07	0	43	0	337641472	18	4411
2026-01-19 07:47:46.21	64.64	12.79	-29.0	-31.0	13.7	4.50e-06	0	43	0	343932928	18	4529
2026-01-19 07:47:48.21	64.29	12.89	-29.0	-31.0	13.6	6.80e-06	0	43	0	350224384	18	4537
2026-01-19 07:47:50.22	63.94	12.98	-28.7	-30.3	14.0	3.00e-06	0	43	0	356515840	18	4348
2026-01-19 07:47:52.23	63.59	13.07	-28.8	-30.6	13.9	1.50e-06	0	43	0	362807296	18	4413
2026-01-19 07:47:54.24	63.24	13.16	-28.7	-30.3	14.1	1.50e-06	0	43	0	369098752	18	4325
2026-01-19 07:47:56.24	62.88	13.25	-28.7	-30.2	14.1	0.00e+00	0	43	0	375390208	18	4305
2026-01-19 07:47:58.25	62.52	13.34	-28.8	-30.5	14.0	7.00e-07	0	43	0	381681664	18	4377
2026-01-19 07:48:00.25	62.16	13.43	-28.9	-30.7	13.8	3.00e-06	0	43	0	387973120	18	4450
2026-01-19 07:48:02.24	61.80	13.51	-29.0	-31.1	13.7	9.10e-06	0	43	0	394264576	18	4564
2026-01-19 07:48:04.25	61.43	13.60	-28.9	-30.9	13.8	3.80e-06	0	43	0	400556032	18	4498
2026-01-19 07:48:06.26	61.07	13.69	-29.1	-31.2	13.6	1.22e-05	0	43	0	406847488	18	4614
2026-01-19 07:48:08.26	60.70	13.77	-28.8	-30.7	13.9	4.50e-06	0	43	0	413138944	18	4432
2026-01-19 07:48:10.27	60.32	13.86	-28.9	-30.8	13.9	4.50e-06	0	43	0	419430400	18	4465
2026-01-19 07:48:12.27	59.95	13.94	-28.8	-30.6	14.0	1.50e-06	0	43	0	425721856	18	4413
2026-01-19 07:48:14.29	59.57	14.02	-28.8	-30.5	14.0	0.00e+00	0	43	0	432013312	18	4396
2026-01-19 07:48:16.29	59.20	14.10	-28.8	-30.6	13.9	3.80e-06	0	43	0	438304768	18	4422
2026-01-19 07:48:18.29	58.82	14.18	-28.8	-30.5	14.1	7.00e-07	0	43	0	444596224	18	4368
2026-01-19 07:48:20.30	58.43	14.26	-28.8	-30.5	14.0	2.20e-06	0	43	0	450887680	18	4386
2026-01-19 07:48:22.30	58.05	14.34	-28.8	-30.5	14.0	3.80e-06	0	43	0	457179136	18	4391
2026-01-19 07:48:24.31	57.66	14.42	-28.9	-30.8	13.9	3.00e-06	0	43	0	463470592	18	4468
2026-01-19 07:48:26.31	57.28	14.49	-28.9	-30.8	13.9	5.30e-06	0	43	0	469762048	18	4460
2026-01-19 07:48:28.31	56.89	14.57	-28.9	-30.9	13.8	5.30e-06	0	43	0	476053504	18	4493
2026-01-19 07:48:30.31	56.50	14.64	-28.9	-30.7	14.0	3.80e-06	0	43	0	482344960	18	4424
2026-01-19 07:48:32.31	56.10	14.72	-28.8	-30.4	14.1	1.50e-06	0	43	0	488636416	18	4349
2026-01-19 07:48:34.32	55.70	14.79	-28.9	-30.7	13.9	5.30e-06	0	43	0	494927872	18	4449
2026-01-19 07:48:36.33	55.31	14.86	-28.9	-30.8	13.8	7.00e-07	0	43	0	501219328	18	4485
2026-01-19 07:48:38.33	54.91	14.93	-28.7	-30.3	14.2	7.00e-07	0	43	0	507510784	18	4335
2026-01-19 07:48:40.33	54.51	14.99	-28.6	-29.9	14.4	7.00e-07	0	43	0	513802240	18	4225
2026-01-19 07:48:42.34	54.10	15.06	-28.5	-29.9	14.4	7.00e-07	0	43	0	520093696	18	4198
2026-01-19 07:48:44.36	53.69	15.13	-28.8	-30.4	14.2	7.00e-07	0	43	0	526385152	18	4349
2026-01-19 07:48:46.36	53.29	15.19	-28.7	-30.3	14.2	4.50e-06	0	43	0	532676608	18	4329
2026-01-19 07:48:48.37	52.88	15.25	-28.5	-29.9	14.5	1.50e-06	0	43	0	538968064	18	4195
2026-01-19 07:48:50.38	52.47	15.32	-28.5	-29.8	14.5	1.50e-06	0	43	0	545259520	18	4172
2026-01-19 07:48:52.39	52.05	15.38	-28.6	-30.0	14.4	1.50e-06	0	43	0	551550976	18	4244
2026-01-19 07:48:54.39	51.64	15.44	-28.7	-30.2	14.3	7.00e-07	0	43	0	557842432	18	4281
2026-01-19 07:48:56.40	51.22	15.49	-28.6	-30.0	14.4	0.00e+00	0	43	0	564133888	18	4227
2026-01-19 07:48:58.42	50.80	15.55	-28.6	-30.1	14.3	7.00e-07	0	43	0	570425344	18	4269
2026-01-19 07:49:00.43	50.38	15.61	-28.6	-30.1	14.4	7.00e-07	0	43	0	576716800	18	4273
2026-01-19 07:49:02.44	49.96	15.66	-28.6	-29.9	14.4	3.00e-06	0	43	0	581959680	18	4216
2026-01-19 07:49:04.44	49.54	15.71	-28.5	-29.7	14.6	0.00e+00	0	43	0	588251136	18	4141
2026-01-19 07:49:06.45	49.12	15.76	-28.4	-29.5	14.7	1.50e-06	0	43	0	595591168	18	4096
2026-01-19 07:49:08.45	48.69	15.81	-28.4	-29.5	14.7	0.00e+00	0	43	0	601882624	18	4089
2026-01-19 07:49:10.45	48.27	15.86	-28.3	-29.4	14.8	7.00e-07	0	43	0	607125504	18	4073
2026-01-19 07:49:12.47	47.84	15.90	-28.3	-29.4	14.8	0.00e+00	0	43	0	613416960	18	4076
2026-01-19 07:49:14.47	47.41	15.95	-28.3	-29.4	14.8	0.00e+00	0	44	0	619708416	18	4066
2026-01-19 07:49:16.46	46.98	15.99	-28.4	-29.5	14.7	7.00e-07	0	43	0	625999872	18	4103
2026-01-19 07:49:18.46	46.55	16.03	-28.3	-29.8	14.8	7.00e-07	0	43	0	632291328	17	4278
2026-01-19 07:49:20.47	46.12	16.07	-28.4	-29.9	14.7	7.00e-07	0	43	0	638582784	17	4325
2026-01-19 07:49:22.48	45.69	16.11	-28.4	-30.0	14.7	7.00e-07	0	43	0	644874240	17	4343
2026-01-19 07:49:24.49	45.25	16.15	-28.4	-30.0	14.7	0.00e+00	0	43	0	651165696	17	4341
2026-01-19 07:49:26.50	44.81	16.18	-28.5	-30.3	14.5	0.00e+00	0	43	0	657457152	17	4430
2026-01-19 07:49:28.50	44.38	16.21	-28.4	-30.0	14.7	0.00e+00	0	43	0	663748608	17	4325
2026-01-19 07:49:30.50	43.94	16.25	-28.3	-29.8	14.8	7.00e-07	0	43	0	670040064	17	4280
2026-01-19 07:49:32.50	43.51	16.28	-28.2	-29.6	15.0	0.00e+00	0	43	0	676331520	17	4216
2026-01-19 07:49:34.50	43.07	16.30	-28.3	-29.7	14.9	0.00e+00	0	43	0	682622976	17	4254
2026-01-19 07:49:36.50	42.63	16.33	-28.4	-30.0	14.7	0.00e+00	0	43	0	688914432	17	4339
2026-01-19 07:49:38.50	42.19	16.36	-28.6	-30.6	14.4	1.50e-06	0	43	0	695205888	17	4501
2026-01-19 07:49:40.50	41.75	16.38	-28.7	-30.7	14.3	1.50e-06	0	43	0	701497344	17	4538
2026-01-19 07:49:42.51	41.31	16.40	-28.6	-30.5	14.4	7.00e-07	0	43	0	707788800	17	4495
2026-01-19 07:49:44.51	40.86	16.42	-28.6	-30.4	14.5	0.00e+00	0	43	0	714080256	17	4466
2026-01-19 07:49:46.52	40.42	16.44	-28.7	-30.8	14.2	7.00e-07	0	43	0	720371712	17	4589
2026-01-19 07:49:48.53	39.98	16.45	-28.8	-30.9	14.2	1.50e-06	0	43	0	726663168	17	4612
2026-01-19 07:49:50.53	39.53	16.47	-28.9	-31.2	14.0	5.30e-06	0	43	0	732954624	17	4692
2026-01-19 07:49:52.54	39.09	16.48	-28.8	-31.0	14.1	1.50e-06	0	43	0	739246080	17	4643
2026-01-19 07:49:54.54	38.64	16.49	-28.7	-30.9	14.2	2.20e-06	0	43	0	745537536	17	4595
2026-01-19 07:49:56.54	38.20	16.50	-28.5	-30.3	14.5	0.00e+00	0	43	0	751828992	17	4434
2026-01-19 07:49:58.54	37.75	16.51	-28.5	-30.2	14.6	1.50e-06	0	43	0	758120448	17	4390
2026-01-19 07:50:00.55	37.31	16.52	-28.5	-30.3	14.5	0.00e+00	0	43	0	764411904	17	4420
2026-01-19 07:50:02.56	36.86	16.52	-28.6	-30.4	14.4	7.00e-07	0	43	0	770703360	17	4468
2026-01-19 07:50:04.56	36.42	16.52	-28.6	-30.6	14.4	7.00e-07	0	43	0	776994816	17	4509
2026-01-19 07:50:06.56	35.97	16.52	-28.7	-30.8	14.2	1.50e-06	0	43	0	783286272	17	4587
2026-01-19 07:50:08.56	35.53	16.52	-28.7	-30.7	14.3	1.50e-06	0	43	0	789577728	17	4564
2026-01-19 07:50:10.56	35.08	16.52	-28.7	-30.9	14.2	2.20e-06	0	43	0	795869184	17	4597
2026-01-19 07:50:12.56	34.64	16.51	-28.7	-30.8	14.2	1.50e-06	0	43	0	802160640	17	4567
2026-01-19 07:50:14.57	34.19	16.51	-28.4	-30.1	14.7	0.00e+00	0	43	0	807403520	17	4356
2026-01-19 07:50:16.58	33.75	16.50	-28.3	-29.9	14.7	7.00e-07	0	44	0	813694976	17	4316
2026-01-19 07:50:18.59	33.30	16.49	-28.4	-30.0	14.7	0.00e+00	0	43	0	821035008	17	4330
2026-01-19 07:50:20.59	32.86	16.48	-28.2	-29.6	14.9	0.00e+00	0	43	0	827326464	17	4238
2026-01-19 07:50:22.60	32.41	16.46	-28.3	-29.8	14.8	0.00e+00	0	43	0	832569344	17	4292
2026-01-19 07:50:24.60	31.97	16.45	-28.3	-29.8	14.9	0.00e+00	0	44	0	838860800	17	4268
2026-01-19 07:50:26.60	31.53	16.43	-28.1	-29.4	15.0	0.00e+00	0	44	0	845152256	17	4185
2026-01-19 07:50:28.61	31.08	16.41	-28.3	-29.8	14.8	7.00e-07	0	44	0	851443712	17	4294
2026-01-19 07:50:30.62	30.64	16.39	-28.3	-29.8	14.8	0.00e+00	0	43	0	857735168	17	4283
2026-01-19 07:50:32.61	30.20	16.37	-28.3	-29.7	14.9	0.00e+00	0	44	0	864026624	17	4257
2026-01-19 07:50:34.61	29.76	16.35	-28.3	-29.8	14.8	0.00e+00	0	44	0	870318080	17	4284
2026-01-19 07:50:36.63	29.32	16.32	-28.5	-30.3	14.6	0.00e+00	0	44	0	876609536	17	4413
2026-01-19 07:50:38.63	28.88	16.29	-28.5	-30.4	14.5	7.00e-07	0	43	0	882900992	17	4456
2026-01-19 07:50:40.62	28.45	16.26	-28.5	-30.2	14.5	7.00e-07	0	44	0	889192448	17	4403
2026-01-19 07:50:42.63	28.01	16.23	-28.3	-29.9	14.8	7.00e-07	0	43	0	895483904	17	4311
2026-01-19 07:50:44.63	27.57	16.20	-28.2	-29.7	14.9	0.00e+00	0	43	0	901775360	17	4252
2026-01-19 07:50:46.64	27.13	16.17	-28.5	-30.3	14.5	0.00e+00	0	44	0	908066816	17	4441
2026-01-19 07:50:48.64	26.70	16.13	-28.7	-30.8	14.2	2.20e-06	0	43	0	914358272	17	4593
2026-01-19 07:50:50.65	26.27	16.09	-28.9	-31.3	13.9	3.00e-06	0	44	0	920649728	17	4743
2026-01-19 07:50:52.66	25.83	16.06	-29.1	-31.2	13.7	3.00e-06	0	44	0	926941184	18	4581
2026-01-19 07:50:54.67	25.40	16.02	-29.0	-31.0	13.8	6.80e-06	0	44	0	933232640	18	4539
2026-01-19 07:50:56.68	24.97	15.97	-28.7	-30.2	14.3	2.20e-06	0	44	0	939524096	18	4302
2026-01-19 07:50:58.68	24.54	15.93	-28.5	-29.8	14.5	7.00e-07	0	43	0	945815552	18	4176
2026-01-19 07:51:00.69	24.11	15.89	-28.5	-29.8	14.5	7.00e-07	0	43	0	952107008	18	4169
2026-01-19 07:51:02.70	23.69	15.84	-28.3	-29.3	14.8	0.00e+00	0	43	0	958398464	18	4042
2026-01-19 07:51:04.70	23.26	15.79	-28.3	-29.3	14.8	0.00e+00	0	44	0	964689920	18	4053
2026-01-19 07:51:06.70	22.84	15.74	-28.4	-29.5	14.6	7.00e-07	0	43	0	970981376	18	4108
2026-01-19 07:51:08.72	22.42	15.69	-28.4	-29.5	14.7	0.00e+00	0	43	0	977272832	18	4102
2026-01-19 07:51:10.72	22.00	15.64	-28.2	-29.5	14.9	0.00e+00	0	43	0	983564288	17	4211
2026-01-19 07:51:12.73	21.58	15.58	-28.2	-29.6	14.9	7.00e-07	0	43	0	989855744	17	4228
2026-01-19 07:51:14.74	21.16	15.53	-28.3	-29.9	14.7	0.00e+00	0	43	0	996147200	17	4301
2026-01-19 07:51:16.76	20.74	15.47	-28.3	-29.8	14.7	0.00e+00	0	44	0	1002438656	17	4296
2026-01-19 07:51:18.76	20.33	15.41	-28.2	-29.6	14.9	0.00e+00	0	44	0	1008730112	17	4229
2026-01-19 07:51:20.77	19.91	15.35	-28.4	-30.0	14.6	0.00e+00	0	44	0	1015021568	17	4344
2026-01-19 07:51:22.78	19.50	15.29	-28.5	-30.2	14.5	7.00e-07	0	44	0	1021313024	17	4409
2026-01-19 07:51:24.78	19.09	15.23	-28.5	-30.4	14.4	0.00e+00	0	44	0	1027604480	17	4448
2026-01-19 07:51:26.79	18.69	15.17	-28.5	-30.4	14.4	0.00e+00	0	44	0	1033895936	17	4459
2026-01-19 07:51:28.79	18.28	15.10	-28.4	-30.1	14.6	7.00e-07	0	43	0	1040187392	17	4370
2026-01-19 07:51:30.80	17.88	15.04	-28.4	-30.2	14.5	0.00e+00	0	44	0	1046478848	17	4394
2026-01-19 07:51:32.80	17.48	14.97	-28.4	-30.2	14.5	0.00e+00	0	44	0	1052770304	17	4403
2026-01-19 07:51:34.81	17.07	14.90	-28.6	-30.6	14.3	0.00e+00	0	44	0	1059061760	17	4512
2026-01-19 07:51:36.81	16.68	14.83	-28.5	-30.4	14.4	7.00e-07	0	43	0	1065353216	17	4456
2026-01-19 07:51:38.82	16.28	14.76	-28.6	-30.6	14.3	7.00e-07	0	43	0	1071644672	17	4513
2026-01-19 07:51:40.83	15.89	14.69	-28.5	-30.4	14.3	1.50e-06	0	44	0	1077936128	17	4457
2026-01-19 07:51:42.83	15.49	14.61	-28.5	-30.4	14.4	7.00e-07	0	43	0	1083179008	17	4448
2026-01-19 07:51:44.84	15.10	14.54	-28.4	-30.0	14.6	0.00e+00	0	44	0	1089470464	17	4338
2026-01-19 07:51:46.84	14.72	14.47	-28.5	-30.2	14.4	0.00e+00	0	44	0	1096810496	17	4401
2026-01-19 07:51:48.84	14.33	14.39	-28.5	-30.4	14.4	7.00e-07	0	44	0	1103101952	17	4459
2026-01-19 07:51:50.86	13.94	14.31	-28.5	-30.3	14.4	7.00e-07	0	43	0	1108344832	17	4435
2026-01-19 07:51:52.87	13.56	14.23	-28.5	-30.4	14.3	2.20e-06	0	44	0	1114636288	17	4469
2026-01-19 07:51:54.87	13.18	14.15	-28.4	-30.0	14.5	7.00e-07	0	44	0	1120927744	17	4355
2026-01-19 07:51:56.87	12.80	14.07	-28.4	-30.0	14.6	7.00e-07	0	43	0	1127219200	17	4344
2026-01-19 07:51:58.87	12.43	13.99	-28.6	-30.5	14.3	7.00e-07	0	43	0	1133510656	17	4478
2026-01-19 07:52:00.88	12.05	13.91	-28.6	-30.5	14.3	0.00e+00	0	44	0	1139802112	17	4482
2026-01-19 07:52:02.88	11.68	13.83	-28.6	-30.4	14.3	3.80e-06	0	44	0	1146093568	17	4467
2026-01-19 07:52:04.88	11.31	13.74	-28.4	-30.1	14.5	7.00e-07	0	44	0	1152385024	17	4378
2026-01-19 07:52:06.88	10.95	13.66	-28.6	-30.6	14.2	1.50e-06	0	44	0	1158676480	17	4511
2026-01-19 07:52:08.88	10.58	13.57	-28.5	-30.2	14.4	7.00e-07	0	43	0	1164967936	17	4415
2026-01-19 07:52:10.88	10.22	13.48	-28.6	-30.6	14.2	3.00e-06	0	43	0	1171259392	17	4536
2026-01-19 07:52:12.88	9.86	13.40	-28.7	-30.8	14.1	7.00e-07	0	43	0	1177550848	17	4581
2026-01-19 07:52:14.88	9.50	13.31	-28.7	-30.9	14.0	7.00e-07	0	44	0	1183842304	17	4621
2026-01-19 07:52:16.89	9.14	13.22	-28.8	-30.9	14.0	2.20e-06	0	44	0	1190133760	17	4631
2026-01-19 07:52:18.90	8.79	13.13	-28.7	-30.9	14.0	3.80e-06	0	43	0	1196425216	17	4622
2026-01-19 07:52:20.91	8.44	13.04	-28.8	-31.0	13.9	3.00e-06	0	44	0	1202716672	17	4651
2026-01-19 07:52:22.91	8.09	12.95	-28.9	-31.3	13.8	8.30e-06	0	44	0	1209008128	17	4731
2026-01-19 07:52:24.91	7.74	12.85	-29.0	-31.1	13.6	7.60e-06	0	44	0	1215299584	18	4575
2026-01-19 07:52:26.92	7.39	12.76	-29.0	-31.1	13.6	6.80e-06	0	44	0	1221591040	18	4571
2026-01-19 07:52:28.93	7.05	12.67	-29.1	-31.3	13.5	1.60e-05	0	43	0	1227882496	18	4622
2026-01-19 07:52:30.94	6.71	12.57	-29.1	-31.2	13.5	8.30e-06	0	44	0	1234173952	18	4616
2026-01-19 07:52:32.96	6.37	12.48	-29.2	-31.4	13.4	1.52e-05	0	43	0	1240465408	18	4666
2026-01-19 07:52:34.97	6.03	12.38	-28.8	-30.5	13.9	4.50e-06	0	44	0	1246756864	18	4391
2026-01-19 07:52:36.98	5.69	12.29	-28.8	-30.7	13.8	3.80e-06	0	43	0	1253048320	18	4434
2026-01-19 07:52:38.97	5.36	12.19	-28.8	-30.4	14.0	2.20e-06	0	44	0	1259339776	18	4375
2026-01-19 07:52:40.97	5.03	12.09	-28.7	-30.3	14.0	6.10e-06	0	44	0	1265631232	18	4345
2026-01-19 07:52:42.99	4.70	11.99	-28.8	-30.4	13.9	3.00e-06	0	43	0	1271922688	18	4373
2026-01-19 07:52:44.98	4.38	11.90	-28.8	-30.5	13.9	2.20e-06	0	43	0	1278214144	18	4396
2026-01-19 07:52:46.99	4.06	11.80	-29.0	-31.0	13.6	6.80e-06	0	44	0	1284505600	18	4529
2026-01-19 07:52:48.99	3.74	11.70	-29.1	-31.4	13.4	1.14e-05	0	44	0	1290797056	18	4653
2026-01-19 07:52:51.00	3.42	11.60	-29.1	-31.2	13.4	9.10e-06	0	44	0	1297088512	18	4610
2026-01-19 07:52:53.02	3.10	11.50	-29.1	-31.3	13.4	1.06e-05	0	44	0	1303379968	18	4624
2026-01-19 07:52:55.02	2.78	11.40	-29.1	-31.3	13.4	1.83e-05	0	44	0	1309671424	18	4645
2026-01-19 07:52:57.03	2.47	11.30	-29.1	-31.2	13.4	1.83e-05	0	43	0	1315962880	18	4600
2026-01-19 07:52:59.04	2.16	11.20	-29.3	-31.8	13.0	2.21e-05	0	44	0	1322254336	18	4801
2026-01-19 07:53:01.05	1.85	11.09	-29.2	-31.5	13.2	1.83e-05	0	44	0	1328545792	18	4689
2026-01-19 07:53:03.06	1.54	10.99	-29.1	-31.3	13.4	1.75e-05	0	44	0	1334837248	18	4625
2026-01-19 07:53:05.07	1.24	10.89	-29.2	-31.6	13.2	1.37e-05	0	43	0	1341128704	18	4735
2026-01-19 07:53:07.08	0.94	10.78	-29.3	-31.8	13.1	2.59e-05	0	44	0	1347420160	18	4790
2026-01-19 07:53:09.07	0.64	10.68	-29.2	-31.6	13.2	2.82e-05	0	43	0	1353711616	18	4724
2026-01-19 07:53:11.08	0.34	10.58	-29.4	-32.0	12.9	5.95e-05	0	44	0	1360003072	18	4863
2026-01-19 07:53:13.09	0.05	10.47	-29.4	-32.0	12.9	4.80e-05	0	44	0	1366294528	18	4870
2026-01-19 07:53:15.09	359.76	10.37	-29.4	-32.1	12.8	6.17e-05	0	43	0	1372585984	18	4912
2026-01-19 07:53:17.11	359.46	10.26	-29.8	-32.6	12.2	1.83e-04	0	44	0	1378877440	19	4976
2026-01-19 07:53:19.12	359.17	10.16	-29.2	-31.1	13.1	3.35e-05	0	44	0	1384120320	19	4484
2026-01-19 07:53:21.12	358.89	10.05	-29.1	-30.8	13.3	1.37e-05	0	44	0	1390411776	19	4397
2026-01-19 07:53:23.14	358.60	9.95	-29.0	-30.7	13.3	1.52e-05	0	44	0	1397751808	19	4357
2026-01-19 07:53:25.15	358.32	9.84	-29.2	-31.0	13.1	2.67e-05	0	44	0	1404043264	19	4441
2026-01-19 07:53:27.15	358.04	9.74	-29.0	-30.7	13.3	1.29e-05	0	44	0	1409286144	19	4355
2026-01-19 07:53:29.14	357.76	9.63	-29.2	-31.0	13.1	1.98e-05	0	44	0	1415577600	19	4444
2026-01-19 07:53:31.13	357.49	9.53	-29.2	-31.1	13.1	3.58e-05	0	44	0	1421869056	19	4472
2026-01-19 07:53:33.14	357.21	9.42	-29.3	-31.5	12.8	4.65e-05	0	44	0	1428160512	19	4596
2026-01-19 07:53:35.13	356.94	9.32	-29.3	-31.2	12.9	3.96e-05	0	43	0	1434451968	19	4521
2026-01-19 07:53:37.13	356.68	9.21	-29.3	-31.4	12.8	6.33e-05	0	44	0	1440743424	19	4589
2026-01-19 07:53:39.11	356.41	9.10	-29.6	-32.0	12.4	1.16e-04	0	43	0	1447034880	19	4768
2026-01-19 07:53:41.11	356.15	9.00	-29.3	-31.2	12.9	5.72e-05	0	44	0	1453326336	19	4524
2026-01-19 07:53:43.11	355.88	8.89	-29.3	-31.4	12.8	5.56e-05	0	43	0	1459617792	19	4590
2026-01-19 07:53:45.11	355.62	8.78	-29.2	-31.2	12.9	3.96e-05	0	44	0	1465909248	19	4501
2026-01-19 07:53:47.11	355.36	8.68	-29.6	-32.1	12.4	1.59e-04	0	44	0	1472200704	19	4801
2026-01-19 07:53:49.12	355.10	8.57	-29.4	-31.7	12.5	1.12e-04	0	43	0	1478492160	19	4694
2026-01-19 07:53:51.12	354.85	8.46	-29.5	-32.0	12.4	1.04e-04	0	44	0	1484783616	19	4780
2026-01-19 07:53:53.11	354.60	8.35	-29.4	-31.7	12.5	1.07e-04	0	43	0	1491075072	19	4686
2026-01-19 07:53:55.11	354.34	8.25	-29.8	-32.7	11.9	4.10e-04	0	43	0	1497366528	19	5021
2026-01-19 07:53:57.12	354.09	8.14	-29.5	-31.9	12.4	1.81e-04	0	43	0	1503657984	19	4761
2026-01-19 07:53:59.13	353.84	8.03	-29.6	-32.0	12.3	1.59e-04	0	43	0	1509949440	19	4797
2026-01-19 07:54:01.13	353.60	7.92	-29.6	-32.1	12.3	1.61e-04	0	43	0	1516240896	19	4807
2026-01-19 07:54:03.14	353.35	7.82	-29.7	-32.4	12.1	2.64e-04	0	44	0	1522532352	19	4916
2026-01-19 07:54:05.15	353.11	7.71	-29.7	-32.4	12.0	2.66e-04	0	43	0	1528823808	19	4926
2026-01-19 07:54:07.15	352.87	7.60	-29.8	-32.8	11.7	6.27e-04	0	43	0	1535115264	19	5077
2026-01-19 07:54:09.16	352.63	7.49	-29.8	-32.8	11.7	6.44e-04	0	44	0	1541406720	19	5077
2026-01-19 07:54:11.17	352.39	7.38	-29.8	-32.8	11.7	4.93e-04	0	43	0	1547698176	19	5081
2026-01-19 07:54:13.18	352.15	7.27	-29.8	-32.8	11.7	4.95e-04	0	43	0	1553989632	19	5066
2026-01-19 07:54:15.18	351.92	7.17	-29.8	-32.8	11.7	5.79e-04	0	43	0	1560281088	19	5072
2026-01-19 07:54:17.19	351.69	7.06	-30.0	-32.8	11.3	5.71e-04	0	44	0	1566572544	20	4975

#Closed at: 2026-01-19 07:54:19
#Recorded file [1566 MB]: D:/data/31010_260119_104555.dat