passes_logs/2026/01/19/R2M6_AANII_01/R2M6_AANII_01__20260119_060316_FENGYUN_3E_rec.log

#Pass ID: 20260119_060316_FENGYUN 3E
#Satellite: FENGYUN 3E
#Configuration: FENGYUN 3E
#almurnet v.1.7.20240730
#Start time: 2026-01-19 06:03:17

#Version: 2.2.20231116
#Station: R2M6_AANII_01
#Location: 30.233357 lon 59.946436 lat
#TLE: 1 49008U 21062A   26017.96535346 -.00000182  00000+0 -64922-4 0  9998
#TLE: 2 49008  98.7483  23.0589 0002171 131.9722 228.1640 14.19885139235265

#Time	Az	El	Level	Level2	SNR	BER	BlckErr	Temp	State	Recorded	gain1	gain2
2026-01-19 06:03:17.61	11.89	7.06	-30.9	-34.0	5.0	7.92e-01	0	41	0	0	21	5187
2026-01-19 06:03:20.61	11.68	7.27	-30.4	-33.2	8.9	3.61e-02	0	41	0	6291456	20	4948
2026-01-19 06:03:23.62	11.47	7.48	-30.0	-32.1	9.6	1.93e-02	0	41	0	28311552	20	4571
2026-01-19 06:03:26.63	11.25	7.69	-28.6	-29.9	12.0	6.06e-04	0	42	0	50331648	17	4207
2026-01-19 06:03:29.62	11.03	7.91	-27.6	-28.7	13.2	6.19e-04	0	41	0	72351744	15	4070
2026-01-19 06:03:32.60	10.81	8.12	-27.8	-29.0	13.0	5.92e-04	0	41	0	93323264	15	4167
2026-01-19 06:03:35.60	10.58	8.34	-27.8	-29.2	12.9	6.11e-04	0	42	0	115343360	15	4226
2026-01-19 06:03:38.60	10.35	8.55	-27.5	-28.5	13.4	3.79e-04	0	42	0	136314880	15	4017
2026-01-19 06:03:41.60	10.12	8.77	-27.6	-29.1	13.4	3.62e-04	0	42	0	158334976	14	4287
2026-01-19 06:03:44.62	9.88	9.00	-27.3	-28.5	13.7	3.27e-04	0	42	0	180355072	14	4114
2026-01-19 06:03:47.62	9.64	9.22	-27.2	-28.2	13.9	3.01e-04	0	42	0	202375168	14	4043
2026-01-19 06:03:50.62	9.40	9.44	-27.0	-28.2	14.2	2.70e-04	0	42	0	223346688	13	4139
2026-01-19 06:03:53.63	9.15	9.67	-26.8	-27.9	14.4	2.36e-04	0	42	0	245366784	13	4070
2026-01-19 06:03:56.65	8.89	9.89	-26.8	-27.8	14.4	2.20e-06	0	42	0	267386880	13	4050
2026-01-19 06:03:59.66	8.64	10.12	-26.9	-28.0	14.4	0.00e+00	0	42	0	288358400	13	4083
2026-01-19 06:04:02.66	8.37	10.35	-26.8	-27.7	14.5	0.00e+00	0	42	0	310378496	13	4014
2026-01-19 06:04:05.66	8.11	10.58	-26.7	-27.7	14.6	2.53e-04	0	42	0	332398592	13	4007
2026-01-19 06:04:08.68	7.84	10.82	-26.7	-27.6	14.6	1.10e-06	0	42	0	354418688	13	3992
2026-01-19 06:04:11.69	7.56	11.05	-26.9	-28.0	14.4	0.00e+00	0	42	0	375390208	13	4099
2026-01-19 06:04:14.70	7.28	11.29	-26.9	-28.0	14.4	0.00e+00	0	43	0	397410304	13	4090
2026-01-19 06:04:17.71	7.00	11.53	-26.8	-27.7	14.6	0.00e+00	0	43	0	419430400	13	4012
2026-01-19 06:04:20.71	6.71	11.77	-26.7	-27.5	14.8	0.00e+00	0	43	0	440401920	13	3957
2026-01-19 06:04:23.70	6.42	12.01	-26.6	-27.3	14.9	0.00e+00	0	43	0	462422016	13	3905
2026-01-19 06:04:26.71	6.12	12.25	-26.5	-27.6	15.0	0.00e+00	0	43	0	483393536	12	4095
2026-01-19 06:04:29.72	5.81	12.50	-26.5	-27.7	14.9	1.10e-06	0	43	0	505413632	12	4124
2026-01-19 06:04:32.74	5.50	12.74	-26.5	-27.7	15.0	0.00e+00	0	43	0	527433728	12	4117
2026-01-19 06:04:35.74	5.18	12.99	-26.7	-27.6	14.8	0.00e+00	0	43	0	549453824	13	3979
2026-01-19 06:04:38.75	4.86	13.24	-26.7	-27.5	14.8	0.00e+00	0	43	0	570425344	13	3973
2026-01-19 06:04:41.75	4.54	13.49	-26.9	-27.9	14.6	1.10e-06	0	43	0	592445440	13	4062
2026-01-19 06:04:44.76	4.20	13.74	-26.4	-27.0	15.1	0.00e+00	0	43	0	614465536	13	3835
2026-01-19 06:04:47.77	3.87	14.00	-26.5	-27.5	15.1	0.00e+00	0	43	0	636485632	12	4068
2026-01-19 06:04:50.78	3.52	14.26	-26.3	-27.2	15.3	0.00e+00	0	43	0	657457152	12	3992
2026-01-19 06:04:53.79	3.17	14.51	-26.4	-27.4	15.2	0.00e+00	0	43	0	679477248	12	4029
2026-01-19 06:04:56.79	2.81	14.77	-26.2	-26.9	15.5	0.00e+00	0	43	0	701497344	12	3918
2026-01-19 06:04:59.80	2.45	15.03	-26.2	-27.0	15.4	0.00e+00	0	43	0	722468864	12	3927
2026-01-19 06:05:02.80	2.08	15.30	-26.4	-27.0	15.2	0.00e+00	0	43	0	744488960	13	3822
2026-01-19 06:05:05.80	1.71	15.56	-26.1	-26.8	15.6	0.00e+00	0	43	0	766509056	12	3890
2026-01-19 06:05:08.82	1.32	15.83	-26.3	-27.1	15.4	0.00e+00	0	43	0	788529152	12	3954
2026-01-19 06:05:11.84	0.93	16.10	-26.1	-26.7	15.6	0.00e+00	0	43	0	809500672	12	3870
2026-01-19 06:05:14.84	0.53	16.36	-26.1	-27.1	15.8	0.00e+00	0	43	0	831520768	11	4067
2026-01-19 06:05:17.86	0.12	16.64	-26.3	-26.6	15.5	0.00e+00	0	43	0	853540864	13	3736
2026-01-19 06:05:20.85	359.71	16.91	-25.6	-26.2	16.3	0.00e+00	0	43	0	874512384	11	3842
2026-01-19 06:05:23.88	359.29	17.18	-25.8	-26.5	16.2	0.00e+00	0	43	0	896532480	11	3909
2026-01-19 06:05:26.88	358.86	17.46	-25.5	-26.0	16.4	0.00e+00	0	43	0	918552576	11	3784
2026-01-19 06:05:29.89	358.42	17.73	-25.8	-26.5	16.2	0.00e+00	0	43	0	940572672	11	3924
2026-01-19 06:05:32.90	357.98	18.01	-25.5	-25.9	16.5	1.40e-03	0	43	0	961544192	11	3762
2026-01-19 06:05:35.91	357.52	18.29	-25.6	-26.2	16.3	1.28e-03	0	43	0	983564288	11	3850
2026-01-19 06:05:38.93	357.06	18.57	-25.5	-26.0	16.5	1.01e-03	0	43	0	1005584384	11	3795
2026-01-19 06:05:41.95	356.59	18.85	-25.3	-26.1	16.7	1.36e-03	0	43	0	1026555904	10	3914
2026-01-19 06:05:44.97	356.10	19.14	-25.2	-25.8	16.9	1.25e-03	0	43	0	1048576000	10	3845
2026-01-19 06:05:47.99	355.61	19.42	-25.4	-26.3	16.6	1.24e-03	0	43	0	1070596096	10	3959
2026-01-19 06:05:50.99	355.11	19.71	-25.4	-26.1	16.7	9.17e-04	0	43	0	1092616192	10	3930
2026-01-19 06:05:54.01	354.60	19.99	-25.5	-26.4	16.5	0.00e+00	0	43	0	1114636288	10	4000
2026-01-19 06:05:57.04	354.08	20.28	-25.3	-26.0	16.8	0.00e+00	0	43	0	1135607808	10	3907
2026-01-19 06:06:00.05	353.55	20.57	-25.1	-25.6	17.0	0.00e+00	0	43	0	1157627904	10	3811
2026-01-19 06:06:03.05	353.02	20.86	-25.1	-25.5	17.1	0.00e+00	0	43	0	1179648000	10	3783
2026-01-19 06:06:06.04	352.47	21.14	-25.1	-25.6	17.0	0.00e+00	0	43	0	1200619520	10	3796
2026-01-19 06:06:09.06	351.91	21.44	-25.1	-25.6	17.0	0.00e+00	0	43	0	1222639616	10	3796
2026-01-19 06:06:12.07	351.34	21.72	-25.4	-26.2	16.7	0.00e+00	0	43	0	1244659712	10	3942
2026-01-19 06:06:15.07	350.76	22.01	-25.2	-25.8	17.0	0.00e+00	0	43	0	1266679808	10	3841
2026-01-19 06:06:18.08	350.16	22.30	-25.1	-25.6	17.1	0.00e+00	0	43	0	1287651328	10	3799
2026-01-19 06:06:21.08	349.56	22.59	-25.1	-25.6	17.1	0.00e+00	0	43	0	1309671424	10	3796
2026-01-19 06:06:24.08	348.95	22.88	-25.1	-25.5	17.1	0.00e+00	0	43	0	1331691520	10	3774
2026-01-19 06:06:27.09	348.32	23.17	-25.1	-25.5	17.1	0.00e+00	0	43	0	1352663040	10	3774
2026-01-19 06:06:30.12	347.68	23.46	-24.6	-25.1	17.6	0.00e+00	0	43	0	1374683136	9	3780
2026-01-19 06:06:33.12	347.03	23.75	-24.5	-24.7	17.7	0.00e+00	0	43	0	1396703232	9	3707
2026-01-19 06:06:36.13	346.37	24.03	-24.4	-24.6	17.8	0.00e+00	0	43	0	1418723328	9	3688
2026-01-19 06:06:39.14	345.69	24.32	-24.3	-24.8	18.0	0.00e+00	0	43	0	1439694848	8	3820
2026-01-19 06:06:42.16	345.00	24.61	-24.0	-24.3	18.3	0.00e+00	0	43	0	1461714944	8	3704
2026-01-19 06:06:45.17	344.30	24.89	-24.0	-24.2	18.3	0.00e+00	0	43	0	1483735040	8	3687
2026-01-19 06:06:48.18	343.58	25.17	-24.1	-24.3	18.2	0.00e+00	0	43	0	1505755136	8	3718
2026-01-19 06:06:51.19	342.86	25.45	-24.3	-24.9	18.0	0.00e+00	0	43	0	1526726656	8	3846
2026-01-19 06:06:54.19	342.12	25.73	-24.2	-24.7	18.1	0.00e+00	0	43	0	1548746752	8	3800
2026-01-19 06:06:57.19	341.37	26.00	-24.2	-24.6	18.1	0.00e+00	0	43	0	1570766848	8	3772
2026-01-19 06:07:00.20	340.60	26.27	-23.5	-23.9	15.6	0.00e+00	0	43	0	1592786944	8	3772
2026-01-19 06:07:03.23	339.82	26.54	-24.4	-25.1	17.8	0.00e+00	0	43	0	1613758464	8	3899
2026-01-19 06:07:06.23	339.02	26.81	-24.3	-24.8	18.0	0.00e+00	0	43	0	1635778560	8	3835
2026-01-19 06:07:09.25	338.21	27.07	-24.4	-25.1	17.9	0.00e+00	0	43	0	1656750080	8	3896
2026-01-19 06:07:12.25	337.40	27.33	-24.4	-25.1	17.9	8.47e-04	0	43	0	1678770176	8	3899
2026-01-19 06:07:15.27	336.56	27.58	-24.2	-24.7	18.1	8.75e-04	0	44	0	1700790272	8	3808
2026-01-19 06:07:18.30	335.71	27.83	-23.9	-24.4	18.4	2.96e-04	0	44	0	1722810368	7	3846
2026-01-19 06:07:21.30	334.85	28.08	-23.8	-24.3	18.5	6.06e-04	0	43	0	1744830464	7	3816
2026-01-19 06:07:24.30	333.98	28.31	-24.4	-25.1	17.9	2.93e-04	0	44	0	1765801984	8	3890
2026-01-19 06:07:27.31	333.09	28.55	-24.2	-24.7	18.1	8.46e-05	0	43	0	1787822080	8	3798
2026-01-19 06:07:30.32	332.19	28.78	-24.2	-24.6	18.2	7.91e-04	0	44	0	1809842176	8	3769
2026-01-19 06:07:33.33	331.28	29.00	-24.2	-24.6	18.1	4.08e-04	0	44	0	1830813696	8	3779
2026-01-19 06:07:36.33	330.36	29.21	-24.2	-24.6	18.1	0.00e+00	0	43	0	1852833792	8	3777
2026-01-19 06:07:39.34	329.42	29.42	-24.4	-25.0	17.9	0.00e+00	0	44	0	1874853888	8	3868
2026-01-19 06:07:42.35	328.47	29.62	-24.2	-24.6	18.2	3.34e-04	0	43	0	1895825408	8	3775
2026-01-19 06:07:45.34	327.51	29.81	-24.2	-24.7	18.1	1.37e-03	0	44	0	1917845504	8	3806
2026-01-19 06:07:48.35	326.54	30.00	-24.1	-24.4	18.2	1.47e-03	0	43	0	1939865600	8	3737
2026-01-19 06:07:51.36	325.56	30.18	-23.8	-24.2	18.5	0.00e+00	0	44	0	1961885696	7	3804
2026-01-19 06:07:54.36	324.56	30.34	-23.8	-24.3	18.5	0.00e+00	0	44	0	1982857216	7	3820
2026-01-19 06:07:57.38	323.55	30.50	-23.8	-24.3	18.5	0.00e+00	0	44	0	2004877312	7	3811
2026-01-19 06:08:00.38	322.54	30.65	-23.9	-24.5	18.4	0.00e+00	0	44	0	2026897408	7	3867
2026-01-19 06:08:03.39	321.52	30.80	-23.9	-24.5	18.4	0.00e+00	0	44	0	2047868928	7	3865
2026-01-19 06:08:06.38	320.49	30.93	-23.6	-23.9	18.7	0.00e+00	0	44	0	2069889024	7	3722
2026-01-19 06:08:09.39	319.45	31.05	-23.6	-23.9	18.7	0.00e+00	0	43	0	2091909120	7	3721
2026-01-19 06:08:12.40	318.40	31.16	-23.5	-23.7	18.8	0.00e+00	0	44	0	2112880640	7	3684
2026-01-19 06:08:15.41	317.34	31.26	-23.3	-23.8	19.0	0.00e+00	0	44	0	2134900736	6	3808
2026-01-19 06:08:18.41	316.29	31.35	-23.5	-24.1	18.9	0.00e+00	0	44	0	2156920832	6	3875
2026-01-19 06:08:21.42	315.22	31.43	-23.5	-23.7	18.8	0.00e+00	0	44	0	2178940928	7	3685
2026-01-19 06:08:24.44	314.14	31.50	-23.4	-23.9	18.9	0.00e+00	0	44	0	2199912448	6	3835
2026-01-19 06:08:27.45	313.06	31.55	-24.0	-24.3	18.3	0.00e+00	0	44	0	2221932544	8	3703
2026-01-19 06:08:30.46	311.98	31.60	-23.3	-23.2	19.1	0.00e+00	0	44	0	2243952640	7	3576
2026-01-19 06:08:33.47	310.90	31.63	-23.4	-23.9	19.0	0.00e+00	0	44	0	2264924160	6	3833
2026-01-19 06:08:36.48	309.81	31.65	-23.3	-23.8	19.0	0.00e+00	0	44	0	2286944256	6	3812
2026-01-19 06:08:39.48	308.73	31.67	-23.4	-23.9	18.9	0.00e+00	0	44	0	2308964352	6	3831
2026-01-19 06:08:42.50	307.64	31.66	-23.3	-23.8	19.0	0.00e+00	0	44	0	2329935872	6	3804
2026-01-19 06:08:45.51	306.55	31.65	-23.2	-23.6	19.1	0.00e+00	0	44	0	2351955968	6	3769
2026-01-19 06:08:48.51	305.47	31.63	-23.3	-23.8	19.0	0.00e+00	0	43	0	2373976064	6	3797
2026-01-19 06:08:51.51	304.39	31.59	-23.3	-23.7	19.1	0.00e+00	0	44	0	2395996160	6	3785
2026-01-19 06:08:54.51	303.31	31.54	-23.3	-23.8	17.6	0.00e+00	0	43	0	2416967680	6	3806
2026-01-19 06:08:57.52	302.23	31.49	-23.2	-23.5	19.2	0.00e+00	0	44	0	2438987776	6	3729
2026-01-19 06:09:00.53	301.16	31.42	-23.2	-23.6	19.0	0.00e+00	0	44	0	2461007872	6	3769
2026-01-19 06:09:03.53	300.09	31.34	-23.4	-24.0	18.9	4.11e-05	0	44	0	2481979392	6	3858
2026-01-19 06:09:06.54	299.03	31.24	-23.2	-23.6	19.1	0.00e+00	0	44	0	2503999488	6	3760
2026-01-19 06:09:09.56	297.97	31.14	-23.4	-23.9	18.9	0.00e+00	0	44	0	2526019584	6	3823
2026-01-19 06:09:12.57	296.92	31.03	-23.4	-24.1	18.9	1.46e-04	0	44	0	2548039680	6	3872
2026-01-19 06:09:15.58	295.88	30.90	-23.5	-24.1	18.8	1.71e-05	0	44	0	2569011200	6	3885
2026-01-19 06:09:18.59	294.85	30.77	-23.5	-23.7	18.8	2.06e-04	0	44	0	2591031296	7	3672
2026-01-19 06:09:21.60	293.82	30.63	-23.4	-24.0	18.8	0.00e+00	0	44	0	2613051392	6	3854
2026-01-19 06:09:24.61	292.81	30.47	-23.3	-23.8	19.0	0.00e+00	0	44	0	2635071488	6	3799
2026-01-19 06:09:27.63	291.80	30.31	-23.5	-24.1	18.8	5.49e-05	0	44	0	2656043008	6	3881
2026-01-19 06:09:30.63	290.81	30.14	-23.5	-23.6	18.8	0.00e+00	0	44	0	2678063104	7	3668
2026-01-19 06:09:33.64	289.82	29.96	-23.5	-23.6	18.8	1.20e-04	0	44	0	2700083200	7	3659
2026-01-19 06:09:36.65	288.85	29.78	-23.6	-24.3	18.7	0.00e+00	0	44	0	2721054720	6	3924
2026-01-19 06:09:39.66	287.89	29.58	-23.7	-24.2	18.5	0.00e+00	0	44	0	2743074816	7	3788
2026-01-19 06:09:42.68	286.93	29.38	-23.6	-23.8	18.7	0.00e+00	0	44	0	2765094912	7	3704
2026-01-19 06:09:45.68	286.00	29.17	-23.9	-24.4	18.3	0.00e+00	0	44	0	2787115008	7	3848
2026-01-19 06:09:48.71	285.07	28.95	-24.0	-24.2	18.3	0.00e+00	0	44	0	2809135104	8	3690
2026-01-19 06:09:51.72	284.15	28.73	-23.6	-24.0	18.5	0.00e+00	0	44	0	2830106624	7	3743
2026-01-19 06:09:54.73	283.25	28.50	-23.4	-23.4	18.8	0.00e+00	0	44	0	2852126720	7	3610
2026-01-19 06:09:57.74	282.36	28.26	-23.6	-24.3	18.6	0.00e+00	0	44	0	2873098240	6	3926
2026-01-19 06:10:00.75	281.49	28.02	-24.0	-24.3	18.1	0.00e+00	0	44	0	2895118336	8	3719
2026-01-19 06:10:03.75	280.63	27.77	-24.0	-24.2	18.2	0.00e+00	0	44	0	2917138432	8	3691
2026-01-19 06:10:06.76	279.79	27.52	-23.8	-24.2	18.4	0.00e+00	0	44	0	2939158528	7	3805
2026-01-19 06:10:09.78	278.95	27.27	-24.0	-24.7	18.2	0.00e+00	0	44	0	2960130048	7	3901
2026-01-19 06:10:12.79	278.13	27.01	-23.9	-24.6	18.2	0.00e+00	0	44	0	2982150144	7	3891
2026-01-19 06:10:15.80	277.32	26.74	-24.0	-24.8	18.1	0.00e+00	0	44	0	3004170240	7	3924
2026-01-19 06:10:18.81	276.53	26.48	-23.8	-24.4	18.3	0.00e+00	0	44	0	3026190336	7	3832
2026-01-19 06:10:21.81	275.75	26.21	-24.1	-24.9	18.0	0.00e+00	0	44	0	3047161856	7	3955
2026-01-19 06:10:24.81	274.98	25.93	-24.1	-24.5	18.0	0.00e+00	0	44	0	3069181952	8	3763
2026-01-19 06:10:27.82	274.23	25.66	-24.1	-24.4	18.0	0.00e+00	0	44	0	3091202048	8	3739
2026-01-19 06:10:30.82	273.49	25.38	-23.8	-23.8	18.3	0.00e+00	0	44	0	3112173568	8	3613
2026-01-19 06:10:33.82	272.77	25.10	-23.7	-24.1	18.3	0.00e+00	0	44	0	3134193664	7	3784
2026-01-19 06:10:36.83	272.05	24.82	-23.7	-24.2	18.4	0.00e+00	0	44	0	3156213760	7	3794
2026-01-19 06:10:39.84	271.35	24.53	-23.7	-24.2	18.3	0.00e+00	0	44	0	3177185280	7	3790
2026-01-19 06:10:42.85	270.66	24.25	-23.6	-24.0	18.4	0.00e+00	0	44	0	3199205376	7	3744
2026-01-19 06:10:45.86	269.98	23.96	-23.7	-24.0	18.3	0.00e+00	0	44	0	3221225472	7	3759
2026-01-19 06:10:48.86	269.32	23.67	-23.9	-24.6	18.1	0.00e+00	0	44	0	3243245568	7	3902
2026-01-19 06:10:51.87	268.67	23.38	-24.0	-24.8	17.9	0.00e+00	0	44	0	3264217088	7	3950
2026-01-19 06:10:54.88	268.03	23.09	-24.0	-24.2	18.1	0.00e+00	0	44	0	3286237184	8	3685
2026-01-19 06:10:57.89	267.40	22.80	-24.2	-24.6	17.8	1.09e-03	0	44	0	3308257280	8	3789
2026-01-19 06:11:00.90	266.79	22.51	-24.1	-24.6	17.8	1.48e-03	0	44	0	3330277376	8	3779
2026-01-19 06:11:03.92	266.18	22.22	-23.9	-24.5	18.1	7.13e-04	0	44	0	3351248896	7	3879
2026-01-19 06:11:06.92	265.59	21.93	-24.2	-24.7	17.8	0.00e+00	0	44	0	3373268992	8	3810
2026-01-19 06:11:09.94	265.00	21.64	-24.0	-24.7	18.0	1.80e-03	0	44	0	3395289088	7	3905
2026-01-19 06:11:12.97	264.43	21.34	-24.1	-24.5	17.8	1.57e-03	0	44	0	3417309184	8	3762
2026-01-19 06:11:15.98	263.87	21.05	-24.2	-24.7	17.7	1.20e-03	0	44	0	3438280704	8	3815
2026-01-19 06:11:18.99	263.32	20.76	-24.5	-25.2	17.4	0.00e+00	0	44	0	3460300800	8	3938
2026-01-19 06:11:21.99	262.78	20.47	-24.5	-25.2	17.4	0.00e+00	0	44	0	3481272320	8	3936
2026-01-19 06:11:25.00	262.25	20.19	-24.6	-25.4	17.3	0.00e+00	0	44	0	3503292416	8	3975
2026-01-19 06:11:28.02	261.73	19.90	-24.8	-25.5	17.0	9.93e-04	0	44	0	3525312512	9	3900
2026-01-19 06:11:31.03	261.22	19.61	-24.5	-24.9	17.3	0.00e+00	0	44	0	3547332608	9	3752
2026-01-19 06:11:34.04	260.72	19.32	-24.6	-25.0	17.3	0.00e+00	0	44	0	3568304128	9	3771
2026-01-19 06:11:37.04	260.23	19.04	-24.2	-24.8	17.6	0.00e+00	0	44	0	3590324224	8	3824
2026-01-19 06:11:40.05	259.75	18.76	-24.6	-25.5	17.2	0.00e+00	0	44	0	3612344320	8	3991
2026-01-19 06:11:43.06	259.27	18.47	-25.0	-25.8	16.8	0.00e+00	0	44	0	3634364416	9	3973
2026-01-19 06:11:46.08	258.81	18.19	-24.9	-25.7	16.8	0.00e+00	0	44	0	3655335936	9	3954
2026-01-19 06:11:49.08	258.35	17.91	-24.9	-25.6	16.9	0.00e+00	0	44	0	3677356032	9	3923
2026-01-19 06:11:52.09	257.91	17.63	-25.1	-26.1	16.6	0.00e+00	0	44	0	3699376128	9	4041
2026-01-19 06:11:55.10	257.47	17.35	-25.5	-26.4	16.2	0.00e+00	0	44	0	3720347648	10	4006
2026-01-19 06:11:58.11	257.04	17.08	-25.4	-25.8	16.2	0.00e+00	0	44	0	3742367744	11	3760
2026-01-19 06:12:01.13	256.61	16.80	-25.2	-25.4	16.4	0.00e+00	0	44	0	3764387840	11	3663
2026-01-19 06:12:04.14	256.20	16.53	-25.4	-26.2	16.3	0.00e+00	0	44	0	3786407936	10	3954
2026-01-19 06:12:07.14	255.79	16.26	-25.8	-26.7	15.7	0.00e+00	0	44	0	3807379456	11	3972
2026-01-19 06:12:10.14	255.39	15.99	-26.1	-27.2	15.4	1.10e-06	0	44	0	3829399552	11	4110
2026-01-19 06:12:13.13	255.00	15.72	-25.9	-26.8	15.6	0.00e+00	0	44	0	3851419648	11	4002
2026-01-19 06:12:16.14	254.62	15.46	-25.6	-26.3	15.9	0.00e+00	0	44	0	3872391168	11	3875
2026-01-19 06:12:19.15	254.24	15.19	-25.5	-26.4	16.1	2.20e-06	0	44	0	3894411264	10	4009
2026-01-19 06:12:22.16	253.87	14.93	-25.6	-26.6	16.0	1.10e-06	0	44	0	3916431360	10	4055
2026-01-19 06:12:25.16	253.50	14.66	-25.8	-26.5	15.7	1.10e-06	0	44	0	3938451456	11	3937
2026-01-19 06:12:28.16	253.15	14.41	-25.8	-26.6	15.6	3.40e-06	0	44	0	3959422976	11	3957
2026-01-19 06:12:31.16	252.79	14.15	-25.9	-27.0	11.4	0.00e+00	0	44	0	3981443072	11	4042
2026-01-19 06:12:34.17	252.45	13.89	-26.0	-26.7	15.2	0.00e+00	0	44	0	4003463168	12	3880
2026-01-19 06:12:37.18	252.11	13.63	-26.0	-27.0	15.4	0.00e+00	0	44	0	4024434688	11	4055
2026-01-19 06:12:40.19	251.77	13.38	-25.8	-26.6	15.5	0.00e+00	0	44	0	4046454784	11	3968
2026-01-19 06:12:43.19	251.45	13.13	-25.9	-26.9	15.3	2.53e-03	0	44	0	4067426304	11	4030
2026-01-19 06:12:46.19	251.12	12.88	-26.6	-27.8	14.5	2.97e-03	0	44	0	4089446400	12	4157
2026-01-19 06:12:49.20	250.81	12.63	-26.1	-26.9	15.0	1.72e-03	0	44	0	4111466496	12	3934
2026-01-19 06:12:52.21	250.50	12.38	-26.4	-27.5	14.7	0.00e+00	0	44	0	4133486592	12	4077
2026-01-19 06:12:55.22	250.19	12.14	-26.1	-26.9	15.0	2.93e-03	0	44	0	4154458112	12	3931
2026-01-19 06:12:58.22	249.89	11.90	-26.2	-27.1	14.9	2.42e-03	0	44	0	4176478208	12	3967
2026-01-19 06:13:01.23	249.59	11.65	-26.4	-27.5	14.6	1.61e-03	0	44	0	4198498304	12	4092
2026-01-19 06:13:04.24	249.30	11.41	-26.5	-27.6	14.6	1.70e-03	0	44	0	4219469824	12	4107
2026-01-19 06:13:07.25	249.01	11.17	-26.8	-27.9	14.1	4.50e-06	0	44	0	4241489920	13	4092
2026-01-19 06:13:10.27	248.73	10.94	-26.8	-27.8	14.1	5.70e-06	0	44	0	4263510016	13	4053
2026-01-19 06:13:13.28	248.45	10.70	-27.2	-28.3	13.6	3.43e-03	0	44	0	4285530112	14	4068
2026-01-19 06:13:16.28	248.18	10.47	-26.8	-27.9	14.0	3.05e-03	0	44	0	4306501632	13	4082
2026-01-19 06:13:19.28	247.91	10.23	-26.8	-28.0	14.0	5.70e-06	0	44	0	4328521728	13	4101
2026-01-19 06:13:22.29	247.65	10.00	-27.0	-28.3	13.8	8.00e-06	0	44	0	4350541824	13	4188
2026-01-19 06:13:25.30	247.39	9.77	-26.6	-27.5	14.2	3.40e-06	0	44	0	4371513344	13	3983
2026-01-19 06:13:28.31	247.13	9.55	-26.8	-28.0	13.9	8.00e-06	0	44	0	4393533440	13	4105
2026-01-19 06:13:31.32	246.88	9.32	-26.7	-27.7	14.0	3.40e-06	0	44	0	4415553536	13	4034
2026-01-19 06:13:34.32	246.64	9.10	-27.1	-28.5	13.6	9.10e-06	0	44	0	4437573632	13	4253
2026-01-19 06:13:37.32	246.39	8.87	-27.5	-29.0	12.9	2.51e-05	0	44	0	4458545152	14	4276
2026-01-19 06:13:40.33	246.15	8.65	-27.2	-28.5	13.2	1.60e-05	0	44	0	4480565248	14	4138
2026-01-19 06:13:43.35	245.92	8.43	-27.3	-28.7	13.1	5.60e-05	0	44	0	4502585344	14	4202
2026-01-19 06:13:46.36	245.68	8.21	-27.3	-28.5	13.2	3.08e-05	0	44	0	4524605440	14	4164
2026-01-19 06:13:49.35	245.46	8.00	-27.3	-28.7	13.0	4.00e-05	0	44	0	4545576960	14	4215
2026-01-19 06:13:52.36	245.23	7.78	-27.4	-28.9	12.8	8.12e-05	0	44	0	4567597056	14	4278
2026-01-19 06:13:55.37	245.01	7.56	-27.4	-28.8	12.9	3.77e-05	0	44	0	4589617152	14	4248
2026-01-19 06:13:58.38	244.79	7.35	-27.4	-28.9	12.8	6.06e-05	0	44	0	4610588672	14	4277
2026-01-19 06:14:01.39	244.58	7.14	-27.5	-28.7	12.6	1.85e-04	0	44	0	4632608768	15	4127

#Closed at: 2026-01-19 06:14:04
#Recorded file [4639 MB]: D:/data/31010_260119_090319.dat