passes_logs/2026/01/19/R2M6_AANII_01/R2M6_AANII_01__20260119_005836_FENGYUN_3D_rec.log

#Pass ID: 20260119_005836_FENGYUN 3D
#Satellite: FENGYUN 3D
#Configuration: FENGYUN 3D
#almurnet v.1.7.20240730
#Start time: 2026-01-19 00:58:36

#Version: 2.2.20231116
#Station: R2M6_AANII_01
#Location: 30.233357 lon 59.946436 lat
#TLE: 1 43010U 17072A   26017.96359538  .00000271  00000+0  15011-3 0  9999
#TLE: 2 43010  98.9936 349.8252 0002386 103.8840 256.2601 14.19697057423673

#Time	Az	El	Level	Level2	SNR	BER	BlckErr	Temp	State	Recorded	gain1	gain2
2026-01-19 00:58:36.12	28.91	6.99	-28.5	-30.7	5.7	7.64e-01	0	42	0	0	17	4636
2026-01-19 00:58:39.14	29.17	7.18	-30.1	-33.3	9.8	7.72e-03	0	42	0	5242880	20	5188
2026-01-19 00:58:42.15	29.43	7.38	-29.7	-32.5	10.7	3.07e-03	0	42	0	22020096	19	5007
2026-01-19 00:58:45.15	29.69	7.58	-28.6	-30.9	12.4	4.20e-04	0	42	0	38797312	17	4682
2026-01-19 00:58:48.15	29.96	7.78	-28.4	-30.9	12.8	2.69e-04	0	42	0	55574528	16	4783
2026-01-19 00:58:51.15	30.23	7.98	-27.5	-29.3	13.9	1.10e-06	0	42	0	73400320	15	4407
2026-01-19 00:58:54.16	30.51	8.18	-27.3	-29.3	14.2	1.88e-04	0	42	0	90177536	14	4538
2026-01-19 00:58:57.18	30.79	8.38	-27.1	-28.9	14.5	2.20e-04	0	42	0	106954752	14	4399
2026-01-19 00:59:00.17	31.07	8.59	-27.1	-28.9	14.5	2.75e-04	0	42	0	123731968	14	4403
2026-01-19 00:59:03.18	31.36	8.79	-27.1	-28.9	14.5	3.38e-04	0	42	0	140509184	14	4404
2026-01-19 00:59:06.19	31.65	9.00	-27.1	-28.8	14.6	3.87e-04	0	42	0	157286400	14	4379
2026-01-19 00:59:09.19	31.95	9.20	-27.1	-28.7	14.7	3.23e-04	0	42	0	174063616	14	4349
2026-01-19 00:59:12.21	32.25	9.41	-27.3	-29.3	14.4	0.00e+00	0	43	0	190840832	14	4528
2026-01-19 00:59:15.21	32.55	9.62	-27.1	-28.8	14.6	0.00e+00	0	43	0	208666624	14	4393
2026-01-19 00:59:18.21	32.86	9.83	-27.1	-28.9	14.6	2.63e-05	0	43	0	225443840	14	4407
2026-01-19 00:59:21.22	33.17	10.04	-27.1	-28.9	14.6	0.00e+00	0	43	0	242221056	14	4394
2026-01-19 00:59:24.22	33.49	10.26	-26.8	-28.7	15.0	0.00e+00	0	43	0	258998272	13	4449
2026-01-19 00:59:27.23	33.81	10.47	-26.6	-28.3	15.3	0.00e+00	0	43	0	275775488	13	4344
2026-01-19 00:59:30.24	34.14	10.68	-26.7	-28.3	15.3	0.00e+00	0	43	0	292552704	13	4348
2026-01-19 00:59:33.24	34.46	10.90	-26.8	-28.6	15.1	0.00e+00	0	43	0	309329920	13	4427
2026-01-19 00:59:36.25	34.80	11.12	-26.7	-28.4	15.2	0.00e+00	0	43	0	326107136	13	4386
2026-01-19 00:59:39.26	35.14	11.33	-26.5	-28.0	15.5	0.00e+00	0	43	0	343932928	13	4260
2026-01-19 00:59:42.28	35.49	11.55	-26.3	-27.5	15.7	0.00e+00	0	43	0	360710144	13	4142
2026-01-19 00:59:45.31	35.84	11.78	-26.2	-27.9	15.8	0.00e+00	0	43	0	377487360	12	4340
2026-01-19 00:59:48.32	36.19	12.00	-26.4	-28.3	15.6	0.00e+00	0	43	0	394264576	12	4450
2026-01-19 00:59:51.33	36.55	12.22	-26.4	-27.7	15.7	0.00e+00	0	43	0	411041792	13	4196
2026-01-19 00:59:54.35	36.92	12.44	-26.5	-27.9	15.7	0.00e+00	0	43	0	428867584	13	4242
2026-01-19 00:59:57.36	37.29	12.67	-26.4	-27.6	15.9	0.00e+00	0	44	0	445644800	13	4162
2026-01-19 01:00:00.37	37.67	12.89	-26.4	-27.7	15.9	0.00e+00	0	44	0	462422016	13	4180
2026-01-19 01:00:03.38	38.05	13.12	-26.6	-28.2	15.6	0.00e+00	0	43	0	479199232	13	4319
2026-01-19 01:00:06.38	38.43	13.35	-26.6	-28.1	15.7	0.00e+00	0	43	0	495976448	13	4274
2026-01-19 01:00:09.40	38.83	13.58	-26.2	-27.1	16.2	0.00e+00	0	44	0	512753664	13	4031
2026-01-19 01:00:12.41	39.23	13.81	-26.2	-27.2	16.2	0.00e+00	0	44	0	529530880	13	4058
2026-01-19 01:00:15.41	39.63	14.04	-26.2	-27.3	16.1	0.00e+00	0	43	0	546308096	13	4070
2026-01-19 01:00:18.42	40.04	14.27	-26.1	-27.1	16.1	0.00e+00	0	43	0	564133888	13	4022
2026-01-19 01:00:21.42	40.46	14.50	-25.9	-26.7	16.4	0.00e+00	0	44	0	580911104	13	3910
2026-01-19 01:00:24.42	40.88	14.73	-26.0	-26.8	16.5	0.00e+00	0	43	0	597688320	13	3950
2026-01-19 01:00:27.41	41.31	14.96	-26.0	-26.8	16.4	0.00e+00	0	44	0	614465536	13	3952
2026-01-19 01:00:30.42	41.75	15.20	-25.8	-26.5	16.6	0.00e+00	0	44	0	631242752	13	3869
2026-01-19 01:00:33.42	42.19	15.43	-25.7	-26.6	16.8	0.00e+00	0	44	0	648019968	12	4004
2026-01-19 01:00:36.43	42.64	15.67	-26.1	-27.5	16.4	9.61e-05	0	44	0	664797184	12	4218
2026-01-19 01:00:39.44	43.10	15.90	-25.8	-26.8	16.8	8.92e-05	0	44	0	681574400	12	4062
2026-01-19 01:00:42.45	43.56	16.14	-25.8	-27.0	16.7	0.00e+00	0	44	0	699400192	12	4089
2026-01-19 01:00:45.46	44.03	16.38	-25.6	-26.8	17.1	2.02e-04	0	44	0	716177408	11	4156
2026-01-19 01:00:48.49	44.52	16.62	-25.6	-27.0	17.0	9.04e-05	0	44	0	732954624	11	4200
2026-01-19 01:00:51.50	45.00	16.86	-25.5	-26.7	17.2	3.31e-05	0	44	0	749731840	11	4138
2026-01-19 01:00:54.51	45.50	17.10	-25.4	-26.4	17.4	0.00e+00	0	44	0	766509056	11	4052
2026-01-19 01:00:57.52	46.00	17.34	-25.3	-26.2	17.5	2.86e-05	0	44	0	783286272	11	3995
2026-01-19 01:01:00.52	46.51	17.57	-25.4	-26.5	17.3	2.28e-05	0	44	0	801112064	11	4078
2026-01-19 01:01:03.54	47.03	17.82	-25.3	-26.3	17.4	0.00e+00	0	44	0	817889280	11	4038
2026-01-19 01:01:06.56	47.55	18.06	-25.3	-26.2	17.5	4.00e-05	0	44	0	834666496	11	3993
2026-01-19 01:01:09.58	48.09	18.30	-25.5	-26.7	17.3	0.00e+00	0	44	0	851443712	11	4136
2026-01-19 01:01:12.59	48.63	18.54	-25.5	-26.7	17.3	0.00e+00	0	44	0	868220928	11	4129
2026-01-19 01:01:15.59	49.18	18.78	-25.7	-27.1	17.1	0.00e+00	0	44	0	884998144	11	4221
2026-01-19 01:01:18.60	49.74	19.01	-25.1	-25.9	17.6	3.31e-04	0	44	0	902823936	11	3937
2026-01-19 01:01:21.60	50.30	19.25	-25.1	-25.8	17.8	0.00e+00	0	44	0	919601152	11	3908
2026-01-19 01:01:24.62	50.88	19.49	-25.0	-25.6	17.9	0.00e+00	0	44	0	936378368	11	3850
2026-01-19 01:01:27.63	51.47	19.73	-25.2	-26.0	17.7	0.00e+00	0	44	0	953155584	11	3942
2026-01-19 01:01:30.64	52.06	19.97	-24.7	-25.7	18.0	0.00e+00	0	44	0	969932800	10	4004
2026-01-19 01:01:33.64	52.66	20.20	-25.1	-26.2	17.9	0.00e+00	0	44	0	986710016	10	4114
2026-01-19 01:01:36.66	53.28	20.44	-24.7	-25.9	18.2	0.00e+00	0	44	0	1003487232	9	4158
2026-01-19 01:01:39.67	53.90	20.68	-24.5	-25.5	18.5	0.00e+00	0	44	0	1020264448	9	4044
2026-01-19 01:01:42.69	54.53	20.91	-24.7	-26.0	18.2	0.00e+00	0	44	0	1038090240	9	4182
2026-01-19 01:01:45.70	55.17	21.14	-24.6	-25.8	18.3	0.00e+00	0	44	0	1054867456	9	4126
2026-01-19 01:01:48.72	55.83	21.37	-24.7	-25.9	18.3	0.00e+00	0	44	0	1071644672	9	4143
2026-01-19 01:01:51.72	56.48	21.60	-24.7	-26.0	18.3	0.00e+00	0	44	0	1088421888	9	4171
2026-01-19 01:01:54.74	57.15	21.83	-25.3	-26.8	17.6	0.00e+00	0	44	0	1105199104	10	4263
2026-01-19 01:01:57.74	57.83	22.06	-24.3	-24.7	18.7	0.00e+00	0	44	0	1123024896	10	3745
2026-01-19 01:02:00.75	58.52	22.28	-24.3	-25.0	18.7	0.00e+00	0	44	0	1139802112	9	3928
2026-01-19 01:02:03.75	59.22	22.50	-24.7	-25.9	18.3	0.00e+00	0	44	0	1156579328	9	4138
2026-01-19 01:02:06.76	59.92	22.72	-24.5	-25.6	18.5	0.00e+00	0	44	0	1173356544	9	4069
2026-01-19 01:02:09.78	60.64	22.94	-24.4	-25.2	18.7	0.00e+00	0	44	0	1190133760	9	3972
2026-01-19 01:02:12.80	61.37	23.15	-24.6	-25.7	18.4	0.00e+00	0	44	0	1206910976	9	4094
2026-01-19 01:02:15.81	62.11	23.36	-24.2	-25.0	18.8	0.00e+00	0	44	0	1223688192	9	3921
2026-01-19 01:02:18.81	62.86	23.57	-24.1	-25.2	19.0	0.00e+00	0	44	0	1240465408	8	4083
2026-01-19 01:02:21.82	63.61	23.77	-24.2	-25.3	18.9	0.00e+00	0	44	0	1258291200	8	4121
2026-01-19 01:02:24.82	64.38	23.97	-24.0	-24.9	19.1	0.00e+00	0	44	0	1275068416	8	4005
2026-01-19 01:02:27.82	65.15	24.17	-24.0	-24.9	19.1	0.00e+00	0	44	0	1291845632	8	4015
2026-01-19 01:02:30.84	65.94	24.36	-23.9	-24.8	19.2	0.00e+00	0	44	0	1308622848	8	3979
2026-01-19 01:02:33.84	66.73	24.55	-24.1	-25.1	19.0	0.00e+00	0	44	0	1325400064	8	4060
2026-01-19 01:02:36.86	67.54	24.73	-24.0	-25.0	19.1	0.00e+00	0	44	0	1342177280	8	4040
2026-01-19 01:02:39.86	68.35	24.91	-23.9	-24.8	19.2	0.00e+00	0	44	0	1358954496	8	3993
2026-01-19 01:02:42.88	69.18	25.08	-24.0	-24.9	19.1	0.00e+00	0	44	0	1376780288	8	3999
2026-01-19 01:02:45.88	70.01	25.25	-24.0	-25.0	19.1	0.00e+00	0	44	0	1393557504	8	4043
2026-01-19 01:02:48.88	70.84	25.42	-23.6	-24.2	19.5	0.00e+00	0	44	0	1410334720	8	3839
2026-01-19 01:02:51.89	71.69	25.58	-23.7	-24.3	19.3	0.00e+00	0	44	0	1427111936	8	3888
2026-01-19 01:02:54.90	72.55	25.73	-23.7	-24.5	19.2	0.00e+00	0	44	0	1443889152	8	3917
2026-01-19 01:02:57.90	73.41	25.88	-23.8	-24.6	19.2	0.00e+00	0	44	0	1460666368	8	3939
2026-01-19 01:03:00.90	74.28	26.02	-23.7	-24.3	19.3	0.00e+00	0	44	0	1477443584	8	3893
2026-01-19 01:03:03.92	75.16	26.15	-23.6	-24.1	19.4	0.00e+00	0	44	0	1494220800	8	3828
2026-01-19 01:03:06.91	76.05	26.28	-23.8	-24.7	19.1	0.00e+00	0	44	0	1510998016	8	3970
2026-01-19 01:03:09.92	76.94	26.40	-23.8	-24.6	19.2	0.00e+00	0	44	0	1528823808	8	3947
2026-01-19 01:03:12.94	77.85	26.52	-23.7	-24.4	19.3	0.00e+00	0	44	0	1545601024	8	3918
2026-01-19 01:03:15.94	78.75	26.62	-23.2	-23.9	19.8	0.00e+00	0	44	0	1562378240	7	3886
2026-01-19 01:03:18.96	79.67	26.72	-23.2	-23.9	19.7	0.00e+00	0	44	0	1579155456	7	3893
2026-01-19 01:03:21.98	80.59	26.82	-23.2	-23.9	19.7	0.00e+00	0	44	0	1595932672	7	3896
2026-01-19 01:03:24.99	81.51	26.90	-23.5	-24.4	19.5	0.00e+00	0	44	0	1613758464	7	4020
2026-01-19 01:03:28.00	82.44	26.98	-23.4	-24.2	19.6	0.00e+00	0	44	0	1630535680	7	3974
2026-01-19 01:03:31.01	83.38	27.05	-23.5	-24.5	19.4	0.00e+00	0	44	0	1647312896	7	4049
2026-01-19 01:03:34.01	84.31	27.12	-23.6	-24.7	19.3	0.00e+00	0	44	0	1664090112	7	4092
2026-01-19 01:03:37.01	85.25	27.17	-23.6	-24.7	19.4	0.00e+00	0	44	0	1680867328	7	4080
2026-01-19 01:03:40.03	86.20	27.22	-23.5	-24.5	19.5	0.00e+00	0	44	0	1697644544	7	4029
2026-01-19 01:03:43.03	87.14	27.25	-23.3	-24.1	19.7	0.00e+00	0	44	0	1714421760	7	3947
2026-01-19 01:03:46.05	88.09	27.29	-23.2	-23.9	19.8	0.00e+00	0	44	0	1731198976	7	3895
2026-01-19 01:03:49.06	89.04	27.31	-23.5	-24.6	19.4	0.00e+00	0	44	0	1749024768	7	4073
2026-01-19 01:03:52.07	89.99	27.32	-23.5	-24.4	19.5	0.00e+00	0	44	0	1765801984	7	4025
2026-01-19 01:03:55.08	90.94	27.33	-23.5	-24.4	19.5	0.00e+00	0	44	0	1782579200	7	4020
2026-01-19 01:03:58.09	91.90	27.32	-23.4	-24.4	19.5	0.00e+00	0	44	0	1799356416	7	4003
2026-01-19 01:04:01.09	92.85	27.31	-23.3	-24.0	17.3	0.00e+00	0	44	0	1816133632	7	3910
2026-01-19 01:04:04.11	93.80	27.29	-23.2	-23.9	19.7	0.00e+00	0	44	0	1832910848	7	3893
2026-01-19 01:04:07.12	94.75	27.26	-23.5	-24.6	19.4	0.00e+00	0	44	0	1849688064	7	4060
2026-01-19 01:04:10.12	95.69	27.23	-23.5	-24.6	19.4	0.00e+00	0	44	0	1867513856	7	4058
2026-01-19 01:04:13.13	96.64	27.18	-23.7	-24.8	19.3	0.00e+00	0	44	0	1884291072	7	4120
2026-01-19 01:04:16.13	97.58	27.13	-23.7	-24.9	19.2	0.00e+00	0	44	0	1901068288	7	4134
2026-01-19 01:04:19.13	98.51	27.07	-23.3	-24.1	19.7	0.00e+00	0	44	0	1917845504	7	3929
2026-01-19 01:04:22.14	99.45	27.00	-23.6	-24.6	19.4	4.34e-05	0	44	0	1934622720	7	4082
2026-01-19 01:04:25.16	100.39	26.93	-23.5	-24.6	19.4	2.97e-05	0	44	0	1951399936	7	4068
2026-01-19 01:04:28.16	101.31	26.84	-23.7	-24.9	19.2	0.00e+00	0	44	0	1968177152	7	4133
2026-01-19 01:04:31.16	102.23	26.75	-23.6	-24.7	19.3	9.04e-05	0	44	0	1984954368	7	4082
2026-01-19 01:04:34.15	103.14	26.65	-23.8	-25.1	19.1	3.40e-06	0	44	0	2002780160	7	4180
2026-01-19 01:04:37.16	104.05	26.55	-23.9	-24.8	19.0	3.20e-05	0	44	0	2019557376	8	4018
2026-01-19 01:04:40.17	104.96	26.43	-23.8	-24.6	19.1	0.00e+00	0	44	0	2036334592	8	3964
2026-01-19 01:04:43.18	105.86	26.31	-23.7	-24.5	19.2	0.00e+00	0	44	0	2053111808	8	3936
2026-01-19 01:04:46.19	106.75	26.19	-23.6	-24.3	19.2	5.26e-05	0	44	0	2069889024	8	3887
2026-01-19 01:04:49.20	107.63	26.05	-23.5	-24.0	19.4	0.00e+00	0	44	0	2086666240	8	3824
2026-01-19 01:04:52.22	108.51	25.91	-23.7	-24.5	19.1	0.00e+00	0	44	0	2103443456	8	3926
2026-01-19 01:04:55.22	109.38	25.77	-23.8	-24.6	19.1	0.00e+00	0	44	0	2120220672	8	3954
2026-01-19 01:04:58.23	110.24	25.61	-23.8	-24.6	19.1	0.00e+00	0	44	0	2138046464	8	3944
2026-01-19 01:05:01.24	111.09	25.46	-23.9	-24.9	18.9	0.00e+00	0	44	0	2154823680	8	4025
2026-01-19 01:05:04.23	111.93	25.29	-23.8	-24.5	19.1	0.00e+00	0	44	0	2171600896	8	3931
2026-01-19 01:05:07.24	112.77	25.12	-23.9	-24.9	18.9	0.00e+00	0	44	0	2188378112	8	4026
2026-01-19 01:05:10.25	113.60	24.95	-24.0	-25.1	18.8	0.00e+00	0	44	0	2205155328	8	4074
2026-01-19 01:05:13.25	114.41	24.77	-23.9	-24.8	18.9	0.00e+00	0	44	0	2221932544	8	4013
2026-01-19 01:05:16.25	115.22	24.59	-24.1	-25.3	18.6	0.00e+00	0	44	0	2238709760	8	4135
2026-01-19 01:05:19.26	116.02	24.40	-24.1	-25.3	18.6	0.00e+00	0	44	0	2255486976	8	4141
2026-01-19 01:05:22.26	116.81	24.21	-24.3	-25.8	18.4	0.00e+00	0	44	0	2273312768	8	4250
2026-01-19 01:05:25.28	117.60	24.01	-24.5	-26.0	18.3	0.00e+00	0	44	0	2290089984	8	4312
2026-01-19 01:05:28.27	118.36	23.81	-24.9	-26.4	17.8	0.00e+00	0	44	0	2306867200	9	4292
2026-01-19 01:05:31.27	119.12	23.61	-24.9	-25.9	17.8	0.00e+00	0	44	0	2323644416	10	4053
2026-01-19 01:05:34.27	119.87	23.40	-24.4	-25.0	18.3	0.00e+00	0	44	0	2340421632	10	3838
2026-01-19 01:05:37.28	120.62	23.19	-24.1	-24.8	18.6	0.00e+00	0	44	0	2357198848	9	3896
2026-01-19 01:05:40.28	121.35	22.98	-24.4	-25.4	18.3	0.00e+00	0	44	0	2373976064	9	4039
2026-01-19 01:05:43.29	122.07	22.76	-24.2	-24.9	18.5	0.00e+00	0	44	0	2390753280	9	3924
2026-01-19 01:05:46.30	122.78	22.54	-24.2	-25.0	18.5	0.00e+00	0	44	0	2408579072	9	3934
2026-01-19 01:05:49.31	123.49	22.32	-24.3	-25.3	18.4	0.00e+00	0	44	0	2425356288	9	4012
2026-01-19 01:05:52.31	124.18	22.10	-24.3	-25.3	18.3	0.00e+00	0	44	0	2442133504	9	4013
2026-01-19 01:05:55.32	124.86	21.87	-24.3	-25.2	18.4	0.00e+00	0	44	0	2458910720	9	4001
2026-01-19 01:05:58.33	125.54	21.64	-24.5	-25.6	18.1	0.00e+00	0	44	0	2475687936	9	4098
2026-01-19 01:06:01.34	126.20	21.41	-24.9	-26.5	17.7	0.00e+00	0	44	0	2492465152	9	4329
2026-01-19 01:06:04.35	126.86	21.18	-24.7	-26.1	17.9	0.00e+00	0	44	0	2509242368	9	4217
2026-01-19 01:06:07.37	127.51	20.94	-24.5	-25.7	18.1	0.00e+00	0	44	0	2526019584	9	4114
2026-01-19 01:06:10.37	128.14	20.71	-24.6	-25.9	18.0	0.00e+00	0	44	0	2543845376	9	4165
2026-01-19 01:06:13.38	128.77	20.47	-24.8	-26.4	17.7	1.53e-04	0	44	0	2560622592	9	4301
2026-01-19 01:06:16.38	129.38	20.24	-24.8	-26.2	17.7	0.00e+00	0	44	0	2577399808	9	4262
2026-01-19 01:06:19.38	129.99	20.00	-24.9	-26.6	17.5	0.00e+00	0	44	0	2594177024	9	4362
2026-01-19 01:06:22.40	130.59	19.76	-25.1	-26.5	17.3	0.00e+00	0	44	0	2610954240	10	4216
2026-01-19 01:06:25.41	131.18	19.52	-25.1	-26.4	17.4	1.80e-04	0	44	0	2628780032	10	4177
2026-01-19 01:06:28.43	131.76	19.28	-25.1	-26.5	17.3	0.00e+00	0	44	0	2645557248	10	4215
2026-01-19 01:06:31.43	132.33	19.04	-25.3	-26.9	17.0	6.52e-05	0	44	0	2662334464	10	4317
2026-01-19 01:06:34.43	132.89	18.80	-25.4	-27.1	17.0	1.86e-04	0	44	0	2679111680	10	4368
2026-01-19 01:06:37.45	133.45	18.56	-25.7	-27.2	16.6	2.38e-04	0	44	0	2695888896	11	4296
2026-01-19 01:06:40.46	134.00	18.31	-25.4	-26.6	16.9	0.00e+00	0	44	0	2712666112	11	4122
2026-01-19 01:06:43.48	134.54	18.07	-25.4	-26.6	16.9	4.59e-04	0	44	0	2729443328	11	4121
2026-01-19 01:06:46.48	135.07	17.83	-25.7	-27.2	16.6	3.92e-04	0	44	0	2747269120	11	4287
2026-01-19 01:06:49.49	135.59	17.59	-25.6	-27.1	16.6	0.00e+00	0	44	0	2764046336	11	4260
2026-01-19 01:06:52.49	136.10	17.35	-25.5	-26.7	16.8	1.92e-04	0	44	0	2780823552	11	4164
2026-01-19 01:06:55.50	136.60	17.11	-25.5	-26.9	16.7	4.80e-04	0	44	0	2797600768	11	4206
2026-01-19 01:06:58.51	137.10	16.86	-25.8	-27.5	16.4	6.87e-04	0	44	0	2814377984	11	4369
2026-01-19 01:07:01.52	137.59	16.62	-25.7	-27.3	16.5	0.00e+00	0	44	0	2831155200	11	4311
2026-01-19 01:07:04.52	138.07	16.38	-25.7	-27.3	16.4	0.00e+00	0	44	0	2847932416	11	4334
2026-01-19 01:07:07.51	138.55	16.15	-25.8	-27.6	16.2	2.82e-04	0	44	0	2864709632	11	4401
2026-01-19 01:07:10.53	139.01	15.91	-26.0	-27.4	16.0	0.00e+00	0	44	0	2882535424	12	4245
2026-01-19 01:07:13.55	139.48	15.67	-26.0	-27.5	15.9	0.00e+00	0	44	0	2899312640	12	4269
2026-01-19 01:07:16.56	139.93	15.43	-26.1	-27.8	15.7	0.00e+00	0	44	0	2916089856	12	4342
2026-01-19 01:07:19.56	140.38	15.19	-26.2	-27.9	15.6	0.00e+00	0	44	0	2932867072	12	4380
2026-01-19 01:07:22.57	140.82	14.95	-26.3	-28.1	15.4	0.00e+00	0	44	0	2949644288	12	4459
2026-01-19 01:07:25.58	141.25	14.72	-26.4	-28.4	15.2	0.00e+00	0	44	0	2966421504	12	4536
2026-01-19 01:07:28.57	141.67	14.48	-26.3	-28.1	15.4	0.00e+00	0	44	0	2983198720	12	4457
2026-01-19 01:07:31.60	142.09	14.25	-26.3	-28.2	15.3	0.00e+00	0	44	0	2999975936	12	4466
2026-01-19 01:07:34.60	142.51	14.02	-26.1	-27.7	15.6	0.00e+00	0	44	0	3017801728	12	4323
2026-01-19 01:07:37.60	142.91	13.78	-26.2	-27.9	15.4	0.00e+00	0	44	0	3034578944	12	4401
2026-01-19 01:07:40.62	143.32	13.55	-26.3	-28.2	15.2	0.00e+00	0	44	0	3051356160	12	4485
2026-01-19 01:07:43.63	143.71	13.32	-26.4	-28.4	15.1	0.00e+00	0	44	0	3068133376	12	4564
2026-01-19 01:07:46.64	144.10	13.09	-26.1	-27.8	15.4	0.00e+00	0	44	0	3084910592	12	4381
2026-01-19 01:07:49.65	144.48	12.86	-26.3	-28.1	15.3	0.00e+00	0	44	0	3101687808	12	4464
2026-01-19 01:07:52.66	144.86	12.63	-26.3	-28.2	15.2	0.00e+00	0	44	0	3118465024	12	4479
2026-01-19 01:07:55.67	145.23	12.41	-26.6	-28.3	14.9	0.00e+00	0	44	0	3136290816	13	4392
2026-01-19 01:07:58.68	145.60	12.18	-26.6	-28.3	14.7	0.00e+00	0	44	0	3153068032	13	4400
2026-01-19 01:08:01.69	145.96	11.96	-26.7	-28.5	14.8	0.00e+00	0	44	0	3169845248	13	4471
2026-01-19 01:08:04.71	146.32	11.73	-26.4	-28.0	15.1	0.00e+00	0	44	0	3186622464	13	4310
2026-01-19 01:08:07.71	146.67	11.51	-26.5	-28.3	14.9	0.00e+00	0	44	0	3203399680	13	4393
2026-01-19 01:08:10.72	147.02	11.29	-26.6	-28.4	14.7	0.00e+00	0	44	0	3220176896	13	4446
2026-01-19 01:08:13.72	147.36	11.07	-26.7	-28.7	14.5	1.41e-04	0	44	0	3238002688	13	4537
2026-01-19 01:08:16.72	147.69	10.85	-26.8	-29.0	14.3	1.50e-04	0	44	0	3254779904	13	4633
2026-01-19 01:08:19.74	148.02	10.63	-27.0	-29.0	14.1	0.00e+00	0	44	0	3271557120	14	4483
2026-01-19 01:08:22.76	148.35	10.42	-27.1	-29.0	14.1	1.61e-04	0	44	0	3288334336	14	4495
2026-01-19 01:08:25.77	148.67	10.20	-27.1	-29.1	14.1	2.10e-04	0	44	0	3305111552	14	4507
2026-01-19 01:08:28.77	148.99	9.99	-27.2	-29.3	13.9	2.37e-04	0	44	0	3321888768	14	4587
2026-01-19 01:08:31.78	149.30	9.77	-27.3	-29.4	13.8	2.51e-04	0	44	0	3338665984	14	4616
2026-01-19 01:08:34.79	149.61	9.56	-27.3	-29.5	13.7	2.44e-04	0	45	0	3355443200	14	4642
2026-01-19 01:08:37.81	149.92	9.35	-27.6	-29.7	13.3	2.13e-04	0	44	0	3373268992	15	4573
2026-01-19 01:08:40.81	150.21	9.14	-27.5	-29.5	13.4	6.80e-06	0	44	0	3390046208	15	4514
2026-01-19 01:08:43.83	150.51	8.93	-27.5	-30.0	13.3	2.44e-04	0	44	0	3406823424	14	4814
2026-01-19 01:08:46.82	150.80	8.72	-27.4	-30.1	13.2	2.76e-04	0	44	0	3423600640	14	4885
2026-01-19 01:08:49.83	151.09	8.51	-27.4	-29.9	12.8	4.11e-05	0	44	0	3440377856	15	4769
2026-01-19 01:08:52.84	151.37	8.31	-27.2	-29.8	13.0	2.74e-05	0	44	0	3457155072	14	4899
2026-01-19 01:08:55.84	151.65	8.10	-27.3	-30.0	13.0	3.24e-04	0	44	0	3473932288	14	4920
2026-01-19 01:08:58.84	151.93	7.90	-27.7	-30.4	12.5	7.55e-05	0	44	0	3490709504	15	4911
2026-01-19 01:09:01.85	152.20	7.70	-27.4	-30.0	13.0	2.74e-05	0	44	0	3508535296	14	4889
2026-01-19 01:09:04.85	152.47	7.50	-27.7	-30.3	12.7	4.92e-05	0	45	0	3525312512	15	4813
2026-01-19 01:09:07.86	152.74	7.30	-27.8	-30.3	12.6	6.75e-05	0	44	0	3542089728	15	4844
2026-01-19 01:09:10.87	153.00	7.10	-28.3	-31.0	12.0	1.44e-04	0	44	0	3558866944	16	4934

#Closed at: 2026-01-19 01:09:13
#Recorded file [3562 MB]: D:/data/31010_260119_035838.dat