passes_logs/2026/01/19/R2M6_AANII_01/R2M6_AANII_01__20260119_234111_SUOMI_NPP_rec.log

#Pass ID: 20260119_234111_SUOMI NPP
#Satellite: SUOMI NPP
#Configuration: NPP
#almurnet v.1.7.20240730
#Start time: 2026-01-19 23:41:12

#Version: 2.2.20231116
#Station: R2M6_AANII_01
#Location: 30.233357 lon 59.946436 lat
#TLE: 1 37849U 11061A   26019.26265094  .00000081  00000+0  59609-4 0  9993
#TLE: 2 37849  98.7817 321.2746 0002356  56.2510 303.8890 14.19526363737315

#Time	Az	El	Level	Level2	SNR	BER	BlckErr	Temp	State	Recorded	gain1	gain2
2026-01-19 23:41:12.10	22.56	7.04	-31.4	-36.1	5.1	1.26e+00	0	42	0	0	22	6162
2026-01-19 23:41:15.11	22.70	7.26	-31.9	-37.7	6.7	1.65e-01	0	42	0	1048576	23	6998
2026-01-19 23:41:18.12	22.83	7.49	-31.6	-36.2	7.8	8.53e-02	0	42	0	7340032	23	6093
2026-01-19 23:41:21.12	22.97	7.71	-31.5	-35.6	8.3	5.66e-02	0	42	0	12582912	23	5757
2026-01-19 23:41:24.13	23.11	7.94	-31.6	-36.3	7.8	6.53e-02	0	42	0	17825792	23	6127
2026-01-19 23:41:27.14	23.26	8.17	-31.8	-36.9	7.4	9.71e-02	0	42	0	24117248	23	6455
2026-01-19 23:41:30.14	23.40	8.41	-31.4	-35.2	8.7	3.77e-02	0	42	0	29360128	23	5583
2026-01-19 23:41:33.16	23.55	8.64	-31.1	-34.3	9.8	1.31e-02	0	43	0	35651584	22	5221
2026-01-19 23:41:36.16	23.70	8.88	-30.8	-33.5	10.5	5.61e-03	0	43	0	40894464	22	4875
2026-01-19 23:41:39.18	23.86	9.12	-30.8	-33.3	10.7	2.64e-03	0	43	0	46137344	22	4803
2026-01-19 23:41:42.19	24.01	9.36	-30.8	-33.8	10.6	4.25e-03	0	43	0	52428800	21	5092
2026-01-19 23:41:45.20	24.17	9.60	-30.6	-33.0	11.2	2.39e-03	0	43	0	57671680	21	4783
2026-01-19 23:41:48.21	24.33	9.85	-30.7	-33.5	10.6	2.72e-03	0	43	0	63963136	21	4951
2026-01-19 23:41:51.21	24.49	10.10	-30.5	-33.3	11.4	1.03e-03	0	43	0	69206016	20	4960
2026-01-19 23:41:54.23	24.65	10.35	-30.6	-33.0	11.3	8.93e-04	0	43	0	74448896	21	4759
2026-01-19 23:41:57.25	24.82	10.60	-30.6	-33.1	11.2	1.26e-03	0	43	0	80740352	21	4811
2026-01-19 23:42:00.26	24.99	10.86	-30.6	-32.9	11.4	6.81e-04	0	43	0	85983232	21	4724
2026-01-19 23:42:03.27	25.16	11.11	-30.3	-32.7	12.0	1.95e-03	0	43	0	91226112	20	4724
2026-01-19 23:42:06.27	25.34	11.37	-30.2	-32.2	12.3	1.64e-03	0	43	0	97517568	20	4544
2026-01-19 23:42:09.28	25.52	11.64	-30.2	-32.2	12.3	1.44e-03	0	43	0	102760448	20	4559
2026-01-19 23:42:12.29	25.70	11.90	-30.2	-32.4	12.2	3.30e-04	0	43	0	109051904	20	4636
2026-01-19 23:42:15.30	25.88	12.17	-30.6	-33.1	11.4	6.68e-04	0	43	0	114294784	21	4769
2026-01-19 23:42:18.31	26.07	12.44	-30.6	-32.8	11.6	7.70e-04	0	43	0	119537664	21	4687
2026-01-19 23:42:21.32	26.26	12.71	-30.5	-32.5	11.8	3.20e-04	0	43	0	125829120	21	4577
2026-01-19 23:42:24.33	26.46	12.99	-30.1	-32.0	12.6	1.09e-03	0	43	0	131072000	20	4470
2026-01-19 23:42:27.33	26.65	13.27	-30.0	-31.7	12.8	1.18e-03	0	44	0	136314880	20	4363
2026-01-19 23:42:30.35	26.85	13.55	-30.0	-31.8	12.8	1.44e-03	0	43	0	142606336	20	4391
2026-01-19 23:42:33.37	27.06	13.84	-29.9	-32.0	13.1	1.12e-03	0	43	0	147849216	19	4534
2026-01-19 23:42:36.36	27.27	14.13	-29.9	-31.8	13.2	7.79e-04	0	44	0	154140672	19	4491
2026-01-19 23:42:39.35	27.48	14.41	-29.9	-31.7	13.2	2.63e-04	0	44	0	159383552	19	4456
2026-01-19 23:42:42.35	27.69	14.71	-29.8	-31.5	13.4	6.81e-04	0	44	0	164626432	19	4385
2026-01-19 23:42:45.36	27.91	15.01	-29.6	-30.9	13.8	5.56e-04	0	44	0	170917888	19	4209
2026-01-19 23:42:48.36	28.14	15.31	-29.6	-30.9	13.8	8.23e-04	0	44	0	176160768	19	4194
2026-01-19 23:42:51.36	28.37	15.61	-29.6	-31.0	13.8	1.08e-03	0	44	0	181403648	19	4215
2026-01-19 23:42:54.36	28.60	15.92	-29.4	-30.4	14.1	9.91e-04	0	44	0	187695104	19	4044
2026-01-19 23:42:57.37	28.84	16.23	-29.4	-30.3	14.3	1.04e-03	0	44	0	192937984	19	4013
2026-01-19 23:43:00.37	29.08	16.54	-29.4	-31.0	14.1	2.20e-06	0	44	0	199229440	18	4313
2026-01-19 23:43:03.40	29.33	16.87	-29.5	-30.7	14.0	7.95e-04	0	44	0	204472320	19	4122
2026-01-19 23:43:06.41	29.58	17.19	-29.5	-30.8	14.0	5.80e-04	0	44	0	209715200	19	4153
2026-01-19 23:43:09.40	29.84	17.51	-29.7	-31.1	13.8	4.03e-04	0	44	0	216006656	19	4241
2026-01-19 23:43:12.41	30.10	17.84	-29.5	-30.7	14.1	3.66e-04	0	44	0	221249536	19	4119
2026-01-19 23:43:15.41	30.37	18.18	-29.6	-30.8	14.0	3.54e-04	0	44	0	226492416	19	4147
2026-01-19 23:43:18.43	30.64	18.52	-29.7	-31.2	13.8	6.80e-06	0	44	0	232783872	19	4283
2026-01-19 23:43:21.43	30.92	18.86	-29.9	-31.2	13.4	9.10e-06	0	44	0	238026752	20	4189
2026-01-19 23:43:24.44	31.21	19.21	-30.0	-31.4	13.3	2.05e-05	0	44	0	244318208	20	4253
2026-01-19 23:43:27.45	31.50	19.56	-29.9	-31.2	13.4	5.45e-04	0	44	0	249561088	20	4179
2026-01-19 23:43:30.45	31.80	19.91	-30.0	-31.4	13.4	4.22e-04	0	44	0	254803968	20	4242
2026-01-19 23:43:33.46	32.11	20.27	-30.0	-31.4	13.3	3.97e-04	0	44	0	261095424	20	4254
2026-01-19 23:43:36.48	32.42	20.64	-30.2	-31.9	13.0	1.83e-05	0	44	0	266338304	20	4403
2026-01-19 23:43:39.48	32.74	21.00	-30.1	-31.6	13.1	2.28e-05	0	44	0	271581184	20	4313
2026-01-19 23:43:42.49	33.07	21.38	-30.1	-31.8	13.1	4.88e-05	0	44	0	277872640	20	4383
2026-01-19 23:43:45.50	33.40	21.76	-30.1	-31.8	13.2	1.67e-05	0	44	0	283115520	20	4349
2026-01-19 23:43:48.51	33.75	22.14	-30.2	-32.0	13.0	8.92e-05	0	44	0	289406976	20	4425
2026-01-19 23:43:51.52	34.10	22.53	-30.1	-31.6	13.3	2.57e-04	0	44	0	294649856	20	4305
2026-01-19 23:43:54.52	34.46	22.92	-29.7	-31.1	14.0	5.30e-06	0	44	0	299892736	19	4217
2026-01-19 23:43:57.52	34.82	23.31	-29.9	-31.5	13.8	4.50e-06	0	44	0	306184192	19	4332
2026-01-19 23:44:00.52	35.20	23.71	-29.9	-31.2	13.6	1.60e-05	0	44	0	311427072	20	4178
2026-01-19 23:44:03.52	35.59	24.12	-29.9	-31.2	13.6	1.06e-05	0	44	0	317718528	20	4166
2026-01-19 23:44:06.52	35.98	24.53	-29.9	-31.1	13.7	7.60e-06	0	44	0	322961408	20	4130
2026-01-19 23:44:09.54	36.39	24.95	-30.0	-31.4	13.6	2.67e-05	0	44	0	328204288	20	4216
2026-01-19 23:44:12.55	36.81	25.37	-30.0	-31.4	13.5	5.79e-05	0	44	0	334495744	20	4213
2026-01-19 23:44:15.56	37.24	25.80	-30.1	-31.5	13.5	5.41e-05	0	44	0	339738624	20	4246
2026-01-19 23:44:18.56	37.68	26.24	-30.4	-32.0	12.9	9.53e-05	0	44	0	344981504	21	4308
2026-01-19 23:44:21.55	38.13	26.67	-30.8	-33.1	12.2	8.39e-05	0	44	0	351272960	21	4681
2026-01-19 23:44:24.56	38.60	27.12	-30.8	-32.9	12.2	1.75e-04	0	44	0	356515840	21	4626
2026-01-19 23:44:27.58	39.08	27.57	-30.7	-32.9	12.3	2.77e-04	0	44	0	362807296	21	4596
2026-01-19 23:44:30.58	39.57	28.02	-30.6	-32.5	12.5	8.69e-05	0	44	0	368050176	21	4484
2026-01-19 23:44:33.59	40.07	28.48	-30.8	-33.2	12.1	3.59e-04	0	44	0	373293056	21	4698
2026-01-19 23:44:36.59	40.59	28.95	-31.1	-33.3	11.7	7.48e-04	0	44	0	379584512	22	4670
2026-01-19 23:44:39.60	41.12	29.42	-31.0	-33.2	11.8	6.78e-04	0	44	0	384827392	22	4633
2026-01-19 23:44:42.61	41.67	29.89	-31.3	-33.9	11.3	8.51e-04	0	44	0	390070272	22	4870
2026-01-19 23:44:45.63	42.24	30.38	-31.3	-34.0	11.3	2.03e-03	0	44	0	396361728	22	4893
2026-01-19 23:44:48.64	42.83	30.87	-30.9	-32.8	12.3	3.45e-04	0	44	0	401604608	22	4489
2026-01-19 23:44:51.65	43.43	31.36	-31.0	-33.2	11.9	3.58e-04	0	44	0	407896064	22	4593
2026-01-19 23:44:54.66	44.05	31.85	-31.2	-33.6	11.7	6.10e-04	0	44	0	413138944	22	4733
2026-01-19 23:44:57.67	44.69	32.36	-31.2	-33.7	11.5	1.02e-03	0	44	0	418381824	22	4804
2026-01-19 23:45:00.67	45.34	32.86	-30.9	-32.6	12.3	2.08e-04	0	44	0	424673280	22	4398
2026-01-19 23:45:03.68	46.02	33.37	-30.4	-31.7	13.2	1.52e-05	0	44	0	429916160	21	4211
2026-01-19 23:45:06.69	46.72	33.89	-30.2	-31.3	13.6	1.37e-05	0	44	0	435159040	21	4071
2026-01-19 23:45:09.69	47.44	34.40	-30.4	-31.8	13.2	1.83e-05	0	44	0	441450496	21	4223
2026-01-19 23:45:12.70	48.18	34.93	-30.0	-30.8	13.8	6.80e-06	0	44	0	446693376	21	3923
2026-01-19 23:45:15.70	48.95	35.45	-30.1	-31.1	13.7	4.50e-06	0	44	0	452984832	21	4013
2026-01-19 23:45:18.71	49.74	35.98	-30.2	-31.2	13.6	6.80e-06	0	44	0	458227712	21	4056
2026-01-19 23:45:21.71	50.56	36.51	-30.1	-31.1	13.8	5.30e-06	0	44	0	463470592	21	4007
2026-01-19 23:45:24.71	51.40	37.04	-30.1	-30.9	13.9	2.20e-06	0	44	0	469762048	21	3948
2026-01-19 23:45:27.72	52.28	37.58	-29.7	-30.5	14.4	0.00e+00	0	44	0	475004928	20	3917
2026-01-19 23:45:30.73	53.18	38.11	-29.9	-30.9	14.2	3.00e-06	0	44	0	480247808	20	4047
2026-01-19 23:45:33.74	54.11	38.65	-30.1	-31.4	13.8	3.80e-06	0	44	0	486539264	20	4197
2026-01-19 23:45:36.74	55.07	39.19	-30.3	-31.9	13.5	6.10e-06	0	44	0	491782144	20	4344
2026-01-19 23:45:39.75	56.07	39.72	-30.5	-31.9	13.2	1.44e-05	0	44	0	498073600	21	4249
2026-01-19 23:45:42.76	57.09	40.26	-30.9	-33.3	12.4	1.25e-04	0	44	0	503316480	21	4707
2026-01-19 23:45:45.76	58.15	40.79	-30.0	-30.8	14.0	9.90e-06	0	44	0	508559360	21	3914
2026-01-19 23:45:48.77	59.25	41.32	-30.4	-32.2	13.4	7.60e-06	0	44	0	514850816	20	4427
2026-01-19 23:45:51.78	60.38	41.84	-30.3	-31.4	13.6	2.28e-05	0	44	0	520093696	21	4102
2026-01-19 23:45:54.79	61.55	42.36	-30.3	-31.9	13.7	3.80e-06	0	44	0	525336576	20	4335
2026-01-19 23:45:57.79	62.75	42.88	-30.8	-32.2	12.8	8.01e-05	0	44	0	531628032	22	4242
2026-01-19 23:46:00.80	64.00	43.38	-31.1	-33.1	12.2	3.39e-04	0	44	0	536870912	22	4531
2026-01-19 23:46:03.81	65.29	43.88	-30.5	-31.9	13.3	1.60e-05	0	44	0	543162368	21	4254
2026-01-19 23:46:06.82	66.61	44.37	-30.6	-32.4	13.0	1.09e-04	0	44	0	548405248	21	4392
2026-01-19 23:46:09.85	67.99	44.85	-30.3	-31.5	13.6	6.10e-06	0	45	0	553648128	21	4118
2026-01-19 23:46:12.86	69.39	45.31	-30.5	-32.1	13.2	4.50e-06	0	44	0	559939584	21	4293
2026-01-19 23:46:15.87	70.84	45.76	-30.9	-32.6	12.6	1.51e-04	0	44	0	565182464	22	4369
2026-01-19 23:46:18.88	72.33	46.20	-31.6	-34.2	11.0	1.16e-03	0	44	0	571473920	23	4868
2026-01-19 23:46:21.89	73.86	46.62	-32.5	-36.5	8.6	3.77e-02	0	44	0	576716800	25	5675
2026-01-19 23:46:24.91	75.43	47.02	-32.5	-36.4	8.7	3.83e-02	0	44	0	581959680	25	5628
2026-01-19 23:46:27.92	77.04	47.40	-31.3	-33.2	11.9	4.69e-04	0	44	0	588251136	23	4477
2026-01-19 23:46:30.92	78.68	47.76	-31.9	-35.2	10.4	2.14e-03	0	44	0	593494016	23	5258
2026-01-19 23:46:33.91	80.36	48.09	-32.2	-35.9	9.6	8.44e-03	0	45	0	598736896	24	5462
2026-01-19 23:46:36.93	82.08	48.41	-31.7	-34.0	10.9	3.91e-03	0	44	0	605028352	24	4688
2026-01-19 23:46:39.93	83.83	48.69	-31.7	-33.9	10.9	3.46e-03	0	44	0	610271232	24	4634
2026-01-19 23:46:42.94	85.61	48.95	-30.1	-30.8	14.0	6.10e-06	0	44	0	616562688	21	3917
2026-01-19 23:46:45.94	87.42	49.18	-30.1	-31.3	14.1	1.50e-06	0	44	0	621805568	20	4158
2026-01-19 23:46:48.96	89.26	49.38	-29.2	-29.5	15.6	0.00e+00	0	44	0	627048448	19	3732
2026-01-19 23:46:51.96	91.12	49.55	-29.0	-29.0	15.8	0.00e+00	0	44	0	633339904	19	3618
2026-01-19 23:46:54.97	93.00	49.69	-29.0	-29.1	15.8	0.00e+00	0	44	0	638582784	19	3647
2026-01-19 23:46:57.97	94.89	49.80	-28.5	-28.4	16.5	0.00e+00	0	44	0	643825664	18	3547
2026-01-19 23:47:00.98	96.80	49.87	-29.7	-30.7	14.9	0.00e+00	0	44	0	650117120	19	4066
2026-01-19 23:47:03.98	98.70	49.92	-29.9	-30.8	14.4	0.00e+00	0	44	0	655360000	20	4000
2026-01-19 23:47:06.99	100.62	49.92	-29.4	-29.5	15.3	0.00e+00	0	44	0	661651456	20	3648
2026-01-19 23:47:10.00	102.54	49.90	-29.1	-29.3	15.7	0.00e+00	0	44	0	666894336	19	3675
2026-01-19 23:47:13.02	104.45	49.84	-29.7	-30.7	14.9	0.00e+00	0	44	0	672137216	19	4068
2026-01-19 23:47:16.02	106.35	49.75	-29.4	-29.6	15.2	0.00e+00	0	44	0	678428672	20	3687
2026-01-19 23:47:19.02	108.23	49.63	-30.7	-32.4	13.2	4.19e-05	0	44	0	683671552	21	4381
2026-01-19 23:47:22.03	110.11	49.47	-30.3	-31.9	13.7	0.00e+00	0	44	0	688914432	20	4331
2026-01-19 23:47:25.04	111.96	49.28	-31.4	-33.5	11.6	9.58e-04	0	44	0	695205888	23	4594
2026-01-19 23:47:28.04	113.78	49.07	-31.7	-34.4	11.2	1.22e-03	0	44	0	700448768	23	4906
2026-01-19 23:47:31.05	115.58	48.82	-31.4	-33.4	12.0	8.72e-04	0	44	0	706740224	23	4540
2026-01-19 23:47:34.07	117.36	48.55	-32.3	-36.0	9.4	1.24e-02	0	44	0	711983104	24	5511
2026-01-19 23:47:37.08	119.10	48.25	-32.2	-34.8	10.0	1.59e-02	0	44	0	717225984	25	4910
2026-01-19 23:47:40.08	120.80	47.92	-32.8	-37.3	8.2	4.60e-02	0	44	0	723517440	25	6044
2026-01-19 23:47:43.10	122.47	47.58	-32.9	-37.9	7.8	4.58e-02	0	44	0	728760320	25	6375
2026-01-19 23:47:46.10	124.09	47.21	-33.0	-37.2	7.3	3.02e-01	0	44	0	734003200	27	5877
2026-01-19 23:47:49.11	125.69	46.81	-32.0	-34.5	10.4	6.09e-03	0	44	0	740294656	25	4778
2026-01-19 23:47:52.12	127.24	46.40	-31.8	-34.1	10.9	4.82e-03	0	44	0	745537536	24	4715
2026-01-19 23:47:55.13	128.75	45.97	-32.3	-36.0	9.5	1.25e-02	0	44	0	751828992	24	5512
2026-01-19 23:47:58.13	130.22	45.53	-32.4	-36.4	9.4	9.70e-03	0	44	0	757071872	24	5687
2026-01-19 23:48:01.14	131.65	45.07	-32.7	-37.0	8.0	1.65e-01	0	44	0	762314752	26	5846
2026-01-19 23:48:04.15	133.03	44.60	-31.4	-33.1	11.6	1.24e-03	0	44	0	768606208	24	4386
2026-01-19 23:48:07.16	134.38	44.11	-30.8	-31.7	12.9	1.80e-04	0	44	0	773849088	23	4000
2026-01-19 23:48:10.16	135.69	43.62	-30.4	-31.6	13.6	6.10e-06	0	44	0	780140544	21	4136
2026-01-19 23:48:13.17	136.96	43.12	-29.5	-29.9	15.0	1.90e-05	0	44	0	785383424	20	3744
2026-01-19 23:48:16.18	138.18	42.60	-30.6	-32.1	13.4	3.65e-04	0	44	0	790626304	21	4283
2026-01-19 23:48:19.18	139.37	42.09	-30.1	-31.4	14.1	5.29e-04	0	44	0	796917760	20	4171
2026-01-19 23:48:22.19	140.53	41.56	-30.7	-32.4	13.1	2.53e-04	0	44	0	802160640	21	4410
2026-01-19 23:48:25.18	141.64	41.03	-29.6	-30.1	14.8	4.65e-04	0	44	0	807403520	20	3805
2026-01-19 23:48:28.19	142.72	40.50	-30.8	-32.9	12.8	2.97e-05	0	44	0	813694976	21	4550
2026-01-19 23:48:31.20	143.76	39.96	-30.9	-32.5	12.7	1.33e-04	0	44	0	818937856	22	4349
2026-01-19 23:48:34.21	144.78	39.43	-31.8	-34.7	10.9	8.54e-04	0	44	0	825229312	23	5060
2026-01-19 23:48:37.22	145.76	38.89	-32.0	-35.1	10.0	1.62e-02	0	45	0	830472192	24	5143
2026-01-19 23:48:40.22	146.70	38.35	-31.2	-33.4	12.1	1.58e-03	0	44	0	835715072	22	4642
2026-01-19 23:48:43.22	147.62	37.81	-31.9	-34.9	10.2	9.68e-03	0	44	0	842006528	24	5050
2026-01-19 23:48:46.24	148.51	37.27	-31.1	-33.2	12.2	3.67e-04	0	44	0	847249408	22	4579
2026-01-19 23:48:49.25	149.38	36.73	-32.7	-37.2	8.1	3.02e-02	0	44	0	852492288	25	6066
2026-01-19 23:48:52.26	150.21	36.20	-31.3	-32.9	11.7	2.89e-03	0	44	0	858783744	24	4304
2026-01-19 23:48:55.27	151.02	35.66	-31.3	-33.6	11.9	2.82e-04	0	44	0	864026624	22	4733
2026-01-19 23:48:58.28	151.80	35.13	-31.8	-34.6	10.4	9.06e-03	0	44	0	870318080	24	4928
2026-01-19 23:49:01.28	152.55	34.61	-29.7	-30.4	14.6	0.00e+00	0	44	0	875560960	20	3893
2026-01-19 23:49:04.27	153.28	34.09	-31.8	-34.8	10.7	1.51e-04	0	44	0	880803840	23	5103
2026-01-19 23:49:07.28	153.99	33.57	-32.5	-36.6	8.5	8.68e-02	0	44	0	887095296	25	5730
2026-01-19 23:49:10.29	154.68	33.05	-31.0	-32.4	12.3	2.60e-04	0	44	0	892338176	23	4226
2026-01-19 23:49:13.30	155.35	32.54	-31.8	-34.8	10.6	2.18e-03	0	44	0	897581056	23	5120
2026-01-19 23:49:16.30	156.00	32.04	-32.6	-37.0	8.1	6.09e-02	0	44	0	903872512	25	5971
2026-01-19 23:49:19.32	156.63	31.53	-32.1	-35.5	9.6	2.00e-02	0	44	0	909115392	24	5318
2026-01-19 23:49:22.32	157.24	31.04	-31.3	-33.7	11.7	1.13e-03	0	44	0	915406848	22	4780
2026-01-19 23:49:25.34	157.83	30.54	-31.9	-35.5	10.0	7.40e-03	0	45	0	920649728	23	5415
2026-01-19 23:49:28.34	158.41	30.06	-32.5	-36.7	8.3	5.93e-02	0	44	0	925892608	25	5857
2026-01-19 23:49:31.35	158.97	29.58	-31.6	-34.3	10.8	4.97e-03	0	45	0	932184064	23	4915
2026-01-19 23:49:34.35	159.51	29.10	-31.6	-34.4	10.8	2.54e-03	0	44	0	937426944	23	4982
2026-01-19 23:49:37.35	160.03	28.63	-32.2	-35.9	9.3	1.04e-02	0	44	0	942669824	24	5515
2026-01-19 23:49:40.36	160.55	28.17	-32.0	-35.4	9.7	1.42e-02	0	44	0	948961280	24	5298
2026-01-19 23:49:43.36	161.04	27.71	-30.6	-32.5	12.7	2.13e-03	0	44	0	954204160	21	4448
2026-01-19 23:49:46.37	161.53	27.25	-29.9	-30.9	14.1	2.26e-03	0	44	0	960495616	20	4060
2026-01-19 23:49:49.39	162.00	26.80	-29.6	-30.6	14.6	1.72e-03	0	44	0	965738496	19	4067
2026-01-19 23:49:52.38	162.46	26.36	-30.2	-31.7	13.6	1.71e-03	0	45	0	970981376	20	4307
2026-01-19 23:49:55.39	162.90	25.92	-31.2	-33.7	11.6	8.17e-04	0	44	0	977272832	22	4793
2026-01-19 23:49:58.39	163.34	25.49	-31.0	-33.0	12.0	2.82e-03	0	45	0	982515712	22	4546
2026-01-19 23:50:01.40	163.76	25.06	-30.1	-31.6	13.6	2.21e-03	0	44	0	987758592	20	4270
2026-01-19 23:50:04.41	164.17	24.64	-29.9	-31.0	13.9	2.07e-03	0	44	0	994050048	20	4102
2026-01-19 23:50:07.42	164.57	24.22	-30.2	-31.9	13.3	1.39e-03	0	44	0	999292928	20	4385
2026-01-19 23:50:10.42	164.97	23.81	-30.7	-33.0	12.3	1.64e-03	0	44	0	1005584384	21	4663
2026-01-19 23:50:13.43	165.35	23.40	-31.4	-34.6	10.7	2.01e-03	0	44	0	1010827264	22	5205
2026-01-19 23:50:16.44	165.72	23.00	-30.5	-32.3	12.7	1.04e-04	0	44	0	1016070144	21	4430
2026-01-19 23:50:19.45	166.08	22.60	-29.8	-30.9	13.9	1.38e-03	0	44	0	1022361600	20	4069
2026-01-19 23:50:22.44	166.44	22.21	-29.8	-31.2	14.1	9.31e-04	0	45	0	1027604480	19	4257
2026-01-19 23:50:25.45	166.78	21.83	-29.8	-31.4	14.0	5.68e-04	0	45	0	1032847360	19	4296
2026-01-19 23:50:28.46	167.12	21.45	-30.3	-32.1	13.2	5.31e-04	0	45	0	1039138816	20	4447
2026-01-19 23:50:31.46	167.45	21.07	-30.6	-32.6	12.3	1.54e-04	0	45	0	1044381696	21	4519
2026-01-19 23:50:34.47	167.77	20.70	-30.8	-32.7	12.1	4.90e-04	0	44	0	1050673152	22	4448
2026-01-19 23:50:37.48	168.09	20.33	-30.9	-33.4	11.9	2.75e-04	0	44	0	1055916032	21	4812
2026-01-19 23:50:40.49	168.40	19.96	-30.8	-33.3	12.0	2.77e-04	0	44	0	1061158912	21	4758
2026-01-19 23:50:43.51	168.70	19.60	-30.7	-32.8	12.3	1.27e-04	0	44	0	1067450368	21	4580
2026-01-19 23:50:46.51	168.99	19.25	-30.4	-32.5	12.8	5.29e-04	0	44	0	1072693248	20	4575
2026-01-19 23:50:49.53	169.28	18.90	-31.1	-33.6	11.4	8.42e-04	0	45	0	1077936128	22	4779
2026-01-19 23:50:52.53	169.56	18.55	-31.4	-34.4	10.8	1.63e-03	0	45	0	1084227584	22	5103
2026-01-19 23:50:55.54	169.84	18.21	-31.3	-34.1	11.1	3.31e-03	0	45	0	1089470464	22	4974
2026-01-19 23:50:58.53	170.11	17.88	-31.0	-33.2	11.7	8.02e-04	0	44	0	1095761920	22	4634
2026-01-19 23:51:01.52	170.37	17.54	-31.4	-33.9	10.7	4.01e-03	0	44	0	1101004800	23	4837
2026-01-19 23:51:04.53	170.63	17.21	-31.0	-33.7	11.6	4.97e-04	0	44	0	1106247680	21	4921
2026-01-19 23:51:07.54	170.88	16.89	-31.0	-33.7	11.5	7.74e-04	0	45	0	1112539136	21	4946
2026-01-19 23:51:10.55	171.13	16.56	-30.1	-31.8	13.1	5.18e-05	0	45	0	1117782016	20	4372
2026-01-19 23:51:13.56	171.38	16.25	-30.0	-31.5	13.3	1.37e-05	0	44	0	1123024896	20	4285
2026-01-19 23:51:16.57	171.61	15.93	-30.3	-32.3	12.7	7.40e-05	0	45	0	1129316352	20	4565
2026-01-19 23:51:19.57	171.85	15.62	-30.6	-32.9	11.9	2.54e-04	0	44	0	1134559232	21	4681
2026-01-19 23:51:22.56	172.07	15.31	-30.5	-32.6	12.1	3.26e-04	0	45	0	1140850688	21	4605
2026-01-19 23:51:25.57	172.30	15.01	-30.6	-32.9	11.8	4.22e-04	0	44	0	1146093568	21	4719
2026-01-19 23:51:28.56	172.52	14.71	-30.7	-33.3	11.6	6.13e-04	0	44	0	1151336448	21	4855
2026-01-19 23:51:31.56	172.73	14.41	-30.6	-33.0	11.8	4.39e-04	0	44	0	1157627904	21	4728
2026-01-19 23:51:34.58	172.95	14.12	-30.2	-32.2	12.7	9.53e-05	0	45	0	1162870784	20	4516
2026-01-19 23:51:37.58	173.16	13.83	-30.0	-31.5	13.2	7.78e-05	0	45	0	1168113664	20	4284
2026-01-19 23:51:40.60	173.36	13.54	-29.7	-30.7	13.7	6.80e-06	0	44	0	1174405120	20	4036
2026-01-19 23:51:43.62	173.56	13.25	-29.8	-31.5	13.6	3.80e-06	0	44	0	1179648000	19	4360
2026-01-19 23:51:46.62	173.76	12.97	-29.7	-31.2	13.7	6.80e-06	0	44	0	1185939456	19	4281
2026-01-19 23:51:49.64	173.95	12.69	-30.0	-31.7	13.0	1.52e-05	0	44	0	1191182336	20	4342
2026-01-19 23:51:52.66	174.14	12.41	-30.3	-32.5	12.5	1.50e-04	0	44	0	1196425216	20	4614
2026-01-19 23:51:55.66	174.33	12.14	-30.4	-32.6	12.4	1.91e-04	0	44	0	1202716672	20	4643
2026-01-19 23:51:58.67	174.51	11.87	-30.5	-32.4	12.1	2.08e-04	0	45	0	1207959552	21	4512
2026-01-19 23:52:01.67	174.69	11.60	-30.4	-32.2	12.3	2.43e-04	0	45	0	1213202432	21	4421
2026-01-19 23:52:04.67	174.87	11.34	-30.4	-32.3	12.2	2.70e-04	0	44	0	1219493888	21	4477
2026-01-19 23:52:07.67	175.05	11.08	-30.4	-32.2	12.2	5.35e-04	0	45	0	1224736768	21	4445
2026-01-19 23:52:10.68	175.22	10.82	-30.4	-32.7	12.2	1.79e-04	0	44	0	1231028224	20	4697
2026-01-19 23:52:13.68	175.39	10.56	-30.7	-33.1	11.6	1.08e-03	0	45	0	1236271104	21	4740
2026-01-19 23:52:16.69	175.55	10.31	-30.1	-31.9	12.7	7.17e-05	0	44	0	1241513984	20	4428
2026-01-19 23:52:19.69	175.71	10.05	-30.1	-32.0	12.6	1.25e-04	0	44	0	1247805440	20	4474
2026-01-19 23:52:22.69	175.88	9.81	-30.0	-31.6	12.9	5.41e-05	0	44	0	1253048320	20	4329
2026-01-19 23:52:25.69	176.03	9.56	-30.1	-32.0	12.6	7.62e-05	0	44	0	1258291200	20	4466
2026-01-19 23:52:28.70	176.19	9.31	-30.1	-32.0	12.6	1.29e-04	0	45	0	1264582656	20	4482
2026-01-19 23:52:31.71	176.34	9.07	-30.3	-32.2	12.0	4.96e-04	0	44	0	1269825536	21	4455
2026-01-19 23:52:34.72	176.49	8.83	-30.4	-32.5	11.8	5.58e-04	0	44	0	1276116992	21	4553
2026-01-19 23:52:37.73	176.64	8.59	-30.5	-32.7	11.6	6.96e-04	0	44	0	1281359872	21	4633
2026-01-19 23:52:40.72	176.79	8.35	-30.7	-33.2	11.2	1.05e-03	0	44	0	1286602752	21	4841
2026-01-19 23:52:43.74	176.93	8.12	-30.6	-33.1	11.3	9.82e-04	0	45	0	1292894208	21	4799
2026-01-19 23:52:46.75	177.07	7.88	-30.8	-33.8	10.8	2.95e-03	0	44	0	1298137088	21	5072
2026-01-19 23:52:49.77	177.21	7.65	-30.9	-34.2	10.4	3.33e-03	0	44	0	1304428544	21	5258
2026-01-19 23:52:52.78	177.35	7.42	-31.0	-33.9	10.2	4.81e-03	0	44	0	1309671424	22	5063
2026-01-19 23:52:55.77	177.49	7.20	-31.0	-34.2	10.0	7.40e-03	0	45	0	1314914304	22	5179

#Closed at: 2026-01-19 23:52:58
#Recorded file [1318 MB]: D:/data/31010_260120_024113.dat