passes_logs/2026/01/19/R2M6_AANII_01/R2M6_AANII_01__20260119_092328_NOAA_21_JPSS-2_rec.log

#Pass ID: 20260119_092328_NOAA 21 (JPSS-2)
#Satellite: NOAA 21 (JPSS-2)
#Configuration: NOAA 21
#almurnet v.1.7.20240730
#Start time: 2026-01-19 09:23:29

#Version: 2.2.20231116
#Station: R2M6_AANII_01
#Location: 30.233357 lon 59.946436 lat
#TLE: 1 54234U 22150A   26017.90260625  .00000050  00000+0  44518-4 0  9994
#TLE: 2 54234  98.7502 318.7672 0000612 269.1755  90.9351 14.19535344165221

#Time	Az	El	Level	Level2	SNR	BER	BlckErr	Temp	State	Recorded	gain1	gain2
2026-01-19 09:23:29.09	131.50	7.05	-30.6	-34.7	4.7	1.39e+00	0	41	0	0	22	5769
2026-01-19 09:23:32.11	131.37	7.28	-30.6	-33.8	9.5	1.29e-02	0	41	0	3145728	22	5217
2026-01-19 09:23:35.11	131.23	7.50	-30.3	-33.4	10.2	5.49e-03	0	41	0	12582912	21	5123
2026-01-19 09:23:38.12	131.09	7.73	-30.5	-34.0	9.8	9.75e-03	0	42	0	22020096	21	5384
2026-01-19 09:23:41.11	130.95	7.96	-29.7	-32.0	11.5	5.80e-04	0	41	0	30408704	20	4740
2026-01-19 09:23:44.11	130.80	8.19	-29.0	-30.8	12.7	1.03e-04	0	42	0	39845888	19	4440
2026-01-19 09:23:47.13	130.65	8.43	-29.2	-31.3	12.5	1.07e-04	0	42	0	49283072	19	4575
2026-01-19 09:23:50.13	130.50	8.67	-29.3	-31.5	12.3	1.20e-04	0	42	0	58720256	19	4655
2026-01-19 09:23:53.15	130.35	8.90	-29.2	-31.3	12.5	8.54e-05	0	42	0	68157440	19	4588
2026-01-19 09:23:56.16	130.19	9.15	-29.2	-31.2	12.6	1.03e-04	0	42	0	77594624	19	4565
2026-01-19 09:23:59.16	130.03	9.39	-29.0	-30.8	12.9	4.73e-05	0	42	0	87031808	19	4421
2026-01-19 09:24:02.17	129.87	9.63	-29.0	-30.9	12.9	3.96e-05	0	42	0	96468992	19	4448
2026-01-19 09:24:05.18	129.71	9.88	-29.0	-30.8	12.9	4.95e-05	0	42	0	105906176	19	4432
2026-01-19 09:24:08.19	129.54	10.13	-28.9	-30.5	13.2	2.51e-05	0	42	0	115343360	19	4327
2026-01-19 09:24:11.19	129.37	10.38	-28.9	-30.4	13.3	2.05e-05	0	42	0	124780544	19	4283
2026-01-19 09:24:14.20	129.19	10.64	-28.9	-30.5	13.2	1.22e-05	0	42	0	134217728	19	4319
2026-01-19 09:24:17.21	129.02	10.89	-28.8	-30.6	13.5	1.60e-05	0	42	0	143654912	18	4446
2026-01-19 09:24:20.22	128.84	11.15	-28.5	-30.0	13.9	2.20e-06	0	42	0	153092096	18	4278
2026-01-19 09:24:23.22	128.65	11.41	-28.6	-30.3	13.7	4.50e-06	0	42	0	162529280	18	4345
2026-01-19 09:24:26.24	128.47	11.68	-28.5	-29.9	14.0	5.30e-06	0	42	0	171966464	18	4242
2026-01-19 09:24:29.25	128.28	11.95	-28.4	-29.7	14.1	7.00e-07	0	42	0	181403648	18	4185
2026-01-19 09:24:32.26	128.08	12.21	-28.3	-30.0	14.2	7.00e-07	0	42	0	190840832	17	4379
2026-01-19 09:24:35.26	127.89	12.49	-28.3	-29.9	14.3	1.50e-06	0	42	0	200278016	17	4347
2026-01-19 09:24:38.27	127.68	12.76	-28.2	-29.8	14.4	7.00e-07	0	43	0	209715200	17	4325
2026-01-19 09:24:41.29	127.48	13.04	-28.3	-29.9	14.3	7.00e-07	0	43	0	219152384	17	4351
2026-01-19 09:24:44.29	127.27	13.32	-28.3	-29.9	14.4	0.00e+00	0	43	0	228589568	17	4328
2026-01-19 09:24:47.30	127.05	13.60	-28.3	-29.9	14.4	1.50e-06	0	43	0	238026752	17	4318
2026-01-19 09:24:50.31	126.84	13.89	-28.3	-29.9	14.4	0.00e+00	0	43	0	247463936	17	4332
2026-01-19 09:24:53.32	126.61	14.18	-28.1	-29.4	14.7	0.00e+00	0	43	0	256901120	17	4193
2026-01-19 09:24:56.33	126.39	14.47	-28.1	-29.5	14.7	0.00e+00	0	43	0	266338304	17	4210
2026-01-19 09:24:59.34	126.15	14.76	-28.1	-29.4	14.7	0.00e+00	0	43	0	275775488	17	4196
2026-01-19 09:25:02.35	125.92	15.06	-28.2	-29.7	14.6	0.00e+00	0	43	0	285212672	17	4270
2026-01-19 09:25:05.35	125.68	15.36	-28.2	-29.8	14.6	7.00e-07	0	43	0	294649856	17	4288
2026-01-19 09:25:08.35	125.43	15.67	-28.4	-30.0	14.5	0.00e+00	0	43	0	303038464	17	4361
2026-01-19 09:25:11.35	125.18	15.97	-28.4	-30.2	14.4	0.00e+00	0	43	0	312475648	17	4412
2026-01-19 09:25:14.36	124.92	16.28	-28.4	-30.1	14.5	1.50e-06	0	43	0	321912832	17	4373
2026-01-19 09:25:17.37	124.66	16.60	-28.3	-29.9	14.6	7.00e-07	0	43	0	331350016	17	4309
2026-01-19 09:25:20.38	124.39	16.92	-28.4	-30.1	14.5	0.00e+00	0	43	0	340787200	17	4378
2026-01-19 09:25:23.38	124.12	17.24	-28.3	-29.9	14.6	0.00e+00	0	43	0	350224384	17	4309
2026-01-19 09:25:26.39	123.84	17.56	-28.5	-30.2	14.5	7.00e-07	0	43	0	359661568	17	4416
2026-01-19 09:25:29.39	123.55	17.89	-28.4	-30.1	14.5	0.00e+00	0	43	0	369098752	17	4389
2026-01-19 09:25:32.40	123.26	18.22	-28.5	-30.3	14.4	0.00e+00	0	43	0	378535936	17	4448
2026-01-19 09:25:35.41	122.96	18.56	-28.5	-30.3	14.5	0.00e+00	0	43	0	387973120	17	4444
2026-01-19 09:25:38.41	122.65	18.90	-28.4	-30.1	14.6	0.00e+00	0	43	0	397410304	17	4365
2026-01-19 09:25:41.42	122.34	19.24	-28.3	-29.9	14.8	0.00e+00	0	43	0	406847488	17	4312
2026-01-19 09:25:44.44	122.01	19.59	-28.2	-29.5	15.0	0.00e+00	0	43	0	416284672	17	4215
2026-01-19 09:25:47.45	121.68	19.94	-28.0	-29.0	15.3	1.50e-06	0	43	0	425721856	17	4075
2026-01-19 09:25:50.45	121.35	20.29	-28.0	-29.1	15.2	0.00e+00	0	43	0	435159040	17	4087
2026-01-19 09:25:53.45	121.00	20.65	-27.8	-28.7	15.5	0.00e+00	0	43	0	444596224	17	3997
2026-01-19 09:25:56.45	120.65	21.02	-27.7	-28.9	15.7	0.00e+00	0	43	0	454033408	16	4134
2026-01-19 09:25:59.45	120.29	21.38	-27.4	-28.3	16.0	0.00e+00	0	43	0	463470592	16	3989
2026-01-19 09:26:02.45	119.92	21.75	-27.1	-28.1	16.2	0.00e+00	0	43	0	472907776	15	4040
2026-01-19 09:26:05.47	119.54	22.13	-27.2	-28.4	16.1	0.00e+00	0	43	0	482344960	15	4113
2026-01-19 09:26:08.48	119.15	22.51	-27.2	-28.4	16.1	0.00e+00	0	43	0	491782144	15	4120
2026-01-19 09:26:11.49	118.75	22.89	-27.2	-28.4	16.1	0.00e+00	0	43	0	501219328	15	4132
2026-01-19 09:26:14.50	118.34	23.28	-27.2	-28.4	16.1	0.00e+00	0	43	0	510656512	15	4123
2026-01-19 09:26:17.51	117.92	23.67	-27.2	-28.4	16.2	0.00e+00	0	43	0	520093696	15	4116
2026-01-19 09:26:20.52	117.49	24.07	-27.3	-28.5	16.1	0.00e+00	0	43	0	529530880	15	4146
2026-01-19 09:26:23.54	117.05	24.47	-27.1	-28.1	16.3	0.00e+00	0	43	0	537919488	15	4043
2026-01-19 09:26:26.54	116.59	24.88	-27.2	-28.3	16.2	0.00e+00	0	43	0	548405248	15	4083
2026-01-19 09:26:29.55	116.13	25.29	-27.2	-28.3	16.2	0.00e+00	0	43	0	556793856	15	4078
2026-01-19 09:26:32.56	115.65	25.70	-27.3	-28.6	16.1	0.00e+00	0	43	0	566231040	15	4166
2026-01-19 09:26:35.57	115.16	26.12	-27.5	-29.0	15.8	0.00e+00	0	43	0	575668224	15	4282
2026-01-19 09:26:38.57	114.66	26.54	-27.7	-29.4	15.7	0.00e+00	0	43	0	585105408	15	4370
2026-01-19 09:26:41.58	114.14	26.97	-27.8	-29.6	15.6	0.00e+00	0	44	0	594542592	15	4424
2026-01-19 09:26:44.59	113.60	27.40	-27.9	-29.8	15.5	0.00e+00	0	43	0	603979776	15	4493
2026-01-19 09:26:47.60	113.06	27.83	-28.3	-30.3	15.1	7.00e-07	0	43	0	613416960	16	4523
2026-01-19 09:26:50.62	112.49	28.27	-28.4	-29.9	15.1	7.00e-07	0	43	0	622854144	17	4287
2026-01-19 09:26:53.62	111.92	28.71	-28.3	-29.7	15.2	7.00e-07	0	43	0	632291328	17	4249
2026-01-19 09:26:56.64	111.32	29.16	-28.2	-29.5	15.3	0.00e+00	0	43	0	641728512	17	4192
2026-01-19 09:26:59.64	110.71	29.61	-28.3	-29.7	15.3	0.00e+00	0	43	0	651165696	17	4232
2026-01-19 09:27:02.65	110.08	30.06	-28.3	-29.8	15.2	0.00e+00	0	43	0	660602880	17	4254
2026-01-19 09:27:05.65	109.43	30.51	-28.6	-30.4	14.9	0.00e+00	0	43	0	670040064	17	4439
2026-01-19 09:27:08.66	108.77	30.97	-28.3	-29.7	15.3	0.00e+00	0	43	0	679477248	17	4241
2026-01-19 09:27:11.66	108.08	31.43	-28.4	-30.0	15.1	0.00e+00	0	43	0	688914432	17	4321
2026-01-19 09:27:14.67	107.38	31.90	-28.1	-29.2	15.6	0.00e+00	0	43	0	698351616	17	4085
2026-01-19 09:27:17.68	106.65	32.36	-28.1	-29.3	15.5	0.00e+00	0	43	0	707788800	17	4129
2026-01-19 09:27:20.68	105.91	32.83	-28.1	-29.3	15.5	0.00e+00	0	44	0	717225984	17	4114
2026-01-19 09:27:23.70	105.13	33.30	-28.2	-29.6	15.4	0.00e+00	0	43	0	726663168	17	4191
2026-01-19 09:27:26.71	104.34	33.77	-28.3	-29.8	15.3	0.00e+00	0	43	0	736100352	17	4239
2026-01-19 09:27:29.71	103.53	34.24	-28.5	-30.2	15.1	0.00e+00	0	44	0	745537536	17	4367
2026-01-19 09:27:32.72	102.69	34.71	-28.9	-31.1	14.6	7.00e-07	0	44	0	754974720	17	4631
2026-01-19 09:27:35.72	101.83	35.18	-29.2	-31.3	14.2	1.50e-06	0	44	0	764411904	18	4567
2026-01-19 09:27:38.73	100.94	35.65	-29.2	-31.2	14.3	7.00e-07	0	44	0	773849088	18	4538
2026-01-19 09:27:41.73	100.02	36.12	-29.4	-31.7	14.0	3.00e-06	0	44	0	783286272	18	4702
2026-01-19 09:27:44.75	99.08	36.59	-29.7	-32.0	13.5	9.90e-06	0	44	0	792723456	19	4694
2026-01-19 09:27:47.77	98.10	37.05	-30.0	-32.2	13.0	4.04e-05	0	43	0	802160640	20	4634
2026-01-19 09:27:50.77	97.11	37.51	-30.3	-32.9	12.6	8.92e-05	0	44	0	810549248	20	4870
2026-01-19 09:27:53.77	96.08	37.97	-30.7	-33.6	11.8	2.78e-04	0	44	0	819986432	21	5012
2026-01-19 09:27:56.78	95.03	38.42	-30.6	-33.3	12.0	3.93e-04	0	44	0	829423616	21	4889
2026-01-19 09:27:59.79	93.94	38.87	-29.7	-31.4	13.5	1.06e-05	0	44	0	838860800	20	4395
2026-01-19 09:28:02.80	92.82	39.31	-30.0	-32.3	13.0	4.88e-05	0	44	0	848297984	20	4658
2026-01-19 09:28:05.80	91.68	39.75	-29.7	-31.5	13.4	9.90e-06	0	43	0	857735168	20	4428
2026-01-19 09:28:08.82	90.50	40.17	-30.2	-32.7	12.7	6.56e-05	0	44	0	867172352	20	4812
2026-01-19 09:28:11.82	89.29	40.59	-30.2	-32.8	12.7	7.62e-05	0	44	0	876609536	20	4842
2026-01-19 09:28:14.83	88.05	41.00	-30.0	-32.2	13.1	3.73e-05	0	44	0	886046720	20	4633
2026-01-19 09:28:17.85	86.78	41.39	-29.7	-31.5	13.5	1.67e-05	0	44	0	895483904	20	4421
2026-01-19 09:28:20.87	85.47	41.78	-29.7	-31.4	13.5	1.29e-05	0	43	0	904921088	20	4395
2026-01-19 09:28:23.87	84.14	42.15	-29.8	-31.7	13.4	1.37e-05	0	44	0	914358272	20	4474
2026-01-19 09:28:26.87	82.78	42.50	-30.1	-32.4	13.0	3.43e-05	0	44	0	923795456	20	4680
2026-01-19 09:28:29.86	81.40	42.84	-30.0	-32.1	13.2	1.75e-05	0	43	0	933232640	20	4586
2026-01-19 09:28:32.87	79.98	43.16	-30.3	-32.9	12.7	6.10e-05	0	43	0	942669824	20	4849
2026-01-19 09:28:35.89	78.52	43.47	-30.6	-33.2	12.2	2.23e-04	0	44	0	952107008	21	4859
2026-01-19 09:28:38.89	77.05	43.76	-30.8	-33.3	11.9	5.07e-04	0	44	0	961544192	22	4762
2026-01-19 09:28:41.89	75.55	44.02	-30.4	-32.2	12.6	9.61e-05	0	44	0	970981376	22	4404
2026-01-19 09:28:44.89	74.03	44.27	-30.9	-33.5	11.8	2.91e-04	0	44	0	980418560	22	4832
2026-01-19 09:28:47.91	72.47	44.49	-30.5	-32.3	12.5	1.49e-04	0	44	0	989855744	22	4460
2026-01-19 09:28:50.93	70.89	44.70	-30.2	-32.2	12.8	6.48e-05	0	44	0	999292928	21	4521
2026-01-19 09:28:53.93	69.31	44.88	-30.3	-32.4	12.7	7.09e-05	0	44	0	1008730112	21	4588
2026-01-19 09:28:56.94	67.70	45.03	-30.0	-31.5	13.3	3.12e-05	0	44	0	1018167296	21	4320
2026-01-19 09:28:59.95	66.08	45.16	-29.4	-30.7	14.0	2.20e-06	0	44	0	1027604480	20	4188
2026-01-19 09:29:02.95	64.45	45.27	-29.8	-31.5	13.6	6.80e-06	0	44	0	1037041664	20	4414
2026-01-19 09:29:05.97	62.80	45.34	-30.2	-32.6	12.9	4.11e-05	0	44	0	1046478848	20	4755
2026-01-19 09:29:08.98	61.15	45.40	-30.1	-32.3	13.1	1.52e-05	0	44	0	1055916032	20	4654
2026-01-19 09:29:12.00	59.49	45.42	-30.4	-33.2	12.6	9.91e-05	0	44	0	1065353216	20	4943
2026-01-19 09:29:15.00	57.84	45.42	-29.9	-31.9	13.4	1.98e-05	0	44	0	1074790400	20	4540
2026-01-19 09:29:18.01	56.19	45.40	-29.9	-31.9	13.4	1.60e-05	0	44	0	1084227584	20	4516
2026-01-19 09:29:21.02	54.54	45.34	-30.3	-32.8	12.8	7.55e-05	0	44	0	1092616192	20	4834
2026-01-19 09:29:24.03	52.90	45.27	-30.0	-32.2	13.2	1.98e-05	0	44	0	1102053376	20	4633
2026-01-19 09:29:27.03	51.27	45.16	-30.4	-33.0	12.7	8.46e-05	0	44	0	1111490560	20	4905
2026-01-19 09:29:30.03	49.65	45.03	-30.2	-32.5	13.0	4.65e-05	0	44	0	1120927744	20	4728
2026-01-19 09:29:33.04	48.05	44.88	-30.6	-33.1	12.3	1.75e-04	0	44	0	1130364928	21	4811
2026-01-19 09:29:36.05	46.46	44.70	-30.4	-32.7	12.6	1.22e-04	0	44	0	1139802112	21	4670
2026-01-19 09:29:39.05	44.89	44.50	-30.3	-32.3	12.8	5.87e-05	0	44	0	1149239296	21	4562
2026-01-19 09:29:42.07	43.34	44.27	-30.0	-31.7	13.2	2.21e-05	0	44	0	1158676480	21	4366
2026-01-19 09:29:45.08	41.81	44.02	-30.6	-33.2	12.2	1.87e-04	0	44	0	1168113664	21	4862
2026-01-19 09:29:48.08	40.32	43.76	-30.1	-32.0	13.0	7.17e-05	0	44	0	1177550848	21	4458
2026-01-19 09:29:51.08	38.85	43.47	-29.9	-32.0	13.3	1.29e-05	0	44	0	1186988032	20	4557
2026-01-19 09:29:54.10	37.40	43.17	-31.8	-35.4	10.2	7.30e-03	0	44	0	1196425216	23	5443
2026-01-19 09:29:57.10	35.98	42.84	-30.5	-32.3	12.5	1.11e-04	0	44	0	1205862400	22	4440
2026-01-19 09:30:00.11	34.59	42.51	-31.8	-35.3	10.2	4.49e-03	0	44	0	1215299584	23	5419
2026-01-19 09:30:03.12	33.23	42.15	-31.3	-33.9	11.1	1.58e-03	0	44	0	1224736768	23	4889
2026-01-19 09:30:06.12	31.90	41.78	-31.4	-34.2	10.9	1.39e-03	0	44	0	1234173952	23	5005
2026-01-19 09:30:09.13	30.60	41.40	-30.9	-33.0	11.6	1.82e-03	0	44	0	1243611136	23	4585
2026-01-19 09:30:12.14	29.34	41.01	-30.1	-31.8	13.0	3.50e-05	0	44	0	1253048320	21	4418
2026-01-19 09:30:15.15	28.10	40.60	-32.4	-37.1	8.5	3.67e-02	0	44	0	1262485504	24	6133
2026-01-19 09:30:18.16	26.89	40.19	-29.9	-31.6	13.1	1.06e-04	0	44	0	1271922688	21	4338
2026-01-19 09:30:21.17	25.72	39.76	-29.0	-30.7	14.5	0.00e+00	0	44	0	1281359872	18	4386
2026-01-19 09:30:24.17	24.58	39.33	-30.0	-32.3	13.0	5.26e-05	0	44	0	1290797056	20	4682
2026-01-19 09:30:27.18	23.46	38.89	-29.2	-30.8	14.2	0.00e+00	0	44	0	1300234240	19	4321
2026-01-19 09:30:30.19	22.38	38.44	-30.3	-33.0	12.5	8.31e-05	0	44	0	1309671424	20	4903
2026-01-19 09:30:33.20	21.33	37.99	-30.4	-32.8	12.3	3.29e-04	0	44	0	1319108608	21	4733
2026-01-19 09:30:36.20	20.31	37.54	-30.3	-32.5	12.5	1.07e-04	0	44	0	1328545792	21	4614
2026-01-19 09:30:39.20	19.31	37.08	-30.6	-33.3	12.0	2.59e-04	0	44	0	1337982976	21	4896
2026-01-19 09:30:42.22	18.34	36.61	-30.7	-33.4	11.9	4.66e-04	0	44	0	1346371584	21	4944
2026-01-19 09:30:45.22	17.41	36.15	-29.5	-31.1	13.6	2.20e-06	0	44	0	1355808768	20	4304
2026-01-19 09:30:48.23	16.49	35.68	-30.7	-33.5	11.8	4.23e-04	0	44	0	1365245952	21	4985
2026-01-19 09:30:51.23	15.61	35.22	-29.3	-30.6	13.9	4.50e-06	0	44	0	1374683136	20	4154
2026-01-19 09:30:54.24	14.75	34.75	-28.7	-30.2	14.8	7.00e-07	0	44	0	1384120320	18	4253
2026-01-19 09:30:57.24	13.91	34.28	-29.3	-31.4	14.1	3.00e-06	0	44	0	1393557504	18	4622
2026-01-19 09:31:00.24	13.10	33.81	-29.1	-31.1	14.3	0.00e+00	0	44	0	1402994688	18	4518
2026-01-19 09:31:03.24	12.31	33.34	-28.6	-29.9	14.9	0.00e+00	0	44	0	1412431872	18	4179
2026-01-19 09:31:06.26	11.54	32.88	-28.4	-29.8	15.2	0.00e+00	0	44	0	1421869056	17	4257
2026-01-19 09:31:09.27	10.80	32.41	-29.0	-30.9	14.4	1.50e-06	0	44	0	1431306240	18	4450
2026-01-19 09:31:12.29	10.07	31.94	-29.0	-30.7	14.4	7.00e-07	0	44	0	1440743424	18	4412
2026-01-19 09:31:15.30	9.37	31.48	-28.6	-29.8	14.9	0.00e+00	0	44	0	1450180608	18	4154
2026-01-19 09:31:18.31	8.69	31.02	-28.6	-29.9	14.9	7.00e-07	0	44	0	1459617792	18	4184
2026-01-19 09:31:21.32	8.02	30.57	-28.6	-29.8	14.9	0.00e+00	0	44	0	1469054976	18	4164
2026-01-19 09:31:24.32	7.38	30.11	-28.4	-29.5	15.0	0.00e+00	0	44	0	1478492160	18	4088
2026-01-19 09:31:27.33	6.75	29.66	-28.2	-29.5	15.3	0.00e+00	0	44	0	1487929344	17	4177
2026-01-19 09:31:30.35	6.14	29.22	-28.2	-29.5	15.3	0.00e+00	0	44	0	1497366528	17	4179
2026-01-19 09:31:33.37	5.55	28.77	-28.0	-29.1	15.5	0.00e+00	0	44	0	1506803712	17	4079
2026-01-19 09:31:36.37	4.97	28.33	-27.8	-28.6	15.8	0.00e+00	0	44	0	1516240896	17	3953
2026-01-19 09:31:39.38	4.41	27.90	-28.0	-29.0	15.6	0.00e+00	0	44	0	1525678080	17	4050
2026-01-19 09:31:42.40	3.86	27.46	-28.1	-29.3	15.4	0.00e+00	0	44	0	1535115264	17	4123
2026-01-19 09:31:45.40	3.34	27.03	-28.2	-29.5	15.2	0.00e+00	0	44	0	1544552448	17	4179
2026-01-19 09:31:48.41	2.82	26.61	-27.9	-28.8	15.6	0.00e+00	0	44	0	1553989632	17	4014
2026-01-19 09:31:51.42	2.32	26.19	-28.0	-29.1	15.4	0.00e+00	0	44	0	1563426816	17	4089
2026-01-19 09:31:54.43	1.83	25.77	-27.8	-28.7	15.6	0.00e+00	0	44	0	1572864000	17	3984
2026-01-19 09:31:57.45	1.35	25.36	-27.8	-28.7	15.6	0.00e+00	0	44	0	1582301184	17	3992
2026-01-19 09:32:00.45	0.89	24.95	-27.7	-28.9	15.7	0.00e+00	0	44	0	1591738368	16	4146
2026-01-19 09:32:03.46	0.44	24.55	-27.6	-28.6	15.9	0.00e+00	0	44	0	1601175552	16	4048
2026-01-19 09:32:06.46	360.00	24.15	-27.7	-29.0	15.7	0.00e+00	0	44	0	1610612736	16	4154
2026-01-19 09:32:09.48	359.57	23.75	-27.8	-29.1	15.6	0.00e+00	0	44	0	1619001344	16	4181
2026-01-19 09:32:12.48	359.15	23.36	-27.7	-29.0	15.6	0.00e+00	0	44	0	1628438528	16	4164
2026-01-19 09:32:15.49	358.74	22.98	-27.8	-29.0	15.7	0.00e+00	0	44	0	1637875712	16	4173
2026-01-19 09:32:18.49	358.35	22.60	-27.8	-29.1	15.6	0.00e+00	0	44	0	1647312896	16	4196
2026-01-19 09:32:21.51	357.96	22.22	-27.7	-28.8	15.7	0.00e+00	0	44	0	1656750080	16	4115
2026-01-19 09:32:24.53	357.58	21.84	-27.7	-28.8	15.7	0.00e+00	0	44	0	1666187264	16	4114
2026-01-19 09:32:27.54	357.21	21.47	-27.6	-28.7	15.8	0.00e+00	0	44	0	1675624448	16	4080
2026-01-19 09:32:30.54	356.85	21.11	-27.8	-29.1	15.5	0.00e+00	0	44	0	1685061632	16	4194
2026-01-19 09:32:33.54	356.50	20.74	-28.0	-29.6	15.3	0.00e+00	0	44	0	1694498816	16	4324
2026-01-19 09:32:36.54	356.16	20.39	-28.0	-29.7	15.2	0.00e+00	0	44	0	1703936000	16	4357
2026-01-19 09:32:39.55	355.83	20.03	-28.1	-29.9	15.1	0.00e+00	0	44	0	1713373184	16	4408
2026-01-19 09:32:42.56	355.50	19.68	-27.6	-28.7	15.7	0.00e+00	0	44	0	1722810368	16	4100
2026-01-19 09:32:45.58	355.18	19.34	-27.6	-28.7	15.7	0.00e+00	0	44	0	1732247552	16	4090
2026-01-19 09:32:48.59	354.87	18.99	-27.6	-28.7	15.7	0.00e+00	0	44	0	1741684736	16	4095
2026-01-19 09:32:51.60	354.56	18.66	-27.9	-29.3	15.3	0.00e+00	0	44	0	1751121920	16	4262
2026-01-19 09:32:54.60	354.27	18.32	-28.1	-29.8	15.1	0.00e+00	0	44	0	1760559104	16	4395
2026-01-19 09:32:57.60	353.97	17.99	-28.3	-30.2	14.8	0.00e+00	0	44	0	1769996288	16	4523
2026-01-19 09:33:00.61	353.69	17.66	-28.3	-30.3	14.8	1.50e-06	0	44	0	1779433472	16	4530
2026-01-19 09:33:03.62	353.41	17.34	-28.4	-30.6	14.6	0.00e+00	0	44	0	1788870656	16	4621
2026-01-19 09:33:06.63	353.14	17.02	-28.5	-30.7	14.5	7.00e-07	0	44	0	1798307840	16	4669
2026-01-19 09:33:09.64	352.87	16.70	-28.3	-30.0	14.6	7.00e-07	0	44	0	1807745024	17	4329
2026-01-19 09:33:12.64	352.61	16.39	-28.4	-30.0	14.6	1.50e-06	0	44	0	1817182208	17	4342
2026-01-19 09:33:15.65	352.36	16.08	-28.3	-29.7	14.7	0.00e+00	0	44	0	1826619392	17	4275
2026-01-19 09:33:18.66	352.11	15.77	-28.1	-29.5	14.9	0.00e+00	0	44	0	1836056576	17	4189
2026-01-19 09:33:21.67	351.86	15.47	-28.1	-29.5	14.8	0.00e+00	0	44	0	1845493760	17	4198
2026-01-19 09:33:24.67	351.63	15.17	-28.1	-29.5	14.8	0.00e+00	0	44	0	1854930944	17	4207
2026-01-19 09:33:27.68	351.39	14.87	-28.2	-29.7	14.7	0.00e+00	0	44	0	1864368128	17	4250
2026-01-19 09:33:30.69	351.16	14.58	-28.5	-30.4	14.2	7.00e-07	0	44	0	1872756736	17	4457
2026-01-19 09:33:33.69	350.94	14.29	-28.6	-30.5	14.2	1.50e-06	0	44	0	1883242496	17	4507
2026-01-19 09:33:36.71	350.72	14.00	-28.7	-30.9	13.9	7.00e-07	0	44	0	1891631104	17	4620
2026-01-19 09:33:39.71	350.50	13.72	-29.0	-31.2	13.5	6.80e-06	0	44	0	1901068288	18	4597
2026-01-19 09:33:42.71	350.29	13.43	-28.8	-30.6	13.8	3.00e-06	0	44	0	1910505472	18	4410
2026-01-19 09:33:45.72	350.08	13.15	-28.9	-30.7	13.7	6.80e-06	0	44	0	1919942656	18	4470
2026-01-19 09:33:48.73	349.88	12.88	-29.0	-31.0	13.5	7.60e-06	0	44	0	1929379840	18	4547
2026-01-19 09:33:51.74	349.68	12.60	-28.8	-30.6	13.8	6.10e-06	0	44	0	1938817024	18	4416
2026-01-19 09:33:54.75	349.49	12.33	-28.7	-30.5	13.8	6.10e-06	0	44	0	1948254208	18	4384
2026-01-19 09:33:57.74	349.29	12.07	-28.9	-30.7	13.6	5.30e-06	0	44	0	1957691392	18	4468
2026-01-19 09:34:00.75	349.11	11.80	-28.7	-30.5	13.7	6.80e-06	0	44	0	1967128576	18	4392
2026-01-19 09:34:03.75	348.92	11.54	-28.8	-30.5	13.7	6.80e-06	0	44	0	1976565760	18	4411
2026-01-19 09:34:06.77	348.74	11.28	-29.0	-31.1	13.3	1.06e-05	0	44	0	1986002944	18	4596
2026-01-19 09:34:09.80	348.56	11.02	-28.8	-30.6	13.6	1.22e-05	0	44	0	1995440128	18	4448
2026-01-19 09:34:12.80	348.39	10.76	-28.9	-30.8	13.5	8.30e-06	0	44	0	2004877312	18	4494
2026-01-19 09:34:15.81	348.22	10.51	-29.0	-31.1	13.3	1.75e-05	0	44	0	2014314496	18	4585
2026-01-19 09:34:18.82	348.05	10.26	-29.1	-31.5	13.0	3.35e-05	0	44	0	2023751680	18	4708
2026-01-19 09:34:21.83	347.88	10.01	-29.3	-31.8	12.8	7.40e-05	0	44	0	2033188864	18	4832
2026-01-19 09:34:24.85	347.72	9.76	-29.5	-32.4	12.4	1.10e-04	0	44	0	2042626048	18	5027
2026-01-19 09:34:27.86	347.56	9.51	-29.1	-30.9	13.0	3.89e-05	0	44	0	2052063232	19	4417
2026-01-19 09:34:30.87	347.41	9.27	-29.2	-31.2	12.8	5.18e-05	0	44	0	2061500416	19	4535
2026-01-19 09:34:33.88	347.25	9.03	-29.3	-31.6	12.5	1.41e-04	0	44	0	2070937600	19	4644
2026-01-19 09:34:36.89	347.10	8.79	-29.6	-32.3	12.0	2.46e-04	0	44	0	2080374784	19	4902
2026-01-19 09:34:39.90	346.95	8.56	-29.5	-32.0	12.2	2.20e-04	0	44	0	2089811968	19	4805
2026-01-19 09:34:42.90	346.81	8.32	-29.5	-32.0	12.2	2.26e-04	0	44	0	2099249152	19	4789
2026-01-19 09:34:45.90	346.67	8.09	-29.5	-31.9	12.2	3.16e-04	0	44	0	2108686336	19	4764
2026-01-19 09:34:48.92	346.53	7.86	-29.8	-32.7	11.7	5.00e-04	0	44	0	2118123520	19	5035
2026-01-19 09:34:51.93	346.39	7.63	-29.7	-32.6	11.7	5.48e-04	0	44	0	2127560704	19	5024
2026-01-19 09:34:54.94	346.25	7.41	-29.6	-32.2	11.9	3.52e-04	0	44	0	2136997888	19	4881
2026-01-19 09:34:57.95	346.12	7.18	-29.8	-32.7	11.6	5.58e-04	0	44	0	2146435072	19	5042

#Closed at: 2026-01-19 09:35:00
#Recorded file [2150 MB]: D:/data/31010_260119_122330.dat