passes_logs/2026/01/19/R2M6_AANII_01/R2M6_AANII_01__20260119_095251_SUOMI_NPP_rec.log

#Pass ID: 20260119_095251_SUOMI NPP
#Satellite: SUOMI NPP
#Configuration: NPP
#almurnet v.1.7.20240730
#Start time: 2026-01-19 09:52:52

#Version: 2.2.20231116
#Station: R2M6_AANII_01
#Location: 30.233357 lon 59.946436 lat
#TLE: 1 37849U 11061A   26017.92342359  .00000077  00000+0  57567-4 0  9990
#TLE: 2 37849  98.7814 319.9468 0002389  58.5705 301.5704 14.19525998737125

#Time	Az	El	Level	Level2	SNR	BER	BlckErr	Temp	State	Recorded	gain1	gain2
2026-01-19 09:52:52.38	144.24	7.06	-31.2	-34.9	5.2	1.27e+00	0	41	0	0	23	5469
2026-01-19 09:52:55.38	144.17	7.29	-31.5	-35.0	8.4	4.72e-02	0	41	0	1048576	24	5414
2026-01-19 09:52:58.39	144.09	7.52	-31.2	-34.2	9.4	1.92e-02	0	42	0	7340032	23	5138
2026-01-19 09:53:01.41	144.02	7.76	-30.7	-33.0	10.7	4.09e-03	0	42	0	12582912	22	4732
2026-01-19 09:53:04.41	143.94	8.00	-30.1	-31.9	11.8	5.45e-04	0	42	0	17825792	21	4451
2026-01-19 09:53:07.42	143.87	8.24	-30.0	-31.7	11.9	3.38e-04	0	42	0	24117248	21	4400
2026-01-19 09:53:10.44	143.79	8.48	-30.0	-31.7	12.0	4.03e-04	0	42	0	29360128	21	4392
2026-01-19 09:53:13.45	143.71	8.73	-30.1	-32.0	11.8	4.05e-04	0	42	0	35651584	21	4485
2026-01-19 09:53:16.46	143.63	8.98	-30.2	-32.2	11.7	6.35e-04	0	42	0	40894464	21	4554
2026-01-19 09:53:19.46	143.55	9.23	-30.4	-32.8	11.3	9.44e-04	0	42	0	46137344	21	4744
2026-01-19 09:53:22.47	143.47	9.48	-30.4	-32.7	11.4	1.26e-03	0	42	0	52428800	21	4710
2026-01-19 09:53:25.48	143.38	9.74	-30.2	-32.1	11.9	2.87e-04	0	42	0	57671680	21	4461
2026-01-19 09:53:28.49	143.29	9.99	-30.0	-31.4	12.4	2.14e-04	0	42	0	63963136	21	4237
2026-01-19 09:53:31.50	143.20	10.26	-29.9	-31.5	12.8	7.70e-05	0	42	0	69206016	20	4342
2026-01-19 09:53:34.51	143.11	10.52	-29.9	-31.5	12.9	6.48e-05	0	42	0	74448896	20	4323
2026-01-19 09:53:37.52	143.02	10.79	-30.0	-31.9	12.7	9.61e-05	0	42	0	80740352	20	4445
2026-01-19 09:53:40.52	142.93	11.05	-30.1	-32.1	12.5	1.01e-04	0	42	0	85983232	20	4543
2026-01-19 09:53:43.54	142.83	11.33	-30.1	-32.0	12.6	1.36e-04	0	42	0	91226112	20	4486
2026-01-19 09:53:46.55	142.73	11.60	-29.7	-30.7	13.5	1.06e-05	0	43	0	97517568	20	4073
2026-01-19 09:53:49.56	142.63	11.88	-29.7	-30.8	13.5	6.10e-06	0	42	0	102760448	20	4070
2026-01-19 09:53:52.58	142.53	12.16	-29.8	-31.2	13.2	1.52e-05	0	43	0	109051904	20	4228
2026-01-19 09:53:55.59	142.43	12.45	-30.0	-31.8	12.9	3.66e-05	0	43	0	114294784	20	4408
2026-01-19 09:53:58.59	142.32	12.73	-29.9	-31.6	13.0	5.72e-05	0	42	0	119537664	20	4359
2026-01-19 09:54:01.59	142.21	13.02	-29.8	-31.1	13.3	1.44e-05	0	43	0	125829120	20	4184
2026-01-19 09:54:04.60	142.10	13.32	-29.7	-31.0	13.5	1.37e-05	0	43	0	131072000	20	4151
2026-01-19 09:54:07.62	141.99	13.62	-30.0	-31.5	13.1	2.05e-05	0	43	0	136314880	20	4307
2026-01-19 09:54:10.63	141.87	13.92	-30.2	-32.2	12.7	9.30e-05	0	43	0	142606336	20	4510
2026-01-19 09:54:13.64	141.75	14.22	-30.1	-31.8	13.0	5.26e-05	0	43	0	147849216	20	4358
2026-01-19 09:54:16.65	141.63	14.53	-29.9	-31.1	13.5	1.06e-05	0	43	0	154140672	20	4174
2026-01-19 09:54:19.66	141.51	14.84	-29.7	-30.9	13.6	7.60e-06	0	43	0	159383552	20	4117
2026-01-19 09:54:22.68	141.38	15.16	-29.7	-30.6	13.8	5.30e-06	0	43	0	164626432	20	4018
2026-01-19 09:54:25.69	141.25	15.48	-29.7	-30.7	13.8	2.20e-06	0	43	0	170917888	20	4026
2026-01-19 09:54:28.70	141.12	15.81	-29.7	-30.6	14.0	6.10e-06	0	43	0	176160768	20	3994
2026-01-19 09:54:31.72	140.98	16.14	-29.8	-30.9	13.8	1.50e-06	0	43	0	182452224	20	4092
2026-01-19 09:54:34.73	140.84	16.47	-29.7	-30.6	14.0	4.50e-06	0	43	0	187695104	20	3998
2026-01-19 09:54:37.73	140.70	16.81	-29.9	-31.2	13.7	3.80e-06	0	43	0	192937984	20	4164
2026-01-19 09:54:40.74	140.56	17.15	-30.0	-31.3	13.7	6.10e-06	0	43	0	199229440	20	4185
2026-01-19 09:54:43.75	140.41	17.50	-29.9	-31.0	14.0	3.00e-06	0	43	0	204472320	20	4088
2026-01-19 09:54:46.75	140.26	17.85	-29.7	-30.6	14.2	2.20e-06	0	43	0	209715200	20	3972
2026-01-19 09:54:49.76	140.10	18.20	-29.7	-30.6	14.2	1.50e-06	0	43	0	216006656	20	3978
2026-01-19 09:54:52.76	139.94	18.56	-29.9	-31.1	14.0	3.00e-06	0	43	0	221249536	20	4136
2026-01-19 09:54:55.77	139.77	18.93	-29.9	-31.1	14.0	1.50e-06	0	43	0	227540992	20	4117
2026-01-19 09:54:58.77	139.61	19.30	-29.9	-31.0	14.1	1.50e-06	0	43	0	232783872	20	4073
2026-01-19 09:55:01.78	139.43	19.68	-29.7	-30.4	14.5	7.00e-07	0	43	0	238026752	20	3904
2026-01-19 09:55:04.79	139.25	20.06	-29.8	-30.7	14.4	7.00e-07	0	43	0	244318208	20	3986
2026-01-19 09:55:07.80	139.07	20.45	-29.7	-30.4	14.5	0.00e+00	0	43	0	249561088	20	3918
2026-01-19 09:55:10.81	138.88	20.84	-29.6	-30.3	14.6	0.00e+00	0	43	0	254803968	20	3865
2026-01-19 09:55:13.81	138.69	21.24	-30.0	-31.1	14.3	7.00e-07	0	43	0	261095424	20	4087
2026-01-19 09:55:16.83	138.49	21.65	-30.3	-32.0	13.6	4.50e-06	0	43	0	266338304	20	4363
2026-01-19 09:55:19.83	138.29	22.06	-30.7	-32.5	13.0	2.05e-05	0	43	0	272629760	21	4428
2026-01-19 09:55:22.83	138.08	22.48	-30.3	-31.4	13.7	1.14e-05	0	43	0	277872640	21	4084
2026-01-19 09:55:25.85	137.87	22.90	-30.0	-30.6	14.3	1.50e-06	0	43	0	283115520	21	3853
2026-01-19 09:55:28.85	137.65	23.33	-30.3	-31.3	13.8	7.00e-07	0	43	0	289406976	21	4047
2026-01-19 09:55:31.86	137.42	23.77	-30.2	-31.0	14.1	3.80e-06	0	43	0	294649856	21	3962
2026-01-19 09:55:34.87	137.18	24.22	-30.5	-31.8	13.6	1.37e-05	0	43	0	300941312	21	4186
2026-01-19 09:55:37.87	136.94	24.67	-30.6	-32.4	13.2	3.35e-05	0	43	0	306184192	21	4415
2026-01-19 09:55:40.86	136.69	25.13	-30.8	-32.8	12.9	2.89e-05	0	43	0	311427072	21	4541
2026-01-19 09:55:43.87	136.44	25.59	-31.0	-33.3	12.7	2.67e-05	0	43	0	317718528	21	4677
2026-01-19 09:55:46.89	136.17	26.07	-30.8	-32.2	13.1	3.43e-05	0	43	0	322961408	22	4234
2026-01-19 09:55:49.89	135.90	26.55	-31.1	-33.0	12.5	7.93e-05	0	43	0	328204288	22	4491
2026-01-19 09:55:52.89	135.62	27.04	-30.9	-32.5	12.9	2.89e-05	0	43	0	334495744	22	4335
2026-01-19 09:55:55.90	135.33	27.54	-31.3	-33.7	12.1	2.48e-04	0	43	0	339738624	22	4735
2026-01-19 09:55:58.90	135.03	28.05	-31.6	-34.0	11.6	3.53e-04	0	43	0	346030080	23	4749
2026-01-19 09:56:01.91	134.72	28.56	-31.5	-33.8	11.8	2.15e-04	0	43	0	351272960	23	4660
2026-01-19 09:56:04.91	134.40	29.09	-31.4	-33.4	12.1	2.29e-04	0	43	0	356515840	23	4518
2026-01-19 09:56:07.92	134.07	29.62	-31.6	-33.9	11.6	4.13e-04	0	43	0	362807296	23	4723
2026-01-19 09:56:10.93	133.72	30.16	-31.3	-33.0	12.3	5.44e-04	0	43	0	368050176	23	4381
2026-01-19 09:56:13.93	133.37	30.71	-31.3	-33.2	12.2	2.82e-04	0	43	0	373293056	23	4477
2026-01-19 09:56:16.93	133.00	31.27	-31.5	-33.6	12.1	2.83e-04	0	43	0	379584512	23	4586
2026-01-19 09:56:19.95	132.62	31.84	-31.6	-34.0	11.8	6.54e-04	0	44	0	384827392	23	4726
2026-01-19 09:56:22.95	132.23	32.42	-31.7	-33.5	11.8	3.47e-04	0	43	0	391118848	24	4449
2026-01-19 09:56:25.96	131.82	33.01	-31.5	-32.9	12.2	1.71e-04	0	44	0	396361728	24	4250
2026-01-19 09:56:28.96	131.39	33.61	-32.4	-35.9	10.2	2.60e-03	0	43	0	401604608	24	5344
2026-01-19 09:56:31.97	130.95	34.22	-32.6	-35.7	9.8	3.15e-03	0	43	0	407896064	25	5198
2026-01-19 09:56:34.98	130.49	34.84	-32.3	-34.7	10.7	3.80e-03	0	44	0	413138944	25	4770
2026-01-19 09:56:37.99	130.01	35.47	-32.6	-35.8	9.9	4.91e-03	0	43	0	418381824	25	5232
2026-01-19 09:56:40.99	129.52	36.11	-32.4	-35.2	10.3	3.73e-03	0	43	0	424673280	25	4981
2026-01-19 09:56:43.99	129.00	36.76	-32.6	-36.0	9.8	1.47e-02	0	44	0	429916160	25	5309
2026-01-19 09:56:47.00	128.46	37.42	-32.9	-36.8	9.1	1.60e-02	0	43	0	436207616	25	5687
2026-01-19 09:56:50.00	127.90	38.09	-33.0	-36.8	8.7	3.29e-02	0	44	0	441450496	26	5602
2026-01-19 09:56:53.01	127.32	38.77	-32.1	-34.2	11.1	1.37e-03	0	44	0	446693376	25	4552
2026-01-19 09:56:56.02	126.71	39.46	-31.7	-33.3	12.1	9.00e-04	0	43	0	452984832	24	4345
2026-01-19 09:56:59.04	126.07	40.17	-31.4	-33.4	12.7	9.90e-06	0	44	0	458227712	22	4561
2026-01-19 09:57:02.04	125.40	40.88	-31.7	-33.9	12.0	2.44e-04	0	44	0	463470592	23	4648
2026-01-19 09:57:05.05	124.70	41.60	-32.1	-34.6	11.2	6.07e-04	0	44	0	469762048	24	4810
2026-01-19 09:57:08.06	123.97	42.33	-32.0	-34.4	11.4	6.40e-04	0	43	0	475004928	24	4725
2026-01-19 09:57:11.08	123.21	43.07	-32.3	-34.7	10.8	5.40e-03	0	44	0	481296384	25	4750
2026-01-19 09:57:14.09	122.40	43.82	-31.6	-33.2	12.3	1.56e-04	0	44	0	486539264	24	4320
2026-01-19 09:57:17.09	121.57	44.57	-32.0	-33.7	11.5	2.04e-03	0	44	0	491782144	25	4408
2026-01-19 09:57:20.10	120.68	45.34	-31.8	-33.6	12.0	1.94e-04	0	44	0	498073600	24	4446
2026-01-19 09:57:23.10	119.76	46.11	-31.7	-33.4	12.1	3.68e-04	0	44	0	503316480	24	4390
2026-01-19 09:57:26.11	118.79	46.88	-31.5	-32.7	12.7	1.27e-04	0	44	0	508559360	24	4152
2026-01-19 09:57:29.11	117.77	47.66	-31.3	-32.8	12.9	2.97e-05	0	44	0	514850816	23	4253
2026-01-19 09:57:32.11	116.70	48.44	-30.9	-31.6	13.6	1.22e-05	0	44	0	520093696	23	3915
2026-01-19 09:57:35.13	115.56	49.23	-32.0	-34.7	11.7	2.24e-04	0	44	0	526385152	23	4940
2026-01-19 09:57:38.13	114.38	50.02	-31.7	-33.7	12.2	2.49e-04	0	44	0	531628032	23	4553
2026-01-19 09:57:41.13	113.12	50.80	-30.1	-30.7	14.9	0.00e+00	0	44	0	536870912	21	3822
2026-01-19 09:57:44.13	111.81	51.59	-30.0	-30.2	15.1	0.00e+00	0	43	0	543162368	21	3711
2026-01-19 09:57:47.14	110.41	52.37	-29.3	-29.5	16.3	0.00e+00	0	44	0	548405248	19	3692
2026-01-19 09:57:50.14	108.95	53.14	-30.5	-31.7	14.3	0.00e+00	0	44	0	553648128	21	4101
2026-01-19 09:57:53.15	107.40	53.91	-31.4	-33.6	12.8	2.13e-05	0	44	0	559939584	22	4604
2026-01-19 09:57:56.15	105.77	54.66	-31.7	-33.5	12.2	3.16e-04	0	44	0	565182464	24	4385
2026-01-19 09:57:59.17	104.04	55.40	-30.4	-31.2	14.6	0.00e+00	0	44	0	571473920	21	3960
2026-01-19 09:58:02.19	102.22	56.13	-31.4	-33.4	13.0	2.13e-05	0	44	0	576716800	22	4546
2026-01-19 09:58:05.19	100.31	56.83	-30.3	-30.5	14.8	1.50e-06	0	44	0	581959680	22	3671
2026-01-19 09:58:08.20	98.30	57.51	-30.7	-31.5	14.2	7.00e-07	0	43	0	588251136	22	3950
2026-01-19 09:58:11.21	96.19	58.17	-30.6	-31.2	14.4	4.50e-06	0	43	0	593494016	22	3877
2026-01-19 09:58:14.22	93.97	58.79	-30.5	-31.6	14.4	0.00e+00	0	44	0	598736896	21	4072
2026-01-19 09:58:17.23	91.65	59.37	-30.9	-32.6	13.8	1.50e-06	0	44	0	605028352	21	4362
2026-01-19 09:58:20.24	89.23	59.92	-30.5	-30.9	14.6	0.00e+00	0	43	0	610271232	22	3784
2026-01-19 09:58:23.26	86.70	60.42	-30.3	-31.1	14.8	0.00e+00	0	44	0	616562688	21	3916
2026-01-19 09:58:26.26	84.09	60.87	-31.6	-33.4	12.8	1.29e-05	0	43	0	621805568	23	4434
2026-01-19 09:58:29.26	81.39	61.27	-30.7	-31.4	14.4	1.50e-06	0	44	0	627048448	22	3908
2026-01-19 09:58:32.27	78.60	61.62	-31.1	-32.5	13.6	9.10e-06	0	43	0	633339904	22	4229
2026-01-19 09:58:35.27	75.74	61.91	-31.3	-32.5	13.3	2.82e-05	0	44	0	638582784	23	4154
2026-01-19 09:58:38.27	72.83	62.13	-29.3	-28.9	16.3	7.00e-07	0	44	0	643825664	20	3466
2026-01-19 09:58:41.29	69.85	62.29	-29.1	-29.6	16.6	2.20e-06	0	44	0	650117120	18	3809
2026-01-19 09:58:44.29	66.86	62.39	-29.3	-30.0	16.3	1.50e-06	0	44	0	655360000	18	3905
2026-01-19 09:58:47.30	63.84	62.41	-30.3	-31.4	14.8	0.00e+00	0	43	0	661651456	20	4104
2026-01-19 09:58:50.31	60.83	62.38	-29.6	-30.3	15.9	0.00e+00	0	44	0	666894336	19	3881
2026-01-19 09:58:53.31	57.84	62.27	-29.9	-30.5	15.4	0.00e+00	0	44	0	672137216	20	3866
2026-01-19 09:58:56.34	54.86	62.10	-29.6	-29.8	15.7	0.00e+00	0	44	0	678428672	20	3674
2026-01-19 09:58:59.36	51.93	61.86	-31.1	-32.6	13.5	5.30e-06	0	43	0	683671552	22	4274
2026-01-19 09:59:02.37	49.09	61.56	-29.6	-29.7	15.9	7.00e-07	0	44	0	689963008	20	3652
2026-01-19 09:59:05.38	46.31	61.20	-28.9	-29.1	16.9	0.00e+00	0	43	0	695205888	18	3689
2026-01-19 09:59:08.39	43.62	60.79	-29.3	-30.1	16.4	0.00e+00	0	43	0	700448768	18	3923
2026-01-19 09:59:11.40	41.02	60.33	-30.2	-31.2	15.0	0.00e+00	0	43	0	706740224	20	4041
2026-01-19 09:59:14.40	38.53	59.82	-29.0	-28.8	16.7	0.00e+00	0	44	0	711983104	19	3509
2026-01-19 09:59:17.41	36.13	59.27	-31.3	-33.3	13.1	6.10e-06	0	44	0	717225984	22	4502
2026-01-19 09:59:20.41	33.85	58.68	-31.4	-32.8	13.0	1.60e-05	0	44	0	723517440	23	4253
2026-01-19 09:59:23.42	31.65	58.05	-31.7	-33.2	12.3	9.51e-04	0	44	0	728760320	24	4274
2026-01-19 09:59:26.43	29.56	57.40	-32.4	-34.7	10.9	3.64e-03	0	44	0	735051776	25	4721
2026-01-19 09:59:29.44	27.58	56.71	-32.0	-33.5	11.9	3.13e-04	0	44	0	740294656	25	4305
2026-01-19 09:59:32.44	25.69	56.01	-31.8	-33.4	12.4	1.74e-04	0	43	0	745537536	24	4360
2026-01-19 09:59:35.45	23.90	55.28	-32.1	-34.4	12.1	1.79e-04	0	44	0	751828992	24	4715
2026-01-19 09:59:38.45	22.20	54.54	-32.3	-34.6	11.1	5.99e-03	0	44	0	757071872	25	4701
2026-01-19 09:59:41.46	20.58	53.79	-30.7	-31.5	14.1	3.66e-05	0	43	0	762314752	22	3965
2026-01-19 09:59:44.47	19.05	53.02	-31.7	-33.7	12.3	1.56e-04	0	44	0	768606208	23	4560
2026-01-19 09:59:47.48	17.60	52.25	-31.3	-32.2	13.0	1.76e-04	0	44	0	773849088	24	3984
2026-01-19 09:59:50.48	16.22	51.47	-30.3	-30.9	14.8	0.00e+00	0	44	0	780140544	21	3877
2026-01-19 09:59:53.48	14.92	50.69	-31.1	-32.6	13.4	6.10e-06	0	44	0	785383424	22	4283
2026-01-19 09:59:56.49	13.68	49.90	-30.0	-30.3	15.2	0.00e+00	0	44	0	790626304	21	3712
2026-01-19 09:59:59.49	12.50	49.12	-31.1	-32.5	13.4	1.29e-05	0	44	0	796917760	22	4233
2026-01-19 10:00:02.51	11.38	48.33	-32.3	-34.8	10.8	4.51e-03	0	44	0	802160640	25	4767
2026-01-19 10:00:05.51	10.32	47.56	-32.8	-36.5	9.6	8.28e-03	0	44	0	807403520	25	5458
2026-01-19 10:00:08.52	9.31	46.78	-32.5	-35.4	10.5	5.26e-03	0	44	0	813694976	25	5015
2026-01-19 10:00:11.52	8.35	46.01	-32.3	-34.6	11.0	1.24e-03	0	44	0	818937856	25	4712
2026-01-19 10:00:14.53	7.44	45.24	-32.7	-36.2	9.7	1.39e-02	0	44	0	825229312	25	5367
2026-01-19 10:00:17.54	6.57	44.48	-32.5	-35.2	10.4	3.59e-03	0	44	0	830472192	25	4953
2026-01-19 10:00:20.55	5.73	43.73	-32.0	-33.9	11.5	4.16e-04	0	44	0	835715072	25	4457
2026-01-19 10:00:23.56	4.94	42.99	-31.9	-34.0	11.9	7.83e-04	0	44	0	842006528	24	4603
2026-01-19 10:00:26.57	4.19	42.25	-32.0	-34.2	11.5	1.29e-04	0	43	0	847249408	24	4636
2026-01-19 10:00:29.59	3.46	41.52	-32.8	-36.3	9.6	6.36e-03	0	44	0	853540864	25	5430
2026-01-19 10:00:32.60	2.77	40.81	-33.3	-37.9	7.9	4.64e-02	0	44	0	858783744	26	6129
2026-01-19 10:00:35.61	2.11	40.10	-33.3	-37.6	7.7	9.15e-02	0	44	0	864026624	27	5911
2026-01-19 10:00:38.61	1.48	39.41	-32.1	-34.2	11.1	1.90e-03	0	44	0	870318080	25	4586
2026-01-19 10:00:41.62	0.88	38.72	-32.5	-35.4	10.2	3.21e-03	0	44	0	875560960	25	5054
2026-01-19 10:00:44.64	0.30	38.04	-32.7	-36.1	9.7	1.37e-02	0	44	0	880803840	25	5328
2026-01-19 10:00:47.65	359.74	37.37	-33.0	-37.0	8.6	4.69e-02	0	44	0	887095296	26	5672
2026-01-19 10:00:50.65	359.21	36.72	-32.9	-36.6	8.9	5.61e-02	0	44	0	892338176	26	5471
2026-01-19 10:00:53.66	358.70	36.07	-33.0	-37.1	8.5	6.15e-02	0	44	0	898629632	26	5714
2026-01-19 10:00:56.66	358.21	35.44	-32.2	-34.7	10.7	3.77e-03	0	44	0	903872512	25	4761
2026-01-19 10:00:59.67	357.74	34.81	-32.2	-34.7	10.6	3.31e-03	0	44	0	909115392	25	4766
2026-01-19 10:01:02.68	357.28	34.19	-31.7	-33.5	11.8	2.94e-04	0	43	0	915406848	24	4434
2026-01-19 10:01:05.69	356.84	33.59	-31.7	-33.6	11.9	4.79e-04	0	44	0	920649728	24	4453
2026-01-19 10:01:08.70	356.42	32.99	-32.7	-36.2	9.5	1.60e-02	0	44	0	925892608	25	5400
2026-01-19 10:01:11.69	356.02	32.41	-32.3	-34.9	10.4	4.65e-03	0	44	0	932184064	25	4882
2026-01-19 10:01:14.71	355.63	31.83	-31.8	-33.4	11.5	2.14e-03	0	43	0	937426944	25	4310
2026-01-19 10:01:17.71	355.25	31.27	-30.7	-31.7	13.6	1.75e-05	0	44	0	943718400	22	4034
2026-01-19 10:01:20.73	354.89	30.71	-30.9	-32.2	13.3	3.43e-05	0	44	0	948961280	22	4193
2026-01-19 10:01:23.73	354.54	30.16	-31.1	-32.8	13.0	1.90e-05	0	44	0	954204160	22	4363
2026-01-19 10:01:26.74	354.20	29.62	-31.8	-34.3	11.5	4.55e-04	0	44	0	960495616	23	4820
2026-01-19 10:01:29.73	353.87	29.10	-32.7	-36.7	9.0	3.00e-02	0	44	0	965738496	25	5652
2026-01-19 10:01:32.75	353.55	28.57	-32.6	-36.1	9.4	1.79e-02	0	44	0	970981376	25	5364
2026-01-19 10:01:35.77	353.24	28.06	-32.2	-34.6	10.5	6.10e-03	0	43	0	977272832	25	4766
2026-01-19 10:01:38.78	352.95	27.55	-32.2	-34.6	10.5	5.81e-03	0	44	0	982515712	25	4758
2026-01-19 10:01:41.80	352.66	27.06	-31.9	-34.3	11.1	2.09e-03	0	44	0	988807168	24	4723
2026-01-19 10:01:44.80	352.38	26.57	-31.7	-33.5	11.6	6.13e-04	0	44	0	994050048	24	4454
2026-01-19 10:01:47.81	352.11	26.09	-31.8	-33.9	11.3	7.39e-04	0	44	0	999292928	24	4607
2026-01-19 10:01:50.83	351.85	25.62	-32.0	-34.8	10.7	2.68e-03	0	44	0	1005584384	24	4944
2026-01-19 10:01:53.83	351.60	25.15	-32.3	-35.8	9.9	6.21e-03	0	44	0	1010827264	24	5386
2026-01-19 10:01:56.84	351.35	24.70	-32.5	-36.0	9.6	9.69e-03	0	44	0	1017118720	25	5367
2026-01-19 10:01:59.84	351.11	24.25	-32.2	-34.8	10.3	5.42e-03	0	44	0	1022361600	25	4843
2026-01-19 10:02:02.84	350.88	23.81	-32.0	-34.0	10.8	3.31e-03	0	44	0	1027604480	25	4571
2026-01-19 10:02:05.84	350.66	23.37	-32.1	-35.0	10.5	2.77e-03	0	44	0	1033895936	24	5042
2026-01-19 10:02:08.85	350.44	22.94	-32.1	-35.0	10.4	6.09e-03	0	44	0	1039138816	24	5035
2026-01-19 10:02:11.85	350.23	22.52	-31.7	-33.6	11.4	1.15e-03	0	44	0	1044381696	24	4509
2026-01-19 10:02:14.87	350.02	22.11	-31.4	-33.2	12.1	2.29e-04	0	44	0	1050673152	23	4443
2026-01-19 10:02:17.87	349.82	21.70	-30.9	-31.8	13.0	3.05e-05	0	44	0	1055916032	23	4008
2026-01-19 10:02:20.88	349.63	21.29	-30.9	-32.0	12.8	4.27e-05	0	44	0	1062207488	23	4079
2026-01-19 10:02:23.87	349.44	20.90	-31.4	-33.3	12.0	3.01e-04	0	44	0	1067450368	23	4481
2026-01-19 10:02:26.90	349.25	20.50	-31.6	-33.9	11.5	7.50e-04	0	44	0	1072693248	23	4700
2026-01-19 10:02:29.91	349.07	20.12	-31.6	-34.1	11.3	8.52e-04	0	44	0	1078984704	23	4801
2026-01-19 10:02:32.92	348.90	19.74	-31.3	-33.1	12.0	2.77e-04	0	44	0	1084227584	23	4440
2026-01-19 10:02:35.93	348.73	19.36	-31.0	-32.3	12.5	1.75e-04	0	44	0	1089470464	23	4177
2026-01-19 10:02:38.93	348.56	18.99	-31.0	-32.3	12.6	8.08e-05	0	44	0	1095761920	23	4187
2026-01-19 10:02:41.94	348.40	18.63	-31.3	-33.0	12.0	1.88e-04	0	44	0	1101004800	23	4404
2026-01-19 10:02:44.95	348.24	18.27	-31.1	-32.7	12.2	1.97e-04	0	44	0	1107296256	23	4301
2026-01-19 10:02:47.96	348.09	17.92	-31.6	-34.0	11.3	1.22e-03	0	44	0	1112539136	23	4750
2026-01-19 10:02:50.97	347.94	17.57	-31.2	-32.8	12.1	2.72e-04	0	44	0	1117782016	23	4322
2026-01-19 10:02:53.98	347.79	17.22	-31.3	-33.1	11.9	2.46e-04	0	44	0	1124073472	23	4442
2026-01-19 10:02:56.98	347.65	16.88	-31.6	-34.0	11.2	9.67e-04	0	44	0	1129316352	23	4782
2026-01-19 10:02:59.98	347.51	16.55	-31.6	-34.2	11.0	2.33e-03	0	44	0	1134559232	23	4864
2026-01-19 10:03:02.99	347.38	16.22	-31.7	-34.5	10.8	3.09e-03	0	44	0	1140850688	23	4977
2026-01-19 10:03:05.98	347.24	15.89	-31.8	-34.9	10.5	4.29e-03	0	44	0	1146093568	23	5145
2026-01-19 10:03:08.98	347.11	15.57	-31.7	-34.7	10.6	3.78e-03	0	44	0	1152385024	23	5081
2026-01-19 10:03:11.98	346.99	15.25	-31.3	-33.3	11.6	9.05e-04	0	44	0	1157627904	23	4542
2026-01-19 10:03:15.00	346.86	14.94	-31.5	-33.8	11.2	1.37e-03	0	44	0	1162870784	23	4738
2026-01-19 10:03:18.00	346.74	14.63	-31.6	-34.1	10.9	2.47e-03	0	44	0	1169162240	23	4851
2026-01-19 10:03:21.02	346.62	14.32	-31.7	-34.8	10.5	3.37e-03	0	44	0	1174405120	23	5098
2026-01-19 10:03:24.02	346.51	14.02	-32.0	-35.1	9.8	1.03e-02	0	44	0	1179648000	24	5178
2026-01-19 10:03:27.03	346.40	13.72	-32.1	-35.8	9.3	2.52e-02	0	44	0	1185939456	24	5457
2026-01-19 10:03:30.04	346.29	13.42	-32.4	-36.7	8.5	3.93e-02	0	44	0	1191182336	24	5930
2026-01-19 10:03:33.05	346.18	13.13	-32.3	-36.3	8.9	3.29e-02	0	44	0	1197473792	24	5750
2026-01-19 10:03:36.05	346.07	12.84	-32.4	-36.8	8.4	3.20e-02	0	44	0	1202716672	24	5990
2026-01-19 10:03:39.06	345.97	12.55	-31.6	-33.9	10.6	5.14e-03	0	44	0	1207959552	24	4712
2026-01-19 10:03:42.07	345.87	12.27	-31.3	-33.5	11.2	1.23e-03	0	44	0	1214251008	23	4636
2026-01-19 10:03:45.08	345.77	11.99	-31.1	-32.7	11.8	4.25e-04	0	44	0	1219493888	23	4358
2026-01-19 10:03:48.09	345.67	11.71	-30.9	-32.3	12.1	3.67e-04	0	44	0	1224736768	23	4211
2026-01-19 10:03:51.09	345.58	11.44	-31.0	-32.4	11.9	3.39e-04	0	44	0	1231028224	23	4271
2026-01-19 10:03:54.10	345.48	11.17	-31.0	-32.5	11.9	3.96e-04	0	44	0	1236271104	23	4294
2026-01-19 10:03:57.10	345.39	10.90	-31.0	-32.5	11.8	5.32e-04	0	44	0	1242562560	23	4306
2026-01-19 10:04:00.09	345.30	10.64	-31.1	-33.0	11.4	7.85e-04	0	44	0	1247805440	23	4474
2026-01-19 10:04:03.09	345.22	10.38	-31.2	-33.2	11.3	1.18e-03	0	44	0	1253048320	23	4557
2026-01-19 10:04:06.10	345.13	10.12	-31.2	-33.2	11.3	1.26e-03	0	44	0	1259339776	23	4562
2026-01-19 10:04:09.11	345.05	9.86	-31.4	-33.9	10.8	2.10e-03	0	44	0	1264582656	23	4798
2026-01-19 10:04:12.12	344.96	9.60	-31.4	-34.0	10.7	2.62e-03	0	44	0	1269825536	23	4840
2026-01-19 10:04:15.13	344.88	9.35	-31.5	-34.2	10.4	4.25e-03	0	44	0	1276116992	23	4943
2026-01-19 10:04:18.13	344.80	9.10	-31.6	-34.8	10.0	7.61e-03	0	44	0	1281359872	23	5184
2026-01-19 10:04:21.14	344.73	8.86	-31.7	-35.0	9.7	1.72e-02	0	44	0	1287651328	23	5281
2026-01-19 10:04:24.15	344.65	8.61	-31.8	-35.5	9.4	1.72e-02	0	44	0	1292894208	23	5507
2026-01-19 10:04:27.16	344.58	8.37	-31.7	-35.3	9.4	1.63e-02	0	44	0	1298137088	23	5447
2026-01-19 10:04:30.17	344.50	8.13	-31.9	-36.0	8.9	2.46e-02	0	44	0	1304428544	23	5789
2026-01-19 10:04:33.18	344.43	7.89	-32.2	-36.7	8.0	5.35e-02	0	44	0	1309671424	24	6044
2026-01-19 10:04:36.19	344.36	7.65	-32.1	-36.5	8.0	7.06e-02	0	44	0	1314914304	24	5965
2026-01-19 10:04:39.19	344.29	7.42	-32.2	-36.8	7.8	7.56e-02	0	44	0	1321205760	24	6115
2026-01-19 10:04:42.20	344.22	7.19	-31.9	-35.6	8.8	4.27e-02	0	44	0	1326448640	24	5508

#Closed at: 2026-01-19 10:04:45
#Recorded file [1328 MB]: D:/data/31010_260119_125254.dat