passes_logs/2026/01/19/R2M6_AANII_01/R2M6_AANII_01__20260119_105210_FENGYUN_3D_rec.log

#Pass ID: 20260119_105210_FENGYUN 3D
#Satellite: FENGYUN 3D
#Configuration: FENGYUN 3D
#almurnet v.1.7.20240730
#Start time: 2026-01-19 10:52:12

#Version: 2.2.20231116
#Station: R2M6_AANII_01
#Location: 30.233357 lon 59.946436 lat
#TLE: 1 43010U 17072A   26017.96359538  .00000271  00000+0  15011-3 0  9999
#TLE: 2 43010  98.9936 349.8252 0002386 103.8840 256.2601 14.19697057423673

#Time	Az	El	Level	Level2	SNR	BER	BlckErr	Temp	State	Recorded	gain1	gain2
2026-01-19 10:52:12.71	113.64	7.14	-30.4	-33.3	5.2	7.89e-01	0	41	0	0	22	5028
2026-01-19 10:52:15.72	113.42	7.35	-29.9	-32.9	10.1	5.12e-03	0	42	0	5242880	20	5055
2026-01-19 10:52:18.73	113.19	7.56	-29.3	-31.6	11.4	1.62e-03	0	42	0	22020096	19	4686
2026-01-19 10:52:21.74	112.97	7.78	-28.2	-30.0	13.0	2.51e-05	0	42	0	38797312	17	4423
2026-01-19 10:52:24.75	112.74	7.99	-28.2	-29.9	13.1	1.60e-05	0	42	0	55574528	17	4388
2026-01-19 10:52:27.76	112.50	8.21	-28.5	-30.5	12.8	2.97e-05	0	42	0	73400320	17	4554
2026-01-19 10:52:30.77	112.26	8.42	-28.4	-30.5	12.8	5.72e-05	0	42	0	90177536	17	4549
2026-01-19 10:52:33.76	112.02	8.64	-27.9	-29.1	13.7	3.40e-06	0	42	0	106954752	17	4159
2026-01-19 10:52:36.78	111.78	8.86	-27.9	-29.6	13.7	4.50e-06	0	42	0	123731968	16	4404
2026-01-19 10:52:39.78	111.53	9.08	-27.6	-29.0	14.1	3.40e-06	0	42	0	140509184	16	4219
2026-01-19 10:52:42.79	111.27	9.31	-27.5	-28.8	14.2	1.10e-06	0	42	0	157286400	16	4178
2026-01-19 10:52:45.80	111.02	9.53	-27.4	-28.5	14.4	0.00e+00	0	42	0	174063616	16	4089
2026-01-19 10:52:48.80	110.76	9.76	-27.4	-28.4	14.5	0.00e+00	0	42	0	190840832	16	4069
2026-01-19 10:52:51.80	110.49	9.98	-27.2	-28.5	14.5	0.00e+00	0	42	0	208666624	15	4206
2026-01-19 10:52:54.81	110.22	10.21	-27.1	-28.5	14.6	0.00e+00	0	42	0	225443840	15	4196
2026-01-19 10:52:57.83	109.95	10.44	-27.0	-28.2	14.8	0.00e+00	0	42	0	242221056	15	4124
2026-01-19 10:53:00.84	109.67	10.67	-27.2	-28.6	14.5	0.00e+00	0	43	0	258998272	15	4224
2026-01-19 10:53:03.84	109.39	10.91	-26.9	-28.0	14.9	0.00e+00	0	43	0	275775488	15	4059
2026-01-19 10:53:06.85	109.10	11.14	-26.9	-28.0	14.9	0.00e+00	0	43	0	292552704	15	4057
2026-01-19 10:53:09.86	108.81	11.38	-27.0	-28.0	14.9	0.00e+00	0	43	0	310378496	15	4074
2026-01-19 10:53:12.87	108.51	11.62	-26.9	-28.3	15.1	0.00e+00	0	43	0	327155712	14	4249
2026-01-19 10:53:15.87	108.21	11.85	-26.9	-28.3	15.1	0.00e+00	0	43	0	343932928	14	4243
2026-01-19 10:53:18.89	107.90	12.10	-27.0	-28.5	15.0	0.00e+00	0	43	0	360710144	14	4315
2026-01-19 10:53:21.89	107.59	12.34	-26.9	-28.3	15.1	0.00e+00	0	43	0	377487360	14	4255
2026-01-19 10:53:24.88	107.27	12.58	-26.8	-28.2	15.2	1.10e-06	0	43	0	394264576	14	4212
2026-01-19 10:53:27.89	106.95	12.83	-26.8	-28.1	15.3	3.40e-06	0	43	0	411041792	14	4189
2026-01-19 10:53:30.90	106.62	13.07	-26.7	-28.0	15.3	1.10e-06	0	43	0	427819008	14	4158
2026-01-19 10:53:33.91	106.28	13.32	-26.9	-28.4	15.1	0.00e+00	0	43	0	445644800	14	4292
2026-01-19 10:53:36.91	105.94	13.57	-26.9	-28.4	15.1	0.00e+00	0	43	0	462422016	14	4281
2026-01-19 10:53:39.92	105.59	13.82	-26.7	-28.0	15.3	0.00e+00	0	43	0	479199232	14	4174
2026-01-19 10:53:42.93	105.24	14.08	-26.6	-27.8	15.5	0.00e+00	0	43	0	495976448	14	4101
2026-01-19 10:53:45.94	104.88	14.33	-26.4	-27.3	15.8	0.00e+00	0	43	0	512753664	14	3978
2026-01-19 10:53:48.94	104.52	14.59	-26.3	-27.5	15.9	0.00e+00	0	43	0	529530880	13	4147
2026-01-19 10:53:51.95	104.15	14.85	-26.2	-27.4	16.0	0.00e+00	0	43	0	546308096	13	4112
2026-01-19 10:53:54.95	103.77	15.11	-26.2	-27.3	16.1	0.00e+00	0	43	0	563085312	13	4092
2026-01-19 10:53:57.95	103.38	15.37	-26.1	-27.1	16.2	0.00e+00	0	43	0	579862528	13	4030
2026-01-19 10:54:00.96	102.99	15.63	-26.0	-26.9	16.3	0.00e+00	0	43	0	597688320	13	3984
2026-01-19 10:54:03.97	102.59	15.89	-25.8	-26.5	16.5	0.00e+00	0	43	0	614465536	13	3894
2026-01-19 10:54:06.96	102.19	16.16	-25.7	-26.8	16.7	0.00e+00	0	43	0	631242752	12	4061
2026-01-19 10:54:09.98	101.77	16.43	-25.7	-26.7	16.7	0.00e+00	0	43	0	648019968	12	4040
2026-01-19 10:54:12.99	101.35	16.69	-25.6	-26.5	16.8	0.00e+00	0	43	0	664797184	12	3997
2026-01-19 10:54:16.00	100.92	16.96	-25.6	-26.5	16.9	0.00e+00	0	43	0	681574400	12	3990
2026-01-19 10:54:18.99	100.49	17.23	-25.7	-26.6	16.8	0.00e+00	0	43	0	698351616	12	4024
2026-01-19 10:54:22.01	100.04	17.51	-25.6	-26.5	16.9	0.00e+00	0	43	0	716177408	12	3993
2026-01-19 10:54:25.02	99.59	17.78	-25.5	-26.2	17.0	0.00e+00	0	43	0	732954624	12	3919
2026-01-19 10:54:28.02	99.13	18.05	-25.3	-25.9	17.2	0.00e+00	0	43	0	749731840	12	3848
2026-01-19 10:54:31.03	98.66	18.33	-25.5	-26.3	17.0	0.00e+00	0	43	0	766509056	12	3945
2026-01-19 10:54:34.04	98.18	18.61	-25.4	-26.0	17.2	0.00e+00	0	43	0	783286272	12	3874
2026-01-19 10:54:37.05	97.69	18.88	-25.1	-26.0	17.5	0.00e+00	0	43	0	800063488	11	3968
2026-01-19 10:54:40.07	97.19	19.16	-25.1	-25.8	17.7	0.00e+00	0	43	0	817889280	11	3916
2026-01-19 10:54:43.07	96.69	19.44	-25.3	-26.2	17.4	0.00e+00	0	43	0	834666496	11	4026
2026-01-19 10:54:46.09	96.17	19.72	-25.4	-26.6	17.3	0.00e+00	0	44	0	851443712	11	4117
2026-01-19 10:54:49.09	95.64	20.00	-25.3	-26.2	17.5	0.00e+00	0	44	0	868220928	11	4021
2026-01-19 10:54:52.09	95.11	20.28	-25.2	-26.0	17.6	0.00e+00	0	44	0	884998144	11	3978
2026-01-19 10:54:55.11	94.56	20.57	-25.0	-25.7	17.7	0.00e+00	0	43	0	901775360	11	3896
2026-01-19 10:54:58.12	94.01	20.85	-25.0	-25.7	17.7	0.00e+00	0	43	0	918552576	11	3904
2026-01-19 10:55:01.13	93.44	21.13	-25.0	-25.7	17.8	0.00e+00	0	43	0	935329792	11	3898
2026-01-19 10:55:04.14	92.86	21.41	-25.0	-25.7	17.7	0.00e+00	0	43	0	953155584	11	3900
2026-01-19 10:55:07.16	92.28	21.70	-25.0	-25.7	17.8	0.00e+00	0	43	0	969932800	11	3903
2026-01-19 10:55:10.16	91.68	21.98	-24.9	-25.5	17.8	0.00e+00	0	44	0	986710016	11	3862
2026-01-19 10:55:13.18	91.07	22.26	-24.5	-25.1	18.3	0.00e+00	0	43	0	1003487232	10	3857
2026-01-19 10:55:16.18	90.45	22.54	-24.6	-25.3	18.2	0.00e+00	0	43	0	1020264448	10	3912
2026-01-19 10:55:19.19	89.82	22.82	-24.6	-25.4	18.2	0.00e+00	0	43	0	1037041664	10	3937
2026-01-19 10:55:22.21	89.17	23.11	-24.6	-25.4	18.2	0.00e+00	0	44	0	1054867456	10	3926
2026-01-19 10:55:25.23	88.51	23.39	-24.7	-25.4	18.2	0.00e+00	0	44	0	1071644672	10	3938
2026-01-19 10:55:28.25	87.84	23.67	-24.6	-25.3	18.3	0.00e+00	0	43	0	1088421888	10	3894
2026-01-19 10:55:31.25	87.17	23.94	-24.5	-25.1	18.4	0.00e+00	0	44	0	1105199104	10	3869
2026-01-19 10:55:34.26	86.48	24.22	-24.1	-24.9	18.7	0.00e+00	0	44	0	1121976320	9	3909
2026-01-19 10:55:37.28	85.77	24.49	-23.9	-24.3	19.1	0.00e+00	0	44	0	1138753536	9	3774
2026-01-19 10:55:40.29	85.05	24.76	-24.1	-24.8	18.8	0.00e+00	0	43	0	1155530752	9	3885
2026-01-19 10:55:43.30	84.32	25.03	-24.3	-25.1	18.6	0.00e+00	0	43	0	1173356544	9	3978
2026-01-19 10:55:46.31	83.58	25.30	-24.5	-25.6	18.4	0.00e+00	0	43	0	1190133760	9	4079
2026-01-19 10:55:49.32	82.83	25.57	-24.3	-25.1	18.7	0.00e+00	0	43	0	1206910976	9	3969
2026-01-19 10:55:52.32	82.06	25.83	-24.3	-25.2	18.6	0.00e+00	0	43	0	1223688192	9	3994
2026-01-19 10:55:55.33	81.28	26.09	-24.1	-24.8	18.8	0.00e+00	0	44	0	1240465408	9	3887
2026-01-19 10:55:58.34	80.49	26.34	-24.1	-24.8	18.9	0.00e+00	0	44	0	1257242624	9	3882
2026-01-19 10:56:01.35	79.69	26.59	-23.8	-24.1	19.2	0.00e+00	0	44	0	1274019840	9	3735
2026-01-19 10:56:04.36	78.87	26.84	-23.8	-24.6	19.2	0.00e+00	0	44	0	1291845632	8	3956
2026-01-19 10:56:07.37	78.04	27.08	-23.9	-24.8	19.1	0.00e+00	0	44	0	1308622848	8	3994
2026-01-19 10:56:10.38	77.20	27.32	-24.0	-25.0	19.1	0.00e+00	0	44	0	1325400064	8	4037
2026-01-19 10:56:13.38	76.34	27.55	-24.0	-25.0	19.0	0.00e+00	0	44	0	1342177280	8	4054
2026-01-19 10:56:16.39	75.47	27.78	-24.0	-25.0	19.0	0.00e+00	0	44	0	1358954496	8	4056
2026-01-19 10:56:19.40	74.59	28.00	-24.0	-25.0	19.1	0.00e+00	0	44	0	1375731712	8	4035
2026-01-19 10:56:22.41	73.70	28.22	-24.0	-25.1	19.0	0.00e+00	0	44	0	1393557504	8	4070
2026-01-19 10:56:25.42	72.80	28.43	-23.7	-24.4	19.4	0.00e+00	0	43	0	1410334720	8	3904
2026-01-19 10:56:28.42	71.88	28.63	-23.5	-24.0	19.6	0.00e+00	0	44	0	1427111936	8	3808
2026-01-19 10:56:31.44	70.95	28.83	-23.8	-24.5	19.3	0.00e+00	0	44	0	1443889152	8	3940
2026-01-19 10:56:34.44	70.02	29.02	-23.7	-24.4	19.4	0.00e+00	0	44	0	1460666368	8	3893
2026-01-19 10:56:37.45	69.07	29.20	-23.8	-24.7	19.3	0.00e+00	0	44	0	1477443584	8	3964
2026-01-19 10:56:40.45	68.11	29.38	-23.7	-24.3	19.4	0.00e+00	0	44	0	1494220800	8	3887
2026-01-19 10:56:43.46	67.14	29.54	-23.7	-24.4	19.6	0.00e+00	0	44	0	1510998016	8	3891
2026-01-19 10:56:46.46	66.16	29.70	-23.7	-24.4	19.6	0.00e+00	0	44	0	1528823808	8	3886
2026-01-19 10:56:49.47	65.17	29.85	-23.7	-24.3	19.6	0.00e+00	0	44	0	1545601024	8	3875
2026-01-19 10:56:52.50	64.16	29.99	-23.3	-23.6	20.0	0.00e+00	0	44	0	1562378240	8	3699
2026-01-19 10:56:55.51	63.15	30.12	-23.4	-23.7	19.9	0.00e+00	0	44	0	1579155456	8	3735
2026-01-19 10:56:58.52	62.14	30.24	-23.7	-24.3	19.6	0.00e+00	0	43	0	1595932672	8	3871
2026-01-19 10:57:01.53	61.12	30.35	-23.9	-24.8	19.4	0.00e+00	0	44	0	1612709888	8	3984
2026-01-19 10:57:04.53	60.09	30.46	-23.4	-23.7	19.9	0.00e+00	0	44	0	1629487104	8	3737
2026-01-19 10:57:07.55	59.05	30.55	-23.5	-23.9	19.8	0.00e+00	0	44	0	1646264320	8	3782
2026-01-19 10:57:10.56	58.01	30.63	-23.5	-24.0	19.8	0.00e+00	0	44	0	1664090112	8	3785
2026-01-19 10:57:13.57	56.96	30.70	-23.2	-23.8	20.1	0.00e+00	0	44	0	1680867328	7	3861
2026-01-19 10:57:16.58	55.91	30.76	-23.6	-24.5	19.8	0.00e+00	0	44	0	1697644544	7	4025
2026-01-19 10:57:19.59	54.86	30.81	-23.4	-24.2	19.9	0.00e+00	0	44	0	1714421760	7	3934
2026-01-19 10:57:22.61	53.80	30.85	-23.6	-24.6	19.7	0.00e+00	0	44	0	1731198976	7	4038
2026-01-19 10:57:25.63	52.73	30.88	-23.5	-24.3	19.9	0.00e+00	0	44	0	1749024768	7	3976
2026-01-19 10:57:28.64	51.67	30.89	-23.4	-24.2	19.9	0.00e+00	0	44	0	1765801984	7	3944
2026-01-19 10:57:31.65	50.61	30.90	-23.3	-24.0	20.0	0.00e+00	0	44	0	1782579200	7	3912
2026-01-19 10:57:34.66	49.55	30.89	-23.6	-24.6	19.8	0.00e+00	0	44	0	1799356416	7	4033
2026-01-19 10:57:37.67	48.49	30.88	-23.6	-24.6	19.7	0.00e+00	0	44	0	1816133632	7	4039
2026-01-19 10:57:40.68	47.43	30.85	-23.7	-24.9	19.6	0.00e+00	0	44	0	1832910848	7	4110
2026-01-19 10:57:43.69	46.37	30.81	-23.5	-24.5	19.8	0.00e+00	0	44	0	1849688064	7	4008
2026-01-19 10:57:46.69	45.32	30.76	-23.6	-24.6	19.7	0.00e+00	0	44	0	1867513856	7	4050
2026-01-19 10:57:49.70	44.27	30.70	-23.5	-24.5	19.8	0.00e+00	0	44	0	1884291072	7	4022
2026-01-19 10:57:52.71	43.23	30.63	-23.8	-25.0	19.5	0.00e+00	0	44	0	1901068288	7	4154
2026-01-19 10:57:55.71	42.19	30.55	-23.6	-24.7	19.7	0.00e+00	0	44	0	1917845504	7	4069
2026-01-19 10:57:58.71	41.16	30.46	-23.3	-24.1	20.0	0.00e+00	0	44	0	1934622720	7	3926
2026-01-19 10:58:01.72	40.13	30.36	-23.3	-24.0	20.0	0.00e+00	0	44	0	1951399936	7	3893
2026-01-19 10:58:04.72	39.11	30.25	-23.4	-24.2	19.9	0.00e+00	0	44	0	1968177152	7	3943
2026-01-19 10:58:07.74	38.09	30.13	-23.7	-24.8	19.6	0.00e+00	0	44	0	1984954368	7	4083
2026-01-19 10:58:10.75	37.09	30.00	-24.1	-25.3	19.2	0.00e+00	0	44	0	2002780160	8	4094
2026-01-19 10:58:13.76	36.09	29.86	-23.6	-24.2	19.7	0.00e+00	0	44	0	2019557376	8	3830
2026-01-19 10:58:16.77	35.10	29.71	-23.6	-24.2	19.7	0.00e+00	0	44	0	2036334592	8	3833
2026-01-19 10:58:19.78	34.12	29.55	-23.4	-23.8	19.9	0.00e+00	0	44	0	2053111808	8	3743
2026-01-19 10:58:22.79	33.15	29.38	-23.8	-24.6	19.5	0.00e+00	0	44	0	2069889024	8	3932
2026-01-19 10:58:25.80	32.19	29.21	-23.7	-24.4	19.6	0.00e+00	0	44	0	2086666240	8	3874
2026-01-19 10:58:28.81	31.24	29.03	-23.9	-24.8	19.4	0.00e+00	0	44	0	2104492032	8	3990
2026-01-19 10:58:31.82	30.30	28.84	-23.7	-24.4	19.6	0.00e+00	0	44	0	2121269248	8	3881
2026-01-19 10:58:34.83	29.38	28.64	-23.5	-23.9	19.8	0.00e+00	0	44	0	2138046464	8	3764
2026-01-19 10:58:37.84	28.46	28.44	-23.5	-24.0	19.7	0.00e+00	0	44	0	2154823680	8	3798
2026-01-19 10:58:40.84	27.56	28.23	-23.5	-24.0	19.8	0.00e+00	0	44	0	2171600896	8	3786
2026-01-19 10:58:43.85	26.67	28.01	-23.5	-23.9	19.8	0.00e+00	0	44	0	2188378112	8	3766
2026-01-19 10:58:46.86	25.79	27.79	-23.7	-24.3	19.6	0.00e+00	0	44	0	2205155328	8	3878
2026-01-19 10:58:49.87	24.93	27.57	-23.8	-24.6	19.4	0.00e+00	0	44	0	2222981120	8	3930
2026-01-19 10:58:52.88	24.07	27.33	-23.6	-24.1	19.7	0.00e+00	0	44	0	2239758336	8	3813
2026-01-19 10:58:55.89	23.23	27.10	-23.8	-24.6	19.5	0.00e+00	0	44	0	2256535552	8	3925
2026-01-19 10:58:58.90	22.40	26.85	-23.8	-24.5	19.4	0.00e+00	0	44	0	2273312768	8	3904
2026-01-19 10:59:01.91	21.59	26.61	-23.9	-24.8	19.3	0.00e+00	0	44	0	2290089984	8	3986
2026-01-19 10:59:04.92	20.78	26.36	-24.0	-24.9	19.2	0.00e+00	0	44	0	2306867200	8	3995
2026-01-19 10:59:07.93	19.99	26.10	-24.2	-25.3	19.0	0.00e+00	0	44	0	2323644416	8	4100
2026-01-19 10:59:10.94	19.22	25.85	-24.2	-25.3	18.9	0.00e+00	0	44	0	2340421632	8	4116
2026-01-19 10:59:13.94	18.46	25.59	-24.2	-25.5	18.9	0.00e+00	0	44	0	2358247424	8	4145
2026-01-19 10:59:16.96	17.70	25.32	-24.0	-24.4	19.2	0.00e+00	0	44	0	2375024640	9	3772
2026-01-19 10:59:19.96	16.96	25.06	-23.8	-24.1	19.3	0.00e+00	0	44	0	2391801856	9	3716
2026-01-19 10:59:22.96	16.24	24.79	-23.9	-24.2	19.2	0.00e+00	0	44	0	2408579072	9	3748
2026-01-19 10:59:25.97	15.53	24.52	-23.9	-24.2	19.3	0.00e+00	0	44	0	2425356288	9	3728
2026-01-19 10:59:28.98	14.82	24.24	-24.1	-24.6	19.0	0.00e+00	0	44	0	2442133504	9	3842
2026-01-19 10:59:32.00	14.13	23.97	-24.3	-25.1	18.8	0.00e+00	0	44	0	2458910720	9	3959
2026-01-19 10:59:35.01	13.46	23.69	-24.1	-24.7	19.0	0.00e+00	0	44	0	2476736512	9	3852
2026-01-19 10:59:38.02	12.79	23.42	-24.3	-25.1	18.8	0.00e+00	0	44	0	2493513728	9	3942
2026-01-19 10:59:41.03	12.14	23.14	-24.2	-24.9	18.8	0.00e+00	0	44	0	2510290944	9	3898
2026-01-19 10:59:44.04	11.50	22.86	-24.2	-24.8	18.9	0.00e+00	0	44	0	2527068160	9	3882
2026-01-19 10:59:47.02	10.87	22.58	-24.2	-24.9	18.8	0.00e+00	0	44	0	2543845376	9	3903
2026-01-19 10:59:50.03	10.25	22.30	-24.5	-25.6	18.4	0.00e+00	0	44	0	2560622592	9	4074
2026-01-19 10:59:53.04	9.65	22.02	-24.7	-25.8	18.3	0.00e+00	0	44	0	2577399808	9	4132
2026-01-19 10:59:56.04	9.05	21.74	-25.0	-26.6	17.9	0.00e+00	0	44	0	2594177024	9	4314
2026-01-19 10:59:59.06	8.46	21.45	-24.3	-25.1	18.7	0.00e+00	0	44	0	2612002816	9	3939
2026-01-19 11:00:02.06	7.89	21.17	-24.3	-25.1	18.6	0.00e+00	0	44	0	2628780032	9	3952
2026-01-19 11:00:05.08	7.32	20.89	-24.2	-24.9	18.8	0.00e+00	0	44	0	2645557248	9	3905
2026-01-19 11:00:08.08	6.77	20.61	-24.3	-25.1	18.6	0.00e+00	0	44	0	2662334464	9	3961
2026-01-19 11:00:11.09	6.23	20.33	-24.6	-25.7	18.3	0.00e+00	0	44	0	2679111680	9	4093
2026-01-19 11:00:14.11	5.69	20.05	-24.6	-25.7	18.3	0.00e+00	0	44	0	2695888896	9	4095
2026-01-19 11:00:17.12	5.17	19.77	-24.7	-25.9	18.1	0.00e+00	0	44	0	2713714688	9	4157
2026-01-19 11:00:20.13	4.66	19.49	-24.7	-26.0	18.1	0.00e+00	0	44	0	2730491904	9	4173
2026-01-19 11:00:23.13	4.15	19.21	-24.9	-26.3	17.9	0.00e+00	0	44	0	2747269120	9	4246
2026-01-19 11:00:26.14	3.66	18.93	-24.9	-25.8	18.0	0.00e+00	0	44	0	2764046336	10	4015
2026-01-19 11:00:29.16	3.17	18.66	-25.0	-26.1	17.8	0.00e+00	0	44	0	2780823552	10	4096
2026-01-19 11:00:32.16	2.70	18.38	-25.4	-27.0	17.3	0.00e+00	0	44	0	2797600768	10	4331
2026-01-19 11:00:35.17	2.23	18.11	-25.4	-26.6	17.3	0.00e+00	0	44	0	2814377984	11	4093
2026-01-19 11:00:38.17	1.77	17.83	-25.8	-27.4	16.9	0.00e+00	0	44	0	2832203776	11	4296
2026-01-19 11:00:41.18	1.32	17.56	-25.3	-26.2	17.5	0.00e+00	0	44	0	2848980992	11	4005
2026-01-19 11:00:44.20	0.87	17.29	-25.6	-26.8	17.1	0.00e+00	0	44	0	2865758208	11	4162
2026-01-19 11:00:47.21	0.44	17.02	-25.4	-26.5	17.3	0.00e+00	0	44	0	2882535424	11	4078
2026-01-19 11:00:50.22	0.01	16.75	-25.6	-26.8	17.1	0.00e+00	0	44	0	2899312640	11	4150
2026-01-19 11:00:53.22	359.59	16.48	-25.8	-27.2	16.9	0.00e+00	0	44	0	2916089856	11	4271
2026-01-19 11:00:56.23	359.18	16.22	-25.7	-27.2	16.9	0.00e+00	0	44	0	2932867072	11	4262
2026-01-19 11:00:59.24	358.78	15.95	-25.8	-27.2	16.8	0.00e+00	0	44	0	2949644288	11	4265
2026-01-19 11:01:02.26	358.38	15.69	-25.9	-27.7	16.6	0.00e+00	0	44	0	2967470080	11	4385
2026-01-19 11:01:05.27	357.99	15.43	-26.2	-27.7	16.2	0.00e+00	0	44	0	2984247296	12	4290
2026-01-19 11:01:08.27	357.61	15.17	-26.1	-27.5	16.3	0.00e+00	0	44	0	3001024512	12	4233
2026-01-19 11:01:11.29	357.23	14.91	-26.1	-27.4	16.4	0.00e+00	0	44	0	3017801728	12	4210
2026-01-19 11:01:14.30	356.86	14.65	-26.0	-27.2	16.5	0.00e+00	0	44	0	3034578944	12	4152
2026-01-19 11:01:17.30	356.50	14.40	-26.2	-27.6	16.2	0.00e+00	0	44	0	3051356160	12	4260
2026-01-19 11:01:20.32	356.14	14.14	-26.3	-27.9	16.1	0.00e+00	0	44	0	3069181952	12	4331
2026-01-19 11:01:23.32	355.79	13.89	-26.3	-28.0	16.0	0.00e+00	0	44	0	3085959168	12	4356
2026-01-19 11:01:26.32	355.44	13.64	-26.3	-28.0	16.0	0.00e+00	0	44	0	3102736384	12	4359
2026-01-19 11:01:29.32	355.11	13.39	-26.4	-28.2	15.8	0.00e+00	0	44	0	3119513600	12	4428
2026-01-19 11:01:32.32	354.78	13.14	-26.5	-27.9	15.8	0.00e+00	0	44	0	3136290816	13	4233
2026-01-19 11:01:35.33	354.45	12.89	-26.4	-27.7	15.8	0.00e+00	0	44	0	3153068032	13	4194
2026-01-19 11:01:38.35	354.13	12.65	-26.4	-27.8	15.8	0.00e+00	0	44	0	3169845248	13	4196
2026-01-19 11:01:41.36	353.81	12.40	-26.6	-28.2	15.6	0.00e+00	0	44	0	3187671040	13	4307
2026-01-19 11:01:44.38	353.50	12.16	-26.5	-27.9	15.6	0.00e+00	0	44	0	3204448256	13	4244
2026-01-19 11:01:47.40	353.19	11.92	-26.6	-28.0	15.6	0.00e+00	0	44	0	3221225472	13	4268
2026-01-19 11:01:50.41	352.89	11.68	-26.4	-28.0	14.7	9.77e-03	0	44	0	3238002688	13	4325
2026-01-19 11:01:53.43	352.59	11.44	-26.6	-28.3	15.0	1.77e-03	0	44	0	3254779904	13	4391
2026-01-19 11:01:56.45	352.30	11.21	-26.7	-28.7	14.5	7.58e-03	0	44	0	3271557120	13	4517
2026-01-19 11:01:59.45	352.02	10.97	-26.9	-28.9	14.7	1.66e-04	0	44	0	3288334336	13	4527
2026-01-19 11:02:02.46	351.74	10.74	-27.0	-28.7	14.2	1.19e-02	0	44	0	3306160128	14	4376
2026-01-19 11:02:05.45	351.46	10.51	-27.1	-28.7	14.9	0.00e+00	0	44	0	3322937344	14	4341
2026-01-19 11:02:08.47	351.19	10.28	-27.2	-29.0	14.7	1.10e-06	0	44	0	3339714560	14	4428
2026-01-19 11:02:11.48	350.92	10.05	-26.9	-28.4	15.0	0.00e+00	0	44	0	3356491776	14	4256
2026-01-19 11:02:14.49	350.66	9.83	-27.1	-28.7	14.8	0.00e+00	0	44	0	3373268992	14	4354
2026-01-19 11:02:17.50	350.40	9.60	-27.1	-28.8	14.8	0.00e+00	0	44	0	3390046208	14	4375
2026-01-19 11:02:20.51	350.15	9.38	-27.3	-29.2	14.5	0.00e+00	0	44	0	3407872000	14	4493
2026-01-19 11:02:23.52	349.90	9.15	-27.2	-29.0	14.6	0.00e+00	0	44	0	3424649216	14	4432
2026-01-19 11:02:26.54	349.65	8.93	-27.3	-29.3	14.4	0.00e+00	0	44	0	3441426432	14	4529
2026-01-19 11:02:29.55	349.41	8.71	-27.6	-29.5	13.9	0.00e+00	0	44	0	3458203648	15	4480
2026-01-19 11:02:32.55	349.17	8.50	-27.6	-29.6	13.9	1.10e-06	0	44	0	3474980864	15	4488
2026-01-19 11:02:35.56	348.93	8.28	-27.6	-29.4	14.0	0.00e+00	0	44	0	3491758080	15	4432
2026-01-19 11:02:38.56	348.70	8.06	-27.6	-29.4	13.9	1.10e-06	0	44	0	3508535296	15	4450
2026-01-19 11:02:41.58	348.47	7.85	-27.5	-29.2	14.1	0.00e+00	0	44	0	3525312512	15	4372
2026-01-19 11:02:44.59	348.25	7.64	-27.5	-29.3	13.9	1.10e-06	0	44	0	3543138304	15	4408
2026-01-19 11:02:47.60	348.03	7.43	-27.9	-30.1	13.5	3.40e-06	0	44	0	3559915520	15	4644
2026-01-19 11:02:50.61	347.81	7.22	-27.8	-29.8	13.6	3.40e-06	0	44	0	3576692736	15	4582
2026-01-19 11:02:53.62	347.59	7.01	-33.7	-44.7	3.8	8.46e-01	0	44	104	3587178496	27	12816

#Closed at: 2026-01-19 11:02:56
#Recorded file [3587 MB]: D:/data/31010_260119_135214.dat