passes_logs/2026/01/19/R2M6_AANII_01/R2M6_AANII_01__20260119_110337_NOAA_21_JPSS-2_rec.log

#Pass ID: 20260119_110337_NOAA 21 (JPSS-2)
#Satellite: NOAA 21 (JPSS-2)
#Configuration: NOAA 21
#almurnet v.1.7.20240730
#Start time: 2026-01-19 11:03:39

#Version: 2.2.20231116
#Station: R2M6_AANII_01
#Location: 30.233357 lon 59.946436 lat
#TLE: 1 54234U 22150A   26017.90260625  .00000050  00000+0  44518-4 0  9994
#TLE: 2 54234  98.7502 318.7672 0000612 269.1755  90.9351 14.19535344165221

#Time	Az	El	Level	Level2	SNR	BER	BlckErr	Temp	State	Recorded	gain1	gain2
2026-01-19 11:03:39.64	183.60	7.12	-33.6	-45.0	3.8	1.49e+00	0	44	0	0	28	13366
2026-01-19 11:03:42.64	183.74	7.35	-31.2	-35.3	7.9	8.90e-02	0	44	0	3145728	23	5784
2026-01-19 11:03:45.66	183.88	7.58	-30.1	-32.8	10.4	6.76e-03	0	44	0	12582912	21	4938
2026-01-19 11:03:48.66	184.02	7.80	-29.3	-31.7	11.9	5.32e-04	0	44	0	22020096	19	4743
2026-01-19 11:03:51.67	184.17	8.04	-29.1	-31.1	12.3	2.05e-04	0	44	0	30408704	19	4532
2026-01-19 11:03:54.67	184.32	8.27	-29.3	-31.8	11.8	3.85e-04	0	44	0	39845888	19	4775
2026-01-19 11:03:57.68	184.47	8.50	-30.0	-33.1	10.6	5.25e-03	0	44	0	49283072	20	5128
2026-01-19 11:04:00.69	184.63	8.74	-29.9	-32.7	10.9	2.79e-03	0	44	0	58720256	20	4997
2026-01-19 11:04:03.70	184.78	8.98	-29.1	-31.2	12.3	2.10e-04	0	44	0	68157440	19	4579
2026-01-19 11:04:06.72	184.94	9.22	-28.7	-30.5	13.1	2.97e-05	0	44	0	77594624	18	4453
2026-01-19 11:04:09.72	185.10	9.47	-28.7	-30.6	13.1	2.36e-05	0	44	0	87031808	18	4476
2026-01-19 11:04:12.73	185.27	9.71	-28.6	-30.3	13.2	2.44e-05	0	44	0	96468992	18	4395
2026-01-19 11:04:15.73	185.43	9.96	-28.5	-30.2	13.4	1.44e-05	0	44	0	105906176	18	4346
2026-01-19 11:04:18.74	185.60	10.21	-28.5	-30.0	13.5	1.90e-05	0	44	0	115343360	18	4304
2026-01-19 11:04:21.75	185.77	10.46	-28.6	-30.4	13.2	2.05e-05	0	44	0	124780544	18	4425
2026-01-19 11:04:24.76	185.95	10.72	-28.6	-30.4	13.3	1.90e-05	0	44	0	134217728	18	4399
2026-01-19 11:04:27.78	186.13	10.98	-28.7	-30.6	13.3	1.52e-05	0	44	0	143654912	18	4452
2026-01-19 11:04:30.79	186.31	11.24	-28.3	-29.6	13.9	5.30e-06	0	44	0	153092096	18	4166
2026-01-19 11:04:33.79	186.49	11.50	-28.2	-29.8	14.0	2.20e-06	0	44	0	162529280	17	4344
2026-01-19 11:04:36.81	186.68	11.77	-28.1	-29.7	14.2	7.00e-07	0	44	0	171966464	17	4295
2026-01-19 11:04:39.83	186.87	12.04	-28.1	-29.7	14.2	7.00e-07	0	44	0	181403648	17	4296
2026-01-19 11:04:42.83	187.06	12.31	-28.0	-29.4	14.4	1.50e-06	0	44	0	190840832	17	4204
2026-01-19 11:04:45.84	187.26	12.58	-28.0	-29.4	14.3	0.00e+00	0	44	0	200278016	17	4229
2026-01-19 11:04:48.84	187.46	12.86	-28.1	-29.5	14.3	2.20e-06	0	44	0	209715200	17	4257
2026-01-19 11:04:51.85	187.66	13.14	-28.0	-29.4	14.4	0.00e+00	0	44	0	219152384	17	4226
2026-01-19 11:04:54.86	187.87	13.42	-28.0	-29.4	14.4	7.00e-07	0	44	0	228589568	17	4208
2026-01-19 11:04:57.87	188.08	13.70	-27.9	-29.1	14.5	1.50e-06	0	44	0	238026752	17	4135
2026-01-19 11:05:00.88	188.30	13.99	-28.0	-29.3	14.3	7.00e-07	0	44	0	247463936	17	4190
2026-01-19 11:05:03.88	188.52	14.28	-28.1	-29.5	14.2	3.80e-06	0	44	0	256901120	17	4247
2026-01-19 11:05:06.90	188.74	14.58	-28.0	-29.4	14.3	7.00e-07	0	44	0	266338304	17	4214
2026-01-19 11:05:09.90	188.97	14.88	-28.0	-29.4	14.3	0.00e+00	0	44	0	275775488	17	4202
2026-01-19 11:05:12.91	189.20	15.18	-27.9	-29.2	14.5	1.50e-06	0	44	0	285212672	17	4154
2026-01-19 11:05:15.92	189.44	15.48	-28.1	-29.6	14.3	7.60e-06	0	44	0	294649856	17	4284
2026-01-19 11:05:18.92	189.68	15.79	-28.1	-29.6	14.4	7.00e-07	0	44	0	303038464	17	4261
2026-01-19 11:05:21.94	189.93	16.10	-28.2	-29.8	14.3	6.80e-06	0	44	0	312475648	17	4321
2026-01-19 11:05:24.94	190.18	16.41	-28.4	-30.2	14.0	6.10e-06	0	44	0	322961408	17	4441
2026-01-19 11:05:27.96	190.44	16.73	-28.4	-30.3	14.0	9.90e-06	0	44	0	331350016	17	4458
2026-01-19 11:05:30.97	190.70	17.06	-28.4	-30.2	14.0	1.22e-05	0	44	0	340787200	17	4440
2026-01-19 11:05:33.98	190.96	17.38	-28.3	-30.1	14.2	1.50e-06	0	44	0	350224384	17	4395
2026-01-19 11:05:36.98	191.24	17.71	-28.2	-29.8	14.4	1.37e-05	0	44	0	359661568	17	4306
2026-01-19 11:05:39.99	191.51	18.04	-28.0	-29.1	14.7	0.00e+00	0	44	0	369098752	17	4128
2026-01-19 11:05:43.00	191.80	18.38	-28.0	-29.1	14.8	0.00e+00	0	44	0	378535936	17	4126
2026-01-19 11:05:46.02	192.09	18.72	-27.9	-29.0	14.9	0.00e+00	0	44	0	387973120	17	4086
2026-01-19 11:05:49.02	192.39	19.07	-27.8	-29.3	15.0	0.00e+00	0	44	0	397410304	16	4270
2026-01-19 11:05:52.03	192.69	19.42	-27.8	-29.2	15.1	0.00e+00	0	44	0	406847488	16	4248
2026-01-19 11:05:55.04	193.00	19.77	-27.8	-29.2	15.1	0.00e+00	0	44	0	416284672	16	4251
2026-01-19 11:05:58.04	193.32	20.13	-27.9	-29.4	15.0	0.00e+00	0	44	0	425721856	16	4308
2026-01-19 11:06:01.05	193.64	20.49	-27.5	-28.6	15.4	0.00e+00	0	44	0	435159040	16	4082
2026-01-19 11:06:04.06	193.97	20.86	-27.4	-28.4	15.6	7.00e-07	0	44	0	444596224	16	4022
2026-01-19 11:06:07.07	194.31	21.23	-27.4	-28.3	15.6	0.00e+00	0	44	0	454033408	16	4002
2026-01-19 11:06:10.07	194.66	21.60	-27.0	-28.0	15.9	0.00e+00	0	44	0	463470592	15	4048
2026-01-19 11:06:13.08	195.02	21.99	-27.1	-28.1	15.9	0.00e+00	0	44	0	472907776	15	4066
2026-01-19 11:06:16.09	195.38	22.37	-26.8	-27.6	16.2	0.00e+00	0	44	0	482344960	15	3930
2026-01-19 11:06:19.11	195.76	22.76	-26.7	-27.8	16.3	0.00e+00	0	44	0	491782144	14	4099
2026-01-19 11:06:22.10	196.14	23.15	-26.8	-28.0	16.2	0.00e+00	0	44	0	501219328	14	4151
2026-01-19 11:06:25.12	196.53	23.55	-27.0	-28.4	16.0	0.00e+00	0	44	0	510656512	14	4260
2026-01-19 11:06:28.12	196.93	23.96	-27.0	-28.5	16.0	0.00e+00	0	44	0	520093696	14	4284
2026-01-19 11:06:31.12	197.34	24.36	-27.1	-28.8	15.8	0.00e+00	0	44	0	529530880	14	4377
2026-01-19 11:06:34.11	197.76	24.78	-26.9	-28.2	16.2	0.00e+00	0	44	0	538968064	14	4199
2026-01-19 11:06:37.12	198.20	25.19	-27.0	-28.6	16.0	0.00e+00	0	44	0	548405248	14	4303
2026-01-19 11:06:40.14	198.64	25.62	-27.2	-29.0	15.8	0.00e+00	0	44	0	557842432	14	4420
2026-01-19 11:06:43.15	199.10	26.05	-27.4	-29.4	15.6	0.00e+00	0	44	0	567279616	14	4549
2026-01-19 11:06:46.15	199.57	26.48	-27.4	-29.4	15.6	0.00e+00	0	44	0	576716800	14	4540
2026-01-19 11:06:49.17	200.05	26.92	-27.6	-29.4	15.3	0.00e+00	0	44	0	586153984	15	4417
2026-01-19 11:06:52.19	200.55	27.37	-27.6	-29.4	15.3	0.00e+00	0	44	0	595591168	15	4406
2026-01-19 11:06:55.20	201.06	27.82	-27.6	-29.4	15.4	0.00e+00	0	44	0	603979776	15	4402
2026-01-19 11:06:58.21	201.58	28.27	-27.6	-29.3	15.4	0.00e+00	0	44	0	613416960	15	4392
2026-01-19 11:07:01.22	202.12	28.73	-27.7	-29.6	15.3	0.00e+00	0	44	0	623902720	15	4466
2026-01-19 11:07:04.22	202.67	29.19	-27.7	-29.5	15.4	0.00e+00	0	44	0	632291328	15	4421
2026-01-19 11:07:07.24	203.24	29.66	-27.7	-29.6	15.3	0.00e+00	0	44	0	641728512	15	4452
2026-01-19 11:07:10.25	203.83	30.13	-27.8	-29.7	15.3	0.00e+00	0	44	0	651165696	15	4493
2026-01-19 11:07:13.26	204.43	30.61	-27.9	-30.1	15.0	0.00e+00	0	44	0	660602880	15	4607
2026-01-19 11:07:16.27	205.05	31.09	-27.9	-29.4	15.3	0.00e+00	0	44	0	670040064	16	4284
2026-01-19 11:07:19.28	205.69	31.58	-27.8	-29.1	15.5	0.00e+00	0	44	0	679477248	16	4194
2026-01-19 11:07:22.29	206.34	32.07	-28.0	-29.7	15.2	0.00e+00	0	44	0	688914432	16	4360
2026-01-19 11:07:25.29	207.02	32.56	-28.0	-29.7	15.2	0.00e+00	0	44	0	698351616	16	4358
2026-01-19 11:07:28.29	207.71	33.06	-28.0	-29.6	15.3	0.00e+00	0	44	0	707788800	16	4340
2026-01-19 11:07:31.29	208.43	33.56	-27.8	-29.1	15.6	0.00e+00	0	44	0	717225984	16	4192
2026-01-19 11:07:34.31	209.18	34.07	-28.1	-29.9	15.1	0.00e+00	0	44	0	726663168	16	4417
2026-01-19 11:07:37.31	209.94	34.58	-28.0	-29.7	15.2	0.00e+00	0	44	0	736100352	16	4369
2026-01-19 11:07:40.31	210.72	35.08	-28.3	-30.3	14.9	0.00e+00	0	44	0	745537536	16	4539
2026-01-19 11:07:43.33	211.54	35.60	-28.8	-30.9	14.3	0.00e+00	0	44	0	754974720	17	4617
2026-01-19 11:07:46.33	212.37	36.11	-28.8	-30.9	14.4	7.00e-07	0	44	0	764411904	17	4584
2026-01-19 11:07:49.33	213.23	36.63	-29.3	-31.6	13.6	7.60e-06	0	44	0	773849088	18	4713
2026-01-19 11:07:52.32	214.12	37.14	-29.4	-31.4	13.5	9.90e-06	0	44	0	783286272	19	4524
2026-01-19 11:07:55.33	215.04	37.66	-29.6	-31.9	13.2	3.66e-05	0	44	0	792723456	19	4682
2026-01-19 11:07:58.35	215.99	38.18	-29.6	-31.9	13.2	2.21e-05	0	44	0	802160640	19	4674
2026-01-19 11:08:01.36	216.97	38.69	-29.7	-32.2	13.0	2.51e-05	0	44	0	811597824	19	4773
2026-01-19 11:08:04.36	217.98	39.20	-29.8	-32.2	13.0	4.50e-05	0	44	0	821035008	19	4796
2026-01-19 11:08:07.36	219.02	39.71	-29.6	-32.0	13.2	2.28e-05	0	44	0	830472192	19	4702
2026-01-19 11:08:10.37	220.09	40.22	-29.9	-32.6	12.8	5.64e-05	0	44	0	839909376	19	4905
2026-01-19 11:08:13.38	221.20	40.72	-30.1	-32.7	12.4	1.53e-04	0	44	0	849346560	20	4837
2026-01-19 11:08:16.40	222.34	41.23	-29.8	-31.8	12.9	6.56e-05	0	44	0	857735168	20	4564
2026-01-19 11:08:19.41	223.52	41.72	-30.0	-32.4	12.5	1.24e-04	0	44	0	867172352	20	4749
2026-01-19 11:08:22.41	224.73	42.20	-29.9	-32.2	12.8	6.94e-05	0	44	0	876609536	20	4690
2026-01-19 11:08:25.42	225.98	42.68	-29.6	-31.4	13.2	1.60e-05	0	44	0	886046720	20	4429
2026-01-19 11:08:28.42	227.26	43.15	-29.8	-31.9	12.9	3.28e-05	0	44	0	895483904	20	4591
2026-01-19 11:08:31.44	228.59	43.60	-30.0	-32.4	12.6	1.04e-04	0	44	0	904921088	20	4760
2026-01-19 11:08:34.46	229.95	44.05	-30.1	-32.5	12.5	1.54e-04	0	44	0	914358272	20	4792
2026-01-19 11:08:37.47	231.35	44.48	-29.9	-32.2	12.7	7.17e-05	0	44	0	923795456	20	4664
2026-01-19 11:08:40.48	232.79	44.90	-30.0	-32.4	12.6	1.07e-04	0	44	0	933232640	20	4734
2026-01-19 11:08:43.49	234.26	45.30	-29.7	-31.6	13.1	4.19e-05	0	44	0	942669824	20	4470
2026-01-19 11:08:46.50	235.77	45.69	-29.7	-31.5	13.1	3.20e-05	0	44	0	952107008	20	4445
2026-01-19 11:08:49.52	237.32	46.06	-29.7	-31.6	13.1	4.11e-05	0	44	0	961544192	20	4475
2026-01-19 11:08:52.53	238.90	46.41	-30.0	-32.3	12.7	8.77e-05	0	44	0	970981376	20	4696
2026-01-19 11:08:55.53	240.50	46.73	-29.8	-31.8	13.0	4.04e-05	0	44	0	980418560	20	4525
2026-01-19 11:08:58.54	242.15	47.03	-30.0	-32.4	12.6	8.85e-05	0	44	0	989855744	20	4745
2026-01-19 11:09:01.54	243.82	47.31	-29.8	-31.8	13.0	3.12e-05	0	44	0	999292928	20	4531
2026-01-19 11:09:04.56	245.53	47.57	-29.6	-31.3	13.3	1.44e-05	0	44	0	1008730112	20	4389
2026-01-19 11:09:07.56	247.26	47.80	-30.0	-32.3	12.7	1.04e-04	0	44	0	1018167296	20	4681
2026-01-19 11:09:10.57	249.01	48.00	-29.6	-31.3	13.3	9.10e-06	0	44	0	1027604480	20	4395
2026-01-19 11:09:13.58	250.79	48.17	-29.9	-32.0	12.9	5.64e-05	0	44	0	1037041664	20	4588
2026-01-19 11:09:16.59	252.58	48.32	-29.4	-30.8	13.6	9.90e-06	0	44	0	1046478848	20	4242
2026-01-19 11:09:19.59	254.38	48.43	-29.6	-31.8	13.5	6.10e-06	0	44	0	1055916032	19	4623
2026-01-19 11:09:22.61	256.21	48.52	-29.8	-32.3	13.1	4.27e-05	0	44	0	1065353216	19	4802
2026-01-19 11:09:25.62	258.04	48.57	-29.6	-31.8	13.4	1.29e-05	0	44	0	1074790400	19	4630
2026-01-19 11:09:28.63	259.87	48.59	-30.0	-32.2	12.8	5.26e-05	0	44	0	1084227584	20	4640
2026-01-19 11:09:31.63	261.70	48.59	-30.2	-32.9	12.4	1.63e-04	0	44	0	1093664768	20	4874
2026-01-19 11:09:34.64	263.53	48.55	-30.2	-32.9	12.4	1.33e-04	0	44	0	1103101952	20	4879
2026-01-19 11:09:37.66	265.36	48.48	-29.3	-30.9	14.0	0.00e+00	0	44	0	1112539136	19	4353
2026-01-19 11:09:40.67	267.17	48.38	-29.8	-32.3	13.1	2.59e-05	0	44	0	1121976320	19	4810
2026-01-19 11:09:43.68	268.97	48.25	-29.9	-32.6	13.0	3.35e-05	0	44	0	1131413504	19	4895
2026-01-19 11:09:46.69	270.76	48.09	-30.2	-32.7	12.6	8.23e-05	0	44	0	1140850688	20	4834
2026-01-19 11:09:49.71	272.53	47.90	-29.6	-31.3	13.4	1.29e-05	0	44	0	1150287872	20	4391
2026-01-19 11:09:52.72	274.27	47.69	-30.1	-32.7	12.5	8.31e-05	0	44	0	1159725056	20	4814
2026-01-19 11:09:55.72	275.98	47.45	-30.2	-32.8	12.5	1.10e-04	0	44	0	1169162240	20	4865
2026-01-19 11:09:58.73	277.67	47.18	-30.2	-32.7	12.6	8.16e-05	0	44	0	1178599424	20	4814
2026-01-19 11:10:01.73	279.32	46.89	-30.3	-32.9	12.4	1.62e-04	0	44	0	1186988032	20	4907
2026-01-19 11:10:04.74	280.95	46.58	-29.9	-32.0	12.9	4.50e-05	0	44	0	1196425216	20	4595
2026-01-19 11:10:07.75	282.54	46.24	-29.9	-32.0	13.0	3.28e-05	0	44	0	1205862400	20	4589
2026-01-19 11:10:10.76	284.10	45.89	-30.2	-32.9	12.5	1.56e-04	0	44	0	1215299584	20	4895
2026-01-19 11:10:13.77	285.63	45.52	-29.4	-31.1	13.9	0.00e+00	0	44	0	1224736768	19	4417
2026-01-19 11:10:16.77	287.11	45.12	-29.5	-31.5	13.7	3.80e-06	0	44	0	1234173952	19	4525
2026-01-19 11:10:19.78	288.56	44.72	-29.4	-31.3	13.9	9.10e-06	0	44	0	1243611136	19	4462
2026-01-19 11:10:22.79	289.98	44.29	-29.9	-32.4	13.1	2.44e-05	0	44	0	1253048320	19	4823
2026-01-19 11:10:25.79	291.35	43.86	-29.9	-32.5	13.1	3.50e-05	0	44	0	1262485504	19	4856
2026-01-19 11:10:28.81	292.69	43.41	-30.1	-32.6	12.7	1.07e-04	0	44	0	1271922688	20	4767
2026-01-19 11:10:31.81	293.99	42.95	-30.5	-33.5	12.1	1.66e-04	0	44	0	1281359872	20	5091
2026-01-19 11:10:34.82	295.26	42.48	-30.4	-32.8	12.2	1.93e-04	0	44	0	1290797056	21	4724
2026-01-19 11:10:37.84	296.49	42.00	-30.1	-31.9	12.8	8.46e-05	0	44	0	1300234240	21	4456
2026-01-19 11:10:40.84	297.68	41.51	-29.9	-31.6	13.0	3.89e-05	0	44	0	1309671424	21	4347
2026-01-19 11:10:43.86	298.84	41.02	-30.3	-32.5	12.4	1.41e-04	0	44	0	1319108608	21	4648
2026-01-19 11:10:46.87	299.96	40.52	-30.1	-32.1	12.6	1.60e-04	0	44	0	1328545792	21	4519
2026-01-19 11:10:49.87	301.05	40.02	-29.8	-31.8	13.2	1.52e-05	0	44	0	1337982976	20	4518
2026-01-19 11:10:52.88	302.11	39.51	-30.1	-32.5	12.6	6.94e-05	0	44	0	1347420160	20	4759
2026-01-19 11:10:55.89	303.13	39.00	-30.0	-32.2	12.9	5.26e-05	0	44	0	1356857344	20	4642
2026-01-19 11:10:58.91	304.13	38.49	-29.9	-32.1	12.9	6.56e-05	0	44	0	1366294528	20	4635
2026-01-19 11:11:01.93	305.09	37.97	-29.6	-31.4	13.4	2.28e-05	0	44	0	1375731712	20	4398
2026-01-19 11:11:04.94	306.02	37.46	-28.9	-30.0	14.5	1.50e-06	0	44	0	1385168896	19	4111
2026-01-19 11:11:07.94	306.92	36.94	-28.8	-30.3	14.7	7.00e-07	0	44	0	1394606080	18	4305
2026-01-19 11:11:10.95	307.80	36.43	-28.8	-30.4	14.5	0.00e+00	0	44	0	1404043264	18	4331
2026-01-19 11:11:13.95	308.65	35.92	-28.6	-29.9	14.9	7.00e-07	0	44	0	1413480448	18	4183
2026-01-19 11:11:16.96	309.47	35.41	-28.8	-30.3	14.6	0.00e+00	0	44	0	1422917632	18	4306
2026-01-19 11:11:19.98	310.27	34.90	-28.9	-30.6	14.5	1.50e-06	0	44	0	1432354816	18	4367
2026-01-19 11:11:22.98	311.05	34.39	-29.0	-31.0	14.2	7.00e-07	0	44	0	1441792000	18	4490
2026-01-19 11:11:25.99	311.80	33.89	-29.3	-31.5	13.9	1.50e-06	0	44	0	1451229184	18	4652
2026-01-19 11:11:29.00	312.53	33.39	-28.7	-30.1	14.7	0.00e+00	0	44	0	1459617792	18	4243
2026-01-19 11:11:32.01	313.24	32.89	-28.8	-30.5	14.5	0.00e+00	0	44	0	1469054976	18	4352
2026-01-19 11:11:35.01	313.92	32.40	-28.8	-30.5	14.5	1.50e-06	0	44	0	1478492160	18	4358
2026-01-19 11:11:38.02	314.59	31.91	-28.2	-29.6	15.2	0.00e+00	0	44	0	1487929344	17	4202
2026-01-19 11:11:41.03	315.23	31.42	-28.2	-29.5	15.3	0.00e+00	0	44	0	1497366528	17	4182
2026-01-19 11:11:44.04	315.86	30.94	-28.2	-29.5	15.3	0.00e+00	0	44	0	1506803712	17	4171
2026-01-19 11:11:47.06	316.48	30.46	-27.9	-28.9	15.6	0.00e+00	0	44	0	1516240896	17	4022
2026-01-19 11:11:50.06	317.07	29.99	-28.0	-29.0	15.5	0.00e+00	0	44	0	1525678080	17	4058
2026-01-19 11:11:53.06	317.64	29.52	-28.3	-29.7	15.1	0.00e+00	0	44	0	1535115264	17	4248
2026-01-19 11:11:56.07	318.20	29.06	-28.2	-29.6	15.2	0.00e+00	0	44	0	1544552448	17	4216
2026-01-19 11:11:59.07	318.75	28.60	-28.3	-29.7	15.1	0.00e+00	0	44	0	1553989632	17	4242
2026-01-19 11:12:02.06	319.27	28.15	-28.3	-29.8	15.0	0.00e+00	0	44	0	1563426816	17	4282
2026-01-19 11:12:05.07	319.79	27.70	-28.5	-30.1	14.8	0.00e+00	0	44	0	1572864000	17	4366
2026-01-19 11:12:08.08	320.29	27.26	-28.0	-29.0	15.5	0.00e+00	0	44	0	1582301184	17	4043
2026-01-19 11:12:11.09	320.78	26.82	-27.9	-28.8	15.6	0.00e+00	0	44	0	1591738368	17	3999
2026-01-19 11:12:14.11	321.26	26.39	-27.9	-28.7	15.6	0.00e+00	0	44	0	1601175552	17	3988
2026-01-19 11:12:17.11	321.72	25.96	-28.0	-29.1	15.4	0.00e+00	0	44	0	1610612736	17	4078
2026-01-19 11:12:20.12	322.17	25.53	-27.7	-28.9	15.8	0.00e+00	0	44	0	1620049920	16	4126
2026-01-19 11:12:23.13	322.61	25.12	-27.8	-29.2	15.6	0.00e+00	0	44	0	1629487104	16	4211
2026-01-19 11:12:26.14	323.04	24.70	-27.6	-28.8	15.8	0.00e+00	0	44	0	1638924288	16	4096
2026-01-19 11:12:29.14	323.46	24.29	-27.7	-28.8	15.8	0.00e+00	0	44	0	1648361472	16	4107
2026-01-19 11:12:32.14	323.86	23.89	-27.8	-29.0	15.6	0.00e+00	0	44	0	1657798656	16	4172
2026-01-19 11:12:35.16	324.26	23.49	-27.8	-29.2	15.6	0.00e+00	0	44	0	1667235840	16	4213
2026-01-19 11:12:38.18	324.65	23.09	-27.7	-28.9	15.7	0.00e+00	0	44	0	1676673024	16	4134
2026-01-19 11:12:41.17	325.03	22.71	-27.6	-28.7	15.7	0.00e+00	0	44	0	1686110208	16	4089
2026-01-19 11:12:44.18	325.40	22.32	-27.8	-29.1	15.6	0.00e+00	0	44	0	1695547392	16	4185
2026-01-19 11:12:47.19	325.76	21.94	-27.9	-29.5	15.3	0.00e+00	0	44	0	1704984576	16	4296
2026-01-19 11:12:50.20	326.11	21.56	-28.1	-29.8	15.1	0.00e+00	0	44	0	1713373184	16	4384
2026-01-19 11:12:53.20	326.46	21.19	-28.3	-30.2	14.9	0.00e+00	0	44	0	1722810368	16	4504
2026-01-19 11:12:56.19	326.79	20.83	-28.7	-30.7	14.3	7.00e-07	0	44	0	1732247552	17	4531
2026-01-19 11:12:59.20	327.12	20.47	-28.2	-29.5	15.0	0.00e+00	0	44	0	1741684736	17	4202
2026-01-19 11:13:02.21	327.45	20.11	-28.1	-29.3	15.1	0.00e+00	0	44	0	1751121920	17	4146
2026-01-19 11:13:05.22	327.76	19.75	-28.1	-29.3	15.1	0.00e+00	0	44	0	1760559104	17	4149
2026-01-19 11:13:08.22	328.07	19.40	-27.8	-28.8	15.3	0.00e+00	0	44	0	1769996288	17	4010
2026-01-19 11:13:11.24	328.37	19.06	-27.9	-28.9	15.3	0.00e+00	0	44	0	1779433472	17	4030
2026-01-19 11:13:14.25	328.67	18.71	-27.8	-28.8	15.3	0.00e+00	0	44	0	1788870656	17	4013
2026-01-19 11:13:17.27	328.96	18.38	-27.8	-28.7	15.3	0.00e+00	0	44	0	1798307840	17	4002
2026-01-19 11:13:20.27	329.24	18.04	-27.7	-29.0	15.5	0.00e+00	0	44	0	1807745024	16	4181
2026-01-19 11:13:23.28	329.52	17.71	-27.8	-29.1	15.4	0.00e+00	0	44	0	1817182208	16	4206
2026-01-19 11:13:26.29	329.79	17.39	-27.9	-29.4	15.2	0.00e+00	0	44	0	1826619392	16	4291
2026-01-19 11:13:29.30	330.05	17.06	-28.0	-29.6	15.1	0.00e+00	0	44	0	1836056576	16	4331
2026-01-19 11:13:32.31	330.31	16.75	-28.1	-29.9	14.9	0.00e+00	0	44	0	1845493760	16	4424
2026-01-19 11:13:35.31	330.57	16.43	-28.4	-30.7	14.4	0.00e+00	0	44	0	1854930944	16	4655
2026-01-19 11:13:38.32	330.82	16.12	-28.8	-31.1	13.9	4.50e-06	0	44	0	1864368128	17	4690
2026-01-19 11:13:41.32	331.06	15.81	-29.2	-31.4	13.4	1.90e-05	0	44	0	1873805312	18	4677
2026-01-19 11:13:44.33	331.31	15.51	-29.1	-31.2	13.5	8.30e-06	0	44	0	1883242496	18	4593
2026-01-19 11:13:47.34	331.54	15.21	-28.9	-30.8	13.7	5.30e-06	0	44	0	1892679680	18	4486
2026-01-19 11:13:50.35	331.77	14.91	-28.8	-30.5	13.9	2.20e-06	0	44	0	1902116864	18	4385
2026-01-19 11:13:53.35	332.00	14.61	-28.9	-30.9	13.6	5.30e-06	0	44	0	1911554048	18	4521
2026-01-19 11:13:56.36	332.22	14.32	-28.8	-30.5	13.9	7.60e-06	0	44	0	1920991232	18	4394
2026-01-19 11:13:59.37	332.44	14.03	-28.8	-30.5	13.9	5.30e-06	0	44	0	1930428416	18	4390
2026-01-19 11:14:02.38	332.66	13.75	-28.6	-30.1	14.0	2.20e-06	0	44	0	1939865600	18	4287
2026-01-19 11:14:05.38	332.87	13.47	-28.6	-30.2	14.0	2.20e-06	0	44	0	1949302784	18	4295
2026-01-19 11:14:08.40	333.08	13.19	-28.7	-30.3	13.9	6.10e-06	0	44	0	1958739968	18	4347
2026-01-19 11:14:11.40	333.28	12.91	-28.7	-30.4	13.8	4.50e-06	0	44	0	1967128576	18	4368
2026-01-19 11:14:14.41	333.48	12.64	-28.8	-30.5	13.8	8.30e-06	0	44	0	1976565760	18	4385
2026-01-19 11:14:17.43	333.68	12.36	-29.0	-31.0	13.4	1.37e-05	0	44	0	1986002944	18	4561
2026-01-19 11:14:20.45	333.88	12.09	-28.9	-30.9	13.5	9.90e-06	0	44	0	1995440128	18	4513
2026-01-19 11:14:23.46	334.07	11.83	-29.0	-31.0	13.4	1.37e-05	0	44	0	2004877312	18	4565
2026-01-19 11:14:26.47	334.26	11.57	-29.1	-31.4	13.2	2.36e-05	0	44	0	2014314496	18	4679
2026-01-19 11:14:29.48	334.44	11.30	-29.1	-31.3	13.2	2.05e-05	0	44	0	2023751680	18	4658
2026-01-19 11:14:32.48	334.62	11.05	-29.0	-31.2	13.3	2.36e-05	0	44	0	2033188864	18	4619
2026-01-19 11:14:35.50	334.80	10.79	-29.0	-31.2	13.2	3.73e-05	0	44	0	2042626048	18	4618
2026-01-19 11:14:38.51	334.98	10.54	-29.1	-31.4	13.1	2.59e-05	0	44	0	2052063232	18	4681
2026-01-19 11:14:41.51	335.15	10.29	-29.2	-31.5	13.0	4.19e-05	0	44	0	2061500416	18	4725
2026-01-19 11:14:44.51	335.32	10.04	-29.2	-31.7	12.9	4.65e-05	0	44	0	2070937600	18	4772
2026-01-19 11:14:47.50	335.49	9.80	-29.3	-31.9	12.7	6.48e-05	0	44	0	2080374784	18	4860
2026-01-19 11:14:50.51	335.65	9.55	-29.3	-32.0	12.6	9.07e-05	0	44	0	2089811968	18	4896
2026-01-19 11:14:53.53	335.81	9.31	-29.4	-32.3	12.4	1.06e-04	0	44	0	2099249152	18	4993
2026-01-19 11:14:56.55	335.98	9.07	-29.5	-32.4	12.4	1.32e-04	0	44	0	2108686336	18	5029
2026-01-19 11:14:59.55	336.13	8.83	-29.6	-32.1	12.2	1.76e-04	0	44	0	2118123520	19	4822
2026-01-19 11:15:02.56	336.29	8.60	-29.3	-31.4	12.6	1.23e-04	0	44	0	2127560704	19	4590
2026-01-19 11:15:05.57	336.44	8.36	-29.5	-31.9	12.3	1.36e-04	0	44	0	2136997888	19	4750
2026-01-19 11:15:08.57	336.59	8.13	-29.6	-32.2	12.0	2.77e-04	0	44	0	2146435072	19	4852
2026-01-19 11:15:11.58	336.74	7.90	-29.5	-32.0	12.2	2.26e-04	0	44	0	2155872256	19	4783
2026-01-19 11:15:14.59	336.89	7.68	-29.7	-32.5	11.7	5.10e-04	0	44	0	2165309440	19	4984
2026-01-19 11:15:17.59	337.03	7.45	-29.8	-32.8	11.5	5.95e-04	0	44	0	2174746624	19	5095
2026-01-19 11:15:20.60	337.18	7.23	-29.8	-32.7	11.6	6.83e-04	0	43	0	2184183808	19	5062
2026-01-19 11:15:23.60	337.32	7.01	-33.8	-45.8	3.8	1.49e+00	0	44	104	2189426688	27	14447

#Closed at: 2026-01-19 11:15:26
#Recorded file [2189 MB]: D:/data/31010_260119_140341.dat