passes_logs/2026/01/19/R2M6_AANII_01/R2M6_AANII_01__20260119_111706_AQUA_rec.log

#Pass ID: 20260119_111706_AQUA
#Satellite: AQUA
#Configuration: AQUA
#almurnet v.1.7.20240730
#Start time: 2026-01-19 11:17:06

#Version: 2.2.20231116
#Station: R2M6_AANII_01
#Location: 30.233357 lon 59.946436 lat
#TLE: 1 27424U 02022A   26017.96925465  .00000866  00000+0  18326-3 0  9999
#TLE: 2 27424  98.4087 344.4465 0002004  74.6027 356.0068 14.61826972261327

#Time	Az	El	Level	Level2	SNR	BER	BlckErr	Temp	State	Recorded	gain1	gain2
2026-01-19 11:17:06.90	134.59	7.03	-32.2	-39.3	5.0	7.15e-01	0	43	0	0	26	8120
2026-01-19 11:17:09.91	134.44	7.27	-32.0	-37.8	13.2	6.09e-01	0	43	0	1572864	26	7031
2026-01-19 11:17:12.91	134.29	7.51	-31.8	-37.7	13.5	6.10e-01	0	43	0	7340032	25	7132
2026-01-19 11:17:15.92	134.13	7.76	-31.0	-35.3	15.8	6.08e-01	0	43	0	13107200	24	5874
2026-01-19 11:17:18.92	133.97	8.00	-30.6	-34.1	17.1	6.06e-01	0	43	0	18350080	23	5412
2026-01-19 11:17:21.94	133.81	8.25	-30.5	-34.0	17.2	6.07e-01	0	43	0	24117248	23	5367
2026-01-19 11:17:24.93	133.65	8.50	-30.5	-33.8	17.3	6.07e-01	0	43	0	29884416	23	5274
2026-01-19 11:17:27.95	133.48	8.76	-30.5	-33.6	17.5	6.06e-01	0	43	0	35651584	23	5178
2026-01-19 11:17:30.95	133.31	9.01	-30.5	-33.7	17.5	6.08e-01	0	43	0	40894464	23	5210
2026-01-19 11:17:33.96	133.13	9.27	-30.5	-33.7	17.6	6.06e-01	0	43	0	46661632	23	5189
2026-01-19 11:17:36.97	132.95	9.53	-30.5	-33.5	17.8	6.05e-01	0	43	0	52428800	23	5085
2026-01-19 11:17:39.98	132.77	9.80	-30.4	-33.2	18.0	6.06e-01	0	43	0	58195968	23	4959
2026-01-19 11:17:42.98	132.59	10.07	-30.5	-33.9	17.9	6.06e-01	0	43	0	63438848	22	5321
2026-01-19 11:17:45.99	132.40	10.34	-30.5	-34.0	17.8	6.06e-01	0	43	0	69206016	22	5395
2026-01-19 11:17:49.00	132.20	10.61	-30.2	-33.3	18.2	6.07e-01	0	43	0	74973184	22	5149
2026-01-19 11:17:52.01	132.00	10.89	-30.2	-33.2	18.3	6.07e-01	0	43	0	80740352	22	5120
2026-01-19 11:17:55.01	131.80	11.17	-30.3	-33.4	18.2	6.06e-01	0	43	0	86507520	22	5169
2026-01-19 11:17:58.03	131.59	11.45	-30.3	-33.5	18.2	6.09e-01	0	43	0	91750400	22	5189
2026-01-19 11:18:01.04	131.38	11.74	-30.4	-33.4	18.3	6.08e-01	0	44	0	97517568	22	5137
2026-01-19 11:18:04.04	131.17	12.03	-30.4	-33.6	18.3	6.05e-01	0	44	0	103284736	22	5183
2026-01-19 11:18:07.06	130.95	12.33	-30.3	-33.4	18.4	6.06e-01	0	43	0	109051904	22	5135
2026-01-19 11:18:10.06	130.72	12.62	-30.3	-33.3	18.4	6.08e-01	0	43	0	114294784	22	5094
2026-01-19 11:18:13.07	130.49	12.92	-30.0	-32.7	18.8	6.06e-01	0	44	0	120061952	22	4887
2026-01-19 11:18:16.08	130.25	13.23	-30.0	-32.7	18.8	6.08e-01	0	43	0	125829120	22	4889
2026-01-19 11:18:19.10	130.01	13.54	-30.2	-33.2	18.5	6.07e-01	0	44	0	131596288	22	5058
2026-01-19 11:18:22.11	129.76	13.85	-30.1	-32.7	18.8	6.07e-01	0	44	0	136839168	22	4873
2026-01-19 11:18:25.11	129.51	14.17	-30.2	-32.8	18.9	6.06e-01	0	43	0	142606336	22	4890
2026-01-19 11:18:28.12	129.25	14.49	-30.1	-32.7	19.1	6.07e-01	0	43	0	148373504	22	4838
2026-01-19 11:18:31.13	128.98	14.81	-30.0	-32.5	19.2	6.06e-01	0	44	0	154140672	22	4789
2026-01-19 11:18:34.14	128.71	15.14	-29.8	-32.7	19.3	6.08e-01	0	44	0	159383552	21	5002
2026-01-19 11:18:37.16	128.43	15.48	-29.7	-32.5	19.3	6.07e-01	0	44	0	165150720	21	5001
2026-01-19 11:18:40.16	128.15	15.82	-29.6	-32.4	19.4	6.05e-01	0	44	0	170917888	21	4947
2026-01-19 11:18:43.17	127.85	16.16	-29.7	-32.4	19.5	6.05e-01	0	44	0	176685056	21	4915
2026-01-19 11:18:46.18	127.55	16.51	-29.9	-32.7	19.5	6.06e-01	0	44	0	181927936	21	4972
2026-01-19 11:18:49.18	127.24	16.86	-30.2	-33.4	19.1	6.06e-01	0	44	0	187695104	21	5165
2026-01-19 11:18:52.19	126.93	17.21	-30.1	-32.9	19.4	6.07e-01	0	44	0	193462272	21	5017
2026-01-19 11:18:55.20	126.60	17.57	-30.0	-32.8	19.4	6.06e-01	0	44	0	199229440	21	4984
2026-01-19 11:18:58.20	126.27	17.94	-30.0	-32.9	19.4	6.06e-01	0	44	0	204472320	21	5017
2026-01-19 11:19:01.21	125.93	18.31	-30.1	-33.0	19.4	6.05e-01	0	44	0	210239488	21	5072
2026-01-19 11:19:04.22	125.58	18.69	-30.2	-33.2	19.3	6.05e-01	0	44	0	216006656	21	5120
2026-01-19 11:19:07.22	125.22	19.07	-30.3	-33.4	19.3	6.06e-01	0	44	0	221773824	21	5153
2026-01-19 11:19:10.21	124.85	19.45	-30.3	-33.5	19.2	6.04e-01	0	44	0	227016704	21	5207
2026-01-19 11:19:13.19	124.47	19.84	-30.2	-33.1	19.5	6.05e-01	0	44	0	232783872	21	5042
2026-01-19 11:19:16.18	124.08	20.24	-30.1	-33.0	19.5	6.06e-01	0	44	0	238551040	21	5018
2026-01-19 11:19:19.19	123.68	20.64	-30.2	-33.2	19.4	6.06e-01	0	44	0	243793920	21	5087
2026-01-19 11:19:22.20	123.27	21.05	-30.1	-33.0	19.6	6.08e-01	0	44	0	249561088	21	4986
2026-01-19 11:19:25.21	122.84	21.47	-30.2	-33.2	19.5	6.07e-01	0	44	0	255328256	21	5055
2026-01-19 11:19:28.21	122.40	21.89	-30.5	-33.9	19.1	6.05e-01	0	44	0	261095424	21	5335
2026-01-19 11:19:31.21	121.95	22.31	-30.5	-33.8	19.2	6.06e-01	0	44	0	266862592	21	5276
2026-01-19 11:19:34.23	121.49	22.75	-30.4	-33.7	19.2	6.05e-01	0	44	0	272105472	21	5252
2026-01-19 11:19:37.24	121.01	23.19	-30.5	-34.0	19.0	6.04e-01	0	44	0	277872640	21	5357
2026-01-19 11:19:40.24	120.51	23.63	-30.3	-33.3	19.5	6.06e-01	0	44	0	283639808	21	5079
2026-01-19 11:19:43.25	120.01	24.08	-30.5	-33.8	19.2	6.10e-01	0	44	0	289406976	21	5276
2026-01-19 11:19:46.25	119.48	24.54	-30.8	-34.1	18.7	6.05e-01	0	44	0	294649856	22	5276
2026-01-19 11:19:49.25	118.94	25.00	-30.4	-33.0	19.4	6.08e-01	0	44	0	300417024	22	4878
2026-01-19 11:19:52.26	118.38	25.47	-30.4	-33.1	19.4	6.06e-01	0	44	0	306184192	22	4904
2026-01-19 11:19:55.27	117.81	25.95	-30.3	-32.8	19.5	6.05e-01	0	44	0	311951360	22	4802
2026-01-19 11:19:58.28	117.21	26.43	-30.2	-32.5	19.8	6.06e-01	0	44	0	317194240	22	4702
2026-01-19 11:20:01.29	116.60	26.92	-30.3	-32.9	19.5	6.06e-01	0	44	0	322961408	22	4837
2026-01-19 11:20:04.30	115.97	27.41	-30.3	-32.8	19.7	6.10e-01	0	44	0	328728576	22	4788
2026-01-19 11:20:07.30	115.31	27.91	-30.2	-32.5	19.8	6.07e-01	0	44	0	334495744	22	4695
2026-01-19 11:20:10.31	114.64	28.41	-30.1	-32.2	20.0	6.07e-01	0	44	0	339738624	22	4592
2026-01-19 11:20:13.32	113.94	28.92	-30.0	-31.9	20.2	6.07e-01	0	44	0	345505792	22	4511
2026-01-19 11:20:16.32	113.21	29.44	-30.2	-32.5	19.9	6.09e-01	0	44	0	351272960	22	4680
2026-01-19 11:20:19.33	112.47	29.96	-29.9	-31.8	20.3	6.07e-01	0	44	0	357040128	22	4458
2026-01-19 11:20:22.34	111.69	30.48	-29.9	-32.1	20.5	6.06e-01	0	44	0	362283008	21	4651
2026-01-19 11:20:25.34	110.89	31.01	-30.0	-32.4	20.3	6.08e-01	0	44	0	368050176	21	4750
2026-01-19 11:20:28.36	110.06	31.55	-29.8	-32.0	20.5	6.07e-01	0	44	0	373817344	21	4625
2026-01-19 11:20:31.37	109.21	32.08	-29.9	-32.2	20.4	6.06e-01	0	44	0	379584512	21	4701
2026-01-19 11:20:34.38	108.32	32.62	-30.0	-32.5	20.2	6.08e-01	0	44	0	384827392	21	4801
2026-01-19 11:20:37.38	107.40	33.16	-29.9	-32.2	20.5	6.07e-01	0	44	0	390594560	21	4670
2026-01-19 11:20:40.39	106.45	33.71	-30.2	-33.0	20.0	6.06e-01	0	44	0	396361728	21	4933
2026-01-19 11:20:43.39	105.47	34.25	-30.3	-33.2	19.9	6.09e-01	0	44	0	402128896	21	5002
2026-01-19 11:20:46.40	104.46	34.80	-30.4	-33.5	19.8	6.03e-01	0	44	0	407371776	21	5106
2026-01-19 11:20:49.40	103.40	35.34	-30.7	-33.8	19.3	6.05e-01	0	44	0	413138944	22	5093
2026-01-19 11:20:52.42	102.31	35.89	-30.7	-33.7	19.3	6.07e-01	0	44	0	418906112	22	5075
2026-01-19 11:20:55.43	101.18	36.43	-31.2	-34.4	18.6	6.05e-01	0	44	0	424673280	23	5234
2026-01-19 11:20:58.45	100.01	36.97	-30.9	-33.6	19.1	6.07e-01	0	44	0	429916160	23	4926
2026-01-19 11:21:01.46	98.80	37.51	-31.2	-34.6	18.5	6.07e-01	0	44	0	435683328	23	5282
2026-01-19 11:21:04.47	97.55	38.04	-31.5	-34.8	18.1	6.06e-01	0	44	0	441450496	24	5266
2026-01-19 11:21:07.49	96.26	38.56	-31.4	-34.4	18.4	6.07e-01	0	44	0	447217664	24	5112
2026-01-19 11:21:10.49	94.93	39.07	-31.4	-34.6	18.3	6.05e-01	0	44	0	452984832	24	5168
2026-01-19 11:21:13.50	93.55	39.57	-31.5	-34.7	18.2	6.05e-01	0	44	0	458227712	24	5211
2026-01-19 11:21:16.51	92.13	40.06	-31.5	-34.7	18.3	6.06e-01	0	44	0	463994880	24	5200
2026-01-19 11:21:19.52	90.66	40.54	-31.3	-34.2	18.5	6.07e-01	0	44	0	469762048	24	5009
2026-01-19 11:21:22.52	89.16	41.00	-31.1	-33.7	18.8	6.05e-01	0	44	0	475529216	24	4855
2026-01-19 11:21:25.53	87.61	41.45	-31.2	-33.8	18.8	6.05e-01	0	44	0	480772096	24	4882
2026-01-19 11:21:28.54	86.01	41.88	-31.1	-33.6	18.9	6.07e-01	0	44	0	486539264	24	4803
2026-01-19 11:21:31.54	84.38	42.28	-31.2	-33.9	18.7	6.06e-01	0	44	0	492306432	24	4905
2026-01-19 11:21:34.54	82.70	42.66	-31.0	-33.9	19.1	6.05e-01	0	44	0	498073600	23	5014
2026-01-19 11:21:37.55	80.98	43.03	-30.9	-33.5	19.3	6.07e-01	0	44	0	503316480	23	4888
2026-01-19 11:21:40.56	79.23	43.36	-31.0	-33.8	19.1	6.09e-01	0	44	0	509083648	23	4993
2026-01-19 11:21:43.57	77.43	43.67	-31.0	-33.9	19.0	6.06e-01	0	44	0	514850816	23	5024
2026-01-19 11:21:46.58	75.60	43.95	-30.9	-33.6	19.2	6.05e-01	0	44	0	520617984	23	4917
2026-01-19 11:21:49.59	73.75	44.19	-30.7	-33.1	19.6	6.05e-01	0	44	0	525860864	23	4730
2026-01-19 11:21:52.59	71.87	44.41	-30.7	-33.0	19.6	6.08e-01	0	44	0	531628032	23	4716
2026-01-19 11:21:55.59	69.96	44.59	-30.7	-33.1	19.6	6.05e-01	0	44	0	537395200	23	4726
2026-01-19 11:21:58.60	68.03	44.73	-30.8	-33.3	19.4	6.04e-01	0	44	0	543162368	23	4795
2026-01-19 11:22:01.61	66.09	44.84	-30.9	-33.6	19.2	6.06e-01	0	44	0	548405248	23	4925
2026-01-19 11:22:04.61	64.14	44.92	-30.9	-33.7	19.2	6.08e-01	0	44	0	554172416	23	4947
2026-01-19 11:22:07.63	62.17	44.96	-30.9	-33.5	19.3	6.07e-01	0	44	0	559939584	23	4881
2026-01-19 11:22:10.65	60.20	44.96	-30.5	-32.5	20.0	6.05e-01	0	44	0	565706752	23	4535
2026-01-19 11:22:13.65	58.24	44.92	-30.3	-32.6	20.1	6.04e-01	0	44	0	571473920	22	4686
2026-01-19 11:22:16.66	56.28	44.85	-30.5	-33.1	19.9	6.05e-01	0	44	0	576716800	22	4837
2026-01-19 11:22:19.67	54.34	44.74	-30.5	-33.1	19.9	6.06e-01	0	44	0	582483968	22	4851
2026-01-19 11:22:22.69	52.40	44.60	-30.8	-33.8	19.5	6.04e-01	0	44	0	588251136	22	5071
2026-01-19 11:22:25.69	50.50	44.42	-30.4	-32.9	20.0	6.06e-01	0	44	0	593494016	22	4783
2026-01-19 11:22:28.70	48.61	44.21	-30.3	-32.5	20.3	6.06e-01	0	44	0	599261184	22	4636
2026-01-19 11:22:31.70	46.76	43.96	-30.4	-32.9	20.0	6.05e-01	0	44	0	605028352	22	4777
2026-01-19 11:22:34.70	44.94	43.69	-30.6	-33.2	19.8	6.06e-01	0	44	0	610795520	22	4893
2026-01-19 11:22:37.71	43.15	43.38	-30.5	-33.1	19.9	6.07e-01	0	44	0	616562688	22	4827
2026-01-19 11:22:40.73	41.38	43.05	-30.6	-33.3	19.7	6.10e-01	0	44	0	621805568	22	4915
2026-01-19 11:22:43.74	39.66	42.69	-30.4	-32.9	20.0	6.05e-01	0	44	0	627572736	22	4787
2026-01-19 11:22:46.75	37.99	42.31	-30.5	-33.1	19.9	6.06e-01	0	44	0	633339904	22	4856
2026-01-19 11:22:49.76	36.35	41.90	-30.6	-33.3	19.8	6.07e-01	0	44	0	639107072	22	4904
2026-01-19 11:22:52.77	34.75	41.48	-30.8	-34.0	19.3	6.07e-01	0	44	0	644349952	22	5163
2026-01-19 11:22:55.78	33.20	41.03	-30.7	-33.7	19.5	6.06e-01	0	44	0	650117120	22	5057
2026-01-19 11:22:58.78	31.70	40.58	-31.0	-34.5	19.0	6.05e-01	0	44	0	655884288	22	5373
2026-01-19 11:23:01.80	30.23	40.10	-30.7	-33.7	19.5	6.05e-01	0	44	0	661651456	22	5055
2026-01-19 11:23:04.81	28.81	39.61	-31.0	-33.8	19.1	6.04e-01	0	44	0	666894336	23	4989
2026-01-19 11:23:07.81	27.44	39.11	-30.8	-33.4	19.3	6.05e-01	0	44	0	672661504	23	4861
2026-01-19 11:23:10.81	26.11	38.60	-30.9	-33.6	19.2	6.09e-01	0	44	0	678428672	23	4919
2026-01-19 11:23:13.82	24.82	38.08	-30.9	-33.7	19.1	6.06e-01	0	44	0	684195840	23	4954
2026-01-19 11:23:16.83	23.58	37.56	-30.9	-33.7	19.1	6.08e-01	0	44	0	689438720	23	4935
2026-01-19 11:23:19.83	22.37	37.03	-31.4	-35.0	18.3	6.05e-01	0	44	0	695205888	23	5430
2026-01-19 11:23:22.83	21.21	36.49	-31.6	-35.5	18.0	6.06e-01	0	44	0	700973056	23	5639
2026-01-19 11:23:25.84	20.08	35.95	-31.5	-34.7	18.1	6.07e-01	0	44	0	706740224	24	5229
2026-01-19 11:23:28.86	18.99	35.41	-31.6	-35.0	18.0	6.05e-01	0	44	0	711983104	24	5323
2026-01-19 11:23:31.87	17.94	34.87	-31.2	-33.9	18.7	6.05e-01	0	44	0	717750272	24	4906
2026-01-19 11:23:34.87	16.92	34.32	-30.7	-33.2	19.3	6.07e-01	0	44	0	723517440	23	4798
2026-01-19 11:23:37.88	15.94	33.78	-31.5	-35.4	17.9	6.04e-01	0	44	0	729284608	23	5612
2026-01-19 11:23:40.89	14.99	33.24	-30.8	-33.3	19.2	6.07e-01	0	44	0	734527488	23	4841
2026-01-19 11:23:43.89	14.08	32.70	-30.7	-33.3	19.3	6.06e-01	0	44	0	740294656	23	4807
2026-01-19 11:23:46.91	13.19	32.16	-30.1	-32.0	20.3	6.07e-01	0	44	0	746061824	22	4516
2026-01-19 11:23:49.93	12.33	31.62	-30.2	-32.4	20.0	6.06e-01	0	44	0	751828992	22	4634
2026-01-19 11:23:52.94	11.50	31.09	-30.2	-32.8	20.1	6.05e-01	0	44	0	757596160	21	4894
2026-01-19 11:23:55.95	10.70	30.56	-29.9	-32.2	20.4	6.06e-01	0	44	0	762839040	21	4678
2026-01-19 11:23:58.96	9.93	30.04	-30.1	-32.6	20.2	6.05e-01	0	44	0	768606208	21	4813
2026-01-19 11:24:01.96	9.19	29.52	-30.2	-33.0	19.9	6.02e-01	0	44	0	774373376	21	4947
2026-01-19 11:24:04.97	8.47	29.01	-29.8	-32.0	20.5	6.04e-01	0	44	0	780140544	21	4613
2026-01-19 11:24:07.99	7.76	28.50	-30.5	-33.6	19.5	6.03e-01	0	44	0	785383424	21	5176
2026-01-19 11:24:10.99	7.09	28.00	-30.0	-32.4	20.3	6.02e-01	0	44	0	791150592	21	4749
2026-01-19 11:24:13.99	6.44	27.50	-30.2	-32.9	19.9	6.01e-01	0	44	0	796917760	21	4923
2026-01-19 11:24:17.00	5.81	27.01	-30.2	-33.1	19.8	6.02e-01	0	44	0	802684928	21	4988
2026-01-19 11:24:20.01	5.19	26.53	-30.0	-32.5	20.0	6.01e-01	0	44	0	807927808	21	4802
2026-01-19 11:24:23.03	4.60	26.04	-30.4	-33.4	19.6	6.03e-01	0	44	0	813694976	21	5106
2026-01-19 11:24:26.03	4.03	25.57	-30.3	-32.6	19.8	6.02e-01	0	44	0	819462144	22	4720
2026-01-19 11:24:29.02	3.47	25.11	-30.2	-32.5	19.8	6.05e-01	0	44	0	825229312	22	4682
2026-01-19 11:24:32.03	2.93	24.65	-30.7	-33.9	18.9	6.02e-01	0	44	0	830472192	22	5190
2026-01-19 11:24:35.04	2.41	24.19	-30.3	-32.8	19.6	6.03e-01	0	44	0	836239360	22	4778
2026-01-19 11:24:38.05	1.90	23.74	-30.5	-33.2	19.4	6.02e-01	0	44	0	842006528	22	4943
2026-01-19 11:24:41.06	1.41	23.30	-30.6	-33.6	19.1	6.01e-01	0	44	0	847773696	22	5061
2026-01-19 11:24:44.07	0.93	22.86	-30.5	-33.2	19.3	6.01e-01	0	44	0	853016576	22	4942
2026-01-19 11:24:47.08	0.47	22.43	-30.7	-33.8	18.9	6.01e-01	0	44	0	858783744	22	5153
2026-01-19 11:24:50.08	0.02	22.00	-30.6	-33.6	19.1	6.05e-01	0	44	0	864550912	22	5078
2026-01-19 11:24:53.10	359.58	21.58	-30.6	-33.5	19.1	6.02e-01	0	44	0	870318080	22	5027
2026-01-19 11:24:56.11	359.16	21.17	-30.5	-33.2	19.2	6.05e-01	0	44	0	876085248	22	4949
2026-01-19 11:24:59.12	358.74	20.76	-30.5	-33.4	19.1	6.03e-01	0	44	0	881328128	22	5007
2026-01-19 11:25:02.13	358.34	20.36	-30.3	-32.9	19.4	6.04e-01	0	44	0	887095296	22	4833
2026-01-19 11:25:05.15	357.95	19.96	-30.5	-33.3	19.2	6.04e-01	0	44	0	892862464	22	4966
2026-01-19 11:25:08.16	357.57	19.57	-30.8	-34.1	18.7	6.03e-01	0	44	0	898629632	22	5267
2026-01-19 11:25:11.17	357.20	19.18	-30.5	-33.2	19.1	6.02e-01	0	44	0	903872512	22	4965
2026-01-19 11:25:14.17	356.85	18.80	-30.3	-32.9	19.4	6.04e-01	0	44	0	909639680	22	4835
2026-01-19 11:25:17.18	356.50	18.42	-30.3	-32.9	19.3	6.01e-01	0	44	0	915406848	22	4853
2026-01-19 11:25:20.20	356.15	18.05	-30.3	-33.0	19.2	6.04e-01	0	44	0	921174016	22	4875
2026-01-19 11:25:23.21	355.82	17.69	-30.3	-33.0	19.2	6.02e-01	0	44	0	926416896	22	4879
2026-01-19 11:25:26.21	355.50	17.33	-30.4	-33.1	19.2	6.02e-01	0	44	0	932184064	22	4916
2026-01-19 11:25:29.22	355.19	16.97	-30.5	-33.5	18.9	6.02e-01	0	44	0	937951232	22	5063
2026-01-19 11:25:32.23	354.88	16.62	-30.3	-33.0	19.1	6.03e-01	0	44	0	943718400	22	4910
2026-01-19 11:25:35.24	354.58	16.28	-30.5	-33.4	18.9	6.04e-01	0	44	0	948961280	22	5024
2026-01-19 11:25:38.25	354.29	15.93	-30.3	-32.9	19.2	6.03e-01	0	44	0	954728448	22	4879
2026-01-19 11:25:41.26	354.01	15.60	-30.3	-33.0	19.1	6.01e-01	0	43	0	960495616	22	4917
2026-01-19 11:25:44.27	353.73	15.26	-30.3	-32.9	19.1	6.04e-01	0	44	0	966262784	22	4868
2026-01-19 11:25:47.28	353.46	14.94	-30.3	-33.1	19.0	6.02e-01	0	44	0	971505664	22	4924
2026-01-19 11:25:50.28	353.20	14.61	-30.3	-33.1	19.0	6.04e-01	0	44	0	977272832	22	4943
2026-01-19 11:25:53.29	352.94	14.29	-30.5	-33.6	18.6	6.01e-01	0	44	0	983040000	22	5142
2026-01-19 11:25:56.29	352.69	13.98	-30.6	-33.7	18.6	6.01e-01	0	44	0	988807168	22	5158
2026-01-19 11:25:59.31	352.44	13.67	-30.6	-33.9	18.4	6.05e-01	0	44	0	994574336	22	5245
2026-01-19 11:26:02.32	352.20	13.36	-30.5	-33.5	18.7	6.02e-01	0	44	0	999817216	22	5087
2026-01-19 11:26:05.32	351.97	13.06	-30.4	-33.3	18.7	6.05e-01	0	44	0	1005584384	22	5042
2026-01-19 11:26:08.33	351.74	12.75	-30.5	-33.5	18.6	6.01e-01	0	44	0	1011351552	22	5111
2026-01-19 11:26:11.34	351.52	12.46	-30.6	-33.7	18.5	6.02e-01	0	44	0	1016594432	22	5193
2026-01-19 11:26:14.35	351.30	12.16	-30.7	-34.2	18.2	6.02e-01	0	44	0	1022361600	22	5375
2026-01-19 11:26:17.35	351.08	11.88	-30.5	-33.6	18.5	6.03e-01	0	44	0	1028128768	22	5133
2026-01-19 11:26:20.37	350.87	11.59	-30.7	-34.2	18.1	6.01e-01	0	44	0	1033895936	22	5370
2026-01-19 11:26:23.38	350.67	11.31	-30.5	-33.6	18.5	6.03e-01	0	44	0	1039663104	22	5144
2026-01-19 11:26:26.39	350.47	11.03	-30.6	-33.9	18.3	6.03e-01	0	44	0	1044905984	22	5267
2026-01-19 11:26:29.41	350.27	10.75	-30.8	-34.5	17.9	6.04e-01	0	44	0	1050673152	22	5508
2026-01-19 11:26:32.41	350.08	10.47	-30.8	-34.5	17.8	6.05e-01	0	44	0	1056440320	22	5526
2026-01-19 11:26:35.42	349.89	10.20	-30.6	-33.9	18.1	6.03e-01	0	44	0	1062207488	22	5290
2026-01-19 11:26:38.43	349.71	9.94	-30.7	-34.3	17.9	6.03e-01	0	44	0	1067450368	22	5423
2026-01-19 11:26:41.44	349.53	9.67	-30.7	-34.3	17.8	6.01e-01	0	44	0	1073217536	22	5442
2026-01-19 11:26:44.44	349.35	9.41	-30.7	-34.2	17.9	6.03e-01	0	44	0	1078984704	22	5402
2026-01-19 11:26:47.45	349.18	9.15	-30.7	-34.4	17.7	6.04e-01	0	44	0	1084751872	22	5503
2026-01-19 11:26:50.46	349.01	8.90	-30.7	-34.3	17.7	6.04e-01	0	44	0	1089994752	22	5464
2026-01-19 11:26:53.47	348.85	8.64	-30.8	-34.5	17.6	6.06e-01	0	44	0	1095761920	22	5560
2026-01-19 11:26:56.48	348.68	8.39	-30.7	-34.4	17.7	6.04e-01	0	44	0	1101529088	22	5495
2026-01-19 11:26:59.48	348.53	8.14	-30.9	-34.8	17.4	6.02e-01	0	44	0	1107296256	22	5696
2026-01-19 11:27:02.49	348.37	7.90	-30.9	-35.1	17.1	6.04e-01	0	44	0	1112539136	22	5811
2026-01-19 11:27:05.50	348.22	7.65	-30.8	-34.2	17.4	6.02e-01	0	44	0	1118306304	23	5316
2026-01-19 11:27:08.51	348.07	7.41	-30.9	-34.5	17.1	6.04e-01	0	44	0	1124073472	23	5475
2026-01-19 11:27:11.52	347.92	7.17	-30.9	-34.6	17.1	6.02e-01	0	44	0	1129840640	23	5499

#Closed at: 2026-01-19 11:27:14
#Recorded file [1131 MB]: D:/data/31010_260119_141708.dat