passes_logs/2026/01/19/R2M6_AANII_01/R2M6_AANII_01__20260119_141342_FENGYUN_3D_rec.log

#Pass ID: 20260119_141342_FENGYUN 3D
#Satellite: FENGYUN 3D
#Configuration: FENGYUN 3D
#almurnet v.1.7.20240730
#Start time: 2026-01-19 14:13:42

#Version: 2.2.20231116
#Station: R2M6_AANII_01
#Location: 30.233357 lon 59.946436 lat
#TLE: 1 43010U 17072A   26018.95027258  .00000058  00000+0  49274-4 0  9992
#TLE: 2 43010  98.9939 350.8271 0002416 102.0826 258.0620 14.19696908423819

#Time	Az	El	Level	Level2	SNR	BER	BlckErr	Temp	State	Recorded	gain1	gain2
2026-01-19 14:13:42.08	221.97	6.99	-28.3	-30.2	5.7	7.52e-01	0	41	0	0	17	4501
2026-01-19 14:13:45.09	222.29	7.17	-30.2	-33.4	9.1	2.57e-02	0	41	102	1048576	21	5175
2026-01-19 14:13:48.10	222.63	7.34	-29.6	-32.2	10.3	5.49e-03	0	41	102	1048576	20	4811
2026-01-19 14:13:51.10	222.96	7.51	-28.4	-30.0	12.5	8.81e-05	0	41	102	1048576	18	4316
2026-01-19 14:13:54.11	223.30	7.69	-27.9	-29.8	13.2	8.00e-06	0	41	102	1048576	16	4457
2026-01-19 14:13:57.13	223.64	7.87	-27.7	-29.3	13.5	8.00e-06	0	41	102	1048576	16	4330
2026-01-19 14:14:00.14	223.99	8.04	-27.7	-29.3	13.5	4.50e-06	0	41	102	1048576	16	4318
2026-01-19 14:14:03.15	224.34	8.22	-27.4	-28.6	13.9	1.10e-06	0	41	102	1048576	16	4119
2026-01-19 14:14:06.15	224.70	8.40	-27.3	-28.3	14.2	1.10e-06	0	42	102	1048576	16	4046
2026-01-19 14:14:09.16	225.06	8.57	-27.5	-29.2	13.8	3.40e-06	0	42	102	1048576	15	4417
2026-01-19 14:14:12.17	225.42	8.75	-26.9	-28.0	14.5	0.00e+00	0	42	102	1048576	15	4061
2026-01-19 14:14:15.17	225.79	8.93	-26.8	-27.7	14.7	0.00e+00	0	42	102	1048576	15	4003
2026-01-19 14:14:18.19	226.16	9.11	-26.8	-27.8	14.7	0.00e+00	0	42	102	1048576	15	4013
2026-01-19 14:14:21.20	226.54	9.28	-27.0	-28.6	14.5	0.00e+00	0	42	102	1048576	14	4341
2026-01-19 14:14:24.20	226.92	9.46	-27.1	-28.9	14.4	1.10e-06	0	42	102	1048576	14	4430
2026-01-19 14:14:27.22	227.31	9.64	-26.3	-27.0	15.4	0.00e+00	0	42	102	1048576	14	3918
2026-01-19 14:14:30.24	227.70	9.82	-26.5	-27.5	15.2	0.00e+00	0	42	102	1048576	14	4034
2026-01-19 14:14:33.25	228.10	10.00	-26.6	-27.6	15.1	0.00e+00	0	42	102	1048576	14	4076
2026-01-19 14:14:36.25	228.49	10.18	-26.6	-27.8	15.0	0.00e+00	0	43	102	1048576	14	4119
2026-01-19 14:14:39.25	228.90	10.36	-26.8	-28.3	14.8	0.00e+00	0	42	102	1048576	14	4253
2026-01-19 14:14:42.26	229.31	10.54	-26.8	-28.2	14.9	0.00e+00	0	42	102	1048576	14	4209
2026-01-19 14:14:45.28	229.72	10.72	-26.6	-27.7	15.2	0.00e+00	0	42	102	1048576	14	4080
2026-01-19 14:14:48.28	230.14	10.89	-26.5	-27.6	15.2	0.00e+00	0	42	102	1048576	14	4056
2026-01-19 14:14:51.30	230.57	11.07	-26.5	-27.5	15.2	0.00e+00	0	42	102	1048576	14	4042
2026-01-19 14:14:54.29	230.99	11.25	-26.5	-27.5	15.3	0.00e+00	0	42	102	1048576	14	4035
2026-01-19 14:14:57.31	231.43	11.43	-26.4	-27.2	15.5	0.00e+00	0	43	102	1048576	14	3962
2026-01-19 14:15:00.31	231.87	11.61	-26.2	-27.3	15.7	0.00e+00	0	43	102	1048576	13	4080
2026-01-19 14:15:03.32	232.31	11.79	-26.2	-27.4	15.6	0.00e+00	0	43	102	1048576	13	4103
2026-01-19 14:15:06.34	232.76	11.96	-26.1	-27.0	15.9	0.00e+00	0	43	102	1048576	13	4002
2026-01-19 14:15:09.34	233.22	12.14	-26.0	-26.8	16.0	0.00e+00	0	43	102	1048576	13	3952
2026-01-19 14:15:12.35	233.68	12.32	-26.1	-27.0	15.9	0.00e+00	0	43	102	1048576	13	4014
2026-01-19 14:15:15.36	234.15	12.50	-26.1	-27.1	15.8	0.00e+00	0	43	102	1048576	13	4041
2026-01-19 14:15:18.37	234.62	12.67	-25.9	-26.7	16.1	0.00e+00	0	43	102	1048576	13	3947
2026-01-19 14:15:21.39	235.10	12.85	-26.1	-27.1	15.8	0.00e+00	0	43	102	1048576	13	4046
2026-01-19 14:15:24.38	235.58	13.02	-26.2	-27.3	15.7	0.00e+00	0	43	102	1048576	13	4102
2026-01-19 14:15:27.40	236.07	13.20	-26.3	-27.6	15.6	0.00e+00	0	43	102	1048576	13	4179
2026-01-19 14:15:30.41	236.56	13.37	-26.1	-27.2	15.8	0.00e+00	0	43	102	1048576	13	4060
2026-01-19 14:15:33.42	237.06	13.55	-26.0	-26.9	16.0	0.00e+00	0	43	102	1048576	13	3987
2026-01-19 14:15:36.43	237.56	13.72	-25.6	-26.5	16.5	0.00e+00	0	43	102	1048576	12	3984
2026-01-19 14:15:39.45	238.08	13.89	-25.8	-26.9	16.3	0.00e+00	0	43	102	1048576	12	4099
2026-01-19 14:15:42.45	238.59	14.06	-25.9	-27.0	16.3	0.00e+00	0	43	102	1048576	12	4114
2026-01-19 14:15:45.46	239.12	14.23	-25.7	-26.7	16.4	0.00e+00	0	43	102	1048576	12	4038
2026-01-19 14:15:48.48	239.65	14.40	-25.8	-26.8	16.4	0.00e+00	0	43	102	1048576	12	4070
2026-01-19 14:15:51.49	240.18	14.57	-25.5	-26.3	16.7	0.00e+00	0	43	102	1048576	12	3927
2026-01-19 14:15:54.50	240.72	14.74	-25.4	-26.0	16.8	0.00e+00	0	43	102	1048576	12	3870
2026-01-19 14:15:57.51	241.27	14.90	-25.5	-26.2	16.8	0.00e+00	0	43	102	1048576	12	3916
2026-01-19 14:16:00.51	241.82	15.07	-25.5	-26.3	16.7	0.00e+00	0	43	102	1048576	12	3932
2026-01-19 14:16:03.52	242.37	15.23	-25.4	-26.1	16.8	0.00e+00	0	43	102	1048576	12	3894
2026-01-19 14:16:06.52	242.94	15.39	-25.4	-26.1	16.9	0.00e+00	0	43	102	1048576	12	3877
2026-01-19 14:16:09.53	243.50	15.55	-25.5	-26.6	16.9	0.00e+00	0	43	102	1048576	11	4123
2026-01-19 14:16:12.54	244.08	15.71	-25.2	-26.1	17.2	0.00e+00	0	43	102	1048576	11	3984
2026-01-19 14:16:15.55	244.66	15.86	-25.4	-26.5	17.0	0.00e+00	0	43	102	1048576	11	4098
2026-01-19 14:16:18.56	245.25	16.02	-25.7	-27.1	16.7	0.00e+00	0	43	102	1048576	11	4238
2026-01-19 14:16:21.57	245.84	16.17	-25.7	-27.1	16.7	0.00e+00	0	43	102	1048576	11	4242
2026-01-19 14:16:24.58	246.44	16.32	-25.4	-26.6	16.9	0.00e+00	0	43	102	1048576	11	4118
2026-01-19 14:16:27.59	247.05	16.47	-25.2	-26.1	17.2	0.00e+00	0	43	102	1048576	11	3989
2026-01-19 14:16:30.61	247.66	16.62	-25.4	-26.6	17.0	0.00e+00	0	43	102	1048576	11	4109
2026-01-19 14:16:33.61	248.27	16.76	-25.3	-26.4	17.1	0.00e+00	0	43	102	1048576	11	4056
2026-01-19 14:16:36.62	248.90	16.90	-25.2	-26.1	17.2	0.00e+00	0	43	102	1048576	11	3989
2026-01-19 14:16:39.63	249.52	17.04	-25.1	-25.9	17.4	0.00e+00	0	43	102	1048576	11	3929
2026-01-19 14:16:42.64	250.16	17.18	-25.1	-25.8	17.4	0.00e+00	0	43	102	1048576	11	3904
2026-01-19 14:16:45.66	250.80	17.31	-25.0	-25.7	17.5	0.00e+00	0	43	102	1048576	11	3886
2026-01-19 14:16:48.68	251.44	17.45	-25.0	-25.7	17.5	0.00e+00	0	43	102	1048576	11	3896
2026-01-19 14:16:51.70	252.10	17.57	-25.0	-25.5	17.6	0.00e+00	0	43	102	1048576	11	3848
2026-01-19 14:16:54.70	252.75	17.70	-24.9	-25.5	17.6	0.00e+00	0	43	102	1048576	11	3836
2026-01-19 14:16:57.71	253.41	17.82	-25.2	-26.1	17.3	0.00e+00	0	43	102	1048576	11	3983
2026-01-19 14:17:00.73	254.08	17.94	-25.0	-25.7	17.5	0.00e+00	0	43	102	1048576	11	3895
2026-01-19 14:17:03.74	254.75	18.06	-25.0	-25.6	17.6	0.00e+00	0	43	102	1048576	11	3855
2026-01-19 14:17:06.76	255.43	18.17	-25.2	-26.0	17.3	0.00e+00	0	43	102	1048576	11	3976
2026-01-19 14:17:09.78	256.11	18.28	-25.0	-25.7	17.5	1.10e-06	0	43	102	1048576	11	3891
2026-01-19 14:17:12.78	256.79	18.39	-25.1	-25.8	17.5	0.00e+00	0	43	102	1048576	11	3903
2026-01-19 14:17:15.80	257.48	18.49	-25.2	-26.1	17.4	0.00e+00	0	43	102	1048576	11	3977
2026-01-19 14:17:18.81	258.18	18.59	-24.8	-25.7	17.8	1.10e-06	0	43	102	1048576	10	3984
2026-01-19 14:17:21.81	258.87	18.69	-24.7	-25.6	17.9	1.10e-06	0	43	102	1048576	10	3965
2026-01-19 14:17:24.82	259.58	18.78	-24.8	-25.8	17.7	1.10e-06	0	43	102	1048576	10	4020
2026-01-19 14:17:27.84	260.28	18.86	-24.8	-25.8	17.8	0.00e+00	0	43	102	1048576	10	4012
2026-01-19 14:17:30.84	260.99	18.95	-24.7	-25.6	17.9	0.00e+00	0	43	102	1048576	10	3967
2026-01-19 14:17:33.85	261.71	19.03	-24.8	-25.7	17.9	0.00e+00	0	43	102	1048576	10	3979
2026-01-19 14:17:36.85	262.42	19.10	-24.9	-25.8	17.8	0.00e+00	0	43	102	1048576	10	4022
2026-01-19 14:17:39.87	263.15	19.17	-24.9	-25.9	17.7	0.00e+00	0	43	102	1048576	10	4050
2026-01-19 14:17:42.88	263.87	19.24	-24.7	-25.6	17.9	0.00e+00	0	43	102	1048576	10	3965
2026-01-19 14:17:45.89	264.60	19.30	-24.6	-25.3	18.0	0.00e+00	0	43	102	1048576	10	3898
2026-01-19 14:17:48.90	265.33	19.36	-24.7	-25.5	18.0	0.00e+00	0	44	102	1048576	10	3944
2026-01-19 14:17:51.91	266.06	19.42	-24.6	-25.4	18.1	0.00e+00	0	43	102	1048576	10	3912
2026-01-19 14:17:54.93	266.80	19.47	-24.7	-25.6	18.0	0.00e+00	0	43	102	1048576	10	3965
2026-01-19 14:17:57.94	267.53	19.51	-24.6	-25.4	18.1	0.00e+00	0	43	102	1048576	10	3907
2026-01-19 14:18:00.95	268.27	19.55	-24.9	-26.0	17.7	0.00e+00	0	43	102	1048576	10	4070
2026-01-19 14:18:03.96	269.01	19.59	-24.9	-25.9	17.8	0.00e+00	0	43	102	1048576	10	4037
2026-01-19 14:18:06.99	269.76	19.62	-24.9	-25.8	17.8	0.00e+00	0	43	102	1048576	10	4024
2026-01-19 14:18:10.00	270.50	19.64	-24.7	-25.4	18.1	0.00e+00	0	43	102	1048576	10	3915
2026-01-19 14:18:13.02	271.25	19.67	-24.5	-25.0	18.2	0.00e+00	0	43	102	1048576	10	3835
2026-01-19 14:18:16.02	272.00	19.68	-24.4	-24.9	18.3	0.00e+00	0	44	102	1048576	10	3800
2026-01-19 14:18:19.03	272.74	19.69	-24.7	-25.6	18.0	0.00e+00	0	43	102	1048576	10	3958
2026-01-19 14:18:22.04	273.49	19.70	-24.7	-25.6	18.0	0.00e+00	0	43	102	1048576	10	3964
2026-01-19 14:18:25.06	274.24	19.70	-25.0	-26.2	17.6	0.00e+00	0	43	102	1048576	10	4118
2026-01-19 14:18:28.07	274.98	19.70	-25.0	-26.2	17.6	0.00e+00	0	44	102	1048576	10	4128
2026-01-19 14:18:31.08	275.73	19.69	-24.9	-25.9	17.8	0.00e+00	0	43	102	1048576	10	4043
2026-01-19 14:18:34.09	276.48	19.68	-25.0	-26.2	17.7	0.00e+00	0	43	102	1048576	10	4103
2026-01-19 14:18:37.11	277.22	19.67	-24.8	-25.7	17.9	0.00e+00	0	43	102	1048576	10	3991
2026-01-19 14:18:40.12	277.97	19.64	-24.8	-25.8	17.9	0.00e+00	0	43	102	1048576	10	4007
2026-01-19 14:18:43.13	278.71	19.62	-24.8	-25.6	18.0	0.00e+00	0	43	102	1048576	10	3967
2026-01-19 14:18:46.14	279.45	19.59	-24.9	-25.9	17.8	0.00e+00	0	43	102	1048576	10	4032
2026-01-19 14:18:49.15	280.19	19.55	-24.8	-25.7	17.9	0.00e+00	0	43	102	1048576	10	4003
2026-01-19 14:18:52.15	280.93	19.51	-24.7	-25.4	18.1	0.00e+00	0	43	102	1048576	10	3928
2026-01-19 14:18:55.15	281.66	19.47	-24.5	-25.1	18.3	0.00e+00	0	43	102	1048576	10	3843
2026-01-19 14:18:58.18	282.40	19.42	-24.6	-25.3	18.1	0.00e+00	0	43	102	1048576	10	3896
2026-01-19 14:19:01.19	283.13	19.36	-24.9	-25.9	17.8	0.00e+00	0	44	102	1048576	10	4036
2026-01-19 14:19:04.19	283.86	19.31	-25.0	-26.0	17.7	0.00e+00	0	43	102	1048576	10	4079
2026-01-19 14:19:07.21	284.59	19.24	-25.1	-26.4	17.6	0.00e+00	0	43	102	1048576	10	4165
2026-01-19 14:19:10.22	285.31	19.18	-25.3	-26.8	17.3	0.00e+00	0	43	102	1048576	10	4276
2026-01-19 14:19:13.23	286.03	19.10	-25.4	-27.0	17.2	0.00e+00	0	43	102	1048576	10	4325
2026-01-19 14:19:16.25	286.75	19.03	-25.4	-26.9	17.3	0.00e+00	0	43	102	1048576	10	4285
2026-01-19 14:19:19.25	287.46	18.95	-25.1	-26.3	17.6	0.00e+00	0	44	102	1048576	10	4137
2026-01-19 14:19:22.26	288.17	18.87	-25.1	-26.4	17.5	0.00e+00	0	44	102	1048576	10	4174
2026-01-19 14:19:25.26	288.87	18.78	-25.0	-26.1	17.7	0.00e+00	0	43	102	1048576	10	4099
2026-01-19 14:19:28.28	289.57	18.69	-25.2	-26.5	17.5	0.00e+00	0	43	102	1048576	10	4198
2026-01-19 14:19:31.28	290.27	18.59	-25.1	-26.3	17.6	0.00e+00	0	44	102	1048576	10	4131
2026-01-19 14:19:34.30	290.96	18.49	-25.2	-26.5	17.5	0.00e+00	0	43	102	1048576	10	4179
2026-01-19 14:19:37.30	291.65	18.39	-25.3	-26.6	17.4	0.00e+00	0	43	102	1048576	10	4227
2026-01-19 14:19:40.31	292.33	18.29	-25.3	-26.8	17.4	0.00e+00	0	44	102	1048576	10	4259
2026-01-19 14:19:43.32	293.01	18.18	-25.1	-25.9	17.5	0.00e+00	0	43	102	1048576	11	3928
2026-01-19 14:19:46.33	293.68	18.07	-25.5	-26.7	17.1	0.00e+00	0	44	102	1048576	11	4140
2026-01-19 14:19:49.35	294.35	17.95	-25.3	-26.4	17.3	0.00e+00	0	44	102	1048576	11	4040
2026-01-19 14:19:52.36	295.02	17.83	-25.5	-26.8	17.1	0.00e+00	0	43	102	1048576	11	4147
2026-01-19 14:19:55.37	295.67	17.71	-25.4	-26.5	17.2	0.00e+00	0	44	102	1048576	11	4075
2026-01-19 14:19:58.38	296.33	17.58	-25.4	-26.4	17.3	0.00e+00	0	44	102	1048576	11	4055
2026-01-19 14:20:01.39	296.98	17.46	-25.7	-27.1	16.9	0.00e+00	0	44	102	1048576	11	4239
2026-01-19 14:20:04.39	297.62	17.33	-25.8	-27.5	16.7	0.00e+00	0	43	102	1048576	11	4332
2026-01-19 14:20:07.41	298.25	17.19	-25.8	-27.4	16.7	0.00e+00	0	44	102	1048576	11	4310
2026-01-19 14:20:10.42	298.89	17.06	-25.5	-26.8	17.0	0.00e+00	0	43	102	1048576	11	4148
2026-01-19 14:20:13.43	299.51	16.92	-25.9	-27.5	16.7	0.00e+00	0	43	102	1048576	11	4339
2026-01-19 14:20:16.43	300.13	16.78	-25.7	-27.2	16.8	1.10e-06	0	44	102	1048576	11	4269
2026-01-19 14:20:19.45	300.74	16.63	-25.8	-27.3	16.7	1.10e-06	0	44	102	1048576	11	4301
2026-01-19 14:20:22.46	301.35	16.49	-25.7	-27.0	16.9	0.00e+00	0	44	102	1048576	11	4219
2026-01-19 14:20:25.47	301.96	16.34	-25.7	-27.1	16.9	0.00e+00	0	43	102	1048576	11	4229
2026-01-19 14:20:28.49	302.55	16.19	-25.8	-27.4	16.7	1.10e-06	0	44	102	1048576	11	4307
2026-01-19 14:20:31.50	303.15	16.04	-25.8	-27.3	16.7	1.10e-06	0	44	102	1048576	11	4289
2026-01-19 14:20:34.50	303.73	15.89	-25.8	-27.2	16.8	0.00e+00	0	44	102	1048576	11	4274
2026-01-19 14:20:37.51	304.31	15.73	-26.0	-27.7	16.5	0.00e+00	0	43	102	1048576	11	4402
2026-01-19 14:20:40.52	304.88	15.57	-26.1	-27.5	16.2	0.00e+00	0	44	102	1048576	12	4246
2026-01-19 14:20:43.54	305.45	15.42	-26.3	-28.1	16.0	0.00e+00	0	44	102	1048576	12	4385
2026-01-19 14:20:46.55	306.01	15.26	-26.2	-27.8	16.1	0.00e+00	0	44	102	1048576	12	4325
2026-01-19 14:20:49.56	306.57	15.09	-26.2	-27.6	16.2	0.00e+00	0	44	102	1048576	12	4263
2026-01-19 14:20:52.57	307.12	14.93	-25.9	-27.0	16.5	0.00e+00	0	44	102	1048576	12	4108
2026-01-19 14:20:55.59	307.66	14.77	-25.9	-27.1	16.4	0.00e+00	0	44	102	1048576	12	4133
2026-01-19 14:20:58.60	308.20	14.60	-26.1	-27.6	16.1	0.00e+00	0	44	102	1048576	12	4269
2026-01-19 14:21:01.61	308.73	14.44	-26.4	-28.3	15.8	0.00e+00	0	43	102	1048576	12	4454
2026-01-19 14:21:04.61	309.26	14.27	-26.4	-27.7	15.8	0.00e+00	0	44	102	1048576	13	4169
2026-01-19 14:21:07.62	309.78	14.10	-26.7	-28.3	15.5	0.00e+00	0	43	102	1048576	13	4336
2026-01-19 14:21:10.63	310.29	13.93	-26.5	-27.9	15.7	0.00e+00	0	43	102	1048576	13	4237
2026-01-19 14:21:13.63	310.80	13.76	-26.4	-27.8	15.8	0.00e+00	0	44	102	1048576	13	4198
2026-01-19 14:21:16.64	311.31	13.59	-26.3	-27.4	16.0	0.00e+00	0	43	102	1048576	13	4086
2026-01-19 14:21:19.64	311.80	13.42	-26.2	-27.3	16.0	0.00e+00	0	44	102	1048576	13	4063
2026-01-19 14:21:22.64	312.29	13.25	-26.3	-27.5	15.9	0.00e+00	0	44	102	1048576	13	4140
2026-01-19 14:21:25.66	312.78	13.07	-26.5	-28.0	15.6	0.00e+00	0	43	102	1048576	13	4252
2026-01-19 14:21:28.66	313.26	12.90	-26.5	-27.9	15.6	0.00e+00	0	43	102	1048576	13	4238
2026-01-19 14:21:31.67	313.74	12.72	-26.5	-28.0	15.6	0.00e+00	0	43	102	1048576	13	4251
2026-01-19 14:21:34.67	314.21	12.55	-26.4	-27.7	15.7	0.00e+00	0	43	102	1048576	13	4186
2026-01-19 14:21:37.69	314.67	12.37	-26.6	-28.2	15.5	0.00e+00	0	44	102	1048576	13	4307
2026-01-19 14:21:40.69	315.13	12.20	-26.8	-28.6	15.2	0.00e+00	0	44	102	1048576	13	4421
2026-01-19 14:21:43.70	315.58	12.02	-27.0	-28.5	15.0	0.00e+00	0	44	102	1048576	14	4285
2026-01-19 14:21:46.70	316.03	11.85	-26.8	-28.2	15.2	0.00e+00	0	43	102	1048576	14	4196
2026-01-19 14:21:49.71	316.48	11.67	-26.8	-28.2	15.2	0.00e+00	0	44	102	1048576	14	4207
2026-01-19 14:21:52.72	316.92	11.49	-26.8	-28.1	15.2	0.00e+00	0	43	102	1048576	14	4186
2026-01-19 14:21:55.72	317.35	11.32	-26.9	-28.3	15.0	0.00e+00	0	44	102	1048576	14	4240
2026-01-19 14:21:58.73	317.78	11.14	-27.1	-28.7	14.8	0.00e+00	0	44	102	1048576	14	4356
2026-01-19 14:22:01.74	318.20	10.96	-26.9	-28.4	15.0	0.00e+00	0	43	102	1048576	14	4264
2026-01-19 14:22:04.76	318.62	10.78	-26.8	-28.2	15.1	0.00e+00	0	44	102	1048576	14	4200
2026-01-19 14:22:07.77	319.03	10.61	-27.2	-28.9	14.7	0.00e+00	0	44	102	1048576	14	4410
2026-01-19 14:22:10.78	319.44	10.43	-27.0	-28.6	14.8	0.00e+00	0	43	102	1048576	14	4329
2026-01-19 14:22:13.78	319.85	10.25	-27.1	-28.9	14.7	0.00e+00	0	44	102	1048576	14	4398
2026-01-19 14:22:16.79	320.25	10.08	-27.1	-28.9	14.7	0.00e+00	0	43	102	1048576	14	4404
2026-01-19 14:22:19.80	320.64	9.90	-27.4	-29.4	14.3	0.00e+00	0	44	102	1048576	14	4552
2026-01-19 14:22:22.80	321.03	9.72	-27.5	-29.6	14.2	1.10e-06	0	44	102	1048576	14	4620
2026-01-19 14:22:25.82	321.42	9.55	-27.7	-29.6	13.9	1.10e-06	0	43	102	1048576	15	4488
2026-01-19 14:22:28.83	321.80	9.37	-27.6	-29.4	14.1	3.40e-06	0	44	102	1048576	15	4426
2026-01-19 14:22:31.83	322.17	9.19	-27.5	-29.2	14.1	1.10e-06	0	43	102	1048576	15	4388
2026-01-19 14:22:34.84	322.55	9.02	-27.5	-29.2	14.1	2.20e-06	0	44	102	1048576	15	4389
2026-01-19 14:22:37.86	322.92	8.84	-27.7	-29.7	13.8	1.10e-06	0	43	102	1048576	15	4517
2026-01-19 14:22:40.87	323.28	8.66	-27.7	-29.6	13.8	3.40e-06	0	44	102	1048576	15	4496
2026-01-19 14:22:43.88	323.64	8.49	-27.9	-30.1	13.5	1.02e-05	0	43	102	1048576	15	4647
2026-01-19 14:22:46.89	323.99	8.31	-28.1	-30.2	13.3	4.50e-06	0	43	102	1048576	16	4554
2026-01-19 14:22:49.90	324.35	8.14	-27.9	-29.6	13.6	5.70e-06	0	43	102	1048576	16	4391
2026-01-19 14:22:52.91	324.69	7.96	-28.0	-30.0	13.4	1.14e-05	0	43	102	1048576	16	4488
2026-01-19 14:22:55.90	325.04	7.79	-27.9	-29.7	13.5	2.20e-06	0	43	102	1048576	16	4419
2026-01-19 14:22:58.91	325.37	7.62	-27.9	-29.6	13.6	5.70e-06	0	43	102	1048576	16	4380
2026-01-19 14:23:01.92	325.71	7.44	-28.2	-30.4	13.1	1.71e-05	0	44	102	1048576	16	4620
2026-01-19 14:23:04.93	326.04	7.27	-28.0	-30.0	13.3	1.48e-05	0	43	102	1048576	16	4500
2026-01-19 14:23:07.94	326.37	7.10	-28.2	-30.3	13.1	1.83e-05	0	43	102	1048576	16	4590

#Closed at: 2026-01-19 14:23:10
#Recorded file [1 MB]: D:/data/31010_260119_171343.dat