passes_logs/2026/01/19/R2M6_AANII_01/R2M6_AANII_01__20260119_031839_AQUA_rec.log

#Pass ID: 20260119_031839_AQUA
#Satellite: AQUA
#Configuration: AQUA
#almurnet v.1.7.20240730
#Start time: 2026-01-19 03:18:41

#Version: 2.2.20231116
#Station: R2M6_AANII_01
#Location: 30.233357 lon 59.946436 lat
#TLE: 1 27424U 02022A   26017.96925465  .00000866  00000+0  18326-3 0  9999
#TLE: 2 27424  98.4087 344.4465 0002004  74.6027 356.0068 14.61826972261327

#Time	Az	El	Level	Level2	SNR	BER	BlckErr	Temp	State	Recorded	gain1	gain2
2026-01-19 03:18:41.37	8.79	7.10	-32.5	-48.1	3.8	7.47e-01	0	41	0	0	25	21812
2026-01-19 03:18:44.38	8.55	7.32	-32.5	-48.0	3.8	7.44e-01	0	42	104	0	25	21414
2026-01-19 03:18:47.39	8.30	7.55	-32.2	-47.0	3.8	7.47e-01	0	42	104	0	25	19612
2026-01-19 03:18:50.40	8.05	7.77	-31.6	-45.4	3.8	7.43e-01	0	42	104	0	24	17608
2026-01-19 03:18:53.41	7.79	8.00	-31.6	-45.2	3.8	7.44e-01	0	42	104	0	24	17243
2026-01-19 03:18:56.42	7.53	8.23	-31.0	-44.6	3.8	7.47e-01	0	42	104	0	22	17139
2026-01-19 03:18:59.43	7.26	8.46	-31.2	-44.4	3.8	7.43e-01	0	42	104	0	23	16557
2026-01-19 03:19:02.43	6.99	8.69	-32.0	-46.4	3.8	7.44e-01	0	42	104	0	24	19018
2026-01-19 03:19:05.44	6.72	8.92	-32.5	-47.7	3.8	7.47e-01	0	42	104	0	25	20793
2026-01-19 03:19:08.45	6.44	9.16	-32.8	-48.4	3.8	7.48e-01	0	42	104	0	26	21644
2026-01-19 03:19:11.46	6.15	9.40	-33.2	-49.7	3.8	7.45e-01	0	43	104	0	27	23963
2026-01-19 03:19:14.47	5.86	9.64	-33.5	-51.3	3.8	7.46e-01	0	43	104	0	27	27801
2026-01-19 03:19:17.47	5.56	9.88	-33.5	-51.3	3.8	7.47e-01	0	43	104	0	28	27778
2026-01-19 03:19:20.48	5.26	10.12	-33.5	-50.9	3.8	7.44e-01	0	43	104	0	27	26780
2026-01-19 03:19:23.49	4.95	10.37	-33.4	-50.2	3.8	7.42e-01	0	43	104	0	27	24932
2026-01-19 03:19:26.51	4.64	10.62	-33.0	-48.5	3.8	7.43e-01	0	43	104	0	27	21405
2026-01-19 03:19:29.52	4.32	10.87	-32.3	-46.8	3.8	7.41e-01	0	43	104	0	25	19015
2026-01-19 03:19:32.54	3.99	11.12	-32.4	-47.1	3.8	7.45e-01	0	43	104	0	25	19496
2026-01-19 03:19:35.54	3.66	11.37	-32.6	-47.3	3.8	7.43e-01	0	43	104	0	26	19529
2026-01-19 03:19:38.55	3.32	11.63	-31.9	-46.0	3.8	7.44e-01	0	43	104	0	24	18102
2026-01-19 03:19:41.57	2.97	11.88	-31.4	-44.9	3.8	7.41e-01	0	43	104	0	23	17039
2026-01-19 03:19:44.59	2.62	12.14	-30.8	-43.7	3.8	7.45e-01	0	43	104	0	22	15893
2026-01-19 03:19:47.58	2.26	12.40	-30.7	-43.4	3.8	7.44e-01	0	43	104	0	22	15582
2026-01-19 03:19:50.58	1.90	12.67	-31.2	-44.3	3.8	7.45e-01	0	43	104	0	23	16231
2026-01-19 03:19:53.60	1.52	12.93	-32.2	-46.3	3.8	7.48e-01	0	43	104	0	25	18180
2026-01-19 03:19:56.62	1.14	13.20	-32.6	-47.3	3.9	7.44e-01	0	43	104	0	26	19441
2026-01-19 03:19:59.62	0.75	13.47	-32.9	-48.4	3.8	7.47e-01	0	43	104	0	26	21461
2026-01-19 03:20:02.64	0.35	13.74	-33.1	-48.7	3.8	7.46e-01	0	43	104	0	27	21534
2026-01-19 03:20:05.65	359.95	14.02	-33.5	-50.1	3.9	7.44e-01	0	43	104	0	28	24190
2026-01-19 03:20:08.66	359.53	14.29	-33.5	-50.1	3.8	7.45e-01	0	43	104	0	28	24341
2026-01-19 03:20:11.68	359.11	14.57	-33.5	-50.2	3.8	7.42e-01	0	44	104	0	27	24473
2026-01-19 03:20:14.68	358.68	14.85	-33.4	-49.4	3.8	7.47e-01	0	43	104	0	27	22728
2026-01-19 03:20:17.69	358.24	15.13	-32.6	-47.1	3.8	7.45e-01	0	43	104	0	26	19019
2026-01-19 03:20:20.69	357.79	15.41	-32.3	-46.6	3.8	7.45e-01	0	43	104	0	25	18529
2026-01-19 03:20:23.71	357.33	15.70	-32.7	-47.3	3.8	7.44e-01	0	43	104	0	25	19292
2026-01-19 03:20:26.73	356.86	15.99	-32.1	-46.1	3.8	7.47e-01	0	43	104	0	24	18232
2026-01-19 03:20:29.74	356.39	16.28	-31.0	-44.1	3.8	7.42e-01	0	43	104	0	22	16290
2026-01-19 03:20:32.76	355.90	16.57	-30.5	-43.3	3.8	7.44e-01	0	43	104	0	21	15674
2026-01-19 03:20:35.77	355.40	16.86	-30.4	-43.0	3.8	7.45e-01	0	43	104	0	21	15306
2026-01-19 03:20:38.78	354.89	17.16	-30.9	-43.8	3.8	7.46e-01	0	43	104	0	22	15970
2026-01-19 03:20:41.81	354.36	17.46	-31.6	-36.4	5.3	7.08e-01	0	44	0	0	24	6211
2026-01-19 03:20:44.82	353.83	17.76	-31.8	-36.9	5.3	7.11e-01	0	44	0	0	24	6445
2026-01-19 03:20:47.83	353.29	18.05	-31.3	-35.8	5.3	7.07e-01	0	43	0	0	23	6066
2026-01-19 03:20:50.84	352.73	18.36	-31.2	-35.6	5.3	7.06e-01	0	44	0	0	23	5963
2026-01-19 03:20:53.86	352.17	18.66	-31.3	-35.9	5.2	7.11e-01	0	44	0	0	23	6075
2026-01-19 03:20:56.86	351.59	18.96	-30.4	-34.4	5.3	7.08e-01	0	44	0	0	21	5670
2026-01-19 03:20:59.88	351.00	19.27	-30.2	-33.8	5.3	7.09e-01	0	44	0	0	21	5436
2026-01-19 03:21:02.89	350.39	19.57	-30.1	-34.0	5.3	7.04e-01	0	44	0	0	20	5635
2026-01-19 03:21:05.90	349.77	19.88	-30.1	-33.6	5.4	7.06e-01	0	44	0	0	21	5388
2026-01-19 03:21:08.90	349.14	20.19	-30.3	-34.0	5.3	7.08e-01	0	44	0	0	21	5516
2026-01-19 03:21:11.91	348.50	20.49	-30.4	-34.4	5.3	7.08e-01	0	44	0	0	21	5663
2026-01-19 03:21:14.92	347.84	20.80	-30.5	-34.6	5.3	7.08e-01	0	44	0	0	21	5762
2026-01-19 03:21:17.93	347.17	21.11	-30.7	-34.5	5.3	7.05e-01	0	44	0	0	22	5589
2026-01-19 03:21:20.94	346.48	21.42	-30.5	-34.4	5.3	7.09e-01	0	44	0	0	21	5677
2026-01-19 03:21:23.96	345.78	21.73	-30.4	-34.2	5.3	7.05e-01	0	44	0	0	21	5609
2026-01-19 03:21:26.97	345.06	22.03	-30.3	-34.1	5.3	7.07e-01	0	44	0	0	21	5558
2026-01-19 03:21:29.99	344.33	22.34	-30.4	-34.3	5.3	7.07e-01	0	44	0	0	21	5618
2026-01-19 03:21:33.01	343.58	22.65	-30.4	-34.1	5.3	7.07e-01	0	44	0	0	21	5560
2026-01-19 03:21:36.02	342.81	22.95	-30.3	-34.1	5.3	7.07e-01	0	44	0	0	21	5538
2026-01-19 03:21:39.03	342.03	23.26	-30.5	-34.6	5.3	7.08e-01	0	44	0	0	21	5743
2026-01-19 03:21:42.04	341.24	23.56	-30.4	-34.3	5.3	7.06e-01	0	44	0	0	21	5609
2026-01-19 03:21:45.06	340.42	23.86	-30.4	-34.4	5.3	7.04e-01	0	44	0	0	21	5646
2026-01-19 03:21:48.07	339.59	24.16	-30.4	-34.3	5.3	7.08e-01	0	44	0	0	21	5612
2026-01-19 03:21:51.09	338.74	24.45	-30.2	-33.8	5.3	7.09e-01	0	44	0	0	21	5434
2026-01-19 03:21:54.11	337.88	24.74	-30.3	-34.1	5.3	7.09e-01	0	44	0	0	21	5537
2026-01-19 03:21:57.12	337.00	25.03	-30.4	-34.1	5.3	7.08e-01	0	44	0	0	21	5549
2026-01-19 03:22:00.14	336.10	25.32	-30.5	-34.4	5.3	7.04e-01	0	44	0	0	21	5678
2026-01-19 03:22:03.15	335.19	25.60	-30.2	-33.6	5.3	7.09e-01	0	44	0	0	21	5351
2026-01-19 03:22:06.16	334.26	25.87	-30.2	-33.8	5.3	7.07e-01	0	44	0	0	21	5415
2026-01-19 03:22:09.18	333.31	26.14	-30.4	-34.3	5.3	7.10e-01	0	44	0	0	21	5622
2026-01-19 03:22:12.18	332.35	26.40	-30.2	-33.7	5.3	7.06e-01	0	44	0	0	21	5400
2026-01-19 03:22:15.19	331.37	26.66	-30.1	-33.6	5.3	7.06e-01	0	44	0	0	21	5352
2026-01-19 03:22:18.19	330.37	26.91	-30.2	-33.7	5.3	7.06e-01	0	44	0	0	21	5409
2026-01-19 03:22:21.21	329.36	27.16	-30.1	-33.9	5.3	7.06e-01	0	44	0	0	20	5576
2026-01-19 03:22:24.22	328.33	27.39	-30.0	-33.7	5.3	7.03e-01	0	44	0	0	20	5515
2026-01-19 03:22:27.23	327.28	27.62	-29.9	-33.5	5.3	7.07e-01	0	44	0	0	20	5439
2026-01-19 03:22:30.23	326.22	27.84	-29.9	-33.3	5.3	7.02e-01	0	44	0	0	20	5363
2026-01-19 03:22:33.25	325.14	28.06	-29.9	-33.5	5.3	7.08e-01	0	44	0	0	20	5424
2026-01-19 03:22:36.27	324.05	28.26	-29.8	-33.3	5.3	7.06e-01	0	44	0	0	20	5361
2026-01-19 03:22:39.27	322.95	28.45	-29.8	-33.1	5.3	7.07e-01	0	44	0	0	20	5286
2026-01-19 03:22:42.29	321.82	28.63	-30.0	-33.6	5.3	7.03e-01	0	44	0	0	20	5482
2026-01-19 03:22:45.31	320.69	28.80	-29.8	-33.2	5.3	7.07e-01	0	44	0	0	20	5342
2026-01-19 03:22:48.32	319.54	28.96	-29.9	-33.3	5.3	7.07e-01	0	44	0	0	20	5370
2026-01-19 03:22:51.31	318.39	29.11	-29.7	-32.9	5.3	7.03e-01	0	44	0	0	20	5225
2026-01-19 03:22:54.32	317.23	29.25	-29.8	-33.3	5.3	7.04e-01	0	44	0	0	20	5354
2026-01-19 03:22:57.34	316.05	29.37	-29.8	-33.1	5.3	7.08e-01	0	44	0	0	20	5293
2026-01-19 03:23:00.35	314.86	29.49	-29.9	-33.4	5.3	7.08e-01	0	44	0	0	20	5406
2026-01-19 03:23:03.35	313.67	29.58	-29.9	-33.3	5.3	7.08e-01	0	44	0	0	20	5364
2026-01-19 03:23:06.35	312.48	29.67	-29.8	-33.1	5.3	7.05e-01	0	44	0	0	20	5290
2026-01-19 03:23:09.36	311.27	29.74	-29.9	-33.5	5.3	7.04e-01	0	44	0	0	20	5426
2026-01-19 03:23:12.37	310.06	29.80	-29.7	-32.9	5.3	7.07e-01	0	44	0	0	20	5229
2026-01-19 03:23:15.39	308.84	29.84	-29.9	-33.5	5.3	7.05e-01	0	44	0	0	20	5432
2026-01-19 03:23:18.40	307.62	29.87	-29.5	-32.5	5.3	7.07e-01	0	44	0	0	20	5085
2026-01-19 03:23:21.41	306.39	29.89	-30.0	-33.8	5.3	7.05e-01	0	44	0	0	20	5562
2026-01-19 03:23:24.42	305.17	29.89	-30.2	-33.9	5.3	7.06e-01	0	44	0	0	21	5459
2026-01-19 03:23:27.44	303.95	29.88	-29.6	-32.1	5.3	7.04e-01	0	44	0	0	21	4810
2026-01-19 03:23:30.44	302.73	29.85	-29.9	-32.9	5.3	7.08e-01	0	44	0	0	21	5072
2026-01-19 03:23:33.46	301.51	29.81	-30.6	-34.3	5.3	7.09e-01	0	44	0	0	22	5481
2026-01-19 03:23:36.47	300.30	29.75	-31.3	-35.7	5.2	7.06e-01	0	44	0	0	23	6007
2026-01-19 03:23:39.48	299.09	29.69	-31.1	-35.0	5.3	7.05e-01	0	44	0	0	23	5658
2026-01-19 03:23:42.49	297.88	29.60	-30.8	-34.8	5.3	7.08e-01	0	44	0	0	22	5704
2026-01-19 03:23:45.51	296.68	29.51	-30.4	-34.4	5.2	7.05e-01	0	44	0	0	21	5655
2026-01-19 03:23:48.52	295.49	29.40	-30.9	-35.1	5.2	7.06e-01	0	44	0	0	22	5814
2026-01-19 03:23:51.53	294.31	29.28	-29.0	-32.3	5.3	7.10e-01	0	44	0	0	21	5283
2026-01-19 03:23:54.54	293.14	29.14	-30.0	-33.8	5.3	7.03e-01	0	44	0	0	20	5549
2026-01-19 03:23:57.55	291.98	29.00	-30.2	-33.8	5.3	7.05e-01	0	44	0	0	21	5425
2026-01-19 03:24:00.56	290.83	28.84	-30.5	-34.5	5.3	7.06e-01	0	44	0	0	21	5727
2026-01-19 03:24:03.58	289.69	28.67	-31.0	-35.3	5.3	7.06e-01	0	44	0	0	22	5929
2026-01-19 03:24:06.58	288.57	28.49	-30.9	-35.2	5.2	7.07e-01	0	44	0	0	22	5864
2026-01-19 03:24:09.59	287.46	28.30	-30.2	-33.8	5.3	7.06e-01	0	44	0	0	21	5419
2026-01-19 03:24:12.60	286.36	28.10	-30.7	-34.7	5.3	7.04e-01	0	44	0	0	22	5655
2026-01-19 03:24:15.60	285.29	27.89	-30.8	-34.8	5.3	7.08e-01	0	44	0	0	22	5728
2026-01-19 03:24:18.61	284.22	27.67	-31.1	-35.3	5.2	7.06e-01	0	44	0	0	23	5843
2026-01-19 03:24:21.62	283.17	27.44	-30.3	-33.9	5.3	7.01e-01	0	44	0	0	21	5453
2026-01-19 03:24:24.63	282.13	27.21	-30.7	-34.6	5.3	7.07e-01	0	44	0	0	22	5617
2026-01-19 03:24:27.63	281.11	26.96	-30.8	-34.4	5.3	7.10e-01	0	44	0	0	23	5442
2026-01-19 03:24:30.63	280.11	26.71	-30.6	-34.4	5.3	7.08e-01	0	44	0	0	22	5530
2026-01-19 03:24:33.65	279.12	26.46	-30.3	-34.1	5.3	7.08e-01	0	44	0	0	21	5534
2026-01-19 03:24:36.66	278.15	26.19	-30.7	-34.6	5.3	7.08e-01	0	44	0	0	22	5642
2026-01-19 03:24:39.67	277.20	25.92	-30.3	-34.1	5.3	7.06e-01	0	44	0	0	21	5580
2026-01-19 03:24:42.68	276.26	25.65	-30.3	-34.1	5.3	7.05e-01	0	44	0	0	21	5579
2026-01-19 03:24:45.69	275.34	25.37	-30.2	-33.9	5.3	7.05e-01	0	44	0	0	21	5481
2026-01-19 03:24:48.70	274.44	25.09	-30.3	-34.1	5.3	7.05e-01	0	44	0	0	21	5566
2026-01-19 03:24:51.69	273.56	24.80	-30.3	-34.1	5.3	7.06e-01	0	44	0	0	21	5591
2026-01-19 03:24:54.70	272.69	24.51	-30.3	-34.1	5.3	7.05e-01	0	44	0	0	21	5595
2026-01-19 03:24:57.71	271.83	24.21	-30.4	-34.5	5.3	7.06e-01	0	44	0	0	21	5740
2026-01-19 03:25:00.72	271.00	23.92	-30.3	-34.0	5.3	7.07e-01	0	44	0	0	21	5550
2026-01-19 03:25:03.74	270.18	23.61	-30.5	-34.7	5.3	7.05e-01	0	44	0	0	21	5825
2026-01-19 03:25:06.75	269.37	23.31	-30.7	-34.6	5.3	7.08e-01	0	44	0	0	22	5693
2026-01-19 03:25:09.77	268.58	23.01	-30.1	-33.6	5.3	7.07e-01	0	44	0	0	21	5371
2026-01-19 03:25:12.77	267.82	22.70	-30.4	-34.5	5.3	7.05e-01	0	44	0	0	21	5759
2026-01-19 03:25:15.79	267.06	22.39	-30.3	-34.1	5.3	7.06e-01	0	44	0	0	21	5574
2026-01-19 03:25:18.81	266.32	22.08	-30.5	-34.7	5.2	7.06e-01	0	44	0	0	21	5840
2026-01-19 03:25:21.81	265.60	21.78	-30.7	-34.6	5.3	7.04e-01	0	44	0	0	22	5687
2026-01-19 03:25:24.83	264.88	21.47	-30.5	-34.8	5.3	7.05e-01	0	44	0	0	21	5883
2026-01-19 03:25:27.84	264.19	21.16	-30.0	-33.9	5.3	7.03e-01	0	44	0	0	20	5640
2026-01-19 03:25:30.86	263.51	20.85	-30.1	-33.7	5.3	7.08e-01	0	44	0	0	21	5446
2026-01-19 03:25:33.87	262.84	20.54	-30.2	-33.9	5.3	7.05e-01	0	44	0	0	21	5508
2026-01-19 03:25:36.86	262.20	20.23	-30.0	-34.0	5.3	7.07e-01	0	44	0	0	20	5699
2026-01-19 03:25:39.86	261.56	19.92	-30.3	-34.2	5.2	7.05e-01	0	44	0	0	21	5636
2026-01-19 03:25:42.86	260.94	19.62	-29.8	-33.4	5.3	7.08e-01	0	44	0	0	20	5461
2026-01-19 03:25:45.87	260.33	19.31	-30.1	-34.2	5.2	7.07e-01	0	44	0	0	20	5785
2026-01-19 03:25:48.88	259.73	19.00	-30.1	-33.8	5.2	7.10e-01	0	44	0	0	21	5502
2026-01-19 03:25:51.88	259.15	18.70	-30.2	-34.0	5.3	7.07e-01	0	44	0	0	21	5582
2026-01-19 03:25:54.90	258.57	18.39	-30.3	-34.2	5.3	7.04e-01	0	44	0	0	21	5664
2026-01-19 03:25:57.92	258.01	18.09	-30.0	-34.1	5.3	7.05e-01	0	44	0	0	20	5739
2026-01-19 03:26:00.93	257.46	17.79	-30.1	-34.1	5.3	7.05e-01	0	44	0	0	20	5758
2026-01-19 03:26:03.94	256.93	17.49	-30.3	-34.4	5.3	7.08e-01	0	44	0	0	21	5764
2026-01-19 03:26:06.95	256.40	17.19	-29.8	-33.4	5.3	7.07e-01	0	44	0	0	20	5488
2026-01-19 03:26:09.96	255.88	16.89	-29.9	-33.7	5.3	7.07e-01	0	44	0	0	20	5592
2026-01-19 03:26:12.97	255.38	16.60	-29.9	-33.9	5.3	7.05e-01	0	44	0	0	20	5667
2026-01-19 03:26:15.98	254.89	16.31	-29.9	-33.9	5.3	7.03e-01	0	44	0	0	20	5676
2026-01-19 03:26:18.99	254.40	16.01	-30.0	-34.0	5.3	7.07e-01	0	44	0	0	20	5716
2026-01-19 03:26:22.00	253.93	15.73	-29.8	-33.7	5.3	7.08e-01	0	44	0	0	20	5583
2026-01-19 03:26:25.00	253.47	15.44	-30.0	-34.0	5.3	7.06e-01	0	44	0	0	20	5707
2026-01-19 03:26:28.01	253.01	15.15	-30.2	-34.1	5.3	7.02e-01	0	44	0	0	21	5642
2026-01-19 03:26:31.02	252.57	14.87	-30.4	-34.7	5.2	7.06e-01	0	44	0	0	21	5902
2026-01-19 03:26:34.04	252.13	14.59	-30.5	-35.0	5.2	7.09e-01	0	44	0	0	21	6048
2026-01-19 03:26:37.05	251.70	14.31	-30.4	-34.7	5.3	7.07e-01	0	44	0	0	21	5898
2026-01-19 03:26:40.06	251.28	14.03	-30.2	-34.1	5.3	7.06e-01	0	44	0	0	21	5657
2026-01-19 03:26:43.07	250.87	13.76	-30.2	-34.3	5.3	7.05e-01	0	44	0	0	21	5718
2026-01-19 03:26:46.07	250.47	13.48	-30.2	-34.1	5.3	7.05e-01	0	44	0	0	21	5641
2026-01-19 03:26:49.08	250.08	13.21	-30.1	-34.4	5.3	7.05e-01	0	44	0	0	20	5893
2026-01-19 03:26:52.09	249.69	12.94	-30.1	-34.0	5.2	7.07e-01	0	44	0	0	21	5618
2026-01-19 03:26:55.10	249.31	12.68	-30.1	-34.0	5.3	7.07e-01	0	44	0	0	21	5608
2026-01-19 03:26:58.11	248.94	12.41	-30.1	-33.9	5.3	7.06e-01	0	44	0	0	21	5585
2026-01-19 03:27:01.11	248.58	12.15	-30.1	-34.0	5.3	7.06e-01	0	44	0	0	21	5614
2026-01-19 03:27:04.12	248.22	11.89	-30.2	-34.2	5.2	7.07e-01	0	44	0	0	21	5706
2026-01-19 03:27:07.12	247.87	11.63	-30.3	-34.5	5.3	7.05e-01	0	44	0	0	21	5842
2026-01-19 03:27:10.14	247.53	11.37	-30.4	-34.8	5.2	7.08e-01	0	44	0	0	21	5983
2026-01-19 03:27:13.13	247.20	11.12	-30.4	-34.8	5.2	7.08e-01	0	44	0	0	21	6003
2026-01-19 03:27:16.15	246.86	10.86	-30.2	-34.4	5.3	7.03e-01	0	44	0	0	21	5801
2026-01-19 03:27:19.16	246.54	10.61	-30.1	-34.1	5.3	7.06e-01	0	44	0	0	21	5697
2026-01-19 03:27:22.15	246.22	10.37	-30.4	-34.8	5.2	7.05e-01	0	44	0	0	21	6029
2026-01-19 03:27:25.15	245.91	10.12	-30.5	-35.2	5.2	7.08e-01	0	44	0	0	21	6177
2026-01-19 03:27:28.16	245.60	9.88	-30.4	-34.9	5.2	7.07e-01	0	44	0	0	21	6077
2026-01-19 03:27:31.17	245.30	9.63	-30.3	-34.8	5.2	7.05e-01	0	44	0	0	21	6011
2026-01-19 03:27:34.17	245.01	9.39	-30.5	-35.3	5.2	7.04e-01	0	44	0	0	21	6250
2026-01-19 03:27:37.18	244.72	9.15	-30.5	-35.4	5.2	7.09e-01	0	44	0	0	21	6298
2026-01-19 03:27:40.19	244.43	8.92	-30.4	-35.1	5.2	7.10e-01	0	44	0	0	21	6192
2026-01-19 03:27:43.19	244.15	8.68	-30.5	-35.3	5.2	7.05e-01	0	44	0	0	21	6281
2026-01-19 03:27:46.21	243.88	8.45	-30.8	-35.7	5.2	7.09e-01	0	44	104	0	22	6358
2026-01-19 03:27:49.22	243.61	8.22	-30.8	-35.0	16.8	6.04e-01	0	44	0	3145728	22	5840
2026-01-19 03:27:52.23	243.34	7.99	-30.8	-35.3	16.5	6.04e-01	0	44	0	8912896	22	5993
2026-01-19 03:27:55.24	243.08	7.76	-30.7	-34.9	16.7	6.01e-01	0	44	0	14680064	22	5829
2026-01-19 03:27:58.25	242.83	7.53	-30.5	-34.4	17.1	6.03e-01	0	44	0	19922944	22	5591
2026-01-19 03:28:01.26	242.57	7.31	-30.6	-35.0	16.9	6.02e-01	0	44	0	25690112	21	5992
2026-01-19 03:28:04.26	242.33	7.08	-30.9	-35.6	16.6	6.02e-01	0	44	0	31457280	22	6168

#Closed at: 2026-01-19 03:28:06
#Recorded file [31 MB]: D:/data/31010_260119_062747.dat