passes_logs/2026/01/19/R2M6_AANII_01/R2M6_AANII_01__20260119_083434_NOAA_20_JPSS-1_rec.log

#Pass ID: 20260119_083434_NOAA 20 (JPSS-1)
#Satellite: NOAA 20 (JPSS-1)
#Configuration: NOAA 20
#almurnet v.1.7.20240730
#Start time: 2026-01-19 08:34:36

#Version: 2.2.20231116
#Station: R2M6_AANII_01
#Location: 30.233357 lon 59.946436 lat
#TLE: 1 43013U 17073A   26017.93796159  .00000077  00000+0  57252-4 0  9992
#TLE: 2 43013  98.7639 318.8464 0001390  34.9771 325.1496 14.19536703423157

#Time	Az	El	Level	Level2	SNR	BER	BlckErr	Temp	State	Recorded	gain1	gain2
2026-01-19 08:34:36.03	106.03	7.12	-32.4	-39.2	4.7	1.33e+00	0	41	0	0	26	7823
2026-01-19 08:34:39.05	105.77	7.32	-32.3	-38.6	7.2	1.47e-01	0	41	0	1048576	25	7501
2026-01-19 08:34:42.05	105.51	7.53	-32.2	-38.1	7.7	1.12e-01	0	41	0	7340032	25	7096
2026-01-19 08:34:45.05	105.25	7.73	-31.8	-36.4	9.1	2.83e-02	0	41	0	12582912	25	6116
2026-01-19 08:34:48.07	104.98	7.93	-31.6	-36.2	9.6	2.30e-02	0	42	0	17825792	24	6101
2026-01-19 08:34:51.07	104.71	8.14	-31.7	-36.4	9.6	1.38e-02	0	41	0	24117248	24	6194
2026-01-19 08:34:54.08	104.43	8.34	-31.7	-36.4	9.5	1.23e-02	0	42	0	29360128	24	6196
2026-01-19 08:34:57.09	104.16	8.55	-31.6	-36.1	9.9	9.26e-03	0	42	0	35651584	24	5997
2026-01-19 08:35:00.09	103.87	8.76	-31.7	-36.1	9.9	9.13e-03	0	42	0	40894464	24	5989
2026-01-19 08:35:03.07	103.59	8.96	-31.7	-36.2	9.8	9.93e-03	0	42	0	46137344	24	6062
2026-01-19 08:35:06.07	103.30	9.17	-31.6	-35.7	10.3	5.17e-03	0	42	0	52428800	24	5769
2026-01-19 08:35:09.09	103.00	9.38	-31.5	-35.4	10.5	4.91e-03	0	42	0	57671680	24	5671
2026-01-19 08:35:12.10	102.70	9.60	-31.6	-35.7	10.2	4.73e-03	0	42	0	62914560	24	5792
2026-01-19 08:35:15.11	102.39	9.81	-31.4	-35.2	10.6	4.04e-03	0	42	0	69206016	24	5565
2026-01-19 08:35:18.12	102.08	10.02	-31.4	-35.2	10.6	3.01e-03	0	42	0	74448896	24	5560
2026-01-19 08:35:21.13	101.77	10.24	-31.6	-35.9	10.1	6.64e-03	0	42	0	80740352	24	5890
2026-01-19 08:35:24.13	101.45	10.45	-31.3	-34.7	11.1	1.76e-03	0	42	0	85983232	24	5321
2026-01-19 08:35:27.13	101.13	10.67	-31.5	-35.3	10.7	2.31e-03	0	43	0	91226112	24	5585
2026-01-19 08:35:30.14	100.80	10.89	-31.4	-35.1	10.8	2.46e-03	0	42	0	97517568	24	5491
2026-01-19 08:35:33.15	100.47	11.11	-31.5	-35.2	10.8	2.39e-03	0	42	0	102760448	24	5543
2026-01-19 08:35:36.15	100.13	11.33	-31.5	-35.3	10.7	3.47e-03	0	43	0	108003328	24	5569
2026-01-19 08:35:39.17	99.78	11.55	-31.5	-35.4	10.6	3.43e-03	0	43	0	114294784	24	5647
2026-01-19 08:35:42.18	99.43	11.77	-31.4	-35.0	10.9	1.87e-03	0	42	0	119537664	24	5466
2026-01-19 08:35:45.19	99.08	12.00	-31.4	-34.8	11.1	1.62e-03	0	43	0	125829120	24	5368
2026-01-19 08:35:48.20	98.72	12.22	-31.4	-34.7	11.2	1.24e-03	0	43	0	131072000	24	5317
2026-01-19 08:35:51.20	98.35	12.44	-31.3	-34.9	11.5	9.18e-04	0	43	0	136314880	23	5500
2026-01-19 08:35:54.20	97.98	12.67	-31.3	-35.2	11.3	1.29e-03	0	43	0	142606336	23	5626
2026-01-19 08:35:57.22	97.60	12.90	-31.3	-35.0	11.4	1.12e-03	0	43	0	147849216	23	5541
2026-01-19 08:36:00.22	97.22	13.12	-31.4	-35.2	11.3	1.40e-03	0	43	0	153092096	23	5626
2026-01-19 08:36:03.22	96.83	13.35	-31.3	-35.0	11.6	6.58e-04	0	43	0	159383552	23	5485
2026-01-19 08:36:06.23	96.43	13.58	-31.3	-35.0	11.5	9.73e-04	0	43	0	164626432	23	5506
2026-01-19 08:36:09.23	96.03	13.81	-31.3	-35.0	11.5	7.32e-04	0	43	0	170917888	23	5515
2026-01-19 08:36:12.24	95.62	14.04	-31.3	-35.0	11.6	8.26e-04	0	43	0	176160768	23	5518
2026-01-19 08:36:15.24	95.21	14.27	-31.1	-34.3	12.2	2.52e-04	0	43	0	181403648	23	5207
2026-01-19 08:36:18.26	94.79	14.51	-31.1	-34.3	12.2	2.40e-04	0	43	0	187695104	23	5188
2026-01-19 08:36:21.27	94.36	14.74	-31.1	-34.1	12.3	1.92e-04	0	43	0	192937984	23	5130
2026-01-19 08:36:24.29	93.92	14.97	-30.9	-33.8	12.5	1.11e-04	0	43	0	199229440	23	5015
2026-01-19 08:36:27.31	93.48	15.21	-31.2	-34.4	12.1	2.11e-04	0	43	0	204472320	23	5253
2026-01-19 08:36:30.31	93.03	15.44	-31.0	-34.0	12.5	9.68e-05	0	43	0	209715200	23	5052
2026-01-19 08:36:33.33	92.57	15.68	-31.1	-34.3	12.3	1.32e-04	0	43	0	216006656	23	5181
2026-01-19 08:36:36.33	92.11	15.91	-31.2	-34.6	12.1	2.39e-04	0	43	0	221249536	23	5295
2026-01-19 08:36:39.34	91.63	16.15	-31.2	-34.5	12.2	2.42e-04	0	43	0	226492416	23	5260
2026-01-19 08:36:42.36	91.15	16.38	-31.3	-34.9	11.9	3.04e-04	0	43	0	232783872	23	5406
2026-01-19 08:36:45.36	90.67	16.62	-31.4	-35.1	11.8	5.52e-04	0	43	0	238026752	23	5485
2026-01-19 08:36:48.37	90.17	16.86	-31.3	-34.8	12.0	3.65e-04	0	43	0	244318208	23	5388
2026-01-19 08:36:51.39	89.67	17.09	-31.4	-35.1	11.8	5.24e-04	0	43	0	249561088	23	5478
2026-01-19 08:36:54.39	89.16	17.33	-31.2	-34.4	12.4	1.70e-04	0	43	0	254803968	23	5203
2026-01-19 08:36:57.40	88.64	17.56	-31.4	-35.0	12.0	2.78e-04	0	43	0	261095424	23	5426
2026-01-19 08:37:00.41	88.11	17.80	-31.6	-35.5	11.6	6.45e-04	0	43	0	266338304	23	5652
2026-01-19 08:37:03.41	87.58	18.03	-31.6	-35.5	11.6	6.10e-04	0	43	0	272629760	23	5649
2026-01-19 08:37:06.42	87.04	18.27	-31.6	-35.4	11.7	7.47e-04	0	43	0	277872640	23	5630
2026-01-19 08:37:09.41	86.49	18.50	-31.5	-35.2	11.9	4.92e-04	0	43	0	283115520	23	5532
2026-01-19 08:37:12.43	85.92	18.74	-31.4	-34.8	12.1	3.04e-04	0	43	0	289406976	23	5357
2026-01-19 08:37:15.45	85.35	18.97	-31.3	-34.5	12.4	1.40e-04	0	43	0	294649856	23	5236
2026-01-19 08:37:18.46	84.77	19.21	-31.3	-34.5	12.4	1.43e-04	0	43	0	299892736	23	5219
2026-01-19 08:37:21.45	84.19	19.44	-31.1	-34.1	12.6	9.38e-05	0	43	0	306184192	23	5085
2026-01-19 08:37:24.45	83.59	19.67	-31.2	-34.2	12.6	7.32e-05	0	44	0	311427072	23	5109
2026-01-19 08:37:27.46	82.99	19.89	-30.9	-33.3	13.1	2.89e-05	0	43	0	317718528	23	4790
2026-01-19 08:37:30.48	82.37	20.12	-30.5	-32.9	13.8	9.90e-06	0	44	0	322961408	22	4747
2026-01-19 08:37:33.49	81.75	20.35	-30.5	-32.9	13.8	8.30e-06	0	43	0	328204288	22	4731
2026-01-19 08:37:36.50	81.11	20.58	-30.3	-32.9	14.1	7.00e-07	0	43	0	334495744	21	4838
2026-01-19 08:37:39.50	80.47	20.80	-30.2	-32.6	14.3	7.00e-07	0	43	0	339738624	21	4738
2026-01-19 08:37:42.51	79.82	21.02	-30.2	-32.6	14.4	0.00e+00	0	44	0	344981504	21	4724
2026-01-19 08:37:45.52	79.16	21.24	-30.0	-31.9	14.8	7.00e-07	0	43	0	351272960	21	4519
2026-01-19 08:37:48.54	78.49	21.46	-30.1	-32.2	14.7	7.00e-07	0	43	0	356515840	21	4582
2026-01-19 08:37:51.54	77.81	21.67	-30.0	-31.9	14.9	7.00e-07	0	43	0	362807296	21	4493
2026-01-19 08:37:54.54	77.12	21.88	-30.0	-31.9	14.9	0.00e+00	0	43	0	368050176	21	4491
2026-01-19 08:37:57.55	76.42	22.09	-30.0	-31.9	14.9	0.00e+00	0	43	0	373293056	21	4499
2026-01-19 08:38:00.55	75.71	22.30	-29.9	-31.8	15.0	0.00e+00	0	43	0	379584512	21	4464
2026-01-19 08:38:03.55	75.00	22.50	-30.1	-32.2	14.7	0.00e+00	0	43	0	384827392	21	4601
2026-01-19 08:38:06.56	74.27	22.70	-30.1	-32.2	14.7	7.00e-07	0	44	0	390070272	21	4596
2026-01-19 08:38:09.57	73.53	22.90	-30.3	-32.7	14.4	7.00e-07	0	43	0	396361728	21	4748
2026-01-19 08:38:12.58	72.78	23.09	-30.3	-32.7	14.4	7.00e-07	0	43	0	401604608	21	4750
2026-01-19 08:38:15.59	72.03	23.28	-30.3	-32.7	14.4	0.00e+00	0	43	0	407896064	21	4763
2026-01-19 08:38:18.60	71.26	23.46	-30.5	-33.1	14.2	4.50e-06	0	44	0	413138944	21	4878
2026-01-19 08:38:21.61	70.49	23.64	-30.3	-32.7	14.5	7.00e-07	0	43	0	418381824	21	4732
2026-01-19 08:38:24.63	69.70	23.82	-30.0	-32.1	14.9	0.00e+00	0	44	0	424673280	21	4545
2026-01-19 08:38:27.63	68.92	23.99	-29.6	-31.5	15.5	0.00e+00	0	43	0	429916160	20	4479
2026-01-19 08:38:30.65	68.11	24.16	-29.5	-31.2	15.6	0.00e+00	0	43	0	436207616	20	4387
2026-01-19 08:38:33.65	67.31	24.32	-29.5	-31.1	15.7	0.00e+00	0	43	0	441450496	20	4352
2026-01-19 08:38:36.66	66.49	24.48	-29.8	-31.8	15.3	0.00e+00	0	43	0	446693376	20	4570
2026-01-19 08:38:39.67	65.66	24.63	-30.0	-32.5	14.9	7.00e-07	0	43	0	452984832	20	4802
2026-01-19 08:38:42.67	64.84	24.77	-30.1	-32.7	14.8	7.00e-07	0	43	0	458227712	20	4842
2026-01-19 08:38:45.66	64.00	24.91	-30.1	-32.6	14.8	7.00e-07	0	44	0	463470592	20	4832
2026-01-19 08:38:48.67	63.15	25.04	-30.3	-33.3	14.4	0.00e+00	0	44	0	469762048	20	5055
2026-01-19 08:38:51.67	62.30	25.17	-30.5	-33.1	14.3	1.50e-06	0	44	0	475004928	21	4889
2026-01-19 08:38:54.68	61.44	25.29	-30.7	-33.6	13.9	3.80e-06	0	44	0	481296384	21	5063
2026-01-19 08:38:57.70	60.57	25.40	-30.9	-34.2	13.6	9.10e-06	0	44	0	486539264	21	5265
2026-01-19 08:39:00.70	59.70	25.51	-31.1	-34.2	13.3	9.90e-06	0	44	0	491782144	22	5175
2026-01-19 08:39:03.70	58.82	25.61	-31.4	-34.6	12.7	1.09e-04	0	44	0	498073600	23	5195
2026-01-19 08:39:06.71	57.94	25.70	-31.2	-34.1	13.0	3.81e-05	0	44	0	503316480	23	5026
2026-01-19 08:39:09.73	57.05	25.79	-31.0	-33.5	13.4	9.90e-06	0	44	0	508559360	23	4804
2026-01-19 08:39:12.73	56.16	25.86	-31.3	-34.2	12.9	4.27e-05	0	43	0	514850816	23	5070
2026-01-19 08:39:15.74	55.26	25.94	-31.3	-34.5	12.7	1.04e-04	0	44	0	520093696	23	5186
2026-01-19 08:39:18.74	54.36	26.00	-31.3	-34.4	12.8	6.02e-05	0	44	0	526385152	23	5145
2026-01-19 08:39:21.75	53.45	26.05	-31.3	-34.4	12.8	4.65e-05	0	44	0	531628032	23	5130
2026-01-19 08:39:24.77	52.54	26.10	-31.4	-34.6	12.6	9.38e-05	0	44	0	536870912	23	5226
2026-01-19 08:39:27.79	51.63	26.14	-31.4	-34.5	12.7	6.71e-05	0	44	0	543162368	23	5182
2026-01-19 08:39:30.81	50.71	26.17	-31.2	-34.0	13.1	2.82e-05	0	44	0	548405248	23	4984
2026-01-19 08:39:33.81	49.80	26.20	-30.9	-33.2	13.7	7.60e-06	0	44	0	553648128	23	4683
2026-01-19 08:39:36.82	48.89	26.21	-31.1	-33.9	13.2	1.22e-05	0	44	0	559939584	23	4932
2026-01-19 08:39:39.83	47.97	26.22	-30.7	-33.3	13.9	6.80e-06	0	44	0	565182464	22	4828
2026-01-19 08:39:42.84	47.05	26.22	-30.7	-33.2	14.0	1.50e-06	0	43	0	571473920	22	4800
2026-01-19 08:39:45.87	46.13	26.21	-30.4	-32.4	14.4	7.00e-07	0	44	0	576716800	22	4531
2026-01-19 08:39:48.87	45.22	26.20	-30.4	-32.4	14.4	0.00e+00	0	44	0	581959680	22	4550
2026-01-19 08:39:51.88	44.31	26.17	-30.4	-32.4	14.4	0.00e+00	0	43	0	588251136	22	4540
2026-01-19 08:39:54.89	43.39	26.14	-30.3	-32.6	14.6	7.00e-07	0	44	0	593494016	21	4691
2026-01-19 08:39:57.89	42.49	26.10	-29.9	-31.7	15.2	0.00e+00	0	44	0	599785472	21	4411
2026-01-19 08:40:00.90	41.58	26.05	-29.9	-31.7	15.1	0.00e+00	0	43	0	605028352	21	4416
2026-01-19 08:40:03.90	40.68	26.00	-29.8	-31.5	15.3	0.00e+00	0	44	0	610271232	21	4359
2026-01-19 08:40:06.91	39.78	25.93	-29.8	-31.8	15.4	0.00e+00	0	44	0	616562688	20	4560
2026-01-19 08:40:09.91	38.88	25.86	-29.8	-31.9	15.3	0.00e+00	0	44	0	621805568	20	4593
2026-01-19 08:40:12.92	37.99	25.78	-29.9	-32.2	15.1	0.00e+00	0	44	0	627048448	20	4681
2026-01-19 08:40:15.93	37.10	25.70	-30.0	-32.5	14.9	0.00e+00	0	44	0	633339904	20	4771
2026-01-19 08:40:18.93	36.22	25.60	-30.3	-33.1	14.5	7.00e-07	0	44	0	638582784	20	5008
2026-01-19 08:40:21.95	35.34	25.50	-30.3	-33.1	14.5	1.50e-06	0	44	0	644874240	20	4992
2026-01-19 08:40:24.96	34.47	25.40	-30.4	-33.5	14.3	7.00e-07	0	43	0	650117120	20	5127
2026-01-19 08:40:27.98	33.60	25.28	-30.9	-34.4	13.5	6.10e-06	0	44	0	655360000	21	5346
2026-01-19 08:40:31.00	32.74	25.16	-30.5	-33.3	14.1	1.50e-06	0	44	0	661651456	21	4957
2026-01-19 08:40:34.00	31.89	25.04	-30.8	-34.0	13.6	3.00e-06	0	43	0	666894336	21	5202
2026-01-19 08:40:37.01	31.04	24.90	-31.0	-34.2	13.2	1.90e-05	0	43	0	672137216	22	5157
2026-01-19 08:40:40.02	30.21	24.76	-31.0	-34.0	13.3	1.14e-05	0	44	0	678428672	22	5097
2026-01-19 08:40:43.03	29.38	24.62	-31.1	-34.2	13.2	2.36e-05	0	43	0	683671552	22	5189
2026-01-19 08:40:46.05	28.55	24.47	-31.0	-34.2	13.2	1.90e-05	0	44	0	689963008	22	5169
2026-01-19 08:40:49.04	27.74	24.31	-31.0	-34.0	13.3	2.21e-05	0	44	0	695205888	22	5108
2026-01-19 08:40:52.05	26.94	24.15	-31.1	-34.2	13.2	2.21e-05	0	43	0	700448768	22	5182
2026-01-19 08:40:55.05	26.14	23.99	-31.1	-34.3	13.1	2.44e-05	0	43	0	706740224	22	5219
2026-01-19 08:40:58.05	25.36	23.82	-31.4	-35.1	12.6	6.02e-05	0	44	0	711983104	22	5522
2026-01-19 08:41:01.04	24.58	23.64	-31.7	-35.7	11.8	3.13e-04	0	43	0	717225984	23	5669
2026-01-19 08:41:04.05	23.81	23.46	-30.9	-33.4	13.3	2.51e-05	0	44	0	723517440	23	4782
2026-01-19 08:41:07.06	23.05	23.28	-30.9	-33.3	13.4	1.83e-05	0	44	0	728760320	23	4754
2026-01-19 08:41:10.06	22.30	23.09	-31.0	-33.7	13.1	3.20e-05	0	44	0	735051776	23	4879
2026-01-19 08:41:13.05	21.56	22.90	-30.8	-33.1	13.6	1.14e-05	0	44	0	740294656	23	4673
2026-01-19 08:41:16.07	20.82	22.70	-30.7	-33.3	13.7	6.10e-06	0	44	0	745537536	22	4844
2026-01-19 08:41:19.09	20.09	22.50	-30.6	-32.9	14.0	3.80e-06	0	44	0	751828992	22	4705
2026-01-19 08:41:22.11	19.38	22.30	-30.4	-32.5	14.2	1.50e-06	0	44	0	757071872	22	4562
2026-01-19 08:41:25.13	18.67	22.09	-30.3	-32.6	14.4	1.50e-06	0	44	0	762314752	21	4731
2026-01-19 08:41:28.14	17.97	21.88	-30.3	-32.8	14.3	0.00e+00	0	43	0	768606208	21	4794
2026-01-19 08:41:31.15	17.28	21.67	-30.2	-32.4	14.5	7.00e-07	0	43	0	773849088	21	4660
2026-01-19 08:41:34.15	16.61	21.46	-30.2	-32.6	14.4	7.00e-07	0	44	0	780140544	21	4709
2026-01-19 08:41:37.16	15.94	21.24	-30.5	-33.2	14.0	2.20e-06	0	44	0	785383424	21	4916
2026-01-19 08:41:40.16	15.28	21.02	-30.3	-32.9	14.2	2.20e-06	0	44	0	790626304	21	4811
2026-01-19 08:41:43.17	14.64	20.80	-30.1	-32.1	14.7	0.00e+00	0	43	0	796917760	21	4565
2026-01-19 08:41:46.17	14.00	20.58	-29.9	-31.8	14.9	0.00e+00	0	44	0	802160640	21	4462
2026-01-19 08:41:49.18	13.37	20.36	-29.8	-31.6	15.0	0.00e+00	0	44	0	808452096	21	4399
2026-01-19 08:41:52.19	12.75	20.13	-29.6	-31.6	15.2	0.00e+00	0	44	0	813694976	20	4507
2026-01-19 08:41:55.20	12.13	19.90	-29.6	-31.5	15.3	0.00e+00	0	43	0	818937856	20	4474
2026-01-19 08:41:58.21	11.53	19.68	-29.6	-31.5	15.3	0.00e+00	0	44	0	825229312	20	4469
2026-01-19 08:42:01.21	10.94	19.45	-29.4	-31.1	15.5	0.00e+00	0	44	0	830472192	20	4347
2026-01-19 08:42:04.22	10.36	19.22	-29.4	-30.9	15.7	0.00e+00	0	44	0	835715072	20	4302
2026-01-19 08:42:07.23	9.78	18.98	-29.4	-30.9	15.6	0.00e+00	0	44	0	842006528	20	4302
2026-01-19 08:42:10.24	9.21	18.75	-29.4	-31.1	15.5	0.00e+00	0	44	0	847249408	20	4351
2026-01-19 08:42:13.27	8.65	18.52	-29.5	-31.3	15.4	0.00e+00	0	44	0	853540864	20	4409
2026-01-19 08:42:16.26	8.11	18.28	-29.5	-31.4	15.4	0.00e+00	0	44	0	858783744	20	4448
2026-01-19 08:42:19.28	7.56	18.05	-29.6	-31.4	15.3	0.00e+00	0	44	0	864026624	20	4469
2026-01-19 08:42:22.28	7.03	17.82	-29.5	-31.3	15.4	0.00e+00	0	44	0	870318080	20	4413
2026-01-19 08:42:25.28	6.51	17.58	-29.6	-31.6	15.2	0.00e+00	0	44	0	875560960	20	4512
2026-01-19 08:42:28.29	6.00	17.35	-29.8	-32.1	14.9	0.00e+00	0	44	0	880803840	20	4676
2026-01-19 08:42:31.30	5.49	17.11	-30.0	-32.5	14.5	0.00e+00	0	44	0	887095296	20	4823
2026-01-19 08:42:34.31	4.99	16.88	-30.0	-32.5	14.6	0.00e+00	0	44	0	892338176	20	4810
2026-01-19 08:42:37.32	4.50	16.64	-30.1	-32.9	14.3	0.00e+00	0	44	0	898629632	20	4944
2026-01-19 08:42:40.32	4.01	16.41	-30.3	-33.4	13.9	2.20e-06	0	44	0	903872512	20	5153
2026-01-19 08:42:43.32	3.54	16.17	-30.5	-33.5	13.5	6.10e-06	0	44	0	909115392	21	5081
2026-01-19 08:42:46.32	3.07	15.94	-30.7	-33.9	13.3	1.75e-05	0	44	0	915406848	21	5200
2026-01-19 08:42:49.32	2.61	15.70	-30.5	-33.6	13.5	1.06e-05	0	44	0	920649728	21	5100
2026-01-19 08:42:52.34	2.16	15.47	-30.5	-33.4	13.6	1.75e-05	0	44	0	925892608	21	5043
2026-01-19 08:42:55.35	1.71	15.24	-30.4	-33.1	13.8	3.00e-06	0	43	0	932184064	21	4926
2026-01-19 08:42:58.36	1.27	15.00	-30.5	-33.4	13.6	9.90e-06	0	44	0	937426944	21	5029
2026-01-19 08:43:01.36	0.84	14.77	-30.6	-33.6	13.4	6.10e-06	0	44	0	943718400	21	5119
2026-01-19 08:43:04.38	0.41	14.54	-30.7	-33.9	13.2	1.98e-05	0	44	0	948961280	21	5238
2026-01-19 08:43:07.38	359.99	14.31	-30.8	-34.3	12.9	4.50e-05	0	44	0	954204160	21	5377
2026-01-19 08:43:10.38	359.58	14.08	-30.8	-34.2	13.0	3.43e-05	0	44	0	960495616	21	5370
2026-01-19 08:43:13.38	359.18	13.85	-30.8	-34.3	12.9	5.79e-05	0	44	0	965738496	21	5387
2026-01-19 08:43:16.38	358.78	13.62	-30.8	-34.5	12.6	7.40e-05	0	44	0	970981376	21	5505
2026-01-19 08:43:19.40	358.39	13.39	-31.0	-34.9	12.4	1.46e-04	0	44	0	977272832	21	5647
2026-01-19 08:43:22.42	358.00	13.16	-30.9	-34.0	12.6	1.40e-04	0	44	0	982515712	22	5200
2026-01-19 08:43:25.42	357.62	12.94	-30.9	-34.3	12.5	1.47e-04	0	44	0	988807168	22	5280
2026-01-19 08:43:28.42	357.24	12.71	-31.1	-34.8	12.1	2.14e-04	0	44	0	994050048	22	5487
2026-01-19 08:43:31.42	356.88	12.49	-31.1	-34.9	12.0	3.68e-04	0	44	0	999292928	22	5566
2026-01-19 08:43:34.43	356.51	12.26	-31.2	-35.3	11.7	4.33e-04	0	44	0	1005584384	22	5716
2026-01-19 08:43:37.45	356.15	12.04	-31.3	-35.4	11.6	8.54e-04	0	44	0	1010827264	22	5798
2026-01-19 08:43:40.45	355.80	11.82	-31.3	-35.6	11.5	6.76e-04	0	44	0	1016070144	22	5861
2026-01-19 08:43:43.46	355.46	11.60	-31.2	-34.8	11.7	4.97e-04	0	44	0	1022361600	23	5394
2026-01-19 08:43:46.47	355.11	11.38	-31.3	-35.0	11.5	8.41e-04	0	44	0	1027604480	23	5520
2026-01-19 08:43:49.49	354.78	11.16	-31.4	-35.3	11.3	7.99e-04	0	44	0	1033895936	23	5640
2026-01-19 08:43:52.50	354.45	10.94	-31.5	-35.5	11.1	1.61e-03	0	44	0	1039138816	23	5747
2026-01-19 08:43:55.51	354.12	10.72	-31.4	-35.3	11.2	1.31e-03	0	44	0	1044381696	23	5628
2026-01-19 08:43:58.52	353.80	10.50	-31.4	-35.3	11.2	1.40e-03	0	44	0	1050673152	23	5635
2026-01-19 08:44:01.52	353.48	10.29	-31.3	-35.2	11.2	1.53e-03	0	44	0	1055916032	23	5621
2026-01-19 08:44:04.54	353.17	10.07	-31.3	-34.9	11.4	1.04e-03	0	44	0	1062207488	23	5489
2026-01-19 08:44:07.55	352.86	9.86	-31.4	-35.2	11.2	1.46e-03	0	44	0	1067450368	23	5628
2026-01-19 08:44:10.54	352.56	9.65	-31.4	-35.5	11.0	2.12e-03	0	44	0	1072693248	23	5746
2026-01-19 08:44:13.56	352.26	9.44	-31.5	-35.8	10.7	2.44e-03	0	43	0	1078984704	23	5894
2026-01-19 08:44:16.57	351.97	9.23	-31.6	-36.0	10.6	3.51e-03	0	44	0	1084227584	23	5992
2026-01-19 08:44:19.56	351.68	9.02	-31.7	-36.4	10.2	6.86e-03	0	44	0	1089470464	23	6204
2026-01-19 08:44:22.57	351.40	8.81	-31.5	-35.9	10.5	4.05e-03	0	44	0	1095761920	23	5985
2026-01-19 08:44:25.58	351.12	8.60	-31.8	-36.8	9.8	8.06e-03	0	44	0	1101004800	23	6433
2026-01-19 08:44:28.59	350.84	8.40	-31.8	-36.9	9.8	8.39e-03	0	44	0	1107296256	23	6470
2026-01-19 08:44:31.60	350.57	8.19	-31.8	-36.8	9.8	8.15e-03	0	44	0	1112539136	23	6466
2026-01-19 08:44:34.60	350.30	7.99	-31.5	-35.9	10.5	4.66e-03	0	44	0	1117782016	23	5966
2026-01-19 08:44:37.62	350.04	7.79	-31.5	-35.8	10.5	3.57e-03	0	44	0	1124073472	23	5969
2026-01-19 08:44:40.62	349.78	7.58	-31.5	-36.1	10.2	4.36e-03	0	44	0	1129316352	23	6105
2026-01-19 08:44:43.64	349.52	7.38	-31.6	-36.4	10.0	7.04e-03	0	44	0	1134559232	23	6244
2026-01-19 08:44:46.66	349.27	7.18	-31.6	-36.2	10.1	7.62e-03	0	44	0	1140850688	23	6152

#Closed at: 2026-01-19 08:44:49
#Recorded file [1143 MB]: D:/data/31010_260119_113437.dat