passes_logs/2026/01/19/R2M6_AANII_01/R2M6_AANII_01__20260119_115508_NOAA_20_JPSS-1_rec.log

#Pass ID: 20260119_115508_NOAA 20 (JPSS-1)
#Satellite: NOAA 20 (JPSS-1)
#Configuration: NOAA 20
#almurnet v.1.7.20240730
#Start time: 2026-01-19 11:55:09

#Version: 2.2.20231116
#Station: R2M6_AANII_01
#Location: 30.233357 lon 59.946436 lat
#TLE: 1 43013U 17073A   26017.93796159  .00000077  00000+0  57252-4 0  9992
#TLE: 2 43013  98.7639 318.8464 0001390  34.9771 325.1496 14.19536703423157

#Time	Az	El	Level	Level2	SNR	BER	BlckErr	Temp	State	Recorded	gain1	gain2
2026-01-19 11:55:09.00	212.49	7.00	-30.9	-34.9	5.5	1.14e+00	0	41	0	0	23	5663
2026-01-19 11:55:12.01	212.78	7.19	-31.7	-37.5	8.4	4.07e-02	0	41	0	1048576	23	7079
2026-01-19 11:55:15.01	213.06	7.39	-31.2	-35.6	10.0	1.19e-02	0	41	0	7340032	23	5970
2026-01-19 11:55:18.01	213.35	7.58	-30.9	-34.5	11.0	2.08e-03	0	42	0	12582912	23	5446
2026-01-19 11:55:21.01	213.65	7.77	-31.0	-34.6	10.9	1.98e-03	0	42	0	17825792	23	5507
2026-01-19 11:55:24.02	213.95	7.96	-30.8	-34.7	11.2	1.24e-03	0	42	0	24117248	22	5639
2026-01-19 11:55:27.04	214.25	8.16	-30.8	-34.5	11.4	7.72e-04	0	42	0	29360128	22	5524
2026-01-19 11:55:30.04	214.56	8.36	-30.7	-34.2	11.6	6.46e-04	0	42	0	35651584	22	5412
2026-01-19 11:55:33.05	214.87	8.55	-30.8	-34.6	11.5	7.63e-04	0	42	0	40894464	22	5549
2026-01-19 11:55:36.06	215.18	8.75	-30.9	-34.8	11.3	9.17e-04	0	42	0	46137344	22	5640
2026-01-19 11:55:39.07	215.50	8.95	-30.9	-34.7	11.4	1.10e-03	0	42	0	52428800	22	5609
2026-01-19 11:55:42.08	215.83	9.15	-30.9	-34.8	11.4	8.75e-04	0	42	0	57671680	22	5621
2026-01-19 11:55:45.10	216.15	9.35	-30.9	-34.7	11.4	8.59e-04	0	42	0	63963136	22	5608
2026-01-19 11:55:48.10	216.49	9.55	-30.6	-33.8	12.1	2.97e-04	0	42	0	69206016	22	5202
2026-01-19 11:55:51.10	216.82	9.75	-30.6	-33.7	12.2	2.26e-04	0	42	0	74448896	22	5145
2026-01-19 11:55:54.10	217.16	9.95	-30.5	-33.5	12.3	2.48e-04	0	42	0	80740352	22	5095
2026-01-19 11:55:57.11	217.51	10.16	-30.5	-33.4	12.4	1.63e-04	0	42	0	85983232	22	5047
2026-01-19 11:56:00.12	217.86	10.36	-30.5	-33.5	12.4	1.47e-04	0	42	0	91226112	22	5063
2026-01-19 11:56:03.14	218.21	10.57	-30.6	-33.6	12.3	1.69e-04	0	43	0	97517568	22	5115
2026-01-19 11:56:06.15	218.57	10.77	-30.6	-33.7	12.3	2.07e-04	0	43	0	102760448	22	5162
2026-01-19 11:56:09.16	218.94	10.98	-30.7	-34.1	12.1	3.39e-04	0	43	0	109051904	22	5301
2026-01-19 11:56:12.16	219.31	11.19	-30.8	-34.3	11.9	3.71e-04	0	43	0	114294784	22	5388
2026-01-19 11:56:15.16	219.68	11.39	-30.8	-34.2	12.0	4.49e-04	0	43	0	119537664	22	5362
2026-01-19 11:56:18.17	220.06	11.60	-30.6	-33.7	12.4	1.81e-04	0	43	0	125829120	22	5145
2026-01-19 11:56:21.18	220.44	11.81	-30.5	-33.4	12.6	8.69e-05	0	43	0	131072000	22	5012
2026-01-19 11:56:24.18	220.83	12.02	-30.5	-33.4	12.6	7.17e-05	0	43	0	136314880	22	5028
2026-01-19 11:56:27.19	221.23	12.23	-30.4	-33.0	12.9	4.88e-05	0	43	0	142606336	22	4874
2026-01-19 11:56:30.20	221.63	12.44	-30.4	-33.1	12.9	4.11e-05	0	43	0	147849216	22	4893
2026-01-19 11:56:33.22	222.04	12.66	-30.3	-32.9	13.0	3.73e-05	0	43	0	154140672	22	4815
2026-01-19 11:56:36.22	222.45	12.87	-30.3	-32.8	13.1	2.44e-05	0	43	0	159383552	22	4801
2026-01-19 11:56:39.23	222.87	13.08	-30.5	-33.2	12.8	3.81e-05	0	43	0	164626432	22	4936
2026-01-19 11:56:42.24	223.29	13.29	-30.5	-33.3	12.8	6.33e-05	0	43	0	170917888	22	4964
2026-01-19 11:56:45.24	223.72	13.51	-30.5	-33.3	12.8	7.47e-05	0	43	0	176160768	22	4972
2026-01-19 11:56:48.25	224.16	13.72	-30.8	-34.3	12.1	2.21e-04	0	43	0	181403648	22	5365
2026-01-19 11:56:51.26	224.60	13.93	-30.5	-33.4	12.7	6.94e-05	0	43	0	187695104	22	4989
2026-01-19 11:56:54.26	225.05	14.15	-30.5	-33.1	13.0	4.95e-05	0	43	0	192937984	22	4901
2026-01-19 11:56:57.26	225.50	14.36	-30.3	-33.1	13.3	1.44e-05	0	43	0	199229440	21	4990
2026-01-19 11:57:00.26	225.96	14.58	-30.4	-33.5	13.1	2.67e-05	0	43	0	204472320	21	5121
2026-01-19 11:57:03.26	226.43	14.79	-30.4	-33.4	13.1	3.58e-05	0	43	0	209715200	21	5106
2026-01-19 11:57:06.26	226.90	15.01	-30.5	-33.8	12.9	3.58e-05	0	43	0	216006656	21	5254
2026-01-19 11:57:09.27	227.38	15.22	-30.2	-32.8	13.6	1.22e-05	0	43	0	221249536	21	4860
2026-01-19 11:57:12.27	227.87	15.44	-30.0	-32.5	13.8	6.10e-06	0	43	0	226492416	21	4754
2026-01-19 11:57:15.27	228.36	15.65	-30.0	-32.2	14.0	1.50e-06	0	43	0	232783872	21	4665
2026-01-19 11:57:18.28	228.87	15.87	-30.0	-32.4	13.9	4.50e-06	0	43	0	238026752	21	4722
2026-01-19 11:57:21.28	229.37	16.08	-29.9	-32.1	14.0	1.50e-06	0	43	0	244318208	21	4633
2026-01-19 11:57:24.29	229.89	16.30	-30.0	-32.3	14.0	1.50e-06	0	43	0	249561088	21	4700
2026-01-19 11:57:27.29	230.41	16.51	-30.1	-32.7	13.7	8.30e-06	0	43	0	254803968	21	4824
2026-01-19 11:57:30.29	230.94	16.72	-30.3	-33.0	13.5	8.30e-06	0	43	0	261095424	21	4938
2026-01-19 11:57:33.30	231.48	16.94	-30.3	-33.2	13.4	1.06e-05	0	43	0	266338304	21	5002
2026-01-19 11:57:36.30	232.02	17.15	-30.3	-33.1	13.5	6.80e-06	0	43	0	271581184	21	4978
2026-01-19 11:57:39.31	232.57	17.36	-30.3	-33.1	13.5	1.52e-05	0	43	0	277872640	21	4973
2026-01-19 11:57:42.32	233.13	17.57	-30.2	-32.7	13.8	6.10e-06	0	43	0	283115520	21	4826
2026-01-19 11:57:45.32	233.70	17.78	-30.2	-32.7	13.8	9.10e-06	0	43	0	289406976	21	4823
2026-01-19 11:57:48.33	234.27	17.99	-30.3	-32.9	13.7	7.60e-06	0	44	0	294649856	21	4894
2026-01-19 11:57:51.34	234.86	18.20	-29.8	-31.8	14.4	2.20e-06	0	44	0	299892736	21	4502
2026-01-19 11:57:54.36	235.45	18.41	-29.8	-32.1	14.5	0.00e+00	0	43	0	306184192	20	4722
2026-01-19 11:57:57.36	236.05	18.62	-29.7	-31.8	14.7	0.00e+00	0	44	0	311427072	20	4628
2026-01-19 11:58:00.37	236.66	18.82	-29.8	-32.2	14.5	0.00e+00	0	44	0	316669952	20	4734
2026-01-19 11:58:03.37	237.27	19.02	-29.7	-32.0	14.6	7.00e-07	0	44	0	322961408	20	4665
2026-01-19 11:58:06.39	237.89	19.23	-29.5	-31.4	15.0	1.50e-06	0	44	0	328204288	20	4494
2026-01-19 11:58:09.40	238.53	19.43	-29.7	-31.8	14.8	7.00e-07	0	44	0	334495744	20	4616
2026-01-19 11:58:12.41	239.16	19.62	-29.7	-31.8	14.8	0.00e+00	0	44	0	339738624	20	4608
2026-01-19 11:58:15.42	239.81	19.82	-29.7	-31.8	14.8	0.00e+00	0	44	0	344981504	20	4587
2026-01-19 11:58:18.43	240.47	20.02	-29.8	-32.0	14.7	7.00e-07	0	44	0	351272960	20	4671
2026-01-19 11:58:21.43	241.13	20.21	-29.8	-32.1	14.6	0.00e+00	0	44	0	356515840	20	4705
2026-01-19 11:58:24.44	241.80	20.40	-30.0	-32.6	14.3	1.50e-06	0	44	0	361758720	20	4879
2026-01-19 11:58:27.45	242.48	20.58	-30.0	-32.7	14.3	2.20e-06	0	44	0	368050176	20	4920
2026-01-19 11:58:30.46	243.17	20.77	-30.2	-33.3	13.9	3.00e-06	0	44	0	373293056	20	5105
2026-01-19 11:58:33.46	243.86	20.95	-30.4	-33.7	13.7	3.00e-06	0	44	0	379584512	20	5260
2026-01-19 11:58:36.47	244.56	21.13	-30.4	-33.8	13.6	9.10e-06	0	43	0	384827392	20	5317
2026-01-19 11:58:39.49	245.28	21.30	-30.8	-34.2	13.0	3.58e-05	0	44	0	390070272	21	5366
2026-01-19 11:58:42.49	245.99	21.48	-30.9	-34.5	12.8	5.41e-05	0	44	0	396361728	21	5486
2026-01-19 11:58:45.50	246.72	21.64	-30.7	-33.9	13.2	3.12e-05	0	43	0	401604608	21	5230
2026-01-19 11:58:48.51	247.46	21.81	-30.3	-33.0	13.8	7.60e-06	0	44	0	407896064	21	4905
2026-01-19 11:58:51.52	248.20	21.97	-30.3	-32.9	13.9	3.80e-06	0	44	0	413138944	21	4869
2026-01-19 11:58:54.51	248.94	22.13	-30.4	-33.2	13.7	9.10e-06	0	44	0	418381824	21	4949
2026-01-19 11:58:57.52	249.70	22.28	-30.4	-33.1	13.8	8.30e-06	0	44	0	424673280	21	4919
2026-01-19 11:59:00.52	250.46	22.43	-30.4	-33.3	13.7	3.80e-06	0	44	0	429916160	21	4999
2026-01-19 11:59:03.54	251.24	22.58	-30.4	-33.1	13.8	1.29e-05	0	44	0	435159040	21	4919
2026-01-19 11:59:06.54	252.01	22.72	-30.8	-34.3	13.1	9.90e-06	0	44	0	441450496	21	5365
2026-01-19 11:59:09.55	252.80	22.85	-31.0	-34.4	12.7	8.01e-05	0	44	0	446693376	22	5313
2026-01-19 11:59:12.56	253.59	22.98	-30.9	-34.1	12.8	6.56e-05	0	44	0	452984832	22	5201
2026-01-19 11:59:15.57	254.38	23.11	-30.7	-33.5	13.3	2.51e-05	0	44	0	458227712	22	4958
2026-01-19 11:59:18.60	255.19	23.23	-30.9	-33.9	13.0	3.58e-05	0	44	0	463470592	22	5100
2026-01-19 11:59:21.61	256.00	23.35	-30.8	-33.9	13.1	2.67e-05	0	44	0	469762048	22	5094
2026-01-19 11:59:24.61	256.82	23.46	-30.9	-34.0	12.9	3.50e-05	0	44	0	475004928	22	5163
2026-01-19 11:59:27.61	257.64	23.56	-30.7	-33.4	13.4	1.60e-05	0	44	0	480247808	22	4917
2026-01-19 11:59:30.62	258.46	23.66	-30.9	-33.9	13.0	2.82e-05	0	44	0	486539264	22	5118
2026-01-19 11:59:33.62	259.29	23.75	-31.0	-34.2	12.8	5.03e-05	0	44	0	491782144	22	5216
2026-01-19 11:59:36.62	260.12	23.84	-31.1	-34.4	12.7	8.62e-05	0	44	0	498073600	22	5320
2026-01-19 11:59:39.63	260.96	23.92	-31.1	-34.5	12.7	7.55e-05	0	44	0	503316480	22	5325
2026-01-19 11:59:42.64	261.81	24.00	-31.4	-35.6	11.9	4.13e-04	0	44	0	508559360	22	5806
2026-01-19 11:59:45.63	262.65	24.07	-31.5	-35.2	11.8	5.05e-04	0	44	0	514850816	23	5541
2026-01-19 11:59:48.64	263.50	24.13	-31.4	-34.8	12.0	3.09e-04	0	44	0	520093696	23	5374
2026-01-19 11:59:51.66	264.36	24.19	-31.3	-34.7	12.2	3.54e-04	0	44	0	525336576	23	5305
2026-01-19 11:59:54.67	265.22	24.24	-30.8	-33.6	13.2	1.75e-05	0	44	0	531628032	22	5001
2026-01-19 11:59:57.67	266.07	24.28	-30.6	-33.1	13.6	1.83e-05	0	44	0	536870912	22	4796
2026-01-19 12:00:00.68	266.93	24.32	-30.4	-32.6	13.9	3.00e-06	0	44	0	543162368	22	4624
2026-01-19 12:00:03.68	267.80	24.35	-30.6	-33.0	13.6	4.50e-06	0	44	0	548405248	22	4778
2026-01-19 12:00:06.70	268.66	24.37	-31.0	-34.2	12.8	3.43e-05	0	44	0	553648128	22	5215
2026-01-19 12:00:09.71	269.53	24.39	-30.9	-34.0	13.0	5.41e-05	0	44	0	559939584	22	5146
2026-01-19 12:00:12.72	270.40	24.40	-30.6	-33.1	13.6	1.52e-05	0	44	0	565182464	22	4816
2026-01-19 12:00:15.72	271.26	24.40	-30.5	-32.9	13.8	6.10e-06	0	44	0	570425344	22	4728
2026-01-19 12:00:18.73	272.13	24.40	-30.8	-33.6	13.3	1.44e-05	0	44	0	576716800	22	4991
2026-01-19 12:00:21.73	272.99	24.39	-30.6	-33.1	13.6	3.00e-06	0	44	0	581959680	22	4817
2026-01-19 12:00:24.74	273.86	24.37	-30.4	-32.6	13.9	6.80e-06	0	44	0	588251136	22	4620
2026-01-19 12:00:27.75	274.72	24.35	-30.6	-33.2	13.6	3.00e-06	0	44	0	593494016	22	4834
2026-01-19 12:00:30.76	275.58	24.32	-30.7	-33.4	13.5	7.60e-06	0	44	0	598736896	22	4899
2026-01-19 12:00:33.76	276.44	24.28	-30.5	-32.9	13.7	6.10e-06	0	44	0	605028352	22	4750
2026-01-19 12:00:36.76	277.30	24.24	-30.6	-33.2	13.6	5.30e-06	0	44	0	610271232	22	4852
2026-01-19 12:00:39.77	278.15	24.19	-30.8	-33.7	13.3	1.06e-05	0	44	0	615514112	22	5011
2026-01-19 12:00:42.78	279.01	24.13	-31.1	-34.5	12.7	7.17e-05	0	44	0	621805568	22	5347
2026-01-19 12:00:45.79	279.86	24.07	-31.0	-34.4	12.8	7.78e-05	0	44	0	627048448	22	5286
2026-01-19 12:00:48.82	280.71	24.00	-30.8	-33.6	13.3	1.52e-05	0	44	0	633339904	22	4971
2026-01-19 12:00:51.83	281.55	23.92	-30.7	-33.5	13.4	7.60e-06	0	44	0	638582784	22	4952
2026-01-19 12:00:54.83	282.39	23.84	-30.6	-33.2	13.6	7.60e-06	0	44	0	643825664	22	4834
2026-01-19 12:00:57.84	283.22	23.76	-30.9	-34.0	13.1	2.21e-05	0	44	0	650117120	22	5139
2026-01-19 12:01:00.86	284.06	23.66	-30.6	-33.1	13.7	1.06e-05	0	44	0	655360000	22	4791
2026-01-19 12:01:03.87	284.88	23.56	-30.6	-33.2	13.6	8.30e-06	0	44	0	661651456	22	4827
2026-01-19 12:01:06.87	285.70	23.46	-30.4	-32.7	13.9	5.30e-06	0	44	0	666894336	22	4653
2026-01-19 12:01:09.87	286.51	23.35	-30.2	-32.5	14.3	7.00e-07	0	44	0	672137216	21	4698
2026-01-19 12:01:12.88	287.31	23.24	-30.3	-32.9	14.0	7.00e-07	0	44	0	678428672	21	4850
2026-01-19 12:01:15.88	288.11	23.12	-30.1	-32.3	14.5	7.00e-07	0	44	0	683671552	21	4630
2026-01-19 12:01:18.90	288.91	22.99	-30.0	-32.1	14.5	1.50e-06	0	44	0	688914432	21	4573
2026-01-19 12:01:21.91	289.70	22.86	-30.0	-31.9	14.7	0.00e+00	0	44	0	695205888	21	4523
2026-01-19 12:01:24.91	290.48	22.72	-29.8	-31.5	14.9	0.00e+00	0	44	0	700448768	21	4394
2026-01-19 12:01:27.90	291.25	22.59	-29.6	-31.6	15.2	0.00e+00	0	44	0	706740224	20	4505
2026-01-19 12:01:30.90	292.02	22.44	-29.3	-30.8	15.6	0.00e+00	0	44	0	711983104	20	4281
2026-01-19 12:01:33.90	292.78	22.29	-29.2	-31.1	15.8	0.00e+00	0	44	0	717225984	19	4467
2026-01-19 12:01:36.91	293.53	22.14	-29.4	-31.5	15.6	7.00e-07	0	44	0	723517440	19	4585
2026-01-19 12:01:39.92	294.28	21.98	-29.3	-31.3	15.7	0.00e+00	0	44	0	728760320	19	4541
2026-01-19 12:01:42.93	295.02	21.82	-29.9	-32.7	14.9	0.00e+00	0	44	0	734003200	19	4971
2026-01-19 12:01:45.93	295.75	21.66	-30.3	-33.4	14.0	1.50e-06	0	44	0	740294656	20	5136
2026-01-19 12:01:48.96	296.48	21.49	-30.0	-32.7	14.5	0.00e+00	0	44	0	745537536	20	4868
2026-01-19 12:01:51.97	297.19	21.32	-29.7	-31.8	15.0	0.00e+00	0	44	0	751828992	20	4594
2026-01-19 12:01:54.97	297.90	21.15	-29.5	-31.4	15.3	0.00e+00	0	44	0	757071872	20	4455
2026-01-19 12:01:57.98	298.60	20.97	-29.9	-32.2	14.8	0.00e+00	0	44	0	762314752	20	4726
2026-01-19 12:02:00.98	299.29	20.79	-30.6	-33.8	13.4	7.60e-06	0	44	0	768606208	21	5167
2026-01-19 12:02:03.99	299.97	20.61	-30.8	-34.3	13.1	2.97e-05	0	44	0	773849088	21	5356
2026-01-19 12:02:07.00	300.65	20.42	-30.8	-34.1	13.2	1.90e-05	0	44	0	779091968	21	5297
2026-01-19 12:02:10.01	301.32	20.23	-30.6	-33.6	13.5	2.21e-05	0	44	0	785383424	21	5096
2026-01-19 12:02:13.01	301.98	20.04	-30.2	-32.6	14.2	7.00e-07	0	44	0	790626304	21	4738
2026-01-19 12:02:16.02	302.63	19.85	-30.3	-33.0	13.9	1.50e-06	0	44	0	796917760	21	4866
2026-01-19 12:02:19.03	303.28	19.66	-30.7	-34.1	13.2	1.83e-05	0	44	0	802160640	21	5294
2026-01-19 12:02:22.05	303.92	19.46	-30.9	-34.5	12.9	3.50e-05	0	44	0	807403520	21	5471
2026-01-19 12:02:25.06	304.54	19.26	-30.9	-34.6	12.8	5.56e-05	0	44	0	813694976	21	5492
2026-01-19 12:02:28.06	305.16	19.06	-30.9	-34.5	12.9	5.11e-05	0	44	0	818937856	21	5467
2026-01-19 12:02:31.06	305.77	18.86	-31.4	-35.5	11.9	2.77e-04	0	44	0	824180736	22	5759
2026-01-19 12:02:34.08	306.38	18.65	-31.0	-34.4	12.6	9.23e-05	0	44	0	830472192	22	5290
2026-01-19 12:02:37.09	306.98	18.45	-30.9	-34.0	12.9	5.87e-05	0	44	0	835715072	22	5131
2026-01-19 12:02:40.11	307.57	18.24	-30.6	-33.2	13.4	1.98e-05	0	44	0	842006528	22	4865
2026-01-19 12:02:43.11	308.15	18.04	-30.6	-33.2	13.4	1.29e-05	0	44	0	847249408	22	4867
2026-01-19 12:02:46.11	308.72	17.83	-30.7	-33.4	13.2	1.90e-05	0	44	0	852492288	22	4942
2026-01-19 12:02:49.12	309.28	17.62	-31.0	-34.4	12.6	6.48e-05	0	44	0	858783744	22	5318
2026-01-19 12:02:52.13	309.84	17.41	-31.0	-34.5	12.5	1.13e-04	0	44	0	864026624	22	5354
2026-01-19 12:02:55.14	310.39	17.20	-31.1	-34.8	12.2	2.23e-04	0	44	0	869269504	22	5480
2026-01-19 12:02:58.17	310.94	16.99	-31.0	-34.3	12.6	6.63e-05	0	44	0	875560960	22	5283
2026-01-19 12:03:01.17	311.47	16.78	-31.4	-35.6	11.7	4.24e-04	0	44	0	880803840	22	5851
2026-01-19 12:03:04.18	312.00	16.57	-31.4	-35.1	11.7	1.21e-03	0	44	0	887095296	23	5494
2026-01-19 12:03:07.19	312.52	16.35	-30.6	-33.3	13.3	1.52e-05	0	44	0	892338176	22	4891
2026-01-19 12:03:10.20	313.04	16.14	-30.8	-33.9	12.8	3.89e-05	0	44	0	897581056	22	5120
2026-01-19 12:03:13.22	313.55	15.93	-30.9	-34.2	12.6	1.01e-04	0	44	0	903872512	22	5239
2026-01-19 12:03:16.22	314.05	15.71	-30.8	-33.9	12.8	4.42e-05	0	44	0	909115392	22	5143
2026-01-19 12:03:19.23	314.54	15.50	-31.0	-34.3	12.5	8.16e-05	0	44	0	915406848	22	5287
2026-01-19 12:03:22.23	315.02	15.29	-31.2	-35.0	12.0	2.60e-04	0	44	0	920649728	22	5600
2026-01-19 12:03:25.25	315.51	15.07	-31.1	-34.8	12.2	3.03e-04	0	44	0	925892608	22	5515
2026-01-19 12:03:28.25	315.98	14.86	-30.9	-34.1	12.6	7.40e-05	0	44	0	932184064	22	5209
2026-01-19 12:03:31.27	316.45	14.65	-30.9	-34.2	12.6	7.70e-05	0	44	0	937426944	22	5255
2026-01-19 12:03:34.27	316.90	14.43	-31.2	-35.1	11.9	3.19e-04	0	44	0	942669824	22	5636
2026-01-19 12:03:37.27	317.36	14.22	-30.9	-34.3	12.5	1.52e-04	0	44	0	948961280	22	5291
2026-01-19 12:03:40.29	317.81	14.01	-30.8	-33.9	12.7	7.62e-05	0	44	0	954204160	22	5146
2026-01-19 12:03:43.30	318.25	13.80	-30.9	-34.2	12.5	6.71e-05	0	44	0	960495616	22	5271
2026-01-19 12:03:46.31	318.68	13.59	-31.2	-35.2	11.8	4.07e-04	0	44	0	965738496	22	5664
2026-01-19 12:03:49.32	319.11	13.37	-31.0	-34.6	12.2	2.56e-04	0	44	0	970981376	22	5431
2026-01-19 12:03:52.32	319.53	13.16	-30.9	-34.1	12.5	1.60e-04	0	44	0	977272832	22	5243
2026-01-19 12:03:55.32	319.95	12.95	-30.9	-34.3	12.4	1.09e-04	0	44	0	982515712	22	5321
2026-01-19 12:03:58.33	320.36	12.74	-31.2	-35.2	11.7	4.87e-04	0	44	0	987758592	22	5704
2026-01-19 12:04:01.34	320.77	12.53	-31.1	-34.9	12.0	3.39e-04	0	44	0	994050048	22	5567
2026-01-19 12:04:04.35	321.17	12.32	-31.1	-34.7	12.0	4.62e-04	0	44	0	999292928	22	5501
2026-01-19 12:04:07.37	321.57	12.12	-31.0	-34.5	12.2	1.80e-04	0	44	0	1005584384	22	5382
2026-01-19 12:04:10.37	321.95	11.91	-31.2	-35.1	11.8	4.41e-04	0	44	0	1010827264	22	5641
2026-01-19 12:04:13.37	322.34	11.70	-31.3	-35.6	11.4	8.93e-04	0	44	0	1016070144	22	5887
2026-01-19 12:04:16.38	322.72	11.49	-31.3	-35.5	11.4	7.86e-04	0	44	0	1022361600	22	5854
2026-01-19 12:04:19.38	323.09	11.29	-31.0	-34.5	12.2	3.49e-04	0	44	0	1027604480	22	5400
2026-01-19 12:04:22.39	323.46	11.08	-31.0	-34.7	12.0	3.36e-04	0	44	0	1032847360	22	5495
2026-01-19 12:04:25.40	323.82	10.88	-31.0	-34.5	12.1	2.99e-04	0	44	0	1039138816	22	5424
2026-01-19 12:04:28.40	324.18	10.68	-31.1	-35.0	11.8	5.76e-04	0	44	0	1044381696	22	5622
2026-01-19 12:04:31.41	324.54	10.47	-31.2	-35.2	11.6	8.15e-04	0	44	0	1050673152	22	5726
2026-01-19 12:04:34.41	324.89	10.27	-31.3	-35.4	11.4	8.54e-04	0	44	0	1055916032	22	5823
2026-01-19 12:04:37.41	325.23	10.07	-31.5	-36.1	10.9	1.76e-03	0	44	0	1061158912	22	6140
2026-01-19 12:04:40.43	325.57	9.87	-31.4	-36.1	10.9	2.18e-03	0	44	0	1067450368	22	6147
2026-01-19 12:04:43.43	325.91	9.67	-31.5	-35.7	10.8	2.60e-03	0	44	0	1072693248	23	5857
2026-01-19 12:04:46.44	326.24	9.47	-31.4	-35.6	10.8	1.97e-03	0	44	0	1077936128	23	5794
2026-01-19 12:04:49.45	326.57	9.27	-31.3	-35.1	11.2	1.37e-03	0	44	0	1084227584	23	5594
2026-01-19 12:04:52.46	326.89	9.07	-31.4	-35.5	10.9	1.83e-03	0	44	0	1089470464	23	5771
2026-01-19 12:04:55.47	327.21	8.88	-31.5	-35.8	10.6	3.41e-03	0	44	0	1095761920	23	5928
2026-01-19 12:04:58.47	327.53	8.68	-31.6	-36.2	10.3	5.19e-03	0	44	0	1101004800	23	6123
2026-01-19 12:05:01.48	327.84	8.49	-31.6	-36.2	10.3	5.42e-03	0	44	0	1106247680	23	6141
2026-01-19 12:05:04.49	328.15	8.29	-31.6	-36.4	10.2	6.01e-03	0	44	0	1112539136	23	6207
2026-01-19 12:05:07.50	328.45	8.10	-31.9	-37.3	9.5	1.13e-02	0	44	0	1117782016	23	6704
2026-01-19 12:05:10.51	328.75	7.91	-31.9	-37.4	9.2	1.48e-02	0	44	0	1124073472	23	6802
2026-01-19 12:05:13.51	329.04	7.71	-31.9	-37.4	9.3	1.96e-02	0	44	0	1129316352	23	6779
2026-01-19 12:05:16.52	329.34	7.52	-31.9	-37.5	9.1	2.31e-02	0	44	0	1134559232	23	6839
2026-01-19 12:05:19.52	329.63	7.33	-31.9	-37.5	9.1	2.41e-02	0	44	0	1140850688	23	6895
2026-01-19 12:05:22.53	329.91	7.14	-31.9	-37.6	9.0	2.24e-02	0	44	0	1146093568	23	6924

#Closed at: 2026-01-19 12:05:25
#Recorded file [1148 MB]: D:/data/31010_260119_145510.dat