passes_logs/2026/01/19/R2M6_AANII_01/R2M6_AANII_01__20260119_113348_SUOMI_NPP_rec.log

#Pass ID: 20260119_113348_SUOMI NPP
#Satellite: SUOMI NPP
#Configuration: NPP
#almurnet v.1.7.20240730
#Start time: 2026-01-19 11:33:49

#Version: 2.2.20231116
#Station: R2M6_AANII_01
#Location: 30.233357 lon 59.946436 lat
#TLE: 1 37849U 11061A   26017.92342359  .00000077  00000+0  57567-4 0  9990
#TLE: 2 37849  98.7814 319.9468 0002389  58.5705 301.5704 14.19525998737125

#Time	Az	El	Level	Level2	SNR	BER	BlckErr	Temp	State	Recorded	gain1	gain2
2026-01-19 11:33:49.59	197.70	7.11	-31.4	-35.2	5.2	1.23e+00	0	41	0	0	23	5584
2026-01-19 11:33:52.59	197.92	7.32	-31.9	-36.6	7.2	1.11e-01	0	41	0	1048576	24	6239
2026-01-19 11:33:55.61	198.14	7.53	-31.5	-34.9	8.5	4.48e-02	0	42	0	7340032	24	5345
2026-01-19 11:33:58.61	198.36	7.75	-30.9	-33.1	10.3	1.01e-02	0	42	0	12582912	23	4643
2026-01-19 11:34:01.63	198.58	7.96	-30.9	-33.6	10.3	5.12e-03	0	42	0	17825792	22	4927
2026-01-19 11:34:04.64	198.81	8.18	-30.2	-33.7	8.9	1.46e-02	0	42	0	24117248	21	5392
2026-01-19 11:34:07.66	199.04	8.40	-28.9	-33.4	6.9	1.37e-01	0	42	0	29360128	19	6057
2026-01-19 11:34:10.67	199.27	8.62	-27.0	-32.9	5.6	4.10e-01	0	42	0	35651584	15	7102
2026-01-19 11:34:13.67	199.51	8.84	-26.4	-32.6	5.6	5.35e-01	0	42	0	40894464	13	7391
2026-01-19 11:34:16.67	199.75	9.07	-26.6	-32.4	5.7	3.85e-01	0	42	0	46137344	14	7054
2026-01-19 11:34:19.69	199.99	9.29	-27.6	-33.0	6.6	2.67e-01	0	43	0	52428800	15	6686
2026-01-19 11:34:22.70	200.24	9.52	-29.3	-33.5	8.4	5.75e-02	0	43	0	57671680	18	5856
2026-01-19 11:34:25.71	200.49	9.75	-29.9	-33.8	9.1	3.95e-02	0	43	0	63963136	19	5668
2026-01-19 11:34:28.72	200.75	9.98	-30.1	-33.8	9.0	4.21e-02	0	43	0	69206016	20	5544
2026-01-19 11:34:31.71	201.01	10.21	-30.2	-32.8	11.4	1.94e-03	0	43	0	74448896	20	4839
2026-01-19 11:34:34.72	201.27	10.45	-30.2	-32.5	11.9	4.17e-04	0	43	0	80740352	20	4699
2026-01-19 11:34:37.74	201.54	10.68	-30.1	-32.2	12.1	3.08e-04	0	43	0	85983232	20	4580
2026-01-19 11:34:40.74	201.81	10.92	-30.2	-32.5	11.8	4.67e-04	0	43	0	91226112	20	4711
2026-01-19 11:34:43.74	202.08	11.16	-30.3	-32.6	12.0	3.00e-04	0	43	0	97517568	20	4714
2026-01-19 11:34:46.75	202.36	11.40	-30.7	-33.0	11.7	6.45e-04	0	43	0	102760448	21	4727
2026-01-19 11:34:49.76	202.65	11.64	-30.7	-33.3	11.5	7.38e-04	0	43	0	109051904	21	4816
2026-01-19 11:34:52.77	202.94	11.89	-30.7	-33.2	11.4	5.87e-04	0	43	0	114294784	21	4794
2026-01-19 11:34:55.79	203.23	12.13	-30.5	-32.5	11.9	2.88e-04	0	43	0	119537664	21	4534
2026-01-19 11:34:58.80	203.53	12.38	-30.3	-31.9	12.4	1.93e-04	0	43	0	125829120	21	4346
2026-01-19 11:35:01.80	203.83	12.63	-30.2	-31.7	12.6	9.91e-05	0	43	0	131072000	21	4265
2026-01-19 11:35:04.81	204.14	12.88	-30.2	-31.7	12.6	1.23e-04	0	43	0	136314880	21	4281
2026-01-19 11:35:07.82	204.45	13.14	-30.1	-31.4	12.8	7.24e-05	0	43	0	142606336	21	4184
2026-01-19 11:35:10.84	204.77	13.39	-30.2	-31.5	12.8	8.77e-05	0	43	0	147849216	21	4202
2026-01-19 11:35:13.84	205.10	13.65	-30.0	-31.1	13.1	4.19e-05	0	43	0	154140672	21	4083
2026-01-19 11:35:16.85	205.43	13.91	-30.0	-30.9	13.3	3.89e-05	0	43	0	159383552	21	4015
2026-01-19 11:35:19.85	205.76	14.17	-30.1	-31.3	13.1	1.90e-05	0	43	0	164626432	21	4140
2026-01-19 11:35:22.85	206.10	14.43	-30.3	-31.7	12.8	7.62e-05	0	43	0	170917888	21	4252
2026-01-19 11:35:25.86	206.45	14.70	-30.4	-32.1	12.6	1.08e-04	0	43	0	176160768	21	4364
2026-01-19 11:35:28.87	206.80	14.97	-30.4	-32.0	12.7	1.15e-04	0	43	0	181403648	21	4333
2026-01-19 11:35:31.88	207.16	15.24	-30.3	-31.6	13.0	2.21e-05	0	43	0	187695104	21	4215
2026-01-19 11:35:34.89	207.53	15.51	-30.3	-31.7	13.0	3.81e-05	0	43	0	192937984	21	4220
2026-01-19 11:35:37.89	207.90	15.78	-30.4	-32.1	12.7	6.63e-05	0	43	0	199229440	21	4373
2026-01-19 11:35:40.89	208.27	16.05	-30.6	-32.5	12.4	1.28e-04	0	43	0	204472320	21	4499
2026-01-19 11:35:43.90	208.66	16.33	-30.3	-31.8	13.0	5.56e-05	0	43	0	209715200	21	4248
2026-01-19 11:35:46.90	209.05	16.61	-30.4	-32.1	12.8	3.20e-05	0	43	0	216006656	21	4352
2026-01-19 11:35:49.91	209.45	16.89	-30.7	-32.8	12.3	7.47e-05	0	43	0	221249536	21	4591
2026-01-19 11:35:52.92	209.86	17.17	-30.6	-32.7	12.4	1.10e-04	0	43	0	226492416	21	4546
2026-01-19 11:35:55.93	210.27	17.46	-30.7	-32.8	12.3	1.30e-04	0	44	0	232783872	21	4607
2026-01-19 11:35:58.94	210.69	17.74	-30.4	-31.9	13.0	5.03e-05	0	43	0	238026752	21	4284
2026-01-19 11:36:01.95	211.12	18.03	-30.5	-32.1	12.8	4.27e-05	0	43	0	244318208	21	4349
2026-01-19 11:36:04.96	211.56	18.32	-30.6	-32.4	12.6	9.46e-05	0	44	0	249561088	21	4447
2026-01-19 11:36:07.96	212.01	18.62	-30.5	-32.2	12.8	6.79e-05	0	43	0	254803968	21	4382
2026-01-19 11:36:10.97	212.46	18.91	-30.4	-31.8	13.1	4.57e-05	0	44	0	261095424	21	4255
2026-01-19 11:36:13.98	212.92	19.21	-30.7	-32.7	12.5	6.56e-05	0	43	0	266338304	21	4527
2026-01-19 11:36:17.00	213.40	19.50	-30.6	-32.4	12.7	7.32e-05	0	43	0	272629760	21	4424
2026-01-19 11:36:20.25	213.92	19.83	-30.6	-32.5	12.7	6.40e-05	0	44	0	277872640	21	4476
2026-01-19 11:36:23.09	214.38	20.11	-30.5	-32.3	12.8	3.43e-05	0	43	0	283115520	21	4395
2026-01-19 11:36:26.24	214.90	20.43	-30.7	-32.6	12.6	6.71e-05	0	43	0	289406976	21	4513
2026-01-19 11:36:29.11	215.39	20.72	-30.7	-32.7	12.6	1.52e-04	0	43	0	294649856	21	4536
2026-01-19 11:36:32.27	215.94	21.04	-30.6	-32.6	12.7	7.01e-05	0	44	0	300941312	21	4487
2026-01-19 11:36:35.15	216.44	21.33	-30.4	-31.8	13.2	3.73e-05	0	44	0	306184192	21	4247
2026-01-19 11:36:38.29	217.01	21.65	-30.1	-31.0	13.8	1.52e-05	0	44	0	311427072	21	3985
2026-01-19 11:36:41.15	217.53	21.95	-30.1	-31.1	13.7	1.06e-05	0	43	0	316669952	21	4034
2026-01-19 11:36:44.30	218.12	22.27	-29.8	-30.3	14.2	5.30e-06	0	44	0	322961408	21	3805
2026-01-19 11:36:47.17	218.66	22.57	-29.3	-29.8	15.2	0.00e+00	0	44	0	328204288	19	3847
2026-01-19 11:36:50.32	219.28	22.89	-28.9	-28.9	15.7	0.00e+00	0	44	0	334495744	19	3616
2026-01-19 11:36:53.18	219.84	23.19	-29.0	-29.3	15.5	0.00e+00	0	44	0	339738624	19	3711
2026-01-19 11:36:56.33	220.48	23.52	-29.1	-29.4	15.4	0.00e+00	0	44	0	346030080	19	3743
2026-01-19 11:36:59.19	221.07	23.82	-29.2	-29.8	15.3	0.00e+00	0	44	0	351272960	19	3823
2026-01-19 11:37:02.34	221.73	24.15	-29.5	-30.3	14.9	0.00e+00	0	44	0	356515840	19	3979
2026-01-19 11:37:05.21	222.34	24.45	-29.5	-30.5	14.8	0.00e+00	0	44	0	361758720	19	4024
2026-01-19 11:37:08.34	223.02	24.77	-29.6	-30.7	14.7	7.00e-07	0	44	0	368050176	19	4073
2026-01-19 11:37:11.21	223.66	25.07	-29.5	-30.4	14.9	0.00e+00	0	44	0	373293056	19	4005
2026-01-19 11:37:14.36	224.38	25.40	-29.9	-31.3	14.3	3.00e-06	0	44	0	379584512	19	4261
2026-01-19 11:37:17.23	225.04	25.70	-30.2	-31.8	13.6	6.80e-06	0	44	0	384827392	20	4337
2026-01-19 11:37:20.38	225.78	26.03	-29.8	-30.7	14.4	2.20e-06	0	44	0	391118848	20	3990
2026-01-19 11:37:23.24	226.47	26.32	-29.8	-30.6	14.4	7.00e-07	0	44	0	396361728	20	3963
2026-01-19 11:37:26.39	227.24	26.65	-29.6	-30.2	14.7	0.00e+00	0	44	0	401604608	20	3843
2026-01-19 11:37:29.26	227.96	26.94	-30.0	-31.1	14.1	7.00e-07	0	44	0	406847488	20	4110
2026-01-19 11:37:32.40	228.75	27.26	-29.7	-30.3	14.7	0.00e+00	0	44	0	413138944	20	3879
2026-01-19 11:37:35.26	229.49	27.55	-29.8	-30.6	14.5	0.00e+00	0	44	0	418381824	20	3943
2026-01-19 11:37:38.40	230.32	27.87	-30.3	-31.8	13.8	4.50e-06	0	44	0	424673280	20	4315
2026-01-19 11:37:41.27	231.10	28.15	-30.6	-32.2	13.2	2.74e-05	0	44	0	429916160	21	4336
2026-01-19 11:37:44.40	231.95	28.46	-30.9	-33.1	12.6	8.31e-05	0	44	0	435159040	21	4633
2026-01-19 11:37:47.27	232.75	28.74	-31.0	-32.9	12.4	1.39e-04	0	44	0	441450496	22	4477
2026-01-19 11:37:50.42	233.65	29.04	-31.6	-34.1	11.3	1.04e-03	0	44	0	446693376	23	4817
2026-01-19 11:37:53.29	234.47	29.32	-32.1	-35.3	10.1	4.59e-03	0	44	0	451936256	24	5187
2026-01-19 11:37:56.45	235.40	29.61	-31.8	-34.3	10.8	3.11e-03	0	44	0	458227712	24	4772
2026-01-19 11:37:59.32	236.26	29.88	-32.1	-35.1	10.3	3.93e-03	0	44	0	463470592	24	5100
2026-01-19 11:38:02.46	237.21	30.16	-32.1	-35.2	10.2	6.52e-03	0	44	0	469762048	24	5123
2026-01-19 11:38:05.33	238.10	30.41	-32.7	-36.7	8.6	2.57e-02	0	44	0	475004928	25	5744
2026-01-19 11:38:08.48	239.09	30.69	-32.6	-36.3	9.0	2.60e-02	0	44	0	481296384	25	5533
2026-01-19 11:38:11.34	240.00	30.93	-32.8	-37.1	8.3	3.09e-02	0	44	0	486539264	25	5958
2026-01-19 11:38:14.50	241.02	31.19	-32.6	-36.3	9.0	2.62e-02	0	44	0	491782144	25	5541
2026-01-19 11:38:17.36	241.96	31.42	-32.3	-35.3	9.7	1.31e-02	0	44	0	497025024	25	5078
2026-01-19 11:38:20.52	243.01	31.66	-31.5	-33.1	11.7	5.18e-04	0	44	0	503316480	24	4336
2026-01-19 11:38:23.38	243.98	31.87	-32.0	-34.9	10.5	2.32e-03	0	44	0	508559360	24	4995
2026-01-19 11:38:26.52	245.06	32.10	-32.0	-34.9	10.5	4.11e-03	0	44	0	514850816	24	4997
2026-01-19 11:38:29.39	246.05	32.30	-31.4	-32.7	12.1	2.49e-04	0	44	0	520093696	24	4205
2026-01-19 11:38:32.55	247.16	32.51	-31.7	-34.3	11.3	8.48e-04	0	44	0	526385152	23	4848
2026-01-19 11:38:35.40	248.17	32.69	-32.5	-35.9	9.3	1.58e-02	0	44	0	531628032	25	5341
2026-01-19 11:38:38.55	249.30	32.88	-32.3	-35.2	10.0	9.24e-03	0	44	0	536870912	25	5037
2026-01-19 11:38:41.42	250.35	33.04	-31.7	-33.8	11.3	1.60e-03	0	44	0	542113792	24	4556
2026-01-19 11:38:44.57	251.50	33.21	-32.9	-37.5	8.2	2.93e-02	0	44	0	548405248	25	6126
2026-01-19 11:38:47.43	252.56	33.35	-33.0	-37.5	7.6	9.78e-02	0	44	0	553648128	26	6049
2026-01-19 11:38:50.58	253.73	33.49	-33.4	-39.3	6.5	2.48e-01	0	44	0	559939584	26	7095
2026-01-19 11:38:53.45	254.81	33.61	-32.9	-37.0	8.2	5.50e-02	0	44	0	565182464	26	5775
2026-01-19 11:38:56.60	256.01	33.73	-33.1	-38.0	7.5	9.47e-02	0	44	0	571473920	26	6293
2026-01-19 11:38:59.47	257.10	33.83	-32.5	-35.3	9.5	3.44e-02	0	44	0	576716800	26	4982
2026-01-19 11:39:02.61	258.30	33.92	-32.0	-34.2	10.7	3.16e-03	0	44	0	581959680	25	4624
2026-01-19 11:39:05.49	259.41	33.99	-32.4	-35.6	9.6	8.07e-03	0	44	0	587202560	25	5214
2026-01-19 11:39:08.64	260.63	34.06	-33.0	-37.5	7.8	7.03e-02	0	44	0	593494016	26	6025
2026-01-19 11:39:11.50	261.74	34.11	-33.0	-37.3	8.0	5.70e-02	0	44	0	598736896	26	5902
2026-01-19 11:39:14.65	262.97	34.15	-32.7	-36.2	8.9	4.27e-02	0	44	0	605028352	26	5355
2026-01-19 11:39:17.52	264.09	34.17	-33.0	-37.2	8.2	4.16e-02	0	44	0	610271232	26	5840
2026-01-19 11:39:20.67	265.32	34.18	-33.0	-37.5	7.9	5.54e-02	0	44	0	616562688	26	6036
2026-01-19 11:39:23.53	266.43	34.18	-33.4	-39.2	6.6	2.24e-01	0	44	0	621805568	26	7059
2026-01-19 11:39:26.68	267.66	34.17	-33.0	-37.3	8.0	9.44e-02	0	44	0	627048448	26	5921
2026-01-19 11:39:29.54	268.78	34.14	-32.5	-35.5	9.4	1.71e-02	0	44	0	632291328	26	5043
2026-01-19 11:39:32.68	270.00	34.10	-33.1	-37.7	7.6	7.29e-02	0	44	0	638582784	26	6137
2026-01-19 11:39:35.54	271.11	34.05	-32.9	-36.8	8.3	5.99e-02	0	44	0	643825664	26	5668
2026-01-19 11:39:38.68	272.32	33.98	-31.7	-33.5	11.6	1.99e-03	0	44	0	650117120	24	4457
2026-01-19 11:39:41.54	273.42	33.90	-31.3	-32.9	12.4	1.65e-04	0	44	0	655360000	23	4330
2026-01-19 11:39:44.70	274.63	33.81	-31.9	-34.7	11.1	1.38e-03	0	44	0	661651456	23	4998
2026-01-19 11:39:47.56	275.72	33.71	-32.6	-36.3	9.1	8.86e-03	0	44	0	666894336	25	5507
2026-01-19 11:39:50.71	276.91	33.59	-32.0	-34.2	10.8	5.79e-03	0	44	0	672137216	25	4620
2026-01-19 11:39:53.57	277.98	33.47	-32.2	-34.7	10.4	3.47e-03	0	44	0	677380096	25	4822
2026-01-19 11:39:56.72	279.15	33.32	-31.4	-32.8	12.2	5.16e-04	0	44	0	683671552	24	4224
2026-01-19 11:39:59.59	280.21	33.18	-31.9	-34.3	11.1	1.24e-03	0	44	0	688914432	24	4741
2026-01-19 11:40:02.73	281.35	33.01	-31.2	-32.7	12.5	1.47e-04	0	44	0	695205888	23	4263
2026-01-19 11:40:05.60	282.39	32.85	-32.1	-34.9	10.6	2.03e-03	0	44	0	700448768	24	4965
2026-01-19 11:40:08.75	283.52	32.66	-31.1	-32.3	12.8	1.72e-04	0	44	0	706740224	23	4157
2026-01-19 11:40:11.62	284.53	32.48	-31.3	-32.8	12.4	1.50e-04	0	44	0	711983104	23	4310
2026-01-19 11:40:14.77	285.63	32.27	-30.8	-32.0	13.3	1.75e-05	0	44	0	717225984	22	4131
2026-01-19 11:40:17.64	286.62	32.07	-31.4	-33.9	12.1	1.65e-04	0	44	0	722468864	22	4766
2026-01-19 11:40:20.80	287.70	31.84	-31.3	-33.1	12.3	2.11e-04	0	44	0	728760320	23	4395
2026-01-19 11:40:23.66	288.66	31.62	-31.0	-32.0	13.0	7.17e-05	0	44	0	734003200	23	4042
2026-01-19 11:40:26.81	289.70	31.38	-29.9	-30.2	14.8	7.00e-07	0	44	0	740294656	21	3720
2026-01-19 11:40:29.67	290.64	31.15	-31.2	-33.2	12.5	3.81e-05	0	44	0	745537536	22	4540
2026-01-19 11:40:32.81	291.65	30.89	-30.4	-30.9	14.0	1.29e-05	0	44	0	751828992	22	3812
2026-01-19 11:40:35.67	292.55	30.65	-30.9	-32.9	13.1	1.37e-05	0	44	0	757071872	21	4509
2026-01-19 11:40:38.82	293.54	30.38	-31.0	-32.0	13.0	8.01e-05	0	44	0	762314752	23	4066
2026-01-19 11:40:41.68	294.41	30.13	-30.0	-30.5	14.5	0.00e+00	0	44	0	767557632	21	3811
2026-01-19 11:40:44.83	295.36	29.84	-31.0	-32.5	13.0	3.81e-05	0	44	0	773849088	22	4292
2026-01-19 11:40:47.70	296.22	29.58	-30.8	-32.1	13.2	1.75e-05	0	44	0	779091968	22	4182
2026-01-19 11:40:50.85	297.14	29.28	-31.6	-33.9	11.7	3.93e-04	0	44	0	785383424	23	4666
2026-01-19 11:40:53.71	297.96	29.01	-31.1	-32.4	12.7	6.79e-05	0	44	0	790626304	23	4177
2026-01-19 11:40:56.87	298.85	28.71	-31.4	-33.2	12.1	2.45e-04	0	44	0	796917760	23	4441
2026-01-19 11:40:59.74	299.64	28.43	-31.2	-32.6	12.5	1.91e-04	0	44	0	802160640	23	4247
2026-01-19 11:41:02.89	300.50	28.12	-31.3	-32.9	12.4	7.17e-05	0	44	0	807403520	23	4346
2026-01-19 11:41:05.76	301.26	27.84	-32.3	-35.7	10.0	6.88e-03	0	44	0	812646400	24	5302
2026-01-19 11:41:08.91	302.09	27.52	-31.3	-32.6	12.2	3.69e-04	0	44	0	818937856	24	4162
2026-01-19 11:41:11.77	302.82	27.24	-32.0	-35.0	10.9	9.58e-04	0	44	0	824180736	23	5108
2026-01-19 11:41:14.93	303.62	26.92	-32.0	-34.1	10.7	3.94e-03	0	44	0	830472192	25	4610
2026-01-19 11:41:17.79	304.33	26.63	-31.7	-33.6	11.5	5.32e-04	0	44	0	835715072	24	4483
2026-01-19 11:41:20.95	305.10	26.30	-31.9	-34.3	11.0	2.17e-03	0	44	0	842006528	24	4751
2026-01-19 11:41:23.80	305.78	26.01	-31.4	-32.8	12.1	5.08e-04	0	44	0	847249408	24	4220
2026-01-19 11:41:26.96	306.52	25.68	-32.3	-35.5	10.1	4.20e-03	0	44	0	852492288	24	5249
2026-01-19 11:41:29.82	307.18	25.39	-32.7	-36.8	8.7	3.45e-02	0	44	0	857735168	25	5729
2026-01-19 11:41:32.98	307.89	25.06	-32.1	-34.3	10.6	2.52e-03	0	44	0	864026624	25	4659
2026-01-19 11:41:35.84	308.52	24.76	-32.3	-35.1	10.1	6.52e-03	0	44	0	869269504	25	4964
2026-01-19 11:41:39.00	309.20	24.44	-31.7	-33.8	11.3	1.44e-03	0	44	0	875560960	24	4568
2026-01-19 11:41:41.86	309.81	24.14	-31.2	-32.6	12.5	1.22e-04	0	44	0	880803840	23	4237
2026-01-19 11:41:45.01	310.47	23.81	-32.2	-35.4	10.1	2.41e-03	0	44	0	887095296	24	5201
2026-01-19 11:41:47.88	311.05	23.52	-31.2	-32.8	12.3	2.83e-04	0	44	0	892338176	23	4312
2026-01-19 11:41:51.04	311.69	23.19	-31.2	-32.7	12.4	6.56e-05	0	44	0	897581056	23	4287
2026-01-19 11:41:53.91	312.25	22.90	-32.0	-34.9	10.5	3.08e-03	0	44	0	903872512	24	5013
2026-01-19 11:41:57.06	312.86	22.57	-31.6	-33.4	11.5	1.18e-03	0	44	0	909115392	24	4448
2026-01-19 11:41:59.93	313.40	22.28	-31.1	-32.6	12.4	1.20e-04	0	44	0	914358272	23	4262
2026-01-19 11:42:03.07	313.98	21.96	-30.8	-31.7	13.0	4.88e-05	0	44	0	920649728	23	3997
2026-01-19 11:42:05.93	314.50	21.67	-30.0	-30.7	14.2	5.30e-06	0	44	0	925892608	21	3881
2026-01-19 11:42:09.07	315.06	21.35	-30.0	-31.0	14.4	2.20e-06	0	44	0	932184064	20	4034
2026-01-19 11:42:11.92	315.56	21.06	-30.6	-32.1	13.4	7.60e-06	0	44	0	937426944	21	4291
2026-01-19 11:42:15.06	316.10	20.74	-31.0	-32.7	12.5	9.46e-05	0	44	0	942669824	22	4400
2026-01-19 11:42:17.93	316.58	20.46	-30.7	-32.0	13.0	5.87e-05	0	44	0	948961280	22	4193
2026-01-19 11:42:21.09	317.11	20.14	-30.4	-31.2	13.5	1.60e-05	0	44	0	954204160	22	3943
2026-01-19 11:42:23.96	317.57	19.86	-30.4	-31.7	13.5	7.60e-06	0	44	0	959447040	21	4174
2026-01-19 11:42:27.11	318.07	19.55	-30.5	-31.8	13.4	1.37e-05	0	44	0	965738496	21	4213
2026-01-19 11:42:29.97	318.52	19.27	-30.3	-31.3	13.7	5.30e-06	0	44	0	970981376	21	4068
2026-01-19 11:42:33.11	319.00	18.96	-30.3	-31.3	13.7	1.50e-06	0	44	0	977272832	21	4067
2026-01-19 11:42:35.97	319.43	18.68	-30.2	-31.1	13.9	1.50e-06	0	44	0	982515712	21	4001
2026-01-19 11:42:39.13	319.90	18.38	-30.4	-31.7	13.5	7.60e-06	0	44	0	987758592	21	4168
2026-01-19 11:42:42.00	320.31	18.10	-30.3	-31.3	13.7	9.10e-06	0	44	0	994050048	21	4064
2026-01-19 11:42:45.15	320.76	17.80	-29.9	-30.4	14.2	3.80e-06	0	44	0	999292928	21	3810
2026-01-19 11:42:48.02	321.16	17.53	-29.7	-30.3	14.6	7.00e-07	0	44	0	1004535808	20	3878
2026-01-19 11:42:51.17	321.60	17.24	-29.8	-30.6	14.4	0.00e+00	0	44	0	1010827264	20	3952
2026-01-19 11:42:54.03	321.98	16.97	-30.7	-32.4	12.9	1.60e-05	0	44	0	1016070144	21	4403
2026-01-19 11:42:57.20	322.40	16.68	-30.8	-32.9	12.6	7.93e-05	0	44	0	1022361600	21	4557
2026-01-19 11:43:00.07	322.78	16.41	-30.7	-32.5	12.8	4.57e-05	0	44	0	1027604480	21	4421
2026-01-19 11:43:03.22	323.18	16.13	-30.6	-32.2	13.0	4.73e-05	0	44	0	1032847360	21	4348
2026-01-19 11:43:06.08	323.54	15.87	-30.5	-32.0	13.2	2.59e-05	0	44	0	1039138816	21	4270
2026-01-19 11:43:09.24	323.93	15.58	-30.8	-32.8	12.6	8.08e-05	0	44	0	1044381696	21	4527
2026-01-19 11:43:12.10	324.27	15.33	-31.1	-33.1	12.2	1.60e-04	0	44	0	1049624576	22	4538
2026-01-19 11:43:15.26	324.65	15.05	-31.1	-33.3	11.9	4.43e-04	0	44	0	1055916032	22	4630
2026-01-19 11:43:18.12	324.99	14.79	-31.4	-34.1	11.4	1.30e-03	0	44	0	1061158912	22	4902
2026-01-19 11:43:21.27	325.35	14.52	-31.6	-34.3	10.8	2.55e-03	0	44	0	1067450368	23	4913
2026-01-19 11:43:24.13	325.67	14.27	-31.5	-33.9	11.1	2.65e-03	0	44	0	1072693248	23	4765
2026-01-19 11:43:27.27	326.02	14.00	-31.5	-34.1	10.9	2.13e-03	0	44	0	1077936128	23	4826
2026-01-19 11:43:30.14	326.34	13.75	-30.8	-32.3	12.5	1.52e-04	0	44	0	1084227584	22	4294
2026-01-19 11:43:33.29	326.68	13.49	-30.6	-31.8	12.9	4.50e-05	0	44	0	1089470464	22	4147
2026-01-19 11:43:36.16	326.98	13.24	-30.5	-31.6	13.0	2.51e-05	0	44	0	1094713344	22	4070
2026-01-19 11:43:39.31	327.31	12.98	-30.7	-32.1	12.7	5.41e-05	0	44	0	1101004800	22	4219
2026-01-19 11:43:42.19	327.60	12.74	-30.6	-31.8	12.8	5.41e-05	0	44	0	1106247680	22	4146
2026-01-19 11:43:45.34	327.92	12.48	-30.9	-32.7	12.2	2.68e-04	0	44	0	1112539136	22	4427
2026-01-19 11:43:48.20	328.21	12.25	-31.1	-33.3	11.8	7.21e-04	0	44	0	1117782016	22	4630
2026-01-19 11:43:51.35	328.51	11.99	-31.1	-33.4	11.6	7.74e-04	0	44	0	1124073472	22	4698
2026-01-19 11:43:54.22	328.79	11.76	-31.2	-33.8	11.4	8.33e-04	0	44	0	1129316352	22	4844
2026-01-19 11:43:57.36	329.09	11.51	-31.1	-33.3	11.7	5.35e-04	0	44	0	1134559232	22	4636
2026-01-19 11:44:00.24	329.36	11.28	-31.2	-33.6	11.5	4.75e-04	0	44	0	1139802112	22	4744
2026-01-19 11:44:03.39	329.65	11.03	-31.1	-33.5	11.5	7.15e-04	0	44	0	1146093568	22	4730
2026-01-19 11:44:06.26	329.91	10.81	-31.3	-34.0	11.1	1.41e-03	0	44	0	1151336448	22	4926
2026-01-19 11:44:09.41	330.19	10.56	-31.3	-34.1	11.0	2.07e-03	0	44	0	1157627904	22	4963
2026-01-19 11:44:12.27	330.44	10.34	-31.2	-33.7	11.3	1.92e-03	0	44	0	1162870784	22	4813
2026-01-19 11:44:15.42	330.71	10.10	-31.2	-33.8	11.2	1.19e-03	0	44	0	1169162240	22	4836
2026-01-19 11:44:18.28	330.95	9.88	-30.9	-32.9	11.8	4.55e-04	0	44	0	1174405120	22	4529
2026-01-19 11:44:21.43	331.22	9.65	-30.9	-32.9	11.8	2.68e-04	0	44	0	1179648000	22	4517
2026-01-19 11:44:24.30	331.45	9.43	-30.8	-32.7	12.0	2.78e-04	0	44	0	1184890880	22	4444
2026-01-19 11:44:27.45	331.71	9.20	-30.7	-32.4	12.1	2.40e-04	0	44	0	1191182336	22	4376
2026-01-19 11:44:30.31	331.94	8.99	-30.7	-32.4	12.1	2.87e-04	0	44	0	1196425216	22	4378
2026-01-19 11:44:33.47	332.19	8.75	-30.8	-32.6	11.9	3.91e-04	0	44	0	1202716672	22	4445
2026-01-19 11:44:36.33	332.42	8.54	-30.9	-32.9	11.7	4.56e-04	0	44	0	1207959552	22	4555
2026-01-19 11:44:39.49	332.66	8.32	-31.0	-33.2	11.5	7.69e-04	0	44	0	1214251008	22	4652
2026-01-19 11:44:42.34	332.88	8.11	-31.1	-33.6	11.2	1.02e-03	0	44	0	1219493888	22	4820
2026-01-19 11:44:45.48	333.11	7.89	-31.0	-33.3	11.4	1.15e-03	0	44	0	1224736768	22	4690
2026-01-19 11:44:48.35	333.32	7.68	-31.0	-33.5	11.2	1.62e-03	0	44	0	1229979648	22	4777
2026-01-19 11:44:51.50	333.55	7.46	-31.0	-33.5	11.1	1.28e-03	0	44	0	1236271104	22	4790
2026-01-19 11:44:54.37	333.76	7.26	-31.1	-33.6	11.0	1.74e-03	0	44	0	1241513984	22	4829
2026-01-19 11:44:57.53	333.98	7.04	-31.7	-35.3	9.8	2.19e-03	0	44	0	1247805440	23	5450

#Closed at: 2026-01-19 11:45:00
#Recorded file [1247 MB]: D:/data/31010_260119_143351.dat