passes_logs/2026/01/19/R2M6_AANII_01/R2M6_AANII_01__20260119_123120_FENGYUN_3D_rec.log

#Pass ID: 20260119_123120_FENGYUN 3D
#Satellite: FENGYUN 3D
#Configuration: FENGYUN 3D
#almurnet v.1.7.20240730
#Start time: 2026-01-19 12:31:21

#Version: 2.2.20231116
#Station: R2M6_AANII_01
#Location: 30.233357 lon 59.946436 lat
#TLE: 1 43010U 17072A   26017.96359538  .00000271  00000+0  15011-3 0  9999
#TLE: 2 43010  98.9936 349.8252 0002386 103.8840 256.2601 14.19697057423673

#Time	Az	El	Level	Level2	SNR	BER	BlckErr	Temp	State	Recorded	gain1	gain2
2026-01-19 12:31:21.21	164.72	7.08	-29.6	-32.4	5.4	7.88e-01	0	41	0	0	20	4957
2026-01-19 12:31:24.21	164.76	7.31	-29.7	-32.5	10.0	4.71e-03	0	41	0	5242880	20	4998
2026-01-19 12:31:27.22	164.81	7.55	-29.8	-32.9	9.7	6.70e-03	0	42	0	22020096	20	5140
2026-01-19 12:31:30.22	164.85	7.79	-28.9	-30.8	11.6	4.81e-04	0	42	0	38797312	19	4487
2026-01-19 12:31:33.24	164.89	8.03	-28.4	-30.1	12.3	1.25e-04	0	42	0	55574528	18	4387
2026-01-19 12:31:36.24	164.94	8.27	-28.1	-29.9	12.7	5.72e-05	0	42	0	73400320	17	4432
2026-01-19 12:31:39.25	164.98	8.52	-28.0	-29.6	13.0	3.54e-05	0	42	0	90177536	17	4343
2026-01-19 12:31:42.26	165.03	8.77	-28.2	-30.1	12.7	5.03e-05	0	42	0	106954752	17	4491
2026-01-19 12:31:45.25	165.07	9.01	-27.3	-28.6	14.0	1.10e-06	0	42	0	123731968	16	4143
2026-01-19 12:31:48.27	165.12	9.27	-27.5	-29.0	13.8	6.80e-06	0	42	0	140509184	16	4243
2026-01-19 12:31:51.28	165.17	9.52	-27.4	-28.6	14.0	5.70e-06	0	42	0	157286400	16	4141
2026-01-19 12:31:54.29	165.21	9.78	-27.1	-28.4	14.3	8.00e-06	0	43	0	174063616	15	4188
2026-01-19 12:31:57.29	165.26	10.04	-27.2	-28.7	14.1	5.70e-06	0	42	0	190840832	15	4258
2026-01-19 12:32:00.29	165.31	10.31	-27.4	-29.2	13.8	9.10e-06	0	43	0	208666624	15	4410
2026-01-19 12:32:03.30	165.36	10.57	-26.9	-27.9	14.6	4.50e-06	0	43	0	225443840	15	4059
2026-01-19 12:32:06.31	165.41	10.84	-26.7	-28.1	14.8	4.50e-06	0	43	0	242221056	14	4203
2026-01-19 12:32:09.31	165.46	11.11	-26.7	-28.1	14.8	0.00e+00	0	43	0	258998272	14	4220
2026-01-19 12:32:12.31	165.51	11.39	-26.6	-27.8	15.0	0.00e+00	0	43	0	275775488	14	4148
2026-01-19 12:32:15.31	165.57	11.67	-26.7	-27.9	14.9	3.40e-06	0	43	0	292552704	14	4174
2026-01-19 12:32:18.32	165.62	11.95	-26.6	-27.8	15.0	0.00e+00	0	43	0	309329920	14	4133
2026-01-19 12:32:21.34	165.68	12.23	-26.7	-28.0	14.9	0.00e+00	0	43	0	326107136	14	4198
2026-01-19 12:32:24.35	165.73	12.52	-26.8	-28.2	14.9	0.00e+00	0	43	0	343932928	14	4241
2026-01-19 12:32:27.35	165.79	12.81	-26.9	-28.5	14.7	1.10e-06	0	43	0	360710144	14	4323
2026-01-19 12:32:30.36	165.85	13.11	-26.6	-27.9	15.0	0.00e+00	0	43	0	377487360	14	4161
2026-01-19 12:32:33.37	165.90	13.41	-26.4	-27.4	15.4	0.00e+00	0	43	0	394264576	14	4033
2026-01-19 12:32:36.38	165.96	13.71	-26.5	-27.4	15.3	0.00e+00	0	43	0	411041792	14	4035
2026-01-19 12:32:39.41	166.03	14.02	-26.3	-27.0	15.6	0.00e+00	0	43	0	428867584	14	3931
2026-01-19 12:32:42.41	166.09	14.33	-26.3	-27.5	15.6	0.00e+00	0	43	0	445644800	13	4165
2026-01-19 12:32:45.42	166.15	14.65	-26.2	-27.4	15.7	0.00e+00	0	43	0	462422016	13	4126
2026-01-19 12:32:48.43	166.21	14.96	-26.1	-27.1	15.8	0.00e+00	0	43	0	479199232	13	4054
2026-01-19 12:32:51.44	166.28	15.29	-26.0	-26.9	16.0	0.00e+00	0	43	0	495976448	13	3987
2026-01-19 12:32:54.45	166.34	15.61	-25.9	-27.1	16.1	0.00e+00	0	43	0	512753664	12	4161
2026-01-19 12:32:57.46	166.41	15.95	-25.5	-26.4	16.5	0.00e+00	0	43	0	529530880	12	3973
2026-01-19 12:33:00.48	166.48	16.28	-25.6	-26.5	16.5	0.00e+00	0	43	0	546308096	12	4003
2026-01-19 12:33:03.47	166.55	16.62	-25.5	-26.3	16.6	0.00e+00	0	43	0	564133888	12	3960
2026-01-19 12:33:06.48	166.62	16.97	-25.5	-26.3	16.6	0.00e+00	0	43	0	580911104	12	3956
2026-01-19 12:33:09.50	166.70	17.32	-25.5	-26.3	16.6	0.00e+00	0	43	0	597688320	12	3967
2026-01-19 12:33:12.52	166.77	17.68	-25.3	-26.4	16.9	0.00e+00	0	43	0	614465536	11	4082
2026-01-19 12:33:15.53	166.85	18.04	-25.1	-25.9	17.2	0.00e+00	0	43	0	631242752	11	3958
2026-01-19 12:33:18.53	166.92	18.40	-25.0	-25.7	17.3	0.00e+00	0	43	0	648019968	11	3915
2026-01-19 12:33:21.54	167.00	18.78	-25.0	-25.7	17.4	0.00e+00	0	43	0	664797184	11	3900
2026-01-19 12:33:24.54	167.08	19.15	-24.9	-25.5	17.5	0.00e+00	0	44	0	681574400	11	3854
2026-01-19 12:33:27.56	167.17	19.54	-24.9	-25.4	17.5	0.00e+00	0	43	0	699400192	11	3831
2026-01-19 12:33:30.57	167.25	19.93	-24.7	-25.5	17.7	0.00e+00	0	43	0	716177408	10	3976
2026-01-19 12:33:33.59	167.34	20.32	-24.7	-25.6	17.7	0.00e+00	0	44	0	732954624	10	3988
2026-01-19 12:33:36.60	167.43	20.73	-24.5	-25.1	18.0	0.00e+00	0	43	0	749731840	10	3868
2026-01-19 12:33:39.59	167.52	21.13	-24.5	-25.2	18.0	0.00e+00	0	44	0	766509056	10	3889
2026-01-19 12:33:42.59	167.61	21.54	-24.6	-25.4	17.8	0.00e+00	0	44	0	783286272	10	3948
2026-01-19 12:33:45.61	167.71	21.97	-24.6	-25.4	17.8	0.00e+00	0	43	0	801112064	10	3951
2026-01-19 12:33:48.62	167.81	22.40	-24.5	-25.1	18.1	0.00e+00	0	44	0	817889280	10	3859
2026-01-19 12:33:51.63	167.91	22.83	-24.2	-24.9	18.4	0.00e+00	0	44	0	834666496	9	3934
2026-01-19 12:33:54.63	168.01	23.28	-24.1	-24.7	18.5	0.00e+00	0	43	0	851443712	9	3881
2026-01-19 12:33:57.64	168.11	23.73	-24.2	-25.0	18.4	0.00e+00	0	43	0	868220928	9	3940
2026-01-19 12:34:00.65	168.22	24.19	-24.1	-24.8	18.5	0.00e+00	0	43	0	884998144	9	3895
2026-01-19 12:34:03.66	168.33	24.65	-24.2	-25.0	18.4	0.00e+00	0	43	0	902823936	9	3950
2026-01-19 12:34:06.67	168.45	25.13	-24.3	-25.1	18.3	0.00e+00	0	44	0	919601152	9	3978
2026-01-19 12:34:09.68	168.56	25.61	-24.0	-24.5	18.7	0.00e+00	0	44	0	936378368	9	3831
2026-01-19 12:34:12.69	168.68	26.11	-23.8	-24.1	18.9	0.00e+00	0	44	0	953155584	9	3736
2026-01-19 12:34:15.70	168.81	26.61	-23.8	-24.7	18.8	0.00e+00	0	44	0	969932800	8	3986
2026-01-19 12:34:18.71	168.94	27.12	-23.9	-25.0	18.7	0.00e+00	0	44	0	986710016	8	4048
2026-01-19 12:34:21.71	169.07	27.64	-24.1	-25.4	18.5	0.00e+00	0	44	0	1003487232	8	4149
2026-01-19 12:34:24.72	169.20	28.17	-24.1	-25.2	18.6	0.00e+00	0	44	0	1020264448	8	4110
2026-01-19 12:34:27.73	169.34	28.71	-24.0	-25.0	18.7	0.00e+00	0	44	0	1038090240	8	4063
2026-01-19 12:34:30.74	169.49	29.26	-23.9	-25.0	18.7	0.00e+00	0	44	0	1054867456	8	4058
2026-01-19 12:34:33.74	169.64	29.83	-23.9	-24.8	18.8	0.00e+00	0	44	0	1071644672	8	4020
2026-01-19 12:34:36.75	169.79	30.40	-23.9	-24.9	18.8	0.00e+00	0	44	0	1088421888	8	4039
2026-01-19 12:34:39.76	169.95	30.99	-23.8	-24.7	18.9	0.00e+00	0	44	0	1105199104	8	3985
2026-01-19 12:34:42.77	170.12	31.58	-24.0	-25.0	18.8	0.00e+00	0	44	0	1121976320	8	4067
2026-01-19 12:34:45.77	170.29	32.19	-23.9	-24.8	18.8	0.00e+00	0	44	0	1138753536	8	4018
2026-01-19 12:34:48.77	170.46	32.81	-23.8	-24.7	19.0	0.00e+00	0	44	0	1155530752	8	3973
2026-01-19 12:34:51.79	170.65	33.45	-23.5	-23.9	19.4	0.00e+00	0	44	0	1173356544	8	3790
2026-01-19 12:34:54.79	170.84	34.09	-23.2	-24.0	19.6	2.20e-06	0	44	0	1190133760	7	3915
2026-01-19 12:34:57.80	171.04	34.75	-23.4	-24.3	19.4	0.00e+00	0	44	0	1206910976	7	3992
2026-01-19 12:35:00.81	171.24	35.43	-23.5	-24.5	19.3	9.10e-06	0	44	0	1223688192	7	4034
2026-01-19 12:35:03.82	171.46	36.12	-23.3	-24.2	19.5	8.00e-06	0	44	0	1240465408	7	3962
2026-01-19 12:35:06.83	171.68	36.82	-23.2	-23.9	19.7	4.50e-06	0	44	0	1257242624	7	3887
2026-01-19 12:35:09.85	171.91	37.54	-23.3	-24.0	19.6	0.00e+00	0	44	0	1274019840	7	3922
2026-01-19 12:35:12.85	172.15	38.27	-23.3	-24.1	19.5	0.00e+00	0	44	0	1290797056	7	3957
2026-01-19 12:35:15.85	172.41	39.02	-23.4	-24.2	19.5	0.00e+00	0	44	0	1308622848	7	3981
2026-01-19 12:35:18.85	172.67	39.79	-23.2	-23.9	19.7	0.00e+00	0	44	0	1325400064	7	3890
2026-01-19 12:35:21.86	172.95	40.57	-23.3	-24.1	19.6	0.00e+00	0	44	0	1342177280	7	3934
2026-01-19 12:35:24.86	173.24	41.36	-23.9	-25.3	19.0	0.00e+00	0	44	0	1358954496	7	4254
2026-01-19 12:35:27.87	173.54	42.18	-24.1	-25.2	18.8	0.00e+00	0	44	0	1375731712	8	4099
2026-01-19 12:35:30.88	173.86	43.01	-23.8	-24.6	19.1	0.00e+00	0	44	0	1392508928	8	3963
2026-01-19 12:35:33.86	174.20	43.86	-23.8	-24.7	19.1	0.00e+00	0	44	0	1409286144	8	3979
2026-01-19 12:35:36.88	174.55	44.73	-23.8	-24.7	19.1	0.00e+00	0	44	0	1426063360	8	3971
2026-01-19 12:35:39.89	174.93	45.62	-24.0	-25.1	18.9	0.00e+00	0	44	0	1443889152	8	4083
2026-01-19 12:35:42.90	175.32	46.52	-23.8	-24.5	19.2	0.00e+00	0	44	0	1460666368	8	3935
2026-01-19 12:35:45.90	175.74	47.45	-23.8	-24.6	19.2	0.00e+00	0	44	0	1477443584	8	3951
2026-01-19 12:35:48.90	176.18	48.39	-24.2	-25.5	18.8	0.00e+00	0	44	0	1494220800	8	4172
2026-01-19 12:35:51.91	176.65	49.35	-24.1	-25.2	18.9	0.00e+00	0	44	0	1510998016	8	4096
2026-01-19 12:35:54.92	177.15	50.33	-25.2	-26.5	17.8	0.00e+00	0	44	0	1527775232	10	4205
2026-01-19 12:35:57.93	177.69	51.33	-24.4	-25.0	18.6	0.00e+00	0	44	0	1544552448	10	3825
2026-01-19 12:36:00.94	178.26	52.35	-24.7	-25.6	18.3	0.00e+00	0	44	0	1562378240	10	3960
2026-01-19 12:36:03.95	178.87	53.39	-24.9	-25.9	18.1	0.00e+00	0	44	0	1579155456	10	4047
2026-01-19 12:36:06.95	179.52	54.44	-24.6	-25.4	18.4	0.00e+00	0	44	0	1595932672	10	3921
2026-01-19 12:36:09.95	180.23	55.51	-25.0	-26.2	17.9	0.00e+00	0	44	0	1612709888	10	4123
2026-01-19 12:36:12.94	180.98	56.60	-24.8	-25.7	18.2	0.00e+00	0	44	0	1629487104	10	4000
2026-01-19 12:36:15.94	181.80	57.70	-24.8	-25.7	18.2	0.00e+00	0	44	0	1646264320	10	4015
2026-01-19 12:36:18.94	182.69	58.82	-23.9	-24.3	19.2	0.00e+00	0	44	0	1663041536	9	3776
2026-01-19 12:36:21.95	183.66	59.96	-24.0	-24.6	19.1	0.00e+00	0	44	0	1679818752	9	3837
2026-01-19 12:36:24.97	184.73	61.11	-24.1	-24.7	19.0	0.00e+00	0	44	0	1697644544	9	3856
2026-01-19 12:36:27.97	185.88	62.27	-23.3	-23.5	19.9	0.00e+00	0	44	0	1714421760	8	3701
2026-01-19 12:36:30.98	187.16	63.44	-24.8	-26.1	18.3	0.00e+00	0	44	0	1731198976	9	4218
2026-01-19 12:36:33.99	188.57	64.62	-24.1	-25.3	19.0	0.00e+00	0	44	0	1747976192	8	4120
2026-01-19 12:36:36.99	190.13	65.80	-24.5	-25.6	18.6	0.00e+00	0	44	0	1764753408	9	4090
2026-01-19 12:36:39.99	191.86	66.98	-22.8	-23.6	20.3	0.00e+00	0	44	0	1781530624	6	3932
2026-01-19 12:36:43.00	193.80	68.15	-23.1	-24.3	20.0	0.00e+00	0	44	0	1798307840	6	4093
2026-01-19 12:36:46.00	195.98	69.31	-23.1	-24.2	20.1	0.00e+00	0	44	0	1815085056	6	4069
2026-01-19 12:36:49.01	198.43	70.46	-22.8	-23.5	20.4	0.00e+00	0	44	0	1832910848	6	3897
2026-01-19 12:36:52.02	201.22	71.59	-22.6	-23.0	20.8	0.00e+00	0	44	0	1849688064	6	3771
2026-01-19 12:36:55.02	204.36	72.67	-22.2	-22.7	21.2	0.00e+00	0	44	0	1866465280	5	3831
2026-01-19 12:36:58.03	207.95	73.72	-22.4	-23.1	21.0	0.00e+00	0	44	0	1883242496	5	3902
2026-01-19 12:37:01.04	212.04	74.70	-21.6	-22.0	21.8	0.00e+00	0	44	0	1900019712	4	3765
2026-01-19 12:37:04.05	216.69	75.60	-21.6	-22.0	21.8	0.00e+00	0	44	0	1916796928	4	3775
2026-01-19 12:37:07.06	221.94	76.41	-21.8	-22.3	21.7	0.00e+00	0	44	0	1933574144	4	3840
2026-01-19 12:37:10.06	227.80	77.09	-21.7	-22.1	21.7	0.00e+00	0	44	0	1950351360	4	3797
2026-01-19 12:37:13.06	234.26	77.64	-21.7	-22.1	21.7	0.00e+00	0	44	0	1968177152	4	3787
2026-01-19 12:37:16.07	241.26	78.02	-21.9	-22.5	21.5	0.00e+00	0	44	0	1984954368	4	3889
2026-01-19 12:37:19.07	248.58	78.21	-21.7	-22.2	21.8	0.00e+00	0	44	0	2001731584	4	3803
2026-01-19 12:37:22.08	256.06	78.21	-21.7	-22.2	21.8	0.00e+00	0	44	0	2018508800	4	3815
2026-01-19 12:37:25.10	263.44	78.02	-21.8	-22.3	21.8	0.00e+00	0	44	0	2035286016	4	3835
2026-01-19 12:37:28.10	270.42	77.65	-21.9	-22.7	21.5	0.00e+00	0	44	0	2052063232	4	3918
2026-01-19 12:37:31.12	276.94	77.11	-22.4	-23.5	21.1	0.00e+00	0	44	0	2068840448	4	4126
2026-01-19 12:37:34.12	282.81	76.43	-21.7	-22.1	21.8	0.00e+00	0	44	0	2085617664	4	3790
2026-01-19 12:37:37.14	288.09	75.62	-21.9	-22.6	21.6	0.00e+00	0	44	0	2103443456	4	3912
2026-01-19 12:37:40.15	292.75	74.72	-21.9	-22.6	21.5	0.00e+00	0	44	0	2120220672	4	3908
2026-01-19 12:37:43.15	296.83	73.74	-22.3	-23.4	21.2	0.00e+00	0	44	0	2136997888	4	4089
2026-01-19 12:37:46.16	300.43	72.70	-22.6	-23.5	20.9	0.00e+00	0	44	0	2153775104	5	4006
2026-01-19 12:37:49.16	303.58	71.62	-22.5	-22.7	21.0	0.00e+00	0	44	0	2170552320	6	3714
2026-01-19 12:37:52.16	306.36	70.50	-22.6	-23.0	20.9	0.00e+00	0	44	0	2187329536	6	3779
2026-01-19 12:37:55.18	308.83	69.35	-22.7	-23.2	20.8	0.00e+00	0	44	0	2204106752	6	3812
2026-01-19 12:37:58.19	311.02	68.19	-23.3	-24.4	20.1	0.00e+00	0	44	0	2220883968	6	4126
2026-01-19 12:38:01.19	312.96	67.02	-22.8	-23.5	20.6	0.00e+00	0	44	0	2238709760	6	3888
2026-01-19 12:38:04.20	314.70	65.84	-23.2	-24.4	20.2	0.00e+00	0	44	0	2255486976	6	4108
2026-01-19 12:38:07.21	316.26	64.66	-23.2	-24.3	20.2	0.00e+00	0	44	0	2272264192	6	4095
2026-01-19 12:38:10.22	317.68	63.49	-23.6	-24.2	19.8	0.00e+00	0	44	0	2289041408	8	3840
2026-01-19 12:38:13.24	318.96	62.32	-23.4	-23.8	19.9	0.00e+00	0	44	0	2305818624	8	3759
2026-01-19 12:38:16.25	320.12	61.16	-23.8	-24.5	19.6	0.00e+00	0	44	0	2323644416	8	3911
2026-01-19 12:38:19.26	321.18	60.01	-23.4	-23.7	20.0	0.00e+00	0	44	0	2340421632	8	3718
2026-01-19 12:38:22.26	322.15	58.88	-24.0	-25.1	19.3	0.00e+00	0	44	0	2357198848	8	4051
2026-01-19 12:38:25.27	323.04	57.76	-24.3	-25.6	19.0	0.00e+00	0	44	0	2373976064	8	4177
2026-01-19 12:38:28.28	323.87	56.65	-24.6	-25.6	18.7	0.00e+00	0	44	0	2390753280	9	4078
2026-01-19 12:38:31.29	324.63	55.57	-24.3	-25.1	18.9	0.00e+00	0	44	0	2407530496	9	3952
2026-01-19 12:38:34.30	325.34	54.49	-24.6	-25.7	18.7	0.00e+00	0	44	0	2424307712	9	4081
2026-01-19 12:38:37.31	325.99	53.44	-24.7	-25.9	18.5	0.00e+00	0	44	0	2441084928	9	4142
2026-01-19 12:38:40.32	326.60	52.41	-24.5	-25.4	18.8	0.00e+00	0	44	0	2458910720	9	4019
2026-01-19 12:38:43.33	327.17	51.39	-24.4	-25.4	18.7	0.00e+00	0	44	0	2475687936	9	4024
2026-01-19 12:38:46.35	327.71	50.39	-23.9	-24.3	19.3	0.00e+00	0	44	0	2492465152	9	3763
2026-01-19 12:38:49.36	328.21	49.41	-23.9	-24.3	19.3	0.00e+00	0	44	0	2509242368	9	3772
2026-01-19 12:38:52.36	328.68	48.45	-23.4	-23.8	19.8	0.00e+00	0	44	0	2526019584	8	3756
2026-01-19 12:38:55.37	329.13	47.51	-23.5	-23.9	19.8	0.00e+00	0	44	0	2542796800	8	3761
2026-01-19 12:38:58.38	329.55	46.59	-23.5	-24.0	19.7	0.00e+00	0	44	0	2559574016	8	3796
2026-01-19 12:39:01.40	329.94	45.69	-23.8	-24.5	19.4	0.00e+00	0	44	0	2577399808	8	3908
2026-01-19 12:39:04.41	330.32	44.80	-23.6	-24.1	19.6	0.00e+00	0	44	0	2594177024	8	3831
2026-01-19 12:39:07.43	330.67	43.93	-23.8	-24.5	19.4	0.00e+00	0	44	0	2610954240	8	3909
2026-01-19 12:39:10.43	331.01	43.09	-24.4	-25.7	18.7	0.00e+00	0	44	0	2627731456	8	4224
2026-01-19 12:39:13.44	331.33	42.25	-23.7	-24.5	19.4	0.00e+00	0	44	0	2644508672	8	3906
2026-01-19 12:39:16.45	331.64	41.44	-23.6	-24.2	19.5	0.00e+00	0	44	0	2662334464	8	3842
2026-01-19 12:39:19.46	331.93	40.65	-22.8	-23.0	20.3	0.00e+00	0	44	0	2679111680	7	3676
2026-01-19 12:39:22.46	332.20	39.87	-22.8	-23.4	20.3	0.00e+00	0	44	0	2695888896	6	3876
2026-01-19 12:39:25.48	332.47	39.10	-23.0	-23.9	20.1	0.00e+00	0	44	0	2712666112	6	3995
2026-01-19 12:39:28.47	332.72	38.36	-23.1	-24.2	19.9	0.00e+00	0	44	0	2729443328	6	4073
2026-01-19 12:39:31.48	332.97	37.63	-23.2	-24.4	19.8	0.00e+00	0	44	0	2746220544	6	4111
2026-01-19 12:39:34.49	333.20	36.91	-23.3	-24.6	19.7	0.00e+00	0	44	0	2762997760	6	4160
2026-01-19 12:39:37.50	333.42	36.21	-23.9	-25.3	19.1	0.00e+00	0	44	0	2779774976	7	4223
2026-01-19 12:39:40.50	333.64	35.53	-23.5	-24.0	19.5	0.00e+00	0	44	0	2796552192	8	3805
2026-01-19 12:39:43.50	333.84	34.86	-23.3	-23.6	19.7	0.00e+00	0	44	0	2813329408	8	3704
2026-01-19 12:39:46.50	334.04	34.20	-23.3	-24.0	19.7	0.00e+00	0	44	0	2831155200	7	3908
2026-01-19 12:39:49.50	334.23	33.56	-23.4	-24.3	19.5	0.00e+00	0	44	0	2847932416	7	3986
2026-01-19 12:39:52.51	334.42	32.92	-23.6	-24.7	19.4	0.00e+00	0	44	0	2864709632	7	4072
2026-01-19 12:39:55.52	334.60	32.30	-23.6	-24.6	19.4	0.00e+00	0	44	0	2881486848	7	4050
2026-01-19 12:39:58.53	334.77	31.70	-23.7	-25.0	19.2	0.00e+00	0	44	0	2898264064	7	4141
2026-01-19 12:40:01.54	334.94	31.10	-23.9	-25.3	19.0	0.00e+00	0	44	0	2915041280	7	4220
2026-01-19 12:40:04.54	335.10	30.52	-23.8	-25.0	19.1	0.00e+00	0	44	0	2931818496	7	4164
2026-01-19 12:40:07.55	335.25	29.95	-23.8	-25.2	19.1	0.00e+00	0	44	0	2949644288	7	4189
2026-01-19 12:40:10.56	335.40	29.39	-23.2	-23.9	19.7	0.00e+00	0	44	0	2966421504	7	3890
2026-01-19 12:40:13.55	335.55	28.84	-23.3	-24.1	19.6	0.00e+00	0	44	0	2983198720	7	3925
2026-01-19 12:40:16.56	335.69	28.30	-23.4	-24.3	19.5	0.00e+00	0	44	0	2999975936	7	3986
2026-01-19 12:40:19.56	335.83	27.77	-23.5	-24.3	19.4	0.00e+00	0	44	0	3016753152	7	3991
2026-01-19 12:40:22.56	335.96	27.26	-23.6	-24.6	19.3	0.00e+00	0	44	0	3033530368	7	4062
2026-01-19 12:40:25.58	336.09	26.74	-23.7	-24.8	19.2	0.00e+00	0	44	0	3050307584	7	4111
2026-01-19 12:40:28.59	336.21	26.24	-23.9	-25.2	18.9	0.00e+00	0	44	0	3067084800	7	4201
2026-01-19 12:40:31.60	336.34	25.75	-24.3	-25.6	18.5	0.00e+00	0	44	0	3084910592	8	4189
2026-01-19 12:40:34.60	336.45	25.27	-24.3	-25.7	18.5	0.00e+00	0	44	0	3100639232	8	4201
2026-01-19 12:40:37.61	336.57	24.80	-24.2	-25.3	18.7	0.00e+00	0	44	0	3118465024	8	4116
2026-01-19 12:40:40.63	336.68	24.33	-24.4	-25.4	18.4	0.00e+00	0	44	0	3135242240	9	4016
2026-01-19 12:40:43.63	336.79	23.87	-24.2	-24.9	18.5	0.00e+00	0	44	0	3152019456	9	3918
2026-01-19 12:40:46.63	336.90	23.42	-24.3	-25.2	18.4	0.00e+00	0	44	0	3168796672	9	3986
2026-01-19 12:40:49.64	337.00	22.98	-24.4	-25.3	18.3	0.00e+00	0	44	0	3185573888	9	4018
2026-01-19 12:40:52.65	337.11	22.55	-24.3	-25.1	18.5	0.00e+00	0	44	0	3203399680	9	3957
2026-01-19 12:40:55.64	337.21	22.12	-24.3	-25.2	18.4	0.00e+00	0	44	0	3219128320	9	3984
2026-01-19 12:40:58.66	337.30	21.70	-24.4	-25.3	18.3	0.00e+00	0	44	0	3236954112	9	4011
2026-01-19 12:41:01.67	337.40	21.29	-24.4	-25.4	18.3	0.00e+00	0	44	0	3253731328	9	4032
2026-01-19 12:41:04.68	337.49	20.88	-24.7	-25.9	18.0	0.00e+00	0	44	0	3270508544	9	4159
2026-01-19 12:41:07.69	337.58	20.48	-24.8	-26.2	17.8	0.00e+00	0	44	0	3287285760	9	4227
2026-01-19 12:41:10.70	337.67	20.08	-24.9	-26.4	17.7	0.00e+00	0	44	0	3304062976	9	4274
2026-01-19 12:41:13.70	337.76	19.70	-24.8	-26.3	17.8	0.00e+00	0	44	0	3320840192	9	4243
2026-01-19 12:41:16.72	337.84	19.31	-25.3	-26.7	17.3	0.00e+00	0	44	0	3338665984	10	4257
2026-01-19 12:41:19.73	337.92	18.94	-25.7	-27.2	16.7	0.00e+00	0	44	0	3355443200	11	4275
2026-01-19 12:41:22.75	338.01	18.56	-26.0	-27.8	16.4	0.00e+00	0	44	0	3372220416	11	4424
2026-01-19 12:41:25.76	338.09	18.20	-26.1	-27.4	16.2	0.00e+00	0	44	0	3388997632	12	4217
2026-01-19 12:41:28.77	338.16	17.84	-26.3	-28.0	15.9	0.00e+00	0	44	0	3405774848	12	4372
2026-01-19 12:41:31.79	338.24	17.48	-26.7	-28.4	15.4	0.00e+00	0	44	0	3422552064	13	4372
2026-01-19 12:41:34.79	338.32	17.13	-27.2	-28.9	14.8	0.00e+00	0	44	0	3439329280	14	4394
2026-01-19 12:41:37.80	338.39	16.79	-27.2	-29.0	14.7	0.00e+00	0	44	0	3457155072	14	4434
2026-01-19 12:41:40.81	338.46	16.45	-26.9	-28.3	15.1	0.00e+00	0	44	0	3473932288	14	4231
2026-01-19 12:41:43.81	338.53	16.11	-25.8	-26.3	16.5	0.00e+00	0	44	0	3490709504	13	3835
2026-01-19 12:41:46.83	338.60	15.78	-25.8	-26.8	16.5	0.00e+00	0	44	0	3507486720	12	4049
2026-01-19 12:41:49.83	338.67	15.46	-25.9	-27.2	16.2	0.00e+00	0	44	0	3524263936	12	4165
2026-01-19 12:41:52.84	338.74	15.13	-26.0	-27.2	16.2	0.00e+00	0	44	0	3541041152	12	4171
2026-01-19 12:41:55.85	338.80	14.82	-26.2	-27.8	15.8	0.00e+00	0	44	0	3558866944	12	4325
2026-01-19 12:41:58.85	338.87	14.50	-26.4	-28.1	15.6	0.00e+00	0	44	0	3575644160	12	4421
2026-01-19 12:42:01.86	338.93	14.19	-26.6	-28.1	15.4	0.00e+00	0	44	0	3592421376	13	4306
2026-01-19 12:42:04.88	339.00	13.89	-26.9	-28.8	15.0	0.00e+00	0	44	0	3609198592	13	4487
2026-01-19 12:42:07.89	339.06	13.58	-26.4	-27.7	15.6	0.00e+00	0	44	0	3625975808	13	4178
2026-01-19 12:42:10.90	339.12	13.28	-26.3	-27.5	15.7	0.00e+00	0	44	0	3642753024	13	4143
2026-01-19 12:42:13.90	339.18	12.99	-26.4	-27.7	15.5	0.00e+00	0	44	0	3659530240	13	4181
2026-01-19 12:42:16.91	339.24	12.70	-26.2	-27.4	15.7	0.00e+00	0	44	0	3677356032	13	4118
2026-01-19 12:42:19.91	339.30	12.41	-26.2	-27.3	15.7	0.00e+00	0	44	0	3694133248	13	4077
2026-01-19 12:42:22.92	339.35	12.13	-26.3	-27.5	15.6	0.00e+00	0	44	0	3710910464	13	4144
2026-01-19 12:42:25.93	339.41	11.85	-26.4	-27.8	15.4	0.00e+00	0	44	0	3727687680	13	4211
2026-01-19 12:42:28.93	339.47	11.57	-26.4	-27.7	15.4	0.00e+00	0	44	0	3744464896	13	4199
2026-01-19 12:42:31.93	339.52	11.29	-26.5	-28.0	15.2	0.00e+00	0	44	0	3761242112	13	4286
2026-01-19 12:42:34.92	339.57	11.02	-26.9	-28.8	14.8	0.00e+00	0	44	0	3778019328	13	4509
2026-01-19 12:42:37.93	339.63	10.76	-27.1	-28.8	14.5	1.10e-06	0	44	0	3794796544	14	4378
2026-01-19 12:42:40.94	339.68	10.49	-27.4	-29.5	14.1	1.10e-06	0	44	0	3811573760	14	4582
2026-01-19 12:42:43.95	339.73	10.23	-27.4	-29.1	14.0	1.10e-06	0	44	0	3828350976	15	4365
2026-01-19 12:42:46.95	339.78	9.97	-27.2	-28.5	14.4	1.10e-06	0	44	0	3846176768	15	4190
2026-01-19 12:42:49.96	339.83	9.71	-27.2	-28.5	14.3	2.20e-06	0	44	0	3862953984	15	4205
2026-01-19 12:42:52.98	339.88	9.45	-27.2	-28.5	14.3	0.00e+00	0	44	0	3879731200	15	4207
2026-01-19 12:42:55.99	339.93	9.20	-26.9	-28.0	14.6	0.00e+00	0	44	0	3896508416	15	4065
2026-01-19 12:42:58.98	339.98	8.95	-27.0	-28.1	14.5	0.00e+00	0	44	0	3913285632	15	4094
2026-01-19 12:43:01.98	340.03	8.70	-27.1	-28.4	14.3	0.00e+00	0	44	0	3930062848	15	4180
2026-01-19 12:43:04.98	340.08	8.46	-27.3	-28.8	14.0	2.20e-06	0	44	0	3946840064	15	4292
2026-01-19 12:43:08.01	340.12	8.22	-27.4	-29.2	13.8	1.10e-06	0	44	0	3964665856	15	4405
2026-01-19 12:43:11.03	340.17	7.97	-27.3	-28.9	13.9	0.00e+00	0	44	0	3981443072	15	4330
2026-01-19 12:43:14.04	340.22	7.74	-27.4	-29.1	13.7	0.00e+00	0	44	0	3998220288	15	4378
2026-01-19 12:43:17.04	340.26	7.50	-27.3	-28.9	13.8	5.70e-06	0	44	0	4014997504	15	4333
2026-01-19 12:43:20.05	340.31	7.27	-27.5	-29.2	13.6	5.70e-06	0	44	0	4031774720	15	4419
2026-01-19 12:43:23.06	340.35	7.04	-33.3	-44.5	3.8	8.46e-01	0	44	104	4045406208	26	13191

#Closed at: 2026-01-19 12:43:25
#Recorded file [4045 MB]: D:/data/31010_260119_153123.dat