passes_logs/2026/01/19/R2M6_AANII_01/R2M6_AANII_01__20260119_231135_NOAA_21_JPSS-2_rec.log

#Pass ID: 20260119_231135_NOAA 21 (JPSS-2)
#Satellite: NOAA 21 (JPSS-2)
#Configuration: NOAA 21
#almurnet v.1.7.20240730
#Start time: 2026-01-19 23:11:36

#Version: 2.2.20231116
#Station: R2M6_AANII_01
#Location: 30.233357 lon 59.946436 lat
#TLE: 1 54234U 22150A   26019.31231101  .00000073  00000+0  55355-4 0  9994
#TLE: 2 54234  98.7504 320.1599 0000604 258.3686 101.7423 14.19535697165426

#Time	Az	El	Level	Level2	SNR	BER	BlckErr	Temp	State	Recorded	gain1	gain2
2026-01-19 23:11:36.67	25.64	7.09	-30.8	-35.7	4.7	1.38e+00	0	42	0	0	21	6340
2026-01-19 23:11:39.68	25.84	7.30	-31.4	-35.9	7.7	1.02e-01	0	42	0	3145728	23	6046
2026-01-19 23:11:42.69	26.05	7.52	-30.6	-34.2	9.7	1.40e-02	0	42	0	12582912	21	5456
2026-01-19 23:11:45.70	26.26	7.73	-30.0	-32.9	11.0	1.64e-03	0	42	0	22020096	20	5030
2026-01-19 23:11:48.72	26.48	7.95	-29.7	-32.7	11.6	9.22e-04	0	42	0	30408704	19	5055
2026-01-19 23:11:51.72	26.70	8.16	-29.7	-32.2	11.6	7.26e-04	0	42	0	40894464	20	4783
2026-01-19 23:11:54.73	26.92	8.38	-29.5	-32.1	12.0	2.30e-04	0	42	0	49283072	19	4853
2026-01-19 23:11:57.74	27.14	8.60	-29.4	-31.9	12.3	1.80e-04	0	42	0	58720256	19	4758
2026-01-19 23:12:00.75	27.37	8.82	-29.6	-32.2	12.0	2.15e-04	0	42	0	68157440	19	4888
2026-01-19 23:12:03.75	27.60	9.04	-29.4	-31.7	12.4	1.75e-04	0	42	0	77594624	19	4694
2026-01-19 23:12:06.76	27.84	9.27	-29.2	-31.7	12.7	7.17e-05	0	43	0	87031808	18	4809
2026-01-19 23:12:09.77	28.07	9.50	-29.1	-31.5	12.9	5.41e-05	0	43	0	96468992	18	4730
2026-01-19 23:12:12.77	28.31	9.72	-29.0	-31.3	13.0	3.58e-05	0	43	0	105906176	18	4657
2026-01-19 23:12:15.78	28.56	9.95	-29.2	-31.6	12.9	5.11e-05	0	43	0	115343360	18	4781
2026-01-19 23:12:18.78	28.81	10.18	-28.9	-31.0	13.2	2.36e-05	0	43	0	124780544	18	4571
2026-01-19 23:12:21.77	29.06	10.41	-28.8	-31.2	13.4	1.44e-05	0	43	0	134217728	17	4746
2026-01-19 23:12:24.77	29.31	10.65	-28.7	-31.0	13.6	1.52e-05	0	43	0	143654912	17	4669
2026-01-19 23:12:27.77	29.57	10.88	-28.8	-31.1	13.5	3.00e-06	0	43	0	153092096	17	4697
2026-01-19 23:12:30.77	29.84	11.12	-29.1	-31.4	13.1	1.12e-04	0	43	0	162529280	18	4702
2026-01-19 23:12:33.77	30.10	11.36	-29.0	-31.1	13.3	2.74e-05	0	43	0	171966464	18	4602
2026-01-19 23:12:36.77	30.37	11.60	-28.7	-31.0	13.6	4.57e-05	0	43	0	181403648	17	4686
2026-01-19 23:12:39.78	30.65	11.85	-28.6	-30.8	13.8	1.22e-05	0	43	0	190840832	17	4614
2026-01-19 23:12:42.78	30.93	12.09	-28.6	-30.7	13.8	3.80e-06	0	43	0	200278016	17	4588
2026-01-19 23:12:45.78	31.22	12.34	-28.8	-31.1	13.6	3.80e-06	0	43	0	209715200	17	4700
2026-01-19 23:12:48.79	31.51	12.59	-28.7	-31.0	13.7	6.80e-06	0	43	0	219152384	17	4661
2026-01-19 23:12:51.81	31.80	12.84	-28.6	-30.6	13.9	6.10e-06	0	43	0	228589568	17	4555
2026-01-19 23:12:54.82	32.10	13.10	-28.6	-30.7	13.9	3.80e-06	0	43	0	236978176	17	4572
2026-01-19 23:12:57.82	32.41	13.35	-28.3	-30.0	14.3	1.11e-04	0	43	0	247463936	17	4361
2026-01-19 23:13:00.83	32.71	13.61	-28.4	-30.3	14.2	1.50e-06	0	43	0	255852544	17	4440
2026-01-19 23:13:03.85	33.03	13.87	-28.5	-30.4	14.1	4.04e-05	0	44	0	265289728	17	4474
2026-01-19 23:13:06.85	33.35	14.13	-28.3	-29.9	14.4	8.69e-05	0	44	0	274726912	17	4333
2026-01-19 23:13:09.85	33.67	14.39	-28.4	-30.6	14.3	0.00e+00	0	43	0	284164096	16	4651
2026-01-19 23:13:12.86	34.01	14.66	-28.5	-30.8	14.2	2.95e-04	0	44	0	293601280	16	4720
2026-01-19 23:13:15.87	34.34	14.92	-28.5	-30.3	14.3	0.00e+00	0	43	0	303038464	17	4452
2026-01-19 23:13:18.87	34.69	15.19	-28.6	-30.7	14.0	4.50e-06	0	44	0	312475648	17	4561
2026-01-19 23:13:21.89	35.04	15.47	-28.5	-30.5	14.1	3.00e-06	0	44	0	321912832	17	4507
2026-01-19 23:13:24.90	35.39	15.74	-28.5	-30.3	14.2	7.00e-07	0	44	0	331350016	17	4453
2026-01-19 23:13:27.90	35.75	16.02	-28.4	-30.1	14.4	7.00e-07	0	44	0	340787200	17	4401
2026-01-19 23:13:30.91	36.12	16.29	-28.2	-29.8	14.6	0.00e+00	0	44	0	350224384	17	4288
2026-01-19 23:13:33.91	36.49	16.57	-28.4	-30.1	14.5	1.50e-06	0	44	0	359661568	17	4371
2026-01-19 23:13:36.93	36.88	16.86	-28.4	-30.1	14.5	1.50e-06	0	44	0	369098752	17	4391
2026-01-19 23:13:39.93	37.26	17.14	-28.3	-29.9	14.6	7.00e-07	0	44	0	378535936	17	4333
2026-01-19 23:13:42.94	37.66	17.43	-28.2	-29.6	14.8	0.00e+00	0	44	0	387973120	17	4236
2026-01-19 23:13:45.95	38.06	17.72	-28.4	-30.0	14.5	0.00e+00	0	44	0	397410304	17	4360
2026-01-19 23:13:48.96	38.47	18.01	-28.3	-29.9	14.6	7.00e-07	0	44	0	406847488	17	4331
2026-01-19 23:13:51.96	38.89	18.30	-28.4	-30.1	14.6	0.00e+00	0	44	0	416284672	17	4377
2026-01-19 23:13:54.97	39.31	18.59	-28.2	-29.7	14.8	0.00e+00	0	44	0	425721856	17	4260
2026-01-19 23:13:57.97	39.75	18.89	-28.3	-29.9	14.7	0.00e+00	0	44	0	435159040	17	4322
2026-01-19 23:14:00.99	40.19	19.19	-28.4	-30.0	14.7	7.00e-07	0	44	0	444596224	17	4343
2026-01-19 23:14:03.99	40.64	19.49	-28.3	-29.7	14.8	0.00e+00	0	44	0	454033408	17	4268
2026-01-19 23:14:07.00	41.10	19.79	-27.9	-29.0	15.2	0.00e+00	0	44	0	463470592	17	4067
2026-01-19 23:14:10.00	41.57	20.10	-28.1	-29.4	15.0	0.00e+00	0	44	0	472907776	17	4184
2026-01-19 23:14:13.01	42.04	20.40	-28.0	-29.7	15.2	0.00e+00	0	44	0	482344960	16	4364
2026-01-19 23:14:16.01	42.53	20.71	-28.1	-29.9	15.1	0.00e+00	0	44	0	490733568	16	4410
2026-01-19 23:14:19.01	43.02	21.02	-27.7	-28.9	15.6	0.00e+00	0	44	0	500170752	16	4149
2026-01-19 23:14:22.01	43.53	21.33	-27.6	-28.8	15.7	0.00e+00	0	44	0	509607936	16	4111
2026-01-19 23:14:25.01	44.04	21.64	-27.6	-28.7	15.8	0.00e+00	0	44	0	519045120	16	4087
2026-01-19 23:14:28.03	44.57	21.96	-27.5	-28.4	15.9	0.00e+00	0	44	0	528482304	16	4005
2026-01-19 23:14:31.04	45.11	22.28	-27.3	-28.5	16.0	0.00e+00	0	44	0	537919488	15	4150
2026-01-19 23:14:34.06	45.66	22.59	-27.3	-29.0	16.0	0.00e+00	0	44	0	547356672	14	4390
2026-01-19 23:14:37.04	46.21	22.91	-27.2	-28.8	16.1	0.00e+00	0	44	0	556793856	14	4330
2026-01-19 23:14:40.05	46.78	23.23	-27.2	-28.8	16.1	0.00e+00	0	44	0	566231040	14	4342
2026-01-19 23:14:43.06	47.37	23.55	-27.1	-28.6	16.2	0.00e+00	0	44	0	575668224	14	4291
2026-01-19 23:14:46.08	47.96	23.88	-27.2	-28.8	16.1	0.00e+00	0	44	0	585105408	14	4343
2026-01-19 23:14:49.08	48.57	24.20	-27.2	-28.9	16.1	0.00e+00	0	44	0	594542592	14	4367
2026-01-19 23:14:52.08	49.18	24.52	-27.3	-29.0	16.0	0.00e+00	0	44	0	603979776	14	4397
2026-01-19 23:14:55.09	49.81	24.85	-27.2	-28.9	16.1	0.00e+00	0	44	0	613416960	14	4362
2026-01-19 23:14:58.08	50.45	25.17	-27.6	-29.3	15.6	0.00e+00	0	44	0	622854144	15	4362
2026-01-19 23:15:01.10	51.11	25.50	-28.2	-30.0	15.2	0.00e+00	0	44	0	632291328	16	4430
2026-01-19 23:15:04.10	51.78	25.82	-28.2	-30.0	15.2	0.00e+00	0	44	0	641728512	16	4451
2026-01-19 23:15:07.11	52.46	26.15	-28.1	-29.9	15.2	0.00e+00	0	44	0	651165696	16	4414
2026-01-19 23:15:10.11	53.16	26.47	-27.9	-29.3	15.6	0.00e+00	0	44	0	660602880	16	4249
2026-01-19 23:15:13.13	53.87	26.80	-28.0	-29.7	15.4	0.00e+00	0	44	0	670040064	16	4353
2026-01-19 23:15:16.14	54.60	27.12	-28.1	-29.8	15.3	0.00e+00	0	44	0	679477248	16	4384
2026-01-19 23:15:19.14	55.34	27.44	-28.1	-29.9	15.3	7.00e-07	0	44	0	688914432	16	4398
2026-01-19 23:15:22.15	56.09	27.76	-28.2	-30.1	15.2	0.00e+00	0	44	0	698351616	16	4455
2026-01-19 23:15:25.16	56.86	28.08	-28.3	-30.3	15.1	0.00e+00	0	44	0	707788800	16	4517
2026-01-19 23:15:28.16	57.65	28.40	-28.3	-30.1	15.1	0.00e+00	0	44	0	716177408	16	4477
2026-01-19 23:15:31.16	58.44	28.71	-28.3	-30.2	15.1	7.00e-07	0	44	0	725614592	16	4493
2026-01-19 23:15:34.16	59.26	29.03	-28.3	-30.2	15.1	7.00e-07	0	44	0	735051776	16	4480
2026-01-19 23:15:37.17	60.09	29.34	-28.2	-30.0	15.2	0.00e+00	0	44	0	744488960	16	4433
2026-01-19 23:15:40.18	60.94	29.64	-28.1	-29.8	15.4	0.00e+00	0	44	0	753926144	16	4363
2026-01-19 23:15:43.20	61.81	29.95	-28.1	-29.8	15.4	0.00e+00	0	44	0	763363328	16	4382
2026-01-19 23:15:46.20	62.68	30.25	-28.3	-30.3	15.1	0.00e+00	0	44	0	772800512	16	4522
2026-01-19 23:15:49.21	63.58	30.54	-28.2	-30.1	15.2	0.00e+00	0	44	0	782237696	16	4460
2026-01-19 23:15:52.23	64.50	30.84	-27.8	-29.2	15.7	1.50e-06	0	44	0	791674880	16	4213
2026-01-19 23:15:55.24	65.43	31.12	-27.9	-29.3	15.7	0.00e+00	0	44	0	801112064	16	4225
2026-01-19 23:15:58.25	66.37	31.40	-28.3	-30.2	15.2	0.00e+00	0	44	0	810549248	16	4483
2026-01-19 23:16:01.25	67.33	31.68	-28.3	-30.2	15.2	0.00e+00	0	44	0	819986432	16	4490
2026-01-19 23:16:04.26	68.31	31.94	-28.2	-30.0	15.4	0.00e+00	0	44	0	829423616	16	4419
2026-01-19 23:16:07.26	69.30	32.20	-28.4	-30.5	15.0	0.00e+00	0	44	0	838860800	16	4592
2026-01-19 23:16:10.28	70.31	32.46	-28.8	-31.0	14.5	0.00e+00	0	44	0	848297984	17	4604
2026-01-19 23:16:13.29	71.33	32.71	-28.7	-30.6	14.7	0.00e+00	0	44	0	857735168	17	4476
2026-01-19 23:16:16.29	72.37	32.94	-28.9	-31.0	14.4	0.00e+00	0	44	0	867172352	17	4622
2026-01-19 23:16:19.29	73.42	33.17	-29.1	-31.0	14.2	1.02e-04	0	44	0	876609536	18	4492
2026-01-19 23:16:22.30	74.49	33.39	-29.1	-31.0	14.1	7.00e-07	0	44	0	886046720	18	4504
2026-01-19 23:16:25.31	75.57	33.60	-29.3	-31.6	13.8	1.22e-05	0	44	0	895483904	18	4702
2026-01-19 23:16:28.32	76.67	33.81	-28.9	-30.7	14.4	9.90e-06	0	44	0	904921088	18	4406
2026-01-19 23:16:31.32	77.78	34.00	-28.7	-30.2	14.6	8.39e-05	0	44	0	914358272	18	4287
2026-01-19 23:16:34.33	78.90	34.18	-28.7	-30.6	14.7	5.86e-04	0	44	0	923795456	17	4499
2026-01-19 23:16:37.33	80.03	34.35	-28.7	-30.7	14.6	0.00e+00	0	44	0	933232640	17	4525
2026-01-19 23:16:40.35	81.18	34.50	-28.8	-30.9	14.5	1.05e-03	0	44	0	942669824	17	4588
2026-01-19 23:16:43.36	82.34	34.65	-28.9	-31.2	14.3	5.95e-04	0	44	0	952107008	17	4671
2026-01-19 23:16:46.37	83.50	34.78	-29.0	-30.8	14.3	3.29e-04	0	44	0	961544192	18	4436
2026-01-19 23:16:49.37	84.68	34.90	-28.9	-30.7	14.4	1.46e-04	0	44	0	969932800	18	4412
2026-01-19 23:16:52.38	85.86	35.01	-29.3	-31.5	13.9	2.20e-06	0	44	0	980418560	18	4662
2026-01-19 23:16:55.39	87.05	35.11	-29.1	-30.6	14.2	1.02e-04	0	44	0	989855744	19	4266
2026-01-19 23:16:58.40	88.25	35.19	-29.1	-30.6	14.1	1.50e-06	0	44	0	998244352	19	4274
2026-01-19 23:17:01.41	89.45	35.25	-28.9	-30.0	14.4	3.00e-06	0	44	0	1007681536	19	4120
2026-01-19 23:17:04.41	90.66	35.31	-28.8	-30.5	14.6	1.50e-06	0	44	0	1017118720	18	4343
2026-01-19 23:17:07.42	91.87	35.35	-29.0	-30.8	14.3	2.20e-06	0	44	0	1026555904	18	4449
2026-01-19 23:17:10.43	93.08	35.37	-29.2	-31.3	14.0	5.30e-06	0	44	0	1035993088	18	4590
2026-01-19 23:17:13.45	94.30	35.39	-29.0	-30.4	14.2	2.20e-06	0	44	0	1045430272	19	4232
2026-01-19 23:17:16.46	95.52	35.38	-28.8	-30.4	14.5	0.00e+00	0	44	0	1054867456	18	4325
2026-01-19 23:17:19.46	96.73	35.37	-28.7	-30.0	14.7	1.50e-06	0	44	0	1064304640	18	4218
2026-01-19 23:17:22.46	97.94	35.34	-28.7	-30.1	14.8	0.00e+00	0	44	0	1073741824	18	4231
2026-01-19 23:17:25.46	99.15	35.29	-28.9	-30.6	14.5	0.00e+00	0	44	0	1083179008	18	4371
2026-01-19 23:17:28.47	100.36	35.23	-28.8	-30.2	14.6	0.00e+00	0	44	0	1092616192	18	4275
2026-01-19 23:17:31.48	101.56	35.16	-29.1	-31.0	14.2	3.80e-06	0	44	0	1102053376	18	4507
2026-01-19 23:17:34.49	102.76	35.08	-29.1	-31.2	14.1	1.50e-06	0	44	0	1111490560	18	4553
2026-01-19 23:17:37.49	103.94	34.98	-29.1	-31.1	14.2	3.00e-06	0	44	0	1120927744	18	4518
2026-01-19 23:17:40.48	105.12	34.86	-28.8	-30.3	14.6	0.00e+00	0	44	0	1130364928	18	4293
2026-01-19 23:17:43.49	106.29	34.74	-28.9	-30.7	14.4	7.00e-07	0	44	0	1139802112	18	4417
2026-01-19 23:17:46.50	107.46	34.60	-28.9	-30.7	14.4	0.00e+00	0	44	0	1149239296	18	4400
2026-01-19 23:17:49.52	108.62	34.45	-29.2	-31.2	14.1	7.00e-07	0	44	0	1158676480	18	4571
2026-01-19 23:17:52.53	109.76	34.29	-29.1	-31.2	14.1	0.00e+00	0	44	0	1168113664	18	4543
2026-01-19 23:17:55.54	110.90	34.12	-29.2	-31.4	14.0	3.80e-06	0	44	0	1177550848	18	4627
2026-01-19 23:17:58.55	112.02	33.93	-29.4	-31.2	13.8	7.60e-06	0	44	0	1186988032	19	4458
2026-01-19 23:18:01.56	113.13	33.74	-29.3	-31.1	13.8	2.20e-06	0	44	0	1196425216	19	4414
2026-01-19 23:18:04.56	114.22	33.53	-29.3	-31.1	13.7	1.50e-06	0	44	0	1205862400	19	4436
2026-01-19 23:18:07.57	115.30	33.32	-29.1	-30.7	14.0	5.64e-05	0	44	0	1215299584	19	4311
2026-01-19 23:18:10.58	116.37	33.09	-28.9	-30.6	14.4	1.50e-06	0	44	0	1224736768	18	4374
2026-01-19 23:18:13.57	117.41	32.86	-28.7	-30.1	14.7	0.00e+00	0	44	0	1234173952	18	4238
2026-01-19 23:18:16.58	118.45	32.62	-28.5	-29.8	14.8	0.00e+00	0	44	0	1242562560	18	4171
2026-01-19 23:18:19.60	119.48	32.37	-28.2	-29.5	15.3	0.00e+00	0	44	0	1251999744	17	4194
2026-01-19 23:18:22.60	120.48	32.11	-28.3	-29.8	15.1	0.00e+00	0	44	0	1261436928	17	4271
2026-01-19 23:18:25.62	121.48	31.84	-28.5	-30.3	14.8	0.00e+00	0	44	0	1270874112	17	4418
2026-01-19 23:18:28.62	122.45	31.57	-28.1	-29.4	15.3	3.35e-05	0	44	0	1280311296	17	4160
2026-01-19 23:18:31.63	123.41	31.29	-27.9	-28.8	15.6	0.00e+00	0	44	0	1289748480	17	4008
2026-01-19 23:18:34.64	124.35	31.01	-28.0	-29.0	15.5	9.10e-06	0	44	0	1299185664	17	4069
2026-01-19 23:18:37.66	125.28	30.72	-28.0	-29.1	15.4	1.50e-06	0	44	0	1308622848	17	4087
2026-01-19 23:18:40.67	126.19	30.43	-28.0	-29.0	15.4	3.80e-06	0	44	0	1318060032	17	4065
2026-01-19 23:18:43.67	127.08	30.13	-28.0	-29.0	15.5	0.00e+00	0	44	0	1327497216	17	4056
2026-01-19 23:18:46.68	127.96	29.82	-28.2	-29.6	15.1	1.50e-06	0	44	0	1336934400	17	4230
2026-01-19 23:18:49.68	128.82	29.52	-27.9	-28.9	15.5	4.50e-06	0	44	0	1346371584	17	4020
2026-01-19 23:18:52.70	129.67	29.21	-27.8	-29.2	15.6	0.00e+00	0	44	0	1355808768	16	4209
2026-01-19 23:18:55.71	130.50	28.89	-27.5	-28.4	15.9	0.00e+00	0	44	0	1365245952	16	4017
2026-01-19 23:18:58.74	131.32	28.57	-27.2	-28.4	16.1	0.00e+00	0	44	0	1374683136	15	4124
2026-01-19 23:19:01.74	132.11	28.26	-27.5	-29.1	15.6	0.00e+00	0	44	0	1384120320	15	4315
2026-01-19 23:19:04.75	132.90	27.94	-27.6	-29.2	15.6	0.00e+00	0	44	0	1393557504	15	4337
2026-01-19 23:19:07.77	133.67	27.61	-27.5	-29.1	15.6	0.00e+00	0	44	0	1402994688	15	4318
2026-01-19 23:19:10.78	134.42	27.29	-27.3	-29.2	15.9	0.00e+00	0	44	0	1412431872	14	4467
2026-01-19 23:19:13.80	135.16	26.96	-27.2	-29.0	15.9	0.00e+00	0	44	0	1421869056	14	4399
2026-01-19 23:19:16.82	135.89	26.63	-27.3	-29.2	15.8	0.00e+00	0	44	0	1431306240	14	4449
2026-01-19 23:19:19.83	136.60	26.31	-27.3	-29.1	15.9	0.00e+00	0	44	0	1440743424	14	4416
2026-01-19 23:19:22.84	137.29	25.98	-27.5	-29.4	15.7	0.00e+00	0	44	0	1450180608	14	4529
2026-01-19 23:19:25.85	137.97	25.65	-27.6	-29.2	15.5	0.00e+00	0	44	0	1459617792	15	4356
2026-01-19 23:19:28.85	138.64	25.32	-27.4	-28.9	15.7	0.00e+00	0	44	0	1469054976	15	4273
2026-01-19 23:19:31.86	139.29	25.00	-27.5	-29.0	15.6	0.00e+00	0	44	0	1478492160	15	4300
2026-01-19 23:19:34.87	139.93	24.67	-27.4	-28.7	15.7	0.00e+00	0	44	0	1487929344	15	4220
2026-01-19 23:19:37.86	140.55	24.34	-27.3	-29.0	15.8	0.00e+00	0	44	0	1497366528	14	4413
2026-01-19 23:19:40.87	141.17	24.02	-27.2	-28.9	15.9	0.00e+00	0	44	0	1506803712	14	4374
2026-01-19 23:19:43.88	141.77	23.69	-27.1	-28.6	16.0	0.00e+00	0	44	0	1516240896	14	4299
2026-01-19 23:19:46.89	142.36	23.37	-27.1	-28.7	15.9	0.00e+00	0	44	0	1525678080	14	4329
2026-01-19 23:19:49.90	142.94	23.04	-27.2	-28.9	15.8	0.00e+00	0	44	0	1535115264	14	4384
2026-01-19 23:19:52.91	143.51	22.72	-27.4	-29.4	15.5	0.00e+00	0	44	0	1543503872	14	4538
2026-01-19 23:19:55.92	144.07	22.40	-27.6	-29.4	15.2	0.00e+00	0	44	0	1552941056	15	4414
2026-01-19 23:19:58.94	144.61	22.08	-27.8	-29.8	15.0	0.00e+00	0	44	0	1563426816	15	4544
2026-01-19 23:20:01.94	145.15	21.76	-27.6	-29.3	15.2	0.00e+00	0	44	0	1571815424	15	4391
2026-01-19 23:20:04.96	145.67	21.44	-27.7	-29.6	15.1	0.00e+00	0	44	0	1581252608	15	4459
2026-01-19 23:20:07.96	146.19	21.13	-27.7	-29.5	15.1	7.00e-07	0	44	0	1590689792	15	4432
2026-01-19 23:20:10.96	146.69	20.82	-27.8	-29.8	14.9	7.00e-07	0	44	0	1600126976	15	4532
2026-01-19 23:20:13.98	147.18	20.50	-27.8	-29.7	14.9	0.00e+00	0	44	0	1609564160	15	4513
2026-01-19 23:20:17.00	147.67	20.19	-27.7	-29.6	15.0	0.00e+00	0	44	0	1619001344	15	4474
2026-01-19 23:20:20.00	148.14	19.88	-27.9	-30.0	14.7	0.00e+00	0	44	0	1628438528	15	4592
2026-01-19 23:20:23.01	148.61	19.58	-27.6	-29.3	15.1	0.00e+00	0	44	0	1637875712	15	4384
2026-01-19 23:20:26.00	149.06	19.28	-27.6	-29.3	15.1	0.00e+00	0	44	0	1647312896	15	4404
2026-01-19 23:20:29.01	149.51	18.97	-27.8	-29.9	14.7	7.00e-07	0	44	0	1656750080	15	4588
2026-01-19 23:20:32.03	149.95	18.67	-27.6	-29.3	15.0	0.00e+00	0	44	0	1666187264	15	4406
2026-01-19 23:20:35.05	150.38	18.37	-27.6	-29.4	14.9	0.00e+00	0	44	0	1675624448	15	4445
2026-01-19 23:20:38.05	150.80	18.08	-27.9	-30.2	14.5	0.00e+00	0	44	0	1685061632	15	4667
2026-01-19 23:20:41.05	151.22	17.78	-28.0	-30.2	14.5	7.00e-07	0	44	0	1694498816	15	4673
2026-01-19 23:20:44.05	151.62	17.49	-28.1	-30.0	14.5	1.50e-06	0	44	0	1703936000	16	4492
2026-01-19 23:20:47.08	152.03	17.20	-28.0	-29.7	14.6	0.00e+00	0	44	0	1713373184	16	4403
2026-01-19 23:20:50.08	152.42	16.91	-27.8	-29.9	14.6	0.00e+00	0	44	0	1722810368	15	4571
2026-01-19 23:20:53.07	152.80	16.63	-27.9	-30.1	14.4	7.00e-07	0	44	0	1732247552	15	4663
2026-01-19 23:20:56.07	153.18	16.35	-28.1	-30.1	14.3	1.50e-06	0	44	0	1741684736	16	4521
2026-01-19 23:20:59.07	153.55	16.07	-28.2	-30.4	14.0	1.50e-06	0	44	0	1751121920	16	4654
2026-01-19 23:21:02.08	153.91	15.79	-28.1	-30.1	14.2	1.50e-06	0	44	0	1760559104	16	4573
2026-01-19 23:21:05.09	154.27	15.51	-28.2	-30.4	14.0	3.00e-06	0	44	0	1769996288	16	4653
2026-01-19 23:21:08.11	154.63	15.23	-28.3	-30.6	14.0	3.00e-06	0	44	0	1779433472	16	4673
2026-01-19 23:21:11.12	154.97	14.96	-28.5	-30.5	13.7	6.80e-06	0	44	0	1788870656	17	4541
2026-01-19 23:21:14.11	155.31	14.69	-28.4	-30.8	13.8	3.00e-06	0	44	0	1797259264	16	4743
2026-01-19 23:21:17.13	155.65	14.42	-28.6	-30.7	13.6	3.00e-06	0	44	0	1807745024	17	4598
2026-01-19 23:21:20.15	155.98	14.15	-28.4	-30.3	13.9	4.50e-06	0	44	0	1817182208	17	4467
2026-01-19 23:21:23.15	156.30	13.89	-28.3	-30.6	14.0	3.00e-06	0	44	0	1825570816	16	4675
2026-01-19 23:21:26.16	156.62	13.63	-28.3	-30.5	14.0	7.00e-07	0	44	0	1835008000	16	4663
2026-01-19 23:21:29.17	156.93	13.37	-28.3	-30.7	13.8	6.10e-06	0	44	0	1844445184	16	4736
2026-01-19 23:21:32.17	157.23	13.11	-28.5	-31.1	13.6	4.50e-06	0	44	0	1853882368	16	4870
2026-01-19 23:21:35.18	157.53	12.85	-28.5	-30.8	13.4	3.46e-03	0	44	0	1863319552	17	4638
2026-01-19 23:21:38.18	157.83	12.60	-28.5	-30.7	13.5	1.52e-05	0	44	0	1872756736	17	4604
2026-01-19 23:21:41.18	158.12	12.35	-28.7	-31.1	13.2	3.04e-03	0	44	0	1882193920	17	4733
2026-01-19 23:21:44.20	158.41	12.09	-28.6	-30.7	13.4	1.37e-05	0	44	0	1891631104	17	4613
2026-01-19 23:21:47.20	158.69	11.85	-28.6	-30.8	13.4	1.52e-05	0	44	0	1901068288	17	4642
2026-01-19 23:21:50.20	158.97	11.60	-28.6	-30.7	13.4	3.27e-03	0	44	0	1910505472	17	4613
2026-01-19 23:21:53.21	159.24	11.36	-28.8	-31.3	13.1	2.89e-05	0	44	0	1919942656	17	4795
2026-01-19 23:21:56.23	159.51	11.11	-28.5	-30.8	13.3	3.66e-03	0	44	0	1929379840	17	4649
2026-01-19 23:21:59.23	159.78	10.87	-28.5	-30.8	13.3	3.44e-03	0	44	0	1938817024	17	4668
2026-01-19 23:22:02.25	160.04	10.63	-28.7	-31.1	13.1	3.88e-03	0	44	0	1948254208	17	4783
2026-01-19 23:22:05.25	160.29	10.39	-29.0	-31.9	12.6	3.81e-03	0	44	0	1957691392	17	5035
2026-01-19 23:22:08.26	160.55	10.16	-29.2	-31.9	12.2	3.78e-03	0	44	0	1967128576	18	4939
2026-01-19 23:22:11.27	160.80	9.92	-29.4	-32.4	11.9	4.65e-03	0	44	0	1976565760	18	5122
2026-01-19 23:22:14.29	161.04	9.69	-29.5	-32.5	11.5	8.17e-04	0	44	0	1986002944	19	5039
2026-01-19 23:22:17.30	161.28	9.46	-29.6	-32.6	11.3	5.15e-03	0	44	0	1995440128	19	5106
2026-01-19 23:22:20.31	161.52	9.23	-29.5	-32.4	11.5	9.60e-04	0	44	0	2004877312	19	5032
2026-01-19 23:22:23.31	161.76	9.01	-29.4	-32.2	11.6	7.78e-04	0	44	0	2014314496	19	4939
2026-01-19 23:22:26.31	161.99	8.78	-29.3	-32.3	11.9	4.05e-04	0	44	0	2023751680	18	5061
2026-01-19 23:22:29.33	162.21	8.56	-29.3	-32.2	12.0	3.01e-04	0	44	0	2033188864	18	5015
2026-01-19 23:22:32.34	162.44	8.33	-29.2	-32.0	12.0	2.72e-04	0	44	0	2042626048	18	4975
2026-01-19 23:22:35.35	162.66	8.11	-29.1	-31.9	12.1	2.75e-04	0	44	0	2052063232	18	4937
2026-01-19 23:22:38.35	162.88	7.89	-29.2	-32.1	11.9	3.78e-04	0	44	0	2061500416	18	5019
2026-01-19 23:22:41.36	163.09	7.68	-29.2	-32.2	11.8	4.59e-04	0	44	0	2070937600	18	5064
2026-01-19 23:22:44.37	163.30	7.46	-29.1	-32.1	11.8	8.71e-04	0	44	0	2079326208	18	5043
2026-01-19 23:22:47.37	163.51	7.25	-29.3	-32.6	11.5	7.65e-04	0	44	0	2089811968	18	5237
2026-01-19 23:22:50.40	163.72	7.03	-32.3	-44.7	3.8	1.49e+00	0	44	104	2096103424	25	15093

#Closed at: 2026-01-19 23:22:53
#Recorded file [2096 MB]: D:/data/31010_260120_021138.dat