passes_logs/2026/01/19/R2M6_AANII_01/R2M6_AANII_01__20260119_023839_FENGYUN_3D_rec.log

#Pass ID: 20260119_023839_FENGYUN 3D
#Satellite: FENGYUN 3D
#Configuration: FENGYUN 3D
#almurnet v.1.7.20240730
#Start time: 2026-01-19 02:38:40

#Version: 2.2.20231116
#Station: R2M6_AANII_01
#Location: 30.233357 lon 59.946436 lat
#TLE: 1 43010U 17072A   26017.96359538  .00000271  00000+0  15011-3 0  9999
#TLE: 2 43010  98.9936 349.8252 0002386 103.8840 256.2601 14.19697057423673

#Time	Az	El	Level	Level2	SNR	BER	BlckErr	Temp	State	Recorded	gain1	gain2
2026-01-19 02:38:40.90	17.56	7.14	-30.4	-34.2	5.3	7.91e-01	0	42	0	0	20	5546
2026-01-19 02:38:43.90	17.54	7.37	-30.6	-34.3	8.9	4.18e-02	0	42	0	5242880	21	5466
2026-01-19 02:38:46.92	17.52	7.61	-29.5	-32.1	11.2	5.80e-03	0	42	0	22020096	19	4859
2026-01-19 02:38:49.92	17.49	7.84	-29.2	-31.7	11.8	8.26e-04	0	42	0	38797312	18	4816
2026-01-19 02:38:52.93	17.47	8.08	-28.3	-30.5	13.2	1.97e-03	0	42	0	55574528	16	4652
2026-01-19 02:38:55.94	17.44	8.32	-28.3	-30.5	13.2	2.05e-03	0	42	0	73400320	16	4661
2026-01-19 02:38:58.95	17.42	8.57	-27.6	-29.4	14.0	1.10e-06	0	42	0	90177536	15	4431
2026-01-19 02:39:01.97	17.39	8.82	-27.4	-29.0	14.2	3.40e-06	0	42	0	106954752	15	4317
2026-01-19 02:39:04.98	17.36	9.07	-27.2	-29.1	14.5	1.73e-03	0	43	0	123731968	14	4449
2026-01-19 02:39:07.99	17.34	9.32	-27.2	-29.0	14.6	0.00e+00	0	42	0	140509184	14	4432
2026-01-19 02:39:10.99	17.31	9.57	-27.1	-28.7	14.7	0.00e+00	0	43	0	157286400	14	4352
2026-01-19 02:39:14.00	17.28	9.83	-27.1	-28.7	14.8	0.00e+00	0	43	0	175112192	14	4351
2026-01-19 02:39:17.01	17.25	10.09	-27.1	-28.7	14.8	0.00e+00	0	42	0	191889408	14	4355
2026-01-19 02:39:20.01	17.22	10.35	-26.9	-28.8	15.0	0.00e+00	0	43	0	208666624	13	4502
2026-01-19 02:39:23.03	17.19	10.62	-26.8	-28.1	15.1	0.00e+00	0	43	0	225443840	14	4182
2026-01-19 02:39:26.05	17.16	10.89	-26.9	-28.9	15.0	0.00e+00	0	43	0	242221056	13	4513
2026-01-19 02:39:29.06	17.13	11.16	-27.1	-28.8	14.8	0.00e+00	0	43	0	258998272	14	4367
2026-01-19 02:39:32.07	17.09	11.43	-26.9	-28.3	15.1	0.00e+00	0	43	0	275775488	14	4227
2026-01-19 02:39:35.07	17.06	11.71	-27.1	-28.8	14.8	0.00e+00	0	43	0	293601280	14	4369
2026-01-19 02:39:38.08	17.02	11.99	-26.9	-28.2	15.1	2.20e-06	0	43	0	310378496	14	4215
2026-01-19 02:39:41.08	16.99	12.27	-26.7	-28.4	15.3	0.00e+00	0	43	0	327155712	13	4381
2026-01-19 02:39:44.10	16.95	12.56	-26.8	-28.6	15.2	0.00e+00	0	43	0	343932928	13	4433
2026-01-19 02:39:47.11	16.91	12.85	-26.8	-28.5	15.3	0.00e+00	0	43	0	360710144	13	4386
2026-01-19 02:39:50.12	16.87	13.14	-26.6	-28.1	15.5	0.00e+00	0	43	0	377487360	13	4282
2026-01-19 02:39:53.12	16.83	13.44	-26.5	-28.0	15.6	0.00e+00	0	43	0	394264576	13	4257
2026-01-19 02:39:56.13	16.79	13.74	-26.5	-27.8	15.7	0.00e+00	0	43	0	411041792	13	4214
2026-01-19 02:39:59.14	16.75	14.05	-26.5	-28.3	15.8	0.00e+00	0	43	0	428867584	12	4455
2026-01-19 02:40:02.14	16.70	14.36	-26.5	-27.8	15.8	0.00e+00	0	43	0	445644800	13	4209
2026-01-19 02:40:05.15	16.66	14.67	-26.4	-28.1	15.9	0.00e+00	0	43	0	462422016	12	4411
2026-01-19 02:40:08.16	16.61	14.98	-26.6	-28.2	15.6	0.00e+00	0	43	0	479199232	13	4306
2026-01-19 02:40:11.16	16.57	15.30	-26.4	-27.7	15.9	2.56e-04	0	43	0	495976448	13	4165
2026-01-19 02:40:14.17	16.52	15.63	-26.1	-27.5	16.3	0.00e+00	0	44	0	512753664	12	4235
2026-01-19 02:40:17.17	16.47	15.96	-26.0	-27.7	16.5	0.00e+00	0	44	0	529530880	11	4394
2026-01-19 02:40:20.18	16.42	16.29	-25.8	-27.3	16.7	0.00e+00	0	44	0	546308096	11	4304
2026-01-19 02:40:23.19	16.36	16.63	-25.6	-26.9	17.0	2.37e-04	0	44	0	564133888	11	4181
2026-01-19 02:40:26.19	16.31	16.97	-25.5	-26.8	17.1	0.00e+00	0	43	0	580911104	11	4150
2026-01-19 02:40:29.21	16.25	17.32	-25.6	-26.9	17.0	2.22e-04	0	44	0	597688320	11	4195
2026-01-19 02:40:32.21	16.20	17.68	-25.3	-26.8	17.4	1.92e-04	0	44	0	614465536	10	4258
2026-01-19 02:40:35.23	16.14	18.04	-25.1	-26.4	17.5	2.44e-04	0	44	0	631242752	10	4164
2026-01-19 02:40:38.24	16.08	18.40	-25.0	-26.0	17.8	0.00e+00	0	44	0	648019968	10	4076
2026-01-19 02:40:41.25	16.01	18.77	-24.9	-26.4	17.8	1.96e-04	0	44	0	665845760	9	4287
2026-01-19 02:40:44.26	15.95	19.15	-24.7	-26.0	18.0	1.92e-04	0	44	0	682622976	9	4187
2026-01-19 02:40:47.27	15.88	19.53	-24.7	-26.0	18.1	0.00e+00	0	44	0	699400192	9	4171
2026-01-19 02:40:50.28	15.81	19.91	-24.7	-26.0	18.1	0.00e+00	0	44	0	716177408	9	4163
2026-01-19 02:40:53.29	15.74	20.31	-24.8	-26.1	18.0	1.59e-04	0	44	0	732954624	9	4193
2026-01-19 02:40:56.28	15.67	20.70	-25.0	-26.5	17.8	1.98e-04	0	44	0	749731840	9	4304
2026-01-19 02:40:59.30	15.60	21.11	-25.0	-26.0	17.8	0.00e+00	0	44	0	766509056	10	4066
2026-01-19 02:41:02.30	15.52	21.52	-25.4	-26.5	17.4	0.00e+00	0	44	0	784334848	11	4065
2026-01-19 02:41:05.31	15.44	21.94	-25.1	-26.4	17.7	1.97e-04	0	44	0	801112064	10	4152
2026-01-19 02:41:08.32	15.36	22.36	-25.0	-26.2	17.8	0.00e+00	0	44	0	817889280	10	4104
2026-01-19 02:41:11.32	15.28	22.79	-24.8	-26.2	18.0	0.00e+00	0	44	0	834666496	9	4240
2026-01-19 02:41:14.33	15.19	23.24	-24.7	-26.0	18.2	0.00e+00	0	44	0	851443712	9	4178
2026-01-19 02:41:17.35	15.10	23.68	-25.0	-26.1	17.9	0.00e+00	0	44	0	868220928	10	4081
2026-01-19 02:41:20.36	15.00	24.14	-24.7	-25.9	18.2	0.00e+00	0	44	0	884998144	9	4157
2026-01-19 02:41:23.36	14.91	24.60	-24.6	-25.8	18.3	0.00e+00	0	44	0	902823936	9	4117
2026-01-19 02:41:26.37	14.81	25.07	-24.2	-25.3	18.8	0.00e+00	0	44	0	919601152	8	4117
2026-01-19 02:41:29.37	14.71	25.55	-24.2	-25.3	18.9	0.00e+00	0	44	0	936378368	8	4114
2026-01-19 02:41:32.39	14.60	26.04	-24.1	-25.1	19.0	0.00e+00	0	44	0	953155584	8	4071
2026-01-19 02:41:35.40	14.49	26.54	-23.9	-24.8	19.2	0.00e+00	0	44	0	969932800	8	3977
2026-01-19 02:41:38.41	14.37	27.05	-23.6	-24.1	19.5	0.00e+00	0	44	0	986710016	8	3815
2026-01-19 02:41:41.42	14.26	27.57	-23.6	-24.6	19.5	0.00e+00	0	44	0	1003487232	7	4037
2026-01-19 02:41:44.43	14.13	28.09	-23.8	-25.0	19.3	0.00e+00	0	44	0	1020264448	7	4148
2026-01-19 02:41:47.43	14.01	28.63	-23.8	-25.1	19.2	0.00e+00	0	44	0	1038090240	7	4179
2026-01-19 02:41:50.44	13.88	29.17	-23.9	-25.2	19.2	0.00e+00	0	44	0	1054867456	7	4205
2026-01-19 02:41:53.45	13.74	29.73	-24.1	-25.3	18.9	0.00e+00	0	44	0	1071644672	8	4100
2026-01-19 02:41:56.47	13.60	30.30	-24.2	-25.3	18.9	0.00e+00	0	44	0	1088421888	8	4111
2026-01-19 02:41:59.48	13.45	30.88	-24.0	-25.0	19.1	0.00e+00	0	44	0	1105199104	8	4024
2026-01-19 02:42:02.48	13.30	31.47	-23.3	-23.8	19.4	0.00e+00	0	44	0	1121976320	8	3820
2026-01-19 02:42:05.49	13.14	32.08	-23.6	-24.6	19.3	0.00e+00	0	44	0	1138753536	7	4045
2026-01-19 02:42:08.50	12.97	32.69	-23.6	-24.6	19.5	0.00e+00	0	44	0	1155530752	7	4049
2026-01-19 02:42:11.50	12.80	33.32	-23.7	-24.8	19.4	3.44e-04	0	44	0	1173356544	7	4100
2026-01-19 02:42:14.51	12.62	33.96	-23.6	-24.6	19.5	0.00e+00	0	44	0	1190133760	7	4047
2026-01-19 02:42:17.52	12.43	34.61	-23.3	-24.0	19.9	0.00e+00	0	44	0	1206910976	7	3905
2026-01-19 02:42:20.51	12.23	35.28	-23.1	-23.6	20.1	5.27e-04	0	44	0	1223688192	7	3822
2026-01-19 02:42:23.53	12.03	35.96	-23.4	-24.2	19.7	6.23e-04	0	44	0	1240465408	7	3962
2026-01-19 02:42:26.54	11.81	36.66	-23.8	-25.1	19.3	0.00e+00	0	44	0	1257242624	7	4167
2026-01-19 02:42:29.54	11.59	37.37	-23.4	-23.7	19.8	4.15e-04	0	44	0	1274019840	8	3739
2026-01-19 02:42:32.55	11.35	38.09	-23.3	-24.0	19.9	3.15e-04	0	44	0	1291845632	7	3904
2026-01-19 02:42:35.56	11.11	38.84	-23.1	-23.5	20.2	1.77e-04	0	44	0	1308622848	7	3796
2026-01-19 02:42:38.57	10.85	39.59	-23.1	-23.6	20.1	5.49e-05	0	44	0	1325400064	7	3814
2026-01-19 02:42:41.58	10.57	40.37	-23.6	-24.7	19.6	0.00e+00	0	44	0	1342177280	7	4059
2026-01-19 02:42:44.60	10.29	41.16	-23.9	-25.2	19.3	0.00e+00	0	44	0	1358954496	7	4212
2026-01-19 02:42:47.61	9.99	41.97	-23.8	-25.0	19.4	0.00e+00	0	44	0	1375731712	7	4147
2026-01-19 02:42:50.63	9.67	42.80	-23.9	-24.7	19.4	7.32e-05	0	44	0	1393557504	8	3950
2026-01-19 02:42:53.63	9.34	43.63	-23.8	-24.6	19.4	5.70e-06	0	44	0	1410334720	8	3947
2026-01-19 02:42:56.64	8.98	44.49	-24.4	-25.7	18.9	0.00e+00	0	44	0	1427111936	8	4214
2026-01-19 02:42:59.64	8.61	45.37	-24.6	-25.6	18.7	0.00e+00	0	44	0	1443889152	9	4077
2026-01-19 02:43:02.64	8.21	46.26	-24.2	-24.9	19.1	2.14e-04	0	44	0	1460666368	9	3887
2026-01-19 02:43:05.66	7.79	47.18	-23.9	-24.9	19.3	0.00e+00	0	44	0	1477443584	8	3997
2026-01-19 02:43:08.67	7.35	48.11	-24.4	-25.8	18.8	0.00e+00	0	44	0	1494220800	8	4234
2026-01-19 02:43:11.67	6.87	49.06	-24.7	-25.9	18.6	0.00e+00	0	44	0	1510998016	9	4140
2026-01-19 02:43:14.68	6.37	50.03	-24.8	-26.2	18.4	0.00e+00	0	44	0	1528823808	9	4216
2026-01-19 02:43:17.69	5.83	51.01	-24.7	-25.4	18.6	0.00e+00	0	44	0	1545601024	10	3911
2026-01-19 02:43:20.70	5.25	52.02	-25.3	-26.8	17.9	0.00e+00	0	44	0	1562378240	10	4256
2026-01-19 02:43:23.71	4.63	53.05	-24.5	-25.0	18.8	0.00e+00	0	44	0	1579155456	10	3811
2026-01-19 02:43:26.73	3.96	54.09	-24.9	-26.4	18.3	0.00e+00	0	44	0	1595932672	9	4276
2026-01-19 02:43:29.73	3.24	55.15	-25.2	-26.5	18.0	0.00e+00	0	44	0	1612709888	10	4184
2026-01-19 02:43:32.74	2.46	56.22	-24.2	-24.9	19.1	0.00e+00	0	44	0	1629487104	9	3891
2026-01-19 02:43:35.75	1.63	57.31	-24.0	-25.0	19.3	0.00e+00	0	44	0	1647312896	8	4027
2026-01-19 02:43:38.77	0.71	58.42	-24.8	-26.1	18.5	0.00e+00	0	44	0	1664090112	9	4197
2026-01-19 02:43:41.78	359.72	59.54	-23.4	-23.8	19.9	0.00e+00	0	44	0	1680867328	8	3742
2026-01-19 02:43:44.79	358.64	60.67	-23.9	-24.8	19.4	0.00e+00	0	44	0	1697644544	8	3989
2026-01-19 02:43:47.80	357.45	61.82	-23.7	-24.2	19.7	0.00e+00	0	44	0	1714421760	8	3838
2026-01-19 02:43:50.80	356.15	62.96	-23.7	-24.9	19.6	0.00e+00	0	44	0	1732247552	7	4119
2026-01-19 02:43:53.81	354.72	64.12	-23.8	-24.5	19.6	0.00e+00	0	44	0	1749024768	8	3913
2026-01-19 02:43:56.82	353.13	65.27	-23.6	-24.6	19.8	0.00e+00	0	44	0	1765801984	7	4041
2026-01-19 02:43:59.82	351.38	66.43	-22.9	-23.6	20.5	0.00e+00	0	44	0	1782579200	6	3923
2026-01-19 02:44:02.82	349.42	67.57	-22.7	-23.3	15.6	0.00e+00	0	44	0	1799356416	6	3860
2026-01-19 02:44:05.83	347.23	68.71	-22.8	-24.0	20.5	0.00e+00	0	44	0	1816133632	5	4133
2026-01-19 02:44:08.83	344.77	69.82	-22.6	-23.6	20.8	0.00e+00	0	44	0	1832910848	5	4025
2026-01-19 02:44:11.84	342.01	70.91	-22.2	-22.6	21.2	0.00e+00	0	44	0	1849688064	5	3801
2026-01-19 02:44:14.85	338.88	71.97	-22.7	-23.8	20.6	0.00e+00	0	44	0	1867513856	5	4087
2026-01-19 02:44:17.84	335.38	72.97	-22.8	-24.0	20.5	0.00e+00	0	44	0	1883242496	5	4121
2026-01-19 02:44:20.86	331.39	73.92	-22.3	-22.9	21.1	2.37e-04	0	44	0	1901068288	5	3865
2026-01-19 02:44:23.87	326.91	74.79	-22.2	-22.7	21.2	0.00e+00	0	44	0	1917845504	5	3825
2026-01-19 02:44:26.87	321.91	75.56	-21.9	-22.1	21.5	0.00e+00	0	44	0	1934622720	5	3677
2026-01-19 02:44:29.89	316.33	76.23	-21.5	-21.7	21.9	3.08e-04	0	44	0	1951399936	4	3704
2026-01-19 02:44:32.89	310.28	76.75	-21.3	-21.8	22.2	1.19e-04	0	44	0	1968177152	3	3834
2026-01-19 02:44:35.90	303.77	77.12	-21.4	-22.1	22.0	0.00e+00	0	44	0	1984954368	3	3898
2026-01-19 02:44:38.91	296.95	77.32	-21.8	-23.0	21.5	6.13e-04	0	44	0	2002780160	3	4120
2026-01-19 02:44:41.93	289.99	77.34	-21.9	-22.5	21.5	4.86e-04	0	44	0	2019557376	4	3893
2026-01-19 02:44:44.94	283.13	77.17	-22.0	-22.7	21.4	7.46e-04	0	44	0	2036334592	4	3935
2026-01-19 02:44:47.95	276.54	76.84	-22.3	-23.4	21.0	0.00e+00	0	44	0	2053111808	4	4102
2026-01-19 02:44:50.96	270.36	76.35	-22.5	-22.8	20.8	3.32e-04	0	44	0	2069889024	6	3743
2026-01-19 02:44:53.98	264.66	75.71	-21.3	-21.9	22.0	0.00e+00	0	44	0	2086666240	3	3857
2026-01-19 02:44:57.00	259.52	74.96	-21.7	-22.6	21.7	0.00e+00	0	44	0	2104492032	3	4015
2026-01-19 02:45:00.02	254.91	74.10	-21.9	-23.1	21.4	0.00e+00	0	44	0	2121269248	3	4147
2026-01-19 02:45:03.03	250.83	73.17	-22.3	-23.4	21.0	0.00e+00	0	44	0	2138046464	4	4084
2026-01-19 02:45:06.04	247.22	72.17	-21.8	-22.4	21.5	0.00e+00	0	44	0	2154823680	4	3853
2026-01-19 02:45:09.05	244.01	71.12	-22.3	-23.5	20.9	0.00e+00	0	44	0	2171600896	4	4114
2026-01-19 02:45:12.07	241.17	70.03	-22.6	-23.6	20.6	0.00e+00	0	44	0	2188378112	5	4033
2026-01-19 02:45:15.10	238.63	68.91	-22.5	-23.4	20.7	0.00e+00	0	44	0	2206203904	5	3993
2026-01-19 02:45:18.10	236.40	67.77	-22.5	-23.3	20.8	0.00e+00	0	44	0	2222981120	5	3952
2026-01-19 02:45:21.10	234.40	66.63	-22.4	-23.1	20.8	0.00e+00	0	44	0	2239758336	5	3915
2026-01-19 02:45:24.11	232.60	65.47	-22.5	-23.4	20.7	0.00e+00	0	44	0	2256535552	5	3993
2026-01-19 02:45:27.12	230.98	64.31	-23.1	-24.1	20.1	0.00e+00	0	44	0	2273312768	6	4057
2026-01-19 02:45:30.13	229.52	63.15	-22.9	-23.6	20.4	0.00e+00	0	44	0	2290089984	6	3923
2026-01-19 02:45:33.14	228.19	62.00	-23.2	-24.4	19.9	0.00e+00	0	44	0	2306867200	6	4113
2026-01-19 02:45:36.14	226.99	60.86	-23.7	-24.8	19.5	0.00e+00	0	44	0	2323644416	7	4110
2026-01-19 02:45:39.14	225.89	59.72	-23.4	-24.1	19.8	0.00e+00	0	44	0	2340421632	7	3936
2026-01-19 02:45:42.14	224.88	58.60	-23.8	-25.1	19.3	0.00e+00	0	44	0	2358247424	7	4165
2026-01-19 02:45:45.14	223.96	57.49	-23.8	-25.0	19.4	0.00e+00	0	44	0	2375024640	7	4153
2026-01-19 02:45:48.16	223.10	56.39	-24.2	-25.3	19.0	0.00e+00	0	44	0	2391801856	8	4120
2026-01-19 02:45:51.18	222.31	55.31	-24.5	-25.9	18.6	0.00e+00	0	44	0	2408579072	8	4262
2026-01-19 02:45:54.18	221.59	54.24	-25.0	-26.0	18.1	0.00e+00	0	44	0	2425356288	10	4076
2026-01-19 02:45:57.19	220.91	53.20	-24.6	-25.8	18.5	0.00e+00	0	44	0	2442133504	9	4116
2026-01-19 02:46:00.21	220.28	52.16	-23.8	-24.1	19.3	0.00e+00	0	44	0	2459959296	9	3718
2026-01-19 02:46:03.22	219.69	51.15	-23.6	-24.5	19.6	0.00e+00	0	44	0	2476736512	7	4035
2026-01-19 02:46:06.23	219.14	50.15	-23.5	-24.4	19.6	0.00e+00	0	44	0	2493513728	7	4009
2026-01-19 02:46:09.24	218.63	49.18	-23.5	-24.4	19.6	0.00e+00	0	44	0	2510290944	7	4002
2026-01-19 02:46:12.25	218.14	48.22	-23.5	-24.4	19.6	0.00e+00	0	44	0	2527068160	7	3994
2026-01-19 02:46:15.25	217.69	47.28	-23.7	-25.0	19.3	0.00e+00	0	44	0	2543845376	7	4145
2026-01-19 02:46:18.26	217.27	46.36	-23.3	-23.9	19.8	0.00e+00	0	44	0	2560622592	7	3894
2026-01-19 02:46:21.28	216.86	45.46	-23.2	-24.2	19.9	0.00e+00	0	44	0	2578448384	6	4069
2026-01-19 02:46:24.29	216.49	44.58	-23.3	-24.5	19.8	0.00e+00	0	44	0	2595225600	6	4144
2026-01-19 02:46:27.30	216.13	43.71	-23.2	-24.3	19.8	0.00e+00	0	44	0	2612002816	6	4089
2026-01-19 02:46:30.31	215.79	42.86	-23.0	-23.9	20.0	0.00e+00	0	44	0	2628780032	6	3986
2026-01-19 02:46:33.32	215.47	42.03	-23.2	-24.2	19.9	0.00e+00	0	44	0	2645557248	6	4076
2026-01-19 02:46:36.33	215.16	41.22	-23.1	-24.0	20.0	0.00e+00	0	44	0	2662334464	6	4024
2026-01-19 02:46:39.35	214.87	40.42	-22.8	-23.6	20.2	0.00e+00	0	44	0	2680160256	6	3912
2026-01-19 02:46:42.36	214.60	39.64	-22.8	-23.5	20.2	0.00e+00	0	44	0	2696937472	6	3909
2026-01-19 02:46:45.38	214.33	38.88	-22.8	-24.1	20.2	0.00e+00	0	44	0	2713714688	5	4151
2026-01-19 02:46:48.39	214.08	38.13	-22.9	-24.2	20.1	0.00e+00	0	44	0	2730491904	5	4181
2026-01-19 02:46:51.39	213.85	37.40	-22.9	-24.2	20.1	0.00e+00	0	44	0	2747269120	5	4185
2026-01-19 02:46:54.41	213.62	36.68	-22.9	-24.3	20.0	0.00e+00	0	44	0	2764046336	5	4207
2026-01-19 02:46:57.41	213.40	35.98	-23.2	-24.4	19.7	0.00e+00	0	44	0	2781872128	6	4128
2026-01-19 02:47:00.42	213.19	35.29	-23.4	-24.7	19.6	0.00e+00	0	44	0	2798649344	6	4190
2026-01-19 02:47:03.43	212.99	34.62	-23.0	-24.0	20.0	0.00e+00	0	44	0	2815426560	6	4009
2026-01-19 02:47:06.43	212.80	33.96	-22.9	-23.7	20.1	0.00e+00	0	44	0	2832203776	6	3954
2026-01-19 02:47:09.43	212.62	33.32	-23.0	-23.9	20.0	0.00e+00	0	44	0	2848980992	6	3991
2026-01-19 02:47:12.44	212.44	32.69	-23.2	-24.3	19.8	0.00e+00	0	44	0	2865758208	6	4096
2026-01-19 02:47:15.44	212.28	32.07	-23.4	-24.8	19.5	0.00e+00	0	44	0	2882535424	6	4204
2026-01-19 02:47:18.46	212.11	31.46	-23.5	-24.6	19.4	0.00e+00	0	44	0	2899312640	7	4047
2026-01-19 02:47:21.47	211.96	30.87	-23.7	-24.8	19.2	0.00e+00	0	44	0	2917138432	7	4098
2026-01-19 02:47:24.48	211.81	30.28	-23.7	-24.8	19.2	0.00e+00	0	44	0	2933915648	7	4107
2026-01-19 02:47:27.50	211.66	29.71	-23.8	-25.0	19.1	0.00e+00	0	44	0	2950692864	7	4156
2026-01-19 02:47:30.51	211.52	29.15	-23.5	-24.5	19.4	0.00e+00	0	44	0	2967470080	7	4021
2026-01-19 02:47:33.51	211.39	28.60	-23.3	-24.1	19.6	0.00e+00	0	44	0	2984247296	7	3922
2026-01-19 02:47:36.51	211.26	28.06	-23.3	-24.6	19.5	0.00e+00	0	44	0	3001024512	6	4173
2026-01-19 02:47:39.53	211.13	27.53	-23.4	-24.8	19.4	0.00e+00	0	44	0	3017801728	6	4228
2026-01-19 02:47:42.53	211.01	27.01	-23.5	-24.4	19.4	0.00e+00	0	44	0	3034578944	7	4017
2026-01-19 02:47:45.53	210.90	26.50	-23.5	-24.5	19.3	0.00e+00	0	44	0	3052404736	7	4043
2026-01-19 02:47:48.55	210.79	26.00	-23.7	-24.9	19.1	0.00e+00	0	44	0	3069181952	7	4124
2026-01-19 02:47:51.55	210.68	25.51	-23.6	-24.8	19.2	0.00e+00	0	44	0	3085959168	7	4101
2026-01-19 02:47:54.56	210.57	25.02	-23.7	-24.9	19.1	6.73e-04	0	44	0	3102736384	7	4116
2026-01-19 02:47:57.57	210.47	24.55	-23.6	-24.7	19.2	1.10e-06	0	44	0	3119513600	7	4076
2026-01-19 02:48:00.56	210.37	24.09	-23.8	-25.0	19.0	1.10e-06	0	44	0	3136290816	7	4163
2026-01-19 02:48:03.57	210.28	23.63	-23.9	-25.3	18.9	0.00e+00	0	44	0	3153068032	7	4228
2026-01-19 02:48:06.58	210.18	23.18	-24.4	-25.9	18.3	8.07e-04	0	44	0	3169845248	8	4272
2026-01-19 02:48:09.57	210.10	22.74	-24.7	-25.9	18.0	0.00e+00	0	44	0	3187671040	9	4166
2026-01-19 02:48:12.58	210.01	22.30	-24.8	-26.3	17.8	0.00e+00	0	44	0	3204448256	9	4257
2026-01-19 02:48:15.59	209.92	21.87	-24.8	-26.2	17.8	8.37e-04	0	44	0	3221225472	9	4242
2026-01-19 02:48:18.60	209.84	21.45	-24.7	-26.1	17.9	8.82e-04	0	44	0	3238002688	9	4204
2026-01-19 02:48:21.60	209.76	21.04	-24.7	-26.1	17.9	2.86e-05	0	44	0	3254779904	9	4212
2026-01-19 02:48:24.60	209.69	20.63	-24.4	-25.4	18.2	9.89e-04	0	44	0	3271557120	9	4041
2026-01-19 02:48:27.60	209.61	20.23	-24.4	-25.4	18.2	9.29e-04	0	44	0	3288334336	9	4039
2026-01-19 02:48:30.60	209.54	19.84	-24.5	-25.6	18.1	9.29e-04	0	44	0	3305111552	9	4084
2026-01-19 02:48:33.61	209.47	19.45	-24.6	-25.7	18.0	0.00e+00	0	44	0	3322937344	9	4109
2026-01-19 02:48:36.62	209.40	19.07	-24.7	-26.0	17.9	7.82e-04	0	44	0	3339714560	9	4185
2026-01-19 02:48:39.63	209.33	18.69	-25.0	-26.6	17.5	9.07e-04	0	44	0	3356491776	9	4341
2026-01-19 02:48:42.63	209.27	18.32	-25.2	-26.6	17.3	0.00e+00	0	44	0	3373268992	10	4217
2026-01-19 02:48:45.64	209.21	17.95	-25.4	-27.0	17.0	0.00e+00	0	44	0	3390046208	10	4333
2026-01-19 02:48:48.66	209.15	17.59	-25.6	-27.0	16.8	1.25e-03	0	44	0	3406823424	11	4216
2026-01-19 02:48:51.67	209.09	17.24	-25.4	-26.5	17.0	0.00e+00	0	44	0	3423600640	11	4080
2026-01-19 02:48:54.67	209.03	16.89	-25.2	-26.6	17.2	0.00e+00	0	44	0	3440377856	10	4234
2026-01-19 02:48:57.68	208.97	16.54	-25.1	-26.4	17.3	0.00e+00	0	44	0	3458203648	10	4167
2026-01-19 02:49:00.69	208.92	16.20	-25.2	-26.6	17.1	1.13e-03	0	44	0	3474980864	10	4235
2026-01-19 02:49:03.70	208.86	15.87	-25.2	-26.7	17.1	0.00e+00	0	44	0	3491758080	10	4255
2026-01-19 02:49:06.72	208.81	15.53	-25.5	-27.2	16.8	0.00e+00	0	44	0	3508535296	10	4375
2026-01-19 02:49:09.74	208.76	15.21	-25.5	-27.2	16.8	0.00e+00	0	44	0	3525312512	10	4390
2026-01-19 02:49:12.76	208.71	14.88	-25.6	-26.9	16.7	0.00e+00	0	44	0	3543138304	11	4186
2026-01-19 02:49:15.77	208.66	14.56	-25.6	-27.1	16.6	0.00e+00	0	44	0	3559915520	11	4244
2026-01-19 02:49:18.78	208.61	14.25	-25.8	-27.4	16.4	0.00e+00	0	44	0	3576692736	11	4329
2026-01-19 02:49:21.79	208.57	13.94	-25.9	-27.7	16.2	0.00e+00	0	44	0	3593469952	11	4404
2026-01-19 02:49:24.81	208.52	13.63	-25.9	-27.7	16.2	0.00e+00	0	44	0	3610247168	11	4416
2026-01-19 02:49:27.82	208.48	13.33	-25.9	-27.2	16.1	0.00e+00	0	44	0	3627024384	12	4183
2026-01-19 02:49:30.83	208.44	13.03	-26.1	-27.6	15.9	0.00e+00	0	44	0	3643801600	12	4274
2026-01-19 02:49:33.85	208.39	12.73	-26.0	-27.5	15.9	0.00e+00	0	44	0	3660578816	12	4252
2026-01-19 02:49:36.85	208.35	12.44	-26.1	-27.6	15.8	0.00e+00	0	44	0	3678404608	12	4286
2026-01-19 02:49:39.85	208.31	12.15	-26.2	-27.7	15.7	0.00e+00	0	44	0	3695181824	12	4316
2026-01-19 02:49:42.86	208.27	11.87	-26.3	-28.0	15.6	0.00e+00	0	44	0	3711959040	12	4398
2026-01-19 02:49:45.86	208.24	11.59	-26.2	-27.9	15.4	0.00e+00	0	44	0	3728736256	12	4379
2026-01-19 02:49:48.86	208.20	11.31	-26.6	-28.2	14.7	0.00e+00	0	44	0	3745513472	13	4342
2026-01-19 02:49:51.85	208.16	11.04	-26.6	-28.1	15.2	0.00e+00	0	44	0	3762290688	13	4302
2026-01-19 02:49:54.86	208.13	10.77	-26.4	-27.9	15.3	8.93e-04	0	44	0	3779067904	13	4239
2026-01-19 02:49:57.87	208.09	10.50	-26.7	-28.5	14.9	0.00e+00	0	44	0	3795845120	13	4407
2026-01-19 02:50:00.86	208.06	10.23	-26.6	-28.2	15.1	0.00e+00	0	44	0	3813670912	13	4337
2026-01-19 02:50:03.86	208.03	9.97	-26.9	-28.8	14.7	0.00e+00	0	44	0	3830448128	13	4501
2026-01-19 02:50:06.87	207.99	9.71	-27.1	-28.9	14.4	1.06e-03	0	44	0	3847225344	14	4425
2026-01-19 02:50:09.89	207.96	9.45	-27.1	-28.8	14.4	0.00e+00	0	44	0	3864002560	14	4402
2026-01-19 02:50:12.91	207.93	9.19	-27.1	-29.0	14.3	1.12e-03	0	44	0	3880779776	14	4442
2026-01-19 02:50:15.92	207.90	8.94	-27.1	-28.8	14.4	1.35e-03	0	44	0	3897556992	14	4387
2026-01-19 02:50:18.93	207.87	8.69	-27.3	-29.3	14.0	1.43e-03	0	44	0	3914334208	14	4548
2026-01-19 02:50:21.92	207.84	8.44	-27.4	-29.5	13.9	6.80e-06	0	44	0	3932160000	14	4592
2026-01-19 02:50:24.94	207.81	8.20	-27.2	-29.2	14.1	1.53e-03	0	44	0	3948937216	14	4505
2026-01-19 02:50:27.95	207.79	7.95	-27.3	-29.3	14.0	1.55e-03	0	44	0	3965714432	14	4550
2026-01-19 02:50:30.96	207.76	7.71	-27.2	-29.2	14.0	1.43e-03	0	44	0	3982491648	14	4534
2026-01-19 02:50:33.96	207.73	7.47	-27.3	-29.4	13.8	1.14e-05	0	44	0	3999268864	14	4596
2026-01-19 02:50:36.96	207.71	7.24	-27.3	-29.4	13.8	1.44e-03	0	44	0	4016046080	14	4595
2026-01-19 02:50:39.96	207.68	7.01	-33.1	-43.5	3.8	7.55e-01	0	44	104	4030726144	26	11951

#Closed at: 2026-01-19 02:50:42
#Recorded file [4030 MB]: D:/data/31010_260119_053842.dat