passes_logs/2026/01/19/R2M6_AANII_01/R2M6_AANII_01__20260119_101320_NOAA_20_JPSS-1_rec.log

#Pass ID: 20260119_101320_NOAA 20 (JPSS-1)
#Satellite: NOAA 20 (JPSS-1)
#Configuration: NOAA 20
#almurnet v.1.7.20240730
#Start time: 2026-01-19 10:13:20

#Version: 2.2.20231116
#Station: R2M6_AANII_01
#Location: 30.233357 lon 59.946436 lat
#TLE: 1 43013U 17073A   26017.93796159  .00000077  00000+0  57252-4 0  9992
#TLE: 2 43013  98.7639 318.8464 0001390  34.9771 325.1496 14.19536703423157

#Time	Az	El	Level	Level2	SNR	BER	BlckErr	Temp	State	Recorded	gain1	gain2
2026-01-19 10:13:20.85	157.06	7.01	-31.5	-37.8	4.9	1.30e+00	0	41	0	0	24	7441
2026-01-19 10:13:23.86	157.05	7.24	-31.7	-38.5	7.1	1.41e-01	0	41	0	1048576	24	7849
2026-01-19 10:13:26.87	157.05	7.48	-31.7	-37.6	8.0	7.42e-02	0	41	0	7340032	24	7063
2026-01-19 10:13:29.87	157.05	7.72	-31.6	-37.2	8.4	4.06e-02	0	42	0	12582912	24	6795
2026-01-19 10:13:32.87	157.05	7.96	-31.3	-35.9	9.3	2.23e-02	0	41	0	17825792	24	6102
2026-01-19 10:13:35.89	157.04	8.20	-31.3	-36.6	9.2	1.69e-02	0	42	0	24117248	23	6592
2026-01-19 10:13:38.89	157.04	8.45	-31.3	-36.3	9.4	1.52e-02	0	42	0	29360128	23	6447
2026-01-19 10:13:41.90	157.04	8.70	-31.3	-36.3	9.5	1.58e-02	0	42	0	35651584	23	6410
2026-01-19 10:13:44.91	157.03	8.95	-31.3	-36.1	9.8	1.11e-02	0	42	0	40894464	23	6224
2026-01-19 10:13:47.91	157.03	9.20	-31.5	-36.4	9.7	1.03e-02	0	42	0	46137344	23	6338
2026-01-19 10:13:50.92	157.02	9.46	-31.3	-35.7	10.2	6.80e-03	0	42	0	52428800	23	5989
2026-01-19 10:13:53.94	157.02	9.72	-31.3	-35.7	10.2	7.28e-03	0	42	0	57671680	23	5992
2026-01-19 10:13:56.94	157.02	9.98	-31.3	-35.6	10.3	4.51e-03	0	42	0	62914560	23	5924
2026-01-19 10:13:59.96	157.01	10.24	-31.4	-36.0	10.1	7.43e-03	0	42	0	69206016	23	6129
2026-01-19 10:14:02.95	157.01	10.51	-31.4	-35.9	10.1	4.89e-03	0	42	0	74448896	23	6087
2026-01-19 10:14:05.95	157.00	10.78	-31.5	-36.4	9.8	7.86e-03	0	42	0	80740352	23	6340
2026-01-19 10:14:08.97	156.99	11.05	-31.7	-37.0	9.3	1.46e-02	0	42	0	85983232	23	6643
2026-01-19 10:14:11.97	156.99	11.32	-31.3	-35.7	10.4	4.94e-03	0	43	0	91226112	23	5960
2026-01-19 10:14:14.97	156.98	11.60	-31.2	-35.2	10.8	2.95e-03	0	43	0	97517568	23	5714
2026-01-19 10:14:17.98	156.98	11.89	-31.1	-34.9	11.1	2.05e-03	0	43	0	102760448	23	5572
2026-01-19 10:14:20.99	156.97	12.17	-31.0	-34.8	11.1	1.50e-03	0	43	0	108003328	23	5541
2026-01-19 10:14:23.99	156.96	12.46	-31.1	-34.9	11.0	1.57e-03	0	43	0	114294784	23	5583
2026-01-19 10:14:27.00	156.95	12.75	-31.0	-34.7	11.2	1.03e-03	0	43	0	119537664	23	5523
2026-01-19 10:14:30.00	156.95	13.05	-31.1	-34.9	11.1	1.34e-03	0	43	0	125829120	23	5561
2026-01-19 10:14:33.00	156.94	13.35	-31.0	-34.5	11.5	9.71e-04	0	43	0	131072000	23	5364
2026-01-19 10:14:36.01	156.93	13.65	-31.0	-34.5	11.4	7.80e-04	0	43	0	136314880	23	5373
2026-01-19 10:14:39.01	156.92	13.96	-31.0	-34.2	11.7	5.65e-04	0	43	0	142606336	23	5243
2026-01-19 10:14:42.02	156.91	14.27	-31.1	-34.5	11.6	6.42e-04	0	43	0	147849216	23	5343
2026-01-19 10:14:45.03	156.90	14.58	-31.0	-34.2	11.8	5.71e-04	0	43	0	153092096	23	5232
2026-01-19 10:14:48.03	156.89	14.90	-31.0	-34.2	11.8	4.53e-04	0	43	0	159383552	23	5219
2026-01-19 10:14:51.04	156.88	15.22	-31.0	-34.3	11.8	4.77e-04	0	43	0	164626432	23	5244
2026-01-19 10:14:54.03	156.87	15.55	-30.9	-33.9	12.1	2.69e-04	0	43	0	170917888	23	5099
2026-01-19 10:14:57.04	156.86	15.88	-31.0	-34.1	12.0	4.39e-04	0	43	0	176160768	23	5141
2026-01-19 10:15:00.05	156.85	16.22	-30.7	-33.7	12.6	1.03e-04	0	43	0	181403648	22	5118
2026-01-19 10:15:03.05	156.84	16.56	-30.8	-34.1	12.3	1.23e-04	0	43	0	187695104	22	5253
2026-01-19 10:15:06.05	156.82	16.91	-30.6	-33.4	12.8	4.65e-05	0	43	0	192937984	22	4999
2026-01-19 10:15:09.05	156.81	17.26	-30.6	-33.4	12.9	4.80e-05	0	43	0	198180864	22	4987
2026-01-19 10:15:12.06	156.80	17.61	-30.5	-33.2	13.1	3.73e-05	0	43	0	204472320	22	4888
2026-01-19 10:15:15.08	156.78	17.98	-30.5	-33.0	13.2	1.75e-05	0	43	0	209715200	22	4838
2026-01-19 10:15:18.09	156.77	18.34	-30.4	-32.8	13.4	9.90e-06	0	43	0	216006656	22	4734
2026-01-19 10:15:21.10	156.75	18.72	-30.4	-32.8	13.4	1.67e-05	0	43	0	221249536	22	4732
2026-01-19 10:15:24.11	156.74	19.10	-30.3	-32.6	13.5	7.60e-06	0	43	0	226492416	22	4690
2026-01-19 10:15:27.12	156.72	19.48	-30.2	-32.9	13.7	1.14e-05	0	43	0	232783872	21	4888
2026-01-19 10:15:30.13	156.70	19.87	-30.3	-33.0	13.6	1.37e-05	0	43	0	238026752	21	4905
2026-01-19 10:15:33.14	156.68	20.27	-30.3	-33.1	13.5	4.50e-06	0	43	0	244318208	21	4967
2026-01-19 10:15:36.15	156.66	20.67	-30.4	-33.3	13.4	1.52e-05	0	44	0	249561088	21	5035
2026-01-19 10:15:39.15	156.65	21.08	-30.4	-33.3	13.4	1.22e-05	0	43	0	254803968	21	5035
2026-01-19 10:15:42.16	156.63	21.50	-30.6	-33.8	13.1	2.13e-05	0	44	0	261095424	21	5213
2026-01-19 10:15:45.16	156.60	21.92	-30.2	-32.6	14.0	4.50e-06	0	44	0	266338304	21	4782
2026-01-19 10:15:48.16	156.58	22.35	-30.2	-32.7	13.9	5.30e-06	0	43	0	271581184	21	4808
2026-01-19 10:15:51.16	156.56	22.78	-30.2	-32.7	14.0	5.30e-06	0	43	0	277872640	21	4802
2026-01-19 10:15:54.17	156.54	23.23	-30.2	-32.6	14.0	1.50e-06	0	43	0	283115520	21	4770
2026-01-19 10:15:57.18	156.51	23.68	-30.3	-33.0	13.8	3.00e-06	0	43	0	289406976	21	4900
2026-01-19 10:16:00.18	156.49	24.14	-30.5	-33.4	13.6	4.50e-06	0	43	0	294649856	21	5033
2026-01-19 10:16:03.20	156.46	24.61	-30.6	-33.6	13.5	1.06e-05	0	44	0	299892736	21	5131
2026-01-19 10:16:06.21	156.43	25.09	-30.7	-34.0	13.2	1.44e-05	0	43	0	306184192	21	5257
2026-01-19 10:16:09.22	156.40	25.58	-30.6	-33.8	13.4	9.90e-06	0	44	0	311427072	21	5168
2026-01-19 10:16:12.23	156.37	26.08	-30.7	-34.0	13.3	1.75e-05	0	44	0	316669952	21	5265
2026-01-19 10:16:15.23	156.34	26.58	-30.9	-34.5	13.0	4.11e-05	0	43	0	322961408	21	5464
2026-01-19 10:16:18.24	156.31	27.10	-30.8	-33.8	13.1	2.82e-05	0	44	0	328204288	22	5064
2026-01-19 10:16:21.25	156.27	27.62	-31.1	-34.6	12.7	6.94e-05	0	43	0	334495744	22	5367
2026-01-19 10:16:24.26	156.24	28.16	-31.4	-35.3	12.2	1.72e-04	0	44	0	339738624	22	5662
2026-01-19 10:16:27.26	156.20	28.70	-31.6	-35.6	11.7	4.93e-04	0	43	0	344981504	23	5659
2026-01-19 10:16:30.26	156.16	29.26	-32.0	-36.7	10.9	1.83e-03	0	44	0	351272960	23	6167
2026-01-19 10:16:33.27	156.12	29.82	-31.9	-35.9	11.1	1.55e-03	0	44	0	356515840	24	5690
2026-01-19 10:16:36.27	156.08	30.40	-32.1	-36.4	10.7	2.69e-03	0	44	0	361758720	24	5942
2026-01-19 10:16:39.27	156.03	30.99	-32.1	-36.6	10.6	3.60e-03	0	44	0	368050176	24	6042
2026-01-19 10:16:42.28	155.99	31.59	-32.0	-36.3	10.9	2.33e-03	0	44	0	373293056	24	5889
2026-01-19 10:16:45.29	155.94	32.21	-32.1	-36.6	10.7	3.16e-03	0	44	0	379584512	24	5998
2026-01-19 10:16:48.29	155.89	32.84	-32.2	-36.9	10.5	4.03e-03	0	44	0	384827392	24	6150
2026-01-19 10:16:51.30	155.83	33.48	-32.2	-36.9	10.4	5.46e-03	0	44	0	390070272	24	6172
2026-01-19 10:16:54.31	155.78	34.13	-32.0	-36.2	11.0	3.10e-03	0	44	0	396361728	24	5809
2026-01-19 10:16:57.33	155.72	34.81	-31.8	-35.5	11.5	9.70e-04	0	44	0	401604608	24	5514
2026-01-19 10:17:00.33	155.66	35.49	-31.0	-33.5	13.3	3.66e-05	0	44	0	406847488	23	4820
2026-01-19 10:17:03.34	155.59	36.19	-30.3	-32.3	14.3	0.00e+00	0	44	0	413138944	22	4510
2026-01-19 10:17:06.35	155.53	36.90	-30.2	-32.5	14.5	7.00e-07	0	44	0	418381824	21	4693
2026-01-19 10:17:09.36	155.46	37.63	-29.9	-31.6	15.1	0.00e+00	0	44	0	424673280	21	4411
2026-01-19 10:17:12.36	155.38	38.38	-30.0	-32.0	14.9	0.00e+00	0	43	0	429916160	21	4513
2026-01-19 10:17:15.37	155.30	39.14	-30.3	-32.7	14.5	1.50e-06	0	43	0	435159040	21	4737
2026-01-19 10:17:18.38	155.22	39.92	-30.6	-33.5	14.0	5.30e-06	0	44	0	441450496	21	5033
2026-01-19 10:17:21.40	155.13	40.73	-30.8	-33.9	13.7	3.80e-06	0	44	0	446693376	21	5169
2026-01-19 10:17:24.40	155.04	41.54	-31.0	-34.4	13.4	9.10e-06	0	44	0	452984832	21	5365
2026-01-19 10:17:27.41	154.94	42.38	-31.2	-34.5	13.1	3.96e-05	0	44	0	458227712	22	5266
2026-01-19 10:17:30.41	154.84	43.23	-30.7	-33.2	13.9	6.10e-06	0	44	0	463470592	22	4812
2026-01-19 10:17:33.42	154.72	44.10	-30.9	-33.6	13.6	1.29e-05	0	44	0	469762048	22	4956
2026-01-19 10:17:36.41	154.61	44.99	-31.2	-34.6	13.0	3.50e-05	0	44	0	475004928	22	5315
2026-01-19 10:17:39.42	154.48	45.90	-32.0	-36.5	11.4	8.50e-04	0	43	0	480247808	23	6017
2026-01-19 10:17:42.43	154.35	46.84	-32.4	-37.3	10.5	3.20e-03	0	44	0	486539264	24	6312
2026-01-19 10:17:45.44	154.21	47.79	-32.2	-36.7	10.8	3.11e-03	0	44	0	491782144	24	6014
2026-01-19 10:17:48.44	154.06	48.77	-32.1	-36.2	11.2	1.59e-03	0	44	0	497025024	24	5770
2026-01-19 10:17:51.45	153.90	49.77	-32.0	-35.9	11.5	8.96e-04	0	44	0	503316480	24	5639
2026-01-19 10:17:54.45	153.72	50.78	-31.4	-34.2	12.7	1.07e-04	0	44	0	508559360	24	4947
2026-01-19 10:17:57.45	153.54	51.83	-30.8	-33.0	13.8	1.75e-05	0	44	0	514850816	23	4623
2026-01-19 10:18:00.46	153.34	52.89	-30.2	-32.4	14.8	0.00e+00	0	44	0	520093696	21	4637
2026-01-19 10:18:03.47	153.12	53.98	-29.5	-31.3	15.7	0.00e+00	0	44	0	525336576	20	4390
2026-01-19 10:18:06.48	152.88	55.09	-29.7	-31.8	15.4	0.00e+00	0	44	0	531628032	20	4541
2026-01-19 10:18:09.49	152.63	56.23	-30.9	-34.4	13.6	2.20e-06	0	44	0	536870912	21	5332
2026-01-19 10:18:12.51	152.35	57.39	-32.0	-35.9	11.5	4.32e-04	0	44	0	543162368	24	5648
2026-01-19 10:18:15.51	152.04	58.57	-32.7	-37.9	9.6	1.28e-02	0	44	0	548405248	25	6536
2026-01-19 10:18:18.51	151.71	59.77	-32.0	-35.6	11.4	1.43e-03	0	44	0	553648128	25	5395
2026-01-19 10:18:21.53	151.34	61.00	-31.5	-34.3	12.6	2.75e-04	0	44	0	559939584	24	4995
2026-01-19 10:18:24.53	150.94	62.25	-30.8	-33.4	13.8	3.80e-06	0	44	0	565182464	22	4863
2026-01-19 10:18:27.54	150.48	63.52	-30.6	-33.0	14.2	7.00e-07	0	44	0	570425344	22	4715
2026-01-19 10:18:30.55	149.98	64.81	-30.4	-32.3	14.6	1.50e-06	0	44	0	576716800	22	4503
2026-01-19 10:18:33.56	149.41	66.12	-31.1	-34.5	13.0	2.74e-05	0	44	0	581959680	22	5360
2026-01-19 10:18:36.57	148.76	67.46	-31.0	-34.2	13.3	1.52e-05	0	44	0	588251136	22	5208
2026-01-19 10:18:39.57	148.03	68.80	-31.3	-34.5	12.7	1.05e-04	0	44	0	593494016	23	5174
2026-01-19 10:18:42.58	147.19	70.17	-31.2	-34.2	13.0	4.50e-05	0	44	0	598736896	23	5037
2026-01-19 10:18:45.58	146.21	71.54	-31.0	-34.0	13.5	6.10e-06	0	44	0	605028352	22	5097
2026-01-19 10:18:48.58	145.06	72.93	-30.8	-33.5	13.8	4.50e-06	0	44	0	610271232	22	4898
2026-01-19 10:18:51.58	143.69	74.33	-31.4	-35.0	12.8	5.49e-05	0	44	0	615514112	22	5495
2026-01-19 10:18:54.59	142.04	75.73	-30.9	-33.8	13.7	1.06e-05	0	44	0	621805568	22	4998
2026-01-19 10:18:57.59	140.01	77.14	-31.5	-34.9	12.6	7.17e-05	0	44	0	627048448	23	5321
2026-01-19 10:19:00.61	137.46	78.54	-31.7	-35.0	12.2	4.61e-04	0	44	0	633339904	24	5254
2026-01-19 10:19:03.61	134.20	79.92	-30.4	-32.5	14.6	1.50e-06	0	44	0	638582784	22	4534
2026-01-19 10:19:06.61	129.89	81.26	-31.8	-35.6	12.2	8.16e-05	0	44	0	643825664	23	5608
2026-01-19 10:19:09.61	124.04	82.55	-31.5	-34.3	12.8	1.24e-04	0	44	0	650117120	24	4973
2026-01-19 10:19:12.63	115.78	83.74	-30.4	-32.3	14.7	7.00e-07	0	44	0	655360000	22	4491
2026-01-19 10:19:15.64	104.05	84.74	-29.0	-30.4	16.8	0.00e+00	0	44	0	660602880	19	4218
2026-01-19 10:19:18.64	87.87	85.43	-30.7	-33.7	14.2	7.00e-07	0	44	0	666894336	21	5070
2026-01-19 10:19:21.65	68.05	85.66	-32.1	-36.1	11.6	6.14e-04	0	44	0	672137216	24	5734
2026-01-19 10:19:24.66	48.57	85.36	-31.9	-35.4	12.2	4.61e-04	0	44	0	678428672	24	5375
2026-01-19 10:19:27.67	33.02	84.61	-30.7	-33.1	14.4	7.00e-07	0	44	0	683671552	22	4723
2026-01-19 10:19:30.67	21.92	83.58	-31.5	-34.8	12.9	2.82e-05	0	44	0	688914432	23	5243
2026-01-19 10:19:33.68	14.09	82.37	-32.4	-37.1	10.8	2.23e-03	0	44	0	695205888	24	6191
2026-01-19 10:19:36.69	8.48	81.07	-31.0	-33.3	13.8	9.10e-06	0	44	0	700448768	23	4705
2026-01-19 10:19:39.69	4.36	79.72	-30.4	-32.3	14.7	7.00e-07	0	44	0	705691648	22	4483
2026-01-19 10:19:42.70	1.21	78.34	-30.1	-32.1	15.1	0.00e+00	0	44	0	711983104	21	4530
2026-01-19 10:19:45.71	358.75	76.94	-31.4	-35.0	13.0	4.04e-05	0	44	0	717225984	22	5428
2026-01-19 10:19:48.72	356.78	75.54	-31.2	-34.4	13.4	1.52e-05	0	44	0	723517440	22	5219
2026-01-19 10:19:51.72	355.18	74.14	-32.2	-36.3	11.3	2.44e-03	0	44	0	728760320	24	5795
2026-01-19 10:19:54.74	353.84	72.73	-31.0	-33.5	13.7	6.10e-06	0	44	0	734003200	23	4763
2026-01-19 10:19:57.75	352.72	71.35	-31.3	-34.3	13.0	4.04e-05	0	44	0	740294656	23	5079
2026-01-19 10:20:00.76	351.76	69.97	-32.2	-36.4	11.2	8.42e-04	0	44	0	745537536	24	5853
2026-01-19 10:20:03.76	350.94	68.61	-32.4	-37.0	10.7	2.23e-03	0	44	0	750780416	24	6155
2026-01-19 10:20:06.77	350.22	67.27	-33.3	-39.5	8.0	6.77e-02	0	44	0	757071872	26	7392
2026-01-19 10:20:09.78	349.59	65.94	-32.9	-37.9	9.4	1.45e-02	0	44	0	762314752	26	6407
2026-01-19 10:20:12.79	349.03	64.64	-32.1	-35.8	11.3	1.57e-03	0	44	0	768606208	25	5480
2026-01-19 10:20:15.80	348.54	63.35	-31.5	-34.2	12.7	1.69e-04	0	44	0	773849088	24	4951
2026-01-19 10:20:18.81	348.09	62.09	-30.6	-32.7	14.4	2.20e-06	0	44	0	779091968	22	4630
2026-01-19 10:20:21.80	347.69	60.85	-31.5	-34.9	12.7	7.60e-06	0	44	0	785383424	23	5292
2026-01-19 10:20:24.81	347.33	59.63	-32.7	-37.5	10.0	5.86e-03	0	44	0	790626304	25	6301
2026-01-19 10:20:27.83	347.00	58.43	-32.2	-35.9	11.2	1.35e-03	0	44	0	795869184	25	5525
2026-01-19 10:20:30.84	346.70	57.26	-32.8	-38.1	9.5	1.71e-02	0	44	0	802160640	25	6607
2026-01-19 10:20:33.84	346.43	56.11	-31.6	-34.8	12.3	1.75e-04	0	44	0	807403520	24	5152
2026-01-19 10:20:36.85	346.18	54.98	-31.4	-34.1	12.7	1.17e-04	0	44	0	813694976	24	4900
2026-01-19 10:20:39.85	345.95	53.88	-30.8	-32.9	13.9	2.20e-06	0	44	0	818937856	23	4568
2026-01-19 10:20:42.87	345.73	52.79	-30.6	-32.8	14.2	0.00e+00	0	44	0	824180736	22	4665
2026-01-19 10:20:45.88	345.53	51.73	-32.0	-36.3	11.5	2.10e-04	0	44	0	830472192	23	5938
2026-01-19 10:20:48.90	345.35	50.69	-31.4	-34.2	12.6	9.99e-05	0	44	0	835715072	24	4965
2026-01-19 10:20:51.91	345.18	49.68	-31.8	-35.3	11.9	3.75e-04	0	44	0	842006528	24	5397
2026-01-19 10:20:54.91	345.02	48.69	-33.1	-38.8	8.6	1.56e-02	0	44	0	847249408	26	6962
2026-01-19 10:20:57.93	344.87	47.72	-32.1	-35.8	11.0	4.96e-03	0	44	0	852492288	25	5515
2026-01-19 10:21:00.93	344.73	46.77	-31.9	-35.5	11.7	2.98e-04	0	44	0	858783744	24	5488
2026-01-19 10:21:03.95	344.60	45.84	-32.9	-38.6	9.0	2.00e-02	0	44	0	864026624	25	6958
2026-01-19 10:21:06.96	344.48	44.93	-33.0	-38.4	8.7	4.00e-02	0	44	0	869269504	26	6715
2026-01-19 10:21:09.96	344.36	44.05	-31.9	-35.2	11.5	1.04e-03	0	44	0	875560960	25	5245
2026-01-19 10:21:12.96	344.25	43.18	-32.2	-36.2	10.8	2.36e-03	0	44	0	880803840	25	5677
2026-01-19 10:21:15.97	344.15	42.34	-32.8	-38.3	9.2	6.79e-03	0	44	0	887095296	25	6773
2026-01-19 10:21:18.99	344.05	41.50	-33.1	-39.1	8.2	7.99e-02	0	44	0	892338176	26	7199
2026-01-19 10:21:21.99	343.96	40.70	-32.1	-35.9	10.9	3.26e-03	0	44	0	897581056	25	5554
2026-01-19 10:21:25.00	343.88	39.90	-31.7	-35.1	11.9	3.41e-04	0	44	0	903872512	24	5301
2026-01-19 10:21:28.00	343.80	39.13	-32.3	-37.1	10.4	2.14e-03	0	44	0	909115392	24	6244
2026-01-19 10:21:31.00	343.72	38.37	-33.0	-38.8	8.4	4.25e-02	0	44	0	914358272	26	6991
2026-01-19 10:21:34.01	343.65	37.63	-32.9	-38.2	8.8	3.29e-02	0	44	0	920649728	26	6668
2026-01-19 10:21:37.01	343.58	36.91	-32.5	-36.7	10.0	7.85e-03	0	44	0	925892608	26	5846
2026-01-19 10:21:40.02	343.51	36.20	-32.2	-36.2	10.7	3.88e-03	0	44	0	932184064	25	5718
2026-01-19 10:21:43.03	343.45	35.50	-32.4	-36.7	10.4	4.09e-03	0	44	0	937426944	25	5937
2026-01-19 10:21:46.04	343.39	34.82	-33.0	-38.8	8.4	3.15e-02	0	44	0	942669824	26	7025
2026-01-19 10:21:49.05	343.33	34.16	-33.3	-40.4	7.1	1.16e-01	0	44	0	948961280	26	8113
2026-01-19 10:21:52.06	343.28	33.51	-33.4	-40.6	7.0	1.65e-01	0	44	0	954204160	26	8269
2026-01-19 10:21:55.08	343.23	32.87	-33.3	-40.4	7.1	1.57e-01	0	44	0	959447040	26	8089
2026-01-19 10:21:58.08	343.18	32.24	-32.6	-37.0	9.7	1.32e-02	0	44	0	965738496	26	5992
2026-01-19 10:22:01.09	343.13	31.63	-32.3	-36.1	10.4	4.53e-03	0	44	0	970981376	26	5584
2026-01-19 10:22:04.09	343.08	31.03	-32.2	-36.3	10.6	3.22e-03	0	44	0	977272832	25	5775
2026-01-19 10:22:07.10	343.04	30.45	-32.6	-37.7	9.6	1.04e-02	0	44	0	982515712	25	6458
2026-01-19 10:22:10.11	343.00	29.87	-32.8	-38.7	8.6	3.05e-02	0	44	0	987758592	25	7085
2026-01-19 10:22:13.12	342.96	29.31	-32.5	-37.6	9.5	1.63e-02	0	44	0	994050048	25	6427
2026-01-19 10:22:16.14	342.93	28.75	-32.5	-37.6	9.5	1.42e-02	0	44	0	999292928	25	6456
2026-01-19 10:22:19.14	342.89	28.21	-32.1	-36.0	10.7	3.33e-03	0	44	0	1004535808	25	5639
2026-01-19 10:22:22.15	342.86	27.68	-31.6	-34.9	11.9	5.16e-04	0	44	0	1010827264	24	5255
2026-01-19 10:22:25.16	342.82	27.16	-31.2	-34.2	12.6	1.37e-04	0	44	0	1016070144	23	5110
2026-01-19 10:22:28.17	342.79	26.65	-30.6	-33.1	13.7	9.10e-06	0	44	0	1022361600	22	4796
2026-01-19 10:22:31.19	342.76	26.14	-30.7	-33.3	13.6	9.10e-06	0	44	0	1027604480	22	4855
2026-01-19 10:22:34.20	342.73	25.65	-30.7	-33.3	13.5	9.10e-06	0	44	0	1032847360	22	4868
2026-01-19 10:22:37.18	342.71	25.17	-30.7	-33.5	13.4	1.67e-05	0	44	0	1039138816	22	4942
2026-01-19 10:22:40.18	342.68	24.70	-30.6	-33.2	13.6	6.80e-06	0	44	0	1044381696	22	4843
2026-01-19 10:22:43.20	342.66	24.23	-30.6	-33.2	13.6	5.30e-06	0	44	0	1049624576	22	4846
2026-01-19 10:22:46.20	342.63	23.77	-30.7	-33.6	13.3	1.90e-05	0	44	0	1055916032	22	4973
2026-01-19 10:22:49.21	342.61	23.32	-30.1	-32.4	14.3	2.20e-06	0	44	0	1061158912	21	4685
2026-01-19 10:22:52.22	342.59	22.88	-30.0	-32.0	14.6	7.00e-07	0	44	0	1067450368	21	4527
2026-01-19 10:22:55.24	342.57	22.44	-29.9	-31.9	14.7	0.00e+00	0	44	0	1072693248	21	4512
2026-01-19 10:22:58.25	342.55	22.01	-29.9	-31.8	14.7	0.00e+00	0	44	0	1077936128	21	4479
2026-01-19 10:23:01.26	342.53	21.59	-29.9	-31.9	14.6	0.00e+00	0	44	0	1084227584	21	4530
2026-01-19 10:23:04.27	342.51	21.18	-30.0	-32.2	14.4	0.00e+00	0	44	0	1089470464	21	4602
2026-01-19 10:23:07.27	342.49	20.77	-30.2	-32.6	14.1	7.00e-07	0	44	0	1095761920	21	4748
2026-01-19 10:23:10.29	342.47	20.37	-30.2	-32.6	14.1	2.20e-06	0	44	0	1101004800	21	4756
2026-01-19 10:23:13.30	342.46	19.97	-30.3	-32.9	13.9	2.20e-06	0	44	0	1106247680	21	4865
2026-01-19 10:23:16.31	342.44	19.58	-30.3	-33.0	13.8	9.90e-06	0	44	0	1112539136	21	4885
2026-01-19 10:23:19.33	342.43	19.20	-30.4	-33.2	13.7	5.30e-06	0	44	0	1117782016	21	4973
2026-01-19 10:23:22.33	342.41	18.82	-30.4	-33.3	13.6	1.14e-05	0	44	0	1124073472	21	5012
2026-01-19 10:23:25.34	342.40	18.45	-30.4	-33.2	13.6	6.10e-06	0	44	0	1129316352	21	4967
2026-01-19 10:23:28.35	342.39	18.09	-30.5	-33.4	13.5	9.90e-06	0	44	0	1134559232	21	5058
2026-01-19 10:23:31.35	342.38	17.73	-30.5	-33.5	13.4	7.60e-06	0	44	0	1140850688	21	5070
2026-01-19 10:23:34.35	342.36	17.38	-30.5	-33.6	13.3	1.14e-05	0	44	0	1146093568	21	5114
2026-01-19 10:23:37.37	342.35	17.02	-30.7	-34.1	13.0	3.66e-05	0	44	0	1151336448	21	5316
2026-01-19 10:23:40.37	342.34	16.68	-30.9	-34.7	12.5	1.01e-04	0	44	0	1157627904	21	5583
2026-01-19 10:23:43.38	342.33	16.34	-31.0	-34.9	12.3	1.62e-04	0	44	0	1162870784	21	5661
2026-01-19 10:23:46.39	342.32	16.00	-31.4	-35.6	11.5	7.62e-04	0	44	0	1169162240	22	5862
2026-01-19 10:23:49.41	342.31	15.67	-30.8	-34.0	12.6	1.28e-04	0	44	0	1174405120	22	5200
2026-01-19 10:23:52.42	342.31	15.35	-30.8	-33.8	12.8	9.15e-05	0	44	0	1179648000	22	5099
2026-01-19 10:23:55.42	342.30	15.03	-30.8	-33.9	12.6	1.21e-04	0	44	0	1185939456	22	5171
2026-01-19 10:23:58.42	342.29	14.71	-30.7	-33.7	12.7	6.17e-05	0	44	0	1191182336	22	5087
2026-01-19 10:24:01.42	342.28	14.40	-30.8	-33.9	12.6	9.38e-05	0	44	0	1196425216	22	5141
2026-01-19 10:24:04.43	342.28	14.09	-30.7	-33.8	12.7	7.62e-05	0	44	0	1202716672	22	5135
2026-01-19 10:24:07.43	342.27	13.78	-30.9	-34.3	12.3	1.41e-04	0	44	0	1207959552	22	5323
2026-01-19 10:24:10.44	342.26	13.48	-31.0	-34.5	12.1	2.08e-04	0	44	0	1214251008	22	5404
2026-01-19 10:24:13.45	342.26	13.18	-31.0	-34.5	12.0	3.04e-04	0	44	0	1219493888	22	5437
2026-01-19 10:24:16.46	342.25	12.89	-31.0	-34.8	11.9	3.01e-04	0	44	0	1224736768	22	5532
2026-01-19 10:24:19.47	342.25	12.60	-31.1	-34.9	11.8	5.21e-04	0	44	0	1231028224	22	5578
2026-01-19 10:24:22.47	342.24	12.31	-31.1	-34.9	11.8	5.34e-04	0	44	0	1236271104	22	5593
2026-01-19 10:24:25.49	342.24	12.02	-31.1	-35.1	11.6	7.56e-04	0	44	0	1241513984	22	5689
2026-01-19 10:24:28.50	342.24	11.74	-31.2	-35.4	11.4	8.67e-04	0	44	0	1247805440	22	5808
2026-01-19 10:24:31.50	342.23	11.46	-31.1	-35.2	11.5	7.49e-04	0	44	0	1253048320	22	5735
2026-01-19 10:24:34.50	342.23	11.19	-31.1	-35.1	11.5	8.15e-04	0	44	0	1259339776	22	5711
2026-01-19 10:24:37.50	342.23	10.92	-31.2	-35.3	11.3	1.04e-03	0	44	0	1264582656	22	5783
2026-01-19 10:24:40.52	342.22	10.65	-31.2	-35.3	11.3	1.00e-03	0	44	0	1269825536	22	5804
2026-01-19 10:24:43.53	342.22	10.38	-31.1	-35.3	11.3	1.23e-03	0	44	0	1276116992	22	5790
2026-01-19 10:24:46.53	342.22	10.12	-31.2	-35.6	11.1	1.85e-03	0	44	0	1281359872	22	5946
2026-01-19 10:24:49.53	342.22	9.86	-31.3	-35.9	10.8	2.83e-03	0	44	0	1286602752	22	6100
2026-01-19 10:24:52.54	342.21	9.61	-31.1	-35.1	11.4	1.06e-03	0	44	0	1292894208	22	5724
2026-01-19 10:24:55.54	342.21	9.35	-31.1	-35.2	11.2	1.44e-03	0	44	0	1298137088	22	5785
2026-01-19 10:24:58.55	342.21	9.10	-31.1	-35.2	11.3	1.30e-03	0	44	0	1304428544	22	5755
2026-01-19 10:25:01.56	342.21	8.85	-31.1	-35.2	11.2	1.21e-03	0	44	0	1309671424	22	5789
2026-01-19 10:25:04.57	342.21	8.60	-31.1	-35.3	11.1	1.80e-03	0	44	0	1314914304	22	5811
2026-01-19 10:25:07.58	342.21	8.36	-31.1	-35.2	11.1	1.16e-03	0	44	0	1321205760	22	5794
2026-01-19 10:25:10.58	342.21	8.12	-31.1	-35.2	11.1	1.31e-03	0	44	0	1326448640	22	5800
2026-01-19 10:25:13.59	342.21	7.88	-31.2	-35.7	10.7	2.44e-03	0	44	0	1331691520	22	6065
2026-01-19 10:25:16.60	342.21	7.64	-31.2	-35.8	10.6	2.25e-03	0	44	0	1337982976	22	6122
2026-01-19 10:25:19.60	342.21	7.40	-31.1	-35.5	10.8	2.62e-03	0	44	0	1343225856	22	5948
2026-01-19 10:25:22.60	342.21	7.17	-31.2	-35.7	10.6	4.07e-03	0	44	0	1349517312	22	6082

#Closed at: 2026-01-19 10:25:25
#Recorded file [1350 MB]: D:/data/31010_260119_131322.dat