passes_logs/2026/01/19/R2M6_AANII_01/R2M6_AANII_01__20260119_014026_SUOMI_NPP_rec.log

#Pass ID: 20260119_014026_SUOMI NPP
#Satellite: SUOMI NPP
#Configuration: NPP
#almurnet v.1.7.20240730
#Start time: 2026-01-19 01:40:26

#Version: 2.2.20231116
#Station: R2M6_AANII_01
#Location: 30.233357 lon 59.946436 lat
#TLE: 1 37849U 11061A   26017.92342359  .00000077  00000+0  57567-4 0  9990
#TLE: 2 37849  98.7814 319.9468 0002389  58.5705 301.5704 14.19525998737125

#Time	Az	El	Level	Level2	SNR	BER	BlckErr	Temp	State	Recorded	gain1	gain2
2026-01-19 01:40:26.92	12.66	7.05	-32.5	-38.9	4.4	1.39e+00	0	42	0	0	25	7540
2026-01-19 01:40:29.93	12.48	7.27	-32.5	-38.6	6.0	3.13e-01	0	42	0	1048576	25	7219
2026-01-19 01:40:32.94	12.29	7.49	-32.6	-38.7	6.0	3.00e-01	0	42	0	7340032	25	7295
2026-01-19 01:40:35.93	12.10	7.70	-32.2	-37.1	7.5	1.44e-01	0	42	0	12582912	24	6332
2026-01-19 01:40:38.94	11.91	7.92	-31.7	-35.5	9.1	2.46e-02	0	42	0	17825792	23	5596
2026-01-19 01:40:41.94	11.71	8.14	-31.7	-35.5	9.2	2.69e-02	0	42	0	24117248	23	5552
2026-01-19 01:40:44.94	11.51	8.37	-31.6	-35.1	9.5	1.68e-02	0	42	0	29360128	23	5381
2026-01-19 01:40:47.95	11.31	8.59	-31.7	-35.4	9.3	1.42e-02	0	42	0	35651584	23	5525
2026-01-19 01:40:50.95	11.11	8.82	-31.3	-34.3	10.6	4.36e-03	0	42	0	40894464	22	5089
2026-01-19 01:40:53.95	10.90	9.05	-31.1	-33.8	11.0	2.18e-03	0	42	0	46137344	22	4897
2026-01-19 01:40:56.96	10.68	9.28	-31.3	-34.4	10.6	3.02e-03	0	43	0	52428800	22	5127
2026-01-19 01:40:59.98	10.47	9.51	-31.2	-33.9	10.9	3.34e-03	0	42	0	57671680	22	4949
2026-01-19 01:41:02.99	10.25	9.74	-30.2	-32.9	10.9	2.18e-03	0	43	0	62914560	22	4949
2026-01-19 01:41:06.01	10.02	9.98	-31.2	-34.0	10.1	1.81e-03	0	43	0	69206016	22	4966
2026-01-19 01:41:09.01	9.80	10.21	-31.1	-33.5	11.0	1.24e-03	0	43	0	74448896	22	4763
2026-01-19 01:41:12.02	9.56	10.45	-31.2	-33.8	11.1	1.49e-03	0	43	0	80740352	22	4887
2026-01-19 01:41:15.01	9.33	10.69	-31.4	-34.4	10.7	2.35e-03	0	43	0	85983232	22	5131
2026-01-19 01:41:18.02	9.09	10.94	-31.3	-34.3	10.8	5.79e-03	0	43	0	91226112	22	5094
2026-01-19 01:41:21.03	8.85	11.18	-31.4	-34.6	10.5	6.82e-03	0	43	0	97517568	22	5220
2026-01-19 01:41:24.04	8.60	11.43	-31.3	-34.2	10.9	2.39e-03	0	43	0	102760448	22	5032
2026-01-19 01:41:27.05	8.35	11.68	-31.5	-34.5	10.4	2.86e-03	0	43	0	108003328	23	5048
2026-01-19 01:41:30.05	8.09	11.93	-31.2	-33.9	11.1	1.29e-03	0	43	0	114294784	22	4921
2026-01-19 01:41:33.05	7.83	12.18	-30.8	-33.1	12.1	1.14e-03	0	43	0	119537664	21	4689
2026-01-19 01:41:36.06	7.56	12.43	-31.1	-33.5	11.5	3.00e-03	0	43	0	125829120	22	4741
2026-01-19 01:41:39.06	7.29	12.69	-30.9	-33.6	11.8	2.67e-03	0	43	0	131072000	21	4881
2026-01-19 01:41:42.07	7.02	12.95	-31.0	-33.3	11.6	3.29e-03	0	43	0	136314880	22	4702
2026-01-19 01:41:45.08	6.74	13.21	-31.3	-34.2	11.0	4.03e-03	0	43	0	142606336	22	4987
2026-01-19 01:41:48.08	6.45	13.47	-30.6	-32.5	12.6	1.76e-04	0	43	0	147849216	21	4481
2026-01-19 01:41:51.08	6.16	13.73	-30.7	-32.8	12.4	2.67e-03	0	43	0	153092096	21	4561
2026-01-19 01:41:54.08	5.86	14.00	-30.7	-32.7	12.5	2.76e-03	0	43	0	159383552	21	4528
2026-01-19 01:41:57.08	5.56	14.27	-30.6	-32.4	12.7	2.57e-03	0	43	0	164626432	21	4429
2026-01-19 01:42:00.07	5.25	14.54	-30.9	-33.4	12.1	2.96e-03	0	43	0	170917888	21	4762
2026-01-19 01:42:03.07	4.94	14.81	-30.9	-33.4	12.1	2.79e-03	0	43	0	176160768	21	4780
2026-01-19 01:42:06.07	4.62	15.08	-31.2	-33.5	11.7	3.20e-03	0	43	0	181403648	22	4724
2026-01-19 01:42:09.08	4.29	15.36	-31.3	-34.0	11.4	7.92e-04	0	44	0	187695104	22	4894
2026-01-19 01:42:12.09	3.96	15.64	-31.2	-33.5	11.7	3.35e-03	0	44	0	192937984	22	4722
2026-01-19 01:42:15.12	3.62	15.93	-31.1	-33.5	11.8	3.33e-03	0	43	0	198180864	22	4705
2026-01-19 01:42:18.13	3.27	16.21	-30.8	-32.4	12.5	2.89e-03	0	44	0	204472320	22	4317
2026-01-19 01:42:21.13	2.92	16.50	-30.7	-32.6	12.8	2.51e-03	0	43	0	209715200	21	4479
2026-01-19 01:42:24.13	2.56	16.78	-30.6	-32.3	12.9	5.03e-05	0	43	0	216006656	21	4397
2026-01-19 01:42:27.14	2.19	17.07	-30.5	-32.1	13.1	3.20e-05	0	44	0	221249536	21	4307
2026-01-19 01:42:30.15	1.82	17.37	-30.6	-32.1	13.0	5.41e-05	0	43	0	226492416	21	4322
2026-01-19 01:42:33.15	1.44	17.66	-30.5	-32.0	13.2	1.37e-05	0	44	0	232783872	21	4268
2026-01-19 01:42:36.16	1.05	17.96	-30.5	-32.1	13.2	2.61e-03	0	44	0	238026752	21	4293
2026-01-19 01:42:39.18	0.65	18.26	-30.7	-32.5	12.9	2.59e-03	0	44	0	243269632	21	4431
2026-01-19 01:42:42.19	0.24	18.56	-30.8	-32.7	12.7	8.77e-05	0	44	0	249561088	21	4515
2026-01-19 01:42:45.20	359.83	18.87	-30.9	-33.0	12.5	1.56e-04	0	44	0	254803968	21	4607
2026-01-19 01:42:48.21	359.40	19.17	-30.8	-32.7	12.7	3.08e-04	0	44	0	261095424	21	4523
2026-01-19 01:42:51.22	358.97	19.48	-30.7	-32.7	12.8	2.69e-04	0	44	0	266338304	21	4503
2026-01-19 01:42:54.22	358.53	19.79	-30.9	-33.1	12.6	4.80e-04	0	44	0	271581184	21	4626
2026-01-19 01:42:57.23	358.08	20.11	-31.2	-33.4	12.1	6.74e-04	0	44	0	277872640	22	4650
2026-01-19 01:43:00.24	357.62	20.42	-31.7	-34.1	11.3	2.94e-04	0	44	0	283115520	22	4772
2026-01-19 01:43:03.25	357.15	20.74	-31.1	-33.1	11.9	5.24e-04	0	44	0	289406976	22	4541
2026-01-19 01:43:06.25	356.67	21.06	-31.2	-33.4	12.2	3.06e-04	0	44	0	294649856	22	4653
2026-01-19 01:43:09.25	356.19	21.38	-31.1	-33.1	12.3	4.80e-04	0	44	0	299892736	22	4525
2026-01-19 01:43:12.25	355.69	21.70	-31.1	-33.2	12.2	7.53e-04	0	44	0	306184192	22	4567
2026-01-19 01:43:15.25	355.18	22.02	-30.9	-33.2	12.5	2.97e-04	0	44	0	311427072	21	4673
2026-01-19 01:43:18.25	354.66	22.34	-30.6	-32.1	13.3	1.37e-05	0	44	0	316669952	21	4314
2026-01-19 01:43:21.27	354.12	22.67	-30.6	-32.3	13.1	1.38e-03	0	44	0	322961408	21	4382
2026-01-19 01:43:24.28	353.58	23.00	-30.8	-32.8	12.9	1.62e-03	0	44	0	328204288	21	4528
2026-01-19 01:43:27.28	353.02	23.33	-30.5	-32.3	13.6	1.66e-03	0	44	0	334495744	20	4460
2026-01-19 01:43:30.28	352.45	23.66	-30.6	-32.3	13.3	8.39e-05	0	44	0	339738624	21	4350
2026-01-19 01:43:33.29	351.87	23.99	-30.9	-32.5	12.8	4.73e-05	0	44	0	344981504	22	4319
2026-01-19 01:43:36.30	351.28	24.33	-31.4	-33.9	11.9	6.96e-04	0	44	0	351272960	22	4810
2026-01-19 01:43:39.31	350.67	24.66	-31.6	-34.0	11.4	2.66e-03	0	44	0	356515840	23	4753
2026-01-19 01:43:42.31	350.05	24.99	-31.7	-34.5	11.1	3.89e-03	0	44	0	361758720	23	4954
2026-01-19 01:43:45.32	349.42	25.33	-31.8	-34.8	10.9	4.11e-03	0	44	0	368050176	23	5061
2026-01-19 01:43:48.33	348.77	25.67	-31.9	-35.0	10.7	4.45e-03	0	44	0	373293056	23	5158
2026-01-19 01:43:51.35	348.11	26.00	-31.6	-34.1	11.4	2.65e-03	0	44	0	379584512	23	4790
2026-01-19 01:43:54.36	347.43	26.34	-31.2	-32.7	12.3	5.71e-04	0	44	0	384827392	23	4315
2026-01-19 01:43:57.37	346.74	26.67	-31.3	-33.2	12.1	3.60e-04	0	44	0	390070272	23	4450
2026-01-19 01:44:00.38	346.04	27.01	-31.3	-33.7	12.1	6.00e-04	0	44	0	396361728	22	4720
2026-01-19 01:44:03.38	345.32	27.34	-31.3	-33.6	12.2	1.30e-03	0	44	0	401604608	22	4676
2026-01-19 01:44:06.39	344.58	27.67	-31.5	-33.8	11.7	2.22e-03	0	44	0	406847488	23	4668
2026-01-19 01:44:09.40	343.83	28.01	-31.3	-33.5	12.1	2.34e-03	0	44	0	413138944	22	4677
2026-01-19 01:44:12.41	343.06	28.34	-31.3	-33.5	12.3	1.87e-04	0	44	0	418381824	22	4651
2026-01-19 01:44:15.42	342.28	28.66	-31.4	-34.0	11.8	3.51e-04	0	44	0	424673280	22	4819
2026-01-19 01:44:18.43	341.48	28.99	-31.8	-34.6	11.1	1.40e-03	0	44	0	429916160	23	4972
2026-01-19 01:44:21.44	340.66	29.31	-31.1	-33.0	12.5	2.08e-03	0	44	0	435159040	22	4494
2026-01-19 01:44:24.45	339.83	29.63	-31.3	-33.6	12.2	9.96e-04	0	44	0	441450496	22	4699
2026-01-19 01:44:27.46	338.98	29.95	-31.8	-34.7	10.9	2.97e-03	0	44	0	446693376	23	5048
2026-01-19 01:44:30.47	338.11	30.26	-31.7	-34.3	11.3	1.13e-03	0	44	0	452984832	23	4861
2026-01-19 01:44:33.47	337.23	30.57	-32.3	-36.0	9.6	7.47e-03	0	44	0	458227712	24	5528
2026-01-19 01:44:36.49	336.33	30.87	-32.6	-36.6	8.9	3.84e-02	0	44	0	463470592	25	5740
2026-01-19 01:44:39.49	335.41	31.17	-31.7	-33.9	11.4	1.25e-03	0	44	0	469762048	24	4636
2026-01-19 01:44:42.50	334.48	31.47	-31.9	-35.1	10.7	2.76e-03	0	44	0	475004928	23	5199
2026-01-19 01:44:45.50	333.53	31.75	-32.7	-36.9	8.4	4.38e-02	0	44	0	480247808	25	5886
2026-01-19 01:44:48.50	332.56	32.03	-32.4	-36.0	9.2	3.03e-02	0	44	0	486539264	25	5442
2026-01-19 01:44:51.50	331.58	32.31	-32.5	-36.3	9.0	2.29e-02	0	44	0	491782144	25	5582
2026-01-19 01:44:54.52	330.57	32.57	-33.1	-38.8	6.7	1.71e-01	0	44	0	498073600	26	6928
2026-01-19 01:44:57.53	329.55	32.83	-32.5	-36.5	8.9	5.63e-02	0	44	0	503316480	25	5660
2026-01-19 01:45:00.55	328.51	33.08	-32.4	-35.9	9.4	1.81e-02	0	44	0	508559360	25	5378
2026-01-19 01:45:03.54	327.47	33.33	-32.6	-36.8	8.8	3.38e-02	0	44	0	514850816	25	5821
2026-01-19 01:45:06.53	326.41	33.56	-31.9	-35.0	10.8	4.74e-03	0	44	0	520093696	23	5149
2026-01-19 01:45:09.54	325.32	33.78	-32.4	-36.7	9.0	1.80e-02	0	44	0	525336576	24	5857
2026-01-19 01:45:12.54	324.23	33.99	-32.6	-36.8	8.5	6.08e-02	0	44	0	531628032	25	5849
2026-01-19 01:45:15.56	323.12	34.20	-32.2	-35.8	9.8	1.91e-02	0	44	0	536870912	24	5412
2026-01-19 01:45:18.56	321.99	34.39	-32.8	-37.3	8.2	6.48e-02	0	44	0	542113792	25	6087
2026-01-19 01:45:21.57	320.86	34.57	-30.9	-32.0	12.8	5.86e-04	0	44	0	548405248	23	4094
2026-01-19 01:45:24.58	319.70	34.73	-30.1	-31.2	14.3	0.00e+00	0	44	0	553648128	20	4129
2026-01-19 01:45:27.59	318.54	34.89	-29.9	-30.9	14.4	1.85e-04	0	44	0	559939584	20	4044
2026-01-19 01:45:30.61	317.37	35.03	-30.3	-32.0	13.9	1.67e-05	0	44	0	565182464	20	4347
2026-01-19 01:45:33.61	316.19	35.16	-30.7	-32.6	13.1	3.68e-04	0	44	0	570425344	21	4455
2026-01-19 01:45:36.61	315.00	35.27	-30.5	-32.0	13.5	2.13e-05	0	44	0	576716800	21	4259
2026-01-19 01:45:39.61	313.80	35.38	-30.1	-31.4	14.2	3.80e-06	0	44	0	581959680	20	4172
2026-01-19 01:45:42.61	312.60	35.46	-30.7	-32.4	13.2	9.10e-06	0	44	0	587202560	21	4394
2026-01-19 01:45:45.61	311.39	35.54	-30.3	-31.5	13.9	5.02e-04	0	44	0	593494016	21	4100
2026-01-19 01:45:48.61	310.18	35.59	-29.7	-30.7	15.1	2.10e-04	0	44	0	598736896	19	4052
2026-01-19 01:45:51.61	308.96	35.64	-30.8	-32.6	13.2	3.50e-04	0	44	0	605028352	21	4446
2026-01-19 01:45:54.61	307.74	35.67	-31.1	-33.0	12.7	2.66e-04	0	44	0	610271232	22	4477
2026-01-19 01:45:57.62	306.51	35.68	-30.6	-32.0	13.6	1.63e-04	0	44	0	615514112	21	4245
2026-01-19 01:46:00.63	305.28	35.68	-30.7	-32.4	13.3	1.52e-05	0	44	0	621805568	21	4385
2026-01-19 01:46:03.63	304.06	35.67	-30.9	-32.5	13.1	6.25e-05	0	44	0	627048448	22	4306
2026-01-19 01:46:06.63	302.84	35.64	-30.9	-32.9	12.9	6.63e-05	0	44	0	632291328	21	4548
2026-01-19 01:46:09.62	301.63	35.59	-31.3	-33.4	12.4	7.32e-05	0	44	0	638582784	22	4618
2026-01-19 01:46:12.62	300.41	35.53	-32.0	-35.0	10.4	4.19e-03	0	44	0	643825664	24	5050
2026-01-19 01:46:15.62	299.20	35.46	-31.1	-32.7	12.4	2.78e-04	0	44	0	650117120	23	4316
2026-01-19 01:46:18.62	298.00	35.37	-31.6	-33.9	11.6	5.50e-04	0	44	0	655360000	23	4744
2026-01-19 01:46:21.63	296.80	35.27	-32.0	-35.1	10.2	4.54e-03	0	44	0	660602880	24	5142
2026-01-19 01:46:24.65	295.60	35.15	-31.1	-32.6	12.5	6.61e-04	0	44	0	666894336	23	4272
2026-01-19 01:46:27.64	294.43	35.02	-31.0	-32.8	12.6	4.14e-04	0	44	0	672137216	22	4455
2026-01-19 01:46:30.65	293.25	34.88	-31.6	-34.2	11.3	8.93e-04	0	44	0	677380096	23	4833
2026-01-19 01:46:33.67	292.09	34.72	-31.5	-33.9	11.5	1.53e-03	0	44	0	683671552	23	4754
2026-01-19 01:46:36.68	290.94	34.55	-31.0	-32.9	12.5	2.18e-04	0	44	0	688914432	22	4465
2026-01-19 01:46:39.69	289.80	34.37	-31.5	-33.8	11.5	3.97e-04	0	44	0	695205888	23	4740
2026-01-19 01:46:42.70	288.67	34.18	-31.1	-33.0	12.4	2.44e-04	0	44	0	700448768	22	4518
2026-01-19 01:46:45.71	287.56	33.98	-30.3	-31.6	13.6	7.60e-06	0	44	0	705691648	21	4153
2026-01-19 01:46:48.71	286.46	33.76	-31.4	-34.2	11.6	1.63e-04	0	44	0	711983104	22	4958
2026-01-19 01:46:51.72	285.38	33.54	-31.6	-33.8	11.1	3.39e-03	0	44	0	717225984	24	4616
2026-01-19 01:46:54.73	284.31	33.30	-30.7	-32.6	13.1	2.21e-05	0	44	0	722468864	21	4457
2026-01-19 01:46:57.75	283.25	33.06	-31.2	-33.6	12.1	2.01e-04	0	44	0	728760320	22	4704
2026-01-19 01:47:00.74	282.22	32.81	-32.1	-35.3	9.9	6.13e-03	0	44	0	734003200	24	5224
2026-01-19 01:47:03.76	281.20	32.55	-32.2	-35.4	9.5	2.26e-02	0	44	0	740294656	25	5203
2026-01-19 01:47:06.77	280.20	32.28	-32.1	-35.3	10.1	6.55e-03	0	44	0	745537536	24	5205
2026-01-19 01:47:09.78	279.21	32.00	-31.9	-35.3	10.2	8.31e-03	0	44	0	750780416	23	5350
2026-01-19 01:47:12.79	278.24	31.72	-30.8	-33.0	11.7	7.32e-05	0	44	0	757071872	21	4595
2026-01-19 01:47:15.80	277.29	31.43	-30.8	-32.8	12.8	4.89e-04	0	44	0	762314752	21	4559
2026-01-19 01:47:18.81	276.35	31.14	-30.7	-32.6	13.0	3.50e-05	0	44	0	767557632	21	4485
2026-01-19 01:47:21.82	275.43	30.84	-32.2	-35.8	9.6	6.86e-03	0	44	0	773849088	24	5446
2026-01-19 01:47:24.83	274.53	30.53	-31.6	-34.2	11.1	3.60e-03	0	44	0	779091968	23	4861
2026-01-19 01:47:27.84	273.64	30.22	-31.0	-32.9	12.5	1.98e-04	0	44	0	785383424	22	4496
2026-01-19 01:47:30.85	272.77	29.91	-32.4	-36.8	8.8	1.50e-02	0	44	0	790626304	24	5924
2026-01-19 01:47:33.86	271.92	29.59	-32.1	-35.4	9.8	1.46e-02	0	44	0	795869184	24	5261
2026-01-19 01:47:36.87	271.09	29.27	-31.9	-35.3	10.4	7.10e-03	0	44	0	802160640	23	5281
2026-01-19 01:47:39.86	270.28	28.95	-32.0	-34.9	10.2	8.35e-03	0	44	0	807403520	24	5078
2026-01-19 01:47:42.88	269.47	28.62	-31.8	-34.9	10.6	6.41e-03	0	44	0	813694976	23	5130
2026-01-19 01:47:45.89	268.69	28.29	-30.8	-32.3	12.9	8.31e-05	0	44	0	818937856	22	4264
2026-01-19 01:47:48.90	267.92	27.96	-31.0	-32.9	12.5	6.72e-04	0	44	0	824180736	22	4485
2026-01-19 01:47:51.91	267.17	27.62	-31.4	-33.6	11.7	6.69e-04	0	44	0	830472192	23	4627
2026-01-19 01:47:54.92	266.43	27.29	-31.2	-33.4	12.1	1.09e-03	0	44	0	835715072	22	4635
2026-01-19 01:47:57.93	265.71	26.95	-30.3	-31.4	13.7	3.10e-04	0	44	0	840957952	21	4086
2026-01-19 01:48:00.91	265.01	26.62	-30.8	-32.8	12.8	2.99e-03	0	44	0	847249408	21	4523
2026-01-19 01:48:03.93	264.31	26.28	-30.2	-31.7	13.8	3.89e-03	0	44	0	852492288	20	4263
2026-01-19 01:48:06.92	263.64	25.95	-29.8	-31.0	14.7	0.00e+00	0	44	0	858783744	19	4133
2026-01-19 01:48:09.93	262.98	25.61	-29.8	-31.0	14.6	2.25e-03	0	44	0	864026624	19	4149
2026-01-19 01:48:12.95	262.33	25.27	-30.3	-31.9	13.7	1.79e-03	0	44	0	869269504	20	4337
2026-01-19 01:48:15.95	261.69	24.94	-29.7	-30.4	14.6	2.09e-03	0	44	0	875560960	20	3905
2026-01-19 01:48:18.97	261.07	24.60	-29.7	-30.9	14.7	2.22e-03	0	44	0	880803840	19	4134
2026-01-19 01:48:21.98	260.46	24.27	-29.8	-31.2	14.5	2.02e-03	0	44	0	886046720	19	4197
2026-01-19 01:48:24.99	259.87	23.93	-29.5	-30.5	14.9	0.00e+00	0	44	0	892338176	19	4013
2026-01-19 01:48:28.00	259.28	23.60	-29.5	-30.4	14.9	0.00e+00	0	44	0	897581056	19	3976
2026-01-19 01:48:31.00	258.72	23.27	-29.3	-30.4	15.2	0.00e+00	0	44	0	903872512	18	4073
2026-01-19 01:48:34.01	258.16	22.94	-29.7	-30.8	14.7	1.87e-03	0	44	0	909115392	19	4087
2026-01-19 01:48:37.02	257.61	22.61	-29.8	-31.1	14.5	2.57e-03	0	44	0	914358272	19	4193
2026-01-19 01:48:40.03	257.08	22.28	-29.8	-31.1	14.4	3.22e-03	0	44	0	920649728	19	4206
2026-01-19 01:48:43.04	256.55	21.95	-30.5	-32.0	13.2	1.67e-05	0	44	0	925892608	21	4297
2026-01-19 01:48:46.06	256.04	21.63	-30.7	-32.6	12.8	7.17e-05	0	44	0	931135488	21	4497
2026-01-19 01:48:49.07	255.54	21.30	-30.3	-31.9	13.5	8.30e-06	0	44	0	937426944	20	4364
2026-01-19 01:48:52.07	255.05	20.98	-30.7	-32.7	12.6	7.70e-05	0	44	0	942669824	21	4516
2026-01-19 01:48:55.08	254.56	20.66	-30.8	-33.1	12.4	1.50e-04	0	44	0	948961280	21	4680
2026-01-19 01:48:58.08	254.09	20.34	-30.5	-32.2	13.0	4.34e-05	0	44	0	954204160	21	4379
2026-01-19 01:49:01.09	253.63	20.03	-30.6	-32.5	12.7	6.86e-05	0	44	0	959447040	21	4452
2026-01-19 01:49:04.10	253.18	19.72	-30.3	-31.6	13.3	7.70e-05	0	44	0	965738496	21	4173
2026-01-19 01:49:07.10	252.74	19.40	-30.2	-31.8	13.5	9.90e-06	0	44	0	970981376	20	4332
2026-01-19 01:49:10.12	252.30	19.09	-30.0	-31.3	13.7	9.10e-06	0	44	0	977272832	20	4190
2026-01-19 01:49:13.13	251.88	18.79	-30.2	-31.8	13.4	4.50e-06	0	44	0	982515712	20	4347
2026-01-19 01:49:16.13	251.47	18.48	-30.1	-31.7	13.5	1.14e-05	0	44	0	987758592	20	4286
2026-01-19 01:49:19.14	251.06	18.18	-30.4	-32.4	13.0	3.58e-05	0	44	0	994050048	20	4535
2026-01-19 01:49:22.15	250.66	17.88	-30.2	-31.8	13.4	2.61e-03	0	44	0	999292928	20	4328
2026-01-19 01:49:25.16	250.27	17.58	-29.8	-31.3	14.1	2.94e-03	0	44	0	1004535808	19	4280
2026-01-19 01:49:28.17	249.88	17.28	-30.1	-31.6	13.5	3.49e-03	0	44	0	1010827264	20	4262
2026-01-19 01:49:31.17	249.51	16.99	-30.6	-32.6	12.5	9.23e-05	0	44	0	1016070144	21	4536
2026-01-19 01:49:34.18	249.14	16.70	-31.5	-34.4	10.5	1.83e-03	0	44	0	1022361600	23	5020
2026-01-19 01:49:37.19	248.78	16.41	-31.3	-34.1	11.2	2.75e-03	0	44	0	1027604480	22	4935
2026-01-19 01:49:40.20	248.42	16.12	-30.6	-32.4	12.7	2.75e-03	0	44	0	1032847360	21	4446
2026-01-19 01:49:43.21	248.07	15.84	-30.8	-33.0	12.3	2.98e-03	0	44	0	1039138816	21	4622
2026-01-19 01:49:46.22	247.73	15.55	-31.1	-33.5	11.6	3.86e-03	0	44	0	1044381696	22	4708
2026-01-19 01:49:49.23	247.40	15.27	-31.6	-34.5	10.5	7.30e-03	0	44	0	1049624576	23	5046
2026-01-19 01:49:52.23	247.07	14.99	-31.5	-34.1	10.6	8.18e-03	0	44	0	1055916032	23	4894
2026-01-19 01:49:55.24	246.75	14.72	-31.3	-33.9	11.2	1.28e-03	0	44	0	1061158912	22	4891
2026-01-19 01:49:58.25	246.43	14.44	-31.1	-33.6	11.4	3.86e-03	0	44	0	1067450368	22	4772
2026-01-19 01:50:01.25	246.12	14.17	-31.2	-33.8	11.2	4.24e-03	0	44	0	1072693248	22	4875
2026-01-19 01:50:04.27	245.82	13.90	-31.1	-33.6	11.3	3.78e-03	0	44	0	1077936128	22	4782
2026-01-19 01:50:07.28	245.52	13.64	-30.9	-33.0	11.8	3.39e-03	0	44	0	1084227584	22	4551
2026-01-19 01:50:10.28	245.22	13.37	-31.1	-33.6	11.3	5.40e-03	0	44	0	1089470464	22	4770
2026-01-19 01:50:13.28	244.94	13.11	-31.3	-34.2	10.8	5.55e-03	0	44	0	1094713344	22	5024
2026-01-19 01:50:16.30	244.65	12.85	-31.4	-34.4	10.7	3.05e-03	0	44	0	1101004800	22	5124
2026-01-19 01:50:19.30	244.38	12.59	-31.1	-33.6	11.2	1.90e-03	0	44	0	1106247680	22	4804
2026-01-19 01:50:22.31	244.10	12.33	-30.4	-32.4	12.6	2.54e-03	0	44	0	1112539136	20	4572
2026-01-19 01:50:25.31	243.83	12.08	-30.4	-32.6	12.5	1.25e-03	0	44	0	1117782016	20	4636
2026-01-19 01:50:28.31	243.57	11.83	-30.6	-32.6	12.3	2.54e-03	0	44	0	1123024896	21	4519
2026-01-19 01:50:31.33	243.31	11.57	-31.1	-33.6	11.2	1.54e-03	0	44	0	1129316352	22	4806
2026-01-19 01:50:34.34	243.06	11.32	-31.6	-34.7	9.9	7.45e-03	0	44	0	1134559232	23	5178
2026-01-19 01:50:37.34	242.81	11.08	-31.7	-35.4	9.4	1.92e-02	0	44	0	1139802112	23	5488
2026-01-19 01:50:40.34	242.56	10.83	-31.8	-35.5	9.2	1.86e-02	0	44	0	1146093568	23	5554
2026-01-19 01:50:43.34	242.32	10.59	-31.5	-34.8	9.8	1.13e-02	0	44	0	1151336448	23	5209
2026-01-19 01:50:46.36	242.08	10.35	-31.6	-35.1	9.5	1.18e-02	0	44	0	1157627904	23	5380
2026-01-19 01:50:49.37	241.85	10.11	-31.2	-34.2	10.6	4.95e-03	0	44	0	1162870784	22	5073
2026-01-19 01:50:52.38	241.62	9.87	-31.0	-33.6	10.9	1.97e-03	0	44	0	1168113664	22	4846
2026-01-19 01:50:55.38	241.40	9.64	-31.0	-34.0	11.0	1.90e-03	0	44	0	1174405120	21	5074
2026-01-19 01:50:58.39	241.17	9.40	-30.9	-33.3	11.1	2.48e-03	0	44	0	1179648000	22	4729
2026-01-19 01:51:01.40	240.96	9.17	-30.8	-33.3	11.4	1.28e-03	0	44	0	1184890880	21	4834
2026-01-19 01:51:04.41	240.74	8.94	-30.9	-33.9	11.0	1.53e-03	0	44	0	1191182336	21	5049
2026-01-19 01:51:07.42	240.53	8.71	-31.0	-33.6	10.8	2.17e-03	0	44	0	1196425216	22	4864
2026-01-19 01:51:10.43	240.32	8.48	-31.2	-34.2	10.3	4.93e-03	0	44	0	1202716672	22	5108
2026-01-19 01:51:13.42	240.12	8.26	-31.5	-34.9	9.4	1.43e-02	0	44	0	1207959552	23	5327
2026-01-19 01:51:16.43	239.92	8.04	-31.6	-35.2	9.1	2.09e-02	0	44	0	1213202432	23	5467
2026-01-19 01:51:19.45	239.72	7.81	-31.6	-35.4	9.1	2.67e-02	0	44	0	1219493888	23	5540
2026-01-19 01:51:22.45	239.52	7.59	-31.6	-35.2	9.1	2.50e-02	0	44	0	1224736768	23	5497
2026-01-19 01:51:25.46	239.33	7.38	-31.5	-35.2	9.0	3.09e-02	0	44	0	1229979648	23	5479
2026-01-19 01:51:28.46	239.14	7.16	-31.5	-35.0	9.1	2.27e-02	0	44	0	1236271104	23	5419
2026-01-19 01:51:31.47	238.96	6.94	-33.9	-46.4	3.8	1.49e+00	0	44	104	1238368256	27	15316

#Closed at: 2026-01-19 01:51:31
#Recorded file [1238 MB]: D:/data/31010_260119_044028.dat