passes_logs/2026/01/19/R2M6_AANII_01/R2M6_AANII_01__20260119_041913_FENGYUN_3D_rec.log

#Pass ID: 20260119_041913_FENGYUN 3D
#Satellite: FENGYUN 3D
#Configuration: FENGYUN 3D
#almurnet v.1.7.20240730
#Start time: 2026-01-19 04:19:15

#Version: 2.2.20231116
#Station: R2M6_AANII_01
#Location: 30.233357 lon 59.946436 lat
#TLE: 1 43010U 17072A   26017.96359538  .00000271  00000+0  15011-3 0  9999
#TLE: 2 43010  98.9936 349.8252 0002386 103.8840 256.2601 14.19697057423673

#Time	Az	El	Level	Level2	SNR	BER	BlckErr	Temp	State	Recorded	gain1	gain2
2026-01-19 04:19:15.09	10.96	7.12	-30.9	-35.0	5.1	7.93e-01	0	42	0	0	21	5793
2026-01-19 04:19:18.10	10.69	7.31	-30.6	-34.2	9.0	3.26e-02	0	42	0	5242880	21	5448
2026-01-19 04:19:21.11	10.41	7.51	-31.0	-34.9	8.2	5.20e-02	0	42	0	22020096	22	5623
2026-01-19 04:19:24.12	10.14	7.70	-29.6	-32.4	11.0	5.47e-03	0	42	0	38797312	19	4938
2026-01-19 04:19:27.14	9.86	7.90	-28.5	-30.6	12.9	1.99e-03	0	42	0	55574528	17	4568
2026-01-19 04:19:30.16	9.57	8.10	-27.8	-29.9	13.7	1.67e-03	0	42	0	73400320	15	4579
2026-01-19 04:19:33.17	9.28	8.30	-27.8	-30.0	13.7	1.61e-03	0	42	0	90177536	15	4616
2026-01-19 04:19:36.18	8.99	8.50	-27.8	-29.8	13.8	1.82e-03	0	42	0	106954752	15	4564
2026-01-19 04:19:39.20	8.69	8.70	-27.9	-30.2	13.6	1.84e-03	0	42	0	123731968	15	4683
2026-01-19 04:19:42.20	8.39	8.90	-27.6	-29.5	14.0	2.20e-06	0	43	0	140509184	15	4458
2026-01-19 04:19:45.21	8.08	9.11	-27.5	-29.6	14.3	1.10e-06	0	43	0	158334976	14	4611
2026-01-19 04:19:48.22	7.77	9.31	-27.5	-29.1	14.3	1.70e-03	0	42	0	175112192	15	4348
2026-01-19 04:19:51.23	7.46	9.51	-27.3	-29.2	14.5	0.00e+00	0	43	0	191889408	14	4496
2026-01-19 04:19:54.25	7.13	9.72	-27.2	-29.1	14.7	0.00e+00	0	43	0	208666624	14	4456
2026-01-19 04:19:57.26	6.81	9.92	-27.2	-29.1	14.7	0.00e+00	0	43	0	225443840	14	4448
2026-01-19 04:20:00.28	6.48	10.13	-27.3	-29.3	14.5	0.00e+00	0	43	0	242221056	14	4514
2026-01-19 04:20:03.29	6.15	10.34	-27.5	-29.1	14.3	1.10e-06	0	43	0	258998272	15	4357
2026-01-19 04:20:06.29	5.81	10.55	-27.4	-29.4	14.5	2.20e-06	0	43	0	275775488	14	4539
2026-01-19 04:20:09.30	5.46	10.76	-27.8	-29.9	13.9	6.80e-06	0	43	0	293601280	15	4580
2026-01-19 04:20:12.31	5.12	10.97	-27.4	-29.4	14.5	1.10e-06	0	43	0	310378496	14	4526
2026-01-19 04:20:15.32	4.76	11.18	-27.5	-29.1	14.4	1.10e-06	0	43	0	327155712	15	4341
2026-01-19 04:20:18.32	4.40	11.39	-27.3	-29.3	14.6	0.00e+00	0	43	0	343932928	14	4497
2026-01-19 04:20:21.33	4.04	11.60	-27.2	-29.0	14.8	1.10e-06	0	43	0	360710144	14	4423
2026-01-19 04:20:24.35	3.67	11.81	-26.9	-28.3	15.2	0.00e+00	0	43	0	378535936	14	4226
2026-01-19 04:20:27.36	3.29	12.03	-26.9	-28.9	15.1	0.00e+00	0	43	0	395313152	13	4510
2026-01-19 04:20:30.38	2.91	12.24	-26.8	-28.6	15.3	0.00e+00	0	44	0	412090368	13	4436
2026-01-19 04:20:33.38	2.52	12.45	-26.7	-28.3	15.5	0.00e+00	0	43	0	428867584	13	4329
2026-01-19 04:20:36.39	2.13	12.67	-26.7	-28.5	15.1	0.00e+00	0	44	0	445644800	13	4382
2026-01-19 04:20:39.41	1.73	12.89	-26.7	-28.4	15.5	0.00e+00	0	44	0	462422016	13	4365
2026-01-19 04:20:42.42	1.32	13.10	-26.6	-28.1	15.6	0.00e+00	0	43	0	479199232	13	4287
2026-01-19 04:20:45.44	0.91	13.32	-26.6	-28.1	15.7	7.32e-05	0	44	0	495976448	13	4281
2026-01-19 04:20:48.45	0.49	13.54	-26.5	-27.9	15.8	0.00e+00	0	44	0	513802240	13	4238
2026-01-19 04:20:51.46	0.07	13.75	-26.6	-28.0	15.7	1.67e-04	0	44	0	530579456	13	4265
2026-01-19 04:20:54.47	359.64	13.97	-26.4	-28.1	16.0	1.73e-04	0	44	0	547356672	12	4388
2026-01-19 04:20:57.47	359.20	14.19	-26.2	-27.8	16.2	1.68e-04	0	44	0	564133888	12	4305
2026-01-19 04:21:00.48	358.76	14.41	-26.2	-27.8	16.2	0.00e+00	0	44	0	580911104	12	4314
2026-01-19 04:21:03.49	358.31	14.62	-26.2	-27.7	16.2	2.00e-04	0	44	0	598736896	12	4290
2026-01-19 04:21:06.50	357.85	14.84	-26.0	-27.4	16.4	2.25e-04	0	44	0	615514112	12	4200
2026-01-19 04:21:09.49	357.39	15.06	-26.0	-27.2	16.5	2.64e-04	0	44	0	632291328	12	4159
2026-01-19 04:21:12.50	356.92	15.28	-26.1	-27.6	16.4	2.55e-04	0	44	0	649068544	12	4243
2026-01-19 04:21:15.51	356.44	15.50	-26.0	-27.3	16.5	2.07e-04	0	44	0	665845760	12	4190
2026-01-19 04:21:18.53	355.95	15.72	-26.0	-27.3	16.5	1.64e-04	0	44	0	682622976	12	4188
2026-01-19 04:21:21.54	355.46	15.94	-26.0	-27.7	16.6	0.00e+00	0	44	0	699400192	11	4402
2026-01-19 04:21:24.55	354.96	16.15	-25.9	-27.5	16.7	1.70e-04	0	44	0	716177408	11	4349
2026-01-19 04:21:27.55	354.45	16.37	-25.9	-27.6	16.7	1.75e-04	0	44	0	734003200	11	4362
2026-01-19 04:21:30.57	353.94	16.59	-26.2	-27.6	16.4	0.00e+00	0	44	0	750780416	12	4255
2026-01-19 04:21:33.58	353.41	16.81	-26.0	-27.2	16.6	0.00e+00	0	44	0	767557632	12	4156
2026-01-19 04:21:36.58	352.89	17.02	-25.9	-27.6	16.7	1.52e-04	0	44	0	784334848	11	4359
2026-01-19 04:21:39.59	352.35	17.24	-25.7	-27.2	17.0	0.00e+00	0	44	0	801112064	11	4251
2026-01-19 04:21:42.60	351.80	17.45	-26.0	-27.7	16.7	0.00e+00	0	44	0	817889280	11	4391
2026-01-19 04:21:45.61	351.25	17.67	-25.9	-27.5	16.9	0.00e+00	0	44	0	834666496	11	4324
2026-01-19 04:21:48.62	350.69	17.88	-25.8	-27.4	16.9	0.00e+00	0	44	0	851443712	11	4309
2026-01-19 04:21:51.64	350.11	18.09	-25.7	-27.1	17.1	0.00e+00	0	44	0	869269504	11	4235
2026-01-19 04:21:54.65	349.53	18.30	-25.5	-26.6	17.3	0.00e+00	0	44	0	886046720	11	4108
2026-01-19 04:21:57.65	348.95	18.51	-25.4	-26.5	17.4	0.00e+00	0	44	0	902823936	11	4081
2026-01-19 04:22:00.65	348.36	18.72	-25.3	-26.7	17.5	0.00e+00	0	44	0	919601152	10	4251
2026-01-19 04:22:03.67	347.75	18.93	-25.3	-26.6	17.6	0.00e+00	0	44	0	936378368	10	4226
2026-01-19 04:22:06.68	347.14	19.13	-25.0	-26.2	17.9	0.00e+00	0	44	0	953155584	10	4102
2026-01-19 04:22:09.68	346.52	19.34	-24.9	-25.8	18.0	0.00e+00	0	44	0	969932800	10	4014
2026-01-19 04:22:12.68	345.90	19.54	-24.8	-26.2	18.1	0.00e+00	0	44	0	987758592	9	4229
2026-01-19 04:22:15.68	345.26	19.73	-25.0	-26.2	17.8	0.00e+00	0	44	0	1004535808	10	4117
2026-01-19 04:22:18.69	344.62	19.93	-25.1	-26.3	17.7	0.00e+00	0	44	0	1021313024	10	4142
2026-01-19 04:22:21.70	343.96	20.13	-25.0	-26.2	17.9	0.00e+00	0	44	0	1038090240	10	4105
2026-01-19 04:22:24.70	343.30	20.32	-25.0	-26.1	17.9	0.00e+00	0	44	0	1054867456	10	4096
2026-01-19 04:22:27.72	342.63	20.51	-24.9	-25.9	18.0	0.00e+00	0	44	0	1071644672	10	4053
2026-01-19 04:22:30.72	341.96	20.70	-24.7	-25.5	18.2	0.00e+00	0	44	0	1088421888	10	3938
2026-01-19 04:22:33.71	341.27	20.88	-23.9	-24.9	13.7	0.00e+00	0	44	0	1105199104	9	4035
2026-01-19 04:22:36.71	340.58	21.06	-24.7	-26.0	17.8	0.00e+00	0	44	0	1123024896	9	4185
2026-01-19 04:22:39.72	339.88	21.24	-24.8	-26.1	18.2	0.00e+00	0	44	0	1139802112	9	4189
2026-01-19 04:22:42.72	339.17	21.41	-24.6	-25.8	18.3	0.00e+00	0	44	0	1156579328	9	4129
2026-01-19 04:22:45.70	338.45	21.58	-24.5	-25.5	18.5	2.05e-05	0	44	0	1173356544	9	4043
2026-01-19 04:22:48.71	337.73	21.75	-24.5	-25.5	18.5	0.00e+00	0	44	0	1190133760	9	4038
2026-01-19 04:22:51.71	336.99	21.91	-24.5	-25.6	18.5	0.00e+00	0	44	0	1206910976	9	4063
2026-01-19 04:22:54.72	336.25	22.07	-24.5	-25.6	18.4	1.67e-03	0	44	0	1223688192	9	4073
2026-01-19 04:22:57.74	335.50	22.22	-24.5	-25.5	18.5	1.38e-03	0	44	0	1240465408	9	4044
2026-01-19 04:23:00.74	334.74	22.37	-24.4	-25.3	18.6	0.00e+00	0	44	0	1258291200	9	4006
2026-01-19 04:23:03.74	333.98	22.52	-24.4	-25.4	18.6	1.56e-03	0	44	0	1275068416	9	4020
2026-01-19 04:23:06.76	333.20	22.66	-24.3	-25.2	18.7	1.26e-03	0	44	0	1291845632	9	3972
2026-01-19 04:23:09.77	332.42	22.80	-24.3	-25.5	18.8	1.28e-03	0	44	0	1308622848	8	4154
2026-01-19 04:23:12.77	331.64	22.93	-24.2	-25.3	18.9	1.53e-03	0	44	0	1325400064	8	4119
2026-01-19 04:23:15.79	330.84	23.06	-24.1	-25.2	18.9	1.25e-03	0	44	0	1342177280	8	4089
2026-01-19 04:23:18.80	330.04	23.18	-24.0	-25.1	19.0	1.02e-03	0	44	0	1358954496	8	4047
2026-01-19 04:23:21.81	329.23	23.29	-24.0	-25.1	19.0	0.00e+00	0	44	0	1375731712	8	4051
2026-01-19 04:23:24.82	328.42	23.40	-24.1	-25.2	18.9	1.23e-03	0	44	0	1393557504	8	4092
2026-01-19 04:23:27.84	327.60	23.50	-24.0	-25.0	19.0	6.96e-04	0	44	0	1410334720	8	4043
2026-01-19 04:23:30.84	326.78	23.60	-24.2	-25.5	18.8	0.00e+00	0	44	0	1427111936	8	4158
2026-01-19 04:23:33.85	325.95	23.69	-24.2	-25.4	18.8	0.00e+00	0	44	0	1443889152	8	4140
2026-01-19 04:23:36.86	325.12	23.78	-24.3	-25.7	18.7	7.52e-04	0	44	0	1460666368	8	4206
2026-01-19 04:23:39.87	324.28	23.86	-24.2	-25.5	18.8	0.00e+00	0	44	0	1477443584	8	4154
2026-01-19 04:23:42.88	323.44	23.93	-24.4	-25.8	18.6	0.00e+00	0	44	0	1494220800	8	4246
2026-01-19 04:23:45.89	322.59	24.00	-23.8	-24.5	19.3	0.00e+00	0	44	0	1510998016	8	3918
2026-01-19 04:23:48.90	321.74	24.06	-23.5	-24.5	19.5	0.00e+00	0	44	0	1528823808	7	4026
2026-01-19 04:23:51.91	320.89	24.11	-23.8	-25.0	19.2	0.00e+00	0	44	0	1545601024	7	4145
2026-01-19 04:23:54.91	320.04	24.16	-23.9	-25.3	19.1	0.00e+00	0	44	0	1562378240	7	4224
2026-01-19 04:23:57.92	319.18	24.19	-24.0	-25.5	19.0	0.00e+00	0	44	0	1579155456	7	4264
2026-01-19 04:24:00.93	318.32	24.23	-23.8	-25.0	19.3	0.00e+00	0	44	0	1595932672	7	4142
2026-01-19 04:24:03.95	317.46	24.25	-23.8	-25.0	19.2	0.00e+00	0	44	0	1613758464	7	4155
2026-01-19 04:24:06.94	316.60	24.27	-23.8	-25.0	19.2	0.00e+00	0	44	0	1630535680	7	4158
2026-01-19 04:24:09.94	315.74	24.28	-23.7	-24.8	19.4	0.00e+00	0	44	0	1646264320	7	4084
2026-01-19 04:24:12.94	314.88	24.29	-23.7	-24.9	19.3	0.00e+00	0	44	0	1664090112	7	4119
2026-01-19 04:24:15.94	314.02	24.28	-23.6	-24.7	19.4	0.00e+00	0	44	0	1680867328	7	4077
2026-01-19 04:24:18.95	313.16	24.27	-23.8	-25.1	19.2	0.00e+00	0	44	0	1697644544	7	4183
2026-01-19 04:24:21.96	312.30	24.26	-23.6	-24.7	19.4	0.00e+00	0	44	0	1714421760	7	4075
2026-01-19 04:24:24.96	311.44	24.23	-23.5	-24.4	19.6	0.00e+00	0	44	0	1731198976	7	3990
2026-01-19 04:24:27.97	310.58	24.20	-23.6	-24.5	19.5	0.00e+00	0	44	0	1747976192	7	4030
2026-01-19 04:24:30.98	309.72	24.16	-23.6	-24.7	19.4	0.00e+00	0	44	0	1764753408	7	4070
2026-01-19 04:24:33.99	308.86	24.12	-23.7	-24.8	19.3	7.89e-05	0	44	0	1782579200	7	4100
2026-01-19 04:24:37.00	308.01	24.07	-23.9	-25.2	19.1	0.00e+00	0	44	0	1799356416	7	4195
2026-01-19 04:24:40.02	307.16	24.01	-23.7	-24.8	19.3	0.00e+00	0	44	0	1816133632	7	4096
2026-01-19 04:24:43.04	306.31	23.94	-23.7	-24.8	19.3	0.00e+00	0	44	0	1832910848	7	4097
2026-01-19 04:24:46.04	305.47	23.87	-23.8	-25.1	19.2	1.27e-03	0	44	0	1849688064	7	4167
2026-01-19 04:24:49.06	304.62	23.79	-23.7	-24.8	19.3	0.00e+00	0	44	0	1867513856	7	4087
2026-01-19 04:24:52.06	303.79	23.71	-23.6	-24.5	19.4	1.65e-03	0	44	0	1884291072	7	4032
2026-01-19 04:24:55.08	302.96	23.62	-23.9	-25.2	19.1	1.84e-03	0	44	0	1901068288	7	4198
2026-01-19 04:24:58.09	302.13	23.52	-23.8	-25.0	19.2	2.04e-03	0	44	0	1917845504	7	4137
2026-01-19 04:25:01.09	301.32	23.42	-23.8	-25.1	19.1	0.00e+00	0	44	0	1934622720	7	4183
2026-01-19 04:25:04.10	300.50	23.31	-23.8	-25.0	19.2	1.75e-03	0	44	0	1951399936	7	4155
2026-01-19 04:25:07.11	299.69	23.20	-24.1	-25.3	18.8	1.87e-03	0	44	0	1968177152	8	4101
2026-01-19 04:25:10.11	298.89	23.08	-24.1	-25.3	18.8	0.00e+00	0	44	0	1984954368	8	4103
2026-01-19 04:25:13.12	298.10	22.95	-24.0	-24.9	19.0	1.35e-03	0	44	0	2002780160	8	4017
2026-01-19 04:25:16.12	297.31	22.82	-23.8	-24.6	19.2	1.34e-03	0	44	0	2019557376	8	3935
2026-01-19 04:25:19.13	296.52	22.69	-23.8	-25.0	19.2	1.33e-03	0	44	0	2036334592	7	4146
2026-01-19 04:25:22.13	295.75	22.55	-23.9	-25.2	19.1	0.00e+00	0	44	0	2053111808	7	4192
2026-01-19 04:25:25.15	294.98	22.40	-23.8	-25.0	19.1	2.25e-04	0	44	0	2069889024	7	4164
2026-01-19 04:25:28.16	294.22	22.25	-23.9	-25.3	19.0	2.85e-04	0	44	0	2086666240	7	4224
2026-01-19 04:25:31.16	293.46	22.10	-24.1	-25.3	18.8	0.00e+00	0	44	0	2103443456	8	4108
2026-01-19 04:25:34.15	292.72	21.94	-24.4	-25.7	18.5	0.00e+00	0	44	0	2120220672	8	4220
2026-01-19 04:25:37.16	291.98	21.78	-24.0	-25.1	18.8	1.74e-04	0	44	0	2138046464	8	4063
2026-01-19 04:25:40.17	291.25	21.61	-23.9	-24.8	19.0	0.00e+00	0	44	0	2154823680	8	3992
2026-01-19 04:25:43.18	290.53	21.44	-24.1	-25.2	18.8	0.00e+00	0	44	0	2171600896	8	4083
2026-01-19 04:25:46.18	289.81	21.27	-24.4	-25.8	18.5	0.00e+00	0	44	0	2188378112	8	4232
2026-01-19 04:25:49.19	289.11	21.09	-24.4	-25.3	18.5	0.00e+00	0	44	0	2205155328	9	4000
2026-01-19 04:25:52.20	288.41	20.91	-24.5	-25.5	18.3	0.00e+00	0	44	0	2221932544	9	4055
2026-01-19 04:25:55.20	287.72	20.72	-24.6	-25.7	18.2	0.00e+00	0	44	0	2238709760	9	4098
2026-01-19 04:25:58.22	287.03	20.54	-24.0	-25.1	18.8	0.00e+00	0	44	0	2255486976	8	4062
2026-01-19 04:26:01.23	286.36	20.35	-24.5	-25.6	18.3	0.00e+00	0	44	0	2273312768	9	4065
2026-01-19 04:26:04.24	285.69	20.15	-24.5	-25.6	18.3	0.00e+00	0	44	0	2290089984	9	4077
2026-01-19 04:26:07.25	285.04	19.96	-24.5	-25.5	18.3	0.00e+00	0	44	0	2306867200	9	4047
2026-01-19 04:26:10.26	284.39	19.76	-24.5	-25.6	18.3	0.00e+00	0	44	0	2323644416	9	4083
2026-01-19 04:26:13.28	283.75	19.56	-24.5	-25.6	18.2	0.00e+00	0	44	0	2340421632	9	4080
2026-01-19 04:26:16.29	283.11	19.36	-24.7	-26.1	18.0	0.00e+00	0	44	0	2357198848	9	4196
2026-01-19 04:26:19.30	282.49	19.15	-24.9	-26.5	17.8	0.00e+00	0	44	0	2375024640	9	4310
2026-01-19 04:26:22.31	281.87	18.95	-25.4	-26.9	17.3	0.00e+00	0	44	0	2391801856	10	4296
2026-01-19 04:26:25.31	281.27	18.74	-25.0	-26.1	17.7	0.00e+00	0	44	0	2408579072	10	4091
2026-01-19 04:26:28.31	280.67	18.53	-25.2	-26.5	17.5	0.00e+00	0	44	0	2425356288	10	4201
2026-01-19 04:26:31.31	280.08	18.32	-25.0	-26.1	17.7	0.00e+00	0	44	0	2442133504	10	4083
2026-01-19 04:26:34.33	279.50	18.11	-25.0	-26.2	17.7	0.00e+00	0	44	0	2458910720	10	4113
2026-01-19 04:26:37.34	278.93	17.90	-25.0	-26.2	17.7	0.00e+00	0	44	0	2475687936	10	4112
2026-01-19 04:26:40.35	278.36	17.69	-24.9	-25.9	17.8	0.00e+00	0	44	0	2493513728	10	4049
2026-01-19 04:26:43.35	277.80	17.47	-25.1	-26.4	17.5	3.11e-04	0	44	0	2510290944	10	4175
2026-01-19 04:26:46.36	277.25	17.26	-25.1	-26.3	17.5	4.08e-04	0	44	0	2527068160	10	4144
2026-01-19 04:26:49.38	276.71	17.04	-25.0	-26.1	17.6	0.00e+00	0	44	0	2543845376	10	4103
2026-01-19 04:26:52.39	276.18	16.82	-25.1	-26.3	17.5	3.35e-04	0	44	0	2560622592	10	4139
2026-01-19 04:26:55.39	275.65	16.61	-25.0	-26.1	17.7	2.32e-04	0	44	0	2577399808	10	4080
2026-01-19 04:26:58.40	275.13	16.39	-25.1	-26.3	17.5	1.02e-05	0	44	0	2594177024	10	4135
2026-01-19 04:27:01.40	274.62	16.17	-25.3	-26.7	17.3	0.00e+00	0	44	0	2610954240	10	4243
2026-01-19 04:27:04.40	274.12	15.95	-25.4	-27.1	17.1	0.00e+00	0	44	0	2628780032	10	4351
2026-01-19 04:27:07.42	273.62	15.73	-25.8	-27.4	16.6	2.36e-04	0	44	0	2645557248	11	4319
2026-01-19 04:27:10.42	273.13	15.51	-25.6	-27.0	16.9	0.00e+00	0	44	0	2662334464	11	4208
2026-01-19 04:27:13.43	272.65	15.29	-25.7	-27.1	16.8	4.95e-04	0	44	0	2679111680	11	4235
2026-01-19 04:27:16.43	272.18	15.07	-25.7	-27.2	16.7	2.95e-04	0	44	0	2695888896	11	4259
2026-01-19 04:27:19.44	271.71	14.85	-25.5	-26.7	17.0	0.00e+00	0	44	0	2712666112	11	4122
2026-01-19 04:27:22.46	271.25	14.63	-25.6	-26.9	16.9	0.00e+00	0	44	0	2729443328	11	4192
2026-01-19 04:27:25.47	270.80	14.42	-25.7	-27.1	16.8	0.00e+00	0	44	0	2746220544	11	4241
2026-01-19 04:27:28.46	270.35	14.20	-25.8	-27.4	16.6	0.00e+00	0	44	0	2764046336	11	4329
2026-01-19 04:27:31.47	269.91	13.98	-26.1	-27.5	16.2	0.00e+00	0	44	0	2780823552	12	4232
2026-01-19 04:27:34.47	269.48	13.76	-25.9	-27.2	16.3	0.00e+00	0	44	0	2797600768	12	4157
2026-01-19 04:27:37.49	269.05	13.54	-26.0	-27.2	16.3	0.00e+00	0	44	0	2814377984	12	4169
2026-01-19 04:27:40.51	268.63	13.32	-26.0	-27.4	16.2	0.00e+00	0	44	0	2831155200	12	4213
2026-01-19 04:27:43.53	268.21	13.11	-26.0	-27.4	16.2	0.00e+00	0	44	0	2847932416	12	4213
2026-01-19 04:27:46.53	267.80	12.89	-26.1	-27.5	16.1	0.00e+00	0	44	0	2864709632	12	4227
2026-01-19 04:27:49.54	267.40	12.67	-26.2	-27.8	15.9	0.00e+00	0	44	0	2882535424	12	4324
2026-01-19 04:27:52.55	267.00	12.46	-26.3	-28.1	15.8	0.00e+00	0	44	0	2899312640	12	4398
2026-01-19 04:27:55.58	266.61	12.24	-26.3	-27.4	15.8	0.00e+00	0	44	0	2916089856	13	4115
2026-01-19 04:27:58.59	266.22	12.03	-26.4	-28.2	15.6	0.00e+00	0	44	0	2932867072	12	4448
2026-01-19 04:28:01.59	265.84	11.81	-26.4	-28.3	15.5	0.00e+00	0	44	0	2949644288	12	4462
2026-01-19 04:28:04.58	265.47	11.60	-26.5	-27.9	15.5	0.00e+00	0	44	0	2966421504	13	4248
2026-01-19 04:28:07.58	265.11	11.39	-26.4	-27.8	15.5	0.00e+00	0	44	0	2983198720	13	4214
2026-01-19 04:28:10.59	264.74	11.18	-26.7	-28.5	15.1	0.00e+00	0	44	0	2999975936	13	4399
2026-01-19 04:28:13.60	264.38	10.97	-26.6	-28.2	15.3	0.00e+00	0	44	0	3017801728	13	4326
2026-01-19 04:28:16.60	264.03	10.76	-26.8	-28.6	14.5	0.00e+00	0	44	0	3034578944	13	4443
2026-01-19 04:28:19.61	263.69	10.55	-25.9	-27.3	11.9	0.00e+00	0	44	0	3051356160	13	4231
2026-01-19 04:28:22.61	263.34	10.34	-26.9	-28.8	12.9	1.10e-06	0	44	0	3068133376	13	4504
2026-01-19 04:28:25.63	263.01	10.13	-26.9	-28.9	14.8	1.60e-05	0	44	0	3084910592	13	4518
2026-01-19 04:28:28.64	262.67	9.92	-27.0	-28.7	14.7	1.10e-06	0	44	0	3101687808	14	4346
2026-01-19 04:28:31.64	262.35	9.72	-27.1	-28.8	14.6	0.00e+00	0	44	0	3118465024	14	4373
2026-01-19 04:28:34.64	262.02	9.51	-27.0	-28.7	14.6	2.69e-03	0	44	0	3135242240	14	4353
2026-01-19 04:28:37.64	261.71	9.31	-27.2	-29.1	14.4	5.37e-04	0	44	0	3153068032	14	4467
2026-01-19 04:28:40.64	261.39	9.10	-27.0	-28.7	14.6	0.00e+00	0	44	0	3169845248	14	4353
2026-01-19 04:28:43.65	261.08	8.90	-27.1	-28.9	14.5	2.12e-03	0	44	0	3186622464	14	4404
2026-01-19 04:28:46.67	260.78	8.70	-27.1	-29.0	14.4	2.91e-03	0	44	0	3203399680	14	4438
2026-01-19 04:28:49.67	260.48	8.49	-27.2	-29.1	14.3	3.69e-03	0	44	0	3220176896	14	4483
2026-01-19 04:28:52.68	260.18	8.29	-27.2	-29.2	14.2	5.20e-03	0	44	0	3236954112	14	4508
2026-01-19 04:28:55.69	259.89	8.09	-27.5	-29.7	13.9	5.72e-03	0	44	0	3253731328	14	4661
2026-01-19 04:28:58.70	259.60	7.89	-27.5	-29.8	13.8	4.67e-03	0	45	0	3271557120	14	4677
2026-01-19 04:29:01.71	259.32	7.70	-27.7	-29.8	13.5	2.63e-05	0	44	0	3288334336	15	4577
2026-01-19 04:29:04.72	259.03	7.50	-27.8	-30.0	13.4	3.68e-03	0	44	0	3305111552	15	4626
2026-01-19 04:29:07.74	258.76	7.30	-27.8	-30.1	13.2	3.03e-03	0	44	0	3321888768	15	4690
2026-01-19 04:29:10.76	258.48	7.11	-27.7	-29.7	13.5	1.94e-05	0	44	0	3338665984	15	4561

#Closed at: 2026-01-19 04:29:13
#Recorded file [3342 MB]: D:/data/31010_260119_071916.dat