passes_logs/2026/01/19/R2M6_AANII_01/R2M6_AANII_01__20260119_002034_NOAA_20_JPSS-1_rec.log

#Pass ID: 20260119_002034_NOAA 20 (JPSS-1)
#Satellite: NOAA 20 (JPSS-1)
#Configuration: NOAA 20
#almurnet v.1.7.20240730
#Start time: 2026-01-19 00:20:35

#Version: 2.2.20231116
#Station: R2M6_AANII_01
#Location: 30.233357 lon 59.946436 lat
#TLE: 1 43013U 17073A   26017.93796159  .00000077  00000+0  57252-4 0  9992
#TLE: 2 43013  98.7639 318.8464 0001390  34.9771 325.1496 14.19536703423157

#Time	Az	El	Level	Level2	SNR	BER	BlckErr	Temp	State	Recorded	gain1	gain2
2026-01-19 00:20:35.47	18.14	7.05	-32.2	-39.3	4.8	1.33e+00	0	41	0	0	24	8143
2026-01-19 00:20:38.47	18.15	7.28	-32.5	-40.5	6.1	3.40e-01	0	42	0	1048576	24	9126
2026-01-19 00:20:41.47	18.17	7.52	-32.1	-38.5	7.7	9.65e-02	0	42	0	7340032	24	7484
2026-01-19 00:20:44.47	18.18	7.75	-32.0	-38.3	7.9	5.26e-02	0	42	0	12582912	23	7432
2026-01-19 00:20:47.49	18.19	7.99	-32.0	-38.1	7.8	8.29e-02	0	42	0	17825792	24	7223
2026-01-19 00:20:50.50	18.20	8.23	-31.9	-38.0	8.5	5.00e-02	0	42	0	24117248	23	7220
2026-01-19 00:20:53.51	18.21	8.48	-31.9	-37.7	8.8	2.89e-02	0	42	0	29360128	23	7019
2026-01-19 00:20:56.53	18.23	8.72	-31.9	-37.9	8.7	3.20e-02	0	43	0	35651584	23	7139
2026-01-19 00:20:59.53	18.24	8.97	-32.0	-37.6	8.5	4.29e-02	0	42	0	40894464	24	6868
2026-01-19 00:21:02.54	18.25	9.22	-32.0	-37.8	8.4	5.21e-02	0	42	0	46137344	24	6967
2026-01-19 00:21:05.56	18.26	9.48	-31.9	-37.5	9.1	2.63e-02	0	42	0	52428800	23	6842
2026-01-19 00:21:08.56	18.27	9.73	-31.9	-37.4	9.3	2.08e-02	0	42	0	57671680	23	6800
2026-01-19 00:21:11.58	18.29	9.99	-32.2	-38.3	8.1	6.46e-02	0	43	0	63963136	24	7270
2026-01-19 00:21:14.59	18.30	10.25	-32.2	-38.4	8.0	6.80e-02	0	43	0	69206016	24	7349
2026-01-19 00:21:17.59	18.31	10.52	-31.9	-37.7	9.0	3.00e-02	0	43	0	74448896	23	6985
2026-01-19 00:21:20.59	18.32	10.78	-32.1	-37.6	8.7	4.82e-02	0	43	0	80740352	24	6821
2026-01-19 00:21:23.61	18.33	11.05	-31.5	-35.9	10.5	7.70e-03	0	43	0	85983232	23	5986
2026-01-19 00:21:26.62	18.34	11.33	-31.4	-36.0	10.8	5.42e-03	0	43	0	91226112	22	6123
2026-01-19 00:21:29.62	18.36	11.60	-31.2	-35.2	11.4	4.10e-03	0	43	0	97517568	22	5761
2026-01-19 00:21:32.63	18.37	11.88	-31.2	-35.5	11.2	3.57e-03	0	43	0	102760448	22	5895
2026-01-19 00:21:35.64	18.38	12.17	-31.1	-34.9	11.7	3.79e-03	0	43	0	109051904	22	5627
2026-01-19 00:21:38.64	18.39	12.45	-31.1	-35.1	11.5	3.61e-03	0	43	0	114294784	22	5709
2026-01-19 00:21:41.65	18.40	12.74	-31.3	-35.6	11.2	3.66e-03	0	43	0	119537664	22	5921
2026-01-19 00:21:44.66	18.41	13.03	-31.1	-34.8	11.8	3.75e-03	0	43	0	125829120	22	5572
2026-01-19 00:21:47.66	18.43	13.33	-30.9	-35.0	12.0	3.16e-03	0	43	0	131072000	21	5761
2026-01-19 00:21:50.65	18.44	13.63	-30.9	-34.9	12.1	2.60e-03	0	43	0	136314880	21	5690
2026-01-19 00:21:53.66	18.45	13.93	-30.9	-34.8	12.2	2.13e-04	0	43	0	142606336	21	5665
2026-01-19 00:21:56.67	18.46	14.24	-30.8	-34.6	12.4	1.84e-04	0	43	0	147849216	21	5567
2026-01-19 00:21:59.69	18.47	14.55	-30.8	-34.6	12.4	2.83e-03	0	44	0	154140672	21	5560
2026-01-19 00:22:02.69	18.48	14.87	-30.8	-34.5	12.5	2.95e-03	0	43	0	159383552	21	5500
2026-01-19 00:22:05.68	18.49	15.18	-30.7	-34.2	12.7	2.98e-03	0	43	0	164626432	21	5401
2026-01-19 00:22:08.68	18.51	15.51	-30.7	-34.3	12.7	2.72e-03	0	43	0	170917888	21	5422
2026-01-19 00:22:11.70	18.52	15.84	-30.8	-34.4	12.6	1.20e-04	0	44	0	176160768	21	5461
2026-01-19 00:22:14.71	18.53	16.17	-30.5	-33.7	13.1	2.13e-05	0	43	0	181403648	21	5193
2026-01-19 00:22:17.72	18.54	16.51	-30.5	-33.7	13.1	2.51e-05	0	43	0	187695104	21	5191
2026-01-19 00:22:20.73	18.55	16.85	-30.6	-33.8	13.1	3.12e-05	0	43	0	192937984	21	5222
2026-01-19 00:22:23.74	18.56	17.20	-30.5	-33.5	13.3	1.44e-05	0	44	0	199229440	21	5104
2026-01-19 00:22:26.75	18.57	17.55	-30.6	-33.9	13.0	2.63e-03	0	44	0	204472320	21	5254
2026-01-19 00:22:29.77	18.59	17.91	-30.4	-33.3	13.5	1.06e-05	0	44	0	209715200	21	5007
2026-01-19 00:22:32.77	18.60	18.27	-30.4	-33.7	13.6	6.10e-06	0	43	0	216006656	20	5281
2026-01-19 00:22:35.78	18.61	18.64	-30.3	-33.5	13.7	5.30e-06	0	44	0	221249536	20	5178
2026-01-19 00:22:38.79	18.62	19.01	-30.4	-33.9	13.5	7.60e-06	0	44	0	226492416	20	5337
2026-01-19 00:22:41.79	18.63	19.39	-30.4	-33.8	13.5	1.22e-05	0	44	0	232783872	20	5300
2026-01-19 00:22:44.79	18.64	19.77	-30.6	-33.7	13.3	1.37e-05	0	44	0	238026752	21	5160
2026-01-19 00:22:47.81	18.65	20.17	-30.4	-33.7	13.6	5.30e-06	0	44	0	244318208	20	5277
2026-01-19 00:22:50.82	18.66	20.57	-30.3	-33.3	13.8	6.10e-06	0	44	0	249561088	20	5125
2026-01-19 00:22:53.83	18.67	20.97	-30.3	-33.3	14.0	3.00e-06	0	44	0	254803968	20	5117
2026-01-19 00:22:56.82	18.68	21.38	-30.1	-33.0	14.2	2.20e-06	0	44	0	261095424	20	4989
2026-01-19 00:22:59.82	18.70	21.79	-30.1	-32.8	14.1	2.20e-06	0	44	0	266338304	20	4923
2026-01-19 00:23:02.82	18.71	22.22	-30.2	-33.0	14.2	7.00e-07	0	44	0	271581184	20	4994
2026-01-19 00:23:05.82	18.72	22.65	-30.3	-33.5	13.9	2.20e-06	0	44	0	277872640	20	5162
2026-01-19 00:23:08.83	18.73	23.09	-30.5	-33.9	13.7	2.91e-04	0	44	0	283115520	20	5315
2026-01-19 00:23:11.85	18.74	23.54	-30.5	-33.5	13.5	3.36e-04	0	44	0	289406976	21	5073
2026-01-19 00:23:14.85	18.75	23.99	-30.8	-34.1	13.2	6.80e-06	0	44	0	294649856	21	5307
2026-01-19 00:23:17.86	18.76	24.45	-30.6	-33.7	13.5	6.80e-06	0	44	0	299892736	21	5112
2026-01-19 00:23:20.87	18.77	24.92	-30.6	-33.7	13.5	1.83e-05	0	44	0	306184192	21	5145
2026-01-19 00:23:23.88	18.78	25.40	-30.6	-33.5	13.6	9.10e-06	0	44	0	311427072	21	5070
2026-01-19 00:23:26.89	18.79	25.89	-30.6	-33.7	13.5	6.17e-05	0	44	0	317718528	21	5133
2026-01-19 00:23:29.90	18.80	26.39	-30.8	-34.2	13.2	1.82e-04	0	44	0	322961408	21	5310
2026-01-19 00:23:32.91	18.81	26.90	-31.1	-34.5	12.8	2.33e-04	0	44	0	328204288	22	5312
2026-01-19 00:23:35.93	18.82	27.41	-31.4	-35.3	12.3	2.78e-04	0	44	0	334495744	22	5634
2026-01-19 00:23:38.94	18.83	27.94	-31.6	-35.6	11.7	8.12e-04	0	44	0	339738624	23	5663
2026-01-19 00:23:41.96	18.84	28.48	-31.8	-36.1	11.3	1.20e-03	0	44	0	344981504	23	5876
2026-01-19 00:23:44.97	18.85	29.03	-32.0	-36.2	10.9	1.84e-03	0	44	0	351272960	24	5849
2026-01-19 00:23:47.99	18.86	29.59	-32.1	-36.5	10.7	2.65e-03	0	44	0	356515840	24	5961
2026-01-19 00:23:50.99	18.87	30.16	-32.2	-36.9	10.4	3.51e-03	0	44	0	362807296	24	6195
2026-01-19 00:23:54.00	18.88	30.74	-32.2	-36.9	10.4	5.19e-03	0	44	0	368050176	24	6174
2026-01-19 00:23:57.01	18.89	31.33	-32.1	-36.6	10.7	3.81e-03	0	44	0	373293056	24	5984
2026-01-19 00:24:00.02	18.90	31.94	-32.1	-36.4	10.8	2.70e-03	0	44	0	379584512	24	5897
2026-01-19 00:24:03.02	18.91	32.56	-32.1	-36.3	10.9	2.28e-03	0	44	0	384827392	24	5892
2026-01-19 00:24:06.03	18.92	33.19	-31.9	-36.2	11.3	1.17e-03	0	44	0	391118848	23	5936
2026-01-19 00:24:09.05	18.93	33.83	-31.4	-34.8	12.4	1.96e-04	0	44	0	396361728	23	5306
2026-01-19 00:24:12.06	18.94	34.49	-31.3	-34.8	12.7	9.00e-05	0	44	0	401604608	22	5430
2026-01-19 00:24:15.06	18.95	35.16	-31.1	-34.4	13.0	9.68e-05	0	44	0	407896064	22	5264
2026-01-19 00:24:18.07	18.96	35.85	-30.9	-34.3	13.4	1.90e-05	0	44	0	413138944	21	5317
2026-01-19 00:24:21.08	18.97	36.56	-30.5	-33.3	14.0	2.82e-05	0	44	0	418381824	21	4956
2026-01-19 00:24:24.09	18.98	37.27	-30.4	-33.6	14.2	7.00e-07	0	44	0	424673280	20	5167
2026-01-19 00:24:27.10	18.99	38.01	-30.2	-32.9	14.6	7.00e-07	0	44	0	429916160	20	4940
2026-01-19 00:24:30.10	19.00	38.76	-29.9	-32.3	15.0	7.00e-07	0	44	0	436207616	20	4719
2026-01-19 00:24:33.10	19.01	39.52	-29.8	-31.9	15.2	0.00e+00	0	44	0	441450496	20	4592
2026-01-19 00:24:36.10	19.01	40.31	-29.8	-32.4	15.3	7.00e-07	0	44	0	446693376	19	4851
2026-01-19 00:24:39.11	19.02	41.11	-29.5	-31.8	15.7	2.13e-05	0	44	0	452984832	19	4657
2026-01-19 00:24:42.11	19.03	41.93	-29.9	-32.7	15.2	0.00e+00	0	44	0	458227712	19	4950
2026-01-19 00:24:45.13	19.04	42.77	-30.4	-33.3	13.5	0.00e+00	0	44	0	463470592	20	5078
2026-01-19 00:24:48.14	19.05	43.63	-30.8	-34.1	13.5	4.50e-06	0	44	0	469762048	21	5251
2026-01-19 00:24:51.14	19.06	44.51	-31.4	-35.3	12.5	9.91e-05	0	44	0	475004928	22	5615
2026-01-19 00:24:54.15	19.06	45.41	-31.8	-35.7	11.9	3.07e-04	0	44	0	481296384	23	5687
2026-01-19 00:24:57.16	19.07	46.33	-32.0	-36.4	11.4	2.13e-03	0	44	0	486539264	23	6003
2026-01-19 00:25:00.17	19.08	47.27	-32.2	-36.7	10.8	3.33e-03	0	44	0	491782144	24	6037
2026-01-19 00:25:03.18	19.08	48.23	-31.8	-35.8	11.8	3.65e-04	0	44	0	498073600	23	5699
2026-01-19 00:25:06.18	19.09	49.21	-32.0	-35.9	11.4	9.70e-04	0	44	0	503316480	24	5662
2026-01-19 00:25:09.18	19.10	50.22	-31.8	-35.9	11.8	1.07e-03	0	44	0	508559360	23	5764
2026-01-19 00:25:12.19	19.10	51.25	-30.4	-32.4	14.4	7.00e-07	0	44	0	514850816	22	4539
2026-01-19 00:25:15.20	19.11	52.30	-29.8	-32.3	15.4	6.70e-04	0	44	0	520093696	19	4810
2026-01-19 00:25:18.22	19.11	53.38	-29.3	-31.6	16.2	3.92e-04	0	44	0	526385152	18	4693
2026-01-19 00:25:21.22	19.12	54.48	-29.4	-31.9	16.0	4.16e-04	0	44	0	531628032	18	4797
2026-01-19 00:25:24.23	19.12	55.60	-30.1	-32.7	14.8	4.16e-04	0	44	0	536870912	20	4852
2026-01-19 00:25:27.23	19.12	56.74	-30.4	-33.6	14.3	3.31e-04	0	44	0	543162368	20	5164
2026-01-19 00:25:30.24	19.13	57.91	-30.7	-33.8	13.8	1.50e-06	0	44	0	548405248	21	5116
2026-01-19 00:25:33.24	19.13	59.11	-30.5	-33.3	14.2	3.00e-06	0	44	0	553648128	21	4928
2026-01-19 00:25:36.25	19.13	60.33	-30.0	-32.5	15.0	7.17e-05	0	44	0	559939584	20	4773
2026-01-19 00:25:39.26	19.13	61.57	-28.9	-30.7	16.7	2.79e-04	0	44	0	565182464	18	4441
2026-01-19 00:25:42.26	19.13	62.83	-28.6	-30.4	17.1	2.62e-04	0	44	0	571473920	17	4461
2026-01-19 00:25:45.26	19.12	64.12	-28.7	-30.8	16.9	3.67e-04	0	44	0	576716800	17	4572
2026-01-19 00:25:48.26	19.12	65.43	-30.3	-33.2	14.5	5.41e-04	0	44	0	581959680	20	5035
2026-01-19 00:25:51.28	19.11	66.77	-31.1	-34.3	13.2	2.36e-05	0	44	0	588251136	22	5199
2026-01-19 00:25:54.29	19.10	68.13	-31.2	-34.7	12.9	1.38e-03	0	44	0	593494016	22	5360
2026-01-19 00:25:57.29	19.09	69.50	-31.1	-34.3	13.2	1.19e-03	0	44	0	598736896	22	5208
2026-01-19 00:26:00.30	19.08	70.90	-30.8	-34.0	13.7	1.55e-03	0	44	0	605028352	21	5211
2026-01-19 00:26:03.31	19.06	72.32	-31.8	-35.9	11.7	1.88e-03	0	44	0	610271232	23	5775
2026-01-19 00:26:06.32	19.03	73.76	-32.2	-36.7	10.8	2.34e-03	0	44	0	616562688	24	6048
2026-01-19 00:26:09.34	19.00	75.23	-31.9	-35.7	11.6	8.42e-04	0	44	0	621805568	24	5566
2026-01-19 00:26:12.35	18.95	76.70	-31.6	-35.1	12.4	1.94e-04	0	44	0	627048448	23	5400
2026-01-19 00:26:15.36	18.89	78.19	-31.9	-35.6	11.7	1.06e-03	0	44	0	633339904	24	5502
2026-01-19 00:26:18.37	18.82	79.69	-29.9	-32.2	15.2	0.00e+00	0	44	0	638582784	20	4672
2026-01-19 00:26:21.37	18.71	81.20	-31.3	-34.7	13.0	9.80e-04	0	44	0	644874240	22	5343
2026-01-19 00:26:24.38	18.55	82.72	-32.5	-36.9	10.4	7.68e-03	0	44	0	650117120	25	5998
2026-01-19 00:26:27.39	18.29	84.25	-30.6	-32.9	14.2	1.29e-05	0	44	0	655360000	22	4703
2026-01-19 00:26:30.40	17.84	85.79	-31.5	-34.9	12.6	7.62e-05	0	44	0	661651456	23	5319
2026-01-19 00:26:33.40	16.87	87.33	-31.9	-35.5	11.8	9.39e-04	0	44	0	666894336	24	5473
2026-01-19 00:26:36.41	13.16	88.88	-31.0	-34.4	13.7	4.50e-06	0	44	0	672137216	21	5344
2026-01-19 00:26:39.41	215.88	89.55	-30.4	-33.3	14.7	0.00e+00	0	44	0	678428672	20	5044
2026-01-19 00:26:42.43	203.21	88.01	-30.4	-32.4	14.4	7.60e-06	0	44	0	683671552	22	4551
2026-01-19 00:26:45.43	201.64	86.47	-30.5	-33.6	13.3	1.14e-05	0	44	0	689963008	20	5182
2026-01-19 00:26:48.44	201.03	84.93	-29.3	-31.5	15.4	0.00e+00	0	44	0	695205888	18	4687
2026-01-19 00:26:51.44	200.71	83.40	-30.6	-33.5	13.9	0.00e+00	0	44	0	700448768	21	5035
2026-01-19 00:26:54.45	200.52	81.87	-31.6	-35.4	12.1	5.58e-04	0	44	0	706740224	23	5555
2026-01-19 00:26:57.47	200.39	80.34	-29.8	-31.9	15.3	0.00e+00	0	44	0	711983104	20	4587
2026-01-19 00:27:00.48	200.30	78.83	-30.8	-33.9	13.6	3.00e-06	0	44	0	717225984	21	5175
2026-01-19 00:27:03.49	200.23	77.34	-31.7	-35.6	11.9	1.21e-03	0	44	0	723517440	23	5637
2026-01-19 00:27:06.49	200.18	75.86	-31.9	-36.2	11.4	1.34e-03	0	44	0	728760320	23	5933
2026-01-19 00:27:09.49	200.14	74.40	-32.4	-37.4	10.2	7.39e-03	0	44	0	735051776	24	6406
2026-01-19 00:27:12.49	200.11	72.95	-32.0	-36.0	11.2	3.00e-03	0	44	0	740294656	24	5711
2026-01-19 00:27:15.49	200.09	71.53	-30.5	-32.9	14.0	9.90e-06	0	44	0	745537536	22	4704
2026-01-19 00:27:18.49	200.07	70.12	-32.4	-37.6	10.1	3.41e-03	0	44	0	751828992	24	6500
2026-01-19 00:27:21.49	200.06	68.73	-32.1	-36.5	10.8	2.08e-03	0	44	0	757071872	24	5945
2026-01-19 00:27:24.51	200.05	67.36	-32.3	-36.7	10.3	1.66e-02	0	44	0	762314752	25	5952
2026-01-19 00:27:27.52	200.04	66.01	-32.0	-36.2	11.1	2.24e-03	0	44	0	768606208	24	5852
2026-01-19 00:27:30.53	200.03	64.68	-29.8	-32.0	15.1	1.37e-03	0	44	0	773849088	20	4638
2026-01-19 00:27:33.53	200.03	63.38	-29.3	-31.6	16.1	1.62e-03	0	44	0	780140544	18	4710
2026-01-19 00:27:36.54	200.03	62.10	-28.9	-31.2	16.6	0.00e+00	0	44	0	785383424	17	4697
2026-01-19 00:27:39.55	200.03	60.84	-31.0	-34.7	13.2	1.60e-03	0	44	0	790626304	21	5485
2026-01-19 00:27:42.55	200.03	59.61	-31.5	-35.1	12.2	2.32e-03	0	44	0	796917760	23	5432
2026-01-19 00:27:45.56	200.03	58.40	-31.9	-36.2	11.4	2.19e-03	0	44	0	802160640	23	5909
2026-01-19 00:27:48.57	200.03	57.22	-31.8	-35.5	11.5	4.15e-03	0	44	0	807403520	24	5516
2026-01-19 00:27:51.57	200.03	56.06	-30.8	-34.2	13.5	1.67e-03	0	44	0	813694976	21	5285
2026-01-19 00:27:54.58	200.03	54.92	-30.4	-33.6	14.2	7.00e-07	0	44	0	818937856	20	5200
2026-01-19 00:27:57.59	200.04	53.81	-30.2	-33.0	14.5	0.00e+00	0	44	0	825229312	20	4966
2026-01-19 00:28:00.59	200.04	52.72	-29.6	-31.9	15.6	0.00e+00	0	44	0	830472192	19	4686
2026-01-19 00:28:03.59	200.05	51.66	-30.8	-34.2	13.4	1.73e-03	0	44	0	835715072	21	5314
2026-01-19 00:28:06.61	200.05	50.61	-31.4	-35.4	12.3	1.53e-03	0	44	0	842006528	22	5691
2026-01-19 00:28:09.62	200.06	49.59	-32.1	-36.4	10.8	2.07e-03	0	44	0	847249408	24	5915
2026-01-19 00:28:12.62	200.06	48.60	-32.9	-39.0	8.5	4.36e-02	0	44	0	852492288	25	7286
2026-01-19 00:28:15.63	200.07	47.62	-31.0	-33.5	13.2	6.86e-05	0	44	0	858783744	23	4835
2026-01-19 00:28:18.63	200.07	46.67	-31.3	-35.1	12.5	6.79e-05	0	44	0	864026624	22	5539
2026-01-19 00:28:21.64	200.08	45.74	-32.4	-37.6	9.9	7.40e-03	0	44	0	870318080	24	6553
2026-01-19 00:28:24.65	200.09	44.83	-32.2	-37.0	10.3	5.95e-03	0	44	0	875560960	24	6218
2026-01-19 00:28:27.66	200.09	43.94	-30.5	-32.9	13.9	1.90e-05	0	44	0	880803840	22	4718
2026-01-19 00:28:30.65	200.10	43.07	-30.7	-33.9	13.5	2.20e-06	0	44	0	887095296	21	5212
2026-01-19 00:28:33.66	200.11	42.22	-31.9	-36.5	11.0	7.71e-04	0	44	0	892338176	23	6093
2026-01-19 00:28:36.66	200.11	41.39	-32.1	-36.4	10.7	4.87e-03	0	44	0	897581056	24	5966
2026-01-19 00:28:39.67	200.12	40.57	-31.3	-34.5	12.4	2.65e-04	0	44	0	903872512	23	5214
2026-01-19 00:28:42.67	200.13	39.78	-31.4	-35.2	12.3	1.89e-04	0	44	0	909115392	22	5602
2026-01-19 00:28:45.68	200.14	39.00	-32.2	-36.9	10.3	4.29e-03	0	44	0	915406848	24	6200
2026-01-19 00:28:48.69	200.14	38.24	-32.8	-38.7	8.5	4.33e-02	0	44	0	920649728	25	7115
2026-01-19 00:28:51.69	200.15	37.50	-32.5	-37.7	9.2	2.63e-02	0	44	0	925892608	25	6553
2026-01-19 00:28:54.70	200.16	36.77	-31.9	-36.0	10.9	3.40e-03	0	44	0	932184064	24	5770
2026-01-19 00:28:57.72	200.17	36.06	-31.9	-36.3	11.1	1.33e-03	0	44	0	937426944	23	5999
2026-01-19 00:29:00.72	200.18	35.36	-32.3	-37.2	10.1	7.73e-03	0	44	0	942669824	24	6349
2026-01-19 00:29:03.73	200.18	34.68	-32.8	-38.9	8.4	3.53e-02	0	44	0	948961280	25	7249
2026-01-19 00:29:06.74	200.19	34.01	-33.0	-39.5	7.5	1.14e-01	0	44	0	954204160	26	7601
2026-01-19 00:29:09.75	200.20	33.36	-33.0	-39.5	7.5	9.84e-02	0	44	0	960495616	26	7557
2026-01-19 00:29:12.75	200.21	32.72	-32.7	-38.7	8.5	4.50e-02	0	44	0	965738496	25	7138
2026-01-19 00:29:15.77	200.22	32.09	-31.8	-35.8	11.0	2.55e-03	0	44	0	970981376	24	5687
2026-01-19 00:29:18.77	200.23	31.48	-31.6	-35.7	11.4	1.01e-03	0	44	0	977272832	23	5723
2026-01-19 00:29:21.78	200.24	30.88	-32.0	-36.8	10.7	3.16e-03	0	44	0	982515712	23	6255
2026-01-19 00:29:24.79	200.24	30.29	-32.3	-37.6	9.7	1.13e-02	0	44	0	987758592	24	6590
2026-01-19 00:29:27.81	200.25	29.71	-32.5	-38.1	9.2	2.14e-02	0	44	0	994050048	24	6938
2026-01-19 00:29:30.81	200.26	29.15	-32.1	-37.0	10.0	9.57e-03	0	44	0	999292928	24	6313
2026-01-19 00:29:33.82	200.27	28.60	-31.8	-36.3	10.9	3.05e-03	0	44	0	1005584384	23	6061
2026-01-19 00:29:36.83	200.28	28.05	-31.2	-35.1	12.1	3.58e-04	0	44	0	1010827264	22	5602
2026-01-19 00:29:39.83	200.29	27.52	-30.6	-33.9	13.2	3.50e-05	0	44	0	1016070144	21	5258
2026-01-19 00:29:42.84	200.30	27.00	-30.4	-33.7	13.7	8.30e-06	0	44	0	1022361600	20	5298
2026-01-19 00:29:45.86	200.30	26.48	-30.4	-33.8	13.6	5.26e-04	0	44	0	1027604480	20	5325
2026-01-19 00:29:48.88	200.31	25.98	-30.5	-34.0	13.4	5.49e-04	0	44	0	1033895936	20	5432
2026-01-19 00:29:51.88	200.32	25.49	-30.6	-33.9	13.2	1.73e-04	0	44	0	1039138816	21	5241
2026-01-19 00:29:54.89	200.33	25.00	-30.5	-33.7	13.2	2.08e-04	0	44	0	1044381696	21	5201
2026-01-19 00:29:57.90	200.34	24.52	-30.4	-33.8	13.5	2.46e-04	0	44	0	1050673152	20	5332
2026-01-19 00:30:00.91	200.35	24.06	-30.3	-33.6	13.6	2.34e-04	0	44	0	1055916032	20	5251
2026-01-19 00:30:03.92	200.36	23.60	-30.3	-33.5	13.7	5.30e-06	0	44	0	1061158912	20	5197
2026-01-19 00:30:06.93	200.37	23.14	-30.2	-33.2	13.9	1.50e-06	0	44	0	1067450368	20	5105
2026-01-19 00:30:09.94	200.38	22.70	-30.2	-33.3	13.8	2.20e-06	0	44	0	1072693248	20	5118
2026-01-19 00:30:12.94	200.39	22.27	-30.2	-33.3	13.8	3.24e-04	0	44	0	1078984704	20	5152
2026-01-19 00:30:15.96	200.39	21.84	-30.7	-34.0	13.0	3.58e-04	0	44	0	1084227584	21	5312
2026-01-19 00:30:18.98	200.40	21.41	-30.7	-34.0	12.9	3.73e-04	0	44	0	1089470464	21	5310
2026-01-19 00:30:21.98	200.41	21.00	-30.7	-34.1	12.8	5.26e-05	0	44	0	1095761920	21	5354
2026-01-19 00:30:24.99	200.42	20.59	-31.0	-35.0	12.3	1.34e-04	0	44	0	1101004800	21	5717
2026-01-19 00:30:28.00	200.43	20.19	-31.2	-35.3	11.7	3.73e-04	0	44	0	1107296256	22	5731
2026-01-19 00:30:31.01	200.44	19.79	-31.5	-36.0	11.2	1.14e-03	0	44	0	1112539136	22	6077
2026-01-19 00:30:34.02	200.45	19.40	-31.3	-35.5	11.5	9.27e-04	0	44	0	1117782016	22	5849
2026-01-19 00:30:37.02	200.46	19.02	-31.6	-35.9	10.9	2.18e-03	0	44	0	1124073472	23	5910
2026-01-19 00:30:40.03	200.47	18.65	-31.1	-35.0	11.8	6.65e-04	0	44	0	1129316352	22	5634
2026-01-19 00:30:43.04	200.48	18.27	-31.2	-35.2	11.7	9.77e-04	0	44	0	1134559232	22	5706
2026-01-19 00:30:46.04	200.49	17.91	-31.3	-35.6	11.4	9.46e-04	0	44	0	1140850688	22	5873
2026-01-19 00:30:49.05	200.49	17.55	-31.3	-35.8	10.9	1.39e-03	0	44	0	1146093568	22	6072
2026-01-19 00:30:52.06	200.50	17.19	-31.1	-35.0	11.4	5.43e-04	0	44	0	1152385024	22	5608
2026-01-19 00:30:55.07	200.51	16.84	-30.9	-35.0	12.0	3.53e-04	0	44	0	1157627904	21	5743
2026-01-19 00:30:58.06	200.52	16.50	-31.1	-34.9	11.8	4.21e-04	0	44	0	1162870784	22	5594
2026-01-19 00:31:01.07	200.53	16.16	-31.0	-34.8	11.8	2.89e-03	0	44	0	1169162240	22	5554
2026-01-19 00:31:04.07	200.54	15.82	-31.0	-34.7	11.8	4.54e-04	0	44	0	1174405120	22	5530
2026-01-19 00:31:07.09	200.55	15.49	-31.1	-35.0	11.7	5.29e-04	0	44	0	1179648000	22	5645
2026-01-19 00:31:10.09	200.56	15.17	-31.1	-35.1	11.6	6.23e-04	0	44	0	1185939456	22	5701
2026-01-19 00:31:13.10	200.57	14.84	-31.1	-35.2	11.5	7.26e-04	0	44	0	1191182336	22	5739
2026-01-19 00:31:16.10	200.58	14.53	-31.1	-35.0	11.6	6.81e-04	0	44	0	1197473792	22	5667
2026-01-19 00:31:19.11	200.59	14.21	-31.0	-35.2	11.8	2.96e-03	0	44	0	1202716672	21	5848
2026-01-19 00:31:22.12	200.60	13.90	-30.9	-35.0	11.8	2.81e-03	0	44	0	1207959552	21	5795
2026-01-19 00:31:25.13	200.60	13.59	-30.9	-35.1	11.8	2.62e-03	0	44	0	1214251008	21	5816
2026-01-19 00:31:28.13	200.61	13.29	-30.9	-35.1	11.7	3.00e-03	0	44	0	1219493888	21	5846
2026-01-19 00:31:31.15	200.62	12.99	-31.2	-35.4	11.1	1.20e-03	0	44	0	1224736768	22	5876
2026-01-19 00:31:34.14	200.63	12.70	-31.3	-35.9	10.8	3.31e-03	0	44	0	1231028224	22	6120
2026-01-19 00:31:37.15	200.64	12.41	-31.3	-35.8	10.8	5.25e-03	0	44	0	1236271104	22	6065
2026-01-19 00:31:40.16	200.65	12.12	-31.3	-35.8	10.8	4.78e-03	0	44	0	1242562560	22	6047
2026-01-19 00:31:43.18	200.66	11.83	-31.4	-36.3	10.4	6.17e-03	0	44	0	1247805440	22	6317
2026-01-19 00:31:46.19	200.67	11.55	-31.6	-36.5	9.9	9.47e-03	0	44	0	1253048320	23	6322
2026-01-19 00:31:49.20	200.68	11.27	-31.8	-37.2	9.3	1.92e-02	0	44	0	1259339776	23	6684
2026-01-19 00:31:52.19	200.69	11.00	-31.7	-36.9	9.5	1.61e-02	0	44	0	1264582656	23	6567
2026-01-19 00:31:55.20	200.70	10.73	-31.8	-37.3	9.2	2.48e-02	0	44	0	1269825536	23	6774
2026-01-19 00:31:58.22	200.71	10.46	-31.6	-36.6	9.7	1.57e-02	0	44	0	1276116992	23	6386
2026-01-19 00:32:01.23	200.71	10.19	-31.4	-36.5	10.1	8.39e-03	0	44	0	1281359872	22	6454
2026-01-19 00:32:04.23	200.72	9.93	-31.4	-36.6	10.0	9.60e-03	0	44	0	1287651328	22	6494
2026-01-19 00:32:07.24	200.73	9.67	-31.6	-36.5	9.7	1.19e-02	0	44	0	1292894208	23	6353
2026-01-19 00:32:10.24	200.74	9.41	-31.5	-36.5	9.7	1.26e-02	0	44	0	1298137088	23	6354
2026-01-19 00:32:13.26	200.75	9.16	-31.6	-36.9	9.3	1.92e-02	0	44	0	1304428544	23	6598
2026-01-19 00:32:16.27	200.76	8.90	-31.8	-37.5	8.8	3.50e-02	0	44	0	1309671424	23	6977
2026-01-19 00:32:19.28	200.77	8.65	-31.7	-37.0	9.2	2.06e-02	0	44	0	1315962880	23	6641
2026-01-19 00:32:22.29	200.78	8.41	-31.7	-37.2	9.0	2.65e-02	0	44	0	1321205760	23	6785
2026-01-19 00:32:25.29	200.79	8.16	-31.4	-36.7	9.7	1.53e-02	0	44	0	1326448640	22	6602
2026-01-19 00:32:28.30	200.80	7.92	-31.5	-36.9	9.5	1.47e-02	0	44	0	1332740096	22	6726
2026-01-19 00:32:31.31	200.80	7.68	-31.3	-36.2	10.1	7.06e-03	0	44	0	1337982976	22	6339
2026-01-19 00:32:34.33	200.81	7.44	-31.3	-36.4	9.9	8.46e-03	0	44	0	1343225856	22	6454
2026-01-19 00:32:37.34	200.82	7.20	-31.3	-36.6	9.7	1.08e-02	0	44	0	1349517312	22	6558

#Closed at: 2026-01-19 00:32:40
#Recorded file [1351 MB]: D:/data/31010_260119_032037.dat