passes_logs/2026/01/19/R2M6_AANII_01/R2M6_AANII_01__20260119_011040_NOAA_21_JPSS-2_rec.log

#Pass ID: 20260119_011040_NOAA 21 (JPSS-2)
#Satellite: NOAA 21 (JPSS-2)
#Configuration: NOAA 21
#almurnet v.1.7.20240730
#Start time: 2026-01-19 01:10:42

#Version: 2.2.20231116
#Station: R2M6_AANII_01
#Location: 30.233357 lon 59.946436 lat
#TLE: 1 54234U 22150A   26017.90260625  .00000050  00000+0  44518-4 0  9994
#TLE: 2 54234  98.7502 318.7672 0000612 269.1755  90.9351 14.19535344165221

#Time	Az	El	Level	Level2	SNR	BER	BlckErr	Temp	State	Recorded	gain1	gain2
2026-01-19 01:10:42.04	14.20	7.11	-31.2	-36.2	4.6	1.40e+00	0	44	0	0	22	6401
2026-01-19 01:10:45.04	14.08	7.33	-31.6	-36.2	7.7	8.37e-02	0	43	0	3145728	23	6144
2026-01-19 01:10:48.05	13.95	7.56	-31.8	-37.1	7.1	1.21e-01	0	44	0	12582912	23	6631
2026-01-19 01:10:51.06	13.83	7.79	-31.0	-34.5	9.4	1.99e-02	0	44	0	22020096	22	5436
2026-01-19 01:10:54.07	13.70	8.02	-30.1	-33.1	11.1	6.31e-03	0	44	0	30408704	20	5075
2026-01-19 01:10:57.08	13.57	8.26	-29.8	-32.8	11.7	5.71e-04	0	44	0	39845888	19	5079
2026-01-19 01:11:00.09	13.43	8.49	-29.3	-32.0	12.6	1.43e-04	0	44	0	49283072	18	4906
2026-01-19 01:11:03.09	13.30	8.73	-29.4	-32.2	12.5	1.52e-04	0	44	0	58720256	18	4965
2026-01-19 01:11:06.08	13.16	8.96	-29.2	-31.5	13.0	2.51e-05	0	44	0	68157440	18	4723
2026-01-19 01:11:09.10	13.02	9.21	-29.2	-31.6	12.9	4.11e-05	0	44	0	77594624	18	4759
2026-01-19 01:11:12.11	12.88	9.45	-29.0	-31.2	13.2	2.05e-05	0	44	0	87031808	18	4614
2026-01-19 01:11:15.12	12.73	9.70	-29.0	-31.2	13.2	1.75e-05	0	44	0	96468992	18	4622
2026-01-19 01:11:18.13	12.58	9.94	-29.1	-31.3	13.2	1.98e-05	0	44	0	105906176	18	4647
2026-01-19 01:11:21.14	12.43	10.19	-29.0	-31.2	13.3	1.29e-05	0	44	0	115343360	18	4602
2026-01-19 01:11:24.15	12.27	10.45	-28.9	-31.3	13.5	1.22e-05	0	44	0	124780544	17	4771
2026-01-19 01:11:27.15	12.12	10.70	-28.8	-31.1	13.6	1.14e-05	0	44	0	134217728	17	4698
2026-01-19 01:11:30.15	11.96	10.96	-28.7	-30.8	13.8	3.00e-06	0	44	0	143654912	17	4607
2026-01-19 01:11:33.16	11.79	11.22	-28.7	-30.7	13.9	1.50e-06	0	44	0	153092096	17	4580
2026-01-19 01:11:36.18	11.63	11.48	-28.5	-30.4	14.1	7.00e-07	0	44	0	162529280	17	4474
2026-01-19 01:11:39.19	11.46	11.75	-28.4	-30.2	14.3	0.00e+00	0	44	0	171966464	17	4405
2026-01-19 01:11:42.20	11.28	12.01	-28.3	-30.5	14.4	0.00e+00	0	44	0	181403648	16	4619
2026-01-19 01:11:45.20	11.11	12.28	-28.4	-30.6	14.4	7.00e-07	0	44	0	190840832	16	4633
2026-01-19 01:11:48.21	10.93	12.56	-28.2	-30.3	14.6	0.00e+00	0	44	0	200278016	16	4545
2026-01-19 01:11:51.22	10.74	12.83	-28.1	-29.9	14.8	0.00e+00	0	44	0	209715200	16	4440
2026-01-19 01:11:54.23	10.56	13.11	-28.2	-30.2	14.6	0.00e+00	0	44	0	219152384	16	4533
2026-01-19 01:11:57.24	10.36	13.39	-28.0	-29.8	14.8	0.00e+00	0	44	0	228589568	16	4406
2026-01-19 01:12:00.24	10.17	13.68	-28.0	-30.1	14.8	7.00e-07	0	44	0	238026752	15	4622
2026-01-19 01:12:03.25	9.97	13.97	-28.2	-30.2	14.6	0.00e+00	0	44	0	247463936	16	4522
2026-01-19 01:12:06.25	9.77	14.26	-28.2	-30.2	14.7	3.86e-04	0	44	0	256901120	16	4526
2026-01-19 01:12:09.26	9.56	14.55	-28.3	-30.3	14.6	7.00e-07	0	44	0	266338304	16	4548
2026-01-19 01:12:12.27	9.35	14.85	-28.2	-30.2	14.7	3.97e-04	0	44	0	275775488	16	4517
2026-01-19 01:12:15.28	9.13	15.15	-28.2	-30.2	14.7	0.00e+00	0	44	0	284164096	16	4505
2026-01-19 01:12:18.29	8.91	15.45	-28.3	-30.3	14.7	0.00e+00	0	44	0	293601280	16	4535
2026-01-19 01:12:21.28	8.69	15.75	-28.2	-30.2	14.7	3.26e-04	0	44	0	303038464	16	4512
2026-01-19 01:12:24.29	8.45	16.07	-28.3	-30.4	14.6	2.85e-04	0	44	0	312475648	16	4568
2026-01-19 01:12:27.31	8.22	16.38	-28.3	-30.4	14.6	3.17e-04	0	44	0	321912832	16	4578
2026-01-19 01:12:30.30	7.98	16.70	-28.4	-30.6	14.6	3.03e-04	0	44	0	331350016	16	4628
2026-01-19 01:12:33.31	7.73	17.02	-28.4	-30.6	14.6	3.31e-04	0	44	0	340787200	16	4624
2026-01-19 01:12:36.32	7.48	17.34	-28.7	-30.9	14.2	3.70e-04	0	44	0	350224384	17	4600
2026-01-19 01:12:39.32	7.22	17.67	-28.5	-30.3	14.5	3.55e-04	0	44	0	359661568	17	4431
2026-01-19 01:12:42.32	6.96	18.00	-28.6	-30.6	14.4	3.36e-04	0	44	0	369098752	17	4501
2026-01-19 01:12:45.32	6.69	18.33	-28.6	-30.5	14.4	7.00e-07	0	44	0	378535936	17	4485
2026-01-19 01:12:48.34	6.41	18.68	-28.4	-30.6	14.7	2.33e-04	0	44	0	387973120	16	4612
2026-01-19 01:12:51.35	6.13	19.02	-28.4	-30.5	14.7	0.00e+00	0	44	0	397410304	16	4603
2026-01-19 01:12:54.36	5.84	19.37	-28.2	-30.1	15.0	0.00e+00	0	44	0	406847488	16	4471
2026-01-19 01:12:57.37	5.54	19.72	-28.2	-30.1	15.0	0.00e+00	0	44	0	416284672	16	4462
2026-01-19 01:13:00.38	5.24	20.08	-28.1	-29.9	15.2	0.00e+00	0	44	0	425721856	16	4404
2026-01-19 01:13:03.39	4.93	20.44	-27.9	-30.0	15.2	0.00e+00	0	44	0	435159040	15	4576
2026-01-19 01:13:06.40	4.61	20.80	-27.8	-29.7	15.3	0.00e+00	0	44	0	444596224	15	4484
2026-01-19 01:13:09.40	4.28	21.17	-27.9	-29.4	15.4	0.00e+00	0	44	0	454033408	16	4273
2026-01-19 01:13:12.42	3.95	21.55	-27.4	-28.7	15.9	0.00e+00	0	44	0	463470592	15	4203
2026-01-19 01:13:15.43	3.61	21.92	-27.5	-29.1	15.7	0.00e+00	0	44	0	472907776	15	4301
2026-01-19 01:13:18.43	3.25	22.30	-27.3	-28.6	16.0	0.00e+00	0	44	0	482344960	15	4179
2026-01-19 01:13:21.45	2.89	22.69	-27.6	-29.3	15.7	0.00e+00	0	44	0	491782144	15	4345
2026-01-19 01:13:24.45	2.52	23.08	-27.4	-29.2	16.0	0.00e+00	0	44	0	501219328	14	4453
2026-01-19 01:13:27.45	2.14	23.48	-27.3	-29.0	16.2	0.00e+00	0	44	0	510656512	14	4378
2026-01-19 01:13:30.46	1.75	23.88	-27.4	-28.8	16.0	0.00e+00	0	44	0	520093696	15	4225
2026-01-19 01:13:33.47	1.35	24.29	-27.3	-29.0	16.1	0.00e+00	0	44	0	529530880	14	4388
2026-01-19 01:13:36.48	0.94	24.70	-27.4	-29.1	16.1	0.00e+00	0	44	0	537919488	14	4423
2026-01-19 01:13:39.50	0.51	25.12	-27.3	-29.1	16.1	0.00e+00	0	44	0	548405248	14	4417
2026-01-19 01:13:42.50	0.08	25.53	-27.7	-29.5	15.6	0.00e+00	0	44	0	556793856	15	4407
2026-01-19 01:13:45.50	359.64	25.96	-28.0	-30.1	15.3	7.00e-07	0	44	0	566231040	15	4575
2026-01-19 01:13:48.51	359.18	26.39	-28.3	-30.2	15.2	0.00e+00	0	44	0	575668224	16	4478
2026-01-19 01:13:51.51	358.71	26.82	-28.4	-30.4	15.1	0.00e+00	0	44	0	585105408	16	4556
2026-01-19 01:13:54.52	358.22	27.26	-28.3	-30.3	15.1	0.00e+00	0	44	0	594542592	16	4512
2026-01-19 01:13:57.53	357.72	27.71	-28.2	-30.1	12.8	0.00e+00	0	44	0	603979776	16	4456
2026-01-19 01:14:00.54	357.21	28.16	-28.2	-30.0	15.2	3.81e-03	0	44	0	613416960	16	4420
2026-01-19 01:14:03.55	356.68	28.61	-28.4	-30.4	15.1	0.00e+00	0	44	0	622854144	16	4542
2026-01-19 01:14:06.55	356.13	29.07	-28.2	-30.0	15.3	3.58e-03	0	44	0	632291328	16	4418
2026-01-19 01:14:09.56	355.57	29.53	-27.9	-29.8	15.5	0.00e+00	0	44	0	641728512	15	4488
2026-01-19 01:14:12.57	355.00	30.00	-28.3	-30.2	15.2	2.13e-03	0	44	0	651165696	16	4476
2026-01-19 01:14:15.58	354.40	30.47	-28.4	-30.5	15.1	2.12e-03	0	44	0	660602880	16	4560
2026-01-19 01:14:18.58	353.79	30.95	-28.5	-30.3	14.9	1.85e-04	0	44	0	670040064	17	4394
2026-01-19 01:14:21.58	353.16	31.42	-27.9	-29.4	15.7	2.63e-03	0	44	0	679477248	16	4257
2026-01-19 01:14:24.59	352.51	31.91	-27.7	-29.5	15.7	2.71e-03	0	44	0	688914432	15	4387
2026-01-19 01:14:27.60	351.84	32.40	-28.0	-30.0	15.5	1.97e-03	0	44	0	698351616	15	4538
2026-01-19 01:14:30.61	351.15	32.89	-28.3	-30.2	15.2	2.63e-03	0	44	0	707788800	16	4492
2026-01-19 01:14:33.62	350.43	33.38	-28.4	-30.0	15.0	3.72e-03	0	44	0	717225984	17	4329
2026-01-19 01:14:36.63	349.70	33.88	-28.8	-30.8	14.6	3.65e-03	0	44	0	726663168	17	4536
2026-01-19 01:14:39.64	348.94	34.38	-28.8	-30.9	14.5	0.00e+00	0	44	0	736100352	17	4578
2026-01-19 01:14:42.65	348.16	34.88	-29.4	-31.7	13.9	7.16e-04	0	44	0	745537536	18	4694
2026-01-19 01:14:45.65	347.35	35.38	-29.4	-31.7	13.9	3.80e-06	0	44	0	754974720	18	4711
2026-01-19 01:14:48.66	346.52	35.89	-29.4	-31.8	13.8	5.30e-06	0	44	0	764411904	18	4741
2026-01-19 01:14:51.67	345.66	36.39	-29.6	-31.6	13.6	1.37e-05	0	44	0	773849088	19	4575
2026-01-19 01:14:54.69	344.77	36.90	-29.0	-30.9	14.3	1.50e-06	0	44	0	783286272	18	4467
2026-01-19 01:14:57.70	343.85	37.41	-29.2	-31.2	14.1	0.00e+00	0	44	0	792723456	18	4556
2026-01-19 01:15:00.71	342.91	37.91	-29.4	-31.8	13.8	4.50e-06	0	44	0	802160640	18	4740
2026-01-19 01:15:03.73	341.93	38.41	-29.5	-31.5	13.7	5.30e-06	0	44	0	810549248	19	4525
2026-01-19 01:15:06.72	340.93	38.91	-29.4	-31.7	13.8	1.50e-06	0	44	0	819986432	18	4701
2026-01-19 01:15:09.74	339.89	39.41	-29.3	-31.5	14.0	5.30e-06	0	44	0	829423616	18	4637
2026-01-19 01:15:12.75	338.82	39.90	-29.3	-31.4	14.0	7.00e-07	0	44	0	838860800	18	4618
2026-01-19 01:15:15.76	337.72	40.39	-29.2	-31.3	14.1	1.50e-06	0	44	0	848297984	18	4576
2026-01-19 01:15:18.78	336.58	40.88	-29.7	-32.0	13.4	1.60e-05	0	44	0	857735168	19	4685
2026-01-19 01:15:21.79	335.41	41.35	-30.1	-32.6	12.6	6.25e-05	0	44	0	867172352	20	4773
2026-01-19 01:15:24.81	334.20	41.82	-30.5	-33.1	12.0	3.15e-04	0	44	0	876609536	21	4828
2026-01-19 01:15:27.82	332.96	42.28	-30.5	-33.1	12.0	3.02e-04	0	44	0	886046720	21	4837
2026-01-19 01:15:30.82	331.68	42.73	-31.0	-34.3	11.3	9.36e-04	0	44	0	895483904	21	5297
2026-01-19 01:15:33.84	330.36	43.17	-30.0	-32.3	12.9	6.79e-05	0	44	0	904921088	20	4666
2026-01-19 01:15:36.85	329.01	43.59	-30.1	-32.6	12.7	6.25e-05	0	44	0	914358272	20	4772
2026-01-19 01:15:39.86	327.63	44.01	-30.7	-33.5	11.7	6.86e-04	0	44	0	923795456	21	4987
2026-01-19 01:15:42.87	326.21	44.40	-30.8	-34.0	10.7	9.76e-04	0	44	0	933232640	21	5150
2026-01-19 01:15:45.88	324.75	44.78	-30.9	-34.0	11.3	7.99e-04	0	44	0	942669824	21	5162
2026-01-19 01:15:48.88	323.26	45.14	-30.0	-32.6	13.0	6.02e-05	0	44	0	952107008	19	4885
2026-01-19 01:15:51.89	321.74	45.49	-30.5	-33.4	12.1	3.38e-03	0	44	0	961544192	20	5043
2026-01-19 01:15:54.90	320.18	45.81	-30.9	-34.1	11.3	4.92e-03	0	44	0	970981376	21	5213
2026-01-19 01:15:57.89	318.60	46.11	-30.8	-33.9	11.4	1.41e-03	0	44	0	980418560	21	5129
2026-01-19 01:16:00.89	316.98	46.39	-29.8	-31.6	13.2	5.87e-04	0	44	0	989855744	20	4474
2026-01-19 01:16:03.89	315.34	46.64	-29.7	-32.1	13.2	3.66e-05	0	44	0	999292928	19	4712
2026-01-19 01:16:06.90	313.67	46.87	-29.6	-31.6	13.6	2.69e-03	0	44	0	1008730112	19	4566
2026-01-19 01:16:09.91	311.97	47.08	-29.4	-31.7	13.8	2.70e-03	0	44	0	1018167296	18	4703
2026-01-19 01:16:12.91	310.26	47.25	-30.0	-32.3	12.9	2.08e-03	0	44	0	1027604480	20	4687
2026-01-19 01:16:15.91	308.53	47.40	-29.6	-31.8	13.5	1.25e-03	0	44	0	1037041664	19	4640
2026-01-19 01:16:18.92	306.78	47.52	-29.8	-32.4	13.1	2.21e-05	0	44	0	1046478848	19	4804
2026-01-19 01:16:21.93	305.01	47.62	-29.8	-32.2	13.2	6.25e-05	0	44	0	1055916032	19	4773
2026-01-19 01:16:24.94	303.24	47.68	-30.0	-32.7	12.9	2.82e-05	0	44	0	1065353216	19	4933
2026-01-19 01:16:27.95	301.46	47.71	-29.8	-32.2	13.2	8.09e-04	0	44	0	1074790400	19	4762
2026-01-19 01:16:30.96	299.68	47.71	-30.1	-32.6	12.6	1.87e-04	0	44	0	1084227584	20	4789
2026-01-19 01:16:33.97	297.90	47.69	-30.1	-32.5	12.6	7.78e-05	0	44	0	1092616192	20	4761
2026-01-19 01:16:36.97	296.13	47.63	-30.2	-32.9	12.4	1.46e-03	0	44	0	1102053376	20	4899
2026-01-19 01:16:39.99	294.36	47.54	-29.9	-32.6	13.0	3.05e-05	0	44	0	1111490560	19	4873
2026-01-19 01:16:42.99	292.61	47.42	-29.7	-32.1	13.3	2.00e-04	0	44	0	1120927744	19	4719
2026-01-19 01:16:46.00	290.87	47.28	-29.8	-32.2	13.2	2.44e-05	0	44	0	1130364928	19	4760
2026-01-19 01:16:49.01	289.15	47.10	-29.7	-32.0	13.3	1.22e-05	0	44	0	1139802112	19	4695
2026-01-19 01:16:52.01	287.45	46.90	-30.5	-33.0	11.9	2.96e-04	0	44	0	1149239296	21	4841
2026-01-19 01:16:55.02	285.77	46.68	-29.9	-32.0	12.9	4.04e-05	0	44	0	1158676480	20	4604
2026-01-19 01:16:58.04	284.12	46.42	-30.1	-32.4	12.6	9.46e-05	0	44	0	1168113664	20	4737
2026-01-19 01:17:01.04	282.50	46.15	-29.9	-32.0	12.9	4.11e-05	0	44	0	1177550848	20	4591
2026-01-19 01:17:04.05	280.90	45.85	-30.3	-33.0	12.3	1.69e-04	0	44	0	1186988032	20	4934
2026-01-19 01:17:07.06	279.33	45.53	-30.3	-33.0	12.3	2.02e-04	0	44	0	1196425216	20	4926
2026-01-19 01:17:10.07	277.80	45.19	-30.2	-32.8	12.5	1.40e-04	0	44	0	1205862400	20	4855
2026-01-19 01:17:13.08	276.30	44.82	-30.7	-33.7	11.5	1.03e-03	0	45	0	1215299584	21	5066
2026-01-19 01:17:16.10	274.83	44.44	-29.2	-31.3	14.0	5.30e-06	0	44	0	1224736768	18	4583
2026-01-19 01:17:19.10	273.41	44.05	-29.9	-32.1	12.9	6.86e-05	0	44	0	1234173952	20	4614
2026-01-19 01:17:22.11	272.01	43.64	-28.4	-29.8	15.1	0.00e+00	0	44	0	1243611136	17	4267
2026-01-19 01:17:25.12	270.66	43.21	-29.9	-32.7	12.9	1.90e-05	0	44	0	1253048320	19	4925
2026-01-19 01:17:28.13	269.34	42.78	-29.8	-31.4	12.8	3.15e-04	0	44	0	1262485504	21	4310
2026-01-19 01:17:31.13	268.05	42.33	-28.6	-30.5	14.6	0.00e+00	0	44	0	1271922688	17	4466
2026-01-19 01:17:34.13	266.81	41.87	-30.0	-32.3	12.6	5.11e-05	0	44	0	1281359872	20	4708
2026-01-19 01:17:37.13	265.60	41.40	-28.8	-30.0	14.3	7.60e-06	0	44	0	1290797056	19	4100
2026-01-19 01:17:40.14	264.42	40.93	-29.0	-31.3	14.2	7.00e-07	0	44	0	1300234240	17	4720
2026-01-19 01:17:43.14	263.28	40.44	-30.6	-33.3	11.6	7.65e-04	0	44	0	1309671424	21	4942
2026-01-19 01:17:46.16	262.16	39.95	-28.1	-29.3	15.3	7.00e-07	0	44	0	1319108608	17	4123
2026-01-19 01:17:49.18	261.08	39.46	-29.0	-31.3	14.1	7.00e-07	0	44	0	1328545792	17	4723
2026-01-19 01:17:52.18	260.04	38.96	-31.0	-33.9	10.9	3.29e-03	0	44	0	1337982976	22	5074
2026-01-19 01:17:55.20	259.03	38.46	-29.4	-31.3	13.5	1.29e-05	0	44	0	1347420160	19	4485
2026-01-19 01:17:58.19	258.05	37.95	-30.0	-32.3	12.6	7.09e-05	0	44	0	1355808768	20	4694
2026-01-19 01:18:01.20	257.10	37.45	-30.9	-34.2	11.0	2.08e-03	0	44	0	1365245952	21	5288
2026-01-19 01:18:04.21	256.18	36.94	-29.3	-31.2	13.6	1.60e-05	0	44	0	1374683136	19	4458
2026-01-19 01:18:07.23	255.28	36.43	-29.0	-31.4	14.1	2.20e-06	0	44	0	1384120320	17	4732
2026-01-19 01:18:10.23	254.41	35.92	-29.6	-31.9	13.2	2.89e-05	0	44	0	1393557504	19	4669
2026-01-19 01:18:13.22	253.58	35.42	-29.3	-31.5	13.7	9.90e-06	0	45	0	1402994688	18	4665
2026-01-19 01:18:16.23	252.77	34.92	-28.6	-30.5	14.6	4.88e-05	0	44	0	1412431872	17	4493
2026-01-19 01:18:19.24	251.98	34.41	-28.9	-31.1	14.2	2.53e-04	0	44	0	1421869056	17	4667
2026-01-19 01:18:22.25	251.21	33.91	-28.6	-30.5	14.6	1.74e-04	0	44	0	1431306240	17	4460
2026-01-19 01:18:25.26	250.47	33.41	-28.1	-29.2	15.2	0.00e+00	0	44	0	1440743424	17	4114
2026-01-19 01:18:28.26	249.75	32.91	-27.8	-29.8	15.3	0.00e+00	0	44	0	1450180608	15	4496
2026-01-19 01:18:31.28	249.05	32.42	-28.9	-31.2	14.1	1.01e-04	0	44	0	1459617792	17	4704
2026-01-19 01:18:34.28	248.38	31.93	-28.5	-30.3	14.6	1.50e-06	0	44	0	1469054976	17	4432
2026-01-19 01:18:37.29	247.72	31.44	-28.2	-30.2	14.9	0.00e+00	0	44	0	1478492160	16	4495
2026-01-19 01:18:40.30	247.09	30.96	-27.9	-30.0	15.1	0.00e+00	0	44	0	1487929344	15	4557
2026-01-19 01:18:43.30	246.47	30.48	-28.5	-30.2	14.6	0.00e+00	0	44	0	1497366528	17	4409
2026-01-19 01:18:46.30	245.87	30.01	-29.0	-31.0	13.8	5.30e-06	0	44	0	1506803712	18	4518
2026-01-19 01:18:49.30	245.29	29.54	-27.6	-29.2	15.5	0.00e+00	0	44	0	1516240896	15	4346
2026-01-19 01:18:52.32	244.72	29.07	-27.7	-29.6	15.3	0.00e+00	0	44	0	1525678080	15	4457
2026-01-19 01:18:55.33	244.17	28.61	-27.7	-29.5	15.3	0.00e+00	0	44	0	1535115264	15	4431
2026-01-19 01:18:58.34	243.64	28.15	-27.7	-29.5	15.3	0.00e+00	0	44	0	1544552448	15	4425
2026-01-19 01:19:01.36	243.12	27.70	-27.1	-28.6	16.1	0.00e+00	0	44	0	1553989632	14	4296
2026-01-19 01:19:04.36	242.62	27.26	-27.3	-29.0	15.8	0.00e+00	0	44	0	1563426816	14	4401
2026-01-19 01:19:07.38	242.13	26.81	-27.8	-29.9	15.1	0.00e+00	0	44	0	1572864000	15	4543
2026-01-19 01:19:10.40	241.65	26.37	-27.5	-29.2	15.5	0.00e+00	0	44	0	1582301184	15	4333
2026-01-19 01:19:13.41	241.19	25.94	-27.1	-28.6	16.0	0.00e+00	0	44	0	1591738368	14	4303
2026-01-19 01:19:16.42	240.73	25.51	-26.8	-28.6	16.3	0.00e+00	0	44	0	1601175552	13	4405
2026-01-19 01:19:19.43	240.30	25.09	-26.8	-28.6	16.3	0.00e+00	0	44	0	1610612736	13	4397
2026-01-19 01:19:22.43	239.87	24.67	-27.0	-28.9	16.1	0.00e+00	0	44	0	1619001344	13	4481
2026-01-19 01:19:25.44	239.45	24.26	-27.3	-29.0	15.7	0.00e+00	0	44	0	1628438528	14	4419
2026-01-19 01:19:28.45	239.05	23.85	-27.3	-29.2	14.6	0.00e+00	0	44	0	1637875712	14	4456
2026-01-19 01:19:31.46	238.66	23.45	-27.4	-29.3	15.5	0.00e+00	0	44	0	1647312896	14	4497
2026-01-19 01:19:34.46	238.27	23.05	-27.6	-29.3	15.3	0.00e+00	0	44	0	1656750080	15	4392
2026-01-19 01:19:37.46	237.90	22.66	-27.7	-29.5	15.2	0.00e+00	0	44	0	1666187264	15	4447
2026-01-19 01:19:40.47	237.53	22.27	-27.6	-29.3	15.3	0.00e+00	0	44	0	1675624448	15	4383
2026-01-19 01:19:43.48	237.18	21.88	-27.5	-29.5	15.4	2.50e-03	0	44	0	1685061632	14	4558
2026-01-19 01:19:46.49	236.83	21.50	-27.3	-29.1	15.7	0.00e+00	0	44	0	1694498816	14	4428
2026-01-19 01:19:49.50	236.49	21.13	-27.1	-28.6	15.9	1.28e-03	0	44	0	1703936000	14	4300
2026-01-19 01:19:52.51	236.16	20.75	-27.0	-28.5	16.0	1.50e-06	0	44	0	1713373184	14	4263
2026-01-19 01:19:55.51	235.84	20.39	-26.7	-28.2	16.3	4.21e-03	0	44	0	1722810368	13	4310
2026-01-19 01:19:58.52	235.53	20.03	-26.8	-28.5	16.2	4.42e-03	0	44	0	1732247552	13	4397
2026-01-19 01:20:01.54	235.22	19.67	-27.2	-29.0	15.6	4.23e-03	0	44	0	1741684736	14	4410
2026-01-19 01:20:04.55	234.92	19.31	-27.5	-29.5	15.3	4.90e-03	0	44	0	1751121920	14	4560
2026-01-19 01:20:07.55	234.63	18.96	-27.3	-29.1	15.1	0.00e+00	0	44	0	1760559104	15	4417
2026-01-19 01:20:10.55	234.34	18.62	-27.6	-29.4	14.9	4.12e-03	0	44	0	1769996288	15	4415
2026-01-19 01:20:13.56	234.06	18.28	-27.5	-29.1	15.3	6.79e-05	0	44	0	1779433472	15	4323
2026-01-19 01:20:16.57	233.79	17.94	-27.6	-29.4	15.1	3.71e-03	0	44	0	1788870656	15	4422
2026-01-19 01:20:19.58	233.52	17.60	-27.6	-29.4	15.0	6.93e-04	0	44	0	1798307840	15	4410
2026-01-19 01:20:22.59	233.26	17.27	-27.6	-29.4	15.0	0.00e+00	0	44	0	1807745024	15	4422
2026-01-19 01:20:25.59	233.01	16.95	-27.6	-29.4	15.0	2.86e-03	0	44	0	1817182208	15	4410
2026-01-19 01:20:28.60	232.76	16.63	-27.8	-29.9	14.7	7.00e-07	0	44	0	1826619392	15	4575
2026-01-19 01:20:31.61	232.52	16.31	-28.1	-30.0	14.5	0.00e+00	0	44	0	1836056576	16	4486
2026-01-19 01:20:34.63	232.28	15.99	-28.2	-30.3	14.3	0.00e+00	0	44	0	1845493760	16	4587
2026-01-19 01:20:37.63	232.04	15.68	-28.4	-30.6	14.1	2.20e-06	0	44	0	1854930944	16	4665
2026-01-19 01:20:40.65	231.81	15.37	-28.4	-30.6	14.1	4.50e-06	0	44	0	1864368128	16	4680
2026-01-19 01:20:43.65	231.59	15.07	-28.5	-30.9	14.0	4.50e-06	0	44	0	1873805312	16	4747
2026-01-19 01:20:46.66	231.37	14.77	-28.3	-30.6	14.1	1.50e-06	0	44	0	1883242496	16	4672
2026-01-19 01:20:49.67	231.16	14.47	-28.3	-30.6	14.0	1.50e-06	0	44	0	1891631104	16	4675
2026-01-19 01:20:52.68	230.94	14.17	-28.4	-30.7	13.9	4.50e-06	0	44	0	1901068288	16	4715
2026-01-19 01:20:55.68	230.74	13.88	-28.4	-30.8	13.9	1.50e-06	0	44	0	1910505472	16	4723
2026-01-19 01:20:58.69	230.54	13.59	-28.5	-30.5	13.7	1.06e-05	0	44	0	1919942656	17	4543
2026-01-19 01:21:01.70	230.34	13.31	-28.5	-30.6	13.6	1.90e-05	0	44	0	1929379840	17	4572
2026-01-19 01:21:04.71	230.14	13.02	-28.3	-30.7	13.9	3.80e-06	0	44	0	1938817024	16	4702
2026-01-19 01:21:07.72	229.95	12.74	-28.4	-30.7	13.9	6.80e-06	0	44	0	1948254208	16	4717
2026-01-19 01:21:10.73	229.77	12.47	-28.4	-30.4	13.7	1.50e-06	0	44	0	1957691392	17	4509
2026-01-19 01:21:13.74	229.58	12.19	-28.5	-30.6	13.6	4.50e-06	0	44	0	1967128576	17	4579
2026-01-19 01:21:16.74	229.41	11.92	-28.7	-31.0	13.4	1.37e-05	0	44	0	1976565760	17	4684
2026-01-19 01:21:19.74	229.23	11.65	-28.9	-31.4	13.1	3.12e-05	0	44	0	1986002944	17	4837
2026-01-19 01:21:22.75	229.06	11.39	-29.0	-31.2	12.9	5.18e-05	0	44	0	1995440128	18	4641
2026-01-19 01:21:25.75	228.89	11.12	-28.1	-30.6	12.7	6.79e-05	0	44	0	2004877312	18	4762
2026-01-19 01:21:28.76	228.72	10.86	-29.0	-31.3	12.2	7.24e-05	0	44	0	2014314496	18	4693
2026-01-19 01:21:31.77	228.56	10.60	-29.0	-31.4	12.7	8.85e-05	0	44	0	2023751680	18	4731
2026-01-19 01:21:34.78	228.40	10.35	-29.2	-31.8	12.4	1.09e-04	0	44	0	2033188864	18	4859
2026-01-19 01:21:37.79	228.24	10.09	-29.2	-31.9	12.3	1.66e-04	0	44	0	2042626048	18	4911
2026-01-19 01:21:40.80	228.09	9.84	-29.2	-31.9	12.3	1.67e-04	0	44	0	2052063232	18	4907
2026-01-19 01:21:43.80	227.93	9.60	-29.2	-31.9	12.3	1.53e-03	0	44	0	2061500416	18	4907
2026-01-19 01:21:46.80	227.79	9.35	-29.2	-31.8	12.3	2.03e-04	0	44	0	2070937600	18	4883
2026-01-19 01:21:49.79	227.64	9.11	-29.1	-31.6	12.4	1.76e-03	0	44	0	2080374784	18	4800
2026-01-19 01:21:52.80	227.50	8.86	-29.1	-31.7	12.4	1.99e-03	0	44	0	2089811968	18	4825
2026-01-19 01:21:55.81	227.35	8.62	-29.3	-32.1	12.1	2.20e-03	0	44	0	2099249152	18	4970
2026-01-19 01:21:58.81	227.22	8.39	-29.2	-31.9	12.2	2.16e-03	0	44	0	2108686336	18	4899
2026-01-19 01:22:01.82	227.08	8.15	-29.4	-32.3	11.9	3.55e-04	0	44	0	2118123520	18	5049
2026-01-19 01:22:04.82	226.94	7.92	-29.3	-32.2	12.0	2.25e-03	0	44	0	2126512128	18	5024
2026-01-19 01:22:07.84	226.81	7.68	-29.2	-32.0	12.1	2.04e-03	0	44	0	2135949312	18	4938
2026-01-19 01:22:10.85	226.68	7.45	-29.3	-32.2	11.9	1.74e-03	0	44	0	2145386496	18	5021
2026-01-19 01:22:13.87	226.55	7.23	-29.5	-32.2	11.5	7.70e-04	0	44	0	2154823680	19	4932
2026-01-19 01:22:16.88	226.43	7.00	-33.6	-45.5	3.8	1.49e+00	0	44	104	2160066560	27	14186

#Closed at: 2026-01-19 01:22:19
#Recorded file [2160 MB]: D:/data/31010_260119_041043.dat