passes_logs/2026/01/19/R2M6_AANII_01/R2M6_AANII_01__20260119_155642_FENGYUN_3E_rec.log

#Pass ID: 20260119_155642_FENGYUN 3E
#Satellite: FENGYUN 3E
#Configuration: FENGYUN 3E
#almurnet v.1.7.20240730
#Start time: 2026-01-19 15:56:43

#Version: 2.2.20231116
#Station: R2M6_AANII_01
#Location: 30.233357 lon 59.946436 lat
#TLE: 1 49008U 21062A   26018.95190407 -.00000301  00000+0 -12097-3 0  9991
#TLE: 2 49008  98.7482  24.0337 0002210 129.7386 230.3985 14.19884646235406

#Time	Az	El	Level	Level2	SNR	BER	BlckErr	Temp	State	Recorded	gain1	gain2
2026-01-19 15:56:43.68	203.66	7.08	-28.2	-29.1	5.6	7.51e-01	0	44	0	0	17	4018
2026-01-19 15:56:46.69	203.90	7.28	-28.8	-30.8	10.9	1.64e-03	0	44	0	7340032	17	4495
2026-01-19 15:56:49.70	204.15	7.49	-28.4	-29.6	11.7	6.24e-04	0	44	0	28311552	17	4142
2026-01-19 15:56:52.70	204.40	7.69	-28.1	-29.0	12.0	3.74e-04	0	44	0	50331648	17	3990
2026-01-19 15:56:55.71	204.65	7.90	-27.5	-28.0	13.1	4.23e-05	0	44	0	72351744	16	3814
2026-01-19 15:56:58.71	204.91	8.11	-27.2	-27.9	13.2	2.28e-05	0	44	0	93323264	15	3893
2026-01-19 15:57:01.71	205.17	8.32	-27.1	-28.1	13.4	1.25e-05	0	44	0	115343360	14	4051
2026-01-19 15:57:04.71	205.43	8.53	-27.0	-28.0	13.5	1.37e-05	0	44	0	137363456	14	4009
2026-01-19 15:57:07.71	205.70	8.74	-27.0	-27.8	13.6	1.14e-05	0	44	0	158334976	14	3980
2026-01-19 15:57:10.72	205.97	8.96	-26.9	-27.7	13.7	3.40e-06	0	45	0	180355072	14	3932
2026-01-19 15:57:13.74	206.25	9.17	-26.9	-27.7	13.7	5.70e-06	0	45	0	202375168	14	3950
2026-01-19 15:57:16.75	206.53	9.39	-26.7	-27.3	14.0	2.20e-06	0	45	0	224395264	14	3838
2026-01-19 15:57:19.74	206.81	9.61	-26.6	-26.9	14.2	0.00e+00	0	45	0	245366784	14	3742
2026-01-19 15:57:22.74	207.09	9.83	-26.4	-27.0	14.4	3.40e-06	0	45	0	267386880	13	3858
2026-01-19 15:57:25.75	207.39	10.05	-26.5	-27.3	14.3	3.40e-06	0	45	0	289406976	13	3931
2026-01-19 15:57:28.75	207.68	10.27	-26.8	-27.9	14.0	2.20e-06	0	45	0	310378496	13	4082
2026-01-19 15:57:31.76	207.98	10.49	-26.5	-27.4	14.3	2.20e-06	0	45	0	332398592	13	3952
2026-01-19 15:57:34.75	208.28	10.72	-26.3	-26.9	14.6	0.00e+00	0	45	0	354418688	13	3831
2026-01-19 15:57:37.76	208.59	10.94	-26.4	-27.1	14.5	0.00e+00	0	45	0	375390208	13	3886
2026-01-19 15:57:40.76	208.91	11.17	-26.5	-27.3	14.4	1.10e-06	0	45	0	397410304	13	3939
2026-01-19 15:57:43.76	209.22	11.40	-26.6	-27.4	14.3	2.20e-06	0	45	0	418381824	13	3960
2026-01-19 15:57:46.77	209.55	11.63	-26.5	-27.2	14.5	0.00e+00	0	45	0	440401920	13	3904
2026-01-19 15:57:49.78	209.88	11.86	-26.6	-27.4	14.3	1.10e-06	0	45	0	462422016	13	3955
2026-01-19 15:57:52.79	210.21	12.09	-26.5	-27.2	14.5	0.00e+00	0	45	0	484442112	13	3915
2026-01-19 15:57:55.79	210.55	12.33	-26.3	-26.8	14.7	0.00e+00	0	45	0	505413632	13	3823
2026-01-19 15:57:58.79	210.89	12.56	-26.1	-26.4	14.9	0.00e+00	0	45	0	527433728	13	3725
2026-01-19 15:58:01.81	211.24	12.80	-26.2	-26.7	14.8	0.00e+00	0	45	0	549453824	13	3777
2026-01-19 15:58:04.83	211.60	13.04	-26.1	-26.3	15.0	0.00e+00	0	45	0	570425344	13	3684
2026-01-19 15:58:07.84	211.96	13.28	-26.2	-26.6	14.9	0.00e+00	0	45	0	592445440	13	3761
2026-01-19 15:58:10.85	212.32	13.52	-26.0	-26.2	15.1	0.00e+00	0	45	0	614465536	13	3672
2026-01-19 15:58:13.85	212.69	13.76	-26.1	-26.3	15.0	0.00e+00	0	45	0	636485632	13	3688
2026-01-19 15:58:16.84	213.07	14.01	-26.0	-26.0	15.2	0.00e+00	0	45	0	657457152	13	3630
2026-01-19 15:58:19.85	213.45	14.25	-26.2	-26.5	15.0	0.00e+00	0	45	0	679477248	13	3744
2026-01-19 15:58:22.86	213.84	14.50	-25.8	-26.2	15.4	0.00e+00	0	45	0	701497344	12	3768
2026-01-19 15:58:25.86	214.24	14.74	-25.6	-25.7	15.7	0.00e+00	0	45	0	722468864	12	3658
2026-01-19 15:58:28.87	214.64	14.99	-25.5	-25.4	15.9	0.00e+00	0	45	0	744488960	12	3591
2026-01-19 15:58:31.88	215.05	15.24	-25.4	-25.8	16.0	0.00e+00	0	45	0	766509056	11	3778
2026-01-19 15:58:34.89	215.47	15.50	-25.3	-25.6	16.2	0.00e+00	0	45	0	788529152	11	3711
2026-01-19 15:58:37.90	215.89	15.75	-25.4	-25.7	16.1	0.00e+00	0	45	0	809500672	11	3745
2026-01-19 15:58:40.90	216.32	16.00	-25.6	-26.1	15.9	0.00e+00	0	45	0	831520768	11	3847
2026-01-19 15:58:43.90	216.75	16.26	-25.5	-26.0	15.9	0.00e+00	0	45	0	853540864	11	3821
2026-01-19 15:58:46.89	217.20	16.51	-25.5	-26.1	16.0	0.00e+00	0	45	0	874512384	11	3828
2026-01-19 15:58:49.90	217.65	16.77	-25.3	-25.5	16.3	0.00e+00	0	45	0	896532480	11	3691
2026-01-19 15:58:52.91	218.11	17.03	-24.9	-24.8	16.7	0.00e+00	0	45	0	918552576	11	3532
2026-01-19 15:58:55.92	218.57	17.29	-24.7	-24.8	16.9	0.00e+00	0	45	0	939524096	10	3637
2026-01-19 15:58:58.93	219.05	17.55	-24.9	-25.3	16.7	0.00e+00	0	46	0	961544192	10	3747
2026-01-19 15:59:01.93	219.53	17.81	-24.9	-25.3	16.7	0.00e+00	0	46	0	983564288	10	3741
2026-01-19 15:59:04.95	220.02	18.07	-24.9	-25.1	16.8	0.00e+00	0	45	0	1004535808	10	3707
2026-01-19 15:59:07.96	220.52	18.33	-25.0	-25.4	16.7	0.00e+00	0	45	0	1026555904	10	3768
2026-01-19 15:59:10.97	221.03	18.60	-24.6	-24.6	17.1	0.00e+00	0	45	0	1048576000	10	3589
2026-01-19 15:59:13.98	221.55	18.86	-24.6	-24.6	17.1	0.00e+00	0	45	0	1069547520	10	3587
2026-01-19 15:59:16.99	222.07	19.12	-24.5	-24.3	17.3	0.00e+00	0	45	0	1091567616	10	3530
2026-01-19 15:59:20.00	222.61	19.39	-24.6	-24.6	17.2	0.00e+00	0	46	0	1113587712	10	3589
2026-01-19 15:59:23.01	223.15	19.66	-24.7	-24.8	17.0	0.00e+00	0	46	0	1135607808	10	3635
2026-01-19 15:59:26.02	223.70	19.92	-24.9	-25.1	16.9	0.00e+00	0	45	0	1156579328	10	3708
2026-01-19 15:59:29.03	224.27	20.19	-25.0	-25.5	16.7	0.00e+00	0	45	0	1178599424	10	3789
2026-01-19 15:59:32.04	224.84	20.45	-24.6	-24.6	17.2	2.20e-06	0	45	0	1200619520	10	3584
2026-01-19 15:59:35.06	225.42	20.72	-24.4	-24.6	17.4	1.10e-06	0	45	0	1222639616	9	3692
2026-01-19 15:59:38.06	226.01	20.98	-24.3	-24.3	17.6	8.00e-06	0	45	0	1243611136	9	3630
2026-01-19 15:59:41.07	226.61	21.25	-24.3	-24.4	17.5	3.40e-06	0	45	0	1265631232	9	3631
2026-01-19 15:59:44.08	227.22	21.51	-24.4	-24.6	17.4	5.70e-06	0	45	0	1287651328	9	3688
2026-01-19 15:59:47.09	227.85	21.78	-24.4	-24.6	17.5	0.00e+00	0	46	0	1309671424	9	3686
2026-01-19 15:59:50.10	228.48	22.04	-24.4	-24.6	17.5	0.00e+00	0	45	0	1330642944	9	3688
2026-01-19 15:59:53.10	229.12	22.30	-24.2	-24.2	17.7	0.00e+00	0	45	0	1352663040	9	3598
2026-01-19 15:59:56.10	229.77	22.57	-24.2	-24.2	17.7	0.00e+00	0	45	0	1374683136	9	3588
2026-01-19 15:59:59.11	230.43	22.83	-24.0	-23.8	17.9	0.00e+00	0	45	0	1395654656	9	3512
2026-01-19 16:00:02.11	231.11	23.09	-23.9	-24.0	18.1	0.00e+00	0	45	0	1417674752	8	3659
2026-01-19 16:00:05.11	231.79	23.34	-23.9	-24.0	18.1	0.00e+00	0	45	0	1439694848	8	3644
2026-01-19 16:00:08.12	232.49	23.60	-24.0	-24.2	17.9	0.00e+00	0	45	0	1460666368	8	3707
2026-01-19 16:00:11.12	233.19	23.85	-24.0	-24.3	17.9	0.00e+00	0	45	0	1482686464	8	3730
2026-01-19 16:00:14.14	233.91	24.11	-23.9	-24.0	18.1	0.00e+00	0	45	0	1504706560	8	3646
2026-01-19 16:00:17.15	234.65	24.36	-23.7	-23.7	18.2	0.00e+00	0	45	0	1526726656	8	3589
2026-01-19 16:00:20.17	235.39	24.60	-23.7	-23.7	18.3	0.00e+00	0	46	0	1547698176	8	3591
2026-01-19 16:00:23.17	236.14	24.85	-23.7	-23.7	18.3	0.00e+00	0	45	0	1569718272	8	3593
2026-01-19 16:00:26.18	236.91	25.09	-23.7	-23.6	18.3	0.00e+00	0	45	0	1591738368	8	3571
2026-01-19 16:00:29.18	237.68	25.33	-23.6	-23.4	18.4	0.00e+00	0	45	0	1612709888	8	3509
2026-01-19 16:00:32.19	238.47	25.56	-23.6	-23.4	18.5	0.00e+00	0	45	0	1634729984	8	3518
2026-01-19 16:00:35.20	239.27	25.79	-23.7	-23.6	18.3	0.00e+00	0	45	0	1656750080	8	3563
2026-01-19 16:00:38.21	240.08	26.02	-23.6	-23.5	18.4	0.00e+00	0	45	0	1677721600	8	3554
2026-01-19 16:00:41.23	240.90	26.25	-23.6	-23.5	18.4	0.00e+00	0	45	0	1699741696	8	3542
2026-01-19 16:00:44.23	241.73	26.47	-23.6	-23.4	18.4	0.00e+00	0	45	0	1721761792	8	3523
2026-01-19 16:00:47.24	242.58	26.68	-23.5	-23.2	18.6	0.00e+00	0	45	0	1743781888	8	3467
2026-01-19 16:00:50.23	243.43	26.89	-23.5	-23.1	18.6	0.00e+00	0	45	0	1764753408	8	3463
2026-01-19 16:00:53.24	244.30	27.09	-23.3	-23.4	18.7	0.00e+00	0	45	0	1786773504	7	3612
2026-01-19 16:00:56.24	245.17	27.29	-23.3	-23.3	18.8	0.00e+00	0	45	0	1808793600	7	3586
2026-01-19 16:00:59.24	246.05	27.48	-23.4	-23.5	18.7	0.00e+00	0	45	0	1829765120	7	3639
2026-01-19 16:01:02.24	246.95	27.67	-23.5	-23.7	18.6	0.00e+00	0	45	0	1851785216	7	3676
2026-01-19 16:01:05.24	247.86	27.85	-24.0	-24.8	18.0	0.00e+00	0	45	0	1873805312	7	3928
2026-01-19 16:01:08.25	248.77	28.02	-24.1	-24.5	18.0	0.00e+00	0	45	0	1894776832	8	3754
2026-01-19 16:01:11.26	249.70	28.19	-24.3	-25.0	17.7	0.00e+00	0	45	0	1916796928	8	3871
2026-01-19 16:01:14.26	250.64	28.35	-23.5	-23.2	18.6	0.00e+00	0	45	0	1938817024	8	3469
2026-01-19 16:01:17.28	251.58	28.50	-23.6	-23.5	18.5	0.00e+00	0	45	0	1959788544	8	3533
2026-01-19 16:01:20.29	252.54	28.65	-23.6	-23.5	18.5	0.00e+00	0	45	0	1981808640	8	3537
2026-01-19 16:01:23.31	253.51	28.79	-23.6	-23.5	18.5	0.00e+00	0	45	0	2003828736	8	3534
2026-01-19 16:01:26.32	254.48	28.92	-23.7	-23.7	18.4	0.00e+00	0	45	0	2025848832	8	3582
2026-01-19 16:01:29.33	255.45	29.04	-23.8	-23.8	18.3	0.00e+00	0	45	0	2046820352	8	3609
2026-01-19 16:01:32.34	256.44	29.15	-23.7	-23.5	18.5	0.00e+00	0	45	0	2068840448	8	3544
2026-01-19 16:01:35.34	257.43	29.25	-23.9	-23.9	18.3	0.00e+00	0	45	0	2090860544	8	3636
2026-01-19 16:01:38.36	258.43	29.35	-23.5	-23.2	18.7	0.00e+00	0	45	0	2112880640	8	3474
2026-01-19 16:01:41.37	259.43	29.43	-23.5	-23.7	18.7	0.00e+00	0	45	0	2133852160	7	3679
2026-01-19 16:01:44.39	260.44	29.51	-23.8	-24.3	18.3	0.00e+00	0	45	0	2155872256	7	3823
2026-01-19 16:01:47.40	261.46	29.58	-23.7	-24.1	18.5	0.00e+00	0	45	0	2177892352	7	3768
2026-01-19 16:01:50.40	262.47	29.64	-23.5	-23.7	18.7	0.00e+00	0	45	0	2199912448	7	3670
2026-01-19 16:01:53.42	263.49	29.68	-23.5	-23.7	18.7	0.00e+00	0	45	0	2220883968	7	3692
2026-01-19 16:01:56.43	264.51	29.72	-23.4	-23.6	18.7	0.00e+00	0	45	0	2242904064	7	3656
2026-01-19 16:01:59.43	265.53	29.75	-23.6	-24.0	18.6	0.00e+00	0	45	0	2263875584	7	3748
2026-01-19 16:02:02.42	266.55	29.77	-23.8	-24.4	18.3	0.00e+00	0	45	0	2285895680	7	3844
2026-01-19 16:02:05.44	267.58	29.78	-24.0	-24.7	18.2	0.00e+00	0	45	0	2307915776	7	3907
2026-01-19 16:02:08.45	268.61	29.78	-23.9	-24.5	18.3	0.00e+00	0	45	0	2329935872	7	3858
2026-01-19 16:02:11.43	269.63	29.77	-23.6	-24.0	18.5	0.00e+00	0	45	0	2350907392	7	3748
2026-01-19 16:02:14.44	270.65	29.75	-23.7	-24.0	18.5	0.00e+00	0	45	0	2372927488	7	3755
2026-01-19 16:02:17.43	271.67	29.72	-23.6	-23.8	18.6	0.00e+00	0	46	0	2393899008	7	3711
2026-01-19 16:02:20.41	272.68	29.68	-23.9	-24.5	18.2	0.00e+00	0	46	0	2415919104	7	3859
2026-01-19 16:02:23.40	273.69	29.63	-23.7	-24.2	18.4	0.00e+00	0	46	0	2437939200	7	3786
2026-01-19 16:02:26.40	274.70	29.57	-23.6	-23.8	18.6	0.00e+00	0	46	0	2458910720	7	3706
2026-01-19 16:02:29.39	275.71	29.50	-23.4	-23.5	18.7	0.00e+00	0	46	0	2480930816	7	3645
2026-01-19 16:02:32.40	276.71	29.43	-23.6	-23.9	18.6	0.00e+00	0	46	0	2502950912	7	3717
2026-01-19 16:02:35.38	277.70	29.34	-23.7	-24.1	18.5	0.00e+00	0	46	0	2523922432	7	3760
2026-01-19 16:02:38.38	278.70	29.24	-23.9	-24.0	18.3	0.00e+00	0	46	0	2545942528	8	3647
2026-01-19 16:02:41.38	279.68	29.14	-23.7	-23.6	18.5	0.00e+00	0	46	0	2566914048	8	3568
2026-01-19 16:02:44.38	280.66	29.03	-23.5	-23.2	18.7	0.00e+00	0	46	0	2588934144	8	3468
2026-01-19 16:02:47.38	281.63	28.91	-23.6	-23.5	18.5	0.00e+00	0	46	0	2610954240	8	3527
2026-01-19 16:02:50.39	282.60	28.78	-23.6	-23.4	18.6	0.00e+00	0	46	0	2632974336	8	3512
2026-01-19 16:02:53.39	283.56	28.64	-23.4	-23.0	18.8	0.00e+00	0	46	0	2653945856	8	3431
2026-01-19 16:02:56.39	284.51	28.50	-23.7	-23.6	18.5	0.00e+00	0	46	0	2675965952	8	3560
2026-01-19 16:02:59.39	285.45	28.34	-23.7	-23.6	18.5	0.00e+00	0	46	0	2697986048	8	3562
2026-01-19 16:03:02.41	286.39	28.18	-23.5	-23.3	18.6	0.00e+00	0	46	0	2718957568	8	3493
2026-01-19 16:03:05.42	287.31	28.02	-23.6	-23.4	18.6	0.00e+00	0	46	0	2740977664	8	3521
2026-01-19 16:03:08.42	288.22	27.84	-23.8	-23.8	18.4	0.00e+00	0	46	0	2761949184	8	3595
2026-01-19 16:03:11.42	289.13	27.66	-23.7	-23.7	18.4	0.00e+00	0	46	0	2783969280	8	3572
2026-01-19 16:03:14.43	290.02	27.48	-23.8	-23.7	18.4	0.00e+00	0	46	0	2805989376	8	3584
2026-01-19 16:03:17.45	290.91	27.28	-23.9	-24.0	18.3	0.00e+00	0	46	0	2828009472	8	3658
2026-01-19 16:03:20.47	291.79	27.08	-23.8	-23.8	18.4	0.00e+00	0	46	0	2848980992	8	3604
2026-01-19 16:03:23.48	292.65	26.88	-24.0	-24.2	18.1	0.00e+00	0	46	0	2871001088	8	3685
2026-01-19 16:03:26.49	293.50	26.67	-24.1	-24.5	18.0	0.00e+00	0	46	0	2893021184	8	3759
2026-01-19 16:03:29.50	294.34	26.46	-23.9	-24.0	18.3	0.00e+00	0	46	0	2915041280	8	3640
2026-01-19 16:03:32.51	295.17	26.24	-23.7	-23.7	18.3	0.00e+00	0	46	0	2936012800	8	3572
2026-01-19 16:03:35.52	295.99	26.02	-23.7	-23.7	18.4	0.00e+00	0	46	0	2958032896	8	3581
2026-01-19 16:03:38.53	296.80	25.79	-23.9	-23.9	18.3	0.00e+00	0	46	0	2980052992	8	3635
2026-01-19 16:03:41.54	297.59	25.56	-24.1	-24.4	18.1	0.00e+00	0	46	0	3002073088	8	3727
2026-01-19 16:03:44.55	298.38	25.33	-24.4	-25.2	17.6	0.00e+00	0	46	0	3023044608	8	3918
2026-01-19 16:03:47.55	299.15	25.09	-24.4	-25.1	17.7	0.00e+00	0	46	0	3045064704	8	3892
2026-01-19 16:03:50.54	299.90	24.85	-24.2	-24.6	17.9	0.00e+00	0	46	0	3067084800	8	3770
2026-01-19 16:03:53.55	300.66	24.61	-24.1	-24.5	17.9	0.00e+00	0	46	0	3088056320	8	3759
2026-01-19 16:03:56.56	301.39	24.36	-24.2	-24.6	17.9	0.00e+00	0	46	0	3110076416	8	3790
2026-01-19 16:03:59.56	302.12	24.11	-24.2	-24.6	17.9	0.00e+00	0	46	0	3132096512	8	3786
2026-01-19 16:04:02.57	302.84	23.86	-24.3	-25.0	17.7	0.00e+00	0	46	0	3153068032	8	3868
2026-01-19 16:04:05.58	303.54	23.61	-24.6	-25.5	17.4	0.00e+00	0	46	0	3175088128	8	3991
2026-01-19 16:04:08.60	304.24	23.35	-24.8	-25.3	17.3	0.00e+00	0	46	0	3197108224	9	3844
2026-01-19 16:04:11.61	304.92	23.10	-24.7	-25.3	17.3	0.00e+00	0	46	0	3219128320	9	3830
2026-01-19 16:04:14.62	305.59	22.84	-25.0	-25.3	17.0	0.00e+00	0	46	0	3240099840	10	3730
2026-01-19 16:04:17.63	306.25	22.58	-24.4	-24.5	17.7	0.00e+00	0	46	0	3262119936	9	3667
2026-01-19 16:04:20.65	306.91	22.32	-24.6	-25.1	17.4	0.00e+00	0	46	0	3284140032	9	3786
2026-01-19 16:04:23.65	307.54	22.06	-24.7	-25.2	17.3	0.00e+00	0	46	0	3306160128	9	3810
2026-01-19 16:04:26.66	308.17	21.80	-24.8	-25.4	17.2	0.00e+00	0	46	0	3327131648	9	3857
2026-01-19 16:04:29.67	308.79	21.53	-24.8	-25.4	17.2	0.00e+00	0	46	0	3349151744	9	3870
2026-01-19 16:04:32.68	309.40	21.27	-24.9	-25.7	17.0	0.00e+00	0	46	0	3370123264	9	3924
2026-01-19 16:04:35.68	310.00	21.01	-24.8	-25.5	17.1	0.00e+00	0	46	0	3392143360	9	3891
2026-01-19 16:04:38.68	310.58	20.74	-24.6	-25.1	17.3	0.00e+00	0	46	0	3414163456	9	3792
2026-01-19 16:04:41.69	311.16	20.48	-25.0	-25.9	16.9	0.00e+00	0	46	0	3436183552	9	3990
2026-01-19 16:04:44.71	311.73	20.22	-25.5	-26.4	16.4	0.00e+00	0	46	0	3457155072	10	3998
2026-01-19 16:04:47.72	312.29	19.95	-25.9	-26.3	15.8	0.00e+00	0	46	0	3479175168	12	3763
2026-01-19 16:04:50.72	312.84	19.69	-25.4	-25.3	16.4	0.00e+00	0	46	0	3501195264	12	3540
2026-01-19 16:04:53.72	313.38	19.43	-25.4	-25.8	16.4	0.00e+00	0	46	0	3522166784	11	3745
2026-01-19 16:04:56.72	313.91	19.16	-24.9	-24.7	17.0	0.00e+00	0	46	0	3544186880	11	3514
2026-01-19 16:04:59.73	314.44	18.90	-24.9	-24.7	17.0	0.00e+00	0	46	0	3566206976	11	3515
2026-01-19 16:05:02.74	314.95	18.64	-25.2	-25.2	16.7	0.00e+00	0	45	0	3588227072	11	3623
2026-01-19 16:05:05.74	315.46	18.38	-25.5	-25.9	16.3	0.00e+00	0	46	0	3609198592	11	3772
2026-01-19 16:05:08.73	315.95	18.12	-25.8	-26.6	15.9	0.00e+00	0	46	0	3631218688	11	3934
2026-01-19 16:05:11.73	316.44	17.86	-25.7	-26.4	16.0	0.00e+00	0	45	0	3653238784	11	3900
2026-01-19 16:05:14.74	316.92	17.60	-25.7	-26.3	16.1	0.00e+00	0	46	0	3674210304	11	3872
2026-01-19 16:05:17.75	317.40	17.34	-25.3	-25.5	16.5	0.00e+00	0	45	0	3696230400	11	3674
2026-01-19 16:05:20.75	317.86	17.09	-25.2	-25.4	16.6	0.00e+00	0	46	0	3718250496	11	3650
2026-01-19 16:05:23.76	318.32	16.83	-25.5	-25.8	16.3	0.00e+00	0	45	0	3739222016	11	3762
2026-01-19 16:05:26.76	318.77	16.58	-25.7	-26.4	16.0	0.00e+00	0	46	0	3761242112	11	3885
2026-01-19 16:05:29.76	319.21	16.32	-25.9	-26.7	15.8	0.00e+00	0	46	0	3783262208	11	3973
2026-01-19 16:05:32.77	319.65	16.07	-25.9	-26.8	15.8	0.00e+00	0	46	0	3804233728	11	3995
2026-01-19 16:05:35.78	320.08	15.82	-25.9	-26.7	15.8	0.00e+00	0	45	0	3826253824	11	3970
2026-01-19 16:05:38.79	320.50	15.57	-25.7	-26.4	15.9	0.00e+00	0	45	0	3848273920	11	3883
2026-01-19 16:05:41.80	320.91	15.32	-25.7	-26.3	16.0	0.00e+00	0	46	0	3870294016	11	3873
2026-01-19 16:05:44.80	321.32	15.07	-25.8	-26.7	15.8	0.00e+00	0	46	0	3891265536	11	3954
2026-01-19 16:05:47.82	321.73	14.82	-25.7	-26.5	15.9	0.00e+00	0	46	0	3913285632	11	3905
2026-01-19 16:05:50.84	322.12	14.57	-25.8	-26.5	15.8	0.00e+00	0	45	0	3935305728	11	3926
2026-01-19 16:05:53.85	322.51	14.33	-25.9	-26.8	15.7	0.00e+00	0	45	0	3956277248	11	3992
2026-01-19 16:05:56.86	322.90	14.09	-26.0	-27.0	15.6	0.00e+00	0	46	0	3978297344	11	4034
2026-01-19 16:05:59.86	323.27	13.84	-25.9	-26.4	15.5	0.00e+00	0	46	0	4000317440	12	3791
2026-01-19 16:06:02.86	323.64	13.60	-26.0	-26.5	15.5	0.00e+00	0	45	0	4021288960	12	3815
2026-01-19 16:06:05.88	324.01	13.36	-26.0	-26.6	15.4	0.00e+00	0	46	0	4043309056	12	3841
2026-01-19 16:06:08.88	324.37	13.13	-26.3	-27.3	14.9	0.00e+00	0	46	0	4065329152	12	4023
2026-01-19 16:06:11.90	324.73	12.89	-26.3	-27.2	15.0	0.00e+00	0	46	0	4087349248	12	3992
2026-01-19 16:06:14.92	325.08	12.65	-26.7	-27.6	14.5	2.20e-06	0	46	0	4108320768	13	3998
2026-01-19 16:06:17.93	325.42	12.42	-26.6	-27.4	14.6	0.00e+00	0	45	0	4130340864	13	3944
2026-01-19 16:06:20.92	325.76	12.19	-26.6	-27.3	14.7	0.00e+00	0	46	0	4152360960	13	3929
2026-01-19 16:06:23.93	326.09	11.96	-26.7	-27.6	14.4	2.20e-06	0	46	0	4174381056	13	4006
2026-01-19 16:06:26.95	326.42	11.73	-26.8	-27.8	14.4	1.10e-06	0	46	0	4195352576	13	4038
2026-01-19 16:06:29.95	326.74	11.50	-26.7	-27.7	14.4	0.00e+00	0	45	0	4217372672	13	4014
2026-01-19 16:06:32.96	327.06	11.27	-26.7	-27.6	14.4	4.50e-06	0	45	0	4239392768	13	3996
2026-01-19 16:06:35.96	327.38	11.04	-27.0	-27.7	14.1	4.50e-06	0	45	0	4260364288	14	3921
2026-01-19 16:06:38.98	327.69	10.82	-26.9	-27.6	14.2	1.10e-06	0	46	0	4282384384	14	3886
2026-01-19 16:06:42.00	328.00	10.60	-27.0	-27.8	14.0	4.50e-06	0	45	0	4304404480	14	3934
2026-01-19 16:06:45.01	328.30	10.37	-27.1	-28.1	13.8	5.70e-06	0	45	0	4326424576	14	4018
2026-01-19 16:06:48.01	328.59	10.15	-27.1	-28.0	13.9	8.00e-06	0	45	0	4347396096	14	3984
2026-01-19 16:06:51.02	328.88	9.93	-27.0	-27.7	14.0	6.80e-06	0	45	0	4369416192	14	3929
2026-01-19 16:06:54.02	329.17	9.72	-26.9	-27.6	14.1	0.00e+00	0	46	0	4391436288	14	3888
2026-01-19 16:06:57.04	329.46	9.50	-26.9	-27.6	14.0	2.20e-06	0	45	0	4413456384	14	3903
2026-01-19 16:07:00.05	329.74	9.28	-27.1	-28.1	13.7	3.40e-06	0	46	0	4434427904	14	4033
2026-01-19 16:07:03.05	330.01	9.07	-27.1	-28.1	13.7	1.02e-05	0	45	0	4456448000	14	4035
2026-01-19 16:07:06.06	330.29	8.86	-27.3	-28.4	13.5	1.02e-05	0	45	0	4477419520	14	4106
2026-01-19 16:07:09.07	330.56	8.65	-27.3	-28.6	13.4	1.94e-05	0	45	0	4499439616	14	4158
2026-01-19 16:07:12.08	330.82	8.44	-27.7	-28.9	12.9	7.89e-05	0	46	0	4521459712	15	4127
2026-01-19 16:07:15.09	331.08	8.23	-27.7	-28.9	12.9	5.49e-05	0	46	0	4543479808	15	4146
2026-01-19 16:07:18.11	331.34	8.02	-27.9	-29.3	12.6	8.23e-05	0	46	0	4564451328	15	4257
2026-01-19 16:07:21.13	331.60	7.81	-27.8	-29.3	12.6	8.46e-05	0	45	0	4586471424	15	4247
2026-01-19 16:07:24.14	331.85	7.61	-27.8	-28.7	12.8	6.06e-05	0	45	0	4608491520	16	3983
2026-01-19 16:07:27.15	332.10	7.40	-27.7	-28.4	13.0	3.54e-05	0	46	0	4630511616	16	3915
2026-01-19 16:07:30.17	332.34	7.20	-27.9	-28.8	12.7	8.58e-05	0	45	0	4651483136	16	4014
2026-01-19 16:07:33.17	332.58	7.00	-33.5	-43.4	3.8	8.46e-01	0	46	104	4668260352	26	11163

#Closed at: 2026-01-19 16:07:33
#Recorded file [4668 MB]: D:/data/31010_260119_185645.dat