passes_logs/2026/01/19/R2M6_AANII_01/R2M6_AANII_01__20260119_042246_FENGYUN_3E_rec.log

#Pass ID: 20260119_042246_FENGYUN 3E
#Satellite: FENGYUN 3E
#Configuration: FENGYUN 3E
#almurnet v.1.7.20240730
#Start time: 2026-01-19 04:29:20

#Version: 2.2.20231116
#Station: R2M6_AANII_01
#Location: 30.233357 lon 59.946436 lat
#TLE: 1 49008U 21062A   26017.96535346 -.00000182  00000+0 -64922-4 0  9998
#TLE: 2 49008  98.7483  23.0589 0002171 131.9722 228.1640 14.19885139235265

#Time	Az	El	Level	Level2	SNR	BER	BlckErr	Temp	State	Recorded	gain1	gain2
2026-01-19 04:29:20.36	153.88	68.80	-34.0	-45.5	3.8	8.46e-01	0	44	0	0	27	13582
2026-01-19 04:29:22.36	155.65	68.12	-34.7	-44.2	3.8	8.47e-01	0	44	104	0	29	10811
2026-01-19 04:29:24.37	157.31	67.42	-34.7	-44.2	3.8	8.46e-01	0	44	104	0	29	10835
2026-01-19 04:29:26.37	158.85	66.71	-34.7	-44.3	3.8	8.45e-01	0	44	104	0	29	10864
2026-01-19 04:29:28.38	160.30	65.99	-34.6	-44.2	3.8	8.46e-01	0	44	104	0	29	10776
2026-01-19 04:29:30.38	161.65	65.27	-34.6	-44.6	3.8	8.46e-01	0	44	104	0	28	11400
2026-01-19 04:29:32.40	162.93	64.54	-34.6	-44.5	3.8	8.46e-01	0	44	104	0	28	11261
2026-01-19 04:29:34.40	164.12	63.81	-34.5	-44.5	3.8	8.46e-01	0	44	104	0	28	11309
2026-01-19 04:29:36.41	165.25	63.08	-34.6	-44.5	3.8	8.47e-01	0	44	104	0	28	11368
2026-01-19 04:29:38.40	166.29	62.35	-34.6	-44.0	3.8	8.47e-01	0	44	104	0	29	10728
2026-01-19 04:29:40.40	167.28	61.62	-34.5	-44.4	3.8	8.45e-01	0	44	104	0	28	11293
2026-01-19 04:29:42.40	168.22	60.89	-34.4	-44.2	3.8	8.46e-01	0	44	104	0	28	11169
2026-01-19 04:29:44.40	169.10	60.16	-34.2	-43.8	3.8	8.46e-01	0	44	104	0	28	10887
2026-01-19 04:29:46.41	169.94	59.43	-34.1	-43.7	3.8	8.47e-01	0	44	104	0	28	10806
2026-01-19 04:29:48.41	170.72	58.71	-34.1	-43.6	3.8	8.46e-01	0	44	104	0	28	10795
2026-01-19 04:29:50.42	171.48	57.99	-34.1	-43.7	3.8	8.46e-01	0	44	104	0	28	10842
2026-01-19 04:29:52.42	172.18	57.27	-34.1	-43.7	3.8	8.46e-01	0	45	104	0	28	10817
2026-01-19 04:29:54.42	172.86	56.56	-34.1	-43.4	3.8	8.46e-01	0	44	104	0	28	10560
2026-01-19 04:29:56.43	173.50	55.86	-34.1	-43.4	3.8	8.46e-01	0	44	104	0	28	10463
2026-01-19 04:29:58.44	174.11	55.16	-34.1	-43.6	3.8	8.47e-01	0	44	104	0	28	10751
2026-01-19 04:30:00.45	174.70	54.46	-34.1	-43.5	3.8	8.46e-01	0	44	104	0	28	10625
2026-01-19 04:30:02.45	175.25	53.78	-33.8	-41.4	3.8	8.44e-01	0	44	104	0	28	8592
2026-01-19 04:30:04.46	175.78	53.10	-33.9	-41.7	3.8	8.45e-01	0	45	104	0	28	8856
2026-01-19 04:30:06.47	176.29	52.42	-34.1	-43.2	3.8	8.46e-01	0	45	104	0	28	10259
2026-01-19 04:30:08.48	176.77	51.75	-34.1	-43.1	3.8	8.46e-01	0	45	104	0	28	10179
2026-01-19 04:30:10.50	177.24	51.09	-33.5	-39.5	4.0	8.43e-01	0	45	104	0	28	7134
2026-01-19 04:30:12.51	177.68	50.44	-31.6	-33.9	8.1	9.95e-02	0	45	0	5242880	24	4677
2026-01-19 04:30:14.51	178.11	49.79	-26.5	-26.6	15.3	0.00e+00	0	45	0	18874368	14	3639
2026-01-19 04:30:16.51	178.51	49.16	-25.9	-26.3	16.0	0.00e+00	0	44	0	33554432	12	3772
2026-01-19 04:30:18.51	178.91	48.53	-25.4	-25.7	16.5	0.00e+00	0	44	0	48234496	11	3725
2026-01-19 04:30:20.52	179.28	47.91	-24.9	-24.7	17.3	0.00e+00	0	44	0	62914560	11	3508
2026-01-19 04:30:22.53	179.65	47.29	-25.1	-25.1	17.0	0.00e+00	0	44	0	77594624	11	3595
2026-01-19 04:30:24.54	179.99	46.68	-25.3	-25.5	16.8	0.00e+00	0	44	0	91226112	11	3676
2026-01-19 04:30:26.55	180.33	46.08	-24.4	-24.1	17.8	0.00e+00	0	45	0	105906176	10	3468
2026-01-19 04:30:28.55	180.65	45.49	-24.0	-23.7	18.2	0.00e+00	0	45	0	120586240	9	3490
2026-01-19 04:30:30.56	180.97	44.91	-23.8	-23.8	18.4	0.00e+00	0	45	0	135266304	8	3607
2026-01-19 04:30:32.57	181.27	44.33	-23.6	-23.4	18.7	0.00e+00	0	44	0	149946368	8	3523
2026-01-19 04:30:34.58	181.56	43.76	-23.6	-23.8	18.6	0.00e+00	0	44	0	164626432	7	3711
2026-01-19 04:30:36.59	181.84	43.20	-23.7	-24.2	18.4	0.00e+00	0	45	0	178257920	7	3784
2026-01-19 04:30:38.59	182.11	42.65	-23.6	-23.9	18.5	0.00e+00	0	45	0	192937984	7	3733
2026-01-19 04:30:40.60	182.38	42.10	-23.7	-24.0	18.5	0.00e+00	0	45	0	207618048	7	3759
2026-01-19 04:30:42.61	182.63	41.56	-23.6	-23.9	18.2	0.00e+00	0	45	0	222298112	7	3726
2026-01-19 04:30:44.62	182.88	41.03	-23.7	-24.1	18.5	0.00e+00	0	45	0	236978176	7	3764
2026-01-19 04:30:46.63	183.12	40.50	-24.2	-24.6	18.0	0.00e+00	0	45	0	251658240	8	3789
2026-01-19 04:30:48.63	183.35	39.99	-24.4	-25.1	17.7	0.00e+00	0	44	0	265289728	8	3913
2026-01-19 04:30:50.62	183.57	39.48	-24.4	-25.2	17.6	0.00e+00	0	44	0	279969792	8	3932
2026-01-19 04:30:52.63	183.79	38.98	-24.3	-25.0	17.8	0.00e+00	0	45	0	294649856	8	3874
2026-01-19 04:30:54.63	184.00	38.48	-23.6	-23.5	18.5	0.00e+00	0	45	0	309329920	8	3536
2026-01-19 04:30:56.64	184.20	37.99	-23.5	-23.1	18.8	0.00e+00	0	44	0	322961408	8	3454
2026-01-19 04:30:58.65	184.40	37.51	-23.4	-23.4	18.8	0.00e+00	0	45	0	337641472	7	3624
2026-01-19 04:31:00.66	184.60	37.03	-23.4	-23.5	18.7	0.00e+00	0	45	0	352321536	7	3644
2026-01-19 04:31:02.67	184.79	36.56	-23.6	-23.9	18.5	0.00e+00	0	44	0	367001600	7	3738
2026-01-19 04:31:04.68	184.97	36.10	-23.8	-24.4	18.3	0.00e+00	0	44	0	381681664	7	3846
2026-01-19 04:31:06.68	185.15	35.64	-23.9	-24.5	18.2	0.00e+00	0	45	0	396361728	7	3865
2026-01-19 04:31:08.67	185.32	35.19	-23.6	-23.9	18.5	0.00e+00	0	44	0	409993216	7	3728
2026-01-19 04:31:10.68	185.49	34.75	-23.5	-23.6	18.7	3.74e-04	0	45	0	424673280	7	3665
2026-01-19 04:31:12.69	185.66	34.31	-23.4	-23.5	18.7	6.23e-04	0	44	0	439353344	7	3647
2026-01-19 04:31:14.69	185.82	33.87	-23.2	-23.1	18.9	0.00e+00	0	44	0	454033408	7	3553
2026-01-19 04:31:16.71	185.98	33.44	-23.3	-23.9	18.8	0.00e+00	0	45	0	467664896	6	3826
2026-01-19 04:31:18.71	186.13	33.02	-23.4	-24.1	18.7	8.78e-04	0	45	0	482344960	6	3871
2026-01-19 04:31:20.72	186.28	32.61	-23.5	-24.2	18.6	1.10e-06	0	44	0	497025024	6	3909
2026-01-19 04:31:22.71	186.42	32.20	-23.6	-24.0	18.5	9.89e-04	0	44	0	511705088	7	3748
2026-01-19 04:31:24.71	186.56	31.79	-23.8	-24.3	18.3	1.03e-03	0	44	0	526385152	7	3815
2026-01-19 04:31:26.73	186.70	31.39	-23.9	-24.5	18.2	0.00e+00	0	44	0	541065216	7	3857
2026-01-19 04:31:28.73	186.84	31.00	-23.8	-24.4	18.2	1.12e-03	0	45	0	554696704	7	3853
2026-01-19 04:31:30.73	186.97	30.61	-24.1	-24.9	18.0	1.13e-03	0	44	0	569376768	7	3954
2026-01-19 04:31:32.75	187.10	30.22	-23.8	-23.8	18.3	5.70e-06	0	44	0	584056832	8	3612
2026-01-19 04:31:34.75	187.23	29.84	-23.7	-24.2	18.3	0.00e+00	0	45	0	598736896	7	3798
2026-01-19 04:31:36.75	187.35	29.47	-23.8	-24.3	18.3	1.21e-03	0	44	0	612368384	7	3819
2026-01-19 04:31:38.75	187.47	29.10	-23.9	-24.5	18.1	1.15e-04	0	45	0	627048448	7	3872
2026-01-19 04:31:40.76	187.59	28.74	-23.8	-24.4	18.2	1.32e-03	0	45	0	641728512	7	3845
2026-01-19 04:31:42.77	187.71	28.37	-23.9	-24.5	18.1	1.83e-04	0	45	0	656408576	7	3861
2026-01-19 04:31:44.78	187.82	28.02	-23.9	-24.5	18.1	0.00e+00	0	44	0	671088640	7	3867
2026-01-19 04:31:46.78	187.94	27.67	-23.7	-24.2	18.3	0.00e+00	0	44	0	685768704	7	3788
2026-01-19 04:31:48.79	188.04	27.32	-23.8	-24.4	18.2	0.00e+00	0	45	0	699400192	7	3839
2026-01-19 04:31:50.79	188.15	26.98	-23.9	-24.6	18.0	1.65e-04	0	45	0	714080256	7	3889
2026-01-19 04:31:52.79	188.26	26.64	-23.9	-24.7	18.0	0.00e+00	0	45	0	728760320	7	3910
2026-01-19 04:31:54.79	188.36	26.31	-24.1	-24.9	17.9	0.00e+00	0	44	0	743440384	7	3964
2026-01-19 04:31:56.79	188.46	25.98	-24.1	-24.5	17.8	0.00e+00	0	44	0	757071872	8	3761
2026-01-19 04:31:58.80	188.56	25.65	-24.2	-24.7	17.7	0.00e+00	0	45	0	771751936	8	3820
2026-01-19 04:32:00.80	188.66	25.33	-24.3	-24.9	17.7	0.00e+00	0	44	0	786432000	8	3858
2026-01-19 04:32:02.81	188.75	25.01	-24.3	-24.8	17.7	0.00e+00	0	45	0	801112064	8	3843
2026-01-19 04:32:04.82	188.85	24.69	-24.3	-24.9	17.6	0.00e+00	0	45	0	815792128	8	3866
2026-01-19 04:32:06.83	188.94	24.38	-24.1	-24.4	17.9	0.00e+00	0	45	0	830472192	8	3737
2026-01-19 04:32:08.84	189.03	24.07	-24.0	-24.8	17.9	0.00e+00	0	45	0	844103680	7	3935
2026-01-19 04:32:10.84	189.12	23.76	-24.2	-24.7	17.7	0.00e+00	0	45	0	858783744	8	3811
2026-01-19 04:32:12.85	189.20	23.46	-24.4	-25.1	17.5	0.00e+00	0	44	0	873463808	8	3899
2026-01-19 04:32:14.85	189.29	23.17	-23.9	-24.0	18.1	0.00e+00	0	45	0	888143872	8	3653
2026-01-19 04:32:16.86	189.37	22.87	-23.8	-24.3	18.1	0.00e+00	0	45	0	901775360	7	3826
2026-01-19 04:32:18.86	189.46	22.58	-23.9	-24.6	18.0	0.00e+00	0	45	0	917504000	7	3900
2026-01-19 04:32:20.86	189.54	22.29	-23.7	-24.2	18.1	0.00e+00	0	44	0	931135488	7	3811
2026-01-19 04:32:22.87	189.62	22.01	-23.8	-24.3	18.1	1.10e-06	0	44	0	945815552	7	3836
2026-01-19 04:32:24.87	189.70	21.73	-23.9	-24.5	18.0	0.00e+00	0	44	0	960495616	7	3874
2026-01-19 04:32:26.87	189.77	21.45	-23.9	-24.6	18.0	0.00e+00	0	44	0	975175680	7	3890
2026-01-19 04:32:28.87	189.85	21.18	-24.0	-24.7	17.9	1.10e-06	0	45	0	988807168	7	3929
2026-01-19 04:32:30.88	189.92	20.90	-24.0	-24.7	17.9	0.00e+00	0	44	0	1003487232	7	3931
2026-01-19 04:32:32.88	190.00	20.63	-24.4	-25.2	17.4	0.00e+00	0	44	0	1018167296	8	3929
2026-01-19 04:32:34.89	190.07	20.37	-24.1	-24.6	17.7	1.10e-06	0	44	0	1032847360	8	3788
2026-01-19 04:32:36.90	190.14	20.10	-24.3	-24.8	17.5	0.00e+00	0	45	0	1047527424	8	3846
2026-01-19 04:32:38.89	190.21	19.84	-24.3	-25.0	17.5	0.00e+00	0	45	0	1061158912	8	3880
2026-01-19 04:32:40.90	190.28	19.58	-24.4	-25.1	17.4	4.50e-06	0	44	0	1075838976	8	3901
2026-01-19 04:32:42.90	190.35	19.33	-24.4	-25.2	17.3	0.00e+00	0	44	0	1090519040	8	3933
2026-01-19 04:32:44.91	190.42	19.07	-24.9	-25.6	16.8	0.00e+00	0	45	0	1105199104	9	3930
2026-01-19 04:32:46.91	190.48	18.82	-24.6	-25.1	17.1	0.00e+00	0	45	0	1119879168	9	3795
2026-01-19 04:32:48.92	190.55	18.57	-24.6	-25.1	17.1	0.00e+00	0	45	0	1133510656	9	3800
2026-01-19 04:32:50.92	190.61	18.33	-24.7	-25.2	17.0	0.00e+00	0	45	0	1148190720	9	3835
2026-01-19 04:32:52.93	190.68	18.09	-24.8	-25.5	16.9	0.00e+00	0	44	0	1162870784	9	3898
2026-01-19 04:32:54.94	190.74	17.84	-24.9	-25.6	16.8	0.00e+00	0	44	0	1177550848	9	3916
2026-01-19 04:32:56.95	190.80	17.60	-24.9	-25.8	16.7	0.00e+00	0	45	0	1192230912	9	3962
2026-01-19 04:32:58.96	190.86	17.37	-25.0	-25.4	16.5	0.00e+00	0	45	0	1206910976	10	3755
2026-01-19 04:33:00.96	190.92	17.13	-25.1	-25.5	16.6	0.00e+00	0	45	0	1220542464	10	3800
2026-01-19 04:33:02.96	190.98	16.90	-25.2	-25.8	16.4	0.00e+00	0	45	0	1235222528	10	3854
2026-01-19 04:33:04.97	191.04	16.67	-25.2	-25.8	16.4	0.00e+00	0	45	0	1249902592	10	3867
2026-01-19 04:33:06.98	191.09	16.44	-25.5	-26.4	16.1	0.00e+00	0	44	0	1264582656	10	4007
2026-01-19 04:33:08.97	191.15	16.22	-25.6	-26.7	15.9	0.00e+00	0	45	0	1278214144	10	4072
2026-01-19 04:33:10.97	191.21	16.00	-25.7	-26.4	15.9	0.00e+00	0	45	0	1292894208	11	3897
2026-01-19 04:33:12.99	191.26	15.77	-25.7	-26.4	15.8	1.00e-03	0	45	0	1307574272	11	3915
2026-01-19 04:33:14.99	191.32	15.55	-25.8	-26.6	15.7	0.00e+00	0	45	0	1322254336	11	3947
2026-01-19 04:33:17.00	191.37	15.34	-25.6	-26.3	15.8	0.00e+00	0	44	0	1336934400	11	3877
2026-01-19 04:33:19.01	191.42	15.12	-25.6	-26.2	15.9	1.06e-03	0	45	0	1350565888	11	3846
2026-01-19 04:33:21.01	191.48	14.91	-25.7	-26.4	15.7	1.05e-03	0	45	0	1365245952	11	3901
2026-01-19 04:33:23.02	191.53	14.69	-26.0	-27.1	15.4	0.00e+00	0	45	0	1379926016	11	4080
2026-01-19 04:33:25.03	191.58	14.48	-25.7	-26.5	15.6	9.91e-04	0	45	0	1394606080	11	3936
2026-01-19 04:33:27.05	191.63	14.27	-25.8	-26.7	15.6	1.14e-03	0	45	0	1409286144	11	3974
2026-01-19 04:33:29.05	191.68	14.07	-26.0	-26.7	15.2	0.00e+00	0	45	0	1423966208	12	3879
2026-01-19 04:33:31.06	191.73	13.86	-25.8	-26.7	15.5	1.05e-03	0	44	0	1437597696	11	3981
2026-01-19 04:33:33.06	191.78	13.66	-25.8	-26.6	15.6	1.05e-03	0	45	0	1452277760	11	3968
2026-01-19 04:33:35.06	191.83	13.46	-25.9	-27.0	15.4	0.00e+00	0	45	0	1466957824	11	4053
2026-01-19 04:33:37.07	191.87	13.26	-25.9	-26.9	15.4	0.00e+00	0	45	0	1481637888	11	4021
2026-01-19 04:33:39.08	191.92	13.06	-25.9	-27.0	15.3	0.00e+00	0	44	0	1496317952	11	4048
2026-01-19 04:33:41.08	191.97	12.86	-26.0	-27.2	15.2	1.10e-06	0	45	0	1509949440	11	4101
2026-01-19 04:33:43.09	192.01	12.67	-26.1	-27.2	15.2	9.66e-04	0	45	0	1524629504	11	4121
2026-01-19 04:33:45.10	192.06	12.47	-26.1	-26.9	15.0	0.00e+00	0	45	0	1539309568	12	3930
2026-01-19 04:33:47.11	192.10	12.28	-26.2	-27.1	14.9	0.00e+00	0	45	0	1553989632	12	3978
2026-01-19 04:33:49.11	192.15	12.09	-26.2	-27.0	14.9	0.00e+00	0	44	0	1568669696	12	3959
2026-01-19 04:33:51.11	192.19	11.90	-26.3	-27.3	14.7	0.00e+00	0	45	0	1583349760	12	4034
2026-01-19 04:33:53.12	192.24	11.71	-26.4	-27.6	14.6	0.00e+00	0	44	0	1596981248	12	4100
2026-01-19 04:33:55.12	192.28	11.53	-26.6	-27.5	14.3	0.00e+00	0	45	0	1611661312	13	3988
2026-01-19 04:33:57.12	192.32	11.34	-26.5	-27.2	14.5	1.10e-06	0	45	0	1626341376	13	3904
2026-01-19 04:33:59.13	192.36	11.16	-26.4	-27.6	14.5	2.20e-06	0	45	0	1641021440	12	4113
2026-01-19 04:34:01.12	192.41	10.98	-26.6	-27.9	14.3	0.00e+00	0	45	0	1654652928	12	4203
2026-01-19 04:34:03.13	192.45	10.80	-26.6	-27.5	14.3	3.40e-06	0	45	0	1669332992	13	3986
2026-01-19 04:34:05.14	192.49	10.62	-26.7	-27.6	14.2	2.20e-06	0	45	0	1684013056	13	4015
2026-01-19 04:34:07.14	192.53	10.44	-26.8	-27.8	14.1	0.00e+00	0	45	0	1698693120	13	4067
2026-01-19 04:34:09.15	192.57	10.26	-26.8	-27.8	14.0	3.40e-06	0	45	0	1713373184	13	4076
2026-01-19 04:34:11.15	192.61	10.09	-26.8	-27.9	14.0	3.40e-06	0	44	0	1727004672	13	4081
2026-01-19 04:34:13.16	192.65	9.91	-27.1	-28.0	13.6	4.50e-06	0	45	0	1741684736	14	4015
2026-01-19 04:34:15.16	192.68	9.74	-26.9	-28.1	13.9	4.50e-06	0	44	0	1756364800	13	4146
2026-01-19 04:34:17.16	192.72	9.57	-26.9	-28.1	13.9	6.80e-06	0	44	0	1771044864	13	4145
2026-01-19 04:34:19.17	192.76	9.40	-27.1	-28.1	13.5	1.10e-06	0	45	0	1785724928	14	4047
2026-01-19 04:34:21.18	192.80	9.23	-27.2	-28.3	13.5	1.83e-05	0	45	0	1800404992	14	4089
2026-01-19 04:34:23.18	192.84	9.06	-27.1	-28.0	13.6	1.48e-05	0	45	0	1814036480	14	4019
2026-01-19 04:34:25.19	192.87	8.89	-27.2	-28.3	13.4	1.60e-05	0	45	0	1828716544	14	4089
2026-01-19 04:34:27.19	192.91	8.73	-27.1	-28.2	13.5	9.10e-06	0	45	0	1843396608	14	4064
2026-01-19 04:34:29.19	192.95	8.56	-27.1	-28.1	13.5	9.10e-06	0	45	0	1858076672	14	4035
2026-01-19 04:34:31.20	192.98	8.40	-27.3	-28.6	13.2	2.17e-05	0	45	0	1871708160	14	4171
2026-01-19 04:34:33.21	193.02	8.23	-27.3	-28.6	13.2	4.00e-05	0	44	0	1886388224	14	4176
2026-01-19 04:34:35.22	193.05	8.07	-27.2	-28.4	13.3	1.94e-05	0	45	0	1901068288	14	4130
2026-01-19 04:34:37.23	193.09	7.91	-27.1	-28.1	13.4	2.40e-05	0	45	0	1915748352	14	4049
2026-01-19 04:34:39.24	193.12	7.75	-27.2	-28.4	13.2	2.28e-05	0	45	0	1930428416	14	4129
2026-01-19 04:34:41.26	193.16	7.59	-27.2	-28.3	13.3	1.48e-05	0	44	0	1945108480	14	4095
2026-01-19 04:34:43.26	193.19	7.43	-27.3	-28.5	13.1	3.31e-05	0	45	0	1959788544	14	4163
2026-01-19 04:34:45.26	193.22	7.28	-27.2	-28.5	13.2	3.89e-05	0	45	0	1973420032	14	4143
2026-01-19 04:34:47.26	193.26	7.12	-29.0	-31.1	11.1	3.66e-05	0	45	0	1988100096	17	4580
2026-01-19 04:34:49.27	193.29	6.97	-33.7	-43.3	3.8	8.46e-01	0	45	104	1989148672	27	10928
2026-01-19 04:34:51.28	193.32	6.81	-34.0	-43.5	3.8	8.45e-01	0	45	104	1989148672	28	10674

#Closed at: 2026-01-19 04:34:51
#Recorded file [1989 MB]: D:/data/31010_260119_073011.dat