passes_logs/2026/01/19/R2M6_AANII_01/R2M6_AANII_01__20260119_020109_NOAA_20_JPSS-1_rec.log

#Pass ID: 20260119_020109_NOAA 20 (JPSS-1)
#Satellite: NOAA 20 (JPSS-1)
#Configuration: NOAA 20
#almurnet v.1.7.20240730
#Start time: 2026-01-19 02:01:10

#Version: 2.2.20231116
#Station: R2M6_AANII_01
#Location: 30.233357 lon 59.946436 lat
#TLE: 1 43013U 17073A   26017.93796159  .00000077  00000+0  57252-4 0  9992
#TLE: 2 43013  98.7639 318.8464 0001390  34.9771 325.1496 14.19536703423157

#Time	Az	El	Level	Level2	SNR	BER	BlckErr	Temp	State	Recorded	gain1	gain2
2026-01-19 02:01:10.32	11.13	7.06	-32.6	-40.4	4.5	1.36e+00	0	42	0	0	25	8901
2026-01-19 02:01:13.33	10.88	7.26	-32.5	-39.9	6.3	2.56e-01	0	42	0	1048576	25	8448
2026-01-19 02:01:16.34	10.64	7.46	-32.5	-39.6	6.6	2.23e-01	0	42	0	7340032	25	8142
2026-01-19 02:01:19.34	10.39	7.67	-32.6	-40.2	6.2	2.82e-01	0	42	0	12582912	25	8606
2026-01-19 02:01:22.35	10.14	7.87	-32.1	-37.9	8.4	5.87e-02	0	42	0	17825792	24	7002
2026-01-19 02:01:25.36	9.88	8.08	-31.5	-36.1	10.2	7.46e-03	0	42	0	24117248	23	6100
2026-01-19 02:01:28.38	9.62	8.28	-31.5	-35.9	10.4	5.91e-03	0	42	0	29360128	23	6018
2026-01-19 02:01:31.38	9.36	8.49	-31.5	-36.0	10.3	4.95e-03	0	42	0	35651584	23	6039
2026-01-19 02:01:34.38	9.09	8.70	-31.6	-36.3	10.1	5.97e-03	0	42	0	40894464	23	6186
2026-01-19 02:01:37.38	8.82	8.91	-31.6	-36.3	10.2	7.19e-03	0	43	0	46137344	23	6178
2026-01-19 02:01:40.39	8.54	9.12	-31.6	-36.1	10.3	4.80e-03	0	43	0	52428800	23	6093
2026-01-19 02:01:43.39	8.26	9.34	-31.5	-35.9	10.6	4.26e-03	0	43	0	57671680	23	5950
2026-01-19 02:01:46.39	7.98	9.55	-31.4	-35.5	10.8	2.43e-03	0	43	0	62914560	23	5790
2026-01-19 02:01:49.40	7.69	9.77	-31.6	-36.1	10.4	3.28e-03	0	43	0	69206016	23	6057
2026-01-19 02:01:52.41	7.39	9.98	-31.6	-36.3	10.3	6.59e-03	0	43	0	74448896	23	6150
2026-01-19 02:01:55.42	7.09	10.20	-31.5	-36.0	10.6	3.30e-03	0	43	0	80740352	23	5987
2026-01-19 02:01:58.42	6.79	10.42	-31.5	-35.7	10.8	2.73e-03	0	43	0	85983232	23	5859
2026-01-19 02:02:01.43	6.48	10.64	-31.5	-35.7	10.8	2.45e-03	0	43	0	91226112	23	5858
2026-01-19 02:02:04.43	6.17	10.86	-31.2	-35.4	11.4	1.04e-03	0	43	0	97517568	22	5814
2026-01-19 02:02:07.43	5.86	11.08	-31.3	-35.6	11.3	1.32e-03	0	43	0	102760448	22	5886
2026-01-19 02:02:10.44	5.53	11.30	-30.6	-34.9	11.4	1.03e-03	0	43	0	108003328	22	5889
2026-01-19 02:02:13.45	5.21	11.53	-31.4	-35.8	10.7	1.18e-03	0	43	0	114294784	22	5973
2026-01-19 02:02:16.44	4.88	11.75	-31.6	-36.0	10.7	3.63e-03	0	43	0	119537664	23	5969
2026-01-19 02:02:19.45	4.54	11.98	-31.5	-35.8	10.8	1.99e-03	0	43	0	125829120	23	5900
2026-01-19 02:02:22.46	4.19	12.21	-31.6	-36.1	10.6	3.53e-03	0	43	0	131072000	23	6006
2026-01-19 02:02:25.46	3.85	12.43	-31.5	-35.7	11.0	4.74e-03	0	43	0	136314880	23	5797
2026-01-19 02:02:28.46	3.49	12.66	-31.6	-35.9	10.8	5.62e-03	0	43	0	142606336	23	5900
2026-01-19 02:02:31.47	3.13	12.89	-31.5	-36.0	11.1	1.04e-03	0	43	0	147849216	22	6074
2026-01-19 02:02:34.48	2.77	13.13	-31.7	-36.4	10.5	4.22e-03	0	44	0	153092096	23	6141
2026-01-19 02:02:37.48	2.39	13.36	-31.8	-36.8	10.2	5.28e-03	0	43	0	159383552	23	6340
2026-01-19 02:02:40.49	2.02	13.59	-31.7	-36.3	10.6	3.25e-03	0	43	0	164626432	23	6082
2026-01-19 02:02:43.50	1.63	13.83	-31.3	-35.3	11.8	3.19e-03	0	43	0	170917888	22	5716
2026-01-19 02:02:46.51	1.24	14.06	-31.4	-35.8	11.3	3.74e-03	0	43	0	176160768	22	5978
2026-01-19 02:02:49.53	0.84	14.30	-31.4	-35.9	11.3	3.38e-03	0	44	0	181403648	22	5989
2026-01-19 02:02:52.53	0.44	14.54	-31.3	-35.6	11.6	3.31e-03	0	43	0	187695104	22	5856
2026-01-19 02:02:55.54	0.03	14.78	-31.1	-34.8	12.2	2.82e-03	0	44	0	192937984	22	5501
2026-01-19 02:02:58.55	359.61	15.02	-31.0	-34.4	12.4	2.62e-03	0	44	0	198180864	22	5340
2026-01-19 02:03:01.56	359.19	15.26	-31.0	-34.5	12.4	2.75e-03	0	44	0	204472320	22	5379
2026-01-19 02:03:04.56	358.76	15.50	-31.0	-34.4	12.5	2.59e-03	0	44	0	209715200	22	5325
2026-01-19 02:03:07.57	358.32	15.74	-31.0	-34.8	12.5	2.33e-03	0	44	0	216006656	21	5608
2026-01-19 02:03:10.57	357.87	15.98	-30.8	-34.3	12.8	2.47e-03	0	44	0	221249536	21	5409
2026-01-19 02:03:13.58	357.42	16.22	-30.7	-34.1	13.0	2.34e-03	0	44	0	226492416	21	5309
2026-01-19 02:03:16.59	356.96	16.47	-30.9	-34.6	12.7	8.85e-05	0	44	0	232783872	21	5504
2026-01-19 02:03:19.59	356.49	16.71	-30.8	-34.3	12.9	5.18e-05	0	44	0	238026752	21	5415
2026-01-19 02:03:22.59	356.02	16.96	-30.9	-34.6	12.7	2.31e-03	0	44	0	244318208	21	5506
2026-01-19 02:03:25.60	355.53	17.20	-30.8	-34.3	12.9	1.80e-03	0	44	0	249561088	21	5383
2026-01-19 02:03:28.61	355.04	17.45	-31.0	-34.5	12.5	1.60e-03	0	44	0	254803968	22	5353
2026-01-19 02:03:31.62	354.54	17.69	-31.1	-34.6	12.4	1.60e-03	0	44	0	261095424	22	5378
2026-01-19 02:03:34.63	354.03	17.94	-31.1	-34.7	12.4	1.70e-04	0	44	0	266338304	22	5420
2026-01-19 02:03:37.63	353.51	18.18	-31.2	-35.0	12.2	2.52e-04	0	44	0	271581184	22	5568
2026-01-19 02:03:40.64	352.99	18.43	-31.2	-35.1	12.2	2.55e-04	0	44	0	277872640	22	5592
2026-01-19 02:03:43.64	352.45	18.67	-31.3	-35.2	12.0	2.88e-04	0	44	0	283115520	22	5659
2026-01-19 02:03:46.65	351.91	18.92	-31.4	-35.4	11.9	3.64e-04	0	44	0	289406976	22	5716
2026-01-19 02:03:49.65	351.36	19.16	-31.3	-35.2	12.1	8.03e-04	0	44	0	294649856	22	5657
2026-01-19 02:03:52.67	350.80	19.41	-31.2	-34.9	12.3	1.98e-04	0	44	0	299892736	22	5522
2026-01-19 02:03:55.68	350.22	19.65	-31.3	-35.1	12.2	1.20e-04	0	44	0	306184192	22	5603
2026-01-19 02:03:58.69	349.64	19.89	-31.1	-34.5	12.7	1.05e-04	0	44	0	311427072	22	5327
2026-01-19 02:04:01.69	349.06	20.13	-31.2	-34.9	12.3	1.62e-04	0	44	0	316669952	22	5508
2026-01-19 02:04:04.69	348.46	20.38	-31.1	-34.7	12.5	1.72e-04	0	44	0	322961408	22	5433
2026-01-19 02:04:07.68	347.85	20.61	-30.9	-34.1	12.9	5.11e-05	0	44	0	328204288	22	5178
2026-01-19 02:04:10.69	347.24	20.85	-30.8	-33.6	13.2	2.36e-05	0	44	0	334495744	22	4992
2026-01-19 02:04:13.70	346.61	21.09	-30.7	-33.9	13.4	1.60e-05	0	44	0	339738624	21	5220
2026-01-19 02:04:16.71	345.97	21.33	-29.7	-32.7	13.6	1.60e-05	0	44	0	344981504	21	5055
2026-01-19 02:04:19.72	345.32	21.56	-30.6	-33.6	12.5	6.10e-06	0	44	0	351272960	21	5107
2026-01-19 02:04:22.73	344.66	21.80	-30.1	-32.9	14.3	7.00e-07	0	44	0	356515840	20	4961
2026-01-19 02:04:25.74	343.99	22.03	-30.4	-33.6	13.9	3.00e-06	0	44	0	361758720	20	5221
2026-01-19 02:04:28.74	343.32	22.26	-30.2	-33.1	14.2	7.00e-07	0	44	0	368050176	20	5030
2026-01-19 02:04:31.73	342.63	22.48	-29.9	-32.9	14.8	2.37e-03	0	44	0	373293056	19	5036
2026-01-19 02:04:34.74	341.94	22.70	-30.1	-32.8	14.4	2.31e-03	0	44	0	379584512	20	4915
2026-01-19 02:04:37.74	341.23	22.92	-30.0	-32.6	14.6	0.00e+00	0	44	0	384827392	20	4853
2026-01-19 02:04:40.76	340.51	23.14	-30.0	-32.4	14.6	0.00e+00	0	44	0	390070272	20	4792
2026-01-19 02:04:43.77	339.78	23.36	-30.1	-32.7	14.5	0.00e+00	0	44	0	396361728	20	4868
2026-01-19 02:04:46.77	339.04	23.57	-30.2	-33.0	14.4	7.00e-07	0	44	0	401604608	20	4970
2026-01-19 02:04:49.78	338.29	23.78	-30.1	-32.8	14.5	2.46e-03	0	44	0	406847488	20	4905
2026-01-19 02:04:52.79	337.53	23.98	-30.0	-32.5	14.7	2.17e-03	0	44	0	413138944	20	4807
2026-01-19 02:04:55.81	336.76	24.18	-30.2	-33.1	14.3	2.49e-03	0	44	0	418381824	20	5030
2026-01-19 02:04:58.82	335.98	24.38	-30.2	-33.0	14.4	2.38e-03	0	44	0	424673280	20	4968
2026-01-19 02:05:01.82	335.19	24.57	-30.4	-33.7	13.9	2.16e-03	0	44	0	429916160	20	5239
2026-01-19 02:05:04.83	334.40	24.76	-30.2	-33.2	14.3	7.67e-04	0	44	0	435159040	20	5036
2026-01-19 02:05:07.83	333.59	24.94	-30.4	-33.4	14.1	2.19e-03	0	44	0	441450496	20	5132
2026-01-19 02:05:10.83	332.77	25.12	-30.1	-32.8	14.5	2.02e-03	0	44	0	446693376	20	4897
2026-01-19 02:05:13.83	331.95	25.29	-29.9	-32.7	14.9	2.27e-03	0	44	0	451936256	19	4975
2026-01-19 02:05:16.84	331.11	25.46	-30.1	-32.8	14.5	2.23e-03	0	44	0	458227712	20	4921
2026-01-19 02:05:19.85	330.27	25.62	-29.9	-32.3	14.9	8.12e-04	0	44	0	463470592	20	4727
2026-01-19 02:05:22.85	329.42	25.77	-29.8	-32.6	15.0	0.00e+00	0	44	0	469762048	19	4928
2026-01-19 02:05:25.86	328.56	25.92	-29.9	-32.8	14.9	0.00e+00	0	44	0	475004928	19	5008
2026-01-19 02:05:28.86	327.69	26.06	-30.0	-32.9	14.8	5.56e-05	0	44	0	480247808	19	5065
2026-01-19 02:05:31.87	326.81	26.20	-29.8	-32.5	15.0	4.04e-04	0	44	0	486539264	19	4893
2026-01-19 02:05:34.89	325.92	26.33	-30.2	-33.1	14.4	3.15e-04	0	44	0	491782144	20	5015
2026-01-19 02:05:37.91	325.03	26.45	-30.3	-33.4	14.1	1.91e-03	0	44	0	497025024	20	5121
2026-01-19 02:05:40.92	324.13	26.57	-30.6	-33.5	13.7	3.80e-06	0	44	0	503316480	21	5047
2026-01-19 02:05:43.92	323.23	26.67	-30.9	-34.5	13.1	2.21e-05	0	44	0	508559360	21	5423
2026-01-19 02:05:46.93	322.32	26.77	-31.1	-34.5	12.8	4.19e-05	0	44	0	514850816	22	5322
2026-01-19 02:05:49.94	321.40	26.87	-31.1	-34.4	12.8	7.55e-05	0	44	0	520093696	22	5291
2026-01-19 02:05:52.95	320.48	26.95	-31.2	-34.7	12.6	9.38e-05	0	44	0	525336576	22	5413
2026-01-19 02:05:55.96	319.55	27.03	-31.5	-35.6	12.1	3.32e-03	0	44	0	531628032	22	5768
2026-01-19 02:05:58.97	318.62	27.10	-31.1	-34.6	12.7	7.55e-05	0	44	0	536870912	22	5355
2026-01-19 02:06:01.97	317.69	27.16	-31.1	-34.6	12.7	6.79e-05	0	44	0	542113792	22	5344
2026-01-19 02:06:04.99	316.74	27.21	-31.1	-34.5	12.8	7.55e-05	0	44	0	548405248	22	5318
2026-01-19 02:06:07.99	315.81	27.25	-31.1	-34.6	12.7	7.40e-05	0	44	0	553648128	22	5347
2026-01-19 02:06:10.99	314.87	27.29	-31.2	-34.6	12.7	8.01e-05	0	44	0	559939584	22	5353
2026-01-19 02:06:14.01	313.92	27.31	-31.3	-35.0	12.5	8.23e-05	0	44	0	565182464	22	5509
2026-01-19 02:06:17.03	312.97	27.33	-31.4	-35.3	12.2	1.74e-04	0	44	0	570425344	22	5654
2026-01-19 02:06:20.02	312.03	27.34	-31.2	-34.7	12.7	4.74e-04	0	44	0	576716800	22	5385
2026-01-19 02:06:23.04	311.07	27.34	-31.4	-35.4	12.2	1.85e-04	0	44	0	581959680	22	5673
2026-01-19 02:06:26.06	310.12	27.33	-31.0	-34.6	13.1	2.51e-05	0	44	0	588251136	21	5449
2026-01-19 02:06:29.07	309.18	27.31	-30.8	-34.2	13.3	1.75e-05	0	44	0	593494016	21	5312
2026-01-19 02:06:32.07	308.23	27.29	-30.8	-34.2	13.3	3.20e-05	0	44	0	598736896	21	5304
2026-01-19 02:06:35.09	307.29	27.25	-30.7	-33.8	13.6	1.06e-05	0	44	0	605028352	21	5152
2026-01-19 02:06:38.10	306.34	27.21	-30.6	-33.5	13.8	4.62e-04	0	44	0	610271232	21	5061
2026-01-19 02:06:41.11	305.40	27.16	-30.6	-33.6	13.7	3.07e-04	0	44	0	615514112	21	5065
2026-01-19 02:06:44.11	304.47	27.10	-30.2	-33.0	14.4	2.08e-04	0	44	0	621805568	20	4970
2026-01-19 02:06:47.11	303.54	27.03	-30.0	-32.4	14.7	1.79e-04	0	44	0	627048448	20	4774
2026-01-19 02:06:50.11	302.62	26.95	-30.0	-32.5	14.7	0.00e+00	0	44	0	633339904	20	4786
2026-01-19 02:06:53.12	301.69	26.87	-29.9	-32.7	14.9	0.00e+00	0	44	0	638582784	19	4978
2026-01-19 02:06:56.13	300.78	26.78	-29.8	-32.6	15.0	3.26e-04	0	44	0	643825664	19	4928
2026-01-19 02:06:59.14	299.86	26.68	-29.6	-32.0	15.3	1.43e-04	0	44	0	650117120	19	4738
2026-01-19 02:07:02.14	298.96	26.57	-29.8	-32.6	15.0	3.80e-06	0	44	0	655360000	19	4938
2026-01-19 02:07:05.15	298.06	26.46	-29.9	-32.8	14.9	7.47e-05	0	44	0	660602880	19	5020
2026-01-19 02:07:08.15	297.17	26.33	-30.2	-33.1	14.3	5.79e-05	0	44	0	666894336	20	5017
2026-01-19 02:07:11.16	296.28	26.21	-30.0	-32.4	14.7	4.50e-05	0	44	0	672137216	20	4789
2026-01-19 02:07:14.18	295.40	26.07	-30.3	-33.2	14.2	2.20e-06	0	44	0	678428672	20	5054
2026-01-19 02:07:17.18	294.53	25.93	-30.4	-33.1	13.9	6.10e-06	0	44	0	683671552	21	4911
2026-01-19 02:07:20.19	293.66	25.78	-30.4	-33.2	13.9	2.20e-06	0	44	0	688914432	21	4936
2026-01-19 02:07:23.20	292.81	25.62	-30.4	-33.7	13.8	6.80e-06	0	44	0	695205888	20	5258
2026-01-19 02:07:26.21	291.96	25.46	-30.6	-33.7	13.5	1.20e-04	0	44	0	700448768	21	5130
2026-01-19 02:07:29.22	291.12	25.30	-31.0	-34.7	12.9	3.20e-05	0	44	0	706740224	21	5505
2026-01-19 02:07:32.22	290.30	25.12	-31.1	-34.5	12.6	1.24e-04	0	44	0	711983104	22	5342
2026-01-19 02:07:35.23	289.48	24.95	-30.9	-34.4	13.0	5.18e-05	0	44	0	717225984	21	5404
2026-01-19 02:07:38.24	288.66	24.76	-30.9	-34.4	13.0	3.89e-05	0	44	0	723517440	21	5411
2026-01-19 02:07:41.24	287.87	24.58	-31.1	-34.6	12.6	3.23e-04	0	44	0	728760320	22	5391
2026-01-19 02:07:44.26	287.07	24.38	-31.1	-34.5	12.7	3.66e-04	0	44	0	734003200	22	5321
2026-01-19 02:07:47.27	286.29	24.19	-31.1	-34.5	12.6	7.09e-05	0	44	0	740294656	22	5337
2026-01-19 02:07:50.27	285.52	23.99	-31.0	-34.3	12.8	7.70e-05	0	44	0	745537536	22	5263
2026-01-19 02:07:53.28	284.76	23.78	-31.0	-34.4	12.6	1.17e-04	0	44	0	751828992	22	5323
2026-01-19 02:07:56.29	284.01	23.57	-30.9	-34.6	12.8	4.27e-05	0	44	0	757071872	21	5502
2026-01-19 02:07:59.30	283.26	23.36	-30.9	-34.0	12.9	6.71e-05	0	44	0	762314752	22	5133
2026-01-19 02:08:02.30	282.53	23.14	-30.5	-33.5	13.5	1.37e-05	0	44	0	768606208	21	5080
2026-01-19 02:08:05.31	281.81	22.92	-30.5	-33.4	13.6	8.30e-06	0	44	0	773849088	21	5031
2026-01-19 02:08:08.30	281.11	22.70	-30.2	-32.7	14.1	3.80e-06	0	44	0	779091968	21	4780
2026-01-19 02:08:11.30	280.41	22.48	-30.4	-33.7	13.7	8.30e-06	0	44	0	785383424	20	5259
2026-01-19 02:08:14.30	279.72	22.25	-30.3	-33.5	13.8	7.60e-06	0	44	0	790626304	20	5202
2026-01-19 02:08:17.32	279.03	22.02	-30.4	-33.8	13.6	1.14e-05	0	44	0	796917760	20	5294
2026-01-19 02:08:20.33	278.36	21.79	-30.0	-33.0	14.5	1.50e-06	0	44	0	802160640	19	5107
2026-01-19 02:08:23.33	277.70	21.56	-29.9	-32.9	14.6	1.50e-06	0	44	0	807403520	19	5076
2026-01-19 02:08:26.33	277.05	21.32	-30.0	-32.7	14.3	2.54e-03	0	44	0	813694976	20	4912
2026-01-19 02:08:29.34	276.41	21.09	-30.1	-32.8	14.2	2.45e-03	0	44	0	818937856	20	4945
2026-01-19 02:08:32.34	275.78	20.85	-30.0	-33.0	14.4	2.20e-06	0	44	0	824180736	19	5129
2026-01-19 02:08:35.37	275.16	20.61	-29.9	-32.9	14.5	0.00e+00	0	44	0	830472192	19	5080
2026-01-19 02:08:38.38	274.55	20.37	-29.9	-32.8	14.6	0.00e+00	0	44	0	835715072	19	5033
2026-01-19 02:08:41.38	273.95	20.13	-29.4	-32.2	15.3	0.00e+00	0	44	0	842006528	18	4938
2026-01-19 02:08:44.39	273.35	19.88	-29.5	-32.3	15.2	2.15e-03	0	44	0	847249408	18	4981
2026-01-19 02:08:47.40	272.77	19.64	-29.7	-32.4	14.8	1.65e-03	0	44	0	852492288	19	4892
2026-01-19 02:08:50.42	272.20	19.39	-29.2	-31.6	15.6	1.93e-03	0	44	0	858783744	18	4740
2026-01-19 02:08:53.44	271.63	19.15	-29.1	-31.3	15.7	2.15e-03	0	44	0	864026624	18	4643
2026-01-19 02:08:56.45	271.07	18.90	-29.2	-31.5	15.6	1.87e-03	0	44	0	869269504	18	4719
2026-01-19 02:08:59.46	270.53	18.65	-29.2	-31.5	15.6	0.00e+00	0	44	0	875560960	18	4731
2026-01-19 02:09:02.47	269.99	18.41	-29.3	-31.8	15.4	2.19e-03	0	44	0	880803840	18	4816
2026-01-19 02:09:05.48	269.46	18.16	-29.1	-31.5	15.6	1.99e-03	0	44	0	887095296	18	4707
2026-01-19 02:09:08.49	268.94	17.92	-29.4	-32.3	15.1	2.30e-03	0	44	0	892338176	18	4976
2026-01-19 02:09:11.50	268.43	17.67	-29.6	-32.2	14.8	2.29e-03	0	44	0	897581056	19	4849
2026-01-19 02:09:14.52	267.92	17.42	-29.4	-31.7	15.1	1.92e-03	0	44	0	903872512	19	4699
2026-01-19 02:09:17.52	267.43	17.18	-29.5	-32.0	14.9	0.00e+00	0	44	0	909115392	19	4789
2026-01-19 02:09:20.54	266.94	16.93	-29.7	-32.5	14.6	3.00e-06	0	44	0	915406848	19	4955
2026-01-19 02:09:23.54	266.46	16.69	-29.5	-32.0	14.9	0.00e+00	0	44	0	920649728	19	4798
2026-01-19 02:09:26.55	265.99	16.44	-29.6	-32.3	14.7	2.93e-03	0	44	0	925892608	19	4878
2026-01-19 02:09:29.56	265.53	16.20	-30.0	-33.2	14.1	2.55e-03	0	44	0	932184064	19	5203
2026-01-19 02:09:32.57	265.07	15.95	-30.3	-33.7	13.4	2.40e-03	0	44	0	937426944	20	5305
2026-01-19 02:09:35.58	264.62	15.71	-30.5	-33.7	13.0	2.82e-05	0	44	0	942669824	21	5207
2026-01-19 02:09:38.58	264.18	15.47	-30.5	-33.6	13.1	4.88e-05	0	44	0	948961280	21	5156
2026-01-19 02:09:41.60	263.75	15.22	-30.4	-33.9	13.2	3.50e-05	0	44	0	954204160	20	5374
2026-01-19 02:09:44.60	263.32	14.98	-30.4	-34.0	13.1	4.19e-05	0	44	0	960495616	20	5451
2026-01-19 02:09:47.60	262.90	14.74	-30.8	-34.6	12.3	2.20e-04	0	44	0	965738496	21	5563
2026-01-19 02:09:50.61	262.49	14.51	-30.2	-32.8	13.6	9.90e-06	0	44	0	970981376	21	4857
2026-01-19 02:09:53.62	262.08	14.27	-30.1	-33.3	13.6	9.90e-06	0	44	0	977272832	20	5148
2026-01-19 02:09:56.62	261.69	14.03	-30.3	-33.7	13.2	2.82e-05	0	44	0	982515712	20	5324
2026-01-19 02:09:59.62	261.29	13.79	-30.4	-34.1	13.0	4.42e-05	0	44	0	987758592	20	5482
2026-01-19 02:10:02.62	260.91	13.56	-30.5	-33.8	12.8	6.17e-05	0	44	0	994050048	21	5241
2026-01-19 02:10:05.63	260.53	13.32	-29.6	-33.3	12.8	3.35e-05	0	44	0	999292928	20	5518
2026-01-19 02:10:08.65	260.15	13.09	-30.7	-34.4	10.8	1.59e-04	0	44	0	1005584384	21	5521
2026-01-19 02:10:11.65	259.78	12.86	-30.7	-34.6	11.9	3.16e-04	0	44	0	1010827264	21	5600
2026-01-19 02:10:14.66	259.42	12.63	-30.7	-34.3	12.3	4.86e-03	0	44	0	1016070144	21	5489
2026-01-19 02:10:17.67	259.06	12.39	-30.5	-34.0	12.6	4.20e-03	0	44	0	1022361600	21	5361
2026-01-19 02:10:20.68	258.71	12.16	-30.7	-34.6	12.1	4.87e-04	0	44	0	1027604480	21	5582
2026-01-19 02:10:23.70	258.36	11.94	-30.8	-34.7	12.1	3.55e-04	0	44	0	1032847360	21	5637
2026-01-19 02:10:26.70	258.02	11.71	-30.8	-34.8	11.9	4.36e-04	0	44	0	1039138816	21	5709
2026-01-19 02:10:29.72	257.69	11.48	-30.9	-34.9	11.8	4.87e-04	0	44	0	1044381696	21	5762
2026-01-19 02:10:32.72	257.36	11.26	-30.9	-35.0	11.7	3.21e-03	0	44	0	1050673152	21	5806
2026-01-19 02:10:35.73	257.03	11.03	-30.9	-35.2	11.6	3.71e-03	0	44	0	1055916032	21	5908
2026-01-19 02:10:38.73	256.71	10.81	-31.0	-35.0	11.5	3.45e-03	0	44	0	1061158912	22	5669
2026-01-19 02:10:41.74	256.40	10.59	-31.2	-35.5	11.0	5.12e-03	0	44	0	1067450368	22	5927
2026-01-19 02:10:44.75	256.09	10.37	-31.3	-35.9	10.7	3.93e-03	0	44	0	1072693248	22	6134
2026-01-19 02:10:47.75	255.78	10.15	-31.2	-35.5	10.9	3.58e-03	0	44	0	1077936128	22	5912
2026-01-19 02:10:50.76	255.48	9.93	-31.1	-35.4	11.0	6.03e-03	0	44	0	1084227584	22	5890
2026-01-19 02:10:53.77	255.19	9.71	-30.9	-35.1	11.5	4.57e-03	0	44	0	1089470464	21	5861
2026-01-19 02:10:56.78	254.89	9.50	-31.1	-35.2	11.1	4.06e-03	0	44	0	1095761920	22	5785
2026-01-19 02:10:59.79	254.61	9.28	-31.1	-35.5	10.9	2.24e-03	0	44	0	1101004800	22	5932
2026-01-19 02:11:02.80	254.32	9.07	-31.2	-35.6	10.7	5.29e-03	0	44	0	1106247680	22	6017
2026-01-19 02:11:05.81	254.04	8.86	-31.3	-36.1	10.4	4.38e-03	0	44	0	1112539136	22	6233
2026-01-19 02:11:08.82	253.77	8.65	-31.1	-35.3	10.9	2.31e-03	0	44	0	1117782016	22	5876
2026-01-19 02:11:11.82	253.50	8.44	-31.1	-35.5	10.8	6.87e-03	0	44	0	1124073472	22	5936
2026-01-19 02:11:14.83	253.23	8.23	-31.2	-35.9	10.5	6.87e-03	0	44	0	1129316352	22	6142
2026-01-19 02:11:17.83	252.97	8.02	-31.2	-36.0	10.4	8.37e-03	0	44	0	1134559232	22	6197
2026-01-19 02:11:20.83	252.71	7.81	-31.4	-36.5	10.0	1.17e-02	0	44	0	1140850688	22	6469
2026-01-19 02:11:23.84	252.46	7.61	-31.5	-36.9	9.6	9.46e-03	0	44	0	1146093568	22	6740
2026-01-19 02:11:26.85	252.20	7.40	-31.4	-36.7	9.7	1.02e-02	0	44	0	1151336448	22	6619
2026-01-19 02:11:29.85	251.96	7.20	-31.5	-36.6	9.3	1.64e-02	0	44	0	1157627904	23	6475
2026-01-19 02:11:32.86	251.71	7.00	-33.6	-47.8	3.8	1.49e+00	0	44	104	1160773632	27	18448

#Closed at: 2026-01-19 02:11:35
#Recorded file [1160 MB]: D:/data/31010_260119_050112.dat