passes_logs/2026/01/19/R2M6_AANII_01/R2M6_AANII_01__20260119_081442_SUOMI_NPP_rec.log

#Pass ID: 20260119_081442_SUOMI NPP
#Satellite: SUOMI NPP
#Configuration: NPP
#almurnet v.1.7.20240730
#Start time: 2026-01-19 08:14:44

#Version: 2.2.20231116
#Station: R2M6_AANII_01
#Location: 30.233357 lon 59.946436 lat
#TLE: 1 37849U 11061A   26017.92342359  .00000077  00000+0  57567-4 0  9990
#TLE: 2 37849  98.7814 319.9468 0002389  58.5705 301.5704 14.19525998737125

#Time	Az	El	Level	Level2	SNR	BER	BlckErr	Temp	State	Recorded	gain1	gain2
2026-01-19 08:14:44.07	93.30	7.10	-31.8	-43.8	3.7	1.50e+00	0	41	0	0	24	14394
2026-01-19 08:14:47.08	92.99	7.28	-31.7	-43.4	3.8	1.49e+00	0	41	104	0	24	13886
2026-01-19 08:14:50.10	92.68	7.46	-31.9	-42.9	3.8	1.49e+00	0	41	104	0	24	12786
2026-01-19 08:14:53.10	92.36	7.65	-32.3	-41.2	4.3	1.38e+00	0	41	0	0	24	10009
2026-01-19 08:14:56.11	92.04	7.83	-32.2	-37.8	6.6	2.94e-01	0	42	0	5242880	24	6844
2026-01-19 08:14:59.11	91.72	8.02	-32.1	-37.0	7.3	1.43e-01	0	41	0	10485760	24	6363
2026-01-19 08:15:02.13	91.39	8.20	-32.2	-37.3	7.2	1.40e-01	0	42	0	16777216	24	6513
2026-01-19 08:15:05.14	91.06	8.39	-31.6	-34.9	9.1	2.77e-02	0	42	0	22020096	24	5239
2026-01-19 08:15:08.15	90.72	8.58	-31.5	-34.2	9.6	1.08e-02	0	42	0	28311552	24	4947
2026-01-19 08:15:11.16	90.38	8.76	-31.6	-34.5	9.6	1.37e-02	0	42	0	33554432	24	5038
2026-01-19 08:15:14.17	90.03	8.95	-31.4	-33.9	10.0	8.62e-03	0	42	0	38797312	24	4793
2026-01-19 08:15:17.18	89.68	9.14	-31.3	-33.6	10.3	5.61e-03	0	42	0	45088768	24	4653
2026-01-19 08:15:20.19	89.33	9.32	-31.7	-34.8	9.4	1.21e-02	0	42	0	50331648	24	5162
2026-01-19 08:15:23.20	88.97	9.51	-31.6	-34.3	10.0	1.09e-02	0	42	0	55574528	24	4907
2026-01-19 08:15:26.21	88.61	9.70	-31.4	-33.6	10.5	4.39e-03	0	42	0	61865984	24	4624
2026-01-19 08:15:29.20	88.24	9.89	-31.7	-34.7	9.7	1.01e-02	0	42	0	67108864	24	5071
2026-01-19 08:15:32.20	87.87	10.08	-31.6	-34.1	10.2	7.97e-03	0	42	0	73400320	24	4825
2026-01-19 08:15:35.22	87.49	10.27	-31.5	-34.0	10.3	4.73e-03	0	42	0	78643200	24	4802
2026-01-19 08:15:38.23	87.10	10.46	-31.7	-34.7	9.9	9.73e-03	0	42	0	83886080	24	5047
2026-01-19 08:15:41.24	86.71	10.65	-31.5	-33.6	10.7	4.28e-03	0	43	0	90177536	24	4614
2026-01-19 08:15:44.25	86.32	10.84	-31.4	-33.5	10.8	3.14e-03	0	43	0	95420416	24	4561
2026-01-19 08:15:47.26	85.92	11.03	-31.4	-33.3	10.9	2.22e-03	0	43	0	100663296	24	4505
2026-01-19 08:15:50.28	85.51	11.22	-31.3	-33.2	11.0	1.78e-03	0	43	0	106954752	24	4470
2026-01-19 08:15:53.28	85.10	11.41	-31.3	-33.1	11.1	2.50e-03	0	43	0	112197632	24	4410
2026-01-19 08:15:56.28	84.69	11.60	-31.3	-33.7	10.9	2.36e-03	0	43	0	118489088	23	4753
2026-01-19 08:15:59.30	84.27	11.79	-31.3	-33.8	10.9	2.18e-03	0	43	0	123731968	23	4783
2026-01-19 08:16:02.31	83.84	11.98	-31.4	-34.0	10.8	1.75e-03	0	43	0	128974848	23	4848
2026-01-19 08:16:05.33	83.41	12.17	-31.4	-34.1	10.7	3.23e-03	0	43	0	135266304	23	4913
2026-01-19 08:16:08.35	82.97	12.36	-31.4	-33.9	10.9	2.16e-03	0	43	0	140509184	23	4836
2026-01-19 08:16:11.36	82.52	12.55	-31.3	-33.8	11.0	1.54e-03	0	43	0	146800640	23	4796
2026-01-19 08:16:14.36	82.08	12.74	-31.5	-34.3	10.6	5.50e-03	0	43	0	152043520	23	4997
2026-01-19 08:16:17.36	81.62	12.93	-31.5	-34.3	10.6	2.35e-03	0	43	0	157286400	23	4986
2026-01-19 08:16:20.37	81.16	13.12	-31.6	-34.6	10.4	4.75e-03	0	43	0	163577856	23	5117
2026-01-19 08:16:23.39	80.69	13.31	-31.6	-34.8	10.3	5.42e-03	0	43	0	168820736	23	5195
2026-01-19 08:16:26.40	80.22	13.50	-31.5	-34.2	10.8	3.48e-03	0	43	0	174063616	23	4920
2026-01-19 08:16:29.40	79.74	13.68	-31.6	-34.7	10.5	5.15e-03	0	43	0	180355072	23	5132
2026-01-19 08:16:32.40	79.25	13.87	-31.4	-33.9	11.0	1.86e-03	0	43	0	185597952	23	4807
2026-01-19 08:16:35.41	78.76	14.06	-31.6	-34.5	10.6	3.02e-03	0	43	0	191889408	23	5043
2026-01-19 08:16:38.42	78.26	14.24	-31.7	-35.1	10.2	4.88e-03	0	43	0	197132288	23	5287
2026-01-19 08:16:41.43	77.76	14.43	-31.4	-34.1	10.9	2.97e-03	0	43	0	202375168	23	4878
2026-01-19 08:16:44.44	77.25	14.61	-31.4	-33.9	11.1	1.66e-03	0	43	0	208666624	23	4797
2026-01-19 08:16:47.46	76.73	14.80	-30.9	-32.6	11.9	3.78e-04	0	43	0	213909504	23	4335
2026-01-19 08:16:50.46	76.21	14.98	-31.0	-32.6	12.0	2.33e-04	0	43	0	219152384	23	4362
2026-01-19 08:16:53.48	75.67	15.16	-30.7	-32.4	12.4	1.73e-04	0	43	0	225443840	22	4380
2026-01-19 08:16:56.49	75.14	15.34	-30.8	-32.7	12.3	1.82e-04	0	43	0	230686720	22	4476
2026-01-19 08:16:59.49	74.59	15.52	-30.8	-32.6	12.4	1.23e-04	0	43	0	236978176	22	4440
2026-01-19 08:17:02.49	74.05	15.69	-30.7	-32.2	12.7	8.77e-05	0	43	0	242221056	22	4281
2026-01-19 08:17:05.49	73.49	15.87	-30.5	-31.6	13.1	5.95e-05	0	43	0	247463936	22	4103
2026-01-19 08:17:08.51	72.93	16.05	-30.5	-31.7	13.1	2.44e-05	0	43	0	253755392	22	4128
2026-01-19 08:17:11.51	72.36	16.22	-30.6	-31.9	12.9	5.87e-05	0	43	0	258998272	22	4208
2026-01-19 08:17:14.52	71.78	16.39	-30.4	-31.5	13.2	1.83e-05	0	43	0	264241152	22	4065
2026-01-19 08:17:17.53	71.20	16.56	-30.5	-31.6	13.1	2.89e-05	0	43	0	270532608	22	4111
2026-01-19 08:17:20.53	70.61	16.72	-30.3	-31.7	13.4	1.22e-05	0	43	0	275775488	21	4211
2026-01-19 08:17:23.54	70.01	16.89	-30.2	-31.5	13.5	9.10e-06	0	43	0	282066944	21	4166
2026-01-19 08:17:26.57	69.41	17.05	-30.5	-32.2	13.0	3.81e-05	0	43	0	287309824	21	4394
2026-01-19 08:17:29.56	68.80	17.21	-30.7	-32.6	12.8	3.58e-05	0	43	0	292552704	21	4512
2026-01-19 08:17:32.57	68.19	17.37	-30.4	-32.0	13.3	1.83e-05	0	43	0	298844160	21	4289
2026-01-19 08:17:35.57	67.56	17.53	-30.5	-32.2	13.1	3.12e-05	0	43	0	304087040	21	4355
2026-01-19 08:17:38.58	66.94	17.68	-30.0	-30.7	14.1	6.80e-06	0	43	0	310378496	21	3912
2026-01-19 08:17:41.58	66.30	17.83	-29.4	-29.8	14.9	0.00e+00	0	43	0	315621376	20	3740
2026-01-19 08:17:44.60	65.66	17.98	-29.5	-30.3	15.1	0.00e+00	0	43	0	320864256	19	3968
2026-01-19 08:17:47.61	65.01	18.13	-29.9	-31.3	14.5	7.00e-07	0	43	0	327155712	19	4247
2026-01-19 08:17:50.62	64.36	18.27	-29.9	-31.0	14.3	2.20e-06	0	43	0	332398592	20	4079
2026-01-19 08:17:53.63	63.70	18.41	-30.1	-31.6	14.0	3.00e-06	0	43	0	337641472	20	4241
2026-01-19 08:17:56.63	63.03	18.55	-30.3	-32.0	13.7	4.50e-06	0	43	0	343932928	20	4365
2026-01-19 08:17:59.64	62.36	18.68	-30.1	-31.4	14.1	4.50e-06	0	44	0	349175808	20	4199
2026-01-19 08:18:02.65	61.68	18.81	-30.0	-31.2	14.2	0.00e+00	0	43	0	355467264	20	4134
2026-01-19 08:18:05.67	60.99	18.94	-29.4	-29.7	15.1	0.00e+00	0	43	0	360710144	20	3712
2026-01-19 08:18:08.70	60.30	19.06	-29.5	-30.4	15.1	0.00e+00	0	43	0	365953024	19	3989
2026-01-19 08:18:11.70	59.61	19.18	-29.5	-30.4	15.1	0.00e+00	0	43	0	372244480	19	3980
2026-01-19 08:18:14.70	58.91	19.29	-29.6	-30.5	15.0	0.00e+00	0	43	0	377487360	19	4005
2026-01-19 08:18:17.72	58.20	19.40	-29.8	-31.0	14.8	0.00e+00	0	43	0	382730240	19	4150
2026-01-19 08:18:20.72	57.49	19.51	-30.0	-31.2	14.3	0.00e+00	0	43	0	389021696	20	4110
2026-01-19 08:18:23.74	56.77	19.61	-30.1	-31.5	14.1	7.00e-07	0	43	0	394264576	20	4207
2026-01-19 08:18:26.75	56.05	19.71	-30.3	-31.9	13.8	2.20e-06	0	43	0	400556032	20	4339
2026-01-19 08:18:29.75	55.33	19.80	-30.5	-31.9	13.4	1.14e-05	0	43	0	405798912	21	4254
2026-01-19 08:18:32.76	54.60	19.89	-30.6	-32.4	13.1	3.05e-05	0	44	0	411041792	21	4415
2026-01-19 08:18:35.77	53.87	19.98	-30.4	-31.8	13.6	6.10e-06	0	43	0	417333248	21	4218
2026-01-19 08:18:38.80	53.13	20.06	-30.4	-31.8	13.5	6.80e-06	0	43	0	422576128	21	4205
2026-01-19 08:18:41.81	52.38	20.13	-31.1	-33.3	12.3	1.79e-04	0	43	0	428867584	22	4613
2026-01-19 08:18:44.81	51.64	20.20	-30.7	-32.2	12.9	4.42e-05	0	43	0	434110464	22	4266
2026-01-19 08:18:47.82	50.89	20.27	-31.0	-32.9	12.5	6.48e-05	0	43	0	439353344	22	4475
2026-01-19 08:18:50.84	50.14	20.33	-31.0	-33.1	12.4	1.50e-04	0	43	0	445644800	22	4544
2026-01-19 08:18:53.85	49.39	20.38	-30.8	-32.5	12.7	7.24e-05	0	43	0	450887680	22	4365
2026-01-19 08:18:56.86	48.63	20.43	-30.8	-32.3	12.9	4.50e-05	0	43	0	456130560	22	4272
2026-01-19 08:18:59.87	47.87	20.48	-31.0	-33.0	12.4	1.87e-04	0	43	0	462422016	22	4527
2026-01-19 08:19:02.88	47.11	20.52	-31.2	-33.7	11.9	3.92e-04	0	43	0	467664896	22	4772
2026-01-19 08:19:05.89	46.35	20.55	-31.1	-33.4	12.1	4.68e-04	0	43	0	473956352	22	4678
2026-01-19 08:19:08.90	45.59	20.58	-30.9	-32.7	12.6	1.56e-04	0	44	0	479199232	22	4435
2026-01-19 08:19:11.91	44.82	20.60	-30.9	-32.6	12.7	5.49e-05	0	43	0	484442112	22	4391
2026-01-19 08:19:14.92	44.05	20.62	-30.7	-32.0	13.1	3.50e-05	0	43	0	490733568	22	4197
2026-01-19 08:19:17.93	43.29	20.64	-30.5	-31.5	13.4	8.30e-06	0	43	0	495976448	22	4032
2026-01-19 08:19:20.95	42.52	20.64	-30.6	-31.8	13.3	1.29e-05	0	43	0	502267904	22	4127
2026-01-19 08:19:23.96	41.75	20.65	-30.9	-32.6	12.7	6.33e-05	0	43	0	507510784	22	4393
2026-01-19 08:19:26.96	40.98	20.64	-31.3	-33.6	11.9	2.26e-04	0	43	0	512753664	22	4737
2026-01-19 08:19:29.95	40.22	20.63	-31.0	-32.9	12.4	1.84e-04	0	43	0	519045120	22	4471
2026-01-19 08:19:32.95	39.46	20.62	-30.9	-32.5	12.8	6.25e-05	0	44	0	524288000	22	4332
2026-01-19 08:19:35.95	38.69	20.60	-30.1	-30.9	14.0	3.00e-06	0	43	0	529530880	21	3956
2026-01-19 08:19:38.97	37.93	20.58	-30.0	-30.7	14.2	2.20e-06	0	43	0	535822336	21	3897
2026-01-19 08:19:41.96	37.17	20.55	-29.7	-30.5	14.7	0.00e+00	0	43	0	541065216	20	3913
2026-01-19 08:19:44.97	36.41	20.51	-29.7	-30.5	14.7	7.00e-07	0	43	0	546308096	20	3912
2026-01-19 08:19:47.97	35.65	20.47	-30.0	-31.1	14.3	7.00e-07	0	43	0	552599552	20	4083
2026-01-19 08:19:50.98	34.89	20.42	-29.6	-30.2	14.8	0.00e+00	0	43	0	557842432	20	3839
2026-01-19 08:19:53.99	34.14	20.37	-29.7	-30.3	14.8	0.00e+00	0	44	0	564133888	20	3863
2026-01-19 08:19:57.00	33.38	20.32	-29.7	-30.3	14.8	0.00e+00	0	43	0	569376768	20	3875
2026-01-19 08:20:00.02	32.63	20.26	-29.8	-30.6	14.6	7.00e-07	0	44	0	574619648	20	3944
2026-01-19 08:20:03.03	31.89	20.19	-29.5	-30.0	15.0	7.00e-07	0	44	0	580911104	20	3787
2026-01-19 08:20:06.03	31.15	20.12	-29.7	-30.3	14.8	7.00e-07	0	43	0	586153984	20	3865
2026-01-19 08:20:09.04	30.41	20.04	-29.7	-30.4	14.7	0.00e+00	0	43	0	592445440	20	3897
2026-01-19 08:20:12.05	29.67	19.96	-30.4	-32.3	13.5	4.50e-06	0	43	0	597688320	20	4447
2026-01-19 08:20:15.06	28.94	19.88	-30.6	-32.3	13.1	2.28e-05	0	43	0	602931200	21	4373
2026-01-19 08:20:18.07	28.21	19.79	-30.5	-32.1	13.3	1.14e-05	0	44	0	609222656	21	4294
2026-01-19 08:20:21.08	27.49	19.69	-30.8	-32.7	12.9	3.05e-05	0	44	0	614465536	21	4504
2026-01-19 08:20:24.10	26.77	19.59	-31.1	-33.2	12.3	7.24e-05	0	43	0	619708416	22	4559
2026-01-19 08:20:27.11	26.06	19.49	-31.2	-33.5	12.1	2.29e-04	0	44	0	625999872	22	4690
2026-01-19 08:20:30.12	25.35	19.38	-31.1	-33.2	12.2	1.66e-04	0	44	0	631242752	22	4582
2026-01-19 08:20:33.13	24.64	19.27	-30.9	-32.5	12.7	8.08e-05	0	43	0	637534208	22	4338
2026-01-19 08:20:36.14	23.95	19.16	-30.5	-31.5	13.4	1.14e-05	0	44	0	642777088	22	4026
2026-01-19 08:20:39.15	23.25	19.04	-30.7	-31.9	13.1	3.50e-05	0	44	0	648019968	22	4163
2026-01-19 08:20:42.14	22.57	18.92	-30.4	-31.2	13.4	2.05e-05	0	43	0	654311424	22	3952
2026-01-19 08:20:45.16	21.89	18.79	-29.9	-30.8	14.4	0.00e+00	0	44	0	659554304	20	4009
2026-01-19 08:20:48.17	21.21	18.66	-29.9	-31.0	14.2	2.20e-06	0	44	0	664797184	20	4054
2026-01-19 08:20:51.18	20.54	18.53	-30.0	-31.1	14.2	7.00e-07	0	43	0	671088640	20	4094
2026-01-19 08:20:54.20	19.88	18.39	-30.6	-32.4	12.9	3.05e-05	0	44	0	676331520	21	4431
2026-01-19 08:20:57.20	19.22	18.25	-31.4	-34.0	11.6	7.12e-04	0	44	0	682622976	22	4902
2026-01-19 08:21:00.20	18.57	18.11	-31.0	-33.1	12.2	1.96e-04	0	44	0	687865856	22	4547
2026-01-19 08:21:03.21	17.93	17.96	-31.4	-34.1	11.4	4.65e-04	0	44	0	693108736	22	4953
2026-01-19 08:21:06.21	17.29	17.81	-31.7	-34.6	10.8	3.06e-03	0	43	0	699400192	23	5039
2026-01-19 08:21:09.23	16.66	17.66	-31.2	-33.3	11.7	1.46e-03	0	43	0	704643072	23	4541
2026-01-19 08:21:12.24	16.03	17.51	-30.8	-32.4	12.7	1.03e-04	0	44	0	710934528	22	4313
2026-01-19 08:21:15.24	15.41	17.35	-30.6	-31.8	13.1	6.25e-05	0	44	0	716177408	22	4125
2026-01-19 08:21:18.26	14.80	17.19	-30.5	-31.6	13.1	3.12e-05	0	44	0	721420288	22	4090
2026-01-19 08:21:21.28	14.19	17.03	-30.8	-32.5	12.5	1.11e-04	0	44	0	727711744	22	4376
2026-01-19 08:21:24.29	13.59	16.87	-31.1	-33.4	11.9	4.57e-04	0	44	0	732954624	22	4655
2026-01-19 08:21:27.30	13.00	16.70	-30.2	-31.3	13.6	1.22e-05	0	43	0	738197504	21	4084
2026-01-19 08:21:30.30	12.42	16.54	-30.6	-32.3	12.9	1.52e-05	0	44	0	744488960	21	4401
2026-01-19 08:21:33.32	11.83	16.37	-31.2	-33.7	11.6	6.51e-04	0	44	0	749731840	22	4807
2026-01-19 08:21:36.33	11.26	16.20	-31.5	-34.3	10.9	2.19e-03	0	43	0	756023296	23	4930
2026-01-19 08:21:39.34	10.69	16.02	-31.3	-33.4	11.5	1.44e-03	0	44	0	761266176	23	4588
2026-01-19 08:21:42.36	10.13	15.85	-30.7	-32.1	12.7	8.54e-05	0	43	0	766509056	22	4230
2026-01-19 08:21:45.37	9.58	15.67	-30.7	-32.2	12.6	8.85e-05	0	43	0	772800512	22	4284
2026-01-19 08:21:48.36	9.04	15.50	-30.7	-32.1	12.7	9.07e-05	0	43	0	778043392	22	4240
2026-01-19 08:21:51.36	8.50	15.32	-30.9	-32.7	12.3	1.69e-04	0	43	0	783286272	22	4445
2026-01-19 08:21:54.37	7.97	15.14	-31.2	-33.8	11.6	6.03e-04	0	44	0	789577728	22	4829
2026-01-19 08:21:57.39	7.44	14.96	-31.0	-32.9	12.1	2.97e-04	0	44	0	794820608	22	4520
2026-01-19 08:22:00.40	6.92	14.78	-30.9	-32.8	12.2	1.62e-04	0	44	0	801112064	22	4484
2026-01-19 08:22:03.41	6.40	14.59	-31.1	-33.3	11.9	3.08e-04	0	44	0	806354944	22	4652
2026-01-19 08:22:06.41	5.90	14.41	-31.1	-33.3	11.9	4.09e-04	0	44	0	811597824	22	4643
2026-01-19 08:22:09.42	5.40	14.23	-31.0	-33.1	12.0	4.47e-04	0	44	0	817889280	22	4589
2026-01-19 08:22:12.43	4.90	14.04	-30.8	-32.4	12.4	1.52e-04	0	44	0	823132160	22	4342
2026-01-19 08:22:15.44	4.41	13.86	-30.8	-32.4	12.5	1.28e-04	0	44	0	829423616	22	4351
2026-01-19 08:22:18.44	3.93	13.67	-30.5	-31.7	12.9	6.33e-05	0	44	0	834666496	22	4119
2026-01-19 08:22:21.44	3.46	13.48	-30.6	-31.9	12.8	5.79e-05	0	44	0	839909376	22	4174
2026-01-19 08:22:24.45	2.99	13.30	-30.5	-31.5	13.0	5.03e-05	0	44	0	846200832	22	4062
2026-01-19 08:22:27.46	2.52	13.11	-30.6	-31.8	12.8	3.43e-05	0	44	0	851443712	22	4148
2026-01-19 08:22:30.47	2.07	12.92	-30.4	-31.5	13.0	4.04e-05	0	44	0	856686592	22	4046
2026-01-19 08:22:33.48	1.61	12.73	-30.8	-32.3	12.5	1.17e-04	0	43	0	862978048	22	4323
2026-01-19 08:22:36.50	1.17	12.54	-30.7	-32.2	12.5	1.56e-04	0	43	0	868220928	22	4292
2026-01-19 08:22:39.51	0.73	12.35	-30.6	-31.9	12.7	5.72e-05	0	44	0	874512384	22	4187
2026-01-19 08:22:42.51	0.29	12.16	-30.6	-31.9	12.7	7.70e-05	0	44	0	879755264	22	4174
2026-01-19 08:22:45.51	359.87	11.97	-30.3	-31.2	13.2	2.97e-05	0	44	0	884998144	22	3969
2026-01-19 08:22:48.53	359.44	11.78	-30.7	-32.2	12.5	9.76e-05	0	44	0	891289600	22	4287
2026-01-19 08:22:51.55	359.02	11.59	-31.2	-33.7	11.4	3.46e-04	0	44	0	896532480	22	4816
2026-01-19 08:22:54.56	358.61	11.40	-30.8	-32.5	12.2	3.23e-04	0	44	0	901775360	22	4395
2026-01-19 08:22:57.57	358.20	11.21	-30.4	-31.3	13.0	4.80e-05	0	44	0	908066816	22	4017
2026-01-19 08:23:00.58	357.80	11.02	-29.9	-30.6	13.7	8.30e-06	0	44	0	913309696	21	3910
2026-01-19 08:23:03.59	357.41	10.83	-30.0	-30.7	13.7	9.90e-06	0	43	0	919601152	21	3929
2026-01-19 08:23:06.62	357.01	10.64	-30.2	-31.5	13.1	3.05e-05	0	44	0	924844032	21	4157
2026-01-19 08:23:09.62	356.63	10.45	-30.9	-33.5	11.8	3.21e-04	0	44	0	930086912	21	4853
2026-01-19 08:23:12.63	356.25	10.26	-31.0	-33.0	11.8	6.58e-04	0	44	0	936378368	22	4571
2026-01-19 08:23:15.64	355.87	10.08	-30.8	-32.5	12.1	2.83e-04	0	44	0	941621248	22	4382
2026-01-19 08:23:18.65	355.50	9.89	-30.5	-31.9	12.5	1.07e-04	0	44	0	947912704	22	4197
2026-01-19 08:23:21.67	355.14	9.70	-30.7	-32.4	12.2	1.14e-04	0	44	0	953155584	22	4374
2026-01-19 08:23:24.68	354.77	9.51	-30.7	-32.2	12.2	1.73e-04	0	44	0	958398464	22	4322
2026-01-19 08:23:27.69	354.42	9.32	-30.8	-32.7	11.9	2.90e-04	0	44	0	964689920	22	4466
2026-01-19 08:23:30.69	354.07	9.14	-30.9	-33.0	11.7	4.10e-04	0	44	0	969932800	22	4583
2026-01-19 08:23:33.69	353.72	8.95	-31.0	-33.2	11.4	1.01e-03	0	44	0	975175680	22	4673
2026-01-19 08:23:36.70	353.38	8.76	-31.0	-33.4	11.3	1.12e-03	0	44	0	981467136	22	4740
2026-01-19 08:23:39.71	353.04	8.58	-31.0	-33.4	11.3	1.34e-03	0	44	0	986710016	22	4726
2026-01-19 08:23:42.72	352.71	8.39	-31.1	-33.9	10.9	2.47e-03	0	44	0	993001472	22	4920
2026-01-19 08:23:45.73	352.38	8.20	-31.4	-34.1	10.3	7.00e-03	0	44	0	998244352	23	4935
2026-01-19 08:23:48.72	352.06	8.02	-31.7	-35.3	9.4	1.28e-02	0	43	0	1003487232	23	5463
2026-01-19 08:23:51.73	351.74	7.84	-31.6	-35.1	9.6	1.28e-02	0	44	0	1009778688	23	5346
2026-01-19 08:23:54.75	351.42	7.65	-31.6	-34.8	9.7	1.43e-02	0	44	0	1015021568	23	5238
2026-01-19 08:23:57.76	351.11	7.47	-31.4	-34.3	10.1	6.61e-03	0	44	0	1020264448	23	5033
2026-01-19 08:24:00.76	350.80	7.29	-31.4	-34.3	10.0	8.20e-03	0	43	0	1026555904	23	5045
2026-01-19 08:24:03.77	350.50	7.10	-31.4	-34.3	10.0	1.20e-02	0	44	0	1031798784	23	5042

#Closed at: 2026-01-19 08:24:06
#Recorded file [1032 MB]: D:/data/31010_260119_111452.dat