passes_logs/2026/01/19/R2M6_AANII_01/R2M6_AANII_01__20260119_125438_AQUA_rec.log

#Pass ID: 20260119_125438_AQUA
#Satellite: AQUA
#Configuration: AQUA
#almurnet v.1.7.20240730
#Start time: 2026-01-19 12:54:39

#Version: 2.2.20231116
#Station: R2M6_AANII_01
#Location: 30.233357 lon 59.946436 lat
#TLE: 1 27424U 02022A   26018.92652823  .00000914  00000+0  19290-3 0  9996
#TLE: 2 27424  98.4089 345.4199 0001997  73.4625 351.8991 14.61828815261466

#Time	Az	El	Level	Level2	SNR	BER	BlckErr	Temp	State	Recorded	gain1	gain2
2026-01-19 12:54:39.13	189.27	7.02	-30.9	-35.7	5.2	7.07e-01	0	41	0	0	23	6276
2026-01-19 12:54:42.15	189.47	7.26	-31.8	-37.7	13.9	6.08e-01	0	41	0	1572864	24	7106
2026-01-19 12:54:45.17	189.67	7.49	-31.1	-35.0	16.0	6.05e-01	0	41	0	7340032	24	5683
2026-01-19 12:54:48.19	189.87	7.73	-30.7	-34.3	16.9	6.07e-01	0	41	0	13107200	23	5431
2026-01-19 12:54:51.20	190.07	7.97	-30.6	-34.1	17.0	6.06e-01	0	42	0	18874368	23	5333
2026-01-19 12:54:54.21	190.28	8.21	-30.5	-33.6	17.4	6.06e-01	0	42	0	24117248	23	5156
2026-01-19 12:54:57.22	190.49	8.46	-30.5	-33.7	17.3	6.06e-01	0	42	0	29884416	23	5205
2026-01-19 12:55:00.23	190.70	8.70	-30.4	-33.9	17.6	6.07e-01	0	42	0	35651584	22	5351
2026-01-19 12:55:03.24	190.92	8.95	-30.4	-33.8	17.7	6.07e-01	0	42	0	41418752	22	5313
2026-01-19 12:55:06.26	191.14	9.21	-30.4	-33.8	17.7	6.04e-01	0	42	0	46661632	22	5302
2026-01-19 12:55:09.28	191.37	9.46	-30.5	-33.9	17.6	6.08e-01	0	42	0	52428800	22	5376
2026-01-19 12:55:12.28	191.60	9.72	-30.4	-33.7	17.8	6.07e-01	0	42	0	58195968	22	5293
2026-01-19 12:55:15.29	191.83	9.98	-30.5	-34.2	17.5	6.06e-01	0	42	0	63963136	22	5451
2026-01-19 12:55:18.28	192.07	10.24	-30.3	-33.4	18.0	6.07e-01	0	42	0	69730304	22	5149
2026-01-19 12:55:21.28	192.31	10.50	-30.2	-33.1	18.2	6.06e-01	0	42	0	74973184	22	5044
2026-01-19 12:55:24.30	192.56	10.77	-30.2	-33.2	18.2	6.07e-01	0	43	0	80740352	22	5065
2026-01-19 12:55:27.31	192.81	11.04	-30.2	-33.1	18.3	6.06e-01	0	42	0	86507520	22	5016
2026-01-19 12:55:30.32	193.07	11.32	-30.2	-33.2	18.2	6.08e-01	0	43	0	91750400	22	5078
2026-01-19 12:55:33.33	193.33	11.59	-30.3	-33.5	18.1	6.06e-01	0	42	0	97517568	22	5164
2026-01-19 12:55:36.35	193.60	11.87	-30.4	-33.7	17.9	6.10e-01	0	43	0	103284736	22	5241
2026-01-19 12:55:39.35	193.87	12.15	-30.4	-33.6	18.0	6.06e-01	0	43	0	109051904	22	5199
2026-01-19 12:55:42.36	194.15	12.44	-30.4	-33.7	18.0	6.08e-01	0	43	0	114819072	22	5231
2026-01-19 12:55:45.37	194.43	12.73	-30.1	-32.8	18.6	6.06e-01	0	43	0	120061952	22	4919
2026-01-19 12:55:48.37	194.72	13.02	-30.1	-32.6	18.7	6.07e-01	0	43	0	125829120	22	4845
2026-01-19 12:55:51.38	195.01	13.32	-30.0	-32.3	18.9	6.05e-01	0	43	0	131596288	22	4740
2026-01-19 12:55:54.40	195.32	13.62	-29.8	-32.5	19.1	6.05e-01	0	43	0	137363456	21	4915
2026-01-19 12:55:57.42	195.63	13.92	-29.8	-32.5	19.2	6.06e-01	0	43	0	142606336	21	4906
2026-01-19 12:56:00.42	195.94	14.22	-29.9	-32.7	19.0	6.06e-01	0	43	102	145227776	21	4964
2026-01-19 12:56:03.44	196.26	14.54	-29.9	-32.8	19.0	6.09e-01	0	43	102	145227776	21	4980
2026-01-19 12:56:06.43	196.59	14.85	-29.8	-32.4	19.3	6.06e-01	0	43	102	145227776	21	4836
2026-01-19 12:56:09.44	196.92	15.16	-29.9	-32.7	19.1	6.04e-01	0	43	102	145227776	21	4969
2026-01-19 12:56:12.44	197.27	15.48	-29.9	-32.6	19.2	6.09e-01	0	43	102	145227776	21	4945
2026-01-19 12:56:15.46	197.62	15.81	-29.8	-32.3	19.3	6.07e-01	0	43	102	145227776	21	4836
2026-01-19 12:56:18.47	197.98	16.14	-29.8	-32.3	19.4	6.06e-01	0	43	102	145227776	21	4829
2026-01-19 12:56:21.48	198.34	16.47	-29.8	-32.3	19.5	6.07e-01	0	43	102	145227776	21	4799
2026-01-19 12:56:24.48	198.72	16.80	-29.7	-32.1	19.6	6.09e-01	0	43	102	145227776	21	4734
2026-01-19 12:56:27.50	199.10	17.14	-29.8	-32.2	19.5	6.07e-01	0	43	102	145227776	21	4782
2026-01-19 12:56:30.52	199.50	17.49	-29.8	-32.3	19.5	6.06e-01	0	43	102	145227776	21	4797
2026-01-19 12:56:33.52	199.90	17.84	-29.7	-32.1	19.6	6.06e-01	0	43	102	145227776	21	4733
2026-01-19 12:56:36.53	200.31	18.19	-29.8	-32.3	19.5	6.07e-01	0	43	102	145227776	21	4817
2026-01-19 12:56:39.55	200.73	18.55	-29.9	-32.5	19.4	6.06e-01	0	43	102	145227776	21	4858
2026-01-19 12:56:42.55	201.17	18.91	-29.7	-32.0	19.7	6.08e-01	0	43	102	145227776	21	4709
2026-01-19 12:56:45.56	201.61	19.27	-29.8	-32.3	19.6	6.05e-01	0	43	102	145227776	21	4800
2026-01-19 12:56:48.58	202.07	19.64	-29.9	-32.6	19.4	6.06e-01	0	43	102	145227776	21	4911
2026-01-19 12:56:51.59	202.53	20.02	-29.8	-32.4	19.6	6.05e-01	0	43	102	145227776	21	4819
2026-01-19 12:56:54.61	203.01	20.40	-29.9	-32.7	19.4	6.10e-01	0	43	102	145227776	21	4926
2026-01-19 12:56:57.61	203.50	20.78	-29.9	-32.5	19.5	6.05e-01	0	43	102	145227776	21	4871
2026-01-19 12:57:00.62	204.00	21.17	-29.9	-32.4	19.6	6.06e-01	0	43	102	145227776	21	4845
2026-01-19 12:57:03.63	204.52	21.56	-30.0	-32.7	19.4	6.08e-01	0	43	102	145227776	21	4940
2026-01-19 12:57:06.64	205.05	21.95	-30.0	-32.6	19.5	6.04e-01	0	43	102	145227776	21	4904
2026-01-19 12:57:09.65	205.59	22.35	-29.9	-32.6	19.5	6.05e-01	0	43	102	145227776	21	4883
2026-01-19 12:57:12.66	206.15	22.76	-29.9	-32.4	19.6	6.05e-01	0	43	102	145227776	21	4832
2026-01-19 12:57:15.66	206.72	23.17	-29.9	-32.4	19.6	6.07e-01	0	43	102	145227776	21	4836
2026-01-19 12:57:18.67	207.31	23.58	-30.0	-32.6	19.6	6.06e-01	0	43	102	145227776	21	4894
2026-01-19 12:57:21.68	207.91	24.00	-29.8	-32.3	19.8	6.07e-01	0	43	102	145227776	21	4777
2026-01-19 12:57:24.69	208.54	24.42	-29.9	-32.5	19.7	6.04e-01	0	43	102	145227776	21	4836
2026-01-19 12:57:27.71	209.18	24.85	-30.0	-32.6	19.6	6.06e-01	0	43	102	145227776	21	4892
2026-01-19 12:57:30.72	209.83	25.28	-29.8	-32.3	19.8	6.05e-01	0	43	102	145227776	21	4783
2026-01-19 12:57:33.72	210.51	25.71	-29.9	-32.4	19.8	6.06e-01	0	43	102	145227776	21	4790
2026-01-19 12:57:36.73	211.20	26.14	-30.0	-32.6	19.7	6.05e-01	0	43	102	145227776	21	4871
2026-01-19 12:57:39.74	211.92	26.58	-30.0	-32.8	19.6	6.08e-01	0	43	102	145227776	21	4931
2026-01-19 12:57:42.76	212.65	27.03	-30.0	-32.6	19.7	6.05e-01	0	44	102	145227776	21	4866
2026-01-19 12:57:45.76	213.41	27.47	-29.9	-32.4	19.8	6.06e-01	0	43	102	145227776	21	4820
2026-01-19 12:57:48.77	214.19	27.92	-30.0	-32.7	19.7	6.06e-01	0	44	102	145227776	21	4915
2026-01-19 12:57:51.78	214.99	28.37	-30.2	-33.2	19.4	6.04e-01	0	44	102	145227776	21	5080
2026-01-19 12:57:54.79	215.81	28.83	-30.1	-32.9	19.6	6.07e-01	0	44	102	145227776	21	4982
2026-01-19 12:57:57.81	216.66	29.28	-29.9	-32.4	19.8	6.07e-01	0	44	102	145227776	21	4800
2026-01-19 12:58:00.82	217.53	29.74	-29.9	-32.4	19.9	6.07e-01	0	44	102	145227776	21	4788
2026-01-19 12:58:03.82	218.43	30.19	-29.9	-32.5	19.8	6.07e-01	0	43	102	145227776	21	4824
2026-01-19 12:58:06.83	219.35	30.65	-30.0	-32.6	19.8	6.08e-01	0	43	102	145227776	21	4870
2026-01-19 12:58:09.85	220.30	31.11	-29.8	-32.1	20.1	6.07e-01	0	43	102	145227776	21	4713
2026-01-19 12:58:12.87	221.29	31.56	-29.6	-31.7	20.3	6.06e-01	0	44	102	145227776	21	4569
2026-01-19 12:58:15.89	222.30	32.02	-29.9	-32.4	19.9	6.03e-01	0	43	102	145227776	21	4804
2026-01-19 12:58:18.90	223.33	32.47	-29.9	-32.3	20.0	6.05e-01	0	43	102	145227776	21	4776
2026-01-19 12:58:21.91	224.40	32.92	-30.0	-32.6	19.8	6.05e-01	0	43	102	145227776	21	4864
2026-01-19 12:58:24.93	225.49	33.36	-30.0	-32.7	19.8	6.05e-01	0	43	102	145227776	21	4879
2026-01-19 12:58:27.95	226.62	33.80	-30.1	-32.8	19.7	6.04e-01	0	43	102	145227776	21	4936
2026-01-19 12:58:30.96	227.78	34.24	-30.1	-32.8	19.8	6.07e-01	0	43	102	145227776	21	4923
2026-01-19 12:58:33.98	228.97	34.67	-30.1	-32.9	19.7	6.07e-01	0	44	102	145227776	21	4983
2026-01-19 12:58:36.98	230.19	35.08	-30.1	-32.8	19.8	6.06e-01	0	44	102	145227776	21	4926
2026-01-19 12:58:40.00	231.44	35.50	-30.1	-32.9	19.7	6.07e-01	0	43	102	145227776	21	4956
2026-01-19 12:58:43.02	232.73	35.90	-30.1	-33.0	19.7	6.06e-01	0	44	102	145227776	21	4979
2026-01-19 12:58:46.04	234.05	36.29	-30.5	-33.9	19.1	6.06e-01	0	43	102	145227776	21	5315
2026-01-19 12:58:49.04	235.39	36.67	-30.8	-33.6	18.7	6.03e-01	0	43	102	145227776	23	4971
2026-01-19 12:58:52.04	236.76	37.04	-30.9	-33.8	18.6	6.06e-01	0	44	102	145227776	23	5030
2026-01-19 12:58:55.04	238.17	37.39	-31.1	-34.5	18.2	6.07e-01	0	44	102	145227776	23	5314
2026-01-19 12:58:58.06	239.61	37.72	-30.8	-33.6	18.7	6.07e-01	0	43	102	145227776	23	4961
2026-01-19 12:59:01.09	241.09	38.05	-30.6	-32.9	19.2	6.07e-01	0	44	102	145227776	23	4721
2026-01-19 12:59:04.10	242.59	38.35	-30.4	-32.5	19.5	6.06e-01	0	44	102	145227776	23	4583
2026-01-19 12:59:07.11	244.11	38.63	-30.2	-32.5	19.8	6.06e-01	0	44	102	145227776	22	4687
2026-01-19 12:59:10.11	245.65	38.89	-30.2	-32.5	19.8	6.07e-01	0	44	102	145227776	22	4692
2026-01-19 12:59:13.12	247.23	39.13	-30.3	-32.7	19.7	6.07e-01	0	44	102	145227776	22	4742
2026-01-19 12:59:16.13	248.83	39.35	-30.1	-32.3	19.9	6.07e-01	0	44	102	145227776	22	4638
2026-01-19 12:59:19.13	250.44	39.55	-30.5	-33.3	19.3	6.07e-01	0	44	102	145227776	22	4978
2026-01-19 12:59:22.15	252.08	39.72	-30.2	-32.6	19.7	6.06e-01	0	44	102	145227776	22	4722
2026-01-19 12:59:25.16	253.73	39.87	-30.2	-32.5	19.9	6.06e-01	0	44	102	145227776	22	4697
2026-01-19 12:59:28.17	255.40	39.99	-30.1	-32.3	20.0	6.04e-01	0	44	102	145227776	22	4616
2026-01-19 12:59:31.18	257.07	40.09	-30.1	-32.1	20.0	6.07e-01	0	43	102	145227776	22	4561
2026-01-19 12:59:34.19	258.76	40.15	-30.1	-32.3	20.0	6.02e-01	0	44	102	145227776	22	4614
2026-01-19 12:59:37.19	260.45	40.20	-30.3	-32.7	19.8	6.05e-01	0	44	102	145227776	22	4753
2026-01-19 12:59:40.21	262.14	40.21	-30.5	-33.3	19.4	6.09e-01	0	44	102	145227776	22	4946
2026-01-19 12:59:43.21	263.83	40.20	-30.7	-33.8	19.1	6.06e-01	0	44	102	145227776	22	5140
2026-01-19 12:59:46.21	265.52	40.16	-30.9	-34.4	18.7	6.08e-01	0	44	102	145227776	22	5346
2026-01-19 12:59:49.22	267.20	40.09	-30.6	-33.6	19.2	6.06e-01	0	44	102	145227776	22	5053
2026-01-19 12:59:52.24	268.89	40.00	-30.3	-32.8	19.7	6.07e-01	0	44	102	145227776	22	4797
2026-01-19 12:59:55.25	270.55	39.88	-30.3	-32.8	19.7	6.07e-01	0	44	102	145227776	22	4790
2026-01-19 12:59:58.25	272.20	39.73	-30.4	-32.9	19.6	6.07e-01	0	44	102	145227776	22	4798
2026-01-19 13:00:01.26	273.83	39.56	-30.4	-33.0	19.6	6.05e-01	0	44	102	145227776	22	4853
2026-01-19 13:00:04.26	275.44	39.37	-30.4	-32.8	19.7	6.06e-01	0	44	102	145227776	22	4795
2026-01-19 13:00:07.26	277.03	39.16	-30.4	-32.9	19.6	6.06e-01	0	44	102	145227776	22	4810
2026-01-19 13:00:10.26	278.60	38.92	-30.5	-33.1	19.5	6.06e-01	0	44	102	145227776	22	4881
2026-01-19 13:00:13.25	280.14	38.66	-30.4	-33.0	19.6	6.05e-01	0	43	102	145227776	22	4833
2026-01-19 13:00:16.26	281.67	38.38	-30.5	-33.1	19.5	6.08e-01	0	44	102	145227776	22	4890
2026-01-19 13:00:19.27	283.16	38.08	-30.5	-33.1	19.5	6.05e-01	0	44	102	145227776	22	4887
2026-01-19 13:00:22.28	284.63	37.76	-30.5	-33.2	19.5	6.06e-01	0	44	102	145227776	22	4917
2026-01-19 13:00:25.29	286.07	37.43	-30.4	-32.9	19.7	6.05e-01	0	44	102	145227776	22	4798
2026-01-19 13:00:28.31	287.48	37.08	-30.4	-33.0	19.5	6.07e-01	0	44	102	145227776	22	4829
2026-01-19 13:00:31.32	288.86	36.72	-30.3	-32.8	19.7	6.07e-01	0	44	102	145227776	22	4774
2026-01-19 13:00:34.32	290.20	36.34	-30.1	-32.2	20.1	6.05e-01	0	44	102	145227776	22	4584
2026-01-19 13:00:37.33	291.51	35.95	-30.2	-32.3	20.0	6.07e-01	0	44	102	145227776	22	4622
2026-01-19 13:00:40.35	292.80	35.55	-30.0	-31.9	20.3	6.07e-01	0	44	102	145227776	22	4493
2026-01-19 13:00:43.37	294.06	35.14	-30.1	-32.2	20.0	6.06e-01	0	44	102	145227776	22	4596
2026-01-19 13:00:46.38	295.27	34.73	-29.7	-31.7	20.6	6.07e-01	0	44	102	145227776	21	4535
2026-01-19 13:00:49.39	296.46	34.30	-29.8	-31.9	20.5	6.05e-01	0	44	102	145227776	21	4608
2026-01-19 13:00:52.41	297.62	33.87	-29.6	-31.5	20.7	6.05e-01	0	44	102	145227776	21	4478
2026-01-19 13:00:55.42	298.75	33.43	-29.8	-31.9	20.5	6.06e-01	0	44	102	145227776	21	4605
2026-01-19 13:00:58.44	299.84	32.99	-29.5	-31.3	20.8	6.06e-01	0	44	102	145227776	21	4407
2026-01-19 13:01:01.46	300.91	32.55	-29.5	-31.3	20.8	6.08e-01	0	44	102	145227776	21	4418
2026-01-19 13:01:04.47	301.95	32.10	-29.6	-31.5	20.7	6.06e-01	0	44	102	145227776	21	4464
2026-01-19 13:01:07.48	302.95	31.65	-29.5	-31.2	20.9	6.05e-01	0	44	102	145227776	21	4376
2026-01-19 13:01:10.48	303.93	31.20	-29.5	-31.1	20.9	6.05e-01	0	44	102	145227776	21	4365
2026-01-19 13:01:13.50	304.88	30.74	-29.6	-31.4	20.7	6.07e-01	0	44	102	145227776	21	4461
2026-01-19 13:01:16.50	305.80	30.29	-29.6	-31.4	20.8	6.05e-01	0	44	102	145227776	21	4437
2026-01-19 13:01:19.52	306.70	29.83	-29.6	-31.4	20.8	6.09e-01	0	44	102	145227776	21	4441
2026-01-19 13:01:22.54	307.58	29.38	-29.7	-31.7	20.5	6.05e-01	0	44	102	145227776	21	4553
2026-01-19 13:01:25.54	308.42	28.93	-29.7	-31.8	20.5	6.08e-01	0	44	102	145227776	21	4571
2026-01-19 13:01:28.57	309.25	28.48	-29.9	-32.3	20.1	6.06e-01	0	44	102	145227776	21	4751
2026-01-19 13:01:31.59	310.06	28.03	-29.8	-32.0	20.4	6.06e-01	0	43	102	145227776	21	4624
2026-01-19 13:01:34.61	310.84	27.58	-30.0	-32.4	20.1	6.06e-01	0	44	102	145227776	21	4764
2026-01-19 13:01:37.62	311.59	27.14	-30.0	-32.4	20.1	6.06e-01	0	44	102	145227776	21	4771
2026-01-19 13:01:40.63	312.33	26.70	-30.1	-32.7	19.9	6.06e-01	0	44	102	145227776	21	4873
2026-01-19 13:01:43.64	313.04	26.26	-30.1	-32.8	19.8	6.05e-01	0	44	102	145227776	21	4913
2026-01-19 13:01:46.66	313.74	25.82	-30.2	-33.1	19.7	6.07e-01	0	44	102	145227776	21	4995
2026-01-19 13:01:49.67	314.41	25.39	-30.2	-33.1	19.6	6.07e-01	0	44	102	145227776	21	5025
2026-01-19 13:01:52.68	315.07	24.97	-30.4	-33.6	19.3	6.07e-01	0	44	102	145227776	21	5174
2026-01-19 13:01:55.69	315.71	24.54	-30.5	-33.7	19.3	6.06e-01	0	44	102	145227776	21	5232
2026-01-19 13:01:58.70	316.33	24.12	-30.6	-33.5	19.1	6.05e-01	0	44	102	145227776	22	5049
2026-01-19 13:02:01.72	316.94	23.71	-30.6	-33.6	19.0	6.07e-01	0	44	102	145227776	22	5073
2026-01-19 13:02:04.73	317.53	23.30	-30.2	-32.6	19.6	6.05e-01	0	44	102	145227776	22	4725
2026-01-19 13:02:07.73	318.10	22.89	-30.2	-32.6	19.6	6.07e-01	0	44	102	145227776	22	4745
2026-01-19 13:02:10.75	318.66	22.49	-30.1	-32.4	19.7	6.07e-01	0	44	102	145227776	22	4668
2026-01-19 13:02:13.76	319.21	22.09	-30.2	-32.7	19.5	6.05e-01	0	44	102	145227776	22	4766
2026-01-19 13:02:16.76	319.74	21.70	-30.2	-32.6	19.5	6.07e-01	0	44	102	145227776	22	4754
2026-01-19 13:02:19.78	320.25	21.30	-30.3	-32.7	19.4	6.07e-01	0	44	102	145227776	22	4793
2026-01-19 13:02:22.80	320.76	20.92	-30.2	-32.5	19.6	6.05e-01	0	44	102	145227776	22	4708
2026-01-19 13:02:25.82	321.25	20.54	-30.2	-32.7	19.5	6.05e-01	0	44	102	145227776	22	4763
2026-01-19 13:02:28.83	321.73	20.16	-30.3	-32.9	19.3	6.05e-01	0	44	102	145227776	22	4855
2026-01-19 13:02:31.84	322.20	19.79	-30.2	-32.6	19.5	6.05e-01	0	44	102	145227776	22	4758
2026-01-19 13:02:34.85	322.65	19.42	-30.2	-32.7	19.4	6.04e-01	0	44	102	145227776	22	4780
2026-01-19 13:02:37.86	323.10	19.06	-30.1	-32.4	19.6	6.01e-01	0	44	102	145227776	22	4683
2026-01-19 13:02:40.87	323.53	18.70	-30.1	-32.4	19.6	6.01e-01	0	44	102	145227776	22	4669
2026-01-19 13:02:43.87	323.95	18.34	-30.0	-32.1	19.7	6.03e-01	0	44	102	145227776	22	4572
2026-01-19 13:02:46.89	324.37	17.99	-29.8	-32.2	19.9	6.02e-01	0	44	102	145227776	21	4719
2026-01-19 13:02:49.90	324.77	17.64	-29.9	-32.3	19.8	6.02e-01	0	44	102	145227776	21	4755
2026-01-19 13:02:52.91	325.17	17.30	-30.0	-32.5	19.7	6.01e-01	0	44	102	145227776	21	4840
2026-01-19 13:02:55.92	325.55	16.96	-30.0	-32.7	19.6	6.03e-01	0	44	102	145227776	21	4901
2026-01-19 13:02:58.93	325.93	16.63	-30.1	-32.9	19.4	6.01e-01	0	44	102	145227776	21	4971
2026-01-19 13:03:01.95	326.30	16.30	-30.0	-32.7	19.5	6.00e-01	0	44	102	145227776	21	4922
2026-01-19 13:03:04.96	326.66	15.97	-30.1	-32.9	19.4	6.03e-01	0	44	102	145227776	21	4973
2026-01-19 13:03:07.98	327.01	15.65	-29.9	-32.4	19.7	6.00e-01	0	44	102	145227776	21	4801
2026-01-19 13:03:10.99	327.35	15.33	-30.2	-33.1	19.3	6.04e-01	0	44	102	145227776	21	5062
2026-01-19 13:03:14.00	327.69	15.01	-30.1	-33.0	19.2	6.02e-01	0	44	102	145227776	21	5036
2026-01-19 13:03:17.01	328.02	14.70	-30.0	-32.7	19.4	6.03e-01	0	44	102	145227776	21	4920
2026-01-19 13:03:20.02	328.34	14.39	-30.0	-32.8	19.4	6.00e-01	0	44	102	145227776	21	4944
2026-01-19 13:03:23.04	328.66	14.09	-30.0	-32.8	19.3	6.01e-01	0	44	102	145227776	21	4971
2026-01-19 13:03:26.05	328.97	13.79	-30.1	-33.0	19.2	6.01e-01	0	44	102	145227776	21	5011
2026-01-19 13:03:29.07	329.28	13.49	-30.2	-33.4	19.0	6.01e-01	0	44	102	145227776	21	5173
2026-01-19 13:03:32.08	329.57	13.19	-30.2	-33.2	19.1	6.01e-01	0	44	102	145227776	21	5104
2026-01-19 13:03:35.08	329.86	12.90	-30.2	-33.2	19.1	6.01e-01	0	44	102	145227776	21	5094
2026-01-19 13:03:38.09	330.15	12.62	-30.2	-33.4	19.0	6.04e-01	0	44	102	145227776	21	5162
2026-01-19 13:03:41.11	330.43	12.33	-30.2	-33.4	18.9	6.02e-01	0	44	102	145227776	21	5199
2026-01-19 13:03:44.12	330.70	12.05	-30.3	-33.5	18.8	6.01e-01	0	44	102	145227776	21	5213
2026-01-19 13:03:47.14	330.97	11.77	-30.2	-33.4	18.9	6.02e-01	0	44	102	145227776	21	5176
2026-01-19 13:03:50.14	331.24	11.50	-30.3	-33.7	18.6	6.01e-01	0	44	102	145227776	21	5305
2026-01-19 13:03:53.15	331.50	11.22	-30.3	-33.7	18.6	6.01e-01	0	44	102	145227776	21	5306
2026-01-19 13:03:56.16	331.75	10.95	-30.6	-34.0	18.1	6.03e-01	0	44	102	145227776	22	5315
2026-01-19 13:03:59.17	332.00	10.69	-30.3	-33.2	18.6	6.02e-01	0	44	102	145227776	22	5000
2026-01-19 13:04:02.18	332.24	10.42	-30.4	-33.4	18.5	6.02e-01	0	44	102	145227776	22	5071
2026-01-19 13:04:05.20	332.49	10.16	-30.5	-33.7	18.3	5.99e-01	0	44	102	145227776	22	5183
2026-01-19 13:04:08.21	332.72	9.90	-30.5	-33.7	18.2	6.02e-01	0	44	102	145227776	22	5202
2026-01-19 13:04:11.22	332.95	9.65	-30.6	-33.9	18.1	6.00e-01	0	44	102	145227776	22	5274
2026-01-19 13:04:14.24	333.18	9.39	-30.5	-33.8	18.1	6.01e-01	0	44	102	145227776	22	5241
2026-01-19 13:04:17.25	333.41	9.14	-30.7	-34.4	17.7	6.00e-01	0	44	102	145227776	22	5496
2026-01-19 13:04:20.26	333.63	8.89	-31.1	-35.5	16.9	5.99e-01	0	44	102	145227776	22	5977
2026-01-19 13:04:23.27	333.84	8.65	-30.7	-34.4	17.7	6.04e-01	0	44	102	145227776	22	5493
2026-01-19 13:04:26.27	334.05	8.41	-30.8	-34.7	17.5	6.00e-01	0	44	102	145227776	22	5634
2026-01-19 13:04:29.28	334.26	8.16	-30.8	-34.6	17.5	6.03e-01	0	44	102	145227776	22	5601
2026-01-19 13:04:32.29	334.47	7.93	-31.0	-35.2	17.0	6.02e-01	0	44	102	145227776	22	5897
2026-01-19 13:04:35.29	334.67	7.69	-30.8	-34.8	17.2	6.00e-01	0	44	102	145227776	22	5719
2026-01-19 13:04:38.30	334.87	7.46	-30.7	-34.6	17.3	6.02e-01	0	44	102	145227776	22	5624
2026-01-19 13:04:41.32	335.06	7.22	-30.9	-35.0	17.1	6.01e-01	0	44	102	145227776	22	5779
2026-01-19 13:04:44.33	335.26	6.99	-33.9	-53.4	3.8	7.44e-01	0	44	104	145227776	28	33700

#Closed at: 2026-01-19 13:04:46
#Recorded file [145 MB]: D:/data/31010_260119_155441.dat