passes_logs/2026/01/18/PlanumMoscow/PlanumMoscow__20260118_184430_METOP-C_rec.log

#Pass ID: 20260118_184430_METOP-C
#Satellite: METOP-C
#Configuration: METOP-C
#Start time: 2026-01-18 18:44:35.682378

#LorettStation: 1.0.0 05.05.2024
#Station: PlanumMoscow
#Location: 37.6253844 lon 55.6713361 lat
#TLE: 1 43689U 18087A   25293.88981035  .00000265  00000+0  14109-3 0  9997
#TLE: 2 43689  98.7006 352.4487 0002041 122.1097 238.0279 14.21482740360838

#Time	Az	El	Level	SNR
2026-01-18 18:48:14.109688	201.4	26.8	-65.0	0.0
2026-01-18 18:48:16.355196	201.8	27.2	-66.0	0.0
2026-01-18 18:48:18.601711	202.2	27.5	-65.6	0.0
2026-01-18 18:48:20.846218	202.6	27.8	-65.7	0.0
2026-01-18 18:48:23.090229	203.0	28.2	-63.6	0.0
2026-01-18 18:48:25.334240	203.4	28.5	-64.7	0.0
2026-01-18 18:48:27.579747	203.8	28.8	-64.3	0.0
2026-01-18 18:48:29.824254	204.2	29.2	-64.7	0.0
2026-01-18 18:48:32.068761	204.7	29.5	-65.7	0.0
2026-01-18 18:48:34.313268	205.1	29.9	-64.6	0.0
2026-01-18 18:48:36.557775	205.6	30.2	-66.2	0.0
2026-01-18 18:48:38.802282	206.1	30.6	-66.1	0.0
2026-01-18 18:48:41.046293	206.5	30.9	-66.2	0.0
2026-01-18 18:48:43.291800	207.0	31.3	-66.0	0.0
2026-01-18 18:48:45.535814	207.5	31.7	-64.1	0.0
2026-01-18 18:48:47.780321	208.0	32.0	-62.4	0.0
2026-01-18 18:48:50.026836	208.5	32.4	-65.5	0.0
2026-01-18 18:48:52.272856	209.1	32.8	-66.4	0.0
2026-01-18 18:48:54.519363	209.6	33.1	-65.6	0.0
2026-01-18 18:48:56.763870	210.2	33.5	-65.3	0.0
2026-01-18 18:48:59.008882	210.7	33.9	-64.1	0.0
2026-01-18 18:49:01.253389	211.3	34.2	-65.3	0.0
2026-01-18 18:49:03.498400	211.9	34.6	-63.9	0.0
2026-01-18 18:49:05.742410	212.5	35.0	-64.7	0.0
2026-01-18 18:49:07.987918	213.1	35.4	-64.5	0.0
2026-01-18 18:49:10.232424	213.8	35.7	-65.0	0.0
2026-01-18 18:49:12.476435	214.4	36.1	-64.0	0.0
2026-01-18 18:49:14.725943	215.1	36.5	-65.8	0.0
2026-01-18 18:49:16.970450	215.8	36.9	-65.3	0.0
2026-01-18 18:49:19.214957	216.5	37.3	-64.3	0.0
2026-01-18 18:49:21.458969	217.2	37.6	-64.5	0.0
2026-01-18 18:49:23.704476	217.9	38.0	-64.1	0.0
2026-01-18 18:49:25.948983	218.7	38.4	-65.5	0.0
2026-01-18 18:49:28.193490	219.4	38.8	-65.3	0.0
2026-01-18 18:49:30.437997	220.2	39.1	-64.4	0.0
2026-01-18 18:49:32.682008	221.0	39.5	-63.1	0.0
2026-01-18 18:49:34.926020	221.8	39.9	-63.0	0.0
2026-01-18 18:49:37.170526	222.7	40.2	-63.4	0.0
2026-01-18 18:49:39.415033	223.5	40.6	-64.0	0.0
2026-01-18 18:49:41.659539	224.4	41.0	-63.5	0.0
2026-01-18 18:49:43.904047	225.3	41.3	-63.0	0.0
2026-01-18 18:49:46.152562	226.2	41.7	-62.4	0.0
2026-01-18 18:49:48.396573	227.1	42.0	-62.8	0.0
2026-01-18 18:49:50.640088	228.1	42.3	-62.7	0.0
2026-01-18 18:49:52.884595	229.0	42.7	-62.6	0.0
2026-01-18 18:49:55.133111	230.0	43.0	-63.4	0.0
2026-01-18 18:49:57.377122	231.0	43.3	-62.7	0.0
2026-01-18 18:49:59.621628	232.1	43.6	-62.3	0.0
2026-01-18 18:50:01.865640	233.1	44.0	-63.0	0.0
2026-01-18 18:50:04.110147	234.2	44.3	-62.9	0.0
2026-01-18 18:50:06.354654	235.3	44.5	-63.6	0.0
2026-01-18 18:50:08.598664	236.4	44.8	-64.2	0.0
2026-01-18 18:50:10.842179	237.5	45.1	-64.0	0.0
2026-01-18 18:50:13.086198	238.7	45.4	-64.1	0.0
2026-01-18 18:50:15.330705	239.8	45.6	-62.5	0.0
2026-01-18 18:50:17.574726	241.0	45.8	-63.5	0.0
2026-01-18 18:50:19.819232	242.2	46.1	-63.9	0.0
2026-01-18 18:50:22.063245	243.4	46.3	-63.2	0.0
2026-01-18 18:50:24.307752	244.6	46.5	-63.5	0.0
2026-01-18 18:50:26.555764	245.9	46.7	-63.8	0.0
2026-01-18 18:50:28.800272	247.2	46.8	-63.0	0.0
2026-01-18 18:50:31.044778	248.4	47.0	-64.1	0.0
2026-01-18 18:50:33.290286	249.7	47.1	-64.1	0.0
2026-01-18 18:50:35.535297	251.0	47.3	-65.2	0.0
2026-01-18 18:50:37.779308	252.3	47.4	-64.8	0.0
2026-01-18 18:50:40.023815	253.6	47.5	-64.4	0.0
2026-01-18 18:50:42.268322	255.0	47.6	-64.9	0.0
2026-01-18 18:50:44.512333	256.3	47.6	-64.4	0.0
2026-01-18 18:50:46.756840	257.6	47.7	-65.1	0.0
2026-01-18 18:50:49.001347	259.0	47.7	-65.3	0.0
2026-01-18 18:50:51.245357	260.3	47.7	-65.5	0.0
2026-01-18 18:50:53.489864	261.6	47.7	-64.8	0.0
2026-01-18 18:50:55.734371	263.0	47.7	-65.3	0.0
2026-01-18 18:50:57.978382	264.3	47.7	-66.5	0.0
2026-01-18 18:51:00.222393	265.7	47.6	-65.8	0.0
2026-01-18 18:51:02.467900	267.0	47.5	-67.0	0.0
2026-01-18 18:51:04.712406	268.3	47.5	-66.9	0.0
2026-01-18 18:51:06.956914	269.6	47.4	-66.6	0.0
2026-01-18 18:51:09.202421	270.9	47.2	-67.2	0.0
2026-01-18 18:51:11.446928	272.2	47.1	-66.9	0.0
2026-01-18 18:51:13.690939	273.5	47.0	-66.5	0.0
2026-01-18 18:51:15.935455	274.8	46.8	-66.9	0.0
2026-01-18 18:51:18.179962	276.0	46.6	-67.7	0.0
2026-01-18 18:51:20.424469	277.3	46.4	-68.2	0.0
2026-01-18 18:51:22.668976	278.5	46.2	-67.1	0.0
2026-01-18 18:51:24.912986	279.7	46.0	-66.8	0.0
2026-01-18 18:51:27.157493	280.9	45.8	-67.1	0.0
2026-01-18 18:51:29.402000	282.1	45.6	-67.7	0.0
2026-01-18 18:51:31.645515	283.2	45.3	-67.5	0.0
2026-01-18 18:51:33.890022	284.4	45.0	-66.9	0.0
2026-01-18 18:51:36.134529	285.5	44.8	-68.9	0.0
2026-01-18 18:51:38.379036	286.6	44.5	-68.5	0.0
2026-01-18 18:51:40.623048	287.7	44.2	-67.3	0.0
2026-01-18 18:51:42.866563	288.7	43.9	-67.7	0.0
2026-01-18 18:51:45.111070	289.8	43.6	-68.3	0.0
2026-01-18 18:51:47.357082	290.8	43.3	-67.3	0.0
2026-01-18 18:51:49.601589	291.8	43.0	-66.8	0.0
2026-01-18 18:51:51.845600	292.8	42.6	-67.6	0.0
2026-01-18 18:51:54.090107	293.8	42.3	-68.0	0.0
2026-01-18 18:51:56.335118	294.7	42.0	-67.6	0.0
2026-01-18 18:51:58.579625	295.6	41.6	-67.0	0.0
2026-01-18 18:52:00.824131	296.5	41.3	-67.3	0.0
2026-01-18 18:52:03.068638	297.4	40.9	-67.4	0.0
2026-01-18 18:52:05.312650	298.3	40.5	-67.4	0.0
2026-01-18 18:52:07.557157	299.1	40.2	-67.2	0.0
2026-01-18 18:52:09.801663	300.0	39.8	-67.3	0.0
2026-01-18 18:52:12.046170	300.8	39.5	-68.1	0.0
2026-01-18 18:52:14.292182	301.6	39.1	-66.7	0.0
2026-01-18 18:52:16.536688	302.3	38.7	-66.9	0.0
2026-01-18 18:52:18.780699	303.1	38.3	-66.3	0.0
2026-01-18 18:52:21.024215	303.8	38.0	-67.0	0.0
2026-01-18 18:52:23.271227	304.6	37.6	-66.4	0.0
2026-01-18 18:52:25.515734	305.3	37.2	-67.1	0.0
2026-01-18 18:52:27.759791	306.0	36.8	-67.1	0.0
2026-01-18 18:52:30.007810	306.6	36.5	-66.9	0.0
2026-01-18 18:52:32.252317	307.3	36.1	-67.3	0.0
2026-01-18 18:52:34.496360	307.9	35.7	-67.7	0.0
2026-01-18 18:52:36.740378	308.6	35.3	-67.0	0.0
2026-01-18 18:52:38.985931	309.2	35.0	-68.1	0.0
2026-01-18 18:52:41.230446	309.8	34.6	-67.7	0.0
2026-01-18 18:52:43.474953	310.4	34.2	-67.7	0.0
2026-01-18 18:52:45.721500	311.0	33.9	-67.0	0.0
2026-01-18 18:52:47.965519	311.5	33.5	-66.7	0.0
2026-01-18 18:52:50.209067	312.1	33.1	-66.5	0.0
2026-01-18 18:52:52.452116	312.6	32.8	-66.9	0.0
2026-01-18 18:52:54.702138	313.1	32.4	-66.7	0.0
2026-01-18 18:52:56.946180	313.7	32.0	-66.3	0.0
2026-01-18 18:52:59.190693	314.2	31.7	-65.8	0.0
2026-01-18 18:53:01.434240	314.7	31.3	-67.2	0.0
2026-01-18 18:53:03.682755	315.1	31.0	-67.9	0.0
2026-01-18 18:53:05.926802	315.6	30.6	-66.4	0.0
2026-01-18 18:53:08.171813	316.1	30.2	-67.1	0.0
2026-01-18 18:53:10.415832	316.5	29.9	-66.9	0.0
2026-01-18 18:53:12.660376	317.0	29.5	-67.9	0.0
2026-01-18 18:53:14.904883	317.4	29.2	-68.0	0.0
2026-01-18 18:53:17.148893	317.8	28.9	-67.8	0.0
2026-01-18 18:53:19.397945	318.3	28.5	-66.4	0.0
2026-01-18 18:53:21.642460	318.7	28.2	-68.0	0.0
2026-01-18 18:53:23.886511	319.1	27.9	-67.4	0.0
2026-01-18 18:53:26.134036	319.5	27.5	-68.0	0.0
2026-01-18 18:53:28.378057	319.8	27.2	-68.2	0.0
2026-01-18 18:53:30.622097	320.2	26.9	-68.4	0.0
2026-01-18 18:53:32.866612	320.6	26.5	-67.4	0.0
2026-01-18 18:53:35.113669	320.9	26.2	-68.7	0.0
2026-01-18 18:53:37.357688	321.3	25.9	-68.7	0.0
2026-01-18 18:53:39.602232	321.6	25.6	-68.5	0.0
2026-01-18 18:53:41.850748	322.0	25.3	-68.8	0.0
2026-01-18 18:53:44.095263	322.3	25.0	-68.2	0.0
2026-01-18 18:53:46.340808	322.7	24.7	-68.0	0.0
2026-01-18 18:53:48.584820	323.0	24.4	-67.7	0.0
2026-01-18 18:53:50.829364	323.3	24.1	-68.1	0.0
2026-01-18 18:53:53.072390	323.6	23.8	-68.5	0.0
2026-01-18 18:53:55.314446	323.9	23.5	-68.5	0.0
2026-01-18 18:53:57.557991	324.2	23.2	-67.9	0.0
2026-01-18 18:53:59.801514	324.5	22.9	-68.7	0.0
2026-01-18 18:54:02.045583	324.8	22.6	-68.8	0.0
2026-01-18 18:54:04.288603	325.1	22.3	-68.7	0.0
2026-01-18 18:54:06.533148	325.4	22.0	-68.9	0.0
2026-01-18 18:54:08.781680	325.6	21.7	-66.6	0.0
2026-01-18 18:54:11.025218	325.9	21.5	-68.5	0.0
2026-01-18 18:54:13.268732	326.2	21.2	-69.1	0.0
2026-01-18 18:54:15.511263	326.4	20.9	-68.1	0.0
2026-01-18 18:54:17.756349	326.7	20.6	-69.3	0.0
2026-01-18 18:54:20.001376	326.9	20.4	-68.7	0.0
2026-01-18 18:54:22.244941	327.2	20.1	-68.1	0.0
2026-01-18 18:54:24.487969	327.4	19.8	-69.0	0.0
2026-01-18 18:54:26.732010	327.7	19.6	-69.0	0.0
2026-01-18 18:54:28.976517	327.9	19.3	-68.6	0.0
2026-01-18 18:54:31.222538	328.1	19.1	-68.8	0.0
2026-01-18 18:54:33.465586	328.4	18.8	-68.6	0.0
2026-01-18 18:54:35.710092	328.6	18.5	-68.9	0.0
2026-01-18 18:54:37.958600	328.8	18.3	-69.3	0.0
2026-01-18 18:54:40.202116	329.0	18.0	-68.8	0.0
2026-01-18 18:54:42.446623	329.2	17.8	-68.8	0.0
2026-01-18 18:54:44.691129	329.4	17.6	-68.6	0.0
2026-01-18 18:54:46.935180	329.7	17.3	-68.7	0.0
2026-01-18 18:54:49.179199	329.9	17.1	-69.5	0.0
2026-01-18 18:54:51.423705	330.1	16.8	-68.7	0.0
2026-01-18 18:54:53.669716	330.3	16.6	-69.0	0.0
2026-01-18 18:54:55.914223	330.4	16.4	-69.3	0.0
2026-01-18 18:54:58.163236	330.6	16.1	-69.0	0.0
2026-01-18 18:55:00.407247	330.8	15.9	-68.9	0.0
2026-01-18 18:55:02.652755	331.0	15.7	-68.2	0.0
2026-01-18 18:55:04.896269	331.2	15.4	-68.1	0.0
2026-01-18 18:55:07.137775	331.4	15.2	-68.4	0.0
2026-01-18 18:55:09.381282	331.6	15.0	-68.2	0.0
2026-01-18 18:55:11.622788	331.7	14.8	-67.1	0.0
2026-01-18 18:55:13.868305	331.9	14.6	-68.0	0.0
2026-01-18 18:55:16.107810	332.1	14.3	-68.7	0.0
2026-01-18 18:55:18.340315	332.3	14.1	-68.0	0.0
2026-01-18 18:55:20.575819	332.4	13.9	-67.7	0.0
2026-01-18 18:55:22.814831	332.6	13.7	-67.8	0.0
2026-01-18 18:55:25.059336	332.7	13.5	-68.2	0.0
2026-01-18 18:55:27.301346	332.9	13.3	-67.3	0.0
2026-01-18 18:55:29.544853	333.1	13.1	-67.8	0.0
2026-01-18 18:55:31.788368	333.2	12.9	-67.6	0.0
2026-01-18 18:55:34.031381	333.4	12.7	-66.7	0.0
2026-01-18 18:55:36.274887	333.5	12.5	-67.4	0.0
2026-01-18 18:55:38.518899	333.7	12.3	-67.3	0.0
2026-01-18 18:55:40.763406	333.8	12.1	-67.1	0.0
2026-01-18 18:55:43.007913	334.0	11.9	-67.2	0.0
2026-01-18 18:55:45.252420	334.1	11.7	-66.2	0.0
2026-01-18 18:55:47.491429	334.3	11.5	-66.8	0.0
2026-01-18 18:55:49.734935	334.4	11.3	-65.7	0.0
2026-01-18 18:55:51.973945	334.5	11.1	-66.7	0.0
2026-01-18 18:55:54.214451	334.7	10.9	-66.0	0.0
2026-01-18 18:55:56.455966	334.8	10.7	-65.8	0.0
2026-01-18 18:55:58.695472	334.9	10.5	-65.8	0.0
2026-01-18 18:56:00.936978	335.1	10.3	-66.0	0.0
2026-01-18 18:56:03.176483	335.2	10.1	-65.8	0.0
2026-01-18 18:56:05.418493	335.3	10.0	-66.7	0.0
2026-01-18 18:56:07.659504	335.5	9.8	-66.2	0.0
2026-01-18 18:56:09.901010	335.6	9.6	-66.3	0.0
2026-01-18 18:56:12.139020	335.7	9.4	-65.9	0.0
2026-01-18 18:56:14.379031	335.8	9.2	-65.8	0.0
2026-01-18 18:56:16.616536	336.0	9.1	-65.2	0.0
2026-01-18 18:56:18.856546	336.1	8.9	-65.3	0.0
2026-01-18 18:56:21.094555	336.2	8.7	-64.7	0.0
2026-01-18 18:56:23.331060	336.3	8.5	-64.8	0.0
2026-01-18 18:56:25.570566	336.4	8.4	-66.3	0.0
2026-01-18 18:56:27.810072	336.6	8.2	-66.0	0.0
2026-01-18 18:56:30.051577	336.7	8.0	-66.0	0.0
2026-01-18 18:56:32.295084	336.8	7.8	-65.0	0.0
2026-01-18 18:56:34.530590	336.9	7.7	-64.7	0.0
2026-01-18 18:56:36.772095	337.0	7.5	-65.5	0.0
2026-01-18 18:56:39.010105	337.1	7.3	-65.8	0.0
2026-01-18 18:56:41.250611	337.2	7.2	-64.5	0.0
2026-01-18 18:56:43.489117	337.3	7.0	-65.1	0.0
2026-01-18 18:56:45.729127	337.4	6.8	-65.3	0.0
2026-01-18 18:56:47.967137	337.5	6.7	-64.9	0.0
2026-01-18 18:56:50.202641	337.7	6.5	-63.9	0.0
2026-01-18 18:56:52.444148	337.8	6.4	-64.3	0.0
2026-01-18 18:56:54.682653	337.9	6.2	-60.1	0.0
2026-01-18 18:56:56.921675	338.0	6.0	-65.3	0.0
2026-01-18 18:56:59.159181	338.1	5.9	-66.3	0.0
2026-01-18 18:57:01.395686	338.2	5.7	-68.6	0.0
2026-01-18 18:57:03.637192	338.3	5.6	-68.1	0.0
2026-01-18 18:57:05.876201	338.4	5.4	-69.4	0.0
2026-01-18 18:57:08.114706	338.4	5.3	-69.0	0.0
2026-01-18 18:57:10.355212	338.5	5.1	-68.4	0.0
2026-01-18 18:57:12.586716	338.6	4.9	-69.4	0.0
#Closed at: 2026-01-18 18:44:30.683634