passes_logs/2026/01/18/PlanumMoscow/PlanumMoscow__20260118_120120_METEOR-M2_4_rec.log

#Pass ID: 20260118_120120_METEOR-M2 4
#Satellite: METEOR-M2 4
#Configuration: METEOR-M2 4
#Start time: 2026-01-18 12:01:25.363329

#LorettStation: 1.0.0 05.05.2024
#Station: PlanumMoscow
#Location: 37.6253844 lon 55.6713361 lat
#TLE: 1 59051U 24039A   25293.94737965  .00000087  00000+0  58459-4 0  9998
#TLE: 2 59051  98.6671 251.7071 0007726 135.4772 224.7028 14.22388966 85257

#Time	Az	El	Level	SNR
2026-01-18 12:05:03.818308	202.0	26.7	-63.1	10.4
2026-01-18 12:05:06.062832	202.4	27.1	-63.6	11.7
2026-01-18 12:05:08.306884	202.8	27.4	-63.7	10.6
2026-01-18 12:05:10.551390	203.2	27.7	-63.5	11.6
2026-01-18 12:05:12.794450	203.6	28.1	-63.5	8.8
2026-01-18 12:05:15.042470	204.0	28.4	-63.6	10.4
2026-01-18 12:05:17.286035	204.4	28.7	-63.9	11.6
2026-01-18 12:05:19.530566	204.9	29.1	-63.4	10.1
2026-01-18 12:05:21.775074	205.3	29.4	-63.5	9.3
2026-01-18 12:05:24.018124	205.8	29.8	-63.2	9.8
2026-01-18 12:05:26.262136	206.2	30.1	-62.6	5.1
2026-01-18 12:05:28.506177	206.7	30.5	-63.5	10.1
2026-01-18 12:05:30.750220	207.2	30.8	-63.5	9.7
2026-01-18 12:05:32.999737	207.7	31.2	-63.6	10.6
2026-01-18 12:05:35.243749	208.2	31.5	-63.4	10.7
2026-01-18 12:05:37.488296	208.7	31.9	-63.4	9.7
2026-01-18 12:05:39.732810	209.2	32.2	-63.6	8.3
2026-01-18 12:05:41.976852	209.7	32.6	-62.6	8.6
2026-01-18 12:05:44.220915	210.3	33.0	-61.2	4.4
2026-01-18 12:05:46.465423	210.8	33.3	-62.2	6.8
2026-01-18 12:05:48.708473	211.4	33.7	-60.3	1.7
2026-01-18 12:05:50.957502	212.0	34.1	-60.9	5.1
2026-01-18 12:05:53.201559	212.6	34.4	-61.3	5.8
2026-01-18 12:05:55.446074	213.2	34.8	-60.9	6.8
2026-01-18 12:05:57.690085	213.8	35.2	-61.8	8.1
2026-01-18 12:05:59.935631	214.4	35.5	-61.5	7.1
2026-01-18 12:06:02.180185	215.1	35.9	-61.0	2.6
2026-01-18 12:06:04.423734	215.8	36.3	-63.1	7.6
2026-01-18 12:06:06.667770	216.4	36.7	-63.2	8.1
2026-01-18 12:06:08.912285	217.1	37.0	-63.1	7.6
2026-01-18 12:06:11.156830	217.8	37.4	-62.6	7.2
2026-01-18 12:06:13.401345	218.6	37.8	-63.0	8.0
2026-01-18 12:06:15.648876	219.3	38.1	-61.1	5.9
2026-01-18 12:06:17.893391	220.1	38.5	-62.8	7.1
2026-01-18 12:06:20.137898	220.9	38.9	-62.7	6.8
2026-01-18 12:06:22.382445	221.7	39.2	-62.6	5.8
2026-01-18 12:06:24.626464	222.5	39.6	-62.5	7.0
2026-01-18 12:06:26.871010	223.3	40.0	-62.0	2.9
2026-01-18 12:06:29.115526	224.1	40.3	-62.7	4.6
2026-01-18 12:06:31.359601	225.0	40.7	-63.1	6.6
2026-01-18 12:06:33.607117	225.9	41.0	-62.6	6.1
2026-01-18 12:06:35.851151	226.8	41.4	-63.8	7.7
2026-01-18 12:06:38.095658	227.7	41.7	-63.9	7.9
2026-01-18 12:06:40.345183	228.7	42.0	-63.1	5.0
2026-01-18 12:06:42.589225	229.6	42.4	-63.6	6.4
2026-01-18 12:06:44.833741	230.6	42.7	-63.6	6.4
2026-01-18 12:06:47.078288	231.6	43.0	-64.3	7.9
2026-01-18 12:06:49.321814	232.6	43.3	-63.7	6.2
2026-01-18 12:06:51.565363	233.7	43.6	-62.6	6.1
2026-01-18 12:06:53.809870	234.7	43.9	-63.9	6.0
2026-01-18 12:06:56.054385	235.8	44.2	-64.7	4.0
2026-01-18 12:06:58.297437	236.9	44.4	-63.6	5.9
2026-01-18 12:07:00.541951	238.0	44.7	-64.4	4.8
2026-01-18 12:07:02.785496	239.2	45.0	-64.3	4.0
2026-01-18 12:07:05.030012	240.3	45.2	-64.7	4.3
2026-01-18 12:07:07.272567	241.5	45.4	-64.6	3.2
2026-01-18 12:07:09.517096	242.7	45.6	-64.4	4.8
2026-01-18 12:07:11.760650	243.9	45.9	-64.2	4.7
2026-01-18 12:07:14.005166	245.1	46.1	-64.6	5.8
2026-01-18 12:07:16.248680	246.3	46.2	-63.4	3.2
2026-01-18 12:07:18.492724	247.6	46.4	-63.4	3.7
2026-01-18 12:07:20.736766	248.8	46.6	-63.9	2.8
2026-01-18 12:07:22.980815	250.1	46.7	-64.5	3.4
2026-01-18 12:07:25.227339	251.4	46.8	-63.6	2.7
2026-01-18 12:07:27.470885	252.6	46.9	-64.6	2.3
2026-01-18 12:07:29.715400	253.9	47.0	-64.2	0.8
2026-01-18 12:07:31.959907	255.2	47.1	-64.1	2.9
2026-01-18 12:07:34.202959	256.6	47.2	-64.6	2.2
2026-01-18 12:07:36.446978	257.9	47.2	-63.6	3.4
2026-01-18 12:07:38.691031	259.2	47.2	-64.3	4.8
2026-01-18 12:07:40.935041	260.5	47.3	-64.3	3.8
2026-01-18 12:07:43.179548	261.8	47.3	-64.4	3.3
2026-01-18 12:07:45.423095	263.1	47.2	-65.6	4.9
2026-01-18 12:07:47.667609	264.4	47.2	-64.8	3.4
2026-01-18 12:07:49.910653	265.8	47.1	-65.7	4.3
2026-01-18 12:07:52.155168	267.1	47.1	-65.8	2.9
2026-01-18 12:07:54.399716	268.4	47.0	-66.5	4.2
2026-01-18 12:07:56.645223	269.7	46.9	-66.1	4.8
2026-01-18 12:07:58.892244	270.9	46.8	-66.8	5.6
2026-01-18 12:08:01.137791	272.2	46.7	-66.5	5.4
2026-01-18 12:08:03.382307	273.5	46.5	-66.4	5.8
2026-01-18 12:08:05.626349	274.7	46.4	-66.7	6.1
2026-01-18 12:08:07.875369	276.0	46.2	-66.9	7.8
2026-01-18 12:08:10.119396	277.2	46.0	-66.8	7.5
2026-01-18 12:08:12.362955	278.4	45.8	-66.6	7.2
2026-01-18 12:08:14.607472	279.6	45.6	-67.6	7.7
2026-01-18 12:08:16.850530	280.8	45.4	-67.4	7.8
2026-01-18 12:08:19.095043	281.9	45.2	-67.0	5.8
2026-01-18 12:08:21.339550	283.1	44.9	-66.9	6.8
2026-01-18 12:08:23.585600	284.2	44.7	-67.5	7.2
2026-01-18 12:08:25.829619	285.3	44.4	-67.9	8.0
2026-01-18 12:08:28.073158	286.4	44.1	-68.0	8.5
2026-01-18 12:08:30.317673	287.5	43.8	-67.0	5.7
2026-01-18 12:08:32.563228	288.5	43.5	-67.0	8.9
2026-01-18 12:08:34.808735	289.6	43.2	-66.9	8.1
2026-01-18 12:08:37.052778	290.6	42.9	-66.2	9.3
2026-01-18 12:08:39.297821	291.6	42.6	-66.2	9.1
2026-01-18 12:08:41.540382	292.6	42.3	-66.1	8.7
2026-01-18 12:08:43.784889	293.5	42.0	-65.7	7.4
2026-01-18 12:08:46.028900	294.5	41.6	-66.6	9.0
2026-01-18 12:08:48.273439	295.4	41.3	-67.1	9.5
2026-01-18 12:08:50.517459	296.3	41.0	-67.0	8.8
2026-01-18 12:08:52.761479	297.1	40.6	-67.3	8.8
2026-01-18 12:08:55.005034	298.0	40.3	-66.3	7.9
2026-01-18 12:08:57.248054	298.9	39.9	-66.3	7.8
2026-01-18 12:08:59.492107	299.7	39.6	-67.0	8.4
2026-01-18 12:09:01.736126	300.5	39.2	-66.8	8.7
2026-01-18 12:09:03.979146	301.3	38.8	-66.5	8.9
2026-01-18 12:09:06.222197	302.0	38.5	-66.3	8.5
2026-01-18 12:09:08.465225	302.8	38.1	-66.2	8.9
2026-01-18 12:09:10.708786	303.5	37.7	-66.8	9.7
2026-01-18 12:09:12.953797	304.3	37.4	-66.2	8.5
2026-01-18 12:09:15.200864	305.0	37.0	-66.4	7.6
2026-01-18 12:09:17.444925	305.7	36.6	-66.6	9.6
2026-01-18 12:09:19.688989	306.3	36.3	-66.8	9.4
2026-01-18 12:09:21.932072	307.0	35.9	-66.2	9.2
2026-01-18 12:09:24.181094	307.6	35.5	-66.1	8.7
2026-01-18 12:09:26.423657	308.3	35.2	-66.6	8.9
2026-01-18 12:09:28.670220	308.9	34.8	-66.1	8.3
2026-01-18 12:09:30.913258	309.5	34.4	-65.7	8.0
2026-01-18 12:09:33.155790	310.1	34.1	-65.4	7.4
2026-01-18 12:09:35.400349	310.7	33.7	-65.7	8.8
2026-01-18 12:09:37.643874	311.2	33.3	-65.7	8.7
2026-01-18 12:09:39.891906	311.8	33.0	-65.7	8.9
2026-01-18 12:09:42.136926	312.3	32.6	-66.1	9.4
2026-01-18 12:09:44.380442	312.9	32.2	-65.6	8.6
2026-01-18 12:09:46.624958	313.4	31.9	-65.3	8.1
2026-01-18 12:09:48.873970	313.9	31.5	-65.2	8.2
2026-01-18 12:09:51.117486	314.4	31.2	-65.9	7.6
2026-01-18 12:09:53.361011	314.9	30.8	-65.7	7.8
2026-01-18 12:09:55.606023	315.3	30.5	-65.7	7.9
2026-01-18 12:09:57.853035	315.8	30.1	-64.3	6.4
2026-01-18 12:10:00.097046	316.3	29.8	-64.9	6.9
2026-01-18 12:10:02.340561	316.7	29.4	-65.5	7.5
2026-01-18 12:10:04.585581	317.2	29.1	-65.5	7.5
2026-01-18 12:10:06.829096	317.6	28.8	-65.5	7.2
2026-01-18 12:10:09.073107	318.0	28.4	-64.6	6.3
2026-01-18 12:10:11.315622	318.4	28.1	-65.4	6.5
2026-01-18 12:10:13.557137	318.8	27.8	-65.5	7.1
2026-01-18 12:10:15.799652	319.2	27.4	-65.7	6.7
2026-01-18 12:10:18.042158	319.6	27.1	-65.0	5.8
2026-01-18 12:10:20.281177	320.0	26.8	-65.3	6.9
2026-01-18 12:10:22.524692	320.3	26.5	-65.4	7.2
2026-01-18 12:10:24.766713	320.7	26.1	-65.4	6.9
2026-01-18 12:10:27.009219	321.1	25.8	-65.8	6.5
2026-01-18 12:10:29.251238	321.4	25.5	-65.6	6.3
2026-01-18 12:10:31.488760	321.8	25.2	-65.3	6.3
2026-01-18 12:10:33.731779	322.1	24.9	-65.5	7.2
2026-01-18 12:10:35.976286	322.4	24.6	-65.7	6.7
2026-01-18 12:10:38.221803	322.8	24.3	-65.3	6.5
2026-01-18 12:10:40.466310	323.1	24.0	-65.4	6.6
2026-01-18 12:10:42.707320	323.4	23.7	-64.9	6.3
2026-01-18 12:10:44.948835	323.7	23.4	-65.3	6.6
2026-01-18 12:10:47.189846	324.0	23.1	-65.6	6.9
2026-01-18 12:10:49.433353	324.3	22.8	-65.1	7.2
2026-01-18 12:10:51.675372	324.6	22.5	-65.0	6.7
2026-01-18 12:10:53.921383	324.9	22.3	-65.0	6.1
2026-01-18 12:10:56.164402	325.2	22.0	-65.6	7.3
2026-01-18 12:10:58.405412	325.4	21.7	-65.8	7.0
2026-01-18 12:11:00.647929	325.7	21.4	-65.6	6.4
2026-01-18 12:11:02.890939	326.0	21.1	-65.8	7.1
2026-01-18 12:11:05.126453	326.2	20.9	-65.4	6.5
2026-01-18 12:11:07.365977	326.5	20.6	-65.8	8.2
2026-01-18 12:11:09.604986	326.8	20.3	-65.7	8.6
2026-01-18 12:11:11.843501	327.0	20.1	-65.4	5.7
2026-01-18 12:11:14.085007	327.2	19.8	-66.4	7.1
2026-01-18 12:11:16.325521	327.5	19.5	-66.1	6.8
2026-01-18 12:11:18.565036	327.7	19.3	-66.1	6.2
2026-01-18 12:11:20.807551	328.0	19.0	-66.0	6.5
2026-01-18 12:11:23.047562	328.2	18.8	-66.3	6.4
2026-01-18 12:11:25.290078	328.4	18.5	-66.4	6.7
2026-01-18 12:11:27.527601	328.6	18.3	-65.9	6.5
2026-01-18 12:11:29.764628	328.9	18.0	-66.1	6.7
2026-01-18 12:11:32.002159	329.1	17.8	-66.0	6.2
2026-01-18 12:11:34.238179	329.3	17.5	-66.0	6.6
2026-01-18 12:11:36.474692	329.5	17.3	-65.6	6.5
2026-01-18 12:11:38.713215	329.7	17.1	-66.4	6.7
2026-01-18 12:11:40.950225	329.9	16.8	-66.0	7.1
2026-01-18 12:11:43.191740	330.1	16.6	-65.7	6.5
2026-01-18 12:11:45.433750	330.3	16.4	-66.0	6.3
2026-01-18 12:11:47.670777	330.5	16.1	-65.7	6.4
2026-01-18 12:11:49.912796	330.7	15.9	-66.4	6.1
2026-01-18 12:11:52.149309	330.9	15.7	-66.2	5.4
2026-01-18 12:11:54.384327	331.1	15.5	-66.2	5.3
2026-01-18 12:11:56.618848	331.2	15.2	-66.0	5.1
2026-01-18 12:11:58.853858	331.4	15.0	-66.1	5.9
2026-01-18 12:12:01.086379	331.6	14.8	-66.3	5.2
2026-01-18 12:12:03.321388	331.8	14.6	-66.2	5.3
2026-01-18 12:12:05.556901	332.0	14.4	-66.3	5.2
2026-01-18 12:12:07.788413	332.1	14.1	-66.0	4.9
2026-01-18 12:12:10.023423	332.3	13.9	-66.2	5.4
2026-01-18 12:12:12.260938	332.5	13.7	-65.8	4.2
2026-01-18 12:12:14.503957	332.6	13.5	-66.2	4.6
2026-01-18 12:12:16.740968	332.8	13.3	-66.0	3.8
2026-01-18 12:12:18.980490	332.9	13.1	-65.6	4.4
2026-01-18 12:12:21.213507	333.1	12.9	-65.7	4.3
2026-01-18 12:12:23.446516	333.3	12.7	-65.7	4.3
2026-01-18 12:12:25.680533	333.4	12.5	-65.1	3.2
2026-01-18 12:12:27.915543	333.6	12.3	-65.7	3.2
2026-01-18 12:12:30.149047	333.7	12.1	-65.7	3.2
2026-01-18 12:12:32.383056	333.9	11.9	-65.2	3.0
2026-01-18 12:12:34.615576	334.0	11.7	-65.1	2.7
2026-01-18 12:12:36.853595	334.2	11.5	-65.1	2.8
2026-01-18 12:12:39.086612	334.3	11.3	-64.9	3.0
2026-01-18 12:12:41.319125	334.4	11.1	-64.9	2.4
2026-01-18 12:12:43.553630	334.6	10.9	-65.0	2.1
2026-01-18 12:12:45.788647	334.7	10.7	-65.1	2.0
2026-01-18 12:12:48.022151	334.8	10.5	-64.3	1.8
2026-01-18 12:12:50.254178	335.0	10.4	-64.5	1.6
2026-01-18 12:12:52.487186	335.1	10.2	-64.7	0.9
2026-01-18 12:12:54.723691	335.2	10.0	-64.5	0.7
2026-01-18 12:12:56.960709	335.4	9.8	-64.0	0.0
2026-01-18 12:12:59.198224	335.5	9.6	-64.1	0.0
2026-01-18 12:13:01.433736	335.6	9.4	-64.4	0.4
2026-01-18 12:13:03.669754	335.8	9.3	-64.6	0.2
2026-01-18 12:13:05.909773	335.9	9.1	-64.1	0.0
2026-01-18 12:13:08.149278	336.0	8.9	-63.9	0.0
2026-01-18 12:13:10.381791	336.1	8.7	-63.9	0.0
2026-01-18 12:13:12.615800	336.2	8.6	-64.0	0.0
2026-01-18 12:13:14.852323	336.4	8.4	-63.6	0.0
2026-01-18 12:13:17.096334	336.5	8.2	-64.3	0.0
2026-01-18 12:13:19.340345	336.6	8.0	-63.9	0.0
2026-01-18 12:13:21.579355	336.7	7.9	-63.8	0.0
2026-01-18 12:13:23.825881	336.8	7.7	-63.6	0.0
2026-01-18 12:13:26.068899	336.9	7.5	-63.5	0.0
2026-01-18 12:13:28.312910	337.1	7.4	-63.8	0.0
2026-01-18 12:13:30.550929	337.2	7.2	-63.3	0.0
2026-01-18 12:13:32.790939	337.3	7.0	-63.6	0.0
2026-01-18 12:13:35.026948	337.4	6.9	-62.8	0.0
2026-01-18 12:13:37.260453	337.5	6.7	-63.5	0.0
2026-01-18 12:13:39.493469	337.6	6.6	-63.4	0.0
2026-01-18 12:13:41.728486	337.7	6.4	-63.3	0.0
2026-01-18 12:13:43.963495	337.8	6.2	-62.8	0.0
2026-01-18 12:13:46.198008	337.9	6.1	-63.1	0.0
2026-01-18 12:13:48.432521	338.0	5.9	-67.2	0.0
2026-01-18 12:13:50.667530	338.1	5.8	-67.6	0.0
2026-01-18 12:13:52.903043	338.2	5.6	-69.6	0.0
2026-01-18 12:13:55.136060	338.3	5.4	-69.6	0.0
2026-01-18 12:13:57.368572	338.4	5.3	-70.7	0.0
2026-01-18 12:13:59.600085	338.5	5.1	-71.2	0.0
2026-01-18 12:14:01.833093	338.6	5.0	-70.2	0.0
#Closed at: 2026-01-18 12:01:20.364734