passes_logs/2026/01/18/PlanumMoscow/PlanumMoscow__20260118_180705_METOP-B_rec.log

#Pass ID: 20260118_180705_METOP-B
#Satellite: METOP-B
#Configuration: METOP-B
#Start time: 2026-01-18 18:07:10.973652

#LorettStation: 1.0.0 05.05.2024
#Station: PlanumMoscow
#Location: 37.6253844 lon 55.6713361 lat
#TLE: 1 38771U 12049A   25293.92766658  .00000266  00000+0  14193-3 0  9996
#TLE: 2 38771  98.6882 344.7603 0001609 341.5209  18.5909 14.21379342679275

#Time	Az	El	Level	SNR
2026-01-18 18:10:49.463244	196.0	27.6	-62.3	3.8
2026-01-18 18:10:51.704767	196.4	28.0	-62.7	6.0
2026-01-18 18:10:53.941822	196.7	28.3	-62.4	5.1
2026-01-18 18:10:56.178344	197.1	28.7	-62.2	5.9
2026-01-18 18:10:58.419392	197.5	29.0	-61.5	1.9
2026-01-18 18:11:00.659945	197.8	29.4	-62.7	4.8
2026-01-18 18:11:02.905506	198.2	29.8	-62.0	4.8
2026-01-18 18:11:05.145012	198.6	30.1	-62.1	4.1
2026-01-18 18:11:07.385518	199.0	30.5	-62.6	4.9
2026-01-18 18:11:09.626033	199.4	30.9	-63.2	4.0
2026-01-18 18:11:11.866548	199.8	31.3	-62.4	3.8
2026-01-18 18:11:14.106073	200.2	31.7	-63.6	2.3
2026-01-18 18:11:16.348588	200.7	32.1	-63.4	2.8
2026-01-18 18:11:18.590599	201.1	32.5	-61.7	2.3
2026-01-18 18:11:20.828141	201.6	32.9	-62.6	0.9
2026-01-18 18:11:23.068656	202.1	33.3	-62.2	4.1
2026-01-18 18:11:25.309676	202.5	33.7	-62.2	1.9
2026-01-18 18:11:27.551191	203.0	34.1	-62.4	4.5
2026-01-18 18:11:29.794697	203.5	34.5	-62.8	3.9
2026-01-18 18:11:32.037212	204.1	34.9	-62.6	3.1
2026-01-18 18:11:34.278247	204.6	35.3	-62.4	4.5
2026-01-18 18:11:36.518771	205.1	35.7	-62.0	3.3
2026-01-18 18:11:38.761286	205.7	36.2	-63.5	5.0
2026-01-18 18:11:41.002305	206.3	36.6	-63.7	4.5
2026-01-18 18:11:43.244812	206.9	37.0	-63.5	4.2
2026-01-18 18:11:45.488328	207.5	37.4	-62.8	3.3
2026-01-18 18:11:47.730851	208.1	37.9	-62.6	2.8
2026-01-18 18:11:49.972878	208.7	38.3	-63.2	4.7
2026-01-18 18:11:52.214903	209.4	38.7	-62.8	2.4
2026-01-18 18:11:54.454913	210.1	39.2	-62.9	5.5
2026-01-18 18:11:56.697440	210.7	39.6	-63.4	3.9
2026-01-18 18:11:58.944460	211.5	40.1	-63.5	2.7
2026-01-18 18:12:01.189977	212.2	40.5	-61.4	1.9
2026-01-18 18:12:03.434989	212.9	40.9	-62.8	3.5
2026-01-18 18:12:05.677504	213.7	41.4	-62.5	1.4
2026-01-18 18:12:07.920029	214.5	41.8	-62.2	1.5
2026-01-18 18:12:10.166040	215.3	42.3	-62.0	0.5
2026-01-18 18:12:12.411064	216.1	42.7	-62.8	0.0
2026-01-18 18:12:14.655581	217.0	43.1	-62.3	0.0
2026-01-18 18:12:16.899592	217.9	43.6	-60.7	0.0
2026-01-18 18:12:19.139603	218.8	44.0	-62.4	0.8
2026-01-18 18:12:21.382623	219.7	44.4	-62.0	0.3
2026-01-18 18:12:23.624156	220.6	44.8	-61.4	0.0
2026-01-18 18:12:25.867176	221.6	45.3	-62.0	0.0
2026-01-18 18:12:28.108196	222.6	45.7	-62.1	0.0
2026-01-18 18:12:30.351216	223.6	46.1	-62.5	0.0
2026-01-18 18:12:32.594732	224.7	46.5	-62.3	0.0
2026-01-18 18:12:34.839743	225.8	46.9	-62.0	0.0
2026-01-18 18:12:37.082258	226.9	47.3	-61.8	0.0
2026-01-18 18:12:39.325269	228.0	47.6	-62.7	0.0
2026-01-18 18:12:41.571802	229.2	48.0	-62.1	0.0
2026-01-18 18:12:43.813333	230.4	48.4	-61.7	0.0
2026-01-18 18:12:46.057839	231.6	48.7	-62.6	0.0
2026-01-18 18:12:48.298867	232.8	49.1	-62.9	0.0
2026-01-18 18:12:50.540888	234.1	49.4	-62.3	0.0
2026-01-18 18:12:52.782421	235.4	49.7	-62.3	0.0
2026-01-18 18:12:55.026432	236.7	50.0	-62.2	0.0
2026-01-18 18:12:57.267452	238.1	50.3	-62.6	0.0
2026-01-18 18:12:59.511463	239.5	50.6	-62.1	0.0
2026-01-18 18:13:01.754978	240.9	50.8	-62.7	0.0
2026-01-18 18:13:03.998989	242.3	51.1	-63.3	0.0
2026-01-18 18:13:06.241009	243.7	51.3	-63.3	0.0
2026-01-18 18:13:08.485020	245.2	51.5	-62.9	0.2
2026-01-18 18:13:10.728039	246.7	51.7	-62.5	0.0
2026-01-18 18:13:12.967555	248.2	51.8	-63.2	0.0
2026-01-18 18:13:15.208070	249.7	52.0	-63.6	0.3
2026-01-18 18:13:17.447593	251.2	52.1	-62.5	0.0
2026-01-18 18:13:19.687603	252.8	52.2	-63.2	0.0
2026-01-18 18:13:21.929614	254.3	52.3	-63.2	0.5
2026-01-18 18:13:24.171624	255.9	52.4	-63.9	0.0
2026-01-18 18:13:26.412634	257.4	52.4	-64.8	0.0
2026-01-18 18:13:28.651644	259.0	52.4	-64.0	0.5
2026-01-18 18:13:30.896160	260.6	52.4	-63.9	1.9
2026-01-18 18:13:33.137171	262.1	52.4	-64.2	2.2
2026-01-18 18:13:35.386688	263.7	52.3	-65.1	1.6
2026-01-18 18:13:37.630204	265.2	52.3	-64.9	0.5
2026-01-18 18:13:39.874224	266.8	52.2	-65.6	3.5
2026-01-18 18:13:42.119253	268.3	52.1	-65.5	2.4
2026-01-18 18:13:44.363274	269.9	52.0	-65.0	0.0
2026-01-18 18:13:46.607285	271.4	51.8	-65.2	0.2
2026-01-18 18:13:48.846798	272.9	51.6	-66.2	1.2
2026-01-18 18:13:51.086313	274.3	51.4	-66.6	1.9
2026-01-18 18:13:53.323828	275.8	51.2	-66.3	2.5
2026-01-18 18:13:55.563855	277.2	51.0	-65.9	2.0
2026-01-18 18:13:57.809362	278.7	50.8	-65.7	1.4
2026-01-18 18:14:00.052878	280.0	50.5	-66.4	2.3
2026-01-18 18:14:02.296898	281.4	50.2	-66.5	2.6
2026-01-18 18:14:04.540910	282.8	50.0	-65.8	0.0
2026-01-18 18:14:06.783920	284.1	49.7	-65.4	0.5
2026-01-18 18:14:09.027436	285.4	49.3	-66.0	2.1
2026-01-18 18:14:11.267952	286.6	49.0	-64.7	2.0
2026-01-18 18:14:13.510458	287.9	48.7	-65.0	0.6
2026-01-18 18:14:15.753470	289.1	48.3	-65.7	1.5
2026-01-18 18:14:17.999008	290.3	48.0	-65.5	2.0
2026-01-18 18:14:20.241035	291.4	47.6	-65.9	2.4
2026-01-18 18:14:22.482046	292.5	47.2	-65.9	1.9
2026-01-18 18:14:24.725065	293.6	46.8	-66.0	2.0
2026-01-18 18:14:26.968581	294.7	46.4	-65.1	1.8
2026-01-18 18:14:29.209096	295.8	46.0	-65.1	1.9
2026-01-18 18:14:31.451618	296.8	45.6	-65.4	2.7
2026-01-18 18:14:33.691628	297.8	45.2	-65.4	2.2
2026-01-18 18:14:35.933134	298.7	44.8	-65.1	3.3
2026-01-18 18:14:38.169144	299.7	44.4	-65.5	2.8
2026-01-18 18:14:40.409163	300.6	43.9	-65.0	3.0
2026-01-18 18:14:42.648677	301.5	43.5	-65.3	3.3
2026-01-18 18:14:44.883695	302.4	43.1	-65.5	3.3
2026-01-18 18:14:47.121714	303.2	42.6	-64.8	2.9
2026-01-18 18:14:49.359740	304.0	42.2	-65.0	4.5
2026-01-18 18:14:51.600759	304.8	41.8	-64.5	3.8
2026-01-18 18:14:53.837273	305.6	41.3	-65.1	4.2
2026-01-18 18:14:56.074282	306.4	40.9	-65.0	4.1
2026-01-18 18:14:58.309300	307.1	40.5	-64.4	4.4
2026-01-18 18:15:00.550815	307.8	40.0	-65.0	4.0
2026-01-18 18:15:02.788825	308.5	39.6	-64.3	3.9
2026-01-18 18:15:05.037333	309.2	39.2	-63.9	4.0
2026-01-18 18:15:07.280849	309.9	38.7	-63.8	4.1
2026-01-18 18:15:09.523870	310.5	38.3	-64.5	4.7
2026-01-18 18:15:11.767890	311.2	37.9	-64.8	5.0
2026-01-18 18:15:14.011408	311.8	37.4	-64.8	5.2
2026-01-18 18:15:16.255915	312.4	37.0	-64.4	5.2
2026-01-18 18:15:18.500430	313.0	36.6	-63.3	4.4
2026-01-18 18:15:20.744937	313.6	36.2	-63.8	4.7
2026-01-18 18:15:22.988966	314.1	35.7	-63.5	4.1
2026-01-18 18:15:25.233482	314.7	35.3	-63.5	5.0
2026-01-18 18:15:27.484009	315.2	34.9	-63.7	3.9
2026-01-18 18:15:29.727029	315.7	34.5	-63.7	4.8
2026-01-18 18:15:31.970049	316.2	34.1	-64.0	4.2
2026-01-18 18:15:34.213580	316.7	33.7	-64.1	4.7
2026-01-18 18:15:36.456102	317.2	33.3	-64.3	4.3
2026-01-18 18:15:38.700113	317.7	32.9	-64.2	4.4
2026-01-18 18:15:40.944125	318.1	32.5	-63.2	3.4
2026-01-18 18:15:43.188641	318.6	32.1	-64.4	4.7
2026-01-18 18:15:45.432157	319.0	31.7	-64.2	4.8
2026-01-18 18:15:47.676168	319.4	31.3	-63.9	4.9
2026-01-18 18:15:49.919683	319.8	30.9	-64.3	5.3
2026-01-18 18:15:52.164199	320.2	30.6	-64.5	4.5
2026-01-18 18:15:54.407219	320.6	30.2	-64.2	5.0
2026-01-18 18:15:56.650734	321.0	29.8	-64.4	4.7
2026-01-18 18:15:58.892762	321.4	29.4	-64.4	5.0
2026-01-18 18:16:01.136278	321.8	29.1	-64.7	5.2
2026-01-18 18:16:03.378306	322.1	28.7	-64.2	5.4
2026-01-18 18:16:05.622822	322.5	28.4	-64.5	5.8
2026-01-18 18:16:07.866338	322.9	28.0	-64.0	5.5
2026-01-18 18:16:10.109853	323.2	27.7	-64.5	5.6
2026-01-18 18:16:12.353865	323.5	27.3	-64.0	4.9
2026-01-18 18:16:14.597380	323.9	27.0	-64.2	5.6
2026-01-18 18:16:16.842400	324.2	26.6	-64.2	5.6
2026-01-18 18:16:19.069452	324.5	26.3	-64.6	5.9
2026-01-18 18:16:21.311481	324.8	26.0	-64.9	6.8
2026-01-18 18:16:23.553519	325.1	25.6	-64.6	7.1
2026-01-18 18:16:25.795547	325.4	25.3	-65.0	6.7
2026-01-18 18:16:28.038071	325.7	25.0	-64.6	6.8
2026-01-18 18:16:30.281587	326.0	24.7	-64.8	6.5
2026-01-18 18:16:32.526111	326.2	24.3	-64.3	5.9
2026-01-18 18:16:34.770131	326.5	24.0	-64.5	6.2
2026-01-18 18:16:37.013150	326.8	23.7	-65.4	7.3
2026-01-18 18:16:39.259657	327.0	23.4	-65.0	7.1
2026-01-18 18:16:41.511679	327.3	23.1	-64.7	6.9
2026-01-18 18:16:43.757194	327.6	22.8	-64.5	7.1
2026-01-18 18:16:46.001205	327.8	22.5	-64.2	6.7
2026-01-18 18:16:48.246720	328.0	22.2	-64.0	7.4
2026-01-18 18:16:50.490731	328.3	21.9	-64.0	5.6
2026-01-18 18:16:52.734246	328.5	21.6	-64.9	6.5
2026-01-18 18:16:54.978258	328.7	21.3	-64.5	7.1
2026-01-18 18:16:57.224286	329.0	21.0	-64.6	6.6
2026-01-18 18:16:59.467801	329.2	20.8	-64.4	7.0
2026-01-18 18:17:01.711812	329.4	20.5	-65.3	7.7
2026-01-18 18:17:03.955824	329.6	20.2	-64.6	7.3
2026-01-18 18:17:06.204349	329.8	19.9	-65.1	6.8
2026-01-18 18:17:08.447864	330.0	19.7	-64.8	6.5
2026-01-18 18:17:10.691380	330.3	19.4	-64.9	6.4
2026-01-18 18:17:12.938418	330.5	19.1	-65.4	6.2
2026-01-18 18:17:15.181934	330.7	18.9	-65.1	5.5
2026-01-18 18:17:17.423963	330.8	18.6	-65.1	6.1
2026-01-18 18:17:19.666984	331.0	18.3	-65.3	5.4
2026-01-18 18:17:21.910004	331.2	18.1	-65.5	6.3
2026-01-18 18:17:24.154511	331.4	17.8	-65.1	6.1
2026-01-18 18:17:26.399026	331.6	17.6	-64.7	5.5
2026-01-18 18:17:28.647543	331.8	17.3	-65.6	6.0
2026-01-18 18:17:30.891058	332.0	17.1	-65.9	6.2
2026-01-18 18:17:33.135069	332.1	16.8	-65.1	5.9
2026-01-18 18:17:35.380080	332.3	16.6	-64.2	4.7
2026-01-18 18:17:37.626596	332.5	16.4	-65.1	4.1
2026-01-18 18:17:39.870607	332.6	16.1	-65.5	4.2
2026-01-18 18:17:42.114618	332.8	15.9	-65.5	4.2
2026-01-18 18:17:44.357141	333.0	15.7	-65.3	4.5
2026-01-18 18:17:46.601152	333.1	15.4	-65.6	4.5
2026-01-18 18:17:48.844180	333.3	15.2	-65.9	3.7
2026-01-18 18:17:51.088192	333.4	15.0	-65.5	4.2
2026-01-18 18:17:53.336708	333.6	14.7	-65.8	4.2
2026-01-18 18:17:55.580720	333.7	14.5	-65.9	3.8
2026-01-18 18:17:57.825258	333.9	14.3	-64.7	3.7
2026-01-18 18:18:00.068286	334.0	14.1	-65.9	3.7
2026-01-18 18:18:02.317299	334.2	13.9	-65.7	3.1
2026-01-18 18:18:04.564311	334.3	13.6	-65.6	3.6
2026-01-18 18:18:06.807331	334.5	13.4	-65.5	2.8
2026-01-18 18:18:09.048368	334.6	13.2	-65.9	2.8
2026-01-18 18:18:11.292874	334.7	13.0	-65.6	2.4
2026-01-18 18:18:13.537885	334.9	12.8	-65.3	3.2
2026-01-18 18:18:15.783392	335.0	12.6	-65.3	2.8
2026-01-18 18:18:18.029404	335.1	12.4	-65.7	2.6
2026-01-18 18:18:20.274911	335.3	12.2	-65.7	2.6
2026-01-18 18:18:22.519418	335.4	12.0	-65.4	3.2
2026-01-18 18:18:24.763924	335.5	11.8	-65.6	2.4
2026-01-18 18:18:27.008431	335.6	11.6	-65.2	1.3
2026-01-18 18:18:29.252938	335.8	11.4	-65.2	1.6
2026-01-18 18:18:31.497445	335.9	11.2	-65.9	2.4
2026-01-18 18:18:33.747458	336.0	11.0	-65.2	3.1
2026-01-18 18:18:35.991965	336.1	10.8	-65.9	3.4
2026-01-18 18:18:38.235976	336.2	10.6	-65.3	3.4
2026-01-18 18:18:40.479987	336.4	10.4	-65.9	3.0
2026-01-18 18:18:42.725494	336.5	10.2	-65.1	2.7
2026-01-18 18:18:44.970002	336.6	10.0	-65.2	3.2
2026-01-18 18:18:47.214013	336.7	9.8	-64.7	3.6
2026-01-18 18:18:49.458023	336.8	9.7	-65.1	3.3
2026-01-18 18:18:51.702043	336.9	9.5	-64.9	3.6
2026-01-18 18:18:53.946550	337.0	9.3	-64.7	4.0
2026-01-18 18:18:56.191056	337.1	9.1	-64.9	3.2
2026-01-18 18:18:58.438068	337.2	8.9	-63.3	3.1
2026-01-18 18:19:00.682079	337.3	8.8	-64.7	4.6
2026-01-18 18:19:02.927586	337.4	8.6	-64.7	5.2
2026-01-18 18:19:05.171597	337.5	8.4	-63.9	4.9
2026-01-18 18:19:07.414617	337.6	8.2	-64.8	6.3
2026-01-18 18:19:09.659124	337.7	8.0	-64.4	5.4
2026-01-18 18:19:11.903631	337.8	7.9	-64.5	5.9
2026-01-18 18:19:14.148138	337.9	7.7	-64.0	5.0
2026-01-18 18:19:16.392149	338.0	7.5	-62.9	3.6
2026-01-18 18:19:18.636656	338.1	7.4	-63.7	6.4
2026-01-18 18:19:20.881163	338.2	7.2	-63.7	6.0
2026-01-18 18:19:23.125173	338.3	7.0	-64.0	6.7
2026-01-18 18:19:25.370680	338.4	6.9	-62.4	6.2
2026-01-18 18:19:27.615187	338.5	6.7	-62.2	5.1
2026-01-18 18:19:29.859694	338.6	6.5	-63.9	6.3
2026-01-18 18:19:32.103714	338.7	6.4	-63.7	6.4
2026-01-18 18:19:34.354222	338.8	6.2	-62.9	6.1
2026-01-18 18:19:36.598729	338.9	6.0	-64.6	5.4
2026-01-18 18:19:38.842740	339.0	5.9	-67.5	8.9
2026-01-18 18:19:41.087247	339.0	5.7	-67.5	11.4
2026-01-18 18:19:43.331762	339.1	5.6	-68.6	6.3
2026-01-18 18:19:45.575772	339.2	5.4	-68.0	0.0
2026-01-18 18:19:47.823289	339.3	5.2	-68.0	0.0
2026-01-18 18:19:50.070797	339.4	5.1	-69.1	0.0
#Closed at: 2026-01-18 18:07:05.975957