passes_logs/2026/01/18/PlanumMoscow/PlanumMoscow__20260118_003140_METEOR-M2_4_rec.log

#Pass ID: 20260118_003140_METEOR-M2 4
#Satellite: METEOR-M2 4
#Configuration: METEOR-M2 4
#Start time: 2026-01-18 00:31:45.836587

#LorettStation: 1.0.0 05.05.2024
#Station: PlanumMoscow
#Location: 37.6253844 lon 55.6713361 lat
#TLE: 1 59051U 24039A   25293.94737965  .00000087  00000+0  58459-4 0  9998
#TLE: 2 59051  98.6671 251.7071 0007726 135.4772 224.7028 14.22388966 85257

#Time	Az	El	Level	SNR
2026-01-18 00:35:24.248420	33.4	27.7	-63.1	11.9
2026-01-18 00:35:26.491448	33.7	28.1	-63.9	12.1
2026-01-18 00:35:28.735488	34.0	28.5	-63.5	12.0
2026-01-18 00:35:30.978035	34.3	28.8	-63.3	12.0
2026-01-18 00:35:33.220085	34.6	29.2	-63.5	12.2
2026-01-18 00:35:35.468098	34.9	29.6	-63.5	11.8
2026-01-18 00:35:37.711624	35.2	30.0	-63.7	11.8
2026-01-18 00:35:39.955177	35.6	30.4	-63.8	11.3
2026-01-18 00:35:42.198700	35.9	30.8	-63.4	11.2
2026-01-18 00:35:44.442750	36.3	31.2	-63.6	11.6
2026-01-18 00:35:46.686770	36.6	31.6	-63.6	11.6
2026-01-18 00:35:48.929333	37.0	32.0	-63.8	11.6
2026-01-18 00:35:51.173362	37.4	32.4	-64.1	12.0
2026-01-18 00:35:53.415910	37.7	32.8	-63.9	12.2
2026-01-18 00:35:55.664426	38.1	33.2	-63.6	11.8
2026-01-18 00:35:57.906454	38.5	33.7	-63.4	11.5
2026-01-18 00:36:00.150513	39.0	34.1	-63.4	12.2
2026-01-18 00:36:02.394532	39.4	34.5	-63.5	12.2
2026-01-18 00:36:04.638086	39.8	35.0	-63.6	11.4
2026-01-18 00:36:06.886116	40.3	35.4	-63.9	11.8
2026-01-18 00:36:09.129136	40.7	35.8	-63.7	11.3
2026-01-18 00:36:11.372690	41.2	36.3	-63.4	11.4
2026-01-18 00:36:13.617204	41.7	36.8	-63.2	8.4
2026-01-18 00:36:15.866750	42.2	37.2	-63.4	11.5
2026-01-18 00:36:18.111266	42.7	37.7	-63.6	9.9
2026-01-18 00:36:20.354828	43.2	38.2	-64.4	10.7
2026-01-18 00:36:22.597353	43.8	38.6	-63.3	11.2
2026-01-18 00:36:24.839917	44.4	39.1	-63.2	10.1
2026-01-18 00:36:27.083432	44.9	39.6	-63.2	11.0
2026-01-18 00:36:29.326948	45.5	40.1	-64.2	11.3
2026-01-18 00:36:31.569510	46.1	40.6	-63.5	11.4
2026-01-18 00:36:33.814589	46.8	41.0	-63.8	11.2
2026-01-18 00:36:36.059096	47.4	41.5	-63.9	11.3
2026-01-18 00:36:38.302611	48.1	42.0	-64.0	10.6
2026-01-18 00:36:40.545191	48.8	42.5	-63.9	9.9
2026-01-18 00:36:42.788219	49.5	43.0	-64.1	10.3
2026-01-18 00:36:45.032736	50.2	43.5	-63.1	7.6
2026-01-18 00:36:47.276785	51.0	44.0	-64.0	10.2
2026-01-18 00:36:49.520804	51.8	44.5	-63.0	8.6
2026-01-18 00:36:51.765847	52.6	45.0	-64.2	9.5
2026-01-18 00:36:54.009383	53.4	45.6	-62.5	5.4
2026-01-18 00:36:56.251433	54.3	46.1	-64.1	9.5
2026-01-18 00:36:58.495453	55.2	46.6	-64.3	9.2
2026-01-18 00:37:00.739000	56.1	47.1	-64.9	8.0
2026-01-18 00:37:02.984518	57.0	47.6	-64.8	9.8
2026-01-18 00:37:05.226556	58.0	48.1	-65.6	8.0
2026-01-18 00:37:07.471129	59.0	48.6	-65.1	8.0
2026-01-18 00:37:09.714652	60.1	49.1	-65.5	9.7
2026-01-18 00:37:11.958727	61.1	49.5	-65.2	8.4
2026-01-18 00:37:14.202268	62.2	50.0	-65.1	7.5
2026-01-18 00:37:16.447783	63.4	50.5	-65.6	10.1
2026-01-18 00:37:18.691331	64.6	51.0	-65.6	8.6
2026-01-18 00:37:20.935878	65.8	51.4	-65.6	9.6
2026-01-18 00:37:23.179889	67.0	51.9	-66.0	7.9
2026-01-18 00:37:25.426917	68.3	52.3	-66.4	8.9
2026-01-18 00:37:27.669975	69.7	52.7	-66.6	8.3
2026-01-18 00:37:29.913508	71.0	53.1	-66.8	9.5
2026-01-18 00:37:32.161520	72.4	53.5	-66.0	7.6
2026-01-18 00:37:34.404084	73.9	53.9	-66.9	9.7
2026-01-18 00:37:36.646616	75.4	54.3	-67.5	9.2
2026-01-18 00:37:38.889187	76.9	54.7	-66.4	8.8
2026-01-18 00:37:41.135218	78.5	55.0	-66.6	9.7
2026-01-18 00:37:43.379268	80.1	55.3	-66.9	10.4
2026-01-18 00:37:45.623287	81.7	55.6	-66.8	9.8
2026-01-18 00:37:47.865811	83.4	55.9	-67.1	10.4
2026-01-18 00:37:50.107374	85.1	56.1	-67.9	12.1
2026-01-18 00:37:52.351393	86.8	56.4	-67.2	10.7
2026-01-18 00:37:54.595445	88.5	56.6	-66.9	10.1
2026-01-18 00:37:56.837514	90.3	56.8	-67.1	10.1
2026-01-18 00:37:59.080090	92.1	56.9	-67.2	9.7
2026-01-18 00:38:01.322127	93.9	57.0	-67.4	9.7
2026-01-18 00:38:03.566178	95.8	57.1	-67.9	9.9
2026-01-18 00:38:05.810693	97.6	57.2	-67.3	10.0
2026-01-18 00:38:08.054228	99.5	57.2	-67.7	9.6
2026-01-18 00:38:10.295797	101.3	57.3	-68.1	11.3
2026-01-18 00:38:12.538329	103.2	57.3	-67.6	9.3
2026-01-18 00:38:14.781392	105.0	57.2	-67.7	9.8
2026-01-18 00:38:17.025412	106.9	57.1	-68.0	10.3
2026-01-18 00:38:19.269461	108.7	57.0	-67.6	10.4
2026-01-18 00:38:21.512995	110.6	56.9	-68.1	11.1
2026-01-18 00:38:23.757006	112.4	56.8	-67.4	10.0
2026-01-18 00:38:26.000562	114.1	56.6	-67.0	9.8
2026-01-18 00:38:28.244078	115.9	56.4	-66.5	9.4
2026-01-18 00:38:30.488151	117.6	56.2	-65.8	8.2
2026-01-18 00:38:32.732668	119.3	55.9	-67.1	9.5
2026-01-18 00:38:34.975740	121.0	55.6	-64.8	5.8
2026-01-18 00:38:37.219760	122.7	55.3	-63.6	3.5
2026-01-18 00:38:39.463780	124.3	55.0	-67.8	9.5
2026-01-18 00:38:41.707343	125.8	54.7	-62.8	2.2
2026-01-18 00:38:43.949455	127.4	54.3	-63.0	3.1
2026-01-18 00:38:46.193018	128.9	54.0	-64.7	5.9
2026-01-18 00:38:48.440565	130.3	53.6	-60.4	0.0
2026-01-18 00:38:50.683625	131.7	53.2	-61.1	0.9
2026-01-18 00:38:52.926156	133.1	52.8	-61.0	1.0
2026-01-18 00:38:55.175168	134.4	52.3	-58.5	0.0
2026-01-18 00:38:57.419218	135.7	51.9	-61.2	1.7
2026-01-18 00:38:59.662734	137.0	51.4	-59.4	0.0
2026-01-18 00:39:01.905783	138.2	51.0	-57.4	0.0
2026-01-18 00:39:04.151307	139.4	50.5	-63.9	4.3
2026-01-18 00:39:06.394852	140.6	50.0	-60.4	0.0
2026-01-18 00:39:08.638368	141.7	49.6	-60.4	0.0
2026-01-18 00:39:10.882378	142.8	49.1	-61.9	0.9
2026-01-18 00:39:13.126390	143.8	48.6	-59.4	0.0
2026-01-18 00:39:15.370906	144.8	48.1	-58.8	0.0
2026-01-18 00:39:17.612936	145.8	47.6	-64.2	5.2
2026-01-18 00:39:19.856460	146.8	47.1	-61.4	0.9
2026-01-18 00:39:22.099975	147.7	46.6	-60.0	0.0
2026-01-18 00:39:24.343491	148.6	46.1	-59.7	0.0
2026-01-18 00:39:26.587006	149.5	45.6	-63.5	6.4
2026-01-18 00:39:28.835018	150.3	45.0	-61.8	3.5
2026-01-18 00:39:31.079525	151.1	44.5	-60.3	2.5
2026-01-18 00:39:33.323536	151.9	44.0	-64.8	9.1
2026-01-18 00:39:35.567547	152.7	43.5	-62.1	5.4
2026-01-18 00:39:37.811063	153.4	43.0	-64.0	8.5
2026-01-18 00:39:40.055074	154.1	42.5	-65.1	10.6
2026-01-18 00:39:42.299085	154.8	42.0	-62.9	6.6
2026-01-18 00:39:44.543097	155.5	41.5	-64.2	8.9
2026-01-18 00:39:46.787116	156.2	41.0	-65.6	10.8
2026-01-18 00:39:49.031128	156.8	40.5	-63.3	6.7
2026-01-18 00:39:51.275139	157.4	40.0	-67.2	13.5
2026-01-18 00:39:53.521663	158.0	39.5	-66.8	13.0
2026-01-18 00:39:55.765188	158.6	39.1	-64.4	8.8
2026-01-18 00:39:58.008209	159.1	38.6	-67.3	14.1
2026-01-18 00:40:00.252733	159.7	38.1	-65.6	10.3
2026-01-18 00:40:02.496257	160.2	37.6	-65.2	10.3
2026-01-18 00:40:04.740764	160.7	37.2	-66.4	12.1
2026-01-18 00:40:06.981774	161.2	36.7	-67.0	13.8
2026-01-18 00:40:09.223298	161.7	36.2	-66.6	13.0
2026-01-18 00:40:11.458323	162.2	35.8	-66.1	11.7
2026-01-18 00:40:13.697846	162.7	35.3	-67.1	14.6
2026-01-18 00:40:15.936352	163.1	34.9	-65.6	12.1
2026-01-18 00:40:18.175868	163.6	34.4	-65.4	11.9
2026-01-18 00:40:20.414904	164.0	34.0	-66.6	15.0
2026-01-18 00:40:22.658420	164.4	33.6	-64.1	10.3
2026-01-18 00:40:24.899438	164.8	33.1	-64.9	12.8
2026-01-18 00:40:27.137005	165.2	32.7	-66.5	15.5
2026-01-18 00:40:29.380510	165.6	32.3	-64.0	10.3
2026-01-18 00:40:31.627027	166.0	31.9	-64.8	11.3
2026-01-18 00:40:33.867048	166.3	31.5	-66.6	14.2
2026-01-18 00:40:36.110564	166.7	31.1	-63.7	9.4
2026-01-18 00:40:38.354081	167.0	30.7	-65.3	12.0
2026-01-18 00:40:40.597602	167.4	30.3	-65.9	13.0
2026-01-18 00:40:42.842109	167.7	29.9	-63.7	9.6
2026-01-18 00:40:45.084633	168.0	29.5	-66.1	13.5
2026-01-18 00:40:47.327654	168.4	29.1	-65.5	12.9
2026-01-18 00:40:49.570160	168.7	28.7	-66.3	14.1
2026-01-18 00:40:51.810178	169.0	28.3	-66.5	14.6
2026-01-18 00:40:54.058695	169.3	28.0	-65.2	12.4
2026-01-18 00:40:56.296713	169.6	27.6	-65.8	13.5
2026-01-18 00:40:58.536219	169.8	27.2	-66.3	14.0
2026-01-18 00:41:00.778230	170.1	26.9	-64.2	10.7
2026-01-18 00:41:03.017249	170.4	26.5	-66.0	14.3
2026-01-18 00:41:05.253763	170.7	26.2	-66.3	14.5
2026-01-18 00:41:07.492783	170.9	25.8	-66.2	14.4
2026-01-18 00:41:09.729288	171.2	25.5	-64.8	11.5
2026-01-18 00:41:11.967811	171.4	25.1	-65.1	12.2
2026-01-18 00:41:14.204840	171.7	24.8	-66.6	14.4
2026-01-18 00:41:16.437353	171.9	24.5	-65.5	12.6
2026-01-18 00:41:18.672867	172.1	24.1	-65.8	13.6
2026-01-18 00:41:20.910886	172.4	23.8	-65.7	13.4
2026-01-18 00:41:23.149401	172.6	23.5	-64.6	11.7
2026-01-18 00:41:25.388411	172.8	23.2	-65.8	14.7
2026-01-18 00:41:27.631929	173.0	22.9	-65.3	12.9
2026-01-18 00:41:29.871938	173.2	22.5	-65.6	13.3
2026-01-18 00:41:32.108453	173.5	22.2	-66.6	14.2
2026-01-18 00:41:34.347959	173.7	21.9	-65.6	12.9
2026-01-18 00:41:36.587464	173.9	21.6	-65.6	11.9
2026-01-18 00:41:38.826970	174.1	21.3	-66.6	14.6
2026-01-18 00:41:41.065000	174.2	21.0	-65.7	12.4
2026-01-18 00:41:43.303019	174.4	20.8	-65.9	12.8
2026-01-18 00:41:45.544028	174.6	20.5	-65.9	12.3
2026-01-18 00:41:47.784554	174.8	20.2	-66.3	13.1
2026-01-18 00:41:50.024077	175.0	19.9	-66.7	13.1
2026-01-18 00:41:52.264601	175.2	19.6	-65.9	11.8
2026-01-18 00:41:54.508612	175.3	19.3	-65.8	12.2
2026-01-18 00:41:56.753119	175.5	19.1	-66.6	13.4
2026-01-18 00:41:58.996636	175.7	18.8	-66.5	14.2
2026-01-18 00:42:01.240160	175.8	18.5	-65.8	12.6
2026-01-18 00:42:03.482683	176.0	18.3	-66.6	12.9
2026-01-18 00:42:05.726695	176.2	18.0	-66.5	12.8
2026-01-18 00:42:07.968219	176.3	17.7	-66.3	12.2
2026-01-18 00:42:10.211761	176.5	17.5	-66.6	13.4
2026-01-18 00:42:12.456268	176.6	17.2	-66.7	13.1
2026-01-18 00:42:14.700278	176.8	17.0	-66.7	12.3
2026-01-18 00:42:16.944290	176.9	16.7	-66.4	12.4
2026-01-18 00:42:19.187806	177.1	16.5	-66.3	11.5
2026-01-18 00:42:21.428322	177.2	16.2	-66.9	13.1
2026-01-18 00:42:23.667342	177.4	16.0	-66.9	12.2
2026-01-18 00:42:25.907848	177.5	15.7	-66.5	12.0
2026-01-18 00:42:28.145867	177.6	15.5	-66.7	11.7
2026-01-18 00:42:30.386372	177.8	15.3	-66.5	11.6
2026-01-18 00:42:32.624887	177.9	15.0	-66.9	12.6
2026-01-18 00:42:34.865401	178.0	14.8	-66.6	11.6
2026-01-18 00:42:37.104421	178.2	14.6	-66.2	11.2
2026-01-18 00:42:39.347431	178.3	14.3	-66.7	12.0
2026-01-18 00:42:41.592945	178.4	14.1	-66.6	11.8
2026-01-18 00:42:43.829966	178.5	13.9	-66.7	11.7
2026-01-18 00:42:46.068975	178.7	13.7	-66.9	12.2
2026-01-18 00:42:48.306994	178.8	13.5	-66.6	11.8
2026-01-18 00:42:50.548500	178.9	13.2	-66.4	11.9
2026-01-18 00:42:52.789015	179.0	13.0	-65.9	11.8
2026-01-18 00:42:55.029042	179.1	12.8	-66.5	11.5
2026-01-18 00:42:57.269053	179.2	12.6	-66.9	11.5
2026-01-18 00:42:59.510578	179.3	12.4	-66.4	11.0
2026-01-18 00:43:01.748596	179.5	12.2	-66.5	11.6
2026-01-18 00:43:03.990110	179.6	12.0	-66.5	11.1
2026-01-18 00:43:06.228624	179.7	11.8	-66.8	11.0
2026-01-18 00:43:08.471140	179.8	11.6	-66.6	11.4
2026-01-18 00:43:10.707158	179.9	11.3	-66.4	10.6
2026-01-18 00:43:12.946690	180.0	11.1	-66.4	10.7
2026-01-18 00:43:15.185196	180.1	10.9	-66.1	10.5
2026-01-18 00:43:17.421727	180.2	10.8	-66.3	11.4
2026-01-18 00:43:19.660737	180.3	10.6	-66.2	11.1
2026-01-18 00:43:21.901756	180.4	10.4	-66.2	10.3
2026-01-18 00:43:24.138268	180.5	10.2	-66.2	10.2
2026-01-18 00:43:26.382280	180.6	10.0	-66.4	9.4
2026-01-18 00:43:28.623290	180.7	9.8	-66.1	9.6
2026-01-18 00:43:30.857317	180.8	9.6	-66.3	10.5
2026-01-18 00:43:33.096328	180.9	9.4	-66.3	10.2
2026-01-18 00:43:35.338347	180.9	9.2	-66.3	10.3
2026-01-18 00:43:37.576356	181.0	9.0	-65.8	9.5
2026-01-18 00:43:39.811888	181.1	8.9	-65.9	10.4
2026-01-18 00:43:42.052402	181.2	8.7	-66.2	9.8
2026-01-18 00:43:44.296918	181.3	8.5	-65.8	9.9
2026-01-18 00:43:46.540930	181.4	8.3	-65.9	10.6
2026-01-18 00:43:48.784940	181.5	8.1	-65.6	10.2
2026-01-18 00:43:51.027961	181.6	8.0	-65.7	9.1
2026-01-18 00:43:53.267980	181.6	7.8	-65.7	9.7
2026-01-18 00:43:55.505494	181.7	7.6	-66.3	8.2
2026-01-18 00:43:57.747026	181.8	7.4	-66.1	7.9
2026-01-18 00:43:59.990541	181.9	7.3	-65.8	7.4
2026-01-18 00:44:02.229551	182.0	7.1	-66.0	7.5
2026-01-18 00:44:04.470562	182.0	6.9	-66.2	8.1
2026-01-18 00:44:06.714573	182.1	6.7	-65.9	8.8
2026-01-18 00:44:08.957088	182.2	6.6	-66.2	8.7
2026-01-18 00:44:11.200612	182.3	6.4	-66.3	8.2
2026-01-18 00:44:13.439632	182.3	6.2	-66.2	9.1
2026-01-18 00:44:15.682157	182.4	6.1	-66.3	8.4
2026-01-18 00:44:17.922698	182.5	5.9	-69.1	0.0
2026-01-18 00:44:20.156715	182.6	5.7	-68.9	0.0
2026-01-18 00:44:22.393734	182.6	5.6	-68.4	0.0
2026-01-18 00:44:24.632248	182.7	5.4	-69.1	0.0
2026-01-18 00:44:26.872754	182.8	5.3	-71.4	0.0
2026-01-18 00:44:29.116765	182.9	5.1	-70.2	0.0
#Closed at: 2026-01-18 00:31:40.838869