passes_logs/2025/01/22/Planum_Noyabrsk/Planum_Noyabrsk__20250122_055411_NOAA_19_rec.log

#Pass ID: 20250122_055411_NOAA 19
#Satellite: NOAA 19
#Configuration: NOAA 19
#Start time: 2025-01-22 05:54:16.279668

#LorettStation: 1.0.0 05.05.2024
#Station: Planum_Noyabrsk
#Location: 75.446886 lon 63.207202 lat
#TLE: 1 33591U 09005A   25021.44668149  .00000397  00000+0  23595-3 0  9992
#TLE: 2 33591  99.0185  85.2586 0014259  40.1684 320.0539 14.13265033822454

#Time	Az	El	Level	SNR
2025-01-22 05:54:22.478082	17.8	31.2	-53.6	0.0
2025-01-22 05:54:23.626533	17.8	31.4	-51.9	0.0
2025-01-22 05:54:24.774476	17.7	31.6	-49.7	0.0
2025-01-22 05:54:25.919426	17.7	31.9	-51.6	0.0
2025-01-22 05:54:27.068366	17.7	32.1	-49.6	0.0
2025-01-22 05:54:28.215312	17.6	32.3	-50.4	0.0
2025-01-22 05:54:29.362766	17.6	32.6	-49.6	0.0
2025-01-22 05:54:30.516691	17.5	32.8	-53.5	0.0
2025-01-22 05:54:31.665631	17.5	33.0	-51.6	0.0
2025-01-22 05:54:32.812087	17.5	33.3	-51.6	0.0
2025-01-22 05:54:33.960029	17.4	33.5	-51.4	0.0
2025-01-22 05:54:35.107972	17.4	33.7	-51.0	0.0
2025-01-22 05:54:36.256911	17.3	34.0	-52.4	0.0
2025-01-22 05:54:37.409352	17.3	34.2	-55.7	0.0
2025-01-22 05:54:38.557294	17.3	34.5	-53.4	0.0
2025-01-22 05:54:39.707232	17.2	34.7	-51.5	0.0
2025-01-22 05:54:40.858167	17.2	35.0	-52.3	0.0
2025-01-22 05:54:42.008612	17.1	35.2	-52.9	0.0
2025-01-22 05:54:43.157569	17.1	35.5	-52.5	0.0
2025-01-22 05:54:44.314488	17.0	35.8	-55.1	0.0
2025-01-22 05:54:45.462431	17.0	36.0	-54.6	0.0
2025-01-22 05:54:46.617355	16.9	36.3	-55.7	0.0
2025-01-22 05:54:47.768289	16.9	36.5	-54.9	0.0
2025-01-22 05:54:48.922215	16.8	36.8	-54.6	0.0
2025-01-22 05:54:50.075145	16.8	37.1	-59.8	0.0
2025-01-22 05:54:51.224085	16.7	37.4	-53.5	0.0
2025-01-22 05:54:52.374022	16.7	37.6	-57.5	0.0
2025-01-22 05:54:53.524957	16.6	37.9	-54.2	0.0
2025-01-22 05:54:54.680878	16.6	38.2	-59.4	0.0
2025-01-22 05:54:55.830815	16.5	38.5	-55.7	0.0
2025-01-22 05:54:56.981750	16.5	38.7	-54.9	0.0
2025-01-22 05:54:58.133681	16.4	39.0	-55.2	0.0
2025-01-22 05:54:59.283619	16.3	39.3	-57.0	0.0
2025-01-22 05:55:00.435551	16.3	39.6	-55.0	0.0
2025-01-22 05:55:01.589477	16.2	39.9	-57.1	0.0
2025-01-22 05:55:02.741409	16.2	40.2	-56.2	0.0
2025-01-22 05:55:03.893341	16.1	40.5	-58.3	0.0
2025-01-22 05:55:05.046276	16.0	40.8	-57.7	0.0
2025-01-22 05:55:06.200197	16.0	41.1	-59.7	5.0
2025-01-22 05:55:07.348140	15.9	41.4	-56.6	0.0
2025-01-22 05:55:08.498077	15.8	41.7	-57.9	0.3
2025-01-22 05:55:09.649011	15.7	42.0	-57.5	2.1
2025-01-22 05:55:10.798948	15.7	42.3	-58.6	2.0
2025-01-22 05:55:11.946891	15.6	42.6	-58.3	1.7
2025-01-22 05:55:13.096828	15.5	42.9	-59.0	2.9
2025-01-22 05:55:14.248761	15.4	43.3	-61.0	5.1
2025-01-22 05:55:15.398697	15.4	43.6	-58.8	2.9
2025-01-22 05:55:16.551627	15.3	43.9	-58.3	2.1
2025-01-22 05:55:17.704556	15.2	44.2	-60.1	4.6
2025-01-22 05:55:18.855490	15.1	44.6	-61.1	6.4
2025-01-22 05:55:20.011412	15.0	44.9	-60.1	2.5
2025-01-22 05:55:21.163344	15.0	45.2	-61.0	5.3
2025-01-22 05:55:22.314789	14.9	45.6	-60.6	5.3
2025-01-22 05:55:23.465723	14.8	45.9	-61.4	6.7
2025-01-22 05:55:24.617655	14.7	46.3	-61.1	5.8
2025-01-22 05:55:25.767592	14.6	46.6	-60.9	5.7
2025-01-22 05:55:26.924511	14.5	47.0	-60.2	4.9
2025-01-22 05:55:28.081430	14.4	47.3	-61.2	6.1
2025-01-22 05:55:29.232364	14.3	47.7	-62.2	7.5
2025-01-22 05:55:30.386291	14.2	48.0	-62.5	7.3
2025-01-22 05:55:31.539220	14.1	48.4	-62.2	5.7
2025-01-22 05:55:32.689182	14.0	48.7	-62.3	8.4
2025-01-22 05:55:33.842112	13.8	49.1	-62.7	9.1
2025-01-22 05:55:34.995040	13.7	49.5	-61.7	8.1
2025-01-22 05:55:36.150962	13.6	49.9	-63.1	9.0
2025-01-22 05:55:37.299902	13.5	50.2	-62.4	9.0
2025-01-22 05:55:38.452852	13.4	50.6	-63.0	10.7
2025-01-22 05:55:39.603786	13.2	51.0	-60.5	7.2
2025-01-22 05:55:40.756716	13.1	51.4	-60.2	6.3
2025-01-22 05:55:41.909646	13.0	51.8	-62.8	9.4
2025-01-22 05:55:43.062575	12.8	52.1	-62.6	9.1
2025-01-22 05:55:44.220491	12.7	52.5	-61.3	10.2
2025-01-22 05:55:45.373420	12.5	52.9	-62.8	10.6
2025-01-22 05:55:46.524354	12.4	53.3	-59.8	5.6
2025-01-22 05:55:47.678280	12.2	53.7	-60.6	5.8
2025-01-22 05:55:48.831210	12.1	54.1	-60.8	6.3
2025-01-22 05:55:49.983142	11.9	54.5	-60.9	7.6
2025-01-22 05:55:51.135074	11.7	55.0	-59.9	7.0
2025-01-22 05:55:52.286008	11.6	55.4	-61.7	8.8
2025-01-22 05:55:53.443924	11.4	55.8	-61.5	8.1
2025-01-22 05:55:54.596388	11.2	56.2	-58.7	6.5
2025-01-22 05:55:55.746810	11.0	56.6	-61.8	7.0
2025-01-22 05:55:56.903730	10.8	57.1	-61.1	7.5
2025-01-22 05:55:58.054178	10.6	57.5	-61.7	8.2
2025-01-22 05:55:59.204115	10.4	57.9	-59.1	3.3
2025-01-22 05:56:00.354052	10.2	58.3	-59.0	5.6
2025-01-22 05:56:01.501018	9.9	58.8	-59.2	2.4
2025-01-22 05:56:02.650935	9.7	59.2	-61.7	6.4
2025-01-22 05:56:03.796882	9.5	59.7	-60.4	2.4
2025-01-22 05:56:04.942341	9.2	60.1	-61.2	4.9
2025-01-22 05:56:06.094291	9.0	60.5	-60.3	0.7
2025-01-22 05:56:07.242234	8.7	61.0	-61.1	5.3
2025-01-22 05:56:08.390176	8.4	61.4	-60.5	0.0
2025-01-22 05:56:09.535127	8.1	61.9	-60.9	5.5
2025-01-22 05:56:10.681074	7.8	62.3	-57.8	0.0
2025-01-22 05:56:11.825027	7.5	62.8	-60.3	2.4
2025-01-22 05:56:12.971973	7.2	63.3	-58.4	0.0
2025-01-22 05:56:14.118919	6.9	63.7	-58.3	0.0
2025-01-22 05:56:15.263869	6.5	64.2	-61.1	4.8
2025-01-22 05:56:16.406824	6.2	64.6	-59.9	2.3
2025-01-22 05:56:17.550777	5.8	65.1	-58.4	0.0
2025-01-22 05:56:18.698231	5.4	65.6	-58.3	0.0
2025-01-22 05:56:19.843181	5.0	66.1	-59.5	1.9
2025-01-22 05:56:20.987134	4.5	66.5	-59.1	0.0
2025-01-22 05:56:22.130090	4.1	67.0	-58.1	0.0
2025-01-22 05:56:23.276038	3.6	67.5	-59.6	1.1
2025-01-22 05:56:24.422493	3.1	67.9	-58.2	0.0
2025-01-22 05:56:25.569456	2.6	68.4	-58.8	0.0
2025-01-22 05:56:26.715404	2.1	68.9	-61.8	3.2
2025-01-22 05:56:27.859864	1.5	69.4	-61.2	3.8
2025-01-22 05:56:29.003818	0.9	69.9	-58.1	0.6
2025-01-22 05:56:30.162731	0.3	70.3	-58.4	0.1
2025-01-22 05:56:31.306685	359.6	70.8	-61.1	4.8
2025-01-22 05:56:32.452142	358.9	71.3	-58.6	0.0
2025-01-22 05:56:33.596096	358.2	71.8	-60.2	2.9
2025-01-22 05:56:34.740048	357.4	72.3	-58.6	0.5
2025-01-22 05:56:35.882514	356.6	72.7	-61.4	4.0
2025-01-22 05:56:37.027464	355.7	73.2	-62.3	3.4
2025-01-22 05:56:38.171417	354.8	73.7	-63.4	3.9
2025-01-22 05:56:39.315371	353.8	74.1	-62.2	3.3
2025-01-22 05:56:40.458835	352.7	74.6	-59.3	0.0
2025-01-22 05:56:41.605291	351.6	75.1	-58.9	0.0
2025-01-22 05:56:42.749244	350.4	75.5	-61.1	0.0
2025-01-22 05:56:43.893198	349.1	76.0	-61.9	2.6
2025-01-22 05:56:45.035663	347.8	76.4	-58.9	0.0
2025-01-22 05:56:46.181611	346.3	76.9	-59.2	0.5
2025-01-22 05:56:47.327559	344.8	77.3	-58.3	0.0
2025-01-22 05:56:48.474525	343.1	77.7	-58.6	0.9
2025-01-22 05:56:49.619475	341.3	78.1	-60.8	5.6
2025-01-22 05:56:50.762432	339.4	78.5	-59.5	0.9
2025-01-22 05:56:51.905413	337.3	78.9	-58.8	0.1
2025-01-22 05:56:53.047372	335.1	79.3	-59.8	0.4
2025-01-22 05:56:54.193320	332.7	79.7	-60.2	2.3
2025-01-22 05:56:55.336276	330.2	80.0	-59.2	3.0
2025-01-22 05:56:56.481226	327.4	80.3	-59.7	2.6
2025-01-22 05:56:57.625179	324.5	80.6	-60.7	3.2
2025-01-22 05:56:58.768135	321.4	80.9	-59.0	1.0
2025-01-22 05:56:59.916077	318.1	81.1	-61.6	6.5
2025-01-22 05:57:01.058037	314.7	81.4	-59.4	0.8
2025-01-22 05:57:02.210965	311.0	81.5	-58.8	2.2
2025-01-22 05:57:03.356913	307.3	81.7	-58.8	0.6
2025-01-22 05:57:04.500867	303.4	81.8	-59.2	1.1
2025-01-22 05:57:05.643822	299.4	81.9	-58.7	1.8
2025-01-22 05:57:06.789770	295.3	81.9	-60.9	2.8
2025-01-22 05:57:07.934741	291.3	81.9	-62.7	5.3
2025-01-22 05:57:09.079692	287.2	81.9	-63.4	6.1
2025-01-22 05:57:10.222159	283.3	81.8	-60.2	3.2
2025-01-22 05:57:11.367126	279.4	81.7	-59.9	2.5
2025-01-22 05:57:12.515068	275.7	81.5	-59.9	3.4
2025-01-22 05:57:13.660019	272.1	81.3	-60.3	4.3
2025-01-22 05:57:14.803484	268.7	81.1	-59.9	2.1
2025-01-22 05:57:15.949432	265.5	80.8	-60.1	3.1
2025-01-22 05:57:17.093385	262.4	80.5	-60.7	3.0
2025-01-22 05:57:18.244319	259.6	80.2	-60.6	4.4
2025-01-22 05:57:19.389271	256.9	79.9	-60.1	4.8
2025-01-22 05:57:20.534221	254.4	79.5	-60.2	5.6
2025-01-22 05:57:21.685156	252.1	79.2	-59.9	5.4
2025-01-22 05:57:22.833098	249.9	78.8	-60.3	5.0
2025-01-22 05:57:23.981058	247.9	78.4	-60.0	4.9
2025-01-22 05:57:25.127005	246.0	78.0	-60.1	4.9
2025-01-22 05:57:26.272953	244.3	77.6	-60.6	6.7
2025-01-22 05:57:27.425883	242.6	77.1	-60.9	5.8
2025-01-22 05:57:28.576817	241.1	76.7	-60.8	4.9
2025-01-22 05:57:29.724270	239.7	76.3	-61.6	7.1
2025-01-22 05:57:30.871215	238.3	75.8	-61.6	4.9
2025-01-22 05:57:32.019158	237.1	75.4	-62.6	7.4
2025-01-22 05:57:33.167101	235.9	74.9	-62.9	7.3
2025-01-22 05:57:34.315042	234.8	74.4	-61.9	5.6
2025-01-22 05:57:35.462986	233.8	74.0	-62.2	7.1
2025-01-22 05:57:36.615914	232.8	73.5	-62.2	5.8
2025-01-22 05:57:37.764855	231.9	73.0	-62.8	6.1
2025-01-22 05:57:38.913794	231.1	72.5	-64.0	7.9
2025-01-22 05:57:40.063731	230.2	72.1	-62.7	5.2
2025-01-22 05:57:41.213180	229.5	71.6	-63.5	7.8
2025-01-22 05:57:42.363118	228.7	71.1	-64.0	9.0
2025-01-22 05:57:43.510063	228.1	70.6	-62.8	8.0
2025-01-22 05:57:44.661510	227.4	70.1	-62.9	5.9
2025-01-22 05:57:45.809454	226.8	69.7	-63.4	6.0
2025-01-22 05:57:46.957910	226.2	69.2	-63.1	6.4
2025-01-22 05:57:48.110840	225.6	68.7	-63.1	6.1
2025-01-22 05:57:49.261774	225.1	68.2	-62.9	6.6
2025-01-22 05:57:50.412218	224.6	67.7	-63.8	7.0
2025-01-22 05:57:51.561158	224.1	67.3	-63.0	7.8
2025-01-22 05:57:52.711095	223.7	66.8	-64.3	8.2
2025-01-22 05:57:53.866019	223.2	66.3	-64.2	8.1
2025-01-22 05:57:55.013962	222.8	65.8	-64.5	9.3
2025-01-22 05:57:56.162902	222.4	65.4	-63.7	7.4
2025-01-22 05:57:57.314835	222.0	64.9	-64.0	8.4
2025-01-22 05:57:58.469758	221.6	64.4	-62.4	6.7
2025-01-22 05:57:59.620692	221.3	64.0	-62.6	6.3
2025-01-22 05:58:00.769632	220.9	63.5	-65.1	11.9
2025-01-22 05:58:01.920567	220.6	63.0	-61.9	5.2
2025-01-22 05:58:03.072498	220.3	62.6	-63.3	12.2
2025-01-22 05:58:04.221457	220.0	62.1	-62.3	6.1
2025-01-22 05:58:05.374386	219.7	61.7	-63.3	9.6
2025-01-22 05:58:06.524323	219.4	61.2	-61.7	5.5
2025-01-22 05:58:07.677253	219.1	60.8	-63.0	7.5
2025-01-22 05:58:08.828187	218.9	60.3	-62.0	7.7
2025-01-22 05:58:09.980119	218.6	59.9	-62.4	7.5
2025-01-22 05:58:11.132051	218.4	59.4	-62.4	8.5
2025-01-22 05:58:12.284981	218.1	59.0	-62.1	7.4
2025-01-22 05:58:13.439904	217.9	58.5	-62.6	6.2
2025-01-22 05:58:14.591836	217.7	58.1	-62.6	7.2
2025-01-22 05:58:15.747758	217.5	57.7	-62.7	7.7
2025-01-22 05:58:16.898204	217.3	57.3	-61.8	7.5
2025-01-22 05:58:18.048140	217.1	56.8	-63.3	7.0
2025-01-22 05:58:19.199075	216.9	56.4	-62.7	7.9
2025-01-22 05:58:20.352004	216.7	56.0	-63.9	11.5
2025-01-22 05:58:21.501941	216.5	55.6	-63.3	9.1
2025-01-22 05:58:22.657374	216.3	55.2	-64.7	13.7
2025-01-22 05:58:23.809816	216.1	54.7	-64.0	6.9
2025-01-22 05:58:24.957759	216.0	54.3	-64.2	11.8
2025-01-22 05:58:26.109709	215.8	53.9	-64.9	11.2
2025-01-22 05:58:27.267626	215.6	53.5	-65.1	13.4
2025-01-22 05:58:28.421552	215.5	53.1	-65.2	10.9
2025-01-22 05:58:29.573994	215.3	52.7	-63.8	10.2
2025-01-22 05:58:30.726434	215.2	52.3	-65.1	10.9
2025-01-22 05:58:31.876881	215.1	51.9	-66.1	13.3
2025-01-22 05:58:33.026818	214.9	51.6	-65.4	12.3
2025-01-22 05:58:34.178262	214.8	51.2	-65.6	10.6
2025-01-22 05:58:35.329196	214.7	50.8	-66.5	14.4
2025-01-22 05:58:36.481128	214.5	50.4	-65.8	12.6
2025-01-22 05:58:37.632063	214.4	50.0	-66.2	12.3
2025-01-22 05:58:38.782998	214.3	49.7	-66.7	12.7
2025-01-22 05:58:39.936433	214.2	49.3	-67.3	13.5
2025-01-22 05:58:41.087368	214.1	48.9	-66.4	12.6
2025-01-22 05:58:42.241294	213.9	48.6	-67.3	11.8
2025-01-22 05:58:43.392229	213.8	48.2	-67.0	12.5
2025-01-22 05:58:44.544161	213.7	47.8	-66.4	11.0
2025-01-22 05:58:45.698089	213.6	47.5	-67.0	11.8
2025-01-22 05:58:46.850040	213.5	47.1	-67.1	11.4
2025-01-22 05:58:48.001971	213.4	46.8	-67.0	10.7
2025-01-22 05:58:49.154901	213.3	46.4	-67.1	11.2
2025-01-22 05:58:50.307830	213.2	46.1	-67.6	10.5
2025-01-22 05:58:51.464748	213.1	45.7	-67.4	10.4
2025-01-22 05:58:52.617678	213.0	45.4	-67.8	11.3
2025-01-22 05:58:53.770608	213.0	45.1	-68.4	11.8
2025-01-22 05:58:54.920544	212.9	44.7	-67.5	9.6
2025-01-22 05:58:56.071479	212.8	44.4	-68.1	11.1
2025-01-22 05:58:57.224408	212.7	44.1	-68.0	11.3
2025-01-22 05:58:58.374346	212.6	43.7	-67.7	11.5
2025-01-22 05:58:59.526789	212.5	43.4	-67.5	10.6
2025-01-22 05:59:00.677723	212.5	43.1	-67.1	10.8
2025-01-22 05:59:01.830164	212.4	42.8	-67.3	10.3
2025-01-22 05:59:02.984090	212.3	42.5	-67.8	11.2
2025-01-22 05:59:04.135026	212.2	42.1	-67.7	12.1
2025-01-22 05:59:05.287955	212.2	41.8	-67.2	11.6
2025-01-22 05:59:06.440395	212.1	41.5	-67.5	12.5
2025-01-22 05:59:07.591329	212.0	41.2	-67.1	11.8
2025-01-22 05:59:08.743261	212.0	40.9	-67.4	13.4
2025-01-22 05:59:09.898184	211.9	40.6	-68.0	11.5
2025-01-22 05:59:11.052111	211.8	40.3	-68.0	13.2
2025-01-22 05:59:12.211049	211.8	40.0	-67.4	11.5
2025-01-22 05:59:13.363978	211.7	39.7	-67.4	12.8
2025-01-22 05:59:14.516907	211.6	39.4	-66.6	10.9
2025-01-22 05:59:15.667843	211.6	39.2	-66.7	11.2
2025-01-22 05:59:16.818778	211.5	38.9	-66.6	11.3
2025-01-22 05:59:17.970709	211.5	38.6	-66.9	12.6
2025-01-22 05:59:19.122641	211.4	38.3	-68.0	13.4
2025-01-22 05:59:20.274572	211.3	38.0	-67.1	11.8
2025-01-22 05:59:21.427502	211.3	37.7	-67.1	12.0
2025-01-22 05:59:22.580430	211.2	37.5	-67.3	12.3
2025-01-22 05:59:23.736356	211.2	37.2	-67.3	11.3
2025-01-22 05:59:24.889284	211.1	36.9	-67.6	12.2
2025-01-22 05:59:26.041725	211.1	36.7	-67.9	11.7
2025-01-22 05:59:27.196647	211.0	36.4	-65.5	6.9
2025-01-22 05:59:28.351573	211.0	36.1	-66.5	8.3
2025-01-22 05:59:29.509488	210.9	35.9	-67.0	11.3
2025-01-22 05:59:30.662416	210.9	35.6	-67.4	10.2
2025-01-22 05:59:31.815347	210.8	35.3	-66.7	10.8
2025-01-22 05:59:32.965283	210.8	35.1	-65.9	9.8
2025-01-22 05:59:34.115221	210.7	34.8	-67.2	10.8
2025-01-22 05:59:35.266155	210.7	34.6	-67.2	10.0
2025-01-22 05:59:36.417090	210.6	34.3	-66.5	9.6
2025-01-22 05:59:37.574008	210.6	34.1	-67.1	12.2
2025-01-22 05:59:38.722948	210.6	33.8	-66.3	10.6
2025-01-22 05:59:39.875895	210.5	33.6	-66.2	10.1
2025-01-22 05:59:41.024835	210.5	33.4	-66.4	12.2
2025-01-22 05:59:42.172778	210.4	33.1	-66.0	8.9
2025-01-22 05:59:43.321227	210.4	32.9	-66.0	10.5
2025-01-22 05:59:44.468173	210.4	32.6	-66.5	10.5
2025-01-22 05:59:45.613123	210.3	32.4	-65.4	10.2
2025-01-22 05:59:46.760068	210.3	32.2	-65.6	10.8
2025-01-22 05:59:47.910005	210.2	32.0	-65.3	10.4
2025-01-22 05:59:49.056951	210.2	31.7	-65.8	11.2
2025-01-22 05:59:50.203896	210.2	31.5	-65.7	9.8
2025-01-22 05:59:51.349844	210.1	31.3	-66.0	10.8
2025-01-22 05:59:52.497786	210.1	31.1	-66.0	11.9
2025-01-22 05:59:53.642736	210.1	30.8	-65.8	10.2
2025-01-22 05:59:54.788195	210.0	30.6	-66.2	13.0
2025-01-22 05:59:55.933145	210.0	30.4	-65.3	10.3
2025-01-22 05:59:57.076101	210.0	30.2	-66.6	10.6
2025-01-22 05:59:58.221052	209.9	30.0	-71.1	0.0
#Closed at: 2025-01-22 05:54:11.282906