passes_logs/2025/01/22/Planum_Noyabrsk/Planum_Noyabrsk__20250122_141129_NOAA_19_rec.log

#Pass ID: 20250122_141129_NOAA 19
#Satellite: NOAA 19
#Configuration: NOAA 19
#Start time: 2025-01-22 14:11:34.690556

#LorettStation: 1.0.0 05.05.2024
#Station: Planum_Noyabrsk
#Location: 75.446886 lon 63.207202 lat
#TLE: 1 33591U 09005A   25021.44668149  .00000397  00000+0  23595-3 0  9992
#TLE: 2 33591  99.0185  85.2586 0014259  40.1684 320.0539 14.13265033822454

#Time	Az	El	Level	SNR
2025-01-22 14:11:44.931113	97.9	31.5	-45.5	0.0
2025-01-22 14:11:46.073072	97.6	31.6	-45.9	0.0
2025-01-22 14:11:47.213036	97.4	31.8	-45.8	0.0
2025-01-22 14:11:48.355518	97.1	31.9	-45.7	0.0
2025-01-22 14:11:49.497477	96.8	32.1	-45.1	0.0
2025-01-22 14:11:50.637950	96.5	32.3	-46.0	0.0
2025-01-22 14:11:51.779417	96.2	32.4	-44.9	0.0
2025-01-22 14:11:52.922373	95.9	32.6	-45.6	0.0
2025-01-22 14:11:54.064331	95.6	32.8	-45.2	0.0
2025-01-22 14:11:55.205293	95.3	32.9	-44.6	0.0
2025-01-22 14:11:56.350243	95.0	33.1	-45.2	0.0
2025-01-22 14:11:57.492202	94.6	33.2	-45.2	0.0
2025-01-22 14:11:58.633670	94.3	33.4	-46.4	0.0
2025-01-22 14:11:59.775629	94.0	33.6	-45.4	0.0
2025-01-22 14:12:00.917098	93.7	33.7	-46.5	0.0
2025-01-22 14:12:02.059057	93.4	33.9	-46.2	0.0
2025-01-22 14:12:03.202013	93.0	34.1	-46.3	0.0
2025-01-22 14:12:04.345966	92.7	34.2	-45.8	0.0
2025-01-22 14:12:05.492421	92.4	34.4	-46.2	0.0
2025-01-22 14:12:06.635377	92.0	34.5	-45.8	0.0
2025-01-22 14:12:07.776338	91.7	34.7	-45.8	0.0
2025-01-22 14:12:08.921289	91.3	34.9	-46.2	0.0
2025-01-22 14:12:10.064245	91.0	35.0	-46.8	0.0
2025-01-22 14:12:11.207201	90.6	35.2	-46.5	0.0
2025-01-22 14:12:12.351155	90.3	35.3	-47.4	0.0
2025-01-22 14:12:13.495108	89.9	35.5	-46.7	0.0
2025-01-22 14:12:14.637066	89.5	35.7	-46.0	0.0
2025-01-22 14:12:15.779059	89.2	35.8	-47.8	0.0
2025-01-22 14:12:16.924029	88.8	36.0	-47.3	0.0
2025-01-22 14:12:18.064971	88.4	36.1	-47.7	0.0
2025-01-22 14:12:19.206929	88.0	36.3	-47.8	0.0
2025-01-22 14:12:20.347890	87.7	36.4	-46.6	0.0
2025-01-22 14:12:21.489849	87.3	36.6	-48.0	0.0
2025-01-22 14:12:22.632313	86.9	36.7	-47.6	0.0
2025-01-22 14:12:23.773274	86.5	36.9	-47.4	0.0
2025-01-22 14:12:24.916230	86.1	37.0	-48.6	0.0
2025-01-22 14:12:26.059186	85.7	37.2	-48.1	0.0
2025-01-22 14:12:27.205134	85.3	37.3	-48.0	0.0
2025-01-22 14:12:28.347094	84.9	37.5	-49.7	0.0
2025-01-22 14:12:29.490049	84.5	37.6	-48.9	0.0
2025-01-22 14:12:30.636994	84.1	37.8	-48.0	0.0
2025-01-22 14:12:31.777955	83.6	37.9	-48.6	0.0
2025-01-22 14:12:32.918917	83.2	38.1	-49.4	0.0
2025-01-22 14:12:34.061873	82.8	38.2	-48.9	0.0
2025-01-22 14:12:35.203831	82.4	38.4	-49.0	0.0
2025-01-22 14:12:36.348291	81.9	38.5	-49.8	0.0
2025-01-22 14:12:37.491246	81.5	38.6	-48.4	0.0
2025-01-22 14:12:38.632208	81.0	38.8	-50.0	0.0
2025-01-22 14:12:39.777666	80.6	38.9	-52.1	0.0
2025-01-22 14:12:40.919626	80.2	39.1	-50.9	0.0
2025-01-22 14:12:42.061095	79.7	39.2	-52.4	0.0
2025-01-22 14:12:43.208547	79.2	39.3	-52.5	0.0
2025-01-22 14:12:44.350506	78.8	39.4	-50.5	0.0
2025-01-22 14:12:45.492464	78.3	39.6	-51.9	0.0
2025-01-22 14:12:46.633426	77.8	39.7	-49.3	0.0
2025-01-22 14:12:47.775385	77.4	39.8	-52.6	0.0
2025-01-22 14:12:48.918340	76.9	40.0	-53.3	0.0
2025-01-22 14:12:50.061298	76.4	40.1	-54.0	0.0
2025-01-22 14:12:51.202257	75.9	40.2	-55.9	0.0
2025-01-22 14:12:52.345213	75.5	40.3	-54.2	0.0
2025-01-22 14:12:53.487684	75.0	40.4	-56.6	0.0
2025-01-22 14:12:54.631638	74.5	40.5	-56.9	0.0
2025-01-22 14:12:55.774594	74.0	40.7	-56.4	0.0
2025-01-22 14:12:56.915065	73.5	40.8	-57.9	0.0
2025-01-22 14:12:58.058020	73.0	40.9	-58.1	1.7
2025-01-22 14:12:59.200978	72.5	41.0	-56.1	0.0
2025-01-22 14:13:00.341447	72.0	41.1	-55.4	0.0
2025-01-22 14:13:01.484403	71.5	41.2	-56.6	0.0
2025-01-22 14:13:02.626361	70.9	41.3	-57.2	0.0
2025-01-22 14:13:03.770820	70.4	41.4	-55.5	0.0
2025-01-22 14:13:04.911781	69.9	41.5	-54.6	0.0
2025-01-22 14:13:06.053740	69.4	41.6	-57.3	0.1
2025-01-22 14:13:07.203187	68.8	41.6	-57.6	0.0
2025-01-22 14:13:08.345145	68.3	41.7	-54.2	0.0
2025-01-22 14:13:09.486106	67.8	41.8	-55.9	0.0
2025-01-22 14:13:10.629062	67.2	41.9	-55.2	0.0
2025-01-22 14:13:11.770023	66.7	42.0	-52.7	0.0
2025-01-22 14:13:12.912979	66.2	42.0	-57.6	0.0
2025-01-22 14:13:14.055935	65.6	42.1	-59.0	2.4
2025-01-22 14:13:15.199888	65.1	42.2	-57.0	0.0
2025-01-22 14:13:16.341847	64.5	42.3	-59.1	0.7
2025-01-22 14:13:17.487795	64.0	42.3	-59.2	0.9
2025-01-22 14:13:18.629754	63.4	42.4	-58.9	0.0
2025-01-22 14:13:19.769719	62.9	42.4	-58.6	0.0
2025-01-22 14:13:20.913182	62.3	42.5	-58.0	0.2
2025-01-22 14:13:22.054650	61.8	42.5	-58.8	0.0
2025-01-22 14:13:23.195611	61.2	42.6	-58.0	0.0
2025-01-22 14:13:24.340561	60.6	42.6	-58.3	5.3
2025-01-22 14:13:25.483518	60.1	42.7	-59.5	0.0
2025-01-22 14:13:26.624479	59.5	42.7	-60.8	3.9
2025-01-22 14:13:27.767454	58.9	42.8	-60.7	3.4
2025-01-22 14:13:28.907417	58.4	42.8	-60.5	2.4
2025-01-22 14:13:30.048379	57.8	42.8	-62.1	2.8
2025-01-22 14:13:31.193841	57.2	42.9	-56.6	0.0
2025-01-22 14:13:32.333315	56.7	42.9	-60.2	0.8
2025-01-22 14:13:33.476270	56.1	42.9	-60.4	0.0
2025-01-22 14:13:34.618229	55.5	42.9	-60.0	1.9
2025-01-22 14:13:35.762182	54.9	42.9	-60.3	2.5
2025-01-22 14:13:36.906136	54.4	42.9	-59.9	1.4
2025-01-22 14:13:38.048600	53.8	43.0	-60.3	0.0
2025-01-22 14:13:39.191065	53.2	43.0	-59.8	1.5
2025-01-22 14:13:40.333024	52.7	43.0	-59.1	0.0
2025-01-22 14:13:41.479480	52.1	43.0	-59.9	1.7
2025-01-22 14:13:42.621438	51.5	43.0	-59.3	0.7
2025-01-22 14:13:43.763397	50.9	42.9	-60.3	2.3
2025-01-22 14:13:44.904358	50.4	42.9	-58.7	0.0
2025-01-22 14:13:46.046317	49.8	42.9	-59.6	2.2
2025-01-22 14:13:47.188275	49.2	42.9	-59.0	0.6
2025-01-22 14:13:48.331232	48.6	42.9	-59.7	2.0
2025-01-22 14:13:49.474187	48.1	42.9	-59.3	3.5
2025-01-22 14:13:50.617143	47.5	42.8	-57.8	0.0
2025-01-22 14:13:51.757612	46.9	42.8	-57.1	3.4
2025-01-22 14:13:52.899572	46.4	42.8	-56.9	0.0
2025-01-22 14:13:54.040532	45.8	42.7	-58.1	0.0
2025-01-22 14:13:55.183490	45.2	42.7	-58.0	2.5
2025-01-22 14:13:56.324449	44.7	42.6	-57.1	0.0
2025-01-22 14:13:57.466408	44.1	42.6	-58.5	3.7
2025-01-22 14:13:58.607369	43.6	42.6	-57.9	2.6
2025-01-22 14:13:59.749329	43.0	42.5	-58.8	3.3
2025-01-22 14:14:00.895276	42.5	42.4	-58.4	3.6
2025-01-22 14:14:02.036237	41.9	42.4	-59.4	3.3
2025-01-22 14:14:03.177706	41.3	42.3	-57.5	2.3
2025-01-22 14:14:04.320662	40.8	42.3	-59.4	2.0
2025-01-22 14:14:05.461132	40.2	42.2	-58.7	2.2
2025-01-22 14:14:06.604088	39.7	42.1	-56.7	2.2
2025-01-22 14:14:07.745049	39.2	42.1	-56.9	0.0
2025-01-22 14:14:08.888023	38.6	42.0	-57.1	0.0
2025-01-22 14:14:10.030979	38.1	41.9	-57.6	0.0
2025-01-22 14:14:11.174932	37.5	41.8	-56.9	0.0
2025-01-22 14:14:12.318397	37.0	41.7	-56.0	0.0
2025-01-22 14:14:13.460353	36.5	41.7	-56.1	0.0
2025-01-22 14:14:14.603309	36.0	41.6	-57.3	0.0
2025-01-22 14:14:15.743273	35.4	41.5	-54.4	0.0
2025-01-22 14:14:16.887227	34.9	41.4	-55.8	0.0
2025-01-22 14:14:18.029185	34.4	41.3	-55.3	0.0
2025-01-22 14:14:19.169656	33.9	41.2	-56.3	0.0
2025-01-22 14:14:20.312613	33.4	41.1	-55.2	0.0
2025-01-22 14:14:21.453573	32.9	41.0	-54.7	0.0
2025-01-22 14:14:22.596548	32.4	40.9	-54.7	0.0
2025-01-22 14:14:23.739503	31.9	40.8	-56.0	0.0
2025-01-22 14:14:24.882460	31.4	40.7	-56.7	0.0
2025-01-22 14:14:26.023421	30.9	40.6	-56.3	0.4
2025-01-22 14:14:27.166378	30.4	40.4	-54.5	0.0
2025-01-22 14:14:28.309334	29.9	40.3	-56.7	0.0
2025-01-22 14:14:29.458273	29.4	40.2	-56.8	1.8
2025-01-22 14:14:30.599234	28.9	40.1	-56.0	0.0
2025-01-22 14:14:31.742190	28.4	40.0	-56.7	0.3
2025-01-22 14:14:32.882170	28.0	39.8	-56.0	1.2
2025-01-22 14:14:34.025127	27.5	39.7	-54.9	0.0
2025-01-22 14:14:35.169588	27.0	39.6	-54.9	0.9
2025-01-22 14:14:36.312053	26.6	39.5	-55.9	1.3
2025-01-22 14:14:37.454012	26.1	39.3	-53.6	0.0
2025-01-22 14:14:38.600468	25.7	39.2	-56.1	0.0
2025-01-22 14:14:39.747414	25.2	39.1	-54.8	0.0
2025-01-22 14:14:40.890370	24.8	38.9	-56.0	0.0
2025-01-22 14:14:42.034832	24.3	38.8	-55.6	0.0
2025-01-22 14:14:43.176791	23.9	38.7	-53.4	0.0
2025-01-22 14:14:44.318260	23.4	38.5	-52.8	0.0
2025-01-22 14:14:45.460219	23.0	38.4	-52.7	0.0
2025-01-22 14:14:46.602685	22.6	38.2	-53.6	0.0
2025-01-22 14:14:47.743646	22.1	38.1	-55.7	0.0
2025-01-22 14:14:48.885606	21.7	38.0	-54.1	0.0
2025-01-22 14:14:50.030066	21.3	37.8	-54.9	0.0
2025-01-22 14:14:51.172025	20.9	37.7	-54.8	0.0
2025-01-22 14:14:52.312986	20.5	37.5	-54.8	0.0
2025-01-22 14:14:53.456449	20.1	37.4	-54.2	0.0
2025-01-22 14:14:54.600403	19.7	37.2	-56.1	0.0
2025-01-22 14:14:55.741364	19.3	37.1	-53.4	0.0
2025-01-22 14:14:56.885317	18.9	36.9	-54.8	0.0
2025-01-22 14:14:58.026278	18.5	36.8	-55.3	0.0
2025-01-22 14:14:59.168237	18.1	36.6	-53.8	0.0
2025-01-22 14:15:00.310702	17.7	36.5	-53.8	0.0
2025-01-22 14:15:01.454656	17.3	36.3	-56.3	0.0
2025-01-22 14:15:02.596614	17.0	36.2	-55.2	0.0
2025-01-22 14:15:03.746073	16.6	36.0	-55.7	0.0
2025-01-22 14:15:04.889030	16.2	35.9	-55.9	0.0
2025-01-22 14:15:06.030987	15.8	35.7	-59.6	0.0
2025-01-22 14:15:07.173452	15.5	35.5	-57.3	0.0
2025-01-22 14:15:08.315920	15.1	35.4	-56.5	0.0
2025-01-22 14:15:09.459873	14.8	35.2	-56.6	0.0
2025-01-22 14:15:10.603336	14.4	35.1	-57.7	0.0
2025-01-22 14:15:11.749284	14.1	34.9	-58.3	0.0
2025-01-22 14:15:12.893237	13.7	34.7	-59.3	0.0
2025-01-22 14:15:14.038208	13.4	34.6	-57.1	0.0
2025-01-22 14:15:15.181163	13.0	34.4	-59.2	0.0
2025-01-22 14:15:16.321127	12.7	34.3	-59.3	0.0
2025-01-22 14:15:17.463085	12.4	34.1	-60.1	0.0
2025-01-22 14:15:18.605045	12.0	33.9	-58.7	0.0
2025-01-22 14:15:19.748998	11.7	33.8	-59.5	0.0
2025-01-22 14:15:20.893459	11.4	33.6	-59.0	0.0
2025-01-22 14:15:22.033423	11.1	33.5	-57.5	0.0
2025-01-22 14:15:23.175381	10.8	33.3	-59.5	0.0
2025-01-22 14:15:24.316850	10.4	33.1	-60.1	3.0
2025-01-22 14:15:25.459314	10.1	33.0	-59.7	0.0
2025-01-22 14:15:26.599278	9.8	32.8	-59.8	2.1
2025-01-22 14:15:27.742240	9.5	32.7	-58.9	0.0
2025-01-22 14:15:28.884193	9.2	32.5	-59.3	1.3
2025-01-22 14:15:30.026659	8.9	32.3	-60.6	3.5
2025-01-22 14:15:31.169620	8.6	32.2	-59.4	4.0
2025-01-22 14:15:32.310576	8.3	32.0	-59.6	3.1
2025-01-22 14:15:33.452534	8.0	31.8	-62.0	5.3
2025-01-22 14:15:34.594003	7.8	31.7	-59.7	2.5
2025-01-22 14:15:35.735962	7.5	31.5	-62.1	8.1
2025-01-22 14:15:36.876923	7.2	31.4	-61.8	4.1
2025-01-22 14:15:38.025373	6.9	31.2	-62.6	3.9
2025-01-22 14:15:39.171320	6.6	31.0	-61.6	4.4
2025-01-22 14:15:40.313279	6.4	30.9	-62.6	5.6
2025-01-22 14:15:41.458737	6.1	30.7	-62.2	4.8
2025-01-22 14:15:42.600205	5.8	30.6	-63.2	6.7
2025-01-22 14:15:43.742163	5.6	30.4	-63.0	6.4
2025-01-22 14:15:44.882634	5.3	30.2	-62.0	5.5
2025-01-22 14:15:46.025590	5.1	30.1	-64.1	1.1
#Closed at: 2025-01-22 14:11:29.693698