passes_logs/2025/01/22/Planum_Noyabrsk/Planum_Noyabrsk__20250122_061755_NOAA_18_rec.log

#Pass ID: 20250122_061755_NOAA 18
#Satellite: NOAA 18
#Configuration: NOAA 18
#Start time: 2025-01-22 06:18:00.957429

#LorettStation: 1.0.0 05.05.2024
#Station: Planum_Noyabrsk
#Location: 75.446886 lon 63.207202 lat
#TLE: 1 28654U 05018A   25021.46278134  .00000457  00000+0  26606-3 0  9992
#TLE: 2 28654  98.8557 102.4527 0014640 161.2777 198.8937 14.13492937 14098

#Time	Az	El	Level	SNR
2025-01-22 06:18:07.177908	35.6	31.1	-55.3	0.0
2025-01-22 06:18:08.328842	35.7	31.3	-55.5	0.0
2025-01-22 06:18:09.481770	35.9	31.5	-53.7	0.0
2025-01-22 06:18:10.634212	36.1	31.7	-54.7	0.0
2025-01-22 06:18:11.785146	36.2	31.9	-56.8	0.0
2025-01-22 06:18:12.939073	36.4	32.1	-56.5	0.0
2025-01-22 06:18:14.091005	36.6	32.4	-56.5	0.0
2025-01-22 06:18:15.242937	36.7	32.6	-55.2	0.0
2025-01-22 06:18:16.399368	36.9	32.8	-55.4	0.0
2025-01-22 06:18:17.550810	37.1	33.0	-56.9	0.0
2025-01-22 06:18:18.704250	37.3	33.2	-56.5	0.0
2025-01-22 06:18:19.856180	37.4	33.4	-57.2	0.0
2025-01-22 06:18:21.007114	37.6	33.7	-57.2	0.0
2025-01-22 06:18:22.160044	37.8	33.9	-57.0	0.0
2025-01-22 06:18:23.309981	38.0	34.1	-58.5	0.0
2025-01-22 06:18:24.467408	38.2	34.3	-57.1	0.0
2025-01-22 06:18:25.619339	38.4	34.6	-57.5	0.0
2025-01-22 06:18:26.770273	38.6	34.8	-57.6	0.0
2025-01-22 06:18:27.923203	38.8	35.0	-58.0	0.0
2025-01-22 06:18:29.074157	39.0	35.2	-58.4	0.0
2025-01-22 06:18:30.227087	39.2	35.5	-56.1	0.0
2025-01-22 06:18:31.374033	39.4	35.7	-57.4	0.0
2025-01-22 06:18:32.524966	39.6	35.9	-56.0	0.0
2025-01-22 06:18:33.672909	39.8	36.2	-55.5	0.0
2025-01-22 06:18:34.822846	40.0	36.4	-57.3	0.0
2025-01-22 06:18:35.968794	40.2	36.7	-60.0	3.9
2025-01-22 06:18:37.116737	40.4	36.9	-58.8	0.1
2025-01-22 06:18:38.262196	40.7	37.1	-57.5	0.0
2025-01-22 06:18:39.411137	40.9	37.4	-56.8	0.0
2025-01-22 06:18:40.559586	41.1	37.6	-56.7	0.0
2025-01-22 06:18:41.710521	41.4	37.9	-58.4	0.0
2025-01-22 06:18:42.858463	41.6	38.1	-58.3	0.0
2025-01-22 06:18:44.003414	41.8	38.3	-55.9	0.0
2025-01-22 06:18:45.149361	42.1	38.6	-55.6	0.0
2025-01-22 06:18:46.299299	42.3	38.8	-60.0	0.0
2025-01-22 06:18:47.445247	42.6	39.1	-58.8	0.0
2025-01-22 06:18:48.590197	42.8	39.3	-56.2	0.0
2025-01-22 06:18:49.733153	43.1	39.6	-56.1	0.0
2025-01-22 06:18:50.881095	43.3	39.8	-54.8	0.0
2025-01-22 06:18:52.026046	43.6	40.1	-57.9	0.0
2025-01-22 06:18:53.169999	43.9	40.4	-57.3	0.0
2025-01-22 06:18:54.317986	44.2	40.6	-56.5	0.0
2025-01-22 06:18:55.461939	44.4	40.9	-58.7	2.3
2025-01-22 06:18:56.605893	44.7	41.1	-56.0	0.0
2025-01-22 06:18:57.750356	45.0	41.4	-58.0	0.0
2025-01-22 06:18:58.894309	45.3	41.6	-59.7	1.0
2025-01-22 06:19:00.040256	45.6	41.9	-56.4	0.0
2025-01-22 06:19:01.185207	45.9	42.2	-57.4	0.0
2025-01-22 06:19:02.331155	46.2	42.4	-58.1	0.0
2025-01-22 06:19:03.474111	46.5	42.7	-57.0	0.5
2025-01-22 06:19:04.621056	46.8	43.0	-58.1	0.0
2025-01-22 06:19:05.764013	47.2	43.2	-57.3	0.0
2025-01-22 06:19:06.908963	47.5	43.5	-55.2	0.0
2025-01-22 06:19:08.055907	47.8	43.8	-56.6	0.0
2025-01-22 06:19:09.201859	48.1	44.0	-58.6	2.2
2025-01-22 06:19:10.344828	48.5	44.3	-59.6	1.5
2025-01-22 06:19:11.489779	48.8	44.6	-58.6	1.6
2025-01-22 06:19:12.631737	49.2	44.8	-58.2	0.5
2025-01-22 06:19:13.775692	49.6	45.1	-58.8	0.8
2025-01-22 06:19:14.919644	49.9	45.4	-58.3	0.5
2025-01-22 06:19:16.063597	50.3	45.7	-57.3	0.0
2025-01-22 06:19:17.208547	50.7	45.9	-52.3	0.0
2025-01-22 06:19:18.350506	51.1	46.2	-58.1	0.0
2025-01-22 06:19:19.494459	51.5	46.5	-58.2	1.4
2025-01-22 06:19:20.637922	51.9	46.8	-58.4	1.5
2025-01-22 06:19:21.780878	52.3	47.0	-61.0	3.7
2025-01-22 06:19:22.923834	52.7	47.3	-61.5	5.0
2025-01-22 06:19:24.067787	53.1	47.6	-60.8	4.5
2025-01-22 06:19:25.211744	53.5	47.9	-59.4	1.5
2025-01-22 06:19:26.356691	54.0	48.1	-60.8	3.1
2025-01-22 06:19:27.503652	54.4	48.4	-55.8	0.0
2025-01-22 06:19:28.647605	54.9	48.7	-60.6	2.9
2025-01-22 06:19:29.793553	55.3	49.0	-61.5	3.2
2025-01-22 06:19:30.941495	55.8	49.2	-62.9	5.0
2025-01-22 06:19:32.086446	56.3	49.5	-60.1	0.4
2025-01-22 06:19:33.232394	56.8	49.8	-61.0	0.5
2025-01-22 06:19:34.379339	57.2	50.1	-61.3	0.0
2025-01-22 06:19:35.523292	57.8	50.3	-62.0	2.6
2025-01-22 06:19:36.668243	58.3	50.6	-63.0	4.0
2025-01-22 06:19:37.813193	58.8	50.9	-61.8	0.0
2025-01-22 06:19:38.957147	59.3	51.2	-61.8	2.1
2025-01-22 06:19:40.102098	59.9	51.4	-57.7	0.0
2025-01-22 06:19:41.247047	60.4	51.7	-60.3	0.0
2025-01-22 06:19:42.391999	61.0	52.0	-60.0	3.9
2025-01-22 06:19:43.535951	61.5	52.2	-60.5	1.8
2025-01-22 06:19:44.680902	62.1	52.5	-58.6	0.9
2025-01-22 06:19:45.828845	62.7	52.8	-56.5	0.0
2025-01-22 06:19:46.973811	63.3	53.0	-60.4	1.0
2025-01-22 06:19:48.117764	63.9	53.3	-60.8	0.8
2025-01-22 06:19:49.261717	64.5	53.5	-61.8	1.6
2025-01-22 06:19:50.405670	65.2	53.8	-61.4	3.9
2025-01-22 06:19:51.549623	65.8	54.0	-61.2	2.5
2025-01-22 06:19:52.694087	66.5	54.3	-59.8	0.0
2025-01-22 06:19:53.840035	67.2	54.5	-61.8	1.3
2025-01-22 06:19:54.982991	67.8	54.8	-62.3	4.6
2025-01-22 06:19:56.126944	68.5	55.0	-61.7	2.4
2025-01-22 06:19:57.271894	69.2	55.3	-60.3	0.6
2025-01-22 06:19:58.414363	69.9	55.5	-55.4	0.0
2025-01-22 06:19:59.559313	70.7	55.7	-60.7	0.0
2025-01-22 06:20:00.706258	71.4	56.0	-61.1	0.0
2025-01-22 06:20:01.850218	72.2	56.2	-60.7	0.0
2025-01-22 06:20:02.996667	72.9	56.4	-61.1	2.5
2025-01-22 06:20:04.142614	73.7	56.6	-56.8	0.0
2025-01-22 06:20:05.286568	74.5	56.8	-61.6	2.3
2025-01-22 06:20:06.430521	75.3	57.1	-62.1	5.0
2025-01-22 06:20:07.572479	76.1	57.3	-61.4	0.0
2025-01-22 06:20:08.718427	76.9	57.5	-61.2	2.7
2025-01-22 06:20:09.865373	77.8	57.7	-60.2	0.0
2025-01-22 06:20:11.008328	78.6	57.8	-62.1	3.4
2025-01-22 06:20:12.152281	79.5	58.0	-59.1	0.0
2025-01-22 06:20:13.297232	80.3	58.2	-63.1	3.2
2025-01-22 06:20:14.442182	81.2	58.4	-61.6	3.2
2025-01-22 06:20:15.586136	82.1	58.6	-56.6	0.0
2025-01-22 06:20:16.731086	83.0	58.7	-61.6	0.2
2025-01-22 06:20:17.873551	83.9	58.9	-59.6	0.0
2025-01-22 06:20:19.021512	84.9	59.0	-61.9	2.3
2025-01-22 06:20:20.166462	85.8	59.2	-59.0	0.0
2025-01-22 06:20:21.313408	86.8	59.3	-59.9	0.0
2025-01-22 06:20:22.459356	87.7	59.4	-57.2	0.0
2025-01-22 06:20:23.605303	88.7	59.5	-59.3	0.0
2025-01-22 06:20:24.752249	89.7	59.7	-62.8	5.4
2025-01-22 06:20:25.900191	90.7	59.8	-62.5	3.5
2025-01-22 06:20:27.045142	91.6	59.9	-60.5	0.6
2025-01-22 06:20:28.197583	92.6	60.0	-57.6	0.0
2025-01-22 06:20:29.342533	93.7	60.0	-61.6	1.2
2025-01-22 06:20:30.488482	94.7	60.1	-58.1	0.0
2025-01-22 06:20:31.635444	95.7	60.2	-59.3	0.0
2025-01-22 06:20:32.787376	96.7	60.3	-60.2	0.0
2025-01-22 06:20:33.935319	97.8	60.3	-61.7	3.3
2025-01-22 06:20:35.082263	98.8	60.4	-62.2	5.9
2025-01-22 06:20:36.230207	99.8	60.4	-59.5	0.0
2025-01-22 06:20:37.377152	100.9	60.4	-60.0	2.6
2025-01-22 06:20:38.527089	101.9	60.4	-53.8	0.0
2025-01-22 06:20:39.672041	103.0	60.5	-60.9	4.1
2025-01-22 06:20:40.818496	104.0	60.5	-55.0	0.0
2025-01-22 06:20:41.970428	105.0	60.5	-60.9	6.1
2025-01-22 06:20:43.118374	106.1	60.4	-59.4	4.3
2025-01-22 06:20:44.266314	107.1	60.4	-55.9	0.0
2025-01-22 06:20:45.414256	108.2	60.4	-61.5	5.5
2025-01-22 06:20:46.564193	109.2	60.3	-55.1	0.0
2025-01-22 06:20:47.714130	110.3	60.3	-59.0	1.6
2025-01-22 06:20:48.865065	111.3	60.2	-60.6	1.5
2025-01-22 06:20:50.015513	112.3	60.2	-62.6	6.2
2025-01-22 06:20:51.166447	113.3	60.1	-61.9	7.0
2025-01-22 06:20:52.314897	114.4	60.0	-60.7	3.7
2025-01-22 06:20:53.463837	115.4	59.9	-60.6	0.0
2025-01-22 06:20:54.611779	116.4	59.9	-59.4	0.0
2025-01-22 06:20:55.762715	117.4	59.7	-61.7	2.3
2025-01-22 06:20:56.912651	118.4	59.6	-59.4	0.0
2025-01-22 06:20:58.062588	119.3	59.5	-60.0	0.0
2025-01-22 06:20:59.210532	120.3	59.4	-61.7	0.0
2025-01-22 06:21:00.359471	121.3	59.3	-61.5	3.8
2025-01-22 06:21:01.512908	122.2	59.1	-61.2	0.0
2025-01-22 06:21:02.663842	123.2	59.0	-62.5	1.3
2025-01-22 06:21:03.816312	124.1	58.8	-64.4	5.1
2025-01-22 06:21:04.966249	125.0	58.7	-64.6	2.6
2025-01-22 06:21:06.117184	125.9	58.5	-65.3	5.4
2025-01-22 06:21:07.267121	126.8	58.3	-65.2	4.0
2025-01-22 06:21:08.417059	127.7	58.2	-61.3	2.6
2025-01-22 06:21:09.566000	128.6	58.0	-65.9	1.5
2025-01-22 06:21:10.722917	129.5	57.8	-60.6	0.0
2025-01-22 06:21:11.872855	130.3	57.6	-59.8	0.0
2025-01-22 06:21:13.027779	131.2	57.4	-60.7	0.0
2025-01-22 06:21:14.178224	132.0	57.2	-61.2	0.0
2025-01-22 06:21:15.327682	132.8	57.0	-65.7	3.7
2025-01-22 06:21:16.478605	133.6	56.8	-62.0	0.0
2025-01-22 06:21:17.629539	134.4	56.6	-62.5	0.0
2025-01-22 06:21:18.785461	135.2	56.3	-63.5	1.1
2025-01-22 06:21:19.936902	135.9	56.1	-63.3	0.0
2025-01-22 06:21:21.088834	136.7	55.9	-65.5	3.3
2025-01-22 06:21:22.240766	137.4	55.6	-65.2	7.4
2025-01-22 06:21:23.396687	138.2	55.4	-65.1	6.0
2025-01-22 06:21:24.545626	138.9	55.2	-64.2	4.0
2025-01-22 06:21:25.695564	139.6	54.9	-64.6	5.4
2025-01-22 06:21:26.848493	140.3	54.7	-63.6	2.8
2025-01-22 06:21:27.998431	141.0	54.4	-63.4	7.0
2025-01-22 06:21:29.149874	141.6	54.2	-64.5	5.2
2025-01-22 06:21:30.307790	142.3	53.9	-65.9	8.9
2025-01-22 06:21:31.456731	142.9	53.7	-65.5	11.5
2025-01-22 06:21:32.606181	143.6	53.4	-65.7	10.3
2025-01-22 06:21:33.755626	144.2	53.1	-65.9	11.4
2025-01-22 06:21:34.907559	144.8	52.9	-65.4	9.3
2025-01-22 06:21:36.059490	145.4	52.6	-65.5	10.3
2025-01-22 06:21:37.210425	146.0	52.4	-66.2	11.4
2025-01-22 06:21:38.359405	146.6	52.1	-64.6	8.3
2025-01-22 06:21:39.512841	147.2	51.8	-66.4	13.6
2025-01-22 06:21:40.661781	147.7	51.5	-66.5	11.2
2025-01-22 06:21:41.811718	148.3	51.3	-65.1	7.2
2025-01-22 06:21:42.959661	148.8	51.0	-64.6	8.3
2025-01-22 06:21:44.111593	149.3	50.7	-66.2	11.9
2025-01-22 06:21:45.259535	149.9	50.4	-66.8	13.5
2025-01-22 06:21:46.410978	150.4	50.2	-65.8	12.0
2025-01-22 06:21:47.559917	150.9	49.9	-66.9	14.7
2025-01-22 06:21:48.710852	151.4	49.6	-66.1	11.5
2025-01-22 06:21:49.858795	151.9	49.3	-66.7	11.9
2025-01-22 06:21:51.012721	152.3	49.1	-65.8	11.2
2025-01-22 06:21:52.163657	152.8	48.8	-66.2	10.1
2025-01-22 06:21:53.314591	153.3	48.5	-66.0	9.9
2025-01-22 06:21:54.464528	153.7	48.2	-66.5	12.0
2025-01-22 06:21:55.618962	154.2	47.9	-66.8	10.9
2025-01-22 06:21:56.774883	154.6	47.7	-67.8	12.6
2025-01-22 06:21:57.928830	155.0	47.4	-67.8	11.7
2025-01-22 06:21:59.080762	155.4	47.1	-67.9	13.6
2025-01-22 06:22:00.233732	155.9	46.8	-67.7	13.6
2025-01-22 06:22:01.381674	156.3	46.6	-68.0	13.2
2025-01-22 06:22:02.528619	156.7	46.3	-67.8	12.6
2025-01-22 06:22:03.676562	157.1	46.0	-67.5	10.4
2025-01-22 06:22:04.822510	157.4	45.7	-67.5	10.3
2025-01-22 06:22:05.968458	157.8	45.4	-65.2	7.5
2025-01-22 06:22:07.116401	158.2	45.2	-68.8	11.2
2025-01-22 06:22:08.261351	158.6	44.9	-67.4	9.3
2025-01-22 06:22:09.406301	158.9	44.6	-68.7	11.1
2025-01-22 06:22:10.551252	159.3	44.4	-68.5	10.2
2025-01-22 06:22:11.696226	159.6	44.1	-65.3	4.6
2025-01-22 06:22:12.841153	160.0	43.8	-68.8	8.8
2025-01-22 06:22:13.988098	160.3	43.5	-64.5	5.6
2025-01-22 06:22:15.132052	160.6	43.3	-65.2	5.1
2025-01-22 06:22:16.278016	160.9	43.0	-67.8	7.4
2025-01-22 06:22:17.423963	161.3	42.7	-69.2	8.2
2025-01-22 06:22:18.567917	161.6	42.5	-68.8	8.4
2025-01-22 06:22:19.710907	161.9	42.2	-68.6	8.9
2025-01-22 06:22:20.856855	162.2	41.9	-67.6	5.8
2025-01-22 06:22:21.999810	162.5	41.7	-67.6	6.9
2025-01-22 06:22:23.150762	162.8	41.4	-65.6	5.5
2025-01-22 06:22:24.296710	163.1	41.1	-68.1	7.7
2025-01-22 06:22:25.443654	163.4	40.9	-68.3	9.1
2025-01-22 06:22:26.588605	163.6	40.6	-68.3	7.6
2025-01-22 06:22:27.731560	163.9	40.4	-68.5	6.6
2025-01-22 06:22:28.877509	164.2	40.1	-68.2	8.4
2025-01-22 06:22:30.020464	164.5	39.9	-68.7	9.1
2025-01-22 06:22:31.165415	164.7	39.6	-67.9	7.2
2025-01-22 06:22:32.310365	165.0	39.3	-64.8	9.9
2025-01-22 06:22:33.453321	165.2	39.1	-63.8	0.0
2025-01-22 06:22:34.597281	165.5	38.8	-63.3	0.0
2025-01-22 06:22:35.742225	165.7	38.6	-67.1	7.2
2025-01-22 06:22:36.889678	166.0	38.3	-66.4	7.5
2025-01-22 06:22:38.032634	166.2	38.1	-67.7	6.9
2025-01-22 06:22:39.176587	166.5	37.8	-62.2	0.0
2025-01-22 06:22:40.320049	166.7	37.6	-67.9	10.2
2025-01-22 06:22:41.465997	166.9	37.4	-63.0	8.3
2025-01-22 06:22:42.608953	167.2	37.1	-66.3	8.0
2025-01-22 06:22:43.751908	167.4	36.9	-67.3	9.9
2025-01-22 06:22:44.895861	167.6	36.6	-67.8	8.0
2025-01-22 06:22:46.037329	167.8	36.4	-67.6	11.4
2025-01-22 06:22:47.183277	168.0	36.2	-66.7	10.3
2025-01-22 06:22:48.327231	168.2	35.9	-66.6	10.2
2025-01-22 06:22:49.472181	168.5	35.7	-67.2	11.2
2025-01-22 06:22:50.617131	168.7	35.5	-66.9	10.7
2025-01-22 06:22:51.761084	168.9	35.2	-65.2	8.3
2025-01-22 06:22:52.906544	169.1	35.0	-66.3	10.3
2025-01-22 06:22:54.049500	169.3	34.8	-66.6	11.2
2025-01-22 06:22:55.194450	169.5	34.5	-62.3	2.8
2025-01-22 06:22:56.336409	169.6	34.3	-62.9	6.1
2025-01-22 06:22:57.479365	169.8	34.1	-66.7	11.6
2025-01-22 06:22:58.625313	170.0	33.9	-67.1	11.6
2025-01-22 06:22:59.774284	170.2	33.6	-67.2	11.8
2025-01-22 06:23:00.918236	170.4	33.4	-65.4	9.4
2025-01-22 06:23:02.061192	170.6	33.2	-66.0	9.8
2025-01-22 06:23:03.205145	170.7	33.0	-63.9	4.2
2025-01-22 06:23:04.349099	170.9	32.8	-64.9	6.6
2025-01-22 06:23:05.492073	171.1	32.5	-67.0	11.2
2025-01-22 06:23:06.635029	171.3	32.3	-66.6	11.0
2025-01-22 06:23:07.777985	171.4	32.1	-66.2	8.7
2025-01-22 06:23:08.919944	171.6	31.9	-63.6	3.6
2025-01-22 06:23:10.063897	171.8	31.7	-63.4	2.8
2025-01-22 06:23:11.207850	171.9	31.5	-66.4	9.0
2025-01-22 06:23:12.350806	172.1	31.3	-67.5	11.8
2025-01-22 06:23:13.494759	172.2	31.1	-67.2	10.6
2025-01-22 06:23:14.637715	172.4	30.9	-64.3	4.4
2025-01-22 06:23:15.780687	172.6	30.6	-64.8	6.6
2025-01-22 06:23:16.924640	172.7	30.4	-66.6	9.1
2025-01-22 06:23:18.067596	172.9	30.2	-65.4	9.7
2025-01-22 06:23:19.210552	173.0	30.0	-67.0	0.0
#Closed at: 2025-01-22 06:17:55.960790