passes_logs/2025/01/22/Planum_Noyabrsk/Planum_Noyabrsk__20250122_161446_NOAA_18_rec.log

#Pass ID: 20250122_161446_NOAA 18
#Satellite: NOAA 18
#Configuration: NOAA 18
#Start time: 2025-01-22 16:14:51.910491

#LorettStation: 1.0.0 05.05.2024
#Station: Planum_Noyabrsk
#Location: 75.446886 lon 63.207202 lat
#TLE: 1 28654U 05018A   25021.46278134  .00000457  00000+0  26606-3 0  9992
#TLE: 2 28654  98.8557 102.4527 0014640 161.2777 198.8937 14.13492937 14098

#Time	Az	El	Level	SNR
2025-01-22 16:15:04.138543	145.4	32.4	-63.7	3.1
2025-01-22 16:15:05.284491	145.4	32.6	-65.7	8.6
2025-01-22 16:15:06.429443	145.3	32.8	-63.4	3.3
2025-01-22 16:15:07.572398	145.2	33.1	-62.1	3.8
2025-01-22 16:15:08.718345	145.2	33.3	-61.1	1.3
2025-01-22 16:15:09.863297	145.1	33.5	-62.7	2.9
2025-01-22 16:15:11.007250	145.0	33.8	-62.9	3.9
2025-01-22 16:15:12.154296	145.0	34.0	-65.2	7.9
2025-01-22 16:15:13.297252	144.9	34.2	-63.7	7.1
2025-01-22 16:15:14.444198	144.8	34.5	-62.5	2.3
2025-01-22 16:15:15.588153	144.8	34.7	-62.7	5.5
2025-01-22 16:15:16.733102	144.7	35.0	-62.8	4.2
2025-01-22 16:15:17.883039	144.6	35.2	-63.8	2.5
2025-01-22 16:15:19.029984	144.5	35.5	-62.8	1.1
2025-01-22 16:15:20.176929	144.5	35.7	-63.7	4.5
2025-01-22 16:15:21.330858	144.4	36.0	-65.4	7.8
2025-01-22 16:15:22.477802	144.3	36.3	-62.1	1.8
2025-01-22 16:15:23.623749	144.2	36.5	-64.1	3.3
2025-01-22 16:15:24.772201	144.1	36.8	-63.7	2.9
2025-01-22 16:15:25.922137	144.1	37.1	-63.4	6.1
2025-01-22 16:15:27.068085	144.0	37.3	-63.6	5.2
2025-01-22 16:15:28.216027	143.9	37.6	-65.5	7.6
2025-01-22 16:15:29.363970	143.8	37.9	-63.8	4.8
2025-01-22 16:15:30.513907	143.7	38.1	-64.5	6.5
2025-01-22 16:15:31.660853	143.6	38.4	-62.9	3.3
2025-01-22 16:15:32.807310	143.5	38.7	-63.6	6.9
2025-01-22 16:15:33.953258	143.4	39.0	-64.5	7.0
2025-01-22 16:15:35.104194	143.3	39.2	-63.7	5.3
2025-01-22 16:15:36.255128	143.2	39.5	-66.2	10.4
2025-01-22 16:15:37.408057	143.1	39.8	-63.5	4.9
2025-01-22 16:15:38.556000	143.0	40.1	-63.7	6.1
2025-01-22 16:15:39.707933	142.9	40.4	-63.9	7.1
2025-01-22 16:15:40.856871	142.8	40.7	-64.9	6.8
2025-01-22 16:15:42.004842	142.7	41.0	-64.9	7.7
2025-01-22 16:15:43.153782	142.6	41.3	-65.0	8.2
2025-01-22 16:15:44.306711	142.5	41.6	-64.8	6.9
2025-01-22 16:15:45.456649	142.4	41.9	-65.2	8.0
2025-01-22 16:15:46.605589	142.3	42.2	-65.0	7.9
2025-01-22 16:15:47.761511	142.1	42.5	-62.5	6.1
2025-01-22 16:15:48.908455	142.0	42.8	-63.5	7.8
2025-01-22 16:15:50.055401	141.9	43.1	-63.9	6.7
2025-01-22 16:15:51.208330	141.8	43.4	-63.3	5.7
2025-01-22 16:15:52.360263	141.6	43.8	-64.3	7.6
2025-01-22 16:15:53.509203	141.5	44.1	-62.3	4.7
2025-01-22 16:15:54.659139	141.4	44.4	-62.1	2.2
2025-01-22 16:15:55.806594	141.2	44.7	-63.0	6.6
2025-01-22 16:15:56.956042	141.1	45.0	-62.7	5.4
2025-01-22 16:15:58.104495	141.0	45.4	-63.1	7.8
2025-01-22 16:15:59.254942	140.8	45.7	-62.0	4.3
2025-01-22 16:16:00.407871	140.7	46.0	-64.0	8.1
2025-01-22 16:16:01.559803	140.5	46.4	-63.1	7.7
2025-01-22 16:16:02.714727	140.3	46.7	-62.1	7.7
2025-01-22 16:16:03.867657	140.2	47.1	-64.2	9.6
2025-01-22 16:16:05.019588	140.0	47.4	-62.6	7.9
2025-01-22 16:16:06.171520	139.9	47.7	-63.2	7.9
2025-01-22 16:16:07.318976	139.7	48.1	-61.3	4.0
2025-01-22 16:16:08.471905	139.5	48.5	-63.0	8.0
2025-01-22 16:16:09.623838	139.3	48.8	-62.9	6.9
2025-01-22 16:16:10.771780	139.2	49.2	-63.5	7.5
2025-01-22 16:16:11.925708	139.0	49.5	-63.6	8.6
2025-01-22 16:16:13.084133	138.8	49.9	-62.2	5.1
2025-01-22 16:16:14.235067	138.6	50.3	-62.1	6.3
2025-01-22 16:16:15.386509	138.4	50.6	-63.3	6.0
2025-01-22 16:16:16.539439	138.2	51.0	-62.6	5.5
2025-01-22 16:16:17.695365	138.0	51.4	-60.3	0.6
2025-01-22 16:16:18.850793	137.7	51.7	-60.5	0.5
2025-01-22 16:16:20.002725	137.5	52.1	-61.1	2.9
2025-01-22 16:16:21.153679	137.3	52.5	-63.8	6.4
2025-01-22 16:16:22.305611	137.0	52.9	-63.1	5.4
2025-01-22 16:16:23.456060	136.8	53.3	-61.4	3.6
2025-01-22 16:16:24.606994	136.6	53.7	-62.2	5.3
2025-01-22 16:16:25.759923	136.3	54.0	-62.5	6.2
2025-01-22 16:16:26.914848	136.0	54.4	-61.9	3.1
2025-01-22 16:16:28.067287	135.8	54.8	-59.4	0.0
2025-01-22 16:16:29.219219	135.5	55.2	-60.8	4.3
2025-01-22 16:16:30.372149	135.2	55.6	-61.2	4.9
2025-01-22 16:16:31.525078	134.9	56.0	-61.0	3.4
2025-01-22 16:16:32.678008	134.6	56.4	-60.5	4.3
2025-01-22 16:16:33.830938	134.3	56.8	-60.3	4.3
2025-01-22 16:16:34.982870	134.0	57.2	-60.7	3.7
2025-01-22 16:16:36.134801	133.6	57.7	-59.4	1.8
2025-01-22 16:16:37.296221	133.3	58.1	-59.4	0.3
2025-01-22 16:16:38.450147	132.9	58.5	-59.4	1.5
2025-01-22 16:16:39.603101	132.6	58.9	-60.2	2.7
2025-01-22 16:16:40.756030	132.2	59.3	-59.1	0.0
2025-01-22 16:16:41.908958	131.8	59.7	-58.9	0.0
2025-01-22 16:16:43.067872	131.4	60.2	-58.8	0.0
2025-01-22 16:16:44.216812	131.0	60.6	-58.8	1.5
2025-01-22 16:16:45.364756	130.6	61.0	-57.3	0.0
2025-01-22 16:16:46.512697	130.1	61.4	-58.2	0.0
2025-01-22 16:16:47.660641	129.7	61.9	-59.0	0.0
2025-01-22 16:16:48.808582	129.2	62.3	-59.3	2.4
2025-01-22 16:16:49.956525	128.7	62.7	-58.6	0.0
2025-01-22 16:16:51.106463	128.2	63.1	-60.8	1.5
2025-01-22 16:16:52.251413	127.7	63.6	-60.1	0.2
2025-01-22 16:16:53.400861	127.1	64.0	-59.0	0.5
2025-01-22 16:16:54.546809	126.6	64.4	-61.8	2.0
2025-01-22 16:16:55.691760	126.0	64.8	-60.8	0.0
2025-01-22 16:16:56.837708	125.4	65.3	-59.7	0.0
2025-01-22 16:16:57.987645	124.7	65.7	-58.6	0.0
2025-01-22 16:16:59.135588	124.1	66.1	-59.4	0.0
2025-01-22 16:17:00.286522	123.4	66.6	-58.7	0.0
2025-01-22 16:17:01.431473	122.7	67.0	-59.0	0.0
2025-01-22 16:17:02.577421	121.9	67.4	-59.4	0.0
2025-01-22 16:17:03.722372	121.1	67.8	-60.8	0.0
2025-01-22 16:17:04.866325	120.3	68.2	-59.0	0.0
2025-01-22 16:17:06.013271	119.5	68.7	-59.0	0.0
2025-01-22 16:17:07.158221	118.6	69.1	-59.7	0.0
2025-01-22 16:17:08.304169	117.7	69.5	-60.2	0.0
2025-01-22 16:17:09.447125	116.7	69.9	-59.2	0.0
2025-01-22 16:17:10.598061	115.7	70.3	-59.1	0.0
2025-01-22 16:17:11.743011	114.7	70.7	-58.8	0.0
2025-01-22 16:17:12.891950	113.6	71.1	-61.0	0.0
2025-01-22 16:17:14.043882	112.5	71.5	-61.1	2.7
2025-01-22 16:17:15.186839	111.3	71.9	-59.8	0.0
2025-01-22 16:17:16.339767	110.0	72.3	-58.2	0.0
2025-01-22 16:17:17.484718	108.7	72.6	-58.3	0.0
2025-01-22 16:17:18.628672	107.3	73.0	-60.0	1.0
2025-01-22 16:17:19.780604	105.9	73.3	-59.1	0.0
2025-01-22 16:17:20.925554	104.4	73.7	-59.3	0.0
2025-01-22 16:17:22.068510	102.9	74.0	-59.8	1.0
2025-01-22 16:17:23.215455	101.2	74.3	-60.9	1.3
2025-01-22 16:17:24.360406	99.5	74.7	-61.9	3.7
2025-01-22 16:17:25.502367	97.8	75.0	-61.1	0.7
2025-01-22 16:17:26.645829	95.9	75.2	-61.2	3.6
2025-01-22 16:17:27.789781	94.0	75.5	-60.3	2.3
2025-01-22 16:17:28.935730	92.0	75.8	-60.5	1.7
2025-01-22 16:17:30.082675	90.0	76.0	-61.5	2.0
2025-01-22 16:17:31.226629	87.8	76.2	-61.4	0.0
2025-01-22 16:17:32.371088	85.6	76.4	-60.9	0.0
2025-01-22 16:17:33.515041	83.4	76.6	-62.6	1.8
2025-01-22 16:17:34.659992	81.0	76.8	-62.8	2.8
2025-01-22 16:17:35.802948	78.7	76.9	-61.0	0.0
2025-01-22 16:17:36.948406	76.2	77.0	-60.7	0.0
2025-01-22 16:17:38.090364	73.8	77.1	-59.9	0.0
2025-01-22 16:17:39.235332	71.3	77.2	-61.1	0.0
2025-01-22 16:17:40.378288	68.7	77.2	-60.6	0.0
2025-01-22 16:17:41.523248	66.2	77.3	-61.6	0.0
2025-01-22 16:17:42.666194	63.6	77.3	-59.8	0.0
2025-01-22 16:17:43.810148	61.1	77.2	-60.9	0.0
2025-01-22 16:17:44.954101	58.6	77.2	-61.5	0.0
2025-01-22 16:17:46.099569	56.1	77.1	-59.2	0.0
2025-01-22 16:17:47.248508	53.6	77.0	-60.4	0.0
2025-01-22 16:17:48.390973	51.2	76.9	-60.5	0.0
2025-01-22 16:17:49.533947	48.8	76.7	-60.8	0.0
2025-01-22 16:17:50.676903	46.5	76.6	-60.3	0.0
2025-01-22 16:17:51.820857	44.3	76.4	-61.4	0.0
2025-01-22 16:17:52.969817	42.1	76.2	-62.1	0.0
2025-01-22 16:17:54.114767	40.0	76.0	-61.0	0.0
2025-01-22 16:17:55.258723	37.9	75.7	-61.4	0.0
2025-01-22 16:17:56.402674	35.9	75.5	-62.9	0.0
2025-01-22 16:17:57.548621	34.0	75.2	-61.9	0.0
2025-01-22 16:17:58.692085	32.2	74.9	-63.1	0.0
2025-01-22 16:17:59.835040	30.5	74.6	-62.5	0.0
2025-01-22 16:18:00.982983	28.8	74.3	-62.5	0.0
2025-01-22 16:18:02.124942	27.2	74.0	-62.6	0.1
2025-01-22 16:18:03.270890	25.6	73.6	-61.9	0.0
2025-01-22 16:18:04.413846	24.2	73.3	-61.7	0.8
2025-01-22 16:18:05.555822	22.7	72.9	-62.1	0.8
2025-01-22 16:18:06.702276	21.4	72.5	-60.7	0.0
2025-01-22 16:18:07.844235	20.1	72.2	-61.5	2.4
2025-01-22 16:18:08.988188	18.9	71.8	-61.2	0.4
2025-01-22 16:18:10.131144	17.7	71.4	-60.4	0.0
2025-01-22 16:18:11.274100	16.6	71.0	-61.1	0.8
2025-01-22 16:18:12.417056	15.5	70.6	-62.1	3.1
2025-01-22 16:18:13.563004	14.4	70.2	-62.3	3.0
2025-01-22 16:18:14.706958	13.5	69.8	-62.6	5.6
2025-01-22 16:18:15.850910	12.5	69.4	-61.5	4.7
2025-01-22 16:18:16.993866	11.6	69.0	-60.4	4.2
2025-01-22 16:18:18.162753	10.7	68.6	-59.9	4.2
2025-01-22 16:18:19.305709	9.9	68.2	-61.5	7.2
2025-01-22 16:18:20.448665	9.1	67.7	-61.5	6.9
2025-01-22 16:18:21.594634	8.3	67.3	-61.5	6.7
2025-01-22 16:18:22.737590	7.6	66.9	-61.0	4.0
2025-01-22 16:18:23.881544	6.9	66.5	-62.1	4.5
2025-01-22 16:18:25.025008	6.2	66.0	-62.2	5.5
2025-01-22 16:18:26.170956	5.5	65.6	-61.1	4.5
2025-01-22 16:18:27.313912	4.9	65.2	-61.7	5.1
2025-01-22 16:18:28.455871	4.3	64.8	-62.5	6.9
2025-01-22 16:18:29.602815	3.7	64.3	-61.4	4.9
2025-01-22 16:18:30.746769	3.2	63.9	-62.3	7.1
2025-01-22 16:18:31.889746	2.6	63.5	-62.1	5.3
2025-01-22 16:18:33.031706	2.1	63.1	-62.4	6.9
2025-01-22 16:18:34.175658	1.6	62.6	-61.8	6.0
2025-01-22 16:18:35.319627	1.1	62.2	-61.7	5.4
2025-01-22 16:18:36.461586	0.6	61.8	-61.3	5.6
2025-01-22 16:18:37.606536	0.2	61.4	-61.7	5.3
2025-01-22 16:18:38.749493	359.7	60.9	-61.5	4.8
2025-01-22 16:18:39.895440	359.3	60.5	-61.8	5.8
2025-01-22 16:18:41.043383	358.9	60.1	-62.3	5.6
2025-01-22 16:18:42.189331	358.5	59.7	-60.9	4.8
2025-01-22 16:18:43.332287	358.1	59.3	-62.0	6.5
2025-01-22 16:18:44.479232	357.8	58.9	-61.6	6.1
2025-01-22 16:18:45.624183	357.4	58.4	-61.7	6.3
2025-01-22 16:18:46.769133	357.0	58.0	-62.1	8.1
2025-01-22 16:18:47.917076	356.7	57.6	-60.8	3.9
2025-01-22 16:18:49.065019	356.4	57.2	-60.2	3.7
2025-01-22 16:18:50.211475	356.1	56.8	-60.5	4.1
2025-01-22 16:18:51.359418	355.8	56.4	-61.4	6.1
2025-01-22 16:18:52.505366	355.5	56.0	-61.8	5.5
2025-01-22 16:18:53.647325	355.2	55.6	-60.3	4.5
2025-01-22 16:18:54.790280	354.9	55.2	-61.0	8.1
2025-01-22 16:18:55.935231	354.6	54.8	-59.5	2.9
2025-01-22 16:18:57.079193	354.3	54.4	-60.3	4.7
2025-01-22 16:18:58.224135	354.1	54.0	-59.6	3.2
2025-01-22 16:18:59.373075	353.8	53.6	-61.1	4.8
2025-01-22 16:19:00.517048	353.6	53.3	-59.7	4.1
2025-01-22 16:19:01.660003	353.3	52.9	-60.1	3.4
2025-01-22 16:19:02.804954	353.1	52.5	-60.2	3.4
2025-01-22 16:19:03.947910	352.9	52.1	-62.0	6.0
2025-01-22 16:19:05.093858	352.7	51.7	-61.2	4.3
2025-01-22 16:19:06.236814	352.4	51.4	-60.3	3.8
2025-01-22 16:19:07.382762	352.2	51.0	-60.1	0.5
2025-01-22 16:19:08.525717	352.0	50.6	-59.8	2.4
2025-01-22 16:19:09.670669	351.8	50.3	-61.2	4.2
2025-01-22 16:19:10.816616	351.6	49.9	-60.4	2.5
2025-01-22 16:19:11.963562	351.4	49.5	-59.7	3.4
2025-01-22 16:19:13.111505	351.2	49.2	-58.8	0.0
2025-01-22 16:19:14.254460	351.1	48.8	-60.8	4.2
2025-01-22 16:19:15.403400	350.9	48.5	-60.1	5.3
2025-01-22 16:19:16.547862	350.7	48.1	-60.7	3.7
2025-01-22 16:19:17.697799	350.5	47.8	-59.7	0.3
2025-01-22 16:19:18.843748	350.4	47.4	-61.2	4.5
2025-01-22 16:19:19.989696	350.2	47.1	-59.3	2.9
2025-01-22 16:19:21.135643	350.1	46.7	-60.1	2.8
2025-01-22 16:19:22.281591	349.9	46.4	-60.4	1.7
2025-01-22 16:19:23.427540	349.7	46.1	-61.1	3.3
2025-01-22 16:19:24.571492	349.6	45.7	-62.1	5.9
2025-01-22 16:19:25.717441	349.5	45.4	-60.4	4.2
2025-01-22 16:19:26.871367	349.3	45.1	-59.8	6.2
2025-01-22 16:19:28.018313	349.2	44.7	-61.4	4.2
2025-01-22 16:19:29.167760	349.0	44.4	-60.8	5.9
2025-01-22 16:19:30.313708	348.9	44.1	-59.9	3.4
2025-01-22 16:19:31.461651	348.8	43.8	-59.5	4.8
2025-01-22 16:19:32.613583	348.6	43.5	-60.1	3.1
2025-01-22 16:19:33.758533	348.5	43.2	-62.3	4.8
2025-01-22 16:19:34.905479	348.4	42.8	-60.6	4.4
2025-01-22 16:19:36.056414	348.3	42.5	-61.0	5.6
2025-01-22 16:19:37.202361	348.1	42.2	-58.7	1.8
2025-01-22 16:19:38.353812	348.0	41.9	-59.2	4.7
2025-01-22 16:19:39.506741	347.9	41.6	-59.4	1.8
2025-01-22 16:19:40.652689	347.8	41.3	-59.9	3.5
2025-01-22 16:19:41.802137	347.7	41.0	-57.9	0.0
2025-01-22 16:19:42.949082	347.6	40.7	-62.3	5.2
2025-01-22 16:19:44.098021	347.5	40.4	-58.9	0.0
2025-01-22 16:19:45.245964	347.4	40.1	-60.2	1.6
2025-01-22 16:19:46.396899	347.3	39.8	-59.6	2.3
2025-01-22 16:19:47.547347	347.2	39.6	-60.6	0.2
2025-01-22 16:19:48.694291	347.1	39.3	-58.5	0.0
2025-01-22 16:19:49.845225	347.0	39.0	-59.1	0.0
2025-01-22 16:19:50.993168	346.9	38.7	-59.8	0.0
2025-01-22 16:19:52.143105	346.8	38.4	-59.3	0.0
2025-01-22 16:19:53.297032	346.7	38.2	-60.9	1.4
2025-01-22 16:19:54.448964	346.6	37.9	-58.3	0.0
2025-01-22 16:19:55.603399	346.5	37.6	-59.1	0.0
2025-01-22 16:19:56.754333	346.4	37.3	-59.2	0.0
2025-01-22 16:19:57.904782	346.4	37.1	-60.1	0.0
2025-01-22 16:19:59.054719	346.3	36.8	-58.1	0.0
2025-01-22 16:20:00.203659	346.2	36.5	-58.2	0.0
2025-01-22 16:20:01.351601	346.1	36.3	-57.7	0.0
2025-01-22 16:20:02.502536	346.0	36.0	-58.4	0.0
2025-01-22 16:20:03.650478	345.9	35.8	-57.3	0.0
2025-01-22 16:20:04.801413	345.9	35.5	-56.9	0.0
2025-01-22 16:20:05.950354	345.8	35.3	-56.9	0.0
2025-01-22 16:20:07.105277	345.7	35.0	-57.1	0.0
2025-01-22 16:20:08.255214	345.6	34.8	-56.8	0.0
2025-01-22 16:20:09.407146	345.6	34.5	-56.5	0.0
2025-01-22 16:20:10.561074	345.5	34.3	-57.1	0.0
2025-01-22 16:20:11.716995	345.4	34.0	-56.8	0.0
2025-01-22 16:20:12.872428	345.4	33.8	-55.7	0.0
2025-01-22 16:20:14.024361	345.3	33.5	-57.1	0.0
2025-01-22 16:20:15.183274	345.2	33.3	-58.0	0.0
2025-01-22 16:20:16.341191	345.2	33.1	-56.8	0.0
2025-01-22 16:20:17.499106	345.1	32.8	-58.2	0.0
2025-01-22 16:20:18.651545	345.0	32.6	-57.0	0.0
2025-01-22 16:20:19.805472	345.0	32.4	-55.3	0.0
2025-01-22 16:20:20.958402	344.9	32.1	-54.7	0.0
2025-01-22 16:20:22.114323	344.8	31.9	-55.3	0.0
2025-01-22 16:20:23.267761	344.8	31.7	-55.1	0.0
2025-01-22 16:20:24.421688	344.7	31.4	-55.1	0.0
2025-01-22 16:20:25.573133	344.7	31.2	-55.5	0.0
2025-01-22 16:20:26.724067	344.6	31.0	-54.7	0.0
2025-01-22 16:20:27.875001	344.6	30.8	-55.8	0.0
2025-01-22 16:20:29.027930	344.5	30.6	-56.0	0.0
2025-01-22 16:20:30.187842	344.4	30.3	-55.5	0.0
2025-01-22 16:20:31.339773	344.4	30.1	-60.3	0.0
2025-01-22 16:20:32.492702	344.3	29.9	-63.1	0.0
#Closed at: 2025-01-22 16:14:46.914904