passes_logs/2025/01/22/Planum_Noyabrsk/Planum_Noyabrsk__20250122_075900_NOAA_18_rec.log

#Pass ID: 20250122_075900_NOAA 18
#Satellite: NOAA 18
#Configuration: NOAA 18
#Start time: 2025-01-22 07:59:05.728175

#LorettStation: 1.0.0 05.05.2024
#Station: Planum_Noyabrsk
#Location: 75.446886 lon 63.207202 lat
#TLE: 1 28654U 05018A   25021.46278134  .00000457  00000+0  26606-3 0  9992
#TLE: 2 28654  98.8557 102.4527 0014640 161.2777 198.8937 14.13492937 14098

#Time	Az	El	Level	SNR
2025-01-22 07:59:12.609602	354.2	31.0	-60.8	1.4
2025-01-22 07:59:13.756566	353.9	31.2	-61.5	0.0
2025-01-22 07:59:14.902027	353.7	31.3	-60.7	2.5
2025-01-22 07:59:16.050964	353.4	31.5	-61.0	2.5
2025-01-22 07:59:17.196912	353.1	31.7	-61.3	1.9
2025-01-22 07:59:18.342861	352.9	31.8	-60.3	0.6
2025-01-22 07:59:19.489319	352.6	32.0	-62.3	4.2
2025-01-22 07:59:20.634269	352.3	32.2	-61.3	1.3
2025-01-22 07:59:21.779220	352.0	32.3	-60.2	1.3
2025-01-22 07:59:22.923685	351.7	32.5	-60.4	0.8
2025-01-22 07:59:24.067638	351.4	32.7	-62.2	5.7
2025-01-22 07:59:25.213586	351.1	32.8	-61.5	5.2
2025-01-22 07:59:26.359534	350.8	33.0	-62.3	5.7
2025-01-22 07:59:27.510469	350.5	33.2	-62.0	1.5
2025-01-22 07:59:28.657921	350.2	33.3	-62.1	5.6
2025-01-22 07:59:29.807368	349.9	33.5	-60.8	0.3
2025-01-22 07:59:30.952319	349.6	33.7	-60.6	1.7
2025-01-22 07:59:32.099264	349.3	33.8	-60.9	1.9
2025-01-22 07:59:33.247206	349.0	34.0	-60.2	5.2
2025-01-22 07:59:34.393154	348.7	34.2	-61.2	6.0
2025-01-22 07:59:35.540100	348.3	34.3	-62.0	5.4
2025-01-22 07:59:36.689039	348.0	34.5	-63.1	6.3
2025-01-22 07:59:37.831996	347.7	34.7	-60.4	4.5
2025-01-22 07:59:38.977943	347.3	34.8	-61.8	4.8
2025-01-22 07:59:40.122894	347.0	35.0	-59.8	2.3
2025-01-22 07:59:41.267844	346.7	35.2	-61.6	4.6
2025-01-22 07:59:42.416785	346.3	35.3	-59.3	2.1
2025-01-22 07:59:43.560737	346.0	35.5	-59.5	0.2
2025-01-22 07:59:44.706707	345.6	35.7	-61.2	5.6
2025-01-22 07:59:45.850661	345.3	35.8	-59.6	2.8
2025-01-22 07:59:46.994612	344.9	36.0	-58.2	0.0
2025-01-22 07:59:48.140578	344.6	36.2	-59.9	3.6
2025-01-22 07:59:49.286526	344.2	36.3	-60.8	4.3
2025-01-22 07:59:50.431476	343.8	36.5	-60.0	3.7
2025-01-22 07:59:51.575430	343.4	36.7	-59.4	2.5
2025-01-22 07:59:52.725367	343.1	36.8	-60.1	5.2
2025-01-22 07:59:53.870318	342.7	37.0	-58.5	0.0
2025-01-22 07:59:55.022249	342.3	37.1	-59.9	1.1
2025-01-22 07:59:56.173184	341.9	37.3	-60.0	4.1
2025-01-22 07:59:57.318135	341.5	37.5	-62.0	5.8
2025-01-22 07:59:58.463085	341.1	37.6	-58.8	0.0
2025-01-22 07:59:59.610030	340.7	37.8	-61.5	3.9
2025-01-22 08:00:00.757974	340.3	37.9	-61.8	4.3
2025-01-22 08:00:01.901954	339.9	38.1	-61.6	3.8
2025-01-22 08:00:03.046387	339.5	38.3	-60.4	1.4
2025-01-22 08:00:04.191338	339.1	38.4	-60.0	3.2
2025-01-22 08:00:05.337286	338.7	38.6	-60.0	2.5
2025-01-22 08:00:06.483234	338.2	38.7	-60.2	3.8
2025-01-22 08:00:07.630180	337.8	38.9	-58.4	0.0
2025-01-22 08:00:08.774132	337.4	39.0	-59.6	0.9
2025-01-22 08:00:09.919083	336.9	39.2	-59.2	1.3
2025-01-22 08:00:11.065030	336.5	39.3	-60.4	0.6
2025-01-22 08:00:12.211489	336.1	39.5	-59.4	0.0
2025-01-22 08:00:13.355442	335.6	39.6	-59.5	1.4
2025-01-22 08:00:14.500392	335.2	39.7	-59.2	0.0
2025-01-22 08:00:15.644345	334.7	39.9	-58.0	0.0
2025-01-22 08:00:16.790293	334.3	40.0	-59.6	1.2
2025-01-22 08:00:17.943223	333.8	40.2	-59.2	0.2
2025-01-22 08:00:19.087176	333.3	40.3	-57.1	0.0
2025-01-22 08:00:20.232126	332.8	40.4	-59.5	0.0
2025-01-22 08:00:21.377077	332.4	40.6	-59.2	0.0
2025-01-22 08:00:22.523025	331.9	40.7	-61.1	3.8
2025-01-22 08:00:23.667975	331.4	40.8	-61.0	3.6
2025-01-22 08:00:24.812925	330.9	41.0	-61.4	2.4
2025-01-22 08:00:25.959871	330.4	41.1	-63.3	5.0
2025-01-22 08:00:27.108812	329.9	41.2	-61.1	4.8
2025-01-22 08:00:28.256753	329.4	41.3	-63.5	6.6
2025-01-22 08:00:29.400706	328.9	41.4	-61.3	4.5
2025-01-22 08:00:30.545657	328.4	41.6	-60.1	0.0
2025-01-22 08:00:31.689610	327.9	41.7	-61.9	6.4
2025-01-22 08:00:32.834560	327.4	41.8	-61.6	6.2
2025-01-22 08:00:33.981507	326.9	41.9	-61.8	4.5
2025-01-22 08:00:35.128451	326.4	42.0	-61.6	4.9
2025-01-22 08:00:36.271916	325.8	42.1	-61.2	3.7
2025-01-22 08:00:37.415870	325.3	42.2	-60.7	3.6
2025-01-22 08:00:38.559823	324.8	42.3	-60.5	3.3
2025-01-22 08:00:39.712752	324.2	42.4	-61.1	4.6
2025-01-22 08:00:40.857703	323.7	42.5	-60.9	3.8
2025-01-22 08:00:42.001656	323.2	42.6	-60.0	1.8
2025-01-22 08:00:43.153587	322.6	42.7	-61.3	4.7
2025-01-22 08:00:44.297541	322.1	42.8	-62.4	7.2
2025-01-22 08:00:45.441495	321.5	42.9	-61.5	5.8
2025-01-22 08:00:46.586951	321.0	43.0	-61.5	4.7
2025-01-22 08:00:47.730905	320.4	43.0	-62.7	7.8
2025-01-22 08:00:48.875855	319.8	43.1	-63.1	8.9
2025-01-22 08:00:50.020805	319.3	43.2	-61.8	5.1
2025-01-22 08:00:51.164759	318.7	43.3	-62.8	7.0
2025-01-22 08:00:52.310707	318.2	43.3	-61.3	3.4
2025-01-22 08:00:53.455657	317.6	43.4	-63.1	7.6
2025-01-22 08:00:54.599611	317.0	43.5	-62.7	5.9
2025-01-22 08:00:55.744561	316.4	43.5	-62.0	5.7
2025-01-22 08:00:56.889512	315.9	43.6	-61.8	6.5
2025-01-22 08:00:58.037454	315.3	43.6	-62.1	5.8
2025-01-22 08:00:59.186394	314.7	43.7	-62.2	6.0
2025-01-22 08:01:00.338326	314.1	43.7	-62.3	7.1
2025-01-22 08:01:01.483293	313.5	43.8	-61.7	4.6
2025-01-22 08:01:02.628244	313.0	43.8	-62.9	7.7
2025-01-22 08:01:03.774192	312.4	43.8	-62.7	6.2
2025-01-22 08:01:04.917149	311.8	43.9	-63.2	10.0
2025-01-22 08:01:06.062098	311.2	43.9	-63.2	8.1
2025-01-22 08:01:07.208049	310.6	43.9	-62.9	8.9
2025-01-22 08:01:08.353994	310.0	43.9	-63.4	10.2
2025-01-22 08:01:09.498944	309.4	44.0	-63.0	9.5
2025-01-22 08:01:10.642898	308.8	44.0	-62.4	7.5
2025-01-22 08:01:11.787848	308.2	44.0	-63.1	8.6
2025-01-22 08:01:12.932798	307.7	44.0	-61.9	7.7
2025-01-22 08:01:14.076752	307.1	44.0	-63.2	9.0
2025-01-22 08:01:15.222700	306.5	44.0	-62.2	7.1
2025-01-22 08:01:16.368647	305.9	44.0	-61.8	5.7
2025-01-22 08:01:17.519092	305.3	44.0	-61.6	6.2
2025-01-22 08:01:18.662048	304.7	44.0	-61.7	7.0
2025-01-22 08:01:19.808994	304.1	44.0	-61.3	5.0
2025-01-22 08:01:20.960437	303.5	44.0	-61.5	5.2
2025-01-22 08:01:22.105388	302.9	43.9	-60.5	4.5
2025-01-22 08:01:23.254838	302.3	43.9	-62.2	7.0
2025-01-22 08:01:24.401783	301.7	43.9	-61.0	6.3
2025-01-22 08:01:25.545736	301.1	43.9	-61.5	6.2
2025-01-22 08:01:26.696671	300.5	43.8	-61.2	6.2
2025-01-22 08:01:27.842618	300.0	43.8	-60.9	4.4
2025-01-22 08:01:28.987569	299.4	43.8	-63.8	8.3
2025-01-22 08:01:30.141496	298.8	43.7	-60.7	5.8
2025-01-22 08:01:31.286446	298.2	43.7	-62.4	7.0
2025-01-22 08:01:32.432901	297.6	43.6	-61.9	6.6
2025-01-22 08:01:33.585830	297.0	43.6	-62.9	5.5
2025-01-22 08:01:34.731778	296.5	43.5	-64.4	8.2
2025-01-22 08:01:35.877237	295.9	43.5	-62.5	5.6
2025-01-22 08:01:37.021190	295.3	43.4	-61.5	3.5
2025-01-22 08:01:38.167138	294.7	43.3	-62.2	3.9
2025-01-22 08:01:39.321064	294.2	43.3	-58.4	3.8
2025-01-22 08:01:40.471999	293.6	43.2	-62.6	5.7
2025-01-22 08:01:41.618456	293.0	43.1	-60.9	2.8
2025-01-22 08:01:42.763407	292.5	43.0	-61.5	8.2
2025-01-22 08:01:43.909354	291.9	43.0	-62.6	6.1
2025-01-22 08:01:45.062791	291.4	42.9	-62.6	6.0
2025-01-22 08:01:46.208739	290.8	42.8	-63.6	4.8
2025-01-22 08:01:47.355685	290.3	42.7	-62.2	8.5
2025-01-22 08:01:48.502630	289.7	42.6	-61.5	2.7
2025-01-22 08:01:49.647581	289.2	42.5	-63.9	8.6
2025-01-22 08:01:50.800509	288.6	42.4	-61.6	4.5
2025-01-22 08:01:51.947455	288.1	42.3	-62.9	7.4
2025-01-22 08:01:53.091408	287.6	42.2	-64.0	8.4
2025-01-22 08:01:54.243341	287.0	42.1	-63.3	4.1
2025-01-22 08:01:55.389288	286.5	42.0	-62.3	2.2
2025-01-22 08:01:56.534746	286.0	41.9	-58.7	3.4
2025-01-22 08:01:57.686678	285.5	41.8	-59.4	2.8
2025-01-22 08:01:58.832626	284.9	41.7	-65.0	8.6
2025-01-22 08:01:59.975094	284.4	41.6	-60.3	4.0
2025-01-22 08:02:01.120043	283.9	41.4	-61.4	6.1
2025-01-22 08:02:02.264994	283.4	41.3	-61.8	7.1
2025-01-22 08:02:03.411939	282.9	41.2	-60.4	3.3
2025-01-22 08:02:04.558885	282.4	41.1	-59.2	2.1
2025-01-22 08:02:05.703835	281.9	41.0	-59.1	1.9
2025-01-22 08:02:06.846791	281.4	40.8	-59.8	2.3
2025-01-22 08:02:07.999720	280.9	40.7	-60.3	2.3
2025-01-22 08:02:09.143673	280.5	40.6	-59.7	1.2
2025-01-22 08:02:10.291616	280.0	40.4	-61.3	2.9
2025-01-22 08:02:11.437567	279.5	40.3	-61.2	3.7
2025-01-22 08:02:12.583512	279.0	40.2	-62.9	6.0
2025-01-22 08:02:13.728462	278.6	40.0	-61.0	3.6
2025-01-22 08:02:14.882389	278.1	39.9	-61.9	7.0
2025-01-22 08:02:16.027339	277.7	39.7	-63.0	6.9
2025-01-22 08:02:17.178274	277.2	39.6	-61.9	3.8
2025-01-22 08:02:18.323224	276.7	39.4	-60.7	4.6
2025-01-22 08:02:19.468175	276.3	39.3	-59.4	2.9
2025-01-22 08:02:20.622102	275.9	39.2	-61.4	4.6
2025-01-22 08:02:21.766056	275.4	39.0	-61.8	5.4
2025-01-22 08:02:22.910518	275.0	38.9	-62.5	6.2
2025-01-22 08:02:24.055469	274.6	38.7	-61.4	4.8
2025-01-22 08:02:25.204409	274.1	38.5	-61.7	4.3
2025-01-22 08:02:26.352863	273.7	38.4	-62.1	6.5
2025-01-22 08:02:27.496816	273.3	38.2	-61.4	3.8
2025-01-22 08:02:28.642764	272.9	38.1	-62.7	5.3
2025-01-22 08:02:29.787227	272.5	37.9	-62.9	5.7
2025-01-22 08:02:30.934171	272.1	37.8	-63.4	8.4
2025-01-22 08:02:32.079123	271.7	37.6	-62.2	4.4
2025-01-22 08:02:33.225070	271.3	37.4	-62.5	5.0
2025-01-22 08:02:34.371018	270.9	37.3	-63.8	7.4
2025-01-22 08:02:35.517964	270.5	37.1	-63.2	6.8
2025-01-22 08:02:36.663912	270.1	37.0	-62.7	5.3
2025-01-22 08:02:37.812851	269.7	36.8	-63.3	5.0
2025-01-22 08:02:38.959796	269.3	36.6	-63.2	6.8
2025-01-22 08:02:40.107738	269.0	36.5	-63.4	6.1
2025-01-22 08:02:41.252690	268.6	36.3	-63.6	4.0
2025-01-22 08:02:42.398639	268.2	36.1	-63.8	6.1
2025-01-22 08:02:43.544585	267.8	36.0	-64.1	6.0
2025-01-22 08:02:44.691548	267.5	35.8	-65.3	9.4
2025-01-22 08:02:45.836500	267.1	35.6	-64.1	5.2
2025-01-22 08:02:46.987434	266.8	35.5	-63.9	4.5
2025-01-22 08:02:48.131386	266.4	35.3	-64.1	5.6
2025-01-22 08:02:49.285313	266.1	35.1	-64.8	5.9
2025-01-22 08:02:50.431261	265.7	35.0	-64.9	6.3
2025-01-22 08:02:51.578207	265.4	34.8	-65.1	5.9
2025-01-22 08:02:52.723159	265.1	34.6	-65.2	6.9
2025-01-22 08:02:53.871100	264.7	34.5	-64.4	3.7
2025-01-22 08:02:55.018044	264.4	34.3	-66.9	9.7
2025-01-22 08:02:56.164990	264.1	34.1	-64.7	3.2
2025-01-22 08:02:57.314440	263.8	34.0	-65.3	9.1
2025-01-22 08:02:58.458394	263.4	33.8	-64.9	6.3
2025-01-22 08:02:59.607333	263.1	33.6	-66.7	8.5
2025-01-22 08:03:00.758268	262.8	33.5	-65.5	10.2
2025-01-22 08:03:01.902221	262.5	33.3	-66.8	9.2
2025-01-22 08:03:03.048678	262.2	33.1	-67.3	10.0
2025-01-22 08:03:04.199613	261.9	32.9	-67.0	10.6
2025-01-22 08:03:05.343565	261.6	32.8	-67.4	11.4
2025-01-22 08:03:06.486522	261.3	32.6	-64.6	4.8
2025-01-22 08:03:07.631472	261.0	32.4	-64.8	5.7
2025-01-22 08:03:08.775425	260.7	32.3	-64.3	4.7
2025-01-22 08:03:09.921373	260.4	32.1	-67.3	10.8
2025-01-22 08:03:11.065327	260.1	31.9	-66.2	12.7
2025-01-22 08:03:12.213269	259.9	31.8	-65.5	7.1
2025-01-22 08:03:13.359235	259.6	31.6	-65.4	6.9
2025-01-22 08:03:14.503189	259.3	31.4	-65.7	10.7
2025-01-22 08:03:15.647141	259.0	31.3	-65.2	6.8
2025-01-22 08:03:16.792092	258.8	31.1	-65.2	7.9
2025-01-22 08:03:17.936045	258.5	30.9	-66.0	12.3
2025-01-22 08:03:19.080995	258.2	30.8	-65.1	8.7
2025-01-22 08:03:20.233924	258.0	30.6	-65.3	7.3
2025-01-22 08:03:21.380870	257.7	30.4	-64.5	5.2
2025-01-22 08:03:22.532318	257.5	30.3	-64.1	6.1
2025-01-22 08:03:23.677269	257.2	30.1	-65.0	0.0
#Closed at: 2025-01-22 07:59:00.731738