passes_logs/2025/01/10/LEX_Murmansk/LEX_Murmansk__20250110_182407_NOAA_19_rec.log

#Pass ID: 20250110_182407_NOAA 19
#Satellite: NOAA 19
#Configuration: NOAA 19
#Start time: 2025-01-10 18:24:02.480137

#LorettStation: 1.0.0 05.05.2024
#Station: LEX_Murmansk
#Location: 33.156738 lon 68.926811 lat
#TLE: 1 33591U 09005A   25009.90667525  .00000313  00000+0  19132-3 0  9996
#TLE: 2 33591  99.0207  73.6295 0014600  71.1816 289.0938 14.13255869820561

#Time	Az	El	Level	SNR
2025-01-10 18:24:14.598417	174.3	16.3	-91.1	1.6
2025-01-10 18:24:16.914720	174.5	16.5	-91.7	2.6
2025-01-10 18:24:19.218294	174.6	16.8	-91.5	3.2
2025-01-10 18:24:21.530313	174.7	17.0	-92.1	5.4
2025-01-10 18:24:23.839505	174.8	17.3	-91.6	4.7
2025-01-10 18:24:26.146002	175.0	17.6	-91.7	5.1
2025-01-10 18:24:28.445732	175.1	17.8	-91.9	1.7
2025-01-10 18:24:30.758835	175.2	18.1	-92.0	2.5
2025-01-10 18:24:33.072949	175.4	18.4	-91.6	4.4
2025-01-10 18:24:35.397171	175.5	18.7	-91.6	5.6
2025-01-10 18:24:37.707824	175.7	18.9	-90.4	1.1
2025-01-10 18:24:40.010303	175.8	19.2	-90.9	4.7
2025-01-10 18:24:42.316076	176.0	19.5	-91.6	4.6
2025-01-10 18:24:44.630700	176.1	19.8	-92.3	1.8
2025-01-10 18:24:46.952769	176.3	20.1	-91.9	1.1
2025-01-10 18:24:49.259333	176.4	20.4	-90.9	4.4
2025-01-10 18:24:51.563248	176.6	20.6	-91.9	5.8
2025-01-10 18:24:53.880187	176.7	20.9	-91.9	2.4
2025-01-10 18:24:56.192778	176.9	21.3	-91.8	6.7
2025-01-10 18:24:58.504140	177.1	21.6	-91.1	6.6
2025-01-10 18:25:00.796972	177.2	21.9	-90.5	2.3
2025-01-10 18:25:03.113155	177.4	22.2	-91.8	4.2
2025-01-10 18:25:05.424395	177.6	22.5	-92.0	9.2
2025-01-10 18:25:07.742860	177.8	22.8	-91.1	9.0
2025-01-10 18:25:10.052114	178.0	23.1	-90.1	6.7
2025-01-10 18:25:12.357029	178.2	23.5	-90.7	8.1
2025-01-10 18:25:14.668333	178.3	23.8	-92.2	9.3
2025-01-10 18:25:16.966153	178.5	24.1	-91.4	2.5
2025-01-10 18:25:19.271419	178.7	24.5	-91.6	2.2
2025-01-10 18:25:21.585160	178.9	24.8	-92.1	8.2
2025-01-10 18:25:23.905454	179.2	25.2	-91.2	10.5
2025-01-10 18:25:26.216661	179.4	25.5	-92.1	5.9
2025-01-10 18:25:28.528222	179.6	25.9	-91.7	8.1
2025-01-10 18:25:30.841120	179.8	26.2	-91.5	10.4
2025-01-10 18:25:33.161747	180.0	26.6	-92.0	3.6
2025-01-10 18:25:35.460038	180.3	27.0	-92.0	3.1
2025-01-10 18:25:37.776291	180.5	27.3	-89.7	4.5
2025-01-10 18:25:40.093438	180.7	27.7	-91.8	12.4
2025-01-10 18:25:42.411901	181.0	28.1	-91.7	7.8
2025-01-10 18:25:44.708200	181.3	28.5	-91.8	4.8
2025-01-10 18:25:47.006946	181.5	28.9	-91.7	7.2
2025-01-10 18:25:49.324034	181.8	29.3	-90.9	3.1
2025-01-10 18:25:51.631659	182.1	29.7	-91.3	3.4
2025-01-10 18:25:53.940590	182.3	30.1	-91.6	1.5
2025-01-10 18:25:56.243834	182.6	30.5	-91.8	6.0
2025-01-10 18:25:58.545649	182.9	30.9	-91.8	11.0
2025-01-10 18:26:00.846587	183.2	31.3	-91.8	5.7
2025-01-10 18:26:03.157148	183.5	31.7	-91.8	5.8
2025-01-10 18:26:05.477055	183.8	32.2	-91.6	9.9
2025-01-10 18:26:07.781675	184.2	32.6	-91.8	7.3
2025-01-10 18:26:10.098496	184.5	33.1	-91.9	2.9
2025-01-10 18:26:12.406720	184.8	33.5	-91.7	4.6
2025-01-10 18:26:14.707691	185.2	34.0	-92.1	8.6
2025-01-10 18:26:17.027129	185.6	34.4	-91.8	12.5
2025-01-10 18:26:19.350163	185.9	34.9	-92.0	5.8
2025-01-10 18:26:21.665147	186.3	35.4	-92.2	6.1
2025-01-10 18:26:23.978754	186.7	35.8	-91.4	8.2
2025-01-10 18:26:26.299556	187.1	36.3	-92.1	5.4
2025-01-10 18:26:28.609833	187.5	36.8	-92.1	3.4
2025-01-10 18:26:30.920532	188.0	37.3	-92.4	3.2
2025-01-10 18:26:33.240116	188.4	37.8	-91.9	3.6
2025-01-10 18:26:35.549958	188.9	38.3	-92.0	7.6
2025-01-10 18:26:37.856982	189.3	38.8	-92.4	6.8
2025-01-10 18:26:40.164551	189.8	39.3	-92.1	6.6
2025-01-10 18:26:42.476287	190.3	39.9	-92.3	11.3
2025-01-10 18:26:44.791741	190.8	40.4	-91.3	14.7
2025-01-10 18:26:47.096567	191.4	40.9	-91.8	7.4
2025-01-10 18:26:49.406338	191.9	41.5	-91.6	5.1
2025-01-10 18:26:51.716670	192.5	42.0	-92.1	3.6
2025-01-10 18:26:54.024886	193.1	42.5	-92.3	12.7
2025-01-10 18:26:56.335040	193.7	43.1	-91.8	18.0
2025-01-10 18:26:58.646266	194.3	43.7	-92.4	14.7
2025-01-10 18:27:00.952782	195.0	44.2	-91.5	11.4
2025-01-10 18:27:03.268430	195.6	44.8	-90.7	9.0
2025-01-10 18:27:05.575261	196.3	45.3	-92.2	16.1
2025-01-10 18:27:07.891334	197.0	45.9	-91.7	13.8
2025-01-10 18:27:10.204524	197.8	46.5	-91.6	5.1
2025-01-10 18:27:12.515553	198.6	47.1	-92.1	6.1
2025-01-10 18:27:14.831765	199.4	47.7	-91.9	5.7
2025-01-10 18:27:17.137847	200.2	48.2	-91.9	10.0
2025-01-10 18:27:19.454654	201.1	48.8	-92.3	8.6
2025-01-10 18:27:21.774218	202.0	49.4	-90.3	5.9
2025-01-10 18:27:24.086482	202.9	50.0	-92.2	9.2
2025-01-10 18:27:26.392901	203.9	50.6	-90.4	6.9
2025-01-10 18:27:28.700566	204.9	51.1	-91.1	10.9
2025-01-10 18:27:31.010222	205.9	51.7	-91.7	15.9
2025-01-10 18:27:33.321236	207.0	52.3	-92.1	9.8
2025-01-10 18:27:35.631758	208.2	52.9	-91.1	5.8
2025-01-10 18:27:37.948294	209.3	53.4	-92.1	5.6
2025-01-10 18:27:40.263253	210.6	54.0	-91.7	3.8
2025-01-10 18:27:42.565725	211.8	54.5	-92.0	11.1
2025-01-10 18:27:44.881218	213.2	55.1	-92.1	17.4
2025-01-10 18:27:47.191071	214.5	55.6	-91.9	18.2
2025-01-10 18:27:49.512535	215.9	56.1	-92.2	18.6
2025-01-10 18:27:51.825092	217.4	56.7	-92.1	12.1
2025-01-10 18:27:54.140981	219.0	57.2	-92.1	17.1
2025-01-10 18:27:56.447489	220.5	57.6	-91.7	12.9
2025-01-10 18:27:58.765603	222.2	58.1	-91.5	15.8
2025-01-10 18:28:01.060452	223.9	58.5	-91.6	19.3
2025-01-10 18:28:03.378503	225.6	59.0	-91.9	20.7
2025-01-10 18:28:05.687607	227.4	59.4	-92.3	16.5
2025-01-10 18:28:07.991869	229.3	59.7	-92.2	15.2
2025-01-10 18:28:10.310347	231.2	60.1	-90.2	5.2
2025-01-10 18:28:12.631452	233.2	60.4	-92.0	11.0
2025-01-10 18:28:14.936438	235.2	60.7	-92.1	9.3
2025-01-10 18:28:17.251403	237.2	61.0	-92.3	5.6
2025-01-10 18:28:19.566417	239.3	61.2	-92.0	10.4
2025-01-10 18:28:21.875702	241.5	61.4	-91.9	11.8
2025-01-10 18:28:24.187537	243.6	61.6	-91.6	16.7
2025-01-10 18:28:26.497765	245.8	61.7	-91.7	18.0
2025-01-10 18:28:28.814890	248.0	61.8	-91.1	17.3
2025-01-10 18:28:31.136968	250.3	61.9	-92.0	18.6
2025-01-10 18:28:33.449182	252.5	61.9	-92.2	16.5
2025-01-10 18:28:35.759742	254.7	61.9	-92.5	13.0
2025-01-10 18:28:38.064348	256.9	61.8	-91.2	13.7
2025-01-10 18:28:40.384798	259.2	61.7	-91.5	11.3
2025-01-10 18:28:42.695992	261.4	61.6	-92.1	9.7
2025-01-10 18:28:45.012300	263.5	61.4	-92.1	11.8
2025-01-10 18:28:47.307749	265.7	61.2	-91.0	5.6
2025-01-10 18:28:49.626417	267.8	61.0	-91.8	9.2
2025-01-10 18:28:51.931802	269.8	60.8	-91.6	7.9
2025-01-10 18:28:54.244518	271.8	60.5	-92.1	7.0
2025-01-10 18:28:56.556902	273.8	60.2	-92.1	8.9
2025-01-10 18:28:58.872899	275.7	59.8	-92.3	5.8
2025-01-10 18:29:01.170003	277.6	59.4	-91.4	4.9
2025-01-10 18:29:03.477116	279.4	59.0	-92.0	8.8
2025-01-10 18:29:05.778508	281.2	58.6	-92.3	5.3
2025-01-10 18:29:08.081097	282.9	58.2	-92.2	5.2
2025-01-10 18:29:10.398175	284.5	57.7	-91.2	4.3
2025-01-10 18:29:12.711472	286.1	57.3	-90.6	5.2
2025-01-10 18:29:15.016274	287.6	56.8	-92.4	6.4
2025-01-10 18:29:17.321414	289.1	56.3	-92.1	5.5
2025-01-10 18:29:19.634688	290.5	55.7	-91.6	8.9
2025-01-10 18:29:21.940779	291.9	55.2	-91.9	6.7
2025-01-10 18:29:24.255397	293.2	54.7	-92.0	1.8
2025-01-10 18:29:26.571366	294.5	54.1	-92.1	8.1
2025-01-10 18:29:28.888406	295.8	53.6	-92.6	7.3
2025-01-10 18:29:31.197150	296.9	53.0	-91.1	5.2
2025-01-10 18:29:33.510622	298.1	52.4	-91.9	8.4
2025-01-10 18:29:35.829153	299.2	51.9	-91.3	4.8
2025-01-10 18:29:38.135593	300.2	51.3	-92.2	9.3
2025-01-10 18:29:40.450839	301.2	50.7	-92.3	10.5
2025-01-10 18:29:42.756925	302.2	50.1	-91.8	8.6
2025-01-10 18:29:45.069617	303.2	49.5	-92.3	10.1
2025-01-10 18:29:47.395402	304.1	49.0	-92.4	14.3
2025-01-10 18:29:49.707849	304.9	48.4	-92.3	9.1
2025-01-10 18:29:52.018509	305.8	47.8	-92.4	8.9
2025-01-10 18:29:54.335986	306.6	47.2	-92.1	8.6
2025-01-10 18:29:56.649869	307.4	46.6	-92.2	8.5
2025-01-10 18:29:58.966701	308.1	46.1	-92.1	7.9
2025-01-10 18:30:01.277886	308.9	45.5	-92.2	5.6
2025-01-10 18:30:03.581578	309.6	44.9	-91.7	7.3
2025-01-10 18:30:05.897464	310.2	44.4	-92.4	7.0
2025-01-10 18:30:08.200008	310.9	43.8	-92.0	6.6
2025-01-10 18:30:10.515724	311.5	43.3	-92.4	13.2
2025-01-10 18:30:12.816580	312.1	42.7	-92.2	13.2
2025-01-10 18:30:15.142324	312.7	42.2	-92.2	16.8
2025-01-10 18:30:17.458834	313.3	41.6	-91.1	16.0
2025-01-10 18:30:19.759146	313.9	41.1	-92.2	13.1
2025-01-10 18:30:22.081000	314.4	40.5	-91.8	12.5
2025-01-10 18:30:24.375333	314.9	40.0	-91.6	5.4
2025-01-10 18:30:26.681366	315.4	39.5	-92.0	4.5
2025-01-10 18:30:28.979048	315.9	39.0	-92.5	5.5
2025-01-10 18:30:31.298222	316.4	38.5	-92.3	5.0
2025-01-10 18:30:33.606905	316.8	38.0	-92.2	9.4
2025-01-10 18:30:35.922724	317.3	37.5	-92.5	9.9
2025-01-10 18:30:38.232992	317.7	37.0	-91.9	12.3
2025-01-10 18:30:40.551464	318.1	36.5	-92.5	8.4
2025-01-10 18:30:42.865418	318.5	36.0	-92.5	6.5
2025-01-10 18:30:45.183542	318.9	35.5	-92.2	7.1
2025-01-10 18:30:47.493830	319.3	35.1	-92.2	6.3
2025-01-10 18:30:49.800155	319.7	34.6	-92.1	5.9
2025-01-10 18:30:52.110792	320.1	34.1	-92.0	9.5
2025-01-10 18:30:54.436932	320.4	33.7	-92.4	10.6
2025-01-10 18:30:56.752957	320.8	33.2	-92.3	13.7
2025-01-10 18:30:59.062431	321.1	32.8	-91.3	11.0
2025-01-10 18:31:01.375018	321.4	32.4	-91.7	7.1
2025-01-10 18:31:03.681224	321.7	31.9	-91.9	6.5
2025-01-10 18:31:05.990716	322.1	31.5	-91.9	6.8
2025-01-10 18:31:08.301524	322.4	31.1	-91.6	3.5
2025-01-10 18:31:10.612404	322.7	30.7	-91.8	8.8
2025-01-10 18:31:12.943622	322.9	30.2	-92.5	11.7
2025-01-10 18:31:15.256249	323.2	29.8	-91.9	5.7
2025-01-10 18:31:17.563341	323.5	29.4	-92.3	7.8
2025-01-10 18:31:19.863897	323.8	29.0	-92.5	2.7
2025-01-10 18:31:22.182012	324.0	28.6	-92.2	7.5
2025-01-10 18:31:24.484146	324.3	28.3	-92.0	5.5
2025-01-10 18:31:26.796732	324.5	27.9	-92.5	8.2
2025-01-10 18:31:29.096810	324.8	27.5	-91.9	13.0
2025-01-10 18:31:31.413353	325.0	27.1	-92.2	4.5
2025-01-10 18:31:33.724159	325.3	26.8	-91.9	2.9
2025-01-10 18:31:36.031841	325.5	26.4	-92.2	2.3
2025-01-10 18:31:38.336713	325.7	26.0	-91.8	0.6
2025-01-10 18:31:40.638005	325.9	25.7	-91.8	4.3
2025-01-10 18:31:42.944820	326.1	25.3	-92.5	3.8
2025-01-10 18:31:45.246681	326.4	25.0	-92.1	8.1
2025-01-10 18:31:47.551387	326.6	24.6	-92.1	8.5
2025-01-10 18:31:49.858924	326.8	24.3	-92.4	4.5
2025-01-10 18:31:52.172751	327.0	24.0	-92.2	3.7
2025-01-10 18:31:54.479231	327.2	23.6	-92.1	2.5
2025-01-10 18:31:56.792866	327.3	23.3	-90.9	4.9
2025-01-10 18:31:59.090843	327.5	23.0	-91.9	4.4
2025-01-10 18:32:01.387977	327.7	22.7	-91.9	4.4
2025-01-10 18:32:03.704636	327.9	22.4	-92.3	5.4
2025-01-10 18:32:06.002864	328.1	22.1	-92.5	3.5
2025-01-10 18:32:08.316279	328.2	21.7	-92.0	3.1
2025-01-10 18:32:10.623176	328.4	21.4	-91.9	6.5
2025-01-10 18:32:12.935046	328.6	21.1	-92.1	4.7
2025-01-10 18:32:15.239721	328.7	20.8	-91.8	9.0
2025-01-10 18:32:17.552915	328.9	20.5	-92.4	7.2
2025-01-10 18:32:19.858507	329.1	20.3	-92.4	3.6
2025-01-10 18:32:22.167559	329.2	20.0	-91.8	2.4
2025-01-10 18:32:24.478882	329.4	19.7	-92.4	0.1
2025-01-10 18:32:26.797571	329.5	19.4	-92.5	4.1
2025-01-10 18:32:29.116751	329.7	19.1	-92.2	8.9
2025-01-10 18:32:31.427230	329.8	18.8	-92.0	6.5
2025-01-10 18:32:33.749836	330.0	18.6	-92.5	1.5
2025-01-10 18:32:36.062745	330.1	18.3	-91.9	0.2
2025-01-10 18:32:38.364346	330.2	18.0	-91.8	1.7
2025-01-10 18:32:40.679045	330.4	17.8	-92.1	2.6
2025-01-10 18:32:42.986958	330.5	17.5	-92.4	1.9
2025-01-10 18:32:45.317752	330.6	17.2	-91.8	3.2
2025-01-10 18:32:47.637526	330.8	17.0	-92.0	2.8
2025-01-10 18:32:49.946405	330.9	16.7	-92.1	3.1
2025-01-10 18:32:52.257353	331.0	16.5	-92.1	3.2
2025-01-10 18:32:54.579001	331.1	16.2	-92.4	2.8
2025-01-10 18:32:56.888819	331.3	16.0	-92.3	3.3
2025-01-10 18:32:59.193526	331.4	15.7	-92.1	0.8
2025-01-10 18:33:01.486006	331.5	15.5	-92.1	1.3
2025-01-10 18:33:03.797889	331.6	15.3	-92.4	0.2
2025-01-10 18:33:06.110653	331.7	15.0	-92.3	2.2
2025-01-10 18:33:08.416447	331.8	14.8	-92.4	2.2
2025-01-10 18:33:10.724590	332.0	14.5	-92.4	3.8
#Closed at: 2025-01-10 18:24:07.410091