passes_logs/2025/01/10/LEX_Murmansk/LEX_Murmansk__20250110_135204_NOAA_18_rec.log

#Pass ID: 20250110_135204_NOAA 18
#Satellite: NOAA 18
#Configuration: NOAA 18
#Start time: 2025-01-10 13:51:59.973362

#LorettStation: 1.0.0 05.05.2024
#Station: LEX_Murmansk
#Location: 33.156738 lon 68.926811 lat
#TLE: 1 28654U 05018A   25009.85378120  .00000357  00000+0  21312-3 0  9995
#TLE: 2 28654  98.8576  90.9590 0014108 193.6372 166.4421 14.13482291 12379

#Time	Az	El	Level	SNR
2025-01-10 13:52:12.148582	33.0	15.9	-89.9	3.8
2025-01-10 13:52:13.300287	32.8	16.0	-90.3	4.4
2025-01-10 13:52:14.445548	32.7	16.1	-90.4	2.0
2025-01-10 13:52:15.592342	32.5	16.1	-90.6	4.8
2025-01-10 13:52:16.741409	32.3	16.2	-90.7	5.5
2025-01-10 13:52:17.889643	32.1	16.3	-90.3	4.8
2025-01-10 13:52:19.041185	31.9	16.4	-90.7	4.2
2025-01-10 13:52:20.194090	31.7	16.5	-90.5	4.0
2025-01-10 13:52:21.347112	31.5	16.6	-90.5	6.7
2025-01-10 13:52:22.495293	31.4	16.7	-90.5	6.6
2025-01-10 13:52:23.649739	31.2	16.7	-90.5	4.9
2025-01-10 13:52:24.796614	31.0	16.8	-90.8	7.4
2025-01-10 13:52:25.942594	30.8	16.9	-90.5	7.9
2025-01-10 13:52:27.093557	30.6	17.0	-89.8	3.3
2025-01-10 13:52:28.241870	30.4	17.1	-89.5	7.3
2025-01-10 13:52:29.391806	30.2	17.2	-90.4	7.6
2025-01-10 13:52:30.540589	30.0	17.2	-90.8	2.9
2025-01-10 13:52:31.690098	29.8	17.3	-90.3	5.7
2025-01-10 13:52:32.841373	29.6	17.4	-90.6	8.1
2025-01-10 13:52:33.993873	29.4	17.5	-90.5	7.1
2025-01-10 13:52:35.147385	29.2	17.6	-90.2	7.1
2025-01-10 13:52:36.296600	29.0	17.7	-89.8	7.9
2025-01-10 13:52:37.446425	28.8	17.7	-90.6	7.9
2025-01-10 13:52:38.595429	28.6	17.8	-90.8	7.4
2025-01-10 13:52:39.741707	28.4	17.9	-90.6	7.1
2025-01-10 13:52:40.889395	28.2	18.0	-90.7	10.9
2025-01-10 13:52:42.036717	28.0	18.1	-90.5	8.1
2025-01-10 13:52:43.191802	27.8	18.2	-90.3	6.1
2025-01-10 13:52:44.335491	27.6	18.2	-90.2	9.1
2025-01-10 13:52:45.491281	27.4	18.3	-90.4	6.9
2025-01-10 13:52:46.641227	27.1	18.4	-90.3	8.9
2025-01-10 13:52:47.789788	26.9	18.5	-90.5	5.0
2025-01-10 13:52:48.936441	26.7	18.6	-90.5	9.6
2025-01-10 13:52:50.082219	26.5	18.6	-90.2	9.3
2025-01-10 13:52:51.232768	26.3	18.7	-90.2	10.4
2025-01-10 13:52:52.381656	26.1	18.8	-90.7	12.3
2025-01-10 13:52:53.531982	25.8	18.9	-90.6	5.5
2025-01-10 13:52:54.681551	25.6	19.0	-90.7	7.0
2025-01-10 13:52:55.827651	25.4	19.1	-90.8	10.4
2025-01-10 13:52:56.975529	25.2	19.1	-90.9	6.1
2025-01-10 13:52:58.127711	25.0	19.2	-90.6	6.3
2025-01-10 13:52:59.275124	24.7	19.3	-89.6	6.0
2025-01-10 13:53:00.414210	24.5	19.4	-90.3	7.7
2025-01-10 13:53:01.555002	24.3	19.5	-90.5	7.4
2025-01-10 13:53:02.711277	24.0	19.5	-90.7	10.4
2025-01-10 13:53:03.857902	23.8	19.6	-90.5	14.1
2025-01-10 13:53:05.005183	23.6	19.7	-90.5	9.6
2025-01-10 13:53:06.156066	23.4	19.8	-90.3	10.7
2025-01-10 13:53:07.305392	23.1	19.9	-90.3	14.3
2025-01-10 13:53:08.455811	22.9	19.9	-90.6	10.5
2025-01-10 13:53:09.603299	22.7	20.0	-90.4	8.9
2025-01-10 13:53:10.749404	22.4	20.1	-90.5	12.3
2025-01-10 13:53:11.893968	22.2	20.2	-90.7	9.6
2025-01-10 13:53:13.041515	21.9	20.2	-90.5	7.7
2025-01-10 13:53:14.199557	21.7	20.3	-90.3	7.6
2025-01-10 13:53:15.347230	21.5	20.4	-90.1	7.2
2025-01-10 13:53:16.501196	21.2	20.5	-90.6	6.2
2025-01-10 13:53:17.652750	21.0	20.5	-90.8	8.3
2025-01-10 13:53:18.802197	20.7	20.6	-90.9	9.4
2025-01-10 13:53:19.953427	20.5	20.7	-90.5	6.9
2025-01-10 13:53:21.109093	20.2	20.8	-90.3	5.2
2025-01-10 13:53:22.258298	20.0	20.8	-90.3	10.7
2025-01-10 13:53:23.414839	19.7	20.9	-90.5	8.9
2025-01-10 13:53:24.562816	19.5	21.0	-90.5	10.5
2025-01-10 13:53:25.711380	19.2	21.1	-90.4	11.1
2025-01-10 13:53:26.859894	19.0	21.1	-90.9	11.8
2025-01-10 13:53:28.009916	18.7	21.2	-90.4	9.1
2025-01-10 13:53:29.150237	18.5	21.3	-90.1	8.8
2025-01-10 13:53:30.295971	18.2	21.4	-90.3	10.7
2025-01-10 13:53:31.444686	17.9	21.4	-90.4	6.4
2025-01-10 13:53:32.599913	17.7	21.5	-90.4	8.4
2025-01-10 13:53:33.746773	17.4	21.6	-89.9	10.2
2025-01-10 13:53:34.896194	17.2	21.6	-90.2	9.7
2025-01-10 13:53:36.043093	16.9	21.7	-90.4	9.2
2025-01-10 13:53:37.191358	16.6	21.8	-90.2	8.8
2025-01-10 13:53:38.334005	16.4	21.9	-90.2	6.7
2025-01-10 13:53:39.480575	16.1	21.9	-90.6	8.4
2025-01-10 13:53:40.634402	15.8	22.0	-90.5	8.5
2025-01-10 13:53:41.780701	15.6	22.1	-90.2	8.5
2025-01-10 13:53:42.932307	15.3	22.1	-90.6	6.7
2025-01-10 13:53:44.078430	15.0	22.2	-90.3	5.8
2025-01-10 13:53:45.223583	14.7	22.3	-90.3	6.3
2025-01-10 13:53:46.373380	14.5	22.3	-90.7	9.5
2025-01-10 13:53:47.518884	14.2	22.4	-90.7	4.9
2025-01-10 13:53:48.680072	13.9	22.4	-91.1	9.9
2025-01-10 13:53:49.823809	13.6	22.5	-90.3	10.4
2025-01-10 13:53:50.973747	13.4	22.6	-90.8	11.5
2025-01-10 13:53:52.125776	13.1	22.6	-90.7	14.1
2025-01-10 13:53:53.273875	12.8	22.7	-90.3	12.3
2025-01-10 13:53:54.422659	12.5	22.8	-90.8	12.2
2025-01-10 13:53:55.573523	12.2	22.8	-90.8	11.8
2025-01-10 13:53:56.724431	11.9	22.9	-90.9	14.4
2025-01-10 13:53:57.872619	11.7	22.9	-90.5	10.7
2025-01-10 13:53:59.025124	11.4	23.0	-90.4	8.4
2025-01-10 13:54:00.174132	11.1	23.1	-90.2	11.9
2025-01-10 13:54:01.314564	10.8	23.1	-90.7	13.8
2025-01-10 13:54:02.461939	10.5	23.2	-90.3	11.6
2025-01-10 13:54:03.602155	10.2	23.2	-90.7	10.3
2025-01-10 13:54:04.753526	9.9	23.3	-90.7	16.5
2025-01-10 13:54:05.901844	9.6	23.3	-90.7	15.6
2025-01-10 13:54:07.049794	9.3	23.4	-90.6	10.4
2025-01-10 13:54:08.196893	9.0	23.4	-90.5	11.9
2025-01-10 13:54:09.344398	8.7	23.5	-89.9	11.5
2025-01-10 13:54:10.492228	8.4	23.5	-90.3	12.2
2025-01-10 13:54:11.641244	8.1	23.6	-90.6	12.7
2025-01-10 13:54:12.788183	7.8	23.6	-90.9	15.4
2025-01-10 13:54:13.937114	7.5	23.7	-90.5	9.5
2025-01-10 13:54:15.085445	7.2	23.7	-90.4	7.2
2025-01-10 13:54:16.234386	6.9	23.8	-90.4	13.6
2025-01-10 13:54:17.380253	6.6	23.8	-90.2	14.7
2025-01-10 13:54:18.525911	6.3	23.9	-90.5	6.1
2025-01-10 13:54:19.672617	6.0	23.9	-90.8	9.7
2025-01-10 13:54:20.817421	5.7	24.0	-90.8	13.9
2025-01-10 13:54:21.969827	5.4	24.0	-90.4	5.8
2025-01-10 13:54:23.114698	5.1	24.1	-90.4	7.9
2025-01-10 13:54:24.259169	4.8	24.1	-90.5	12.6
2025-01-10 13:54:25.411163	4.5	24.1	-90.3	9.8
2025-01-10 13:54:26.552168	4.2	24.2	-90.4	8.6
2025-01-10 13:54:27.699317	3.9	24.2	-91.0	11.7
2025-01-10 13:54:28.839651	3.6	24.3	-90.8	12.9
2025-01-10 13:54:29.991048	3.3	24.3	-90.9	14.8
2025-01-10 13:54:31.144374	2.9	24.3	-90.6	13.0
2025-01-10 13:54:32.296735	2.6	24.4	-90.2	11.9
2025-01-10 13:54:33.445895	2.3	24.4	-90.7	14.4
2025-01-10 13:54:34.592183	2.0	24.4	-90.8	11.5
2025-01-10 13:54:35.738492	1.7	24.5	-90.5	11.8
2025-01-10 13:54:36.890424	1.4	24.5	-90.4	11.4
2025-01-10 13:54:38.041671	1.0	24.5	-90.8	8.8
2025-01-10 13:54:39.195345	0.7	24.6	-90.3	11.9
2025-01-10 13:54:40.342087	0.4	24.6	-90.3	12.4
2025-01-10 13:54:41.490923	0.1	24.6	-90.5	7.1
2025-01-10 13:54:42.638612	359.8	24.7	-90.5	9.4
2025-01-10 13:54:43.790615	359.5	24.7	-90.5	12.9
2025-01-10 13:54:44.936466	359.1	24.7	-90.7	10.0
2025-01-10 13:54:46.083153	358.8	24.7	-89.8	9.7
2025-01-10 13:54:47.236165	358.5	24.8	-89.7	12.6
2025-01-10 13:54:48.384369	358.2	24.8	-87.6	13.6
2025-01-10 13:54:49.542828	357.8	24.8	-89.9	11.0
2025-01-10 13:54:50.689165	357.5	24.8	-89.5	12.7
2025-01-10 13:54:51.845024	357.2	24.8	-90.3	14.2
2025-01-10 13:54:52.994299	356.9	24.9	-90.2	13.6
2025-01-10 13:54:54.142594	356.5	24.9	-87.7	14.7
2025-01-10 13:54:55.293177	356.2	24.9	-90.2	12.3
2025-01-10 13:54:56.443364	355.9	24.9	-89.9	10.8
2025-01-10 13:54:57.590876	355.6	24.9	-89.1	11.0
2025-01-10 13:54:58.733987	355.2	24.9	-90.0	11.9
2025-01-10 13:54:59.884940	354.9	25.0	-90.0	11.9
2025-01-10 13:55:01.021643	354.6	25.0	-90.5	8.9
2025-01-10 13:55:02.166289	354.3	25.0	-89.7	10.2
2025-01-10 13:55:03.324892	353.9	25.0	-89.9	11.2
2025-01-10 13:55:04.476253	353.6	25.0	-90.4	6.7
2025-01-10 13:55:05.624258	353.3	25.0	-90.6	8.9
2025-01-10 13:55:06.775643	353.0	25.0	-90.5	11.5
2025-01-10 13:55:07.925892	352.6	25.0	-90.6	9.3
2025-01-10 13:55:09.070719	352.3	25.0	-90.2	4.8
2025-01-10 13:55:10.217330	352.0	25.0	-90.3	12.0
2025-01-10 13:55:11.371256	351.6	25.0	-90.4	12.7
2025-01-10 13:55:12.523892	351.3	25.0	-90.1	6.2
2025-01-10 13:55:13.673273	351.0	25.0	-90.3	12.2
2025-01-10 13:55:14.822831	350.7	25.0	-90.7	14.7
2025-01-10 13:55:15.970194	350.3	25.0	-90.3	9.4
2025-01-10 13:55:17.115356	350.0	25.0	-90.0	9.4
2025-01-10 13:55:18.263272	349.7	25.0	-87.7	10.4
2025-01-10 13:55:19.409435	349.4	25.0	-89.9	11.0
2025-01-10 13:55:20.562307	349.0	25.0	-90.5	9.5
2025-01-10 13:55:21.714967	348.7	25.0	-90.5	9.0
2025-01-10 13:55:22.862349	348.4	25.0	-90.8	11.2
2025-01-10 13:55:24.011454	348.0	25.0	-90.6	9.3
2025-01-10 13:55:25.156831	347.7	25.0	-90.7	9.8
2025-01-10 13:55:26.303846	347.4	25.0	-90.5	9.2
2025-01-10 13:55:27.455175	347.1	25.0	-91.0	11.5
2025-01-10 13:55:28.607254	346.7	25.0	-89.9	8.0
2025-01-10 13:55:29.753099	346.4	24.9	-89.9	9.3
2025-01-10 13:55:30.903944	346.1	24.9	-88.8	9.5
2025-01-10 13:55:32.049621	345.8	24.9	-89.1	10.8
2025-01-10 13:55:33.198390	345.4	24.9	-86.5	8.6
2025-01-10 13:55:34.348743	345.1	24.9	-87.6	11.0
2025-01-10 13:55:35.498095	344.8	24.9	-90.4	11.5
2025-01-10 13:55:36.646460	344.5	24.8	-90.7	13.3
2025-01-10 13:55:37.793364	344.1	24.8	-90.7	10.7
2025-01-10 13:55:38.943370	343.8	24.8	-90.7	9.7
2025-01-10 13:55:40.095061	343.5	24.8	-90.5	9.2
2025-01-10 13:55:41.242367	343.2	24.8	-90.5	11.9
2025-01-10 13:55:42.391791	342.8	24.7	-90.4	8.9
2025-01-10 13:55:43.539361	342.5	24.7	-90.3	7.6
2025-01-10 13:55:44.686098	342.2	24.7	-89.4	7.5
2025-01-10 13:55:45.835667	341.9	24.6	-90.2	10.4
2025-01-10 13:55:46.980875	341.6	24.6	-90.5	7.2
2025-01-10 13:55:48.127403	341.2	24.6	-90.6	5.0
2025-01-10 13:55:49.276643	340.9	24.6	-90.7	8.0
2025-01-10 13:55:50.428695	340.6	24.5	-90.3	8.8
2025-01-10 13:55:51.580205	340.3	24.5	-90.5	5.8
2025-01-10 13:55:52.735229	340.0	24.5	-90.4	9.3
2025-01-10 13:55:53.883410	339.6	24.4	-90.8	8.5
2025-01-10 13:55:55.029984	339.3	24.4	-90.3	5.9
2025-01-10 13:55:56.181523	339.0	24.4	-89.1	7.9
2025-01-10 13:55:57.337372	338.7	24.3	-89.6	10.0
2025-01-10 13:55:58.481911	338.4	24.3	-89.9	6.6
2025-01-10 13:55:59.628821	338.1	24.2	-90.4	5.2
2025-01-10 13:56:00.767227	337.8	24.2	-89.7	12.2
2025-01-10 13:56:01.915726	337.5	24.2	-90.2	8.4
2025-01-10 13:56:03.063830	337.1	24.1	-89.7	6.5
2025-01-10 13:56:04.216360	336.8	24.1	-89.9	9.0
2025-01-10 13:56:05.364715	336.5	24.0	-89.8	10.5
2025-01-10 13:56:06.511761	336.2	24.0	-89.5	7.4
2025-01-10 13:56:07.659323	335.9	24.0	-89.2	8.8
2025-01-10 13:56:08.807018	335.6	23.9	-90.0	7.4
2025-01-10 13:56:09.957520	335.3	23.9	-90.7	7.5
2025-01-10 13:56:11.102719	335.0	23.8	-90.2	5.5
2025-01-10 13:56:12.252029	334.7	23.8	-90.4	8.7
2025-01-10 13:56:13.401528	334.4	23.7	-90.6	9.4
2025-01-10 13:56:14.538825	334.1	23.7	-90.9	7.0
2025-01-10 13:56:15.689030	333.8	23.6	-90.4	10.2
2025-01-10 13:56:16.842338	333.5	23.6	-90.7	8.0
2025-01-10 13:56:17.988579	333.2	23.5	-90.2	5.1
2025-01-10 13:56:19.133027	332.9	23.5	-89.7	4.5
2025-01-10 13:56:20.281427	332.6	23.4	-89.7	9.6
2025-01-10 13:56:21.427156	332.3	23.4	-90.1	8.6
2025-01-10 13:56:22.577568	332.0	23.3	-89.8	5.7
2025-01-10 13:56:23.727362	331.7	23.3	-90.6	11.1
2025-01-10 13:56:24.878485	331.4	23.2	-90.7	12.5
2025-01-10 13:56:26.023115	331.1	23.1	-90.6	6.9
2025-01-10 13:56:27.164136	330.8	23.1	-90.2	9.0
2025-01-10 13:56:28.284559	330.6	23.0	-90.3	10.6
2025-01-10 13:56:29.426808	330.3	23.0	-90.1	6.4
2025-01-10 13:56:30.573784	330.0	22.9	-89.6	5.4
2025-01-10 13:56:31.725900	329.7	22.8	-89.5	9.5
2025-01-10 13:56:32.876528	329.4	22.8	-89.4	7.9
2025-01-10 13:56:34.026274	329.1	22.7	-89.4	6.4
2025-01-10 13:56:35.178648	328.9	22.7	-89.1	8.6
2025-01-10 13:56:36.325123	328.6	22.6	-90.2	12.2
2025-01-10 13:56:37.473050	328.3	22.5	-90.6	6.7
2025-01-10 13:56:38.614364	328.0	22.5	-90.4	6.1
2025-01-10 13:56:39.763415	327.7	22.4	-90.3	8.4
2025-01-10 13:56:40.912716	327.5	22.3	-91.1	6.9
2025-01-10 13:56:42.067703	327.2	22.3	-90.9	3.7
2025-01-10 13:56:43.219275	326.9	22.2	-90.0	7.2
2025-01-10 13:56:44.365648	326.6	22.2	-90.5	7.2
2025-01-10 13:56:45.514176	326.4	22.1	-90.9	6.0
2025-01-10 13:56:46.658847	326.1	22.0	-90.8	9.0
2025-01-10 13:56:47.808524	325.8	21.9	-90.5	7.9
2025-01-10 13:56:48.949336	325.5	21.9	-90.5	7.8
2025-01-10 13:56:50.101840	325.3	21.8	-90.2	7.9
2025-01-10 13:56:51.250128	325.0	21.7	-90.3	10.7
2025-01-10 13:56:52.402472	324.7	21.7	-89.3	8.3
2025-01-10 13:56:53.561783	324.5	21.6	-89.9	7.2
2025-01-10 13:56:54.706554	324.2	21.5	-90.2	12.0
2025-01-10 13:56:55.855177	324.0	21.5	-90.3	7.7
2025-01-10 13:56:57.003574	323.7	21.4	-90.5	11.3
2025-01-10 13:56:58.148326	323.4	21.3	-90.5	10.6
2025-01-10 13:56:59.315258	323.2	21.2	-90.6	10.8
2025-01-10 13:57:00.449496	322.9	21.2	-90.4	9.7
2025-01-10 13:57:01.599284	322.7	21.1	-90.5	8.7
2025-01-10 13:57:02.746906	322.4	21.0	-90.8	10.0
2025-01-10 13:57:03.897754	322.2	21.0	-90.5	6.9
2025-01-10 13:57:05.054429	321.9	20.9	-90.6	5.3
2025-01-10 13:57:06.199662	321.7	20.8	-90.4	6.5
2025-01-10 13:57:07.349537	321.4	20.7	-90.1	4.0
2025-01-10 13:57:08.494500	321.2	20.7	-90.6	7.2
2025-01-10 13:57:09.646000	320.9	20.6	-90.6	4.6
2025-01-10 13:57:10.793957	320.7	20.5	-90.5	10.1
2025-01-10 13:57:11.943085	320.4	20.4	-90.6	8.7
2025-01-10 13:57:13.097634	320.2	20.3	-90.5	3.5
2025-01-10 13:57:14.244425	319.9	20.3	-89.9	5.1
2025-01-10 13:57:15.392949	319.7	20.2	-90.1	7.1
2025-01-10 13:57:16.538185	319.4	20.1	-90.4	5.5
2025-01-10 13:57:17.691238	319.2	20.0	-90.6	5.8
2025-01-10 13:57:18.837236	319.0	20.0	-90.4	6.0
2025-01-10 13:57:19.983107	318.7	19.9	-90.3	6.7
2025-01-10 13:57:21.132834	318.5	19.8	-90.0	4.6
2025-01-10 13:57:22.284249	318.3	19.7	-89.5	9.5
2025-01-10 13:57:23.434048	318.0	19.6	-90.3	6.0
2025-01-10 13:57:24.582045	317.8	19.6	-90.4	5.4
2025-01-10 13:57:25.736299	317.6	19.5	-90.6	9.2
2025-01-10 13:57:26.902881	317.3	19.4	-87.6	5.7
2025-01-10 13:57:28.046846	317.1	19.3	-89.8	6.5
2025-01-10 13:57:29.196452	316.9	19.2	-90.1	4.1
2025-01-10 13:57:30.343631	316.7	19.2	-90.0	6.6
2025-01-10 13:57:31.491591	316.4	19.1	-90.0	5.5
2025-01-10 13:57:32.637286	316.2	19.0	-89.9	5.0
2025-01-10 13:57:33.782912	316.0	18.9	-90.5	5.5
2025-01-10 13:57:34.928009	315.8	18.8	-90.4	5.3
2025-01-10 13:57:36.074014	315.5	18.7	-89.9	4.9
2025-01-10 13:57:37.220091	315.3	18.7	-87.5	9.8
2025-01-10 13:57:38.368780	315.1	18.6	-90.4	6.7
2025-01-10 13:57:39.517788	314.9	18.5	-90.8	5.1
2025-01-10 13:57:40.664468	314.7	18.4	-90.7	10.3
2025-01-10 13:57:41.812502	314.5	18.3	-90.3	6.6
2025-01-10 13:57:42.959650	314.3	18.3	-90.1	8.2
2025-01-10 13:57:44.109532	314.0	18.2	-90.6	5.5
2025-01-10 13:57:45.256927	313.8	18.1	-90.8	5.4
2025-01-10 13:57:46.400989	313.6	18.0	-90.6	12.8
2025-01-10 13:57:47.546843	313.4	17.9	-90.7	8.0
2025-01-10 13:57:48.692066	313.2	17.8	-91.1	8.1
2025-01-10 13:57:49.840411	313.0	17.8	-88.0	9.8
2025-01-10 13:57:50.988231	312.8	17.7	-88.2	7.8
2025-01-10 13:57:52.139290	312.6	17.6	-90.0	6.6
2025-01-10 13:57:53.282329	312.4	17.5	-90.1	5.9
2025-01-10 13:57:54.435811	312.2	17.4	-91.0	4.7
2025-01-10 13:57:55.583751	312.0	17.3	-90.6	5.1
2025-01-10 13:57:56.730950	311.8	17.3	-90.8	8.0
2025-01-10 13:57:57.880080	311.6	17.2	-90.9	12.5
2025-01-10 13:57:59.029700	311.4	17.1	-90.6	7.0
2025-01-10 13:58:00.177876	311.2	17.0	-88.6	7.3
2025-01-10 13:58:01.315847	311.0	16.9	-89.9	7.8
2025-01-10 13:58:02.462861	310.8	16.8	-90.5	7.9
2025-01-10 13:58:03.612640	310.6	16.7	-90.9	7.9
2025-01-10 13:58:04.761767	310.4	16.7	-91.0	9.7
2025-01-10 13:58:05.903236	310.2	16.6	-90.7	7.3
2025-01-10 13:58:07.068326	310.1	16.5	-90.4	5.5
2025-01-10 13:58:08.216625	309.9	16.4	-87.2	9.6
2025-01-10 13:58:09.361193	309.7	16.3	-90.3	11.8
2025-01-10 13:58:10.515236	309.5	16.2	-90.4	10.6
2025-01-10 13:58:11.662582	309.3	16.2	-90.9	9.3
2025-01-10 13:58:12.816125	309.1	16.1	-90.8	6.3
2025-01-10 13:58:13.962052	308.9	16.0	-91.1	5.0
2025-01-10 13:58:15.110983	308.8	15.9	-90.4	3.7
2025-01-10 13:58:16.257772	308.6	15.8	-87.7	2.2
2025-01-10 13:58:17.409878	308.4	15.7	-90.1	11.2
2025-01-10 13:58:18.561695	308.2	15.6	-91.1	5.1
2025-01-10 13:58:19.704704	308.0	15.6	-90.3	6.9
2025-01-10 13:58:20.854999	307.9	15.5	-90.6	9.4
2025-01-10 13:58:22.001403	307.7	15.4	-89.5	4.3
2025-01-10 13:58:23.151285	307.5	15.3	-88.2	7.8
2025-01-10 13:58:24.306481	307.3	15.2	-89.8	9.5
2025-01-10 13:58:25.450616	307.2	15.1	-90.5	5.5
2025-01-10 13:58:26.601052	307.0	15.1	-91.0	7.3
2025-01-10 13:58:27.750938	306.8	15.0	-90.5	8.4
2025-01-10 13:58:28.901706	306.7	14.9	-86.1	7.8
2025-01-10 13:58:30.047370	306.5	14.8	-90.3	10.5
2025-01-10 13:58:31.198574	306.3	14.7	-90.6	6.5
2025-01-10 13:58:32.344474	306.2	14.6	-90.6	8.2
#Closed at: 2025-01-10 13:52:04.947251