passes_logs/2025/01/10/LEX_Murmansk/LEX_Murmansk__20250110_164330_NOAA_19_rec.log

#Pass ID: 20250110_164330_NOAA 19
#Satellite: NOAA 19
#Configuration: NOAA 19
#Start time: 2025-01-10 16:43:25.269658

#LorettStation: 1.0.0 05.05.2024
#Station: LEX_Murmansk
#Location: 33.156738 lon 68.926811 lat
#TLE: 1 33591U 09005A   25009.90667525  .00000313  00000+0  19132-3 0  9996
#TLE: 2 33591  99.0207  73.6295 0014600  71.1816 289.0938 14.13255869820561

#Time	Az	El	Level	SNR
2025-01-10 16:43:37.538494	122.5	16.3	-91.6	8.0
2025-01-10 16:43:39.867003	122.3	16.5	-91.0	9.2
2025-01-10 16:43:42.193716	122.2	16.8	-90.2	4.1
2025-01-10 16:43:44.519486	122.0	17.1	-92.0	3.0
2025-01-10 16:43:46.842113	121.9	17.3	-91.7	5.7
2025-01-10 16:43:49.167171	121.7	17.6	-91.4	9.9
2025-01-10 16:43:51.491064	121.6	17.8	-92.0	9.0
2025-01-10 16:43:53.819761	121.4	18.1	-91.8	8.3
2025-01-10 16:43:56.157080	121.3	18.4	-92.0	13.3
2025-01-10 16:43:58.473315	121.1	18.7	-91.2	4.1
2025-01-10 16:44:00.779895	121.0	18.9	-92.1	2.2
2025-01-10 16:44:03.095964	120.8	19.2	-91.1	6.9
2025-01-10 16:44:05.421582	120.6	19.5	-91.4	12.3
2025-01-10 16:44:07.746659	120.5	19.8	-91.7	6.8
2025-01-10 16:44:10.060338	120.3	20.1	-92.0	11.5
2025-01-10 16:44:12.379996	120.1	20.3	-91.6	12.6
2025-01-10 16:44:14.705061	119.9	20.6	-91.2	5.8
2025-01-10 16:44:17.023941	119.7	20.9	-91.1	3.5
2025-01-10 16:44:19.358634	119.5	21.2	-91.7	5.9
2025-01-10 16:44:21.675382	119.3	21.5	-91.5	12.2
2025-01-10 16:44:23.999985	119.1	21.8	-91.0	8.5
2025-01-10 16:44:26.324494	118.9	22.1	-91.0	6.8
2025-01-10 16:44:28.653648	118.7	22.5	-90.7	12.8
2025-01-10 16:44:30.970483	118.5	22.8	-92.1	8.5
2025-01-10 16:44:33.396843	118.3	23.1	-91.9	1.9
2025-01-10 16:44:35.716300	118.1	23.4	-92.4	4.9
2025-01-10 16:44:38.051372	117.9	23.8	-91.5	7.9
2025-01-10 16:44:40.376946	117.6	24.1	-90.9	6.4
2025-01-10 16:44:42.707513	117.4	24.4	-91.4	5.3
2025-01-10 16:44:45.032768	117.2	24.8	-91.3	9.6
2025-01-10 16:44:47.349807	116.9	25.1	-92.4	6.2
2025-01-10 16:44:49.664037	116.7	25.4	-90.7	2.9
2025-01-10 16:44:51.982769	116.4	25.8	-91.6	3.0
2025-01-10 16:44:54.302291	116.2	26.1	-91.4	3.9
2025-01-10 16:44:56.626939	115.9	26.5	-92.0	2.5
2025-01-10 16:44:58.951652	115.6	26.9	-91.7	0.9
2025-01-10 16:45:01.254834	115.3	27.2	-91.3	3.1
2025-01-10 16:45:03.587743	115.0	27.6	-90.8	5.5
2025-01-10 16:45:05.908680	114.8	28.0	-91.6	3.8
2025-01-10 16:45:08.238401	114.4	28.3	-91.1	1.9
2025-01-10 16:45:10.669240	114.1	28.7	-90.4	2.2
2025-01-10 16:45:12.990904	113.8	29.1	-91.1	5.1
2025-01-10 16:45:15.309164	113.5	29.5	-91.4	4.0
2025-01-10 16:45:17.635492	113.2	29.9	-90.2	5.2
2025-01-10 16:45:19.960750	112.8	30.3	-90.7	8.0
2025-01-10 16:45:22.293906	112.5	30.7	-91.1	10.0
2025-01-10 16:45:24.623611	112.1	31.1	-90.6	5.9
2025-01-10 16:45:26.940902	111.7	31.5	-92.0	3.5
2025-01-10 16:45:29.264869	111.4	31.9	-91.6	7.5
2025-01-10 16:45:31.584562	111.0	32.4	-91.9	17.2
2025-01-10 16:45:33.906435	110.6	32.8	-91.0	13.1
2025-01-10 16:45:36.220382	110.2	33.2	-91.7	7.1
2025-01-10 16:45:38.537006	109.8	33.6	-91.3	15.3
2025-01-10 16:45:40.859510	109.3	34.1	-91.9	16.4
2025-01-10 16:45:43.184256	108.9	34.5	-91.9	7.3
2025-01-10 16:45:45.504911	108.4	35.0	-91.8	4.1
2025-01-10 16:45:47.822388	108.0	35.4	-91.8	6.9
2025-01-10 16:45:50.161241	107.5	35.9	-91.8	16.4
2025-01-10 16:45:52.481878	107.0	36.3	-92.1	16.0
2025-01-10 16:45:54.819393	106.5	36.8	-92.0	5.6
2025-01-10 16:45:57.155970	105.9	37.3	-90.7	8.9
2025-01-10 16:45:59.478919	105.4	37.7	-90.9	12.0
2025-01-10 16:46:01.783776	104.9	38.2	-91.2	7.4
2025-01-10 16:46:04.104904	104.3	38.7	-90.4	3.2
2025-01-10 16:46:06.428265	103.7	39.2	-91.8	2.4
2025-01-10 16:46:08.750504	103.1	39.6	-91.9	6.2
2025-01-10 16:46:11.087402	102.5	40.1	-91.9	10.3
2025-01-10 16:46:13.408764	101.8	40.6	-91.3	9.3
2025-01-10 16:46:15.745909	101.1	41.1	-91.7	2.9
2025-01-10 16:46:18.067225	100.5	41.6	-91.6	2.4
2025-01-10 16:46:20.386956	99.8	42.1	-91.4	9.9
2025-01-10 16:46:22.711010	99.0	42.6	-90.4	10.2
2025-01-10 16:46:25.018340	98.3	43.1	-90.7	8.0
2025-01-10 16:46:27.317544	97.5	43.6	-91.1	1.6
2025-01-10 16:46:29.559835	96.7	44.1	-91.1	5.6
2025-01-10 16:46:31.806308	95.9	44.5	-91.3	8.4
2025-01-10 16:46:34.048537	95.1	45.0	-91.0	14.8
2025-01-10 16:46:36.293381	94.3	45.5	-90.5	11.2
2025-01-10 16:46:38.610410	93.4	46.0	-90.4	7.7
2025-01-10 16:46:40.922524	92.4	46.5	-91.3	4.4
2025-01-10 16:46:43.244918	91.5	47.0	-90.4	5.6
2025-01-10 16:46:45.567353	90.5	47.5	-90.1	12.5
2025-01-10 16:46:47.890858	89.5	47.9	-90.7	7.9
2025-01-10 16:46:50.211365	88.4	48.4	-91.0	6.1
2025-01-10 16:46:52.544123	87.3	48.9	-91.8	3.4
2025-01-10 16:46:54.862653	86.2	49.4	-92.3	2.4
2025-01-10 16:46:57.185892	85.0	49.8	-91.2	2.9
2025-01-10 16:46:59.505604	83.9	50.3	-91.4	4.5
2025-01-10 16:47:01.803685	82.6	50.7	-90.6	6.3
2025-01-10 16:47:04.144677	81.4	51.1	-91.1	8.4
2025-01-10 16:47:06.475025	80.1	51.5	-91.0	8.4
2025-01-10 16:47:08.798546	78.7	52.0	-91.3	4.4
2025-01-10 16:47:11.115101	77.4	52.3	-90.6	7.7
2025-01-10 16:47:13.445168	75.9	52.7	-90.8	5.9
2025-01-10 16:47:15.779316	74.5	53.1	-91.1	9.6
2025-01-10 16:47:18.101228	73.0	53.4	-91.4	13.5
2025-01-10 16:47:20.427052	71.5	53.8	-90.6	9.0
2025-01-10 16:47:22.742889	69.9	54.1	-91.1	11.4
2025-01-10 16:47:25.056931	68.4	54.3	-90.5	7.9
2025-01-10 16:47:27.382417	66.7	54.6	-91.2	4.4
2025-01-10 16:47:29.708171	65.1	54.9	-91.2	2.6
2025-01-10 16:47:32.022911	63.4	55.1	-91.5	6.8
2025-01-10 16:47:34.340554	61.8	55.3	-90.9	6.8
2025-01-10 16:47:36.669692	60.0	55.5	-91.5	6.7
2025-01-10 16:47:38.995732	58.3	55.6	-91.9	12.3
2025-01-10 16:47:41.314453	56.5	55.7	-91.0	12.3
2025-01-10 16:47:43.640093	54.8	55.8	-91.5	14.8
2025-01-10 16:47:45.962778	53.0	55.9	-91.6	14.2
2025-01-10 16:47:48.281679	51.2	55.9	-91.8	13.5
2025-01-10 16:47:50.617112	49.4	55.9	-91.7	10.1
2025-01-10 16:47:52.946706	47.6	55.9	-91.7	8.5
2025-01-10 16:47:55.278488	45.8	55.9	-91.6	5.4
2025-01-10 16:47:57.601911	44.0	55.8	-92.0	7.9
2025-01-10 16:47:59.917687	42.3	55.7	-91.4	6.5
2025-01-10 16:48:02.191780	40.6	55.6	-91.6	4.8
2025-01-10 16:48:04.433876	38.9	55.5	-91.6	6.6
2025-01-10 16:48:06.673947	37.2	55.3	-91.8	3.4
2025-01-10 16:48:08.914025	35.6	55.1	-91.3	4.5
2025-01-10 16:48:11.162341	34.0	54.9	-91.0	4.5
2025-01-10 16:48:13.471315	32.3	54.7	-91.5	8.3
2025-01-10 16:48:15.788709	30.7	54.4	-90.7	4.1
2025-01-10 16:48:18.108537	29.1	54.1	-91.5	10.3
2025-01-10 16:48:20.429030	27.6	53.8	-91.2	5.4
2025-01-10 16:48:22.743897	26.1	53.5	-91.6	6.1
2025-01-10 16:48:25.068618	24.6	53.2	-91.5	8.8
2025-01-10 16:48:27.389509	23.1	52.8	-92.1	6.7
2025-01-10 16:48:29.713059	21.7	52.4	-91.4	3.8
2025-01-10 16:48:32.034974	20.3	52.1	-91.3	7.9
2025-01-10 16:48:34.360778	19.0	51.7	-91.2	4.5
2025-01-10 16:48:36.684240	17.7	51.2	-90.8	3.0
2025-01-10 16:48:39.003519	16.4	50.8	-91.4	3.9
2025-01-10 16:48:41.323521	15.2	50.4	-90.8	3.5
2025-01-10 16:48:43.639361	14.0	49.9	-90.9	6.4
2025-01-10 16:48:45.965070	12.8	49.5	-91.6	7.9
2025-01-10 16:48:48.295445	11.7	49.0	-90.3	3.3
2025-01-10 16:48:50.614265	10.6	48.6	-91.6	7.9
2025-01-10 16:48:52.932611	9.5	48.1	-91.6	6.2
2025-01-10 16:48:55.252718	8.5	47.6	-91.2	4.1
2025-01-10 16:48:57.571286	7.5	47.1	-91.1	12.0
2025-01-10 16:48:59.896060	6.5	46.6	-90.8	12.0
2025-01-10 16:49:02.200177	5.6	46.1	-91.4	12.4
2025-01-10 16:49:04.516627	4.7	45.7	-91.0	14.6
2025-01-10 16:49:06.840150	3.8	45.2	-91.8	16.7
2025-01-10 16:49:09.168523	2.9	44.7	-91.0	18.2
2025-01-10 16:49:11.499944	2.1	44.2	-91.3	15.3
2025-01-10 16:49:13.824619	1.3	43.7	-91.8	17.2
2025-01-10 16:49:16.142487	0.5	43.2	-92.0	14.4
2025-01-10 16:49:18.468516	359.8	42.7	-92.3	13.4
2025-01-10 16:49:20.789849	359.0	42.2	-91.9	8.3
2025-01-10 16:49:23.103027	358.3	41.7	-91.9	9.6
2025-01-10 16:49:25.424049	357.7	41.2	-92.0	5.4
2025-01-10 16:49:27.752613	357.0	40.7	-91.6	6.3
2025-01-10 16:49:30.078589	356.3	40.2	-91.1	12.3
2025-01-10 16:49:32.396432	355.7	39.7	-91.7	15.1
2025-01-10 16:49:34.706321	355.1	39.3	-91.2	17.0
2025-01-10 16:49:37.039054	354.5	38.8	-91.3	17.4
2025-01-10 16:49:39.368475	353.9	38.3	-91.5	15.8
2025-01-10 16:49:41.687880	353.4	37.8	-92.2	11.0
2025-01-10 16:49:44.007297	352.9	37.4	-92.6	8.6
2025-01-10 16:49:46.329976	352.3	36.9	-92.2	1.6
2025-01-10 16:49:48.648731	351.8	36.4	-92.1	5.6
2025-01-10 16:49:50.976008	351.3	36.0	-92.0	5.4
2025-01-10 16:49:53.289461	350.8	35.5	-91.0	5.2
2025-01-10 16:49:55.613792	350.4	35.1	-91.4	11.4
2025-01-10 16:49:57.934037	349.9	34.6	-91.6	13.6
2025-01-10 16:50:00.251295	349.5	34.2	-91.2	12.2
2025-01-10 16:50:02.563241	349.0	33.8	-91.5	11.2
2025-01-10 16:50:04.885724	348.6	33.3	-90.6	3.9
2025-01-10 16:50:07.204147	348.2	32.9	-91.7	2.9
2025-01-10 16:50:09.533787	347.8	32.5	-91.9	5.0
2025-01-10 16:50:11.859227	347.4	32.1	-92.1	5.9
2025-01-10 16:50:14.193694	347.1	31.6	-91.8	10.5
2025-01-10 16:50:16.523991	346.7	31.2	-92.1	12.8
2025-01-10 16:50:18.857753	346.3	30.8	-92.0	13.9
2025-01-10 16:50:21.178826	346.0	30.4	-91.9	9.6
2025-01-10 16:50:23.499015	345.6	30.0	-92.3	4.6
2025-01-10 16:50:25.816082	345.3	29.6	-92.2	2.3
2025-01-10 16:50:28.132794	345.0	29.2	-91.8	6.2
2025-01-10 16:50:30.451689	344.7	28.9	-92.2	4.1
2025-01-10 16:50:32.777253	344.4	28.5	-92.0	4.8
2025-01-10 16:50:35.102320	344.1	28.1	-91.7	5.0
2025-01-10 16:50:37.427059	343.8	27.7	-91.8	8.2
2025-01-10 16:50:39.756296	343.5	27.4	-91.7	7.1
2025-01-10 16:50:42.071122	343.2	27.0	-91.6	5.1
2025-01-10 16:50:44.388280	342.9	26.6	-92.0	4.0
2025-01-10 16:50:46.717123	342.7	26.3	-92.3	5.7
2025-01-10 16:50:49.044138	342.4	25.9	-92.1	11.5
2025-01-10 16:50:51.393902	342.1	25.6	-91.9	13.0
2025-01-10 16:50:53.725833	341.9	25.2	-92.2	10.1
2025-01-10 16:50:56.053032	341.6	24.9	-91.5	5.6
2025-01-10 16:50:58.381221	341.4	24.6	-91.9	2.2
2025-01-10 16:51:00.695549	341.2	24.2	-91.6	3.3
2025-01-10 16:51:03.011201	340.9	23.9	-91.3	6.8
2025-01-10 16:51:05.331279	340.7	23.6	-91.7	7.0
2025-01-10 16:51:07.655004	340.5	23.2	-92.5	10.0
2025-01-10 16:51:09.974022	340.3	22.9	-92.2	11.0
2025-01-10 16:51:12.295632	340.1	22.6	-92.2	4.1
2025-01-10 16:51:14.604668	339.9	22.3	-92.0	7.2
2025-01-10 16:51:16.869920	339.7	22.0	-91.5	5.5
2025-01-10 16:51:19.111040	339.5	21.7	-91.5	8.1
2025-01-10 16:51:21.353075	339.3	21.4	-91.9	12.1
2025-01-10 16:51:23.593911	339.1	21.1	-92.1	9.9
2025-01-10 16:51:25.865673	338.9	20.8	-92.3	5.4
2025-01-10 16:51:28.173648	338.7	20.5	-91.8	2.2
2025-01-10 16:51:30.471830	338.6	20.3	-92.0	1.7
2025-01-10 16:51:32.781265	338.4	20.0	-91.8	1.9
2025-01-10 16:51:35.095587	338.2	19.7	-91.4	2.1
2025-01-10 16:51:37.414901	338.1	19.4	-90.8	3.9
2025-01-10 16:51:39.727753	337.9	19.1	-91.7	3.9
2025-01-10 16:51:42.051395	337.7	18.9	-92.3	2.0
2025-01-10 16:51:44.370451	337.6	18.6	-92.6	4.6
2025-01-10 16:51:46.692085	337.4	18.3	-92.3	2.3
2025-01-10 16:51:49.015944	337.3	18.0	-92.1	9.2
2025-01-10 16:51:51.339411	337.1	17.8	-91.8	2.9
2025-01-10 16:51:53.669357	337.0	17.5	-91.9	2.7
2025-01-10 16:51:55.993367	336.8	17.3	-91.1	2.9
2025-01-10 16:51:58.309083	336.7	17.0	-91.5	3.7
2025-01-10 16:52:00.593927	336.5	16.8	-91.8	3.3
2025-01-10 16:52:02.913345	336.4	16.5	-92.2	1.3
2025-01-10 16:52:05.228811	336.3	16.3	-91.8	7.5
2025-01-10 16:52:07.550463	336.1	16.0	-92.1	4.7
2025-01-10 16:52:09.870360	336.0	15.8	-92.4	3.5
2025-01-10 16:52:12.192380	335.9	15.5	-92.3	2.5
2025-01-10 16:52:14.504707	335.7	15.3	-92.4	5.7
2025-01-10 16:52:16.824188	335.6	15.0	-92.3	4.3
2025-01-10 16:52:19.139520	335.5	14.8	-91.6	2.1
2025-01-10 16:52:21.458517	335.4	14.6	-90.7	2.6
#Closed at: 2025-01-10 16:43:30.338956