passes_logs/2025/01/10/LEX_Murmansk/LEX_Murmansk__20250110_185002_NOAA_18_rec.log

#Pass ID: 20250110_185002_NOAA 18
#Satellite: NOAA 18
#Configuration: NOAA 18
#Start time: 2025-01-10 18:49:57.632211

#LorettStation: 1.0.0 05.05.2024
#Station: LEX_Murmansk
#Location: 33.156738 lon 68.926811 lat
#TLE: 1 28654U 05018A   25009.85378120  .00000357  00000+0  21312-3 0  9995
#TLE: 2 28654  98.8576  90.9590 0014108 193.6372 166.4421 14.13482291 12379

#Time	Az	El	Level	SNR
2025-01-10 18:50:09.800243	150.8	16.3	-92.2	8.1
2025-01-10 18:50:12.107898	150.8	16.6	-92.0	8.7
2025-01-10 18:50:14.423801	150.8	16.8	-92.5	6.4
2025-01-10 18:50:16.733128	150.8	17.1	-89.6	5.7
2025-01-10 18:50:19.044051	150.8	17.4	-90.7	5.9
2025-01-10 18:50:21.360580	150.8	17.6	-92.2	5.5
2025-01-10 18:50:23.667989	150.8	17.9	-92.6	5.1
2025-01-10 18:50:25.977804	150.8	18.2	-92.7	3.8
2025-01-10 18:50:28.281200	150.8	18.4	-92.0	6.9
2025-01-10 18:50:30.594477	150.8	18.7	-92.7	3.5
2025-01-10 18:50:32.897986	150.8	19.0	-92.9	6.7
2025-01-10 18:50:35.213362	150.8	19.3	-92.6	7.5
2025-01-10 18:50:37.511429	150.8	19.6	-92.1	9.5
2025-01-10 18:50:39.816313	150.8	19.9	-92.7	11.6
2025-01-10 18:50:42.128905	150.8	20.2	-92.6	10.4
2025-01-10 18:50:44.442788	150.8	20.5	-92.6	9.3
2025-01-10 18:50:46.753373	150.8	20.8	-93.2	9.3
2025-01-10 18:50:49.068815	150.8	21.1	-92.3	5.0
2025-01-10 18:50:51.380790	150.8	21.4	-92.6	8.9
2025-01-10 18:50:53.687764	150.8	21.7	-93.0	10.0
2025-01-10 18:50:56.004869	150.8	22.0	-92.9	7.9
2025-01-10 18:50:58.328934	150.8	22.4	-92.1	12.2
2025-01-10 18:51:00.632420	150.8	22.7	-92.9	10.3
2025-01-10 18:51:02.938718	150.8	23.0	-92.8	6.3
2025-01-10 18:51:05.248911	150.8	23.3	-92.6	10.8
2025-01-10 18:51:07.555868	150.8	23.7	-93.0	13.8
2025-01-10 18:51:09.859126	150.8	24.0	-92.5	13.6
2025-01-10 18:51:12.157783	150.7	24.4	-92.4	11.0
2025-01-10 18:51:14.463306	150.7	24.7	-92.6	13.3
2025-01-10 18:51:16.766812	150.7	25.1	-92.4	11.3
2025-01-10 18:51:19.074109	150.7	25.4	-92.8	5.6
2025-01-10 18:51:21.385337	150.7	25.8	-92.2	9.9
2025-01-10 18:51:23.708024	150.7	26.2	-92.9	13.1
2025-01-10 18:51:26.016402	150.7	26.6	-92.8	11.0
2025-01-10 18:51:28.331851	150.7	27.0	-92.0	11.7
2025-01-10 18:51:30.639125	150.7	27.3	-92.9	10.5
2025-01-10 18:51:32.939750	150.7	27.7	-90.2	9.1
2025-01-10 18:51:35.222507	150.7	28.1	-92.4	9.1
2025-01-10 18:51:37.538476	150.7	28.5	-93.0	3.3
2025-01-10 18:51:39.854534	150.7	28.9	-92.8	6.9
2025-01-10 18:51:42.165352	150.7	29.4	-92.7	4.8
2025-01-10 18:51:44.479691	150.6	29.8	-92.6	7.5
2025-01-10 18:51:46.774993	150.6	30.2	-93.0	8.1
2025-01-10 18:51:49.082186	150.6	30.7	-92.1	7.0
2025-01-10 18:51:51.385008	150.6	31.1	-92.5	3.4
2025-01-10 18:51:53.690518	150.6	31.5	-92.8	5.1
2025-01-10 18:51:56.003830	150.6	32.0	-92.8	4.3
2025-01-10 18:51:58.313682	150.6	32.5	-92.4	9.0
2025-01-10 18:52:00.609517	150.6	32.9	-92.9	10.4
2025-01-10 18:52:02.919760	150.5	33.4	-93.2	6.1
2025-01-10 18:52:05.233118	150.5	33.9	-92.7	10.3
2025-01-10 18:52:07.540497	150.5	34.4	-91.8	11.7
2025-01-10 18:52:09.844346	150.5	34.9	-92.6	13.9
2025-01-10 18:52:12.157320	150.5	35.4	-92.2	10.6
2025-01-10 18:52:14.472506	150.5	35.9	-92.6	10.2
2025-01-10 18:52:16.782863	150.4	36.4	-92.8	15.6
2025-01-10 18:52:19.100721	150.4	37.0	-92.4	11.4
2025-01-10 18:52:21.402792	150.4	37.5	-93.0	12.6
2025-01-10 18:52:23.705923	150.4	38.1	-92.8	14.1
2025-01-10 18:52:26.019600	150.3	38.6	-92.8	9.1
2025-01-10 18:52:28.335976	150.3	39.2	-92.7	11.1
2025-01-10 18:52:30.653142	150.3	39.8	-93.3	11.4
2025-01-10 18:52:32.964298	150.3	40.4	-93.3	15.1
2025-01-10 18:52:35.273739	150.2	41.0	-92.6	16.2
2025-01-10 18:52:37.588153	150.2	41.6	-92.9	13.4
2025-01-10 18:52:39.907024	150.2	42.2	-93.1	14.4
2025-01-10 18:52:42.219102	150.1	42.8	-92.2	17.8
2025-01-10 18:52:44.519966	150.1	43.5	-92.9	11.9
2025-01-10 18:52:46.818382	150.1	44.1	-93.5	16.4
2025-01-10 18:52:49.131163	150.0	44.8	-92.1	9.9
2025-01-10 18:52:51.443394	150.0	45.5	-92.8	17.0
2025-01-10 18:52:53.747866	150.0	46.2	-93.2	17.3
2025-01-10 18:52:56.055968	149.9	46.9	-93.0	9.8
2025-01-10 18:52:58.361452	149.9	47.6	-92.4	12.6
2025-01-10 18:53:00.647424	149.8	48.3	-92.9	1.8
2025-01-10 18:53:02.948766	149.8	49.0	-92.8	11.2
2025-01-10 18:53:05.253959	149.7	49.7	-92.4	10.4
2025-01-10 18:53:07.561092	149.6	50.5	-92.5	5.0
2025-01-10 18:53:09.868044	149.6	51.3	-92.7	11.2
2025-01-10 18:53:12.173998	149.5	52.1	-92.4	14.6
2025-01-10 18:53:14.473396	149.4	52.8	-92.7	15.8
2025-01-10 18:53:16.775430	149.4	53.6	-92.8	15.3
2025-01-10 18:53:19.074800	149.3	54.5	-92.0	8.1
2025-01-10 18:53:21.391690	149.2	55.3	-92.1	9.1
2025-01-10 18:53:23.691771	149.1	56.1	-93.2	19.0
2025-01-10 18:53:26.001473	149.0	57.0	-92.6	16.2
2025-01-10 18:53:28.311238	148.9	57.9	-92.1	16.2
2025-01-10 18:53:30.625588	148.8	58.8	-92.8	8.3
2025-01-10 18:53:32.925568	148.7	59.7	-92.8	9.6
2025-01-10 18:53:35.232027	148.6	60.6	-92.4	18.5
2025-01-10 18:53:37.548279	148.4	61.5	-92.4	20.8
2025-01-10 18:53:39.853084	148.3	62.4	-92.2	19.0
2025-01-10 18:53:42.165754	148.1	63.4	-92.3	16.6
2025-01-10 18:53:44.467181	147.9	64.3	-92.0	12.6
2025-01-10 18:53:46.769966	147.7	65.3	-92.5	16.8
2025-01-10 18:53:49.083254	147.5	66.3	-92.2	19.6
2025-01-10 18:53:51.385896	147.3	67.3	-92.6	19.2
2025-01-10 18:53:53.692940	147.0	68.3	-92.5	15.4
2025-01-10 18:53:56.000886	146.8	69.3	-92.7	12.6
2025-01-10 18:53:58.313073	146.4	70.3	-92.3	14.8
2025-01-10 18:54:00.623142	146.1	71.4	-92.3	12.6
2025-01-10 18:54:02.925237	145.7	72.4	-92.8	13.7
2025-01-10 18:54:05.239355	145.2	73.5	-92.3	22.7
2025-01-10 18:54:07.549314	144.7	74.6	-93.0	15.8
2025-01-10 18:54:09.865341	144.1	75.6	-91.8	21.1
2025-01-10 18:54:12.164137	143.4	76.7	-92.1	21.1
2025-01-10 18:54:14.468669	142.5	77.8	-93.0	15.9
2025-01-10 18:54:16.772013	141.5	78.9	-92.3	23.4
2025-01-10 18:54:19.091913	140.2	80.0	-92.9	13.8
2025-01-10 18:54:21.408741	138.7	81.1	-92.3	18.7
2025-01-10 18:54:23.719381	136.6	82.2	-92.4	23.3
2025-01-10 18:54:26.027574	134.0	83.3	-92.3	22.1
2025-01-10 18:54:28.335810	130.3	84.3	-92.3	25.6
2025-01-10 18:54:30.645785	124.8	85.4	-92.7	22.5
2025-01-10 18:54:32.965172	116.4	86.3	-92.9	22.9
2025-01-10 18:54:35.274840	102.4	87.2	-92.0	22.1
2025-01-10 18:54:37.593978	79.3	87.7	-92.7	19.1
2025-01-10 18:54:39.896914	49.8	87.8	-92.8	17.4
2025-01-10 18:54:42.202865	25.5	87.3	-91.8	23.6
2025-01-10 18:54:44.507311	10.6	86.5	-92.5	14.8
2025-01-10 18:54:46.813270	1.6	85.5	-91.5	22.3
2025-01-10 18:54:49.131992	355.8	84.5	-92.2	15.0
2025-01-10 18:54:51.447467	351.9	83.4	-92.8	15.0
2025-01-10 18:54:53.757697	349.1	82.3	-92.7	25.3
2025-01-10 18:54:56.069781	347.0	81.2	-91.7	14.7
2025-01-10 18:54:58.369994	345.4	80.1	-92.2	20.5
2025-01-10 18:55:00.674043	344.1	79.1	-91.8	21.1
2025-01-10 18:55:02.984407	343.1	78.0	-91.5	14.5
2025-01-10 18:55:05.287367	342.2	76.9	-91.9	22.9
2025-01-10 18:55:07.589448	341.5	75.8	-92.1	15.2
2025-01-10 18:55:09.904215	340.8	74.7	-92.2	15.4
2025-01-10 18:55:12.220672	340.3	73.6	-91.5	14.2
2025-01-10 18:55:14.533344	339.8	72.6	-93.0	9.6
2025-01-10 18:55:16.846431	339.4	71.5	-92.8	16.6
2025-01-10 18:55:19.152337	339.1	70.5	-91.8	13.8
2025-01-10 18:55:21.458579	338.7	69.5	-91.8	11.1
2025-01-10 18:55:23.764909	338.4	68.4	-91.5	14.8
2025-01-10 18:55:26.079048	338.2	67.4	-90.8	11.4
2025-01-10 18:55:28.394228	337.9	66.4	-91.5	13.2
2025-01-10 18:55:30.703265	337.7	65.4	-91.8	22.2
2025-01-10 18:55:33.012614	337.5	64.5	-92.2	13.9
2025-01-10 18:55:35.317599	337.4	63.5	-91.8	20.8
2025-01-10 18:55:37.623334	337.2	62.6	-92.8	16.6
2025-01-10 18:55:39.933024	337.0	61.6	-93.3	15.2
2025-01-10 18:55:42.237381	336.9	60.7	-92.5	24.1
2025-01-10 18:55:44.545454	336.8	59.8	-92.7	20.1
2025-01-10 18:55:46.857411	336.7	58.9	-93.0	24.5
2025-01-10 18:55:49.161602	336.5	58.0	-91.9	22.5
2025-01-10 18:55:51.474165	336.4	57.1	-92.8	20.7
2025-01-10 18:55:53.791707	336.3	56.3	-92.5	20.0
2025-01-10 18:55:56.100391	336.2	55.4	-92.4	15.7
2025-01-10 18:55:58.416333	336.2	54.6	-92.6	15.2
2025-01-10 18:56:00.716000	336.1	53.8	-92.6	16.2
2025-01-10 18:56:03.015678	336.0	52.9	-93.2	6.3
2025-01-10 18:56:05.325848	335.9	52.2	-92.5	12.7
2025-01-10 18:56:07.646029	335.9	51.4	-91.3	6.2
2025-01-10 18:56:09.953700	335.8	50.6	-92.8	5.2
2025-01-10 18:56:12.261674	335.8	49.8	-92.2	7.9
2025-01-10 18:56:14.581885	335.7	49.1	-92.7	10.9
2025-01-10 18:56:16.896473	335.6	48.4	-93.0	12.5
2025-01-10 18:56:19.207185	335.6	47.6	-92.7	17.5
2025-01-10 18:56:21.508334	335.5	46.9	-93.2	18.7
2025-01-10 18:56:23.798688	335.5	46.2	-93.2	18.6
2025-01-10 18:56:26.110782	335.5	45.5	-92.5	9.2
2025-01-10 18:56:28.411826	335.4	44.9	-92.3	6.6
2025-01-10 18:56:30.716612	335.4	44.2	-93.2	23.4
2025-01-10 18:56:33.020326	335.3	43.6	-92.6	15.3
2025-01-10 18:56:35.335396	335.3	42.9	-92.4	22.6
2025-01-10 18:56:37.639537	335.3	42.3	-93.1	20.6
2025-01-10 18:56:39.946856	335.3	41.7	-92.7	20.4
2025-01-10 18:56:42.250098	335.2	41.1	-92.2	16.2
2025-01-10 18:56:44.546847	335.2	40.5	-92.9	10.5
2025-01-10 18:56:46.855812	335.2	39.9	-92.5	19.0
2025-01-10 18:56:49.157361	335.1	39.3	-91.1	9.0
2025-01-10 18:56:51.464321	335.1	38.7	-92.8	12.4
2025-01-10 18:56:53.765704	335.1	38.2	-92.3	17.3
2025-01-10 18:56:56.078368	335.1	37.6	-92.6	15.7
2025-01-10 18:56:58.380915	335.1	37.1	-92.7	15.6
2025-01-10 18:57:00.671106	335.0	36.5	-93.0	11.4
2025-01-10 18:57:02.974928	335.0	36.0	-92.7	8.3
2025-01-10 18:57:05.289548	335.0	35.5	-92.0	14.4
2025-01-10 18:57:07.600380	335.0	35.0	-92.3	11.7
2025-01-10 18:57:09.908116	335.0	34.5	-92.9	17.0
2025-01-10 18:57:12.206667	334.9	34.0	-92.0	12.7
2025-01-10 18:57:14.515434	334.9	33.5	-92.7	13.3
2025-01-10 18:57:16.825262	334.9	33.0	-92.8	14.8
2025-01-10 18:57:19.139052	334.9	32.5	-92.7	10.0
2025-01-10 18:57:21.449123	334.9	32.1	-93.2	7.4
2025-01-10 18:57:23.763910	334.9	31.6	-92.9	12.5
2025-01-10 18:57:26.080657	334.9	31.2	-92.5	9.3
2025-01-10 18:57:28.393720	334.9	30.7	-92.2	15.4
2025-01-10 18:57:30.695001	334.8	30.3	-93.0	13.2
2025-01-10 18:57:33.003524	334.8	29.8	-92.6	11.9
2025-01-10 18:57:35.302948	334.8	29.4	-92.0	13.2
2025-01-10 18:57:37.615310	334.8	29.0	-92.9	8.8
2025-01-10 18:57:39.915225	334.8	28.6	-92.8	10.3
2025-01-10 18:57:42.227622	334.8	28.2	-92.2	10.5
2025-01-10 18:57:44.527322	334.8	27.8	-92.6	9.0
2025-01-10 18:57:46.841085	334.8	27.4	-92.6	8.5
2025-01-10 18:57:49.142315	334.8	27.0	-92.4	6.4
2025-01-10 18:57:51.449741	334.8	26.6	-92.9	6.3
2025-01-10 18:57:53.763348	334.8	26.2	-93.3	9.9
2025-01-10 18:57:56.078363	334.8	25.9	-92.6	8.1
2025-01-10 18:57:58.393230	334.7	25.5	-92.3	9.4
2025-01-10 18:58:00.696169	334.7	25.1	-93.0	13.2
2025-01-10 18:58:03.016424	334.7	24.8	-92.8	9.7
2025-01-10 18:58:05.318309	334.7	24.4	-93.1	14.5
2025-01-10 18:58:07.622465	334.7	24.1	-93.1	5.5
2025-01-10 18:58:09.936721	334.7	23.7	-92.9	6.8
2025-01-10 18:58:12.240442	334.7	23.4	-92.4	9.5
2025-01-10 18:58:14.535954	334.7	23.1	-92.8	10.3
2025-01-10 18:58:16.847943	334.7	22.7	-92.9	12.5
2025-01-10 18:58:19.166906	334.7	22.4	-92.3	10.6
2025-01-10 18:58:21.482037	334.7	22.1	-92.5	4.9
2025-01-10 18:58:23.779345	334.7	21.8	-93.1	9.7
2025-01-10 18:58:26.090423	334.7	21.4	-92.0	9.5
2025-01-10 18:58:28.408358	334.7	21.1	-92.8	10.6
2025-01-10 18:58:30.721549	334.7	20.8	-93.0	8.9
2025-01-10 18:58:33.029194	334.7	20.5	-92.7	7.3
2025-01-10 18:58:35.327797	334.7	20.2	-92.6	7.3
2025-01-10 18:58:37.622380	334.7	19.9	-93.1	7.9
2025-01-10 18:58:39.862613	334.7	19.6	-92.4	4.4
2025-01-10 18:58:42.105824	334.7	19.4	-92.5	4.4
2025-01-10 18:58:44.348723	334.7	19.1	-92.4	2.6
2025-01-10 18:58:46.628902	334.7	18.8	-91.8	5.3
2025-01-10 18:58:48.937438	334.7	18.5	-91.5	4.6
2025-01-10 18:58:51.238446	334.7	18.2	-92.2	5.6
2025-01-10 18:58:53.541788	334.7	18.0	-92.8	7.1
2025-01-10 18:58:55.845456	334.7	17.7	-92.7	8.2
2025-01-10 18:58:58.166091	334.7	17.4	-92.4	4.2
2025-01-10 18:59:00.462843	334.7	17.2	-93.0	5.3
2025-01-10 18:59:02.773403	334.7	16.9	-93.4	6.3
2025-01-10 18:59:05.086136	334.7	16.6	-92.7	4.9
2025-01-10 18:59:07.409291	334.7	16.4	-93.1	5.8
2025-01-10 18:59:09.722273	334.7	16.1	-93.1	4.3
2025-01-10 18:59:12.027695	334.7	15.9	-92.7	4.8
2025-01-10 18:59:14.329488	334.7	15.6	-92.9	5.0
2025-01-10 18:59:16.641892	334.7	15.4	-93.1	5.4
2025-01-10 18:59:18.949098	334.7	15.1	-92.7	4.3
2025-01-10 18:59:21.256565	334.7	14.9	-92.2	5.4
2025-01-10 18:59:23.566624	334.7	14.6	-91.7	4.6
#Closed at: 2025-01-10 18:50:02.632120