passes_logs/2025/01/10/LEX_Murmansk/LEX_Murmansk__20250110_203152_NOAA_18_rec.log

#Pass ID: 20250110_203152_NOAA 18
#Satellite: NOAA 18
#Configuration: NOAA 18
#Start time: 2025-01-10 20:31:47.898754

#LorettStation: 1.0.0 05.05.2024
#Station: LEX_Murmansk
#Location: 33.156738 lon 68.926811 lat
#TLE: 1 28654U 05018A   25009.85378120  .00000357  00000+0  21312-3 0  9995
#TLE: 2 28654  98.8576  90.9590 0014108 193.6372 166.4421 14.13482291 12379

#Time	Az	El	Level	SNR
2025-01-10 20:32:00.161045	206.5	16.1	-91.9	4.0
2025-01-10 20:32:01.304363	206.6	16.2	-91.9	5.4
2025-01-10 20:32:02.457990	206.7	16.3	-91.6	3.7
2025-01-10 20:32:03.603341	206.9	16.4	-92.3	6.0
2025-01-10 20:32:04.751578	207.0	16.5	-92.0	6.1
2025-01-10 20:32:05.895765	207.2	16.6	-92.1	6.6
2025-01-10 20:32:07.044168	207.3	16.7	-92.1	4.7
2025-01-10 20:32:08.190392	207.4	16.9	-92.2	6.9
2025-01-10 20:32:09.339199	207.6	17.0	-92.0	4.4
2025-01-10 20:32:10.495324	207.7	17.1	-92.4	5.9
2025-01-10 20:32:11.639611	207.9	17.2	-92.1	3.8
2025-01-10 20:32:12.792963	208.0	17.3	-92.6	4.1
2025-01-10 20:32:13.939763	208.2	17.4	-92.7	4.0
2025-01-10 20:32:15.093412	208.3	17.5	-91.9	4.8
2025-01-10 20:32:16.254489	208.5	17.6	-92.2	3.3
2025-01-10 20:32:17.403722	208.6	17.7	-92.4	4.3
2025-01-10 20:32:18.552906	208.7	17.8	-92.8	3.3
2025-01-10 20:32:19.697104	208.9	18.0	-92.4	5.3
2025-01-10 20:32:20.847806	209.1	18.1	-92.7	1.9
2025-01-10 20:32:21.994196	209.2	18.2	-92.8	3.9
2025-01-10 20:32:23.143507	209.4	18.3	-92.1	2.7
2025-01-10 20:32:24.296302	209.5	18.4	-92.3	4.6
2025-01-10 20:32:25.445069	209.7	18.5	-92.4	3.9
2025-01-10 20:32:26.605444	209.8	18.6	-92.2	4.6
2025-01-10 20:32:27.755644	210.0	18.7	-92.7	7.6
2025-01-10 20:32:28.901681	210.1	18.8	-92.5	5.8
2025-01-10 20:32:30.047827	210.3	19.0	-91.9	4.7
2025-01-10 20:32:31.198313	210.5	19.1	-91.8	6.3
2025-01-10 20:32:32.344987	210.6	19.2	-92.2	5.3
2025-01-10 20:32:33.492768	210.8	19.3	-92.1	6.2
2025-01-10 20:32:34.642030	211.0	19.4	-92.2	7.4
2025-01-10 20:32:35.789940	211.1	19.5	-92.4	8.4
2025-01-10 20:32:36.935637	211.3	19.6	-92.3	7.0
2025-01-10 20:32:38.083922	211.5	19.8	-92.2	4.3
2025-01-10 20:32:39.235387	211.6	19.9	-92.3	7.3
2025-01-10 20:32:40.385555	211.8	20.0	-92.3	8.2
2025-01-10 20:32:41.536356	212.0	20.1	-92.6	6.5
2025-01-10 20:32:42.687747	212.2	20.2	-92.4	9.2
2025-01-10 20:32:43.833678	212.3	20.3	-92.7	10.6
2025-01-10 20:32:44.986332	212.5	20.5	-93.0	9.4
2025-01-10 20:32:46.138421	212.7	20.6	-92.4	9.3
2025-01-10 20:32:47.286708	212.9	20.7	-92.2	10.3
2025-01-10 20:32:48.436918	213.0	20.8	-92.0	7.8
2025-01-10 20:32:49.584632	213.2	20.9	-92.4	8.5
2025-01-10 20:32:50.729903	213.4	21.1	-92.4	10.8
2025-01-10 20:32:51.877182	213.6	21.2	-92.2	12.6
2025-01-10 20:32:53.025140	213.8	21.3	-92.6	10.7
2025-01-10 20:32:54.173950	214.0	21.4	-92.0	8.8
2025-01-10 20:32:55.322596	214.1	21.5	-92.2	11.7
2025-01-10 20:32:56.468095	214.3	21.6	-92.5	6.0
2025-01-10 20:32:57.616749	214.5	21.8	-92.3	6.2
2025-01-10 20:32:58.764871	214.7	21.9	-92.0	12.9
2025-01-10 20:32:59.913796	214.9	22.0	-92.1	8.6
2025-01-10 20:33:01.052275	215.1	22.1	-92.2	7.9
2025-01-10 20:33:02.199757	215.3	22.2	-91.9	13.3
2025-01-10 20:33:03.346501	215.5	22.4	-92.4	11.8
2025-01-10 20:33:04.494846	215.7	22.5	-92.3	14.9
2025-01-10 20:33:05.645155	215.9	22.6	-92.1	13.2
2025-01-10 20:33:06.792782	216.1	22.7	-92.5	15.8
2025-01-10 20:33:07.940625	216.3	22.9	-92.6	9.2
2025-01-10 20:33:09.097624	216.5	23.0	-92.0	10.4
2025-01-10 20:33:10.250654	216.7	23.1	-92.0	14.2
2025-01-10 20:33:11.399116	216.9	23.2	-92.5	12.8
2025-01-10 20:33:12.546780	217.2	23.3	-92.1	14.0
2025-01-10 20:33:13.695628	217.4	23.5	-92.5	14.0
2025-01-10 20:33:14.840561	217.6	23.6	-92.5	14.0
2025-01-10 20:33:15.988357	217.8	23.7	-92.3	8.1
2025-01-10 20:33:17.137555	218.0	23.8	-92.4	7.7
2025-01-10 20:33:18.282881	218.2	24.0	-92.6	13.6
2025-01-10 20:33:19.431370	218.4	24.1	-92.3	8.6
2025-01-10 20:33:20.583643	218.7	24.2	-92.7	7.6
2025-01-10 20:33:21.735009	218.9	24.3	-93.2	12.4
2025-01-10 20:33:22.882276	219.1	24.5	-92.4	11.3
2025-01-10 20:33:24.027127	219.3	24.6	-92.8	11.5
2025-01-10 20:33:25.174710	219.6	24.7	-92.3	13.7
2025-01-10 20:33:26.326063	219.8	24.8	-92.2	10.2
2025-01-10 20:33:27.474562	220.0	25.0	-92.3	8.0
2025-01-10 20:33:28.625735	220.3	25.1	-92.2	7.5
2025-01-10 20:33:29.778472	220.5	25.2	-92.6	9.1
2025-01-10 20:33:30.930125	220.8	25.3	-92.6	5.4
2025-01-10 20:33:32.077712	221.0	25.5	-92.5	6.7
2025-01-10 20:33:33.235304	221.2	25.6	-92.1	9.5
2025-01-10 20:33:34.388431	221.5	25.7	-92.3	9.9
2025-01-10 20:33:35.534018	221.7	25.8	-92.4	6.9
2025-01-10 20:33:36.678136	222.0	26.0	-92.3	8.9
2025-01-10 20:33:37.823675	222.2	26.1	-92.6	9.7
2025-01-10 20:33:38.969116	222.5	26.2	-92.7	4.0
2025-01-10 20:33:40.115486	222.7	26.3	-92.3	2.3
2025-01-10 20:33:41.262587	223.0	26.5	-92.3	5.6
2025-01-10 20:33:42.410368	223.2	26.6	-92.5	3.6
2025-01-10 20:33:43.557545	223.5	26.7	-92.7	6.7
2025-01-10 20:33:44.705656	223.8	26.8	-92.6	6.4
2025-01-10 20:33:45.852260	224.0	27.0	-92.8	9.3
2025-01-10 20:33:46.996962	224.3	27.1	-92.5	8.3
2025-01-10 20:33:48.147072	224.6	27.2	-92.3	4.4
2025-01-10 20:33:49.290366	224.8	27.3	-92.6	7.7
2025-01-10 20:33:50.438399	225.1	27.4	-92.5	6.5
2025-01-10 20:33:51.588278	225.4	27.6	-92.8	4.4
2025-01-10 20:33:52.737168	225.6	27.7	-92.4	6.8
2025-01-10 20:33:53.886361	225.9	27.8	-92.7	4.3
2025-01-10 20:33:55.037986	226.2	27.9	-92.8	6.5
2025-01-10 20:33:56.187291	226.5	28.1	-92.1	4.8
2025-01-10 20:33:57.332884	226.8	28.2	-92.2	7.4
2025-01-10 20:33:58.495219	227.1	28.3	-92.4	5.9
2025-01-10 20:33:59.643964	227.3	28.4	-92.7	7.1
2025-01-10 20:34:00.784239	227.6	28.6	-92.6	9.2
2025-01-10 20:34:01.932601	227.9	28.7	-92.4	5.8
2025-01-10 20:34:03.077055	228.2	28.8	-92.1	5.9
2025-01-10 20:34:04.224805	228.5	28.9	-92.3	5.4
2025-01-10 20:34:05.371895	228.8	29.0	-92.7	4.1
2025-01-10 20:34:06.520069	229.1	29.2	-92.9	5.6
2025-01-10 20:34:07.666973	229.4	29.3	-93.1	11.3
2025-01-10 20:34:08.816707	229.7	29.4	-92.3	12.2
2025-01-10 20:34:09.964966	230.0	29.5	-93.0	14.8
2025-01-10 20:34:11.113653	230.3	29.7	-92.9	15.2
2025-01-10 20:34:12.263892	230.6	29.8	-92.1	14.1
2025-01-10 20:34:13.421049	231.0	29.9	-91.9	12.3
2025-01-10 20:34:14.570153	231.3	30.0	-93.2	11.1
2025-01-10 20:34:16.087535	231.7	30.2	-92.3	8.5
2025-01-10 20:34:17.229758	232.0	30.3	-92.6	9.5
2025-01-10 20:34:18.373760	232.3	30.4	-92.1	10.4
2025-01-10 20:34:19.513566	232.7	30.5	-92.7	12.5
2025-01-10 20:34:20.654158	233.0	30.6	-92.8	13.2
2025-01-10 20:34:21.801725	233.3	30.7	-92.5	10.2
2025-01-10 20:34:22.950332	233.7	30.9	-92.4	10.9
2025-01-10 20:34:24.112417	234.0	31.0	-92.1	13.0
2025-01-10 20:34:25.264539	234.3	31.1	-92.5	16.8
2025-01-10 20:34:26.407888	234.7	31.2	-93.0	12.4
2025-01-10 20:34:27.553812	235.0	31.3	-92.5	8.0
2025-01-10 20:34:28.698244	235.4	31.4	-92.7	13.8
2025-01-10 20:34:29.846572	235.7	31.5	-92.7	14.8
2025-01-10 20:34:31.000178	236.1	31.6	-91.9	8.2
2025-01-10 20:34:32.150821	236.4	31.8	-92.2	9.7
2025-01-10 20:34:33.293479	236.8	31.9	-92.4	13.0
2025-01-10 20:34:34.445513	237.1	32.0	-92.4	14.7
2025-01-10 20:34:35.592962	237.5	32.1	-92.2	16.4
2025-01-10 20:34:36.745909	237.8	32.2	-92.5	15.3
2025-01-10 20:34:37.890965	238.2	32.3	-93.0	13.4
2025-01-10 20:34:39.036052	238.6	32.4	-92.9	13.1
2025-01-10 20:34:40.184693	238.9	32.5	-92.4	13.0
2025-01-10 20:34:41.330204	239.3	32.6	-92.8	16.4
2025-01-10 20:34:42.481189	239.7	32.7	-93.2	13.1
2025-01-10 20:34:43.633148	240.1	32.8	-92.3	11.9
2025-01-10 20:34:44.782769	240.4	32.9	-93.0	15.4
2025-01-10 20:34:45.929953	240.8	33.0	-92.7	11.4
2025-01-10 20:34:47.082154	241.2	33.1	-92.8	13.8
2025-01-10 20:34:48.236294	241.6	33.2	-92.1	16.8
2025-01-10 20:34:49.381675	242.0	33.3	-92.9	14.8
2025-01-10 20:34:50.532155	242.4	33.4	-92.8	17.1
2025-01-10 20:34:51.679213	242.8	33.5	-92.9	13.7
2025-01-10 20:34:52.827560	243.1	33.6	-92.8	13.9
2025-01-10 20:34:53.968418	243.5	33.7	-93.0	12.8
2025-01-10 20:34:55.103869	243.9	33.7	-92.7	12.9
2025-01-10 20:34:56.224094	244.3	33.8	-92.3	13.8
2025-01-10 20:34:57.345480	244.7	33.9	-92.7	13.3
2025-01-10 20:34:58.466555	245.1	34.0	-92.9	8.4
2025-01-10 20:34:59.587047	245.5	34.1	-92.8	6.0
2025-01-10 20:35:00.706885	245.9	34.2	-92.5	12.6
2025-01-10 20:35:01.827732	246.3	34.2	-92.2	12.5
2025-01-10 20:35:02.948593	246.7	34.3	-92.4	7.2
2025-01-10 20:35:04.069098	247.1	34.4	-92.3	11.0
2025-01-10 20:35:05.209486	247.5	34.5	-92.0	14.5
2025-01-10 20:35:06.359290	247.9	34.5	-92.1	18.2
2025-01-10 20:35:07.501127	248.3	34.6	-92.3	16.5
2025-01-10 20:35:08.647985	248.8	34.7	-92.4	15.5
2025-01-10 20:35:09.794476	249.2	34.8	-92.2	16.2
2025-01-10 20:35:10.950173	249.6	34.8	-92.4	13.7
2025-01-10 20:35:12.097164	250.0	34.9	-92.1	16.9
2025-01-10 20:35:13.245397	250.5	35.0	-92.0	16.8
2025-01-10 20:35:14.402460	250.9	35.0	-92.7	12.3
2025-01-10 20:35:15.548615	251.3	35.1	-89.3	9.2
2025-01-10 20:35:16.695918	251.8	35.2	-92.5	17.9
2025-01-10 20:35:17.846468	252.2	35.2	-92.7	15.3
2025-01-10 20:35:18.996824	252.6	35.3	-92.5	12.2
2025-01-10 20:35:20.143759	253.1	35.3	-92.0	10.7
2025-01-10 20:35:21.295223	253.5	35.4	-92.2	18.1
2025-01-10 20:35:22.444228	254.0	35.4	-92.8	9.5
2025-01-10 20:35:23.591516	254.4	35.5	-92.0	9.9
2025-01-10 20:35:24.742562	254.8	35.5	-92.5	13.0
2025-01-10 20:35:25.894707	255.3	35.6	-92.6	12.2
2025-01-10 20:35:27.048241	255.7	35.6	-92.6	10.3
2025-01-10 20:35:28.196083	256.2	35.7	-92.2	12.3
2025-01-10 20:35:29.345526	256.6	35.7	-91.7	9.0
2025-01-10 20:35:30.492406	257.1	35.8	-92.3	14.7
2025-01-10 20:35:31.639899	257.5	35.8	-92.5	16.2
2025-01-10 20:35:32.790322	258.0	35.8	-92.6	15.6
2025-01-10 20:35:33.938064	258.4	35.9	-92.6	12.5
2025-01-10 20:35:35.087912	258.9	35.9	-92.4	12.3
2025-01-10 20:35:36.235479	259.3	35.9	-92.7	11.1
2025-01-10 20:35:37.390266	259.8	36.0	-92.7	8.7
2025-01-10 20:35:38.542603	260.2	36.0	-92.7	5.4
2025-01-10 20:35:39.687521	260.7	36.0	-93.1	9.4
2025-01-10 20:35:40.834548	261.2	36.0	-92.4	8.5
2025-01-10 20:35:41.986159	261.6	36.1	-92.3	4.5
2025-01-10 20:35:43.132742	262.1	36.1	-92.7	5.9
2025-01-10 20:35:44.282936	262.5	36.1	-92.6	12.7
2025-01-10 20:35:45.429959	263.0	36.1	-93.0	6.5
2025-01-10 20:35:46.580281	263.4	36.1	-92.5	8.9
2025-01-10 20:35:47.730013	263.9	36.1	-92.2	15.8
2025-01-10 20:35:48.879922	264.4	36.1	-93.0	13.2
2025-01-10 20:35:50.026736	264.8	36.1	-92.9	9.3
2025-01-10 20:35:51.180309	265.3	36.1	-92.4	13.4
2025-01-10 20:35:52.327102	265.7	36.1	-92.5	13.5
2025-01-10 20:35:53.482501	266.2	36.1	-92.4	9.8
2025-01-10 20:35:54.631006	266.7	36.1	-92.0	9.7
2025-01-10 20:35:55.780637	267.1	36.1	-92.7	17.7
2025-01-10 20:35:56.923491	267.6	36.1	-92.8	15.2
2025-01-10 20:35:58.067176	268.0	36.1	-92.4	11.7
2025-01-10 20:35:59.232026	268.5	36.1	-90.5	10.7
2025-01-10 20:36:00.375147	269.0	36.1	-90.5	10.5
2025-01-10 20:36:01.518414	269.4	36.1	-92.2	11.7
2025-01-10 20:36:02.671603	269.9	36.1	-91.1	15.5
2025-01-10 20:36:03.817243	270.3	36.1	-92.7	14.9
2025-01-10 20:36:04.965699	270.8	36.0	-92.5	14.0
2025-01-10 20:36:06.119535	271.3	36.0	-92.4	10.4
2025-01-10 20:36:07.270308	271.7	36.0	-92.5	13.3
2025-01-10 20:36:08.413520	272.2	36.0	-92.4	12.8
2025-01-10 20:36:09.563385	272.6	35.9	-92.6	17.9
2025-01-10 20:36:10.713780	273.1	35.9	-92.9	21.8
2025-01-10 20:36:11.869332	273.5	35.9	-92.8	15.7
2025-01-10 20:36:13.016963	274.0	35.8	-92.5	10.6
2025-01-10 20:36:14.172781	274.4	35.8	-92.2	15.0
2025-01-10 20:36:15.325751	274.9	35.8	-92.7	13.3
2025-01-10 20:36:16.474965	275.3	35.7	-92.6	14.7
2025-01-10 20:36:17.619926	275.8	35.7	-92.8	13.9
2025-01-10 20:36:18.773076	276.2	35.6	-92.6	11.8
2025-01-10 20:36:19.925561	276.7	35.6	-92.8	14.5
2025-01-10 20:36:21.074414	277.1	35.6	-92.5	18.7
2025-01-10 20:36:22.222223	277.6	35.5	-92.4	17.6
2025-01-10 20:36:23.378576	278.0	35.5	-92.2	14.1
2025-01-10 20:36:24.529419	278.5	35.4	-92.3	11.8
2025-01-10 20:36:25.690471	278.9	35.4	-92.2	16.1
2025-01-10 20:36:26.837482	279.3	35.3	-92.8	17.7
2025-01-10 20:36:27.988533	279.8	35.2	-92.6	12.2
2025-01-10 20:36:29.131138	280.2	35.2	-91.6	12.3
2025-01-10 20:36:30.279448	280.6	35.1	-92.2	14.1
2025-01-10 20:36:31.446791	281.1	35.1	-91.4	13.0
2025-01-10 20:36:32.597680	281.5	35.0	-91.5	7.8
2025-01-10 20:36:33.746237	281.9	34.9	-92.6	11.8
2025-01-10 20:36:34.897695	282.4	34.9	-92.6	14.2
2025-01-10 20:36:36.044743	282.8	34.8	-92.2	5.7
2025-01-10 20:36:37.191271	283.2	34.7	-92.2	13.4
2025-01-10 20:36:38.325218	283.6	34.6	-92.1	12.2
2025-01-10 20:36:39.476119	284.1	34.6	-92.7	7.3
2025-01-10 20:36:40.623826	284.5	34.5	-91.3	9.4
2025-01-10 20:36:41.776452	284.9	34.4	-92.8	12.7
2025-01-10 20:36:42.927696	285.3	34.3	-92.6	7.7
2025-01-10 20:36:44.070997	285.7	34.3	-92.6	9.2
2025-01-10 20:36:45.218851	286.1	34.2	-92.8	12.5
2025-01-10 20:36:46.370313	286.5	34.1	-92.7	10.3
2025-01-10 20:36:47.521917	286.9	34.0	-93.1	8.4
2025-01-10 20:36:48.667401	287.3	33.9	-92.4	9.5
2025-01-10 20:36:49.817809	287.7	33.8	-91.4	8.5
2025-01-10 20:36:50.976834	288.1	33.8	-92.4	6.5
2025-01-10 20:36:52.131862	288.5	33.7	-92.1	8.1
2025-01-10 20:36:53.282412	288.9	33.6	-92.0	11.3
2025-01-10 20:36:54.434955	289.3	33.5	-92.0	9.7
2025-01-10 20:36:55.586149	289.7	33.4	-90.9	7.0
2025-01-10 20:36:56.734163	290.1	33.3	-92.5	11.2
2025-01-10 20:36:57.882291	290.5	33.2	-92.3	11.0
2025-01-10 20:36:59.032968	290.9	33.1	-92.3	7.3
2025-01-10 20:37:00.175452	291.3	33.0	-92.2	10.7
2025-01-10 20:37:01.317093	291.6	32.9	-92.3	9.4
2025-01-10 20:37:02.474922	292.0	32.8	-92.4	9.3
2025-01-10 20:37:03.625090	292.4	32.7	-92.4	10.0
2025-01-10 20:37:04.772049	292.8	32.6	-93.0	11.4
2025-01-10 20:37:05.919260	293.1	32.5	-92.6	11.1
2025-01-10 20:37:07.068849	293.5	32.4	-92.5	13.3
2025-01-10 20:37:08.217519	293.9	32.3	-92.2	10.2
2025-01-10 20:37:09.361199	294.2	32.2	-92.3	15.1
2025-01-10 20:37:10.510327	294.6	32.1	-92.6	13.1
2025-01-10 20:37:11.667415	295.0	32.0	-92.4	10.0
2025-01-10 20:37:12.819355	295.3	31.9	-92.7	14.9
2025-01-10 20:37:13.963076	295.7	31.8	-92.6	13.9
2025-01-10 20:37:15.114143	296.0	31.7	-92.2	11.4
2025-01-10 20:37:16.273577	296.4	31.5	-92.5	18.1
2025-01-10 20:37:17.438817	296.7	31.4	-92.5	9.5
2025-01-10 20:37:18.591445	297.1	31.3	-92.8	9.4
2025-01-10 20:37:19.737291	297.4	31.2	-92.6	11.7
2025-01-10 20:37:20.889563	297.8	31.1	-92.8	10.0
2025-01-10 20:37:22.042666	298.1	31.0	-92.6	13.9
2025-01-10 20:37:23.194015	298.4	30.9	-92.4	11.8
2025-01-10 20:37:24.344514	298.8	30.8	-92.4	11.4
2025-01-10 20:37:25.494919	299.1	30.6	-92.6	11.9
2025-01-10 20:37:26.642606	299.4	30.5	-93.1	13.0
2025-01-10 20:37:27.791773	299.8	30.4	-92.8	11.7
2025-01-10 20:37:28.943625	300.1	30.3	-92.5	8.7
2025-01-10 20:37:30.094360	300.4	30.2	-92.6	8.5
2025-01-10 20:37:31.242419	300.7	30.1	-92.7	11.0
2025-01-10 20:37:32.389627	301.0	29.9	-92.9	14.7
2025-01-10 20:37:33.539616	301.4	29.8	-92.7	11.0
2025-01-10 20:37:34.685638	301.7	29.7	-93.1	10.5
2025-01-10 20:37:35.835638	302.0	29.6	-92.9	16.4
2025-01-10 20:37:36.986112	302.3	29.5	-92.6	9.7
2025-01-10 20:37:38.130873	302.6	29.3	-92.6	10.0
2025-01-10 20:37:39.279103	302.9	29.2	-92.6	13.3
2025-01-10 20:37:40.430519	303.2	29.1	-92.9	9.3
2025-01-10 20:37:41.578642	303.5	29.0	-92.4	5.0
2025-01-10 20:37:42.731303	303.8	28.9	-92.8	20.9
2025-01-10 20:37:43.879442	304.1	28.7	-93.0	19.6
2025-01-10 20:37:45.028255	304.4	28.6	-91.8	11.7
2025-01-10 20:37:46.169401	304.7	28.5	-92.2	12.0
2025-01-10 20:37:47.316419	305.0	28.4	-92.4	14.6
2025-01-10 20:37:48.466457	305.3	28.2	-92.6	11.5
2025-01-10 20:37:49.612620	305.5	28.1	-92.4	16.1
2025-01-10 20:37:50.764028	305.8	28.0	-93.0	19.3
2025-01-10 20:37:51.914216	306.1	27.9	-92.8	9.5
2025-01-10 20:37:53.061666	306.4	27.7	-92.2	10.9
2025-01-10 20:37:54.209828	306.7	27.6	-92.2	10.6
2025-01-10 20:37:55.355559	306.9	27.5	-92.8	19.5
2025-01-10 20:37:56.511544	307.2	27.4	-92.7	18.5
2025-01-10 20:37:57.656109	307.5	27.3	-92.3	17.1
2025-01-10 20:37:58.803180	307.7	27.1	-92.7	19.9
2025-01-10 20:37:59.953424	308.0	27.0	-93.1	14.9
2025-01-10 20:38:01.087231	308.3	26.9	-92.6	9.3
2025-01-10 20:38:02.228390	308.5	26.8	-92.6	15.1
2025-01-10 20:38:03.372693	308.8	26.6	-92.3	19.0
2025-01-10 20:38:04.520090	309.0	26.5	-92.5	5.9
2025-01-10 20:38:05.668548	309.3	26.4	-93.1	12.2
2025-01-10 20:38:06.812897	309.5	26.3	-92.6	6.9
2025-01-10 20:38:07.962887	309.8	26.1	-93.0	4.9
2025-01-10 20:38:09.111122	310.1	26.0	-92.7	9.5
2025-01-10 20:38:10.257214	310.3	25.9	-92.1	6.5
2025-01-10 20:38:11.405859	310.5	25.8	-92.2	8.2
2025-01-10 20:38:12.548580	310.8	25.6	-92.6	7.9
2025-01-10 20:38:13.700114	311.0	25.5	-91.8	10.3
2025-01-10 20:38:14.856247	311.3	25.4	-92.5	11.6
2025-01-10 20:38:16.007345	311.5	25.3	-92.8	9.0
2025-01-10 20:38:17.156118	311.8	25.1	-92.6	7.8
2025-01-10 20:38:18.304683	312.0	25.0	-92.4	16.7
2025-01-10 20:38:19.447273	312.2	24.9	-92.1	10.7
2025-01-10 20:38:20.600972	312.5	24.8	-92.5	9.3
2025-01-10 20:38:21.753845	312.7	24.6	-92.4	15.8
2025-01-10 20:38:22.899556	312.9	24.5	-93.0	18.8
2025-01-10 20:38:24.047264	313.1	24.4	-92.5	13.5
2025-01-10 20:38:25.197494	313.4	24.3	-92.6	12.5
2025-01-10 20:38:26.346459	313.6	24.1	-92.7	15.6
2025-01-10 20:38:27.486203	313.8	24.0	-92.7	9.6
2025-01-10 20:38:28.634147	314.0	23.9	-92.7	9.8
2025-01-10 20:38:29.780897	314.2	23.8	-93.3	7.5
2025-01-10 20:38:30.929227	314.5	23.6	-92.9	5.8
2025-01-10 20:38:32.077218	314.7	23.5	-92.6	6.5
2025-01-10 20:38:33.227082	314.9	23.4	-92.4	9.2
2025-01-10 20:38:34.370397	315.1	23.3	-92.8	12.0
2025-01-10 20:38:35.520214	315.3	23.2	-93.0	6.2
2025-01-10 20:38:36.666686	315.5	23.0	-92.8	4.0
2025-01-10 20:38:37.812761	315.7	22.9	-93.2	7.4
2025-01-10 20:38:38.965178	315.9	22.8	-92.9	7.5
2025-01-10 20:38:40.110589	316.1	22.7	-92.8	6.3
2025-01-10 20:38:41.255989	316.3	22.6	-92.6	3.4
2025-01-10 20:38:42.405822	316.5	22.4	-92.3	11.9
2025-01-10 20:38:43.551246	316.7	22.3	-93.0	10.6
2025-01-10 20:38:44.696651	316.9	22.2	-93.2	8.2
2025-01-10 20:38:45.839764	317.1	22.1	-92.7	3.1
2025-01-10 20:38:46.987041	317.3	21.9	-92.8	4.2
2025-01-10 20:38:48.137712	317.5	21.8	-92.6	5.9
2025-01-10 20:38:49.285643	317.7	21.7	-92.3	14.9
2025-01-10 20:38:50.434171	317.9	21.6	-92.5	5.1
2025-01-10 20:38:51.580919	318.1	21.5	-92.5	6.3
2025-01-10 20:38:52.726744	318.3	21.4	-92.6	12.0
2025-01-10 20:38:53.875328	318.5	21.2	-92.9	4.8
2025-01-10 20:38:55.027232	318.6	21.1	-92.8	3.8
2025-01-10 20:38:56.186385	318.8	21.0	-92.8	13.1
2025-01-10 20:38:57.334123	319.0	20.9	-92.5	6.3
2025-01-10 20:38:58.478971	319.2	20.8	-92.4	3.7
2025-01-10 20:38:59.627015	319.4	20.6	-93.0	8.4
2025-01-10 20:39:00.760316	319.6	20.5	-92.7	6.3
2025-01-10 20:39:01.908159	319.7	20.4	-92.8	9.1
2025-01-10 20:39:03.056319	319.9	20.3	-92.8	3.3
2025-01-10 20:39:04.208960	320.1	20.2	-92.8	7.6
2025-01-10 20:39:05.353646	320.3	20.1	-92.7	4.7
2025-01-10 20:39:06.501803	320.4	19.9	-93.1	7.3
2025-01-10 20:39:07.649704	320.6	19.8	-93.0	3.6
2025-01-10 20:39:08.796466	320.8	19.7	-92.6	9.2
2025-01-10 20:39:09.943124	320.9	19.6	-92.9	4.0
2025-01-10 20:39:11.093096	321.1	19.5	-92.7	4.8
2025-01-10 20:39:12.240721	321.3	19.4	-91.9	4.6
2025-01-10 20:39:13.389359	321.4	19.3	-92.7	5.0
2025-01-10 20:39:14.540109	321.6	19.1	-92.6	5.7
2025-01-10 20:39:15.689227	321.8	19.0	-92.8	9.4
2025-01-10 20:39:16.832428	321.9	18.9	-92.8	6.2
2025-01-10 20:39:17.990426	322.1	18.8	-91.8	6.6
2025-01-10 20:39:19.138766	322.2	18.7	-92.4	6.0
2025-01-10 20:39:20.287944	322.4	18.6	-92.0	6.4
2025-01-10 20:39:21.436593	322.6	18.5	-92.9	11.4
2025-01-10 20:39:22.583123	322.7	18.4	-93.0	6.5
2025-01-10 20:39:23.731673	322.9	18.2	-92.9	7.2
2025-01-10 20:39:24.885074	323.0	18.1	-93.1	8.7
2025-01-10 20:39:26.041682	323.2	18.0	-92.9	5.3
2025-01-10 20:39:27.197397	323.3	17.9	-92.3	4.9
2025-01-10 20:39:28.350702	323.5	17.8	-92.3	7.9
2025-01-10 20:39:29.498219	323.6	17.7	-92.7	4.2
2025-01-10 20:39:30.645750	323.8	17.6	-92.9	4.5
2025-01-10 20:39:31.792463	323.9	17.5	-92.8	2.6
2025-01-10 20:39:32.941215	324.1	17.4	-92.8	4.0
2025-01-10 20:39:34.088426	324.2	17.2	-92.7	6.0
2025-01-10 20:39:35.233283	324.4	17.1	-92.7	5.7
2025-01-10 20:39:36.387178	324.5	17.0	-92.3	2.4
2025-01-10 20:39:37.539036	324.6	16.9	-92.5	5.6
2025-01-10 20:39:38.686642	324.8	16.8	-92.7	2.7
2025-01-10 20:39:39.831242	324.9	16.7	-92.6	3.5
2025-01-10 20:39:40.978296	325.1	16.6	-93.0	4.6
2025-01-10 20:39:42.133798	325.2	16.5	-92.5	2.8
2025-01-10 20:39:43.277903	325.3	16.4	-93.1	5.9
2025-01-10 20:39:44.429346	325.5	16.3	-92.9	2.5
2025-01-10 20:39:45.587952	325.6	16.2	-93.0	3.5
2025-01-10 20:39:46.738173	325.7	16.1	-92.9	4.9
2025-01-10 20:39:47.888947	325.9	16.0	-92.8	5.8
2025-01-10 20:39:49.041768	326.0	15.9	-93.1	3.7
2025-01-10 20:39:50.188509	326.1	15.8	-92.3	3.9
2025-01-10 20:39:51.336890	326.3	15.7	-92.5	3.3
2025-01-10 20:39:52.491276	326.4	15.5	-93.0	4.8
2025-01-10 20:39:53.639249	326.5	15.4	-92.9	9.2
2025-01-10 20:39:54.786700	326.7	15.3	-92.6	5.0
2025-01-10 20:39:55.938662	326.8	15.2	-92.8	10.3
2025-01-10 20:39:57.081122	326.9	15.1	-92.5	5.5
2025-01-10 20:39:58.235432	327.1	15.0	-92.5	3.8
2025-01-10 20:39:59.378948	327.2	14.9	-92.4	7.3
2025-01-10 20:40:00.519860	327.3	14.8	-92.5	5.0
2025-01-10 20:40:01.668286	327.4	14.7	-93.1	3.6
2025-01-10 20:40:02.815815	327.5	14.6	-92.8	3.7
#Closed at: 2025-01-10 20:31:52.965025