passes_logs/2025/01/10/LEX_Murmansk/LEX_Murmansk__20250110_114527_NOAA_19_rec.log

#Pass ID: 20250110_114527_NOAA 19
#Satellite: NOAA 19
#Configuration: NOAA 19
#Start time: 2025-01-10 11:45:22.130834

#LorettStation: 1.0.0 05.05.2024
#Station: LEX_Murmansk
#Location: 33.156738 lon 68.926811 lat
#TLE: 1 33591U 09005A   25009.90667525  .00000313  00000+0  19132-3 0  9996
#TLE: 2 33591  99.0207  73.6295 0014600  71.1816 289.0938 14.13255869820561

#Time	Az	El	Level	SNR
2025-01-10 11:45:36.410657	26.0	16.2	-90.5	2.7
2025-01-10 11:45:37.568132	25.8	16.3	-90.2	1.8
2025-01-10 11:45:38.731176	25.7	16.4	-90.1	3.3
2025-01-10 11:45:39.897321	25.5	16.5	-89.1	3.3
2025-01-10 11:45:41.058239	25.3	16.6	-90.3	2.6
2025-01-10 11:45:42.224543	25.2	16.7	-89.9	3.6
2025-01-10 11:45:43.381287	25.0	16.8	-90.5	6.4
2025-01-10 11:45:44.541874	24.8	16.9	-90.7	4.3
2025-01-10 11:45:45.705708	24.7	17.0	-90.6	3.4
2025-01-10 11:45:46.868750	24.5	17.1	-90.5	2.1
2025-01-10 11:45:48.033922	24.3	17.2	-90.5	3.3
2025-01-10 11:45:49.194909	24.1	17.3	-90.3	1.5
2025-01-10 11:45:50.358300	24.0	17.4	-90.5	3.7
2025-01-10 11:45:51.521244	23.8	17.5	-90.5	4.2
2025-01-10 11:45:52.677301	23.6	17.6	-90.5	3.9
2025-01-10 11:45:53.837991	23.4	17.7	-90.6	3.3
2025-01-10 11:45:54.997865	23.2	17.8	-90.5	4.0
2025-01-10 11:45:56.151775	23.1	17.9	-90.2	3.2
2025-01-10 11:45:57.315731	22.9	18.0	-90.5	3.4
2025-01-10 11:45:58.479523	22.7	18.1	-90.5	2.9
2025-01-10 11:45:59.651284	22.5	18.2	-90.6	11.4
2025-01-10 11:46:00.795697	22.3	18.3	-89.7	4.3
2025-01-10 11:46:01.957880	22.1	18.4	-90.6	9.3
2025-01-10 11:46:03.119764	21.9	18.5	-90.3	9.0
2025-01-10 11:46:04.281988	21.7	18.6	-90.1	6.4
2025-01-10 11:46:05.446219	21.5	18.7	-90.1	4.5
2025-01-10 11:46:06.602916	21.4	18.8	-90.1	6.3
2025-01-10 11:46:07.770553	21.2	18.9	-90.7	4.7
2025-01-10 11:46:08.931830	21.0	19.0	-90.8	6.6
2025-01-10 11:46:10.096882	20.8	19.1	-90.6	8.4
2025-01-10 11:46:11.258343	20.6	19.2	-90.3	6.0
2025-01-10 11:46:12.419246	20.4	19.3	-90.5	7.6
2025-01-10 11:46:13.583973	20.2	19.4	-90.2	6.2
2025-01-10 11:46:14.749953	20.0	19.5	-90.8	3.8
2025-01-10 11:46:15.912531	19.8	19.6	-90.9	1.6
2025-01-10 11:46:17.080548	19.5	19.7	-90.6	2.8
2025-01-10 11:46:18.245939	19.3	19.8	-90.7	2.9
2025-01-10 11:46:19.406230	19.1	19.9	-91.0	1.6
2025-01-10 11:46:20.576995	18.9	20.0	-90.7	11.3
2025-01-10 11:46:21.756453	18.7	20.1	-91.1	6.7
2025-01-10 11:46:22.921606	18.5	20.2	-90.8	10.4
2025-01-10 11:46:24.084855	18.3	20.3	-90.4	3.8
2025-01-10 11:46:25.248891	18.1	20.4	-90.6	2.9
2025-01-10 11:46:26.403275	17.8	20.5	-91.0	3.4
2025-01-10 11:46:27.565594	17.6	20.6	-89.6	5.7
2025-01-10 11:46:28.729515	17.4	20.7	-90.2	1.3
2025-01-10 11:46:29.893605	17.2	20.8	-89.1	5.3
2025-01-10 11:46:31.062102	16.9	20.9	-89.4	5.6
2025-01-10 11:46:32.222684	16.7	21.0	-90.1	3.1
2025-01-10 11:46:33.386571	16.5	21.1	-90.0	5.9
2025-01-10 11:46:34.549463	16.3	21.2	-90.8	7.5
2025-01-10 11:46:35.711658	16.0	21.3	-91.0	4.0
2025-01-10 11:46:36.866791	15.8	21.4	-90.8	1.6
2025-01-10 11:46:38.028723	15.6	21.5	-90.5	2.7
2025-01-10 11:46:39.194678	15.3	21.6	-90.6	4.4
2025-01-10 11:46:40.358272	15.1	21.7	-90.6	1.7
2025-01-10 11:46:41.505910	14.9	21.8	-90.9	3.0
2025-01-10 11:46:42.666739	14.6	21.9	-90.7	2.5
2025-01-10 11:46:43.841344	14.4	22.0	-90.6	6.1
2025-01-10 11:46:44.999424	14.2	22.1	-90.3	10.1
2025-01-10 11:46:46.164235	13.9	22.2	-90.4	0.8
2025-01-10 11:46:47.330966	13.7	22.3	-89.2	7.1
2025-01-10 11:46:48.493465	13.4	22.4	-90.3	4.2
2025-01-10 11:46:49.649952	13.2	22.5	-88.1	5.4
2025-01-10 11:46:50.813020	12.9	22.6	-89.4	5.1
2025-01-10 11:46:51.975681	12.7	22.7	-86.7	3.2
2025-01-10 11:46:53.140381	12.4	22.8	-89.2	8.8
2025-01-10 11:46:54.299964	12.2	22.9	-89.1	11.3
2025-01-10 11:46:55.460437	11.9	23.0	-90.4	11.3
2025-01-10 11:46:56.621181	11.6	23.1	-88.2	7.5
2025-01-10 11:46:57.784014	11.4	23.2	-90.6	7.8
2025-01-10 11:46:58.943847	11.1	23.3	-90.8	6.0
2025-01-10 11:47:00.093244	10.9	23.4	-90.7	6.9
2025-01-10 11:47:01.242105	10.6	23.5	-90.5	2.6
2025-01-10 11:47:02.400679	10.3	23.6	-91.0	2.2
2025-01-10 11:47:03.555748	10.1	23.7	-90.8	4.8
2025-01-10 11:47:04.716638	9.8	23.8	-90.7	6.0
2025-01-10 11:47:05.884989	9.5	23.9	-90.8	6.3
2025-01-10 11:47:07.042801	9.3	24.0	-91.0	7.0
2025-01-10 11:47:08.207814	9.0	24.1	-90.9	7.8
2025-01-10 11:47:09.372341	8.7	24.2	-90.5	5.8
2025-01-10 11:47:10.536175	8.4	24.3	-90.4	10.1
2025-01-10 11:47:11.700414	8.1	24.4	-90.5	5.2
2025-01-10 11:47:12.848842	7.9	24.5	-89.6	4.1
2025-01-10 11:47:14.003768	7.6	24.5	-90.4	8.9
2025-01-10 11:47:15.153529	7.3	24.6	-89.5	6.5
2025-01-10 11:47:16.311353	7.0	24.7	-89.9	4.1
2025-01-10 11:47:17.474502	6.7	24.8	-90.2	5.0
2025-01-10 11:47:18.637570	6.4	24.9	-90.7	8.7
2025-01-10 11:47:19.798192	6.2	25.0	-90.0	4.0
2025-01-10 11:47:20.964124	5.9	25.1	-90.4	9.5
2025-01-10 11:47:22.125020	5.6	25.2	-90.5	5.9
2025-01-10 11:47:23.284433	5.3	25.3	-90.3	5.9
2025-01-10 11:47:24.448733	5.0	25.4	-90.6	5.3
2025-01-10 11:47:25.615909	4.7	25.4	-90.3	5.5
2025-01-10 11:47:26.771221	4.4	25.5	-90.9	2.0
2025-01-10 11:47:27.937861	4.1	25.6	-91.1	1.5
2025-01-10 11:47:29.102539	3.8	25.7	-91.0	4.3
2025-01-10 11:47:30.264728	3.5	25.8	-90.7	2.5
2025-01-10 11:47:31.428715	3.1	25.9	-90.7	4.4
2025-01-10 11:47:32.602291	2.8	26.0	-90.4	8.4
2025-01-10 11:47:33.761487	2.5	26.0	-90.8	6.6
2025-01-10 11:47:34.922363	2.2	26.1	-90.7	10.2
2025-01-10 11:47:36.085225	1.9	26.2	-90.4	5.7
2025-01-10 11:47:37.241872	1.6	26.3	-90.6	8.2
2025-01-10 11:47:38.407426	1.3	26.4	-90.6	9.8
2025-01-10 11:47:39.564466	0.9	26.4	-90.6	6.2
2025-01-10 11:47:40.726048	0.6	26.5	-90.4	5.3
2025-01-10 11:47:41.888185	0.3	26.6	-89.7	5.2
2025-01-10 11:47:43.051281	360.0	26.7	-89.7	4.8
2025-01-10 11:47:44.212637	359.7	26.8	-90.7	5.6
2025-01-10 11:47:45.375725	359.3	26.8	-91.1	6.5
2025-01-10 11:47:46.532752	359.0	26.9	-90.6	6.6
2025-01-10 11:47:47.696030	358.7	27.0	-90.2	12.7
2025-01-10 11:47:48.860538	358.3	27.1	-91.2	7.8
2025-01-10 11:47:50.023479	358.0	27.1	-90.1	7.5
2025-01-10 11:47:51.181612	357.7	27.2	-89.2	6.5
2025-01-10 11:47:52.338809	357.3	27.3	-90.7	10.6
2025-01-10 11:47:53.502880	357.0	27.3	-90.9	6.5
2025-01-10 11:47:54.666508	356.7	27.4	-90.9	3.8
2025-01-10 11:47:55.829036	356.3	27.5	-90.6	1.9
2025-01-10 11:47:56.986362	356.0	27.5	-90.9	2.2
2025-01-10 11:47:58.149439	355.6	27.6	-89.7	3.9
2025-01-10 11:47:59.312631	355.3	27.7	-89.4	0.9
2025-01-10 11:48:00.459759	354.9	27.7	-90.6	3.4
2025-01-10 11:48:01.625067	354.6	27.8	-90.6	3.3
2025-01-10 11:48:02.793447	354.2	27.9	-90.6	2.2
2025-01-10 11:48:03.955615	353.9	27.9	-89.9	2.1
2025-01-10 11:48:05.118515	353.5	28.0	-89.7	10.8
2025-01-10 11:48:06.289392	353.2	28.0	-90.0	5.2
2025-01-10 11:48:07.446981	352.8	28.1	-89.8	3.7
2025-01-10 11:48:08.625799	352.5	28.2	-87.8	4.6
2025-01-10 11:48:09.786438	352.1	28.2	-88.6	7.3
2025-01-10 11:48:10.944516	351.8	28.3	-90.4	5.2
2025-01-10 11:48:12.101616	351.4	28.3	-90.2	8.2
2025-01-10 11:48:13.257276	351.0	28.4	-90.4	3.4
2025-01-10 11:48:14.419583	350.7	28.4	-90.5	6.9
2025-01-10 11:48:15.584081	350.3	28.5	-91.1	5.8
2025-01-10 11:48:16.747175	350.0	28.5	-90.4	2.1
2025-01-10 11:48:17.907916	349.6	28.6	-90.4	5.9
2025-01-10 11:48:19.063146	349.2	28.6	-89.5	5.8
2025-01-10 11:48:20.227849	348.9	28.6	-90.0	2.4
2025-01-10 11:48:21.391153	348.5	28.7	-89.8	3.8
2025-01-10 11:48:22.547094	348.1	28.7	-90.1	8.3
2025-01-10 11:48:23.709683	347.8	28.8	-90.5	7.2
2025-01-10 11:48:24.869153	347.4	28.8	-90.6	6.8
2025-01-10 11:48:26.035171	347.0	28.9	-90.4	5.9
2025-01-10 11:48:27.190887	346.6	28.9	-90.4	11.2
2025-01-10 11:48:28.350122	346.3	28.9	-90.5	11.9
2025-01-10 11:48:29.516025	345.9	29.0	-90.5	11.6
2025-01-10 11:48:30.675439	345.5	29.0	-90.4	11.8
2025-01-10 11:48:31.841116	345.1	29.0	-90.5	10.7
2025-01-10 11:48:32.998785	344.8	29.0	-90.6	5.6
2025-01-10 11:48:34.153768	344.4	29.1	-90.3	3.4
2025-01-10 11:48:35.313476	344.0	29.1	-90.3	3.0
2025-01-10 11:48:36.480325	343.6	29.1	-90.3	5.8
2025-01-10 11:48:37.640587	343.3	29.2	-90.7	4.0
2025-01-10 11:48:38.808410	342.9	29.2	-90.9	2.0
2025-01-10 11:48:39.970073	342.5	29.2	-90.9	3.9
2025-01-10 11:48:41.133921	342.1	29.2	-91.0	4.5
2025-01-10 11:48:42.288480	341.7	29.2	-91.1	1.9
2025-01-10 11:48:43.447816	341.4	29.3	-91.3	3.8
2025-01-10 11:48:44.611358	341.0	29.3	-90.4	5.4
2025-01-10 11:48:45.766487	340.6	29.3	-90.8	2.6
2025-01-10 11:48:46.926786	340.2	29.3	-90.8	5.6
2025-01-10 11:48:48.080058	339.8	29.3	-90.6	3.5
2025-01-10 11:48:49.246912	339.4	29.3	-90.7	3.5
2025-01-10 11:48:50.403649	339.1	29.3	-91.1	5.7
2025-01-10 11:48:51.562793	338.7	29.3	-90.9	6.4
2025-01-10 11:48:52.721122	338.3	29.3	-91.0	2.9
2025-01-10 11:48:53.883343	337.9	29.3	-90.9	3.8
2025-01-10 11:48:55.042955	337.5	29.4	-91.2	8.2
2025-01-10 11:48:56.208771	337.2	29.4	-90.9	6.7
2025-01-10 11:48:57.357319	336.8	29.4	-90.7	6.0
2025-01-10 11:48:58.517522	336.4	29.4	-90.7	10.6
2025-01-10 11:48:59.666934	336.0	29.3	-91.0	11.3
2025-01-10 11:49:00.820047	335.6	29.3	-90.9	7.3
2025-01-10 11:49:01.978062	335.2	29.3	-90.7	7.1
2025-01-10 11:49:03.139520	334.9	29.3	-90.8	11.8
2025-01-10 11:49:04.302071	334.5	29.3	-90.4	7.3
2025-01-10 11:49:05.467614	334.1	29.3	-91.2	8.8
2025-01-10 11:49:06.624373	333.7	29.3	-90.8	14.2
2025-01-10 11:49:07.788514	333.3	29.3	-90.8	14.9
2025-01-10 11:49:08.949493	332.9	29.3	-91.2	9.5
2025-01-10 11:49:10.113377	332.6	29.3	-91.1	8.1
2025-01-10 11:49:11.270735	332.2	29.2	-90.8	7.0
2025-01-10 11:49:12.428480	331.8	29.2	-90.8	6.9
2025-01-10 11:49:13.590229	331.4	29.2	-90.8	6.3
2025-01-10 11:49:14.752915	331.0	29.2	-91.1	6.0
2025-01-10 11:49:15.920408	330.7	29.2	-90.7	6.6
2025-01-10 11:49:17.084197	330.3	29.1	-90.6	6.3
2025-01-10 11:49:18.242708	329.9	29.1	-90.7	4.9
2025-01-10 11:49:19.394572	329.5	29.1	-91.1	3.5
2025-01-10 11:49:20.555878	329.2	29.1	-91.0	7.1
2025-01-10 11:49:21.713691	328.8	29.0	-90.8	8.0
2025-01-10 11:49:22.876570	328.4	29.0	-90.3	1.9
2025-01-10 11:49:24.040920	328.0	29.0	-90.7	4.3
2025-01-10 11:49:25.202153	327.7	28.9	-90.2	2.5
2025-01-10 11:49:26.362395	327.3	28.9	-89.0	4.2
2025-01-10 11:49:27.520032	326.9	28.9	-91.1	6.5
2025-01-10 11:49:28.685248	326.5	28.8	-90.4	6.0
2025-01-10 11:49:29.849798	326.2	28.8	-89.6	3.8
2025-01-10 11:49:31.019867	325.8	28.7	-91.2	4.3
2025-01-10 11:49:32.177396	325.4	28.7	-90.1	4.0
2025-01-10 11:49:33.341969	325.1	28.7	-90.9	3.7
2025-01-10 11:49:34.500797	324.7	28.6	-91.1	5.6
2025-01-10 11:49:35.660545	324.3	28.6	-91.2	2.5
2025-01-10 11:49:36.827246	324.0	28.5	-90.8	0.8
2025-01-10 11:49:37.986422	323.6	28.5	-90.9	5.6
2025-01-10 11:49:39.149590	323.2	28.4	-90.2	4.5
2025-01-10 11:49:40.315625	322.9	28.4	-91.1	2.9
2025-01-10 11:49:41.478962	322.5	28.3	-90.8	4.9
2025-01-10 11:49:42.642553	322.1	28.3	-91.0	4.1
2025-01-10 11:49:43.808406	321.8	28.2	-91.0	3.6
2025-01-10 11:49:44.969870	321.4	28.2	-91.1	5.6
2025-01-10 11:49:46.137092	321.1	28.1	-90.3	5.9
2025-01-10 11:49:47.298488	320.7	28.1	-90.6	3.1
2025-01-10 11:49:48.461687	320.4	28.0	-89.8	4.1
2025-01-10 11:49:49.620038	320.0	27.9	-90.4	8.2
2025-01-10 11:49:50.770331	319.7	27.9	-90.3	2.9
2025-01-10 11:49:51.904914	319.3	27.8	-90.2	5.1
2025-01-10 11:49:53.027283	319.0	27.8	-90.2	2.6
2025-01-10 11:49:54.148844	318.7	27.7	-89.7	4.1
2025-01-10 11:49:55.269441	318.3	27.6	-90.8	3.0
2025-01-10 11:49:56.389951	318.0	27.6	-90.7	4.7
2025-01-10 11:49:57.510376	317.7	27.5	-90.6	4.4
2025-01-10 11:49:58.631522	317.3	27.4	-90.9	6.1
2025-01-10 11:49:59.752167	317.0	27.4	-90.7	5.1
2025-01-10 11:50:00.876866	316.7	27.3	-90.8	4.8
2025-01-10 11:50:02.012450	316.3	27.2	-90.7	3.8
2025-01-10 11:50:03.164362	316.0	27.2	-90.7	5.1
2025-01-10 11:50:04.330997	315.7	27.1	-90.7	2.9
2025-01-10 11:50:05.494321	315.3	27.0	-90.9	5.1
2025-01-10 11:50:06.660347	315.0	27.0	-90.9	4.6
2025-01-10 11:50:07.819926	314.7	26.9	-90.8	4.3
2025-01-10 11:50:08.984243	314.4	26.8	-90.8	5.2
2025-01-10 11:50:10.144315	314.0	26.7	-90.4	3.6
2025-01-10 11:50:11.303689	313.7	26.7	-90.5	2.9
2025-01-10 11:50:12.466206	313.4	26.6	-90.8	4.7
2025-01-10 11:50:13.630573	313.1	26.5	-91.0	8.7
2025-01-10 11:50:14.784059	312.7	26.4	-90.9	3.7
2025-01-10 11:50:15.941110	312.4	26.3	-90.9	3.5
2025-01-10 11:50:17.105360	312.1	26.3	-90.3	3.5
2025-01-10 11:50:18.266227	311.8	26.2	-90.3	3.2
2025-01-10 11:50:19.433204	311.5	26.1	-91.1	5.8
2025-01-10 11:50:20.594650	311.2	26.0	-90.8	6.7
2025-01-10 11:50:21.761890	310.9	25.9	-90.8	4.9
2025-01-10 11:50:22.928976	310.5	25.8	-91.0	4.9
2025-01-10 11:50:24.086074	310.2	25.8	-90.6	8.9
2025-01-10 11:50:25.249206	309.9	25.7	-90.4	8.5
2025-01-10 11:50:26.405944	309.6	25.6	-90.6	10.3
2025-01-10 11:50:27.562177	309.3	25.5	-91.0	8.1
2025-01-10 11:50:28.725151	309.0	25.4	-91.0	7.6
2025-01-10 11:50:29.895291	308.7	25.3	-90.9	7.1
2025-01-10 11:50:31.052715	308.4	25.2	-90.4	6.3
2025-01-10 11:50:32.212224	308.1	25.2	-90.1	8.4
2025-01-10 11:50:33.376413	307.8	25.1	-90.7	9.2
2025-01-10 11:50:34.540948	307.6	25.0	-90.8	11.8
2025-01-10 11:50:35.705082	307.3	24.9	-91.0	11.5
2025-01-10 11:50:36.868223	307.0	24.8	-91.0	11.8
2025-01-10 11:50:38.025912	306.7	24.7	-91.0	8.7
2025-01-10 11:50:39.189298	306.4	24.6	-90.7	8.3
2025-01-10 11:50:40.352815	306.1	24.5	-90.7	7.2
2025-01-10 11:50:41.511901	305.8	24.4	-90.7	6.5
2025-01-10 11:50:42.665900	305.6	24.3	-91.2	6.9
2025-01-10 11:50:43.838717	305.3	24.2	-90.1	7.2
2025-01-10 11:50:44.998226	305.0	24.1	-90.9	8.1
2025-01-10 11:50:46.162868	304.7	24.0	-90.6	4.7
2025-01-10 11:50:47.331495	304.4	24.0	-91.0	2.7
2025-01-10 11:50:48.505179	304.2	23.9	-90.6	6.0
2025-01-10 11:50:49.665563	303.9	23.8	-91.0	5.1
2025-01-10 11:50:50.830594	303.6	23.7	-91.2	2.8
2025-01-10 11:50:51.996426	303.4	23.6	-91.0	4.9
2025-01-10 11:50:53.155239	303.1	23.5	-90.6	4.0
2025-01-10 11:50:54.321373	302.8	23.4	-90.6	0.5
2025-01-10 11:50:55.484006	302.6	23.3	-90.7	2.0
2025-01-10 11:50:56.644955	302.3	23.2	-90.9	6.0
2025-01-10 11:50:57.807196	302.1	23.1	-91.1	3.7
2025-01-10 11:50:58.968463	301.8	23.0	-91.2	5.1
2025-01-10 11:51:00.131462	301.5	22.9	-90.9	4.8
2025-01-10 11:51:01.280121	301.3	22.8	-90.6	4.2
2025-01-10 11:51:02.437865	301.0	22.7	-91.0	5.1
2025-01-10 11:51:03.597766	300.8	22.6	-90.2	7.7
2025-01-10 11:51:04.763294	300.5	22.5	-91.1	1.9
2025-01-10 11:51:05.925740	300.3	22.4	-90.9	7.8
2025-01-10 11:51:07.089673	300.0	22.3	-90.6	4.7
2025-01-10 11:51:08.246868	299.8	22.2	-90.8	3.3
2025-01-10 11:51:09.409335	299.6	22.1	-91.3	2.0
2025-01-10 11:51:10.572779	299.3	22.0	-91.2	3.4
2025-01-10 11:51:11.731246	299.1	21.9	-91.0	3.2
2025-01-10 11:51:12.896470	298.8	21.8	-91.2	2.7
2025-01-10 11:51:14.056134	298.6	21.7	-90.7	7.4
2025-01-10 11:51:15.216315	298.4	21.6	-90.6	5.1
2025-01-10 11:51:16.378530	298.1	21.5	-90.8	8.1
2025-01-10 11:51:17.535265	297.9	21.4	-90.8	7.9
2025-01-10 11:51:18.697482	297.7	21.3	-90.9	5.3
2025-01-10 11:51:19.858149	297.4	21.2	-90.6	4.2
2025-01-10 11:51:21.023380	297.2	21.1	-90.8	3.9
2025-01-10 11:51:22.179280	297.0	21.0	-90.7	3.8
2025-01-10 11:51:23.330361	296.8	20.9	-90.4	2.9
2025-01-10 11:51:24.494734	296.5	20.8	-90.9	3.8
2025-01-10 11:51:25.657370	296.3	20.7	-89.8	3.6
2025-01-10 11:51:26.819341	296.1	20.6	-90.7	3.5
2025-01-10 11:51:27.981787	295.9	20.5	-91.1	5.1
2025-01-10 11:51:29.144322	295.7	20.4	-90.9	4.7
2025-01-10 11:51:30.307816	295.5	20.3	-91.0	3.3
2025-01-10 11:51:31.474878	295.2	20.2	-91.3	3.9
2025-01-10 11:51:32.639677	295.0	20.1	-91.0	4.2
2025-01-10 11:51:33.803268	294.8	20.0	-91.0	1.7
2025-01-10 11:51:34.965387	294.6	19.9	-90.9	4.4
2025-01-10 11:51:36.131058	294.4	19.8	-90.5	5.8
2025-01-10 11:51:37.296391	294.2	19.7	-90.2	8.9
2025-01-10 11:51:38.452215	294.0	19.6	-90.9	9.8
2025-01-10 11:51:39.613980	293.8	19.5	-91.1	9.8
2025-01-10 11:51:40.779571	293.6	19.4	-90.9	7.0
2025-01-10 11:51:41.941684	293.4	19.3	-91.1	8.1
2025-01-10 11:51:43.109348	293.2	19.2	-90.8	6.3
2025-01-10 11:51:44.275992	293.0	19.1	-90.9	3.9
2025-01-10 11:51:45.437204	292.8	19.0	-91.1	2.8
2025-01-10 11:51:46.603624	292.6	18.9	-90.8	4.0
2025-01-10 11:51:47.756529	292.4	18.8	-90.8	2.4
2025-01-10 11:51:48.923116	292.2	18.7	-90.9	3.8
2025-01-10 11:51:50.089257	292.0	18.6	-91.1	3.4
2025-01-10 11:51:51.256469	291.8	18.5	-90.9	3.7
2025-01-10 11:51:52.413730	291.6	18.4	-90.0	3.0
2025-01-10 11:51:53.576160	291.4	18.3	-91.1	4.9
2025-01-10 11:51:54.736944	291.2	18.2	-91.0	4.8
2025-01-10 11:51:55.899033	291.1	18.1	-91.1	5.7
2025-01-10 11:51:57.058302	290.9	18.0	-91.0	6.8
2025-01-10 11:51:58.217700	290.7	17.9	-89.3	3.4
2025-01-10 11:51:59.381955	290.5	17.8	-90.8	6.8
2025-01-10 11:52:00.530799	290.3	17.7	-91.1	1.5
2025-01-10 11:52:01.694594	290.1	17.6	-91.2	3.8
2025-01-10 11:52:02.858590	290.0	17.5	-91.2	2.1
2025-01-10 11:52:04.015890	289.8	17.4	-91.1	3.2
2025-01-10 11:52:05.180373	289.6	17.3	-90.8	2.0
2025-01-10 11:52:06.343270	289.4	17.2	-90.7	2.1
2025-01-10 11:52:07.497371	289.3	17.1	-90.8	3.4
2025-01-10 11:52:08.659983	289.1	17.0	-90.8	2.0
2025-01-10 11:52:09.820781	288.9	16.9	-91.1	3.6
2025-01-10 11:52:10.994239	288.7	16.8	-91.0	1.7
2025-01-10 11:52:12.165292	288.6	16.7	-90.9	2.1
2025-01-10 11:52:13.324169	288.4	16.6	-90.8	3.6
2025-01-10 11:52:14.481976	288.2	16.5	-90.5	4.3
2025-01-10 11:52:15.648991	288.1	16.4	-88.8	4.0
2025-01-10 11:52:16.824409	287.9	16.3	-91.0	5.2
2025-01-10 11:52:17.987018	287.7	16.2	-91.2	4.2
2025-01-10 11:52:19.145515	287.6	16.1	-91.0	3.1
2025-01-10 11:52:20.305661	287.4	16.0	-90.5	2.6
2025-01-10 11:52:21.467383	287.3	15.9	-91.1	3.2
2025-01-10 11:52:22.632035	287.1	15.8	-91.1	3.9
2025-01-10 11:52:23.795863	286.9	15.7	-91.3	2.6
2025-01-10 11:52:24.960119	286.8	15.6	-91.1	3.0
2025-01-10 11:52:26.119270	286.6	15.5	-90.3	3.7
2025-01-10 11:52:27.287974	286.5	15.4	-90.7	2.4
2025-01-10 11:52:28.452242	286.3	15.3	-90.8	2.4
2025-01-10 11:52:29.620280	286.2	15.2	-90.4	4.2
2025-01-10 11:52:30.779627	286.0	15.1	-89.9	4.0
2025-01-10 11:52:31.938013	285.9	15.0	-86.7	4.2
2025-01-10 11:52:33.101092	285.7	14.9	-91.0	4.1
2025-01-10 11:52:34.261615	285.6	14.8	-90.9	4.3
2025-01-10 11:52:35.428161	285.4	14.7	-90.8	7.0
2025-01-10 11:52:36.590484	285.3	14.6	-91.3	3.1
#Closed at: 2025-01-10 11:45:27.205460