passes_logs/2025/01/10/LEX_Murmansk/LEX_Murmansk__20250110_200718_NOAA_19_rec.log

#Pass ID: 20250110_200718_NOAA 19
#Satellite: NOAA 19
#Configuration: NOAA 19
#Start time: 2025-01-10 20:07:13.047352

#LorettStation: 1.0.0 05.05.2024
#Station: LEX_Murmansk
#Location: 33.156738 lon 68.926811 lat
#TLE: 1 33591U 09005A   25009.90667525  .00000313  00000+0  19132-3 0  9996
#TLE: 2 33591  99.0207  73.6295 0014600  71.1816 289.0938 14.13255869820561

#Time	Az	El	Level	SNR
2025-01-10 20:07:29.258168	237.4	16.1	-91.7	5.8
2025-01-10 20:07:30.417965	237.6	16.2	-91.7	6.3
2025-01-10 20:07:31.573979	237.8	16.2	-91.9	7.5
2025-01-10 20:07:32.739169	238.0	16.3	-91.8	7.1
2025-01-10 20:07:33.896604	238.2	16.4	-91.3	10.3
2025-01-10 20:07:35.059980	238.4	16.5	-91.7	11.4
2025-01-10 20:07:36.227135	238.6	16.5	-91.2	7.5
2025-01-10 20:07:37.393129	238.8	16.6	-91.8	6.2
2025-01-10 20:07:38.555859	239.0	16.7	-91.5	5.6
2025-01-10 20:07:39.723071	239.2	16.8	-91.5	1.5
2025-01-10 20:07:40.886126	239.4	16.8	-91.8	4.3
2025-01-10 20:07:42.061210	239.7	16.9	-91.8	2.9
2025-01-10 20:07:43.224617	239.9	17.0	-92.1	2.5
2025-01-10 20:07:44.385406	240.1	17.1	-92.2	4.9
2025-01-10 20:07:45.554379	240.3	17.1	-92.4	5.1
2025-01-10 20:07:46.722100	240.5	17.2	-92.0	5.8
2025-01-10 20:07:47.882317	240.8	17.3	-92.2	4.4
2025-01-10 20:07:49.040164	241.0	17.4	-92.1	6.0
2025-01-10 20:07:50.199802	241.2	17.4	-91.6	6.7
2025-01-10 20:07:51.356514	241.4	17.5	-91.8	4.6
2025-01-10 20:07:52.520282	241.6	17.6	-92.0	4.5
2025-01-10 20:07:53.684647	241.9	17.7	-92.0	5.7
2025-01-10 20:07:54.846353	242.1	17.7	-91.8	3.4
2025-01-10 20:07:56.010646	242.3	17.8	-91.7	5.6
2025-01-10 20:07:57.175266	242.5	17.9	-91.4	5.8
2025-01-10 20:07:58.340323	242.8	18.0	-92.0	6.5
2025-01-10 20:07:59.505657	243.0	18.0	-92.1	9.9
2025-01-10 20:08:00.651445	243.2	18.1	-91.7	8.0
2025-01-10 20:08:01.812421	243.5	18.2	-91.7	6.1
2025-01-10 20:08:02.971944	243.7	18.3	-91.9	5.4
2025-01-10 20:08:04.129922	243.9	18.3	-92.0	4.7
2025-01-10 20:08:05.291835	244.2	18.4	-92.3	1.4
2025-01-10 20:08:06.458857	244.4	18.5	-92.1	4.1
2025-01-10 20:08:07.620141	244.6	18.5	-92.2	3.6
2025-01-10 20:08:08.784970	244.9	18.6	-92.3	4.7
2025-01-10 20:08:09.948062	245.1	18.7	-92.1	5.7
2025-01-10 20:08:11.108355	245.4	18.8	-91.9	9.5
2025-01-10 20:08:12.267127	245.6	18.8	-92.1	11.0
2025-01-10 20:08:13.429894	245.8	18.9	-92.2	10.8
2025-01-10 20:08:14.585112	246.1	19.0	-92.0	12.8
2025-01-10 20:08:15.748248	246.3	19.0	-92.0	8.4
2025-01-10 20:08:16.912409	246.6	19.1	-92.0	6.1
2025-01-10 20:08:18.074210	246.8	19.2	-91.8	4.9
2025-01-10 20:08:19.230344	247.1	19.2	-91.8	4.0
2025-01-10 20:08:20.400082	247.3	19.3	-92.2	4.7
2025-01-10 20:08:21.556464	247.6	19.4	-91.8	6.2
2025-01-10 20:08:22.716745	247.8	19.4	-91.9	3.7
2025-01-10 20:08:23.881744	248.1	19.5	-92.0	5.8
2025-01-10 20:08:25.045036	248.3	19.6	-92.3	3.0
2025-01-10 20:08:26.209073	248.6	19.6	-91.8	5.1
2025-01-10 20:08:27.374090	248.8	19.7	-91.8	4.2
2025-01-10 20:08:28.538392	249.1	19.8	-91.8	5.1
2025-01-10 20:08:29.700726	249.3	19.8	-91.9	1.8
2025-01-10 20:08:30.860373	249.6	19.9	-92.1	3.7
2025-01-10 20:08:32.021344	249.9	20.0	-91.9	2.4
2025-01-10 20:08:33.185336	250.1	20.0	-91.8	1.4
2025-01-10 20:08:34.342334	250.4	20.1	-91.7	2.8
2025-01-10 20:08:35.499743	250.6	20.1	-91.7	3.6
2025-01-10 20:08:36.662928	250.9	20.2	-92.1	2.6
2025-01-10 20:08:37.835019	251.2	20.3	-92.2	1.5
2025-01-10 20:08:38.993776	251.4	20.3	-90.6	4.5
2025-01-10 20:08:40.153528	251.7	20.4	-91.9	5.7
2025-01-10 20:08:41.314406	252.0	20.5	-92.4	7.4
2025-01-10 20:08:42.474221	252.2	20.5	-92.6	3.9
2025-01-10 20:08:43.638861	252.5	20.6	-92.3	5.7
2025-01-10 20:08:44.797844	252.8	20.6	-92.1	6.7
2025-01-10 20:08:45.958213	253.1	20.7	-92.2	5.5
2025-01-10 20:08:47.122451	253.3	20.8	-92.0	5.0
2025-01-10 20:08:48.284637	253.6	20.8	-91.7	3.0
2025-01-10 20:08:49.448682	253.9	20.9	-91.6	5.9
2025-01-10 20:08:50.610679	254.2	20.9	-91.9	5.7
2025-01-10 20:08:51.771159	254.4	21.0	-92.3	6.5
2025-01-10 20:08:52.936187	254.7	21.0	-92.3	8.7
2025-01-10 20:08:54.111174	255.0	21.1	-92.0	4.5
2025-01-10 20:08:55.271977	255.3	21.1	-92.2	4.4
2025-01-10 20:08:56.436336	255.6	21.2	-92.3	6.7
2025-01-10 20:08:57.593412	255.8	21.2	-92.1	6.0
2025-01-10 20:08:58.774479	256.1	21.3	-92.2	5.4
2025-01-10 20:08:59.937793	256.4	21.4	-92.2	7.1
2025-01-10 20:09:01.081068	256.7	21.4	-91.6	4.3
2025-01-10 20:09:02.240814	257.0	21.5	-92.1	2.9
2025-01-10 20:09:03.403079	257.3	21.5	-92.4	2.8
2025-01-10 20:09:04.565628	257.5	21.6	-91.9	3.4
2025-01-10 20:09:05.727539	257.8	21.6	-92.1	3.7
2025-01-10 20:09:06.894835	258.1	21.7	-92.5	3.6
2025-01-10 20:09:08.053319	258.4	21.7	-92.4	2.7
2025-01-10 20:09:09.216299	258.7	21.7	-92.3	3.3
2025-01-10 20:09:10.377721	259.0	21.8	-92.0	6.0
2025-01-10 20:09:11.541138	259.3	21.8	-92.2	7.3
2025-01-10 20:09:12.705555	259.6	21.9	-92.2	10.3
2025-01-10 20:09:13.881150	259.9	21.9	-92.2	11.5
2025-01-10 20:09:15.045072	260.2	22.0	-92.2	13.1
2025-01-10 20:09:16.204385	260.5	22.0	-92.1	9.9
2025-01-10 20:09:17.375859	260.8	22.1	-92.0	9.7
2025-01-10 20:09:18.541290	261.1	22.1	-92.3	12.8
2025-01-10 20:09:19.702819	261.4	22.1	-92.3	6.6
2025-01-10 20:09:20.867899	261.7	22.2	-92.2	11.6
2025-01-10 20:09:22.026411	262.0	22.2	-92.2	8.6
2025-01-10 20:09:23.186390	262.3	22.3	-91.7	6.9
2025-01-10 20:09:24.347061	262.6	22.3	-92.2	5.9
2025-01-10 20:09:25.514274	262.9	22.3	-92.2	10.8
2025-01-10 20:09:26.673326	263.2	22.4	-92.0	5.2
2025-01-10 20:09:27.842134	263.5	22.4	-92.1	7.0
2025-01-10 20:09:29.003027	263.8	22.4	-92.4	9.7
2025-01-10 20:09:30.170150	264.1	22.5	-92.2	10.1
2025-01-10 20:09:31.331092	264.4	22.5	-92.2	10.3
2025-01-10 20:09:32.490097	264.7	22.5	-92.4	9.3
2025-01-10 20:09:33.657876	265.0	22.6	-92.1	12.3
2025-01-10 20:09:34.812670	265.3	22.6	-92.0	13.7
2025-01-10 20:09:35.975731	265.6	22.6	-92.0	12.4
2025-01-10 20:09:37.134393	265.9	22.7	-92.1	11.8
2025-01-10 20:09:38.290125	266.2	22.7	-91.8	12.6
2025-01-10 20:09:39.450507	266.5	22.7	-92.1	9.8
2025-01-10 20:09:40.618773	266.8	22.7	-92.2	6.9
2025-01-10 20:09:41.773014	267.1	22.8	-92.0	6.2
2025-01-10 20:09:42.941312	267.5	22.8	-92.3	7.2
2025-01-10 20:09:44.120916	267.8	22.8	-92.0	5.4
2025-01-10 20:09:45.288752	268.1	22.8	-91.3	3.2
2025-01-10 20:09:46.452394	268.4	22.9	-92.1	3.9
2025-01-10 20:09:47.612716	268.7	22.9	-92.0	6.2
2025-01-10 20:09:48.769466	269.0	22.9	-92.1	2.3
2025-01-10 20:09:49.934048	269.3	22.9	-92.3	3.5
2025-01-10 20:09:51.094225	269.7	22.9	-92.0	6.4
2025-01-10 20:09:52.253249	270.0	23.0	-92.1	4.3
2025-01-10 20:09:53.415917	270.3	23.0	-91.9	5.0
2025-01-10 20:09:54.581281	270.6	23.0	-92.4	8.0
2025-01-10 20:09:55.751076	270.9	23.0	-92.2	7.3
2025-01-10 20:09:56.912931	271.2	23.0	-92.1	9.6
2025-01-10 20:09:58.073870	271.5	23.0	-91.5	9.7
2025-01-10 20:09:59.239787	271.9	23.1	-91.7	9.0
2025-01-10 20:10:00.385908	272.2	23.1	-91.7	10.2
2025-01-10 20:10:01.544662	272.5	23.1	-91.9	10.1
2025-01-10 20:10:02.701127	272.8	23.1	-92.0	8.9
2025-01-10 20:10:03.863751	273.1	23.1	-90.6	8.4
2025-01-10 20:10:05.023778	273.4	23.1	-91.2	6.8
2025-01-10 20:10:06.191463	273.7	23.1	-91.4	8.6
2025-01-10 20:10:07.351172	274.1	23.1	-91.5	9.0
2025-01-10 20:10:08.512417	274.4	23.1	-91.7	9.1
2025-01-10 20:10:09.674753	274.7	23.1	-91.9	6.2
2025-01-10 20:10:10.831293	275.0	23.1	-91.5	5.9
2025-01-10 20:10:11.987283	275.3	23.1	-92.1	8.4
2025-01-10 20:10:13.153593	275.6	23.1	-91.6	6.6
2025-01-10 20:10:14.318774	276.0	23.1	-91.9	3.9
2025-01-10 20:10:15.487456	276.3	23.1	-92.2	6.8
2025-01-10 20:10:16.651102	276.6	23.1	-91.8	6.8
2025-01-10 20:10:17.806764	276.9	23.1	-91.8	4.3
2025-01-10 20:10:18.973619	277.2	23.1	-91.7	7.0
2025-01-10 20:10:20.137095	277.6	23.1	-91.5	4.8
2025-01-10 20:10:21.305285	277.9	23.1	-91.5	4.5
2025-01-10 20:10:22.470087	278.2	23.1	-91.3	5.3
2025-01-10 20:10:23.630183	278.5	23.1	-91.6	6.9
2025-01-10 20:10:24.799831	278.8	23.1	-91.9	3.0
2025-01-10 20:10:25.962470	279.1	23.1	-91.7	4.0
2025-01-10 20:10:27.127124	279.5	23.1	-91.2	7.2
2025-01-10 20:10:28.291094	279.8	23.1	-91.3	5.1
2025-01-10 20:10:29.454966	280.1	23.1	-91.2	6.2
2025-01-10 20:10:30.618566	280.4	23.1	-91.6	8.0
2025-01-10 20:10:31.770911	280.7	23.1	-91.8	5.8
2025-01-10 20:10:32.934272	281.0	23.0	-91.8	8.8
2025-01-10 20:10:34.104231	281.4	23.0	-91.5	8.8
2025-01-10 20:10:35.265326	281.7	23.0	-91.8	8.2
2025-01-10 20:10:36.436335	282.0	23.0	-91.9	9.7
2025-01-10 20:10:37.601400	282.3	23.0	-92.0	10.2
2025-01-10 20:10:38.764760	282.6	23.0	-92.0	5.2
2025-01-10 20:10:39.923794	282.9	22.9	-91.7	11.2
2025-01-10 20:10:41.087048	283.2	22.9	-91.8	8.2
2025-01-10 20:10:42.250806	283.6	22.9	-92.1	7.9
2025-01-10 20:10:43.411578	283.9	22.9	-92.0	10.5
2025-01-10 20:10:44.579438	284.2	22.9	-92.2	10.7
2025-01-10 20:10:45.744314	284.5	22.8	-92.2	10.0
2025-01-10 20:10:46.905980	284.8	22.8	-92.2	12.1
2025-01-10 20:10:48.071815	285.1	22.8	-92.0	9.5
2025-01-10 20:10:49.237009	285.4	22.8	-92.0	8.9
2025-01-10 20:10:50.405618	285.7	22.7	-91.8	9.2
2025-01-10 20:10:51.569335	286.0	22.7	-91.7	10.3
2025-01-10 20:10:52.730541	286.4	22.7	-92.2	10.3
2025-01-10 20:10:53.892570	286.7	22.7	-92.3	9.8
2025-01-10 20:10:55.057915	287.0	22.6	-92.1	10.0
2025-01-10 20:10:56.221781	287.3	22.6	-92.2	6.0
2025-01-10 20:10:57.384843	287.6	22.6	-92.3	9.6
2025-01-10 20:10:58.552918	287.9	22.5	-92.0	7.8
2025-01-10 20:10:59.717855	288.2	22.5	-92.5	4.9
2025-01-10 20:11:00.866998	288.5	22.5	-92.1	8.0
2025-01-10 20:11:02.030120	288.8	22.4	-92.3	6.6
2025-01-10 20:11:03.187419	289.1	22.4	-92.0	6.3
2025-01-10 20:11:04.349688	289.4	22.4	-91.6	7.3
2025-01-10 20:11:05.521611	289.7	22.3	-92.0	8.7
2025-01-10 20:11:06.687165	290.0	22.3	-92.1	5.6
2025-01-10 20:11:07.858918	290.3	22.3	-91.9	6.2
2025-01-10 20:11:09.019664	290.6	22.2	-92.5	5.7
2025-01-10 20:11:10.181620	290.9	22.2	-92.0	5.4
2025-01-10 20:11:11.348253	291.2	22.2	-92.3	7.9
2025-01-10 20:11:12.500945	291.5	22.1	-91.9	7.7
2025-01-10 20:11:13.668634	291.8	22.1	-92.0	6.4
2025-01-10 20:11:14.836291	292.1	22.0	-92.4	5.2
2025-01-10 20:11:15.998777	292.4	22.0	-92.7	7.6
2025-01-10 20:11:17.167975	292.7	21.9	-92.1	5.3
2025-01-10 20:11:18.329648	293.0	21.9	-91.5	6.0
2025-01-10 20:11:19.494511	293.3	21.9	-92.1	7.8
2025-01-10 20:11:20.658284	293.6	21.8	-92.0	3.8
2025-01-10 20:11:21.823234	293.9	21.8	-92.6	10.2
2025-01-10 20:11:22.982881	294.2	21.7	-92.7	7.0
2025-01-10 20:11:24.147244	294.4	21.7	-93.0	6.4
2025-01-10 20:11:25.320208	294.7	21.6	-92.1	6.7
2025-01-10 20:11:26.476371	295.0	21.6	-92.4	6.3
2025-01-10 20:11:27.613250	295.3	21.5	-92.5	6.9
2025-01-10 20:11:28.734580	295.6	21.5	-92.4	5.3
2025-01-10 20:11:29.855814	295.9	21.4	-92.1	7.6
2025-01-10 20:11:30.976356	296.1	21.4	-92.7	6.4
2025-01-10 20:11:32.096762	296.4	21.3	-91.8	6.9
2025-01-10 20:11:33.217055	296.7	21.3	-91.7	6.5
2025-01-10 20:11:34.337939	296.9	21.2	-91.8	5.9
2025-01-10 20:11:35.461485	297.2	21.2	-92.1	8.5
2025-01-10 20:11:36.582279	297.5	21.1	-92.8	5.4
2025-01-10 20:11:37.742270	297.8	21.1	-92.9	10.1
2025-01-10 20:11:38.901991	298.0	21.0	-91.9	9.4
2025-01-10 20:11:40.056492	298.3	21.0	-92.4	8.8
2025-01-10 20:11:41.218680	298.6	20.9	-92.4	5.9
2025-01-10 20:11:42.381584	298.9	20.9	-92.3	2.1
2025-01-10 20:11:43.545630	299.1	20.8	-92.7	6.9
2025-01-10 20:11:44.704760	299.4	20.7	-92.6	2.4
2025-01-10 20:11:45.875475	299.7	20.7	-92.4	2.3
2025-01-10 20:11:47.040754	300.0	20.6	-92.2	2.7
2025-01-10 20:11:48.204151	300.2	20.6	-92.1	2.1
2025-01-10 20:11:49.367128	300.5	20.5	-91.9	4.3
2025-01-10 20:11:50.531092	300.8	20.4	-92.2	2.6
2025-01-10 20:11:51.694640	301.0	20.4	-92.3	5.8
2025-01-10 20:11:52.853394	301.3	20.3	-92.5	5.0
2025-01-10 20:11:54.015033	301.6	20.3	-92.5	6.2
2025-01-10 20:11:55.175802	301.8	20.2	-91.7	5.4
2025-01-10 20:11:56.343606	302.1	20.1	-92.0	6.3
2025-01-10 20:11:57.511717	302.4	20.1	-92.4	6.5
2025-01-10 20:11:58.676048	302.6	20.0	-92.3	7.6
2025-01-10 20:11:59.838384	302.9	20.0	-92.4	6.0
2025-01-10 20:12:00.986727	303.1	19.9	-92.5	6.5
2025-01-10 20:12:02.147337	303.4	19.8	-92.5	3.8
2025-01-10 20:12:03.318767	303.7	19.8	-92.5	5.2
2025-01-10 20:12:04.482082	303.9	19.7	-92.6	5.6
2025-01-10 20:12:05.647095	304.2	19.6	-92.5	1.5
2025-01-10 20:12:06.814411	304.4	19.6	-92.3	2.6
2025-01-10 20:12:07.976602	304.7	19.5	-92.6	1.2
2025-01-10 20:12:09.146196	304.9	19.4	-92.0	1.3
2025-01-10 20:12:10.311187	305.2	19.4	-92.2	2.4
2025-01-10 20:12:11.472095	305.4	19.3	-92.4	3.9
2025-01-10 20:12:12.631905	305.7	19.2	-92.2	2.2
2025-01-10 20:12:13.791835	305.9	19.2	-92.3	2.0
2025-01-10 20:12:14.956370	306.2	19.1	-92.3	3.8
2025-01-10 20:12:16.118684	306.4	19.0	-92.4	3.7
2025-01-10 20:12:17.286969	306.7	19.0	-91.9	1.2
2025-01-10 20:12:18.448653	306.9	18.9	-92.3	3.7
2025-01-10 20:12:19.614986	307.1	18.8	-92.3	4.9
2025-01-10 20:12:20.777934	307.4	18.7	-92.3	2.6
2025-01-10 20:12:21.941357	307.6	18.7	-92.1	0.8
2025-01-10 20:12:23.103444	307.9	18.6	-92.0	3.9
2025-01-10 20:12:24.264934	308.1	18.5	-92.1	3.2
2025-01-10 20:12:25.430606	308.3	18.5	-92.4	3.4
2025-01-10 20:12:26.591270	308.6	18.4	-92.3	3.7
2025-01-10 20:12:27.741598	308.8	18.3	-92.2	2.5
2025-01-10 20:12:28.889530	309.0	18.3	-92.6	3.0
2025-01-10 20:12:30.010338	309.2	18.2	-92.4	6.8
2025-01-10 20:12:31.131909	309.5	18.1	-92.1	4.9
2025-01-10 20:12:32.252506	309.7	18.0	-91.8	2.6
2025-01-10 20:12:33.372900	309.9	18.0	-92.2	6.6
2025-01-10 20:12:34.493497	310.1	17.9	-92.6	2.9
2025-01-10 20:12:35.612452	310.4	17.8	-92.4	4.5
2025-01-10 20:12:36.737978	310.6	17.8	-92.5	2.2
2025-01-10 20:12:37.859135	310.8	17.7	-92.2	3.0
2025-01-10 20:12:39.014958	311.0	17.6	-92.2	3.6
2025-01-10 20:12:40.169134	311.2	17.5	-92.2	5.1
2025-01-10 20:12:41.329464	311.5	17.5	-92.0	6.3
2025-01-10 20:12:42.503093	311.7	17.4	-92.3	3.6
2025-01-10 20:12:43.663781	311.9	17.3	-92.6	6.3
2025-01-10 20:12:44.824520	312.1	17.3	-92.4	6.8
2025-01-10 20:12:45.983386	312.3	17.2	-92.0	4.3
2025-01-10 20:12:47.159499	312.5	17.1	-92.2	3.2
2025-01-10 20:12:48.324364	312.8	17.0	-92.3	3.5
2025-01-10 20:12:49.486925	313.0	17.0	-92.6	2.8
2025-01-10 20:12:50.655910	313.2	16.9	-92.5	3.3
2025-01-10 20:12:51.816878	313.4	16.8	-92.7	3.9
2025-01-10 20:12:52.985468	313.6	16.7	-92.6	7.1
2025-01-10 20:12:54.155002	313.8	16.6	-92.2	3.0
2025-01-10 20:12:55.322684	314.0	16.6	-92.6	2.5
2025-01-10 20:12:56.482274	314.2	16.5	-92.5	3.8
2025-01-10 20:12:57.639149	314.5	16.4	-92.7	1.5
2025-01-10 20:12:58.818107	314.7	16.3	-92.9	3.3
2025-01-10 20:12:59.978787	314.9	16.3	-93.0	2.5
2025-01-10 20:13:01.129634	315.1	16.2	-91.8	5.4
2025-01-10 20:13:02.294797	315.3	16.1	-92.5	4.4
2025-01-10 20:13:03.455214	315.5	16.0	-92.5	4.4
2025-01-10 20:13:04.615222	315.7	16.0	-92.5	6.4
2025-01-10 20:13:05.776579	315.9	15.9	-92.4	7.3
2025-01-10 20:13:06.935276	316.1	15.8	-92.5	9.5
2025-01-10 20:13:08.089902	316.3	15.7	-92.5	7.7
2025-01-10 20:13:09.255380	316.5	15.7	-92.4	4.2
2025-01-10 20:13:10.407174	316.7	15.6	-92.3	7.1
2025-01-10 20:13:11.571269	316.9	15.5	-92.3	6.4
2025-01-10 20:13:12.729043	317.1	15.4	-92.6	5.8
2025-01-10 20:13:13.896967	317.2	15.3	-92.4	6.6
2025-01-10 20:13:15.056673	317.4	15.3	-92.5	4.5
2025-01-10 20:13:16.223349	317.6	15.2	-92.4	2.5
2025-01-10 20:13:17.387027	317.8	15.1	-92.5	4.3
2025-01-10 20:13:18.550842	318.0	15.0	-92.4	2.1
2025-01-10 20:13:19.712865	318.2	15.0	-92.3	2.0
2025-01-10 20:13:20.872163	318.4	14.9	-92.6	2.6
2025-01-10 20:13:22.039508	318.6	14.8	-92.4	4.5
2025-01-10 20:13:23.192277	318.8	14.7	-92.3	2.5
2025-01-10 20:13:24.350983	318.9	14.7	-92.2	3.1
#Closed at: 2025-01-10 20:07:18.061007