passes_logs/2025/01/10/LEX_Murmansk/LEX_Murmansk__20250110_121146_NOAA_18_rec.log

#Pass ID: 20250110_121146_NOAA 18
#Satellite: NOAA 18
#Configuration: NOAA 18
#Start time: 2025-01-10 12:11:41.497744

#LorettStation: 1.0.0 05.05.2024
#Station: LEX_Murmansk
#Location: 33.156738 lon 68.926811 lat
#TLE: 1 28654U 05018A   25009.85378120  .00000357  00000+0  21312-3 0  9995
#TLE: 2 28654  98.8576  90.9590 0014108 193.6372 166.4421 14.13482291 12379

#Time	Az	El	Level	SNR
2025-01-10 12:11:53.730446	23.7	16.1	-90.3	8.2
2025-01-10 12:11:54.882214	23.5	16.2	-90.7	7.4
2025-01-10 12:11:56.026808	23.4	16.3	-90.2	7.8
2025-01-10 12:11:57.172998	23.3	16.4	-89.3	6.1
2025-01-10 12:11:58.322975	23.1	16.5	-89.9	5.7
2025-01-10 12:11:59.469666	23.0	16.7	-89.8	4.2
2025-01-10 12:12:00.607104	22.8	16.8	-89.6	6.2
2025-01-10 12:12:01.754097	22.7	16.9	-89.9	6.5
2025-01-10 12:12:02.899215	22.6	17.0	-90.1	5.1
2025-01-10 12:12:04.046116	22.4	17.1	-89.7	4.6
2025-01-10 12:12:05.193112	22.3	17.2	-89.2	4.5
2025-01-10 12:12:06.339903	22.2	17.3	-89.6	6.7
2025-01-10 12:12:07.487621	22.0	17.4	-90.1	3.9
2025-01-10 12:12:08.632353	21.9	17.5	-90.3	6.2
2025-01-10 12:12:09.785563	21.7	17.6	-90.2	4.2
2025-01-10 12:12:10.939233	21.6	17.7	-90.5	4.1
2025-01-10 12:12:12.089402	21.4	17.9	-90.5	7.3
2025-01-10 12:12:13.234168	21.3	18.0	-90.0	5.9
2025-01-10 12:12:14.380626	21.1	18.1	-90.4	8.5
2025-01-10 12:12:15.531034	21.0	18.2	-90.8	9.4
2025-01-10 12:12:16.676749	20.8	18.3	-90.4	11.7
2025-01-10 12:12:17.824990	20.7	18.4	-90.6	13.2
2025-01-10 12:12:18.975775	20.5	18.5	-90.5	9.9
2025-01-10 12:12:20.124339	20.4	18.6	-90.4	11.1
2025-01-10 12:12:21.271388	20.2	18.8	-90.2	14.2
2025-01-10 12:12:22.420528	20.1	18.9	-90.2	13.5
2025-01-10 12:12:23.568284	19.9	19.0	-90.5	6.8
2025-01-10 12:12:24.716104	19.7	19.1	-90.9	12.0
2025-01-10 12:12:25.866590	19.6	19.2	-90.5	10.8
2025-01-10 12:12:27.016621	19.4	19.3	-90.2	6.4
2025-01-10 12:12:28.167239	19.3	19.4	-90.2	10.0
2025-01-10 12:12:29.318898	19.1	19.6	-90.4	12.1
2025-01-10 12:12:30.466164	18.9	19.7	-90.6	10.1
2025-01-10 12:12:31.613348	18.8	19.8	-90.5	13.9
2025-01-10 12:12:32.755903	18.6	19.9	-90.5	11.9
2025-01-10 12:12:33.909486	18.4	20.0	-90.8	12.9
2025-01-10 12:12:35.055119	18.3	20.1	-88.2	6.3
2025-01-10 12:12:36.200894	18.1	20.3	-90.2	9.0
2025-01-10 12:12:37.346094	17.9	20.4	-90.5	8.8
2025-01-10 12:12:38.507051	17.7	20.5	-90.6	8.3
2025-01-10 12:12:39.659901	17.6	20.6	-90.5	12.1
2025-01-10 12:12:40.803868	17.4	20.7	-90.9	7.1
2025-01-10 12:12:41.952140	17.2	20.8	-90.5	3.3
2025-01-10 12:12:43.092045	17.0	21.0	-89.8	4.8
2025-01-10 12:12:44.237571	16.8	21.1	-90.0	3.5
2025-01-10 12:12:45.389088	16.7	21.2	-90.2	5.9
2025-01-10 12:12:46.535713	16.5	21.3	-90.0	2.9
2025-01-10 12:12:47.682813	16.3	21.4	-90.0	4.5
2025-01-10 12:12:48.829055	16.1	21.6	-89.9	7.1
2025-01-10 12:12:49.977367	15.9	21.7	-90.2	12.0
2025-01-10 12:12:51.120661	15.7	21.8	-90.1	8.1
2025-01-10 12:12:52.265184	15.5	21.9	-89.4	11.7
2025-01-10 12:12:53.413045	15.3	22.0	-90.5	6.2
2025-01-10 12:12:54.559719	15.1	22.2	-90.9	7.3
2025-01-10 12:12:55.705809	14.9	22.3	-90.5	8.1
2025-01-10 12:12:56.852922	14.8	22.4	-90.7	9.3
2025-01-10 12:12:58.000429	14.6	22.5	-90.7	9.2
2025-01-10 12:12:59.148235	14.4	22.6	-90.1	11.6
2025-01-10 12:13:00.288165	14.2	22.8	-90.0	9.8
2025-01-10 12:13:01.425986	13.9	22.9	-90.2	8.8
2025-01-10 12:13:02.576327	13.7	23.0	-90.5	8.1
2025-01-10 12:13:03.722859	13.5	23.1	-90.6	9.8
2025-01-10 12:13:04.872499	13.3	23.2	-90.7	12.2
2025-01-10 12:13:06.015017	13.1	23.4	-90.7	5.7
2025-01-10 12:13:07.167737	12.9	23.5	-90.2	8.8
2025-01-10 12:13:08.312542	12.7	23.6	-90.5	9.4
2025-01-10 12:13:09.456376	12.5	23.7	-91.1	10.0
2025-01-10 12:13:10.605296	12.3	23.9	-90.9	13.1
2025-01-10 12:13:11.754227	12.0	24.0	-90.7	12.3
2025-01-10 12:13:12.901078	11.8	24.1	-89.0	8.2
2025-01-10 12:13:14.050599	11.6	24.2	-88.0	5.8
2025-01-10 12:13:15.200407	11.4	24.4	-88.1	3.7
2025-01-10 12:13:16.347817	11.1	24.5	-90.8	10.1
2025-01-10 12:13:17.497253	10.9	24.6	-90.6	5.1
2025-01-10 12:13:18.645356	10.7	24.7	-90.8	8.5
2025-01-10 12:13:19.790135	10.5	24.9	-90.8	9.0
2025-01-10 12:13:20.940300	10.2	25.0	-90.9	7.6
2025-01-10 12:13:22.086968	10.0	25.1	-90.6	10.5
2025-01-10 12:13:23.232834	9.7	25.2	-90.8	8.7
2025-01-10 12:13:24.382171	9.5	25.3	-90.8	4.6
2025-01-10 12:13:25.527859	9.3	25.5	-90.7	5.0
2025-01-10 12:13:26.671699	9.0	25.6	-90.9	8.4
2025-01-10 12:13:27.817524	8.8	25.7	-90.6	7.7
2025-01-10 12:13:28.963658	8.5	25.8	-90.7	7.4
2025-01-10 12:13:30.109662	8.3	26.0	-90.5	7.1
2025-01-10 12:13:31.257259	8.0	26.1	-90.3	7.8
2025-01-10 12:13:32.406215	7.8	26.2	-90.7	9.5
2025-01-10 12:13:33.555733	7.5	26.3	-91.1	7.9
2025-01-10 12:13:34.700729	7.3	26.5	-90.9	8.0
2025-01-10 12:13:35.847788	7.0	26.6	-90.7	8.1
2025-01-10 12:13:36.992030	6.7	26.7	-91.0	5.8
2025-01-10 12:13:38.139703	6.5	26.8	-90.3	6.6
2025-01-10 12:13:39.290786	6.2	27.0	-90.4	7.7
2025-01-10 12:13:40.436240	6.0	27.1	-90.9	8.0
2025-01-10 12:13:41.582063	5.7	27.2	-90.9	9.1
2025-01-10 12:13:42.731415	5.4	27.3	-90.8	9.5
2025-01-10 12:13:43.876328	5.1	27.4	-90.7	8.2
2025-01-10 12:13:45.022287	4.9	27.6	-90.9	6.7
2025-01-10 12:13:46.170074	4.6	27.7	-90.3	7.8
2025-01-10 12:13:47.319295	4.3	27.8	-90.5	8.8
2025-01-10 12:13:48.467149	4.0	27.9	-90.8	5.9
2025-01-10 12:13:49.612776	3.7	28.1	-90.6	5.4
2025-01-10 12:13:50.761833	3.5	28.2	-90.9	7.0
2025-01-10 12:13:51.908267	3.2	28.3	-90.7	5.6
2025-01-10 12:13:53.054215	2.9	28.4	-90.5	7.3
2025-01-10 12:13:54.201845	2.6	28.5	-90.5	9.4
2025-01-10 12:13:55.346503	2.3	28.7	-90.9	11.4
2025-01-10 12:13:56.501704	2.0	28.8	-90.9	9.4
2025-01-10 12:13:57.649304	1.7	28.9	-90.9	9.2
2025-01-10 12:13:58.799743	1.4	29.0	-90.8	7.0
2025-01-10 12:13:59.923971	1.1	29.1	-90.9	8.0
2025-01-10 12:14:01.054775	0.8	29.2	-90.7	8.0
2025-01-10 12:14:02.207242	0.5	29.4	-90.5	9.4
2025-01-10 12:14:03.347865	0.2	29.5	-90.5	11.4
2025-01-10 12:14:04.494372	359.9	29.6	-90.3	6.8
2025-01-10 12:14:05.641044	359.5	29.7	-90.5	6.8
2025-01-10 12:14:06.782218	359.2	29.8	-90.9	7.9
2025-01-10 12:14:07.931957	358.9	29.9	-91.1	5.7
2025-01-10 12:14:09.080819	358.6	30.1	-90.5	6.9
2025-01-10 12:14:10.226238	358.3	30.2	-90.4	8.6
2025-01-10 12:14:11.378748	357.9	30.3	-90.9	7.8
2025-01-10 12:14:12.532330	357.6	30.4	-90.7	4.2
2025-01-10 12:14:13.686266	357.3	30.5	-91.0	8.4
2025-01-10 12:14:14.833365	356.9	30.6	-90.5	4.9
2025-01-10 12:14:15.981029	356.6	30.7	-90.9	5.8
2025-01-10 12:14:17.122984	356.3	30.8	-90.7	8.2
2025-01-10 12:14:18.272430	355.9	31.0	-89.5	4.8
2025-01-10 12:14:19.418240	355.6	31.1	-90.7	5.6
2025-01-10 12:14:20.563143	355.2	31.2	-90.8	8.4
2025-01-10 12:14:21.710385	354.9	31.3	-90.1	6.6
2025-01-10 12:14:22.857707	354.5	31.4	-90.8	9.8
2025-01-10 12:14:24.003099	354.2	31.5	-90.7	6.1
2025-01-10 12:14:25.152874	353.8	31.6	-90.4	8.4
2025-01-10 12:14:26.301811	353.5	31.7	-90.5	11.4
2025-01-10 12:14:27.447017	353.1	31.8	-90.9	5.1
2025-01-10 12:14:28.598037	352.7	31.9	-90.8	6.2
2025-01-10 12:14:29.744255	352.4	32.0	-90.9	6.3
2025-01-10 12:14:30.899957	352.0	32.1	-90.9	9.7
2025-01-10 12:14:32.049040	351.6	32.2	-90.6	10.3
2025-01-10 12:14:33.194680	351.3	32.3	-90.4	10.0
2025-01-10 12:14:34.338664	350.9	32.4	-90.6	8.9
2025-01-10 12:14:35.481757	350.5	32.5	-90.8	9.0
2025-01-10 12:14:36.636393	350.1	32.6	-90.8	11.8
2025-01-10 12:14:37.776099	349.8	32.7	-90.5	9.4
2025-01-10 12:14:38.925968	349.4	32.8	-91.0	5.9
2025-01-10 12:14:40.073366	349.0	32.9	-90.5	9.9
2025-01-10 12:14:41.220981	348.6	32.9	-90.7	10.7
2025-01-10 12:14:42.369295	348.2	33.0	-90.7	4.1
2025-01-10 12:14:43.509796	347.8	33.1	-90.7	4.4
2025-01-10 12:14:44.660026	347.4	33.2	-89.6	12.4
2025-01-10 12:14:45.806415	347.0	33.3	-91.1	9.5
2025-01-10 12:14:46.952296	346.6	33.4	-90.6	9.1
2025-01-10 12:14:48.105689	346.2	33.5	-89.9	5.8
2025-01-10 12:14:49.255976	345.8	33.5	-89.5	9.4
2025-01-10 12:14:50.408523	345.4	33.6	-89.8	6.9
2025-01-10 12:14:51.551676	345.0	33.7	-89.6	16.3
2025-01-10 12:14:52.697929	344.6	33.8	-89.7	14.7
2025-01-10 12:14:53.841743	344.2	33.8	-90.2	12.5
2025-01-10 12:14:54.986553	343.8	33.9	-90.2	9.9
2025-01-10 12:14:56.135220	343.4	34.0	-89.3	12.8
2025-01-10 12:14:57.278643	343.0	34.1	-89.3	8.9
2025-01-10 12:14:58.422057	342.6	34.1	-89.7	9.4
2025-01-10 12:14:59.568176	342.2	34.2	-90.1	11.3
2025-01-10 12:15:00.707731	341.7	34.3	-89.7	12.2
2025-01-10 12:15:01.854818	341.3	34.3	-89.8	10.5
2025-01-10 12:15:02.999346	340.9	34.4	-91.1	9.1
2025-01-10 12:15:04.146356	340.5	34.4	-90.5	11.5
2025-01-10 12:15:05.287946	340.0	34.5	-90.8	15.0
2025-01-10 12:15:06.433826	339.6	34.6	-89.9	8.1
2025-01-10 12:15:07.582932	339.2	34.6	-90.1	5.5
2025-01-10 12:15:08.727346	338.8	34.7	-90.3	9.0
2025-01-10 12:15:09.875102	338.3	34.7	-90.2	12.7
2025-01-10 12:15:11.022423	337.9	34.8	-90.0	17.9
2025-01-10 12:15:12.170509	337.5	34.8	-89.4	7.5
2025-01-10 12:15:13.320732	337.0	34.9	-89.9	16.5
2025-01-10 12:15:14.467536	336.6	34.9	-90.5	12.4
2025-01-10 12:15:15.613441	336.2	35.0	-89.9	12.5
2025-01-10 12:15:16.764712	335.7	35.0	-90.2	12.8
2025-01-10 12:15:17.911927	335.3	35.0	-90.2	12.8
2025-01-10 12:15:19.060100	334.8	35.1	-89.6	6.5
2025-01-10 12:15:20.205817	334.4	35.1	-90.5	12.3
2025-01-10 12:15:21.353320	333.9	35.1	-90.8	13.1
2025-01-10 12:15:22.502791	333.5	35.2	-90.8	10.7
2025-01-10 12:15:23.649487	333.1	35.2	-90.9	7.2
2025-01-10 12:15:24.796801	332.6	35.2	-90.0	14.7
2025-01-10 12:15:25.942221	332.2	35.3	-90.2	4.5
2025-01-10 12:15:27.088153	331.7	35.3	-90.2	7.6
2025-01-10 12:15:28.243537	331.3	35.3	-89.9	12.1
2025-01-10 12:15:29.390396	330.8	35.3	-90.1	11.1
2025-01-10 12:15:30.535376	330.4	35.3	-88.9	7.6
2025-01-10 12:15:31.679519	329.9	35.3	-89.7	2.8
2025-01-10 12:15:32.828815	329.5	35.4	-91.0	6.3
2025-01-10 12:15:33.981978	329.0	35.4	-91.2	6.7
2025-01-10 12:15:35.129035	328.6	35.4	-90.5	10.4
2025-01-10 12:15:36.279640	328.1	35.4	-90.7	13.4
2025-01-10 12:15:37.430830	327.7	35.4	-91.2	11.3
2025-01-10 12:15:38.580526	327.2	35.4	-89.7	11.7
2025-01-10 12:15:39.727323	326.8	35.4	-89.9	10.1
2025-01-10 12:15:40.873950	326.3	35.4	-90.1	9.2
2025-01-10 12:15:42.021030	325.9	35.4	-90.2	11.5
2025-01-10 12:15:43.168644	325.4	35.4	-89.3	13.6
2025-01-10 12:15:44.311510	324.9	35.4	-89.7	13.2
2025-01-10 12:15:45.460501	324.5	35.4	-90.1	10.4
2025-01-10 12:15:46.612251	324.0	35.4	-90.8	11.0
2025-01-10 12:15:47.760508	323.6	35.4	-90.2	15.6
2025-01-10 12:15:48.905608	323.1	35.3	-90.4	11.1
2025-01-10 12:15:50.049159	322.7	35.3	-90.1	7.2
2025-01-10 12:15:51.196995	322.2	35.3	-90.1	13.5
2025-01-10 12:15:52.343205	321.8	35.3	-90.1	13.7
2025-01-10 12:15:53.495777	321.3	35.3	-90.3	6.7
2025-01-10 12:15:54.640545	320.9	35.2	-90.1	10.5
2025-01-10 12:15:55.788173	320.5	35.2	-89.9	8.6
2025-01-10 12:15:56.933082	320.0	35.2	-91.0	4.8
2025-01-10 12:15:58.082957	319.6	35.1	-90.8	11.8
2025-01-10 12:15:59.223733	319.1	35.1	-90.8	10.8
2025-01-10 12:16:00.362353	318.7	35.1	-90.8	8.1
2025-01-10 12:16:01.508327	318.2	35.0	-90.8	8.7
2025-01-10 12:16:02.656846	317.8	35.0	-91.1	9.5
2025-01-10 12:16:03.799135	317.4	35.0	-91.2	11.9
2025-01-10 12:16:04.947441	316.9	34.9	-91.1	7.2
2025-01-10 12:16:06.094471	316.5	34.9	-90.8	9.3
2025-01-10 12:16:07.248762	316.0	34.8	-90.6	10.1
2025-01-10 12:16:08.396089	315.6	34.8	-90.3	12.3
2025-01-10 12:16:09.543075	315.2	34.7	-90.9	8.4
2025-01-10 12:16:10.694670	314.7	34.7	-91.2	7.9
2025-01-10 12:16:11.841087	314.3	34.6	-90.6	12.5
2025-01-10 12:16:12.987246	313.9	34.6	-91.1	9.9
2025-01-10 12:16:14.132590	313.5	34.5	-90.7	6.7
2025-01-10 12:16:15.280161	313.0	34.5	-90.7	11.5
2025-01-10 12:16:16.429635	312.6	34.4	-91.0	8.4
2025-01-10 12:16:17.576814	312.2	34.3	-90.3	9.3
2025-01-10 12:16:18.727584	311.7	34.3	-90.7	16.6
2025-01-10 12:16:19.872288	311.3	34.2	-90.6	11.3
2025-01-10 12:16:21.018915	310.9	34.1	-90.9	6.8
2025-01-10 12:16:22.167751	310.5	34.1	-90.9	9.8
2025-01-10 12:16:23.322060	310.1	34.0	-90.5	8.5
2025-01-10 12:16:24.467792	309.7	33.9	-91.0	6.8
2025-01-10 12:16:25.615158	309.2	33.9	-90.6	7.5
2025-01-10 12:16:26.761172	308.8	33.8	-90.0	8.3
2025-01-10 12:16:27.901046	308.4	33.7	-90.3	3.5
2025-01-10 12:16:29.047462	308.0	33.6	-90.4	6.6
2025-01-10 12:16:30.192262	307.6	33.5	-90.0	11.8
2025-01-10 12:16:31.340740	307.2	33.5	-90.3	10.6
2025-01-10 12:16:32.492031	306.8	33.4	-90.1	5.9
2025-01-10 12:16:33.637017	306.4	33.3	-90.0	6.5
2025-01-10 12:16:34.783417	306.0	33.2	-90.4	8.9
2025-01-10 12:16:35.933168	305.6	33.1	-90.3	7.9
2025-01-10 12:16:37.079965	305.2	33.0	-89.8	6.3
2025-01-10 12:16:38.226728	304.8	33.0	-89.5	10.6
2025-01-10 12:16:39.375763	304.5	32.9	-90.3	8.1
2025-01-10 12:16:40.524446	304.1	32.8	-90.0	6.9
2025-01-10 12:16:41.673568	303.7	32.7	-90.9	11.4
2025-01-10 12:16:42.823011	303.3	32.6	-91.2	16.5
2025-01-10 12:16:43.972972	302.9	32.5	-91.3	8.1
2025-01-10 12:16:45.124319	302.5	32.4	-90.9	7.7
2025-01-10 12:16:46.270560	302.2	32.3	-90.6	12.7
2025-01-10 12:16:47.416239	301.8	32.2	-91.2	8.4
2025-01-10 12:16:48.560581	301.4	32.1	-91.0	6.8
2025-01-10 12:16:49.706797	301.1	32.0	-91.1	15.6
2025-01-10 12:16:50.851220	300.7	31.9	-91.1	14.4
2025-01-10 12:16:51.995455	300.3	31.8	-91.0	8.5
2025-01-10 12:16:53.139201	300.0	31.7	-90.9	8.6
2025-01-10 12:16:54.286359	299.6	31.6	-90.8	10.4
2025-01-10 12:16:55.433284	299.3	31.5	-90.5	8.7
2025-01-10 12:16:56.584431	298.9	31.4	-91.2	6.0
2025-01-10 12:16:57.738361	298.5	31.3	-89.8	6.8
2025-01-10 12:16:58.885596	298.2	31.2	-91.2	8.9
2025-01-10 12:17:00.035334	297.8	31.1	-91.2	7.1
2025-01-10 12:17:01.173557	297.5	31.0	-90.9	12.0
2025-01-10 12:17:02.319313	297.2	30.8	-90.5	10.9
2025-01-10 12:17:03.467684	296.8	30.7	-90.9	12.7
2025-01-10 12:17:04.612431	296.5	30.6	-91.1	11.8
2025-01-10 12:17:05.758331	296.1	30.5	-91.3	12.3
2025-01-10 12:17:06.909668	295.8	30.4	-89.9	12.1
2025-01-10 12:17:08.055859	295.5	30.3	-90.9	12.5
2025-01-10 12:17:09.206327	295.2	30.2	-90.6	12.7
2025-01-10 12:17:10.350871	294.8	30.1	-90.9	15.2
2025-01-10 12:17:11.500941	294.5	29.9	-90.7	15.2
2025-01-10 12:17:12.646591	294.2	29.8	-91.1	14.0
2025-01-10 12:17:13.786483	293.9	29.7	-91.1	11.6
2025-01-10 12:17:14.928096	293.5	29.6	-91.2	12.8
2025-01-10 12:17:16.088220	293.2	29.5	-91.0	13.4
2025-01-10 12:17:17.237747	292.9	29.4	-91.0	15.1
2025-01-10 12:17:18.382085	292.6	29.2	-90.6	14.2
2025-01-10 12:17:19.533010	292.3	29.1	-90.2	10.2
2025-01-10 12:17:20.683451	292.0	29.0	-91.2	11.6
2025-01-10 12:17:21.833078	291.7	28.9	-91.1	12.2
2025-01-10 12:17:22.991396	291.4	28.8	-91.3	8.3
2025-01-10 12:17:24.137686	291.1	28.6	-90.6	11.1
2025-01-10 12:17:25.287850	290.8	28.5	-90.6	13.8
2025-01-10 12:17:26.438792	290.5	28.4	-91.2	8.7
2025-01-10 12:17:27.588732	290.2	28.3	-91.3	9.0
2025-01-10 12:17:28.737651	289.9	28.2	-91.0	15.4
2025-01-10 12:17:29.887823	289.6	28.0	-91.1	11.6
2025-01-10 12:17:31.039364	289.3	27.9	-90.6	8.8
2025-01-10 12:17:32.183578	289.0	27.8	-90.5	11.7
2025-01-10 12:17:33.329642	288.8	27.7	-90.8	14.6
2025-01-10 12:17:34.476510	288.5	27.5	-91.3	9.0
2025-01-10 12:17:35.620689	288.2	27.4	-91.1	6.9
2025-01-10 12:17:36.766929	287.9	27.3	-91.0	8.2
2025-01-10 12:17:37.910783	287.7	27.2	-91.1	7.5
2025-01-10 12:17:39.055516	287.4	27.1	-90.9	7.3
2025-01-10 12:17:40.198841	287.1	26.9	-91.0	8.4
2025-01-10 12:17:41.346993	286.9	26.8	-90.8	8.9
2025-01-10 12:17:42.499351	286.6	26.7	-91.2	11.0
2025-01-10 12:17:43.642153	286.3	26.6	-90.9	10.9
2025-01-10 12:17:44.795711	286.1	26.4	-91.1	15.0
2025-01-10 12:17:45.948341	285.8	26.3	-91.3	10.1
2025-01-10 12:17:47.095674	285.5	26.2	-90.7	13.8
2025-01-10 12:17:48.241703	285.3	26.1	-90.8	11.2
2025-01-10 12:17:49.387965	285.0	25.9	-91.0	9.3
2025-01-10 12:17:50.539093	284.8	25.8	-91.2	6.3
2025-01-10 12:17:51.685669	284.5	25.7	-91.0	9.4
2025-01-10 12:17:52.834200	284.3	25.6	-91.0	12.2
2025-01-10 12:17:53.981551	284.0	25.4	-90.8	6.1
2025-01-10 12:17:55.128892	283.8	25.3	-91.0	4.4
2025-01-10 12:17:56.275965	283.6	25.2	-90.9	6.9
2025-01-10 12:17:57.428684	283.3	25.1	-91.1	5.5
2025-01-10 12:17:58.573011	283.1	24.9	-91.1	5.9
2025-01-10 12:17:59.723107	282.9	24.8	-91.2	6.0
2025-01-10 12:18:00.862746	282.6	24.7	-90.9	5.0
2025-01-10 12:18:02.009395	282.4	24.6	-90.3	5.2
2025-01-10 12:18:03.156115	282.2	24.4	-90.4	7.3
2025-01-10 12:18:04.299594	281.9	24.3	-90.9	11.3
2025-01-10 12:18:05.447937	281.7	24.2	-90.9	8.4
2025-01-10 12:18:06.592573	281.5	24.1	-91.3	9.3
2025-01-10 12:18:07.741863	281.3	23.9	-91.0	9.0
2025-01-10 12:18:08.884544	281.0	23.8	-90.9	8.3
2025-01-10 12:18:10.027104	280.8	23.7	-91.1	9.4
2025-01-10 12:18:11.177451	280.6	23.6	-90.8	10.6
2025-01-10 12:18:12.323987	280.4	23.4	-90.7	11.0
2025-01-10 12:18:13.471055	280.2	23.3	-91.0	12.6
2025-01-10 12:18:14.617200	280.0	23.2	-91.2	7.8
2025-01-10 12:18:15.740694	279.8	23.1	-91.0	12.7
2025-01-10 12:18:16.885205	279.5	23.0	-90.9	7.3
2025-01-10 12:18:18.032037	279.3	22.8	-91.2	9.5
2025-01-10 12:18:19.178845	279.1	22.7	-90.9	10.8
2025-01-10 12:18:20.325151	278.9	22.6	-90.7	9.1
2025-01-10 12:18:21.469613	278.7	22.5	-90.3	6.0
2025-01-10 12:18:22.617470	278.5	22.3	-91.0	7.2
2025-01-10 12:18:23.764390	278.3	22.2	-91.1	7.1
2025-01-10 12:18:24.913032	278.1	22.1	-91.1	7.0
2025-01-10 12:18:26.061832	277.9	22.0	-91.1	5.6
2025-01-10 12:18:27.209385	277.7	21.9	-90.9	6.0
2025-01-10 12:18:28.353611	277.5	21.7	-90.8	7.7
2025-01-10 12:18:29.501833	277.4	21.6	-91.0	4.1
2025-01-10 12:18:30.649965	277.2	21.5	-91.3	8.5
2025-01-10 12:18:31.794042	277.0	21.4	-90.1	10.0
2025-01-10 12:18:32.938437	276.8	21.3	-90.3	9.2
2025-01-10 12:18:34.083557	276.6	21.1	-90.4	5.0
2025-01-10 12:18:35.230444	276.4	21.0	-89.3	4.7
2025-01-10 12:18:36.375615	276.2	20.9	-90.0	5.8
2025-01-10 12:18:37.526273	276.1	20.8	-90.3	4.1
2025-01-10 12:18:38.673224	275.9	20.7	-90.3	8.0
2025-01-10 12:18:39.819444	275.7	20.5	-90.8	5.6
2025-01-10 12:18:40.967812	275.5	20.4	-90.4	3.1
2025-01-10 12:18:42.114783	275.3	20.3	-89.7	4.0
2025-01-10 12:18:43.264917	275.2	20.2	-90.6	3.7
2025-01-10 12:18:44.408344	275.0	20.1	-90.9	5.9
2025-01-10 12:18:45.558349	274.8	19.9	-91.0	4.4
2025-01-10 12:18:46.712962	274.7	19.8	-90.1	6.1
2025-01-10 12:18:47.855935	274.5	19.7	-90.2	6.0
2025-01-10 12:18:48.999058	274.3	19.6	-89.8	7.6
2025-01-10 12:18:50.160475	274.1	19.5	-89.4	5.7
2025-01-10 12:18:51.311986	274.0	19.4	-89.5	6.0
2025-01-10 12:18:52.457327	273.8	19.2	-90.5	5.2
2025-01-10 12:18:53.608858	273.7	19.1	-88.5	5.1
2025-01-10 12:18:54.753830	273.5	19.0	-90.9	6.6
2025-01-10 12:18:55.900799	273.3	18.9	-91.2	5.0
2025-01-10 12:18:57.048497	273.2	18.8	-91.1	4.7
2025-01-10 12:18:58.197620	273.0	18.7	-90.3	10.4
2025-01-10 12:18:59.349524	272.9	18.6	-90.8	5.4
2025-01-10 12:19:00.486001	272.7	18.4	-90.8	7.3
2025-01-10 12:19:01.633451	272.6	18.3	-91.1	9.9
2025-01-10 12:19:02.783693	272.4	18.2	-90.5	7.5
2025-01-10 12:19:03.932259	272.2	18.1	-91.3	5.5
2025-01-10 12:19:05.073783	272.1	18.0	-90.9	7.5
2025-01-10 12:19:06.214860	271.9	17.9	-90.9	9.0
2025-01-10 12:19:07.359855	271.8	17.8	-90.9	5.9
2025-01-10 12:19:08.507299	271.6	17.7	-90.9	12.1
2025-01-10 12:19:09.652121	271.5	17.5	-91.1	9.9
2025-01-10 12:19:10.802181	271.4	17.4	-91.1	10.4
2025-01-10 12:19:11.943651	271.2	17.3	-91.0	7.1
2025-01-10 12:19:13.088114	271.1	17.2	-90.9	5.0
2025-01-10 12:19:14.235016	270.9	17.1	-91.2	11.3
2025-01-10 12:19:15.385321	270.8	17.0	-91.0	8.3
2025-01-10 12:19:16.528642	270.6	16.9	-91.2	5.7
2025-01-10 12:19:17.668497	270.5	16.8	-90.9	5.6
2025-01-10 12:19:18.811560	270.4	16.7	-91.2	7.7
2025-01-10 12:19:19.957885	270.2	16.6	-90.2	5.9
2025-01-10 12:19:21.107232	270.1	16.4	-89.7	5.8
2025-01-10 12:19:22.253941	270.0	16.3	-90.0	8.0
2025-01-10 12:19:23.401661	269.8	16.2	-90.5	5.9
2025-01-10 12:19:24.545879	269.7	16.1	-88.4	8.1
2025-01-10 12:19:25.691382	269.6	16.0	-89.6	6.3
2025-01-10 12:19:26.838530	269.4	15.9	-91.2	4.6
2025-01-10 12:19:27.985390	269.3	15.8	-90.9	7.1
2025-01-10 12:19:29.133761	269.2	15.7	-90.8	6.2
2025-01-10 12:19:30.277121	269.0	15.6	-91.1	6.5
2025-01-10 12:19:31.429599	268.9	15.5	-91.1	7.4
2025-01-10 12:19:32.575024	268.8	15.4	-91.1	5.7
2025-01-10 12:19:33.718521	268.7	15.3	-91.3	9.6
2025-01-10 12:19:34.868950	268.5	15.2	-90.7	6.9
2025-01-10 12:19:36.015301	268.4	15.1	-90.1	9.5
2025-01-10 12:19:37.167880	268.3	15.0	-89.9	12.0
2025-01-10 12:19:38.315279	268.2	14.9	-89.4	8.3
2025-01-10 12:19:39.458601	268.1	14.8	-90.4	7.3
2025-01-10 12:19:40.606044	267.9	14.7	-91.0	7.3
2025-01-10 12:19:41.757413	267.8	14.5	-90.7	11.7
#Closed at: 2025-01-10 12:11:46.536134