passes_logs/2025/01/10/LEX_Murmansk/LEX_Murmansk__20250110_085013_NOAA_18_rec.log

#Pass ID: 20250110_085013_NOAA 18
#Satellite: NOAA 18
#Configuration: NOAA 18
#Start time: 2025-01-10 08:50:08.851818

#LorettStation: 1.0.0 05.05.2024
#Station: LEX_Murmansk
#Location: 33.156738 lon 68.926811 lat
#TLE: 1 28654U 05018A   25009.85378120  .00000357  00000+0  21312-3 0  9995
#TLE: 2 28654  98.8576  90.9590 0014108 193.6372 166.4421 14.13482291 12379

#Time	Az	El	Level	SNR
2025-01-10 08:50:20.974167	31.3	16.2	-89.8	5.4
2025-01-10 08:50:23.271689	31.5	16.4	-90.4	4.0
2025-01-10 08:50:25.558960	31.7	16.6	-90.9	5.3
2025-01-10 08:50:27.850533	31.9	16.9	-90.7	5.0
2025-01-10 08:50:30.150401	32.1	17.1	-90.6	3.5
2025-01-10 08:50:32.445048	32.3	17.4	-89.6	5.4
2025-01-10 08:50:34.749948	32.5	17.6	-90.0	6.9
2025-01-10 08:50:37.047429	32.8	17.8	-89.9	6.9
2025-01-10 08:50:39.341947	33.0	18.1	-88.9	6.2
2025-01-10 08:50:41.637684	33.2	18.3	-89.3	6.6
2025-01-10 08:50:43.931642	33.5	18.6	-89.8	6.8
2025-01-10 08:50:46.225971	33.7	18.8	-88.7	7.9
2025-01-10 08:50:48.523904	33.9	19.1	-88.6	7.0
2025-01-10 08:50:50.820068	34.2	19.3	-89.0	7.6
2025-01-10 08:50:53.117717	34.4	19.6	-89.5	3.5
2025-01-10 08:50:55.417748	34.7	19.8	-90.5	5.3
2025-01-10 08:50:57.712068	34.9	20.1	-90.0	7.2
2025-01-10 08:51:00.002604	35.2	20.4	-90.3	4.1
2025-01-10 08:51:02.297534	35.5	20.6	-90.0	9.9
2025-01-10 08:51:04.594997	35.7	20.9	-90.6	7.6
2025-01-10 08:51:06.899935	36.0	21.2	-90.4	10.5
2025-01-10 08:51:09.198729	36.3	21.4	-90.1	6.3
2025-01-10 08:51:11.502631	36.6	21.7	-90.6	2.9
2025-01-10 08:51:13.798662	36.9	22.0	-90.2	7.8
2025-01-10 08:51:16.091559	37.2	22.3	-90.1	11.3
2025-01-10 08:51:18.377142	37.5	22.5	-90.1	12.6
2025-01-10 08:51:20.672752	37.8	22.8	-90.2	12.3
2025-01-10 08:51:22.968960	38.1	23.1	-90.8	13.1
2025-01-10 08:51:25.266830	38.4	23.4	-89.9	10.7
2025-01-10 08:51:27.561821	38.7	23.7	-90.4	8.9
2025-01-10 08:51:29.866017	39.1	24.0	-90.6	10.4
2025-01-10 08:51:32.162285	39.4	24.3	-90.1	11.5
2025-01-10 08:51:34.447783	39.7	24.6	-89.5	9.0
2025-01-10 08:51:36.742256	40.1	24.9	-90.0	11.4
2025-01-10 08:51:39.040167	40.4	25.2	-90.6	9.3
2025-01-10 08:51:41.336545	40.8	25.5	-89.1	8.0
2025-01-10 08:51:43.624619	41.1	25.8	-89.3	11.8
2025-01-10 08:51:45.921321	41.5	26.1	-89.9	6.3
2025-01-10 08:51:48.214362	41.9	26.4	-89.1	7.2
2025-01-10 08:51:50.508241	42.3	26.7	-90.2	5.1
2025-01-10 08:51:52.799962	42.7	27.0	-89.7	8.7
2025-01-10 08:51:55.096232	43.1	27.3	-88.0	4.7
2025-01-10 08:51:57.396671	43.5	27.7	-88.2	7.9
2025-01-10 08:51:59.690380	43.9	28.0	-88.7	10.1
2025-01-10 08:52:01.978433	44.3	28.3	-89.4	7.2
2025-01-10 08:52:04.271116	44.8	28.6	-87.4	12.1
2025-01-10 08:52:06.567472	45.2	29.0	-89.7	5.8
2025-01-10 08:52:08.866331	45.7	29.3	-90.1	6.8
2025-01-10 08:52:11.169869	46.1	29.6	-89.1	6.9
2025-01-10 08:52:13.463038	46.6	30.0	-89.1	6.8
2025-01-10 08:52:15.762891	47.1	30.3	-90.1	10.3
2025-01-10 08:52:18.068714	47.6	30.6	-90.8	7.1
2025-01-10 08:52:20.366786	48.1	31.0	-88.6	11.1
2025-01-10 08:52:22.673575	48.6	31.3	-90.7	10.7
2025-01-10 08:52:24.969851	49.1	31.6	-90.3	11.6
2025-01-10 08:52:27.267418	49.6	32.0	-88.8	13.1
2025-01-10 08:52:29.568827	50.2	32.3	-90.4	5.9
2025-01-10 08:52:31.869876	50.7	32.7	-89.0	15.4
2025-01-10 08:52:34.170128	51.3	33.0	-88.2	12.5
2025-01-10 08:52:36.467326	51.9	33.4	-89.5	12.6
2025-01-10 08:52:38.763109	52.5	33.7	-89.5	16.1
2025-01-10 08:52:41.062568	53.1	34.1	-89.9	13.0
2025-01-10 08:52:43.361666	53.7	34.4	-88.9	17.5
2025-01-10 08:52:45.661606	54.3	34.8	-90.7	14.9
2025-01-10 08:52:47.957663	55.0	35.1	-88.8	9.4
2025-01-10 08:52:50.254974	55.6	35.5	-89.7	14.8
2025-01-10 08:52:52.554414	56.3	35.8	-90.1	8.3
2025-01-10 08:52:54.852587	57.0	36.2	-88.1	13.8
2025-01-10 08:52:57.150200	57.7	36.5	-85.1	13.8
2025-01-10 08:52:59.454940	58.4	36.9	-88.3	17.2
2025-01-10 08:53:01.745835	59.1	37.2	-90.1	9.6
2025-01-10 08:53:04.034501	59.9	37.6	-89.8	6.7
2025-01-10 08:53:06.334140	60.6	37.9	-88.6	18.3
2025-01-10 08:53:08.631869	61.4	38.2	-87.4	17.5
2025-01-10 08:53:10.930074	62.2	38.6	-86.9	14.4
2025-01-10 08:53:13.231893	63.0	38.9	-87.3	14.1
2025-01-10 08:53:15.540605	63.8	39.2	-88.2	10.1
2025-01-10 08:53:17.834439	64.7	39.6	-88.6	17.4
2025-01-10 08:53:20.128437	65.5	39.9	-89.4	13.8
2025-01-10 08:53:22.427122	66.4	40.2	-88.0	12.5
2025-01-10 08:53:24.729331	67.3	40.5	-89.5	14.3
2025-01-10 08:53:27.039446	68.2	40.8	-89.3	7.2
2025-01-10 08:53:29.339465	69.1	41.1	-89.6	10.5
2025-01-10 08:53:31.633180	70.1	41.4	-88.8	13.2
2025-01-10 08:53:33.929659	71.0	41.7	-90.3	12.7
2025-01-10 08:53:36.229264	72.0	42.0	-89.4	11.5
2025-01-10 08:53:38.526169	73.0	42.3	-90.3	14.7
2025-01-10 08:53:40.824683	74.0	42.6	-90.2	14.5
2025-01-10 08:53:43.116237	75.1	42.8	-89.6	6.5
2025-01-10 08:53:45.414104	76.1	43.1	-90.1	12.2
2025-01-10 08:53:47.710996	77.2	43.3	-91.5	13.0
2025-01-10 08:53:50.007624	78.2	43.6	-90.1	7.0
2025-01-10 08:53:52.288032	79.3	43.8	-89.9	13.6
2025-01-10 08:53:54.588897	80.4	44.0	-90.4	8.7
2025-01-10 08:53:56.885093	81.6	44.2	-89.6	9.7
2025-01-10 08:53:59.187058	82.7	44.4	-89.5	6.3
2025-01-10 08:54:01.480692	83.9	44.6	-90.5	9.7
2025-01-10 08:54:03.774490	85.0	44.8	-91.1	9.7
2025-01-10 08:54:06.070536	86.2	44.9	-90.4	8.9
2025-01-10 08:54:08.366342	87.4	45.1	-91.0	5.4
2025-01-10 08:54:10.664889	88.6	45.2	-91.3	6.2
2025-01-10 08:54:12.959848	89.8	45.3	-91.2	15.2
2025-01-10 08:54:15.259771	91.0	45.4	-90.5	8.6
2025-01-10 08:54:17.553812	92.2	45.5	-91.0	8.7
2025-01-10 08:54:19.856224	93.5	45.6	-90.0	14.5
2025-01-10 08:54:22.147450	94.7	45.7	-89.9	15.8
2025-01-10 08:54:24.441358	95.9	45.7	-90.5	9.4
2025-01-10 08:54:26.740838	97.2	45.7	-90.8	12.0
2025-01-10 08:54:29.032221	98.4	45.8	-90.0	10.6
2025-01-10 08:54:31.330521	99.7	45.8	-90.3	15.6
2025-01-10 08:54:33.625279	100.9	45.8	-91.5	5.8
2025-01-10 08:54:35.931251	102.2	45.7	-91.2	6.2
2025-01-10 08:54:38.229978	103.4	45.7	-90.9	15.1
2025-01-10 08:54:40.526828	104.7	45.7	-90.9	6.9
2025-01-10 08:54:42.817077	105.9	45.6	-91.4	15.0
2025-01-10 08:54:45.120642	107.1	45.5	-90.4	11.0
2025-01-10 08:54:47.413551	108.4	45.4	-91.4	8.2
2025-01-10 08:54:49.708451	109.6	45.3	-91.0	6.1
2025-01-10 08:54:52.011956	110.8	45.2	-90.6	10.6
2025-01-10 08:54:54.302057	112.0	45.0	-90.9	15.3
2025-01-10 08:54:56.600648	113.2	44.9	-91.1	8.9
2025-01-10 08:54:58.902535	114.3	44.7	-90.2	12.9
2025-01-10 08:55:01.187552	115.5	44.6	-89.5	15.3
2025-01-10 08:55:03.481616	116.7	44.4	-89.8	9.2
2025-01-10 08:55:05.777023	117.8	44.2	-90.1	10.5
2025-01-10 08:55:08.071511	118.9	44.0	-90.3	6.3
2025-01-10 08:55:10.366949	120.0	43.8	-90.6	17.9
2025-01-10 08:55:12.663565	121.1	43.5	-90.9	11.5
2025-01-10 08:55:14.958063	122.2	43.3	-90.6	12.5
2025-01-10 08:55:17.260566	123.3	43.0	-90.9	11.7
2025-01-10 08:55:19.560036	124.3	42.8	-91.5	11.2
2025-01-10 08:55:21.856770	125.4	42.5	-91.2	19.7
2025-01-10 08:55:24.151282	126.4	42.2	-90.6	15.4
2025-01-10 08:55:26.446277	127.4	42.0	-91.2	13.7
2025-01-10 08:55:28.754403	128.3	41.7	-90.7	16.4
2025-01-10 08:55:31.056649	129.3	41.4	-91.2	10.7
2025-01-10 08:55:33.358350	130.3	41.1	-91.2	20.6
2025-01-10 08:55:35.656044	131.2	40.8	-91.3	14.2
2025-01-10 08:55:37.950341	132.1	40.5	-91.5	13.6
2025-01-10 08:55:40.251286	133.0	40.1	-91.2	20.2
2025-01-10 08:55:42.547212	133.9	39.8	-91.1	11.0
2025-01-10 08:55:44.844203	134.7	39.5	-91.6	18.6
2025-01-10 08:55:47.145145	135.6	39.2	-91.1	14.0
2025-01-10 08:55:49.438951	136.4	38.8	-91.5	10.9
2025-01-10 08:55:51.738780	137.2	38.5	-91.1	14.0
2025-01-10 08:55:54.041847	138.0	38.1	-91.5	10.4
2025-01-10 08:55:56.336421	138.8	37.8	-90.9	8.9
2025-01-10 08:55:58.630030	139.5	37.5	-91.0	16.5
2025-01-10 08:56:00.920821	140.3	37.1	-91.2	15.2
2025-01-10 08:56:03.220340	141.0	36.8	-90.8	14.5
2025-01-10 08:56:05.517590	141.7	36.4	-91.3	14.7
2025-01-10 08:56:07.810621	142.4	36.1	-91.3	14.2
2025-01-10 08:56:10.108922	143.1	35.7	-91.3	11.0
2025-01-10 08:56:12.409987	143.8	35.4	-91.0	8.9
2025-01-10 08:56:14.699121	144.4	35.0	-91.1	10.1
2025-01-10 08:56:16.997307	145.1	34.7	-91.3	9.0
2025-01-10 08:56:19.293737	145.7	34.3	-90.6	9.5
2025-01-10 08:56:21.593567	146.3	33.9	-91.3	6.7
2025-01-10 08:56:23.892121	146.9	33.6	-91.1	4.6
2025-01-10 08:56:26.183546	147.5	33.2	-90.8	8.7
2025-01-10 08:56:28.479576	148.1	32.9	-91.1	9.7
2025-01-10 08:56:30.773194	148.7	32.5	-90.9	11.5
2025-01-10 08:56:33.070918	149.2	32.2	-91.3	12.2
2025-01-10 08:56:35.362407	149.8	31.9	-91.3	8.7
2025-01-10 08:56:37.661741	150.3	31.5	-91.2	8.6
2025-01-10 08:56:39.954812	150.8	31.2	-91.4	5.8
2025-01-10 08:56:42.249670	151.3	30.8	-90.9	7.9
2025-01-10 08:56:44.536406	151.8	30.5	-91.1	7.3
2025-01-10 08:56:46.828354	152.3	30.1	-91.4	12.0
2025-01-10 08:56:49.122295	152.8	29.8	-90.6	9.8
2025-01-10 08:56:51.415727	153.3	29.5	-91.3	9.8
2025-01-10 08:56:53.723475	153.7	29.1	-90.1	8.1
2025-01-10 08:56:56.018485	154.2	28.8	-90.4	8.5
2025-01-10 08:56:58.312922	154.6	28.5	-90.0	11.4
2025-01-10 08:57:00.601941	155.1	28.1	-90.0	8.0
2025-01-10 08:57:02.905238	155.5	27.8	-90.4	7.8
2025-01-10 08:57:05.205255	155.9	27.5	-89.8	7.6
2025-01-10 08:57:07.501398	156.3	27.2	-90.8	3.4
2025-01-10 08:57:09.798952	156.7	26.8	-90.8	10.4
2025-01-10 08:57:12.093209	157.1	26.5	-91.1	8.1
2025-01-10 08:57:14.392725	157.5	26.2	-91.2	10.4
2025-01-10 08:57:16.689234	157.9	25.9	-90.8	9.1
2025-01-10 08:57:18.984257	158.3	25.6	-91.3	10.1
2025-01-10 08:57:21.277466	158.6	25.3	-90.8	9.3
2025-01-10 08:57:23.577042	159.0	25.0	-91.5	7.7
2025-01-10 08:57:25.877682	159.4	24.7	-90.3	10.3
2025-01-10 08:57:28.172206	159.7	24.4	-90.1	8.3
2025-01-10 08:57:30.468290	160.0	24.1	-90.3	9.9
2025-01-10 08:57:32.765811	160.4	23.8	-91.6	8.6
2025-01-10 08:57:35.060678	160.7	23.5	-91.0	7.3
2025-01-10 08:57:37.352715	161.0	23.2	-90.4	7.1
2025-01-10 08:57:39.651343	161.3	22.9	-91.6	5.6
2025-01-10 08:57:41.947173	161.6	22.6	-91.1	5.2
2025-01-10 08:57:44.241552	162.0	22.3	-90.4	7.8
2025-01-10 08:57:46.537804	162.3	22.0	-91.5	5.5
2025-01-10 08:57:48.838569	162.5	21.8	-91.3	9.7
2025-01-10 08:57:51.131972	162.8	21.5	-90.8	8.6
2025-01-10 08:57:53.424741	163.1	21.2	-90.8	6.1
2025-01-10 08:57:55.723523	163.4	20.9	-91.6	7.2
2025-01-10 08:57:58.019314	163.7	20.7	-91.5	4.8
2025-01-10 08:58:00.313848	163.9	20.4	-91.1	5.9
2025-01-10 08:58:02.612586	164.2	20.1	-90.2	5.2
2025-01-10 08:58:04.905393	164.5	19.9	-90.6	4.2
2025-01-10 08:58:07.199170	164.7	19.6	-90.8	7.6
2025-01-10 08:58:09.492954	165.0	19.3	-90.6	5.1
2025-01-10 08:58:11.792502	165.2	19.1	-90.2	6.2
2025-01-10 08:58:14.087772	165.5	18.8	-91.3	5.3
2025-01-10 08:58:16.381203	165.7	18.6	-91.2	5.5
2025-01-10 08:58:18.688538	166.0	18.3	-90.9	4.1
2025-01-10 08:58:20.984246	166.2	18.1	-91.5	4.4
2025-01-10 08:58:23.279323	166.4	17.8	-91.0	3.5
2025-01-10 08:58:25.577987	166.7	17.6	-90.9	3.7
2025-01-10 08:58:27.874830	166.9	17.3	-91.8	5.1
2025-01-10 08:58:30.172607	167.1	17.1	-91.1	4.3
2025-01-10 08:58:32.474095	167.3	16.9	-91.7	4.8
2025-01-10 08:58:34.774010	167.5	16.6	-91.5	5.4
2025-01-10 08:58:37.064760	167.7	16.4	-91.3	4.7
2025-01-10 08:58:39.304665	167.9	16.2	-91.1	5.2
2025-01-10 08:58:41.545882	168.1	15.9	-90.4	5.6
2025-01-10 08:58:43.786471	168.3	15.7	-90.2	5.0
2025-01-10 08:58:46.044180	168.5	15.5	-90.6	4.6
2025-01-10 08:58:48.316647	168.7	15.3	-90.6	4.5
2025-01-10 08:58:50.609750	168.9	15.0	-90.4	6.2
2025-01-10 08:58:52.916372	169.1	14.8	-91.3	8.9
2025-01-10 08:58:55.210299	169.3	14.6	-90.6	7.3
#Closed at: 2025-01-10 08:50:13.800678