passes_logs/2025/01/10/LEX_Murmansk/LEX_Murmansk__20250110_150419_NOAA_19_rec.log

#Pass ID: 20250110_150419_NOAA 19
#Satellite: NOAA 19
#Configuration: NOAA 19
#Start time: 2025-01-10 15:04:14.729207

#LorettStation: 1.0.0 05.05.2024
#Station: LEX_Murmansk
#Location: 33.156738 lon 68.926811 lat
#TLE: 1 33591U 09005A   25009.90667525  .00000313  00000+0  19132-3 0  9996
#TLE: 2 33591  99.0207  73.6295 0014600  71.1816 289.0938 14.13255869820561

#Time	Az	El	Level	SNR
2025-01-10 15:04:26.956898	76.7	16.1	-89.0	3.2
2025-01-10 15:04:28.111913	76.5	16.2	-89.3	6.4
2025-01-10 15:04:29.267433	76.4	16.3	-89.2	2.7
2025-01-10 15:04:30.414201	76.2	16.4	-89.3	2.5
2025-01-10 15:04:31.574253	76.0	16.5	-89.1	3.6
2025-01-10 15:04:32.726250	75.9	16.6	-89.1	1.1
2025-01-10 15:04:33.874599	75.7	16.7	-88.8	6.3
2025-01-10 15:04:35.030086	75.6	16.8	-89.3	3.6
2025-01-10 15:04:36.182435	75.4	16.9	-89.5	4.0
2025-01-10 15:04:37.336913	75.2	17.0	-89.5	9.9
2025-01-10 15:04:38.491893	75.1	17.1	-89.1	4.4
2025-01-10 15:04:39.640914	74.9	17.2	-89.7	7.1
2025-01-10 15:04:40.785827	74.7	17.3	-89.2	3.6
2025-01-10 15:04:41.940582	74.6	17.4	-89.4	4.1
2025-01-10 15:04:43.083583	74.4	17.5	-89.2	9.8
2025-01-10 15:04:44.236359	74.2	17.6	-89.3	5.2
2025-01-10 15:04:45.390859	74.0	17.7	-88.8	9.0
2025-01-10 15:04:46.539993	73.9	17.8	-88.8	6.1
2025-01-10 15:04:47.689922	73.7	17.9	-89.4	3.7
2025-01-10 15:04:48.842993	73.5	18.0	-89.6	1.7
2025-01-10 15:04:49.998006	73.3	18.1	-89.8	3.0
2025-01-10 15:04:51.153231	73.2	18.2	-89.4	4.0
2025-01-10 15:04:52.300095	73.0	18.3	-89.8	2.7
2025-01-10 15:04:53.450845	72.8	18.4	-89.5	9.0
2025-01-10 15:04:54.604318	72.6	18.5	-90.0	8.4
2025-01-10 15:04:55.751463	72.4	18.6	-89.7	9.6
2025-01-10 15:04:56.900748	72.3	18.7	-89.7	6.3
2025-01-10 15:04:58.053827	72.1	18.8	-89.6	7.4
2025-01-10 15:04:59.201611	71.9	18.9	-89.7	4.9
2025-01-10 15:05:00.344099	71.7	19.0	-89.5	5.7
2025-01-10 15:05:01.489444	71.5	19.1	-90.0	8.0
2025-01-10 15:05:02.643898	71.3	19.2	-90.2	7.9
2025-01-10 15:05:03.796397	71.1	19.3	-90.4	6.5
2025-01-10 15:05:04.945988	70.9	19.4	-89.6	6.9
2025-01-10 15:05:06.090600	70.7	19.5	-89.8	5.3
2025-01-10 15:05:07.251223	70.5	19.6	-89.6	3.3
2025-01-10 15:05:08.402412	70.3	19.8	-89.9	3.8
2025-01-10 15:05:09.555305	70.1	19.9	-89.5	4.3
2025-01-10 15:05:10.716900	69.9	20.0	-90.1	3.5
2025-01-10 15:05:11.868905	69.7	20.1	-90.2	4.5
2025-01-10 15:05:13.022787	69.5	20.2	-90.0	5.4
2025-01-10 15:05:14.176124	69.3	20.3	-89.6	6.4
2025-01-10 15:05:15.335951	69.1	20.4	-89.9	11.1
2025-01-10 15:05:16.484981	68.9	20.5	-89.8	14.1
2025-01-10 15:05:17.643413	68.7	20.6	-90.0	9.2
2025-01-10 15:05:18.795696	68.5	20.7	-89.9	6.3
2025-01-10 15:05:19.944280	68.3	20.8	-89.9	7.2
2025-01-10 15:05:21.096726	68.1	20.9	-89.0	4.6
2025-01-10 15:05:22.249234	67.8	21.0	-89.6	7.6
2025-01-10 15:05:23.395260	67.6	21.1	-89.8	5.9
2025-01-10 15:05:24.545910	67.4	21.2	-89.6	10.9
2025-01-10 15:05:25.702911	67.2	21.3	-89.7	12.3
2025-01-10 15:05:26.860085	67.0	21.4	-90.1	6.5
2025-01-10 15:05:28.009430	66.8	21.5	-90.1	4.4
2025-01-10 15:05:29.155988	66.5	21.7	-89.6	6.0
2025-01-10 15:05:30.312931	66.3	21.8	-89.7	2.3
2025-01-10 15:05:31.457296	66.1	21.9	-89.7	3.5
2025-01-10 15:05:32.608418	65.8	22.0	-89.1	4.5
2025-01-10 15:05:33.759625	65.6	22.1	-89.9	4.2
2025-01-10 15:05:34.916694	65.4	22.2	-89.5	6.0
2025-01-10 15:05:36.065944	65.1	22.3	-89.4	9.1
2025-01-10 15:05:37.215625	64.9	22.4	-89.2	10.5
2025-01-10 15:05:38.364724	64.7	22.5	-89.4	14.3
2025-01-10 15:05:39.517848	64.4	22.6	-89.9	10.9
2025-01-10 15:05:40.670250	64.2	22.7	-89.6	6.0
2025-01-10 15:05:41.828168	64.0	22.8	-89.5	7.0
2025-01-10 15:05:42.981008	63.7	22.9	-89.4	5.0
2025-01-10 15:05:44.136796	63.5	23.0	-89.5	9.1
2025-01-10 15:05:45.288346	63.2	23.1	-89.2	9.2
2025-01-10 15:05:46.434990	63.0	23.2	-89.7	7.3
2025-01-10 15:05:47.584642	62.7	23.3	-89.5	9.3
2025-01-10 15:05:48.733693	62.5	23.4	-89.9	8.0
2025-01-10 15:05:49.892990	62.2	23.5	-89.8	7.4
2025-01-10 15:05:51.045753	62.0	23.6	-89.9	4.8
2025-01-10 15:05:52.193673	61.7	23.7	-89.7	2.2
2025-01-10 15:05:53.339370	61.5	23.8	-89.8	3.1
2025-01-10 15:05:54.492193	61.2	23.9	-90.0	3.0
2025-01-10 15:05:55.648327	60.9	24.0	-90.2	3.6
2025-01-10 15:05:56.795668	60.7	24.2	-89.8	4.9
2025-01-10 15:05:57.948294	60.4	24.3	-90.0	6.7
2025-01-10 15:05:59.104573	60.1	24.4	-89.8	5.3
2025-01-10 15:06:00.246624	59.9	24.5	-89.7	5.6
2025-01-10 15:06:01.400804	59.6	24.6	-89.7	5.8
2025-01-10 15:06:02.553005	59.3	24.7	-90.1	8.2
2025-01-10 15:06:03.703936	59.0	24.8	-90.5	6.8
2025-01-10 15:06:04.853220	58.8	24.9	-90.3	4.1
2025-01-10 15:06:06.004265	58.5	25.0	-90.3	4.4
2025-01-10 15:06:07.156501	58.2	25.1	-90.0	3.2
2025-01-10 15:06:08.321851	57.9	25.2	-90.3	5.6
2025-01-10 15:06:09.473666	57.6	25.3	-90.2	6.4
2025-01-10 15:06:10.628002	57.4	25.4	-90.5	10.7
2025-01-10 15:06:11.779265	57.1	25.4	-90.1	10.3
2025-01-10 15:06:12.936081	56.8	25.5	-90.3	6.7
2025-01-10 15:06:14.089270	56.5	25.6	-90.1	4.6
2025-01-10 15:06:15.247338	56.2	25.7	-90.1	3.8
2025-01-10 15:06:16.392998	55.9	25.8	-90.1	1.9
2025-01-10 15:06:17.542403	55.6	25.9	-89.9	1.7
2025-01-10 15:06:18.689599	55.3	26.0	-90.3	3.1
2025-01-10 15:06:19.848171	55.0	26.1	-90.5	3.0
2025-01-10 15:06:21.005227	54.7	26.2	-90.1	2.3
2025-01-10 15:06:22.158271	54.4	26.3	-90.1	3.0
2025-01-10 15:06:23.313206	54.1	26.4	-89.5	2.7
2025-01-10 15:06:24.462056	53.8	26.5	-90.2	4.5
2025-01-10 15:06:25.609390	53.5	26.6	-90.3	8.1
2025-01-10 15:06:26.760471	53.2	26.7	-90.5	3.8
2025-01-10 15:06:27.899768	52.9	26.8	-90.5	4.0
2025-01-10 15:06:29.052719	52.6	26.8	-90.0	4.8
2025-01-10 15:06:30.207971	52.3	26.9	-90.0	3.7
2025-01-10 15:06:31.354168	51.9	27.0	-89.4	3.3
2025-01-10 15:06:32.509632	51.6	27.1	-89.9	4.0
2025-01-10 15:06:33.659088	51.3	27.2	-89.9	3.8
2025-01-10 15:06:34.812085	51.0	27.3	-90.5	4.2
2025-01-10 15:06:35.962070	50.7	27.4	-90.1	5.4
2025-01-10 15:06:37.110289	50.3	27.5	-89.8	3.8
2025-01-10 15:06:38.262080	50.0	27.5	-89.7	3.3
2025-01-10 15:06:39.413187	49.7	27.6	-89.8	6.8
2025-01-10 15:06:40.565740	49.3	27.7	-90.1	4.9
2025-01-10 15:06:41.713523	49.0	27.8	-89.7	4.0
2025-01-10 15:06:42.869208	48.7	27.9	-89.8	1.6
2025-01-10 15:06:44.018621	48.3	27.9	-89.7	4.2
2025-01-10 15:06:45.165696	48.0	28.0	-90.1	1.5
2025-01-10 15:06:46.315658	47.7	28.1	-90.2	4.1
2025-01-10 15:06:47.473838	47.3	28.2	-90.2	3.6
2025-01-10 15:06:48.630517	47.0	28.3	-89.8	5.6
2025-01-10 15:06:49.788451	46.6	28.3	-89.6	4.0
2025-01-10 15:06:50.941697	46.3	28.4	-90.2	3.5
2025-01-10 15:06:52.098402	45.9	28.5	-89.8	3.8
2025-01-10 15:06:53.252305	45.6	28.5	-89.8	3.0
2025-01-10 15:06:54.402711	45.3	28.6	-90.0	5.4
2025-01-10 15:06:55.550600	44.9	28.7	-90.3	7.2
2025-01-10 15:06:56.698801	44.5	28.8	-89.9	7.0
2025-01-10 15:06:57.852558	44.2	28.8	-90.1	10.4
2025-01-10 15:06:59.011433	43.8	28.9	-90.0	9.5
2025-01-10 15:07:00.163498	43.5	29.0	-90.1	7.7
2025-01-10 15:07:01.305450	43.1	29.0	-89.9	5.3
2025-01-10 15:07:02.460515	42.8	29.1	-90.1	7.4
2025-01-10 15:07:03.610390	42.4	29.1	-89.9	5.1
2025-01-10 15:07:04.760058	42.0	29.2	-90.0	4.3
2025-01-10 15:07:05.908201	41.7	29.3	-90.4	3.6
2025-01-10 15:07:07.039070	41.3	29.3	-89.5	5.5
2025-01-10 15:07:08.189819	41.0	29.4	-90.0	4.6
2025-01-10 15:07:09.339507	40.6	29.4	-89.7	3.9
2025-01-10 15:07:10.500139	40.2	29.5	-90.0	6.4
2025-01-10 15:07:11.651813	39.8	29.5	-89.8	9.0
2025-01-10 15:07:12.801730	39.5	29.6	-90.1	9.0
2025-01-10 15:07:13.952232	39.1	29.7	-89.8	8.5
2025-01-10 15:07:15.107274	38.7	29.7	-89.7	7.9
2025-01-10 15:07:16.253307	38.3	29.8	-89.9	8.2
2025-01-10 15:07:17.406545	38.0	29.8	-89.9	7.7
2025-01-10 15:07:18.563232	37.6	29.8	-90.1	10.1
2025-01-10 15:07:19.717588	37.2	29.9	-90.3	9.5
2025-01-10 15:07:20.874034	36.8	29.9	-90.4	10.2
2025-01-10 15:07:22.032979	36.4	30.0	-90.0	7.8
2025-01-10 15:07:23.179485	36.1	30.0	-90.0	4.9
2025-01-10 15:07:24.336689	35.7	30.1	-89.9	5.3
2025-01-10 15:07:25.491004	35.3	30.1	-90.2	5.2
2025-01-10 15:07:26.636835	34.9	30.1	-90.2	4.4
2025-01-10 15:07:27.790820	34.5	30.2	-90.4	3.9
2025-01-10 15:07:28.940511	34.1	30.2	-90.2	3.6
2025-01-10 15:07:30.096582	33.8	30.2	-90.2	4.1
2025-01-10 15:07:31.244158	33.4	30.3	-90.2	4.2
2025-01-10 15:07:32.395132	33.0	30.3	-89.9	4.6
2025-01-10 15:07:33.537287	32.6	30.3	-90.6	4.1
2025-01-10 15:07:34.688958	32.2	30.3	-90.3	3.8
2025-01-10 15:07:35.837445	31.8	30.4	-90.3	5.7
2025-01-10 15:07:36.980255	31.4	30.4	-90.1	7.8
2025-01-10 15:07:38.128918	31.0	30.4	-90.1	8.6
2025-01-10 15:07:39.286790	30.6	30.4	-90.2	10.6
2025-01-10 15:07:40.444943	30.2	30.5	-90.2	6.8
2025-01-10 15:07:41.595804	29.9	30.5	-90.4	9.1
2025-01-10 15:07:42.754215	29.5	30.5	-90.3	8.1
2025-01-10 15:07:43.910466	29.1	30.5	-90.4	10.0
2025-01-10 15:07:45.059826	28.7	30.5	-90.1	8.4
2025-01-10 15:07:46.214979	28.3	30.5	-90.3	4.3
2025-01-10 15:07:47.362101	27.9	30.5	-90.3	2.3
2025-01-10 15:07:48.515259	27.5	30.5	-90.4	6.0
2025-01-10 15:07:49.671020	27.1	30.6	-90.6	6.9
2025-01-10 15:07:50.827365	26.7	30.6	-90.7	5.2
2025-01-10 15:07:51.972862	26.3	30.6	-90.2	3.9
2025-01-10 15:07:53.124891	25.9	30.6	-90.2	6.4
2025-01-10 15:07:54.268377	25.5	30.6	-90.3	5.4
2025-01-10 15:07:55.416648	25.1	30.6	-89.5	4.7
2025-01-10 15:07:56.568220	24.7	30.6	-90.2	6.0
2025-01-10 15:07:57.720120	24.3	30.6	-90.3	1.9
2025-01-10 15:07:58.873068	23.9	30.6	-90.4	3.8
2025-01-10 15:08:00.018966	23.5	30.5	-90.4	3.8
2025-01-10 15:08:01.161319	23.1	30.5	-90.4	2.9
2025-01-10 15:08:02.313929	22.7	30.5	-90.5	4.4
2025-01-10 15:08:03.463286	22.4	30.5	-90.4	4.8
2025-01-10 15:08:04.618597	22.0	30.5	-90.5	5.5
2025-01-10 15:08:05.770266	21.6	30.5	-90.2	4.1
2025-01-10 15:08:06.920137	21.2	30.5	-90.0	5.2
2025-01-10 15:08:08.073213	20.8	30.5	-90.4	5.1
2025-01-10 15:08:09.220247	20.4	30.4	-89.7	3.9
2025-01-10 15:08:10.368933	20.0	30.4	-90.0	4.9
2025-01-10 15:08:11.526201	19.6	30.4	-90.1	6.3
2025-01-10 15:08:12.681094	19.2	30.4	-90.0	3.1
2025-01-10 15:08:13.836576	18.8	30.3	-90.3	6.7
2025-01-10 15:08:14.986648	18.4	30.3	-90.3	6.8
2025-01-10 15:08:16.143244	18.0	30.3	-90.3	11.2
2025-01-10 15:08:17.288311	17.7	30.3	-90.2	5.6
2025-01-10 15:08:18.449621	17.3	30.2	-90.2	7.4
2025-01-10 15:08:19.596781	16.9	30.2	-90.3	7.3
2025-01-10 15:08:20.743768	16.5	30.2	-90.2	7.7
2025-01-10 15:08:21.902445	16.1	30.1	-90.7	10.2
2025-01-10 15:08:23.059311	15.7	30.1	-90.5	10.5
2025-01-10 15:08:24.211482	15.3	30.0	-88.6	6.4
2025-01-10 15:08:25.356004	15.0	30.0	-90.5	7.8
2025-01-10 15:08:26.502986	14.6	30.0	-90.7	7.7
2025-01-10 15:08:27.670573	14.2	29.9	-90.5	9.3
2025-01-10 15:08:28.821301	13.8	29.9	-90.2	10.8
2025-01-10 15:08:29.967250	13.4	29.8	-90.6	8.5
2025-01-10 15:08:31.125751	13.1	29.8	-90.0	9.1
2025-01-10 15:08:32.275992	12.7	29.7	-90.0	8.2
2025-01-10 15:08:33.429658	12.3	29.7	-89.8	8.7
2025-01-10 15:08:34.579166	11.9	29.6	-89.9	8.3
2025-01-10 15:08:35.727225	11.6	29.6	-89.7	5.8
2025-01-10 15:08:36.876558	11.2	29.5	-89.8	5.8
2025-01-10 15:08:38.023021	10.8	29.5	-90.1	6.8
2025-01-10 15:08:39.173235	10.5	29.4	-89.9	5.6
2025-01-10 15:08:40.337495	10.1	29.4	-90.3	3.1
2025-01-10 15:08:41.481714	9.7	29.3	-90.4	3.2
2025-01-10 15:08:42.637095	9.4	29.3	-90.5	4.5
2025-01-10 15:08:43.790333	9.0	29.2	-90.5	3.0
2025-01-10 15:08:44.940381	8.6	29.1	-90.3	4.1
2025-01-10 15:08:46.087299	8.3	29.1	-90.2	6.7
2025-01-10 15:08:47.238764	7.9	29.0	-90.4	6.1
2025-01-10 15:08:48.389720	7.6	28.9	-90.0	8.0
2025-01-10 15:08:49.536777	7.2	28.9	-90.4	5.6
2025-01-10 15:08:50.685753	6.8	28.8	-90.1	7.4
2025-01-10 15:08:51.839817	6.5	28.7	-90.6	6.9
2025-01-10 15:08:52.986784	6.1	28.7	-90.5	5.1
2025-01-10 15:08:54.143734	5.8	28.6	-90.6	6.1
2025-01-10 15:08:55.296556	5.4	28.5	-90.1	3.8
2025-01-10 15:08:56.452645	5.1	28.5	-90.6	5.4
2025-01-10 15:08:57.600012	4.7	28.4	-90.5	5.2
2025-01-10 15:08:58.750743	4.4	28.3	-90.1	5.8
2025-01-10 15:08:59.909280	4.1	28.2	-90.3	4.4
2025-01-10 15:09:01.051942	3.7	28.2	-90.3	5.0
2025-01-10 15:09:02.213457	3.4	28.1	-90.0	5.3
2025-01-10 15:09:03.372922	3.0	28.0	-90.3	5.2
2025-01-10 15:09:04.522396	2.7	27.9	-90.4	3.3
2025-01-10 15:09:05.672305	2.4	27.9	-90.0	4.3
2025-01-10 15:09:06.821718	2.0	27.8	-89.9	4.7
2025-01-10 15:09:07.970960	1.7	27.7	-90.2	5.7
2025-01-10 15:09:09.121113	1.4	27.6	-90.0	8.1
2025-01-10 15:09:10.268795	1.0	27.5	-90.0	5.3
2025-01-10 15:09:11.416294	0.7	27.4	-90.8	5.8
2025-01-10 15:09:12.573774	0.4	27.4	-90.4	5.6
2025-01-10 15:09:13.721961	0.1	27.3	-90.4	4.3
2025-01-10 15:09:14.871932	359.8	27.2	-90.0	5.3
2025-01-10 15:09:16.020376	359.4	27.1	-90.3	3.3
2025-01-10 15:09:17.165330	359.1	27.0	-90.6	3.8
2025-01-10 15:09:18.315085	358.8	26.9	-90.4	3.7
2025-01-10 15:09:19.469024	358.5	26.8	-90.9	4.5
2025-01-10 15:09:20.626232	358.2	26.8	-90.7	5.5
2025-01-10 15:09:21.777922	357.9	26.7	-91.0	4.2
2025-01-10 15:09:22.925444	357.6	26.6	-90.7	4.9
2025-01-10 15:09:24.073823	357.3	26.5	-90.6	3.1
2025-01-10 15:09:25.226898	356.9	26.4	-90.6	2.5
2025-01-10 15:09:26.377948	356.6	26.3	-90.3	5.4
2025-01-10 15:09:27.522205	356.3	26.2	-90.9	3.0
2025-01-10 15:09:28.678325	356.0	26.1	-91.2	4.8
2025-01-10 15:09:29.825458	355.7	26.0	-90.5	2.5
2025-01-10 15:09:30.981684	355.5	25.9	-90.7	2.9
2025-01-10 15:09:32.131582	355.2	25.8	-90.5	5.3
2025-01-10 15:09:33.284978	354.9	25.7	-90.4	3.1
2025-01-10 15:09:34.442531	354.6	25.6	-90.6	5.2
2025-01-10 15:09:35.597603	354.3	25.5	-90.8	5.9
2025-01-10 15:09:36.744384	354.0	25.4	-90.6	4.4
2025-01-10 15:09:37.896083	353.7	25.3	-90.9	5.7
2025-01-10 15:09:39.024972	353.4	25.3	-90.5	5.4
2025-01-10 15:09:40.150185	353.2	25.2	-90.6	7.1
2025-01-10 15:09:41.272828	352.9	25.1	-90.6	5.9
2025-01-10 15:09:42.408900	352.6	25.0	-90.4	8.2
2025-01-10 15:09:43.556549	352.3	24.9	-90.5	9.5
2025-01-10 15:09:44.711244	352.1	24.8	-90.3	7.9
2025-01-10 15:09:45.866073	351.8	24.7	-90.6	8.4
2025-01-10 15:09:47.012790	351.5	24.6	-90.1	9.6
2025-01-10 15:09:48.162550	351.2	24.5	-89.9	10.8
2025-01-10 15:09:49.313708	351.0	24.4	-90.4	9.0
2025-01-10 15:09:50.464533	350.7	24.3	-90.9	7.7
2025-01-10 15:09:51.617577	350.4	24.2	-90.7	8.9
2025-01-10 15:09:52.778818	350.2	24.1	-91.0	8.4
2025-01-10 15:09:53.934478	349.9	24.0	-90.5	6.8
2025-01-10 15:09:55.078273	349.7	23.9	-90.6	8.1
2025-01-10 15:09:56.233665	349.4	23.7	-90.5	5.8
2025-01-10 15:09:57.385742	349.1	23.6	-90.6	7.6
2025-01-10 15:09:58.543224	348.9	23.5	-90.8	7.2
2025-01-10 15:09:59.698982	348.6	23.4	-90.6	4.9
2025-01-10 15:10:00.841903	348.4	23.3	-90.8	3.5
2025-01-10 15:10:01.995277	348.1	23.2	-90.6	3.4
2025-01-10 15:10:03.147271	347.9	23.1	-90.7	2.8
2025-01-10 15:10:04.298369	347.6	23.0	-90.7	2.7
2025-01-10 15:10:05.456853	347.4	22.9	-91.0	3.9
2025-01-10 15:10:06.610183	347.2	22.8	-90.5	4.4
2025-01-10 15:10:07.764535	346.9	22.7	-90.8	3.0
2025-01-10 15:10:08.907302	346.7	22.6	-90.7	5.3
2025-01-10 15:10:10.055323	346.4	22.5	-90.3	4.7
2025-01-10 15:10:11.209664	346.2	22.4	-90.7	2.9
2025-01-10 15:10:12.360641	346.0	22.3	-90.7	5.2
2025-01-10 15:10:13.511358	345.7	22.2	-91.1	5.3
2025-01-10 15:10:14.657396	345.5	22.1	-90.7	6.0
2025-01-10 15:10:15.803632	345.3	22.0	-90.4	6.9
2025-01-10 15:10:16.948243	345.1	21.9	-90.8	9.1
2025-01-10 15:10:18.103863	344.8	21.8	-90.7	8.0
2025-01-10 15:10:19.264164	344.6	21.7	-90.3	8.5
2025-01-10 15:10:20.416503	344.4	21.6	-90.7	9.6
2025-01-10 15:10:21.569164	344.2	21.5	-91.0	7.0
2025-01-10 15:10:22.717811	343.9	21.4	-90.8	6.5
2025-01-10 15:10:23.868337	343.7	21.2	-90.5	6.1
2025-01-10 15:10:25.017992	343.5	21.1	-90.5	5.6
2025-01-10 15:10:26.171713	343.3	21.0	-90.6	4.4
2025-01-10 15:10:27.314858	343.1	20.9	-90.4	4.6
2025-01-10 15:10:28.459344	342.9	20.8	-90.2	3.4
2025-01-10 15:10:29.614394	342.6	20.7	-90.7	3.0
2025-01-10 15:10:30.763020	342.4	20.6	-90.3	4.3
2025-01-10 15:10:31.915199	342.2	20.5	-90.4	2.8
2025-01-10 15:10:33.067421	342.0	20.4	-90.5	3.1
2025-01-10 15:10:34.227454	341.8	20.3	-90.4	3.8
2025-01-10 15:10:35.376991	341.6	20.2	-90.2	3.6
2025-01-10 15:10:36.526495	341.4	20.1	-90.6	4.7
2025-01-10 15:10:37.677159	341.2	20.0	-89.4	4.8
2025-01-10 15:10:38.828266	341.0	19.9	-89.5	4.0
2025-01-10 15:10:39.979205	340.8	19.8	-89.9	5.6
2025-01-10 15:10:41.125951	340.6	19.7	-90.4	3.4
2025-01-10 15:10:42.280487	340.4	19.6	-89.5	3.7
2025-01-10 15:10:43.433891	340.2	19.5	-89.6	4.1
2025-01-10 15:10:44.586931	340.0	19.4	-90.2	2.4
2025-01-10 15:10:45.744058	339.8	19.3	-90.4	2.9
2025-01-10 15:10:46.893609	339.6	19.1	-90.6	2.5
2025-01-10 15:10:48.044085	339.5	19.0	-90.6	2.8
2025-01-10 15:10:49.194125	339.3	18.9	-90.1	2.3
2025-01-10 15:10:50.343449	339.1	18.8	-90.3	4.1
2025-01-10 15:10:51.492050	338.9	18.7	-90.6	2.4
2025-01-10 15:10:52.647566	338.7	18.6	-90.6	2.4
2025-01-10 15:10:53.805504	338.5	18.5	-90.5	0.6
2025-01-10 15:10:54.956431	338.3	18.4	-90.9	3.4
2025-01-10 15:10:56.105116	338.2	18.3	-90.0	4.5
2025-01-10 15:10:57.246721	338.0	18.2	-90.3	4.1
2025-01-10 15:10:58.396366	337.8	18.1	-90.6	4.8
2025-01-10 15:10:59.540575	337.6	18.0	-90.6	5.3
2025-01-10 15:11:00.678955	337.5	17.9	-90.6	3.7
2025-01-10 15:11:01.831799	337.3	17.8	-90.8	2.9
2025-01-10 15:11:02.982419	337.1	17.7	-90.3	2.9
2025-01-10 15:11:04.135103	336.9	17.6	-90.5	1.9
2025-01-10 15:11:05.288944	336.8	17.5	-90.5	3.2
2025-01-10 15:11:06.438958	336.6	17.4	-90.8	1.4
2025-01-10 15:11:07.583595	336.4	17.3	-90.5	3.8
2025-01-10 15:11:08.736834	336.3	17.2	-90.5	0.3
2025-01-10 15:11:09.881127	336.1	17.1	-90.6	1.5
2025-01-10 15:11:11.029921	335.9	17.0	-90.7	4.0
2025-01-10 15:11:12.179517	335.8	16.9	-90.2	1.7
2025-01-10 15:11:13.326070	335.6	16.8	-90.4	4.0
2025-01-10 15:11:14.477688	335.5	16.7	-90.8	2.6
2025-01-10 15:11:15.628946	335.3	16.6	-91.0	4.0
2025-01-10 15:11:16.773913	335.1	16.5	-90.6	2.6
2025-01-10 15:11:17.921753	335.0	16.4	-90.2	2.3
2025-01-10 15:11:19.073340	334.8	16.3	-90.6	2.1
2025-01-10 15:11:20.228574	334.7	16.2	-90.3	1.2
2025-01-10 15:11:21.379829	334.5	16.1	-90.6	2.6
2025-01-10 15:11:22.531101	334.4	16.0	-90.6	3.1
2025-01-10 15:11:23.687944	334.2	15.9	-90.5	3.3
2025-01-10 15:11:24.842267	334.0	15.8	-91.0	3.4
2025-01-10 15:11:26.001080	333.9	15.7	-90.7	3.2
2025-01-10 15:11:27.149010	333.7	15.6	-90.7	2.1
2025-01-10 15:11:28.295685	333.6	15.5	-90.2	4.1
2025-01-10 15:11:29.445475	333.4	15.4	-90.1	4.3
2025-01-10 15:11:30.599313	333.3	15.3	-90.3	2.2
2025-01-10 15:11:31.753484	333.2	15.2	-90.8	2.2
2025-01-10 15:11:32.901658	333.0	15.1	-90.6	3.6
2025-01-10 15:11:34.054753	332.9	15.0	-90.4	2.0
2025-01-10 15:11:35.210929	332.7	14.9	-90.3	2.8
2025-01-10 15:11:36.362099	332.6	14.8	-90.5	3.4
2025-01-10 15:11:37.510241	332.4	14.7	-90.7	5.6
2025-01-10 15:11:38.665153	332.3	14.6	-90.8	4.9
#Closed at: 2025-01-10 15:04:19.784590