passes_logs/2025/01/10/LEX_Murmansk/LEX_Murmansk__20250110_153120_NOAA_18_rec.log

#Pass ID: 20250110_153120_NOAA 18
#Satellite: NOAA 18
#Configuration: NOAA 18
#Start time: 2025-01-10 15:31:15.578081

#LorettStation: 1.0.0 05.05.2024
#Station: LEX_Murmansk
#Location: 33.156738 lon 68.926811 lat
#TLE: 1 28654U 05018A   25009.85378120  .00000357  00000+0  21312-3 0  9995
#TLE: 2 28654  98.8576  90.9590 0014108 193.6372 166.4421 14.13482291 12379

#Time	Az	El	Level	SNR
2025-01-10 15:31:27.737752	59.8	15.9	-90.5	6.6
2025-01-10 15:31:28.891423	59.7	16.0	-90.5	5.2
2025-01-10 15:31:30.041328	59.5	16.1	-90.7	3.9
2025-01-10 15:31:31.197776	59.3	16.2	-90.1	7.1
2025-01-10 15:31:32.344275	59.1	16.3	-90.2	6.9
2025-01-10 15:31:33.502225	59.0	16.4	-89.6	7.5
2025-01-10 15:31:34.656619	58.8	16.5	-89.9	5.6
2025-01-10 15:31:35.808320	58.6	16.6	-89.6	7.0
2025-01-10 15:31:36.952916	58.4	16.6	-89.9	4.8
2025-01-10 15:31:38.108343	58.2	16.7	-89.5	4.4
2025-01-10 15:31:39.263702	58.1	16.8	-89.4	8.2
2025-01-10 15:31:40.419191	57.9	16.9	-89.9	6.6
2025-01-10 15:31:41.578242	57.7	17.0	-90.1	7.7
2025-01-10 15:31:42.726005	57.5	17.1	-90.3	6.2
2025-01-10 15:31:43.880011	57.3	17.2	-90.5	6.8
2025-01-10 15:31:45.032565	57.1	17.3	-90.7	6.6
2025-01-10 15:31:46.190379	56.9	17.4	-90.2	9.5
2025-01-10 15:31:47.347434	56.7	17.4	-90.5	9.7
2025-01-10 15:31:48.501195	56.5	17.5	-90.5	7.8
2025-01-10 15:31:49.659349	56.4	17.6	-90.1	5.8
2025-01-10 15:31:50.812506	56.2	17.7	-90.1	10.1
2025-01-10 15:31:51.963577	56.0	17.8	-90.5	7.5
2025-01-10 15:31:53.115968	55.8	17.9	-90.2	6.6
2025-01-10 15:31:54.268171	55.6	18.0	-90.3	13.2
2025-01-10 15:31:55.424852	55.4	18.1	-91.0	7.2
2025-01-10 15:31:56.571472	55.2	18.2	-90.5	7.2
2025-01-10 15:31:57.724756	55.0	18.2	-90.3	9.1
2025-01-10 15:31:58.880470	54.8	18.3	-90.2	10.7
2025-01-10 15:32:00.034444	54.6	18.4	-90.5	3.6
2025-01-10 15:32:01.182154	54.4	18.5	-90.1	8.3
2025-01-10 15:32:02.341604	54.1	18.6	-90.3	11.7
2025-01-10 15:32:03.491779	53.9	18.7	-90.2	10.9
2025-01-10 15:32:04.649575	53.7	18.8	-90.4	12.5
2025-01-10 15:32:05.801589	53.5	18.9	-90.8	14.4
2025-01-10 15:32:06.955366	53.3	18.9	-90.5	11.0
2025-01-10 15:32:08.107099	53.1	19.0	-90.4	8.5
2025-01-10 15:32:09.262093	52.9	19.1	-90.3	11.8
2025-01-10 15:32:10.415905	52.7	19.2	-90.6	11.6
2025-01-10 15:32:11.564301	52.4	19.3	-90.6	8.2
2025-01-10 15:32:12.718928	52.2	19.4	-90.6	11.5
2025-01-10 15:32:13.871441	52.0	19.5	-90.4	14.6
2025-01-10 15:32:15.023861	51.8	19.6	-90.8	13.1
2025-01-10 15:32:16.177713	51.6	19.6	-90.3	9.6
2025-01-10 15:32:17.341746	51.3	19.7	-90.6	12.1
2025-01-10 15:32:18.498684	51.1	19.8	-90.6	7.2
2025-01-10 15:32:19.653617	50.9	19.9	-91.1	7.2
2025-01-10 15:32:20.809816	50.7	20.0	-90.8	11.1
2025-01-10 15:32:21.960237	50.4	20.1	-90.8	7.7
2025-01-10 15:32:23.104382	50.2	20.2	-90.9	5.6
2025-01-10 15:32:24.254403	50.0	20.2	-90.6	10.4
2025-01-10 15:32:25.408273	49.8	20.3	-90.6	6.4
2025-01-10 15:32:26.564695	49.5	20.4	-91.0	6.6
2025-01-10 15:32:27.721710	49.3	20.5	-90.9	6.3
2025-01-10 15:32:28.875752	49.0	20.6	-90.8	5.0
2025-01-10 15:32:30.032292	48.8	20.7	-90.7	5.8
2025-01-10 15:32:31.190091	48.6	20.8	-90.8	7.8
2025-01-10 15:32:32.341643	48.3	20.8	-90.7	9.0
2025-01-10 15:32:33.489247	48.1	20.9	-91.0	7.9
2025-01-10 15:32:34.647336	47.8	21.0	-91.0	12.0
2025-01-10 15:32:35.800041	47.6	21.1	-90.4	13.2
2025-01-10 15:32:36.953988	47.4	21.2	-90.9	11.3
2025-01-10 15:32:38.107764	47.1	21.3	-90.8	9.7
2025-01-10 15:32:39.256308	46.9	21.3	-90.8	9.5
2025-01-10 15:32:40.408546	46.6	21.4	-90.7	12.6
2025-01-10 15:32:41.568799	46.4	21.5	-91.3	9.8
2025-01-10 15:32:42.724545	46.1	21.6	-91.3	10.7
2025-01-10 15:32:43.871771	45.9	21.7	-91.0	9.9
2025-01-10 15:32:45.022214	45.6	21.7	-91.3	6.3
2025-01-10 15:32:46.177789	45.4	21.8	-90.7	10.1
2025-01-10 15:32:47.337106	45.1	21.9	-90.7	12.5
2025-01-10 15:32:48.487772	44.8	22.0	-90.8	6.9
2025-01-10 15:32:49.638674	44.6	22.1	-91.0	9.7
2025-01-10 15:32:50.789911	44.3	22.1	-91.0	12.3
2025-01-10 15:32:51.950735	44.1	22.2	-90.8	9.2
2025-01-10 15:32:53.108379	43.8	22.3	-90.7	12.5
2025-01-10 15:32:54.256024	43.5	22.4	-90.6	11.1
2025-01-10 15:32:55.408621	43.3	22.5	-90.9	11.3
2025-01-10 15:32:56.563582	43.0	22.5	-91.2	9.9
2025-01-10 15:32:57.715939	42.7	22.6	-91.0	14.2
2025-01-10 15:32:58.869198	42.5	22.7	-90.8	12.0
2025-01-10 15:33:00.018412	42.2	22.8	-90.7	8.4
2025-01-10 15:33:01.161288	41.9	22.8	-90.9	9.7
2025-01-10 15:33:02.309940	41.6	22.9	-90.6	13.8
2025-01-10 15:33:03.457865	41.4	23.0	-90.9	9.5
2025-01-10 15:33:04.607759	41.1	23.1	-90.5	13.8
2025-01-10 15:33:05.763852	40.8	23.1	-90.8	11.6
2025-01-10 15:33:06.918933	40.5	23.2	-90.9	13.6
2025-01-10 15:33:08.070260	40.3	23.3	-91.0	12.4
2025-01-10 15:33:09.218946	40.0	23.3	-90.5	8.6
2025-01-10 15:33:10.369289	39.7	23.4	-90.9	11.4
2025-01-10 15:33:11.527397	39.4	23.5	-91.0	7.4
2025-01-10 15:33:12.675009	39.1	23.6	-91.2	11.5
2025-01-10 15:33:13.826369	38.8	23.6	-91.0	12.3
2025-01-10 15:33:14.984766	38.5	23.7	-91.4	7.6
2025-01-10 15:33:16.140560	38.3	23.8	-90.7	8.9
2025-01-10 15:33:17.287705	38.0	23.8	-90.3	12.1
2025-01-10 15:33:18.437379	37.7	23.9	-90.7	10.2
2025-01-10 15:33:19.596681	37.4	24.0	-91.3	10.6
2025-01-10 15:33:20.754350	37.1	24.0	-91.3	13.0
2025-01-10 15:33:21.914055	36.8	24.1	-91.3	12.7
2025-01-10 15:33:23.055704	36.5	24.1	-91.3	13.6
2025-01-10 15:33:24.210575	36.2	24.2	-90.7	13.8
2025-01-10 15:33:25.359550	35.9	24.3	-90.9	13.4
2025-01-10 15:33:26.519351	35.6	24.3	-90.6	9.9
2025-01-10 15:33:27.669944	35.3	24.4	-91.0	13.7
2025-01-10 15:33:28.828276	35.0	24.5	-91.1	14.4
2025-01-10 15:33:29.975705	34.7	24.5	-90.4	7.9
2025-01-10 15:33:31.126841	34.4	24.6	-90.5	10.8
2025-01-10 15:33:32.288718	34.1	24.6	-90.8	13.3
2025-01-10 15:33:33.442133	33.8	24.7	-90.6	10.1
2025-01-10 15:33:34.602590	33.5	24.7	-91.0	8.7
2025-01-10 15:33:35.753839	33.2	24.8	-91.0	9.7
2025-01-10 15:33:36.907335	32.8	24.9	-91.2	9.6
2025-01-10 15:33:38.053209	32.5	24.9	-90.4	7.5
2025-01-10 15:33:39.199858	32.2	25.0	-89.9	11.0
2025-01-10 15:33:40.351014	31.9	25.0	-89.9	12.7
2025-01-10 15:33:41.500636	31.6	25.1	-91.0	12.8
2025-01-10 15:33:42.652503	31.3	25.1	-90.9	13.8
2025-01-10 15:33:43.797882	31.0	25.2	-90.5	11.7
2025-01-10 15:33:44.949386	30.6	25.2	-91.2	9.6
2025-01-10 15:33:46.099377	30.3	25.3	-91.0	7.1
2025-01-10 15:33:47.250207	30.0	25.3	-90.5	10.2
2025-01-10 15:33:48.408614	29.7	25.4	-90.6	8.3
2025-01-10 15:33:49.574086	29.4	25.4	-91.1	7.4
2025-01-10 15:33:50.727203	29.0	25.4	-90.7	11.9
2025-01-10 15:33:51.894061	28.7	25.5	-91.2	11.0
2025-01-10 15:33:53.042529	28.4	25.5	-91.0	8.0
2025-01-10 15:33:54.197932	28.1	25.6	-90.6	12.9
2025-01-10 15:33:55.354215	27.7	25.6	-90.6	11.9
2025-01-10 15:33:56.511396	27.4	25.6	-90.8	10.3
2025-01-10 15:33:57.658067	27.1	25.7	-90.2	13.7
2025-01-10 15:33:58.815688	26.8	25.7	-90.8	10.6
2025-01-10 15:33:59.962723	26.4	25.8	-90.9	12.0
2025-01-10 15:34:01.104855	26.1	25.8	-90.7	14.1
2025-01-10 15:34:02.258757	25.8	25.8	-90.6	11.2
2025-01-10 15:34:03.421562	25.4	25.9	-91.0	12.3
2025-01-10 15:34:04.580216	25.1	25.9	-91.4	13.1
2025-01-10 15:34:05.730171	24.8	25.9	-90.7	12.3
2025-01-10 15:34:06.877824	24.4	26.0	-90.9	14.1
2025-01-10 15:34:08.034691	24.1	26.0	-90.6	10.5
2025-01-10 15:34:09.189958	23.8	26.0	-90.8	8.9
2025-01-10 15:34:10.344612	23.4	26.0	-90.3	11.0
2025-01-10 15:34:11.505886	23.1	26.1	-90.8	8.1
2025-01-10 15:34:12.662312	22.8	26.1	-91.0	11.2
2025-01-10 15:34:13.821673	22.4	26.1	-90.7	13.2
2025-01-10 15:34:14.967054	22.1	26.1	-91.4	10.0
2025-01-10 15:34:16.125853	21.7	26.2	-91.0	11.0
2025-01-10 15:34:17.282955	21.4	26.2	-91.0	14.4
2025-01-10 15:34:18.440318	21.1	26.2	-90.6	11.3
2025-01-10 15:34:19.591766	20.7	26.2	-91.0	12.2
2025-01-10 15:34:20.748585	20.4	26.2	-91.0	7.9
2025-01-10 15:34:21.900855	20.0	26.3	-90.8	10.0
2025-01-10 15:34:23.062152	19.7	26.3	-90.5	9.1
2025-01-10 15:34:24.213905	19.4	26.3	-89.0	9.9
2025-01-10 15:34:25.372953	19.0	26.3	-89.2	10.2
2025-01-10 15:34:26.522436	18.7	26.3	-90.6	9.7
2025-01-10 15:34:27.675794	18.3	26.3	-90.8	12.9
2025-01-10 15:34:28.828244	18.0	26.3	-90.4	9.3
2025-01-10 15:34:29.985302	17.7	26.3	-91.1	11.4
2025-01-10 15:34:31.144461	17.3	26.3	-90.6	7.3
2025-01-10 15:34:32.291683	17.0	26.3	-91.0	13.3
2025-01-10 15:34:33.443879	16.6	26.4	-90.9	8.6
2025-01-10 15:34:34.598215	16.3	26.4	-91.1	8.5
2025-01-10 15:34:35.747251	15.9	26.4	-90.9	10.2
2025-01-10 15:34:36.900624	15.6	26.4	-91.4	8.0
2025-01-10 15:34:38.053496	15.3	26.4	-90.8	6.9
2025-01-10 15:34:39.200890	14.9	26.4	-90.8	7.1
2025-01-10 15:34:40.346527	14.6	26.4	-90.3	9.9
2025-01-10 15:34:41.498537	14.2	26.4	-90.5	5.1
2025-01-10 15:34:42.652586	13.9	26.4	-90.6	7.9
2025-01-10 15:34:43.808119	13.5	26.3	-91.0	9.5
2025-01-10 15:34:44.966039	13.2	26.3	-90.4	7.0
2025-01-10 15:34:46.129368	12.9	26.3	-90.4	5.9
2025-01-10 15:34:47.279757	12.5	26.3	-90.3	10.2
2025-01-10 15:34:48.438322	12.2	26.3	-90.8	4.4
2025-01-10 15:34:49.589269	11.8	26.3	-91.0	6.0
2025-01-10 15:34:50.746207	11.5	26.3	-90.7	10.8
2025-01-10 15:34:51.909646	11.1	26.3	-90.2	8.6
2025-01-10 15:34:53.066866	10.8	26.3	-89.6	8.5
2025-01-10 15:34:54.228394	10.5	26.3	-91.0	11.5
2025-01-10 15:34:55.386922	10.1	26.2	-91.0	12.4
2025-01-10 15:34:56.541397	9.8	26.2	-90.9	7.9
2025-01-10 15:34:57.693585	9.4	26.2	-91.1	9.0
2025-01-10 15:34:58.851729	9.1	26.2	-90.8	9.1
2025-01-10 15:35:00.009277	8.8	26.2	-90.7	6.6
2025-01-10 15:35:01.149718	8.4	26.1	-90.6	8.7
2025-01-10 15:35:02.304983	8.1	26.1	-90.1	7.8
2025-01-10 15:35:03.454438	7.8	26.1	-90.7	7.7
2025-01-10 15:35:04.606260	7.4	26.1	-90.9	10.1
2025-01-10 15:35:05.759681	7.1	26.0	-90.7	8.5
2025-01-10 15:35:06.916535	6.7	26.0	-91.1	6.8
2025-01-10 15:35:08.075153	6.4	26.0	-91.1	7.8
2025-01-10 15:35:09.228665	6.1	26.0	-91.0	8.5
2025-01-10 15:35:10.383980	5.7	25.9	-91.3	9.5
2025-01-10 15:35:11.532820	5.4	25.9	-91.2	8.1
2025-01-10 15:35:12.685315	5.1	25.9	-91.1	7.6
2025-01-10 15:35:13.832178	4.7	25.8	-91.1	10.8
2025-01-10 15:35:14.988007	4.4	25.8	-91.4	11.7
2025-01-10 15:35:16.146699	4.1	25.8	-90.8	10.8
2025-01-10 15:35:17.302454	3.8	25.7	-90.6	12.1
2025-01-10 15:35:18.457123	3.4	25.7	-90.2	12.4
2025-01-10 15:35:19.613298	3.1	25.6	-90.3	9.5
2025-01-10 15:35:20.762663	2.8	25.6	-90.1	10.5
2025-01-10 15:35:21.913556	2.4	25.6	-90.1	8.7
2025-01-10 15:35:23.073795	2.1	25.5	-89.9	9.8
2025-01-10 15:35:24.222502	1.8	25.5	-89.5	8.9
2025-01-10 15:35:25.382812	1.5	25.4	-90.6	13.1
2025-01-10 15:35:26.538424	1.1	25.4	-90.8	12.4
2025-01-10 15:35:27.697304	0.8	25.3	-90.8	15.6
2025-01-10 15:35:28.853208	0.5	25.3	-91.1	13.7
2025-01-10 15:35:30.003778	0.2	25.2	-91.1	13.3
2025-01-10 15:35:31.164113	359.9	25.2	-91.0	12.2
2025-01-10 15:35:32.314774	359.5	25.2	-90.6	11.9
2025-01-10 15:35:33.470815	359.2	25.1	-90.6	13.2
2025-01-10 15:35:34.627548	358.9	25.1	-90.9	11.9
2025-01-10 15:35:35.778671	358.6	25.0	-91.3	14.4
2025-01-10 15:35:36.932408	358.3	24.9	-91.2	11.7
2025-01-10 15:35:38.084896	358.0	24.9	-91.1	12.7
2025-01-10 15:35:39.234545	357.7	24.8	-90.8	11.5
2025-01-10 15:35:40.390498	357.3	24.8	-90.9	13.8
2025-01-10 15:35:41.560558	357.0	24.7	-91.4	14.7
2025-01-10 15:35:42.712924	356.7	24.7	-90.9	16.2
2025-01-10 15:35:43.864472	356.4	24.6	-91.3	14.6
2025-01-10 15:35:45.016696	356.1	24.6	-91.1	14.2
2025-01-10 15:35:46.176623	355.8	24.5	-91.0	14.4
2025-01-10 15:35:47.336228	355.5	24.4	-90.9	14.4
2025-01-10 15:35:48.491229	355.2	24.4	-91.2	11.1
2025-01-10 15:35:49.638880	354.9	24.3	-91.0	13.7
2025-01-10 15:35:50.793975	354.6	24.3	-91.2	14.0
2025-01-10 15:35:51.942472	354.3	24.2	-91.1	14.5
2025-01-10 15:35:53.091433	354.0	24.1	-90.9	16.8
2025-01-10 15:35:54.247811	353.7	24.1	-90.7	15.7
2025-01-10 15:35:55.399308	353.4	24.0	-90.6	15.3
2025-01-10 15:35:56.553475	353.1	23.9	-90.9	15.1
2025-01-10 15:35:57.700211	352.8	23.9	-90.6	15.9
2025-01-10 15:35:58.851032	352.5	23.8	-90.9	14.8
2025-01-10 15:36:00.002600	352.2	23.7	-90.7	14.4
2025-01-10 15:36:01.134789	351.9	23.7	-90.6	13.6
2025-01-10 15:36:02.275704	351.7	23.6	-90.6	12.2
2025-01-10 15:36:03.421182	351.4	23.5	-90.6	10.4
2025-01-10 15:36:04.580343	351.1	23.5	-90.5	13.2
2025-01-10 15:36:05.729821	350.8	23.4	-91.3	14.4
2025-01-10 15:36:06.884937	350.5	23.3	-90.7	13.1
2025-01-10 15:36:08.035071	350.2	23.3	-91.0	8.2
2025-01-10 15:36:09.194002	350.0	23.2	-90.8	10.8
2025-01-10 15:36:10.344555	349.7	23.1	-91.0	11.6
2025-01-10 15:36:11.504019	349.4	23.0	-91.3	9.1
2025-01-10 15:36:12.655822	349.1	23.0	-90.9	10.8
2025-01-10 15:36:13.805591	348.8	22.9	-91.0	11.9
2025-01-10 15:36:14.970542	348.6	22.8	-90.8	9.3
2025-01-10 15:36:16.131693	348.3	22.7	-90.6	9.7
2025-01-10 15:36:17.287643	348.0	22.7	-90.7	12.3
2025-01-10 15:36:18.446620	347.8	22.6	-90.8	9.3
2025-01-10 15:36:19.601210	347.5	22.5	-90.9	6.4
2025-01-10 15:36:20.751618	347.2	22.4	-90.9	12.7
2025-01-10 15:36:21.910098	346.9	22.4	-90.8	7.2
2025-01-10 15:36:23.069028	346.7	22.3	-90.4	6.2
2025-01-10 15:36:24.220901	346.4	22.2	-90.8	8.0
2025-01-10 15:36:25.376471	346.2	22.1	-90.4	11.5
2025-01-10 15:36:26.527339	345.9	22.0	-90.6	4.8
2025-01-10 15:36:27.683643	345.6	22.0	-90.6	12.4
2025-01-10 15:36:28.819877	345.4	21.9	-91.0	12.7
2025-01-10 15:36:29.972857	345.1	21.8	-91.0	6.4
2025-01-10 15:36:31.121162	344.9	21.7	-90.6	8.9
2025-01-10 15:36:32.270377	344.6	21.6	-90.9	13.8
2025-01-10 15:36:33.418903	344.4	21.6	-90.8	9.1
2025-01-10 15:36:34.569619	344.1	21.5	-90.7	8.6
2025-01-10 15:36:35.722612	343.9	21.4	-90.8	11.1
2025-01-10 15:36:36.870570	343.6	21.3	-90.9	13.7
2025-01-10 15:36:38.021425	343.4	21.2	-91.3	9.1
2025-01-10 15:36:39.173528	343.1	21.1	-90.7	11.0
2025-01-10 15:36:40.332245	342.9	21.1	-90.9	11.1
2025-01-10 15:36:41.486553	342.6	21.0	-91.0	8.1
2025-01-10 15:36:42.651553	342.4	20.9	-91.1	11.2
2025-01-10 15:36:43.809346	342.1	20.8	-91.0	14.5
2025-01-10 15:36:44.960025	341.9	20.7	-91.1	6.7
2025-01-10 15:36:46.108446	341.7	20.6	-90.8	5.7
2025-01-10 15:36:47.270163	341.4	20.6	-90.8	6.1
2025-01-10 15:36:48.418395	341.2	20.5	-90.2	6.4
2025-01-10 15:36:49.568020	341.0	20.4	-91.2	7.8
2025-01-10 15:36:50.723235	340.7	20.3	-89.5	5.3
2025-01-10 15:36:51.877006	340.5	20.2	-91.0	6.8
2025-01-10 15:36:53.026397	340.3	20.1	-91.0	6.3
2025-01-10 15:36:54.177376	340.0	20.0	-90.9	6.5
2025-01-10 15:36:55.328331	339.8	20.0	-90.2	5.7
2025-01-10 15:36:56.481232	339.6	19.9	-90.8	6.1
2025-01-10 15:36:57.630615	339.4	19.8	-90.9	5.1
2025-01-10 15:36:58.790982	339.1	19.7	-90.4	6.3
2025-01-10 15:36:59.943191	338.9	19.6	-91.0	5.5
2025-01-10 15:37:01.083136	338.7	19.5	-91.2	3.8
2025-01-10 15:37:02.231420	338.5	19.4	-90.1	4.1
2025-01-10 15:37:03.387821	338.2	19.3	-90.2	5.8
2025-01-10 15:37:04.541337	338.0	19.3	-90.2	5.1
2025-01-10 15:37:05.685691	337.8	19.2	-90.4	8.0
2025-01-10 15:37:06.825404	337.6	19.1	-90.4	6.6
2025-01-10 15:37:07.975823	337.4	19.0	-91.2	5.7
2025-01-10 15:37:09.129073	337.2	18.9	-91.1	6.5
2025-01-10 15:37:10.283959	337.0	18.8	-91.2	6.4
2025-01-10 15:37:11.436675	336.8	18.7	-91.2	6.6
2025-01-10 15:37:12.600616	336.5	18.6	-91.3	8.4
2025-01-10 15:37:13.746909	336.3	18.6	-90.8	7.4
2025-01-10 15:37:14.901576	336.1	18.5	-91.2	6.5
2025-01-10 15:37:16.048491	335.9	18.4	-90.6	5.2
2025-01-10 15:37:17.199525	335.7	18.3	-90.5	6.1
2025-01-10 15:37:18.353263	335.5	18.2	-90.5	5.9
2025-01-10 15:37:19.498354	335.3	18.1	-91.0	5.2
2025-01-10 15:37:20.660355	335.1	18.0	-90.3	5.2
2025-01-10 15:37:21.803482	334.9	17.9	-90.9	5.8
2025-01-10 15:37:22.961977	334.7	17.8	-91.0	3.2
2025-01-10 15:37:24.113571	334.5	17.8	-90.7	3.4
2025-01-10 15:37:25.261863	334.3	17.7	-91.0	4.8
2025-01-10 15:37:26.418426	334.1	17.6	-91.3	5.0
2025-01-10 15:37:27.564218	333.9	17.5	-91.1	3.7
2025-01-10 15:37:28.716388	333.7	17.4	-91.1	3.9
2025-01-10 15:37:29.869001	333.6	17.3	-91.5	4.6
2025-01-10 15:37:31.026490	333.4	17.2	-91.3	3.3
2025-01-10 15:37:32.181833	333.2	17.1	-90.9	4.5
2025-01-10 15:37:33.336811	333.0	17.0	-91.1	4.6
2025-01-10 15:37:34.487212	332.8	17.0	-91.2	5.4
2025-01-10 15:37:35.640441	332.6	16.9	-91.3	4.9
2025-01-10 15:37:36.801381	332.4	16.8	-91.2	4.2
2025-01-10 15:37:37.954261	332.2	16.7	-90.9	5.0
2025-01-10 15:37:39.103295	332.1	16.6	-90.9	4.8
2025-01-10 15:37:40.260940	331.9	16.5	-91.1	6.9
2025-01-10 15:37:41.416043	331.7	16.4	-91.3	7.7
2025-01-10 15:37:42.567208	331.5	16.3	-91.1	9.7
2025-01-10 15:37:43.722117	331.3	16.2	-90.8	8.0
2025-01-10 15:37:44.870380	331.2	16.1	-91.3	6.7
2025-01-10 15:37:46.021830	331.0	16.1	-91.4	3.9
2025-01-10 15:37:47.177006	330.8	16.0	-90.8	5.3
2025-01-10 15:37:48.334596	330.6	15.9	-90.9	6.2
2025-01-10 15:37:49.488609	330.5	15.8	-91.4	5.6
2025-01-10 15:37:50.644947	330.3	15.7	-91.1	6.2
2025-01-10 15:37:51.801597	330.1	15.6	-91.1	7.3
2025-01-10 15:37:52.961045	329.9	15.5	-91.1	5.7
2025-01-10 15:37:54.104984	329.8	15.4	-90.9	4.9
2025-01-10 15:37:55.258749	329.6	15.3	-91.0	7.1
2025-01-10 15:37:56.406058	329.4	15.3	-91.1	6.3
2025-01-10 15:37:57.551009	329.3	15.2	-90.7	4.2
2025-01-10 15:37:58.698209	329.1	15.1	-91.0	2.9
2025-01-10 15:37:59.851420	328.9	15.0	-90.9	10.0
2025-01-10 15:38:00.988805	328.8	14.9	-90.7	5.7
2025-01-10 15:38:02.136757	328.6	14.8	-90.5	7.2
2025-01-10 15:38:03.291082	328.5	14.7	-90.6	4.9
2025-01-10 15:38:04.450749	328.3	14.6	-90.7	6.0
#Closed at: 2025-01-10 15:31:20.534192