passes_logs/2025/01/10/LEX_Murmansk/LEX_Murmansk__20250110_100446_NOAA_19_rec.log

#Pass ID: 20250110_100446_NOAA 19
#Satellite: NOAA 19
#Configuration: NOAA 19
#Start time: 2025-01-10 10:04:41.306445

#LorettStation: 1.0.0 05.05.2024
#Station: LEX_Murmansk
#Location: 33.156738 lon 68.926811 lat
#TLE: 1 33591U 09005A   25009.90667525  .00000313  00000+0  19132-3 0  9996
#TLE: 2 33591  99.0207  73.6295 0014600  71.1816 289.0938 14.13255869820561

#Time	Az	El	Level	SNR
2025-01-10 10:04:53.458644	23.6	16.3	-90.9	2.5
2025-01-10 10:04:54.619664	23.5	16.4	-90.8	8.3
2025-01-10 10:04:55.770626	23.4	16.5	-90.7	3.4
2025-01-10 10:04:56.922866	23.3	16.6	-91.2	4.0
2025-01-10 10:04:58.087157	23.2	16.7	-90.8	3.0
2025-01-10 10:04:59.242368	23.2	16.9	-90.6	2.8
2025-01-10 10:05:00.388006	23.1	17.0	-91.0	2.8
2025-01-10 10:05:01.538909	23.0	17.1	-91.2	3.5
2025-01-10 10:05:02.698396	22.9	17.2	-91.2	5.4
2025-01-10 10:05:03.856271	22.8	17.4	-90.8	3.7
2025-01-10 10:05:05.013412	22.7	17.5	-91.1	3.0
2025-01-10 10:05:06.171310	22.7	17.6	-91.0	1.5
2025-01-10 10:05:07.335425	22.6	17.8	-90.8	2.6
2025-01-10 10:05:08.496750	22.5	17.9	-90.4	7.0
2025-01-10 10:05:09.645419	22.4	18.0	-90.3	10.0
2025-01-10 10:05:10.792483	22.3	18.2	-90.2	9.8
2025-01-10 10:05:11.945568	22.2	18.3	-90.5	8.7
2025-01-10 10:05:13.092289	22.1	18.4	-89.9	6.5
2025-01-10 10:05:14.246172	22.0	18.5	-90.1	5.1
2025-01-10 10:05:15.399498	21.9	18.7	-90.9	6.4
2025-01-10 10:05:16.562443	21.9	18.8	-91.2	11.6
2025-01-10 10:05:17.713653	21.8	18.9	-91.1	10.2
2025-01-10 10:05:18.875115	21.7	19.1	-91.3	8.2
2025-01-10 10:05:20.030478	21.6	19.2	-91.1	5.9
2025-01-10 10:05:21.200338	21.5	19.4	-91.0	3.3
2025-01-10 10:05:22.353445	21.4	19.5	-90.9	0.7
2025-01-10 10:05:23.511750	21.3	19.6	-91.1	4.1
2025-01-10 10:05:24.670183	21.2	19.8	-90.8	3.5
2025-01-10 10:05:25.823578	21.1	19.9	-91.2	6.5
2025-01-10 10:05:26.973688	21.0	20.0	-91.5	7.4
2025-01-10 10:05:28.132742	20.9	20.2	-91.0	6.2
2025-01-10 10:05:29.287427	20.8	20.3	-90.7	4.8
2025-01-10 10:05:30.443743	20.7	20.5	-91.1	5.5
2025-01-10 10:05:31.597757	20.6	20.6	-91.0	3.5
2025-01-10 10:05:32.757902	20.5	20.8	-90.7	8.2
2025-01-10 10:05:33.918786	20.3	20.9	-91.0	10.0
2025-01-10 10:05:35.075320	20.2	21.0	-91.0	7.9
2025-01-10 10:05:36.234372	20.1	21.2	-91.3	5.6
2025-01-10 10:05:37.390861	20.0	21.3	-90.8	3.2
2025-01-10 10:05:38.536287	19.9	21.5	-91.3	3.2
2025-01-10 10:05:39.689274	19.8	21.6	-91.5	1.4
2025-01-10 10:05:40.844184	19.7	21.8	-91.3	1.9
2025-01-10 10:05:42.002253	19.6	21.9	-91.3	6.5
2025-01-10 10:05:43.163966	19.4	22.1	-90.9	8.3
2025-01-10 10:05:44.322348	19.3	22.2	-91.1	7.7
2025-01-10 10:05:45.470128	19.2	22.4	-91.0	8.1
2025-01-10 10:05:46.619542	19.1	22.5	-91.3	8.2
2025-01-10 10:05:47.768997	19.0	22.7	-91.0	5.3
2025-01-10 10:05:48.924140	18.9	22.8	-91.2	8.2
2025-01-10 10:05:50.092566	18.7	23.0	-91.2	7.7
2025-01-10 10:05:51.245895	18.6	23.1	-90.7	13.3
2025-01-10 10:05:52.403484	18.5	23.3	-91.2	6.2
2025-01-10 10:05:53.553244	18.3	23.5	-91.4	7.0
2025-01-10 10:05:54.715282	18.2	23.6	-91.4	1.7
2025-01-10 10:05:55.873770	18.1	23.8	-91.3	4.9
2025-01-10 10:05:57.032188	18.0	23.9	-91.5	4.2
2025-01-10 10:05:58.181108	17.8	24.1	-91.0	2.8
2025-01-10 10:05:59.338146	17.7	24.2	-90.8	9.2
2025-01-10 10:06:00.482320	17.6	24.4	-91.1	8.6
2025-01-10 10:06:01.642487	17.4	24.6	-91.4	9.4
2025-01-10 10:06:02.796809	17.3	24.7	-91.4	7.4
2025-01-10 10:06:03.948296	17.1	24.9	-91.6	9.7
2025-01-10 10:06:05.100054	17.0	25.1	-91.0	7.4
2025-01-10 10:06:06.255851	16.9	25.2	-91.0	7.4
2025-01-10 10:06:07.416926	16.7	25.4	-91.0	8.9
2025-01-10 10:06:08.570203	16.6	25.6	-90.8	11.7
2025-01-10 10:06:09.727238	16.4	25.7	-90.9	9.7
2025-01-10 10:06:10.879679	16.3	25.9	-91.4	7.0
2025-01-10 10:06:12.038098	16.1	26.1	-91.4	4.8
2025-01-10 10:06:13.193750	16.0	26.2	-91.3	1.8
2025-01-10 10:06:14.348992	15.8	26.4	-91.4	1.0
2025-01-10 10:06:15.507930	15.7	26.6	-91.3	3.8
2025-01-10 10:06:16.661454	15.5	26.7	-91.2	9.1
2025-01-10 10:06:17.820118	15.3	26.9	-91.2	9.9
2025-01-10 10:06:18.972202	15.2	27.1	-91.4	9.1
2025-01-10 10:06:20.113021	15.0	27.3	-91.1	8.5
2025-01-10 10:06:21.259973	14.9	27.4	-91.1	6.2
2025-01-10 10:06:22.418501	14.7	27.6	-90.9	2.7
2025-01-10 10:06:23.571308	14.5	27.8	-91.5	3.8
2025-01-10 10:06:24.724380	14.4	28.0	-91.2	4.7
2025-01-10 10:06:25.879228	14.2	28.2	-91.1	7.6
2025-01-10 10:06:27.032600	14.0	28.3	-91.2	9.2
2025-01-10 10:06:28.186664	13.8	28.5	-91.1	4.0
2025-01-10 10:06:29.343593	13.7	28.7	-91.0	1.7
2025-01-10 10:06:30.488552	13.5	28.9	-91.4	2.6
2025-01-10 10:06:31.651459	13.3	29.1	-91.2	3.6
2025-01-10 10:06:32.808327	13.1	29.2	-91.2	2.5
2025-01-10 10:06:33.967267	12.9	29.4	-91.1	0.6
2025-01-10 10:06:35.118143	12.7	29.6	-91.2	5.8
2025-01-10 10:06:36.274231	12.6	29.8	-91.2	11.9
2025-01-10 10:06:37.429513	12.4	30.0	-91.5	7.7
2025-01-10 10:06:38.580287	12.2	30.2	-91.4	9.6
2025-01-10 10:06:39.735112	12.0	30.4	-91.5	7.1
2025-01-10 10:06:40.892819	11.8	30.6	-91.3	4.1
2025-01-10 10:06:42.043863	11.6	30.8	-91.0	8.8
2025-01-10 10:06:43.210765	11.4	30.9	-91.2	8.1
2025-01-10 10:06:44.365126	11.1	31.1	-91.3	11.2
2025-01-10 10:06:45.513818	10.9	31.3	-91.3	13.1
2025-01-10 10:06:46.668747	10.7	31.5	-91.2	8.4
2025-01-10 10:06:47.824956	10.5	31.7	-91.3	7.5
2025-01-10 10:06:48.973755	10.3	31.9	-91.2	5.5
2025-01-10 10:06:50.127455	10.1	32.1	-91.0	7.1
2025-01-10 10:06:51.277879	9.9	32.3	-91.2	0.4
2025-01-10 10:06:52.436955	9.6	32.5	-90.9	4.4
2025-01-10 10:06:53.594362	9.4	32.7	-90.9	7.1
2025-01-10 10:06:54.756936	9.2	32.9	-91.2	9.3
2025-01-10 10:06:55.910569	8.9	33.1	-91.2	11.9
2025-01-10 10:06:57.063670	8.7	33.3	-91.1	16.8
2025-01-10 10:06:58.221298	8.5	33.5	-90.8	12.8
2025-01-10 10:06:59.373506	8.2	33.7	-91.1	13.2
2025-01-10 10:07:00.509852	8.0	33.9	-91.1	9.5
2025-01-10 10:07:01.655881	7.7	34.1	-91.4	8.1
2025-01-10 10:07:02.812125	7.5	34.3	-91.2	7.3
2025-01-10 10:07:03.962382	7.2	34.5	-91.3	13.9
2025-01-10 10:07:05.358641	6.9	34.8	-91.1	13.8
2025-01-10 10:07:06.511623	6.6	35.0	-90.8	13.0
2025-01-10 10:07:07.664926	6.4	35.2	-89.0	9.9
2025-01-10 10:07:08.814221	6.1	35.4	-90.9	7.9
2025-01-10 10:07:09.968879	5.8	35.6	-91.5	3.6
2025-01-10 10:07:11.130265	5.5	35.8	-91.6	4.8
2025-01-10 10:07:12.284074	5.3	36.0	-91.2	5.8
2025-01-10 10:07:13.439741	5.0	36.3	-91.1	4.4
2025-01-10 10:07:14.595755	4.7	36.5	-91.3	7.7
2025-01-10 10:07:15.747089	4.4	36.7	-91.1	13.7
2025-01-10 10:07:16.905835	4.1	36.9	-91.2	15.9
2025-01-10 10:07:18.056626	3.8	37.1	-91.3	16.7
2025-01-10 10:07:19.209767	3.5	37.3	-91.3	15.0
2025-01-10 10:07:20.362961	3.2	37.5	-91.0	12.6
2025-01-10 10:07:21.512320	2.9	37.8	-90.9	6.9
2025-01-10 10:07:22.667112	2.6	38.0	-91.2	6.3
2025-01-10 10:07:23.821890	2.2	38.2	-90.5	10.5
2025-01-10 10:07:24.967790	1.9	38.4	-91.1	12.6
2025-01-10 10:07:26.123974	1.6	38.6	-90.5	16.0
2025-01-10 10:07:27.274377	1.3	38.8	-91.2	17.9
2025-01-10 10:07:28.430884	0.9	39.0	-91.0	16.2
2025-01-10 10:07:29.579834	0.6	39.3	-91.2	12.2
2025-01-10 10:07:30.734393	0.2	39.5	-91.2	10.0
2025-01-10 10:07:31.892823	359.9	39.7	-91.1	6.9
2025-01-10 10:07:33.057212	359.5	39.9	-91.0	2.4
2025-01-10 10:07:34.209323	359.1	40.1	-91.2	5.5
2025-01-10 10:07:35.367282	358.8	40.4	-90.7	8.1
2025-01-10 10:07:36.524325	358.4	40.6	-91.1	8.2
2025-01-10 10:07:37.679240	358.0	40.8	-91.2	12.8
2025-01-10 10:07:38.830419	357.6	41.0	-91.4	15.1
2025-01-10 10:07:39.982804	357.3	41.2	-90.9	16.2
2025-01-10 10:07:41.129834	356.9	41.4	-91.2	14.1
2025-01-10 10:07:42.281817	356.5	41.6	-91.2	15.1
2025-01-10 10:07:43.431527	356.1	41.9	-90.8	11.5
2025-01-10 10:07:44.589689	355.7	42.1	-90.9	9.4
2025-01-10 10:07:45.746198	355.2	42.3	-91.4	11.8
2025-01-10 10:07:46.896230	354.8	42.5	-90.6	11.5
2025-01-10 10:07:48.063266	354.4	42.7	-91.2	12.2
2025-01-10 10:07:49.221177	354.0	42.9	-91.4	15.9
2025-01-10 10:07:50.378132	353.5	43.2	-91.2	16.5
2025-01-10 10:07:51.526539	353.1	43.4	-91.0	16.9
2025-01-10 10:07:52.687070	352.6	43.6	-91.2	16.8
2025-01-10 10:07:53.840751	352.2	43.8	-91.3	13.9
2025-01-10 10:07:55.005691	351.7	44.0	-91.1	9.2
2025-01-10 10:07:56.156508	351.2	44.2	-91.0	7.1
2025-01-10 10:07:57.312281	350.8	44.4	-91.2	9.4
2025-01-10 10:07:58.470457	350.3	44.6	-90.7	4.5
2025-01-10 10:07:59.623859	349.8	44.8	-91.0	8.9
2025-01-10 10:08:00.765143	349.3	45.0	-90.7	8.8
2025-01-10 10:08:01.919995	348.8	45.2	-91.1	8.8
2025-01-10 10:08:03.074155	348.3	45.4	-91.2	12.2
2025-01-10 10:08:04.231224	347.8	45.6	-90.9	16.0
2025-01-10 10:08:05.378703	347.3	45.8	-90.8	16.1
2025-01-10 10:08:06.532223	346.8	46.0	-91.2	19.2
2025-01-10 10:08:07.683438	346.2	46.2	-90.9	16.2
2025-01-10 10:08:08.830572	345.7	46.4	-91.1	16.6
2025-01-10 10:08:09.984685	345.2	46.6	-91.0	9.7
2025-01-10 10:08:11.133830	344.6	46.8	-91.3	7.8
2025-01-10 10:08:12.283666	344.0	47.0	-90.8	10.3
2025-01-10 10:08:13.435660	343.5	47.2	-91.2	6.4
2025-01-10 10:08:14.593951	342.9	47.3	-90.8	5.1
2025-01-10 10:08:15.750716	342.3	47.5	-91.2	11.2
2025-01-10 10:08:16.912003	341.7	47.7	-90.9	10.7
2025-01-10 10:08:18.069728	341.2	47.9	-90.2	8.2
2025-01-10 10:08:19.227592	340.6	48.0	-90.5	12.5
2025-01-10 10:08:20.381838	339.9	48.2	-90.3	15.2
2025-01-10 10:08:21.530712	339.3	48.4	-90.6	12.8
2025-01-10 10:08:22.690200	338.7	48.5	-91.0	11.7
2025-01-10 10:08:23.848580	338.1	48.7	-90.3	9.4
2025-01-10 10:08:25.012352	337.5	48.9	-91.0	10.0
2025-01-10 10:08:26.173366	336.8	49.0	-90.9	9.2
2025-01-10 10:08:27.321189	336.2	49.2	-91.3	8.1
2025-01-10 10:08:28.466225	335.5	49.3	-90.8	3.2
2025-01-10 10:08:29.624848	334.9	49.5	-91.0	4.7
2025-01-10 10:08:30.777774	334.2	49.6	-91.2	3.6
2025-01-10 10:08:31.926715	333.5	49.7	-91.3	2.9
2025-01-10 10:08:33.087430	332.9	49.9	-91.6	2.4
2025-01-10 10:08:34.243877	332.2	50.0	-91.5	4.9
2025-01-10 10:08:35.404186	331.5	50.1	-91.2	5.3
2025-01-10 10:08:36.560851	330.8	50.2	-91.1	7.3
2025-01-10 10:08:37.707936	330.1	50.4	-91.3	8.7
2025-01-10 10:08:38.865524	329.4	50.5	-91.0	10.7
2025-01-10 10:08:40.018622	328.7	50.6	-91.1	7.2
2025-01-10 10:08:41.177675	328.0	50.7	-91.2	10.9
2025-01-10 10:08:42.328685	327.3	50.8	-91.3	6.1
2025-01-10 10:08:43.483480	326.6	50.9	-91.4	7.7
2025-01-10 10:08:44.633153	325.8	51.0	-91.0	9.4
2025-01-10 10:08:45.788185	325.1	51.0	-91.4	9.4
2025-01-10 10:08:46.940838	324.4	51.1	-90.9	11.1
2025-01-10 10:08:48.092943	323.6	51.2	-91.3	11.7
2025-01-10 10:08:49.246856	322.9	51.3	-91.2	11.6
2025-01-10 10:08:50.403384	322.1	51.3	-91.1	8.5
2025-01-10 10:08:51.549934	321.4	51.4	-90.8	6.3
2025-01-10 10:08:52.704228	320.6	51.4	-91.2	5.5
2025-01-10 10:08:53.856604	319.9	51.5	-91.2	5.8
2025-01-10 10:08:55.002577	319.1	51.5	-91.3	3.8
2025-01-10 10:08:56.151148	318.4	51.6	-91.4	5.9
2025-01-10 10:08:57.311974	317.6	51.6	-91.4	8.7
2025-01-10 10:08:58.465822	316.9	51.6	-91.3	5.2
2025-01-10 10:08:59.619684	316.1	51.7	-90.9	8.8
2025-01-10 10:09:00.755293	315.3	51.7	-91.5	6.8
2025-01-10 10:09:01.904882	314.6	51.7	-91.0	7.5
2025-01-10 10:09:03.059126	313.8	51.7	-90.8	7.1
2025-01-10 10:09:04.204035	313.1	51.7	-91.3	7.4
2025-01-10 10:09:05.364206	312.3	51.7	-91.0	11.8
2025-01-10 10:09:06.527416	311.5	51.7	-91.0	7.7
2025-01-10 10:09:07.674810	310.8	51.7	-91.1	6.8
2025-01-10 10:09:08.833988	310.0	51.7	-91.3	6.9
2025-01-10 10:09:09.995592	309.2	51.6	-91.2	5.4
2025-01-10 10:09:11.145408	308.5	51.6	-91.2	6.1
2025-01-10 10:09:12.296735	307.7	51.6	-91.4	9.2
2025-01-10 10:09:13.452189	306.9	51.5	-90.9	8.0
2025-01-10 10:09:14.605548	306.2	51.5	-91.2	10.0
2025-01-10 10:09:15.758138	305.4	51.4	-91.4	9.5
2025-01-10 10:09:16.912351	304.7	51.4	-91.3	13.1
2025-01-10 10:09:18.063819	303.9	51.3	-91.4	12.1
2025-01-10 10:09:19.223538	303.2	51.3	-91.6	10.2
2025-01-10 10:09:20.374778	302.5	51.2	-91.4	11.7
2025-01-10 10:09:21.523920	301.7	51.1	-90.9	8.5
2025-01-10 10:09:22.689665	301.0	51.0	-91.1	9.3
2025-01-10 10:09:23.834842	300.3	50.9	-91.4	10.6
2025-01-10 10:09:24.992191	299.5	50.9	-91.0	9.8
2025-01-10 10:09:26.146102	298.8	50.8	-91.3	9.5
2025-01-10 10:09:27.298163	298.1	50.7	-90.8	9.9
2025-01-10 10:09:28.451679	297.4	50.6	-91.1	7.0
2025-01-10 10:09:29.609033	296.7	50.5	-90.9	5.6
2025-01-10 10:09:30.761428	296.0	50.3	-91.0	10.1
2025-01-10 10:09:31.910278	295.3	50.2	-91.3	9.0
2025-01-10 10:09:33.062210	294.6	50.1	-91.5	7.3
2025-01-10 10:09:34.213756	293.9	50.0	-91.0	9.8
2025-01-10 10:09:35.368101	293.2	49.9	-91.1	9.5
2025-01-10 10:09:36.516032	292.6	49.7	-91.0	6.2
2025-01-10 10:09:37.667072	291.9	49.6	-91.3	6.5
2025-01-10 10:09:38.808834	291.2	49.4	-91.6	7.6
2025-01-10 10:09:39.960913	290.6	49.3	-91.1	5.7
2025-01-10 10:09:41.116757	289.9	49.2	-91.2	8.8
2025-01-10 10:09:42.262468	289.3	49.0	-91.0	7.9
2025-01-10 10:09:43.416268	288.7	48.9	-91.1	8.6
2025-01-10 10:09:44.566569	288.0	48.7	-91.1	3.0
2025-01-10 10:09:45.720484	287.4	48.5	-91.4	6.2
2025-01-10 10:09:46.874137	286.8	48.4	-90.9	6.0
2025-01-10 10:09:48.024115	286.2	48.2	-91.4	7.7
2025-01-10 10:09:49.174327	285.6	48.0	-91.1	9.0
2025-01-10 10:09:50.325688	285.0	47.9	-91.1	9.0
2025-01-10 10:09:51.483624	284.4	47.7	-91.0	9.6
2025-01-10 10:09:52.642022	283.8	47.5	-91.0	8.9
2025-01-10 10:09:53.798315	283.2	47.3	-91.6	8.2
2025-01-10 10:09:54.949456	282.7	47.2	-91.3	10.1
2025-01-10 10:09:56.098115	282.1	47.0	-91.5	11.2
2025-01-10 10:09:57.255420	281.5	46.8	-91.4	13.0
2025-01-10 10:09:58.401477	281.0	46.6	-91.3	12.9
2025-01-10 10:09:59.550309	280.4	46.4	-90.6	15.6
2025-01-10 10:10:00.691893	279.9	46.2	-91.1	14.2
2025-01-10 10:10:01.843110	279.4	46.0	-91.3	12.8
2025-01-10 10:10:03.001367	278.9	45.8	-91.2	13.7
2025-01-10 10:10:04.156103	278.3	45.6	-91.3	15.9
2025-01-10 10:10:05.309829	277.8	45.4	-91.2	11.7
2025-01-10 10:10:06.469353	277.3	45.2	-91.0	15.8
2025-01-10 10:10:07.622871	276.8	45.0	-91.0	17.7
2025-01-10 10:10:08.773201	276.3	44.8	-91.3	13.1
2025-01-10 10:10:09.931443	275.8	44.6	-91.3	10.5
2025-01-10 10:10:11.093693	275.4	44.4	-91.2	14.0
2025-01-10 10:10:12.239233	274.9	44.2	-91.4	14.3
2025-01-10 10:10:13.393043	274.4	44.0	-91.1	12.1
2025-01-10 10:10:14.546565	274.0	43.8	-91.1	12.2
2025-01-10 10:10:15.706829	273.5	43.6	-91.4	8.7
2025-01-10 10:10:16.857172	273.1	43.4	-91.4	10.2
2025-01-10 10:10:18.002101	272.6	43.1	-91.3	8.9
2025-01-10 10:10:19.154499	272.2	42.9	-91.4	8.5
2025-01-10 10:10:20.312526	271.7	42.7	-91.5	9.0
2025-01-10 10:10:21.459299	271.3	42.5	-90.9	4.5
2025-01-10 10:10:22.609169	270.9	42.3	-91.4	4.6
2025-01-10 10:10:23.762048	270.5	42.1	-91.4	7.4
2025-01-10 10:10:24.919221	270.1	41.9	-91.5	5.3
2025-01-10 10:10:26.073011	269.7	41.6	-91.0	2.9
2025-01-10 10:10:27.232450	269.3	41.4	-91.3	5.9
2025-01-10 10:10:28.397300	268.9	41.2	-91.1	5.2
2025-01-10 10:10:29.551915	268.5	41.0	-91.1	2.9
2025-01-10 10:10:30.712910	268.1	40.8	-91.3	7.9
2025-01-10 10:10:31.861254	267.7	40.6	-91.4	10.1
2025-01-10 10:10:33.020590	267.4	40.3	-91.2	7.1
2025-01-10 10:10:34.170509	267.0	40.1	-91.0	8.8
2025-01-10 10:10:35.325430	266.6	39.9	-91.0	9.9
2025-01-10 10:10:36.480857	266.3	39.7	-90.9	7.2
2025-01-10 10:10:37.633076	265.9	39.5	-90.8	10.4
2025-01-10 10:10:38.782613	265.6	39.3	-91.0	9.7
2025-01-10 10:10:39.937777	265.2	39.0	-91.2	7.3
2025-01-10 10:10:41.082920	264.9	38.8	-91.0	8.3
2025-01-10 10:10:42.231086	264.6	38.6	-91.2	10.2
2025-01-10 10:10:43.382943	264.2	38.4	-91.0	1.9
2025-01-10 10:10:44.531840	263.9	38.2	-90.7	6.3
2025-01-10 10:10:45.687589	263.6	38.0	-90.9	6.2
2025-01-10 10:10:46.838354	263.3	37.7	-91.3	4.9
2025-01-10 10:10:47.996193	263.0	37.5	-91.3	5.3
2025-01-10 10:10:49.155988	262.7	37.3	-91.1	6.9
2025-01-10 10:10:50.317221	262.3	37.1	-91.4	5.1
2025-01-10 10:10:51.473749	262.0	36.9	-91.2	2.0
2025-01-10 10:10:52.621428	261.8	36.7	-91.3	4.9
2025-01-10 10:10:53.771208	261.5	36.5	-86.7	4.6
2025-01-10 10:10:54.921606	261.2	36.3	-86.6	4.3
2025-01-10 10:10:56.074339	260.9	36.0	-91.1	2.5
2025-01-10 10:10:57.221469	260.6	35.8	-91.5	7.8
2025-01-10 10:10:58.379224	260.3	35.6	-91.5	8.8
2025-01-10 10:10:59.535403	260.1	35.4	-91.2	5.2
2025-01-10 10:11:00.679653	259.8	35.2	-90.9	11.0
2025-01-10 10:11:01.836028	259.5	35.0	-91.2	10.6
2025-01-10 10:11:02.988127	259.3	34.8	-91.1	13.4
2025-01-10 10:11:04.139871	259.0	34.6	-91.3	14.8
2025-01-10 10:11:05.289393	258.7	34.4	-91.1	16.3
2025-01-10 10:11:06.426956	258.5	34.2	-90.9	14.4
2025-01-10 10:11:07.580369	258.2	34.0	-91.1	14.1
2025-01-10 10:11:08.729204	258.0	33.8	-90.5	13.6
2025-01-10 10:11:09.888551	257.7	33.6	-90.7	12.7
2025-01-10 10:11:11.043411	257.5	33.4	-90.5	17.0
2025-01-10 10:11:12.195419	257.3	33.2	-90.2	11.0
2025-01-10 10:11:13.343058	257.0	33.0	-90.2	7.1
2025-01-10 10:11:14.495719	256.8	32.8	-90.5	16.5
2025-01-10 10:11:15.644818	256.6	32.6	-90.4	10.2
2025-01-10 10:11:16.805559	256.3	32.4	-90.7	8.0
2025-01-10 10:11:17.956277	256.1	32.2	-91.1	16.3
2025-01-10 10:11:19.109515	255.9	32.0	-90.9	13.9
2025-01-10 10:11:20.267148	255.7	31.8	-91.4	11.2
2025-01-10 10:11:21.424509	255.5	31.6	-90.8	16.3
2025-01-10 10:11:22.573672	255.3	31.4	-91.2	18.3
2025-01-10 10:11:23.731968	255.0	31.2	-90.9	16.1
2025-01-10 10:11:24.886500	254.8	31.0	-91.3	20.0
2025-01-10 10:11:26.038458	254.6	30.8	-91.3	20.4
2025-01-10 10:11:27.196014	254.4	30.6	-90.9	18.0
2025-01-10 10:11:28.350324	254.2	30.4	-90.8	17.0
2025-01-10 10:11:29.505222	254.0	30.2	-91.1	18.0
2025-01-10 10:11:30.652274	253.8	30.0	-91.3	16.3
2025-01-10 10:11:31.802912	253.6	29.8	-91.2	13.1
2025-01-10 10:11:32.955740	253.4	29.7	-91.4	19.4
2025-01-10 10:11:34.115759	253.3	29.5	-91.3	12.0
2025-01-10 10:11:35.264154	253.1	29.3	-91.0	8.8
2025-01-10 10:11:36.416518	252.9	29.1	-90.6	15.7
2025-01-10 10:11:37.567082	252.7	28.9	-90.6	17.1
2025-01-10 10:11:38.714859	252.5	28.7	-91.1	12.3
2025-01-10 10:11:39.865218	252.3	28.6	-91.4	13.3
2025-01-10 10:11:41.023077	252.2	28.4	-91.3	17.9
2025-01-10 10:11:42.171541	252.0	28.2	-91.1	13.2
2025-01-10 10:11:43.325155	251.8	28.0	-91.0	17.3
2025-01-10 10:11:44.480385	251.7	27.8	-91.3	13.9
2025-01-10 10:11:45.626953	251.5	27.7	-90.9	14.7
2025-01-10 10:11:46.784015	251.3	27.5	-91.2	15.1
2025-01-10 10:11:47.934055	251.2	27.3	-91.5	16.0
2025-01-10 10:11:49.090815	251.0	27.1	-91.0	15.3
2025-01-10 10:11:50.238298	250.8	27.0	-91.1	11.6
2025-01-10 10:11:51.394754	250.7	26.8	-90.8	11.6
2025-01-10 10:11:52.548042	250.5	26.6	-91.1	14.1
2025-01-10 10:11:53.696471	250.4	26.4	-91.0	7.1
2025-01-10 10:11:54.848914	250.2	26.3	-91.0	6.5
2025-01-10 10:11:56.003868	250.1	26.1	-91.4	14.1
2025-01-10 10:11:57.160358	249.9	25.9	-91.4	7.1
2025-01-10 10:11:58.310003	249.8	25.8	-91.6	7.9
2025-01-10 10:11:59.465296	249.6	25.6	-91.3	12.5
2025-01-10 10:12:00.609862	249.5	25.4	-91.0	9.2
2025-01-10 10:12:01.762572	249.3	25.3	-91.3	10.9
2025-01-10 10:12:02.905792	249.2	25.1	-91.3	11.7
2025-01-10 10:12:04.061981	249.0	24.9	-91.0	11.1
2025-01-10 10:12:05.209697	248.9	24.8	-91.3	8.5
2025-01-10 10:12:06.357055	248.8	24.6	-91.1	7.2
2025-01-10 10:12:07.516149	248.6	24.4	-91.0	8.4
2025-01-10 10:12:08.657369	248.5	24.3	-91.1	4.5
2025-01-10 10:12:09.815547	248.3	24.1	-91.4	3.8
2025-01-10 10:12:10.962323	248.2	24.0	-91.1	4.6
2025-01-10 10:12:12.112908	248.1	23.8	-91.4	3.7
2025-01-10 10:12:13.266055	248.0	23.7	-91.4	3.7
2025-01-10 10:12:14.413642	247.8	23.5	-91.0	5.4
2025-01-10 10:12:15.564288	247.7	23.3	-91.3	4.9
2025-01-10 10:12:16.715403	247.6	23.2	-91.2	4.0
2025-01-10 10:12:17.869726	247.4	23.0	-91.5	5.5
2025-01-10 10:12:19.028373	247.3	22.9	-91.4	4.7
2025-01-10 10:12:20.194819	247.2	22.7	-91.6	3.4
2025-01-10 10:12:21.349897	247.1	22.6	-91.2	3.1
2025-01-10 10:12:22.496690	247.0	22.4	-90.9	2.5
2025-01-10 10:12:23.652124	246.8	22.3	-91.1	1.1
2025-01-10 10:12:24.803463	246.7	22.1	-91.5	2.8
2025-01-10 10:12:25.962507	246.6	22.0	-91.2	1.7
2025-01-10 10:12:27.117052	246.5	21.8	-91.2	2.3
2025-01-10 10:12:28.267890	246.4	21.7	-91.2	2.5
2025-01-10 10:12:29.422530	246.3	21.5	-91.4	1.3
2025-01-10 10:12:30.581987	246.1	21.4	-91.2	3.3
2025-01-10 10:12:31.735638	246.0	21.2	-91.4	1.4
2025-01-10 10:12:32.890522	245.9	21.1	-91.5	1.6
2025-01-10 10:12:34.038947	245.8	20.9	-91.2	1.7
2025-01-10 10:12:35.200232	245.7	20.8	-91.0	2.4
2025-01-10 10:12:36.354122	245.6	20.7	-91.1	0.8
2025-01-10 10:12:37.505652	245.5	20.5	-90.6	1.5
2025-01-10 10:12:38.653244	245.4	20.4	-91.0	2.4
2025-01-10 10:12:39.807359	245.3	20.2	-91.4	1.5
2025-01-10 10:12:40.957861	245.2	20.1	-91.3	1.1
2025-01-10 10:12:42.117553	245.1	19.9	-91.0	2.5
2025-01-10 10:12:43.269034	245.0	19.8	-91.4	3.1
2025-01-10 10:12:44.419442	244.9	19.7	-91.2	4.9
2025-01-10 10:12:45.569888	244.8	19.5	-91.6	3.5
2025-01-10 10:12:46.726559	244.7	19.4	-91.4	6.1
2025-01-10 10:12:47.880733	244.6	19.3	-91.7	7.8
2025-01-10 10:12:49.030833	244.5	19.1	-91.3	6.9
2025-01-10 10:12:50.187638	244.4	19.0	-91.2	6.5
2025-01-10 10:12:51.335350	244.3	18.9	-91.3	4.0
2025-01-10 10:12:52.482380	244.2	18.7	-91.4	9.6
2025-01-10 10:12:53.635860	244.1	18.6	-90.9	7.5
2025-01-10 10:12:54.799036	244.0	18.5	-91.5	2.6
2025-01-10 10:12:55.959522	243.9	18.3	-91.4	8.2
2025-01-10 10:12:57.118124	243.8	18.2	-91.9	7.5
2025-01-10 10:12:58.282190	243.8	18.1	-88.2	5.3
2025-01-10 10:12:59.438710	243.7	17.9	-87.4	6.6
2025-01-10 10:13:00.587262	243.6	17.8	-87.5	4.8
2025-01-10 10:13:01.741933	243.5	17.7	-87.7	4.9
2025-01-10 10:13:02.893132	243.4	17.5	-87.5	5.3
2025-01-10 10:13:04.051252	243.3	17.4	-87.5	5.5
2025-01-10 10:13:05.203583	243.2	17.3	-91.9	8.0
2025-01-10 10:13:06.363099	243.1	17.2	-91.4	6.1
2025-01-10 10:13:07.510383	243.1	17.0	-91.2	6.4
2025-01-10 10:13:08.664389	243.0	16.9	-90.4	2.9
2025-01-10 10:13:09.817606	242.9	16.8	-91.3	5.1
2025-01-10 10:13:10.981197	242.8	16.7	-91.2	7.1
2025-01-10 10:13:12.131817	242.7	16.5	-91.3	4.2
2025-01-10 10:13:13.284873	242.7	16.4	-91.4	5.7
2025-01-10 10:13:14.435655	242.6	16.3	-91.2	6.5
2025-01-10 10:13:15.586855	242.5	16.2	-91.1	7.4
2025-01-10 10:13:16.739793	242.4	16.1	-91.0	11.0
2025-01-10 10:13:17.891366	242.3	15.9	-88.4	6.3
2025-01-10 10:13:19.046798	242.3	15.8	-88.6	5.8
2025-01-10 10:13:20.198057	242.2	15.7	-88.4	5.6
2025-01-10 10:13:21.346914	242.1	15.6	-87.9	3.4
2025-01-10 10:13:22.492972	242.0	15.5	-87.9	6.4
2025-01-10 10:13:23.648730	242.0	15.3	-91.4	4.8
2025-01-10 10:13:24.801292	241.9	15.2	-91.2	3.3
2025-01-10 10:13:25.948631	241.8	15.1	-91.7	7.3
2025-01-10 10:13:27.100436	241.8	15.0	-91.6	7.7
2025-01-10 10:13:28.258462	241.7	14.9	-91.4	8.1
2025-01-10 10:13:29.406507	241.6	14.8	-91.0	9.1
2025-01-10 10:13:30.568629	241.5	14.6	-91.2	9.2
2025-01-10 10:13:31.789669	241.5	14.5	-90.6	8.2
#Closed at: 2025-01-10 10:04:46.262791