passes_logs/2025/01/10/LEX_Murmansk/LEX_Murmansk__20250110_103058_NOAA_18_rec.log

#Pass ID: 20250110_103058_NOAA 18
#Satellite: NOAA 18
#Configuration: NOAA 18
#Start time: 2025-01-10 10:30:53.410231

#LorettStation: 1.0.0 05.05.2024
#Station: LEX_Murmansk
#Location: 33.156738 lon 68.926811 lat
#TLE: 1 28654U 05018A   25009.85378120  .00000357  00000+0  21312-3 0  9995
#TLE: 2 28654  98.8576  90.9590 0014108 193.6372 166.4421 14.13482291 12379

#Time	Az	El	Level	SNR
2025-01-10 10:31:05.692058	24.2	16.3	-90.4	4.8
2025-01-10 10:31:08.002962	24.1	16.6	-90.7	5.0
2025-01-10 10:31:10.322114	24.1	16.8	-90.6	3.3
2025-01-10 10:31:12.639913	24.0	17.1	-90.6	5.0
2025-01-10 10:31:14.952436	23.9	17.3	-90.8	10.6
2025-01-10 10:31:17.273617	23.9	17.6	-90.9	10.6
2025-01-10 10:31:19.594157	23.8	17.9	-90.6	11.2
2025-01-10 10:31:21.919023	23.7	18.2	-90.7	14.8
2025-01-10 10:31:24.241985	23.7	18.4	-90.6	10.1
2025-01-10 10:31:26.565443	23.6	18.7	-90.8	12.6
2025-01-10 10:31:28.886070	23.5	19.0	-90.7	6.1
2025-01-10 10:31:31.203591	23.4	19.3	-91.1	15.0
2025-01-10 10:31:33.535177	23.4	19.6	-90.8	10.8
2025-01-10 10:31:35.857043	23.3	19.8	-90.9	12.6
2025-01-10 10:31:38.167569	23.2	20.1	-90.6	13.3
2025-01-10 10:31:40.483044	23.1	20.4	-90.6	13.9
2025-01-10 10:31:42.798738	23.0	20.7	-90.6	6.1
2025-01-10 10:31:45.117648	22.9	21.0	-91.2	11.6
2025-01-10 10:31:47.442133	22.9	21.3	-90.6	15.0
2025-01-10 10:31:49.768761	22.8	21.7	-90.8	10.8
2025-01-10 10:31:52.091382	22.7	22.0	-90.7	13.8
2025-01-10 10:31:54.415371	22.6	22.3	-90.6	13.5
2025-01-10 10:31:56.732859	22.5	22.6	-90.8	10.6
2025-01-10 10:31:59.046042	22.4	22.9	-91.0	13.6
2025-01-10 10:32:01.350971	22.3	23.3	-90.9	7.8
2025-01-10 10:32:03.670613	22.2	23.6	-90.6	16.0
2025-01-10 10:32:05.995647	22.1	23.9	-90.3	14.6
2025-01-10 10:32:08.304861	22.0	24.3	-90.9	11.2
2025-01-10 10:32:10.625981	21.9	24.6	-90.3	14.5
2025-01-10 10:32:12.940359	21.8	25.0	-90.2	13.4
2025-01-10 10:32:15.266074	21.6	25.3	-90.1	6.7
2025-01-10 10:32:17.580094	21.5	25.7	-90.2	11.2
2025-01-10 10:32:19.905851	21.4	26.1	-91.1	12.3
2025-01-10 10:32:22.234252	21.3	26.4	-91.0	10.9
2025-01-10 10:32:24.549830	21.2	26.8	-90.8	11.7
2025-01-10 10:32:26.869938	21.0	27.2	-91.1	10.2
2025-01-10 10:32:29.182795	20.9	27.6	-91.1	9.0
2025-01-10 10:32:31.505163	20.8	28.0	-90.8	8.0
2025-01-10 10:32:33.821367	20.6	28.4	-91.1	2.8
2025-01-10 10:32:36.135998	20.5	28.8	-91.1	8.4
2025-01-10 10:32:38.456598	20.3	29.2	-91.1	10.0
2025-01-10 10:32:40.777471	20.2	29.6	-91.6	8.7
2025-01-10 10:32:43.095618	20.0	30.0	-91.5	10.7
2025-01-10 10:32:45.412710	19.9	30.4	-91.1	11.7
2025-01-10 10:32:47.728128	19.7	30.9	-91.7	7.5
2025-01-10 10:32:50.050208	19.5	31.3	-91.4	11.5
2025-01-10 10:32:52.374984	19.3	31.8	-91.3	7.3
2025-01-10 10:32:54.690887	19.2	32.2	-91.3	11.8
2025-01-10 10:32:57.007968	19.0	32.7	-91.4	8.9
2025-01-10 10:32:59.327202	18.8	33.1	-91.3	9.1
2025-01-10 10:33:01.631157	18.6	33.6	-91.1	12.8
2025-01-10 10:33:03.946292	18.4	34.1	-91.4	14.8
2025-01-10 10:33:06.265317	18.2	34.6	-91.6	5.8
2025-01-10 10:33:08.583590	18.0	35.1	-91.1	13.1
2025-01-10 10:33:10.914019	17.7	35.6	-91.6	13.4
2025-01-10 10:33:13.244042	17.5	36.1	-91.2	16.0
2025-01-10 10:33:15.567255	17.3	36.6	-91.4	15.9
2025-01-10 10:33:17.889873	17.0	37.1	-91.0	12.6
2025-01-10 10:33:20.206755	16.8	37.6	-91.2	17.0
2025-01-10 10:33:22.525367	16.5	38.2	-90.9	15.1
2025-01-10 10:33:24.848052	16.2	38.7	-91.5	8.3
2025-01-10 10:33:27.162316	16.0	39.3	-91.2	10.0
2025-01-10 10:33:29.482311	15.7	39.8	-91.0	17.0
2025-01-10 10:33:31.805495	15.4	40.4	-91.0	19.0
2025-01-10 10:33:34.127209	15.1	41.0	-91.2	18.5
2025-01-10 10:33:36.448995	14.7	41.6	-91.0	17.6
2025-01-10 10:33:38.759871	14.4	42.1	-91.0	18.3
2025-01-10 10:33:41.076900	14.0	42.7	-91.2	17.6
2025-01-10 10:33:43.409130	13.7	43.4	-90.8	11.9
2025-01-10 10:33:45.726033	13.3	44.0	-91.2	6.7
2025-01-10 10:33:48.042840	12.9	44.6	-91.5	20.5
2025-01-10 10:33:50.364180	12.5	45.2	-91.1	18.4
2025-01-10 10:33:52.686571	12.1	45.9	-91.2	18.0
2025-01-10 10:33:54.998713	11.6	46.5	-91.6	19.1
2025-01-10 10:33:57.301484	11.2	47.2	-91.1	12.0
2025-01-10 10:33:59.613425	10.7	47.9	-90.1	16.5
2025-01-10 10:34:01.920038	10.2	48.5	-90.0	14.8
2025-01-10 10:34:04.250286	9.6	49.2	-90.2	9.8
2025-01-10 10:34:06.575519	9.1	49.9	-89.5	13.9
2025-01-10 10:34:08.891857	8.5	50.6	-90.0	7.6
2025-01-10 10:34:11.214958	7.9	51.3	-90.2	7.6
2025-01-10 10:34:13.536362	7.3	52.0	-90.0	14.7
2025-01-10 10:34:15.855451	6.6	52.8	-89.7	11.7
2025-01-10 10:34:18.167390	5.9	53.5	-90.1	11.5
2025-01-10 10:34:20.493181	5.1	54.2	-89.9	9.1
2025-01-10 10:34:22.818428	4.3	55.0	-90.5	8.1
2025-01-10 10:34:25.145616	3.5	55.7	-90.7	13.9
2025-01-10 10:34:27.465549	2.6	56.5	-89.8	11.7
2025-01-10 10:34:29.790909	1.7	57.2	-90.1	8.7
2025-01-10 10:34:32.109022	0.7	58.0	-90.3	10.9
2025-01-10 10:34:34.435091	359.7	58.7	-91.2	5.7
2025-01-10 10:34:36.755100	358.6	59.5	-91.2	18.1
2025-01-10 10:34:39.070658	357.5	60.2	-91.1	21.8
2025-01-10 10:34:41.394597	356.2	61.0	-91.0	18.7
2025-01-10 10:34:43.709735	354.9	61.7	-91.2	10.4
2025-01-10 10:34:46.037630	353.5	62.5	-91.2	11.4
2025-01-10 10:34:48.355784	352.1	63.2	-91.2	14.1
2025-01-10 10:34:50.673104	350.5	64.0	-90.7	20.6
2025-01-10 10:34:52.992987	348.8	64.7	-91.5	20.7
2025-01-10 10:34:55.312567	347.0	65.4	-91.1	15.0
2025-01-10 10:34:57.632851	345.1	66.1	-91.0	16.2
2025-01-10 10:34:59.944750	343.1	66.7	-91.1	13.5
2025-01-10 10:35:02.242682	341.0	67.4	-91.3	8.3
2025-01-10 10:35:04.564222	338.7	68.0	-91.1	16.9
2025-01-10 10:35:06.883297	336.3	68.6	-91.2	7.9
2025-01-10 10:35:09.202318	333.7	69.1	-90.3	11.2
2025-01-10 10:35:11.512210	331.0	69.6	-90.1	12.7
2025-01-10 10:35:13.830559	328.2	70.1	-90.3	8.2
2025-01-10 10:35:16.152084	325.2	70.5	-91.6	13.7
2025-01-10 10:35:18.468653	322.1	70.9	-91.2	13.7
2025-01-10 10:35:20.788233	318.8	71.2	-91.2	8.9
2025-01-10 10:35:23.116899	315.4	71.5	-91.1	11.3
2025-01-10 10:35:25.433308	312.0	71.7	-90.4	13.0
2025-01-10 10:35:27.759220	308.4	71.8	-90.0	9.0
2025-01-10 10:35:30.075281	304.9	71.9	-90.1	19.3
2025-01-10 10:35:32.388326	301.3	71.9	-90.1	14.4
2025-01-10 10:35:34.721765	297.7	71.8	-90.0	17.6
2025-01-10 10:35:37.046107	294.2	71.7	-90.3	22.7
2025-01-10 10:35:39.361098	290.8	71.5	-89.9	20.9
2025-01-10 10:35:41.675180	287.4	71.2	-89.9	20.3
2025-01-10 10:35:43.986718	284.2	70.9	-91.1	15.2
2025-01-10 10:35:46.303579	281.0	70.5	-90.8	20.6
2025-01-10 10:35:48.626731	278.0	70.1	-91.0	22.2
2025-01-10 10:35:50.951387	275.1	69.6	-91.1	24.2
2025-01-10 10:35:53.276869	272.4	69.1	-91.5	24.2
2025-01-10 10:35:55.596768	269.8	68.6	-90.5	18.0
2025-01-10 10:35:57.927663	267.4	68.0	-90.7	24.7
2025-01-10 10:36:00.245957	265.1	67.4	-89.7	23.2
2025-01-10 10:36:02.552077	263.0	66.7	-89.8	25.7
2025-01-10 10:36:04.868403	261.0	66.1	-90.4	20.4
2025-01-10 10:36:07.207302	259.0	65.4	-90.4	21.0
2025-01-10 10:36:09.524226	257.2	64.7	-90.2	19.4
2025-01-10 10:36:11.840818	255.6	63.9	-89.5	21.8
2025-01-10 10:36:14.157569	254.0	63.2	-89.9	17.2
2025-01-10 10:36:16.479760	252.5	62.5	-90.0	19.1
2025-01-10 10:36:18.788258	251.1	61.7	-90.3	17.4
2025-01-10 10:36:21.088769	249.8	61.0	-90.1	20.2
2025-01-10 10:36:23.409045	248.6	60.2	-90.0	18.0
2025-01-10 10:36:25.740925	247.4	59.5	-90.4	15.0
2025-01-10 10:36:28.054254	246.3	58.7	-90.7	19.0
2025-01-10 10:36:30.371058	245.3	58.0	-90.0	11.7
2025-01-10 10:36:32.687856	244.3	57.2	-91.5	10.5
2025-01-10 10:36:35.001115	243.4	56.4	-91.0	12.5
2025-01-10 10:36:37.315761	242.5	55.7	-91.3	10.5
2025-01-10 10:36:39.632291	241.7	54.9	-91.0	18.5
2025-01-10 10:36:41.953795	240.9	54.2	-91.5	14.6
2025-01-10 10:36:44.269560	240.2	53.5	-91.4	6.1
2025-01-10 10:36:46.587089	239.5	52.7	-90.9	14.2
2025-01-10 10:36:48.910369	238.8	52.0	-91.3	10.5
2025-01-10 10:36:51.220958	238.1	51.3	-91.5	9.2
2025-01-10 10:36:53.536117	237.5	50.6	-91.4	7.3
2025-01-10 10:36:55.844657	236.9	49.9	-91.6	11.9
2025-01-10 10:36:58.169688	236.4	49.2	-91.5	13.1
2025-01-10 10:37:00.473166	235.9	48.5	-89.7	7.2
2025-01-10 10:37:02.786399	235.3	47.8	-90.2	6.3
2025-01-10 10:37:05.102073	234.9	47.1	-90.4	4.8
2025-01-10 10:37:07.167171	234.4	46.5	-91.3	6.6
2025-01-10 10:37:09.478285	234.0	45.9	-91.8	4.7
2025-01-10 10:37:11.808004	233.6	45.2	-91.6	11.8
2025-01-10 10:37:14.123070	233.1	44.6	-91.1	4.4
2025-01-10 10:37:16.450702	232.7	44.0	-91.5	6.6
2025-01-10 10:37:18.772574	232.4	43.3	-91.7	7.7
2025-01-10 10:37:21.092651	232.0	42.7	-90.9	9.1
2025-01-10 10:37:23.419152	231.6	42.1	-90.5	7.1
2025-01-10 10:37:25.740996	231.3	41.5	-90.8	7.0
2025-01-10 10:37:28.063091	231.0	40.9	-90.5	5.4
2025-01-10 10:37:30.374949	230.7	40.3	-90.9	10.8
2025-01-10 10:37:32.695506	230.4	39.8	-90.8	12.3
2025-01-10 10:37:35.016580	230.1	39.2	-91.6	14.1
2025-01-10 10:37:37.345423	229.8	38.6	-91.2	12.6
2025-01-10 10:37:39.670253	229.5	38.1	-91.1	17.2
2025-01-10 10:37:41.990490	229.2	37.5	-91.4	19.0
2025-01-10 10:37:44.302000	229.0	37.0	-90.8	17.8
2025-01-10 10:37:46.624784	228.7	36.5	-91.4	10.2
2025-01-10 10:37:48.943092	228.5	36.0	-90.8	11.0
2025-01-10 10:37:51.268103	228.3	35.5	-91.1	13.9
2025-01-10 10:37:53.583495	228.0	35.0	-91.3	15.4
2025-01-10 10:37:55.914950	227.8	34.5	-91.3	16.5
2025-01-10 10:37:58.251575	227.6	34.0	-89.9	17.1
2025-01-10 10:38:00.565357	227.4	33.5	-90.2	14.3
2025-01-10 10:38:02.897069	227.2	33.0	-90.2	12.6
2025-01-10 10:38:05.223692	227.0	32.5	-90.4	13.8
2025-01-10 10:38:07.543320	226.8	32.1	-90.5	8.8
2025-01-10 10:38:09.860572	226.6	31.6	-91.3	14.1
2025-01-10 10:38:12.185253	226.5	31.2	-91.2	15.3
2025-01-10 10:38:14.499519	226.3	30.7	-91.7	15.9
2025-01-10 10:38:16.821277	226.1	30.3	-91.6	15.7
2025-01-10 10:38:19.135463	226.0	29.9	-91.2	8.1
2025-01-10 10:38:21.450656	225.8	29.5	-91.8	7.3
2025-01-10 10:38:23.776930	225.7	29.0	-91.8	9.2
2025-01-10 10:38:26.093845	225.5	28.6	-91.4	7.0
2025-01-10 10:38:28.418498	225.4	28.2	-91.3	4.1
2025-01-10 10:38:30.743646	225.2	27.8	-91.8	5.0
2025-01-10 10:38:33.065893	225.1	27.4	-91.5	4.7
2025-01-10 10:38:35.384819	224.9	27.0	-91.2	5.2
2025-01-10 10:38:37.701187	224.8	26.7	-91.3	4.3
2025-01-10 10:38:40.032057	224.7	26.3	-91.5	9.0
2025-01-10 10:38:42.358526	224.6	25.9	-91.5	7.9
2025-01-10 10:38:44.682564	224.4	25.5	-91.5	9.9
2025-01-10 10:38:47.004841	224.3	25.2	-91.5	7.1
2025-01-10 10:38:49.326438	224.2	24.8	-91.2	4.2
2025-01-10 10:38:51.647181	224.1	24.5	-91.5	6.9
2025-01-10 10:38:53.972856	224.0	24.1	-91.5	10.1
2025-01-10 10:38:56.309177	223.9	23.8	-91.2	13.4
2025-01-10 10:38:58.632197	223.8	23.4	-91.5	13.3
2025-01-10 10:39:00.926894	223.7	23.1	-90.9	11.7
2025-01-10 10:39:03.237471	223.6	22.7	-91.1	11.3
2025-01-10 10:39:05.558071	223.5	22.4	-91.5	6.3
2025-01-10 10:39:07.870806	223.4	22.1	-91.7	7.4
2025-01-10 10:39:10.184860	223.3	21.8	-91.2	12.7
2025-01-10 10:39:12.504246	223.2	21.5	-91.5	13.4
2025-01-10 10:39:14.836746	223.1	21.1	-91.1	13.0
2025-01-10 10:39:17.175932	223.0	20.8	-91.4	15.1
2025-01-10 10:39:19.499151	222.9	20.5	-91.6	10.0
2025-01-10 10:39:21.829266	222.8	20.2	-91.6	13.4
2025-01-10 10:39:24.152556	222.8	19.9	-91.0	12.3
2025-01-10 10:39:26.480034	222.7	19.6	-91.5	14.8
2025-01-10 10:39:28.807605	222.6	19.3	-91.8	13.0
2025-01-10 10:39:31.127630	222.5	19.0	-91.4	6.9
2025-01-10 10:39:33.450424	222.4	18.8	-91.3	6.6
2025-01-10 10:39:35.772509	222.4	18.5	-91.7	12.3
2025-01-10 10:39:38.098409	222.3	18.2	-91.3	9.3
2025-01-10 10:39:40.417820	222.2	17.9	-91.3	11.2
2025-01-10 10:39:42.740116	222.1	17.6	-91.5	9.1
2025-01-10 10:39:45.062622	222.1	17.4	-91.3	7.2
2025-01-10 10:39:47.393299	222.0	17.1	-91.8	10.0
2025-01-10 10:39:49.703258	221.9	16.8	-91.6	10.7
2025-01-10 10:39:52.023282	221.9	16.6	-91.3	7.8
2025-01-10 10:39:54.343897	221.8	16.3	-91.3	8.6
2025-01-10 10:39:56.670657	221.8	16.1	-91.7	9.4
2025-01-10 10:39:58.996566	221.7	15.8	-91.6	5.9
2025-01-10 10:40:01.300309	221.6	15.6	-89.8	7.3
2025-01-10 10:40:03.626766	221.6	15.3	-90.6	4.6
2025-01-10 10:40:05.946962	221.5	15.1	-91.1	6.6
2025-01-10 10:40:08.270836	221.5	14.8	-90.4	5.3
2025-01-10 10:40:10.593248	221.4	14.6	-90.5	6.3
#Closed at: 2025-01-10 10:30:58.479979