passes_logs/2025/01/10/LEX_Murmansk/LEX_Murmansk__20250110_082356_NOAA_19_rec.log

#Pass ID: 20250110_082356_NOAA 19
#Satellite: NOAA 19
#Configuration: NOAA 19
#Start time: 2025-01-10 08:23:51.385834

#LorettStation: 1.0.0 05.05.2024
#Station: LEX_Murmansk
#Location: 33.156738 lon 68.926811 lat
#TLE: 1 33591U 09005A   25009.90667525  .00000313  00000+0  19132-3 0  9996
#TLE: 2 33591  99.0207  73.6295 0014600  71.1816 289.0938 14.13255869820561

#Time	Az	El	Level	SNR
2025-01-10 08:24:03.578300	28.0	16.3	-90.5	6.0
2025-01-10 08:24:05.886860	28.1	16.6	-90.6	2.9
2025-01-10 08:24:08.187690	28.2	16.8	-90.1	2.3
2025-01-10 08:24:10.488318	28.3	17.1	-90.1	3.6
2025-01-10 08:24:12.778738	28.4	17.3	-91.2	2.9
2025-01-10 08:24:15.069117	28.5	17.6	-90.7	6.5
2025-01-10 08:24:17.363008	28.6	17.9	-90.8	5.5
2025-01-10 08:24:19.661641	28.7	18.1	-91.0	6.2
2025-01-10 08:24:21.953853	28.8	18.4	-90.3	6.7
2025-01-10 08:24:24.255449	28.9	18.7	-90.7	2.4
2025-01-10 08:24:26.546194	29.0	18.9	-90.9	2.5
2025-01-10 08:24:28.841111	29.2	19.2	-90.9	2.8
2025-01-10 08:24:31.132487	29.3	19.5	-90.9	8.6
2025-01-10 08:24:33.431792	29.4	19.8	-91.1	7.8
2025-01-10 08:24:35.722283	29.5	20.1	-91.2	5.5
2025-01-10 08:24:38.014136	29.6	20.4	-90.7	13.5
2025-01-10 08:24:40.312258	29.7	20.7	-90.9	4.9
2025-01-10 08:24:42.605277	29.9	21.0	-90.8	2.2
2025-01-10 08:24:44.895153	30.0	21.3	-91.0	3.5
2025-01-10 08:24:47.197553	30.1	21.6	-90.7	9.2
2025-01-10 08:24:49.484210	30.2	21.9	-90.9	8.8
2025-01-10 08:24:51.798015	30.4	22.2	-91.2	2.2
2025-01-10 08:24:54.084738	30.5	22.5	-90.9	7.9
2025-01-10 08:24:56.390834	30.6	22.9	-91.3	5.9
2025-01-10 08:24:58.686651	30.8	23.2	-91.0	2.8
2025-01-10 08:25:00.978922	30.9	23.5	-91.2	5.0
2025-01-10 08:25:03.279126	31.1	23.8	-91.0	8.0
2025-01-10 08:25:05.572088	31.2	24.2	-91.2	8.0
2025-01-10 08:25:07.864553	31.4	24.5	-91.0	5.3
2025-01-10 08:25:10.162525	31.5	24.9	-90.8	9.3
2025-01-10 08:25:12.456131	31.7	25.2	-91.2	5.1
2025-01-10 08:25:14.746895	31.8	25.6	-91.3	2.9
2025-01-10 08:25:17.046256	32.0	25.9	-91.0	1.8
2025-01-10 08:25:19.345640	32.2	26.3	-91.4	5.9
2025-01-10 08:25:21.644516	32.3	26.7	-91.3	8.2
2025-01-10 08:25:23.943103	32.5	27.0	-91.6	4.7
2025-01-10 08:25:26.246828	32.7	27.4	-90.7	6.0
2025-01-10 08:25:28.541500	32.9	27.8	-90.6	4.6
2025-01-10 08:25:30.843034	33.1	28.2	-91.0	3.2
2025-01-10 08:25:33.139586	33.2	28.6	-90.9	4.0
2025-01-10 08:25:35.430437	33.4	29.0	-90.9	5.4
2025-01-10 08:25:37.731369	33.6	29.4	-91.2	6.5
2025-01-10 08:25:40.031615	33.8	29.8	-91.1	7.1
2025-01-10 08:25:42.335828	34.1	30.2	-90.9	5.8
2025-01-10 08:25:44.634073	34.3	30.6	-91.0	12.5
2025-01-10 08:25:46.933816	34.5	31.1	-91.1	6.0
2025-01-10 08:25:49.225049	34.7	31.5	-91.0	2.3
2025-01-10 08:25:51.516293	35.0	31.9	-90.6	5.5
2025-01-10 08:25:53.812089	35.2	32.4	-91.7	6.1
2025-01-10 08:25:56.110133	35.4	32.8	-91.1	13.8
2025-01-10 08:25:58.406195	35.7	33.3	-90.8	8.4
2025-01-10 08:26:00.694718	35.9	33.8	-91.1	8.6
2025-01-10 08:26:02.996281	36.2	34.2	-89.9	11.2
2025-01-10 08:26:05.294307	36.5	34.7	-90.6	8.6
2025-01-10 08:26:07.594370	36.8	35.2	-90.9	3.4
2025-01-10 08:26:09.891465	37.1	35.7	-91.1	7.7
2025-01-10 08:26:12.197451	37.4	36.2	-90.5	13.8
2025-01-10 08:26:14.495382	37.7	36.7	-91.0	13.8
2025-01-10 08:26:16.787714	38.0	37.2	-90.9	7.8
2025-01-10 08:26:19.079597	38.3	37.7	-90.9	9.0
2025-01-10 08:26:21.382637	38.6	38.3	-90.9	14.0
2025-01-10 08:26:23.678981	39.0	38.8	-90.8	11.6
2025-01-10 08:26:25.975921	39.3	39.3	-90.8	3.9
2025-01-10 08:26:28.267970	39.7	39.9	-90.4	2.8
2025-01-10 08:26:30.560946	40.1	40.4	-91.5	13.1
2025-01-10 08:26:32.866737	40.5	41.0	-91.3	12.5
2025-01-10 08:26:35.163904	40.9	41.6	-90.9	8.6
2025-01-10 08:26:37.463502	41.3	42.1	-91.0	9.0
2025-01-10 08:26:39.766633	41.8	42.7	-91.2	14.0
2025-01-10 08:26:42.059745	42.2	43.3	-90.5	13.1
2025-01-10 08:26:44.350920	42.7	43.9	-90.7	7.1
2025-01-10 08:26:46.655629	43.2	44.5	-91.1	2.4
2025-01-10 08:26:48.962205	43.7	45.1	-91.5	6.5
2025-01-10 08:26:51.255484	44.2	45.8	-90.9	9.6
2025-01-10 08:26:53.550787	44.8	46.4	-91.1	16.3
2025-01-10 08:26:55.850799	45.3	47.0	-91.4	5.4
2025-01-10 08:26:58.148193	45.9	47.7	-91.1	5.9
2025-01-10 08:27:00.434023	46.5	48.3	-91.4	5.4
2025-01-10 08:27:02.722621	47.2	49.0	-91.3	4.9
2025-01-10 08:27:05.020151	47.8	49.6	-90.9	6.6
2025-01-10 08:27:07.316000	48.6	50.3	-91.3	4.4
2025-01-10 08:27:09.611464	49.3	51.0	-91.0	3.1
2025-01-10 08:27:11.902726	50.0	51.6	-90.8	3.7
2025-01-10 08:27:14.199189	50.8	52.3	-90.6	8.8
2025-01-10 08:27:16.495588	51.7	53.0	-90.7	5.5
2025-01-10 08:27:18.801348	52.6	53.7	-91.0	12.4
2025-01-10 08:27:21.100168	53.5	54.4	-91.0	7.0
2025-01-10 08:27:23.390303	54.4	55.1	-91.2	3.8
2025-01-10 08:27:25.683411	55.5	55.7	-91.3	11.1
2025-01-10 08:27:27.985404	56.5	56.4	-90.8	7.3
2025-01-10 08:27:30.280062	57.6	57.1	-90.7	8.4
2025-01-10 08:27:32.581956	58.8	57.8	-91.1	7.2
2025-01-10 08:27:34.879530	60.0	58.5	-91.2	6.7
2025-01-10 08:27:37.201016	61.3	59.2	-91.0	4.0
2025-01-10 08:27:39.495017	62.7	59.8	-91.2	11.6
2025-01-10 08:27:41.792600	64.1	60.5	-91.0	13.9
2025-01-10 08:27:44.095435	65.7	61.2	-90.9	16.4
2025-01-10 08:27:46.388786	67.3	61.8	-90.8	11.2
2025-01-10 08:27:48.679221	68.9	62.4	-90.4	10.9
2025-01-10 08:27:50.989550	70.7	63.0	-91.2	8.8
2025-01-10 08:27:53.281700	72.5	63.6	-90.7	6.8
2025-01-10 08:27:55.578729	74.5	64.2	-91.2	7.4
2025-01-10 08:27:57.869872	76.5	64.8	-90.8	12.7
2025-01-10 08:28:00.163251	78.7	65.3	-91.2	9.9
2025-01-10 08:28:02.456961	80.9	65.8	-91.1	16.6
2025-01-10 08:28:04.749603	83.3	66.2	-91.3	15.2
2025-01-10 08:28:07.048105	85.7	66.7	-91.1	5.5
2025-01-10 08:28:09.342033	88.2	67.1	-90.6	6.5
2025-01-10 08:28:11.631374	90.9	67.4	-91.1	4.9
2025-01-10 08:28:13.931635	93.6	67.7	-91.3	5.9
2025-01-10 08:28:16.230208	96.4	68.0	-90.7	1.6
2025-01-10 08:28:18.526777	99.2	68.2	-91.2	4.9
2025-01-10 08:28:20.818059	102.1	68.3	-91.4	4.6
2025-01-10 08:28:23.120225	105.1	68.4	-91.2	7.8
2025-01-10 08:28:25.416411	108.0	68.5	-90.9	6.8
2025-01-10 08:28:27.710782	111.0	68.5	-91.2	7.9
2025-01-10 08:28:30.003899	114.0	68.5	-91.3	11.7
2025-01-10 08:28:32.300571	116.9	68.4	-90.7	12.2
2025-01-10 08:28:34.612799	119.8	68.2	-91.0	11.2
2025-01-10 08:28:36.903585	122.7	68.0	-90.8	20.7
2025-01-10 08:28:39.200308	125.5	67.8	-90.7	15.4
2025-01-10 08:28:41.498214	128.2	67.5	-91.0	12.0
2025-01-10 08:28:43.796649	130.9	67.1	-91.2	20.2
2025-01-10 08:28:46.103314	133.4	66.7	-90.7	10.8
2025-01-10 08:28:48.400935	135.9	66.3	-90.8	7.5
2025-01-10 08:28:50.689814	138.2	65.8	-91.0	16.9
2025-01-10 08:28:52.990328	140.5	65.4	-90.8	12.8
2025-01-10 08:28:55.291421	142.7	64.8	-90.9	11.1
2025-01-10 08:28:57.587586	144.7	64.3	-90.8	14.3
2025-01-10 08:28:59.885689	146.7	63.7	-91.1	12.9
2025-01-10 08:29:02.173459	148.6	63.1	-90.6	17.2
2025-01-10 08:29:04.468087	150.3	62.5	-90.7	7.2
2025-01-10 08:29:06.772620	152.0	61.9	-91.0	10.3
2025-01-10 08:29:09.069133	153.6	61.3	-91.0	13.8
2025-01-10 08:29:11.368165	155.2	60.6	-90.8	13.1
2025-01-10 08:29:13.666589	156.6	59.9	-91.3	19.4
2025-01-10 08:29:15.969482	158.0	59.3	-90.6	4.6
2025-01-10 08:29:18.272944	159.3	58.6	-90.9	16.5
2025-01-10 08:29:20.565020	160.5	57.9	-91.0	14.2
2025-01-10 08:29:22.866298	161.7	57.2	-91.0	4.4
2025-01-10 08:29:25.162883	162.8	56.5	-91.1	13.3
2025-01-10 08:29:27.458947	163.9	55.8	-91.6	8.8
2025-01-10 08:29:29.761477	164.9	55.2	-91.3	7.9
2025-01-10 08:29:32.064750	165.9	54.5	-90.9	10.4
2025-01-10 08:29:34.365973	166.8	53.8	-90.5	12.7
2025-01-10 08:29:36.654397	167.7	53.1	-90.8	13.3
2025-01-10 08:29:38.952325	168.6	52.4	-91.2	5.4
2025-01-10 08:29:41.246540	169.4	51.7	-91.2	8.9
2025-01-10 08:29:43.538991	170.1	51.0	-91.3	2.4
2025-01-10 08:29:45.829355	170.9	50.4	-90.9	4.8
2025-01-10 08:29:48.116883	171.6	49.7	-91.0	6.1
2025-01-10 08:29:50.422506	172.2	49.1	-90.9	7.7
2025-01-10 08:29:52.725955	172.9	48.4	-91.0	10.1
2025-01-10 08:29:55.023684	173.5	47.7	-91.1	7.5
2025-01-10 08:29:57.332060	174.1	47.1	-90.7	15.6
2025-01-10 08:29:59.629580	174.7	46.5	-91.0	12.3
2025-01-10 08:30:01.933305	175.2	45.8	-91.0	13.0
2025-01-10 08:30:04.246544	175.8	45.2	-90.9	14.5
2025-01-10 08:30:06.543698	176.3	44.6	-91.0	4.1
2025-01-10 08:30:08.841681	176.8	44.0	-90.9	9.3
2025-01-10 08:30:11.136567	177.3	43.4	-90.6	5.9
2025-01-10 08:30:13.430761	177.7	42.8	-90.4	8.0
2025-01-10 08:30:15.735510	178.1	42.2	-90.3	12.9
2025-01-10 08:30:18.031375	178.6	41.6	-90.8	13.1
2025-01-10 08:30:20.328659	179.0	41.1	-90.1	8.7
2025-01-10 08:30:22.633820	179.4	40.5	-90.9	9.4
2025-01-10 08:30:24.930561	179.8	39.9	-91.2	5.0
2025-01-10 08:30:27.219754	180.1	39.4	-90.8	11.4
2025-01-10 08:30:29.514738	180.5	38.8	-90.9	5.0
2025-01-10 08:30:31.810639	180.8	38.3	-91.5	11.3
2025-01-10 08:30:34.102343	181.2	37.8	-90.9	8.4
2025-01-10 08:30:36.386415	181.5	37.3	-90.7	9.6
2025-01-10 08:30:38.694558	181.8	36.7	-91.3	11.9
2025-01-10 08:30:40.992545	182.1	36.2	-90.6	9.8
2025-01-10 08:30:43.285886	182.4	35.7	-90.3	9.8
2025-01-10 08:30:45.590396	182.7	35.2	-90.9	6.2
2025-01-10 08:30:47.881486	183.0	34.8	-91.4	7.9
2025-01-10 08:30:50.179878	183.3	34.3	-90.9	10.1
2025-01-10 08:30:52.478459	183.5	33.8	-91.1	8.1
2025-01-10 08:30:54.782669	183.8	33.3	-91.4	10.3
2025-01-10 08:30:57.082101	184.0	32.9	-90.9	10.1
2025-01-10 08:30:59.381707	184.3	32.4	-90.9	9.8
2025-01-10 08:31:01.675350	184.5	32.0	-90.5	5.6
2025-01-10 08:31:03.974126	184.8	31.5	-90.4	3.7
2025-01-10 08:31:06.265775	185.0	31.1	-90.4	7.4
2025-01-10 08:31:08.560027	185.2	30.7	-90.7	5.7
2025-01-10 08:31:10.869922	185.4	30.2	-91.1	3.6
2025-01-10 08:31:13.178538	185.6	29.8	-90.6	3.8
2025-01-10 08:31:15.481954	185.8	29.4	-90.4	4.6
2025-01-10 08:31:17.780105	186.0	29.0	-90.1	5.1
2025-01-10 08:31:20.087761	186.2	28.6	-89.9	2.8
2025-01-10 08:31:22.390874	186.4	28.2	-90.6	5.1
2025-01-10 08:31:24.689295	186.6	27.8	-90.5	8.5
2025-01-10 08:31:26.988073	186.8	27.4	-91.0	6.5
2025-01-10 08:31:29.288733	187.0	27.1	-90.7	8.1
2025-01-10 08:31:31.582544	187.1	26.7	-90.2	5.4
2025-01-10 08:31:33.875366	187.3	26.3	-90.3	4.8
2025-01-10 08:31:36.177163	187.5	25.9	-90.4	5.8
2025-01-10 08:31:38.475417	187.6	25.6	-91.1	4.7
2025-01-10 08:31:40.776240	187.8	25.2	-91.0	7.0
2025-01-10 08:31:43.074497	188.0	24.9	-89.7	2.9
2025-01-10 08:31:45.382762	188.1	24.5	-90.5	6.0
2025-01-10 08:31:47.676303	188.3	24.2	-90.2	4.0
2025-01-10 08:31:49.974356	188.4	23.8	-90.5	2.7
2025-01-10 08:31:52.275945	188.6	23.5	-90.3	7.5
2025-01-10 08:31:54.581255	188.7	23.2	-90.4	5.7
2025-01-10 08:31:56.880415	188.8	22.8	-90.3	9.6
2025-01-10 08:31:59.188245	189.0	22.5	-90.9	11.2
2025-01-10 08:32:01.482249	189.1	22.2	-90.7	8.4
2025-01-10 08:32:03.778705	189.2	21.9	-91.3	5.0
2025-01-10 08:32:06.084956	189.4	21.6	-90.8	2.9
2025-01-10 08:32:08.381265	189.5	21.3	-91.2	4.1
2025-01-10 08:32:10.676870	189.6	21.0	-91.3	5.8
2025-01-10 08:32:12.982681	189.7	20.7	-91.2	8.6
2025-01-10 08:32:15.283134	189.9	20.4	-91.1	8.6
2025-01-10 08:32:17.576966	190.0	20.1	-91.2	3.7
2025-01-10 08:32:19.885932	190.1	19.8	-91.1	5.3
2025-01-10 08:32:22.183434	190.2	19.5	-90.6	8.5
2025-01-10 08:32:24.480413	190.3	19.2	-90.9	7.1
2025-01-10 08:32:26.773714	190.4	18.9	-91.4	6.6
2025-01-10 08:32:29.069504	190.5	18.7	-90.6	6.1
2025-01-10 08:32:31.377112	190.6	18.4	-90.3	2.6
2025-01-10 08:32:33.684834	190.7	18.1	-90.5	4.7
2025-01-10 08:32:35.981268	190.8	17.8	-90.9	1.7
2025-01-10 08:32:38.271378	190.9	17.6	-90.8	7.2
2025-01-10 08:32:40.578967	191.0	17.3	-90.9	6.4
2025-01-10 08:32:42.866344	191.1	17.0	-91.1	6.7
2025-01-10 08:32:45.160360	191.2	16.8	-91.2	5.9
2025-01-10 08:32:47.458031	191.3	16.5	-91.2	3.8
2025-01-10 08:32:49.751574	191.4	16.3	-91.1	4.7
2025-01-10 08:32:52.062694	191.5	16.0	-91.4	4.7
2025-01-10 08:32:54.352842	191.6	15.8	-91.3	5.0
2025-01-10 08:32:56.646970	191.7	15.5	-91.3	3.3
2025-01-10 08:32:58.947367	191.8	15.3	-91.6	2.9
2025-01-10 08:33:01.238357	191.9	15.0	-90.9	2.9
2025-01-10 08:33:03.650068	192.0	14.8	-90.7	2.4
2025-01-10 08:33:05.958358	192.0	14.6	-91.3	1.9
#Closed at: 2025-01-10 08:23:56.385378