passes_logs/2025/01/10/LEX_Murmansk/LEX_Murmansk__20250110_171012_NOAA_18_rec.log

#Pass ID: 20250110_171012_NOAA 18
#Satellite: NOAA 18
#Configuration: NOAA 18
#Start time: 2025-01-10 17:10:07.374351

#LorettStation: 1.0.0 05.05.2024
#Station: LEX_Murmansk
#Location: 33.156738 lon 68.926811 lat
#TLE: 1 28654U 05018A   25009.85378120  .00000357  00000+0  21312-3 0  9995
#TLE: 2 28654  98.8576  90.9590 0014108 193.6372 166.4421 14.13482291 12379

#Time	Az	El	Level	SNR
2025-01-10 17:10:21.597861	101.5	16.4	-89.2	10.9
2025-01-10 17:10:22.752486	101.4	16.5	-88.6	7.5
2025-01-10 17:10:23.906660	101.3	16.6	-88.6	11.7
2025-01-10 17:10:25.062282	101.2	16.7	-89.0	9.5
2025-01-10 17:10:26.212635	101.1	16.8	-89.6	11.9
2025-01-10 17:10:27.368641	101.0	17.0	-89.9	10.5
2025-01-10 17:10:28.517533	100.8	17.1	-89.4	7.2
2025-01-10 17:10:29.669788	100.7	17.2	-89.1	7.1
2025-01-10 17:10:30.823973	100.6	17.3	-89.5	7.1
2025-01-10 17:10:31.978070	100.5	17.4	-88.7	7.0
2025-01-10 17:10:33.133254	100.4	17.5	-88.8	5.0
2025-01-10 17:10:34.287382	100.2	17.7	-88.3	6.7
2025-01-10 17:10:35.433061	100.1	17.8	-88.4	8.2
2025-01-10 17:10:36.584344	100.0	17.9	-88.5	6.1
2025-01-10 17:10:37.731065	99.9	18.0	-88.8	5.3
2025-01-10 17:10:38.883268	99.7	18.1	-88.9	7.9
2025-01-10 17:10:40.040612	99.6	18.3	-89.1	7.8
2025-01-10 17:10:41.200252	99.5	18.4	-88.8	8.4
2025-01-10 17:10:42.350389	99.4	18.5	-89.3	7.0
2025-01-10 17:10:43.499610	99.2	18.6	-89.5	7.3
2025-01-10 17:10:44.653704	99.1	18.7	-89.1	6.3
2025-01-10 17:10:45.820519	99.0	18.9	-88.7	5.1
2025-01-10 17:10:46.966634	98.8	19.0	-89.2	4.7
2025-01-10 17:10:48.126038	98.7	19.1	-88.8	4.8
2025-01-10 17:10:49.285112	98.6	19.2	-88.9	4.9
2025-01-10 17:10:50.440240	98.4	19.4	-89.6	4.0
2025-01-10 17:10:51.592912	98.3	19.5	-89.6	3.8
2025-01-10 17:10:52.744793	98.1	19.6	-89.1	5.4
2025-01-10 17:10:53.893349	98.0	19.7	-89.1	3.2
2025-01-10 17:10:55.050444	97.9	19.9	-89.2	4.3
2025-01-10 17:10:56.203795	97.7	20.0	-90.0	5.6
2025-01-10 17:10:57.356806	97.6	20.1	-89.5	4.8
2025-01-10 17:10:58.521502	97.4	20.2	-89.8	3.7
2025-01-10 17:10:59.673067	97.3	20.4	-88.8	4.5
2025-01-10 17:11:00.813874	97.1	20.5	-88.7	7.4
2025-01-10 17:11:01.978274	97.0	20.6	-88.9	6.6
2025-01-10 17:11:03.139727	96.8	20.8	-88.9	8.4
2025-01-10 17:11:04.293234	96.7	20.9	-88.5	5.4
2025-01-10 17:11:05.440900	96.5	21.0	-89.1	4.2
2025-01-10 17:11:06.596917	96.4	21.2	-89.4	4.9
2025-01-10 17:11:07.751333	96.2	21.3	-89.7	10.1
2025-01-10 17:11:08.908109	96.1	21.4	-89.3	6.3
2025-01-10 17:11:10.058446	95.9	21.5	-89.2	3.4
2025-01-10 17:11:11.214104	95.7	21.7	-88.6	7.5
2025-01-10 17:11:12.362813	95.6	21.8	-89.1	8.0
2025-01-10 17:11:13.510919	95.4	21.9	-88.9	7.2
2025-01-10 17:11:14.663115	95.3	22.1	-89.2	5.8
2025-01-10 17:11:15.822061	95.1	22.2	-89.3	5.5
2025-01-10 17:11:16.976469	94.9	22.3	-89.6	6.0
2025-01-10 17:11:18.122783	94.8	22.5	-89.4	3.8
2025-01-10 17:11:19.278426	94.6	22.6	-88.8	6.4
2025-01-10 17:11:20.430448	94.4	22.8	-89.9	5.8
2025-01-10 17:11:21.586578	94.3	22.9	-90.1	5.3
2025-01-10 17:11:22.734647	94.1	23.0	-90.3	4.6
2025-01-10 17:11:23.886306	93.9	23.2	-89.2	3.4
2025-01-10 17:11:25.034508	93.7	23.3	-90.3	3.1
2025-01-10 17:11:26.204002	93.5	23.4	-89.6	5.2
2025-01-10 17:11:27.357393	93.4	23.6	-89.9	7.6
2025-01-10 17:11:28.509378	93.2	23.7	-90.1	4.0
2025-01-10 17:11:29.664570	93.0	23.9	-90.2	4.5
2025-01-10 17:11:30.811608	92.8	24.0	-89.4	4.5
2025-01-10 17:11:31.952281	92.6	24.1	-89.9	7.1
2025-01-10 17:11:33.099190	92.4	24.3	-89.6	8.4
2025-01-10 17:11:34.235774	92.3	24.4	-89.4	9.3
2025-01-10 17:11:35.356306	92.1	24.5	-89.9	9.1
2025-01-10 17:11:36.476430	91.9	24.7	-89.7	6.9
2025-01-10 17:11:37.596825	91.7	24.8	-89.9	6.8
2025-01-10 17:11:38.717999	91.5	25.0	-89.9	7.8
2025-01-10 17:11:39.838052	91.3	25.1	-89.6	8.9
2025-01-10 17:11:40.958694	91.1	25.2	-90.1	8.2
2025-01-10 17:11:42.078804	90.9	25.4	-89.8	8.3
2025-01-10 17:11:43.208970	90.7	25.5	-89.6	8.0
2025-01-10 17:11:44.343110	90.5	25.7	-90.7	7.3
2025-01-10 17:11:45.494588	90.3	25.8	-90.7	5.2
2025-01-10 17:11:46.643433	90.1	26.0	-89.9	4.7
2025-01-10 17:11:47.793201	89.9	26.1	-90.0	8.8
2025-01-10 17:11:48.942908	89.7	26.2	-90.1	6.5
2025-01-10 17:11:50.095270	89.5	26.4	-89.0	7.7
2025-01-10 17:11:51.247581	89.2	26.5	-88.8	8.9
2025-01-10 17:11:52.396489	89.0	26.7	-89.6	9.9
2025-01-10 17:11:53.553568	88.8	26.8	-89.6	7.0
2025-01-10 17:11:54.712836	88.6	27.0	-89.6	9.2
2025-01-10 17:11:55.869983	88.4	27.1	-89.2	8.9
2025-01-10 17:11:57.020856	88.1	27.3	-89.4	7.9
2025-01-10 17:11:58.166857	87.9	27.4	-90.3	7.8
2025-01-10 17:11:59.318311	87.7	27.6	-90.1	6.2
2025-01-10 17:12:00.457806	87.4	27.7	-90.6	6.7
2025-01-10 17:12:01.612191	87.2	27.9	-89.6	8.8
2025-01-10 17:12:02.769943	87.0	28.0	-89.5	6.8
2025-01-10 17:12:03.921658	86.7	28.2	-89.3	6.8
2025-01-10 17:12:05.072405	86.5	28.3	-89.0	6.9
2025-01-10 17:12:06.223059	86.2	28.5	-89.5	9.7
2025-01-10 17:12:07.374693	86.0	28.6	-89.8	11.3
2025-01-10 17:12:08.534623	85.7	28.8	-90.2	7.4
2025-01-10 17:12:09.690826	85.5	28.9	-90.8	13.5
2025-01-10 17:12:10.846085	85.2	29.1	-90.6	14.9
2025-01-10 17:12:11.993352	85.0	29.2	-91.0	14.9
2025-01-10 17:12:13.144303	84.7	29.4	-90.4	15.2
2025-01-10 17:12:14.301883	84.4	29.5	-90.5	17.1
2025-01-10 17:12:15.455913	84.2	29.7	-90.0	14.8
2025-01-10 17:12:16.608698	83.9	29.8	-89.8	12.0
2025-01-10 17:12:17.763437	83.6	30.0	-89.7	15.8
2025-01-10 17:12:18.920168	83.4	30.1	-90.0	11.3
2025-01-10 17:12:20.070492	83.1	30.3	-89.3	11.1
2025-01-10 17:12:21.218194	82.8	30.4	-89.6	14.7
2025-01-10 17:12:22.367091	82.5	30.6	-89.2	13.9
2025-01-10 17:12:23.517765	82.3	30.7	-89.6	12.4
2025-01-10 17:12:24.664596	82.0	30.9	-90.6	11.1
2025-01-10 17:12:25.815525	81.7	31.0	-90.7	13.9
2025-01-10 17:12:26.962313	81.4	31.2	-90.8	8.6
2025-01-10 17:12:28.111045	81.1	31.3	-89.9	7.2
2025-01-10 17:12:29.262756	80.8	31.5	-89.5	12.0
2025-01-10 17:12:30.418256	80.5	31.6	-89.2	10.8
2025-01-10 17:12:31.575351	80.2	31.8	-89.2	8.2
2025-01-10 17:12:32.730906	79.9	31.9	-89.9	16.1
2025-01-10 17:12:33.890200	79.6	32.1	-90.6	17.2
2025-01-10 17:12:35.040187	79.3	32.2	-90.1	16.6
2025-01-10 17:12:36.195272	79.0	32.4	-89.4	15.6
2025-01-10 17:12:37.344936	78.6	32.5	-89.4	17.9
2025-01-10 17:12:38.487297	78.3	32.7	-90.2	13.0
2025-01-10 17:12:39.635028	78.0	32.8	-90.4	14.4
2025-01-10 17:12:40.783309	77.7	33.0	-90.2	18.9
2025-01-10 17:12:41.940546	77.4	33.1	-89.8	12.5
2025-01-10 17:12:43.100028	77.0	33.3	-89.7	13.5
2025-01-10 17:12:44.254468	76.7	33.4	-89.8	13.4
2025-01-10 17:12:45.400744	76.4	33.6	-90.3	14.6
2025-01-10 17:12:46.551765	76.0	33.7	-90.6	15.4
2025-01-10 17:12:47.713578	75.7	33.9	-91.0	15.6
2025-01-10 17:12:48.869589	75.3	34.0	-90.2	16.8
2025-01-10 17:12:50.022579	75.0	34.1	-89.8	11.4
2025-01-10 17:12:51.181756	74.6	34.3	-89.8	12.3
2025-01-10 17:12:52.329078	74.3	34.4	-89.6	15.5
2025-01-10 17:12:53.488433	73.9	34.6	-90.1	6.2
2025-01-10 17:12:54.636490	73.5	34.7	-90.7	9.7
2025-01-10 17:12:55.798419	73.2	34.9	-91.0	14.5
2025-01-10 17:12:56.948569	72.8	35.0	-90.8	10.4
2025-01-10 17:12:58.107464	72.4	35.1	-90.8	14.1
2025-01-10 17:12:59.257382	72.1	35.3	-90.5	15.8
2025-01-10 17:13:00.403285	71.7	35.4	-90.5	18.1
2025-01-10 17:13:01.555233	71.3	35.6	-90.9	19.4
2025-01-10 17:13:02.709940	70.9	35.7	-90.7	19.4
2025-01-10 17:13:03.868320	70.5	35.8	-90.6	19.1
2025-01-10 17:13:05.017566	70.1	36.0	-89.8	11.2
2025-01-10 17:13:06.165095	69.7	36.1	-90.3	9.4
2025-01-10 17:13:07.322117	69.3	36.2	-90.3	14.6
2025-01-10 17:13:08.478228	68.9	36.4	-90.5	10.3
2025-01-10 17:13:09.630127	68.5	36.5	-90.7	14.2
2025-01-10 17:13:10.787481	68.1	36.6	-90.8	16.5
2025-01-10 17:13:11.939740	67.7	36.8	-90.6	15.9
2025-01-10 17:13:13.097651	67.3	36.9	-90.1	15.8
2025-01-10 17:13:14.246810	66.9	37.0	-89.8	16.2
2025-01-10 17:13:15.394129	66.5	37.1	-90.1	16.0
2025-01-10 17:13:16.552701	66.0	37.3	-90.2	13.7
2025-01-10 17:13:17.710027	65.6	37.4	-90.4	13.6
2025-01-10 17:13:18.860786	65.2	37.5	-90.1	14.3
2025-01-10 17:13:20.020827	64.7	37.6	-89.7	8.2
2025-01-10 17:13:21.173412	64.3	37.7	-89.2	11.5
2025-01-10 17:13:22.325256	63.9	37.9	-89.3	13.1
2025-01-10 17:13:23.482192	63.4	38.0	-89.6	8.3
2025-01-10 17:13:24.635777	63.0	38.1	-89.1	9.8
2025-01-10 17:13:25.788703	62.5	38.2	-89.5	16.4
2025-01-10 17:13:26.942204	62.1	38.3	-89.6	12.3
2025-01-10 17:13:28.093364	61.6	38.4	-89.6	12.2
2025-01-10 17:13:29.248407	61.2	38.5	-88.9	14.9
2025-01-10 17:13:30.404795	60.7	38.6	-89.1	15.3
2025-01-10 17:13:31.555323	60.2	38.7	-90.6	18.4
2025-01-10 17:13:32.709569	59.8	38.8	-91.1	17.2
2025-01-10 17:13:33.865747	59.3	38.9	-90.9	16.6
2025-01-10 17:13:35.021383	58.8	39.0	-91.0	15.1
2025-01-10 17:13:36.176921	58.3	39.1	-90.8	17.1
2025-01-10 17:13:37.330446	57.9	39.2	-90.8	18.2
2025-01-10 17:13:38.485140	57.4	39.3	-91.0	10.6
2025-01-10 17:13:39.645924	56.9	39.4	-91.4	14.0
2025-01-10 17:13:40.799589	56.4	39.5	-90.9	17.5
2025-01-10 17:13:41.959668	55.9	39.6	-90.4	11.1
2025-01-10 17:13:43.117317	55.4	39.7	-89.4	12.1
2025-01-10 17:13:44.267836	54.9	39.7	-89.4	14.5
2025-01-10 17:13:45.425082	54.4	39.8	-89.5	13.0
2025-01-10 17:13:46.584175	53.9	39.9	-89.3	14.6
2025-01-10 17:13:47.740278	53.4	40.0	-90.2	17.2
2025-01-10 17:13:48.899140	52.9	40.0	-90.6	18.2
2025-01-10 17:13:50.052512	52.4	40.1	-90.5	19.0
2025-01-10 17:13:51.209217	51.9	40.2	-90.3	17.1
2025-01-10 17:13:52.360205	51.4	40.2	-90.8	16.7
2025-01-10 17:13:53.512035	50.9	40.3	-90.7	13.2
2025-01-10 17:13:54.661668	50.4	40.4	-90.9	13.2
2025-01-10 17:13:55.819410	49.8	40.4	-91.1	15.2
2025-01-10 17:13:56.973019	49.3	40.5	-91.3	11.4
2025-01-10 17:13:58.119418	48.8	40.5	-90.5	9.9
2025-01-10 17:13:59.277325	48.3	40.6	-90.6	16.7
2025-01-10 17:14:00.422621	47.8	40.6	-90.0	9.7
2025-01-10 17:14:01.564688	47.3	40.7	-89.7	10.0
2025-01-10 17:14:02.723357	46.7	40.7	-90.4	15.6
2025-01-10 17:14:03.871306	46.2	40.7	-90.6	13.5
2025-01-10 17:14:05.022655	45.7	40.8	-90.9	8.9
2025-01-10 17:14:06.171184	45.1	40.8	-90.5	13.8
2025-01-10 17:14:07.327847	44.6	40.8	-90.9	17.1
2025-01-10 17:14:08.482444	44.1	40.9	-90.8	11.3
2025-01-10 17:14:09.645021	43.5	40.9	-91.3	14.6
2025-01-10 17:14:10.784766	43.0	40.9	-91.0	18.8
2025-01-10 17:14:11.932341	42.5	40.9	-90.9	13.6
2025-01-10 17:14:13.085566	42.0	40.9	-90.3	13.8
2025-01-10 17:14:14.241924	41.4	40.9	-90.4	13.7
2025-01-10 17:14:15.398111	40.9	41.0	-91.0	15.2
2025-01-10 17:14:16.551580	40.4	41.0	-90.9	17.6
2025-01-10 17:14:17.708582	39.8	41.0	-91.0	16.1
2025-01-10 17:14:18.859336	39.3	41.0	-90.1	15.7
2025-01-10 17:14:20.017930	38.7	41.0	-90.5	17.4
2025-01-10 17:14:21.169789	38.2	41.0	-89.5	15.5
2025-01-10 17:14:22.339549	37.7	41.0	-89.4	18.5
2025-01-10 17:14:23.489534	37.1	40.9	-89.5	16.4
2025-01-10 17:14:24.648828	36.6	40.9	-89.6	16.2
2025-01-10 17:14:25.806683	36.1	40.9	-89.7	19.0
2025-01-10 17:14:26.961141	35.5	40.9	-90.4	14.7
2025-01-10 17:14:28.113860	35.0	40.9	-89.5	13.2
2025-01-10 17:14:29.268867	34.5	40.9	-89.4	17.0
2025-01-10 17:14:30.425872	33.9	40.8	-89.9	13.7
2025-01-10 17:14:31.577495	33.4	40.8	-89.7	11.7
2025-01-10 17:14:32.728388	32.9	40.8	-90.3	16.9
2025-01-10 17:14:33.886507	32.3	40.7	-90.6	18.0
2025-01-10 17:14:35.040840	31.8	40.7	-90.1	12.9
2025-01-10 17:14:36.210966	31.3	40.6	-89.9	17.2
2025-01-10 17:14:37.370310	30.8	40.6	-90.2	16.9
2025-01-10 17:14:38.521648	30.2	40.6	-90.2	8.6
2025-01-10 17:14:39.677365	29.7	40.5	-90.2	16.2
2025-01-10 17:14:40.831856	29.2	40.5	-90.2	19.6
2025-01-10 17:14:41.978727	28.7	40.4	-90.3	10.2
2025-01-10 17:14:43.135870	28.2	40.3	-89.5	11.6
2025-01-10 17:14:44.281689	27.6	40.3	-89.2	16.4
2025-01-10 17:14:45.433805	27.1	40.2	-89.5	10.1
2025-01-10 17:14:46.593678	26.6	40.2	-89.9	7.9
2025-01-10 17:14:47.750673	26.1	40.1	-89.3	14.1
2025-01-10 17:14:48.896736	25.6	40.0	-89.7	14.7
2025-01-10 17:14:50.050514	25.1	40.0	-89.7	10.6
2025-01-10 17:14:51.201295	24.6	39.9	-89.9	15.8
2025-01-10 17:14:52.351696	24.1	39.8	-89.5	16.7
2025-01-10 17:14:53.506013	23.6	39.7	-89.7	9.6
2025-01-10 17:14:54.654925	23.1	39.6	-89.9	12.6
2025-01-10 17:14:55.804495	22.6	39.6	-89.9	17.3
2025-01-10 17:14:56.963945	22.1	39.5	-89.8	9.1
2025-01-10 17:14:58.108069	21.7	39.4	-89.9	9.9
2025-01-10 17:14:59.265265	21.2	39.3	-89.9	17.9
2025-01-10 17:15:00.406007	20.7	39.2	-90.1	13.9
2025-01-10 17:15:01.559777	20.2	39.1	-90.0	10.8
2025-01-10 17:15:02.711228	19.7	39.0	-88.9	14.6
2025-01-10 17:15:03.865789	19.3	38.9	-89.4	15.3
2025-01-10 17:15:05.013516	18.8	38.8	-89.6	10.4
2025-01-10 17:15:06.176689	18.3	38.7	-89.7	10.1
2025-01-10 17:15:07.326048	17.9	38.6	-89.8	14.8
2025-01-10 17:15:08.469904	17.4	38.5	-89.5	9.0
2025-01-10 17:15:09.634674	16.9	38.4	-89.7	8.2
2025-01-10 17:15:10.787747	16.5	38.3	-89.8	17.0
2025-01-10 17:15:11.946275	16.0	38.2	-90.0	8.5
2025-01-10 17:15:13.092684	15.6	38.1	-90.1	7.9
2025-01-10 17:15:14.250925	15.1	38.0	-89.6	14.8
2025-01-10 17:15:15.408973	14.7	37.8	-90.4	10.1
2025-01-10 17:15:16.560746	14.2	37.7	-90.4	9.2
2025-01-10 17:15:17.714203	13.8	37.6	-89.7	15.1
2025-01-10 17:15:18.871719	13.4	37.5	-90.0	14.0
2025-01-10 17:15:20.029502	12.9	37.4	-90.0	7.8
2025-01-10 17:15:21.187406	12.5	37.2	-89.4	10.3
2025-01-10 17:15:22.341726	12.1	37.1	-89.6	15.1
2025-01-10 17:15:23.488573	11.7	37.0	-90.6	9.2
2025-01-10 17:15:24.643422	11.3	36.9	-90.5	9.3
2025-01-10 17:15:25.800098	10.8	36.7	-90.0	15.3
2025-01-10 17:15:26.952883	10.4	36.6	-89.4	9.7
2025-01-10 17:15:28.101659	10.0	36.5	-89.4	8.8
2025-01-10 17:15:29.246802	9.6	36.4	-89.9	15.5
2025-01-10 17:15:30.398616	9.2	36.2	-90.1	15.2
2025-01-10 17:15:31.552154	8.8	36.1	-90.4	10.6
2025-01-10 17:15:32.706351	8.4	36.0	-90.7	15.7
2025-01-10 17:15:33.860470	8.0	35.8	-89.3	16.6
2025-01-10 17:15:35.009586	7.6	35.7	-89.9	11.8
2025-01-10 17:15:36.166036	7.3	35.5	-89.4	13.1
2025-01-10 17:15:37.317744	6.9	35.4	-90.0	14.2
2025-01-10 17:15:38.460736	6.5	35.3	-89.8	11.5
2025-01-10 17:15:39.608355	6.1	35.1	-89.7	13.1
2025-01-10 17:15:40.768224	5.8	35.0	-90.1	15.2
2025-01-10 17:15:41.925635	5.4	34.8	-89.9	14.4
2025-01-10 17:15:43.074364	5.0	34.7	-89.8	13.9
2025-01-10 17:15:44.226679	4.7	34.6	-89.6	15.0
2025-01-10 17:15:45.381491	4.3	34.4	-89.6	15.1
2025-01-10 17:15:46.539692	3.9	34.3	-90.2	15.4
2025-01-10 17:15:47.697877	3.6	34.1	-90.0	13.5
2025-01-10 17:15:48.852353	3.2	34.0	-90.0	16.0
2025-01-10 17:15:50.009341	2.9	33.8	-90.0	15.7
2025-01-10 17:15:51.164367	2.5	33.7	-90.2	14.2
2025-01-10 17:15:52.314341	2.2	33.5	-90.3	13.6
2025-01-10 17:15:53.469049	1.9	33.4	-90.3	12.3
2025-01-10 17:15:54.618452	1.5	33.2	-90.1	10.2
2025-01-10 17:15:55.768404	1.2	33.1	-91.0	14.8
2025-01-10 17:15:56.919705	0.9	33.0	-91.1	10.5
2025-01-10 17:15:58.073617	0.6	32.8	-90.9	8.8
2025-01-10 17:15:59.224962	0.2	32.7	-91.0	10.2
2025-01-10 17:16:00.370946	359.9	32.5	-91.2	9.8
2025-01-10 17:16:01.526478	359.6	32.4	-91.5	4.5
2025-01-10 17:16:02.683170	359.3	32.2	-91.1	7.5
2025-01-10 17:16:03.835706	359.0	32.1	-91.4	9.5
2025-01-10 17:16:04.985460	358.7	31.9	-91.4	7.9
2025-01-10 17:16:06.141427	358.4	31.8	-91.1	7.8
2025-01-10 17:16:07.309318	358.1	31.6	-90.6	14.9
2025-01-10 17:16:08.456067	357.8	31.5	-90.7	10.1
2025-01-10 17:16:09.599262	357.5	31.3	-91.2	10.0
2025-01-10 17:16:10.750982	357.2	31.1	-91.1	12.3
2025-01-10 17:16:11.906612	356.9	31.0	-90.7	10.9
2025-01-10 17:16:13.062670	356.6	30.8	-90.6	11.9
2025-01-10 17:16:14.219557	356.3	30.7	-91.0	10.0
2025-01-10 17:16:15.372863	356.0	30.5	-91.0	9.7
2025-01-10 17:16:16.523470	355.7	30.4	-91.1	11.1
2025-01-10 17:16:17.675317	355.5	30.2	-91.1	15.1
2025-01-10 17:16:18.822909	355.2	30.1	-91.1	13.2
2025-01-10 17:16:19.970374	354.9	29.9	-91.2	11.7
2025-01-10 17:16:21.118233	354.6	29.8	-90.8	14.6
2025-01-10 17:16:22.276086	354.4	29.6	-90.5	13.0
2025-01-10 17:16:23.426757	354.1	29.5	-91.2	11.6
2025-01-10 17:16:24.583261	353.9	29.3	-90.9	9.9
2025-01-10 17:16:25.743853	353.6	29.2	-90.7	12.9
2025-01-10 17:16:26.900713	353.3	29.0	-91.0	8.7
2025-01-10 17:16:28.050817	353.1	28.9	-91.0	5.9
2025-01-10 17:16:29.199335	352.8	28.7	-90.1	8.4
2025-01-10 17:16:30.348233	352.6	28.6	-90.0	8.8
2025-01-10 17:16:31.492623	352.3	28.4	-90.5	5.1
2025-01-10 17:16:32.647947	352.1	28.3	-91.2	8.3
2025-01-10 17:16:33.805077	351.8	28.1	-91.3	12.0
2025-01-10 17:16:34.956182	351.6	28.0	-91.2	6.8
2025-01-10 17:16:36.110148	351.4	27.8	-91.3	7.2
2025-01-10 17:16:37.259073	351.1	27.7	-91.0	12.2
2025-01-10 17:16:38.406627	350.9	27.5	-90.7	11.1
2025-01-10 17:16:39.557949	350.7	27.4	-91.5	9.1
2025-01-10 17:16:40.716939	350.4	27.2	-91.2	8.3
2025-01-10 17:16:41.872897	350.2	27.1	-91.0	7.2
2025-01-10 17:16:43.023390	350.0	26.9	-91.0	9.8
2025-01-10 17:16:44.176809	349.8	26.8	-90.7	11.5
2025-01-10 17:16:45.342403	349.5	26.6	-90.4	11.3
2025-01-10 17:16:46.489896	349.3	26.5	-90.9	10.2
2025-01-10 17:16:47.644213	349.1	26.4	-89.8	11.8
2025-01-10 17:16:48.790669	348.9	26.2	-90.5	11.6
2025-01-10 17:16:49.944164	348.7	26.1	-91.3	8.3
2025-01-10 17:16:51.097359	348.5	25.9	-90.6	9.4
2025-01-10 17:16:52.258261	348.2	25.8	-90.4	14.0
2025-01-10 17:16:53.412072	348.0	25.6	-90.8	12.9
2025-01-10 17:16:54.567954	347.8	25.5	-90.7	10.4
2025-01-10 17:16:55.723633	347.6	25.3	-91.2	8.8
2025-01-10 17:16:56.877811	347.4	25.2	-91.3	11.4
2025-01-10 17:16:58.031226	347.2	25.1	-91.1	8.8
2025-01-10 17:16:59.178278	347.0	24.9	-90.9	9.6
2025-01-10 17:17:00.324073	346.8	24.8	-91.1	10.3
2025-01-10 17:17:01.472478	346.6	24.6	-90.2	13.0
2025-01-10 17:17:02.630748	346.4	24.5	-90.5	11.3
2025-01-10 17:17:03.789763	346.3	24.3	-90.2	13.0
2025-01-10 17:17:04.939589	346.1	24.2	-90.0	12.3
2025-01-10 17:17:06.089241	345.9	24.1	-90.0	13.7
2025-01-10 17:17:07.237096	345.7	23.9	-89.9	15.0
2025-01-10 17:17:08.388686	345.5	23.8	-89.4	11.9
2025-01-10 17:17:09.539642	345.3	23.6	-89.5	5.9
2025-01-10 17:17:10.694512	345.1	23.5	-89.9	12.6
2025-01-10 17:17:11.845570	345.0	23.4	-90.4	9.4
2025-01-10 17:17:13.004769	344.8	23.2	-89.9	6.6
2025-01-10 17:17:14.157499	344.6	23.1	-89.5	8.1
2025-01-10 17:17:15.311318	344.4	23.0	-89.8	13.3
2025-01-10 17:17:16.467056	344.3	22.8	-89.7	7.3
2025-01-10 17:17:17.626114	344.1	22.7	-89.2	9.9
2025-01-10 17:17:18.776376	343.9	22.5	-89.9	5.5
2025-01-10 17:17:19.927252	343.8	22.4	-90.1	7.5
2025-01-10 17:17:21.083610	343.6	22.3	-89.7	14.3
2025-01-10 17:17:22.237477	343.4	22.1	-90.9	13.1
2025-01-10 17:17:23.390653	343.3	22.0	-89.8	11.4
2025-01-10 17:17:24.547745	343.1	21.9	-90.1	11.4
2025-01-10 17:17:25.703603	342.9	21.7	-90.0	13.8
2025-01-10 17:17:26.860844	342.8	21.6	-90.0	11.2
2025-01-10 17:17:28.007220	342.6	21.5	-89.9	8.8
2025-01-10 17:17:29.164990	342.5	21.3	-89.5	7.8
2025-01-10 17:17:30.314102	342.3	21.2	-89.7	12.5
2025-01-10 17:17:31.469554	342.1	21.1	-90.4	5.7
2025-01-10 17:17:32.626866	342.0	20.9	-89.8	7.3
2025-01-10 17:17:33.784198	341.8	20.8	-90.1	7.0
2025-01-10 17:17:34.933495	341.7	20.7	-90.1	6.0
2025-01-10 17:17:36.079848	341.5	20.6	-89.6	8.0
2025-01-10 17:17:37.233789	341.4	20.4	-90.3	5.6
2025-01-10 17:17:38.393410	341.2	20.3	-90.7	3.6
2025-01-10 17:17:39.544201	341.1	20.2	-90.9	7.3
2025-01-10 17:17:40.691279	341.0	20.0	-91.2	8.8
2025-01-10 17:17:41.845592	340.8	19.9	-91.1	5.6
2025-01-10 17:17:43.004366	340.7	19.8	-90.6	4.1
2025-01-10 17:17:44.157167	340.5	19.7	-90.6	8.3
2025-01-10 17:17:45.311620	340.4	19.5	-90.7	8.5
2025-01-10 17:17:46.463203	340.2	19.4	-91.3	4.2
2025-01-10 17:17:47.614144	340.1	19.3	-90.9	4.9
2025-01-10 17:17:48.768609	340.0	19.2	-90.6	7.7
2025-01-10 17:17:49.917460	339.8	19.0	-90.6	7.0
2025-01-10 17:17:51.066763	339.7	18.9	-90.6	5.8
2025-01-10 17:17:52.220720	339.6	18.8	-90.8	7.5
2025-01-10 17:17:53.374502	339.4	18.7	-89.9	8.6
2025-01-10 17:17:54.534927	339.3	18.5	-90.1	4.3
2025-01-10 17:17:55.689791	339.2	18.4	-89.8	6.3
2025-01-10 17:17:56.839720	339.1	18.3	-90.2	11.3
2025-01-10 17:17:57.991467	338.9	18.2	-89.7	9.2
2025-01-10 17:17:59.139191	338.8	18.1	-89.5	6.7
2025-01-10 17:18:00.285790	338.7	17.9	-90.6	4.8
2025-01-10 17:18:01.440753	338.6	17.8	-90.1	6.6
2025-01-10 17:18:02.592278	338.4	17.7	-89.8	6.8
2025-01-10 17:18:03.746861	338.3	17.6	-89.8	5.0
2025-01-10 17:18:04.910170	338.2	17.5	-89.8	5.3
2025-01-10 17:18:06.060901	338.1	17.3	-89.9	5.0
2025-01-10 17:18:07.214184	337.9	17.2	-89.8	4.1
2025-01-10 17:18:08.365779	337.8	17.1	-90.0	3.9
2025-01-10 17:18:09.517909	337.7	17.0	-90.3	4.5
2025-01-10 17:18:10.663206	337.6	16.9	-90.5	6.7
2025-01-10 17:18:11.826193	337.5	16.8	-90.7	4.8
2025-01-10 17:18:12.986763	337.4	16.6	-90.5	3.5
2025-01-10 17:18:14.143348	337.2	16.5	-86.6	5.3
2025-01-10 17:18:15.283764	337.1	16.4	-87.9	4.9
2025-01-10 17:18:16.437375	337.0	16.3	-89.6	4.9
2025-01-10 17:18:17.589522	336.9	16.2	-87.0	3.2
2025-01-10 17:18:18.749416	336.8	16.1	-82.5	5.5
2025-01-10 17:18:19.906625	336.7	16.0	-88.4	5.3
2025-01-10 17:18:21.060302	336.6	15.8	-87.6	5.7
2025-01-10 17:18:22.222375	336.5	15.7	-87.7	8.1
2025-01-10 17:18:23.372243	336.4	15.6	-88.2	5.2
2025-01-10 17:18:24.533132	336.3	15.5	-87.2	5.1
2025-01-10 17:18:25.678303	336.2	15.4	-86.6	7.7
2025-01-10 17:18:26.836557	336.0	15.3	-87.9	7.2
2025-01-10 17:18:27.996814	335.9	15.2	-88.5	9.1
2025-01-10 17:18:29.147867	335.8	15.1	-86.2	4.1
2025-01-10 17:18:30.299646	335.7	15.0	-89.6	4.5
2025-01-10 17:18:31.453594	335.6	14.9	-89.3	4.9
2025-01-10 17:18:32.604075	335.5	14.7	-88.0	4.8
2025-01-10 17:18:33.755931	335.4	14.6	-86.8	6.4
2025-01-10 17:18:34.909128	335.3	14.5	-85.9	5.4
#Closed at: 2025-01-10 17:10:12.391887