passes_logs/2025/01/10/LEX_Murmansk/LEX_Murmansk__20250110_132522_NOAA_19_rec.log

#Pass ID: 20250110_132522_NOAA 19
#Satellite: NOAA 19
#Configuration: NOAA 19
#Start time: 2025-01-10 13:25:17.056415

#LorettStation: 1.0.0 05.05.2024
#Station: LEX_Murmansk
#Location: 33.156738 lon 68.926811 lat
#TLE: 1 33591U 09005A   25009.90667525  .00000313  00000+0  19132-3 0  9996
#TLE: 2 33591  99.0207  73.6295 0014600  71.1816 289.0938 14.13255869820561

#Time	Az	El	Level	SNR
2025-01-10 13:25:29.233091	42.3	15.9	-90.0	3.1
2025-01-10 13:25:30.390014	42.1	16.0	-90.1	3.3
2025-01-10 13:25:31.529068	41.9	16.1	-89.2	1.4
2025-01-10 13:25:32.672330	41.7	16.1	-90.0	2.1
2025-01-10 13:25:33.826280	41.5	16.2	-88.2	2.2
2025-01-10 13:25:34.978662	41.3	16.3	-89.9	2.4
2025-01-10 13:25:36.127793	41.2	16.4	-90.0	1.6
2025-01-10 13:25:37.276005	41.0	16.5	-89.6	5.0
2025-01-10 13:25:38.419964	40.8	16.5	-90.0	2.7
2025-01-10 13:25:39.566172	40.6	16.6	-89.7	1.6
2025-01-10 13:25:40.713014	40.4	16.7	-90.1	0.5
2025-01-10 13:25:41.868217	40.2	16.8	-89.9	2.4
2025-01-10 13:25:43.015548	40.0	16.9	-90.3	2.0
2025-01-10 13:25:44.162000	39.8	17.0	-90.1	2.1
2025-01-10 13:25:45.311788	39.6	17.0	-90.0	2.3
2025-01-10 13:25:46.460747	39.4	17.1	-90.1	1.9
2025-01-10 13:25:47.606409	39.2	17.2	-89.0	3.9
2025-01-10 13:25:48.754989	39.0	17.3	-89.9	2.3
2025-01-10 13:25:49.897870	38.8	17.4	-90.4	1.8
2025-01-10 13:25:51.042005	38.6	17.5	-90.0	5.2
2025-01-10 13:25:52.185524	38.4	17.5	-89.9	3.7
2025-01-10 13:25:53.329109	38.2	17.6	-89.8	2.3
2025-01-10 13:25:54.481900	37.9	17.7	-89.9	8.0
2025-01-10 13:25:55.633024	37.7	17.8	-89.9	4.6
2025-01-10 13:25:56.779570	37.5	17.9	-89.9	2.1
2025-01-10 13:25:57.928052	37.3	17.9	-90.4	2.2
2025-01-10 13:25:59.074101	37.1	18.0	-88.0	1.3
2025-01-10 13:26:00.218244	36.9	18.1	-89.8	1.4
2025-01-10 13:26:01.356070	36.7	18.2	-90.0	2.9
2025-01-10 13:26:02.500936	36.4	18.3	-90.0	3.0
2025-01-10 13:26:03.644768	36.2	18.3	-89.9	4.4
2025-01-10 13:26:04.802257	36.0	18.4	-90.2	5.4
2025-01-10 13:26:05.947263	35.8	18.5	-90.5	7.2
2025-01-10 13:26:07.095821	35.6	18.6	-90.3	5.2
2025-01-10 13:26:08.245627	35.3	18.7	-90.5	7.4
2025-01-10 13:26:09.399585	35.1	18.7	-89.7	3.8
2025-01-10 13:26:10.551369	34.9	18.8	-89.8	2.6
2025-01-10 13:26:11.692733	34.7	18.9	-90.3	3.2
2025-01-10 13:26:12.842178	34.4	19.0	-89.8	3.8
2025-01-10 13:26:13.991618	34.2	19.1	-89.9	2.9
2025-01-10 13:26:15.137034	34.0	19.1	-90.2	6.4
2025-01-10 13:26:16.289143	33.7	19.2	-90.0	5.4
2025-01-10 13:26:17.433433	33.5	19.3	-90.0	5.5
2025-01-10 13:26:18.581399	33.3	19.4	-89.8	6.0
2025-01-10 13:26:19.725853	33.0	19.5	-90.2	9.0
2025-01-10 13:26:20.870740	32.8	19.5	-90.1	5.1
2025-01-10 13:26:22.015349	32.6	19.6	-90.4	2.4
2025-01-10 13:26:23.164176	32.3	19.7	-89.8	3.2
2025-01-10 13:26:24.316991	32.1	19.8	-90.2	4.8
2025-01-10 13:26:25.467671	31.9	19.8	-90.0	2.8
2025-01-10 13:26:26.615379	31.6	19.9	-90.1	2.7
2025-01-10 13:26:27.762719	31.4	20.0	-90.3	3.7
2025-01-10 13:26:28.916361	31.1	20.1	-90.0	5.3
2025-01-10 13:26:30.061781	30.9	20.1	-90.0	5.9
2025-01-10 13:26:31.204951	30.6	20.2	-90.3	6.8
2025-01-10 13:26:32.356453	30.4	20.3	-89.8	10.0
2025-01-10 13:26:33.502950	30.1	20.4	-89.7	6.7
2025-01-10 13:26:34.651739	29.9	20.4	-89.5	7.8
2025-01-10 13:26:35.801285	29.6	20.5	-89.7	5.6
2025-01-10 13:26:36.955331	29.4	20.6	-90.1	3.9
2025-01-10 13:26:38.113865	29.1	20.6	-90.4	6.9
2025-01-10 13:26:39.259425	28.9	20.7	-90.2	9.1
2025-01-10 13:26:40.405368	28.6	20.8	-90.0	6.8
2025-01-10 13:26:41.554824	28.3	20.9	-90.1	8.8
2025-01-10 13:26:42.704417	28.1	20.9	-89.7	9.2
2025-01-10 13:26:43.850651	27.8	21.0	-90.1	8.7
2025-01-10 13:26:44.995190	27.6	21.1	-90.4	6.6
2025-01-10 13:26:46.153316	27.3	21.1	-90.2	7.3
2025-01-10 13:26:47.300567	27.0	21.2	-90.2	5.6
2025-01-10 13:26:48.450430	26.8	21.3	-90.0	2.6
2025-01-10 13:26:49.601884	26.5	21.3	-90.2	3.2
2025-01-10 13:26:50.760066	26.2	21.4	-90.1	4.1
2025-01-10 13:26:51.904845	26.0	21.5	-90.2	4.2
2025-01-10 13:26:53.055900	25.7	21.5	-90.1	3.0
2025-01-10 13:26:54.202728	25.4	21.6	-90.2	4.5
2025-01-10 13:26:55.346012	25.2	21.7	-90.0	7.4
2025-01-10 13:26:56.496986	24.9	21.7	-87.8	7.1
2025-01-10 13:26:57.643785	24.6	21.8	-89.6	9.9
2025-01-10 13:26:58.792472	24.3	21.9	-89.8	11.5
2025-01-10 13:26:59.940699	24.1	21.9	-89.9	12.5
2025-01-10 13:27:01.077312	23.8	22.0	-90.1	9.9
2025-01-10 13:27:02.226144	23.5	22.1	-90.1	10.5
2025-01-10 13:27:03.369485	23.2	22.1	-90.0	8.7
2025-01-10 13:27:04.522550	22.9	22.2	-90.1	3.9
2025-01-10 13:27:05.678312	22.7	22.2	-90.6	6.7
2025-01-10 13:27:06.826033	22.4	22.3	-90.3	5.0
2025-01-10 13:27:07.982044	22.1	22.4	-90.7	3.8
2025-01-10 13:27:09.133662	21.8	22.4	-90.3	6.5
2025-01-10 13:27:10.282034	21.5	22.5	-90.3	9.3
2025-01-10 13:27:11.430463	21.2	22.5	-90.3	8.2
2025-01-10 13:27:12.577957	20.9	22.6	-89.7	10.6
2025-01-10 13:27:13.727689	20.7	22.6	-90.3	12.4
2025-01-10 13:27:14.877994	20.4	22.7	-90.1	11.4
2025-01-10 13:27:16.026654	20.1	22.7	-90.5	7.6
2025-01-10 13:27:17.179903	19.8	22.8	-90.0	6.7
2025-01-10 13:27:18.339617	19.5	22.9	-90.0	3.6
2025-01-10 13:27:19.489777	19.2	22.9	-90.1	4.4
2025-01-10 13:27:20.641217	18.9	23.0	-90.2	4.4
2025-01-10 13:27:21.792471	18.6	23.0	-89.8	5.0
2025-01-10 13:27:22.943633	18.3	23.1	-90.3	5.0
2025-01-10 13:27:24.098736	18.0	23.1	-90.6	2.9
2025-01-10 13:27:25.250723	17.7	23.2	-90.5	3.6
2025-01-10 13:27:26.399408	17.4	23.2	-89.8	5.0
2025-01-10 13:27:27.548948	17.1	23.3	-90.3	4.1
2025-01-10 13:27:28.705851	16.8	23.3	-90.1	7.3
2025-01-10 13:27:29.853985	16.5	23.3	-90.3	10.8
2025-01-10 13:27:31.005211	16.2	23.4	-90.1	6.3
2025-01-10 13:27:32.147737	15.9	23.4	-90.2	8.4
2025-01-10 13:27:33.297024	15.6	23.5	-90.0	8.1
2025-01-10 13:27:34.450289	15.3	23.5	-89.0	7.8
2025-01-10 13:27:35.596258	15.0	23.6	-90.0	7.8
2025-01-10 13:27:36.750082	14.6	23.6	-90.0	6.1
2025-01-10 13:27:37.898986	14.3	23.6	-90.3	6.3
2025-01-10 13:27:39.045916	14.0	23.7	-90.1	5.0
2025-01-10 13:27:40.193326	13.7	23.7	-90.4	7.5
2025-01-10 13:27:41.339277	13.4	23.8	-90.2	6.5
2025-01-10 13:27:42.490759	13.1	23.8	-90.5	4.7
2025-01-10 13:27:43.641943	12.8	23.8	-89.9	5.5
2025-01-10 13:27:44.796639	12.5	23.9	-90.2	7.8
2025-01-10 13:27:45.948283	12.1	23.9	-90.3	3.9
2025-01-10 13:27:47.097806	11.8	23.9	-90.2	5.9
2025-01-10 13:27:48.245017	11.5	24.0	-89.5	8.5
2025-01-10 13:27:49.395117	11.2	24.0	-89.8	6.4
2025-01-10 13:27:50.544730	10.9	24.0	-90.2	9.5
2025-01-10 13:27:51.689757	10.6	24.0	-90.0	9.1
2025-01-10 13:27:52.843355	10.3	24.1	-90.4	10.3
2025-01-10 13:27:53.994088	9.9	24.1	-90.0	8.9
2025-01-10 13:27:55.144457	9.6	24.1	-89.9	8.9
2025-01-10 13:27:56.293829	9.3	24.2	-90.2	8.4
2025-01-10 13:27:57.448570	9.0	24.2	-90.3	5.2
2025-01-10 13:27:58.599728	8.6	24.2	-89.8	3.6
2025-01-10 13:27:59.750302	8.3	24.2	-90.2	3.1
2025-01-10 13:28:00.889862	8.0	24.2	-90.6	6.2
2025-01-10 13:28:02.032198	7.7	24.3	-90.1	2.8
2025-01-10 13:28:03.183578	7.4	24.3	-90.3	3.4
2025-01-10 13:28:04.330146	7.0	24.3	-90.3	6.5
2025-01-10 13:28:05.490048	6.7	24.3	-90.2	2.1
2025-01-10 13:28:06.647323	6.4	24.3	-90.2	6.6
2025-01-10 13:28:07.796964	6.1	24.4	-90.2	4.6
2025-01-10 13:28:08.948795	5.7	24.4	-90.0	2.4
2025-01-10 13:28:10.097931	5.4	24.4	-90.3	1.6
2025-01-10 13:28:11.254615	5.1	24.4	-90.4	4.6
2025-01-10 13:28:12.395965	4.8	24.4	-90.0	4.3
2025-01-10 13:28:13.543196	4.4	24.4	-89.9	2.5
2025-01-10 13:28:14.695028	4.1	24.4	-89.7	5.5
2025-01-10 13:28:15.844469	3.8	24.4	-90.0	7.4
2025-01-10 13:28:16.997160	3.5	24.4	-90.5	8.0
2025-01-10 13:28:18.142161	3.1	24.4	-90.3	8.1
2025-01-10 13:28:19.291729	2.8	24.5	-90.2	11.4
2025-01-10 13:28:20.445321	2.5	24.5	-89.9	9.6
2025-01-10 13:28:21.590800	2.2	24.5	-88.9	9.2
2025-01-10 13:28:22.736670	1.8	24.5	-90.2	8.8
2025-01-10 13:28:23.884774	1.5	24.5	-90.3	8.9
2025-01-10 13:28:25.033931	1.2	24.5	-89.9	9.7
2025-01-10 13:28:26.185967	0.9	24.5	-90.0	10.4
2025-01-10 13:28:27.339199	0.5	24.5	-90.2	9.5
2025-01-10 13:28:28.487898	0.2	24.5	-90.3	9.3
2025-01-10 13:28:29.636045	359.9	24.5	-90.2	11.2
2025-01-10 13:28:30.784807	359.6	24.4	-90.4	9.2
2025-01-10 13:28:31.931388	359.2	24.4	-90.3	8.2
2025-01-10 13:28:33.079428	358.9	24.4	-90.2	8.1
2025-01-10 13:28:34.222828	358.6	24.4	-90.3	6.9
2025-01-10 13:28:35.369656	358.3	24.4	-90.3	10.1
2025-01-10 13:28:36.524182	357.9	24.4	-90.2	6.4
2025-01-10 13:28:37.674329	357.6	24.4	-90.2	5.4
2025-01-10 13:28:38.828670	357.3	24.4	-90.0	9.1
2025-01-10 13:28:39.975659	357.0	24.4	-90.3	4.4
2025-01-10 13:28:41.121581	356.6	24.4	-90.6	5.4
2025-01-10 13:28:42.271962	356.3	24.3	-89.7	4.2
2025-01-10 13:28:43.417468	356.0	24.3	-89.9	5.2
2025-01-10 13:28:44.570024	355.7	24.3	-90.1	3.9
2025-01-10 13:28:45.714775	355.3	24.3	-90.4	6.0
2025-01-10 13:28:46.871209	355.0	24.3	-88.5	6.2
2025-01-10 13:28:48.018208	354.7	24.3	-90.3	4.6
2025-01-10 13:28:49.167815	354.4	24.2	-90.4	5.0
2025-01-10 13:28:50.313531	354.1	24.2	-90.1	5.3
2025-01-10 13:28:51.464412	353.7	24.2	-90.0	4.9
2025-01-10 13:28:52.608864	353.4	24.2	-89.7	5.3
2025-01-10 13:28:53.756841	353.1	24.1	-90.1	4.9
2025-01-10 13:28:54.906209	352.8	24.1	-90.4	5.4
2025-01-10 13:28:56.054621	352.5	24.1	-90.2	5.5
2025-01-10 13:28:57.204565	352.1	24.1	-89.4	7.0
2025-01-10 13:28:58.353793	351.8	24.0	-90.0	7.8
2025-01-10 13:28:59.502656	351.5	24.0	-89.4	4.6
2025-01-10 13:29:00.643371	351.2	24.0	-90.3	6.2
2025-01-10 13:29:01.781467	350.9	23.9	-90.1	5.3
2025-01-10 13:29:02.928173	350.6	23.9	-90.2	3.1
2025-01-10 13:29:04.075914	350.2	23.9	-90.6	4.2
2025-01-10 13:29:05.224413	349.9	23.9	-90.6	8.5
2025-01-10 13:29:06.372046	349.6	23.8	-89.9	7.1
2025-01-10 13:29:07.522985	349.3	23.8	-89.3	5.0
2025-01-10 13:29:08.672060	349.0	23.7	-90.1	9.0
2025-01-10 13:29:09.820080	348.7	23.7	-90.4	7.2
2025-01-10 13:29:10.969718	348.4	23.7	-90.2	5.5
2025-01-10 13:29:12.114673	348.1	23.6	-90.3	6.6
2025-01-10 13:29:13.263107	347.8	23.6	-90.4	8.0
2025-01-10 13:29:14.410327	347.4	23.6	-89.9	7.7
2025-01-10 13:29:15.565228	347.1	23.5	-89.6	5.9
2025-01-10 13:29:16.721481	346.8	23.5	-90.0	3.9
2025-01-10 13:29:17.875344	346.5	23.4	-90.0	5.1
2025-01-10 13:29:19.023793	346.2	23.4	-90.8	7.1
2025-01-10 13:29:20.177682	345.9	23.3	-90.6	4.2
2025-01-10 13:29:21.322820	345.6	23.3	-89.7	5.8
2025-01-10 13:29:22.467426	345.3	23.2	-89.9	2.4
2025-01-10 13:29:23.618912	345.0	23.2	-90.1	5.3
2025-01-10 13:29:24.768071	344.7	23.1	-90.1	7.4
2025-01-10 13:29:25.920523	344.4	23.1	-90.2	5.7
2025-01-10 13:29:27.067341	344.1	23.1	-90.5	5.3
2025-01-10 13:29:28.219039	343.8	23.0	-90.7	5.4
2025-01-10 13:29:29.367743	343.5	22.9	-89.7	5.8
2025-01-10 13:29:30.518287	343.2	22.9	-90.0	2.3
2025-01-10 13:29:31.669271	342.9	22.8	-90.2	4.8
2025-01-10 13:29:32.816564	342.6	22.8	-90.3	5.6
2025-01-10 13:29:33.971342	342.3	22.7	-89.6	5.9
2025-01-10 13:29:35.121161	342.1	22.7	-89.7	7.9
2025-01-10 13:29:36.280378	341.8	22.6	-90.1	6.3
2025-01-10 13:29:37.436716	341.5	22.6	-89.9	2.4
2025-01-10 13:29:38.583967	341.2	22.5	-90.1	2.6
2025-01-10 13:29:39.729534	340.9	22.5	-90.4	5.7
2025-01-10 13:29:40.876411	340.6	22.4	-90.1	6.4
2025-01-10 13:29:42.018467	340.3	22.3	-90.7	3.8
2025-01-10 13:29:43.166926	340.0	22.3	-90.4	5.7
2025-01-10 13:29:44.324022	339.8	22.2	-90.1	3.6
2025-01-10 13:29:45.471323	339.5	22.2	-89.5	3.9
2025-01-10 13:29:46.619534	339.2	22.1	-90.1	3.4
2025-01-10 13:29:47.778834	338.9	22.0	-90.2	4.8
2025-01-10 13:29:48.929040	338.6	22.0	-90.3	4.9
2025-01-10 13:29:50.080193	338.4	21.9	-90.3	1.9
2025-01-10 13:29:51.224694	338.1	21.9	-90.4	3.8
2025-01-10 13:29:52.396721	337.8	21.8	-89.7	3.2
2025-01-10 13:29:53.552365	337.5	21.7	-89.7	2.6
2025-01-10 13:29:54.702723	337.3	21.7	-90.4	4.5
2025-01-10 13:29:55.856127	337.0	21.6	-90.1	4.7
2025-01-10 13:29:57.009931	336.7	21.5	-90.3	4.8
2025-01-10 13:29:58.157261	336.4	21.5	-90.2	5.6
2025-01-10 13:29:59.308311	336.2	21.4	-89.9	4.5
2025-01-10 13:30:00.444361	335.9	21.3	-90.1	1.2
2025-01-10 13:30:01.587043	335.6	21.3	-90.0	2.1
2025-01-10 13:30:02.733211	335.4	21.2	-90.2	4.2
2025-01-10 13:30:03.876695	335.1	21.1	-90.4	2.5
2025-01-10 13:30:05.031006	334.9	21.1	-90.3	2.4
2025-01-10 13:30:06.177682	334.6	21.0	-90.3	3.4
2025-01-10 13:30:07.324384	334.3	20.9	-90.2	5.5
2025-01-10 13:30:08.481258	334.1	20.8	-90.4	2.2
2025-01-10 13:30:09.628382	333.8	20.8	-90.3	2.0
2025-01-10 13:30:10.777010	333.6	20.7	-90.4	4.4
2025-01-10 13:30:11.932711	333.3	20.6	-89.5	3.3
2025-01-10 13:30:13.085991	333.0	20.6	-90.5	5.4
2025-01-10 13:30:14.233723	332.8	20.5	-90.3	2.2
2025-01-10 13:30:15.386035	332.5	20.4	-89.8	5.1
2025-01-10 13:30:16.531844	332.3	20.3	-90.5	2.2
2025-01-10 13:30:17.684780	332.0	20.3	-90.6	2.7
2025-01-10 13:30:18.833605	331.8	20.2	-90.3	5.1
2025-01-10 13:30:19.988199	331.5	20.1	-90.1	6.2
2025-01-10 13:30:21.141555	331.3	20.0	-90.3	3.9
2025-01-10 13:30:22.287521	331.1	20.0	-90.3	6.7
2025-01-10 13:30:23.437782	330.8	19.9	-90.2	7.1
2025-01-10 13:30:24.585467	330.6	19.8	-89.7	3.7
2025-01-10 13:30:25.729687	330.3	19.7	-90.3	6.4
2025-01-10 13:30:26.879795	330.1	19.7	-90.6	7.8
2025-01-10 13:30:28.024431	329.9	19.6	-90.3	3.5
2025-01-10 13:30:29.190130	329.6	19.5	-90.4	5.7
2025-01-10 13:30:30.342176	329.4	19.4	-90.3	5.8
2025-01-10 13:30:31.497039	329.1	19.4	-90.2	4.6
2025-01-10 13:30:32.645839	328.9	19.3	-90.0	1.3
2025-01-10 13:30:33.794866	328.7	19.2	-89.9	3.1
2025-01-10 13:30:34.944025	328.4	19.1	-90.3	2.9
2025-01-10 13:30:36.092075	328.2	19.0	-89.3	3.1
2025-01-10 13:30:37.234718	328.0	19.0	-90.2	3.0
2025-01-10 13:30:38.382337	327.8	18.9	-90.1	5.4
2025-01-10 13:30:39.542057	327.5	18.8	-89.9	1.5
2025-01-10 13:30:40.696082	327.3	18.7	-90.0	4.7
2025-01-10 13:30:41.844513	327.1	18.7	-90.4	3.6
2025-01-10 13:30:42.994205	326.9	18.6	-90.6	1.8
2025-01-10 13:30:44.141457	326.6	18.5	-90.1	3.2
2025-01-10 13:30:45.263426	326.4	18.4	-90.2	1.9
2025-01-10 13:30:46.383782	326.2	18.3	-90.2	3.6
2025-01-10 13:30:47.505741	326.0	18.3	-90.0	3.3
2025-01-10 13:30:48.625721	325.8	18.2	-90.4	3.5
2025-01-10 13:30:49.746825	325.6	18.1	-90.3	2.3
2025-01-10 13:30:50.867433	325.4	18.0	-90.4	3.6
2025-01-10 13:30:51.987900	325.2	17.9	-90.8	5.6
2025-01-10 13:30:53.108289	325.0	17.9	-90.5	3.2
2025-01-10 13:30:54.243051	324.7	17.8	-90.7	3.5
2025-01-10 13:30:55.388847	324.5	17.7	-90.4	3.2
2025-01-10 13:30:56.537163	324.3	17.6	-90.5	2.7
2025-01-10 13:30:57.685975	324.1	17.5	-90.6	2.7
2025-01-10 13:30:58.830622	323.9	17.5	-89.8	4.5
2025-01-10 13:30:59.978856	323.7	17.4	-89.8	2.2
2025-01-10 13:31:01.106303	323.5	17.3	-90.0	2.0
2025-01-10 13:31:02.233811	323.3	17.2	-90.5	2.5
2025-01-10 13:31:03.371669	323.1	17.1	-90.5	2.8
2025-01-10 13:31:04.516780	322.9	17.1	-90.5	2.6
2025-01-10 13:31:05.659152	322.7	17.0	-90.5	2.1
2025-01-10 13:31:06.806294	322.5	16.9	-90.5	4.6
2025-01-10 13:31:07.950470	322.3	16.8	-90.5	4.2
2025-01-10 13:31:09.091331	322.1	16.7	-90.4	3.5
2025-01-10 13:31:10.237020	321.9	16.6	-90.4	2.6
2025-01-10 13:31:11.379194	321.7	16.6	-90.2	3.1
2025-01-10 13:31:12.529507	321.5	16.5	-90.1	2.0
2025-01-10 13:31:13.675694	321.3	16.4	-90.5	3.8
2025-01-10 13:31:14.825267	321.2	16.3	-90.6	4.8
2025-01-10 13:31:15.972105	321.0	16.2	-90.5	4.4
2025-01-10 13:31:17.119831	320.8	16.1	-89.0	4.6
2025-01-10 13:31:18.267313	320.6	16.1	-90.5	4.4
2025-01-10 13:31:19.414696	320.4	16.0	-90.1	2.6
2025-01-10 13:31:20.564461	320.2	15.9	-90.2	5.4
2025-01-10 13:31:21.712430	320.0	15.8	-90.7	2.4
2025-01-10 13:31:22.853172	319.8	15.7	-89.9	5.6
2025-01-10 13:31:24.003181	319.7	15.6	-90.0	5.7
2025-01-10 13:31:25.161831	319.5	15.6	-90.0	3.6
2025-01-10 13:31:26.310585	319.3	15.5	-89.9	2.0
2025-01-10 13:31:27.457074	319.1	15.4	-90.0	3.4
2025-01-10 13:31:28.606133	318.9	15.3	-90.3	4.3
2025-01-10 13:31:29.755291	318.8	15.2	-90.4	3.2
2025-01-10 13:31:30.907872	318.6	15.1	-89.9	4.7
2025-01-10 13:31:32.057770	318.4	15.1	-90.2	2.3
2025-01-10 13:31:33.203372	318.2	15.0	-90.2	3.9
2025-01-10 13:31:34.355638	318.1	14.9	-90.3	5.0
2025-01-10 13:31:35.502657	317.9	14.8	-90.6	1.1
2025-01-10 13:31:36.654093	317.7	14.7	-90.0	2.9
2025-01-10 13:31:37.840317	317.5	14.6	-90.4	2.7
#Closed at: 2025-01-10 13:25:22.039721