passes_logs/2025/01/10/LEX_Murmansk/LEX_Murmansk__20250110_064335_NOAA_19_rec.log

#Pass ID: 20250110_064335_NOAA 19
#Satellite: NOAA 19
#Configuration: NOAA 19
#Start time: 2025-01-10 06:43:30.149116

#LorettStation: 1.0.0 05.05.2024
#Station: LEX_Murmansk
#Location: 33.156738 lon 68.926811 lat
#TLE: 1 33591U 09005A   25009.90667525  .00000313  00000+0  19132-3 0  9996
#TLE: 2 33591  99.0207  73.6295 0014600  71.1816 289.0938 14.13255869820561

#Time	Az	El	Level	SNR
2025-01-10 06:43:42.405489	41.3	15.9	-89.5	2.1
2025-01-10 06:43:43.573982	41.5	16.0	-90.5	0.5
2025-01-10 06:43:44.712835	41.7	16.1	-90.5	2.2
2025-01-10 06:43:45.865644	41.9	16.2	-90.1	1.5
2025-01-10 06:43:47.025208	42.0	16.2	-90.2	1.8
2025-01-10 06:43:48.174688	42.2	16.3	-89.2	2.8
2025-01-10 06:43:49.325012	42.4	16.4	-89.8	2.9
2025-01-10 06:43:50.482007	42.6	16.5	-88.3	1.5
2025-01-10 06:43:51.635393	42.8	16.6	-89.8	0.9
2025-01-10 06:43:52.790165	43.0	16.7	-89.4	2.3
2025-01-10 06:43:53.955578	43.2	16.8	-89.6	3.3
2025-01-10 06:43:55.112255	43.4	16.8	-89.0	1.9
2025-01-10 06:43:56.267185	43.6	16.9	-89.7	1.9
2025-01-10 06:43:57.423901	43.8	17.0	-90.2	1.7
2025-01-10 06:43:58.685793	44.0	17.1	-90.1	1.7
2025-01-10 06:43:59.842080	44.2	17.2	-90.8	2.9
2025-01-10 06:44:00.990197	44.4	17.3	-90.5	1.7
2025-01-10 06:44:02.135991	44.6	17.4	-90.2	4.4
2025-01-10 06:44:03.292388	44.8	17.4	-90.4	5.1
2025-01-10 06:44:04.444591	45.0	17.5	-90.6	8.6
2025-01-10 06:44:05.597384	45.2	17.6	-89.8	1.5
2025-01-10 06:44:06.752541	45.4	17.7	-90.7	2.4
2025-01-10 06:44:07.902437	45.6	17.8	-90.1	3.9
2025-01-10 06:44:09.056159	45.8	17.9	-90.5	5.5
2025-01-10 06:44:10.212377	46.0	18.0	-90.1	5.1
2025-01-10 06:44:11.364599	46.2	18.0	-90.3	2.1
2025-01-10 06:44:12.514027	46.5	18.1	-90.1	4.8
2025-01-10 06:44:13.677189	46.7	18.2	-90.5	2.4
2025-01-10 06:44:14.827218	46.9	18.3	-90.5	1.7
2025-01-10 06:44:15.993291	47.1	18.4	-90.1	4.3
2025-01-10 06:44:17.150495	47.3	18.5	-90.6	2.5
2025-01-10 06:44:18.307552	47.5	18.5	-90.3	2.0
2025-01-10 06:44:19.459950	47.7	18.6	-90.5	3.6
2025-01-10 06:44:20.612030	48.0	18.7	-90.7	2.4
2025-01-10 06:44:21.765544	48.2	18.8	-90.4	1.7
2025-01-10 06:44:22.917449	48.4	18.9	-90.8	7.9
2025-01-10 06:44:24.068571	48.6	19.0	-90.1	6.5
2025-01-10 06:44:25.231764	48.9	19.0	-90.7	6.3
2025-01-10 06:44:26.384542	49.1	19.1	-90.8	4.7
2025-01-10 06:44:27.545986	49.3	19.2	-90.7	0.6
2025-01-10 06:44:28.701857	49.5	19.3	-90.3	5.0
2025-01-10 06:44:29.866249	49.8	19.4	-90.2	3.7
2025-01-10 06:44:31.014946	50.0	19.5	-90.1	5.1
2025-01-10 06:44:32.169526	50.2	19.5	-89.8	4.3
2025-01-10 06:44:33.321687	50.5	19.6	-90.0	5.0
2025-01-10 06:44:34.476450	50.7	19.7	-89.6	6.0
2025-01-10 06:44:35.631054	50.9	19.8	-90.4	10.1
2025-01-10 06:44:36.786719	51.2	19.9	-89.0	3.2
2025-01-10 06:44:37.942844	51.4	19.9	-90.1	3.4
2025-01-10 06:44:39.102832	51.6	20.0	-89.5	3.6
2025-01-10 06:44:40.249906	51.9	20.1	-89.0	4.3
2025-01-10 06:44:41.393809	52.1	20.2	-90.3	4.2
2025-01-10 06:44:42.543435	52.4	20.3	-90.5	2.4
2025-01-10 06:44:43.707805	52.6	20.3	-90.9	2.9
2025-01-10 06:44:44.864700	52.8	20.4	-90.5	3.9
2025-01-10 06:44:46.019367	53.1	20.5	-90.6	7.4
2025-01-10 06:44:47.172314	53.3	20.6	-90.6	11.7
2025-01-10 06:44:48.318716	53.6	20.7	-90.2	11.3
2025-01-10 06:44:49.476969	53.8	20.7	-90.8	13.3
2025-01-10 06:44:50.625595	54.1	20.8	-90.9	14.8
2025-01-10 06:44:51.787053	54.3	20.9	-91.0	7.7
2025-01-10 06:44:52.944036	54.6	21.0	-91.0	4.7
2025-01-10 06:44:54.107389	54.9	21.1	-90.7	7.7
2025-01-10 06:44:55.266272	55.1	21.1	-90.5	5.0
2025-01-10 06:44:56.422472	55.4	21.2	-91.0	7.1
2025-01-10 06:44:57.566354	55.6	21.3	-90.8	4.1
2025-01-10 06:44:58.728381	55.9	21.4	-90.7	7.6
2025-01-10 06:44:59.874842	56.1	21.4	-90.6	8.0
2025-01-10 06:45:01.016953	56.4	21.5	-90.7	8.4
2025-01-10 06:45:02.177884	56.7	21.6	-90.5	8.0
2025-01-10 06:45:03.332181	56.9	21.7	-90.2	11.0
2025-01-10 06:45:04.488596	57.2	21.7	-89.4	8.2
2025-01-10 06:45:05.655119	57.5	21.8	-90.1	6.4
2025-01-10 06:45:06.811754	57.7	21.9	-90.3	2.0
2025-01-10 06:45:07.969336	58.0	22.0	-90.1	3.4
2025-01-10 06:45:09.118459	58.3	22.0	-88.8	1.5
2025-01-10 06:45:10.269623	58.5	22.1	-89.6	1.8
2025-01-10 06:45:11.431846	58.8	22.2	-90.2	7.5
2025-01-10 06:45:12.576002	59.1	22.2	-90.4	7.4
2025-01-10 06:45:13.727481	59.4	22.3	-90.5	8.9
2025-01-10 06:45:14.881554	59.6	22.4	-90.1	11.2
2025-01-10 06:45:16.044195	59.9	22.5	-90.9	15.9
2025-01-10 06:45:17.200282	60.2	22.5	-90.5	14.0
2025-01-10 06:45:18.363136	60.5	22.6	-90.2	5.4
2025-01-10 06:45:19.519067	60.8	22.7	-90.8	14.4
2025-01-10 06:45:20.670597	61.1	22.7	-90.6	6.6
2025-01-10 06:45:21.829995	61.3	22.8	-90.6	6.1
2025-01-10 06:45:22.983970	61.6	22.9	-90.6	9.1
2025-01-10 06:45:24.132704	61.9	22.9	-90.1	8.4
2025-01-10 06:45:25.288241	62.2	23.0	-90.8	4.2
2025-01-10 06:45:26.447001	62.5	23.1	-90.8	5.2
2025-01-10 06:45:27.603817	62.8	23.1	-91.1	6.5
2025-01-10 06:45:28.753401	63.1	23.2	-89.7	5.4
2025-01-10 06:45:29.910382	63.4	23.3	-91.0	8.3
2025-01-10 06:45:31.060393	63.6	23.3	-90.5	7.2
2025-01-10 06:45:32.217632	63.9	23.4	-89.9	8.8
2025-01-10 06:45:33.373555	64.2	23.4	-89.7	10.6
2025-01-10 06:45:34.527550	64.5	23.5	-90.5	10.5
2025-01-10 06:45:35.683853	64.8	23.6	-90.9	5.3
2025-01-10 06:45:36.841857	65.1	23.6	-89.9	0.3
2025-01-10 06:45:37.999542	65.4	23.7	-90.5	3.5
2025-01-10 06:45:39.158876	65.7	23.7	-89.8	3.1
2025-01-10 06:45:40.325622	66.0	23.8	-89.0	2.6
2025-01-10 06:45:41.471072	66.3	23.9	-90.8	6.2
2025-01-10 06:45:42.627136	66.6	23.9	-90.2	4.6
2025-01-10 06:45:43.781673	67.0	24.0	-90.9	2.3
2025-01-10 06:45:44.937724	67.3	24.0	-90.8	3.5
2025-01-10 06:45:46.086955	67.6	24.1	-90.4	10.0
2025-01-10 06:45:47.241640	67.9	24.1	-90.4	3.9
2025-01-10 06:45:48.402237	68.2	24.2	-90.5	9.0
2025-01-10 06:45:49.554238	68.5	24.2	-89.5	7.9
2025-01-10 06:45:50.707219	68.8	24.3	-90.7	4.2
2025-01-10 06:45:51.859985	69.1	24.3	-90.0	7.1
2025-01-10 06:45:53.011209	69.4	24.4	-89.8	7.4
2025-01-10 06:45:54.175934	69.8	24.4	-90.1	6.3
2025-01-10 06:45:55.324500	70.1	24.5	-87.8	3.6
2025-01-10 06:45:56.470345	70.4	24.5	-87.3	6.9
2025-01-10 06:45:57.623257	70.7	24.6	-90.9	4.6
2025-01-10 06:45:58.777164	71.0	24.6	-90.8	2.5
2025-01-10 06:45:59.934536	71.3	24.7	-90.9	7.4
2025-01-10 06:46:01.076161	71.7	24.7	-90.6	6.3
2025-01-10 06:46:02.228920	72.0	24.7	-90.4	2.8
2025-01-10 06:46:03.382716	72.3	24.8	-90.9	5.8
2025-01-10 06:46:04.532531	72.6	24.8	-90.1	7.2
2025-01-10 06:46:05.681312	72.9	24.9	-90.7	7.2
2025-01-10 06:46:06.839180	73.3	24.9	-90.6	2.1
2025-01-10 06:46:08.000366	73.6	24.9	-90.8	4.0
2025-01-10 06:46:09.149473	73.9	25.0	-90.8	3.1
2025-01-10 06:46:10.302477	74.2	25.0	-90.8	4.9
2025-01-10 06:46:11.454257	74.6	25.0	-91.2	5.5
2025-01-10 06:46:12.611009	74.9	25.1	-90.8	5.1
2025-01-10 06:46:13.760550	75.2	25.1	-90.5	1.9
2025-01-10 06:46:14.920016	75.5	25.1	-90.8	2.5
2025-01-10 06:46:16.073865	75.9	25.2	-90.5	1.6
2025-01-10 06:46:17.228125	76.2	25.2	-90.8	3.0
2025-01-10 06:46:18.486713	76.6	25.2	-91.0	3.9
2025-01-10 06:46:19.643288	76.9	25.3	-90.8	1.7
2025-01-10 06:46:20.791060	77.2	25.3	-90.4	1.9
2025-01-10 06:46:21.941431	77.6	25.3	-90.8	2.5
2025-01-10 06:46:23.106678	77.9	25.4	-90.8	2.4
2025-01-10 06:46:24.260791	78.2	25.4	-88.8	0.5
2025-01-10 06:46:25.416402	78.6	25.4	-89.1	4.2
2025-01-10 06:46:26.582396	78.9	25.4	-89.2	1.5
2025-01-10 06:46:27.740265	79.2	25.4	-89.0	0.4
2025-01-10 06:46:28.894338	79.6	25.5	-88.8	2.2
2025-01-10 06:46:30.046171	79.9	25.5	-90.4	2.6
2025-01-10 06:46:31.209954	80.3	25.5	-90.6	2.2
2025-01-10 06:46:32.364217	80.6	25.5	-90.5	5.5
2025-01-10 06:46:33.525652	80.9	25.5	-89.7	3.3
2025-01-10 06:46:34.673990	81.3	25.6	-89.6	2.4
2025-01-10 06:46:35.824699	81.6	25.6	-90.7	3.7
2025-01-10 06:46:36.986183	81.9	25.6	-90.4	5.0
2025-01-10 06:46:38.135653	82.3	25.6	-90.7	5.4
2025-01-10 06:46:39.283989	82.6	25.6	-90.8	2.1
2025-01-10 06:46:40.435052	83.0	25.6	-90.8	3.1
2025-01-10 06:46:41.590470	83.3	25.6	-90.3	5.3
2025-01-10 06:46:42.747467	83.6	25.6	-91.1	3.6
2025-01-10 06:46:43.901321	84.0	25.6	-90.4	3.6
2025-01-10 06:46:45.055033	84.3	25.7	-90.6	1.5
2025-01-10 06:46:46.212756	84.7	25.7	-90.8	0.4
2025-01-10 06:46:47.368396	85.0	25.7	-90.8	2.8
2025-01-10 06:46:48.523019	85.3	25.7	-89.9	2.5
2025-01-10 06:46:49.680389	85.7	25.7	-90.4	2.9
2025-01-10 06:46:50.828753	86.0	25.7	-90.3	3.0
2025-01-10 06:46:51.982035	86.4	25.7	-90.3	4.3
2025-01-10 06:46:53.142476	86.7	25.7	-89.9	7.4
2025-01-10 06:46:54.302257	87.0	25.7	-90.3	0.9
2025-01-10 06:46:55.459849	87.4	25.7	-89.2	3.1
2025-01-10 06:46:56.610889	87.7	25.7	-89.6	1.5
2025-01-10 06:46:57.769386	88.1	25.7	-90.0	0.6
2025-01-10 06:46:58.919027	88.4	25.6	-89.9	4.9
2025-01-10 06:47:00.068197	88.7	25.6	-90.2	5.1
2025-01-10 06:47:01.201759	89.1	25.6	-90.0	4.9
2025-01-10 06:47:02.359781	89.4	25.6	-90.2	4.2
2025-01-10 06:47:03.519139	89.8	25.6	-90.0	6.6
2025-01-10 06:47:04.671818	90.1	25.6	-90.2	2.9
2025-01-10 06:47:05.831314	90.4	25.6	-89.0	5.5
2025-01-10 06:47:06.990655	90.8	25.6	-89.8	3.9
2025-01-10 06:47:08.157154	91.1	25.6	-90.5	3.0
2025-01-10 06:47:09.319505	91.5	25.5	-90.6	10.7
2025-01-10 06:47:10.481762	91.8	25.5	-90.9	7.4
2025-01-10 06:47:11.628021	92.1	25.5	-90.6	3.3
2025-01-10 06:47:12.789051	92.5	25.5	-90.5	2.8
2025-01-10 06:47:13.943485	92.8	25.5	-90.3	3.4
2025-01-10 06:47:15.098497	93.1	25.5	-89.3	3.0
2025-01-10 06:47:16.250583	93.5	25.4	-89.9	6.5
2025-01-10 06:47:17.405434	93.8	25.4	-88.7	2.5
2025-01-10 06:47:18.564264	94.1	25.4	-89.6	2.3
2025-01-10 06:47:19.718344	94.5	25.4	-88.9	7.7
2025-01-10 06:47:20.868622	94.8	25.3	-90.2	3.7
2025-01-10 06:47:22.020874	95.1	25.3	-90.2	3.8
2025-01-10 06:47:23.174487	95.5	25.3	-90.4	3.2
2025-01-10 06:47:24.326835	95.8	25.3	-90.3	3.5
2025-01-10 06:47:25.485192	96.1	25.2	-90.3	1.7
2025-01-10 06:47:26.644169	96.5	25.2	-90.8	2.4
2025-01-10 06:47:27.799940	96.8	25.2	-90.6	2.4
2025-01-10 06:47:28.950139	97.1	25.1	-90.1	2.1
2025-01-10 06:47:30.114434	97.5	25.1	-90.1	2.0
2025-01-10 06:47:31.266213	97.8	25.1	-90.3	3.1
2025-01-10 06:47:32.423279	98.1	25.0	-89.8	2.1
2025-01-10 06:47:33.576242	98.4	25.0	-90.5	3.7
2025-01-10 06:47:34.734022	98.8	25.0	-90.9	3.0
2025-01-10 06:47:35.887263	99.1	24.9	-90.2	5.3
2025-01-10 06:47:37.051733	99.4	24.9	-90.8	3.7
2025-01-10 06:47:38.212703	99.8	24.8	-90.4	1.7
2025-01-10 06:47:39.374636	100.1	24.8	-90.9	0.6
2025-01-10 06:47:40.527136	100.4	24.8	-90.6	0.9
2025-01-10 06:47:41.684237	100.7	24.7	-90.9	2.9
2025-01-10 06:47:42.836709	101.0	24.7	-90.6	1.5
2025-01-10 06:47:43.991624	101.4	24.6	-90.7	2.4
2025-01-10 06:47:45.134661	101.7	24.6	-90.7	2.9
2025-01-10 06:47:46.294723	102.0	24.5	-89.4	3.8
2025-01-10 06:47:47.449492	102.3	24.5	-91.2	2.5
2025-01-10 06:47:48.607009	102.6	24.4	-90.8	2.6
2025-01-10 06:47:49.759642	102.9	24.4	-90.7	4.5
2025-01-10 06:47:50.917625	103.3	24.3	-90.0	3.4
2025-01-10 06:47:52.071719	103.6	24.3	-90.5	4.5
2025-01-10 06:47:53.228343	103.9	24.2	-89.2	3.9
2025-01-10 06:47:54.378975	104.2	24.2	-90.4	5.8
2025-01-10 06:47:55.529578	104.5	24.1	-89.8	2.5
2025-01-10 06:47:56.675103	104.8	24.1	-91.2	5.0
2025-01-10 06:47:57.825094	105.1	24.0	-90.6	2.9
2025-01-10 06:47:58.982231	105.4	24.0	-89.7	4.9
2025-01-10 06:48:00.138312	105.7	23.9	-90.6	7.1
2025-01-10 06:48:01.283882	106.0	23.9	-90.9	1.8
2025-01-10 06:48:02.431827	106.3	23.8	-90.5	3.8
2025-01-10 06:48:03.585497	106.6	23.8	-90.8	2.9
2025-01-10 06:48:04.735618	106.9	23.7	-89.9	4.2
2025-01-10 06:48:05.893591	107.2	23.6	-89.5	5.1
2025-01-10 06:48:07.042169	107.5	23.6	-90.2	3.9
2025-01-10 06:48:08.191344	107.8	23.5	-90.1	5.3
2025-01-10 06:48:09.352968	108.1	23.5	-90.6	7.2
2025-01-10 06:48:10.511319	108.4	23.4	-90.8	3.9
2025-01-10 06:48:11.673409	108.7	23.3	-90.9	8.4
2025-01-10 06:48:12.826942	109.0	23.3	-90.8	9.6
2025-01-10 06:48:13.977864	109.3	23.2	-90.9	9.3
2025-01-10 06:48:15.132833	109.6	23.1	-90.8	1.8
2025-01-10 06:48:16.284495	109.9	23.1	-90.4	3.2
2025-01-10 06:48:17.434175	110.2	23.0	-90.1	5.4
2025-01-10 06:48:18.588206	110.5	23.0	-91.1	7.0
2025-01-10 06:48:19.745340	110.8	22.9	-91.2	8.6
2025-01-10 06:48:20.903829	111.0	22.8	-91.1	11.2
2025-01-10 06:48:22.056372	111.3	22.8	-90.8	9.9
2025-01-10 06:48:23.214901	111.6	22.7	-90.7	6.9
2025-01-10 06:48:24.367487	111.9	22.6	-90.1	6.0
2025-01-10 06:48:25.515816	112.2	22.5	-90.4	8.4
2025-01-10 06:48:26.657732	112.5	22.5	-90.2	6.8
2025-01-10 06:48:27.803157	112.7	22.4	-90.6	4.2
2025-01-10 06:48:28.945201	113.0	22.3	-90.6	8.0
2025-01-10 06:48:30.105639	113.3	22.3	-90.6	6.9
2025-01-10 06:48:31.247770	113.6	22.2	-90.2	4.6
2025-01-10 06:48:32.407120	113.8	22.1	-90.7	7.2
2025-01-10 06:48:33.564469	114.1	22.1	-90.6	4.6
2025-01-10 06:48:34.717078	114.4	22.0	-90.2	7.0
2025-01-10 06:48:35.874371	114.6	21.9	-90.0	5.5
2025-01-10 06:48:37.035393	114.9	21.8	-89.8	8.6
2025-01-10 06:48:38.192326	115.2	21.8	-89.5	10.6
2025-01-10 06:48:39.352253	115.4	21.7	-89.8	8.5
2025-01-10 06:48:40.522352	115.7	21.6	-89.9	5.0
2025-01-10 06:48:41.672737	116.0	21.5	-90.6	4.5
2025-01-10 06:48:42.834058	116.2	21.5	-90.7	9.4
2025-01-10 06:48:43.991642	116.5	21.4	-90.6	7.7
2025-01-10 06:48:45.152228	116.8	21.3	-90.5	10.8
2025-01-10 06:48:46.310239	117.0	21.2	-90.7	11.8
2025-01-10 06:48:47.471445	117.3	21.2	-90.8	4.9
2025-01-10 06:48:48.625397	117.5	21.1	-90.4	3.9
2025-01-10 06:48:49.773700	117.8	21.0	-90.4	4.6
2025-01-10 06:48:50.930254	118.1	20.9	-90.0	5.1
2025-01-10 06:48:52.079898	118.3	20.8	-90.2	5.4
2025-01-10 06:48:53.231708	118.6	20.8	-89.9	9.2
2025-01-10 06:48:54.387285	118.8	20.7	-90.1	4.0
2025-01-10 06:48:55.544279	119.1	20.6	-90.3	4.6
2025-01-10 06:48:56.718499	119.3	20.5	-90.3	11.0
2025-01-10 06:48:57.876368	119.6	20.4	-90.3	8.0
2025-01-10 06:48:59.028362	119.8	20.4	-89.7	6.7
2025-01-10 06:49:00.170748	120.0	20.3	-90.0	10.8
2025-01-10 06:49:01.319320	120.3	20.2	-90.0	10.4
2025-01-10 06:49:02.473335	120.5	20.1	-90.3	9.7
2025-01-10 06:49:03.633308	120.8	20.0	-90.4	7.1
2025-01-10 06:49:04.786865	121.0	20.0	-90.5	6.6
2025-01-10 06:49:05.938294	121.2	19.9	-91.0	9.0
2025-01-10 06:49:07.095204	121.5	19.8	-90.6	12.8
2025-01-10 06:49:08.250491	121.7	19.7	-90.8	11.6
2025-01-10 06:49:09.408895	121.9	19.6	-90.5	10.4
2025-01-10 06:49:10.564866	122.2	19.6	-90.6	11.3
2025-01-10 06:49:11.720613	122.4	19.5	-90.2	11.8
2025-01-10 06:49:12.883418	122.6	19.4	-90.2	9.3
2025-01-10 06:49:14.039029	122.9	19.3	-90.2	7.0
2025-01-10 06:49:15.197231	123.1	19.2	-90.1	12.3
2025-01-10 06:49:16.360352	123.3	19.1	-90.2	12.1
2025-01-10 06:49:17.519513	123.6	19.1	-90.3	8.8
2025-01-10 06:49:18.678339	123.8	19.0	-90.3	10.4
2025-01-10 06:49:19.835210	124.0	18.9	-90.3	9.4
2025-01-10 06:49:20.991685	124.2	18.8	-89.6	5.7
2025-01-10 06:49:22.160503	124.5	18.7	-90.4	9.1
2025-01-10 06:49:23.320319	124.7	18.6	-90.4	10.2
2025-01-10 06:49:24.470649	124.9	18.6	-90.3	6.8
2025-01-10 06:49:25.632247	125.1	18.5	-90.5	5.4
2025-01-10 06:49:26.793790	125.3	18.4	-90.6	7.3
2025-01-10 06:49:27.954125	125.5	18.3	-90.6	6.4
2025-01-10 06:49:29.109912	125.8	18.2	-90.2	5.4
2025-01-10 06:49:30.261401	126.0	18.1	-90.0	7.8
2025-01-10 06:49:31.415008	126.2	18.0	-90.1	3.6
2025-01-10 06:49:32.565105	126.4	18.0	-90.1	6.7
2025-01-10 06:49:33.723433	126.6	17.9	-90.1	6.7
2025-01-10 06:49:34.883609	126.8	17.8	-90.0	7.0
2025-01-10 06:49:36.039886	127.0	17.7	-89.9	6.7
2025-01-10 06:49:37.193761	127.2	17.6	-89.2	5.5
2025-01-10 06:49:38.344121	127.4	17.5	-90.2	8.9
2025-01-10 06:49:39.498500	127.6	17.4	-91.2	9.9
2025-01-10 06:49:40.656730	127.8	17.4	-91.1	7.7
2025-01-10 06:49:41.806177	128.0	17.3	-90.5	8.5
2025-01-10 06:49:42.961444	128.2	17.2	-90.8	6.5
2025-01-10 06:49:44.121689	128.4	17.1	-89.7	3.8
2025-01-10 06:49:45.280929	128.6	17.0	-90.8	6.4
2025-01-10 06:49:46.436966	128.8	16.9	-90.9	4.7
2025-01-10 06:49:47.592238	129.0	16.9	-90.8	4.3
2025-01-10 06:49:48.750828	129.2	16.8	-91.3	8.9
2025-01-10 06:49:49.902056	129.4	16.7	-90.8	4.9
2025-01-10 06:49:51.061687	129.6	16.6	-90.9	3.4
2025-01-10 06:49:52.206414	129.8	16.5	-90.2	6.2
2025-01-10 06:49:53.363035	130.0	16.4	-90.6	5.2
2025-01-10 06:49:54.518630	130.2	16.3	-90.6	2.5
2025-01-10 06:49:55.673987	130.4	16.3	-90.9	3.4
2025-01-10 06:49:56.828194	130.6	16.2	-90.9	5.2
2025-01-10 06:49:57.980604	130.7	16.1	-91.1	5.0
2025-01-10 06:49:59.146487	130.9	16.0	-90.6	5.2
2025-01-10 06:50:00.293176	131.1	15.9	-90.7	3.4
2025-01-10 06:50:01.444383	131.3	15.8	-90.3	4.6
2025-01-10 06:50:02.588331	131.5	15.7	-90.9	4.6
2025-01-10 06:50:03.743276	131.7	15.7	-91.1	5.9
2025-01-10 06:50:04.908343	131.8	15.6	-91.1	3.9
2025-01-10 06:50:06.064553	132.0	15.5	-90.9	4.0
2025-01-10 06:50:07.220845	132.2	15.4	-90.4	5.1
2025-01-10 06:50:08.384104	132.4	15.3	-90.8	3.8
2025-01-10 06:50:09.544462	132.6	15.2	-91.1	4.0
2025-01-10 06:50:10.705420	132.7	15.1	-90.9	5.9
2025-01-10 06:50:11.855741	132.9	15.1	-91.0	3.6
2025-01-10 06:50:13.021409	133.1	15.0	-90.7	3.2
2025-01-10 06:50:14.184196	133.3	14.9	-90.7	3.9
2025-01-10 06:50:15.347330	133.4	14.8	-90.6	0.9
2025-01-10 06:50:16.497019	133.6	14.7	-91.0	1.9
2025-01-10 06:50:17.637734	133.8	14.6	-90.3	3.4
#Closed at: 2025-01-10 06:43:35.197960