passes_logs/2026/01/09/PlanumMoscow/PlanumMoscow__20260109_115543_METEOR-M2_4_rec.log

#Pass ID: 20260109_115543_METEOR-M2 4
#Satellite: METEOR-M2 4
#Configuration: METEOR-M2 4
#Start time: 2026-01-09 11:55:48.077219

#LorettStation: 1.0.0 05.05.2024
#Station: PlanumMoscow
#Location: 37.6253844 lon 55.6713361 lat
#TLE: 1 59051U 24039A   25293.94737965  .00000087  00000+0  58459-4 0  9998
#TLE: 2 59051  98.6671 251.7071 0007726 135.4772 224.7028 14.22388966 85257

#Time	Az	El	Level	SNR
2026-01-09 11:59:26.555211	196.9	27.5	-60.0	8.0
2026-01-09 11:59:28.785730	197.3	27.8	-60.4	3.7
2026-01-09 11:59:31.019280	197.6	28.2	-62.1	10.2
2026-01-09 11:59:33.257298	198.0	28.5	-62.4	6.5
2026-01-09 11:59:35.494314	198.3	28.9	-63.5	10.1
2026-01-09 11:59:37.734322	198.7	29.3	-64.8	12.9
2026-01-09 11:59:39.977828	199.1	29.6	-63.9	11.3
2026-01-09 11:59:42.217836	199.5	30.0	-63.8	12.0
2026-01-09 11:59:44.458349	199.9	30.4	-63.2	6.8
2026-01-09 11:59:46.698357	200.3	30.7	-62.3	8.6
2026-01-09 11:59:48.944863	200.7	31.1	-60.5	6.3
2026-01-09 11:59:51.185368	201.2	31.5	-62.3	9.8
2026-01-09 11:59:53.424384	201.6	31.9	-64.8	13.3
2026-01-09 11:59:55.664898	202.1	32.3	-62.8	12.3
2026-01-09 11:59:57.906915	202.5	32.7	-64.1	10.5
2026-01-09 12:00:00.145436	203.0	33.1	-64.5	12.1
2026-01-09 12:00:02.388446	203.5	33.5	-63.6	10.8
2026-01-09 12:00:04.627463	204.0	33.9	-62.3	10.1
2026-01-09 12:00:06.864992	204.5	34.3	-62.0	9.4
2026-01-09 12:00:09.107012	205.0	34.7	-62.4	8.0
2026-01-09 12:00:11.343027	205.6	35.1	-63.9	7.6
2026-01-09 12:00:13.582550	206.1	35.5	-63.5	10.8
2026-01-09 12:00:15.826560	206.7	35.9	-63.1	10.5
2026-01-09 12:00:18.067576	207.2	36.3	-64.5	11.1
2026-01-09 12:00:20.308098	207.8	36.7	-62.2	10.6
2026-01-09 12:00:22.543105	208.4	37.2	-64.8	12.2
2026-01-09 12:00:24.784628	209.1	37.6	-63.8	10.0
2026-01-09 12:00:27.028142	209.7	38.0	-63.9	11.6
2026-01-09 12:00:29.269675	210.4	38.4	-63.0	9.1
2026-01-09 12:00:31.513685	211.0	38.9	-64.6	11.9
2026-01-09 12:00:33.757199	211.7	39.3	-65.0	12.4
2026-01-09 12:00:36.001208	212.4	39.7	-64.6	10.7
2026-01-09 12:00:38.245218	213.2	40.1	-64.8	12.6
2026-01-09 12:00:40.481722	213.9	40.6	-63.3	11.4
2026-01-09 12:00:42.718730	214.7	41.0	-64.5	11.3
2026-01-09 12:00:44.957234	215.5	41.4	-63.6	8.2
2026-01-09 12:00:47.193746	216.3	41.8	-64.3	10.0
2026-01-09 12:00:49.431258	217.1	42.3	-64.1	9.1
2026-01-09 12:00:51.670771	217.9	42.7	-63.6	9.6
2026-01-09 12:00:53.908788	218.8	43.1	-63.9	9.8
2026-01-09 12:00:56.147796	219.7	43.5	-63.9	6.8
2026-01-09 12:00:58.387813	220.6	43.9	-65.2	8.6
2026-01-09 12:01:00.627822	221.6	44.4	-64.2	10.4
2026-01-09 12:01:02.868336	222.5	44.8	-65.1	10.1
2026-01-09 12:01:05.107849	223.5	45.2	-63.9	8.8
2026-01-09 12:01:07.347361	224.5	45.6	-63.4	6.5
2026-01-09 12:01:09.582378	225.6	45.9	-64.9	7.7
2026-01-09 12:01:11.823892	226.6	46.3	-64.2	6.4
2026-01-09 12:01:14.059908	227.7	46.7	-64.2	8.5
2026-01-09 12:01:16.299421	228.8	47.1	-64.0	6.8
2026-01-09 12:01:18.537438	230.0	47.4	-64.1	5.7
2026-01-09 12:01:20.778447	231.1	47.8	-64.6	7.0
2026-01-09 12:01:23.015464	232.3	48.1	-65.3	6.7
2026-01-09 12:01:25.250967	233.6	48.4	-65.5	6.3
2026-01-09 12:01:27.489976	234.8	48.8	-64.5	6.1
2026-01-09 12:01:29.729993	236.1	49.1	-64.5	4.9
2026-01-09 12:01:31.971506	237.4	49.3	-65.4	7.0
2026-01-09 12:01:34.212019	238.7	49.6	-65.3	4.6
2026-01-09 12:01:36.451028	240.0	49.9	-63.1	3.6
2026-01-09 12:01:38.692045	241.4	50.1	-63.8	4.3
2026-01-09 12:01:40.932064	242.8	50.4	-64.0	4.1
2026-01-09 12:01:43.176074	244.2	50.6	-64.6	3.0
2026-01-09 12:01:45.420083	245.6	50.8	-64.5	5.1
2026-01-09 12:01:47.662604	247.0	51.0	-65.7	7.2
2026-01-09 12:01:49.905622	248.5	51.1	-65.8	6.5
2026-01-09 12:01:52.149633	250.0	51.3	-65.6	6.4
2026-01-09 12:01:54.391650	251.5	51.4	-67.0	6.7
2026-01-09 12:01:56.632172	253.0	51.5	-65.2	5.6
2026-01-09 12:01:58.868692	254.5	51.6	-64.8	5.6
2026-01-09 12:02:01.107709	256.0	51.6	-64.8	4.3
2026-01-09 12:02:03.348727	257.5	51.7	-66.2	6.6
2026-01-09 12:02:05.590736	259.0	51.7	-66.1	5.6
2026-01-09 12:02:07.832745	260.5	51.7	-66.3	5.6
2026-01-09 12:02:10.073753	262.1	51.7	-66.6	5.9
2026-01-09 12:02:12.311761	263.6	51.6	-65.0	2.3
2026-01-09 12:02:14.558771	265.1	51.6	-65.6	3.5
2026-01-09 12:02:16.778497	266.6	51.5	-66.6	5.5
2026-01-09 12:02:19.017514	268.1	51.4	-66.2	5.2
2026-01-09 12:02:21.257026	269.6	51.3	-65.8	4.4
2026-01-09 12:02:23.491539	271.0	51.1	-65.8	7.4
2026-01-09 12:02:25.724041	272.5	51.0	-66.6	7.3
2026-01-09 12:02:27.968555	273.9	50.8	-66.9	8.0
2026-01-09 12:02:30.210078	275.4	50.6	-66.0	6.1
2026-01-09 12:02:32.450593	276.8	50.4	-66.4	4.6
2026-01-09 12:02:34.691097	278.2	50.2	-65.5	3.3
2026-01-09 12:02:36.929610	279.5	49.9	-66.2	7.0
2026-01-09 12:02:39.168122	280.9	49.7	-66.6	7.8
2026-01-09 12:02:41.407147	282.2	49.4	-66.4	6.9
2026-01-09 12:02:43.646668	283.5	49.1	-66.5	7.4
2026-01-09 12:02:45.885694	284.7	48.8	-67.0	5.5
2026-01-09 12:02:48.120710	286.0	48.5	-67.4	8.8
2026-01-09 12:02:50.360232	287.2	48.2	-67.0	8.6
2026-01-09 12:02:52.599241	288.4	47.8	-66.1	7.1
2026-01-09 12:02:54.834258	289.6	47.5	-65.7	9.0
2026-01-09 12:02:57.070267	290.7	47.1	-67.2	9.9
2026-01-09 12:02:59.309787	291.8	46.8	-65.0	6.1
2026-01-09 12:03:01.546803	292.9	46.4	-66.9	9.6
2026-01-09 12:03:03.787309	294.0	46.0	-66.1	8.2
2026-01-09 12:03:06.022316	295.0	45.6	-66.4	8.1
2026-01-09 12:03:08.258332	296.0	45.2	-66.5	8.8
2026-01-09 12:03:10.495349	297.0	44.8	-65.6	7.0
2026-01-09 12:03:12.732861	298.0	44.4	-64.3	4.8
2026-01-09 12:03:14.969374	298.9	44.0	-66.4	10.0
2026-01-09 12:03:17.210887	299.8	43.6	-66.7	9.6
2026-01-09 12:03:19.450391	300.7	43.2	-66.1	8.6
2026-01-09 12:03:21.694897	301.6	42.8	-66.4	9.9
2026-01-09 12:03:23.939402	302.5	42.4	-65.7	7.8
2026-01-09 12:03:26.186423	303.3	41.9	-65.8	8.5
2026-01-09 12:03:28.429954	304.1	41.5	-65.9	7.8
2026-01-09 12:03:30.673467	304.9	41.1	-66.0	7.2
2026-01-09 12:03:32.915494	305.7	40.7	-66.6	9.9
2026-01-09 12:03:35.161009	306.4	40.2	-65.8	7.9
2026-01-09 12:03:37.394521	307.1	39.8	-65.9	8.1
2026-01-09 12:03:39.633034	307.8	39.4	-65.2	7.8
2026-01-09 12:03:41.873061	308.5	39.0	-66.1	9.0
2026-01-09 12:03:44.112581	309.2	38.6	-65.2	7.1
2026-01-09 12:03:46.347607	309.9	38.1	-65.6	8.5
2026-01-09 12:03:48.585615	310.5	37.7	-65.8	10.3
2026-01-09 12:03:50.822631	311.1	37.3	-65.5	9.1
2026-01-09 12:03:53.059648	311.7	36.9	-65.8	10.0
2026-01-09 12:03:55.298656	312.3	36.5	-65.8	10.2
2026-01-09 12:03:57.537161	312.9	36.0	-65.9	10.5
2026-01-09 12:03:59.772664	313.5	35.6	-65.7	9.5
2026-01-09 12:04:02.014169	314.0	35.2	-65.9	10.2
2026-01-09 12:04:04.251185	314.5	34.8	-65.7	9.4
2026-01-09 12:04:06.485697	315.1	34.4	-66.2	10.8
2026-01-09 12:04:08.722705	315.6	34.0	-66.0	10.1
2026-01-09 12:04:10.961713	316.1	33.6	-65.3	10.3
2026-01-09 12:04:13.200226	316.6	33.2	-65.6	10.0
2026-01-09 12:04:15.437234	317.0	32.8	-65.6	10.1
2026-01-09 12:04:17.674250	317.5	32.4	-66.5	10.8
2026-01-09 12:04:19.916269	318.0	32.1	-65.5	7.2
2026-01-09 12:04:22.153773	318.4	31.7	-65.7	10.1
2026-01-09 12:04:24.394791	318.8	31.3	-65.5	10.9
2026-01-09 12:04:26.633295	319.3	30.9	-66.2	10.2
2026-01-09 12:04:28.869807	319.7	30.5	-66.3	10.8
2026-01-09 12:04:31.108817	320.1	30.2	-65.3	9.3
2026-01-09 12:04:33.343832	320.5	29.8	-66.1	10.2
2026-01-09 12:04:35.582346	320.9	29.4	-65.4	9.4
2026-01-09 12:04:37.817867	321.2	29.1	-65.6	9.5
2026-01-09 12:04:40.055390	321.6	28.7	-66.2	11.3
2026-01-09 12:04:42.298408	322.0	28.4	-66.5	10.7
2026-01-09 12:04:44.540929	322.3	28.0	-65.8	10.7
2026-01-09 12:04:46.782461	322.7	27.7	-65.9	10.6
2026-01-09 12:04:49.022965	323.0	27.3	-65.8	11.2
2026-01-09 12:04:51.258477	323.3	27.0	-65.9	11.4
2026-01-09 12:04:53.498504	323.7	26.7	-66.2	11.9
2026-01-09 12:04:55.743009	324.0	26.3	-65.3	9.6
2026-01-09 12:04:57.986524	324.3	26.0	-65.1	9.2
2026-01-09 12:05:00.231038	324.6	25.7	-65.9	11.2
2026-01-09 12:05:02.468542	324.9	25.3	-66.0	11.1
2026-01-09 12:05:04.702565	325.2	25.0	-65.9	10.2
2026-01-09 12:05:06.937589	325.5	24.7	-65.2	10.5
2026-01-09 12:05:09.176598	325.8	24.4	-65.9	10.6
2026-01-09 12:05:11.414110	326.1	24.1	-65.0	8.2
2026-01-09 12:05:13.651631	326.3	23.8	-66.3	10.1
2026-01-09 12:05:15.895145	326.6	23.5	-66.0	10.7
2026-01-09 12:05:18.131153	326.9	23.2	-66.3	9.4
2026-01-09 12:05:20.369162	327.1	22.9	-65.7	9.1
2026-01-09 12:05:22.607178	327.4	22.6	-66.1	9.6
2026-01-09 12:05:24.845706	327.6	22.3	-65.4	9.1
2026-01-09 12:05:27.084734	327.9	22.0	-65.7	8.0
2026-01-09 12:05:29.325238	328.1	21.7	-66.0	10.0
2026-01-09 12:05:31.563255	328.3	21.4	-65.4	9.4
2026-01-09 12:05:33.800262	328.6	21.1	-65.9	9.1
2026-01-09 12:05:36.039270	328.8	20.8	-65.5	9.5
2026-01-09 12:05:38.274774	329.0	20.6	-65.7	8.1
2026-01-09 12:05:40.512286	329.2	20.3	-66.4	10.4
2026-01-09 12:05:42.751800	329.5	20.0	-66.5	10.2
2026-01-09 12:05:44.984311	329.7	19.8	-66.0	8.8
2026-01-09 12:05:47.219815	329.9	19.5	-64.5	6.6
2026-01-09 12:05:49.457823	330.1	19.2	-65.8	9.8
2026-01-09 12:05:51.696327	330.3	19.0	-66.0	8.9
2026-01-09 12:05:53.930335	330.5	18.7	-65.6	9.2
2026-01-09 12:05:56.164350	330.7	18.5	-65.0	8.9
2026-01-09 12:05:58.405367	330.9	18.2	-65.5	9.7
2026-01-09 12:06:00.645376	331.1	17.9	-65.1	6.9
2026-01-09 12:06:02.882384	331.3	17.7	-65.3	7.5
2026-01-09 12:06:05.117896	331.4	17.4	-65.6	9.0
2026-01-09 12:06:07.354408	331.6	17.2	-65.8	8.8
2026-01-09 12:06:09.597922	331.8	17.0	-65.8	8.2
2026-01-09 12:06:11.841436	332.0	16.7	-65.2	7.2
2026-01-09 12:06:14.085446	332.2	16.5	-65.6	7.1
2026-01-09 12:06:16.329455	332.3	16.2	-65.3	7.2
2026-01-09 12:06:18.574969	332.5	16.0	-65.3	7.2
2026-01-09 12:06:20.819483	332.7	15.8	-65.5	8.2
2026-01-09 12:06:23.061492	332.8	15.5	-65.7	8.0
2026-01-09 12:06:25.296524	333.0	15.3	-65.2	7.4
2026-01-09 12:06:27.538037	333.1	15.1	-64.4	6.5
2026-01-09 12:06:29.780046	333.3	14.9	-64.9	6.4
2026-01-09 12:06:32.014558	333.4	14.6	-65.6	7.2
2026-01-09 12:06:34.251576	333.6	14.4	-65.9	7.7
2026-01-09 12:06:36.488087	333.8	14.2	-65.3	6.4
2026-01-09 12:06:38.724608	333.9	14.0	-65.7	6.6
2026-01-09 12:06:40.962616	334.0	13.8	-65.7	6.9
2026-01-09 12:06:43.197631	334.2	13.6	-65.7	7.5
2026-01-09 12:06:45.435144	334.3	13.3	-65.2	7.5
2026-01-09 12:06:47.671681	334.5	13.1	-65.7	7.0
2026-01-09 12:06:49.911194	334.6	12.9	-65.6	7.3
2026-01-09 12:06:52.147202	334.7	12.7	-65.0	6.3
2026-01-09 12:06:54.385218	334.9	12.5	-65.0	6.1
2026-01-09 12:06:56.621729	335.0	12.3	-64.9	7.0
2026-01-09 12:06:58.859233	335.1	12.1	-65.0	6.3
2026-01-09 12:07:01.098746	335.3	11.9	-64.6	5.6
2026-01-09 12:07:03.339755	335.4	11.7	-64.2	5.7
2026-01-09 12:07:05.575267	335.5	11.5	-64.5	5.8
2026-01-09 12:07:07.815779	335.7	11.3	-64.6	4.5
2026-01-09 12:07:10.052283	335.8	11.1	-64.4	4.3
2026-01-09 12:07:12.291308	335.9	10.9	-64.8	5.7
2026-01-09 12:07:14.530813	336.0	10.7	-64.3	3.7
2026-01-09 12:07:16.768821	336.1	10.5	-64.4	5.9
2026-01-09 12:07:19.005325	336.3	10.4	-65.1	4.6
2026-01-09 12:07:21.240858	336.4	10.2	-64.9	5.5
2026-01-09 12:07:23.478371	336.5	10.0	-64.9	4.3
2026-01-09 12:07:25.713380	336.6	9.8	-63.9	3.7
2026-01-09 12:07:27.953884	336.7	9.6	-64.3	4.4
2026-01-09 12:07:30.191388	336.8	9.4	-63.9	0.1
2026-01-09 12:07:32.430396	336.9	9.2	-64.4	3.6
2026-01-09 12:07:34.674406	337.0	9.1	-65.0	3.8
2026-01-09 12:07:36.918416	337.1	8.9	-64.6	3.4
2026-01-09 12:07:39.161929	337.3	8.7	-64.2	3.8
2026-01-09 12:07:41.405939	337.4	8.5	-64.1	3.7
2026-01-09 12:07:43.649452	337.5	8.4	-63.6	4.1
2026-01-09 12:07:45.892462	337.6	8.2	-64.2	3.5
2026-01-09 12:07:48.136472	337.7	8.0	-64.7	2.5
2026-01-09 12:07:50.379489	337.8	7.8	-64.1	3.1
2026-01-09 12:07:52.617994	337.9	7.7	-64.3	6.2
2026-01-09 12:07:54.859011	338.0	7.5	-63.2	5.5
2026-01-09 12:07:57.099022	338.1	7.3	-64.8	5.4
2026-01-09 12:07:59.336535	338.2	7.2	-65.0	5.1
2026-01-09 12:08:01.574047	338.3	7.0	-63.7	5.0
2026-01-09 12:08:03.814560	338.3	6.8	-64.6	6.7
2026-01-09 12:08:06.054065	338.4	6.7	-63.7	3.8
2026-01-09 12:08:08.289568	338.5	6.5	-65.8	4.1
2026-01-09 12:08:10.525585	338.6	6.3	-64.5	4.2
2026-01-09 12:08:12.768595	338.7	6.2	-64.5	4.7
2026-01-09 12:08:15.005612	338.8	6.0	-65.3	2.5
2026-01-09 12:08:17.241116	338.9	5.9	-66.5	0.8
2026-01-09 12:08:19.476131	339.0	5.7	-68.4	0.0
2026-01-09 12:08:21.711651	339.1	5.5	-69.3	0.0
2026-01-09 12:08:23.946659	339.2	5.4	-69.5	0.0
2026-01-09 12:08:26.180675	339.2	5.2	-70.9	0.0
2026-01-09 12:08:28.414682	339.3	5.1	-72.2	0.0
#Closed at: 2026-01-09 11:55:43.078126