passes_logs/2026/01/09/PlanumMoscow/PlanumMoscow__20260109_074654_METEOR-M2_3_rec.log

#Pass ID: 20260109_074654_METEOR-M2 3
#Satellite: METEOR-M2 3
#Configuration: METEOR-M2 3
#Start time: 2026-01-09 07:46:59.823227

#LorettStation: 1.0.0 05.05.2024
#Station: PlanumMoscow
#Location: 37.6253844 lon 55.6713361 lat
#TLE: 1 57166U 23091A   25293.99389264  .00000062  00000+0  46113-4 0  9997
#TLE: 2 57166  98.6457 348.4330 0004759 135.3141 224.8422 14.24016546120475

#Time	Az	El	Level	SNR
2026-01-09 07:50:38.273989	6.8	29.1	-60.5	10.4
2026-01-09 07:50:40.508998	6.6	29.5	-60.9	4.3
2026-01-09 07:50:42.751503	6.4	29.9	-62.3	9.0
2026-01-09 07:50:44.990015	6.2	30.3	-61.5	8.5
2026-01-09 07:50:47.229032	6.1	30.7	-61.8	7.1
2026-01-09 07:50:49.467537	5.9	31.2	-61.7	9.1
2026-01-09 07:50:51.706049	5.6	31.6	-62.2	7.9
2026-01-09 07:50:53.944570	5.4	32.1	-62.4	9.1
2026-01-09 07:50:56.185083	5.2	32.5	-62.9	9.9
2026-01-09 07:50:58.428093	5.0	33.0	-61.8	6.8
2026-01-09 07:51:00.669606	4.8	33.4	-62.1	8.1
2026-01-09 07:51:02.910127	4.5	33.9	-62.9	10.7
2026-01-09 07:51:05.148631	4.3	34.4	-61.1	9.7
2026-01-09 07:51:07.388144	4.0	34.9	-62.2	8.7
2026-01-09 07:51:09.625656	3.8	35.3	-63.0	11.1
2026-01-09 07:51:11.867674	3.5	35.8	-62.6	11.0
2026-01-09 07:51:14.109195	3.2	36.3	-63.2	11.2
2026-01-09 07:51:16.349717	2.9	36.9	-60.7	8.2
2026-01-09 07:51:18.586229	2.6	37.4	-61.4	6.1
2026-01-09 07:51:20.825247	2.3	37.9	-62.1	9.5
2026-01-09 07:51:23.062767	2.0	38.4	-61.1	6.8
2026-01-09 07:51:25.303802	1.7	39.0	-61.0	6.9
2026-01-09 07:51:27.544811	1.4	39.5	-60.8	7.4
2026-01-09 07:51:29.787324	1.0	40.1	-61.6	8.0
2026-01-09 07:51:32.027839	0.6	40.7	-61.5	8.1
2026-01-09 07:51:34.267352	0.3	41.2	-63.1	10.8
2026-01-09 07:51:36.507865	359.9	41.8	-62.5	8.2
2026-01-09 07:51:38.749387	359.5	42.4	-62.0	8.1
2026-01-09 07:51:40.988403	359.0	43.0	-63.4	9.9
2026-01-09 07:51:43.228916	358.6	43.6	-63.4	10.4
2026-01-09 07:51:45.469420	358.1	44.2	-64.7	13.1
2026-01-09 07:51:47.714440	357.7	44.8	-65.1	12.5
2026-01-09 07:51:49.956970	357.2	45.4	-64.1	12.7
2026-01-09 07:51:52.199997	356.7	46.1	-64.3	11.0
2026-01-09 07:51:54.442023	356.1	46.7	-64.2	11.6
2026-01-09 07:51:56.685051	355.6	47.4	-64.4	11.0
2026-01-09 07:51:58.927060	355.0	48.0	-64.8	9.4
2026-01-09 07:52:01.170573	354.4	48.7	-65.5	11.5
2026-01-09 07:52:03.413096	353.8	49.4	-64.9	7.9
2026-01-09 07:52:05.651616	353.1	50.0	-65.6	10.8
2026-01-09 07:52:07.892129	352.4	50.7	-66.0	9.3
2026-01-09 07:52:10.130146	351.7	51.4	-66.8	10.6
2026-01-09 07:52:12.367164	350.9	52.1	-66.9	11.1
2026-01-09 07:52:14.606668	350.1	52.8	-66.1	10.2
2026-01-09 07:52:16.845695	349.3	53.5	-66.0	11.3
2026-01-09 07:52:19.084713	348.4	54.2	-66.7	12.3
2026-01-09 07:52:21.324225	347.5	54.9	-66.6	12.7
2026-01-09 07:52:23.564739	346.5	55.6	-66.1	11.9
2026-01-09 07:52:25.802748	345.5	56.3	-66.9	13.4
2026-01-09 07:52:28.045757	344.4	57.0	-66.8	13.6
2026-01-09 07:52:30.282269	343.3	57.7	-66.4	13.2
2026-01-09 07:52:32.520782	342.1	58.4	-66.5	11.3
2026-01-09 07:52:34.761296	340.8	59.1	-66.5	12.2
2026-01-09 07:52:36.995311	339.5	59.8	-67.2	13.1
2026-01-09 07:52:39.232329	338.1	60.5	-66.6	11.5
2026-01-09 07:52:41.472833	336.6	61.2	-66.9	11.6
2026-01-09 07:52:43.712843	335.1	61.8	-67.3	11.5
2026-01-09 07:52:45.952861	333.4	62.5	-67.5	11.5
2026-01-09 07:52:48.191869	331.7	63.1	-67.1	11.3
2026-01-09 07:52:50.428382	329.9	63.8	-67.8	12.0
2026-01-09 07:52:52.669896	327.9	64.4	-67.8	11.9
2026-01-09 07:52:54.909913	325.9	64.9	-67.9	11.2
2026-01-09 07:52:57.146921	323.8	65.5	-68.3	11.5
2026-01-09 07:52:59.387434	321.5	66.0	-68.3	11.6
2026-01-09 07:53:01.625956	319.2	66.5	-68.1	11.3
2026-01-09 07:53:03.862476	316.7	67.0	-67.8	11.2
2026-01-09 07:53:06.101484	314.1	67.4	-67.9	11.4
2026-01-09 07:53:08.343998	311.5	67.8	-67.9	11.9
2026-01-09 07:53:10.586503	308.7	68.1	-67.8	12.6
2026-01-09 07:53:12.829532	305.8	68.4	-67.6	12.0
2026-01-09 07:53:15.073046	302.9	68.6	-67.9	13.3
2026-01-09 07:53:17.317560	299.9	68.8	-67.7	12.3
2026-01-09 07:53:19.561570	296.9	68.9	-68.1	11.6
2026-01-09 07:53:21.802604	293.8	69.0	-68.2	11.8
2026-01-09 07:53:24.045126	290.7	69.0	-68.3	11.7
2026-01-09 07:53:26.288154	287.6	69.0	-68.2	12.0
2026-01-09 07:53:28.529668	284.6	68.9	-68.1	11.8
2026-01-09 07:53:30.769677	281.6	68.7	-68.1	13.6
2026-01-09 07:53:33.011182	278.6	68.5	-67.5	14.4
2026-01-09 07:53:35.247686	275.7	68.3	-67.5	14.4
2026-01-09 07:53:37.485726	272.9	68.0	-66.9	13.3
2026-01-09 07:53:39.725728	270.2	67.6	-67.1	13.8
2026-01-09 07:53:41.961239	267.5	67.2	-67.0	12.3
2026-01-09 07:53:44.198248	265.0	66.8	-67.7	13.1
2026-01-09 07:53:46.437256	262.6	66.3	-67.2	12.5
2026-01-09 07:53:48.677760	260.3	65.8	-67.4	12.9
2026-01-09 07:53:50.918274	258.1	65.2	-66.9	12.6
2026-01-09 07:53:53.156778	256.0	64.7	-67.6	13.3
2026-01-09 07:53:55.391796	254.0	64.1	-67.2	12.7
2026-01-09 07:53:57.630310	252.1	63.5	-66.9	10.7
2026-01-09 07:53:59.870329	250.3	62.8	-67.3	12.0
2026-01-09 07:54:02.109842	248.6	62.2	-67.4	10.8
2026-01-09 07:54:04.347866	247.0	61.5	-66.6	10.3
2026-01-09 07:54:06.589380	245.5	60.9	-66.7	10.2
2026-01-09 07:54:08.826389	244.0	60.2	-66.7	11.8
2026-01-09 07:54:11.065902	242.7	59.5	-66.3	10.5
2026-01-09 07:54:13.305919	241.4	58.8	-66.1	11.7
2026-01-09 07:54:15.543423	240.1	58.1	-63.1	7.7
2026-01-09 07:54:17.783927	239.0	57.4	-65.8	10.4
2026-01-09 07:54:20.024442	237.8	56.7	-66.2	10.0
2026-01-09 07:54:22.269965	236.8	56.0	-65.4	9.3
2026-01-09 07:54:24.510974	235.8	55.2	-65.4	9.2
2026-01-09 07:54:26.753495	234.8	54.5	-65.3	9.5
2026-01-09 07:54:28.997505	233.9	53.8	-64.6	7.3
2026-01-09 07:54:31.242019	233.1	53.1	-63.8	6.9
2026-01-09 07:54:33.486039	232.3	52.4	-64.5	5.0
2026-01-09 07:54:35.730048	231.5	51.7	-64.8	8.6
2026-01-09 07:54:37.971571	230.7	51.0	-64.5	8.7
2026-01-09 07:54:40.211588	230.0	50.3	-64.0	9.3
2026-01-09 07:54:42.453597	229.3	49.7	-64.2	8.1
2026-01-09 07:54:44.695110	228.7	49.0	-65.1	10.1
2026-01-09 07:54:46.936138	228.1	48.3	-62.7	8.8
2026-01-09 07:54:49.178651	227.5	47.7	-63.9	8.6
2026-01-09 07:54:51.421155	226.9	47.0	-64.1	8.5
2026-01-09 07:54:53.662191	226.3	46.4	-64.8	7.3
2026-01-09 07:54:55.905216	225.8	45.7	-64.4	6.8
2026-01-09 07:54:58.146233	225.3	45.1	-63.4	6.7
2026-01-09 07:55:00.387747	224.8	44.5	-63.0	7.2
2026-01-09 07:55:02.628763	224.4	43.8	-61.7	5.4
2026-01-09 07:55:04.870781	223.9	43.2	-63.6	7.6
2026-01-09 07:55:07.111302	223.5	42.6	-63.4	8.3
2026-01-09 07:55:09.351824	223.1	42.0	-62.3	7.4
2026-01-09 07:55:11.591329	222.7	41.4	-63.8	11.6
2026-01-09 07:55:13.833834	222.3	40.9	-63.4	10.4
2026-01-09 07:55:16.076339	221.9	40.3	-62.7	8.3
2026-01-09 07:55:18.319357	221.5	39.7	-63.1	11.3
2026-01-09 07:55:20.558861	221.2	39.2	-63.7	12.4
2026-01-09 07:55:22.796365	220.9	38.6	-64.1	12.2
2026-01-09 07:55:25.038374	220.5	38.1	-64.3	13.5
2026-01-09 07:55:27.275382	220.2	37.5	-64.5	13.3
2026-01-09 07:55:29.514399	219.9	37.0	-64.9	14.0
2026-01-09 07:55:31.756409	219.6	36.5	-64.5	14.4
2026-01-09 07:55:33.996914	219.3	36.0	-63.7	12.0
2026-01-09 07:55:36.245420	219.1	35.5	-63.8	13.0
2026-01-09 07:55:38.488934	218.8	35.0	-64.9	13.0
2026-01-09 07:55:40.728960	218.5	34.5	-64.5	13.8
2026-01-09 07:55:42.964473	218.3	34.0	-64.7	13.8
2026-01-09 07:55:45.200993	218.1	33.5	-63.9	12.3
2026-01-09 07:55:47.443002	217.8	33.1	-64.6	13.8
2026-01-09 07:55:49.682515	217.6	32.6	-63.8	14.1
2026-01-09 07:55:51.923028	217.4	32.2	-63.4	12.5
2026-01-09 07:55:54.155539	217.2	31.7	-64.3	13.1
2026-01-09 07:55:56.390042	216.9	31.3	-64.6	14.3
2026-01-09 07:55:58.626554	216.7	30.8	-64.9	11.9
2026-01-09 07:56:00.864067	216.5	30.4	-64.1	13.5
2026-01-09 07:56:03.102076	216.3	30.0	-64.8	14.2
2026-01-09 07:56:05.338589	216.2	29.6	-65.4	13.5
2026-01-09 07:56:07.577102	216.0	29.1	-64.6	10.5
2026-01-09 07:56:09.813118	215.8	28.7	-65.2	13.9
2026-01-09 07:56:12.048133	215.6	28.3	-64.8	13.6
2026-01-09 07:56:14.284637	215.5	27.9	-65.1	13.0
2026-01-09 07:56:16.522659	215.3	27.6	-65.5	13.2
2026-01-09 07:56:18.760180	215.1	27.2	-62.9	8.1
2026-01-09 07:56:21.000197	215.0	26.8	-63.1	10.3
2026-01-09 07:56:23.236709	214.8	26.4	-62.4	7.1
2026-01-09 07:56:25.474717	214.7	26.0	-63.2	6.7
2026-01-09 07:56:27.711726	214.5	25.7	-62.9	6.4
2026-01-09 07:56:29.948734	214.4	25.3	-63.5	8.9
2026-01-09 07:56:32.184750	214.2	25.0	-63.9	8.1
2026-01-09 07:56:34.419758	214.1	24.6	-61.6	7.2
2026-01-09 07:56:36.659271	214.0	24.3	-63.2	11.9
2026-01-09 07:56:38.895298	213.8	23.9	-63.5	11.4
2026-01-09 07:56:41.133810	213.7	23.6	-63.3	7.4
2026-01-09 07:56:43.371322	213.6	23.2	-62.4	6.9
2026-01-09 07:56:45.611340	213.5	22.9	-62.0	8.8
2026-01-09 07:56:47.851844	213.3	22.6	-64.0	11.5
2026-01-09 07:56:50.093862	213.2	22.3	-63.6	12.8
2026-01-09 07:56:52.332366	213.1	22.0	-63.3	10.2
2026-01-09 07:56:54.576375	213.0	21.6	-65.9	12.7
2026-01-09 07:56:56.818898	212.9	21.3	-65.6	13.9
2026-01-09 07:56:59.062412	212.8	21.0	-66.0	13.8
2026-01-09 07:57:01.303917	212.7	20.7	-66.3	13.7
2026-01-09 07:57:03.544421	212.6	20.4	-66.0	13.2
2026-01-09 07:57:05.787935	212.5	20.1	-66.3	13.6
2026-01-09 07:57:08.031945	212.4	19.8	-66.1	13.4
2026-01-09 07:57:10.275964	212.3	19.5	-65.7	13.4
2026-01-09 07:57:12.514468	212.2	19.2	-65.9	13.6
2026-01-09 07:57:14.757982	212.1	19.0	-66.2	12.8
2026-01-09 07:57:16.995990	212.0	18.7	-66.1	13.6
2026-01-09 07:57:19.233511	211.9	18.4	-66.4	13.5
2026-01-09 07:57:21.469022	211.8	18.1	-65.6	11.5
2026-01-09 07:57:23.711535	211.7	17.9	-65.8	12.9
2026-01-09 07:57:25.949552	211.7	17.6	-65.8	13.0
2026-01-09 07:57:28.188056	211.6	17.3	-65.5	10.9
2026-01-09 07:57:30.425569	211.5	17.1	-66.1	12.5
2026-01-09 07:57:32.664082	211.4	16.8	-66.0	11.2
2026-01-09 07:57:34.902090	211.3	16.6	-64.9	8.2
2026-01-09 07:57:37.137594	211.3	16.3	-65.5	12.4
2026-01-09 07:57:39.377098	211.2	16.0	-64.1	6.9
2026-01-09 07:57:41.612114	211.1	15.8	-62.9	4.9
2026-01-09 07:57:43.850628	211.0	15.6	-65.6	11.5
2026-01-09 07:57:46.091141	211.0	15.3	-63.9	8.5
2026-01-09 07:57:48.326653	210.9	15.1	-64.4	9.6
2026-01-09 07:57:50.562175	210.8	14.8	-65.7	11.7
2026-01-09 07:57:52.801192	210.8	14.6	-62.8	10.4
2026-01-09 07:57:55.041210	210.7	14.4	-66.4	12.0
2026-01-09 07:57:57.275217	210.6	14.1	-65.0	10.6
2026-01-09 07:57:59.512730	210.6	13.9	-63.3	7.6
2026-01-09 07:58:01.750243	210.5	13.7	-65.7	9.9
2026-01-09 07:58:03.988251	210.5	13.4	-65.7	9.7
2026-01-09 07:58:06.228260	210.4	13.2	-66.6	12.0
2026-01-09 07:58:08.466773	210.3	13.0	-66.4	11.3
2026-01-09 07:58:10.705790	210.3	12.8	-63.8	9.5
2026-01-09 07:58:12.946304	210.2	12.6	-62.2	5.8
2026-01-09 07:58:15.185312	210.2	12.3	-63.4	6.7
2026-01-09 07:58:17.429330	210.1	12.1	-65.1	10.0
2026-01-09 07:58:19.671339	210.0	11.9	-61.9	1.2
2026-01-09 07:58:21.915349	210.0	11.7	-60.7	2.1
2026-01-09 07:58:24.159864	209.9	11.5	-59.8	0.0
2026-01-09 07:58:26.397376	209.9	11.3	-65.5	10.1
2026-01-09 07:58:28.632896	209.8	11.1	-66.8	11.1
2026-01-09 07:58:30.871905	209.8	10.9	-65.6	8.6
2026-01-09 07:58:33.113426	209.7	10.7	-65.9	9.6
2026-01-09 07:58:35.353452	209.7	10.5	-66.0	10.1
2026-01-09 07:58:37.589980	209.6	10.3	-65.4	7.3
2026-01-09 07:58:39.828502	209.6	10.1	-66.3	9.4
2026-01-09 07:58:42.070015	209.5	9.9	-65.7	7.0
2026-01-09 07:58:44.313529	209.5	9.7	-64.0	8.6
2026-01-09 07:58:46.557540	209.4	9.5	-65.0	9.0
2026-01-09 07:58:48.801051	209.4	9.3	-63.9	8.7
2026-01-09 07:58:51.045068	209.4	9.1	-65.7	9.2
2026-01-09 07:58:53.289077	209.3	8.9	-64.2	7.0
2026-01-09 07:58:55.532087	209.3	8.7	-65.6	7.5
2026-01-09 07:58:57.767103	209.2	8.6	-64.7	3.3
2026-01-09 07:59:00.008112	209.2	8.4	-66.1	8.4
2026-01-09 07:59:02.242624	209.1	8.2	-66.6	8.8
2026-01-09 07:59:04.479632	209.1	8.0	-63.7	4.7
2026-01-09 07:59:06.717144	209.1	7.8	-66.3	9.0
2026-01-09 07:59:08.953657	209.0	7.6	-62.6	7.1
2026-01-09 07:59:11.192170	209.0	7.5	-62.7	7.2
2026-01-09 07:59:13.429682	208.9	7.3	-62.2	0.0
2026-01-09 07:59:15.672196	208.9	7.1	-65.8	7.6
2026-01-09 07:59:17.908709	208.9	6.9	-65.3	7.7
2026-01-09 07:59:20.149214	208.8	6.8	-59.1	0.0
2026-01-09 07:59:22.387726	208.8	6.6	-63.5	3.7
2026-01-09 07:59:24.627735	208.8	6.4	-65.2	6.2
2026-01-09 07:59:26.865752	208.7	6.3	-64.2	8.0
2026-01-09 07:59:29.104760	208.7	6.1	-65.5	3.9
2026-01-09 07:59:31.342769	208.7	5.9	-66.6	0.0
2026-01-09 07:59:33.577272	208.6	5.8	-69.7	0.0
2026-01-09 07:59:35.813279	208.6	5.6	-68.4	0.0
2026-01-09 07:59:38.049792	208.5	5.4	-72.4	0.0
2026-01-09 07:59:40.285800	208.5	5.3	-73.1	0.0
2026-01-09 07:59:42.523808	208.5	5.1	-72.3	0.0
2026-01-09 07:59:44.763825	208.5	4.9	-72.8	0.0
#Closed at: 2026-01-09 07:46:54.824604