passes_logs/2026/01/09/PlanumMoscow/PlanumMoscow__20260109_183055_METOP-C_rec.log

#Pass ID: 20260109_183055_METOP-C
#Satellite: METOP-C
#Configuration: METOP-C
#Start time: 2026-01-09 18:31:00.815141

#LorettStation: 1.0.0 05.05.2024
#Station: PlanumMoscow
#Location: 37.6253844 lon 55.6713361 lat
#TLE: 1 43689U 18087A   25293.88981035  .00000265  00000+0  14109-3 0  9997
#TLE: 2 43689  98.7006 352.4487 0002041 122.1097 238.0279 14.21482740360838

#Time	Az	El	Level	SNR
2026-01-09 18:34:39.246940	188.9	28.4	-64.4	0.0
2026-01-09 18:34:41.496464	189.2	28.7	-65.0	0.5
2026-01-09 18:34:43.735968	189.5	29.1	-66.5	1.4
2026-01-09 18:34:45.976985	189.8	29.5	-65.5	2.3
2026-01-09 18:34:48.219995	190.1	29.9	-65.3	0.0
2026-01-09 18:34:50.462019	190.4	30.3	-66.3	1.2
2026-01-09 18:34:52.696033	190.7	30.7	-65.2	1.8
2026-01-09 18:34:54.929042	191.0	31.1	-66.5	2.6
2026-01-09 18:34:57.163050	191.3	31.5	-65.8	0.0
2026-01-09 18:34:59.396575	191.7	31.9	-64.9	0.9
2026-01-09 18:35:01.634088	192.0	32.4	-66.7	2.6
2026-01-09 18:35:03.868591	192.4	32.8	-66.9	2.7
2026-01-09 18:35:06.102607	192.8	33.2	-67.0	0.9
2026-01-09 18:35:08.336614	193.1	33.7	-67.1	0.7
2026-01-09 18:35:10.570629	193.5	34.1	-66.8	1.0
2026-01-09 18:35:12.805141	193.9	34.5	-67.2	0.0
2026-01-09 18:35:15.038157	194.3	35.0	-67.6	0.0
2026-01-09 18:35:17.270669	194.8	35.4	-67.6	0.0
2026-01-09 18:35:19.498683	195.2	35.9	-65.9	0.0
2026-01-09 18:35:21.736195	195.6	36.4	-67.0	0.0
2026-01-09 18:35:23.968698	196.1	36.8	-66.8	0.0
2026-01-09 18:35:26.201210	196.6	37.3	-66.6	0.0
2026-01-09 18:35:28.433224	197.0	37.8	-66.6	0.0
2026-01-09 18:35:30.666728	197.5	38.3	-64.6	0.0
2026-01-09 18:35:32.896238	198.0	38.8	-66.7	0.0
2026-01-09 18:35:35.131246	198.6	39.3	-67.0	0.0
2026-01-09 18:35:37.363253	199.1	39.8	-66.7	0.0
2026-01-09 18:35:39.598261	199.7	40.3	-67.8	0.0
2026-01-09 18:35:41.832772	200.3	40.8	-68.0	0.0
2026-01-09 18:35:44.065787	200.9	41.3	-68.6	0.0
2026-01-09 18:35:46.295794	201.5	41.8	-68.6	0.0
2026-01-09 18:35:48.527297	202.1	42.3	-65.7	0.0
2026-01-09 18:35:50.761313	202.8	42.8	-67.6	0.0
2026-01-09 18:35:53.001332	203.4	43.3	-68.0	0.0
2026-01-09 18:35:55.243845	204.1	43.9	-66.4	0.0
2026-01-09 18:35:57.487359	204.9	44.4	-66.9	0.0
2026-01-09 18:35:59.730873	205.6	44.9	-68.4	0.0
2026-01-09 18:36:01.975892	206.4	45.5	-68.6	0.0
2026-01-09 18:36:04.212404	207.2	46.0	-68.2	0.0
2026-01-09 18:36:06.443915	208.0	46.5	-67.8	0.0
2026-01-09 18:36:08.678428	208.9	47.1	-68.3	0.0
2026-01-09 18:36:10.922934	209.7	47.6	-68.1	0.0
2026-01-09 18:36:13.163943	210.7	48.1	-67.7	0.0
2026-01-09 18:36:15.397455	211.6	48.7	-67.1	0.0
2026-01-09 18:36:17.629958	212.6	49.2	-67.3	0.0
2026-01-09 18:36:19.861974	213.6	49.7	-68.1	0.0
2026-01-09 18:36:22.094997	214.6	50.2	-67.4	0.0
2026-01-09 18:36:24.324004	215.7	50.8	-67.5	0.0
2026-01-09 18:36:26.554515	216.8	51.3	-67.8	0.0
2026-01-09 18:36:28.786026	218.0	51.8	-67.4	0.0
2026-01-09 18:36:31.018042	219.2	52.3	-67.6	0.0
2026-01-09 18:36:33.260058	220.4	52.8	-66.8	0.0
2026-01-09 18:36:35.492561	221.7	53.3	-66.4	0.0
2026-01-09 18:36:37.728569	223.0	53.7	-65.8	0.0
2026-01-09 18:36:39.963577	224.4	54.2	-66.3	0.0
2026-01-09 18:36:42.197585	225.8	54.6	-67.3	0.0
2026-01-09 18:36:44.432114	227.2	55.1	-67.7	0.0
2026-01-09 18:36:46.665617	228.7	55.5	-67.2	0.0
2026-01-09 18:36:48.900625	230.3	55.9	-67.1	0.0
2026-01-09 18:36:51.133641	231.8	56.3	-66.9	0.0
2026-01-09 18:36:53.368153	233.5	56.7	-67.7	0.0
2026-01-09 18:36:55.599656	235.1	57.0	-67.9	0.0
2026-01-09 18:36:57.831663	236.8	57.3	-67.0	0.0
2026-01-09 18:37:00.065174	238.6	57.6	-67.7	0.0
2026-01-09 18:37:02.301183	240.4	57.9	-67.4	0.0
2026-01-09 18:37:04.534199	242.2	58.2	-66.4	0.0
2026-01-09 18:37:06.766711	244.1	58.4	-68.6	0.0
2026-01-09 18:37:08.993213	245.9	58.6	-67.0	0.0
2026-01-09 18:37:11.223724	247.8	58.8	-67.7	0.0
2026-01-09 18:37:13.455739	249.8	58.9	-67.8	0.0
2026-01-09 18:37:15.699749	251.7	59.0	-66.8	0.0
2026-01-09 18:37:17.942271	253.7	59.1	-68.3	0.0
2026-01-09 18:37:20.186794	255.7	59.2	-67.5	0.0
2026-01-09 18:37:22.427811	257.7	59.2	-67.0	0.0
2026-01-09 18:37:24.665315	259.7	59.2	-67.5	0.0
2026-01-09 18:37:26.908334	261.7	59.1	-68.4	0.0
2026-01-09 18:37:29.146857	263.6	59.1	-65.0	0.0
2026-01-09 18:37:31.379873	265.6	59.0	-67.7	0.0
2026-01-09 18:37:33.613880	267.5	58.8	-66.9	0.0
2026-01-09 18:37:35.845888	269.4	58.7	-68.0	0.0
2026-01-09 18:37:38.077895	271.3	58.5	-68.6	0.0
2026-01-09 18:37:40.311406	273.2	58.3	-69.0	0.0
2026-01-09 18:37:42.545413	275.0	58.0	-68.0	0.0
2026-01-09 18:37:44.777916	276.8	57.7	-67.9	0.0
2026-01-09 18:37:47.010924	278.6	57.5	-67.6	0.0
2026-01-09 18:37:49.249933	280.3	57.1	-67.2	0.0
2026-01-09 18:37:51.480443	282.0	56.8	-69.1	0.0
2026-01-09 18:37:53.714947	283.6	56.4	-69.2	0.0
2026-01-09 18:37:55.944465	285.2	56.1	-67.3	0.0
2026-01-09 18:37:58.177480	286.8	55.7	-67.9	0.0
2026-01-09 18:38:00.407991	288.3	55.3	-68.6	0.0
2026-01-09 18:38:02.640014	289.8	54.8	-69.0	0.0
2026-01-09 18:38:04.869524	291.2	54.4	-68.3	0.0
2026-01-09 18:38:07.101027	292.6	53.9	-67.3	0.0
2026-01-09 18:38:09.331537	293.9	53.5	-67.7	0.0
2026-01-09 18:38:11.565544	295.2	53.0	-68.3	0.0
2026-01-09 18:38:13.803561	296.4	52.5	-68.5	0.0
2026-01-09 18:38:16.037072	297.6	52.0	-68.5	0.0
2026-01-09 18:38:18.268575	298.8	51.5	-68.5	0.0
2026-01-09 18:38:20.499078	299.9	51.0	-68.5	0.0
2026-01-09 18:38:22.730084	301.0	50.5	-69.0	0.0
2026-01-09 18:38:24.962100	302.1	50.0	-69.3	0.0
2026-01-09 18:38:27.192609	303.1	49.4	-69.0	0.0
2026-01-09 18:38:29.426634	304.1	48.9	-69.3	0.0
2026-01-09 18:38:31.661641	305.0	48.4	-68.9	0.0
2026-01-09 18:38:33.909659	306.0	47.8	-68.2	0.0
2026-01-09 18:38:36.150685	306.9	47.3	-69.2	0.0
2026-01-09 18:38:38.391702	307.7	46.8	-67.7	0.0
2026-01-09 18:38:40.631207	308.6	46.3	-68.8	0.0
2026-01-09 18:38:42.875223	309.4	45.7	-67.9	0.0
2026-01-09 18:38:45.119247	310.2	45.2	-67.8	0.0
2026-01-09 18:38:47.358768	310.9	44.7	-67.8	0.0
2026-01-09 18:38:49.586270	311.6	44.1	-68.7	0.0
2026-01-09 18:38:51.817789	312.4	43.6	-68.4	0.0
2026-01-09 18:38:54.049292	313.0	43.1	-68.0	0.0
2026-01-09 18:38:56.280803	313.7	42.6	-68.2	0.0
2026-01-09 18:38:58.512306	314.3	42.1	-67.6	0.0
2026-01-09 18:39:00.744817	315.0	41.5	-68.3	0.0
2026-01-09 18:39:02.978825	315.6	41.0	-66.4	0.0
2026-01-09 18:39:05.208831	316.1	40.5	-68.4	0.0
2026-01-09 18:39:07.437334	316.7	40.0	-67.2	0.0
2026-01-09 18:39:09.664340	317.3	39.5	-67.3	0.0
2026-01-09 18:39:11.895859	317.8	39.1	-68.5	0.0
2026-01-09 18:39:14.127878	318.3	38.6	-68.8	0.0
2026-01-09 18:39:16.357396	318.8	38.1	-68.1	0.0
2026-01-09 18:39:18.587916	319.3	37.6	-68.1	0.0
2026-01-09 18:39:20.818418	319.8	37.1	-67.7	0.0
2026-01-09 18:39:23.049425	320.2	36.7	-67.1	0.0
2026-01-09 18:39:25.279439	320.7	36.2	-67.3	0.0
2026-01-09 18:39:27.508445	321.1	35.7	-67.0	0.0
2026-01-09 18:39:29.736964	321.6	35.3	-68.7	0.0
2026-01-09 18:39:31.965971	322.0	34.8	-68.6	0.0
2026-01-09 18:39:34.195481	322.4	34.4	-68.6	0.0
2026-01-09 18:39:36.423496	322.8	34.0	-68.8	0.0
2026-01-09 18:39:38.651998	323.1	33.5	-68.9	0.0
2026-01-09 18:39:40.884013	323.5	33.1	-68.9	0.0
2026-01-09 18:39:43.116020	323.9	32.7	-68.6	0.0
2026-01-09 18:39:45.348035	324.2	32.3	-68.3	0.0
2026-01-09 18:39:47.581555	324.6	31.8	-68.5	0.0
2026-01-09 18:39:49.826061	324.9	31.4	-68.2	0.0
2026-01-09 18:39:52.066575	325.2	31.0	-68.9	0.0
2026-01-09 18:39:54.311585	325.6	30.6	-68.7	0.0
2026-01-09 18:39:56.554098	325.9	30.2	-68.6	0.0
2026-01-09 18:39:58.795107	326.2	29.8	-69.0	0.0
2026-01-09 18:40:01.037613	326.5	29.4	-69.3	0.0
2026-01-09 18:40:03.272134	326.8	29.0	-68.8	0.0
2026-01-09 18:40:05.503141	327.1	28.7	-68.8	0.0
2026-01-09 18:40:07.733147	327.3	28.3	-67.1	0.0
2026-01-09 18:40:09.968171	327.6	27.9	-69.0	0.0
2026-01-09 18:40:12.198681	327.9	27.6	-69.0	0.0
2026-01-09 18:40:14.428688	328.1	27.2	-67.9	0.0
2026-01-09 18:40:16.663200	328.4	26.8	-69.0	0.0
2026-01-09 18:40:18.893702	328.6	26.5	-68.6	0.0
2026-01-09 18:40:21.129718	328.9	26.1	-66.7	0.0
2026-01-09 18:40:23.357220	329.1	25.8	-68.2	0.0
2026-01-09 18:40:25.586723	329.4	25.5	-68.7	0.0
2026-01-09 18:40:27.818226	329.6	25.1	-68.0	0.0
2026-01-09 18:40:30.050232	329.8	24.8	-68.2	0.0
2026-01-09 18:40:32.280752	330.0	24.5	-68.4	0.0
2026-01-09 18:40:34.517264	330.3	24.1	-68.7	0.0
2026-01-09 18:40:36.745767	330.5	23.8	-66.9	0.0
2026-01-09 18:40:38.976773	330.7	23.5	-67.8	0.0
2026-01-09 18:40:41.206779	330.9	23.2	-68.1	0.0
2026-01-09 18:40:43.433794	331.1	22.9	-68.8	0.0
2026-01-09 18:40:45.666321	331.3	22.6	-68.4	0.0
2026-01-09 18:40:47.894832	331.5	22.3	-68.3	0.0
2026-01-09 18:40:50.124334	331.6	22.0	-68.4	0.0
2026-01-09 18:40:52.352341	331.8	21.7	-68.4	0.0
2026-01-09 18:40:54.582851	332.0	21.4	-68.2	0.0
2026-01-09 18:40:56.813865	332.2	21.1	-68.0	0.0
2026-01-09 18:40:59.045376	332.4	20.8	-68.9	0.0
2026-01-09 18:41:01.274886	332.5	20.5	-68.3	0.0
2026-01-09 18:41:03.507894	332.7	20.2	-66.6	0.0
2026-01-09 18:41:05.746451	332.9	19.9	-67.6	0.0
2026-01-09 18:41:07.986460	333.0	19.7	-68.1	0.0
2026-01-09 18:41:10.229965	333.2	19.4	-67.3	0.0
2026-01-09 18:41:12.472480	333.4	19.1	-67.4	0.0
2026-01-09 18:41:14.714994	333.5	18.8	-68.4	0.0
2026-01-09 18:41:16.960508	333.7	18.6	-68.2	0.0
2026-01-09 18:41:19.201021	333.8	18.3	-68.0	0.0
2026-01-09 18:41:21.434037	334.0	18.0	-67.1	0.0
2026-01-09 18:41:23.665044	334.1	17.8	-67.1	0.0
2026-01-09 18:41:25.897059	334.3	17.5	-67.2	0.0
2026-01-09 18:41:28.129562	334.4	17.3	-67.2	0.0
2026-01-09 18:41:30.361064	334.5	17.0	-67.0	0.0
2026-01-09 18:41:32.597072	334.7	16.8	-67.4	0.0
2026-01-09 18:41:34.831576	334.8	16.5	-66.5	0.0
2026-01-09 18:41:37.067584	335.0	16.3	-67.0	0.0
2026-01-09 18:41:39.296599	335.1	16.1	-67.2	0.0
2026-01-09 18:41:41.526605	335.2	15.8	-66.8	0.0
2026-01-09 18:41:43.760122	335.3	15.6	-66.6	0.6
2026-01-09 18:41:45.996146	335.5	15.3	-66.8	0.0
2026-01-09 18:41:48.235155	335.6	15.1	-66.5	0.0
2026-01-09 18:41:50.464161	335.7	14.9	-66.1	0.0
2026-01-09 18:41:52.693672	335.8	14.7	-66.8	0.0
2026-01-09 18:41:54.925679	335.9	14.4	-66.6	0.6
2026-01-09 18:41:57.160696	336.1	14.2	-65.5	0.0
2026-01-09 18:41:59.395712	336.2	14.0	-66.7	0.0
2026-01-09 18:42:01.629232	336.3	13.8	-66.0	0.0
2026-01-09 18:42:03.860743	336.4	13.5	-67.0	0.6
2026-01-09 18:42:06.092254	336.5	13.3	-66.2	0.2
2026-01-09 18:42:08.324757	336.6	13.1	-67.0	1.1
2026-01-09 18:42:10.557269	336.7	12.9	-65.7	0.0
2026-01-09 18:42:12.787780	336.8	12.7	-66.3	0.0
2026-01-09 18:42:15.020283	336.9	12.5	-65.7	0.0
2026-01-09 18:42:17.250794	337.0	12.3	-66.5	0.0
2026-01-09 18:42:19.483800	337.2	12.1	-65.3	0.0
2026-01-09 18:42:21.723830	337.3	11.9	-66.3	0.0
2026-01-09 18:42:23.966857	337.4	11.7	-65.1	0.0
2026-01-09 18:42:26.208883	337.5	11.5	-66.2	0.0
2026-01-09 18:42:28.452389	337.6	11.3	-66.1	0.0
2026-01-09 18:42:30.696904	337.6	11.1	-64.8	0.0
2026-01-09 18:42:32.939417	337.7	10.9	-66.1	0.0
2026-01-09 18:42:35.183428	337.8	10.7	-66.7	0.0
2026-01-09 18:42:37.422940	337.9	10.5	-65.3	0.0
2026-01-09 18:42:39.651947	338.0	10.3	-66.2	0.0
2026-01-09 18:42:41.884459	338.1	10.1	-66.0	0.0
2026-01-09 18:42:44.119466	338.2	9.9	-65.2	0.0
2026-01-09 18:42:46.352977	338.3	9.7	-65.5	0.0
2026-01-09 18:42:48.591994	338.4	9.5	-65.6	0.0
2026-01-09 18:42:50.824001	338.5	9.3	-66.0	0.2
2026-01-09 18:42:53.054008	338.5	9.2	-66.1	0.0
2026-01-09 18:42:55.288512	338.6	9.0	-66.0	0.0
2026-01-09 18:42:57.522519	338.7	8.8	-65.4	0.0
2026-01-09 18:42:59.756536	338.8	8.6	-65.4	0.0
2026-01-09 18:43:01.986542	338.9	8.4	-65.4	0.0
2026-01-09 18:43:04.220550	339.0	8.3	-65.6	0.0
2026-01-09 18:43:06.455062	339.0	8.1	-65.3	0.0
2026-01-09 18:43:08.685069	339.1	7.9	-65.2	0.0
2026-01-09 18:43:10.916076	339.2	7.7	-64.0	0.0
2026-01-09 18:43:13.147578	339.3	7.6	-64.8	0.0
2026-01-09 18:43:15.378585	339.4	7.4	-64.2	0.0
2026-01-09 18:43:17.613097	339.4	7.2	-65.0	0.0
2026-01-09 18:43:19.845131	339.5	7.1	-65.3	0.0
2026-01-09 18:43:22.076147	339.6	6.9	-65.5	0.0
2026-01-09 18:43:24.309155	339.7	6.7	-64.8	0.0
2026-01-09 18:43:26.541172	339.7	6.6	-65.0	0.0
2026-01-09 18:43:28.772683	339.8	6.4	-65.4	0.0
2026-01-09 18:43:31.007203	339.9	6.2	-65.9	0.0
2026-01-09 18:43:33.238219	339.9	6.1	-65.4	0.0
2026-01-09 18:43:35.476228	340.0	5.9	-66.6	3.5
2026-01-09 18:43:37.708739	340.1	5.7	-70.0	0.0
2026-01-09 18:43:39.946260	340.2	5.6	-69.4	0.0
2026-01-09 18:43:42.191279	340.2	5.4	-71.3	0.0
2026-01-09 18:43:44.430800	340.3	5.3	-72.1	0.0
2026-01-09 18:43:46.672810	340.4	5.1	-72.7	0.0
#Closed at: 2026-01-09 18:30:55.816577