passes_logs/2026/01/09/PlanumMoscow/PlanumMoscow__20260109_173533_METEOR-M2_3_rec.log

#Pass ID: 20260109_173533_METEOR-M2 3
#Satellite: METEOR-M2 3
#Configuration: METEOR-M2 3
#Start time: 2026-01-09 17:35:38.762529

#LorettStation: 1.0.0 05.05.2024
#Station: PlanumMoscow
#Location: 37.6253844 lon 55.6713361 lat
#TLE: 1 57166U 23091A   25293.99389264  .00000062  00000+0  46113-4 0  9997
#TLE: 2 57166  98.6457 348.4330 0004759 135.3141 224.8422 14.24016546120475

#Time	Az	El	Level	SNR
2026-01-09 17:39:17.185462	151.6	29.8	-64.8	14.7
2026-01-09 17:39:19.426003	151.5	30.3	-65.3	15.3
2026-01-09 17:39:21.666027	151.3	30.7	-65.0	15.4
2026-01-09 17:39:23.904037	151.2	31.2	-65.0	14.4
2026-01-09 17:39:26.143587	151.1	31.6	-65.3	15.5
2026-01-09 17:39:28.382108	151.0	32.1	-64.8	15.0
2026-01-09 17:39:30.624135	150.9	32.5	-65.7	16.2
2026-01-09 17:39:32.868144	150.7	33.0	-65.0	15.2
2026-01-09 17:39:35.112650	150.6	33.5	-65.2	15.0
2026-01-09 17:39:37.355172	150.5	34.0	-65.5	15.5
2026-01-09 17:39:39.599182	150.3	34.5	-65.7	16.4
2026-01-09 17:39:41.843705	150.2	35.0	-65.6	15.9
2026-01-09 17:39:44.085723	150.0	35.5	-65.4	16.1
2026-01-09 17:39:46.323236	149.9	36.0	-65.5	16.4
2026-01-09 17:39:48.562244	149.7	36.5	-65.5	16.4
2026-01-09 17:39:50.800253	149.6	37.1	-65.8	16.8
2026-01-09 17:39:53.036772	149.4	37.6	-65.6	16.1
2026-01-09 17:39:55.275276	149.2	38.2	-65.2	15.4
2026-01-09 17:39:57.510789	149.0	38.7	-65.8	16.2
2026-01-09 17:39:59.747300	148.8	39.3	-66.0	16.4
2026-01-09 17:40:01.985309	148.7	39.9	-65.8	16.2
2026-01-09 17:40:04.224326	148.4	40.5	-65.5	15.9
2026-01-09 17:40:06.462335	148.2	41.1	-65.9	16.2
2026-01-09 17:40:08.698350	148.0	41.7	-66.4	16.6
2026-01-09 17:40:10.938863	147.8	42.3	-65.7	16.4
2026-01-09 17:40:13.177385	147.6	42.9	-65.4	15.3
2026-01-09 17:40:15.418394	147.3	43.6	-65.8	15.9
2026-01-09 17:40:17.655402	147.0	44.2	-65.7	16.0
2026-01-09 17:40:19.892913	146.8	44.9	-66.1	15.6
2026-01-09 17:40:22.130426	146.5	45.5	-66.0	15.3
2026-01-09 17:40:24.371443	146.2	46.2	-66.6	16.2
2026-01-09 17:40:26.607451	145.9	46.9	-66.7	15.4
2026-01-09 17:40:28.843963	145.6	47.6	-67.0	15.5
2026-01-09 17:40:31.083476	145.2	48.3	-67.1	15.5
2026-01-09 17:40:33.324485	144.9	49.1	-66.8	15.2
2026-01-09 17:40:35.562989	144.5	49.8	-66.7	15.2
2026-01-09 17:40:37.803494	144.1	50.5	-67.2	15.1
2026-01-09 17:40:40.041518	143.7	51.3	-66.8	14.4
2026-01-09 17:40:42.282032	143.3	52.1	-67.2	14.3
2026-01-09 17:40:44.521545	142.8	52.8	-67.1	14.6
2026-01-09 17:40:46.765059	142.3	53.6	-66.9	14.2
2026-01-09 17:40:49.013115	141.8	54.4	-67.0	14.1
2026-01-09 17:40:51.261630	141.3	55.2	-67.0	13.5
2026-01-09 17:40:53.506136	140.7	56.0	-66.9	12.6
2026-01-09 17:40:55.748162	140.1	56.9	-67.3	13.6
2026-01-09 17:40:57.990682	139.5	57.7	-67.2	13.2
2026-01-09 17:41:00.234693	138.8	58.5	-67.5	13.3
2026-01-09 17:41:02.472205	138.1	59.4	-67.3	11.8
2026-01-09 17:41:04.711710	137.3	60.3	-67.6	13.0
2026-01-09 17:41:06.952279	136.5	61.1	-68.0	13.3
2026-01-09 17:41:09.185790	135.6	62.0	-67.9	12.6
2026-01-09 17:41:11.421837	134.6	62.9	-67.8	11.9
2026-01-09 17:41:13.661882	133.6	63.7	-67.7	12.2
2026-01-09 17:41:15.900424	132.5	64.6	-67.9	12.7
2026-01-09 17:41:18.139937	131.3	65.5	-68.2	12.5
2026-01-09 17:41:20.380442	129.9	66.4	-68.3	12.4
2026-01-09 17:41:22.619459	128.5	67.3	-68.5	11.2
2026-01-09 17:41:24.856972	127.0	68.1	-68.3	11.2
2026-01-09 17:41:27.095493	125.3	69.0	-68.2	10.7
2026-01-09 17:41:29.333501	123.5	69.9	-68.0	9.5
2026-01-09 17:41:31.575510	121.5	70.7	-68.5	11.3
2026-01-09 17:41:33.815520	119.2	71.5	-68.2	10.0
2026-01-09 17:41:36.053583	116.8	72.3	-68.5	11.4
2026-01-09 17:41:38.293096	114.2	73.1	-68.7	11.4
2026-01-09 17:41:40.533609	111.2	73.8	-68.0	11.5
2026-01-09 17:41:42.773634	108.0	74.5	-68.4	12.3
2026-01-09 17:41:45.010657	104.5	75.2	-67.6	13.4
2026-01-09 17:41:47.252667	100.7	75.8	-67.3	14.1
2026-01-09 17:41:49.495180	96.5	76.3	-67.2	13.7
2026-01-09 17:41:51.731701	92.0	76.8	-67.1	14.0
2026-01-09 17:41:53.969709	87.2	77.1	-66.7	13.9
2026-01-09 17:41:56.207726	82.2	77.4	-66.9	13.8
2026-01-09 17:41:58.445742	76.9	77.6	-67.0	13.8
2026-01-09 17:42:00.688752	71.6	77.7	-66.7	13.2
2026-01-09 17:42:02.932265	66.2	77.7	-67.0	12.6
2026-01-09 17:42:05.175779	60.9	77.5	-67.2	13.9
2026-01-09 17:42:07.419292	55.7	77.3	-67.3	13.6
2026-01-09 17:42:09.663302	50.8	77.0	-67.3	13.9
2026-01-09 17:42:11.906816	46.1	76.5	-67.1	11.7
2026-01-09 17:42:14.150346	41.8	76.0	-66.7	12.1
2026-01-09 17:42:16.392355	37.8	75.5	-67.4	14.1
2026-01-09 17:42:18.629363	34.1	74.9	-66.8	13.1
2026-01-09 17:42:20.865876	30.8	74.2	-67.1	13.2
2026-01-09 17:42:23.104397	27.7	73.5	-66.8	11.7
2026-01-09 17:42:25.341405	24.9	72.7	-67.1	12.2
2026-01-09 17:42:27.577918	22.4	71.9	-67.5	12.7
2026-01-09 17:42:29.811926	20.1	71.1	-67.3	12.0
2026-01-09 17:42:32.046949	18.0	70.3	-67.2	11.5
2026-01-09 17:42:34.285967	16.1	69.4	-67.5	11.5
2026-01-09 17:42:36.525478	14.3	68.6	-66.8	11.8
2026-01-09 17:42:38.760982	12.7	67.7	-67.4	12.0
2026-01-09 17:42:40.994493	11.3	66.8	-67.4	12.2
2026-01-09 17:42:43.239007	9.9	66.0	-66.8	10.2
2026-01-09 17:42:45.477039	8.7	65.1	-67.3	11.0
2026-01-09 17:42:47.713047	7.5	64.2	-67.3	9.6
2026-01-09 17:42:49.945053	6.4	63.3	-67.3	10.1
2026-01-09 17:42:52.181558	5.4	62.5	-67.0	9.3
2026-01-09 17:42:54.421566	4.5	61.6	-65.7	8.2
2026-01-09 17:42:56.659070	3.7	60.7	-66.9	9.7
2026-01-09 17:42:58.896079	2.9	59.9	-66.1	10.9
2026-01-09 17:43:01.137591	2.1	59.0	-66.4	11.9
2026-01-09 17:43:03.374120	1.4	58.2	-65.9	11.1
2026-01-09 17:43:05.613633	0.7	57.3	-66.0	10.9
2026-01-09 17:43:07.851144	0.1	56.5	-66.1	11.1
2026-01-09 17:43:10.091161	359.5	55.7	-65.8	10.1
2026-01-09 17:43:12.328169	359.0	54.9	-66.2	10.4
2026-01-09 17:43:14.566177	358.5	54.1	-65.2	9.1
2026-01-09 17:43:16.808683	358.0	53.3	-65.9	9.5
2026-01-09 17:43:19.054710	357.5	52.5	-65.4	9.6
2026-01-09 17:43:21.298224	357.1	51.7	-66.0	10.2
2026-01-09 17:43:23.541738	356.6	51.0	-65.5	9.9
2026-01-09 17:43:25.785253	356.2	50.2	-65.6	9.3
2026-01-09 17:43:28.029262	355.9	49.5	-65.9	10.2
2026-01-09 17:43:30.269784	355.5	48.8	-65.6	10.3
2026-01-09 17:43:32.506305	355.2	48.1	-64.9	9.8
2026-01-09 17:43:34.750314	354.8	47.4	-65.0	9.8
2026-01-09 17:43:36.989819	354.5	46.7	-64.8	9.5
2026-01-09 17:43:39.228324	354.2	46.0	-65.9	10.0
2026-01-09 17:43:41.464339	353.9	45.3	-65.1	9.7
2026-01-09 17:43:43.701355	353.7	44.6	-65.1	10.7
2026-01-09 17:43:45.939859	353.4	44.0	-65.3	12.1
2026-01-09 17:43:48.175867	353.1	43.4	-65.5	11.9
2026-01-09 17:43:50.411875	352.9	42.7	-65.2	10.7
2026-01-09 17:43:52.655884	352.7	42.1	-64.7	10.2
2026-01-09 17:43:54.896397	352.4	41.5	-64.8	11.7
2026-01-09 17:43:57.136406	352.2	40.9	-64.8	10.6
2026-01-09 17:43:59.372422	352.0	40.3	-65.6	12.2
2026-01-09 17:44:01.608438	351.8	39.7	-65.5	12.5
2026-01-09 17:44:03.846951	351.6	39.1	-64.5	11.5
2026-01-09 17:44:06.080966	351.4	38.6	-64.4	10.6
2026-01-09 17:44:08.315478	351.3	38.0	-63.9	10.1
2026-01-09 17:44:10.555494	351.1	37.5	-64.0	9.8
2026-01-09 17:44:12.792998	350.9	36.9	-64.5	10.9
2026-01-09 17:44:15.031503	350.8	36.4	-64.7	11.7
2026-01-09 17:44:17.267527	350.6	35.9	-64.9	10.9
2026-01-09 17:44:19.506543	350.5	35.4	-64.7	10.6
2026-01-09 17:44:21.747048	350.3	34.9	-64.4	9.6
2026-01-09 17:44:23.981064	350.2	34.4	-64.1	9.6
2026-01-09 17:44:26.219576	350.0	33.9	-65.0	10.5
2026-01-09 17:44:28.456584	349.9	33.4	-64.3	9.6
2026-01-09 17:44:30.696089	349.8	32.9	-64.1	9.2
2026-01-09 17:44:32.939107	349.7	32.5	-63.4	9.4
2026-01-09 17:44:35.183612	349.5	32.0	-64.0	10.9
2026-01-09 17:44:37.427127	349.4	31.5	-65.0	11.2
2026-01-09 17:44:39.671137	349.3	31.1	-64.4	9.3
2026-01-09 17:44:41.915146	349.2	30.7	-64.0	8.4
2026-01-09 17:44:44.156667	349.1	30.2	-63.4	7.0
2026-01-09 17:44:46.398701	349.0	29.8	-64.4	9.3
2026-01-09 17:44:48.635739	348.9	29.4	-63.4	10.1
2026-01-09 17:44:50.871755	348.8	29.0	-64.8	11.1
2026-01-09 17:44:53.109771	348.7	28.6	-64.8	10.6
2026-01-09 17:44:55.346787	348.6	28.1	-64.8	11.3
2026-01-09 17:44:57.584300	348.5	27.8	-63.8	8.8
2026-01-09 17:44:59.818811	348.4	27.4	-64.7	9.9
2026-01-09 17:45:02.054843	348.3	27.0	-65.2	10.7
2026-01-09 17:45:04.292360	348.2	26.6	-64.7	9.5
2026-01-09 17:45:06.529872	348.2	26.2	-64.9	12.0
2026-01-09 17:45:08.765384	348.1	25.9	-64.6	8.9
2026-01-09 17:45:11.001392	348.0	25.5	-65.5	10.9
2026-01-09 17:45:13.237408	347.9	25.1	-65.5	10.8
2026-01-09 17:45:15.474424	347.9	24.8	-65.5	10.1
2026-01-09 17:45:17.707431	347.8	24.4	-65.4	10.3
2026-01-09 17:45:19.943935	347.7	24.1	-65.0	11.3
2026-01-09 17:45:22.183944	347.6	23.7	-64.6	10.1
2026-01-09 17:45:24.418960	347.6	23.4	-64.5	9.5
2026-01-09 17:45:26.655471	347.5	23.1	-64.4	10.7
2026-01-09 17:45:28.889487	347.5	22.7	-64.5	10.5
2026-01-09 17:45:31.125495	347.4	22.4	-64.4	8.7
2026-01-09 17:45:33.361007	347.3	22.1	-65.4	11.0
2026-01-09 17:45:35.593518	347.3	21.8	-65.8	10.1
2026-01-09 17:45:37.829526	347.2	21.5	-66.1	10.1
2026-01-09 17:45:40.063534	347.2	21.2	-65.4	9.8
2026-01-09 17:45:42.297542	347.1	20.9	-64.1	6.9
2026-01-09 17:45:44.532045	347.1	20.6	-65.3	10.2
2026-01-09 17:45:46.768566	347.0	20.3	-65.0	10.0
2026-01-09 17:45:49.004582	346.9	20.0	-64.8	10.0
2026-01-09 17:45:51.249087	346.9	19.7	-65.4	10.0
2026-01-09 17:45:53.491610	346.8	19.4	-64.8	10.1
2026-01-09 17:45:55.735619	346.8	19.1	-65.1	9.1
2026-01-09 17:45:57.980630	346.8	18.8	-64.6	7.9
2026-01-09 17:46:00.224640	346.7	18.5	-64.9	8.1
2026-01-09 17:46:02.465153	346.7	18.3	-65.1	8.4
2026-01-09 17:46:04.709659	346.6	18.0	-65.4	9.1
2026-01-09 17:46:06.952182	346.6	17.7	-63.6	6.6
2026-01-09 17:46:09.188199	346.5	17.5	-65.1	8.5
2026-01-09 17:46:11.424206	346.5	17.2	-63.1	5.3
2026-01-09 17:46:13.660215	346.5	16.9	-65.5	10.0
2026-01-09 17:46:15.897239	346.4	16.7	-65.0	9.3
2026-01-09 17:46:18.135256	346.4	16.4	-64.4	6.6
2026-01-09 17:46:20.376281	346.3	16.2	-64.7	8.8
2026-01-09 17:46:22.613289	346.3	15.9	-65.2	9.7
2026-01-09 17:46:24.851314	346.3	15.7	-65.8	8.5
2026-01-09 17:46:27.085826	346.2	15.4	-65.5	7.7
2026-01-09 17:46:29.320842	346.2	15.2	-65.5	7.7
2026-01-09 17:46:31.561356	346.2	15.0	-63.9	5.9
2026-01-09 17:46:33.805365	346.1	14.7	-64.1	6.2
2026-01-09 17:46:36.043381	346.1	14.5	-63.8	5.4
2026-01-09 17:46:38.279902	346.1	14.2	-65.1	8.0
2026-01-09 17:46:40.519406	346.0	14.0	-64.5	8.3
2026-01-09 17:46:42.756911	346.0	13.8	-63.4	6.5
2026-01-09 17:46:44.993415	346.0	13.6	-65.6	8.7
2026-01-09 17:46:47.230423	345.9	13.3	-64.0	7.5
2026-01-09 17:46:49.465935	345.9	13.1	-64.6	8.5
2026-01-09 17:46:51.703447	345.9	12.9	-64.8	7.1
2026-01-09 17:46:53.943456	345.9	12.7	-63.7	4.6
2026-01-09 17:46:56.179464	345.8	12.5	-65.5	7.7
2026-01-09 17:46:58.420493	345.8	12.2	-65.5	8.0
2026-01-09 17:47:00.660998	345.8	12.0	-65.1	6.7
2026-01-09 17:47:02.901007	345.7	11.8	-65.0	8.2
2026-01-09 17:47:05.140023	345.7	11.6	-65.4	8.4
2026-01-09 17:47:07.380040	345.7	11.4	-64.2	6.2
2026-01-09 17:47:09.623554	345.7	11.2	-63.4	5.4
2026-01-09 17:47:11.867067	345.6	11.0	-62.9	2.8
2026-01-09 17:47:14.110580	345.6	10.8	-64.5	6.5
2026-01-09 17:47:16.354590	345.6	10.6	-62.5	2.8
2026-01-09 17:47:18.596617	345.6	10.4	-62.7	5.3
2026-01-09 17:47:20.838635	345.6	10.2	-65.0	6.8
2026-01-09 17:47:23.077660	345.5	10.0	-65.0	7.2
2026-01-09 17:47:25.315669	345.5	9.8	-65.0	4.5
2026-01-09 17:47:27.555678	345.5	9.6	-64.1	3.1
2026-01-09 17:47:29.793190	345.5	9.4	-65.5	6.0
2026-01-09 17:47:32.032199	345.4	9.2	-64.4	4.6
2026-01-09 17:47:34.272216	345.4	9.1	-64.9	4.5
2026-01-09 17:47:36.509728	345.4	8.9	-63.7	3.3
2026-01-09 17:47:38.745736	345.4	8.7	-63.6	3.5
2026-01-09 17:47:40.984248	345.4	8.5	-64.2	5.1
2026-01-09 17:47:43.221265	345.4	8.3	-64.3	4.1
2026-01-09 17:47:45.458272	345.3	8.1	-63.9	2.1
2026-01-09 17:47:47.693785	345.3	8.0	-64.1	4.1
2026-01-09 17:47:49.932802	345.3	7.8	-64.3	2.2
2026-01-09 17:47:52.172811	345.3	7.6	-63.5	1.8
2026-01-09 17:47:54.408323	345.3	7.4	-63.3	3.6
2026-01-09 17:47:56.647835	345.3	7.3	-64.6	3.8
2026-01-09 17:47:58.881346	345.2	7.1	-64.5	3.5
2026-01-09 17:48:01.120355	345.2	6.9	-64.7	3.4
2026-01-09 17:48:03.359372	345.2	6.7	-63.7	3.9
2026-01-09 17:48:05.594875	345.2	6.6	-63.8	3.0
2026-01-09 17:48:07.831379	345.2	6.4	-63.5	3.5
2026-01-09 17:48:10.069892	345.2	6.2	-62.3	0.0
2026-01-09 17:48:12.308405	345.1	6.1	-62.0	0.0
2026-01-09 17:48:14.546925	345.1	5.9	-67.5	0.0
2026-01-09 17:48:16.782429	345.1	5.7	-68.9	0.0
2026-01-09 17:48:19.014444	345.1	5.6	-69.0	0.0
2026-01-09 17:48:21.254452	345.1	5.4	-70.4	0.0
2026-01-09 17:48:23.493981	345.1	5.2	-70.4	0.0
2026-01-09 17:48:25.736503	345.1	5.1	-71.8	0.0
#Closed at: 2026-01-09 17:35:33.763785