passes_logs/2026/01/09/PlanumMoscow/PlanumMoscow__20260109_084117_METOP-C_rec.log

#Pass ID: 20260109_084117_METOP-C
#Satellite: METOP-C
#Configuration: METOP-C
#Start time: 2026-01-09 08:41:22.277588

#LorettStation: 1.0.0 05.05.2024
#Station: PlanumMoscow
#Location: 37.6253844 lon 55.6713361 lat
#TLE: 1 43689U 18087A   25293.88981035  .00000265  00000+0  14109-3 0  9997
#TLE: 2 43689  98.7006 352.4487 0002041 122.1097 238.0279 14.21482740360838

#Time	Az	El	Level	SNR
2026-01-09 08:45:01.219355	349.9	25.6	-64.1	3.9
2026-01-09 08:45:03.452870	349.5	25.8	-64.7	6.3
2026-01-09 08:45:05.687374	349.0	26.1	-64.4	3.6
2026-01-09 08:45:07.925396	348.6	26.4	-64.7	5.7
2026-01-09 08:45:10.159900	348.2	26.7	-63.9	4.0
2026-01-09 08:45:12.392914	347.7	27.0	-63.5	3.8
2026-01-09 08:45:14.631419	347.2	27.3	-65.1	5.2
2026-01-09 08:45:16.876429	346.8	27.6	-64.8	4.7
2026-01-09 08:45:19.111436	346.3	27.9	-64.2	4.2
2026-01-09 08:45:21.347451	345.8	28.2	-64.7	4.9
2026-01-09 08:45:23.583963	345.3	28.4	-64.9	4.4
2026-01-09 08:45:25.821484	344.8	28.7	-64.8	4.2
2026-01-09 08:45:28.054996	344.3	29.0	-64.4	4.3
2026-01-09 08:45:30.288507	343.7	29.3	-64.5	4.4
2026-01-09 08:45:32.526018	343.2	29.6	-64.4	2.4
2026-01-09 08:45:34.765034	342.7	29.9	-64.7	5.4
2026-01-09 08:45:37.003556	342.1	30.2	-64.7	2.4
2026-01-09 08:45:39.240068	341.5	30.5	-65.3	4.2
2026-01-09 08:45:41.474571	340.9	30.8	-65.1	4.3
2026-01-09 08:45:43.716599	340.4	31.1	-65.4	5.4
2026-01-09 08:45:45.954119	339.8	31.4	-65.5	5.7
2026-01-09 08:45:48.193135	339.1	31.7	-65.9	4.5
2026-01-09 08:45:50.437145	338.5	32.0	-65.7	5.6
2026-01-09 08:45:52.680162	337.9	32.3	-65.3	4.8
2026-01-09 08:45:54.923180	337.2	32.6	-65.5	5.5
2026-01-09 08:45:57.166199	336.6	32.9	-65.4	4.0
2026-01-09 08:45:59.409721	335.9	33.2	-66.0	5.6
2026-01-09 08:46:01.650738	335.2	33.4	-66.1	5.3
2026-01-09 08:46:03.894251	334.5	33.7	-66.1	4.8
2026-01-09 08:46:06.132756	333.8	34.0	-65.9	4.2
2026-01-09 08:46:08.367267	333.1	34.3	-66.2	4.7
2026-01-09 08:46:10.600787	332.4	34.6	-66.7	4.9
2026-01-09 08:46:12.836795	331.6	34.8	-66.6	4.0
2026-01-09 08:46:15.074307	330.9	35.1	-66.4	2.4
2026-01-09 08:46:17.309323	330.1	35.4	-66.4	2.5
2026-01-09 08:46:19.544330	329.3	35.6	-66.3	3.6
2026-01-09 08:46:21.781338	328.5	35.9	-66.4	1.6
2026-01-09 08:46:24.016849	327.7	36.2	-67.1	3.6
2026-01-09 08:46:26.250864	326.9	36.4	-67.4	2.7
2026-01-09 08:46:28.489376	326.0	36.7	-66.8	4.0
2026-01-09 08:46:30.723391	325.2	36.9	-67.1	3.6
2026-01-09 08:46:32.957399	324.3	37.1	-66.9	3.0
2026-01-09 08:46:35.192406	323.5	37.4	-66.5	2.4
2026-01-09 08:46:37.427918	322.6	37.6	-66.4	1.9
2026-01-09 08:46:39.664926	321.7	37.8	-66.8	0.0
2026-01-09 08:46:41.898437	320.8	38.0	-66.7	0.0
2026-01-09 08:46:44.132941	319.8	38.2	-66.2	0.0
2026-01-09 08:46:46.365948	318.9	38.4	-66.8	0.0
2026-01-09 08:46:48.604468	318.0	38.6	-67.5	1.3
2026-01-09 08:46:50.837980	317.0	38.8	-67.5	0.0
2026-01-09 08:46:53.072492	316.1	38.9	-67.9	0.0
2026-01-09 08:46:55.305002	315.1	39.1	-67.6	0.0
2026-01-09 08:46:57.543506	314.1	39.3	-67.4	0.0
2026-01-09 08:46:59.776528	313.1	39.4	-67.0	0.0
2026-01-09 08:47:02.012535	312.1	39.5	-67.0	0.0
2026-01-09 08:47:04.249039	311.1	39.7	-66.3	0.0
2026-01-09 08:47:06.484047	310.1	39.8	-67.6	0.0
2026-01-09 08:47:08.722551	309.1	39.9	-67.6	0.0
2026-01-09 08:47:10.964071	308.0	40.0	-67.5	0.0
2026-01-09 08:47:13.208081	307.0	40.1	-67.6	0.0
2026-01-09 08:47:15.450106	305.9	40.2	-67.3	0.0
2026-01-09 08:47:17.693124	304.9	40.2	-66.8	0.0
2026-01-09 08:47:19.938133	303.8	40.3	-66.4	0.0
2026-01-09 08:47:22.180160	302.8	40.3	-67.3	0.0
2026-01-09 08:47:24.427193	301.7	40.3	-67.6	0.0
2026-01-09 08:47:26.661704	300.6	40.4	-67.3	0.0
2026-01-09 08:47:28.892712	299.6	40.4	-67.3	0.0
2026-01-09 08:47:31.126222	298.5	40.4	-67.3	0.0
2026-01-09 08:47:33.357733	297.5	40.4	-67.5	0.0
2026-01-09 08:47:35.589754	296.4	40.3	-66.7	0.0
2026-01-09 08:47:37.822762	295.4	40.3	-66.3	0.0
2026-01-09 08:47:40.056768	294.3	40.3	-66.8	0.0
2026-01-09 08:47:42.286270	293.3	40.2	-67.0	0.0
2026-01-09 08:47:44.519286	292.2	40.1	-67.8	0.0
2026-01-09 08:47:46.746787	291.2	40.1	-68.5	0.0
2026-01-09 08:47:48.980298	290.1	40.0	-68.7	0.0
2026-01-09 08:47:51.212313	289.1	39.9	-67.7	0.0
2026-01-09 08:47:53.444320	288.1	39.8	-67.5	0.0
2026-01-09 08:47:55.679336	287.1	39.7	-68.0	0.0
2026-01-09 08:47:57.909342	286.1	39.5	-68.2	0.0
2026-01-09 08:48:00.143350	285.1	39.4	-67.9	0.0
2026-01-09 08:48:02.375861	284.1	39.2	-66.8	0.0
2026-01-09 08:48:04.609868	283.1	39.1	-67.9	0.0
2026-01-09 08:48:06.848895	282.1	38.9	-66.9	0.0
2026-01-09 08:48:09.081405	281.1	38.7	-66.6	0.0
2026-01-09 08:48:11.313908	280.2	38.6	-67.1	0.0
2026-01-09 08:48:13.547428	279.2	38.4	-66.7	0.0
2026-01-09 08:48:15.777937	278.3	38.2	-67.5	0.0
2026-01-09 08:48:18.017946	277.4	38.0	-65.5	0.0
2026-01-09 08:48:20.250953	276.5	37.8	-65.8	0.0
2026-01-09 08:48:22.480464	275.6	37.5	-65.9	0.0
2026-01-09 08:48:24.716471	274.7	37.3	-65.7	0.0
2026-01-09 08:48:26.950983	273.8	37.1	-64.0	0.0
2026-01-09 08:48:29.189487	273.0	36.8	-64.2	0.0
2026-01-09 08:48:31.433000	272.1	36.6	-65.7	0.0
2026-01-09 08:48:33.677514	271.3	36.4	-64.7	0.0
2026-01-09 08:48:35.920036	270.5	36.1	-65.1	0.0
2026-01-09 08:48:38.162558	269.6	35.8	-65.5	0.0
2026-01-09 08:48:40.407072	268.8	35.6	-65.8	0.0
2026-01-09 08:48:42.650585	268.1	35.3	-64.3	0.0
2026-01-09 08:48:44.890098	267.3	35.0	-65.5	0.0
2026-01-09 08:48:47.121112	266.5	34.8	-66.1	0.0
2026-01-09 08:48:49.349614	265.8	34.5	-64.2	0.0
2026-01-09 08:48:51.584622	265.1	34.2	-64.2	0.0
2026-01-09 08:48:53.817124	264.3	33.9	-63.3	0.0
2026-01-09 08:48:56.055141	263.6	33.7	-63.2	0.0
2026-01-09 08:48:58.286661	262.9	33.4	-62.8	0.0
2026-01-09 08:49:00.521172	262.3	33.1	-61.9	0.0
2026-01-09 08:49:02.751178	261.6	32.8	-61.1	0.0
2026-01-09 08:49:04.984185	260.9	32.5	-61.0	0.0
2026-01-09 08:49:07.218193	260.3	32.2	-61.5	0.0
2026-01-09 08:49:09.448695	259.6	31.9	-61.9	0.0
2026-01-09 08:49:11.683207	259.0	31.6	-62.1	0.0
2026-01-09 08:49:13.914214	258.4	31.3	-62.6	0.0
2026-01-09 08:49:16.145725	257.8	31.0	-62.1	0.0
2026-01-09 08:49:18.381229	257.2	30.7	-62.4	0.0
2026-01-09 08:49:20.613251	256.6	30.4	-63.2	0.0
2026-01-09 08:49:22.844754	256.1	30.1	-62.8	0.0
2026-01-09 08:49:25.077265	255.5	29.8	-62.3	0.0
2026-01-09 08:49:27.306775	255.0	29.5	-62.3	0.0
2026-01-09 08:49:29.539783	254.4	29.3	-62.2	0.0
2026-01-09 08:49:31.769789	253.9	29.0	-62.3	0.0
2026-01-09 08:49:34.001291	253.4	28.7	-61.6	0.0
2026-01-09 08:49:36.232314	252.9	28.4	-61.6	0.0
2026-01-09 08:49:38.465825	252.4	28.1	-59.1	0.0
2026-01-09 08:49:40.697328	251.9	27.8	-60.5	0.0
2026-01-09 08:49:42.933345	251.4	27.5	-61.0	0.0
2026-01-09 08:49:45.175850	250.9	27.2	-61.8	0.0
2026-01-09 08:49:47.418370	250.5	26.9	-59.6	0.0
2026-01-09 08:49:49.661884	250.0	26.6	-60.4	0.0
2026-01-09 08:49:51.904903	249.6	26.3	-62.1	0.0
2026-01-09 08:49:54.148425	249.1	26.0	-61.2	0.0
2026-01-09 08:49:56.391444	248.7	25.7	-61.4	0.0
2026-01-09 08:49:58.634957	248.3	25.4	-61.3	0.0
2026-01-09 08:50:00.869461	247.8	25.2	-61.0	0.0
2026-01-09 08:50:03.103973	247.4	24.9	-61.0	0.0
2026-01-09 08:50:05.339989	247.0	24.6	-61.7	0.0
2026-01-09 08:50:07.571500	246.6	24.3	-60.0	0.0
2026-01-09 08:50:09.803011	246.2	24.0	-61.6	0.0
2026-01-09 08:50:12.039020	245.9	23.8	-61.7	0.0
2026-01-09 08:50:14.272531	245.5	23.5	-62.4	1.1
2026-01-09 08:50:16.509548	245.1	23.2	-61.5	0.9
2026-01-09 08:50:18.744555	244.8	22.9	-61.3	0.0
2026-01-09 08:50:20.975057	244.4	22.7	-61.2	0.0
2026-01-09 08:50:23.207064	244.1	22.4	-60.7	0.0
2026-01-09 08:50:25.439071	243.7	22.1	-60.9	0.0
2026-01-09 08:50:27.671582	243.4	21.9	-61.1	3.4
2026-01-09 08:50:29.901589	243.1	21.6	-60.7	2.3
2026-01-09 08:50:32.137092	242.7	21.4	-60.8	1.6
2026-01-09 08:50:34.369613	242.4	21.1	-60.9	0.0
2026-01-09 08:50:36.604628	242.1	20.8	-60.9	0.3
2026-01-09 08:50:38.832641	241.8	20.6	-61.0	1.7
2026-01-09 08:50:41.064648	241.5	20.3	-61.1	2.4
2026-01-09 08:50:43.295158	241.2	20.1	-61.0	0.8
2026-01-09 08:50:45.526668	240.9	19.8	-60.8	1.3
2026-01-09 08:50:47.763181	240.6	19.6	-61.5	3.6
2026-01-09 08:50:49.997684	240.3	19.3	-60.9	3.0
2026-01-09 08:50:52.231195	240.1	19.1	-61.9	3.9
2026-01-09 08:50:54.464202	239.8	18.8	-61.3	3.1
2026-01-09 08:50:56.696713	239.5	18.6	-61.9	1.2
2026-01-09 08:50:58.933225	239.2	18.3	-61.4	3.0
2026-01-09 08:51:01.166240	239.0	18.1	-61.5	2.1
2026-01-09 08:51:03.395246	238.7	17.9	-61.8	4.0
2026-01-09 08:51:05.630253	238.5	17.6	-61.6	3.6
2026-01-09 08:51:07.865262	238.2	17.4	-62.2	4.3
2026-01-09 08:51:10.109767	238.0	17.2	-61.9	5.7
2026-01-09 08:51:12.354777	237.7	16.9	-62.2	5.0
2026-01-09 08:51:14.598291	237.5	16.7	-62.0	2.9
2026-01-09 08:51:16.841805	237.3	16.5	-62.5	5.7
2026-01-09 08:51:19.079837	237.0	16.3	-62.6	3.8
2026-01-09 08:51:21.313845	236.8	16.0	-62.0	4.1
2026-01-09 08:51:23.548357	236.6	15.8	-62.3	5.8
2026-01-09 08:51:25.793367	236.4	15.6	-62.2	4.8
2026-01-09 08:51:28.035880	236.1	15.4	-62.0	0.0
2026-01-09 08:51:30.277897	235.9	15.1	-62.5	6.6
2026-01-09 08:51:32.521908	235.7	14.9	-62.6	3.4
2026-01-09 08:51:34.757924	235.5	14.7	-63.0	4.6
2026-01-09 08:51:36.991931	235.3	14.5	-63.2	4.2
2026-01-09 08:51:39.230940	235.1	14.3	-62.1	4.5
2026-01-09 08:51:41.465452	234.9	14.1	-62.3	2.7
2026-01-09 08:51:43.697466	234.7	13.9	-62.5	4.3
2026-01-09 08:51:45.936971	234.5	13.7	-62.5	2.7
2026-01-09 08:51:48.171986	234.3	13.5	-62.7	3.8
2026-01-09 08:51:50.405489	234.1	13.2	-62.7	4.7
2026-01-09 08:51:52.641000	233.9	13.0	-62.9	3.9
2026-01-09 08:51:54.876513	233.8	12.8	-63.4	5.5
2026-01-09 08:51:57.109520	233.6	12.6	-63.5	4.5
2026-01-09 08:51:59.343527	233.4	12.4	-62.0	4.0
2026-01-09 08:52:01.578534	233.2	12.2	-61.7	0.0
2026-01-09 08:52:03.811052	233.1	12.1	-61.8	0.0
2026-01-09 08:52:06.049068	232.9	11.9	-63.8	2.9
2026-01-09 08:52:08.282074	232.7	11.7	-64.2	4.7
2026-01-09 08:52:10.512584	232.6	11.5	-63.2	2.8
2026-01-09 08:52:12.745598	232.4	11.3	-62.9	4.2
2026-01-09 08:52:14.977108	232.2	11.1	-63.9	5.0
2026-01-09 08:52:17.209611	232.1	10.9	-63.6	3.7
2026-01-09 08:52:19.439617	231.9	10.7	-64.1	4.6
2026-01-09 08:52:21.672129	231.8	10.5	-63.6	4.6
2026-01-09 08:52:23.904136	231.6	10.3	-62.4	1.8
2026-01-09 08:52:26.138143	231.5	10.2	-62.2	0.2
2026-01-09 08:52:28.375648	231.3	10.0	-62.8	3.0
2026-01-09 08:52:30.606661	231.2	9.8	-62.6	0.0
2026-01-09 08:52:32.841669	231.0	9.6	-62.3	4.9
2026-01-09 08:52:35.083687	230.9	9.4	-62.9	5.7
2026-01-09 08:52:37.326209	230.7	9.3	-63.0	6.1
2026-01-09 08:52:39.570219	230.6	9.1	-63.0	0.5
2026-01-09 08:52:41.814229	230.5	8.9	-62.8	0.0
2026-01-09 08:52:44.058238	230.3	8.7	-62.0	3.2
2026-01-09 08:52:46.299761	230.2	8.6	-61.5	0.0
2026-01-09 08:52:48.544276	230.1	8.4	-62.3	0.0
2026-01-09 08:52:50.783293	229.9	8.2	-62.4	0.0
2026-01-09 08:52:53.017806	229.8	8.0	-63.2	1.1
2026-01-09 08:52:55.248812	229.7	7.9	-63.4	1.6
2026-01-09 08:52:57.476818	229.5	7.7	-63.3	2.7
2026-01-09 08:52:59.711330	229.4	7.5	-62.9	0.6
2026-01-09 08:53:01.940337	229.3	7.4	-62.1	1.2
2026-01-09 08:53:04.172856	229.2	7.2	-62.8	0.0
2026-01-09 08:53:06.402366	229.1	7.0	-62.5	0.0
2026-01-09 08:53:08.633380	228.9	6.9	-62.1	0.1
2026-01-09 08:53:10.866387	228.8	6.7	-62.0	0.0
2026-01-09 08:53:13.105396	228.7	6.5	-61.4	0.0
2026-01-09 08:53:15.338906	228.6	6.4	-62.3	0.0
2026-01-09 08:53:17.572913	228.5	6.2	-61.9	0.0
2026-01-09 08:53:19.806432	228.4	6.1	-62.3	0.0
2026-01-09 08:53:22.042944	228.2	5.9	-58.1	0.0
2026-01-09 08:53:24.273958	228.1	5.7	-64.7	0.0
2026-01-09 08:53:26.505468	228.0	5.6	-65.4	0.0
2026-01-09 08:53:28.737988	227.9	5.4	-67.3	0.0
2026-01-09 08:53:30.968002	227.8	5.3	-71.8	0.0
2026-01-09 08:53:33.200009	227.7	5.1	-72.4	0.0
#Closed at: 2026-01-09 08:41:17.278458