passes_logs/2026/01/10/R3.2S_Murmansk/R3.2S_Murmansk__20260110_010506_SUOMI_NPP_rec.log

#Pass ID: 20260110_010506_SUOMI NPP
#Satellite: SUOMI NPP
#Configuration: NPP
#almurnet v.1.7.20251203
#Start time: 2026-01-10 01:05:07

#Version: 2.2.20231116
#Station: R3.2S_Murmansk
#Location: 33.079688 lon 68.888172 lat
#TLE: 1 37849U 11061A   26008.83076692  .00000095  00000+0  66074-4 0  9997
#TLE: 2 37849  98.7806 310.9327 0002533  74.3004 285.8451 14.19523607735834

#Time	Az	El	Level	Level2	SNR	BER	BlckErr	Temp	State	Recorded	gain1	gain2
2026-01-10 01:05:07.78	25.84	2.09	-57.0	-73.0	3.8	1.49e+00	0	21	0	0	80	22466
2026-01-10 01:05:11.77	25.82	2.34	-57.0	-73.0	3.8	1.49e+00	0	21	104	0	79	23685
2026-01-10 01:05:15.77	25.80	2.60	-57.0	-73.0	3.8	1.49e+00	0	21	104	0	79	23685
2026-01-10 01:05:19.77	25.78	2.86	-57.0	-72.9	3.8	1.49e+00	0	21	104	0	79	23565
2026-01-10 01:05:23.76	25.76	3.13	-57.0	-73.0	3.8	1.49e+00	0	22	104	0	79	23663
2026-01-10 01:05:27.76	25.74	3.39	-57.0	-73.0	3.8	1.49e+00	0	22	104	0	79	23646
2026-01-10 01:05:31.76	25.72	3.66	-57.0	-72.7	3.8	1.49e+00	0	22	104	0	79	22959
2026-01-10 01:05:35.76	25.69	3.94	-56.8	-68.3	4.6	1.32e+00	0	22	0	0	79	13815
2026-01-10 01:05:39.76	25.67	4.21	-56.4	-64.9	6.6	1.61e-01	0	22	0	7340032	79	9304
2026-01-10 01:05:43.75	25.65	4.49	-56.0	-63.6	7.7	7.17e-02	0	22	0	15728640	78	8503
2026-01-10 01:05:47.73	25.62	4.77	-56.2	-64.1	7.2	9.96e-02	0	22	0	23068672	78	9044
2026-01-10 01:05:51.73	25.59	5.05	-56.4	-65.6	6.0	2.44e-01	0	22	0	30408704	78	10694
2026-01-10 01:05:55.71	25.57	5.34	-55.4	-60.8	10.2	5.45e-01	0	22	0	36700160	77	6529
2026-01-10 01:05:59.70	25.54	5.62	-54.6	-59.0	11.7	2.44e-05	0	22	0	42991616	75	5961
2026-01-10 01:06:03.69	25.51	5.92	-54.2	-58.2	12.3	3.00e-06	0	22	0	51380224	74	5744
2026-01-10 01:06:07.69	25.48	6.21	-54.0	-57.8	12.6	2.20e-06	0	22	0	58720256	74	5503
2026-01-10 01:06:11.70	25.45	6.51	-53.9	-57.7	12.7	7.00e-07	0	23	0	66060288	74	5425
2026-01-10 01:06:15.69	25.41	6.82	-53.8	-57.5	12.9	0.00e+00	0	23	0	73400320	74	5290
2026-01-10 01:06:19.69	25.38	7.12	-53.8	-57.4	13.0	7.00e-07	0	23	0	80740352	74	5243
2026-01-10 01:06:23.67	25.35	7.43	-53.6	-57.1	13.1	0.00e+00	0	23	0	88080384	73	5369
2026-01-10 01:06:27.66	25.31	7.74	-53.5	-57.0	13.2	0.00e+00	0	23	0	95420416	73	5280
2026-01-10 01:06:31.66	25.27	8.06	-53.5	-56.8	13.3	0.00e+00	0	23	0	102760448	73	5202
2026-01-10 01:06:35.65	25.24	8.38	-53.4	-56.7	13.4	0.00e+00	0	23	0	111149056	73	5146
2026-01-10 01:06:39.63	25.20	8.71	-53.4	-56.7	13.4	0.00e+00	0	23	0	118489088	73	5138
2026-01-10 01:06:43.63	25.16	9.04	-53.2	-56.4	13.7	0.00e+00	0	23	0	125829120	73	4928
2026-01-10 01:06:47.62	25.12	9.37	-53.2	-56.3	13.6	0.00e+00	0	23	0	133169152	72	5209
2026-01-10 01:06:51.60	25.07	9.71	-53.1	-56.0	13.7	0.00e+00	0	23	0	140509184	72	5017
2026-01-10 01:06:55.59	25.03	10.05	-53.0	-55.9	13.8	0.00e+00	0	23	0	147849216	72	4969
2026-01-10 01:06:59.56	24.98	10.40	-52.9	-55.8	13.9	0.00e+00	0	23	0	155189248	72	4874
2026-01-10 01:07:03.55	24.94	10.75	-52.9	-55.7	13.9	0.00e+00	0	23	0	163577856	72	4869
2026-01-10 01:07:07.51	24.89	11.11	-52.7	-55.5	14.0	0.00e+00	0	23	0	170917888	71	4985
2026-01-10 01:07:11.51	24.84	11.47	-52.6	-55.3	14.1	0.00e+00	0	23	0	178257920	71	4875
2026-01-10 01:07:15.50	24.78	11.84	-52.4	-54.9	14.3	0.00e+00	0	23	0	185597952	71	4690
2026-01-10 01:07:19.49	24.73	12.22	-52.4	-54.9	14.4	0.00e+00	0	23	0	192937984	71	4653
2026-01-10 01:07:23.50	24.67	12.60	-52.2	-54.6	14.3	0.00e+00	0	23	0	200278016	70	4783
2026-01-10 01:07:27.49	24.62	12.98	-52.1	-54.5	14.4	0.00e+00	0	23	0	207618048	70	4727
2026-01-10 01:07:31.49	24.56	13.38	-52.0	-54.4	14.5	0.00e+00	0	23	0	216006656	70	4688
2026-01-10 01:07:35.47	24.49	13.77	-52.0	-54.3	14.5	0.00e+00	0	23	0	223346688	70	4649
2026-01-10 01:07:39.48	24.43	14.18	-51.9	-54.3	14.6	0.00e+00	0	23	0	230686720	70	4605
2026-01-10 01:07:43.47	24.36	14.59	-51.9	-54.2	14.6	0.00e+00	0	23	0	238026752	70	4581
2026-01-10 01:07:47.46	24.29	15.01	-51.5	-53.7	14.7	0.00e+00	0	23	0	245366784	69	4572
2026-01-10 01:07:51.44	24.22	15.44	-51.3	-53.5	14.9	0.00e+00	0	23	0	252706816	69	4445
2026-01-10 01:07:55.42	24.15	15.87	-51.1	-53.3	14.8	0.00e+00	0	23	0	260046848	68	4612
2026-01-10 01:07:59.40	24.07	16.31	-51.0	-53.1	14.9	0.00e+00	0	23	0	267386880	68	4539
2026-01-10 01:08:03.40	23.99	16.76	-51.0	-53.0	15.0	0.00e+00	0	23	0	275775488	68	4469
2026-01-10 01:08:07.40	23.91	17.22	-51.0	-53.1	14.9	0.00e+00	0	23	0	283115520	68	4508
2026-01-10 01:08:11.40	23.83	17.69	-51.0	-53.0	15.0	0.00e+00	0	23	0	290455552	68	4455
2026-01-10 01:08:15.39	23.74	18.17	-51.0	-52.9	15.0	0.00e+00	0	23	0	297795584	68	4433
2026-01-10 01:08:19.39	23.65	18.66	-50.8	-52.7	15.2	0.00e+00	0	23	0	305135616	68	4294
2026-01-10 01:08:23.40	23.55	19.15	-50.9	-52.9	15.1	0.00e+00	0	23	0	312475648	68	4404
2026-01-10 01:08:27.39	23.45	19.66	-50.8	-52.8	14.9	0.00e+00	0	23	0	319815680	67	4616
2026-01-10 01:08:31.37	23.35	20.17	-50.9	-53.0	14.8	0.00e+00	0	23	0	328204288	67	4709
2026-01-10 01:08:35.36	23.24	20.70	-51.1	-53.3	14.6	0.00e+00	0	23	0	335544320	67	4889
2026-01-10 01:08:39.36	23.13	21.24	-51.0	-53.2	14.7	0.00e+00	0	23	0	342884352	67	4820
2026-01-10 01:08:43.35	23.01	21.79	-51.0	-53.1	14.8	0.00e+00	0	23	0	350224384	67	4767
2026-01-10 01:08:47.36	22.89	22.35	-51.1	-53.2	14.7	0.00e+00	0	23	0	357564416	67	4835
2026-01-10 01:08:51.33	22.77	22.92	-50.8	-52.8	14.9	0.00e+00	0	23	0	364904448	67	4648
2026-01-10 01:08:55.33	22.64	23.51	-50.6	-52.6	15.0	0.00e+00	0	23	0	372244480	67	4501
2026-01-10 01:08:59.32	22.50	24.11	-50.4	-52.2	15.2	0.00e+00	0	23	0	380633088	67	4338
2026-01-10 01:09:03.29	22.36	24.72	-50.8	-52.7	14.9	0.00e+00	0	23	0	387973120	67	4598
2026-01-10 01:09:07.28	22.21	25.35	-50.8	-52.7	14.9	0.00e+00	0	24	0	395313152	67	4559
2026-01-10 01:09:11.27	22.05	25.99	-50.7	-52.5	15.0	0.00e+00	0	23	0	402653184	67	4472
2026-01-10 01:09:15.27	21.89	26.65	-50.8	-52.7	15.0	0.00e+00	0	23	0	409993216	67	4546
2026-01-10 01:09:19.26	21.72	27.33	-51.6	-53.6	14.7	0.00e+00	0	23	0	417333248	68	4779
2026-01-10 01:09:23.27	21.54	28.02	-51.8	-53.8	14.7	0.00e+00	0	23	0	424673280	69	4642
2026-01-10 01:09:27.27	21.35	28.73	-51.9	-53.9	14.7	0.00e+00	0	23	0	432013312	69	4701
2026-01-10 01:09:31.25	21.15	29.46	-52.6	-55.0	14.3	0.00e+00	0	23	0	440401920	70	5003
2026-01-10 01:09:35.24	20.94	30.21	-53.1	-55.7	14.0	0.00e+00	0	23	0	447741952	71	5120
2026-01-10 01:09:39.24	20.73	30.97	-52.9	-55.3	14.2	0.00e+00	0	23	0	455081984	71	4913
2026-01-10 01:09:43.25	20.50	31.76	-53.4	-56.1	13.9	0.00e+00	0	23	0	462422016	72	5069
2026-01-10 01:09:47.25	20.25	32.57	-53.7	-56.7	13.6	0.00e+00	0	23	0	469762048	73	5103
2026-01-10 01:09:51.25	20.00	33.40	-53.8	-56.6	13.7	0.00e+00	0	23	0	477102080	73	5082
2026-01-10 01:09:55.26	19.73	34.26	-54.4	-57.7	12.9	0.00e+00	0	23	0	485490688	73	5775
2026-01-10 01:09:59.25	19.44	35.13	-52.9	-55.4	14.4	0.00e+00	0	23	0	492830720	72	4658
2026-01-10 01:10:03.24	19.14	36.03	-51.8	-53.8	14.9	0.00e+00	0	23	0	500170752	70	4381
2026-01-10 01:10:07.22	18.82	36.95	-51.8	-53.9	14.7	0.00e+00	0	23	0	507510784	69	4675
2026-01-10 01:10:11.22	18.48	37.90	-51.2	-53.1	15.0	0.00e+00	0	23	0	514850816	68	4538
2026-01-10 01:10:15.21	18.12	38.88	-51.8	-54.1	14.5	0.00e+00	0	23	0	522190848	68	5079
2026-01-10 01:10:19.22	17.73	39.89	-53.0	-55.9	14.0	0.00e+00	0	23	0	529530880	71	5251
2026-01-10 01:10:23.22	17.32	40.92	-53.5	-56.6	13.7	0.00e+00	0	23	0	537919488	72	5351
2026-01-10 01:10:27.23	16.88	41.98	-53.2	-56.3	13.7	0.00e+00	0	23	0	545259520	71	5506
2026-01-10 01:10:31.22	16.41	43.07	-54.1	-58.3	12.5	0.00e+00	0	23	0	552599552	73	6201
2026-01-10 01:10:35.21	15.90	44.19	-53.8	-57.7	12.9	0.00e+00	0	23	0	559939584	73	5757
2026-01-10 01:10:39.22	15.35	45.34	-52.3	-55.0	14.5	0.00e+00	0	23	0	567279616	71	4711
2026-01-10 01:10:43.20	14.77	46.52	-52.2	-54.5	14.5	0.00e+00	0	23	0	574619648	69	5004
2026-01-10 01:10:47.19	14.14	47.73	-52.9	-55.6	14.2	0.00e+00	0	23	0	581959680	72	4789
2026-01-10 01:10:51.19	13.45	48.97	-52.5	-55.0	14.5	0.00e+00	0	23	0	590348288	71	4722
2026-01-10 01:10:55.18	12.70	50.24	-50.8	-52.8	15.1	0.00e+00	0	23	0	597688320	68	4381
2026-01-10 01:10:59.16	11.89	51.54	-50.5	-52.5	14.9	0.00e+00	0	23	0	605028352	66	4734
2026-01-10 01:11:03.15	10.99	52.87	-51.8	-54.3	14.4	0.00e+00	0	23	0	612368384	68	5175
2026-01-10 01:11:07.15	10.01	54.24	-50.7	-52.6	15.3	0.00e+00	0	23	0	619708416	68	4283
2026-01-10 01:11:11.14	8.93	55.62	-50.7	-52.9	14.9	0.00e+00	0	23	0	627048448	67	4670
2026-01-10 01:11:15.14	7.74	57.04	-51.0	-53.1	14.9	0.00e+00	0	23	0	634388480	67	4784
2026-01-10 01:11:19.15	6.40	58.48	-52.1	-54.4	14.5	0.00e+00	0	23	0	642777088	69	4975
2026-01-10 01:11:23.15	4.92	59.94	-51.7	-53.9	14.8	0.00e+00	0	23	0	650117120	69	4678
2026-01-10 01:11:27.16	3.24	61.41	-50.7	-52.5	15.1	0.00e+00	0	23	0	657457152	67	4484
2026-01-10 01:11:31.17	1.36	62.90	-50.4	-52.2	15.3	0.00e+00	0	23	0	664797184	67	4319
2026-01-10 01:11:35.18	359.22	64.38	-50.7	-52.5	15.1	0.00e+00	0	23	0	672137216	67	4482
2026-01-10 01:11:39.17	356.80	65.86	-51.1	-53.1	14.9	0.00e+00	0	23	0	679477248	67	4784
2026-01-10 01:11:43.18	354.02	67.32	-51.7	-53.6	15.0	0.00e+00	0	23	0	687865856	69	4522
2026-01-10 01:11:47.17	350.83	68.74	-53.3	-55.9	14.0	0.00e+00	0	23	0	695205888	71	5242
2026-01-10 01:11:51.18	347.13	70.12	-54.9	-58.5	13.1	0.00e+00	0	23	0	702545920	75	5634
2026-01-10 01:11:55.19	342.86	71.43	-52.8	-55.2	14.5	0.00e+00	0	23	0	709885952	72	4573
2026-01-10 01:11:59.18	337.95	72.63	-52.3	-54.3	14.8	0.00e+00	0	23	0	717225984	71	4391
2026-01-10 01:12:03.16	332.32	73.70	-51.4	-53.2	15.0	0.00e+00	0	23	0	724566016	68	4558
2026-01-10 01:12:07.15	325.91	74.61	-52.3	-54.4	14.6	0.00e+00	0	23	0	731906048	69	4973
2026-01-10 01:12:11.16	318.72	75.32	-53.4	-55.8	14.3	0.00e+00	0	23	0	740294656	72	4889
2026-01-10 01:12:15.15	310.94	75.79	-55.2	-58.9	12.7	0.00e+00	0	23	0	747634688	75	5860
2026-01-10 01:12:19.15	302.76	75.99	-51.8	-53.7	15.2	0.00e+00	0	23	0	754974720	70	4321
2026-01-10 01:12:23.16	294.48	75.91	-53.9	-56.7	13.9	0.00e+00	0	23	0	762314752	73	5151
2026-01-10 01:12:27.15	286.51	75.55	-52.6	-54.8	14.6	0.00e+00	0	23	0	769654784	70	4874
2026-01-10 01:12:31.14	279.07	74.94	-54.5	-57.4	13.7	0.00e+00	0	23	0	776994816	74	5271
2026-01-10 01:12:35.12	272.36	74.11	-53.4	-55.7	14.2	0.00e+00	0	23	0	784334848	71	5115
2026-01-10 01:12:39.12	266.38	73.09	-54.2	-56.8	14.2	0.00e+00	0	23	0	792723456	75	4613
2026-01-10 01:12:43.13	261.14	71.93	-55.0	-58.5	13.2	0.00e+00	0	23	0	800063488	75	5608
2026-01-10 01:12:47.12	256.62	70.67	-54.1	-56.9	13.8	0.00e+00	0	23	0	807403520	74	4947
2026-01-10 01:12:51.11	252.71	69.32	-53.4	-55.8	14.2	0.00e+00	0	23	0	814743552	72	4886
2026-01-10 01:12:55.10	249.33	67.91	-52.8	-55.3	14.6	0.00e+00	0	23	0	822083584	72	4613
2026-01-10 01:12:59.10	246.38	66.47	-52.7	-55.2	14.3	0.00e+00	0	23	0	829423616	70	5108
2026-01-10 01:13:03.09	243.82	65.00	-51.2	-53.0	15.2	0.00e+00	0	23	0	836763648	68	4464
2026-01-10 01:13:07.08	241.57	63.52	-50.0	-51.7	15.3	0.00e+00	0	23	0	845152256	66	4312
2026-01-10 01:13:11.05	239.60	62.05	-51.7	-53.7	14.9	0.00e+00	0	23	0	852492288	69	4580
2026-01-10 01:13:15.04	237.85	60.57	-51.1	-53.0	14.9	0.00e+00	0	23	0	859832320	67	4721
2026-01-10 01:13:19.05	236.28	59.10	-52.6	-54.9	14.4	0.00e+00	0	23	0	867172352	70	4951
2026-01-10 01:13:23.03	234.89	57.66	-51.9	-54.0	14.9	0.00e+00	0	23	0	874512384	70	4473
2026-01-10 01:13:27.04	233.63	56.22	-52.2	-54.6	14.5	0.00e+00	0	23	0	881852416	70	4795
2026-01-10 01:13:31.03	232.50	54.82	-52.5	-55.1	14.3	0.00e+00	0	23	0	889192448	70	5071
2026-01-10 01:13:35.03	231.48	53.44	-50.5	-52.3	15.0	0.00e+00	0	23	0	897581056	66	4629
2026-01-10 01:13:39.02	230.55	52.10	-51.1	-53.3	14.7	0.00e+00	0	23	0	904921088	67	4877
2026-01-10 01:13:43.02	229.70	50.78	-53.1	-55.9	14.0	0.00e+00	0	23	0	912261120	71	5252
2026-01-10 01:13:47.02	228.92	49.49	-53.4	-56.6	13.6	0.00e+00	0	23	0	919601152	72	5365
2026-01-10 01:13:51.03	228.20	48.22	-53.5	-56.7	13.6	0.00e+00	0	23	0	926941184	72	5450
2026-01-10 01:13:55.03	227.54	46.99	-52.9	-55.4	14.4	0.00e+00	0	23	0	934281216	72	4701
2026-01-10 01:13:59.02	226.93	45.80	-53.0	-55.7	14.2	0.00e+00	0	23	0	941621248	71	5115
2026-01-10 01:14:03.02	226.37	44.63	-52.5	-54.8	14.6	0.00e+00	0	23	0	950009856	71	4636
2026-01-10 01:14:06.99	225.85	43.50	-53.9	-57.2	13.4	0.00e+00	0	23	0	957349888	73	5439
2026-01-10 01:14:10.98	225.36	42.40	-54.2	-57.4	13.3	0.00e+00	0	23	0	964689920	73	5554
2026-01-10 01:14:14.97	224.91	41.33	-52.8	-55.2	14.4	0.00e+00	0	23	0	972029952	71	4857
2026-01-10 01:14:18.97	224.48	40.28	-55.2	-59.1	12.5	2.20e-06	0	23	0	979369984	76	5661
2026-01-10 01:14:22.95	224.09	39.26	-52.3	-54.6	14.7	0.00e+00	0	24	0	986710016	71	4501
2026-01-10 01:14:26.95	223.71	38.27	-51.6	-53.7	14.9	0.00e+00	0	23	0	994050048	69	4577
2026-01-10 01:14:30.94	223.36	37.31	-53.5	-56.5	13.7	0.00e+00	0	24	0	1002438656	72	5320
2026-01-10 01:14:34.93	223.03	36.37	-53.5	-56.6	13.7	0.00e+00	0	23	0	1009778688	73	5043
2026-01-10 01:14:38.92	222.72	35.46	-53.7	-56.8	13.4	0.00e+00	0	23	0	1017118720	72	5495
2026-01-10 01:14:42.92	222.43	34.57	-54.2	-57.7	13.2	0.00e+00	0	23	0	1024458752	74	5464
2026-01-10 01:14:46.93	222.15	33.71	-52.9	-55.4	14.4	0.00e+00	0	23	0	1031798784	72	4701
2026-01-10 01:14:50.93	221.88	32.86	-52.8	-55.3	14.1	0.00e+00	0	23	0	1039138816	70	5199
2026-01-10 01:14:54.94	221.63	32.04	-53.6	-56.3	13.8	0.00e+00	0	23	0	1046478848	72	5206
2026-01-10 01:14:58.94	221.40	31.24	-55.4	-59.6	12.1	1.50e-06	0	23	0	1054867456	76	5999
2026-01-10 01:15:02.92	221.17	30.47	-54.1	-57.1	13.6	0.00e+00	0	24	0	1062207488	74	5088
2026-01-10 01:15:06.92	220.96	29.71	-53.2	-55.6	14.2	0.00e+00	0	23	0	1069547520	72	4807
2026-01-10 01:15:10.91	220.76	28.97	-53.0	-55.3	14.4	0.00e+00	0	23	0	1076887552	72	4651
2026-01-10 01:15:14.91	220.56	28.25	-52.0	-54.0	14.8	0.00e+00	0	23	0	1084227584	70	4449
2026-01-10 01:15:18.89	220.38	27.55	-51.9	-53.9	14.7	0.00e+00	0	23	0	1091567616	69	4677
2026-01-10 01:15:22.90	220.20	26.86	-53.8	-56.7	13.6	0.00e+00	0	24	0	1098907648	72	5415
2026-01-10 01:15:26.89	220.04	26.20	-53.9	-57.0	13.7	0.00e+00	0	23	0	1107296256	74	4997
2026-01-10 01:15:30.89	219.87	25.54	-52.1	-54.2	14.8	0.00e+00	0	23	0	1114636288	70	4590
2026-01-10 01:15:34.87	219.72	24.91	-52.2	-54.4	14.6	0.00e+00	0	24	0	1121976320	70	4654
2026-01-10 01:15:38.85	219.57	24.29	-52.2	-54.5	14.6	0.00e+00	0	24	0	1129316352	70	4707
2026-01-10 01:15:42.85	219.43	23.68	-52.1	-54.3	14.7	0.00e+00	0	23	0	1136656384	70	4600
2026-01-10 01:15:46.84	219.30	23.09	-51.8	-53.9	14.9	0.00e+00	0	23	0	1143996416	70	4398
2026-01-10 01:15:50.83	219.17	22.51	-52.1	-54.3	14.6	0.00e+00	0	24	0	1151336448	70	4619
2026-01-10 01:15:54.82	219.04	21.94	-51.9	-54.2	14.7	0.00e+00	0	23	0	1158676480	70	4551
2026-01-10 01:15:58.81	218.92	21.38	-52.5	-55.0	14.3	0.00e+00	0	24	0	1167065088	70	5002
2026-01-10 01:16:02.81	218.81	20.84	-53.0	-55.8	13.9	0.00e+00	0	24	0	1174405120	71	5195
2026-01-10 01:16:06.79	218.70	20.31	-53.2	-56.2	13.6	0.00e+00	0	24	0	1181745152	71	5414
2026-01-10 01:16:10.78	218.59	19.79	-53.2	-56.0	13.7	0.00e+00	0	23	0	1189085184	71	5338
2026-01-10 01:16:14.76	218.49	19.28	-53.0	-55.8	13.9	0.00e+00	0	24	0	1196425216	71	5164
2026-01-10 01:16:18.74	218.39	18.78	-52.8	-55.4	14.1	0.00e+00	0	23	0	1203765248	71	4967
2026-01-10 01:16:22.74	218.30	18.29	-52.7	-55.2	14.2	0.00e+00	0	24	0	1211105280	71	4842
2026-01-10 01:16:26.75	218.20	17.80	-52.5	-55.0	14.3	0.00e+00	0	24	0	1219493888	71	4729
2026-01-10 01:16:30.73	218.12	17.33	-52.5	-54.9	14.4	0.00e+00	0	24	0	1226833920	71	4697
2026-01-10 01:16:34.74	218.03	16.87	-52.8	-55.4	14.1	0.00e+00	0	24	0	1234173952	71	4928
2026-01-10 01:16:38.74	217.95	16.41	-53.3	-55.7	14.0	0.00e+00	0	23	0	1241513984	71	5115
2026-01-10 01:16:42.73	217.87	15.96	-53.6	-56.1	13.8	0.00e+00	0	24	0	1248854016	72	5094
2026-01-10 01:16:46.72	217.79	15.53	-53.5	-56.0	13.9	0.00e+00	0	24	0	1256194048	72	5005
2026-01-10 01:16:50.72	217.72	15.09	-53.8	-56.4	13.6	0.00e+00	0	24	0	1263534080	72	5235
2026-01-10 01:16:54.73	217.64	14.67	-53.3	-55.7	14.1	0.00e+00	0	24	0	1271922688	72	4818
2026-01-10 01:16:58.73	217.58	14.25	-53.2	-55.5	14.2	0.00e+00	0	23	0	1279262720	72	4724
2026-01-10 01:17:02.72	217.51	13.84	-53.0	-55.3	14.3	0.00e+00	0	24	0	1286602752	72	4626
2026-01-10 01:17:06.72	217.44	13.44	-53.0	-55.3	14.3	0.00e+00	0	24	0	1293942784	72	4639
2026-01-10 01:17:10.69	217.38	13.05	-53.1	-55.5	14.2	0.00e+00	0	23	0	1301282816	72	4718
2026-01-10 01:17:14.69	217.32	12.66	-53.0	-55.3	14.3	0.00e+00	0	24	0	1308622848	72	4606
2026-01-10 01:17:18.65	217.26	12.28	-53.2	-55.6	14.0	0.00e+00	0	23	0	1315962880	72	4813
2026-01-10 01:17:22.65	217.20	11.90	-53.4	-55.9	13.9	0.00e+00	0	24	0	1324351488	72	4964
2026-01-10 01:17:26.64	217.15	11.53	-53.7	-56.4	13.6	0.00e+00	0	24	0	1331691520	72	5254
2026-01-10 01:17:30.63	217.10	11.16	-53.8	-56.5	13.5	0.00e+00	0	24	0	1339031552	72	5333
2026-01-10 01:17:34.63	217.04	10.80	-53.9	-56.7	13.5	0.00e+00	0	24	0	1346371584	73	5124
2026-01-10 01:17:38.61	216.99	10.44	-54.0	-56.9	13.3	0.00e+00	0	24	0	1353711616	73	5258
2026-01-10 01:17:42.62	216.94	10.09	-53.9	-56.7	13.5	0.00e+00	0	24	0	1361051648	73	5144
2026-01-10 01:17:46.61	216.90	9.74	-54.0	-57.0	13.3	0.00e+00	0	24	0	1368391680	73	5289
2026-01-10 01:17:50.60	216.85	9.40	-54.0	-57.0	13.2	0.00e+00	0	24	0	1376780288	73	5292
2026-01-10 01:17:54.61	216.81	9.06	-54.0	-57.0	13.3	0.00e+00	0	23	0	1384120320	73	5287
2026-01-10 01:17:58.60	216.76	8.73	-54.0	-56.9	13.3	0.00e+00	0	24	0	1391460352	73	5278
2026-01-10 01:18:02.59	216.72	8.41	-53.9	-56.9	13.3	0.00e+00	0	24	0	1398800384	73	5260
2026-01-10 01:18:06.58	216.68	8.08	-54.0	-57.0	13.2	0.00e+00	0	24	0	1406140416	73	5300
2026-01-10 01:18:10.57	216.64	7.76	-53.9	-56.8	13.3	0.00e+00	0	23	0	1413480448	73	5198
2026-01-10 01:18:14.56	216.60	7.45	-54.0	-57.2	13.0	0.00e+00	0	24	0	1420820480	73	5414
2026-01-10 01:18:18.55	216.56	7.14	-54.1	-57.3	12.9	0.00e+00	0	24	0	1429209088	73	5525
2026-01-10 01:18:22.53	216.53	6.83	-54.0	-57.0	13.1	0.00e+00	0	24	0	1436549120	73	5332
2026-01-10 01:18:26.53	216.49	6.52	-53.8	-56.8	13.2	0.00e+00	0	24	0	1443889152	73	5211
2026-01-10 01:18:30.54	216.46	6.22	-53.8	-56.9	13.2	0.00e+00	0	24	0	1451229184	73	5242
2026-01-10 01:18:34.53	216.42	5.92	-53.7	-56.7	13.3	0.00e+00	0	23	0	1458569216	73	5137
2026-01-10 01:18:38.51	216.39	5.63	-53.9	-57.1	13.0	0.00e+00	0	23	0	1465909248	73	5341
2026-01-10 01:18:42.51	216.36	5.34	-53.7	-56.8	13.2	0.00e+00	0	24	0	1473249280	73	5180
2026-01-10 01:18:46.50	216.33	5.05	-53.9	-57.0	13.0	0.00e+00	0	24	0	1480589312	73	5313
2026-01-10 01:18:50.51	216.30	4.77	-58.6	-74.7	3.8	1.49e+00	0	24	104	1483735040	82	24168
2026-01-10 01:18:54.50	216.27	4.48	-59.0	-75.0	3.8	1.49e+00	0	23	104	1483735040	83	23822
2026-01-10 01:18:58.51	216.24	4.20	-59.2	-75.2	3.8	1.49e+00	0	24	104	1483735040	83	24381
2026-01-10 01:19:02.51	216.22	3.93	-59.2	-75.3	3.8	1.49e+00	0	24	104	1483735040	83	24586
2026-01-10 01:19:06.50	216.19	3.66	-59.4	-75.4	3.8	1.49e+00	0	24	104	1483735040	83	24815
2026-01-10 01:19:10.51	216.16	3.38	-59.4	-75.5	3.8	1.49e+00	0	24	104	1483735040	83	24990
2026-01-10 01:19:14.49	216.14	3.12	-59.3	-75.4	3.8	1.49e+00	0	24	104	1483735040	83	24784
2026-01-10 01:19:18.48	216.11	2.85	-59.3	-75.4	3.8	1.49e+00	0	24	104	1483735040	83	24762
2026-01-10 01:19:22.48	216.09	2.59	-59.3	-75.3	3.8	1.49e+00	0	24	104	1483735040	83	24687
2026-01-10 01:19:26.47	216.07	2.33	-59.3	-75.3	3.8	1.49e+00	0	24	104	1483735040	83	24606
2026-01-10 01:19:30.48	216.04	2.07	-59.2	-75.3	3.8	1.49e+00	0	24	104	1483735040	83	24601

#Closed at: 2026-01-10 01:19:34
#Recorded file [1483 MB]: D:/lorett/data/31004_260110_040507.dat