passes_logs/2026/01/10/R3.2S_Murmansk/R3.2S_Murmansk__20260110_012550_NOAA_20_JPSS-1_rec.log

#Pass ID: 20260110_012550_NOAA 20 (JPSS-1)
#Satellite: NOAA 20 (JPSS-1)
#Configuration: NOAA 20
#almurnet v.1.7.20251203
#Start time: 2026-01-10 01:25:49

#Version: 2.2.20231116
#Station: R3.2S_Murmansk
#Location: 33.079688 lon 68.888172 lat
#TLE: 1 43013U 17073A   26009.26828276  .00000112  00000+0  74203-4 0  9990
#TLE: 2 43013  98.7631 310.2683 0001700  47.4387 312.6933 14.19534764421920

#Time	Az	El	Level	Level2	SNR	BER	BlckErr	Temp	State	Recorded	gain1	gain2
2026-01-10 01:25:49.98	27.71	1.99	-56.7	-72.8	3.8	1.49e+00	0	21	0	0	80	21921
2026-01-10 01:25:53.97	27.65	2.25	-56.8	-72.7	3.8	1.49e+00	0	21	104	0	78	24357
2026-01-10 01:25:57.97	27.59	2.50	-56.8	-72.7	3.8	1.49e+00	0	22	104	0	78	24382
2026-01-10 01:26:01.97	27.52	2.76	-56.8	-72.7	3.8	1.49e+00	0	22	104	0	78	24267
2026-01-10 01:26:05.97	27.46	3.03	-56.8	-72.3	3.8	1.49e+00	0	22	104	0	78	23294
2026-01-10 01:26:09.97	27.39	3.29	-56.7	-71.0	3.8	1.49e+00	0	22	104	0	78	20019
2026-01-10 01:26:13.97	27.32	3.56	-56.8	-72.4	3.8	1.49e+00	0	22	104	0	78	23360
2026-01-10 01:26:17.97	27.25	3.83	-56.7	-71.5	3.8	1.49e+00	0	22	104	0	78	21109
2026-01-10 01:26:21.97	27.18	4.10	-56.4	-66.5	5.3	7.34e-01	0	22	0	3145728	78	11903
2026-01-10 01:26:25.96	27.11	4.37	-55.9	-63.0	8.0	5.44e-02	0	22	0	10485760	78	7965
2026-01-10 01:26:29.95	27.03	4.65	-55.8	-62.4	8.5	2.75e-02	0	22	0	17825792	78	7453
2026-01-10 01:26:33.94	26.96	4.93	-56.0	-63.6	7.6	6.17e-02	0	22	0	25165824	78	8472
2026-01-10 01:26:37.93	26.88	5.21	-56.6	-67.7	4.8	1.18e-01	0	22	0	32505856	78	13640
2026-01-10 01:26:41.92	26.80	5.50	-53.8	-56.9	13.3	0.00e+00	0	22	0	39845888	74	4946
2026-01-10 01:26:45.93	26.72	5.78	-53.0	-55.6	13.9	0.00e+00	0	22	0	48234496	72	4814
2026-01-10 01:26:49.93	26.63	6.08	-52.8	-55.3	14.2	0.00e+00	0	22	0	55574528	72	4614
2026-01-10 01:26:53.91	26.55	6.37	-52.9	-55.4	14.1	0.00e+00	0	22	0	62914560	72	4674
2026-01-10 01:26:57.91	26.46	6.67	-52.6	-55.0	14.3	0.00e+00	0	23	0	70254592	71	4713
2026-01-10 01:27:01.89	26.37	6.97	-52.5	-54.8	14.4	0.00e+00	0	23	0	77594624	71	4617
2026-01-10 01:27:05.90	26.27	7.28	-52.4	-54.7	14.5	0.00e+00	0	23	0	84934656	71	4552
2026-01-10 01:27:09.90	26.18	7.59	-52.3	-54.5	14.6	0.00e+00	0	23	0	92274688	71	4462
2026-01-10 01:27:13.90	26.08	7.90	-52.3	-54.4	14.5	0.00e+00	0	23	0	100663296	70	4704
2026-01-10 01:27:17.89	25.98	8.22	-52.2	-54.3	14.6	0.00e+00	0	23	0	108003328	70	4635
2026-01-10 01:27:21.89	25.88	8.54	-52.0	-54.1	14.7	0.00e+00	0	23	0	115343360	70	4499
2026-01-10 01:27:25.88	25.77	8.86	-51.9	-54.0	14.8	0.00e+00	0	23	0	122683392	70	4453
2026-01-10 01:27:29.87	25.66	9.19	-52.0	-54.0	14.8	0.00e+00	0	23	0	130023424	70	4484
2026-01-10 01:27:33.86	25.55	9.52	-52.0	-54.0	14.8	0.00e+00	0	23	0	137363456	70	4459
2026-01-10 01:27:37.84	25.44	9.86	-51.7	-53.7	15.0	0.00e+00	0	23	0	144703488	70	4302
2026-01-10 01:27:41.85	25.32	10.20	-51.7	-53.6	15.0	0.00e+00	0	23	0	153092096	70	4286
2026-01-10 01:27:45.85	25.20	10.55	-51.6	-53.5	14.9	0.00e+00	0	23	0	160432128	69	4472
2026-01-10 01:27:49.87	25.08	10.90	-51.4	-53.3	15.1	0.00e+00	0	23	0	167772160	69	4350
2026-01-10 01:27:53.87	24.95	11.26	-51.4	-53.3	15.1	0.00e+00	0	23	0	175112192	69	4342
2026-01-10 01:27:57.85	24.82	11.62	-51.3	-53.1	15.2	0.00e+00	0	23	0	182452224	69	4247
2026-01-10 01:28:01.85	24.69	11.98	-51.2	-53.0	15.2	0.00e+00	0	23	0	189792256	69	4233
2026-01-10 01:28:05.84	24.55	12.35	-51.0	-52.8	15.2	0.00e+00	0	23	0	198180864	68	4342
2026-01-10 01:28:09.85	24.41	12.73	-51.1	-52.9	15.1	0.00e+00	0	23	0	205520896	68	4413
2026-01-10 01:28:13.85	24.26	13.12	-50.9	-52.6	15.3	0.00e+00	0	23	0	212860928	68	4253
2026-01-10 01:28:17.84	24.11	13.50	-50.9	-52.6	15.3	0.00e+00	0	23	0	220200960	68	4243
2026-01-10 01:28:21.84	23.96	13.90	-50.8	-52.5	15.3	0.00e+00	0	23	0	227540992	68	4233
2026-01-10 01:28:25.82	23.80	14.30	-50.8	-52.5	15.3	0.00e+00	0	23	0	234881024	68	4215
2026-01-10 01:28:29.81	23.63	14.71	-50.8	-52.4	15.4	0.00e+00	0	23	0	242221056	68	4168
2026-01-10 01:28:33.78	23.46	15.12	-50.9	-52.6	15.3	0.00e+00	0	23	0	249561088	68	4249
2026-01-10 01:28:37.76	23.29	15.54	-50.7	-52.4	15.4	0.00e+00	0	23	0	257949696	68	4160
2026-01-10 01:28:41.78	23.11	15.97	-50.7	-52.4	15.4	0.00e+00	0	23	0	265289728	68	4153
2026-01-10 01:28:45.77	22.92	16.40	-50.6	-52.2	15.3	0.00e+00	0	23	0	272629760	67	4321
2026-01-10 01:28:49.78	22.73	16.85	-50.5	-52.1	15.3	0.00e+00	0	23	0	279969792	67	4267
2026-01-10 01:28:53.76	22.53	17.30	-50.3	-51.9	15.5	0.00e+00	0	23	0	287309824	67	4162
2026-01-10 01:28:57.74	22.33	17.75	-50.4	-52.0	15.4	0.00e+00	0	23	0	294649856	67	4222
2026-01-10 01:29:01.74	22.12	18.22	-50.4	-52.0	15.4	0.00e+00	0	23	0	301989888	67	4231
2026-01-10 01:29:05.72	21.90	18.70	-50.4	-52.0	15.4	0.00e+00	0	23	0	310378496	67	4195
2026-01-10 01:29:09.73	21.67	19.18	-50.4	-52.0	15.4	0.00e+00	0	23	0	317718528	67	4194
2026-01-10 01:29:13.72	21.44	19.68	-50.4	-52.0	15.4	0.00e+00	0	23	0	325058560	67	4224
2026-01-10 01:29:17.72	21.20	20.18	-50.4	-52.0	15.4	0.00e+00	0	23	0	332398592	67	4218
2026-01-10 01:29:21.72	20.95	20.69	-50.3	-51.9	15.4	0.00e+00	0	23	0	339738624	67	4175
2026-01-10 01:29:25.71	20.69	21.22	-50.2	-51.8	15.5	0.00e+00	0	23	0	347078656	67	4109
2026-01-10 01:29:29.68	20.42	21.75	-50.2	-51.7	15.5	0.00e+00	0	23	0	354418688	67	4094
2026-01-10 01:29:33.67	20.14	22.29	-50.1	-51.6	15.4	0.00e+00	0	23	0	362807296	66	4274
2026-01-10 01:29:37.66	19.85	22.84	-50.2	-51.8	15.3	0.00e+00	0	23	0	370147328	66	4354
2026-01-10 01:29:41.65	19.55	23.41	-50.3	-51.9	15.3	0.00e+00	0	23	0	377487360	66	4402
2026-01-10 01:29:45.64	19.24	23.99	-50.6	-52.3	15.1	0.00e+00	0	23	0	384827392	66	4604
2026-01-10 01:29:49.64	18.91	24.58	-50.9	-52.6	15.0	0.00e+00	0	23	0	392167424	66	4770
2026-01-10 01:29:53.63	18.57	25.18	-51.1	-52.8	15.0	0.00e+00	0	23	0	399507456	67	4638
2026-01-10 01:29:57.62	18.22	25.80	-51.3	-53.1	14.8	0.00e+00	0	23	0	406847488	67	4806
2026-01-10 01:30:01.62	17.85	26.43	-51.9	-53.8	14.7	0.00e+00	0	23	0	414187520	68	4893
2026-01-10 01:30:05.61	17.47	27.07	-52.3	-54.3	14.6	0.00e+00	0	23	0	422576128	69	4919
2026-01-10 01:30:09.61	17.07	27.72	-53.0	-55.2	14.4	0.00e+00	0	23	0	429916160	71	4829
2026-01-10 01:30:13.60	16.66	28.39	-53.4	-55.7	14.2	0.00e+00	0	23	0	437256192	71	5124
2026-01-10 01:30:17.60	16.22	29.08	-53.6	-56.0	14.1	0.00e+00	0	23	0	444596224	72	4986
2026-01-10 01:30:21.61	15.76	29.78	-54.0	-56.5	13.9	0.00e+00	0	23	0	451936256	73	5034
2026-01-10 01:30:25.59	15.29	30.50	-53.9	-56.4	14.0	0.00e+00	0	23	0	459276288	73	4969
2026-01-10 01:30:29.59	14.79	31.23	-53.8	-56.3	14.1	0.00e+00	0	23	0	466616320	73	4897
2026-01-10 01:30:33.57	14.27	31.97	-54.1	-56.7	13.8	0.00e+00	0	23	0	475004928	73	5111
2026-01-10 01:30:37.57	13.72	32.74	-54.1	-56.7	13.8	0.00e+00	0	23	0	482344960	73	5124
2026-01-10 01:30:41.57	13.14	33.52	-54.0	-56.6	13.8	0.00e+00	0	23	0	489684992	73	5055
2026-01-10 01:30:45.55	12.54	34.32	-54.1	-56.7	13.8	0.00e+00	0	23	0	497025024	73	5110
2026-01-10 01:30:49.56	11.90	35.13	-54.5	-57.3	13.6	0.00e+00	0	23	0	504365056	74	5172
2026-01-10 01:30:53.55	11.23	35.96	-54.4	-57.1	13.7	0.00e+00	0	23	0	511705088	74	5054
2026-01-10 01:30:57.55	10.52	36.81	-53.9	-56.3	14.2	0.00e+00	0	23	0	519045120	74	4649
2026-01-10 01:31:01.53	9.78	37.68	-53.5	-55.7	14.5	0.00e+00	0	23	0	527433728	73	4569
2026-01-10 01:31:05.52	9.00	38.56	-53.5	-55.7	14.5	0.00e+00	0	23	0	534773760	73	4582
2026-01-10 01:31:09.52	8.16	39.46	-53.3	-55.4	14.6	0.00e+00	0	23	0	542113792	73	4412
2026-01-10 01:31:13.51	7.28	40.37	-53.4	-55.7	14.5	0.00e+00	0	23	0	549453824	73	4551
2026-01-10 01:31:17.52	6.35	41.31	-53.7	-56.1	14.3	0.00e+00	0	23	0	556793856	73	4792
2026-01-10 01:31:21.51	5.36	42.25	-53.7	-56.0	14.3	0.00e+00	0	23	0	564133888	73	4735
2026-01-10 01:31:25.49	4.31	43.21	-53.7	-56.0	14.3	0.00e+00	0	23	0	571473920	73	4709
2026-01-10 01:31:29.48	3.19	44.18	-52.9	-54.9	14.8	0.00e+00	0	23	0	579862528	72	4429
2026-01-10 01:31:33.47	2.01	45.17	-53.2	-55.3	14.6	0.00e+00	0	23	0	587202560	72	4608
2026-01-10 01:31:37.45	0.75	46.16	-53.4	-55.6	14.4	0.00e+00	0	23	0	594542592	72	4804
2026-01-10 01:31:41.45	359.39	47.16	-53.4	-55.6	14.5	0.00e+00	0	23	0	601882624	72	4767
2026-01-10 01:31:45.45	357.95	48.17	-53.2	-55.3	14.6	0.00e+00	0	23	0	609222656	72	4626
2026-01-10 01:31:49.45	356.41	49.19	-52.4	-54.2	15.1	0.00e+00	0	23	0	616562688	71	4319
2026-01-10 01:31:53.45	354.76	50.20	-52.3	-54.1	15.2	0.00e+00	0	23	0	623902720	71	4266
2026-01-10 01:31:57.44	353.01	51.20	-52.4	-54.3	15.0	0.00e+00	0	23	0	632291328	71	4368
2026-01-10 01:32:01.43	351.13	52.19	-51.2	-52.8	15.5	0.00e+00	0	23	0	639631360	69	4131
2026-01-10 01:32:05.44	349.11	53.18	-51.0	-52.6	15.4	0.00e+00	0	23	0	646971392	68	4274
2026-01-10 01:32:09.43	346.96	54.14	-50.9	-52.5	15.5	0.00e+00	0	23	0	654311424	68	4201
2026-01-10 01:32:13.42	344.66	55.07	-50.8	-52.3	15.5	0.00e+00	0	23	0	661651456	68	4127
2026-01-10 01:32:17.41	342.21	55.97	-52.5	-54.4	14.8	0.00e+00	0	23	0	668991488	70	4680
2026-01-10 01:32:21.40	339.59	56.83	-53.1	-55.2	14.5	0.00e+00	0	23	0	676331520	71	4825
2026-01-10 01:32:25.40	336.81	57.65	-53.2	-55.2	14.6	0.00e+00	0	23	0	684720128	72	4590
2026-01-10 01:32:29.41	333.85	58.40	-53.6	-55.8	14.4	0.00e+00	0	23	0	692060160	72	4902
2026-01-10 01:32:33.38	330.76	59.09	-52.7	-54.6	15.1	0.00e+00	0	23	0	699400192	72	4259
2026-01-10 01:32:37.39	327.47	59.70	-52.4	-54.2	15.1	0.00e+00	0	23	0	706740224	71	4320
2026-01-10 01:32:41.38	324.05	60.23	-51.3	-52.9	15.5	0.00e+00	0	23	0	714080256	69	4146
2026-01-10 01:32:45.37	320.51	60.67	-51.4	-53.0	15.4	0.00e+00	0	23	0	721420288	69	4223
2026-01-10 01:32:49.37	316.84	61.01	-50.5	-51.9	15.5	0.00e+00	0	23	0	728760320	67	4183
2026-01-10 01:32:53.35	313.10	61.24	-50.1	-51.5	15.5	0.00e+00	0	23	0	737148928	66	4200
2026-01-10 01:32:57.35	309.29	61.37	-49.3	-50.6	15.8	0.00e+00	0	23	0	744488960	65	4039
2026-01-10 01:33:01.34	305.47	61.39	-48.7	-50.0	15.7	0.00e+00	0	23	0	751828992	63	4207
2026-01-10 01:33:05.35	301.64	61.29	-48.8	-50.1	15.6	0.00e+00	0	23	0	759169024	63	4264
2026-01-10 01:33:09.33	297.89	61.08	-49.2	-50.5	15.5	0.00e+00	0	23	0	766509056	63	4474
2026-01-10 01:33:13.32	294.20	60.77	-49.6	-50.9	15.5	0.00e+00	0	23	0	773849088	64	4430
2026-01-10 01:33:17.32	290.61	60.36	-50.4	-51.9	15.2	0.00e+00	0	23	0	781189120	65	4694
2026-01-10 01:33:21.32	287.14	59.85	-51.1	-52.7	15.1	0.00e+00	0	24	0	789577728	67	4581
2026-01-10 01:33:25.31	283.83	59.26	-51.1	-52.6	15.2	0.00e+00	0	23	0	796917760	67	4541
2026-01-10 01:33:29.30	280.68	58.59	-52.6	-54.4	15.0	0.00e+00	0	23	0	804257792	71	4434
2026-01-10 01:33:33.29	277.68	57.85	-53.1	-55.1	14.6	0.00e+00	0	24	0	811597824	71	4786
2026-01-10 01:33:37.28	274.86	57.06	-52.4	-54.3	15.0	0.00e+00	0	23	0	818937856	71	4349
2026-01-10 01:33:41.28	272.19	56.20	-51.8	-53.5	15.3	0.00e+00	0	23	0	826277888	70	4222
2026-01-10 01:33:45.26	269.70	55.32	-51.4	-53.1	15.4	0.00e+00	0	23	0	833617920	69	4249
2026-01-10 01:33:49.26	267.35	54.39	-51.6	-53.3	15.2	0.00e+00	0	23	0	840957952	69	4344
2026-01-10 01:33:53.26	265.16	53.43	-51.9	-53.6	15.1	0.00e+00	0	23	0	849346560	69	4512
2026-01-10 01:33:57.27	263.10	52.45	-51.9	-53.7	15.0	0.00e+00	0	23	0	856686592	69	4548
2026-01-10 01:34:01.28	261.17	51.45	-52.5	-54.3	14.8	0.00e+00	0	23	0	864026624	70	4648
2026-01-10 01:34:05.26	259.39	50.45	-53.8	-56.1	14.2	0.00e+00	0	24	0	871366656	72	5062
2026-01-10 01:34:09.26	257.71	49.43	-53.9	-56.2	14.2	0.00e+00	0	23	0	878706688	73	4870
2026-01-10 01:34:13.26	256.14	48.42	-54.7	-57.5	13.5	0.00e+00	0	24	0	886046720	74	5282
2026-01-10 01:34:17.25	254.67	47.41	-54.3	-56.8	14.2	0.00e+00	0	23	0	894435328	75	4638
2026-01-10 01:34:21.25	253.29	46.40	-53.7	-55.9	14.6	0.00e+00	0	23	0	901775360	74	4440
2026-01-10 01:34:25.25	252.00	45.40	-53.4	-55.6	14.6	0.00e+00	0	23	0	909115392	73	4516
2026-01-10 01:34:29.25	250.79	44.41	-53.2	-55.2	14.6	0.00e+00	0	23	0	916455424	72	4589
2026-01-10 01:34:33.24	249.65	43.43	-53.3	-55.4	14.6	0.00e+00	0	23	0	923795456	72	4668
2026-01-10 01:34:37.25	248.58	42.46	-53.7	-56.0	14.2	0.00e+00	0	23	0	931135488	72	5014
2026-01-10 01:34:41.24	247.58	41.51	-54.5	-57.1	13.8	0.00e+00	0	23	0	938475520	74	5056
2026-01-10 01:34:45.24	246.63	40.57	-54.8	-57.7	13.4	0.00e+00	0	23	0	946864128	74	5436
2026-01-10 01:34:49.22	245.73	39.65	-54.7	-57.5	13.7	0.00e+00	0	23	0	954204160	75	4992
2026-01-10 01:34:53.22	244.89	38.75	-54.8	-57.6	13.6	0.00e+00	0	23	0	961544192	75	5075
2026-01-10 01:34:57.23	244.09	37.85	-55.1	-58.1	13.2	0.00e+00	0	23	0	968884224	75	5382
2026-01-10 01:35:01.24	243.33	36.98	-55.3	-58.5	13.1	7.00e-07	0	23	0	976224256	76	5300
2026-01-10 01:35:05.24	242.61	36.12	-54.5	-57.1	13.9	0.00e+00	0	23	0	983564288	75	4809
2026-01-10 01:35:09.23	241.93	35.28	-54.0	-56.4	14.2	0.00e+00	0	23	0	991952896	74	4666
2026-01-10 01:35:13.23	241.28	34.46	-54.2	-56.7	14.0	0.00e+00	0	23	0	999292928	74	4859
2026-01-10 01:35:17.23	240.67	33.66	-54.2	-56.8	14.0	0.00e+00	0	23	0	1006632960	74	4887
2026-01-10 01:35:21.22	240.08	32.87	-54.3	-56.9	13.8	0.00e+00	0	23	0	1013972992	74	4970
2026-01-10 01:35:25.22	239.53	32.10	-54.2	-56.7	14.0	0.00e+00	0	23	0	1021313024	74	4846
2026-01-10 01:35:29.21	239.00	31.35	-54.2	-56.8	13.9	0.00e+00	0	23	0	1028653056	74	4875
2026-01-10 01:35:33.21	238.49	30.61	-54.6	-57.4	13.5	0.00e+00	0	24	0	1035993088	74	5229
2026-01-10 01:35:37.20	238.01	29.89	-54.7	-57.6	13.3	0.00e+00	0	23	0	1044381696	74	5383
2026-01-10 01:35:41.18	237.55	29.19	-53.9	-56.4	14.2	0.00e+00	0	24	0	1051721728	74	4669
2026-01-10 01:35:45.19	237.11	28.50	-53.9	-56.4	14.2	0.00e+00	0	23	0	1059061760	74	4679
2026-01-10 01:35:49.22	236.68	27.81	-53.8	-56.2	14.2	0.00e+00	0	23	0	1066401792	74	4586
2026-01-10 01:35:53.21	236.27	27.15	-53.4	-55.6	14.5	0.00e+00	0	24	0	1073741824	73	4516
2026-01-10 01:35:57.21	235.89	26.51	-53.2	-55.4	14.5	0.00e+00	0	23	0	1081081856	72	4674
2026-01-10 01:36:01.20	235.51	25.87	-53.2	-55.4	14.5	0.00e+00	0	23	0	1088421888	72	4655
2026-01-10 01:36:05.21	235.16	25.25	-53.0	-55.2	14.6	0.00e+00	0	23	0	1096810496	72	4570
2026-01-10 01:36:09.22	234.81	24.64	-52.9	-54.9	14.7	0.00e+00	0	23	0	1104150528	72	4427
2026-01-10 01:36:13.23	234.48	24.05	-52.9	-55.0	14.7	0.00e+00	0	23	0	1111490560	72	4467
2026-01-10 01:36:17.23	234.16	23.46	-53.3	-55.6	14.3	0.00e+00	0	23	0	1118830592	72	4765
2026-01-10 01:36:21.22	233.86	22.89	-53.2	-55.4	14.4	0.00e+00	0	23	0	1126170624	72	4681
2026-01-10 01:36:25.21	233.56	22.33	-52.7	-54.8	14.8	0.00e+00	0	23	0	1133510656	72	4352
2026-01-10 01:36:29.21	233.28	21.79	-52.4	-54.4	14.8	0.00e+00	0	23	0	1141899264	71	4422
2026-01-10 01:36:33.19	233.01	21.25	-52.7	-54.8	14.6	0.00e+00	0	23	0	1149239296	71	4609
2026-01-10 01:36:37.19	232.74	20.72	-52.7	-54.7	14.6	0.00e+00	0	23	0	1156579328	71	4587
2026-01-10 01:36:41.17	232.49	20.21	-52.5	-54.5	14.8	0.00e+00	0	23	0	1163919360	71	4460
2026-01-10 01:36:45.16	232.25	19.70	-52.4	-54.4	14.9	0.00e+00	0	23	0	1171259392	71	4398
2026-01-10 01:36:49.15	232.01	19.21	-52.2	-54.1	14.8	0.00e+00	0	23	0	1178599424	70	4528
2026-01-10 01:36:53.15	231.78	18.72	-52.3	-54.4	14.7	0.00e+00	0	23	0	1185939456	70	4654
2026-01-10 01:36:57.14	231.56	18.24	-52.4	-54.4	14.7	0.00e+00	0	23	0	1193279488	70	4669
2026-01-10 01:37:01.13	231.34	17.77	-52.3	-54.3	14.7	0.00e+00	0	23	0	1201668096	70	4634
2026-01-10 01:37:05.13	231.14	17.31	-52.0	-53.9	14.9	0.00e+00	0	23	0	1209008128	70	4413
2026-01-10 01:37:09.13	230.93	16.86	-52.1	-54.0	14.8	0.00e+00	0	23	0	1216348160	70	4479
2026-01-10 01:37:13.11	230.74	16.41	-52.3	-54.3	14.7	0.00e+00	0	23	0	1223688192	70	4646
2026-01-10 01:37:17.11	230.55	15.97	-52.6	-54.8	14.4	0.00e+00	0	23	0	1231028224	70	4883
2026-01-10 01:37:21.10	230.37	15.54	-52.8	-55.0	14.3	0.00e+00	0	23	0	1238368256	70	4989
2026-01-10 01:37:25.11	230.19	15.12	-52.9	-55.1	14.4	0.00e+00	0	23	0	1246756864	71	4791
2026-01-10 01:37:29.09	230.02	14.70	-52.9	-55.1	14.4	0.00e+00	0	23	0	1254096896	71	4779
2026-01-10 01:37:33.07	229.85	14.30	-53.0	-55.2	14.3	0.00e+00	0	23	0	1261436928	71	4864
2026-01-10 01:37:37.05	229.69	13.89	-52.8	-55.1	14.4	0.00e+00	0	23	0	1268776960	71	4785
2026-01-10 01:37:41.03	229.53	13.50	-52.8	-55.1	14.4	0.00e+00	0	23	0	1276116992	71	4792
2026-01-10 01:37:45.01	229.38	13.11	-52.8	-55.1	14.4	0.00e+00	0	23	0	1283457024	71	4794
2026-01-10 01:37:48.99	229.23	12.73	-52.9	-55.2	14.3	0.00e+00	0	23	0	1290797056	71	4837
2026-01-10 01:37:52.99	229.09	12.35	-52.8	-55.0	14.4	0.00e+00	0	23	0	1298137088	71	4741
2026-01-10 01:37:56.98	228.95	11.97	-52.8	-55.1	14.4	0.00e+00	0	23	0	1305477120	71	4771
2026-01-10 01:38:00.97	228.81	11.61	-53.0	-55.3	14.2	0.00e+00	0	23	0	1313865728	71	4922
2026-01-10 01:38:04.96	228.68	11.24	-53.2	-55.6	14.0	0.00e+00	0	23	0	1321205760	71	5055
2026-01-10 01:38:08.97	228.55	10.88	-53.5	-56.1	13.8	0.00e+00	0	23	0	1328545792	72	5066
2026-01-10 01:38:12.95	228.42	10.53	-53.7	-56.4	13.6	0.00e+00	0	23	0	1335885824	72	5243
2026-01-10 01:38:16.94	228.30	10.19	-53.9	-56.7	13.4	0.00e+00	0	23	0	1343225856	72	5425
2026-01-10 01:38:20.93	228.18	9.84	-53.9	-56.8	13.5	0.00e+00	0	23	0	1350565888	73	5203
2026-01-10 01:38:24.93	228.06	9.50	-54.0	-57.0	13.3	0.00e+00	0	23	0	1357905920	73	5304
2026-01-10 01:38:28.93	227.95	9.17	-54.0	-57.0	13.3	0.00e+00	0	23	0	1366294528	73	5315
2026-01-10 01:38:32.92	227.83	8.84	-54.0	-56.9	13.4	0.00e+00	0	23	0	1373634560	73	5270
2026-01-10 01:38:36.91	227.73	8.51	-53.9	-56.7	13.5	0.00e+00	0	23	0	1380974592	73	5141
2026-01-10 01:38:40.86	227.62	8.20	-53.8	-56.7	13.5	0.00e+00	0	23	0	1388314624	73	5103
2026-01-10 01:38:44.85	227.52	7.88	-53.9	-56.8	13.4	0.00e+00	0	23	0	1395654656	73	5161
2026-01-10 01:38:48.83	227.42	7.57	-53.8	-56.7	13.4	0.00e+00	0	23	0	1402994688	73	5143
2026-01-10 01:38:52.83	227.32	7.26	-53.9	-56.8	13.3	0.00e+00	0	23	0	1410334720	73	5215
2026-01-10 01:38:56.82	227.22	6.95	-54.0	-57.1	13.1	0.00e+00	0	23	0	1418723328	73	5401
2026-01-10 01:39:00.81	227.13	6.65	-54.0	-57.2	13.1	0.00e+00	0	23	0	1426063360	73	5424
2026-01-10 01:39:04.82	227.04	6.35	-54.2	-57.6	12.8	0.00e+00	0	23	0	1433403392	73	5684
2026-01-10 01:39:08.81	226.95	6.05	-54.1	-57.3	12.9	7.00e-07	0	23	0	1440743424	73	5521
2026-01-10 01:39:12.81	226.86	5.76	-54.1	-57.4	12.8	0.00e+00	0	23	0	1448083456	73	5587
2026-01-10 01:39:16.81	226.78	5.47	-54.3	-57.9	12.5	2.20e-06	0	23	0	1455423488	73	5864
2026-01-10 01:39:20.79	226.69	5.18	-54.3	-57.8	12.5	0.00e+00	0	23	0	1462763520	73	5844
2026-01-10 01:39:24.79	226.61	4.90	-58.2	-74.2	3.8	1.49e+00	0	23	104	1468006400	81	24269
2026-01-10 01:39:28.80	226.53	4.61	-58.9	-74.9	3.8	1.49e+00	0	23	104	1468006400	82	24875
2026-01-10 01:39:32.80	226.45	4.34	-59.1	-75.2	3.8	1.49e+00	0	23	104	1468006400	83	24247
2026-01-10 01:39:36.78	226.38	4.06	-59.2	-75.3	3.8	1.49e+00	0	23	104	1468006400	83	24469
2026-01-10 01:39:40.79	226.30	3.79	-59.3	-75.4	3.8	1.49e+00	0	23	104	1468006400	83	24743
2026-01-10 01:39:44.77	226.23	3.52	-59.4	-75.4	3.8	1.49e+00	0	23	104	1468006400	83	24886
2026-01-10 01:39:48.76	226.16	3.25	-59.3	-75.4	3.8	1.49e+00	0	23	104	1468006400	83	24741
2026-01-10 01:39:52.76	226.09	2.99	-59.3	-75.3	3.8	1.49e+00	0	23	104	1468006400	83	24653
2026-01-10 01:39:56.74	226.02	2.73	-59.2	-75.3	3.8	1.49e+00	0	23	104	1468006400	83	24564
2026-01-10 01:40:00.75	225.95	2.47	-59.2	-75.3	3.8	1.49e+00	0	23	104	1468006400	83	24524
2026-01-10 01:40:04.76	225.89	2.21	-59.2	-75.3	3.8	1.49e+00	0	23	104	1468006400	83	24462
2026-01-10 01:40:08.77	225.82	1.95	-59.2	-75.3	3.8	1.49e+00	0	23	104	1468006400	83	24436

#Closed at: 2026-01-10 01:40:09
#Recorded file [1468 MB]: D:/lorett/data/31004_260110_042549.dat