passes_logs/2026/01/10/R3.2S_Murmansk/R3.2S_Murmansk__20260110_121532_NOAA_21_JPSS-2_rec.log

#Pass ID: 20260110_121532_NOAA 21 (JPSS-2)
#Satellite: NOAA 21 (JPSS-2)
#Configuration: NOAA-21
#almurnet v.1.7.20251203
#Start time: 2026-01-10 12:16:57

#Version: 2.2.20231116
#Station: R3.2S_Murmansk
#Location: 33.079688 lon 68.888172 lat
#TLE: 1 54234U 22150A   26009.79679979  .00000100  00000+0  68070-4 0  9993
#TLE: 2 54234  98.7494 310.7596 0000833 322.2782  37.8335 14.19533646164071

#Time	Az	El	Level	Level2	SNR	BER	BlckErr	Temp	State	Recorded	gain1	gain2
2026-01-10 12:16:57.36	229.45	6.63	-59.6	-72.6	3.8	8.45e-01	0	23	0	0	84	17025
2026-01-10 12:17:00.38	229.78	6.80	-59.7	-73.5	3.8	1.49e+00	0	24	104	0	84	18946
2026-01-10 12:17:03.39	230.11	6.98	-59.6	-73.4	3.8	1.49e+00	0	23	104	0	84	18714
2026-01-10 12:17:06.41	230.44	7.15	-59.4	-73.2	3.8	1.49e+00	0	24	104	0	84	18260
2026-01-10 12:17:09.41	230.78	7.32	-59.3	-73.1	3.8	1.49e+00	0	24	104	0	84	17944
2026-01-10 12:17:12.41	231.12	7.49	-59.0	-72.8	3.8	1.49e+00	0	24	104	0	84	17404
2026-01-10 12:17:15.41	231.46	7.66	-58.7	-72.4	3.8	1.49e+00	0	24	104	0	84	16511
2026-01-10 12:17:18.42	231.81	7.83	-58.4	-72.1	3.8	1.49e+00	0	24	104	0	83	16903
2026-01-10 12:17:21.43	232.16	8.00	-58.4	-72.2	3.8	1.49e+00	0	23	104	0	83	17184
2026-01-10 12:17:24.45	232.52	8.18	-58.4	-72.0	3.8	1.49e+00	0	24	104	0	83	16745
2026-01-10 12:17:27.46	232.88	8.35	-58.4	-72.1	3.8	1.49e+00	0	24	104	0	83	16897
2026-01-10 12:17:30.48	233.25	8.52	-58.4	-72.1	3.8	1.49e+00	0	24	104	0	83	17079
2026-01-10 12:17:33.50	233.62	8.70	-58.4	-71.8	3.8	1.49e+00	0	24	104	0	83	16418
2026-01-10 12:17:36.51	233.99	8.87	-58.3	-71.5	3.8	1.49e+00	0	24	104	0	83	15933
2026-01-10 12:17:39.51	234.37	9.05	-58.3	-70.8	3.8	1.49e+00	0	24	104	0	83	14634
2026-01-10 12:17:42.53	234.75	9.22	-58.3	-72.0	3.8	1.49e+00	0	24	104	0	83	16751
2026-01-10 12:17:45.55	235.14	9.39	-57.8	-66.3	5.1	7.43e-01	0	24	0	0	82	9229
2026-01-10 12:17:48.56	235.53	9.57	-57.2	-63.5	6.9	1.98e-01	0	24	0	9437184	81	7083
2026-01-10 12:17:51.56	235.92	9.74	-54.2	-56.9	12.3	3.80e-06	0	24	0	18874368	74	4966
2026-01-10 12:17:54.55	236.32	9.91	-55.1	-58.5	11.1	0.00e+00	0	23	0	25165824	75	5644
2026-01-10 12:17:57.55	236.72	10.09	-49.6	-51.0	14.8	0.00e+00	0	24	0	34603008	65	4220
2026-01-10 12:18:00.56	237.13	10.26	-49.8	-51.3	14.6	0.00e+00	0	23	0	44040192	65	4342
2026-01-10 12:18:03.56	237.54	10.44	-49.7	-51.1	14.7	0.00e+00	0	23	0	53477376	65	4291
2026-01-10 12:18:06.57	237.96	10.61	-49.7	-51.1	14.7	0.00e+00	0	24	0	62914560	65	4287
2026-01-10 12:18:09.57	238.38	10.78	-49.8	-51.3	14.7	0.00e+00	0	23	0	72351744	65	4353
2026-01-10 12:18:12.55	238.80	10.95	-49.8	-51.2	14.7	0.00e+00	0	23	0	81788928	65	4324
2026-01-10 12:18:15.57	239.24	11.13	-49.7	-51.2	14.7	0.00e+00	0	24	0	91226112	65	4304
2026-01-10 12:18:18.57	239.67	11.30	-49.7	-51.1	14.8	0.00e+00	0	24	0	100663296	65	4277
2026-01-10 12:18:21.57	240.12	11.47	-49.6	-51.0	14.8	0.00e+00	0	24	0	110100480	65	4202
2026-01-10 12:18:24.57	240.56	11.65	-49.5	-50.9	14.9	0.00e+00	0	24	0	119537664	65	4170
2026-01-10 12:18:27.59	241.02	11.82	-49.6	-51.0	14.8	0.00e+00	0	23	0	128974848	65	4199
2026-01-10 12:18:30.58	241.47	11.99	-49.6	-51.0	14.8	0.00e+00	0	24	0	137363456	65	4240
2026-01-10 12:18:33.59	241.93	12.16	-49.4	-50.8	14.9	0.00e+00	0	23	0	146800640	65	4112
2026-01-10 12:18:36.60	242.40	12.33	-49.6	-51.0	14.8	0.00e+00	0	24	0	156237824	65	4199
2026-01-10 12:18:39.58	242.87	12.50	-49.4	-50.8	15.0	0.00e+00	0	24	0	165675008	65	4108
2026-01-10 12:18:42.60	243.35	12.67	-49.3	-50.7	15.0	0.00e+00	0	23	0	175112192	65	4072
2026-01-10 12:18:45.61	243.83	12.84	-49.1	-50.4	15.0	0.00e+00	0	24	0	184549376	64	4161
2026-01-10 12:18:48.62	244.32	13.01	-49.3	-50.6	14.9	0.00e+00	0	23	0	193986560	64	4275
2026-01-10 12:18:51.61	244.82	13.17	-49.4	-50.8	14.8	0.00e+00	0	23	0	203423744	64	4347
2026-01-10 12:18:54.62	245.32	13.34	-49.3	-50.7	14.9	0.00e+00	0	24	0	212860928	64	4308
2026-01-10 12:18:57.62	245.82	13.51	-49.2	-50.6	14.9	0.00e+00	0	23	0	222298112	64	4274
2026-01-10 12:19:00.61	246.33	13.67	-49.3	-50.6	14.9	0.00e+00	0	24	0	231735296	64	4289
2026-01-10 12:19:03.62	246.84	13.84	-49.1	-50.5	15.0	0.00e+00	0	24	0	241172480	64	4209
2026-01-10 12:19:06.62	247.37	14.00	-49.1	-50.4	15.0	0.00e+00	0	24	0	250609664	64	4180
2026-01-10 12:19:09.62	247.89	14.16	-49.0	-50.3	15.1	0.00e+00	0	24	0	260046848	64	4112
2026-01-10 12:19:12.60	248.42	14.32	-49.2	-50.5	14.9	0.00e+00	0	24	0	269484032	64	4233
2026-01-10 12:19:15.60	248.96	14.48	-49.2	-50.6	14.9	0.00e+00	0	24	0	278921216	64	4249
2026-01-10 12:19:18.58	249.50	14.63	-49.3	-50.7	14.8	0.00e+00	0	24	0	287309824	64	4326
2026-01-10 12:19:21.57	250.04	14.79	-49.2	-50.6	14.9	0.00e+00	0	24	0	296747008	64	4245
2026-01-10 12:19:24.54	250.59	14.94	-49.1	-50.4	15.0	0.00e+00	0	23	0	306184192	64	4182
2026-01-10 12:19:27.53	251.15	15.10	-49.1	-50.4	15.0	0.00e+00	0	23	0	315621376	64	4185
2026-01-10 12:19:30.51	251.71	15.25	-49.1	-50.5	15.0	0.00e+00	0	23	0	325058560	64	4201
2026-01-10 12:19:33.48	252.27	15.40	-49.3	-50.6	14.9	0.00e+00	0	23	0	334495744	64	4283
2026-01-10 12:19:36.45	252.84	15.54	-49.3	-50.7	14.9	0.00e+00	0	23	0	343932928	64	4317
2026-01-10 12:19:39.43	253.42	15.69	-49.0	-50.3	15.0	0.00e+00	0	23	0	353370112	64	4136
2026-01-10 12:19:42.41	254.00	15.83	-48.9	-50.2	15.2	0.00e+00	0	23	0	361758720	64	4053
2026-01-10 12:19:45.40	254.59	15.97	-48.9	-50.2	15.1	0.00e+00	0	23	0	371195904	64	4081
2026-01-10 12:19:48.39	255.19	16.11	-49.0	-50.3	15.0	0.00e+00	0	24	0	380633088	64	4144
2026-01-10 12:19:51.37	255.79	16.25	-49.0	-50.3	15.1	0.00e+00	0	23	0	390070272	64	4134
2026-01-10 12:19:54.35	256.39	16.39	-48.8	-50.0	15.2	0.00e+00	0	24	0	399507456	64	4000
2026-01-10 12:19:57.35	257.00	16.52	-48.6	-49.9	15.1	0.00e+00	0	23	0	408944640	63	4181
2026-01-10 12:20:00.34	257.62	16.65	-48.8	-50.0	15.1	0.00e+00	0	23	0	418381824	63	4240
2026-01-10 12:20:03.34	258.25	16.78	-48.8	-50.2	15.0	0.00e+00	0	23	0	427819008	63	4293
2026-01-10 12:20:06.34	258.87	16.91	-48.8	-50.1	15.0	0.00e+00	0	23	0	437256192	63	4283
2026-01-10 12:20:09.32	259.50	17.03	-48.7	-49.9	15.1	0.00e+00	0	23	0	446693376	63	4190
2026-01-10 12:20:12.30	260.14	17.15	-48.7	-49.9	15.1	0.00e+00	0	24	0	456130560	63	4190
2026-01-10 12:20:15.30	260.78	17.27	-48.6	-49.9	15.1	0.00e+00	0	24	0	464519168	63	4155
2026-01-10 12:20:18.26	261.42	17.38	-48.6	-49.9	15.1	0.00e+00	0	23	0	473956352	63	4163
2026-01-10 12:20:21.26	262.08	17.50	-48.5	-49.8	15.2	0.00e+00	0	23	0	483393536	63	4109
2026-01-10 12:20:24.26	262.73	17.60	-48.4	-49.7	15.2	0.00e+00	0	24	0	492830720	63	4061
2026-01-10 12:20:27.25	263.40	17.71	-48.4	-49.6	15.2	0.00e+00	0	23	0	502267904	63	4038
2026-01-10 12:20:30.23	264.06	17.81	-48.3	-49.6	15.3	0.00e+00	0	24	0	511705088	63	4016
2026-01-10 12:20:33.20	264.72	17.91	-48.4	-49.6	15.3	0.00e+00	0	24	0	521142272	63	4030
2026-01-10 12:20:36.18	265.39	18.01	-48.4	-49.6	15.2	0.00e+00	0	24	0	530579456	63	4051
2026-01-10 12:20:39.16	266.07	18.10	-48.2	-49.4	15.2	0.00e+00	0	24	0	540016640	62	4165
2026-01-10 12:20:42.14	266.75	18.19	-48.2	-49.5	15.2	0.00e+00	0	23	0	548405248	62	4196
2026-01-10 12:20:45.15	267.44	18.27	-48.2	-49.4	15.2	0.00e+00	0	24	0	557842432	62	4163
2026-01-10 12:20:48.16	268.13	18.35	-48.0	-49.3	15.3	0.00e+00	0	23	0	567279616	62	4099
2026-01-10 12:20:51.17	268.83	18.43	-48.2	-49.4	15.2	0.00e+00	0	23	0	576716800	62	4170
2026-01-10 12:20:54.18	269.53	18.51	-48.3	-49.5	15.1	0.00e+00	0	24	0	586153984	62	4230
2026-01-10 12:20:57.18	270.23	18.58	-48.1	-49.3	15.3	0.00e+00	0	24	0	595591168	62	4110
2026-01-10 12:21:00.19	270.94	18.64	-48.2	-49.5	15.2	0.00e+00	0	24	0	605028352	62	4200
2026-01-10 12:21:03.20	271.64	18.70	-48.2	-49.5	15.2	0.00e+00	0	23	0	614465536	62	4205
2026-01-10 12:21:06.20	272.35	18.76	-48.3	-49.5	15.1	0.00e+00	0	24	0	623902720	62	4235
2026-01-10 12:21:09.22	273.07	18.82	-48.3	-49.5	15.1	0.00e+00	0	23	0	633339904	62	4203
2026-01-10 12:21:12.23	273.79	18.87	-48.4	-49.7	15.1	0.00e+00	0	23	0	642777088	62	4303
2026-01-10 12:21:15.23	274.50	18.91	-48.4	-49.7	15.1	0.00e+00	0	24	0	652214272	62	4299
2026-01-10 12:21:18.24	275.23	18.95	-48.6	-49.8	15.0	0.00e+00	0	24	0	661651456	62	4372
2026-01-10 12:21:21.25	275.95	18.99	-48.6	-49.9	15.0	0.00e+00	0	24	0	671088640	62	4399
2026-01-10 12:21:24.25	276.67	19.02	-48.5	-49.8	15.0	0.00e+00	0	23	0	680525824	62	4370
2026-01-10 12:21:27.27	277.40	19.05	-48.5	-49.8	15.0	0.00e+00	0	24	0	689963008	62	4375
2026-01-10 12:21:30.28	278.12	19.07	-48.6	-49.8	15.0	0.00e+00	0	23	0	699400192	62	4374
2026-01-10 12:21:33.29	278.85	19.09	-48.5	-49.8	15.1	0.00e+00	0	24	0	708837376	62	4368
2026-01-10 12:21:36.30	279.58	19.11	-48.7	-50.0	15.0	0.00e+00	0	24	0	718274560	62	4471
2026-01-10 12:21:39.30	280.31	19.12	-48.5	-49.8	15.1	0.00e+00	0	23	0	727711744	62	4355
2026-01-10 12:21:42.30	281.03	19.12	-48.5	-49.8	15.0	0.00e+00	0	24	0	737148928	62	4371
2026-01-10 12:21:45.31	281.76	19.12	-48.5	-49.7	15.1	0.00e+00	0	23	0	746586112	62	4320
2026-01-10 12:21:48.31	282.49	19.12	-48.4	-49.6	15.1	0.00e+00	0	23	0	756023296	62	4277
2026-01-10 12:21:51.31	283.22	19.11	-48.4	-49.6	15.1	0.00e+00	0	23	0	765460480	62	4277
2026-01-10 12:21:54.31	283.94	19.10	-48.5	-49.7	15.1	0.00e+00	0	23	0	774897664	62	4317
2026-01-10 12:21:57.31	284.67	19.08	-48.6	-49.9	15.0	0.00e+00	0	24	0	783286272	62	4435
2026-01-10 12:22:00.32	285.39	19.06	-48.6	-49.8	15.0	0.00e+00	0	24	0	793772032	62	4386
2026-01-10 12:22:03.32	286.12	19.03	-48.6	-49.8	15.0	0.00e+00	0	24	0	802160640	62	4376
2026-01-10 12:22:06.33	286.84	19.00	-48.7	-50.0	15.0	0.00e+00	0	24	0	811597824	62	4463
2026-01-10 12:22:09.32	287.56	18.97	-48.5	-49.8	15.1	0.00e+00	0	24	0	821035008	62	4354
2026-01-10 12:22:12.31	288.28	18.93	-48.5	-49.8	15.1	0.00e+00	0	23	0	830472192	62	4355
2026-01-10 12:22:15.30	288.99	18.88	-48.5	-49.8	15.1	0.00e+00	0	23	0	839909376	62	4349
2026-01-10 12:22:18.30	289.70	18.84	-48.6	-49.8	15.0	0.00e+00	0	24	0	849346560	62	4388
2026-01-10 12:22:21.31	290.42	18.78	-48.7	-50.0	15.0	0.00e+00	0	24	0	858783744	62	4484
2026-01-10 12:22:24.31	291.13	18.73	-48.6	-49.8	15.0	0.00e+00	0	24	0	868220928	62	4384
2026-01-10 12:22:27.30	291.83	18.67	-48.4	-49.7	15.1	0.00e+00	0	23	0	877658112	62	4297
2026-01-10 12:22:30.31	292.54	18.60	-48.2	-49.4	15.2	0.00e+00	0	24	0	887095296	62	4154
2026-01-10 12:22:33.32	293.24	18.54	-48.0	-49.2	15.3	0.00e+00	0	24	0	896532480	62	4094
2026-01-10 12:22:36.32	293.94	18.46	-48.2	-49.4	15.2	0.00e+00	0	24	0	905969664	62	4168
2026-01-10 12:22:39.30	294.63	18.39	-48.2	-49.4	15.2	0.00e+00	0	24	0	915406848	62	4171
2026-01-10 12:22:42.29	295.32	18.31	-48.3	-49.5	15.2	0.00e+00	0	23	0	924844032	62	4223
2026-01-10 12:22:45.29	296.01	18.23	-48.2	-49.4	15.2	0.00e+00	0	24	0	934281216	62	4169
2026-01-10 12:22:48.30	296.69	18.14	-48.2	-49.4	15.2	0.00e+00	0	24	0	942669824	62	4162
2026-01-10 12:22:51.30	297.37	18.05	-48.3	-49.6	15.1	0.00e+00	0	24	0	952107008	62	4252
2026-01-10 12:22:54.30	298.05	17.95	-48.5	-49.7	15.1	0.00e+00	0	23	0	961544192	62	4312
2026-01-10 12:22:57.30	298.72	17.86	-48.2	-49.4	15.2	0.00e+00	0	24	0	970981376	62	4184
2026-01-10 12:23:00.28	299.38	17.75	-48.2	-49.4	15.2	0.00e+00	0	23	0	980418560	62	4180
2026-01-10 12:23:03.28	300.04	17.65	-48.1	-49.3	15.3	0.00e+00	0	23	0	989855744	62	4113
2026-01-10 12:23:06.26	300.70	17.54	-48.2	-49.4	15.2	0.00e+00	0	23	0	999292928	62	4157
2026-01-10 12:23:09.25	301.35	17.43	-48.2	-49.4	15.2	0.00e+00	0	24	0	1008730112	62	4161
2026-01-10 12:23:12.25	302.00	17.32	-48.3	-49.5	15.2	0.00e+00	0	24	0	1018167296	62	4219
2026-01-10 12:23:15.24	302.64	17.20	-48.2	-49.4	15.2	0.00e+00	0	24	0	1027604480	62	4171
2026-01-10 12:23:18.22	303.27	17.09	-48.2	-49.4	15.2	0.00e+00	0	23	0	1037041664	62	4169
2026-01-10 12:23:21.22	303.91	16.96	-48.3	-49.6	15.1	0.00e+00	0	24	0	1046478848	62	4244
2026-01-10 12:23:24.20	304.53	16.84	-48.4	-49.7	15.1	0.00e+00	0	24	0	1054867456	62	4296
2026-01-10 12:23:27.18	305.15	16.71	-48.4	-49.6	15.1	0.00e+00	0	23	0	1064304640	62	4277
2026-01-10 12:23:30.17	305.77	16.58	-48.3	-49.6	15.1	0.00e+00	0	24	0	1073741824	62	4255
2026-01-10 12:23:33.15	306.38	16.45	-48.5	-49.7	15.1	0.00e+00	0	24	0	1083179008	62	4332
2026-01-10 12:23:36.14	306.99	16.32	-48.6	-49.9	15.0	0.00e+00	0	24	0	1092616192	62	4411
2026-01-10 12:23:39.12	307.58	16.18	-48.7	-50.0	15.0	0.00e+00	0	24	0	1102053376	62	4454
2026-01-10 12:23:42.11	308.18	16.04	-48.7	-50.0	15.0	0.00e+00	0	24	0	1111490560	62	4468
2026-01-10 12:23:45.08	308.77	15.91	-48.6	-49.9	15.0	0.00e+00	0	24	0	1120927744	62	4398
2026-01-10 12:23:48.08	309.35	15.76	-48.8	-50.1	14.9	0.00e+00	0	24	0	1130364928	62	4538
2026-01-10 12:23:51.07	309.93	15.62	-49.2	-50.5	14.8	0.00e+00	0	24	0	1139802112	63	4481
2026-01-10 12:23:54.06	310.51	15.47	-49.1	-50.5	14.9	0.00e+00	0	23	0	1148190720	63	4444
2026-01-10 12:23:57.05	311.07	15.32	-48.9	-50.3	14.9	0.00e+00	0	24	0	1157627904	63	4350
2026-01-10 12:24:00.03	311.64	15.17	-48.8	-50.1	15.0	0.00e+00	0	24	0	1167065088	63	4244
2026-01-10 12:24:03.02	312.19	15.02	-48.7	-50.0	15.0	0.00e+00	0	23	0	1176502272	63	4233
2026-01-10 12:24:06.01	312.74	14.87	-48.9	-50.2	14.9	0.00e+00	0	24	0	1185939456	63	4337
2026-01-10 12:24:08.99	313.29	14.72	-49.0	-50.3	14.9	0.00e+00	0	23	0	1195376640	63	4366
2026-01-10 12:24:11.97	313.83	14.56	-49.0	-50.3	14.9	0.00e+00	0	24	0	1204813824	63	4360
2026-01-10 12:24:14.96	314.36	14.41	-48.9	-50.3	14.9	0.00e+00	0	23	0	1214251008	63	4349
2026-01-10 12:24:17.95	314.89	14.25	-49.0	-50.3	14.9	0.00e+00	0	24	0	1223688192	63	4380
2026-01-10 12:24:20.94	315.42	14.09	-49.0	-50.4	14.9	0.00e+00	0	23	0	1233125376	63	4399
2026-01-10 12:24:23.92	315.94	13.93	-49.1	-50.4	14.8	0.00e+00	0	24	0	1242562560	63	4434
2026-01-10 12:24:26.90	316.45	13.77	-48.9	-50.2	14.9	0.00e+00	0	23	0	1250951168	63	4315
2026-01-10 12:24:29.90	316.96	13.60	-48.9	-50.2	14.9	0.00e+00	0	23	0	1260388352	63	4324
2026-01-10 12:24:32.87	317.46	13.44	-48.9	-50.3	14.9	0.00e+00	0	24	0	1269825536	63	4350
2026-01-10 12:24:35.86	317.95	13.28	-48.9	-50.3	14.9	0.00e+00	0	24	0	1279262720	63	4358
2026-01-10 12:24:38.84	318.45	13.11	-49.1	-50.4	14.8	0.00e+00	0	23	0	1288699904	63	4423
2026-01-10 12:24:41.83	318.93	12.95	-49.1	-50.4	14.8	0.00e+00	0	23	0	1298137088	63	4439
2026-01-10 12:24:44.82	319.41	12.78	-48.8	-50.1	15.0	0.00e+00	0	24	0	1307574272	63	4285
2026-01-10 12:24:47.82	319.89	12.61	-48.8	-50.1	15.0	0.00e+00	0	23	0	1317011456	63	4267
2026-01-10 12:24:50.81	320.36	12.45	-48.8	-50.1	14.9	0.00e+00	0	23	0	1326448640	63	4260
2026-01-10 12:24:53.79	320.83	12.28	-48.9	-50.3	14.9	0.00e+00	0	23	0	1334837248	63	4346
2026-01-10 12:24:56.77	321.29	12.11	-49.0	-50.3	14.9	0.00e+00	0	23	0	1344274432	63	4373
2026-01-10 12:24:59.77	321.74	11.94	-49.0	-50.4	14.8	0.00e+00	0	23	0	1353711616	63	4429
2026-01-10 12:25:02.75	322.19	11.77	-49.0	-50.3	14.8	0.00e+00	0	24	0	1363148800	63	4389
2026-01-10 12:25:05.73	322.64	11.60	-48.8	-50.2	14.9	0.00e+00	0	23	0	1372585984	63	4292
2026-01-10 12:25:08.74	323.08	11.43	-48.9	-50.2	14.9	0.00e+00	0	23	0	1382023168	63	4328
2026-01-10 12:25:11.72	323.51	11.26	-48.8	-50.2	14.9	0.00e+00	0	23	0	1391460352	63	4296
2026-01-10 12:25:14.71	323.95	11.09	-48.7	-50.0	15.0	0.00e+00	0	23	0	1400897536	63	4233
2026-01-10 12:25:17.71	324.37	10.92	-49.0	-50.4	14.8	0.00e+00	0	23	0	1410334720	63	4421
2026-01-10 12:25:20.73	324.80	10.74	-48.9	-50.2	14.9	0.00e+00	0	23	0	1419771904	63	4334
2026-01-10 12:25:23.73	325.22	10.57	-49.1	-50.5	14.7	0.00e+00	0	23	0	1429209088	63	4443
2026-01-10 12:25:26.74	325.63	10.40	-49.3	-50.7	14.6	0.00e+00	0	23	0	1438646272	63	4574
2026-01-10 12:25:29.73	326.04	10.23	-49.1	-50.5	14.7	0.00e+00	0	23	0	1448083456	63	4469
2026-01-10 12:25:32.72	326.44	10.06	-49.4	-50.9	14.7	0.00e+00	0	23	0	1457520640	64	4401
2026-01-10 12:25:35.73	326.84	9.88	-49.5	-50.9	14.6	0.00e+00	0	23	0	1465909248	64	4435
2026-01-10 12:25:38.74	327.24	9.71	-49.6	-51.1	14.5	0.00e+00	0	23	0	1475346432	64	4539
2026-01-10 12:25:41.75	327.63	9.54	-49.7	-51.3	14.4	0.00e+00	0	23	0	1484783616	64	4607
2026-01-10 12:25:44.76	328.02	9.37	-50.0	-51.6	14.4	0.00e+00	0	24	0	1494220800	65	4505
2026-01-10 12:25:47.77	328.40	9.19	-49.8	-51.3	14.5	0.00e+00	0	23	0	1503657984	65	4361
2026-01-10 12:25:50.76	328.78	9.02	-49.8	-51.3	14.6	0.00e+00	0	24	0	1513095168	65	4358
2026-01-10 12:25:53.76	329.15	8.85	-49.8	-51.3	14.5	0.00e+00	0	23	0	1522532352	65	4376
2026-01-10 12:25:56.76	329.52	8.68	-49.8	-51.3	14.5	0.00e+00	0	23	0	1531969536	65	4370
2026-01-10 12:25:59.76	329.88	8.51	-49.8	-51.3	14.5	0.00e+00	0	23	0	1541406720	65	4380
2026-01-10 12:26:02.77	330.25	8.34	-49.9	-51.4	14.4	0.00e+00	0	23	0	1550843904	65	4429
2026-01-10 12:26:05.77	330.60	8.17	-50.0	-51.7	14.4	0.00e+00	0	23	0	1560281088	65	4546
2026-01-10 12:26:08.77	330.95	8.00	-50.1	-51.7	14.3	0.00e+00	0	23	0	1569718272	65	4550
2026-01-10 12:26:11.77	331.30	7.83	-50.1	-51.8	14.3	0.00e+00	0	24	0	1579155456	65	4606
2026-01-10 12:26:14.76	331.65	7.66	-50.1	-51.8	14.2	0.00e+00	0	23	0	1588592640	65	4611
2026-01-10 12:26:17.76	331.99	7.49	-50.2	-51.8	14.2	0.00e+00	0	23	0	1598029824	65	4627
2026-01-10 12:26:20.75	332.33	7.32	-50.1	-51.7	14.2	0.00e+00	0	23	0	1607467008	65	4591
2026-01-10 12:26:23.74	332.66	7.15	-50.1	-51.7	14.3	0.00e+00	0	23	0	1616904192	65	4558
2026-01-10 12:26:26.72	332.99	6.98	-50.2	-51.9	14.1	0.00e+00	0	23	0	1625292800	65	4666
2026-01-10 12:26:29.70	333.31	6.81	-50.2	-51.9	14.1	0.00e+00	0	23	0	1634729984	65	4677
2026-01-10 12:26:32.70	333.63	6.65	-50.2	-51.9	14.1	0.00e+00	0	24	0	1644167168	65	4672
2026-01-10 12:26:35.68	333.95	6.48	-50.4	-52.0	14.2	0.00e+00	0	23	0	1653604352	66	4487
2026-01-10 12:26:38.65	334.26	6.31	-50.6	-52.3	14.0	0.00e+00	0	23	0	1663041536	66	4631
2026-01-10 12:26:41.63	334.57	6.15	-50.6	-52.4	14.0	0.00e+00	0	23	0	1672478720	66	4666
2026-01-10 12:26:44.61	334.88	5.98	-50.5	-52.2	14.0	0.00e+00	0	23	0	1681915904	66	4596
2026-01-10 12:26:47.58	335.18	5.82	-50.6	-52.4	13.9	0.00e+00	0	24	0	1691353088	66	4670
2026-01-10 12:26:50.56	335.48	5.65	-50.7	-52.6	13.8	0.00e+00	0	23	0	1699741696	66	4764
2026-01-10 12:26:53.55	335.78	5.49	-50.5	-52.3	13.9	0.00e+00	0	24	0	1709178880	66	4626
2026-01-10 12:26:56.53	336.08	5.32	-50.5	-52.2	14.0	0.00e+00	0	23	0	1718616064	66	4580
2026-01-10 12:26:59.52	336.37	5.16	-50.4	-52.1	14.1	0.00e+00	0	24	0	1728053248	66	4522
2026-01-10 12:27:02.51	336.66	5.00	-51.8	-53.8	13.3	0.00e+00	0	24	0	1737490432	68	4918
2026-01-10 12:27:05.51	336.94	4.83	-58.6	-72.4	3.8	1.49e+00	0	24	104	1739587584	82	18641
2026-01-10 12:27:08.50	337.23	4.67	-59.1	-72.9	3.8	1.49e+00	0	24	104	1739587584	83	18677
2026-01-10 12:27:11.49	337.51	4.51	-59.4	-73.2	3.8	1.49e+00	0	24	104	1739587584	83	19307
2026-01-10 12:27:14.48	337.78	4.35	-59.7	-73.5	3.8	1.49e+00	0	24	104	1739587584	84	18873
2026-01-10 12:27:17.49	338.06	4.18	-59.8	-73.6	3.8	1.49e+00	0	24	104	1739587584	84	18984
2026-01-10 12:27:20.49	338.33	4.02	-59.8	-73.7	3.8	1.49e+00	0	24	104	1739587584	84	19193
2026-01-10 12:27:23.49	338.60	3.86	-59.8	-73.7	3.8	1.49e+00	0	24	104	1739587584	84	19183
2026-01-10 12:27:26.49	338.87	3.70	-59.8	-73.6	3.8	1.49e+00	0	24	104	1739587584	84	19046
2026-01-10 12:27:29.48	339.13	3.54	-59.7	-73.6	3.8	1.49e+00	0	24	104	1739587584	84	18954
2026-01-10 12:27:32.46	339.39	3.38	-59.7	-73.5	3.8	1.49e+00	0	24	104	1739587584	84	18868
2026-01-10 12:27:35.47	339.65	3.22	-59.7	-73.5	3.8	1.49e+00	0	24	104	1739587584	84	18897
2026-01-10 12:27:38.45	339.91	3.07	-59.6	-73.4	3.8	1.49e+00	0	24	104	1739587584	84	18715
2026-01-10 12:27:41.43	340.16	2.91	-59.7	-73.5	3.8	1.49e+00	0	24	104	1739587584	84	18787
2026-01-10 12:27:44.43	340.41	2.75	-59.6	-73.4	3.8	1.49e+00	0	24	104	1739587584	84	18724
2026-01-10 12:27:47.41	340.66	2.59	-59.6	-73.4	3.8	1.49e+00	0	24	104	1739587584	84	18693
2026-01-10 12:27:50.40	340.90	2.44	-59.6	-73.4	3.8	1.49e+00	0	24	104	1739587584	84	18620
2026-01-10 12:27:53.39	341.14	2.28	-59.6	-73.4	3.8	1.49e+00	0	24	104	1739587584	84	18602
2026-01-10 12:27:56.37	341.38	2.13	-59.5	-73.4	3.8	1.49e+00	0	24	104	1739587584	84	18562
2026-01-10 12:27:59.37	341.62	1.97	-59.5	-73.3	3.8	1.49e+00	0	24	104	1739587584	84	18465

#Closed at: 2026-01-10 12:28:00
#Recorded file [1739 MB]: D:/lorett/data/31004_260110_151657.dat