passes_logs/2026/01/10/R3.2S_Murmansk/R3.2S_Murmansk__20260110_080305_NOAA_20_JPSS-1_rec.log

#Pass ID: 20260110_080305_NOAA 20 (JPSS-1)
#Satellite: NOAA 20 (JPSS-1)
#Configuration: NOAA 20
#almurnet v.1.7.20251203
#Start time: 2026-01-10 08:03:05

#Version: 2.2.20231116
#Station: R3.2S_Murmansk
#Location: 33.079688 lon 68.888172 lat
#TLE: 1 43013U 17073A   26009.69119415  .00000109  00000+0  72598-4 0  9996
#TLE: 2 43013  98.7631 310.6868 0001678  46.7442 313.3874 14.19534878421981

#Time	Az	El	Level	Level2	SNR	BER	BlckErr	Temp	State	Recorded	gain1	gain2
2026-01-10 08:03:05.71	117.48	2.04	-57.2	-73.1	3.8	1.49e+00	0	21	0	0	80	22720
2026-01-10 08:03:09.73	117.35	2.29	-57.1	-73.1	3.8	1.49e+00	0	21	104	0	79	24095
2026-01-10 08:03:13.77	117.22	2.55	-57.1	-73.1	3.8	1.49e+00	0	21	104	0	79	24124
2026-01-10 08:03:17.80	117.08	2.80	-57.1	-73.1	3.8	1.49e+00	0	21	104	0	79	24065
2026-01-10 08:03:21.83	116.94	3.06	-57.1	-73.1	3.8	1.49e+00	0	21	104	0	79	23939
2026-01-10 08:03:25.85	116.80	3.32	-57.1	-73.0	3.8	1.49e+00	0	22	104	0	79	23731
2026-01-10 08:03:29.88	116.65	3.59	-57.1	-73.0	3.8	1.49e+00	0	22	104	0	79	23775
2026-01-10 08:03:33.92	116.50	3.86	-57.1	-72.0	3.8	1.49e+00	0	22	104	0	79	21187
2026-01-10 08:03:37.95	116.35	4.12	-56.9	-68.1	4.7	9.37e-01	0	22	0	2097152	79	13426
2026-01-10 08:03:41.98	116.20	4.40	-56.4	-64.1	7.4	1.44e-01	0	22	0	9437184	79	8500
2026-01-10 08:03:46.01	116.04	4.67	-55.2	-60.1	11.0	1.40e-03	0	22	0	16777216	77	6011
2026-01-10 08:03:50.05	115.88	4.95	-53.7	-57.0	13.1	0.00e+00	0	22	0	24117248	74	5008
2026-01-10 08:03:54.08	115.71	5.22	-54.7	-59.1	11.5	7.00e-07	0	22	0	32505856	74	6354
2026-01-10 08:03:58.11	115.55	5.51	-53.4	-56.4	13.6	0.00e+00	0	22	0	39845888	73	4927
2026-01-10 08:04:02.12	115.38	5.79	-53.5	-56.4	13.6	0.00e+00	0	22	0	47185920	73	4950
2026-01-10 08:04:06.15	115.20	6.08	-53.4	-56.2	13.7	0.00e+00	0	22	0	54525952	73	4845
2026-01-10 08:04:10.18	115.02	6.37	-53.4	-56.2	13.7	0.00e+00	0	22	0	61865984	73	4823
2026-01-10 08:04:14.21	114.84	6.66	-53.5	-56.4	13.6	0.00e+00	0	22	0	70254592	73	4958
2026-01-10 08:04:18.25	114.65	6.96	-53.2	-55.9	14.0	0.00e+00	0	22	0	77594624	73	4680
2026-01-10 08:04:22.28	114.46	7.26	-53.3	-56.0	14.0	0.00e+00	0	23	0	84934656	73	4729
2026-01-10 08:04:26.31	114.27	7.56	-53.1	-55.7	14.1	0.00e+00	0	23	0	92274688	72	4819
2026-01-10 08:04:30.34	114.07	7.86	-53.0	-55.5	14.1	0.00e+00	0	23	0	99614720	72	4749
2026-01-10 08:04:34.38	113.87	8.17	-52.8	-55.2	14.4	0.00e+00	0	23	0	108003328	72	4590
2026-01-10 08:04:38.41	113.66	8.49	-52.6	-54.9	14.4	0.00e+00	0	23	0	115343360	71	4696
2026-01-10 08:04:42.44	113.45	8.80	-52.5	-54.8	14.5	0.00e+00	0	23	0	122683392	71	4619
2026-01-10 08:04:46.48	113.23	9.12	-52.6	-54.9	14.5	0.00e+00	0	23	0	130023424	71	4659
2026-01-10 08:04:50.51	113.00	9.45	-52.4	-54.5	14.7	0.00e+00	0	23	0	138412032	71	4485
2026-01-10 08:04:54.55	112.78	9.78	-52.4	-54.6	14.7	0.00e+00	0	23	0	145752064	71	4529
2026-01-10 08:04:58.57	112.54	10.11	-52.3	-54.4	14.8	0.00e+00	0	23	0	153092096	71	4436
2026-01-10 08:05:02.61	112.30	10.44	-52.3	-54.5	14.8	0.00e+00	0	23	0	160432128	71	4444
2026-01-10 08:05:06.64	112.06	10.78	-52.3	-54.4	14.8	0.00e+00	0	23	0	167772160	71	4422
2026-01-10 08:05:10.67	111.81	11.12	-52.4	-54.5	14.8	0.00e+00	0	23	0	176160768	71	4453
2026-01-10 08:05:14.71	111.55	11.47	-52.0	-54.1	14.8	0.00e+00	0	23	0	183500800	70	4508
2026-01-10 08:05:18.73	111.28	11.82	-52.1	-54.1	14.8	0.00e+00	0	23	0	190840832	70	4523
2026-01-10 08:05:22.75	111.01	12.18	-52.0	-54.1	14.8	0.00e+00	0	23	0	198180864	70	4496
2026-01-10 08:05:26.78	110.73	12.54	-51.9	-53.9	15.0	0.00e+00	0	23	0	205520896	70	4399
2026-01-10 08:05:30.81	110.45	12.91	-51.9	-53.8	15.0	0.00e+00	0	23	0	213909504	70	4382
2026-01-10 08:05:34.84	110.16	13.28	-51.9	-53.8	15.0	0.00e+00	0	23	0	221249536	70	4363
2026-01-10 08:05:38.88	109.86	13.66	-51.8	-53.7	15.0	0.00e+00	0	23	0	228589568	70	4338
2026-01-10 08:05:42.91	109.55	14.04	-51.9	-53.9	14.9	0.00e+00	0	23	0	235929600	70	4422
2026-01-10 08:05:46.94	109.23	14.42	-51.9	-53.8	15.0	0.00e+00	0	23	0	243269632	70	4353
2026-01-10 08:05:50.98	108.90	14.81	-51.8	-53.7	15.0	0.00e+00	0	23	0	251658240	70	4335
2026-01-10 08:05:55.01	108.57	15.21	-52.0	-54.0	14.9	0.00e+00	0	23	0	258998272	70	4457
2026-01-10 08:05:59.04	108.22	15.61	-51.9	-53.8	15.0	0.00e+00	0	23	0	266338304	70	4382
2026-01-10 08:06:03.06	107.87	16.02	-51.9	-53.9	15.0	0.00e+00	0	23	0	273678336	70	4393
2026-01-10 08:06:07.08	107.51	16.43	-52.0	-54.0	14.9	0.00e+00	0	23	0	281018368	70	4453
2026-01-10 08:06:11.10	107.13	16.85	-52.1	-54.1	14.8	0.00e+00	0	23	0	289406976	70	4517
2026-01-10 08:06:15.14	106.75	17.28	-52.2	-54.2	14.8	0.00e+00	0	23	0	296747008	70	4546
2026-01-10 08:06:19.17	106.35	17.71	-52.1	-54.0	14.9	0.00e+00	0	23	0	304087040	70	4479
2026-01-10 08:06:23.20	105.94	18.14	-52.0	-54.0	14.9	0.00e+00	0	23	0	311427072	70	4443
2026-01-10 08:06:27.23	105.52	18.59	-52.0	-54.0	14.9	0.00e+00	0	23	0	318767104	70	4455
2026-01-10 08:06:31.26	105.09	19.04	-52.2	-54.2	14.8	0.00e+00	0	23	0	327155712	70	4556
2026-01-10 08:06:35.29	104.64	19.50	-52.2	-54.3	14.8	0.00e+00	0	23	0	334495744	70	4607
2026-01-10 08:06:39.32	104.18	19.96	-52.2	-54.1	14.8	0.00e+00	0	23	0	341835776	70	4538
2026-01-10 08:06:43.36	103.70	20.43	-52.2	-54.2	14.8	0.00e+00	0	23	0	349175808	70	4597
2026-01-10 08:06:47.39	103.21	20.91	-52.0	-54.0	15.0	0.00e+00	0	23	0	357564416	70	4450
2026-01-10 08:06:51.42	102.70	21.39	-52.2	-54.1	14.8	0.00e+00	0	23	0	364904448	70	4539
2026-01-10 08:06:55.45	102.17	21.88	-52.0	-54.0	14.9	0.00e+00	0	23	0	372244480	70	4456
2026-01-10 08:06:59.47	101.63	22.37	-52.3	-54.3	14.8	0.00e+00	0	23	0	379584512	70	4610
2026-01-10 08:07:03.51	101.07	22.88	-52.2	-54.2	14.8	0.00e+00	0	23	0	386924544	70	4563
2026-01-10 08:07:07.54	100.50	23.39	-52.2	-54.2	14.8	0.00e+00	0	23	0	395313152	70	4579
2026-01-10 08:07:11.56	99.90	23.91	-52.3	-54.2	14.8	0.00e+00	0	23	0	402653184	70	4591
2026-01-10 08:07:15.59	99.28	24.43	-52.2	-54.1	14.9	0.00e+00	0	23	0	409993216	70	4543
2026-01-10 08:07:19.63	98.64	24.96	-52.2	-54.2	14.8	0.00e+00	0	23	0	417333248	70	4570
2026-01-10 08:07:23.65	97.98	25.50	-52.3	-54.3	14.7	0.00e+00	0	23	0	424673280	70	4649
2026-01-10 08:07:27.65	97.30	26.04	-52.4	-54.4	14.7	0.00e+00	0	23	0	433061888	70	4684
2026-01-10 08:07:31.65	96.59	26.59	-52.3	-54.2	14.8	0.00e+00	0	23	0	440401920	70	4581
2026-01-10 08:07:35.65	95.86	27.14	-52.4	-54.3	14.7	0.00e+00	0	23	0	447741952	70	4651
2026-01-10 08:07:39.66	95.11	27.70	-52.6	-54.8	14.5	0.00e+00	0	23	0	455081984	70	4873
2026-01-10 08:07:43.68	94.32	28.27	-53.0	-55.3	14.4	0.00e+00	0	23	0	462422016	71	4875
2026-01-10 08:07:47.68	93.51	28.84	-53.4	-55.7	14.1	0.00e+00	0	23	0	469762048	71	5153
2026-01-10 08:07:51.69	92.66	29.41	-54.0	-56.7	13.7	0.00e+00	0	23	0	477102080	73	5150
2026-01-10 08:07:55.70	91.79	29.99	-54.7	-57.7	13.2	0.00e+00	0	23	0	485490688	74	5462
2026-01-10 08:07:59.71	90.88	30.58	-54.6	-57.6	13.3	0.00e+00	0	23	0	492830720	74	5356
2026-01-10 08:08:03.74	89.93	31.17	-54.4	-57.3	13.5	0.00e+00	0	23	0	500170752	74	5174
2026-01-10 08:08:07.75	88.95	31.76	-54.4	-57.2	13.6	0.00e+00	0	23	0	507510784	74	5103
2026-01-10 08:08:11.77	87.94	32.35	-54.7	-57.7	13.2	0.00e+00	0	23	0	514850816	74	5428
2026-01-10 08:08:15.80	86.88	32.95	-54.4	-57.2	13.6	0.00e+00	0	23	0	523239424	74	5148
2026-01-10 08:08:19.83	85.78	33.55	-54.0	-56.5	14.0	0.00e+00	0	23	0	530579456	74	4758
2026-01-10 08:08:23.86	84.65	34.14	-53.6	-56.0	14.2	0.00e+00	0	23	0	537919488	73	4745
2026-01-10 08:08:27.88	83.47	34.74	-53.2	-55.4	14.6	0.00e+00	0	23	0	545259520	73	4416
2026-01-10 08:08:31.91	82.24	35.33	-52.7	-54.8	14.8	0.00e+00	0	23	0	552599552	72	4359
2026-01-10 08:08:35.93	80.97	35.91	-53.1	-55.3	14.5	0.00e+00	0	23	0	560988160	72	4614
2026-01-10 08:08:39.95	79.66	36.49	-53.2	-55.5	14.4	0.00e+00	0	23	0	568328192	72	4715
2026-01-10 08:08:43.96	78.30	37.06	-53.7	-56.1	14.0	0.00e+00	0	23	0	575668224	72	5081
2026-01-10 08:08:47.97	76.90	37.62	-53.6	-56.0	14.1	0.00e+00	0	23	0	583008256	72	5002
2026-01-10 08:08:51.99	75.44	38.17	-54.0	-56.6	13.9	0.00e+00	0	23	0	590348288	73	5080
2026-01-10 08:08:56.01	73.93	38.71	-53.7	-56.1	14.2	0.00e+00	0	23	0	598736896	73	4772
2026-01-10 08:09:00.04	72.37	39.23	-53.3	-55.5	14.5	0.00e+00	0	23	0	606076928	73	4482
2026-01-10 08:09:04.07	70.76	39.74	-52.7	-54.8	14.9	0.00e+00	0	23	0	613416960	72	4348
2026-01-10 08:09:08.09	69.10	40.22	-52.1	-53.9	15.0	0.00e+00	0	23	0	620756992	70	4440
2026-01-10 08:09:12.11	67.39	40.68	-52.1	-53.9	15.0	0.00e+00	0	23	0	628097024	70	4404
2026-01-10 08:09:16.13	65.64	41.12	-52.3	-54.3	14.8	0.00e+00	0	23	0	636485632	70	4618
2026-01-10 08:09:20.16	63.83	41.53	-52.9	-55.0	14.6	0.00e+00	0	23	0	643825664	71	4711
2026-01-10 08:09:24.18	61.98	41.92	-51.8	-53.6	15.2	0.00e+00	0	23	0	651165696	70	4246
2026-01-10 08:09:28.21	60.09	42.27	-51.9	-53.7	15.1	0.00e+00	0	23	0	658505728	70	4307
2026-01-10 08:09:32.23	58.15	42.59	-51.5	-53.2	15.2	0.00e+00	0	23	0	665845760	69	4314
2026-01-10 08:09:36.26	56.18	42.88	-51.4	-53.0	15.3	0.00e+00	0	23	0	674234368	69	4228
2026-01-10 08:09:40.29	54.18	43.12	-51.8	-53.6	14.8	0.00e+00	0	23	0	681574400	68	4804
2026-01-10 08:09:44.31	52.15	43.33	-51.8	-53.6	15.0	0.00e+00	0	23	0	688914432	69	4536
2026-01-10 08:09:48.33	50.09	43.50	-52.0	-53.9	14.9	0.00e+00	0	23	0	696254464	69	4683
2026-01-10 08:09:52.36	48.02	43.63	-52.4	-54.3	14.6	0.00e+00	0	23	0	703594496	69	4918
2026-01-10 08:09:56.39	45.92	43.72	-52.6	-54.6	14.6	0.00e+00	0	23	0	710934528	70	4804
2026-01-10 08:10:00.42	43.82	43.76	-52.7	-54.7	14.6	0.00e+00	0	23	0	719323136	70	4828
2026-01-10 08:10:04.44	41.73	43.76	-53.4	-55.7	14.2	0.00e+00	0	23	0	726663168	71	5127
2026-01-10 08:10:08.47	39.63	43.72	-54.0	-56.5	14.0	0.00e+00	0	23	0	734003200	73	5001
2026-01-10 08:10:12.49	37.54	43.63	-54.0	-56.5	14.0	0.00e+00	0	23	0	741343232	73	5009
2026-01-10 08:10:16.51	35.47	43.50	-54.5	-57.2	13.6	0.00e+00	0	23	0	749731840	74	5158
2026-01-10 08:10:20.54	33.41	43.33	-54.4	-57.1	13.7	0.00e+00	0	23	0	757071872	74	5090
2026-01-10 08:10:24.56	31.39	43.12	-55.2	-58.4	13.0	0.00e+00	0	23	0	764411904	75	5554
2026-01-10 08:10:28.57	29.39	42.88	-54.2	-56.7	14.0	0.00e+00	0	23	0	771751936	74	4858
2026-01-10 08:10:32.60	27.42	42.59	-53.5	-55.7	14.5	0.00e+00	0	23	0	779091968	73	4593
2026-01-10 08:10:36.62	25.49	42.27	-52.0	-53.8	15.1	0.00e+00	0	23	0	786432000	70	4383
2026-01-10 08:10:40.63	23.61	41.92	-52.3	-54.2	14.8	0.00e+00	0	23	0	794820608	70	4584
2026-01-10 08:10:44.66	21.76	41.54	-51.0	-52.7	15.3	0.00e+00	0	23	0	802160640	68	4296
2026-01-10 08:10:48.68	19.96	41.12	-50.7	-52.3	15.5	0.00e+00	0	23	0	809500672	68	4110
2026-01-10 08:10:52.70	18.20	40.69	-50.2	-51.7	15.6	0.00e+00	0	23	0	816840704	67	4079
2026-01-10 08:10:56.72	16.50	40.23	-50.2	-51.7	15.5	0.00e+00	0	23	0	824180736	66	4306
2026-01-10 08:11:00.75	14.84	39.74	-49.9	-51.3	15.6	0.00e+00	0	23	0	832569344	66	4138
2026-01-10 08:11:04.77	13.23	39.24	-50.0	-51.5	15.6	0.00e+00	0	23	0	839909376	66	4210
2026-01-10 08:11:08.79	11.68	38.72	-50.3	-51.8	15.4	0.00e+00	0	23	0	847249408	66	4379
2026-01-10 08:11:12.80	10.18	38.18	-50.4	-52.0	15.3	0.00e+00	0	23	0	854589440	66	4451
2026-01-10 08:11:16.83	8.72	37.63	-51.0	-52.6	15.2	0.00e+00	0	23	0	861929472	67	4528
2026-01-10 08:11:20.85	7.31	37.07	-51.2	-53.0	15.0	0.00e+00	0	23	0	870318080	67	4710
2026-01-10 08:11:24.87	5.95	36.50	-51.9	-53.7	14.9	0.00e+00	0	23	0	877658112	69	4587
2026-01-10 08:11:28.88	4.65	35.93	-51.9	-53.7	15.0	0.00e+00	0	23	0	884998144	69	4572
2026-01-10 08:11:32.90	3.38	35.35	-52.4	-54.3	14.6	0.00e+00	0	23	0	892338176	69	4911
2026-01-10 08:11:36.92	2.16	34.76	-53.2	-55.4	14.4	0.00e+00	0	23	0	899678208	71	4938
2026-01-10 08:11:40.95	0.98	34.17	-53.1	-55.3	14.4	0.00e+00	0	23	0	907018240	71	4910
2026-01-10 08:11:44.95	359.86	33.58	-54.0	-56.5	14.0	0.00e+00	0	23	0	915406848	73	4996
2026-01-10 08:11:48.97	358.76	32.98	-53.8	-56.2	14.1	0.00e+00	0	23	0	922746880	73	4837
2026-01-10 08:11:53.00	357.71	32.39	-54.5	-57.3	13.6	0.00e+00	0	23	0	930086912	74	5203
2026-01-10 08:11:57.03	356.69	31.79	-54.6	-57.4	13.5	0.00e+00	0	23	0	937426944	74	5247
2026-01-10 08:12:01.04	355.72	31.20	-54.0	-56.5	14.1	0.00e+00	0	23	0	944766976	74	4706
2026-01-10 08:12:05.06	354.78	30.62	-54.2	-56.9	13.9	0.00e+00	0	23	0	953155584	74	4952
2026-01-10 08:12:09.09	353.87	30.03	-53.9	-56.3	14.2	0.00e+00	0	23	0	960495616	74	4647
2026-01-10 08:12:13.12	352.99	29.45	-53.5	-55.9	14.3	0.00e+00	0	23	0	967835648	73	4662
2026-01-10 08:12:17.15	352.14	28.87	-53.3	-55.5	14.6	0.00e+00	0	23	0	975175680	73	4453
2026-01-10 08:12:21.18	351.33	28.30	-53.2	-55.5	14.4	0.00e+00	0	23	0	982515712	72	4706
2026-01-10 08:12:25.21	350.54	27.73	-52.9	-55.0	14.7	0.00e+00	0	23	0	990904320	72	4461
2026-01-10 08:12:29.23	349.78	27.17	-52.9	-54.9	14.7	0.00e+00	0	23	0	998244352	72	4441
2026-01-10 08:12:33.25	349.05	26.62	-52.7	-54.8	14.7	0.00e+00	0	23	0	1005584384	71	4611
2026-01-10 08:12:37.28	348.34	26.07	-52.4	-54.4	14.9	0.00e+00	0	23	0	1012924416	71	4426
2026-01-10 08:12:41.30	347.66	25.53	-52.8	-54.9	14.5	0.00e+00	0	24	0	1020264448	71	4699
2026-01-10 08:12:45.32	347.00	24.99	-52.6	-54.6	14.8	0.00e+00	0	23	0	1028653056	71	4509
2026-01-10 08:12:49.35	346.37	24.46	-52.3	-54.2	15.0	0.00e+00	0	23	0	1035993088	71	4327
2026-01-10 08:12:53.37	345.75	23.94	-52.4	-54.3	14.9	0.00e+00	0	23	0	1043333120	71	4370
2026-01-10 08:12:57.39	345.16	23.43	-52.5	-54.6	14.8	0.00e+00	0	23	0	1050673152	71	4506
2026-01-10 08:13:01.42	344.58	22.92	-52.6	-54.7	14.7	0.00e+00	0	23	0	1058013184	71	4579
2026-01-10 08:13:05.43	344.03	22.42	-52.6	-54.7	14.7	0.00e+00	0	23	0	1066401792	71	4550
2026-01-10 08:13:09.46	343.49	21.92	-52.3	-54.3	14.9	0.00e+00	0	23	0	1073741824	71	4341
2026-01-10 08:13:13.47	342.97	21.44	-52.2	-54.1	14.8	0.00e+00	0	24	0	1081081856	70	4515
2026-01-10 08:13:17.50	342.47	20.96	-52.2	-54.2	14.8	0.00e+00	0	23	0	1088421888	70	4566
2026-01-10 08:13:21.53	341.98	20.48	-52.3	-54.3	14.7	0.00e+00	0	23	0	1095761920	70	4629
2026-01-10 08:13:25.55	341.50	20.01	-52.3	-54.3	14.7	0.00e+00	0	24	0	1104150528	70	4622
2026-01-10 08:13:29.59	341.04	19.55	-52.2	-54.2	14.7	0.00e+00	0	23	0	1111490560	70	4571
2026-01-10 08:13:33.62	340.60	19.10	-52.3	-54.3	14.6	0.00e+00	0	23	0	1118830592	70	4647
2026-01-10 08:13:37.65	340.16	18.65	-52.6	-54.7	14.5	0.00e+00	0	24	0	1126170624	70	4836
2026-01-10 08:13:41.67	339.75	18.21	-52.5	-54.6	14.5	0.00e+00	0	24	0	1133510656	70	4811
2026-01-10 08:13:45.70	339.34	17.77	-52.3	-54.3	14.7	0.00e+00	0	24	0	1140850688	70	4644
2026-01-10 08:13:49.72	338.94	17.34	-52.5	-54.5	14.6	0.00e+00	0	24	0	1149239296	70	4755
2026-01-10 08:13:53.75	338.56	16.92	-52.7	-54.9	14.3	0.00e+00	0	23	0	1156579328	70	4945
2026-01-10 08:13:57.78	338.19	16.50	-52.7	-54.8	14.4	0.00e+00	0	24	0	1163919360	70	4920
2026-01-10 08:14:01.79	337.83	16.09	-52.9	-55.2	14.2	0.00e+00	0	23	0	1171259392	70	5114
2026-01-10 08:14:05.81	337.48	15.68	-52.8	-55.1	14.2	0.00e+00	0	23	0	1179648000	70	5078
2026-01-10 08:14:09.83	337.14	15.28	-52.8	-55.0	14.3	0.00e+00	0	24	0	1186988032	70	5008
2026-01-10 08:14:13.86	336.80	14.89	-52.8	-55.1	14.2	0.00e+00	0	23	0	1194328064	70	5059
2026-01-10 08:14:17.89	336.48	14.50	-53.1	-55.4	14.2	0.00e+00	0	23	0	1201668096	71	4950
2026-01-10 08:14:21.91	336.16	14.11	-52.9	-55.2	14.2	0.00e+00	0	23	0	1209008128	71	4865
2026-01-10 08:14:25.93	335.86	13.73	-52.8	-55.0	14.4	0.00e+00	0	23	0	1216348160	71	4728
2026-01-10 08:14:29.95	335.56	13.36	-52.8	-55.1	14.3	0.00e+00	0	23	0	1224736768	71	4784
2026-01-10 08:14:33.97	335.27	12.99	-53.0	-55.4	14.1	0.00e+00	0	23	0	1232076800	71	4949
2026-01-10 08:14:38.00	334.99	12.62	-53.3	-55.7	13.9	0.00e+00	0	23	0	1239416832	71	5152
2026-01-10 08:14:42.02	334.71	12.27	-53.5	-56.1	13.9	0.00e+00	0	23	0	1246756864	72	5047
2026-01-10 08:14:46.05	334.44	11.91	-53.5	-56.0	13.8	0.00e+00	0	24	0	1254096896	72	5041
2026-01-10 08:14:50.08	334.18	11.56	-53.3	-55.9	14.0	0.00e+00	0	23	0	1262485504	72	4939
2026-01-10 08:14:54.11	333.92	11.21	-53.3	-55.8	13.9	0.00e+00	0	23	0	1269825536	72	4925
2026-01-10 08:14:58.13	333.67	10.87	-53.3	-55.7	14.0	0.00e+00	0	23	0	1277165568	72	4870
2026-01-10 08:15:02.15	333.43	10.53	-53.4	-55.9	13.9	0.00e+00	0	23	0	1284505600	72	4978
2026-01-10 08:15:06.17	333.20	10.20	-53.4	-55.9	13.9	0.00e+00	0	23	0	1291845632	72	4976
2026-01-10 08:15:10.20	332.96	9.87	-53.4	-56.0	13.9	0.00e+00	0	23	0	1300234240	72	4992
2026-01-10 08:15:14.23	332.74	9.54	-53.6	-56.3	13.6	0.00e+00	0	23	0	1307574272	72	5184
2026-01-10 08:15:18.25	332.52	9.22	-53.4	-56.0	13.8	0.00e+00	0	24	0	1314914304	72	5040
2026-01-10 08:15:22.28	332.30	8.90	-53.5	-56.2	13.6	0.00e+00	0	24	0	1322254336	72	5139
2026-01-10 08:15:26.32	332.09	8.58	-53.5	-56.3	13.6	0.00e+00	0	23	0	1329594368	72	5179
2026-01-10 08:15:30.34	331.88	8.27	-53.5	-56.3	13.6	0.00e+00	0	23	0	1337982976	72	5178
2026-01-10 08:15:34.37	331.68	7.96	-53.6	-56.5	13.4	0.00e+00	0	23	0	1345323008	72	5288
2026-01-10 08:15:38.40	331.49	7.66	-53.7	-56.7	13.3	0.00e+00	0	23	0	1352663040	72	5438
2026-01-10 08:15:42.43	331.29	7.35	-53.9	-57.0	13.2	0.00e+00	0	23	0	1360003072	73	5327
2026-01-10 08:15:46.46	331.10	7.05	-53.9	-57.0	13.2	0.00e+00	0	23	0	1368391680	73	5318
2026-01-10 08:15:50.49	330.92	6.76	-53.9	-57.0	13.1	0.00e+00	0	24	0	1375731712	73	5331
2026-01-10 08:15:54.51	330.74	6.47	-53.8	-56.9	13.2	0.00e+00	0	23	0	1383071744	73	5273
2026-01-10 08:15:58.54	330.56	6.18	-53.9	-57.1	13.0	0.00e+00	0	23	0	1390411776	73	5378
2026-01-10 08:16:02.56	330.39	5.89	-53.9	-57.0	13.1	0.00e+00	0	23	0	1397751808	73	5307
2026-01-10 08:16:06.59	330.22	5.61	-53.9	-57.0	13.0	0.00e+00	0	23	0	1405091840	73	5333
2026-01-10 08:16:10.63	330.06	5.33	-53.9	-57.2	12.9	0.00e+00	0	23	0	1413480448	73	5429
2026-01-10 08:16:14.65	329.90	5.05	-54.1	-57.5	12.6	7.00e-07	0	23	0	1420820480	73	5638
2026-01-10 08:16:18.69	329.74	4.77	-58.5	-74.5	3.8	1.49e+00	0	24	104	1422917632	82	23775
2026-01-10 08:16:22.71	329.58	4.50	-59.1	-75.2	3.8	1.49e+00	0	23	104	1422917632	83	24163
2026-01-10 08:16:26.75	329.43	4.23	-59.3	-75.4	3.8	1.49e+00	0	24	104	1422917632	83	24778
2026-01-10 08:16:30.78	329.28	3.96	-59.6	-75.7	3.8	1.49e+00	0	24	104	1422917632	84	24203
2026-01-10 08:16:34.80	329.14	3.69	-59.7	-75.8	3.8	1.49e+00	0	23	104	1422917632	84	24477
2026-01-10 08:16:38.83	328.99	3.43	-59.7	-75.7	3.8	1.49e+00	0	24	104	1422917632	84	24308
2026-01-10 08:16:42.86	328.85	3.17	-59.6	-75.7	3.8	1.49e+00	0	23	104	1422917632	84	24286
2026-01-10 08:16:46.90	328.71	2.91	-59.6	-75.7	3.8	1.49e+00	0	23	104	1422917632	84	24141
2026-01-10 08:16:50.92	328.58	2.65	-59.6	-75.6	3.8	1.49e+00	0	24	104	1422917632	84	24032
2026-01-10 08:16:54.94	328.45	2.40	-59.6	-75.6	3.8	1.49e+00	0	23	104	1422917632	84	23990
2026-01-10 08:16:58.97	328.32	2.15	-59.5	-75.6	3.8	1.49e+00	0	24	104	1422917632	84	23967

#Closed at: 2026-01-10 08:17:02
#Recorded file [1422 MB]: D:/lorett/data/31004_260110_110305.dat