passes_logs/2026/01/10/R3.2S_Murmansk/R3.2S_Murmansk__20260110_134405_FENGYUN_3D_rec.log

#Pass ID: 20260110_134405_FENGYUN 3D
#Satellite: FENGYUN 3D
#Configuration: FENGYUN 3D
#almurnet v.1.7.20251203
#Start time: 2026-01-10 13:44:05

#Version: 2.2.20231116
#Station: R3.2S_Murmansk
#Location: 33.079688 lon 68.888172 lat
#TLE: 1 43010U 17072A   26009.92921666 -.00000228  00000+0 -86059-4 0  9998
#TLE: 2 43010  98.9936 341.6668 0002176 116.7510 243.3888 14.19693142422537

#Time	Az	El	Level	Level2	SNR	BER	BlckErr	Temp	State	Recorded	gain1	gain2
2026-01-10 13:44:05.41	206.42	2.02	-57.4	-70.4	3.8	8.46e-01	0	21	0	0	81	15592
2026-01-10 13:44:09.40	206.69	2.24	-57.3	-70.2	3.8	8.45e-01	0	21	104	0	79	17207
2026-01-10 13:44:13.41	206.95	2.47	-57.3	-70.3	3.8	8.46e-01	0	21	104	0	79	17341
2026-01-10 13:44:17.41	207.22	2.70	-57.3	-70.2	3.8	8.45e-01	0	21	104	0	79	17272
2026-01-10 13:44:21.40	207.50	2.93	-57.3	-70.3	3.8	8.46e-01	0	22	104	0	79	17412
2026-01-10 13:44:25.39	207.77	3.17	-57.3	-70.2	3.8	8.46e-01	0	21	104	0	79	17270
2026-01-10 13:44:29.39	208.06	3.40	-57.3	-70.1	3.8	8.45e-01	0	22	104	0	79	16895
2026-01-10 13:44:33.39	208.34	3.63	-57.3	-69.8	3.8	8.45e-01	0	22	104	0	79	16369
2026-01-10 13:44:37.38	208.63	3.87	-57.3	-69.4	3.8	8.45e-01	0	22	104	0	79	15717
2026-01-10 13:44:41.36	208.93	4.11	-57.3	-70.2	3.8	8.45e-01	0	22	104	0	79	17205
2026-01-10 13:44:45.36	209.23	4.35	-57.1	-67.4	4.1	8.41e-01	0	22	0	0	79	12422
2026-01-10 13:44:49.36	209.53	4.59	-56.8	-65.0	4.9	7.82e-01	0	22	0	0	79	9423
2026-01-10 13:44:53.37	209.84	4.83	-56.3	-62.5	6.4	2.93e-01	0	22	0	5242880	79	7102
2026-01-10 13:44:57.37	210.16	5.08	-54.0	-57.2	10.9	6.13e-04	0	22	0	28311552	74	5135
2026-01-10 13:45:01.35	210.48	5.32	-51.9	-53.9	13.2	2.78e-04	0	22	0	44040192	70	4434
2026-01-10 13:45:05.35	210.80	5.57	-48.8	-50.3	14.8	0.00e+00	0	22	0	66060288	64	4129
2026-01-10 13:45:09.35	211.13	5.82	-48.7	-50.2	14.7	0.00e+00	0	22	0	88080384	63	4305
2026-01-10 13:45:13.35	211.47	6.07	-48.1	-49.5	15.0	0.00e+00	0	22	0	111149056	62	4201
2026-01-10 13:45:17.33	211.81	6.32	-48.2	-49.5	15.0	0.00e+00	0	23	0	133169152	62	4228
2026-01-10 13:45:21.33	212.15	6.58	-48.2	-49.6	15.0	0.00e+00	0	22	0	156237824	62	4245
2026-01-10 13:45:25.33	212.51	6.83	-48.1	-49.5	15.0	0.00e+00	0	23	0	178257920	62	4209
2026-01-10 13:45:29.33	212.86	7.09	-48.3	-49.7	14.9	0.00e+00	0	22	0	201326592	62	4302
2026-01-10 13:45:33.31	213.23	7.35	-48.2	-49.5	15.0	0.00e+00	0	23	0	223346688	62	4242
2026-01-10 13:45:37.30	213.60	7.61	-48.3	-49.7	15.0	0.00e+00	0	23	0	245366784	62	4292
2026-01-10 13:45:41.28	213.97	7.87	-48.2	-49.6	15.0	0.00e+00	0	23	0	268435456	62	4255
2026-01-10 13:45:45.26	214.36	8.13	-48.0	-49.3	15.2	0.00e+00	0	23	0	290455552	62	4122
2026-01-10 13:45:49.26	214.75	8.40	-47.9	-49.2	15.2	0.00e+00	0	23	0	313524224	62	4061
2026-01-10 13:45:53.27	215.15	8.67	-47.9	-49.2	15.2	0.00e+00	0	23	0	335544320	62	4085
2026-01-10 13:45:57.27	215.55	8.94	-47.9	-49.1	15.3	0.00e+00	0	23	0	358612992	62	4046
2026-01-10 13:46:01.27	215.96	9.21	-47.5	-48.8	15.3	0.00e+00	0	23	0	380633088	61	4101
2026-01-10 13:46:05.27	216.38	9.48	-47.5	-48.8	15.3	0.00e+00	0	23	0	403701760	61	4101
2026-01-10 13:46:09.27	216.81	9.76	-47.4	-48.6	15.4	0.00e+00	0	23	0	425721856	61	4036
2026-01-10 13:46:13.27	217.24	10.03	-47.4	-48.7	15.4	0.00e+00	0	23	0	448790528	61	4063
2026-01-10 13:46:17.27	217.69	10.31	-47.3	-48.6	15.4	0.00e+00	0	23	0	470810624	61	4012
2026-01-10 13:46:21.27	218.14	10.59	-47.4	-48.7	15.4	0.00e+00	0	23	0	492830720	61	4052
2026-01-10 13:46:25.28	218.60	10.87	-47.4	-48.7	15.4	0.00e+00	0	23	0	515899392	61	4062
2026-01-10 13:46:29.28	219.06	11.16	-47.1	-48.3	15.4	0.00e+00	0	23	0	537919488	60	4119
2026-01-10 13:46:33.28	219.54	11.44	-47.1	-48.4	15.4	0.00e+00	0	23	0	560988160	60	4147
2026-01-10 13:46:37.26	220.02	11.72	-47.1	-48.3	15.4	0.00e+00	0	23	0	583008256	60	4145
2026-01-10 13:46:41.24	220.52	12.01	-47.0	-48.2	15.4	0.00e+00	0	23	0	605028352	60	4096
2026-01-10 13:46:45.24	221.02	12.30	-47.1	-48.3	15.3	0.00e+00	0	23	0	628097024	59	4359
2026-01-10 13:46:49.24	221.53	12.59	-47.2	-48.4	15.3	0.00e+00	0	23	0	650117120	59	4431
2026-01-10 13:46:53.24	222.06	12.88	-47.2	-48.4	15.3	0.00e+00	0	23	0	673185792	59	4437
2026-01-10 13:46:57.24	222.59	13.17	-47.2	-48.4	15.3	0.00e+00	0	23	0	695205888	59	4417
2026-01-10 13:47:01.24	223.14	13.47	-47.2	-48.4	15.3	0.00e+00	0	23	0	718274560	59	4435
2026-01-10 13:47:05.24	223.69	13.76	-47.2	-48.4	15.3	0.00e+00	0	23	0	740294656	59	4408
2026-01-10 13:47:09.23	224.25	14.06	-46.8	-48.0	15.4	0.00e+00	0	23	0	763363328	59	4233
2026-01-10 13:47:13.22	224.83	14.36	-46.7	-47.9	15.5	0.00e+00	0	23	0	785383424	59	4153
2026-01-10 13:47:17.21	225.42	14.66	-46.6	-47.8	15.5	0.00e+00	0	23	0	808452096	59	4125
2026-01-10 13:47:21.21	226.02	14.95	-46.5	-47.6	15.6	0.00e+00	0	23	0	830472192	59	4051
2026-01-10 13:47:25.20	226.62	15.25	-46.4	-47.5	15.7	0.00e+00	0	23	0	852492288	59	4004
2026-01-10 13:47:29.19	227.25	15.55	-46.4	-47.6	15.7	0.00e+00	0	23	0	875560960	59	4014
2026-01-10 13:47:33.18	227.88	15.86	-46.3	-47.5	15.7	0.00e+00	0	23	0	897581056	59	3963
2026-01-10 13:47:37.16	228.52	16.16	-46.3	-47.5	15.7	0.00e+00	0	23	0	920649728	59	3985
2026-01-10 13:47:41.15	229.18	16.46	-46.1	-47.3	15.6	0.00e+00	0	23	0	942669824	58	4109
2026-01-10 13:47:45.15	229.86	16.76	-46.2	-47.4	15.6	0.00e+00	0	23	0	965738496	58	4151
2026-01-10 13:47:49.14	230.54	17.06	-46.1	-47.2	15.6	0.00e+00	0	23	0	987758592	58	4092
2026-01-10 13:47:53.13	231.24	17.36	-45.8	-46.9	15.7	0.00e+00	0	23	0	1009778688	58	3958
2026-01-10 13:47:57.13	231.95	17.66	-45.9	-47.0	15.7	0.00e+00	0	23	0	1032847360	58	3996
2026-01-10 13:48:01.11	232.68	17.96	-46.0	-47.2	15.7	0.00e+00	0	23	0	1054867456	58	4053
2026-01-10 13:48:05.11	233.42	18.26	-45.8	-47.0	15.7	0.00e+00	0	23	0	1077936128	58	3966
2026-01-10 13:48:09.11	234.17	18.56	-45.6	-46.7	15.7	0.00e+00	0	23	0	1099956224	57	4093
2026-01-10 13:48:13.11	234.94	18.86	-45.8	-46.9	15.6	0.00e+00	0	23	0	1121976320	57	4181
2026-01-10 13:48:17.11	235.73	19.16	-45.7	-46.8	15.7	0.00e+00	0	23	0	1145044992	57	4145
2026-01-10 13:48:21.11	236.53	19.45	-45.4	-46.6	15.8	0.00e+00	0	23	0	1167065088	57	4008
2026-01-10 13:48:25.11	237.34	19.74	-45.5	-46.6	15.7	0.00e+00	0	23	0	1190133760	57	4040
2026-01-10 13:48:29.11	238.18	20.03	-45.8	-46.9	15.7	0.00e+00	0	23	0	1212153856	57	4162
2026-01-10 13:48:33.11	239.02	20.32	-45.3	-46.4	15.8	0.00e+00	0	23	0	1235222528	57	3924
2026-01-10 13:48:37.10	239.88	20.60	-45.3	-46.4	15.8	0.00e+00	0	23	0	1257242624	57	3943
2026-01-10 13:48:41.07	240.75	20.88	-45.3	-46.3	15.9	0.00e+00	0	23	0	1279262720	57	3911
2026-01-10 13:48:45.05	241.64	21.16	-45.4	-46.5	15.8	0.00e+00	0	23	0	1302331392	57	3964
2026-01-10 13:48:49.04	242.54	21.43	-45.5	-46.6	15.8	0.00e+00	0	23	0	1324351488	57	4014
2026-01-10 13:48:53.04	243.47	21.70	-45.2	-46.3	15.9	0.00e+00	0	23	0	1347420160	57	3892
2026-01-10 13:48:57.04	244.40	21.96	-45.1	-46.2	15.7	0.00e+00	0	23	0	1369440256	56	4088
2026-01-10 13:49:01.03	245.36	22.22	-45.2	-46.3	15.7	0.00e+00	0	23	0	1391460352	56	4116
2026-01-10 13:49:05.03	246.33	22.48	-44.6	-45.7	15.8	0.00e+00	0	23	0	1414529024	55	4075
2026-01-10 13:49:09.02	247.31	22.72	-44.9	-46.0	15.7	0.00e+00	0	23	0	1436549120	55	4233
2026-01-10 13:49:13.01	248.31	22.96	-44.7	-45.8	15.7	0.00e+00	0	23	0	1459617792	55	4133
2026-01-10 13:49:17.01	249.32	23.20	-44.6	-45.7	15.8	0.00e+00	0	23	0	1481637888	55	4072
2026-01-10 13:49:21.01	250.35	23.43	-44.7	-45.7	15.8	0.00e+00	0	23	0	1504706560	55	4095
2026-01-10 13:49:25.01	251.40	23.64	-44.5	-45.6	15.8	0.00e+00	0	23	0	1526726656	55	4008
2026-01-10 13:49:29.00	252.45	23.86	-44.6	-45.7	15.8	0.00e+00	0	23	0	1548746752	55	4062
2026-01-10 13:49:33.00	253.52	24.06	-44.5	-45.6	15.8	0.00e+00	0	23	0	1571815424	55	4036
2026-01-10 13:49:36.99	254.61	24.25	-44.3	-45.3	15.9	0.00e+00	0	23	0	1593835520	55	3891
2026-01-10 13:49:40.97	255.70	24.44	-44.3	-45.4	15.9	0.00e+00	0	23	0	1616904192	55	3914
2026-01-10 13:49:44.95	256.80	24.61	-44.2	-45.2	15.9	0.00e+00	0	23	0	1638924288	55	3866
2026-01-10 13:49:48.96	257.93	24.78	-44.3	-45.4	15.9	0.00e+00	0	23	0	1661992960	55	3936
2026-01-10 13:49:52.95	259.06	24.93	-44.2	-45.2	16.0	0.00e+00	0	23	0	1684013056	55	3858
2026-01-10 13:49:56.95	260.20	25.07	-44.2	-45.3	15.8	0.00e+00	0	23	0	1706033152	54	4117
2026-01-10 13:50:00.96	261.36	25.21	-44.4	-45.5	15.8	0.00e+00	0	23	0	1729101824	54	4194
2026-01-10 13:50:04.94	262.52	25.33	-44.4	-45.4	15.8	0.00e+00	0	23	0	1751121920	54	4171
2026-01-10 13:50:08.94	263.69	25.44	-44.1	-45.2	15.8	0.00e+00	0	23	0	1774190592	54	4080
2026-01-10 13:50:12.94	264.87	25.53	-44.2	-45.2	15.8	0.00e+00	0	23	0	1796210688	54	4094
2026-01-10 13:50:16.93	266.05	25.62	-44.2	-45.2	15.8	0.00e+00	0	23	0	1819279360	54	4093
2026-01-10 13:50:20.93	267.24	25.69	-44.4	-45.4	15.8	0.00e+00	0	23	0	1841299456	54	4192
2026-01-10 13:50:24.92	268.43	25.75	-44.2	-45.2	15.8	0.00e+00	0	23	0	1864368128	54	4079
2026-01-10 13:50:28.92	269.63	25.80	-44.5	-45.5	15.7	0.00e+00	0	23	0	1886388224	54	4240
2026-01-10 13:50:32.90	270.82	25.83	-44.4	-45.5	15.8	0.00e+00	0	23	0	1908408320	54	4222
2026-01-10 13:50:36.89	272.03	25.85	-44.3	-45.4	15.8	0.00e+00	0	23	0	1931476992	54	4163
2026-01-10 13:50:40.89	273.23	25.86	-44.2	-45.3	15.8	0.00e+00	0	23	0	1953497088	54	4105
2026-01-10 13:50:44.89	274.43	25.85	-44.3	-45.4	15.8	0.00e+00	0	23	0	1976565760	54	4158
2026-01-10 13:50:48.88	275.64	25.83	-44.3	-45.4	15.8	0.00e+00	0	23	0	1998585856	54	4164
2026-01-10 13:50:52.87	276.83	25.80	-44.4	-45.4	15.8	0.00e+00	0	23	0	2020605952	54	4190
2026-01-10 13:50:56.87	278.03	25.76	-44.3	-45.4	15.8	0.00e+00	0	23	0	2043674624	54	4149
2026-01-10 13:51:00.87	279.23	25.70	-44.3	-45.3	15.8	0.00e+00	0	23	0	2065694720	54	4125
2026-01-10 13:51:04.88	280.42	25.63	-44.5	-45.5	15.7	0.00e+00	0	23	0	2088763392	54	4227
2026-01-10 13:51:08.86	281.60	25.54	-44.5	-45.6	15.7	0.00e+00	0	23	0	2110783488	54	4256
2026-01-10 13:51:12.87	282.78	25.45	-44.5	-45.5	15.8	0.00e+00	0	23	0	2133852160	54	4229
2026-01-10 13:51:16.85	283.94	25.34	-44.4	-45.4	15.8	0.00e+00	0	23	0	2155872256	54	4193
2026-01-10 13:51:20.85	285.11	25.22	-44.4	-45.4	15.8	0.00e+00	0	23	0	2178940928	54	4186
2026-01-10 13:51:24.83	286.25	25.09	-44.5	-45.6	15.7	0.00e+00	0	23	0	2200961024	54	4277
2026-01-10 13:51:28.82	287.39	24.95	-44.9	-46.0	15.7	0.00e+00	0	23	0	2222981120	55	4234
2026-01-10 13:51:32.81	288.52	24.80	-44.7	-45.8	15.7	0.00e+00	0	23	0	2246049792	55	4118
2026-01-10 13:51:36.80	289.64	24.64	-44.7	-45.8	15.7	0.00e+00	0	23	0	2268069888	55	4128
2026-01-10 13:51:40.79	290.75	24.46	-44.7	-45.7	15.8	0.00e+00	0	23	0	2290089984	55	4091
2026-01-10 13:51:44.78	291.84	24.28	-44.9	-46.0	15.7	0.00e+00	0	23	0	2313158656	55	4206
2026-01-10 13:51:48.77	292.93	24.09	-44.6	-45.7	15.8	0.00e+00	0	23	0	2335178752	55	4060
2026-01-10 13:51:52.75	293.99	23.89	-44.8	-45.9	15.7	0.00e+00	0	23	0	2358247424	55	4180
2026-01-10 13:51:56.75	295.05	23.68	-45.0	-46.1	15.7	0.00e+00	0	23	0	2380267520	55	4254
2026-01-10 13:52:00.76	296.10	23.46	-45.2	-46.3	15.6	0.00e+00	0	23	0	2403336192	55	4374
2026-01-10 13:52:04.75	297.12	23.24	-45.1	-46.2	15.6	0.00e+00	0	23	0	2425356288	55	4324
2026-01-10 13:52:08.76	298.14	23.00	-45.1	-46.2	15.6	0.00e+00	0	23	0	2448424960	55	4299
2026-01-10 13:52:12.76	299.14	22.76	-45.1	-46.1	15.6	0.00e+00	0	23	0	2470445056	55	4291
2026-01-10 13:52:16.76	300.12	22.52	-45.2	-46.3	15.6	0.00e+00	0	23	0	2493513728	55	4361
2026-01-10 13:52:20.76	301.09	22.27	-45.3	-46.4	15.6	0.00e+00	0	23	0	2515533824	55	4430
2026-01-10 13:52:24.76	302.05	22.01	-45.0	-46.1	15.6	0.00e+00	0	23	0	2537553920	55	4265
2026-01-10 13:52:28.75	302.98	21.75	-45.2	-46.3	15.6	0.00e+00	0	23	0	2560622592	55	4381
2026-01-10 13:52:32.75	303.91	21.48	-45.8	-46.9	15.5	0.00e+00	0	23	0	2582642688	56	4415
2026-01-10 13:52:36.73	304.81	21.21	-45.5	-46.6	15.6	0.00e+00	0	23	0	2605711360	56	4279
2026-01-10 13:52:40.71	305.70	20.94	-45.6	-46.7	15.6	0.00e+00	0	23	0	2627731456	56	4306
2026-01-10 13:52:44.70	306.57	20.66	-45.7	-46.9	15.6	0.00e+00	0	23	0	2649751552	56	4394
2026-01-10 13:52:48.68	307.43	20.38	-45.8	-46.9	15.6	0.00e+00	0	23	0	2672820224	57	4179
2026-01-10 13:52:52.67	308.27	20.09	-45.7	-46.8	15.7	0.00e+00	0	23	0	2694840320	57	4119
2026-01-10 13:52:56.67	309.10	19.80	-46.0	-47.1	15.6	0.00e+00	0	23	0	2717908992	57	4275
2026-01-10 13:53:00.65	309.91	19.52	-46.1	-47.2	15.5	0.00e+00	0	23	0	2739929088	57	4332
2026-01-10 13:53:04.63	310.71	19.23	-46.3	-47.5	15.4	0.00e+00	0	23	0	2761949184	57	4466
2026-01-10 13:53:08.61	311.49	18.93	-46.3	-47.4	15.5	0.00e+00	0	23	0	2785017856	57	4437
2026-01-10 13:53:12.60	312.26	18.64	-46.2	-47.4	15.5	0.00e+00	0	23	0	2807037952	57	4418
2026-01-10 13:53:16.60	313.01	18.34	-46.1	-47.2	15.5	0.00e+00	0	23	0	2830106624	57	4319
2026-01-10 13:53:20.60	313.75	18.04	-46.2	-47.3	15.5	0.00e+00	0	23	0	2852126720	57	4389
2026-01-10 13:53:24.59	314.48	17.74	-46.7	-48.0	15.4	0.00e+00	0	23	0	2874146816	58	4445
2026-01-10 13:53:28.59	315.19	17.44	-46.6	-47.7	15.4	0.00e+00	0	23	0	2897215488	58	4332
2026-01-10 13:53:32.60	315.90	17.14	-46.5	-47.7	15.4	0.00e+00	0	23	0	2919235584	58	4310
2026-01-10 13:53:36.57	316.58	16.85	-46.7	-47.9	15.3	0.00e+00	0	23	0	2942304256	58	4435
2026-01-10 13:53:40.56	317.25	16.55	-46.7	-47.9	15.4	0.00e+00	0	23	0	2964324352	58	4433
2026-01-10 13:53:44.55	317.91	16.25	-46.8	-48.0	15.3	0.00e+00	0	23	0	2987393024	58	4451
2026-01-10 13:53:48.53	318.55	15.95	-46.6	-47.8	15.4	0.00e+00	0	24	0	3009413120	58	4354
2026-01-10 13:53:52.53	319.19	15.65	-46.8	-48.0	15.3	0.00e+00	0	23	0	3031433216	58	4471
2026-01-10 13:53:56.51	319.81	15.35	-46.7	-47.9	15.5	0.00e+00	0	23	0	3054501888	59	4147
2026-01-10 13:54:00.50	320.42	15.05	-46.7	-47.9	15.5	0.00e+00	0	23	0	3076521984	59	4160
2026-01-10 13:54:04.49	321.02	14.76	-46.9	-48.1	15.4	0.00e+00	0	23	0	3098542080	59	4263
2026-01-10 13:54:08.48	321.61	14.46	-47.2	-48.4	15.3	0.00e+00	0	23	0	3121610752	59	4429
2026-01-10 13:54:12.49	322.18	14.16	-47.0	-48.2	15.3	0.00e+00	0	23	0	3143630848	59	4333
2026-01-10 13:54:16.48	322.75	13.87	-47.1	-48.4	15.3	0.00e+00	0	23	0	3166699520	59	4406
2026-01-10 13:54:20.48	323.30	13.57	-47.2	-48.4	15.3	0.00e+00	0	23	0	3188719616	59	4427
2026-01-10 13:54:24.46	323.85	13.28	-47.3	-48.5	15.2	0.00e+00	0	23	0	3211788288	59	4479
2026-01-10 13:54:28.45	324.38	12.99	-47.0	-48.2	15.4	0.00e+00	0	23	0	3233808384	60	4066
2026-01-10 13:54:32.45	324.91	12.70	-47.0	-48.2	15.4	0.00e+00	0	23	0	3255828480	60	4064
2026-01-10 13:54:36.43	325.42	12.42	-47.0	-48.2	15.4	0.00e+00	0	23	0	3278897152	60	4093
2026-01-10 13:54:40.43	325.92	12.13	-47.1	-48.3	15.3	0.00e+00	0	23	0	3300917248	60	4144
2026-01-10 13:54:44.43	326.42	11.84	-47.2	-48.5	15.3	0.00e+00	0	23	0	3323985920	60	4210
2026-01-10 13:54:48.41	326.90	11.56	-47.3	-48.5	15.3	0.00e+00	0	23	0	3346006016	60	4213
2026-01-10 13:54:52.40	327.38	11.28	-47.2	-48.4	15.3	0.00e+00	0	23	0	3368026112	60	4168
2026-01-10 13:54:56.41	327.85	11.00	-47.1	-48.3	15.3	0.00e+00	0	23	0	3391094784	60	4131
2026-01-10 13:55:00.41	328.31	10.72	-47.1	-48.3	15.3	0.00e+00	0	23	0	3413114880	60	4120
2026-01-10 13:55:04.43	328.77	10.44	-47.3	-48.6	15.2	0.00e+00	0	23	0	3436183552	60	4246
2026-01-10 13:55:08.43	329.21	10.16	-47.5	-48.8	15.1	0.00e+00	0	23	0	3458203648	60	4360
2026-01-10 13:55:12.43	329.65	9.88	-47.7	-49.1	15.0	0.00e+00	0	24	0	3481272320	60	4506
2026-01-10 13:55:16.43	330.08	9.61	-47.9	-49.2	15.0	0.00e+00	0	23	0	3503292416	61	4322
2026-01-10 13:55:20.43	330.50	9.34	-47.7	-49.0	15.1	0.00e+00	0	23	0	3526361088	61	4229
2026-01-10 13:55:24.43	330.91	9.07	-47.9	-49.2	15.0	0.00e+00	0	23	0	3548381184	61	4320
2026-01-10 13:55:28.43	331.32	8.80	-47.9	-49.3	15.0	0.00e+00	0	23	0	3571449856	61	4344
2026-01-10 13:55:32.43	331.72	8.54	-48.3	-49.6	14.8	0.00e+00	0	23	0	3593469952	61	4539
2026-01-10 13:55:36.44	332.11	8.27	-48.2	-49.5	14.8	0.00e+00	0	23	0	3616538624	61	4479
2026-01-10 13:55:40.41	332.49	8.01	-48.3	-49.7	14.7	0.00e+00	0	24	0	3638558720	61	4558
2026-01-10 13:55:44.41	332.87	7.75	-48.3	-49.7	14.7	0.00e+00	0	23	0	3660578816	61	4593
2026-01-10 13:55:48.38	333.24	7.49	-48.2	-49.6	14.9	0.00e+00	0	23	0	3683647488	62	4273
2026-01-10 13:55:52.38	333.61	7.23	-48.6	-50.0	14.7	0.00e+00	0	23	0	3705667584	62	4475
2026-01-10 13:55:56.35	333.97	6.98	-48.6	-50.1	14.7	0.00e+00	0	23	0	3728736256	62	4498
2026-01-10 13:56:00.34	334.32	6.72	-48.7	-50.2	14.6	0.00e+00	0	23	0	3750756352	62	4569
2026-01-10 13:56:04.33	334.67	6.47	-49.0	-50.5	14.5	0.00e+00	0	23	0	3772776448	63	4468
2026-01-10 13:56:08.32	335.01	6.22	-49.2	-50.7	14.4	0.00e+00	0	23	0	3795845120	63	4597
2026-01-10 13:56:12.31	335.35	5.97	-49.0	-50.6	14.4	0.00e+00	0	23	0	3817865216	63	4499
2026-01-10 13:56:16.32	335.69	5.72	-48.9	-50.4	14.5	0.00e+00	0	23	0	3840933888	63	4429
2026-01-10 13:56:20.30	336.01	5.48	-48.7	-50.1	14.7	0.00e+00	0	23	0	3862953984	63	4283
2026-01-10 13:56:24.29	336.33	5.23	-48.7	-50.1	14.6	0.00e+00	0	23	0	3884974080	63	4287
2026-01-10 13:56:28.29	336.65	4.99	-49.5	-51.0	14.2	0.00e+00	0	23	0	3908042752	64	4492
2026-01-10 13:56:32.30	336.96	4.75	-58.8	-71.8	3.8	8.46e-01	0	23	104	3911188480	82	17393
2026-01-10 13:56:36.29	337.27	4.51	-59.2	-72.3	3.8	8.46e-01	0	23	104	3911188480	83	17373
2026-01-10 13:56:40.30	337.57	4.27	-59.6	-72.7	3.8	8.44e-01	0	23	104	3911188480	84	17108
2026-01-10 13:56:44.32	337.87	4.03	-59.7	-72.8	3.8	8.45e-01	0	24	104	3911188480	84	17380
2026-01-10 13:56:48.31	338.17	3.79	-59.8	-72.8	3.8	8.45e-01	0	23	104	3911188480	84	17415
2026-01-10 13:56:52.30	338.46	3.56	-59.7	-72.8	3.8	8.46e-01	0	24	104	3911188480	84	17339
2026-01-10 13:56:56.29	338.74	3.33	-59.7	-72.7	3.8	8.45e-01	0	23	104	3911188480	84	17240
2026-01-10 13:57:00.29	339.02	3.10	-59.6	-72.7	3.8	8.46e-01	0	23	104	3911188480	84	17196
2026-01-10 13:57:04.27	339.30	2.87	-59.6	-72.7	3.8	8.45e-01	0	24	104	3911188480	84	17141
2026-01-10 13:57:08.26	339.57	2.64	-59.6	-72.6	3.8	8.45e-01	0	23	104	3911188480	84	17067
2026-01-10 13:57:12.27	339.84	2.41	-59.6	-72.6	3.8	8.46e-01	0	23	104	3911188480	84	17060
2026-01-10 13:57:16.28	340.11	2.19	-59.6	-72.6	3.8	8.46e-01	0	24	104	3911188480	84	17055

#Closed at: 2026-01-10 13:57:19
#Recorded file [3911 MB]: D:/lorett/data/31004_260110_164405.dat