passes_logs/2026/01/10/R3.2S_Murmansk/R3.2S_Murmansk__20260110_105339_2024-110A_rec.log

#Pass ID: 20260110_105339_2024-110A
#Satellite: 2024-110A
#Configuration: 01B_900M
#almurnet v.1.7.20251203
#Start time: 2026-01-10 10:53:40

#Version: 2.2.20231116
#Station: R3.2S_Murmansk
#Location: 33.079688 lon 68.888172 lat
#TLE: 1 60012U 24110A   26009.97406806  .00007383  00000+0  44769-3 0  9997
#TLE: 2 60012  97.5748 103.0306 0010623  82.4617 277.7819 15.10797853 88007

#Time	Az	El	Level	Level2	SNR	BER	BlckErr	Temp	State	Recorded	gain1	gain2
2026-01-10 10:53:40.75	21.53	2.06	-56.8	-60.0	6.1	0.00e+00	0	24	0	0	80	20717
2026-01-10 10:53:43.72	21.50	2.27	-56.8	-60.0	6.2	0.00e+00	0	24	104	0	80	20691
2026-01-10 10:53:46.68	21.48	2.47	-56.8	-60.0	6.2	0.00e+00	0	24	104	0	80	20726
2026-01-10 10:53:49.65	21.45	2.68	-56.8	-60.0	6.2	0.00e+00	0	24	104	0	80	20770
2026-01-10 10:53:52.63	21.42	2.90	-56.8	-60.0	6.2	0.00e+00	0	24	104	0	80	20760
2026-01-10 10:53:55.61	21.39	3.11	-56.8	-60.0	6.2	0.00e+00	0	24	104	0	80	20733
2026-01-10 10:53:58.60	21.37	3.33	-56.8	-60.0	6.2	0.00e+00	0	24	104	0	80	20733
2026-01-10 10:54:01.58	21.34	3.55	-56.8	-60.0	6.2	0.00e+00	0	24	104	0	80	20728
2026-01-10 10:54:04.56	21.31	3.77	-56.8	-60.0	6.2	0.00e+00	0	24	104	0	80	20660
2026-01-10 10:54:07.54	21.28	4.00	-56.8	-60.0	6.2	0.00e+00	0	24	104	0	80	20712
2026-01-10 10:54:10.51	21.24	4.22	-56.8	-60.0	6.2	0.00e+00	0	24	104	0	80	20779
2026-01-10 10:54:13.48	21.21	4.45	-56.8	-60.0	6.2	0.00e+00	0	24	104	0	80	20767
2026-01-10 10:54:16.47	21.18	4.68	-56.8	-60.0	6.2	0.00e+00	0	25	104	0	80	20772
2026-01-10 10:54:19.43	21.14	4.92	-56.8	-60.0	6.2	0.00e+00	0	25	104	0	80	20786
2026-01-10 10:54:22.41	21.11	5.15	-56.8	-60.1	6.2	0.00e+00	0	25	104	0	80	20878
2026-01-10 10:54:25.39	21.07	5.39	-56.9	-60.1	6.2	0.00e+00	0	25	104	0	80	21086
2026-01-10 10:54:28.37	21.03	5.64	-56.9	-60.1	6.2	0.00e+00	0	25	104	0	80	21017
2026-01-10 10:54:31.35	21.00	5.88	-56.9	-60.1	6.2	0.00e+00	0	25	104	0	80	21052
2026-01-10 10:54:34.34	20.96	6.13	-56.8	-60.0	6.2	0.00e+00	0	25	104	0	80	20832
2026-01-10 10:54:37.30	20.92	6.38	-57.0	-60.2	6.2	0.00e+00	0	25	104	0	80	21277
2026-01-10 10:54:40.28	20.87	6.64	-57.0	-60.2	6.2	0.00e+00	0	25	104	0	80	21153
2026-01-10 10:54:43.28	20.83	6.90	-57.0	-60.2	6.2	0.00e+00	0	25	104	0	80	21348
2026-01-10 10:54:46.25	20.79	7.16	-57.0	-60.2	6.2	0.00e+00	0	25	104	0	80	21199
2026-01-10 10:54:49.22	20.74	7.42	-57.1	-60.3	6.2	0.00e+00	0	25	104	0	80	21537
2026-01-10 10:54:52.21	20.69	7.69	-57.1	-60.3	6.2	0.00e+00	0	25	104	0	80	21437
2026-01-10 10:54:55.19	20.65	7.96	-57.1	-60.3	6.2	0.00e+00	0	25	104	0	80	21576
2026-01-10 10:54:58.18	20.60	8.24	-57.1	-60.3	6.2	0.00e+00	0	25	104	0	80	21525
2026-01-10 10:55:01.14	20.55	8.52	-57.3	-60.5	6.2	0.00e+00	0	25	104	0	80	21888
2026-01-10 10:55:04.12	20.49	8.80	-57.2	-60.4	6.2	0.00e+00	0	25	104	0	80	21658
2026-01-10 10:55:07.09	20.44	9.09	-57.2	-60.4	6.2	0.00e+00	0	26	104	0	80	21798
2026-01-10 10:55:10.08	20.38	9.38	-57.2	-60.5	6.2	0.00e+00	0	25	104	0	80	21871
2026-01-10 10:55:13.05	20.33	9.68	-57.4	-60.6	6.2	0.00e+00	0	26	104	0	80	22194
2026-01-10 10:55:16.01	20.27	9.98	-57.3	-60.5	6.2	0.00e+00	0	26	104	0	80	21996
2026-01-10 10:55:18.99	20.21	10.29	-57.3	-60.5	6.2	0.00e+00	0	26	104	0	80	21997
2026-01-10 10:55:21.95	20.14	10.60	-57.3	-60.5	6.2	0.00e+00	0	26	104	0	80	22065
2026-01-10 10:55:24.92	20.08	10.91	-57.4	-60.7	6.2	0.00e+00	0	26	104	0	80	22366
2026-01-10 10:55:27.90	20.01	11.23	-57.4	-60.6	6.2	0.00e+00	0	26	104	0	80	22313
2026-01-10 10:55:30.89	19.94	11.56	-57.4	-60.6	6.2	0.00e+00	0	26	104	0	80	22329
2026-01-10 10:55:33.87	19.87	11.90	-57.4	-60.6	6.2	0.00e+00	0	26	104	0	80	22286
2026-01-10 10:55:36.84	19.80	12.24	-57.5	-60.7	6.2	0.00e+00	0	26	104	0	80	22561
2026-01-10 10:55:39.81	19.72	12.58	-57.4	-60.6	6.2	0.00e+00	0	26	104	0	80	22365
2026-01-10 10:55:42.80	19.65	12.93	-57.5	-60.7	6.2	0.00e+00	0	26	104	0	80	22421
2026-01-10 10:55:45.78	19.56	13.29	-57.5	-60.7	6.2	0.00e+00	0	26	104	0	80	22549
2026-01-10 10:55:48.75	19.48	13.65	-56.2	-58.3	6.4	0.00e+00	0	26	104	0	79	18131
2026-01-10 10:55:51.73	19.40	14.03	-54.0	-55.4	7.1	0.00e+00	0	26	104	0	75	16259
2026-01-10 10:55:54.70	19.31	14.40	-53.8	-55.0	7.3	0.00e+00	0	26	104	0	74	16525
2026-01-10 10:55:57.68	19.21	14.79	-45.0	-45.7	10.4	1.13e-03	0	26	104	0	62	11295
2026-01-10 10:56:00.64	19.12	15.18	-43.5	-43.7	12.6	2.61e-04	0	26	0	285212672	54	14251
2026-01-10 10:56:03.62	19.02	15.59	-41.7	-42.0	13.1	5.91e-05	0	26	0	612368384	50	14619
2026-01-10 10:56:06.60	18.92	16.00	-39.5	-39.8	13.3	2.47e-05	0	26	0	947912704	46	14365
2026-01-10 10:56:09.58	18.81	16.42	-39.3	-39.6	13.3	2.28e-05	0	26	0	1283457024	45	14825
2026-01-10 10:56:12.57	18.70	16.85	-39.0	-39.3	13.5	1.71e-05	0	26	0	1619001344	45	14322
2026-01-10 10:56:15.54	18.59	17.29	-38.8	-39.0	13.5	9.50e-06	0	26	0	1954545664	44	14742
2026-01-10 10:56:18.54	18.47	17.74	-38.7	-38.9	13.5	5.70e-06	0	26	0	2290089984	44	14556
2026-01-10 10:56:21.51	18.34	18.20	-38.5	-38.8	13.6	1.90e-06	0	27	0	2625634304	44	14290
2026-01-10 10:56:24.49	18.21	18.67	-38.5	-38.7	13.6	1.14e-05	0	27	0	2961178624	44	14154
2026-01-10 10:56:27.46	18.08	19.15	-38.2	-38.4	13.6	9.50e-06	0	27	0	3296722944	43	14519
2026-01-10 10:56:30.44	17.94	19.64	-38.2	-38.4	13.6	1.90e-06	0	27	0	3632267264	43	14511
2026-01-10 10:56:33.42	17.80	20.15	-37.8	-38.0	13.7	3.80e-06	0	27	0	3967811584	42	14716
2026-01-10 10:56:36.39	17.65	20.66	-37.7	-37.9	13.7	0.00e+00	0	27	0	4294967296	42	14480
2026-01-10 10:56:39.37	17.49	21.20	-37.6	-37.8	13.7	1.90e-06	0	27	0	4638900224	42	14402
2026-01-10 10:56:42.35	17.33	21.74	-37.3	-37.5	13.8	0.00e+00	0	27	0	4974444544	41	14696
2026-01-10 10:56:45.34	17.16	22.30	-37.1	-37.3	13.8	1.90e-06	0	27	0	5301600256	41	14384
2026-01-10 10:56:48.31	16.98	22.88	-36.9	-37.1	13.9	0.00e+00	0	27	0	5645533184	41	14050
2026-01-10 10:56:51.28	16.80	23.46	-36.7	-36.9	13.9	3.80e-06	0	27	0	5972688896	40	14580
2026-01-10 10:56:54.25	16.60	24.07	-36.4	-36.6	14.0	0.00e+00	0	27	0	6308233216	40	14032
2026-01-10 10:56:57.23	16.40	24.69	-36.2	-36.5	14.0	1.90e-06	0	27	0	6643777536	39	14610
2026-01-10 10:57:00.22	16.18	25.34	-36.1	-36.3	14.0	1.90e-06	0	27	0	6979321856	39	14370
2026-01-10 10:57:03.19	15.96	26.00	-35.9	-36.1	14.1	0.00e+00	0	27	0	7314866176	39	14019
2026-01-10 10:57:06.16	15.73	26.67	-35.7	-35.9	14.1	0.00e+00	0	27	0	7650410496	38	14519
2026-01-10 10:57:09.14	15.48	27.37	-35.5	-35.7	14.1	0.00e+00	0	27	0	7985954816	38	14239
2026-01-10 10:57:12.12	15.22	28.10	-35.3	-35.5	14.1	0.00e+00	0	27	0	8321499136	37	14665
2026-01-10 10:57:15.10	14.95	28.84	-35.0	-35.2	14.2	0.00e+00	0	27	0	8657043456	37	14181
2026-01-10 10:57:18.09	14.66	29.61	-34.8	-35.0	14.1	0.00e+00	0	27	0	8992587776	36	14700
2026-01-10 10:57:21.04	14.36	30.39	-34.6	-34.8	14.2	1.90e-06	0	27	0	9319743488	36	14334
2026-01-10 10:57:24.01	14.04	31.21	-31.7	-31.9	14.1	1.90e-06	0	27	0	9655287808	30	14519
2026-01-10 10:57:26.99	13.70	32.05	-31.6	-31.8	14.2	0.00e+00	0	27	0	9990832128	30	14421
2026-01-10 10:57:29.98	13.33	32.92	-31.2	-31.5	14.2	0.00e+00	0	27	0	10326376448	29	14633
2026-01-10 10:57:32.97	12.95	33.82	-30.9	-31.1	14.3	0.00e+00	0	27	0	10661920768	29	14002
2026-01-10 10:57:35.95	12.54	34.75	-30.6	-30.8	14.3	0.00e+00	0	27	0	11005853696	28	14324
2026-01-10 10:57:38.92	12.11	35.71	-30.4	-30.6	14.2	0.00e+00	0	27	0	11333009408	27	14830
2026-01-10 10:57:41.90	11.65	36.70	-30.2	-30.4	14.3	0.00e+00	0	27	0	11668553728	27	14523
2026-01-10 10:57:44.88	11.16	37.72	-29.9	-30.1	14.4	0.00e+00	0	27	0	12004098048	27	14065
2026-01-10 10:57:47.86	10.63	38.78	-29.6	-29.8	14.4	0.00e+00	0	27	0	12339642368	26	14322
2026-01-10 10:57:50.84	10.06	39.88	-29.4	-29.6	14.4	0.00e+00	0	27	0	12675186688	26	14036
2026-01-10 10:57:53.83	9.45	41.01	-29.2	-29.4	14.4	0.00e+00	0	27	0	13010731008	25	14473
2026-01-10 10:57:56.78	8.79	42.17	-28.9	-29.1	14.4	0.00e+00	0	27	0	13346275328	25	14098
2026-01-10 10:57:59.76	8.08	43.37	-28.6	-28.8	14.4	0.00e+00	0	27	0	13681819648	24	14428
2026-01-10 10:58:02.74	7.31	44.61	-28.3	-28.5	14.4	0.00e+00	0	27	0	14008975360	23	14712
2026-01-10 10:58:05.71	6.48	45.89	-28.0	-28.2	14.5	0.00e+00	0	27	0	14352908288	23	14208
2026-01-10 10:58:08.70	5.56	47.22	-27.9	-28.2	14.5	0.00e+00	0	27	0	14688452608	23	14121
2026-01-10 10:58:11.66	4.57	48.57	-27.7	-27.9	14.4	0.00e+00	0	27	0	15015608320	22	14556
2026-01-10 10:58:14.63	3.48	49.96	-27.5	-27.7	14.5	0.00e+00	0	27	0	15351152640	22	14201
2026-01-10 10:58:17.61	2.27	51.40	-27.4	-27.6	14.6	0.00e+00	0	27	0	15686696960	22	14022
2026-01-10 10:58:20.59	0.94	52.86	-27.3	-27.5	14.4	0.00e+00	0	27	0	16022241280	21	14737
2026-01-10 10:58:23.54	359.48	54.35	-27.1	-27.2	14.5	0.00e+00	0	27	0	16357785600	21	14274
2026-01-10 10:58:26.51	357.84	55.87	-27.0	-27.2	14.6	0.00e+00	0	27	0	16693329920	21	14170
2026-01-10 10:58:29.48	356.01	57.41	-26.8	-27.1	14.5	0.00e+00	0	27	0	17020485632	20	14812
2026-01-10 10:58:32.46	353.94	58.97	-26.7	-26.9	14.5	0.00e+00	0	27	0	17356029952	20	14477
2026-01-10 10:58:35.45	351.60	60.54	-26.5	-26.7	14.6	0.00e+00	0	27	0	17699962880	20	14220
2026-01-10 10:58:38.43	348.95	62.10	-26.5	-26.6	14.6	0.00e+00	0	27	0	18027118592	20	14111
2026-01-10 10:58:41.41	345.94	63.64	-26.4	-26.6	14.4	0.00e+00	0	27	0	18362662912	19	14876
2026-01-10 10:58:44.39	342.51	65.14	-26.3	-26.5	14.5	0.00e+00	0	27	0	18706595840	19	14691
2026-01-10 10:58:47.37	338.58	66.58	-26.3	-26.6	14.4	0.00e+00	0	27	0	19033751552	19	14797
2026-01-10 10:58:50.35	334.11	67.93	-26.2	-26.4	14.5	0.00e+00	0	27	0	19369295872	19	14602
2026-01-10 10:58:53.32	329.04	69.16	-26.1	-26.3	14.5	0.00e+00	0	27	0	19704840192	19	14398
2026-01-10 10:58:56.31	323.28	70.24	-26.2	-26.4	14.5	0.00e+00	0	27	0	20040384512	19	14501
2026-01-10 10:58:59.28	316.92	71.11	-26.1	-26.3	14.5	0.00e+00	0	27	0	20375928832	19	14361
2026-01-10 10:59:02.25	309.99	71.75	-26.2	-26.4	14.5	0.00e+00	0	27	0	20711473152	19	14512
2026-01-10 10:59:05.23	302.62	72.13	-26.1	-26.3	14.6	0.00e+00	0	27	0	21047017472	19	14346
2026-01-10 10:59:08.21	295.04	72.21	-26.0	-26.2	14.6	0.00e+00	0	27	0	21382561792	19	14255
2026-01-10 10:59:11.19	287.51	72.01	-26.2	-26.4	14.5	0.00e+00	0	27	0	21709717504	19	14524
2026-01-10 10:59:14.16	280.31	71.52	-26.1	-26.3	14.5	0.00e+00	0	27	0	22053650432	19	14361
2026-01-10 10:59:17.13	273.60	70.77	-26.2	-26.4	14.5	0.00e+00	0	27	0	22380806144	19	14520
2026-01-10 10:59:20.11	267.48	69.81	-26.2	-26.4	14.5	0.00e+00	0	27	0	22716350464	19	14535
2026-01-10 10:59:23.08	262.03	68.67	-26.3	-26.5	14.5	0.00e+00	0	27	0	23051894784	19	14660
2026-01-10 10:59:26.06	257.20	67.38	-26.4	-26.6	14.5	0.00e+00	0	27	0	23387439104	19	14838
2026-01-10 10:59:29.05	252.95	65.99	-27.7	-38.2	6.2	6.45e-04	0	27	0	23722983424	19	56697
2026-01-10 10:59:32.03	249.23	64.52	-58.3	-61.8	6.2	0.00e+00	0	27	104	23722983424	82	22713
2026-01-10 10:59:35.00	245.99	63.00	-58.8	-62.0	6.2	0.00e+00	0	27	104	23722983424	83	22027
2026-01-10 10:59:37.97	243.15	61.46	-58.8	-62.0	6.2	0.00e+00	0	27	104	23722983424	83	22040
2026-01-10 10:59:40.96	240.63	59.88	-58.1	-61.7	6.2	0.00e+00	0	27	104	23722983424	83	21357
2026-01-10 10:59:43.93	238.41	58.32	-58.6	-61.9	6.2	0.00e+00	0	27	104	23722983424	83	21837
2026-01-10 10:59:46.93	236.43	56.75	-58.7	-61.9	6.2	0.00e+00	0	27	104	23722983424	83	21788
2026-01-10 10:59:49.91	234.67	55.21	-58.7	-62.0	6.2	0.00e+00	0	27	104	23722983424	83	21887
2026-01-10 10:59:52.90	233.10	53.69	-58.2	-61.7	6.2	0.00e+00	0	27	104	23722983424	83	21336
2026-01-10 10:59:55.86	231.69	52.21	-58.6	-61.9	6.2	0.00e+00	0	27	104	23722983424	83	21611
2026-01-10 10:59:58.86	230.41	50.74	-58.7	-61.9	6.2	0.00e+00	0	27	104	23722983424	83	21658
2026-01-10 11:00:01.84	229.25	49.32	-58.6	-61.9	6.2	0.00e+00	0	27	104	23722983424	83	21628
2026-01-10 11:00:04.82	228.20	47.94	-58.3	-61.7	6.2	0.00e+00	0	27	104	23722983424	83	21269
2026-01-10 11:00:07.81	227.24	46.59	-58.5	-61.8	6.2	0.00e+00	0	27	104	23722983424	83	21493
2026-01-10 11:00:10.79	226.36	45.28	-58.6	-61.8	6.2	0.00e+00	0	27	104	23722983424	83	21498
2026-01-10 11:00:13.77	225.55	44.02	-58.6	-61.8	6.2	0.00e+00	0	27	104	23722983424	83	21410
2026-01-10 11:00:16.75	224.81	42.79	-58.3	-61.7	6.2	0.00e+00	0	26	104	23722983424	83	21183
2026-01-10 11:00:19.73	224.12	41.60	-58.5	-61.7	6.2	0.00e+00	0	27	104	23722983424	83	21312
2026-01-10 11:00:22.70	223.48	40.45	-58.5	-61.7	6.2	0.00e+00	0	26	104	23722983424	83	21342
2026-01-10 11:00:25.66	222.90	39.34	-58.5	-61.7	6.2	0.00e+00	0	27	104	23722983424	83	21255
2026-01-10 11:00:28.63	222.35	38.27	-58.3	-61.6	6.2	0.00e+00	0	27	104	23722983424	83	20997
2026-01-10 11:00:31.61	221.83	37.22	-58.4	-61.6	6.2	0.00e+00	0	27	104	23722983424	83	21098
2026-01-10 11:00:34.58	221.36	36.21	-58.4	-61.7	6.2	0.00e+00	0	27	104	23722983424	83	21194
2026-01-10 11:00:37.56	220.91	35.23	-58.4	-61.6	6.2	0.00e+00	0	26	104	23722983424	83	21058
2026-01-10 11:00:40.54	220.48	34.29	-58.3	-61.6	6.2	0.00e+00	0	27	104	23722983424	83	20931
2026-01-10 11:00:43.51	220.09	33.37	-58.3	-61.6	6.2	0.00e+00	0	26	104	23722983424	83	20907
2026-01-10 11:00:46.49	219.71	32.49	-58.4	-61.6	6.2	0.00e+00	0	26	104	23722983424	83	21008
2026-01-10 11:00:49.47	219.36	31.63	-58.3	-61.6	6.2	0.00e+00	0	27	104	23722983424	83	20901
2026-01-10 11:00:52.45	219.03	30.79	-58.2	-61.5	6.2	0.00e+00	0	27	104	23722983424	83	20678
2026-01-10 11:00:55.43	218.71	29.99	-58.3	-61.5	6.2	0.00e+00	0	27	104	23722983424	83	20727
2026-01-10 11:00:58.41	218.42	29.21	-58.3	-61.5	6.2	0.00e+00	0	26	104	23722983424	83	20719
2026-01-10 11:01:01.39	218.13	28.45	-58.2	-61.4	6.2	0.00e+00	0	26	104	23722983424	83	20570
2026-01-10 11:01:04.37	217.87	27.71	-58.2	-61.4	6.2	0.00e+00	0	27	104	23722983424	83	20591
2026-01-10 11:01:07.33	217.61	27.00	-58.2	-61.4	6.2	0.00e+00	0	27	104	23722983424	83	20575
2026-01-10 11:01:10.32	217.37	26.31	-58.2	-61.4	6.2	0.00e+00	0	27	104	23722983424	83	20541
2026-01-10 11:01:13.30	217.14	25.64	-58.1	-61.4	6.2	0.00e+00	0	27	104	23722983424	83	20455
2026-01-10 11:01:16.28	216.92	24.98	-58.1	-61.3	6.2	0.00e+00	0	27	104	23722983424	83	20393
2026-01-10 11:01:19.25	216.71	24.35	-58.1	-61.3	6.2	0.00e+00	0	26	104	23722983424	83	20377
2026-01-10 11:01:22.23	216.51	23.73	-58.1	-61.3	6.2	0.00e+00	0	27	104	23722983424	83	20367
2026-01-10 11:01:25.21	216.32	23.13	-58.0	-61.2	6.2	0.00e+00	0	27	104	23722983424	83	20146
2026-01-10 11:01:28.18	216.14	22.55	-58.0	-61.3	6.2	0.00e+00	0	26	104	23722983424	83	20254
2026-01-10 11:01:31.16	215.96	21.98	-58.1	-61.3	6.2	0.00e+00	0	27	104	23722983424	83	20215
2026-01-10 11:01:34.15	215.79	21.43	-58.0	-61.3	6.2	0.00e+00	0	27	104	23722983424	83	20188
2026-01-10 11:01:37.12	215.63	20.89	-58.0	-61.2	6.2	0.00e+00	0	27	104	23722983424	83	20057
2026-01-10 11:01:40.09	215.48	20.36	-58.0	-61.2	6.2	0.00e+00	0	27	104	23722983424	83	20075
2026-01-10 11:01:43.06	215.33	19.85	-58.0	-61.2	6.2	0.00e+00	0	26	104	23722983424	83	20055
2026-01-10 11:01:46.04	215.19	19.35	-58.0	-61.2	6.2	0.00e+00	0	27	104	23722983424	83	19982
2026-01-10 11:01:49.00	215.05	18.87	-57.9	-61.1	6.2	0.00e+00	0	27	104	23722983424	83	19897
2026-01-10 11:01:51.99	214.92	18.39	-57.9	-61.1	6.2	0.00e+00	0	27	104	23722983424	83	19892
2026-01-10 11:01:54.96	214.79	17.92	-57.9	-61.1	6.2	0.00e+00	0	27	104	23722983424	83	19909
2026-01-10 11:01:57.93	214.67	17.47	-57.8	-61.1	6.2	0.00e+00	0	27	104	23722983424	82	20883
2026-01-10 11:02:00.91	214.55	17.02	-57.8	-61.0	6.2	0.00e+00	0	27	104	23722983424	82	20736
2026-01-10 11:02:03.90	214.44	16.59	-57.8	-61.0	6.2	0.00e+00	0	27	104	23722983424	82	20783
2026-01-10 11:02:06.87	214.33	16.16	-57.8	-61.0	6.2	0.00e+00	0	27	104	23722983424	82	20762
2026-01-10 11:02:09.82	214.22	15.75	-57.8	-61.0	6.2	0.00e+00	0	27	104	23722983424	82	20715
2026-01-10 11:02:12.78	214.12	15.34	-57.7	-61.0	6.2	0.00e+00	0	27	104	23722983424	82	20654
2026-01-10 11:02:15.77	214.02	14.94	-57.7	-61.0	6.2	0.00e+00	0	26	104	23722983424	82	20704
2026-01-10 11:02:18.73	213.93	14.55	-57.7	-60.9	6.2	0.00e+00	0	27	104	23722983424	82	20545
2026-01-10 11:02:21.71	213.84	14.17	-57.7	-60.9	6.2	0.00e+00	0	27	104	23722983424	82	20464
2026-01-10 11:02:24.69	213.75	13.79	-57.7	-60.9	6.2	0.00e+00	0	27	104	23722983424	82	20515
2026-01-10 11:02:27.66	213.66	13.42	-57.7	-60.9	6.2	0.00e+00	0	27	104	23722983424	82	20507
2026-01-10 11:02:30.63	213.58	13.06	-57.6	-60.8	6.2	0.00e+00	0	27	104	23722983424	82	20382
2026-01-10 11:02:33.62	213.50	12.70	-57.6	-60.8	6.2	0.00e+00	0	27	104	23722983424	82	20353
2026-01-10 11:02:36.59	213.42	12.36	-57.6	-60.8	6.2	0.00e+00	0	27	104	23722983424	82	20348
2026-01-10 11:02:39.57	213.34	12.01	-57.6	-60.8	6.2	0.00e+00	0	27	104	23722983424	82	20271
2026-01-10 11:02:42.54	213.27	11.68	-57.5	-60.7	6.2	0.00e+00	0	27	104	23722983424	82	20049
2026-01-10 11:02:45.51	213.20	11.35	-57.5	-60.7	6.2	0.00e+00	0	26	104	23722983424	82	20046
2026-01-10 11:02:48.49	213.13	11.02	-57.5	-60.7	6.2	0.00e+00	0	26	104	23722983424	82	20074
2026-01-10 11:02:51.45	213.06	10.70	-57.5	-60.7	6.2	0.00e+00	0	27	104	23722983424	82	20035
2026-01-10 11:02:54.42	213.00	10.39	-57.4	-60.6	6.2	0.00e+00	0	26	104	23722983424	82	19854
2026-01-10 11:02:57.39	212.93	10.08	-57.4	-60.6	6.2	0.00e+00	0	26	104	23722983424	82	19916
2026-01-10 11:03:00.38	212.87	9.77	-57.4	-60.7	6.2	0.00e+00	0	26	104	23722983424	82	19946
2026-01-10 11:03:03.34	212.81	9.48	-57.3	-60.5	6.2	0.00e+00	0	27	104	23722983424	81	20836
2026-01-10 11:03:06.31	212.75	9.18	-57.3	-60.5	6.2	0.00e+00	0	26	104	23722983424	81	20774
2026-01-10 11:03:09.28	212.70	8.89	-57.3	-60.5	6.2	0.00e+00	0	27	104	23722983424	81	20743
2026-01-10 11:03:12.27	212.64	8.60	-57.3	-60.5	6.2	0.00e+00	0	27	104	23722983424	81	20783
2026-01-10 11:03:15.24	212.59	8.32	-57.2	-60.5	6.2	0.00e+00	0	26	104	23722983424	81	20639
2026-01-10 11:03:18.21	212.54	8.04	-57.2	-60.4	6.2	0.00e+00	0	26	104	23722983424	81	20552
2026-01-10 11:03:21.17	212.49	7.77	-57.2	-60.4	6.2	0.00e+00	0	27	104	23722983424	81	20486
2026-01-10 11:03:24.15	212.44	7.50	-57.2	-60.4	6.2	0.00e+00	0	27	104	23722983424	81	20512
2026-01-10 11:03:27.13	212.39	7.23	-57.1	-60.3	6.2	0.00e+00	0	26	104	23722983424	81	20301
2026-01-10 11:03:30.10	212.34	6.97	-57.1	-60.3	6.2	0.00e+00	0	26	104	23722983424	81	20205
2026-01-10 11:03:33.09	212.30	6.71	-57.0	-60.3	6.2	0.00e+00	0	26	104	23722983424	81	20172
2026-01-10 11:03:36.06	212.25	6.45	-57.1	-60.3	6.2	0.00e+00	0	26	104	23722983424	81	20224
2026-01-10 11:03:39.03	212.21	6.20	-56.9	-60.1	6.2	0.00e+00	0	26	104	23722983424	81	19919
2026-01-10 11:03:42.01	212.17	5.95	-56.9	-60.1	6.2	0.00e+00	0	27	104	23722983424	81	19885
2026-01-10 11:03:44.99	212.13	5.70	-56.9	-60.1	6.2	0.00e+00	0	27	104	23722983424	80	20928
2026-01-10 11:03:47.97	212.09	5.45	-56.9	-60.1	6.2	0.00e+00	0	27	104	23722983424	80	20988
2026-01-10 11:03:50.96	212.05	5.21	-56.7	-59.9	6.2	0.00e+00	0	26	104	23722983424	80	20547
2026-01-10 11:03:53.94	212.01	4.97	-57.0	-60.2	6.2	0.00e+00	0	26	104	23722983424	80	21274
2026-01-10 11:03:56.96	211.98	4.73	-58.0	-61.2	6.1	0.00e+00	0	26	104	23722983424	81	22487
2026-01-10 11:03:59.95	211.94	4.50	-58.4	-61.6	6.2	0.00e+00	0	26	104	23722983424	82	22247
2026-01-10 11:04:02.94	211.90	4.27	-58.6	-61.8	6.2	0.00e+00	0	27	104	23722983424	82	22804
2026-01-10 11:04:05.93	211.87	4.04	-58.8	-62.0	6.2	0.00e+00	0	26	104	23722983424	83	21956
2026-01-10 11:04:08.93	211.84	3.81	-58.9	-62.1	6.2	0.00e+00	0	26	104	23722983424	83	22174
2026-01-10 11:04:11.93	211.80	3.59	-58.9	-62.2	6.2	0.00e+00	0	26	104	23722983424	83	22416
2026-01-10 11:04:14.92	211.77	3.36	-59.0	-62.2	6.2	0.00e+00	0	26	104	23722983424	83	22569
2026-01-10 11:04:17.89	211.74	3.15	-59.0	-62.2	6.2	0.00e+00	0	27	104	23722983424	83	22550
2026-01-10 11:04:20.84	211.71	2.93	-59.0	-62.2	6.2	0.00e+00	0	27	104	23722983424	83	22367
2026-01-10 11:04:23.82	211.68	2.72	-58.9	-62.1	6.2	0.00e+00	0	26	104	23722983424	83	22312
2026-01-10 11:04:26.80	211.65	2.50	-58.9	-62.1	6.2	0.00e+00	0	27	104	23722983424	83	22195
2026-01-10 11:04:29.78	211.63	2.29	-58.8	-62.1	6.1	0.00e+00	0	27	104	23722983424	83	22182
2026-01-10 11:04:32.76	211.60	2.09	-58.8	-62.0	6.2	0.00e+00	0	27	104	23722983424	83	22071
2026-01-10 11:04:35.73	211.57	1.88	-58.8	-62.0	6.2	0.00e+00	0	27	104	23722983424	83	22047

#Closed at: 2026-01-10 11:04:36
#Recorded file [23722 MB]: D:/lorett/data/31004_260110_135340.dat