passes_logs/2026/01/10/R3.2S_Murmansk/R3.2S_Murmansk__20260110_040216_AQUA_rec.log

#Pass ID: 20260110_040216_AQUA
#Satellite: AQUA
#Configuration: AQUA
#almurnet v.1.7.20251203
#Start time: 2026-01-10 04:02:18

#Version: 2.2.20231116
#Station: R3.2S_Murmansk
#Location: 33.079688 lon 68.888172 lat
#TLE: 1 27424U 02022A   26009.00333547  .00001046  00000+0  21942-3 0  9998
#TLE: 2 27424  98.4075 335.3304 0002025  85.7625 349.1392 14.61808998260011

#Time	Az	El	Level	Level2	SNR	BER	BlckErr	Temp	State	Recorded	gain1	gain2
2026-01-10 04:02:18.69	30.36	2.11	-56.6	-75.9	3.8	7.46e-01	0	22	0	0	82	32288
2026-01-10 04:02:21.69	30.22	2.30	-56.4	-75.8	3.8	7.44e-01	0	22	104	0	80	35857
2026-01-10 04:02:24.70	30.08	2.50	-56.4	-75.8	3.8	7.47e-01	0	22	104	0	80	35736
2026-01-10 04:02:27.69	29.93	2.69	-56.4	-75.8	3.8	7.50e-01	0	22	104	0	80	35833
2026-01-10 04:02:30.70	29.79	2.88	-56.5	-75.8	3.8	7.43e-01	0	22	104	0	80	35746
2026-01-10 04:02:33.70	29.64	3.08	-56.5	-75.8	3.8	7.48e-01	0	22	104	0	80	35861
2026-01-10 04:02:36.71	29.49	3.28	-56.5	-75.8	3.8	7.44e-01	0	22	104	0	80	35926
2026-01-10 04:02:39.71	29.33	3.48	-56.5	-75.8	3.8	7.47e-01	0	22	104	0	80	35894
2026-01-10 04:02:42.72	29.18	3.68	-56.5	-75.8	3.8	7.46e-01	0	22	104	0	80	35861
2026-01-10 04:02:45.73	29.02	3.88	-56.4	-75.6	3.8	7.41e-01	0	22	104	0	80	35270
2026-01-10 04:02:48.72	28.86	4.08	-56.4	-75.1	3.8	7.48e-01	0	23	104	0	80	33278
2026-01-10 04:02:51.73	28.70	4.29	-56.3	-74.3	3.8	7.48e-01	0	22	104	0	80	30184
2026-01-10 04:02:54.72	28.53	4.49	-55.9	-72.7	3.8	7.46e-01	0	22	104	0	80	25114
2026-01-10 04:02:57.72	28.36	4.70	-55.3	-70.5	3.8	7.46e-01	0	23	104	0	79	20743
2026-01-10 04:03:00.72	28.19	4.91	-54.9	-69.4	3.8	7.46e-01	0	23	104	0	79	18113
2026-01-10 04:03:03.72	28.02	5.12	-55.5	-70.7	3.8	7.48e-01	0	23	104	0	79	21021
2026-01-10 04:03:06.72	27.84	5.33	-52.8	-65.0	3.8	7.43e-01	0	23	104	0	74	14646
2026-01-10 04:03:09.72	27.66	5.54	-51.5	-63.5	3.8	7.46e-01	0	23	104	0	72	13828
2026-01-10 04:03:12.71	27.48	5.76	-52.8	-65.4	3.9	7.46e-01	0	23	104	0	75	14395
2026-01-10 04:03:15.71	27.29	5.98	-53.4	-66.1	3.8	7.48e-01	0	23	104	0	74	16694
2026-01-10 04:03:18.72	27.10	6.20	-52.2	-64.4	3.8	7.48e-01	0	23	104	0	73	14385
2026-01-10 04:03:21.72	26.91	6.42	-56.0	-72.0	3.8	7.50e-01	0	23	104	0	79	24455
2026-01-10 04:03:24.72	26.71	6.64	-51.9	-64.0	3.9	7.47e-01	0	23	104	0	73	13797
2026-01-10 04:03:27.72	26.51	6.86	-53.6	-66.4	3.8	7.46e-01	0	23	104	0	74	17256
2026-01-10 04:03:30.72	26.30	7.09	-54.5	-67.7	3.8	7.42e-01	0	23	104	0	78	15903
2026-01-10 04:03:33.73	26.10	7.32	-51.9	-63.9	3.8	7.45e-01	0	23	104	0	73	13619
2026-01-10 04:03:36.73	25.89	7.55	-51.2	-63.0	3.8	7.43e-01	0	23	104	0	71	13860
2026-01-10 04:03:39.73	25.67	7.78	-52.6	-64.9	3.8	7.48e-01	0	23	104	0	72	16203
2026-01-10 04:03:42.74	25.45	8.02	-51.0	-62.7	3.8	7.44e-01	0	23	104	0	71	13354
2026-01-10 04:03:45.75	25.23	8.25	-56.4	-72.5	3.8	7.47e-01	0	23	104	0	80	24508
2026-01-10 04:03:48.76	25.00	8.49	-51.6	-63.5	3.8	7.47e-01	0	23	104	0	72	13877
2026-01-10 04:03:51.76	24.77	8.73	-50.6	-62.3	3.8	7.43e-01	0	23	104	0	69	14299
2026-01-10 04:03:54.76	24.53	8.98	-54.5	-67.6	3.8	7.43e-01	0	23	104	0	78	15680
2026-01-10 04:03:57.77	24.29	9.22	-51.1	-62.8	3.8	7.49e-01	0	23	104	0	71	13521
2026-01-10 04:04:00.78	24.04	9.47	-51.0	-62.8	3.8	7.46e-01	0	23	104	0	71	13421
2026-01-10 04:04:03.79	23.79	9.72	-52.2	-64.6	3.8	7.45e-01	0	23	104	0	72	15648
2026-01-10 04:04:06.78	23.54	9.97	-50.4	-61.9	3.8	7.43e-01	0	23	104	0	70	12942
2026-01-10 04:04:09.77	23.28	10.22	-56.4	-72.0	3.7	7.48e-01	0	23	104	0	80	23092
2026-01-10 04:04:12.77	23.01	10.48	-51.0	-62.7	3.9	7.45e-01	0	23	104	0	71	13298
2026-01-10 04:04:15.78	22.74	10.74	-50.5	-62.1	3.9	7.45e-01	0	23	104	0	69	14010
2026-01-10 04:04:18.76	22.47	11.00	-54.4	-67.4	3.8	7.45e-01	0	23	104	0	77	16131
2026-01-10 04:04:21.76	22.19	11.26	-50.6	-62.1	3.9	7.46e-01	0	23	104	0	70	13237
2026-01-10 04:04:24.76	21.90	11.53	-50.6	-62.2	3.9	7.45e-01	0	23	104	0	70	13365
2026-01-10 04:04:27.76	21.61	11.80	-51.6	-63.4	3.8	7.49e-01	0	23	104	0	70	15227
2026-01-10 04:04:30.76	21.31	12.07	-49.7	-61.1	3.9	7.47e-01	0	23	104	0	68	13251
2026-01-10 04:04:33.76	21.00	12.34	-56.3	-71.5	3.8	7.48e-01	0	23	104	0	80	21908
2026-01-10 04:04:36.76	20.69	12.62	-50.4	-62.0	3.9	7.43e-01	0	23	104	0	70	12990
2026-01-10 04:04:39.76	20.37	12.90	-50.3	-61.9	3.8	7.45e-01	0	23	104	0	68	14473
2026-01-10 04:04:42.76	20.05	13.18	-54.4	-67.3	3.8	7.46e-01	0	23	104	0	77	16100
2026-01-10 04:04:45.76	19.72	13.46	-50.1	-61.6	3.8	7.43e-01	0	23	104	0	68	13944
2026-01-10 04:04:48.77	19.37	13.75	-49.9	-61.4	3.8	7.45e-01	0	23	104	0	69	12862
2026-01-10 04:04:51.78	19.03	14.04	-50.9	-62.4	3.8	7.49e-01	0	23	104	0	69	14478
2026-01-10 04:04:54.78	18.67	14.33	-49.6	-61.1	3.9	7.42e-01	0	23	104	0	68	13120
2026-01-10 04:04:57.78	18.31	14.63	-56.3	-71.3	3.8	7.46e-01	0	23	104	0	80	21356
2026-01-10 04:05:00.78	17.94	14.93	-49.9	-61.3	3.9	7.42e-01	0	23	104	0	69	12735
2026-01-10 04:05:03.80	17.56	15.23	-51.0	-62.7	3.9	7.45e-01	0	23	104	0	69	14963
2026-01-10 04:05:06.79	17.17	15.53	-54.5	-67.3	3.8	7.45e-01	0	23	104	0	77	16047
2026-01-10 04:05:09.79	16.78	15.84	-49.5	-60.9	3.9	7.47e-01	0	23	104	0	68	12932
2026-01-10 04:05:12.77	16.38	16.15	-49.6	-61.1	3.8	7.46e-01	0	23	104	0	68	13132
2026-01-10 04:05:15.78	15.96	16.46	-50.5	-62.0	3.8	7.45e-01	0	23	104	0	68	14695
2026-01-10 04:05:18.77	15.54	16.78	-49.7	-61.1	3.8	7.44e-01	0	23	104	0	68	13188
2026-01-10 04:05:21.77	15.11	17.10	-56.3	-71.0	3.8	7.47e-01	0	23	104	0	80	20768
2026-01-10 04:05:24.76	14.66	17.42	-49.6	-60.9	3.9	7.41e-01	0	23	104	0	68	12949
2026-01-10 04:05:27.76	14.21	17.74	-50.5	-62.0	3.9	7.46e-01	0	23	104	0	68	14662
2026-01-10 04:05:30.76	13.75	18.07	-55.1	-68.4	3.8	7.51e-01	0	23	104	0	78	17118
2026-01-10 04:05:33.77	13.27	18.40	-49.6	-61.0	3.9	7.48e-01	0	23	104	0	68	13008
2026-01-10 04:05:36.77	12.78	18.74	-49.9	-61.4	3.8	7.44e-01	0	23	104	0	69	12836
2026-01-10 04:05:39.76	12.28	19.07	-50.3	-61.8	3.8	7.46e-01	0	23	104	0	68	14220
2026-01-10 04:05:42.77	11.77	19.41	-49.1	-60.5	3.8	7.45e-01	0	23	104	0	67	12987
2026-01-10 04:05:45.77	11.25	19.76	-56.2	-70.4	3.8	7.48e-01	0	23	104	0	79	20508
2026-01-10 04:05:48.76	10.72	20.10	-49.5	-60.9	3.8	7.46e-01	0	23	104	0	68	12811
2026-01-10 04:05:51.75	10.17	20.45	-51.5	-63.2	3.8	7.47e-01	0	23	104	0	70	14940
2026-01-10 04:05:54.75	9.61	20.80	-55.3	-68.6	3.8	7.49e-01	0	23	104	0	78	17565
2026-01-10 04:05:57.74	9.03	21.15	-49.6	-61.0	3.9	7.44e-01	0	23	104	0	68	13039
2026-01-10 04:06:00.74	8.44	21.50	-50.1	-61.6	3.9	7.46e-01	0	23	104	0	69	13140
2026-01-10 04:06:03.73	7.84	21.86	-50.1	-61.5	3.8	7.46e-01	0	23	104	0	68	13785
2026-01-10 04:06:06.73	7.22	22.22	-49.4	-60.7	3.8	7.47e-01	0	23	104	0	68	12664
2026-01-10 04:06:09.72	6.58	22.58	-56.0	-70.1	3.8	7.48e-01	0	23	104	0	79	19638
2026-01-10 04:06:12.72	5.93	22.94	-49.9	-61.3	3.9	7.44e-01	0	23	104	0	69	12766
2026-01-10 04:06:15.72	5.26	23.30	-50.4	-61.9	3.8	7.45e-01	0	23	104	0	68	14521
2026-01-10 04:06:18.71	4.58	23.67	-55.5	-68.9	3.8	7.49e-01	0	23	104	0	79	17121
2026-01-10 04:06:21.70	3.88	24.03	-50.1	-61.5	3.9	7.47e-01	0	23	104	0	69	13048
2026-01-10 04:06:24.69	3.17	24.40	-50.6	-62.1	3.8	7.49e-01	0	23	104	0	70	13211
2026-01-10 04:06:27.69	2.43	24.77	-50.4	-61.8	3.8	7.41e-01	0	23	104	0	69	13474
2026-01-10 04:06:30.68	1.67	25.14	-50.0	-61.4	3.8	7.47e-01	0	23	104	0	69	12892
2026-01-10 04:06:33.67	0.90	25.51	-55.6	-69.0	3.8	7.50e-01	0	23	104	0	78	18389
2026-01-10 04:06:36.68	0.11	25.88	-49.7	-61.1	3.8	7.46e-01	0	23	104	0	68	13159
2026-01-10 04:06:39.67	359.30	26.24	-49.7	-61.1	3.8	7.43e-01	0	23	104	0	67	13992
2026-01-10 04:06:42.66	358.46	26.61	-55.3	-68.4	3.8	7.47e-01	0	23	104	0	78	17243
2026-01-10 04:06:45.67	357.61	26.98	-49.5	-60.8	3.8	7.48e-01	0	23	104	0	68	12697
2026-01-10 04:06:48.68	356.73	27.35	-49.6	-60.9	3.8	7.43e-01	0	23	104	0	67	13697
2026-01-10 04:06:51.66	355.84	27.71	-49.1	-60.2	3.9	7.43e-01	0	23	104	0	67	12658
2026-01-10 04:06:54.67	354.92	28.07	-49.0	-60.2	3.9	7.46e-01	0	23	104	0	67	12624
2026-01-10 04:06:57.67	353.98	28.42	-55.4	-68.6	3.8	7.47e-01	0	23	104	0	78	17538
2026-01-10 04:07:00.67	353.02	28.78	-49.1	-60.4	3.8	7.48e-01	0	23	104	0	67	12874
2026-01-10 04:07:03.67	352.03	29.13	-51.8	-63.5	3.8	7.43e-01	0	23	104	0	71	14661
2026-01-10 04:07:06.68	351.03	29.47	-55.5	-68.6	3.8	7.48e-01	0	23	104	0	78	17509
2026-01-10 04:07:09.68	350.00	29.81	-49.0	-60.2	3.8	7.49e-01	0	23	104	0	67	12636
2026-01-10 04:07:12.66	348.95	30.14	-49.6	-61.0	3.8	7.44e-01	0	23	104	0	68	13023
2026-01-10 04:07:15.67	347.88	30.47	-49.1	-60.3	3.9	7.45e-01	0	23	104	0	67	12770
2026-01-10 04:07:18.67	346.78	30.79	-48.7	-60.0	3.9	7.45e-01	0	23	104	0	66	13003
2026-01-10 04:07:21.66	345.66	31.10	-55.4	-68.5	3.8	7.46e-01	0	23	104	0	78	17306
2026-01-10 04:07:24.66	344.52	31.40	-49.1	-60.4	3.8	7.48e-01	0	23	104	0	67	12840
2026-01-10 04:07:27.67	343.36	31.69	-49.3	-60.5	3.8	7.42e-01	0	23	104	0	66	13789
2026-01-10 04:07:30.67	342.17	31.97	-55.8	-69.2	3.8	7.44e-01	0	23	104	0	79	17818
2026-01-10 04:07:33.67	340.97	32.24	-48.9	-60.1	3.8	7.45e-01	0	23	104	0	67	12511
2026-01-10 04:07:36.65	339.75	32.50	-49.9	-61.2	3.8	7.45e-01	0	23	104	0	69	12575
2026-01-10 04:07:39.65	338.50	32.75	-49.1	-60.3	3.9	7.44e-01	0	23	104	0	67	12740
2026-01-10 04:07:42.65	337.24	32.98	-49.1	-60.3	3.8	7.45e-01	0	23	104	0	67	12788
2026-01-10 04:07:45.66	335.95	33.20	-55.6	-68.7	3.8	7.49e-01	0	23	104	0	78	17816
2026-01-10 04:07:48.67	334.64	33.41	-49.4	-60.7	3.9	7.43e-01	0	23	104	0	68	12659
2026-01-10 04:07:51.66	333.33	33.60	-50.1	-61.5	3.8	7.45e-01	0	23	104	0	67	14668
2026-01-10 04:07:54.67	331.99	33.77	-56.2	-69.9	3.8	7.46e-01	0	23	104	0	80	18196
2026-01-10 04:07:57.66	330.65	33.93	-49.5	-60.7	3.8	7.43e-01	0	23	104	0	68	12612
2026-01-10 04:08:00.66	329.29	34.07	-50.2	-61.6	3.8	7.42e-01	0	23	104	0	69	13141
2026-01-10 04:08:03.66	327.92	34.19	-49.3	-60.5	3.8	7.51e-01	0	23	104	0	67	12985
2026-01-10 04:08:06.67	326.53	34.30	-49.2	-60.5	3.8	7.46e-01	0	23	104	0	67	13025
2026-01-10 04:08:09.68	325.14	34.38	-55.8	-69.2	3.8	7.45e-01	0	23	104	0	79	17714
2026-01-10 04:08:12.66	323.75	34.45	-49.9	-61.3	3.8	7.45e-01	0	23	104	0	69	12714
2026-01-10 04:08:15.66	322.35	34.50	-50.6	-62.0	3.9	7.47e-01	0	23	104	0	68	14707
2026-01-10 04:08:18.67	320.94	34.53	-56.0	-69.5	3.8	7.45e-01	0	23	104	0	80	17432
2026-01-10 04:08:21.67	319.53	34.54	-49.6	-60.9	3.8	7.47e-01	0	23	104	0	68	12958
2026-01-10 04:08:24.68	318.12	34.53	-50.1	-61.4	3.8	7.46e-01	0	23	104	0	69	12931
2026-01-10 04:08:27.67	316.72	34.50	-49.8	-61.1	3.8	7.46e-01	0	23	104	0	68	13175
2026-01-10 04:08:30.67	315.31	34.46	-49.6	-60.9	3.9	7.46e-01	0	23	104	0	68	12879
2026-01-10 04:08:33.67	313.92	34.39	-56.0	-69.3	3.8	7.48e-01	0	23	104	0	79	18071
2026-01-10 04:08:36.67	312.53	34.31	-49.4	-51.0	16.1	6.03e-01	0	23	0	3670016	68	4113
2026-01-10 04:08:39.67	311.14	34.20	-49.6	-51.4	15.9	6.03e-01	0	23	0	9437184	67	4552
2026-01-10 04:08:42.67	309.77	34.08	-49.4	-51.0	16.0	6.03e-01	0	23	0	14680064	67	4385
2026-01-10 04:08:45.68	308.40	33.94	-48.8	-50.3	16.1	6.04e-01	0	23	0	20447232	66	4273
2026-01-10 04:08:48.68	307.05	33.79	-49.1	-50.7	16.1	6.05e-01	0	23	0	26214400	67	4237
2026-01-10 04:08:51.68	305.72	33.62	-49.3	-50.9	16.1	6.02e-01	0	23	0	31981568	67	4329
2026-01-10 04:08:54.68	304.40	33.43	-48.9	-50.5	16.2	6.05e-01	0	23	0	37224448	67	4105
2026-01-10 04:08:57.68	303.09	33.22	-49.2	-50.8	16.0	6.03e-01	0	23	0	42991616	67	4257
2026-01-10 04:09:00.68	301.80	33.01	-50.0	-51.8	15.8	6.04e-01	0	23	0	48758784	68	4510
2026-01-10 04:09:03.68	300.54	32.77	-50.3	-52.2	15.7	6.02e-01	0	23	0	54525952	68	4731
2026-01-10 04:09:06.68	299.29	32.53	-48.7	-50.3	16.1	6.04e-01	0	23	0	59768832	66	4245
2026-01-10 04:09:09.70	298.05	32.27	-48.9	-50.5	16.1	6.03e-01	0	23	0	65536000	67	4114
2026-01-10 04:09:12.70	296.84	32.00	-49.2	-50.9	16.1	6.03e-01	0	23	0	71303168	67	4294
2026-01-10 04:09:15.69	295.65	31.72	-49.1	-50.8	16.1	6.04e-01	0	23	0	77070336	67	4244
2026-01-10 04:09:18.69	294.49	31.43	-49.1	-50.7	16.1	6.02e-01	0	23	0	82313216	67	4199
2026-01-10 04:09:21.68	293.34	31.13	-49.5	-51.2	15.9	6.05e-01	0	23	0	88080384	67	4478
2026-01-10 04:09:24.67	292.23	30.82	-49.4	-51.1	16.0	6.04e-01	0	23	0	93847552	67	4411
2026-01-10 04:09:27.68	291.12	30.50	-50.1	-51.9	15.7	6.05e-01	0	23	0	99090432	67	4840
2026-01-10 04:09:30.68	290.04	30.17	-49.6	-51.3	15.9	6.03e-01	0	23	0	104857600	67	4531
2026-01-10 04:09:33.68	288.99	29.84	-49.6	-51.3	16.1	6.04e-01	0	23	0	110624768	68	4272
2026-01-10 04:09:36.68	287.95	29.50	-49.0	-50.6	16.2	6.03e-01	0	23	0	116391936	67	4160
2026-01-10 04:09:39.68	286.94	29.15	-50.3	-52.2	15.8	6.04e-01	0	23	0	121634816	68	4707
2026-01-10 04:09:42.69	285.95	28.80	-49.3	-50.9	16.0	6.05e-01	0	23	0	127401984	67	4306
2026-01-10 04:09:45.69	284.99	28.45	-50.2	-52.1	15.8	6.03e-01	0	23	0	133169152	68	4686
2026-01-10 04:09:48.70	284.04	28.09	-49.4	-51.0	16.2	6.02e-01	0	23	0	138936320	68	4130
2026-01-10 04:09:51.69	283.12	27.73	-49.9	-51.8	15.8	6.02e-01	0	23	0	144179200	67	4764
2026-01-10 04:09:54.68	282.22	27.37	-49.7	-51.4	15.9	6.05e-01	0	23	0	149946368	68	4335
2026-01-10 04:09:57.69	281.34	27.00	-48.8	-50.3	16.1	6.03e-01	0	23	0	155713536	66	4274
2026-01-10 04:10:00.69	280.48	26.64	-49.5	-51.2	15.9	6.03e-01	0	23	0	160956416	67	4468
2026-01-10 04:10:03.69	279.65	26.27	-50.0	-51.8	15.7	6.03e-01	0	23	0	166723584	67	4798
2026-01-10 04:10:06.69	278.83	25.90	-50.6	-52.5	15.6	6.02e-01	0	23	0	172490752	68	4915
2026-01-10 04:10:09.69	278.03	25.53	-50.2	-52.0	15.6	6.04e-01	0	23	0	178257920	68	4650
2026-01-10 04:10:12.68	277.25	25.16	-50.1	-51.9	15.8	6.05e-01	0	23	0	183500800	68	4557
2026-01-10 04:10:15.68	276.50	24.79	-49.4	-51.1	16.0	6.07e-01	0	23	0	189267968	67	4420
2026-01-10 04:10:18.69	275.75	24.42	-49.5	-51.2	15.9	6.06e-01	0	23	0	195035136	67	4443
2026-01-10 04:10:21.69	275.03	24.05	-49.6	-51.3	15.9	6.04e-01	0	23	0	200278016	67	4513
2026-01-10 04:10:24.69	274.32	23.68	-50.0	-51.9	15.7	6.04e-01	0	23	0	206045184	67	4833
2026-01-10 04:10:27.68	273.64	23.31	-49.8	-51.6	15.9	6.04e-01	0	23	0	211812352	68	4415
2026-01-10 04:10:30.68	272.97	22.95	-49.7	-51.4	16.0	6.02e-01	0	23	0	217579520	68	4293
2026-01-10 04:10:33.68	272.31	22.58	-49.9	-51.7	15.9	6.03e-01	0	23	0	222822400	68	4462
2026-01-10 04:10:36.69	271.67	22.22	-49.7	-51.4	16.0	6.03e-01	0	23	0	228589568	68	4323
2026-01-10 04:10:39.71	271.04	21.86	-49.6	-51.3	16.1	6.04e-01	0	23	0	234356736	68	4253
2026-01-10 04:10:42.70	270.44	21.50	-49.6	-51.3	16.1	6.03e-01	0	23	0	240123904	68	4285
2026-01-10 04:10:45.70	269.84	21.14	-49.6	-51.4	16.1	6.05e-01	0	23	0	245366784	68	4292
2026-01-10 04:10:48.69	269.27	20.79	-49.5	-51.2	16.1	6.03e-01	0	23	0	251133952	68	4242
2026-01-10 04:10:51.68	268.70	20.44	-49.6	-51.3	16.0	6.03e-01	0	23	0	256901120	68	4280
2026-01-10 04:10:54.69	268.15	20.09	-49.7	-51.4	16.0	6.03e-01	0	23	0	262144000	68	4340
2026-01-10 04:10:57.70	267.61	19.74	-49.6	-51.3	16.1	6.04e-01	0	23	0	267911168	68	4277
2026-01-10 04:11:00.71	267.08	19.40	-49.7	-51.4	16.0	6.03e-01	0	23	0	273678336	68	4306
2026-01-10 04:11:03.72	266.57	19.06	-49.7	-51.4	16.0	6.04e-01	0	23	0	279445504	68	4331
2026-01-10 04:11:06.72	266.07	18.72	-49.5	-51.2	16.1	6.03e-01	0	23	0	285212672	68	4229
2026-01-10 04:11:09.70	265.58	18.39	-49.5	-51.1	16.1	6.03e-01	0	23	0	290455552	68	4192
2026-01-10 04:11:12.71	265.10	18.06	-49.4	-51.1	15.9	6.04e-01	0	23	0	296222720	67	4417
2026-01-10 04:11:15.71	264.64	17.73	-49.4	-51.1	15.9	6.03e-01	0	23	0	301989888	67	4438
2026-01-10 04:11:18.73	264.18	17.40	-49.2	-50.9	16.1	6.01e-01	0	23	0	307757056	67	4296
2026-01-10 04:11:21.73	263.73	17.08	-49.4	-51.1	16.0	6.02e-01	0	23	0	312999936	67	4403
2026-01-10 04:11:24.73	263.30	16.76	-49.3	-51.1	16.0	6.04e-01	0	23	0	318767104	67	4396
2026-01-10 04:11:27.73	262.87	16.44	-49.4	-51.1	15.9	6.02e-01	0	23	0	324534272	67	4428
2026-01-10 04:11:30.74	262.45	16.12	-49.5	-51.2	15.9	6.01e-01	0	23	0	329777152	67	4474
2026-01-10 04:11:33.73	262.05	15.81	-49.2	-50.9	16.0	6.03e-01	0	23	0	335544320	67	4328
2026-01-10 04:11:36.71	261.65	15.51	-49.3	-51.0	16.0	6.02e-01	0	23	0	341311488	67	4358
2026-01-10 04:11:39.71	261.26	15.20	-49.5	-51.3	15.9	6.02e-01	0	23	0	347078656	67	4512
2026-01-10 04:11:42.71	260.88	14.90	-49.6	-51.4	15.8	6.02e-01	0	23	0	352321536	67	4565
2026-01-10 04:11:45.70	260.51	14.60	-49.5	-51.3	15.9	6.03e-01	0	23	0	358088704	67	4500
2026-01-10 04:11:48.70	260.15	14.30	-49.4	-51.1	15.9	6.01e-01	0	23	0	363855872	67	4417
2026-01-10 04:11:51.71	259.79	14.01	-49.4	-51.2	15.9	6.05e-01	0	23	0	369623040	67	4449
2026-01-10 04:11:54.71	259.44	13.72	-49.6	-51.4	15.8	6.03e-01	0	23	0	374865920	67	4564
2026-01-10 04:11:57.72	259.10	13.43	-49.6	-51.4	15.8	6.04e-01	0	23	0	380633088	67	4562
2026-01-10 04:12:00.70	258.77	13.15	-49.5	-51.2	15.9	6.03e-01	0	23	0	386400256	67	4489
2026-01-10 04:12:03.70	258.44	12.86	-49.5	-51.3	15.9	6.03e-01	0	23	0	391643136	67	4498
2026-01-10 04:12:06.69	258.12	12.59	-49.6	-51.4	15.8	6.01e-01	0	23	0	397410304	67	4582
2026-01-10 04:12:09.70	257.81	12.31	-49.6	-51.4	15.9	6.03e-01	0	23	0	403177472	67	4548
2026-01-10 04:12:12.70	257.50	12.03	-49.6	-51.4	15.9	6.03e-01	0	23	0	408944640	67	4561
2026-01-10 04:12:15.71	257.20	11.76	-49.8	-51.6	15.8	6.03e-01	0	23	0	414187520	67	4679
2026-01-10 04:12:18.70	256.90	11.49	-49.8	-51.7	15.7	6.05e-01	0	23	0	419954688	67	4717
2026-01-10 04:12:21.69	256.62	11.23	-49.7	-51.5	15.8	6.03e-01	0	23	0	425721856	67	4638
2026-01-10 04:12:24.69	256.33	10.96	-49.7	-51.5	15.8	6.01e-01	0	23	0	431489024	67	4642
2026-01-10 04:12:27.69	256.06	10.70	-49.9	-51.8	15.7	6.03e-01	0	23	0	436731904	67	4779
2026-01-10 04:12:30.68	255.78	10.44	-49.9	-51.8	15.7	6.03e-01	0	23	0	442499072	67	4765
2026-01-10 04:12:33.68	255.52	10.19	-50.0	-51.9	15.6	6.02e-01	0	23	0	448266240	67	4855
2026-01-10 04:12:36.68	255.25	9.93	-49.9	-51.8	15.7	6.01e-01	0	23	0	453509120	67	4777
2026-01-10 04:12:39.68	255.00	9.68	-50.0	-51.9	15.7	6.03e-01	0	23	0	459276288	67	4822
2026-01-10 04:12:42.67	254.75	9.43	-50.1	-52.0	15.6	6.05e-01	0	23	0	465043456	67	4923
2026-01-10 04:12:45.66	254.50	9.18	-50.2	-52.1	15.7	6.04e-01	0	23	0	470286336	68	4687
2026-01-10 04:12:48.67	254.26	8.94	-50.1	-52.0	15.8	6.02e-01	0	23	0	476053504	68	4621
2026-01-10 04:12:51.68	254.02	8.69	-50.2	-52.2	15.7	6.03e-01	0	23	0	481820672	68	4717
2026-01-10 04:12:54.66	253.79	8.45	-50.3	-52.3	15.7	6.02e-01	0	23	0	487587840	68	4806
2026-01-10 04:12:57.65	253.56	8.22	-50.2	-52.2	15.7	6.03e-01	0	23	0	492830720	68	4735
2026-01-10 04:13:00.65	253.33	7.98	-50.3	-52.3	15.6	6.04e-01	0	23	0	498597888	68	4802
2026-01-10 04:13:03.64	253.11	7.74	-50.3	-52.3	15.6	6.02e-01	0	23	0	504365056	68	4793
2026-01-10 04:13:06.63	252.90	7.51	-50.4	-52.4	15.6	6.04e-01	0	23	0	509607936	68	4870
2026-01-10 04:13:09.63	252.68	7.28	-50.4	-52.4	15.6	6.03e-01	0	23	0	515375104	68	4850
2026-01-10 04:13:12.62	252.47	7.05	-50.5	-52.6	15.5	6.04e-01	0	23	0	521142272	68	4935
2026-01-10 04:13:15.62	252.27	6.83	-50.6	-52.8	15.6	6.05e-01	0	23	0	526909440	69	4770
2026-01-10 04:13:18.62	252.07	6.60	-50.6	-52.7	15.6	6.03e-01	0	23	0	532152320	69	4747
2026-01-10 04:13:21.62	251.87	6.38	-50.7	-52.8	15.6	6.02e-01	0	23	0	537919488	69	4805
2026-01-10 04:13:24.60	251.67	6.16	-50.5	-52.5	15.7	6.05e-01	0	23	0	543686656	69	4648
2026-01-10 04:13:27.61	251.48	5.94	-50.6	-52.7	15.6	6.03e-01	0	23	0	548929536	69	4755
2026-01-10 04:13:30.60	251.29	5.72	-50.6	-52.7	15.6	6.03e-01	0	23	0	554696704	69	4755
2026-01-10 04:13:33.60	251.11	5.50	-50.7	-52.9	15.5	6.03e-01	0	23	0	560463872	69	4828
2026-01-10 04:13:36.57	250.93	5.29	-50.7	-52.9	15.6	6.04e-01	0	23	0	565706752	69	4832
2026-01-10 04:13:39.56	250.75	5.08	-50.7	-52.9	15.5	6.04e-01	0	23	0	571473920	69	4833
2026-01-10 04:13:42.55	250.57	4.87	-57.9	-77.2	3.8	7.46e-01	0	23	104	573571072	83	35380
2026-01-10 04:13:45.55	250.40	4.66	-58.5	-77.8	3.8	7.46e-01	0	23	104	573571072	84	35945
2026-01-10 04:13:48.56	250.23	4.45	-58.8	-78.1	3.8	7.46e-01	0	23	104	573571072	85	35207
2026-01-10 04:13:51.56	250.06	4.24	-58.9	-78.3	3.8	7.47e-01	0	24	104	573571072	85	35746
2026-01-10 04:13:54.56	249.90	4.04	-59.0	-78.4	3.8	7.42e-01	0	23	104	573571072	85	36109
2026-01-10 04:13:57.56	249.73	3.84	-59.0	-78.4	3.8	7.45e-01	0	24	104	573571072	85	36216
2026-01-10 04:14:00.56	249.57	3.63	-59.0	-78.4	3.8	7.48e-01	0	23	104	573571072	85	36368
2026-01-10 04:14:03.56	249.42	3.43	-59.1	-78.4	3.8	7.42e-01	0	23	104	573571072	86	34472
2026-01-10 04:14:06.56	249.26	3.23	-59.0	-78.4	3.8	7.48e-01	0	23	104	573571072	86	34149
2026-01-10 04:14:09.55	249.11	3.04	-59.0	-78.4	3.8	7.46e-01	0	23	104	573571072	86	34169
2026-01-10 04:14:12.55	248.96	2.84	-59.0	-78.3	3.8	7.42e-01	0	23	104	573571072	86	34077
2026-01-10 04:14:15.56	248.81	2.65	-59.0	-78.3	3.8	7.48e-01	0	23	104	573571072	86	33987
2026-01-10 04:14:18.55	248.67	2.45	-58.9	-78.3	3.8	7.47e-01	0	23	104	573571072	86	33890
2026-01-10 04:14:21.56	248.52	2.26	-58.9	-78.3	3.8	7.45e-01	0	24	104	573571072	86	33864
2026-01-10 04:14:24.55	248.38	2.07	-58.9	-78.3	3.8	7.46e-01	0	23	104	573571072	86	33906
2026-01-10 04:14:27.54	248.24	1.88	-58.9	-78.3	3.8	7.45e-01	0	24	104	573571072	86	33804

#Closed at: 2026-01-10 04:14:27
#Recorded file [573 MB]: D:/lorett/data/31004_260110_070218.dat