passes_logs/2026/01/10/R3.2S_Murmansk/R3.2S_Murmansk__20260110_230547_SUOMI_NPP_rec.log

#Pass ID: 20260110_230547_SUOMI NPP
#Satellite: SUOMI NPP
#Configuration: NPP
#almurnet v.1.7.20251203
#Start time: 2026-01-10 23:05:48

#Version: 2.2.20231116
#Station: R3.2S_Murmansk
#Location: 33.079688 lon 68.888172 lat
#TLE: 1 37849U 11061A   26009.81756760  .00000113  00000+0  74747-4 0  9994
#TLE: 2 37849  98.7806 311.9110 0002525  72.5604 287.5848 14.19524046735974

#Time	Az	El	Level	Level2	SNR	BER	BlckErr	Temp	State	Recorded	gain1	gain2
2026-01-10 23:05:48.28	19.96	2.07	-57.1	-73.0	3.8	1.49e+00	0	21	0	0	80	22460
2026-01-10 23:05:52.29	20.16	2.31	-57.1	-72.6	3.8	1.49e+00	0	21	104	0	79	22633
2026-01-10 23:05:56.29	20.37	2.55	-57.1	-72.1	3.8	1.49e+00	0	21	104	0	79	21314
2026-01-10 23:06:00.29	20.58	2.80	-57.0	-71.9	3.8	1.49e+00	0	21	104	0	79	20980
2026-01-10 23:06:04.28	20.79	3.04	-57.0	-71.7	3.8	1.49e+00	0	21	104	0	79	20322
2026-01-10 23:06:08.29	21.01	3.29	-57.0	-69.6	4.2	1.42e+00	0	22	0	0	79	16082
2026-01-10 23:06:12.31	21.23	3.53	-56.8	-67.8	4.9	8.99e-01	0	22	0	6291456	79	12962
2026-01-10 23:06:16.31	21.46	3.78	-56.6	-65.6	6.1	3.09e-01	0	22	0	13631488	79	10100
2026-01-10 23:06:20.29	21.68	4.03	-55.7	-61.5	9.6	3.80e-03	0	22	0	20971520	77	7065
2026-01-10 23:06:24.28	21.91	4.29	-54.3	-58.0	12.4	6.10e-06	0	22	0	28311552	75	5309
2026-01-10 23:06:28.27	22.15	4.54	-54.1	-57.7	12.5	0.00e+00	0	22	0	35651584	74	5452
2026-01-10 23:06:32.28	22.38	4.80	-55.2	-60.4	10.4	3.37e-04	0	22	0	42991616	75	6999
2026-01-10 23:06:36.27	22.63	5.06	-56.5	-64.8	6.7	1.14e-01	0	22	0	50331648	78	9774
2026-01-10 23:06:40.28	22.87	5.32	-55.6	-61.1	10.1	3.81e-03	0	22	0	58720256	76	7160
2026-01-10 23:06:44.26	23.12	5.58	-54.2	-57.7	12.6	7.00e-07	0	22	0	66060288	74	5451
2026-01-10 23:06:48.26	23.38	5.85	-53.9	-57.1	13.1	7.00e-07	0	22	0	73400320	74	5080
2026-01-10 23:06:52.27	23.64	6.12	-53.7	-56.9	13.1	0.00e+00	0	22	0	80740352	73	5259
2026-01-10 23:06:56.28	23.90	6.39	-53.5	-56.5	13.4	0.00e+00	0	22	0	88080384	73	5015
2026-01-10 23:07:00.29	24.17	6.67	-53.5	-56.5	13.5	0.00e+00	0	22	0	95420416	73	5025
2026-01-10 23:07:04.28	24.44	6.94	-53.2	-55.9	13.7	0.00e+00	0	22	0	103809024	72	4945
2026-01-10 23:07:08.29	24.72	7.22	-53.0	-55.7	13.9	0.00e+00	0	22	0	111149056	72	4818
2026-01-10 23:07:12.27	25.00	7.50	-53.0	-55.6	14.0	0.00e+00	0	22	0	118489088	72	4767
2026-01-10 23:07:16.28	25.29	7.78	-52.9	-55.4	14.1	0.00e+00	0	22	0	125829120	72	4675
2026-01-10 23:07:20.29	25.58	8.07	-53.0	-55.6	14.0	0.00e+00	0	23	0	133169152	72	4788
2026-01-10 23:07:24.27	25.88	8.36	-52.8	-55.3	14.2	0.00e+00	0	22	0	140509184	72	4620
2026-01-10 23:07:28.26	26.18	8.65	-52.7	-55.1	14.4	0.00e+00	0	22	0	147849216	72	4502
2026-01-10 23:07:32.25	26.49	8.94	-52.6	-55.0	14.2	0.00e+00	0	23	0	156237824	71	4736
2026-01-10 23:07:36.24	26.81	9.24	-52.4	-54.6	14.5	0.00e+00	0	23	0	163577856	71	4541
2026-01-10 23:07:40.21	27.13	9.54	-52.3	-54.6	14.3	0.00e+00	0	23	0	170917888	70	4792
2026-01-10 23:07:44.21	27.46	9.84	-52.2	-54.4	14.5	0.00e+00	0	23	0	178257920	70	4653
2026-01-10 23:07:48.20	27.79	10.15	-52.1	-54.2	14.6	0.00e+00	0	23	0	185597952	70	4568
2026-01-10 23:07:52.20	28.13	10.45	-51.9	-54.0	14.8	0.00e+00	0	23	0	192937984	70	4476
2026-01-10 23:07:56.20	28.48	10.77	-51.7	-53.7	14.8	0.00e+00	0	23	0	200278016	69	4568
2026-01-10 23:08:00.18	28.83	11.08	-51.4	-53.3	15.0	0.00e+00	0	23	0	208666624	69	4371
2026-01-10 23:08:04.17	29.19	11.40	-51.2	-53.1	14.9	0.00e+00	0	23	0	216006656	68	4515
2026-01-10 23:08:08.16	29.56	11.72	-51.3	-53.2	14.9	0.00e+00	0	23	0	223346688	68	4596
2026-01-10 23:08:12.16	29.94	12.04	-51.6	-53.6	14.7	0.00e+00	0	23	0	230686720	68	4763
2026-01-10 23:08:16.16	30.33	12.37	-51.5	-53.5	14.7	0.00e+00	0	23	0	238026752	68	4718
2026-01-10 23:08:20.16	30.72	12.70	-51.4	-53.4	14.8	0.00e+00	0	23	0	245366784	68	4656
2026-01-10 23:08:24.14	31.12	13.03	-51.2	-53.0	15.0	0.00e+00	0	23	0	252706816	68	4465
2026-01-10 23:08:28.12	31.53	13.37	-51.2	-53.0	15.0	0.00e+00	0	22	0	260046848	68	4478
2026-01-10 23:08:32.10	31.95	13.71	-51.2	-53.0	14.9	0.00e+00	0	23	0	268435456	68	4485
2026-01-10 23:08:36.09	32.38	14.05	-51.1	-52.9	15.0	0.00e+00	0	23	0	275775488	68	4405
2026-01-10 23:08:40.07	32.82	14.40	-51.4	-53.3	14.9	0.00e+00	0	23	0	283115520	68	4601
2026-01-10 23:08:44.06	33.27	14.75	-51.7	-53.8	14.6	0.00e+00	0	23	0	290455552	68	4879
2026-01-10 23:08:48.05	33.73	15.11	-51.7	-53.7	14.6	0.00e+00	0	22	0	297795584	68	4849
2026-01-10 23:08:52.04	34.19	15.46	-51.6	-53.6	14.7	0.00e+00	0	23	0	305135616	68	4779
2026-01-10 23:08:56.04	34.68	15.83	-51.6	-53.5	14.7	0.00e+00	0	23	0	312475648	68	4724
2026-01-10 23:09:00.03	35.17	16.19	-51.7	-53.7	14.6	0.00e+00	0	23	0	320864256	68	4851
2026-01-10 23:09:04.03	35.67	16.56	-51.9	-53.9	14.7	0.00e+00	0	23	0	328204288	69	4678
2026-01-10 23:09:08.00	36.19	16.93	-52.0	-54.1	14.6	0.00e+00	0	23	0	335544320	69	4781
2026-01-10 23:09:12.00	36.72	17.31	-51.8	-53.8	14.7	0.00e+00	0	23	0	342884352	69	4633
2026-01-10 23:09:16.01	37.26	17.69	-51.9	-53.9	14.7	0.00e+00	0	23	0	350224384	69	4679
2026-01-10 23:09:20.01	37.81	18.07	-52.0	-54.1	14.6	0.00e+00	0	23	0	357564416	69	4776
2026-01-10 23:09:24.00	38.38	18.46	-52.4	-54.5	14.5	0.00e+00	0	23	0	364904448	70	4724
2026-01-10 23:09:28.00	38.97	18.85	-52.3	-54.4	14.6	0.00e+00	0	23	0	373293056	70	4704
2026-01-10 23:09:31.98	39.56	19.24	-52.4	-54.6	14.5	0.00e+00	0	23	0	380633088	70	4765
2026-01-10 23:09:35.95	40.17	19.64	-52.0	-54.0	14.8	0.00e+00	0	23	0	387973120	70	4463
2026-01-10 23:09:39.92	40.80	20.03	-51.4	-53.2	15.1	0.00e+00	0	23	0	395313152	69	4329
2026-01-10 23:09:43.92	41.44	20.44	-51.3	-53.1	15.0	0.00e+00	0	23	0	402653184	68	4516
2026-01-10 23:09:47.92	42.10	20.84	-51.2	-52.9	15.1	0.00e+00	0	23	0	409993216	68	4439
2026-01-10 23:09:51.91	42.78	21.25	-50.6	-52.2	15.2	0.00e+00	0	23	0	417333248	67	4336
2026-01-10 23:09:55.89	43.47	21.66	-50.2	-51.8	15.5	0.00e+00	0	23	0	424673280	67	4116
2026-01-10 23:09:59.90	44.19	22.08	-50.4	-52.0	15.2	0.00e+00	0	23	0	433061888	66	4479
2026-01-10 23:10:03.89	44.92	22.49	-50.4	-52.0	15.1	0.00e+00	0	23	0	440401920	66	4491
2026-01-10 23:10:07.89	45.68	22.91	-50.1	-51.7	15.3	0.00e+00	0	23	0	447741952	66	4297
2026-01-10 23:10:11.90	46.45	23.33	-50.0	-51.6	15.4	0.00e+00	0	23	0	455081984	66	4271
2026-01-10 23:10:15.90	47.24	23.75	-49.7	-51.2	15.6	0.00e+00	0	23	0	462422016	66	4091
2026-01-10 23:10:19.90	48.06	24.18	-49.4	-50.9	15.5	0.00e+00	0	23	0	469762048	65	4150
2026-01-10 23:10:23.90	48.90	24.60	-49.8	-51.3	15.4	0.00e+00	0	23	0	478150656	65	4348
2026-01-10 23:10:27.89	49.75	25.03	-50.0	-51.6	15.2	0.00e+00	0	23	0	485490688	65	4497
2026-01-10 23:10:31.88	50.63	25.45	-50.1	-51.6	15.2	0.00e+00	0	23	0	492830720	65	4529
2026-01-10 23:10:35.88	51.54	25.87	-49.9	-51.5	15.3	0.00e+00	0	23	0	500170752	65	4456
2026-01-10 23:10:39.86	52.46	26.30	-50.2	-51.8	15.1	0.00e+00	0	23	0	507510784	65	4648
2026-01-10 23:10:43.85	53.42	26.72	-50.6	-52.2	15.1	0.00e+00	0	23	0	514850816	66	4590
2026-01-10 23:10:47.85	54.39	27.14	-51.2	-53.0	14.8	0.00e+00	0	23	0	522190848	67	4728
2026-01-10 23:10:51.85	55.40	27.55	-51.7	-53.6	14.8	0.00e+00	0	23	0	530579456	68	4797
2026-01-10 23:10:55.86	56.43	27.97	-52.1	-54.1	14.6	0.00e+00	0	23	0	537919488	69	4786
2026-01-10 23:10:59.87	57.49	28.38	-52.7	-54.9	14.4	0.00e+00	0	23	0	545259520	70	4935
2026-01-10 23:11:03.89	58.58	28.79	-53.4	-55.9	14.1	0.00e+00	0	23	0	552599552	72	4942
2026-01-10 23:11:07.89	59.69	29.19	-53.5	-56.0	14.0	0.00e+00	0	23	0	559939584	72	4988
2026-01-10 23:11:11.89	60.83	29.59	-53.6	-56.2	13.9	0.00e+00	0	23	0	567279616	72	5103
2026-01-10 23:11:15.91	62.00	29.98	-54.7	-57.9	13.0	0.00e+00	0	23	0	575668224	74	5541
2026-01-10 23:11:19.92	63.20	30.36	-54.6	-57.6	13.4	0.00e+00	0	23	0	583008256	75	5055
2026-01-10 23:11:23.91	64.42	30.73	-55.1	-58.6	12.6	0.00e+00	0	23	0	590348288	75	5676
2026-01-10 23:11:27.91	65.67	31.09	-55.0	-58.5	12.7	0.00e+00	0	23	0	597688320	75	5601
2026-01-10 23:11:31.91	66.94	31.44	-53.6	-56.1	14.1	0.00e+00	0	23	0	605028352	73	4810
2026-01-10 23:11:35.90	68.24	31.78	-54.3	-57.1	13.4	0.00e+00	0	23	0	612368384	73	5384
2026-01-10 23:11:39.90	69.57	32.11	-53.7	-56.2	14.2	0.00e+00	0	23	0	619708416	74	4550
2026-01-10 23:11:43.89	70.93	32.42	-52.6	-54.7	14.7	0.00e+00	0	23	0	628097024	71	4576
2026-01-10 23:11:47.88	72.31	32.72	-54.1	-56.8	13.7	0.00e+00	0	23	0	635437056	74	4913
2026-01-10 23:11:51.87	73.71	33.00	-53.3	-55.7	14.2	0.00e+00	0	23	0	642777088	72	4831
2026-01-10 23:11:55.88	75.14	33.27	-54.6	-57.6	13.2	0.00e+00	0	23	0	650117120	74	5382
2026-01-10 23:11:59.88	76.60	33.52	-55.6	-59.3	12.4	3.80e-06	0	23	0	657457152	77	5477
2026-01-10 23:12:03.87	78.07	33.75	-56.6	-61.7	10.5	8.40e-04	0	23	0	664797184	78	6813
2026-01-10 23:12:07.87	79.56	33.96	-55.1	-58.2	13.1	0.00e+00	0	23	0	672137216	76	5155
2026-01-10 23:12:11.86	81.07	34.15	-55.1	-58.4	13.0	0.00e+00	0	23	0	680525824	76	5243
2026-01-10 23:12:15.85	82.60	34.32	-53.9	-56.5	14.0	0.00e+00	0	23	0	687865856	74	4732
2026-01-10 23:12:19.86	84.15	34.47	-55.0	-58.3	12.8	0.00e+00	0	23	0	695205888	75	5528
2026-01-10 23:12:23.86	85.70	34.60	-55.9	-59.8	11.9	1.29e-05	0	23	0	702545920	76	6182
2026-01-10 23:12:27.85	87.27	34.70	-55.0	-58.1	13.1	0.00e+00	0	23	0	709885952	76	5087
2026-01-10 23:12:31.83	88.84	34.78	-55.0	-58.3	12.9	0.00e+00	0	23	0	717225984	75	5484
2026-01-10 23:12:35.82	90.42	34.84	-56.8	-62.1	10.2	6.87e-04	0	23	0	724566016	78	7157
2026-01-10 23:12:39.81	92.00	34.87	-56.9	-62.3	10.1	4.63e-03	0	23	0	732954624	79	6900
2026-01-10 23:12:43.80	93.59	34.88	-54.6	-57.5	13.5	0.00e+00	0	23	0	740294656	75	5011
2026-01-10 23:12:47.79	95.18	34.87	-54.6	-57.6	13.4	0.00e+00	0	23	0	747634688	75	5081
2026-01-10 23:12:51.78	96.76	34.83	-56.0	-60.1	11.7	4.11e-05	0	23	0	754974720	77	6043
2026-01-10 23:12:55.77	98.34	34.76	-54.5	-57.4	13.5	0.00e+00	0	23	0	762314752	75	4956
2026-01-10 23:12:59.77	99.92	34.68	-53.9	-56.4	13.9	0.00e+00	0	23	0	769654784	73	4965
2026-01-10 23:13:03.78	101.49	34.57	-56.6	-61.5	10.8	5.68e-04	0	23	0	776994816	79	6341
2026-01-10 23:13:07.77	103.04	34.43	-56.3	-60.7	11.4	4.57e-05	0	23	0	785383424	77	6480
2026-01-10 23:13:11.76	104.58	34.28	-55.3	-58.7	12.9	7.00e-07	0	23	0	792723456	77	5113
2026-01-10 23:13:15.75	106.10	34.10	-54.4	-57.2	13.7	0.00e+00	0	23	0	800063488	75	4831
2026-01-10 23:13:19.76	107.61	33.90	-55.6	-59.3	12.2	0.00e+00	0	23	0	807403520	76	5843
2026-01-10 23:13:23.75	109.10	33.69	-54.0	-56.6	14.0	0.00e+00	0	23	0	814743552	74	4766
2026-01-10 23:13:27.74	110.57	33.45	-54.1	-56.8	13.8	0.00e+00	0	23	0	822083584	74	4909
2026-01-10 23:13:31.74	112.02	33.19	-53.6	-56.0	14.1	0.00e+00	0	23	0	829423616	73	4708
2026-01-10 23:13:35.73	113.44	32.92	-53.0	-55.2	14.3	0.00e+00	0	23	0	837812224	71	4832
2026-01-10 23:13:39.71	114.84	32.63	-52.7	-54.8	14.6	0.00e+00	0	23	0	845152256	71	4619
2026-01-10 23:13:43.70	116.21	32.33	-53.2	-55.5	14.2	0.00e+00	0	23	0	852492288	71	5011
2026-01-10 23:13:47.69	117.56	32.01	-51.7	-53.5	15.0	0.00e+00	0	23	0	859832320	69	4466
2026-01-10 23:13:51.68	118.88	31.68	-52.2	-54.1	14.6	0.00e+00	0	23	0	867172352	69	4795
2026-01-10 23:13:55.68	120.18	31.34	-51.5	-53.3	15.1	0.00e+00	0	23	0	874512384	69	4351
2026-01-10 23:13:59.69	121.46	30.98	-51.0	-52.7	15.2	0.00e+00	0	23	0	881852416	68	4306
2026-01-10 23:14:03.69	122.70	30.62	-51.4	-53.2	14.7	0.00e+00	0	23	0	890241024	67	4851
2026-01-10 23:14:07.69	123.92	30.24	-51.7	-53.5	14.9	0.00e+00	0	23	0	897581056	69	4477
2026-01-10 23:14:11.69	125.11	29.86	-52.4	-54.5	14.5	0.00e+00	0	23	0	904921088	70	4740
2026-01-10 23:14:15.68	126.26	29.46	-49.9	-51.4	15.5	0.00e+00	0	23	0	912261120	66	4146
2026-01-10 23:14:19.68	127.40	29.07	-52.0	-53.9	14.7	0.00e+00	0	23	0	919601152	69	4693
2026-01-10 23:14:23.67	128.50	28.66	-51.7	-53.6	14.7	0.00e+00	0	23	0	926941184	68	4768
2026-01-10 23:14:27.67	129.58	28.25	-51.6	-53.4	15.0	0.00e+00	0	23	0	934281216	69	4416
2026-01-10 23:14:31.66	130.63	27.84	-52.6	-54.8	14.4	0.00e+00	0	23	0	942669824	70	4894
2026-01-10 23:14:35.66	131.66	27.42	-50.4	-52.0	15.4	0.00e+00	0	23	0	950009856	67	4197
2026-01-10 23:14:39.63	132.65	27.01	-52.4	-54.5	14.6	0.00e+00	0	23	0	957349888	70	4722
2026-01-10 23:14:43.60	133.62	26.59	-51.4	-53.2	15.1	0.00e+00	0	23	0	964689920	69	4309
2026-01-10 23:14:47.59	134.57	26.16	-52.8	-55.1	14.3	0.00e+00	0	23	0	972029952	71	4788
2026-01-10 23:14:51.58	135.49	25.74	-51.5	-53.3	15.1	0.00e+00	0	23	0	979369984	69	4357
2026-01-10 23:14:55.57	136.39	25.31	-53.1	-55.5	14.1	0.00e+00	0	23	0	986710016	71	4990
2026-01-10 23:14:59.56	137.26	24.89	-50.5	-52.1	15.4	0.00e+00	0	23	0	994050048	67	4262
2026-01-10 23:15:03.57	138.12	24.46	-51.3	-53.2	14.7	0.00e+00	0	23	0	1002438656	67	4823
2026-01-10 23:15:07.56	138.95	24.03	-51.3	-53.0	15.1	0.00e+00	0	23	0	1009778688	69	4241
2026-01-10 23:15:11.56	139.76	23.61	-51.2	-53.0	15.0	0.00e+00	0	23	0	1017118720	68	4475
2026-01-10 23:15:15.57	140.56	23.18	-50.3	-51.9	15.4	0.00e+00	0	23	0	1024458752	67	4155
2026-01-10 23:15:19.56	141.32	22.76	-49.6	-51.1	15.4	0.00e+00	0	23	0	1031798784	65	4265
2026-01-10 23:15:23.56	142.07	22.34	-50.5	-52.2	15.1	0.00e+00	0	23	0	1039138816	66	4561
2026-01-10 23:15:27.56	142.81	21.92	-50.1	-51.7	15.3	0.00e+00	0	23	0	1047527424	66	4313
2026-01-10 23:15:31.55	143.51	21.51	-49.9	-51.5	15.2	0.00e+00	0	23	0	1054867456	65	4442
2026-01-10 23:15:35.54	144.21	21.10	-50.4	-52.1	15.1	0.00e+00	0	23	0	1062207488	66	4503
2026-01-10 23:15:39.52	144.88	20.69	-50.4	-52.1	15.1	0.00e+00	0	23	0	1069547520	66	4538
2026-01-10 23:15:43.52	145.54	20.28	-50.1	-51.7	15.3	0.00e+00	0	23	0	1076887552	66	4293
2026-01-10 23:15:47.52	146.18	19.87	-50.5	-52.2	15.0	0.00e+00	0	23	0	1084227584	66	4570
2026-01-10 23:15:51.52	146.80	19.47	-50.0	-51.6	15.3	0.00e+00	0	23	0	1091567616	66	4278
2026-01-10 23:15:55.51	147.41	19.07	-50.1	-51.6	15.3	0.00e+00	0	23	0	1098907648	66	4287
2026-01-10 23:15:59.50	148.01	18.68	-50.7	-52.4	14.9	0.00e+00	0	23	0	1107296256	66	4694
2026-01-10 23:16:03.51	148.59	18.29	-52.0	-54.1	14.5	0.00e+00	0	23	0	1114636288	69	4777
2026-01-10 23:16:07.52	149.16	17.90	-52.3	-54.5	14.5	0.00e+00	0	23	0	1121976320	70	4732
2026-01-10 23:16:11.52	149.71	17.51	-51.6	-53.5	14.9	0.00e+00	0	23	0	1129316352	69	4458
2026-01-10 23:16:15.51	150.25	17.13	-51.9	-54.0	14.6	0.00e+00	0	23	0	1136656384	69	4707
2026-01-10 23:16:19.51	150.77	16.76	-52.2	-54.3	14.4	0.00e+00	0	23	0	1143996416	69	4894
2026-01-10 23:16:23.51	151.29	16.38	-51.8	-53.9	14.7	0.00e+00	0	23	0	1152385024	69	4653
2026-01-10 23:16:27.52	151.79	16.01	-51.1	-52.8	15.0	0.00e+00	0	23	0	1159725056	68	4379
2026-01-10 23:16:31.51	152.28	15.64	-51.4	-53.3	14.8	0.00e+00	0	23	0	1167065088	68	4620
2026-01-10 23:16:35.50	152.75	15.28	-51.3	-53.1	14.9	0.00e+00	0	23	0	1174405120	68	4534
2026-01-10 23:16:39.49	153.22	14.92	-51.3	-53.2	14.9	0.00e+00	0	23	0	1181745152	68	4572
2026-01-10 23:16:43.48	153.67	14.57	-50.9	-52.7	15.1	0.00e+00	0	23	0	1189085184	68	4311
2026-01-10 23:16:47.47	154.12	14.22	-51.4	-53.3	14.8	0.00e+00	0	23	0	1196425216	68	4616
2026-01-10 23:16:51.46	154.55	13.87	-51.4	-53.3	14.8	0.00e+00	0	23	0	1204813824	68	4624
2026-01-10 23:16:55.43	154.98	13.52	-51.4	-53.4	14.7	0.00e+00	0	23	0	1212153856	68	4653
2026-01-10 23:16:59.43	155.40	13.18	-51.2	-53.1	14.9	0.00e+00	0	23	0	1219493888	68	4516
2026-01-10 23:17:03.43	155.80	12.84	-51.8	-53.8	14.5	0.00e+00	0	23	0	1226833920	68	4906
2026-01-10 23:17:07.42	156.20	12.51	-52.3	-54.5	14.2	0.00e+00	0	23	0	1234173952	69	5017
2026-01-10 23:17:11.40	156.59	12.18	-53.0	-55.5	13.9	0.00e+00	0	23	0	1241513984	71	5019
2026-01-10 23:17:15.39	156.97	11.85	-53.0	-55.6	13.9	0.00e+00	0	23	0	1248854016	71	5099
2026-01-10 23:17:19.39	157.35	11.53	-52.4	-54.7	14.4	0.00e+00	0	23	0	1256194048	71	4577
2026-01-10 23:17:23.37	157.71	11.21	-52.0	-54.1	14.6	0.00e+00	0	23	0	1264582656	70	4504
2026-01-10 23:17:27.37	158.07	10.89	-51.4	-53.4	14.9	0.00e+00	0	23	0	1271922688	69	4402
2026-01-10 23:17:31.37	158.42	10.57	-51.3	-53.3	14.7	0.00e+00	0	23	0	1279262720	68	4613
2026-01-10 23:17:35.35	158.77	10.26	-51.5	-53.6	14.6	0.00e+00	0	23	0	1286602752	68	4773
2026-01-10 23:17:39.34	159.10	9.95	-51.6	-53.7	14.5	0.00e+00	0	23	0	1293942784	68	4843
2026-01-10 23:17:43.33	159.43	9.65	-52.0	-54.1	14.2	0.00e+00	0	23	0	1301282816	69	4802
2026-01-10 23:17:47.31	159.76	9.34	-52.1	-54.4	14.2	0.00e+00	0	23	0	1308622848	69	4935
2026-01-10 23:17:51.30	160.08	9.04	-52.4	-54.8	14.2	0.00e+00	0	23	0	1317011456	70	4883
2026-01-10 23:17:55.29	160.39	8.75	-52.6	-55.0	14.0	0.00e+00	0	23	0	1324351488	70	5037
2026-01-10 23:17:59.28	160.69	8.45	-52.8	-55.4	13.7	0.00e+00	0	23	0	1331691520	70	5245
2026-01-10 23:18:03.26	160.99	8.16	-52.8	-55.4	13.8	0.00e+00	0	23	0	1339031552	70	5238
2026-01-10 23:18:07.26	161.29	7.87	-52.8	-55.4	13.9	0.00e+00	0	23	0	1346371584	71	4952
2026-01-10 23:18:11.26	161.58	7.58	-53.0	-55.7	13.6	0.00e+00	0	23	0	1353711616	71	5136
2026-01-10 23:18:15.24	161.86	7.30	-53.0	-55.6	13.7	0.00e+00	0	23	0	1361051648	71	5096
2026-01-10 23:18:19.23	162.14	7.02	-53.2	-56.0	13.4	0.00e+00	0	23	0	1369440256	71	5336
2026-01-10 23:18:23.24	162.41	6.74	-53.2	-56.0	13.5	0.00e+00	0	23	0	1376780288	71	5321
2026-01-10 23:18:27.23	162.68	6.47	-53.3	-56.2	13.3	0.00e+00	0	23	0	1384120320	71	5420
2026-01-10 23:18:31.23	162.95	6.19	-53.8	-57.1	12.8	0.00e+00	0	23	0	1391460352	72	5666
2026-01-10 23:18:35.23	163.21	5.92	-54.0	-57.5	12.6	7.00e-07	0	23	0	1398800384	73	5626
2026-01-10 23:18:39.23	163.46	5.65	-54.3	-58.1	12.1	7.00e-07	0	23	0	1406140416	73	6000
2026-01-10 23:18:43.21	163.71	5.38	-54.6	-58.8	11.7	2.74e-05	0	23	0	1413480448	74	6132
2026-01-10 23:18:47.19	163.96	5.12	-54.9	-59.5	11.1	1.46e-04	0	23	0	1420820480	74	6655
2026-01-10 23:18:51.19	164.20	4.86	-57.9	-73.9	3.8	1.49e+00	0	23	104	1426063360	80	24850
2026-01-10 23:18:55.17	164.44	4.60	-58.6	-74.7	3.8	1.49e+00	0	23	104	1426063360	82	24247
2026-01-10 23:18:59.17	164.67	4.34	-59.0	-75.1	3.8	1.49e+00	0	23	104	1426063360	83	23992
2026-01-10 23:19:03.16	164.90	4.09	-59.3	-75.3	3.8	1.49e+00	0	23	104	1426063360	83	24633
2026-01-10 23:19:07.16	165.13	3.83	-59.3	-75.4	3.8	1.49e+00	0	23	104	1426063360	83	24841
2026-01-10 23:19:11.16	165.35	3.58	-59.4	-75.4	3.8	1.49e+00	0	23	104	1426063360	83	24955
2026-01-10 23:19:15.16	165.57	3.33	-59.3	-75.4	3.8	1.49e+00	0	23	104	1426063360	83	24833
2026-01-10 23:19:19.17	165.79	3.08	-59.3	-75.4	3.8	1.49e+00	0	23	104	1426063360	83	24777
2026-01-10 23:19:23.16	166.00	2.83	-59.3	-75.3	3.8	1.49e+00	0	23	104	1426063360	83	24679
2026-01-10 23:19:27.18	166.21	2.59	-59.2	-75.3	3.8	1.49e+00	0	23	104	1426063360	83	24575
2026-01-10 23:19:31.20	166.42	2.34	-59.2	-75.3	3.8	1.49e+00	0	24	104	1426063360	83	24579
2026-01-10 23:19:35.21	166.63	2.10	-59.2	-75.3	3.8	1.49e+00	0	23	104	1426063360	83	24461

#Closed at: 2026-01-10 23:19:38
#Recorded file [1426 MB]: D:/lorett/data/31004_260111_020548.dat