passes_logs/2026/01/10/R3.2S_Murmansk/R3.2S_Murmansk__20260110_120222_FENGYUN_3D_rec.log

#Pass ID: 20260110_120222_FENGYUN 3D
#Satellite: FENGYUN 3D
#Configuration: FENGYUN 3D
#almurnet v.1.7.20251203
#Start time: 2026-01-10 12:02:23

#Version: 2.2.20231116
#Station: R3.2S_Murmansk
#Location: 33.079688 lon 68.888172 lat
#TLE: 1 43010U 17072A   26009.92921666 -.00000228  00000+0 -86059-4 0  9998
#TLE: 2 43010  98.9936 341.6668 0002176 116.7510 243.3888 14.19693142422537

#Time	Az	El	Level	Level2	SNR	BER	BlckErr	Temp	State	Recorded	gain1	gain2
2026-01-10 12:02:23.77	163.33	2.08	-57.2	-70.2	3.8	8.44e-01	0	21	0	0	79	17195
2026-01-10 12:02:27.73	163.40	2.34	-57.2	-69.9	3.8	8.46e-01	0	21	104	0	79	16583
2026-01-10 12:02:31.69	163.46	2.59	-57.2	-69.9	3.8	8.45e-01	0	21	104	0	79	16599
2026-01-10 12:02:35.66	163.53	2.85	-57.2	-69.5	3.8	8.46e-01	0	22	104	0	79	15880
2026-01-10 12:02:39.64	163.60	3.12	-57.2	-69.9	3.8	8.45e-01	0	22	104	0	79	16583
2026-01-10 12:02:43.62	163.68	3.38	-57.2	-69.3	3.8	8.44e-01	0	22	104	0	79	15518
2026-01-10 12:02:47.60	163.75	3.65	-56.8	-65.3	4.6	8.13e-01	0	22	0	0	79	9761
2026-01-10 12:02:51.58	163.82	3.92	-55.7	-60.9	7.7	1.02e-01	0	22	0	16777216	78	6249
2026-01-10 12:02:55.56	163.90	4.19	-54.9	-59.1	9.2	1.54e-02	0	22	0	38797312	76	5713
2026-01-10 12:02:59.53	163.97	4.47	-53.4	-56.4	11.4	3.47e-04	0	22	0	61865984	73	4971
2026-01-10 12:03:03.51	164.05	4.75	-52.2	-54.6	12.7	2.20e-06	0	22	0	83886080	71	4540
2026-01-10 12:03:07.48	164.13	5.03	-52.4	-54.9	12.4	2.20e-06	0	22	0	106954752	70	4930
2026-01-10 12:03:11.42	164.21	5.31	-48.9	-50.5	14.6	0.00e+00	0	22	0	121634816	64	4213
2026-01-10 12:03:15.37	164.29	5.60	-48.8	-50.4	14.7	0.00e+00	0	22	0	143654912	64	4166
2026-01-10 12:03:19.33	164.37	5.88	-48.8	-50.4	14.5	0.00e+00	0	22	0	166723584	63	4416
2026-01-10 12:03:23.30	164.45	6.18	-48.8	-50.3	14.6	0.00e+00	0	22	0	188743680	63	4375
2026-01-10 12:03:27.27	164.54	6.47	-48.2	-49.7	15.0	0.00e+00	0	22	0	210763776	63	4065
2026-01-10 12:03:31.24	164.62	6.77	-48.1	-49.6	14.9	0.00e+00	0	22	0	232783872	62	4244
2026-01-10 12:03:35.21	164.71	7.08	-48.8	-50.4	14.4	0.00e+00	0	23	0	255852544	62	4692
2026-01-10 12:03:39.16	164.80	7.38	-48.3	-49.8	15.0	0.00e+00	0	22	0	277872640	63	4121
2026-01-10 12:03:43.14	164.89	7.70	-47.9	-49.3	15.1	0.00e+00	0	23	0	299892736	62	4120
2026-01-10 12:03:47.10	164.99	8.01	-48.1	-49.5	15.0	0.00e+00	0	23	0	321912832	62	4225
2026-01-10 12:03:51.06	165.08	8.33	-47.9	-49.3	14.9	0.00e+00	0	23	0	344981504	61	4373
2026-01-10 12:03:55.05	165.18	8.65	-47.9	-49.3	14.9	0.00e+00	0	23	0	367001600	61	4375
2026-01-10 12:03:59.02	165.28	8.98	-47.5	-48.9	15.2	0.00e+00	0	23	0	389021696	61	4187
2026-01-10 12:04:02.99	165.38	9.31	-47.5	-48.9	15.2	0.00e+00	0	23	0	412090368	61	4162
2026-01-10 12:04:06.96	165.48	9.64	-47.5	-48.9	15.1	0.00e+00	0	23	0	434110464	61	4184
2026-01-10 12:04:10.94	165.58	9.98	-47.5	-48.9	15.2	0.00e+00	0	23	0	456130560	61	4174
2026-01-10 12:04:14.90	165.69	10.33	-47.1	-48.4	15.3	0.00e+00	0	23	0	479199232	60	4193
2026-01-10 12:04:18.86	165.80	10.68	-47.3	-48.6	15.2	0.00e+00	0	23	0	501219328	60	4289
2026-01-10 12:04:22.83	165.91	11.03	-47.2	-48.5	15.2	0.00e+00	0	23	0	523239424	60	4238
2026-01-10 12:04:26.82	166.02	11.39	-47.1	-48.5	15.2	0.00e+00	0	23	0	546308096	60	4232
2026-01-10 12:04:30.79	166.14	11.76	-47.2	-48.6	15.2	0.00e+00	0	23	0	568328192	60	4270
2026-01-10 12:04:34.76	166.26	12.13	-47.2	-48.6	15.2	0.00e+00	0	23	0	590348288	60	4272
2026-01-10 12:04:38.74	166.38	12.51	-47.1	-48.4	15.3	0.00e+00	0	23	0	612368384	60	4187
2026-01-10 12:04:42.73	166.50	12.89	-47.1	-48.4	15.3	0.00e+00	0	23	0	635437056	60	4189
2026-01-10 12:04:46.71	166.63	13.28	-46.9	-48.3	15.4	0.00e+00	0	23	0	657457152	60	4112
2026-01-10 12:04:50.69	166.76	13.67	-46.8	-48.1	15.5	0.00e+00	0	23	0	680525824	60	4025
2026-01-10 12:04:54.66	166.89	14.07	-47.0	-48.3	15.2	0.00e+00	0	23	0	702545920	59	4380
2026-01-10 12:04:58.64	167.03	14.48	-46.8	-48.2	15.3	0.00e+00	0	23	0	724566016	59	4323
2026-01-10 12:05:02.60	167.17	14.89	-46.5	-47.8	15.5	0.00e+00	0	23	0	746586112	59	4142
2026-01-10 12:05:06.59	167.31	15.32	-46.4	-47.7	15.5	0.00e+00	0	23	0	769654784	59	4087
2026-01-10 12:05:10.55	167.46	15.74	-46.3	-47.6	15.6	0.00e+00	0	23	0	791674880	59	4035
2026-01-10 12:05:14.52	167.61	16.18	-46.1	-47.4	15.6	0.00e+00	0	23	0	814743552	58	4150
2026-01-10 12:05:18.49	167.76	16.62	-46.0	-47.3	15.6	0.00e+00	0	23	0	836763648	58	4103
2026-01-10 12:05:22.51	167.92	17.08	-45.9	-47.2	15.6	0.00e+00	0	23	0	858783744	58	4079
2026-01-10 12:05:26.50	168.09	17.54	-46.0	-47.3	15.6	0.00e+00	0	23	0	881852416	58	4108
2026-01-10 12:05:30.47	168.25	18.01	-45.8	-47.1	15.7	0.00e+00	0	23	0	903872512	58	4035
2026-01-10 12:05:34.45	168.43	18.49	-45.5	-46.8	15.7	0.00e+00	0	23	0	925892608	57	4113
2026-01-10 12:05:38.43	168.60	18.98	-45.6	-46.9	15.6	0.00e+00	0	23	0	948961280	57	4168
2026-01-10 12:05:42.41	168.79	19.47	-45.4	-46.7	15.7	0.00e+00	0	23	0	970981376	57	4076
2026-01-10 12:05:46.39	168.98	19.98	-45.3	-46.6	15.7	0.00e+00	0	23	0	993001472	57	4017
2026-01-10 12:05:50.37	169.17	20.50	-45.0	-46.2	15.7	0.00e+00	0	23	0	1016070144	56	4064
2026-01-10 12:05:54.34	169.37	21.02	-44.9	-46.1	15.8	0.00e+00	0	23	0	1038090240	56	4035
2026-01-10 12:05:58.32	169.58	21.56	-44.9	-46.0	15.8	0.00e+00	0	23	0	1060110336	56	4000
2026-01-10 12:06:02.31	169.80	22.12	-45.0	-46.2	15.7	0.00e+00	0	23	0	1083179008	56	4086
2026-01-10 12:06:06.28	170.02	22.68	-45.1	-46.3	15.7	0.00e+00	0	23	0	1105199104	56	4116
2026-01-10 12:06:10.27	170.25	23.25	-44.9	-46.1	15.8	0.00e+00	0	23	0	1128267776	56	4041
2026-01-10 12:06:14.24	170.49	23.84	-44.5	-45.7	15.7	0.00e+00	0	23	0	1150287872	55	4085
2026-01-10 12:06:18.21	170.73	24.44	-44.5	-45.7	15.8	0.00e+00	0	23	0	1172307968	55	4057
2026-01-10 12:06:22.20	170.99	25.05	-44.3	-45.5	15.9	0.00e+00	0	23	0	1194328064	55	3981
2026-01-10 12:06:26.17	171.25	25.68	-44.3	-45.5	15.9	0.00e+00	0	23	0	1217396736	55	3976
2026-01-10 12:06:30.14	171.53	26.32	-44.3	-45.5	15.9	0.00e+00	0	23	0	1239416832	55	3973
2026-01-10 12:06:34.12	171.81	26.97	-44.4	-45.6	15.8	0.00e+00	0	23	0	1262485504	55	4032
2026-01-10 12:06:38.10	172.11	27.65	-44.4	-45.6	15.8	0.00e+00	0	23	0	1284505600	55	4038
2026-01-10 12:06:42.08	172.42	28.34	-44.2	-45.4	15.9	0.00e+00	0	23	0	1306525696	55	3946
2026-01-10 12:06:46.06	172.74	29.04	-44.0	-45.1	15.8	0.00e+00	0	23	0	1328545792	54	4046
2026-01-10 12:06:50.06	173.08	29.77	-44.2	-45.4	15.7	0.00e+00	0	23	0	1351614464	54	4162
2026-01-10 12:06:54.04	173.43	30.51	-44.0	-45.2	15.8	0.00e+00	0	23	0	1373634560	54	4064
2026-01-10 12:06:58.05	173.80	31.27	-44.1	-45.3	15.7	0.00e+00	0	23	0	1396703232	54	4145
2026-01-10 12:07:02.04	174.19	32.05	-44.1	-45.3	15.7	0.00e+00	0	23	0	1418723328	54	4136
2026-01-10 12:07:06.03	174.59	32.85	-44.0	-45.2	15.8	0.00e+00	0	23	0	1441792000	54	4083
2026-01-10 12:07:10.04	175.02	33.68	-43.8	-44.9	15.9	0.00e+00	0	23	0	1463812096	54	3956
2026-01-10 12:07:14.04	175.46	34.52	-43.8	-44.9	15.8	0.00e+00	0	23	0	1486880768	53	4150
2026-01-10 12:07:18.03	175.93	35.38	-43.9	-45.0	15.8	0.00e+00	0	23	0	1508900864	53	4197
2026-01-10 12:07:22.04	176.43	36.27	-44.0	-45.0	15.8	0.00e+00	0	23	0	1530920960	53	4218
2026-01-10 12:07:26.05	176.95	37.18	-43.8	-44.9	15.8	0.00e+00	0	23	0	1553989632	53	4161
2026-01-10 12:07:30.06	177.50	38.11	-43.7	-44.7	15.8	0.00e+00	0	23	0	1576009728	53	4087
2026-01-10 12:07:34.05	178.08	39.06	-43.6	-44.6	15.9	0.00e+00	0	23	0	1599078400	53	4045
2026-01-10 12:07:38.07	178.70	40.05	-44.0	-45.1	15.8	0.00e+00	0	23	0	1622147072	53	4258
2026-01-10 12:07:42.06	179.35	41.05	-43.9	-44.9	15.8	0.00e+00	0	23	0	1644167168	53	4184
2026-01-10 12:07:46.07	180.05	42.08	-44.3	-45.3	15.7	0.00e+00	0	23	0	1666187264	53	4377
2026-01-10 12:07:50.06	180.79	43.12	-44.4	-45.5	15.7	0.00e+00	0	23	0	1689255936	54	4211
2026-01-10 12:07:54.07	181.58	44.20	-44.2	-45.3	15.8	0.00e+00	0	23	0	1711276032	54	4104
2026-01-10 12:07:58.09	182.43	45.31	-44.5	-45.6	15.7	0.00e+00	0	23	0	1734344704	54	4258
2026-01-10 12:08:02.09	183.34	46.43	-44.0	-45.0	15.9	0.00e+00	0	23	0	1756364800	54	3976
2026-01-10 12:08:06.10	184.31	47.58	-44.4	-45.4	15.7	0.00e+00	0	23	0	1779433472	54	4190
2026-01-10 12:08:10.11	185.36	48.75	-44.1	-45.1	15.8	0.00e+00	0	23	0	1801453568	54	4038
2026-01-10 12:08:14.13	186.50	49.95	-44.8	-45.9	15.7	0.00e+00	0	23	0	1824522240	55	4156
2026-01-10 12:08:18.13	187.72	51.16	-44.6	-45.6	15.8	0.00e+00	0	23	0	1846542336	55	4049
2026-01-10 12:08:22.11	189.03	52.38	-45.4	-46.5	15.6	0.00e+00	0	23	0	1869611008	55	4467
2026-01-10 12:08:26.11	190.47	53.62	-45.2	-46.3	15.7	0.00e+00	0	23	0	1891631104	56	4113
2026-01-10 12:08:30.12	192.03	54.87	-45.9	-47.0	15.5	0.00e+00	0	23	0	1914699776	56	4484
2026-01-10 12:08:34.12	193.74	56.13	-45.2	-46.3	15.7	0.00e+00	0	23	0	1936719872	56	4110
2026-01-10 12:08:38.12	195.60	57.39	-45.0	-46.1	15.8	0.00e+00	0	23	0	1959788544	56	4019
2026-01-10 12:08:42.14	197.66	58.66	-45.0	-46.1	15.8	0.00e+00	0	23	0	1981808640	56	4035
2026-01-10 12:08:46.14	199.90	59.91	-44.5	-45.5	15.8	0.00e+00	0	23	0	2004877312	55	3996
2026-01-10 12:08:50.14	202.37	61.13	-44.3	-45.3	15.8	0.00e+00	0	23	0	2026897408	54	4134
2026-01-10 12:08:54.15	205.10	62.34	-44.0	-45.0	15.8	0.00e+00	0	23	0	2049966080	53	4224
2026-01-10 12:08:58.14	208.09	63.50	-43.9	-44.9	15.8	0.00e+00	0	23	0	2071986176	53	4191
2026-01-10 12:09:02.16	211.41	64.61	-43.9	-44.9	15.8	0.00e+00	0	23	0	2094006272	53	4173
2026-01-10 12:09:06.17	215.05	65.66	-43.7	-44.7	15.8	0.00e+00	0	23	0	2117074944	53	4077
2026-01-10 12:09:10.18	219.03	66.62	-43.9	-44.9	15.8	0.00e+00	0	23	0	2140143616	53	4192
2026-01-10 12:09:14.18	223.35	67.48	-43.5	-44.5	15.9	0.00e+00	0	23	0	2162163712	53	3966
2026-01-10 12:09:18.19	228.03	68.22	-43.7	-44.7	15.9	0.00e+00	0	23	0	2185232384	53	4072
2026-01-10 12:09:22.19	233.03	68.82	-43.6	-44.7	15.9	0.00e+00	0	23	0	2207252480	53	4057
2026-01-10 12:09:26.19	238.29	69.27	-43.3	-44.3	16.0	0.00e+00	0	23	0	2229272576	53	3906
2026-01-10 12:09:30.20	243.78	69.56	-43.2	-44.2	15.9	0.00e+00	0	23	0	2252341248	52	4095
2026-01-10 12:09:34.21	249.37	69.66	-43.2	-44.2	15.9	0.00e+00	0	23	0	2274361344	52	4083
2026-01-10 12:09:38.22	254.97	69.59	-43.5	-44.5	15.8	0.00e+00	0	23	0	2297430016	52	4220
2026-01-10 12:09:42.22	260.47	69.33	-43.3	-44.3	15.9	0.00e+00	0	23	0	2320498688	52	4115
2026-01-10 12:09:46.21	265.76	68.92	-43.5	-44.5	15.8	0.00e+00	0	23	0	2342518784	52	4216
2026-01-10 12:09:50.23	270.83	68.34	-43.8	-44.9	15.8	0.00e+00	0	23	0	2364538880	52	4411
2026-01-10 12:09:54.23	275.55	67.62	-43.6	-44.6	15.8	0.00e+00	0	23	0	2387607552	52	4266
2026-01-10 12:09:58.23	279.94	66.78	-43.6	-44.6	15.8	0.00e+00	0	23	0	2409627648	52	4260
2026-01-10 12:10:02.23	283.97	65.84	-43.9	-45.0	15.8	0.00e+00	0	23	0	2432696320	53	4202
2026-01-10 12:10:06.23	287.65	64.81	-43.9	-45.0	15.8	0.00e+00	0	23	0	2454716416	53	4208
2026-01-10 12:10:10.24	291.02	63.71	-44.0	-45.1	15.8	0.00e+00	0	23	0	2477785088	53	4246
2026-01-10 12:10:14.23	294.06	62.56	-44.1	-45.1	15.8	0.00e+00	0	23	0	2499805184	53	4278
2026-01-10 12:10:18.23	296.83	61.37	-44.3	-45.4	15.7	0.00e+00	0	23	0	2522873856	53	4393
2026-01-10 12:10:22.24	299.35	60.15	-44.5	-45.6	15.7	0.00e+00	0	23	0	2544893952	54	4244
2026-01-10 12:10:26.26	301.64	58.90	-44.8	-45.9	15.7	0.00e+00	0	23	0	2567962624	54	4395
2026-01-10 12:10:30.27	303.73	57.64	-45.3	-46.4	15.6	0.00e+00	0	23	0	2589982720	55	4419
2026-01-10 12:10:34.27	305.62	56.38	-45.6	-46.6	15.6	0.00e+00	0	23	0	2613051392	56	4288
2026-01-10 12:10:38.29	307.36	55.12	-45.5	-46.5	15.7	0.00e+00	0	23	0	2635071488	56	4237
2026-01-10 12:10:42.30	308.95	53.87	-45.5	-46.6	15.7	0.00e+00	0	23	0	2658140160	56	4282
2026-01-10 12:10:46.31	310.41	52.62	-45.6	-46.6	15.7	0.00e+00	0	23	0	2680160256	56	4285
2026-01-10 12:10:50.31	311.75	51.40	-45.2	-46.3	15.8	0.00e+00	0	23	0	2703228928	56	4118
2026-01-10 12:10:54.33	312.99	50.18	-44.8	-45.9	15.9	0.00e+00	0	23	0	2725249024	56	3928
2026-01-10 12:10:58.34	314.14	48.99	-44.2	-45.3	15.9	0.00e+00	0	23	0	2748317696	55	3875
2026-01-10 12:11:02.34	315.20	47.82	-44.5	-45.5	15.9	0.00e+00	0	23	0	2770337792	55	4002
2026-01-10 12:11:06.33	316.18	46.68	-44.7	-45.8	15.8	0.00e+00	0	23	0	2793406464	55	4122
2026-01-10 12:11:10.34	317.10	45.55	-44.3	-45.3	15.9	0.00e+00	0	23	0	2815426560	55	3912
2026-01-10 12:11:14.35	317.95	44.45	-44.3	-45.3	15.9	0.00e+00	0	23	0	2838495232	55	3894
2026-01-10 12:11:18.36	318.76	43.37	-44.2	-45.2	15.9	0.00e+00	0	23	0	2860515328	55	3852
2026-01-10 12:11:22.37	319.51	42.31	-44.4	-45.5	15.9	0.00e+00	0	23	0	2883584000	55	3979
2026-01-10 12:11:26.37	320.21	41.28	-44.0	-45.0	15.9	0.00e+00	0	23	0	2905604096	54	3997
2026-01-10 12:11:30.36	320.87	40.28	-44.1	-45.1	15.8	0.00e+00	0	23	0	2927624192	54	4024
2026-01-10 12:11:34.35	321.49	39.30	-44.0	-45.0	15.9	0.00e+00	0	23	0	2950692864	54	3987
2026-01-10 12:11:38.35	322.08	38.35	-43.8	-44.8	15.9	0.00e+00	0	23	0	2972712960	54	3896
2026-01-10 12:11:42.36	322.64	37.41	-43.6	-44.6	15.8	0.00e+00	0	23	0	2995781632	53	4031
2026-01-10 12:11:46.35	323.17	36.51	-43.5	-44.5	15.9	0.00e+00	0	23	0	3017801728	53	3986
2026-01-10 12:11:50.35	323.67	35.62	-43.7	-44.7	15.8	0.00e+00	0	23	0	3040870400	53	4087
2026-01-10 12:11:54.35	324.14	34.75	-43.7	-44.7	15.8	0.00e+00	0	23	0	3062890496	53	4067
2026-01-10 12:11:58.36	324.59	33.91	-43.8	-44.9	15.8	0.00e+00	0	24	0	3085959168	53	4151
2026-01-10 12:12:02.36	325.02	33.08	-44.2	-45.3	15.7	0.00e+00	0	23	0	3107979264	53	4349
2026-01-10 12:12:06.35	325.43	32.28	-44.3	-45.4	15.8	0.00e+00	0	24	0	3131047936	54	4165
2026-01-10 12:12:10.36	325.82	31.50	-44.0	-45.0	15.8	0.00e+00	0	23	0	3153068032	54	4004
2026-01-10 12:12:14.35	326.19	30.74	-43.9	-44.9	15.9	0.00e+00	0	23	0	3175088128	54	3946
2026-01-10 12:12:18.36	326.55	29.99	-44.0	-45.1	15.8	0.00e+00	0	24	0	3198156800	54	4013
2026-01-10 12:12:22.37	326.90	29.26	-44.2	-45.3	15.8	0.00e+00	0	23	0	3221225472	54	4119
2026-01-10 12:12:26.38	327.22	28.55	-44.1	-45.2	15.8	0.00e+00	0	23	0	3243245568	54	4056
2026-01-10 12:12:30.38	327.54	27.86	-44.1	-45.1	15.8	0.00e+00	0	23	0	3266314240	54	4027
2026-01-10 12:12:34.39	327.84	27.18	-44.3	-45.4	15.7	0.00e+00	0	23	0	3288334336	54	4148
2026-01-10 12:12:38.39	328.13	26.52	-44.4	-45.5	15.7	0.00e+00	0	23	0	3310354432	54	4208
2026-01-10 12:12:42.40	328.41	25.87	-44.5	-45.5	15.7	0.00e+00	0	23	0	3333423104	54	4232
2026-01-10 12:12:46.39	328.68	25.24	-44.3	-45.3	15.7	0.00e+00	0	23	0	3355443200	54	4123
2026-01-10 12:12:50.40	328.94	24.62	-44.4	-45.4	15.7	0.00e+00	0	24	0	3378511872	54	4186
2026-01-10 12:12:54.42	329.19	24.01	-44.5	-45.5	15.7	0.00e+00	0	23	0	3401580544	54	4227
2026-01-10 12:12:58.44	329.43	23.42	-44.8	-45.9	15.6	0.00e+00	0	24	0	3423600640	54	4398
2026-01-10 12:13:02.43	329.67	22.85	-44.9	-46.0	15.7	0.00e+00	0	23	0	3446669312	55	4207
2026-01-10 12:13:06.42	329.89	22.28	-45.0	-46.2	15.6	0.00e+00	0	23	0	3468689408	55	4292
2026-01-10 12:13:10.44	330.11	21.73	-45.1	-46.2	15.6	0.00e+00	0	24	0	3490709504	55	4329
2026-01-10 12:13:14.44	330.32	21.18	-45.2	-46.3	15.6	0.00e+00	0	24	0	3513778176	55	4374
2026-01-10 12:13:18.44	330.53	20.65	-45.6	-46.7	15.5	0.00e+00	0	24	0	3535798272	56	4322
2026-01-10 12:13:22.43	330.72	20.14	-45.6	-46.7	15.5	0.00e+00	0	23	0	3558866944	56	4330
2026-01-10 12:13:26.45	330.92	19.62	-45.7	-46.8	15.5	0.00e+00	0	23	0	3580887040	56	4372
2026-01-10 12:13:30.46	331.10	19.12	-45.8	-46.9	15.5	0.00e+00	0	23	0	3603955712	56	4412
2026-01-10 12:13:34.47	331.29	18.63	-45.8	-46.9	15.5	0.00e+00	0	24	0	3625975808	56	4428
2026-01-10 12:13:38.47	331.46	18.15	-45.9	-47.0	15.5	0.00e+00	0	23	0	3649044480	57	4211
2026-01-10 12:13:42.48	331.63	17.68	-46.0	-47.1	15.5	0.00e+00	0	24	0	3671064576	57	4261
2026-01-10 12:13:46.50	331.80	17.21	-46.0	-47.2	15.5	0.00e+00	0	24	0	3694133248	57	4299
2026-01-10 12:13:50.50	331.96	16.76	-46.2	-47.3	15.4	0.00e+00	0	24	0	3716153344	57	4379
2026-01-10 12:13:54.52	332.12	16.31	-46.3	-47.4	15.5	0.00e+00	0	24	0	3739222016	58	4185
2026-01-10 12:13:58.53	332.28	15.87	-46.4	-47.6	15.5	0.00e+00	0	24	0	3761242112	58	4251
2026-01-10 12:14:02.53	332.42	15.44	-46.5	-47.7	15.4	0.00e+00	0	24	0	3784310784	58	4322
2026-01-10 12:14:06.53	332.57	15.02	-46.7	-47.9	15.3	0.00e+00	0	24	0	3806330880	58	4419
2026-01-10 12:14:10.55	332.71	14.60	-46.7	-47.9	15.3	0.00e+00	0	24	0	3829399552	58	4439
2026-01-10 12:14:14.54	332.85	14.19	-46.8	-48.0	15.3	0.00e+00	0	24	0	3851419648	58	4448
2026-01-10 12:14:18.55	332.99	13.79	-46.7	-47.9	15.3	0.00e+00	0	24	0	3874488320	58	4427
2026-01-10 12:14:22.55	333.12	13.39	-46.9	-48.1	15.3	0.00e+00	0	24	0	3896508416	59	4260
2026-01-10 12:14:26.57	333.25	13.00	-47.0	-48.3	15.2	0.00e+00	0	24	0	3919577088	59	4346
2026-01-10 12:14:30.59	333.38	12.62	-47.1	-48.3	15.2	0.00e+00	0	24	0	3941597184	59	4359
2026-01-10 12:14:34.59	333.50	12.24	-47.2	-48.4	15.2	0.00e+00	0	24	0	3964665856	59	4423
2026-01-10 12:14:38.59	333.63	11.87	-47.3	-48.6	15.2	0.00e+00	0	24	0	3986685952	59	4502
2026-01-10 12:14:42.59	333.74	11.50	-47.2	-48.4	15.3	0.00e+00	0	24	0	4009754624	60	4162
2026-01-10 12:14:46.59	333.86	11.14	-47.1	-48.3	15.3	0.00e+00	0	24	0	4031774720	60	4121
2026-01-10 12:14:50.59	333.97	10.78	-47.3	-48.6	15.2	0.00e+00	0	24	0	4054843392	60	4244
2026-01-10 12:14:54.59	334.09	10.43	-47.3	-48.6	15.2	0.00e+00	0	23	0	4076863488	60	4246
2026-01-10 12:14:58.60	334.20	10.09	-47.3	-48.6	15.2	0.00e+00	0	23	0	4099932160	60	4259
2026-01-10 12:15:02.60	334.30	9.75	-47.5	-48.8	15.1	0.00e+00	0	24	0	4121952256	60	4347
2026-01-10 12:15:06.61	334.41	9.41	-47.5	-48.8	15.1	0.00e+00	0	24	0	4143972352	60	4345
2026-01-10 12:15:10.61	334.51	9.08	-47.6	-48.8	15.0	0.00e+00	0	24	0	4167041024	60	4385
2026-01-10 12:15:14.62	334.61	8.75	-47.7	-49.0	15.0	4.50e-06	0	23	0	4190109696	60	4446
2026-01-10 12:15:18.63	334.71	8.42	-47.8	-49.2	14.9	0.00e+00	0	24	0	4212129792	60	4554
2026-01-10 12:15:22.61	334.81	8.10	-47.9	-49.2	15.0	0.00e+00	0	24	0	4234149888	61	4339
2026-01-10 12:15:26.63	334.91	7.79	-47.8	-49.1	15.0	0.00e+00	0	23	0	4257218560	61	4278
2026-01-10 12:15:30.63	335.00	7.47	-48.2	-49.6	14.7	0.00e+00	0	24	0	4279238656	61	4524
2026-01-10 12:15:34.63	335.09	7.17	-48.2	-49.6	14.7	0.00e+00	0	24	0	4302307328	61	4512
2026-01-10 12:15:38.62	335.19	6.86	-48.2	-49.6	14.7	0.00e+00	0	24	0	4324327424	61	4515
2026-01-10 12:15:42.62	335.28	6.56	-48.5	-49.9	14.7	0.00e+00	0	23	0	4347396096	62	4436
2026-01-10 12:15:46.63	335.36	6.26	-48.6	-50.0	14.6	0.00e+00	0	24	0	4369416192	62	4487
2026-01-10 12:15:50.65	335.45	5.97	-48.6	-50.1	14.5	0.00e+00	0	24	0	4392484864	62	4517
2026-01-10 12:15:54.64	335.54	5.68	-48.7	-50.1	14.5	0.00e+00	0	23	0	4414504960	62	4534
2026-01-10 12:15:58.64	335.62	5.39	-48.9	-50.5	14.4	0.00e+00	0	24	0	4437573632	63	4443
2026-01-10 12:16:02.64	335.70	5.10	-49.0	-50.6	14.4	0.00e+00	0	24	0	4459593728	63	4494
2026-01-10 12:16:06.64	335.79	4.82	-58.3	-71.3	3.8	8.46e-01	0	24	104	4474273792	81	17346
2026-01-10 12:16:10.62	335.87	4.55	-59.1	-72.1	3.8	8.46e-01	0	24	104	4474273792	83	17030
2026-01-10 12:16:14.61	335.94	4.27	-59.4	-72.5	3.8	8.46e-01	0	24	104	4474273792	83	17691
2026-01-10 12:16:18.59	336.02	4.00	-59.7	-72.8	3.8	8.47e-01	0	24	104	4474273792	84	17312
2026-01-10 12:16:22.57	336.10	3.73	-59.8	-72.8	3.8	8.45e-01	0	24	104	4474273792	84	17480
2026-01-10 12:16:26.56	336.17	3.46	-59.8	-72.9	3.8	8.45e-01	0	24	104	4474273792	84	17514
2026-01-10 12:16:30.58	336.25	3.19	-59.7	-72.8	3.8	8.44e-01	0	24	104	4474273792	84	17335
2026-01-10 12:16:34.58	336.32	2.93	-59.7	-72.7	3.8	8.45e-01	0	24	104	4474273792	84	17251
2026-01-10 12:16:38.57	336.40	2.67	-59.7	-72.7	3.8	8.46e-01	0	24	104	4474273792	84	17173
2026-01-10 12:16:42.58	336.47	2.41	-59.6	-72.7	3.8	8.45e-01	0	24	104	4474273792	84	17135
2026-01-10 12:16:46.59	336.54	2.16	-59.6	-72.7	3.8	8.46e-01	0	24	104	4474273792	84	17095

#Closed at: 2026-01-10 12:16:50
#Recorded file [4474 MB]: D:/lorett/data/31004_260110_150223.dat