passes_logs/2026/01/10/R3.2S_Murmansk/R3.2S_Murmansk__20260110_074240_SUOMI_NPP_rec.log

#Pass ID: 20260110_074240_SUOMI NPP
#Satellite: SUOMI NPP
#Configuration: NPP
#almurnet v.1.7.20251203
#Start time: 2026-01-10 07:42:41

#Version: 2.2.20231116
#Station: R3.2S_Murmansk
#Location: 33.079688 lon 68.888172 lat
#TLE: 1 37849U 11061A   26009.81756760  .00000113  00000+0  74747-4 0  9994
#TLE: 2 37849  98.7806 311.9110 0002525  72.5604 287.5848 14.19524046735974

#Time	Az	El	Level	Level2	SNR	BER	BlckErr	Temp	State	Recorded	gain1	gain2
2026-01-10 07:42:41.93	108.38	2.08	-57.3	-73.2	3.8	1.49e+00	0	21	0	0	81	21682
2026-01-10 07:42:45.97	108.22	2.33	-57.2	-73.2	3.8	1.49e+00	0	21	104	0	79	24152
2026-01-10 07:42:50.00	108.05	2.58	-57.2	-73.2	3.8	1.49e+00	0	21	104	0	79	24181
2026-01-10 07:42:54.04	107.88	2.83	-57.2	-73.1	3.8	1.49e+00	0	21	104	0	79	23994
2026-01-10 07:42:58.07	107.70	3.08	-57.2	-72.9	3.8	1.49e+00	0	21	104	0	79	23555
2026-01-10 07:43:02.10	107.53	3.34	-57.2	-72.9	3.8	1.49e+00	0	22	104	0	79	23508
2026-01-10 07:43:06.14	107.35	3.60	-57.2	-72.6	3.8	1.49e+00	0	22	104	0	79	22643
2026-01-10 07:43:10.17	107.16	3.86	-57.2	-73.0	3.8	1.49e+00	0	22	104	0	79	23603
2026-01-10 07:43:14.21	106.97	4.13	-57.2	-72.4	3.8	1.49e+00	0	22	104	0	79	22213
2026-01-10 07:43:18.25	106.78	4.39	-57.0	-69.0	4.4	1.37e+00	78	22	0	0	79	14944
2026-01-10 07:43:22.28	106.59	4.66	-56.7	-65.5	6.2	2.80e-01	0	22	0	7340032	79	10038
2026-01-10 07:43:26.31	106.39	4.93	-56.4	-64.0	7.5	7.74e-02	0	22	0	14680064	79	8384
2026-01-10 07:43:30.35	106.18	5.20	-55.9	-61.3	10.2	7.94e-04	0	22	0	23068672	77	6924
2026-01-10 07:43:34.37	105.98	5.48	-55.0	-59.1	11.8	1.60e-05	0	22	0	29360128	76	5659
2026-01-10 07:43:38.41	105.76	5.76	-54.1	-57.4	12.9	7.00e-07	0	22	0	37748736	74	5230
2026-01-10 07:43:42.45	105.55	6.04	-53.6	-56.7	13.2	0.00e+00	0	22	0	45088768	73	5134
2026-01-10 07:43:46.48	105.33	6.32	-53.8	-57.1	13.0	0.00e+00	0	22	0	52428800	73	5371
2026-01-10 07:43:50.51	105.10	6.61	-53.7	-56.8	13.2	0.00e+00	0	22	0	59768832	73	5181
2026-01-10 07:43:54.55	104.87	6.90	-53.6	-56.6	13.4	0.00e+00	0	23	0	67108864	73	5045
2026-01-10 07:43:58.58	104.64	7.19	-53.5	-56.4	13.5	0.00e+00	0	23	0	75497472	73	4976
2026-01-10 07:44:02.61	104.40	7.48	-53.2	-55.9	13.9	0.00e+00	0	22	0	82837504	73	4690
2026-01-10 07:44:06.65	104.15	7.78	-53.0	-55.6	13.9	0.00e+00	0	22	0	90177536	72	4787
2026-01-10 07:44:10.67	103.90	8.08	-52.9	-55.4	14.1	0.00e+00	0	23	0	97517568	72	4654
2026-01-10 07:44:14.69	103.65	8.38	-52.9	-55.4	14.1	0.00e+00	0	23	0	104857600	72	4664
2026-01-10 07:44:18.72	103.39	8.69	-52.7	-55.5	13.9	0.00e+00	0	23	0	113246208	71	5018
2026-01-10 07:44:22.75	103.12	9.00	-52.4	-55.0	14.3	0.00e+00	0	23	0	120586240	71	4745
2026-01-10 07:44:26.78	102.85	9.31	-52.4	-55.1	14.2	0.00e+00	0	23	0	127926272	71	4792
2026-01-10 07:44:30.82	102.57	9.62	-52.5	-55.2	14.2	0.00e+00	0	23	0	135266304	71	4832
2026-01-10 07:44:34.85	102.28	9.94	-52.5	-55.2	14.1	0.00e+00	0	23	0	143654912	71	4843
2026-01-10 07:44:38.88	101.99	10.27	-52.7	-55.6	13.9	0.00e+00	0	23	0	150994944	71	5087
2026-01-10 07:44:42.91	101.69	10.59	-52.4	-55.2	14.1	0.00e+00	0	23	0	158334976	71	4859
2026-01-10 07:44:46.94	101.38	10.92	-52.1	-54.8	14.3	0.00e+00	0	23	0	165675008	70	4875
2026-01-10 07:44:50.98	101.07	11.26	-51.8	-54.2	14.4	0.00e+00	0	23	0	173015040	69	4859
2026-01-10 07:44:55.02	100.75	11.59	-51.9	-54.5	14.3	0.00e+00	0	23	0	181403648	69	4994
2026-01-10 07:44:59.06	100.42	11.94	-51.7	-54.0	14.6	0.00e+00	0	23	0	188743680	69	4749
2026-01-10 07:45:03.09	100.08	12.28	-51.7	-54.0	14.6	0.00e+00	0	23	0	196083712	69	4755
2026-01-10 07:45:07.12	99.74	12.63	-51.8	-54.1	14.5	0.00e+00	0	23	0	203423744	69	4807
2026-01-10 07:45:11.16	99.38	12.98	-51.8	-54.1	14.5	0.00e+00	0	23	0	210763776	69	4793
2026-01-10 07:45:15.19	99.02	13.34	-51.7	-54.0	14.6	0.00e+00	0	23	0	219152384	69	4714
2026-01-10 07:45:19.22	98.65	13.70	-51.9	-54.2	14.5	0.00e+00	0	23	0	226492416	69	4868
2026-01-10 07:45:23.25	98.27	14.06	-51.8	-54.2	14.5	0.00e+00	0	23	0	233832448	69	4831
2026-01-10 07:45:27.28	97.87	14.43	-51.9	-54.3	14.4	0.00e+00	0	23	0	241172480	69	4911
2026-01-10 07:45:31.32	97.47	14.81	-52.1	-54.6	14.3	0.00e+00	0	23	0	248512512	69	5072
2026-01-10 07:45:35.35	97.06	15.18	-52.1	-54.5	14.3	0.00e+00	0	23	0	256901120	69	5037
2026-01-10 07:45:39.38	96.64	15.56	-51.9	-54.2	14.5	0.00e+00	0	23	0	264241152	69	4823
2026-01-10 07:45:43.41	96.20	15.95	-51.6	-53.8	14.7	0.00e+00	0	23	0	271581184	69	4607
2026-01-10 07:45:47.45	95.76	16.34	-51.2	-53.1	14.9	0.00e+00	0	23	0	278921216	68	4542
2026-01-10 07:45:51.48	95.30	16.74	-51.1	-53.0	15.0	0.00e+00	0	23	0	287309824	68	4456
2026-01-10 07:45:55.50	94.83	17.13	-51.3	-53.2	14.9	0.00e+00	0	23	0	294649856	68	4596
2026-01-10 07:45:59.53	94.35	17.54	-51.7	-53.8	14.6	0.00e+00	0	23	0	301989888	68	4885
2026-01-10 07:46:03.57	93.85	17.95	-51.7	-53.8	14.8	0.00e+00	0	23	0	309329920	69	4630
2026-01-10 07:46:07.60	93.34	18.36	-51.4	-53.5	14.9	0.00e+00	0	23	0	316669952	69	4470
2026-01-10 07:46:11.64	92.81	18.78	-51.3	-53.3	15.1	0.00e+00	0	23	0	325058560	69	4377
2026-01-10 07:46:15.67	92.27	19.20	-51.9	-54.1	14.6	0.00e+00	0	23	0	332398592	69	4797
2026-01-10 07:46:19.70	91.71	19.63	-52.1	-54.4	14.6	0.00e+00	0	23	0	339738624	70	4688
2026-01-10 07:46:23.73	91.14	20.06	-52.3	-54.6	14.5	0.00e+00	0	23	0	347078656	70	4794
2026-01-10 07:46:27.76	90.55	20.49	-52.5	-54.9	14.3	0.00e+00	0	23	0	354418688	70	4949
2026-01-10 07:46:31.80	89.95	20.93	-52.4	-54.8	14.5	0.00e+00	0	23	0	362807296	70	4889
2026-01-10 07:46:35.83	89.32	21.38	-52.1	-54.3	14.6	0.00e+00	0	23	0	370147328	70	4634
2026-01-10 07:46:39.86	88.68	21.83	-52.1	-54.4	14.6	0.00e+00	0	23	0	377487360	70	4657
2026-01-10 07:46:43.89	88.02	22.28	-51.4	-53.5	15.0	0.00e+00	0	23	0	384827392	69	4446
2026-01-10 07:46:47.91	87.34	22.73	-51.6	-53.8	14.8	0.00e+00	0	23	0	392167424	69	4605
2026-01-10 07:46:51.93	86.64	23.19	-51.3	-53.4	14.9	0.00e+00	0	23	0	400556032	68	4657
2026-01-10 07:46:55.96	85.91	23.65	-51.6	-53.7	14.6	0.00e+00	0	23	0	407896064	68	4844
2026-01-10 07:46:59.99	85.17	24.12	-52.3	-54.6	14.3	0.00e+00	0	23	0	415236096	69	5100
2026-01-10 07:47:04.01	84.40	24.59	-52.8	-55.4	14.0	0.00e+00	0	23	0	422576128	70	5266
2026-01-10 07:47:08.05	83.61	25.06	-53.0	-55.8	14.0	0.00e+00	0	23	0	429916160	71	5201
2026-01-10 07:47:12.08	82.79	25.53	-52.9	-55.7	14.0	0.00e+00	0	23	0	438304768	71	5159
2026-01-10 07:47:16.12	81.95	26.01	-53.0	-55.9	13.9	0.00e+00	0	23	0	445644800	71	5239
2026-01-10 07:47:20.15	81.08	26.48	-52.5	-55.1	14.4	0.00e+00	0	23	0	452984832	71	4774
2026-01-10 07:47:24.17	80.19	26.96	-52.3	-54.8	14.4	0.00e+00	0	23	0	460324864	70	4886
2026-01-10 07:47:28.20	79.27	27.44	-52.7	-55.4	14.1	0.00e+00	0	23	0	468713472	70	5228
2026-01-10 07:47:32.24	78.32	27.92	-52.9	-55.5	14.2	0.00e+00	0	23	0	476053504	71	5004
2026-01-10 07:47:36.26	77.34	28.39	-52.5	-55.0	14.5	0.00e+00	0	23	0	483393536	71	4746
2026-01-10 07:47:40.30	76.33	28.87	-52.8	-55.4	14.2	0.00e+00	0	23	0	490733568	71	4970
2026-01-10 07:47:44.33	75.29	29.34	-53.0	-55.7	14.0	0.00e+00	0	23	0	498073600	71	5113
2026-01-10 07:47:48.35	74.22	29.81	-52.6	-55.2	14.4	0.00e+00	0	23	0	506462208	71	4829
2026-01-10 07:47:52.39	73.12	30.28	-52.7	-55.4	14.3	0.00e+00	0	23	0	513802240	71	4953
2026-01-10 07:47:56.42	71.98	30.74	-52.9	-55.8	13.9	0.00e+00	0	23	0	521142272	71	5170
2026-01-10 07:48:00.45	70.82	31.19	-54.0	-57.9	12.8	0.00e+00	0	23	0	528482304	73	5861
2026-01-10 07:48:04.48	69.62	31.64	-53.6	-56.8	13.5	0.00e+00	0	23	0	535822336	73	5210
2026-01-10 07:48:08.52	68.38	32.08	-53.7	-57.1	13.3	0.00e+00	0	23	0	544210944	72	5689
2026-01-10 07:48:12.55	67.11	32.51	-54.7	-59.1	12.0	8.30e-06	0	23	0	551550976	74	6383
2026-01-10 07:48:16.58	65.81	32.93	-53.7	-57.2	13.3	0.00e+00	0	23	0	558891008	74	5122
2026-01-10 07:48:20.61	64.48	33.34	-54.5	-59.3	11.8	1.60e-05	0	23	0	566231040	74	6551
2026-01-10 07:48:24.64	63.11	33.74	-54.4	-58.9	12.1	2.20e-06	0	23	0	573571072	74	6249
2026-01-10 07:48:28.67	61.71	34.12	-54.0	-57.9	12.9	0.00e+00	0	23	0	581959680	74	5547
2026-01-10 07:48:32.69	60.27	34.49	-53.6	-57.1	13.4	0.00e+00	0	23	0	589299712	73	5398
2026-01-10 07:48:36.73	58.80	34.84	-53.2	-56.8	13.3	0.00e+00	0	23	0	596639744	72	5512
2026-01-10 07:48:40.75	57.31	35.17	-52.8	-56.2	13.7	0.00e+00	0	23	0	603979776	72	5103
2026-01-10 07:48:44.78	55.78	35.48	-52.5	-55.5	14.1	0.00e+00	0	23	0	611319808	71	5041
2026-01-10 07:48:48.80	54.23	35.77	-50.9	-53.0	15.1	0.00e+00	0	23	0	619708416	68	4452
2026-01-10 07:48:52.83	52.65	36.04	-50.7	-52.9	14.9	0.00e+00	0	23	0	627048448	67	4669
2026-01-10 07:48:56.87	51.03	36.28	-51.2	-53.6	14.6	0.00e+00	0	23	0	634388480	67	5050
2026-01-10 07:49:00.90	49.40	36.51	-50.3	-52.3	15.3	0.00e+00	0	23	0	641728512	67	4344
2026-01-10 07:49:04.93	47.75	36.70	-50.4	-52.3	15.1	0.00e+00	0	23	0	650117120	66	4613
2026-01-10 07:49:08.95	46.08	36.87	-51.3	-53.5	14.7	0.00e+00	0	23	0	657457152	67	4992
2026-01-10 07:49:12.98	44.39	37.01	-49.9	-51.6	15.4	0.00e+00	0	23	0	664797184	66	4275
2026-01-10 07:49:17.01	42.69	37.13	-50.9	-52.6	15.0	0.00e+00	0	23	0	672137216	66	4767
2026-01-10 07:49:21.05	40.98	37.21	-51.9	-54.1	14.5	0.00e+00	0	23	0	679477248	68	5042
2026-01-10 07:49:25.08	39.26	37.27	-52.6	-55.2	14.1	0.00e+00	0	23	0	687865856	70	5146
2026-01-10 07:49:29.12	37.53	37.29	-52.2	-54.6	14.5	0.00e+00	0	23	0	695205888	70	4765
2026-01-10 07:49:33.15	35.81	37.29	-52.5	-55.0	14.4	0.00e+00	0	23	0	702545920	70	5003
2026-01-10 07:49:37.18	34.09	37.26	-52.1	-54.5	14.6	0.00e+00	0	23	0	709885952	70	4732
2026-01-10 07:49:41.22	32.37	37.19	-52.5	-55.2	14.2	0.00e+00	0	23	0	717225984	70	5131
2026-01-10 07:49:45.25	30.66	37.10	-53.6	-57.3	13.2	1.50e-06	0	23	0	725614592	73	5508
2026-01-10 07:49:49.28	28.96	36.98	-53.3	-56.5	13.6	0.00e+00	0	23	0	732954624	72	5285
2026-01-10 07:49:53.31	27.28	36.83	-53.2	-56.5	13.6	0.00e+00	0	23	0	740294656	72	5338
2026-01-10 07:49:57.35	25.61	36.66	-52.4	-55.3	14.1	0.00e+00	0	23	0	747634688	71	4887
2026-01-10 07:50:01.38	23.96	36.46	-52.8	-56.3	13.6	0.00e+00	0	23	0	754974720	71	5518
2026-01-10 07:50:05.40	22.34	36.23	-53.5	-57.6	12.9	7.00e-07	0	23	0	763363328	73	5699
2026-01-10 07:50:09.44	20.73	35.98	-52.0	-54.7	14.3	0.00e+00	0	23	0	770703360	70	4869
2026-01-10 07:50:13.47	19.16	35.71	-52.7	-56.0	13.8	0.00e+00	0	23	0	778043392	71	5328
2026-01-10 07:50:17.50	17.61	35.41	-51.5	-53.8	14.8	0.00e+00	0	23	0	785383424	69	4635
2026-01-10 07:50:21.53	16.09	35.09	-52.2	-54.9	14.2	0.00e+00	0	23	0	792723456	69	5228
2026-01-10 07:50:25.55	14.60	34.76	-52.6	-55.5	14.1	0.00e+00	0	23	0	801112064	71	5003
2026-01-10 07:50:29.58	13.15	34.41	-52.1	-54.7	14.3	0.00e+00	0	23	0	808452096	69	5159
2026-01-10 07:50:33.61	11.72	34.04	-53.2	-56.6	13.4	0.00e+00	0	23	0	815792128	71	5720
2026-01-10 07:50:37.65	10.33	33.65	-52.6	-55.3	14.3	0.00e+00	0	23	0	823132160	71	4901
2026-01-10 07:50:41.68	8.97	33.25	-52.3	-54.7	14.3	0.00e+00	0	23	0	831520768	69	5156
2026-01-10 07:50:45.72	7.64	32.84	-52.4	-54.9	14.4	0.00e+00	0	23	0	838860800	71	4664
2026-01-10 07:50:49.75	6.35	32.42	-52.5	-54.9	14.3	0.00e+00	0	23	0	846200832	70	4965
2026-01-10 07:50:53.78	5.09	31.99	-52.3	-54.7	14.5	0.00e+00	0	23	0	853540864	70	4818
2026-01-10 07:50:57.82	3.87	31.54	-52.7	-55.4	14.0	0.00e+00	0	23	0	860880896	70	5266
2026-01-10 07:51:01.85	2.68	31.09	-53.8	-57.2	13.3	0.00e+00	0	23	0	869269504	72	5743
2026-01-10 07:51:05.88	1.52	30.64	-53.6	-56.5	13.8	0.00e+00	0	23	0	876609536	73	5027
2026-01-10 07:51:09.91	0.39	30.18	-53.2	-55.8	14.1	0.00e+00	0	23	0	883949568	72	4926
2026-01-10 07:51:13.94	359.30	29.71	-52.3	-54.5	14.8	0.00e+00	0	23	0	891289600	71	4491
2026-01-10 07:51:17.98	358.24	29.24	-51.4	-53.3	15.1	0.00e+00	0	23	0	898629632	69	4356
2026-01-10 07:51:22.01	357.21	28.77	-52.3	-54.6	14.4	0.00e+00	0	23	0	907018240	69	5088
2026-01-10 07:51:26.03	356.21	28.30	-53.1	-55.7	14.2	0.00e+00	0	23	0	914358272	72	4841
2026-01-10 07:51:30.07	355.24	27.82	-52.5	-54.8	14.6	0.00e+00	0	23	0	921698304	71	4643
2026-01-10 07:51:34.09	354.30	27.34	-51.5	-53.5	15.0	0.00e+00	0	23	0	929038336	69	4486
2026-01-10 07:51:38.13	353.39	26.87	-51.3	-53.3	14.9	0.00e+00	0	23	0	936378368	68	4610
2026-01-10 07:51:42.15	352.51	26.39	-51.4	-53.4	14.8	0.00e+00	0	23	0	944766976	68	4699
2026-01-10 07:51:46.18	351.65	25.92	-52.3	-54.6	14.3	0.00e+00	0	23	0	952107008	69	5097
2026-01-10 07:51:50.22	350.81	25.44	-52.1	-54.4	14.7	0.00e+00	0	23	0	959447040	70	4662
2026-01-10 07:51:54.24	350.01	24.97	-51.4	-53.4	15.0	0.00e+00	0	23	0	966787072	69	4404
2026-01-10 07:51:58.27	349.22	24.50	-51.4	-53.3	14.9	0.00e+00	0	23	0	974127104	68	4650
2026-01-10 07:52:02.31	348.46	24.04	-51.6	-53.7	14.7	0.00e+00	0	23	0	982515712	68	4844
2026-01-10 07:52:06.34	347.72	23.57	-51.6	-53.6	14.8	0.00e+00	0	23	0	989855744	68	4774
2026-01-10 07:52:10.37	347.00	23.11	-51.4	-53.4	14.9	0.00e+00	0	23	0	997195776	68	4678
2026-01-10 07:52:14.41	346.31	22.65	-52.2	-54.5	14.4	0.00e+00	0	23	0	1004535808	69	5026
2026-01-10 07:52:18.44	345.63	22.20	-52.1	-54.4	14.6	0.00e+00	0	23	0	1011875840	70	4654
2026-01-10 07:52:22.47	344.98	21.75	-50.9	-52.8	15.2	0.00e+00	0	23	0	1020264448	68	4354
2026-01-10 07:52:26.51	344.34	21.30	-51.6	-53.6	14.7	0.00e+00	0	23	0	1027604480	68	4812
2026-01-10 07:52:30.53	343.72	20.86	-51.7	-53.7	14.9	0.00e+00	0	23	0	1034944512	69	4561
2026-01-10 07:52:34.57	343.12	20.42	-51.1	-53.0	15.0	0.00e+00	0	23	0	1042284544	68	4481
2026-01-10 07:52:38.60	342.54	19.99	-52.2	-54.5	14.4	0.00e+00	0	23	0	1050673152	69	5025
2026-01-10 07:52:42.64	341.97	19.56	-53.5	-56.5	13.6	0.00e+00	0	23	0	1058013184	72	5301
2026-01-10 07:52:46.67	341.42	19.14	-53.3	-56.1	13.9	0.00e+00	0	23	0	1065353216	72	5048
2026-01-10 07:52:50.70	340.89	18.72	-52.1	-54.3	14.6	0.00e+00	0	23	0	1072693248	70	4637
2026-01-10 07:52:54.73	340.37	18.30	-52.1	-54.3	14.7	0.00e+00	0	23	0	1080033280	70	4620
2026-01-10 07:52:58.75	339.86	17.89	-52.3	-54.7	14.4	0.00e+00	0	23	0	1088421888	70	4840
2026-01-10 07:53:02.79	339.37	17.49	-51.5	-53.6	14.9	0.00e+00	0	23	0	1095761920	69	4501
2026-01-10 07:53:06.82	338.89	17.08	-51.2	-53.2	14.9	0.00e+00	0	23	0	1103101952	68	4568
2026-01-10 07:53:10.85	338.43	16.69	-52.0	-54.2	14.4	0.00e+00	0	23	0	1110441984	69	4870
2026-01-10 07:53:14.89	337.97	16.29	-51.9	-54.1	14.5	0.00e+00	0	23	0	1117782016	69	4800
2026-01-10 07:53:18.91	337.53	15.90	-52.1	-54.4	14.4	0.00e+00	0	23	0	1126170624	69	4936
2026-01-10 07:53:22.95	337.10	15.52	-52.4	-54.8	14.2	0.00e+00	0	23	0	1133510656	69	5171
2026-01-10 07:53:26.97	336.68	15.14	-52.3	-54.6	14.5	0.00e+00	0	23	0	1140850688	70	4781
2026-01-10 07:53:31.01	336.28	14.76	-52.5	-54.9	14.3	0.00e+00	0	23	0	1148190720	70	4964
2026-01-10 07:53:35.04	335.88	14.39	-53.3	-56.2	13.7	0.00e+00	0	23	0	1155530752	71	5410
2026-01-10 07:53:39.07	335.49	14.03	-53.6	-56.6	13.5	0.00e+00	0	24	0	1163919360	72	5384
2026-01-10 07:53:43.10	335.12	13.66	-53.0	-55.6	14.1	0.00e+00	0	23	0	1171259392	72	4792
2026-01-10 07:53:47.12	334.75	13.31	-52.4	-54.7	14.5	0.00e+00	0	23	0	1178599424	71	4574
2026-01-10 07:53:51.15	334.39	12.95	-51.9	-54.1	14.7	0.00e+00	0	23	0	1185939456	70	4536
2026-01-10 07:53:55.18	334.04	12.60	-51.9	-54.1	14.5	0.00e+00	0	23	0	1193279488	70	4542
2026-01-10 07:53:59.22	333.70	12.25	-51.9	-54.1	14.7	0.00e+00	0	23	0	1201668096	70	4518
2026-01-10 07:54:03.25	333.36	11.91	-52.2	-54.5	14.5	0.00e+00	0	23	0	1209008128	70	4721
2026-01-10 07:54:07.27	333.04	11.57	-52.5	-55.0	14.1	0.00e+00	0	23	0	1216348160	70	5028
2026-01-10 07:54:11.31	332.72	11.24	-52.7	-55.2	14.0	0.00e+00	0	23	0	1223688192	70	5139
2026-01-10 07:54:15.34	332.41	10.90	-52.8	-55.5	13.9	0.00e+00	0	24	0	1232076800	70	5283
2026-01-10 07:54:19.37	332.11	10.58	-53.0	-55.8	13.8	0.00e+00	0	24	0	1239416832	71	5174
2026-01-10 07:54:23.40	331.81	10.25	-53.2	-56.1	13.5	0.00e+00	0	24	0	1246756864	71	5381
2026-01-10 07:54:27.43	331.53	9.93	-53.7	-56.9	13.2	0.00e+00	0	24	0	1254096896	72	5555
2026-01-10 07:54:31.46	331.24	9.61	-54.1	-57.6	12.8	0.00e+00	0	24	0	1261436928	73	5697
2026-01-10 07:54:35.49	330.97	9.30	-54.0	-57.5	12.8	0.00e+00	0	24	0	1269825536	73	5625
2026-01-10 07:54:39.52	330.70	8.99	-53.6	-56.6	13.4	0.00e+00	0	23	0	1277165568	73	5088
2026-01-10 07:54:43.56	330.43	8.68	-53.0	-55.8	13.8	0.00e+00	0	23	0	1284505600	72	4897
2026-01-10 07:54:47.59	330.18	8.37	-52.9	-55.5	14.0	0.00e+00	0	23	0	1291845632	72	4721
2026-01-10 07:54:51.61	329.92	8.07	-52.7	-55.4	14.0	0.00e+00	0	24	0	1299185664	71	4928
2026-01-10 07:54:55.64	329.68	7.77	-53.0	-55.8	13.7	0.00e+00	0	23	0	1307574272	71	5168
2026-01-10 07:54:59.67	329.44	7.48	-53.3	-56.3	13.3	0.00e+00	0	24	0	1314914304	71	5505
2026-01-10 07:55:03.70	329.20	7.18	-53.7	-57.0	13.0	0.00e+00	0	23	0	1322254336	72	5621
2026-01-10 07:55:07.73	328.97	6.89	-53.8	-57.1	12.8	0.00e+00	0	23	0	1329594368	72	5711
2026-01-10 07:55:11.75	328.74	6.61	-54.1	-57.6	12.7	0.00e+00	0	23	0	1336934400	73	5711
2026-01-10 07:55:15.79	328.52	6.32	-54.0	-57.5	12.7	0.00e+00	0	23	0	1345323008	73	5599
2026-01-10 07:55:19.82	328.30	6.04	-54.2	-58.0	12.4	1.50e-06	0	24	0	1352663040	73	5926
2026-01-10 07:55:23.85	328.09	5.76	-54.2	-58.0	12.2	1.50e-06	0	23	0	1360003072	73	5988
2026-01-10 07:55:27.87	327.88	5.49	-54.4	-58.4	12.0	2.20e-06	0	24	0	1367343104	73	6208
2026-01-10 07:55:31.89	327.68	5.21	-54.4	-58.4	12.1	6.80e-06	0	23	0	1374683136	74	5860
2026-01-10 07:55:35.91	327.48	4.94	-57.4	-69.9	4.3	2.77e-01	38	23	0	1383071744	79	16618
2026-01-10 07:55:39.94	327.28	4.67	-58.7	-74.8	3.8	1.49e+00	0	23	104	1383071744	82	24417
2026-01-10 07:55:43.98	327.09	4.40	-59.2	-75.3	3.8	1.49e+00	0	23	104	1383071744	83	24431
2026-01-10 07:55:48.01	326.90	4.14	-59.4	-75.4	3.8	1.49e+00	0	24	104	1383071744	83	24905
2026-01-10 07:55:52.05	326.71	3.88	-59.7	-75.7	3.8	1.49e+00	0	23	104	1383071744	84	24233
2026-01-10 07:55:56.09	326.53	3.62	-59.8	-75.8	3.8	1.49e+00	0	24	104	1383071744	84	24545
2026-01-10 07:56:00.13	326.35	3.36	-59.7	-75.7	3.8	1.49e+00	0	24	104	1383071744	84	24296
2026-01-10 07:56:04.17	326.18	3.10	-59.6	-75.7	3.8	1.49e+00	0	23	104	1383071744	84	24214
2026-01-10 07:56:08.20	326.01	2.85	-59.6	-75.6	3.8	1.49e+00	0	24	104	1383071744	84	24116
2026-01-10 07:56:12.24	325.84	2.59	-59.6	-75.6	3.8	1.49e+00	0	24	104	1383071744	84	24054
2026-01-10 07:56:16.27	325.67	2.34	-59.5	-75.6	3.8	1.49e+00	0	24	104	1383071744	84	23942
2026-01-10 07:56:20.30	325.51	2.10	-59.5	-75.6	3.8	1.49e+00	0	24	104	1383071744	84	23967

#Closed at: 2026-01-10 07:56:23
#Recorded file [1383 MB]: D:/lorett/data/31004_260110_104241.dat