passes_logs/2026/01/10/R3.2S_Murmansk/R3.2S_Murmansk__20260110_223605_NOAA_21_JPSS-2_rec.log

#Pass ID: 20260110_223605_NOAA 21 (JPSS-2)
#Satellite: NOAA 21 (JPSS-2)
#Configuration: NOAA-21
#almurnet v.1.7.20251203
#Start time: 2026-01-10 22:36:05

#Version: 2.2.20231116
#Station: R3.2S_Murmansk
#Location: 33.079688 lon 68.888172 lat
#TLE: 1 54234U 22150A   26009.79679979  .00000100  00000+0  68070-4 0  9993
#TLE: 2 54234  98.7494 310.7596 0000833 322.2782  37.8335 14.19533646164071

#Time	Az	El	Level	Level2	SNR	BER	BlckErr	Temp	State	Recorded	gain1	gain2
2026-01-10 22:36:05.36	19.05	1.97	-57.2	-70.8	3.8	1.49e+00	0	21	0	0	80	17447
2026-01-10 22:36:09.37	19.30	2.20	-57.2	-70.9	3.8	1.49e+00	0	21	104	0	79	18697
2026-01-10 22:36:13.36	19.55	2.43	-57.2	-70.8	3.8	1.49e+00	0	21	104	0	79	18405
2026-01-10 22:36:17.36	19.81	2.66	-57.1	-70.6	3.8	1.49e+00	0	21	104	0	79	17892
2026-01-10 22:36:21.37	20.07	2.89	-57.1	-69.4	3.8	1.49e+00	0	22	104	0	79	15661
2026-01-10 22:36:25.37	20.34	3.12	-57.0	-69.1	3.8	1.49e+00	0	22	104	0	79	15094
2026-01-10 22:36:29.37	20.61	3.36	-57.0	-68.0	4.1	1.48e+00	0	22	104	0	79	13290
2026-01-10 22:36:33.37	20.88	3.59	-56.5	-64.2	5.6	4.42e-01	0	22	0	4194304	79	8582
2026-01-10 22:36:37.37	21.16	3.83	-56.2	-62.6	6.9	2.01e-01	0	22	0	16777216	79	7142
2026-01-10 22:36:41.37	21.44	4.07	-54.5	-58.3	10.4	1.58e-03	0	22	0	29360128	75	5503
2026-01-10 22:36:45.36	21.72	4.31	-51.9	-54.0	13.4	0.00e+00	0	22	0	41943040	70	4468
2026-01-10 22:36:49.35	22.01	4.55	-51.5	-53.5	13.5	0.00e+00	0	22	0	53477376	68	4755
2026-01-10 22:36:53.34	22.30	4.79	-52.9	-55.6	12.2	0.00e+00	0	22	0	66060288	70	5361
2026-01-10 22:36:57.35	22.60	5.04	-55.3	-60.3	8.6	2.18e-02	0	22	0	78643200	75	6934
2026-01-10 22:37:01.36	22.91	5.29	-53.5	-56.4	11.9	1.78e-02	0	22	0	91226112	73	4937
2026-01-10 22:37:05.35	23.21	5.54	-52.2	-54.4	13.3	0.00e+00	0	22	0	103809024	71	4437
2026-01-10 22:37:09.36	23.53	5.79	-51.7	-53.8	13.5	0.00e+00	0	22	0	116391936	69	4607
2026-01-10 22:37:13.36	23.85	6.04	-51.4	-53.3	13.9	0.00e+00	0	22	0	128974848	69	4362
2026-01-10 22:37:17.35	24.17	6.30	-50.9	-52.6	14.2	0.00e+00	0	22	0	141557760	68	4288
2026-01-10 22:37:21.36	24.50	6.55	-50.4	-52.1	14.3	0.00e+00	0	23	0	154140672	67	4290
2026-01-10 22:37:25.36	24.83	6.81	-50.4	-52.1	14.3	0.00e+00	0	23	0	166723584	67	4282
2026-01-10 22:37:29.36	25.17	7.07	-50.1	-51.7	14.5	0.00e+00	0	23	0	179306496	66	4312
2026-01-10 22:37:33.35	25.52	7.33	-50.0	-51.6	14.5	0.00e+00	0	23	0	191889408	66	4280
2026-01-10 22:37:37.35	25.87	7.60	-49.8	-51.4	14.7	0.00e+00	0	23	0	204472320	66	4152
2026-01-10 22:37:41.33	26.23	7.86	-49.8	-51.3	14.8	0.00e+00	0	23	0	216006656	66	4114
2026-01-10 22:37:45.31	26.59	8.13	-49.6	-51.1	14.7	0.00e+00	0	23	0	228589568	65	4253
2026-01-10 22:37:49.31	26.96	8.39	-49.4	-50.9	14.8	0.00e+00	0	23	0	241172480	65	4167
2026-01-10 22:37:53.32	27.34	8.67	-49.5	-51.0	14.8	0.00e+00	0	23	0	253755392	65	4205
2026-01-10 22:37:57.32	27.72	8.94	-49.3	-50.7	14.9	0.00e+00	0	23	0	266338304	65	4070
2026-01-10 22:38:01.33	28.11	9.22	-49.2	-50.6	15.0	0.00e+00	0	23	0	278921216	65	4041
2026-01-10 22:38:05.33	28.51	9.49	-49.3	-50.7	15.0	0.00e+00	0	23	0	291504128	65	4060
2026-01-10 22:38:09.32	28.91	9.77	-49.0	-50.4	15.0	0.00e+00	0	23	0	304087040	64	4154
2026-01-10 22:38:13.30	29.32	10.05	-49.0	-50.4	14.9	0.00e+00	0	23	0	316669952	64	4168
2026-01-10 22:38:17.30	29.74	10.33	-48.9	-50.3	15.0	0.00e+00	0	23	0	329252864	64	4116
2026-01-10 22:38:21.30	30.17	10.62	-48.9	-50.3	15.0	0.00e+00	0	23	0	341835776	64	4127
2026-01-10 22:38:25.30	30.61	10.90	-48.7	-50.0	15.0	0.00e+00	0	23	0	353370112	63	4240
2026-01-10 22:38:29.30	31.05	11.19	-48.7	-50.1	15.0	0.00e+00	0	23	0	365953024	63	4268
2026-01-10 22:38:33.30	31.50	11.48	-48.6	-49.9	15.1	0.00e+00	0	23	0	378535936	63	4170
2026-01-10 22:38:37.30	31.96	11.77	-48.6	-49.9	15.0	0.00e+00	0	23	0	391118848	63	4181
2026-01-10 22:38:41.29	32.43	12.07	-48.4	-49.7	15.2	0.00e+00	0	23	0	403701760	63	4065
2026-01-10 22:38:45.28	32.91	12.36	-48.5	-49.7	15.2	0.00e+00	0	23	0	416284672	63	4098
2026-01-10 22:38:49.26	33.40	12.66	-48.7	-50.0	15.0	0.00e+00	0	23	0	428867584	63	4240
2026-01-10 22:38:53.26	33.89	12.96	-48.5	-49.8	15.1	0.00e+00	0	23	0	441450496	63	4136
2026-01-10 22:38:57.26	34.40	13.26	-48.4	-49.7	15.2	0.00e+00	0	23	0	454033408	63	4092
2026-01-10 22:39:01.26	34.92	13.56	-48.3	-49.5	15.3	0.00e+00	0	23	0	466616320	63	3994
2026-01-10 22:39:05.25	35.45	13.87	-48.3	-49.6	15.3	0.00e+00	0	23	0	478150656	63	4049
2026-01-10 22:39:09.25	35.99	14.17	-48.7	-50.0	15.1	0.00e+00	0	23	0	490733568	63	4207
2026-01-10 22:39:13.26	36.54	14.48	-48.3	-49.9	15.3	0.00e+00	0	23	0	503316480	63	4149
2026-01-10 22:39:17.26	37.10	14.79	-48.4	-49.8	15.1	0.00e+00	0	23	0	515899392	62	4345
2026-01-10 22:39:21.26	37.67	15.10	-48.7	-50.0	14.9	0.00e+00	0	23	0	528482304	62	4461
2026-01-10 22:39:25.27	38.25	15.42	-48.9	-50.3	14.9	0.00e+00	0	23	0	541065216	63	4352
2026-01-10 22:39:29.25	38.85	15.73	-48.9	-50.2	14.9	0.00e+00	0	23	0	553648128	63	4329
2026-01-10 22:39:33.25	39.46	16.04	-48.7	-50.0	15.1	0.00e+00	0	23	0	566231040	63	4222
2026-01-10 22:39:37.25	40.08	16.36	-48.9	-50.3	14.9	0.00e+00	0	23	0	578813952	63	4341
2026-01-10 22:39:41.25	40.71	16.68	-48.9	-50.2	15.0	0.00e+00	0	23	0	591396864	63	4326
2026-01-10 22:39:45.23	41.35	16.99	-48.7	-50.0	15.0	0.00e+00	0	23	0	603979776	63	4241
2026-01-10 22:39:49.23	42.01	17.31	-49.1	-50.4	14.9	0.00e+00	0	23	0	616562688	63	4418
2026-01-10 22:39:53.23	42.68	17.63	-49.2	-50.6	14.8	0.00e+00	0	23	0	629145600	63	4529
2026-01-10 22:39:57.20	43.37	17.95	-49.1	-50.4	14.8	0.00e+00	0	23	0	640679936	63	4433
2026-01-10 22:40:01.21	44.07	18.27	-48.8	-50.1	15.0	0.00e+00	0	23	0	653262848	63	4290
2026-01-10 22:40:05.22	44.79	18.59	-48.9	-50.2	15.0	0.00e+00	0	23	0	665845760	63	4321
2026-01-10 22:40:09.22	45.52	18.90	-48.6	-49.9	15.1	0.00e+00	0	23	0	678428672	63	4170
2026-01-10 22:40:13.21	46.26	19.22	-48.7	-50.0	15.1	0.00e+00	0	23	0	691011584	63	4206
2026-01-10 22:40:17.22	47.02	19.54	-48.6	-49.9	15.1	0.00e+00	0	23	0	703594496	63	4159
2026-01-10 22:40:21.22	47.80	19.86	-48.3	-49.6	15.3	0.00e+00	0	23	0	716177408	63	4012
2026-01-10 22:40:25.22	48.59	20.17	-48.0	-49.2	15.3	0.00e+00	0	23	0	728760320	62	4060
2026-01-10 22:40:29.23	49.40	20.49	-47.8	-49.0	15.4	0.00e+00	0	23	0	741343232	62	3999
2026-01-10 22:40:33.24	50.23	20.80	-47.6	-48.8	15.3	0.00e+00	0	23	0	753926144	61	4120
2026-01-10 22:40:37.23	51.06	21.11	-47.5	-48.7	15.4	0.00e+00	0	23	0	766509056	61	4089
2026-01-10 22:40:41.24	51.92	21.42	-47.7	-48.9	15.3	0.00e+00	0	23	0	779091968	61	4165
2026-01-10 22:40:45.23	52.80	21.72	-47.7	-48.9	15.3	0.00e+00	0	23	0	791674880	61	4174
2026-01-10 22:40:49.22	53.68	22.02	-47.5	-48.7	15.4	0.00e+00	0	23	0	803209216	61	4091
2026-01-10 22:40:53.21	54.59	22.32	-47.4	-48.6	15.4	0.00e+00	0	23	0	815792128	61	4025
2026-01-10 22:40:57.20	55.51	22.62	-47.5	-48.7	15.4	0.00e+00	0	23	0	828375040	61	4081
2026-01-10 22:41:01.20	56.45	22.91	-47.5	-48.7	15.4	0.00e+00	0	23	0	840957952	61	4065
2026-01-10 22:41:05.23	57.42	23.19	-47.5	-48.7	15.4	0.00e+00	0	23	0	853540864	61	4065
2026-01-10 22:41:09.23	58.40	23.48	-47.7	-48.9	15.3	0.00e+00	0	23	0	866123776	61	4157
2026-01-10 22:41:13.24	59.39	23.75	-47.5	-48.7	15.4	0.00e+00	0	23	0	878706688	61	4078
2026-01-10 22:41:17.23	60.40	24.02	-47.6	-48.8	15.3	0.00e+00	0	23	0	891289600	61	4127
2026-01-10 22:41:21.23	61.43	24.28	-48.0	-49.2	15.1	0.00e+00	0	23	0	903872512	61	4337
2026-01-10 22:41:25.22	62.47	24.54	-47.9	-49.1	15.2	0.00e+00	0	23	0	916455424	61	4255
2026-01-10 22:41:29.23	63.53	24.78	-48.1	-49.4	15.1	0.00e+00	0	23	0	929038336	61	4409
2026-01-10 22:41:33.25	64.62	25.03	-48.1	-49.3	15.1	0.00e+00	0	23	0	941621248	61	4390
2026-01-10 22:41:37.26	65.71	25.26	-48.0	-49.2	15.2	0.00e+00	0	23	0	953155584	61	4330
2026-01-10 22:41:41.27	66.82	25.48	-48.0	-49.2	15.2	0.00e+00	0	23	0	966787072	61	4310
2026-01-10 22:41:45.26	67.95	25.69	-48.0	-49.3	15.2	0.00e+00	0	23	0	978321408	61	4343
2026-01-10 22:41:49.27	69.09	25.90	-47.9	-49.2	15.2	0.00e+00	0	23	0	990904320	61	4300
2026-01-10 22:41:53.26	70.24	26.09	-47.8	-49.0	15.2	0.00e+00	0	23	0	1003487232	61	4230
2026-01-10 22:41:57.25	71.40	26.27	-47.9	-49.1	15.2	0.00e+00	0	23	0	1016070144	61	4271
2026-01-10 22:42:01.26	72.58	26.44	-47.8	-49.0	15.2	0.00e+00	0	23	0	1028653056	61	4239
2026-01-10 22:42:05.24	73.77	26.60	-47.7	-48.9	15.3	0.00e+00	0	23	0	1041235968	61	4167
2026-01-10 22:42:09.24	74.97	26.74	-47.7	-48.9	15.3	0.00e+00	0	23	0	1053818880	61	4182
2026-01-10 22:42:13.26	76.19	26.88	-47.6	-48.8	15.3	0.00e+00	0	23	0	1066401792	61	4116
2026-01-10 22:42:17.27	77.41	27.00	-47.7	-48.9	15.3	0.00e+00	0	23	0	1078984704	61	4158
2026-01-10 22:42:21.28	78.65	27.11	-47.6	-48.8	15.3	0.00e+00	0	23	0	1091567616	61	4138
2026-01-10 22:42:25.27	79.88	27.20	-47.8	-49.0	15.2	0.00e+00	0	23	0	1104150528	61	4241
2026-01-10 22:42:29.27	81.13	27.28	-47.8	-49.1	15.2	0.00e+00	0	23	0	1116733440	61	4245
2026-01-10 22:42:33.27	82.38	27.34	-47.7	-48.9	15.3	0.00e+00	0	23	0	1129316352	61	4175
2026-01-10 22:42:37.27	83.64	27.39	-47.8	-49.0	15.3	0.00e+00	0	23	0	1140850688	61	4218
2026-01-10 22:42:41.28	84.90	27.43	-47.7	-48.9	15.3	0.00e+00	0	23	0	1153433600	61	4150
2026-01-10 22:42:45.27	86.16	27.45	-47.9	-49.2	15.2	0.00e+00	0	23	0	1166016512	61	4296
2026-01-10 22:42:49.27	87.42	27.46	-47.9	-49.1	15.2	0.00e+00	0	23	0	1178599424	61	4264
2026-01-10 22:42:53.27	88.68	27.45	-47.6	-48.7	15.3	0.00e+00	0	23	0	1191182336	61	4098
2026-01-10 22:42:57.26	89.94	27.43	-47.6	-48.8	15.3	0.00e+00	0	23	0	1203765248	61	4123
2026-01-10 22:43:01.26	91.20	27.39	-47.5	-48.7	15.4	0.00e+00	0	23	0	1216348160	61	4053
2026-01-10 22:43:05.25	92.46	27.34	-47.8	-49.0	15.2	0.00e+00	0	23	0	1228931072	61	4241
2026-01-10 22:43:09.26	93.71	27.28	-47.5	-48.7	15.4	0.00e+00	0	23	0	1241513984	61	4085
2026-01-10 22:43:13.26	94.96	27.20	-47.5	-48.7	15.4	0.00e+00	0	23	0	1254096896	61	4081
2026-01-10 22:43:17.28	96.21	27.10	-47.8	-49.0	15.2	0.00e+00	0	23	0	1266679808	61	4233
2026-01-10 22:43:21.29	97.44	27.00	-47.5	-48.7	15.4	0.00e+00	0	23	0	1279262720	61	4081
2026-01-10 22:43:25.29	98.67	26.88	-47.7	-48.9	15.3	0.00e+00	0	23	0	1291845632	61	4152
2026-01-10 22:43:29.28	99.88	26.74	-47.9	-49.1	15.3	0.00e+00	0	23	0	1303379968	61	4257
2026-01-10 22:43:33.28	101.08	26.60	-47.8	-49.0	15.2	0.00e+00	0	23	0	1315962880	61	4230
2026-01-10 22:43:37.27	102.27	26.44	-48.2	-49.4	15.1	0.00e+00	0	23	0	1328545792	61	4433
2026-01-10 22:43:41.27	103.45	26.27	-48.0	-49.3	15.2	0.00e+00	0	23	0	1341128704	61	4351
2026-01-10 22:43:45.27	104.62	26.09	-48.2	-49.5	15.1	0.00e+00	0	23	0	1353711616	61	4459
2026-01-10 22:43:49.26	105.77	25.89	-48.0	-49.3	15.2	0.00e+00	0	23	0	1366294528	61	4356
2026-01-10 22:43:53.26	106.92	25.69	-47.6	-48.7	15.4	0.00e+00	0	23	0	1378877440	61	4088
2026-01-10 22:43:57.25	108.04	25.48	-47.7	-48.9	15.3	0.00e+00	0	23	0	1391460352	61	4179
2026-01-10 22:44:01.26	109.15	25.25	-47.7	-48.9	15.3	0.00e+00	0	23	0	1404043264	61	4186
2026-01-10 22:44:05.25	110.25	25.02	-47.6	-48.8	15.3	0.00e+00	0	23	0	1416626176	61	4107
2026-01-10 22:44:09.24	111.33	24.78	-47.4	-48.5	15.4	0.00e+00	0	23	0	1428160512	61	3982
2026-01-10 22:44:13.25	112.39	24.53	-47.6	-48.7	15.4	0.00e+00	0	23	0	1440743424	61	4084
2026-01-10 22:44:17.26	113.44	24.28	-48.2	-49.4	15.1	0.00e+00	0	23	0	1453326336	61	4422
2026-01-10 22:44:21.25	114.47	24.01	-47.8	-49.0	15.2	0.00e+00	0	23	0	1465909248	61	4230
2026-01-10 22:44:25.22	115.48	23.74	-48.0	-49.3	15.1	0.00e+00	0	23	0	1478492160	61	4348
2026-01-10 22:44:29.22	116.47	23.47	-48.2	-49.5	15.0	0.00e+00	0	23	0	1491075072	61	4479
2026-01-10 22:44:33.23	117.46	23.19	-48.0	-49.3	15.2	0.00e+00	0	23	0	1503657984	61	4342
2026-01-10 22:44:37.23	118.42	22.90	-47.8	-49.0	15.2	0.00e+00	0	23	0	1516240896	61	4236
2026-01-10 22:44:41.24	119.37	22.61	-47.8	-49.0	15.2	0.00e+00	0	23	0	1528823808	61	4219
2026-01-10 22:44:45.24	120.30	22.31	-47.7	-49.0	15.3	0.00e+00	0	23	0	1541406720	61	4196
2026-01-10 22:44:49.22	121.20	22.01	-47.8	-49.0	15.2	0.00e+00	0	23	0	1553989632	61	4220
2026-01-10 22:44:53.22	122.10	21.71	-47.9	-49.1	15.2	0.00e+00	0	23	0	1566572544	61	4268
2026-01-10 22:44:57.21	122.97	21.40	-47.8	-49.0	15.2	0.00e+00	0	23	0	1579155456	61	4242
2026-01-10 22:45:01.20	123.83	21.09	-47.5	-48.7	15.4	0.00e+00	0	23	0	1590689792	61	4071
2026-01-10 22:45:05.18	124.67	20.78	-47.8	-49.0	15.3	0.00e+00	0	23	0	1603272704	61	4207
2026-01-10 22:45:09.18	125.49	20.47	-47.6	-48.8	15.3	0.00e+00	0	23	0	1615855616	61	4112
2026-01-10 22:45:13.17	126.30	20.15	-47.7	-48.9	15.2	0.00e+00	0	23	0	1628438528	61	4191
2026-01-10 22:45:17.14	127.09	19.84	-47.9	-49.1	15.2	0.00e+00	0	23	0	1641021440	61	4279
2026-01-10 22:45:21.12	127.87	19.52	-47.8	-49.1	15.2	0.00e+00	0	23	0	1653604352	61	4257
2026-01-10 22:45:25.14	128.63	19.20	-48.0	-49.2	15.1	0.00e+00	0	23	0	1666187264	61	4336
2026-01-10 22:45:29.15	129.38	18.88	-48.2	-49.5	15.0	0.00e+00	0	23	0	1678770176	61	4448
2026-01-10 22:45:33.13	130.11	18.56	-48.1	-49.4	15.0	0.00e+00	0	23	0	1691353088	61	4402
2026-01-10 22:45:37.11	130.83	18.24	-48.3	-49.5	15.0	0.00e+00	0	23	0	1702887424	61	4489
2026-01-10 22:45:41.12	131.53	17.92	-48.2	-49.5	15.0	0.00e+00	0	23	0	1715470336	61	4468
2026-01-10 22:45:45.13	132.22	17.59	-48.5	-49.8	15.0	0.00e+00	0	23	0	1728053248	62	4382
2026-01-10 22:45:49.13	132.90	17.27	-48.6	-49.9	14.9	0.00e+00	0	23	0	1740636160	62	4405
2026-01-10 22:45:53.12	133.56	16.95	-48.7	-50.0	14.9	0.00e+00	0	23	0	1753219072	62	4484
2026-01-10 22:45:57.11	134.21	16.64	-48.6	-49.9	14.9	0.00e+00	0	23	0	1765801984	62	4425
2026-01-10 22:46:01.09	134.84	16.32	-48.4	-49.7	15.0	0.00e+00	0	23	0	1778384896	62	4309
2026-01-10 22:46:05.10	135.46	16.00	-48.3	-49.6	15.1	0.00e+00	0	23	0	1790967808	62	4263
2026-01-10 22:46:09.11	136.07	15.68	-48.3	-49.6	15.0	0.00e+00	0	23	0	1803550720	62	4260
2026-01-10 22:46:13.09	136.67	15.37	-48.6	-49.9	14.9	0.00e+00	0	23	0	1816133632	62	4440
2026-01-10 22:46:17.10	137.25	15.05	-48.8	-50.1	14.8	0.00e+00	0	23	0	1828716544	62	4534
2026-01-10 22:46:21.10	137.83	14.74	-48.7	-50.0	14.8	0.00e+00	0	23	0	1840250880	62	4485
2026-01-10 22:46:25.10	138.39	14.43	-48.7	-50.1	14.8	0.00e+00	0	23	0	1852833792	62	4498
2026-01-10 22:46:29.09	138.94	14.12	-48.8	-50.2	14.7	0.00e+00	0	23	0	1865416704	62	4556
2026-01-10 22:46:33.08	139.48	13.81	-49.0	-50.4	14.8	0.00e+00	0	23	0	1877999616	63	4430
2026-01-10 22:46:37.06	140.00	13.50	-49.0	-50.4	14.8	0.00e+00	0	23	0	1890582528	63	4398
2026-01-10 22:46:41.04	140.52	13.20	-49.2	-50.6	14.7	0.00e+00	0	23	0	1903165440	63	4511
2026-01-10 22:46:45.03	141.03	12.90	-49.2	-50.6	14.7	0.00e+00	0	23	0	1915748352	63	4532
2026-01-10 22:46:49.02	141.52	12.60	-49.0	-50.4	14.8	0.00e+00	0	23	0	1928331264	63	4419
2026-01-10 22:46:53.02	142.01	12.30	-49.2	-50.7	14.7	0.00e+00	0	23	0	1940914176	63	4549
2026-01-10 22:46:57.01	142.49	12.00	-49.2	-50.7	14.7	0.00e+00	0	23	0	1953497088	64	4308
2026-01-10 22:47:00.99	142.96	11.70	-49.2	-50.7	14.7	0.00e+00	0	23	0	1965031424	64	4301
2026-01-10 22:47:04.98	143.42	11.41	-49.2	-50.7	14.7	0.00e+00	0	23	0	1977614336	64	4307
2026-01-10 22:47:08.97	143.87	11.12	-49.1	-50.5	14.9	0.00e+00	0	23	0	1990197248	64	4213
2026-01-10 22:47:12.99	144.32	10.83	-49.2	-50.6	14.7	0.00e+00	0	23	0	2002780160	64	4286
2026-01-10 22:47:16.98	144.75	10.54	-49.3	-50.8	14.7	0.00e+00	0	23	0	2015363072	64	4364
2026-01-10 22:47:21.00	145.18	10.25	-49.6	-51.1	14.5	0.00e+00	0	23	0	2027945984	64	4513
2026-01-10 22:47:25.00	145.60	9.97	-49.3	-50.8	14.6	0.00e+00	0	23	0	2040528896	64	4368
2026-01-10 22:47:28.98	146.01	9.69	-49.5	-51.0	14.5	0.00e+00	0	23	0	2053111808	64	4461
2026-01-10 22:47:32.98	146.42	9.41	-49.5	-51.0	14.5	0.00e+00	0	23	0	2065694720	64	4457
2026-01-10 22:47:36.98	146.81	9.13	-49.7	-51.3	14.4	0.00e+00	0	23	0	2078277632	64	4612
2026-01-10 22:47:41.00	147.21	8.85	-49.7	-51.2	14.4	0.00e+00	0	23	0	2090860544	64	4592
2026-01-10 22:47:45.01	147.59	8.57	-49.9	-51.5	14.4	0.00e+00	0	23	0	2103443456	65	4474
2026-01-10 22:47:49.01	147.97	8.30	-49.8	-51.4	14.4	0.00e+00	0	23	0	2114977792	65	4437
2026-01-10 22:47:53.01	148.34	8.03	-50.1	-51.7	14.2	0.00e+00	0	23	0	2127560704	65	4592
2026-01-10 22:47:56.99	148.70	7.76	-50.0	-51.7	14.3	0.00e+00	0	23	0	2140143616	65	4550
2026-01-10 22:48:00.98	149.05	7.49	-50.3	-52.0	14.1	0.00e+00	0	23	0	2152726528	65	4716
2026-01-10 22:48:04.97	149.40	7.23	-49.8	-51.4	14.4	0.00e+00	0	23	0	2165309440	65	4418
2026-01-10 22:48:08.96	149.75	6.97	-49.9	-51.5	14.3	0.00e+00	0	23	0	2177892352	65	4483
2026-01-10 22:48:12.95	150.08	6.71	-49.8	-51.4	14.3	0.00e+00	0	23	0	2190475264	65	4432
2026-01-10 22:48:16.95	150.42	6.45	-50.1	-51.8	14.1	0.00e+00	0	23	0	2203058176	65	4599
2026-01-10 22:48:20.95	150.75	6.19	-50.4	-52.2	13.9	0.00e+00	0	23	0	2215641088	65	4848
2026-01-10 22:48:24.93	151.07	5.93	-50.5	-52.3	13.9	0.00e+00	0	23	0	2228224000	66	4639
2026-01-10 22:48:28.93	151.38	5.68	-50.7	-52.6	13.8	0.00e+00	0	23	0	2239758336	67	4517
2026-01-10 22:48:32.94	151.70	5.43	-50.6	-52.4	13.9	0.00e+00	0	23	0	2252341248	67	4429
2026-01-10 22:48:36.94	152.00	5.17	-50.9	-52.9	13.6	0.00e+00	0	23	0	2264924160	67	4669
2026-01-10 22:48:40.93	152.30	4.93	-57.7	-71.5	3.8	1.49e+00	0	23	104	2274361344	80	18875
2026-01-10 22:48:44.94	152.60	4.68	-58.6	-72.4	3.8	1.49e+00	0	23	104	2274361344	82	18552
2026-01-10 22:48:48.94	152.89	4.43	-59.0	-72.8	3.8	1.49e+00	0	23	104	2274361344	83	18416
2026-01-10 22:48:52.94	153.18	4.19	-59.2	-73.1	3.8	1.49e+00	0	23	104	2274361344	83	19022
2026-01-10 22:48:56.94	153.46	3.95	-59.6	-73.5	3.8	1.49e+00	0	23	104	2274361344	84	18782
2026-01-10 22:49:00.93	153.74	3.71	-59.7	-73.5	3.8	1.49e+00	0	23	104	2274361344	84	18871
2026-01-10 22:49:04.91	154.02	3.47	-59.6	-73.4	3.8	1.49e+00	0	24	104	2274361344	84	18660
2026-01-10 22:49:08.91	154.29	3.23	-59.6	-73.4	3.8	1.49e+00	0	24	104	2274361344	84	18596
2026-01-10 22:49:12.90	154.55	2.99	-59.5	-73.4	3.8	1.49e+00	0	24	104	2274361344	84	18522
2026-01-10 22:49:16.91	154.82	2.76	-59.5	-73.3	3.8	1.49e+00	0	24	104	2274361344	84	18507
2026-01-10 22:49:20.91	155.07	2.53	-59.5	-73.3	3.8	1.49e+00	0	23	104	2274361344	84	18394
2026-01-10 22:49:24.92	155.33	2.29	-59.5	-73.3	3.8	1.49e+00	0	24	104	2274361344	84	18403
2026-01-10 22:49:28.91	155.58	2.06	-59.5	-73.3	3.8	1.49e+00	0	24	104	2274361344	84	18348

#Closed at: 2026-01-10 22:49:31
#Recorded file [2274 MB]: D:/lorett/data/31004_260111_013605.dat