passes_logs/2026/01/10/R3.2S_Murmansk/R3.2S_Murmansk__20260110_020458_FENGYUN_3D_rec.log

#Pass ID: 20260110_020458_FENGYUN 3D
#Satellite: FENGYUN 3D
#Configuration: FENGYUN 3D
#almurnet v.1.7.20251203
#Start time: 2026-01-10 02:05:01

#Version: 2.2.20231116
#Station: R3.2S_Murmansk
#Location: 33.079688 lon 68.888172 lat
#TLE: 1 43010U 17072A   26009.29492227  .00000158  00000+0  96483-4 0  9996
#TLE: 2 43010  98.9936 341.0229 0002153 117.3665 242.7729 14.19694440422446

#Time	Az	El	Level	Level2	SNR	BER	BlckErr	Temp	State	Recorded	gain1	gain2
2026-01-10 02:05:01.10	22.89	2.15	-57.1	-69.9	3.8	8.44e-01	0	21	0	0	80	15619
2026-01-10 02:05:05.08	22.98	2.40	-57.1	-69.5	3.8	8.46e-01	0	21	104	0	79	15791
2026-01-10 02:05:09.07	23.08	2.66	-57.0	-68.0	3.8	8.44e-01	0	22	104	0	79	13315
2026-01-10 02:05:13.07	23.17	2.91	-56.8	-65.9	4.4	8.33e-01	0	22	0	0	79	10429
2026-01-10 02:05:17.06	23.27	3.17	-56.3	-62.9	6.0	3.93e-01	0	22	0	5242880	79	7422
2026-01-10 02:05:21.06	23.36	3.44	-55.3	-59.9	8.5	4.01e-02	0	22	0	27262976	77	5897
2026-01-10 02:05:25.06	23.46	3.70	-53.1	-55.8	11.8	1.35e-04	0	22	0	50331648	72	4880
2026-01-10 02:05:29.06	23.56	3.97	-50.3	-52.1	13.9	0.00e+00	0	22	0	72351744	67	4280
2026-01-10 02:05:33.05	23.67	4.24	-49.7	-51.4	14.1	0.00e+00	0	22	0	95420416	65	4414
2026-01-10 02:05:37.03	23.77	4.52	-50.4	-52.2	13.6	0.00e+00	0	22	0	117440512	65	4839
2026-01-10 02:05:41.04	23.88	4.79	-52.5	-55.0	12.2	3.40e-06	0	22	0	139460608	70	5006
2026-01-10 02:05:45.05	23.98	5.07	-54.3	-58.1	9.8	2.40e-03	0	22	0	162529280	73	6045
2026-01-10 02:05:49.05	24.09	5.35	-51.1	-53.0	13.7	0.00e+00	0	22	0	185597952	68	4459
2026-01-10 02:05:53.04	24.20	5.64	-49.8	-51.4	14.4	0.00e+00	0	22	0	205520896	66	4190
2026-01-10 02:05:57.04	24.31	5.93	-49.4	-50.9	14.6	0.00e+00	0	22	0	227540992	65	4172
2026-01-10 02:06:01.04	24.43	6.22	-49.3	-50.8	14.5	0.00e+00	0	22	0	250609664	64	4391
2026-01-10 02:06:05.04	24.54	6.51	-48.9	-50.3	14.8	0.00e+00	0	23	0	272629760	64	4137
2026-01-10 02:06:09.04	24.66	6.81	-48.8	-50.3	14.7	0.00e+00	0	22	0	295698432	63	4341
2026-01-10 02:06:13.03	24.78	7.11	-48.4	-49.7	15.0	0.00e+00	0	23	0	317718528	63	4091
2026-01-10 02:06:17.03	24.91	7.42	-48.1	-49.5	15.0	0.00e+00	0	23	0	340787200	62	4222
2026-01-10 02:06:21.01	25.03	7.72	-48.1	-49.4	15.0	0.00e+00	0	23	0	362807296	62	4187
2026-01-10 02:06:25.00	25.16	8.04	-48.0	-49.3	15.1	0.00e+00	0	23	0	385875968	62	4145
2026-01-10 02:06:28.99	25.29	8.35	-47.8	-49.1	15.3	0.00e+00	0	23	0	407896064	62	4016
2026-01-10 02:06:32.97	25.42	8.67	-47.6	-48.9	15.2	0.00e+00	0	23	0	429916160	61	4147
2026-01-10 02:06:36.97	25.55	8.99	-47.5	-48.8	15.3	0.00e+00	0	23	0	452984832	61	4101
2026-01-10 02:06:40.96	25.69	9.32	-47.4	-48.7	15.3	0.00e+00	0	23	0	475004928	61	4053
2026-01-10 02:06:44.96	25.83	9.65	-47.3	-48.6	15.3	0.00e+00	0	23	0	498073600	61	4022
2026-01-10 02:06:48.94	25.97	9.99	-47.3	-48.6	15.4	0.00e+00	0	23	0	520093696	61	4007
2026-01-10 02:06:52.95	26.11	10.33	-47.2	-48.4	15.4	0.00e+00	0	23	0	543162368	61	3957
2026-01-10 02:06:56.93	26.26	10.68	-47.3	-48.6	15.4	0.00e+00	0	23	0	565182464	61	4008
2026-01-10 02:07:00.94	26.41	11.03	-47.3	-48.5	15.4	0.00e+00	0	23	0	587202560	61	3991
2026-01-10 02:07:04.94	26.57	11.38	-47.2	-48.4	15.5	0.00e+00	0	23	0	610271232	61	3953
2026-01-10 02:07:08.95	26.73	11.75	-47.2	-48.4	15.3	0.00e+00	0	23	0	632291328	60	4190
2026-01-10 02:07:12.95	26.89	12.11	-47.1	-48.3	15.3	0.00e+00	0	23	0	655360000	60	4105
2026-01-10 02:07:16.94	27.05	12.48	-47.0	-48.2	15.4	0.00e+00	0	23	0	677380096	60	4070
2026-01-10 02:07:20.94	27.22	12.86	-46.9	-48.0	15.5	0.00e+00	0	23	0	700448768	60	4003
2026-01-10 02:07:24.94	27.40	13.24	-46.8	-48.0	15.5	0.00e+00	0	23	0	722468864	60	3975
2026-01-10 02:07:28.93	27.57	13.63	-46.9	-48.1	15.3	0.00e+00	0	23	0	744488960	59	4281
2026-01-10 02:07:32.93	27.75	14.03	-46.8	-48.0	15.4	0.00e+00	0	23	0	767557632	59	4229
2026-01-10 02:07:36.93	27.94	14.43	-46.8	-48.0	15.4	0.00e+00	0	23	0	789577728	59	4203
2026-01-10 02:07:40.92	28.13	14.83	-46.9	-48.1	15.3	0.00e+00	0	23	0	812646400	59	4271
2026-01-10 02:07:44.92	28.33	15.25	-46.8	-48.0	15.4	0.00e+00	0	23	0	834666496	59	4202
2026-01-10 02:07:48.91	28.52	15.67	-46.5	-47.7	15.5	0.00e+00	0	23	0	857735168	59	4057
2026-01-10 02:07:52.91	28.73	16.10	-46.4	-47.6	15.6	0.00e+00	0	23	0	879755264	59	4011
2026-01-10 02:07:56.91	28.94	16.53	-46.1	-47.2	15.6	0.00e+00	0	23	0	902823936	58	4082
2026-01-10 02:08:00.90	29.16	16.98	-45.9	-47.1	15.6	0.00e+00	0	23	0	924844032	58	4012
2026-01-10 02:08:04.90	29.38	17.43	-46.0	-47.1	15.6	0.00e+00	0	23	0	947912704	58	4045
2026-01-10 02:08:08.92	29.61	17.89	-46.0	-47.1	15.6	0.00e+00	0	23	0	969932800	58	4039
2026-01-10 02:08:12.92	29.85	18.36	-45.8	-46.9	15.7	0.00e+00	0	23	0	993001472	58	3938
2026-01-10 02:08:16.92	30.09	18.83	-45.5	-46.6	15.6	0.00e+00	0	23	0	1015021568	57	4023
2026-01-10 02:08:20.91	30.34	19.32	-45.6	-46.7	15.6	0.00e+00	0	23	0	1037041664	57	4060
2026-01-10 02:08:24.93	30.60	19.81	-45.6	-46.7	15.6	0.00e+00	0	23	0	1060110336	57	4060
2026-01-10 02:08:28.92	30.86	20.32	-45.5	-46.6	15.6	0.00e+00	0	23	0	1082130432	57	4050
2026-01-10 02:08:32.92	31.13	20.83	-45.6	-46.7	15.6	0.00e+00	0	23	0	1105199104	57	4057
2026-01-10 02:08:36.92	31.42	21.36	-45.6	-46.7	15.6	0.00e+00	0	23	0	1127219200	57	4085
2026-01-10 02:08:40.91	31.71	21.89	-45.6	-46.7	15.6	0.00e+00	0	23	0	1150287872	57	4096
2026-01-10 02:08:44.91	32.01	22.43	-45.4	-46.5	15.7	0.00e+00	0	23	0	1172307968	57	3967
2026-01-10 02:08:48.91	32.32	22.99	-44.9	-46.0	15.7	0.00e+00	0	23	0	1195376640	56	3980
2026-01-10 02:08:52.92	32.64	23.56	-44.8	-45.8	15.8	0.00e+00	0	23	0	1217396736	56	3912
2026-01-10 02:08:56.93	32.98	24.14	-44.6	-45.7	15.7	0.00e+00	0	23	0	1240465408	55	4089
2026-01-10 02:09:00.92	33.32	24.73	-44.6	-45.7	15.7	0.00e+00	0	23	0	1262485504	55	4066
2026-01-10 02:09:04.93	33.68	25.34	-44.5	-45.6	15.7	0.00e+00	0	23	0	1284505600	55	4030
2026-01-10 02:09:08.93	34.05	25.96	-44.3	-45.4	15.8	0.00e+00	0	23	0	1307574272	55	3934
2026-01-10 02:09:12.93	34.44	26.59	-44.8	-45.8	15.7	0.00e+00	0	23	0	1329594368	55	4139
2026-01-10 02:09:16.92	34.84	27.23	-44.5	-45.6	15.7	0.00e+00	0	23	0	1352663040	55	4031
2026-01-10 02:09:20.92	35.25	27.89	-44.4	-45.4	15.8	0.00e+00	0	23	0	1374683136	55	3956
2026-01-10 02:09:24.91	35.68	28.56	-44.4	-45.4	15.8	0.00e+00	0	23	0	1397751808	55	3946
2026-01-10 02:09:28.90	36.14	29.25	-44.1	-45.2	15.7	0.00e+00	0	23	0	1419771904	54	4078
2026-01-10 02:09:32.89	36.60	29.95	-44.1	-45.1	15.8	0.00e+00	0	23	0	1441792000	54	4030
2026-01-10 02:09:36.88	37.09	30.67	-44.2	-45.2	15.7	0.00e+00	0	23	0	1464860672	54	4093
2026-01-10 02:09:40.89	37.61	31.41	-44.2	-45.3	15.7	0.00e+00	0	23	0	1486880768	54	4116
2026-01-10 02:09:44.88	38.14	32.16	-44.3	-45.4	15.7	0.00e+00	0	23	0	1509949440	54	4178
2026-01-10 02:09:48.87	38.70	32.93	-44.3	-45.4	15.7	0.00e+00	0	23	0	1531969536	54	4160
2026-01-10 02:09:52.86	39.29	33.71	-44.4	-45.5	15.7	0.00e+00	0	23	0	1555038208	54	4204
2026-01-10 02:09:56.85	39.90	34.51	-44.0	-45.0	15.8	0.00e+00	0	23	0	1577058304	54	3997
2026-01-10 02:10:00.85	40.55	35.33	-44.1	-45.2	15.8	0.00e+00	0	23	0	1599078400	54	4062
2026-01-10 02:10:04.84	41.23	36.17	-43.9	-44.9	15.8	0.00e+00	0	23	0	1622147072	54	3931
2026-01-10 02:10:08.84	41.94	37.03	-43.7	-44.7	15.8	0.00e+00	0	23	0	1644167168	53	4093
2026-01-10 02:10:12.83	42.69	37.90	-43.7	-44.8	15.8	0.00e+00	0	24	0	1667235840	53	4101
2026-01-10 02:10:16.82	43.48	38.79	-44.2	-45.2	15.7	0.00e+00	0	23	0	1689255936	53	4329
2026-01-10 02:10:20.81	44.32	39.70	-44.0	-45.1	15.7	0.00e+00	0	23	0	1712324608	53	4251
2026-01-10 02:10:24.79	45.20	40.62	-44.0	-45.0	15.7	0.00e+00	0	23	0	1734344704	53	4225
2026-01-10 02:10:28.77	46.13	41.56	-44.1	-45.1	15.7	0.00e+00	0	23	0	1756364800	53	4280
2026-01-10 02:10:32.74	47.11	42.51	-44.3	-45.3	15.7	0.00e+00	0	23	0	1778384896	53	4374
2026-01-10 02:10:36.73	48.16	43.48	-44.2	-45.2	15.7	0.00e+00	0	23	0	1801453568	53	4334
2026-01-10 02:10:40.73	49.28	44.47	-44.7	-45.7	15.7	0.00e+00	0	23	0	1823473664	54	4325
2026-01-10 02:10:44.73	50.47	45.47	-44.5	-45.6	15.7	0.00e+00	0	23	0	1846542336	54	4270
2026-01-10 02:10:48.71	51.73	46.48	-44.4	-45.4	15.7	0.00e+00	0	23	0	1868562432	54	4175
2026-01-10 02:10:52.72	53.08	47.51	-44.3	-45.3	15.7	0.00e+00	0	23	0	1891631104	54	4130
2026-01-10 02:10:56.73	54.52	48.54	-44.4	-45.4	15.7	0.00e+00	0	23	0	1913651200	54	4178
2026-01-10 02:11:00.71	56.05	49.57	-44.8	-45.9	15.6	0.00e+00	0	24	0	1936719872	54	4393
2026-01-10 02:11:04.71	57.69	50.60	-44.6	-45.7	15.7	0.00e+00	0	23	0	1958739968	55	4061
2026-01-10 02:11:08.71	59.45	51.64	-45.1	-46.2	15.6	0.00e+00	0	23	0	1981808640	55	4310
2026-01-10 02:11:12.70	61.33	52.66	-45.2	-46.3	15.6	0.00e+00	0	23	0	2003828736	55	4344
2026-01-10 02:11:16.69	63.35	53.67	-45.1	-46.2	15.6	0.00e+00	0	23	0	2025848832	55	4325
2026-01-10 02:11:20.68	65.50	54.66	-45.1	-46.2	15.6	0.00e+00	0	23	0	2048917504	55	4294
2026-01-10 02:11:24.68	67.82	55.64	-45.6	-46.8	15.6	0.00e+00	0	23	0	2070937600	56	4341
2026-01-10 02:11:28.67	70.29	56.57	-45.4	-46.5	15.6	0.00e+00	0	23	0	2094006272	56	4213
2026-01-10 02:11:32.67	72.93	57.48	-45.2	-46.2	15.7	0.00e+00	0	23	0	2116026368	56	4084
2026-01-10 02:11:36.66	75.74	58.33	-45.3	-46.4	15.7	0.00e+00	0	23	0	2139095040	56	4180
2026-01-10 02:11:40.64	78.73	59.12	-45.2	-46.3	15.7	0.00e+00	0	23	0	2161115136	56	4108
2026-01-10 02:11:44.62	81.89	59.85	-44.7	-45.7	15.9	0.00e+00	0	23	0	2183135232	56	3867
2026-01-10 02:11:48.62	85.25	60.51	-44.2	-45.2	15.7	0.00e+00	0	23	0	2206203904	54	4067
2026-01-10 02:11:52.62	88.77	61.08	-44.3	-45.4	15.7	0.00e+00	0	23	0	2228224000	54	4152
2026-01-10 02:11:56.62	92.44	61.56	-44.3	-45.4	15.7	0.00e+00	0	23	0	2251292672	54	4174
2026-01-10 02:12:00.64	96.25	61.94	-43.8	-44.8	15.9	0.00e+00	0	23	0	2273312768	54	3876
2026-01-10 02:12:04.64	100.16	62.22	-44.1	-45.1	15.8	0.00e+00	0	24	0	2295332864	54	4022
2026-01-10 02:12:08.63	104.12	62.37	-44.0	-45.0	15.8	0.00e+00	0	23	0	2318401536	54	4004
2026-01-10 02:12:12.63	108.12	62.41	-43.9	-45.0	15.8	0.00e+00	0	23	0	2340421632	54	3968
2026-01-10 02:12:16.63	112.12	62.34	-43.9	-44.9	15.8	0.00e+00	0	23	0	2363490304	54	3943
2026-01-10 02:12:20.64	116.09	62.15	-44.2	-45.3	15.8	0.00e+00	0	23	0	2385510400	54	4111
2026-01-10 02:12:24.63	119.95	61.84	-44.0	-45.0	15.8	0.00e+00	0	23	0	2408579072	54	3985
2026-01-10 02:12:28.63	123.72	61.43	-44.3	-45.3	15.7	0.00e+00	0	23	0	2430599168	54	4144
2026-01-10 02:12:32.64	127.36	60.92	-44.5	-45.5	15.8	0.00e+00	0	23	0	2453667840	55	4001
2026-01-10 02:12:36.62	130.82	60.32	-44.8	-45.9	15.7	0.00e+00	0	23	0	2475687936	55	4148
2026-01-10 02:12:40.62	134.12	59.64	-44.8	-45.9	15.7	0.00e+00	0	23	0	2498756608	55	4172
2026-01-10 02:12:44.62	137.25	58.89	-44.9	-46.0	15.7	0.00e+00	0	23	0	2520776704	55	4196
2026-01-10 02:12:48.62	140.20	58.07	-45.2	-46.3	15.6	0.00e+00	0	23	0	2543845376	55	4352
2026-01-10 02:12:52.62	142.97	57.20	-44.9	-45.9	15.7	0.00e+00	0	23	0	2565865472	55	4181
2026-01-10 02:12:56.62	145.57	56.28	-45.4	-46.5	15.6	0.00e+00	0	23	0	2587885568	55	4449
2026-01-10 02:13:00.61	147.99	55.33	-45.7	-46.9	15.5	0.00e+00	0	23	0	2610954240	56	4393
2026-01-10 02:13:04.61	150.26	54.35	-45.9	-47.1	15.5	0.00e+00	0	23	0	2632974336	57	4252
2026-01-10 02:13:08.60	152.38	53.35	-45.7	-46.9	15.6	0.00e+00	0	24	0	2656043008	57	4152
2026-01-10 02:13:12.60	154.36	52.33	-45.5	-46.6	15.7	0.00e+00	0	23	0	2678063104	57	4010
2026-01-10 02:13:16.59	156.20	51.30	-45.2	-46.2	15.7	0.00e+00	0	23	0	2700083200	56	4091
2026-01-10 02:13:20.58	157.92	50.26	-45.3	-46.4	15.7	0.00e+00	0	23	0	2723151872	56	4165
2026-01-10 02:13:24.58	159.53	49.22	-44.9	-45.9	15.8	0.00e+00	0	23	0	2745171968	56	3949
2026-01-10 02:13:28.57	161.04	48.19	-44.5	-45.6	15.8	0.00e+00	0	23	0	2768240640	55	4016
2026-01-10 02:13:32.55	162.44	47.16	-44.6	-45.7	15.7	0.00e+00	0	23	0	2790260736	55	4075
2026-01-10 02:13:36.54	163.76	46.14	-44.7	-45.7	15.7	0.00e+00	0	23	0	2812280832	55	4097
2026-01-10 02:13:40.53	165.00	45.13	-44.3	-45.3	15.9	0.00e+00	0	23	0	2835349504	55	3906
2026-01-10 02:13:44.52	166.17	44.13	-44.3	-45.3	15.9	0.00e+00	0	23	0	2857369600	55	3887
2026-01-10 02:13:48.52	167.26	43.14	-44.7	-45.8	15.7	0.00e+00	0	23	0	2880438272	54	4355
2026-01-10 02:13:52.52	168.30	42.17	-44.5	-45.6	15.7	0.00e+00	0	23	0	2902458368	54	4272
2026-01-10 02:13:56.51	169.27	41.21	-44.4	-45.5	15.7	0.00e+00	0	23	0	2925527040	54	4196
2026-01-10 02:14:00.51	170.19	40.27	-44.1	-45.2	15.8	0.00e+00	0	23	0	2947547136	54	4075
2026-01-10 02:14:04.50	171.06	39.35	-44.0	-45.0	15.8	0.00e+00	0	23	0	2970615808	54	4003
2026-01-10 02:14:08.51	171.88	38.44	-44.2	-45.2	15.8	0.00e+00	0	23	0	2992635904	54	4090
2026-01-10 02:14:12.52	172.66	37.55	-43.8	-44.9	15.9	0.00e+00	0	23	0	3015704576	54	3920
2026-01-10 02:14:16.51	173.40	36.68	-43.8	-44.8	15.9	0.00e+00	0	23	0	3037724672	54	3899
2026-01-10 02:14:20.49	174.10	35.83	-44.0	-45.1	15.8	0.00e+00	0	23	0	3059744768	54	4026
2026-01-10 02:14:24.49	174.77	34.99	-43.9	-45.0	15.8	0.00e+00	0	23	0	3082813440	54	3959
2026-01-10 02:14:28.49	175.41	34.17	-44.0	-45.1	15.8	0.00e+00	0	23	0	3104833536	54	4019
2026-01-10 02:14:32.49	176.01	33.37	-44.1	-45.1	15.8	0.00e+00	0	23	0	3127902208	54	4047
2026-01-10 02:14:36.47	176.59	32.59	-44.1	-45.3	15.7	0.00e+00	0	23	0	3149922304	54	4135
2026-01-10 02:14:40.46	177.14	31.83	-44.1	-45.4	15.7	0.00e+00	0	23	0	3172990976	54	4174
2026-01-10 02:14:44.46	177.67	31.08	-44.0	-45.2	15.8	0.00e+00	0	23	0	3195011072	54	4078
2026-01-10 02:14:48.44	178.17	30.35	-44.1	-45.4	15.7	0.00e+00	0	23	0	3217031168	54	4150
2026-01-10 02:14:52.43	178.65	29.63	-44.2	-45.4	15.7	0.00e+00	0	23	0	3240099840	54	4174
2026-01-10 02:14:56.42	179.11	28.93	-44.0	-45.2	15.8	0.00e+00	0	23	0	3262119936	54	4090
2026-01-10 02:15:00.42	179.56	28.25	-44.1	-45.3	15.7	0.00e+00	0	23	0	3285188608	54	4102
2026-01-10 02:15:04.41	179.98	27.58	-44.2	-45.4	15.7	0.00e+00	0	23	0	3307208704	54	4191
2026-01-10 02:15:08.42	180.40	26.92	-44.2	-45.4	15.7	0.00e+00	0	23	0	3329228800	54	4182
2026-01-10 02:15:12.42	180.79	26.27	-43.9	-45.1	15.8	0.00e+00	0	23	0	3352297472	54	4027
2026-01-10 02:15:16.41	181.17	25.65	-43.9	-45.1	15.8	0.00e+00	0	23	0	3374317568	54	4014
2026-01-10 02:15:20.40	181.53	25.03	-44.1	-45.3	15.7	0.00e+00	0	23	0	3397386240	54	4106
2026-01-10 02:15:24.41	181.89	24.43	-44.3	-45.5	15.6	0.00e+00	0	23	0	3419406336	54	4227
2026-01-10 02:15:28.41	182.23	23.84	-44.4	-45.6	15.6	0.00e+00	0	23	0	3442475008	54	4271
2026-01-10 02:15:32.40	182.56	23.26	-44.7	-46.0	15.5	0.00e+00	0	23	0	3464495104	54	4445
2026-01-10 02:15:36.37	182.87	22.70	-44.9	-46.1	15.4	0.00e+00	0	23	0	3486515200	54	4540
2026-01-10 02:15:40.33	183.17	22.15	-45.0	-46.3	15.5	0.00e+00	0	23	0	3509583872	55	4368
2026-01-10 02:15:44.32	183.47	21.61	-45.1	-46.4	15.4	0.00e+00	0	23	0	3531603968	55	4393
2026-01-10 02:15:48.31	183.76	21.08	-45.0	-46.3	15.5	0.00e+00	0	23	0	3553624064	55	4356
2026-01-10 02:15:52.30	184.03	20.55	-45.1	-46.4	15.5	0.00e+00	0	23	0	3576692736	55	4399
2026-01-10 02:15:56.29	184.30	20.04	-45.1	-46.4	15.4	0.00e+00	0	23	0	3598712832	55	4400
2026-01-10 02:16:00.30	184.56	19.54	-45.3	-46.6	15.4	0.00e+00	0	23	0	3621781504	55	4499
2026-01-10 02:16:04.28	184.82	19.05	-45.7	-47.0	15.4	0.00e+00	0	23	0	3643801600	56	4456
2026-01-10 02:16:08.28	185.06	18.56	-45.9	-47.3	15.4	0.00e+00	0	23	0	3665821696	57	4343
2026-01-10 02:16:12.27	185.30	18.09	-46.1	-47.4	15.3	0.00e+00	0	23	0	3688890368	57	4435
2026-01-10 02:16:16.27	185.53	17.62	-46.2	-47.5	15.3	0.00e+00	0	23	0	3710910464	57	4454
2026-01-10 02:16:20.26	185.76	17.16	-46.1	-47.4	15.3	0.00e+00	0	23	0	3733979136	57	4407
2026-01-10 02:16:24.26	185.98	16.71	-46.1	-47.4	15.3	0.00e+00	0	23	0	3755999232	57	4419
2026-01-10 02:16:28.25	186.19	16.27	-46.3	-47.6	15.2	0.00e+00	0	23	0	3779067904	57	4507
2026-01-10 02:16:32.26	186.40	15.84	-46.3	-47.6	15.2	0.00e+00	0	23	0	3801088000	57	4541
2026-01-10 02:16:36.24	186.60	15.41	-46.5	-47.8	15.3	0.00e+00	0	23	0	3823108096	58	4391
2026-01-10 02:16:40.21	186.79	14.99	-46.6	-48.0	15.2	0.00e+00	0	23	0	3846176768	58	4465
2026-01-10 02:16:44.20	186.99	14.58	-46.8	-48.2	15.1	0.00e+00	0	23	0	3868196864	58	4560
2026-01-10 02:16:48.20	187.17	14.17	-46.8	-48.2	15.1	0.00e+00	0	23	0	3891265536	58	4596
2026-01-10 02:16:52.17	187.35	13.78	-46.8	-48.2	15.1	0.00e+00	0	23	0	3913285632	58	4596
2026-01-10 02:16:56.17	187.53	13.38	-46.9	-48.3	15.2	0.00e+00	0	23	0	3935305728	59	4366
2026-01-10 02:17:00.18	187.71	12.99	-47.1	-48.5	15.1	0.00e+00	0	23	0	3958374400	59	4446
2026-01-10 02:17:04.18	187.88	12.61	-47.2	-48.6	15.0	0.00e+00	0	23	0	3980394496	59	4501
2026-01-10 02:17:08.17	188.04	12.23	-47.2	-48.6	15.0	0.00e+00	0	23	0	4003463168	59	4513
2026-01-10 02:17:12.16	188.20	11.86	-47.3	-48.7	14.9	0.00e+00	0	23	0	4025483264	59	4582
2026-01-10 02:17:16.15	188.36	11.50	-47.1	-48.5	15.2	0.00e+00	0	23	0	4048551936	60	4208
2026-01-10 02:17:20.14	188.52	11.14	-47.2	-48.5	15.1	0.00e+00	0	24	0	4070572032	60	4242
2026-01-10 02:17:24.14	188.67	10.78	-47.3	-48.7	15.0	0.00e+00	0	24	0	4092592128	60	4305
2026-01-10 02:17:28.13	188.81	10.43	-47.4	-48.8	15.0	0.00e+00	0	23	0	4115660800	60	4366
2026-01-10 02:17:32.12	188.96	10.09	-47.5	-48.9	14.9	0.00e+00	0	24	0	4137680896	60	4415
2026-01-10 02:17:36.11	189.10	9.75	-47.5	-49.0	14.9	0.00e+00	0	24	0	4160749568	60	4452
2026-01-10 02:17:40.10	189.24	9.41	-47.6	-49.1	14.9	0.00e+00	0	24	0	4182769664	60	4506
2026-01-10 02:17:44.09	189.38	9.08	-47.7	-49.2	14.8	0.00e+00	0	23	0	4204789760	60	4567
2026-01-10 02:17:48.08	189.51	8.75	-47.8	-49.3	14.9	0.00e+00	0	23	0	4227858432	61	4351
2026-01-10 02:17:52.08	189.64	8.43	-48.0	-49.5	14.8	0.00e+00	0	23	0	4249878528	61	4447
2026-01-10 02:17:56.07	189.77	8.11	-47.8	-49.3	14.8	0.00e+00	0	24	0	4272947200	61	4372
2026-01-10 02:18:00.07	189.89	7.80	-47.9	-49.4	14.8	0.00e+00	0	24	0	4294967296	61	4427
2026-01-10 02:18:04.07	190.02	7.48	-48.1	-49.6	14.7	0.00e+00	0	24	0	4318035968	61	4537
2026-01-10 02:18:08.06	190.14	7.18	-48.6	-50.1	14.5	0.00e+00	0	23	0	4340056064	62	4530
2026-01-10 02:18:12.07	190.26	6.87	-48.4	-49.9	14.7	0.00e+00	0	24	0	4363124736	62	4427
2026-01-10 02:18:16.08	190.38	6.57	-48.5	-50.1	14.6	0.00e+00	0	24	0	4385144832	62	4495
2026-01-10 02:18:20.10	190.49	6.27	-48.6	-50.2	14.5	0.00e+00	0	24	0	4408213504	62	4548
2026-01-10 02:18:24.10	190.60	5.97	-48.7	-50.3	14.4	0.00e+00	0	23	0	4430233600	62	4633
2026-01-10 02:18:28.10	190.71	5.68	-48.7	-50.3	14.4	0.00e+00	0	23	0	4453302272	62	4612
2026-01-10 02:18:32.09	190.82	5.39	-49.0	-50.7	14.3	0.00e+00	0	23	0	4475322368	63	4558
2026-01-10 02:18:36.08	190.93	5.11	-48.8	-50.4	14.4	0.00e+00	0	23	0	4497342464	63	4441
2026-01-10 02:18:40.08	191.04	4.83	-58.4	-71.4	3.8	8.46e-01	0	24	104	4507828224	81	17607
2026-01-10 02:18:44.06	191.14	4.55	-58.8	-71.9	3.8	8.44e-01	0	24	104	4507828224	82	17618
2026-01-10 02:18:48.05	191.24	4.27	-59.1	-72.1	3.8	8.46e-01	0	24	104	4507828224	83	17053
2026-01-10 02:18:52.06	191.34	4.00	-59.2	-72.3	3.8	8.46e-01	0	24	104	4507828224	83	17332
2026-01-10 02:18:56.06	191.44	3.73	-59.3	-72.4	3.8	8.46e-01	0	24	104	4507828224	83	17529
2026-01-10 02:19:00.06	191.54	3.46	-59.3	-72.4	3.8	8.45e-01	0	24	104	4507828224	83	17620
2026-01-10 02:19:04.07	191.63	3.19	-59.3	-72.3	3.8	8.46e-01	0	24	104	4507828224	83	17453
2026-01-10 02:19:08.07	191.73	2.93	-59.2	-72.3	3.8	8.46e-01	0	24	104	4507828224	83	17411
2026-01-10 02:19:12.06	191.82	2.67	-59.2	-72.3	3.8	8.45e-01	0	24	104	4507828224	83	17325
2026-01-10 02:19:16.07	191.91	2.41	-59.2	-72.3	3.8	8.44e-01	0	24	104	4507828224	83	17311
2026-01-10 02:19:20.06	192.00	2.16	-59.2	-72.3	3.8	8.46e-01	0	24	104	4507828224	83	17300
2026-01-10 02:19:24.07	192.09	1.90	-59.2	-72.3	3.8	8.45e-01	0	24	104	4507828224	83	17299

#Closed at: 2026-01-10 02:19:24
#Recorded file [4507 MB]: D:/lorett/data/31004_260110_050500.dat