passes_logs/2026/01/10/R3.2S_Murmansk/R3.2S_Murmansk__20260110_060353_SUOMI_NPP_rec.log

#Pass ID: 20260110_060353_SUOMI NPP
#Satellite: SUOMI NPP
#Configuration: NPP
#almurnet v.1.7.20251203
#Start time: 2026-01-10 06:03:55

#Version: 2.2.20231116
#Station: R3.2S_Murmansk
#Location: 33.079688 lon 68.888172 lat
#TLE: 1 37849U 11061A   26008.83076692  .00000095  00000+0  66074-4 0  9997
#TLE: 2 37849  98.7806 310.9327 0002533  74.3004 285.8451 14.19523607735834

#Time	Az	El	Level	Level2	SNR	BER	BlckErr	Temp	State	Recorded	gain1	gain2
2026-01-10 06:03:55.77	75.60	2.11	-57.0	-73.0	3.8	1.49e+00	0	21	0	0	80	22381
2026-01-10 06:03:59.77	75.36	2.34	-57.0	-73.0	3.8	1.49e+00	0	21	104	0	79	23583
2026-01-10 06:04:03.76	75.11	2.57	-57.0	-72.9	3.8	1.49e+00	0	21	104	0	79	23494
2026-01-10 06:04:07.78	74.85	2.80	-57.0	-73.0	3.8	1.49e+00	0	21	104	0	79	23659
2026-01-10 06:04:11.77	74.59	3.04	-57.0	-73.0	3.8	1.49e+00	0	22	104	0	79	23741
2026-01-10 06:04:15.78	74.32	3.28	-57.0	-73.0	3.8	1.49e+00	0	22	104	0	79	23611
2026-01-10 06:04:19.78	74.05	3.51	-57.0	-73.0	3.8	1.49e+00	0	22	104	0	79	23772
2026-01-10 06:04:23.79	73.78	3.75	-57.0	-72.9	3.8	1.49e+00	0	22	104	0	79	23503
2026-01-10 06:04:27.81	73.50	3.99	-57.0	-73.0	3.8	1.49e+00	0	22	104	0	79	23726
2026-01-10 06:04:31.83	73.21	4.24	-57.0	-72.2	3.8	1.49e+00	0	22	104	0	79	21727
2026-01-10 06:04:35.84	72.92	4.48	-56.9	-69.3	4.2	1.41e+00	0	22	0	0	79	15426
2026-01-10 06:04:39.85	72.63	4.73	-56.5	-66.3	5.6	4.47e-01	0	22	0	6291456	79	10912
2026-01-10 06:04:43.87	72.33	4.98	-56.2	-64.3	7.1	1.31e-01	0	22	0	13631488	79	8662
2026-01-10 06:04:47.88	72.02	5.22	-56.9	-70.4	4.0	5.75e-03	0	22	0	20971520	78	18693
2026-01-10 06:04:51.89	71.71	5.47	-54.1	-58.1	12.2	1.06e-05	0	22	0	27262976	74	5669
2026-01-10 06:04:55.90	71.40	5.73	-53.3	-56.7	13.3	0.00e+00	0	22	0	34603008	73	5119
2026-01-10 06:04:59.92	71.07	5.98	-53.4	-56.8	13.1	7.00e-07	0	23	0	41943040	73	5212
2026-01-10 06:05:03.93	70.75	6.24	-53.0	-56.1	13.5	0.00e+00	0	22	0	49283072	72	5083
2026-01-10 06:05:07.91	70.42	6.49	-53.0	-56.1	13.5	0.00e+00	0	23	0	56623104	72	5081
2026-01-10 06:05:11.92	70.08	6.75	-53.2	-56.4	13.4	0.00e+00	0	23	0	63963136	72	5228
2026-01-10 06:05:15.91	69.73	7.01	-53.1	-56.2	13.5	0.00e+00	0	22	0	72351744	72	5157
2026-01-10 06:05:19.91	69.38	7.27	-53.2	-56.4	13.3	0.00e+00	0	23	0	79691776	72	5270
2026-01-10 06:05:23.91	69.02	7.53	-53.4	-56.8	13.1	0.00e+00	0	23	0	87031808	72	5475
2026-01-10 06:05:27.92	68.65	7.79	-53.4	-56.7	13.2	0.00e+00	0	23	0	94371840	72	5457
2026-01-10 06:05:31.91	68.28	8.06	-53.0	-56.1	13.6	0.00e+00	0	23	0	101711872	72	5075
2026-01-10 06:05:35.91	67.90	8.33	-53.1	-56.4	13.5	0.00e+00	0	23	0	109051904	72	5243
2026-01-10 06:05:39.92	67.52	8.60	-52.8	-55.9	13.8	0.00e+00	0	23	0	116391936	72	4947
2026-01-10 06:05:43.92	67.12	8.87	-52.8	-55.8	13.8	0.00e+00	0	23	0	124780544	71	5160
2026-01-10 06:05:47.93	66.72	9.14	-52.5	-55.3	14.1	0.00e+00	0	23	0	132120576	71	4905
2026-01-10 06:05:51.92	66.31	9.41	-52.6	-55.5	14.0	0.00e+00	0	23	0	139460608	71	5021
2026-01-10 06:05:55.92	65.89	9.69	-52.6	-55.3	14.1	0.00e+00	0	23	0	146800640	71	4902
2026-01-10 06:05:59.93	65.47	9.96	-52.7	-55.5	14.0	0.00e+00	0	23	0	154140672	71	4996
2026-01-10 06:06:03.92	65.03	10.24	-52.7	-55.5	14.0	0.00e+00	0	23	0	161480704	71	5024
2026-01-10 06:06:07.91	64.59	10.52	-52.8	-55.7	13.9	0.00e+00	0	23	0	169869312	71	5129
2026-01-10 06:06:11.92	64.14	10.80	-52.8	-55.7	13.9	0.00e+00	0	23	0	177209344	71	5102
2026-01-10 06:06:15.91	63.68	11.09	-52.8	-55.6	13.9	0.00e+00	0	23	0	184549376	71	5071
2026-01-10 06:06:19.90	63.21	11.37	-52.8	-55.7	13.8	0.00e+00	0	23	0	191889408	71	5116
2026-01-10 06:06:23.90	62.73	11.65	-52.7	-55.5	14.0	0.00e+00	0	23	0	199229440	71	4995
2026-01-10 06:06:27.90	62.24	11.94	-52.5	-55.1	14.3	0.00e+00	0	23	0	206569472	71	4778
2026-01-10 06:06:31.92	61.74	12.23	-52.2	-54.7	14.4	0.00e+00	0	23	0	213909504	70	4831
2026-01-10 06:06:35.91	61.23	12.52	-52.0	-54.4	14.5	0.00e+00	0	23	0	222298112	70	4699
2026-01-10 06:06:39.92	60.71	12.81	-51.9	-54.3	14.6	0.00e+00	0	23	0	229638144	70	4640
2026-01-10 06:06:43.92	60.18	13.10	-52.0	-54.4	14.6	0.00e+00	0	23	0	236978176	70	4665
2026-01-10 06:06:47.91	59.65	13.39	-51.8	-54.2	14.7	0.00e+00	0	23	0	244318208	70	4571
2026-01-10 06:06:51.91	59.09	13.69	-51.8	-54.1	14.8	0.00e+00	0	23	0	251658240	70	4503
2026-01-10 06:06:55.91	58.53	13.98	-51.7	-54.0	14.6	0.00e+00	0	23	0	258998272	69	4741
2026-01-10 06:06:59.90	57.96	14.27	-51.7	-54.1	14.6	0.00e+00	0	23	0	266338304	69	4777
2026-01-10 06:07:03.90	57.37	14.57	-51.6	-54.0	14.6	0.00e+00	0	23	0	274726912	69	4757
2026-01-10 06:07:07.89	56.78	14.86	-51.9	-54.6	14.3	0.00e+00	0	23	0	282066944	69	5043
2026-01-10 06:07:11.88	56.17	15.16	-52.4	-55.3	14.0	0.00e+00	0	23	0	289406976	70	5192
2026-01-10 06:07:15.87	55.55	15.46	-52.1	-54.7	14.4	0.00e+00	0	23	0	296747008	70	4823
2026-01-10 06:07:19.87	54.91	15.75	-52.1	-54.8	14.3	0.00e+00	0	23	0	304087040	70	4901
2026-01-10 06:07:23.86	54.26	16.05	-52.3	-55.0	14.2	0.00e+00	0	23	0	311427072	70	5009
2026-01-10 06:07:27.84	53.61	16.34	-52.4	-55.3	14.1	0.00e+00	0	23	0	318767104	70	5162
2026-01-10 06:07:31.83	52.93	16.64	-52.2	-54.8	14.3	0.00e+00	0	23	0	327155712	70	4902
2026-01-10 06:07:35.82	52.25	16.93	-52.0	-54.6	14.5	0.00e+00	0	23	0	334495744	70	4775
2026-01-10 06:07:39.82	51.54	17.23	-52.2	-54.9	14.3	0.00e+00	0	23	0	341835776	70	4929
2026-01-10 06:07:43.84	50.83	17.52	-52.0	-54.6	14.5	0.00e+00	0	23	0	349175808	70	4761
2026-01-10 06:07:47.85	50.09	17.81	-52.1	-54.7	14.4	0.00e+00	0	23	0	356515840	70	4842
2026-01-10 06:07:51.84	49.35	18.10	-52.3	-55.0	14.2	0.00e+00	0	23	0	363855872	70	5026
2026-01-10 06:07:55.84	48.59	18.39	-52.0	-54.4	14.5	0.00e+00	0	23	0	371195904	70	4657
2026-01-10 06:07:59.86	47.81	18.68	-51.8	-54.1	14.5	0.00e+00	0	23	0	379584512	69	4797
2026-01-10 06:08:03.85	47.03	18.97	-51.7	-54.0	14.6	0.00e+00	0	23	0	386924544	69	4753
2026-01-10 06:08:07.85	46.22	19.25	-51.3	-53.7	14.8	0.00e+00	0	23	0	394264576	69	4553
2026-01-10 06:08:11.85	45.40	19.53	-51.0	-53.2	14.9	0.00e+00	0	23	0	401604608	68	4554
2026-01-10 06:08:15.86	44.57	19.80	-50.3	-52.3	15.2	0.00e+00	0	23	0	408944640	67	4363
2026-01-10 06:08:19.87	43.72	20.08	-50.5	-52.5	15.0	0.00e+00	0	23	0	416284672	67	4492
2026-01-10 06:08:23.86	42.85	20.34	-50.4	-52.4	15.1	0.00e+00	0	23	0	424673280	67	4441
2026-01-10 06:08:27.87	41.97	20.61	-50.5	-52.5	15.1	0.00e+00	0	23	0	432013312	67	4469
2026-01-10 06:08:31.88	41.07	20.87	-50.5	-52.5	15.1	0.00e+00	0	23	0	439353344	67	4465
2026-01-10 06:08:35.89	40.16	21.13	-50.2	-52.1	15.1	0.00e+00	0	23	0	446693376	66	4525
2026-01-10 06:08:39.91	39.23	21.38	-50.0	-51.8	15.3	0.00e+00	0	23	0	454033408	66	4351
2026-01-10 06:08:43.92	38.29	21.62	-50.0	-51.8	15.3	0.00e+00	0	23	0	462422016	66	4367
2026-01-10 06:08:47.93	37.33	21.86	-50.1	-51.9	15.2	0.00e+00	0	23	0	469762048	66	4421
2026-01-10 06:08:51.95	36.35	22.09	-49.9	-51.7	15.3	0.00e+00	0	23	0	477102080	66	4324
2026-01-10 06:08:55.96	35.37	22.32	-50.2	-52.0	15.1	0.00e+00	0	23	0	484442112	66	4476
2026-01-10 06:08:59.97	34.36	22.54	-50.0	-51.8	15.1	0.00e+00	0	23	0	491782144	65	4606
2026-01-10 06:09:03.99	33.35	22.75	-49.8	-51.5	15.2	0.00e+00	0	23	0	499122176	65	4479
2026-01-10 06:09:08.01	32.31	22.95	-49.9	-51.6	15.2	0.00e+00	0	23	0	507510784	65	4542
2026-01-10 06:09:12.02	31.27	23.14	-50.1	-51.9	15.0	0.00e+00	0	23	0	514850816	65	4681
2026-01-10 06:09:16.02	30.22	23.32	-49.9	-51.6	15.2	0.00e+00	0	23	0	522190848	65	4536
2026-01-10 06:09:20.01	29.16	23.50	-49.6	-51.2	15.4	0.00e+00	0	23	0	529530880	65	4335
2026-01-10 06:09:24.01	28.08	23.66	-49.8	-51.5	15.2	0.00e+00	0	23	0	536870912	65	4478
2026-01-10 06:09:28.02	26.99	23.82	-50.3	-52.1	15.0	0.00e+00	0	23	0	544210944	65	4766
2026-01-10 06:09:32.02	25.89	23.96	-52.2	-54.5	14.4	0.00e+00	0	23	0	552599552	69	5035
2026-01-10 06:09:36.04	24.78	24.10	-51.5	-53.6	14.9	0.00e+00	0	23	0	559939584	69	4507
2026-01-10 06:09:40.05	23.66	24.22	-51.2	-53.2	15.1	0.00e+00	0	23	0	567279616	69	4330
2026-01-10 06:09:44.06	22.53	24.33	-51.4	-53.5	14.7	0.00e+00	0	23	0	574619648	68	4723
2026-01-10 06:09:48.05	21.40	24.43	-51.6	-53.9	14.5	0.00e+00	0	23	0	581959680	68	4954
2026-01-10 06:09:52.06	20.26	24.51	-51.8	-54.1	14.6	0.00e+00	0	23	0	589299712	69	4799
2026-01-10 06:09:56.08	19.11	24.59	-52.1	-54.6	14.3	0.00e+00	0	23	0	597688320	69	5096
2026-01-10 06:10:00.09	17.95	24.65	-51.6	-53.8	14.8	0.00e+00	0	23	0	605028352	69	4601
2026-01-10 06:10:04.11	16.79	24.70	-52.3	-54.9	14.1	0.00e+00	0	23	0	612368384	69	5222
2026-01-10 06:10:08.13	15.63	24.74	-52.0	-54.4	14.4	0.00e+00	0	23	0	619708416	69	4933
2026-01-10 06:10:12.15	14.46	24.76	-51.0	-53.1	15.0	0.00e+00	0	23	0	627048448	68	4501
2026-01-10 06:10:16.15	13.30	24.77	-51.5	-53.8	14.6	0.00e+00	0	23	0	634388480	68	4903
2026-01-10 06:10:20.16	12.14	24.77	-51.7	-54.1	14.5	0.00e+00	0	23	0	642777088	69	4805
2026-01-10 06:10:24.16	10.97	24.76	-51.5	-53.7	14.8	0.00e+00	0	23	0	650117120	69	4586
2026-01-10 06:10:28.18	9.81	24.73	-50.4	-52.3	15.2	0.00e+00	0	23	0	657457152	67	4356
2026-01-10 06:10:32.18	8.65	24.69	-50.5	-52.4	15.1	0.00e+00	0	23	0	664797184	67	4413
2026-01-10 06:10:36.20	7.49	24.64	-50.7	-52.7	15.0	0.00e+00	0	23	0	672137216	67	4570
2026-01-10 06:10:40.21	6.34	24.57	-50.5	-52.2	15.1	0.00e+00	0	23	0	679477248	66	4585
2026-01-10 06:10:44.21	5.20	24.50	-50.1	-51.7	15.3	0.00e+00	0	23	0	687865856	66	4333
2026-01-10 06:10:48.22	4.06	24.41	-50.0	-51.7	15.1	0.00e+00	0	23	0	695205888	65	4581
2026-01-10 06:10:52.23	2.92	24.30	-50.0	-51.7	15.1	0.00e+00	0	23	0	702545920	65	4562
2026-01-10 06:10:56.25	1.79	24.19	-50.0	-51.7	15.1	0.00e+00	0	23	0	709885952	65	4571
2026-01-10 06:11:00.26	0.68	24.06	-50.2	-51.8	15.1	0.00e+00	0	23	0	717225984	65	4644
2026-01-10 06:11:04.26	359.57	23.93	-50.9	-52.7	15.0	0.00e+00	0	23	0	724566016	67	4573
2026-01-10 06:11:08.26	358.48	23.78	-50.2	-51.9	15.2	0.00e+00	0	23	0	732954624	66	4403
2026-01-10 06:11:12.27	357.39	23.63	-51.0	-53.0	14.8	0.00e+00	0	23	0	740294656	67	4721
2026-01-10 06:11:16.29	356.31	23.46	-51.1	-53.1	14.8	0.00e+00	0	23	0	747634688	67	4760
2026-01-10 06:11:20.28	355.25	23.28	-51.6	-53.8	14.6	0.00e+00	0	23	0	754974720	68	4915
2026-01-10 06:11:24.28	354.20	23.10	-51.5	-53.7	14.7	0.00e+00	0	23	0	762314752	68	4818
2026-01-10 06:11:28.28	353.17	22.90	-51.6	-53.9	14.6	0.00e+00	0	23	0	769654784	68	4932
2026-01-10 06:11:32.28	352.14	22.70	-51.8	-54.1	14.6	0.00e+00	0	23	0	778043392	69	4777
2026-01-10 06:11:36.28	351.13	22.49	-51.5	-53.7	14.8	0.00e+00	0	23	0	785383424	69	4546
2026-01-10 06:11:40.28	350.14	22.27	-51.8	-54.1	14.6	0.00e+00	0	23	0	792723456	69	4780
2026-01-10 06:11:44.30	349.15	22.04	-52.3	-55.0	14.2	0.00e+00	0	23	0	800063488	70	4991
2026-01-10 06:11:48.31	348.18	21.81	-51.4	-53.6	14.9	0.00e+00	0	23	0	807403520	69	4506
2026-01-10 06:11:52.31	347.23	21.57	-52.5	-55.3	14.0	0.00e+00	0	23	0	814743552	70	5192
2026-01-10 06:11:56.32	346.29	21.32	-52.2	-54.8	14.5	0.00e+00	0	23	0	823132160	71	4628
2026-01-10 06:12:00.32	345.37	21.07	-51.5	-53.8	14.8	0.00e+00	0	23	0	830472192	69	4601
2026-01-10 06:12:04.33	344.46	20.82	-51.5	-53.8	14.8	0.00e+00	0	23	0	837812224	69	4602
2026-01-10 06:12:08.34	343.57	20.56	-50.8	-52.8	15.1	0.00e+00	0	23	0	845152256	68	4363
2026-01-10 06:12:12.35	342.69	20.29	-49.7	-51.4	15.2	0.00e+00	0	23	0	852492288	65	4425
2026-01-10 06:12:16.35	341.83	20.02	-50.4	-52.4	14.8	0.00e+00	0	23	0	859832320	65	4941
2026-01-10 06:12:20.35	340.99	19.75	-51.3	-53.6	14.4	0.00e+00	0	23	0	867172352	67	5097
2026-01-10 06:12:24.34	340.16	19.47	-51.4	-53.7	14.6	0.00e+00	0	23	0	875560960	68	4846
2026-01-10 06:12:28.34	339.34	19.19	-51.0	-53.2	14.9	0.00e+00	0	23	0	882900992	68	4558
2026-01-10 06:12:32.36	338.54	18.91	-50.1	-51.9	15.2	0.00e+00	0	23	0	890241024	66	4438
2026-01-10 06:12:36.34	337.76	18.63	-50.5	-52.6	14.9	0.00e+00	0	23	0	897581056	66	4775
2026-01-10 06:12:40.34	336.99	18.34	-50.4	-52.4	14.9	0.00e+00	0	23	0	904921088	66	4668
2026-01-10 06:12:44.34	336.23	18.05	-50.9	-53.1	14.6	0.00e+00	0	23	0	912261120	67	4782
2026-01-10 06:12:48.36	335.49	17.76	-50.9	-53.0	14.8	0.00e+00	0	23	0	920649728	67	4709
2026-01-10 06:12:52.36	334.76	17.46	-50.6	-52.5	15.0	0.00e+00	0	23	0	927989760	67	4483
2026-01-10 06:12:56.37	334.05	17.17	-50.3	-52.1	15.2	0.00e+00	0	23	0	935329792	67	4275
2026-01-10 06:13:00.39	333.35	16.88	-50.8	-52.7	14.9	0.00e+00	0	23	0	942669824	67	4587
2026-01-10 06:13:04.41	332.66	16.58	-50.3	-52.0	15.3	0.00e+00	0	23	0	950009856	67	4238
2026-01-10 06:13:08.42	331.99	16.28	-50.1	-51.9	15.2	0.00e+00	0	23	0	957349888	66	4411
2026-01-10 06:13:12.43	331.33	15.99	-50.4	-52.2	15.0	0.00e+00	0	23	0	965738496	66	4580
2026-01-10 06:13:16.43	330.69	15.69	-50.6	-52.4	14.9	0.00e+00	0	23	0	973078528	66	4694
2026-01-10 06:13:20.43	330.05	15.39	-49.8	-51.5	15.4	0.00e+00	0	23	0	980418560	66	4197
2026-01-10 06:13:24.42	329.44	15.10	-50.3	-52.1	15.1	0.00e+00	0	23	0	987758592	66	4504
2026-01-10 06:13:28.42	328.83	14.80	-51.2	-53.2	14.6	0.00e+00	0	23	0	995098624	67	4857
2026-01-10 06:13:32.42	328.24	14.51	-51.0	-52.9	14.8	0.00e+00	0	23	0	1002438656	67	4701
2026-01-10 06:13:36.41	327.66	14.21	-50.3	-52.1	15.2	0.00e+00	0	23	0	1010827264	67	4266
2026-01-10 06:13:40.42	327.08	13.92	-50.2	-52.0	15.2	0.00e+00	0	23	0	1018167296	66	4444
2026-01-10 06:13:44.39	326.53	13.63	-51.1	-53.1	14.7	0.00e+00	0	23	0	1025507328	67	4772
2026-01-10 06:13:48.39	325.98	13.33	-51.8	-54.0	14.6	0.00e+00	0	23	0	1032847360	69	4758
2026-01-10 06:13:52.39	325.44	13.04	-51.0	-53.0	15.0	0.00e+00	0	23	0	1040187392	68	4444
2026-01-10 06:13:56.39	324.92	12.75	-51.0	-53.0	15.0	0.00e+00	0	23	0	1047527424	68	4447
2026-01-10 06:14:00.39	324.40	12.46	-50.9	-52.8	15.1	0.00e+00	0	23	0	1054867456	68	4380
2026-01-10 06:14:04.38	323.90	12.17	-51.0	-52.9	15.0	0.00e+00	0	23	0	1063256064	68	4410
2026-01-10 06:14:08.38	323.40	11.89	-51.3	-53.3	14.8	0.00e+00	0	23	0	1070596096	68	4628
2026-01-10 06:14:12.38	322.92	11.60	-51.7	-53.9	14.4	0.00e+00	0	23	0	1077936128	68	4978
2026-01-10 06:14:16.38	322.44	11.32	-51.7	-53.9	14.5	0.00e+00	0	23	0	1085276160	68	4942
2026-01-10 06:14:20.39	321.97	11.03	-52.2	-54.6	14.2	0.00e+00	0	23	0	1092616192	69	5089
2026-01-10 06:14:24.36	321.52	10.75	-52.3	-54.8	14.2	0.00e+00	0	23	0	1099956224	70	4897
2026-01-10 06:14:28.35	321.07	10.47	-51.8	-54.0	14.7	0.00e+00	0	23	0	1107296256	70	4485
2026-01-10 06:14:32.34	320.63	10.19	-51.3	-53.4	14.9	0.00e+00	0	23	0	1114636288	69	4394
2026-01-10 06:14:36.31	320.21	9.92	-51.7	-53.9	14.6	0.00e+00	0	23	0	1123024896	69	4687
2026-01-10 06:14:40.31	319.78	9.64	-52.5	-55.0	14.1	0.00e+00	0	23	0	1130364928	70	5003
2026-01-10 06:14:44.31	319.37	9.37	-52.3	-54.8	14.2	0.00e+00	0	23	0	1137704960	70	4873
2026-01-10 06:14:48.30	318.96	9.10	-52.0	-54.2	14.6	0.00e+00	0	23	0	1145044992	70	4586
2026-01-10 06:14:52.29	318.56	8.82	-52.0	-54.3	14.5	0.00e+00	0	23	0	1152385024	70	4649
2026-01-10 06:14:56.28	318.17	8.56	-52.4	-54.9	14.1	0.00e+00	0	23	0	1159725056	70	4979
2026-01-10 06:15:00.27	317.79	8.29	-52.8	-55.5	13.7	0.00e+00	0	23	0	1167065088	70	5330
2026-01-10 06:15:04.25	317.41	8.02	-53.2	-56.2	13.4	0.00e+00	0	23	0	1175453696	71	5424
2026-01-10 06:15:08.27	317.04	7.76	-53.5	-56.6	13.2	0.00e+00	0	23	0	1182793728	72	5383
2026-01-10 06:15:12.25	316.68	7.49	-53.4	-56.5	13.3	0.00e+00	0	23	0	1190133760	72	5285
2026-01-10 06:15:16.24	316.33	7.23	-53.2	-56.2	13.5	0.00e+00	0	23	0	1197473792	72	5147
2026-01-10 06:15:20.22	315.98	6.97	-53.3	-56.4	13.4	0.00e+00	0	23	0	1204813824	72	5263
2026-01-10 06:15:24.21	315.64	6.72	-53.5	-56.6	13.2	0.00e+00	0	23	0	1212153856	72	5380
2026-01-10 06:15:28.20	315.30	6.46	-53.8	-57.3	12.8	0.00e+00	0	23	0	1219493888	73	5468
2026-01-10 06:15:32.19	314.97	6.20	-54.0	-57.7	12.5	0.00e+00	0	23	0	1226833920	73	5725
2026-01-10 06:15:36.17	314.65	5.95	-53.6	-56.8	13.1	0.00e+00	0	23	0	1235222528	73	5212
2026-01-10 06:15:40.15	314.33	5.70	-53.0	-55.9	13.6	0.00e+00	0	23	0	1242562560	72	4942
2026-01-10 06:15:44.14	314.02	5.45	-52.8	-55.5	13.8	0.00e+00	0	23	0	1249902592	71	4999
2026-01-10 06:15:48.14	313.71	5.20	-52.6	-55.3	13.9	0.00e+00	0	23	0	1257242624	71	4888
2026-01-10 06:15:52.15	313.40	4.95	-57.6	-71.7	3.8	4.87e-01	0	23	104	1264582656	80	19238
2026-01-10 06:15:56.16	313.11	4.71	-58.7	-74.7	3.8	1.49e+00	0	23	104	1264582656	82	24312
2026-01-10 06:16:00.18	312.81	4.46	-59.2	-75.2	3.8	1.49e+00	0	24	104	1264582656	83	24270
2026-01-10 06:16:04.20	312.53	4.22	-59.4	-75.4	3.8	1.49e+00	0	24	104	1264582656	83	24964
2026-01-10 06:16:08.21	312.24	3.97	-59.7	-75.7	3.8	1.49e+00	0	23	104	1264582656	84	24410
2026-01-10 06:16:12.21	311.97	3.73	-59.7	-75.8	3.8	1.49e+00	0	23	104	1264582656	84	24437
2026-01-10 06:16:16.21	311.69	3.50	-59.6	-75.7	3.8	1.49e+00	0	23	104	1264582656	84	24245
2026-01-10 06:16:20.20	311.43	3.26	-59.6	-75.6	3.8	1.49e+00	0	23	104	1264582656	84	24054
2026-01-10 06:16:24.20	311.16	3.02	-59.6	-75.6	3.8	1.49e+00	0	24	104	1264582656	84	24017
2026-01-10 06:16:28.20	310.90	2.79	-59.5	-75.6	3.8	1.49e+00	0	23	104	1264582656	84	23923
2026-01-10 06:16:32.17	310.65	2.56	-59.5	-75.6	3.8	1.49e+00	0	23	104	1264582656	84	23928
2026-01-10 06:16:36.16	310.40	2.33	-59.5	-75.6	3.8	1.49e+00	0	24	104	1264582656	84	23858
2026-01-10 06:16:40.17	310.15	2.10	-59.5	-75.5	3.8	1.49e+00	0	24	104	1264582656	84	23782

#Closed at: 2026-01-10 06:16:42
#Recorded file [1264 MB]: D:/lorett/data/31004_260110_090355.dat