passes_logs/2026/01/10/R3.2S_Murmansk/R3.2S_Murmansk__20260110_052518_FENGYUN_3D_rec.log

#Pass ID: 20260110_052518_FENGYUN 3D
#Satellite: FENGYUN 3D
#Configuration: FENGYUN 3D
#almurnet v.1.7.20251203
#Start time: 2026-01-10 05:25:19

#Version: 2.2.20231116
#Station: R3.2S_Murmansk
#Location: 33.079688 lon 68.888172 lat
#TLE: 1 43010U 17072A   26009.29492227  .00000158  00000+0  96483-4 0  9996
#TLE: 2 43010  98.9936 341.0229 0002153 117.3665 242.7729 14.19694440422446

#Time	Az	El	Level	Level2	SNR	BER	BlckErr	Temp	State	Recorded	gain1	gain2
2026-01-10 05:25:19.01	41.35	2.03	-57.1	-70.0	3.8	8.47e-01	0	21	0	0	80	15856
2026-01-10 05:25:23.01	41.14	2.27	-57.0	-70.0	3.8	8.46e-01	0	21	104	0	79	16806
2026-01-10 05:25:27.01	40.93	2.51	-57.0	-70.0	3.8	8.46e-01	0	21	104	0	79	16812
2026-01-10 05:25:31.02	40.72	2.75	-57.0	-69.9	3.8	8.45e-01	0	22	104	0	79	16667
2026-01-10 05:25:35.03	40.50	2.99	-57.0	-69.8	3.8	8.45e-01	0	22	104	0	79	16459
2026-01-10 05:25:39.03	40.28	3.24	-57.0	-70.0	3.8	8.46e-01	0	22	104	0	79	16710
2026-01-10 05:25:43.03	40.06	3.49	-57.0	-70.0	3.8	8.45e-01	0	22	104	0	79	16745
2026-01-10 05:25:47.05	39.83	3.74	-57.0	-70.0	3.8	8.46e-01	0	22	104	0	79	16793
2026-01-10 05:25:51.05	39.60	3.99	-57.0	-69.2	3.8	8.45e-01	0	22	104	0	79	15230
2026-01-10 05:25:55.06	39.36	4.24	-56.7	-66.6	4.2	8.39e-01	0	22	0	0	79	11301
2026-01-10 05:25:59.07	39.12	4.49	-56.1	-62.7	6.0	3.67e-01	0	22	0	4194304	78	7680
2026-01-10 05:26:03.08	38.87	4.75	-54.8	-59.0	9.1	1.58e-02	0	22	0	27262976	76	5634
2026-01-10 05:26:07.08	38.62	5.01	-54.4	-58.3	9.7	4.03e-03	0	23	0	49283072	75	5488
2026-01-10 05:26:11.08	38.37	5.27	-50.4	-52.1	14.0	0.00e+00	0	22	0	71303168	67	4282
2026-01-10 05:26:15.08	38.11	5.53	-49.3	-50.8	14.6	0.00e+00	0	22	0	92274688	65	4129
2026-01-10 05:26:19.08	37.84	5.79	-49.0	-50.6	14.6	0.00e+00	0	22	0	114294784	64	4245
2026-01-10 05:26:23.07	37.57	6.06	-48.9	-50.4	14.7	0.00e+00	0	23	0	136314880	64	4167
2026-01-10 05:26:27.06	37.30	6.33	-48.6	-50.0	14.8	0.00e+00	0	23	0	159383552	63	4233
2026-01-10 05:26:31.06	37.02	6.60	-48.5	-50.0	14.8	0.00e+00	0	22	0	181403648	63	4197
2026-01-10 05:26:35.06	36.73	6.87	-48.5	-49.9	14.9	0.00e+00	0	23	0	204472320	63	4155
2026-01-10 05:26:39.05	36.44	7.14	-48.3	-49.7	15.1	0.00e+00	0	23	0	226492416	63	4064
2026-01-10 05:26:43.06	36.14	7.42	-48.5	-49.8	14.9	0.00e+00	0	23	0	248512512	63	4145
2026-01-10 05:26:47.06	35.84	7.70	-48.3	-49.6	15.1	0.00e+00	0	23	0	271581184	63	4047
2026-01-10 05:26:51.07	35.53	7.98	-48.4	-49.7	15.0	0.00e+00	0	23	0	294649856	63	4083
2026-01-10 05:26:55.07	35.21	8.26	-48.2	-49.5	15.1	0.00e+00	0	23	0	316669952	63	4003
2026-01-10 05:26:59.07	34.89	8.55	-48.1	-49.4	15.1	0.00e+00	0	23	0	339738624	62	4164
2026-01-10 05:27:03.07	34.56	8.84	-48.1	-49.4	15.1	0.00e+00	0	23	0	361758720	62	4159
2026-01-10 05:27:07.06	34.22	9.13	-48.0	-49.4	15.1	0.00e+00	0	23	0	383778816	62	4147
2026-01-10 05:27:11.06	33.88	9.42	-48.0	-49.4	15.1	0.00e+00	0	23	0	406847488	62	4158
2026-01-10 05:27:15.05	33.53	9.72	-48.0	-49.3	15.1	0.00e+00	0	23	0	428867584	62	4122
2026-01-10 05:27:19.03	33.17	10.01	-48.0	-49.3	15.1	0.00e+00	0	23	0	451936256	62	4123
2026-01-10 05:27:23.03	32.80	10.31	-47.9	-49.2	15.2	0.00e+00	0	23	0	473956352	62	4074
2026-01-10 05:27:27.03	32.43	10.62	-47.5	-48.8	15.2	0.00e+00	0	23	0	497025024	61	4125
2026-01-10 05:27:31.03	32.05	10.92	-47.6	-48.9	15.2	0.00e+00	0	23	0	519045120	61	4149
2026-01-10 05:27:35.05	31.66	11.23	-47.4	-48.7	15.3	0.00e+00	0	23	0	541065216	61	4075
2026-01-10 05:27:39.06	31.26	11.54	-47.4	-48.7	15.3	0.00e+00	0	23	0	564133888	61	4066
2026-01-10 05:27:43.05	30.85	11.86	-47.3	-48.6	15.4	0.00e+00	0	23	0	586153984	61	4023
2026-01-10 05:27:47.05	30.43	12.17	-47.2	-48.4	15.5	0.00e+00	0	23	0	609222656	61	3941
2026-01-10 05:27:51.05	30.00	12.49	-47.1	-48.3	15.4	0.00e+00	0	23	0	631242752	60	4106
2026-01-10 05:27:55.05	29.57	12.81	-47.1	-48.4	15.3	0.00e+00	0	23	0	654311424	60	4148
2026-01-10 05:27:59.04	29.12	13.13	-46.9	-48.1	15.4	0.00e+00	0	23	0	676331520	60	4029
2026-01-10 05:28:03.04	28.67	13.46	-46.8	-48.0	15.5	0.00e+00	0	23	0	699400192	60	4000
2026-01-10 05:28:07.05	28.20	13.79	-46.9	-48.1	15.5	0.00e+00	0	23	0	721420288	60	4020
2026-01-10 05:28:11.02	27.72	14.12	-47.0	-48.2	15.4	0.00e+00	0	23	0	744488960	60	4063
2026-01-10 05:28:15.02	27.24	14.45	-46.8	-47.9	15.5	0.00e+00	0	23	0	766509056	60	3950
2026-01-10 05:28:19.01	26.74	14.78	-46.9	-48.2	15.3	0.00e+00	0	23	0	788529152	59	4301
2026-01-10 05:28:23.01	26.22	15.12	-46.7	-47.9	15.5	0.00e+00	0	23	0	811597824	59	4181
2026-01-10 05:28:27.01	25.70	15.46	-46.7	-47.9	15.4	0.00e+00	0	23	0	833617920	59	4192
2026-01-10 05:28:30.99	25.17	15.80	-46.7	-47.9	15.5	0.00e+00	0	23	0	856686592	59	4167
2026-01-10 05:28:34.99	24.62	16.15	-46.7	-47.9	15.5	0.00e+00	0	23	0	878706688	59	4166
2026-01-10 05:28:38.99	24.05	16.49	-46.5	-47.6	15.6	0.00e+00	0	23	0	900726784	59	4040
2026-01-10 05:28:42.99	23.48	16.84	-46.2	-47.4	15.7	0.00e+00	0	23	0	923795456	59	3935
2026-01-10 05:28:46.99	22.89	17.19	-46.1	-47.2	15.6	0.00e+00	0	23	0	945815552	58	4095
2026-01-10 05:28:50.99	22.29	17.55	-46.1	-47.3	15.6	0.00e+00	0	23	0	968884224	58	4116
2026-01-10 05:28:54.99	21.67	17.90	-46.1	-47.2	15.6	0.00e+00	0	23	0	990904320	58	4085
2026-01-10 05:28:58.98	21.03	18.25	-46.0	-47.1	15.6	0.00e+00	0	23	0	1013972992	58	4049
2026-01-10 05:29:02.97	20.39	18.61	-45.9	-47.0	15.7	0.00e+00	0	23	0	1035993088	58	3973
2026-01-10 05:29:06.98	19.72	18.97	-45.8	-47.0	15.7	0.00e+00	0	23	0	1059061760	58	3967
2026-01-10 05:29:10.97	19.04	19.33	-45.6	-46.7	15.7	0.00e+00	0	23	0	1081081856	57	4056
2026-01-10 05:29:14.96	18.35	19.69	-45.7	-46.8	15.6	0.00e+00	0	23	0	1104150528	57	4136
2026-01-10 05:29:18.96	17.63	20.05	-46.1	-47.3	15.5	0.00e+00	0	23	0	1126170624	57	4353
2026-01-10 05:29:22.93	16.91	20.41	-45.7	-46.8	15.6	0.00e+00	0	23	0	1148190720	57	4125
2026-01-10 05:29:26.92	16.16	20.77	-45.6	-46.7	15.7	0.00e+00	0	23	0	1171259392	57	4067
2026-01-10 05:29:30.92	15.39	21.13	-45.6	-46.8	15.7	0.00e+00	0	23	0	1193279488	57	4107
2026-01-10 05:29:34.92	14.61	21.49	-45.5	-46.6	15.7	0.00e+00	0	23	0	1216348160	57	4042
2026-01-10 05:29:38.93	13.80	21.85	-45.5	-46.6	15.7	0.00e+00	0	23	0	1238368256	57	4012
2026-01-10 05:29:42.92	12.98	22.21	-45.3	-46.4	15.8	0.00e+00	0	23	0	1261436928	57	3929
2026-01-10 05:29:46.92	12.14	22.57	-45.1	-46.2	15.7	0.00e+00	0	23	0	1283457024	56	4056
2026-01-10 05:29:50.92	11.27	22.92	-45.2	-46.3	15.7	0.00e+00	0	23	0	1305477120	56	4116
2026-01-10 05:29:54.92	10.39	23.28	-45.0	-46.1	15.8	0.00e+00	0	23	0	1328545792	56	4024
2026-01-10 05:29:58.92	9.49	23.63	-44.7	-45.8	15.9	0.00e+00	0	23	0	1350565888	56	3892
2026-01-10 05:30:02.92	8.57	23.97	-44.9	-45.9	15.8	0.00e+00	0	23	0	1373634560	56	3947
2026-01-10 05:30:06.92	7.62	24.32	-44.4	-45.4	15.8	0.00e+00	0	23	0	1395654656	55	3953
2026-01-10 05:30:10.92	6.66	24.66	-44.5	-45.5	15.8	0.00e+00	0	23	0	1418723328	55	3995
2026-01-10 05:30:14.91	5.67	24.99	-44.8	-45.9	15.7	0.00e+00	0	23	0	1440743424	55	4174
2026-01-10 05:30:18.91	4.66	25.32	-44.7	-45.8	15.7	0.00e+00	0	23	0	1463812096	55	4116
2026-01-10 05:30:22.91	3.63	25.64	-44.5	-45.6	15.8	0.00e+00	0	23	0	1485832192	55	4009
2026-01-10 05:30:26.89	2.59	25.96	-44.5	-45.6	15.8	0.00e+00	0	23	0	1507852288	55	4035
2026-01-10 05:30:30.88	1.52	26.27	-44.4	-45.5	15.8	0.00e+00	0	23	0	1530920960	55	3969
2026-01-10 05:30:34.88	0.43	26.57	-44.2	-45.2	15.8	0.00e+00	0	23	0	1552941056	54	4081
2026-01-10 05:30:38.88	359.31	26.86	-44.3	-45.3	15.8	0.00e+00	0	23	0	1576009728	54	4144
2026-01-10 05:30:42.89	358.18	27.14	-44.5	-45.5	15.7	0.00e+00	0	23	0	1598029824	54	4229
2026-01-10 05:30:46.89	357.02	27.42	-44.4	-45.5	15.7	0.00e+00	0	23	0	1621098496	54	4210
2026-01-10 05:30:50.88	355.85	27.68	-44.3	-45.4	15.7	0.00e+00	0	23	0	1643118592	54	4161
2026-01-10 05:30:54.88	354.66	27.93	-44.3	-45.4	15.7	0.00e+00	0	23	0	1666187264	54	4160
2026-01-10 05:30:58.87	353.45	28.17	-44.0	-45.1	15.8	0.00e+00	0	23	0	1688207360	54	4006
2026-01-10 05:31:02.85	352.23	28.40	-44.1	-45.2	15.8	0.00e+00	0	23	0	1710227456	54	4070
2026-01-10 05:31:06.84	350.98	28.62	-44.2	-45.2	15.8	0.00e+00	0	23	0	1733296128	54	4093
2026-01-10 05:31:10.85	349.71	28.82	-44.1	-45.1	15.8	0.00e+00	0	23	0	1755316224	54	4041
2026-01-10 05:31:14.83	348.44	29.00	-44.1	-45.1	15.8	0.00e+00	0	23	0	1778384896	54	4044
2026-01-10 05:31:18.82	347.15	29.18	-44.0	-45.1	15.8	0.00e+00	0	23	0	1800404992	54	4021
2026-01-10 05:31:22.82	345.84	29.33	-43.6	-44.6	15.8	0.00e+00	0	23	0	1822425088	53	4039
2026-01-10 05:31:26.81	344.53	29.47	-43.8	-44.9	15.8	0.00e+00	0	23	0	1845493760	53	4151
2026-01-10 05:31:30.81	343.20	29.60	-44.0	-45.1	15.8	0.00e+00	0	23	0	1867513856	53	4258
2026-01-10 05:31:34.81	341.86	29.70	-43.7	-44.7	15.8	0.00e+00	0	23	0	1890582528	53	4094
2026-01-10 05:31:38.81	340.51	29.79	-44.0	-45.0	15.8	0.00e+00	0	23	0	1912602624	53	4222
2026-01-10 05:31:42.80	339.16	29.86	-43.8	-44.8	15.8	0.00e+00	0	23	0	1935671296	53	4115
2026-01-10 05:31:46.80	337.80	29.92	-43.8	-44.9	15.8	0.00e+00	0	23	0	1957691392	53	4159
2026-01-10 05:31:50.81	336.43	29.95	-43.8	-44.8	15.8	0.00e+00	0	23	0	1980760064	53	4134
2026-01-10 05:31:54.80	335.07	29.97	-44.0	-45.0	15.7	0.00e+00	0	23	0	2002780160	53	4223
2026-01-10 05:31:58.80	333.70	29.97	-43.7	-44.7	15.8	0.00e+00	0	23	0	2025848832	53	4088
2026-01-10 05:32:02.79	332.34	29.95	-43.8	-44.9	15.8	0.00e+00	0	23	0	2047868928	53	4149
2026-01-10 05:32:06.80	330.97	29.91	-43.7	-44.7	15.8	0.00e+00	0	23	0	2069889024	53	4084
2026-01-10 05:32:10.81	329.60	29.86	-43.9	-45.0	15.8	0.00e+00	0	23	0	2092957696	53	4214
2026-01-10 05:32:14.81	328.25	29.78	-43.7	-44.7	15.8	0.00e+00	0	23	0	2114977792	53	4090
2026-01-10 05:32:18.82	326.90	29.69	-43.9	-44.9	15.8	0.00e+00	0	23	0	2138046464	53	4184
2026-01-10 05:32:22.80	325.56	29.58	-43.7	-44.7	15.8	0.00e+00	0	23	0	2160066560	53	4070
2026-01-10 05:32:26.80	324.23	29.46	-43.7	-44.8	15.8	0.00e+00	0	23	0	2183135232	53	4112
2026-01-10 05:32:30.78	322.92	29.32	-43.9	-44.9	15.7	0.00e+00	0	23	0	2205155328	53	4174
2026-01-10 05:32:34.77	321.62	29.16	-43.8	-44.8	15.8	0.00e+00	0	23	0	2227175424	53	4126
2026-01-10 05:32:38.78	320.32	28.98	-44.2	-45.2	15.7	0.00e+00	0	23	0	2250244096	53	4315
2026-01-10 05:32:42.79	319.04	28.80	-44.1	-45.2	15.7	0.00e+00	0	23	0	2273312768	53	4300
2026-01-10 05:32:46.79	317.78	28.59	-44.3	-45.4	15.7	0.00e+00	0	23	0	2295332864	53	4402
2026-01-10 05:32:50.81	316.52	28.37	-44.0	-45.1	15.7	0.00e+00	0	23	0	2318401536	53	4253
2026-01-10 05:32:54.80	315.30	28.14	-44.0	-45.0	15.7	0.00e+00	0	24	0	2340421632	53	4221
2026-01-10 05:32:58.80	314.09	27.90	-44.3	-45.4	15.6	0.00e+00	0	23	0	2362441728	53	4395
2026-01-10 05:33:02.80	312.89	27.65	-44.2	-45.2	15.7	0.00e+00	0	24	0	2385510400	53	4340
2026-01-10 05:33:06.80	311.72	27.38	-44.0	-45.0	15.7	0.00e+00	0	23	0	2407530496	53	4233
2026-01-10 05:33:10.80	310.57	27.11	-44.1	-45.2	15.7	0.00e+00	0	23	0	2430599168	53	4316
2026-01-10 05:33:14.80	309.43	26.82	-44.3	-45.3	15.7	0.00e+00	0	23	0	2452619264	53	4387
2026-01-10 05:33:18.80	308.32	26.53	-44.2	-45.2	15.7	0.00e+00	0	23	0	2475687936	53	4340
2026-01-10 05:33:22.79	307.23	26.22	-44.6	-45.7	15.7	0.00e+00	0	23	0	2497708032	54	4297
2026-01-10 05:33:26.77	306.17	25.91	-44.7	-45.8	15.6	0.00e+00	0	23	0	2519728128	54	4352
2026-01-10 05:33:30.77	305.12	25.60	-44.8	-45.9	15.7	0.00e+00	0	23	0	2542796800	55	4162
2026-01-10 05:33:34.77	304.09	25.27	-44.5	-45.5	15.8	0.00e+00	0	23	0	2564816896	55	3996
2026-01-10 05:33:38.78	303.08	24.94	-44.7	-45.8	15.7	0.00e+00	0	23	0	2587885568	55	4113
2026-01-10 05:33:42.78	302.10	24.60	-44.7	-45.7	15.7	0.00e+00	0	24	0	2609905664	55	4098
2026-01-10 05:33:46.78	301.13	24.26	-44.5	-45.6	15.8	0.00e+00	0	24	0	2632974336	55	4009
2026-01-10 05:33:50.79	300.18	23.92	-44.8	-45.9	15.7	0.00e+00	0	24	0	2654994432	55	4156
2026-01-10 05:33:54.79	299.26	23.57	-44.8	-45.9	15.7	0.00e+00	0	24	0	2678063104	55	4152
2026-01-10 05:33:58.79	298.36	23.22	-45.1	-46.2	15.6	0.00e+00	0	23	0	2700083200	55	4307
2026-01-10 05:34:02.79	297.48	22.86	-45.3	-46.4	15.6	0.00e+00	0	24	0	2723151872	55	4408
2026-01-10 05:34:06.79	296.62	22.51	-45.2	-46.2	15.6	0.00e+00	0	23	0	2745171968	55	4336
2026-01-10 05:34:10.81	295.77	22.15	-45.6	-46.7	15.6	0.00e+00	0	23	0	2768240640	56	4312
2026-01-10 05:34:14.81	294.95	21.79	-45.5	-46.6	15.6	0.00e+00	0	23	0	2790260736	56	4253
2026-01-10 05:34:18.82	294.14	21.43	-45.6	-46.7	15.6	0.00e+00	0	24	0	2813329408	56	4292
2026-01-10 05:34:22.82	293.36	21.06	-45.8	-46.9	15.5	0.00e+00	0	24	0	2835349504	56	4414
2026-01-10 05:34:26.81	292.59	20.70	-45.6	-46.6	15.5	0.00e+00	0	23	0	2857369600	56	4288
2026-01-10 05:34:30.81	291.85	20.34	-45.5	-46.6	15.6	0.00e+00	0	24	0	2880438272	56	4249
2026-01-10 05:34:34.80	291.12	19.98	-45.6	-46.7	15.6	0.00e+00	0	23	0	2902458368	56	4296
2026-01-10 05:34:38.81	290.40	19.62	-45.7	-46.8	15.5	0.00e+00	0	23	0	2925527040	56	4360
2026-01-10 05:34:42.81	289.71	19.26	-45.8	-46.9	15.5	0.00e+00	0	24	0	2947547136	56	4429
2026-01-10 05:34:46.80	289.03	18.90	-46.0	-47.1	15.5	0.00e+00	0	23	0	2970615808	57	4269
2026-01-10 05:34:50.83	288.36	18.54	-45.9	-47.0	15.5	0.00e+00	0	24	0	2992635904	57	4203
2026-01-10 05:34:54.81	287.71	18.18	-46.0	-47.1	15.5	0.00e+00	0	23	0	3015704576	57	4285
2026-01-10 05:34:58.82	287.08	17.82	-46.2	-47.4	15.4	0.00e+00	0	23	0	3037724672	57	4401
2026-01-10 05:35:02.83	286.46	17.47	-46.4	-47.5	15.4	0.00e+00	0	23	0	3060793344	57	4491
2026-01-10 05:35:06.84	285.86	17.11	-46.5	-47.7	15.4	0.00e+00	0	23	0	3082813440	58	4297
2026-01-10 05:35:10.84	285.27	16.76	-46.6	-47.8	15.4	0.00e+00	0	23	0	3105882112	58	4351
2026-01-10 05:35:14.84	284.69	16.41	-46.5	-47.7	15.4	0.00e+00	0	24	0	3127902208	58	4325
2026-01-10 05:35:18.84	284.13	16.07	-46.8	-48.0	15.3	0.00e+00	0	23	0	3150970880	58	4485
2026-01-10 05:35:22.86	283.58	15.72	-46.8	-48.0	15.3	0.00e+00	0	24	0	3172990976	58	4481
2026-01-10 05:35:26.84	283.04	15.38	-46.8	-48.0	15.3	0.00e+00	0	24	0	3196059648	58	4462
2026-01-10 05:35:30.85	282.52	15.04	-46.9	-48.0	15.3	0.00e+00	0	23	0	3218079744	58	4487
2026-01-10 05:35:34.85	282.01	14.70	-46.9	-48.0	15.4	0.00e+00	0	23	0	3241148416	59	4242
2026-01-10 05:35:38.86	281.51	14.36	-47.0	-48.2	15.3	0.00e+00	0	23	0	3263168512	59	4306
2026-01-10 05:35:42.86	281.02	14.03	-47.3	-48.5	15.2	0.00e+00	0	23	0	3285188608	59	4457
2026-01-10 05:35:46.86	280.54	13.70	-47.3	-48.5	15.2	0.00e+00	0	24	0	3308257280	59	4472
2026-01-10 05:35:50.86	280.07	13.37	-47.3	-48.5	15.2	0.00e+00	0	24	0	3330277376	59	4489
2026-01-10 05:35:54.85	279.62	13.04	-47.1	-48.3	15.3	0.00e+00	0	23	0	3353346048	60	4131
2026-01-10 05:35:58.85	279.17	12.72	-47.0	-48.2	15.4	0.00e+00	0	24	0	3375366144	60	4066
2026-01-10 05:36:02.84	278.74	12.40	-47.0	-48.2	15.4	0.00e+00	0	23	0	3398434816	60	4067
2026-01-10 05:36:06.85	278.31	12.08	-47.2	-48.4	15.3	0.00e+00	0	23	0	3420454912	60	4172
2026-01-10 05:36:10.85	277.89	11.77	-47.4	-48.6	15.2	0.00e+00	0	23	0	3443523584	60	4288
2026-01-10 05:36:14.85	277.49	11.45	-47.4	-48.6	15.2	0.00e+00	0	23	0	3465543680	60	4274
2026-01-10 05:36:18.85	277.09	11.14	-47.5	-48.7	15.1	0.00e+00	0	23	0	3488612352	60	4315
2026-01-10 05:36:22.84	276.70	10.84	-47.6	-48.9	15.1	0.00e+00	0	24	0	3510632448	60	4404
2026-01-10 05:36:26.83	276.32	10.53	-47.7	-49.0	15.0	0.00e+00	0	23	0	3532652544	60	4472
2026-01-10 05:36:30.82	275.94	10.23	-47.6	-48.9	15.0	0.00e+00	0	24	0	3555721216	60	4421
2026-01-10 05:36:34.80	275.58	9.93	-47.6	-48.9	15.0	0.00e+00	0	24	0	3577741312	60	4417
2026-01-10 05:36:38.80	275.22	9.63	-47.7	-49.0	15.0	0.00e+00	0	23	0	3600809984	60	4447
2026-01-10 05:36:42.79	274.87	9.34	-47.7	-49.0	15.1	0.00e+00	0	23	0	3622830080	61	4226
2026-01-10 05:36:46.79	274.52	9.04	-47.8	-49.1	15.1	0.00e+00	0	24	0	3644850176	61	4255
2026-01-10 05:36:50.79	274.19	8.75	-47.9	-49.2	15.0	0.00e+00	0	23	0	3667918848	61	4311
2026-01-10 05:36:54.80	273.86	8.46	-47.9	-49.2	15.0	0.00e+00	0	24	0	3689938944	61	4304
2026-01-10 05:36:58.79	273.53	8.18	-48.0	-49.4	14.9	0.00e+00	0	23	0	3713007616	61	4392
2026-01-10 05:37:02.79	273.22	7.89	-48.1	-49.4	14.9	0.00e+00	0	23	0	3735027712	61	4421
2026-01-10 05:37:06.79	272.91	7.61	-48.2	-49.5	14.8	0.00e+00	0	24	0	3758096384	61	4490
2026-01-10 05:37:10.79	272.60	7.33	-48.5	-49.9	14.8	0.00e+00	0	24	0	3780116480	62	4393
2026-01-10 05:37:14.80	272.30	7.06	-48.4	-49.8	14.8	0.00e+00	0	24	0	3803185152	62	4376
2026-01-10 05:37:18.79	272.01	6.78	-48.9	-50.4	14.6	0.00e+00	0	24	0	3825205248	63	4395
2026-01-10 05:37:22.79	271.72	6.51	-49.2	-50.7	14.4	0.00e+00	0	24	0	3848273920	63	4547
2026-01-10 05:37:26.79	271.44	6.24	-49.2	-50.8	14.3	0.00e+00	0	23	0	3870294016	63	4611
2026-01-10 05:37:30.78	271.17	5.97	-49.3	-50.9	14.2	0.00e+00	0	23	0	3892314112	63	4685
2026-01-10 05:37:34.77	270.90	5.71	-49.1	-50.7	14.4	0.00e+00	0	23	0	3915382784	63	4563
2026-01-10 05:37:38.77	270.63	5.44	-49.1	-50.7	14.3	0.00e+00	0	23	0	3937402880	63	4552
2026-01-10 05:37:42.76	270.37	5.18	-49.2	-50.7	14.3	0.00e+00	0	23	0	3960471552	63	4591
2026-01-10 05:37:46.76	270.12	4.92	-57.4	-70.5	3.8	8.45e-01	0	23	104	3977248768	79	17752
2026-01-10 05:37:50.77	269.86	4.66	-58.7	-71.8	3.8	8.46e-01	0	24	104	3977248768	82	17330
2026-01-10 05:37:54.78	269.62	4.41	-59.1	-72.2	3.8	8.46e-01	0	23	104	3977248768	83	17117
2026-01-10 05:37:58.78	269.37	4.15	-59.3	-72.4	3.8	8.44e-01	0	24	104	3977248768	83	17497
2026-01-10 05:38:02.78	269.14	3.90	-59.7	-72.7	3.8	8.46e-01	0	24	104	3977248768	84	17246
2026-01-10 05:38:06.78	268.90	3.65	-59.7	-72.8	3.8	8.45e-01	0	23	104	3977248768	84	17343
2026-01-10 05:38:10.79	268.67	3.40	-59.6	-72.6	3.8	8.45e-01	0	24	104	3977248768	84	17049
2026-01-10 05:38:14.79	268.45	3.15	-59.5	-72.6	3.8	8.46e-01	0	24	104	3977248768	84	16926
2026-01-10 05:38:18.79	268.23	2.91	-59.5	-72.5	3.8	8.46e-01	0	24	104	3977248768	84	16820
2026-01-10 05:38:22.79	268.01	2.67	-59.5	-72.5	3.8	8.46e-01	0	23	104	3977248768	84	16854
2026-01-10 05:38:26.77	267.80	2.43	-59.4	-72.5	3.8	8.46e-01	0	24	104	3977248768	84	16766
2026-01-10 05:38:30.77	267.59	2.19	-59.4	-72.5	3.8	8.46e-01	0	23	104	3977248768	84	16725

#Closed at: 2026-01-10 05:38:34
#Recorded file [3977 MB]: D:/lorett/data/31004_260110_082518.dat