passes_logs/2026/01/10/R3.2S_Murmansk/R3.2S_Murmansk__20260110_094251_NOAA_20_JPSS-1_rec.log

#Pass ID: 20260110_094251_NOAA 20 (JPSS-1)
#Satellite: NOAA 20 (JPSS-1)
#Configuration: NOAA 20
#almurnet v.1.7.20251203
#Start time: 2026-01-10 09:42:52

#Version: 2.2.20231116
#Station: R3.2S_Murmansk
#Location: 33.079688 lon 68.888172 lat
#TLE: 1 43013U 17073A   26009.69119415  .00000109  00000+0  72598-4 0  9996
#TLE: 2 43013  98.7631 310.6868 0001678  46.7442 313.3874 14.19534878421981

#Time	Az	El	Level	Level2	SNR	BER	BlckErr	Temp	State	Recorded	gain1	gain2
2026-01-10 09:42:52.61	156.27	2.09	-57.3	-73.2	3.8	1.49e+00	0	21	104	0	79	24374
2026-01-10 09:42:57.97	156.32	2.44	-57.3	-73.2	3.8	1.49e+00	0	21	104	0	79	24303
2026-01-10 09:43:03.15	156.36	2.78	-57.3	-73.2	3.8	1.49e+00	0	22	104	0	79	24329
2026-01-10 09:43:08.36	156.40	3.12	-57.3	-73.2	3.8	1.49e+00	0	22	104	0	79	24265
2026-01-10 09:43:12.69	156.44	3.41	-57.2	-73.0	3.8	1.49e+00	0	22	104	0	79	23780
2026-01-10 09:43:17.01	156.48	3.71	-57.1	-70.0	4.1	1.47e+00	0	22	104	0	79	16849
2026-01-10 09:43:21.34	156.52	4.00	-56.9	-66.9	5.3	5.79e-01	0	22	0	5242880	79	11817
2026-01-10 09:43:25.68	156.55	4.30	-56.5	-64.2	7.4	9.19e-02	0	22	0	13631488	79	8638
2026-01-10 09:43:30.02	156.59	4.61	-55.9	-61.8	9.6	6.47e-03	0	22	0	22020096	78	6880
2026-01-10 09:43:34.36	156.63	4.92	-55.6	-60.8	10.3	1.50e-03	0	23	0	30408704	77	6569
2026-01-10 09:43:38.70	156.67	5.23	-54.8	-58.7	11.9	6.11e-01	0	22	0	36700160	76	5436
2026-01-10 09:43:43.04	156.71	5.54	-54.2	-57.6	12.8	7.00e-07	0	22	0	44040192	75	5098
2026-01-10 09:43:47.38	156.75	5.86	-54.1	-57.4	12.9	0.00e+00	0	23	0	52428800	74	5277
2026-01-10 09:43:51.76	156.79	6.19	-54.1	-57.4	12.9	0.00e+00	0	23	0	60817408	74	5240
2026-01-10 09:43:56.10	156.84	6.51	-54.1	-57.3	13.1	0.00e+00	0	23	0	69206016	74	5170
2026-01-10 09:44:00.45	156.88	6.85	-53.9	-57.1	13.3	0.00e+00	0	23	0	77594624	74	5045
2026-01-10 09:44:04.80	156.92	7.18	-53.9	-57.0	13.4	0.00e+00	0	23	0	84934656	74	4987
2026-01-10 09:44:09.14	156.97	7.52	-53.9	-56.9	13.4	0.00e+00	0	23	0	93323264	74	4942
2026-01-10 09:44:13.50	157.01	7.87	-53.7	-56.6	13.7	0.00e+00	0	23	0	101711872	74	4784
2026-01-10 09:44:17.82	157.06	8.22	-53.5	-56.3	13.7	0.00e+00	0	23	0	110100480	73	4911
2026-01-10 09:44:22.14	157.10	8.57	-53.5	-56.3	13.8	0.00e+00	0	23	0	117440512	73	4875
2026-01-10 09:44:26.51	157.15	8.93	-53.4	-56.1	13.9	0.00e+00	0	23	0	125829120	73	4780
2026-01-10 09:44:30.86	157.20	9.30	-53.3	-55.9	14.1	0.00e+00	0	23	0	134217728	73	4681
2026-01-10 09:44:35.18	157.25	9.66	-53.3	-55.9	14.1	0.00e+00	0	23	0	142606336	73	4661
2026-01-10 09:44:39.53	157.30	10.04	-53.3	-55.8	14.1	0.00e+00	0	23	0	149946368	73	4628
2026-01-10 09:44:43.87	157.35	10.42	-53.1	-55.6	14.1	0.00e+00	0	23	0	158334976	72	4776
2026-01-10 09:44:48.21	157.40	10.81	-53.0	-55.5	14.2	0.00e+00	0	23	0	166723584	72	4719
2026-01-10 09:44:52.58	157.45	11.21	-53.0	-55.3	14.3	0.00e+00	0	23	0	175112192	72	4644
2026-01-10 09:44:56.93	157.50	11.61	-52.9	-55.2	14.4	0.00e+00	0	23	0	182452224	72	4581
2026-01-10 09:45:01.28	157.56	12.01	-52.8	-55.1	14.5	0.00e+00	0	23	0	190840832	72	4542
2026-01-10 09:45:05.63	157.61	12.43	-52.8	-55.1	14.5	0.00e+00	0	23	0	199229440	72	4494
2026-01-10 09:45:09.98	157.67	12.85	-52.6	-54.8	14.5	0.00e+00	0	23	0	207618048	71	4613
2026-01-10 09:45:14.35	157.73	13.28	-52.5	-54.6	14.6	0.00e+00	0	23	0	216006656	71	4523
2026-01-10 09:45:18.70	157.79	13.72	-52.3	-54.4	14.7	0.00e+00	0	23	0	223346688	71	4438
2026-01-10 09:45:23.07	157.85	14.17	-52.1	-54.2	14.8	0.00e+00	0	23	0	231735296	70	4558
2026-01-10 09:45:27.42	157.91	14.62	-52.0	-54.0	14.8	0.00e+00	0	23	0	240123904	70	4488
2026-01-10 09:45:31.77	157.97	15.08	-52.0	-53.9	14.9	0.00e+00	0	23	0	248512512	70	4436
2026-01-10 09:45:36.11	158.04	15.55	-51.9	-53.8	15.0	0.00e+00	0	23	0	256901120	70	4367
2026-01-10 09:45:40.44	158.10	16.03	-51.9	-53.8	15.0	0.00e+00	0	23	0	264241152	70	4361
2026-01-10 09:45:44.84	158.17	16.52	-51.8	-53.7	15.0	0.00e+00	0	23	0	272629760	70	4326
2026-01-10 09:45:49.16	158.24	17.02	-51.8	-53.6	15.1	0.00e+00	0	23	0	281018368	70	4282
2026-01-10 09:45:53.49	158.31	17.53	-51.7	-53.5	15.2	0.00e+00	0	23	0	289406976	70	4232
2026-01-10 09:45:57.83	158.39	18.05	-51.5	-53.3	15.1	0.00e+00	0	23	0	296747008	69	4375
2026-01-10 09:46:02.19	158.46	18.58	-51.5	-53.3	15.1	0.00e+00	0	23	0	305135616	69	4380
2026-01-10 09:46:06.55	158.54	19.12	-51.5	-53.3	15.1	0.00e+00	0	23	0	313524224	69	4382
2026-01-10 09:46:10.88	158.62	19.68	-51.4	-53.1	15.2	0.00e+00	0	23	0	321912832	69	4285
2026-01-10 09:46:15.20	158.70	20.24	-51.3	-53.1	15.3	0.00e+00	0	23	0	330301440	69	4260
2026-01-10 09:46:19.56	158.79	20.82	-51.4	-53.1	15.2	0.00e+00	0	23	0	337641472	69	4277
2026-01-10 09:46:23.89	158.87	21.42	-51.4	-53.2	15.2	0.00e+00	0	23	0	346030080	69	4307
2026-01-10 09:46:28.22	158.96	22.02	-51.7	-53.5	15.0	0.00e+00	0	23	0	354418688	69	4463
2026-01-10 09:46:32.58	159.06	22.65	-51.5	-53.3	15.1	0.00e+00	0	23	0	362807296	69	4355
2026-01-10 09:46:36.95	159.15	23.29	-51.6	-53.4	15.1	0.00e+00	0	23	0	370147328	69	4396
2026-01-10 09:46:41.35	159.26	23.96	-51.6	-53.4	15.1	0.00e+00	0	23	0	378535936	69	4438
2026-01-10 09:46:45.50	159.35	24.60	-51.7	-53.5	15.0	0.00e+00	0	23	0	386924544	69	4469
2026-01-10 09:46:49.53	159.45	25.24	-51.8	-53.7	14.9	0.00e+00	0	23	0	394264576	69	4564
2026-01-10 09:46:53.57	159.56	25.89	-52.0	-53.9	14.8	0.00e+00	0	23	0	401604608	69	4680
2026-01-10 09:46:57.60	159.66	26.56	-52.2	-54.2	14.7	0.00e+00	0	23	0	408944640	69	4847
2026-01-10 09:47:01.65	159.78	27.25	-52.6	-54.6	14.6	0.00e+00	0	23	0	417333248	70	4790
2026-01-10 09:47:05.67	159.89	27.96	-52.9	-55.1	14.5	0.00e+00	0	23	0	424673280	71	4802
2026-01-10 09:47:09.71	160.01	28.68	-53.3	-55.7	14.1	0.00e+00	0	23	0	432013312	71	5131
2026-01-10 09:47:13.74	160.13	29.43	-53.6	-56.0	14.1	0.00e+00	0	23	0	439353344	72	5006
2026-01-10 09:47:17.78	160.26	30.19	-53.9	-56.5	13.9	0.00e+00	0	23	0	446693376	73	5034
2026-01-10 09:47:21.80	160.40	30.97	-54.0	-56.5	13.9	0.00e+00	0	23	0	455081984	73	5019
2026-01-10 09:47:25.83	160.54	31.78	-53.9	-56.4	14.0	0.00e+00	0	23	0	462422016	73	4952
2026-01-10 09:47:29.87	160.69	32.61	-53.9	-56.5	13.9	0.00e+00	0	23	0	469762048	73	5001
2026-01-10 09:47:33.89	160.84	33.46	-53.8	-56.2	14.1	0.00e+00	0	23	0	477102080	73	4848
2026-01-10 09:47:37.92	161.00	34.33	-53.1	-55.2	14.6	0.00e+00	0	23	0	484442112	72	4577
2026-01-10 09:47:41.93	161.17	35.23	-52.3	-54.3	14.9	0.00e+00	0	23	0	492830720	71	4345
2026-01-10 09:47:45.94	161.35	36.15	-51.8	-53.6	15.2	0.00e+00	0	23	0	500170752	70	4273
2026-01-10 09:47:49.96	161.54	37.10	-51.6	-53.3	15.2	0.00e+00	0	23	0	507510784	69	4370
2026-01-10 09:47:53.97	161.74	38.07	-51.2	-52.8	15.4	0.00e+00	0	23	0	514850816	69	4142
2026-01-10 09:47:57.99	161.95	39.08	-51.3	-52.9	15.4	0.00e+00	0	23	0	522190848	69	4173
2026-01-10 09:48:02.00	162.17	40.11	-50.9	-52.5	15.4	0.00e+00	0	23	0	529530880	68	4233
2026-01-10 09:48:06.03	162.41	41.19	-51.5	-53.2	15.1	0.00e+00	0	23	0	537919488	68	4564
2026-01-10 09:48:10.05	162.66	42.28	-51.9	-53.7	14.9	0.00e+00	0	23	0	545259520	69	4583
2026-01-10 09:48:14.09	162.93	43.42	-51.7	-53.4	15.1	0.00e+00	0	23	0	552599552	69	4428
2026-01-10 09:48:18.11	163.22	44.59	-52.3	-54.2	14.7	0.00e+00	0	23	0	559939584	69	4867
2026-01-10 09:48:22.11	163.53	45.79	-52.6	-54.5	14.7	0.00e+00	0	23	0	567279616	70	4746
2026-01-10 09:48:26.14	163.86	47.03	-54.0	-56.6	14.0	0.00e+00	0	23	0	575668224	73	5063
2026-01-10 09:48:30.17	164.22	48.30	-54.0	-56.5	13.9	0.00e+00	0	23	0	583008256	73	5027
2026-01-10 09:48:34.19	164.61	49.61	-53.6	-55.9	14.4	0.00e+00	0	23	0	590348288	73	4677
2026-01-10 09:48:38.21	165.04	50.96	-52.6	-54.6	14.9	0.00e+00	0	23	0	597688320	71	4494
2026-01-10 09:48:42.23	165.50	52.35	-51.2	-52.9	15.4	0.00e+00	0	23	0	605028352	69	4148
2026-01-10 09:48:46.25	166.01	53.77	-50.5	-52.0	15.6	0.00e+00	0	23	0	613416960	67	4213
2026-01-10 09:48:50.25	166.56	55.23	-49.7	-51.2	15.5	0.00e+00	0	23	0	620756992	65	4301
2026-01-10 09:48:54.27	167.18	56.73	-50.8	-52.4	15.2	0.00e+00	0	23	0	628097024	66	4664
2026-01-10 09:48:58.29	167.87	58.27	-51.6	-53.4	15.2	0.00e+00	0	23	0	635437056	69	4392
2026-01-10 09:49:02.31	168.64	59.84	-50.1	-51.5	15.7	0.00e+00	0	23	0	642777088	66	4234
2026-01-10 09:49:06.33	169.51	61.46	-49.5	-50.9	15.7	0.00e+00	0	23	0	650117120	65	4190
2026-01-10 09:49:10.35	170.50	63.10	-49.4	-50.8	15.7	0.00e+00	0	23	0	658505728	65	4106
2026-01-10 09:49:14.35	171.63	64.77	-51.9	-53.7	14.9	0.00e+00	0	23	0	665845760	68	4844
2026-01-10 09:49:18.37	172.94	66.47	-52.4	-54.4	14.8	0.00e+00	0	23	0	673185792	70	4655
2026-01-10 09:49:22.39	174.49	68.20	-52.2	-54.1	15.0	0.00e+00	0	23	0	680525824	70	4506
2026-01-10 09:49:26.40	176.31	69.94	-51.8	-53.5	15.1	0.00e+00	0	23	0	687865856	69	4472
2026-01-10 09:49:30.42	178.51	71.69	-51.5	-53.2	15.3	0.00e+00	0	23	0	696254464	69	4311
2026-01-10 09:49:34.43	181.20	73.43	-53.1	-55.2	14.5	0.00e+00	0	23	0	703594496	71	4825
2026-01-10 09:49:38.45	184.56	75.17	-53.6	-55.9	14.3	0.00e+00	0	23	0	710934528	72	4963
2026-01-10 09:49:42.47	188.82	76.86	-54.0	-56.4	14.1	0.00e+00	0	23	0	718274560	73	4940
2026-01-10 09:49:46.51	194.38	78.49	-54.8	-57.6	13.8	0.00e+00	0	23	0	725614592	76	4772
2026-01-10 09:49:50.52	201.67	79.98	-53.6	-55.8	14.5	0.00e+00	0	23	0	734003200	73	4615
2026-01-10 09:49:54.56	211.42	81.28	-52.2	-53.9	15.2	0.00e+00	0	23	0	741343232	71	4170
2026-01-10 09:49:58.57	224.01	82.25	-52.0	-53.7	15.2	0.00e+00	0	23	0	748683264	70	4313
2026-01-10 09:50:02.58	239.25	82.76	-52.2	-54.1	15.0	0.00e+00	0	23	0	756023296	70	4497
2026-01-10 09:50:06.60	255.55	82.72	-53.7	-56.0	14.2	0.00e+00	0	23	0	763363328	72	5008
2026-01-10 09:50:10.63	270.51	82.12	-55.2	-58.1	13.5	0.00e+00	0	23	0	770703360	76	5058
2026-01-10 09:50:14.65	282.64	81.08	-52.8	-54.7	15.0	0.00e+00	0	23	0	779091968	72	4321
2026-01-10 09:50:18.67	291.90	79.75	-49.9	-51.3	15.7	0.00e+00	0	23	0	786432000	66	4133
2026-01-10 09:50:22.69	298.88	78.24	-51.3	-52.9	15.3	0.00e+00	0	23	0	793772032	68	4437
2026-01-10 09:50:26.71	304.18	76.60	-53.5	-55.7	14.6	0.00e+00	0	23	0	801112064	73	4551
2026-01-10 09:50:30.72	308.27	74.91	-53.8	-56.0	14.6	0.00e+00	0	23	0	808452096	74	4451
2026-01-10 09:50:34.74	311.51	73.17	-55.2	-58.3	13.2	0.00e+00	0	23	0	816840704	75	5519
2026-01-10 09:50:38.75	314.11	71.43	-54.0	-56.4	14.2	0.00e+00	0	23	0	824180736	73	4966
2026-01-10 09:50:42.77	316.25	69.68	-53.4	-55.6	14.4	0.00e+00	0	23	0	831520768	72	4794
2026-01-10 09:50:46.79	318.03	67.94	-52.8	-54.7	15.0	0.00e+00	0	23	0	838860800	72	4334
2026-01-10 09:50:50.80	319.52	66.23	-52.9	-54.8	14.9	0.00e+00	0	23	0	846200832	72	4368
2026-01-10 09:50:54.82	320.81	64.53	-53.6	-55.9	14.3	0.00e+00	0	23	0	853540864	72	4950
2026-01-10 09:50:58.84	321.92	62.86	-50.4	-51.9	15.4	0.00e+00	0	23	0	861929472	66	4404
2026-01-10 09:51:02.86	322.89	61.23	-50.8	-52.3	15.2	0.00e+00	0	23	0	869269504	66	4633
2026-01-10 09:51:06.87	323.74	59.63	-53.7	-56.1	14.3	0.00e+00	0	23	0	876609536	72	5045
2026-01-10 09:51:10.88	324.50	58.07	-53.1	-55.2	14.7	0.00e+00	0	23	0	883949568	72	4552
2026-01-10 09:51:14.90	325.18	56.54	-52.4	-54.2	15.1	0.00e+00	0	23	0	891289600	71	4334
2026-01-10 09:51:18.91	325.78	55.05	-51.0	-52.6	15.4	0.00e+00	0	23	0	899678208	68	4277
2026-01-10 09:51:22.93	326.33	53.60	-50.4	-51.9	15.6	0.00e+00	0	23	0	907018240	67	4154
2026-01-10 09:51:26.94	326.83	52.18	-52.0	-53.7	15.0	0.00e+00	0	23	0	914358272	69	4588
2026-01-10 09:51:30.94	327.29	50.81	-55.1	-58.0	13.4	0.00e+00	0	23	0	921698304	75	5337
2026-01-10 09:51:34.96	327.70	49.48	-55.1	-57.9	13.6	0.00e+00	0	23	0	929038336	76	4970
2026-01-10 09:51:38.98	328.09	48.17	-55.7	-59.2	12.6	0.00e+00	0	23	0	936378368	76	5737
2026-01-10 09:51:42.98	328.44	46.92	-54.3	-56.8	14.2	0.00e+00	0	23	0	944766976	75	4616
2026-01-10 09:51:47.00	328.77	45.69	-52.5	-54.4	15.0	0.00e+00	0	23	0	952107008	71	4426
2026-01-10 09:51:51.01	329.08	44.50	-53.5	-55.8	14.3	0.00e+00	0	23	0	959447040	72	4876
2026-01-10 09:51:55.04	329.37	43.34	-51.8	-53.5	15.3	0.00e+00	0	23	0	966787072	70	4214
2026-01-10 09:51:59.05	329.63	42.21	-50.3	-51.8	15.5	0.00e+00	0	23	0	974127104	66	4345
2026-01-10 09:52:03.07	329.88	41.12	-53.4	-55.6	14.4	0.00e+00	0	23	0	982515712	72	4809
2026-01-10 09:52:07.09	330.12	40.06	-51.9	-53.7	15.2	0.00e+00	0	23	0	989855744	70	4326
2026-01-10 09:52:11.10	330.34	39.03	-51.7	-53.4	15.0	0.00e+00	0	23	0	997195776	68	4666
2026-01-10 09:52:15.11	330.55	38.04	-54.3	-57.0	13.7	0.00e+00	0	23	0	1004535808	73	5315
2026-01-10 09:52:19.12	330.75	37.07	-54.3	-57.0	14.0	0.00e+00	0	23	0	1011875840	75	4728
2026-01-10 09:52:23.13	330.94	36.13	-52.9	-55.0	14.8	0.00e+00	0	23	0	1019215872	72	4445
2026-01-10 09:52:27.14	331.12	35.21	-52.8	-54.9	14.7	0.00e+00	0	23	0	1027604480	71	4657
2026-01-10 09:52:31.16	331.29	34.32	-54.6	-57.5	13.5	0.00e+00	0	23	0	1034944512	74	5314
2026-01-10 09:52:35.17	331.45	33.45	-56.0	-60.0	12.1	3.80e-06	0	23	0	1042284544	77	5938
2026-01-10 09:52:39.18	331.60	32.61	-54.7	-57.5	13.8	0.00e+00	0	23	0	1049624576	76	4735
2026-01-10 09:52:43.20	331.75	31.79	-54.1	-56.6	14.1	0.00e+00	0	23	0	1056964608	74	4774
2026-01-10 09:52:47.21	331.89	31.00	-54.1	-56.6	14.1	0.00e+00	0	23	0	1064304640	74	4775
2026-01-10 09:52:51.22	332.03	30.22	-53.8	-56.2	14.3	0.00e+00	0	23	0	1072693248	74	4595
2026-01-10 09:52:55.23	332.16	29.46	-53.5	-55.8	14.4	0.00e+00	0	23	0	1080033280	73	4646
2026-01-10 09:52:59.24	332.28	28.73	-53.2	-55.4	14.7	0.00e+00	0	23	0	1087373312	73	4398
2026-01-10 09:53:03.26	332.40	28.01	-52.8	-54.8	14.8	0.00e+00	0	23	0	1094713344	72	4389
2026-01-10 09:53:07.26	332.52	27.31	-52.1	-53.9	15.0	0.00e+00	0	23	0	1102053376	70	4436
2026-01-10 09:53:11.28	332.63	26.63	-51.8	-53.6	15.2	0.00e+00	0	23	0	1109393408	70	4264
2026-01-10 09:53:15.30	332.73	25.97	-51.9	-53.8	15.1	0.00e+00	0	23	0	1117782016	70	4357
2026-01-10 09:53:19.31	332.84	25.32	-52.0	-53.9	15.0	0.00e+00	0	23	0	1125122048	70	4421
2026-01-10 09:53:23.34	332.94	24.68	-51.8	-53.7	15.2	0.00e+00	0	23	0	1132462080	70	4298
2026-01-10 09:53:27.35	333.04	24.06	-51.1	-52.8	15.3	0.00e+00	0	23	0	1139802112	68	4356
2026-01-10 09:53:31.36	333.13	23.46	-50.7	-52.3	15.5	0.00e+00	0	23	0	1147142144	68	4121
2026-01-10 09:53:35.37	333.22	22.87	-50.4	-51.9	15.5	0.00e+00	0	23	0	1155530752	67	4182
2026-01-10 09:53:39.37	333.31	22.29	-50.5	-52.0	15.4	0.00e+00	0	23	0	1162870784	67	4233
2026-01-10 09:53:43.40	333.39	21.73	-50.5	-52.1	15.4	0.00e+00	0	23	0	1170210816	67	4266
2026-01-10 09:53:47.42	333.48	21.17	-50.7	-52.4	15.3	0.00e+00	0	23	0	1177550848	67	4413
2026-01-10 09:53:51.42	333.56	20.64	-50.7	-52.4	15.2	0.00e+00	0	23	0	1184890880	67	4421
2026-01-10 09:53:55.44	333.64	20.11	-50.7	-52.3	15.3	0.00e+00	0	23	0	1192230912	67	4363
2026-01-10 09:53:59.46	333.72	19.59	-50.8	-52.4	15.2	0.00e+00	0	23	0	1200619520	67	4431
2026-01-10 09:54:03.50	333.79	19.08	-50.8	-52.5	15.1	0.00e+00	0	23	0	1207959552	67	4469
2026-01-10 09:54:07.51	333.86	18.58	-51.0	-52.8	15.0	0.00e+00	0	23	0	1215299584	67	4601
2026-01-10 09:54:11.54	333.93	18.09	-51.2	-53.0	14.9	0.00e+00	0	23	0	1222639616	67	4724
2026-01-10 09:54:15.58	334.00	17.61	-51.3	-53.1	14.8	0.00e+00	0	23	0	1229979648	67	4774
2026-01-10 09:54:19.60	334.07	17.14	-51.1	-52.9	14.9	0.00e+00	0	23	0	1238368256	67	4684
2026-01-10 09:54:23.63	334.14	16.68	-51.2	-53.0	14.9	0.00e+00	0	23	0	1245708288	67	4738
2026-01-10 09:54:27.64	334.20	16.23	-51.1	-52.9	14.9	0.00e+00	0	23	0	1253048320	67	4694
2026-01-10 09:54:31.65	334.27	15.78	-51.2	-53.0	14.8	0.00e+00	0	23	0	1260388352	67	4755
2026-01-10 09:54:35.65	334.33	15.35	-51.2	-53.1	14.8	0.00e+00	0	23	0	1267728384	67	4760
2026-01-10 09:54:39.67	334.39	14.92	-51.3	-53.1	14.8	0.00e+00	0	24	0	1276116992	67	4796
2026-01-10 09:54:43.67	334.45	14.50	-51.4	-53.2	14.7	0.00e+00	0	23	0	1283457024	67	4849
2026-01-10 09:54:47.70	334.51	14.09	-51.6	-53.5	14.8	0.00e+00	0	23	0	1290797056	68	4706
2026-01-10 09:54:51.72	334.57	13.68	-51.7	-53.6	14.7	0.00e+00	0	23	0	1298137088	68	4773
2026-01-10 09:54:55.74	334.62	13.28	-51.7	-53.6	14.7	0.00e+00	0	23	0	1305477120	68	4783
2026-01-10 09:54:59.78	334.68	12.89	-51.7	-53.7	14.7	0.00e+00	0	23	0	1312817152	68	4827
2026-01-10 09:55:03.80	334.73	12.50	-51.8	-53.8	14.6	0.00e+00	0	23	0	1321205760	68	4882
2026-01-10 09:55:07.83	334.79	12.12	-51.9	-53.9	14.7	0.00e+00	0	23	0	1328545792	69	4687
2026-01-10 09:55:11.84	334.84	11.74	-52.0	-54.0	14.6	0.00e+00	0	23	0	1335885824	69	4727
2026-01-10 09:55:15.85	334.89	11.37	-52.1	-54.1	14.5	6.10e-06	0	23	0	1343225856	69	4797
2026-01-10 09:55:19.86	334.94	11.01	-52.1	-54.2	14.5	0.00e+00	0	23	0	1350565888	69	4856
2026-01-10 09:55:23.89	334.99	10.65	-52.3	-54.4	14.4	0.00e+00	0	24	0	1358954496	69	4971
2026-01-10 09:55:27.90	335.04	10.30	-52.3	-54.4	14.5	0.00e+00	0	23	0	1366294528	70	4678
2026-01-10 09:55:31.91	335.09	9.95	-52.4	-54.6	14.4	0.00e+00	0	23	0	1373634560	70	4807
2026-01-10 09:55:35.92	335.14	9.61	-52.4	-54.6	14.4	0.00e+00	0	23	0	1380974592	70	4779
2026-01-10 09:55:39.93	335.18	9.27	-52.4	-54.6	14.4	0.00e+00	0	23	0	1388314624	70	4781
2026-01-10 09:55:43.96	335.23	8.93	-52.3	-54.4	14.5	0.00e+00	0	23	0	1396703232	70	4701
2026-01-10 09:55:47.96	335.28	8.60	-52.2	-54.4	14.5	0.00e+00	0	23	0	1404043264	70	4699
2026-01-10 09:55:51.98	335.32	8.28	-52.2	-54.4	14.5	0.00e+00	0	23	0	1411383296	70	4683
2026-01-10 09:55:56.02	335.37	7.95	-52.3	-54.5	14.4	0.00e+00	0	23	0	1418723328	70	4712
2026-01-10 09:56:00.05	335.41	7.64	-52.3	-54.5	14.4	0.00e+00	0	23	0	1426063360	70	4750
2026-01-10 09:56:04.08	335.45	7.32	-52.3	-54.6	14.3	0.00e+00	0	23	0	1433403392	70	4783
2026-01-10 09:56:08.11	335.50	7.01	-52.4	-54.6	14.3	0.00e+00	0	23	0	1441792000	70	4802
2026-01-10 09:56:12.14	335.54	6.70	-52.4	-54.7	14.2	0.00e+00	0	23	0	1449132032	70	4829
2026-01-10 09:56:16.17	335.58	6.40	-52.4	-54.7	14.2	0.00e+00	0	23	0	1456472064	70	4816
2026-01-10 09:56:20.20	335.62	6.10	-52.3	-54.6	14.3	0.00e+00	0	24	0	1463812096	70	4782
2026-01-10 09:56:24.24	335.66	5.80	-52.5	-54.9	14.1	0.00e+00	0	23	0	1471152128	70	4952
2026-01-10 09:56:28.28	335.70	5.51	-52.6	-55.0	13.9	0.00e+00	0	23	0	1479540736	70	5038
2026-01-10 09:56:32.31	335.74	5.22	-52.6	-55.1	13.9	0.00e+00	0	23	0	1486880768	70	5068
2026-01-10 09:56:36.35	335.78	4.93	-57.8	-73.1	3.8	1.36e+00	0	23	104	1493172224	80	22752
2026-01-10 09:56:40.38	335.82	4.65	-58.9	-74.9	3.8	1.49e+00	0	24	104	1493172224	82	24863
2026-01-10 09:56:44.42	335.86	4.37	-59.3	-75.3	3.8	1.49e+00	0	23	104	1493172224	83	24588
2026-01-10 09:56:48.44	335.90	4.09	-59.7	-75.7	3.8	1.49e+00	0	23	104	1493172224	84	24266
2026-01-10 09:56:52.48	335.94	3.81	-59.7	-75.8	3.8	1.49e+00	0	24	104	1493172224	84	24453
2026-01-10 09:56:56.51	335.98	3.54	-59.8	-75.8	3.8	1.49e+00	0	24	104	1493172224	84	24581
2026-01-10 09:57:00.54	336.01	3.27	-59.7	-75.8	3.8	1.49e+00	0	24	104	1493172224	84	24450
2026-01-10 09:57:04.58	336.05	3.00	-59.7	-75.7	3.8	1.49e+00	0	24	104	1493172224	84	24286
2026-01-10 09:57:08.59	336.09	2.74	-59.6	-75.7	3.8	1.49e+00	0	23	104	1493172224	84	24176
2026-01-10 09:57:12.62	336.12	2.48	-59.6	-75.7	3.8	1.49e+00	0	24	104	1493172224	84	24155
2026-01-10 09:57:16.66	336.16	2.22	-59.6	-75.6	3.8	1.49e+00	0	24	104	1493172224	84	24002

#Closed at: 2026-01-10 09:57:20
#Recorded file [1493 MB]: D:/lorett/data/31004_260110_124252.dat