passes_logs/2026/01/10/R3.2S_Murmansk/R3.2S_Murmansk__20260110_194955_TY-42_rec.log

#Pass ID: 20260110_194955_TY-42
#Satellite: TY-42
#Configuration: TY-42_900M
#almurnet v.1.7.20251203
#Start time: 2026-01-10 19:49:56

#Version: 2.2.20231116
#Station: R3.2S_Murmansk
#Location: 33.079688 lon 68.888172 lat
#TLE: 1 64048U 25103A   26010.69280093  .00008009  00000-0  38191-3 0 09991
#TLE: 2 64048 097.4118 086.1910 0001767 092.5284 306.6825 15.19162806 36165

#Time	Az	El	Level	Level2	SNR	BER	BlckErr	Temp	State	Recorded	gain1	gain2
2026-01-10 19:49:56.41	185.81	2.09	-56.9	-60.1	6.2	0.00e+00	0	28	0	0	80	20952
2026-01-10 19:49:59.39	185.97	2.29	-56.9	-60.1	6.2	0.00e+00	0	28	104	0	81	19892
2026-01-10 19:50:02.39	186.13	2.49	-56.9	-60.1	6.2	0.00e+00	0	28	104	0	81	19900
2026-01-10 19:50:05.39	186.30	2.70	-56.9	-60.2	6.2	0.00e+00	0	28	104	0	81	19986
2026-01-10 19:50:08.39	186.47	2.91	-57.0	-60.2	6.2	0.00e+00	0	29	104	0	81	19971
2026-01-10 19:50:11.37	186.64	3.12	-57.0	-60.2	6.2	0.00e+00	0	29	104	0	81	20001
2026-01-10 19:50:14.37	186.81	3.33	-57.0	-60.2	6.2	0.00e+00	0	29	104	0	81	19976
2026-01-10 19:50:17.38	186.99	3.54	-57.0	-60.2	6.2	0.00e+00	0	29	104	0	81	20046
2026-01-10 19:50:20.38	187.17	3.76	-57.0	-60.2	6.2	0.00e+00	0	29	104	0	81	20066
2026-01-10 19:50:23.38	187.36	3.98	-57.0	-60.2	6.2	0.00e+00	0	29	104	0	81	20069
2026-01-10 19:50:26.37	187.54	4.20	-57.0	-60.2	6.2	0.00e+00	0	29	104	0	81	20056
2026-01-10 19:50:29.36	187.73	4.42	-57.0	-60.2	6.2	0.00e+00	0	29	104	0	81	20113
2026-01-10 19:50:32.35	187.93	4.64	-57.0	-60.2	6.2	0.00e+00	0	30	104	0	81	20017
2026-01-10 19:50:35.34	188.13	4.87	-57.0	-60.2	6.2	0.00e+00	0	30	104	0	81	20086
2026-01-10 19:50:38.33	188.33	5.10	-57.0	-60.2	6.2	0.00e+00	0	30	104	0	81	20130
2026-01-10 19:50:41.32	188.53	5.33	-57.0	-60.2	6.2	0.00e+00	0	30	104	0	81	20021
2026-01-10 19:50:44.30	188.74	5.56	-44.3	-44.6	11.5	0.00e+00	0	31	0	142606336	55	14868
2026-01-10 19:50:47.29	188.95	5.80	-42.5	-42.9	12.0	6.37e-02	0	31	0	486539264	52	14467
2026-01-10 19:50:50.28	189.17	6.04	-42.4	-42.7	12.0	4.08e-02	0	31	0	822083584	51	15109
2026-01-10 19:50:53.27	189.39	6.28	-42.2	-42.6	12.1	2.67e-02	0	31	0	1157627904	51	14789
2026-01-10 19:50:56.26	189.62	6.52	-41.7	-42.0	12.3	2.25e-02	0	32	0	1493172224	50	14672
2026-01-10 19:50:59.25	189.85	6.77	-42.1	-42.4	12.1	1.76e-02	0	32	0	1828716544	50	15307
2026-01-10 19:51:02.24	190.08	7.02	-41.6	-41.9	12.3	1.94e-02	0	32	0	2164260864	50	14550
2026-01-10 19:51:05.23	190.32	7.27	-41.8	-42.1	12.1	2.17e-02	0	32	0	2499805184	49	15802
2026-01-10 19:51:08.21	190.57	7.53	-41.8	-42.2	12.1	1.65e-02	0	32	0	2843738112	49	15843
2026-01-10 19:51:11.20	190.82	7.79	-41.5	-41.8	12.2	1.95e-02	0	32	0	3170893824	49	15272
2026-01-10 19:51:14.19	191.07	8.05	-41.4	-41.7	12.3	1.95e-02	0	32	0	3506438144	49	14976
2026-01-10 19:51:17.18	191.33	8.31	-41.7	-42.0	12.3	1.98e-02	0	32	0	3850371072	50	14710
2026-01-10 19:51:20.17	191.60	8.58	-41.0	-41.3	12.5	1.37e-02	0	32	0	4185915392	49	14360
2026-01-10 19:51:23.16	191.87	8.85	-40.7	-41.0	12.5	1.02e-02	0	33	0	4521459712	48	14669
2026-01-10 19:51:26.15	192.15	9.13	-41.0	-41.3	12.4	8.54e-03	0	33	0	4857004032	48	15152
2026-01-10 19:51:29.14	192.43	9.41	-39.7	-40.0	12.4	9.06e-03	0	33	0	5192548352	46	14693
2026-01-10 19:51:32.12	192.72	9.69	-39.6	-39.9	12.5	9.83e-03	0	33	0	5528092672	46	14459
2026-01-10 19:51:35.10	193.02	9.97	-39.4	-39.7	12.6	9.32e-03	0	33	0	5863636992	46	14137
2026-01-10 19:51:38.08	193.33	10.26	-39.3	-39.6	12.5	7.59e-03	0	33	0	6199181312	45	14932
2026-01-10 19:51:41.08	193.64	10.56	-39.1	-39.4	12.6	7.29e-03	0	33	0	6534725632	45	14479
2026-01-10 19:51:44.07	193.96	10.86	-39.2	-39.5	12.6	6.27e-03	0	33	0	6870269952	45	14666
2026-01-10 19:51:47.05	194.28	11.16	-39.2	-39.5	12.6	5.44e-03	0	34	0	7205814272	45	14672
2026-01-10 19:51:50.04	194.62	11.46	-39.2	-39.5	12.6	5.95e-03	0	34	0	7541358592	45	14689
2026-01-10 19:51:53.03	194.96	11.78	-38.7	-39.0	12.7	5.37e-03	0	34	0	7876902912	44	14694
2026-01-10 19:51:56.02	195.31	12.09	-38.7	-39.0	12.7	4.61e-03	0	34	0	8220835840	44	14681
2026-01-10 19:51:59.00	195.67	12.41	-38.4	-38.7	12.8	4.27e-03	0	34	0	8547991552	44	14127
2026-01-10 19:52:01.99	196.04	12.73	-38.3	-38.6	12.8	3.47e-03	0	34	0	8891924480	43	14790
2026-01-10 19:52:04.96	196.42	13.06	-38.0	-38.3	12.8	2.92e-03	0	34	0	9227468800	43	14392
2026-01-10 19:52:07.95	196.81	13.40	-37.9	-38.2	12.8	2.06e-03	0	34	0	9554624512	43	14235
2026-01-10 19:52:10.94	197.21	13.73	-37.8	-38.1	12.8	2.12e-03	0	34	0	9898557440	42	14863
2026-01-10 19:52:13.93	197.62	14.08	-37.9	-38.2	12.8	2.00e-03	0	34	0	10234101760	42	14950
2026-01-10 19:52:16.91	198.04	14.43	-37.7	-38.0	12.9	1.53e-03	0	34	0	10569646080	42	14655
2026-01-10 19:52:19.91	198.48	14.78	-37.6	-37.9	12.9	1.56e-03	0	34	0	10905190400	42	14573
2026-01-10 19:52:22.89	198.92	15.14	-37.6	-37.9	12.9	1.61e-03	0	34	0	11240734720	42	14530
2026-01-10 19:52:25.87	199.38	15.51	-37.5	-37.8	12.9	1.40e-03	0	34	0	11576279040	42	14297
2026-01-10 19:52:28.84	199.85	15.88	-37.2	-37.5	12.9	1.07e-03	0	34	0	11911823360	41	14672
2026-01-10 19:52:31.83	200.33	16.25	-37.1	-37.4	13.0	1.02e-03	0	34	0	12247367680	41	14474
2026-01-10 19:52:34.82	200.83	16.64	-36.9	-37.2	12.9	9.63e-04	0	34	0	12582912000	40	15009
2026-01-10 19:52:37.81	201.34	17.03	-36.9	-37.2	12.9	9.77e-04	0	34	0	12918456320	40	14975
2026-01-10 19:52:40.79	201.87	17.42	-36.5	-36.8	13.0	8.11e-04	0	35	0	13254000640	40	14285
2026-01-10 19:52:43.78	202.42	17.82	-36.4	-36.7	13.1	4.72e-04	0	35	0	13589544960	40	14164
2026-01-10 19:52:46.76	202.98	18.23	-36.3	-36.6	13.0	4.00e-04	0	34	0	13925089280	39	14920
2026-01-10 19:52:49.74	203.55	18.64	-36.3	-36.5	13.0	3.91e-04	0	35	0	14260633600	39	14774
2026-01-10 19:52:52.72	204.15	19.06	-36.1	-36.4	13.1	3.15e-04	0	35	0	14596177920	39	14477
2026-01-10 19:52:55.71	204.76	19.48	-36.0	-36.2	13.1	3.67e-04	0	35	0	14931722240	39	14229
2026-01-10 19:52:58.70	205.40	19.91	-36.0	-36.2	13.0	2.38e-04	0	35	0	15267266560	38	15117
2026-01-10 19:53:01.69	206.05	20.35	-35.6	-35.8	13.1	2.38e-04	0	35	0	15602810880	38	14432
2026-01-10 19:53:04.67	206.73	20.80	-35.2	-35.5	13.1	1.81e-04	0	35	0	15938355200	37	14674
2026-01-10 19:53:07.68	207.43	21.25	-35.2	-35.4	13.1	1.62e-04	0	35	0	16282288128	37	14593
2026-01-10 19:53:10.66	208.15	21.70	-35.2	-35.4	13.1	9.53e-05	0	35	0	16609443840	37	14569
2026-01-10 19:53:13.65	208.89	22.17	-34.9	-35.2	13.2	1.05e-04	0	35	0	16944988160	37	14169
2026-01-10 19:53:16.64	209.66	22.64	-34.8	-35.1	13.1	5.72e-05	0	35	0	17288921088	36	14856
2026-01-10 19:53:19.62	210.46	23.11	-34.6	-34.9	13.2	4.76e-05	0	35	0	17624465408	36	14495
2026-01-10 19:53:22.60	211.28	23.59	-31.7	-32.0	13.1	5.24e-05	0	35	0	17951621120	30	14669
2026-01-10 19:53:25.58	212.13	24.07	-31.5	-31.8	13.2	1.00e-04	0	35	0	18295554048	30	14347
2026-01-10 19:53:28.58	213.01	24.56	-31.5	-31.8	13.2	1.19e-04	0	35	0	18631098368	30	14388
2026-01-10 19:53:31.57	213.93	25.06	-31.2	-31.4	13.2	5.24e-05	0	35	0	18966642688	29	14579
2026-01-10 19:53:34.56	214.87	25.56	-31.1	-31.4	13.2	3.81e-05	0	35	0	19302187008	29	14537
2026-01-10 19:53:37.55	215.85	26.06	-30.8	-31.1	13.2	3.81e-05	0	35	0	19637731328	28	14781
2026-01-10 19:53:40.53	216.85	26.56	-30.7	-31.0	13.2	2.86e-05	0	35	0	19973275648	28	14696
2026-01-10 19:53:43.50	217.89	27.07	-30.5	-30.8	13.2	2.86e-05	0	35	0	20308819968	28	14409
2026-01-10 19:53:46.47	218.97	27.58	-30.4	-30.7	13.2	9.50e-06	0	35	0	20644364288	27	15045
2026-01-10 19:53:49.47	220.09	28.09	-30.2	-30.5	13.2	3.33e-05	0	35	0	20979908608	27	14694
2026-01-10 19:53:52.44	221.24	28.60	-30.0	-30.3	13.3	2.38e-05	0	35	0	21315452928	27	14315
2026-01-10 19:53:55.44	222.45	29.11	-30.1	-30.3	13.2	1.43e-05	0	35	0	21650997248	27	14431
2026-01-10 19:53:58.42	223.68	29.61	-29.8	-30.0	13.2	1.90e-05	0	35	0	21986541568	26	14729
2026-01-10 19:54:01.41	224.96	30.12	-29.7	-30.0	13.3	2.38e-05	0	35	0	22322085888	26	14676
2026-01-10 19:54:04.41	226.29	30.62	-29.5	-29.7	13.3	9.50e-06	0	35	0	22657630208	26	14272
2026-01-10 19:54:07.40	227.66	31.11	-29.3	-29.6	13.3	9.50e-06	0	35	0	22993174528	25	14819
2026-01-10 19:54:10.38	229.07	31.59	-29.1	-29.4	13.3	9.50e-06	0	35	0	23337107456	25	14571
2026-01-10 19:54:13.37	230.53	32.07	-29.1	-29.4	13.3	0.00e+00	0	35	0	23672651776	25	14551
2026-01-10 19:54:16.36	232.04	32.54	-29.2	-29.4	13.3	0.00e+00	0	35	0	23999807488	25	14575
2026-01-10 19:54:19.35	233.59	32.99	-29.0	-29.2	13.3	0.00e+00	0	35	0	24343740416	25	14253
2026-01-10 19:54:22.33	235.18	33.42	-28.8	-29.1	13.3	4.70e-06	0	35	0	24679284736	24	14895
2026-01-10 19:54:25.33	236.83	33.85	-28.7	-29.0	13.3	9.50e-06	0	35	0	25014829056	24	14739
2026-01-10 19:54:28.31	238.51	34.25	-28.6	-28.9	13.3	4.70e-06	0	35	0	25350373376	24	14533
2026-01-10 19:54:31.30	240.23	34.63	-28.6	-28.9	13.3	4.70e-06	0	35	0	25685917696	24	14466
2026-01-10 19:54:34.28	242.00	34.99	-28.5	-28.8	13.3	4.70e-06	0	35	0	26021462016	24	14306
2026-01-10 19:54:37.26	243.80	35.32	-28.2	-28.4	13.3	9.50e-06	0	35	0	26357006336	23	14552
2026-01-10 19:54:40.25	245.65	35.62	-28.1	-28.3	13.3	4.70e-06	0	35	0	26692550656	23	14431
2026-01-10 19:54:43.23	247.52	35.90	-28.1	-28.3	13.3	0.00e+00	0	35	0	27028094976	23	14408
2026-01-10 19:54:46.21	249.43	36.15	-28.0	-28.2	13.4	0.00e+00	0	35	0	27363639296	23	14270
2026-01-10 19:54:49.18	251.36	36.36	-27.9	-28.1	13.3	0.00e+00	0	35	0	27699183616	22	14924
2026-01-10 19:54:52.16	253.32	36.54	-27.8	-28.1	13.3	0.00e+00	0	35	0	28034727936	22	14894
2026-01-10 19:54:55.15	255.30	36.69	-27.8	-28.1	13.2	0.00e+00	0	35	0	28370272256	22	14906
2026-01-10 19:54:58.13	257.30	36.79	-27.8	-28.1	13.2	2.86e-05	0	35	0	28705816576	22	14876
2026-01-10 19:55:01.12	259.31	36.87	-27.8	-28.1	13.2	1.90e-05	0	35	0	29041360896	22	14867
2026-01-10 19:55:04.11	261.33	36.90	-27.9	-28.2	13.2	1.90e-05	0	35	0	29376905216	22	15072
2026-01-10 19:55:07.11	263.36	36.90	-27.9	-28.2	13.2	9.50e-06	0	35	0	29712449536	22	15042
2026-01-10 19:55:10.10	265.38	36.86	-27.9	-28.2	13.2	4.70e-06	0	35	0	30047993856	22	15002
2026-01-10 19:55:13.10	267.40	36.78	-28.1	-28.4	13.2	0.00e+00	0	35	0	30383538176	22	15381
2026-01-10 19:55:16.08	269.39	36.67	-28.1	-28.3	13.2	9.50e-06	0	35	0	30727471104	22	15288
2026-01-10 19:55:19.08	271.38	36.52	-28.3	-28.5	13.2	2.86e-05	0	35	0	31063015424	22	15625
2026-01-10 19:55:22.06	273.34	36.33	-28.2	-28.5	13.2	1.90e-05	0	35	0	31398559744	22	15504
2026-01-10 19:55:25.05	275.27	36.11	-28.3	-28.6	13.2	1.43e-05	0	35	0	31734104064	22	15698
2026-01-10 19:55:28.03	277.17	35.86	-28.4	-28.7	13.2	1.90e-05	0	35	0	32069648384	22	15855
2026-01-10 19:55:31.03	279.05	35.58	-28.5	-28.8	13.2	1.43e-05	0	35	0	32405192704	22	16036
2026-01-10 19:55:34.00	280.87	35.27	-28.7	-29.0	13.2	1.43e-05	0	35	0	32740737024	23	15490
2026-01-10 19:55:36.99	282.67	34.94	-28.7	-28.9	13.2	1.90e-05	0	35	0	33076281344	23	15466
2026-01-10 19:55:39.97	284.43	34.58	-28.9	-29.1	13.2	1.90e-05	0	35	0	33411825664	23	15815
2026-01-10 19:55:42.94	286.13	34.20	-28.8	-29.1	13.2	1.90e-05	0	35	0	33747369984	23	15735
2026-01-10 19:55:45.93	287.81	33.79	-29.0	-29.3	13.2	9.50e-06	0	35	0	34082914304	23	16037
2026-01-10 19:55:48.91	289.43	33.37	-29.0	-29.3	13.3	2.38e-05	0	35	0	34410070016	23	16021
2026-01-10 19:55:51.89	291.01	32.93	-29.0	-29.3	13.3	9.50e-06	0	35	0	34754002944	23	16061
2026-01-10 19:55:54.88	292.55	32.48	-29.1	-29.4	13.3	1.90e-05	0	35	0	35089547264	24	15357
2026-01-10 19:55:57.85	294.04	32.02	-29.3	-29.5	13.3	1.43e-05	0	35	0	35425091584	24	15629
2026-01-10 19:56:00.86	295.50	31.54	-29.4	-29.6	13.3	1.90e-05	0	35	0	35760635904	24	15830
2026-01-10 19:56:03.85	296.90	31.06	-29.6	-29.9	13.3	1.43e-05	0	35	0	36096180224	24	16228
2026-01-10 19:56:06.83	298.26	30.57	-29.6	-29.9	13.3	9.50e-06	0	35	0	36431724544	25	15421
2026-01-10 19:56:09.80	299.56	30.07	-29.8	-30.1	13.3	9.50e-06	0	35	0	36767268864	25	15673
2026-01-10 19:56:12.78	300.83	29.57	-29.9	-30.2	13.3	2.38e-05	0	35	0	37102813184	25	15980
2026-01-10 19:56:15.78	302.07	29.07	-30.0	-30.3	13.3	9.50e-06	0	35	0	37438357504	25	16066
2026-01-10 19:56:18.77	303.26	28.56	-30.0	-30.3	13.3	2.38e-05	0	35	0	37773901824	26	15282
2026-01-10 19:56:21.75	304.40	28.05	-30.2	-30.5	13.3	4.70e-06	0	35	0	38109446144	26	15529
2026-01-10 19:56:24.74	305.52	27.54	-30.5	-30.8	13.2	4.70e-06	0	35	0	38444990464	26	16041
2026-01-10 19:56:27.72	306.59	27.04	-30.7	-31.0	13.2	2.38e-05	0	35	0	38780534784	27	15576
2026-01-10 19:56:30.72	307.63	26.53	-30.7	-31.0	13.2	2.86e-05	0	35	0	39124467712	27	15604
2026-01-10 19:56:33.70	308.63	26.03	-31.0	-31.3	13.2	3.33e-05	0	35	0	39451623424	27	16137
2026-01-10 19:56:36.68	309.59	25.53	-31.0	-31.3	13.1	5.72e-05	0	35	0	39795556352	28	15196
2026-01-10 19:56:39.67	310.53	25.04	-31.2	-31.5	13.1	5.72e-05	0	35	0	40131100672	28	15584
2026-01-10 19:56:42.66	311.44	24.55	-31.4	-31.7	13.1	1.43e-05	0	35	0	40466644992	28	15864
2026-01-10 19:56:45.63	312.30	24.06	-31.4	-31.7	13.1	6.19e-05	0	35	0	40802189312	28	15867
2026-01-10 19:56:48.62	313.15	23.58	-31.7	-32.0	13.1	3.81e-05	0	35	0	41137733632	29	15533
2026-01-10 19:56:51.61	313.97	23.10	-32.0	-32.3	13.0	6.67e-05	0	35	0	41464889344	29	16076
2026-01-10 19:56:54.59	314.76	22.63	-32.2	-32.4	13.0	1.19e-04	0	35	0	41808822272	30	15435
2026-01-10 19:56:57.58	315.52	22.17	-32.2	-32.4	13.0	7.62e-05	0	36	0	42144366592	30	15444
2026-01-10 19:57:00.57	316.26	21.71	-32.3	-32.5	13.0	7.62e-05	0	35	0	42479910912	30	15626
2026-01-10 19:57:03.56	316.98	21.25	-32.4	-32.6	13.0	1.62e-04	0	35	0	42815455232	30	15814
2026-01-10 19:57:06.55	317.67	20.81	-32.5	-32.8	13.0	2.05e-04	0	36	0	43150999552	31	15142
2026-01-10 19:57:09.55	318.35	20.36	-32.5	-32.8	13.0	1.10e-04	0	35	0	43486543872	31	15141
2026-01-10 19:57:12.53	319.00	19.93	-32.6	-32.9	13.0	1.33e-04	0	35	0	43822088192	31	15416
2026-01-10 19:57:15.51	319.63	19.50	-32.8	-33.1	13.0	1.43e-04	0	36	0	44166021120	31	15684
2026-01-10 19:57:18.51	320.24	19.08	-33.0	-33.3	12.9	1.86e-04	0	36	0	44493176832	31	16089
2026-01-10 19:57:21.49	320.83	18.66	-33.2	-33.5	12.9	2.48e-04	0	36	0	44828721152	32	15583
2026-01-10 19:57:24.49	321.41	18.25	-33.3	-33.6	12.9	3.34e-04	0	36	0	45172654080	32	15755
2026-01-10 19:57:27.47	321.96	17.85	-33.4	-33.7	12.9	3.29e-04	0	36	0	45508198400	32	15921
2026-01-10 19:57:30.46	322.51	17.45	-33.6	-33.9	12.9	3.81e-04	0	36	0	45835354112	33	15426
2026-01-10 19:57:33.45	323.03	17.06	-33.7	-34.0	12.9	4.15e-04	0	36	0	46179287040	33	15491
2026-01-10 19:57:36.45	323.54	16.67	-33.9	-34.2	12.8	5.77e-04	0	36	0	46514831360	33	15852
2026-01-10 19:57:39.44	324.04	16.29	-34.0	-34.3	12.8	5.53e-04	0	36	0	46850375680	33	16157
2026-01-10 19:57:42.42	324.52	15.92	-34.2	-34.5	12.8	6.82e-04	0	36	0	47185920000	34	15617
2026-01-10 19:57:45.41	324.99	15.55	-34.3	-34.6	12.8	7.58e-04	0	36	0	47521464320	34	15770
2026-01-10 19:57:48.39	325.44	15.19	-34.3	-34.6	12.8	9.06e-04	0	36	0	47857008640	34	15693
2026-01-10 19:57:51.39	325.89	14.83	-34.2	-34.5	12.8	8.20e-04	0	36	0	48192552960	34	15633
2026-01-10 19:57:54.39	326.32	14.47	-34.3	-34.6	12.8	8.77e-04	0	36	0	48536485888	34	15749
2026-01-10 19:57:57.39	326.74	14.13	-34.5	-34.8	12.7	8.11e-04	0	36	0	48872030208	34	16109
2026-01-10 19:58:00.38	327.15	13.78	-34.7	-35.0	12.7	1.15e-03	0	36	0	49207574528	35	15504
2026-01-10 19:58:03.38	327.55	13.45	-34.8	-35.1	12.6	1.31e-03	0	36	0	49543118848	35	15820
2026-01-10 19:58:06.38	327.94	13.11	-35.0	-35.3	12.6	1.75e-03	0	36	0	49878663168	35	16084
2026-01-10 19:58:09.37	328.32	12.79	-37.6	-38.0	12.8	1.64e-03	0	36	0	50222596096	41	15484
2026-01-10 19:58:12.35	328.69	12.46	-37.8	-38.1	12.8	9.44e-04	0	36	0	50549751808	41	15716
2026-01-10 19:58:15.34	329.05	12.15	-37.7	-38.0	12.7	1.05e-03	0	36	0	50885296128	41	15600
2026-01-10 19:58:18.34	329.40	11.83	-37.8	-38.1	12.7	1.09e-03	0	36	0	51229229056	41	15777
2026-01-10 19:58:21.33	329.74	11.52	-38.0	-38.3	12.7	1.28e-03	0	36	0	51564773376	41	16143
2026-01-10 19:58:24.32	330.08	11.22	-38.0	-38.3	12.7	1.34e-03	0	36	0	51900317696	42	15230
2026-01-10 19:58:27.31	330.40	10.92	-38.5	-38.8	12.6	1.83e-03	0	36	0	52235862016	42	16141
2026-01-10 19:58:30.31	330.72	10.62	-38.7	-39.0	12.6	2.23e-03	0	36	0	52571406336	43	15549
2026-01-10 19:58:33.30	331.03	10.33	-38.9	-39.3	12.5	2.22e-03	0	36	0	52906950656	43	16063
2026-01-10 19:58:36.28	331.34	10.04	-39.0	-39.3	12.5	3.05e-03	0	36	0	53242494976	43	16109
2026-01-10 19:58:39.27	331.63	9.76	-39.2	-39.5	12.5	3.17e-03	0	36	0	53586427904	44	15562
2026-01-10 19:58:42.25	331.92	9.48	-39.0	-39.4	12.5	3.37e-03	0	36	0	53913583616	44	15307
2026-01-10 19:58:45.25	332.21	9.20	-39.2	-39.5	12.5	3.29e-03	0	36	0	54249127936	44	15589
2026-01-10 19:58:48.25	332.49	8.93	-39.3	-39.6	12.4	3.71e-03	0	36	0	54593060864	44	15724
2026-01-10 19:58:51.23	332.76	8.66	-39.3	-39.7	12.4	4.38e-03	0	36	0	54928605184	44	15868
2026-01-10 19:58:54.21	333.03	8.39	-39.4	-39.7	12.4	5.09e-03	0	36	0	55264149504	45	15118
2026-01-10 19:58:57.20	333.29	8.13	-39.5	-39.8	12.4	6.10e-03	0	36	0	55599693824	45	15231
2026-01-10 19:59:00.19	333.54	7.87	-39.7	-40.0	12.3	6.10e-03	0	36	0	55935238144	45	15586
2026-01-10 19:59:03.18	333.79	7.61	-39.8	-40.2	12.3	6.72e-03	0	36	0	56270782464	45	15870
2026-01-10 19:59:06.18	334.04	7.35	-39.9	-40.2	12.3	9.05e-03	0	36	0	56606326784	45	16016
2026-01-10 19:59:09.18	334.28	7.10	-40.0	-40.4	12.2	8.99e-03	0	36	0	56950259712	45	16221
2026-01-10 19:59:12.16	334.51	6.85	-40.4	-40.7	12.1	1.13e-02	0	36	0	57285804032	46	15963
2026-01-10 19:59:15.16	334.74	6.61	-40.5	-40.9	12.1	1.26e-02	0	36	0	57612959744	46	16263
2026-01-10 19:59:18.15	334.97	6.37	-40.5	-40.8	12.1	1.36e-02	0	36	0	57956892672	47	15276
2026-01-10 19:59:21.14	335.19	6.13	-40.6	-40.9	12.1	1.47e-02	0	36	0	58292436992	47	15388
2026-01-10 19:59:24.14	335.41	5.89	-41.0	-41.3	11.9	1.45e-02	0	36	0	58627981312	47	16145
2026-01-10 19:59:27.12	335.62	5.65	-40.8	-41.2	11.9	1.77e-02	0	36	0	58963525632	47	15854
2026-01-10 19:59:30.12	335.83	5.42	-40.8	-41.2	11.9	1.90e-02	0	36	0	59307458560	47	15885
2026-01-10 19:59:33.11	336.04	5.19	-40.9	-41.3	11.9	2.05e-02	0	36	0	59634614272	47	16025
2026-01-10 19:59:36.09	336.24	4.96	-55.8	-57.7	6.5	1.95e-02	0	36	104	59953381376	77	19004
2026-01-10 19:59:39.09	336.44	4.74	-58.8	-62.1	6.2	1.95e-02	0	35	104	59953381376	83	22118
2026-01-10 19:59:42.08	336.63	4.52	-59.4	-62.6	6.1	1.95e-02	0	35	104	59953381376	84	22292
2026-01-10 19:59:45.08	336.82	4.29	-59.6	-62.8	6.2	3.40e-02	0	35	104	59953381376	84	22845
2026-01-10 19:59:48.06	337.01	4.08	-59.7	-63.0	6.2	3.40e-02	0	35	104	59953381376	85	21858
2026-01-10 19:59:51.04	337.20	3.86	-59.8	-63.0	6.2	3.40e-02	0	35	104	59953381376	85	21971
2026-01-10 19:59:54.04	337.38	3.65	-59.8	-63.0	6.1	3.40e-02	0	35	104	59953381376	85	22091
2026-01-10 19:59:57.03	337.56	3.43	-59.8	-63.1	6.2	0.00e+00	0	35	104	59953381376	85	22133
2026-01-10 20:00:00.02	337.73	3.22	-59.7	-63.0	6.2	0.00e+00	0	35	104	59953381376	85	21861
2026-01-10 20:00:03.00	337.90	3.02	-59.7	-62.9	6.2	0.00e+00	0	35	104	59953381376	85	21761
2026-01-10 20:00:06.00	338.07	2.81	-59.7	-62.9	6.2	0.00e+00	0	35	104	59953381376	85	21690
2026-01-10 20:00:09.00	338.24	2.60	-59.6	-62.9	6.2	0.00e+00	0	35	104	59953381376	85	21717
2026-01-10 20:00:12.00	338.41	2.40	-59.6	-62.8	6.2	0.00e+00	0	34	104	59953381376	85	21487
2026-01-10 20:00:14.99	338.57	2.20	-59.6	-62.8	6.2	0.00e+00	0	34	104	59953381376	85	21482
2026-01-10 20:00:17.98	338.73	2.00	-59.5	-62.8	6.1	0.00e+00	0	34	104	59953381376	85	21430

#Closed at: 2026-01-10 20:00:19
#Recorded file [59953 MB]: D:/lorett/data/31004_260110_224956.dat