passes_logs/2026/01/10/R3.2S_Murmansk/R3.2S_Murmansk__20260110_092208_SUOMI_NPP_rec.log

#Pass ID: 20260110_092208_SUOMI NPP
#Satellite: SUOMI NPP
#Configuration: NPP
#almurnet v.1.7.20251203
#Start time: 2026-01-10 09:22:10

#Version: 2.2.20231116
#Station: R3.2S_Murmansk
#Location: 33.079688 lon 68.888172 lat
#TLE: 1 37849U 11061A   26009.81756760  .00000113  00000+0  74747-4 0  9994
#TLE: 2 37849  98.7806 311.9110 0002525  72.5604 287.5848 14.19524046735974

#Time	Az	El	Level	Level2	SNR	BER	BlckErr	Temp	State	Recorded	gain1	gain2
2026-01-10 09:22:10.82	146.25	2.13	-57.1	-73.1	3.8	1.49e+00	0	22	0	0	80	22602
2026-01-10 09:22:14.73	146.24	2.38	-57.1	-73.0	3.8	1.49e+00	0	22	104	0	79	23818
2026-01-10 09:22:18.65	146.23	2.64	-57.1	-73.0	3.8	1.49e+00	0	22	104	0	79	23794
2026-01-10 09:22:22.56	146.22	2.90	-57.1	-73.0	3.8	1.49e+00	0	22	104	0	79	23627
2026-01-10 09:22:26.48	146.20	3.16	-57.1	-72.9	3.8	1.49e+00	0	22	104	0	79	23412
2026-01-10 09:22:30.38	146.19	3.42	-57.1	-72.8	3.8	1.49e+00	0	22	104	0	79	23290
2026-01-10 09:22:34.29	146.17	3.69	-57.1	-72.3	3.8	1.49e+00	0	22	104	0	79	21789
2026-01-10 09:22:38.21	146.16	3.96	-57.0	-69.7	4.2	1.47e+00	0	22	0	0	79	16213
2026-01-10 09:22:42.12	146.14	4.23	-56.5	-64.7	6.7	2.23e-01	0	22	0	5242880	79	9142
2026-01-10 09:22:46.03	146.13	4.50	-55.7	-61.4	9.7	7.57e-03	0	22	0	12582912	78	6631
2026-01-10 09:22:49.95	146.11	4.78	-54.8	-59.2	11.5	7.01e-05	0	22	0	19922944	76	5733
2026-01-10 09:22:53.86	146.09	5.06	-55.0	-59.7	11.1	1.91e-04	0	22	0	27262976	76	6063
2026-01-10 09:22:57.77	146.08	5.34	-56.8	-65.6	6.2	1.63e-01	0	23	0	34603008	78	10713
2026-01-10 09:23:01.68	146.06	5.62	-54.0	-57.4	12.8	0.00e+00	0	22	0	41943040	74	5266
2026-01-10 09:23:05.59	146.04	5.91	-53.9	-57.2	13.0	0.00e+00	0	23	0	49283072	74	5134
2026-01-10 09:23:09.51	146.02	6.21	-53.6	-56.5	13.4	0.00e+00	0	22	0	56623104	73	5034
2026-01-10 09:23:13.41	146.00	6.50	-53.7	-56.7	13.3	0.00e+00	0	23	0	63963136	73	5120
2026-01-10 09:23:17.31	145.98	6.80	-53.6	-56.5	13.5	0.00e+00	0	23	0	71303168	73	5009
2026-01-10 09:23:21.22	145.95	7.10	-53.6	-56.5	13.4	0.00e+00	0	23	0	78643200	73	5030
2026-01-10 09:23:25.14	145.93	7.40	-53.4	-56.2	13.7	0.00e+00	0	23	0	85983232	73	4848
2026-01-10 09:23:29.03	145.91	7.71	-53.3	-56.0	13.8	0.00e+00	0	23	0	93323264	73	4737
2026-01-10 09:23:32.93	145.88	8.02	-53.4	-56.1	13.8	0.00e+00	0	23	0	100663296	73	4806
2026-01-10 09:23:36.84	145.86	8.34	-53.2	-55.7	13.9	0.00e+00	0	23	0	108003328	72	4867
2026-01-10 09:23:40.74	145.83	8.66	-53.1	-55.6	14.0	0.00e+00	0	23	0	115343360	72	4779
2026-01-10 09:23:44.65	145.81	8.99	-53.1	-55.6	14.0	0.00e+00	0	23	0	122683392	72	4807
2026-01-10 09:23:48.55	145.78	9.31	-52.9	-55.3	14.2	0.00e+00	0	23	0	130023424	72	4636
2026-01-10 09:23:52.46	145.75	9.65	-52.9	-55.3	14.2	0.00e+00	0	23	0	137363456	72	4605
2026-01-10 09:23:56.36	145.72	9.99	-52.8	-55.2	14.3	0.00e+00	0	23	0	144703488	72	4592
2026-01-10 09:24:00.27	145.69	10.33	-52.9	-55.2	14.3	0.00e+00	0	23	0	152043520	72	4581
2026-01-10 09:24:04.18	145.66	10.68	-52.9	-55.2	14.3	0.00e+00	0	23	0	159383552	72	4597
2026-01-10 09:24:08.09	145.63	11.03	-52.5	-54.7	14.4	0.00e+00	0	23	0	166723584	71	4567
2026-01-10 09:24:12.00	145.59	11.39	-52.5	-54.7	14.5	0.00e+00	0	23	0	174063616	71	4553
2026-01-10 09:24:15.90	145.56	11.75	-52.3	-54.4	14.6	0.00e+00	0	23	0	181403648	71	4440
2026-01-10 09:24:19.83	145.52	12.12	-52.5	-54.7	14.4	0.00e+00	0	23	0	188743680	71	4587
2026-01-10 09:24:23.74	145.49	12.49	-52.1	-54.1	14.6	0.00e+00	0	23	0	196083712	70	4526
2026-01-10 09:24:27.64	145.45	12.87	-52.1	-54.1	14.6	0.00e+00	0	23	0	203423744	70	4519
2026-01-10 09:24:31.55	145.41	13.26	-52.1	-54.1	14.7	0.00e+00	0	23	0	210763776	70	4529
2026-01-10 09:24:35.46	145.37	13.65	-52.2	-54.3	14.5	0.00e+00	0	23	0	218103808	70	4628
2026-01-10 09:24:39.37	145.32	14.05	-52.1	-54.2	14.6	0.00e+00	0	23	0	225443840	70	4563
2026-01-10 09:24:43.28	145.28	14.45	-52.1	-54.2	14.6	0.00e+00	0	23	0	232783872	70	4567
2026-01-10 09:24:47.19	145.23	14.87	-51.9	-53.9	14.8	0.00e+00	0	23	0	240123904	70	4428
2026-01-10 09:24:51.11	145.19	15.29	-51.4	-53.6	14.8	0.00e+00	0	23	0	247463936	69	4545
2026-01-10 09:24:55.02	145.14	15.71	-51.2	-53.4	15.0	0.00e+00	0	23	0	254803968	69	4414
2026-01-10 09:24:58.94	145.08	16.15	-51.2	-53.4	14.8	0.00e+00	0	23	0	262144000	68	4655
2026-01-10 09:25:02.84	145.03	16.59	-51.1	-53.2	14.9	0.00e+00	0	23	0	269484032	68	4594
2026-01-10 09:25:06.76	144.98	17.04	-50.9	-52.9	15.1	0.00e+00	0	23	0	276824064	68	4420
2026-01-10 09:25:10.67	144.92	17.50	-51.0	-53.1	15.0	0.00e+00	0	23	0	284164096	68	4520
2026-01-10 09:25:14.58	144.86	17.97	-50.9	-53.0	15.1	0.00e+00	0	23	0	291504128	68	4448
2026-01-10 09:25:18.49	144.80	18.44	-51.0	-53.1	15.0	0.00e+00	0	23	0	298844160	68	4503
2026-01-10 09:25:22.40	144.73	18.93	-50.9	-52.9	15.1	0.00e+00	0	23	0	306184192	68	4418
2026-01-10 09:25:26.32	144.67	19.42	-50.9	-52.9	15.1	0.00e+00	0	23	0	313524224	68	4417
2026-01-10 09:25:30.22	144.60	19.93	-51.0	-53.1	15.0	0.00e+00	0	23	0	320864256	68	4510
2026-01-10 09:25:34.14	144.53	20.44	-51.1	-53.3	14.9	0.00e+00	0	23	0	328204288	68	4607
2026-01-10 09:25:38.04	144.45	20.97	-51.0	-53.2	15.0	0.00e+00	0	23	0	335544320	68	4581
2026-01-10 09:25:41.95	144.37	21.51	-51.0	-53.2	15.0	0.00e+00	0	23	0	342884352	68	4574
2026-01-10 09:25:45.86	144.29	22.06	-50.9	-53.1	15.1	0.00e+00	0	23	0	350224384	68	4499
2026-01-10 09:25:49.77	144.21	22.62	-50.9	-53.0	15.1	0.00e+00	0	23	0	357564416	68	4451
2026-01-10 09:25:53.67	144.12	23.19	-50.4	-52.3	15.2	0.00e+00	0	23	0	364904448	67	4389
2026-01-10 09:25:57.57	144.03	23.77	-50.0	-51.8	15.3	0.00e+00	0	23	0	372244480	66	4374
2026-01-10 09:26:01.47	143.93	24.37	-50.0	-51.7	15.3	0.00e+00	0	23	0	379584512	66	4334
2026-01-10 09:26:05.37	143.83	24.99	-50.1	-51.9	15.2	0.00e+00	0	23	0	386924544	66	4439
2026-01-10 09:26:09.28	143.72	25.61	-50.2	-52.1	15.1	0.00e+00	0	23	0	394264576	66	4512
2026-01-10 09:26:13.18	143.61	26.26	-50.1	-51.9	15.3	0.00e+00	0	23	0	401604608	66	4398
2026-01-10 09:26:17.09	143.50	26.91	-50.6	-52.4	15.0	0.00e+00	0	23	0	408944640	66	4691
2026-01-10 09:26:21.00	143.38	27.59	-51.1	-53.1	14.8	0.00e+00	0	23	0	415236096	67	4787
2026-01-10 09:26:24.91	143.25	28.28	-51.2	-53.2	14.8	0.00e+00	0	23	0	423624704	67	4824
2026-01-10 09:26:28.82	143.12	28.99	-51.4	-53.4	14.8	0.00e+00	0	23	0	430964736	68	4703
2026-01-10 09:26:32.70	142.98	29.71	-52.2	-54.5	14.5	0.00e+00	0	23	0	437256192	69	4988
2026-01-10 09:26:36.62	142.83	30.46	-52.9	-55.5	14.2	0.00e+00	0	23	0	444596224	71	5010
2026-01-10 09:26:40.53	142.68	31.23	-52.9	-55.4	14.2	0.00e+00	0	23	0	451936256	71	4959
2026-01-10 09:26:44.44	142.51	32.01	-53.6	-56.6	13.6	0.00e+00	0	23	0	459276288	72	5384
2026-01-10 09:26:48.36	142.34	32.82	-53.5	-56.5	13.9	0.00e+00	0	23	0	466616320	73	4990
2026-01-10 09:26:52.27	142.16	33.65	-53.4	-56.2	13.9	0.00e+00	0	23	0	473956352	72	5110
2026-01-10 09:26:56.18	141.97	34.50	-53.5	-56.6	13.7	0.00e+00	0	23	0	481296384	72	5353
2026-01-10 09:27:00.09	141.77	35.38	-52.2	-54.5	14.8	0.00e+00	0	23	0	488636416	71	4481
2026-01-10 09:27:03.98	141.55	36.28	-51.3	-53.2	15.0	0.00e+00	0	23	0	495976448	68	4584
2026-01-10 09:27:07.89	141.33	37.20	-51.0	-52.9	15.1	0.00e+00	0	23	0	503316480	68	4403
2026-01-10 09:27:11.79	141.08	38.15	-50.5	-52.4	15.1	0.00e+00	0	23	0	510656512	66	4656
2026-01-10 09:27:15.69	140.83	39.12	-51.2	-53.6	14.7	0.00e+00	0	23	0	517996544	67	5050
2026-01-10 09:27:19.59	140.55	40.13	-52.3	-55.3	14.1	0.00e+00	0	23	0	525336576	69	5517
2026-01-10 09:27:23.49	140.26	41.16	-52.8	-56.0	14.0	0.00e+00	0	23	0	532676608	71	5320
2026-01-10 09:27:27.41	139.95	42.22	-52.7	-55.9	13.9	0.00e+00	0	23	0	540016640	71	5243
2026-01-10 09:27:31.31	139.61	43.31	-53.4	-57.5	13.1	0.00e+00	0	23	0	547356672	72	5938
2026-01-10 09:27:35.23	139.25	44.44	-53.7	-57.6	13.0	0.00e+00	0	23	0	554696704	72	6011
2026-01-10 09:27:39.14	138.86	45.60	-52.4	-55.3	14.3	0.00e+00	0	23	0	562036736	71	4902
2026-01-10 09:27:43.06	138.44	46.79	-52.6	-55.6	14.2	0.00e+00	0	23	0	569376768	71	5052
2026-01-10 09:27:46.96	137.98	48.00	-52.2	-54.6	14.6	0.00e+00	0	23	0	576716800	70	4772
2026-01-10 09:27:50.87	137.49	49.26	-51.4	-53.6	14.9	0.00e+00	0	23	0	584056832	69	4530
2026-01-10 09:27:54.77	136.95	50.54	-51.6	-54.1	14.7	0.00e+00	0	23	0	591396864	69	4798
2026-01-10 09:27:58.69	136.36	51.87	-50.9	-53.1	15.0	0.00e+00	0	23	0	598736896	68	4529
2026-01-10 09:28:02.59	135.72	53.22	-50.8	-53.2	15.1	0.00e+00	0	23	0	606076928	68	4550
2026-01-10 09:28:06.51	135.01	54.61	-50.0	-52.0	15.3	0.00e+00	0	23	0	613416960	66	4454
2026-01-10 09:28:10.43	134.23	56.03	-50.7	-52.8	14.8	0.00e+00	0	23	0	620756992	66	4896
2026-01-10 09:28:14.35	133.35	57.49	-51.8	-54.0	14.5	0.00e+00	0	24	0	628097024	68	5022
2026-01-10 09:28:18.25	132.38	58.97	-52.1	-54.3	14.7	0.00e+00	0	23	0	635437056	70	4619
2026-01-10 09:28:22.15	131.30	60.48	-50.0	-51.6	15.3	0.00e+00	0	23	0	642777088	66	4279
2026-01-10 09:28:26.07	130.06	62.02	-50.7	-52.6	15.1	0.00e+00	0	23	0	650117120	67	4495
2026-01-10 09:28:29.98	128.66	63.57	-51.1	-53.2	14.7	0.00e+00	0	23	0	657457152	67	4856
2026-01-10 09:28:33.89	127.06	65.15	-50.6	-52.6	14.9	0.00e+00	0	23	0	664797184	66	4808
2026-01-10 09:28:37.81	125.21	66.74	-51.9	-54.1	14.7	0.00e+00	0	23	0	672137216	69	4769
2026-01-10 09:28:41.71	123.07	68.33	-51.2	-53.3	14.7	0.00e+00	0	23	0	679477248	67	4895
2026-01-10 09:28:45.62	120.55	69.92	-52.5	-55.0	14.4	0.00e+00	0	23	0	686817280	70	4993
2026-01-10 09:28:49.55	117.54	71.50	-51.6	-53.6	14.9	0.00e+00	0	23	0	694157312	69	4539
2026-01-10 09:28:53.46	113.97	73.03	-51.4	-53.3	14.9	0.00e+00	0	24	0	701497344	68	4622
2026-01-10 09:28:57.37	109.65	74.51	-52.6	-54.7	14.6	0.00e+00	0	23	0	708837376	71	4589
2026-01-10 09:29:01.27	104.43	75.90	-52.7	-55.0	14.5	0.00e+00	0	23	0	716177408	71	4710
2026-01-10 09:29:05.18	98.07	77.16	-52.5	-54.6	14.7	0.00e+00	0	24	0	723517440	71	4522
2026-01-10 09:29:09.08	90.40	78.25	-53.5	-56.1	14.0	0.00e+00	0	24	0	730857472	72	5092
2026-01-10 09:29:13.00	81.28	79.10	-55.7	-60.1	11.9	5.30e-06	0	23	0	738197504	76	6384
2026-01-10 09:29:16.90	70.96	79.63	-56.3	-61.1	10.9	8.30e-06	0	23	0	745537536	78	6405
2026-01-10 09:29:20.81	59.86	79.81	-55.9	-60.2	12.0	1.50e-06	0	23	0	752877568	77	6079
2026-01-10 09:29:24.72	48.80	79.60	-53.2	-55.8	14.2	0.00e+00	0	23	0	760217600	72	4894
2026-01-10 09:29:28.65	38.50	79.03	-54.0	-56.9	13.8	0.00e+00	0	24	0	767557632	74	4935
2026-01-10 09:29:32.55	29.54	78.17	-53.9	-56.5	14.1	0.00e+00	0	23	0	774897664	74	4759
2026-01-10 09:29:36.45	21.99	77.07	-55.5	-59.7	12.1	8.30e-06	0	23	0	782237696	76	6081
2026-01-10 09:29:40.37	15.72	75.79	-53.9	-56.5	14.2	0.00e+00	0	23	0	789577728	74	4709
2026-01-10 09:29:44.28	10.57	74.39	-51.7	-53.6	15.0	0.00e+00	0	23	0	796917760	69	4499
2026-01-10 09:29:48.19	6.33	72.91	-49.7	-51.1	15.4	0.00e+00	0	23	0	804257792	65	4288
2026-01-10 09:29:52.10	2.82	71.37	-50.5	-52.1	15.3	0.00e+00	0	23	0	811597824	67	4253
2026-01-10 09:29:56.00	359.88	69.80	-51.4	-53.4	15.1	0.00e+00	0	23	0	818937856	69	4392
2026-01-10 09:29:59.91	357.39	68.22	-52.8	-55.6	14.1	0.00e+00	0	23	0	826277888	70	5365
2026-01-10 09:30:03.83	355.27	66.62	-51.8	-54.0	14.6	0.00e+00	0	23	0	833617920	68	5020
2026-01-10 09:30:07.75	353.44	65.03	-51.4	-53.3	15.1	0.00e+00	0	23	0	840957952	69	4374
2026-01-10 09:30:11.65	351.86	63.47	-52.5	-54.9	14.6	0.00e+00	0	23	0	848297984	71	4701
2026-01-10 09:30:15.52	350.49	61.93	-50.9	-52.8	15.2	0.00e+00	0	23	0	855638016	68	4348
2026-01-10 09:30:19.39	349.29	60.41	-50.2	-51.9	15.1	0.00e+00	0	23	0	862978048	65	4690
2026-01-10 09:30:23.26	348.21	58.92	-52.8	-55.2	14.2	0.00e+00	0	23	0	870318080	70	5144
2026-01-10 09:30:27.13	347.26	57.46	-51.9	-53.9	14.7	0.00e+00	0	23	0	877658112	69	4704
2026-01-10 09:30:30.99	346.40	56.03	-53.7	-56.7	13.6	0.00e+00	0	23	0	884998144	72	5460
2026-01-10 09:30:34.86	345.63	54.63	-51.2	-53.4	14.7	0.00e+00	0	23	0	892338176	67	4977
2026-01-10 09:30:38.73	344.93	53.26	-49.7	-51.4	15.2	0.00e+00	0	23	0	898629632	64	4692
2026-01-10 09:30:42.61	344.29	51.92	-51.3	-53.4	14.7	0.00e+00	0	23	0	905969664	67	4927
2026-01-10 09:30:46.47	343.71	50.62	-52.3	-54.8	14.6	0.00e+00	0	23	0	913309696	71	4602
2026-01-10 09:30:50.33	343.18	49.35	-52.9	-55.5	14.1	0.00e+00	0	23	0	920649728	71	5021
2026-01-10 09:30:54.20	342.69	48.11	-53.6	-56.5	13.8	0.00e+00	0	23	0	927989760	72	5307
2026-01-10 09:30:58.07	342.24	46.90	-52.7	-55.0	14.6	0.00e+00	0	23	0	935329792	71	4729
2026-01-10 09:31:01.93	341.82	45.73	-51.2	-53.1	15.0	0.00e+00	0	23	0	942669824	68	4533
2026-01-10 09:31:05.80	341.44	44.59	-54.6	-58.4	12.7	0.00e+00	0	23	0	950009856	74	5913
2026-01-10 09:31:09.67	341.08	43.47	-56.3	-62.9	9.6	2.28e-03	0	24	0	957349888	77	8367
2026-01-10 09:31:13.55	340.74	42.39	-52.7	-55.0	14.6	0.00e+00	0	24	0	964689920	72	4490
2026-01-10 09:31:17.42	340.43	41.34	-53.2	-55.8	14.2	0.00e+00	0	23	0	972029952	72	4925
2026-01-10 09:31:21.28	340.14	40.32	-55.3	-59.9	11.7	9.10e-06	0	23	0	978321408	75	6623
2026-01-10 09:31:25.15	339.87	39.32	-50.9	-52.8	15.2	0.00e+00	0	23	0	985661440	68	4343
2026-01-10 09:31:29.02	339.61	38.35	-51.8	-54.1	14.5	0.00e+00	0	23	0	993001472	68	5048
2026-01-10 09:31:32.89	339.37	37.41	-53.3	-56.2	13.9	0.00e+00	0	24	0	1000341504	72	5131
2026-01-10 09:31:36.76	339.14	36.49	-53.0	-55.8	14.1	0.00e+00	0	23	0	1007681536	72	4894
2026-01-10 09:31:40.62	338.93	35.60	-52.8	-55.5	14.3	0.00e+00	0	23	0	1015021568	72	4743
2026-01-10 09:31:44.49	338.73	34.73	-51.9	-54.2	14.8	0.00e+00	0	23	0	1022361600	70	4549
2026-01-10 09:31:48.36	338.54	33.89	-52.4	-54.9	14.2	0.00e+00	0	23	0	1029701632	69	5237
2026-01-10 09:31:52.22	338.36	33.07	-54.5	-58.4	12.7	7.00e-07	0	23	0	1037041664	74	5914
2026-01-10 09:31:56.09	338.19	32.27	-53.9	-57.0	13.7	0.00e+00	0	23	0	1044381696	74	5016
2026-01-10 09:31:59.95	338.03	31.49	-52.5	-54.9	14.6	0.00e+00	0	23	0	1051721728	71	4683
2026-01-10 09:32:03.82	337.87	30.73	-52.2	-54.4	14.6	0.00e+00	0	24	0	1059061760	70	4697
2026-01-10 09:32:07.69	337.73	29.99	-51.8	-53.9	15.0	0.00e+00	0	23	0	1066401792	70	4402
2026-01-10 09:32:11.56	337.59	29.26	-52.0	-54.1	14.8	0.00e+00	0	23	0	1072693248	70	4542
2026-01-10 09:32:15.42	337.46	28.56	-53.1	-55.7	14.0	0.00e+00	0	23	0	1080033280	71	5125
2026-01-10 09:32:19.29	337.33	27.87	-53.4	-56.0	14.0	0.00e+00	0	23	0	1087373312	72	5024
2026-01-10 09:32:23.15	337.21	27.20	-51.8	-53.8	15.0	0.00e+00	0	23	0	1094713344	70	4362
2026-01-10 09:32:27.02	337.10	26.55	-50.5	-52.2	15.3	0.00e+00	0	23	0	1102053376	67	4300
2026-01-10 09:32:30.89	336.99	25.91	-50.6	-52.4	15.0	0.00e+00	0	23	0	1109393408	66	4675
2026-01-10 09:32:34.76	336.89	25.28	-52.4	-54.9	14.3	0.00e+00	0	23	0	1116733440	70	4938
2026-01-10 09:32:38.63	336.79	24.67	-53.1	-55.9	13.8	0.00e+00	0	23	0	1124073472	71	5271
2026-01-10 09:32:42.49	336.69	24.08	-51.7	-53.9	14.7	0.00e+00	0	23	0	1131413504	69	4688
2026-01-10 09:32:46.35	336.60	23.50	-50.6	-52.5	15.1	0.00e+00	0	23	0	1138753536	67	4472
2026-01-10 09:32:50.22	336.51	22.92	-50.8	-52.7	14.9	0.00e+00	0	23	0	1146093568	67	4566
2026-01-10 09:32:54.09	336.43	22.37	-50.8	-52.7	14.9	0.00e+00	0	23	0	1152385024	67	4578
2026-01-10 09:32:57.96	336.35	21.82	-50.7	-52.6	15.0	0.00e+00	0	23	0	1159725056	67	4517
2026-01-10 09:33:01.84	336.27	21.28	-50.6	-52.5	15.1	0.00e+00	0	23	0	1167065088	67	4479
2026-01-10 09:33:05.71	336.20	20.76	-51.1	-53.2	14.7	0.00e+00	0	23	0	1174405120	67	4863
2026-01-10 09:33:09.58	336.13	20.25	-51.0	-53.0	14.8	0.00e+00	0	23	0	1181745152	67	4754
2026-01-10 09:33:13.45	336.06	19.74	-51.6	-53.9	14.5	0.00e+00	0	23	0	1189085184	68	4958
2026-01-10 09:33:17.31	335.99	19.25	-51.8	-54.2	14.4	0.00e+00	0	23	0	1196425216	68	5128
2026-01-10 09:33:21.19	335.93	18.77	-52.2	-54.9	14.1	0.00e+00	0	23	0	1203765248	69	5234
2026-01-10 09:33:25.06	335.87	18.29	-53.1	-56.2	13.6	0.00e+00	0	23	0	1211105280	71	5415
2026-01-10 09:33:28.93	335.81	17.83	-53.4	-56.7	13.4	0.00e+00	0	23	0	1218445312	72	5443
2026-01-10 09:33:32.80	335.76	17.37	-53.3	-56.6	13.4	0.00e+00	0	23	0	1225785344	72	5371
2026-01-10 09:33:36.67	335.70	16.92	-53.3	-56.5	13.5	0.00e+00	0	23	0	1233125376	72	5282
2026-01-10 09:33:40.54	335.65	16.48	-52.8	-55.6	14.1	0.00e+00	0	23	0	1240465408	72	4800
2026-01-10 09:33:44.41	335.60	16.05	-52.3	-54.9	14.4	0.00e+00	0	23	0	1246756864	71	4660
2026-01-10 09:33:48.28	335.55	15.62	-52.3	-54.9	14.3	0.00e+00	0	23	0	1254096896	71	4675
2026-01-10 09:33:52.14	335.51	15.21	-52.1	-54.6	14.4	0.00e+00	0	23	0	1261436928	70	4767
2026-01-10 09:33:56.03	335.46	14.79	-52.3	-54.9	14.2	0.00e+00	0	23	0	1268776960	70	4941
2026-01-10 09:33:59.90	335.42	14.39	-52.4	-55.0	14.1	0.00e+00	0	23	0	1276116992	70	5013
2026-01-10 09:34:03.77	335.38	13.99	-52.3	-54.9	14.2	0.00e+00	0	23	0	1283457024	70	4965
2026-01-10 09:34:07.64	335.34	13.60	-52.3	-54.9	14.2	0.00e+00	0	23	0	1290797056	70	4969
2026-01-10 09:34:11.51	335.30	13.22	-52.3	-54.9	14.2	0.00e+00	0	23	0	1298137088	70	4934
2026-01-10 09:34:15.40	335.26	12.84	-52.2	-54.8	14.2	0.00e+00	0	23	0	1305477120	70	4889
2026-01-10 09:34:19.30	335.23	12.46	-52.4	-55.1	14.1	0.00e+00	0	23	0	1312817152	70	5056
2026-01-10 09:34:23.21	335.19	12.09	-52.2	-54.8	14.2	0.00e+00	0	23	0	1320157184	70	4890
2026-01-10 09:34:27.13	335.16	11.72	-52.2	-54.7	14.2	0.00e+00	0	24	0	1327497216	70	4862
2026-01-10 09:34:31.07	335.13	11.36	-52.2	-54.7	14.2	0.00e+00	0	23	0	1334837248	70	4862
2026-01-10 09:34:35.08	335.10	11.00	-52.2	-54.8	14.2	0.00e+00	0	23	0	1342177280	70	4899
2026-01-10 09:34:39.05	335.07	10.64	-52.3	-54.9	14.1	0.00e+00	0	23	0	1349517312	70	4963
2026-01-10 09:34:43.04	335.04	10.29	-52.2	-54.8	14.2	0.00e+00	0	23	0	1356857344	70	4876
2026-01-10 09:34:47.01	335.01	9.94	-52.2	-54.7	14.3	0.00e+00	0	23	0	1364197376	70	4836
2026-01-10 09:34:50.99	334.98	9.60	-52.2	-54.7	14.2	0.00e+00	0	23	0	1372585984	70	4858
2026-01-10 09:34:54.98	334.96	9.27	-52.3	-54.8	14.2	0.00e+00	0	23	0	1379926016	70	4925
2026-01-10 09:34:58.96	334.93	8.93	-52.4	-55.0	14.1	0.00e+00	0	23	0	1387266048	70	4995
2026-01-10 09:35:02.94	334.91	8.61	-52.5	-55.1	13.9	0.00e+00	0	23	0	1394606080	70	5070
2026-01-10 09:35:06.92	334.88	8.28	-52.5	-55.1	14.0	0.00e+00	0	23	0	1401946112	70	5085
2026-01-10 09:35:10.88	334.86	7.96	-52.7	-55.5	13.7	0.00e+00	0	23	0	1409286144	70	5323
2026-01-10 09:35:14.83	334.84	7.65	-52.7	-55.4	13.9	0.00e+00	0	23	0	1416626176	71	4975
2026-01-10 09:35:18.80	334.82	7.34	-53.0	-55.9	13.6	0.00e+00	0	23	0	1423966208	71	5237
2026-01-10 09:35:22.77	334.80	7.03	-53.0	-55.9	13.6	0.00e+00	0	23	0	1431306240	71	5247
2026-01-10 09:35:26.74	334.78	6.73	-53.0	-56.0	13.5	0.00e+00	0	23	0	1438646272	71	5302
2026-01-10 09:35:30.74	334.76	6.43	-52.9	-55.8	13.6	0.00e+00	0	23	0	1447034880	71	5180
2026-01-10 09:35:34.75	334.74	6.13	-53.0	-56.0	13.5	0.00e+00	0	23	0	1454374912	71	5284
2026-01-10 09:35:38.74	334.73	5.83	-53.0	-56.0	13.4	0.00e+00	0	23	0	1461714944	71	5311
2026-01-10 09:35:42.71	334.71	5.54	-53.0	-56.2	13.2	0.00e+00	0	23	0	1469054976	71	5415
2026-01-10 09:35:46.68	334.70	5.26	-53.1	-56.4	12.9	0.00e+00	0	23	0	1476395008	71	5583
2026-01-10 09:35:50.67	334.68	4.97	-57.4	-67.0	5.8	2.39e-03	0	23	0	1483735040	79	11846
2026-01-10 09:35:54.66	334.67	4.69	-58.7	-74.8	3.8	1.49e+00	0	24	104	1484783616	82	24492
2026-01-10 09:35:58.63	334.65	4.41	-59.2	-75.3	3.8	1.49e+00	0	24	104	1484783616	83	24457
2026-01-10 09:36:02.61	334.64	4.14	-59.4	-75.5	3.8	1.49e+00	0	23	104	1484783616	83	25019
2026-01-10 09:36:06.59	334.63	3.86	-59.7	-75.7	3.8	1.49e+00	0	23	104	1484783616	84	24395
2026-01-10 09:36:10.58	334.62	3.59	-59.8	-75.8	3.8	1.49e+00	0	24	104	1484783616	84	24589
2026-01-10 09:36:14.57	334.60	3.33	-59.7	-75.7	3.8	1.49e+00	0	24	104	1484783616	84	24388
2026-01-10 09:36:18.60	334.59	3.06	-59.7	-75.7	3.8	1.49e+00	0	24	104	1484783616	84	24354
2026-01-10 09:36:22.63	334.58	2.79	-59.7	-75.7	3.8	1.49e+00	0	24	104	1484783616	84	24294
2026-01-10 09:36:26.66	334.57	2.53	-59.6	-75.7	3.8	1.49e+00	0	24	104	1484783616	84	24259
2026-01-10 09:36:30.68	334.56	2.27	-59.6	-75.7	3.8	1.49e+00	0	24	104	1484783616	84	24174
2026-01-10 09:36:34.72	334.55	2.01	-59.6	-75.6	3.8	1.49e+00	0	24	104	1484783616	84	24111

#Closed at: 2026-01-10 09:36:37
#Recorded file [1484 MB]: D:/lorett/data/31004_260110_122210.dat