passes_logs/2026/01/10/R3.2S_Murmansk/R3.2S_Murmansk__20260110_062413_NOAA_20_JPSS-1_rec.log

#Pass ID: 20260110_062413_NOAA 20 (JPSS-1)
#Satellite: NOAA 20 (JPSS-1)
#Configuration: NOAA 20
#almurnet v.1.7.20251203
#Start time: 2026-01-10 06:24:12

#Version: 2.2.20231116
#Station: R3.2S_Murmansk
#Location: 33.079688 lon 68.888172 lat
#TLE: 1 43013U 17073A   26009.26828276  .00000112  00000+0  74203-4 0  9990
#TLE: 2 43013  98.7631 310.2683 0001700  47.4387 312.6933 14.19534764421920

#Time	Az	El	Level	Level2	SNR	BER	BlckErr	Temp	State	Recorded	gain1	gain2
2026-01-10 06:24:12.71	83.25	1.98	-57.1	-73.0	3.8	1.49e+00	0	21	0	0	80	22441
2026-01-10 06:24:16.70	83.02	2.21	-57.0	-73.0	3.8	1.49e+00	0	22	104	0	79	23625
2026-01-10 06:24:20.71	82.79	2.45	-57.0	-73.0	3.8	1.49e+00	0	22	104	0	79	23644
2026-01-10 06:24:24.71	82.55	2.68	-57.0	-73.0	3.8	1.49e+00	0	22	104	0	79	23754
2026-01-10 06:24:28.71	82.30	2.92	-57.0	-73.0	3.8	1.49e+00	0	22	104	0	79	23763
2026-01-10 06:24:32.70	82.05	3.16	-57.0	-73.0	3.8	1.49e+00	0	22	104	0	79	23606
2026-01-10 06:24:36.69	81.80	3.40	-57.0	-73.0	3.9	1.49e+00	0	22	104	0	79	23729
2026-01-10 06:24:40.69	81.54	3.64	-57.0	-73.0	3.8	1.49e+00	0	22	104	0	79	23599
2026-01-10 06:24:44.67	81.28	3.88	-57.0	-73.0	3.8	1.49e+00	0	22	104	0	79	23725
2026-01-10 06:24:48.68	81.02	4.13	-57.0	-72.4	3.8	1.49e+00	0	22	104	0	79	22055
2026-01-10 06:24:52.67	80.75	4.37	-56.9	-70.2	3.9	1.47e+00	0	22	104	0	79	17121
2026-01-10 06:24:56.66	80.47	4.62	-56.7	-66.9	5.2	6.30e-01	0	22	0	4194304	79	11750
2026-01-10 06:25:00.65	80.19	4.87	-56.4	-64.5	6.9	1.53e-01	0	22	0	12582912	79	8931
2026-01-10 06:25:04.66	79.91	5.12	-56.6	-65.3	6.3	1.55e-01	0	23	0	19922944	79	9772
2026-01-10 06:25:08.66	79.61	5.38	-55.7	-61.1	9.8	1.35e+00	0	23	0	25165824	78	6400
2026-01-10 06:25:12.66	79.32	5.63	-54.2	-57.7	12.7	0.00e+00	0	22	0	32505856	74	5422
2026-01-10 06:25:16.66	79.02	5.89	-53.8	-56.9	13.3	0.00e+00	0	23	0	39845888	74	4950
2026-01-10 06:25:20.64	78.71	6.15	-53.6	-56.6	13.4	0.00e+00	0	23	0	47185920	73	5053
2026-01-10 06:25:24.63	78.40	6.41	-53.4	-56.3	13.6	0.00e+00	0	23	0	54525952	73	4903
2026-01-10 06:25:28.64	78.08	6.67	-53.5	-56.5	13.5	0.00e+00	0	23	0	62914560	73	5004
2026-01-10 06:25:32.63	77.75	6.93	-53.5	-56.4	13.5	0.00e+00	0	23	0	70254592	73	4964
2026-01-10 06:25:36.64	77.42	7.20	-53.4	-56.3	13.7	0.00e+00	0	23	0	77594624	73	4898
2026-01-10 06:25:40.63	77.08	7.47	-53.5	-56.4	13.6	0.00e+00	0	23	0	84934656	73	4939
2026-01-10 06:25:44.60	76.74	7.74	-53.5	-56.4	13.6	0.00e+00	0	23	0	92274688	73	4938
2026-01-10 06:25:48.57	76.40	8.00	-53.4	-56.3	13.7	0.00e+00	0	23	0	99614720	73	4874
2026-01-10 06:25:52.56	76.04	8.28	-53.4	-56.2	13.8	0.00e+00	0	23	0	106954752	73	4831
2026-01-10 06:25:56.56	75.67	8.55	-53.3	-56.0	13.9	0.00e+00	0	23	0	114294784	73	4728
2026-01-10 06:26:00.56	75.30	8.83	-53.4	-56.1	13.9	0.00e+00	0	23	0	122683392	73	4785
2026-01-10 06:26:04.57	74.92	9.11	-53.3	-56.0	13.9	0.00e+00	0	23	0	130023424	73	4718
2026-01-10 06:26:08.57	74.53	9.39	-53.3	-56.0	14.0	0.00e+00	0	23	0	137363456	73	4707
2026-01-10 06:26:12.56	74.14	9.67	-53.3	-55.9	14.0	0.00e+00	0	23	0	144703488	73	4703
2026-01-10 06:26:16.55	73.74	9.96	-53.4	-56.0	13.9	0.00e+00	0	23	0	152043520	73	4750
2026-01-10 06:26:20.55	73.33	10.24	-53.3	-56.0	14.0	0.00e+00	0	23	0	159383552	73	4708
2026-01-10 06:26:24.55	72.91	10.53	-53.0	-55.5	14.1	0.00e+00	0	23	0	166723584	72	4729
2026-01-10 06:26:28.55	72.48	10.82	-53.0	-55.4	14.2	0.00e+00	0	23	0	175112192	72	4681
2026-01-10 06:26:32.56	72.04	11.11	-52.9	-55.4	14.3	0.00e+00	0	23	0	182452224	72	4659
2026-01-10 06:26:36.55	71.60	11.41	-52.9	-55.3	14.3	0.00e+00	0	23	0	189792256	72	4624
2026-01-10 06:26:40.54	71.15	11.70	-53.0	-55.5	14.2	0.00e+00	0	23	0	197132288	72	4712
2026-01-10 06:26:44.51	70.69	12.00	-53.0	-55.4	14.2	0.00e+00	0	23	0	204472320	72	4679
2026-01-10 06:26:48.51	70.21	12.30	-53.0	-55.4	14.3	0.00e+00	0	23	0	211812352	72	4653
2026-01-10 06:26:52.50	69.73	12.60	-52.8	-55.1	14.4	0.00e+00	0	23	0	219152384	72	4522
2026-01-10 06:26:56.50	69.23	12.90	-52.7	-55.0	14.5	0.00e+00	0	23	0	227540992	72	4460
2026-01-10 06:27:00.49	68.73	13.20	-52.7	-55.0	14.4	0.00e+00	0	23	0	234881024	71	4711
2026-01-10 06:27:04.47	68.22	13.50	-52.6	-54.8	14.4	0.00e+00	0	23	0	242221056	71	4645
2026-01-10 06:27:08.45	67.69	13.81	-52.6	-54.8	14.5	0.00e+00	0	23	0	249561088	71	4638
2026-01-10 06:27:12.46	67.16	14.12	-52.5	-54.6	14.6	0.00e+00	0	23	0	256901120	71	4532
2026-01-10 06:27:16.45	66.61	14.43	-52.4	-54.6	14.6	0.00e+00	0	23	0	264241152	71	4529
2026-01-10 06:27:20.43	66.05	14.74	-52.4	-54.6	14.6	0.00e+00	0	23	0	271581184	71	4507
2026-01-10 06:27:24.42	65.48	15.05	-52.3	-54.4	14.7	0.00e+00	0	23	0	279969792	71	4437
2026-01-10 06:27:28.41	64.89	15.36	-52.4	-54.5	14.7	0.00e+00	0	23	0	287309824	71	4467
2026-01-10 06:27:32.41	64.30	15.67	-52.1	-54.1	14.8	0.00e+00	0	23	0	294649856	70	4524
2026-01-10 06:27:36.40	63.69	15.99	-52.2	-54.3	14.7	0.00e+00	0	23	0	301989888	70	4607
2026-01-10 06:27:40.40	63.06	16.30	-52.3	-54.4	14.6	0.00e+00	0	23	0	309329920	70	4662
2026-01-10 06:27:44.38	62.43	16.62	-52.4	-54.5	14.5	0.00e+00	0	23	0	316669952	70	4734
2026-01-10 06:27:48.38	61.78	16.93	-52.4	-54.5	14.5	0.00e+00	0	23	0	324009984	70	4754
2026-01-10 06:27:52.35	61.12	17.25	-52.4	-54.5	14.5	0.00e+00	0	23	0	331350016	70	4723
2026-01-10 06:27:56.36	60.44	17.56	-52.4	-54.5	14.5	0.00e+00	0	23	0	339738624	70	4749
2026-01-10 06:28:00.35	59.75	17.88	-52.4	-54.5	14.5	0.00e+00	0	23	0	347078656	70	4727
2026-01-10 06:28:04.35	59.04	18.20	-52.4	-54.6	14.5	0.00e+00	0	23	0	354418688	70	4771
2026-01-10 06:28:08.35	58.31	18.51	-52.7	-54.9	14.3	0.00e+00	0	23	0	361758720	70	4941
2026-01-10 06:28:12.36	57.57	18.83	-52.5	-54.6	14.5	0.00e+00	0	23	0	369098752	70	4813
2026-01-10 06:28:16.36	56.82	19.14	-52.3	-54.3	14.6	0.00e+00	0	23	0	376438784	70	4649
2026-01-10 06:28:20.35	56.05	19.45	-52.1	-54.1	14.8	0.00e+00	0	23	0	384827392	70	4528
2026-01-10 06:28:24.34	55.26	19.76	-52.0	-54.0	14.8	0.00e+00	0	24	0	392167424	70	4479
2026-01-10 06:28:28.35	54.46	20.07	-51.8	-53.7	15.0	0.00e+00	0	23	0	399507456	70	4337
2026-01-10 06:28:32.34	53.64	20.37	-51.6	-53.5	15.0	0.00e+00	0	23	0	406847488	69	4446
2026-01-10 06:28:36.34	52.81	20.67	-51.3	-53.1	15.2	0.00e+00	0	23	0	414187520	69	4257
2026-01-10 06:28:40.33	51.96	20.97	-50.8	-52.5	15.4	0.00e+00	0	23	0	421527552	68	4215
2026-01-10 06:28:44.32	51.09	21.27	-50.5	-52.1	15.3	0.00e+00	0	23	0	428867584	67	4253
2026-01-10 06:28:48.30	50.21	21.56	-50.5	-52.1	15.3	0.00e+00	0	23	0	437256192	67	4281
2026-01-10 06:28:52.31	49.30	21.85	-50.5	-52.2	15.3	0.00e+00	0	23	0	444596224	67	4303
2026-01-10 06:28:56.29	48.39	22.13	-50.4	-52.0	15.4	0.00e+00	0	23	0	451936256	67	4205
2026-01-10 06:29:00.29	47.45	22.41	-50.3	-51.9	15.4	0.00e+00	0	23	0	459276288	67	4163
2026-01-10 06:29:04.29	46.50	22.69	-50.3	-51.9	15.4	0.00e+00	0	23	0	466616320	67	4171
2026-01-10 06:29:08.30	45.52	22.96	-50.5	-52.2	15.3	0.00e+00	0	23	0	473956352	67	4297
2026-01-10 06:29:12.28	44.54	23.22	-50.6	-52.3	15.2	0.00e+00	0	23	0	481296384	67	4341
2026-01-10 06:29:16.28	43.54	23.47	-50.7	-52.3	15.2	0.00e+00	0	23	0	489684992	67	4371
2026-01-10 06:29:20.27	42.52	23.72	-50.5	-52.2	15.3	0.00e+00	0	23	0	497025024	67	4304
2026-01-10 06:29:24.27	41.48	23.96	-50.4	-52.0	15.4	0.00e+00	0	23	0	504365056	67	4221
2026-01-10 06:29:28.27	40.43	24.19	-50.3	-51.8	15.5	0.00e+00	0	24	0	511705088	67	4128
2026-01-10 06:29:32.27	39.37	24.41	-50.2	-51.7	15.6	0.00e+00	0	23	0	519045120	67	4089
2026-01-10 06:29:36.27	38.28	24.63	-49.9	-51.4	15.5	0.00e+00	0	23	0	526385152	66	4193
2026-01-10 06:29:40.24	37.19	24.83	-50.0	-51.6	15.5	0.00e+00	0	23	0	533725184	66	4252
2026-01-10 06:29:44.24	36.08	25.02	-50.5	-52.1	15.2	0.00e+00	0	23	0	542113792	66	4523
2026-01-10 06:29:48.24	34.96	25.21	-50.7	-52.4	15.1	0.00e+00	0	23	0	549453824	66	4667
2026-01-10 06:29:52.23	33.82	25.38	-50.9	-52.6	15.0	0.00e+00	0	23	0	556793856	66	4782
2026-01-10 06:29:56.21	32.68	25.54	-51.2	-53.0	14.9	0.00e+00	0	23	0	564133888	67	4750
2026-01-10 06:30:00.20	31.52	25.69	-51.6	-53.4	14.9	0.00e+00	0	23	0	571473920	68	4698
2026-01-10 06:30:04.19	30.35	25.82	-51.9	-53.8	14.7	0.00e+00	0	23	0	578813952	68	4922
2026-01-10 06:30:08.19	29.17	25.95	-51.9	-53.8	14.8	0.00e+00	0	23	0	586153984	69	4648
2026-01-10 06:30:12.20	27.98	26.06	-52.0	-54.0	14.8	0.00e+00	0	23	0	594542592	69	4709
2026-01-10 06:30:16.20	26.78	26.16	-52.2	-54.2	14.6	0.00e+00	0	23	0	601882624	69	4828
2026-01-10 06:30:20.19	25.58	26.24	-52.3	-54.3	14.6	0.00e+00	0	23	0	609222656	69	4902
2026-01-10 06:30:24.20	24.37	26.31	-52.3	-54.3	14.8	0.00e+00	0	23	0	616562688	70	4603
2026-01-10 06:30:28.20	23.15	26.37	-52.6	-54.7	14.5	0.00e+00	0	23	0	623902720	70	4829
2026-01-10 06:30:32.21	21.93	26.41	-52.4	-54.4	14.7	0.00e+00	0	23	0	631242752	70	4662
2026-01-10 06:30:36.20	20.71	26.44	-52.0	-53.9	14.9	0.00e+00	0	23	0	639631360	70	4440
2026-01-10 06:30:40.19	19.49	26.46	-51.9	-53.8	15.0	0.00e+00	0	23	0	646971392	70	4367
2026-01-10 06:30:44.18	18.27	26.46	-51.5	-53.2	15.2	0.00e+00	0	23	0	654311424	69	4317
2026-01-10 06:30:48.17	17.05	26.44	-51.3	-53.0	15.3	0.00e+00	0	24	0	661651456	69	4196
2026-01-10 06:30:52.16	15.83	26.41	-51.0	-52.6	15.3	0.00e+00	0	23	0	668991488	68	4278
2026-01-10 06:30:56.13	14.62	26.37	-51.0	-52.6	15.3	0.00e+00	0	23	0	676331520	68	4274
2026-01-10 06:31:00.10	13.42	26.31	-50.2	-51.7	15.6	0.00e+00	0	23	0	683671552	67	4082
2026-01-10 06:31:04.10	12.21	26.24	-50.4	-51.9	15.4	0.00e+00	0	23	0	691011584	67	4183
2026-01-10 06:31:08.09	11.00	26.16	-50.1	-51.6	15.4	0.00e+00	0	23	0	699400192	66	4281
2026-01-10 06:31:12.06	9.82	26.06	-50.3	-51.9	15.3	0.00e+00	0	23	0	706740224	66	4436
2026-01-10 06:31:16.04	8.63	25.95	-50.5	-52.1	15.2	0.00e+00	0	23	0	714080256	66	4500
2026-01-10 06:31:20.04	7.45	25.82	-50.4	-52.0	15.2	0.00e+00	0	23	0	721420288	66	4474
2026-01-10 06:31:24.03	6.29	25.68	-50.6	-52.3	15.1	0.00e+00	0	23	0	728760320	66	4612
2026-01-10 06:31:28.04	5.12	25.53	-50.8	-52.5	15.0	0.00e+00	0	23	0	736100352	66	4714
2026-01-10 06:31:32.04	3.98	25.37	-51.1	-52.8	15.0	0.00e+00	0	23	0	743440384	67	4620
2026-01-10 06:31:36.04	2.84	25.20	-51.3	-53.1	14.9	0.00e+00	0	23	0	751828992	67	4774
2026-01-10 06:31:40.02	1.72	25.02	-52.0	-53.9	14.8	0.00e+00	0	23	0	759169024	69	4671
2026-01-10 06:31:44.01	0.62	24.82	-52.0	-53.9	14.8	0.00e+00	0	23	0	766509056	69	4656
2026-01-10 06:31:47.98	359.53	24.62	-52.0	-53.9	14.8	0.00e+00	0	23	0	773849088	69	4694
2026-01-10 06:31:51.96	358.45	24.41	-52.4	-54.4	14.5	0.00e+00	0	24	0	781189120	69	4941
2026-01-10 06:31:55.95	357.39	24.19	-52.0	-53.9	14.8	0.00e+00	0	24	0	788529152	69	4659
2026-01-10 06:31:59.93	356.35	23.95	-52.1	-54.0	14.7	0.00e+00	0	23	0	795869184	69	4720
2026-01-10 06:32:03.93	355.31	23.72	-52.3	-54.3	14.6	0.00e+00	0	23	0	803209216	69	4887
2026-01-10 06:32:07.93	354.29	23.47	-52.2	-54.2	14.6	0.00e+00	0	24	0	811597824	69	4866
2026-01-10 06:32:11.94	353.29	23.21	-52.1	-54.1	14.7	0.00e+00	0	23	0	818937856	69	4764
2026-01-10 06:32:15.93	352.30	22.95	-51.9	-53.8	14.8	0.00e+00	0	23	0	826277888	69	4648
2026-01-10 06:32:19.93	351.34	22.68	-51.7	-53.5	15.0	0.00e+00	0	23	0	833617920	69	4464
2026-01-10 06:32:23.92	350.39	22.41	-51.4	-53.1	15.2	0.00e+00	0	23	0	840957952	69	4260
2026-01-10 06:32:27.92	349.45	22.13	-51.0	-52.7	15.3	0.00e+00	0	23	0	848297984	68	4309
2026-01-10 06:32:31.92	348.53	21.85	-51.0	-52.7	15.3	0.00e+00	0	23	0	856686592	68	4310
2026-01-10 06:32:35.93	347.63	21.56	-50.9	-52.6	15.3	0.00e+00	0	24	0	864026624	68	4250
2026-01-10 06:32:39.90	346.75	21.27	-51.1	-52.8	15.2	0.00e+00	0	23	0	871366656	68	4359
2026-01-10 06:32:43.91	345.88	20.97	-51.1	-52.8	15.2	0.00e+00	0	23	0	878706688	68	4364
2026-01-10 06:32:47.91	345.03	20.67	-50.8	-52.5	15.3	0.00e+00	0	23	0	886046720	68	4206
2026-01-10 06:32:51.89	344.20	20.37	-50.5	-52.1	15.3	0.00e+00	0	24	0	893386752	67	4279
2026-01-10 06:32:55.87	343.39	20.07	-50.4	-52.0	15.4	0.00e+00	0	23	0	900726784	67	4201
2026-01-10 06:32:59.86	342.59	19.76	-50.1	-51.7	15.3	0.00e+00	0	23	0	908066816	66	4302
2026-01-10 06:33:03.85	341.81	19.45	-50.0	-51.6	15.4	0.00e+00	0	24	0	916455424	66	4251
2026-01-10 06:33:07.85	341.04	19.14	-49.9	-51.4	15.5	0.00e+00	0	23	0	923795456	66	4167
2026-01-10 06:33:11.85	340.29	18.83	-50.0	-51.5	15.5	0.00e+00	0	23	0	931135488	66	4219
2026-01-10 06:33:15.84	339.55	18.52	-49.8	-51.3	15.6	0.00e+00	0	23	0	938475520	66	4109
2026-01-10 06:33:19.83	338.83	18.20	-49.7	-51.2	15.6	0.00e+00	0	23	0	945815552	66	4075
2026-01-10 06:33:23.82	338.13	17.89	-49.9	-51.4	15.5	0.00e+00	0	23	0	953155584	66	4167
2026-01-10 06:33:27.81	337.44	17.57	-50.1	-51.6	15.4	0.00e+00	0	24	0	960495616	66	4254
2026-01-10 06:33:31.82	336.76	17.26	-50.1	-51.6	15.4	0.00e+00	0	23	0	968884224	66	4275
2026-01-10 06:33:35.81	336.10	16.94	-50.2	-51.7	15.3	0.00e+00	0	24	0	976224256	66	4339
2026-01-10 06:33:39.81	335.45	16.63	-50.4	-52.0	15.2	0.00e+00	0	24	0	983564288	66	4493
2026-01-10 06:33:43.81	334.81	16.31	-50.7	-52.4	15.0	0.00e+00	0	23	0	990904320	66	4695
2026-01-10 06:33:47.83	334.18	15.99	-50.9	-52.7	15.0	0.00e+00	0	23	0	998244352	67	4561
2026-01-10 06:33:51.82	333.58	15.68	-51.1	-52.9	14.9	0.00e+00	0	23	0	1005584384	67	4677
2026-01-10 06:33:55.82	332.98	15.37	-51.1	-52.9	14.9	0.00e+00	0	23	0	1013972992	67	4676
2026-01-10 06:33:59.82	332.40	15.06	-51.3	-53.2	14.7	0.00e+00	0	24	0	1021313024	67	4833
2026-01-10 06:34:03.81	331.83	14.75	-51.2	-53.0	14.8	0.00e+00	0	24	0	1028653056	67	4745
2026-01-10 06:34:07.82	331.27	14.43	-51.6	-53.5	14.8	0.00e+00	0	23	0	1035993088	68	4713
2026-01-10 06:34:11.81	330.72	14.13	-51.7	-53.7	14.7	0.00e+00	0	23	0	1043333120	68	4820
2026-01-10 06:34:15.82	330.18	13.82	-51.8	-53.8	14.6	0.00e+00	0	23	0	1050673152	68	4875
2026-01-10 06:34:19.84	329.66	13.51	-51.8	-53.8	14.8	0.00e+00	0	23	0	1058013184	69	4604
2026-01-10 06:34:23.83	329.15	13.21	-52.0	-53.9	14.7	0.00e+00	0	23	0	1066401792	69	4705
2026-01-10 06:34:27.82	328.64	12.90	-51.9	-53.8	14.7	0.00e+00	0	24	0	1073741824	69	4638
2026-01-10 06:34:31.84	328.15	12.60	-52.0	-54.0	14.6	0.00e+00	0	23	0	1081081856	69	4729
2026-01-10 06:34:35.84	327.67	12.30	-52.1	-54.2	14.5	0.00e+00	0	23	0	1088421888	69	4850
2026-01-10 06:34:39.85	327.19	12.00	-52.3	-54.5	14.4	0.00e+00	0	23	0	1095761920	69	5000
2026-01-10 06:34:43.85	326.73	11.70	-52.6	-54.8	14.3	0.00e+00	0	24	0	1103101952	70	4888
2026-01-10 06:34:47.86	326.28	11.41	-52.7	-55.0	14.2	0.00e+00	0	23	0	1111490560	70	5029
2026-01-10 06:34:51.86	325.83	11.12	-52.8	-55.1	14.1	0.00e+00	0	23	0	1118830592	70	5059
2026-01-10 06:34:55.87	325.40	10.82	-52.9	-55.2	14.0	0.00e+00	0	23	0	1126170624	70	5151
2026-01-10 06:34:59.86	324.97	10.53	-52.9	-55.2	14.2	0.00e+00	0	23	0	1133510656	71	4848
2026-01-10 06:35:03.87	324.55	10.25	-52.9	-55.3	14.1	0.00e+00	0	23	0	1140850688	71	4893
2026-01-10 06:35:07.87	324.15	9.96	-52.8	-55.2	14.2	0.00e+00	0	23	0	1148190720	71	4841
2026-01-10 06:35:11.86	323.75	9.68	-52.9	-55.3	14.1	0.00e+00	0	23	0	1156579328	71	4901
2026-01-10 06:35:15.86	323.35	9.39	-52.9	-55.4	14.0	0.00e+00	0	23	0	1163919360	71	4939
2026-01-10 06:35:19.85	322.97	9.12	-53.2	-55.7	13.9	0.00e+00	0	24	0	1171259392	71	5128
2026-01-10 06:35:23.85	322.59	8.84	-53.2	-55.7	13.8	0.00e+00	0	23	0	1178599424	71	5157
2026-01-10 06:35:27.85	322.22	8.56	-53.3	-55.9	13.7	0.00e+00	0	23	0	1185939456	71	5260
2026-01-10 06:35:31.86	321.86	8.28	-53.5	-56.2	13.6	0.00e+00	0	23	0	1193279488	72	5146
2026-01-10 06:35:35.86	321.50	8.01	-53.7	-56.6	13.4	0.00e+00	0	23	0	1200619520	72	5344
2026-01-10 06:35:39.85	321.15	7.74	-53.7	-56.7	13.3	0.00e+00	0	23	0	1209008128	72	5412
2026-01-10 06:35:43.84	320.81	7.47	-53.6	-56.5	13.4	0.00e+00	0	23	0	1216348160	72	5295
2026-01-10 06:35:47.86	320.47	7.20	-53.5	-56.4	13.5	0.00e+00	0	23	0	1223688192	72	5229
2026-01-10 06:35:51.85	320.15	6.94	-53.5	-56.3	13.5	0.00e+00	0	23	0	1231028224	72	5199
2026-01-10 06:35:55.83	319.82	6.68	-53.6	-56.5	13.3	0.00e+00	0	23	0	1238368256	72	5319
2026-01-10 06:35:59.85	319.51	6.41	-53.6	-56.6	13.3	0.00e+00	0	23	0	1245708288	72	5379
2026-01-10 06:36:03.83	319.20	6.16	-53.9	-57.2	13.0	0.00e+00	0	23	0	1253048320	73	5406
2026-01-10 06:36:07.81	318.89	5.90	-53.9	-57.2	13.0	0.00e+00	0	23	0	1261436928	73	5410
2026-01-10 06:36:11.81	318.59	5.64	-53.9	-57.1	13.0	0.00e+00	0	23	0	1268776960	73	5351
2026-01-10 06:36:15.81	318.30	5.39	-53.8	-57.0	13.0	0.00e+00	0	23	0	1276116992	73	5336
2026-01-10 06:36:19.81	318.01	5.13	-54.0	-57.3	12.8	7.00e-07	0	23	0	1283457024	73	5493
2026-01-10 06:36:23.83	317.72	4.88	-58.2	-74.2	3.8	1.49e+00	0	23	104	1287651328	81	24350
2026-01-10 06:36:27.82	317.44	4.63	-59.0	-75.0	3.8	1.49e+00	0	24	104	1287651328	83	23718
2026-01-10 06:36:31.82	317.17	4.38	-59.3	-75.3	3.8	1.49e+00	0	24	104	1287651328	83	24653
2026-01-10 06:36:35.82	316.90	4.14	-59.7	-75.7	3.8	1.49e+00	0	24	104	1287651328	84	24302
2026-01-10 06:36:39.81	316.64	3.89	-59.7	-75.7	3.8	1.49e+00	0	24	104	1287651328	84	24391
2026-01-10 06:36:43.80	316.38	3.65	-59.6	-75.7	3.8	1.49e+00	0	24	104	1287651328	84	24297
2026-01-10 06:36:47.80	316.12	3.41	-59.6	-75.6	3.8	1.49e+00	0	24	104	1287651328	84	24106
2026-01-10 06:36:51.79	315.87	3.17	-59.6	-75.6	3.8	1.49e+00	0	23	104	1287651328	84	24036
2026-01-10 06:36:55.78	315.63	2.93	-59.5	-75.6	3.8	1.49e+00	0	24	104	1287651328	84	23920
2026-01-10 06:36:59.76	315.38	2.70	-59.5	-75.6	3.8	1.49e+00	0	24	104	1287651328	84	23949
2026-01-10 06:37:03.78	315.14	2.46	-59.5	-75.5	3.8	1.49e+00	0	24	104	1287651328	84	23845
2026-01-10 06:37:07.78	314.91	2.23	-59.5	-75.6	3.8	1.49e+00	0	24	104	1287651328	84	23867
2026-01-10 06:37:11.79	314.68	1.99	-59.5	-75.5	3.8	1.49e+00	0	24	104	1287651328	84	23793

#Closed at: 2026-01-10 06:37:11
#Recorded file [1287 MB]: D:/lorett/data/31004_260110_092412.dat