passes_logs/2026/01/10/R3.2S_Murmansk/R3.2S_Murmansk__20260110_124603_SUOMI_NPP_rec.log

#Pass ID: 20260110_124603_SUOMI NPP
#Satellite: SUOMI NPP
#Configuration: NPP
#almurnet v.1.7.20251203
#Start time: 2026-01-10 12:46:03

#Version: 2.2.20231116
#Station: R3.2S_Murmansk
#Location: 33.079688 lon 68.888172 lat
#TLE: 1 37849U 11061A   26009.81756760  .00000113  00000+0  74747-4 0  9994
#TLE: 2 37849  98.7806 311.9110 0002525  72.5604 287.5848 14.19524046735974

#Time	Az	El	Level	Level2	SNR	BER	BlckErr	Temp	State	Recorded	gain1	gain2
2026-01-10 12:46:03.26	233.83	1.98	-57.0	-73.5	3.8	1.49e+00	0	21	0	0	80	23756
2026-01-10 12:46:06.24	234.10	2.12	-57.1	-73.4	3.8	1.49e+00	0	21	104	0	79	24953
2026-01-10 12:46:09.24	234.38	2.27	-57.3	-73.4	3.8	1.49e+00	0	21	104	0	79	24976
2026-01-10 12:46:12.23	234.66	2.41	-57.3	-73.5	3.8	1.49e+00	0	21	104	0	79	25037
2026-01-10 12:46:15.22	234.94	2.56	-57.4	-73.5	3.8	1.49e+00	0	21	104	0	79	25037
2026-01-10 12:46:18.21	235.22	2.70	-57.5	-73.5	3.8	1.49e+00	0	21	104	0	80	23646
2026-01-10 12:46:21.22	235.51	2.85	-57.5	-73.4	3.8	1.49e+00	0	22	104	0	80	23469
2026-01-10 12:46:24.22	235.80	2.99	-57.5	-73.4	3.8	1.49e+00	0	22	104	0	80	23404
2026-01-10 12:46:27.22	236.09	3.14	-57.5	-73.4	3.8	1.49e+00	0	22	104	0	80	23580
2026-01-10 12:46:30.21	236.39	3.28	-57.5	-73.5	3.8	1.49e+00	0	22	104	0	80	23641
2026-01-10 12:46:33.22	236.69	3.43	-57.5	-73.4	3.8	1.49e+00	0	22	104	0	80	23452
2026-01-10 12:46:36.21	236.99	3.57	-57.5	-73.3	3.8	1.49e+00	0	22	104	0	80	23148
2026-01-10 12:46:39.22	237.30	3.72	-57.5	-73.5	3.8	1.49e+00	0	22	104	0	80	23694
2026-01-10 12:46:42.22	237.60	3.86	-57.5	-73.5	3.8	1.49e+00	0	22	104	0	80	23677
2026-01-10 12:46:45.21	237.91	4.01	-57.5	-73.2	3.8	1.49e+00	0	22	104	0	80	22990
2026-01-10 12:46:48.21	238.23	4.16	-57.5	-73.0	3.8	1.49e+00	0	22	104	0	80	22389
2026-01-10 12:46:51.20	238.54	4.30	-57.5	-72.8	3.8	1.49e+00	0	22	104	0	80	21870
2026-01-10 12:46:54.19	238.86	4.45	-57.5	-73.1	3.8	1.49e+00	0	22	104	0	80	22731
2026-01-10 12:46:57.19	239.18	4.59	-57.5	-72.7	3.8	1.49e+00	0	22	104	0	80	21549
2026-01-10 12:47:00.18	239.51	4.74	-57.3	-69.6	4.3	1.33e+00	51	22	0	0	80	15075
2026-01-10 12:47:03.18	239.83	4.89	-57.1	-67.0	5.4	9.18e-01	0	22	0	4194304	80	11161
2026-01-10 12:47:06.17	240.17	5.03	-55.6	-60.5	10.8	7.07e-03	0	23	0	9437184	77	6295
2026-01-10 12:47:09.17	240.50	5.18	-55.5	-60.1	11.3	5.74e-04	0	23	0	11534336	77	6015
2026-01-10 12:47:12.15	240.84	5.33	-53.5	-56.4	13.6	0.00e+00	0	22	0	17825792	73	4949
2026-01-10 12:47:15.14	241.18	5.47	-53.3	-56.1	13.6	0.00e+00	0	22	0	23068672	72	5083
2026-01-10 12:47:18.13	241.52	5.62	-53.7	-56.6	13.2	0.00e+00	0	23	0	28311552	72	5402
2026-01-10 12:47:21.12	241.87	5.76	-53.3	-56.1	13.7	0.00e+00	0	23	0	34603008	72	5058
2026-01-10 12:47:24.11	242.22	5.91	-52.8	-55.2	14.2	0.00e+00	0	23	0	39845888	72	4574
2026-01-10 12:47:27.10	242.57	6.06	-53.0	-55.5	14.1	0.00e+00	0	23	0	45088768	72	4734
2026-01-10 12:47:30.11	242.93	6.20	-53.0	-55.6	13.8	0.00e+00	0	23	0	51380224	71	5074
2026-01-10 12:47:33.10	243.29	6.35	-52.6	-55.0	14.2	0.00e+00	0	23	0	56623104	71	4722
2026-01-10 12:47:36.09	243.66	6.49	-52.4	-54.7	14.4	0.00e+00	0	23	0	61865984	71	4590
2026-01-10 12:47:39.08	244.02	6.64	-52.4	-54.7	14.3	0.00e+00	0	23	0	68157440	70	4816
2026-01-10 12:47:42.06	244.39	6.78	-52.6	-54.9	14.1	0.00e+00	0	23	0	73400320	70	4972
2026-01-10 12:47:45.05	244.77	6.93	-53.0	-55.6	13.9	0.00e+00	0	23	0	78643200	71	5042
2026-01-10 12:47:48.04	245.15	7.07	-52.6	-55.0	14.3	0.00e+00	0	23	0	84934656	71	4712
2026-01-10 12:47:51.01	245.53	7.22	-52.9	-55.4	14.0	0.00e+00	0	23	0	90177536	71	4956
2026-01-10 12:47:54.01	245.91	7.36	-52.7	-55.1	14.2	0.00e+00	0	23	0	96468992	71	4796
2026-01-10 12:47:56.99	246.30	7.51	-52.7	-55.1	14.2	0.00e+00	0	23	0	101711872	71	4797
2026-01-10 12:47:59.98	246.69	7.65	-52.7	-55.1	14.2	0.00e+00	0	23	0	106954752	71	4779
2026-01-10 12:48:02.97	247.09	7.79	-53.1	-55.6	13.9	0.00e+00	0	23	0	113246208	71	5082
2026-01-10 12:48:05.97	247.49	7.94	-52.7	-55.0	14.3	0.00e+00	0	23	0	118489088	71	4728
2026-01-10 12:48:08.96	247.90	8.08	-52.6	-54.9	14.4	0.00e+00	0	23	0	123731968	71	4658
2026-01-10 12:48:11.94	248.30	8.22	-52.1	-54.2	14.6	0.00e+00	0	23	0	130023424	70	4578
2026-01-10 12:48:14.92	248.71	8.36	-52.0	-54.1	14.7	0.00e+00	0	23	0	135266304	70	4501
2026-01-10 12:48:17.89	249.13	8.50	-52.0	-54.1	14.7	0.00e+00	0	23	0	140509184	70	4525
2026-01-10 12:48:20.88	249.55	8.65	-52.1	-54.2	14.7	0.00e+00	0	23	0	146800640	70	4551
2026-01-10 12:48:23.88	249.97	8.79	-51.6	-53.6	14.8	0.00e+00	0	23	0	152043520	69	4518
2026-01-10 12:48:26.86	250.40	8.93	-51.4	-53.3	15.0	0.00e+00	0	23	0	157286400	69	4362
2026-01-10 12:48:29.86	250.83	9.07	-51.6	-53.5	14.9	0.00e+00	0	23	0	163577856	69	4484
2026-01-10 12:48:32.86	251.27	9.20	-51.8	-53.8	14.7	0.00e+00	0	23	0	168820736	69	4650
2026-01-10 12:48:35.85	251.71	9.34	-51.9	-53.9	14.6	0.00e+00	0	23	0	174063616	69	4692
2026-01-10 12:48:38.84	252.15	9.48	-51.6	-53.6	14.8	0.00e+00	0	23	0	180355072	69	4509
2026-01-10 12:48:41.83	252.60	9.62	-51.6	-53.6	14.8	0.00e+00	0	23	0	185597952	69	4515
2026-01-10 12:48:44.83	253.05	9.75	-51.8	-53.8	14.7	0.00e+00	0	23	0	190840832	69	4648
2026-01-10 12:48:47.82	253.50	9.89	-52.0	-54.0	14.6	0.00e+00	0	23	0	197132288	69	4737
2026-01-10 12:48:50.82	253.97	10.02	-51.9	-53.9	14.6	0.00e+00	0	23	0	202375168	69	4693
2026-01-10 12:48:53.82	254.43	10.16	-51.8	-53.8	14.7	0.00e+00	0	23	0	208666624	69	4650
2026-01-10 12:48:56.80	254.90	10.29	-51.9	-53.9	14.7	0.00e+00	0	23	0	213909504	69	4684
2026-01-10 12:48:59.80	255.37	10.42	-51.9	-53.9	14.7	0.00e+00	0	23	0	219152384	69	4677
2026-01-10 12:49:02.79	255.85	10.55	-51.8	-53.8	14.7	0.00e+00	0	23	0	225443840	69	4635
2026-01-10 12:49:05.76	256.32	10.68	-51.9	-53.9	14.6	0.00e+00	0	23	0	230686720	69	4693
2026-01-10 12:49:08.75	256.81	10.80	-52.1	-54.2	14.5	0.00e+00	0	23	0	235929600	69	4848
2026-01-10 12:49:11.74	257.29	10.93	-51.9	-54.0	14.6	0.00e+00	0	23	0	242221056	69	4717
2026-01-10 12:49:14.72	257.78	11.06	-51.9	-53.9	14.7	0.00e+00	0	23	0	247463936	69	4685
2026-01-10 12:49:17.70	258.28	11.18	-51.8	-53.8	14.7	0.00e+00	0	23	0	252706816	69	4648
2026-01-10 12:49:20.69	258.78	11.30	-52.2	-54.4	14.4	0.00e+00	0	23	0	258998272	69	4939
2026-01-10 12:49:23.67	259.28	11.43	-52.2	-54.3	14.4	0.00e+00	0	23	0	264241152	69	4908
2026-01-10 12:49:26.67	259.79	11.55	-52.1	-54.2	14.6	0.00e+00	0	23	0	269484032	69	4825
2026-01-10 12:49:29.65	260.30	11.66	-52.1	-54.2	14.5	0.00e+00	0	23	0	275775488	69	4836
2026-01-10 12:49:32.64	260.82	11.78	-52.4	-54.6	14.3	0.00e+00	0	23	0	281018368	69	5044
2026-01-10 12:49:35.65	261.34	11.90	-52.5	-54.7	14.3	0.00e+00	0	23	0	286261248	70	4815
2026-01-10 12:49:38.65	261.87	12.01	-52.7	-55.0	14.2	0.00e+00	0	23	0	292552704	70	5001
2026-01-10 12:49:41.64	262.40	12.13	-52.7	-55.0	14.2	0.00e+00	0	23	0	297795584	70	5018
2026-01-10 12:49:44.63	262.93	12.24	-52.8	-55.2	14.1	0.00e+00	0	23	0	303038464	70	5111
2026-01-10 12:49:47.64	263.47	12.35	-53.2	-55.7	13.9	0.00e+00	0	23	0	309329920	71	5123
2026-01-10 12:49:50.62	264.01	12.45	-53.3	-55.9	13.8	0.00e+00	0	23	0	314572800	71	5258
2026-01-10 12:49:53.60	264.55	12.56	-53.2	-55.7	13.9	0.00e+00	0	23	0	319815680	71	5111
2026-01-10 12:49:56.60	265.10	12.66	-53.3	-55.8	13.9	0.00e+00	0	23	0	326107136	71	5177
2026-01-10 12:49:59.59	265.65	12.77	-53.3	-55.8	13.8	0.00e+00	0	23	0	331350016	71	5206
2026-01-10 12:50:02.59	266.20	12.87	-53.1	-55.5	14.1	0.00e+00	0	23	0	336592896	71	4987
2026-01-10 12:50:05.59	266.76	12.96	-53.1	-55.4	14.1	0.00e+00	0	23	0	342884352	71	4983
2026-01-10 12:50:08.57	267.32	13.06	-53.3	-55.7	13.9	0.00e+00	0	23	0	348127232	71	5153
2026-01-10 12:50:11.55	267.89	13.15	-53.2	-55.7	13.9	0.00e+00	0	23	0	354418688	71	5151
2026-01-10 12:50:14.53	268.45	13.24	-53.0	-55.4	14.2	0.00e+00	0	23	0	359661568	71	4950
2026-01-10 12:50:17.52	269.03	13.33	-53.0	-55.4	14.2	0.00e+00	0	23	0	364904448	71	4945
2026-01-10 12:50:20.51	269.60	13.42	-52.6	-54.8	14.5	0.00e+00	0	23	0	371195904	71	4607
2026-01-10 12:50:23.50	270.18	13.50	-52.1	-54.1	14.6	0.00e+00	0	23	0	376438784	70	4544
2026-01-10 12:50:26.51	270.77	13.59	-51.8	-53.8	14.9	0.00e+00	0	23	0	381681664	70	4342
2026-01-10 12:50:29.51	271.35	13.67	-51.9	-53.8	14.9	0.00e+00	0	23	0	387973120	70	4363
2026-01-10 12:50:32.50	271.94	13.74	-52.2	-54.3	14.6	0.00e+00	0	23	0	393216000	70	4609
2026-01-10 12:50:35.51	272.53	13.82	-52.3	-54.3	14.6	0.00e+00	0	23	0	398458880	70	4651
2026-01-10 12:50:38.50	273.13	13.89	-51.5	-53.3	15.0	0.00e+00	0	23	0	404750336	69	4371
2026-01-10 12:50:41.50	273.73	13.96	-51.8	-53.7	14.9	0.00e+00	0	23	0	409993216	69	4558
2026-01-10 12:50:44.50	274.33	14.03	-52.3	-54.3	14.5	0.00e+00	0	23	0	415236096	69	4914
2026-01-10 12:50:47.49	274.93	14.09	-51.8	-53.7	14.8	0.00e+00	0	23	0	421527552	69	4593
2026-01-10 12:50:50.50	275.54	14.15	-52.1	-54.1	14.6	0.00e+00	0	23	0	426770432	69	4780
2026-01-10 12:50:53.49	276.14	14.21	-52.7	-54.9	14.2	0.00e+00	0	23	0	432013312	70	4973
2026-01-10 12:50:56.50	276.75	14.27	-52.3	-54.3	14.6	0.00e+00	0	23	0	438304768	70	4613
2026-01-10 12:50:59.49	277.36	14.32	-53.0	-55.3	14.2	0.00e+00	0	23	0	443547648	71	4925
2026-01-10 12:51:02.48	277.98	14.37	-53.9	-56.6	13.7	0.00e+00	0	23	0	449839104	73	5062
2026-01-10 12:51:05.46	278.59	14.42	-53.1	-55.4	14.4	0.00e+00	0	23	0	455081984	72	4652
2026-01-10 12:51:08.45	279.21	14.46	-52.5	-54.6	14.7	0.00e+00	0	23	0	460324864	71	4531
2026-01-10 12:51:11.43	279.82	14.50	-53.0	-55.2	14.3	0.00e+00	0	23	0	466616320	71	4855
2026-01-10 12:51:14.42	280.44	14.54	-52.4	-54.4	14.8	0.00e+00	0	23	0	471859200	71	4416
2026-01-10 12:51:17.43	281.07	14.57	-52.2	-54.1	14.8	0.00e+00	0	23	0	477102080	70	4543
2026-01-10 12:51:20.41	281.69	14.61	-52.1	-54.1	14.8	0.00e+00	0	23	0	483393536	70	4512
2026-01-10 12:51:23.39	282.31	14.63	-51.9	-53.8	15.0	0.00e+00	0	23	0	488636416	70	4358
2026-01-10 12:51:26.37	282.93	14.66	-51.9	-53.8	14.7	0.00e+00	0	23	0	493879296	69	4643
2026-01-10 12:51:29.35	283.55	14.68	-52.5	-54.6	14.5	0.00e+00	0	23	0	500170752	70	4791
2026-01-10 12:51:32.34	284.18	14.70	-52.0	-53.9	14.8	0.00e+00	0	23	0	505413632	70	4435
2026-01-10 12:51:35.33	284.81	14.72	-52.1	-54.0	14.8	0.00e+00	0	23	0	510656512	70	4477
2026-01-10 12:51:38.33	285.44	14.73	-52.6	-54.7	14.5	0.00e+00	0	23	0	516947968	70	4841
2026-01-10 12:51:41.32	286.06	14.74	-52.8	-55.0	14.3	0.00e+00	0	23	0	522190848	70	5005
2026-01-10 12:51:44.29	286.69	14.75	-52.7	-54.9	14.3	0.00e+00	0	23	0	527433728	70	4971
2026-01-10 12:51:47.27	287.31	14.75	-52.4	-54.4	14.6	0.00e+00	0	23	0	533725184	70	4677
2026-01-10 12:51:50.25	287.94	14.75	-52.4	-54.4	14.6	0.00e+00	0	23	0	538968064	70	4679
2026-01-10 12:51:53.25	288.57	14.75	-52.7	-54.9	14.3	0.00e+00	0	23	0	544210944	70	4967
2026-01-10 12:51:56.23	289.20	14.74	-52.4	-54.4	14.6	0.00e+00	0	23	0	550502400	70	4663
2026-01-10 12:51:59.22	289.83	14.73	-52.0	-53.9	14.9	0.00e+00	0	23	0	555745280	70	4431
2026-01-10 12:52:02.19	290.45	14.72	-52.3	-54.3	14.7	0.00e+00	0	23	0	560988160	70	4602
2026-01-10 12:52:05.19	291.08	14.70	-52.0	-54.0	14.9	0.00e+00	0	23	0	567279616	70	4444
2026-01-10 12:52:08.19	291.71	14.69	-51.7	-53.5	15.0	0.00e+00	0	23	0	572522496	69	4471
2026-01-10 12:52:11.19	292.33	14.66	-51.9	-53.8	14.8	0.00e+00	0	23	0	577765376	69	4644
2026-01-10 12:52:14.18	292.96	14.64	-51.3	-53.3	15.2	0.00e+00	0	23	0	584056832	69	4361
2026-01-10 12:52:17.17	293.58	14.61	-50.4	-52.7	15.3	0.00e+00	0	23	0	589299712	67	4573
2026-01-10 12:52:20.15	294.20	14.58	-51.3	-53.1	14.8	0.00e+00	0	23	0	594542592	67	4769
2026-01-10 12:52:23.13	294.82	14.54	-51.6	-53.5	14.8	0.00e+00	0	23	0	600834048	68	4718
2026-01-10 12:52:26.13	295.44	14.51	-51.8	-53.7	14.7	0.00e+00	0	23	0	606076928	68	4841
2026-01-10 12:52:29.12	296.06	14.47	-51.8	-53.7	14.7	0.00e+00	0	23	0	611319808	68	4818
2026-01-10 12:52:32.11	296.67	14.42	-51.7	-53.6	14.7	0.00e+00	0	23	0	617611264	68	4777
2026-01-10 12:52:35.10	297.29	14.38	-51.8	-53.7	14.7	0.00e+00	0	23	0	622854144	68	4843
2026-01-10 12:52:38.09	297.90	14.33	-52.0	-54.0	14.7	0.00e+00	0	23	0	628097024	69	4726
2026-01-10 12:52:41.08	298.51	14.28	-51.8	-53.7	14.8	0.00e+00	0	23	0	634388480	69	4589
2026-01-10 12:52:44.07	299.11	14.22	-51.5	-53.3	15.0	0.00e+00	0	23	0	639631360	69	4375
2026-01-10 12:52:47.05	299.72	14.16	-51.4	-53.1	15.1	0.00e+00	0	23	0	644874240	69	4279
2026-01-10 12:52:50.04	300.32	14.10	-50.8	-52.4	15.3	0.00e+00	0	23	0	651165696	68	4184
2026-01-10 12:52:53.02	300.92	14.04	-50.6	-52.2	15.2	0.00e+00	0	23	0	656408576	67	4308
2026-01-10 12:52:56.02	301.52	13.97	-50.5	-52.1	15.3	0.00e+00	0	23	0	662700032	67	4270
2026-01-10 12:52:59.03	302.12	13.90	-50.3	-51.9	15.4	0.00e+00	0	23	0	667942912	67	4158
2026-01-10 12:53:02.01	302.71	13.83	-50.7	-52.4	15.1	0.00e+00	0	23	0	673185792	67	4393
2026-01-10 12:53:05.00	303.30	13.76	-51.1	-52.8	14.9	0.00e+00	0	23	0	679477248	67	4628
2026-01-10 12:53:07.99	303.89	13.68	-51.6	-53.4	14.8	0.00e+00	0	23	0	684720128	68	4682
2026-01-10 12:53:10.98	304.47	13.60	-51.5	-53.4	14.9	0.00e+00	0	23	0	689963008	68	4667
2026-01-10 12:53:13.96	305.05	13.52	-51.1	-52.8	15.1	0.00e+00	0	23	0	696254464	68	4383
2026-01-10 12:53:16.94	305.62	13.44	-50.9	-52.5	15.2	0.00e+00	0	23	0	701497344	68	4230
2026-01-10 12:53:19.93	306.20	13.35	-50.4	-52.0	15.3	0.00e+00	0	23	0	706740224	67	4197
2026-01-10 12:53:22.93	306.77	13.27	-50.2	-51.8	15.2	0.00e+00	0	23	0	713031680	66	4359
2026-01-10 12:53:25.92	307.34	13.17	-50.3	-51.9	15.2	0.00e+00	0	23	0	718274560	66	4424
2026-01-10 12:53:28.91	307.90	13.08	-50.4	-52.1	15.1	0.00e+00	0	23	0	723517440	66	4498
2026-01-10 12:53:31.91	308.46	12.99	-50.7	-52.4	15.0	0.00e+00	0	23	0	729808896	66	4656
2026-01-10 12:53:34.90	309.02	12.89	-51.1	-53.0	14.8	0.00e+00	0	23	0	735051776	67	4707
2026-01-10 12:53:37.90	309.58	12.79	-51.0	-52.8	14.9	0.00e+00	0	23	0	740294656	67	4599
2026-01-10 12:53:40.89	310.13	12.69	-50.6	-52.3	15.2	0.00e+00	0	23	0	746586112	67	4372
2026-01-10 12:53:43.89	310.68	12.59	-50.9	-52.6	14.9	0.00e+00	0	23	0	751828992	67	4530
2026-01-10 12:53:46.87	311.22	12.48	-50.9	-52.7	14.9	0.00e+00	0	23	0	758120448	67	4553
2026-01-10 12:53:49.86	311.75	12.38	-50.9	-52.6	14.9	0.00e+00	0	23	0	763363328	67	4545
2026-01-10 12:53:52.86	312.29	12.27	-51.2	-53.1	14.7	0.00e+00	0	23	0	768606208	67	4760
2026-01-10 12:53:55.85	312.82	12.16	-51.8	-53.8	14.6	0.00e+00	0	23	0	774897664	68	4883
2026-01-10 12:53:58.84	313.35	12.05	-51.8	-53.7	14.6	0.00e+00	0	23	0	780140544	68	4870
2026-01-10 12:54:01.85	313.88	11.93	-51.6	-53.6	14.7	0.00e+00	0	23	0	785383424	68	4767
2026-01-10 12:54:04.85	314.40	11.82	-52.1	-54.1	14.5	0.00e+00	0	23	0	791674880	69	4800
2026-01-10 12:54:07.84	314.91	11.70	-52.6	-54.8	14.3	0.00e+00	0	23	0	796917760	70	4912
2026-01-10 12:54:10.82	315.42	11.58	-52.8	-55.1	14.3	0.00e+00	0	23	0	802160640	71	4762
2026-01-10 12:54:13.81	315.93	11.46	-52.7	-55.0	14.3	0.00e+00	0	23	0	808452096	71	4727
2026-01-10 12:54:16.78	316.43	11.34	-52.9	-55.2	14.2	0.00e+00	0	23	0	813694976	71	4869
2026-01-10 12:54:19.77	316.93	11.22	-52.8	-55.1	14.2	0.00e+00	0	23	0	818937856	71	4787
2026-01-10 12:54:22.75	317.42	11.10	-52.3	-54.3	14.8	0.00e+00	0	23	0	825229312	71	4390
2026-01-10 12:54:25.73	317.91	10.97	-52.3	-54.3	14.5	0.00e+00	0	23	0	830472192	70	4647
2026-01-10 12:54:28.71	318.40	10.85	-52.9	-55.3	14.1	0.00e+00	0	23	0	835715072	71	4879
2026-01-10 12:54:31.70	318.88	10.72	-53.2	-55.7	13.9	0.00e+00	0	23	0	842006528	71	5140
2026-01-10 12:54:34.70	319.36	10.59	-53.3	-55.8	13.8	0.00e+00	0	23	0	847249408	71	5208
2026-01-10 12:54:37.69	319.83	10.46	-53.2	-55.8	13.8	0.00e+00	0	23	0	852492288	71	5177
2026-01-10 12:54:40.68	320.31	10.33	-52.9	-55.3	14.1	0.00e+00	0	23	0	858783744	71	4898
2026-01-10 12:54:43.68	320.77	10.20	-52.8	-55.1	14.3	0.00e+00	0	23	0	864026624	71	4782
2026-01-10 12:54:46.66	321.24	10.07	-53.0	-55.5	14.0	0.00e+00	0	23	0	869269504	71	5022
2026-01-10 12:54:49.65	321.69	9.94	-52.9	-55.3	14.1	0.00e+00	0	23	0	875560960	71	4897
2026-01-10 12:54:52.65	322.15	9.80	-52.4	-54.6	14.5	0.00e+00	0	23	0	880803840	71	4535
2026-01-10 12:54:55.63	322.60	9.67	-52.0	-54.1	14.7	0.00e+00	0	23	0	886046720	70	4520
2026-01-10 12:54:58.63	323.05	9.53	-52.4	-54.7	14.3	0.00e+00	0	23	0	892338176	70	4822
2026-01-10 12:55:01.62	323.49	9.40	-53.1	-55.7	13.8	0.00e+00	0	23	0	897581056	71	5120
2026-01-10 12:55:04.62	323.93	9.26	-53.2	-55.8	13.7	0.00e+00	0	23	0	903872512	71	5197
2026-01-10 12:55:07.60	324.36	9.12	-52.8	-55.3	14.1	0.00e+00	0	23	0	909115392	71	4885
2026-01-10 12:55:10.60	324.80	8.99	-52.5	-54.8	14.4	0.00e+00	0	23	0	914358272	71	4625
2026-01-10 12:55:13.59	325.22	8.85	-52.5	-54.7	14.4	0.00e+00	0	23	0	920649728	71	4573
2026-01-10 12:55:16.57	325.64	8.71	-52.3	-54.5	14.5	0.00e+00	0	23	0	925892608	71	4478
2026-01-10 12:55:19.56	326.06	8.57	-52.2	-54.3	14.7	0.00e+00	0	23	0	931135488	71	4388
2026-01-10 12:55:22.54	326.48	8.43	-52.2	-54.4	14.6	0.00e+00	0	23	0	937426944	71	4394
2026-01-10 12:55:25.51	326.89	8.29	-52.2	-54.4	14.4	0.00e+00	0	23	0	942669824	70	4665
2026-01-10 12:55:28.49	327.29	8.15	-52.1	-54.3	14.5	0.00e+00	0	23	0	947912704	70	4636
2026-01-10 12:55:31.48	327.70	8.01	-52.1	-54.2	14.6	0.00e+00	0	23	0	954204160	70	4576
2026-01-10 12:55:34.48	328.10	7.86	-52.2	-54.4	14.4	0.00e+00	0	23	0	959447040	70	4667
2026-01-10 12:55:37.48	328.50	7.72	-52.2	-54.4	14.4	0.00e+00	0	23	0	964689920	70	4687
2026-01-10 12:55:40.47	328.89	7.58	-52.3	-54.5	14.3	0.00e+00	0	23	0	970981376	70	4740
2026-01-10 12:55:43.47	329.28	7.44	-52.2	-54.5	14.4	0.00e+00	0	23	0	976224256	70	4712
2026-01-10 12:55:46.47	329.66	7.29	-52.4	-54.7	14.3	0.00e+00	0	23	0	981467136	70	4819
2026-01-10 12:55:49.47	330.05	7.15	-52.6	-55.0	14.1	0.00e+00	0	23	0	987758592	70	5008
2026-01-10 12:55:52.46	330.43	7.01	-52.6	-55.1	13.9	0.00e+00	0	23	0	993001472	70	5061
2026-01-10 12:55:55.44	330.80	6.86	-52.7	-55.2	13.9	0.00e+00	0	23	0	998244352	70	5140
2026-01-10 12:55:58.41	331.17	6.72	-52.4	-54.7	14.2	0.00e+00	0	23	0	1004535808	70	4840
2026-01-10 12:56:01.40	331.53	6.57	-52.4	-54.7	14.2	0.00e+00	0	23	0	1009778688	70	4861
2026-01-10 12:56:04.39	331.90	6.43	-52.4	-54.7	14.2	0.00e+00	0	23	0	1015021568	70	4868
2026-01-10 12:56:07.39	332.26	6.28	-52.6	-55.1	13.9	0.00e+00	0	23	0	1021313024	70	5054
2026-01-10 12:56:10.38	332.62	6.14	-52.8	-55.3	13.8	0.00e+00	0	23	0	1026555904	70	5214
2026-01-10 12:56:13.37	332.97	6.00	-52.7	-55.4	13.8	0.00e+00	0	23	0	1031798784	70	5223
2026-01-10 12:56:16.35	333.32	5.85	-52.6	-55.1	13.9	0.00e+00	0	23	0	1038090240	70	5095
2026-01-10 12:56:19.32	333.66	5.71	-51.9	-55.4	14.0	0.00e+00	0	23	0	1043333120	70	5241
2026-01-10 12:56:22.30	334.01	5.56	-50.1	-55.1	13.9	0.00e+00	0	23	0	1048576000	66	6389
2026-01-10 12:56:25.27	334.35	5.42	-50.5	-55.0	13.7	0.00e+00	0	23	0	1054867456	66	6281
2026-01-10 12:56:28.27	334.68	5.27	-52.6	-55.5	13.4	0.00e+00	0	23	0	1060110336	70	5337
2026-01-10 12:56:31.23	335.02	5.13	-52.5	-55.2	13.6	0.00e+00	0	23	0	1065353216	70	5156
2026-01-10 12:56:34.22	335.35	4.99	-57.7	-72.2	3.8	7.68e-02	0	23	104	1070596096	80	20529
2026-01-10 12:56:37.23	335.68	4.84	-58.8	-74.8	3.8	1.49e+00	0	23	104	1070596096	82	24502
2026-01-10 12:56:40.24	336.00	4.69	-59.2	-75.2	3.8	1.49e+00	0	23	104	1070596096	83	24345
2026-01-10 12:56:43.24	336.33	4.55	-59.4	-75.5	3.8	1.49e+00	0	23	104	1070596096	83	25004
2026-01-10 12:56:46.23	336.65	4.40	-59.7	-75.8	3.8	1.49e+00	0	23	104	1070596096	84	24485
2026-01-10 12:56:49.23	336.96	4.26	-59.8	-75.8	3.8	1.49e+00	0	23	104	1070596096	84	24606
2026-01-10 12:56:52.24	337.28	4.11	-59.8	-75.9	3.8	1.49e+00	0	23	104	1070596096	84	24708
2026-01-10 12:56:55.23	337.59	3.97	-59.8	-75.9	3.8	1.49e+00	0	23	104	1070596096	84	24742
2026-01-10 12:56:58.23	337.89	3.82	-59.7	-75.8	3.8	1.49e+00	0	24	104	1070596096	84	24478
2026-01-10 12:57:01.22	338.20	3.68	-59.7	-75.8	3.8	1.49e+00	0	23	104	1070596096	84	24429
2026-01-10 12:57:04.22	338.50	3.54	-59.7	-75.7	3.8	1.49e+00	0	23	104	1070596096	84	24289
2026-01-10 12:57:07.22	338.80	3.39	-59.6	-75.7	3.8	1.49e+00	0	23	104	1070596096	84	24316
2026-01-10 12:57:10.21	339.10	3.25	-59.6	-75.7	3.8	1.49e+00	0	24	104	1070596096	84	24201
2026-01-10 12:57:13.21	339.39	3.10	-59.6	-75.6	3.8	1.49e+00	0	24	104	1070596096	84	24126
2026-01-10 12:57:16.20	339.68	2.96	-59.6	-75.6	3.8	1.49e+00	0	23	104	1070596096	84	24033
2026-01-10 12:57:19.20	339.97	2.82	-59.6	-75.6	3.8	1.49e+00	0	24	104	1070596096	84	24104
2026-01-10 12:57:22.20	340.26	2.67	-59.5	-75.6	3.8	1.49e+00	0	23	104	1070596096	84	23968
2026-01-10 12:57:25.19	340.54	2.53	-59.6	-75.6	3.8	1.49e+00	0	24	104	1070596096	84	23968
2026-01-10 12:57:28.20	340.82	2.39	-59.5	-75.6	3.8	1.49e+00	0	24	104	1070596096	84	23907
2026-01-10 12:57:31.19	341.10	2.24	-59.5	-75.6	3.8	1.49e+00	0	24	104	1070596096	84	23974
2026-01-10 12:57:34.19	341.37	2.10	-59.5	-75.6	3.8	1.49e+00	0	24	104	1070596096	84	23952
2026-01-10 12:57:37.19	341.65	1.96	-59.5	-75.6	3.8	1.49e+00	0	24	104	1070596096	84	23863

#Closed at: 2026-01-10 12:57:38
#Recorded file [1070 MB]: D:/lorett/data/31004_260110_154603.dat