passes_logs/2026/01/10/R3.2S_Murmansk/R3.2S_Murmansk__20260110_030554_NOAA_20_JPSS-1_rec.log

#Pass ID: 20260110_030554_NOAA 20 (JPSS-1)
#Satellite: NOAA 20 (JPSS-1)
#Configuration: NOAA 20
#almurnet v.1.7.20251203
#Start time: 2026-01-10 03:05:54

#Version: 2.2.20231116
#Station: R3.2S_Murmansk
#Location: 33.079688 lon 68.888172 lat
#TLE: 1 43013U 17073A   26009.26828276  .00000112  00000+0  74203-4 0  9990
#TLE: 2 43013  98.7631 310.2683 0001700  47.4387 312.6933 14.19534764421920

#Time	Az	El	Level	Level2	SNR	BER	BlckErr	Temp	State	Recorded	gain1	gain2
2026-01-10 03:05:54.51	38.46	1.99	-57.1	-73.0	3.8	1.49e+00	0	21	0	0	80	22410
2026-01-10 03:05:58.51	38.27	2.23	-57.0	-73.0	3.8	1.49e+00	0	21	104	0	79	23697
2026-01-10 03:06:02.51	38.07	2.47	-57.0	-73.0	3.8	1.49e+00	0	21	104	0	79	23730
2026-01-10 03:06:06.52	37.87	2.72	-57.0	-73.0	3.8	1.49e+00	0	21	104	0	79	23700
2026-01-10 03:06:10.53	37.67	2.96	-57.0	-72.9	3.8	1.49e+00	0	22	104	0	79	23579
2026-01-10 03:06:14.54	37.46	3.21	-57.0	-73.0	3.8	1.49e+00	0	22	104	0	79	23721
2026-01-10 03:06:18.55	37.25	3.46	-57.0	-73.0	3.8	1.49e+00	0	22	104	0	79	23646
2026-01-10 03:06:22.56	37.03	3.71	-57.0	-73.0	3.8	1.49e+00	0	22	104	0	79	23711
2026-01-10 03:06:26.57	36.81	3.96	-57.0	-72.4	3.8	1.49e+00	0	22	104	0	79	22240
2026-01-10 03:06:30.58	36.58	4.22	-57.0	-71.0	3.8	1.49e+00	0	22	104	0	79	18920
2026-01-10 03:06:34.59	36.35	4.48	-56.8	-68.3	4.6	1.09e+00	0	22	0	1048576	79	13751
2026-01-10 03:06:38.61	36.12	4.74	-56.5	-65.1	6.4	2.33e-01	0	22	0	8388608	79	9587
2026-01-10 03:06:42.62	35.88	5.00	-56.4	-64.6	6.8	1.22e-01	0	22	0	15728640	79	9039
2026-01-10 03:06:46.62	35.64	5.26	-56.4	-63.5	7.8	1.44e+00	0	23	0	22020096	78	8455
2026-01-10 03:06:50.62	35.39	5.52	-54.2	-57.7	12.8	1.50e-06	0	22	0	29360128	75	5129
2026-01-10 03:06:54.62	35.14	5.79	-53.7	-56.8	13.2	0.00e+00	0	22	0	36700160	73	5184
2026-01-10 03:06:58.62	34.89	6.06	-53.5	-56.4	13.6	0.00e+00	0	23	0	44040192	73	4929
2026-01-10 03:07:02.60	34.63	6.33	-53.5	-56.4	13.6	0.00e+00	0	22	0	51380224	73	4960
2026-01-10 03:07:06.61	34.36	6.60	-53.5	-56.3	13.7	0.00e+00	0	23	0	58720256	73	4899
2026-01-10 03:07:10.61	34.09	6.88	-53.4	-56.2	13.7	0.00e+00	0	23	0	66060288	73	4835
2026-01-10 03:07:14.61	33.81	7.16	-53.5	-56.3	13.7	0.00e+00	0	23	0	74448896	73	4879
2026-01-10 03:07:18.63	33.53	7.44	-53.5	-56.2	13.8	0.00e+00	0	23	0	81788928	73	4845
2026-01-10 03:07:22.62	33.24	7.72	-53.5	-56.3	13.7	0.00e+00	0	23	0	89128960	73	4914
2026-01-10 03:07:26.62	32.94	8.01	-53.4	-56.1	13.8	0.00e+00	0	23	0	96468992	73	4812
2026-01-10 03:07:30.62	32.64	8.29	-53.4	-56.1	13.9	0.00e+00	0	23	0	103809024	73	4781
2026-01-10 03:07:34.63	32.34	8.59	-53.3	-55.9	14.0	0.00e+00	0	23	0	111149056	73	4697
2026-01-10 03:07:38.64	32.02	8.88	-53.3	-55.8	14.1	0.00e+00	0	23	0	119537664	73	4631
2026-01-10 03:07:42.64	31.70	9.17	-53.1	-55.6	14.1	0.00e+00	0	23	0	126877696	72	4796
2026-01-10 03:07:46.65	31.37	9.47	-53.0	-55.4	14.2	0.00e+00	0	23	0	134217728	72	4698
2026-01-10 03:07:50.65	31.04	9.77	-52.9	-55.3	14.3	0.00e+00	0	23	0	141557760	72	4603
2026-01-10 03:07:54.65	30.70	10.08	-52.9	-55.2	14.4	0.00e+00	0	23	0	148897792	72	4576
2026-01-10 03:07:58.64	30.35	10.38	-52.8	-55.1	14.5	0.00e+00	0	23	0	156237824	72	4519
2026-01-10 03:08:02.64	29.99	10.69	-52.8	-55.0	14.5	0.00e+00	0	23	0	163577856	72	4484
2026-01-10 03:08:06.64	29.63	11.00	-52.8	-55.0	14.5	0.00e+00	0	23	0	171966464	72	4486
2026-01-10 03:08:10.65	29.25	11.32	-52.8	-55.0	14.5	0.00e+00	0	23	0	179306496	72	4492
2026-01-10 03:08:14.65	28.87	11.63	-52.7	-54.9	14.4	0.00e+00	0	23	0	186646528	71	4676
2026-01-10 03:08:18.65	28.48	11.95	-52.7	-54.9	14.4	0.00e+00	0	23	0	193986560	71	4686
2026-01-10 03:08:22.66	28.08	12.28	-52.5	-54.6	14.6	0.00e+00	0	23	0	201326592	71	4536
2026-01-10 03:08:26.67	27.67	12.60	-52.5	-54.6	14.7	0.00e+00	0	23	0	208666624	71	4515
2026-01-10 03:08:30.67	27.25	12.93	-52.6	-54.7	14.6	0.00e+00	0	23	0	217055232	71	4597
2026-01-10 03:08:34.69	26.83	13.26	-52.5	-54.7	14.6	0.00e+00	0	23	0	224395264	71	4565
2026-01-10 03:08:38.69	26.39	13.60	-52.5	-54.7	14.6	0.00e+00	0	23	0	231735296	71	4558
2026-01-10 03:08:42.71	25.94	13.94	-52.5	-54.7	14.6	0.00e+00	0	23	0	239075328	71	4570
2026-01-10 03:08:46.73	25.48	14.28	-52.6	-54.8	14.6	0.00e+00	0	23	0	246415360	71	4599
2026-01-10 03:08:50.73	25.01	14.62	-52.7	-54.9	14.4	0.00e+00	0	23	0	253755392	71	4705
2026-01-10 03:08:54.72	24.53	14.97	-52.7	-54.9	14.5	0.00e+00	0	23	0	262144000	71	4685
2026-01-10 03:08:58.72	24.03	15.32	-52.7	-54.9	14.5	0.00e+00	0	23	0	269484032	71	4677
2026-01-10 03:09:02.72	23.53	15.67	-52.7	-54.9	14.5	0.00e+00	0	23	0	276824064	71	4668
2026-01-10 03:09:06.72	23.01	16.02	-52.7	-54.9	14.5	0.00e+00	0	23	0	284164096	71	4676
2026-01-10 03:09:10.72	22.48	16.38	-52.7	-54.8	14.6	0.00e+00	0	23	0	291504128	71	4633
2026-01-10 03:09:14.72	21.94	16.74	-52.7	-54.9	14.5	0.00e+00	0	23	0	298844160	71	4668
2026-01-10 03:09:18.72	21.39	17.10	-52.5	-54.5	14.7	0.00e+00	0	23	0	307232768	71	4493
2026-01-10 03:09:22.73	20.81	17.46	-52.5	-54.5	14.7	0.00e+00	0	23	0	314572800	71	4484
2026-01-10 03:09:26.72	20.23	17.83	-52.3	-54.4	14.8	0.00e+00	0	23	0	321912832	71	4400
2026-01-10 03:09:30.72	19.63	18.20	-52.2	-54.2	14.9	0.00e+00	0	23	0	329252864	71	4312
2026-01-10 03:09:34.72	19.02	18.57	-52.2	-54.2	14.8	0.00e+00	0	23	0	336592896	70	4550
2026-01-10 03:09:38.73	18.39	18.95	-52.2	-54.1	14.8	0.00e+00	0	23	0	343932928	70	4531
2026-01-10 03:09:42.74	17.74	19.32	-52.1	-54.1	14.9	0.00e+00	0	23	0	351272960	70	4503
2026-01-10 03:09:46.75	17.08	19.70	-52.2	-54.1	14.9	0.00e+00	0	23	0	359661568	70	4530
2026-01-10 03:09:50.75	16.40	20.08	-52.0	-53.9	15.0	0.00e+00	0	23	0	367001600	70	4402
2026-01-10 03:09:54.73	15.70	20.46	-52.1	-54.0	14.9	0.00e+00	0	23	0	374341632	70	4462
2026-01-10 03:09:58.73	14.99	20.84	-52.2	-54.2	14.8	0.00e+00	0	23	0	381681664	70	4548
2026-01-10 03:10:02.72	14.26	21.22	-52.4	-54.4	14.7	0.00e+00	0	23	0	389021696	70	4658
2026-01-10 03:10:06.72	13.51	21.60	-52.4	-54.5	14.6	0.00e+00	0	23	0	396361728	70	4717
2026-01-10 03:10:10.72	12.74	21.98	-52.7	-54.8	14.5	0.00e+00	0	23	0	404750336	70	4883
2026-01-10 03:10:14.72	11.95	22.37	-52.5	-54.5	14.6	0.00e+00	0	23	0	412090368	70	4743
2026-01-10 03:10:18.72	11.14	22.75	-52.4	-54.4	14.7	0.00e+00	0	23	0	419430400	70	4666
2026-01-10 03:10:22.72	10.31	23.13	-52.1	-54.1	14.9	0.00e+00	0	23	0	426770432	70	4494
2026-01-10 03:10:26.70	9.46	23.51	-51.9	-53.8	15.0	0.00e+00	0	23	0	434110464	70	4356
2026-01-10 03:10:30.71	8.59	23.89	-51.8	-53.6	15.2	0.00e+00	0	23	0	441450496	70	4249
2026-01-10 03:10:34.71	7.70	24.27	-51.5	-53.2	15.2	0.00e+00	0	23	0	448790528	69	4338
2026-01-10 03:10:38.70	6.78	24.64	-51.5	-53.2	15.2	0.00e+00	0	23	0	457179136	69	4306
2026-01-10 03:10:42.70	5.85	25.02	-51.5	-53.2	15.2	0.00e+00	0	23	0	464519168	69	4330
2026-01-10 03:10:46.69	4.89	25.38	-51.3	-53.0	15.3	0.00e+00	0	23	0	471859200	69	4235
2026-01-10 03:10:50.69	3.91	25.75	-51.4	-53.1	15.2	0.00e+00	0	23	0	479199232	69	4275
2026-01-10 03:10:54.68	2.90	26.11	-51.3	-53.0	15.3	0.00e+00	0	23	0	486539264	69	4219
2026-01-10 03:10:58.68	1.87	26.46	-51.9	-53.8	14.8	0.00e+00	0	23	0	493879296	69	4620
2026-01-10 03:11:02.69	0.82	26.81	-52.2	-54.1	14.7	0.00e+00	0	23	0	501219328	69	4770
2026-01-10 03:11:06.68	359.74	27.16	-52.2	-54.2	14.7	0.00e+00	0	23	0	509607936	69	4818
2026-01-10 03:11:10.68	358.65	27.49	-52.7	-54.8	14.5	0.00e+00	0	23	0	516947968	70	4879
2026-01-10 03:11:14.68	357.52	27.82	-53.0	-55.2	14.4	0.00e+00	0	23	0	524288000	71	4834
2026-01-10 03:11:18.68	356.38	28.14	-53.2	-55.4	14.3	0.00e+00	0	23	0	531628032	71	4962
2026-01-10 03:11:22.67	355.21	28.45	-53.4	-55.7	14.3	0.00e+00	0	23	0	538968064	72	4852
2026-01-10 03:11:26.67	354.02	28.75	-53.3	-55.6	14.4	0.00e+00	0	23	0	546308096	72	4765
2026-01-10 03:11:30.65	352.81	29.03	-53.2	-55.4	14.5	0.00e+00	0	23	0	553648128	72	4679
2026-01-10 03:11:34.65	351.58	29.31	-53.0	-55.1	14.6	0.00e+00	0	23	0	562036736	72	4513
2026-01-10 03:11:38.66	350.32	29.57	-53.1	-55.3	14.5	0.00e+00	0	23	0	569376768	72	4613
2026-01-10 03:11:42.66	349.04	29.82	-53.0	-55.1	14.7	0.00e+00	0	23	0	576716800	72	4498
2026-01-10 03:11:46.66	347.75	30.06	-53.1	-55.3	14.6	0.00e+00	0	23	0	584056832	72	4631
2026-01-10 03:11:50.65	346.44	30.28	-53.3	-55.5	14.5	0.00e+00	0	23	0	591396864	72	4723
2026-01-10 03:11:54.64	345.11	30.48	-53.4	-55.6	14.4	0.00e+00	0	23	0	598736896	72	4780
2026-01-10 03:11:58.64	343.76	30.67	-53.5	-55.8	14.2	0.00e+00	0	23	0	606076928	72	4894
2026-01-10 03:12:02.63	342.40	30.85	-53.4	-55.6	14.3	0.00e+00	0	24	0	614465536	72	4795
2026-01-10 03:12:06.62	341.02	31.00	-53.2	-55.3	14.6	0.00e+00	0	23	0	621805568	72	4637
2026-01-10 03:12:10.62	339.63	31.14	-53.1	-55.2	14.6	0.00e+00	0	23	0	629145600	72	4564
2026-01-10 03:12:14.61	338.24	31.25	-53.1	-55.1	14.6	0.00e+00	0	23	0	636485632	72	4543
2026-01-10 03:12:18.61	336.83	31.35	-53.5	-55.7	14.3	0.00e+00	0	23	0	643825664	72	4866
2026-01-10 03:12:22.64	335.40	31.43	-53.3	-55.5	14.4	0.00e+00	0	23	0	651165696	72	4719
2026-01-10 03:12:26.64	333.97	31.49	-54.1	-56.6	13.9	0.00e+00	0	23	0	659554304	73	5066
2026-01-10 03:12:30.64	332.54	31.53	-54.0	-56.4	14.0	0.00e+00	0	23	0	666894336	73	4963
2026-01-10 03:12:34.62	331.12	31.55	-53.9	-56.3	14.1	0.00e+00	0	23	0	674234368	73	4899
2026-01-10 03:12:38.62	329.68	31.55	-53.9	-56.4	14.1	0.00e+00	0	23	0	681574400	73	4927
2026-01-10 03:12:42.63	328.25	31.53	-53.8	-56.1	14.2	0.00e+00	0	23	0	688914432	73	4814
2026-01-10 03:12:46.64	326.81	31.49	-53.3	-55.5	14.6	0.00e+00	0	23	0	696254464	73	4442
2026-01-10 03:12:50.64	325.39	31.43	-53.8	-56.2	14.2	0.00e+00	0	23	0	703594496	73	4819
2026-01-10 03:12:54.65	323.97	31.34	-53.4	-55.6	14.6	0.00e+00	0	23	0	711983104	73	4511
2026-01-10 03:12:58.64	322.56	31.24	-53.6	-55.8	14.4	0.00e+00	0	23	0	719323136	73	4641
2026-01-10 03:13:02.65	321.15	31.12	-53.6	-55.9	14.4	0.00e+00	0	23	0	726663168	73	4665
2026-01-10 03:13:06.64	319.77	30.99	-53.5	-55.7	14.5	0.00e+00	0	23	0	734003200	73	4554
2026-01-10 03:13:10.66	318.38	30.83	-53.4	-55.6	14.5	0.00e+00	0	23	0	741343232	73	4531
2026-01-10 03:13:14.66	317.02	30.65	-53.4	-55.6	14.5	0.00e+00	0	23	0	748683264	73	4535
2026-01-10 03:13:18.67	315.67	30.46	-53.6	-55.9	14.4	0.00e+00	0	23	0	757071872	73	4654
2026-01-10 03:13:22.67	314.34	30.25	-53.7	-56.1	14.2	0.00e+00	0	23	0	764411904	73	4771
2026-01-10 03:13:26.67	313.02	30.03	-53.5	-55.8	14.4	0.00e+00	0	23	0	771751936	73	4600
2026-01-10 03:13:30.68	311.73	29.79	-54.0	-56.4	14.0	0.00e+00	0	23	0	779091968	73	4956
2026-01-10 03:13:34.67	310.45	29.54	-53.8	-56.2	14.2	0.00e+00	0	23	0	786432000	73	4827
2026-01-10 03:13:38.66	309.20	29.28	-54.2	-56.8	13.8	0.00e+00	0	23	0	793772032	73	5169
2026-01-10 03:13:42.67	307.97	29.00	-53.9	-56.4	14.0	0.00e+00	0	23	0	802160640	73	4947
2026-01-10 03:13:46.67	306.75	28.71	-53.7	-56.0	14.3	0.00e+00	0	23	0	809500672	73	4759
2026-01-10 03:13:50.67	305.56	28.41	-53.3	-55.5	14.6	0.00e+00	0	23	0	816840704	73	4455
2026-01-10 03:13:54.68	304.39	28.10	-53.5	-55.7	14.5	0.00e+00	0	23	0	824180736	73	4551
2026-01-10 03:13:58.68	303.25	27.78	-52.9	-54.9	14.8	0.00e+00	0	23	0	831520768	72	4436
2026-01-10 03:14:02.66	302.14	27.45	-53.1	-55.2	14.6	0.00e+00	0	23	0	838860800	72	4554
2026-01-10 03:14:06.65	301.04	27.11	-53.0	-55.1	14.7	0.00e+00	0	23	0	846200832	72	4504
2026-01-10 03:14:10.64	299.97	26.77	-52.8	-54.8	14.9	0.00e+00	0	23	0	854589440	72	4352
2026-01-10 03:14:14.63	298.92	26.42	-52.7	-54.6	14.8	0.00e+00	0	23	0	861929472	71	4531
2026-01-10 03:14:18.63	297.89	26.06	-52.5	-54.4	14.9	0.00e+00	0	23	0	869269504	71	4436
2026-01-10 03:14:22.64	296.88	25.70	-52.3	-54.2	15.1	0.00e+00	0	23	0	876609536	71	4301
2026-01-10 03:14:26.64	295.90	25.34	-52.0	-53.8	15.1	0.00e+00	0	23	0	883949568	70	4345
2026-01-10 03:14:30.63	294.95	24.97	-51.5	-53.2	15.2	0.00e+00	0	23	0	891289600	69	4331
2026-01-10 03:14:34.64	294.01	24.59	-51.0	-52.6	15.4	0.00e+00	0	23	0	898629632	68	4258
2026-01-10 03:14:38.64	293.09	24.22	-50.9	-52.5	15.4	0.00e+00	0	23	0	907018240	68	4207
2026-01-10 03:14:42.64	292.20	23.84	-50.9	-52.5	15.4	0.00e+00	0	23	0	914358272	68	4201
2026-01-10 03:14:46.65	291.33	23.46	-50.1	-51.5	15.5	0.00e+00	0	23	0	921698304	66	4231
2026-01-10 03:14:50.64	290.48	23.08	-50.1	-51.5	15.5	0.00e+00	0	23	0	929038336	66	4236
2026-01-10 03:14:54.63	289.65	22.69	-50.0	-51.5	15.5	0.00e+00	0	23	0	936378368	66	4201
2026-01-10 03:14:58.63	288.84	22.31	-49.6	-51.1	15.5	0.00e+00	0	23	0	943718400	65	4252
2026-01-10 03:15:02.60	288.06	21.93	-50.0	-51.6	15.3	0.00e+00	0	23	0	951058432	65	4494
2026-01-10 03:15:06.59	287.29	21.55	-50.2	-51.7	15.2	0.00e+00	0	23	0	959447040	65	4590
2026-01-10 03:15:10.58	286.55	21.16	-50.3	-51.8	15.2	0.00e+00	0	23	0	966787072	65	4650
2026-01-10 03:15:14.58	285.81	20.78	-50.5	-52.1	15.2	0.00e+00	0	23	0	974127104	66	4521
2026-01-10 03:15:18.57	285.10	20.40	-50.4	-52.0	15.3	0.00e+00	0	23	0	981467136	66	4443
2026-01-10 03:15:22.58	284.41	20.02	-50.8	-52.5	15.0	0.00e+00	0	23	0	988807168	66	4724
2026-01-10 03:15:26.59	283.73	19.64	-51.1	-52.8	15.0	0.00e+00	0	23	0	996147200	67	4608
2026-01-10 03:15:30.58	283.06	19.26	-51.1	-52.8	15.0	0.00e+00	0	23	0	1003487232	67	4631
2026-01-10 03:15:34.58	282.42	18.89	-51.3	-53.0	14.9	0.00e+00	0	23	0	1011875840	67	4728
2026-01-10 03:15:38.57	281.79	18.51	-51.5	-53.3	15.0	0.00e+00	0	23	0	1019215872	68	4599
2026-01-10 03:15:42.58	281.18	18.14	-51.7	-53.5	14.8	0.00e+00	0	23	0	1026555904	68	4757
2026-01-10 03:15:46.57	280.58	17.77	-51.9	-53.7	14.8	0.00e+00	0	23	0	1033895936	68	4855
2026-01-10 03:15:50.57	279.99	17.41	-51.7	-53.5	14.8	0.00e+00	0	23	0	1041235968	68	4753
2026-01-10 03:15:54.57	279.42	17.04	-52.0	-53.9	14.8	0.00e+00	0	23	0	1048576000	69	4659
2026-01-10 03:15:58.56	278.87	16.68	-52.2	-54.2	14.7	0.00e+00	0	23	0	1056964608	69	4832
2026-01-10 03:16:02.55	278.33	16.32	-52.2	-54.1	14.7	0.00e+00	0	23	0	1064304640	69	4797
2026-01-10 03:16:06.56	277.80	15.96	-52.3	-54.3	14.6	0.00e+00	0	23	0	1071644672	69	4895
2026-01-10 03:16:10.56	277.28	15.61	-52.7	-54.8	14.5	0.00e+00	0	23	0	1078984704	70	4885
2026-01-10 03:16:14.54	276.78	15.26	-52.5	-54.6	14.6	0.00e+00	0	23	0	1086324736	70	4795
2026-01-10 03:16:18.54	276.29	14.91	-52.6	-54.7	14.5	0.00e+00	0	23	0	1093664768	70	4829
2026-01-10 03:16:22.56	275.80	14.56	-52.8	-54.9	14.4	0.00e+00	0	23	0	1101004800	70	4968
2026-01-10 03:16:26.57	275.33	14.22	-52.8	-55.0	14.5	0.00e+00	0	23	0	1109393408	71	4722
2026-01-10 03:16:30.58	274.87	13.88	-52.5	-54.6	14.7	0.00e+00	0	23	0	1116733440	71	4511
2026-01-10 03:16:34.55	274.43	13.54	-52.7	-54.8	14.6	0.00e+00	0	23	0	1124073472	71	4626
2026-01-10 03:16:38.55	273.99	13.21	-52.8	-54.9	14.5	0.00e+00	0	23	0	1131413504	71	4694
2026-01-10 03:16:42.55	273.56	12.88	-52.9	-55.1	14.4	0.00e+00	0	23	0	1138753536	71	4795
2026-01-10 03:16:46.55	273.14	12.55	-53.0	-55.2	14.3	0.00e+00	0	23	0	1146093568	71	4856
2026-01-10 03:16:50.56	272.73	12.22	-53.0	-55.4	14.2	0.00e+00	0	23	0	1154482176	71	4935
2026-01-10 03:16:54.55	272.33	11.90	-53.1	-55.4	14.1	0.00e+00	0	23	0	1161822208	71	4979
2026-01-10 03:16:58.57	271.94	11.58	-53.2	-55.6	14.0	0.00e+00	0	23	0	1169162240	71	5076
2026-01-10 03:17:02.56	271.56	11.26	-53.3	-55.7	14.0	0.00e+00	0	23	0	1176502272	71	5123
2026-01-10 03:17:06.56	271.18	10.95	-53.4	-56.0	13.9	0.00e+00	0	23	0	1183842304	72	4991
2026-01-10 03:17:10.56	270.82	10.64	-53.3	-55.7	14.1	0.00e+00	0	23	0	1191182336	72	4866
2026-01-10 03:17:14.56	270.46	10.33	-53.6	-56.3	13.6	0.00e+00	0	23	0	1198522368	72	5183
2026-01-10 03:17:18.56	270.11	10.02	-54.0	-57.1	13.1	0.00e+00	0	23	0	1206910976	73	5344
2026-01-10 03:17:22.56	269.77	9.72	-54.3	-57.8	12.5	0.00e+00	0	23	0	1214251008	73	5811
2026-01-10 03:17:26.56	269.43	9.42	-55.1	-60.0	10.7	1.73e-04	0	23	0	1221591040	75	6678
2026-01-10 03:17:30.55	269.11	9.12	-56.0	-63.8	7.2	6.05e-02	0	23	0	1228931072	77	9213
2026-01-10 03:17:34.58	268.78	8.82	-56.0	-65.1	6.1	3.14e-01	0	23	0	1236271104	77	10694
2026-01-10 03:17:38.57	268.47	8.53	-56.2	-67.3	4.8	3.63e-01	0	23	0	1243611136	78	13030
2026-01-10 03:17:42.57	268.16	8.24	-56.0	-65.4	5.8	3.56e-01	0	23	0	1250951168	78	10430
2026-01-10 03:17:46.58	267.86	7.95	-55.5	-61.4	9.5	1.05e-02	0	23	0	1258291200	77	6968
2026-01-10 03:17:50.60	267.56	7.66	-55.0	-59.2	11.7	1.02e-04	0	24	0	1265631232	76	5751
2026-01-10 03:17:54.59	267.27	7.38	-54.0	-57.2	13.0	0.00e+00	0	24	0	1274019840	74	5132
2026-01-10 03:17:58.58	266.99	7.10	-53.5	-56.4	13.6	0.00e+00	0	23	0	1281359872	73	4936
2026-01-10 03:18:02.59	266.71	6.82	-54.0	-57.2	13.0	0.00e+00	0	23	0	1288699904	73	5433
2026-01-10 03:18:06.57	266.44	6.55	-54.2	-57.5	12.8	0.00e+00	0	24	0	1296039936	73	5621
2026-01-10 03:18:10.57	266.17	6.28	-54.3	-57.6	12.8	0.00e+00	0	24	0	1303379968	73	5702
2026-01-10 03:18:14.57	265.91	6.00	-54.2	-57.5	12.8	0.00e+00	0	23	0	1310720000	73	5605
2026-01-10 03:18:18.58	265.65	5.73	-54.3	-57.6	12.7	7.00e-07	0	24	0	1319108608	73	5696
2026-01-10 03:18:22.59	265.40	5.47	-54.4	-57.8	12.6	1.50e-06	0	23	0	1326448640	73	5821
2026-01-10 03:18:26.60	265.15	5.20	-54.6	-58.2	12.3	7.00e-07	0	24	0	1333788672	74	5787
2026-01-10 03:18:30.61	264.90	4.94	-58.1	-74.1	3.8	1.49e+00	0	24	104	1340080128	81	23986
2026-01-10 03:18:34.61	264.67	4.68	-58.8	-74.9	3.8	1.49e+00	0	24	104	1340080128	82	24746
2026-01-10 03:18:38.61	264.43	4.42	-59.2	-75.2	3.8	1.49e+00	0	24	104	1340080128	83	24365
2026-01-10 03:18:42.63	264.20	4.16	-59.3	-75.4	3.8	1.49e+00	0	24	104	1340080128	83	24880
2026-01-10 03:18:46.63	263.98	3.91	-59.7	-75.8	3.8	1.49e+00	0	24	104	1340080128	84	24414
2026-01-10 03:18:50.63	263.75	3.65	-59.7	-75.8	3.8	1.49e+00	0	24	104	1340080128	84	24462
2026-01-10 03:18:54.65	263.54	3.40	-59.6	-75.7	3.8	1.49e+00	0	24	104	1340080128	84	24208
2026-01-10 03:18:58.65	263.32	3.15	-59.6	-75.6	3.8	1.49e+00	0	24	104	1340080128	84	24087
2026-01-10 03:19:02.65	263.11	2.91	-59.6	-75.6	3.8	1.49e+00	0	24	104	1340080128	84	24016
2026-01-10 03:19:06.65	262.91	2.66	-59.5	-75.6	3.8	1.49e+00	0	24	104	1340080128	84	23905
2026-01-10 03:19:10.64	262.70	2.42	-59.5	-75.6	3.8	1.49e+00	0	24	104	1340080128	84	23864
2026-01-10 03:19:14.63	262.51	2.18	-59.5	-75.6	3.8	1.49e+00	0	24	104	1340080128	84	23856

#Closed at: 2026-01-10 03:19:17
#Recorded file [1340 MB]: D:/lorett/data/31004_260110_060554.dat