passes_logs/2026/01/10/R3.2S_Murmansk/R3.2S_Murmansk__20260110_212517_SUOMI_NPP_rec.log

#Pass ID: 20260110_212517_SUOMI NPP
#Satellite: SUOMI NPP
#Configuration: NPP
#almurnet v.1.7.20251203
#Start time: 2026-01-10 21:25:18

#Version: 2.2.20231116
#Station: R3.2S_Murmansk
#Location: 33.079688 lon 68.888172 lat
#TLE: 1 37849U 11061A   26009.81756760  .00000113  00000+0  74747-4 0  9994
#TLE: 2 37849  98.7806 311.9110 0002525  72.5604 287.5848 14.19524046735974

#Time	Az	El	Level	Level2	SNR	BER	BlckErr	Temp	State	Recorded	gain1	gain2
2026-01-10 21:25:18.82	18.67	2.08	-57.0	-72.9	3.8	1.49e+00	0	21	0	0	80	22239
2026-01-10 21:25:21.83	18.96	2.22	-57.0	-72.9	3.8	1.49e+00	0	21	104	0	79	23403
2026-01-10 21:25:24.83	19.25	2.35	-57.0	-72.9	3.8	1.49e+00	0	21	104	0	79	23376
2026-01-10 21:25:27.83	19.55	2.49	-57.0	-72.8	3.8	1.49e+00	0	21	104	0	79	23235
2026-01-10 21:25:30.82	19.85	2.62	-57.0	-72.8	3.8	1.49e+00	0	21	104	0	79	23176
2026-01-10 21:25:33.83	20.15	2.76	-57.0	-72.8	3.8	1.49e+00	0	21	104	0	79	23265
2026-01-10 21:25:36.82	20.46	2.89	-57.0	-73.0	3.8	1.49e+00	0	22	104	0	79	23591
2026-01-10 21:25:39.83	20.77	3.03	-57.0	-73.0	3.8	1.49e+00	0	22	104	0	79	23626
2026-01-10 21:25:42.84	21.08	3.17	-57.0	-72.8	3.8	1.49e+00	0	22	104	0	79	23272
2026-01-10 21:25:45.84	21.39	3.30	-57.0	-72.8	3.8	1.49e+00	0	22	104	0	79	23241
2026-01-10 21:25:48.84	21.71	3.44	-57.0	-72.9	3.8	1.49e+00	0	22	104	0	79	23481
2026-01-10 21:25:51.83	22.03	3.57	-57.0	-72.9	3.8	1.49e+00	0	22	104	0	79	23370
2026-01-10 21:25:54.82	22.35	3.71	-57.0	-72.9	3.8	1.49e+00	0	22	104	0	79	23517
2026-01-10 21:25:57.81	22.67	3.84	-57.0	-72.7	3.8	1.49e+00	0	22	104	0	79	22790
2026-01-10 21:26:00.81	23.00	3.98	-57.0	-72.6	3.8	1.49e+00	0	22	104	0	79	22637
2026-01-10 21:26:03.80	23.33	4.11	-57.0	-72.7	3.8	1.49e+00	0	22	104	0	79	22843
2026-01-10 21:26:06.81	23.66	4.25	-56.9	-70.7	3.8	1.49e+00	0	22	104	0	79	18220
2026-01-10 21:26:09.81	24.00	4.38	-56.9	-69.6	4.1	1.44e+00	0	22	0	0	79	15997
2026-01-10 21:26:12.81	24.33	4.52	-56.0	-63.2	8.0	7.72e-02	0	22	0	4194304	78	8105
2026-01-10 21:26:15.79	24.67	4.65	-53.7	-57.4	12.6	3.00e-06	0	22	0	10485760	74	5254
2026-01-10 21:26:18.80	25.02	4.79	-53.8	-57.5	12.4	0.00e+00	0	22	0	15728640	73	5643
2026-01-10 21:26:21.80	25.37	4.92	-54.9	-60.0	10.5	3.65e-04	0	22	0	20971520	74	7076
2026-01-10 21:26:24.79	25.72	5.06	-53.9	-57.7	12.4	2.75e-02	0	22	0	27262976	74	5449
2026-01-10 21:26:27.79	26.07	5.19	-56.1	-64.3	6.8	3.56e-01	0	22	0	32505856	78	9244
2026-01-10 21:26:30.78	26.43	5.32	-53.3	-56.4	13.4	0.00e+00	0	22	0	37748736	73	4927
2026-01-10 21:26:33.77	26.79	5.46	-52.8	-55.7	13.7	0.00e+00	0	22	0	44040192	72	4838
2026-01-10 21:26:36.76	27.15	5.59	-52.4	-55.1	14.0	0.00e+00	0	22	0	49283072	71	4805
2026-01-10 21:26:39.77	27.52	5.72	-52.7	-55.6	13.7	0.00e+00	0	22	0	54525952	71	5061
2026-01-10 21:26:42.75	27.89	5.85	-52.7	-55.5	13.7	0.00e+00	0	22	0	60817408	70	5297
2026-01-10 21:26:45.74	28.26	5.99	-52.1	-54.7	14.2	0.00e+00	0	22	0	66060288	70	4822
2026-01-10 21:26:48.72	28.63	6.12	-52.3	-54.9	14.0	0.00e+00	0	22	0	71303168	70	4929
2026-01-10 21:26:51.72	29.01	6.25	-52.2	-54.8	14.1	0.00e+00	0	22	0	77594624	70	4911
2026-01-10 21:26:54.72	29.39	6.38	-52.3	-55.0	14.0	0.00e+00	0	23	0	82837504	70	5004
2026-01-10 21:26:57.71	29.78	6.51	-52.0	-55.4	13.2	1.01e-02	0	22	0	88080384	70	5230
2026-01-10 21:27:00.70	30.17	6.64	-50.9	-55.0	12.8	3.83e-02	0	22	0	94371840	68	5607
2026-01-10 21:27:03.69	30.56	6.77	-50.0	-54.7	12.4	4.38e-02	0	23	0	99614720	65	6474
2026-01-10 21:27:06.68	30.95	6.90	-49.7	-54.8	12.3	4.58e-02	0	22	0	105906176	64	6942
2026-01-10 21:27:09.67	31.35	7.03	-50.5	-54.9	12.5	4.51e-02	0	23	0	111149056	66	6252
2026-01-10 21:27:12.67	31.76	7.16	-51.6	-55.6	12.4	3.60e-02	0	23	0	116391936	68	6003
2026-01-10 21:27:15.67	32.16	7.29	-52.3	-55.2	13.4	9.70e-04	0	23	0	122683392	69	5406
2026-01-10 21:27:18.67	32.57	7.42	-52.4	-55.2	13.8	7.00e-07	0	23	0	127926272	70	5135
2026-01-10 21:27:21.68	32.99	7.54	-52.4	-55.3	13.6	2.13e-05	0	23	0	133169152	70	5204
2026-01-10 21:27:24.67	33.40	7.67	-52.5	-55.4	13.7	1.52e-04	0	23	0	139460608	70	5230
2026-01-10 21:27:27.67	33.82	7.80	-52.4	-55.0	14.0	0.00e+00	0	23	0	144703488	70	5030
2026-01-10 21:27:30.68	34.25	7.92	-52.4	-55.1	14.0	0.00e+00	0	23	0	150994944	70	5044
2026-01-10 21:27:33.68	34.68	8.05	-52.5	-55.3	13.9	0.00e+00	0	23	0	156237824	70	5161
2026-01-10 21:27:36.68	35.11	8.17	-52.5	-55.3	13.9	0.00e+00	0	23	0	161480704	70	5173
2026-01-10 21:27:39.67	35.54	8.29	-52.4	-55.1	14.0	0.00e+00	0	23	0	167772160	70	5084
2026-01-10 21:27:42.65	35.98	8.41	-52.1	-54.6	14.3	0.00e+00	0	23	0	173015040	70	4787
2026-01-10 21:27:45.65	36.42	8.53	-52.4	-55.0	13.9	0.00e+00	0	23	0	178257920	70	5018
2026-01-10 21:27:48.64	36.86	8.65	-52.5	-55.2	13.9	0.00e+00	0	23	0	184549376	70	5142
2026-01-10 21:27:51.63	37.31	8.77	-52.5	-55.3	13.8	0.00e+00	0	23	0	189792256	70	5176
2026-01-10 21:27:54.63	37.76	8.89	-52.5	-55.3	13.9	0.00e+00	0	23	0	195035136	70	5164
2026-01-10 21:27:57.61	38.22	9.01	-52.3	-55.0	14.1	0.00e+00	0	23	0	201326592	70	4987
2026-01-10 21:28:00.60	38.67	9.13	-52.3	-54.9	14.1	0.00e+00	0	23	0	206569472	70	4938
2026-01-10 21:28:03.59	39.14	9.24	-52.6	-55.3	13.8	0.00e+00	0	23	0	211812352	70	5192
2026-01-10 21:28:06.59	39.60	9.36	-52.7	-55.6	13.7	0.00e+00	0	23	0	218103808	70	5361
2026-01-10 21:28:09.58	40.07	9.47	-52.8	-55.7	13.6	0.00e+00	0	23	0	223346688	70	5411
2026-01-10 21:28:12.56	40.54	9.58	-52.8	-55.7	13.7	0.00e+00	0	23	0	228589568	71	5117
2026-01-10 21:28:15.57	41.02	9.69	-52.9	-55.8	13.7	0.00e+00	0	23	0	234881024	71	5214
2026-01-10 21:28:18.56	41.50	9.80	-52.9	-55.8	13.7	0.00e+00	0	23	0	240123904	71	5178
2026-01-10 21:28:21.55	41.98	9.91	-52.9	-55.8	13.7	0.00e+00	0	23	0	245366784	71	5172
2026-01-10 21:28:24.56	42.47	10.02	-52.8	-55.6	13.8	0.00e+00	0	23	0	251658240	71	5069
2026-01-10 21:28:27.57	42.96	10.12	-52.6	-55.3	14.0	0.00e+00	0	23	0	256901120	71	4905
2026-01-10 21:28:30.55	43.45	10.23	-52.7	-55.4	14.0	0.00e+00	0	23	0	263192576	71	4962
2026-01-10 21:28:33.54	43.95	10.33	-52.7	-55.5	13.9	0.00e+00	0	23	0	268435456	71	4990
2026-01-10 21:28:36.53	44.45	10.43	-52.4	-55.0	14.2	0.00e+00	0	23	0	273678336	71	4755
2026-01-10 21:28:39.53	44.96	10.53	-52.4	-55.0	14.2	0.00e+00	0	23	0	279969792	71	4718
2026-01-10 21:28:42.52	45.46	10.63	-52.2	-54.8	14.2	0.00e+00	0	23	0	285212672	70	4886
2026-01-10 21:28:45.52	45.97	10.73	-52.3	-54.9	14.1	0.00e+00	0	23	0	290455552	70	4928
2026-01-10 21:28:48.52	46.49	10.82	-52.4	-55.1	14.0	0.00e+00	0	23	0	296747008	70	5077
2026-01-10 21:28:51.52	47.01	10.91	-52.6	-55.3	13.9	0.00e+00	0	23	0	301989888	70	5186
2026-01-10 21:28:54.53	47.53	11.01	-52.5	-55.2	13.9	0.00e+00	0	23	0	307232768	70	5107
2026-01-10 21:28:57.52	48.05	11.10	-52.4	-55.0	14.1	0.00e+00	0	23	0	313524224	70	5003
2026-01-10 21:29:00.51	48.58	11.18	-52.2	-54.7	14.3	0.00e+00	0	23	0	318767104	70	4815
2026-01-10 21:29:03.49	49.10	11.27	-51.9	-54.3	14.5	0.00e+00	0	23	0	324009984	70	4619
2026-01-10 21:29:06.47	49.63	11.35	-52.1	-54.5	14.4	0.00e+00	0	23	0	330301440	70	4736
2026-01-10 21:29:09.45	50.17	11.44	-52.5	-55.0	14.1	0.00e+00	0	23	0	335544320	70	5033
2026-01-10 21:29:12.45	50.70	11.52	-52.6	-55.2	13.9	0.00e+00	0	23	0	340787200	70	5130
2026-01-10 21:29:15.44	51.24	11.60	-52.1	-54.5	14.3	0.00e+00	0	23	0	347078656	70	4734
2026-01-10 21:29:18.44	51.79	11.67	-52.0	-54.4	14.5	0.00e+00	0	23	0	352321536	70	4652
2026-01-10 21:29:21.45	52.34	11.75	-52.3	-54.8	14.2	0.00e+00	0	23	0	358612992	70	4907
2026-01-10 21:29:24.46	52.89	11.82	-52.0	-54.2	14.6	0.00e+00	0	23	0	363855872	70	4594
2026-01-10 21:29:27.45	53.44	11.89	-51.6	-53.8	14.7	0.00e+00	0	23	0	369098752	69	4626
2026-01-10 21:29:30.45	54.00	11.96	-52.0	-54.4	14.2	0.00e+00	0	23	0	375390208	69	4956
2026-01-10 21:29:33.44	54.55	12.02	-52.3	-54.8	14.0	0.00e+00	0	23	0	380633088	69	5175
2026-01-10 21:29:36.45	55.12	12.09	-52.1	-54.4	14.2	0.00e+00	0	23	0	385875968	69	4958
2026-01-10 21:29:39.44	55.68	12.15	-53.1	-55.9	13.6	0.00e+00	0	23	0	392167424	71	5270
2026-01-10 21:29:42.44	56.24	12.21	-53.5	-56.6	13.4	0.00e+00	0	23	0	397410304	72	5352
2026-01-10 21:29:45.42	56.81	12.27	-52.8	-55.4	14.1	0.00e+00	0	23	0	402653184	72	4677
2026-01-10 21:29:48.43	57.38	12.32	-52.6	-55.2	14.0	0.00e+00	0	23	0	408944640	71	4839
2026-01-10 21:29:51.44	57.95	12.37	-53.1	-56.0	13.6	0.00e+00	0	23	0	414187520	71	5301
2026-01-10 21:29:54.43	58.52	12.42	-52.8	-55.5	13.9	0.00e+00	0	23	0	420478976	71	5006
2026-01-10 21:29:57.42	59.09	12.47	-52.8	-55.5	13.9	0.00e+00	0	23	0	425721856	71	5035
2026-01-10 21:30:00.41	59.67	12.51	-53.1	-56.0	13.6	0.00e+00	0	23	0	430964736	71	5321
2026-01-10 21:30:03.39	60.24	12.55	-52.8	-55.5	13.9	0.00e+00	0	23	0	437256192	71	4988
2026-01-10 21:30:06.38	60.82	12.59	-52.2	-54.5	14.3	0.00e+00	0	23	0	442499072	70	4755
2026-01-10 21:30:09.37	61.40	12.63	-52.5	-55.0	14.1	0.00e+00	0	23	0	447741952	70	5039
2026-01-10 21:30:12.36	61.98	12.66	-52.4	-55.0	14.1	0.00e+00	0	23	0	454033408	70	4988
2026-01-10 21:30:15.35	62.56	12.70	-51.7	-53.9	14.8	0.00e+00	0	23	0	459276288	70	4428
2026-01-10 21:30:18.33	63.15	12.72	-51.3	-53.4	14.8	0.00e+00	0	23	0	464519168	69	4436
2026-01-10 21:30:21.33	63.73	12.75	-51.5	-53.7	14.7	0.00e+00	0	23	0	470810624	69	4576
2026-01-10 21:30:24.32	64.32	12.77	-51.4	-53.6	14.7	0.00e+00	0	23	0	476053504	69	4542
2026-01-10 21:30:27.32	64.91	12.79	-51.7	-53.9	14.5	0.00e+00	0	23	0	481296384	69	4689
2026-01-10 21:30:30.31	65.49	12.81	-51.8	-54.1	14.5	0.00e+00	0	23	0	487587840	69	4799
2026-01-10 21:30:33.31	66.08	12.83	-51.6	-53.9	14.6	0.00e+00	0	23	0	492830720	69	4666
2026-01-10 21:30:36.31	66.67	12.84	-51.7	-54.0	14.5	0.00e+00	0	23	0	498073600	69	4753
2026-01-10 21:30:39.31	67.26	12.85	-51.8	-54.1	14.5	0.00e+00	0	23	0	504365056	69	4794
2026-01-10 21:30:42.32	67.86	12.86	-51.6	-53.8	14.6	0.00e+00	0	23	0	509607936	69	4633
2026-01-10 21:30:45.32	68.45	12.86	-51.7	-54.0	14.5	0.00e+00	0	23	0	515899392	69	4721
2026-01-10 21:30:48.33	69.04	12.86	-51.7	-54.0	14.6	0.00e+00	0	23	0	521142272	69	4710
2026-01-10 21:30:51.32	69.63	12.86	-51.6	-53.8	14.6	0.00e+00	0	23	0	526385152	69	4630
2026-01-10 21:30:54.32	70.22	12.86	-51.8	-54.2	14.4	0.00e+00	0	23	0	532676608	69	4826
2026-01-10 21:30:57.32	70.81	12.85	-51.6	-53.9	14.6	0.00e+00	0	23	0	537919488	69	4674
2026-01-10 21:31:00.31	71.40	12.84	-51.0	-53.1	14.9	0.00e+00	0	23	0	543162368	68	4496
2026-01-10 21:31:03.30	71.99	12.83	-50.5	-52.4	15.0	0.00e+00	0	23	0	549453824	67	4436
2026-01-10 21:31:06.29	72.58	12.82	-50.7	-52.7	14.9	0.00e+00	0	23	0	554696704	67	4564
2026-01-10 21:31:09.29	73.17	12.80	-50.7	-52.7	14.9	0.00e+00	0	23	0	559939584	67	4568
2026-01-10 21:31:12.28	73.76	12.78	-50.8	-52.8	14.8	0.00e+00	0	23	0	566231040	67	4614
2026-01-10 21:31:15.28	74.35	12.75	-51.2	-53.3	14.5	0.00e+00	0	23	0	571473920	67	4903
2026-01-10 21:31:18.27	74.93	12.73	-51.1	-53.2	14.6	0.00e+00	0	23	0	576716800	67	4827
2026-01-10 21:31:21.26	75.51	12.70	-50.8	-52.8	14.8	0.00e+00	0	23	0	583008256	67	4645
2026-01-10 21:31:24.26	76.10	12.67	-51.1	-53.2	14.6	0.00e+00	0	23	0	588251136	67	4840
2026-01-10 21:31:27.27	76.69	12.64	-51.2	-53.3	14.5	0.00e+00	0	23	0	594542592	67	4920
2026-01-10 21:31:30.27	77.27	12.60	-51.0	-53.1	14.7	0.00e+00	0	23	0	599785472	67	4770
2026-01-10 21:31:33.27	77.85	12.56	-50.7	-52.7	14.9	0.00e+00	0	23	0	605028352	67	4552
2026-01-10 21:31:36.27	78.43	12.52	-50.7	-52.7	14.9	0.00e+00	0	23	0	611319808	67	4577
2026-01-10 21:31:39.26	79.00	12.48	-50.6	-52.6	14.9	0.00e+00	0	23	0	616562688	67	4500
2026-01-10 21:31:42.25	79.58	12.43	-50.5	-52.4	15.0	0.00e+00	0	23	0	621805568	67	4423
2026-01-10 21:31:45.26	80.16	12.38	-50.7	-52.6	14.9	0.00e+00	0	23	0	628097024	67	4501
2026-01-10 21:31:48.25	80.73	12.33	-50.6	-52.5	14.9	0.00e+00	0	23	0	633339904	67	4474
2026-01-10 21:31:51.24	81.29	12.27	-50.6	-52.5	15.0	0.00e+00	0	23	0	638582784	67	4444
2026-01-10 21:31:54.23	81.86	12.22	-50.5	-52.4	15.0	0.00e+00	0	23	0	644874240	67	4419
2026-01-10 21:31:57.23	82.43	12.16	-50.7	-52.6	14.9	0.00e+00	0	23	0	650117120	67	4499
2026-01-10 21:32:00.22	82.99	12.10	-50.7	-52.6	14.9	0.00e+00	0	23	0	655360000	67	4508
2026-01-10 21:32:03.23	83.55	12.03	-50.4	-52.3	15.1	0.00e+00	0	23	0	661651456	67	4370
2026-01-10 21:32:06.22	84.11	11.97	-50.5	-52.3	15.1	0.00e+00	0	23	0	666894336	67	4375
2026-01-10 21:32:09.21	84.67	11.90	-50.5	-52.4	15.0	0.00e+00	0	23	0	672137216	67	4408
2026-01-10 21:32:12.19	85.22	11.83	-50.5	-52.3	15.1	0.00e+00	0	23	0	678428672	67	4371
2026-01-10 21:32:15.19	85.77	11.76	-50.0	-51.8	15.2	0.00e+00	0	23	0	683671552	66	4366
2026-01-10 21:32:18.19	86.32	11.68	-50.2	-52.0	15.1	0.00e+00	0	23	0	689963008	66	4467
2026-01-10 21:32:21.20	86.87	11.61	-50.3	-52.1	15.0	0.00e+00	0	23	0	695205888	66	4518
2026-01-10 21:32:24.19	87.41	11.53	-50.3	-52.1	15.0	0.00e+00	0	23	0	700448768	66	4518
2026-01-10 21:32:27.20	87.95	11.45	-50.4	-52.3	14.9	0.00e+00	0	23	0	706740224	66	4622
2026-01-10 21:32:30.20	88.49	11.36	-50.3	-52.2	15.0	0.00e+00	0	23	0	711983104	66	4546
2026-01-10 21:32:33.21	89.03	11.28	-50.4	-52.3	14.9	0.00e+00	0	23	0	717225984	66	4600
2026-01-10 21:32:36.20	89.56	11.19	-50.6	-52.5	14.8	0.00e+00	0	23	0	723517440	66	4742
2026-01-10 21:32:39.18	90.08	11.11	-50.7	-52.7	14.7	0.00e+00	0	23	0	728760320	66	4821
2026-01-10 21:32:42.19	90.61	11.02	-50.9	-53.0	14.6	0.00e+00	0	23	0	735051776	67	4730
2026-01-10 21:32:45.19	91.13	10.92	-51.2	-53.4	14.5	0.00e+00	0	23	0	740294656	67	4936
2026-01-10 21:32:48.19	91.65	10.83	-51.7	-53.9	14.3	0.00e+00	0	23	0	745537536	68	4980
2026-01-10 21:32:51.17	92.17	10.73	-51.6	-53.9	14.3	0.00e+00	0	23	0	751828992	68	4956
2026-01-10 21:32:54.18	92.68	10.64	-51.4	-53.5	14.5	0.00e+00	0	23	0	757071872	68	4757
2026-01-10 21:32:57.17	93.19	10.54	-51.7	-54.0	14.3	0.00e+00	0	23	0	762314752	68	5031
2026-01-10 21:33:00.16	93.70	10.44	-52.4	-55.0	13.8	0.00e+00	0	23	0	768606208	69	5339
2026-01-10 21:33:03.15	94.20	10.34	-52.5	-55.3	13.8	0.00e+00	0	23	0	773849088	70	5186
2026-01-10 21:33:06.13	94.69	10.23	-52.2	-54.8	14.1	0.00e+00	0	23	0	779091968	70	4893
2026-01-10 21:33:09.13	95.19	10.13	-52.5	-55.3	13.8	0.00e+00	0	23	0	785383424	70	5194
2026-01-10 21:33:12.13	95.68	10.02	-52.7	-55.6	13.6	0.00e+00	0	23	0	790626304	70	5377
2026-01-10 21:33:15.12	96.17	9.92	-52.2	-54.7	14.2	0.00e+00	0	23	0	795869184	70	4850
2026-01-10 21:33:18.12	96.66	9.81	-52.2	-54.9	14.1	0.00e+00	0	23	0	802160640	70	4927
2026-01-10 21:33:21.11	97.14	9.70	-52.6	-55.5	13.6	0.00e+00	0	23	0	807403520	70	5289
2026-01-10 21:33:24.12	97.62	9.58	-52.6	-55.5	13.6	0.00e+00	0	23	0	812646400	70	5316
2026-01-10 21:33:27.10	98.09	9.47	-52.9	-55.8	13.5	0.00e+00	0	23	0	818937856	71	5206
2026-01-10 21:33:30.11	98.56	9.36	-52.8	-55.8	13.6	0.00e+00	0	23	0	824180736	71	5210
2026-01-10 21:33:33.12	99.04	9.24	-52.7	-55.7	13.6	0.00e+00	0	23	0	830472192	71	5115
2026-01-10 21:33:36.11	99.50	9.13	-52.7	-55.7	13.6	0.00e+00	0	23	0	835715072	71	5128
2026-01-10 21:33:39.09	99.96	9.01	-52.7	-55.7	13.6	0.00e+00	0	23	0	840957952	71	5134
2026-01-10 21:33:42.09	100.41	8.89	-52.5	-55.4	13.9	0.00e+00	0	23	0	847249408	71	4946
2026-01-10 21:33:45.09	100.87	8.77	-52.1	-54.7	14.2	0.00e+00	0	23	0	852492288	70	4817
2026-01-10 21:33:48.09	101.32	8.65	-51.9	-54.3	14.4	0.00e+00	0	23	0	857735168	70	4642
2026-01-10 21:33:51.10	101.77	8.53	-52.2	-54.8	14.1	0.00e+00	0	23	0	864026624	70	4876
2026-01-10 21:33:54.10	102.21	8.41	-52.6	-55.5	13.5	0.00e+00	0	23	0	869269504	70	5319
2026-01-10 21:33:57.09	102.65	8.29	-53.0	-55.7	13.6	0.00e+00	0	23	0	874512384	71	5156
2026-01-10 21:34:00.10	103.09	8.16	-52.7	-55.3	13.9	0.00e+00	0	23	0	880803840	71	4881
2026-01-10 21:34:03.09	103.52	8.04	-52.6	-55.0	14.1	0.00e+00	0	23	0	886046720	71	4735
2026-01-10 21:34:06.08	103.95	7.91	-52.6	-55.0	14.1	0.00e+00	0	23	0	892338176	71	4748
2026-01-10 21:34:09.07	104.37	7.79	-52.4	-54.8	14.2	0.00e+00	0	23	0	897581056	71	4636
2026-01-10 21:34:12.06	104.79	7.66	-52.4	-54.7	14.3	0.00e+00	0	23	0	902823936	71	4587
2026-01-10 21:34:15.06	105.21	7.53	-52.2	-54.6	14.2	0.00e+00	0	23	0	909115392	70	4766
2026-01-10 21:34:18.04	105.62	7.41	-52.2	-54.6	14.2	0.00e+00	0	23	0	914358272	70	4764
2026-01-10 21:34:21.03	106.03	7.28	-52.5	-54.9	14.0	0.00e+00	0	23	0	919601152	70	4977
2026-01-10 21:34:24.03	106.44	7.15	-52.2	-54.4	14.3	0.00e+00	0	23	0	925892608	70	4695
2026-01-10 21:34:27.02	106.85	7.02	-52.0	-54.2	14.4	0.00e+00	0	23	0	931135488	70	4589
2026-01-10 21:34:30.01	107.25	6.89	-52.0	-54.3	14.4	0.00e+00	0	23	0	936378368	70	4610
2026-01-10 21:34:33.01	107.64	6.76	-52.3	-54.7	14.1	0.00e+00	0	23	0	942669824	70	4819
2026-01-10 21:34:36.00	108.04	6.63	-52.3	-54.7	14.1	0.00e+00	0	23	0	947912704	70	4849
2026-01-10 21:34:38.99	108.43	6.50	-52.5	-54.9	14.0	0.00e+00	0	23	0	953155584	70	4964
2026-01-10 21:34:42.00	108.82	6.37	-52.4	-54.8	14.1	0.00e+00	0	23	0	959447040	70	4918
2026-01-10 21:34:44.98	109.20	6.23	-52.6	-55.1	13.9	0.00e+00	0	23	0	964689920	70	5084
2026-01-10 21:34:47.99	109.58	6.10	-52.5	-55.0	13.9	0.00e+00	0	23	0	969932800	70	5001
2026-01-10 21:34:50.98	109.96	5.97	-52.5	-55.0	13.9	0.00e+00	0	23	0	976224256	70	5009
2026-01-10 21:34:53.98	110.33	5.83	-52.4	-54.9	14.0	0.00e+00	0	23	0	981467136	70	4962
2026-01-10 21:34:56.98	110.70	5.70	-52.4	-54.9	14.0	0.00e+00	0	23	0	987758592	70	4950
2026-01-10 21:34:59.98	111.07	5.57	-52.3	-54.8	14.0	0.00e+00	0	23	0	993001472	70	4889
2026-01-10 21:35:02.98	111.43	5.43	-52.8	-55.5	13.6	0.00e+00	0	23	0	998244352	70	5283
2026-01-10 21:35:05.97	111.79	5.30	-52.8	-55.5	13.7	0.00e+00	0	23	0	1004535808	71	5002
2026-01-10 21:35:08.97	112.15	5.16	-52.9	-55.6	13.5	0.00e+00	0	23	0	1009778688	71	5099
2026-01-10 21:35:11.97	112.51	5.03	-52.8	-55.6	13.6	0.00e+00	0	23	0	1015021568	71	5051
2026-01-10 21:35:14.95	112.86	4.89	-58.1	-74.1	3.8	1.49e+00	0	23	104	1017118720	81	23970
2026-01-10 21:35:17.96	113.21	4.76	-58.6	-74.6	3.8	1.49e+00	0	23	104	1017118720	82	24060
2026-01-10 21:35:20.95	113.55	4.62	-58.8	-74.9	3.8	1.49e+00	0	23	104	1017118720	82	24824
2026-01-10 21:35:23.95	113.90	4.49	-59.0	-75.0	3.8	1.49e+00	0	23	104	1017118720	83	23749
2026-01-10 21:35:26.96	114.24	4.35	-59.1	-75.2	3.8	1.49e+00	0	23	104	1017118720	83	24144
2026-01-10 21:35:29.96	114.57	4.21	-59.2	-75.2	3.8	1.49e+00	0	23	104	1017118720	83	24354
2026-01-10 21:35:32.97	114.91	4.08	-59.2	-75.3	3.8	1.49e+00	0	23	104	1017118720	83	24569
2026-01-10 21:35:35.96	115.24	3.94	-59.3	-75.4	3.8	1.49e+00	0	23	104	1017118720	83	24787
2026-01-10 21:35:38.96	115.56	3.80	-59.4	-75.5	3.8	1.49e+00	0	23	104	1017118720	83	25101
2026-01-10 21:35:41.95	115.89	3.67	-59.7	-75.7	3.8	1.49e+00	0	23	104	1017118720	84	24325
2026-01-10 21:35:44.95	116.21	3.53	-59.6	-75.7	3.8	1.49e+00	0	23	104	1017118720	84	24195
2026-01-10 21:35:47.95	116.53	3.39	-59.6	-75.7	3.8	1.49e+00	0	23	104	1017118720	84	24144
2026-01-10 21:35:50.95	116.85	3.26	-59.6	-75.6	3.8	1.49e+00	0	23	104	1017118720	84	24042
2026-01-10 21:35:53.95	117.16	3.12	-59.5	-75.6	3.8	1.49e+00	0	23	104	1017118720	84	24015
2026-01-10 21:35:56.95	117.47	2.98	-59.5	-75.6	3.8	1.49e+00	0	23	104	1017118720	84	23914
2026-01-10 21:35:59.95	117.78	2.85	-59.5	-75.5	3.8	1.49e+00	0	23	104	1017118720	84	23820
2026-01-10 21:36:02.95	118.08	2.71	-59.5	-75.5	3.8	1.49e+00	0	23	104	1017118720	84	23847
2026-01-10 21:36:05.94	118.39	2.58	-59.5	-75.5	3.8	1.49e+00	0	23	104	1017118720	84	23727
2026-01-10 21:36:08.93	118.68	2.44	-59.5	-75.5	3.8	1.49e+00	0	23	104	1017118720	84	23773
2026-01-10 21:36:11.93	118.98	2.30	-59.5	-75.5	3.8	1.49e+00	0	23	104	1017118720	84	23781
2026-01-10 21:36:14.91	119.28	2.17	-59.5	-75.5	3.8	1.49e+00	0	23	104	1017118720	84	23725
2026-01-10 21:36:17.90	119.57	2.03	-59.4	-75.5	3.8	1.49e+00	0	23	104	1017118720	84	23763
2026-01-10 21:36:20.90	119.86	1.90	-59.4	-75.5	3.8	1.49e+00	0	23	104	1017118720	84	23675

#Closed at: 2026-01-10 21:36:21
#Recorded file [1017 MB]: D:/lorett/data/31004_260111_002518.dat