passes_logs/2026/01/10/R3.2S_Murmansk/R3.2S_Murmansk__20260110_044522_NOAA_20_JPSS-1_rec.log

#Pass ID: 20260110_044522_NOAA 20 (JPSS-1)
#Satellite: NOAA 20 (JPSS-1)
#Configuration: NOAA 20
#almurnet v.1.7.20251203
#Start time: 2026-01-10 04:45:23

#Version: 2.2.20231116
#Station: R3.2S_Murmansk
#Location: 33.079688 lon 68.888172 lat
#TLE: 1 43013U 17073A   26009.26828276  .00000112  00000+0  74203-4 0  9990
#TLE: 2 43013  98.7631 310.2683 0001700  47.4387 312.6933 14.19534764421920

#Time	Az	El	Level	Level2	SNR	BER	BlckErr	Temp	State	Recorded	gain1	gain2
2026-01-10 04:45:23.52	56.26	2.09	-57.1	-73.0	3.8	1.49e+00	0	21	0	0	80	22460
2026-01-10 04:45:27.52	56.01	2.31	-57.1	-73.0	3.8	1.49e+00	0	21	104	0	79	23808
2026-01-10 04:45:31.52	55.75	2.54	-57.1	-73.0	3.8	1.49e+00	0	21	104	0	79	23731
2026-01-10 04:45:35.52	55.48	2.77	-57.1	-73.0	3.8	1.49e+00	0	22	104	0	79	23851
2026-01-10 04:45:39.52	55.21	3.01	-57.1	-73.0	3.8	1.49e+00	0	22	104	0	79	23847
2026-01-10 04:45:43.53	54.94	3.24	-57.1	-73.1	3.8	1.49e+00	0	22	104	0	79	23895
2026-01-10 04:45:47.53	54.66	3.47	-57.1	-73.0	3.8	1.49e+00	0	22	104	0	79	23703
2026-01-10 04:45:51.54	54.38	3.71	-57.1	-73.0	3.8	1.49e+00	0	22	104	0	79	23834
2026-01-10 04:45:55.55	54.09	3.95	-57.1	-73.0	3.8	1.49e+00	0	22	104	0	79	23718
2026-01-10 04:45:59.56	53.79	4.19	-57.1	-73.0	3.8	1.49e+00	0	22	104	0	79	23700
2026-01-10 04:46:03.56	53.49	4.43	-57.0	-71.0	3.8	1.49e+00	0	22	104	0	79	18872
2026-01-10 04:46:07.56	53.19	4.67	-56.8	-68.0	4.7	9.13e-01	0	22	0	2097152	79	13377
2026-01-10 04:46:11.56	52.88	4.91	-56.5	-65.4	6.2	2.51e-01	0	22	0	9437184	79	9936
2026-01-10 04:46:15.55	52.57	5.15	-55.3	-60.1	10.9	9.35e-03	0	22	0	16777216	77	6021
2026-01-10 04:46:19.54	52.25	5.40	-55.2	-59.8	11.1	1.73e-03	0	23	0	23068672	76	6182
2026-01-10 04:46:23.54	51.93	5.64	-54.0	-57.3	13.0	0.00e+00	0	22	0	30408704	74	5161
2026-01-10 04:46:27.54	51.59	5.89	-54.0	-57.3	13.0	7.00e-07	0	22	0	37748736	74	5192
2026-01-10 04:46:31.54	51.26	6.14	-53.8	-56.9	13.3	0.00e+00	0	22	0	46137344	74	4980
2026-01-10 04:46:35.53	50.92	6.39	-53.7	-56.8	13.4	0.00e+00	0	23	0	53477376	74	4906
2026-01-10 04:46:39.53	50.57	6.65	-53.7	-56.7	13.4	0.00e+00	0	23	0	60817408	73	5118
2026-01-10 04:46:43.54	50.21	6.90	-53.8	-56.9	13.2	0.00e+00	0	23	0	68157440	73	5257
2026-01-10 04:46:47.55	49.85	7.16	-53.7	-56.8	13.3	7.00e-07	0	23	0	75497472	73	5166
2026-01-10 04:46:51.55	49.48	7.41	-53.7	-56.7	13.4	0.00e+00	0	23	0	82837504	73	5132
2026-01-10 04:46:55.54	49.10	7.67	-53.7	-56.7	13.4	0.00e+00	0	23	0	91226112	73	5115
2026-01-10 04:46:59.55	48.72	7.93	-53.7	-56.6	13.4	0.00e+00	0	23	0	98566144	73	5096
2026-01-10 04:47:03.57	48.33	8.19	-53.6	-56.5	13.5	0.00e+00	0	23	0	105906176	73	5024
2026-01-10 04:47:07.57	47.93	8.46	-53.5	-56.2	13.8	0.00e+00	0	23	0	113246208	73	4849
2026-01-10 04:47:11.56	47.53	8.72	-53.3	-56.0	14.0	0.00e+00	0	23	0	120586240	73	4727
2026-01-10 04:47:15.55	47.12	8.98	-53.2	-55.8	14.1	0.00e+00	0	23	0	127926272	73	4643
2026-01-10 04:47:19.54	46.70	9.25	-53.3	-55.9	14.0	0.00e+00	0	23	0	135266304	73	4661
2026-01-10 04:47:23.52	46.27	9.52	-53.3	-56.0	14.0	0.00e+00	0	23	0	143654912	73	4723
2026-01-10 04:47:27.52	45.83	9.79	-53.4	-56.1	13.9	0.00e+00	0	23	0	150994944	73	4790
2026-01-10 04:47:31.49	45.39	10.05	-53.4	-56.1	13.9	0.00e+00	0	23	0	158334976	73	4801
2026-01-10 04:47:35.48	44.94	10.33	-53.6	-56.4	13.7	0.00e+00	0	23	0	165675008	73	4942
2026-01-10 04:47:39.50	44.48	10.60	-53.3	-55.9	14.1	0.00e+00	0	23	0	173015040	73	4688
2026-01-10 04:47:43.50	44.01	10.87	-53.3	-55.9	14.1	0.00e+00	0	23	0	180355072	73	4697
2026-01-10 04:47:47.50	43.53	11.15	-53.2	-55.7	14.2	0.00e+00	0	23	0	187695104	73	4562
2026-01-10 04:47:51.48	43.04	11.42	-53.3	-55.8	14.0	0.00e+00	0	23	0	196083712	72	4905
2026-01-10 04:47:55.49	42.54	11.70	-52.9	-55.2	14.4	0.00e+00	0	23	0	203423744	72	4588
2026-01-10 04:47:59.49	42.03	11.98	-52.9	-55.2	14.4	0.00e+00	0	23	0	210763776	72	4562
2026-01-10 04:48:03.50	41.51	12.26	-52.9	-55.2	14.4	0.00e+00	0	23	0	218103808	72	4582
2026-01-10 04:48:07.51	40.98	12.54	-52.8	-55.1	14.4	0.00e+00	0	23	0	225443840	72	4541
2026-01-10 04:48:11.52	40.44	12.82	-52.6	-54.8	14.5	0.00e+00	0	23	0	232783872	71	4633
2026-01-10 04:48:15.51	39.89	13.10	-52.6	-54.8	14.5	0.00e+00	0	23	0	240123904	71	4629
2026-01-10 04:48:19.49	39.34	13.38	-52.4	-54.5	14.7	0.00e+00	0	23	0	248512512	71	4450
2026-01-10 04:48:23.48	38.77	13.67	-52.3	-54.4	14.8	0.00e+00	0	23	0	255852544	71	4414
2026-01-10 04:48:27.46	38.19	13.95	-52.4	-54.5	14.7	0.00e+00	0	23	0	263192576	71	4459
2026-01-10 04:48:31.45	37.59	14.23	-52.5	-54.7	14.6	0.00e+00	0	23	0	270532608	71	4576
2026-01-10 04:48:35.46	36.99	14.51	-52.6	-54.8	14.5	0.00e+00	0	23	0	277872640	71	4610
2026-01-10 04:48:39.46	36.37	14.80	-52.6	-54.9	14.5	0.00e+00	0	23	0	285212672	71	4652
2026-01-10 04:48:43.47	35.74	15.08	-52.8	-55.1	14.3	0.00e+00	0	23	0	292552704	71	4789
2026-01-10 04:48:47.47	35.10	15.36	-52.9	-55.3	14.2	0.00e+00	0	23	0	300941312	71	4893
2026-01-10 04:48:51.46	34.44	15.64	-52.9	-55.2	14.3	0.00e+00	0	23	0	308281344	71	4850
2026-01-10 04:48:55.46	33.78	15.92	-52.9	-55.2	14.3	0.00e+00	0	23	0	315621376	71	4836
2026-01-10 04:48:59.46	33.10	16.20	-53.0	-55.3	14.2	0.00e+00	0	23	0	322961408	71	4900
2026-01-10 04:49:03.46	32.40	16.48	-53.0	-55.3	14.2	0.00e+00	0	23	0	330301440	71	4902
2026-01-10 04:49:07.47	31.70	16.76	-53.0	-55.3	14.2	0.00e+00	0	23	0	337641472	71	4913
2026-01-10 04:49:11.47	30.98	17.04	-53.0	-55.3	14.2	0.00e+00	0	23	0	346030080	71	4920
2026-01-10 04:49:15.48	30.24	17.32	-52.9	-55.2	14.3	0.00e+00	0	23	0	353370112	71	4868
2026-01-10 04:49:19.47	29.50	17.59	-52.8	-55.1	14.4	0.00e+00	0	23	0	360710144	71	4763
2026-01-10 04:49:23.46	28.74	17.86	-52.6	-54.8	14.6	0.00e+00	0	23	0	368050176	71	4612
2026-01-10 04:49:27.47	27.96	18.13	-52.3	-54.3	14.8	0.00e+00	0	23	0	375390208	71	4379
2026-01-10 04:49:31.45	27.18	18.39	-51.6	-53.4	15.1	0.00e+00	0	23	0	382730240	69	4407
2026-01-10 04:49:35.45	26.38	18.66	-51.4	-53.2	15.2	0.00e+00	0	23	0	390070272	69	4294
2026-01-10 04:49:39.45	25.56	18.92	-51.1	-52.9	15.1	0.00e+00	0	23	0	398458880	68	4406
2026-01-10 04:49:43.44	24.73	19.17	-51.1	-52.8	15.2	0.00e+00	0	23	0	405798912	68	4382
2026-01-10 04:49:47.45	23.88	19.43	-50.9	-52.5	15.4	0.00e+00	0	23	0	413138944	68	4226
2026-01-10 04:49:51.47	23.02	19.68	-50.8	-52.5	15.4	0.00e+00	0	23	0	420478976	68	4213
2026-01-10 04:49:55.47	22.15	19.92	-50.5	-52.1	15.4	0.00e+00	0	23	0	427819008	67	4275
2026-01-10 04:49:59.47	21.26	20.16	-50.6	-52.2	15.3	0.00e+00	0	23	0	435159040	67	4305
2026-01-10 04:50:03.49	20.36	20.40	-50.7	-52.4	15.2	0.00e+00	0	23	0	443547648	67	4411
2026-01-10 04:50:07.47	19.45	20.63	-50.9	-52.6	15.1	0.00e+00	0	23	0	450887680	67	4506
2026-01-10 04:50:11.47	18.52	20.85	-50.6	-52.3	15.3	0.00e+00	0	23	0	458227712	67	4354
2026-01-10 04:50:15.47	17.58	21.07	-50.6	-52.2	15.3	0.00e+00	0	23	0	465567744	67	4337
2026-01-10 04:50:19.46	16.62	21.28	-50.6	-52.2	15.3	0.00e+00	0	23	0	472907776	67	4321
2026-01-10 04:50:23.44	15.66	21.48	-50.0	-51.5	15.5	0.00e+00	0	23	0	480247808	66	4239
2026-01-10 04:50:27.42	14.68	21.67	-50.2	-51.7	15.4	0.00e+00	0	23	0	487587840	66	4335
2026-01-10 04:50:31.42	13.69	21.86	-50.1	-51.6	15.4	0.00e+00	0	23	0	495976448	66	4277
2026-01-10 04:50:35.41	12.69	22.04	-49.9	-51.4	15.6	0.00e+00	0	23	0	503316480	66	4168
2026-01-10 04:50:39.42	11.67	22.22	-50.0	-51.5	15.5	0.00e+00	0	23	0	510656512	66	4210
2026-01-10 04:50:43.44	10.64	22.38	-50.3	-51.9	15.3	0.00e+00	0	23	0	517996544	66	4426
2026-01-10 04:50:47.43	9.60	22.53	-50.3	-51.9	15.3	0.00e+00	0	23	0	525336576	66	4421
2026-01-10 04:50:51.44	8.55	22.68	-50.5	-52.1	15.2	0.00e+00	0	23	0	532676608	66	4507
2026-01-10 04:50:55.43	7.49	22.82	-50.8	-52.5	15.1	0.00e+00	0	23	0	541065216	66	4709
2026-01-10 04:50:59.43	6.43	22.94	-51.5	-53.3	14.9	0.00e+00	0	23	0	548405248	68	4622
2026-01-10 04:51:03.45	5.34	23.06	-51.5	-53.3	15.0	0.00e+00	0	23	0	555745280	68	4640
2026-01-10 04:51:07.45	4.26	23.16	-51.7	-53.5	14.9	0.00e+00	0	23	0	563085312	68	4741
2026-01-10 04:51:11.46	3.17	23.26	-52.1	-54.1	14.7	0.00e+00	0	23	0	570425344	69	4783
2026-01-10 04:51:15.45	2.07	23.34	-52.2	-54.2	14.7	0.00e+00	0	23	0	577765376	69	4845
2026-01-10 04:51:19.45	0.97	23.41	-52.4	-54.4	14.5	0.00e+00	0	23	0	585105408	69	4966
2026-01-10 04:51:23.44	359.87	23.47	-52.2	-54.2	14.6	0.00e+00	0	23	0	593494016	69	4854
2026-01-10 04:51:27.44	358.76	23.52	-52.1	-54.0	14.8	0.00e+00	0	23	0	600834048	69	4719
2026-01-10 04:51:31.42	357.65	23.56	-52.1	-54.0	14.7	0.00e+00	0	23	0	608174080	69	4735
2026-01-10 04:51:35.40	356.54	23.59	-52.0	-53.9	14.8	0.00e+00	0	23	0	615514112	69	4679
2026-01-10 04:51:39.40	355.42	23.60	-51.8	-53.7	15.0	0.00e+00	0	23	0	622854144	69	4547
2026-01-10 04:51:43.41	354.30	23.60	-51.6	-53.9	15.1	0.00e+00	0	23	0	630194176	69	4661
2026-01-10 04:51:47.41	353.18	23.59	-51.3	-53.0	15.3	0.00e+00	0	23	0	637534208	69	4239
2026-01-10 04:51:51.41	352.06	23.57	-51.3	-53.1	15.3	0.00e+00	0	23	0	645922816	69	4253
2026-01-10 04:51:55.41	350.95	23.54	-51.0	-52.7	15.3	0.00e+00	0	23	0	653262848	68	4335
2026-01-10 04:51:59.41	349.84	23.49	-50.9	-52.5	15.4	0.00e+00	0	23	0	660602880	68	4234
2026-01-10 04:52:03.42	348.72	23.44	-50.0	-51.5	15.5	0.00e+00	0	23	0	667942912	66	4240
2026-01-10 04:52:07.42	347.62	23.37	-49.9	-51.3	15.6	0.00e+00	0	23	0	675282944	66	4143
2026-01-10 04:52:11.43	346.52	23.29	-49.9	-51.4	15.6	0.00e+00	0	23	0	682622976	66	4152
2026-01-10 04:52:15.43	345.43	23.20	-49.8	-51.2	15.6	0.00e+00	0	23	0	691011584	66	4086
2026-01-10 04:52:19.42	344.34	23.10	-49.7	-51.2	15.5	0.00e+00	0	23	0	698351616	65	4316
2026-01-10 04:52:23.42	343.26	22.99	-49.9	-51.4	15.4	0.00e+00	0	23	0	705691648	65	4404
2026-01-10 04:52:27.41	342.19	22.87	-49.9	-51.4	15.4	0.00e+00	0	23	0	713031680	65	4421
2026-01-10 04:52:31.40	341.14	22.74	-50.4	-52.0	15.1	0.00e+00	0	23	0	720371712	65	4713
2026-01-10 04:52:35.40	340.08	22.60	-50.6	-52.3	15.1	0.00e+00	0	23	0	727711744	66	4613
2026-01-10 04:52:39.39	339.04	22.45	-50.9	-52.7	15.1	0.00e+00	0	23	0	735051776	67	4546
2026-01-10 04:52:43.39	338.01	22.29	-50.9	-52.5	15.2	0.00e+00	0	23	0	743440384	67	4474
2026-01-10 04:52:47.39	336.99	22.12	-51.3	-53.1	14.9	0.00e+00	0	23	0	750780416	67	4787
2026-01-10 04:52:51.40	335.98	21.94	-51.6	-53.4	14.9	0.00e+00	0	23	0	758120448	68	4685
2026-01-10 04:52:55.39	334.98	21.75	-51.5	-53.3	14.9	0.00e+00	0	23	0	765460480	68	4643
2026-01-10 04:52:59.39	333.99	21.56	-51.8	-53.7	14.7	0.00e+00	0	23	0	772800512	68	4836
2026-01-10 04:53:03.39	333.02	21.36	-52.2	-54.2	14.6	0.00e+00	0	23	0	780140544	69	4839
2026-01-10 04:53:07.41	332.05	21.15	-51.8	-53.6	14.9	0.00e+00	0	23	0	787480576	69	4525
2026-01-10 04:53:11.42	331.11	20.94	-52.2	-54.2	14.6	0.00e+00	0	23	0	795869184	69	4850
2026-01-10 04:53:15.42	330.17	20.72	-51.8	-53.7	15.0	0.00e+00	0	23	0	803209216	69	4547
2026-01-10 04:53:19.41	329.25	20.49	-51.7	-53.5	15.0	0.00e+00	0	23	0	810549248	69	4481
2026-01-10 04:53:23.41	328.35	20.26	-51.7	-53.6	15.0	0.00e+00	0	23	0	817889280	69	4494
2026-01-10 04:53:27.41	327.45	20.02	-51.7	-53.6	15.0	0.00e+00	0	23	0	825229312	69	4509
2026-01-10 04:53:31.40	326.58	19.78	-51.6	-53.5	15.0	0.00e+00	0	23	0	832569344	69	4456
2026-01-10 04:53:35.38	325.72	19.53	-51.5	-53.3	15.1	0.00e+00	0	23	0	840957952	69	4376
2026-01-10 04:53:39.38	324.87	19.28	-51.7	-53.5	15.0	0.00e+00	0	23	0	848297984	69	4469
2026-01-10 04:53:43.38	324.03	19.03	-51.6	-53.4	15.1	0.00e+00	0	23	0	855638016	69	4427
2026-01-10 04:53:47.38	323.21	18.77	-51.5	-53.3	15.1	0.00e+00	0	23	0	862978048	69	4360
2026-01-10 04:53:51.39	322.40	18.51	-51.7	-53.6	15.0	0.00e+00	0	23	0	870318080	69	4498
2026-01-10 04:53:55.38	321.61	18.24	-51.7	-53.6	14.9	0.00e+00	0	23	0	877658112	69	4521
2026-01-10 04:53:59.39	320.82	17.97	-51.8	-53.6	14.9	0.00e+00	0	23	0	884998144	69	4534
2026-01-10 04:54:03.41	320.05	17.70	-51.7	-53.6	14.9	0.00e+00	0	23	0	893386752	69	4522
2026-01-10 04:54:07.40	319.30	17.43	-51.8	-53.7	14.8	0.00e+00	0	23	0	900726784	69	4589
2026-01-10 04:54:11.39	318.57	17.15	-51.6	-53.4	15.0	0.00e+00	0	23	0	908066816	69	4438
2026-01-10 04:54:15.40	317.84	16.88	-51.7	-53.5	14.9	0.00e+00	0	23	0	915406848	69	4489
2026-01-10 04:54:19.39	317.13	16.60	-51.6	-53.4	15.0	0.00e+00	0	23	0	922746880	69	4433
2026-01-10 04:54:23.39	316.43	16.32	-51.3	-53.0	15.2	0.00e+00	0	23	0	930086912	69	4227
2026-01-10 04:54:27.38	315.75	16.04	-51.3	-53.0	15.2	0.00e+00	0	23	0	938475520	69	4232
2026-01-10 04:54:31.36	315.08	15.76	-51.2	-53.0	15.1	0.00e+00	0	23	0	945815552	68	4442
2026-01-10 04:54:35.35	314.42	15.48	-50.9	-52.6	15.3	0.00e+00	0	23	0	953155584	68	4255
2026-01-10 04:54:39.34	313.78	15.20	-50.9	-52.6	15.3	0.00e+00	0	23	0	960495616	68	4252
2026-01-10 04:54:43.35	313.14	14.92	-51.0	-52.7	15.2	0.00e+00	0	23	0	967835648	68	4308
2026-01-10 04:54:47.36	312.51	14.63	-50.9	-52.6	15.3	0.00e+00	0	23	0	975175680	68	4250
2026-01-10 04:54:51.35	311.91	14.35	-51.0	-52.7	15.2	0.00e+00	0	24	0	982515712	68	4297
2026-01-10 04:54:55.34	311.31	14.07	-51.0	-52.7	15.2	0.00e+00	0	23	0	989855744	68	4311
2026-01-10 04:54:59.33	310.72	13.79	-51.2	-52.9	15.1	0.00e+00	0	23	0	998244352	68	4427
2026-01-10 04:55:03.33	310.15	13.50	-51.4	-53.2	15.0	0.00e+00	0	23	0	1005584384	68	4567
2026-01-10 04:55:07.33	309.58	13.22	-51.6	-53.5	14.8	0.00e+00	0	23	0	1012924416	68	4719
2026-01-10 04:55:11.33	309.03	12.94	-51.5	-53.4	14.8	0.00e+00	0	23	0	1020264448	68	4699
2026-01-10 04:55:15.34	308.48	12.66	-51.4	-53.2	14.9	0.00e+00	0	23	0	1027604480	68	4563
2026-01-10 04:55:19.32	307.95	12.38	-51.5	-53.4	14.8	0.00e+00	0	23	0	1034944512	68	4679
2026-01-10 04:55:23.32	307.43	12.10	-51.8	-53.8	14.6	0.00e+00	0	23	0	1043333120	68	4884
2026-01-10 04:55:27.32	306.92	11.82	-51.8	-53.8	14.6	0.00e+00	0	23	0	1050673152	68	4908
2026-01-10 04:55:31.30	306.41	11.54	-51.8	-53.8	14.6	0.00e+00	0	23	0	1058013184	68	4908
2026-01-10 04:55:35.29	305.92	11.27	-52.0	-54.0	14.6	0.00e+00	0	23	0	1065353216	69	4751
2026-01-10 04:55:39.28	305.44	10.99	-52.0	-54.1	14.6	0.00e+00	0	23	0	1072693248	69	4762
2026-01-10 04:55:43.27	304.97	10.72	-52.2	-54.3	14.4	0.00e+00	0	23	0	1080033280	69	4903
2026-01-10 04:55:47.27	304.50	10.45	-52.5	-54.7	14.3	0.00e+00	0	23	0	1087373312	70	4855
2026-01-10 04:55:51.27	304.04	10.17	-52.5	-54.7	14.4	0.00e+00	0	23	0	1095761920	70	4833
2026-01-10 04:55:55.25	303.60	9.90	-52.5	-54.7	14.3	0.00e+00	0	23	0	1103101952	70	4852
2026-01-10 04:55:59.24	303.16	9.64	-52.5	-54.7	14.3	0.00e+00	0	24	0	1110441984	70	4851
2026-01-10 04:56:03.23	302.73	9.37	-52.5	-54.8	14.3	0.00e+00	0	23	0	1117782016	70	4890
2026-01-10 04:56:07.22	302.31	9.10	-52.8	-55.3	14.0	0.00e+00	0	23	0	1125122048	70	5177
2026-01-10 04:56:11.22	301.89	8.84	-52.9	-55.3	13.9	0.00e+00	0	23	0	1132462080	70	5187
2026-01-10 04:56:15.22	301.48	8.57	-53.0	-55.5	13.9	0.00e+00	0	23	0	1139802112	71	5026
2026-01-10 04:56:19.21	301.08	8.31	-53.2	-55.8	13.8	0.00e+00	0	23	0	1147142144	71	5160
2026-01-10 04:56:23.21	300.69	8.05	-53.3	-56.0	13.7	0.00e+00	0	23	0	1155530752	71	5288
2026-01-10 04:56:27.21	300.30	7.79	-53.3	-56.0	13.6	0.00e+00	0	23	0	1162870784	71	5332
2026-01-10 04:56:31.20	299.93	7.53	-53.3	-56.0	13.7	0.00e+00	0	23	0	1170210816	72	5039
2026-01-10 04:56:35.19	299.55	7.27	-53.3	-56.1	13.6	0.00e+00	0	23	0	1177550848	72	5053
2026-01-10 04:56:39.21	299.19	7.01	-53.3	-55.9	13.8	0.00e+00	0	23	0	1184890880	72	4970
2026-01-10 04:56:43.19	298.83	6.76	-53.5	-56.3	13.4	0.00e+00	0	23	0	1192230912	72	5211
2026-01-10 04:56:47.18	298.48	6.51	-53.6	-56.5	13.3	0.00e+00	0	23	0	1199570944	72	5299
2026-01-10 04:56:51.17	298.13	6.26	-53.8	-56.9	13.0	0.00e+00	0	23	0	1207959552	72	5552
2026-01-10 04:56:55.14	297.80	6.01	-53.8	-56.9	13.0	0.00e+00	0	23	0	1215299584	72	5556
2026-01-10 04:56:59.14	297.46	5.76	-53.8	-56.9	13.0	0.00e+00	0	23	0	1222639616	72	5554
2026-01-10 04:57:03.15	297.13	5.51	-53.7	-56.8	13.0	0.00e+00	0	24	0	1229979648	72	5507
2026-01-10 04:57:07.13	296.81	5.27	-54.0	-57.3	12.8	0.00e+00	0	23	0	1237319680	73	5502
2026-01-10 04:57:11.12	296.50	5.02	-54.1	-57.7	12.5	7.00e-07	0	23	0	1244659712	73	5740
2026-01-10 04:57:15.14	296.18	4.78	-58.5	-74.5	3.8	1.49e+00	0	24	104	1246756864	82	23833
2026-01-10 04:57:19.14	295.88	4.54	-59.1	-75.1	3.8	1.49e+00	0	23	104	1246756864	83	24032
2026-01-10 04:57:23.16	295.58	4.29	-59.4	-75.4	3.8	1.49e+00	0	23	104	1246756864	83	24807
2026-01-10 04:57:27.15	295.28	4.06	-59.7	-75.7	3.8	1.49e+00	0	23	104	1246756864	84	24291
2026-01-10 04:57:31.15	294.99	3.82	-59.7	-75.7	3.8	1.49e+00	0	23	104	1246756864	84	24409
2026-01-10 04:57:35.13	294.71	3.58	-59.7	-75.7	3.8	1.49e+00	0	23	104	1246756864	84	24386
2026-01-10 04:57:39.12	294.42	3.35	-59.6	-75.7	3.8	1.49e+00	0	24	104	1246756864	84	24136
2026-01-10 04:57:43.12	294.15	3.12	-59.5	-75.5	3.8	1.49e+00	0	23	104	1246756864	84	23837
2026-01-10 04:57:47.13	293.88	2.88	-59.5	-75.5	3.8	1.49e+00	0	23	104	1246756864	84	23757
2026-01-10 04:57:51.13	293.61	2.65	-59.5	-75.5	3.8	1.49e+00	0	23	104	1246756864	84	23678
2026-01-10 04:57:55.12	293.35	2.42	-59.4	-75.5	3.8	1.49e+00	0	23	104	1246756864	84	23612
2026-01-10 04:57:59.13	293.09	2.19	-59.4	-75.4	3.8	1.49e+00	0	23	104	1246756864	84	23558
2026-01-10 04:58:03.13	292.83	1.97	-59.4	-75.4	3.8	1.49e+00	0	24	104	1246756864	84	23503

#Closed at: 2026-01-10 04:58:04
#Recorded file [1246 MB]: D:/lorett/data/31004_260110_074523.dat