passes_logs/2026/01/10/R3.2S_Murmansk/R3.2S_Murmansk__20260110_024518_SUOMI_NPP_rec.log

#Pass ID: 20260110_024518_SUOMI NPP
#Satellite: SUOMI NPP
#Configuration: NPP
#almurnet v.1.7.20251203
#Start time: 2026-01-10 02:45:17

#Version: 2.2.20231116
#Station: R3.2S_Murmansk
#Location: 33.079688 lon 68.888172 lat
#TLE: 1 37849U 11061A   26008.83076692  .00000095  00000+0  66074-4 0  9997
#TLE: 2 37849  98.7806 310.9327 0002533  74.3004 285.8451 14.19523607735834

#Time	Az	El	Level	Level2	SNR	BER	BlckErr	Temp	State	Recorded	gain1	gain2
2026-01-10 02:45:17.53	35.26	1.97	-57.1	-73.0	3.8	1.49e+00	0	21	0	0	80	22437
2026-01-10 02:45:21.54	35.09	2.22	-57.0	-73.0	3.8	1.49e+00	0	22	104	0	79	23741
2026-01-10 02:45:25.54	34.92	2.46	-57.0	-73.0	3.8	1.49e+00	0	22	104	0	79	23664
2026-01-10 02:45:29.55	34.75	2.71	-57.0	-72.9	3.8	1.49e+00	0	22	104	0	79	23557
2026-01-10 02:45:33.55	34.58	2.96	-57.0	-73.0	3.8	1.49e+00	0	22	104	0	79	23602
2026-01-10 02:45:37.54	34.40	3.21	-57.0	-73.0	3.8	1.49e+00	0	22	104	0	79	23682
2026-01-10 02:45:41.55	34.21	3.47	-57.0	-73.0	3.8	1.49e+00	0	22	104	0	79	23585
2026-01-10 02:45:45.56	34.03	3.72	-57.0	-72.7	3.8	1.49e+00	0	22	104	0	79	22879
2026-01-10 02:45:49.56	33.84	3.98	-57.0	-71.9	3.8	1.49e+00	0	22	104	0	79	20862
2026-01-10 02:45:53.57	33.65	4.24	-56.9	-70.7	3.8	1.48e+00	0	23	104	0	79	18163
2026-01-10 02:45:57.57	33.45	4.51	-56.7	-67.8	4.7	8.63e-01	0	22	0	3145728	79	13047
2026-01-10 02:46:01.58	33.25	4.77	-56.4	-65.0	6.5	1.92e-01	0	22	0	10485760	79	9398
2026-01-10 02:46:05.58	33.04	5.04	-56.3	-64.6	6.9	1.39e-01	0	22	0	17825792	79	9015
2026-01-10 02:46:09.58	32.83	5.31	-56.3	-64.0	7.2	1.45e+00	0	23	104	24117248	78	8906
2026-01-10 02:46:13.56	32.62	5.58	-54.6	-59.0	11.7	2.21e-05	0	23	0	31457280	75	5933
2026-01-10 02:46:17.56	32.40	5.85	-54.1	-57.9	12.4	1.50e-06	0	23	0	38797312	74	5591
2026-01-10 02:46:21.55	32.18	6.13	-53.9	-57.5	12.8	0.00e+00	0	23	0	46137344	74	5313
2026-01-10 02:46:25.54	31.96	6.41	-53.7	-57.2	13.1	0.00e+00	0	23	0	53477376	74	5117
2026-01-10 02:46:29.55	31.73	6.69	-53.4	-56.7	13.3	0.00e+00	0	23	0	60817408	73	5121
2026-01-10 02:46:33.53	31.49	6.97	-53.5	-56.9	13.2	0.00e+00	0	23	0	68157440	73	5247
2026-01-10 02:46:37.52	31.25	7.26	-53.3	-56.5	13.3	0.00e+00	0	23	0	75497472	72	5312
2026-01-10 02:46:41.50	31.01	7.55	-53.3	-56.5	13.4	0.00e+00	0	23	0	83886080	72	5303
2026-01-10 02:46:45.50	30.76	7.84	-53.0	-55.9	13.8	0.00e+00	0	23	0	91226112	72	4957
2026-01-10 02:46:49.51	30.50	8.13	-52.8	-55.7	14.0	0.00e+00	0	23	0	98566144	72	4826
2026-01-10 02:46:53.51	30.24	8.43	-52.9	-55.8	13.9	0.00e+00	0	23	0	105906176	72	4901
2026-01-10 02:46:57.50	29.97	8.73	-52.9	-55.7	14.0	0.00e+00	0	23	0	113246208	72	4826
2026-01-10 02:47:01.49	29.70	9.04	-52.6	-55.3	14.1	0.00e+00	0	23	0	120586240	71	4876
2026-01-10 02:47:05.51	29.42	9.34	-52.5	-55.1	14.2	0.00e+00	0	23	0	127926272	71	4781
2026-01-10 02:47:09.50	29.13	9.65	-52.6	-55.2	14.2	0.00e+00	0	23	0	136314880	71	4829
2026-01-10 02:47:13.50	28.84	9.97	-52.5	-55.1	14.2	0.00e+00	0	23	0	143654912	71	4800
2026-01-10 02:47:17.50	28.54	10.28	-52.5	-55.1	14.2	0.00e+00	0	23	0	150994944	71	4811
2026-01-10 02:47:21.50	28.23	10.60	-52.7	-55.3	14.0	0.00e+00	0	23	0	158334976	71	4925
2026-01-10 02:47:25.48	27.92	10.93	-52.9	-55.7	13.8	0.00e+00	0	23	0	165675008	71	5128
2026-01-10 02:47:29.47	27.60	11.25	-52.7	-55.4	14.0	0.00e+00	0	23	0	173015040	71	4938
2026-01-10 02:47:33.47	27.27	11.58	-52.1	-54.5	14.4	0.00e+00	0	23	0	180355072	70	4726
2026-01-10 02:47:37.45	26.94	11.91	-52.0	-54.3	14.5	0.00e+00	0	23	0	188743680	70	4646
2026-01-10 02:47:41.47	26.59	12.25	-52.1	-54.5	14.4	0.00e+00	0	23	0	196083712	70	4723
2026-01-10 02:47:45.47	26.24	12.59	-52.0	-54.3	14.5	0.00e+00	0	23	0	203423744	70	4641
2026-01-10 02:47:49.47	25.88	12.94	-51.8	-54.1	14.5	0.00e+00	0	23	0	210763776	69	4780
2026-01-10 02:47:53.47	25.51	13.29	-51.7	-53.9	14.6	0.00e+00	0	23	0	218103808	69	4691
2026-01-10 02:47:57.47	25.13	13.64	-51.9	-54.1	14.5	0.00e+00	0	23	0	225443840	69	4805
2026-01-10 02:48:01.47	24.74	13.99	-51.8	-53.9	14.6	0.00e+00	0	23	0	232783872	69	4685
2026-01-10 02:48:05.46	24.34	14.35	-51.9	-54.1	14.5	0.00e+00	0	23	0	241172480	69	4771
2026-01-10 02:48:09.46	23.93	14.72	-52.2	-54.6	14.3	0.00e+00	0	23	0	248512512	69	5049
2026-01-10 02:48:13.47	23.51	15.08	-52.3	-54.8	14.3	0.00e+00	0	23	0	255852544	70	4880
2026-01-10 02:48:17.46	23.08	15.45	-52.2	-54.5	14.5	0.00e+00	0	23	0	263192576	70	4729
2026-01-10 02:48:21.46	22.64	15.83	-52.1	-54.3	14.5	0.00e+00	0	23	0	270532608	70	4630
2026-01-10 02:48:25.45	22.19	16.21	-51.7	-53.8	14.9	0.00e+00	0	23	0	277872640	70	4351
2026-01-10 02:48:29.44	21.72	16.59	-51.4	-53.3	15.0	0.00e+00	0	23	0	286261248	69	4357
2026-01-10 02:48:33.42	21.25	16.98	-51.2	-53.1	14.9	0.00e+00	0	23	0	293601280	68	4514
2026-01-10 02:48:37.40	20.76	17.37	-51.5	-53.4	14.8	0.00e+00	0	23	0	300941312	68	4673
2026-01-10 02:48:41.39	20.26	17.76	-51.9	-53.9	14.7	0.00e+00	0	23	0	308281344	69	4685
2026-01-10 02:48:45.38	19.74	18.16	-51.7	-53.7	14.8	0.00e+00	0	23	0	315621376	69	4581
2026-01-10 02:48:49.38	19.21	18.56	-51.5	-53.5	14.9	0.00e+00	0	23	0	322961408	69	4486
2026-01-10 02:48:53.37	18.67	18.97	-51.7	-53.7	14.8	0.00e+00	0	23	0	330301440	69	4582
2026-01-10 02:48:57.38	18.10	19.38	-52.0	-54.1	14.6	0.00e+00	0	23	0	337641472	69	4802
2026-01-10 02:49:01.38	17.52	19.80	-52.2	-54.4	14.6	0.00e+00	0	23	0	346030080	70	4687
2026-01-10 02:49:05.39	16.93	20.22	-52.3	-54.5	14.5	0.00e+00	0	23	0	353370112	70	4707
2026-01-10 02:49:09.37	16.32	20.64	-52.4	-54.6	14.5	0.00e+00	0	23	0	360710144	70	4780
2026-01-10 02:49:13.37	15.69	21.07	-52.5	-54.8	14.3	0.00e+00	0	23	0	368050176	70	4895
2026-01-10 02:49:17.37	15.05	21.50	-52.2	-54.4	14.5	0.00e+00	0	23	0	375390208	70	4691
2026-01-10 02:49:21.36	14.38	21.93	-51.8	-53.8	14.9	0.00e+00	0	23	0	382730240	70	4370
2026-01-10 02:49:25.35	13.70	22.36	-51.9	-54.1	14.7	0.00e+00	0	23	0	391118848	70	4522
2026-01-10 02:49:29.34	13.00	22.80	-51.5	-53.6	14.9	0.00e+00	0	23	0	398458880	69	4505
2026-01-10 02:49:33.34	12.28	23.24	-51.6	-53.6	14.9	0.00e+00	0	23	0	405798912	69	4509
2026-01-10 02:49:37.31	11.54	23.69	-52.0	-54.1	14.6	0.00e+00	0	23	0	413138944	69	4776
2026-01-10 02:49:41.30	10.77	24.13	-52.5	-54.7	14.4	0.00e+00	0	23	0	420478976	70	4851
2026-01-10 02:49:45.31	9.98	24.58	-53.0	-55.6	14.0	0.00e+00	0	23	0	427819008	71	5089
2026-01-10 02:49:49.31	9.17	25.03	-52.9	-55.6	14.0	0.00e+00	0	23	0	435159040	71	5047
2026-01-10 02:49:53.31	8.33	25.48	-53.0	-55.7	14.0	0.00e+00	0	23	0	442499072	71	5156
2026-01-10 02:49:57.30	7.47	25.93	-52.8	-55.5	14.1	0.00e+00	0	23	0	450887680	71	4995
2026-01-10 02:50:01.30	6.58	26.39	-52.7	-55.2	14.3	0.00e+00	0	23	0	458227712	71	4846
2026-01-10 02:50:05.29	5.67	26.84	-52.7	-55.1	14.4	0.00e+00	0	23	0	465567744	71	4762
2026-01-10 02:50:09.29	4.73	27.29	-52.9	-55.4	14.2	0.00e+00	0	23	0	472907776	71	4966
2026-01-10 02:50:13.29	3.77	27.74	-52.7	-55.0	14.4	0.00e+00	0	23	0	480247808	71	4756
2026-01-10 02:50:17.29	2.77	28.19	-52.8	-55.2	14.3	0.00e+00	0	23	0	487587840	71	4862
2026-01-10 02:50:21.29	1.75	28.63	-53.2	-55.8	14.0	0.00e+00	0	23	0	495976448	71	5178
2026-01-10 02:50:25.28	0.70	29.07	-53.1	-55.6	14.1	0.00e+00	0	23	0	503316480	71	5044
2026-01-10 02:50:29.28	359.62	29.51	-52.3	-54.4	14.8	0.00e+00	0	23	0	510656512	71	4421
2026-01-10 02:50:33.27	358.51	29.94	-53.0	-55.6	14.1	0.00e+00	0	23	0	517996544	71	5098
2026-01-10 02:50:37.28	357.37	30.37	-53.1	-56.0	13.8	0.00e+00	0	23	0	525336576	71	5318
2026-01-10 02:50:41.28	356.20	30.79	-54.6	-58.6	12.5	7.00e-07	0	23	0	532676608	74	6047
2026-01-10 02:50:45.29	354.99	31.20	-53.3	-56.1	14.1	0.00e+00	0	23	0	540016640	73	4799
2026-01-10 02:50:49.30	353.75	31.60	-54.3	-58.0	12.9	0.00e+00	0	23	0	548405248	73	5927
2026-01-10 02:50:53.30	352.49	31.99	-54.3	-58.1	12.8	0.00e+00	0	23	0	555745280	74	5662
2026-01-10 02:50:57.28	351.20	32.37	-55.0	-59.8	11.6	9.90e-06	0	23	0	563085312	75	6532
2026-01-10 02:51:01.28	349.87	32.74	-54.8	-59.3	12.0	3.80e-06	0	23	0	570425344	75	6201
2026-01-10 02:51:05.28	348.52	33.09	-53.8	-57.2	13.5	0.00e+00	0	23	0	577765376	74	5109
2026-01-10 02:51:09.27	347.14	33.43	-54.1	-57.8	13.0	0.00e+00	0	23	0	585105408	73	5824
2026-01-10 02:51:13.26	345.72	33.76	-53.5	-56.5	13.8	0.00e+00	0	23	0	592445440	73	5031
2026-01-10 02:51:17.26	344.28	34.07	-54.0	-58.2	12.6	0.00e+00	0	23	0	600834048	73	6084
2026-01-10 02:51:21.26	342.81	34.35	-53.3	-56.4	13.9	0.00e+00	0	23	0	608174080	73	4976
2026-01-10 02:51:25.26	341.32	34.62	-53.5	-56.9	13.4	0.00e+00	0	23	0	615514112	72	5565
2026-01-10 02:51:29.23	339.81	34.87	-51.1	-53.0	15.0	0.00e+00	0	23	0	622854144	68	4493
2026-01-10 02:51:33.21	338.28	35.10	-51.5	-53.7	14.7	0.00e+00	0	23	0	630194176	68	4853
2026-01-10 02:51:37.20	336.72	35.30	-51.9	-54.3	14.4	0.00e+00	0	23	0	637534208	68	5163
2026-01-10 02:51:41.19	335.14	35.49	-51.4	-53.4	15.0	0.00e+00	0	23	0	644874240	69	4431
2026-01-10 02:51:45.19	333.54	35.64	-51.5	-53.6	14.8	0.00e+00	0	24	0	653262848	68	4770
2026-01-10 02:51:49.19	331.93	35.78	-51.3	-53.3	14.9	0.00e+00	0	24	0	660602880	68	4608
2026-01-10 02:51:53.19	330.31	35.89	-50.5	-52.2	15.2	0.00e+00	0	23	0	667942912	67	4329
2026-01-10 02:51:57.18	328.68	35.97	-51.7	-53.8	14.7	0.00e+00	0	24	0	675282944	68	4906
2026-01-10 02:52:01.18	327.04	36.02	-52.8	-55.2	14.3	0.00e+00	0	24	0	682622976	71	4860
2026-01-10 02:52:05.18	325.39	36.05	-52.3	-54.5	14.6	0.00e+00	0	23	0	689963008	70	4719
2026-01-10 02:52:09.19	323.74	36.05	-52.3	-54.5	14.7	0.00e+00	0	24	0	697303040	71	4491
2026-01-10 02:52:13.18	322.10	36.02	-52.1	-54.3	14.5	0.00e+00	0	24	0	705691648	69	4918
2026-01-10 02:52:17.18	320.46	35.97	-53.4	-56.2	13.8	0.00e+00	0	23	0	713031680	71	5461
2026-01-10 02:52:21.19	318.82	35.89	-52.6	-55.1	14.4	0.00e+00	0	23	0	720371712	71	4805
2026-01-10 02:52:25.18	317.20	35.79	-54.2	-58.0	12.9	0.00e+00	0	23	0	727711744	73	5931
2026-01-10 02:52:29.17	315.59	35.66	-52.7	-55.4	14.4	0.00e+00	0	23	0	735051776	72	4693
2026-01-10 02:52:33.16	313.99	35.50	-53.1	-56.1	13.8	0.00e+00	0	24	0	742391808	71	5378
2026-01-10 02:52:37.16	312.41	35.32	-53.8	-57.1	13.3	0.00e+00	0	23	0	749731840	72	5672
2026-01-10 02:52:41.15	310.85	35.12	-52.4	-55.1	14.4	0.00e+00	0	24	0	758120448	71	4765
2026-01-10 02:52:45.16	309.30	34.89	-53.0	-56.1	13.7	0.00e+00	0	23	0	765460480	71	5367
2026-01-10 02:52:49.17	307.77	34.64	-52.6	-55.2	14.4	0.00e+00	0	24	0	772800512	71	4820
2026-01-10 02:52:53.17	306.27	34.37	-52.6	-55.4	14.0	0.00e+00	0	24	0	780140544	70	5238
2026-01-10 02:52:57.18	304.80	34.08	-53.4	-56.5	13.7	0.00e+00	0	23	0	787480576	72	5315
2026-01-10 02:53:01.19	303.35	33.77	-52.0	-54.2	14.8	0.00e+00	0	24	0	794820608	70	4550
2026-01-10 02:53:05.19	301.93	33.45	-53.8	-57.1	13.3	0.00e+00	0	24	0	803209216	72	5698
2026-01-10 02:53:09.18	300.55	33.11	-53.7	-56.9	13.8	0.00e+00	0	24	0	810549248	74	4962
2026-01-10 02:53:13.19	299.18	32.76	-53.4	-56.4	13.9	0.00e+00	0	24	0	817889280	73	4982
2026-01-10 02:53:17.21	297.85	32.39	-53.4	-56.4	13.8	0.00e+00	0	23	0	825229312	73	4983
2026-01-10 02:53:21.22	296.55	32.00	-53.1	-55.7	14.1	0.00e+00	0	24	0	832569344	72	4863
2026-01-10 02:53:25.22	295.28	31.61	-52.8	-55.5	14.1	0.00e+00	0	24	0	839909376	70	5285
2026-01-10 02:53:29.21	294.04	31.21	-53.0	-55.8	14.1	0.00e+00	0	24	0	848297984	72	4880
2026-01-10 02:53:33.21	292.84	30.80	-52.2	-54.5	14.6	0.00e+00	0	24	0	855638016	70	4737
2026-01-10 02:53:37.22	291.66	30.38	-54.2	-57.7	13.1	0.00e+00	0	24	0	862978048	73	5750
2026-01-10 02:53:41.21	290.52	29.95	-53.3	-56.2	14.0	0.00e+00	0	24	0	870318080	72	5112
2026-01-10 02:53:45.21	289.40	29.52	-53.4	-56.3	13.9	0.00e+00	0	24	0	877658112	72	5161
2026-01-10 02:53:49.20	288.32	29.08	-53.0	-55.5	14.3	0.00e+00	0	24	0	884998144	72	4749
2026-01-10 02:53:53.22	287.26	28.64	-52.9	-55.3	14.5	0.00e+00	0	23	0	892338176	72	4616
2026-01-10 02:53:57.23	286.23	28.19	-53.2	-55.9	14.0	0.00e+00	0	23	0	900726784	71	5231
2026-01-10 02:54:01.23	285.24	27.74	-51.9	-53.9	14.9	0.00e+00	0	23	0	908066816	70	4398
2026-01-10 02:54:05.25	284.26	27.29	-52.2	-54.3	14.5	0.00e+00	0	23	0	915406848	69	4902
2026-01-10 02:54:09.26	283.32	26.84	-51.4	-53.3	15.1	0.00e+00	0	23	0	922746880	69	4345
2026-01-10 02:54:13.25	282.40	26.39	-50.7	-52.5	15.1	0.00e+00	0	24	0	930086912	67	4443
2026-01-10 02:54:17.27	281.51	25.93	-51.7	-53.8	14.7	0.00e+00	0	23	0	937426944	68	4877
2026-01-10 02:54:21.28	280.65	25.48	-50.9	-52.7	15.2	0.00e+00	0	23	0	945815552	68	4324
2026-01-10 02:54:25.26	279.81	25.03	-51.2	-53.0	15.0	0.00e+00	0	23	0	953155584	68	4474
2026-01-10 02:54:29.28	278.99	24.57	-50.8	-52.6	15.2	0.00e+00	0	23	0	960495616	68	4244
2026-01-10 02:54:33.27	278.20	24.12	-50.4	-52.1	15.3	0.00e+00	0	23	0	967835648	67	4270
2026-01-10 02:54:37.26	277.43	23.68	-50.9	-52.7	14.9	0.00e+00	0	24	0	975175680	67	4589
2026-01-10 02:54:41.24	276.69	23.23	-51.3	-53.2	14.7	0.00e+00	0	24	0	982515712	67	4858
2026-01-10 02:54:45.23	275.96	22.79	-52.0	-54.1	14.7	0.00e+00	0	23	0	990904320	69	4791
2026-01-10 02:54:49.24	275.26	22.35	-52.6	-55.0	14.3	0.00e+00	0	24	0	998244352	70	4991
2026-01-10 02:54:53.25	274.57	21.91	-52.5	-54.7	14.5	0.00e+00	0	24	0	1005584384	70	4820
2026-01-10 02:54:57.27	273.90	21.48	-52.7	-55.1	14.2	0.00e+00	0	23	0	1012924416	70	5084
2026-01-10 02:55:01.28	273.25	21.04	-52.8	-55.2	14.3	0.00e+00	0	24	0	1020264448	71	4830
2026-01-10 02:55:05.29	272.62	20.62	-52.9	-55.5	14.1	0.00e+00	0	23	0	1027604480	71	4984
2026-01-10 02:55:09.28	272.01	20.19	-52.0	-54.1	14.7	0.00e+00	0	23	0	1034944512	70	4522
2026-01-10 02:55:13.28	271.41	19.77	-51.5	-53.5	14.9	0.00e+00	0	23	0	1043333120	69	4463
2026-01-10 02:55:17.29	270.83	19.36	-51.8	-53.8	14.8	0.00e+00	0	23	0	1050673152	69	4613
2026-01-10 02:55:21.30	270.27	18.94	-51.4	-53.3	15.0	0.00e+00	0	23	0	1058013184	69	4363
2026-01-10 02:55:25.30	269.72	18.53	-51.0	-52.8	15.1	0.00e+00	0	23	0	1065353216	68	4379
2026-01-10 02:55:29.30	269.18	18.13	-51.5	-53.4	14.8	0.00e+00	0	23	0	1072693248	68	4704
2026-01-10 02:55:33.29	268.67	17.73	-53.1	-55.6	14.0	0.00e+00	0	23	0	1080033280	71	5084
2026-01-10 02:55:37.28	268.16	17.33	-54.1	-57.4	13.2	0.00e+00	0	23	0	1088421888	73	5540
2026-01-10 02:55:41.28	267.67	16.94	-52.4	-54.7	14.6	0.00e+00	0	24	0	1095761920	71	4555
2026-01-10 02:55:45.28	267.19	16.55	-51.7	-53.7	15.0	0.00e+00	0	23	0	1103101952	70	4315
2026-01-10 02:55:49.28	266.72	16.17	-52.7	-55.3	14.1	0.00e+00	0	23	0	1110441984	70	5162
2026-01-10 02:55:53.29	266.27	15.79	-53.2	-55.9	13.8	0.00e+00	0	23	0	1117782016	71	5238
2026-01-10 02:55:57.28	265.83	15.41	-52.3	-54.6	14.6	0.00e+00	0	23	0	1125122048	71	4511
2026-01-10 02:56:01.28	265.40	15.04	-52.4	-54.7	14.5	0.00e+00	0	23	0	1133510656	71	4565
2026-01-10 02:56:05.30	264.97	14.67	-52.8	-55.3	14.2	0.00e+00	0	23	0	1140850688	71	4900
2026-01-10 02:56:09.30	264.56	14.31	-52.9	-55.5	14.1	0.00e+00	0	23	0	1148190720	71	4999
2026-01-10 02:56:13.30	264.16	13.95	-53.0	-55.6	14.0	0.00e+00	0	23	0	1155530752	71	5073
2026-01-10 02:56:17.31	263.77	13.59	-52.9	-55.4	14.1	0.00e+00	0	24	0	1162870784	71	4946
2026-01-10 02:56:21.30	263.39	13.24	-52.3	-54.5	14.6	0.00e+00	0	23	0	1170210816	71	4488
2026-01-10 02:56:25.31	263.02	12.89	-52.1	-54.3	14.6	0.00e+00	0	23	0	1177550848	70	4606
2026-01-10 02:56:29.32	262.65	12.54	-52.7	-55.1	14.1	0.00e+00	0	23	0	1185939456	70	5066
2026-01-10 02:56:33.30	262.30	12.20	-53.9	-57.0	13.2	0.00e+00	0	23	0	1193279488	72	5651
2026-01-10 02:56:37.28	261.96	11.87	-54.1	-57.4	13.0	0.00e+00	0	23	0	1200619520	73	5591
2026-01-10 02:56:41.27	261.62	11.53	-53.7	-56.7	13.6	0.00e+00	0	23	0	1207959552	73	5101
2026-01-10 02:56:45.26	261.29	11.20	-53.3	-55.9	14.1	0.00e+00	0	23	0	1215299584	73	4703
2026-01-10 02:56:49.26	260.97	10.88	-53.0	-55.7	14.0	0.00e+00	0	24	0	1222639616	72	4826
2026-01-10 02:56:53.24	260.66	10.56	-52.6	-55.2	14.2	0.00e+00	0	24	0	1229979648	71	4823
2026-01-10 02:56:57.25	260.35	10.23	-52.5	-54.9	14.3	0.00e+00	0	23	0	1238368256	71	4678
2026-01-10 02:57:01.23	260.05	9.92	-52.6	-55.0	14.3	0.00e+00	0	23	0	1245708288	71	4737
2026-01-10 02:57:05.23	259.75	9.60	-52.7	-55.2	14.1	0.00e+00	0	24	0	1253048320	71	4860
2026-01-10 02:57:09.23	259.47	9.29	-53.0	-55.7	13.8	0.00e+00	0	24	0	1260388352	71	5153
2026-01-10 02:57:13.23	259.18	8.99	-53.4	-56.2	13.6	0.00e+00	0	23	0	1267728384	72	5146
2026-01-10 02:57:17.23	258.91	8.68	-53.6	-56.6	13.4	0.00e+00	0	23	0	1275068416	72	5366
2026-01-10 02:57:21.23	258.64	8.38	-53.8	-56.8	13.2	0.00e+00	0	23	0	1282408448	72	5522
2026-01-10 02:57:25.23	258.37	8.08	-53.8	-56.9	13.3	0.00e+00	0	23	0	1290797056	73	5251
2026-01-10 02:57:29.21	258.12	7.79	-53.9	-57.2	13.1	0.00e+00	0	23	0	1298137088	73	5416
2026-01-10 02:57:33.20	257.87	7.50	-54.2	-57.7	12.6	0.00e+00	0	24	0	1305477120	73	5767
2026-01-10 02:57:37.18	257.62	7.21	-54.4	-58.0	12.4	0.00e+00	0	23	0	1312817152	73	5951
2026-01-10 02:57:41.17	257.38	6.92	-54.3	-57.8	12.7	0.00e+00	0	23	0	1320157184	74	5507
2026-01-10 02:57:45.15	257.14	6.64	-54.0	-57.2	13.1	0.00e+00	0	24	0	1327497216	74	5129
2026-01-10 02:57:49.12	256.91	6.36	-53.4	-56.4	13.5	0.00e+00	0	23	0	1334837248	73	4941
2026-01-10 02:57:53.12	256.68	6.08	-53.3	-56.2	13.7	0.00e+00	0	23	0	1342177280	73	4828
2026-01-10 02:57:57.12	256.46	5.80	-53.0	-55.8	13.8	0.00e+00	0	24	0	1350565888	72	4892
2026-01-10 02:58:01.11	256.24	5.53	-53.2	-56.1	13.5	0.00e+00	0	24	0	1357905920	72	5080
2026-01-10 02:58:05.11	256.02	5.26	-53.5	-56.6	13.2	0.00e+00	0	23	0	1365245952	72	5389
2026-01-10 02:58:09.11	255.81	4.99	-57.9	-73.8	3.8	3.49e-01	0	23	104	1371537408	80	24659
2026-01-10 02:58:13.11	255.61	4.72	-58.8	-74.8	3.8	1.49e+00	0	23	104	1371537408	82	24671
2026-01-10 02:58:17.10	255.40	4.46	-59.2	-75.2	3.8	1.49e+00	0	23	104	1371537408	83	24340
2026-01-10 02:58:21.11	255.21	4.19	-59.3	-75.4	3.8	1.49e+00	0	24	104	1371537408	83	24790
2026-01-10 02:58:25.11	255.01	3.93	-59.4	-75.5	3.8	1.49e+00	0	24	104	1371537408	83	25084
2026-01-10 02:58:29.11	254.82	3.67	-59.6	-75.6	3.8	1.49e+00	0	23	104	1371537408	84	24118
2026-01-10 02:58:33.12	254.63	3.42	-59.5	-75.6	3.8	1.49e+00	0	23	104	1371537408	84	23963
2026-01-10 02:58:37.12	254.45	3.16	-59.5	-75.5	3.8	1.49e+00	0	24	104	1371537408	84	23818
2026-01-10 02:58:41.11	254.27	2.91	-59.5	-75.5	3.8	1.49e+00	0	24	104	1371537408	84	23820
2026-01-10 02:58:45.12	254.09	2.66	-59.5	-75.5	3.8	1.49e+00	0	24	104	1371537408	84	23789
2026-01-10 02:58:49.13	253.91	2.41	-59.5	-75.5	3.8	1.49e+00	0	24	104	1371537408	84	23636
2026-01-10 02:58:53.12	253.74	2.17	-59.5	-75.5	3.8	1.49e+00	0	24	104	1371537408	84	23656
2026-01-10 02:58:57.14	253.57	1.92	-59.5	-75.5	3.8	1.49e+00	0	24	104	1371537408	84	23746

#Closed at: 2026-01-10 02:58:58
#Recorded file [1371 MB]: D:/lorett/data/31004_260110_054517.dat