passes_logs/2026/01/10/R3.2S_Murmansk/R3.2S_Murmansk__20260110_053917_AQUA_rec.log

#Pass ID: 20260110_053917_AQUA
#Satellite: AQUA
#Configuration: AQUA
#almurnet v.1.7.20251203
#Start time: 2026-01-10 05:39:18

#Version: 2.2.20231116
#Station: R3.2S_Murmansk
#Location: 33.079688 lon 68.888172 lat
#TLE: 1 27424U 02022A   26009.00333547  .00001046  00000+0  21942-3 0  9998
#TLE: 2 27424  98.4075 335.3304 0002025  85.7625 349.1392 14.61808998260011

#Time	Az	El	Level	Level2	SNR	BER	BlckErr	Temp	State	Recorded	gain1	gain2
2026-01-10 05:39:18.46	42.90	2.06	-56.8	-76.1	3.8	7.46e-01	0	23	0	0	82	33117
2026-01-10 05:39:21.46	42.67	2.23	-56.7	-76.0	3.8	7.46e-01	0	23	104	0	81	34814
2026-01-10 05:39:24.46	42.44	2.40	-56.7	-76.0	3.8	7.48e-01	0	23	104	0	81	34619
2026-01-10 05:39:27.45	42.21	2.58	-56.7	-76.0	3.8	7.50e-01	0	23	104	0	81	34577
2026-01-10 05:39:30.44	41.98	2.76	-56.7	-75.8	3.8	7.48e-01	0	23	104	0	81	33738
2026-01-10 05:39:33.44	41.74	2.93	-56.7	-75.6	3.8	7.47e-01	0	23	104	0	81	33251
2026-01-10 05:39:36.43	41.50	3.11	-56.7	-75.7	3.8	7.49e-01	0	23	104	0	81	33669
2026-01-10 05:39:39.43	41.26	3.29	-56.6	-76.0	3.8	7.49e-01	0	23	104	0	81	34657
2026-01-10 05:39:42.43	41.01	3.47	-56.7	-76.0	3.8	7.45e-01	0	23	104	0	81	34613
2026-01-10 05:39:45.42	40.76	3.65	-56.6	-75.9	3.8	7.45e-01	0	23	104	0	81	34397
2026-01-10 05:39:48.41	40.51	3.83	-56.7	-76.0	3.8	7.47e-01	0	23	104	0	81	34515
2026-01-10 05:39:51.41	40.25	4.01	-56.7	-75.8	3.8	7.44e-01	0	23	104	0	81	33994
2026-01-10 05:39:54.42	39.98	4.20	-56.6	-75.9	3.8	7.49e-01	0	23	104	0	81	34295
2026-01-10 05:39:57.43	39.72	4.38	-56.6	-75.7	3.8	7.46e-01	0	23	104	0	81	33444
2026-01-10 05:40:00.44	39.45	4.57	-56.3	-73.8	3.8	7.44e-01	0	23	104	0	81	26993
2026-01-10 05:40:03.45	39.17	4.75	-55.7	-71.2	3.8	7.44e-01	0	23	104	0	80	21228
2026-01-10 05:40:06.45	38.90	4.94	-55.1	-69.7	3.8	7.45e-01	0	23	104	0	79	18762
2026-01-10 05:40:09.47	38.61	5.13	-55.1	-69.4	3.8	7.48e-01	0	23	104	0	77	20405
2026-01-10 05:40:12.46	38.33	5.32	-54.5	-68.1	3.8	7.46e-01	0	23	104	0	76	18626
2026-01-10 05:40:15.44	38.04	5.50	-51.5	-63.5	3.8	7.45e-01	0	23	104	0	72	13773
2026-01-10 05:40:18.44	37.74	5.69	-54.4	-67.9	3.8	7.46e-01	0	23	104	0	76	18273
2026-01-10 05:40:21.44	37.45	5.88	-52.5	-65.0	3.8	7.47e-01	0	23	104	0	73	15416
2026-01-10 05:40:24.44	37.14	6.08	-51.1	-63.0	3.8	7.46e-01	0	23	104	0	71	13769
2026-01-10 05:40:27.44	36.83	6.27	-55.5	-70.3	3.9	7.38e-01	0	23	104	0	80	19079
2026-01-10 05:40:30.44	36.52	6.46	-51.6	-63.6	3.8	7.45e-01	0	23	104	0	72	14011
2026-01-10 05:40:33.43	36.21	6.66	-52.4	-64.8	3.8	7.47e-01	0	23	104	0	73	15084
2026-01-10 05:40:36.41	35.89	6.85	-52.7	-65.0	3.8	7.45e-01	0	23	104	0	74	14553
2026-01-10 05:40:39.40	35.56	7.04	-51.0	-62.8	3.8	7.47e-01	0	23	104	0	71	13469
2026-01-10 05:40:42.39	35.23	7.24	-53.4	-66.1	3.8	7.45e-01	0	23	104	0	74	16678
2026-01-10 05:40:45.38	34.89	7.44	-52.0	-64.1	3.8	7.43e-01	0	23	104	0	72	14713
2026-01-10 05:40:48.38	34.55	7.64	-51.1	-62.9	3.8	7.45e-01	0	23	104	0	70	14508
2026-01-10 05:40:51.36	34.21	7.83	-56.1	-71.9	3.9	7.41e-01	0	23	104	0	81	21697
2026-01-10 05:40:54.37	33.85	8.03	-51.4	-63.2	3.8	7.47e-01	0	23	104	0	71	14204
2026-01-10 05:40:57.37	33.50	8.23	-50.7	-62.4	3.9	7.47e-01	0	23	104	0	69	14499
2026-01-10 05:41:00.38	33.13	8.44	-52.7	-64.9	3.8	7.45e-01	0	23	104	0	74	14432
2026-01-10 05:41:03.37	32.76	8.64	-50.6	-62.3	3.8	7.47e-01	0	23	104	0	70	13432
2026-01-10 05:41:06.36	32.39	8.84	-52.7	-64.9	3.8	7.44e-01	0	23	104	0	72	16178
2026-01-10 05:41:09.36	32.01	9.04	-51.8	-63.8	3.8	7.46e-01	0	23	104	0	71	15222
2026-01-10 05:41:12.36	31.62	9.25	-50.1	-61.7	3.9	7.47e-01	0	23	104	0	69	13336
2026-01-10 05:41:15.36	31.23	9.45	-56.0	-71.4	3.9	7.39e-01	0	23	104	0	81	20330
2026-01-10 05:41:18.36	30.83	9.66	-50.7	-62.3	3.9	7.44e-01	0	23	104	0	70	13461
2026-01-10 05:41:21.34	30.43	9.86	-50.5	-62.2	3.8	7.44e-01	0	23	104	0	69	14059
2026-01-10 05:41:24.34	30.02	10.07	-53.0	-65.3	3.9	7.43e-01	0	23	104	0	75	14343
2026-01-10 05:41:27.33	29.60	10.28	-50.2	-61.8	3.8	7.50e-01	0	23	104	0	69	13540
2026-01-10 05:41:30.32	29.18	10.48	-52.3	-64.5	3.9	7.43e-01	0	23	104	0	72	15533
2026-01-10 05:41:33.32	28.75	10.69	-51.1	-62.9	3.8	7.45e-01	0	23	104	0	70	14484
2026-01-10 05:41:36.30	28.31	10.90	-49.8	-61.2	3.9	7.46e-01	0	23	104	0	68	13359
2026-01-10 05:41:39.30	27.87	11.11	-56.3	-71.9	3.9	7.43e-01	0	23	104	0	81	21680
2026-01-10 05:41:42.29	27.42	11.32	-50.7	-62.2	3.9	7.45e-01	0	23	104	0	70	13338
2026-01-10 05:41:45.27	26.96	11.52	-50.2	-61.7	3.8	7.50e-01	0	23	104	0	69	13313
2026-01-10 05:41:48.27	26.49	11.73	-53.6	-66.2	3.9	7.46e-01	0	23	104	0	76	14885
2026-01-10 05:41:51.27	26.02	11.94	-49.8	-61.3	3.9	7.44e-01	0	23	104	0	68	13426
2026-01-10 05:41:54.25	25.54	12.15	-51.1	-62.8	3.9	7.44e-01	0	23	104	0	69	15059
2026-01-10 05:41:57.25	25.05	12.36	-50.7	-62.3	3.9	7.46e-01	0	23	104	0	69	14362
2026-01-10 05:42:00.24	24.56	12.57	-49.6	-61.1	3.8	7.46e-01	0	23	104	0	68	13134
2026-01-10 05:42:03.23	24.06	12.78	-56.4	-72.0	3.9	7.42e-01	0	23	104	0	81	21855
2026-01-10 05:42:06.22	23.55	12.99	-50.3	-61.8	3.9	7.44e-01	0	23	104	0	69	13497
2026-01-10 05:42:09.21	23.03	13.20	-50.6	-62.2	3.9	7.45e-01	0	23	104	0	69	14120
2026-01-10 05:42:12.22	22.50	13.41	-54.3	-67.3	3.9	7.44e-01	0	23	104	0	78	15156
2026-01-10 05:42:15.21	21.96	13.62	-49.5	-60.8	3.9	7.45e-01	0	23	104	0	68	12757
2026-01-10 05:42:18.20	21.42	13.83	-50.5	-62.0	3.8	7.47e-01	0	23	104	0	68	14694
2026-01-10 05:42:21.21	20.86	14.04	-50.4	-62.0	3.8	7.45e-01	0	23	104	0	68	14585
2026-01-10 05:42:24.20	20.31	14.25	-49.2	-60.5	3.9	7.44e-01	0	23	104	0	67	13106
2026-01-10 05:42:27.20	19.73	14.45	-56.5	-72.2	3.9	7.43e-01	0	23	104	0	81	22368
2026-01-10 05:42:30.21	19.15	14.66	-49.8	-61.2	3.8	7.43e-01	0	23	104	0	68	13318
2026-01-10 05:42:33.21	18.57	14.87	-49.4	-60.8	3.9	7.45e-01	0	23	104	0	67	13484
2026-01-10 05:42:36.20	17.97	15.07	-54.7	-67.7	3.9	7.46e-01	0	23	104	0	78	15851
2026-01-10 05:42:39.19	17.37	15.27	-49.2	-60.5	3.8	7.47e-01	0	23	104	0	67	13068
2026-01-10 05:42:42.19	16.75	15.47	-50.4	-61.9	3.8	7.43e-01	0	23	104	0	68	14462
2026-01-10 05:42:45.19	16.13	15.67	-50.2	-61.7	3.9	7.45e-01	0	23	104	0	68	14072
2026-01-10 05:42:48.18	15.50	15.87	-49.0	-60.3	3.9	7.44e-01	0	23	104	0	67	12741
2026-01-10 05:42:51.18	14.86	16.07	-56.5	-72.1	3.9	7.41e-01	0	23	104	0	81	22212
2026-01-10 05:42:54.19	14.21	16.27	-49.5	-60.9	3.8	7.43e-01	0	23	104	0	68	12959
2026-01-10 05:42:57.17	13.55	16.46	-50.2	-61.6	3.9	7.47e-01	0	23	104	0	68	14027
2026-01-10 05:43:00.18	12.88	16.65	-55.1	-68.5	3.9	7.44e-01	0	23	104	0	79	16357
2026-01-10 05:43:03.18	12.20	16.84	-49.2	-60.6	3.9	7.46e-01	0	23	104	0	67	13114
2026-01-10 05:43:06.18	11.51	17.03	-50.5	-62.1	3.8	7.46e-01	0	23	104	0	69	13888
2026-01-10 05:43:09.18	10.82	17.21	-50.3	-61.8	3.9	7.45e-01	0	23	104	0	68	14326
2026-01-10 05:43:12.18	10.11	17.40	-49.3	-60.7	3.8	7.47e-01	0	23	104	0	67	13352
2026-01-10 05:43:15.18	9.40	17.57	-56.4	-71.6	3.9	7.43e-01	0	23	104	0	81	20879
2026-01-10 05:43:18.18	8.67	17.75	-49.8	-61.3	3.8	7.48e-01	0	23	104	0	68	13476
2026-01-10 05:43:21.18	7.94	17.92	-49.6	-61.0	3.8	7.46e-01	0	23	104	0	67	13835
2026-01-10 05:43:24.18	7.20	18.09	-55.1	-68.5	3.9	7.40e-01	0	24	104	0	79	16385
2026-01-10 05:43:27.18	6.45	18.26	-49.8	-61.2	3.8	7.48e-01	0	23	104	0	68	13320
2026-01-10 05:43:30.19	5.69	18.42	-50.6	-62.2	3.8	7.44e-01	0	23	104	0	70	13294
2026-01-10 05:43:33.18	4.92	18.58	-50.4	-61.9	3.8	7.47e-01	0	23	104	0	68	14532
2026-01-10 05:43:36.17	4.15	18.73	-49.4	-60.8	3.9	7.48e-01	0	23	104	0	67	13416
2026-01-10 05:43:39.17	3.36	18.88	-56.5	-71.7	3.9	7.43e-01	0	23	104	0	81	21043
2026-01-10 05:43:42.17	2.57	19.03	-49.7	-61.1	3.9	7.48e-01	0	23	104	0	68	13201
2026-01-10 05:43:45.16	1.77	19.17	-51.6	-63.5	3.9	7.43e-01	0	23	104	0	71	14580
2026-01-10 05:43:48.16	0.96	19.31	-55.7	-69.6	3.9	7.39e-01	0	23	104	0	80	17501
2026-01-10 05:43:51.16	0.15	19.44	-49.9	-61.3	3.8	7.45e-01	0	23	104	0	68	13424
2026-01-10 05:43:54.16	359.32	19.56	-50.7	-62.2	3.9	7.44e-01	0	23	104	0	69	14156
2026-01-10 05:43:57.17	358.49	19.68	-50.2	-61.7	3.9	7.49e-01	0	23	104	0	68	14147
2026-01-10 05:44:00.19	357.65	19.80	-49.5	-60.9	3.9	7.45e-01	0	23	104	0	68	12861
2026-01-10 05:44:03.17	356.81	19.91	-56.4	-71.4	3.9	7.47e-01	0	23	104	0	81	20492
2026-01-10 05:44:06.17	355.96	20.01	-49.8	-61.2	3.9	7.45e-01	0	23	104	0	68	13344
2026-01-10 05:44:09.18	355.10	20.11	-51.0	-62.6	3.9	7.43e-01	0	23	104	0	70	14025
2026-01-10 05:44:12.17	354.24	20.20	-55.6	-69.3	3.9	7.44e-01	0	23	104	0	80	17078
2026-01-10 05:44:15.17	353.37	20.29	-49.7	-61.1	3.8	7.44e-01	0	23	104	0	68	13178
2026-01-10 05:44:18.16	352.50	20.37	-51.0	-62.5	3.8	7.42e-01	0	23	104	0	70	13853
2026-01-10 05:44:21.16	351.62	20.44	-50.2	-61.7	3.8	7.45e-01	0	23	104	0	68	14139
2026-01-10 05:44:24.17	350.74	20.51	-49.6	-61.0	3.9	7.47e-01	0	24	104	0	68	12971
2026-01-10 05:44:27.17	349.86	20.56	-56.4	-71.3	3.9	7.42e-01	0	23	104	0	81	20300
2026-01-10 05:44:30.17	348.97	20.62	-50.1	-61.6	3.8	7.48e-01	0	23	104	0	68	13951
2026-01-10 05:44:33.18	348.07	20.66	-50.1	-61.5	3.9	7.47e-01	0	23	104	0	68	13812
2026-01-10 05:44:36.17	347.18	20.70	-55.8	-69.4	3.9	7.45e-01	0	23	104	0	80	17175
2026-01-10 05:44:39.17	346.29	20.73	-49.8	-61.1	3.9	7.46e-01	0	24	104	0	68	13200
2026-01-10 05:44:42.16	345.39	20.76	-51.1	-62.6	3.9	7.43e-01	0	23	104	0	70	13998
2026-01-10 05:44:45.16	344.49	20.78	-50.3	-61.9	3.8	7.43e-01	0	23	104	0	69	13581
2026-01-10 05:44:48.15	343.59	20.79	-49.9	-61.2	3.8	7.47e-01	0	23	104	0	68	13388
2026-01-10 05:44:51.13	342.70	20.79	-56.5	-71.5	3.9	7.42e-01	0	23	104	0	81	20628
2026-01-10 05:44:54.13	341.80	20.78	-49.8	-61.2	3.8	7.45e-01	0	23	104	0	68	13355
2026-01-10 05:44:57.13	340.90	20.77	-51.1	-62.6	3.9	7.44e-01	0	24	104	0	70	14043
2026-01-10 05:45:00.13	340.00	20.76	-56.3	-70.9	3.9	7.43e-01	0	23	104	0	81	19351
2026-01-10 05:45:03.13	339.10	20.73	-49.9	-61.3	3.8	7.46e-01	0	23	104	0	68	13453
2026-01-10 05:45:06.13	338.20	20.70	-51.2	-62.9	3.9	7.43e-01	0	23	104	0	70	14380
2026-01-10 05:45:09.12	337.31	20.66	-50.2	-61.6	3.9	7.46e-01	0	23	104	0	68	13936
2026-01-10 05:45:12.11	336.42	20.61	-49.9	-61.4	3.8	7.44e-01	0	23	104	0	68	13717
2026-01-10 05:45:15.12	335.53	20.56	-56.5	-71.2	3.9	7.47e-01	0	24	104	0	81	20066
2026-01-10 05:45:18.12	334.65	20.50	-50.2	-61.8	3.8	7.45e-01	0	23	104	0	69	13470
2026-01-10 05:45:21.12	333.77	20.43	-51.1	-62.8	3.9	7.43e-01	0	23	104	0	70	14336
2026-01-10 05:45:24.11	332.89	20.36	-56.8	-72.0	3.9	7.42e-01	0	23	104	0	82	20706
2026-01-10 05:45:27.11	332.02	20.28	-50.1	-61.6	3.8	7.46e-01	0	23	104	0	68	13949
2026-01-10 05:45:30.11	331.15	20.19	-53.1	-65.1	3.8	7.44e-01	0	23	104	0	74	14830
2026-01-10 05:45:33.11	330.29	20.10	-56.5	-71.2	3.8	7.43e-01	0	23	104	0	81	20052
2026-01-10 05:45:36.10	329.44	20.00	-49.8	-61.0	3.8	7.44e-01	0	23	104	0	68	12986
2026-01-10 05:45:39.11	328.59	19.90	-56.6	-71.7	3.8	7.41e-01	0	23	104	0	81	21058
2026-01-10 05:45:42.09	327.75	19.79	-49.7	-60.9	3.8	7.44e-01	0	23	104	0	68	12858
2026-01-10 05:45:45.08	326.91	19.67	-51.6	-62.9	3.8	7.43e-01	0	23	104	0	71	13649
2026-01-10 05:45:48.06	326.09	19.55	-56.9	-72.1	3.8	7.46e-01	0	23	104	0	81	22024
2026-01-10 05:45:51.05	325.27	19.42	-50.3	-61.1	3.8	7.48e-01	0	23	104	0	69	12499
2026-01-10 05:45:54.06	324.45	19.29	-52.7	-64.0	3.8	7.45e-01	0	23	104	0	73	13755
2026-01-10 05:45:57.06	323.64	19.16	-56.4	-71.3	3.9	7.47e-01	0	23	104	0	81	20237
2026-01-10 05:46:00.07	322.84	19.01	-49.7	-61.8	3.9	7.46e-01	0	23	104	0	68	14363
2026-01-10 05:46:03.08	322.04	18.87	-56.6	-71.6	3.8	7.43e-01	0	23	104	0	81	20882
2026-01-10 05:46:06.09	321.25	18.72	-49.6	-60.9	3.8	7.47e-01	0	23	104	0	68	12932
2026-01-10 05:46:09.09	320.48	18.56	-49.6	-51.4	15.7	6.04e-01	0	23	0	524288	67	4573
2026-01-10 05:46:12.09	319.71	18.40	-56.8	-63.4	11.0	6.11e-01	0	23	0	6291456	82	7664
2026-01-10 05:46:15.09	318.95	18.24	-49.6	-51.3	15.9	6.05e-01	0	23	0	12058624	67	4514
2026-01-10 05:46:18.09	318.20	18.07	-49.3	-51.0	15.9	6.02e-01	0	23	0	17301504	67	4387
2026-01-10 05:46:21.09	317.46	17.90	-49.3	-51.1	15.9	6.02e-01	0	23	0	23068672	67	4393
2026-01-10 05:46:24.10	316.72	17.73	-49.1	-50.7	16.1	6.05e-01	0	23	0	28835840	67	4224
2026-01-10 05:46:27.09	316.00	17.55	-49.8	-51.7	15.7	6.05e-01	0	23	0	34603008	67	4714
2026-01-10 05:46:30.09	315.29	17.37	-49.6	-51.4	15.8	6.01e-01	0	23	0	39845888	67	4551
2026-01-10 05:46:33.10	314.58	17.19	-49.4	-51.2	15.9	6.03e-01	0	23	0	45613056	67	4449
2026-01-10 05:46:36.09	313.89	17.01	-49.0	-50.6	16.0	6.04e-01	0	23	0	51380224	67	4190
2026-01-10 05:46:39.08	313.20	16.82	-50.1	-52.0	15.6	6.04e-01	0	23	0	57147392	67	4889
2026-01-10 05:46:42.07	312.52	16.63	-50.1	-51.9	15.8	6.02e-01	0	24	0	62390272	68	4580
2026-01-10 05:46:45.06	311.86	16.44	-50.0	-51.9	15.8	6.03e-01	0	23	0	68157440	68	4583
2026-01-10 05:46:48.05	311.20	16.24	-50.1	-51.9	15.8	6.03e-01	0	23	0	73924608	68	4598
2026-01-10 05:46:51.03	310.55	16.05	-50.2	-52.1	15.7	6.04e-01	0	23	0	79167488	68	4703
2026-01-10 05:46:54.02	309.92	15.85	-49.6	-51.3	16.0	6.04e-01	0	23	0	84934656	68	4268
2026-01-10 05:46:57.03	309.28	15.65	-49.4	-51.1	15.9	6.03e-01	0	23	0	90701824	67	4411
2026-01-10 05:47:00.04	308.66	15.45	-49.0	-50.7	16.1	6.04e-01	0	23	0	95944704	67	4207
2026-01-10 05:47:03.03	308.04	15.25	-49.2	-50.9	16.0	6.04e-01	0	23	0	101711872	67	4311
2026-01-10 05:47:06.03	307.44	15.04	-49.4	-51.1	15.9	6.04e-01	0	23	0	107479040	67	4421
2026-01-10 05:47:09.03	306.84	14.84	-49.3	-51.0	15.7	6.03e-01	0	23	0	113246208	66	4631
2026-01-10 05:47:12.03	306.25	14.63	-49.0	-50.7	15.9	6.04e-01	0	23	0	118489088	66	4471
2026-01-10 05:47:15.03	305.67	14.43	-49.4	-51.1	15.7	6.02e-01	0	23	0	124256256	66	4685
2026-01-10 05:47:18.02	305.11	14.22	-49.3	-51.1	15.8	6.04e-01	0	23	0	130023424	66	4658
2026-01-10 05:47:21.01	304.55	14.01	-49.0	-50.7	15.9	6.03e-01	0	23	0	135266304	66	4481
2026-01-10 05:47:24.02	303.99	13.80	-49.3	-51.1	15.7	6.03e-01	0	23	0	141033472	66	4665
2026-01-10 05:47:27.02	303.45	13.59	-49.5	-51.3	15.7	6.03e-01	0	23	0	146800640	66	4784
2026-01-10 05:47:30.02	302.91	13.38	-49.9	-51.8	15.6	6.05e-01	0	23	0	152567808	67	4768
2026-01-10 05:47:33.02	302.38	13.17	-49.4	-51.2	15.9	6.04e-01	0	23	0	157810688	67	4467
2026-01-10 05:47:36.01	301.86	12.96	-49.5	-51.3	15.9	6.04e-01	0	23	0	163577856	67	4501
2026-01-10 05:47:39.01	301.35	12.75	-49.2	-51.0	15.9	6.02e-01	0	23	0	169345024	67	4346
2026-01-10 05:47:42.01	300.85	12.54	-49.3	-51.0	15.9	6.05e-01	0	23	0	174587904	67	4389
2026-01-10 05:47:45.01	300.35	12.33	-49.7	-51.5	15.8	6.03e-01	0	23	0	180355072	67	4627
2026-01-10 05:47:47.99	299.87	12.12	-49.5	-51.3	15.9	6.03e-01	0	23	0	186122240	67	4518
2026-01-10 05:47:50.99	299.38	11.91	-49.2	-50.9	16.0	6.02e-01	0	23	0	191889408	67	4325
2026-01-10 05:47:53.98	298.91	11.70	-49.8	-51.7	15.7	6.03e-01	0	23	0	197132288	67	4721
2026-01-10 05:47:56.96	298.45	11.49	-49.4	-51.2	15.8	6.02e-01	0	23	0	202899456	67	4464
2026-01-10 05:47:59.95	297.99	11.28	-49.6	-51.4	15.8	6.03e-01	0	23	0	208666624	67	4577
2026-01-10 05:48:02.94	297.54	11.08	-50.1	-52.0	15.6	6.04e-01	0	23	0	213909504	67	4917
2026-01-10 05:48:05.93	297.10	10.87	-49.6	-51.3	16.0	6.02e-01	0	23	0	219676672	68	4263
2026-01-10 05:48:08.93	296.66	10.66	-50.2	-52.1	15.7	6.03e-01	0	23	0	225443840	68	4698
2026-01-10 05:48:11.92	296.23	10.45	-49.8	-51.7	15.9	6.05e-01	0	23	0	231211008	68	4451
2026-01-10 05:48:14.91	295.81	10.24	-50.0	-51.9	15.8	6.01e-01	0	23	0	236453888	68	4588
2026-01-10 05:48:17.91	295.39	10.04	-50.2	-52.2	15.7	6.03e-01	0	23	0	242221056	68	4727
2026-01-10 05:48:20.89	294.98	9.83	-49.9	-51.8	15.8	6.03e-01	0	23	0	247988224	68	4508
2026-01-10 05:48:23.89	294.57	9.62	-50.1	-52.0	15.7	6.03e-01	0	23	0	253231104	68	4621
2026-01-10 05:48:26.88	294.18	9.42	-49.7	-51.6	16.0	6.01e-01	0	23	0	258998272	68	4434
2026-01-10 05:48:29.87	293.78	9.22	-50.1	-52.2	15.8	6.03e-01	0	23	0	264765440	68	4711
2026-01-10 05:48:32.86	293.40	9.01	-50.1	-52.1	15.7	6.03e-01	0	23	0	270008320	68	4683
2026-01-10 05:48:35.85	293.02	8.81	-49.9	-51.7	15.9	6.01e-01	0	23	0	275775488	68	4468
2026-01-10 05:48:38.85	292.64	8.61	-50.2	-52.2	15.7	6.03e-01	0	23	0	281542656	68	4712
2026-01-10 05:48:41.85	292.27	8.40	-50.4	-52.5	15.5	6.05e-01	0	23	0	287309824	68	4894
2026-01-10 05:48:44.84	291.91	8.20	-50.2	-52.2	15.7	6.03e-01	0	23	0	292552704	68	4719
2026-01-10 05:48:47.82	291.56	8.00	-50.1	-52.1	15.7	6.02e-01	0	23	0	298319872	68	4653
2026-01-10 05:48:50.82	291.20	7.80	-50.3	-52.4	15.6	6.02e-01	0	23	0	304087040	68	4818
2026-01-10 05:48:53.82	290.86	7.60	-50.6	-52.7	15.5	6.04e-01	0	23	0	309329920	68	5006
2026-01-10 05:48:56.82	290.51	7.41	-50.6	-52.7	15.7	6.05e-01	0	23	0	315097088	69	4712
2026-01-10 05:48:59.81	290.18	7.21	-50.5	-52.6	15.7	6.03e-01	0	23	0	320864256	69	4675
2026-01-10 05:49:02.81	289.84	7.01	-50.6	-52.7	15.6	6.04e-01	0	23	0	326107136	69	4744
2026-01-10 05:49:05.80	289.52	6.82	-50.7	-52.8	15.6	6.04e-01	0	23	0	331874304	69	4807
2026-01-10 05:49:08.80	289.20	6.62	-50.7	-52.8	15.6	6.04e-01	0	23	0	337641472	69	4810
2026-01-10 05:49:11.79	288.88	6.43	-50.8	-53.0	15.5	6.03e-01	0	23	0	343408640	69	4917
2026-01-10 05:49:14.78	288.57	6.24	-50.9	-53.1	15.5	6.05e-01	0	23	0	348651520	69	4944
2026-01-10 05:49:17.79	288.26	6.04	-50.7	-52.9	15.5	6.03e-01	0	23	0	354418688	69	4847
2026-01-10 05:49:20.79	287.96	5.85	-50.9	-53.2	15.4	6.02e-01	0	23	0	360185856	69	4992
2026-01-10 05:49:23.79	287.66	5.66	-51.0	-53.3	15.5	6.04e-01	0	23	0	365953024	70	4803
2026-01-10 05:49:26.79	287.36	5.47	-51.2	-53.6	15.4	6.05e-01	0	23	0	371195904	70	4941
2026-01-10 05:49:29.79	287.07	5.28	-51.1	-53.4	15.5	6.06e-01	0	23	0	376963072	70	4815
2026-01-10 05:49:32.79	286.79	5.09	-51.1	-53.4	15.5	6.02e-01	0	23	0	382730240	70	4848
2026-01-10 05:49:35.79	286.50	4.90	-57.6	-76.7	3.8	7.45e-01	0	23	104	386400256	82	35681
2026-01-10 05:49:38.79	286.23	4.72	-58.1	-77.4	3.8	7.48e-01	0	23	104	386400256	83	36247
2026-01-10 05:49:41.78	285.95	4.53	-58.6	-77.9	3.8	7.45e-01	0	23	104	386400256	84	36389
2026-01-10 05:49:44.78	285.68	4.35	-58.9	-78.2	3.8	7.46e-01	0	23	104	386400256	85	35370
2026-01-10 05:49:47.77	285.42	4.16	-58.9	-78.3	3.8	7.47e-01	0	23	104	386400256	85	35763
2026-01-10 05:49:50.76	285.15	3.98	-59.0	-78.3	3.8	7.48e-01	0	23	104	386400256	85	35943
2026-01-10 05:49:53.75	284.90	3.80	-59.0	-78.4	3.8	7.42e-01	0	23	104	386400256	85	36288
2026-01-10 05:49:56.75	284.64	3.62	-59.0	-78.4	3.8	7.44e-01	0	23	104	386400256	85	36345
2026-01-10 05:49:59.74	284.39	3.44	-59.0	-78.4	3.8	7.42e-01	0	23	104	386400256	85	36257
2026-01-10 05:50:02.74	284.14	3.26	-59.0	-78.4	3.8	7.49e-01	0	23	104	386400256	85	36112
2026-01-10 05:50:05.75	283.90	3.08	-58.9	-78.2	3.8	7.46e-01	0	23	104	386400256	85	35689
2026-01-10 05:50:08.75	283.65	2.90	-58.9	-78.2	3.8	7.43e-01	0	23	104	386400256	85	35534
2026-01-10 05:50:11.76	283.42	2.72	-58.8	-78.2	3.8	7.46e-01	0	23	104	386400256	85	35431
2026-01-10 05:50:14.77	283.18	2.54	-58.8	-78.2	3.8	7.44e-01	0	24	104	386400256	85	35309
2026-01-10 05:50:17.76	282.95	2.37	-58.8	-78.1	3.8	7.45e-01	0	23	104	386400256	85	35233
2026-01-10 05:50:20.77	282.72	2.19	-58.8	-78.1	3.8	7.46e-01	0	23	104	386400256	85	35195
2026-01-10 05:50:23.78	282.49	2.02	-58.8	-78.1	3.8	7.45e-01	0	23	104	386400256	85	35170

#Closed at: 2026-01-10 05:50:26
#Recorded file [386 MB]: D:/lorett/data/31004_260110_083918.dat