passes_logs/2026/01/10/R3.2S_Murmansk/R3.2S_Murmansk__20260110_003528_NOAA_21_JPSS-2_rec.log

#Pass ID: 20260110_003528_NOAA 21 (JPSS-2)
#Satellite: NOAA 21 (JPSS-2)
#Configuration: NOAA-21
#almurnet v.1.7.20251203
#Start time: 2026-01-10 00:35:29

#Version: 2.2.20231116
#Station: R3.2S_Murmansk
#Location: 33.079688 lon 68.888172 lat
#TLE: 1 54234U 22150A   26009.23291724  .00000115  00000+0  75298-4 0  9996
#TLE: 2 54234  98.7494 310.2026 0000856 324.9272  35.1848 14.19533567163994

#Time	Az	El	Level	Level2	SNR	BER	BlckErr	Temp	State	Recorded	gain1	gain2
2026-01-10 00:35:29.48	24.14	2.08	-57.1	-70.9	3.8	1.49e+00	0	21	0	0	79	18545
2026-01-10 00:35:33.49	24.16	2.34	-57.1	-70.8	3.8	1.49e+00	0	21	104	0	79	18327
2026-01-10 00:35:37.50	24.19	2.60	-57.1	-70.5	3.8	1.49e+00	0	21	104	0	79	17834
2026-01-10 00:35:41.50	24.21	2.86	-57.1	-70.2	3.8	1.49e+00	0	22	104	0	79	17188
2026-01-10 00:35:45.50	24.24	3.13	-57.0	-69.8	3.8	1.49e+00	0	22	104	0	79	16412
2026-01-10 00:35:49.51	24.26	3.39	-56.8	-67.1	4.0	1.46e+00	0	22	104	0	79	12090
2026-01-10 00:35:53.53	24.29	3.67	-55.9	-61.7	7.5	1.23e-01	0	22	0	7340032	78	6851
2026-01-10 00:35:57.53	24.31	3.94	-54.5	-58.3	10.4	1.51e-03	0	22	0	19922944	75	5491
2026-01-10 00:36:01.54	24.34	4.21	-53.5	-56.5	11.8	2.67e-05	0	22	0	32505856	73	5014
2026-01-10 00:36:05.55	24.36	4.49	-53.6	-56.8	11.6	3.96e-05	0	22	0	45088768	73	5177
2026-01-10 00:36:09.54	24.39	4.77	-54.7	-58.8	9.8	2.27e-03	0	22	0	57671680	74	6193
2026-01-10 00:36:13.54	24.42	5.05	-53.4	-56.2	12.0	4.61e-02	0	22	0	70254592	73	4863
2026-01-10 00:36:17.54	24.44	5.34	-53.9	-57.0	11.6	7.00e-07	0	22	0	80740352	72	5648
2026-01-10 00:36:21.55	24.47	5.63	-52.0	-54.1	13.4	0.00e+00	0	22	0	93323264	70	4519
2026-01-10 00:36:25.56	24.50	5.92	-51.1	-53.0	14.0	0.00e+00	0	22	0	105906176	68	4449
2026-01-10 00:36:29.56	24.52	6.22	-50.9	-52.6	14.2	0.00e+00	0	22	0	118489088	68	4264
2026-01-10 00:36:33.56	24.55	6.52	-50.9	-52.6	14.2	0.00e+00	0	22	0	130023424	68	4286
2026-01-10 00:36:37.55	24.58	6.82	-50.8	-52.5	14.3	0.00e+00	0	23	0	142606336	68	4215
2026-01-10 00:36:41.55	24.60	7.13	-50.5	-52.2	14.3	0.00e+00	0	22	0	155189248	67	4331
2026-01-10 00:36:45.55	24.63	7.44	-50.3	-52.0	14.5	0.00e+00	0	23	0	167772160	67	4202
2026-01-10 00:36:49.55	24.66	7.75	-50.1	-51.7	14.5	0.00e+00	0	23	0	180355072	66	4298
2026-01-10 00:36:53.57	24.69	8.07	-50.1	-51.7	14.5	0.00e+00	0	23	0	192937984	66	4302
2026-01-10 00:36:57.58	24.71	8.39	-50.0	-51.5	14.6	0.00e+00	0	23	0	205520896	66	4227
2026-01-10 00:37:01.59	24.74	8.72	-49.9	-51.4	14.7	0.00e+00	0	23	0	218103808	66	4153
2026-01-10 00:37:05.60	24.77	9.05	-49.8	-51.3	14.7	0.00e+00	0	23	0	230686720	66	4145
2026-01-10 00:37:09.59	24.80	9.39	-49.8	-51.3	14.8	0.00e+00	0	23	0	243269632	66	4108
2026-01-10 00:37:13.59	24.83	9.73	-49.5	-51.0	14.8	0.00e+00	0	23	0	255852544	65	4217
2026-01-10 00:37:17.58	24.86	10.07	-49.4	-50.8	14.9	0.00e+00	0	23	0	268435456	65	4130
2026-01-10 00:37:21.57	24.89	10.42	-49.3	-50.8	14.9	0.00e+00	0	23	0	281018368	65	4100
2026-01-10 00:37:25.57	24.92	10.77	-49.1	-50.5	14.9	0.00e+00	0	23	0	293601280	64	4206
2026-01-10 00:37:29.58	24.95	11.13	-49.1	-50.5	14.9	0.00e+00	0	23	0	305135616	64	4216
2026-01-10 00:37:33.58	24.98	11.50	-48.9	-50.3	15.0	0.00e+00	0	23	0	317718528	64	4113
2026-01-10 00:37:37.58	25.01	11.87	-48.9	-50.3	15.0	0.00e+00	0	23	0	330301440	64	4113
2026-01-10 00:37:41.57	25.04	12.24	-48.8	-50.1	15.1	0.00e+00	0	23	0	342884352	64	4048
2026-01-10 00:37:45.58	25.07	12.62	-48.8	-50.1	15.1	0.00e+00	0	23	0	355467264	64	4035
2026-01-10 00:37:49.57	25.10	13.01	-48.8	-50.1	15.1	0.00e+00	0	23	0	368050176	64	4010
2026-01-10 00:37:53.57	25.13	13.41	-48.7	-50.0	15.0	0.00e+00	0	23	0	380633088	63	4226
2026-01-10 00:37:57.57	25.17	13.81	-48.6	-50.0	15.0	0.00e+00	0	23	0	393216000	63	4196
2026-01-10 00:38:01.58	25.20	14.21	-48.6	-49.9	15.1	0.00e+00	0	23	0	405798912	63	4174
2026-01-10 00:38:05.57	25.23	14.63	-48.7	-50.0	15.0	0.00e+00	0	23	0	418381824	63	4216
2026-01-10 00:38:09.55	25.27	15.05	-48.6	-49.9	15.1	0.00e+00	0	23	0	430964736	63	4151
2026-01-10 00:38:13.51	25.30	15.47	-48.6	-49.8	15.1	0.00e+00	0	23	0	442499072	63	4141
2026-01-10 00:38:17.51	25.34	15.91	-48.7	-50.0	15.0	0.00e+00	0	23	0	455081984	63	4214
2026-01-10 00:38:21.50	25.37	16.35	-48.8	-50.1	15.0	0.00e+00	0	23	0	467664896	63	4273
2026-01-10 00:38:25.48	25.41	16.80	-48.8	-50.2	15.0	0.00e+00	0	23	0	480247808	63	4303
2026-01-10 00:38:29.48	25.44	17.26	-48.8	-50.1	15.0	0.00e+00	0	23	0	492830720	63	4258
2026-01-10 00:38:33.48	25.48	17.73	-48.8	-50.1	15.0	0.00e+00	0	23	0	505413632	63	4279
2026-01-10 00:38:37.49	25.52	18.21	-48.6	-49.9	15.1	0.00e+00	0	23	0	517996544	63	4169
2026-01-10 00:38:41.48	25.56	18.70	-48.7	-50.0	15.1	0.00e+00	0	23	0	530579456	63	4201
2026-01-10 00:38:45.48	25.60	19.20	-48.6	-49.8	15.1	0.00e+00	0	23	0	543162368	63	4133
2026-01-10 00:38:49.49	25.64	19.71	-48.5	-49.7	15.2	0.00e+00	0	23	0	555745280	63	4095
2026-01-10 00:38:53.49	25.68	20.23	-48.2	-49.4	15.3	0.00e+00	0	23	0	568328192	63	3952
2026-01-10 00:38:57.49	25.72	20.76	-48.0	-49.2	15.3	0.00e+00	0	23	0	579862528	62	4087
2026-01-10 00:39:01.47	25.76	21.30	-47.7	-48.9	15.4	0.00e+00	0	23	0	592445440	62	3938
2026-01-10 00:39:05.48	25.81	21.85	-47.6	-48.8	15.3	0.00e+00	0	23	0	605028352	61	4114
2026-01-10 00:39:09.48	25.85	22.42	-47.4	-48.6	15.4	0.00e+00	0	23	0	617611264	61	4023
2026-01-10 00:39:13.47	25.89	23.00	-47.3	-48.4	15.5	0.00e+00	0	23	0	630194176	61	3951
2026-01-10 00:39:17.47	25.94	23.59	-47.2	-48.3	15.3	0.00e+00	0	23	0	642777088	60	4141
2026-01-10 00:39:21.46	25.99	24.19	-47.3	-48.4	15.3	0.00e+00	0	23	0	655360000	60	4189
2026-01-10 00:39:25.46	26.04	24.81	-47.5	-48.7	15.3	0.00e+00	0	23	0	667942912	60	4300
2026-01-10 00:39:29.44	26.09	25.45	-47.8	-49.0	15.2	0.00e+00	0	23	0	680525824	60	4452
2026-01-10 00:39:33.44	26.14	26.10	-48.1	-49.4	15.1	0.00e+00	0	23	0	693108736	61	4405
2026-01-10 00:39:37.44	26.19	26.76	-48.7	-50.0	15.0	0.00e+00	0	23	0	705691648	62	4462
2026-01-10 00:39:41.44	26.25	27.45	-49.1	-50.4	14.9	0.00e+00	0	23	0	717225984	63	4428
2026-01-10 00:39:45.44	26.30	28.15	-49.2	-50.5	14.9	0.00e+00	0	23	0	729808896	63	4473
2026-01-10 00:39:49.42	26.36	28.87	-48.7	-50.0	15.1	0.00e+00	0	23	0	742391808	63	4208
2026-01-10 00:39:53.41	26.42	29.60	-48.5	-49.8	15.2	0.00e+00	0	23	0	754974720	63	4106
2026-01-10 00:39:57.40	26.48	30.36	-48.4	-49.7	15.2	0.00e+00	0	23	0	767557632	63	4058
2026-01-10 00:40:01.40	26.55	31.14	-48.6	-49.8	15.2	0.00e+00	0	23	0	780140544	63	4128
2026-01-10 00:40:05.40	26.61	31.94	-48.3	-49.4	15.3	0.00e+00	0	23	0	792723456	63	3957
2026-01-10 00:40:09.40	26.68	32.76	-48.4	-49.6	15.3	0.00e+00	0	23	0	805306368	63	4010
2026-01-10 00:40:13.39	26.75	33.61	-48.8	-50.1	15.1	0.00e+00	0	23	0	817889280	63	4254
2026-01-10 00:40:17.39	26.83	34.48	-49.3	-50.6	14.8	0.00e+00	0	23	0	830472192	63	4544
2026-01-10 00:40:21.37	26.91	35.37	-49.2	-50.5	14.9	0.00e+00	0	23	0	842006528	63	4493
2026-01-10 00:40:25.37	26.99	36.29	-49.5	-50.8	14.8	0.00e+00	0	23	0	854589440	64	4384
2026-01-10 00:40:29.37	27.07	37.23	-50.3	-51.8	14.5	0.00e+00	0	23	0	867172352	65	4613
2026-01-10 00:40:33.37	27.16	38.21	-50.3	-51.8	14.7	0.00e+00	0	23	0	879755264	66	4350
2026-01-10 00:40:37.38	27.26	39.22	-49.8	-51.2	15.0	0.00e+00	0	23	0	892338176	66	4071
2026-01-10 00:40:41.38	27.36	40.25	-49.9	-51.3	14.9	0.00e+00	0	23	0	904921088	66	4131
2026-01-10 00:40:45.38	27.46	41.32	-50.0	-51.4	14.8	0.00e+00	0	23	0	917504000	66	4167
2026-01-10 00:40:49.37	27.57	42.41	-50.5	-52.0	14.6	0.00e+00	0	23	0	930086912	66	4448
2026-01-10 00:40:53.38	27.69	43.55	-51.1	-52.7	14.3	0.00e+00	0	23	0	942669824	67	4564
2026-01-10 00:40:57.39	27.81	44.71	-51.0	-52.6	14.4	0.00e+00	0	23	0	955252736	67	4507
2026-01-10 00:41:01.37	27.95	45.91	-51.2	-52.9	14.2	0.00e+00	0	23	0	967835648	67	4663
2026-01-10 00:41:05.38	28.09	47.15	-51.3	-52.9	14.2	0.00e+00	0	23	0	980418560	67	4695
2026-01-10 00:41:09.38	28.24	48.43	-50.4	-51.9	14.7	0.00e+00	0	23	0	993001472	67	4159
2026-01-10 00:41:13.37	28.41	49.74	-50.1	-51.5	14.8	0.00e+00	0	23	0	1004535808	66	4194
2026-01-10 00:41:17.35	28.59	51.08	-49.8	-51.2	15.0	0.00e+00	0	23	0	1017118720	66	4083
2026-01-10 00:41:21.33	28.78	52.47	-49.8	-51.2	15.0	0.00e+00	0	23	0	1029701632	66	4053
2026-01-10 00:41:25.31	28.99	53.89	-49.4	-50.7	15.1	0.00e+00	0	23	0	1042284544	65	4091
2026-01-10 00:41:29.30	29.23	55.36	-48.5	-49.7	15.2	0.00e+00	0	23	0	1054867456	63	4098
2026-01-10 00:41:33.28	29.48	56.87	-48.7	-49.9	15.2	0.00e+00	0	23	0	1067450368	63	4186
2026-01-10 00:41:37.29	29.77	58.43	-48.3	-49.5	15.3	0.00e+00	0	23	0	1080033280	63	3992
2026-01-10 00:41:41.27	30.09	60.02	-48.2	-49.4	15.3	0.00e+00	0	23	0	1091567616	62	4168
2026-01-10 00:41:45.27	30.45	61.65	-47.4	-48.5	15.5	0.00e+00	0	23	0	1105199104	61	3969
2026-01-10 00:41:49.25	30.86	63.32	-47.3	-48.4	15.5	0.00e+00	0	23	0	1116733440	61	3958
2026-01-10 00:41:53.25	31.33	65.04	-47.0	-48.2	15.5	0.00e+00	0	23	0	1129316352	60	4053
2026-01-10 00:41:57.25	31.88	66.79	-47.3	-48.4	15.4	0.00e+00	0	23	0	1141899264	60	4173
2026-01-10 00:42:01.25	32.52	68.58	-47.3	-48.5	15.4	0.00e+00	0	23	0	1154482176	60	4204
2026-01-10 00:42:05.24	33.29	70.40	-47.1	-48.2	15.4	0.00e+00	0	23	0	1167065088	60	4069
2026-01-10 00:42:09.25	34.23	72.26	-46.7	-47.8	15.5	0.00e+00	0	23	0	1179648000	59	4125
2026-01-10 00:42:13.24	35.40	74.14	-46.9	-47.9	15.6	0.00e+00	0	23	0	1192230912	60	3958
2026-01-10 00:42:17.23	36.89	76.04	-47.1	-48.2	15.4	0.00e+00	0	23	0	1204813824	59	4337
2026-01-10 00:42:21.22	38.87	77.95	-47.3	-48.4	15.4	0.00e+00	0	23	0	1217396736	60	4158
2026-01-10 00:42:25.20	41.60	79.86	-47.9	-49.1	15.2	0.00e+00	0	23	0	1228931072	61	4270
2026-01-10 00:42:29.20	45.64	81.77	-48.3	-49.5	15.1	0.00e+00	0	23	0	1241513984	61	4475
2026-01-10 00:42:33.20	52.10	83.62	-47.9	-49.1	15.3	0.00e+00	0	23	0	1254096896	61	4261
2026-01-10 00:42:37.20	63.62	85.35	-48.0	-49.3	15.2	0.00e+00	0	23	0	1266679808	61	4341
2026-01-10 00:42:41.21	86.39	86.70	-48.1	-49.3	15.2	0.00e+00	0	23	0	1279262720	61	4380
2026-01-10 00:42:45.20	124.13	87.07	-47.8	-49.0	15.3	0.00e+00	0	23	0	1291845632	61	4208
2026-01-10 00:42:49.20	156.12	86.17	-47.6	-48.8	15.4	0.00e+00	0	23	0	1304428544	61	4105
2026-01-10 00:42:53.19	172.81	84.62	-47.3	-48.4	15.4	0.00e+00	0	23	0	1317011456	61	3950
2026-01-10 00:42:57.18	181.59	82.82	-47.9	-49.1	15.3	0.00e+00	0	23	0	1329594368	61	4244
2026-01-10 00:43:01.16	186.77	80.94	-47.1	-48.2	15.5	0.00e+00	0	23	0	1342177280	60	4059
2026-01-10 00:43:05.17	190.17	79.02	-47.5	-48.6	15.3	0.00e+00	0	23	0	1354760192	60	4270
2026-01-10 00:43:09.17	192.53	77.10	-47.3	-48.4	15.4	0.00e+00	0	23	0	1367343104	60	4184
2026-01-10 00:43:13.15	194.27	75.20	-47.1	-48.2	15.5	0.00e+00	0	23	0	1378877440	60	4052
2026-01-10 00:43:17.16	195.61	73.29	-47.6	-48.8	15.4	0.00e+00	0	23	0	1391460352	61	4121
2026-01-10 00:43:21.15	196.66	71.43	-47.1	-48.2	15.4	0.00e+00	0	23	0	1404043264	59	4322
2026-01-10 00:43:25.15	197.52	69.58	-47.9	-49.1	15.3	0.00e+00	0	23	0	1416626176	61	4251
2026-01-10 00:43:29.12	198.23	67.78	-47.3	-48.5	15.5	0.00e+00	0	23	0	1429209088	61	3966
2026-01-10 00:43:33.11	198.82	66.01	-47.3	-48.4	15.5	0.00e+00	0	23	0	1441792000	61	3920
2026-01-10 00:43:37.12	199.34	64.26	-47.0	-48.2	15.5	0.00e+00	0	23	0	1454374912	60	4053
2026-01-10 00:43:41.11	199.78	62.56	-48.6	-49.9	14.9	0.00e+00	0	23	0	1466957824	62	4426
2026-01-10 00:43:45.13	200.17	60.89	-48.2	-49.3	15.2	0.00e+00	0	23	0	1479540736	62	4145
2026-01-10 00:43:49.13	200.51	59.27	-48.7	-49.9	15.0	0.00e+00	0	23	0	1492123648	62	4439
2026-01-10 00:43:53.14	200.81	57.68	-47.4	-48.5	15.4	0.00e+00	0	23	0	1504706560	61	4004
2026-01-10 00:43:57.15	201.08	56.14	-50.2	-51.6	14.7	0.00e+00	0	23	0	1516240896	65	4511
2026-01-10 00:44:01.14	201.33	54.64	-49.3	-50.6	15.1	0.00e+00	0	23	0	1528823808	65	4039
2026-01-10 00:44:05.13	201.55	53.19	-48.8	-50.0	15.3	0.00e+00	0	23	0	1541406720	64	3969
2026-01-10 00:44:09.12	201.76	51.78	-50.8	-52.3	14.4	0.00e+00	0	23	0	1553989632	66	4644
2026-01-10 00:44:13.13	201.94	50.40	-50.9	-52.4	14.4	0.00e+00	0	23	0	1566572544	66	4688
2026-01-10 00:44:17.13	202.11	49.06	-50.8	-52.2	14.6	0.00e+00	0	23	0	1579155456	67	4331
2026-01-10 00:44:21.13	202.27	47.76	-51.4	-53.0	14.2	0.00e+00	0	23	0	1591738368	67	4755
2026-01-10 00:44:25.11	202.42	46.51	-51.2	-52.7	14.6	0.00e+00	0	23	0	1604321280	68	4325
2026-01-10 00:44:29.12	202.56	45.28	-51.4	-53.0	14.4	0.00e+00	0	23	0	1616904192	68	4475
2026-01-10 00:44:33.11	202.69	44.09	-52.0	-53.7	14.2	0.00e+00	0	23	0	1629487104	70	4300
2026-01-10 00:44:37.12	202.81	42.94	-50.8	-52.2	14.8	0.00e+00	0	23	0	1642070016	68	4096
2026-01-10 00:44:41.13	202.92	41.82	-51.7	-53.4	14.1	0.00e+00	0	24	0	1654652928	68	4678
2026-01-10 00:44:45.13	203.03	40.73	-51.5	-53.2	14.3	0.00e+00	0	24	0	1667235840	68	4550
2026-01-10 00:44:49.13	203.13	39.68	-50.5	-52.0	14.7	0.00e+00	0	23	0	1678770176	67	4207
2026-01-10 00:44:53.12	203.23	38.66	-50.7	-52.3	14.6	0.00e+00	0	23	0	1691353088	67	4341
2026-01-10 00:44:57.13	203.32	37.66	-49.8	-51.1	15.0	0.00e+00	0	23	0	1703936000	66	4035
2026-01-10 00:45:01.13	203.40	36.70	-49.9	-51.3	14.8	0.00e+00	0	23	0	1716518912	65	4355
2026-01-10 00:45:05.12	203.49	35.76	-50.3	-51.8	14.5	0.00e+00	0	23	0	1729101824	65	4636
2026-01-10 00:45:09.12	203.56	34.85	-50.5	-52.0	14.5	0.00e+00	0	23	0	1741684736	66	4481
2026-01-10 00:45:13.12	203.64	33.97	-50.0	-51.5	14.8	0.00e+00	0	23	0	1754267648	66	4201
2026-01-10 00:45:17.13	203.71	33.11	-49.3	-50.6	15.1	0.00e+00	0	23	0	1766850560	65	4045
2026-01-10 00:45:21.11	203.78	32.27	-49.0	-50.3	15.1	0.00e+00	0	23	0	1779433472	64	4124
2026-01-10 00:45:25.12	203.85	31.46	-48.8	-50.1	15.1	0.00e+00	0	23	0	1792016384	63	4259
2026-01-10 00:45:29.11	203.91	30.67	-49.3	-50.7	14.8	0.00e+00	0	23	0	1804599296	63	4567
2026-01-10 00:45:33.12	203.97	29.89	-49.3	-50.6	15.0	0.00e+00	0	23	0	1817182208	64	4269
2026-01-10 00:45:37.13	204.03	29.14	-49.1	-50.5	15.0	0.00e+00	0	23	0	1828716544	64	4204
2026-01-10 00:45:41.11	204.09	28.41	-48.8	-50.0	15.2	0.00e+00	0	23	0	1841299456	64	3998
2026-01-10 00:45:45.13	204.15	27.70	-48.6	-49.8	15.1	0.00e+00	0	23	0	1853882368	63	4125
2026-01-10 00:45:49.12	204.20	27.01	-48.2	-49.4	15.4	0.00e+00	0	23	0	1866465280	63	3939
2026-01-10 00:45:53.11	204.25	26.33	-47.9	-49.1	15.3	0.00e+00	0	23	0	1879048192	62	4025
2026-01-10 00:45:57.10	204.30	25.67	-47.6	-48.8	15.3	0.00e+00	0	23	0	1891631104	61	4117
2026-01-10 00:46:01.08	204.35	25.03	-47.7	-48.8	15.3	0.00e+00	0	23	0	1904214016	61	4144
2026-01-10 00:46:05.09	204.40	24.40	-47.5	-48.7	15.4	0.00e+00	0	23	0	1916796928	61	4069
2026-01-10 00:46:09.10	204.45	23.78	-47.9	-49.1	15.2	0.00e+00	0	23	0	1929379840	61	4268
2026-01-10 00:46:13.10	204.49	23.18	-48.1	-49.3	15.1	0.00e+00	0	23	0	1941962752	61	4380
2026-01-10 00:46:17.09	204.54	22.60	-48.3	-49.5	15.0	0.00e+00	0	23	0	1954545664	61	4486
2026-01-10 00:46:21.09	204.58	22.02	-48.3	-49.5	15.0	0.00e+00	0	23	0	1966080000	61	4488
2026-01-10 00:46:25.08	204.62	21.46	-48.1	-49.4	15.1	0.00e+00	0	23	0	1978662912	61	4397
2026-01-10 00:46:29.08	204.66	20.91	-48.1	-49.4	15.1	0.00e+00	0	23	0	1991245824	61	4394
2026-01-10 00:46:33.08	204.70	20.37	-48.2	-49.5	15.0	0.00e+00	0	23	0	2003828736	61	4452
2026-01-10 00:46:37.06	204.74	19.85	-48.2	-49.5	15.0	0.00e+00	0	23	0	2016411648	61	4443
2026-01-10 00:46:41.06	204.78	19.34	-48.4	-49.7	14.9	0.00e+00	0	23	0	2028994560	61	4558
2026-01-10 00:46:45.06	204.82	18.83	-48.5	-49.7	15.0	0.00e+00	0	23	0	2041577472	62	4332
2026-01-10 00:46:49.06	204.86	18.34	-48.5	-49.8	15.0	0.00e+00	0	23	0	2054160384	62	4361
2026-01-10 00:46:53.05	204.89	17.85	-48.7	-50.0	14.9	0.00e+00	0	23	0	2066743296	62	4481
2026-01-10 00:46:57.04	204.93	17.38	-48.9	-50.3	14.9	0.00e+00	0	23	0	2079326208	63	4355
2026-01-10 00:47:01.05	204.96	16.91	-48.9	-50.3	14.9	0.00e+00	0	23	0	2091909120	63	4345
2026-01-10 00:47:05.05	205.00	16.45	-48.9	-50.2	15.0	0.00e+00	0	24	0	2103443456	63	4313
2026-01-10 00:47:09.06	205.03	16.00	-48.8	-50.1	15.0	0.00e+00	0	23	0	2116026368	63	4252
2026-01-10 00:47:13.06	205.07	15.56	-48.9	-50.2	14.9	0.00e+00	0	23	0	2128609280	63	4320
2026-01-10 00:47:17.06	205.10	15.13	-48.8	-50.1	15.0	0.00e+00	0	23	0	2141192192	63	4285
2026-01-10 00:47:21.06	205.13	14.70	-48.9	-50.2	14.9	0.00e+00	0	24	0	2153775104	63	4315
2026-01-10 00:47:25.04	205.16	14.29	-49.0	-50.4	14.9	0.00e+00	0	23	0	2166358016	63	4400
2026-01-10 00:47:29.02	205.19	13.88	-48.9	-50.2	15.0	0.00e+00	0	24	0	2178940928	63	4300
2026-01-10 00:47:33.00	205.22	13.47	-49.0	-50.4	14.9	0.00e+00	0	23	0	2191523840	63	4419
2026-01-10 00:47:37.00	205.25	13.08	-48.9	-50.2	14.9	0.00e+00	0	23	0	2204106752	63	4295
2026-01-10 00:47:41.00	205.28	12.68	-48.8	-50.1	15.0	0.00e+00	0	23	0	2216689664	63	4269
2026-01-10 00:47:45.01	205.31	12.30	-48.9	-50.3	14.9	0.00e+00	0	23	0	2229272576	63	4348
2026-01-10 00:47:49.02	205.34	11.92	-49.0	-50.4	14.8	0.00e+00	0	23	0	2240806912	63	4399
2026-01-10 00:47:53.02	205.37	11.54	-49.2	-50.6	14.7	0.00e+00	0	23	0	2253389824	63	4522
2026-01-10 00:47:57.01	205.40	11.18	-49.3	-50.7	14.7	0.00e+00	0	23	0	2265972736	63	4558
2026-01-10 00:48:01.00	205.43	10.81	-49.4	-50.8	14.6	0.00e+00	0	23	0	2278555648	63	4626
2026-01-10 00:48:05.00	205.45	10.46	-49.5	-51.0	14.6	0.00e+00	0	23	0	2291138560	64	4465
2026-01-10 00:48:09.01	205.48	10.10	-49.7	-51.2	14.5	0.00e+00	0	23	0	2303721472	64	4546
2026-01-10 00:48:13.00	205.51	9.76	-49.9	-51.4	14.4	0.00e+00	0	23	0	2316304384	64	4677
2026-01-10 00:48:17.00	205.53	9.42	-49.9	-51.4	14.5	0.00e+00	0	23	0	2328887296	65	4417
2026-01-10 00:48:21.00	205.56	9.08	-50.2	-51.8	14.3	0.00e+00	0	23	0	2341470208	65	4641
2026-01-10 00:48:24.99	205.59	8.74	-50.4	-52.0	14.2	0.00e+00	0	23	0	2354053120	65	4727
2026-01-10 00:48:28.98	205.61	8.42	-50.6	-52.3	14.1	0.00e+00	0	23	0	2366636032	66	4607
2026-01-10 00:48:32.98	205.64	8.09	-50.7	-52.5	14.0	0.00e+00	0	23	0	2379218944	66	4706
2026-01-10 00:48:36.97	205.66	7.77	-50.9	-52.6	14.0	0.00e+00	0	23	0	2390753280	67	4545
2026-01-10 00:48:40.96	205.69	7.46	-51.1	-52.9	13.9	0.00e+00	0	23	0	2403336192	67	4698
2026-01-10 00:48:44.96	205.71	7.14	-51.2	-53.1	13.8	0.00e+00	0	23	0	2415919104	67	4773
2026-01-10 00:48:48.95	205.74	6.84	-51.2	-53.1	13.7	0.00e+00	0	23	0	2428502016	67	4810
2026-01-10 00:48:52.95	205.76	6.53	-51.4	-53.4	13.7	0.00e+00	0	23	0	2441084928	68	4656
2026-01-10 00:48:56.94	205.79	6.23	-51.5	-53.5	13.6	0.00e+00	0	23	0	2453667840	68	4731
2026-01-10 00:49:00.93	205.81	5.93	-51.8	-53.8	13.4	0.00e+00	0	23	0	2466250752	68	4893
2026-01-10 00:49:04.92	205.83	5.64	-51.9	-54.0	13.3	0.00e+00	0	23	0	2478833664	68	5004
2026-01-10 00:49:08.91	205.86	5.35	-51.7	-53.7	13.5	0.00e+00	0	23	0	2491416576	68	4830
2026-01-10 00:49:12.90	205.88	5.06	-51.8	-53.9	13.3	0.00e+00	0	23	0	2502950912	68	4982
2026-01-10 00:49:16.90	205.90	4.77	-58.6	-72.4	3.8	1.49e+00	0	23	104	2506096640	82	18565
2026-01-10 00:49:20.90	205.92	4.49	-59.0	-72.7	3.8	1.49e+00	0	24	104	2506096640	83	18295
2026-01-10 00:49:24.89	205.95	4.21	-59.1	-73.0	3.8	1.49e+00	0	23	104	2506096640	83	18768
2026-01-10 00:49:28.88	205.97	3.94	-59.2	-73.1	3.8	1.49e+00	0	24	104	2506096640	83	18988
2026-01-10 00:49:32.87	205.99	3.66	-59.3	-73.2	3.8	1.49e+00	0	24	104	2506096640	83	19212
2026-01-10 00:49:36.87	206.01	3.39	-59.6	-73.4	3.8	1.49e+00	0	24	104	2506096640	84	18637
2026-01-10 00:49:40.86	206.04	3.12	-59.5	-73.3	3.8	1.49e+00	0	23	104	2506096640	84	18487
2026-01-10 00:49:44.86	206.06	2.86	-59.5	-73.3	3.8	1.49e+00	0	24	104	2506096640	84	18424
2026-01-10 00:49:48.87	206.08	2.59	-59.5	-73.3	3.8	1.49e+00	0	24	104	2506096640	84	18386
2026-01-10 00:49:52.87	206.10	2.33	-59.5	-73.3	3.8	1.49e+00	0	24	104	2506096640	84	18325
2026-01-10 00:49:56.87	206.12	2.08	-59.5	-73.3	3.8	1.49e+00	0	23	104	2506096640	84	18320

#Closed at: 2026-01-10 00:49:58
#Recorded file [2506 MB]: D:/lorett/data/31004_260110_033529.dat