passes_logs/2026/01/10/R3.2S_Murmansk/R3.2S_Murmansk__20260110_085653_TY-42_rec.log

#Pass ID: 20260110_085653_TY-42
#Satellite: TY-42
#Configuration: TY-42_900M
#almurnet v.1.7.20251203
#Start time: 2026-01-10 08:56:54

#Version: 2.2.20231116
#Station: R3.2S_Murmansk
#Location: 33.079688 lon 68.888172 lat
#TLE: 1 64048U 25103A   26010.18631944  .00008007  00000-0  38191-3 0 09998
#TLE: 2 64048 097.4116 085.6940 0001701 092.7018 058.3398 15.19155981 36088

#Time	Az	El	Level	Level2	SNR	BER	BlckErr	Temp	State	Recorded	gain1	gain2
2026-01-10 08:56:54.84	20.88	2.12	-56.7	-59.9	6.1	0.00e+00	0	28	0	0	80	20497
2026-01-10 08:56:57.86	20.96	2.33	-56.7	-59.9	6.2	0.00e+00	0	28	104	0	80	20630
2026-01-10 08:57:00.88	21.04	2.55	-56.7	-59.9	6.2	0.00e+00	0	28	104	0	80	20609
2026-01-10 08:57:03.91	21.13	2.76	-56.7	-59.9	6.2	0.00e+00	0	29	104	0	80	20587
2026-01-10 08:57:06.94	21.21	2.98	-56.7	-60.0	6.2	0.00e+00	0	29	104	0	80	20660
2026-01-10 08:57:09.96	21.29	3.20	-56.7	-59.9	6.2	0.00e+00	0	29	104	0	80	20620
2026-01-10 08:57:12.98	21.38	3.42	-56.8	-59.9	6.2	0.00e+00	0	29	104	0	80	20621
2026-01-10 08:57:16.00	21.46	3.64	-56.8	-60.0	6.2	0.00e+00	0	29	104	0	80	20674
2026-01-10 08:57:19.02	21.55	3.86	-56.8	-60.0	6.2	0.00e+00	0	29	104	0	80	20730
2026-01-10 08:57:22.05	21.64	4.09	-56.8	-60.0	6.2	0.00e+00	0	29	104	0	80	20801
2026-01-10 08:57:25.07	21.73	4.32	-56.8	-60.0	6.2	0.00e+00	0	29	104	0	80	20737
2026-01-10 08:57:28.09	21.83	4.55	-56.8	-60.0	6.2	0.00e+00	0	30	104	0	80	20719
2026-01-10 08:57:31.11	21.92	4.79	-56.8	-60.0	6.2	0.00e+00	0	30	104	0	80	20788
2026-01-10 08:57:34.13	22.02	5.03	-51.1	-52.0	8.0	0.00e+00	0	30	104	0	67	17519
2026-01-10 08:57:37.13	22.11	5.27	-56.3	-59.2	6.2	0.00e+00	0	31	104	176160768	78	21133
2026-01-10 08:57:40.14	22.21	5.51	-46.1	-46.6	10.1	0.00e+00	5411	31	104	218103808	59	14846
2026-01-10 08:57:43.16	22.31	5.76	-44.0	-44.3	11.4	1.63e-01	0	31	0	553648128	55	14420
2026-01-10 08:57:46.17	22.42	6.01	-43.0	-43.4	11.6	5.64e-02	0	32	0	889192448	53	14518
2026-01-10 08:57:49.19	22.52	6.26	-42.7	-43.1	11.7	4.57e-02	0	32	0	1233125376	52	14820
2026-01-10 08:57:52.20	22.63	6.51	-42.4	-42.8	11.8	3.98e-02	0	32	0	1568669696	51	15154
2026-01-10 08:57:55.21	22.74	6.77	-42.2	-42.6	11.9	3.22e-02	0	32	0	1904214016	51	14837
2026-01-10 08:57:58.21	22.85	7.03	-42.2	-42.5	11.9	2.44e-02	0	32	0	2239758336	51	14740
2026-01-10 08:58:01.23	22.96	7.30	-42.0	-42.3	12.1	2.41e-02	0	32	0	2583691264	51	14393
2026-01-10 08:58:04.23	23.08	7.57	-41.9	-42.2	12.0	2.19e-02	0	33	0	2919235584	50	14984
2026-01-10 08:58:07.25	23.20	7.84	-41.9	-42.2	12.0	2.18e-02	0	33	0	3263168512	50	15018
2026-01-10 08:58:10.25	23.32	8.12	-42.0	-42.3	12.0	2.01e-02	0	33	0	3598712832	50	15209
2026-01-10 08:58:13.27	23.44	8.40	-41.6	-41.9	12.2	1.76e-02	0	33	0	3934257152	50	14518
2026-01-10 08:58:16.27	23.56	8.69	-41.6	-41.9	12.2	1.53e-02	0	33	0	4278190080	50	14560
2026-01-10 08:58:19.28	23.69	8.97	-41.3	-41.6	12.2	1.46e-02	0	33	0	4613734400	49	14945
2026-01-10 08:58:22.29	23.82	9.27	-41.3	-41.6	12.2	1.35e-02	0	33	0	4957667328	49	14843
2026-01-10 08:58:25.31	23.96	9.57	-41.1	-41.4	12.3	1.16e-02	0	33	0	5293211648	49	14534
2026-01-10 08:58:28.32	24.10	9.87	-41.0	-41.3	12.3	9.66e-03	0	33	0	5628755968	49	14335
2026-01-10 08:58:31.31	24.23	10.18	-40.8	-41.1	12.3	8.94e-03	0	34	0	5964300288	48	14878
2026-01-10 08:58:34.33	24.38	10.49	-40.6	-40.9	12.4	7.85e-03	0	34	0	6308233216	48	14512
2026-01-10 08:58:37.34	24.53	10.81	-40.6	-40.9	12.4	7.06e-03	0	34	0	6643777536	48	14483
2026-01-10 08:58:40.35	24.68	11.13	-39.6	-39.9	12.3	6.19e-03	0	34	0	6987710464	46	14545
2026-01-10 08:58:43.36	24.83	11.46	-39.6	-39.9	12.3	7.77e-03	0	34	0	7323254784	46	14520
2026-01-10 08:58:46.37	24.99	11.80	-39.4	-39.7	12.4	8.53e-03	0	34	0	7658799104	46	14251
2026-01-10 08:58:49.39	25.15	12.14	-39.3	-39.6	12.4	7.53e-03	0	34	0	8002732032	45	14942
2026-01-10 08:58:52.40	25.32	12.49	-39.2	-39.5	12.4	6.89e-03	0	34	0	8338276352	45	14697
2026-01-10 08:58:55.41	25.49	12.84	-39.1	-39.4	12.5	6.51e-03	0	34	0	8682209280	45	14457
2026-01-10 08:58:58.42	25.67	13.20	-38.8	-39.1	12.5	5.28e-03	0	34	0	9017753600	44	14930
2026-01-10 08:59:01.42	25.85	13.57	-38.7	-39.0	12.5	4.09e-03	0	34	0	9353297920	44	14620
2026-01-10 08:59:04.43	26.03	13.94	-38.8	-39.1	12.5	4.07e-03	0	34	0	9688842240	44	14881
2026-01-10 08:59:07.45	26.23	14.32	-38.7	-39.0	12.5	4.07e-03	0	35	0	10032775168	44	14674
2026-01-10 08:59:10.46	26.42	14.71	-38.3	-38.6	12.6	3.46e-03	0	34	0	10368319488	43	14857
2026-01-10 08:59:13.47	26.63	15.11	-38.1	-38.4	12.7	2.45e-03	0	34	0	10712252416	43	14460
2026-01-10 08:59:16.48	26.83	15.51	-37.8	-38.1	12.7	2.45e-03	0	35	0	11047796736	42	14931
2026-01-10 08:59:19.49	27.05	15.93	-37.8	-38.1	12.7	1.83e-03	0	35	0	11391729664	42	14799
2026-01-10 08:59:22.50	27.27	16.35	-37.7	-37.9	12.7	1.64e-03	0	35	0	11727273984	42	14594
2026-01-10 08:59:25.50	27.50	16.78	-37.5	-37.8	12.8	1.36e-03	0	35	0	12062818304	42	14316
2026-01-10 08:59:28.51	27.74	17.22	-37.3	-37.6	12.8	1.28e-03	0	35	0	12398362624	41	14804
2026-01-10 08:59:31.52	27.98	17.68	-37.0	-37.3	12.9	1.17e-03	0	35	0	12742295552	41	14287
2026-01-10 08:59:34.53	28.23	18.14	-36.8	-37.1	12.8	7.01e-04	0	35	0	13077839872	40	14859
2026-01-10 08:59:37.53	28.49	18.61	-36.8	-37.1	12.8	7.25e-04	0	35	0	13413384192	40	14892
2026-01-10 08:59:40.55	28.76	19.10	-36.7	-36.9	12.8	5.67e-04	0	35	0	13757317120	40	14581
2026-01-10 08:59:43.56	29.04	19.59	-36.5	-36.8	12.9	4.82e-04	0	35	0	14092861440	40	14334
2026-01-10 08:59:46.57	29.33	20.10	-36.5	-36.7	12.9	3.48e-04	0	35	0	14436794368	39	15096
2026-01-10 08:59:49.58	29.64	20.62	-36.3	-36.6	12.9	4.15e-04	0	35	0	14772338688	39	14898
2026-01-10 08:59:52.59	29.95	21.16	-36.0	-36.3	13.0	3.43e-04	0	35	0	15116271616	39	14392
2026-01-10 08:59:55.61	30.27	21.71	-35.7	-36.0	13.0	1.95e-04	0	35	0	15451815936	38	14622
2026-01-10 08:59:58.62	30.61	22.27	-35.6	-35.8	13.0	1.52e-04	0	35	0	15787360256	38	14424
2026-01-10 09:00:01.64	30.96	22.85	-35.3	-35.6	13.0	1.10e-04	0	35	0	16131293184	37	14792
2026-01-10 09:00:04.65	31.33	23.44	-35.1	-35.4	13.1	8.10e-05	0	35	0	16466837504	37	14451
2026-01-10 09:00:07.66	31.71	24.05	-35.0	-35.3	13.1	6.67e-05	0	35	0	16810770432	37	14284
2026-01-10 09:00:10.68	32.11	24.68	-34.5	-34.8	13.1	7.62e-05	0	35	0	17146314752	36	14315
2026-01-10 09:00:13.69	32.52	25.32	-31.8	-32.0	13.0	9.05e-05	0	35	0	17490247680	30	14770
2026-01-10 09:00:16.70	32.96	25.98	-31.5	-31.8	13.1	8.10e-05	0	35	0	17825792000	30	14292
2026-01-10 09:00:19.72	33.41	26.66	-31.2	-31.4	13.1	5.72e-05	0	35	0	18161336320	29	14600
2026-01-10 09:00:22.74	33.89	27.36	-31.1	-31.3	13.1	5.24e-05	0	35	0	18505269248	29	14398
2026-01-10 09:00:25.76	34.39	28.08	-30.9	-31.1	13.1	3.81e-05	0	35	0	18840813568	28	14915
2026-01-10 09:00:28.77	34.91	28.82	-30.6	-30.9	13.1	6.67e-05	0	35	0	19176357888	28	14456
2026-01-10 09:00:31.79	35.46	29.59	-30.4	-30.7	13.2	2.38e-05	0	35	0	19520290816	28	14184
2026-01-10 09:00:34.81	36.04	30.37	-30.3	-30.5	13.2	3.33e-05	0	36	0	19864223744	27	14752
2026-01-10 09:00:37.81	36.65	31.18	-30.0	-30.2	13.2	2.38e-05	0	35	0	20199768064	27	14225
2026-01-10 09:00:40.83	37.29	32.01	-29.7	-30.0	13.2	1.43e-05	0	35	0	20535312384	26	14719
2026-01-10 09:00:43.85	37.97	32.86	-29.6	-29.9	13.2	0.00e+00	0	35	0	20879245312	26	14443
2026-01-10 09:00:46.86	38.69	33.74	-29.2	-29.5	13.2	2.86e-05	0	35	0	21214789632	25	14693
2026-01-10 09:00:49.85	39.45	34.64	-28.8	-29.1	13.2	1.43e-05	0	35	0	21550333952	24	14852
2026-01-10 09:00:52.85	40.25	35.57	-28.5	-28.8	13.3	0.00e+00	0	35	0	21894266880	24	14301
2026-01-10 09:00:55.87	41.11	36.53	-28.5	-28.7	13.3	0.00e+00	0	35	0	22229811200	24	14228
2026-01-10 09:00:58.88	42.02	37.51	-27.9	-28.2	13.3	0.00e+00	0	35	0	22565355520	23	14207
2026-01-10 09:01:01.90	42.99	38.52	-27.6	-27.9	13.3	4.70e-06	0	35	0	22909288448	22	14488
2026-01-10 09:01:04.91	44.03	39.55	-27.3	-27.6	13.3	0.00e+00	0	35	0	23244832768	21	14787
2026-01-10 09:01:07.93	45.14	40.62	-27.0	-27.3	13.3	0.00e+00	0	35	0	23588765696	21	14299
2026-01-10 09:01:10.94	46.32	41.70	-26.7	-27.0	13.3	0.00e+00	0	35	0	23924310016	20	14674
2026-01-10 09:01:13.95	47.60	42.81	-26.5	-26.7	13.4	0.00e+00	0	35	0	24268242944	20	14231
2026-01-10 09:01:16.96	48.96	43.94	-26.3	-26.6	13.4	0.00e+00	0	35	0	24603787264	19	14849
2026-01-10 09:01:19.97	50.43	45.08	-26.0	-26.3	13.4	4.70e-06	0	36	0	24939331584	19	14329
2026-01-10 09:01:22.98	52.02	46.25	-25.7	-26.0	13.4	4.70e-06	0	35	0	25274875904	18	14653
2026-01-10 09:01:26.01	53.74	47.43	-25.4	-25.7	13.5	0.00e+00	0	36	0	25618808832	18	14140
2026-01-10 09:01:29.03	55.59	48.62	-25.0	-25.3	13.5	0.00e+00	0	35	0	25962741760	17	14374
2026-01-10 09:01:32.05	57.60	49.81	-24.8	-25.1	13.5	0.00e+00	0	35	0	26298286080	16	14823
2026-01-10 09:01:35.07	59.77	51.00	-24.7	-25.0	13.5	0.00e+00	0	36	0	26642219008	16	14634
2026-01-10 09:01:38.08	62.12	52.17	-24.5	-24.7	13.5	0.00e+00	0	36	0	26977763328	16	14213
2026-01-10 09:01:41.10	64.67	53.32	-24.0	-24.2	13.5	0.00e+00	0	35	0	27313307648	15	14258
2026-01-10 09:01:44.10	67.41	54.43	-23.7	-24.0	13.5	0.00e+00	0	35	0	27648851968	14	14611
2026-01-10 09:01:47.11	70.38	55.51	-23.7	-23.9	13.5	0.00e+00	0	35	0	27992784896	14	14540
2026-01-10 09:01:50.11	73.58	56.52	-23.5	-23.7	13.6	0.00e+00	0	35	0	28328329216	14	14266
2026-01-10 09:01:53.12	77.02	57.46	-23.2	-23.5	13.5	0.00e+00	0	36	0	28672262144	13	14681
2026-01-10 09:01:56.14	80.71	58.33	-23.1	-23.3	13.5	0.00e+00	0	35	0	29007806464	13	14425
2026-01-10 09:01:59.15	84.63	59.08	-23.1	-23.4	13.5	0.00e+00	0	36	0	29343350784	13	14480
2026-01-10 09:02:02.15	88.75	59.71	-23.1	-23.4	13.5	0.00e+00	0	35	0	29678895104	13	14526
2026-01-10 09:02:05.16	93.07	60.22	-23.2	-23.5	13.5	0.00e+00	0	35	0	30022828032	13	14678
2026-01-10 09:02:08.17	97.54	60.58	-23.1	-23.4	13.5	0.00e+00	0	35	0	30366760960	13	14467
2026-01-10 09:02:11.18	102.11	60.78	-23.0	-23.3	13.5	0.00e+00	0	35	0	30702305280	13	14316
2026-01-10 09:02:14.19	106.73	60.83	-23.1	-23.3	13.5	0.00e+00	0	36	0	31037849600	13	14373
2026-01-10 09:02:17.20	111.33	60.71	-23.0	-23.3	13.5	0.00e+00	0	36	0	31373393920	13	14286
2026-01-10 09:02:20.22	115.88	60.44	-23.0	-23.3	13.5	0.00e+00	0	35	0	31717326848	13	14314
2026-01-10 09:02:23.24	120.31	60.01	-23.1	-23.4	13.4	0.00e+00	0	36	0	32052871168	13	14505
2026-01-10 09:02:26.25	124.55	59.45	-23.2	-23.4	13.4	0.00e+00	0	35	0	32396804096	13	14517
2026-01-10 09:02:29.27	128.61	58.75	-23.3	-23.6	13.4	0.00e+00	0	35	0	32740737024	13	14849
2026-01-10 09:02:32.29	132.44	57.95	-23.3	-23.6	13.4	0.00e+00	0	35	0	33076281344	13	14780
2026-01-10 09:02:35.30	136.02	57.05	-23.4	-23.7	13.3	0.00e+00	0	35	0	33411825664	13	14994
2026-01-10 09:02:38.31	139.36	56.07	-23.7	-23.9	13.3	0.00e+00	0	35	0	33755758592	13	15430
2026-01-10 09:02:41.32	142.46	55.02	-23.6	-23.9	13.3	0.00e+00	0	35	0	34091302912	13	15380
2026-01-10 09:02:44.33	145.33	53.92	-23.8	-24.1	13.4	0.00e+00	0	35	0	34426847232	13	15662
2026-01-10 09:02:47.33	147.98	52.79	-23.8	-24.1	13.4	1.43e-05	0	36	0	34770780160	13	15749
2026-01-10 09:02:50.34	150.44	51.63	-24.2	-24.4	13.4	0.00e+00	0	36	0	35106324480	14	15437
2026-01-10 09:02:53.37	152.72	50.44	-24.3	-24.5	13.4	0.00e+00	0	35	0	35450257408	14	15624
2026-01-10 09:02:56.37	154.81	49.25	-24.4	-24.7	13.4	0.00e+00	0	35	0	35785801728	14	15930
2026-01-10 09:02:59.38	156.74	48.06	-24.6	-24.8	13.4	0.00e+00	0	35	0	36121346048	15	15230
2026-01-10 09:03:02.39	158.53	46.88	-24.8	-25.0	13.4	0.00e+00	0	35	0	36456890368	15	15629
2026-01-10 09:03:05.41	160.19	45.70	-25.1	-25.3	13.4	4.70e-06	0	35	0	36800823296	15	16199
2026-01-10 09:03:08.42	161.72	44.54	-25.6	-25.9	13.4	0.00e+00	0	36	0	37144756224	16	16244
2026-01-10 09:03:11.42	163.14	43.40	-25.8	-26.0	13.4	0.00e+00	0	36	0	37480300544	17	15596
2026-01-10 09:03:14.45	164.47	42.27	-26.2	-26.4	13.4	9.50e-06	0	35	0	37815844864	18	15416
2026-01-10 09:03:17.47	165.71	41.16	-26.5	-26.8	13.3	9.50e-06	0	35	0	38159777792	18	16071
2026-01-10 09:03:20.48	166.86	40.08	-26.7	-27.0	13.3	0.00e+00	0	36	0	38495322112	19	15521
2026-01-10 09:03:23.50	167.94	39.03	-26.9	-27.2	13.3	4.70e-06	0	35	0	38830866432	19	15905
2026-01-10 09:03:26.51	168.95	38.00	-27.3	-27.5	13.3	0.00e+00	0	35	0	39174799360	20	15638
2026-01-10 09:03:29.52	169.89	37.00	-27.5	-27.8	13.3	9.50e-06	0	35	0	39518732288	20	16131
2026-01-10 09:03:32.53	170.78	36.03	-27.9	-28.2	13.3	1.90e-05	0	35	0	39854276608	21	15950
2026-01-10 09:03:35.54	171.61	35.08	-28.2	-28.5	13.2	2.86e-05	0	36	0	40189820928	22	15563
2026-01-10 09:03:38.56	172.40	34.16	-28.5	-28.8	13.2	1.43e-05	0	35	0	40533753856	22	16063
2026-01-10 09:03:41.58	173.14	33.26	-28.7	-29.0	13.2	3.33e-05	0	35	0	40869298176	23	15536
2026-01-10 09:03:44.58	173.84	32.39	-29.2	-29.5	13.2	1.90e-05	0	35	0	41204842496	24	15502
2026-01-10 09:03:47.59	174.50	31.54	-29.3	-29.6	13.2	3.33e-05	0	36	0	41548775424	24	15743
2026-01-10 09:03:50.61	175.13	30.72	-29.7	-30.0	13.2	3.81e-05	0	35	0	41884319744	25	15514
2026-01-10 09:03:53.63	175.73	29.92	-29.9	-30.2	13.1	4.29e-05	0	35	0	42228252672	25	15984
2026-01-10 09:03:56.63	176.29	29.15	-30.2	-30.5	13.1	1.43e-05	0	35	0	42563796992	26	15566
2026-01-10 09:03:59.64	176.83	28.39	-30.6	-30.9	13.1	2.86e-05	0	36	0	42899341312	26	16304
2026-01-10 09:04:02.66	177.34	27.66	-30.8	-31.1	13.0	3.81e-05	0	36	0	43243274240	27	15742
2026-01-10 09:04:05.68	177.83	26.94	-31.0	-31.3	13.1	7.62e-05	0	35	0	43578818560	27	16125
2026-01-10 09:04:08.69	178.30	26.25	-31.1	-31.4	13.0	9.05e-05	0	36	0	43922751488	28	15354
2026-01-10 09:04:11.69	178.74	25.58	-31.4	-31.7	12.9	4.29e-05	0	35	0	44258295808	28	16007
2026-01-10 09:04:14.71	179.16	24.92	-31.7	-32.0	13.0	1.05e-04	0	36	0	44602228736	29	15580
2026-01-10 09:04:17.73	179.57	24.28	-31.7	-32.0	13.0	1.24e-04	0	36	0	44937773056	29	15585
2026-01-10 09:04:20.74	179.96	23.67	-32.0	-32.3	13.0	9.05e-05	0	36	0	45273317376	29	16066
2026-01-10 09:04:23.76	180.34	23.06	-32.2	-32.5	13.0	1.67e-04	0	36	0	45617250304	30	15510
2026-01-10 09:04:26.76	180.69	22.47	-32.2	-32.5	12.9	1.67e-04	0	36	0	45952794624	30	15603
2026-01-10 09:04:29.77	181.04	21.90	-32.4	-32.8	12.9	2.14e-04	0	36	0	46296727552	30	16038
2026-01-10 09:04:32.77	181.37	21.35	-32.7	-33.0	12.9	3.05e-04	0	36	0	46632271872	31	15489
2026-01-10 09:04:35.79	181.69	20.80	-33.0	-33.3	12.9	3.29e-04	0	36	0	46967816192	31	16078
2026-01-10 09:04:38.80	181.99	20.27	-32.9	-33.2	12.9	3.15e-04	0	36	0	47303360512	31	16012
2026-01-10 09:04:41.82	182.29	19.75	-33.1	-33.4	12.8	3.15e-04	0	36	0	47647293440	31	16258
2026-01-10 09:04:44.85	182.58	19.25	-33.1	-33.5	12.8	3.62e-04	0	36	0	47982837760	32	15480
2026-01-10 09:04:47.86	182.85	18.75	-33.4	-33.7	12.8	3.81e-04	0	36	0	48326770688	32	15846
2026-01-10 09:04:50.86	183.12	18.28	-33.6	-33.9	12.8	6.20e-04	0	36	0	48662315008	32	16237
2026-01-10 09:04:53.88	183.37	17.80	-33.6	-33.9	12.8	5.34e-04	0	36	0	49006247936	33	15389
2026-01-10 09:04:56.88	183.62	17.35	-33.7	-34.0	12.8	6.87e-04	0	36	0	49341792256	33	15636
2026-01-10 09:04:59.89	183.86	16.90	-34.0	-34.3	12.7	6.68e-04	0	36	0	49677336576	33	16113
2026-01-10 09:05:02.88	184.09	16.46	-34.2	-34.5	12.7	7.34e-04	0	36	0	50012880896	34	15604
2026-01-10 09:05:05.90	184.32	16.03	-34.5	-34.8	12.7	8.53e-04	0	36	0	50356813824	34	16047
2026-01-10 09:05:08.92	184.53	15.61	-34.5	-34.8	12.7	1.07e-03	0	36	0	50700746752	34	16155
2026-01-10 09:05:11.94	184.75	15.20	-34.7	-35.0	12.7	1.13e-03	0	36	0	51036291072	35	15524
2026-01-10 09:05:14.95	184.95	14.79	-34.7	-35.0	12.6	1.28e-03	0	36	0	51371835392	35	15640
2026-01-10 09:05:17.96	185.15	14.40	-34.8	-35.2	12.6	1.29e-03	0	36	0	51715768320	35	15857
2026-01-10 09:05:20.97	185.34	14.01	-34.9	-35.2	12.6	1.74e-03	0	36	0	52051312640	35	16002
2026-01-10 09:05:23.99	185.53	13.63	-37.6	-38.0	12.7	1.54e-03	0	36	0	52386856960	41	15487
2026-01-10 09:05:27.00	185.71	13.26	-37.8	-38.1	12.7	9.06e-04	0	36	0	52730789888	41	15816
2026-01-10 09:05:30.01	185.89	12.90	-38.1	-38.4	12.6	1.25e-03	0	36	0	53074722816	41	16332
2026-01-10 09:05:33.03	186.06	12.54	-38.2	-38.5	12.6	1.34e-03	0	36	0	53410267136	42	15610
2026-01-10 09:05:36.03	186.23	12.19	-38.5	-38.8	12.6	1.51e-03	0	36	0	53745811456	42	16056
2026-01-10 09:05:39.04	186.40	11.84	-38.6	-38.9	12.5	1.82e-03	0	36	0	54081355776	42	16319
2026-01-10 09:05:42.04	186.55	11.50	-38.7	-39.0	12.5	1.97e-03	0	36	0	54416900096	43	15497
2026-01-10 09:05:45.05	186.71	11.17	-38.8	-39.1	12.5	1.95e-03	0	36	0	54760833024	43	15758
2026-01-10 09:05:48.06	186.86	10.84	-39.0	-39.3	12.5	2.24e-03	0	36	0	55104765952	43	16071
2026-01-10 09:05:51.08	187.01	10.52	-39.2	-39.5	12.5	2.67e-03	0	36	0	55440310272	44	15527
2026-01-10 09:05:54.10	187.16	10.20	-39.4	-39.7	12.4	3.15e-03	0	36	0	55775854592	44	15913
2026-01-10 09:05:57.11	187.30	9.89	-39.4	-39.7	12.4	4.10e-03	0	36	0	56119787520	44	15928
2026-01-10 09:06:00.12	187.43	9.59	-39.5	-39.9	12.3	4.87e-03	0	36	0	56455331840	44	16235
2026-01-10 09:06:03.14	187.57	9.28	-39.8	-40.1	12.3	5.05e-03	0	36	0	56790876160	45	15804
2026-01-10 09:06:06.15	187.70	8.99	-40.0	-40.3	12.3	6.03e-03	0	36	0	57134809088	45	16107
2026-01-10 09:06:09.17	187.83	8.69	-40.2	-40.5	12.2	6.99e-03	0	36	0	57478742016	46	15547
2026-01-10 09:06:12.19	187.96	8.40	-40.3	-40.7	12.2	7.75e-03	0	36	0	57814286336	46	15862
2026-01-10 09:06:15.20	188.08	8.12	-40.6	-40.9	12.1	8.08e-03	0	36	0	58149830656	46	16273
2026-01-10 09:06:18.20	188.20	7.84	-40.7	-41.0	12.1	9.15e-03	0	36	0	58485374976	47	15579
2026-01-10 09:06:21.22	188.32	7.57	-40.7	-41.1	12.1	8.81e-03	0	36	0	58829307904	47	15691
2026-01-10 09:06:24.22	188.43	7.29	-40.8	-41.1	12.0	9.91e-03	0	36	0	59164852224	47	15789
2026-01-10 09:06:27.23	188.54	7.03	-57.7	-60.9	6.2	1.09e-02	0	35	104	59282292736	81	21751
2026-01-10 09:06:30.24	188.65	6.76	-57.6	-60.9	6.2	1.09e-02	0	35	104	59282292736	81	21620
2026-01-10 09:06:33.25	188.76	6.50	-57.5	-60.8	6.2	1.09e-02	0	35	104	59282292736	81	21386
2026-01-10 09:06:36.27	188.87	6.24	-57.6	-60.8	6.1	2.69e-03	0	35	104	59282292736	81	21378
2026-01-10 09:06:39.29	188.97	5.99	-57.4	-60.6	6.2	2.69e-03	0	35	104	59282292736	81	21109
2026-01-10 09:06:42.30	189.08	5.74	-57.4	-60.6	6.1	2.69e-03	0	35	104	59282292736	81	21098
2026-01-10 09:06:45.31	189.18	5.49	-57.3	-60.5	6.2	0.00e+00	0	35	104	59282292736	81	20858
2026-01-10 09:06:48.33	189.27	5.24	-57.4	-60.6	6.2	0.00e+00	0	35	104	59282292736	81	20937
2026-01-10 09:06:51.34	189.37	5.00	-57.2	-60.4	6.2	0.00e+00	0	34	104	59282292736	81	20579
2026-01-10 09:06:54.34	189.47	4.76	-58.4	-61.6	6.2	0.00e+00	0	34	104	59282292736	82	22225
2026-01-10 09:06:57.34	189.56	4.53	-58.8	-62.0	6.1	0.00e+00	0	34	104	59282292736	83	22079
2026-01-10 09:07:00.35	189.65	4.29	-59.0	-62.2	6.2	0.00e+00	0	34	104	59282292736	83	22584
2026-01-10 09:07:03.36	189.74	4.06	-59.3	-62.5	6.2	0.00e+00	0	34	104	59282292736	84	22090
2026-01-10 09:07:06.38	189.83	3.83	-59.4	-62.6	6.1	0.00e+00	0	34	104	59282292736	84	22350
2026-01-10 09:07:09.41	189.92	3.60	-59.5	-62.7	6.2	0.00e+00	0	34	104	59282292736	84	22538
2026-01-10 09:07:12.42	190.00	3.38	-59.5	-62.7	6.2	0.00e+00	0	34	104	59282292736	84	22473
2026-01-10 09:07:15.43	190.08	3.16	-59.5	-62.7	6.1	0.00e+00	0	34	104	59282292736	84	22479
2026-01-10 09:07:18.45	190.17	2.94	-59.4	-62.7	6.1	0.00e+00	0	34	104	59282292736	84	22391
2026-01-10 09:07:21.48	190.25	2.72	-59.4	-62.6	6.1	0.00e+00	0	34	104	59282292736	84	22230
2026-01-10 09:07:24.50	190.33	2.51	-59.4	-62.6	6.2	0.00e+00	0	34	104	59282292736	84	22200
2026-01-10 09:07:27.51	190.41	2.29	-59.3	-62.6	6.2	0.00e+00	0	34	104	59282292736	84	22143
2026-01-10 09:07:30.53	190.49	2.08	-59.3	-62.5	6.2	0.00e+00	0	34	104	59282292736	84	22096

#Closed at: 2026-01-10 09:07:33
#Recorded file [59282 MB]: D:/lorett/data/31004_260110_115654.dat