passes_logs/2026/01/10/R3.2S_Murmansk/R3.2S_Murmansk__20260110_214600_NOAA_20_JPSS-1_rec.log

#Pass ID: 20260110_214600_NOAA 20 (JPSS-1)
#Satellite: NOAA 20 (JPSS-1)
#Configuration: NOAA 20
#almurnet v.1.7.20251203
#Start time: 2026-01-10 21:46:00

#Version: 2.2.20231116
#Station: R3.2S_Murmansk
#Location: 33.079688 lon 68.888172 lat
#TLE: 1 43013U 17073A   26009.69119415  .00000109  00000+0  72598-4 0  9996
#TLE: 2 43013  98.7631 310.6868 0001678  46.7442 313.3874 14.19534878421981

#Time	Az	El	Level	Level2	SNR	BER	BlckErr	Temp	State	Recorded	gain1	gain2
2026-01-10 21:46:00.81	18.39	2.00	-57.1	-73.0	3.8	1.49e+00	0	21	0	0	80	22352
2026-01-10 21:46:03.80	18.64	2.15	-57.1	-72.9	3.8	1.49e+00	0	21	104	0	79	23392
2026-01-10 21:46:06.82	18.91	2.30	-57.1	-73.0	3.8	1.49e+00	0	21	104	0	79	23656
2026-01-10 21:46:09.83	19.17	2.45	-57.1	-73.0	3.8	1.49e+00	0	21	104	0	79	23729
2026-01-10 21:46:12.84	19.43	2.60	-57.1	-73.0	3.8	1.49e+00	0	21	104	0	79	23739
2026-01-10 21:46:15.84	19.70	2.75	-57.1	-72.9	3.8	1.49e+00	0	21	104	0	79	23559
2026-01-10 21:46:18.85	19.97	2.90	-57.1	-73.0	3.8	1.49e+00	0	21	104	0	79	23703
2026-01-10 21:46:21.85	20.25	3.06	-57.1	-73.1	3.8	1.49e+00	0	22	104	0	79	23893
2026-01-10 21:46:24.85	20.52	3.21	-57.1	-73.0	3.8	1.49e+00	0	22	104	0	79	23777
2026-01-10 21:46:27.84	20.80	3.36	-57.1	-73.1	3.8	1.49e+00	0	22	104	0	79	23954
2026-01-10 21:46:30.84	21.08	3.51	-57.1	-72.6	3.8	1.49e+00	0	22	104	0	79	22689
2026-01-10 21:46:33.85	21.36	3.66	-57.1	-72.2	3.8	1.49e+00	0	22	104	0	79	21695
2026-01-10 21:46:36.85	21.65	3.82	-57.0	-72.3	3.8	1.49e+00	0	22	104	0	79	21864
2026-01-10 21:46:39.85	21.94	3.97	-57.0	-70.8	3.8	1.49e+00	0	22	104	0	79	18320
2026-01-10 21:46:42.86	22.23	4.12	-57.0	-69.8	4.1	1.42e+00	0	22	0	0	79	16397
2026-01-10 21:46:45.86	22.53	4.28	-56.7	-66.5	5.5	7.28e-01	0	22	0	3145728	79	11248
2026-01-10 21:46:48.87	22.82	4.43	-55.4	-60.6	10.4	6.52e-03	0	22	0	8388608	77	6374
2026-01-10 21:46:51.87	23.13	4.58	-53.8	-57.2	12.9	0.00e+00	0	22	0	14680064	74	5109
2026-01-10 21:46:54.87	23.43	4.74	-53.9	-57.5	12.5	7.00e-07	0	22	0	19922944	73	5630
2026-01-10 21:46:57.87	23.74	4.89	-55.4	-61.0	9.9	1.35e-03	0	22	0	25165824	75	7502
2026-01-10 21:47:00.87	24.05	5.05	-56.1	-62.8	8.4	5.53e-02	0	22	0	31457280	77	8247
2026-01-10 21:47:03.88	24.36	5.20	-56.4	-64.9	6.6	1.56e-01	0	22	0	36700160	78	9833
2026-01-10 21:47:06.87	24.68	5.36	-54.4	-58.3	12.2	1.50e-06	0	22	0	42991616	74	5794
2026-01-10 21:47:09.87	25.00	5.51	-53.3	-56.1	13.7	0.00e+00	0	22	0	48234496	73	4783
2026-01-10 21:47:12.87	25.32	5.67	-53.1	-55.8	13.7	0.00e+00	0	22	0	53477376	72	4912
2026-01-10 21:47:15.87	25.64	5.83	-52.9	-55.6	13.9	0.00e+00	0	22	0	59768832	72	4787
2026-01-10 21:47:18.87	25.97	5.98	-53.1	-55.9	13.8	0.00e+00	0	22	0	65011712	72	4932
2026-01-10 21:47:21.87	26.31	6.14	-52.9	-55.5	13.8	0.00e+00	0	22	0	70254592	71	5030
2026-01-10 21:47:24.86	26.64	6.29	-53.0	-55.6	13.8	0.00e+00	0	22	0	76546048	71	5078
2026-01-10 21:47:27.86	26.98	6.45	-52.9	-55.5	13.9	0.00e+00	0	22	0	81788928	71	4988
2026-01-10 21:47:30.85	27.32	6.61	-52.9	-55.5	13.9	0.00e+00	0	23	0	87031808	71	5006
2026-01-10 21:47:33.84	27.67	6.76	-52.7	-55.2	14.1	0.00e+00	0	22	0	93323264	71	4835
2026-01-10 21:47:36.85	28.02	6.92	-52.7	-55.1	14.2	0.00e+00	0	23	0	98566144	71	4791
2026-01-10 21:47:39.85	28.37	7.08	-52.5	-54.8	14.4	0.00e+00	0	22	0	103809024	71	4645
2026-01-10 21:47:42.87	28.73	7.24	-52.4	-54.7	14.4	0.00e+00	0	23	0	110100480	71	4577
2026-01-10 21:47:45.87	29.10	7.39	-52.5	-54.9	14.3	0.00e+00	0	22	0	115343360	71	4653
2026-01-10 21:47:48.86	29.46	7.55	-52.5	-54.9	14.4	0.00e+00	0	23	0	121634816	71	4663
2026-01-10 21:47:51.86	29.83	7.71	-52.7	-55.1	14.2	0.00e+00	0	23	0	126877696	71	4797
2026-01-10 21:47:54.86	30.20	7.86	-52.4	-54.7	14.5	0.00e+00	0	22	0	132120576	71	4576
2026-01-10 21:47:57.86	30.58	8.02	-52.4	-54.7	14.5	0.00e+00	0	23	0	138412032	71	4555
2026-01-10 21:48:00.86	30.96	8.18	-52.5	-54.8	14.4	0.00e+00	0	23	0	143654912	71	4622
2026-01-10 21:48:03.86	31.34	8.33	-52.6	-55.0	14.3	0.00e+00	0	23	0	148897792	71	4730
2026-01-10 21:48:06.86	31.73	8.49	-52.7	-55.0	14.3	0.00e+00	0	23	0	155189248	71	4758
2026-01-10 21:48:09.86	32.12	8.65	-52.5	-54.8	14.4	0.00e+00	0	23	0	160432128	71	4647
2026-01-10 21:48:12.88	32.52	8.81	-52.4	-54.7	14.5	0.00e+00	0	23	0	166723584	71	4564
2026-01-10 21:48:15.87	32.92	8.96	-52.3	-54.5	14.6	0.00e+00	0	23	0	171966464	71	4486
2026-01-10 21:48:18.88	33.33	9.12	-52.3	-54.5	14.7	0.00e+00	0	23	0	177209344	71	4443
2026-01-10 21:48:21.89	33.74	9.27	-52.1	-54.2	14.6	0.00e+00	0	23	0	183500800	70	4591
2026-01-10 21:48:24.89	34.15	9.43	-51.9	-54.0	14.8	0.00e+00	0	23	0	188743680	70	4476
2026-01-10 21:48:27.87	34.57	9.58	-51.9	-53.9	14.8	0.00e+00	0	23	0	193986560	70	4436
2026-01-10 21:48:30.88	34.99	9.74	-51.7	-53.7	14.8	0.00e+00	0	23	0	200278016	69	4552
2026-01-10 21:48:33.86	35.41	9.89	-51.5	-53.4	14.9	0.00e+00	0	23	0	205520896	69	4435
2026-01-10 21:48:36.86	35.84	10.05	-51.5	-53.5	14.9	0.00e+00	0	23	0	210763776	69	4471
2026-01-10 21:48:39.85	36.28	10.20	-51.5	-53.4	14.9	0.00e+00	0	23	0	217055232	69	4419
2026-01-10 21:48:42.85	36.72	10.35	-51.4	-53.3	15.0	0.00e+00	0	23	0	222298112	69	4342
2026-01-10 21:48:45.84	37.16	10.50	-51.4	-53.4	15.0	0.00e+00	0	23	0	227540992	69	4396
2026-01-10 21:48:48.86	37.61	10.66	-51.5	-53.4	14.9	0.00e+00	0	23	0	233832448	69	4437
2026-01-10 21:48:51.86	38.06	10.81	-51.4	-53.2	15.0	0.00e+00	0	23	0	239075328	69	4336
2026-01-10 21:48:54.86	38.52	10.96	-51.3	-53.1	15.1	0.00e+00	0	23	0	245366784	69	4282
2026-01-10 21:48:57.86	38.98	11.11	-51.4	-53.2	15.1	0.00e+00	0	23	0	250609664	69	4332
2026-01-10 21:49:00.86	39.45	11.26	-51.4	-53.3	15.0	0.00e+00	0	23	0	255852544	69	4359
2026-01-10 21:49:03.87	39.92	11.41	-51.4	-53.2	15.0	0.00e+00	0	23	0	262144000	69	4340
2026-01-10 21:49:06.88	40.40	11.56	-51.4	-53.2	15.1	0.00e+00	0	23	0	267386880	69	4325
2026-01-10 21:49:09.87	40.88	11.70	-51.4	-53.3	15.0	0.00e+00	0	23	0	272629760	69	4384
2026-01-10 21:49:12.88	41.36	11.85	-51.4	-53.3	15.0	0.00e+00	0	23	0	278921216	69	4388
2026-01-10 21:49:15.88	41.85	11.99	-51.5	-53.4	15.0	0.00e+00	0	23	0	284164096	69	4409
2026-01-10 21:49:18.88	42.35	12.14	-51.5	-53.4	15.0	0.00e+00	0	23	0	290455552	69	4417
2026-01-10 21:49:21.87	42.84	12.28	-51.7	-53.7	14.9	0.00e+00	0	23	0	295698432	69	4561
2026-01-10 21:49:24.86	43.34	12.42	-51.8	-53.9	14.7	0.00e+00	0	23	0	300941312	69	4672
2026-01-10 21:49:27.86	43.85	12.56	-51.8	-53.9	14.7	0.00e+00	0	23	0	307232768	69	4655
2026-01-10 21:49:30.85	44.36	12.70	-52.0	-54.1	14.6	0.00e+00	0	23	0	312475648	69	4771
2026-01-10 21:49:33.85	44.88	12.84	-52.1	-54.2	14.5	0.00e+00	0	23	0	317718528	69	4839
2026-01-10 21:49:36.85	45.40	12.98	-52.5	-54.7	14.4	0.00e+00	0	23	0	324009984	70	4848
2026-01-10 21:49:39.84	45.93	13.11	-52.7	-55.0	14.2	0.00e+00	0	23	0	329252864	70	5005
2026-01-10 21:49:42.82	46.46	13.24	-52.7	-55.0	14.2	0.00e+00	0	23	0	334495744	70	5028
2026-01-10 21:49:45.82	46.99	13.38	-52.5	-54.8	14.3	0.00e+00	0	23	0	340787200	70	4890
2026-01-10 21:49:48.82	47.54	13.51	-52.6	-54.9	14.2	0.00e+00	0	23	0	346030080	70	4961
2026-01-10 21:49:51.82	48.08	13.64	-53.1	-55.5	14.0	0.00e+00	0	23	0	352321536	71	5035
2026-01-10 21:49:54.82	48.63	13.76	-53.1	-55.7	13.9	0.00e+00	0	23	0	357564416	71	5108
2026-01-10 21:49:57.82	49.19	13.89	-52.9	-55.3	14.2	0.00e+00	0	23	0	362807296	71	4903
2026-01-10 21:50:00.81	49.74	14.01	-52.9	-55.3	14.2	0.00e+00	0	23	0	369098752	71	4913
2026-01-10 21:50:03.82	50.31	14.14	-53.3	-55.9	13.8	0.00e+00	0	23	0	374341632	71	5277
2026-01-10 21:50:06.82	50.88	14.26	-53.4	-56.0	13.9	0.00e+00	0	23	0	379584512	72	5027
2026-01-10 21:50:09.82	51.45	14.37	-53.4	-55.9	13.9	0.00e+00	0	23	0	385875968	72	4968
2026-01-10 21:50:12.82	52.03	14.49	-52.9	-55.2	14.4	0.00e+00	0	23	0	391118848	72	4569
2026-01-10 21:50:15.81	52.61	14.60	-52.7	-54.9	14.6	0.00e+00	0	23	0	396361728	72	4428
2026-01-10 21:50:18.81	53.20	14.72	-52.7	-55.0	14.4	0.00e+00	0	23	0	402653184	71	4751
2026-01-10 21:50:21.82	53.79	14.83	-52.7	-54.9	14.4	0.00e+00	0	23	0	407896064	71	4681
2026-01-10 21:50:24.83	54.38	14.93	-52.4	-54.5	14.7	0.00e+00	0	23	0	414187520	71	4480
2026-01-10 21:50:27.82	54.98	15.04	-52.1	-54.1	14.7	0.00e+00	0	23	0	419430400	70	4519
2026-01-10 21:50:30.82	55.58	15.14	-51.9	-53.8	14.9	0.00e+00	0	23	0	424673280	70	4380
2026-01-10 21:50:33.80	56.19	15.24	-51.5	-53.4	15.0	0.00e+00	0	23	0	430964736	69	4392
2026-01-10 21:50:36.80	56.80	15.33	-51.5	-53.4	15.0	0.00e+00	0	23	0	436207616	69	4414
2026-01-10 21:50:39.79	57.41	15.43	-51.5	-53.3	15.0	0.00e+00	0	23	0	441450496	69	4381
2026-01-10 21:50:42.79	58.03	15.52	-51.7	-53.6	14.9	0.00e+00	0	23	0	447741952	69	4527
2026-01-10 21:50:45.79	58.65	15.61	-51.8	-53.8	14.7	0.00e+00	0	23	0	452984832	69	4644
2026-01-10 21:50:48.79	59.28	15.69	-51.8	-53.7	14.8	0.00e+00	0	23	0	458227712	69	4594
2026-01-10 21:50:51.79	59.91	15.78	-51.8	-53.7	14.8	0.00e+00	0	23	0	464519168	69	4571
2026-01-10 21:50:54.80	60.54	15.86	-52.0	-54.0	14.6	0.00e+00	0	23	0	469762048	69	4747
2026-01-10 21:50:57.80	61.18	15.94	-52.2	-54.3	14.5	0.00e+00	0	23	0	475004928	69	4904
2026-01-10 21:51:00.80	61.81	16.01	-52.2	-54.4	14.4	0.00e+00	0	23	0	481296384	69	4932
2026-01-10 21:51:03.80	62.46	16.08	-52.0	-54.0	14.6	0.00e+00	0	23	0	486539264	69	4749
2026-01-10 21:51:06.80	63.10	16.15	-52.1	-54.2	14.5	0.00e+00	0	23	0	492830720	69	4865
2026-01-10 21:51:09.79	63.75	16.21	-52.2	-54.3	14.5	0.00e+00	0	23	0	498073600	69	4878
2026-01-10 21:51:12.79	64.40	16.27	-52.1	-54.1	14.6	0.00e+00	0	23	0	503316480	69	4797
2026-01-10 21:51:15.80	65.05	16.33	-52.1	-54.2	14.5	0.00e+00	0	23	0	509607936	69	4832
2026-01-10 21:51:18.81	65.71	16.38	-52.0	-54.0	14.7	0.00e+00	0	23	0	514850816	69	4720
2026-01-10 21:51:21.80	66.36	16.44	-51.8	-53.8	14.8	0.00e+00	0	23	0	520093696	69	4609
2026-01-10 21:51:24.81	67.03	16.48	-51.9	-53.9	14.7	0.00e+00	0	23	0	526385152	69	4679
2026-01-10 21:51:27.80	67.69	16.53	-51.9	-53.9	14.7	0.00e+00	0	23	0	531628032	69	4676
2026-01-10 21:51:30.79	68.35	16.57	-52.0	-54.0	14.7	0.00e+00	0	23	0	536870912	69	4720
2026-01-10 21:51:33.79	69.01	16.60	-52.2	-54.4	14.5	0.00e+00	0	23	0	543162368	69	4934
2026-01-10 21:51:36.77	69.67	16.64	-52.2	-54.3	14.5	0.00e+00	0	23	0	548405248	69	4918
2026-01-10 21:51:39.75	70.34	16.67	-52.1	-54.2	14.6	0.00e+00	0	23	0	554696704	69	4815
2026-01-10 21:51:42.75	71.01	16.69	-51.8	-53.8	14.8	0.00e+00	0	23	0	559939584	69	4603
2026-01-10 21:51:45.76	71.68	16.71	-51.7	-53.6	14.8	0.00e+00	0	23	0	565182464	69	4524
2026-01-10 21:51:48.74	72.35	16.73	-52.0	-54.0	14.6	0.00e+00	0	23	0	571473920	69	4736
2026-01-10 21:51:51.73	73.02	16.75	-52.1	-54.2	14.6	0.00e+00	0	23	0	576716800	69	4819
2026-01-10 21:51:54.73	73.69	16.76	-52.2	-54.3	14.5	0.00e+00	0	23	0	581959680	69	4890
2026-01-10 21:51:57.74	74.36	16.77	-51.8	-53.7	14.8	0.00e+00	0	23	0	588251136	69	4564
2026-01-10 21:52:00.73	75.03	16.77	-51.6	-53.5	14.9	0.00e+00	0	23	0	593494016	69	4481
2026-01-10 21:52:03.74	75.71	16.77	-51.7	-53.6	14.9	0.00e+00	0	23	0	598736896	69	4537
2026-01-10 21:52:06.73	76.38	16.76	-51.8	-53.7	14.8	0.00e+00	0	23	0	605028352	69	4581
2026-01-10 21:52:09.73	77.05	16.76	-51.9	-54.0	14.7	0.00e+00	0	23	0	610271232	69	4712
2026-01-10 21:52:12.73	77.73	16.75	-51.8	-53.8	14.7	0.00e+00	0	23	0	615514112	69	4628
2026-01-10 21:52:15.74	78.40	16.73	-51.7	-53.6	14.9	0.00e+00	0	23	0	621805568	69	4528
2026-01-10 21:52:18.74	79.07	16.71	-51.8	-53.8	14.8	0.00e+00	0	23	0	627048448	69	4615
2026-01-10 21:52:21.75	79.75	16.69	-51.8	-53.8	14.8	0.00e+00	0	23	0	633339904	69	4625
2026-01-10 21:52:24.75	80.42	16.66	-51.7	-53.6	14.8	0.00e+00	0	23	0	638582784	69	4539
2026-01-10 21:52:27.74	81.08	16.63	-51.4	-53.3	15.1	0.00e+00	0	23	0	643825664	69	4351
2026-01-10 21:52:30.73	81.75	16.60	-51.6	-53.6	14.9	0.00e+00	0	23	0	650117120	69	4499
2026-01-10 21:52:33.73	82.41	16.56	-51.7	-53.6	14.8	0.00e+00	0	23	0	655360000	69	4522
2026-01-10 21:52:36.73	83.08	16.52	-51.5	-53.3	15.1	0.00e+00	0	23	0	660602880	69	4366
2026-01-10 21:52:39.72	83.74	16.48	-51.2	-53.0	15.2	0.00e+00	0	23	0	666894336	69	4222
2026-01-10 21:52:42.70	84.39	16.43	-51.2	-53.0	15.2	0.00e+00	0	23	0	672137216	69	4229
2026-01-10 21:52:45.70	85.05	16.38	-51.2	-53.0	15.0	0.00e+00	0	23	0	677380096	68	4444
2026-01-10 21:52:48.70	85.70	16.32	-51.2	-52.9	15.1	0.00e+00	0	23	0	683671552	68	4439
2026-01-10 21:52:51.71	86.36	16.26	-51.2	-53.0	15.0	0.00e+00	0	23	0	688914432	68	4486
2026-01-10 21:52:54.70	87.01	16.20	-51.1	-52.9	15.1	0.00e+00	0	23	0	694157312	68	4413
2026-01-10 21:52:57.68	87.65	16.14	-51.4	-53.2	14.9	0.00e+00	0	23	0	700448768	68	4591
2026-01-10 21:53:00.68	88.30	16.07	-51.3	-53.2	14.9	0.00e+00	0	23	0	705691648	68	4572
2026-01-10 21:53:03.68	88.94	16.00	-51.0	-52.7	15.2	0.00e+00	0	23	0	711983104	68	4329
2026-01-10 21:53:06.68	89.58	15.92	-50.7	-52.4	15.4	0.00e+00	0	23	0	717225984	68	4176
2026-01-10 21:53:09.68	90.22	15.85	-50.2	-51.8	15.5	0.00e+00	0	23	0	722468864	67	4143
2026-01-10 21:53:12.69	90.85	15.76	-50.3	-52.0	15.4	0.00e+00	0	23	0	728760320	67	4210
2026-01-10 21:53:15.68	91.48	15.68	-50.5	-52.2	15.3	0.00e+00	0	23	0	734003200	67	4298
2026-01-10 21:53:18.67	92.11	15.60	-50.6	-52.3	15.2	0.00e+00	0	23	0	739246080	67	4353
2026-01-10 21:53:21.69	92.73	15.51	-50.6	-52.4	15.2	0.00e+00	0	23	0	745537536	67	4396
2026-01-10 21:53:24.68	93.35	15.41	-50.3	-51.9	15.4	0.00e+00	0	23	0	750780416	67	4181
2026-01-10 21:53:27.68	93.97	15.32	-50.1	-51.7	15.3	0.00e+00	0	23	0	756023296	66	4337
2026-01-10 21:53:30.68	94.58	15.22	-50.4	-52.0	15.2	0.00e+00	0	23	0	762314752	66	4489
2026-01-10 21:53:33.69	95.19	15.12	-50.9	-52.7	14.8	0.00e+00	0	23	0	767557632	66	4817
2026-01-10 21:53:36.67	95.79	15.02	-50.9	-52.7	15.0	0.00e+00	0	23	0	773849088	67	4561
2026-01-10 21:53:39.67	96.39	14.91	-50.8	-52.5	15.1	0.00e+00	0	23	0	779091968	67	4487
2026-01-10 21:53:42.65	96.98	14.81	-50.9	-52.6	15.0	0.00e+00	0	23	0	784334848	67	4529
2026-01-10 21:53:45.65	97.57	14.70	-50.7	-52.5	15.1	0.00e+00	0	23	0	790626304	67	4444
2026-01-10 21:53:48.64	98.15	14.58	-50.8	-52.6	15.1	0.00e+00	0	23	0	795869184	67	4505
2026-01-10 21:53:51.63	98.74	14.47	-51.3	-53.3	14.7	0.00e+00	0	23	0	801112064	67	4875
2026-01-10 21:53:54.63	99.31	14.35	-52.3	-54.4	14.4	0.00e+00	0	23	0	807403520	69	4962
2026-01-10 21:53:57.64	99.89	14.23	-52.6	-54.9	14.2	0.00e+00	0	23	0	812646400	70	4957
2026-01-10 21:54:00.63	100.46	14.11	-52.8	-55.1	14.1	0.00e+00	0	23	0	817889280	70	5062
2026-01-10 21:54:03.64	101.02	13.99	-52.8	-55.2	14.1	0.00e+00	0	23	0	824180736	70	5128
2026-01-10 21:54:06.64	101.59	13.86	-52.4	-54.6	14.4	0.00e+00	0	23	0	829423616	70	4809
2026-01-10 21:54:09.63	102.14	13.74	-52.4	-54.5	14.4	0.00e+00	0	23	0	834666496	70	4754
2026-01-10 21:54:12.63	102.69	13.61	-52.5	-54.7	14.4	0.00e+00	0	23	0	840957952	70	4849
2026-01-10 21:54:15.63	103.24	13.48	-52.7	-55.0	14.2	0.00e+00	0	23	0	846200832	70	5028
2026-01-10 21:54:18.63	103.78	13.35	-53.1	-55.5	14.0	0.00e+00	0	23	0	852492288	71	5011
2026-01-10 21:54:21.64	104.32	13.21	-53.2	-55.7	14.0	0.00e+00	0	23	0	857735168	71	5104
2026-01-10 21:54:24.65	104.85	13.08	-52.8	-55.2	14.2	0.00e+00	0	23	0	862978048	71	4825
2026-01-10 21:54:27.66	105.38	12.94	-52.6	-54.8	14.5	0.00e+00	0	23	0	869269504	71	4603
2026-01-10 21:54:30.64	105.90	12.80	-52.7	-55.0	14.4	0.00e+00	0	23	0	874512384	71	4742
2026-01-10 21:54:33.64	106.42	12.66	-52.5	-54.7	14.6	0.00e+00	0	23	0	879755264	71	4554
2026-01-10 21:54:36.65	106.94	12.52	-52.0	-54.0	14.8	0.00e+00	0	23	0	886046720	70	4442
2026-01-10 21:54:39.63	107.44	12.38	-51.9	-54.0	14.8	0.00e+00	0	23	0	891289600	70	4443
2026-01-10 21:54:42.62	107.95	12.24	-52.3	-54.5	14.6	0.00e+00	0	23	0	896532480	70	4719
2026-01-10 21:54:45.62	108.45	12.10	-52.4	-54.5	14.5	0.00e+00	0	23	0	902823936	70	4751
2026-01-10 21:54:48.62	108.94	11.95	-52.6	-54.8	14.3	0.00e+00	0	23	0	908066816	70	4909
2026-01-10 21:54:51.62	109.43	11.81	-52.5	-54.7	14.4	0.00e+00	0	23	0	914358272	70	4830
2026-01-10 21:54:54.62	109.92	11.66	-51.8	-53.8	14.9	0.00e+00	0	23	0	919601152	70	4376
2026-01-10 21:54:57.61	110.40	11.51	-51.6	-53.5	14.9	0.00e+00	0	23	0	924844032	69	4444
2026-01-10 21:55:00.61	110.87	11.36	-51.6	-53.6	14.8	0.00e+00	0	23	0	931135488	69	4518
2026-01-10 21:55:03.62	111.35	11.21	-51.8	-53.9	14.7	0.00e+00	0	23	0	936378368	69	4659
2026-01-10 21:55:06.63	111.81	11.06	-51.8	-53.9	14.7	0.00e+00	0	23	0	941621248	69	4655
2026-01-10 21:55:09.62	112.28	10.91	-51.8	-53.8	14.7	0.00e+00	0	23	0	947912704	69	4610
2026-01-10 21:55:12.62	112.73	10.76	-52.0	-54.0	14.6	0.00e+00	0	23	0	953155584	69	4754
2026-01-10 21:55:15.62	113.19	10.61	-52.0	-54.0	14.6	0.00e+00	0	23	0	959447040	69	4752
2026-01-10 21:55:18.62	113.63	10.45	-51.6	-53.5	14.8	0.00e+00	0	23	0	964689920	69	4474
2026-01-10 21:55:21.62	114.08	10.30	-51.6	-53.6	14.8	0.00e+00	0	23	0	969932800	69	4531
2026-01-10 21:55:24.62	114.52	10.14	-52.0	-54.1	14.5	0.00e+00	0	23	0	976224256	69	4767
2026-01-10 21:55:27.62	114.95	9.99	-52.1	-54.2	14.4	0.00e+00	0	23	0	981467136	69	4869
2026-01-10 21:55:30.59	115.38	9.84	-51.9	-54.0	14.6	0.00e+00	0	23	0	986710016	69	4731
2026-01-10 21:55:33.59	115.81	9.68	-51.8	-53.9	14.6	0.00e+00	0	23	0	993001472	69	4652
2026-01-10 21:55:36.59	116.23	9.52	-52.0	-54.1	14.4	0.00e+00	0	23	0	998244352	69	4809
2026-01-10 21:55:39.57	116.64	9.37	-52.2	-54.4	14.3	0.00e+00	0	23	0	1003487232	69	4948
2026-01-10 21:55:42.56	117.06	9.21	-52.2	-54.4	14.3	0.00e+00	0	23	0	1009778688	69	4954
2026-01-10 21:55:45.56	117.47	9.06	-51.9	-54.0	14.5	0.00e+00	0	23	0	1015021568	69	4741
2026-01-10 21:55:48.55	117.87	8.90	-51.8	-53.9	14.6	0.00e+00	0	23	0	1020264448	69	4678
2026-01-10 21:55:51.55	118.27	8.74	-52.2	-54.5	14.2	0.00e+00	0	23	0	1026555904	69	4998
2026-01-10 21:55:54.55	118.67	8.58	-52.3	-54.7	14.1	0.00e+00	0	23	0	1031798784	69	5127
2026-01-10 21:55:57.54	119.06	8.43	-52.3	-54.6	14.1	0.00e+00	0	23	0	1037041664	69	5096
2026-01-10 21:56:00.55	119.45	8.27	-52.3	-54.6	14.1	0.00e+00	0	23	0	1043333120	69	5098
2026-01-10 21:56:03.54	119.83	8.11	-52.5	-55.0	14.0	0.00e+00	0	23	0	1048576000	70	4988
2026-01-10 21:56:06.53	120.21	7.95	-52.8	-55.3	13.8	0.00e+00	0	23	0	1054867456	70	5212
2026-01-10 21:56:09.53	120.59	7.79	-52.7	-55.2	13.9	0.00e+00	0	23	0	1060110336	70	5132
2026-01-10 21:56:12.53	120.96	7.64	-52.5	-55.0	14.0	0.00e+00	0	23	0	1065353216	70	5017
2026-01-10 21:56:15.53	121.33	7.48	-52.6	-55.1	13.9	0.00e+00	0	23	0	1071644672	70	5060
2026-01-10 21:56:18.53	121.69	7.32	-53.0	-55.7	13.6	0.00e+00	0	23	0	1076887552	71	5157
2026-01-10 21:56:21.53	122.06	7.16	-53.0	-55.8	13.5	0.00e+00	0	23	0	1082130432	71	5172
2026-01-10 21:56:24.53	122.41	7.00	-52.9	-55.7	13.6	0.00e+00	0	23	0	1088421888	71	5142
2026-01-10 21:56:27.54	122.77	6.84	-52.6	-55.2	14.0	0.00e+00	0	23	0	1093664768	71	4841
2026-01-10 21:56:30.54	123.12	6.69	-52.7	-55.3	13.8	0.00e+00	0	23	0	1098907648	71	4922
2026-01-10 21:56:33.53	123.46	6.53	-52.9	-55.7	13.6	0.00e+00	0	23	0	1105199104	71	5111
2026-01-10 21:56:36.53	123.81	6.37	-53.2	-56.1	13.3	0.00e+00	0	23	0	1110441984	71	5386
2026-01-10 21:56:39.52	124.15	6.21	-53.2	-56.2	13.2	0.00e+00	0	23	0	1116733440	71	5411
2026-01-10 21:56:42.52	124.48	6.06	-53.0	-55.8	13.5	0.00e+00	0	23	0	1121976320	71	5215
2026-01-10 21:56:45.50	124.81	5.90	-52.9	-55.7	13.5	0.00e+00	0	23	0	1127219200	71	5147
2026-01-10 21:56:48.50	125.14	5.74	-53.2	-56.3	13.1	0.00e+00	0	23	0	1133510656	71	5521
2026-01-10 21:56:51.50	125.47	5.59	-53.1	-56.1	13.2	0.00e+00	0	23	0	1138753536	71	5386
2026-01-10 21:56:54.50	125.79	5.43	-53.3	-56.4	13.0	0.00e+00	0	23	0	1143996416	71	5575
2026-01-10 21:56:57.49	126.11	5.27	-53.1	-56.1	13.2	0.00e+00	0	23	0	1150287872	71	5354
2026-01-10 21:57:00.50	126.42	5.12	-53.5	-56.8	12.8	0.00e+00	0	23	0	1155530752	72	5493
2026-01-10 21:57:03.51	126.74	4.96	-57.3	-73.2	3.8	1.21e+00	0	23	104	1160773632	79	24314
2026-01-10 21:57:06.52	127.05	4.80	-58.2	-74.2	3.8	1.49e+00	0	23	104	1160773632	81	24166
2026-01-10 21:57:09.51	127.35	4.65	-58.6	-74.7	3.8	1.49e+00	0	23	104	1160773632	82	24184
2026-01-10 21:57:12.50	127.66	4.49	-58.9	-74.9	3.8	1.49e+00	0	23	104	1160773632	82	24943
2026-01-10 21:57:15.51	127.96	4.34	-59.1	-75.2	3.8	1.49e+00	0	23	104	1160773632	83	24159
2026-01-10 21:57:18.52	128.26	4.18	-59.2	-75.3	3.8	1.49e+00	0	23	104	1160773632	83	24499
2026-01-10 21:57:21.52	128.55	4.03	-59.4	-75.5	3.8	1.49e+00	0	23	104	1160773632	83	25010
2026-01-10 21:57:24.52	128.84	3.87	-59.7	-75.7	3.8	1.49e+00	0	23	104	1160773632	84	24284
2026-01-10 21:57:27.53	129.13	3.72	-59.7	-75.7	3.8	1.49e+00	0	23	104	1160773632	84	24382
2026-01-10 21:57:30.53	129.42	3.56	-59.6	-75.7	3.8	1.49e+00	0	23	104	1160773632	84	24218
2026-01-10 21:57:33.52	129.70	3.41	-59.6	-75.7	3.8	1.49e+00	0	23	104	1160773632	84	24134
2026-01-10 21:57:36.50	129.97	3.26	-59.5	-75.6	3.8	1.49e+00	0	23	104	1160773632	84	24122
2026-01-10 21:57:39.47	130.25	3.11	-59.6	-75.6	3.8	1.49e+00	0	23	104	1160773632	84	24064
2026-01-10 21:57:42.48	130.52	2.95	-59.6	-75.6	3.8	1.49e+00	0	23	104	1160773632	84	24008
2026-01-10 21:57:45.48	130.80	2.80	-59.5	-75.6	3.8	1.49e+00	0	23	104	1160773632	84	23982
2026-01-10 21:57:48.47	131.06	2.65	-59.5	-75.6	3.8	1.49e+00	0	23	104	1160773632	84	23874
2026-01-10 21:57:51.47	131.33	2.50	-59.5	-75.6	3.8	1.49e+00	0	23	104	1160773632	84	23927
2026-01-10 21:57:54.47	131.59	2.35	-59.5	-75.6	3.8	1.49e+00	0	23	104	1160773632	84	23938
2026-01-10 21:57:57.48	131.86	2.19	-59.5	-75.5	3.8	1.49e+00	0	23	104	1160773632	84	23816
2026-01-10 21:58:00.47	132.11	2.04	-59.5	-75.5	3.8	1.49e+00	0	23	104	1160773632	84	23784

#Closed at: 2026-01-10 21:58:02
#Recorded file [1160 MB]: D:/lorett/data/31004_260111_004600.dat