passes_logs/2026/01/10/R3.2S_Murmansk/R3.2S_Murmansk__20260110_234743_AQUA_rec.log

#Pass ID: 20260110_234743_AQUA
#Satellite: AQUA
#Configuration: AQUA
#almurnet v.1.7.20251203
#Start time: 2026-01-10 23:47:44

#Version: 2.2.20231116
#Station: R3.2S_Murmansk
#Location: 33.079688 lon 68.888172 lat
#TLE: 1 27424U 02022A   26009.89520876  .00001045  00000+0  21914-3 0  9996
#TLE: 2 27424  98.4076 336.2372 0002032  84.5955   1.0356 14.61811442260144

#Time	Az	El	Level	Level2	SNR	BER	BlckErr	Temp	State	Recorded	gain1	gain2
2026-01-10 23:47:44.32	21.38	2.07	-56.4	-75.5	3.8	7.48e-01	0	21	0	0	82	30798
2026-01-10 23:47:47.32	21.66	2.23	-56.3	-75.0	3.8	7.46e-01	0	21	104	0	80	32780
2026-01-10 23:47:50.33	21.94	2.39	-56.3	-75.0	3.8	7.48e-01	0	21	104	0	80	32797
2026-01-10 23:47:53.32	22.21	2.55	-56.3	-75.4	3.8	7.47e-01	0	21	104	0	80	34330
2026-01-10 23:47:56.32	22.50	2.71	-56.3	-75.3	3.8	7.46e-01	0	21	104	0	80	33741
2026-01-10 23:47:59.33	22.79	2.88	-56.3	-74.9	3.8	7.48e-01	0	21	104	0	80	32254
2026-01-10 23:48:02.34	23.08	3.04	-56.3	-75.4	3.8	7.45e-01	0	22	104	0	80	34232
2026-01-10 23:48:05.34	23.37	3.20	-56.3	-75.5	3.8	7.44e-01	0	22	104	0	80	34605
2026-01-10 23:48:08.34	23.67	3.37	-56.3	-75.6	3.8	7.44e-01	0	22	104	0	80	35050
2026-01-10 23:48:11.35	23.97	3.53	-56.3	-73.4	3.9	7.41e-01	0	22	104	0	80	27359
2026-01-10 23:48:14.35	24.27	3.70	-56.2	-72.5	3.9	7.46e-01	0	22	104	0	80	24600
2026-01-10 23:48:17.35	24.58	3.86	-56.2	-72.0	4.2	7.36e-01	0	22	104	0	80	23300
2026-01-10 23:48:20.34	24.89	4.03	-55.9	-66.6	7.4	6.51e-01	92	22	0	2097152	80	12384
2026-01-10 23:48:23.34	25.20	4.19	-55.9	-65.7	8.2	6.39e-01	3	22	0	7864320	80	11208
2026-01-10 23:48:26.34	25.52	4.36	-54.9	-60.9	12.3	6.04e-01	0	22	0	13107200	79	6837
2026-01-10 23:48:29.33	25.84	4.53	-51.8	-54.6	15.3	6.02e-01	0	22	0	18874368	72	4972
2026-01-10 23:48:32.33	26.17	4.69	-50.8	-53.2	15.6	6.02e-01	0	22	0	24641536	70	4743
2026-01-10 23:48:35.32	26.49	4.86	-52.8	-56.5	14.5	6.03e-01	0	22	0	30408704	73	5807
2026-01-10 23:48:38.33	26.83	5.03	-54.7	-60.4	12.3	6.04e-01	0	22	0	35651584	77	7212
2026-01-10 23:48:41.32	27.16	5.20	-55.5	-63.7	9.6	6.15e-01	0	22	0	41418752	79	9396
2026-01-10 23:48:44.32	27.51	5.37	-52.6	-55.7	15.2	6.02e-01	0	22	0	47185920	74	4990
2026-01-10 23:48:47.31	27.85	5.54	-51.9	-54.7	15.5	6.00e-01	0	22	0	52428800	73	4706
2026-01-10 23:48:50.31	28.20	5.71	-51.1	-53.4	15.8	6.01e-01	0	22	0	58195968	71	4594
2026-01-10 23:48:53.31	28.56	5.88	-50.6	-52.8	15.9	6.03e-01	0	22	0	63963136	70	4544
2026-01-10 23:48:56.32	28.92	6.05	-50.6	-52.8	15.9	6.02e-01	0	22	0	69730304	70	4528
2026-01-10 23:48:59.33	29.28	6.22	-50.2	-52.3	15.9	6.02e-01	0	22	0	74973184	69	4520
2026-01-10 23:49:02.32	29.65	6.40	-50.4	-52.6	15.8	5.98e-01	0	22	0	80740352	69	4681
2026-01-10 23:49:05.32	30.02	6.57	-50.3	-52.4	15.9	5.99e-01	0	22	0	86507520	69	4574
2026-01-10 23:49:08.33	30.40	6.74	-50.5	-52.6	15.8	5.99e-01	0	22	0	92274688	69	4694
2026-01-10 23:49:11.33	30.78	6.91	-50.3	-52.4	15.9	6.01e-01	0	22	0	97517568	69	4596
2026-01-10 23:49:14.31	31.16	7.09	-50.2	-52.3	15.9	6.02e-01	0	23	0	103284736	69	4516
2026-01-10 23:49:17.32	31.56	7.26	-50.2	-52.2	15.9	6.03e-01	0	22	0	109051904	69	4493
2026-01-10 23:49:20.32	31.95	7.44	-50.2	-52.3	15.9	6.01e-01	0	22	0	114294784	69	4522
2026-01-10 23:49:23.31	32.35	7.61	-50.2	-52.2	15.9	6.01e-01	0	22	0	120061952	69	4459
2026-01-10 23:49:26.31	32.76	7.78	-50.0	-52.1	16.0	6.02e-01	0	22	0	125829120	69	4394
2026-01-10 23:49:29.29	33.17	7.96	-50.0	-52.0	16.0	5.99e-01	0	22	0	131072000	69	4389
2026-01-10 23:49:32.28	33.58	8.13	-49.7	-51.7	16.0	6.02e-01	0	22	0	136839168	68	4459
2026-01-10 23:49:35.28	34.00	8.31	-49.9	-51.9	15.9	6.01e-01	0	22	0	142606336	68	4588
2026-01-10 23:49:38.28	34.43	8.48	-49.9	-51.9	15.9	5.99e-01	0	23	0	148373504	68	4578
2026-01-10 23:49:41.27	34.86	8.65	-49.9	-51.8	15.9	6.01e-01	0	23	0	153616384	68	4524
2026-01-10 23:49:44.27	35.30	8.83	-49.8	-51.7	16.0	6.01e-01	0	23	0	159383552	68	4451
2026-01-10 23:49:47.27	35.74	9.00	-49.7	-51.7	16.0	5.99e-01	0	23	0	165150720	68	4445
2026-01-10 23:49:50.27	36.19	9.18	-49.7	-51.6	16.0	6.01e-01	0	23	0	170917888	68	4422
2026-01-10 23:49:53.26	36.65	9.35	-49.6	-51.5	16.0	5.98e-01	0	22	0	176160768	68	4384
2026-01-10 23:49:56.25	37.11	9.53	-49.6	-51.4	16.1	6.00e-01	0	23	0	181927936	68	4330
2026-01-10 23:49:59.25	37.57	9.70	-49.5	-51.4	16.1	5.99e-01	0	23	0	187695104	68	4301
2026-01-10 23:50:02.24	38.04	9.88	-49.5	-51.4	16.1	6.01e-01	0	22	0	192937984	68	4300
2026-01-10 23:50:05.23	38.52	10.05	-49.5	-51.4	16.1	6.00e-01	0	23	0	198705152	68	4296
2026-01-10 23:50:08.24	39.01	10.22	-49.4	-51.3	16.2	6.00e-01	0	23	0	204472320	68	4243
2026-01-10 23:50:11.22	39.49	10.40	-49.3	-51.1	16.1	6.00e-01	0	23	0	209715200	67	4417
2026-01-10 23:50:14.23	39.99	10.57	-49.2	-51.0	16.0	5.99e-01	0	23	0	215482368	67	4385
2026-01-10 23:50:17.23	40.49	10.74	-49.2	-51.0	16.0	5.99e-01	0	23	0	221249536	67	4387
2026-01-10 23:50:20.21	41.00	10.91	-49.2	-51.0	16.1	6.00e-01	0	23	0	226492416	67	4376
2026-01-10 23:50:23.20	41.51	11.09	-49.2	-51.0	16.0	6.01e-01	0	23	0	232259584	67	4361
2026-01-10 23:50:26.19	42.03	11.26	-49.1	-50.9	16.1	6.01e-01	0	23	0	238026752	67	4322
2026-01-10 23:50:29.18	42.56	11.43	-49.1	-50.9	16.1	5.98e-01	0	23	0	243793920	67	4333
2026-01-10 23:50:32.15	43.09	11.59	-49.0	-50.7	16.2	6.01e-01	0	23	0	249036800	67	4218
2026-01-10 23:50:35.14	43.62	11.76	-49.0	-50.8	16.2	6.01e-01	0	23	0	254803968	67	4262
2026-01-10 23:50:38.13	44.17	11.93	-49.0	-50.8	16.2	6.03e-01	0	22	0	260571136	67	4248
2026-01-10 23:50:41.10	44.72	12.09	-48.9	-50.7	16.2	6.01e-01	0	23	0	265814016	67	4195
2026-01-10 23:50:44.09	45.28	12.26	-49.0	-50.8	16.2	6.00e-01	0	23	0	271581184	67	4248
2026-01-10 23:50:47.09	45.84	12.42	-48.8	-50.5	16.0	6.02e-01	0	23	0	277348352	66	4384
2026-01-10 23:50:50.08	46.41	12.59	-48.9	-50.7	16.0	6.00e-01	0	23	0	282591232	66	4461
2026-01-10 23:50:53.08	46.99	12.75	-48.7	-50.5	16.1	5.99e-01	0	23	0	288358400	66	4346
2026-01-10 23:50:56.08	47.58	12.91	-48.9	-50.6	16.0	6.01e-01	0	23	0	294125568	66	4441
2026-01-10 23:50:59.08	48.17	13.07	-48.8	-50.6	16.1	5.95e-01	0	23	0	299892736	66	4399
2026-01-10 23:51:02.09	48.78	13.23	-48.7	-50.4	16.0	5.99e-01	0	23	0	305135616	66	4325
2026-01-10 23:51:05.08	49.38	13.38	-48.8	-50.5	16.1	5.99e-01	0	23	0	310902784	66	4366
2026-01-10 23:51:08.08	49.99	13.54	-48.7	-50.3	16.1	6.00e-01	0	23	0	316669952	66	4289
2026-01-10 23:51:11.08	50.62	13.69	-48.7	-50.3	16.1	5.99e-01	0	23	0	322437120	66	4286
2026-01-10 23:51:14.08	51.24	13.84	-48.6	-50.3	16.2	6.00e-01	0	23	0	327680000	66	4250
2026-01-10 23:51:17.08	51.88	13.99	-48.7	-50.4	16.1	6.03e-01	0	23	0	333447168	66	4308
2026-01-10 23:51:20.07	52.51	14.14	-48.5	-50.1	16.2	6.00e-01	0	23	0	339214336	66	4190
2026-01-10 23:51:23.06	53.16	14.28	-48.6	-50.3	16.1	6.01e-01	0	23	0	344457216	66	4280
2026-01-10 23:51:26.06	53.81	14.43	-48.6	-50.3	16.1	6.01e-01	0	23	0	350224384	66	4273
2026-01-10 23:51:29.05	54.47	14.57	-48.6	-50.2	16.2	6.01e-01	0	23	0	355991552	66	4228
2026-01-10 23:51:32.05	55.14	14.70	-48.5	-50.2	16.2	6.01e-01	0	23	0	361234432	66	4209
2026-01-10 23:51:35.05	55.81	14.84	-48.5	-50.2	16.2	6.02e-01	0	23	0	367001600	66	4203
2026-01-10 23:51:38.02	56.48	14.97	-48.6	-50.3	16.2	6.03e-01	0	23	0	372768768	66	4245
2026-01-10 23:51:41.02	57.17	15.10	-48.4	-50.0	16.1	6.00e-01	0	23	0	378535936	65	4369
2026-01-10 23:51:44.00	57.85	15.22	-48.6	-50.3	16.0	6.03e-01	0	23	0	383778816	65	4505
2026-01-10 23:51:47.00	58.55	15.35	-48.4	-50.1	16.0	6.02e-01	0	23	0	389545984	65	4425
2026-01-10 23:51:49.99	59.25	15.47	-48.4	-50.1	16.0	6.01e-01	0	23	0	395313152	65	4414
2026-01-10 23:51:52.99	59.96	15.58	-48.6	-50.3	15.9	6.02e-01	0	23	0	400556032	65	4497
2026-01-10 23:51:55.97	60.67	15.70	-48.5	-50.1	16.0	6.03e-01	0	23	0	406323200	65	4435
2026-01-10 23:51:58.97	61.40	15.81	-48.6	-50.3	16.1	5.99e-01	0	23	0	412090368	65	4509
2026-01-10 23:52:01.98	62.12	15.91	-48.3	-50.0	16.0	5.98e-01	0	23	0	417857536	65	4362
2026-01-10 23:52:04.98	62.86	16.02	-48.4	-50.1	16.0	6.00e-01	0	23	0	423100416	65	4409
2026-01-10 23:52:07.99	63.60	16.12	-48.4	-50.0	16.0	6.02e-01	0	23	0	428867584	65	4373
2026-01-10 23:52:10.98	64.33	16.21	-48.4	-50.0	16.1	6.02e-01	0	23	0	434634752	65	4375
2026-01-10 23:52:13.98	65.08	16.30	-48.5	-50.1	15.9	5.98e-01	0	23	0	439877632	65	4431
2026-01-10 23:52:16.98	65.83	16.39	-48.2	-49.9	15.9	6.02e-01	0	23	0	445644800	64	4559
2026-01-10 23:52:19.97	66.59	16.47	-48.4	-50.0	15.9	6.02e-01	0	23	0	451411968	64	4636
2026-01-10 23:52:22.96	67.35	16.55	-48.4	-50.0	15.9	6.04e-01	0	23	0	456654848	64	4641
2026-01-10 23:52:25.97	68.11	16.63	-48.3	-49.9	15.9	6.02e-01	0	23	0	462422016	64	4592
2026-01-10 23:52:28.95	68.88	16.70	-48.4	-50.0	15.9	6.01e-01	0	23	0	468189184	64	4635
2026-01-10 23:52:31.93	69.64	16.76	-48.3	-49.9	15.9	6.05e-01	0	23	0	473956352	64	4585
2026-01-10 23:52:34.92	70.42	16.82	-48.3	-49.9	16.0	6.04e-01	0	23	0	479199232	65	4333
2026-01-10 23:52:37.91	71.19	16.88	-48.4	-50.1	16.1	6.01e-01	0	23	0	484966400	65	4399
2026-01-10 23:52:40.91	71.97	16.93	-48.4	-50.0	16.1	6.01e-01	0	23	0	490733568	65	4363
2026-01-10 23:52:43.89	72.75	16.98	-48.4	-50.1	16.0	6.01e-01	0	23	0	495976448	65	4414
2026-01-10 23:52:46.89	73.54	17.02	-48.4	-50.1	16.0	6.01e-01	0	23	0	501743616	65	4397
2026-01-10 23:52:49.88	74.32	17.06	-48.4	-50.1	16.0	6.02e-01	0	23	0	507510784	65	4397
2026-01-10 23:52:52.89	75.12	17.09	-48.4	-50.1	16.0	5.96e-01	0	23	0	513277952	65	4397
2026-01-10 23:52:55.88	75.91	17.12	-48.4	-50.0	16.0	6.01e-01	0	23	0	518520832	65	4383
2026-01-10 23:52:58.87	76.70	17.14	-48.4	-50.0	16.0	6.04e-01	0	23	0	524288000	65	4371
2026-01-10 23:53:01.87	77.50	17.16	-48.4	-50.0	16.0	6.02e-01	0	23	0	530055168	65	4389
2026-01-10 23:53:04.89	78.30	17.17	-48.5	-50.1	16.0	6.00e-01	0	23	0	535298048	65	4435
2026-01-10 23:53:07.88	79.09	17.18	-48.3	-50.0	16.1	6.00e-01	0	23	0	541065216	65	4358
2026-01-10 23:53:10.87	79.88	17.18	-48.4	-50.0	16.0	6.02e-01	0	23	0	546832384	65	4383
2026-01-10 23:53:13.87	80.68	17.18	-48.4	-50.0	16.0	6.01e-01	0	23	0	552599552	65	4367
2026-01-10 23:53:16.88	81.48	17.17	-48.4	-50.1	16.0	6.00e-01	0	23	0	557842432	65	4405
2026-01-10 23:53:19.86	82.27	17.16	-48.4	-50.0	16.0	6.03e-01	0	23	0	563609600	65	4388
2026-01-10 23:53:22.86	83.07	17.14	-48.3	-50.0	16.0	6.00e-01	0	23	0	569376768	65	4352
2026-01-10 23:53:25.87	83.86	17.12	-48.4	-50.0	16.0	5.97e-01	0	23	0	575143936	65	4391
2026-01-10 23:53:28.86	84.65	17.09	-48.3	-49.9	16.1	6.00e-01	0	23	0	580386816	65	4319
2026-01-10 23:53:31.86	85.45	17.05	-48.3	-49.9	16.0	5.98e-01	0	23	0	586153984	65	4333
2026-01-10 23:53:34.84	86.23	17.02	-48.3	-49.9	16.0	6.01e-01	0	23	0	591921152	65	4329
2026-01-10 23:53:37.82	87.01	16.97	-48.4	-50.1	16.0	5.99e-01	0	23	0	597164032	65	4392
2026-01-10 23:53:40.80	87.79	16.93	-48.3	-49.9	16.1	6.02e-01	0	23	0	602931200	65	4331
2026-01-10 23:53:43.80	88.57	16.87	-48.3	-50.0	16.0	6.02e-01	0	23	0	608698368	65	4347
2026-01-10 23:53:46.78	89.35	16.82	-48.3	-50.0	16.1	6.00e-01	0	23	0	613941248	65	4353
2026-01-10 23:53:49.77	90.12	16.76	-48.2	-49.9	16.1	6.05e-01	0	23	0	619708416	65	4294
2026-01-10 23:53:52.78	90.90	16.69	-48.3	-49.9	16.0	6.01e-01	0	23	0	625475584	65	4326
2026-01-10 23:53:55.77	91.67	16.62	-48.2	-49.8	16.1	6.01e-01	0	23	0	631242752	65	4272
2026-01-10 23:53:58.76	92.43	16.54	-48.4	-50.0	16.0	6.02e-01	0	23	0	636485632	65	4369
2026-01-10 23:54:01.77	93.19	16.46	-48.2	-49.8	16.1	5.99e-01	0	23	0	642252800	65	4283
2026-01-10 23:54:04.77	93.95	16.38	-48.4	-50.1	16.0	6.00e-01	0	23	0	648019968	65	4411
2026-01-10 23:54:07.76	94.70	16.29	-48.3	-49.9	16.1	6.02e-01	0	23	0	653262848	65	4318
2026-01-10 23:54:10.75	95.45	16.20	-48.3	-49.9	16.1	6.02e-01	0	23	0	659030016	65	4337
2026-01-10 23:54:13.75	96.19	16.10	-48.3	-49.9	16.0	6.01e-01	0	23	0	664797184	65	4299
2026-01-10 23:54:16.74	96.92	16.00	-48.2	-49.8	16.1	6.03e-01	0	23	0	670040064	65	4278
2026-01-10 23:54:19.74	97.66	15.90	-48.3	-50.0	16.0	6.01e-01	0	23	0	675807232	65	4359
2026-01-10 23:54:22.73	98.38	15.79	-48.2	-49.8	16.1	6.01e-01	0	23	0	681574400	65	4287
2026-01-10 23:54:25.72	99.10	15.68	-48.2	-49.8	16.1	6.00e-01	0	23	0	687341568	65	4260
2026-01-10 23:54:28.72	99.82	15.57	-48.3	-50.0	16.0	6.02e-01	0	23	0	692584448	65	4361
2026-01-10 23:54:31.73	100.53	15.45	-48.3	-50.0	16.0	5.98e-01	0	23	0	698351616	65	4360
2026-01-10 23:54:34.72	101.24	15.33	-48.3	-50.0	16.0	6.02e-01	0	23	0	704118784	65	4358
2026-01-10 23:54:37.71	101.93	15.20	-48.4	-50.0	16.0	6.00e-01	0	23	0	709361664	65	4384
2026-01-10 23:54:40.69	102.62	15.08	-48.4	-50.1	16.0	6.00e-01	0	23	0	715128832	65	4414
2026-01-10 23:54:43.68	103.31	14.95	-48.3	-50.0	16.0	6.00e-01	0	23	0	720896000	65	4354
2026-01-10 23:54:46.68	103.99	14.81	-48.3	-49.9	16.0	5.97e-01	0	23	0	726663168	65	4311
2026-01-10 23:54:49.68	104.66	14.68	-48.4	-50.1	16.0	6.01e-01	0	23	0	731906048	65	4409
2026-01-10 23:54:52.69	105.33	14.54	-48.3	-50.0	16.0	6.00e-01	0	23	0	737673216	65	4363
2026-01-10 23:54:55.69	105.99	14.40	-48.3	-49.9	16.1	6.01e-01	0	23	0	743440384	65	4327
2026-01-10 23:54:58.70	106.65	14.25	-48.4	-50.1	16.0	6.01e-01	0	23	0	748683264	65	4412
2026-01-10 23:55:01.69	107.30	14.11	-48.4	-50.1	16.0	6.05e-01	0	23	0	754450432	65	4411
2026-01-10 23:55:04.71	107.94	13.96	-48.3	-49.9	16.1	6.02e-01	0	23	0	760217600	65	4326
2026-01-10 23:55:07.69	108.57	13.81	-48.5	-50.1	16.0	6.00e-01	0	23	0	765984768	65	4425
2026-01-10 23:55:10.69	109.20	13.66	-48.6	-50.3	15.9	5.98e-01	0	23	0	771227648	65	4514
2026-01-10 23:55:13.70	109.83	13.50	-48.5	-50.2	16.0	5.99e-01	0	23	0	776994816	65	4452
2026-01-10 23:55:16.70	110.44	13.35	-48.5	-50.1	16.0	6.00e-01	0	23	0	782761984	65	4419
2026-01-10 23:55:19.69	111.05	13.19	-48.6	-50.3	15.9	6.01e-01	0	23	0	788529152	65	4502
2026-01-10 23:55:22.68	111.65	13.03	-48.6	-50.3	15.9	6.03e-01	0	23	0	793772032	65	4497
2026-01-10 23:55:25.69	112.24	12.87	-48.6	-50.3	16.0	6.02e-01	0	23	0	799539200	65	4498
2026-01-10 23:55:28.69	112.83	12.71	-48.6	-50.3	15.9	5.99e-01	0	23	0	805306368	65	4533
2026-01-10 23:55:31.69	113.41	12.54	-48.5	-50.2	16.0	6.01e-01	0	23	0	810549248	65	4479
2026-01-10 23:55:34.68	113.99	12.38	-48.6	-50.3	15.9	5.99e-01	0	23	0	816316416	65	4525
2026-01-10 23:55:37.67	114.55	12.21	-48.7	-50.4	15.9	6.02e-01	0	23	0	822083584	65	4558
2026-01-10 23:55:40.66	115.11	12.05	-48.8	-50.5	15.8	6.02e-01	0	23	0	827326464	65	4646
2026-01-10 23:55:43.64	115.66	11.88	-48.8	-50.5	15.9	6.02e-01	0	23	0	833093632	65	4630
2026-01-10 23:55:46.64	116.21	11.71	-48.9	-50.7	15.8	6.04e-01	0	23	0	838860800	65	4739
2026-01-10 23:55:49.64	116.75	11.54	-48.8	-50.5	15.8	6.02e-01	0	23	0	844627968	65	4650
2026-01-10 23:55:52.64	117.29	11.37	-48.7	-50.5	15.9	6.02e-01	0	23	0	849870848	65	4621
2026-01-10 23:55:55.65	117.82	11.20	-48.9	-50.6	15.8	6.01e-01	0	23	0	855638016	65	4695
2026-01-10 23:55:58.64	118.34	11.03	-49.0	-50.8	15.7	5.98e-01	0	23	0	861405184	65	4802
2026-01-10 23:56:01.64	118.85	10.85	-48.9	-50.7	15.8	6.02e-01	0	23	0	867172352	65	4750
2026-01-10 23:56:04.65	119.36	10.68	-48.8	-50.6	15.8	6.00e-01	0	23	0	872415232	65	4695
2026-01-10 23:56:07.65	119.87	10.51	-48.8	-50.6	15.8	6.02e-01	0	23	0	878182400	65	4652
2026-01-10 23:56:10.64	120.36	10.33	-49.0	-50.8	15.7	6.01e-01	0	23	0	883949568	65	4778
2026-01-10 23:56:13.65	120.85	10.16	-49.0	-50.8	15.7	6.00e-01	0	23	0	889716736	65	4782
2026-01-10 23:56:16.64	121.34	9.98	-48.9	-50.7	15.8	6.01e-01	0	23	0	894959616	65	4741
2026-01-10 23:56:19.66	121.82	9.80	-48.9	-50.8	15.7	6.01e-01	0	23	0	900726784	65	4762
2026-01-10 23:56:22.66	122.29	9.63	-49.0	-50.8	15.7	6.01e-01	0	23	0	906493952	65	4809
2026-01-10 23:56:25.67	122.76	9.45	-49.2	-51.1	15.8	6.01e-01	0	23	0	911736832	66	4660
2026-01-10 23:56:28.66	123.22	9.28	-49.3	-51.2	15.7	6.02e-01	0	23	0	917504000	66	4740
2026-01-10 23:56:31.65	123.67	9.10	-49.3	-51.2	15.7	6.03e-01	0	23	0	923271168	66	4741
2026-01-10 23:56:34.65	124.12	8.92	-49.2	-51.1	15.7	5.98e-01	0	23	0	929038336	66	4684
2026-01-10 23:56:37.64	124.56	8.75	-49.2	-51.1	15.8	6.00e-01	0	23	0	934281216	66	4702
2026-01-10 23:56:40.62	125.00	8.57	-49.3	-51.2	15.8	6.00e-01	0	23	0	940048384	66	4720
2026-01-10 23:56:43.62	125.43	8.40	-49.4	-51.3	15.7	6.02e-01	0	23	0	945815552	66	4797
2026-01-10 23:56:46.63	125.86	8.22	-49.4	-51.4	15.7	6.00e-01	0	23	0	951582720	66	4834
2026-01-10 23:56:49.63	126.28	8.04	-49.4	-51.3	15.7	5.99e-01	0	23	0	956825600	66	4782
2026-01-10 23:56:52.62	126.70	7.87	-49.5	-51.4	15.6	6.04e-01	0	23	0	962592768	66	4868
2026-01-10 23:56:55.63	127.11	7.69	-49.5	-51.4	15.6	6.03e-01	0	23	0	968359936	66	4869
2026-01-10 23:56:58.62	127.52	7.52	-49.4	-51.4	15.6	5.99e-01	0	23	0	973602816	66	4843
2026-01-10 23:57:01.62	127.92	7.34	-49.4	-51.4	15.7	6.03e-01	0	23	0	979369984	66	4843
2026-01-10 23:57:04.63	128.31	7.17	-49.7	-51.7	15.7	6.01e-01	0	23	0	985137152	67	4731
2026-01-10 23:57:07.64	128.71	6.99	-49.8	-51.8	15.6	6.00e-01	0	23	0	990904320	67	4794
2026-01-10 23:57:10.63	129.09	6.82	-49.9	-52.0	15.6	5.98e-01	0	23	0	996147200	67	4914
2026-01-10 23:57:13.63	129.47	6.64	-49.8	-51.8	15.6	6.01e-01	0	23	0	1001914368	67	4810
2026-01-10 23:57:16.63	129.85	6.47	-49.8	-51.9	15.6	6.01e-01	0	23	0	1007681536	67	4824
2026-01-10 23:57:19.62	130.22	6.30	-49.9	-52.0	15.5	6.01e-01	0	23	0	1013448704	67	4914
2026-01-10 23:57:22.62	130.59	6.12	-49.8	-52.0	15.6	6.00e-01	0	23	0	1018691584	67	4874
2026-01-10 23:57:25.63	130.95	5.95	-49.8	-51.9	15.6	6.00e-01	0	23	0	1024458752	67	4865
2026-01-10 23:57:28.62	131.31	5.78	-49.9	-52.1	15.5	6.02e-01	0	23	0	1030225920	67	4939
2026-01-10 23:57:31.62	131.66	5.61	-50.1	-52.3	15.6	6.03e-01	0	23	0	1035468800	68	4792
2026-01-10 23:57:34.63	132.01	5.43	-50.1	-52.3	15.6	6.00e-01	0	23	0	1041235968	68	4775
2026-01-10 23:57:37.63	132.36	5.26	-50.1	-52.3	15.6	5.99e-01	0	23	0	1047003136	68	4812
2026-01-10 23:57:40.63	132.70	5.09	-50.2	-52.4	15.5	6.00e-01	0	23	0	1052770304	68	4848
2026-01-10 23:57:43.63	133.04	4.92	-56.8	-75.9	3.8	7.44e-01	0	23	104	1056964608	81	34334
2026-01-10 23:57:46.63	133.37	4.75	-57.7	-77.0	3.9	7.47e-01	0	23	104	1056964608	83	34690
2026-01-10 23:57:49.61	133.70	4.58	-58.1	-77.4	3.8	7.47e-01	0	23	104	1056964608	83	36333
2026-01-10 23:57:52.61	134.02	4.41	-58.5	-77.8	3.8	7.48e-01	0	23	104	1056964608	84	35798
2026-01-10 23:57:55.61	134.34	4.25	-58.5	-77.7	3.8	7.44e-01	0	23	104	1056964608	85	33658
2026-01-10 23:57:58.62	134.66	4.08	-58.9	-78.2	3.8	7.45e-01	0	23	104	1056964608	85	35424
2026-01-10 23:58:01.62	134.98	3.91	-59.0	-78.3	3.8	7.44e-01	0	23	104	1056964608	85	36035
2026-01-10 23:58:04.62	135.28	3.74	-59.1	-78.5	3.8	7.49e-01	0	23	104	1056964608	85	36560
2026-01-10 23:58:07.62	135.59	3.58	-59.1	-78.4	3.8	7.50e-01	0	23	104	1056964608	85	36357
2026-01-10 23:58:10.62	135.89	3.41	-59.0	-78.4	3.8	7.45e-01	0	23	104	1056964608	85	36132
2026-01-10 23:58:13.63	136.19	3.24	-59.0	-78.3	3.8	7.47e-01	0	23	104	1056964608	85	36036
2026-01-10 23:58:16.64	136.49	3.08	-59.0	-78.3	3.8	7.46e-01	0	23	104	1056964608	85	36019
2026-01-10 23:58:19.66	136.78	2.91	-59.0	-78.3	3.8	7.47e-01	0	23	104	1056964608	85	35949
2026-01-10 23:58:22.65	137.07	2.75	-58.9	-78.3	3.8	7.46e-01	0	23	104	1056964608	85	35798
2026-01-10 23:58:25.66	137.36	2.59	-58.9	-78.3	3.8	7.45e-01	0	23	104	1056964608	85	35787
2026-01-10 23:58:28.66	137.64	2.42	-58.9	-78.3	3.8	7.46e-01	0	23	104	1056964608	85	35705
2026-01-10 23:58:31.68	137.92	2.26	-58.9	-78.3	3.8	7.45e-01	0	23	104	1056964608	85	35729
2026-01-10 23:58:34.69	138.20	2.10	-58.9	-78.3	3.8	7.44e-01	0	23	104	1056964608	85	35700

#Closed at: 2026-01-10 23:58:37
#Recorded file [1056 MB]: D:/lorett/data/31004_260111_024744.dat