passes_logs/2026/01/10/R3.2S_Murmansk/R3.2S_Murmansk__20260110_112414_NOAA_20_JPSS-1_rec.log

#Pass ID: 20260110_112414_NOAA 20 (JPSS-1)
#Satellite: NOAA 20 (JPSS-1)
#Configuration: NOAA 20
#almurnet v.1.7.20251203
#Start time: 2026-01-10 11:24:15

#Version: 2.2.20231116
#Station: R3.2S_Murmansk
#Location: 33.079688 lon 68.888172 lat
#TLE: 1 43013U 17073A   26009.69119415  .00000109  00000+0  72598-4 0  9996
#TLE: 2 43013  98.7631 310.6868 0001678  46.7442 313.3874 14.19534878421981

#Time	Az	El	Level	Level2	SNR	BER	BlckErr	Temp	State	Recorded	gain1	gain2
2026-01-10 11:24:15.86	198.72	2.10	-58.9	-74.9	3.8	1.49e+00	0	21	0	0	82	24862
2026-01-10 11:24:19.74	198.94	2.33	-58.9	-74.9	3.8	1.49e+00	0	22	104	0	82	24941
2026-01-10 11:24:23.61	199.16	2.56	-58.9	-74.9	3.8	1.49e+00	0	22	104	0	82	24918
2026-01-10 11:24:27.47	199.39	2.79	-58.9	-74.9	3.8	1.49e+00	0	22	104	0	82	24957
2026-01-10 11:24:31.34	199.62	3.02	-58.9	-74.9	3.8	1.49e+00	0	22	104	0	82	24898
2026-01-10 11:24:35.21	199.85	3.26	-58.9	-74.9	3.8	1.49e+00	0	22	104	0	82	24892
2026-01-10 11:24:39.08	200.08	3.49	-58.9	-74.9	3.8	1.49e+00	0	22	104	0	82	24909
2026-01-10 11:24:42.95	200.32	3.73	-58.9	-74.9	3.8	1.49e+00	0	22	104	0	82	24932
2026-01-10 11:24:46.81	200.57	3.97	-58.9	-74.9	3.8	1.49e+00	0	22	104	0	82	24911
2026-01-10 11:24:50.69	200.82	4.21	-58.9	-74.9	3.8	1.49e+00	0	23	104	0	82	24848
2026-01-10 11:24:54.55	201.07	4.46	-58.9	-74.9	3.8	1.49e+00	0	22	104	0	82	24940
2026-01-10 11:24:58.42	201.32	4.70	-58.9	-74.9	3.8	1.49e+00	0	22	104	0	82	24936
2026-01-10 11:25:02.29	201.58	4.95	-58.9	-74.9	3.8	1.49e+00	0	22	104	0	82	24869
2026-01-10 11:25:06.16	201.85	5.20	-58.9	-74.9	3.8	1.49e+00	0	23	104	0	82	24912
2026-01-10 11:25:10.02	202.11	5.45	-58.9	-74.9	3.8	1.49e+00	0	23	104	0	82	24952
2026-01-10 11:25:13.90	202.39	5.70	-58.9	-74.9	3.8	1.49e+00	0	23	104	0	82	24927
2026-01-10 11:25:17.77	202.66	5.95	-58.9	-74.9	3.8	1.49e+00	0	23	104	0	82	24955
2026-01-10 11:25:21.64	202.95	6.21	-58.9	-75.0	3.8	1.49e+00	0	23	104	0	82	24986
2026-01-10 11:25:25.51	203.23	6.47	-58.9	-74.9	3.8	1.49e+00	0	23	104	0	82	24881
2026-01-10 11:25:29.38	203.52	6.73	-58.9	-74.9	3.8	1.49e+00	0	23	104	0	82	24917
2026-01-10 11:25:33.25	203.82	6.99	-58.9	-74.9	3.8	1.49e+00	0	23	104	0	82	24899
2026-01-10 11:25:37.12	204.12	7.26	-58.9	-74.9	3.8	1.49e+00	0	23	104	0	82	24917
2026-01-10 11:25:40.99	204.43	7.52	-58.9	-74.9	3.8	1.49e+00	0	23	104	0	82	24875
2026-01-10 11:25:44.86	204.74	7.79	-58.9	-74.9	3.8	1.49e+00	0	23	104	0	82	24956
2026-01-10 11:25:48.73	205.06	8.06	-58.8	-74.9	3.8	1.49e+00	0	23	104	0	82	24851
2026-01-10 11:25:52.61	205.38	8.34	-58.9	-74.9	3.8	1.49e+00	0	23	104	0	82	24903
2026-01-10 11:25:56.48	205.71	8.61	-58.9	-74.9	3.8	1.49e+00	0	23	104	0	82	24941
2026-01-10 11:26:00.35	206.05	8.89	-58.9	-74.9	3.8	1.49e+00	0	23	104	0	82	24972
2026-01-10 11:26:04.22	206.39	9.17	-58.9	-74.9	3.8	1.49e+00	0	23	104	0	82	24879
2026-01-10 11:26:08.08	206.73	9.45	-58.9	-74.9	3.8	1.49e+00	0	23	104	0	82	24900
2026-01-10 11:26:11.97	207.09	9.74	-58.9	-74.9	3.8	1.49e+00	0	23	104	0	82	24919
2026-01-10 11:26:15.89	207.45	10.03	-58.9	-74.9	3.8	1.49e+00	0	23	104	0	82	24902
2026-01-10 11:26:19.81	207.83	10.32	-58.9	-74.9	3.8	1.49e+00	0	23	104	0	82	24789
2026-01-10 11:26:23.73	208.21	10.62	-58.9	-74.9	3.8	1.49e+00	0	23	104	0	82	24798
2026-01-10 11:26:27.66	208.59	10.92	-58.8	-74.9	3.8	1.49e+00	0	23	104	0	82	24856
2026-01-10 11:26:31.63	208.99	11.22	-58.8	-74.9	3.8	1.49e+00	0	23	104	0	82	24830
2026-01-10 11:26:35.57	209.40	11.53	-58.8	-74.9	3.8	1.49e+00	0	23	104	0	82	24890
2026-01-10 11:26:39.53	209.81	11.84	-58.9	-74.9	3.8	1.49e+00	0	23	104	0	82	24819
2026-01-10 11:26:43.46	210.23	12.14	-58.8	-74.9	3.8	1.49e+00	0	23	104	0	82	24847
2026-01-10 11:26:47.42	210.67	12.46	-58.9	-74.9	3.8	1.49e+00	0	23	104	0	82	24856
2026-01-10 11:26:51.41	211.11	12.78	-58.9	-74.9	3.8	1.49e+00	0	23	104	0	82	24853
2026-01-10 11:26:55.38	211.56	13.10	-58.8	-74.9	3.8	1.49e+00	0	23	104	0	82	24900
2026-01-10 11:26:59.38	212.03	13.42	-58.9	-74.9	3.8	1.49e+00	0	23	104	0	82	24836
2026-01-10 11:27:03.36	212.50	13.75	-58.8	-74.9	3.8	1.49e+00	0	23	104	0	82	24809
2026-01-10 11:27:07.34	212.98	14.08	-58.8	-74.9	3.8	1.49e+00	0	23	104	0	82	24861
2026-01-10 11:27:11.31	213.47	14.41	-58.8	-74.9	3.8	1.49e+00	0	23	104	0	82	24879
2026-01-10 11:27:15.29	213.98	14.74	-58.8	-74.9	3.8	1.49e+00	0	23	104	0	82	24847
2026-01-10 11:27:19.29	214.49	15.08	-58.8	-74.9	3.8	1.49e+00	0	24	104	0	82	24786
2026-01-10 11:27:23.28	215.02	15.42	-58.9	-74.9	3.8	1.49e+00	0	23	104	0	82	24912
2026-01-10 11:27:27.29	215.56	15.76	-58.8	-74.9	3.8	1.49e+00	0	23	104	0	82	24842
2026-01-10 11:27:31.27	216.11	16.11	-58.8	-74.9	3.8	1.49e+00	0	23	104	0	82	24749
2026-01-10 11:27:35.25	216.67	16.46	-58.8	-74.9	3.8	1.49e+00	0	23	104	0	82	24822
2026-01-10 11:27:39.22	217.25	16.80	-58.8	-74.9	3.8	1.49e+00	0	23	104	0	82	24776
2026-01-10 11:27:43.18	217.83	17.15	-58.8	-74.9	3.8	1.49e+00	0	23	104	0	82	24842
2026-01-10 11:27:47.17	218.43	17.51	-58.8	-74.9	3.8	1.49e+00	0	23	104	0	82	24789
2026-01-10 11:27:51.17	219.05	17.86	-58.8	-74.9	3.8	1.49e+00	0	24	104	0	82	24840
2026-01-10 11:27:55.16	219.68	18.22	-58.8	-74.9	3.8	1.49e+00	0	23	104	0	82	24764
2026-01-10 11:27:59.15	220.33	18.58	-58.8	-74.9	3.8	1.49e+00	0	23	104	0	82	24733
2026-01-10 11:28:03.16	220.99	18.95	-58.8	-74.9	3.8	1.49e+00	0	23	104	0	82	24803
2026-01-10 11:28:07.15	221.67	19.31	-58.8	-74.9	3.8	1.49e+00	0	23	104	0	82	24794
2026-01-10 11:28:11.13	222.36	19.67	-58.8	-74.9	3.8	1.49e+00	0	23	104	0	82	24755
2026-01-10 11:28:15.09	223.06	20.04	-58.8	-74.9	3.8	1.49e+00	0	23	104	0	82	24771
2026-01-10 11:28:19.08	223.78	20.40	-58.8	-74.9	3.8	1.49e+00	0	24	104	0	82	24697
2026-01-10 11:28:23.07	224.52	20.77	-58.8	-74.9	3.8	1.49e+00	0	23	104	0	82	24792
2026-01-10 11:28:27.07	225.29	21.14	-58.8	-74.9	3.8	1.49e+00	0	23	104	0	82	24752
2026-01-10 11:28:31.05	226.06	21.51	-58.8	-74.9	3.8	1.49e+00	0	23	104	0	82	24709
2026-01-10 11:28:35.01	226.85	21.87	-58.8	-74.9	3.8	1.49e+00	0	23	104	0	82	24740
2026-01-10 11:28:38.97	227.65	22.24	-58.8	-74.9	3.8	1.49e+00	0	23	104	0	82	24826
2026-01-10 11:28:42.95	228.48	22.60	-58.8	-74.9	3.8	1.49e+00	0	24	104	0	82	24748
2026-01-10 11:28:46.95	229.34	22.97	-59.1	-75.1	3.8	1.49e+00	0	24	104	0	83	24081
2026-01-10 11:28:50.96	230.21	23.34	-59.3	-75.3	3.8	1.49e+00	0	23	104	0	83	24642
2026-01-10 11:28:54.95	231.10	23.70	-59.2	-75.3	3.8	1.49e+00	0	24	104	0	83	24463
2026-01-10 11:28:58.92	232.01	24.06	-59.2	-75.3	3.8	1.49e+00	0	23	104	0	83	24454
2026-01-10 11:29:02.92	232.94	24.42	-59.2	-75.2	3.8	1.49e+00	0	23	104	0	83	24367
2026-01-10 11:29:06.93	233.90	24.78	-59.2	-75.2	3.8	1.49e+00	0	23	104	0	83	24395
2026-01-10 11:29:10.94	234.88	25.13	-59.2	-75.3	3.8	1.49e+00	0	24	104	0	83	24412
2026-01-10 11:29:14.95	235.88	25.48	-59.1	-75.2	3.8	1.49e+00	0	23	104	0	83	24277
2026-01-10 11:29:18.96	236.90	25.83	-59.1	-75.2	3.8	1.49e+00	0	23	104	0	83	24262
2026-01-10 11:29:22.96	237.94	26.17	-59.1	-75.2	3.8	1.49e+00	0	23	104	0	83	24237
2026-01-10 11:29:26.98	239.01	26.50	-59.1	-75.2	3.8	1.49e+00	0	24	104	0	83	24265
2026-01-10 11:29:30.98	240.10	26.83	-59.1	-75.2	3.8	1.49e+00	0	23	104	0	83	24267
2026-01-10 11:29:35.00	241.21	27.15	-59.1	-75.2	3.8	1.49e+00	0	23	104	0	83	24218
2026-01-10 11:29:39.01	242.34	27.46	-59.1	-75.2	3.8	1.49e+00	0	24	104	0	83	24222
2026-01-10 11:29:43.03	243.49	27.77	-59.1	-75.1	3.8	1.49e+00	0	24	104	0	83	24119
2026-01-10 11:29:47.05	244.67	28.06	-59.1	-75.2	3.8	1.49e+00	0	23	104	0	83	24187
2026-01-10 11:29:51.07	245.87	28.35	-59.1	-75.2	3.8	1.49e+00	0	24	104	0	83	24183
2026-01-10 11:29:55.08	247.08	28.62	-59.1	-75.1	3.8	1.49e+00	0	24	104	0	83	24109
2026-01-10 11:29:59.08	248.31	28.88	-59.1	-75.1	3.8	1.49e+00	0	24	104	0	83	24027
2026-01-10 11:30:03.11	249.58	29.14	-59.1	-75.1	3.8	1.49e+00	0	24	104	0	83	24081
2026-01-10 11:30:07.13	250.85	29.37	-59.1	-75.1	3.8	1.49e+00	0	24	104	0	83	24088
2026-01-10 11:30:11.14	252.14	29.60	-59.1	-75.1	3.8	1.49e+00	0	24	104	0	83	24046
2026-01-10 11:30:15.14	253.45	29.81	-59.1	-75.1	3.8	1.49e+00	0	23	104	0	83	24095
2026-01-10 11:30:19.16	254.78	30.00	-59.1	-75.1	3.8	1.49e+00	0	24	104	0	83	24107
2026-01-10 11:30:23.18	256.12	30.19	-59.1	-75.1	3.8	1.49e+00	0	24	104	0	83	24123
2026-01-10 11:30:27.20	257.48	30.35	-59.1	-75.1	3.8	1.49e+00	0	24	104	0	83	24073
2026-01-10 11:30:31.21	258.84	30.50	-59.1	-75.1	3.8	1.49e+00	0	23	104	0	83	24046
2026-01-10 11:30:35.21	260.22	30.63	-59.1	-75.1	3.8	1.49e+00	0	24	104	0	83	24111
2026-01-10 11:30:39.23	261.61	30.74	-59.1	-75.1	3.8	1.49e+00	0	24	104	0	83	24021
2026-01-10 11:30:43.26	263.01	30.84	-59.0	-75.1	3.8	1.49e+00	0	24	104	0	83	24026
2026-01-10 11:30:47.28	264.42	30.91	-59.0	-75.1	3.8	1.49e+00	0	24	104	0	83	23955
2026-01-10 11:30:51.29	265.83	30.97	-59.0	-75.1	3.8	1.49e+00	0	24	104	0	83	24035
2026-01-10 11:30:55.30	267.25	31.01	-59.0	-75.1	3.8	1.49e+00	0	24	104	0	83	23953
2026-01-10 11:30:59.31	268.66	31.03	-59.0	-75.1	3.8	1.49e+00	0	24	104	0	83	23985
2026-01-10 11:31:03.33	270.08	31.03	-59.1	-75.1	3.8	1.49e+00	0	24	104	0	83	24014
2026-01-10 11:31:07.35	271.50	31.02	-59.0	-75.1	3.8	1.49e+00	0	23	104	0	83	24004
2026-01-10 11:31:11.36	272.92	30.98	-59.0	-75.1	3.8	1.49e+00	0	24	104	0	83	23965
2026-01-10 11:31:15.37	274.33	30.93	-59.0	-75.1	3.8	1.49e+00	0	23	104	0	83	24016
2026-01-10 11:31:19.34	275.72	30.85	-59.0	-75.1	3.8	1.49e+00	0	24	104	0	83	23910
2026-01-10 11:31:23.31	277.10	30.76	-59.0	-75.1	3.8	1.49e+00	0	24	104	0	83	23899
2026-01-10 11:31:27.29	278.48	30.66	-59.0	-75.1	3.8	1.49e+00	0	24	104	0	83	23931
2026-01-10 11:31:31.26	279.85	30.53	-59.0	-75.1	3.8	1.49e+00	0	24	104	0	83	23894
2026-01-10 11:31:35.24	281.20	30.39	-59.0	-75.1	3.8	1.49e+00	0	24	104	0	83	23891
2026-01-10 11:31:39.22	282.55	30.23	-59.0	-75.0	3.8	1.49e+00	0	24	104	0	83	23853
2026-01-10 11:31:43.19	283.88	30.06	-59.0	-75.1	3.8	1.49e+00	0	24	104	0	83	23890
2026-01-10 11:31:47.18	285.20	29.87	-59.0	-75.1	3.8	1.49e+00	0	24	104	0	83	23905
2026-01-10 11:31:51.13	286.49	29.66	-59.0	-75.1	3.8	1.49e+00	0	24	104	0	83	23947
2026-01-10 11:31:55.10	287.77	29.45	-59.0	-75.1	3.8	1.49e+00	0	23	104	0	83	23914
2026-01-10 11:31:59.08	289.03	29.22	-59.0	-75.1	3.8	1.49e+00	0	24	104	0	83	23943
2026-01-10 11:32:03.05	290.28	28.97	-59.0	-75.1	3.8	1.49e+00	0	24	104	0	83	23930
2026-01-10 11:32:07.04	291.51	28.72	-59.0	-75.1	3.8	1.49e+00	0	24	104	0	83	23872
2026-01-10 11:32:10.95	292.70	28.45	-59.0	-75.0	3.8	1.49e+00	0	24	104	0	83	23838
2026-01-10 11:32:14.92	293.89	28.18	-59.0	-75.1	3.8	1.49e+00	0	24	104	0	83	23922
2026-01-10 11:32:18.90	295.06	27.89	-59.0	-75.0	3.8	1.49e+00	0	24	104	0	83	23835
2026-01-10 11:32:22.87	296.20	27.59	-59.0	-75.1	3.8	1.49e+00	0	24	104	0	83	23868
2026-01-10 11:32:26.84	297.33	27.29	-59.0	-75.1	3.8	1.49e+00	0	24	104	0	83	23883
2026-01-10 11:32:30.83	298.44	26.97	-59.0	-75.1	3.8	1.49e+00	0	24	104	0	83	23857
2026-01-10 11:32:34.81	299.52	26.65	-59.0	-75.1	3.8	1.49e+00	0	23	104	0	83	23904
2026-01-10 11:32:38.79	300.58	26.33	-59.0	-75.1	3.8	1.49e+00	0	24	104	0	83	23875
2026-01-10 11:32:42.77	301.63	25.99	-59.0	-75.1	3.8	1.49e+00	0	24	104	0	83	23912
2026-01-10 11:32:46.76	302.65	25.65	-59.0	-75.1	3.8	1.49e+00	0	24	104	0	83	23884
2026-01-10 11:32:50.75	303.65	25.31	-59.0	-75.1	3.8	1.49e+00	0	24	104	0	83	23892
2026-01-10 11:32:54.74	304.63	24.96	-59.0	-75.1	3.8	1.49e+00	0	24	104	0	83	23872
2026-01-10 11:32:58.72	305.59	24.61	-59.0	-75.0	3.8	1.49e+00	0	24	104	0	83	23815
2026-01-10 11:33:02.71	306.52	24.26	-59.0	-75.0	3.8	1.49e+00	0	24	104	0	83	23773
2026-01-10 11:33:06.69	307.44	23.90	-59.0	-75.0	3.8	1.49e+00	0	24	104	0	83	23817
2026-01-10 11:33:10.68	308.34	23.54	-59.0	-75.0	3.8	1.49e+00	0	24	104	0	83	23851
2026-01-10 11:33:14.65	309.21	23.18	-59.0	-75.1	3.8	1.49e+00	0	24	104	0	83	23890
2026-01-10 11:33:18.62	310.06	22.81	-59.0	-75.1	3.8	1.49e+00	0	24	104	0	83	23886
2026-01-10 11:33:22.61	310.90	22.45	-59.0	-75.0	3.8	1.49e+00	0	24	104	0	83	23812
2026-01-10 11:33:26.59	311.72	22.09	-59.0	-75.0	3.8	1.49e+00	0	24	104	0	83	23841
2026-01-10 11:33:30.57	312.52	21.72	-59.0	-75.0	3.8	1.49e+00	0	24	104	0	83	23848
2026-01-10 11:33:34.54	313.30	21.36	-59.0	-75.0	3.8	1.49e+00	0	24	104	0	83	23836
2026-01-10 11:33:38.52	314.06	20.99	-59.0	-75.0	3.8	1.49e+00	0	24	104	0	83	23846
2026-01-10 11:33:42.51	314.81	20.63	-59.0	-75.0	3.8	1.49e+00	0	24	104	0	83	23833
2026-01-10 11:33:46.49	315.53	20.26	-59.0	-75.0	3.8	1.49e+00	0	24	104	0	83	23842
2026-01-10 11:33:50.47	316.25	19.90	-59.0	-75.0	3.8	1.49e+00	0	24	104	0	83	23768
2026-01-10 11:33:54.45	316.94	19.54	-59.0	-75.0	3.8	1.49e+00	0	24	104	0	83	23784
2026-01-10 11:33:58.42	317.62	19.18	-59.0	-75.0	3.8	1.49e+00	0	24	104	0	83	23773
2026-01-10 11:34:02.40	318.28	18.82	-59.0	-75.0	3.8	1.49e+00	0	24	104	0	83	23836
2026-01-10 11:34:06.38	318.93	18.46	-59.0	-75.1	3.8	1.49e+00	0	24	104	0	83	23876
2026-01-10 11:34:10.35	319.57	18.11	-59.0	-75.1	3.8	1.49e+00	0	24	104	0	83	23857
2026-01-10 11:34:14.31	320.19	17.75	-59.0	-75.0	3.8	1.49e+00	0	24	104	0	83	23828
2026-01-10 11:34:18.28	320.79	17.40	-59.0	-75.1	3.8	1.49e+00	0	24	104	0	83	23872
2026-01-10 11:34:22.25	321.38	17.05	-59.0	-75.0	3.8	1.49e+00	0	24	104	0	83	23818
2026-01-10 11:34:26.24	321.96	16.70	-59.0	-75.0	3.8	1.49e+00	0	24	104	0	83	23792
2026-01-10 11:34:30.22	322.53	16.36	-59.0	-75.0	3.8	1.49e+00	0	24	104	0	83	23847
2026-01-10 11:34:34.20	323.09	16.02	-59.0	-75.1	3.8	1.49e+00	0	24	104	0	83	23889
2026-01-10 11:34:38.17	323.63	15.68	-59.0	-75.0	3.8	1.49e+00	0	24	104	0	83	23852
2026-01-10 11:34:42.14	324.16	15.34	-59.0	-75.0	3.8	1.49e+00	0	24	104	0	83	23833
2026-01-10 11:34:46.10	324.68	15.00	-59.0	-75.1	3.8	1.49e+00	0	24	104	0	83	23881
2026-01-10 11:34:50.08	325.18	14.67	-59.0	-75.0	3.8	1.49e+00	0	24	104	0	83	23783
2026-01-10 11:34:54.07	325.68	14.34	-59.0	-75.0	3.8	1.49e+00	0	24	104	0	83	23829
2026-01-10 11:34:58.06	326.17	14.01	-59.0	-75.0	3.8	1.49e+00	0	24	104	0	83	23797
2026-01-10 11:35:02.02	326.65	13.69	-59.0	-75.0	3.8	1.49e+00	0	24	104	0	83	23848
2026-01-10 11:35:06.02	327.12	13.36	-59.0	-75.0	3.8	1.49e+00	0	24	104	0	83	23834
2026-01-10 11:35:10.00	327.58	13.04	-59.0	-75.0	3.8	1.49e+00	0	24	104	0	83	23840
2026-01-10 11:35:13.97	328.02	12.73	-59.0	-75.0	3.8	1.49e+00	0	24	104	0	83	23832
2026-01-10 11:35:17.94	328.46	12.41	-59.0	-75.0	3.8	1.49e+00	0	24	104	0	83	23813
2026-01-10 11:35:21.92	328.89	12.10	-59.0	-75.0	3.8	1.49e+00	0	24	104	0	83	23838
2026-01-10 11:35:25.91	329.31	11.79	-59.0	-75.0	3.8	1.49e+00	0	24	104	0	83	23755
2026-01-10 11:35:29.89	329.73	11.48	-59.0	-75.0	3.8	1.49e+00	0	24	104	0	83	23805
2026-01-10 11:35:33.87	330.13	11.18	-59.0	-75.0	3.8	1.49e+00	0	24	104	0	83	23840
2026-01-10 11:35:37.85	330.53	10.88	-59.0	-75.0	3.8	1.49e+00	0	24	104	0	83	23815
2026-01-10 11:35:41.83	330.92	10.58	-59.0	-75.0	3.8	1.49e+00	0	24	104	0	83	23823
2026-01-10 11:35:45.82	331.30	10.28	-59.0	-75.0	3.8	1.49e+00	0	24	104	0	83	23795
2026-01-10 11:35:49.81	331.68	9.98	-59.0	-75.0	3.8	1.49e+00	0	24	104	0	83	23823
2026-01-10 11:35:53.79	332.05	9.69	-59.0	-75.0	3.8	1.49e+00	0	24	104	0	83	23804
2026-01-10 11:35:57.75	332.41	9.40	-59.0	-75.0	3.8	1.49e+00	0	24	104	0	83	23778
2026-01-10 11:36:01.71	332.76	9.12	-59.0	-75.0	3.8	1.49e+00	0	23	104	0	83	23755
2026-01-10 11:36:05.69	333.11	8.83	-59.0	-75.0	3.8	1.49e+00	0	24	104	0	83	23751
2026-01-10 11:36:09.68	333.45	8.55	-59.0	-75.0	3.8	1.49e+00	0	24	104	0	83	23772
2026-01-10 11:36:13.66	333.79	8.27	-59.0	-75.0	3.8	1.49e+00	0	24	104	0	83	23780
2026-01-10 11:36:17.63	334.12	7.99	-58.9	-75.0	3.8	1.49e+00	0	24	104	0	83	23776
2026-01-10 11:36:21.61	334.44	7.72	-59.0	-75.0	3.8	1.49e+00	0	24	104	0	83	23795
2026-01-10 11:36:25.58	334.76	7.44	-59.0	-75.0	3.8	1.49e+00	0	24	104	0	83	23790
2026-01-10 11:36:29.56	335.07	7.17	-59.0	-75.0	3.8	1.49e+00	0	24	104	0	83	23769
2026-01-10 11:36:33.56	335.38	6.90	-59.0	-75.0	3.8	1.49e+00	0	24	104	0	83	23790
2026-01-10 11:36:37.55	335.68	6.64	-59.0	-75.0	3.8	1.49e+00	0	24	104	0	83	23763
2026-01-10 11:36:41.53	335.98	6.37	-59.0	-75.0	3.8	1.49e+00	0	24	104	0	83	23734
2026-01-10 11:36:45.50	336.27	6.11	-59.0	-75.0	3.8	1.49e+00	0	23	104	0	83	23734
2026-01-10 11:36:49.48	336.56	5.85	-59.0	-75.0	3.8	1.49e+00	0	24	104	0	83	23813
2026-01-10 11:36:53.47	336.84	5.59	-59.0	-75.0	3.8	1.49e+00	0	24	104	0	83	23680
2026-01-10 11:36:57.44	337.12	5.34	-59.0	-75.0	3.8	1.49e+00	0	24	104	0	83	23754
2026-01-10 11:37:01.44	337.39	5.08	-59.0	-75.0	3.8	1.49e+00	0	23	104	0	83	23738
2026-01-10 11:37:05.43	337.66	4.83	-58.9	-75.0	3.8	1.49e+00	0	24	104	0	83	23756
2026-01-10 11:37:09.41	337.92	4.58	-58.9	-75.0	3.8	1.49e+00	0	24	104	0	83	23722
2026-01-10 11:37:13.39	338.18	4.33	-59.0	-75.0	3.8	1.49e+00	0	24	104	0	83	23741
2026-01-10 11:37:17.35	338.44	4.08	-58.9	-75.0	3.8	1.49e+00	0	24	104	0	83	23782
2026-01-10 11:37:21.32	338.69	3.84	-58.9	-75.0	3.8	1.49e+00	0	24	104	0	83	23781
2026-01-10 11:37:25.30	338.94	3.60	-59.0	-75.0	3.8	1.49e+00	0	24	104	0	83	23798
2026-01-10 11:37:29.28	339.19	3.35	-59.0	-75.0	3.8	1.49e+00	0	24	104	0	83	23722
2026-01-10 11:37:33.25	339.43	3.11	-59.0	-75.0	3.8	1.49e+00	0	24	104	0	83	23770
2026-01-10 11:37:37.23	339.66	2.88	-59.0	-75.0	3.8	1.49e+00	0	24	104	0	83	23782
2026-01-10 11:37:41.21	339.90	2.64	-58.9	-75.0	3.8	1.49e+00	0	24	104	0	83	23694
2026-01-10 11:37:45.19	340.13	2.41	-58.9	-75.0	3.8	1.49e+00	0	24	104	0	83	23681
2026-01-10 11:37:49.17	340.36	2.17	-59.0	-75.0	3.8	1.49e+00	0	23	104	0	83	23709
2026-01-10 11:37:53.15	340.58	1.94	-59.0	-75.0	3.8	1.49e+00	0	24	104	0	83	23779

#Closed at: 2026-01-10 11:37:54
#Recorded file [0 MB]: D:/lorett/data/31004_260110_142415.dat