passes_logs/2026/01/10/R3.2S_Murmansk/R3.2S_Murmansk__20260110_034520_FENGYUN_3D_rec.log

#Pass ID: 20260110_034520_FENGYUN 3D
#Satellite: FENGYUN 3D
#Configuration: FENGYUN 3D
#almurnet v.1.7.20251203
#Start time: 2026-01-10 03:45:21

#Version: 2.2.20231116
#Station: R3.2S_Murmansk
#Location: 33.079688 lon 68.888172 lat
#TLE: 1 43010U 17072A   26009.29492227  .00000158  00000+0  96483-4 0  9996
#TLE: 2 43010  98.9936 341.0229 0002153 117.3665 242.7729 14.19694440422446

#Time	Az	El	Level	Level2	SNR	BER	BlckErr	Temp	State	Recorded	gain1	gain2
2026-01-10 03:45:21.42	29.61	2.04	-57.0	-69.9	3.8	8.46e-01	0	21	0	0	80	15753
2026-01-10 03:45:25.42	29.53	2.30	-56.9	-69.9	3.8	8.47e-01	0	21	104	0	78	17560
2026-01-10 03:45:29.43	29.45	2.55	-56.9	-69.8	3.8	8.45e-01	0	21	104	0	78	17417
2026-01-10 03:45:33.45	29.36	2.81	-56.9	-69.7	3.8	8.45e-01	0	22	104	0	78	17158
2026-01-10 03:45:37.47	29.27	3.07	-56.9	-69.2	3.8	8.46e-01	0	22	104	0	78	16199
2026-01-10 03:45:41.48	29.18	3.34	-56.8	-68.5	3.8	8.45e-01	0	22	104	0	78	14946
2026-01-10 03:45:45.47	29.09	3.60	-56.8	-68.1	3.8	8.45e-01	0	22	104	0	78	14260
2026-01-10 03:45:49.48	29.00	3.87	-56.8	-68.5	3.8	8.45e-01	0	22	104	0	78	14953
2026-01-10 03:45:53.48	28.90	4.14	-56.1	-63.2	5.6	6.68e-01	0	22	0	1048576	78	8150
2026-01-10 03:45:57.47	28.80	4.41	-54.7	-58.9	9.2	1.68e-02	0	22	0	23068672	76	5586
2026-01-10 03:46:01.47	28.70	4.69	-54.0	-57.5	10.3	1.83e-03	0	22	0	46137344	74	5298
2026-01-10 03:46:05.48	28.60	4.97	-54.3	-58.1	9.8	3.61e-03	0	22	0	68157440	74	5680
2026-01-10 03:46:09.47	28.50	5.25	-54.7	-58.7	9.2	6.44e-01	0	22	0	89128960	76	5463
2026-01-10 03:46:13.48	28.39	5.54	-49.3	-50.8	14.6	0.00e+00	0	22	0	112197632	65	4116
2026-01-10 03:46:17.48	28.28	5.82	-49.2	-50.7	14.7	0.00e+00	0	23	0	134217728	65	4092
2026-01-10 03:46:21.48	28.17	6.11	-49.1	-50.6	14.6	0.00e+00	0	23	0	157286400	64	4291
2026-01-10 03:46:25.49	28.05	6.41	-49.0	-50.5	14.7	0.00e+00	0	23	0	179306496	64	4211
2026-01-10 03:46:29.50	27.93	6.71	-49.1	-50.6	14.7	0.00e+00	0	23	0	202375168	64	4246
2026-01-10 03:46:33.50	27.81	7.01	-48.8	-50.3	14.8	0.00e+00	0	23	0	224395264	64	4112
2026-01-10 03:46:37.51	27.69	7.31	-48.7	-50.1	14.8	0.00e+00	0	23	0	247463936	63	4289
2026-01-10 03:46:41.50	27.56	7.62	-48.7	-50.1	14.8	0.00e+00	0	23	0	269484032	63	4275
2026-01-10 03:46:45.50	27.43	7.93	-48.6	-50.0	14.9	0.00e+00	0	23	0	292552704	63	4216
2026-01-10 03:46:49.52	27.30	8.25	-48.7	-50.1	14.8	0.00e+00	0	23	0	314572800	63	4261
2026-01-10 03:46:53.52	27.17	8.56	-48.3	-49.6	15.1	0.00e+00	0	23	0	337641472	63	4039
2026-01-10 03:46:57.50	27.03	8.88	-48.3	-49.7	15.1	0.00e+00	0	23	0	359661568	63	4076
2026-01-10 03:47:01.50	26.89	9.21	-48.3	-49.7	15.1	0.00e+00	0	23	0	381681664	63	4054
2026-01-10 03:47:05.52	26.74	9.54	-48.1	-49.4	15.0	0.00e+00	0	23	0	404750336	62	4187
2026-01-10 03:47:09.53	26.59	9.88	-48.0	-49.3	15.1	0.00e+00	0	23	0	427819008	62	4107
2026-01-10 03:47:13.54	26.43	10.22	-48.0	-49.3	15.2	0.00e+00	0	23	0	449839104	62	4107
2026-01-10 03:47:17.55	26.28	10.56	-47.7	-49.0	15.3	0.00e+00	0	23	0	471859200	62	3977
2026-01-10 03:47:21.56	26.11	10.91	-47.5	-48.7	15.3	0.00e+00	0	23	0	494927872	61	4093
2026-01-10 03:47:25.55	25.95	11.26	-47.6	-48.8	15.3	0.00e+00	0	23	0	516947968	61	4130
2026-01-10 03:47:29.55	25.78	11.62	-47.5	-48.7	15.3	0.00e+00	0	23	0	540016640	61	4096
2026-01-10 03:47:33.56	25.60	11.99	-47.5	-48.8	15.3	0.00e+00	0	23	0	562036736	61	4104
2026-01-10 03:47:37.57	25.42	12.36	-47.4	-48.7	15.3	0.00e+00	0	23	0	585105408	61	4060
2026-01-10 03:47:41.57	25.24	12.73	-47.3	-48.6	15.4	0.00e+00	0	23	0	607125504	61	4012
2026-01-10 03:47:45.57	25.05	13.11	-47.2	-48.4	15.5	0.00e+00	0	23	0	630194176	61	3955
2026-01-10 03:47:49.58	24.85	13.49	-47.1	-48.3	15.4	0.00e+00	0	23	0	652214272	60	4105
2026-01-10 03:47:53.59	24.65	13.88	-46.9	-48.1	15.5	0.00e+00	0	23	0	675282944	60	4039
2026-01-10 03:47:57.57	24.44	14.28	-46.8	-48.0	15.5	0.00e+00	0	23	0	697303040	60	3968
2026-01-10 03:48:01.55	24.23	14.68	-46.8	-48.0	15.6	0.00e+00	0	23	0	719323136	60	3959
2026-01-10 03:48:05.55	24.01	15.09	-46.9	-48.2	15.3	0.00e+00	0	23	0	742391808	59	4292
2026-01-10 03:48:09.54	23.78	15.50	-47.0	-48.2	15.3	0.00e+00	0	23	0	764411904	59	4317
2026-01-10 03:48:13.54	23.55	15.92	-46.8	-48.0	15.4	0.00e+00	0	23	0	787480576	59	4202
2026-01-10 03:48:17.55	23.31	16.35	-46.6	-47.7	15.5	0.00e+00	0	23	0	809500672	59	4090
2026-01-10 03:48:21.55	23.06	16.79	-46.3	-47.5	15.6	0.00e+00	0	23	0	832569344	59	3980
2026-01-10 03:48:25.53	22.81	17.23	-46.4	-47.6	15.6	0.00e+00	0	23	0	854589440	59	4021
2026-01-10 03:48:29.52	22.55	17.68	-46.2	-47.3	15.6	0.00e+00	0	23	0	877658112	58	4133
2026-01-10 03:48:33.54	22.27	18.14	-45.9	-47.1	15.7	0.00e+00	0	23	0	899678208	58	4005
2026-01-10 03:48:37.53	21.99	18.61	-46.0	-47.1	15.6	0.00e+00	0	23	0	922746880	58	4035
2026-01-10 03:48:41.52	21.70	19.08	-46.0	-47.1	15.6	0.00e+00	0	23	0	944766976	58	4041
2026-01-10 03:48:45.51	21.40	19.56	-45.9	-47.0	15.7	0.00e+00	0	23	0	966787072	58	3993
2026-01-10 03:48:49.49	21.09	20.05	-46.0	-47.2	15.6	0.00e+00	0	23	0	989855744	58	4057
2026-01-10 03:48:53.48	20.77	20.55	-46.0	-47.2	15.6	0.00e+00	0	23	0	1011875840	58	4055
2026-01-10 03:48:57.46	20.44	21.06	-45.7	-46.8	15.8	0.00e+00	0	23	0	1034944512	58	3887
2026-01-10 03:49:01.47	20.10	21.58	-45.7	-46.8	15.6	0.00e+00	0	23	0	1056964608	57	4112
2026-01-10 03:49:05.46	19.74	22.10	-45.5	-46.7	15.7	0.00e+00	0	23	0	1080033280	57	4054
2026-01-10 03:49:09.45	19.38	22.64	-45.5	-46.6	15.7	0.00e+00	0	23	0	1102053376	57	4027
2026-01-10 03:49:13.45	18.99	23.19	-45.5	-46.6	15.7	0.00e+00	0	23	0	1124073472	57	4014
2026-01-10 03:49:17.46	18.60	23.75	-45.2	-46.3	15.8	0.00e+00	0	23	0	1147142144	57	3891
2026-01-10 03:49:21.45	18.18	24.32	-45.0	-46.1	15.8	0.00e+00	0	23	0	1169162240	56	4006
2026-01-10 03:49:25.45	17.76	24.90	-45.2	-46.3	15.7	0.00e+00	0	23	0	1192230912	56	4119
2026-01-10 03:49:29.45	17.31	25.49	-45.3	-46.4	15.7	0.00e+00	0	23	0	1214251008	56	4166
2026-01-10 03:49:33.44	16.85	26.09	-44.9	-46.0	15.8	0.00e+00	0	23	0	1236271104	56	3985
2026-01-10 03:49:37.44	16.37	26.71	-44.9	-45.9	15.8	0.00e+00	0	23	0	1259339776	56	3956
2026-01-10 03:49:41.44	15.87	27.34	-44.7	-45.8	15.9	0.00e+00	0	23	0	1281359872	56	3888
2026-01-10 03:49:45.43	15.35	27.97	-44.6	-45.7	15.7	0.00e+00	0	23	0	1304428544	55	4072
2026-01-10 03:49:49.41	14.81	28.62	-44.7	-45.8	15.7	0.00e+00	0	23	0	1326448640	55	4126
2026-01-10 03:49:53.42	14.24	29.29	-44.4	-45.5	15.8	0.00e+00	0	23	0	1349517312	55	3973
2026-01-10 03:49:57.40	13.65	29.96	-44.5	-45.5	15.8	0.00e+00	0	23	0	1371537408	55	4000
2026-01-10 03:50:01.39	13.04	30.64	-44.3	-45.4	15.9	0.00e+00	0	23	0	1393557504	55	3920
2026-01-10 03:50:05.39	12.39	31.35	-44.1	-45.2	15.8	0.00e+00	0	23	0	1416626176	54	4067
2026-01-10 03:50:09.41	11.71	32.06	-44.0	-45.0	15.8	0.00e+00	0	23	0	1438646272	54	4002
2026-01-10 03:50:13.41	11.01	32.79	-44.1	-45.2	15.8	0.00e+00	0	23	0	1461714944	54	4068
2026-01-10 03:50:17.41	10.27	33.53	-44.1	-45.2	15.8	0.00e+00	0	23	0	1484783616	54	4069
2026-01-10 03:50:21.40	9.49	34.28	-44.0	-45.0	15.8	0.00e+00	0	23	0	1506803712	54	3982
2026-01-10 03:50:25.40	8.68	35.04	-44.1	-45.2	15.8	0.00e+00	0	23	0	1528823808	54	4058
2026-01-10 03:50:29.39	7.83	35.82	-44.2	-45.2	15.8	0.00e+00	0	23	0	1551892480	54	4088
2026-01-10 03:50:33.37	6.94	36.60	-44.0	-45.1	15.8	0.00e+00	0	23	0	1573912576	54	4016
2026-01-10 03:50:37.37	6.00	37.40	-44.4	-45.5	15.8	0.00e+00	0	23	0	1596981248	54	4198
2026-01-10 03:50:41.37	5.02	38.21	-44.4	-45.4	15.8	0.00e+00	0	23	0	1619001344	54	4188
2026-01-10 03:50:45.36	3.98	39.02	-44.6	-45.7	15.7	0.00e+00	0	23	0	1641021440	54	4296
2026-01-10 03:50:49.36	2.89	39.85	-44.0	-45.1	15.8	0.00e+00	0	23	0	1664090112	54	4009
2026-01-10 03:50:53.34	1.74	40.68	-44.4	-45.5	15.7	0.00e+00	0	23	0	1686110208	54	4220
2026-01-10 03:50:57.33	0.53	41.51	-44.4	-45.5	15.7	0.00e+00	0	23	0	1709178880	54	4214
2026-01-10 03:51:01.33	359.25	42.35	-44.5	-45.6	15.7	0.00e+00	0	23	0	1731198976	54	4263
2026-01-10 03:51:05.31	357.91	43.19	-44.4	-45.5	15.7	0.00e+00	0	23	0	1753219072	54	4195
2026-01-10 03:51:09.31	356.49	44.04	-44.3	-45.3	15.8	0.00e+00	0	23	0	1776287744	54	4130
2026-01-10 03:51:13.31	354.99	44.88	-44.2	-45.3	15.8	0.00e+00	0	24	0	1798307840	54	4112
2026-01-10 03:51:17.31	353.41	45.72	-44.5	-45.6	15.7	0.00e+00	0	23	0	1821376512	54	4245
2026-01-10 03:51:21.30	351.75	46.54	-44.9	-46.0	15.7	0.00e+00	0	23	0	1843396608	55	4214
2026-01-10 03:51:25.30	349.99	47.36	-44.8	-45.9	15.7	0.00e+00	0	23	0	1866465280	55	4159
2026-01-10 03:51:29.30	348.14	48.16	-45.3	-46.4	15.7	0.00e+00	0	23	0	1888485376	56	4189
2026-01-10 03:51:33.29	346.20	48.94	-45.2	-46.3	15.7	0.00e+00	0	23	0	1910505472	56	4117
2026-01-10 03:51:37.29	344.15	49.69	-45.5	-46.6	15.6	0.00e+00	0	23	0	1933574144	56	4256
2026-01-10 03:51:41.29	342.00	50.42	-45.6	-46.7	15.6	0.00e+00	0	23	0	1955594240	56	4317
2026-01-10 03:51:45.27	339.75	51.11	-45.5	-46.5	15.6	0.00e+00	0	23	0	1978662912	56	4233
2026-01-10 03:51:49.27	337.39	51.76	-45.5	-46.6	15.6	0.00e+00	0	23	0	2000683008	56	4288
2026-01-10 03:51:53.25	334.94	52.37	-45.7	-46.8	15.6	0.00e+00	0	23	0	2022703104	56	4372
2026-01-10 03:51:57.24	332.38	52.92	-45.3	-46.4	15.7	0.00e+00	0	23	0	2045771776	56	4174
2026-01-10 03:52:01.23	329.73	53.43	-45.5	-46.6	15.6	0.00e+00	0	23	0	2067791872	56	4287
2026-01-10 03:52:05.23	326.98	53.87	-45.2	-46.2	15.7	0.00e+00	0	23	0	2090860544	56	4090
2026-01-10 03:52:09.23	324.16	54.25	-45.5	-46.6	15.7	0.00e+00	0	23	0	2112880640	56	4279
2026-01-10 03:52:13.24	321.25	54.56	-45.5	-46.6	15.7	0.00e+00	0	23	0	2135949312	57	4019
2026-01-10 03:52:17.23	318.31	54.79	-45.2	-46.3	15.9	0.00e+00	0	23	0	2157969408	57	3875
2026-01-10 03:52:21.23	315.32	54.95	-45.4	-46.4	15.8	0.00e+00	0	23	0	2181038080	57	3946
2026-01-10 03:52:25.24	312.29	55.03	-45.3	-46.4	15.9	0.00e+00	0	23	0	2203058176	57	3919
2026-01-10 03:52:29.23	309.27	55.03	-45.1	-46.1	15.8	0.00e+00	0	23	0	2226126848	56	4045
2026-01-10 03:52:33.24	306.25	54.95	-45.8	-46.9	15.7	0.00e+00	0	23	0	2248146944	57	4150
2026-01-10 03:52:37.23	303.26	54.79	-45.5	-46.6	15.8	0.00e+00	0	23	0	2270167040	57	4016
2026-01-10 03:52:41.23	300.31	54.56	-45.6	-46.7	15.7	0.00e+00	0	23	0	2293235712	57	4071
2026-01-10 03:52:45.23	297.41	54.25	-45.4	-46.4	15.8	0.00e+00	0	23	0	2315255808	57	3956
2026-01-10 03:52:49.24	294.58	53.87	-45.3	-46.4	15.9	0.00e+00	0	23	0	2338324480	57	3938
2026-01-10 03:52:53.24	291.83	53.43	-45.4	-46.4	15.8	0.00e+00	0	23	0	2360344576	57	3948
2026-01-10 03:52:57.23	289.17	52.92	-44.9	-46.0	15.8	0.00e+00	0	23	0	2383413248	56	3975
2026-01-10 03:53:01.24	286.60	52.36	-45.2	-46.3	15.8	0.00e+00	0	23	0	2405433344	56	4132
2026-01-10 03:53:05.22	284.15	51.76	-45.3	-46.3	15.7	0.00e+00	0	23	0	2428502016	56	4144
2026-01-10 03:53:09.23	281.78	51.10	-45.4	-46.5	15.7	0.00e+00	0	23	0	2450522112	56	4232
2026-01-10 03:53:13.23	279.52	50.40	-45.2	-46.2	15.7	0.00e+00	0	23	0	2473590784	56	4097
2026-01-10 03:53:17.24	277.36	49.67	-45.3	-46.3	15.7	0.00e+00	0	23	0	2495610880	56	4130
2026-01-10 03:53:21.24	275.31	48.92	-45.3	-46.4	15.7	0.00e+00	0	24	0	2518679552	56	4161
2026-01-10 03:53:25.24	273.36	48.13	-44.9	-46.0	15.9	0.00e+00	0	23	0	2540699648	56	3973
2026-01-10 03:53:29.24	271.50	47.33	-44.7	-45.7	15.9	0.00e+00	0	23	0	2562719744	56	3865
2026-01-10 03:53:33.24	269.75	46.51	-44.3	-45.4	15.9	0.00e+00	0	23	0	2585788416	55	3927
2026-01-10 03:53:37.23	268.08	45.69	-44.7	-45.7	15.8	0.00e+00	0	23	0	2607808512	55	4091
2026-01-10 03:53:41.24	266.50	44.85	-44.4	-45.4	15.9	0.00e+00	0	23	0	2630877184	55	3933
2026-01-10 03:53:45.24	265.00	44.00	-44.2	-45.3	15.8	0.00e+00	0	23	0	2652897280	54	4113
2026-01-10 03:53:49.24	263.57	43.16	-44.0	-45.0	15.8	0.00e+00	0	23	0	2675965952	54	4001
2026-01-10 03:53:53.24	262.23	42.31	-44.0	-45.1	15.8	0.00e+00	0	23	0	2697986048	54	4016
2026-01-10 03:53:57.23	260.95	41.47	-44.0	-45.0	15.9	0.00e+00	0	23	0	2721054720	54	4000
2026-01-10 03:54:01.24	259.73	40.62	-44.3	-45.4	15.8	0.00e+00	0	23	0	2743074816	54	4165
2026-01-10 03:54:05.23	258.59	39.79	-44.0	-45.0	15.8	0.00e+00	0	23	0	2766143488	54	4001
2026-01-10 03:54:09.23	257.49	38.96	-43.9	-45.0	15.9	0.00e+00	0	23	0	2788163584	54	3970
2026-01-10 03:54:13.23	256.45	38.14	-44.3	-45.3	15.8	0.00e+00	0	23	0	2810183680	54	4128
2026-01-10 03:54:17.23	255.46	37.33	-44.6	-45.7	15.7	0.00e+00	0	23	0	2833252352	54	4311
2026-01-10 03:54:21.23	254.52	36.53	-44.4	-45.5	15.7	0.00e+00	0	23	0	2855272448	54	4207
2026-01-10 03:54:25.24	253.63	35.74	-44.2	-45.2	15.8	0.00e+00	0	23	0	2878341120	54	4079
2026-01-10 03:54:29.24	252.77	34.97	-44.0	-45.0	15.8	0.00e+00	0	23	0	2900361216	54	3995
2026-01-10 03:54:33.25	251.96	34.20	-43.8	-44.9	15.9	0.00e+00	0	23	0	2923429888	54	3927
2026-01-10 03:54:37.24	251.19	33.45	-43.7	-44.7	15.8	0.00e+00	0	23	0	2945449984	53	4083
2026-01-10 03:54:41.25	250.45	32.70	-43.9	-44.9	15.8	0.00e+00	0	23	0	2968518656	53	4180
2026-01-10 03:54:45.25	249.74	31.98	-43.9	-44.9	15.8	0.00e+00	0	23	0	2990538752	53	4178
2026-01-10 03:54:49.24	249.07	31.26	-44.3	-45.4	15.7	0.00e+00	0	23	0	3013607424	53	4398
2026-01-10 03:54:53.24	248.42	30.56	-44.4	-45.5	15.7	0.00e+00	0	23	0	3035627520	54	4225
2026-01-10 03:54:57.25	247.80	29.87	-44.3	-45.3	15.7	0.00e+00	0	23	0	3057647616	54	4131
2026-01-10 03:55:01.24	247.21	29.19	-44.1	-45.1	15.8	0.00e+00	0	23	0	3080716288	54	4042
2026-01-10 03:55:05.22	246.65	28.53	-44.6	-45.6	15.7	0.00e+00	0	24	0	3102736384	54	4284
2026-01-10 03:55:09.21	246.10	27.88	-44.8	-45.9	15.6	0.00e+00	0	23	0	3125805056	54	4400
2026-01-10 03:55:13.22	245.58	27.24	-44.5	-45.6	15.7	0.00e+00	0	23	0	3147825152	54	4253
2026-01-10 03:55:17.21	245.08	26.61	-44.3	-45.4	15.7	0.00e+00	0	23	0	3170893824	54	4166
2026-01-10 03:55:21.22	244.60	25.99	-44.5	-45.6	15.7	0.00e+00	0	23	0	3192913920	54	4278
2026-01-10 03:55:25.23	244.13	25.39	-44.6	-45.7	15.6	0.00e+00	0	23	0	3215982592	54	4329
2026-01-10 03:55:29.23	243.69	24.80	-44.6	-45.7	15.6	0.00e+00	0	23	0	3238002688	54	4300
2026-01-10 03:55:33.23	243.26	24.21	-44.6	-45.6	15.6	0.00e+00	0	23	0	3261071360	54	4288
2026-01-10 03:55:37.21	242.85	23.65	-44.6	-45.7	15.6	0.00e+00	0	23	0	3283091456	54	4319
2026-01-10 03:55:41.22	242.45	23.09	-44.8	-45.9	15.6	0.00e+00	0	23	0	3306160128	54	4426
2026-01-10 03:55:45.22	242.07	22.54	-44.9	-46.0	15.6	0.00e+00	0	23	0	3328180224	55	4212
2026-01-10 03:55:49.21	241.70	22.00	-45.0	-46.1	15.6	0.00e+00	0	23	0	3350200320	55	4256
2026-01-10 03:55:53.21	241.34	21.47	-45.0	-46.1	15.6	0.00e+00	0	23	0	3373268992	55	4284
2026-01-10 03:55:57.20	241.00	20.95	-45.3	-46.4	15.5	0.00e+00	0	24	0	3395289088	55	4397
2026-01-10 03:56:01.19	240.66	20.44	-45.2	-46.3	15.5	0.00e+00	0	23	0	3418357760	55	4377
2026-01-10 03:56:05.18	240.34	19.94	-45.4	-46.5	15.5	0.00e+00	0	24	0	3440377856	55	4474
2026-01-10 03:56:09.16	240.03	19.45	-45.7	-46.9	15.5	0.00e+00	0	23	0	3462397952	56	4392
2026-01-10 03:56:13.14	239.73	18.97	-45.8	-46.9	15.5	0.00e+00	0	23	0	3485466624	56	4432
2026-01-10 03:56:17.14	239.44	18.49	-45.9	-47.0	15.5	0.00e+00	0	24	0	3507486720	56	4472
2026-01-10 03:56:21.13	239.16	18.03	-45.9	-47.1	15.5	0.00e+00	0	24	0	3530555392	57	4247
2026-01-10 03:56:25.12	238.89	17.57	-46.0	-47.2	15.5	0.00e+00	0	24	0	3552575488	57	4305
2026-01-10 03:56:29.12	238.62	17.12	-46.3	-47.4	15.4	0.00e+00	0	23	0	3574595584	57	4426
2026-01-10 03:56:33.11	238.37	16.68	-46.5	-47.6	15.4	0.00e+00	0	24	0	3597664256	58	4277
2026-01-10 03:56:37.09	238.12	16.24	-46.6	-47.8	15.4	0.00e+00	0	23	0	3619684352	58	4343
2026-01-10 03:56:41.09	237.88	15.81	-46.6	-47.8	15.4	0.00e+00	0	24	0	3642753024	58	4345
2026-01-10 03:56:45.10	237.64	15.39	-46.7	-47.9	15.3	0.00e+00	0	24	0	3664773120	58	4407
2026-01-10 03:56:49.09	237.41	14.97	-46.9	-48.1	15.3	0.00e+00	0	23	0	3686793216	58	4499
2026-01-10 03:56:53.09	237.19	14.57	-47.0	-48.2	15.3	0.00e+00	0	24	0	3709861888	59	4304
2026-01-10 03:56:57.09	236.98	14.16	-47.1	-48.4	15.3	0.00e+00	0	24	0	3731881984	59	4398
2026-01-10 03:57:01.07	236.77	13.77	-47.1	-48.3	15.3	0.00e+00	0	24	0	3754950656	59	4381
2026-01-10 03:57:05.06	236.57	13.38	-47.2	-48.4	15.2	0.00e+00	0	24	0	3776970752	59	4427
2026-01-10 03:57:09.05	236.37	12.99	-47.2	-48.4	15.2	0.00e+00	0	24	0	3800039424	59	4426
2026-01-10 03:57:13.03	236.18	12.62	-47.3	-48.5	15.2	0.00e+00	0	24	0	3822059520	59	4473
2026-01-10 03:57:17.01	235.99	12.24	-47.0	-48.2	15.4	0.00e+00	0	23	0	3844079616	60	4075
2026-01-10 03:57:21.01	235.81	11.88	-47.2	-48.4	15.3	0.00e+00	0	24	0	3867148288	60	4177
2026-01-10 03:57:25.00	235.64	11.51	-47.3	-48.5	15.2	0.00e+00	0	24	0	3889168384	60	4234
2026-01-10 03:57:29.01	235.46	11.15	-47.4	-48.6	15.2	0.00e+00	0	23	0	3912237056	60	4290
2026-01-10 03:57:33.01	235.29	10.80	-47.5	-48.7	15.1	0.00e+00	0	23	0	3934257152	60	4327
2026-01-10 03:57:37.02	235.13	10.45	-47.5	-48.8	15.1	0.00e+00	0	24	0	3957325824	60	4362
2026-01-10 03:57:41.02	234.97	10.11	-47.6	-48.8	15.1	0.00e+00	0	24	0	3979345920	60	4379
2026-01-10 03:57:45.01	234.81	9.77	-47.8	-49.1	15.0	0.00e+00	0	24	0	4002414592	60	4497
2026-01-10 03:57:49.01	234.66	9.43	-47.8	-49.1	15.0	0.00e+00	0	24	0	4024434688	60	4512
2026-01-10 03:57:53.02	234.51	9.10	-47.9	-49.2	15.0	0.00e+00	0	23	0	4047503360	61	4324
2026-01-10 03:57:57.00	234.37	8.78	-48.0	-49.3	15.0	0.00e+00	0	24	0	4069523456	61	4373
2026-01-10 03:58:00.99	234.23	8.45	-48.0	-49.4	14.9	0.00e+00	0	24	0	4091543552	61	4396
2026-01-10 03:58:04.97	234.09	8.14	-48.2	-49.5	14.8	0.00e+00	0	24	0	4114612224	61	4463
2026-01-10 03:58:08.95	233.96	7.82	-48.2	-49.6	14.8	0.00e+00	0	24	0	4136632320	61	4504
2026-01-10 03:58:12.93	233.83	7.51	-48.4	-49.8	14.8	0.00e+00	0	24	0	4158652416	62	4358
2026-01-10 03:58:16.91	233.70	7.21	-48.4	-49.8	14.8	0.00e+00	0	24	0	4181721088	62	4361
2026-01-10 03:58:20.90	233.57	6.90	-48.6	-50.0	14.7	0.00e+00	0	24	0	4203741184	62	4486
2026-01-10 03:58:24.89	233.45	6.60	-48.4	-49.8	14.8	0.00e+00	0	24	0	4225761280	62	4341
2026-01-10 03:58:28.87	233.33	6.31	-48.5	-49.9	14.7	0.00e+00	0	24	0	4248829952	62	4421
2026-01-10 03:58:32.89	233.21	6.01	-48.8	-50.2	14.5	0.00e+00	0	24	0	4270850048	62	4573
2026-01-10 03:58:36.89	233.10	5.72	-48.7	-50.2	14.5	0.00e+00	0	24	0	4293918720	62	4561
2026-01-10 03:58:40.88	232.99	5.43	-49.1	-50.5	14.5	0.00e+00	0	24	0	4315938816	63	4488
2026-01-10 03:58:44.88	232.88	5.15	-48.9	-50.4	14.5	0.00e+00	0	24	0	4339007488	63	4409
2026-01-10 03:58:48.88	232.77	4.87	-58.5	-71.6	3.8	8.47e-01	0	23	104	4348444672	82	16955
2026-01-10 03:58:52.88	232.67	4.59	-59.0	-72.0	3.8	8.47e-01	0	24	104	4348444672	83	16836
2026-01-10 03:58:56.89	232.56	4.31	-59.2	-72.2	3.8	8.45e-01	0	24	104	4348444672	83	17211
2026-01-10 03:59:00.91	232.46	4.03	-59.2	-72.3	3.8	8.46e-01	0	24	104	4348444672	83	17398
2026-01-10 03:59:04.89	232.36	3.76	-59.3	-72.4	3.8	8.46e-01	0	24	104	4348444672	83	17515
2026-01-10 03:59:08.88	232.27	3.50	-59.4	-72.4	3.8	8.46e-01	0	23	104	4348444672	83	17636
2026-01-10 03:59:12.89	232.17	3.23	-59.3	-72.3	3.8	8.46e-01	0	23	104	4348444672	83	17413
2026-01-10 03:59:16.90	232.08	2.97	-59.3	-72.3	3.8	8.45e-01	0	24	104	4348444672	83	17430
2026-01-10 03:59:20.91	231.99	2.70	-59.2	-72.3	3.8	8.45e-01	0	24	104	4348444672	83	17299
2026-01-10 03:59:24.92	231.90	2.44	-59.2	-72.3	3.8	8.46e-01	0	24	104	4348444672	83	17326
2026-01-10 03:59:28.94	231.81	2.19	-59.2	-72.3	3.8	8.46e-01	0	24	104	4348444672	83	17374

#Closed at: 2026-01-10 03:59:32
#Recorded file [4348 MB]: D:/lorett/data/31004_260110_064521.dat