passes_logs/2026/01/10/R3.2S_Murmansk/R3.2S_Murmansk__20260110_205539_NOAA_21_JPSS-2_rec.log

#Pass ID: 20260110_205539_NOAA 21 (JPSS-2)
#Satellite: NOAA 21 (JPSS-2)
#Configuration: NOAA-21
#almurnet v.1.7.20251203
#Start time: 2026-01-10 20:55:41

#Version: 2.2.20231116
#Station: R3.2S_Murmansk
#Location: 33.079688 lon 68.888172 lat
#TLE: 1 54234U 22150A   26009.79679979  .00000100  00000+0  68070-4 0  9993
#TLE: 2 54234  98.7494 310.7596 0000833 322.2782  37.8335 14.19533646164071

#Time	Az	El	Level	Level2	SNR	BER	BlckErr	Temp	State	Recorded	gain1	gain2
2026-01-10 20:55:41.75	18.92	2.08	-56.8	-70.5	3.8	1.49e+00	0	21	0	0	80	16832
2026-01-10 20:55:44.74	19.24	2.20	-56.7	-70.4	3.8	1.49e+00	0	21	104	0	78	18714
2026-01-10 20:55:47.74	19.57	2.32	-56.8	-70.4	3.8	1.49e+00	0	21	104	0	78	18531
2026-01-10 20:55:50.75	19.89	2.44	-56.7	-70.3	3.8	1.49e+00	0	21	104	0	78	18465
2026-01-10 20:55:53.75	20.22	2.56	-56.7	-70.4	3.8	1.49e+00	0	22	104	0	78	18546
2026-01-10 20:55:56.76	20.56	2.68	-56.7	-70.2	3.8	1.49e+00	0	22	104	0	78	18157
2026-01-10 20:55:59.76	20.89	2.79	-56.8	-70.2	3.8	1.49e+00	0	22	104	0	78	18277
2026-01-10 20:56:02.77	21.23	2.91	-56.8	-70.4	3.8	1.49e+00	0	22	104	0	78	18611
2026-01-10 20:56:05.76	21.57	3.03	-56.8	-70.5	3.8	1.49e+00	0	22	104	0	78	18857
2026-01-10 20:56:08.76	21.91	3.14	-56.8	-70.4	3.8	1.49e+00	0	22	104	0	78	18644
2026-01-10 20:56:11.76	22.25	3.26	-56.8	-70.4	3.8	1.49e+00	0	22	104	0	78	18627
2026-01-10 20:56:14.77	22.60	3.38	-56.8	-70.5	3.8	1.49e+00	0	22	104	0	78	18739
2026-01-10 20:56:17.75	22.95	3.49	-56.8	-70.5	3.8	1.49e+00	0	22	104	0	78	18882
2026-01-10 20:56:20.75	23.30	3.61	-56.8	-70.4	3.8	1.49e+00	0	22	104	0	78	18524
2026-01-10 20:56:23.75	23.66	3.72	-56.8	-70.4	3.8	1.49e+00	0	22	104	0	78	18589
2026-01-10 20:56:26.76	24.02	3.84	-56.8	-70.5	3.8	1.49e+00	0	22	104	0	78	18917
2026-01-10 20:56:29.76	24.38	3.95	-56.8	-70.5	3.8	1.49e+00	0	22	104	0	78	18865
2026-01-10 20:56:32.75	24.74	4.07	-56.8	-70.5	3.8	1.49e+00	0	23	104	0	78	18873
2026-01-10 20:56:35.76	25.11	4.18	-56.8	-70.5	3.8	1.49e+00	0	22	104	0	78	18882
2026-01-10 20:56:38.77	25.47	4.30	-56.8	-70.5	3.8	1.49e+00	0	23	104	0	78	18922
2026-01-10 20:56:41.77	25.85	4.41	-56.8	-70.0	3.8	1.49e+00	0	23	104	0	78	17875
2026-01-10 20:56:44.77	26.22	4.52	-56.7	-69.2	3.8	1.49e+00	0	23	104	0	78	16183
2026-01-10 20:56:47.78	26.60	4.63	-56.1	-63.6	5.8	4.66e-01	0	23	0	1048576	78	8517
2026-01-10 20:56:50.79	26.98	4.74	-54.8	-59.3	9.3	1.39e-02	0	23	0	10485760	76	5829
2026-01-10 20:56:53.79	27.36	4.85	-54.3	-58.3	10.1	1.71e-03	0	23	0	19922944	74	5797
2026-01-10 20:56:56.80	27.75	4.96	-55.2	-60.5	8.0	3.57e-02	0	23	0	29360128	75	7110
2026-01-10 20:56:59.81	28.14	5.07	-56.3	-67.6	3.9	8.20e-01	0	23	104	37748736	77	14237
2026-01-10 20:57:02.82	28.53	5.18	-56.5	-64.8	5.3	3.13e-02	0	23	0	44040192	78	9718
2026-01-10 20:57:05.83	28.92	5.29	-52.8	-55.3	12.6	2.20e-06	0	23	0	51380224	71	4904
2026-01-10 20:57:08.83	29.32	5.40	-52.3	-54.5	13.2	0.00e+00	0	23	0	60817408	71	4485
2026-01-10 20:57:11.82	29.72	5.50	-52.0	-54.1	13.4	0.00e+00	0	23	0	70254592	70	4510
2026-01-10 20:57:14.82	30.12	5.61	-51.1	-52.9	13.9	0.00e+00	0	23	0	79691776	68	4440
2026-01-10 20:57:17.81	30.52	5.72	-50.8	-52.6	14.2	0.00e+00	0	23	0	89128960	68	4267
2026-01-10 20:57:20.80	30.93	5.82	-50.8	-52.5	14.2	0.00e+00	0	23	0	98566144	68	4236
2026-01-10 20:57:23.80	31.34	5.92	-50.6	-52.4	14.1	0.00e+00	0	23	0	108003328	67	4410
2026-01-10 20:57:26.80	31.75	6.03	-50.6	-52.4	14.1	0.00e+00	0	23	0	116391936	67	4396
2026-01-10 20:57:29.80	32.17	6.13	-50.5	-52.3	14.2	0.00e+00	0	23	0	126877696	67	4349
2026-01-10 20:57:32.81	32.59	6.23	-50.3	-52.0	14.3	0.00e+00	0	23	0	135266304	67	4229
2026-01-10 20:57:35.81	33.01	6.33	-50.3	-52.0	14.4	0.00e+00	0	23	0	144703488	67	4227
2026-01-10 20:57:38.81	33.43	6.43	-50.4	-52.1	14.3	0.00e+00	0	23	0	154140672	67	4284
2026-01-10 20:57:41.81	33.86	6.53	-50.5	-52.2	14.3	0.00e+00	0	23	0	163577856	67	4301
2026-01-10 20:57:44.82	34.29	6.63	-50.5	-52.2	14.3	0.00e+00	0	23	0	173015040	67	4324
2026-01-10 20:57:47.83	34.73	6.72	-50.3	-51.9	14.4	0.00e+00	0	23	0	182452224	67	4190
2026-01-10 20:57:50.83	35.16	6.82	-50.3	-51.9	14.4	0.00e+00	0	23	0	191889408	67	4191
2026-01-10 20:57:53.81	35.60	6.91	-50.2	-51.8	14.4	0.00e+00	0	23	0	201326592	66	4365
2026-01-10 20:57:56.82	36.04	7.01	-50.5	-52.2	14.1	0.00e+00	0	23	0	210763776	66	4549
2026-01-10 20:57:59.81	36.48	7.10	-50.3	-51.9	14.3	0.00e+00	0	23	0	220200960	66	4424
2026-01-10 20:58:02.81	36.93	7.19	-50.3	-51.9	14.2	0.00e+00	0	23	0	229638144	66	4440
2026-01-10 20:58:05.80	37.38	7.28	-50.0	-51.6	14.4	0.00e+00	0	23	0	239075328	66	4277
2026-01-10 20:58:08.81	37.83	7.37	-50.1	-51.8	14.4	0.00e+00	0	23	0	248512512	66	4347
2026-01-10 20:58:11.83	38.29	7.46	-50.1	-51.8	14.4	0.00e+00	0	23	0	257949696	66	4347
2026-01-10 20:58:14.83	38.74	7.54	-50.2	-51.8	14.4	0.00e+00	0	23	0	267386880	66	4357
2026-01-10 20:58:17.80	39.20	7.63	-50.4	-52.0	14.2	0.00e+00	0	23	0	276824064	66	4483
2026-01-10 20:58:20.80	39.66	7.71	-50.4	-52.1	14.2	0.00e+00	0	23	0	286261248	66	4498
2026-01-10 20:58:23.81	40.13	7.79	-50.1	-51.7	14.4	0.00e+00	0	23	0	294649856	66	4293
2026-01-10 20:58:26.80	40.59	7.87	-50.0	-51.5	14.5	0.00e+00	0	23	0	304087040	66	4238
2026-01-10 20:58:29.80	41.06	7.95	-49.9	-51.5	14.6	0.00e+00	0	23	0	313524224	66	4221
2026-01-10 20:58:32.79	41.53	8.03	-50.1	-51.6	14.5	0.00e+00	0	23	0	322961408	66	4286
2026-01-10 20:58:35.80	42.01	8.11	-50.0	-51.6	14.5	0.00e+00	0	23	0	332398592	66	4268
2026-01-10 20:58:38.81	42.49	8.19	-50.1	-51.7	14.4	0.00e+00	0	23	0	341835776	66	4309
2026-01-10 20:58:41.81	42.97	8.26	-49.9	-51.5	14.6	0.00e+00	0	23	0	351272960	66	4211
2026-01-10 20:58:44.80	43.45	8.33	-49.9	-51.4	14.6	0.00e+00	0	23	0	360710144	66	4179
2026-01-10 20:58:47.81	43.93	8.40	-49.9	-51.5	14.6	0.00e+00	0	23	0	370147328	66	4204
2026-01-10 20:58:50.80	44.42	8.47	-49.9	-51.5	14.5	0.00e+00	0	23	0	379584512	66	4228
2026-01-10 20:58:53.80	44.91	8.54	-50.0	-51.5	14.5	0.00e+00	0	23	0	389021696	66	4226
2026-01-10 20:58:56.80	45.40	8.61	-50.1	-51.7	14.4	0.00e+00	0	23	0	398458880	66	4317
2026-01-10 20:58:59.80	45.89	8.67	-50.0	-51.6	14.5	0.00e+00	0	23	0	407896064	66	4275
2026-01-10 20:59:02.80	46.38	8.74	-49.9	-51.5	14.5	0.00e+00	0	23	0	417333248	66	4223
2026-01-10 20:59:05.79	46.88	8.80	-49.9	-51.4	14.6	0.00e+00	0	23	0	426770432	66	4193
2026-01-10 20:59:08.79	47.38	8.86	-49.9	-51.4	14.6	0.00e+00	0	23	0	435159040	66	4167
2026-01-10 20:59:11.77	47.88	8.91	-50.1	-51.7	14.5	0.00e+00	0	23	0	444596224	66	4299
2026-01-10 20:59:14.78	48.38	8.97	-50.0	-51.6	14.5	0.00e+00	0	23	0	454033408	66	4263
2026-01-10 20:59:17.77	48.89	9.03	-50.1	-51.7	14.5	0.00e+00	0	23	0	463470592	66	4295
2026-01-10 20:59:20.76	49.39	9.08	-49.9	-51.5	14.6	0.00e+00	0	23	0	472907776	66	4219
2026-01-10 20:59:23.76	49.90	9.13	-50.0	-51.6	14.5	0.00e+00	0	23	0	482344960	66	4243
2026-01-10 20:59:26.75	50.41	9.18	-49.9	-51.5	14.6	0.00e+00	0	23	0	491782144	66	4217
2026-01-10 20:59:29.75	50.92	9.23	-49.8	-51.4	14.6	0.00e+00	0	23	0	501219328	66	4160
2026-01-10 20:59:32.74	51.43	9.27	-49.7	-51.2	14.7	0.00e+00	0	23	0	510656512	66	4082
2026-01-10 20:59:35.75	51.95	9.31	-49.8	-51.4	14.7	0.00e+00	0	23	0	520093696	66	4152
2026-01-10 20:59:38.75	52.46	9.36	-49.9	-51.5	14.6	0.00e+00	0	23	0	529530880	66	4204
2026-01-10 20:59:41.75	52.98	9.39	-49.9	-51.4	14.6	0.00e+00	0	23	0	538968064	66	4169
2026-01-10 20:59:44.74	53.50	9.43	-49.8	-51.4	14.7	0.00e+00	0	23	0	548405248	66	4148
2026-01-10 20:59:47.74	54.02	9.47	-49.8	-51.3	14.7	0.00e+00	0	23	0	557842432	66	4136
2026-01-10 20:59:50.74	54.54	9.50	-50.0	-51.5	14.6	0.00e+00	0	23	0	566231040	66	4238
2026-01-10 20:59:53.75	55.07	9.53	-49.8	-51.3	14.7	0.00e+00	0	23	0	576716800	66	4137
2026-01-10 20:59:56.76	55.59	9.56	-49.7	-51.2	14.6	0.00e+00	0	23	0	586153984	65	4307
2026-01-10 20:59:59.77	56.12	9.59	-49.6	-51.1	14.6	0.00e+00	0	23	0	594542592	65	4270
2026-01-10 21:00:02.77	56.64	9.61	-49.6	-51.1	14.6	0.00e+00	0	23	0	603979776	65	4290
2026-01-10 21:00:05.77	57.17	9.64	-49.7	-51.2	14.6	0.00e+00	0	23	0	613416960	65	4339
2026-01-10 21:00:08.78	57.70	9.66	-49.6	-51.1	14.7	0.00e+00	0	23	0	622854144	65	4267
2026-01-10 21:00:11.77	58.23	9.68	-49.5	-51.0	14.7	0.00e+00	0	23	0	632291328	65	4205
2026-01-10 21:00:14.78	58.76	9.70	-49.5	-51.0	14.7	0.00e+00	0	23	0	641728512	65	4226
2026-01-10 21:00:17.79	59.29	9.71	-49.6	-51.1	14.6	0.00e+00	0	23	0	651165696	65	4270
2026-01-10 21:00:20.77	59.81	9.72	-49.6	-51.1	14.6	0.00e+00	0	23	0	660602880	65	4291
2026-01-10 21:00:23.76	60.34	9.73	-49.7	-51.2	14.6	0.00e+00	0	23	0	670040064	65	4299
2026-01-10 21:00:26.75	60.87	9.74	-49.7	-51.2	14.6	0.00e+00	0	23	0	679477248	65	4313
2026-01-10 21:00:29.76	61.40	9.75	-49.7	-51.2	14.6	0.00e+00	0	23	0	688914432	65	4317
2026-01-10 21:00:32.78	61.94	9.75	-49.6	-51.1	14.6	0.00e+00	0	23	0	698351616	65	4280
2026-01-10 21:00:35.77	62.47	9.75	-49.6	-51.1	14.6	0.00e+00	0	23	0	707788800	65	4244
2026-01-10 21:00:38.77	63.00	9.75	-49.5	-50.9	14.7	0.00e+00	0	23	0	717225984	65	4182
2026-01-10 21:00:41.78	63.53	9.75	-49.3	-50.7	14.9	0.00e+00	0	23	0	726663168	65	4097
2026-01-10 21:00:44.79	64.07	9.75	-49.4	-50.8	14.8	0.00e+00	0	23	0	736100352	65	4141
2026-01-10 21:00:47.79	64.60	9.74	-49.5	-50.9	14.7	0.00e+00	0	23	0	744488960	65	4191
2026-01-10 21:00:50.78	65.13	9.73	-49.5	-51.0	14.7	0.00e+00	0	23	0	753926144	65	4199
2026-01-10 21:00:53.79	65.66	9.72	-49.5	-51.0	14.7	0.00e+00	0	23	0	763363328	65	4220
2026-01-10 21:00:56.79	66.19	9.71	-49.6	-51.1	14.6	0.00e+00	0	23	0	772800512	65	4277
2026-01-10 21:00:59.79	66.72	9.69	-49.4	-50.9	14.7	0.00e+00	0	23	0	782237696	65	4170
2026-01-10 21:01:02.79	67.25	9.68	-49.5	-51.0	14.7	0.00e+00	0	23	0	791674880	65	4194
2026-01-10 21:01:05.79	67.78	9.66	-49.5	-51.0	14.7	0.00e+00	0	23	0	801112064	65	4222
2026-01-10 21:01:08.80	68.31	9.64	-49.4	-50.8	14.8	0.00e+00	0	23	0	810549248	65	4136
2026-01-10 21:01:11.79	68.83	9.61	-49.4	-50.9	14.8	0.00e+00	0	23	0	819986432	65	4155
2026-01-10 21:01:14.80	69.36	9.59	-49.5	-51.0	14.7	0.00e+00	0	23	0	829423616	65	4221
2026-01-10 21:01:17.81	69.89	9.56	-49.5	-51.0	14.7	0.00e+00	0	23	0	838860800	65	4216
2026-01-10 21:01:20.79	70.41	9.53	-49.5	-51.0	14.7	0.00e+00	0	23	0	848297984	65	4229
2026-01-10 21:01:23.79	70.93	9.50	-49.5	-51.0	14.7	0.00e+00	0	23	0	857735168	65	4232
2026-01-10 21:01:26.77	71.45	9.46	-49.9	-51.5	14.4	0.00e+00	0	23	0	867172352	65	4444
2026-01-10 21:01:29.78	71.97	9.43	-49.7	-51.3	14.5	0.00e+00	0	23	0	876609536	65	4342
2026-01-10 21:01:32.78	72.49	9.39	-49.8	-51.4	14.5	0.00e+00	0	23	0	886046720	65	4393
2026-01-10 21:01:35.78	73.01	9.35	-49.8	-51.4	14.5	0.00e+00	0	23	0	895483904	65	4396
2026-01-10 21:01:38.78	73.53	9.31	-49.9	-51.5	14.4	0.00e+00	0	23	0	903872512	65	4476
2026-01-10 21:01:41.79	74.05	9.26	-49.8	-51.4	14.4	0.00e+00	0	23	0	913309696	65	4407
2026-01-10 21:01:44.81	74.56	9.22	-49.9	-51.5	14.4	0.00e+00	0	23	0	923795456	65	4449
2026-01-10 21:01:47.79	75.07	9.17	-49.9	-51.5	14.4	0.00e+00	0	23	0	932184064	65	4454
2026-01-10 21:01:50.79	75.58	9.12	-49.8	-51.4	14.4	0.00e+00	0	23	0	941621248	65	4400
2026-01-10 21:01:53.81	76.10	9.07	-49.7	-51.3	14.5	0.00e+00	0	23	0	951058432	65	4361
2026-01-10 21:01:56.82	76.61	9.02	-49.7	-51.2	14.5	0.00e+00	0	23	0	960495616	65	4335
2026-01-10 21:01:59.82	77.11	8.96	-49.6	-51.2	14.5	0.00e+00	0	23	0	969932800	65	4298
2026-01-10 21:02:02.83	77.62	8.90	-49.6	-51.1	14.6	0.00e+00	0	23	0	979369984	65	4271
2026-01-10 21:02:05.83	78.12	8.85	-49.6	-51.2	14.5	0.00e+00	0	23	0	988807168	65	4293
2026-01-10 21:02:08.84	78.62	8.79	-49.6	-51.1	14.6	0.00e+00	0	23	0	998244352	65	4289
2026-01-10 21:02:11.84	79.12	8.72	-49.6	-51.1	14.6	0.00e+00	0	23	0	1007681536	65	4266
2026-01-10 21:02:14.84	79.61	8.66	-49.6	-51.1	14.6	0.00e+00	0	23	0	1017118720	65	4286
2026-01-10 21:02:17.84	80.11	8.59	-49.5	-51.0	14.6	0.00e+00	0	23	0	1026555904	65	4240
2026-01-10 21:02:20.83	80.60	8.53	-49.3	-50.8	14.8	0.00e+00	0	24	0	1035993088	65	4105
2026-01-10 21:02:23.83	81.09	8.46	-49.5	-51.0	14.6	0.00e+00	0	23	0	1045430272	65	4228
2026-01-10 21:02:26.82	81.57	8.39	-49.5	-51.0	14.6	0.00e+00	0	23	0	1054867456	65	4239
2026-01-10 21:02:29.82	82.06	8.32	-49.6	-51.1	14.6	0.00e+00	0	23	0	1064304640	65	4253
2026-01-10 21:02:32.83	82.54	8.24	-49.6	-51.2	14.5	0.00e+00	0	23	0	1073741824	65	4310
2026-01-10 21:02:35.83	83.02	8.17	-49.8	-51.4	14.4	0.00e+00	0	23	0	1083179008	65	4399
2026-01-10 21:02:38.82	83.50	8.09	-49.8	-51.4	14.4	0.00e+00	0	23	0	1091567616	65	4410
2026-01-10 21:02:41.82	83.98	8.02	-49.7	-51.3	14.5	0.00e+00	0	23	0	1101004800	65	4353
2026-01-10 21:02:44.82	84.45	7.94	-50.0	-51.6	14.3	0.00e+00	0	23	0	1110441984	65	4530
2026-01-10 21:02:47.84	84.92	7.85	-50.0	-51.6	14.3	0.00e+00	0	23	0	1119879168	65	4508
2026-01-10 21:02:50.84	85.39	7.77	-49.9	-51.5	14.3	0.00e+00	0	23	0	1129316352	65	4456
2026-01-10 21:02:53.84	85.86	7.69	-49.8	-51.4	14.4	0.00e+00	0	23	0	1138753536	65	4399
2026-01-10 21:02:56.85	86.32	7.60	-49.7	-51.3	14.5	0.00e+00	0	23	0	1148190720	65	4348
2026-01-10 21:02:59.86	86.78	7.52	-49.7	-51.2	14.5	0.00e+00	0	23	0	1157627904	65	4330
2026-01-10 21:03:02.85	87.24	7.43	-49.8	-51.5	14.4	0.00e+00	0	23	0	1167065088	65	4442
2026-01-10 21:03:05.84	87.69	7.34	-49.9	-51.6	14.3	0.00e+00	0	23	0	1176502272	65	4494
2026-01-10 21:03:08.84	88.15	7.25	-50.0	-51.7	14.2	0.00e+00	0	23	0	1185939456	65	4566
2026-01-10 21:03:11.85	88.60	7.16	-50.0	-51.7	14.2	0.00e+00	0	23	0	1195376640	65	4576
2026-01-10 21:03:14.86	89.05	7.07	-49.9	-51.5	14.3	0.00e+00	0	23	0	1204813824	65	4480
2026-01-10 21:03:17.86	89.49	6.98	-49.9	-51.5	14.3	0.00e+00	0	23	0	1214251008	65	4452
2026-01-10 21:03:20.84	89.93	6.88	-50.1	-51.7	14.2	0.00e+00	0	23	0	1223688192	65	4579
2026-01-10 21:03:23.84	90.37	6.79	-50.3	-52.0	14.0	0.00e+00	0	23	0	1233125376	65	4728
2026-01-10 21:03:26.85	90.81	6.69	-50.4	-52.1	14.1	0.00e+00	0	23	0	1242562560	66	4538
2026-01-10 21:03:29.84	91.24	6.59	-50.3	-52.0	14.1	0.00e+00	0	23	0	1250951168	66	4493
2026-01-10 21:03:32.85	91.67	6.50	-50.3	-52.1	14.1	0.00e+00	0	23	0	1260388352	66	4499
2026-01-10 21:03:35.86	92.10	6.40	-50.4	-52.2	14.0	0.00e+00	0	23	0	1269825536	66	4562
2026-01-10 21:03:38.87	92.53	6.30	-50.3	-52.0	14.1	0.00e+00	0	23	0	1279262720	66	4470
2026-01-10 21:03:41.87	92.95	6.19	-50.4	-52.2	14.0	0.00e+00	0	23	0	1288699904	66	4549
2026-01-10 21:03:44.89	93.37	6.09	-50.7	-52.5	13.8	0.00e+00	0	23	0	1298137088	66	4718
2026-01-10 21:03:47.88	93.79	5.99	-50.7	-52.6	13.7	0.00e+00	0	23	0	1307574272	66	4772
2026-01-10 21:03:50.88	94.20	5.88	-50.5	-52.2	14.0	0.00e+00	0	23	0	1317011456	66	4586
2026-01-10 21:03:53.89	94.61	5.78	-50.6	-52.4	13.8	0.00e+00	0	23	0	1326448640	66	4667
2026-01-10 21:03:56.90	95.02	5.67	-50.3	-52.1	14.0	0.00e+00	0	23	0	1335885824	66	4506
2026-01-10 21:03:59.90	95.43	5.57	-50.5	-52.2	13.9	0.00e+00	0	23	0	1345323008	66	4593
2026-01-10 21:04:02.91	95.83	5.46	-50.2	-52.0	14.1	0.00e+00	0	23	0	1354760192	66	4446
2026-01-10 21:04:05.92	96.23	5.35	-50.5	-52.3	13.9	0.00e+00	0	23	0	1364197376	66	4633
2026-01-10 21:04:08.91	96.63	5.24	-50.7	-52.6	13.7	0.00e+00	0	23	0	1373634560	66	4775
2026-01-10 21:04:11.91	97.02	5.14	-50.5	-52.4	13.8	0.00e+00	0	23	0	1383071744	66	4654
2026-01-10 21:04:14.89	97.41	5.03	-50.7	-52.6	13.7	0.00e+00	0	23	0	1392508928	66	4764
2026-01-10 21:04:17.89	97.80	4.92	-57.9	-71.7	3.8	1.49e+00	0	24	104	1395654656	80	19204
2026-01-10 21:04:20.89	98.18	4.81	-58.5	-72.3	3.8	1.49e+00	0	24	104	1395654656	82	18507
2026-01-10 21:04:23.89	98.57	4.69	-58.8	-72.6	3.8	1.49e+00	0	23	104	1395654656	82	19005
2026-01-10 21:04:26.88	98.95	4.58	-59.0	-72.8	3.8	1.49e+00	0	23	104	1395654656	83	18497
2026-01-10 21:04:29.88	99.32	4.47	-59.2	-73.0	3.8	1.49e+00	0	24	104	1395654656	83	18830
2026-01-10 21:04:32.87	99.70	4.36	-59.3	-73.1	3.8	1.49e+00	0	24	104	1395654656	83	19083
2026-01-10 21:04:35.86	100.07	4.24	-59.4	-73.2	3.8	1.49e+00	0	24	104	1395654656	83	19344
2026-01-10 21:04:38.87	100.44	4.13	-59.7	-73.5	3.8	1.49e+00	0	24	104	1395654656	84	18913
2026-01-10 21:04:41.86	100.80	4.02	-59.8	-73.6	3.8	1.49e+00	0	23	104	1395654656	84	19046
2026-01-10 21:04:44.87	101.17	3.90	-59.7	-73.5	3.8	1.49e+00	0	24	104	1395654656	84	18924
2026-01-10 21:04:47.87	101.53	3.78	-59.7	-73.5	3.8	1.49e+00	0	24	104	1395654656	84	18814
2026-01-10 21:04:50.88	101.89	3.67	-59.6	-73.5	3.8	1.49e+00	0	23	104	1395654656	84	18767
2026-01-10 21:04:53.88	102.24	3.55	-59.6	-73.4	3.8	1.49e+00	0	24	104	1395654656	84	18676
2026-01-10 21:04:56.88	102.60	3.44	-59.6	-73.4	3.8	1.49e+00	0	24	104	1395654656	84	18679
2026-01-10 21:04:59.88	102.95	3.32	-59.6	-73.4	3.8	1.49e+00	0	24	104	1395654656	84	18574
2026-01-10 21:05:02.90	103.30	3.20	-59.6	-73.4	3.8	1.49e+00	0	24	104	1395654656	84	18581
2026-01-10 21:05:05.90	103.64	3.08	-59.6	-73.4	3.8	1.49e+00	0	24	104	1395654656	84	18543
2026-01-10 21:05:08.91	103.98	2.96	-59.6	-73.4	3.8	1.49e+00	0	24	104	1395654656	84	18584
2026-01-10 21:05:11.92	104.32	2.84	-59.5	-73.3	3.8	1.49e+00	0	24	104	1395654656	84	18493
2026-01-10 21:05:14.93	104.66	2.73	-59.5	-73.3	3.8	1.49e+00	0	24	104	1395654656	84	18472
2026-01-10 21:05:17.92	105.00	2.61	-59.5	-73.3	3.8	1.49e+00	0	24	104	1395654656	84	18488
2026-01-10 21:05:20.91	105.33	2.49	-59.5	-73.3	3.8	1.49e+00	0	24	104	1395654656	84	18452
2026-01-10 21:05:23.92	105.66	2.37	-59.5	-73.3	3.8	1.49e+00	0	24	104	1395654656	84	18482
2026-01-10 21:05:26.94	105.99	2.25	-59.5	-73.3	3.8	1.49e+00	0	24	104	1395654656	84	18421
2026-01-10 21:05:29.92	106.31	2.13	-59.5	-73.3	3.8	1.49e+00	0	24	104	1395654656	84	18397
2026-01-10 21:05:32.91	106.63	2.01	-59.5	-73.3	3.8	1.49e+00	0	23	104	1395654656	84	18358

#Closed at: 2026-01-10 21:05:34
#Recorded file [1395 MB]: D:/lorett/data/31004_260110_235541.dat