passes_logs/2026/01/10/R3.2S_Murmansk/R3.2S_Murmansk__20260110_071325_NOAA_21_JPSS-2_rec.log

#Pass ID: 20260110_071325_NOAA 21 (JPSS-2)
#Satellite: NOAA 21 (JPSS-2)
#Configuration: NOAA-21
#almurnet v.1.7.20251203
#Start time: 2026-01-10 07:13:27

#Version: 2.2.20231116
#Station: R3.2S_Murmansk
#Location: 33.079688 lon 68.888172 lat
#TLE: 1 54234U 22150A   26009.79679979  .00000100  00000+0  68070-4 0  9993
#TLE: 2 54234  98.7494 310.7596 0000833 322.2782  37.8335 14.19533646164071

#Time	Az	El	Level	Level2	SNR	BER	BlckErr	Temp	State	Recorded	gain1	gain2
2026-01-10 07:13:27.17	99.52	2.13	-57.1	-70.8	3.8	1.49e+00	0	21	0	0	80	17469
2026-01-10 07:13:31.20	99.33	2.37	-57.1	-70.9	3.8	1.49e+00	0	21	104	0	79	18549
2026-01-10 07:13:35.24	99.13	2.62	-56.9	-70.9	3.8	1.49e+00	0	21	104	0	79	18535
2026-01-10 07:13:39.28	98.93	2.87	-56.4	-70.9	3.8	1.49e+00	0	21	104	0	78	19737
2026-01-10 07:13:43.30	98.72	3.11	-56.7	-70.8	3.8	1.49e+00	0	21	104	0	79	18309
2026-01-10 07:13:47.34	98.52	3.37	-57.0	-70.9	3.8	1.49e+00	0	21	104	0	79	18609
2026-01-10 07:13:51.38	98.30	3.62	-56.8	-70.6	3.8	1.49e+00	0	22	104	0	79	17940
2026-01-10 07:13:55.41	98.09	3.88	-55.9	-70.9	3.8	1.49e+00	0	22	104	0	78	19631
2026-01-10 07:13:59.45	97.87	4.13	-56.6	-70.2	3.8	1.49e+00	0	22	104	0	79	17158
2026-01-10 07:14:03.48	97.64	4.39	-56.7	-66.4	4.5	1.37e+00	11	22	104	0	78	11715
2026-01-10 07:14:07.51	97.41	4.66	-56.0	-63.1	6.3	2.56e-01	0	22	0	8388608	77	8465
2026-01-10 07:14:11.55	97.18	4.92	-55.3	-61.5	7.7	6.05e-02	0	22	0	20971520	76	7475
2026-01-10 07:14:15.58	96.94	5.19	-56.0	-62.7	7.0	1.73e-03	0	22	0	33554432	77	8110
2026-01-10 07:14:19.61	96.70	5.45	-52.4	-54.8	13.0	0.00e+00	0	22	0	42991616	71	4599
2026-01-10 07:14:23.64	96.45	5.72	-51.1	-53.0	13.9	0.00e+00	0	22	0	55574528	68	4476
2026-01-10 07:14:27.66	96.20	6.00	-50.6	-52.4	14.1	0.00e+00	0	22	0	68157440	67	4434
2026-01-10 07:14:31.70	95.94	6.27	-50.7	-52.4	14.1	0.00e+00	0	22	0	80740352	67	4428
2026-01-10 07:14:35.73	95.68	6.55	-50.6	-52.3	14.2	0.00e+00	0	22	0	93323264	67	4377
2026-01-10 07:14:39.77	95.41	6.83	-50.4	-52.1	14.3	0.00e+00	0	22	0	105906176	67	4273
2026-01-10 07:14:43.80	95.14	7.11	-50.2	-51.8	14.3	0.00e+00	0	22	0	118489088	66	4385
2026-01-10 07:14:47.84	94.86	7.40	-50.1	-51.8	14.4	0.00e+00	0	22	0	131072000	66	4357
2026-01-10 07:14:51.87	94.58	7.68	-49.9	-51.5	14.6	0.00e+00	0	23	0	143654912	66	4230
2026-01-10 07:14:55.90	94.29	7.97	-49.5	-51.1	14.7	0.00e+00	0	22	0	156237824	65	4245
2026-01-10 07:14:59.94	93.99	8.27	-49.4	-50.9	14.8	0.00e+00	0	22	0	168820736	65	4162
2026-01-10 07:15:03.98	93.69	8.56	-49.4	-50.9	14.8	0.00e+00	0	22	0	181403648	65	4157
2026-01-10 07:15:08.01	93.38	8.86	-49.4	-50.9	14.8	0.00e+00	0	22	0	193986560	65	4154
2026-01-10 07:15:12.05	93.06	9.16	-49.3	-50.8	14.9	0.00e+00	0	23	0	206569472	65	4110
2026-01-10 07:15:16.08	92.74	9.47	-49.3	-50.7	14.9	0.00e+00	0	23	0	219152384	65	4079
2026-01-10 07:15:20.12	92.41	9.77	-49.1	-50.5	14.9	0.00e+00	0	23	0	231735296	64	4230
2026-01-10 07:15:24.16	92.07	10.08	-49.0	-50.4	14.9	0.00e+00	0	23	0	244318208	64	4166
2026-01-10 07:15:28.19	91.73	10.39	-49.0	-50.4	14.9	0.00e+00	0	23	0	256901120	64	4163
2026-01-10 07:15:32.23	91.38	10.71	-48.9	-50.3	15.0	0.00e+00	0	22	0	269484032	64	4108
2026-01-10 07:15:36.27	91.02	11.03	-48.8	-50.2	15.0	0.00e+00	0	22	0	282066944	64	4083
2026-01-10 07:15:40.30	90.65	11.35	-48.8	-50.1	15.1	0.00e+00	0	22	0	294649856	64	4034
2026-01-10 07:15:44.34	90.27	11.67	-48.7	-50.1	15.0	0.00e+00	0	23	0	307232768	63	4265
2026-01-10 07:15:48.38	89.89	12.00	-48.7	-50.1	14.9	0.00e+00	0	23	0	320864256	63	4254
2026-01-10 07:15:52.41	89.49	12.33	-48.8	-50.2	14.9	0.00e+00	0	23	0	333447168	63	4314
2026-01-10 07:15:56.44	89.09	12.66	-48.6	-49.9	15.0	0.00e+00	0	23	0	346030080	63	4164
2026-01-10 07:16:00.47	88.68	13.00	-48.5	-49.8	15.1	0.00e+00	0	23	0	358612992	63	4135
2026-01-10 07:16:04.50	88.25	13.34	-48.6	-49.9	15.0	0.00e+00	0	23	0	370147328	63	4181
2026-01-10 07:16:08.54	87.82	13.68	-48.4	-49.7	15.2	0.00e+00	0	23	0	383778816	63	4070
2026-01-10 07:16:12.57	87.38	14.03	-48.5	-49.8	15.1	0.00e+00	0	23	0	396361728	63	4117
2026-01-10 07:16:16.61	86.92	14.37	-48.3	-49.6	15.2	0.00e+00	0	23	0	408944640	63	4036
2026-01-10 07:16:20.65	86.45	14.73	-48.5	-49.8	15.1	0.00e+00	0	23	0	421527552	63	4107
2026-01-10 07:16:24.68	85.98	15.08	-48.6	-49.9	15.1	0.00e+00	0	23	0	434110464	63	4188
2026-01-10 07:16:28.70	85.49	15.44	-48.7	-50.1	15.0	0.00e+00	0	23	0	446693376	63	4261
2026-01-10 07:16:32.73	84.99	15.80	-48.8	-50.2	14.9	0.00e+00	0	23	0	459276288	63	4292
2026-01-10 07:16:36.77	84.48	16.16	-48.6	-49.9	15.1	0.00e+00	0	23	0	471859200	63	4180
2026-01-10 07:16:40.80	83.95	16.53	-48.7	-50.0	15.0	0.00e+00	0	23	0	484442112	63	4230
2026-01-10 07:16:44.83	83.41	16.90	-48.7	-50.1	15.0	0.00e+00	0	23	0	497025024	63	4251
2026-01-10 07:16:48.86	82.86	17.27	-48.6	-49.9	15.1	0.00e+00	0	23	0	509607936	63	4189
2026-01-10 07:16:52.90	82.29	17.65	-48.7	-50.0	15.0	0.00e+00	0	23	0	522190848	63	4200
2026-01-10 07:16:56.93	81.71	18.03	-48.7	-50.0	15.0	0.00e+00	0	23	0	534773760	63	4229
2026-01-10 07:17:00.97	81.11	18.41	-48.5	-49.8	15.2	0.00e+00	0	23	0	547356672	63	4115
2026-01-10 07:17:05.00	80.50	18.80	-48.3	-49.5	15.3	0.00e+00	0	23	0	559939584	63	3983
2026-01-10 07:17:09.03	79.87	19.18	-47.9	-49.1	15.3	0.00e+00	0	23	0	572522496	62	4025
2026-01-10 07:17:13.06	79.23	19.57	-47.9	-49.1	15.3	0.00e+00	0	23	0	585105408	62	4043
2026-01-10 07:17:17.10	78.56	19.96	-47.6	-48.8	15.3	0.00e+00	0	23	0	597688320	61	4129
2026-01-10 07:17:21.15	77.88	20.36	-47.6	-48.8	15.3	0.00e+00	0	23	0	610271232	61	4113
2026-01-10 07:17:25.18	77.18	20.75	-47.7	-48.9	15.3	0.00e+00	0	23	0	622854144	61	4154
2026-01-10 07:17:29.21	76.47	21.15	-47.5	-48.7	15.4	0.00e+00	0	23	0	635437056	61	4090
2026-01-10 07:17:33.25	75.73	21.55	-47.6	-48.8	15.3	0.00e+00	0	23	0	648019968	61	4100
2026-01-10 07:17:37.28	74.98	21.94	-47.5	-48.7	15.4	0.00e+00	0	23	0	660602880	61	4077
2026-01-10 07:17:41.31	74.21	22.34	-47.6	-48.8	15.3	0.00e+00	0	23	0	673185792	61	4121
2026-01-10 07:17:45.34	73.41	22.74	-47.5	-48.7	15.4	0.00e+00	0	23	0	685768704	61	4057
2026-01-10 07:17:49.38	72.60	23.14	-47.9	-49.1	15.2	0.00e+00	0	23	0	698351616	61	4260
2026-01-10 07:17:53.41	71.76	23.54	-47.5	-48.7	15.4	0.00e+00	0	23	0	710934528	61	4068
2026-01-10 07:17:57.44	70.90	23.94	-47.4	-48.5	15.4	0.00e+00	0	23	0	723517440	61	3996
2026-01-10 07:18:01.48	70.02	24.34	-47.8	-49.0	15.2	0.00e+00	0	23	0	736100352	61	4213
2026-01-10 07:18:05.52	69.12	24.74	-47.5	-48.7	15.4	0.00e+00	0	23	0	748683264	61	4053
2026-01-10 07:18:09.56	68.19	25.13	-47.7	-48.9	15.3	0.00e+00	0	23	0	761266176	61	4183
2026-01-10 07:18:13.59	67.24	25.52	-47.9	-49.1	15.2	0.00e+00	0	23	0	773849088	61	4256
2026-01-10 07:18:17.61	66.27	25.91	-48.2	-49.5	15.1	0.00e+00	0	23	0	786432000	61	4465
2026-01-10 07:18:21.65	65.27	26.30	-48.5	-49.7	15.1	0.00e+00	0	23	0	799014912	62	4330
2026-01-10 07:18:25.68	64.25	26.68	-48.2	-49.4	15.2	0.00e+00	0	23	0	811597824	62	4184
2026-01-10 07:18:29.72	63.20	27.05	-48.1	-49.3	15.3	0.00e+00	0	23	0	824180736	62	4134
2026-01-10 07:18:33.75	62.13	27.42	-48.3	-49.5	15.2	0.00e+00	0	23	0	836763648	62	4213
2026-01-10 07:18:37.78	61.03	27.78	-48.2	-49.4	15.2	0.00e+00	0	23	0	849346560	62	4179
2026-01-10 07:18:41.82	59.91	28.14	-48.3	-49.5	15.1	0.00e+00	0	23	0	861929472	62	4241
2026-01-10 07:18:45.85	58.76	28.49	-48.0	-49.2	15.3	0.00e+00	0	23	0	874512384	62	4076
2026-01-10 07:18:49.89	57.59	28.82	-48.6	-49.9	15.0	0.00e+00	0	23	0	887095296	62	4421
2026-01-10 07:18:53.93	56.39	29.15	-48.4	-49.7	15.1	0.00e+00	0	23	0	899678208	62	4317
2026-01-10 07:18:57.95	55.17	29.47	-48.5	-49.7	15.1	0.00e+00	0	23	0	912261120	62	4338
2026-01-10 07:19:01.98	53.93	29.78	-48.0	-49.2	15.3	0.00e+00	0	23	0	924844032	62	4086
2026-01-10 07:19:06.02	52.66	30.07	-48.4	-49.7	15.1	0.00e+00	0	23	0	938475520	62	4311
2026-01-10 07:19:10.05	51.37	30.35	-48.6	-49.8	15.0	0.00e+00	0	23	0	950009856	62	4381
2026-01-10 07:19:14.07	50.06	30.62	-49.0	-50.3	15.0	0.00e+00	0	23	0	963641344	63	4373
2026-01-10 07:19:18.09	48.73	30.87	-48.9	-50.2	15.0	0.00e+00	0	23	0	975175680	63	4309
2026-01-10 07:19:22.13	47.37	31.10	-48.7	-50.0	15.1	0.00e+00	0	23	0	988807168	63	4226
2026-01-10 07:19:26.17	45.99	31.32	-48.8	-50.1	15.1	0.00e+00	0	23	0	1001390080	63	4265
2026-01-10 07:19:30.20	44.60	31.53	-49.2	-50.5	14.9	0.00e+00	0	23	0	1013972992	63	4493
2026-01-10 07:19:34.24	43.19	31.71	-49.0	-50.3	15.0	0.00e+00	0	23	0	1026555904	63	4379
2026-01-10 07:19:38.27	41.76	31.88	-48.7	-50.0	15.1	0.00e+00	0	23	0	1039138816	63	4223
2026-01-10 07:19:42.30	40.33	32.02	-48.8	-50.0	15.1	0.00e+00	0	23	0	1051721728	63	4235
2026-01-10 07:19:46.34	38.87	32.15	-48.9	-50.2	15.0	0.00e+00	0	23	0	1064304640	63	4315
2026-01-10 07:19:50.37	37.41	32.25	-49.1	-50.4	14.9	0.00e+00	0	23	0	1076887552	63	4431
2026-01-10 07:19:54.40	35.95	32.33	-49.2	-50.6	14.9	0.00e+00	0	23	0	1089470464	63	4499
2026-01-10 07:19:58.44	34.47	32.40	-49.0	-50.3	15.0	0.00e+00	0	23	0	1102053376	63	4381
2026-01-10 07:20:02.48	32.98	32.44	-49.1	-50.4	14.9	0.00e+00	0	23	0	1114636288	63	4435
2026-01-10 07:20:06.51	31.50	32.46	-49.4	-50.8	14.9	0.00e+00	0	23	0	1127219200	64	4357
2026-01-10 07:20:10.54	30.02	32.46	-49.0	-50.3	15.1	0.00e+00	0	23	0	1139802112	64	4135
2026-01-10 07:20:14.58	28.53	32.43	-49.0	-50.3	15.1	0.00e+00	0	23	0	1152385024	64	4136
2026-01-10 07:20:18.62	27.05	32.39	-49.1	-50.5	15.0	0.00e+00	0	23	0	1164967936	64	4205
2026-01-10 07:20:22.65	25.58	32.32	-49.0	-50.3	15.1	0.00e+00	0	23	0	1177550848	64	4108
2026-01-10 07:20:26.68	24.11	32.23	-48.8	-50.1	15.2	0.00e+00	0	23	0	1190133760	64	4025
2026-01-10 07:20:30.70	22.66	32.12	-48.7	-49.9	15.1	0.00e+00	0	23	0	1202716672	63	4176
2026-01-10 07:20:34.75	21.21	31.99	-48.8	-50.1	15.0	0.00e+00	0	23	0	1215299584	63	4282
2026-01-10 07:20:38.78	19.77	31.84	-48.9	-50.2	15.0	0.00e+00	0	23	0	1227882496	63	4300
2026-01-10 07:20:42.81	18.35	31.67	-48.9	-50.2	15.0	0.00e+00	0	23	0	1240465408	63	4299
2026-01-10 07:20:46.84	16.95	31.48	-49.2	-50.5	14.9	0.00e+00	0	23	0	1253048320	63	4482
2026-01-10 07:20:50.88	15.56	31.28	-48.7	-49.9	15.2	0.00e+00	0	23	0	1265631232	63	4173
2026-01-10 07:20:54.92	14.19	31.06	-49.2	-50.5	14.9	0.00e+00	0	23	0	1278214144	63	4480
2026-01-10 07:20:58.95	12.84	30.82	-48.5	-49.7	15.2	0.00e+00	0	23	0	1290797056	63	4089
2026-01-10 07:21:02.98	11.51	30.56	-48.9	-50.2	14.9	0.00e+00	0	23	0	1303379968	62	4593
2026-01-10 07:21:07.01	10.21	30.29	-48.2	-49.5	15.4	0.00e+00	0	23	0	1315962880	63	3960
2026-01-10 07:21:11.05	8.92	30.01	-48.4	-49.6	15.2	0.00e+00	0	23	0	1328545792	62	4281
2026-01-10 07:21:15.09	7.66	29.71	-48.1	-49.3	15.3	0.00e+00	0	23	0	1341128704	62	4116
2026-01-10 07:21:19.12	6.42	29.40	-48.5	-49.7	15.1	0.00e+00	0	23	0	1353711616	62	4338
2026-01-10 07:21:23.15	5.21	29.08	-48.1	-49.3	15.3	0.00e+00	0	23	0	1366294528	62	4118
2026-01-10 07:21:27.19	4.01	28.75	-47.8	-49.0	15.3	0.00e+00	0	23	0	1378877440	61	4229
2026-01-10 07:21:31.21	2.85	28.41	-48.6	-49.9	15.0	0.00e+00	0	23	0	1391460352	62	4428
2026-01-10 07:21:35.25	1.71	28.07	-48.0	-49.3	15.3	0.00e+00	0	23	0	1404043264	62	4105
2026-01-10 07:21:39.28	0.60	27.71	-48.6	-49.9	15.1	0.00e+00	0	23	0	1416626176	62	4397
2026-01-10 07:21:43.32	359.51	27.35	-47.4	-48.5	15.5	0.00e+00	0	23	0	1429209088	61	3994
2026-01-10 07:21:47.34	358.45	26.98	-47.8	-49.0	15.3	0.00e+00	0	23	0	1441792000	61	4239
2026-01-10 07:21:51.38	357.40	26.60	-48.2	-49.4	15.1	0.00e+00	0	23	0	1454374912	61	4434
2026-01-10 07:21:55.41	356.39	26.22	-47.8	-49.0	15.3	0.00e+00	0	23	0	1466957824	61	4203
2026-01-10 07:21:59.45	355.40	25.84	-47.9	-49.1	15.2	0.00e+00	0	23	0	1479540736	61	4282
2026-01-10 07:22:03.49	354.43	25.45	-48.1	-49.3	15.2	0.00e+00	0	23	0	1492123648	61	4353
2026-01-10 07:22:07.52	353.49	25.06	-48.2	-49.4	15.1	0.00e+00	0	23	0	1504706560	61	4419
2026-01-10 07:22:11.55	352.57	24.66	-48.0	-49.2	15.2	0.00e+00	0	23	0	1517289472	61	4300
2026-01-10 07:22:15.58	351.68	24.27	-48.1	-49.3	15.2	0.00e+00	0	23	0	1529872384	61	4366
2026-01-10 07:22:19.62	350.80	23.87	-48.1	-49.3	15.2	0.00e+00	0	23	0	1543503872	61	4371
2026-01-10 07:22:23.66	349.95	23.47	-47.9	-49.1	15.2	0.00e+00	0	23	0	1555038208	61	4258
2026-01-10 07:22:27.69	349.12	23.07	-48.2	-49.4	15.1	0.00e+00	0	23	0	1568669696	61	4436
2026-01-10 07:22:31.73	348.31	22.67	-48.3	-49.6	15.0	0.00e+00	0	23	0	1581252608	61	4527
2026-01-10 07:22:35.76	347.52	22.27	-48.4	-49.7	15.1	0.00e+00	0	23	0	1593835520	62	4303
2026-01-10 07:22:39.79	346.76	21.88	-47.8	-49.0	15.4	0.00e+00	0	23	0	1606418432	62	3993
2026-01-10 07:22:43.83	346.01	21.48	-47.8	-49.0	15.3	0.00e+00	0	23	0	1619001344	61	4240
2026-01-10 07:22:47.87	345.28	21.08	-48.1	-49.4	15.1	0.00e+00	0	23	0	1631584256	61	4418
2026-01-10 07:22:51.90	344.57	20.69	-48.0	-49.2	15.2	0.00e+00	0	23	0	1644167168	61	4330
2026-01-10 07:22:55.94	343.88	20.29	-47.7	-49.0	15.3	0.00e+00	0	23	0	1656750080	61	4195
2026-01-10 07:22:59.98	343.20	19.90	-47.7	-48.9	15.3	0.00e+00	0	23	0	1669332992	61	4156
2026-01-10 07:23:04.00	342.55	19.51	-47.9	-49.1	15.2	0.00e+00	0	23	0	1681915904	61	4270
2026-01-10 07:23:08.04	341.91	19.12	-47.7	-48.9	15.3	0.00e+00	0	23	0	1694498816	61	4189
2026-01-10 07:23:12.07	341.29	18.74	-48.0	-49.3	15.1	0.00e+00	0	23	0	1707081728	61	4346
2026-01-10 07:23:16.11	340.68	18.35	-48.2	-49.5	15.1	0.00e+00	0	23	0	1719664640	61	4452
2026-01-10 07:23:20.15	340.09	17.97	-48.2	-49.4	15.1	0.00e+00	0	23	0	1732247552	61	4426
2026-01-10 07:23:24.19	339.51	17.60	-48.1	-49.4	15.1	0.00e+00	0	23	0	1744830464	61	4397
2026-01-10 07:23:28.23	338.94	17.22	-48.1	-49.3	15.1	0.00e+00	0	23	0	1757413376	61	4391
2026-01-10 07:23:32.27	338.40	16.85	-48.3	-49.6	15.0	0.00e+00	0	23	0	1769996288	61	4508
2026-01-10 07:23:36.30	337.86	16.48	-48.3	-49.6	15.0	0.00e+00	0	23	0	1782579200	61	4534
2026-01-10 07:23:40.34	337.34	16.11	-48.1	-49.3	15.1	0.00e+00	0	23	0	1795162112	61	4384
2026-01-10 07:23:44.37	336.83	15.75	-48.2	-49.5	15.0	0.00e+00	0	23	0	1807745024	61	4456
2026-01-10 07:23:48.39	336.34	15.39	-48.6	-49.9	14.9	0.00e+00	0	23	0	1820327936	62	4437
2026-01-10 07:23:52.42	335.85	15.04	-48.7	-50.0	14.9	0.00e+00	0	23	0	1832910848	62	4482
2026-01-10 07:23:56.46	335.38	14.68	-48.7	-50.0	14.9	0.00e+00	0	23	0	1845493760	62	4484
2026-01-10 07:24:00.50	334.92	14.33	-48.6	-49.9	14.9	0.00e+00	0	23	0	1858076672	62	4441
2026-01-10 07:24:04.53	334.47	13.98	-48.8	-50.2	14.8	0.00e+00	0	23	0	1870659584	62	4546
2026-01-10 07:24:08.56	334.03	13.64	-49.2	-50.6	14.7	0.00e+00	0	23	0	1883242496	63	4545
2026-01-10 07:24:12.60	333.60	13.30	-49.4	-50.8	14.6	0.00e+00	0	23	0	1895825408	63	4624
2026-01-10 07:24:16.64	333.18	12.96	-49.5	-50.9	14.7	0.00e+00	0	23	0	1908408320	64	4433
2026-01-10 07:24:20.67	332.77	12.63	-49.3	-50.7	14.8	0.00e+00	0	23	0	1920991232	64	4301
2026-01-10 07:24:24.70	332.37	12.30	-49.1	-50.5	14.9	0.00e+00	0	23	0	1933574144	64	4218
2026-01-10 07:24:28.73	331.98	11.97	-49.3	-50.7	14.8	0.00e+00	0	23	0	1946157056	64	4296
2026-01-10 07:24:32.77	331.60	11.64	-49.4	-50.9	14.7	0.00e+00	0	23	0	1958739968	64	4403
2026-01-10 07:24:36.80	331.23	11.32	-49.8	-51.3	14.5	0.00e+00	0	23	0	1971322880	64	4639
2026-01-10 07:24:40.84	330.86	11.00	-49.9	-51.5	14.5	0.00e+00	0	23	0	1983905792	65	4451
2026-01-10 07:24:44.87	330.51	10.68	-49.9	-51.5	14.5	0.00e+00	0	23	0	1996488704	65	4450
2026-01-10 07:24:48.90	330.16	10.37	-49.7	-51.2	14.7	0.00e+00	0	23	0	2009071616	65	4296
2026-01-10 07:24:52.94	329.82	10.06	-49.4	-50.8	14.9	0.00e+00	0	23	0	2021654528	65	4127
2026-01-10 07:24:56.98	329.48	9.75	-49.5	-50.9	14.8	0.00e+00	0	23	0	2034237440	65	4187
2026-01-10 07:25:01.02	329.15	9.44	-49.7	-51.2	14.6	0.00e+00	0	23	0	2047868928	65	4331
2026-01-10 07:25:05.05	328.84	9.14	-49.8	-51.4	14.6	0.00e+00	0	23	0	2059403264	65	4392
2026-01-10 07:25:09.08	328.52	8.84	-49.9	-51.4	14.5	0.00e+00	0	23	0	2073034752	65	4439
2026-01-10 07:25:13.11	328.22	8.55	-50.0	-51.5	14.4	0.00e+00	0	23	0	2085617664	65	4479
2026-01-10 07:25:17.14	327.92	8.25	-49.9	-51.5	14.4	0.00e+00	0	23	0	2098200576	65	4463
2026-01-10 07:25:21.18	327.63	7.96	-49.9	-51.4	14.5	0.00e+00	0	23	0	2110783488	65	4439
2026-01-10 07:25:25.22	327.34	7.67	-49.9	-51.4	14.4	0.00e+00	0	23	0	2123366400	65	4433
2026-01-10 07:25:29.26	327.06	7.38	-49.9	-51.5	14.4	0.00e+00	0	23	0	2135949312	65	4481
2026-01-10 07:25:33.29	326.78	7.10	-50.1	-51.7	14.3	0.00e+00	0	23	0	2148532224	65	4596
2026-01-10 07:25:37.33	326.51	6.82	-50.3	-51.9	14.1	0.00e+00	0	23	0	2161115136	65	4697
2026-01-10 07:25:41.37	326.25	6.54	-50.4	-52.1	14.0	0.00e+00	0	23	0	2173698048	65	4792
2026-01-10 07:25:45.40	325.99	6.26	-50.4	-52.0	14.2	0.00e+00	0	23	0	2186280960	66	4490
2026-01-10 07:25:49.44	325.73	5.99	-50.6	-52.4	13.9	0.00e+00	0	23	0	2198863872	66	4671
2026-01-10 07:25:53.47	325.48	5.72	-50.6	-52.3	14.0	0.00e+00	0	23	0	2211446784	66	4643
2026-01-10 07:25:57.51	325.24	5.45	-50.7	-52.5	13.9	0.00e+00	0	23	0	2224029696	66	4718
2026-01-10 07:26:01.55	325.00	5.18	-50.7	-52.5	13.9	0.00e+00	0	23	0	2236612608	66	4728
2026-01-10 07:26:05.58	324.77	4.91	-57.9	-71.5	3.8	1.49e+00	0	24	104	2247098368	80	18794
2026-01-10 07:26:09.62	324.54	4.65	-58.8	-72.6	3.8	1.49e+00	0	23	104	2247098368	82	19034
2026-01-10 07:26:13.65	324.31	4.39	-59.2	-73.0	3.8	1.49e+00	0	23	104	2247098368	83	18900
2026-01-10 07:26:17.68	324.09	4.13	-59.4	-73.3	3.8	1.49e+00	0	23	104	2247098368	83	19399
2026-01-10 07:26:21.72	323.87	3.87	-59.7	-73.5	3.8	1.49e+00	0	24	104	2247098368	84	18811
2026-01-10 07:26:25.76	323.66	3.62	-59.7	-73.5	3.8	1.49e+00	0	24	104	2247098368	84	18927
2026-01-10 07:26:29.79	323.45	3.37	-59.6	-73.4	3.8	1.49e+00	0	23	104	2247098368	84	18706
2026-01-10 07:26:33.82	323.24	3.11	-59.6	-73.4	3.8	1.49e+00	0	23	104	2247098368	84	18697
2026-01-10 07:26:37.85	323.04	2.87	-59.6	-73.4	3.8	1.49e+00	0	24	104	2247098368	84	18597
2026-01-10 07:26:41.88	322.84	2.62	-59.6	-73.4	3.8	1.49e+00	0	24	104	2247098368	84	18545
2026-01-10 07:26:45.91	322.65	2.37	-59.5	-73.4	3.8	1.49e+00	0	24	104	2247098368	84	18519
2026-01-10 07:26:49.95	322.46	2.13	-59.5	-73.3	3.8	1.49e+00	0	24	104	2247098368	84	18438

#Closed at: 2026-01-10 07:26:53
#Recorded file [2247 MB]: D:/lorett/data/31004_260110_101326.dat