passes_logs/2026/01/10/R3.2S_Murmansk/R3.2S_Murmansk__20260110_152810_FENGYUN_3D_rec.log

#Pass ID: 20260110_152810_FENGYUN 3D
#Satellite: FENGYUN 3D
#Configuration: FENGYUN 3D
#almurnet v.1.7.20251203
#Start time: 2026-01-10 15:28:10

#Version: 2.2.20231116
#Station: R3.2S_Murmansk
#Location: 33.079688 lon 68.888172 lat
#TLE: 1 43010U 17072A   26009.92921666 -.00000228  00000+0 -86059-4 0  9998
#TLE: 2 43010  98.9936 341.6668 0002176 116.7510 243.3888 14.19693142422537

#Time	Az	El	Level	Level2	SNR	BER	BlckErr	Temp	State	Recorded	gain1	gain2
2026-01-10 15:28:10.45	256.10	2.02	-57.5	-70.5	3.8	8.45e-01	0	21	0	0	81	15795
2026-01-10 15:28:13.45	256.43	2.13	-57.4	-70.4	3.8	8.45e-01	0	21	104	0	79	17607
2026-01-10 15:28:16.43	256.76	2.25	-57.4	-70.4	3.8	8.46e-01	0	21	104	0	79	17574
2026-01-10 15:28:19.44	257.10	2.36	-57.4	-70.4	3.8	8.45e-01	0	21	104	0	79	17560
2026-01-10 15:28:22.42	257.43	2.48	-57.4	-70.4	3.8	8.48e-01	0	22	104	0	79	17624
2026-01-10 15:28:25.42	257.77	2.59	-57.5	-70.4	3.8	8.45e-01	0	22	104	0	80	16661
2026-01-10 15:28:28.42	258.12	2.70	-57.5	-70.4	3.8	8.46e-01	0	22	104	0	80	16642
2026-01-10 15:28:31.42	258.46	2.82	-57.5	-70.4	3.8	8.46e-01	0	22	104	0	80	16685
2026-01-10 15:28:34.41	258.81	2.93	-57.5	-70.4	3.8	8.45e-01	0	22	104	0	80	16674
2026-01-10 15:28:37.40	259.16	3.04	-57.5	-70.5	3.8	8.47e-01	0	22	104	0	80	16718
2026-01-10 15:28:40.39	259.51	3.15	-57.5	-70.4	3.8	8.46e-01	0	22	104	0	80	16577
2026-01-10 15:28:43.38	259.86	3.27	-57.5	-70.4	3.8	8.46e-01	0	22	104	0	80	16583
2026-01-10 15:28:46.38	260.22	3.38	-57.5	-70.5	3.8	8.46e-01	0	22	104	0	80	16747
2026-01-10 15:28:49.38	260.58	3.49	-57.5	-70.4	3.8	8.46e-01	0	22	104	0	80	16679
2026-01-10 15:28:52.38	260.94	3.60	-57.4	-70.4	3.8	8.45e-01	0	22	104	0	80	16683
2026-01-10 15:28:55.38	261.31	3.71	-57.4	-70.3	3.8	8.46e-01	0	22	104	0	80	16354
2026-01-10 15:28:58.38	261.68	3.82	-57.5	-70.3	3.8	8.46e-01	0	22	104	0	80	16415
2026-01-10 15:29:01.36	262.05	3.93	-57.5	-70.4	3.8	8.47e-01	0	22	104	0	80	16636
2026-01-10 15:29:04.36	262.42	4.03	-57.5	-70.4	3.8	8.45e-01	0	22	104	0	80	16505
2026-01-10 15:29:07.33	262.79	4.14	-57.4	-70.1	3.8	8.45e-01	0	22	104	0	80	16087
2026-01-10 15:29:10.33	263.17	4.25	-57.5	-70.4	3.8	8.45e-01	0	22	104	0	80	16596
2026-01-10 15:29:13.32	263.55	4.36	-57.4	-70.2	3.8	8.46e-01	0	22	104	0	80	16188
2026-01-10 15:29:16.32	263.94	4.46	-57.4	-69.7	3.8	8.45e-01	0	23	104	0	80	15361
2026-01-10 15:29:19.32	264.32	4.57	-57.4	-69.5	3.8	8.45e-01	0	22	104	0	80	14996
2026-01-10 15:29:22.31	264.71	4.67	-57.4	-69.5	3.8	8.46e-01	0	23	104	0	80	15016
2026-01-10 15:29:25.32	265.11	4.78	-57.4	-69.0	3.8	8.46e-01	0	23	104	0	80	14052
2026-01-10 15:29:28.32	265.50	4.88	-56.7	-63.8	5.6	6.07e-01	0	22	0	0	80	7777
2026-01-10 15:29:31.32	265.90	4.98	-54.5	-58.1	10.2	7.08e-03	0	23	0	16777216	75	5357
2026-01-10 15:29:34.33	266.30	5.08	-55.3	-59.5	8.9	8.23e-01	0	23	0	31457280	77	5620
2026-01-10 15:29:37.32	266.70	5.18	-49.0	-50.4	14.7	0.00e+00	0	23	0	48234496	64	4187
2026-01-10 15:29:40.32	267.11	5.28	-48.5	-49.9	14.9	0.00e+00	0	23	0	65011712	63	4159
2026-01-10 15:29:43.31	267.52	5.38	-48.5	-50.0	14.8	0.00e+00	0	23	0	81788928	63	4198
2026-01-10 15:29:46.31	267.93	5.48	-49.7	-51.4	14.0	0.00e+00	0	23	0	99614720	64	4669
2026-01-10 15:29:49.32	268.34	5.58	-50.7	-52.6	13.5	0.00e+00	0	23	0	116391936	66	4788
2026-01-10 15:29:52.31	268.76	5.68	-51.1	-53.2	13.2	0.00e+00	0	23	0	133169152	67	4823
2026-01-10 15:29:55.31	269.18	5.77	-51.2	-53.2	13.1	0.00e+00	0	22	0	149946368	67	4865
2026-01-10 15:29:58.30	269.60	5.87	-51.4	-53.4	13.2	0.00e+00	0	23	0	166723584	68	4676
2026-01-10 15:30:01.30	270.02	5.96	-50.7	-52.5	14.0	0.00e+00	0	23	0	183500800	68	4206
2026-01-10 15:30:04.29	270.45	6.06	-49.2	-50.8	14.6	0.00e+00	0	23	0	200278016	65	4111
2026-01-10 15:30:07.29	270.87	6.15	-49.2	-50.8	14.5	0.00e+00	0	23	0	217055232	64	4341
2026-01-10 15:30:10.27	271.30	6.24	-49.2	-50.8	14.5	0.00e+00	0	23	0	233832448	64	4357
2026-01-10 15:30:13.25	271.74	6.33	-48.8	-50.2	14.9	0.00e+00	0	23	0	250609664	64	4098
2026-01-10 15:30:16.24	272.17	6.42	-48.7	-50.1	15.0	0.00e+00	0	23	0	267386880	64	4042
2026-01-10 15:30:19.24	272.61	6.51	-48.6	-50.0	14.9	0.00e+00	0	23	0	284164096	63	4234
2026-01-10 15:30:22.24	273.05	6.59	-48.6	-50.0	14.9	0.00e+00	0	23	0	300941312	63	4207
2026-01-10 15:30:25.25	273.50	6.68	-48.4	-49.8	15.0	0.00e+00	0	23	0	317718528	63	4135
2026-01-10 15:30:28.26	273.95	6.76	-48.2	-49.5	15.1	0.00e+00	0	23	0	335544320	63	4002
2026-01-10 15:30:31.25	274.40	6.85	-47.9	-49.2	15.1	0.00e+00	0	23	0	351272960	62	4098
2026-01-10 15:30:34.25	274.85	6.93	-47.9	-49.2	15.1	0.00e+00	0	23	0	369098752	62	4083
2026-01-10 15:30:37.26	275.31	7.01	-48.2	-49.5	15.0	0.00e+00	0	23	0	385875968	62	4223
2026-01-10 15:30:40.25	275.76	7.09	-48.0	-49.3	15.1	0.00e+00	0	23	0	402653184	62	4136
2026-01-10 15:30:43.24	276.22	7.17	-48.1	-49.4	15.0	0.00e+00	0	23	0	419430400	62	4189
2026-01-10 15:30:46.24	276.68	7.24	-48.1	-49.5	15.0	0.00e+00	0	23	0	436207616	62	4205
2026-01-10 15:30:49.24	277.15	7.32	-48.1	-49.4	15.0	0.00e+00	0	23	0	452984832	62	4172
2026-01-10 15:30:52.24	277.61	7.39	-48.0	-49.4	15.1	0.00e+00	0	23	0	469762048	62	4155
2026-01-10 15:30:55.24	278.08	7.47	-48.2	-49.5	15.0	0.00e+00	0	23	0	486539264	62	4240
2026-01-10 15:30:58.25	278.55	7.54	-48.2	-49.5	15.0	0.00e+00	0	23	0	503316480	62	4218
2026-01-10 15:31:01.24	279.02	7.61	-48.0	-49.3	15.1	0.00e+00	0	23	0	520093696	62	4130
2026-01-10 15:31:04.24	279.50	7.68	-48.2	-49.6	14.9	0.00e+00	0	23	0	536870912	62	4258
2026-01-10 15:31:07.21	279.97	7.74	-48.5	-49.9	14.8	0.00e+00	0	23	0	554696704	62	4406
2026-01-10 15:31:10.19	280.45	7.81	-48.3	-49.7	14.9	0.00e+00	0	23	0	570425344	62	4313
2026-01-10 15:31:13.19	280.93	7.87	-48.1	-49.5	15.0	0.00e+00	0	23	0	587202560	62	4202
2026-01-10 15:31:16.20	281.42	7.94	-48.3	-49.6	14.9	0.00e+00	0	23	0	605028352	62	4280
2026-01-10 15:31:19.20	281.90	8.00	-48.2	-49.6	15.0	0.00e+00	0	23	0	621805568	62	4245
2026-01-10 15:31:22.19	282.39	8.05	-48.3	-49.7	14.9	0.00e+00	0	23	0	638582784	62	4295
2026-01-10 15:31:25.18	282.87	8.11	-48.2	-49.5	15.0	0.00e+00	0	23	0	655360000	62	4224
2026-01-10 15:31:28.16	283.36	8.17	-48.1	-49.4	15.1	0.00e+00	0	23	0	672137216	62	4187
2026-01-10 15:31:31.15	283.85	8.22	-48.0	-49.3	15.1	0.00e+00	0	23	0	688914432	62	4137
2026-01-10 15:31:34.12	284.34	8.27	-48.0	-49.3	15.1	0.00e+00	0	23	0	705691648	62	4109
2026-01-10 15:31:37.12	284.84	8.32	-48.2	-49.5	15.1	0.00e+00	0	23	0	722468864	62	4206
2026-01-10 15:31:40.12	285.34	8.37	-48.3	-49.6	15.0	0.00e+00	0	23	0	739246080	62	4280
2026-01-10 15:31:43.11	285.84	8.42	-48.0	-49.3	15.1	0.00e+00	0	23	0	756023296	62	4111
2026-01-10 15:31:46.10	286.33	8.47	-47.9	-49.2	15.2	0.00e+00	0	23	0	772800512	62	4075
2026-01-10 15:31:49.10	286.84	8.51	-48.1	-49.4	15.1	0.00e+00	0	23	0	789577728	62	4148
2026-01-10 15:31:52.10	287.34	8.55	-48.2	-49.5	15.0	0.00e+00	0	23	0	806354944	62	4229
2026-01-10 15:31:55.09	287.84	8.59	-48.3	-49.7	15.0	0.00e+00	0	23	0	823132160	62	4312
2026-01-10 15:31:58.08	288.35	8.63	-48.2	-49.5	15.1	0.00e+00	0	23	0	839909376	62	4207
2026-01-10 15:32:01.08	288.86	8.67	-48.0	-49.3	15.2	0.00e+00	0	23	0	856686592	62	4118
2026-01-10 15:32:04.07	289.36	8.70	-48.1	-49.4	15.1	0.00e+00	0	23	0	874512384	62	4181
2026-01-10 15:32:07.06	289.87	8.73	-48.2	-49.6	15.0	0.00e+00	0	23	0	891289600	62	4244
2026-01-10 15:32:10.04	290.38	8.76	-48.3	-49.7	15.0	0.00e+00	0	23	0	907018240	62	4312
2026-01-10 15:32:13.04	290.89	8.79	-48.2	-49.5	15.1	0.00e+00	0	23	0	924844032	62	4211
2026-01-10 15:32:16.04	291.41	8.82	-48.2	-49.6	15.0	0.00e+00	0	23	0	941621248	62	4247
2026-01-10 15:32:19.03	291.92	8.84	-48.2	-49.5	15.1	0.00e+00	0	23	0	958398464	62	4196
2026-01-10 15:32:22.02	292.43	8.87	-48.2	-49.5	15.1	0.00e+00	0	23	0	975175680	62	4242
2026-01-10 15:32:25.02	292.95	8.89	-48.1	-49.4	15.2	0.00e+00	0	23	0	991952896	62	4154
2026-01-10 15:32:28.02	293.46	8.91	-48.1	-49.4	15.1	0.00e+00	0	23	0	1008730112	62	4161
2026-01-10 15:32:31.02	293.98	8.92	-48.0	-49.3	15.2	0.00e+00	0	23	0	1025507328	62	4109
2026-01-10 15:32:34.03	294.50	8.94	-48.1	-49.4	15.1	0.00e+00	0	23	0	1042284544	62	4187
2026-01-10 15:32:37.02	295.01	8.95	-48.3	-49.7	15.0	0.00e+00	0	23	0	1059061760	62	4311
2026-01-10 15:32:40.02	295.53	8.96	-48.4	-49.8	14.9	0.00e+00	0	23	0	1075838976	62	4349
2026-01-10 15:32:43.01	296.05	8.97	-48.5	-49.8	14.9	0.00e+00	0	23	0	1092616192	62	4376
2026-01-10 15:32:45.99	296.56	8.98	-47.9	-49.2	15.2	0.00e+00	0	23	0	1109393408	62	4083
2026-01-10 15:32:48.98	297.08	8.98	-48.0	-49.2	15.2	0.00e+00	0	23	0	1126170624	62	4090
2026-01-10 15:32:51.99	297.60	8.99	-48.1	-49.4	15.1	0.00e+00	0	23	0	1142947840	62	4173
2026-01-10 15:32:54.98	298.12	8.99	-48.0	-49.3	15.2	0.00e+00	0	23	0	1160773632	62	4106
2026-01-10 15:32:57.97	298.64	8.99	-47.9	-49.2	15.2	0.00e+00	0	23	0	1177550848	62	4053
2026-01-10 15:33:00.97	299.15	8.98	-47.8	-49.1	15.3	0.00e+00	0	23	0	1194328064	62	4007
2026-01-10 15:33:03.97	299.67	8.98	-47.9	-49.1	15.2	0.00e+00	0	23	0	1211105280	62	4051
2026-01-10 15:33:06.97	300.19	8.97	-48.1	-49.4	15.1	0.00e+00	0	23	0	1227882496	62	4175
2026-01-10 15:33:09.96	300.71	8.96	-48.1	-49.5	15.1	0.00e+00	0	23	0	1244659712	62	4203
2026-01-10 15:33:12.97	301.23	8.95	-48.0	-49.3	15.2	0.00e+00	0	23	0	1261436928	62	4115
2026-01-10 15:33:15.96	301.74	8.94	-47.8	-49.1	15.3	0.00e+00	0	23	0	1278214144	62	4014
2026-01-10 15:33:18.94	302.26	8.92	-47.8	-49.1	15.2	0.00e+00	0	23	0	1294991360	62	4045
2026-01-10 15:33:21.89	302.76	8.91	-48.0	-49.3	15.1	0.00e+00	0	23	0	1311768576	62	4117
2026-01-10 15:33:24.82	303.27	8.89	-47.9	-49.2	15.2	0.00e+00	0	23	0	1328545792	62	4082
2026-01-10 15:33:27.81	303.78	8.87	-48.1	-49.4	15.0	0.00e+00	0	23	0	1345323008	62	4192
2026-01-10 15:33:30.81	304.30	8.84	-48.0	-49.4	15.1	0.00e+00	0	23	0	1362100224	62	4157
2026-01-10 15:33:33.80	304.81	8.82	-48.1	-49.5	15.0	0.00e+00	0	23	0	1378877440	62	4205
2026-01-10 15:33:36.80	305.32	8.79	-48.1	-49.4	15.1	0.00e+00	0	23	0	1395654656	62	4177
2026-01-10 15:33:39.79	305.83	8.76	-48.0	-49.3	15.1	0.00e+00	0	23	0	1412431872	62	4138
2026-01-10 15:33:42.79	306.34	8.73	-48.1	-49.4	15.1	0.00e+00	0	23	0	1430257664	62	4191
2026-01-10 15:33:45.79	306.85	8.70	-48.1	-49.4	15.1	0.00e+00	0	23	0	1447034880	62	4156
2026-01-10 15:33:48.79	307.36	8.66	-47.8	-49.1	15.2	0.00e+00	0	23	0	1463812096	62	4031
2026-01-10 15:33:51.78	307.86	8.63	-47.7	-49.0	15.3	0.00e+00	0	23	0	1480589312	62	3967
2026-01-10 15:33:54.77	308.37	8.59	-47.9	-49.1	15.2	0.00e+00	0	23	0	1497366528	62	4047
2026-01-10 15:33:57.77	308.87	8.55	-48.1	-49.5	15.0	0.00e+00	0	23	0	1514143744	62	4206
2026-01-10 15:34:00.77	309.37	8.51	-48.1	-49.4	15.1	0.00e+00	0	23	0	1530920960	62	4175
2026-01-10 15:34:03.77	309.88	8.46	-48.0	-49.3	15.1	0.00e+00	0	23	0	1547698176	62	4144
2026-01-10 15:34:06.76	310.37	8.42	-48.0	-49.3	15.1	0.00e+00	0	23	0	1564475392	62	4133
2026-01-10 15:34:09.75	310.87	8.37	-48.0	-49.3	15.1	0.00e+00	0	23	0	1581252608	62	4127
2026-01-10 15:34:12.74	311.37	8.32	-48.0	-49.4	15.1	0.00e+00	0	23	0	1598029824	62	4155
2026-01-10 15:34:15.73	311.86	8.27	-48.1	-49.4	15.1	0.00e+00	0	23	0	1614807040	62	4162
2026-01-10 15:34:18.72	312.35	8.22	-47.9	-49.2	15.1	0.00e+00	0	23	0	1631584256	62	4084
2026-01-10 15:34:21.72	312.84	8.17	-48.0	-49.3	15.1	0.00e+00	0	23	0	1648361472	62	4115
2026-01-10 15:34:24.71	313.33	8.11	-48.2	-49.5	15.0	0.00e+00	0	23	0	1666187264	62	4213
2026-01-10 15:34:27.70	313.82	8.05	-48.1	-49.4	15.0	0.00e+00	0	23	0	1681915904	62	4185
2026-01-10 15:34:30.69	314.30	7.99	-48.1	-49.4	15.0	0.00e+00	0	23	0	1698693120	62	4165
2026-01-10 15:34:33.69	314.79	7.93	-48.0	-49.3	15.1	0.00e+00	0	23	0	1716518912	62	4134
2026-01-10 15:34:36.68	315.27	7.87	-48.1	-49.4	15.0	0.00e+00	0	23	0	1733296128	62	4166
2026-01-10 15:34:39.69	315.75	7.81	-48.0	-49.3	15.1	0.00e+00	0	23	0	1750073344	62	4118
2026-01-10 15:34:42.69	316.23	7.74	-48.1	-49.5	15.0	0.00e+00	0	23	0	1766850560	62	4226
2026-01-10 15:34:45.70	316.71	7.67	-48.3	-49.7	14.9	0.00e+00	0	23	0	1783627776	62	4320
2026-01-10 15:34:48.71	317.18	7.61	-48.4	-49.8	14.8	0.00e+00	0	23	0	1800404992	62	4350
2026-01-10 15:34:51.71	317.65	7.54	-48.4	-49.8	14.8	0.00e+00	0	23	0	1817182208	62	4361
2026-01-10 15:34:54.72	318.12	7.46	-48.6	-50.0	14.7	0.00e+00	0	23	0	1833959424	62	4463
2026-01-10 15:34:57.74	318.60	7.39	-48.5	-49.9	14.7	0.00e+00	0	23	0	1851785216	62	4415
2026-01-10 15:35:00.74	319.06	7.32	-48.5	-49.9	14.7	0.00e+00	0	23	0	1868562432	62	4398
2026-01-10 15:35:03.73	319.52	7.24	-48.3	-49.7	14.8	0.00e+00	0	23	0	1885339648	62	4317
2026-01-10 15:35:06.75	319.98	7.17	-48.2	-49.6	14.9	0.00e+00	0	23	0	1902116864	62	4279
2026-01-10 15:35:09.74	320.44	7.09	-48.2	-49.6	14.9	0.00e+00	0	23	0	1918894080	62	4243
2026-01-10 15:35:12.74	320.90	7.01	-48.3	-49.7	14.8	0.00e+00	0	23	0	1935671296	62	4318
2026-01-10 15:35:15.75	321.35	6.93	-48.5	-50.0	14.7	0.00e+00	0	23	0	1952448512	62	4447
2026-01-10 15:35:18.74	321.80	6.85	-48.2	-49.5	14.9	0.00e+00	0	23	0	1969225728	62	4229
2026-01-10 15:35:21.73	322.25	6.76	-48.5	-49.9	14.7	0.00e+00	0	23	0	1986002944	62	4409
2026-01-10 15:35:24.74	322.70	6.68	-48.6	-50.0	14.6	0.00e+00	0	23	0	2002780160	62	4461
2026-01-10 15:35:27.73	323.14	6.59	-48.6	-50.1	14.6	0.00e+00	0	23	0	2020605952	62	4516
2026-01-10 15:35:30.71	323.57	6.51	-48.4	-49.9	14.7	0.00e+00	0	23	0	2037383168	62	4393
2026-01-10 15:35:33.71	324.01	6.42	-48.5	-50.0	14.7	0.00e+00	0	23	0	2054160384	62	4458
2026-01-10 15:35:36.71	324.45	6.33	-48.7	-50.1	14.5	0.00e+00	0	23	0	2070937600	62	4545
2026-01-10 15:35:39.73	324.89	6.24	-48.2	-49.6	14.9	0.00e+00	0	23	0	2087714816	62	4245
2026-01-10 15:35:42.73	325.32	6.15	-48.3	-49.7	14.8	0.00e+00	0	23	0	2104492032	62	4295
2026-01-10 15:35:45.73	325.74	6.06	-48.7	-50.1	14.5	0.00e+00	0	23	0	2121269248	62	4543
2026-01-10 15:35:48.74	326.17	5.97	-48.8	-50.2	14.5	0.00e+00	0	23	0	2138046464	62	4597
2026-01-10 15:35:51.74	326.59	5.87	-48.9	-50.4	14.5	0.00e+00	0	23	0	2154823680	63	4419
2026-01-10 15:35:54.74	327.01	5.78	-49.0	-50.5	14.5	0.00e+00	0	23	0	2171600896	63	4447
2026-01-10 15:35:57.74	327.43	5.68	-48.4	-49.8	14.9	0.00e+00	0	23	0	2188378112	63	4129
2026-01-10 15:36:00.74	327.85	5.58	-49.0	-50.5	14.5	0.00e+00	0	23	0	2206203904	63	4464
2026-01-10 15:36:03.74	328.26	5.49	-48.7	-50.1	14.7	0.00e+00	0	23	0	2222981120	63	4276
2026-01-10 15:36:06.74	328.67	5.39	-48.8	-50.3	14.5	0.00e+00	0	23	0	2239758336	63	4371
2026-01-10 15:36:09.74	329.07	5.29	-48.8	-50.2	14.6	0.00e+00	0	23	0	2256535552	63	4325
2026-01-10 15:36:12.74	329.48	5.19	-48.6	-50.0	14.7	0.00e+00	0	23	0	2273312768	63	4230
2026-01-10 15:36:15.74	329.88	5.09	-48.5	-50.0	14.7	0.00e+00	0	23	0	2290089984	63	4195
2026-01-10 15:36:18.74	330.28	4.99	-55.6	-60.4	8.3	0.00e+00	0	23	0	2306867200	76	6614
2026-01-10 15:36:21.72	330.67	4.89	-58.6	-71.6	3.8	8.46e-01	0	23	104	2307915776	82	17076
2026-01-10 15:36:24.71	331.07	4.78	-59.1	-72.2	3.8	8.46e-01	0	23	104	2307915776	83	17154
2026-01-10 15:36:27.68	331.45	4.68	-59.4	-72.4	3.8	8.46e-01	0	23	104	2307915776	83	17621
2026-01-10 15:36:30.69	331.84	4.58	-59.7	-72.8	3.8	8.46e-01	0	23	104	2307915776	84	17298
2026-01-10 15:36:33.68	332.23	4.47	-59.8	-72.8	3.8	8.46e-01	0	23	104	2307915776	84	17433
2026-01-10 15:36:36.68	332.61	4.37	-59.8	-72.8	3.8	8.46e-01	0	23	104	2307915776	84	17471
2026-01-10 15:36:39.68	332.99	4.26	-59.8	-72.9	3.8	8.46e-01	0	23	104	2307915776	84	17516
2026-01-10 15:36:42.69	333.37	4.16	-59.7	-72.8	3.8	8.45e-01	0	23	104	2307915776	84	17301
2026-01-10 15:36:45.69	333.74	4.05	-59.7	-72.7	3.8	8.45e-01	0	24	104	2307915776	84	17209
2026-01-10 15:36:48.68	334.12	3.94	-59.6	-72.7	3.8	8.44e-01	0	23	104	2307915776	84	17151
2026-01-10 15:36:51.69	334.49	3.83	-59.6	-72.7	3.8	8.47e-01	0	24	104	2307915776	84	17138
2026-01-10 15:36:54.70	334.86	3.72	-59.6	-72.6	3.8	8.46e-01	0	24	104	2307915776	84	17046
2026-01-10 15:36:57.70	335.22	3.61	-59.6	-72.6	3.8	8.46e-01	0	23	104	2307915776	84	17038
2026-01-10 15:37:00.69	335.58	3.51	-59.5	-72.6	3.8	8.46e-01	0	23	104	2307915776	84	16974
2026-01-10 15:37:03.69	335.94	3.40	-59.5	-72.6	3.8	8.45e-01	0	23	104	2307915776	84	16943
2026-01-10 15:37:06.69	336.30	3.28	-59.5	-72.6	3.8	8.45e-01	0	23	104	2307915776	84	16894
2026-01-10 15:37:09.70	336.65	3.17	-59.5	-72.6	3.8	8.45e-01	0	23	104	2307915776	84	16946
2026-01-10 15:37:12.69	337.00	3.06	-59.5	-72.5	3.8	8.45e-01	0	23	104	2307915776	84	16853
2026-01-10 15:37:15.68	337.35	2.95	-59.5	-72.5	3.8	8.46e-01	0	23	104	2307915776	84	16857
2026-01-10 15:37:18.67	337.70	2.84	-59.5	-72.5	3.8	8.44e-01	0	23	104	2307915776	84	16771
2026-01-10 15:37:21.66	338.04	2.73	-59.5	-72.5	3.8	8.45e-01	0	23	104	2307915776	84	16822
2026-01-10 15:37:24.66	338.38	2.61	-59.4	-72.5	3.8	8.46e-01	0	23	104	2307915776	84	16804
2026-01-10 15:37:27.66	338.72	2.50	-59.4	-72.5	3.8	8.47e-01	0	23	104	2307915776	84	16719
2026-01-10 15:37:30.66	339.06	2.39	-59.4	-72.5	3.8	8.46e-01	0	23	104	2307915776	84	16798
2026-01-10 15:37:33.67	339.39	2.27	-59.4	-72.5	3.8	8.47e-01	0	23	104	2307915776	84	16751
2026-01-10 15:37:36.68	339.73	2.16	-59.4	-72.5	3.8	8.45e-01	0	23	104	2307915776	84	16733
2026-01-10 15:37:39.68	340.06	2.04	-59.4	-72.5	3.8	8.46e-01	0	23	104	2307915776	84	16709

#Closed at: 2026-01-10 15:37:42
#Recorded file [2307 MB]: D:/lorett/data/31004_260110_182810.dat