passes_logs/2026/01/10/R3.2S_Murmansk/R3.2S_Murmansk__20260110_042455_SUOMI_NPP_rec.log

#Pass ID: 20260110_042455_SUOMI NPP
#Satellite: SUOMI NPP
#Configuration: NPP
#almurnet v.1.7.20251203
#Start time: 2026-01-10 04:24:55

#Version: 2.2.20231116
#Station: R3.2S_Murmansk
#Location: 33.079688 lon 68.888172 lat
#TLE: 1 37849U 11061A   26008.83076692  .00000095  00000+0  66074-4 0  9997
#TLE: 2 37849  98.7806 310.9327 0002533  74.3004 285.8451 14.19523607735834

#Time	Az	El	Level	Level2	SNR	BER	BlckErr	Temp	State	Recorded	gain1	gain2
2026-01-10 04:24:55.52	51.10	1.99	-57.1	-73.1	3.8	1.49e+00	0	21	0	0	80	22523
2026-01-10 04:24:59.51	50.86	2.22	-57.0	-73.0	3.8	1.49e+00	0	21	104	0	79	23826
2026-01-10 04:25:03.53	50.60	2.45	-57.0	-73.0	3.8	1.49e+00	0	21	104	0	79	23675
2026-01-10 04:25:07.52	50.35	2.68	-57.0	-73.0	3.8	1.49e+00	0	21	104	0	79	23730
2026-01-10 04:25:11.52	50.09	2.91	-57.1	-73.0	3.8	1.49e+00	0	22	104	0	79	23823
2026-01-10 04:25:15.52	49.82	3.15	-57.1	-73.0	3.8	1.49e+00	0	22	104	0	79	23818
2026-01-10 04:25:19.52	49.56	3.38	-57.1	-73.0	3.8	1.49e+00	0	22	104	0	79	23751
2026-01-10 04:25:23.51	49.28	3.62	-57.1	-73.0	3.8	1.49e+00	0	22	104	0	79	23847
2026-01-10 04:25:27.51	49.01	3.86	-57.0	-73.0	3.8	1.49e+00	0	22	104	0	79	23629
2026-01-10 04:25:31.51	48.72	4.10	-57.1	-73.0	3.8	1.49e+00	0	22	104	0	79	23695
2026-01-10 04:25:35.52	48.44	4.34	-57.0	-71.4	3.8	1.49e+00	0	22	104	0	79	19816
2026-01-10 04:25:39.53	48.14	4.59	-56.8	-68.6	4.5	1.29e+00	5	22	0	0	79	14245
2026-01-10 04:25:43.53	47.84	4.83	-56.5	-65.6	6.1	2.94e-01	0	22	0	7340032	79	10112
2026-01-10 04:25:47.53	47.54	5.08	-56.3	-64.1	7.4	2.11e-01	0	22	0	14680064	79	8489
2026-01-10 04:25:51.51	47.23	5.32	-56.2	-64.0	7.6	3.12e-05	0	23	0	23068672	77	9464
2026-01-10 04:25:55.50	46.92	5.57	-54.4	-58.6	11.9	1.22e-05	0	23	0	28311552	75	5686
2026-01-10 04:25:59.48	46.60	5.82	-53.4	-56.9	13.1	0.00e+00	0	23	0	35651584	73	5243
2026-01-10 04:26:03.49	46.28	6.07	-53.3	-56.6	13.4	0.00e+00	0	22	0	42991616	73	5051
2026-01-10 04:26:07.48	45.95	6.33	-53.2	-56.4	13.3	0.00e+00	0	23	0	50331648	72	5268
2026-01-10 04:26:11.47	45.61	6.58	-53.2	-56.3	13.5	0.00e+00	0	23	0	57671680	72	5187
2026-01-10 04:26:15.47	45.27	6.84	-53.2	-56.3	13.5	0.00e+00	0	22	0	66060288	72	5209
2026-01-10 04:26:19.47	44.92	7.10	-53.1	-56.1	13.6	0.00e+00	0	23	0	73400320	72	5046
2026-01-10 04:26:23.47	44.56	7.36	-53.3	-56.5	13.3	0.00e+00	0	23	0	80740352	72	5298
2026-01-10 04:26:27.47	44.20	7.62	-53.7	-57.2	12.8	0.00e+00	0	23	0	88080384	72	5765
2026-01-10 04:26:31.48	43.83	7.88	-53.6	-57.0	13.0	0.00e+00	0	23	0	95420416	72	5652
2026-01-10 04:26:35.49	43.45	8.15	-53.7	-57.3	12.8	0.00e+00	0	23	0	102760448	72	5793
2026-01-10 04:26:39.48	43.06	8.41	-53.2	-56.4	13.5	0.00e+00	0	23	0	111149056	72	5253
2026-01-10 04:26:43.48	42.67	8.68	-53.1	-56.2	13.6	0.00e+00	0	23	0	118489088	72	5134
2026-01-10 04:26:47.47	42.27	8.95	-53.0	-56.1	13.7	0.00e+00	0	23	0	125829120	72	5065
2026-01-10 04:26:51.45	41.87	9.22	-52.7	-55.6	13.9	0.00e+00	0	23	0	133169152	71	5056
2026-01-10 04:26:55.44	41.46	9.49	-52.7	-55.5	14.0	0.00e+00	0	23	0	140509184	71	5007
2026-01-10 04:26:59.44	41.03	9.76	-52.8	-55.6	13.9	0.00e+00	0	23	0	147849216	71	5099
2026-01-10 04:27:03.42	40.60	10.04	-52.6	-55.3	14.1	0.00e+00	0	23	0	155189248	71	4920
2026-01-10 04:27:07.41	40.17	10.31	-52.7	-55.5	14.0	0.00e+00	0	23	0	163577856	71	5019
2026-01-10 04:27:11.40	39.72	10.59	-52.7	-55.4	14.1	0.00e+00	0	23	0	170917888	71	4950
2026-01-10 04:27:15.40	39.26	10.87	-52.9	-55.7	13.8	0.00e+00	0	23	0	178257920	71	5159
2026-01-10 04:27:19.40	38.80	11.15	-52.8	-55.6	13.9	0.00e+00	0	23	0	185597952	71	5087
2026-01-10 04:27:23.41	38.32	11.44	-52.8	-55.6	13.9	0.00e+00	0	23	0	192937984	71	5087
2026-01-10 04:27:27.41	37.83	11.72	-52.9	-55.7	13.8	0.00e+00	0	23	0	200278016	71	5151
2026-01-10 04:27:31.41	37.34	12.00	-52.4	-54.9	14.3	0.00e+00	0	23	0	207618048	71	4681
2026-01-10 04:27:35.41	36.84	12.29	-52.2	-54.6	14.6	0.00e+00	0	23	0	214958080	71	4535
2026-01-10 04:27:39.41	36.32	12.58	-52.2	-54.7	14.4	0.00e+00	0	23	0	223346688	70	4817
2026-01-10 04:27:43.40	35.80	12.86	-52.0	-54.3	14.5	0.00e+00	0	23	0	230686720	70	4641
2026-01-10 04:27:47.39	35.26	13.15	-52.4	-54.8	14.2	0.00e+00	0	23	0	238026752	70	4915
2026-01-10 04:27:51.39	34.72	13.44	-52.0	-54.3	14.5	0.00e+00	0	23	0	245366784	70	4644
2026-01-10 04:27:55.37	34.16	13.73	-52.0	-54.3	14.5	0.00e+00	0	23	0	252706816	70	4640
2026-01-10 04:27:59.36	33.59	14.02	-52.0	-54.3	14.6	0.00e+00	0	23	0	260046848	70	4630
2026-01-10 04:28:03.36	33.01	14.31	-51.7	-54.0	14.6	0.00e+00	0	23	0	267386880	69	4722
2026-01-10 04:28:07.36	32.42	14.61	-51.8	-54.2	14.4	0.00e+00	0	23	0	275775488	69	4859
2026-01-10 04:28:11.36	31.82	14.90	-52.2	-54.8	14.1	0.00e+00	0	23	0	283115520	69	5175
2026-01-10 04:28:15.36	31.20	15.19	-52.5	-55.3	14.0	0.00e+00	0	23	0	290455552	70	5164
2026-01-10 04:28:19.35	30.57	15.48	-52.3	-54.9	14.2	0.00e+00	0	23	0	297795584	70	4970
2026-01-10 04:28:23.34	29.93	15.78	-52.4	-55.0	14.2	0.00e+00	0	23	0	305135616	70	5006
2026-01-10 04:28:27.34	29.28	16.07	-52.4	-55.0	14.2	0.00e+00	0	23	0	312475648	70	4999
2026-01-10 04:28:31.34	28.61	16.36	-52.4	-55.1	14.1	0.00e+00	0	23	0	320864256	70	5068
2026-01-10 04:28:35.35	27.93	16.65	-52.1	-54.5	14.4	0.00e+00	0	23	0	328204288	70	4748
2026-01-10 04:28:39.35	27.24	16.94	-52.2	-54.7	14.3	0.00e+00	0	23	0	335544320	70	4830
2026-01-10 04:28:43.35	26.53	17.23	-52.2	-54.8	14.3	0.00e+00	0	23	0	342884352	70	4909
2026-01-10 04:28:47.35	25.81	17.52	-52.3	-54.9	14.2	0.00e+00	0	23	0	350224384	70	4934
2026-01-10 04:28:51.34	25.07	17.81	-52.2	-54.6	14.3	0.00e+00	0	23	0	357564416	70	4814
2026-01-10 04:28:55.33	24.32	18.09	-52.5	-55.2	14.0	0.00e+00	0	23	0	364904448	70	5134
2026-01-10 04:28:59.32	23.56	18.38	-52.4	-55.0	14.2	0.00e+00	0	23	0	373293056	70	5019
2026-01-10 04:29:03.30	22.79	18.66	-51.9	-54.2	14.7	0.00e+00	0	23	0	380633088	70	4572
2026-01-10 04:29:07.30	21.99	18.94	-51.9	-54.3	14.7	0.00e+00	0	23	0	387973120	70	4603
2026-01-10 04:29:11.30	21.18	19.21	-51.5	-53.8	14.7	0.00e+00	0	23	0	395313152	69	4609
2026-01-10 04:29:15.31	20.36	19.49	-51.1	-53.3	14.8	0.00e+00	0	23	0	402653184	68	4630
2026-01-10 04:29:19.32	19.52	19.76	-50.4	-52.3	15.1	0.00e+00	0	23	0	409993216	67	4370
2026-01-10 04:29:23.33	18.66	20.02	-50.7	-52.8	14.9	0.00e+00	0	23	0	418381824	67	4601
2026-01-10 04:29:27.34	17.79	20.29	-50.7	-52.7	14.9	0.00e+00	0	23	0	425721856	67	4574
2026-01-10 04:29:31.35	16.90	20.54	-50.5	-52.6	15.1	0.00e+00	0	23	0	433061888	67	4497
2026-01-10 04:29:35.36	16.00	20.80	-50.7	-52.8	14.9	0.00e+00	0	23	0	440401920	67	4602
2026-01-10 04:29:39.36	15.09	21.05	-50.1	-52.1	15.1	0.00e+00	0	23	0	447741952	66	4494
2026-01-10 04:29:43.36	14.16	21.29	-50.1	-51.9	15.3	0.00e+00	0	23	0	455081984	66	4407
2026-01-10 04:29:47.36	13.22	21.52	-49.9	-51.7	15.3	0.00e+00	0	23	0	463470592	66	4304
2026-01-10 04:29:51.37	12.26	21.75	-50.2	-52.0	15.2	0.00e+00	0	23	0	470810624	66	4460
2026-01-10 04:29:55.37	11.29	21.98	-50.2	-52.0	15.2	0.00e+00	0	23	0	478150656	66	4459
2026-01-10 04:29:59.36	10.30	22.19	-49.8	-51.5	15.4	0.00e+00	0	23	0	485490688	66	4219
2026-01-10 04:30:03.35	9.30	22.40	-50.2	-52.0	15.2	0.00e+00	0	23	0	492830720	66	4469
2026-01-10 04:30:07.36	8.29	22.60	-50.0	-51.7	15.3	0.00e+00	0	23	0	500170752	66	4294
2026-01-10 04:30:11.36	7.26	22.80	-50.1	-51.8	15.3	0.00e+00	0	23	0	507510784	66	4362
2026-01-10 04:30:15.36	6.22	22.98	-50.3	-52.1	15.1	0.00e+00	0	23	0	514850816	66	4501
2026-01-10 04:30:19.37	5.17	23.16	-50.0	-51.7	15.3	0.00e+00	0	23	0	523239424	66	4303
2026-01-10 04:30:23.36	4.11	23.32	-49.9	-51.6	15.4	0.00e+00	0	23	0	530579456	66	4245
2026-01-10 04:30:27.37	3.04	23.48	-49.9	-51.5	15.4	0.00e+00	0	23	0	537919488	66	4240
2026-01-10 04:30:31.38	1.95	23.62	-50.7	-52.6	14.9	0.00e+00	0	23	0	545259520	66	4791
2026-01-10 04:30:35.38	0.85	23.76	-52.4	-54.8	14.2	0.00e+00	0	23	0	552599552	69	5197
2026-01-10 04:30:39.38	359.75	23.88	-51.4	-53.5	14.9	0.00e+00	0	23	0	560988160	69	4477
2026-01-10 04:30:43.37	358.64	24.00	-51.6	-53.8	14.8	0.00e+00	0	23	0	568328192	69	4625
2026-01-10 04:30:47.37	357.52	24.10	-51.1	-53.1	15.0	0.00e+00	0	23	0	575668224	68	4499
2026-01-10 04:30:51.20	356.44	24.19	-51.7	-54.1	14.4	0.00e+00	0	23	0	583008256	68	5051
2026-01-10 04:30:55.19	355.32	24.27	-51.7	-53.9	14.6	0.00e+00	0	23	0	590348288	68	4973
2026-01-10 04:30:59.18	354.18	24.33	-52.3	-54.9	14.3	0.00e+00	0	23	0	597688320	70	4928
2026-01-10 04:31:03.19	353.04	24.39	-51.8	-54.0	14.9	0.00e+00	0	23	0	605028352	70	4459
2026-01-10 04:31:07.18	351.89	24.43	-52.7	-55.4	13.9	0.00e+00	0	23	0	612368384	70	5271
2026-01-10 04:31:11.19	350.74	24.46	-52.2	-54.6	14.5	0.00e+00	0	23	0	620756992	70	4780
2026-01-10 04:31:15.18	349.59	24.48	-51.3	-53.4	15.0	0.00e+00	0	23	0	628097024	69	4417
2026-01-10 04:31:19.19	348.44	24.48	-51.3	-53.5	14.8	0.00e+00	0	23	0	635437056	68	4731
2026-01-10 04:31:23.19	347.29	24.48	-51.9	-54.4	14.4	0.00e+00	0	23	0	642777088	69	4962
2026-01-10 04:31:27.18	346.14	24.46	-51.3	-53.4	15.0	0.00e+00	0	23	0	650117120	69	4397
2026-01-10 04:31:31.18	344.99	24.42	-50.9	-53.0	15.1	0.00e+00	0	23	0	657457152	68	4447
2026-01-10 04:31:35.19	343.85	24.38	-50.7	-52.5	15.3	0.00e+00	0	23	0	665845760	68	4240
2026-01-10 04:31:39.19	342.70	24.32	-50.8	-52.8	15.0	0.00e+00	0	23	0	673185792	67	4619
2026-01-10 04:31:43.20	341.56	24.25	-50.4	-52.1	15.3	0.00e+00	0	23	0	680525824	67	4287
2026-01-10 04:31:47.21	340.43	24.17	-49.6	-51.2	15.4	0.00e+00	0	23	0	687865856	65	4303
2026-01-10 04:31:51.22	339.30	24.08	-49.7	-51.3	15.3	0.00e+00	0	23	0	695205888	65	4370
2026-01-10 04:31:55.20	338.19	23.97	-49.9	-51.5	15.2	0.00e+00	0	23	0	702545920	65	4491
2026-01-10 04:31:59.18	337.09	23.86	-50.1	-51.8	15.1	0.00e+00	0	23	0	709885952	65	4638
2026-01-10 04:32:03.17	335.99	23.73	-50.2	-51.9	15.1	0.00e+00	0	23	0	718274560	65	4671
2026-01-10 04:32:07.15	334.90	23.59	-50.8	-52.7	14.9	0.00e+00	0	23	0	725614592	66	4829
2026-01-10 04:32:11.16	333.82	23.45	-50.3	-52.0	15.4	0.00e+00	0	23	0	732954624	67	4197
2026-01-10 04:32:15.16	332.74	23.29	-50.6	-52.4	15.0	0.00e+00	0	23	0	740294656	66	4676
2026-01-10 04:32:19.16	331.68	23.12	-51.2	-53.2	14.8	0.00e+00	0	23	0	747634688	67	4829
2026-01-10 04:32:23.17	330.63	22.94	-51.7	-53.9	14.6	0.00e+00	0	23	0	754974720	68	4951
2026-01-10 04:32:27.17	329.60	22.76	-51.6	-53.7	14.8	0.00e+00	0	23	0	763363328	69	4589
2026-01-10 04:32:31.17	328.57	22.56	-51.5	-53.7	14.9	0.00e+00	0	23	0	770703360	69	4562
2026-01-10 04:32:35.17	327.56	22.36	-52.0	-54.4	14.4	0.00e+00	0	23	0	778043392	69	4949
2026-01-10 04:32:39.18	326.56	22.15	-51.6	-53.8	14.8	0.00e+00	0	23	0	785383424	69	4632
2026-01-10 04:32:43.18	325.58	21.93	-51.3	-53.4	15.0	0.00e+00	0	23	0	792723456	69	4424
2026-01-10 04:32:47.18	324.61	21.70	-52.0	-54.4	14.4	0.00e+00	0	23	0	800063488	69	4928
2026-01-10 04:32:51.18	323.65	21.47	-51.7	-53.9	14.7	0.00e+00	0	23	0	807403520	69	4689
2026-01-10 04:32:55.20	322.71	21.23	-52.3	-55.0	14.1	0.00e+00	0	23	0	815792128	69	5287
2026-01-10 04:32:59.19	321.79	20.99	-53.2	-56.4	13.5	0.00e+00	0	23	0	823132160	71	5589
2026-01-10 04:33:03.20	320.87	20.74	-51.9	-54.2	14.8	0.00e+00	0	23	0	830472192	70	4557
2026-01-10 04:33:07.21	319.97	20.49	-51.5	-53.7	14.9	0.00e+00	0	23	0	837812224	69	4560
2026-01-10 04:33:11.21	319.09	20.23	-50.9	-53.0	15.1	0.00e+00	0	23	0	845152256	68	4452
2026-01-10 04:33:15.22	318.22	19.96	-50.1	-51.8	15.2	0.00e+00	0	23	0	852492288	66	4391
2026-01-10 04:33:19.23	317.37	19.70	-49.7	-51.5	15.2	0.00e+00	0	23	0	860880896	65	4460
2026-01-10 04:33:23.25	316.53	19.43	-51.0	-53.2	14.7	0.00e+00	0	23	0	868220928	67	4831
2026-01-10 04:33:27.24	315.71	19.15	-51.7	-54.2	14.4	0.00e+00	0	23	0	875560960	68	5130
2026-01-10 04:33:31.26	314.90	18.87	-51.5	-53.7	14.8	0.00e+00	0	23	0	882900992	69	4593
2026-01-10 04:33:35.26	314.11	18.59	-51.3	-53.5	14.9	0.00e+00	0	23	0	890241024	69	4469
2026-01-10 04:33:39.28	313.33	18.31	-50.9	-52.9	15.1	0.00e+00	0	23	0	897581056	68	4421
2026-01-10 04:33:43.28	312.57	18.03	-51.6	-54.0	14.5	0.00e+00	0	23	0	905969664	68	5004
2026-01-10 04:33:47.28	311.82	17.74	-51.3	-53.4	14.8	0.00e+00	0	23	0	913309696	68	4686
2026-01-10 04:33:51.27	311.09	17.45	-51.7	-54.0	14.5	0.00e+00	0	23	0	920649728	68	4997
2026-01-10 04:33:55.28	310.37	17.16	-51.2	-53.3	14.9	0.00e+00	0	23	0	927989760	68	4627
2026-01-10 04:33:59.27	309.67	16.87	-50.8	-52.8	15.1	0.00e+00	0	23	0	935329792	68	4350
2026-01-10 04:34:03.28	308.97	16.58	-50.5	-52.4	15.1	0.00e+00	0	23	0	942669824	67	4430
2026-01-10 04:34:07.27	308.30	16.29	-50.7	-52.6	15.0	0.00e+00	0	23	0	951058432	67	4504
2026-01-10 04:34:11.26	307.63	16.00	-49.8	-51.4	15.4	0.00e+00	0	23	0	958398464	66	4192
2026-01-10 04:34:15.26	306.98	15.71	-50.0	-51.6	15.3	0.00e+00	0	23	0	965738496	66	4284
2026-01-10 04:34:19.29	306.34	15.41	-50.4	-52.2	15.1	0.00e+00	0	23	0	973078528	66	4556
2026-01-10 04:34:23.29	305.71	15.12	-50.4	-52.2	15.1	0.00e+00	0	23	0	980418560	66	4547
2026-01-10 04:34:27.29	305.10	14.82	-50.0	-51.6	15.3	0.00e+00	0	23	0	987758592	66	4286
2026-01-10 04:34:31.29	304.49	14.53	-50.6	-52.5	14.9	0.00e+00	0	23	0	995098624	66	4729
2026-01-10 04:34:35.27	303.91	14.24	-51.2	-53.3	14.6	0.00e+00	0	23	0	1003487232	67	4889
2026-01-10 04:34:39.28	303.33	13.95	-50.9	-52.8	14.9	0.00e+00	0	23	0	1010827264	67	4649
2026-01-10 04:34:43.28	302.76	13.66	-50.8	-52.7	14.9	0.00e+00	0	23	0	1018167296	67	4554
2026-01-10 04:34:47.30	302.20	13.37	-50.5	-52.2	15.1	0.00e+00	0	23	0	1025507328	67	4340
2026-01-10 04:34:51.30	301.66	13.08	-51.1	-53.0	14.7	0.00e+00	0	23	0	1032847360	67	4739
2026-01-10 04:34:55.29	301.13	12.79	-51.9	-54.1	14.6	0.00e+00	0	23	0	1040187392	69	4793
2026-01-10 04:34:59.27	300.61	12.50	-51.4	-53.4	14.9	0.00e+00	0	23	0	1047527424	69	4396
2026-01-10 04:35:03.27	300.09	12.21	-51.1	-52.9	15.0	0.00e+00	0	23	0	1055916032	68	4441
2026-01-10 04:35:07.25	299.59	11.93	-51.2	-53.1	14.9	0.00e+00	0	23	0	1063256064	68	4509
2026-01-10 04:35:11.25	299.10	11.65	-51.1	-53.0	14.9	0.00e+00	0	24	0	1070596096	68	4487
2026-01-10 04:35:15.24	298.62	11.36	-51.6	-53.7	14.6	0.00e+00	0	23	0	1077936128	68	4824
2026-01-10 04:35:19.24	298.15	11.08	-52.0	-54.3	14.4	0.00e+00	0	23	0	1085276160	69	4915
2026-01-10 04:35:23.23	297.68	10.80	-52.0	-54.3	14.4	0.00e+00	0	24	0	1092616192	69	4915
2026-01-10 04:35:27.23	297.23	10.52	-52.4	-54.8	14.1	0.00e+00	0	23	0	1099956224	69	5217
2026-01-10 04:35:31.22	296.78	10.24	-52.8	-55.5	14.0	0.00e+00	0	24	0	1108344832	71	4993
2026-01-10 04:35:35.22	296.34	9.97	-52.6	-55.1	14.2	0.00e+00	0	24	0	1115684864	71	4812
2026-01-10 04:35:39.22	295.91	9.69	-52.2	-54.5	14.4	0.00e+00	0	24	0	1123024896	70	4714
2026-01-10 04:35:43.22	295.49	9.42	-52.2	-54.5	14.4	0.00e+00	0	24	0	1130364928	70	4718
2026-01-10 04:35:47.22	295.08	9.15	-52.4	-54.8	14.2	0.00e+00	0	23	0	1137704960	70	4912
2026-01-10 04:35:51.23	294.67	8.88	-52.5	-54.9	14.1	0.00e+00	0	23	0	1145044992	70	4970
2026-01-10 04:35:55.24	294.27	8.61	-52.3	-54.6	14.4	0.00e+00	0	23	0	1153433600	70	4774
2026-01-10 04:35:59.24	293.88	8.34	-52.2	-54.4	14.4	0.00e+00	0	24	0	1160773632	70	4689
2026-01-10 04:36:03.23	293.50	8.07	-52.2	-54.5	14.4	0.00e+00	0	23	0	1168113664	70	4737
2026-01-10 04:36:07.23	293.12	7.81	-52.7	-55.2	14.0	0.00e+00	0	23	0	1175453696	70	5120
2026-01-10 04:36:11.23	292.76	7.55	-53.1	-55.9	13.6	0.00e+00	0	24	0	1182793728	71	5223
2026-01-10 04:36:15.22	292.39	7.29	-53.4	-56.4	13.3	0.00e+00	0	24	0	1190133760	71	5551
2026-01-10 04:36:19.22	292.04	7.03	-53.7	-56.8	13.1	0.00e+00	0	23	0	1197473792	72	5528
2026-01-10 04:36:23.22	291.69	6.77	-54.0	-57.3	12.9	0.00e+00	0	24	0	1205862400	73	5488
2026-01-10 04:36:27.22	291.35	6.51	-53.8	-57.1	13.1	0.00e+00	0	24	0	1213202432	73	5380
2026-01-10 04:36:31.23	291.01	6.26	-54.0	-57.3	12.9	0.00e+00	0	24	0	1220542464	73	5515
2026-01-10 04:36:35.23	290.68	6.00	-54.3	-57.9	12.4	0.00e+00	0	23	0	1227882496	73	5898
2026-01-10 04:36:39.22	290.36	5.75	-54.8	-58.9	11.8	1.14e-05	0	23	0	1235222528	74	6259
2026-01-10 04:36:43.22	290.04	5.50	-54.8	-59.1	11.6	4.11e-05	0	23	0	1242562560	74	6377
2026-01-10 04:36:47.23	289.72	5.25	-54.7	-58.8	11.9	9.90e-06	0	23	0	1250951168	75	5804
2026-01-10 04:36:51.24	289.41	5.00	-54.9	-59.2	11.6	3.00e-06	0	24	0	1258291200	74	6468
2026-01-10 04:36:55.23	289.11	4.76	-58.7	-74.7	3.8	1.49e+00	0	24	104	1258291200	82	24159
2026-01-10 04:36:59.23	288.82	4.51	-59.0	-75.0	3.8	1.49e+00	0	24	104	1258291200	83	23771
2026-01-10 04:37:03.23	288.52	4.27	-59.2	-75.2	3.8	1.49e+00	0	24	104	1258291200	83	24401
2026-01-10 04:37:07.22	288.24	4.03	-59.3	-75.4	3.8	1.49e+00	0	24	104	1258291200	83	24791
2026-01-10 04:37:11.20	287.96	3.79	-59.4	-75.5	3.8	1.49e+00	0	24	104	1258291200	83	25001
2026-01-10 04:37:15.21	287.68	3.55	-59.4	-75.5	3.8	1.49e+00	0	24	104	1258291200	83	25031
2026-01-10 04:37:19.22	287.41	3.31	-59.4	-75.4	3.8	1.49e+00	0	24	104	1258291200	83	24897
2026-01-10 04:37:23.22	287.14	3.08	-59.3	-75.4	3.8	1.49e+00	0	24	104	1258291200	83	24702
2026-01-10 04:37:27.23	286.87	2.84	-59.2	-75.3	3.8	1.49e+00	0	24	104	1258291200	83	24530
2026-01-10 04:37:31.22	286.62	2.61	-59.2	-75.3	3.8	1.49e+00	0	24	104	1258291200	83	24491
2026-01-10 04:37:35.23	286.36	2.38	-59.2	-75.2	3.8	1.49e+00	0	24	104	1258291200	83	24408
2026-01-10 04:37:39.24	286.11	2.15	-59.2	-75.2	3.8	1.49e+00	0	24	104	1258291200	83	24402

#Closed at: 2026-01-10 04:37:42
#Recorded file [1258 MB]: D:/lorett/data/31004_260110_072455.dat