passes_logs/2026/01/10/R3.2S_Murmansk/R3.2S_Murmansk__20260110_103307_NOAA_21_JPSS-2_rec.log

#Pass ID: 20260110_103307_NOAA 21 (JPSS-2)
#Satellite: NOAA 21 (JPSS-2)
#Configuration: NOAA-21
#almurnet v.1.7.20251203
#Start time: 2026-01-10 10:33:08

#Version: 2.2.20231116
#Station: R3.2S_Murmansk
#Location: 33.079688 lon 68.888172 lat
#TLE: 1 54234U 22150A   26009.79679979  .00000100  00000+0  68070-4 0  9993
#TLE: 2 54234  98.7494 310.7596 0000833 322.2782  37.8335 14.19533646164071

#Time	Az	El	Level	Level2	SNR	BER	BlckErr	Temp	State	Recorded	gain1	gain2
2026-01-10 10:33:08.34	176.91	2.04	-57.4	-71.0	3.8	1.49e+00	0	21	0	0	81	16779
2026-01-10 10:33:12.37	177.04	2.29	-57.3	-71.1	3.8	1.49e+00	0	21	104	0	79	18987
2026-01-10 10:33:16.40	177.17	2.55	-57.3	-70.9	3.8	1.49e+00	0	21	104	0	79	18527
2026-01-10 10:33:20.43	177.30	2.81	-57.3	-70.8	3.8	1.49e+00	0	21	104	0	79	18511
2026-01-10 10:33:24.46	177.44	3.07	-57.3	-71.0	3.8	1.49e+00	0	21	104	0	79	18806
2026-01-10 10:33:28.49	177.57	3.33	-57.3	-70.8	3.8	1.49e+00	0	22	104	0	79	18458
2026-01-10 10:33:32.52	177.71	3.59	-57.3	-71.1	3.8	1.49e+00	0	22	104	0	79	19033
2026-01-10 10:33:36.56	177.85	3.86	-57.1	-68.0	4.1	1.49e+00	0	22	104	0	79	13308
2026-01-10 10:33:40.60	178.00	4.13	-56.7	-64.5	5.6	4.65e-01	0	22	0	5242880	79	8863
2026-01-10 10:33:44.62	178.14	4.40	-56.2	-62.3	7.2	1.11e-01	0	22	0	17825792	79	6932
2026-01-10 10:33:48.66	178.29	4.68	-55.3	-59.6	9.5	6.66e-03	0	22	0	30408704	77	5712
2026-01-10 10:33:52.69	178.44	4.96	-54.0	-57.2	11.4	1.24e-04	0	22	0	42991616	74	5134
2026-01-10 10:33:56.71	178.59	5.24	-51.9	-53.9	13.4	3.33e-01	0	22	104	52428800	70	4425
2026-01-10 10:34:00.73	178.75	5.52	-51.0	-52.9	14.0	0.00e+00	0	22	0	63963136	68	4399
2026-01-10 10:34:04.72	178.91	5.81	-50.9	-52.7	14.1	0.00e+00	0	22	0	76546048	68	4339
2026-01-10 10:34:08.74	179.07	6.09	-50.7	-52.4	14.3	0.00e+00	0	22	0	89128960	68	4177
2026-01-10 10:34:12.75	179.23	6.38	-50.5	-52.1	14.3	0.00e+00	0	22	0	101711872	67	4287
2026-01-10 10:34:16.75	179.40	6.68	-50.5	-52.2	14.4	0.00e+00	0	22	0	114294784	67	4294
2026-01-10 10:34:20.73	179.57	6.97	-50.4	-52.0	14.4	0.00e+00	0	22	0	126877696	67	4236
2026-01-10 10:34:24.70	179.74	7.27	-50.3	-51.9	14.5	0.00e+00	0	22	0	139460608	67	4165
2026-01-10 10:34:28.65	179.92	7.57	-50.1	-51.7	14.5	0.00e+00	0	22	0	152043520	66	4312
2026-01-10 10:34:32.63	180.09	7.88	-49.9	-51.5	14.6	0.00e+00	0	23	0	163577856	66	4200
2026-01-10 10:34:36.59	180.28	8.18	-49.9	-51.5	14.7	0.00e+00	0	23	0	176160768	66	4196
2026-01-10 10:34:40.56	180.46	8.49	-49.8	-51.3	14.8	0.00e+00	0	22	0	188743680	66	4102
2026-01-10 10:34:44.52	180.65	8.81	-49.7	-51.2	14.8	0.00e+00	0	23	0	201326592	66	4074
2026-01-10 10:34:48.46	180.84	9.13	-49.7	-51.1	14.7	0.00e+00	0	23	0	213909504	65	4288
2026-01-10 10:34:52.42	181.04	9.45	-49.4	-50.8	14.9	0.00e+00	0	23	0	225443840	65	4137
2026-01-10 10:34:56.38	181.24	9.77	-49.2	-50.6	15.0	0.00e+00	0	23	0	238026752	65	4034
2026-01-10 10:35:00.34	181.44	10.10	-49.1	-50.5	14.9	0.00e+00	0	23	0	250609664	64	4213
2026-01-10 10:35:04.29	181.65	10.44	-49.2	-50.6	14.9	0.00e+00	0	23	0	263192576	64	4249
2026-01-10 10:35:08.26	181.86	10.77	-48.9	-50.3	15.0	0.00e+00	0	23	0	275775488	64	4123
2026-01-10 10:35:12.23	182.08	11.12	-48.9	-50.3	15.1	0.00e+00	0	23	0	287309824	64	4100
2026-01-10 10:35:16.18	182.31	11.46	-48.9	-50.2	15.0	0.00e+00	0	23	0	299892736	64	4096
2026-01-10 10:35:20.14	182.53	11.82	-48.8	-50.1	15.1	0.00e+00	0	23	0	312475648	64	4050
2026-01-10 10:35:24.10	182.77	12.17	-48.7	-50.1	15.2	0.00e+00	0	23	0	325058560	64	4010
2026-01-10 10:35:28.08	183.01	12.54	-48.8	-50.1	15.1	0.00e+00	0	23	0	337641472	64	4042
2026-01-10 10:35:32.04	183.25	12.90	-48.7	-50.1	15.0	0.00e+00	0	23	0	350224384	63	4249
2026-01-10 10:35:36.01	183.50	13.28	-48.6	-49.9	15.1	0.00e+00	0	23	0	361758720	63	4167
2026-01-10 10:35:39.95	183.75	13.65	-48.6	-49.9	15.1	0.00e+00	0	23	0	374341632	63	4179
2026-01-10 10:35:43.92	184.02	14.03	-48.6	-49.9	15.2	0.00e+00	0	23	0	386924544	63	4149
2026-01-10 10:35:47.89	184.29	14.42	-48.5	-49.8	15.2	0.00e+00	0	23	0	399507456	63	4138
2026-01-10 10:35:51.83	184.56	14.81	-48.6	-49.9	15.1	0.00e+00	0	23	0	412090368	63	4188
2026-01-10 10:35:55.79	184.84	15.21	-48.6	-49.9	15.1	0.00e+00	0	23	0	423624704	63	4172
2026-01-10 10:35:59.74	185.13	15.62	-48.6	-49.9	15.1	0.00e+00	0	23	0	436207616	63	4193
2026-01-10 10:36:03.72	185.43	16.03	-48.6	-49.9	15.1	0.00e+00	0	23	0	448790528	63	4176
2026-01-10 10:36:07.66	185.73	16.45	-48.8	-50.2	15.0	0.00e+00	0	23	0	461373440	63	4294
2026-01-10 10:36:11.63	186.05	16.87	-48.8	-50.1	15.1	0.00e+00	0	23	0	473956352	63	4267
2026-01-10 10:36:15.59	186.37	17.30	-48.8	-50.1	15.0	0.00e+00	0	23	0	485490688	63	4275
2026-01-10 10:36:19.55	186.70	17.74	-48.7	-50.1	15.0	0.00e+00	0	23	0	498073600	63	4246
2026-01-10 10:36:23.51	187.04	18.19	-48.6	-49.9	15.1	0.00e+00	0	23	0	510656512	63	4157
2026-01-10 10:36:27.48	187.39	18.64	-48.6	-49.9	15.1	0.00e+00	0	23	0	523239424	63	4166
2026-01-10 10:36:31.44	187.75	19.10	-48.5	-49.7	15.2	0.00e+00	0	23	0	535822336	63	4091
2026-01-10 10:36:35.41	188.12	19.57	-48.4	-49.7	15.3	0.00e+00	0	23	0	547356672	63	4053
2026-01-10 10:36:39.36	188.50	20.04	-48.2	-49.4	15.4	0.00e+00	0	23	0	559939584	63	3948
2026-01-10 10:36:43.32	188.89	20.53	-48.1	-49.3	15.3	0.00e+00	0	23	0	572522496	62	4128
2026-01-10 10:36:47.27	189.30	21.02	-48.2	-49.4	15.2	0.00e+00	0	23	0	585105408	62	4166
2026-01-10 10:36:51.24	189.72	21.52	-48.1	-49.3	15.3	0.00e+00	0	23	0	597688320	62	4113
2026-01-10 10:36:55.19	190.15	22.03	-48.2	-49.4	15.2	0.00e+00	0	23	0	609222656	62	4182
2026-01-10 10:36:59.14	190.59	22.54	-47.8	-49.0	15.4	0.00e+00	0	23	0	621805568	62	3960
2026-01-10 10:37:03.10	191.05	23.07	-47.5	-48.7	15.4	0.00e+00	0	23	0	634388480	61	4080
2026-01-10 10:37:07.07	191.52	23.60	-47.5	-48.7	15.4	0.00e+00	0	23	0	646971392	61	4053
2026-01-10 10:37:11.03	192.01	24.15	-47.3	-48.5	15.5	0.00e+00	0	23	0	659554304	61	3978
2026-01-10 10:37:14.98	192.52	24.70	-47.5	-48.6	15.4	0.00e+00	0	23	0	671088640	61	4046
2026-01-10 10:37:18.92	193.04	25.26	-47.5	-48.6	15.4	0.00e+00	0	23	0	683671552	61	4043
2026-01-10 10:37:22.87	193.58	25.83	-47.6	-48.8	15.4	0.00e+00	0	23	0	696254464	61	4101
2026-01-10 10:37:26.83	194.15	26.41	-47.8	-48.9	15.3	0.00e+00	0	23	0	708837376	61	4192
2026-01-10 10:37:30.79	194.73	27.00	-48.0	-49.2	15.2	0.00e+00	0	23	0	721420288	61	4317
2026-01-10 10:37:34.75	195.33	27.60	-48.2	-49.4	15.1	0.00e+00	0	23	0	732954624	61	4421
2026-01-10 10:37:38.72	195.96	28.22	-48.5	-49.7	15.1	0.00e+00	0	23	0	745537536	62	4333
2026-01-10 10:37:42.66	196.61	28.84	-48.7	-50.0	15.0	0.00e+00	0	23	0	758120448	62	4480
2026-01-10 10:37:46.64	197.29	29.47	-48.9	-50.2	15.0	0.00e+00	0	23	0	770703360	63	4316
2026-01-10 10:37:50.59	197.99	30.11	-49.1	-50.4	14.9	0.00e+00	0	23	0	783286272	63	4437
2026-01-10 10:37:54.56	198.72	30.76	-48.9	-50.2	15.0	0.00e+00	0	23	0	794820608	63	4327
2026-01-10 10:37:58.50	199.48	31.42	-48.7	-50.0	15.2	0.00e+00	0	23	0	807403520	63	4199
2026-01-10 10:38:02.45	200.27	32.09	-48.3	-49.5	15.4	0.00e+00	0	23	0	819986432	63	3977
2026-01-10 10:38:06.40	201.09	32.77	-48.5	-49.7	15.3	0.00e+00	0	23	0	832569344	63	4096
2026-01-10 10:38:10.37	201.95	33.46	-48.8	-50.1	15.1	0.00e+00	0	23	0	844103680	63	4255
2026-01-10 10:38:14.31	202.84	34.15	-49.2	-50.5	14.9	0.00e+00	0	23	0	856686592	63	4478
2026-01-10 10:38:18.28	203.77	34.86	-49.7	-51.0	14.8	0.00e+00	0	23	0	869269504	64	4490
2026-01-10 10:38:22.22	204.74	35.57	-49.8	-51.2	14.8	0.00e+00	0	23	0	881852416	65	4324
2026-01-10 10:38:26.19	205.76	36.29	-50.0	-51.5	14.7	0.00e+00	0	23	0	894435328	65	4459
2026-01-10 10:38:30.16	206.83	37.02	-49.7	-51.1	14.9	0.00e+00	0	23	0	905969664	65	4272
2026-01-10 10:38:34.13	207.94	37.75	-49.7	-51.0	14.9	0.00e+00	0	23	0	918552576	65	4241
2026-01-10 10:38:38.10	209.10	38.48	-49.8	-51.2	14.9	0.00e+00	0	23	0	931135488	65	4324
2026-01-10 10:38:42.06	210.31	39.22	-49.9	-51.3	14.8	0.00e+00	0	23	0	943718400	65	4350
2026-01-10 10:38:46.02	211.58	39.96	-50.3	-51.8	14.5	0.00e+00	0	23	0	956301312	65	4624
2026-01-10 10:38:49.99	212.91	40.70	-50.4	-51.9	14.7	0.00e+00	0	23	0	968884224	66	4417
2026-01-10 10:38:53.96	214.29	41.43	-50.6	-52.1	14.5	0.00e+00	0	23	0	980418560	66	4534
2026-01-10 10:38:57.92	215.74	42.16	-51.9	-53.7	14.1	0.00e+00	0	23	0	993001472	69	4559
2026-01-10 10:39:01.88	217.26	42.88	-52.0	-53.7	14.1	0.00e+00	0	23	0	1005584384	69	4570
2026-01-10 10:39:05.85	218.84	43.60	-51.9	-53.7	14.1	0.00e+00	0	23	0	1018167296	69	4552
2026-01-10 10:39:09.79	220.49	44.30	-51.4	-53.0	14.5	0.00e+00	0	23	0	1030750208	69	4207
2026-01-10 10:39:13.75	222.21	44.99	-51.5	-53.0	14.5	0.00e+00	0	23	0	1042284544	69	4240
2026-01-10 10:39:17.71	224.01	45.66	-51.6	-53.2	14.4	0.00e+00	0	23	0	1054867456	69	4309
2026-01-10 10:39:21.69	225.90	46.31	-51.1	-52.7	14.6	0.00e+00	0	23	0	1067450368	68	4312
2026-01-10 10:39:25.66	227.86	46.93	-50.9	-52.4	14.7	0.00e+00	0	23	0	1080033280	68	4174
2026-01-10 10:39:29.62	229.89	47.53	-50.8	-52.3	14.8	0.00e+00	0	23	0	1092616192	68	4119
2026-01-10 10:39:33.57	231.99	48.09	-51.2	-52.8	14.5	0.00e+00	0	23	0	1104150528	68	4362
2026-01-10 10:39:37.52	234.16	48.62	-50.4	-51.8	14.8	0.00e+00	0	24	0	1116733440	67	4127
2026-01-10 10:39:41.49	236.42	49.11	-50.4	-51.8	14.9	0.00e+00	0	23	0	1129316352	67	4118
2026-01-10 10:39:45.44	238.74	49.56	-50.1	-51.5	14.9	0.00e+00	0	23	0	1141899264	66	4207
2026-01-10 10:39:49.40	241.12	49.96	-50.1	-51.5	14.9	0.00e+00	0	23	0	1154482176	66	4204
2026-01-10 10:39:53.36	243.57	50.31	-50.1	-51.5	14.8	0.00e+00	0	23	0	1166016512	66	4208
2026-01-10 10:39:57.31	246.06	50.60	-50.1	-51.5	14.9	0.00e+00	0	23	0	1178599424	66	4222
2026-01-10 10:40:01.25	248.58	50.84	-50.2	-51.7	14.8	0.00e+00	0	23	0	1191182336	66	4306
2026-01-10 10:40:05.21	251.16	51.03	-50.2	-51.7	14.8	0.00e+00	0	23	0	1203765248	66	4300
2026-01-10 10:40:09.18	253.77	51.15	-50.0	-51.4	14.9	0.00e+00	0	23	0	1215299584	66	4178
2026-01-10 10:40:13.14	256.39	51.21	-50.1	-51.5	14.7	0.00e+00	0	23	0	1227882496	65	4469
2026-01-10 10:40:17.11	259.02	51.22	-49.2	-50.5	15.2	0.00e+00	0	23	0	1240465408	65	3979
2026-01-10 10:40:21.08	261.65	51.15	-50.3	-51.7	14.6	0.00e+00	0	23	0	1253048320	65	4591
2026-01-10 10:40:25.03	264.24	51.03	-49.9	-51.2	14.9	0.00e+00	0	23	0	1265631232	65	4338
2026-01-10 10:40:28.97	266.80	50.85	-50.3	-51.7	14.8	0.00e+00	0	23	0	1277165568	66	4317
2026-01-10 10:40:32.95	269.36	50.61	-50.0	-51.4	15.0	0.00e+00	0	23	0	1289748480	66	4158
2026-01-10 10:40:36.92	271.86	50.32	-50.1	-51.4	14.9	0.00e+00	0	23	0	1302331392	66	4192
2026-01-10 10:40:40.87	274.30	49.97	-50.5	-52.0	14.6	0.00e+00	0	23	0	1314914304	66	4481
2026-01-10 10:40:44.83	276.68	49.57	-50.8	-52.3	14.4	0.00e+00	0	23	0	1327497216	66	4619
2026-01-10 10:40:48.78	279.00	49.13	-50.7	-52.2	14.5	0.00e+00	0	23	0	1339031552	66	4588
2026-01-10 10:40:52.73	281.24	48.64	-50.5	-52.0	14.8	0.00e+00	0	23	0	1351614464	67	4207
2026-01-10 10:40:56.70	283.43	48.12	-51.3	-53.0	14.3	0.00e+00	0	23	0	1364197376	67	4710
2026-01-10 10:41:00.65	285.53	47.56	-51.3	-52.9	14.5	0.00e+00	0	23	0	1376780288	68	4420
2026-01-10 10:41:04.59	287.55	46.97	-52.0	-53.8	14.1	0.00e+00	0	23	0	1389363200	69	4622
2026-01-10 10:41:08.56	289.50	46.34	-51.8	-53.5	14.3	0.00e+00	0	23	0	1400897536	69	4457
2026-01-10 10:41:12.51	291.38	45.70	-51.0	-52.6	14.7	0.00e+00	0	23	0	1413480448	68	4243
2026-01-10 10:41:16.49	293.19	45.03	-51.4	-53.0	14.4	0.00e+00	0	23	0	1426063360	68	4455
2026-01-10 10:41:20.45	294.91	44.35	-51.7	-53.4	14.2	0.00e+00	0	23	0	1438646272	68	4676
2026-01-10 10:41:24.40	296.56	43.65	-52.1	-53.9	14.1	0.00e+00	0	23	0	1451229184	70	4401
2026-01-10 10:41:28.37	298.15	42.94	-51.8	-53.5	14.2	0.00e+00	0	23	0	1463812096	69	4478
2026-01-10 10:41:32.34	299.66	42.22	-51.5	-53.1	14.5	0.00e+00	0	23	0	1475346432	69	4260
2026-01-10 10:41:36.30	301.11	41.49	-50.5	-51.9	14.8	0.00e+00	0	23	0	1487929344	67	4167
2026-01-10 10:41:40.25	302.49	40.76	-51.1	-52.7	14.4	0.00e+00	0	23	0	1500512256	67	4561
2026-01-10 10:41:44.21	303.82	40.03	-50.7	-52.2	14.7	0.00e+00	0	23	0	1513095168	67	4305
2026-01-10 10:41:48.17	305.09	39.29	-51.3	-52.9	14.3	0.00e+00	0	23	0	1525678080	67	4678
2026-01-10 10:41:52.12	306.30	38.56	-50.3	-51.7	14.9	0.00e+00	0	23	0	1537212416	67	4057
2026-01-10 10:41:56.09	307.46	37.83	-50.0	-51.4	14.9	0.00e+00	0	23	0	1549795328	66	4157
2026-01-10 10:42:00.05	308.57	37.10	-49.9	-51.3	15.0	0.00e+00	0	23	0	1562378240	66	4099
2026-01-10 10:42:04.01	309.63	36.38	-50.1	-51.5	14.9	0.00e+00	0	23	0	1574961152	66	4217
2026-01-10 10:42:07.97	310.65	35.66	-49.6	-50.9	15.0	0.00e+00	0	23	0	1587544064	65	4156
2026-01-10 10:42:11.93	311.62	34.96	-50.0	-51.4	14.8	0.00e+00	0	23	0	1599078400	65	4395
2026-01-10 10:42:15.90	312.56	34.25	-49.7	-51.0	14.9	0.00e+00	0	23	0	1611661312	65	4228
2026-01-10 10:42:19.85	313.45	33.56	-49.8	-51.2	14.9	0.00e+00	0	23	0	1624244224	65	4320
2026-01-10 10:42:23.80	314.31	32.87	-49.5	-50.8	15.1	0.00e+00	0	23	0	1636827136	65	4121
2026-01-10 10:42:27.77	315.13	32.20	-49.0	-50.3	15.1	0.00e+00	0	23	0	1649410048	64	4104
2026-01-10 10:42:31.71	315.92	31.53	-48.7	-50.0	15.3	0.00e+00	0	23	0	1660944384	64	3969
2026-01-10 10:42:35.65	316.68	30.88	-48.0	-49.2	15.3	0.00e+00	0	23	0	1673527296	62	4084
2026-01-10 10:42:39.62	317.41	30.22	-48.3	-49.5	15.2	0.00e+00	0	23	0	1686110208	62	4232
2026-01-10 10:42:43.57	318.12	29.59	-48.3	-49.6	15.2	0.00e+00	0	23	0	1698693120	62	4258
2026-01-10 10:42:47.53	318.79	28.96	-48.1	-49.3	15.3	0.00e+00	0	23	0	1710227456	62	4129
2026-01-10 10:42:51.49	319.44	28.34	-48.3	-49.6	15.2	0.00e+00	0	23	0	1722810368	62	4251
2026-01-10 10:42:55.46	320.07	27.73	-48.3	-49.6	15.2	0.00e+00	0	23	0	1735393280	62	4265
2026-01-10 10:42:59.43	320.68	27.13	-47.9	-49.0	15.4	0.00e+00	0	23	0	1747976192	62	3988
2026-01-10 10:43:03.38	321.26	26.54	-47.8	-48.9	15.5	0.00e+00	0	23	0	1760559104	62	3954
2026-01-10 10:43:07.34	321.83	25.96	-47.8	-48.9	15.5	0.00e+00	0	24	0	1773142016	62	3941
2026-01-10 10:43:11.28	322.37	25.39	-47.6	-48.8	15.4	0.00e+00	0	23	0	1784676352	61	4109
2026-01-10 10:43:15.26	322.90	24.83	-47.6	-48.7	15.4	0.00e+00	0	23	0	1797259264	61	4097
2026-01-10 10:43:19.21	323.41	24.28	-47.8	-49.0	15.3	0.00e+00	0	23	0	1809842176	61	4238
2026-01-10 10:43:23.19	323.90	23.73	-48.1	-49.3	15.2	0.00e+00	0	23	0	1822425088	61	4356
2026-01-10 10:43:27.15	324.38	23.20	-48.2	-49.4	15.1	0.00e+00	0	23	0	1835008000	61	4441
2026-01-10 10:43:31.10	324.84	22.68	-48.5	-49.8	15.1	0.00e+00	0	23	0	1846542336	62	4353
2026-01-10 10:43:35.06	325.28	22.16	-48.6	-49.9	15.0	0.00e+00	0	23	0	1859125248	62	4421
2026-01-10 10:43:39.03	325.71	21.65	-48.4	-49.7	15.1	0.00e+00	0	23	0	1871708160	62	4314
2026-01-10 10:43:42.99	326.13	21.16	-48.3	-49.5	15.2	0.00e+00	0	23	0	1884291072	62	4229
2026-01-10 10:43:46.96	326.54	20.67	-48.0	-49.2	15.3	0.00e+00	0	23	0	1896873984	62	4079
2026-01-10 10:43:50.92	326.94	20.18	-48.1	-49.3	15.3	0.00e+00	0	23	0	1908408320	62	4126
2026-01-10 10:43:54.88	327.32	19.71	-48.0	-49.2	15.3	0.00e+00	0	23	0	1920991232	62	4098
2026-01-10 10:43:58.82	327.69	19.25	-48.2	-49.5	15.2	0.00e+00	0	24	0	1933574144	62	4201
2026-01-10 10:44:02.78	328.05	18.79	-48.5	-49.8	15.0	0.00e+00	0	23	0	1946157056	62	4370
2026-01-10 10:44:06.75	328.40	18.34	-48.6	-49.9	15.0	0.00e+00	0	23	0	1958739968	62	4412
2026-01-10 10:44:10.72	328.74	17.89	-48.4	-49.7	15.0	0.00e+00	0	23	0	1970274304	62	4333
2026-01-10 10:44:14.70	329.08	17.45	-48.4	-49.7	15.1	0.00e+00	0	23	0	1982857216	62	4305
2026-01-10 10:44:18.66	329.40	17.02	-48.1	-49.4	15.2	0.00e+00	0	23	0	1995440128	62	4162
2026-01-10 10:44:22.63	329.72	16.60	-48.2	-49.5	15.2	0.00e+00	0	23	0	2008023040	62	4204
2026-01-10 10:44:26.61	330.03	16.18	-48.3	-49.5	15.1	0.00e+00	0	23	0	2020605952	62	4235
2026-01-10 10:44:30.57	330.32	15.77	-48.3	-49.6	15.1	0.00e+00	0	23	0	2032140288	62	4259
2026-01-10 10:44:34.55	330.62	15.36	-48.3	-49.6	15.1	0.00e+00	0	23	0	2044723200	62	4257
2026-01-10 10:44:38.53	330.90	14.96	-48.6	-49.9	15.0	0.00e+00	0	23	0	2057306112	62	4397
2026-01-10 10:44:42.51	331.18	14.57	-48.8	-50.1	14.9	0.00e+00	0	23	0	2069889024	62	4520
2026-01-10 10:44:46.48	331.45	14.18	-48.9	-50.2	14.8	0.00e+00	0	23	0	2082471936	62	4582
2026-01-10 10:44:50.44	331.72	13.80	-49.0	-50.3	14.9	0.00e+00	0	23	0	2095054848	63	4373
2026-01-10 10:44:54.39	331.97	13.43	-49.1	-50.5	14.8	0.00e+00	0	23	0	2107637760	63	4479
2026-01-10 10:44:58.37	332.23	13.05	-49.1	-50.4	14.8	0.00e+00	0	23	0	2119172096	63	4435
2026-01-10 10:45:02.33	332.47	12.69	-49.0	-50.4	14.8	0.00e+00	0	23	0	2131755008	63	4427
2026-01-10 10:45:06.29	332.71	12.33	-49.1	-50.4	14.8	0.00e+00	0	23	0	2144337920	63	4434
2026-01-10 10:45:10.27	332.95	11.97	-49.2	-50.6	14.7	0.00e+00	0	23	0	2156920832	63	4500
2026-01-10 10:45:14.24	333.18	11.62	-49.2	-50.6	14.7	0.00e+00	0	23	0	2169503744	63	4518
2026-01-10 10:45:18.21	333.41	11.27	-49.4	-50.9	14.7	0.00e+00	0	23	0	2181038080	64	4405
2026-01-10 10:45:22.18	333.63	10.93	-49.6	-51.1	14.6	0.00e+00	0	24	0	2193620992	64	4510
2026-01-10 10:45:26.17	333.84	10.59	-49.6	-51.1	14.6	0.00e+00	0	23	0	2206203904	64	4519
2026-01-10 10:45:30.14	334.06	10.26	-49.7	-51.3	14.5	0.00e+00	0	23	0	2218786816	64	4601
2026-01-10 10:45:34.10	334.26	9.93	-49.8	-51.3	14.4	0.00e+00	0	23	0	2231369728	64	4609
2026-01-10 10:45:38.07	334.47	9.60	-49.7	-51.2	14.5	0.00e+00	0	24	0	2243952640	64	4576
2026-01-10 10:45:42.02	334.66	9.28	-49.7	-51.2	14.5	0.00e+00	0	24	0	2255486976	64	4563
2026-01-10 10:45:46.01	334.86	8.96	-49.7	-51.3	14.4	0.00e+00	0	23	0	2268069888	64	4603
2026-01-10 10:45:49.99	335.05	8.65	-49.8	-51.3	14.4	0.00e+00	0	24	0	2280652800	64	4645
2026-01-10 10:45:53.96	335.24	8.34	-49.7	-51.3	14.4	0.00e+00	0	23	0	2293235712	64	4610
2026-01-10 10:45:57.94	335.42	8.03	-49.9	-51.4	14.4	0.00e+00	0	23	0	2305818624	65	4426
2026-01-10 10:46:01.91	335.60	7.73	-50.0	-51.6	14.3	0.00e+00	0	24	0	2318401536	65	4515
2026-01-10 10:46:05.88	335.78	7.43	-50.1	-51.7	14.2	0.00e+00	0	24	0	2329935872	65	4577
2026-01-10 10:46:09.84	335.96	7.13	-50.1	-51.8	14.2	0.00e+00	0	24	0	2342518784	65	4618
2026-01-10 10:46:13.80	336.13	6.84	-50.6	-52.3	14.0	0.00e+00	0	24	0	2355101696	66	4640
2026-01-10 10:46:17.76	336.29	6.55	-50.5	-52.3	14.0	3.00e-06	0	24	0	2367684608	66	4610
2026-01-10 10:46:21.72	336.46	6.26	-50.5	-52.2	14.1	0.00e+00	0	24	0	2380267520	66	4565
2026-01-10 10:46:25.67	336.62	5.98	-50.7	-52.5	14.0	0.00e+00	0	24	0	2392850432	67	4445
2026-01-10 10:46:29.64	336.78	5.70	-50.3	-52.0	14.3	0.00e+00	0	23	0	2404384768	67	4226
2026-01-10 10:46:33.61	336.94	5.42	-51.0	-52.9	14.0	0.00e+00	0	24	0	2416967680	68	4392
2026-01-10 10:46:37.56	337.09	5.15	-51.1	-53.0	13.8	0.00e+00	0	24	0	2429550592	68	4461
2026-01-10 10:46:41.54	337.24	4.87	-58.3	-72.1	3.8	1.49e+00	0	24	104	2436890624	81	19134
2026-01-10 10:46:45.55	337.39	4.60	-59.1	-72.9	3.8	1.49e+00	0	24	104	2436890624	83	18569
2026-01-10 10:46:49.55	337.54	4.33	-59.4	-73.2	3.8	1.49e+00	0	24	104	2436890624	83	19256
2026-01-10 10:46:53.53	337.69	4.06	-59.7	-73.5	3.8	1.49e+00	0	24	104	2436890624	84	18806
2026-01-10 10:46:57.54	337.83	3.80	-59.8	-73.6	3.8	1.49e+00	0	24	104	2436890624	84	19081
2026-01-10 10:47:01.57	337.97	3.54	-59.8	-73.6	3.8	1.49e+00	0	24	104	2436890624	84	19070
2026-01-10 10:47:05.54	338.11	3.28	-59.7	-73.5	3.8	1.49e+00	0	24	104	2436890624	84	18885
2026-01-10 10:47:09.50	338.25	3.02	-59.7	-73.4	3.8	1.49e+00	0	24	104	2436890624	84	18728
2026-01-10 10:47:13.49	338.38	2.77	-59.6	-73.4	3.8	1.49e+00	0	24	104	2436890624	84	18712
2026-01-10 10:47:17.47	338.52	2.52	-59.6	-73.4	3.8	1.49e+00	0	24	104	2436890624	84	18653
2026-01-10 10:47:21.44	338.65	2.27	-59.6	-73.4	3.8	1.49e+00	0	24	104	2436890624	84	18588
2026-01-10 10:47:25.42	338.77	2.02	-59.6	-73.3	3.8	1.49e+00	0	24	104	2436890624	84	18506

#Closed at: 2026-01-10 10:47:28
#Recorded file [2436 MB]: D:/lorett/data/31004_260110_133308.dat