passes_logs/2026/01/10/R3.2S_Murmansk/R3.2S_Murmansk__20260110_022449_AQUA_rec.log

#Pass ID: 20260110_022449_AQUA
#Satellite: AQUA
#Configuration: AQUA
#almurnet v.1.7.20251203
#Start time: 2026-01-10 02:24:51

#Version: 2.2.20231116
#Station: R3.2S_Murmansk
#Location: 33.079688 lon 68.888172 lat
#TLE: 1 27424U 02022A   26009.00333547  .00001046  00000+0  21942-3 0  9998
#TLE: 2 27424  98.4075 335.3304 0002025  85.7625 349.1392 14.61808998260011

#Time	Az	El	Level	Level2	SNR	BER	BlckErr	Temp	State	Recorded	gain1	gain2
2026-01-10 02:24:51.26	23.84	2.14	-56.7	-76.0	3.8	7.45e-01	0	21	0	0	82	32903
2026-01-10 02:24:54.23	23.84	2.33	-56.6	-75.9	3.8	7.47e-01	0	21	104	0	81	34321
2026-01-10 02:24:57.23	23.84	2.54	-56.6	-75.9	3.8	7.45e-01	0	22	104	0	81	34311
2026-01-10 02:25:00.23	23.84	2.74	-56.6	-75.7	3.8	7.50e-01	0	22	104	0	81	33564
2026-01-10 02:25:03.23	23.85	2.94	-56.6	-75.3	3.8	7.47e-01	0	22	104	0	81	32057
2026-01-10 02:25:06.23	23.85	3.15	-56.5	-75.1	3.8	7.47e-01	0	22	104	0	81	31184
2026-01-10 02:25:09.25	23.85	3.36	-56.6	-75.5	3.8	7.47e-01	0	22	104	0	81	32725
2026-01-10 02:25:12.26	23.85	3.57	-56.4	-74.6	3.8	7.45e-01	0	22	104	0	81	29349
2026-01-10 02:25:15.26	23.85	3.78	-55.8	-71.7	3.8	7.48e-01	0	22	104	0	80	22463
2026-01-10 02:25:18.27	23.85	4.00	-54.9	-69.2	3.8	7.45e-01	0	22	104	0	79	17725
2026-01-10 02:25:21.26	23.85	4.21	-54.2	-67.7	3.9	7.45e-01	0	22	104	0	77	16742
2026-01-10 02:25:24.25	23.85	4.43	-54.0	-67.4	3.8	7.45e-01	0	22	104	0	77	16196
2026-01-10 02:25:27.26	23.85	4.65	-54.4	-68.1	3.8	7.46e-01	0	22	104	0	77	17525
2026-01-10 02:25:30.27	23.85	4.87	-54.9	-69.1	3.8	7.42e-01	0	22	104	0	77	19753
2026-01-10 02:25:33.27	23.84	5.10	-55.3	-69.9	3.9	7.45e-01	0	22	104	0	79	19208
2026-01-10 02:25:36.27	23.84	5.32	-53.0	-65.5	3.8	7.46e-01	0	22	104	0	74	15537
2026-01-10 02:25:39.27	23.84	5.55	-52.3	-64.7	3.9	7.44e-01	0	22	104	0	73	14891
2026-01-10 02:25:42.27	23.84	5.78	-54.0	-67.2	3.8	7.46e-01	0	23	104	0	76	16697
2026-01-10 02:25:45.25	23.84	6.01	-55.7	-70.8	3.8	7.44e-01	0	23	104	0	79	21434
2026-01-10 02:25:48.23	23.84	6.24	-50.7	-62.4	3.8	7.47e-01	0	22	104	0	70	13616
2026-01-10 02:25:51.22	23.83	6.48	-55.8	-71.2	3.9	7.45e-01	0	23	104	0	79	22365
2026-01-10 02:25:54.19	23.83	6.72	-51.0	-62.8	3.8	7.47e-01	0	23	104	0	71	13431
2026-01-10 02:25:57.18	23.83	6.96	-56.1	-72.2	3.8	7.46e-01	0	23	104	0	80	23597
2026-01-10 02:26:00.18	23.82	7.20	-50.9	-62.6	3.8	7.44e-01	0	23	104	0	70	13921
2026-01-10 02:26:03.17	23.82	7.45	-50.6	-62.2	3.8	7.47e-01	0	23	104	0	70	13366
2026-01-10 02:26:06.17	23.82	7.70	-53.5	-66.1	3.8	7.46e-01	0	23	104	0	74	16592
2026-01-10 02:26:09.16	23.81	7.95	-55.8	-70.7	3.8	7.44e-01	0	23	104	0	79	21155
2026-01-10 02:26:12.15	23.81	8.21	-50.8	-62.5	3.9	7.44e-01	0	23	104	0	70	13786
2026-01-10 02:26:15.15	23.80	8.47	-56.0	-71.3	3.9	7.46e-01	0	23	104	0	80	21287
2026-01-10 02:26:18.14	23.80	8.73	-51.1	-62.8	3.9	7.43e-01	0	23	104	0	71	13487
2026-01-10 02:26:21.14	23.79	8.99	-57.0	-74.7	3.8	7.47e-01	0	23	104	0	81	29694
2026-01-10 02:26:24.15	23.78	9.26	-50.5	-62.1	3.9	7.49e-01	0	23	104	0	70	13219
2026-01-10 02:26:27.16	23.78	9.53	-50.3	-61.9	3.9	7.45e-01	0	23	104	0	69	13620
2026-01-10 02:26:30.14	23.77	9.80	-54.4	-67.6	3.9	7.43e-01	0	23	104	0	76	17666
2026-01-10 02:26:33.14	23.76	10.08	-56.7	-73.7	3.8	7.44e-01	0	23	104	0	81	26562
2026-01-10 02:26:36.15	23.75	10.36	-50.6	-62.3	3.9	7.47e-01	0	23	104	0	70	13421
2026-01-10 02:26:39.13	23.75	10.65	-57.0	-74.6	3.8	7.46e-01	0	23	104	0	81	29642
2026-01-10 02:26:42.14	23.74	10.94	-49.8	-61.3	3.8	7.45e-01	0	23	104	0	68	13545
2026-01-10 02:26:45.14	23.73	11.23	-54.6	-67.9	3.9	7.47e-01	0	23	104	0	77	17095
2026-01-10 02:26:48.14	23.72	11.53	-49.7	-61.1	3.9	7.46e-01	0	23	104	0	68	13139
2026-01-10 02:26:51.15	23.71	11.83	-49.6	-61.0	3.9	7.43e-01	0	23	104	0	68	13075
2026-01-10 02:26:54.14	23.70	12.13	-53.8	-66.6	3.8	7.46e-01	0	23	104	0	75	16648
2026-01-10 02:26:57.14	23.69	12.44	-56.7	-73.1	3.8	7.45e-01	0	23	104	0	81	24803
2026-01-10 02:27:00.13	23.68	12.75	-49.3	-60.7	3.8	7.43e-01	0	23	104	0	67	13285
2026-01-10 02:27:03.12	23.66	13.07	-57.0	-74.1	3.8	7.44e-01	0	23	104	0	81	27733
2026-01-10 02:27:06.12	23.65	13.39	-49.5	-60.9	3.9	7.46e-01	0	23	104	0	68	12840
2026-01-10 02:27:09.12	23.64	13.72	-55.0	-68.4	3.8	7.44e-01	0	23	104	0	78	17233
2026-01-10 02:27:12.12	23.62	14.05	-50.1	-61.6	3.9	7.44e-01	0	23	104	0	69	13124
2026-01-10 02:27:15.12	23.61	14.39	-49.8	-61.2	3.8	7.49e-01	0	23	104	0	68	13352
2026-01-10 02:27:18.11	23.59	14.73	-52.4	-64.5	3.8	7.46e-01	0	23	104	0	72	15491
2026-01-10 02:27:21.11	23.58	15.08	-55.9	-70.3	3.8	7.45e-01	0	23	104	0	79	20092
2026-01-10 02:27:24.11	23.56	15.43	-48.9	-60.2	3.8	7.46e-01	0	23	104	0	67	12626
2026-01-10 02:27:27.10	23.54	15.79	-56.1	-70.9	3.8	7.47e-01	0	23	104	0	80	20346
2026-01-10 02:27:30.09	23.52	16.15	-49.1	-60.5	3.8	7.44e-01	0	23	104	0	67	12960
2026-01-10 02:27:33.09	23.50	16.53	-55.3	-69.1	3.9	7.42e-01	0	23	104	0	78	18523
2026-01-10 02:27:36.08	23.48	16.90	-49.3	-60.6	3.8	7.47e-01	0	23	104	0	67	13189
2026-01-10 02:27:39.09	23.46	17.29	-49.3	-60.6	3.8	7.45e-01	0	23	104	0	67	13243
2026-01-10 02:27:42.07	23.44	17.68	-52.5	-64.5	3.8	7.44e-01	0	23	104	0	73	14705
2026-01-10 02:27:45.06	23.42	18.07	-56.2	-70.8	3.8	7.47e-01	0	23	104	0	80	20163
2026-01-10 02:27:48.06	23.40	18.48	-49.0	-60.3	3.9	7.43e-01	0	23	104	0	67	12709
2026-01-10 02:27:51.05	23.37	18.89	-57.2	-73.9	3.8	7.46e-01	0	23	104	0	82	25640
2026-01-10 02:27:54.05	23.34	19.31	-49.7	-61.1	3.8	7.43e-01	0	23	104	0	68	13251
2026-01-10 02:27:57.05	23.32	19.74	-55.3	-68.9	3.8	7.45e-01	0	23	104	0	78	18206
2026-01-10 02:28:00.04	23.29	20.17	-49.5	-60.8	3.8	7.49e-01	0	23	104	0	68	12768
2026-01-10 02:28:03.03	23.26	20.62	-49.4	-60.8	3.9	7.44e-01	0	23	104	0	68	12683
2026-01-10 02:28:06.03	23.23	21.07	-52.9	-64.9	3.8	7.45e-01	0	23	104	0	74	14529
2026-01-10 02:28:09.03	23.20	21.53	-56.4	-71.0	3.8	7.48e-01	0	23	104	0	80	20760
2026-01-10 02:28:12.04	23.16	22.01	-49.6	-61.0	3.8	7.45e-01	0	23	104	0	68	13047
2026-01-10 02:28:15.03	23.13	22.49	-56.5	-71.4	3.8	7.46e-01	0	23	104	0	80	21586
2026-01-10 02:28:18.04	23.09	22.98	-49.9	-61.3	3.8	7.43e-01	0	23	104	0	69	12744
2026-01-10 02:28:21.03	23.05	23.48	-56.1	-70.5	3.9	7.45e-01	0	23	104	0	80	19403
2026-01-10 02:28:24.03	23.01	24.00	-49.7	-61.1	3.8	7.46e-01	0	23	104	0	68	13141
2026-01-10 02:28:27.02	22.97	24.52	-49.5	-60.9	3.9	7.42e-01	0	23	104	0	68	12923
2026-01-10 02:28:30.02	22.93	25.06	-53.6	-66.0	3.9	7.48e-01	0	23	104	0	74	16415
2026-01-10 02:28:33.02	22.88	25.60	-57.0	-72.9	3.8	7.52e-01	0	23	104	0	81	24180
2026-01-10 02:28:36.02	22.83	26.17	-49.6	-61.0	3.8	7.43e-01	0	23	104	0	68	12974
2026-01-10 02:28:39.03	22.78	26.74	-57.4	-74.2	3.8	7.47e-01	0	23	104	0	82	26591
2026-01-10 02:28:42.02	22.73	27.33	-49.8	-61.2	3.8	7.44e-01	0	23	104	0	68	13287
2026-01-10 02:28:45.00	22.67	27.92	-54.4	-67.2	3.8	7.50e-01	0	23	104	0	76	16867
2026-01-10 02:28:48.00	22.62	28.54	-48.8	-60.1	3.8	7.45e-01	0	23	104	0	66	13121
2026-01-10 02:28:51.00	22.55	29.17	-49.1	-60.4	3.8	7.48e-01	0	23	104	0	67	12933
2026-01-10 02:28:54.00	22.49	29.81	-53.0	-65.1	3.8	7.42e-01	0	23	104	0	73	15695
2026-01-10 02:28:56.99	22.42	30.47	-56.9	-72.2	3.8	7.48e-01	0	23	104	0	81	22496
2026-01-10 02:28:59.99	22.35	31.15	-49.1	-60.4	3.8	7.44e-01	0	23	104	0	67	12885
2026-01-10 02:29:02.99	22.28	31.85	-56.4	-70.7	3.8	7.47e-01	0	23	104	0	80	19864
2026-01-10 02:29:06.00	22.20	32.56	-49.1	-60.3	3.8	7.48e-01	0	23	104	0	67	12740
2026-01-10 02:29:09.00	22.12	33.30	-56.0	-70.1	3.9	7.45e-01	0	23	104	0	80	18525
2026-01-10 02:29:12.01	22.03	34.05	-50.0	-61.3	3.9	7.44e-01	0	23	104	0	69	12810
2026-01-10 02:29:15.02	21.94	34.82	-50.2	-61.6	3.9	7.47e-01	0	23	104	0	69	13240
2026-01-10 02:29:18.02	21.84	35.62	-53.8	-66.1	3.8	7.43e-01	0	23	104	0	75	15713
2026-01-10 02:29:21.02	21.74	36.43	-57.5	-73.9	3.8	7.49e-01	0	23	104	0	82	25636
2026-01-10 02:29:24.04	21.63	37.27	-50.9	-62.4	3.9	7.43e-01	0	23	104	0	70	13598
2026-01-10 02:29:27.03	21.51	38.13	-57.3	-72.9	3.9	7.46e-01	0	23	104	0	82	22965
2026-01-10 02:29:30.03	21.39	39.01	-51.0	-62.5	3.8	7.46e-01	0	23	104	0	71	13007
2026-01-10 02:29:33.04	21.26	39.92	-57.1	-72.5	3.8	7.42e-01	0	23	104	0	82	21890
2026-01-10 02:29:36.04	21.12	40.85	-51.7	-63.4	3.9	7.44e-01	0	23	104	0	72	13682
2026-01-10 02:29:39.05	20.97	41.81	-51.7	-63.4	3.8	7.47e-01	0	23	104	0	72	13683
2026-01-10 02:29:42.05	20.81	42.80	-53.1	-65.1	3.8	7.39e-01	0	23	104	0	75	13997
2026-01-10 02:29:45.06	20.64	43.81	-56.8	-71.5	3.8	7.43e-01	0	23	104	0	81	20743
2026-01-10 02:29:48.07	20.46	44.86	-49.7	-60.9	3.9	7.45e-01	0	23	104	0	68	12899
2026-01-10 02:29:51.07	20.26	45.93	-56.5	-70.8	3.9	7.42e-01	0	23	104	0	81	19140
2026-01-10 02:29:54.06	20.05	47.03	-49.5	-60.8	3.8	7.44e-01	0	23	104	0	68	12789
2026-01-10 02:29:57.05	19.83	48.15	-57.5	-73.8	3.8	7.48e-01	0	23	104	0	83	23939
2026-01-10 02:30:00.05	19.58	49.31	-50.7	-62.1	3.8	7.43e-01	0	23	104	0	70	13169
2026-01-10 02:30:03.04	19.31	50.50	-50.0	-61.3	3.8	7.44e-01	0	23	104	0	69	12711
2026-01-10 02:30:06.04	19.02	51.73	-52.2	-63.9	3.8	7.46e-01	0	23	104	0	73	13591
2026-01-10 02:30:09.04	18.71	52.99	-56.5	-70.4	3.8	7.44e-01	0	23	104	0	80	19279
2026-01-10 02:30:12.04	18.36	54.28	-49.1	-60.4	3.8	7.44e-01	0	23	104	0	67	12834
2026-01-10 02:30:15.06	17.98	55.61	-57.0	-71.8	3.8	7.43e-01	0	23	104	0	81	21497
2026-01-10 02:30:18.06	17.56	56.97	-49.7	-60.9	3.8	7.44e-01	0	23	104	0	68	12881
2026-01-10 02:30:21.06	17.09	58.36	-54.6	-67.3	3.8	7.46e-01	0	23	104	0	77	15962
2026-01-10 02:30:24.06	16.57	59.79	-50.9	-62.4	3.8	7.47e-01	0	23	104	0	70	13681
2026-01-10 02:30:27.07	15.98	61.25	-50.9	-62.4	3.8	7.44e-01	0	23	104	0	70	13677
2026-01-10 02:30:30.12	15.31	62.76	-54.5	-67.2	3.8	7.46e-01	0	23	104	0	76	16858
2026-01-10 02:30:32.97	14.60	64.21	-57.5	-65.0	10.9	6.11e-01	0	23	0	2097152	82	9205
2026-01-10 02:30:36.13	13.69	65.83	-52.5	-54.8	15.5	6.04e-01	0	23	0	8388608	73	4791
2026-01-10 02:30:38.99	12.75	67.33	-52.9	-55.3	15.5	6.04e-01	0	23	0	13631488	74	4779
2026-01-10 02:30:42.12	11.54	69.00	-53.2	-55.7	15.3	6.03e-01	0	23	0	19398656	74	5019
2026-01-10 02:30:44.97	10.24	70.53	-53.2	-55.8	15.3	6.05e-01	0	23	0	24641536	74	5055
2026-01-10 02:30:48.10	8.53	72.23	-52.7	-55.0	15.7	6.04e-01	0	23	0	30408704	74	4602
2026-01-10 02:30:50.97	6.62	73.80	-52.2	-54.3	15.8	6.04e-01	0	23	0	36175872	73	4540
2026-01-10 02:30:54.11	4.04	75.51	-52.2	-54.3	15.6	6.02e-01	0	23	0	41943040	72	4811
2026-01-10 02:30:56.95	1.09	77.05	-52.0	-54.2	15.7	6.02e-01	0	23	0	47185920	72	4710
2026-01-10 02:31:00.08	356.87	78.72	-51.9	-54.1	15.7	6.02e-01	0	23	0	52953088	72	4653
2026-01-10 02:31:02.95	351.74	80.19	-50.2	-52.0	16.0	6.03e-01	0	23	0	58720256	69	4343
2026-01-10 02:31:06.08	344.08	81.68	-50.0	-51.7	15.9	6.02e-01	0	23	0	64487424	68	4474
2026-01-10 02:31:08.93	334.44	82.87	-50.0	-51.7	15.9	6.04e-01	0	23	0	69730304	68	4472
2026-01-10 02:31:12.07	319.91	83.86	-50.5	-52.3	15.7	6.04e-01	0	23	0	75497472	68	4766
2026-01-10 02:31:14.93	303.21	84.32	-49.8	-51.5	16.0	6.03e-01	0	23	0	81264640	68	4363
2026-01-10 02:31:18.08	283.61	84.20	-49.7	-51.4	16.0	6.03e-01	0	23	0	87031808	68	4322
2026-01-10 02:31:20.94	268.02	83.57	-50.3	-52.1	15.8	6.07e-01	0	23	0	92274688	68	4688
2026-01-10 02:31:24.09	254.92	82.44	-50.0	-51.7	15.9	6.04e-01	0	23	0	98041856	68	4493
2026-01-10 02:31:26.93	246.38	81.18	-50.2	-52.0	15.8	6.03e-01	0	23	0	103284736	68	4609
2026-01-10 02:31:30.07	239.53	79.64	-50.6	-52.5	15.8	6.04e-01	0	23	0	109576192	69	4603
2026-01-10 02:31:32.91	234.95	78.16	-51.9	-54.0	15.5	6.04e-01	0	23	0	114819072	71	4880
2026-01-10 02:31:36.05	231.10	76.47	-52.9	-55.4	15.3	6.02e-01	0	23	0	120586240	73	5131
2026-01-10 02:31:38.90	228.38	74.92	-52.8	-55.1	15.4	6.04e-01	0	23	0	125829120	73	4964
2026-01-10 02:31:42.04	225.99	73.20	-52.3	-54.5	15.5	6.03e-01	0	23	0	131596288	72	4889
2026-01-10 02:31:44.89	224.23	71.65	-52.6	-54.8	15.6	6.04e-01	0	23	0	137363456	73	4807
2026-01-10 02:31:48.03	222.62	69.94	-53.2	-55.6	15.5	6.01e-01	0	23	0	143130624	75	4686
2026-01-10 02:31:50.86	221.41	68.42	-54.2	-57.1	15.1	6.02e-01	0	23	0	148373504	77	4946
2026-01-10 02:31:53.99	220.26	66.77	-53.9	-56.6	15.2	6.06e-01	0	23	0	154140672	76	4971
2026-01-10 02:31:56.84	219.37	65.28	-52.8	-55.1	15.6	6.03e-01	0	23	0	159383552	74	4674
2026-01-10 02:31:59.97	218.51	63.67	-50.9	-52.7	16.1	6.03e-01	0	23	0	165675008	71	4236
2026-01-10 02:32:02.82	217.83	62.24	-51.6	-53.7	15.7	6.04e-01	0	23	0	170917888	71	4706
2026-01-10 02:32:05.97	217.17	60.68	-51.3	-53.2	15.9	6.04e-01	0	23	0	176685056	71	4475
2026-01-10 02:32:08.82	216.63	59.31	-50.8	-52.6	15.9	6.04e-01	0	23	0	181927936	70	4437
2026-01-10 02:32:11.97	216.11	57.82	-49.8	-51.4	16.0	6.04e-01	0	23	0	188219392	68	4334
2026-01-10 02:32:14.82	215.68	56.50	-48.8	-50.4	16.0	6.01e-01	0	23	0	193462272	66	4293
2026-01-10 02:32:17.97	215.25	55.09	-48.2	-49.7	16.1	6.04e-01	0	23	0	199229440	65	4196
2026-01-10 02:32:20.83	214.90	53.83	-48.3	-49.8	16.1	6.02e-01	0	23	0	204472320	65	4280
2026-01-10 02:32:23.98	214.54	52.48	-48.4	-49.9	16.0	6.04e-01	0	23	0	210239488	65	4337
2026-01-10 02:32:26.84	214.25	51.29	-48.8	-50.5	15.9	6.03e-01	0	23	0	216006656	65	4606
2026-01-10 02:32:29.99	213.95	50.01	-49.2	-50.8	15.8	6.03e-01	0	23	0	221773824	66	4542
2026-01-10 02:32:32.85	213.71	48.88	-49.4	-51.1	15.8	6.03e-01	0	23	0	227016704	66	4682
2026-01-10 02:32:35.99	213.46	47.68	-49.2	-50.8	15.9	6.02e-01	0	23	0	232783872	66	4528
2026-01-10 02:32:38.84	213.24	46.61	-49.2	-50.8	15.9	6.01e-01	0	23	0	238551040	66	4544
2026-01-10 02:32:41.98	213.03	45.47	-49.2	-50.8	15.9	6.03e-01	0	23	0	244318208	66	4532
2026-01-10 02:32:44.84	212.85	44.45	-48.9	-50.5	16.0	6.05e-01	0	23	0	249561088	66	4376
2026-01-10 02:32:47.99	212.66	43.37	-49.4	-51.1	15.8	6.05e-01	0	23	0	255328256	66	4658
2026-01-10 02:32:50.84	212.50	42.41	-49.8	-51.5	15.8	6.04e-01	0	23	0	260571136	67	4630
2026-01-10 02:32:53.98	212.34	41.39	-49.7	-51.4	15.8	6.04e-01	0	23	0	266862592	67	4564
2026-01-10 02:32:56.84	212.20	40.48	-50.5	-52.4	15.7	6.04e-01	0	23	0	272105472	68	4845
2026-01-10 02:32:59.97	212.06	39.52	-50.4	-52.2	15.9	6.05e-01	0	23	0	277872640	69	4492
2026-01-10 02:33:02.81	211.94	38.66	-50.2	-52.0	16.0	6.02e-01	0	23	0	283115520	69	4346
2026-01-10 02:33:05.95	211.81	37.75	-50.9	-52.9	15.6	6.03e-01	0	23	0	288882688	69	4843
2026-01-10 02:33:08.81	211.70	36.93	-50.7	-52.6	15.7	6.03e-01	0	23	0	294649856	69	4654
2026-01-10 02:33:11.94	211.59	36.07	-49.9	-51.7	16.1	6.04e-01	0	23	0	300417024	69	4214
2026-01-10 02:33:14.78	211.49	35.30	-49.5	-51.2	16.1	6.04e-01	0	23	0	305659904	68	4219
2026-01-10 02:33:17.92	211.39	34.48	-49.2	-50.8	16.0	6.05e-01	0	23	0	311427072	67	4288
2026-01-10 02:33:20.77	211.30	33.75	-49.0	-50.6	16.2	6.03e-01	0	23	0	317194240	67	4165
2026-01-10 02:33:23.91	211.21	32.97	-48.6	-50.2	16.1	6.04e-01	0	23	0	322961408	66	4197
2026-01-10 02:33:26.77	211.13	32.27	-48.5	-50.1	16.1	6.03e-01	0	23	0	328204288	66	4165
2026-01-10 02:33:29.90	211.05	31.53	-48.4	-50.0	16.2	6.06e-01	0	23	0	333971456	66	4117
2026-01-10 02:33:32.77	210.98	30.87	-48.3	-49.8	16.1	6.03e-01	0	23	0	339214336	65	4290
2026-01-10 02:33:35.91	210.91	30.16	-48.3	-49.8	16.1	6.03e-01	0	23	0	345505792	65	4282
2026-01-10 02:33:38.76	210.84	29.54	-48.1	-49.7	16.1	6.03e-01	0	23	0	350748672	65	4204
2026-01-10 02:33:41.91	210.78	28.86	-48.4	-49.9	16.0	6.03e-01	0	23	0	356515840	65	4336
2026-01-10 02:33:44.77	210.72	28.26	-48.7	-50.3	15.9	6.02e-01	0	23	0	361758720	65	4524
2026-01-10 02:33:47.90	210.66	27.63	-48.8	-50.5	15.8	6.03e-01	0	23	0	367525888	65	4616
2026-01-10 02:33:50.76	210.61	27.06	-49.2	-50.9	15.7	6.02e-01	0	23	0	373293056	66	4569
2026-01-10 02:33:53.91	210.55	26.44	-49.0	-50.7	15.9	6.04e-01	0	23	0	379060224	66	4456
2026-01-10 02:33:56.76	210.50	25.90	-48.9	-50.5	16.0	6.03e-01	0	23	0	384303104	66	4356
2026-01-10 02:33:59.88	210.45	25.32	-48.9	-50.6	15.9	6.02e-01	0	23	0	390070272	66	4404
2026-01-10 02:34:02.73	210.41	24.80	-49.1	-50.8	15.9	6.03e-01	0	23	0	395837440	66	4522
2026-01-10 02:34:05.87	210.36	24.24	-49.1	-50.8	15.9	6.03e-01	0	23	0	401604608	66	4511
2026-01-10 02:34:08.72	210.32	23.75	-49.2	-50.9	15.9	6.03e-01	0	23	0	406847488	66	4578
2026-01-10 02:34:11.85	210.28	23.21	-49.3	-51.0	15.8	6.03e-01	0	23	0	412614656	66	4631
2026-01-10 02:34:14.69	210.24	22.74	-49.5	-51.2	15.7	6.03e-01	0	23	0	417857536	66	4756
2026-01-10 02:34:17.83	210.20	22.23	-49.4	-51.2	15.7	6.03e-01	0	23	0	424148992	66	4713
2026-01-10 02:34:20.69	210.17	21.77	-49.4	-51.1	15.7	6.04e-01	0	23	0	429391872	66	4696
2026-01-10 02:34:23.83	210.13	21.28	-49.2	-51.0	15.8	6.04e-01	0	23	0	435159040	66	4605
2026-01-10 02:34:26.69	210.10	20.84	-49.1	-50.8	15.9	6.02e-01	0	23	0	440401920	66	4520
2026-01-10 02:34:29.83	210.07	20.36	-49.1	-50.7	15.9	6.02e-01	0	23	0	446693376	66	4478
2026-01-10 02:34:32.68	210.04	19.94	-48.9	-50.5	16.0	6.04e-01	0	23	0	451936256	66	4388
2026-01-10 02:34:35.82	210.01	19.49	-49.0	-50.7	15.9	6.04e-01	0	23	0	457703424	66	4462
2026-01-10 02:34:38.68	209.98	19.08	-49.0	-50.7	15.9	6.02e-01	0	23	0	462946304	66	4467
2026-01-10 02:34:41.82	209.95	18.64	-49.0	-50.7	15.9	6.02e-01	0	23	0	468713472	66	4464
2026-01-10 02:34:44.67	209.93	18.25	-49.0	-50.7	15.9	6.02e-01	0	23	0	474480640	66	4468
2026-01-10 02:34:47.81	209.90	17.83	-49.2	-51.0	15.8	6.04e-01	0	23	0	480247808	66	4601
2026-01-10 02:34:50.68	209.88	17.45	-49.3	-51.1	15.8	6.06e-01	0	23	0	485490688	66	4654
2026-01-10 02:34:53.81	209.86	17.04	-49.4	-51.2	15.8	6.04e-01	0	23	0	491257856	66	4708
2026-01-10 02:34:56.66	209.84	16.68	-49.3	-51.1	15.8	6.04e-01	0	23	0	496500736	66	4673
2026-01-10 02:34:59.80	209.81	16.28	-49.2	-51.0	15.8	6.05e-01	0	23	0	502792192	66	4625
2026-01-10 02:35:02.64	209.79	15.93	-49.2	-51.0	15.8	6.03e-01	0	23	0	508035072	66	4614
2026-01-10 02:35:05.77	209.77	15.55	-49.2	-51.0	15.8	6.03e-01	0	23	0	513802240	66	4610
2026-01-10 02:35:08.61	209.76	15.21	-49.2	-51.0	15.8	6.04e-01	0	23	0	519045120	66	4618
2026-01-10 02:35:11.73	209.74	14.85	-49.3	-51.0	15.7	6.03e-01	0	23	0	524812288	66	4638
2026-01-10 02:35:14.58	209.72	14.52	-49.2	-51.0	15.8	6.04e-01	0	23	0	530579456	66	4600
2026-01-10 02:35:17.72	209.70	14.16	-49.1	-50.8	15.9	6.03e-01	0	23	0	536346624	66	4506
2026-01-10 02:35:20.57	209.69	13.84	-49.1	-50.8	15.8	6.04e-01	0	23	0	541589504	66	4521
2026-01-10 02:35:23.71	209.67	13.49	-49.1	-50.8	15.8	6.03e-01	0	23	0	547356672	66	4538
2026-01-10 02:35:26.57	209.66	13.18	-48.8	-50.5	15.9	6.04e-01	0	23	0	552599552	66	4354
2026-01-10 02:35:29.71	209.64	12.85	-48.8	-50.5	16.0	6.03e-01	0	23	0	558891008	66	4353
2026-01-10 02:35:32.57	209.63	12.54	-48.9	-50.6	15.9	6.04e-01	0	23	0	564133888	66	4399
2026-01-10 02:35:35.71	209.62	12.22	-48.8	-50.5	16.0	6.02e-01	0	23	0	569901056	66	4367
2026-01-10 02:35:38.57	209.60	11.92	-49.0	-50.7	15.9	6.04e-01	0	23	0	575143936	66	4481
2026-01-10 02:35:41.70	209.59	11.61	-49.0	-50.7	15.9	6.03e-01	0	23	0	580911104	66	4480
2026-01-10 02:35:44.57	209.58	11.32	-49.1	-50.8	15.8	6.02e-01	0	23	0	586678272	66	4521
2026-01-10 02:35:47.71	209.57	11.01	-49.1	-50.8	15.8	6.04e-01	0	23	0	592445440	66	4537
2026-01-10 02:35:50.56	209.56	10.73	-49.2	-51.0	15.8	6.02e-01	0	23	0	597688320	66	4622
2026-01-10 02:35:53.71	209.55	10.43	-49.3	-51.1	15.7	6.02e-01	0	23	0	603455488	66	4661
2026-01-10 02:35:56.58	209.54	10.16	-49.3	-51.0	15.7	6.06e-01	0	23	0	609222656	66	4651
2026-01-10 02:35:59.70	209.53	9.87	-49.4	-51.2	15.7	6.03e-01	0	23	0	614989824	66	4712
2026-01-10 02:36:02.55	209.52	9.60	-49.4	-51.2	15.7	6.04e-01	0	23	0	620232704	66	4745
2026-01-10 02:36:05.68	209.51	9.32	-49.3	-51.1	15.7	6.03e-01	0	23	0	625999872	66	4696
2026-01-10 02:36:08.52	209.50	9.06	-49.5	-51.4	15.6	6.05e-01	0	23	0	631242752	66	4819
2026-01-10 02:36:11.64	209.50	8.78	-49.5	-51.3	15.7	6.05e-01	0	23	0	637534208	66	4810
2026-01-10 02:36:14.49	209.49	8.53	-49.6	-51.4	15.6	6.01e-01	0	23	0	642777088	66	4858
2026-01-10 02:36:17.64	209.48	8.26	-49.6	-51.5	15.7	6.04e-01	0	23	0	648544256	67	4625
2026-01-10 02:36:20.48	209.48	8.01	-49.8	-51.7	15.7	6.05e-01	0	23	0	653787136	67	4710
2026-01-10 02:36:23.62	209.47	7.75	-49.8	-51.7	15.7	6.01e-01	0	23	0	659554304	67	4728
2026-01-10 02:36:26.47	209.46	7.51	-49.7	-51.5	15.7	6.04e-01	0	23	0	665321472	67	4645
2026-01-10 02:36:29.61	209.46	7.24	-49.8	-51.8	15.6	6.01e-01	0	23	0	671088640	67	4767
2026-01-10 02:36:32.48	209.45	7.01	-49.8	-51.8	15.6	6.04e-01	0	23	0	676331520	67	4772
2026-01-10 02:36:35.60	209.45	6.75	-50.0	-51.9	15.6	6.00e-01	0	23	0	682098688	67	4854
2026-01-10 02:36:38.45	209.44	6.52	-49.8	-51.8	15.6	6.03e-01	0	23	0	687341568	67	4772
2026-01-10 02:36:41.59	209.44	6.27	-50.0	-52.0	15.7	6.04e-01	0	23	0	693633024	68	4637
2026-01-10 02:36:44.43	209.43	6.05	-50.2	-52.2	15.6	6.03e-01	0	23	0	698875904	68	4759
2026-01-10 02:36:47.57	209.43	5.80	-50.2	-52.3	15.6	6.04e-01	0	23	0	704643072	68	4779
2026-01-10 02:36:50.41	209.42	5.58	-50.4	-52.5	15.5	6.05e-01	0	23	0	709885952	68	4875
2026-01-10 02:36:53.57	209.42	5.34	-50.5	-52.6	15.5	6.06e-01	0	24	0	716177408	68	4947
2026-01-10 02:36:56.43	209.42	5.13	-50.4	-52.6	15.4	6.04e-01	0	23	0	721420288	68	4934
2026-01-10 02:36:59.56	209.41	4.89	-57.5	-76.8	3.8	7.47e-01	0	23	104	726138880	82	36050
2026-01-10 02:37:02.42	209.41	4.68	-58.3	-77.7	3.8	7.42e-01	0	23	104	726138880	84	35526
2026-01-10 02:37:05.55	209.41	4.45	-58.6	-77.9	3.8	7.48e-01	0	24	104	726138880	84	36372
2026-01-10 02:37:08.40	209.41	4.24	-58.8	-78.1	3.8	7.43e-01	0	23	104	726138880	85	35155
2026-01-10 02:37:11.54	209.40	4.01	-58.8	-78.2	3.8	7.46e-01	0	24	104	726138880	85	35473
2026-01-10 02:37:14.39	209.40	3.81	-58.9	-78.2	3.8	7.44e-01	0	24	104	726138880	85	35672
2026-01-10 02:37:17.53	209.40	3.58	-59.0	-78.3	3.8	7.44e-01	0	23	104	726138880	85	36091
2026-01-10 02:37:20.38	209.40	3.38	-59.0	-78.4	3.8	7.46e-01	0	24	104	726138880	85	36145
2026-01-10 02:37:23.54	209.40	3.16	-59.0	-78.3	3.8	7.43e-01	0	24	104	726138880	85	36032
2026-01-10 02:37:26.38	209.39	2.96	-58.9	-78.3	3.8	7.45e-01	0	23	104	726138880	85	35815
2026-01-10 02:37:29.52	209.39	2.75	-58.9	-78.3	3.8	7.48e-01	0	24	104	726138880	85	35702
2026-01-10 02:37:32.37	209.39	2.55	-58.9	-78.3	3.8	7.45e-01	0	24	104	726138880	85	35722
2026-01-10 02:37:35.52	209.39	2.34	-58.9	-78.2	3.8	7.46e-01	0	23	104	726138880	85	35631
2026-01-10 02:37:38.36	209.39	2.15	-58.9	-78.2	3.8	7.43e-01	0	24	104	726138880	85	35499

#Closed at: 2026-01-10 02:37:41
#Recorded file [726 MB]: D:/lorett/data/31004_260110_052451.dat