passes_logs/2026/01/10/R3.2S_Murmansk/R3.2S_Murmansk__20260110_232633_NOAA_20_JPSS-1_rec.log

#Pass ID: 20260110_232633_NOAA 20 (JPSS-1)
#Satellite: NOAA 20 (JPSS-1)
#Configuration: NOAA 20
#almurnet v.1.7.20251203
#Start time: 2026-01-10 23:26:32

#Version: 2.2.20231116
#Station: R3.2S_Murmansk
#Location: 33.079688 lon 68.888172 lat
#TLE: 1 43013U 17073A   26009.69119415  .00000109  00000+0  72598-4 0  9996
#TLE: 2 43013  98.7631 310.6868 0001678  46.7442 313.3874 14.19534878421981

#Time	Az	El	Level	Level2	SNR	BER	BlckErr	Temp	State	Recorded	gain1	gain2
2026-01-10 23:26:32.96	20.72	1.98	-57.2	-72.5	3.8	1.49e+00	0	21	0	0	81	19882
2026-01-10 23:26:36.95	20.87	2.23	-57.1	-72.0	3.8	1.49e+00	0	21	104	0	79	21086
2026-01-10 23:26:40.95	21.03	2.48	-57.1	-72.1	3.8	1.49e+00	0	21	104	0	79	21442
2026-01-10 23:26:44.94	21.19	2.73	-57.0	-71.3	3.8	1.49e+00	0	22	104	0	79	19496
2026-01-10 23:26:48.94	21.35	2.98	-56.9	-68.8	4.4	1.17e+00	51	22	0	1048576	79	14693
2026-01-10 23:26:52.93	21.51	3.23	-56.8	-67.7	4.9	7.43e-01	0	22	0	9437184	79	12829
2026-01-10 23:26:56.94	21.68	3.49	-56.6	-65.7	6.1	3.05e-01	0	22	0	16777216	79	10265
2026-01-10 23:27:00.92	21.85	3.75	-55.7	-61.3	9.9	1.62e-02	0	22	0	24117248	78	6521
2026-01-10 23:27:04.92	22.02	4.01	-54.4	-58.3	12.1	4.34e-05	0	22	0	31457280	75	5519
2026-01-10 23:27:08.93	22.19	4.27	-54.0	-57.6	12.5	7.00e-07	0	22	0	38797312	73	5673
2026-01-10 23:27:12.94	22.37	4.54	-54.8	-59.3	11.2	5.87e-05	0	22	0	46137344	74	6554
2026-01-10 23:27:16.93	22.55	4.80	-56.1	-62.9	8.4	1.46e-02	0	22	0	54525952	77	8316
2026-01-10 23:27:20.92	22.73	5.07	-54.4	-58.2	12.3	3.51e-02	0	22	0	61865984	75	5433
2026-01-10 23:27:24.93	22.92	5.35	-57.0	-70.3	4.1	1.74e-01	0	22	0	69206016	79	17451
2026-01-10 23:27:28.93	23.11	5.62	-54.7	-58.5	12.3	6.71e-05	0	22	0	74448896	76	5307
2026-01-10 23:27:32.92	23.30	5.90	-54.1	-57.4	12.9	0.00e+00	0	22	0	82837504	74	5262
2026-01-10 23:27:36.91	23.50	6.18	-53.5	-56.5	13.5	0.00e+00	0	23	0	90177536	73	4988
2026-01-10 23:27:40.91	23.70	6.46	-53.4	-56.2	13.7	0.00e+00	0	22	0	97517568	73	4862
2026-01-10 23:27:44.92	23.90	6.75	-53.4	-56.2	13.7	0.00e+00	0	22	0	104857600	73	4836
2026-01-10 23:27:48.90	24.10	7.04	-53.3	-56.1	13.8	0.00e+00	0	22	0	112197632	73	4794
2026-01-10 23:27:52.89	24.31	7.33	-53.2	-55.9	14.0	0.00e+00	0	23	0	119537664	73	4683
2026-01-10 23:27:56.88	24.53	7.63	-53.0	-55.6	14.1	0.00e+00	0	22	0	126877696	72	4782
2026-01-10 23:28:00.87	24.75	7.92	-53.1	-55.6	14.0	0.00e+00	0	23	0	135266304	72	4796
2026-01-10 23:28:04.87	24.97	8.23	-53.0	-55.6	14.0	0.00e+00	0	23	0	142606336	72	4773
2026-01-10 23:28:08.86	25.19	8.53	-52.8	-55.3	14.3	0.00e+00	0	23	0	149946368	72	4607
2026-01-10 23:28:12.86	25.43	8.84	-52.7	-55.0	14.5	0.00e+00	0	23	0	157286400	72	4490
2026-01-10 23:28:16.85	25.66	9.15	-52.7	-55.0	14.3	0.00e+00	0	22	0	164626432	71	4731
2026-01-10 23:28:20.83	25.90	9.47	-52.6	-54.8	14.4	0.00e+00	0	23	0	171966464	71	4640
2026-01-10 23:28:24.83	26.14	9.79	-52.5	-54.8	14.4	0.00e+00	0	23	0	179306496	71	4629
2026-01-10 23:28:28.84	26.40	10.11	-52.4	-54.7	14.5	0.00e+00	0	23	0	186646528	71	4556
2026-01-10 23:28:32.84	26.65	10.44	-52.3	-54.5	14.7	0.00e+00	0	23	0	195035136	71	4478
2026-01-10 23:28:36.85	26.91	10.77	-52.3	-54.4	14.7	0.00e+00	0	23	0	202375168	71	4423
2026-01-10 23:28:40.85	27.18	11.11	-52.3	-54.5	14.7	0.00e+00	0	23	0	209715200	71	4461
2026-01-10 23:28:44.85	27.45	11.45	-52.2	-54.3	14.8	0.00e+00	0	23	0	217055232	71	4378
2026-01-10 23:28:48.85	27.73	11.79	-52.1	-54.2	14.7	0.00e+00	0	23	0	224395264	70	4556
2026-01-10 23:28:52.85	28.01	12.14	-52.1	-54.1	14.7	0.00e+00	0	23	0	231735296	70	4532
2026-01-10 23:28:56.84	28.30	12.49	-52.0	-54.1	14.8	0.00e+00	0	23	0	240123904	70	4503
2026-01-10 23:29:00.82	28.60	12.84	-51.8	-53.8	15.0	0.00e+00	0	23	0	247463936	70	4350
2026-01-10 23:29:04.83	28.90	13.21	-51.6	-53.5	14.9	0.00e+00	0	23	0	254803968	69	4456
2026-01-10 23:29:08.82	29.21	13.57	-51.6	-53.5	15.0	0.00e+00	0	23	0	262144000	69	4467
2026-01-10 23:29:12.82	29.53	13.94	-51.4	-53.3	15.1	0.00e+00	0	23	0	269484032	69	4342
2026-01-10 23:29:16.82	29.86	14.32	-51.5	-53.3	15.0	0.00e+00	0	23	0	276824064	69	4384
2026-01-10 23:29:20.83	30.19	14.70	-51.5	-53.3	15.1	0.00e+00	0	23	0	284164096	69	4377
2026-01-10 23:29:24.83	30.54	15.09	-51.5	-53.4	15.0	0.00e+00	0	23	0	292552704	69	4425
2026-01-10 23:29:28.82	30.89	15.48	-51.7	-53.6	14.9	0.00e+00	0	23	0	299892736	69	4524
2026-01-10 23:29:32.81	31.24	15.87	-51.8	-53.8	14.8	0.00e+00	0	23	0	307232768	69	4603
2026-01-10 23:29:36.81	31.61	16.28	-51.8	-53.8	14.8	0.00e+00	0	23	0	314572800	69	4605
2026-01-10 23:29:40.82	31.99	16.69	-51.7	-53.6	14.9	0.00e+00	0	23	0	321912832	69	4529
2026-01-10 23:29:44.82	32.38	17.10	-51.9	-53.8	14.8	0.00e+00	0	23	0	329252864	69	4619
2026-01-10 23:29:48.82	32.78	17.52	-51.8	-53.7	14.8	0.00e+00	0	23	0	337641472	69	4580
2026-01-10 23:29:52.83	33.19	17.95	-51.7	-53.5	15.0	0.00e+00	0	23	0	344981504	69	4488
2026-01-10 23:29:56.83	33.61	18.38	-51.5	-53.3	15.1	0.00e+00	0	23	0	352321536	69	4373
2026-01-10 23:30:00.81	34.04	18.82	-51.5	-53.3	15.1	0.00e+00	0	23	0	359661568	69	4375
2026-01-10 23:30:04.81	34.49	19.26	-51.5	-53.3	15.1	0.00e+00	0	23	0	367001600	69	4374
2026-01-10 23:30:08.80	34.94	19.71	-51.7	-53.5	15.0	0.00e+00	0	23	0	374341632	69	4478
2026-01-10 23:30:12.81	35.41	20.17	-51.8	-53.7	14.9	0.00e+00	0	23	0	381681664	69	4557
2026-01-10 23:30:16.80	35.90	20.63	-51.8	-53.7	14.9	0.00e+00	0	23	0	390070272	69	4569
2026-01-10 23:30:20.81	36.40	21.11	-51.9	-53.8	14.8	0.00e+00	0	23	0	397410304	69	4624
2026-01-10 23:30:24.81	36.91	21.58	-52.1	-54.0	14.7	0.00e+00	0	23	0	404750336	69	4753
2026-01-10 23:30:28.82	37.44	22.07	-52.2	-54.2	14.6	0.00e+00	0	23	0	412090368	69	4832
2026-01-10 23:30:32.82	37.99	22.56	-52.1	-54.1	14.7	0.00e+00	0	23	0	419430400	69	4769
2026-01-10 23:30:36.82	38.55	23.06	-52.0	-54.0	14.7	0.00e+00	0	23	0	426770432	69	4718
2026-01-10 23:30:40.83	39.13	23.57	-51.8	-53.7	14.9	0.00e+00	0	23	0	435159040	69	4557
2026-01-10 23:30:44.83	39.73	24.08	-51.9	-53.8	14.8	0.00e+00	0	23	0	442499072	69	4624
2026-01-10 23:30:48.83	40.35	24.60	-52.2	-54.2	14.6	0.00e+00	0	23	0	449839104	69	4833
2026-01-10 23:30:52.83	40.99	25.13	-52.1	-54.0	14.7	0.00e+00	0	23	0	457179136	69	4756
2026-01-10 23:30:56.83	41.65	25.66	-52.2	-54.2	14.6	0.00e+00	0	23	0	464519168	69	4836
2026-01-10 23:31:00.82	42.33	26.20	-52.4	-54.4	14.6	0.00e+00	0	23	0	471859200	70	4698
2026-01-10 23:31:04.80	43.03	26.75	-52.1	-54.0	14.9	0.00e+00	0	23	0	479199232	70	4455
2026-01-10 23:31:08.80	43.76	27.30	-52.0	-53.9	14.9	0.00e+00	0	23	0	487587840	70	4420
2026-01-10 23:31:12.81	44.51	27.86	-52.6	-54.7	14.5	0.00e+00	0	23	0	494927872	70	4843
2026-01-10 23:31:16.81	45.29	28.43	-52.9	-55.1	14.3	0.00e+00	0	23	0	502267904	70	5050
2026-01-10 23:31:20.81	46.10	29.00	-53.2	-55.6	14.1	0.00e+00	0	23	0	509607936	71	5056
2026-01-10 23:31:24.78	46.93	29.58	-53.2	-55.5	14.3	0.00e+00	0	23	0	516947968	72	4732
2026-01-10 23:31:28.78	47.80	30.16	-53.0	-55.2	14.5	0.00e+00	0	23	0	524288000	72	4595
2026-01-10 23:31:32.78	48.70	30.75	-53.4	-55.8	14.2	0.00e+00	0	23	0	531628032	72	4917
2026-01-10 23:31:36.78	49.63	31.34	-53.2	-55.4	14.4	0.00e+00	0	23	0	540016640	72	4699
2026-01-10 23:31:40.77	50.59	31.94	-53.4	-55.7	14.3	0.00e+00	0	23	0	547356672	72	4835
2026-01-10 23:31:44.78	51.59	32.54	-52.7	-54.7	14.9	0.00e+00	0	23	0	554696704	72	4314
2026-01-10 23:31:48.78	52.63	33.14	-52.6	-54.7	14.7	0.00e+00	0	23	0	562036736	71	4546
2026-01-10 23:31:52.79	53.71	33.75	-52.9	-55.1	14.5	0.00e+00	0	23	0	569376768	71	4792
2026-01-10 23:31:56.79	54.83	34.35	-52.7	-54.8	14.6	0.00e+00	0	23	0	576716800	71	4641
2026-01-10 23:32:00.78	55.98	34.95	-52.5	-54.5	14.8	0.00e+00	0	23	0	585105408	71	4468
2026-01-10 23:32:04.78	57.18	35.56	-52.6	-54.7	14.7	0.00e+00	0	23	0	592445440	71	4553
2026-01-10 23:32:08.78	58.43	36.16	-52.7	-54.7	14.7	0.00e+00	0	23	0	599785472	71	4577
2026-01-10 23:32:12.76	59.71	36.75	-52.6	-54.7	14.7	0.00e+00	0	23	0	607125504	71	4547
2026-01-10 23:32:16.76	61.05	37.34	-53.3	-55.6	14.2	0.00e+00	0	23	0	614465536	71	5048
2026-01-10 23:32:20.74	62.42	37.92	-53.0	-55.2	14.4	0.00e+00	0	23	0	621805568	71	4863
2026-01-10 23:32:24.74	63.86	38.49	-54.0	-56.7	13.8	0.00e+00	0	23	0	629145600	73	5102
2026-01-10 23:32:28.75	65.35	39.05	-53.2	-55.4	14.6	0.00e+00	0	23	0	636485632	73	4403
2026-01-10 23:32:32.76	66.89	39.61	-53.2	-55.5	14.4	0.00e+00	0	23	0	644874240	72	4728
2026-01-10 23:32:36.75	68.47	40.14	-52.8	-54.9	14.8	0.00e+00	0	23	0	652214272	72	4395
2026-01-10 23:32:40.73	70.10	40.65	-53.3	-55.6	14.2	0.00e+00	0	23	0	659554304	71	5093
2026-01-10 23:32:44.72	71.79	41.15	-53.4	-55.7	14.4	0.00e+00	0	23	0	666894336	73	4550
2026-01-10 23:32:48.71	73.53	41.63	-53.7	-56.2	14.0	0.00e+00	0	23	0	674234368	72	5114
2026-01-10 23:32:52.71	75.32	42.08	-54.2	-56.8	14.0	0.00e+00	0	23	0	681574400	75	4650
2026-01-10 23:32:56.69	77.15	42.51	-53.3	-55.6	14.3	0.00e+00	0	23	0	688914432	72	4776
2026-01-10 23:33:00.66	79.02	42.90	-53.8	-56.3	14.2	0.00e+00	0	23	0	697303040	74	4621
2026-01-10 23:33:04.67	80.96	43.27	-53.8	-56.2	13.9	0.00e+00	0	23	0	704643072	72	5154
2026-01-10 23:33:08.64	82.92	43.60	-52.8	-54.8	14.8	0.00e+00	0	23	0	711983104	72	4370
2026-01-10 23:33:12.64	84.94	43.90	-52.9	-55.0	14.6	0.00e+00	0	23	0	719323136	71	4711
2026-01-10 23:33:16.64	86.99	44.17	-53.7	-56.2	14.0	0.00e+00	0	23	0	726663168	72	5114
2026-01-10 23:33:20.63	89.07	44.39	-53.5	-55.8	14.2	0.00e+00	0	23	0	734003200	72	4903
2026-01-10 23:33:24.63	91.18	44.57	-53.3	-55.5	14.4	0.00e+00	0	23	0	741343232	72	4741
2026-01-10 23:33:28.62	93.30	44.72	-52.8	-54.8	14.8	0.00e+00	0	23	0	749731840	72	4360
2026-01-10 23:33:32.61	95.44	44.81	-52.3	-54.2	15.1	0.00e+00	0	23	0	757071872	71	4300
2026-01-10 23:33:36.61	97.60	44.87	-52.5	-54.5	14.8	0.00e+00	0	23	0	764411904	71	4484
2026-01-10 23:33:40.61	99.76	44.88	-51.9	-53.8	14.9	0.00e+00	0	23	0	771751936	69	4602
2026-01-10 23:33:44.61	101.92	44.85	-51.7	-53.5	15.1	0.00e+00	0	23	0	779091968	69	4447
2026-01-10 23:33:48.59	104.07	44.77	-52.6	-54.6	14.6	0.00e+00	0	23	0	786432000	70	4786
2026-01-10 23:33:52.58	106.20	44.65	-52.0	-53.9	15.1	0.00e+00	0	23	0	793772032	70	4409
2026-01-10 23:33:56.59	108.33	44.49	-53.5	-55.8	14.2	0.00e+00	0	23	0	802160640	72	4901
2026-01-10 23:34:00.57	110.42	44.29	-53.4	-55.7	14.5	0.00e+00	0	23	0	809500672	73	4571
2026-01-10 23:34:04.56	112.48	44.05	-52.5	-54.4	14.9	0.00e+00	0	23	0	816840704	71	4424
2026-01-10 23:34:08.53	114.50	43.77	-53.2	-55.4	14.3	0.00e+00	0	23	0	824180736	71	4968
2026-01-10 23:34:12.53	116.50	43.45	-53.2	-55.5	14.3	0.00e+00	0	23	0	831520768	71	4994
2026-01-10 23:34:16.50	118.45	43.10	-51.6	-53.3	15.1	0.00e+00	0	23	0	838860800	69	4384
2026-01-10 23:34:20.48	120.35	42.72	-51.5	-53.2	15.2	0.00e+00	0	23	0	846200832	69	4336
2026-01-10 23:34:24.48	122.22	42.31	-51.6	-53.3	15.0	0.00e+00	0	23	0	853540864	68	4634
2026-01-10 23:34:28.49	124.05	41.86	-50.1	-51.6	15.5	0.00e+00	0	23	0	861929472	66	4274
2026-01-10 23:34:32.49	125.82	41.40	-49.9	-51.4	15.6	0.00e+00	0	23	0	869269504	66	4148
2026-01-10 23:34:36.49	127.54	40.91	-50.2	-51.7	15.4	0.00e+00	0	23	0	876609536	66	4340
2026-01-10 23:34:40.47	129.20	40.40	-50.5	-52.0	15.2	0.00e+00	0	23	0	883949568	66	4483
2026-01-10 23:34:44.47	130.82	39.87	-50.9	-52.6	15.2	0.00e+00	0	23	0	891289600	67	4502
2026-01-10 23:34:48.44	132.37	39.33	-50.8	-52.4	15.2	0.00e+00	0	23	0	898629632	67	4407
2026-01-10 23:34:52.43	133.88	38.78	-51.5	-53.2	15.0	0.00e+00	0	23	0	905969664	68	4589
2026-01-10 23:34:56.43	135.35	38.21	-52.8	-55.0	14.4	0.00e+00	0	23	0	914358272	70	5017
2026-01-10 23:35:00.42	136.76	37.63	-50.9	-52.5	15.4	0.00e+00	0	23	0	921698304	68	4214
2026-01-10 23:35:04.42	138.12	37.04	-51.5	-53.2	15.1	0.00e+00	0	23	0	929038336	69	4317
2026-01-10 23:35:08.40	139.43	36.45	-51.6	-53.4	14.9	0.00e+00	0	23	0	936378368	68	4687
2026-01-10 23:35:12.38	140.70	35.85	-51.4	-53.1	15.2	0.00e+00	0	23	0	943718400	69	4268
2026-01-10 23:35:16.37	141.92	35.25	-53.4	-55.8	14.2	0.00e+00	0	23	0	951058432	72	4893
2026-01-10 23:35:20.36	143.10	34.65	-50.2	-51.7	15.6	0.00e+00	0	23	0	958398464	67	4093
2026-01-10 23:35:24.35	144.24	34.04	-53.4	-55.8	14.1	0.00e+00	0	23	0	966787072	72	4884
2026-01-10 23:35:28.35	145.34	33.43	-51.6	-53.3	15.1	0.00e+00	0	23	0	974127104	69	4377
2026-01-10 23:35:32.36	146.40	32.83	-54.0	-56.7	13.9	0.00e+00	0	23	0	981467136	74	4850
2026-01-10 23:35:36.35	147.42	32.22	-51.7	-53.5	15.2	0.00e+00	0	23	0	988807168	70	4213
2026-01-10 23:35:40.34	148.40	31.62	-54.5	-57.5	13.4	0.00e+00	0	23	0	996147200	74	5291
2026-01-10 23:35:44.36	149.36	31.02	-51.6	-53.4	15.1	0.00e+00	0	23	0	1003487232	69	4394
2026-01-10 23:35:48.35	150.27	30.43	-55.0	-58.4	12.8	0.00e+00	0	23	0	1010827264	75	5532
2026-01-10 23:35:52.34	151.15	29.84	-52.5	-54.5	14.8	0.00e+00	0	23	0	1019215872	71	4491
2026-01-10 23:35:56.34	152.01	29.26	-51.6	-53.4	15.0	0.00e+00	0	23	0	1026555904	69	4424
2026-01-10 23:36:00.33	152.83	28.68	-53.1	-55.4	14.2	0.00e+00	0	23	0	1033895936	71	4954
2026-01-10 23:36:04.32	153.62	28.11	-51.8	-53.6	15.1	0.00e+00	0	23	0	1041235968	70	4272
2026-01-10 23:36:08.32	154.39	27.54	-52.4	-54.4	14.6	0.00e+00	0	23	0	1048576000	70	4702
2026-01-10 23:36:12.31	155.13	26.99	-52.1	-54.0	14.9	0.00e+00	0	23	0	1055916032	70	4468
2026-01-10 23:36:16.30	155.85	26.43	-50.7	-52.3	15.4	0.00e+00	0	23	0	1063256064	68	4142
2026-01-10 23:36:20.29	156.54	25.89	-51.6	-53.4	14.9	0.00e+00	0	23	0	1071644672	68	4692
2026-01-10 23:36:24.29	157.22	25.35	-51.9	-53.8	14.7	0.00e+00	0	23	0	1078984704	69	4619
2026-01-10 23:36:28.28	157.86	24.82	-51.4	-53.1	15.2	0.00e+00	0	23	0	1086324736	69	4280
2026-01-10 23:36:32.28	158.49	24.29	-51.3	-53.0	15.2	0.00e+00	0	23	0	1093664768	69	4230
2026-01-10 23:36:36.28	159.10	23.77	-51.6	-53.5	15.0	0.00e+00	0	23	0	1101004800	69	4449
2026-01-10 23:36:40.26	159.69	23.26	-52.3	-54.3	14.5	0.00e+00	0	23	0	1108344832	69	4923
2026-01-10 23:36:44.25	160.26	22.76	-52.0	-53.9	14.9	0.00e+00	0	23	0	1115684864	70	4430
2026-01-10 23:36:48.25	160.81	22.26	-51.5	-53.3	15.1	0.00e+00	0	23	0	1124073472	69	4343
2026-01-10 23:36:52.25	161.35	21.77	-51.8	-53.7	14.8	0.00e+00	0	23	0	1131413504	69	4566
2026-01-10 23:36:56.25	161.87	21.28	-51.6	-53.4	15.0	0.00e+00	0	23	0	1138753536	69	4415
2026-01-10 23:37:00.25	162.38	20.81	-51.4	-53.2	15.1	0.00e+00	0	23	0	1146093568	69	4318
2026-01-10 23:37:04.25	162.87	20.34	-51.5	-53.3	15.0	0.00e+00	0	23	0	1153433600	69	4361
2026-01-10 23:37:08.25	163.35	19.87	-51.8	-53.6	14.8	0.00e+00	0	23	0	1160773632	69	4543
2026-01-10 23:37:12.23	163.81	19.42	-52.0	-54.0	14.5	0.00e+00	0	23	0	1168113664	69	4716
2026-01-10 23:37:16.22	164.26	18.97	-52.1	-54.1	14.6	0.00e+00	0	23	0	1176502272	69	4778
2026-01-10 23:37:20.20	164.70	18.53	-52.2	-54.3	14.5	0.00e+00	0	23	0	1183842304	69	4879
2026-01-10 23:37:24.20	165.12	18.09	-52.0	-54.0	14.6	0.00e+00	0	23	0	1191182336	69	4706
2026-01-10 23:37:28.19	165.54	17.66	-52.0	-54.0	14.7	0.00e+00	0	23	0	1198522368	69	4717
2026-01-10 23:37:32.20	165.94	17.23	-52.0	-54.0	14.7	0.00e+00	0	23	0	1205862400	69	4718
2026-01-10 23:37:36.19	166.33	16.82	-51.9	-53.9	14.7	0.00e+00	0	23	0	1213202432	69	4668
2026-01-10 23:37:40.19	166.72	16.40	-51.7	-53.6	14.8	0.00e+00	0	23	0	1220542464	69	4534
2026-01-10 23:37:44.19	167.09	16.00	-51.7	-53.7	14.8	0.00e+00	0	23	0	1228931072	69	4556
2026-01-10 23:37:48.18	167.45	15.59	-51.8	-53.8	14.7	0.00e+00	0	23	0	1236271104	69	4628
2026-01-10 23:37:52.19	167.81	15.20	-52.0	-54.1	14.6	0.00e+00	0	23	0	1243611136	69	4765
2026-01-10 23:37:56.18	168.15	14.81	-52.4	-54.6	14.3	0.00e+00	0	23	0	1250951168	69	5088
2026-01-10 23:38:00.18	168.49	14.42	-52.6	-54.8	14.3	0.00e+00	0	23	0	1258291200	70	4901
2026-01-10 23:38:04.18	168.82	14.04	-52.3	-54.5	14.5	0.00e+00	0	23	0	1265631232	70	4718
2026-01-10 23:38:08.16	169.14	13.67	-51.9	-53.8	14.9	0.00e+00	0	23	0	1272971264	70	4381
2026-01-10 23:38:12.15	169.45	13.30	-51.6	-53.5	14.9	0.00e+00	0	23	0	1281359872	69	4471
2026-01-10 23:38:16.14	169.76	12.93	-51.7	-53.6	14.8	0.00e+00	0	23	0	1288699904	69	4508
2026-01-10 23:38:20.13	170.06	12.57	-51.9	-53.9	14.6	0.00e+00	0	23	0	1296039936	69	4683
2026-01-10 23:38:24.10	170.35	12.22	-52.3	-54.5	14.3	0.00e+00	0	23	0	1303379968	69	5034
2026-01-10 23:38:28.09	170.63	11.87	-52.8	-55.2	14.0	0.00e+00	0	23	0	1310720000	70	5158
2026-01-10 23:38:32.09	170.91	11.52	-53.0	-55.5	14.0	0.00e+00	0	23	0	1318060032	71	5025
2026-01-10 23:38:36.07	171.18	11.18	-53.0	-55.4	14.0	0.00e+00	0	23	0	1325400064	71	4983
2026-01-10 23:38:40.07	171.45	10.84	-52.8	-55.2	14.1	0.00e+00	0	23	0	1332740096	71	4844
2026-01-10 23:38:44.07	171.71	10.51	-52.6	-55.0	14.2	0.00e+00	0	23	0	1341128704	71	4714
2026-01-10 23:38:48.08	171.97	10.17	-52.7	-55.1	14.2	0.00e+00	0	23	0	1348468736	71	4765
2026-01-10 23:38:52.07	172.22	9.85	-52.5	-54.8	14.4	0.00e+00	0	23	0	1355808768	71	4607
2026-01-10 23:38:56.07	172.47	9.52	-52.5	-54.7	14.4	0.00e+00	0	23	0	1363148800	71	4589
2026-01-10 23:39:00.06	172.71	9.21	-52.6	-54.9	14.3	0.00e+00	0	23	0	1370488832	71	4695
2026-01-10 23:39:04.06	172.94	8.89	-52.7	-55.1	14.2	0.00e+00	0	23	0	1377828864	71	4782
2026-01-10 23:39:08.05	173.17	8.58	-53.0	-55.6	13.9	0.00e+00	0	23	0	1386217472	71	5061
2026-01-10 23:39:12.03	173.40	8.27	-53.2	-55.8	13.6	0.00e+00	0	23	0	1393557504	71	5216
2026-01-10 23:39:16.02	173.62	7.97	-53.3	-56.1	13.5	0.00e+00	0	23	0	1400897536	71	5402
2026-01-10 23:39:20.00	173.84	7.67	-53.4	-56.3	13.5	0.00e+00	0	23	0	1408237568	72	5182
2026-01-10 23:39:23.98	174.05	7.37	-53.4	-56.2	13.5	0.00e+00	0	23	0	1415577600	72	5146
2026-01-10 23:39:27.98	174.26	7.07	-53.4	-56.2	13.5	0.00e+00	0	23	0	1422917632	72	5129
2026-01-10 23:39:31.95	174.47	6.78	-53.3	-56.2	13.5	0.00e+00	0	23	0	1430257664	72	5109
2026-01-10 23:39:35.95	174.67	6.49	-53.2	-56.0	13.6	0.00e+00	0	23	0	1437597696	72	5026
2026-01-10 23:39:39.93	174.87	6.21	-53.0	-55.7	13.8	0.00e+00	0	23	0	1445986304	72	4836
2026-01-10 23:39:43.92	175.06	5.93	-53.0	-55.7	13.8	0.00e+00	0	23	0	1453326336	72	4855
2026-01-10 23:39:47.92	175.25	5.64	-52.9	-55.6	13.9	0.00e+00	0	24	0	1460666368	72	4771
2026-01-10 23:39:51.91	175.44	5.37	-52.9	-55.6	13.8	0.00e+00	0	23	0	1468006400	72	4806
2026-01-10 23:39:55.92	175.63	5.09	-52.9	-55.6	13.8	0.00e+00	0	23	0	1475346432	72	4805
2026-01-10 23:39:59.91	175.81	4.82	-58.1	-74.2	3.8	1.49e+00	0	23	104	1478492160	81	24200
2026-01-10 23:40:03.92	175.99	4.55	-58.8	-74.8	3.8	1.49e+00	0	23	104	1478492160	82	24551
2026-01-10 23:40:07.92	176.16	4.28	-59.1	-75.2	3.8	1.49e+00	0	23	104	1478492160	83	24201
2026-01-10 23:40:11.92	176.34	4.01	-59.3	-75.3	3.8	1.49e+00	0	23	104	1478492160	83	24598
2026-01-10 23:40:15.92	176.51	3.75	-59.4	-75.4	3.8	1.49e+00	0	23	104	1478492160	83	24901
2026-01-10 23:40:19.92	176.67	3.49	-59.4	-75.5	3.8	1.49e+00	0	23	104	1478492160	83	25022
2026-01-10 23:40:23.91	176.84	3.23	-59.3	-75.4	3.8	1.49e+00	0	23	104	1478492160	83	24826
2026-01-10 23:40:27.91	177.00	2.98	-59.3	-75.4	3.8	1.49e+00	0	23	104	1478492160	83	24710
2026-01-10 23:40:31.91	177.16	2.72	-59.3	-75.3	3.8	1.49e+00	0	23	104	1478492160	83	24563
2026-01-10 23:40:35.93	177.32	2.47	-59.2	-75.3	3.8	1.49e+00	0	23	104	1478492160	83	24562
2026-01-10 23:40:39.95	177.47	2.22	-59.2	-75.3	3.8	1.49e+00	0	23	104	1478492160	83	24542
2026-01-10 23:40:43.97	177.63	1.97	-59.2	-75.3	3.8	1.49e+00	0	23	104	1478492160	83	24522

#Closed at: 2026-01-10 23:40:44
#Recorded file [1478 MB]: D:/lorett/data/31004_260111_022632.dat