passes_logs/2026/01/10/R3.2S_Murmansk/R3.2S_Murmansk__20260110_130750_NOAA_20_JPSS-1_rec.log

#Pass ID: 20260110_130750_NOAA 20 (JPSS-1)
#Satellite: NOAA 20 (JPSS-1)
#Configuration: NOAA 20
#almurnet v.1.7.20251203
#Start time: 2026-01-10 13:07:50

#Version: 2.2.20231116
#Station: R3.2S_Murmansk
#Location: 33.079688 lon 68.888172 lat
#TLE: 1 43013U 17073A   26009.69119415  .00000109  00000+0  72598-4 0  9996
#TLE: 2 43013  98.7631 310.6868 0001678  46.7442 313.3874 14.19534878421981

#Time	Az	El	Level	Level2	SNR	BER	BlckErr	Temp	State	Recorded	gain1	gain2
2026-01-10 13:07:50.95	246.62	2.01	-57.5	-73.5	3.8	1.49e+00	0	21	0	0	81	22392
2026-01-10 13:07:53.96	246.93	2.14	-57.5	-73.5	3.8	1.49e+00	0	21	104	0	80	23640
2026-01-10 13:07:56.96	247.24	2.27	-57.5	-73.5	3.8	1.49e+00	0	21	104	0	80	23629
2026-01-10 13:07:59.97	247.55	2.40	-57.5	-73.5	3.8	1.49e+00	0	21	104	0	80	23637
2026-01-10 13:08:02.96	247.86	2.52	-57.5	-73.5	3.8	1.49e+00	0	21	104	0	80	23611
2026-01-10 13:08:05.97	248.18	2.65	-57.5	-73.5	3.8	1.49e+00	0	22	104	0	80	23615
2026-01-10 13:08:08.97	248.50	2.78	-57.5	-73.4	3.8	1.49e+00	0	21	104	0	80	23521
2026-01-10 13:08:11.97	248.83	2.91	-57.5	-73.5	3.8	1.49e+00	0	22	104	0	80	23644
2026-01-10 13:08:14.98	249.15	3.04	-57.5	-73.5	3.8	1.49e+00	0	22	104	0	80	23640
2026-01-10 13:08:17.97	249.48	3.17	-57.5	-73.5	3.8	1.49e+00	0	22	104	0	80	23712
2026-01-10 13:08:20.97	249.81	3.29	-57.5	-73.4	3.8	1.49e+00	0	22	104	0	80	23421
2026-01-10 13:08:23.97	250.14	3.42	-57.5	-73.4	3.8	1.49e+00	0	22	104	0	80	23473
2026-01-10 13:08:26.97	250.48	3.55	-57.5	-73.4	3.8	1.49e+00	0	22	104	0	80	23550
2026-01-10 13:08:29.96	250.82	3.68	-57.5	-73.5	3.8	1.49e+00	0	22	104	0	80	23638
2026-01-10 13:08:32.97	251.16	3.80	-57.5	-73.3	3.8	1.49e+00	0	22	104	0	80	23304
2026-01-10 13:08:35.98	251.51	3.93	-57.5	-73.3	3.8	1.49e+00	0	22	104	0	80	23224
2026-01-10 13:08:38.98	251.85	4.06	-57.5	-73.5	3.8	1.49e+00	0	22	104	0	80	23594
2026-01-10 13:08:41.96	252.20	4.18	-57.5	-73.4	3.8	1.49e+00	0	22	104	0	80	23363
2026-01-10 13:08:44.96	252.56	4.31	-57.5	-73.2	3.8	1.49e+00	0	22	104	0	80	22889
2026-01-10 13:08:47.94	252.91	4.43	-57.5	-72.9	3.8	1.49e+00	0	22	104	0	80	22092
2026-01-10 13:08:50.96	253.27	4.56	-57.5	-73.0	3.8	1.49e+00	0	22	104	0	80	22409
2026-01-10 13:08:53.97	253.64	4.68	-57.5	-72.9	3.8	1.49e+00	0	22	104	0	80	22261
2026-01-10 13:08:56.97	254.00	4.81	-57.3	-69.3	4.4	1.35e+00	86	22	0	0	80	14556
2026-01-10 13:08:59.98	254.37	4.93	-57.0	-66.3	5.8	5.95e-01	0	22	0	5242880	80	10398
2026-01-10 13:09:02.98	254.74	5.06	-56.2	-62.2	9.3	1.10e-02	0	22	0	11534336	78	7272
2026-01-10 13:09:05.95	255.11	5.18	-57.1	-68.2	4.8	9.64e-02	0	23	0	16777216	79	13596
2026-01-10 13:09:08.93	255.49	5.30	-53.6	-56.6	13.3	0.00e+00	0	23	0	22020096	72	5372
2026-01-10 13:09:11.93	255.87	5.42	-53.3	-56.0	13.7	0.00e+00	0	23	0	28311552	72	5030
2026-01-10 13:09:14.92	256.25	5.55	-53.4	-56.2	13.6	0.00e+00	0	23	0	33554432	72	5143
2026-01-10 13:09:17.91	256.63	5.67	-53.0	-55.6	14.1	0.00e+00	0	23	0	39845888	72	4770
2026-01-10 13:09:20.91	257.02	5.79	-53.2	-55.8	13.8	0.00e+00	0	23	0	45088768	72	4923
2026-01-10 13:09:23.90	257.41	5.91	-53.1	-55.7	14.0	0.00e+00	0	23	0	50331648	72	4829
2026-01-10 13:09:26.89	257.81	6.03	-52.8	-55.3	14.2	0.00e+00	0	23	0	56623104	72	4627
2026-01-10 13:09:29.87	258.20	6.15	-52.9	-55.4	14.1	0.00e+00	0	23	0	61865984	72	4696
2026-01-10 13:09:32.85	258.60	6.26	-52.9	-55.4	14.2	0.00e+00	0	23	0	67108864	72	4670
2026-01-10 13:09:35.83	259.01	6.38	-52.8	-55.3	14.3	0.00e+00	0	23	0	73400320	72	4627
2026-01-10 13:09:38.81	259.41	6.50	-52.8	-55.3	14.2	0.00e+00	0	23	0	78643200	72	4620
2026-01-10 13:09:41.79	259.82	6.61	-53.1	-55.7	14.0	0.00e+00	0	23	0	83886080	72	4823
2026-01-10 13:09:44.77	260.23	6.73	-53.0	-55.4	14.2	0.00e+00	0	23	0	90177536	72	4694
2026-01-10 13:09:47.75	260.65	6.84	-52.8	-55.2	14.4	0.00e+00	0	23	0	95420416	72	4555
2026-01-10 13:09:50.74	261.07	6.96	-52.9	-55.4	14.2	0.00e+00	0	23	0	100663296	72	4671
2026-01-10 13:09:53.74	261.49	7.07	-53.0	-55.5	14.1	0.00e+00	0	23	0	106954752	72	4747
2026-01-10 13:09:56.73	261.92	7.18	-53.0	-55.6	14.1	0.00e+00	0	23	0	112197632	72	4766
2026-01-10 13:09:59.71	262.34	7.30	-53.2	-55.7	13.9	0.00e+00	0	23	0	117440512	72	4867
2026-01-10 13:10:02.71	262.78	7.41	-53.1	-55.6	14.1	0.00e+00	0	23	0	123731968	72	4811
2026-01-10 13:10:05.71	263.21	7.52	-53.2	-55.9	13.9	0.00e+00	0	23	0	128974848	72	4934
2026-01-10 13:10:08.69	263.65	7.63	-53.1	-55.7	14.0	0.00e+00	0	23	0	134217728	72	4825
2026-01-10 13:10:11.69	264.09	7.73	-53.1	-55.6	14.1	0.00e+00	0	23	0	140509184	72	4800
2026-01-10 13:10:14.69	264.54	7.84	-53.1	-55.6	14.0	0.00e+00	0	23	0	145752064	72	4808
2026-01-10 13:10:17.68	264.99	7.95	-53.1	-55.7	14.0	0.00e+00	0	23	0	150994944	72	4816
2026-01-10 13:10:20.67	265.44	8.05	-53.0	-55.5	14.1	0.00e+00	0	23	0	157286400	72	4749
2026-01-10 13:10:23.66	265.89	8.16	-53.1	-55.6	14.1	0.00e+00	0	23	0	162529280	72	4786
2026-01-10 13:10:26.64	266.35	8.26	-53.0	-55.6	14.1	0.00e+00	0	23	0	167772160	72	4785
2026-01-10 13:10:29.64	266.81	8.36	-53.1	-55.8	13.8	0.00e+00	0	23	0	174063616	72	4887
2026-01-10 13:10:32.64	267.27	8.46	-54.1	-57.8	12.4	0.00e+00	0	23	0	179306496	73	5789
2026-01-10 13:10:35.64	267.74	8.56	-54.7	-59.7	10.6	3.72e-04	0	23	0	184549376	74	6815
2026-01-10 13:10:38.63	268.21	8.66	-55.0	-60.9	9.5	3.30e-03	0	23	0	190840832	75	7403
2026-01-10 13:10:41.62	268.68	8.76	-55.7	-64.7	6.2	1.90e-01	0	23	0	196083712	76	10781
2026-01-10 13:10:44.62	269.16	8.85	-55.8	-64.0	6.7	1.70e-01	0	23	0	202375168	76	10050
2026-01-10 13:10:47.61	269.64	8.95	-56.9	-71.2	3.8	1.49e+00	0	23	104	205520896	79	19240
2026-01-10 13:10:50.59	270.12	9.04	-54.5	-58.6	11.9	2.97e-05	0	23	0	208666624	75	5701
2026-01-10 13:10:53.60	270.60	9.13	-54.3	-57.7	12.8	7.00e-07	0	23	0	214958080	75	5146
2026-01-10 13:10:56.60	271.09	9.22	-53.1	-55.6	14.0	0.00e+00	0	23	0	220200960	72	4813
2026-01-10 13:10:59.59	271.58	9.31	-53.1	-55.6	14.1	0.00e+00	0	23	0	226492416	72	4800
2026-01-10 13:11:02.58	272.08	9.39	-53.4	-56.0	13.9	0.00e+00	0	23	0	231735296	72	4999
2026-01-10 13:11:05.56	272.57	9.48	-53.1	-55.6	14.1	0.00e+00	0	23	0	236978176	72	4788
2026-01-10 13:11:08.54	273.07	9.56	-53.1	-55.5	14.2	0.00e+00	0	23	0	243269632	72	4755
2026-01-10 13:11:11.54	273.57	9.64	-53.1	-55.6	14.1	0.00e+00	0	23	0	248512512	72	4784
2026-01-10 13:11:14.53	274.07	9.73	-53.2	-55.7	14.0	0.00e+00	0	23	0	253755392	72	4850
2026-01-10 13:11:17.53	274.58	9.80	-53.2	-55.8	14.0	0.00e+00	0	23	0	260046848	72	4882
2026-01-10 13:11:20.52	275.09	9.88	-53.3	-55.8	14.0	0.00e+00	0	23	0	265289728	72	4895
2026-01-10 13:11:23.52	275.60	9.96	-53.3	-55.9	13.9	0.00e+00	0	23	0	270532608	72	4941
2026-01-10 13:11:26.51	276.12	10.03	-53.3	-55.8	14.0	0.00e+00	0	23	0	276824064	72	4894
2026-01-10 13:11:29.51	276.64	10.10	-53.2	-55.6	14.1	0.00e+00	0	23	0	282066944	72	4812
2026-01-10 13:11:32.52	277.16	10.17	-53.1	-55.5	14.2	0.00e+00	0	23	0	287309824	72	4724
2026-01-10 13:11:35.51	277.68	10.24	-53.1	-55.4	14.3	0.00e+00	0	23	0	293601280	72	4705
2026-01-10 13:11:38.51	278.20	10.31	-53.1	-55.5	14.2	0.00e+00	0	23	0	298844160	72	4715
2026-01-10 13:11:41.51	278.73	10.37	-53.1	-55.5	14.2	0.00e+00	0	23	0	304087040	72	4722
2026-01-10 13:11:44.50	279.26	10.43	-53.2	-55.6	14.2	0.00e+00	0	23	0	310378496	72	4783
2026-01-10 13:11:47.49	279.79	10.49	-53.0	-55.4	14.3	0.00e+00	0	23	0	315621376	72	4665
2026-01-10 13:11:50.49	280.32	10.55	-52.9	-55.2	14.4	0.00e+00	0	23	0	321912832	72	4564
2026-01-10 13:11:53.47	280.86	10.61	-52.7	-55.0	14.6	0.00e+00	0	23	0	327155712	72	4448
2026-01-10 13:11:56.46	281.39	10.66	-52.9	-55.1	14.5	0.00e+00	0	23	0	332398592	72	4528
2026-01-10 13:11:59.46	281.93	10.71	-53.1	-55.5	14.3	0.00e+00	0	23	0	338690048	72	4710
2026-01-10 13:12:02.45	282.47	10.76	-53.2	-55.6	14.1	0.00e+00	0	23	0	343932928	72	4814
2026-01-10 13:12:05.44	283.01	10.81	-53.3	-55.8	14.1	0.00e+00	0	23	0	349175808	72	4914
2026-01-10 13:12:08.43	283.55	10.85	-53.3	-55.7	14.2	0.00e+00	0	23	0	355467264	72	4846
2026-01-10 13:12:11.42	284.10	10.90	-53.4	-55.8	14.1	0.00e+00	0	23	0	360710144	72	4919
2026-01-10 13:12:14.43	284.65	10.94	-53.5	-56.0	13.9	0.00e+00	0	23	0	365953024	72	5034
2026-01-10 13:12:17.41	285.19	10.98	-53.6	-56.2	13.8	0.00e+00	0	23	0	372244480	72	5119
2026-01-10 13:12:20.40	285.74	11.01	-53.7	-56.4	13.7	0.00e+00	0	23	0	377487360	72	5222
2026-01-10 13:12:23.39	286.29	11.05	-53.9	-56.7	13.5	0.00e+00	0	23	0	382730240	72	5415
2026-01-10 13:12:26.38	286.84	11.08	-54.0	-56.7	13.6	0.00e+00	0	23	0	389021696	73	5158
2026-01-10 13:12:29.38	287.40	11.11	-54.0	-56.8	13.6	0.00e+00	0	23	0	394264576	73	5201
2026-01-10 13:12:32.37	287.95	11.14	-54.1	-56.9	13.5	0.00e+00	0	23	0	399507456	73	5253
2026-01-10 13:12:35.37	288.51	11.16	-53.9	-56.6	13.7	0.00e+00	0	23	0	405798912	73	5073
2026-01-10 13:12:38.36	289.06	11.18	-53.7	-56.3	13.9	0.00e+00	0	23	0	411041792	73	4879
2026-01-10 13:12:41.36	289.62	11.20	-53.7	-56.3	14.0	0.00e+00	0	23	0	416284672	73	4876
2026-01-10 13:12:44.35	290.18	11.22	-53.8	-56.4	13.8	0.00e+00	0	23	0	422576128	73	4967
2026-01-10 13:12:47.34	290.73	11.24	-53.8	-56.4	13.9	0.00e+00	0	23	0	427819008	73	4952
2026-01-10 13:12:50.35	291.30	11.25	-53.5	-55.9	14.2	0.00e+00	0	23	0	434110464	73	4688
2026-01-10 13:12:53.33	291.85	11.26	-53.5	-55.9	14.2	0.00e+00	0	23	0	439353344	73	4699
2026-01-10 13:12:56.33	292.41	11.27	-53.6	-56.2	14.0	0.00e+00	0	23	0	444596224	73	4823
2026-01-10 13:12:59.34	292.97	11.27	-53.4	-55.9	14.2	0.00e+00	0	23	0	450887680	73	4670
2026-01-10 13:13:02.32	293.53	11.28	-53.5	-56.0	14.2	0.00e+00	0	23	0	456130560	73	4719
2026-01-10 13:13:05.31	294.09	11.28	-53.3	-55.7	14.4	0.00e+00	0	23	0	461373440	73	4590
2026-01-10 13:13:08.31	294.65	11.28	-53.2	-55.5	14.5	0.00e+00	0	23	0	467664896	73	4476
2026-01-10 13:13:11.31	295.21	11.27	-52.8	-55.0	14.6	0.00e+00	0	23	0	472907776	72	4484
2026-01-10 13:13:14.31	295.77	11.27	-52.5	-54.6	14.7	0.00e+00	0	23	0	478150656	71	4514
2026-01-10 13:13:17.29	296.33	11.26	-52.5	-54.7	14.6	0.00e+00	0	23	0	484442112	71	4552
2026-01-10 13:13:20.28	296.88	11.25	-52.5	-54.7	14.7	0.00e+00	0	23	0	489684992	71	4565
2026-01-10 13:13:23.28	297.44	11.23	-52.4	-54.4	14.7	0.00e+00	0	23	0	494927872	71	4437
2026-01-10 13:13:26.28	298.00	11.22	-52.3	-54.3	14.8	0.00e+00	0	23	0	501219328	71	4389
2026-01-10 13:13:29.28	298.56	11.20	-52.2	-54.3	14.7	0.00e+00	0	23	0	506462208	70	4613
2026-01-10 13:13:32.27	299.11	11.18	-52.3	-54.5	14.5	0.00e+00	0	23	0	511705088	70	4707
2026-01-10 13:13:35.26	299.67	11.15	-52.2	-54.3	14.7	0.00e+00	0	23	0	517996544	70	4604
2026-01-10 13:13:38.26	300.22	11.13	-52.2	-54.3	14.7	0.00e+00	0	23	0	523239424	70	4599
2026-01-10 13:13:41.25	300.78	11.10	-52.2	-54.4	14.6	0.00e+00	0	23	0	529530880	70	4652
2026-01-10 13:13:44.24	301.33	11.07	-52.2	-54.3	14.7	0.00e+00	0	23	0	534773760	70	4599
2026-01-10 13:13:47.22	301.88	11.04	-52.2	-54.2	14.7	0.00e+00	0	23	0	540016640	70	4584
2026-01-10 13:13:50.21	302.42	11.00	-52.3	-54.4	14.5	0.00e+00	0	23	0	546308096	70	4682
2026-01-10 13:13:53.19	302.97	10.97	-52.2	-54.3	14.7	0.00e+00	0	23	0	551550976	70	4633
2026-01-10 13:13:56.19	303.52	10.93	-52.5	-54.6	14.6	0.00e+00	0	23	0	556793856	70	4801
2026-01-10 13:13:59.19	304.06	10.88	-52.2	-54.3	14.6	0.00e+00	0	23	0	563085312	70	4640
2026-01-10 13:14:02.17	304.61	10.84	-52.2	-54.3	14.7	0.00e+00	0	23	0	568328192	70	4637
2026-01-10 13:14:05.16	305.15	10.80	-52.5	-54.6	14.5	0.00e+00	0	23	0	573571072	70	4802
2026-01-10 13:14:08.15	305.69	10.75	-52.5	-54.7	14.4	0.00e+00	0	23	0	579862528	70	4829
2026-01-10 13:14:11.15	306.23	10.70	-52.6	-54.8	14.3	0.00e+00	0	23	0	585105408	70	4915
2026-01-10 13:14:14.14	306.76	10.65	-52.4	-54.5	14.5	0.00e+00	0	23	0	590348288	70	4749
2026-01-10 13:14:17.14	307.30	10.59	-52.3	-54.4	14.6	0.00e+00	0	23	0	596639744	70	4659
2026-01-10 13:14:20.13	307.83	10.53	-52.2	-54.2	14.7	0.00e+00	0	23	0	601882624	70	4583
2026-01-10 13:14:23.13	308.36	10.48	-52.2	-54.3	14.6	0.00e+00	0	23	0	607125504	70	4635
2026-01-10 13:14:26.12	308.89	10.42	-52.2	-54.2	14.6	0.00e+00	0	23	0	613416960	70	4588
2026-01-10 13:14:29.11	309.42	10.35	-52.0	-54.1	14.7	0.00e+00	0	23	0	618659840	70	4510
2026-01-10 13:14:32.11	309.94	10.29	-52.0	-54.0	14.8	0.00e+00	0	23	0	623902720	70	4487
2026-01-10 13:14:35.10	310.46	10.22	-51.9	-53.9	14.9	0.00e+00	0	23	0	630194176	70	4424
2026-01-10 13:14:38.07	310.98	10.15	-51.7	-53.7	15.0	0.00e+00	0	23	0	635437056	70	4292
2026-01-10 13:14:41.06	311.50	10.08	-51.8	-53.8	15.0	0.00e+00	0	23	0	640679936	70	4346
2026-01-10 13:14:44.05	312.01	10.01	-52.0	-54.0	14.8	0.00e+00	0	23	0	646971392	70	4480
2026-01-10 13:14:47.03	312.52	9.94	-52.0	-54.0	14.8	0.00e+00	0	23	0	652214272	70	4478
2026-01-10 13:14:50.03	313.03	9.86	-52.0	-54.1	14.8	0.00e+00	0	23	0	657457152	70	4495
2026-01-10 13:14:53.01	313.54	9.79	-51.6	-54.1	14.7	0.00e+00	0	23	0	663748608	69	4782
2026-01-10 13:14:56.01	314.04	9.71	-52.1	-54.2	14.5	0.00e+00	0	23	0	668991488	69	4859
2026-01-10 13:14:59.01	314.55	9.63	-52.0	-54.0	14.6	0.00e+00	0	23	0	675282944	69	4731
2026-01-10 13:15:02.00	315.04	9.55	-51.7	-53.7	14.8	0.00e+00	0	23	0	680525824	69	4546
2026-01-10 13:15:04.99	315.54	9.46	-52.0	-54.1	14.5	0.00e+00	0	23	0	685768704	69	4779
2026-01-10 13:15:07.98	316.03	9.38	-52.3	-54.5	14.3	0.00e+00	0	23	0	692060160	69	4995
2026-01-10 13:15:10.97	316.52	9.29	-52.3	-54.5	14.3	0.00e+00	0	23	0	697303040	69	5004
2026-01-10 13:15:13.97	317.01	9.20	-52.4	-54.6	14.3	0.00e+00	0	23	0	702545920	69	5066
2026-01-10 13:15:16.97	317.50	9.11	-52.4	-54.6	14.4	0.00e+00	0	23	0	708837376	70	4792
2026-01-10 13:15:19.96	317.98	9.02	-52.5	-54.8	14.3	0.00e+00	0	23	0	714080256	70	4903
2026-01-10 13:15:22.96	318.46	8.93	-52.8	-55.2	14.0	0.00e+00	0	23	0	719323136	70	5144
2026-01-10 13:15:25.96	318.94	8.83	-53.0	-55.5	14.0	0.00e+00	0	23	0	725614592	71	4996
2026-01-10 13:15:28.96	319.41	8.74	-53.4	-56.1	13.6	0.00e+00	0	23	0	730857472	71	5379
2026-01-10 13:15:31.96	319.88	8.64	-53.8	-56.7	13.3	0.00e+00	0	23	0	737148928	72	5440
2026-01-10 13:15:34.97	320.35	8.54	-53.8	-56.7	13.3	0.00e+00	0	23	0	742391808	72	5450
2026-01-10 13:15:37.97	320.82	8.44	-53.5	-56.3	13.6	0.00e+00	0	23	0	747634688	72	5186
2026-01-10 13:15:40.97	321.28	8.34	-53.5	-56.4	13.5	0.00e+00	0	23	0	753926144	72	5222
2026-01-10 13:15:43.97	321.74	8.24	-53.5	-56.4	13.5	0.00e+00	0	23	0	759169024	72	5225
2026-01-10 13:15:46.94	322.19	8.14	-53.6	-56.5	13.4	0.00e+00	0	23	0	764411904	72	5323
2026-01-10 13:15:49.93	322.64	8.04	-53.8	-56.8	13.2	0.00e+00	0	23	0	770703360	72	5477
2026-01-10 13:15:52.91	323.09	7.93	-54.2	-57.5	12.8	0.00e+00	0	23	0	775946240	73	5646
2026-01-10 13:15:55.91	323.54	7.83	-54.6	-58.3	12.4	3.00e-06	0	23	0	781189120	74	5815
2026-01-10 13:15:58.91	323.98	7.72	-54.7	-58.5	12.2	1.50e-06	0	23	0	787480576	74	5947
2026-01-10 13:16:01.91	324.42	7.61	-54.5	-58.1	12.5	0.00e+00	0	23	0	792723456	74	5657
2026-01-10 13:16:04.89	324.85	7.50	-54.4	-57.8	12.7	0.00e+00	0	24	0	797966336	74	5502
2026-01-10 13:16:07.88	325.29	7.40	-54.3	-57.7	12.8	0.00e+00	0	23	0	804257792	74	5455
2026-01-10 13:16:10.88	325.72	7.28	-54.2	-57.5	12.9	0.00e+00	0	23	0	809500672	74	5324
2026-01-10 13:16:13.86	326.14	7.17	-54.5	-58.0	12.6	1.50e-06	0	23	0	814743552	74	5616
2026-01-10 13:16:16.86	326.57	7.06	-54.5	-58.2	12.4	1.50e-06	0	23	0	821035008	74	5742
2026-01-10 13:16:19.86	326.99	6.95	-54.2	-57.5	12.9	0.00e+00	0	23	0	826277888	74	5319
2026-01-10 13:16:22.87	327.41	6.83	-54.0	-57.1	13.2	0.00e+00	0	23	0	832569344	74	5092
2026-01-10 13:16:25.87	327.82	6.72	-54.1	-57.3	13.1	0.00e+00	0	23	0	837812224	74	5201
2026-01-10 13:16:28.87	328.24	6.60	-54.4	-57.9	12.5	0.00e+00	0	23	0	843055104	74	5592
2026-01-10 13:16:31.88	328.65	6.49	-54.4	-57.9	12.5	2.20e-06	0	23	0	849346560	74	5570
2026-01-10 13:16:34.87	329.05	6.37	-54.0	-57.1	13.1	0.00e+00	0	23	0	854589440	74	5086
2026-01-10 13:16:37.87	329.45	6.25	-53.6	-56.6	13.4	0.00e+00	0	23	0	859832320	73	5064
2026-01-10 13:16:40.87	329.85	6.14	-53.6	-56.5	13.4	0.00e+00	0	23	0	866123776	73	5029
2026-01-10 13:16:43.84	330.25	6.02	-53.6	-56.6	13.3	0.00e+00	0	23	0	871366656	73	5093
2026-01-10 13:16:46.84	330.64	5.90	-53.7	-56.8	13.3	0.00e+00	0	23	0	876609536	73	5192
2026-01-10 13:16:49.83	331.03	5.78	-53.5	-56.4	13.5	0.00e+00	0	23	0	882900992	73	4927
2026-01-10 13:16:52.82	331.41	5.66	-53.6	-56.6	13.4	0.00e+00	0	23	0	888143872	73	5091
2026-01-10 13:16:55.80	331.79	5.54	-53.8	-57.0	13.1	0.00e+00	0	24	0	893386752	73	5333
2026-01-10 13:16:58.79	332.17	5.42	-54.1	-57.5	12.7	0.00e+00	0	23	0	899678208	73	5604
2026-01-10 13:17:01.78	332.55	5.30	-53.5	-56.5	13.4	0.00e+00	0	23	0	904921088	73	5014
2026-01-10 13:17:04.78	332.93	5.18	-53.0	-55.7	13.8	0.00e+00	0	24	0	910163968	72	4846
2026-01-10 13:17:07.77	333.30	5.05	-52.9	-55.6	13.9	0.00e+00	0	23	0	916455424	72	4794
2026-01-10 13:17:10.77	333.67	4.93	-58.0	-74.0	3.8	1.23e+00	0	24	104	920649728	81	23761
2026-01-10 13:17:13.77	334.03	4.81	-58.9	-74.9	3.8	1.49e+00	0	23	104	920649728	82	24828
2026-01-10 13:17:16.78	334.40	4.68	-59.2	-75.3	3.8	1.49e+00	0	24	104	920649728	83	24499
2026-01-10 13:17:19.78	334.76	4.56	-59.4	-75.5	3.8	1.49e+00	0	23	104	920649728	83	25000
2026-01-10 13:17:22.79	335.12	4.44	-59.7	-75.8	3.8	1.49e+00	0	23	104	920649728	84	24441
2026-01-10 13:17:25.79	335.47	4.31	-59.8	-75.8	3.8	1.49e+00	0	24	104	920649728	84	24626
2026-01-10 13:17:28.78	335.82	4.19	-59.8	-75.8	3.8	1.49e+00	0	24	104	920649728	84	24572
2026-01-10 13:17:31.78	336.17	4.06	-59.8	-75.8	3.8	1.49e+00	0	24	104	920649728	84	24593
2026-01-10 13:17:34.79	336.52	3.94	-59.7	-75.8	3.8	1.49e+00	0	24	104	920649728	84	24418
2026-01-10 13:17:37.80	336.86	3.81	-59.7	-75.7	3.8	1.49e+00	0	23	104	920649728	84	24297
2026-01-10 13:17:40.80	337.20	3.68	-59.6	-75.7	3.8	1.49e+00	0	24	104	920649728	84	24203
2026-01-10 13:17:43.81	337.54	3.56	-59.6	-75.7	3.8	1.49e+00	0	24	104	920649728	84	24207
2026-01-10 13:17:46.81	337.87	3.43	-59.6	-75.6	3.8	1.49e+00	0	24	104	920649728	84	24072
2026-01-10 13:17:49.80	338.20	3.30	-59.6	-75.6	3.8	1.49e+00	0	24	104	920649728	84	24023
2026-01-10 13:17:52.80	338.53	3.18	-59.5	-75.6	3.8	1.49e+00	0	24	104	920649728	84	23979
2026-01-10 13:17:55.79	338.86	3.05	-59.5	-75.6	3.8	1.49e+00	0	24	104	920649728	84	23907
2026-01-10 13:17:58.80	339.18	2.92	-59.5	-75.6	3.8	1.49e+00	0	24	104	920649728	84	23949
2026-01-10 13:18:01.79	339.50	2.80	-59.5	-75.6	3.8	1.49e+00	0	23	104	920649728	84	23893
2026-01-10 13:18:04.79	339.82	2.67	-59.5	-75.5	3.8	1.49e+00	0	24	104	920649728	84	23834
2026-01-10 13:18:07.80	340.14	2.54	-59.5	-75.5	3.8	1.49e+00	0	24	104	920649728	84	23850
2026-01-10 13:18:10.80	340.45	2.42	-59.5	-75.5	3.8	1.49e+00	0	23	104	920649728	84	23703
2026-01-10 13:18:13.81	340.77	2.29	-59.5	-75.5	3.8	1.49e+00	0	24	104	920649728	84	23730
2026-01-10 13:18:16.81	341.07	2.16	-59.5	-75.5	3.8	1.49e+00	0	24	104	920649728	84	23712
2026-01-10 13:18:19.82	341.38	2.03	-59.5	-75.5	3.8	1.49e+00	0	24	104	920649728	84	23725

#Closed at: 2026-01-10 13:18:22
#Recorded file [920 MB]: D:/lorett/data/31004_260110_160750.dat