passes_logs/2025/01/07/SPB_Silybum_02/SPB_Silybum_02__20250107_105557_SUOMI_NPP_rec.log

#Pass ID: 20250107_105557_SUOMI NPP
#Satellite: SUOMI NPP
#Configuration: NPP
#Start time: 2025-01-07 11:00:32

#Version: 2.0.20230423
#Station: SPB_Silybum_02
#Location: 30.233357 lon 59.946436 lat
#TLE: 1 37849U 11061A   25006.81407247  .00000291  00000+0  15897-3 0  9990
#TLE: 2 37849  98.7438 307.9068 0001960  53.3600 306.7756 14.19534214683755

#Time	Az	El	Level	Level2	SNR	BER	Gain	Gain2
2025-01-07 11:00:34.03	202.76	35.02	
2025-01-07 11:00:35.06	203.00	35.22	
2025-01-07 11:00:36.09	203.24	35.41	
2025-01-07 11:00:37.12	203.48	35.60	
2025-01-07 11:00:38.14	203.73	35.79	
2025-01-07 11:00:39.17	203.98	35.99	
2025-01-07 11:00:40.20	204.23	36.18	
2025-01-07 11:00:41.23	204.48	36.38	
2025-01-07 11:00:42.26	204.74	36.58	
2025-01-07 11:00:43.29	205.00	36.77	
2025-01-07 11:00:44.33	205.27	36.97	
2025-01-07 11:00:45.35	205.54	37.17	
2025-01-07 11:00:46.38	205.81	37.37	
2025-01-07 11:00:47.41	206.08	37.56	
2025-01-07 11:00:48.44	206.36	37.76	
2025-01-07 11:00:49.46	206.64	37.96	
2025-01-07 11:00:50.49	206.92	38.16	
2025-01-07 11:00:51.51	207.21	38.36	
2025-01-07 11:00:52.54	207.50	38.56	
2025-01-07 11:00:53.56	207.79	38.76	
2025-01-07 11:00:54.59	208.09	38.96	
2025-01-07 11:00:55.62	208.39	39.16	
2025-01-07 11:00:56.65	208.69	39.37	
2025-01-07 11:00:57.67	209.00	39.57	
2025-01-07 11:00:58.70	209.31	39.77	
2025-01-07 11:00:59.74	209.63	39.97	
2025-01-07 11:01:00.76	209.95	40.18	
2025-01-07 11:01:01.78	210.27	40.38	
2025-01-07 11:01:02.81	210.60	40.58	
2025-01-07 11:01:03.84	210.93	40.78	
2025-01-07 11:01:04.86	211.27	40.99	
2025-01-07 11:01:05.88	211.61	41.19	
2025-01-07 11:01:06.91	211.95	41.39	
2025-01-07 11:01:07.93	212.30	41.59	
2025-01-07 11:01:08.96	212.65	41.80	
2025-01-07 11:01:09.98	213.01	42.00	
2025-01-07 11:01:11.01	213.37	42.20	
2025-01-07 11:01:12.04	213.74	42.41	
2025-01-07 11:01:13.06	214.10	42.61	
2025-01-07 11:01:14.08	214.48	42.81	
2025-01-07 11:01:15.11	214.86	43.01	
2025-01-07 11:01:16.14	215.25	43.21	
2025-01-07 11:01:17.17	215.64	43.41	
2025-01-07 11:01:18.21	216.04	43.62	
2025-01-07 11:01:19.24	216.44	43.82	
2025-01-07 11:01:20.26	216.84	44.02	
2025-01-07 11:01:21.29	217.25	44.22	
2025-01-07 11:01:22.32	217.67	44.42	
2025-01-07 11:01:23.34	218.08	44.61	
2025-01-07 11:01:24.37	218.51	44.81	
2025-01-07 11:01:25.39	218.94	45.01	
2025-01-07 11:01:26.42	219.37	45.20	
2025-01-07 11:01:27.46	219.82	45.40	
2025-01-07 11:01:28.50	220.27	45.60	
2025-01-07 11:01:29.53	220.73	45.79	
2025-01-07 11:01:30.55	221.18	45.98	
2025-01-07 11:01:31.58	221.64	46.18	
2025-01-07 11:01:32.60	222.11	46.36	
2025-01-07 11:01:33.63	222.58	46.55	
2025-01-07 11:01:34.66	223.07	46.74	
2025-01-07 11:01:35.68	223.55	46.93	
2025-01-07 11:01:36.71	224.04	47.11	
2025-01-07 11:01:37.73	224.53	47.29	
2025-01-07 11:01:38.76	225.04	47.48	
2025-01-07 11:01:39.79	225.55	47.66	
2025-01-07 11:01:40.81	226.06	47.83	
2025-01-07 11:01:41.84	226.58	48.01	
2025-01-07 11:01:42.87	227.11	48.19	
2025-01-07 11:01:43.89	227.64	48.36	
2025-01-07 11:01:44.93	228.18	48.53	
2025-01-07 11:01:45.96	228.73	48.70	
2025-01-07 11:01:46.98	229.27	48.87	
2025-01-07 11:01:48.02	229.83	49.03	
2025-01-07 11:01:49.04	230.39	49.20	
2025-01-07 11:01:50.07	230.96	49.36	
2025-01-07 11:01:51.10	231.54	49.52	
2025-01-07 11:01:52.12	232.11	49.67	
2025-01-07 11:01:53.15	232.70	49.82	
2025-01-07 11:01:54.17	233.28	49.97	
2025-01-07 11:01:55.20	233.88	50.12	
2025-01-07 11:01:56.23	234.49	50.26	
2025-01-07 11:01:57.25	235.09	50.41	
2025-01-07 11:01:58.28	235.70	50.54	
2025-01-07 11:01:59.31	236.32	50.68	
2025-01-07 11:02:00.33	236.94	50.81	
2025-01-07 11:02:01.36	237.58	50.94	
2025-01-07 11:02:02.39	238.21	51.07	
2025-01-07 11:02:03.43	238.86	51.19	
2025-01-07 11:02:04.47	239.52	51.31	
2025-01-07 11:02:05.50	240.17	51.43	
2025-01-07 11:02:06.52	240.82	51.54	
2025-01-07 11:02:07.55	241.48	51.65	
2025-01-07 11:02:08.57	242.14	51.76	
2025-01-07 11:02:09.60	242.81	51.86	
2025-01-07 11:02:10.62	243.48	51.95	
2025-01-07 11:02:11.65	244.16	52.05	
2025-01-07 11:02:12.68	244.85	52.14	
2025-01-07 11:02:13.70	245.53	52.22	
2025-01-07 11:02:14.73	246.22	52.31	
2025-01-07 11:02:15.75	246.91	52.38	
2025-01-07 11:02:16.78	247.61	52.46	
2025-01-07 11:02:17.81	248.31	52.53	
2025-01-07 11:02:18.84	249.02	52.59	
2025-01-07 11:02:19.86	249.72	52.65	
2025-01-07 11:02:20.89	250.43	52.71	
2025-01-07 11:02:21.92	251.15	52.76	
2025-01-07 11:02:22.94	251.86	52.81	
2025-01-07 11:02:23.97	252.58	52.85	
2025-01-07 11:02:25.00	253.30	52.89	
2025-01-07 11:02:26.03	254.02	52.92	
2025-01-07 11:02:27.05	254.74	52.95	
2025-01-07 11:02:28.08	255.46	52.98	
2025-01-07 11:02:29.11	256.19	53.00	
2025-01-07 11:02:30.15	256.92	53.01	
2025-01-07 11:02:31.17	257.65	53.02	
2025-01-07 11:02:32.20	258.37	53.03	
2025-01-07 11:02:33.23	259.10	53.03	
2025-01-07 11:02:34.25	259.82	53.03	
2025-01-07 11:02:35.28	260.55	53.02	
2025-01-07 11:02:36.30	261.27	53.01	
2025-01-07 11:02:37.33	262.00	52.99	
2025-01-07 11:02:38.35	262.72	52.97	
2025-01-07 11:02:39.38	263.45	52.95	
2025-01-07 11:02:40.41	264.17	52.92	
2025-01-07 11:02:41.45	264.90	52.88	
2025-01-07 11:02:42.48	265.62	52.84	
2025-01-07 11:02:43.51	266.34	52.80	
2025-01-07 11:02:44.53	267.04	52.75	
2025-01-07 11:02:45.56	267.76	52.69	
2025-01-07 11:02:46.59	268.47	52.64	
2025-01-07 11:02:47.62	269.18	52.58	
2025-01-07 11:02:48.64	269.87	52.51	
2025-01-07 11:02:49.67	270.58	52.44	
2025-01-07 11:02:50.70	271.27	52.36	
2025-01-07 11:02:51.72	271.96	52.29	
2025-01-07 11:02:52.75	272.65	52.20	
2025-01-07 11:02:53.79	273.35	52.12	
2025-01-07 11:02:54.81	274.02	52.03	
2025-01-07 11:02:55.84	274.70	51.93	
2025-01-07 11:02:56.88	275.38	51.83	
2025-01-07 11:02:57.91	276.05	51.73	
2025-01-07 11:02:58.96	276.73	51.62	
2025-01-07 11:02:59.98	277.38	51.51	
2025-01-07 11:03:01.01	278.04	51.40	
2025-01-07 11:03:02.03	278.68	51.28	
2025-01-07 11:03:03.06	279.32	51.16	
2025-01-07 11:03:04.08	279.96	51.04	
2025-01-07 11:03:05.11	280.59	50.91	
2025-01-07 11:03:06.13	281.22	50.78	
2025-01-07 11:03:07.15	281.83	50.65	
2025-01-07 11:03:08.18	282.45	50.51	
2025-01-07 11:03:09.21	283.06	50.38	
2025-01-07 11:03:10.23	283.67	50.23	
2025-01-07 11:03:11.27	284.27	50.09	
2025-01-07 11:03:12.31	284.87	49.94	
2025-01-07 11:03:13.34	285.46	49.79	
2025-01-07 11:03:14.36	286.04	49.64	
2025-01-07 11:03:15.39	286.62	49.48	
2025-01-07 11:03:16.42	287.19	49.32	
2025-01-07 11:03:17.44	287.75	49.16	
2025-01-07 11:03:18.48	288.32	49.00	
2025-01-07 11:03:19.51	288.87	48.83	
2025-01-07 11:03:20.55	289.43	48.66	
2025-01-07 11:03:21.57	289.96	48.50	
2025-01-07 11:03:22.60	290.50	48.32	
2025-01-07 11:03:23.62	291.02	48.15	
2025-01-07 11:03:24.64	291.54	47.98	
2025-01-07 11:03:25.67	292.06	47.80	
2025-01-07 11:03:26.70	292.58	47.62	
2025-01-07 11:03:27.72	293.08	47.44	
2025-01-07 11:03:28.75	293.58	47.26	
2025-01-07 11:03:29.78	294.08	47.08	
2025-01-07 11:03:30.81	294.57	46.89	
2025-01-07 11:03:31.83	295.05	46.71	
2025-01-07 11:03:32.86	295.52	46.52	
2025-01-07 11:03:33.89	296.00	46.33	
2025-01-07 11:03:34.92	296.46	46.14	
2025-01-07 11:03:35.95	296.93	45.95	
2025-01-07 11:03:36.99	297.39	45.76	
2025-01-07 11:03:38.03	297.84	45.56	
2025-01-07 11:03:39.06	298.29	45.37	
2025-01-07 11:03:40.09	298.73	45.17	
2025-01-07 11:03:41.12	299.16	44.98	
2025-01-07 11:03:42.16	299.59	44.78	
2025-01-07 11:03:43.18	300.01	44.58	
2025-01-07 11:03:44.21	300.43	44.38	
2025-01-07 11:03:45.23	300.84	44.19	
2025-01-07 11:03:46.26	301.25	43.99	
2025-01-07 11:03:47.29	301.65	43.79	
2025-01-07 11:03:48.32	302.05	43.59	
2025-01-07 11:03:49.34	302.44	43.39	
2025-01-07 11:03:50.37	302.83	43.19	
2025-01-07 11:03:51.40	303.21	42.99	
2025-01-07 11:03:52.42	303.59	42.79	
2025-01-07 11:03:53.45	303.96	42.58	
2025-01-07 11:03:54.48	304.33	42.38	
2025-01-07 11:03:55.50	304.70	42.18	
2025-01-07 11:03:56.53	305.06	41.98	
2025-01-07 11:03:57.55	305.41	41.78	
2025-01-07 11:03:58.58	305.76	41.58	
2025-01-07 11:03:59.62	306.11	41.37	
2025-01-07 11:04:00.66	306.46	41.17	
2025-01-07 11:04:01.69	306.80	40.96	
2025-01-07 11:04:02.71	307.13	40.76	
2025-01-07 11:04:03.74	307.46	40.56	
2025-01-07 11:04:04.78	307.79	40.36	
2025-01-07 11:04:05.82	308.12	40.15	
2025-01-07 11:04:06.84	308.43	39.95	
2025-01-07 11:04:07.87	308.75	39.75	
2025-01-07 11:04:08.90	309.06	39.55	
2025-01-07 11:04:09.93	309.37	39.35	
2025-01-07 11:04:10.95	309.67	39.15	
2025-01-07 11:04:11.99	309.97	38.95	
2025-01-07 11:04:13.02	310.27	38.75	
2025-01-07 11:04:14.04	310.56	38.55	
2025-01-07 11:04:15.07	310.85	38.35	
2025-01-07 11:04:16.11	311.13	38.15	
2025-01-07 11:04:17.14	311.42	37.95	
2025-01-07 11:04:18.16	311.69	37.75	
2025-01-07 11:04:19.19	311.97	37.55	
2025-01-07 11:04:20.21	312.24	37.36	
2025-01-07 11:04:21.25	312.51	37.16	
2025-01-07 11:04:22.28	312.78	36.96	
2025-01-07 11:04:23.31	313.04	36.77	
2025-01-07 11:04:24.34	313.30	36.57	
2025-01-07 11:04:25.37	313.56	36.38	
2025-01-07 11:04:26.40	313.81	36.18	
2025-01-07 11:04:27.42	314.06	35.99	
2025-01-07 11:04:28.45	314.31	35.80	
2025-01-07 11:04:29.48	314.55	35.60	
2025-01-07 11:04:30.50	314.79	35.41	
2025-01-07 11:04:31.54	315.03	35.22	
2025-01-07 11:04:32.57	315.27	35.03	
2025-01-07 11:04:33.60	315.50	34.84	
2025-01-07 11:04:34.64	315.74	34.65	
2025-01-07 11:04:35.67	315.97	34.46	
2025-01-07 11:04:36.69	316.19	34.27	
2025-01-07 11:04:37.72	316.41	34.08	
2025-01-07 11:04:38.75	316.63	33.90	
2025-01-07 11:04:39.79	316.85	33.71	
2025-01-07 11:04:40.82	317.07	33.52	
2025-01-07 11:04:41.85	317.28	33.34	
2025-01-07 11:04:42.87	317.49	33.16	
2025-01-07 11:04:43.90	317.70	32.97	
2025-01-07 11:04:44.92	317.91	32.79	
2025-01-07 11:04:45.95	318.11	32.61	
2025-01-07 11:04:46.97	318.31	32.43	
2025-01-07 11:04:48.00	318.51	32.25	
2025-01-07 11:04:49.04	318.71	32.07	
2025-01-07 11:04:50.06	318.91	31.89	
2025-01-07 11:04:51.09	319.10	31.71	
2025-01-07 11:04:52.12	319.29	31.54	
2025-01-07 11:04:53.15	319.48	31.36	
2025-01-07 11:04:54.18	319.67	31.18	
2025-01-07 11:04:55.21	319.86	31.01	
2025-01-07 11:04:56.23	320.04	30.83	
2025-01-07 11:04:57.28	320.22	30.66	
2025-01-07 11:04:58.31	320.40	30.48	
2025-01-07 11:04:59.33	320.58	30.31	
2025-01-07 11:05:00.35	320.75	30.14	
2025-01-07 11:05:01.38	320.93	29.97	
2025-01-07 11:05:02.40	321.10	29.80	
2025-01-07 11:05:03.44	321.27	29.63	
2025-01-07 11:05:04.46	321.44	29.47	
2025-01-07 11:05:05.49	321.61	29.30	
2025-01-07 11:05:06.52	321.77	29.13	
2025-01-07 11:05:07.54	321.94	28.97	
2025-01-07 11:05:08.57	322.10	28.80	
2025-01-07 11:05:09.59	322.26	28.64	
2025-01-07 11:05:10.62	322.42	28.47	
2025-01-07 11:05:11.65	322.57	28.31	
2025-01-07 11:05:12.69	322.73	28.15	
2025-01-07 11:05:13.72	322.89	27.98	
2025-01-07 11:05:14.75	323.04	27.82	
2025-01-07 11:05:15.78	323.19	27.66	
2025-01-07 11:05:16.80	323.34	27.50	
2025-01-07 11:05:17.83	323.49	27.34	
2025-01-07 11:05:18.87	323.64	27.18	
2025-01-07 11:05:19.90	323.78	27.03	
2025-01-07 11:05:20.92	323.93	26.87	
2025-01-07 11:05:21.95	324.07	26.72	
2025-01-07 11:05:22.98	324.21	26.56	
2025-01-07 11:05:24.00	324.35	26.41	
2025-01-07 11:05:25.03	324.49	26.25	
2025-01-07 11:05:26.06	324.63	26.10	
2025-01-07 11:05:27.08	324.76	25.95	
2025-01-07 11:05:28.11	324.90	25.80	
2025-01-07 11:05:29.14	325.03	25.65	
2025-01-07 11:05:30.16	325.16	25.50	
2025-01-07 11:05:31.19	325.29	25.35	
2025-01-07 11:05:32.21	325.42	25.20	
2025-01-07 11:05:33.25	325.55	25.05	
2025-01-07 11:05:34.29	325.68	24.90	
2025-01-07 11:05:35.32	325.81	24.75	
2025-01-07 11:05:36.35	325.94	24.61	
2025-01-07 11:05:37.38	326.06	24.46	
2025-01-07 11:05:38.40	326.18	24.32	
2025-01-07 11:05:39.43	326.31	24.17	
2025-01-07 11:05:40.46	326.43	24.03	
2025-01-07 11:05:41.49	326.55	23.89	
2025-01-07 11:05:42.52	326.67	23.74	
2025-01-07 11:05:43.55	326.79	23.60	
2025-01-07 11:05:44.57	326.90	23.46	
2025-01-07 11:05:45.60	327.02	23.32	
2025-01-07 11:05:46.63	327.13	23.18	
2025-01-07 11:05:47.65	327.25	23.04	
2025-01-07 11:05:48.67	327.36	22.91	
2025-01-07 11:05:49.70	327.47	22.77	
2025-01-07 11:05:50.73	327.58	22.63	
2025-01-07 11:05:51.75	327.69	22.50	
2025-01-07 11:05:52.78	327.80	22.36	
2025-01-07 11:05:53.81	327.91	22.23	
2025-01-07 11:05:54.83	328.02	22.09	
2025-01-07 11:05:55.86	328.12	21.96	
2025-01-07 11:05:56.88	328.23	21.83	
2025-01-07 11:05:57.91	328.33	21.69	
2025-01-07 11:05:58.94	328.44	21.56	
2025-01-07 11:05:59.96	328.54	21.43	
2025-01-07 11:06:01.02	328.65	21.30	
2025-01-07 11:06:02.04	328.75	21.17	
2025-01-07 11:06:03.07	328.85	21.04	
2025-01-07 11:06:04.11	328.95	20.91	
2025-01-07 11:06:05.14	329.05	20.78	
2025-01-07 11:06:06.16	329.15	20.65	
2025-01-07 11:06:07.19	329.24	20.52	
2025-01-07 11:06:08.21	329.34	20.40	
2025-01-07 11:06:09.24	329.44	20.27	
2025-01-07 11:06:10.27	329.53	20.15	
2025-01-07 11:06:11.29	329.62	20.02	
2025-01-07 11:06:12.33	329.72	19.90	
2025-01-07 11:06:13.37	329.81	19.77	
2025-01-07 11:06:14.40	329.91	19.65	
2025-01-07 11:06:15.43	330.00	19.52	
2025-01-07 11:06:16.46	330.09	19.40	
2025-01-07 11:06:17.48	330.18	19.28	
2025-01-07 11:06:18.51	330.27	19.16	
2025-01-07 11:06:19.54	330.36	19.04	
2025-01-07 11:06:20.57	330.45	18.92	
2025-01-07 11:06:21.59	330.53	18.80	
2025-01-07 11:06:22.62	330.62	18.68	
2025-01-07 11:06:23.66	330.71	18.56	
2025-01-07 11:06:24.68	330.79	18.44	
2025-01-07 11:06:25.71	330.88	18.33	
2025-01-07 11:06:26.74	330.96	18.21	
2025-01-07 11:06:27.76	331.05	18.09	
2025-01-07 11:06:28.79	331.13	17.98	
2025-01-07 11:06:29.82	331.21	17.86	
2025-01-07 11:06:30.84	331.29	17.75	
2025-01-07 11:06:31.87	331.38	17.63	
2025-01-07 11:06:32.90	331.46	17.52	
2025-01-07 11:06:33.92	331.54	17.40	
2025-01-07 11:06:34.95	331.62	17.29	
2025-01-07 11:06:35.98	331.70	17.18	
2025-01-07 11:06:37.00	331.77	17.07	
2025-01-07 11:06:38.03	331.85	16.96	
2025-01-07 11:06:39.06	331.93	16.84	
2025-01-07 11:06:40.08	332.01	16.73	
2025-01-07 11:06:41.11	332.08	16.62	
2025-01-07 11:06:42.14	332.16	16.51	
2025-01-07 11:06:43.17	332.23	16.40	
2025-01-07 11:06:44.19	332.31	16.30	
2025-01-07 11:06:45.22	332.38	16.19	
2025-01-07 11:06:46.25	332.46	16.08	
2025-01-07 11:06:47.28	332.53	15.97	
2025-01-07 11:06:48.31	332.60	15.86	
2025-01-07 11:06:49.33	332.68	15.76	
2025-01-07 11:06:50.36	332.75	15.65	
2025-01-07 11:06:51.39	332.82	15.54	
2025-01-07 11:06:52.42	332.89	15.44	
2025-01-07 11:06:53.45	332.96	15.33	
2025-01-07 11:06:54.47	333.03	15.23	
2025-01-07 11:06:55.50	333.10	15.12	
2025-01-07 11:06:56.52	333.17	15.02	
2025-01-07 11:06:57.55	333.24	14.92	
2025-01-07 11:06:58.58	333.31	14.81	
2025-01-07 11:06:59.61	333.37	14.71	
2025-01-07 11:07:00.63	333.44	14.61	
2025-01-07 11:07:01.67	333.51	14.51	
2025-01-07 11:07:02.69	333.58	14.41	
2025-01-07 11:07:03.74	333.64	14.30	
2025-01-07 11:07:04.77	333.71	14.20	
2025-01-07 11:07:05.79	333.77	14.10	
2025-01-07 11:07:06.82	333.84	14.00	
2025-01-07 11:07:07.85	333.90	13.90	
2025-01-07 11:07:08.87	333.97	13.80	
2025-01-07 11:07:09.90	334.03	13.71	
2025-01-07 11:07:10.93	334.09	13.61	
2025-01-07 11:07:11.95	334.16	13.51	
2025-01-07 11:07:12.99	334.22	13.41	
2025-01-07 11:07:14.02	334.28	13.31	
2025-01-07 11:07:15.06	334.34	13.22	
2025-01-07 11:07:16.08	334.41	13.12	
2025-01-07 11:07:17.11	334.47	13.02	
2025-01-07 11:07:18.13	334.53	12.93	
2025-01-07 11:07:19.18	334.59	12.83	
2025-01-07 11:07:20.22	334.65	12.73	
2025-01-07 11:07:21.24	334.71	12.64	
2025-01-07 11:07:22.27	334.77	12.55	
2025-01-07 11:07:23.29	334.83	12.45	
2025-01-07 11:07:24.32	334.88	12.36	
2025-01-07 11:07:25.35	334.94	12.26	
2025-01-07 11:07:26.37	335.00	12.17	
2025-01-07 11:07:27.40	335.06	12.08	
2025-01-07 11:07:28.43	335.12	11.99	
2025-01-07 11:07:29.46	335.17	11.89	
2025-01-07 11:07:30.49	335.23	11.80	
2025-01-07 11:07:31.52	335.29	11.71	
2025-01-07 11:07:32.54	335.34	11.62	
2025-01-07 11:07:33.56	335.40	11.53	
2025-01-07 11:07:34.60	335.45	11.44	
2025-01-07 11:07:35.63	335.51	11.35	
2025-01-07 11:07:36.67	335.56	11.26	
2025-01-07 11:07:37.69	335.62	11.17	
2025-01-07 11:07:38.72	335.67	11.08	
2025-01-07 11:07:39.75	335.72	10.99	
2025-01-07 11:07:40.77	335.78	10.90	
2025-01-07 11:07:41.81	335.83	10.81	
2025-01-07 11:07:42.85	335.88	10.72	
2025-01-07 11:07:43.88	335.94	10.64	
2025-01-07 11:07:44.90	335.99	10.55	
2025-01-07 11:07:45.93	336.04	10.46	
2025-01-07 11:07:46.95	336.09	10.37	
2025-01-07 11:07:47.98	336.14	10.29	
2025-01-07 11:07:49.01	336.19	10.20	
2025-01-07 11:07:50.03	336.25	10.12	
2025-01-07 11:07:51.06	336.30	10.03	
2025-01-07 11:07:52.08	336.35	9.95	
2025-01-07 11:07:53.10	336.40	9.86	
2025-01-07 11:07:54.13	336.45	9.78	
2025-01-07 11:07:55.16	336.50	9.69	
2025-01-07 11:07:56.19	336.54	9.61	
2025-01-07 11:07:57.21	336.59	9.52	
2025-01-07 11:07:58.24	336.64	9.44	
2025-01-07 11:07:59.27	336.69	9.36	
2025-01-07 11:08:00.30	336.74	9.27	
2025-01-07 11:08:01.33	336.79	9.19	
2025-01-07 11:08:02.35	336.83	9.11	
2025-01-07 11:08:03.38	336.88	9.02	
2025-01-07 11:08:04.41	336.93	8.94	
2025-01-07 11:08:05.45	336.98	8.86	
2025-01-07 11:08:06.48	337.02	8.78	
2025-01-07 11:08:07.50	337.07	8.70	
2025-01-07 11:08:08.53	337.12	8.61	
2025-01-07 11:08:09.56	337.16	8.53	
2025-01-07 11:08:10.58	337.21	8.45	
2025-01-07 11:08:11.62	337.25	8.37	
2025-01-07 11:08:12.65	337.30	8.29	
2025-01-07 11:08:13.68	337.35	8.21	
2025-01-07 11:08:14.70	337.39	8.13	
2025-01-07 11:08:15.73	337.44	8.05	
2025-01-07 11:08:16.75	337.48	7.97	
2025-01-07 11:08:17.77	337.52	7.89	
2025-01-07 11:08:18.80	337.57	7.82	
2025-01-07 11:08:19.84	337.61	7.74	
2025-01-07 11:08:20.87	337.66	7.66	
2025-01-07 11:08:21.91	337.70	7.58	
2025-01-07 11:08:22.94	337.74	7.50	
2025-01-07 11:08:23.97	337.79	7.42	
2025-01-07 11:08:24.99	337.83	7.35	
2025-01-07 11:08:26.02	337.87	7.27	
2025-01-07 11:08:27.04	337.91	7.19	
2025-01-07 11:08:28.07	337.96	7.12	
2025-01-07 11:08:29.09	338.00	7.04	
2025-01-07 11:08:30.12	338.04	6.96	
2025-01-07 11:08:31.14	338.08	6.89	
2025-01-07 11:08:32.18	338.12	6.81	
2025-01-07 11:08:33.21	338.16	6.73	
2025-01-07 11:08:34.23	338.21	6.66	
2025-01-07 11:08:35.25	338.25	6.59	
2025-01-07 11:08:36.28	338.29	6.51	
2025-01-07 11:08:37.31	338.33	6.43	
2025-01-07 11:08:38.35	338.37	6.36	
2025-01-07 11:08:39.37	338.41	6.29	
2025-01-07 11:08:40.40	338.45	6.21	
2025-01-07 11:08:41.42	338.49	6.14	
2025-01-07 11:08:42.45	338.53	6.06	
2025-01-07 11:08:43.48	338.57	5.99	
2025-01-07 11:08:44.51	338.61	5.92	
2025-01-07 11:08:45.53	338.65	5.84	
2025-01-07 11:08:46.57	338.68	5.77	
2025-01-07 11:08:47.60	338.72	5.70	
2025-01-07 11:08:48.62	338.76	5.62	
2025-01-07 11:08:49.65	338.80	5.55	
2025-01-07 11:08:50.68	338.84	5.48	
2025-01-07 11:08:51.70	338.88	5.41	
2025-01-07 11:08:52.73	338.91	5.34	
2025-01-07 11:08:53.77	338.95	5.26	
2025-01-07 11:08:54.80	338.99	5.19	
2025-01-07 11:08:55.82	339.03	5.12	
2025-01-07 11:08:56.85	339.07	5.05	
2025-01-07 11:08:57.87	339.10	4.98	
2025-01-07 11:08:58.91	339.14	4.91	
2025-01-07 11:08:59.94	339.18	4.84	
2025-01-07 11:09:00.96	339.21	4.77	
2025-01-07 11:09:01.99	339.25	4.70	
2025-01-07 11:09:03.01	339.29	4.63	
2025-01-07 11:09:04.04	339.32	4.56	
2025-01-07 11:09:05.07	339.36	4.49	
2025-01-07 11:09:06.09	339.39	4.42	
2025-01-07 11:09:07.12	339.43	4.35	
2025-01-07 11:09:08.14	339.46	4.28	
2025-01-07 11:09:09.17	339.50	4.21	
2025-01-07 11:09:10.19	339.54	4.14	
2025-01-07 11:09:11.22	339.57	4.07	
2025-01-07 11:09:12.24	339.61	4.01	

#Closed at: 2025-01-07 11:09:12