passes_logs/2025/01/07/SPB_Silybum_02/SPB_Silybum_02__20250107_042335_SUOMI_NPP_rec.log

#Pass ID: 20250107_042335_SUOMI NPP
#Satellite: SUOMI NPP
#Configuration: NPP
#Start time: 2025-01-07 04:23:33

#Version: 2.0.20230423
#Station: SPB_Silybum_02
#Location: 30.233357 lon 59.946436 lat
#TLE: 1 37849U 11061A   25006.17970494  .00000315  00000+0  17023-3 0  9998
#TLE: 2 37849  98.7437 307.2805 0001982  54.5030 305.6331 14.19533747683667

#Time	Az	El	Level	Level2	SNR	BER	Gain	Gain2
2025-01-07 04:23:35.71	18.31	4.02	
2025-01-07 04:23:36.53	18.21	4.05	
2025-01-07 04:23:37.35	18.11	4.08	
2025-01-07 04:23:38.18	18.01	4.11	
2025-01-07 04:23:39.01	17.90	4.14	
2025-01-07 04:23:39.83	17.80	4.17	
2025-01-07 04:23:40.65	17.70	4.20	
2025-01-07 04:23:41.47	17.60	4.23	
2025-01-07 04:23:42.29	17.50	4.26	
2025-01-07 04:23:43.11	17.39	4.29	
2025-01-07 04:23:43.93	17.29	4.31	
2025-01-07 04:23:44.75	17.19	4.34	
2025-01-07 04:23:45.58	17.08	4.37	
2025-01-07 04:23:46.40	16.98	4.40	
2025-01-07 04:23:47.22	16.87	4.43	
2025-01-07 04:23:48.04	16.77	4.46	
2025-01-07 04:23:48.86	16.66	4.49	
2025-01-07 04:23:49.68	16.56	4.52	
2025-01-07 04:23:50.50	16.46	4.55	
2025-01-07 04:23:51.32	16.35	4.58	
2025-01-07 04:23:52.14	16.25	4.61	
2025-01-07 04:23:52.96	16.14	4.64	
2025-01-07 04:23:53.78	16.03	4.67	
2025-01-07 04:23:54.60	15.93	4.69	
2025-01-07 04:23:55.42	15.82	4.72	
2025-01-07 04:23:56.25	15.71	4.75	
2025-01-07 04:23:57.07	15.61	4.78	
2025-01-07 04:23:57.89	15.50	4.81	
2025-01-07 04:23:58.70	15.40	4.84	
2025-01-07 04:23:59.52	15.29	4.87	
2025-01-07 04:24:00.34	15.18	4.89	
2025-01-07 04:24:01.17	15.07	4.92	
2025-01-07 04:24:02.00	14.96	4.95	
2025-01-07 04:24:02.83	14.85	4.98	
2025-01-07 04:24:03.65	14.74	5.01	
2025-01-07 04:24:04.47	14.64	5.04	
2025-01-07 04:24:05.29	14.53	5.07	
2025-01-07 04:24:06.11	14.42	5.09	
2025-01-07 04:24:06.94	14.31	5.12	
2025-01-07 04:24:07.76	14.20	5.15	
2025-01-07 04:24:08.59	14.09	5.18	
2025-01-07 04:24:09.41	13.98	5.20	
2025-01-07 04:24:10.24	13.87	5.23	
2025-01-07 04:24:11.06	13.76	5.26	
2025-01-07 04:24:11.88	13.65	5.29	
2025-01-07 04:24:12.70	13.54	5.32	
2025-01-07 04:24:13.51	13.43	5.34	
2025-01-07 04:24:14.34	13.31	5.37	
2025-01-07 04:24:15.16	13.20	5.40	
2025-01-07 04:24:15.98	13.09	5.42	
2025-01-07 04:24:16.79	12.98	5.45	
2025-01-07 04:24:17.62	12.87	5.48	
2025-01-07 04:24:18.44	12.76	5.51	
2025-01-07 04:24:19.26	12.64	5.53	
2025-01-07 04:24:20.08	12.53	5.56	
2025-01-07 04:24:20.90	12.42	5.59	
2025-01-07 04:24:21.73	12.30	5.61	
2025-01-07 04:24:22.55	12.19	5.64	
2025-01-07 04:24:23.37	12.08	5.67	
2025-01-07 04:24:24.19	11.96	5.69	
2025-01-07 04:24:25.02	11.85	5.72	
2025-01-07 04:24:25.84	11.73	5.74	
2025-01-07 04:24:26.67	11.62	5.77	
2025-01-07 04:24:27.48	11.51	5.80	
2025-01-07 04:24:28.31	11.39	5.82	
2025-01-07 04:24:29.14	11.27	5.85	
2025-01-07 04:24:29.96	11.16	5.87	
2025-01-07 04:24:30.78	11.04	5.90	
2025-01-07 04:24:31.60	10.93	5.93	
2025-01-07 04:24:32.43	10.81	5.95	
2025-01-07 04:24:33.25	10.69	5.98	
2025-01-07 04:24:34.07	10.58	6.00	
2025-01-07 04:24:34.90	10.46	6.03	
2025-01-07 04:24:35.72	10.34	6.05	
2025-01-07 04:24:36.54	10.23	6.08	
2025-01-07 04:24:37.36	10.11	6.10	
2025-01-07 04:24:38.18	9.99	6.13	
2025-01-07 04:24:39.00	9.88	6.15	
2025-01-07 04:24:39.82	9.76	6.18	
2025-01-07 04:24:40.64	9.64	6.20	
2025-01-07 04:24:41.46	9.52	6.23	
2025-01-07 04:24:42.28	9.40	6.25	
2025-01-07 04:24:43.10	9.29	6.28	
2025-01-07 04:24:43.92	9.17	6.30	
2025-01-07 04:24:44.74	9.05	6.33	
2025-01-07 04:24:45.56	8.93	6.35	
2025-01-07 04:24:46.38	8.81	6.37	
2025-01-07 04:24:47.20	8.69	6.40	
2025-01-07 04:24:48.02	8.57	6.42	
2025-01-07 04:24:48.84	8.45	6.44	
2025-01-07 04:24:49.66	8.33	6.47	
2025-01-07 04:24:50.48	8.21	6.49	
2025-01-07 04:24:51.30	8.09	6.52	
2025-01-07 04:24:52.12	7.97	6.54	
2025-01-07 04:24:52.94	7.85	6.56	
2025-01-07 04:24:53.77	7.73	6.59	
2025-01-07 04:24:54.59	7.61	6.61	
2025-01-07 04:24:55.41	7.48	6.63	
2025-01-07 04:24:56.23	7.36	6.65	
2025-01-07 04:24:57.05	7.24	6.68	
2025-01-07 04:24:57.89	7.12	6.70	
2025-01-07 04:24:58.71	6.99	6.72	
2025-01-07 04:24:59.53	6.87	6.75	
2025-01-07 04:25:00.37	6.75	6.77	
2025-01-07 04:25:01.19	6.62	6.79	
2025-01-07 04:25:02.03	6.50	6.81	
2025-01-07 04:25:02.86	6.37	6.84	
2025-01-07 04:25:03.68	6.25	6.86	
2025-01-07 04:25:04.51	6.13	6.88	
2025-01-07 04:25:05.33	6.00	6.90	
2025-01-07 04:25:06.15	5.88	6.92	
2025-01-07 04:25:06.97	5.75	6.94	
2025-01-07 04:25:07.79	5.63	6.97	
2025-01-07 04:25:08.62	5.50	6.99	
2025-01-07 04:25:09.43	5.38	7.01	
2025-01-07 04:25:10.25	5.26	7.03	
2025-01-07 04:25:11.07	5.13	7.05	
2025-01-07 04:25:11.89	5.01	7.07	
2025-01-07 04:25:12.71	4.88	7.09	
2025-01-07 04:25:13.55	4.75	7.11	
2025-01-07 04:25:14.37	4.63	7.13	
2025-01-07 04:25:15.18	4.50	7.15	
2025-01-07 04:25:16.00	4.38	7.17	
2025-01-07 04:25:16.82	4.25	7.19	
2025-01-07 04:25:17.64	4.12	7.21	
2025-01-07 04:25:18.46	4.00	7.23	
2025-01-07 04:25:19.28	3.87	7.25	
2025-01-07 04:25:20.10	3.74	7.27	
2025-01-07 04:25:20.92	3.62	7.29	
2025-01-07 04:25:21.74	3.49	7.31	
2025-01-07 04:25:22.56	3.36	7.33	
2025-01-07 04:25:23.39	3.23	7.35	
2025-01-07 04:25:24.21	3.10	7.37	
2025-01-07 04:25:25.03	2.98	7.39	
2025-01-07 04:25:25.85	2.85	7.41	
2025-01-07 04:25:26.67	2.72	7.43	
2025-01-07 04:25:27.49	2.59	7.45	
2025-01-07 04:25:28.31	2.46	7.46	
2025-01-07 04:25:29.13	2.33	7.48	
2025-01-07 04:25:29.96	2.20	7.50	
2025-01-07 04:25:30.79	2.07	7.52	
2025-01-07 04:25:31.61	1.94	7.54	
2025-01-07 04:25:32.43	1.81	7.56	
2025-01-07 04:25:33.25	1.68	7.57	
2025-01-07 04:25:34.07	1.55	7.59	
2025-01-07 04:25:34.89	1.42	7.61	
2025-01-07 04:25:35.71	1.29	7.63	
2025-01-07 04:25:36.53	1.16	7.64	
2025-01-07 04:25:37.35	1.03	7.66	
2025-01-07 04:25:38.17	0.90	7.68	
2025-01-07 04:25:38.99	0.77	7.69	
2025-01-07 04:25:39.81	0.64	7.71	
2025-01-07 04:25:40.64	0.51	7.73	
2025-01-07 04:25:41.46	0.38	7.74	
2025-01-07 04:25:42.28	0.24	7.76	
2025-01-07 04:25:43.10	0.11	7.78	
2025-01-07 04:25:43.92	359.98	7.79	
2025-01-07 04:25:44.74	359.85	7.81	
2025-01-07 04:25:45.57	359.72	7.82	
2025-01-07 04:25:46.40	359.58	7.84	
2025-01-07 04:25:47.22	359.45	7.86	
2025-01-07 04:25:48.03	359.32	7.87	
2025-01-07 04:25:48.85	359.19	7.89	
2025-01-07 04:25:49.67	359.05	7.90	
2025-01-07 04:25:50.50	358.92	7.92	
2025-01-07 04:25:51.32	358.79	7.93	
2025-01-07 04:25:52.14	358.65	7.95	
2025-01-07 04:25:52.96	358.52	7.96	
2025-01-07 04:25:53.78	358.39	7.98	
2025-01-07 04:25:54.60	358.25	7.99	
2025-01-07 04:25:55.43	358.12	8.00	
2025-01-07 04:25:56.25	357.98	8.02	
2025-01-07 04:25:57.07	357.85	8.03	
2025-01-07 04:25:57.89	357.72	8.05	
2025-01-07 04:25:58.71	357.58	8.06	
2025-01-07 04:25:59.53	357.45	8.07	
2025-01-07 04:26:00.35	357.31	8.09	
2025-01-07 04:26:01.17	357.18	8.10	
2025-01-07 04:26:02.01	357.04	8.11	
2025-01-07 04:26:02.84	356.91	8.13	
2025-01-07 04:26:03.66	356.77	8.14	
2025-01-07 04:26:04.49	356.63	8.15	
2025-01-07 04:26:05.31	356.50	8.16	
2025-01-07 04:26:06.13	356.36	8.18	
2025-01-07 04:26:06.95	356.23	8.19	
2025-01-07 04:26:07.76	356.09	8.20	
2025-01-07 04:26:08.59	355.96	8.21	
2025-01-07 04:26:09.41	355.82	8.22	
2025-01-07 04:26:10.23	355.68	8.24	
2025-01-07 04:26:11.04	355.55	8.25	
2025-01-07 04:26:11.87	355.41	8.26	
2025-01-07 04:26:12.69	355.28	8.27	
2025-01-07 04:26:13.51	355.14	8.28	
2025-01-07 04:26:14.33	355.00	8.29	
2025-01-07 04:26:15.14	354.87	8.30	
2025-01-07 04:26:15.98	354.73	8.31	
2025-01-07 04:26:16.80	354.59	8.32	
2025-01-07 04:26:17.62	354.46	8.33	
2025-01-07 04:26:18.44	354.32	8.34	
2025-01-07 04:26:19.26	354.18	8.35	
2025-01-07 04:26:20.08	354.05	8.36	
2025-01-07 04:26:20.90	353.91	8.37	
2025-01-07 04:26:21.72	353.77	8.38	
2025-01-07 04:26:22.54	353.63	8.39	
2025-01-07 04:26:23.36	353.50	8.40	
2025-01-07 04:26:24.18	353.36	8.41	
2025-01-07 04:26:25.00	353.22	8.42	
2025-01-07 04:26:25.84	353.08	8.43	
2025-01-07 04:26:26.66	352.94	8.44	
2025-01-07 04:26:27.48	352.80	8.44	
2025-01-07 04:26:28.30	352.67	8.45	
2025-01-07 04:26:29.14	352.52	8.46	
2025-01-07 04:26:29.96	352.39	8.47	
2025-01-07 04:26:30.78	352.25	8.48	
2025-01-07 04:26:31.60	352.11	8.48	
2025-01-07 04:26:32.41	351.97	8.49	
2025-01-07 04:26:33.23	351.84	8.50	
2025-01-07 04:26:34.05	351.70	8.51	
2025-01-07 04:26:34.87	351.56	8.51	
2025-01-07 04:26:35.71	351.42	8.52	
2025-01-07 04:26:36.53	351.28	8.53	
2025-01-07 04:26:37.36	351.14	8.53	
2025-01-07 04:26:38.17	351.00	8.54	
2025-01-07 04:26:39.00	350.86	8.55	
2025-01-07 04:26:39.81	350.72	8.55	
2025-01-07 04:26:40.64	350.58	8.56	
2025-01-07 04:26:41.46	350.44	8.56	
2025-01-07 04:26:42.28	350.30	8.57	
2025-01-07 04:26:43.09	350.17	8.58	
2025-01-07 04:26:43.91	350.03	8.58	
2025-01-07 04:26:44.73	349.89	8.59	
2025-01-07 04:26:45.57	349.75	8.59	
2025-01-07 04:26:46.39	349.61	8.60	
2025-01-07 04:26:47.21	349.47	8.60	
2025-01-07 04:26:48.03	349.33	8.60	
2025-01-07 04:26:48.85	349.19	8.61	
2025-01-07 04:26:49.67	349.05	8.61	
2025-01-07 04:26:50.50	348.91	8.62	
2025-01-07 04:26:51.33	348.77	8.62	
2025-01-07 04:26:52.15	348.63	8.62	
2025-01-07 04:26:52.97	348.49	8.63	
2025-01-07 04:26:53.79	348.35	8.63	
2025-01-07 04:26:54.61	348.21	8.63	
2025-01-07 04:26:55.43	348.07	8.64	
2025-01-07 04:26:56.26	347.93	8.64	
2025-01-07 04:26:57.08	347.79	8.64	
2025-01-07 04:26:57.91	347.64	8.65	
2025-01-07 04:26:58.73	347.50	8.65	
2025-01-07 04:26:59.56	347.36	8.65	
2025-01-07 04:27:00.38	347.22	8.65	
2025-01-07 04:27:01.20	347.08	8.65	
2025-01-07 04:27:02.03	346.94	8.66	
2025-01-07 04:27:02.85	346.80	8.66	
2025-01-07 04:27:03.67	346.66	8.66	
2025-01-07 04:27:04.49	346.52	8.66	
2025-01-07 04:27:05.32	346.38	8.66	
2025-01-07 04:27:06.14	346.24	8.66	
2025-01-07 04:27:06.96	346.10	8.66	
2025-01-07 04:27:07.78	345.96	8.66	
2025-01-07 04:27:08.60	345.82	8.66	
2025-01-07 04:27:09.42	345.68	8.66	
2025-01-07 04:27:10.24	345.54	8.66	
2025-01-07 04:27:11.06	345.40	8.66	
2025-01-07 04:27:11.88	345.26	8.66	
2025-01-07 04:27:12.71	345.12	8.66	
2025-01-07 04:27:13.53	344.98	8.66	
2025-01-07 04:27:14.35	344.84	8.66	
2025-01-07 04:27:15.17	344.70	8.66	
2025-01-07 04:27:15.99	344.56	8.66	
2025-01-07 04:27:16.82	344.42	8.66	
2025-01-07 04:27:17.64	344.28	8.66	
2025-01-07 04:27:18.46	344.14	8.66	
2025-01-07 04:27:19.29	343.99	8.65	
2025-01-07 04:27:20.11	343.85	8.65	
2025-01-07 04:27:20.93	343.71	8.65	
2025-01-07 04:27:21.75	343.57	8.65	
2025-01-07 04:27:22.57	343.43	8.65	
2025-01-07 04:27:23.40	343.29	8.64	
2025-01-07 04:27:24.22	343.15	8.64	
2025-01-07 04:27:25.04	343.01	8.64	
2025-01-07 04:27:25.86	342.87	8.64	
2025-01-07 04:27:26.68	342.73	8.63	
2025-01-07 04:27:27.50	342.59	8.63	
2025-01-07 04:27:28.32	342.45	8.63	
2025-01-07 04:27:29.14	342.31	8.62	
2025-01-07 04:27:29.96	342.18	8.62	
2025-01-07 04:27:30.78	342.04	8.61	
2025-01-07 04:27:31.60	341.90	8.61	
2025-01-07 04:27:32.42	341.76	8.61	
2025-01-07 04:27:33.25	341.62	8.60	
2025-01-07 04:27:34.07	341.48	8.60	
2025-01-07 04:27:34.89	341.34	8.59	
2025-01-07 04:27:35.71	341.20	8.59	
2025-01-07 04:27:36.53	341.06	8.58	
2025-01-07 04:27:37.36	340.92	8.58	
2025-01-07 04:27:38.17	340.78	8.57	
2025-01-07 04:27:38.99	340.64	8.57	
2025-01-07 04:27:39.81	340.50	8.56	
2025-01-07 04:27:40.63	340.36	8.55	
2025-01-07 04:27:41.45	340.22	8.55	
2025-01-07 04:27:42.29	340.08	8.54	
2025-01-07 04:27:43.12	339.94	8.54	
2025-01-07 04:27:43.94	339.80	8.53	
2025-01-07 04:27:44.76	339.66	8.52	
2025-01-07 04:27:45.58	339.52	8.52	
2025-01-07 04:27:46.40	339.39	8.51	
2025-01-07 04:27:47.24	339.24	8.50	
2025-01-07 04:27:48.06	339.11	8.49	
2025-01-07 04:27:48.88	338.97	8.49	
2025-01-07 04:27:49.71	338.83	8.48	
2025-01-07 04:27:50.53	338.69	8.47	
2025-01-07 04:27:51.35	338.55	8.46	
2025-01-07 04:27:52.17	338.41	8.45	
2025-01-07 04:27:52.99	338.27	8.45	
2025-01-07 04:27:53.81	338.14	8.44	
2025-01-07 04:27:54.63	338.00	8.43	
2025-01-07 04:27:55.45	337.86	8.42	
2025-01-07 04:27:56.28	337.72	8.41	
2025-01-07 04:27:57.10	337.58	8.40	
2025-01-07 04:27:57.92	337.45	8.39	
2025-01-07 04:27:58.74	337.31	8.38	
2025-01-07 04:27:59.56	337.17	8.37	
2025-01-07 04:28:00.40	337.03	8.36	
2025-01-07 04:28:01.22	336.89	8.36	
2025-01-07 04:28:02.04	336.76	8.35	
2025-01-07 04:28:02.86	336.62	8.34	
2025-01-07 04:28:03.68	336.48	8.32	
2025-01-07 04:28:04.52	336.34	8.31	
2025-01-07 04:28:05.34	336.21	8.30	
2025-01-07 04:28:06.16	336.07	8.29	
2025-01-07 04:28:06.98	335.93	8.28	
2025-01-07 04:28:07.81	335.80	8.27	
2025-01-07 04:28:08.63	335.66	8.26	
2025-01-07 04:28:09.45	335.52	8.25	
2025-01-07 04:28:10.28	335.39	8.24	
2025-01-07 04:28:11.10	335.25	8.23	
2025-01-07 04:28:11.94	335.11	8.21	
2025-01-07 04:28:12.75	334.98	8.20	
2025-01-07 04:28:13.58	334.84	8.19	
2025-01-07 04:28:14.40	334.70	8.18	
2025-01-07 04:28:15.22	334.57	8.17	
2025-01-07 04:28:16.05	334.43	8.15	
2025-01-07 04:28:16.87	334.30	8.14	
2025-01-07 04:28:17.70	334.16	8.13	
2025-01-07 04:28:18.52	334.03	8.11	
2025-01-07 04:28:19.34	333.89	8.10	
2025-01-07 04:28:20.16	333.76	8.09	
2025-01-07 04:28:20.98	333.62	8.07	
2025-01-07 04:28:21.80	333.49	8.06	
2025-01-07 04:28:22.63	333.35	8.05	
2025-01-07 04:28:23.46	333.22	8.03	
2025-01-07 04:28:24.28	333.08	8.02	
2025-01-07 04:28:25.10	332.95	8.01	
2025-01-07 04:28:25.93	332.81	7.99	
2025-01-07 04:28:26.75	332.68	7.98	
2025-01-07 04:28:27.57	332.55	7.96	
2025-01-07 04:28:28.39	332.41	7.95	
2025-01-07 04:28:29.21	332.28	7.93	
2025-01-07 04:28:30.03	332.15	7.92	
2025-01-07 04:28:30.85	332.01	7.90	
2025-01-07 04:28:31.67	331.88	7.89	
2025-01-07 04:28:32.49	331.75	7.87	
2025-01-07 04:28:33.31	331.61	7.86	
2025-01-07 04:28:34.14	331.48	7.84	
2025-01-07 04:28:34.97	331.35	7.83	
2025-01-07 04:28:35.79	331.22	7.81	
2025-01-07 04:28:36.61	331.08	7.79	
2025-01-07 04:28:37.43	330.95	7.78	
2025-01-07 04:28:38.25	330.82	7.76	
2025-01-07 04:28:39.07	330.69	7.75	
2025-01-07 04:28:39.89	330.56	7.73	
2025-01-07 04:28:40.71	330.43	7.71	
2025-01-07 04:28:41.53	330.29	7.70	
2025-01-07 04:28:42.35	330.16	7.68	
2025-01-07 04:28:43.17	330.03	7.66	
2025-01-07 04:28:44.01	329.90	7.64	
2025-01-07 04:28:44.83	329.77	7.63	
2025-01-07 04:28:45.65	329.64	7.61	
2025-01-07 04:28:46.47	329.51	7.59	
2025-01-07 04:28:47.29	329.38	7.57	
2025-01-07 04:28:48.11	329.25	7.56	
2025-01-07 04:28:48.93	329.12	7.54	
2025-01-07 04:28:49.75	328.99	7.52	
2025-01-07 04:28:50.57	328.86	7.50	
2025-01-07 04:28:51.39	328.73	7.48	
2025-01-07 04:28:52.21	328.60	7.47	
2025-01-07 04:28:53.03	328.47	7.45	
2025-01-07 04:28:53.85	328.35	7.43	
2025-01-07 04:28:54.68	328.22	7.41	
2025-01-07 04:28:55.50	328.09	7.39	
2025-01-07 04:28:56.32	327.96	7.37	
2025-01-07 04:28:57.14	327.83	7.35	
2025-01-07 04:28:57.96	327.70	7.33	
2025-01-07 04:28:58.79	327.57	7.31	
2025-01-07 04:28:59.61	327.45	7.30	
2025-01-07 04:29:00.44	327.32	7.28	
2025-01-07 04:29:01.26	327.19	7.26	
2025-01-07 04:29:02.08	327.06	7.24	
2025-01-07 04:29:02.89	326.94	7.22	
2025-01-07 04:29:03.72	326.81	7.20	
2025-01-07 04:29:04.55	326.68	7.18	
2025-01-07 04:29:05.36	326.56	7.16	
2025-01-07 04:29:06.18	326.43	7.14	
2025-01-07 04:29:07.00	326.31	7.11	
2025-01-07 04:29:07.83	326.18	7.09	
2025-01-07 04:29:08.65	326.05	7.07	
2025-01-07 04:29:09.47	325.93	7.05	
2025-01-07 04:29:10.29	325.80	7.03	
2025-01-07 04:29:11.11	325.68	7.01	
2025-01-07 04:29:11.94	325.55	6.99	
2025-01-07 04:29:12.76	325.43	6.97	
2025-01-07 04:29:13.58	325.30	6.95	
2025-01-07 04:29:14.41	325.18	6.92	
2025-01-07 04:29:15.23	325.05	6.90	
2025-01-07 04:29:16.05	324.93	6.88	
2025-01-07 04:29:16.87	324.81	6.86	
2025-01-07 04:29:17.69	324.68	6.84	
2025-01-07 04:29:18.51	324.56	6.82	
2025-01-07 04:29:19.33	324.44	6.79	
2025-01-07 04:29:20.15	324.31	6.77	
2025-01-07 04:29:20.98	324.19	6.75	
2025-01-07 04:29:21.80	324.07	6.73	
2025-01-07 04:29:22.62	323.94	6.70	
2025-01-07 04:29:23.44	323.82	6.68	
2025-01-07 04:29:24.26	323.70	6.66	
2025-01-07 04:29:25.08	323.58	6.63	
2025-01-07 04:29:25.91	323.46	6.61	
2025-01-07 04:29:26.74	323.33	6.59	
2025-01-07 04:29:27.56	323.21	6.57	
2025-01-07 04:29:28.38	323.09	6.54	
2025-01-07 04:29:29.21	322.97	6.52	
2025-01-07 04:29:30.03	322.85	6.49	
2025-01-07 04:29:30.85	322.73	6.47	
2025-01-07 04:29:31.67	322.61	6.45	
2025-01-07 04:29:32.49	322.49	6.42	
2025-01-07 04:29:33.31	322.37	6.40	
2025-01-07 04:29:34.13	322.25	6.38	
2025-01-07 04:29:34.95	322.13	6.35	
2025-01-07 04:29:35.77	322.01	6.33	
2025-01-07 04:29:36.59	321.89	6.30	
2025-01-07 04:29:37.41	321.77	6.28	
2025-01-07 04:29:38.23	321.65	6.25	
2025-01-07 04:29:39.05	321.54	6.23	
2025-01-07 04:29:39.87	321.42	6.21	
2025-01-07 04:29:40.70	321.30	6.18	
2025-01-07 04:29:41.51	321.18	6.16	
2025-01-07 04:29:42.35	321.06	6.13	
2025-01-07 04:29:43.17	320.94	6.11	
2025-01-07 04:29:43.99	320.83	6.08	
2025-01-07 04:29:44.81	320.71	6.06	
2025-01-07 04:29:45.63	320.59	6.03	
2025-01-07 04:29:46.45	320.48	6.01	
2025-01-07 04:29:47.27	320.36	5.98	
2025-01-07 04:29:48.10	320.24	5.95	
2025-01-07 04:29:48.92	320.13	5.93	
2025-01-07 04:29:49.74	320.01	5.90	
2025-01-07 04:29:50.57	319.90	5.88	
2025-01-07 04:29:51.39	319.78	5.85	
2025-01-07 04:29:52.21	319.67	5.83	
2025-01-07 04:29:53.03	319.55	5.80	
2025-01-07 04:29:53.85	319.44	5.77	
2025-01-07 04:29:54.68	319.32	5.75	
2025-01-07 04:29:55.50	319.21	5.72	
2025-01-07 04:29:56.32	319.09	5.69	
2025-01-07 04:29:57.14	318.98	5.67	
2025-01-07 04:29:57.96	318.86	5.64	
2025-01-07 04:29:58.78	318.75	5.62	
2025-01-07 04:29:59.60	318.64	5.59	
2025-01-07 04:30:00.42	318.53	5.56	
2025-01-07 04:30:01.24	318.41	5.54	
2025-01-07 04:30:02.06	318.30	5.51	
2025-01-07 04:30:02.88	318.19	5.48	
2025-01-07 04:30:03.70	318.08	5.45	
2025-01-07 04:30:04.52	317.96	5.43	
2025-01-07 04:30:05.34	317.85	5.40	
2025-01-07 04:30:06.16	317.74	5.37	
2025-01-07 04:30:06.98	317.63	5.35	
2025-01-07 04:30:07.80	317.52	5.32	
2025-01-07 04:30:08.62	317.41	5.29	
2025-01-07 04:30:09.44	317.30	5.26	
2025-01-07 04:30:10.26	317.19	5.24	
2025-01-07 04:30:11.08	317.08	5.21	
2025-01-07 04:30:11.90	316.97	5.18	
2025-01-07 04:30:12.72	316.86	5.15	
2025-01-07 04:30:13.54	316.75	5.13	
2025-01-07 04:30:14.36	316.64	5.10	
2025-01-07 04:30:15.18	316.53	5.07	
2025-01-07 04:30:16.00	316.42	5.04	
2025-01-07 04:30:16.82	316.31	5.01	
2025-01-07 04:30:17.64	316.20	4.99	
2025-01-07 04:30:18.46	316.09	4.96	
2025-01-07 04:30:19.30	315.98	4.93	
2025-01-07 04:30:20.12	315.88	4.90	
2025-01-07 04:30:20.94	315.77	4.87	
2025-01-07 04:30:21.76	315.66	4.84	
2025-01-07 04:30:22.59	315.55	4.81	
2025-01-07 04:30:23.40	315.45	4.79	
2025-01-07 04:30:24.23	315.34	4.76	
2025-01-07 04:30:25.04	315.23	4.73	
2025-01-07 04:30:25.87	315.13	4.70	
2025-01-07 04:30:26.70	315.02	4.67	
2025-01-07 04:30:27.52	314.91	4.64	
2025-01-07 04:30:28.34	314.81	4.61	
2025-01-07 04:30:29.16	314.70	4.58	
2025-01-07 04:30:29.99	314.59	4.55	
2025-01-07 04:30:30.81	314.49	4.52	
2025-01-07 04:30:31.63	314.38	4.50	
2025-01-07 04:30:32.45	314.28	4.47	
2025-01-07 04:30:33.27	314.18	4.44	
2025-01-07 04:30:34.10	314.07	4.41	
2025-01-07 04:30:34.92	313.97	4.38	
2025-01-07 04:30:35.75	313.86	4.35	
2025-01-07 04:30:36.57	313.76	4.32	
2025-01-07 04:30:37.40	313.65	4.29	
2025-01-07 04:30:38.23	313.55	4.26	
2025-01-07 04:30:39.05	313.45	4.23	
2025-01-07 04:30:39.87	313.34	4.20	
2025-01-07 04:30:40.69	313.24	4.17	
2025-01-07 04:30:41.51	313.14	4.14	
2025-01-07 04:30:42.34	313.04	4.11	
2025-01-07 04:30:43.16	312.93	4.08	
2025-01-07 04:30:43.98	312.83	4.05	
2025-01-07 04:30:44.80	312.73	4.02	

#Closed at: 2025-01-07 04:30:45