passes_logs/2025/01/07/SPB_Silybum_02/SPB_Silybum_02__20250107_031336_AQUA_rec.log

#Pass ID: 20250107_031336_AQUA
#Satellite: AQUA
#Configuration: AQUA
#Start time: 2025-01-07 03:13:37

#Version: 2.0.20230423
#Station: SPB_Silybum_02
#Location: 30.233357 lon 59.946436 lat
#TLE: 1 27424U 02022A   25006.18177887  .00003054  00000+0  63725-3 0  9992
#TLE: 2 27424  98.3578 322.7671 0001358 119.7965   7.4247 14.60646386206336

#Time	Az	El	Level	Level2	SNR	BER	Gain	Gain2
2025-01-07 03:13:39.42	9.62	4.16	
2025-01-07 03:13:40.44	9.53	4.22	
2025-01-07 03:13:41.46	9.43	4.28	
2025-01-07 03:13:42.50	9.34	4.34	
2025-01-07 03:13:43.53	9.24	4.41	
2025-01-07 03:13:44.55	9.15	4.47	
2025-01-07 03:13:45.58	9.05	4.53	
2025-01-07 03:13:46.60	8.96	4.59	
2025-01-07 03:13:47.63	8.86	4.65	
2025-01-07 03:13:48.67	8.76	4.72	
2025-01-07 03:13:49.71	8.66	4.78	
2025-01-07 03:13:50.73	8.56	4.84	
2025-01-07 03:13:51.76	8.46	4.90	
2025-01-07 03:13:52.79	8.36	4.97	
2025-01-07 03:13:53.82	8.26	5.03	
2025-01-07 03:13:54.84	8.16	5.09	
2025-01-07 03:13:55.87	8.06	5.16	
2025-01-07 03:13:56.89	7.96	5.22	
2025-01-07 03:13:57.92	7.86	5.28	
2025-01-07 03:13:58.95	7.75	5.34	
2025-01-07 03:13:59.97	7.65	5.41	
2025-01-07 03:14:01.02	7.55	5.47	
2025-01-07 03:14:02.04	7.44	5.53	
2025-01-07 03:14:03.07	7.34	5.60	
2025-01-07 03:14:04.10	7.23	5.66	
2025-01-07 03:14:05.13	7.13	5.72	
2025-01-07 03:14:06.17	7.02	5.79	
2025-01-07 03:14:07.19	6.91	5.85	
2025-01-07 03:14:08.22	6.81	5.92	
2025-01-07 03:14:09.24	6.70	5.98	
2025-01-07 03:14:10.27	6.59	6.04	
2025-01-07 03:14:11.29	6.48	6.11	
2025-01-07 03:14:12.32	6.37	6.17	
2025-01-07 03:14:13.34	6.26	6.24	
2025-01-07 03:14:14.37	6.15	6.30	
2025-01-07 03:14:15.40	6.04	6.36	
2025-01-07 03:14:16.43	5.93	6.43	
2025-01-07 03:14:17.46	5.82	6.49	
2025-01-07 03:14:18.49	5.70	6.56	
2025-01-07 03:14:19.52	5.59	6.62	
2025-01-07 03:14:20.54	5.48	6.69	
2025-01-07 03:14:21.58	5.36	6.75	
2025-01-07 03:14:22.61	5.25	6.82	
2025-01-07 03:14:23.65	5.13	6.88	
2025-01-07 03:14:24.69	5.01	6.95	
2025-01-07 03:14:25.72	4.90	7.02	
2025-01-07 03:14:26.75	4.78	7.08	
2025-01-07 03:14:27.77	4.66	7.15	
2025-01-07 03:14:28.80	4.54	7.21	
2025-01-07 03:14:29.82	4.42	7.28	
2025-01-07 03:14:30.84	4.31	7.34	
2025-01-07 03:14:31.87	4.19	7.41	
2025-01-07 03:14:32.91	4.06	7.47	
2025-01-07 03:14:33.93	3.94	7.54	
2025-01-07 03:14:34.96	3.82	7.60	
2025-01-07 03:14:35.99	3.70	7.67	
2025-01-07 03:14:37.01	3.57	7.74	
2025-01-07 03:14:38.03	3.45	7.80	
2025-01-07 03:14:39.06	3.33	7.87	
2025-01-07 03:14:40.08	3.20	7.93	
2025-01-07 03:14:41.11	3.08	8.00	
2025-01-07 03:14:42.13	2.95	8.07	
2025-01-07 03:14:43.16	2.82	8.13	
2025-01-07 03:14:44.19	2.69	8.20	
2025-01-07 03:14:45.21	2.57	8.26	
2025-01-07 03:14:46.24	2.44	8.33	
2025-01-07 03:14:47.26	2.31	8.40	
2025-01-07 03:14:48.29	2.18	8.46	
2025-01-07 03:14:49.32	2.05	8.53	
2025-01-07 03:14:50.36	1.91	8.60	
2025-01-07 03:14:51.38	1.78	8.67	
2025-01-07 03:14:52.41	1.65	8.73	
2025-01-07 03:14:53.44	1.51	8.80	
2025-01-07 03:14:54.47	1.38	8.87	
2025-01-07 03:14:55.49	1.25	8.93	
2025-01-07 03:14:56.52	1.11	9.00	
2025-01-07 03:14:57.54	0.97	9.07	
2025-01-07 03:14:58.57	0.84	9.13	
2025-01-07 03:14:59.59	0.70	9.20	
2025-01-07 03:15:00.63	0.56	9.27	
2025-01-07 03:15:01.66	0.42	9.34	
2025-01-07 03:15:02.68	0.28	9.40	
2025-01-07 03:15:03.70	0.14	9.47	
2025-01-07 03:15:04.74	360.00	9.54	
2025-01-07 03:15:05.77	359.85	9.61	
2025-01-07 03:15:06.81	359.71	9.68	
2025-01-07 03:15:07.83	359.57	9.74	
2025-01-07 03:15:08.86	359.42	9.81	
2025-01-07 03:15:09.89	359.28	9.88	
2025-01-07 03:15:10.91	359.13	9.95	
2025-01-07 03:15:11.94	358.98	10.01	
2025-01-07 03:15:12.97	358.84	10.08	
2025-01-07 03:15:13.99	358.69	10.15	
2025-01-07 03:15:15.02	358.54	10.22	
2025-01-07 03:15:16.04	358.39	10.29	
2025-01-07 03:15:17.09	358.24	10.35	
2025-01-07 03:15:18.13	358.09	10.42	
2025-01-07 03:15:19.15	357.93	10.49	
2025-01-07 03:15:20.18	357.78	10.56	
2025-01-07 03:15:21.20	357.63	10.63	
2025-01-07 03:15:22.23	357.47	10.70	
2025-01-07 03:15:23.25	357.32	10.76	
2025-01-07 03:15:24.28	357.16	10.83	
2025-01-07 03:15:25.32	357.00	10.90	
2025-01-07 03:15:26.35	356.85	10.97	
2025-01-07 03:15:27.37	356.69	11.04	
2025-01-07 03:15:28.41	356.53	11.10	
2025-01-07 03:15:29.45	356.37	11.17	
2025-01-07 03:15:30.48	356.20	11.24	
2025-01-07 03:15:31.50	356.04	11.31	
2025-01-07 03:15:32.53	355.88	11.38	
2025-01-07 03:15:33.55	355.72	11.45	
2025-01-07 03:15:34.58	355.55	11.51	
2025-01-07 03:15:35.61	355.39	11.58	
2025-01-07 03:15:36.63	355.22	11.65	
2025-01-07 03:15:37.66	355.06	11.72	
2025-01-07 03:15:38.70	354.89	11.79	
2025-01-07 03:15:39.72	354.72	11.85	
2025-01-07 03:15:40.75	354.55	11.92	
2025-01-07 03:15:41.77	354.38	11.99	
2025-01-07 03:15:42.80	354.21	12.06	
2025-01-07 03:15:43.82	354.04	12.13	
2025-01-07 03:15:44.84	353.87	12.19	
2025-01-07 03:15:45.87	353.69	12.26	
2025-01-07 03:15:46.89	353.52	12.33	
2025-01-07 03:15:47.92	353.34	12.40	
2025-01-07 03:15:48.94	353.17	12.46	
2025-01-07 03:15:49.97	352.99	12.53	
2025-01-07 03:15:51.00	352.81	12.60	
2025-01-07 03:15:52.02	352.64	12.67	
2025-01-07 03:15:53.04	352.46	12.73	
2025-01-07 03:15:54.07	352.28	12.80	
2025-01-07 03:15:55.10	352.09	12.87	
2025-01-07 03:15:56.12	351.91	12.94	
2025-01-07 03:15:57.15	351.73	13.00	
2025-01-07 03:15:58.19	351.54	13.07	
2025-01-07 03:15:59.21	351.36	13.14	
2025-01-07 03:16:00.25	351.17	13.21	
2025-01-07 03:16:01.29	350.98	13.27	
2025-01-07 03:16:02.32	350.79	13.34	
2025-01-07 03:16:03.34	350.60	13.41	
2025-01-07 03:16:04.36	350.42	13.47	
2025-01-07 03:16:05.39	350.22	13.54	
2025-01-07 03:16:06.42	350.03	13.61	
2025-01-07 03:16:07.44	349.84	13.67	
2025-01-07 03:16:08.47	349.65	13.74	
2025-01-07 03:16:09.50	349.45	13.81	
2025-01-07 03:16:10.52	349.26	13.87	
2025-01-07 03:16:11.55	349.06	13.94	
2025-01-07 03:16:12.57	348.86	14.00	
2025-01-07 03:16:13.60	348.66	14.07	
2025-01-07 03:16:14.63	348.46	14.14	
2025-01-07 03:16:15.65	348.27	14.20	
2025-01-07 03:16:16.68	348.06	14.27	
2025-01-07 03:16:17.71	347.86	14.33	
2025-01-07 03:16:18.73	347.66	14.40	
2025-01-07 03:16:19.77	347.45	14.46	
2025-01-07 03:16:20.80	347.25	14.53	
2025-01-07 03:16:21.82	347.04	14.59	
2025-01-07 03:16:22.86	346.83	14.66	
2025-01-07 03:16:23.88	346.63	14.72	
2025-01-07 03:16:24.91	346.42	14.78	
2025-01-07 03:16:25.93	346.21	14.85	
2025-01-07 03:16:26.96	346.00	14.91	
2025-01-07 03:16:27.99	345.78	14.97	
2025-01-07 03:16:29.01	345.57	15.04	
2025-01-07 03:16:30.05	345.36	15.10	
2025-01-07 03:16:31.07	345.14	15.16	
2025-01-07 03:16:32.10	344.93	15.23	
2025-01-07 03:16:33.12	344.71	15.29	
2025-01-07 03:16:34.15	344.49	15.35	
2025-01-07 03:16:35.18	344.27	15.41	
2025-01-07 03:16:36.20	344.05	15.47	
2025-01-07 03:16:37.23	343.83	15.54	
2025-01-07 03:16:38.25	343.61	15.60	
2025-01-07 03:16:39.29	343.39	15.66	
2025-01-07 03:16:40.31	343.17	15.72	
2025-01-07 03:16:41.34	342.94	15.78	
2025-01-07 03:16:42.37	342.71	15.84	
2025-01-07 03:16:43.40	342.49	15.90	
2025-01-07 03:16:44.42	342.26	15.96	
2025-01-07 03:16:45.44	342.03	16.02	
2025-01-07 03:16:46.47	341.80	16.08	
2025-01-07 03:16:47.49	341.57	16.14	
2025-01-07 03:16:48.52	341.34	16.20	
2025-01-07 03:16:49.54	341.11	16.25	
2025-01-07 03:16:50.57	340.88	16.31	
2025-01-07 03:16:51.61	340.64	16.37	
2025-01-07 03:16:52.64	340.40	16.43	
2025-01-07 03:16:53.66	340.17	16.48	
2025-01-07 03:16:54.69	339.93	16.54	
2025-01-07 03:16:55.72	339.69	16.60	
2025-01-07 03:16:56.74	339.45	16.65	
2025-01-07 03:16:57.76	339.21	16.71	
2025-01-07 03:16:58.79	338.97	16.76	
2025-01-07 03:16:59.82	338.73	16.82	
2025-01-07 03:17:00.84	338.49	16.87	
2025-01-07 03:17:01.87	338.24	16.93	
2025-01-07 03:17:02.89	338.00	16.98	
2025-01-07 03:17:03.92	337.75	17.03	
2025-01-07 03:17:04.94	337.51	17.09	
2025-01-07 03:17:05.97	337.26	17.14	
2025-01-07 03:17:06.99	337.01	17.19	
2025-01-07 03:17:08.02	336.76	17.24	
2025-01-07 03:17:09.06	336.51	17.30	
2025-01-07 03:17:10.09	336.26	17.35	
2025-01-07 03:17:11.11	336.01	17.40	
2025-01-07 03:17:12.14	335.75	17.45	
2025-01-07 03:17:13.16	335.50	17.50	
2025-01-07 03:17:14.19	335.24	17.55	
2025-01-07 03:17:15.23	334.98	17.60	
2025-01-07 03:17:16.26	334.73	17.64	
2025-01-07 03:17:17.28	334.47	17.69	
2025-01-07 03:17:18.31	334.21	17.74	
2025-01-07 03:17:19.34	333.95	17.79	
2025-01-07 03:17:20.37	333.69	17.83	
2025-01-07 03:17:21.39	333.43	17.88	
2025-01-07 03:17:22.42	333.17	17.92	
2025-01-07 03:17:23.45	332.90	17.97	
2025-01-07 03:17:24.47	332.64	18.01	
2025-01-07 03:17:25.50	332.38	18.06	
2025-01-07 03:17:26.53	332.11	18.10	
2025-01-07 03:17:27.55	331.85	18.14	
2025-01-07 03:17:28.58	331.58	18.19	
2025-01-07 03:17:29.60	331.31	18.23	
2025-01-07 03:17:30.63	331.04	18.27	
2025-01-07 03:17:31.66	330.77	18.31	
2025-01-07 03:17:32.68	330.50	18.35	
2025-01-07 03:17:33.71	330.23	18.39	
2025-01-07 03:17:34.73	329.96	18.43	
2025-01-07 03:17:35.76	329.69	18.47	
2025-01-07 03:17:36.79	329.41	18.51	
2025-01-07 03:17:37.81	329.14	18.54	
2025-01-07 03:17:38.83	328.87	18.58	
2025-01-07 03:17:39.85	328.60	18.62	
2025-01-07 03:17:40.88	328.32	18.65	
2025-01-07 03:17:41.91	328.04	18.69	
2025-01-07 03:17:42.94	327.76	18.72	
2025-01-07 03:17:43.96	327.49	18.75	
2025-01-07 03:17:44.99	327.21	18.79	
2025-01-07 03:17:46.01	326.93	18.82	
2025-01-07 03:17:47.04	326.65	18.85	
2025-01-07 03:17:48.07	326.37	18.88	
2025-01-07 03:17:49.10	326.09	18.91	
2025-01-07 03:17:50.12	325.81	18.94	
2025-01-07 03:17:51.15	325.52	18.97	
2025-01-07 03:17:52.18	325.24	19.00	
2025-01-07 03:17:53.20	324.96	19.03	
2025-01-07 03:17:54.24	324.67	19.06	
2025-01-07 03:17:55.27	324.38	19.08	
2025-01-07 03:17:56.29	324.10	19.11	
2025-01-07 03:17:57.31	323.82	19.13	
2025-01-07 03:17:58.34	323.53	19.16	
2025-01-07 03:17:59.36	323.25	19.18	
2025-01-07 03:18:00.39	322.96	19.21	
2025-01-07 03:18:01.41	322.67	19.23	
2025-01-07 03:18:02.44	322.38	19.25	
2025-01-07 03:18:03.46	322.10	19.27	
2025-01-07 03:18:04.49	321.81	19.29	
2025-01-07 03:18:05.51	321.52	19.31	
2025-01-07 03:18:06.54	321.23	19.33	
2025-01-07 03:18:07.56	320.94	19.35	
2025-01-07 03:18:08.59	320.65	19.37	
2025-01-07 03:18:09.61	320.36	19.38	
2025-01-07 03:18:10.64	320.07	19.40	
2025-01-07 03:18:11.67	319.78	19.42	
2025-01-07 03:18:12.69	319.49	19.43	
2025-01-07 03:18:13.71	319.20	19.44	
2025-01-07 03:18:14.73	318.90	19.46	
2025-01-07 03:18:15.76	318.61	19.47	
2025-01-07 03:18:16.78	318.32	19.48	
2025-01-07 03:18:17.81	318.03	19.49	
2025-01-07 03:18:18.84	317.73	19.50	
2025-01-07 03:18:19.87	317.44	19.51	
2025-01-07 03:18:20.89	317.15	19.52	
2025-01-07 03:18:21.92	316.85	19.53	
2025-01-07 03:18:22.94	316.56	19.54	
2025-01-07 03:18:23.97	316.26	19.54	
2025-01-07 03:18:25.01	315.97	19.55	
2025-01-07 03:18:26.04	315.67	19.55	
2025-01-07 03:18:27.06	315.38	19.56	
2025-01-07 03:18:28.09	315.08	19.56	
2025-01-07 03:18:29.11	314.79	19.56	
2025-01-07 03:18:30.15	314.49	19.57	
2025-01-07 03:18:31.19	314.19	19.57	
2025-01-07 03:18:32.22	313.90	19.57	
2025-01-07 03:18:33.24	313.60	19.57	
2025-01-07 03:18:34.28	313.30	19.57	
2025-01-07 03:18:35.30	313.01	19.56	
2025-01-07 03:18:36.34	312.71	19.56	
2025-01-07 03:18:37.36	312.42	19.56	
2025-01-07 03:18:38.39	312.12	19.55	
2025-01-07 03:18:39.42	311.83	19.55	
2025-01-07 03:18:40.44	311.54	19.54	
2025-01-07 03:18:41.48	311.24	19.54	
2025-01-07 03:18:42.50	310.95	19.53	
2025-01-07 03:18:43.53	310.65	19.52	
2025-01-07 03:18:44.56	310.36	19.51	
2025-01-07 03:18:45.58	310.06	19.50	
2025-01-07 03:18:46.61	309.77	19.49	
2025-01-07 03:18:47.63	309.48	19.48	
2025-01-07 03:18:48.67	309.18	19.47	
2025-01-07 03:18:49.69	308.89	19.46	
2025-01-07 03:18:50.72	308.60	19.44	
2025-01-07 03:18:51.74	308.31	19.43	
2025-01-07 03:18:52.77	308.01	19.42	
2025-01-07 03:18:53.80	307.72	19.40	
2025-01-07 03:18:54.82	307.43	19.38	
2025-01-07 03:18:55.85	307.14	19.37	
2025-01-07 03:18:56.87	306.85	19.35	
2025-01-07 03:18:57.91	306.56	19.33	
2025-01-07 03:18:58.94	306.27	19.31	
2025-01-07 03:18:59.96	305.98	19.29	
2025-01-07 03:19:01.00	305.68	19.27	
2025-01-07 03:19:02.03	305.39	19.25	
2025-01-07 03:19:03.05	305.11	19.23	
2025-01-07 03:19:04.08	304.82	19.21	
2025-01-07 03:19:05.10	304.53	19.18	
2025-01-07 03:19:06.13	304.25	19.16	
2025-01-07 03:19:07.16	303.96	19.14	
2025-01-07 03:19:08.19	303.67	19.11	
2025-01-07 03:19:09.22	303.38	19.08	
2025-01-07 03:19:10.24	303.10	19.06	
2025-01-07 03:19:11.26	302.82	19.03	
2025-01-07 03:19:12.29	302.53	19.00	
2025-01-07 03:19:13.33	302.25	18.97	
2025-01-07 03:19:14.37	301.96	18.94	
2025-01-07 03:19:15.39	301.68	18.91	
2025-01-07 03:19:16.42	301.40	18.88	
2025-01-07 03:19:17.44	301.12	18.85	
2025-01-07 03:19:18.48	300.83	18.82	
2025-01-07 03:19:19.50	300.55	18.79	
2025-01-07 03:19:20.53	300.27	18.75	
2025-01-07 03:19:21.56	300.00	18.72	
2025-01-07 03:19:22.59	299.72	18.69	
2025-01-07 03:19:23.61	299.44	18.65	
2025-01-07 03:19:24.64	299.16	18.62	
2025-01-07 03:19:25.67	298.89	18.58	
2025-01-07 03:19:26.69	298.61	18.54	
2025-01-07 03:19:27.73	298.34	18.50	
2025-01-07 03:19:28.76	298.06	18.47	
2025-01-07 03:19:29.78	297.79	18.43	
2025-01-07 03:19:30.81	297.52	18.39	
2025-01-07 03:19:31.83	297.25	18.35	
2025-01-07 03:19:32.86	296.97	18.31	
2025-01-07 03:19:33.89	296.70	18.27	
2025-01-07 03:19:34.91	296.44	18.23	
2025-01-07 03:19:35.94	296.17	18.18	
2025-01-07 03:19:36.96	295.90	18.14	
2025-01-07 03:19:37.99	295.63	18.10	
2025-01-07 03:19:39.02	295.37	18.06	
2025-01-07 03:19:40.05	295.10	18.01	
2025-01-07 03:19:41.07	294.84	17.97	
2025-01-07 03:19:42.12	294.57	17.92	
2025-01-07 03:19:43.14	294.31	17.88	
2025-01-07 03:19:44.17	294.04	17.83	
2025-01-07 03:19:45.19	293.78	17.78	
2025-01-07 03:19:46.22	293.52	17.74	
2025-01-07 03:19:47.24	293.27	17.69	
2025-01-07 03:19:48.26	293.01	17.64	
2025-01-07 03:19:49.29	292.75	17.59	
2025-01-07 03:19:50.32	292.49	17.54	
2025-01-07 03:19:51.34	292.24	17.49	
2025-01-07 03:19:52.37	291.98	17.44	
2025-01-07 03:19:53.40	291.73	17.39	
2025-01-07 03:19:54.44	291.47	17.34	
2025-01-07 03:19:55.47	291.22	17.29	
2025-01-07 03:19:56.49	290.97	17.24	
2025-01-07 03:19:57.51	290.72	17.19	
2025-01-07 03:19:58.55	290.47	17.13	
2025-01-07 03:19:59.58	290.22	17.08	
2025-01-07 03:20:00.62	289.97	17.03	
2025-01-07 03:20:01.64	289.72	16.97	
2025-01-07 03:20:02.66	289.48	16.92	
2025-01-07 03:20:03.69	289.23	16.87	
2025-01-07 03:20:04.71	288.99	16.81	
2025-01-07 03:20:05.74	288.75	16.76	
2025-01-07 03:20:06.78	288.50	16.70	
2025-01-07 03:20:07.81	288.26	16.64	
2025-01-07 03:20:08.83	288.02	16.59	
2025-01-07 03:20:09.86	287.78	16.53	
2025-01-07 03:20:10.88	287.54	16.47	
2025-01-07 03:20:11.91	287.30	16.42	
2025-01-07 03:20:12.94	287.07	16.36	
2025-01-07 03:20:13.96	286.83	16.30	
2025-01-07 03:20:14.99	286.60	16.24	
2025-01-07 03:20:16.03	286.36	16.18	
2025-01-07 03:20:17.06	286.13	16.13	
2025-01-07 03:20:18.08	285.90	16.07	
2025-01-07 03:20:19.11	285.67	16.01	
2025-01-07 03:20:20.13	285.44	15.95	
2025-01-07 03:20:21.16	285.21	15.89	
2025-01-07 03:20:22.20	284.98	15.83	
2025-01-07 03:20:23.24	284.75	15.77	
2025-01-07 03:20:24.26	284.53	15.70	
2025-01-07 03:20:25.28	284.30	15.64	
2025-01-07 03:20:26.31	284.08	15.58	
2025-01-07 03:20:27.33	283.86	15.52	
2025-01-07 03:20:28.36	283.64	15.46	
2025-01-07 03:20:29.38	283.42	15.40	
2025-01-07 03:20:30.41	283.20	15.34	
2025-01-07 03:20:31.43	282.98	15.27	
2025-01-07 03:20:32.45	282.76	15.21	
2025-01-07 03:20:33.48	282.55	15.15	
2025-01-07 03:20:34.50	282.33	15.09	
2025-01-07 03:20:35.53	282.12	15.02	
2025-01-07 03:20:36.56	281.90	14.96	
2025-01-07 03:20:37.59	281.69	14.89	
2025-01-07 03:20:38.62	281.48	14.83	
2025-01-07 03:20:39.64	281.27	14.77	
2025-01-07 03:20:40.67	281.06	14.70	
2025-01-07 03:20:41.69	280.85	14.64	
2025-01-07 03:20:42.72	280.64	14.57	
2025-01-07 03:20:43.75	280.43	14.51	
2025-01-07 03:20:44.77	280.23	14.44	
2025-01-07 03:20:45.80	280.02	14.38	
2025-01-07 03:20:46.83	279.82	14.31	
2025-01-07 03:20:47.85	279.61	14.25	
2025-01-07 03:20:48.88	279.41	14.18	
2025-01-07 03:20:49.90	279.21	14.12	
2025-01-07 03:20:50.93	279.01	14.05	
2025-01-07 03:20:51.95	278.81	13.99	
2025-01-07 03:20:52.98	278.61	13.92	
2025-01-07 03:20:54.00	278.42	13.85	
2025-01-07 03:20:55.02	278.22	13.79	
2025-01-07 03:20:56.05	278.03	13.72	
2025-01-07 03:20:57.07	277.83	13.65	
2025-01-07 03:20:58.11	277.64	13.59	
2025-01-07 03:20:59.14	277.44	13.52	
2025-01-07 03:21:00.18	277.25	13.45	
2025-01-07 03:21:01.21	277.06	13.39	
2025-01-07 03:21:02.23	276.87	13.32	
2025-01-07 03:21:03.26	276.68	13.25	
2025-01-07 03:21:04.28	276.49	13.18	
2025-01-07 03:21:05.31	276.30	13.12	
2025-01-07 03:21:06.34	276.12	13.05	
2025-01-07 03:21:07.36	275.93	12.98	
2025-01-07 03:21:08.39	275.75	12.91	
2025-01-07 03:21:09.41	275.57	12.85	
2025-01-07 03:21:10.44	275.38	12.78	
2025-01-07 03:21:11.47	275.20	12.71	
2025-01-07 03:21:12.49	275.02	12.64	
2025-01-07 03:21:13.52	274.84	12.58	
2025-01-07 03:21:14.54	274.66	12.51	
2025-01-07 03:21:15.57	274.49	12.44	
2025-01-07 03:21:16.60	274.31	12.37	
2025-01-07 03:21:17.62	274.13	12.30	
2025-01-07 03:21:18.64	273.96	12.24	
2025-01-07 03:21:19.68	273.78	12.17	
2025-01-07 03:21:20.71	273.61	12.10	
2025-01-07 03:21:21.74	273.43	12.03	
2025-01-07 03:21:22.76	273.26	11.96	
2025-01-07 03:21:23.79	273.09	11.89	
2025-01-07 03:21:24.81	272.92	11.83	
2025-01-07 03:21:25.84	272.75	11.76	
2025-01-07 03:21:26.87	272.58	11.69	
2025-01-07 03:21:27.89	272.42	11.62	
2025-01-07 03:21:28.92	272.25	11.55	
2025-01-07 03:21:29.95	272.08	11.49	
2025-01-07 03:21:30.97	271.92	11.42	
2025-01-07 03:21:32.00	271.75	11.35	
2025-01-07 03:21:33.02	271.59	11.28	
2025-01-07 03:21:34.05	271.43	11.21	
2025-01-07 03:21:35.07	271.27	11.14	
2025-01-07 03:21:36.10	271.11	11.08	
2025-01-07 03:21:37.13	270.95	11.01	
2025-01-07 03:21:38.15	270.79	10.94	
2025-01-07 03:21:39.18	270.63	10.87	
2025-01-07 03:21:40.21	270.47	10.80	
2025-01-07 03:21:41.23	270.31	10.73	
2025-01-07 03:21:42.26	270.16	10.67	
2025-01-07 03:21:43.28	270.00	10.60	
2025-01-07 03:21:44.31	269.85	10.53	
2025-01-07 03:21:45.35	269.69	10.46	
2025-01-07 03:21:46.39	269.54	10.39	
2025-01-07 03:21:47.43	269.38	10.32	
2025-01-07 03:21:48.45	269.23	10.25	
2025-01-07 03:21:49.48	269.08	10.19	
2025-01-07 03:21:50.50	268.93	10.12	
2025-01-07 03:21:51.52	268.78	10.05	
2025-01-07 03:21:52.55	268.64	9.98	
2025-01-07 03:21:53.57	268.49	9.91	
2025-01-07 03:21:54.60	268.34	9.85	
2025-01-07 03:21:55.62	268.20	9.78	
2025-01-07 03:21:56.65	268.05	9.71	
2025-01-07 03:21:57.68	267.91	9.64	
2025-01-07 03:21:58.70	267.76	9.57	
2025-01-07 03:21:59.73	267.62	9.51	
2025-01-07 03:22:00.76	267.48	9.44	
2025-01-07 03:22:01.78	267.34	9.37	
2025-01-07 03:22:02.81	267.19	9.30	
2025-01-07 03:22:03.83	267.05	9.24	
2025-01-07 03:22:04.86	266.91	9.17	
2025-01-07 03:22:05.88	266.78	9.10	
2025-01-07 03:22:06.90	266.64	9.03	
2025-01-07 03:22:07.93	266.50	8.97	
2025-01-07 03:22:08.96	266.36	8.90	
2025-01-07 03:22:09.98	266.23	8.83	
2025-01-07 03:22:11.01	266.09	8.76	
2025-01-07 03:22:12.04	265.96	8.70	
2025-01-07 03:22:13.06	265.82	8.63	
2025-01-07 03:22:14.08	265.69	8.56	
2025-01-07 03:22:15.11	265.56	8.50	
2025-01-07 03:22:16.13	265.43	8.43	
2025-01-07 03:22:17.17	265.29	8.36	
2025-01-07 03:22:18.21	265.16	8.29	
2025-01-07 03:22:19.25	265.03	8.23	
2025-01-07 03:22:20.27	264.90	8.16	
2025-01-07 03:22:21.30	264.77	8.09	
2025-01-07 03:22:22.32	264.65	8.03	
2025-01-07 03:22:23.35	264.52	7.96	
2025-01-07 03:22:24.37	264.39	7.90	
2025-01-07 03:22:25.40	264.27	7.83	
2025-01-07 03:22:26.42	264.14	7.76	
2025-01-07 03:22:27.45	264.02	7.70	
2025-01-07 03:22:28.47	263.89	7.63	
2025-01-07 03:22:29.49	263.77	7.56	
2025-01-07 03:22:30.52	263.65	7.50	
2025-01-07 03:22:31.55	263.52	7.43	
2025-01-07 03:22:32.57	263.40	7.37	
2025-01-07 03:22:33.59	263.28	7.30	
2025-01-07 03:22:34.62	263.16	7.24	
2025-01-07 03:22:35.66	263.04	7.17	
2025-01-07 03:22:36.68	262.92	7.10	
2025-01-07 03:22:37.71	262.80	7.04	
2025-01-07 03:22:38.74	262.68	6.97	
2025-01-07 03:22:39.76	262.57	6.91	
2025-01-07 03:22:40.79	262.45	6.84	
2025-01-07 03:22:41.83	262.33	6.78	
2025-01-07 03:22:42.85	262.22	6.71	
2025-01-07 03:22:43.88	262.10	6.65	
2025-01-07 03:22:44.90	261.99	6.58	
2025-01-07 03:22:45.92	261.87	6.52	
2025-01-07 03:22:46.95	261.76	6.45	
2025-01-07 03:22:47.97	261.65	6.39	
2025-01-07 03:22:49.00	261.53	6.32	
2025-01-07 03:22:50.02	261.42	6.26	
2025-01-07 03:22:51.05	261.31	6.19	
2025-01-07 03:22:52.08	261.20	6.13	
2025-01-07 03:22:53.11	261.09	6.07	
2025-01-07 03:22:54.13	260.98	6.00	
2025-01-07 03:22:55.16	260.87	5.94	
2025-01-07 03:22:56.18	260.76	5.87	
2025-01-07 03:22:57.22	260.65	5.81	
2025-01-07 03:22:58.26	260.54	5.74	
2025-01-07 03:22:59.30	260.43	5.68	
2025-01-07 03:23:00.32	260.33	5.62	
2025-01-07 03:23:01.35	260.22	5.55	
2025-01-07 03:23:02.38	260.12	5.49	
2025-01-07 03:23:03.40	260.01	5.43	
2025-01-07 03:23:04.43	259.91	5.36	
2025-01-07 03:23:05.45	259.80	5.30	
2025-01-07 03:23:06.48	259.70	5.24	
2025-01-07 03:23:07.50	259.60	5.17	
2025-01-07 03:23:08.53	259.49	5.11	
2025-01-07 03:23:09.56	259.39	5.05	
2025-01-07 03:23:10.58	259.29	4.98	
2025-01-07 03:23:11.61	259.19	4.92	
2025-01-07 03:23:12.63	259.09	4.86	
2025-01-07 03:23:13.66	258.99	4.80	
2025-01-07 03:23:14.69	258.89	4.73	
2025-01-07 03:23:15.71	258.79	4.67	
2025-01-07 03:23:16.75	258.69	4.61	
2025-01-07 03:23:17.78	258.59	4.55	
2025-01-07 03:23:18.81	258.49	4.48	
2025-01-07 03:23:19.83	258.40	4.42	
2025-01-07 03:23:20.86	258.30	4.36	
2025-01-07 03:23:21.88	258.21	4.30	
2025-01-07 03:23:22.91	258.11	4.24	
2025-01-07 03:23:23.94	258.01	4.17	
2025-01-07 03:23:24.97	257.92	4.11	
2025-01-07 03:23:26.03	257.82	4.05	

#Closed at: 2025-01-07 03:23:26