passes_logs/2025/01/07/SPB_Silybum_02/SPB_Silybum_02__20250107_153858_TERRA_rec.log

#Pass ID: 20250107_153858_TERRA
#Satellite: TERRA
#Configuration: TERRA
#Start time: 2025-01-07 15:38:57

#Version: 2.0.20230423
#Station: SPB_Silybum_02
#Location: 30.233357 lon 59.946436 lat
#TLE: 1 25994U 99068A   25006.77118991  .00001382  00000+0  29492-3 0  9999
#TLE: 2 25994  98.0231  70.0628 0003576  88.8854  23.4584 14.60378914332871

#Time	Az	El	Level	Level2	SNR	BER	Gain	Gain2
2025-01-07 15:38:59.57	70.78	4.05	
2025-01-07 15:39:00.40	70.67	4.09	
2025-01-07 15:39:01.23	70.56	4.12	
2025-01-07 15:39:02.06	70.45	4.16	
2025-01-07 15:39:02.88	70.34	4.20	
2025-01-07 15:39:03.70	70.24	4.23	
2025-01-07 15:39:04.52	70.13	4.27	
2025-01-07 15:39:05.34	70.02	4.30	
2025-01-07 15:39:06.16	69.91	4.34	
2025-01-07 15:39:06.97	69.80	4.37	
2025-01-07 15:39:07.80	69.69	4.41	
2025-01-07 15:39:08.61	69.58	4.45	
2025-01-07 15:39:09.43	69.47	4.48	
2025-01-07 15:39:10.25	69.36	4.52	
2025-01-07 15:39:11.07	69.25	4.55	
2025-01-07 15:39:11.89	69.14	4.59	
2025-01-07 15:39:12.71	69.03	4.62	
2025-01-07 15:39:13.53	68.92	4.66	
2025-01-07 15:39:14.35	68.81	4.70	
2025-01-07 15:39:15.17	68.70	4.73	
2025-01-07 15:39:15.99	68.58	4.77	
2025-01-07 15:39:16.82	68.47	4.80	
2025-01-07 15:39:17.64	68.36	4.84	
2025-01-07 15:39:18.46	68.24	4.87	
2025-01-07 15:39:19.29	68.13	4.91	
2025-01-07 15:39:20.11	68.02	4.94	
2025-01-07 15:39:20.93	67.90	4.98	
2025-01-07 15:39:21.75	67.79	5.01	
2025-01-07 15:39:22.57	67.67	5.05	
2025-01-07 15:39:23.39	67.56	5.08	
2025-01-07 15:39:24.21	67.44	5.12	
2025-01-07 15:39:25.03	67.33	5.15	
2025-01-07 15:39:25.84	67.21	5.19	
2025-01-07 15:39:26.67	67.09	5.22	
2025-01-07 15:39:27.48	66.98	5.26	
2025-01-07 15:39:28.31	66.86	5.29	
2025-01-07 15:39:29.13	66.74	5.33	
2025-01-07 15:39:29.96	66.62	5.36	
2025-01-07 15:39:30.78	66.51	5.40	
2025-01-07 15:39:31.60	66.39	5.43	
2025-01-07 15:39:32.42	66.27	5.47	
2025-01-07 15:39:33.26	66.15	5.50	
2025-01-07 15:39:34.08	66.03	5.54	
2025-01-07 15:39:34.90	65.91	5.57	
2025-01-07 15:39:35.72	65.79	5.60	
2025-01-07 15:39:36.54	65.67	5.64	
2025-01-07 15:39:37.37	65.55	5.67	
2025-01-07 15:39:38.19	65.43	5.71	
2025-01-07 15:39:39.01	65.31	5.74	
2025-01-07 15:39:39.83	65.18	5.78	
2025-01-07 15:39:40.65	65.06	5.81	
2025-01-07 15:39:41.47	64.94	5.84	
2025-01-07 15:39:42.29	64.82	5.88	
2025-01-07 15:39:43.12	64.69	5.91	
2025-01-07 15:39:43.94	64.57	5.94	
2025-01-07 15:39:44.76	64.45	5.98	
2025-01-07 15:39:45.58	64.32	6.01	
2025-01-07 15:39:46.40	64.20	6.04	
2025-01-07 15:39:47.22	64.08	6.08	
2025-01-07 15:39:48.04	63.95	6.11	
2025-01-07 15:39:48.86	63.83	6.14	
2025-01-07 15:39:49.68	63.70	6.18	
2025-01-07 15:39:50.50	63.58	6.21	
2025-01-07 15:39:51.33	63.45	6.24	
2025-01-07 15:39:52.16	63.32	6.28	
2025-01-07 15:39:52.98	63.20	6.31	
2025-01-07 15:39:53.80	63.07	6.34	
2025-01-07 15:39:54.62	62.94	6.37	
2025-01-07 15:39:55.44	62.82	6.41	
2025-01-07 15:39:56.26	62.69	6.44	
2025-01-07 15:39:57.08	62.56	6.47	
2025-01-07 15:39:57.91	62.43	6.50	
2025-01-07 15:39:58.72	62.30	6.54	
2025-01-07 15:39:59.56	62.17	6.57	
2025-01-07 15:40:00.37	62.04	6.60	
2025-01-07 15:40:01.21	61.91	6.63	
2025-01-07 15:40:02.04	61.78	6.67	
2025-01-07 15:40:02.86	61.65	6.70	
2025-01-07 15:40:03.69	61.52	6.73	
2025-01-07 15:40:04.51	61.39	6.76	
2025-01-07 15:40:05.33	61.26	6.79	
2025-01-07 15:40:06.15	61.12	6.82	
2025-01-07 15:40:06.97	60.99	6.86	
2025-01-07 15:40:07.79	60.86	6.89	
2025-01-07 15:40:08.61	60.73	6.92	
2025-01-07 15:40:09.43	60.60	6.95	
2025-01-07 15:40:10.25	60.46	6.98	
2025-01-07 15:40:11.07	60.33	7.01	
2025-01-07 15:40:11.89	60.20	7.04	
2025-01-07 15:40:12.71	60.06	7.07	
2025-01-07 15:40:13.53	59.93	7.10	
2025-01-07 15:40:14.35	59.79	7.13	
2025-01-07 15:40:15.17	59.66	7.16	
2025-01-07 15:40:15.99	59.52	7.20	
2025-01-07 15:40:16.82	59.39	7.23	
2025-01-07 15:40:17.64	59.25	7.26	
2025-01-07 15:40:18.46	59.12	7.29	
2025-01-07 15:40:19.28	58.98	7.32	
2025-01-07 15:40:20.10	58.84	7.35	
2025-01-07 15:40:20.91	58.71	7.37	
2025-01-07 15:40:21.74	58.57	7.40	
2025-01-07 15:40:22.57	58.43	7.43	
2025-01-07 15:40:23.39	58.29	7.46	
2025-01-07 15:40:24.21	58.15	7.49	
2025-01-07 15:40:25.04	58.01	7.52	
2025-01-07 15:40:25.86	57.88	7.55	
2025-01-07 15:40:26.68	57.74	7.58	
2025-01-07 15:40:27.50	57.60	7.61	
2025-01-07 15:40:28.33	57.46	7.64	
2025-01-07 15:40:29.15	57.32	7.67	
2025-01-07 15:40:29.99	57.17	7.70	
2025-01-07 15:40:30.81	57.03	7.72	
2025-01-07 15:40:31.63	56.89	7.75	
2025-01-07 15:40:32.46	56.75	7.78	
2025-01-07 15:40:33.28	56.61	7.81	
2025-01-07 15:40:34.12	56.46	7.84	
2025-01-07 15:40:34.94	56.32	7.87	
2025-01-07 15:40:35.77	56.17	7.89	
2025-01-07 15:40:36.59	56.03	7.92	
2025-01-07 15:40:37.41	55.89	7.95	
2025-01-07 15:40:38.23	55.75	7.98	
2025-01-07 15:40:39.05	55.60	8.00	
2025-01-07 15:40:39.87	55.46	8.03	
2025-01-07 15:40:40.69	55.31	8.06	
2025-01-07 15:40:41.52	55.17	8.08	
2025-01-07 15:40:42.34	55.02	8.11	
2025-01-07 15:40:43.16	54.88	8.14	
2025-01-07 15:40:43.98	54.73	8.16	
2025-01-07 15:40:44.80	54.59	8.19	
2025-01-07 15:40:45.62	54.44	8.22	
2025-01-07 15:40:46.45	54.29	8.24	
2025-01-07 15:40:47.27	54.15	8.27	
2025-01-07 15:40:48.09	54.00	8.29	
2025-01-07 15:40:48.91	53.85	8.32	
2025-01-07 15:40:49.73	53.71	8.34	
2025-01-07 15:40:50.55	53.56	8.37	
2025-01-07 15:40:51.37	53.41	8.39	
2025-01-07 15:40:52.20	53.26	8.42	
2025-01-07 15:40:53.02	53.11	8.44	
2025-01-07 15:40:53.85	52.96	8.47	
2025-01-07 15:40:54.67	52.81	8.49	
2025-01-07 15:40:55.49	52.66	8.52	
2025-01-07 15:40:56.31	52.51	8.54	
2025-01-07 15:40:57.15	52.36	8.57	
2025-01-07 15:40:57.97	52.21	8.59	
2025-01-07 15:40:58.79	52.06	8.62	
2025-01-07 15:40:59.61	51.91	8.64	
2025-01-07 15:41:00.43	51.76	8.66	
2025-01-07 15:41:01.25	51.61	8.69	
2025-01-07 15:41:02.07	51.46	8.71	
2025-01-07 15:41:02.89	51.31	8.73	
2025-01-07 15:41:03.72	51.15	8.76	
2025-01-07 15:41:04.53	51.00	8.78	
2025-01-07 15:41:05.36	50.85	8.80	
2025-01-07 15:41:06.18	50.69	8.82	
2025-01-07 15:41:07.00	50.54	8.85	
2025-01-07 15:41:07.82	50.39	8.87	
2025-01-07 15:41:08.64	50.23	8.89	
2025-01-07 15:41:09.46	50.08	8.91	
2025-01-07 15:41:10.29	49.93	8.93	
2025-01-07 15:41:11.11	49.77	8.95	
2025-01-07 15:41:11.93	49.62	8.98	
2025-01-07 15:41:12.75	49.46	9.00	
2025-01-07 15:41:13.57	49.31	9.02	
2025-01-07 15:41:14.39	49.15	9.04	
2025-01-07 15:41:15.22	48.99	9.06	
2025-01-07 15:41:16.04	48.84	9.08	
2025-01-07 15:41:16.86	48.68	9.10	
2025-01-07 15:41:17.68	48.53	9.12	
2025-01-07 15:41:18.51	48.37	9.14	
2025-01-07 15:41:19.34	48.21	9.16	
2025-01-07 15:41:20.16	48.05	9.18	
2025-01-07 15:41:20.98	47.90	9.20	
2025-01-07 15:41:21.80	47.74	9.22	
2025-01-07 15:41:22.62	47.58	9.24	
2025-01-07 15:41:23.44	47.42	9.26	
2025-01-07 15:41:24.25	47.27	9.27	
2025-01-07 15:41:25.08	47.11	9.29	
2025-01-07 15:41:25.90	46.95	9.31	
2025-01-07 15:41:26.71	46.79	9.33	
2025-01-07 15:41:27.53	46.63	9.35	
2025-01-07 15:41:28.36	46.47	9.36	
2025-01-07 15:41:29.18	46.31	9.38	
2025-01-07 15:41:30.01	46.15	9.40	
2025-01-07 15:41:30.83	45.99	9.42	
2025-01-07 15:41:31.65	45.83	9.43	
2025-01-07 15:41:32.47	45.67	9.45	
2025-01-07 15:41:33.29	45.51	9.47	
2025-01-07 15:41:34.11	45.35	9.48	
2025-01-07 15:41:34.94	45.19	9.50	
2025-01-07 15:41:35.77	45.03	9.52	
2025-01-07 15:41:36.60	44.87	9.53	
2025-01-07 15:41:37.43	44.70	9.55	
2025-01-07 15:41:38.25	44.54	9.56	
2025-01-07 15:41:39.07	44.38	9.58	
2025-01-07 15:41:39.89	44.22	9.59	
2025-01-07 15:41:40.73	44.05	9.61	
2025-01-07 15:41:41.55	43.89	9.62	
2025-01-07 15:41:42.38	43.73	9.64	
2025-01-07 15:41:43.20	43.56	9.65	
2025-01-07 15:41:44.02	43.40	9.67	
2025-01-07 15:41:44.84	43.24	9.68	
2025-01-07 15:41:45.66	43.07	9.69	
2025-01-07 15:41:46.49	42.91	9.71	
2025-01-07 15:41:47.32	42.74	9.72	
2025-01-07 15:41:48.14	42.58	9.73	
2025-01-07 15:41:48.96	42.42	9.75	
2025-01-07 15:41:49.78	42.25	9.76	
2025-01-07 15:41:50.60	42.09	9.77	
2025-01-07 15:41:51.42	41.93	9.79	
2025-01-07 15:41:52.24	41.76	9.80	
2025-01-07 15:41:53.08	41.59	9.81	
2025-01-07 15:41:53.90	41.43	9.82	
2025-01-07 15:41:54.72	41.26	9.83	
2025-01-07 15:41:55.54	41.10	9.84	
2025-01-07 15:41:56.36	40.93	9.85	
2025-01-07 15:41:57.19	40.77	9.87	
2025-01-07 15:41:58.01	40.60	9.88	
2025-01-07 15:41:58.83	40.44	9.89	
2025-01-07 15:41:59.67	40.27	9.90	
2025-01-07 15:42:00.48	40.10	9.91	
2025-01-07 15:42:01.30	39.94	9.92	
2025-01-07 15:42:02.12	39.77	9.93	
2025-01-07 15:42:02.95	39.60	9.94	
2025-01-07 15:42:03.77	39.44	9.94	
2025-01-07 15:42:04.59	39.27	9.95	
2025-01-07 15:42:05.42	39.10	9.96	
2025-01-07 15:42:06.25	38.94	9.97	
2025-01-07 15:42:07.07	38.77	9.98	
2025-01-07 15:42:07.89	38.60	9.99	
2025-01-07 15:42:08.71	38.44	10.00	
2025-01-07 15:42:09.53	38.27	10.00	
2025-01-07 15:42:10.35	38.10	10.01	
2025-01-07 15:42:11.17	37.94	10.02	
2025-01-07 15:42:11.99	37.77	10.02	
2025-01-07 15:42:12.81	37.60	10.03	
2025-01-07 15:42:13.63	37.43	10.04	
2025-01-07 15:42:14.45	37.27	10.04	
2025-01-07 15:42:15.27	37.10	10.05	
2025-01-07 15:42:16.09	36.93	10.06	
2025-01-07 15:42:16.91	36.76	10.06	
2025-01-07 15:42:17.73	36.60	10.07	
2025-01-07 15:42:18.55	36.43	10.07	
2025-01-07 15:42:19.37	36.26	10.08	
2025-01-07 15:42:20.19	36.09	10.08	
2025-01-07 15:42:21.01	35.93	10.09	
2025-01-07 15:42:21.83	35.76	10.09	
2025-01-07 15:42:22.65	35.59	10.09	
2025-01-07 15:42:23.47	35.42	10.10	
2025-01-07 15:42:24.29	35.25	10.10	
2025-01-07 15:42:25.10	35.09	10.11	
2025-01-07 15:42:25.93	34.92	10.11	
2025-01-07 15:42:26.75	34.75	10.11	
2025-01-07 15:42:27.57	34.58	10.11	
2025-01-07 15:42:28.39	34.41	10.12	
2025-01-07 15:42:29.21	34.25	10.12	
2025-01-07 15:42:30.03	34.08	10.12	
2025-01-07 15:42:30.85	33.91	10.12	
2025-01-07 15:42:31.67	33.74	10.12	
2025-01-07 15:42:32.49	33.57	10.13	
2025-01-07 15:42:33.31	33.41	10.13	
2025-01-07 15:42:34.13	33.24	10.13	
2025-01-07 15:42:34.95	33.07	10.13	
2025-01-07 15:42:35.77	32.90	10.13	
2025-01-07 15:42:36.59	32.73	10.13	
2025-01-07 15:42:37.43	32.56	10.13	
2025-01-07 15:42:38.24	32.39	10.13	
2025-01-07 15:42:39.08	32.22	10.13	
2025-01-07 15:42:39.90	32.05	10.13	
2025-01-07 15:42:40.72	31.88	10.13	
2025-01-07 15:42:41.54	31.72	10.13	
2025-01-07 15:42:42.36	31.55	10.13	
2025-01-07 15:42:43.18	31.38	10.12	
2025-01-07 15:42:44.00	31.21	10.12	
2025-01-07 15:42:44.82	31.04	10.12	
2025-01-07 15:42:45.64	30.88	10.12	
2025-01-07 15:42:46.46	30.71	10.12	
2025-01-07 15:42:47.29	30.54	10.11	
2025-01-07 15:42:48.11	30.37	10.11	
2025-01-07 15:42:48.93	30.20	10.11	
2025-01-07 15:42:49.75	30.03	10.10	
2025-01-07 15:42:50.57	29.86	10.10	
2025-01-07 15:42:51.39	29.70	10.10	
2025-01-07 15:42:52.23	29.53	10.09	
2025-01-07 15:42:53.05	29.36	10.09	
2025-01-07 15:42:53.87	29.19	10.08	
2025-01-07 15:42:54.69	29.02	10.08	
2025-01-07 15:42:55.51	28.85	10.08	
2025-01-07 15:42:56.33	28.69	10.07	
2025-01-07 15:42:57.16	28.52	10.06	
2025-01-07 15:42:57.99	28.35	10.06	
2025-01-07 15:42:58.80	28.18	10.05	
2025-01-07 15:42:59.62	28.02	10.05	
2025-01-07 15:43:00.44	27.85	10.04	
2025-01-07 15:43:01.26	27.68	10.04	
2025-01-07 15:43:02.09	27.51	10.03	
2025-01-07 15:43:02.91	27.35	10.02	
2025-01-07 15:43:03.73	27.18	10.01	
2025-01-07 15:43:04.55	27.01	10.01	
2025-01-07 15:43:05.37	26.84	10.00	
2025-01-07 15:43:06.19	26.68	9.99	
2025-01-07 15:43:07.01	26.51	9.98	
2025-01-07 15:43:07.83	26.35	9.98	
2025-01-07 15:43:08.65	26.18	9.97	
2025-01-07 15:43:09.47	26.01	9.96	
2025-01-07 15:43:10.31	25.84	9.95	
2025-01-07 15:43:11.14	25.67	9.94	
2025-01-07 15:43:11.96	25.51	9.93	
2025-01-07 15:43:12.78	25.34	9.92	
2025-01-07 15:43:13.60	25.18	9.91	
2025-01-07 15:43:14.42	25.01	9.90	
2025-01-07 15:43:15.24	24.85	9.89	
2025-01-07 15:43:16.07	24.68	9.88	
2025-01-07 15:43:16.89	24.51	9.87	
2025-01-07 15:43:17.71	24.35	9.86	
2025-01-07 15:43:18.54	24.18	9.85	
2025-01-07 15:43:19.36	24.02	9.84	
2025-01-07 15:43:20.20	23.85	9.83	
2025-01-07 15:43:21.02	23.69	9.82	
2025-01-07 15:43:21.85	23.52	9.80	
2025-01-07 15:43:22.67	23.36	9.79	
2025-01-07 15:43:23.49	23.19	9.78	
2025-01-07 15:43:24.31	23.03	9.77	
2025-01-07 15:43:25.13	22.86	9.76	
2025-01-07 15:43:25.96	22.70	9.74	
2025-01-07 15:43:26.78	22.53	9.73	
2025-01-07 15:43:27.62	22.37	9.72	
2025-01-07 15:43:28.44	22.20	9.70	
2025-01-07 15:43:29.26	22.04	9.69	
2025-01-07 15:43:30.08	21.88	9.68	
2025-01-07 15:43:30.90	21.72	9.66	
2025-01-07 15:43:31.72	21.55	9.65	
2025-01-07 15:43:32.54	21.39	9.63	
2025-01-07 15:43:33.36	21.23	9.62	
2025-01-07 15:43:34.18	21.07	9.60	
2025-01-07 15:43:35.00	20.91	9.59	
2025-01-07 15:43:35.82	20.75	9.57	
2025-01-07 15:43:36.64	20.58	9.56	
2025-01-07 15:43:37.46	20.42	9.54	
2025-01-07 15:43:38.28	20.26	9.53	
2025-01-07 15:43:39.10	20.10	9.51	
2025-01-07 15:43:39.92	19.94	9.50	
2025-01-07 15:43:40.75	19.78	9.48	
2025-01-07 15:43:41.56	19.62	9.46	
2025-01-07 15:43:42.40	19.46	9.45	
2025-01-07 15:43:43.22	19.30	9.43	
2025-01-07 15:43:44.04	19.14	9.41	
2025-01-07 15:43:44.86	18.98	9.39	
2025-01-07 15:43:45.68	18.82	9.38	
2025-01-07 15:43:46.50	18.66	9.36	
2025-01-07 15:43:47.32	18.50	9.34	
2025-01-07 15:43:48.15	18.34	9.32	
2025-01-07 15:43:48.98	18.18	9.31	
2025-01-07 15:43:49.80	18.02	9.29	
2025-01-07 15:43:50.63	17.86	9.27	
2025-01-07 15:43:51.45	17.71	9.25	
2025-01-07 15:43:52.27	17.55	9.23	
2025-01-07 15:43:53.10	17.39	9.21	
2025-01-07 15:43:53.92	17.23	9.19	
2025-01-07 15:43:54.74	17.08	9.17	
2025-01-07 15:43:55.56	16.92	9.15	
2025-01-07 15:43:56.39	16.76	9.13	
2025-01-07 15:43:57.20	16.61	9.11	
2025-01-07 15:43:58.03	16.45	9.09	
2025-01-07 15:43:58.85	16.30	9.07	
2025-01-07 15:43:59.67	16.14	9.05	
2025-01-07 15:44:00.49	15.99	9.03	
2025-01-07 15:44:01.31	15.83	9.01	
2025-01-07 15:44:02.13	15.68	8.99	
2025-01-07 15:44:02.95	15.52	8.97	
2025-01-07 15:44:03.77	15.37	8.95	
2025-01-07 15:44:04.59	15.21	8.93	
2025-01-07 15:44:05.41	15.06	8.90	
2025-01-07 15:44:06.24	14.91	8.88	
2025-01-07 15:44:07.06	14.75	8.86	
2025-01-07 15:44:07.88	14.60	8.84	
2025-01-07 15:44:08.71	14.45	8.82	
2025-01-07 15:44:09.53	14.29	8.79	
2025-01-07 15:44:10.36	14.14	8.77	
2025-01-07 15:44:11.18	13.99	8.75	
2025-01-07 15:44:12.00	13.84	8.73	
2025-01-07 15:44:12.81	13.69	8.70	
2025-01-07 15:44:13.64	13.53	8.68	
2025-01-07 15:44:14.46	13.38	8.66	
2025-01-07 15:44:15.27	13.24	8.63	
2025-01-07 15:44:16.09	13.09	8.61	
2025-01-07 15:44:16.92	12.93	8.58	
2025-01-07 15:44:17.74	12.78	8.56	
2025-01-07 15:44:18.56	12.63	8.54	
2025-01-07 15:44:19.38	12.49	8.51	
2025-01-07 15:44:20.20	12.34	8.49	
2025-01-07 15:44:21.02	12.19	8.46	
2025-01-07 15:44:21.84	12.04	8.44	
2025-01-07 15:44:22.66	11.89	8.41	
2025-01-07 15:44:23.49	11.74	8.39	
2025-01-07 15:44:24.31	11.60	8.36	
2025-01-07 15:44:25.13	11.45	8.34	
2025-01-07 15:44:25.95	11.30	8.31	
2025-01-07 15:44:26.76	11.16	8.29	
2025-01-07 15:44:27.59	11.01	8.26	
2025-01-07 15:44:28.41	10.86	8.24	
2025-01-07 15:44:29.23	10.72	8.21	
2025-01-07 15:44:30.05	10.57	8.18	
2025-01-07 15:44:30.88	10.43	8.16	
2025-01-07 15:44:31.70	10.28	8.13	
2025-01-07 15:44:32.51	10.14	8.11	
2025-01-07 15:44:33.33	9.99	8.08	
2025-01-07 15:44:34.16	9.85	8.05	
2025-01-07 15:44:34.98	9.70	8.02	
2025-01-07 15:44:35.80	9.56	8.00	
2025-01-07 15:44:36.62	9.42	7.97	
2025-01-07 15:44:37.44	9.28	7.94	
2025-01-07 15:44:38.26	9.13	7.92	
2025-01-07 15:44:39.08	8.99	7.89	
2025-01-07 15:44:39.92	8.85	7.86	
2025-01-07 15:44:40.74	8.70	7.83	
2025-01-07 15:44:41.56	8.56	7.80	
2025-01-07 15:44:42.38	8.42	7.78	
2025-01-07 15:44:43.20	8.28	7.75	
2025-01-07 15:44:44.02	8.14	7.72	
2025-01-07 15:44:44.84	8.00	7.69	
2025-01-07 15:44:45.66	7.86	7.66	
2025-01-07 15:44:46.48	7.72	7.63	
2025-01-07 15:44:47.31	7.58	7.61	
2025-01-07 15:44:48.13	7.44	7.58	
2025-01-07 15:44:48.95	7.30	7.55	
2025-01-07 15:44:49.77	7.17	7.52	
2025-01-07 15:44:50.59	7.03	7.49	
2025-01-07 15:44:51.42	6.89	7.46	
2025-01-07 15:44:52.24	6.75	7.43	
2025-01-07 15:44:53.05	6.62	7.40	
2025-01-07 15:44:53.87	6.48	7.37	
2025-01-07 15:44:54.69	6.34	7.34	
2025-01-07 15:44:55.51	6.21	7.31	
2025-01-07 15:44:56.33	6.07	7.28	
2025-01-07 15:44:57.17	5.93	7.25	
2025-01-07 15:44:58.00	5.80	7.22	
2025-01-07 15:44:58.82	5.66	7.19	
2025-01-07 15:44:59.64	5.53	7.16	
2025-01-07 15:45:00.46	5.39	7.13	
2025-01-07 15:45:01.28	5.26	7.10	
2025-01-07 15:45:02.11	5.12	7.07	
2025-01-07 15:45:02.93	4.99	7.04	
2025-01-07 15:45:03.75	4.86	7.01	
2025-01-07 15:45:04.56	4.73	6.98	
2025-01-07 15:45:05.39	4.59	6.95	
2025-01-07 15:45:06.21	4.46	6.91	
2025-01-07 15:45:07.03	4.33	6.88	
2025-01-07 15:45:07.85	4.20	6.85	
2025-01-07 15:45:08.67	4.07	6.82	
2025-01-07 15:45:09.49	3.93	6.79	
2025-01-07 15:45:10.31	3.80	6.76	
2025-01-07 15:45:11.13	3.67	6.73	
2025-01-07 15:45:11.97	3.54	6.69	
2025-01-07 15:45:12.81	3.41	6.66	
2025-01-07 15:45:13.63	3.28	6.63	
2025-01-07 15:45:14.47	3.15	6.60	
2025-01-07 15:45:15.29	3.02	6.57	
2025-01-07 15:45:16.11	2.89	6.53	
2025-01-07 15:45:16.93	2.76	6.50	
2025-01-07 15:45:17.76	2.63	6.47	
2025-01-07 15:45:18.58	2.51	6.44	
2025-01-07 15:45:19.40	2.38	6.40	
2025-01-07 15:45:20.22	2.25	6.37	
2025-01-07 15:45:21.04	2.13	6.34	
2025-01-07 15:45:21.86	2.00	6.31	
2025-01-07 15:45:22.68	1.87	6.27	
2025-01-07 15:45:23.50	1.75	6.24	
2025-01-07 15:45:24.32	1.62	6.21	
2025-01-07 15:45:25.14	1.50	6.17	
2025-01-07 15:45:25.96	1.37	6.14	
2025-01-07 15:45:26.78	1.25	6.11	
2025-01-07 15:45:27.61	1.13	6.07	
2025-01-07 15:45:28.42	1.00	6.04	
2025-01-07 15:45:29.25	0.88	6.01	
2025-01-07 15:45:30.07	0.76	5.97	
2025-01-07 15:45:30.88	0.63	5.94	
2025-01-07 15:45:31.71	0.51	5.91	
2025-01-07 15:45:32.52	0.39	5.87	
2025-01-07 15:45:33.34	0.27	5.84	
2025-01-07 15:45:34.17	0.15	5.81	
2025-01-07 15:45:35.00	0.02	5.77	
2025-01-07 15:45:35.82	359.90	5.74	
2025-01-07 15:45:36.64	359.78	5.70	
2025-01-07 15:45:37.47	359.66	5.67	
2025-01-07 15:45:38.29	359.54	5.64	
2025-01-07 15:45:39.11	359.42	5.60	
2025-01-07 15:45:39.93	359.30	5.57	
2025-01-07 15:45:40.76	359.18	5.53	
2025-01-07 15:45:41.58	359.06	5.50	
2025-01-07 15:45:42.40	358.95	5.46	
2025-01-07 15:45:43.22	358.83	5.43	
2025-01-07 15:45:44.03	358.71	5.40	
2025-01-07 15:45:44.86	358.59	5.36	
2025-01-07 15:45:45.68	358.48	5.33	
2025-01-07 15:45:46.50	358.36	5.29	
2025-01-07 15:45:47.32	358.24	5.26	
2025-01-07 15:45:48.14	358.13	5.22	
2025-01-07 15:45:48.96	358.01	5.19	
2025-01-07 15:45:49.78	357.90	5.15	
2025-01-07 15:45:50.60	357.78	5.12	
2025-01-07 15:45:51.43	357.67	5.08	
2025-01-07 15:45:52.25	357.55	5.05	
2025-01-07 15:45:53.08	357.44	5.01	
2025-01-07 15:45:53.90	357.32	4.98	
2025-01-07 15:45:54.72	357.21	4.94	
2025-01-07 15:45:55.54	357.09	4.91	
2025-01-07 15:45:56.36	356.98	4.87	
2025-01-07 15:45:57.18	356.87	4.84	
2025-01-07 15:45:58.00	356.76	4.80	
2025-01-07 15:45:58.82	356.64	4.77	
2025-01-07 15:45:59.64	356.53	4.73	
2025-01-07 15:46:00.46	356.42	4.70	
2025-01-07 15:46:01.30	356.31	4.66	
2025-01-07 15:46:02.12	356.20	4.62	
2025-01-07 15:46:02.94	356.09	4.59	
2025-01-07 15:46:03.76	355.98	4.55	
2025-01-07 15:46:04.59	355.86	4.52	
2025-01-07 15:46:05.41	355.76	4.48	
2025-01-07 15:46:06.24	355.64	4.44	
2025-01-07 15:46:07.06	355.54	4.41	
2025-01-07 15:46:07.89	355.43	4.37	
2025-01-07 15:46:08.71	355.32	4.34	
2025-01-07 15:46:09.53	355.21	4.30	
2025-01-07 15:46:10.35	355.10	4.27	
2025-01-07 15:46:11.17	354.99	4.23	
2025-01-07 15:46:11.99	354.89	4.19	
2025-01-07 15:46:12.81	354.78	4.16	
2025-01-07 15:46:13.65	354.67	4.12	
2025-01-07 15:46:14.47	354.56	4.08	
2025-01-07 15:46:15.30	354.46	4.05	
2025-01-07 15:46:16.12	354.35	4.01	

#Closed at: 2025-01-07 15:46:16