passes_logs/2025/01/07/SPB_Silybum_02/SPB_Silybum_02__20250107_185014_TERRA_rec.log

#Pass ID: 20250107_185014_TERRA
#Satellite: TERRA
#Configuration: TERRA
#Start time: 2025-01-07 18:50:15

#Version: 2.0.20230423
#Station: SPB_Silybum_02
#Location: 30.233357 lon 59.946436 lat
#TLE: 1 25994U 99068A   25006.77118991  .00001382  00000+0  29492-3 0  9999
#TLE: 2 25994  98.0231  70.0628 0003576  88.8854  23.4584 14.60378914332871

#Time	Az	El	Level	Level2	SNR	BER	Gain	Gain2
2025-01-07 18:50:17.86	170.90	4.21	
2025-01-07 18:50:19.09	170.93	4.30	
2025-01-07 18:50:20.32	170.96	4.39	
2025-01-07 18:50:21.55	170.98	4.48	
2025-01-07 18:50:22.78	171.01	4.57	
2025-01-07 18:50:24.02	171.04	4.66	
2025-01-07 18:50:25.25	171.06	4.75	
2025-01-07 18:50:26.48	171.09	4.84	
2025-01-07 18:50:27.72	171.12	4.93	
2025-01-07 18:50:28.95	171.15	5.03	
2025-01-07 18:50:30.18	171.17	5.12	
2025-01-07 18:50:31.41	171.20	5.21	
2025-01-07 18:50:32.65	171.23	5.30	
2025-01-07 18:50:33.89	171.26	5.40	
2025-01-07 18:50:35.12	171.29	5.49	
2025-01-07 18:50:36.35	171.32	5.58	
2025-01-07 18:50:37.59	171.35	5.68	
2025-01-07 18:50:38.81	171.38	5.77	
2025-01-07 18:50:40.06	171.41	5.87	
2025-01-07 18:50:41.29	171.44	5.96	
2025-01-07 18:50:42.53	171.47	6.06	
2025-01-07 18:50:43.76	171.50	6.16	
2025-01-07 18:50:44.99	171.53	6.25	
2025-01-07 18:50:46.22	171.56	6.35	
2025-01-07 18:50:47.46	171.59	6.45	
2025-01-07 18:50:48.69	171.62	6.55	
2025-01-07 18:50:49.92	171.65	6.64	
2025-01-07 18:50:51.15	171.68	6.74	
2025-01-07 18:50:52.38	171.71	6.84	
2025-01-07 18:50:53.62	171.74	6.94	
2025-01-07 18:50:54.85	171.77	7.04	
2025-01-07 18:50:56.08	171.81	7.14	
2025-01-07 18:50:57.31	171.84	7.24	
2025-01-07 18:50:58.55	171.87	7.34	
2025-01-07 18:50:59.78	171.90	7.44	
2025-01-07 18:51:01.02	171.94	7.55	
2025-01-07 18:51:02.25	171.97	7.65	
2025-01-07 18:51:03.49	172.00	7.75	
2025-01-07 18:51:04.72	172.04	7.86	
2025-01-07 18:51:05.96	172.07	7.96	
2025-01-07 18:51:07.19	172.10	8.07	
2025-01-07 18:51:08.45	172.14	8.17	
2025-01-07 18:51:09.68	172.17	8.28	
2025-01-07 18:51:10.91	172.21	8.38	
2025-01-07 18:51:12.14	172.24	8.49	
2025-01-07 18:51:13.37	172.28	8.60	
2025-01-07 18:51:14.60	172.31	8.70	
2025-01-07 18:51:15.82	172.35	8.81	
2025-01-07 18:51:17.05	172.38	8.92	
2025-01-07 18:51:18.30	172.42	9.03	
2025-01-07 18:51:19.52	172.46	9.14	
2025-01-07 18:51:20.77	172.49	9.25	
2025-01-07 18:51:22.00	172.53	9.36	
2025-01-07 18:51:23.23	172.57	9.47	
2025-01-07 18:51:24.46	172.61	9.58	
2025-01-07 18:51:25.69	172.64	9.69	
2025-01-07 18:51:26.94	172.68	9.81	
2025-01-07 18:51:28.17	172.72	9.92	
2025-01-07 18:51:29.40	172.76	10.03	
2025-01-07 18:51:30.63	172.80	10.15	
2025-01-07 18:51:31.86	172.84	10.26	
2025-01-07 18:51:33.09	172.88	10.38	
2025-01-07 18:51:34.32	172.92	10.49	
2025-01-07 18:51:35.56	172.96	10.61	
2025-01-07 18:51:36.79	173.00	10.73	
2025-01-07 18:51:38.02	173.04	10.85	
2025-01-07 18:51:39.25	173.08	10.96	
2025-01-07 18:51:40.48	173.12	11.08	
2025-01-07 18:51:41.72	173.16	11.20	
2025-01-07 18:51:42.95	173.20	11.32	
2025-01-07 18:51:44.18	173.25	11.44	
2025-01-07 18:51:45.41	173.29	11.57	
2025-01-07 18:51:46.64	173.33	11.69	
2025-01-07 18:51:47.89	173.38	11.81	
2025-01-07 18:51:49.13	173.42	11.94	
2025-01-07 18:51:50.36	173.47	12.06	
2025-01-07 18:51:51.59	173.51	12.19	
2025-01-07 18:51:52.82	173.55	12.31	
2025-01-07 18:51:54.06	173.60	12.44	
2025-01-07 18:51:55.28	173.65	12.57	
2025-01-07 18:51:56.51	173.69	12.69	
2025-01-07 18:51:57.74	173.74	12.82	
2025-01-07 18:51:58.97	173.78	12.95	
2025-01-07 18:52:00.21	173.83	13.08	
2025-01-07 18:52:01.44	173.88	13.21	
2025-01-07 18:52:02.67	173.93	13.35	
2025-01-07 18:52:03.90	173.98	13.48	
2025-01-07 18:52:05.13	174.03	13.61	
2025-01-07 18:52:06.36	174.07	13.74	
2025-01-07 18:52:07.59	174.12	13.88	
2025-01-07 18:52:08.82	174.17	14.02	
2025-01-07 18:52:10.05	174.23	14.15	
2025-01-07 18:52:11.28	174.28	14.29	
2025-01-07 18:52:12.51	174.33	14.43	
2025-01-07 18:52:13.74	174.38	14.57	
2025-01-07 18:52:14.98	174.43	14.71	
2025-01-07 18:52:16.21	174.49	14.85	
2025-01-07 18:52:17.44	174.54	14.99	
2025-01-07 18:52:18.69	174.59	15.13	
2025-01-07 18:52:19.92	174.65	15.28	
2025-01-07 18:52:21.14	174.70	15.42	
2025-01-07 18:52:22.38	174.76	15.57	
2025-01-07 18:52:23.61	174.82	15.71	
2025-01-07 18:52:24.84	174.87	15.86	
2025-01-07 18:52:26.07	174.93	16.01	
2025-01-07 18:52:27.30	174.99	16.16	
2025-01-07 18:52:28.55	175.05	16.31	
2025-01-07 18:52:29.78	175.11	16.46	
2025-01-07 18:52:31.01	175.17	16.61	
2025-01-07 18:52:32.24	175.23	16.77	
2025-01-07 18:52:33.47	175.29	16.92	
2025-01-07 18:52:34.71	175.35	17.08	
2025-01-07 18:52:35.94	175.41	17.23	
2025-01-07 18:52:37.17	175.47	17.39	
2025-01-07 18:52:38.41	175.54	17.55	
2025-01-07 18:52:39.64	175.60	17.71	
2025-01-07 18:52:40.87	175.67	17.87	
2025-01-07 18:52:42.10	175.73	18.03	
2025-01-07 18:52:43.33	175.80	18.19	
2025-01-07 18:52:44.56	175.86	18.36	
2025-01-07 18:52:45.80	175.93	18.52	
2025-01-07 18:52:47.03	176.00	18.69	
2025-01-07 18:52:48.27	176.07	18.86	
2025-01-07 18:52:49.50	176.14	19.03	
2025-01-07 18:52:50.73	176.21	19.20	
2025-01-07 18:52:51.97	176.28	19.37	
2025-01-07 18:52:53.19	176.35	19.54	
2025-01-07 18:52:54.43	176.43	19.72	
2025-01-07 18:52:55.66	176.50	19.89	
2025-01-07 18:52:56.89	176.58	20.07	
2025-01-07 18:52:58.12	176.65	20.25	
2025-01-07 18:52:59.37	176.73	20.43	
2025-01-07 18:53:00.59	176.81	20.61	
2025-01-07 18:53:01.82	176.88	20.79	
2025-01-07 18:53:03.05	176.96	20.97	
2025-01-07 18:53:04.30	177.04	21.16	
2025-01-07 18:53:05.54	177.13	21.35	
2025-01-07 18:53:06.78	177.21	21.54	
2025-01-07 18:53:08.00	177.29	21.73	
2025-01-07 18:53:09.23	177.37	21.92	
2025-01-07 18:53:10.47	177.46	22.11	
2025-01-07 18:53:11.70	177.55	22.30	
2025-01-07 18:53:12.93	177.63	22.50	
2025-01-07 18:53:14.16	177.72	22.70	
2025-01-07 18:53:15.39	177.81	22.90	
2025-01-07 18:53:16.62	177.90	23.10	
2025-01-07 18:53:17.85	177.99	23.30	
2025-01-07 18:53:19.08	178.09	23.50	
2025-01-07 18:53:20.31	178.18	23.71	
2025-01-07 18:53:21.55	178.28	23.91	
2025-01-07 18:53:22.79	178.37	24.12	
2025-01-07 18:53:24.02	178.47	24.33	
2025-01-07 18:53:25.25	178.57	24.55	
2025-01-07 18:53:26.49	178.67	24.76	
2025-01-07 18:53:27.72	178.77	24.98	
2025-01-07 18:53:28.95	178.88	25.19	
2025-01-07 18:53:30.17	178.98	25.41	
2025-01-07 18:53:31.40	179.09	25.63	
2025-01-07 18:53:32.63	179.19	25.86	
2025-01-07 18:53:33.86	179.30	26.08	
2025-01-07 18:53:35.09	179.41	26.31	
2025-01-07 18:53:36.32	179.53	26.54	
2025-01-07 18:53:37.55	179.64	26.77	
2025-01-07 18:53:38.78	179.76	27.00	
2025-01-07 18:53:40.01	179.87	27.24	
2025-01-07 18:53:41.24	179.99	27.47	
2025-01-07 18:53:42.47	180.11	27.71	
2025-01-07 18:53:43.70	180.23	27.95	
2025-01-07 18:53:44.93	180.36	28.20	
2025-01-07 18:53:46.16	180.49	28.44	
2025-01-07 18:53:47.39	180.61	28.69	
2025-01-07 18:53:48.63	180.75	28.94	
2025-01-07 18:53:49.87	180.88	29.20	
2025-01-07 18:53:51.11	181.01	29.45	
2025-01-07 18:53:52.34	181.15	29.71	
2025-01-07 18:53:53.57	181.29	29.97	
2025-01-07 18:53:54.80	181.43	30.23	
2025-01-07 18:53:56.03	181.57	30.49	
2025-01-07 18:53:57.26	181.72	30.76	
2025-01-07 18:53:58.49	181.87	31.03	
2025-01-07 18:53:59.72	182.02	31.30	
2025-01-07 18:54:00.96	182.17	31.58	
2025-01-07 18:54:02.19	182.33	31.85	
2025-01-07 18:54:03.42	182.49	32.13	
2025-01-07 18:54:04.65	182.65	32.41	
2025-01-07 18:54:05.88	182.81	32.70	
2025-01-07 18:54:07.11	182.98	32.98	
2025-01-07 18:54:08.34	183.15	33.27	
2025-01-07 18:54:09.57	183.32	33.57	
2025-01-07 18:54:10.81	183.50	33.86	
2025-01-07 18:54:12.08	183.69	34.17	
2025-01-07 18:54:13.30	183.87	34.47	
2025-01-07 18:54:14.53	184.05	34.77	
2025-01-07 18:54:15.77	184.25	35.08	
2025-01-07 18:54:17.00	184.44	35.39	
2025-01-07 18:54:18.24	184.64	35.70	
2025-01-07 18:54:19.47	184.84	36.02	
2025-01-07 18:54:20.70	185.04	36.34	
2025-01-07 18:54:21.94	185.25	36.66	
2025-01-07 18:54:23.17	185.47	36.98	
2025-01-07 18:54:24.40	185.69	37.31	
2025-01-07 18:54:25.64	185.91	37.64	
2025-01-07 18:54:26.87	186.14	37.97	
2025-01-07 18:54:28.11	186.37	38.31	
2025-01-07 18:54:29.34	186.60	38.65	
2025-01-07 18:54:30.56	186.84	38.99	
2025-01-07 18:54:31.79	187.09	39.33	
2025-01-07 18:54:33.02	187.34	39.68	
2025-01-07 18:54:34.25	187.60	40.03	
2025-01-07 18:54:35.51	187.87	40.39	
2025-01-07 18:54:36.75	188.14	40.75	
2025-01-07 18:54:37.98	188.41	41.11	
2025-01-07 18:54:39.21	188.69	41.48	
2025-01-07 18:54:40.44	188.98	41.84	
2025-01-07 18:54:41.67	189.27	42.21	
2025-01-07 18:54:42.90	189.57	42.58	
2025-01-07 18:54:44.14	189.88	42.96	
2025-01-07 18:54:45.37	190.20	43.34	
2025-01-07 18:54:46.62	190.52	43.73	
2025-01-07 18:54:47.85	190.85	44.11	
2025-01-07 18:54:49.09	191.20	44.50	
2025-01-07 18:54:50.31	191.54	44.89	
2025-01-07 18:54:51.55	191.90	45.29	
2025-01-07 18:54:52.78	192.26	45.68	
2025-01-07 18:54:54.01	192.63	46.08	
2025-01-07 18:54:55.24	193.02	46.48	
2025-01-07 18:54:56.47	193.41	46.89	
2025-01-07 18:54:57.70	193.81	47.30	
2025-01-07 18:54:58.94	194.23	47.71	
2025-01-07 18:55:00.17	194.66	48.12	
2025-01-07 18:55:01.40	195.09	48.54	
2025-01-07 18:55:02.63	195.54	48.95	
2025-01-07 18:55:03.86	196.00	49.37	
2025-01-07 18:55:05.09	196.48	49.79	
2025-01-07 18:55:06.31	196.96	50.21	
2025-01-07 18:55:07.55	197.47	50.64	
2025-01-07 18:55:08.78	197.98	51.07	
2025-01-07 18:55:10.01	198.51	51.50	
2025-01-07 18:55:11.24	199.06	51.93	
2025-01-07 18:55:12.47	199.62	52.36	
2025-01-07 18:55:13.70	200.20	52.79	
2025-01-07 18:55:14.93	200.79	53.23	
2025-01-07 18:55:16.16	201.41	53.66	
2025-01-07 18:55:17.39	202.04	54.10	
2025-01-07 18:55:18.62	202.69	54.53	
2025-01-07 18:55:19.85	203.36	54.97	
2025-01-07 18:55:21.08	204.06	55.40	
2025-01-07 18:55:22.31	204.77	55.84	
2025-01-07 18:55:23.55	205.51	56.27	
2025-01-07 18:55:24.79	206.28	56.71	
2025-01-07 18:55:26.03	207.07	57.14	
2025-01-07 18:55:27.27	207.89	57.58	
2025-01-07 18:55:28.50	208.73	58.00	
2025-01-07 18:55:29.74	209.60	58.43	
2025-01-07 18:55:30.97	210.49	58.85	
2025-01-07 18:55:32.20	211.41	59.27	
2025-01-07 18:55:33.43	212.36	59.69	
2025-01-07 18:55:34.66	213.34	60.10	
2025-01-07 18:55:35.89	214.35	60.50	
2025-01-07 18:55:37.12	215.39	60.90	
2025-01-07 18:55:38.35	216.47	61.29	
2025-01-07 18:55:39.58	217.58	61.68	
2025-01-07 18:55:40.81	218.73	62.06	
2025-01-07 18:55:42.05	219.92	62.43	
2025-01-07 18:55:43.29	221.15	62.80	
2025-01-07 18:55:44.51	222.40	63.15	
2025-01-07 18:55:45.74	223.69	63.49	
2025-01-07 18:55:46.98	225.03	63.83	
2025-01-07 18:55:48.21	226.40	64.15	
2025-01-07 18:55:49.45	227.82	64.46	
2025-01-07 18:55:50.67	229.26	64.76	
2025-01-07 18:55:51.90	230.74	65.04	
2025-01-07 18:55:53.15	232.29	65.32	
2025-01-07 18:55:54.38	233.84	65.57	
2025-01-07 18:55:55.61	235.43	65.81	
2025-01-07 18:55:56.84	237.06	66.03	
2025-01-07 18:55:58.07	238.72	66.24	
2025-01-07 18:55:59.31	240.42	66.43	
2025-01-07 18:56:00.55	242.15	66.60	
2025-01-07 18:56:01.78	243.89	66.75	
2025-01-07 18:56:03.01	245.66	66.88	
2025-01-07 18:56:04.24	247.44	66.99	
2025-01-07 18:56:05.47	249.25	67.08	
2025-01-07 18:56:06.70	251.06	67.15	
2025-01-07 18:56:07.93	252.89	67.19	
2025-01-07 18:56:09.16	254.72	67.22	
2025-01-07 18:56:10.40	256.58	67.23	
2025-01-07 18:56:11.63	258.41	67.21	
2025-01-07 18:56:12.86	260.24	67.18	
2025-01-07 18:56:14.09	262.06	67.12	
2025-01-07 18:56:15.31	263.86	67.04	
2025-01-07 18:56:16.55	265.67	66.94	
2025-01-07 18:56:17.77	267.43	66.82	
2025-01-07 18:56:19.00	269.19	66.69	
2025-01-07 18:56:20.23	270.92	66.53	
2025-01-07 18:56:21.46	272.62	66.35	
2025-01-07 18:56:22.69	274.30	66.16	
2025-01-07 18:56:23.94	275.97	65.94	
2025-01-07 18:56:25.17	277.58	65.71	
2025-01-07 18:56:26.41	279.17	65.47	
2025-01-07 18:56:27.65	280.72	65.20	
2025-01-07 18:56:28.88	282.22	64.93	
2025-01-07 18:56:30.12	283.70	64.64	
2025-01-07 18:56:31.35	285.13	64.33	
2025-01-07 18:56:32.58	286.52	64.02	
2025-01-07 18:56:33.82	287.88	63.69	
2025-01-07 18:56:35.05	289.20	63.35	
2025-01-07 18:56:36.29	290.48	63.00	
2025-01-07 18:56:37.52	291.72	62.65	
2025-01-07 18:56:38.76	292.93	62.28	
2025-01-07 18:56:39.99	294.10	61.90	
2025-01-07 18:56:41.23	295.24	61.52	
2025-01-07 18:56:42.46	296.33	61.13	
2025-01-07 18:56:43.69	297.40	60.74	
2025-01-07 18:56:44.92	298.43	60.33	
2025-01-07 18:56:46.16	299.43	59.93	
2025-01-07 18:56:47.39	300.40	59.52	
2025-01-07 18:56:48.62	301.33	59.10	
2025-01-07 18:56:49.85	302.24	58.68	
2025-01-07 18:56:51.09	303.12	58.26	
2025-01-07 18:56:52.32	303.97	57.83	
2025-01-07 18:56:53.55	304.79	57.41	
2025-01-07 18:56:54.78	305.59	56.98	
2025-01-07 18:56:56.01	306.37	56.55	
2025-01-07 18:56:57.25	307.12	56.11	
2025-01-07 18:56:58.48	307.85	55.68	
2025-01-07 18:56:59.71	308.55	55.25	
2025-01-07 18:57:00.94	309.24	54.81	
2025-01-07 18:57:02.18	309.90	54.38	
2025-01-07 18:57:03.41	310.55	53.94	
2025-01-07 18:57:04.64	311.17	53.51	
2025-01-07 18:57:05.88	311.78	53.07	
2025-01-07 18:57:07.10	312.36	52.64	
2025-01-07 18:57:08.33	312.93	52.21	
2025-01-07 18:57:09.56	313.49	51.78	
2025-01-07 18:57:10.80	314.03	51.35	
2025-01-07 18:57:12.03	314.55	50.93	
2025-01-07 18:57:13.26	315.06	50.50	
2025-01-07 18:57:14.49	315.56	50.08	
2025-01-07 18:57:15.72	316.04	49.66	
2025-01-07 18:57:16.95	316.51	49.24	
2025-01-07 18:57:18.18	316.96	48.82	
2025-01-07 18:57:19.41	317.40	48.41	
2025-01-07 18:57:20.64	317.84	47.99	
2025-01-07 18:57:21.88	318.26	47.58	
2025-01-07 18:57:23.12	318.67	47.17	
2025-01-07 18:57:24.35	319.07	46.77	
2025-01-07 18:57:25.58	319.46	46.36	
2025-01-07 18:57:26.81	319.84	45.97	
2025-01-07 18:57:28.04	320.21	45.57	
2025-01-07 18:57:29.28	320.57	45.17	
2025-01-07 18:57:30.53	320.93	44.78	
2025-01-07 18:57:31.76	321.27	44.39	
2025-01-07 18:57:33.00	321.61	44.00	
2025-01-07 18:57:34.23	321.93	43.62	
2025-01-07 18:57:35.46	322.25	43.24	
2025-01-07 18:57:36.70	322.57	42.86	
2025-01-07 18:57:37.93	322.87	42.49	
2025-01-07 18:57:39.17	323.17	42.12	
2025-01-07 18:57:40.40	323.46	41.75	
2025-01-07 18:57:41.63	323.74	41.39	
2025-01-07 18:57:42.88	324.03	41.02	
2025-01-07 18:57:44.13	324.30	40.66	
2025-01-07 18:57:45.36	324.57	40.30	
2025-01-07 18:57:46.59	324.83	39.95	
2025-01-07 18:57:47.82	325.08	39.60	
2025-01-07 18:57:49.05	325.33	39.26	
2025-01-07 18:57:50.28	325.57	38.92	
2025-01-07 18:57:51.51	325.81	38.58	
2025-01-07 18:57:52.74	326.05	38.24	
2025-01-07 18:57:53.97	326.28	37.91	
2025-01-07 18:57:55.20	326.50	37.58	
2025-01-07 18:57:56.43	326.72	37.25	
2025-01-07 18:57:57.67	326.94	36.93	
2025-01-07 18:57:58.90	327.15	36.61	
2025-01-07 18:58:00.14	327.36	36.29	
2025-01-07 18:58:01.38	327.56	35.97	
2025-01-07 18:58:02.62	327.76	35.65	
2025-01-07 18:58:03.85	327.96	35.35	
2025-01-07 18:58:05.07	328.15	35.04	
2025-01-07 18:58:06.30	328.34	34.74	
2025-01-07 18:58:07.55	328.53	34.43	
2025-01-07 18:58:08.78	328.71	34.13	
2025-01-07 18:58:10.02	328.89	33.84	
2025-01-07 18:58:11.25	329.06	33.54	
2025-01-07 18:58:12.48	329.23	33.25	
2025-01-07 18:58:13.71	329.40	32.97	
2025-01-07 18:58:14.94	329.57	32.68	
2025-01-07 18:58:16.18	329.73	32.40	
2025-01-07 18:58:17.41	329.89	32.12	
2025-01-07 18:58:18.65	330.05	31.84	
2025-01-07 18:58:19.89	330.21	31.56	
2025-01-07 18:58:21.12	330.36	31.29	
2025-01-07 18:58:22.35	330.51	31.02	
2025-01-07 18:58:23.58	330.66	30.76	
2025-01-07 18:58:24.80	330.80	30.49	
2025-01-07 18:58:26.03	330.95	30.23	
2025-01-07 18:58:27.25	331.09	29.97	
2025-01-07 18:58:28.48	331.22	29.72	
2025-01-07 18:58:29.73	331.36	29.46	
2025-01-07 18:58:30.96	331.50	29.21	
2025-01-07 18:58:32.19	331.63	28.96	
2025-01-07 18:58:33.43	331.76	28.71	
2025-01-07 18:58:34.68	331.89	28.46	
2025-01-07 18:58:35.90	332.01	28.21	
2025-01-07 18:58:37.14	332.14	27.97	
2025-01-07 18:58:38.36	332.26	27.73	
2025-01-07 18:58:39.60	332.38	27.49	
2025-01-07 18:58:40.83	332.50	27.26	
2025-01-07 18:58:42.07	332.62	27.02	
2025-01-07 18:58:43.32	332.73	26.79	
2025-01-07 18:58:44.55	332.85	26.56	
2025-01-07 18:58:45.79	332.96	26.33	
2025-01-07 18:58:47.02	333.07	26.11	
2025-01-07 18:58:48.26	333.18	25.88	
2025-01-07 18:58:49.49	333.29	25.66	
2025-01-07 18:58:50.71	333.39	25.44	
2025-01-07 18:58:51.96	333.50	25.22	
2025-01-07 18:58:53.18	333.60	25.01	
2025-01-07 18:58:54.42	333.70	24.79	
2025-01-07 18:58:55.66	333.81	24.58	
2025-01-07 18:58:56.89	333.90	24.37	
2025-01-07 18:58:58.12	334.00	24.16	
2025-01-07 18:58:59.36	334.10	23.95	
2025-01-07 18:59:00.60	334.20	23.74	
2025-01-07 18:59:01.83	334.29	23.54	
2025-01-07 18:59:03.06	334.38	23.34	
2025-01-07 18:59:04.30	334.47	23.14	
2025-01-07 18:59:05.53	334.57	22.94	
2025-01-07 18:59:06.76	334.65	22.74	
2025-01-07 18:59:07.99	334.74	22.54	
2025-01-07 18:59:09.22	334.83	22.35	
2025-01-07 18:59:10.45	334.92	22.16	
2025-01-07 18:59:11.69	335.00	21.97	
2025-01-07 18:59:12.92	335.09	21.78	
2025-01-07 18:59:14.15	335.17	21.59	
2025-01-07 18:59:15.38	335.25	21.40	
2025-01-07 18:59:16.61	335.33	21.22	
2025-01-07 18:59:17.84	335.41	21.03	
2025-01-07 18:59:19.07	335.49	20.85	
2025-01-07 18:59:20.32	335.57	20.67	
2025-01-07 18:59:21.56	335.65	20.49	
2025-01-07 18:59:22.79	335.72	20.31	
2025-01-07 18:59:24.02	335.80	20.13	
2025-01-07 18:59:25.25	335.88	19.96	
2025-01-07 18:59:26.48	335.95	19.78	
2025-01-07 18:59:27.71	336.02	19.61	
2025-01-07 18:59:28.94	336.09	19.44	
2025-01-07 18:59:30.17	336.17	19.27	
2025-01-07 18:59:31.40	336.24	19.10	
2025-01-07 18:59:32.63	336.31	18.93	
2025-01-07 18:59:33.88	336.38	18.76	
2025-01-07 18:59:35.12	336.45	18.60	
2025-01-07 18:59:36.35	336.51	18.43	
2025-01-07 18:59:37.58	336.58	18.27	
2025-01-07 18:59:38.82	336.65	18.11	
2025-01-07 18:59:40.05	336.71	17.95	
2025-01-07 18:59:41.28	336.78	17.79	
2025-01-07 18:59:42.51	336.84	17.63	
2025-01-07 18:59:43.74	336.91	17.47	
2025-01-07 18:59:44.97	336.97	17.31	
2025-01-07 18:59:46.20	337.03	17.16	
2025-01-07 18:59:47.43	337.09	17.00	
2025-01-07 18:59:48.67	337.16	16.85	
2025-01-07 18:59:49.90	337.22	16.70	
2025-01-07 18:59:51.13	337.28	16.55	
2025-01-07 18:59:52.36	337.34	16.40	
2025-01-07 18:59:53.59	337.40	16.25	
2025-01-07 18:59:54.82	337.45	16.10	
2025-01-07 18:59:56.06	337.51	15.95	
2025-01-07 18:59:57.29	337.57	15.81	
2025-01-07 18:59:58.52	337.63	15.66	
2025-01-07 18:59:59.76	337.68	15.51	
2025-01-07 19:00:00.99	337.74	15.37	
2025-01-07 19:00:02.21	337.79	15.23	
2025-01-07 19:00:03.44	337.85	15.09	
2025-01-07 19:00:04.67	337.90	14.95	
2025-01-07 19:00:05.90	337.96	14.81	
2025-01-07 19:00:07.14	338.01	14.67	
2025-01-07 19:00:08.37	338.06	14.53	
2025-01-07 19:00:09.60	338.11	14.39	
2025-01-07 19:00:10.83	338.17	14.26	
2025-01-07 19:00:12.07	338.22	14.12	
2025-01-07 19:00:13.30	338.27	13.98	
2025-01-07 19:00:14.52	338.32	13.85	
2025-01-07 19:00:15.77	338.37	13.72	
2025-01-07 19:00:17.00	338.42	13.58	
2025-01-07 19:00:18.24	338.47	13.45	
2025-01-07 19:00:19.47	338.52	13.32	
2025-01-07 19:00:20.70	338.57	13.19	
2025-01-07 19:00:21.93	338.61	13.06	
2025-01-07 19:00:23.17	338.66	12.93	
2025-01-07 19:00:24.41	338.71	12.80	
2025-01-07 19:00:25.64	338.76	12.67	
2025-01-07 19:00:26.87	338.80	12.55	
2025-01-07 19:00:28.10	338.85	12.42	
2025-01-07 19:00:29.33	338.89	12.30	
2025-01-07 19:00:30.56	338.94	12.17	
2025-01-07 19:00:31.79	338.98	12.05	
2025-01-07 19:00:33.03	339.03	11.93	
2025-01-07 19:00:34.25	339.07	11.80	
2025-01-07 19:00:35.49	339.12	11.68	
2025-01-07 19:00:36.72	339.16	11.56	
2025-01-07 19:00:37.95	339.20	11.44	
2025-01-07 19:00:39.19	339.25	11.32	
2025-01-07 19:00:40.42	339.29	11.20	
2025-01-07 19:00:41.65	339.33	11.08	
2025-01-07 19:00:42.88	339.37	10.97	
2025-01-07 19:00:44.13	339.41	10.85	
2025-01-07 19:00:45.36	339.46	10.73	
2025-01-07 19:00:46.59	339.50	10.61	
2025-01-07 19:00:47.82	339.54	10.50	
2025-01-07 19:00:49.06	339.58	10.38	
2025-01-07 19:00:50.29	339.62	10.27	
2025-01-07 19:00:51.52	339.66	10.16	
2025-01-07 19:00:52.75	339.70	10.04	
2025-01-07 19:00:53.97	339.74	9.93	
2025-01-07 19:00:55.22	339.78	9.82	
2025-01-07 19:00:56.45	339.81	9.71	
2025-01-07 19:00:57.67	339.85	9.60	
2025-01-07 19:00:58.91	339.89	9.48	
2025-01-07 19:01:00.13	339.93	9.38	
2025-01-07 19:01:01.37	339.97	9.27	
2025-01-07 19:01:02.59	340.00	9.16	
2025-01-07 19:01:03.83	340.04	9.05	
2025-01-07 19:01:05.05	340.08	8.94	
2025-01-07 19:01:06.28	340.11	8.84	
2025-01-07 19:01:07.51	340.15	8.73	
2025-01-07 19:01:08.74	340.19	8.62	
2025-01-07 19:01:09.97	340.22	8.52	
2025-01-07 19:01:11.22	340.26	8.41	
2025-01-07 19:01:12.47	340.29	8.30	
2025-01-07 19:01:13.70	340.33	8.20	
2025-01-07 19:01:14.93	340.36	8.10	
2025-01-07 19:01:16.16	340.40	7.99	
2025-01-07 19:01:17.39	340.43	7.89	
2025-01-07 19:01:18.63	340.47	7.79	
2025-01-07 19:01:19.86	340.50	7.68	
2025-01-07 19:01:21.08	340.53	7.58	
2025-01-07 19:01:22.32	340.57	7.48	
2025-01-07 19:01:23.55	340.60	7.38	
2025-01-07 19:01:24.78	340.63	7.28	
2025-01-07 19:01:26.01	340.67	7.18	
2025-01-07 19:01:27.24	340.70	7.08	
2025-01-07 19:01:28.47	340.73	6.98	
2025-01-07 19:01:29.70	340.77	6.89	
2025-01-07 19:01:30.93	340.80	6.79	
2025-01-07 19:01:32.16	340.83	6.69	
2025-01-07 19:01:33.39	340.86	6.59	
2025-01-07 19:01:34.62	340.89	6.50	
2025-01-07 19:01:35.85	340.92	6.40	
2025-01-07 19:01:37.08	340.96	6.30	
2025-01-07 19:01:38.31	340.99	6.21	
2025-01-07 19:01:39.54	341.02	6.11	
2025-01-07 19:01:40.77	341.05	6.02	
2025-01-07 19:01:42.01	341.08	5.92	
2025-01-07 19:01:43.24	341.11	5.83	
2025-01-07 19:01:44.47	341.14	5.74	
2025-01-07 19:01:45.70	341.17	5.64	
2025-01-07 19:01:46.94	341.20	5.55	
2025-01-07 19:01:48.18	341.23	5.45	
2025-01-07 19:01:49.41	341.26	5.36	
2025-01-07 19:01:50.64	341.29	5.27	
2025-01-07 19:01:51.87	341.32	5.18	
2025-01-07 19:01:53.11	341.35	5.09	
2025-01-07 19:01:54.34	341.37	5.00	
2025-01-07 19:01:55.57	341.40	4.91	
2025-01-07 19:01:56.80	341.43	4.82	
2025-01-07 19:01:58.03	341.46	4.73	
2025-01-07 19:01:59.27	341.49	4.64	
2025-01-07 19:02:00.50	341.52	4.55	
2025-01-07 19:02:01.73	341.54	4.46	
2025-01-07 19:02:02.96	341.57	4.37	
2025-01-07 19:02:04.19	341.60	4.28	
2025-01-07 19:02:05.44	341.63	4.19	
2025-01-07 19:02:06.66	341.65	4.10	
2025-01-07 19:02:07.89	341.68	4.02	

#Closed at: 2025-01-07 19:02:08