passes_logs/2025/01/07/SPB_Silybum_02/SPB_Silybum_02__20250107_091354_TERRA_rec.log

#Pass ID: 20250107_091354_TERRA
#Satellite: TERRA
#Configuration: TERRA
#Start time: 2025-01-07 09:13:55

#Version: 2.0.20230423
#Station: SPB_Silybum_02
#Location: 30.233357 lon 59.946436 lat
#TLE: 1 25994U 99068A   25006.77118991  .00001382  00000+0  29492-3 0  9999
#TLE: 2 25994  98.0231  70.0628 0003576  88.8854  23.4584 14.60378914332871

#Time	Az	El	Level	Level2	SNR	BER	Gain	Gain2
2025-01-07 09:13:57.09	12.71	4.15	
2025-01-07 09:13:58.32	12.66	4.24	
2025-01-07 09:13:59.55	12.60	4.32	
2025-01-07 09:14:00.78	12.55	4.41	
2025-01-07 09:14:02.02	12.50	4.50	
2025-01-07 09:14:03.26	12.45	4.59	
2025-01-07 09:14:04.49	12.39	4.67	
2025-01-07 09:14:05.72	12.34	4.76	
2025-01-07 09:14:06.96	12.29	4.85	
2025-01-07 09:14:08.19	12.23	4.94	
2025-01-07 09:14:09.42	12.18	5.03	
2025-01-07 09:14:10.65	12.12	5.11	
2025-01-07 09:14:11.89	12.07	5.20	
2025-01-07 09:14:13.13	12.01	5.29	
2025-01-07 09:14:14.36	11.96	5.38	
2025-01-07 09:14:15.60	11.90	5.47	
2025-01-07 09:14:16.83	11.84	5.56	
2025-01-07 09:14:18.06	11.78	5.65	
2025-01-07 09:14:19.29	11.73	5.75	
2025-01-07 09:14:20.52	11.67	5.84	
2025-01-07 09:14:21.75	11.61	5.93	
2025-01-07 09:14:22.98	11.55	6.02	
2025-01-07 09:14:24.21	11.49	6.11	
2025-01-07 09:14:25.46	11.43	6.21	
2025-01-07 09:14:26.69	11.37	6.30	
2025-01-07 09:14:27.92	11.31	6.39	
2025-01-07 09:14:29.17	11.25	6.49	
2025-01-07 09:14:30.41	11.18	6.58	
2025-01-07 09:14:31.65	11.12	6.68	
2025-01-07 09:14:32.88	11.06	6.77	
2025-01-07 09:14:34.11	10.99	6.87	
2025-01-07 09:14:35.36	10.93	6.96	
2025-01-07 09:14:36.59	10.87	7.06	
2025-01-07 09:14:37.82	10.80	7.15	
2025-01-07 09:14:39.05	10.74	7.25	
2025-01-07 09:14:40.28	10.67	7.35	
2025-01-07 09:14:41.51	10.60	7.44	
2025-01-07 09:14:42.74	10.54	7.54	
2025-01-07 09:14:43.98	10.47	7.64	
2025-01-07 09:14:45.21	10.40	7.74	
2025-01-07 09:14:46.44	10.33	7.84	
2025-01-07 09:14:47.67	10.26	7.94	
2025-01-07 09:14:44.35	10.45	7.67	
2025-01-07 09:14:45.58	10.38	7.77	
2025-01-07 09:14:46.81	10.31	7.87	
2025-01-07 09:14:48.05	10.24	7.97	
2025-01-07 09:14:49.30	10.17	8.07	
2025-01-07 09:14:50.53	10.10	8.17	
2025-01-07 09:14:51.76	10.03	8.27	
2025-01-07 09:14:53.00	9.96	8.37	
2025-01-07 09:14:54.23	9.89	8.47	
2025-01-07 09:14:55.46	9.81	8.57	
2025-01-07 09:14:56.71	9.74	8.68	
2025-01-07 09:14:57.94	9.67	8.78	
2025-01-07 09:14:59.18	9.59	8.88	
2025-01-07 09:15:00.42	9.52	8.99	
2025-01-07 09:15:01.65	9.44	9.09	
2025-01-07 09:15:02.88	9.36	9.19	
2025-01-07 09:15:04.11	9.29	9.30	
2025-01-07 09:15:05.35	9.21	9.40	
2025-01-07 09:15:06.58	9.13	9.51	
2025-01-07 09:15:07.82	9.05	9.62	
2025-01-07 09:15:09.05	8.97	9.72	
2025-01-07 09:15:10.28	8.89	9.83	
2025-01-07 09:15:11.51	8.81	9.94	
2025-01-07 09:15:12.75	8.73	10.05	
2025-01-07 09:15:13.99	8.65	10.15	
2025-01-07 09:15:15.22	8.56	10.26	
2025-01-07 09:15:16.45	8.48	10.37	
2025-01-07 09:15:17.68	8.40	10.48	
2025-01-07 09:15:18.91	8.31	10.59	
2025-01-07 09:15:20.14	8.23	10.70	
2025-01-07 09:15:21.37	8.14	10.81	
2025-01-07 09:15:22.60	8.05	10.93	
2025-01-07 09:15:23.83	7.97	11.04	
2025-01-07 09:15:25.06	7.88	11.15	
2025-01-07 09:15:26.29	7.79	11.26	
2025-01-07 09:15:27.52	7.70	11.38	
2025-01-07 09:15:28.77	7.60	11.49	
2025-01-07 09:15:30.01	7.51	11.61	
2025-01-07 09:15:31.24	7.42	11.72	
2025-01-07 09:15:32.48	7.32	11.84	
2025-01-07 09:15:33.73	7.23	11.96	
2025-01-07 09:15:34.96	7.13	12.07	
2025-01-07 09:15:36.19	7.04	12.19	
2025-01-07 09:15:37.42	6.94	12.31	
2025-01-07 09:15:38.66	6.84	12.43	
2025-01-07 09:15:39.89	6.74	12.55	
2025-01-07 09:15:41.13	6.64	12.67	
2025-01-07 09:15:42.36	6.54	12.79	
2025-01-07 09:15:43.59	6.44	12.91	
2025-01-07 09:15:44.83	6.34	13.03	
2025-01-07 09:15:46.06	6.23	13.15	
2025-01-07 09:15:47.29	6.13	13.28	
2025-01-07 09:15:48.52	6.03	13.40	
2025-01-07 09:15:49.77	5.92	13.53	
2025-01-07 09:15:51.01	5.81	13.65	
2025-01-07 09:15:52.24	5.70	13.78	
2025-01-07 09:15:53.48	5.59	13.90	
2025-01-07 09:15:54.71	5.48	14.03	
2025-01-07 09:15:55.95	5.37	14.16	
2025-01-07 09:15:57.19	5.25	14.28	
2025-01-07 09:15:58.42	5.14	14.41	
2025-01-07 09:15:59.65	5.03	14.54	
2025-01-07 09:16:00.89	4.91	14.67	
2025-01-07 09:16:02.12	4.79	14.80	
2025-01-07 09:16:03.35	4.68	14.93	
2025-01-07 09:16:04.59	4.56	15.06	
2025-01-07 09:16:05.82	4.43	15.20	
2025-01-07 09:16:07.06	4.31	15.33	
2025-01-07 09:16:08.29	4.19	15.46	
2025-01-07 09:16:09.53	4.06	15.60	
2025-01-07 09:16:10.76	3.94	15.73	
2025-01-07 09:16:11.99	3.81	15.87	
2025-01-07 09:16:13.23	3.68	16.00	
2025-01-07 09:16:14.47	3.55	16.14	
2025-01-07 09:16:15.71	3.42	16.28	
2025-01-07 09:16:16.94	3.29	16.42	
2025-01-07 09:16:18.17	3.16	16.56	
2025-01-07 09:16:19.40	3.02	16.70	
2025-01-07 09:16:20.63	2.89	16.84	
2025-01-07 09:16:21.86	2.75	16.98	
2025-01-07 09:16:23.10	2.61	17.12	
2025-01-07 09:16:24.33	2.47	17.26	
2025-01-07 09:16:25.56	2.33	17.41	
2025-01-07 09:16:26.79	2.19	17.55	
2025-01-07 09:16:28.02	2.04	17.70	
2025-01-07 09:16:29.25	1.90	17.84	
2025-01-07 09:16:30.49	1.75	17.99	
2025-01-07 09:16:31.72	1.60	18.14	
2025-01-07 09:16:32.96	1.45	18.28	
2025-01-07 09:16:34.19	1.29	18.43	
2025-01-07 09:16:35.44	1.14	18.58	
2025-01-07 09:16:36.67	0.98	18.73	
2025-01-07 09:16:37.90	0.83	18.89	
2025-01-07 09:16:39.13	0.67	19.04	
2025-01-07 09:16:40.36	0.51	19.19	
2025-01-07 09:16:41.59	0.34	19.34	
2025-01-07 09:16:42.82	0.18	19.50	
2025-01-07 09:16:44.06	0.01	19.65	
2025-01-07 09:16:45.30	359.84	19.81	
2025-01-07 09:16:46.53	359.67	19.97	
2025-01-07 09:16:47.76	359.50	20.12	
2025-01-07 09:16:48.99	359.33	20.28	
2025-01-07 09:16:50.23	359.15	20.44	
2025-01-07 09:16:51.45	358.98	20.60	
2025-01-07 09:16:52.69	358.79	20.76	
2025-01-07 09:16:53.92	358.61	20.93	
2025-01-07 09:16:55.15	358.43	21.09	
2025-01-07 09:16:56.38	358.24	21.25	
2025-01-07 09:16:57.61	358.06	21.41	
2025-01-07 09:16:58.84	357.87	21.58	
2025-01-07 09:17:00.09	357.67	21.75	
2025-01-07 09:17:01.32	357.48	21.91	
2025-01-07 09:17:02.56	357.28	22.08	
2025-01-07 09:17:03.79	357.08	22.25	
2025-01-07 09:17:05.02	356.88	22.42	
2025-01-07 09:17:06.26	356.67	22.59	
2025-01-07 09:17:07.51	356.46	22.77	
2025-01-07 09:17:08.76	356.25	22.94	
2025-01-07 09:17:09.99	356.04	23.11	
2025-01-07 09:17:11.23	355.83	23.29	
2025-01-07 09:17:12.47	355.61	23.46	
2025-01-07 09:17:13.70	355.39	23.64	
2025-01-07 09:17:14.92	355.17	23.81	
2025-01-07 09:17:16.15	354.95	23.99	
2025-01-07 09:17:17.39	354.72	24.17	
2025-01-07 09:17:18.62	354.49	24.35	
2025-01-07 09:17:19.86	354.25	24.53	
2025-01-07 09:17:21.09	354.02	24.71	
2025-01-07 09:17:22.32	353.78	24.89	
2025-01-07 09:17:23.55	353.54	25.07	
2025-01-07 09:17:24.79	353.29	25.26	
2025-01-07 09:17:26.02	353.05	25.44	
2025-01-07 09:17:27.27	352.79	25.63	
2025-01-07 09:17:28.52	352.54	25.81	
2025-01-07 09:17:29.75	352.28	26.00	
2025-01-07 09:17:30.98	352.02	26.19	
2025-01-07 09:17:32.21	351.76	26.37	
2025-01-07 09:17:33.46	351.49	26.57	
2025-01-07 09:17:34.70	351.22	26.76	
2025-01-07 09:17:35.94	350.94	26.95	
2025-01-07 09:17:37.16	350.67	27.14	
2025-01-07 09:17:38.40	350.38	27.33	
2025-01-07 09:17:39.63	350.10	27.52	
2025-01-07 09:17:40.86	349.81	27.71	
2025-01-07 09:17:42.10	349.52	27.91	
2025-01-07 09:17:43.34	349.22	28.10	
2025-01-07 09:17:44.57	348.93	28.30	
2025-01-07 09:17:45.80	348.62	28.49	
2025-01-07 09:17:47.04	348.32	28.69	
2025-01-07 09:17:48.28	348.00	28.89	
2025-01-07 09:17:49.50	347.69	29.08	
2025-01-07 09:17:50.75	347.37	29.28	
2025-01-07 09:17:51.98	347.05	29.48	
2025-01-07 09:17:53.21	346.72	29.68	
2025-01-07 09:17:54.44	346.39	29.88	
2025-01-07 09:17:55.67	346.06	30.08	
2025-01-07 09:17:56.92	345.71	30.28	
2025-01-07 09:17:58.15	345.37	30.48	
2025-01-07 09:17:59.39	345.02	30.68	
2025-01-07 09:18:00.61	344.67	30.88	
2025-01-07 09:18:01.85	344.31	31.08	
2025-01-07 09:18:03.10	343.94	31.29	
2025-01-07 09:18:04.33	343.57	31.49	
2025-01-07 09:18:05.57	343.20	31.69	
2025-01-07 09:18:06.80	342.82	31.89	
2025-01-07 09:18:08.06	342.43	32.10	
2025-01-07 09:18:09.30	342.04	32.30	
2025-01-07 09:18:10.53	341.65	32.50	
2025-01-07 09:18:11.76	341.25	32.71	
2025-01-07 09:18:12.99	340.85	32.91	
2025-01-07 09:18:14.22	340.45	33.11	
2025-01-07 09:18:15.44	340.04	33.31	
2025-01-07 09:18:16.68	339.62	33.51	
2025-01-07 09:18:17.91	339.19	33.71	
2025-01-07 09:18:19.17	338.76	33.92	
2025-01-07 09:18:20.42	338.32	34.12	
2025-01-07 09:18:21.65	337.88	34.32	
2025-01-07 09:18:22.89	337.43	34.52	
2025-01-07 09:18:24.12	336.98	34.72	
2025-01-07 09:18:25.36	336.52	34.92	
2025-01-07 09:18:26.59	336.05	35.11	
2025-01-07 09:18:27.82	335.59	35.31	
2025-01-07 09:18:29.06	335.11	35.51	
2025-01-07 09:18:30.29	334.63	35.70	
2025-01-07 09:18:31.52	334.14	35.89	
2025-01-07 09:18:32.75	333.65	36.08	
2025-01-07 09:18:33.98	333.15	36.28	
2025-01-07 09:18:35.24	332.64	36.47	
2025-01-07 09:18:36.48	332.13	36.66	
2025-01-07 09:18:37.71	331.61	36.85	
2025-01-07 09:18:38.94	331.09	37.03	
2025-01-07 09:18:40.18	330.56	37.22	
2025-01-07 09:18:41.41	330.02	37.40	
2025-01-07 09:18:42.65	329.48	37.58	
2025-01-07 09:18:43.88	328.93	37.76	
2025-01-07 09:18:45.11	328.38	37.93	
2025-01-07 09:18:46.34	327.82	38.11	
2025-01-07 09:18:47.57	327.25	38.28	
2025-01-07 09:18:48.81	326.68	38.45	
2025-01-07 09:18:50.04	326.10	38.62	
2025-01-07 09:18:51.27	325.52	38.78	
2025-01-07 09:18:52.50	324.93	38.95	
2025-01-07 09:18:53.73	324.33	39.11	
2025-01-07 09:18:54.96	323.73	39.26	
2025-01-07 09:18:56.19	323.12	39.42	
2025-01-07 09:18:57.42	322.51	39.57	
2025-01-07 09:18:58.65	321.89	39.72	
2025-01-07 09:18:59.89	321.26	39.86	
2025-01-07 09:19:01.12	320.63	40.01	
2025-01-07 09:19:02.35	319.99	40.15	
2025-01-07 09:19:03.58	319.35	40.28	
2025-01-07 09:19:04.81	318.70	40.41	
2025-01-07 09:19:06.04	318.05	40.54	
2025-01-07 09:19:07.27	317.39	40.67	
2025-01-07 09:19:08.51	316.72	40.79	
2025-01-07 09:19:09.74	316.06	40.90	
2025-01-07 09:19:10.97	315.38	41.02	
2025-01-07 09:19:12.21	314.70	41.13	
2025-01-07 09:19:13.44	314.02	41.23	
2025-01-07 09:19:14.67	313.33	41.33	
2025-01-07 09:19:15.90	312.64	41.43	
2025-01-07 09:19:17.13	311.94	41.52	
2025-01-07 09:19:18.38	311.23	41.61	
2025-01-07 09:19:19.61	310.53	41.69	
2025-01-07 09:19:20.84	309.82	41.77	
2025-01-07 09:19:22.07	309.11	41.84	
2025-01-07 09:19:23.30	308.40	41.91	
2025-01-07 09:19:24.53	307.68	41.97	
2025-01-07 09:19:25.77	306.96	42.03	
2025-01-07 09:19:27.01	306.23	42.08	
2025-01-07 09:19:28.24	305.51	42.13	
2025-01-07 09:19:29.47	304.78	42.17	
2025-01-07 09:19:30.70	304.05	42.21	
2025-01-07 09:19:31.93	303.32	42.25	
2025-01-07 09:19:33.16	302.59	42.27	
2025-01-07 09:19:34.39	301.86	42.30	
2025-01-07 09:19:35.63	301.12	42.32	
2025-01-07 09:19:36.86	300.39	42.33	
2025-01-07 09:19:38.10	299.64	42.33	
2025-01-07 09:19:39.33	298.91	42.34	
2025-01-07 09:19:40.56	298.17	42.33	
2025-01-07 09:19:41.79	297.44	42.32	
2025-01-07 09:19:43.02	296.71	42.31	
2025-01-07 09:19:44.27	295.96	42.29	
2025-01-07 09:19:45.52	295.22	42.27	
2025-01-07 09:19:46.76	294.48	42.24	
2025-01-07 09:19:48.00	293.74	42.20	
2025-01-07 09:19:49.23	293.02	42.16	
2025-01-07 09:19:50.46	292.29	42.12	
2025-01-07 09:19:51.71	291.55	42.07	
2025-01-07 09:19:52.94	290.83	42.01	
2025-01-07 09:19:54.17	290.11	41.95	
2025-01-07 09:19:55.41	289.39	41.89	
2025-01-07 09:19:56.65	288.67	41.82	
2025-01-07 09:19:57.88	287.96	41.74	
2025-01-07 09:19:59.12	287.25	41.66	
2025-01-07 09:20:00.34	286.55	41.58	
2025-01-07 09:20:01.59	285.84	41.49	
2025-01-07 09:20:02.83	285.14	41.39	
2025-01-07 09:20:04.06	284.45	41.30	
2025-01-07 09:20:05.29	283.77	41.20	
2025-01-07 09:20:06.52	283.08	41.09	
2025-01-07 09:20:07.77	282.40	40.98	
2025-01-07 09:20:09.00	281.72	40.86	
2025-01-07 09:20:10.23	281.06	40.75	
2025-01-07 09:20:11.46	280.39	40.62	
2025-01-07 09:20:12.71	279.73	40.49	
2025-01-07 09:20:13.94	279.07	40.37	
2025-01-07 09:20:15.18	278.42	40.23	
2025-01-07 09:20:16.40	277.79	40.10	
2025-01-07 09:20:17.64	277.14	39.95	
2025-01-07 09:20:18.87	276.51	39.81	
2025-01-07 09:20:20.10	275.89	39.66	
2025-01-07 09:20:21.34	275.27	39.51	
2025-01-07 09:20:22.59	274.64	39.36	
2025-01-07 09:20:23.83	274.03	39.20	
2025-01-07 09:20:25.06	273.43	39.04	
2025-01-07 09:20:26.31	272.83	38.88	
2025-01-07 09:20:27.54	272.24	38.71	
2025-01-07 09:20:28.77	271.66	38.55	
2025-01-07 09:20:30.01	271.08	38.38	
2025-01-07 09:20:31.24	270.51	38.21	
2025-01-07 09:20:32.47	269.94	38.03	
2025-01-07 09:20:33.70	269.38	37.86	
2025-01-07 09:20:34.93	268.83	37.68	
2025-01-07 09:20:36.16	268.29	37.50	
2025-01-07 09:20:37.39	267.75	37.32	
2025-01-07 09:20:38.62	267.21	37.13	
2025-01-07 09:20:39.85	266.69	36.95	
2025-01-07 09:20:41.09	266.16	36.76	
2025-01-07 09:20:42.34	265.64	36.57	
2025-01-07 09:20:43.58	265.13	36.38	
2025-01-07 09:20:44.82	264.62	36.19	
2025-01-07 09:20:46.07	264.11	35.99	
2025-01-07 09:20:47.30	263.62	35.80	
2025-01-07 09:20:48.53	263.14	35.61	
2025-01-07 09:20:49.76	262.66	35.41	
2025-01-07 09:20:51.01	262.18	35.21	
2025-01-07 09:20:52.24	261.71	35.01	
2025-01-07 09:20:53.47	261.25	34.82	
2025-01-07 09:20:54.70	260.80	34.62	
2025-01-07 09:20:55.95	260.34	34.42	
2025-01-07 09:20:57.18	259.90	34.22	
2025-01-07 09:20:58.41	259.46	34.02	
2025-01-07 09:20:59.64	259.02	33.81	
2025-01-07 09:21:00.87	258.60	33.61	
2025-01-07 09:21:02.10	258.18	33.41	
2025-01-07 09:21:03.33	257.76	33.21	
2025-01-07 09:21:04.57	257.34	33.01	
2025-01-07 09:21:05.79	256.94	32.81	
2025-01-07 09:21:07.02	256.54	32.60	
2025-01-07 09:21:08.27	256.14	32.40	
2025-01-07 09:21:09.50	255.75	32.19	
2025-01-07 09:21:10.74	255.36	31.99	
2025-01-07 09:21:11.97	254.98	31.79	
2025-01-07 09:21:13.20	254.60	31.59	
2025-01-07 09:21:14.43	254.23	31.38	
2025-01-07 09:21:15.67	253.86	31.18	
2025-01-07 09:21:16.90	253.50	30.98	
2025-01-07 09:21:18.14	253.14	30.78	
2025-01-07 09:21:19.38	252.79	30.57	
2025-01-07 09:21:20.61	252.44	30.37	
2025-01-07 09:21:21.84	252.10	30.17	
2025-01-07 09:21:23.07	251.76	29.97	
2025-01-07 09:21:24.30	251.42	29.77	
2025-01-07 09:21:25.54	251.09	29.57	
2025-01-07 09:21:26.77	250.76	29.37	
2025-01-07 09:21:28.01	250.44	29.17	
2025-01-07 09:21:29.24	250.12	28.97	
2025-01-07 09:21:30.47	249.81	28.78	
2025-01-07 09:21:31.70	249.50	28.58	
2025-01-07 09:21:32.93	249.19	28.38	
2025-01-07 09:21:34.17	248.89	28.19	
2025-01-07 09:21:35.40	248.59	27.99	
2025-01-07 09:21:36.63	248.30	27.80	
2025-01-07 09:21:37.88	248.00	27.60	
2025-01-07 09:21:39.11	247.71	27.41	
2025-01-07 09:21:40.34	247.43	27.21	
2025-01-07 09:21:41.58	247.15	27.02	
2025-01-07 09:21:42.82	246.87	26.83	
2025-01-07 09:21:44.07	246.59	26.63	
2025-01-07 09:21:45.30	246.32	26.45	
2025-01-07 09:21:46.55	246.05	26.25	
2025-01-07 09:21:47.78	245.79	26.07	
2025-01-07 09:21:49.04	245.53	25.87	
2025-01-07 09:21:50.27	245.27	25.69	
2025-01-07 09:21:51.50	245.02	25.50	
2025-01-07 09:21:52.73	244.77	25.32	
2025-01-07 09:21:53.98	244.52	25.13	
2025-01-07 09:21:55.21	244.27	24.95	
2025-01-07 09:21:56.44	244.03	24.77	
2025-01-07 09:21:57.67	243.79	24.58	
2025-01-07 09:21:58.91	243.56	24.40	
2025-01-07 09:22:00.14	243.32	24.22	
2025-01-07 09:22:01.38	243.09	24.04	
2025-01-07 09:22:02.63	242.86	23.86	
2025-01-07 09:22:03.86	242.64	23.68	
2025-01-07 09:22:05.09	242.42	23.51	
2025-01-07 09:22:06.33	242.20	23.33	
2025-01-07 09:22:07.57	241.98	23.15	
2025-01-07 09:22:08.80	241.77	22.98	
2025-01-07 09:22:10.03	241.55	22.81	
2025-01-07 09:22:11.27	241.34	22.63	
2025-01-07 09:22:12.51	241.14	22.46	
2025-01-07 09:22:13.74	240.93	22.29	
2025-01-07 09:22:14.98	240.73	22.12	
2025-01-07 09:22:16.21	240.53	21.95	
2025-01-07 09:22:17.44	240.33	21.78	
2025-01-07 09:22:18.68	240.14	21.61	
2025-01-07 09:22:19.92	239.94	21.45	
2025-01-07 09:22:21.17	239.75	21.28	
2025-01-07 09:22:22.40	239.56	21.12	
2025-01-07 09:22:23.63	239.38	20.95	
2025-01-07 09:22:24.86	239.19	20.79	
2025-01-07 09:22:26.09	239.01	20.63	
2025-01-07 09:22:27.32	238.83	20.47	
2025-01-07 09:22:28.55	238.65	20.31	
2025-01-07 09:22:29.78	238.48	20.15	
2025-01-07 09:22:31.01	238.31	19.99	
2025-01-07 09:22:32.26	238.13	19.83	
2025-01-07 09:22:33.49	237.96	19.67	
2025-01-07 09:22:34.72	237.79	19.52	
2025-01-07 09:22:35.95	237.63	19.36	
2025-01-07 09:22:37.20	237.46	19.20	
2025-01-07 09:22:38.44	237.30	19.05	
2025-01-07 09:22:39.67	237.13	18.90	
2025-01-07 09:22:40.91	236.97	18.74	
2025-01-07 09:22:42.14	236.82	18.59	
2025-01-07 09:22:43.37	236.66	18.44	
2025-01-07 09:22:44.60	236.51	18.29	
2025-01-07 09:22:45.83	236.35	18.14	
2025-01-07 09:22:47.07	236.20	17.99	
2025-01-07 09:22:48.30	236.05	17.85	
2025-01-07 09:22:49.54	235.90	17.70	
2025-01-07 09:22:50.78	235.76	17.55	
2025-01-07 09:22:52.02	235.61	17.41	
2025-01-07 09:22:53.25	235.47	17.26	
2025-01-07 09:22:54.48	235.32	17.12	
2025-01-07 09:22:55.72	235.18	16.97	
2025-01-07 09:22:56.95	235.04	16.83	
2025-01-07 09:22:58.19	234.91	16.69	
2025-01-07 09:22:59.42	234.77	16.55	
2025-01-07 09:23:00.65	234.64	16.41	
2025-01-07 09:23:01.88	234.50	16.27	
2025-01-07 09:23:03.11	234.37	16.13	
2025-01-07 09:23:04.34	234.24	15.99	
2025-01-07 09:23:05.57	234.11	15.86	
2025-01-07 09:23:06.81	233.98	15.72	
2025-01-07 09:23:08.04	233.85	15.59	
2025-01-07 09:23:09.27	233.73	15.45	
2025-01-07 09:23:10.52	233.60	15.31	
2025-01-07 09:23:11.76	233.48	15.18	
2025-01-07 09:23:12.99	233.36	15.05	
2025-01-07 09:23:14.23	233.23	14.91	
2025-01-07 09:23:15.48	233.11	14.78	
2025-01-07 09:23:16.71	232.99	14.65	
2025-01-07 09:23:17.95	232.88	14.52	
2025-01-07 09:23:19.18	232.76	14.39	
2025-01-07 09:23:20.41	232.64	14.26	
2025-01-07 09:23:21.64	232.53	14.13	
2025-01-07 09:23:22.87	232.42	14.00	
2025-01-07 09:23:24.11	232.30	13.88	
2025-01-07 09:23:25.34	232.19	13.75	
2025-01-07 09:23:26.57	232.08	13.62	
2025-01-07 09:23:27.80	231.97	13.50	
2025-01-07 09:23:29.03	231.87	13.38	
2025-01-07 09:23:30.27	231.76	13.25	
2025-01-07 09:23:31.52	231.65	13.13	
2025-01-07 09:23:32.76	231.55	13.00	
2025-01-07 09:23:34.00	231.44	12.88	
2025-01-07 09:23:35.23	231.34	12.76	
2025-01-07 09:23:36.47	231.24	12.64	
2025-01-07 09:23:37.70	231.13	12.52	
2025-01-07 09:23:38.93	231.03	12.40	
2025-01-07 09:23:40.16	230.94	12.28	
2025-01-07 09:23:41.39	230.84	12.16	
2025-01-07 09:23:42.63	230.74	12.04	
2025-01-07 09:23:43.87	230.64	11.92	
2025-01-07 09:23:45.10	230.55	11.80	
2025-01-07 09:23:46.33	230.45	11.69	
2025-01-07 09:23:47.56	230.36	11.57	
2025-01-07 09:23:48.81	230.26	11.45	
2025-01-07 09:23:50.04	230.17	11.34	
2025-01-07 09:23:51.27	230.08	11.23	
2025-01-07 09:23:52.52	229.98	11.11	
2025-01-07 09:23:53.75	229.89	11.00	
2025-01-07 09:23:54.99	229.80	10.88	
2025-01-07 09:23:56.23	229.72	10.77	
2025-01-07 09:23:57.46	229.63	10.66	
2025-01-07 09:23:58.69	229.54	10.55	
2025-01-07 09:23:59.91	229.45	10.44	
2025-01-07 09:24:01.16	229.37	10.33	
2025-01-07 09:24:02.39	229.28	10.22	
2025-01-07 09:24:03.63	229.20	10.11	
2025-01-07 09:24:04.86	229.11	10.00	
2025-01-07 09:24:06.09	229.03	9.89	
2025-01-07 09:24:07.32	228.95	9.78	
2025-01-07 09:24:08.55	228.87	9.67	
2025-01-07 09:24:09.78	228.79	9.57	
2025-01-07 09:24:11.02	228.71	9.46	
2025-01-07 09:24:12.25	228.63	9.35	
2025-01-07 09:24:13.50	228.55	9.25	
2025-01-07 09:24:14.73	228.47	9.14	
2025-01-07 09:24:15.96	228.39	9.04	
2025-01-07 09:24:17.19	228.31	8.93	
2025-01-07 09:24:18.43	228.24	8.83	
2025-01-07 09:24:19.66	228.16	8.72	
2025-01-07 09:24:20.89	228.09	8.62	
2025-01-07 09:24:22.12	228.01	8.52	
2025-01-07 09:24:23.36	227.94	8.42	
2025-01-07 09:24:24.59	227.87	8.31	
2025-01-07 09:24:25.83	227.79	8.21	
2025-01-07 09:24:27.07	227.72	8.11	
2025-01-07 09:24:28.30	227.65	8.01	
2025-01-07 09:24:29.53	227.58	7.91	
2025-01-07 09:24:30.77	227.51	7.81	
2025-01-07 09:24:32.00	227.44	7.71	
2025-01-07 09:24:33.23	227.37	7.61	
2025-01-07 09:24:34.47	227.30	7.51	
2025-01-07 09:24:35.70	227.23	7.41	
2025-01-07 09:24:36.93	227.16	7.32	
2025-01-07 09:24:38.16	227.09	7.22	
2025-01-07 09:24:39.40	227.03	7.12	
2025-01-07 09:24:40.63	226.96	7.03	
2025-01-07 09:24:41.86	226.89	6.93	
2025-01-07 09:24:43.09	226.83	6.83	
2025-01-07 09:24:44.32	226.76	6.74	
2025-01-07 09:24:45.57	226.70	6.64	
2025-01-07 09:24:46.80	226.63	6.55	
2025-01-07 09:24:48.03	226.57	6.45	
2025-01-07 09:24:49.27	226.51	6.36	
2025-01-07 09:24:50.50	226.45	6.26	
2025-01-07 09:24:51.74	226.38	6.17	
2025-01-07 09:24:52.97	226.32	6.08	
2025-01-07 09:24:54.21	226.26	5.98	
2025-01-07 09:24:55.44	226.20	5.89	
2025-01-07 09:24:56.67	226.14	5.80	
2025-01-07 09:24:57.90	226.08	5.71	
2025-01-07 09:24:59.15	226.02	5.61	
2025-01-07 09:25:00.38	225.96	5.52	
2025-01-07 09:25:01.61	225.90	5.43	
2025-01-07 09:25:02.86	225.84	5.34	
2025-01-07 09:25:04.09	225.79	5.25	
2025-01-07 09:25:05.33	225.73	5.16	
2025-01-07 09:25:06.56	225.67	5.07	
2025-01-07 09:25:07.79	225.61	4.98	
2025-01-07 09:25:09.03	225.56	4.89	
2025-01-07 09:25:10.27	225.50	4.80	
2025-01-07 09:25:11.50	225.45	4.72	
2025-01-07 09:25:12.73	225.39	4.63	
2025-01-07 09:25:13.97	225.34	4.54	
2025-01-07 09:25:15.20	225.28	4.45	
2025-01-07 09:25:16.45	225.23	4.36	
2025-01-07 09:25:17.69	225.17	4.28	
2025-01-07 09:25:18.92	225.12	4.19	
2025-01-07 09:25:20.15	225.07	4.10	
2025-01-07 09:25:21.38	225.02	4.02	

#Closed at: 2025-01-07 09:25:21