passes_logs/2025/01/07/SPB_Silybum_02/SPB_Silybum_02__20250107_230046_AQUA_rec.log

#Pass ID: 20250107_230046_AQUA
#Satellite: AQUA
#Configuration: AQUA
#Start time: 2025-01-07 23:00:47

#Version: 2.0.20230423
#Station: SPB_Silybum_02
#Location: 30.233357 lon 59.946436 lat
#TLE: 1 27424U 02022A   25007.20663841  .00002684  00000+0  56113-3 0  9997
#TLE: 2 27424  98.3577 323.8011 0001408 118.8980 354.1988 14.60651824206481

#Time	Az	El	Level	Level2	SNR	BER	Gain	Gain2
2025-01-07 23:00:49.34	38.49	4.12	
2025-01-07 23:00:50.16	38.60	4.16	
2025-01-07 23:00:50.98	38.71	4.19	
2025-01-07 23:00:51.80	38.81	4.23	
2025-01-07 23:00:52.62	38.92	4.26	
2025-01-07 23:00:53.44	39.04	4.30	
2025-01-07 23:00:54.28	39.15	4.33	
2025-01-07 23:00:55.09	39.26	4.36	
2025-01-07 23:00:55.91	39.37	4.40	
2025-01-07 23:00:56.73	39.48	4.43	
2025-01-07 23:00:57.56	39.59	4.47	
2025-01-07 23:00:58.38	39.70	4.50	
2025-01-07 23:00:59.20	39.82	4.54	
2025-01-07 23:01:00.01	39.93	4.57	
2025-01-07 23:01:00.83	40.04	4.60	
2025-01-07 23:01:01.66	40.16	4.64	
2025-01-07 23:01:02.48	40.27	4.67	
2025-01-07 23:01:03.30	40.38	4.71	
2025-01-07 23:01:04.12	40.50	4.74	
2025-01-07 23:01:04.94	40.61	4.77	
2025-01-07 23:01:05.76	40.72	4.81	
2025-01-07 23:01:06.58	40.84	4.84	
2025-01-07 23:01:07.40	40.95	4.88	
2025-01-07 23:01:08.23	41.07	4.91	
2025-01-07 23:01:09.04	41.18	4.94	
2025-01-07 23:01:09.87	41.30	4.98	
2025-01-07 23:01:10.69	41.42	5.01	
2025-01-07 23:01:11.51	41.53	5.04	
2025-01-07 23:01:12.33	41.65	5.08	
2025-01-07 23:01:13.16	41.77	5.11	
2025-01-07 23:01:13.98	41.89	5.15	
2025-01-07 23:01:14.80	42.00	5.18	
2025-01-07 23:01:15.64	42.12	5.21	
2025-01-07 23:01:16.46	42.24	5.25	
2025-01-07 23:01:17.28	42.36	5.28	
2025-01-07 23:01:18.10	42.48	5.31	
2025-01-07 23:01:18.92	42.60	5.35	
2025-01-07 23:01:19.74	42.72	5.38	
2025-01-07 23:01:20.56	42.84	5.41	
2025-01-07 23:01:21.38	42.96	5.44	
2025-01-07 23:01:22.20	43.08	5.48	
2025-01-07 23:01:23.02	43.20	5.51	
2025-01-07 23:01:23.84	43.32	5.54	
2025-01-07 23:01:24.66	43.44	5.58	
2025-01-07 23:01:25.48	43.56	5.61	
2025-01-07 23:01:26.32	43.68	5.64	
2025-01-07 23:01:27.15	43.81	5.68	
2025-01-07 23:01:27.97	43.93	5.71	
2025-01-07 23:01:28.80	44.05	5.74	
2025-01-07 23:01:29.62	44.18	5.77	
2025-01-07 23:01:30.44	44.30	5.81	
2025-01-07 23:01:31.26	44.42	5.84	
2025-01-07 23:01:32.09	44.55	5.87	
2025-01-07 23:01:32.90	44.67	5.90	
2025-01-07 23:01:33.74	44.80	5.94	
2025-01-07 23:01:34.56	44.92	5.97	
2025-01-07 23:01:35.38	45.05	6.00	
2025-01-07 23:01:36.20	45.17	6.03	
2025-01-07 23:01:37.02	45.30	6.06	
2025-01-07 23:01:37.84	45.42	6.10	
2025-01-07 23:01:38.66	45.55	6.13	
2025-01-07 23:01:39.48	45.67	6.16	
2025-01-07 23:01:40.30	45.80	6.19	
2025-01-07 23:01:41.12	45.93	6.22	
2025-01-07 23:01:41.96	46.06	6.25	
2025-01-07 23:01:42.78	46.19	6.29	
2025-01-07 23:01:43.60	46.31	6.32	
2025-01-07 23:01:44.42	46.44	6.35	
2025-01-07 23:01:45.24	46.57	6.38	
2025-01-07 23:01:46.06	46.70	6.41	
2025-01-07 23:01:46.88	46.83	6.44	
2025-01-07 23:01:47.72	46.96	6.47	
2025-01-07 23:01:48.54	47.09	6.50	
2025-01-07 23:01:49.37	47.22	6.54	
2025-01-07 23:01:50.19	47.35	6.57	
2025-01-07 23:01:51.02	47.48	6.60	
2025-01-07 23:01:51.83	47.61	6.63	
2025-01-07 23:01:52.65	47.74	6.66	
2025-01-07 23:01:53.47	47.87	6.69	
2025-01-07 23:01:54.30	48.00	6.72	
2025-01-07 23:01:55.12	48.14	6.75	
2025-01-07 23:01:55.94	48.27	6.78	
2025-01-07 23:01:56.76	48.40	6.81	
2025-01-07 23:01:57.59	48.53	6.84	
2025-01-07 23:01:58.41	48.67	6.87	
2025-01-07 23:01:59.24	48.80	6.90	
2025-01-07 23:02:00.06	48.94	6.93	
2025-01-07 23:02:00.90	49.07	6.96	
2025-01-07 23:02:01.72	49.21	6.99	
2025-01-07 23:02:02.54	49.34	7.02	
2025-01-07 23:02:03.36	49.48	7.05	
2025-01-07 23:02:04.19	49.61	7.08	
2025-01-07 23:02:05.03	49.75	7.11	
2025-01-07 23:02:05.85	49.89	7.14	
2025-01-07 23:02:06.69	50.03	7.17	
2025-01-07 23:02:07.51	50.16	7.20	
2025-01-07 23:02:08.35	50.30	7.23	
2025-01-07 23:02:09.17	50.44	7.26	
2025-01-07 23:02:09.99	50.57	7.28	
2025-01-07 23:02:10.82	50.71	7.31	
2025-01-07 23:02:11.64	50.85	7.34	
2025-01-07 23:02:12.47	50.99	7.37	
2025-01-07 23:02:13.29	51.13	7.40	
2025-01-07 23:02:14.11	51.27	7.43	
2025-01-07 23:02:14.93	51.41	7.46	
2025-01-07 23:02:15.75	51.54	7.48	
2025-01-07 23:02:16.57	51.68	7.51	
2025-01-07 23:02:17.40	51.82	7.54	
2025-01-07 23:02:18.22	51.96	7.57	
2025-01-07 23:02:19.04	52.10	7.59	
2025-01-07 23:02:19.86	52.24	7.62	
2025-01-07 23:02:20.68	52.39	7.65	
2025-01-07 23:02:21.51	52.53	7.68	
2025-01-07 23:02:22.34	52.67	7.70	
2025-01-07 23:02:23.16	52.81	7.73	
2025-01-07 23:02:23.98	52.95	7.76	
2025-01-07 23:02:24.80	53.10	7.79	
2025-01-07 23:02:25.62	53.24	7.81	
2025-01-07 23:02:26.46	53.38	7.84	
2025-01-07 23:02:27.28	53.53	7.87	
2025-01-07 23:02:28.10	53.67	7.89	
2025-01-07 23:02:28.92	53.81	7.92	
2025-01-07 23:02:29.74	53.96	7.95	
2025-01-07 23:02:30.57	54.10	7.97	
2025-01-07 23:02:31.39	54.25	8.00	
2025-01-07 23:02:32.21	54.39	8.02	
2025-01-07 23:02:33.04	54.54	8.05	
2025-01-07 23:02:33.86	54.68	8.08	
2025-01-07 23:02:34.68	54.83	8.10	
2025-01-07 23:02:35.50	54.97	8.13	
2025-01-07 23:02:36.32	55.12	8.15	
2025-01-07 23:02:37.14	55.27	8.18	
2025-01-07 23:02:37.96	55.41	8.20	
2025-01-07 23:02:38.78	55.56	8.23	
2025-01-07 23:02:39.60	55.71	8.25	
2025-01-07 23:02:40.42	55.85	8.28	
2025-01-07 23:02:41.25	56.00	8.30	
2025-01-07 23:02:42.07	56.15	8.32	
2025-01-07 23:02:42.89	56.30	8.35	
2025-01-07 23:02:43.73	56.45	8.37	
2025-01-07 23:02:44.55	56.60	8.40	
2025-01-07 23:02:45.37	56.75	8.42	
2025-01-07 23:02:46.19	56.90	8.45	
2025-01-07 23:02:47.01	57.05	8.47	
2025-01-07 23:02:47.84	57.20	8.49	
2025-01-07 23:02:48.65	57.35	8.52	
2025-01-07 23:02:49.47	57.50	8.54	
2025-01-07 23:02:50.29	57.65	8.56	
2025-01-07 23:02:51.11	57.80	8.58	
2025-01-07 23:02:51.93	57.95	8.61	
2025-01-07 23:02:52.75	58.10	8.63	
2025-01-07 23:02:53.57	58.25	8.65	
2025-01-07 23:02:54.39	58.40	8.67	
2025-01-07 23:02:55.22	58.55	8.70	
2025-01-07 23:02:56.04	58.71	8.72	
2025-01-07 23:02:56.86	58.86	8.74	
2025-01-07 23:02:57.67	59.01	8.76	
2025-01-07 23:02:58.50	59.16	8.78	
2025-01-07 23:02:59.32	59.32	8.81	
2025-01-07 23:03:00.13	59.47	8.83	
2025-01-07 23:03:00.96	59.62	8.85	
2025-01-07 23:03:01.78	59.78	8.87	
2025-01-07 23:03:02.60	59.93	8.89	
2025-01-07 23:03:03.43	60.09	8.91	
2025-01-07 23:03:04.25	60.24	8.93	
2025-01-07 23:03:05.07	60.40	8.95	
2025-01-07 23:03:05.89	60.55	8.97	
2025-01-07 23:03:06.71	60.71	8.99	
2025-01-07 23:03:07.53	60.86	9.01	
2025-01-07 23:03:08.35	61.02	9.03	
2025-01-07 23:03:09.18	61.18	9.05	
2025-01-07 23:03:10.00	61.33	9.07	
2025-01-07 23:03:10.82	61.49	9.09	
2025-01-07 23:03:11.64	61.64	9.11	
2025-01-07 23:03:12.46	61.80	9.13	
2025-01-07 23:03:13.29	61.96	9.15	
2025-01-07 23:03:14.11	62.12	9.17	
2025-01-07 23:03:14.93	62.27	9.19	
2025-01-07 23:03:15.74	62.43	9.20	
2025-01-07 23:03:16.57	62.59	9.22	
2025-01-07 23:03:17.39	62.75	9.24	
2025-01-07 23:03:18.21	62.91	9.26	
2025-01-07 23:03:19.04	63.07	9.28	
2025-01-07 23:03:19.86	63.22	9.29	
2025-01-07 23:03:20.69	63.38	9.31	
2025-01-07 23:03:21.51	63.54	9.33	
2025-01-07 23:03:22.33	63.70	9.35	
2025-01-07 23:03:23.17	63.87	9.36	
2025-01-07 23:03:23.99	64.03	9.38	
2025-01-07 23:03:24.81	64.19	9.40	
2025-01-07 23:03:25.63	64.35	9.41	
2025-01-07 23:03:26.46	64.51	9.43	
2025-01-07 23:03:27.28	64.67	9.44	
2025-01-07 23:03:28.09	64.83	9.46	
2025-01-07 23:03:28.91	64.99	9.48	
2025-01-07 23:03:29.73	65.15	9.49	
2025-01-07 23:03:30.55	65.31	9.51	
2025-01-07 23:03:31.37	65.47	9.52	
2025-01-07 23:03:32.20	65.63	9.54	
2025-01-07 23:03:33.01	65.79	9.55	
2025-01-07 23:03:33.83	65.96	9.57	
2025-01-07 23:03:34.66	66.12	9.58	
2025-01-07 23:03:35.48	66.28	9.59	
2025-01-07 23:03:36.30	66.44	9.61	
2025-01-07 23:03:37.12	66.61	9.62	
2025-01-07 23:03:37.94	66.77	9.64	
2025-01-07 23:03:38.78	66.94	9.65	
2025-01-07 23:03:39.60	67.10	9.66	
2025-01-07 23:03:40.42	67.26	9.68	
2025-01-07 23:03:41.25	67.43	9.69	
2025-01-07 23:03:42.07	67.59	9.70	
2025-01-07 23:03:42.89	67.75	9.71	
2025-01-07 23:03:43.71	67.92	9.73	
2025-01-07 23:03:44.54	68.08	9.74	
2025-01-07 23:03:45.36	68.25	9.75	
2025-01-07 23:03:46.18	68.41	9.76	
2025-01-07 23:03:47.00	68.58	9.77	
2025-01-07 23:03:47.82	68.74	9.79	
2025-01-07 23:03:48.64	68.91	9.80	
2025-01-07 23:03:49.47	69.07	9.81	
2025-01-07 23:03:50.29	69.24	9.82	
2025-01-07 23:03:51.10	69.40	9.83	
2025-01-07 23:03:51.93	69.57	9.84	
2025-01-07 23:03:52.75	69.73	9.85	
2025-01-07 23:03:53.57	69.90	9.86	
2025-01-07 23:03:54.39	70.06	9.87	
2025-01-07 23:03:55.21	70.23	9.88	
2025-01-07 23:03:56.03	70.39	9.89	
2025-01-07 23:03:56.85	70.56	9.90	
2025-01-07 23:03:57.67	70.73	9.91	
2025-01-07 23:03:58.49	70.89	9.92	
2025-01-07 23:03:59.31	71.06	9.93	
2025-01-07 23:04:00.13	71.22	9.93	
2025-01-07 23:04:00.95	71.39	9.94	
2025-01-07 23:04:01.78	71.56	9.95	
2025-01-07 23:04:02.60	71.73	9.96	
2025-01-07 23:04:03.43	71.89	9.97	
2025-01-07 23:04:04.25	72.06	9.97	
2025-01-07 23:04:05.09	72.23	9.98	
2025-01-07 23:04:05.91	72.40	9.99	
2025-01-07 23:04:06.73	72.57	10.00	
2025-01-07 23:04:07.55	72.73	10.00	
2025-01-07 23:04:08.38	72.90	10.01	
2025-01-07 23:04:09.21	73.07	10.02	
2025-01-07 23:04:10.04	73.24	10.02	
2025-01-07 23:04:10.87	73.41	10.03	
2025-01-07 23:04:11.69	73.58	10.03	
2025-01-07 23:04:12.51	73.75	10.04	
2025-01-07 23:04:13.33	73.91	10.04	
2025-01-07 23:04:14.15	74.08	10.05	
2025-01-07 23:04:14.97	74.25	10.05	
2025-01-07 23:04:15.79	74.42	10.06	
2025-01-07 23:04:16.61	74.59	10.06	
2025-01-07 23:04:17.44	74.76	10.07	
2025-01-07 23:04:18.26	74.92	10.07	
2025-01-07 23:04:19.08	75.09	10.07	
2025-01-07 23:04:19.90	75.26	10.08	
2025-01-07 23:04:20.73	75.43	10.08	
2025-01-07 23:04:21.55	75.60	10.09	
2025-01-07 23:04:22.38	75.77	10.09	
2025-01-07 23:04:23.20	75.94	10.09	
2025-01-07 23:04:24.02	76.10	10.09	
2025-01-07 23:04:24.84	76.27	10.10	
2025-01-07 23:04:25.66	76.44	10.10	
2025-01-07 23:04:26.48	76.61	10.10	
2025-01-07 23:04:27.30	76.78	10.10	
2025-01-07 23:04:28.12	76.95	10.10	
2025-01-07 23:04:28.94	77.12	10.10	
2025-01-07 23:04:29.76	77.28	10.11	
2025-01-07 23:04:30.59	77.45	10.11	
2025-01-07 23:04:31.42	77.63	10.11	
2025-01-07 23:04:32.24	77.79	10.11	
2025-01-07 23:04:33.06	77.96	10.11	
2025-01-07 23:04:33.88	78.13	10.11	
2025-01-07 23:04:34.71	78.30	10.11	
2025-01-07 23:04:35.53	78.47	10.11	
2025-01-07 23:04:36.35	78.64	10.11	
2025-01-07 23:04:37.17	78.81	10.11	
2025-01-07 23:04:37.99	78.98	10.11	
2025-01-07 23:04:38.81	79.14	10.10	
2025-01-07 23:04:39.63	79.31	10.10	
2025-01-07 23:04:40.45	79.48	10.10	
2025-01-07 23:04:41.27	79.65	10.10	
2025-01-07 23:04:42.09	79.82	10.10	
2025-01-07 23:04:42.93	79.99	10.10	
2025-01-07 23:04:43.75	80.16	10.09	
2025-01-07 23:04:44.57	80.33	10.09	
2025-01-07 23:04:45.39	80.50	10.09	
2025-01-07 23:04:46.22	80.67	10.08	
2025-01-07 23:04:47.04	80.84	10.08	
2025-01-07 23:04:47.87	81.01	10.08	
2025-01-07 23:04:48.69	81.17	10.07	
2025-01-07 23:04:49.52	81.34	10.07	
2025-01-07 23:04:50.34	81.51	10.07	
2025-01-07 23:04:51.16	81.68	10.06	
2025-01-07 23:04:51.98	81.85	10.06	
2025-01-07 23:04:52.80	82.02	10.05	
2025-01-07 23:04:53.62	82.18	10.05	
2025-01-07 23:04:54.44	82.35	10.04	
2025-01-07 23:04:55.26	82.52	10.04	
2025-01-07 23:04:56.08	82.69	10.03	
2025-01-07 23:04:56.90	82.86	10.03	
2025-01-07 23:04:57.72	83.02	10.02	
2025-01-07 23:04:58.54	83.19	10.01	
2025-01-07 23:04:59.37	83.36	10.01	
2025-01-07 23:05:00.19	83.53	10.00	
2025-01-07 23:05:01.02	83.70	9.99	
2025-01-07 23:05:01.84	83.86	9.99	
2025-01-07 23:05:02.66	84.03	9.98	
2025-01-07 23:05:03.48	84.20	9.97	
2025-01-07 23:05:04.31	84.37	9.97	
2025-01-07 23:05:05.13	84.53	9.96	
2025-01-07 23:05:05.94	84.70	9.95	
2025-01-07 23:05:06.76	84.87	9.94	
2025-01-07 23:05:07.58	85.03	9.93	
2025-01-07 23:05:08.40	85.20	9.93	
2025-01-07 23:05:09.24	85.37	9.92	
2025-01-07 23:05:10.05	85.53	9.91	
2025-01-07 23:05:10.87	85.70	9.90	
2025-01-07 23:05:11.69	85.87	9.89	
2025-01-07 23:05:12.52	86.03	9.88	
2025-01-07 23:05:13.34	86.20	9.87	
2025-01-07 23:05:14.16	86.37	9.86	
2025-01-07 23:05:14.98	86.53	9.85	
2025-01-07 23:05:15.80	86.70	9.84	
2025-01-07 23:05:16.62	86.86	9.83	
2025-01-07 23:05:17.44	87.03	9.82	
2025-01-07 23:05:18.26	87.19	9.81	
2025-01-07 23:05:19.08	87.36	9.80	
2025-01-07 23:05:19.90	87.52	9.79	
2025-01-07 23:05:20.72	87.69	9.77	
2025-01-07 23:05:21.55	87.86	9.76	
2025-01-07 23:05:22.37	88.02	9.75	
2025-01-07 23:05:23.19	88.18	9.74	
2025-01-07 23:05:24.01	88.35	9.73	
2025-01-07 23:05:24.83	88.51	9.71	
2025-01-07 23:05:25.65	88.68	9.70	
2025-01-07 23:05:26.47	88.84	9.69	
2025-01-07 23:05:27.30	89.01	9.67	
2025-01-07 23:05:28.12	89.17	9.66	
2025-01-07 23:05:28.94	89.33	9.65	
2025-01-07 23:05:29.76	89.50	9.63	
2025-01-07 23:05:30.58	89.66	9.62	
2025-01-07 23:05:31.40	89.82	9.61	
2025-01-07 23:05:32.22	89.99	9.59	
2025-01-07 23:05:33.04	90.15	9.58	
2025-01-07 23:05:33.87	90.31	9.56	
2025-01-07 23:05:34.69	90.47	9.55	
2025-01-07 23:05:35.52	90.64	9.53	
2025-01-07 23:05:36.35	90.80	9.52	
2025-01-07 23:05:37.17	90.96	9.50	
2025-01-07 23:05:38.01	91.13	9.49	
2025-01-07 23:05:38.83	91.29	9.47	
2025-01-07 23:05:39.65	91.45	9.46	
2025-01-07 23:05:40.47	91.61	9.44	
2025-01-07 23:05:41.29	91.77	9.43	
2025-01-07 23:05:42.11	91.93	9.41	
2025-01-07 23:05:42.94	92.10	9.39	
2025-01-07 23:05:43.77	92.26	9.38	
2025-01-07 23:05:44.59	92.42	9.36	
2025-01-07 23:05:45.42	92.58	9.34	
2025-01-07 23:05:46.25	92.74	9.32	
2025-01-07 23:05:47.07	92.90	9.31	
2025-01-07 23:05:47.89	93.06	9.29	
2025-01-07 23:05:48.71	93.22	9.27	
2025-01-07 23:05:49.55	93.38	9.25	
2025-01-07 23:05:50.37	93.54	9.24	
2025-01-07 23:05:51.19	93.70	9.22	
2025-01-07 23:05:52.03	93.86	9.20	
2025-01-07 23:05:52.85	94.02	9.18	
2025-01-07 23:05:53.68	94.18	9.16	
2025-01-07 23:05:54.52	94.34	9.14	
2025-01-07 23:05:55.34	94.50	9.12	
2025-01-07 23:05:56.16	94.66	9.10	
2025-01-07 23:05:56.98	94.81	9.08	
2025-01-07 23:05:57.80	94.97	9.06	
2025-01-07 23:05:58.62	95.13	9.05	
2025-01-07 23:05:59.44	95.28	9.03	
2025-01-07 23:06:00.26	95.44	9.01	
2025-01-07 23:06:01.09	95.60	8.99	
2025-01-07 23:06:01.90	95.75	8.97	
2025-01-07 23:06:02.72	95.91	8.94	
2025-01-07 23:06:03.54	96.06	8.92	
2025-01-07 23:06:04.36	96.22	8.90	
2025-01-07 23:06:05.18	96.37	8.88	
2025-01-07 23:06:06.02	96.53	8.86	
2025-01-07 23:06:06.84	96.68	8.84	
2025-01-07 23:06:07.66	96.84	8.82	
2025-01-07 23:06:08.48	96.99	8.80	
2025-01-07 23:06:09.30	97.15	8.78	
2025-01-07 23:06:10.12	97.30	8.75	
2025-01-07 23:06:10.95	97.45	8.73	
2025-01-07 23:06:11.77	97.61	8.71	
2025-01-07 23:06:12.59	97.76	8.69	
2025-01-07 23:06:13.40	97.91	8.67	
2025-01-07 23:06:14.23	98.06	8.64	
2025-01-07 23:06:15.05	98.22	8.62	
2025-01-07 23:06:15.87	98.37	8.60	
2025-01-07 23:06:16.69	98.52	8.57	
2025-01-07 23:06:17.51	98.67	8.55	
2025-01-07 23:06:18.33	98.82	8.53	
2025-01-07 23:06:19.15	98.97	8.50	
2025-01-07 23:06:19.98	99.12	8.48	
2025-01-07 23:06:20.79	99.27	8.46	
2025-01-07 23:06:21.61	99.42	8.43	
2025-01-07 23:06:22.44	99.57	8.41	
2025-01-07 23:06:23.26	99.72	8.39	
2025-01-07 23:06:24.08	99.87	8.36	
2025-01-07 23:06:24.89	100.02	8.34	
2025-01-07 23:06:25.72	100.17	8.31	
2025-01-07 23:06:26.54	100.32	8.29	
2025-01-07 23:06:27.36	100.47	8.26	
2025-01-07 23:06:28.18	100.61	8.24	
2025-01-07 23:06:29.00	100.76	8.21	
2025-01-07 23:06:29.82	100.91	8.19	
2025-01-07 23:06:30.64	101.06	8.16	
2025-01-07 23:06:31.46	101.20	8.14	
2025-01-07 23:06:32.28	101.35	8.11	
2025-01-07 23:06:33.11	101.50	8.09	
2025-01-07 23:06:33.92	101.64	8.06	
2025-01-07 23:06:34.75	101.79	8.03	
2025-01-07 23:06:35.57	101.94	8.01	
2025-01-07 23:06:36.39	102.08	7.98	
2025-01-07 23:06:37.21	102.23	7.96	
2025-01-07 23:06:38.03	102.37	7.93	
2025-01-07 23:06:38.85	102.51	7.90	
2025-01-07 23:06:39.68	102.66	7.88	
2025-01-07 23:06:40.51	102.81	7.85	
2025-01-07 23:06:41.33	102.95	7.82	
2025-01-07 23:06:42.15	103.09	7.80	
2025-01-07 23:06:42.97	103.24	7.77	
2025-01-07 23:06:43.79	103.38	7.74	
2025-01-07 23:06:44.61	103.52	7.71	
2025-01-07 23:06:45.43	103.66	7.69	
2025-01-07 23:06:46.26	103.81	7.66	
2025-01-07 23:06:47.08	103.95	7.63	
2025-01-07 23:06:47.90	104.09	7.60	
2025-01-07 23:06:48.72	104.23	7.58	
2025-01-07 23:06:49.55	104.37	7.55	
2025-01-07 23:06:50.37	104.51	7.52	
2025-01-07 23:06:51.19	104.65	7.49	
2025-01-07 23:06:52.01	104.79	7.46	
2025-01-07 23:06:52.83	104.93	7.44	
2025-01-07 23:06:53.66	105.07	7.41	
2025-01-07 23:06:54.48	105.21	7.38	
2025-01-07 23:06:55.30	105.35	7.35	
2025-01-07 23:06:56.12	105.49	7.32	
2025-01-07 23:06:56.94	105.63	7.29	
2025-01-07 23:06:57.77	105.77	7.26	
2025-01-07 23:06:58.59	105.90	7.23	
2025-01-07 23:06:59.41	106.04	7.20	
2025-01-07 23:07:00.23	106.18	7.18	
2025-01-07 23:07:01.05	106.32	7.15	
2025-01-07 23:07:01.87	106.45	7.12	
2025-01-07 23:07:02.69	106.59	7.09	
2025-01-07 23:07:03.51	106.72	7.06	
2025-01-07 23:07:04.33	106.86	7.03	
2025-01-07 23:07:05.15	107.00	7.00	
2025-01-07 23:07:05.97	107.13	6.97	
2025-01-07 23:07:06.79	107.26	6.94	
2025-01-07 23:07:07.61	107.40	6.91	
2025-01-07 23:07:08.44	107.54	6.88	
2025-01-07 23:07:09.25	107.67	6.85	
2025-01-07 23:07:10.08	107.80	6.82	
2025-01-07 23:07:10.90	107.94	6.79	
2025-01-07 23:07:11.72	108.07	6.76	
2025-01-07 23:07:12.55	108.20	6.73	
2025-01-07 23:07:13.38	108.34	6.70	
2025-01-07 23:07:14.20	108.47	6.66	
2025-01-07 23:07:15.01	108.60	6.63	
2025-01-07 23:07:15.84	108.73	6.60	
2025-01-07 23:07:16.67	108.86	6.57	
2025-01-07 23:07:17.49	109.00	6.54	
2025-01-07 23:07:18.31	109.13	6.51	
2025-01-07 23:07:19.13	109.26	6.48	
2025-01-07 23:07:19.95	109.39	6.45	
2025-01-07 23:07:20.76	109.51	6.42	
2025-01-07 23:07:21.58	109.64	6.38	
2025-01-07 23:07:22.41	109.78	6.35	
2025-01-07 23:07:23.23	109.90	6.32	
2025-01-07 23:07:24.05	110.03	6.29	
2025-01-07 23:07:24.87	110.16	6.26	
2025-01-07 23:07:25.70	110.29	6.23	
2025-01-07 23:07:26.53	110.42	6.19	
2025-01-07 23:07:27.35	110.55	6.16	
2025-01-07 23:07:28.17	110.67	6.13	
2025-01-07 23:07:28.98	110.80	6.10	
2025-01-07 23:07:29.81	110.93	6.07	
2025-01-07 23:07:30.63	111.05	6.03	
2025-01-07 23:07:31.45	111.18	6.00	
2025-01-07 23:07:32.27	111.31	5.97	
2025-01-07 23:07:33.09	111.43	5.94	
2025-01-07 23:07:33.91	111.56	5.90	
2025-01-07 23:07:34.73	111.68	5.87	
2025-01-07 23:07:35.56	111.81	5.84	
2025-01-07 23:07:36.39	111.93	5.81	
2025-01-07 23:07:37.21	112.06	5.77	
2025-01-07 23:07:38.02	112.18	5.74	
2025-01-07 23:07:38.85	112.30	5.71	
2025-01-07 23:07:39.67	112.43	5.67	
2025-01-07 23:07:40.49	112.55	5.64	
2025-01-07 23:07:41.31	112.67	5.61	
2025-01-07 23:07:42.14	112.79	5.58	
2025-01-07 23:07:42.96	112.92	5.54	
2025-01-07 23:07:43.78	113.04	5.51	
2025-01-07 23:07:44.60	113.16	5.48	
2025-01-07 23:07:45.42	113.28	5.44	
2025-01-07 23:07:46.25	113.40	5.41	
2025-01-07 23:07:47.07	113.52	5.38	
2025-01-07 23:07:47.89	113.64	5.34	
2025-01-07 23:07:48.72	113.76	5.31	
2025-01-07 23:07:49.55	113.88	5.27	
2025-01-07 23:07:50.37	114.00	5.24	
2025-01-07 23:07:51.19	114.12	5.21	
2025-01-07 23:07:52.02	114.24	5.17	
2025-01-07 23:07:52.84	114.36	5.14	
2025-01-07 23:07:53.66	114.48	5.11	
2025-01-07 23:07:54.48	114.60	5.07	
2025-01-07 23:07:55.30	114.71	5.04	
2025-01-07 23:07:56.12	114.83	5.00	
2025-01-07 23:07:56.94	114.95	4.97	
2025-01-07 23:07:57.78	115.07	4.94	
2025-01-07 23:07:58.60	115.18	4.90	
2025-01-07 23:07:59.42	115.30	4.87	
2025-01-07 23:08:00.24	115.42	4.83	
2025-01-07 23:08:01.06	115.53	4.80	
2025-01-07 23:08:01.88	115.65	4.77	
2025-01-07 23:08:02.70	115.76	4.73	
2025-01-07 23:08:03.52	115.88	4.70	
2025-01-07 23:08:04.35	115.99	4.66	
2025-01-07 23:08:05.17	116.11	4.63	
2025-01-07 23:08:05.99	116.22	4.59	
2025-01-07 23:08:06.83	116.34	4.56	
2025-01-07 23:08:07.65	116.45	4.52	
2025-01-07 23:08:08.47	116.56	4.49	
2025-01-07 23:08:09.29	116.68	4.45	
2025-01-07 23:08:10.11	116.79	4.42	
2025-01-07 23:08:10.93	116.90	4.39	
2025-01-07 23:08:11.77	117.01	4.35	
2025-01-07 23:08:12.59	117.13	4.31	
2025-01-07 23:08:13.41	117.24	4.28	
2025-01-07 23:08:14.23	117.35	4.25	
2025-01-07 23:08:15.05	117.46	4.21	
2025-01-07 23:08:15.87	117.57	4.18	
2025-01-07 23:08:16.69	117.68	4.14	
2025-01-07 23:08:17.51	117.79	4.11	
2025-01-07 23:08:18.33	117.90	4.07	
2025-01-07 23:08:19.15	118.01	4.04	

#Closed at: 2025-01-07 23:08:19