passes_logs/2025/01/07/SPB_Silybum_02/SPB_Silybum_02__20250107_105155_TERRA_rec.log

#Pass ID: 20250107_105155_TERRA
#Satellite: TERRA
#Configuration: TERRA
#Start time: 2025-01-07 10:51:55

#Version: 2.0.20230423
#Station: SPB_Silybum_02
#Location: 30.233357 lon 59.946436 lat
#TLE: 1 25994U 99068A   25006.77118991  .00001382  00000+0  29492-3 0  9999
#TLE: 2 25994  98.0231  70.0628 0003576  88.8854  23.4584 14.60378914332871

#Time	Az	El	Level	Level2	SNR	BER	Gain	Gain2
2025-01-07 10:51:57.99	6.76	4.15	
2025-01-07 10:51:59.01	6.64	4.20	
2025-01-07 10:52:00.04	6.52	4.26	
2025-01-07 10:52:01.08	6.40	4.31	
2025-01-07 10:52:02.10	6.28	4.36	
2025-01-07 10:52:03.12	6.16	4.42	
2025-01-07 10:52:04.15	6.04	4.47	
2025-01-07 10:52:05.18	5.92	4.52	
2025-01-07 10:52:06.20	5.80	4.57	
2025-01-07 10:52:07.23	5.68	4.63	
2025-01-07 10:52:08.26	5.56	4.68	
2025-01-07 10:52:09.28	5.44	4.73	
2025-01-07 10:52:10.31	5.31	4.79	
2025-01-07 10:52:11.34	5.19	4.84	
2025-01-07 10:52:12.36	5.06	4.89	
2025-01-07 10:52:13.39	4.94	4.95	
2025-01-07 10:52:14.41	4.82	5.00	
2025-01-07 10:52:15.44	4.69	5.05	
2025-01-07 10:52:16.46	4.56	5.10	
2025-01-07 10:52:17.49	4.44	5.16	
2025-01-07 10:52:18.52	4.31	5.21	
2025-01-07 10:52:19.55	4.18	5.26	
2025-01-07 10:52:20.57	4.05	5.32	
2025-01-07 10:52:21.60	3.92	5.37	
2025-01-07 10:52:22.62	3.80	5.42	
2025-01-07 10:52:23.65	3.67	5.48	
2025-01-07 10:52:24.67	3.54	5.53	
2025-01-07 10:52:25.70	3.40	5.58	
2025-01-07 10:52:26.73	3.27	5.63	
2025-01-07 10:52:27.76	3.14	5.69	
2025-01-07 10:52:28.78	3.01	5.74	
2025-01-07 10:52:29.80	2.88	5.79	
2025-01-07 10:52:30.83	2.74	5.85	
2025-01-07 10:52:31.85	2.61	5.90	
2025-01-07 10:52:32.88	2.47	5.95	
2025-01-07 10:52:33.90	2.34	6.00	
2025-01-07 10:52:34.93	2.20	6.06	
2025-01-07 10:52:35.96	2.07	6.11	
2025-01-07 10:52:36.98	1.93	6.16	
2025-01-07 10:52:38.00	1.79	6.21	
2025-01-07 10:52:39.03	1.66	6.27	
2025-01-07 10:52:40.06	1.52	6.32	
2025-01-07 10:52:41.09	1.38	6.37	
2025-01-07 10:52:42.12	1.24	6.42	
2025-01-07 10:52:43.14	1.10	6.48	
2025-01-07 10:52:44.17	0.96	6.53	
2025-01-07 10:52:45.20	0.81	6.58	
2025-01-07 10:52:46.23	0.67	6.63	
2025-01-07 10:52:47.25	0.53	6.69	
2025-01-07 10:52:48.29	0.38	6.74	
2025-01-07 10:52:49.32	0.24	6.79	
2025-01-07 10:52:50.34	0.10	6.84	
2025-01-07 10:52:51.37	359.95	6.90	
2025-01-07 10:52:52.39	359.81	6.95	
2025-01-07 10:52:53.42	359.66	7.00	
2025-01-07 10:52:54.46	359.51	7.05	
2025-01-07 10:52:55.49	359.37	7.11	
2025-01-07 10:52:56.51	359.22	7.16	
2025-01-07 10:52:57.53	359.07	7.21	
2025-01-07 10:52:58.56	358.92	7.26	
2025-01-07 10:52:59.59	358.77	7.31	
2025-01-07 10:53:00.61	358.62	7.36	
2025-01-07 10:53:01.63	358.47	7.42	
2025-01-07 10:53:02.66	358.32	7.47	
2025-01-07 10:53:03.70	358.17	7.52	
2025-01-07 10:53:04.72	358.02	7.57	
2025-01-07 10:53:05.75	357.86	7.62	
2025-01-07 10:53:06.77	357.71	7.67	
2025-01-07 10:53:07.80	357.55	7.73	
2025-01-07 10:53:08.83	357.40	7.78	
2025-01-07 10:53:09.85	357.24	7.83	
2025-01-07 10:53:10.88	357.09	7.88	
2025-01-07 10:53:11.91	356.93	7.93	
2025-01-07 10:53:12.93	356.77	7.98	
2025-01-07 10:53:13.95	356.62	8.03	
2025-01-07 10:53:14.98	356.46	8.08	
2025-01-07 10:53:16.00	356.30	8.13	
2025-01-07 10:53:17.03	356.14	8.18	
2025-01-07 10:53:18.05	355.98	8.23	
2025-01-07 10:53:19.08	355.82	8.28	
2025-01-07 10:53:20.11	355.66	8.33	
2025-01-07 10:53:21.13	355.50	8.38	
2025-01-07 10:53:22.16	355.33	8.43	
2025-01-07 10:53:23.18	355.17	8.48	
2025-01-07 10:53:24.21	355.01	8.53	
2025-01-07 10:53:25.24	354.84	8.58	
2025-01-07 10:53:26.26	354.68	8.63	
2025-01-07 10:53:27.29	354.51	8.68	
2025-01-07 10:53:28.32	354.34	8.73	
2025-01-07 10:53:29.36	354.17	8.78	
2025-01-07 10:53:30.40	354.00	8.83	
2025-01-07 10:53:31.44	353.83	8.88	
2025-01-07 10:53:32.47	353.66	8.93	
2025-01-07 10:53:33.50	353.49	8.98	
2025-01-07 10:53:34.53	353.32	9.03	
2025-01-07 10:53:35.55	353.15	9.08	
2025-01-07 10:53:36.57	352.98	9.13	
2025-01-07 10:53:37.60	352.81	9.18	
2025-01-07 10:53:38.63	352.63	9.22	
2025-01-07 10:53:39.65	352.46	9.27	
2025-01-07 10:53:40.67	352.29	9.32	
2025-01-07 10:53:41.70	352.11	9.37	
2025-01-07 10:53:42.72	351.94	9.42	
2025-01-07 10:53:43.75	351.76	9.46	
2025-01-07 10:53:44.78	351.59	9.51	
2025-01-07 10:53:45.80	351.41	9.56	
2025-01-07 10:53:46.83	351.23	9.61	
2025-01-07 10:53:47.85	351.05	9.65	
2025-01-07 10:53:48.88	350.87	9.70	
2025-01-07 10:53:49.91	350.69	9.75	
2025-01-07 10:53:50.95	350.51	9.79	
2025-01-07 10:53:51.97	350.33	9.84	
2025-01-07 10:53:52.99	350.15	9.89	
2025-01-07 10:53:54.02	349.97	9.93	
2025-01-07 10:53:55.04	349.78	9.98	
2025-01-07 10:53:56.08	349.60	10.02	
2025-01-07 10:53:57.10	349.42	10.07	
2025-01-07 10:53:58.13	349.23	10.11	
2025-01-07 10:53:59.16	349.04	10.16	
2025-01-07 10:54:00.19	348.86	10.21	
2025-01-07 10:54:01.21	348.67	10.25	
2025-01-07 10:54:02.25	348.48	10.30	
2025-01-07 10:54:03.28	348.29	10.34	
2025-01-07 10:54:04.31	348.10	10.38	
2025-01-07 10:54:05.34	347.91	10.43	
2025-01-07 10:54:06.37	347.72	10.47	
2025-01-07 10:54:07.40	347.53	10.52	
2025-01-07 10:54:08.43	347.34	10.56	
2025-01-07 10:54:09.46	347.15	10.60	
2025-01-07 10:54:10.49	346.95	10.65	
2025-01-07 10:54:11.52	346.76	10.69	
2025-01-07 10:54:12.54	346.57	10.73	
2025-01-07 10:54:13.57	346.37	10.77	
2025-01-07 10:54:14.60	346.18	10.82	
2025-01-07 10:54:15.63	345.98	10.86	
2025-01-07 10:54:16.65	345.79	10.90	
2025-01-07 10:54:17.68	345.59	10.94	
2025-01-07 10:54:18.70	345.39	10.98	
2025-01-07 10:54:19.73	345.19	11.02	
2025-01-07 10:54:20.77	344.99	11.07	
2025-01-07 10:54:21.81	344.79	11.11	
2025-01-07 10:54:22.84	344.59	11.15	
2025-01-07 10:54:23.86	344.39	11.19	
2025-01-07 10:54:24.89	344.19	11.23	
2025-01-07 10:54:25.92	343.99	11.27	
2025-01-07 10:54:26.95	343.78	11.31	
2025-01-07 10:54:27.97	343.58	11.34	
2025-01-07 10:54:29.00	343.38	11.38	
2025-01-07 10:54:30.03	343.17	11.42	
2025-01-07 10:54:31.05	342.97	11.46	
2025-01-07 10:54:32.09	342.76	11.50	
2025-01-07 10:54:33.11	342.56	11.54	
2025-01-07 10:54:34.14	342.35	11.57	
2025-01-07 10:54:35.16	342.15	11.61	
2025-01-07 10:54:36.19	341.94	11.65	
2025-01-07 10:54:37.21	341.73	11.68	
2025-01-07 10:54:38.24	341.52	11.72	
2025-01-07 10:54:39.26	341.31	11.76	
2025-01-07 10:54:40.29	341.10	11.79	
2025-01-07 10:54:41.31	340.89	11.83	
2025-01-07 10:54:42.34	340.68	11.86	
2025-01-07 10:54:43.37	340.47	11.90	
2025-01-07 10:54:44.40	340.26	11.93	
2025-01-07 10:54:45.42	340.05	11.97	
2025-01-07 10:54:46.45	339.83	12.00	
2025-01-07 10:54:47.48	339.62	12.03	
2025-01-07 10:54:48.51	339.40	12.07	
2025-01-07 10:54:49.54	339.19	12.10	
2025-01-07 10:54:50.57	338.97	12.13	
2025-01-07 10:54:51.60	338.76	12.16	
2025-01-07 10:54:52.62	338.54	12.20	
2025-01-07 10:54:53.67	338.32	12.23	
2025-01-07 10:54:54.71	338.10	12.26	
2025-01-07 10:54:55.73	337.88	12.29	
2025-01-07 10:54:56.76	337.67	12.32	
2025-01-07 10:54:57.79	337.45	12.35	
2025-01-07 10:54:58.81	337.23	12.38	
2025-01-07 10:54:59.85	337.01	12.41	
2025-01-07 10:55:00.88	336.79	12.44	
2025-01-07 10:55:01.92	336.56	12.47	
2025-01-07 10:55:02.94	336.34	12.50	
2025-01-07 10:55:03.97	336.12	12.53	
2025-01-07 10:55:05.00	335.90	12.55	
2025-01-07 10:55:06.04	335.67	12.58	
2025-01-07 10:55:07.06	335.45	12.61	
2025-01-07 10:55:08.09	335.23	12.64	
2025-01-07 10:55:09.11	335.00	12.66	
2025-01-07 10:55:10.15	334.78	12.69	
2025-01-07 10:55:11.17	334.55	12.71	
2025-01-07 10:55:12.20	334.33	12.74	
2025-01-07 10:55:13.23	334.10	12.76	
2025-01-07 10:55:14.25	333.88	12.79	
2025-01-07 10:55:15.28	333.65	12.81	
2025-01-07 10:55:16.31	333.42	12.83	
2025-01-07 10:55:17.34	333.19	12.86	
2025-01-07 10:55:18.37	332.97	12.88	
2025-01-07 10:55:19.41	332.74	12.90	
2025-01-07 10:55:20.44	332.51	12.93	
2025-01-07 10:55:21.46	332.28	12.95	
2025-01-07 10:55:22.48	332.05	12.97	
2025-01-07 10:55:23.51	331.82	12.99	
2025-01-07 10:55:24.54	331.59	13.01	
2025-01-07 10:55:25.57	331.36	13.03	
2025-01-07 10:55:26.60	331.13	13.05	
2025-01-07 10:55:27.63	330.90	13.07	
2025-01-07 10:55:28.65	330.67	13.09	
2025-01-07 10:55:29.69	330.43	13.10	
2025-01-07 10:55:30.72	330.20	13.12	
2025-01-07 10:55:31.75	329.97	13.14	
2025-01-07 10:55:32.77	329.74	13.16	
2025-01-07 10:55:33.80	329.50	13.17	
2025-01-07 10:55:34.84	329.27	13.19	
2025-01-07 10:55:35.86	329.04	13.21	
2025-01-07 10:55:36.90	328.80	13.22	
2025-01-07 10:55:37.93	328.57	13.24	
2025-01-07 10:55:38.95	328.33	13.25	
2025-01-07 10:55:39.98	328.10	13.26	
2025-01-07 10:55:41.01	327.86	13.28	
2025-01-07 10:55:42.05	327.63	13.29	
2025-01-07 10:55:43.08	327.39	13.30	
2025-01-07 10:55:44.10	327.16	13.32	
2025-01-07 10:55:45.12	326.92	13.33	
2025-01-07 10:55:46.15	326.69	13.34	
2025-01-07 10:55:47.18	326.45	13.35	
2025-01-07 10:55:48.22	326.21	13.36	
2025-01-07 10:55:49.24	325.98	13.37	
2025-01-07 10:55:50.27	325.74	13.38	
2025-01-07 10:55:51.30	325.50	13.39	
2025-01-07 10:55:52.33	325.27	13.40	
2025-01-07 10:55:53.35	325.03	13.40	
2025-01-07 10:55:54.38	324.79	13.41	
2025-01-07 10:55:55.40	324.56	13.42	
2025-01-07 10:55:56.43	324.32	13.43	
2025-01-07 10:55:57.46	324.08	13.43	
2025-01-07 10:55:58.49	323.84	13.44	
2025-01-07 10:55:59.52	323.61	13.44	
2025-01-07 10:56:00.55	323.37	13.45	
2025-01-07 10:56:01.57	323.13	13.45	
2025-01-07 10:56:02.60	322.89	13.46	
2025-01-07 10:56:03.63	322.65	13.46	
2025-01-07 10:56:04.65	322.42	13.46	
2025-01-07 10:56:05.68	322.18	13.47	
2025-01-07 10:56:06.71	321.94	13.47	
2025-01-07 10:56:07.73	321.70	13.47	
2025-01-07 10:56:08.78	321.46	13.47	
2025-01-07 10:56:09.80	321.23	13.47	
2025-01-07 10:56:10.83	320.99	13.47	
2025-01-07 10:56:11.85	320.75	13.47	
2025-01-07 10:56:12.89	320.51	13.47	
2025-01-07 10:56:13.92	320.27	13.47	
2025-01-07 10:56:14.94	320.03	13.47	
2025-01-07 10:56:15.97	319.79	13.47	
2025-01-07 10:56:17.00	319.56	13.46	
2025-01-07 10:56:18.02	319.32	13.46	
2025-01-07 10:56:19.05	319.08	13.46	
2025-01-07 10:56:20.10	318.84	13.45	
2025-01-07 10:56:21.13	318.60	13.45	
2025-01-07 10:56:22.15	318.36	13.45	
2025-01-07 10:56:23.17	318.13	13.44	
2025-01-07 10:56:24.21	317.89	13.43	
2025-01-07 10:56:25.23	317.65	13.43	
2025-01-07 10:56:26.26	317.41	13.42	
2025-01-07 10:56:27.29	317.18	13.41	
2025-01-07 10:56:28.32	316.94	13.41	
2025-01-07 10:56:29.35	316.70	13.40	
2025-01-07 10:56:30.39	316.46	13.39	
2025-01-07 10:56:31.41	316.23	13.38	
2025-01-07 10:56:32.44	315.99	13.37	
2025-01-07 10:56:33.46	315.75	13.36	
2025-01-07 10:56:34.49	315.52	13.35	
2025-01-07 10:56:35.51	315.28	13.34	
2025-01-07 10:56:36.56	315.04	13.33	
2025-01-07 10:56:37.58	314.81	13.32	
2025-01-07 10:56:38.61	314.57	13.31	
2025-01-07 10:56:39.63	314.34	13.29	
2025-01-07 10:56:40.66	314.10	13.28	
2025-01-07 10:56:41.68	313.87	13.27	
2025-01-07 10:56:42.71	313.63	13.25	
2025-01-07 10:56:43.74	313.40	13.24	
2025-01-07 10:56:44.76	313.17	13.22	
2025-01-07 10:56:45.79	312.93	13.21	
2025-01-07 10:56:46.82	312.70	13.19	
2025-01-07 10:56:47.86	312.46	13.18	
2025-01-07 10:56:48.89	312.23	13.16	
2025-01-07 10:56:49.91	312.00	13.14	
2025-01-07 10:56:50.94	311.76	13.13	
2025-01-07 10:56:51.97	311.53	13.11	
2025-01-07 10:56:53.00	311.30	13.09	
2025-01-07 10:56:54.04	311.06	13.07	
2025-01-07 10:56:55.07	310.83	13.05	
2025-01-07 10:56:56.09	310.60	13.03	
2025-01-07 10:56:57.11	310.37	13.01	
2025-01-07 10:56:58.14	310.14	12.99	
2025-01-07 10:56:59.17	309.91	12.97	
2025-01-07 10:57:00.20	309.68	12.95	
2025-01-07 10:57:01.22	309.45	12.93	
2025-01-07 10:57:02.25	309.23	12.91	
2025-01-07 10:57:03.29	308.99	12.89	
2025-01-07 10:57:04.33	308.76	12.86	
2025-01-07 10:57:05.38	308.53	12.84	
2025-01-07 10:57:06.40	308.30	12.82	
2025-01-07 10:57:07.43	308.08	12.79	
2025-01-07 10:57:08.45	307.85	12.77	
2025-01-07 10:57:09.48	307.63	12.74	
2025-01-07 10:57:10.50	307.40	12.72	
2025-01-07 10:57:11.53	307.18	12.69	
2025-01-07 10:57:12.56	306.95	12.67	
2025-01-07 10:57:13.58	306.73	12.64	
2025-01-07 10:57:14.61	306.50	12.61	
2025-01-07 10:57:15.63	306.28	12.59	
2025-01-07 10:57:16.65	306.06	12.56	
2025-01-07 10:57:17.68	305.84	12.53	
2025-01-07 10:57:18.70	305.61	12.50	
2025-01-07 10:57:19.73	305.39	12.48	
2025-01-07 10:57:20.75	305.17	12.45	
2025-01-07 10:57:21.79	304.95	12.42	
2025-01-07 10:57:22.82	304.73	12.39	
2025-01-07 10:57:23.85	304.51	12.36	
2025-01-07 10:57:24.88	304.29	12.33	
2025-01-07 10:57:25.91	304.07	12.30	
2025-01-07 10:57:26.93	303.85	12.27	
2025-01-07 10:57:27.96	303.63	12.24	
2025-01-07 10:57:28.99	303.41	12.20	
2025-01-07 10:57:30.01	303.20	12.17	
2025-01-07 10:57:31.04	302.98	12.14	
2025-01-07 10:57:32.07	302.77	12.11	
2025-01-07 10:57:33.09	302.55	12.07	
2025-01-07 10:57:34.12	302.34	12.04	
2025-01-07 10:57:35.15	302.12	12.01	
2025-01-07 10:57:36.19	301.90	11.97	
2025-01-07 10:57:37.21	301.69	11.94	
2025-01-07 10:57:38.24	301.48	11.90	
2025-01-07 10:57:39.27	301.27	11.87	
2025-01-07 10:57:40.30	301.05	11.83	
2025-01-07 10:57:41.32	300.84	11.80	
2025-01-07 10:57:42.35	300.63	11.76	
2025-01-07 10:57:43.38	300.42	11.73	
2025-01-07 10:57:44.40	300.21	11.69	
2025-01-07 10:57:45.43	300.01	11.66	
2025-01-07 10:57:46.45	299.80	11.62	
2025-01-07 10:57:47.48	299.59	11.58	
2025-01-07 10:57:48.50	299.38	11.54	
2025-01-07 10:57:49.53	299.18	11.51	
2025-01-07 10:57:50.56	298.97	11.47	
2025-01-07 10:57:51.58	298.77	11.43	
2025-01-07 10:57:52.61	298.56	11.39	
2025-01-07 10:57:53.63	298.36	11.35	
2025-01-07 10:57:54.66	298.15	11.31	
2025-01-07 10:57:55.69	297.95	11.27	
2025-01-07 10:57:56.72	297.75	11.23	
2025-01-07 10:57:57.74	297.55	11.20	
2025-01-07 10:57:58.77	297.34	11.16	
2025-01-07 10:57:59.81	297.14	11.11	
2025-01-07 10:58:00.83	296.94	11.07	
2025-01-07 10:58:01.86	296.74	11.03	
2025-01-07 10:58:02.88	296.54	10.99	
2025-01-07 10:58:03.91	296.35	10.95	
2025-01-07 10:58:04.93	296.15	10.91	
2025-01-07 10:58:05.96	295.95	10.87	
2025-01-07 10:58:06.98	295.76	10.83	
2025-01-07 10:58:08.01	295.56	10.78	
2025-01-07 10:58:09.04	295.36	10.74	
2025-01-07 10:58:10.08	295.17	10.70	
2025-01-07 10:58:11.11	294.97	10.65	
2025-01-07 10:58:12.13	294.78	10.61	
2025-01-07 10:58:13.16	294.59	10.57	
2025-01-07 10:58:14.18	294.40	10.53	
2025-01-07 10:58:15.21	294.20	10.48	
2025-01-07 10:58:16.25	294.01	10.44	
2025-01-07 10:58:17.28	293.82	10.39	
2025-01-07 10:58:18.31	293.63	10.35	
2025-01-07 10:58:19.33	293.44	10.30	
2025-01-07 10:58:20.36	293.25	10.26	
2025-01-07 10:58:21.39	293.06	10.21	
2025-01-07 10:58:22.42	292.88	10.17	
2025-01-07 10:58:23.45	292.69	10.12	
2025-01-07 10:58:24.47	292.51	10.08	
2025-01-07 10:58:25.50	292.32	10.03	
2025-01-07 10:58:26.53	292.13	9.99	
2025-01-07 10:58:27.56	291.95	9.94	
2025-01-07 10:58:28.58	291.77	9.89	
2025-01-07 10:58:29.60	291.59	9.85	
2025-01-07 10:58:30.63	291.40	9.80	
2025-01-07 10:58:31.65	291.22	9.76	
2025-01-07 10:58:32.67	291.04	9.71	
2025-01-07 10:58:33.69	290.86	9.66	
2025-01-07 10:58:34.72	290.68	9.62	
2025-01-07 10:58:35.75	290.50	9.57	
2025-01-07 10:58:36.77	290.33	9.52	
2025-01-07 10:58:37.80	290.15	9.47	
2025-01-07 10:58:38.83	289.97	9.43	
2025-01-07 10:58:39.85	289.80	9.38	
2025-01-07 10:58:40.88	289.62	9.33	
2025-01-07 10:58:41.92	289.44	9.28	
2025-01-07 10:58:42.95	289.27	9.23	
2025-01-07 10:58:43.97	289.09	9.18	
2025-01-07 10:58:45.00	288.92	9.14	
2025-01-07 10:58:46.04	288.75	9.09	
2025-01-07 10:58:47.08	288.57	9.04	
2025-01-07 10:58:48.10	288.40	8.99	
2025-01-07 10:58:49.14	288.23	8.94	
2025-01-07 10:58:50.17	288.06	8.89	
2025-01-07 10:58:51.19	287.89	8.84	
2025-01-07 10:58:52.22	287.72	8.79	
2025-01-07 10:58:53.27	287.55	8.74	
2025-01-07 10:58:54.29	287.38	8.69	
2025-01-07 10:58:55.32	287.21	8.64	
2025-01-07 10:58:56.35	287.05	8.59	
2025-01-07 10:58:57.38	286.88	8.54	
2025-01-07 10:58:58.40	286.72	8.49	
2025-01-07 10:58:59.43	286.55	8.44	
2025-01-07 10:59:00.46	286.39	8.39	
2025-01-07 10:59:01.48	286.23	8.34	
2025-01-07 10:59:02.51	286.06	8.29	
2025-01-07 10:59:03.54	285.90	8.24	
2025-01-07 10:59:04.57	285.74	8.19	
2025-01-07 10:59:05.59	285.58	8.14	
2025-01-07 10:59:06.62	285.42	8.09	
2025-01-07 10:59:07.65	285.26	8.04	
2025-01-07 10:59:08.67	285.10	7.98	
2025-01-07 10:59:09.70	284.94	7.93	
2025-01-07 10:59:10.72	284.78	7.88	
2025-01-07 10:59:11.75	284.63	7.83	
2025-01-07 10:59:12.79	284.47	7.78	
2025-01-07 10:59:13.82	284.31	7.73	
2025-01-07 10:59:14.84	284.16	7.68	
2025-01-07 10:59:15.87	284.00	7.63	
2025-01-07 10:59:16.91	283.85	7.57	
2025-01-07 10:59:17.94	283.69	7.52	
2025-01-07 10:59:18.96	283.54	7.47	
2025-01-07 10:59:19.99	283.39	7.42	
2025-01-07 10:59:21.02	283.24	7.37	
2025-01-07 10:59:22.05	283.08	7.31	
2025-01-07 10:59:23.08	282.93	7.26	
2025-01-07 10:59:24.11	282.78	7.21	
2025-01-07 10:59:25.13	282.63	7.16	
2025-01-07 10:59:26.16	282.49	7.11	
2025-01-07 10:59:27.18	282.34	7.05	
2025-01-07 10:59:28.21	282.19	7.00	
2025-01-07 10:59:29.24	282.04	6.95	
2025-01-07 10:59:30.27	281.90	6.90	
2025-01-07 10:59:31.30	281.75	6.84	
2025-01-07 10:59:32.32	281.61	6.79	
2025-01-07 10:59:33.35	281.46	6.74	
2025-01-07 10:59:34.38	281.32	6.69	
2025-01-07 10:59:35.40	281.17	6.63	
2025-01-07 10:59:36.43	281.03	6.58	
2025-01-07 10:59:37.46	280.89	6.53	
2025-01-07 10:59:38.48	280.75	6.48	
2025-01-07 10:59:39.52	280.60	6.42	
2025-01-07 10:59:40.55	280.46	6.37	
2025-01-07 10:59:41.59	280.32	6.32	
2025-01-07 10:59:42.61	280.18	6.26	
2025-01-07 10:59:43.64	280.04	6.21	
2025-01-07 10:59:44.67	279.90	6.16	
2025-01-07 10:59:45.71	279.76	6.11	
2025-01-07 10:59:46.73	279.63	6.05	
2025-01-07 10:59:47.76	279.49	6.00	
2025-01-07 10:59:48.79	279.35	5.95	
2025-01-07 10:59:49.82	279.22	5.89	
2025-01-07 10:59:50.84	279.08	5.84	
2025-01-07 10:59:51.87	278.95	5.79	
2025-01-07 10:59:52.89	278.82	5.74	
2025-01-07 10:59:53.92	278.68	5.68	
2025-01-07 10:59:54.94	278.55	5.63	
2025-01-07 10:59:55.97	278.42	5.58	
2025-01-07 10:59:57.00	278.28	5.52	
2025-01-07 10:59:58.04	278.15	5.47	
2025-01-07 10:59:59.07	278.02	5.42	
2025-01-07 11:00:00.10	277.89	5.36	
2025-01-07 11:00:01.12	277.76	5.31	
2025-01-07 11:00:02.14	277.63	5.26	
2025-01-07 11:00:03.17	277.50	5.20	
2025-01-07 11:00:04.20	277.37	5.15	
2025-01-07 11:00:05.23	277.25	5.10	
2025-01-07 11:00:06.25	277.12	5.04	
2025-01-07 11:00:07.28	276.99	4.99	
2025-01-07 11:00:08.30	276.87	4.94	
2025-01-07 11:00:09.33	276.74	4.89	
2025-01-07 11:00:10.37	276.61	4.83	
2025-01-07 11:00:11.40	276.49	4.78	
2025-01-07 11:00:12.42	276.37	4.73	
2025-01-07 11:00:13.45	276.24	4.67	
2025-01-07 11:00:14.47	276.12	4.62	
2025-01-07 11:00:15.50	276.00	4.57	
2025-01-07 11:00:16.53	275.87	4.51	
2025-01-07 11:00:17.55	275.75	4.46	
2025-01-07 11:00:18.58	275.63	4.41	
2025-01-07 11:00:19.61	275.51	4.35	
2025-01-07 11:00:20.63	275.39	4.30	
2025-01-07 11:00:21.66	275.27	4.25	
2025-01-07 11:00:22.68	275.15	4.19	
2025-01-07 11:00:23.71	275.03	4.14	
2025-01-07 11:00:24.74	274.91	4.09	
2025-01-07 11:00:25.77	274.80	4.03	

#Closed at: 2025-01-07 11:00:26