passes_logs/2025/01/07/SPB_Silybum_02/SPB_Silybum_02__20250107_123917_SUOMI_NPP_rec.log

#Pass ID: 20250107_123917_SUOMI NPP
#Satellite: SUOMI NPP
#Configuration: NPP
#Start time: 2025-01-07 12:39:17

#Version: 2.0.20230423
#Station: SPB_Silybum_02
#Location: 30.233357 lon 59.946436 lat
#TLE: 1 37849U 11061A   25006.81407247  .00000291  00000+0  15897-3 0  9990
#TLE: 2 37849  98.7438 307.9068 0001960  53.3600 306.7756 14.19534214683755

#Time	Az	El	Level	Level2	SNR	BER	Gain	Gain2
2025-01-07 12:39:19.99	235.23	4.13	
2025-01-07 12:39:21.02	235.34	4.18	
2025-01-07 12:39:22.07	235.46	4.22	
2025-01-07 12:39:23.11	235.57	4.27	
2025-01-07 12:39:24.16	235.69	4.32	
2025-01-07 12:39:25.20	235.81	4.37	
2025-01-07 12:39:26.23	235.92	4.42	
2025-01-07 12:39:27.29	236.04	4.46	
2025-01-07 12:39:28.34	236.16	4.51	
2025-01-07 12:39:29.35	236.28	4.56	
2025-01-07 12:39:30.42	236.40	4.61	
2025-01-07 12:39:31.49	236.52	4.66	
2025-01-07 12:39:32.55	236.64	4.71	
2025-01-07 12:39:33.61	236.77	4.75	
2025-01-07 12:39:34.65	236.89	4.80	
2025-01-07 12:39:35.67	237.00	4.85	
2025-01-07 12:39:36.69	237.12	4.90	
2025-01-07 12:39:37.71	237.24	4.94	
2025-01-07 12:39:38.72	237.36	4.99	
2025-01-07 12:39:39.78	237.48	5.04	
2025-01-07 12:39:40.79	237.60	5.08	
2025-01-07 12:39:41.80	237.72	5.13	
2025-01-07 12:39:42.81	237.84	5.17	
2025-01-07 12:39:43.86	237.97	5.22	
2025-01-07 12:39:44.90	238.09	5.27	
2025-01-07 12:39:45.94	238.21	5.32	
2025-01-07 12:39:46.99	238.34	5.37	
2025-01-07 12:39:48.02	238.46	5.41	
2025-01-07 12:39:49.07	238.59	5.46	
2025-01-07 12:39:50.14	238.72	5.51	
2025-01-07 12:39:51.21	238.85	5.56	
2025-01-07 12:39:52.23	238.97	5.60	
2025-01-07 12:39:53.26	239.10	5.65	
2025-01-07 12:39:54.28	239.23	5.70	
2025-01-07 12:39:55.31	239.35	5.74	
2025-01-07 12:39:56.33	239.48	5.79	
2025-01-07 12:39:57.36	239.61	5.84	
2025-01-07 12:39:58.38	239.73	5.88	
2025-01-07 12:39:59.40	239.86	5.93	
2025-01-07 12:40:00.43	239.99	5.97	
2025-01-07 12:40:01.45	240.11	6.02	
2025-01-07 12:40:02.48	240.24	6.07	
2025-01-07 12:40:03.50	240.37	6.11	
2025-01-07 12:40:04.54	240.50	6.16	
2025-01-07 12:40:05.57	240.63	6.21	
2025-01-07 12:40:06.59	240.76	6.25	
2025-01-07 12:40:07.62	240.90	6.30	
2025-01-07 12:40:08.65	241.03	6.34	
2025-01-07 12:40:09.69	241.16	6.39	
2025-01-07 12:40:10.73	241.29	6.44	
2025-01-07 12:40:11.76	241.43	6.48	
2025-01-07 12:40:12.80	241.56	6.53	
2025-01-07 12:40:13.84	241.70	6.58	
2025-01-07 12:40:14.86	241.83	6.62	
2025-01-07 12:40:15.89	241.96	6.67	
2025-01-07 12:40:16.93	242.10	6.71	
2025-01-07 12:40:17.97	242.24	6.76	
2025-01-07 12:40:19.00	242.37	6.80	
2025-01-07 12:40:20.03	242.51	6.85	
2025-01-07 12:40:21.05	242.64	6.90	
2025-01-07 12:40:22.08	242.78	6.94	
2025-01-07 12:40:23.12	242.92	6.99	
2025-01-07 12:40:24.15	243.06	7.03	
2025-01-07 12:40:25.19	243.20	7.08	
2025-01-07 12:40:26.23	243.34	7.12	
2025-01-07 12:40:27.26	243.48	7.17	
2025-01-07 12:40:28.29	243.62	7.21	
2025-01-07 12:40:29.32	243.76	7.26	
2025-01-07 12:40:30.34	243.90	7.30	
2025-01-07 12:40:31.38	244.04	7.35	
2025-01-07 12:40:32.41	244.18	7.39	
2025-01-07 12:40:33.43	244.32	7.44	
2025-01-07 12:40:34.46	244.46	7.48	
2025-01-07 12:40:35.49	244.60	7.53	
2025-01-07 12:40:36.52	244.75	7.57	
2025-01-07 12:40:37.55	244.89	7.62	
2025-01-07 12:40:38.57	245.03	7.66	
2025-01-07 12:40:39.60	245.18	7.71	
2025-01-07 12:40:40.62	245.32	7.75	
2025-01-07 12:40:41.65	245.46	7.79	
2025-01-07 12:40:42.67	245.61	7.84	
2025-01-07 12:40:43.70	245.75	7.88	
2025-01-07 12:40:44.73	245.90	7.92	
2025-01-07 12:40:45.75	246.04	7.97	
2025-01-07 12:40:46.78	246.19	8.01	
2025-01-07 12:40:47.80	246.34	8.06	
2025-01-07 12:40:48.83	246.49	8.10	
2025-01-07 12:40:49.85	246.63	8.14	
2025-01-07 12:40:50.88	246.78	8.19	
2025-01-07 12:40:51.91	246.93	8.23	
2025-01-07 12:40:52.94	247.08	8.27	
2025-01-07 12:40:53.97	247.23	8.32	
2025-01-07 12:40:54.99	247.38	8.36	
2025-01-07 12:40:56.01	247.53	8.40	
2025-01-07 12:40:57.04	247.68	8.44	
2025-01-07 12:40:58.07	247.83	8.49	
2025-01-07 12:40:59.09	247.98	8.53	
2025-01-07 12:41:00.12	248.14	8.57	
2025-01-07 12:41:01.14	248.29	8.61	
2025-01-07 12:41:02.17	248.44	8.66	
2025-01-07 12:41:03.20	248.59	8.70	
2025-01-07 12:41:04.22	248.75	8.74	
2025-01-07 12:41:05.25	248.90	8.78	
2025-01-07 12:41:06.28	249.06	8.82	
2025-01-07 12:41:07.30	249.21	8.86	
2025-01-07 12:41:08.33	249.37	8.91	
2025-01-07 12:41:09.36	249.52	8.95	
2025-01-07 12:41:10.38	249.68	8.99	
2025-01-07 12:41:11.41	249.84	9.03	
2025-01-07 12:41:12.44	249.99	9.07	
2025-01-07 12:41:13.46	250.15	9.11	
2025-01-07 12:41:14.49	250.31	9.15	
2025-01-07 12:41:15.52	250.47	9.19	
2025-01-07 12:41:16.54	250.63	9.23	
2025-01-07 12:41:17.57	250.79	9.28	
2025-01-07 12:41:18.60	250.95	9.32	
2025-01-07 12:41:19.63	251.11	9.36	
2025-01-07 12:41:20.65	251.27	9.40	
2025-01-07 12:41:21.68	251.43	9.44	
2025-01-07 12:41:22.71	251.59	9.48	
2025-01-07 12:41:23.73	251.75	9.52	
2025-01-07 12:41:24.76	251.92	9.56	
2025-01-07 12:41:25.79	252.08	9.60	
2025-01-07 12:41:26.82	252.24	9.63	
2025-01-07 12:41:27.86	252.41	9.67	
2025-01-07 12:41:28.88	252.57	9.71	
2025-01-07 12:41:29.92	252.74	9.75	
2025-01-07 12:41:30.95	252.90	9.79	
2025-01-07 12:41:31.98	253.07	9.83	
2025-01-07 12:41:33.01	253.24	9.87	
2025-01-07 12:41:34.05	253.40	9.91	
2025-01-07 12:41:35.08	253.57	9.95	
2025-01-07 12:41:36.10	253.74	9.98	
2025-01-07 12:41:37.13	253.90	10.02	
2025-01-07 12:41:38.15	254.07	10.06	
2025-01-07 12:41:39.20	254.24	10.10	
2025-01-07 12:41:40.22	254.41	10.13	
2025-01-07 12:41:41.25	254.58	10.17	
2025-01-07 12:41:42.27	254.75	10.21	
2025-01-07 12:41:43.31	254.92	10.25	
2025-01-07 12:41:44.33	255.09	10.28	
2025-01-07 12:41:45.36	255.26	10.32	
2025-01-07 12:41:46.40	255.44	10.36	
2025-01-07 12:41:47.43	255.61	10.39	
2025-01-07 12:41:48.46	255.78	10.43	
2025-01-07 12:41:49.48	255.95	10.46	
2025-01-07 12:41:50.51	256.12	10.50	
2025-01-07 12:41:51.54	256.30	10.53	
2025-01-07 12:41:52.58	256.47	10.57	
2025-01-07 12:41:53.61	256.65	10.61	
2025-01-07 12:41:54.63	256.82	10.64	
2025-01-07 12:41:55.66	257.00	10.67	
2025-01-07 12:41:56.68	257.17	10.71	
2025-01-07 12:41:57.73	257.35	10.74	
2025-01-07 12:41:58.75	257.53	10.78	
2025-01-07 12:41:59.78	257.70	10.81	
2025-01-07 12:42:00.80	257.88	10.85	
2025-01-07 12:42:01.83	258.06	10.88	
2025-01-07 12:42:02.86	258.24	10.91	
2025-01-07 12:42:03.88	258.41	10.95	
2025-01-07 12:42:04.92	258.59	10.98	
2025-01-07 12:42:05.95	258.77	11.01	
2025-01-07 12:42:06.98	258.95	11.04	
2025-01-07 12:42:08.00	259.13	11.08	
2025-01-07 12:42:09.04	259.31	11.11	
2025-01-07 12:42:10.07	259.49	11.14	
2025-01-07 12:42:11.10	259.67	11.17	
2025-01-07 12:42:12.12	259.85	11.20	
2025-01-07 12:42:13.15	260.04	11.24	
2025-01-07 12:42:14.18	260.22	11.27	
2025-01-07 12:42:15.20	260.40	11.30	
2025-01-07 12:42:16.23	260.58	11.33	
2025-01-07 12:42:17.26	260.77	11.36	
2025-01-07 12:42:18.29	260.95	11.39	
2025-01-07 12:42:19.32	261.13	11.42	
2025-01-07 12:42:20.34	261.32	11.45	
2025-01-07 12:42:21.37	261.50	11.48	
2025-01-07 12:42:22.39	261.69	11.51	
2025-01-07 12:42:23.42	261.87	11.54	
2025-01-07 12:42:24.44	262.06	11.57	
2025-01-07 12:42:25.47	262.24	11.59	
2025-01-07 12:42:26.49	262.43	11.62	
2025-01-07 12:42:27.52	262.61	11.65	
2025-01-07 12:42:28.55	262.80	11.68	
2025-01-07 12:42:29.57	262.99	11.71	
2025-01-07 12:42:30.60	263.18	11.73	
2025-01-07 12:42:31.62	263.36	11.76	
2025-01-07 12:42:32.65	263.55	11.79	
2025-01-07 12:42:33.68	263.74	11.81	
2025-01-07 12:42:34.70	263.93	11.84	
2025-01-07 12:42:35.73	264.12	11.87	
2025-01-07 12:42:36.76	264.31	11.89	
2025-01-07 12:42:37.79	264.50	11.92	
2025-01-07 12:42:38.83	264.69	11.94	
2025-01-07 12:42:39.86	264.88	11.97	
2025-01-07 12:42:40.89	265.07	11.99	
2025-01-07 12:42:41.91	265.26	12.02	
2025-01-07 12:42:42.94	265.45	12.04	
2025-01-07 12:42:43.97	265.65	12.07	
2025-01-07 12:42:45.00	265.84	12.09	
2025-01-07 12:42:46.02	266.03	12.11	
2025-01-07 12:42:47.08	266.23	12.14	
2025-01-07 12:42:48.10	266.42	12.16	
2025-01-07 12:42:49.13	266.61	12.18	
2025-01-07 12:42:50.15	266.81	12.21	
2025-01-07 12:42:51.18	267.00	12.23	
2025-01-07 12:42:52.20	267.19	12.25	
2025-01-07 12:42:53.23	267.39	12.27	
2025-01-07 12:42:54.26	267.58	12.29	
2025-01-07 12:42:55.28	267.78	12.31	
2025-01-07 12:42:56.31	267.97	12.33	
2025-01-07 12:42:57.34	268.17	12.36	
2025-01-07 12:42:58.36	268.36	12.38	
2025-01-07 12:42:59.39	268.56	12.40	
2025-01-07 12:43:00.42	268.76	12.42	
2025-01-07 12:43:01.44	268.95	12.43	
2025-01-07 12:43:02.47	269.15	12.45	
2025-01-07 12:43:03.49	269.34	12.47	
2025-01-07 12:43:04.52	269.54	12.49	
2025-01-07 12:43:05.54	269.74	12.51	
2025-01-07 12:43:06.58	269.94	12.53	
2025-01-07 12:43:07.61	270.14	12.54	
2025-01-07 12:43:08.65	270.34	12.56	
2025-01-07 12:43:09.67	270.53	12.58	
2025-01-07 12:43:10.70	270.73	12.60	
2025-01-07 12:43:11.73	270.93	12.61	
2025-01-07 12:43:12.75	271.13	12.63	
2025-01-07 12:43:13.77	271.33	12.64	
2025-01-07 12:43:14.80	271.53	12.66	
2025-01-07 12:43:15.83	271.73	12.67	
2025-01-07 12:43:16.85	271.93	12.69	
2025-01-07 12:43:17.88	272.13	12.70	
2025-01-07 12:43:18.90	272.32	12.72	
2025-01-07 12:43:19.94	272.53	12.73	
2025-01-07 12:43:20.97	272.73	12.75	
2025-01-07 12:43:22.00	272.93	12.76	
2025-01-07 12:43:23.03	273.13	12.77	
2025-01-07 12:43:24.05	273.33	12.78	
2025-01-07 12:43:25.08	273.53	12.80	
2025-01-07 12:43:26.12	273.74	12.81	
2025-01-07 12:43:27.15	273.94	12.82	
2025-01-07 12:43:28.18	274.14	12.83	
2025-01-07 12:43:29.22	274.34	12.84	
2025-01-07 12:43:30.24	274.54	12.85	
2025-01-07 12:43:31.28	274.75	12.87	
2025-01-07 12:43:32.31	274.95	12.88	
2025-01-07 12:43:33.34	275.15	12.89	
2025-01-07 12:43:34.37	275.36	12.90	
2025-01-07 12:43:35.39	275.56	12.90	
2025-01-07 12:43:36.42	275.76	12.91	
2025-01-07 12:43:37.45	275.97	12.92	
2025-01-07 12:43:38.47	276.17	12.93	
2025-01-07 12:43:39.50	276.37	12.94	
2025-01-07 12:43:40.53	276.57	12.95	
2025-01-07 12:43:41.55	276.78	12.95	
2025-01-07 12:43:42.58	276.98	12.96	
2025-01-07 12:43:43.61	277.18	12.97	
2025-01-07 12:43:44.64	277.39	12.97	
2025-01-07 12:43:45.66	277.59	12.98	
2025-01-07 12:43:46.69	277.79	12.98	
2025-01-07 12:43:47.72	278.00	12.99	
2025-01-07 12:43:48.74	278.20	12.99	
2025-01-07 12:43:49.77	278.40	13.00	
2025-01-07 12:43:50.80	278.61	13.00	
2025-01-07 12:43:51.83	278.81	13.01	
2025-01-07 12:43:52.86	279.02	13.01	
2025-01-07 12:43:53.88	279.22	13.01	
2025-01-07 12:43:54.91	279.42	13.02	
2025-01-07 12:43:55.93	279.63	13.02	
2025-01-07 12:43:56.94	279.83	13.02	
2025-01-07 12:43:57.97	280.03	13.02	
2025-01-07 12:43:59.02	280.24	13.03	
2025-01-07 12:44:00.05	280.45	13.03	
2025-01-07 12:44:01.08	280.65	13.03	
2025-01-07 12:44:02.11	280.85	13.03	
2025-01-07 12:44:03.13	281.06	13.03	
2025-01-07 12:44:04.17	281.26	13.03	
2025-01-07 12:44:05.20	281.47	13.03	
2025-01-07 12:44:06.23	281.67	13.03	
2025-01-07 12:44:07.25	281.88	13.03	
2025-01-07 12:44:08.30	282.08	13.03	
2025-01-07 12:44:09.34	282.29	13.02	
2025-01-07 12:44:10.36	282.49	13.02	
2025-01-07 12:44:11.39	282.70	13.02	
2025-01-07 12:44:12.42	282.90	13.02	
2025-01-07 12:44:13.44	283.11	13.01	
2025-01-07 12:44:14.47	283.31	13.01	
2025-01-07 12:44:15.51	283.52	13.01	
2025-01-07 12:44:16.53	283.72	13.00	
2025-01-07 12:44:17.56	283.92	13.00	
2025-01-07 12:44:18.59	284.13	13.00	
2025-01-07 12:44:19.63	284.33	12.99	
2025-01-07 12:44:20.65	284.54	12.99	
2025-01-07 12:44:21.68	284.74	12.98	
2025-01-07 12:44:22.70	284.94	12.97	
2025-01-07 12:44:23.73	285.14	12.97	
2025-01-07 12:44:24.76	285.35	12.96	
2025-01-07 12:44:25.79	285.55	12.95	
2025-01-07 12:44:26.82	285.76	12.95	
2025-01-07 12:44:27.84	285.96	12.94	
2025-01-07 12:44:28.86	286.16	12.93	
2025-01-07 12:44:29.89	286.36	12.92	
2025-01-07 12:44:30.92	286.56	12.91	
2025-01-07 12:44:31.95	286.77	12.91	
2025-01-07 12:44:32.97	286.97	12.90	
2025-01-07 12:44:34.00	287.17	12.89	
2025-01-07 12:44:35.03	287.37	12.88	
2025-01-07 12:44:36.07	287.58	12.87	
2025-01-07 12:44:37.10	287.78	12.86	
2025-01-07 12:44:38.14	287.98	12.85	
2025-01-07 12:44:39.17	288.19	12.83	
2025-01-07 12:44:40.20	288.39	12.82	
2025-01-07 12:44:41.22	288.59	12.81	
2025-01-07 12:44:42.25	288.79	12.80	
2025-01-07 12:44:43.28	288.99	12.79	
2025-01-07 12:44:44.31	289.19	12.77	
2025-01-07 12:44:45.33	289.39	12.76	
2025-01-07 12:44:46.36	289.59	12.75	
2025-01-07 12:44:47.39	289.79	12.73	
2025-01-07 12:44:48.42	289.99	12.72	
2025-01-07 12:44:49.46	290.20	12.71	
2025-01-07 12:44:50.48	290.39	12.69	
2025-01-07 12:44:51.51	290.59	12.68	
2025-01-07 12:44:52.54	290.79	12.66	
2025-01-07 12:44:53.58	290.99	12.65	
2025-01-07 12:44:54.61	291.19	12.63	
2025-01-07 12:44:55.63	291.39	12.62	
2025-01-07 12:44:56.66	291.59	12.60	
2025-01-07 12:44:57.69	291.79	12.58	
2025-01-07 12:44:58.73	291.99	12.56	
2025-01-07 12:44:59.76	292.19	12.55	
2025-01-07 12:45:00.79	292.38	12.53	
2025-01-07 12:45:01.82	292.58	12.51	
2025-01-07 12:45:02.84	292.78	12.49	
2025-01-07 12:45:03.88	292.98	12.48	
2025-01-07 12:45:04.91	293.17	12.46	
2025-01-07 12:45:05.93	293.37	12.44	
2025-01-07 12:45:06.96	293.56	12.42	
2025-01-07 12:45:07.98	293.76	12.40	
2025-01-07 12:45:09.01	293.96	12.38	
2025-01-07 12:45:10.04	294.15	12.36	
2025-01-07 12:45:11.06	294.34	12.34	
2025-01-07 12:45:12.09	294.54	12.32	
2025-01-07 12:45:13.12	294.73	12.30	
2025-01-07 12:45:14.15	294.93	12.28	
2025-01-07 12:45:15.17	295.12	12.26	
2025-01-07 12:45:16.20	295.32	12.23	
2025-01-07 12:45:17.23	295.51	12.21	
2025-01-07 12:45:18.25	295.70	12.19	
2025-01-07 12:45:19.28	295.89	12.17	
2025-01-07 12:45:20.31	296.09	12.14	
2025-01-07 12:45:21.33	296.28	12.12	
2025-01-07 12:45:22.36	296.47	12.10	
2025-01-07 12:45:23.40	296.66	12.07	
2025-01-07 12:45:24.43	296.86	12.05	
2025-01-07 12:45:25.45	297.04	12.03	
2025-01-07 12:45:26.49	297.24	12.00	
2025-01-07 12:45:27.52	297.43	11.98	
2025-01-07 12:45:28.54	297.62	11.95	
2025-01-07 12:45:29.57	297.81	11.93	
2025-01-07 12:45:30.60	298.00	11.90	
2025-01-07 12:45:31.63	298.19	11.87	
2025-01-07 12:45:32.65	298.37	11.85	
2025-01-07 12:45:33.68	298.56	11.82	
2025-01-07 12:45:34.71	298.75	11.80	
2025-01-07 12:45:35.74	298.94	11.77	
2025-01-07 12:45:36.76	299.13	11.74	
2025-01-07 12:45:37.79	299.31	11.72	
2025-01-07 12:45:38.81	299.50	11.69	
2025-01-07 12:45:39.84	299.68	11.66	
2025-01-07 12:45:40.86	299.87	11.63	
2025-01-07 12:45:41.89	300.06	11.60	
2025-01-07 12:45:42.91	300.24	11.58	
2025-01-07 12:45:43.94	300.42	11.55	
2025-01-07 12:45:44.97	300.61	11.52	
2025-01-07 12:45:45.99	300.79	11.49	
2025-01-07 12:45:47.02	300.98	11.46	
2025-01-07 12:45:48.05	301.16	11.43	
2025-01-07 12:45:49.08	301.34	11.40	
2025-01-07 12:45:50.11	301.53	11.37	
2025-01-07 12:45:51.15	301.71	11.34	
2025-01-07 12:45:52.19	301.90	11.31	
2025-01-07 12:45:53.22	302.08	11.28	
2025-01-07 12:45:54.24	302.26	11.25	
2025-01-07 12:45:55.27	302.44	11.22	
2025-01-07 12:45:56.30	302.62	11.19	
2025-01-07 12:45:57.33	302.80	11.15	
2025-01-07 12:45:58.35	302.98	11.12	
2025-01-07 12:45:59.40	303.16	11.09	
2025-01-07 12:46:00.42	303.34	11.06	
2025-01-07 12:46:01.44	303.52	11.03	
2025-01-07 12:46:02.47	303.70	10.99	
2025-01-07 12:46:03.50	303.87	10.96	
2025-01-07 12:46:04.52	304.05	10.93	
2025-01-07 12:46:05.56	304.23	10.89	
2025-01-07 12:46:06.59	304.41	10.86	
2025-01-07 12:46:07.62	304.58	10.83	
2025-01-07 12:46:08.64	304.76	10.79	
2025-01-07 12:46:09.67	304.93	10.76	
2025-01-07 12:46:10.71	305.11	10.73	
2025-01-07 12:46:11.74	305.29	10.69	
2025-01-07 12:46:12.76	305.46	10.66	
2025-01-07 12:46:13.79	305.63	10.62	
2025-01-07 12:46:14.82	305.81	10.59	
2025-01-07 12:46:15.84	305.98	10.55	
2025-01-07 12:46:16.87	306.15	10.52	
2025-01-07 12:46:17.91	306.33	10.48	
2025-01-07 12:46:18.93	306.50	10.45	
2025-01-07 12:46:19.96	306.67	10.41	
2025-01-07 12:46:20.99	306.84	10.38	
2025-01-07 12:46:22.03	307.01	10.34	
2025-01-07 12:46:23.05	307.18	10.30	
2025-01-07 12:46:24.08	307.35	10.27	
2025-01-07 12:46:25.11	307.52	10.23	
2025-01-07 12:46:26.13	307.69	10.19	
2025-01-07 12:46:27.16	307.86	10.16	
2025-01-07 12:46:28.19	308.03	10.12	
2025-01-07 12:46:29.22	308.20	10.08	
2025-01-07 12:46:30.26	308.37	10.04	
2025-01-07 12:46:31.28	308.53	10.01	
2025-01-07 12:46:32.33	308.70	9.97	
2025-01-07 12:46:33.37	308.87	9.93	
2025-01-07 12:46:34.41	309.04	9.89	
2025-01-07 12:46:35.43	309.20	9.85	
2025-01-07 12:46:36.46	309.37	9.82	
2025-01-07 12:46:37.50	309.53	9.78	
2025-01-07 12:46:38.53	309.70	9.74	
2025-01-07 12:46:39.55	309.86	9.70	
2025-01-07 12:46:40.58	310.02	9.66	
2025-01-07 12:46:41.60	310.18	9.62	
2025-01-07 12:46:42.63	310.35	9.58	
2025-01-07 12:46:43.65	310.51	9.54	
2025-01-07 12:46:44.68	310.67	9.51	
2025-01-07 12:46:45.72	310.83	9.47	
2025-01-07 12:46:46.75	310.99	9.43	
2025-01-07 12:46:47.78	311.15	9.39	
2025-01-07 12:46:48.80	311.31	9.35	
2025-01-07 12:46:49.83	311.47	9.31	
2025-01-07 12:46:50.86	311.63	9.27	
2025-01-07 12:46:51.88	311.79	9.23	
2025-01-07 12:46:52.91	311.95	9.19	
2025-01-07 12:46:53.93	312.10	9.14	
2025-01-07 12:46:54.96	312.26	9.10	
2025-01-07 12:46:55.99	312.42	9.06	
2025-01-07 12:46:57.01	312.57	9.02	
2025-01-07 12:46:58.06	312.73	8.98	
2025-01-07 12:46:59.08	312.89	8.94	
2025-01-07 12:47:00.11	313.04	8.90	
2025-01-07 12:47:01.13	313.20	8.86	
2025-01-07 12:47:02.15	313.35	8.82	
2025-01-07 12:47:03.18	313.50	8.78	
2025-01-07 12:47:04.22	313.66	8.73	
2025-01-07 12:47:05.25	313.81	8.69	
2025-01-07 12:47:06.27	313.96	8.65	
2025-01-07 12:47:07.30	314.11	8.61	
2025-01-07 12:47:08.32	314.27	8.57	
2025-01-07 12:47:09.36	314.42	8.52	
2025-01-07 12:47:10.39	314.57	8.48	
2025-01-07 12:47:11.41	314.72	8.44	
2025-01-07 12:47:12.44	314.87	8.40	
2025-01-07 12:47:13.46	315.02	8.35	
2025-01-07 12:47:14.50	315.17	8.31	
2025-01-07 12:47:15.52	315.32	8.27	
2025-01-07 12:47:16.54	315.46	8.23	
2025-01-07 12:47:17.56	315.61	8.18	
2025-01-07 12:47:18.59	315.76	8.14	
2025-01-07 12:47:19.61	315.90	8.10	
2025-01-07 12:47:20.64	316.05	8.05	
2025-01-07 12:47:21.67	316.20	8.01	
2025-01-07 12:47:22.71	316.34	7.97	
2025-01-07 12:47:23.77	316.49	7.92	
2025-01-07 12:47:24.82	316.64	7.88	
2025-01-07 12:47:25.85	316.79	7.83	
2025-01-07 12:47:26.87	316.93	7.79	
2025-01-07 12:47:27.88	317.07	7.75	
2025-01-07 12:47:28.92	317.22	7.70	
2025-01-07 12:47:29.93	317.36	7.66	
2025-01-07 12:47:30.95	317.50	7.62	
2025-01-07 12:47:31.98	317.64	7.57	
2025-01-07 12:47:33.01	317.78	7.53	
2025-01-07 12:47:34.03	317.92	7.49	
2025-01-07 12:47:35.05	318.06	7.44	
2025-01-07 12:47:36.08	318.20	7.40	
2025-01-07 12:47:37.11	318.34	7.35	
2025-01-07 12:47:38.14	318.48	7.31	
2025-01-07 12:47:39.19	318.62	7.26	
2025-01-07 12:47:40.20	318.76	7.22	
2025-01-07 12:47:41.21	318.90	7.18	
2025-01-07 12:47:42.22	319.03	7.13	
2025-01-07 12:47:43.23	319.17	7.09	
2025-01-07 12:47:44.27	319.31	7.04	
2025-01-07 12:47:45.28	319.44	7.00	
2025-01-07 12:47:46.31	319.58	6.95	
2025-01-07 12:47:47.36	319.72	6.91	
2025-01-07 12:47:48.38	319.85	6.86	
2025-01-07 12:47:49.40	319.98	6.82	
2025-01-07 12:47:50.41	320.12	6.77	
2025-01-07 12:47:51.42	320.25	6.73	
2025-01-07 12:47:52.44	320.38	6.68	
2025-01-07 12:47:53.46	320.51	6.64	
2025-01-07 12:47:54.49	320.65	6.59	
2025-01-07 12:47:55.51	320.78	6.55	
2025-01-07 12:47:56.52	320.91	6.50	
2025-01-07 12:47:57.54	321.04	6.46	
2025-01-07 12:47:58.57	321.17	6.41	
2025-01-07 12:47:59.59	321.30	6.37	
2025-01-07 12:48:00.61	321.43	6.32	
2025-01-07 12:48:01.63	321.56	6.28	
2025-01-07 12:48:02.66	321.69	6.23	
2025-01-07 12:48:03.70	321.82	6.19	
2025-01-07 12:48:04.72	321.95	6.14	
2025-01-07 12:48:05.75	322.08	6.10	
2025-01-07 12:48:06.80	322.21	6.05	
2025-01-07 12:48:07.82	322.34	6.00	
2025-01-07 12:48:08.85	322.47	5.96	
2025-01-07 12:48:09.88	322.59	5.91	
2025-01-07 12:48:10.91	322.72	5.87	
2025-01-07 12:48:11.93	322.85	5.82	
2025-01-07 12:48:12.96	322.97	5.77	
2025-01-07 12:48:14.00	323.10	5.73	
2025-01-07 12:48:15.03	323.22	5.68	
2025-01-07 12:48:16.06	323.35	5.63	
2025-01-07 12:48:17.08	323.47	5.59	
2025-01-07 12:48:18.12	323.60	5.54	
2025-01-07 12:48:19.15	323.72	5.50	
2025-01-07 12:48:20.17	323.85	5.45	
2025-01-07 12:48:21.19	323.97	5.40	
2025-01-07 12:48:22.22	324.09	5.36	
2025-01-07 12:48:23.26	324.21	5.31	
2025-01-07 12:48:24.29	324.34	5.26	
2025-01-07 12:48:25.32	324.46	5.22	
2025-01-07 12:48:26.34	324.58	5.17	
2025-01-07 12:48:27.37	324.70	5.13	
2025-01-07 12:48:28.40	324.82	5.08	
2025-01-07 12:48:29.42	324.94	5.03	
2025-01-07 12:48:30.45	325.06	4.99	
2025-01-07 12:48:31.48	325.18	4.94	
2025-01-07 12:48:32.52	325.30	4.89	
2025-01-07 12:48:33.55	325.42	4.85	
2025-01-07 12:48:34.57	325.54	4.80	
2025-01-07 12:48:35.60	325.65	4.75	
2025-01-07 12:48:36.62	325.77	4.71	
2025-01-07 12:48:37.65	325.89	4.66	
2025-01-07 12:48:38.68	326.00	4.61	
2025-01-07 12:48:39.72	326.12	4.57	
2025-01-07 12:48:40.75	326.24	4.52	
2025-01-07 12:48:41.78	326.35	4.47	
2025-01-07 12:48:42.81	326.47	4.43	
2025-01-07 12:48:43.84	326.59	4.38	
2025-01-07 12:48:44.86	326.70	4.33	
2025-01-07 12:48:45.89	326.81	4.29	
2025-01-07 12:48:46.92	326.93	4.24	
2025-01-07 12:48:47.95	327.04	4.19	
2025-01-07 12:48:48.98	327.16	4.15	
2025-01-07 12:48:50.00	327.27	4.10	
2025-01-07 12:48:51.03	327.38	4.05	
2025-01-07 12:48:52.07	327.49	4.01	

#Closed at: 2025-01-07 12:48:52