passes_logs/2025/01/07/SPB_Silybum_02/SPB_Silybum_02__20250107_230356_SUOMI_NPP_rec.log

#Pass ID: 20250107_230356_SUOMI NPP
#Satellite: SUOMI NPP
#Configuration: NPP
#Start time: 2025-01-07 23:08:26

#Version: 2.0.20230423
#Station: SPB_Silybum_02
#Location: 30.233357 lon 59.946436 lat
#TLE: 1 37849U 11061A   25007.16649885  .00000287  00000+0  15716-3 0  9990
#TLE: 2 37849  98.7438 308.2547 0001950  52.7817 307.3537 14.19534452683807

#Time	Az	El	Level	Level2	SNR	BER	Gain	Gain2
2025-01-07 23:08:28.31	58.24	26.37	
2025-01-07 23:08:29.13	58.45	26.44	
2025-01-07 23:08:29.96	58.66	26.52	
2025-01-07 23:08:30.77	58.87	26.60	
2025-01-07 23:08:31.60	59.09	26.67	
2025-01-07 23:08:32.42	59.30	26.75	
2025-01-07 23:08:33.24	59.51	26.82	
2025-01-07 23:08:34.06	59.73	26.90	
2025-01-07 23:08:34.88	59.94	26.97	
2025-01-07 23:08:35.71	60.16	27.05	
2025-01-07 23:08:36.53	60.38	27.12	
2025-01-07 23:08:37.35	60.60	27.20	
2025-01-07 23:08:38.17	60.82	27.27	
2025-01-07 23:08:38.99	61.04	27.34	
2025-01-07 23:08:39.83	61.27	27.42	
2025-01-07 23:08:40.65	61.49	27.49	
2025-01-07 23:08:41.47	61.71	27.56	
2025-01-07 23:08:42.29	61.94	27.64	
2025-01-07 23:08:43.12	62.17	27.71	
2025-01-07 23:08:43.94	62.39	27.78	
2025-01-07 23:08:44.76	62.62	27.85	
2025-01-07 23:08:45.58	62.85	27.93	
2025-01-07 23:08:46.41	63.08	28.00	
2025-01-07 23:08:47.23	63.31	28.07	
2025-01-07 23:08:48.06	63.55	28.14	
2025-01-07 23:08:48.89	63.78	28.21	
2025-01-07 23:08:49.71	64.02	28.28	
2025-01-07 23:08:50.55	64.26	28.35	
2025-01-07 23:08:51.37	64.49	28.42	
2025-01-07 23:08:52.19	64.73	28.49	
2025-01-07 23:08:53.02	64.97	28.56	
2025-01-07 23:08:53.84	65.21	28.63	
2025-01-07 23:08:54.66	65.45	28.70	
2025-01-07 23:08:55.48	65.69	28.76	
2025-01-07 23:08:56.30	65.93	28.83	
2025-01-07 23:08:57.13	66.18	28.90	
2025-01-07 23:08:57.95	66.42	28.96	
2025-01-07 23:08:58.77	66.66	29.03	
2025-01-07 23:08:59.59	66.91	29.10	
2025-01-07 23:09:00.42	67.16	29.16	
2025-01-07 23:09:01.24	67.41	29.23	
2025-01-07 23:09:02.06	67.66	29.29	
2025-01-07 23:09:02.89	67.91	29.35	
2025-01-07 23:09:03.72	68.16	29.42	
2025-01-07 23:09:04.54	68.41	29.48	
2025-01-07 23:09:05.36	68.67	29.54	
2025-01-07 23:09:06.20	68.93	29.61	
2025-01-07 23:09:07.02	69.18	29.67	
2025-01-07 23:09:07.84	69.44	29.73	
2025-01-07 23:09:08.66	69.69	29.79	
2025-01-07 23:09:09.48	69.95	29.85	
2025-01-07 23:09:10.30	70.21	29.91	
2025-01-07 23:09:11.12	70.47	29.97	
2025-01-07 23:09:11.94	70.73	30.03	
2025-01-07 23:09:12.77	70.99	30.09	
2025-01-07 23:09:13.59	71.26	30.14	
2025-01-07 23:09:14.41	71.52	30.20	
2025-01-07 23:09:15.23	71.78	30.26	
2025-01-07 23:09:16.05	72.05	30.31	
2025-01-07 23:09:16.87	72.31	30.37	
2025-01-07 23:09:17.70	72.58	30.42	
2025-01-07 23:09:18.53	72.85	30.48	
2025-01-07 23:09:19.35	73.12	30.53	
2025-01-07 23:09:20.17	73.39	30.59	
2025-01-07 23:09:21.00	73.67	30.64	
2025-01-07 23:09:21.82	73.94	30.69	
2025-01-07 23:09:22.63	74.21	30.74	
2025-01-07 23:09:23.45	74.48	30.79	
2025-01-07 23:09:24.27	74.75	30.84	
2025-01-07 23:09:25.10	75.03	30.89	
2025-01-07 23:09:25.92	75.31	30.94	
2025-01-07 23:09:26.76	75.59	30.99	
2025-01-07 23:09:27.58	75.87	31.04	
2025-01-07 23:09:28.40	76.14	31.09	
2025-01-07 23:09:29.22	76.42	31.13	
2025-01-07 23:09:30.04	76.70	31.18	
2025-01-07 23:09:30.86	76.98	31.22	
2025-01-07 23:09:31.69	77.27	31.27	
2025-01-07 23:09:32.51	77.55	31.31	
2025-01-07 23:09:33.35	77.84	31.35	
2025-01-07 23:09:34.17	78.12	31.40	
2025-01-07 23:09:34.99	78.40	31.44	
2025-01-07 23:09:35.81	78.69	31.48	
2025-01-07 23:09:36.63	78.97	31.52	
2025-01-07 23:09:37.45	79.26	31.56	
2025-01-07 23:09:38.27	79.55	31.60	
2025-01-07 23:09:39.09	79.83	31.63	
2025-01-07 23:09:39.91	80.12	31.67	
2025-01-07 23:09:40.74	80.41	31.71	
2025-01-07 23:09:41.56	80.70	31.74	
2025-01-07 23:09:42.38	80.99	31.78	
2025-01-07 23:09:43.20	81.28	31.81	
2025-01-07 23:09:44.02	81.58	31.85	
2025-01-07 23:09:44.85	81.87	31.88	
2025-01-07 23:09:45.68	82.17	31.91	
2025-01-07 23:09:46.50	82.46	31.94	
2025-01-07 23:09:47.32	82.75	31.97	
2025-01-07 23:09:48.15	83.05	32.00	
2025-01-07 23:09:48.96	83.34	32.03	
2025-01-07 23:09:49.79	83.64	32.06	
2025-01-07 23:09:50.62	83.94	32.09	
2025-01-07 23:09:51.44	84.24	32.11	
2025-01-07 23:09:52.26	84.53	32.14	
2025-01-07 23:09:53.08	84.83	32.16	
2025-01-07 23:09:53.90	85.13	32.19	
2025-01-07 23:09:54.72	85.42	32.21	
2025-01-07 23:09:55.54	85.72	32.23	
2025-01-07 23:09:56.36	86.02	32.25	
2025-01-07 23:09:57.18	86.32	32.27	
2025-01-07 23:09:58.00	86.62	32.29	
2025-01-07 23:09:58.82	86.92	32.31	
2025-01-07 23:09:59.65	87.22	32.33	
2025-01-07 23:10:00.46	87.52	32.35	
2025-01-07 23:10:01.28	87.82	32.36	
2025-01-07 23:10:02.10	88.12	32.38	
2025-01-07 23:10:02.93	88.43	32.39	
2025-01-07 23:10:03.75	88.73	32.41	
2025-01-07 23:10:04.59	89.04	32.42	
2025-01-07 23:10:05.42	89.34	32.43	
2025-01-07 23:10:06.24	89.65	32.44	
2025-01-07 23:10:07.06	89.95	32.45	
2025-01-07 23:10:07.88	90.25	32.46	
2025-01-07 23:10:08.69	90.55	32.47	
2025-01-07 23:10:09.51	90.85	32.48	
2025-01-07 23:10:10.34	91.16	32.49	
2025-01-07 23:10:11.16	91.46	32.49	
2025-01-07 23:10:11.98	91.77	32.50	
2025-01-07 23:10:12.81	92.07	32.50	
2025-01-07 23:10:13.63	92.38	32.50	
2025-01-07 23:10:14.45	92.68	32.51	
2025-01-07 23:10:15.27	92.98	32.51	
2025-01-07 23:10:16.10	93.29	32.51	
2025-01-07 23:10:16.93	93.60	32.51	
2025-01-07 23:10:17.75	93.90	32.51	
2025-01-07 23:10:18.58	94.21	32.51	
2025-01-07 23:10:19.42	94.52	32.50	
2025-01-07 23:10:20.24	94.83	32.50	
2025-01-07 23:10:21.06	95.13	32.49	
2025-01-07 23:10:21.88	95.43	32.49	
2025-01-07 23:10:22.70	95.74	32.48	
2025-01-07 23:10:23.52	96.04	32.48	
2025-01-07 23:10:24.34	96.34	32.47	
2025-01-07 23:10:25.16	96.64	32.46	
2025-01-07 23:10:25.98	96.95	32.45	
2025-01-07 23:10:26.80	97.25	32.44	
2025-01-07 23:10:27.63	97.56	32.43	
2025-01-07 23:10:28.45	97.86	32.41	
2025-01-07 23:10:29.27	98.16	32.40	
2025-01-07 23:10:30.09	98.46	32.39	
2025-01-07 23:10:30.91	98.76	32.37	
2025-01-07 23:10:31.73	99.06	32.35	
2025-01-07 23:10:32.56	99.37	32.34	
2025-01-07 23:10:33.38	99.67	32.32	
2025-01-07 23:10:34.20	99.97	32.30	
2025-01-07 23:10:35.02	100.27	32.28	
2025-01-07 23:10:35.84	100.57	32.26	
2025-01-07 23:10:36.66	100.87	32.24	
2025-01-07 23:10:37.48	101.17	32.22	
2025-01-07 23:10:38.31	101.47	32.20	
2025-01-07 23:10:39.13	101.77	32.17	
2025-01-07 23:10:39.95	102.06	32.15	
2025-01-07 23:10:40.77	102.36	32.12	
2025-01-07 23:10:41.59	102.66	32.10	
2025-01-07 23:10:42.41	102.95	32.07	
2025-01-07 23:10:43.23	103.25	32.04	
2025-01-07 23:10:44.06	103.55	32.01	
2025-01-07 23:10:44.88	103.84	31.99	
2025-01-07 23:10:45.70	104.14	31.96	
2025-01-07 23:10:46.51	104.43	31.93	
2025-01-07 23:10:47.34	104.72	31.89	
2025-01-07 23:10:48.16	105.02	31.86	
2025-01-07 23:10:48.99	105.31	31.83	
2025-01-07 23:10:49.81	105.60	31.79	
2025-01-07 23:10:50.64	105.90	31.76	
2025-01-07 23:10:51.46	106.19	31.72	
2025-01-07 23:10:52.30	106.48	31.69	
2025-01-07 23:10:53.12	106.77	31.65	
2025-01-07 23:10:53.95	107.07	31.61	
2025-01-07 23:10:54.77	107.35	31.57	
2025-01-07 23:10:55.59	107.64	31.53	
2025-01-07 23:10:56.42	107.93	31.49	
2025-01-07 23:10:57.26	108.22	31.45	
2025-01-07 23:10:58.07	108.50	31.41	
2025-01-07 23:10:58.90	108.79	31.37	
2025-01-07 23:10:59.72	109.07	31.33	
2025-01-07 23:11:00.54	109.36	31.28	
2025-01-07 23:11:01.37	109.64	31.24	
2025-01-07 23:11:02.19	109.92	31.19	
2025-01-07 23:11:03.01	110.20	31.15	
2025-01-07 23:11:03.83	110.48	31.10	
2025-01-07 23:11:04.65	110.76	31.06	
2025-01-07 23:11:05.47	111.04	31.01	
2025-01-07 23:11:06.29	111.32	30.96	
2025-01-07 23:11:07.11	111.59	30.91	
2025-01-07 23:11:07.93	111.87	30.86	
2025-01-07 23:11:08.76	112.15	30.81	
2025-01-07 23:11:09.58	112.42	30.76	
2025-01-07 23:11:10.40	112.69	30.71	
2025-01-07 23:11:11.22	112.97	30.66	
2025-01-07 23:11:12.04	113.24	30.60	
2025-01-07 23:11:12.86	113.51	30.55	
2025-01-07 23:11:13.69	113.78	30.50	
2025-01-07 23:11:14.51	114.05	30.44	
2025-01-07 23:11:15.33	114.32	30.39	
2025-01-07 23:11:16.16	114.59	30.33	
2025-01-07 23:11:16.97	114.85	30.28	
2025-01-07 23:11:17.81	115.12	30.22	
2025-01-07 23:11:18.64	115.39	30.16	
2025-01-07 23:11:19.46	115.65	30.10	
2025-01-07 23:11:20.28	115.91	30.05	
2025-01-07 23:11:21.10	116.17	29.99	
2025-01-07 23:11:21.92	116.44	29.93	
2025-01-07 23:11:22.74	116.69	29.87	
2025-01-07 23:11:23.56	116.95	29.81	
2025-01-07 23:11:24.40	117.22	29.75	
2025-01-07 23:11:25.22	117.47	29.69	
2025-01-07 23:11:26.05	117.73	29.62	
2025-01-07 23:11:26.87	117.99	29.56	
2025-01-07 23:11:27.69	118.24	29.50	
2025-01-07 23:11:28.51	118.49	29.44	
2025-01-07 23:11:29.34	118.75	29.37	
2025-01-07 23:11:30.16	119.00	29.31	
2025-01-07 23:11:30.99	119.25	29.24	
2025-01-07 23:11:31.81	119.50	29.18	
2025-01-07 23:11:32.63	119.75	29.11	
2025-01-07 23:11:33.45	120.00	29.05	
2025-01-07 23:11:34.28	120.25	28.98	
2025-01-07 23:11:35.09	120.49	28.91	
2025-01-07 23:11:35.91	120.73	28.85	
2025-01-07 23:11:36.73	120.97	28.78	
2025-01-07 23:11:37.56	121.22	28.71	
2025-01-07 23:11:38.38	121.46	28.64	
2025-01-07 23:11:39.21	121.70	28.57	
2025-01-07 23:11:40.04	121.94	28.50	
2025-01-07 23:11:40.86	122.18	28.44	
2025-01-07 23:11:41.69	122.42	28.36	
2025-01-07 23:11:42.51	122.66	28.30	
2025-01-07 23:11:43.33	122.89	28.22	
2025-01-07 23:11:44.16	123.13	28.15	
2025-01-07 23:11:44.98	123.36	28.08	
2025-01-07 23:11:45.80	123.59	28.01	
2025-01-07 23:11:46.62	123.83	27.94	
2025-01-07 23:11:47.44	124.05	27.87	
2025-01-07 23:11:48.27	124.29	27.80	
2025-01-07 23:11:49.09	124.51	27.72	
2025-01-07 23:11:49.92	124.74	27.65	
2025-01-07 23:11:50.74	124.97	27.58	
2025-01-07 23:11:51.56	125.19	27.50	
2025-01-07 23:11:52.40	125.42	27.43	
2025-01-07 23:11:53.22	125.65	27.35	
2025-01-07 23:11:54.04	125.87	27.28	
2025-01-07 23:11:54.86	126.09	27.21	
2025-01-07 23:11:55.69	126.31	27.13	
2025-01-07 23:11:56.50	126.53	27.06	
2025-01-07 23:11:57.32	126.74	26.98	
2025-01-07 23:11:58.15	126.96	26.91	
2025-01-07 23:11:58.97	127.18	26.83	
2025-01-07 23:11:59.79	127.39	26.76	
2025-01-07 23:12:00.61	127.61	26.68	
2025-01-07 23:12:01.43	127.82	26.60	
2025-01-07 23:12:02.26	128.04	26.53	
2025-01-07 23:12:03.08	128.25	26.45	
2025-01-07 23:12:03.90	128.46	26.37	
2025-01-07 23:12:04.72	128.66	26.30	
2025-01-07 23:12:05.54	128.87	26.22	
2025-01-07 23:12:06.37	129.08	26.14	
2025-01-07 23:12:07.19	129.29	26.06	
2025-01-07 23:12:08.01	129.49	25.99	
2025-01-07 23:12:08.83	129.70	25.91	
2025-01-07 23:12:09.65	129.90	25.83	
2025-01-07 23:12:10.47	130.10	25.75	
2025-01-07 23:12:11.29	130.30	25.68	
2025-01-07 23:12:12.12	130.50	25.60	
2025-01-07 23:12:12.94	130.70	25.52	
2025-01-07 23:12:13.76	130.90	25.44	
2025-01-07 23:12:14.58	131.10	25.36	
2025-01-07 23:12:15.40	131.29	25.28	
2025-01-07 23:12:16.23	131.49	25.20	
2025-01-07 23:12:17.06	131.69	25.12	
2025-01-07 23:12:17.88	131.88	25.04	
2025-01-07 23:12:18.72	132.08	24.96	
2025-01-07 23:12:19.54	132.27	24.88	
2025-01-07 23:12:20.37	132.46	24.80	
2025-01-07 23:12:21.19	132.65	24.72	
2025-01-07 23:12:22.01	132.84	24.64	
2025-01-07 23:12:22.83	133.03	24.56	
2025-01-07 23:12:23.65	133.21	24.48	
2025-01-07 23:12:24.48	133.40	24.40	
2025-01-07 23:12:25.31	133.59	24.32	
2025-01-07 23:12:26.13	133.77	24.24	
2025-01-07 23:12:26.95	133.96	24.16	
2025-01-07 23:12:27.78	134.14	24.08	
2025-01-07 23:12:28.60	134.32	24.00	
2025-01-07 23:12:29.42	134.50	23.92	
2025-01-07 23:12:30.24	134.68	23.84	
2025-01-07 23:12:31.07	134.86	23.76	
2025-01-07 23:12:31.89	135.04	23.68	
2025-01-07 23:12:32.72	135.22	23.60	
2025-01-07 23:12:33.54	135.39	23.52	
2025-01-07 23:12:34.36	135.57	23.44	
2025-01-07 23:12:35.18	135.74	23.36	
2025-01-07 23:12:36.00	135.92	23.28	
2025-01-07 23:12:36.82	136.09	23.20	
2025-01-07 23:12:37.65	136.26	23.12	
2025-01-07 23:12:38.48	136.43	23.04	
2025-01-07 23:12:39.30	136.60	22.96	
2025-01-07 23:12:40.12	136.77	22.88	
2025-01-07 23:12:40.94	136.94	22.80	
2025-01-07 23:12:41.77	137.11	22.71	
2025-01-07 23:12:42.59	137.28	22.63	
2025-01-07 23:12:43.41	137.44	22.55	
2025-01-07 23:12:44.24	137.61	22.47	
2025-01-07 23:12:45.07	137.77	22.39	
2025-01-07 23:12:45.89	137.94	22.31	
2025-01-07 23:12:46.71	138.10	22.23	
2025-01-07 23:12:47.53	138.26	22.15	
2025-01-07 23:12:48.35	138.42	22.07	
2025-01-07 23:12:49.17	138.58	21.99	
2025-01-07 23:12:49.99	138.74	21.91	
2025-01-07 23:12:50.81	138.90	21.83	
2025-01-07 23:12:51.63	139.06	21.75	
2025-01-07 23:12:52.45	139.21	21.67	
2025-01-07 23:12:53.27	139.37	21.59	
2025-01-07 23:12:54.10	139.53	21.51	
2025-01-07 23:12:54.92	139.68	21.43	
2025-01-07 23:12:55.74	139.83	21.35	
2025-01-07 23:12:56.56	139.99	21.27	
2025-01-07 23:12:57.38	140.14	21.19	
2025-01-07 23:12:58.20	140.29	21.11	
2025-01-07 23:12:59.02	140.44	21.03	
2025-01-07 23:12:59.86	140.59	20.95	
2025-01-07 23:13:00.71	140.75	20.87	
2025-01-07 23:13:01.53	140.89	20.79	
2025-01-07 23:13:02.35	141.04	20.71	
2025-01-07 23:13:03.17	141.19	20.63	
2025-01-07 23:13:04.00	141.34	20.55	
2025-01-07 23:13:04.82	141.48	20.47	
2025-01-07 23:13:05.64	141.63	20.39	
2025-01-07 23:13:06.47	141.77	20.31	
2025-01-07 23:13:07.29	141.91	20.23	
2025-01-07 23:13:08.11	142.06	20.15	
2025-01-07 23:13:08.92	142.20	20.08	
2025-01-07 23:13:09.74	142.34	20.00	
2025-01-07 23:13:10.56	142.48	19.92	
2025-01-07 23:13:11.38	142.62	19.84	
2025-01-07 23:13:12.20	142.76	19.76	
2025-01-07 23:13:13.02	142.89	19.68	
2025-01-07 23:13:13.85	143.03	19.60	
2025-01-07 23:13:14.67	143.17	19.52	
2025-01-07 23:13:15.49	143.31	19.45	
2025-01-07 23:13:16.32	143.44	19.37	
2025-01-07 23:13:17.14	143.58	19.29	
2025-01-07 23:13:17.97	143.71	19.21	
2025-01-07 23:13:18.79	143.85	19.13	
2025-01-07 23:13:19.61	143.98	19.06	
2025-01-07 23:13:20.43	144.11	18.98	
2025-01-07 23:13:21.25	144.24	18.90	
2025-01-07 23:13:22.08	144.37	18.82	
2025-01-07 23:13:22.90	144.50	18.74	
2025-01-07 23:13:23.73	144.64	18.67	
2025-01-07 23:13:24.55	144.76	18.59	
2025-01-07 23:13:25.38	144.89	18.51	
2025-01-07 23:13:26.21	145.02	18.43	
2025-01-07 23:13:27.03	145.15	18.36	
2025-01-07 23:13:27.85	145.28	18.28	
2025-01-07 23:13:28.67	145.40	18.20	
2025-01-07 23:13:29.49	145.53	18.13	
2025-01-07 23:13:30.31	145.65	18.05	
2025-01-07 23:13:31.14	145.78	17.97	
2025-01-07 23:13:31.96	145.90	17.90	
2025-01-07 23:13:32.78	146.02	17.82	
2025-01-07 23:13:33.60	146.15	17.75	
2025-01-07 23:13:34.42	146.27	17.67	
2025-01-07 23:13:35.25	146.39	17.59	
2025-01-07 23:13:36.07	146.51	17.52	
2025-01-07 23:13:36.89	146.63	17.44	
2025-01-07 23:13:37.71	146.75	17.37	
2025-01-07 23:13:38.53	146.87	17.29	
2025-01-07 23:13:39.36	146.99	17.22	
2025-01-07 23:13:40.17	147.10	17.14	
2025-01-07 23:13:41.01	147.22	17.06	
2025-01-07 23:13:41.83	147.34	16.99	
2025-01-07 23:13:42.66	147.45	16.91	
2025-01-07 23:13:43.48	147.57	16.84	
2025-01-07 23:13:44.31	147.69	16.76	
2025-01-07 23:13:45.13	147.80	16.69	
2025-01-07 23:13:45.95	147.91	16.62	
2025-01-07 23:13:46.77	148.03	16.54	
2025-01-07 23:13:47.59	148.14	16.47	
2025-01-07 23:13:48.42	148.25	16.39	
2025-01-07 23:13:49.24	148.36	16.32	
2025-01-07 23:13:50.06	148.47	16.25	
2025-01-07 23:13:50.88	148.58	16.17	
2025-01-07 23:13:51.70	148.69	16.10	
2025-01-07 23:13:52.52	148.80	16.03	
2025-01-07 23:13:53.34	148.91	15.95	
2025-01-07 23:13:54.17	149.02	15.88	
2025-01-07 23:13:55.00	149.13	15.81	
2025-01-07 23:13:55.83	149.24	15.73	
2025-01-07 23:13:56.65	149.35	15.66	
2025-01-07 23:13:57.47	149.45	15.59	
2025-01-07 23:13:58.29	149.56	15.51	
2025-01-07 23:13:59.11	149.66	15.44	
2025-01-07 23:13:59.93	149.77	15.37	
2025-01-07 23:14:00.76	149.87	15.30	
2025-01-07 23:14:01.59	149.98	15.22	
2025-01-07 23:14:02.42	150.08	15.15	
2025-01-07 23:14:03.24	150.19	15.08	
2025-01-07 23:14:04.06	150.29	15.01	
2025-01-07 23:14:04.89	150.39	14.94	
2025-01-07 23:14:05.71	150.49	14.87	
2025-01-07 23:14:06.53	150.59	14.79	
2025-01-07 23:14:07.35	150.69	14.72	
2025-01-07 23:14:08.18	150.79	14.65	
2025-01-07 23:14:09.00	150.89	14.58	
2025-01-07 23:14:09.82	150.99	14.51	
2025-01-07 23:14:10.64	151.09	14.44	
2025-01-07 23:14:11.47	151.19	14.37	
2025-01-07 23:14:12.29	151.29	14.30	
2025-01-07 23:14:13.12	151.39	14.23	
2025-01-07 23:14:13.94	151.48	14.16	
2025-01-07 23:14:14.76	151.58	14.09	
2025-01-07 23:14:15.58	151.68	14.02	
2025-01-07 23:14:16.40	151.77	13.95	
2025-01-07 23:14:17.23	151.87	13.88	
2025-01-07 23:14:18.05	151.96	13.81	
2025-01-07 23:14:18.87	152.06	13.74	
2025-01-07 23:14:19.69	152.15	13.67	
2025-01-07 23:14:20.51	152.24	13.60	
2025-01-07 23:14:21.33	152.34	13.53	
2025-01-07 23:14:22.15	152.43	13.47	
2025-01-07 23:14:22.97	152.52	13.40	
2025-01-07 23:14:23.79	152.61	13.33	
2025-01-07 23:14:24.61	152.70	13.26	
2025-01-07 23:14:25.44	152.80	13.19	
2025-01-07 23:14:26.26	152.89	13.12	
2025-01-07 23:14:27.08	152.98	13.06	
2025-01-07 23:14:27.90	153.07	12.99	
2025-01-07 23:14:28.73	153.16	12.92	
2025-01-07 23:14:29.55	153.25	12.85	
2025-01-07 23:14:30.37	153.33	12.78	
2025-01-07 23:14:31.19	153.42	12.72	
2025-01-07 23:14:32.01	153.51	12.65	
2025-01-07 23:14:32.84	153.60	12.58	
2025-01-07 23:14:33.66	153.69	12.52	
2025-01-07 23:14:34.48	153.77	12.45	
2025-01-07 23:14:35.29	153.86	12.38	
2025-01-07 23:14:36.12	153.94	12.32	
2025-01-07 23:14:36.94	154.03	12.25	
2025-01-07 23:14:37.76	154.11	12.18	
2025-01-07 23:14:38.58	154.20	12.12	
2025-01-07 23:14:39.40	154.28	12.05	
2025-01-07 23:14:40.23	154.37	11.98	
2025-01-07 23:14:41.05	154.45	11.92	
2025-01-07 23:14:41.87	154.54	11.85	
2025-01-07 23:14:42.69	154.62	11.79	
2025-01-07 23:14:43.51	154.70	11.72	
2025-01-07 23:14:44.34	154.78	11.66	
2025-01-07 23:14:45.17	154.87	11.59	
2025-01-07 23:14:45.99	154.95	11.52	
2025-01-07 23:14:46.81	155.03	11.46	
2025-01-07 23:14:47.63	155.11	11.40	
2025-01-07 23:14:48.46	155.19	11.33	
2025-01-07 23:14:49.28	155.27	11.27	
2025-01-07 23:14:50.11	155.35	11.20	
2025-01-07 23:14:50.93	155.43	11.14	
2025-01-07 23:14:51.75	155.51	11.07	
2025-01-07 23:14:52.57	155.59	11.01	
2025-01-07 23:14:53.39	155.67	10.94	
2025-01-07 23:14:54.22	155.75	10.88	
2025-01-07 23:14:55.05	155.83	10.81	
2025-01-07 23:14:55.87	155.90	10.75	
2025-01-07 23:14:56.69	155.98	10.69	
2025-01-07 23:14:57.51	156.06	10.62	
2025-01-07 23:14:53.76	155.70	10.91	
2025-01-07 23:14:54.58	155.78	10.85	
2025-01-07 23:14:55.40	155.86	10.79	
2025-01-07 23:14:56.23	155.94	10.72	
2025-01-07 23:14:57.05	156.02	10.66	
2025-01-07 23:14:57.87	156.09	10.60	
2025-01-07 23:14:58.69	156.17	10.53	
2025-01-07 23:14:59.51	156.24	10.47	
2025-01-07 23:15:00.33	156.32	10.41	
2025-01-07 23:15:01.15	156.40	10.34	
2025-01-07 23:15:01.97	156.47	10.28	
2025-01-07 23:15:02.79	156.55	10.22	
2025-01-07 23:15:03.62	156.62	10.16	
2025-01-07 23:15:04.44	156.70	10.09	
2025-01-07 23:15:05.26	156.77	10.03	
2025-01-07 23:15:06.08	156.84	9.97	
2025-01-07 23:15:06.90	156.92	9.91	
2025-01-07 23:15:07.74	156.99	9.84	
2025-01-07 23:15:08.55	157.06	9.78	
2025-01-07 23:15:09.38	157.14	9.72	
2025-01-07 23:15:10.20	157.21	9.66	
2025-01-07 23:15:11.02	157.28	9.60	
2025-01-07 23:15:11.84	157.35	9.54	
2025-01-07 23:15:12.66	157.42	9.48	
2025-01-07 23:15:13.48	157.49	9.41	
2025-01-07 23:15:14.31	157.57	9.35	
2025-01-07 23:15:15.13	157.64	9.29	
2025-01-07 23:15:15.96	157.71	9.23	
2025-01-07 23:15:16.78	157.78	9.17	
2025-01-07 23:15:17.60	157.85	9.11	
2025-01-07 23:15:18.42	157.92	9.05	
2025-01-07 23:15:19.24	157.98	8.99	
2025-01-07 23:15:20.06	158.05	8.93	
2025-01-07 23:15:20.88	158.12	8.87	
2025-01-07 23:15:21.71	158.19	8.81	
2025-01-07 23:15:22.53	158.26	8.75	
2025-01-07 23:15:23.35	158.33	8.69	
2025-01-07 23:15:24.17	158.39	8.63	
2025-01-07 23:15:24.99	158.46	8.57	
2025-01-07 23:15:25.81	158.53	8.51	
2025-01-07 23:15:26.63	158.59	8.45	
2025-01-07 23:15:27.45	158.66	8.39	
2025-01-07 23:15:28.27	158.73	8.33	
2025-01-07 23:15:29.09	158.79	8.27	
2025-01-07 23:15:29.91	158.86	8.21	
2025-01-07 23:15:30.76	158.93	8.15	
2025-01-07 23:15:31.58	158.99	8.09	
2025-01-07 23:15:32.40	159.06	8.04	
2025-01-07 23:15:33.22	159.12	7.98	
2025-01-07 23:15:34.04	159.18	7.92	
2025-01-07 23:15:34.86	159.25	7.86	
2025-01-07 23:15:35.69	159.31	7.80	
2025-01-07 23:15:36.52	159.38	7.74	
2025-01-07 23:15:37.36	159.44	7.68	
2025-01-07 23:15:38.18	159.51	7.63	
2025-01-07 23:15:39.00	159.57	7.57	
2025-01-07 23:15:39.82	159.63	7.51	
2025-01-07 23:15:40.64	159.69	7.45	
2025-01-07 23:15:41.47	159.76	7.40	
2025-01-07 23:15:42.29	159.82	7.34	
2025-01-07 23:15:43.11	159.88	7.28	
2025-01-07 23:15:43.93	159.94	7.22	
2025-01-07 23:15:44.75	160.00	7.17	
2025-01-07 23:15:45.57	160.06	7.11	
2025-01-07 23:15:46.40	160.13	7.05	
2025-01-07 23:15:47.22	160.19	7.00	
2025-01-07 23:15:48.04	160.25	6.94	
2025-01-07 23:15:48.86	160.31	6.88	
2025-01-07 23:15:49.68	160.37	6.83	
2025-01-07 23:15:50.50	160.43	6.77	
2025-01-07 23:15:51.32	160.49	6.71	
2025-01-07 23:15:52.15	160.55	6.66	
2025-01-07 23:15:52.97	160.60	6.60	
2025-01-07 23:15:53.79	160.66	6.55	
2025-01-07 23:15:54.61	160.72	6.49	
2025-01-07 23:15:55.42	160.78	6.43	
2025-01-07 23:15:56.25	160.84	6.38	
2025-01-07 23:15:57.08	160.90	6.32	
2025-01-07 23:15:57.90	160.95	6.27	
2025-01-07 23:15:58.72	161.01	6.21	
2025-01-07 23:15:59.54	161.07	6.16	
2025-01-07 23:16:00.36	161.13	6.10	
2025-01-07 23:16:01.18	161.18	6.05	
2025-01-07 23:16:02.00	161.24	5.99	
2025-01-07 23:16:02.82	161.30	5.94	
2025-01-07 23:16:03.66	161.35	5.88	
2025-01-07 23:16:04.48	161.41	5.83	
2025-01-07 23:16:05.30	161.47	5.77	
2025-01-07 23:16:06.12	161.52	5.72	
2025-01-07 23:16:06.94	161.58	5.66	
2025-01-07 23:16:07.76	161.63	5.61	
2025-01-07 23:16:08.60	161.69	5.55	
2025-01-07 23:16:09.42	161.74	5.50	
2025-01-07 23:16:10.24	161.80	5.44	
2025-01-07 23:16:11.06	161.85	5.39	
2025-01-07 23:16:11.88	161.91	5.34	
2025-01-07 23:16:12.70	161.96	5.28	
2025-01-07 23:16:13.54	162.02	5.23	
2025-01-07 23:16:14.36	162.07	5.17	
2025-01-07 23:16:15.18	162.12	5.12	
2025-01-07 23:16:16.00	162.18	5.07	
2025-01-07 23:16:16.82	162.23	5.01	
2025-01-07 23:16:17.64	162.28	4.96	
2025-01-07 23:16:18.46	162.34	4.91	
2025-01-07 23:16:19.28	162.39	4.85	
2025-01-07 23:16:20.10	162.44	4.80	
2025-01-07 23:16:20.92	162.49	4.75	
2025-01-07 23:16:21.74	162.55	4.70	
2025-01-07 23:16:22.57	162.60	4.64	
2025-01-07 23:16:23.39	162.65	4.59	
2025-01-07 23:16:24.21	162.70	4.54	
2025-01-07 23:16:25.04	162.75	4.48	
2025-01-07 23:16:25.86	162.81	4.43	
2025-01-07 23:16:26.68	162.86	4.38	
2025-01-07 23:16:27.50	162.91	4.33	
2025-01-07 23:16:28.32	162.96	4.28	
2025-01-07 23:16:29.15	163.01	4.22	
2025-01-07 23:16:29.98	163.06	4.17	
2025-01-07 23:16:30.80	163.11	4.12	
2025-01-07 23:16:31.62	163.16	4.07	
2025-01-07 23:16:32.44	163.21	4.01	

#Closed at: 2025-01-07 23:16:32