passes_logs/2025/01/07/SPB_Silybum_02/SPB_Silybum_02__20250107_024332_SUOMI_NPP_rec.log

#Pass ID: 20250107_024332_SUOMI NPP
#Satellite: SUOMI NPP
#Configuration: NPP
#Start time: 2025-01-07 02:43:32

#Version: 2.0.20230423
#Station: SPB_Silybum_02
#Location: 30.233357 lon 59.946436 lat
#TLE: 1 37849U 11061A   25006.17970494  .00000315  00000+0  17023-3 0  9998
#TLE: 2 37849  98.7437 307.2805 0001982  54.5030 305.6331 14.19533747683667

#Time	Az	El	Level	Level2	SNR	BER	Gain	Gain2
2025-01-07 02:43:34.06	14.01	4.07	
2025-01-07 02:43:35.29	13.90	4.13	
2025-01-07 02:43:36.52	13.79	4.20	
2025-01-07 02:43:37.75	13.68	4.27	
2025-01-07 02:43:38.98	13.57	4.34	
2025-01-07 02:43:40.22	13.46	4.40	
2025-01-07 02:43:41.45	13.35	4.47	
2025-01-07 02:43:42.69	13.23	4.54	
2025-01-07 02:43:43.92	13.12	4.61	
2025-01-07 02:43:45.15	13.01	4.68	
2025-01-07 02:43:46.38	12.89	4.74	
2025-01-07 02:43:47.63	12.78	4.81	
2025-01-07 02:43:48.86	12.66	4.88	
2025-01-07 02:43:50.08	12.55	4.95	
2025-01-07 02:43:51.32	12.43	5.02	
2025-01-07 02:43:52.55	12.31	5.09	
2025-01-07 02:43:53.79	12.19	5.15	
2025-01-07 02:43:55.02	12.08	5.22	
2025-01-07 02:43:56.25	11.96	5.29	
2025-01-07 02:43:57.48	11.84	5.36	
2025-01-07 02:43:58.71	11.72	5.43	
2025-01-07 02:43:59.95	11.60	5.50	
2025-01-07 02:44:01.18	11.48	5.57	
2025-01-07 02:44:02.41	11.36	5.63	
2025-01-07 02:44:03.64	11.23	5.70	
2025-01-07 02:44:04.87	11.11	5.77	
2025-01-07 02:44:06.10	10.99	5.84	
2025-01-07 02:44:07.34	10.86	5.91	
2025-01-07 02:44:08.57	10.74	5.98	
2025-01-07 02:44:09.80	10.61	6.05	
2025-01-07 02:44:11.03	10.49	6.12	
2025-01-07 02:44:12.26	10.36	6.19	
2025-01-07 02:44:13.49	10.23	6.25	
2025-01-07 02:44:14.73	10.11	6.32	
2025-01-07 02:44:15.96	9.98	6.39	
2025-01-07 02:44:17.20	9.85	6.46	
2025-01-07 02:44:18.43	9.72	6.53	
2025-01-07 02:44:19.66	9.59	6.60	
2025-01-07 02:44:20.89	9.46	6.67	
2025-01-07 02:44:22.12	9.33	6.74	
2025-01-07 02:44:23.36	9.19	6.81	
2025-01-07 02:44:24.58	9.06	6.88	
2025-01-07 02:44:25.81	8.93	6.95	
2025-01-07 02:44:27.06	8.79	7.02	
2025-01-07 02:44:28.29	8.66	7.09	
2025-01-07 02:44:29.52	8.52	7.16	
2025-01-07 02:44:30.75	8.38	7.23	
2025-01-07 02:44:31.98	8.25	7.30	
2025-01-07 02:44:33.21	8.11	7.37	
2025-01-07 02:44:34.44	7.97	7.44	
2025-01-07 02:44:35.68	7.83	7.51	
2025-01-07 02:44:36.92	7.69	7.58	
2025-01-07 02:44:38.15	7.55	7.65	
2025-01-07 02:44:39.38	7.41	7.72	
2025-01-07 02:44:40.62	7.27	7.79	
2025-01-07 02:44:41.84	7.13	7.86	
2025-01-07 02:44:43.07	6.98	7.93	
2025-01-07 02:44:44.31	6.84	8.00	
2025-01-07 02:44:45.54	6.70	8.07	
2025-01-07 02:44:46.79	6.55	8.14	
2025-01-07 02:44:48.02	6.40	8.21	
2025-01-07 02:44:49.25	6.26	8.28	
2025-01-07 02:44:50.48	6.11	8.35	
2025-01-07 02:44:51.72	5.96	8.42	
2025-01-07 02:44:52.97	5.81	8.49	
2025-01-07 02:44:54.22	5.66	8.56	
2025-01-07 02:44:55.46	5.50	8.64	
2025-01-07 02:44:56.69	5.35	8.71	
2025-01-07 02:44:57.92	5.20	8.78	
2025-01-07 02:44:59.16	5.05	8.85	
2025-01-07 02:45:00.41	4.89	8.92	
2025-01-07 02:45:01.65	4.74	8.99	
2025-01-07 02:45:02.88	4.58	9.06	
2025-01-07 02:45:04.11	4.43	9.13	
2025-01-07 02:45:05.37	4.27	9.20	
2025-01-07 02:45:06.60	4.11	9.27	
2025-01-07 02:45:07.83	3.95	9.34	
2025-01-07 02:45:09.06	3.79	9.41	
2025-01-07 02:45:10.29	3.63	9.48	
2025-01-07 02:45:11.52	3.47	9.55	
2025-01-07 02:45:12.75	3.31	9.62	
2025-01-07 02:45:13.98	3.15	9.69	
2025-01-07 02:45:15.21	2.99	9.76	
2025-01-07 02:45:16.45	2.82	9.83	
2025-01-07 02:45:17.68	2.66	9.90	
2025-01-07 02:45:18.91	2.49	9.97	
2025-01-07 02:45:20.14	2.33	10.04	
2025-01-07 02:45:21.37	2.16	10.11	
2025-01-07 02:45:22.60	1.99	10.18	
2025-01-07 02:45:23.83	1.82	10.25	
2025-01-07 02:45:25.06	1.66	10.32	
2025-01-07 02:45:26.31	1.48	10.39	
2025-01-07 02:45:27.54	1.31	10.46	
2025-01-07 02:45:28.77	1.14	10.53	
2025-01-07 02:45:30.00	0.97	10.60	
2025-01-07 02:45:31.23	0.79	10.67	
2025-01-07 02:45:32.46	0.62	10.74	
2025-01-07 02:45:33.69	0.44	10.81	
2025-01-07 02:45:34.92	0.27	10.88	
2025-01-07 02:45:36.15	0.09	10.95	
2025-01-07 02:45:37.39	359.91	11.02	
2025-01-07 02:45:38.62	359.73	11.09	
2025-01-07 02:45:39.87	359.55	11.16	
2025-01-07 02:45:41.10	359.37	11.22	
2025-01-07 02:45:42.33	359.19	11.29	
2025-01-07 02:45:43.55	359.01	11.36	
2025-01-07 02:45:44.78	358.83	11.43	
2025-01-07 02:45:46.01	358.64	11.50	
2025-01-07 02:45:47.25	358.46	11.57	
2025-01-07 02:45:48.48	358.27	11.64	
2025-01-07 02:45:49.71	358.09	11.70	
2025-01-07 02:45:50.94	357.90	11.77	
2025-01-07 02:45:52.17	357.71	11.84	
2025-01-07 02:45:53.40	357.52	11.91	
2025-01-07 02:45:54.63	357.33	11.98	
2025-01-07 02:45:55.89	357.14	12.05	
2025-01-07 02:45:57.12	356.94	12.11	
2025-01-07 02:45:58.35	356.75	12.18	
2025-01-07 02:45:59.58	356.56	12.25	
2025-01-07 02:46:00.81	356.36	12.31	
2025-01-07 02:46:02.05	356.17	12.38	
2025-01-07 02:46:03.28	355.97	12.45	
2025-01-07 02:46:04.51	355.77	12.51	
2025-01-07 02:46:05.75	355.57	12.58	
2025-01-07 02:46:06.98	355.38	12.65	
2025-01-07 02:46:08.23	355.17	12.72	
2025-01-07 02:46:09.46	354.97	12.78	
2025-01-07 02:46:10.69	354.77	12.85	
2025-01-07 02:46:11.95	354.56	12.91	
2025-01-07 02:46:13.18	354.36	12.98	
2025-01-07 02:46:14.41	354.15	13.05	
2025-01-07 02:46:15.65	353.95	13.11	
2025-01-07 02:46:16.88	353.74	13.18	
2025-01-07 02:46:18.11	353.53	13.24	
2025-01-07 02:46:19.35	353.32	13.31	
2025-01-07 02:46:20.58	353.11	13.37	
2025-01-07 02:46:21.81	352.90	13.43	
2025-01-07 02:46:23.04	352.69	13.50	
2025-01-07 02:46:24.29	352.48	13.56	
2025-01-07 02:46:25.54	352.26	13.63	
2025-01-07 02:46:26.77	352.05	13.69	
2025-01-07 02:46:28.00	351.83	13.75	
2025-01-07 02:46:29.23	351.62	13.82	
2025-01-07 02:46:30.45	351.40	13.88	
2025-01-07 02:46:31.68	351.18	13.94	
2025-01-07 02:46:32.92	350.96	14.00	
2025-01-07 02:46:34.15	350.74	14.06	
2025-01-07 02:46:35.40	350.52	14.13	
2025-01-07 02:46:36.63	350.30	14.19	
2025-01-07 02:46:37.86	350.08	14.25	
2025-01-07 02:46:39.09	349.85	14.31	
2025-01-07 02:46:40.32	349.63	14.37	
2025-01-07 02:46:41.56	349.40	14.43	
2025-01-07 02:46:42.78	349.18	14.49	
2025-01-07 02:46:44.00	348.95	14.55	
2025-01-07 02:46:45.25	348.72	14.61	
2025-01-07 02:46:46.48	348.49	14.67	
2025-01-07 02:46:47.73	348.26	14.73	
2025-01-07 02:46:48.96	348.03	14.78	
2025-01-07 02:46:50.19	347.80	14.84	
2025-01-07 02:46:51.42	347.57	14.90	
2025-01-07 02:46:52.65	347.33	14.96	
2025-01-07 02:46:53.88	347.10	15.01	
2025-01-07 02:46:55.11	346.86	15.07	
2025-01-07 02:46:56.34	346.63	15.12	
2025-01-07 02:46:57.57	346.39	15.18	
2025-01-07 02:46:58.80	346.15	15.24	
2025-01-07 02:47:00.03	345.91	15.29	
2025-01-07 02:47:01.27	345.67	15.35	
2025-01-07 02:47:02.50	345.43	15.40	
2025-01-07 02:47:03.73	345.19	15.45	
2025-01-07 02:47:04.96	344.95	15.51	
2025-01-07 02:47:06.19	344.71	15.56	
2025-01-07 02:47:07.43	344.46	15.61	
2025-01-07 02:47:08.66	344.22	15.67	
2025-01-07 02:47:09.89	343.97	15.72	
2025-01-07 02:47:11.11	343.72	15.77	
2025-01-07 02:47:12.34	343.48	15.82	
2025-01-07 02:47:13.57	343.23	15.87	
2025-01-07 02:47:14.80	342.98	15.92	
2025-01-07 02:47:16.03	342.73	15.97	
2025-01-07 02:47:17.26	342.48	16.02	
2025-01-07 02:47:18.49	342.23	16.07	
2025-01-07 02:47:19.72	341.98	16.11	
2025-01-07 02:47:20.95	341.72	16.16	
2025-01-07 02:47:22.18	341.47	16.21	
2025-01-07 02:47:23.41	341.21	16.26	
2025-01-07 02:47:24.64	340.96	16.30	
2025-01-07 02:47:25.87	340.70	16.35	
2025-01-07 02:47:27.10	340.44	16.39	
2025-01-07 02:47:28.33	340.19	16.44	
2025-01-07 02:47:29.56	339.93	16.48	
2025-01-07 02:47:30.79	339.67	16.53	
2025-01-07 02:47:32.02	339.41	16.57	
2025-01-07 02:47:33.25	339.15	16.61	
2025-01-07 02:47:34.49	338.88	16.65	
2025-01-07 02:47:35.72	338.62	16.70	
2025-01-07 02:47:36.95	338.35	16.74	
2025-01-07 02:47:38.18	338.09	16.78	
2025-01-07 02:47:39.42	337.82	16.82	
2025-01-07 02:47:40.65	337.56	16.86	
2025-01-07 02:47:41.88	337.29	16.89	
2025-01-07 02:47:43.11	337.03	16.93	
2025-01-07 02:47:44.34	336.76	16.97	
2025-01-07 02:47:45.57	336.49	17.01	
2025-01-07 02:47:46.82	336.22	17.04	
2025-01-07 02:47:48.05	335.95	17.08	
2025-01-07 02:47:49.27	335.68	17.12	
2025-01-07 02:47:50.51	335.40	17.15	
2025-01-07 02:47:51.76	335.13	17.18	
2025-01-07 02:47:52.99	334.86	17.22	
2025-01-07 02:47:54.22	334.58	17.25	
2025-01-07 02:47:55.45	334.31	17.28	
2025-01-07 02:47:56.69	334.03	17.31	
2025-01-07 02:47:57.93	333.76	17.35	
2025-01-07 02:47:59.16	333.48	17.38	
2025-01-07 02:48:00.39	333.21	17.41	
2025-01-07 02:48:01.62	332.93	17.43	
2025-01-07 02:48:02.87	332.65	17.46	
2025-01-07 02:48:04.11	332.37	17.49	
2025-01-07 02:48:05.34	332.09	17.52	
2025-01-07 02:48:06.57	331.81	17.54	
2025-01-07 02:48:07.80	331.53	17.57	
2025-01-07 02:48:09.04	331.25	17.60	
2025-01-07 02:48:10.28	330.97	17.62	
2025-01-07 02:48:11.51	330.69	17.64	
2025-01-07 02:48:12.74	330.41	17.67	
2025-01-07 02:48:13.97	330.13	17.69	
2025-01-07 02:48:15.20	329.85	17.71	
2025-01-07 02:48:16.43	329.57	17.73	
2025-01-07 02:48:17.66	329.28	17.75	
2025-01-07 02:48:18.90	329.00	17.77	
2025-01-07 02:48:20.15	328.71	17.79	
2025-01-07 02:48:21.38	328.43	17.81	
2025-01-07 02:48:22.61	328.14	17.82	
2025-01-07 02:48:23.85	327.86	17.84	
2025-01-07 02:48:25.09	327.57	17.86	
2025-01-07 02:48:26.34	327.28	17.87	
2025-01-07 02:48:27.57	327.00	17.89	
2025-01-07 02:48:28.80	326.71	17.90	
2025-01-07 02:48:30.03	326.43	17.91	
2025-01-07 02:48:31.26	326.14	17.93	
2025-01-07 02:48:32.49	325.85	17.94	
2025-01-07 02:48:33.72	325.57	17.95	
2025-01-07 02:48:34.95	325.28	17.96	
2025-01-07 02:48:36.19	324.99	17.97	
2025-01-07 02:48:37.42	324.71	17.98	
2025-01-07 02:48:38.64	324.42	17.98	
2025-01-07 02:48:39.87	324.13	17.99	
2025-01-07 02:48:41.10	323.85	18.00	
2025-01-07 02:48:42.33	323.56	18.00	
2025-01-07 02:48:43.56	323.27	18.01	
2025-01-07 02:48:44.80	322.98	18.01	
2025-01-07 02:48:46.03	322.70	18.02	
2025-01-07 02:48:47.27	322.41	18.02	
2025-01-07 02:48:48.52	322.11	18.02	
2025-01-07 02:48:49.76	321.82	18.02	
2025-01-07 02:48:50.99	321.54	18.02	
2025-01-07 02:48:52.22	321.25	18.02	
2025-01-07 02:48:53.45	320.96	18.02	
2025-01-07 02:48:54.68	320.67	18.02	
2025-01-07 02:48:55.91	320.38	18.02	
2025-01-07 02:48:57.14	320.10	18.01	
2025-01-07 02:48:58.37	319.81	18.01	
2025-01-07 02:48:59.60	319.52	18.00	
2025-01-07 02:49:00.83	319.23	18.00	
2025-01-07 02:49:02.08	318.94	17.99	
2025-01-07 02:49:03.32	318.65	17.98	
2025-01-07 02:49:04.56	318.36	17.98	
2025-01-07 02:49:05.80	318.07	17.97	
2025-01-07 02:49:07.03	317.79	17.96	
2025-01-07 02:49:08.26	317.50	17.95	
2025-01-07 02:49:09.49	317.22	17.94	
2025-01-07 02:49:10.72	316.93	17.93	
2025-01-07 02:49:11.95	316.64	17.91	
2025-01-07 02:49:13.18	316.36	17.90	
2025-01-07 02:49:14.44	316.07	17.89	
2025-01-07 02:49:15.67	315.78	17.87	
2025-01-07 02:49:16.92	315.49	17.86	
2025-01-07 02:49:18.15	315.21	17.84	
2025-01-07 02:49:19.38	314.92	17.82	
2025-01-07 02:49:20.61	314.64	17.81	
2025-01-07 02:49:21.85	314.35	17.79	
2025-01-07 02:49:23.09	314.07	17.77	
2025-01-07 02:49:24.33	313.78	17.75	
2025-01-07 02:49:25.57	313.50	17.73	
2025-01-07 02:49:26.80	313.21	17.71	
2025-01-07 02:49:28.05	312.93	17.69	
2025-01-07 02:49:29.28	312.65	17.66	
2025-01-07 02:49:30.51	312.37	17.64	
2025-01-07 02:49:31.76	312.08	17.62	
2025-01-07 02:49:32.99	311.80	17.59	
2025-01-07 02:49:34.22	311.52	17.57	
2025-01-07 02:49:35.45	311.24	17.54	
2025-01-07 02:49:36.68	310.96	17.52	
2025-01-07 02:49:37.91	310.69	17.49	
2025-01-07 02:49:39.15	310.41	17.46	
2025-01-07 02:49:40.38	310.13	17.43	
2025-01-07 02:49:41.61	309.85	17.40	
2025-01-07 02:49:42.85	309.57	17.37	
2025-01-07 02:49:44.08	309.30	17.34	
2025-01-07 02:49:45.33	309.02	17.31	
2025-01-07 02:49:46.57	308.74	17.28	
2025-01-07 02:49:47.80	308.47	17.25	
2025-01-07 02:49:49.04	308.19	17.22	
2025-01-07 02:49:50.27	307.92	17.18	
2025-01-07 02:49:51.52	307.64	17.15	
2025-01-07 02:49:52.75	307.37	17.11	
2025-01-07 02:49:53.98	307.10	17.08	
2025-01-07 02:49:55.21	306.83	17.04	
2025-01-07 02:49:56.44	306.56	17.01	
2025-01-07 02:49:57.68	306.29	16.97	
2025-01-07 02:49:58.91	306.02	16.93	
2025-01-07 02:50:00.14	305.76	16.89	
2025-01-07 02:50:01.36	305.49	16.85	
2025-01-07 02:50:02.60	305.22	16.81	
2025-01-07 02:50:03.83	304.96	16.77	
2025-01-07 02:50:05.07	304.69	16.73	
2025-01-07 02:50:06.31	304.43	16.69	
2025-01-07 02:50:07.54	304.16	16.65	
2025-01-07 02:50:08.77	303.90	16.61	
2025-01-07 02:50:10.01	303.64	16.56	
2025-01-07 02:50:11.24	303.38	16.52	
2025-01-07 02:50:12.47	303.12	16.48	
2025-01-07 02:50:13.70	302.86	16.43	
2025-01-07 02:50:14.92	302.60	16.39	
2025-01-07 02:50:16.15	302.34	16.34	
2025-01-07 02:50:17.38	302.08	16.30	
2025-01-07 02:50:18.62	301.83	16.25	
2025-01-07 02:50:19.85	301.57	16.20	
2025-01-07 02:50:21.09	301.31	16.16	
2025-01-07 02:50:22.32	301.06	16.11	
2025-01-07 02:50:23.55	300.81	16.06	
2025-01-07 02:50:24.78	300.56	16.01	
2025-01-07 02:50:26.01	300.30	15.96	
2025-01-07 02:50:27.24	300.05	15.91	
2025-01-07 02:50:28.47	299.80	15.86	
2025-01-07 02:50:29.72	299.55	15.81	
2025-01-07 02:50:30.95	299.30	15.76	
2025-01-07 02:50:32.18	299.06	15.71	
2025-01-07 02:50:33.41	298.81	15.66	
2025-01-07 02:50:34.64	298.56	15.60	
2025-01-07 02:50:35.87	298.32	15.55	
2025-01-07 02:50:37.10	298.08	15.50	
2025-01-07 02:50:38.33	297.83	15.45	
2025-01-07 02:50:39.56	297.59	15.39	
2025-01-07 02:50:40.79	297.35	15.34	
2025-01-07 02:50:42.03	297.11	15.28	
2025-01-07 02:50:43.25	296.87	15.23	
2025-01-07 02:50:44.48	296.63	15.17	
2025-01-07 02:50:45.72	296.39	15.12	
2025-01-07 02:50:46.95	296.16	15.06	
2025-01-07 02:50:48.18	295.92	15.00	
2025-01-07 02:50:49.42	295.68	14.95	
2025-01-07 02:50:50.67	295.45	14.89	
2025-01-07 02:50:51.90	295.21	14.83	
2025-01-07 02:50:53.13	294.98	14.77	
2025-01-07 02:50:54.36	294.75	14.71	
2025-01-07 02:50:55.59	294.52	14.66	
2025-01-07 02:50:56.82	294.29	14.60	
2025-01-07 02:50:58.05	294.06	14.54	
2025-01-07 02:50:59.28	293.84	14.48	
2025-01-07 02:51:00.53	293.60	14.42	
2025-01-07 02:51:01.76	293.38	14.36	
2025-01-07 02:51:02.99	293.15	14.30	
2025-01-07 02:51:04.23	292.93	14.24	
2025-01-07 02:51:05.45	292.71	14.17	
2025-01-07 02:51:06.69	292.48	14.11	
2025-01-07 02:51:07.92	292.26	14.05	
2025-01-07 02:51:09.14	292.04	13.99	
2025-01-07 02:51:10.38	291.82	13.93	
2025-01-07 02:51:11.62	291.60	13.86	
2025-01-07 02:51:12.85	291.39	13.80	
2025-01-07 02:51:14.08	291.17	13.74	
2025-01-07 02:51:15.31	290.96	13.68	
2025-01-07 02:51:16.54	290.74	13.61	
2025-01-07 02:51:17.79	290.52	13.55	
2025-01-07 02:51:19.03	290.31	13.48	
2025-01-07 02:51:20.26	290.10	13.42	
2025-01-07 02:51:21.49	289.89	13.36	
2025-01-07 02:51:22.72	289.68	13.29	
2025-01-07 02:51:23.95	289.47	13.23	
2025-01-07 02:51:25.19	289.26	13.16	
2025-01-07 02:51:26.42	289.05	13.10	
2025-01-07 02:51:27.65	288.85	13.03	
2025-01-07 02:51:28.89	288.64	12.97	
2025-01-07 02:51:30.12	288.43	12.90	
2025-01-07 02:51:31.35	288.23	12.83	
2025-01-07 02:51:32.58	288.03	12.77	
2025-01-07 02:51:33.82	287.82	12.70	
2025-01-07 02:51:35.05	287.62	12.64	
2025-01-07 02:51:36.28	287.42	12.57	
2025-01-07 02:51:37.51	287.23	12.50	
2025-01-07 02:51:38.75	287.03	12.43	
2025-01-07 02:51:39.99	286.83	12.37	
2025-01-07 02:51:41.22	286.63	12.30	
2025-01-07 02:51:42.45	286.44	12.23	
2025-01-07 02:51:43.67	286.24	12.17	
2025-01-07 02:51:44.91	286.05	12.10	
2025-01-07 02:51:46.14	285.86	12.03	
2025-01-07 02:51:47.37	285.66	11.96	
2025-01-07 02:51:48.60	285.47	11.89	
2025-01-07 02:51:49.83	285.28	11.83	
2025-01-07 02:51:51.06	285.10	11.76	
2025-01-07 02:51:52.29	284.91	11.69	
2025-01-07 02:51:53.53	284.72	11.62	
2025-01-07 02:51:54.76	284.53	11.55	
2025-01-07 02:51:56.00	284.35	11.48	
2025-01-07 02:51:57.23	284.16	11.42	
2025-01-07 02:51:58.46	283.98	11.35	
2025-01-07 02:51:59.69	283.80	11.28	
2025-01-07 02:52:00.92	283.61	11.21	
2025-01-07 02:52:02.15	283.43	11.14	
2025-01-07 02:52:03.38	283.25	11.07	
2025-01-07 02:52:04.63	283.07	11.00	
2025-01-07 02:52:05.86	282.89	10.93	
2025-01-07 02:52:07.09	282.71	10.86	
2025-01-07 02:52:08.32	282.54	10.79	
2025-01-07 02:52:09.55	282.36	10.72	
2025-01-07 02:52:10.78	282.19	10.65	
2025-01-07 02:52:12.01	282.01	10.58	
2025-01-07 02:52:13.24	281.84	10.51	
2025-01-07 02:52:14.47	281.67	10.44	
2025-01-07 02:52:15.71	281.49	10.37	
2025-01-07 02:52:16.96	281.32	10.30	
2025-01-07 02:52:18.19	281.15	10.23	
2025-01-07 02:52:19.42	280.98	10.16	
2025-01-07 02:52:20.65	280.81	10.09	
2025-01-07 02:52:21.88	280.64	10.02	
2025-01-07 02:52:23.12	280.48	9.95	
2025-01-07 02:52:24.38	280.31	9.88	
2025-01-07 02:52:25.61	280.14	9.81	
2025-01-07 02:52:26.83	279.98	9.74	
2025-01-07 02:52:28.07	279.81	9.67	
2025-01-07 02:52:29.30	279.65	9.60	
2025-01-07 02:52:30.53	279.49	9.53	
2025-01-07 02:52:31.75	279.33	9.46	
2025-01-07 02:52:32.99	279.17	9.39	
2025-01-07 02:52:34.22	279.01	9.32	
2025-01-07 02:52:35.45	278.85	9.25	
2025-01-07 02:52:36.68	278.69	9.18	
2025-01-07 02:52:37.92	278.53	9.11	
2025-01-07 02:52:39.15	278.38	9.04	
2025-01-07 02:52:40.38	278.22	8.97	
2025-01-07 02:52:41.62	278.07	8.90	
2025-01-07 02:52:42.85	277.91	8.83	
2025-01-07 02:52:44.08	277.76	8.76	
2025-01-07 02:52:45.31	277.61	8.69	
2025-01-07 02:52:46.54	277.45	8.62	
2025-01-07 02:52:47.77	277.30	8.54	
2025-01-07 02:52:49.00	277.15	8.47	
2025-01-07 02:52:50.23	277.00	8.40	
2025-01-07 02:52:51.46	276.85	8.33	
2025-01-07 02:52:52.69	276.71	8.26	
2025-01-07 02:52:53.92	276.56	8.19	
2025-01-07 02:52:55.14	276.41	8.12	
2025-01-07 02:52:56.37	276.27	8.05	
2025-01-07 02:52:57.61	276.12	7.98	
2025-01-07 02:52:58.83	275.98	7.91	
2025-01-07 02:53:00.06	275.83	7.84	
2025-01-07 02:53:01.31	275.69	7.77	
2025-01-07 02:53:02.54	275.54	7.70	
2025-01-07 02:53:03.77	275.40	7.63	
2025-01-07 02:53:05.00	275.26	7.56	
2025-01-07 02:53:06.22	275.12	7.49	
2025-01-07 02:53:07.45	274.98	7.42	
2025-01-07 02:53:08.68	274.84	7.35	
2025-01-07 02:53:09.91	274.71	7.28	
2025-01-07 02:53:11.14	274.57	7.21	
2025-01-07 02:53:12.37	274.43	7.14	
2025-01-07 02:53:13.60	274.29	7.07	
2025-01-07 02:53:14.83	274.16	7.00	
2025-01-07 02:53:16.08	274.02	6.93	
2025-01-07 02:53:17.32	273.89	6.86	
2025-01-07 02:53:18.54	273.75	6.79	
2025-01-07 02:53:19.79	273.62	6.72	
2025-01-07 02:53:21.03	273.49	6.65	
2025-01-07 02:53:22.28	273.35	6.58	
2025-01-07 02:53:23.51	273.22	6.51	
2025-01-07 02:53:24.74	273.09	6.44	
2025-01-07 02:53:25.97	272.96	6.37	
2025-01-07 02:53:27.19	272.83	6.30	
2025-01-07 02:53:28.42	272.70	6.23	
2025-01-07 02:53:29.66	272.57	6.16	
2025-01-07 02:53:30.89	272.45	6.10	
2025-01-07 02:53:32.13	272.32	6.03	
2025-01-07 02:53:33.36	272.19	5.96	
2025-01-07 02:53:34.59	272.07	5.89	
2025-01-07 02:53:35.82	271.94	5.82	
2025-01-07 02:53:37.05	271.82	5.75	
2025-01-07 02:53:38.29	271.69	5.68	
2025-01-07 02:53:39.51	271.57	5.61	
2025-01-07 02:53:40.75	271.45	5.54	
2025-01-07 02:53:41.98	271.33	5.47	
2025-01-07 02:53:43.20	271.21	5.41	
2025-01-07 02:53:44.44	271.09	5.34	
2025-01-07 02:53:45.67	270.97	5.27	
2025-01-07 02:53:46.90	270.85	5.20	
2025-01-07 02:53:48.13	270.73	5.13	
2025-01-07 02:53:49.37	270.61	5.06	
2025-01-07 02:53:50.61	270.49	4.99	
2025-01-07 02:53:51.85	270.37	4.93	
2025-01-07 02:53:53.09	270.25	4.86	
2025-01-07 02:53:54.32	270.14	4.79	
2025-01-07 02:53:55.55	270.02	4.72	
2025-01-07 02:53:56.78	269.91	4.65	
2025-01-07 02:53:58.01	269.79	4.58	
2025-01-07 02:53:59.24	269.68	4.52	
2025-01-07 02:54:00.47	269.57	4.45	
2025-01-07 02:54:01.70	269.45	4.38	
2025-01-07 02:54:02.93	269.34	4.31	
2025-01-07 02:54:04.17	269.23	4.25	
2025-01-07 02:54:05.39	269.12	4.18	
2025-01-07 02:54:06.63	269.01	4.11	
2025-01-07 02:54:07.87	268.89	4.04	

#Closed at: 2025-01-07 02:54:08