passes_logs/2025/01/07/SPB_Silybum_02/SPB_Silybum_02__20250107_091557_SUOMI_NPP_rec.log

#Pass ID: 20250107_091557_SUOMI NPP
#Satellite: SUOMI NPP
#Configuration: NPP
#Start time: 2025-01-07 09:25:28

#Version: 2.0.20230423
#Station: SPB_Silybum_02
#Location: 30.233357 lon 59.946436 lat
#TLE: 1 37849U 11061A   25006.81407247  .00000291  00000+0  15897-3 0  9990
#TLE: 2 37849  98.7438 307.9068 0001960  53.3600 306.7756 14.19534214683755

#Time	Az	El	Level	Level2	SNR	BER	Gain	Gain2
2025-01-07 09:25:30.69	358.97	21.24	
2025-01-07 09:25:31.10	358.92	21.19	
2025-01-07 09:25:31.51	358.86	21.14	
2025-01-07 09:25:31.92	358.81	21.09	
2025-01-07 09:25:32.33	358.75	21.05	
2025-01-07 09:25:32.74	358.70	21.00	
2025-01-07 09:25:33.16	358.65	20.95	
2025-01-07 09:25:33.58	358.59	20.90	
2025-01-07 09:25:33.98	358.54	20.85	
2025-01-07 09:25:34.41	358.48	20.80	
2025-01-07 09:25:34.82	358.43	20.76	
2025-01-07 09:25:35.23	358.38	20.71	
2025-01-07 09:25:35.64	358.32	20.66	
2025-01-07 09:25:36.05	358.27	20.61	
2025-01-07 09:25:36.46	358.22	20.57	
2025-01-07 09:25:36.87	358.17	20.52	
2025-01-07 09:25:37.28	358.12	20.47	
2025-01-07 09:25:37.69	358.06	20.43	
2025-01-07 09:25:38.10	358.01	20.38	
2025-01-07 09:25:38.51	357.96	20.33	
2025-01-07 09:25:38.92	357.91	20.28	
2025-01-07 09:25:39.33	357.86	20.24	
2025-01-07 09:25:39.74	357.81	20.19	
2025-01-07 09:25:40.15	357.76	20.14	
2025-01-07 09:25:40.56	357.71	20.10	
2025-01-07 09:25:40.97	357.66	20.05	
2025-01-07 09:25:41.39	357.61	20.00	
2025-01-07 09:25:41.80	357.55	19.96	
2025-01-07 09:25:42.21	357.50	19.91	
2025-01-07 09:25:42.62	357.46	19.86	
2025-01-07 09:25:43.03	357.41	19.82	
2025-01-07 09:25:43.44	357.36	19.77	
2025-01-07 09:25:43.85	357.31	19.72	
2025-01-07 09:25:44.26	357.26	19.68	
2025-01-07 09:25:44.67	357.21	19.63	
2025-01-07 09:25:45.08	357.16	19.59	
2025-01-07 09:25:45.49	357.11	19.54	
2025-01-07 09:25:45.90	357.06	19.49	
2025-01-07 09:25:46.31	357.01	19.45	
2025-01-07 09:25:46.72	356.97	19.40	
2025-01-07 09:25:47.13	356.92	19.36	
2025-01-07 09:25:47.55	356.87	19.31	
2025-01-07 09:25:47.95	356.82	19.27	
2025-01-07 09:25:48.37	356.77	19.22	
2025-01-07 09:25:48.78	356.73	19.17	
2025-01-07 09:25:49.20	356.68	19.13	
2025-01-07 09:25:49.61	356.63	19.08	
2025-01-07 09:25:50.02	356.58	19.04	
2025-01-07 09:25:50.43	356.54	18.99	
2025-01-07 09:25:50.84	356.49	18.95	
2025-01-07 09:25:51.25	356.44	18.90	
2025-01-07 09:25:51.67	356.39	18.86	
2025-01-07 09:25:52.08	356.35	18.81	
2025-01-07 09:25:52.49	356.30	18.77	
2025-01-07 09:25:52.90	356.26	18.72	
2025-01-07 09:25:53.31	356.21	18.68	
2025-01-07 09:25:53.72	356.16	18.63	
2025-01-07 09:25:54.13	356.12	18.59	
2025-01-07 09:25:54.54	356.07	18.54	
2025-01-07 09:25:54.95	356.03	18.50	
2025-01-07 09:25:55.36	355.98	18.45	
2025-01-07 09:25:55.77	355.94	18.41	
2025-01-07 09:25:56.18	355.89	18.36	
2025-01-07 09:25:56.61	355.84	18.32	
2025-01-07 09:25:57.02	355.80	18.27	
2025-01-07 09:25:57.43	355.76	18.23	
2025-01-07 09:25:57.84	355.71	18.19	
2025-01-07 09:25:58.25	355.67	18.14	
2025-01-07 09:25:58.67	355.62	18.10	
2025-01-07 09:25:59.08	355.58	18.05	
2025-01-07 09:25:59.49	355.53	18.01	
2025-01-07 09:25:59.92	355.49	17.96	
2025-01-07 09:26:00.33	355.44	17.92	
2025-01-07 09:26:00.74	355.40	17.88	
2025-01-07 09:26:01.15	355.36	17.83	
2025-01-07 09:26:01.56	355.31	17.79	
2025-01-07 09:26:01.97	355.27	17.74	
2025-01-07 09:26:02.38	355.23	17.70	
2025-01-07 09:26:02.79	355.18	17.66	
2025-01-07 09:26:03.20	355.14	17.61	
2025-01-07 09:26:03.61	355.10	17.57	
2025-01-07 09:26:04.02	355.06	17.53	
2025-01-07 09:26:04.43	355.01	17.48	
2025-01-07 09:26:04.84	354.97	17.44	
2025-01-07 09:26:05.26	354.93	17.40	
2025-01-07 09:26:05.67	354.89	17.35	
2025-01-07 09:26:06.08	354.84	17.31	
2025-01-07 09:26:06.49	354.80	17.27	
2025-01-07 09:26:06.90	354.76	17.23	
2025-01-07 09:26:07.31	354.72	17.18	
2025-01-07 09:26:07.72	354.68	17.14	
2025-01-07 09:26:08.13	354.64	17.10	
2025-01-07 09:26:08.54	354.60	17.06	
2025-01-07 09:26:08.95	354.55	17.01	
2025-01-07 09:26:09.36	354.51	16.97	
2025-01-07 09:26:09.77	354.47	16.93	
2025-01-07 09:26:10.18	354.43	16.89	
2025-01-07 09:26:10.61	354.39	16.84	
2025-01-07 09:26:11.02	354.35	16.80	
2025-01-07 09:26:11.44	354.31	16.76	
2025-01-07 09:26:11.86	354.27	16.71	
2025-01-07 09:26:12.26	354.23	16.67	
2025-01-07 09:26:12.68	354.19	16.63	
2025-01-07 09:26:13.09	354.15	16.59	
2025-01-07 09:26:13.50	354.11	16.55	
2025-01-07 09:26:13.91	354.07	16.50	
2025-01-07 09:26:14.32	354.03	16.46	
2025-01-07 09:26:14.73	353.99	16.42	
2025-01-07 09:26:15.16	353.95	16.38	
2025-01-07 09:26:15.56	353.91	16.34	
2025-01-07 09:26:15.97	353.87	16.30	
2025-01-07 09:26:16.39	353.83	16.25	
2025-01-07 09:26:16.80	353.79	16.21	
2025-01-07 09:26:17.21	353.75	16.17	
2025-01-07 09:26:17.62	353.71	16.13	
2025-01-07 09:26:18.04	353.68	16.09	
2025-01-07 09:26:18.47	353.63	16.04	
2025-01-07 09:26:18.88	353.60	16.00	
2025-01-07 09:26:19.29	353.56	15.96	
2025-01-07 09:26:19.70	353.52	15.92	
2025-01-07 09:26:20.11	353.48	15.88	
2025-01-07 09:26:20.52	353.44	15.84	
2025-01-07 09:26:20.93	353.41	15.80	
2025-01-07 09:26:21.34	353.37	15.76	
2025-01-07 09:26:21.75	353.33	15.72	
2025-01-07 09:26:22.16	353.29	15.68	
2025-01-07 09:26:22.57	353.26	15.63	
2025-01-07 09:26:22.98	353.22	15.59	
2025-01-07 09:26:23.39	353.18	15.55	
2025-01-07 09:26:23.80	353.15	15.51	
2025-01-07 09:26:24.21	353.11	15.47	
2025-01-07 09:26:24.62	353.07	15.43	
2025-01-07 09:26:25.03	353.04	15.39	
2025-01-07 09:26:25.44	353.00	15.35	
2025-01-07 09:26:25.85	352.96	15.31	
2025-01-07 09:26:26.26	352.93	15.27	
2025-01-07 09:26:26.67	352.89	15.23	
2025-01-07 09:26:27.08	352.85	15.19	
2025-01-07 09:26:27.49	352.82	15.15	
2025-01-07 09:26:27.90	352.78	15.11	
2025-01-07 09:26:28.31	352.75	15.07	
2025-01-07 09:26:28.72	352.71	15.03	
2025-01-07 09:26:29.13	352.67	14.99	
2025-01-07 09:26:29.54	352.64	14.95	
2025-01-07 09:26:29.95	352.60	14.91	
2025-01-07 09:26:30.36	352.57	14.87	
2025-01-07 09:26:30.77	352.53	14.83	
2025-01-07 09:26:31.18	352.50	14.79	
2025-01-07 09:26:31.59	352.46	14.76	
2025-01-07 09:26:32.00	352.43	14.72	
2025-01-07 09:26:32.41	352.39	14.68	
2025-01-07 09:26:32.82	352.36	14.64	
2025-01-07 09:26:33.23	352.32	14.60	
2025-01-07 09:26:33.64	352.29	14.56	
2025-01-07 09:26:34.05	352.25	14.52	
2025-01-07 09:26:34.47	352.22	14.48	
2025-01-07 09:26:34.87	352.19	14.44	
2025-01-07 09:26:35.29	352.15	14.40	
2025-01-07 09:26:35.70	352.12	14.36	
2025-01-07 09:26:36.12	352.08	14.32	
2025-01-07 09:26:36.53	352.05	14.28	
2025-01-07 09:26:36.94	352.01	14.25	
2025-01-07 09:26:37.35	351.98	14.21	
2025-01-07 09:26:37.76	351.95	14.17	
2025-01-07 09:26:38.17	351.91	14.13	
2025-01-07 09:26:38.58	351.88	14.09	
2025-01-07 09:26:39.00	351.85	14.05	
2025-01-07 09:26:39.40	351.81	14.01	
2025-01-07 09:26:39.82	351.78	13.98	
2025-01-07 09:26:40.23	351.75	13.94	
2025-01-07 09:26:40.64	351.71	13.90	
2025-01-07 09:26:41.05	351.68	13.86	
2025-01-07 09:26:41.46	351.65	13.82	
2025-01-07 09:26:41.87	351.61	13.78	
2025-01-07 09:26:42.28	351.58	13.75	
2025-01-07 09:26:42.69	351.55	13.71	
2025-01-07 09:26:43.10	351.52	13.67	
2025-01-07 09:26:43.51	351.48	13.63	
2025-01-07 09:26:43.92	351.45	13.59	
2025-01-07 09:26:44.33	351.42	13.56	
2025-01-07 09:26:44.74	351.39	13.52	
2025-01-07 09:26:45.16	351.35	13.48	
2025-01-07 09:26:45.58	351.32	13.44	
2025-01-07 09:26:45.99	351.29	13.40	
2025-01-07 09:26:46.40	351.26	13.37	
2025-01-07 09:26:46.81	351.23	13.33	
2025-01-07 09:26:47.22	351.19	13.29	
2025-01-07 09:26:47.64	351.16	13.25	
2025-01-07 09:26:48.05	351.13	13.22	
2025-01-07 09:26:48.47	351.10	13.18	
2025-01-07 09:26:48.88	351.07	13.14	
2025-01-07 09:26:49.29	351.04	13.10	
2025-01-07 09:26:49.70	351.00	13.07	
2025-01-07 09:26:50.11	350.97	13.03	
2025-01-07 09:26:50.52	350.94	12.99	
2025-01-07 09:26:50.93	350.91	12.95	
2025-01-07 09:26:51.34	350.88	12.92	
2025-01-07 09:26:51.75	350.85	12.88	
2025-01-07 09:26:52.16	350.82	12.84	
2025-01-07 09:26:52.57	350.79	12.81	
2025-01-07 09:26:52.98	350.76	12.77	
2025-01-07 09:26:53.40	350.73	12.73	
2025-01-07 09:26:53.81	350.70	12.70	
2025-01-07 09:26:54.22	350.67	12.66	
2025-01-07 09:26:54.63	350.64	12.62	
2025-01-07 09:26:55.04	350.61	12.59	
2025-01-07 09:26:55.45	350.58	12.55	
2025-01-07 09:26:55.86	350.55	12.51	
2025-01-07 09:26:56.27	350.52	12.48	
2025-01-07 09:26:56.68	350.49	12.44	
2025-01-07 09:26:57.09	350.46	12.40	
2025-01-07 09:26:57.50	350.43	12.37	
2025-01-07 09:26:57.91	350.40	12.33	
2025-01-07 09:26:58.32	350.37	12.30	
2025-01-07 09:26:58.73	350.34	12.26	
2025-01-07 09:26:59.14	350.31	12.22	
2025-01-07 09:26:59.55	350.28	12.19	
2025-01-07 09:26:59.96	350.25	12.15	
2025-01-07 09:27:00.37	350.22	12.11	
2025-01-07 09:27:00.78	350.19	12.08	
2025-01-07 09:27:01.19	350.17	12.04	
2025-01-07 09:27:01.60	350.14	12.01	
2025-01-07 09:27:02.01	350.11	11.97	
2025-01-07 09:27:02.43	350.08	11.93	
2025-01-07 09:27:02.85	350.05	11.90	
2025-01-07 09:27:03.26	350.02	11.86	
2025-01-07 09:27:03.67	349.99	11.83	
2025-01-07 09:27:04.08	349.96	11.79	
2025-01-07 09:27:04.49	349.93	11.76	
2025-01-07 09:27:04.92	349.91	11.72	
2025-01-07 09:27:05.33	349.88	11.68	
2025-01-07 09:27:05.74	349.85	11.65	
2025-01-07 09:27:06.15	349.82	11.61	
2025-01-07 09:27:06.56	349.79	11.58	
2025-01-07 09:27:06.97	349.76	11.54	
2025-01-07 09:27:07.38	349.74	11.51	
2025-01-07 09:27:07.79	349.71	11.47	
2025-01-07 09:27:08.20	349.68	11.44	
2025-01-07 09:27:08.61	349.65	11.40	
2025-01-07 09:27:09.02	349.63	11.37	
2025-01-07 09:27:09.43	349.60	11.33	
2025-01-07 09:27:09.84	349.57	11.30	
2025-01-07 09:27:10.27	349.54	11.26	
2025-01-07 09:27:10.68	349.52	11.23	
2025-01-07 09:27:11.09	349.49	11.19	
2025-01-07 09:27:11.50	349.46	11.16	
2025-01-07 09:27:11.91	349.43	11.12	
2025-01-07 09:27:12.34	349.41	11.08	
2025-01-07 09:27:12.75	349.38	11.05	
2025-01-07 09:27:13.16	349.35	11.02	
2025-01-07 09:27:13.57	349.33	10.98	
2025-01-07 09:27:13.98	349.30	10.95	
2025-01-07 09:27:14.38	349.27	10.91	
2025-01-07 09:27:14.80	349.25	10.88	
2025-01-07 09:27:15.21	349.22	10.84	
2025-01-07 09:27:15.62	349.19	10.81	
2025-01-07 09:27:16.03	349.17	10.77	
2025-01-07 09:27:16.45	349.14	10.74	
2025-01-07 09:27:16.86	349.11	10.70	
2025-01-07 09:27:17.27	349.09	10.67	
2025-01-07 09:27:17.68	349.06	10.64	
2025-01-07 09:27:18.10	349.03	10.60	
2025-01-07 09:27:18.51	349.01	10.57	
2025-01-07 09:27:18.92	348.98	10.53	
2025-01-07 09:27:19.33	348.96	10.50	
2025-01-07 09:27:19.74	348.93	10.47	
2025-01-07 09:27:20.15	348.90	10.43	
2025-01-07 09:27:20.56	348.88	10.40	
2025-01-07 09:27:20.97	348.85	10.36	
2025-01-07 09:27:21.38	348.83	10.33	
2025-01-07 09:27:21.79	348.80	10.30	
2025-01-07 09:27:22.20	348.78	10.26	
2025-01-07 09:27:22.61	348.75	10.23	
2025-01-07 09:27:23.02	348.73	10.20	
2025-01-07 09:27:23.43	348.70	10.16	
2025-01-07 09:27:23.84	348.68	10.13	
2025-01-07 09:27:24.25	348.65	10.10	
2025-01-07 09:27:24.67	348.62	10.06	
2025-01-07 09:27:25.08	348.60	10.03	
2025-01-07 09:27:25.49	348.57	9.99	
2025-01-07 09:27:25.90	348.55	9.96	
2025-01-07 09:27:26.32	348.52	9.93	
2025-01-07 09:27:26.73	348.50	9.89	
2025-01-07 09:27:27.14	348.47	9.86	
2025-01-07 09:27:27.55	348.45	9.83	
2025-01-07 09:27:27.97	348.42	9.79	
2025-01-07 09:27:28.37	348.40	9.76	
2025-01-07 09:27:28.79	348.38	9.73	
2025-01-07 09:27:29.19	348.35	9.69	
2025-01-07 09:27:29.61	348.33	9.66	
2025-01-07 09:27:30.02	348.30	9.63	
2025-01-07 09:27:30.44	348.28	9.59	
2025-01-07 09:27:30.85	348.25	9.56	
2025-01-07 09:27:31.26	348.23	9.53	
2025-01-07 09:27:31.67	348.21	9.50	
2025-01-07 09:27:32.08	348.18	9.46	
2025-01-07 09:27:32.49	348.16	9.43	
2025-01-07 09:27:32.91	348.13	9.40	
2025-01-07 09:27:33.32	348.11	9.36	
2025-01-07 09:27:33.74	348.09	9.33	
2025-01-07 09:27:34.15	348.06	9.30	
2025-01-07 09:27:34.56	348.04	9.27	
2025-01-07 09:27:34.98	348.01	9.23	
2025-01-07 09:27:35.39	347.99	9.20	
2025-01-07 09:27:35.80	347.97	9.17	
2025-01-07 09:27:36.21	347.94	9.14	
2025-01-07 09:27:36.62	347.92	9.10	
2025-01-07 09:27:37.03	347.90	9.07	
2025-01-07 09:27:37.44	347.87	9.04	
2025-01-07 09:27:37.85	347.85	9.01	
2025-01-07 09:27:38.26	347.83	8.97	
2025-01-07 09:27:38.68	347.80	8.94	
2025-01-07 09:27:39.09	347.78	8.91	
2025-01-07 09:27:39.50	347.76	8.88	
2025-01-07 09:27:39.91	347.73	8.84	
2025-01-07 09:27:40.32	347.71	8.81	
2025-01-07 09:27:40.73	347.69	8.78	
2025-01-07 09:27:41.14	347.67	8.75	
2025-01-07 09:27:41.55	347.64	8.72	
2025-01-07 09:27:41.96	347.62	8.69	
2025-01-07 09:27:42.38	347.60	8.65	
2025-01-07 09:27:42.80	347.57	8.62	
2025-01-07 09:27:43.21	347.55	8.59	
2025-01-07 09:27:43.62	347.53	8.56	
2025-01-07 09:27:44.03	347.51	8.52	
2025-01-07 09:27:44.44	347.48	8.49	
2025-01-07 09:27:44.85	347.46	8.46	
2025-01-07 09:27:45.26	347.44	8.43	
2025-01-07 09:27:45.68	347.42	8.40	
2025-01-07 09:27:46.09	347.39	8.37	
2025-01-07 09:27:46.50	347.37	8.33	
2025-01-07 09:27:46.91	347.35	8.30	
2025-01-07 09:27:47.32	347.33	8.27	
2025-01-07 09:27:47.73	347.31	8.24	
2025-01-07 09:27:48.14	347.28	8.21	
2025-01-07 09:27:48.55	347.26	8.18	
2025-01-07 09:27:48.96	347.24	8.15	
2025-01-07 09:27:49.37	347.22	8.12	
2025-01-07 09:27:49.78	347.20	8.08	
2025-01-07 09:27:50.19	347.18	8.05	
2025-01-07 09:27:50.60	347.15	8.02	
2025-01-07 09:27:51.01	347.13	7.99	
2025-01-07 09:27:51.42	347.11	7.96	
2025-01-07 09:27:51.83	347.09	7.93	
2025-01-07 09:27:52.24	347.07	7.90	
2025-01-07 09:27:52.65	347.05	7.87	
2025-01-07 09:27:53.06	347.03	7.84	
2025-01-07 09:27:53.47	347.00	7.81	
2025-01-07 09:27:53.88	346.98	7.77	
2025-01-07 09:27:54.29	346.96	7.74	
2025-01-07 09:27:54.70	346.94	7.71	
2025-01-07 09:27:55.12	346.92	7.68	
2025-01-07 09:27:55.54	346.90	7.65	
2025-01-07 09:27:55.96	346.88	7.62	
2025-01-07 09:27:56.37	346.86	7.59	
2025-01-07 09:27:56.78	346.84	7.56	
2025-01-07 09:27:57.19	346.81	7.53	
2025-01-07 09:27:57.60	346.79	7.50	
2025-01-07 09:27:58.01	346.77	7.47	
2025-01-07 09:27:58.42	346.75	7.43	
2025-01-07 09:27:58.84	346.73	7.40	
2025-01-07 09:27:59.24	346.71	7.37	
2025-01-07 09:27:59.66	346.69	7.34	
2025-01-07 09:28:00.07	346.67	7.31	
2025-01-07 09:28:00.48	346.65	7.28	
2025-01-07 09:28:00.89	346.63	7.25	
2025-01-07 09:28:01.30	346.61	7.22	
2025-01-07 09:28:01.71	346.59	7.19	
2025-01-07 09:28:02.12	346.57	7.16	
2025-01-07 09:28:02.54	346.55	7.13	
2025-01-07 09:28:02.95	346.53	7.10	
2025-01-07 09:28:03.37	346.51	7.07	
2025-01-07 09:28:03.78	346.49	7.04	
2025-01-07 09:28:04.19	346.47	7.01	
2025-01-07 09:28:04.60	346.45	6.98	
2025-01-07 09:28:05.01	346.43	6.95	
2025-01-07 09:28:05.42	346.41	6.92	
2025-01-07 09:28:05.83	346.39	6.89	
2025-01-07 09:28:06.24	346.37	6.86	
2025-01-07 09:28:06.66	346.35	6.83	
2025-01-07 09:28:07.08	346.33	6.80	
2025-01-07 09:28:07.49	346.31	6.77	
2025-01-07 09:28:07.90	346.29	6.74	
2025-01-07 09:28:08.31	346.27	6.71	
2025-01-07 09:28:08.72	346.25	6.68	
2025-01-07 09:28:09.13	346.23	6.65	
2025-01-07 09:28:09.54	346.21	6.62	
2025-01-07 09:28:09.95	346.19	6.59	
2025-01-07 09:28:10.36	346.17	6.56	
2025-01-07 09:28:10.78	346.15	6.53	
2025-01-07 09:28:11.18	346.13	6.50	
2025-01-07 09:28:11.60	346.11	6.47	
2025-01-07 09:28:12.01	346.09	6.44	
2025-01-07 09:28:12.42	346.07	6.41	
2025-01-07 09:28:12.83	346.05	6.38	
2025-01-07 09:28:13.24	346.04	6.35	
2025-01-07 09:28:13.65	346.02	6.32	
2025-01-07 09:28:14.06	346.00	6.30	
2025-01-07 09:28:14.47	345.98	6.27	
2025-01-07 09:28:14.88	345.96	6.24	
2025-01-07 09:28:15.29	345.94	6.21	
2025-01-07 09:28:15.71	345.92	6.18	
2025-01-07 09:28:16.12	345.90	6.15	
2025-01-07 09:28:16.54	345.88	6.12	
2025-01-07 09:28:16.96	345.86	6.09	
2025-01-07 09:28:17.36	345.85	6.06	
2025-01-07 09:28:17.78	345.83	6.03	
2025-01-07 09:28:18.18	345.81	6.00	
2025-01-07 09:28:18.60	345.79	5.97	
2025-01-07 09:28:19.01	345.77	5.94	
2025-01-07 09:28:19.42	345.75	5.92	
2025-01-07 09:28:19.83	345.73	5.89	
2025-01-07 09:28:20.24	345.72	5.86	
2025-01-07 09:28:20.65	345.70	5.83	
2025-01-07 09:28:21.06	345.68	5.80	
2025-01-07 09:28:21.47	345.66	5.77	
2025-01-07 09:28:21.88	345.64	5.74	
2025-01-07 09:28:22.29	345.63	5.71	
2025-01-07 09:28:22.70	345.61	5.69	
2025-01-07 09:28:23.11	345.59	5.66	
2025-01-07 09:28:23.52	345.57	5.63	
2025-01-07 09:28:23.93	345.55	5.60	
2025-01-07 09:28:24.35	345.53	5.57	
2025-01-07 09:28:24.75	345.52	5.54	
2025-01-07 09:28:25.16	345.50	5.51	
2025-01-07 09:28:25.57	345.48	5.49	
2025-01-07 09:28:25.98	345.46	5.46	
2025-01-07 09:28:26.39	345.45	5.43	
2025-01-07 09:28:26.82	345.43	5.40	
2025-01-07 09:28:27.23	345.41	5.37	
2025-01-07 09:28:27.64	345.39	5.34	
2025-01-07 09:28:28.05	345.37	5.31	
2025-01-07 09:28:28.46	345.36	5.29	
2025-01-07 09:28:28.87	345.34	5.26	
2025-01-07 09:28:29.28	345.32	5.23	
2025-01-07 09:28:29.69	345.30	5.20	
2025-01-07 09:28:30.10	345.29	5.17	
2025-01-07 09:28:30.51	345.27	5.14	
2025-01-07 09:28:30.92	345.25	5.12	
2025-01-07 09:28:31.33	345.23	5.09	
2025-01-07 09:28:31.74	345.22	5.06	
2025-01-07 09:28:32.16	345.20	5.03	
2025-01-07 09:28:32.58	345.18	5.00	
2025-01-07 09:28:32.99	345.16	4.97	
2025-01-07 09:28:33.40	345.15	4.95	
2025-01-07 09:28:33.81	345.13	4.92	
2025-01-07 09:28:34.22	345.11	4.89	
2025-01-07 09:28:34.63	345.10	4.86	
2025-01-07 09:28:35.04	345.08	4.83	
2025-01-07 09:28:35.46	345.06	4.81	
2025-01-07 09:28:35.88	345.04	4.78	
2025-01-07 09:28:36.28	345.03	4.75	
2025-01-07 09:28:36.69	345.01	4.72	
2025-01-07 09:28:37.11	344.99	4.69	
2025-01-07 09:28:37.52	344.98	4.67	
2025-01-07 09:28:37.93	344.96	4.64	
2025-01-07 09:28:38.34	344.94	4.61	
2025-01-07 09:28:38.75	344.93	4.58	
2025-01-07 09:28:39.16	344.91	4.56	
2025-01-07 09:28:39.57	344.89	4.53	
2025-01-07 09:28:39.98	344.88	4.50	
2025-01-07 09:28:40.39	344.86	4.47	
2025-01-07 09:28:40.80	344.84	4.45	
2025-01-07 09:28:41.21	344.83	4.42	
2025-01-07 09:28:41.62	344.81	4.39	
2025-01-07 09:28:42.03	344.79	4.36	
2025-01-07 09:28:42.44	344.78	4.34	
2025-01-07 09:28:42.85	344.76	4.31	
2025-01-07 09:28:43.27	344.74	4.28	
2025-01-07 09:28:43.68	344.73	4.25	
2025-01-07 09:28:44.08	344.71	4.23	
2025-01-07 09:28:44.51	344.70	4.20	
2025-01-07 09:28:44.92	344.68	4.17	
2025-01-07 09:28:45.33	344.66	4.14	
2025-01-07 09:28:45.74	344.65	4.12	
2025-01-07 09:28:46.15	344.63	4.09	
2025-01-07 09:28:46.56	344.61	4.06	
2025-01-07 09:28:46.97	344.60	4.04	
2025-01-07 09:28:47.38	344.58	4.01	

#Closed at: 2025-01-07 09:28:47