passes_logs/2025/01/07/SPB_Silybum_02/SPB_Silybum_02__20250107_203005_TERRA_rec.log

#Pass ID: 20250107_203005_TERRA
#Satellite: TERRA
#Configuration: TERRA
#Start time: 2025-01-07 20:30:06

#Version: 2.0.20230423
#Station: SPB_Silybum_02
#Location: 30.233357 lon 59.946436 lat
#TLE: 1 25994U 99068A   25006.77118991  .00001382  00000+0  29492-3 0  9999
#TLE: 2 25994  98.0231  70.0628 0003576  88.8854  23.4584 14.60378914332871

#Time	Az	El	Level	Level2	SNR	BER	Gain	Gain2
2025-01-07 20:30:08.46	227.22	4.13	
2025-01-07 20:30:09.49	227.33	4.19	
2025-01-07 20:30:10.51	227.45	4.24	
2025-01-07 20:30:11.55	227.57	4.30	
2025-01-07 20:30:12.57	227.69	4.35	
2025-01-07 20:30:13.60	227.81	4.40	
2025-01-07 20:30:14.63	227.93	4.46	
2025-01-07 20:30:15.67	228.05	4.51	
2025-01-07 20:30:16.71	228.17	4.57	
2025-01-07 20:30:17.73	228.29	4.62	
2025-01-07 20:30:18.76	228.42	4.68	
2025-01-07 20:30:19.79	228.54	4.73	
2025-01-07 20:30:20.82	228.66	4.78	
2025-01-07 20:30:21.85	228.79	4.84	
2025-01-07 20:30:22.88	228.91	4.89	
2025-01-07 20:30:23.90	229.03	4.95	
2025-01-07 20:30:24.94	229.16	5.00	
2025-01-07 20:30:25.96	229.28	5.06	
2025-01-07 20:30:26.99	229.41	5.11	
2025-01-07 20:30:28.01	229.54	5.16	
2025-01-07 20:30:29.04	229.66	5.22	
2025-01-07 20:30:30.06	229.79	5.27	
2025-01-07 20:30:31.09	229.92	5.33	
2025-01-07 20:30:32.11	230.05	5.38	
2025-01-07 20:30:33.14	230.17	5.44	
2025-01-07 20:30:34.16	230.30	5.49	
2025-01-07 20:30:35.19	230.43	5.54	
2025-01-07 20:30:36.22	230.56	5.60	
2025-01-07 20:30:37.26	230.70	5.65	
2025-01-07 20:30:38.30	230.83	5.71	
2025-01-07 20:30:39.32	230.96	5.76	
2025-01-07 20:30:40.35	231.09	5.82	
2025-01-07 20:30:41.39	231.23	5.87	
2025-01-07 20:30:42.42	231.36	5.93	
2025-01-07 20:30:43.46	231.50	5.98	
2025-01-07 20:30:44.49	231.63	6.04	
2025-01-07 20:30:45.51	231.77	6.09	
2025-01-07 20:30:46.54	231.90	6.15	
2025-01-07 20:30:47.57	232.04	6.20	
2025-01-07 20:30:48.59	232.17	6.25	
2025-01-07 20:30:49.62	232.31	6.31	
2025-01-07 20:30:50.64	232.45	6.36	
2025-01-07 20:30:51.67	232.59	6.42	
2025-01-07 20:30:52.70	232.72	6.47	
2025-01-07 20:30:53.72	232.86	6.53	
2025-01-07 20:30:54.75	233.00	6.58	
2025-01-07 20:30:55.78	233.14	6.64	
2025-01-07 20:30:56.82	233.29	6.69	
2025-01-07 20:30:57.85	233.43	6.74	
2025-01-07 20:30:58.88	233.57	6.80	
2025-01-07 20:30:59.90	233.71	6.85	
2025-01-07 20:31:00.92	233.85	6.91	
2025-01-07 20:31:01.95	234.00	6.96	
2025-01-07 20:31:02.98	234.14	7.02	
2025-01-07 20:31:04.00	234.29	7.07	
2025-01-07 20:31:05.05	234.44	7.13	
2025-01-07 20:31:06.07	234.58	7.18	
2025-01-07 20:31:07.10	234.73	7.23	
2025-01-07 20:31:08.13	234.88	7.29	
2025-01-07 20:31:09.15	235.02	7.34	
2025-01-07 20:31:10.18	235.17	7.40	
2025-01-07 20:31:11.20	235.32	7.45	
2025-01-07 20:31:12.24	235.47	7.50	
2025-01-07 20:31:13.28	235.62	7.56	
2025-01-07 20:31:14.31	235.77	7.61	
2025-01-07 20:31:15.34	235.92	7.67	
2025-01-07 20:31:16.38	236.08	7.72	
2025-01-07 20:31:17.41	236.23	7.78	
2025-01-07 20:31:18.45	236.39	7.83	
2025-01-07 20:31:19.48	236.54	7.89	
2025-01-07 20:31:20.51	236.69	7.94	
2025-01-07 20:31:21.55	236.85	7.99	
2025-01-07 20:31:22.57	237.01	8.05	
2025-01-07 20:31:23.60	237.16	8.10	
2025-01-07 20:31:24.63	237.32	8.15	
2025-01-07 20:31:25.66	237.48	8.21	
2025-01-07 20:31:26.69	237.64	8.26	
2025-01-07 20:31:27.71	237.79	8.32	
2025-01-07 20:31:28.73	237.95	8.37	
2025-01-07 20:31:29.76	238.11	8.42	
2025-01-07 20:31:30.80	238.27	8.48	
2025-01-07 20:31:31.82	238.43	8.53	
2025-01-07 20:31:32.85	238.59	8.58	
2025-01-07 20:31:33.88	238.76	8.64	
2025-01-07 20:31:34.91	238.92	8.69	
2025-01-07 20:31:35.94	239.08	8.74	
2025-01-07 20:31:36.96	239.25	8.79	
2025-01-07 20:31:37.98	239.41	8.85	
2025-01-07 20:31:39.01	239.58	8.90	
2025-01-07 20:31:40.04	239.74	8.95	
2025-01-07 20:31:41.06	239.91	9.00	
2025-01-07 20:31:42.09	240.08	9.06	
2025-01-07 20:31:43.12	240.24	9.11	
2025-01-07 20:31:44.14	240.41	9.16	
2025-01-07 20:31:45.17	240.58	9.21	
2025-01-07 20:31:46.19	240.75	9.27	
2025-01-07 20:31:47.22	240.92	9.32	
2025-01-07 20:31:48.25	241.09	9.37	
2025-01-07 20:31:49.29	241.26	9.42	
2025-01-07 20:31:50.31	241.44	9.48	
2025-01-07 20:31:51.34	241.61	9.53	
2025-01-07 20:31:52.37	241.78	9.58	
2025-01-07 20:31:53.40	241.96	9.63	
2025-01-07 20:31:54.42	242.13	9.68	
2025-01-07 20:31:55.45	242.31	9.73	
2025-01-07 20:31:56.48	242.48	9.79	
2025-01-07 20:31:57.50	242.66	9.84	
2025-01-07 20:31:58.53	242.84	9.89	
2025-01-07 20:31:59.57	243.02	9.94	
2025-01-07 20:32:00.60	243.20	9.99	
2025-01-07 20:32:01.62	243.37	10.04	
2025-01-07 20:32:02.65	243.55	10.09	
2025-01-07 20:32:03.68	243.74	10.14	
2025-01-07 20:32:04.70	243.92	10.19	
2025-01-07 20:32:05.73	244.10	10.24	
2025-01-07 20:32:06.75	244.28	10.29	
2025-01-07 20:32:07.78	244.46	10.34	
2025-01-07 20:32:08.82	244.65	10.39	
2025-01-07 20:32:09.84	244.83	10.44	
2025-01-07 20:32:10.87	245.02	10.49	
2025-01-07 20:32:11.89	245.20	10.54	
2025-01-07 20:32:12.92	245.39	10.59	
2025-01-07 20:32:13.95	245.58	10.64	
2025-01-07 20:32:14.97	245.76	10.69	
2025-01-07 20:32:15.99	245.95	10.74	
2025-01-07 20:32:17.02	246.14	10.79	
2025-01-07 20:32:18.05	246.33	10.83	
2025-01-07 20:32:19.07	246.52	10.88	
2025-01-07 20:32:20.10	246.71	10.93	
2025-01-07 20:32:21.13	246.90	10.98	
2025-01-07 20:32:22.16	247.10	11.03	
2025-01-07 20:32:23.19	247.29	11.07	
2025-01-07 20:32:24.23	247.49	11.12	
2025-01-07 20:32:25.25	247.68	11.17	
2025-01-07 20:32:26.28	247.88	11.22	
2025-01-07 20:32:27.31	248.07	11.26	
2025-01-07 20:32:28.33	248.27	11.31	
2025-01-07 20:32:29.36	248.46	11.36	
2025-01-07 20:32:30.40	248.66	11.40	
2025-01-07 20:32:31.44	248.87	11.45	
2025-01-07 20:32:32.46	249.06	11.50	
2025-01-07 20:32:33.49	249.26	11.54	
2025-01-07 20:32:34.51	249.46	11.59	
2025-01-07 20:32:35.54	249.66	11.63	
2025-01-07 20:32:36.56	249.86	11.68	
2025-01-07 20:32:37.59	250.07	11.72	
2025-01-07 20:32:38.62	250.27	11.77	
2025-01-07 20:32:39.67	250.48	11.81	
2025-01-07 20:32:40.69	250.68	11.86	
2025-01-07 20:32:41.72	250.89	11.90	
2025-01-07 20:32:42.75	251.09	11.95	
2025-01-07 20:32:43.77	251.30	11.99	
2025-01-07 20:32:44.80	251.50	12.03	
2025-01-07 20:32:45.82	251.71	12.08	
2025-01-07 20:32:46.85	251.92	12.12	
2025-01-07 20:32:47.87	252.13	12.16	
2025-01-07 20:32:48.90	252.34	12.20	
2025-01-07 20:32:49.93	252.55	12.25	
2025-01-07 20:32:50.96	252.76	12.29	
2025-01-07 20:32:51.98	252.97	12.33	
2025-01-07 20:32:53.01	253.18	12.37	
2025-01-07 20:32:54.04	253.39	12.41	
2025-01-07 20:32:55.06	253.60	12.45	
2025-01-07 20:32:56.09	253.82	12.49	
2025-01-07 20:32:57.11	254.03	12.53	
2025-01-07 20:32:58.14	254.25	12.58	
2025-01-07 20:32:59.16	254.46	12.61	
2025-01-07 20:33:00.19	254.68	12.65	
2025-01-07 20:33:01.22	254.89	12.69	
2025-01-07 20:33:02.25	255.11	12.73	
2025-01-07 20:33:03.28	255.33	12.77	
2025-01-07 20:33:04.30	255.55	12.81	
2025-01-07 20:33:05.34	255.77	12.85	
2025-01-07 20:33:06.36	255.99	12.89	
2025-01-07 20:33:07.39	256.21	12.92	
2025-01-07 20:33:08.42	256.43	12.96	
2025-01-07 20:33:09.45	256.65	13.00	
2025-01-07 20:33:10.47	256.87	13.03	
2025-01-07 20:33:11.50	257.09	13.07	
2025-01-07 20:33:12.53	257.32	13.11	
2025-01-07 20:33:13.55	257.54	13.14	
2025-01-07 20:33:14.57	257.76	13.18	
2025-01-07 20:33:15.60	257.99	13.21	
2025-01-07 20:33:16.62	258.21	13.25	
2025-01-07 20:33:17.65	258.44	13.28	
2025-01-07 20:33:18.68	258.66	13.32	
2025-01-07 20:33:19.70	258.89	13.35	
2025-01-07 20:33:20.74	259.12	13.38	
2025-01-07 20:33:21.76	259.35	13.42	
2025-01-07 20:33:22.79	259.58	13.45	
2025-01-07 20:33:23.81	259.80	13.48	
2025-01-07 20:33:24.84	260.03	13.51	
2025-01-07 20:33:25.87	260.26	13.54	
2025-01-07 20:33:26.89	260.49	13.57	
2025-01-07 20:33:27.92	260.72	13.61	
2025-01-07 20:33:28.95	260.96	13.64	
2025-01-07 20:33:29.97	261.19	13.67	
2025-01-07 20:33:31.00	261.42	13.70	
2025-01-07 20:33:32.02	261.65	13.72	
2025-01-07 20:33:33.05	261.88	13.75	
2025-01-07 20:33:34.07	262.12	13.78	
2025-01-07 20:33:35.10	262.35	13.81	
2025-01-07 20:33:36.14	262.59	13.84	
2025-01-07 20:33:37.16	262.82	13.87	
2025-01-07 20:33:38.20	263.06	13.89	
2025-01-07 20:33:39.23	263.30	13.92	
2025-01-07 20:33:40.26	263.54	13.95	
2025-01-07 20:33:41.28	263.77	13.97	
2025-01-07 20:33:42.30	264.01	14.00	
2025-01-07 20:33:43.33	264.25	14.02	
2025-01-07 20:33:44.36	264.48	14.05	
2025-01-07 20:33:45.38	264.72	14.07	
2025-01-07 20:33:46.43	264.97	14.10	
2025-01-07 20:33:47.46	265.21	14.12	
2025-01-07 20:33:48.50	265.45	14.14	
2025-01-07 20:33:49.52	265.69	14.16	
2025-01-07 20:33:50.55	265.93	14.19	
2025-01-07 20:33:51.58	266.17	14.21	
2025-01-07 20:33:52.60	266.41	14.23	
2025-01-07 20:33:53.63	266.65	14.25	
2025-01-07 20:33:54.66	266.89	14.27	
2025-01-07 20:33:55.68	267.14	14.29	
2025-01-07 20:33:56.71	267.38	14.31	
2025-01-07 20:33:57.75	267.62	14.33	
2025-01-07 20:33:58.77	267.87	14.35	
2025-01-07 20:33:59.80	268.11	14.37	
2025-01-07 20:34:00.82	268.35	14.38	
2025-01-07 20:34:01.85	268.60	14.40	
2025-01-07 20:34:02.87	268.84	14.42	
2025-01-07 20:34:03.90	269.09	14.43	
2025-01-07 20:34:04.92	269.33	14.45	
2025-01-07 20:34:05.95	269.58	14.47	
2025-01-07 20:34:06.98	269.82	14.48	
2025-01-07 20:34:08.02	270.07	14.50	
2025-01-07 20:34:09.04	270.31	14.51	
2025-01-07 20:34:10.07	270.56	14.52	
2025-01-07 20:34:11.10	270.81	14.54	
2025-01-07 20:34:12.12	271.05	14.55	
2025-01-07 20:34:13.14	271.30	14.56	
2025-01-07 20:34:14.17	271.55	14.57	
2025-01-07 20:34:15.19	271.79	14.58	
2025-01-07 20:34:16.22	272.04	14.60	
2025-01-07 20:34:17.24	272.29	14.61	
2025-01-07 20:34:18.27	272.54	14.62	
2025-01-07 20:34:19.29	272.78	14.63	
2025-01-07 20:34:20.33	273.03	14.63	
2025-01-07 20:34:21.36	273.28	14.64	
2025-01-07 20:34:22.39	273.53	14.65	
2025-01-07 20:34:23.43	273.78	14.66	
2025-01-07 20:34:24.47	274.03	14.67	
2025-01-07 20:34:25.50	274.28	14.67	
2025-01-07 20:34:26.53	274.53	14.68	
2025-01-07 20:34:27.55	274.78	14.68	
2025-01-07 20:34:28.58	275.03	14.69	
2025-01-07 20:34:29.61	275.28	14.69	
2025-01-07 20:34:30.64	275.53	14.70	
2025-01-07 20:34:31.67	275.78	14.70	
2025-01-07 20:34:32.69	276.03	14.70	
2025-01-07 20:34:33.72	276.28	14.71	
2025-01-07 20:34:34.74	276.53	14.71	
2025-01-07 20:34:35.77	276.78	14.71	
2025-01-07 20:34:36.81	277.03	14.71	
2025-01-07 20:34:37.84	277.28	14.71	
2025-01-07 20:34:38.86	277.53	14.71	
2025-01-07 20:34:39.89	277.78	14.71	
2025-01-07 20:34:40.91	278.02	14.71	
2025-01-07 20:34:41.94	278.28	14.71	
2025-01-07 20:34:42.96	278.52	14.71	
2025-01-07 20:34:43.99	278.77	14.71	
2025-01-07 20:34:45.01	279.02	14.71	
2025-01-07 20:34:46.04	279.27	14.70	
2025-01-07 20:34:47.07	279.52	14.70	
2025-01-07 20:34:48.09	279.77	14.69	
2025-01-07 20:34:49.12	280.02	14.69	
2025-01-07 20:34:50.14	280.27	14.69	
2025-01-07 20:34:51.17	280.51	14.68	
2025-01-07 20:34:52.20	280.76	14.67	
2025-01-07 20:34:53.22	281.01	14.67	
2025-01-07 20:34:54.25	281.26	14.66	
2025-01-07 20:34:55.28	281.51	14.65	
2025-01-07 20:34:56.30	281.76	14.65	
2025-01-07 20:34:57.34	282.01	14.64	
2025-01-07 20:34:58.38	282.26	14.63	
2025-01-07 20:34:59.41	282.51	14.62	
2025-01-07 20:35:00.43	282.75	14.61	
2025-01-07 20:35:01.46	283.00	14.60	
2025-01-07 20:35:02.49	283.25	14.59	
2025-01-07 20:35:03.52	283.50	14.58	
2025-01-07 20:35:04.56	283.75	14.56	
2025-01-07 20:35:05.59	283.99	14.55	
2025-01-07 20:35:06.61	284.24	14.54	
2025-01-07 20:35:07.65	284.49	14.53	
2025-01-07 20:35:08.67	284.73	14.51	
2025-01-07 20:35:09.71	284.98	14.50	
2025-01-07 20:35:10.74	285.23	14.49	
2025-01-07 20:35:11.78	285.48	14.47	
2025-01-07 20:35:12.80	285.72	14.45	
2025-01-07 20:35:13.83	285.96	14.44	
2025-01-07 20:35:14.85	286.21	14.42	
2025-01-07 20:35:15.88	286.45	14.41	
2025-01-07 20:35:16.90	286.69	14.39	
2025-01-07 20:35:17.93	286.94	14.37	
2025-01-07 20:35:18.96	287.18	14.35	
2025-01-07 20:35:19.98	287.42	14.33	
2025-01-07 20:35:21.01	287.67	14.32	
2025-01-07 20:35:22.04	287.91	14.30	
2025-01-07 20:35:23.07	288.15	14.28	
2025-01-07 20:35:24.09	288.39	14.26	
2025-01-07 20:35:25.12	288.63	14.24	
2025-01-07 20:35:26.14	288.87	14.22	
2025-01-07 20:35:27.17	289.11	14.19	
2025-01-07 20:35:28.21	289.36	14.17	
2025-01-07 20:35:29.24	289.60	14.15	
2025-01-07 20:35:30.26	289.83	14.13	
2025-01-07 20:35:31.29	290.07	14.10	
2025-01-07 20:35:32.33	290.32	14.08	
2025-01-07 20:35:33.35	290.55	14.06	
2025-01-07 20:35:34.38	290.79	14.03	
2025-01-07 20:35:35.41	291.03	14.01	
2025-01-07 20:35:36.43	291.26	13.98	
2025-01-07 20:35:37.46	291.50	13.96	
2025-01-07 20:35:38.49	291.74	13.93	
2025-01-07 20:35:39.51	291.97	13.90	
2025-01-07 20:35:40.55	292.21	13.88	
2025-01-07 20:35:41.58	292.45	13.85	
2025-01-07 20:35:42.60	292.68	13.82	
2025-01-07 20:35:43.63	292.91	13.79	
2025-01-07 20:35:44.65	293.14	13.77	
2025-01-07 20:35:45.68	293.38	13.74	
2025-01-07 20:35:46.71	293.61	13.71	
2025-01-07 20:35:47.73	293.84	13.68	
2025-01-07 20:35:48.76	294.07	13.65	
2025-01-07 20:35:49.78	294.30	13.62	
2025-01-07 20:35:50.81	294.53	13.59	
2025-01-07 20:35:51.84	294.76	13.56	
2025-01-07 20:35:52.87	294.99	13.52	
2025-01-07 20:35:53.89	295.22	13.49	
2025-01-07 20:35:54.93	295.45	13.46	
2025-01-07 20:35:55.96	295.68	13.43	
2025-01-07 20:35:56.98	295.91	13.40	
2025-01-07 20:35:58.01	296.13	13.36	
2025-01-07 20:35:59.03	296.36	13.33	
2025-01-07 20:36:00.06	296.58	13.30	
2025-01-07 20:36:01.08	296.81	13.26	
2025-01-07 20:36:02.11	297.03	13.23	
2025-01-07 20:36:03.13	297.25	13.19	
2025-01-07 20:36:04.16	297.48	13.16	
2025-01-07 20:36:05.18	297.70	13.12	
2025-01-07 20:36:06.21	297.92	13.09	
2025-01-07 20:36:07.24	298.15	13.05	
2025-01-07 20:36:08.28	298.37	13.01	
2025-01-07 20:36:09.30	298.59	12.98	
2025-01-07 20:36:10.32	298.81	12.94	
2025-01-07 20:36:11.35	299.03	12.90	
2025-01-07 20:36:12.39	299.25	12.87	
2025-01-07 20:36:13.43	299.47	12.83	
2025-01-07 20:36:14.46	299.69	12.79	
2025-01-07 20:36:15.49	299.91	12.75	
2025-01-07 20:36:16.51	300.12	12.71	
2025-01-07 20:36:17.54	300.34	12.67	
2025-01-07 20:36:18.57	300.55	12.63	
2025-01-07 20:36:19.61	300.77	12.59	
2025-01-07 20:36:20.65	300.99	12.55	
2025-01-07 20:36:21.67	301.20	12.51	
2025-01-07 20:36:22.70	301.41	12.47	
2025-01-07 20:36:23.73	301.63	12.43	
2025-01-07 20:36:24.75	301.84	12.39	
2025-01-07 20:36:25.78	302.05	12.35	
2025-01-07 20:36:26.81	302.26	12.31	
2025-01-07 20:36:27.84	302.47	12.27	
2025-01-07 20:36:28.87	302.68	12.23	
2025-01-07 20:36:29.91	302.89	12.18	
2025-01-07 20:36:30.94	303.10	12.14	
2025-01-07 20:36:31.97	303.31	12.10	
2025-01-07 20:36:32.99	303.51	12.06	
2025-01-07 20:36:34.02	303.72	12.01	
2025-01-07 20:36:35.05	303.92	11.97	
2025-01-07 20:36:36.08	304.13	11.93	
2025-01-07 20:36:37.10	304.33	11.88	
2025-01-07 20:36:38.12	304.53	11.84	
2025-01-07 20:36:39.15	304.74	11.79	
2025-01-07 20:36:40.18	304.94	11.75	
2025-01-07 20:36:41.20	305.14	11.71	
2025-01-07 20:36:42.23	305.34	11.66	
2025-01-07 20:36:43.25	305.54	11.62	
2025-01-07 20:36:44.28	305.74	11.57	
2025-01-07 20:36:45.30	305.94	11.53	
2025-01-07 20:36:46.33	306.14	11.48	
2025-01-07 20:36:47.36	306.33	11.43	
2025-01-07 20:36:48.39	306.53	11.39	
2025-01-07 20:36:49.42	306.73	11.34	
2025-01-07 20:36:50.44	306.92	11.30	
2025-01-07 20:36:51.47	307.12	11.25	
2025-01-07 20:36:52.50	307.31	11.20	
2025-01-07 20:36:53.52	307.50	11.16	
2025-01-07 20:36:54.55	307.70	11.11	
2025-01-07 20:36:55.58	307.89	11.06	
2025-01-07 20:36:56.60	308.08	11.01	
2025-01-07 20:36:57.63	308.27	10.97	
2025-01-07 20:36:58.66	308.46	10.92	
2025-01-07 20:36:59.68	308.65	10.87	
2025-01-07 20:37:00.70	308.84	10.82	
2025-01-07 20:37:01.73	309.03	10.77	
2025-01-07 20:37:02.76	309.22	10.73	
2025-01-07 20:37:03.78	309.40	10.68	
2025-01-07 20:37:04.82	309.59	10.63	
2025-01-07 20:37:05.85	309.78	10.58	
2025-01-07 20:37:06.88	309.96	10.53	
2025-01-07 20:37:07.91	310.15	10.48	
2025-01-07 20:37:08.96	310.34	10.43	
2025-01-07 20:37:09.98	310.52	10.38	
2025-01-07 20:37:11.01	310.70	10.33	
2025-01-07 20:37:12.04	310.88	10.28	
2025-01-07 20:37:13.06	311.06	10.23	
2025-01-07 20:37:14.09	311.25	10.18	
2025-01-07 20:37:15.13	311.43	10.13	
2025-01-07 20:37:16.17	311.61	10.08	
2025-01-07 20:37:17.19	311.79	10.03	
2025-01-07 20:37:18.22	311.97	9.98	
2025-01-07 20:37:19.26	312.15	9.93	
2025-01-07 20:37:20.28	312.32	9.88	
2025-01-07 20:37:21.31	312.50	9.83	
2025-01-07 20:37:22.33	312.67	9.78	
2025-01-07 20:37:23.36	312.85	9.73	
2025-01-07 20:37:24.39	313.02	9.68	
2025-01-07 20:37:25.41	313.19	9.63	
2025-01-07 20:37:26.44	313.37	9.57	
2025-01-07 20:37:27.47	313.54	9.52	
2025-01-07 20:37:28.51	313.71	9.47	
2025-01-07 20:37:29.53	313.88	9.42	
2025-01-07 20:37:30.57	314.06	9.37	
2025-01-07 20:37:31.60	314.23	9.32	
2025-01-07 20:37:32.63	314.40	9.26	
2025-01-07 20:37:33.65	314.56	9.21	
2025-01-07 20:37:34.67	314.73	9.16	
2025-01-07 20:37:35.70	314.90	9.11	
2025-01-07 20:37:36.73	315.06	9.06	
2025-01-07 20:37:37.76	315.23	9.00	
2025-01-07 20:37:38.78	315.39	8.95	
2025-01-07 20:37:39.80	315.56	8.90	
2025-01-07 20:37:40.83	315.72	8.85	
2025-01-07 20:37:41.86	315.89	8.79	
2025-01-07 20:37:42.89	316.05	8.74	
2025-01-07 20:37:43.91	316.21	8.69	
2025-01-07 20:37:44.94	316.37	8.64	
2025-01-07 20:37:45.98	316.54	8.58	
2025-01-07 20:37:47.01	316.70	8.53	
2025-01-07 20:37:48.03	316.86	8.48	
2025-01-07 20:37:49.06	317.01	8.43	
2025-01-07 20:37:50.10	317.18	8.37	
2025-01-07 20:37:51.12	317.33	8.32	
2025-01-07 20:37:52.16	317.49	8.27	
2025-01-07 20:37:53.18	317.65	8.21	
2025-01-07 20:37:54.21	317.80	8.16	
2025-01-07 20:37:55.24	317.96	8.11	
2025-01-07 20:37:56.28	318.12	8.05	
2025-01-07 20:37:57.30	318.27	8.00	
2025-01-07 20:37:58.33	318.42	7.95	
2025-01-07 20:37:59.35	318.58	7.89	
2025-01-07 20:38:00.38	318.73	7.84	
2025-01-07 20:38:01.40	318.88	7.79	
2025-01-07 20:38:02.45	319.03	7.73	
2025-01-07 20:38:03.47	319.18	7.68	
2025-01-07 20:38:04.50	319.34	7.63	
2025-01-07 20:38:05.53	319.49	7.57	
2025-01-07 20:38:06.55	319.63	7.52	
2025-01-07 20:38:07.59	319.78	7.46	
2025-01-07 20:38:08.63	319.93	7.41	
2025-01-07 20:38:09.66	320.08	7.36	
2025-01-07 20:38:10.69	320.23	7.30	
2025-01-07 20:38:11.71	320.37	7.25	
2025-01-07 20:38:12.74	320.52	7.20	
2025-01-07 20:38:13.76	320.66	7.14	
2025-01-07 20:38:14.80	320.81	7.09	
2025-01-07 20:38:15.84	320.96	7.03	
2025-01-07 20:38:16.87	321.10	6.98	
2025-01-07 20:38:17.89	321.24	6.93	
2025-01-07 20:38:18.92	321.38	6.87	
2025-01-07 20:38:19.94	321.52	6.82	
2025-01-07 20:38:20.97	321.67	6.76	
2025-01-07 20:38:22.00	321.81	6.71	
2025-01-07 20:38:23.03	321.95	6.66	
2025-01-07 20:38:24.05	322.09	6.60	
2025-01-07 20:38:25.09	322.23	6.55	
2025-01-07 20:38:26.12	322.37	6.49	
2025-01-07 20:38:27.14	322.50	6.44	
2025-01-07 20:38:28.17	322.64	6.39	
2025-01-07 20:38:29.21	322.78	6.33	
2025-01-07 20:38:30.25	322.92	6.28	
2025-01-07 20:38:31.28	323.05	6.22	
2025-01-07 20:38:32.30	323.19	6.17	
2025-01-07 20:38:33.33	323.32	6.12	
2025-01-07 20:38:34.37	323.46	6.06	
2025-01-07 20:38:35.39	323.59	6.01	
2025-01-07 20:38:36.42	323.73	5.95	
2025-01-07 20:38:37.44	323.86	5.90	
2025-01-07 20:38:38.47	323.99	5.85	
2025-01-07 20:38:39.49	324.12	5.79	
2025-01-07 20:38:40.52	324.25	5.74	
2025-01-07 20:38:41.55	324.38	5.69	
2025-01-07 20:38:42.58	324.51	5.63	
2025-01-07 20:38:43.60	324.64	5.58	
2025-01-07 20:38:44.62	324.77	5.52	
2025-01-07 20:38:45.66	324.90	5.47	
2025-01-07 20:38:46.69	325.03	5.42	
2025-01-07 20:38:47.71	325.16	5.36	
2025-01-07 20:38:48.74	325.28	5.31	
2025-01-07 20:38:49.77	325.41	5.26	
2025-01-07 20:38:50.79	325.54	5.20	
2025-01-07 20:38:51.83	325.66	5.15	
2025-01-07 20:38:52.85	325.79	5.09	
2025-01-07 20:38:53.88	325.91	5.04	
2025-01-07 20:38:54.91	326.04	4.99	
2025-01-07 20:38:55.93	326.16	4.93	
2025-01-07 20:38:56.96	326.28	4.88	
2025-01-07 20:38:57.98	326.40	4.83	
2025-01-07 20:38:59.01	326.53	4.77	
2025-01-07 20:39:00.04	326.65	4.72	
2025-01-07 20:39:01.06	326.77	4.67	
2025-01-07 20:39:02.09	326.89	4.61	
2025-01-07 20:39:03.12	327.01	4.56	
2025-01-07 20:39:04.14	327.13	4.50	
2025-01-07 20:39:05.17	327.25	4.45	
2025-01-07 20:39:06.20	327.37	4.40	
2025-01-07 20:39:07.22	327.49	4.34	
2025-01-07 20:39:08.25	327.61	4.29	
2025-01-07 20:39:09.28	327.73	4.24	
2025-01-07 20:39:10.31	327.84	4.18	
2025-01-07 20:39:11.33	327.96	4.13	
2025-01-07 20:39:12.36	328.08	4.08	
2025-01-07 20:39:13.38	328.19	4.02	

#Closed at: 2025-01-07 20:39:14