passes_logs/2025/01/07/SPB_Silybum_02/SPB_Silybum_02__20250107_125045_AQUA_rec.log

#Pass ID: 20250107_125045_AQUA
#Satellite: AQUA
#Configuration: AQUA
#Start time: 2025-01-07 12:50:46

#Version: 2.0.20230423
#Station: SPB_Silybum_02
#Location: 30.233357 lon 59.946436 lat
#TLE: 1 27424U 02022A   25006.84785145  .00002945  00000+0  61491-3 0  9993
#TLE: 2 27424  98.3576 323.4392 0001407 119.3107 268.2761 14.60650503206436

#Time	Az	El	Level	Level2	SNR	BER	Gain	Gain2
2025-01-07 12:50:48.23	208.08	4.16	
2025-01-07 12:50:49.46	208.19	4.23	
2025-01-07 12:50:50.71	208.30	4.31	
2025-01-07 12:50:51.95	208.41	4.39	
2025-01-07 12:50:53.20	208.52	4.46	
2025-01-07 12:50:54.44	208.63	4.54	
2025-01-07 12:50:55.68	208.74	4.62	
2025-01-07 12:50:56.91	208.85	4.70	
2025-01-07 12:50:58.14	208.96	4.77	
2025-01-07 12:50:59.37	209.08	4.85	
2025-01-07 12:51:00.60	209.19	4.93	
2025-01-07 12:51:01.84	209.30	5.01	
2025-01-07 12:51:03.07	209.42	5.08	
2025-01-07 12:51:04.29	209.53	5.16	
2025-01-07 12:51:05.53	209.65	5.24	
2025-01-07 12:51:06.76	209.76	5.32	
2025-01-07 12:51:07.99	209.88	5.40	
2025-01-07 12:51:09.24	210.00	5.48	
2025-01-07 12:51:10.47	210.12	5.56	
2025-01-07 12:51:11.70	210.24	5.64	
2025-01-07 12:51:12.93	210.36	5.72	
2025-01-07 12:51:14.16	210.48	5.80	
2025-01-07 12:51:15.39	210.60	5.87	
2025-01-07 12:51:16.62	210.72	5.95	
2025-01-07 12:51:17.85	210.84	6.03	
2025-01-07 12:51:19.09	210.96	6.12	
2025-01-07 12:51:20.32	211.09	6.20	
2025-01-07 12:51:21.55	211.21	6.28	
2025-01-07 12:51:22.79	211.34	6.36	
2025-01-07 12:51:24.02	211.46	6.44	
2025-01-07 12:51:25.25	211.59	6.52	
2025-01-07 12:51:26.48	211.72	6.60	
2025-01-07 12:51:27.71	211.84	6.68	
2025-01-07 12:51:28.94	211.97	6.76	
2025-01-07 12:51:30.17	212.10	6.85	
2025-01-07 12:51:31.42	212.23	6.93	
2025-01-07 12:51:32.65	212.37	7.01	
2025-01-07 12:51:33.88	212.50	7.09	
2025-01-07 12:51:35.11	212.63	7.18	
2025-01-07 12:51:36.34	212.76	7.26	
2025-01-07 12:51:37.58	212.90	7.34	
2025-01-07 12:51:38.82	213.03	7.42	
2025-01-07 12:51:40.05	213.17	7.51	
2025-01-07 12:51:41.30	213.31	7.59	
2025-01-07 12:51:42.53	213.45	7.68	
2025-01-07 12:51:43.76	213.58	7.76	
2025-01-07 12:51:45.00	213.72	7.84	
2025-01-07 12:51:46.23	213.86	7.93	
2025-01-07 12:51:47.46	214.01	8.01	
2025-01-07 12:51:48.70	214.15	8.10	
2025-01-07 12:51:49.94	214.29	8.18	
2025-01-07 12:51:51.18	214.44	8.27	
2025-01-07 12:51:52.41	214.58	8.35	
2025-01-07 12:51:53.64	214.73	8.44	
2025-01-07 12:51:54.88	214.87	8.52	
2025-01-07 12:51:56.11	215.02	8.61	
2025-01-07 12:51:57.33	215.17	8.69	
2025-01-07 12:51:58.58	215.32	8.78	
2025-01-07 12:51:59.81	215.47	8.87	
2025-01-07 12:52:01.04	215.62	8.95	
2025-01-07 12:52:02.27	215.77	9.04	
2025-01-07 12:52:03.51	215.92	9.13	
2025-01-07 12:52:04.76	216.08	9.21	
2025-01-07 12:52:05.99	216.23	9.30	
2025-01-07 12:52:07.22	216.39	9.39	
2025-01-07 12:52:08.45	216.54	9.47	
2025-01-07 12:52:09.68	216.70	9.56	
2025-01-07 12:52:10.91	216.86	9.65	
2025-01-07 12:52:12.15	217.02	9.74	
2025-01-07 12:52:13.39	217.18	9.83	
2025-01-07 12:52:14.63	217.34	9.91	
2025-01-07 12:52:15.86	217.51	10.00	
2025-01-07 12:52:17.10	217.67	10.09	
2025-01-07 12:52:18.33	217.84	10.18	
2025-01-07 12:52:19.56	218.00	10.27	
2025-01-07 12:52:20.79	218.17	10.36	
2025-01-07 12:52:22.02	218.33	10.45	
2025-01-07 12:52:23.25	218.50	10.53	
2025-01-07 12:52:24.48	218.67	10.62	
2025-01-07 12:52:25.71	218.84	10.71	
2025-01-07 12:52:26.96	219.02	10.80	
2025-01-07 12:52:28.19	219.19	10.89	
2025-01-07 12:52:29.42	219.36	10.98	
2025-01-07 12:52:30.65	219.54	11.07	
2025-01-07 12:52:31.88	219.72	11.16	
2025-01-07 12:52:33.11	219.89	11.25	
2025-01-07 12:52:34.34	220.07	11.34	
2025-01-07 12:52:35.57	220.25	11.43	
2025-01-07 12:52:36.81	220.43	11.52	
2025-01-07 12:52:38.04	220.62	11.62	
2025-01-07 12:52:39.28	220.80	11.71	
2025-01-07 12:52:40.51	220.98	11.80	
2025-01-07 12:52:41.74	221.17	11.89	
2025-01-07 12:52:42.98	221.36	11.98	
2025-01-07 12:52:44.21	221.55	12.07	
2025-01-07 12:52:45.44	221.74	12.16	
2025-01-07 12:52:46.67	221.93	12.25	
2025-01-07 12:52:47.89	222.12	12.35	
2025-01-07 12:52:49.12	222.31	12.44	
2025-01-07 12:52:50.35	222.50	12.53	
2025-01-07 12:52:51.60	222.70	12.62	
2025-01-07 12:52:52.83	222.90	12.71	
2025-01-07 12:52:54.06	223.10	12.81	
2025-01-07 12:52:55.31	223.30	12.90	
2025-01-07 12:52:56.54	223.50	12.99	
2025-01-07 12:52:57.77	223.70	13.08	
2025-01-07 12:52:59.00	223.90	13.18	
2025-01-07 12:53:00.23	224.11	13.27	
2025-01-07 12:53:01.46	224.31	13.36	
2025-01-07 12:53:02.69	224.52	13.45	
2025-01-07 12:53:03.92	224.73	13.55	
2025-01-07 12:53:05.16	224.94	13.64	
2025-01-07 12:53:06.39	225.15	13.73	
2025-01-07 12:53:07.62	225.36	13.83	
2025-01-07 12:53:08.85	225.58	13.92	
2025-01-07 12:53:10.08	225.79	14.01	
2025-01-07 12:53:11.31	226.01	14.10	
2025-01-07 12:53:12.54	226.23	14.20	
2025-01-07 12:53:13.77	226.45	14.29	
2025-01-07 12:53:15.01	226.67	14.38	
2025-01-07 12:53:16.24	226.89	14.48	
2025-01-07 12:53:17.48	227.12	14.57	
2025-01-07 12:53:18.71	227.35	14.66	
2025-01-07 12:53:19.94	227.57	14.76	
2025-01-07 12:53:21.17	227.80	14.85	
2025-01-07 12:53:22.40	228.03	14.94	
2025-01-07 12:53:23.63	228.26	15.04	
2025-01-07 12:53:24.86	228.50	15.13	
2025-01-07 12:53:26.09	228.73	15.22	
2025-01-07 12:53:27.32	228.97	15.32	
2025-01-07 12:53:28.55	229.20	15.41	
2025-01-07 12:53:29.80	229.45	15.50	
2025-01-07 12:53:31.04	229.69	15.60	
2025-01-07 12:53:32.27	229.93	15.69	
2025-01-07 12:53:33.50	230.17	15.78	
2025-01-07 12:53:34.73	230.42	15.87	
2025-01-07 12:53:35.96	230.67	15.97	
2025-01-07 12:53:37.20	230.92	16.06	
2025-01-07 12:53:38.45	231.17	16.15	
2025-01-07 12:53:39.68	231.42	16.25	
2025-01-07 12:53:40.91	231.67	16.34	
2025-01-07 12:53:42.13	231.93	16.43	
2025-01-07 12:53:43.36	232.18	16.52	
2025-01-07 12:53:44.59	232.44	16.61	
2025-01-07 12:53:45.82	232.70	16.70	
2025-01-07 12:53:47.05	232.96	16.79	
2025-01-07 12:53:48.28	233.23	16.89	
2025-01-07 12:53:49.51	233.49	16.98	
2025-01-07 12:53:50.74	233.76	17.07	
2025-01-07 12:53:51.96	234.02	17.16	
2025-01-07 12:53:53.20	234.29	17.25	
2025-01-07 12:53:54.43	234.56	17.34	
2025-01-07 12:53:55.68	234.84	17.43	
2025-01-07 12:53:56.91	235.12	17.52	
2025-01-07 12:53:58.14	235.39	17.61	
2025-01-07 12:53:59.37	235.67	17.70	
2025-01-07 12:54:00.60	235.95	17.79	
2025-01-07 12:54:01.83	236.23	17.87	
2025-01-07 12:54:03.06	236.51	17.96	
2025-01-07 12:54:04.29	236.80	18.05	
2025-01-07 12:54:05.52	237.09	18.14	
2025-01-07 12:54:06.77	237.38	18.23	
2025-01-07 12:54:08.00	237.67	18.31	
2025-01-07 12:54:09.23	237.96	18.40	
2025-01-07 12:54:10.46	238.25	18.49	
2025-01-07 12:54:11.69	238.55	18.57	
2025-01-07 12:54:12.92	238.84	18.66	
2025-01-07 12:54:14.15	239.14	18.74	
2025-01-07 12:54:15.40	239.45	18.83	
2025-01-07 12:54:16.63	239.75	18.91	
2025-01-07 12:54:17.86	240.05	19.00	
2025-01-07 12:54:19.09	240.36	19.08	
2025-01-07 12:54:20.32	240.67	19.16	
2025-01-07 12:54:21.55	240.97	19.24	
2025-01-07 12:54:22.78	241.29	19.33	
2025-01-07 12:54:24.01	241.60	19.41	
2025-01-07 12:54:25.25	241.91	19.49	
2025-01-07 12:54:26.48	242.23	19.57	
2025-01-07 12:54:27.71	242.55	19.65	
2025-01-07 12:54:28.94	242.87	19.73	
2025-01-07 12:54:30.18	243.19	19.81	
2025-01-07 12:54:31.41	243.51	19.89	
2025-01-07 12:54:32.65	243.84	19.96	
2025-01-07 12:54:33.88	244.16	20.04	
2025-01-07 12:54:35.12	244.49	20.12	
2025-01-07 12:54:36.35	244.82	20.19	
2025-01-07 12:54:37.58	245.15	20.27	
2025-01-07 12:54:38.81	245.49	20.34	
2025-01-07 12:54:40.04	245.82	20.42	
2025-01-07 12:54:41.26	246.15	20.49	
2025-01-07 12:54:42.49	246.49	20.56	
2025-01-07 12:54:43.72	246.83	20.63	
2025-01-07 12:54:44.96	247.17	20.70	
2025-01-07 12:54:46.19	247.51	20.77	
2025-01-07 12:54:47.42	247.86	20.84	
2025-01-07 12:54:48.65	248.20	20.91	
2025-01-07 12:54:49.88	248.55	20.98	
2025-01-07 12:54:51.11	248.90	21.04	
2025-01-07 12:54:52.34	249.25	21.11	
2025-01-07 12:54:53.59	249.61	21.17	
2025-01-07 12:54:54.82	249.96	21.24	
2025-01-07 12:54:56.05	250.31	21.30	
2025-01-07 12:54:57.28	250.67	21.36	
2025-01-07 12:54:58.52	251.03	21.43	
2025-01-07 12:54:59.75	251.39	21.49	
2025-01-07 12:55:00.98	251.75	21.55	
2025-01-07 12:55:02.21	252.11	21.60	
2025-01-07 12:55:03.44	252.47	21.66	
2025-01-07 12:55:04.68	252.84	21.72	
2025-01-07 12:55:05.91	253.21	21.77	
2025-01-07 12:55:07.14	253.57	21.83	
2025-01-07 12:55:08.38	253.94	21.88	
2025-01-07 12:55:09.61	254.31	21.93	
2025-01-07 12:55:10.84	254.68	21.99	
2025-01-07 12:55:12.07	255.06	22.04	
2025-01-07 12:55:13.31	255.43	22.09	
2025-01-07 12:55:14.54	255.81	22.13	
2025-01-07 12:55:15.77	256.18	22.18	
2025-01-07 12:55:17.00	256.56	22.23	
2025-01-07 12:55:18.24	256.94	22.27	
2025-01-07 12:55:19.47	257.32	22.32	
2025-01-07 12:55:20.70	257.70	22.36	
2025-01-07 12:55:21.93	258.08	22.40	
2025-01-07 12:55:23.16	258.46	22.44	
2025-01-07 12:55:24.39	258.85	22.48	
2025-01-07 12:55:25.64	259.24	22.52	
2025-01-07 12:55:26.86	259.62	22.55	
2025-01-07 12:55:28.10	260.01	22.59	
2025-01-07 12:55:29.33	260.40	22.62	
2025-01-07 12:55:30.56	260.78	22.66	
2025-01-07 12:55:31.79	261.17	22.69	
2025-01-07 12:55:33.02	261.56	22.72	
2025-01-07 12:55:34.25	261.95	22.75	
2025-01-07 12:55:35.48	262.34	22.77	
2025-01-07 12:55:36.71	262.73	22.80	
2025-01-07 12:55:37.94	263.13	22.83	
2025-01-07 12:55:39.17	263.52	22.85	
2025-01-07 12:55:40.40	263.91	22.87	
2025-01-07 12:55:41.64	264.31	22.89	
2025-01-07 12:55:42.86	264.70	22.91	
2025-01-07 12:55:44.10	265.10	22.93	
2025-01-07 12:55:45.34	265.50	22.95	
2025-01-07 12:55:46.58	265.90	22.97	
2025-01-07 12:55:47.82	266.30	22.98	
2025-01-07 12:55:49.05	266.69	22.99	
2025-01-07 12:55:50.28	267.09	23.01	
2025-01-07 12:55:51.52	267.49	23.02	
2025-01-07 12:55:52.75	267.89	23.03	
2025-01-07 12:55:53.98	268.28	23.03	
2025-01-07 12:55:55.21	268.68	23.04	
2025-01-07 12:55:56.44	269.08	23.04	
2025-01-07 12:55:57.67	269.48	23.05	
2025-01-07 12:55:58.90	269.88	23.05	
2025-01-07 12:56:00.13	270.27	23.05	
2025-01-07 12:56:01.37	270.67	23.05	
2025-01-07 12:56:02.62	271.08	23.05	
2025-01-07 12:56:03.85	271.48	23.05	
2025-01-07 12:56:05.08	271.87	23.04	
2025-01-07 12:56:06.32	272.28	23.04	
2025-01-07 12:56:07.56	272.68	23.03	
2025-01-07 12:56:08.80	273.08	23.02	
2025-01-07 12:56:10.03	273.47	23.01	
2025-01-07 12:56:11.27	273.87	23.00	
2025-01-07 12:56:12.50	274.27	22.99	
2025-01-07 12:56:13.73	274.67	22.97	
2025-01-07 12:56:14.96	275.06	22.96	
2025-01-07 12:56:16.19	275.46	22.94	
2025-01-07 12:56:17.43	275.86	22.92	
2025-01-07 12:56:18.66	276.25	22.90	
2025-01-07 12:56:19.90	276.65	22.88	
2025-01-07 12:56:21.13	277.04	22.86	
2025-01-07 12:56:22.36	277.43	22.84	
2025-01-07 12:56:23.59	277.82	22.81	
2025-01-07 12:56:24.83	278.22	22.79	
2025-01-07 12:56:26.06	278.61	22.76	
2025-01-07 12:56:27.29	279.00	22.73	
2025-01-07 12:56:28.52	279.39	22.70	
2025-01-07 12:56:29.75	279.78	22.67	
2025-01-07 12:56:30.99	280.17	22.64	
2025-01-07 12:56:32.22	280.55	22.60	
2025-01-07 12:56:33.46	280.94	22.57	
2025-01-07 12:56:34.70	281.33	22.53	
2025-01-07 12:56:35.93	281.71	22.49	
2025-01-07 12:56:37.16	282.10	22.46	
2025-01-07 12:56:38.41	282.48	22.42	
2025-01-07 12:56:39.64	282.86	22.37	
2025-01-07 12:56:40.89	283.25	22.33	
2025-01-07 12:56:42.12	283.63	22.29	
2025-01-07 12:56:43.36	284.01	22.24	
2025-01-07 12:56:44.59	284.39	22.20	
2025-01-07 12:56:45.82	284.76	22.15	
2025-01-07 12:56:47.07	285.14	22.10	
2025-01-07 12:56:48.30	285.51	22.06	
2025-01-07 12:56:49.53	285.89	22.01	
2025-01-07 12:56:50.76	286.26	21.96	
2025-01-07 12:56:51.99	286.62	21.90	
2025-01-07 12:56:53.22	286.99	21.85	
2025-01-07 12:56:54.45	287.36	21.80	
2025-01-07 12:56:55.69	287.73	21.74	
2025-01-07 12:56:56.92	288.09	21.69	
2025-01-07 12:56:58.15	288.45	21.63	
2025-01-07 12:56:59.38	288.81	21.57	
2025-01-07 12:57:00.62	289.18	21.51	
2025-01-07 12:57:01.85	289.53	21.45	
2025-01-07 12:57:03.08	289.89	21.39	
2025-01-07 12:57:04.31	290.25	21.33	
2025-01-07 12:57:05.55	290.60	21.27	
2025-01-07 12:57:06.78	290.96	21.20	
2025-01-07 12:57:08.01	291.31	21.14	
2025-01-07 12:57:09.25	291.66	21.07	
2025-01-07 12:57:10.47	292.00	21.01	
2025-01-07 12:57:11.72	292.35	20.94	
2025-01-07 12:57:12.95	292.70	20.87	
2025-01-07 12:57:14.18	293.04	20.80	
2025-01-07 12:57:15.41	293.38	20.73	
2025-01-07 12:57:16.64	293.72	20.66	
2025-01-07 12:57:17.88	294.06	20.59	
2025-01-07 12:57:19.10	294.40	20.52	
2025-01-07 12:57:20.34	294.74	20.45	
2025-01-07 12:57:21.57	295.07	20.38	
2025-01-07 12:57:22.80	295.40	20.30	
2025-01-07 12:57:24.03	295.73	20.23	
2025-01-07 12:57:25.27	296.06	20.15	
2025-01-07 12:57:26.50	296.39	20.08	
2025-01-07 12:57:27.74	296.72	20.00	
2025-01-07 12:57:28.98	297.04	19.92	
2025-01-07 12:57:30.20	297.36	19.85	
2025-01-07 12:57:31.44	297.68	19.77	
2025-01-07 12:57:32.67	298.00	19.69	
2025-01-07 12:57:33.91	298.32	19.61	
2025-01-07 12:57:35.15	298.64	19.53	
2025-01-07 12:57:36.38	298.95	19.45	
2025-01-07 12:57:37.62	299.27	19.37	
2025-01-07 12:57:38.85	299.57	19.29	
2025-01-07 12:57:40.08	299.88	19.21	
2025-01-07 12:57:41.31	300.19	19.13	
2025-01-07 12:57:42.56	300.50	19.04	
2025-01-07 12:57:43.79	300.80	18.96	
2025-01-07 12:57:45.02	301.10	18.88	
2025-01-07 12:57:46.26	301.40	18.79	
2025-01-07 12:57:47.49	301.70	18.71	
2025-01-07 12:57:48.72	302.00	18.62	
2025-01-07 12:57:49.96	302.29	18.54	
2025-01-07 12:57:51.19	302.59	18.45	
2025-01-07 12:57:52.44	302.88	18.36	
2025-01-07 12:57:53.67	303.17	18.28	
2025-01-07 12:57:54.90	303.46	18.19	
2025-01-07 12:57:56.14	303.75	18.10	
2025-01-07 12:57:57.37	304.03	18.02	
2025-01-07 12:57:58.60	304.31	17.93	
2025-01-07 12:57:59.83	304.59	17.84	
2025-01-07 12:58:01.06	304.87	17.75	
2025-01-07 12:58:02.29	305.15	17.66	
2025-01-07 12:58:03.52	305.43	17.58	
2025-01-07 12:58:04.76	305.70	17.49	
2025-01-07 12:58:05.98	305.97	17.40	
2025-01-07 12:58:07.23	306.25	17.31	
2025-01-07 12:58:08.46	306.52	17.22	
2025-01-07 12:58:09.69	306.78	17.13	
2025-01-07 12:58:10.92	307.05	17.04	
2025-01-07 12:58:12.17	307.32	16.95	
2025-01-07 12:58:13.40	307.58	16.86	
2025-01-07 12:58:14.63	307.84	16.77	
2025-01-07 12:58:15.86	308.10	16.68	
2025-01-07 12:58:17.09	308.36	16.58	
2025-01-07 12:58:18.33	308.61	16.49	
2025-01-07 12:58:19.57	308.87	16.40	
2025-01-07 12:58:20.80	309.12	16.31	
2025-01-07 12:58:22.03	309.37	16.22	
2025-01-07 12:58:23.26	309.62	16.13	
2025-01-07 12:58:24.49	309.87	16.04	
2025-01-07 12:58:25.72	310.12	15.94	
2025-01-07 12:58:26.95	310.36	15.85	
2025-01-07 12:58:28.18	310.60	15.76	
2025-01-07 12:58:29.42	310.85	15.67	
2025-01-07 12:58:30.65	311.09	15.58	
2025-01-07 12:58:31.90	311.33	15.48	
2025-01-07 12:58:33.13	311.57	15.39	
2025-01-07 12:58:34.37	311.80	15.30	
2025-01-07 12:58:35.60	312.04	15.21	
2025-01-07 12:58:36.83	312.27	15.11	
2025-01-07 12:58:38.06	312.50	15.02	
2025-01-07 12:58:39.29	312.73	14.93	
2025-01-07 12:58:40.52	312.96	14.84	
2025-01-07 12:58:41.75	313.19	14.74	
2025-01-07 12:58:42.98	313.41	14.65	
2025-01-07 12:58:44.21	313.63	14.56	
2025-01-07 12:58:45.44	313.86	14.47	
2025-01-07 12:58:46.67	314.08	14.38	
2025-01-07 12:58:47.90	314.30	14.28	
2025-01-07 12:58:49.13	314.51	14.19	
2025-01-07 12:58:50.36	314.73	14.10	
2025-01-07 12:58:51.59	314.95	14.01	
2025-01-07 12:58:52.82	315.16	13.92	
2025-01-07 12:58:54.06	315.37	13.82	
2025-01-07 12:58:55.29	315.58	13.73	
2025-01-07 12:58:56.52	315.79	13.64	
2025-01-07 12:58:57.76	316.00	13.55	
2025-01-07 12:58:58.99	316.21	13.45	
2025-01-07 12:59:00.24	316.42	13.36	
2025-01-07 12:59:01.47	316.62	13.27	
2025-01-07 12:59:02.71	316.83	13.18	
2025-01-07 12:59:03.95	317.03	13.08	
2025-01-07 12:59:05.18	317.23	12.99	
2025-01-07 12:59:06.42	317.43	12.90	
2025-01-07 12:59:07.65	317.63	12.81	
2025-01-07 12:59:08.88	317.83	12.72	
2025-01-07 12:59:10.13	318.03	12.63	
2025-01-07 12:59:11.36	318.22	12.53	
2025-01-07 12:59:12.59	318.41	12.44	
2025-01-07 12:59:13.82	318.60	12.35	
2025-01-07 12:59:15.07	318.80	12.26	
2025-01-07 12:59:16.32	318.99	12.17	
2025-01-07 12:59:17.54	319.18	12.08	
2025-01-07 12:59:18.77	319.36	11.99	
2025-01-07 12:59:20.00	319.55	11.90	
2025-01-07 12:59:21.24	319.73	11.81	
2025-01-07 12:59:22.47	319.92	11.72	
2025-01-07 12:59:23.70	320.10	11.63	
2025-01-07 12:59:24.93	320.28	11.54	
2025-01-07 12:59:26.16	320.46	11.45	
2025-01-07 12:59:27.40	320.64	11.36	
2025-01-07 12:59:28.63	320.81	11.27	
2025-01-07 12:59:29.86	320.99	11.18	
2025-01-07 12:59:31.09	321.17	11.09	
2025-01-07 12:59:32.32	321.34	11.00	
2025-01-07 12:59:33.55	321.51	10.91	
2025-01-07 12:59:34.78	321.68	10.82	
2025-01-07 12:59:36.01	321.86	10.74	
2025-01-07 12:59:37.24	322.02	10.65	
2025-01-07 12:59:38.48	322.19	10.56	
2025-01-07 12:59:39.72	322.36	10.47	
2025-01-07 12:59:40.95	322.53	10.38	
2025-01-07 12:59:42.19	322.70	10.29	
2025-01-07 12:59:43.42	322.86	10.21	
2025-01-07 12:59:44.66	323.03	10.12	
2025-01-07 12:59:45.89	323.19	10.03	
2025-01-07 12:59:47.12	323.35	9.94	
2025-01-07 12:59:48.35	323.51	9.86	
2025-01-07 12:59:49.58	323.67	9.77	
2025-01-07 12:59:50.82	323.83	9.68	
2025-01-07 12:59:52.05	323.99	9.60	
2025-01-07 12:59:53.28	324.14	9.51	
2025-01-07 12:59:54.51	324.30	9.42	
2025-01-07 12:59:55.74	324.45	9.34	
2025-01-07 12:59:56.97	324.61	9.25	
2025-01-07 12:59:58.20	324.76	9.17	
2025-01-07 12:59:59.43	324.91	9.08	
2025-01-07 13:00:00.67	325.06	8.99	
2025-01-07 13:00:01.91	325.21	8.91	
2025-01-07 13:00:03.13	325.36	8.82	
2025-01-07 13:00:04.36	325.51	8.74	
2025-01-07 13:00:05.60	325.66	8.65	
2025-01-07 13:00:06.83	325.80	8.57	
2025-01-07 13:00:08.06	325.95	8.48	
2025-01-07 13:00:09.29	326.09	8.40	
2025-01-07 13:00:10.52	326.24	8.32	
2025-01-07 13:00:11.75	326.38	8.23	
2025-01-07 13:00:12.98	326.52	8.15	
2025-01-07 13:00:14.22	326.66	8.06	
2025-01-07 13:00:15.46	326.81	7.98	
2025-01-07 13:00:16.69	326.95	7.90	
2025-01-07 13:00:17.92	327.08	7.81	
2025-01-07 13:00:19.17	327.22	7.73	
2025-01-07 13:00:20.39	327.36	7.65	
2025-01-07 13:00:21.63	327.50	7.57	
2025-01-07 13:00:22.86	327.63	7.48	
2025-01-07 13:00:24.09	327.77	7.40	
2025-01-07 13:00:25.34	327.90	7.32	
2025-01-07 13:00:26.57	328.04	7.24	
2025-01-07 13:00:27.80	328.17	7.15	
2025-01-07 13:00:29.03	328.30	7.07	
2025-01-07 13:00:30.27	328.43	6.99	
2025-01-07 13:00:31.50	328.56	6.91	
2025-01-07 13:00:32.75	328.69	6.83	
2025-01-07 13:00:33.98	328.82	6.75	
2025-01-07 13:00:35.21	328.95	6.67	
2025-01-07 13:00:36.44	329.08	6.59	
2025-01-07 13:00:37.67	329.20	6.51	
2025-01-07 13:00:38.90	329.33	6.43	
2025-01-07 13:00:40.13	329.45	6.35	
2025-01-07 13:00:41.37	329.58	6.27	
2025-01-07 13:00:42.60	329.70	6.19	
2025-01-07 13:00:43.84	329.82	6.11	
2025-01-07 13:00:45.07	329.95	6.03	
2025-01-07 13:00:46.30	330.07	5.95	
2025-01-07 13:00:47.53	330.19	5.87	
2025-01-07 13:00:48.76	330.31	5.79	
2025-01-07 13:00:49.99	330.43	5.71	
2025-01-07 13:00:51.22	330.55	5.63	
2025-01-07 13:00:52.45	330.66	5.56	
2025-01-07 13:00:53.68	330.78	5.48	
2025-01-07 13:00:54.92	330.90	5.40	
2025-01-07 13:00:56.15	331.01	5.32	
2025-01-07 13:00:57.38	331.13	5.24	
2025-01-07 13:00:58.62	331.25	5.17	
2025-01-07 13:00:59.84	331.36	5.09	
2025-01-07 13:01:01.07	331.47	5.01	
2025-01-07 13:01:02.30	331.59	4.94	
2025-01-07 13:01:03.53	331.70	4.86	
2025-01-07 13:01:04.76	331.81	4.78	
2025-01-07 13:01:06.00	331.92	4.71	
2025-01-07 13:01:07.23	332.03	4.63	
2025-01-07 13:01:08.46	332.14	4.55	
2025-01-07 13:01:09.69	332.25	4.48	
2025-01-07 13:01:10.92	332.36	4.40	
2025-01-07 13:01:12.17	332.47	4.32	
2025-01-07 13:01:13.40	332.58	4.25	
2025-01-07 13:01:14.63	332.68	4.17	
2025-01-07 13:01:15.86	332.79	4.10	
2025-01-07 13:01:17.10	332.90	4.02	

#Closed at: 2025-01-07 13:01:17