passes_logs/2025/01/07/SPB_Silybum_02/SPB_Silybum_02__20250107_093601_AQUA_rec.log

#Pass ID: 20250107_093601_AQUA
#Satellite: AQUA
#Configuration: AQUA
#Start time: 2025-01-07 09:36:00

#Version: 2.0.20230423
#Station: SPB_Silybum_02
#Location: 30.233357 lon 59.946436 lat
#TLE: 1 27424U 02022A   25006.84785145  .00002945  00000+0  61491-3 0  9993
#TLE: 2 27424  98.3576 323.4392 0001407 119.3107 268.2761 14.60650503206436

#Time	Az	El	Level	Level2	SNR	BER	Gain	Gain2
2025-01-07 09:36:02.28	105.83	4.08	
2025-01-07 09:36:03.31	105.74	4.14	
2025-01-07 09:36:04.34	105.65	4.21	
2025-01-07 09:36:05.36	105.56	4.27	
2025-01-07 09:36:06.39	105.47	4.33	
2025-01-07 09:36:07.41	105.38	4.40	
2025-01-07 09:36:08.45	105.29	4.46	
2025-01-07 09:36:09.48	105.19	4.52	
2025-01-07 09:36:10.52	105.10	4.59	
2025-01-07 09:36:11.55	105.01	4.65	
2025-01-07 09:36:12.57	104.91	4.72	
2025-01-07 09:36:13.60	104.82	4.78	
2025-01-07 09:36:14.64	104.72	4.85	
2025-01-07 09:36:15.66	104.63	4.91	
2025-01-07 09:36:16.69	104.53	4.97	
2025-01-07 09:36:17.71	104.44	5.04	
2025-01-07 09:36:18.74	104.34	5.10	
2025-01-07 09:36:19.76	104.25	5.17	
2025-01-07 09:36:20.79	104.15	5.23	
2025-01-07 09:36:21.82	104.05	5.30	
2025-01-07 09:36:22.84	103.95	5.36	
2025-01-07 09:36:23.87	103.85	5.43	
2025-01-07 09:36:24.90	103.76	5.49	
2025-01-07 09:36:25.93	103.66	5.56	
2025-01-07 09:36:26.96	103.55	5.62	
2025-01-07 09:36:27.99	103.45	5.69	
2025-01-07 09:36:29.01	103.35	5.76	
2025-01-07 09:36:30.04	103.25	5.82	
2025-01-07 09:36:31.07	103.15	5.89	
2025-01-07 09:36:32.09	103.05	5.95	
2025-01-07 09:36:33.12	102.94	6.02	
2025-01-07 09:36:34.15	102.84	6.09	
2025-01-07 09:36:35.17	102.74	6.15	
2025-01-07 09:36:36.21	102.63	6.22	
2025-01-07 09:36:37.24	102.52	6.29	
2025-01-07 09:36:38.26	102.42	6.35	
2025-01-07 09:36:39.29	102.31	6.42	
2025-01-07 09:36:40.32	102.20	6.49	
2025-01-07 09:36:41.35	102.10	6.55	
2025-01-07 09:36:42.38	101.99	6.62	
2025-01-07 09:36:43.41	101.88	6.69	
2025-01-07 09:36:44.43	101.77	6.75	
2025-01-07 09:36:45.46	101.66	6.82	
2025-01-07 09:36:46.49	101.55	6.89	
2025-01-07 09:36:47.51	101.44	6.96	
2025-01-07 09:36:48.54	101.33	7.02	
2025-01-07 09:36:49.57	101.22	7.09	
2025-01-07 09:36:50.59	101.10	7.16	
2025-01-07 09:36:51.62	100.99	7.23	
2025-01-07 09:36:52.66	100.88	7.30	
2025-01-07 09:36:53.69	100.76	7.37	
2025-01-07 09:36:54.72	100.65	7.43	
2025-01-07 09:36:55.74	100.53	7.50	
2025-01-07 09:36:56.77	100.41	7.57	
2025-01-07 09:36:57.79	100.30	7.64	
2025-01-07 09:36:58.83	100.18	7.71	
2025-01-07 09:36:59.87	100.06	7.78	
2025-01-07 09:37:00.90	99.94	7.85	
2025-01-07 09:37:01.93	99.82	7.92	
2025-01-07 09:37:02.96	99.70	7.99	
2025-01-07 09:37:03.98	99.58	8.05	
2025-01-07 09:37:05.03	99.46	8.12	
2025-01-07 09:37:06.07	99.33	8.19	
2025-01-07 09:37:07.09	99.21	8.26	
2025-01-07 09:37:08.12	99.09	8.33	
2025-01-07 09:37:09.14	98.97	8.40	
2025-01-07 09:37:10.17	98.84	8.47	
2025-01-07 09:37:11.19	98.72	8.54	
2025-01-07 09:37:12.23	98.59	8.61	
2025-01-07 09:37:13.26	98.46	8.68	
2025-01-07 09:37:14.29	98.34	8.75	
2025-01-07 09:37:15.31	98.21	8.82	
2025-01-07 09:37:16.34	98.08	8.89	
2025-01-07 09:37:17.38	97.95	8.96	
2025-01-07 09:37:18.40	97.82	9.03	
2025-01-07 09:37:19.43	97.69	9.11	
2025-01-07 09:37:20.47	97.56	9.18	
2025-01-07 09:37:21.50	97.42	9.25	
2025-01-07 09:37:22.54	97.29	9.32	
2025-01-07 09:37:23.57	97.16	9.39	
2025-01-07 09:37:24.59	97.02	9.46	
2025-01-07 09:37:25.62	96.89	9.53	
2025-01-07 09:37:26.64	96.75	9.60	
2025-01-07 09:37:27.66	96.62	9.67	
2025-01-07 09:37:28.69	96.48	9.75	
2025-01-07 09:37:29.72	96.34	9.82	
2025-01-07 09:37:30.74	96.21	9.89	
2025-01-07 09:37:31.77	96.07	9.96	
2025-01-07 09:37:32.79	95.93	10.03	
2025-01-07 09:37:33.82	95.79	10.10	
2025-01-07 09:37:34.85	95.64	10.17	
2025-01-07 09:37:35.88	95.50	10.25	
2025-01-07 09:37:36.91	95.36	10.32	
2025-01-07 09:37:37.93	95.22	10.39	
2025-01-07 09:37:38.96	95.07	10.46	
2025-01-07 09:37:40.00	94.92	10.54	
2025-01-07 09:37:41.03	94.78	10.61	
2025-01-07 09:37:42.05	94.63	10.68	
2025-01-07 09:37:43.08	94.48	10.75	
2025-01-07 09:37:44.12	94.33	10.83	
2025-01-07 09:37:45.14	94.18	10.90	
2025-01-07 09:37:46.17	94.03	10.97	
2025-01-07 09:37:47.20	93.88	11.04	
2025-01-07 09:37:48.23	93.73	11.12	
2025-01-07 09:37:49.25	93.58	11.19	
2025-01-07 09:37:50.28	93.43	11.26	
2025-01-07 09:37:51.31	93.27	11.33	
2025-01-07 09:37:52.33	93.12	11.41	
2025-01-07 09:37:53.36	92.96	11.48	
2025-01-07 09:37:54.40	92.80	11.55	
2025-01-07 09:37:55.42	92.65	11.62	
2025-01-07 09:37:56.44	92.49	11.70	
2025-01-07 09:37:57.47	92.33	11.77	
2025-01-07 09:37:58.50	92.17	11.84	
2025-01-07 09:37:59.53	92.01	11.92	
2025-01-07 09:38:00.55	91.85	11.99	
2025-01-07 09:38:01.57	91.68	12.06	
2025-01-07 09:38:02.60	91.52	12.14	
2025-01-07 09:38:03.63	91.36	12.21	
2025-01-07 09:38:04.66	91.19	12.28	
2025-01-07 09:38:05.70	91.02	12.36	
2025-01-07 09:38:06.74	90.85	12.43	
2025-01-07 09:38:07.76	90.68	12.50	
2025-01-07 09:38:08.79	90.52	12.58	
2025-01-07 09:38:09.82	90.34	12.65	
2025-01-07 09:38:10.84	90.18	12.72	
2025-01-07 09:38:11.87	90.00	12.80	
2025-01-07 09:38:12.89	89.83	12.87	
2025-01-07 09:38:13.92	89.66	12.94	
2025-01-07 09:38:14.95	89.48	13.02	
2025-01-07 09:38:15.98	89.31	13.09	
2025-01-07 09:38:17.00	89.13	13.16	
2025-01-07 09:38:18.03	88.95	13.24	
2025-01-07 09:38:19.05	88.78	13.31	
2025-01-07 09:38:20.08	88.60	13.38	
2025-01-07 09:38:21.11	88.42	13.45	
2025-01-07 09:38:22.14	88.23	13.53	
2025-01-07 09:38:23.18	88.05	13.60	
2025-01-07 09:38:24.21	87.87	13.68	
2025-01-07 09:38:25.23	87.68	13.75	
2025-01-07 09:38:26.26	87.50	13.82	
2025-01-07 09:38:27.29	87.31	13.89	
2025-01-07 09:38:28.32	87.12	13.97	
2025-01-07 09:38:29.34	86.94	14.04	
2025-01-07 09:38:30.37	86.75	14.11	
2025-01-07 09:38:31.40	86.56	14.19	
2025-01-07 09:38:32.42	86.37	14.26	
2025-01-07 09:38:33.45	86.17	14.33	
2025-01-07 09:38:34.49	85.98	14.40	
2025-01-07 09:38:35.52	85.78	14.48	
2025-01-07 09:38:36.54	85.59	14.55	
2025-01-07 09:38:37.57	85.39	14.62	
2025-01-07 09:38:38.59	85.20	14.69	
2025-01-07 09:38:39.62	85.00	14.77	
2025-01-07 09:38:40.66	84.80	14.84	
2025-01-07 09:38:41.69	84.60	14.91	
2025-01-07 09:38:42.72	84.39	14.98	
2025-01-07 09:38:43.75	84.19	15.05	
2025-01-07 09:38:44.78	83.99	15.13	
2025-01-07 09:38:45.82	83.78	15.20	
2025-01-07 09:38:46.84	83.58	15.27	
2025-01-07 09:38:47.87	83.37	15.34	
2025-01-07 09:38:48.89	83.16	15.41	
2025-01-07 09:38:49.93	82.95	15.48	
2025-01-07 09:38:50.96	82.74	15.55	
2025-01-07 09:38:52.00	82.53	15.63	
2025-01-07 09:38:53.03	82.31	15.70	
2025-01-07 09:38:54.05	82.10	15.77	
2025-01-07 09:38:55.08	81.89	15.84	
2025-01-07 09:38:56.10	81.67	15.91	
2025-01-07 09:38:57.13	81.46	15.98	
2025-01-07 09:38:58.15	81.24	16.05	
2025-01-07 09:38:59.18	81.02	16.12	
2025-01-07 09:39:00.21	80.80	16.19	
2025-01-07 09:39:01.23	80.58	16.25	
2025-01-07 09:39:02.26	80.36	16.32	
2025-01-07 09:39:03.29	80.14	16.39	
2025-01-07 09:39:04.31	79.91	16.46	
2025-01-07 09:39:05.34	79.69	16.53	
2025-01-07 09:39:06.37	79.46	16.60	
2025-01-07 09:39:07.41	79.23	16.67	
2025-01-07 09:39:08.44	79.00	16.73	
2025-01-07 09:39:09.48	78.77	16.80	
2025-01-07 09:39:10.50	78.54	16.87	
2025-01-07 09:39:11.53	78.31	16.94	
2025-01-07 09:39:12.56	78.08	17.00	
2025-01-07 09:39:13.58	77.84	17.07	
2025-01-07 09:39:14.61	77.61	17.14	
2025-01-07 09:39:15.64	77.37	17.20	
2025-01-07 09:39:16.67	77.13	17.27	
2025-01-07 09:39:17.71	76.89	17.33	
2025-01-07 09:39:18.73	76.66	17.40	
2025-01-07 09:39:19.77	76.41	17.46	
2025-01-07 09:39:20.79	76.17	17.53	
2025-01-07 09:39:21.82	75.93	17.59	
2025-01-07 09:39:22.84	75.69	17.65	
2025-01-07 09:39:23.89	75.44	17.72	
2025-01-07 09:39:24.91	75.19	17.78	
2025-01-07 09:39:25.93	74.95	17.84	
2025-01-07 09:39:26.96	74.70	17.91	
2025-01-07 09:39:27.98	74.45	17.97	
2025-01-07 09:39:29.02	74.20	18.03	
2025-01-07 09:39:30.05	73.95	18.09	
2025-01-07 09:39:31.08	73.69	18.15	
2025-01-07 09:39:32.10	73.44	18.21	
2025-01-07 09:39:33.13	73.19	18.27	
2025-01-07 09:39:34.16	72.93	18.33	
2025-01-07 09:39:35.18	72.67	18.39	
2025-01-07 09:39:36.21	72.42	18.45	
2025-01-07 09:39:37.24	72.16	18.51	
2025-01-07 09:39:38.26	71.90	18.57	
2025-01-07 09:39:39.29	71.64	18.63	
2025-01-07 09:39:40.31	71.38	18.68	
2025-01-07 09:39:41.34	71.11	18.74	
2025-01-07 09:39:42.37	70.85	18.80	
2025-01-07 09:39:43.40	70.58	18.85	
2025-01-07 09:39:44.42	70.32	18.91	
2025-01-07 09:39:45.45	70.05	18.96	
2025-01-07 09:39:46.48	69.78	19.02	
2025-01-07 09:39:47.50	69.52	19.07	
2025-01-07 09:39:48.52	69.25	19.12	
2025-01-07 09:39:49.55	68.98	19.18	
2025-01-07 09:39:50.59	68.70	19.23	
2025-01-07 09:39:51.62	68.43	19.28	
2025-01-07 09:39:52.65	68.15	19.33	
2025-01-07 09:39:53.67	67.88	19.38	
2025-01-07 09:39:54.71	67.60	19.43	
2025-01-07 09:39:55.74	67.32	19.48	
2025-01-07 09:39:56.76	67.05	19.53	
2025-01-07 09:39:57.79	66.77	19.58	
2025-01-07 09:39:58.82	66.49	19.63	
2025-01-07 09:39:59.84	66.21	19.67	
2025-01-07 09:40:00.86	65.93	19.72	
2025-01-07 09:40:01.90	65.64	19.77	
2025-01-07 09:40:02.93	65.36	19.81	
2025-01-07 09:40:03.96	65.07	19.86	
2025-01-07 09:40:04.98	64.79	19.90	
2025-01-07 09:40:06.01	64.50	19.95	
2025-01-07 09:40:07.03	64.22	19.99	
2025-01-07 09:40:08.06	63.93	20.03	
2025-01-07 09:40:09.09	63.64	20.07	
2025-01-07 09:40:10.11	63.35	20.11	
2025-01-07 09:40:11.14	63.06	20.15	
2025-01-07 09:40:12.17	62.77	20.19	
2025-01-07 09:40:13.19	62.48	20.23	
2025-01-07 09:40:14.22	62.19	20.27	
2025-01-07 09:40:15.26	61.89	20.31	
2025-01-07 09:40:16.28	61.60	20.34	
2025-01-07 09:40:17.31	61.30	20.38	
2025-01-07 09:40:18.33	61.01	20.42	
2025-01-07 09:40:19.36	60.71	20.45	
2025-01-07 09:40:20.38	60.42	20.48	
2025-01-07 09:40:21.41	60.12	20.52	
2025-01-07 09:40:22.44	59.82	20.55	
2025-01-07 09:40:23.47	59.52	20.58	
2025-01-07 09:40:24.49	59.22	20.61	
2025-01-07 09:40:25.51	58.93	20.64	
2025-01-07 09:40:26.54	58.63	20.67	
2025-01-07 09:40:27.56	58.33	20.70	
2025-01-07 09:40:28.59	58.02	20.73	
2025-01-07 09:40:29.62	57.72	20.76	
2025-01-07 09:40:30.66	57.41	20.78	
2025-01-07 09:40:31.68	57.11	20.81	
2025-01-07 09:40:32.72	56.80	20.83	
2025-01-07 09:40:33.75	56.50	20.86	
2025-01-07 09:40:34.77	56.20	20.88	
2025-01-07 09:40:35.80	55.89	20.90	
2025-01-07 09:40:36.85	55.58	20.93	
2025-01-07 09:40:37.87	55.27	20.95	
2025-01-07 09:40:38.90	54.97	20.97	
2025-01-07 09:40:39.92	54.66	20.99	
2025-01-07 09:40:40.94	54.35	21.01	
2025-01-07 09:40:41.97	54.05	21.02	
2025-01-07 09:40:43.00	53.74	21.04	
2025-01-07 09:40:44.03	53.43	21.06	
2025-01-07 09:40:45.05	53.12	21.07	
2025-01-07 09:40:46.08	52.81	21.09	
2025-01-07 09:40:47.12	52.50	21.10	
2025-01-07 09:40:48.15	52.19	21.11	
2025-01-07 09:40:49.17	51.88	21.12	
2025-01-07 09:40:50.20	51.57	21.13	
2025-01-07 09:40:51.22	51.26	21.14	
2025-01-07 09:40:52.26	50.94	21.15	
2025-01-07 09:40:53.29	50.63	21.16	
2025-01-07 09:40:54.32	50.32	21.17	
2025-01-07 09:40:55.34	50.01	21.18	
2025-01-07 09:40:56.37	49.70	21.18	
2025-01-07 09:40:57.39	49.39	21.19	
2025-01-07 09:40:58.42	49.08	21.19	
2025-01-07 09:40:59.45	48.76	21.19	
2025-01-07 09:41:00.47	48.46	21.20	
2025-01-07 09:41:01.50	48.14	21.20	
2025-01-07 09:41:02.52	47.83	21.20	
2025-01-07 09:41:03.56	47.52	21.20	
2025-01-07 09:41:04.59	47.20	21.20	
2025-01-07 09:41:05.61	46.90	21.19	
2025-01-07 09:41:06.64	46.58	21.19	
2025-01-07 09:41:07.66	46.27	21.19	
2025-01-07 09:41:08.69	45.96	21.18	
2025-01-07 09:41:09.71	45.65	21.18	
2025-01-07 09:41:10.74	45.34	21.17	
2025-01-07 09:41:11.76	45.03	21.16	
2025-01-07 09:41:12.79	44.72	21.16	
2025-01-07 09:41:13.82	44.41	21.15	
2025-01-07 09:41:14.84	44.10	21.14	
2025-01-07 09:41:15.87	43.79	21.13	
2025-01-07 09:41:16.89	43.48	21.12	
2025-01-07 09:41:17.92	43.17	21.10	
2025-01-07 09:41:18.95	42.86	21.09	
2025-01-07 09:41:19.97	42.55	21.08	
2025-01-07 09:41:21.00	42.24	21.06	
2025-01-07 09:41:22.03	41.93	21.05	
2025-01-07 09:41:23.05	41.63	21.03	
2025-01-07 09:41:24.08	41.32	21.01	
2025-01-07 09:41:25.10	41.01	21.00	
2025-01-07 09:41:26.13	40.71	20.98	
2025-01-07 09:41:27.15	40.40	20.96	
2025-01-07 09:41:28.18	40.09	20.94	
2025-01-07 09:41:29.21	39.79	20.91	
2025-01-07 09:41:30.23	39.48	20.89	
2025-01-07 09:41:31.26	39.18	20.87	
2025-01-07 09:41:32.29	38.87	20.85	
2025-01-07 09:41:33.31	38.57	20.82	
2025-01-07 09:41:34.34	38.27	20.80	
2025-01-07 09:41:35.36	37.97	20.77	
2025-01-07 09:41:36.41	37.66	20.74	
2025-01-07 09:41:37.43	37.36	20.72	
2025-01-07 09:41:38.46	37.06	20.69	
2025-01-07 09:41:39.49	36.75	20.66	
2025-01-07 09:41:40.52	36.45	20.63	
2025-01-07 09:41:41.54	36.16	20.60	
2025-01-07 09:41:42.58	35.85	20.57	
2025-01-07 09:41:43.62	35.55	20.53	
2025-01-07 09:41:44.65	35.25	20.50	
2025-01-07 09:41:45.68	34.96	20.47	
2025-01-07 09:41:46.71	34.66	20.43	
2025-01-07 09:41:47.73	34.37	20.40	
2025-01-07 09:41:48.76	34.07	20.36	
2025-01-07 09:41:49.78	33.78	20.32	
2025-01-07 09:41:50.80	33.49	20.29	
2025-01-07 09:41:51.83	33.20	20.25	
2025-01-07 09:41:52.86	32.91	20.21	
2025-01-07 09:41:53.88	32.62	20.17	
2025-01-07 09:41:54.90	32.33	20.13	
2025-01-07 09:41:55.93	32.04	20.09	
2025-01-07 09:41:56.96	31.75	20.05	
2025-01-07 09:41:57.99	31.46	20.01	
2025-01-07 09:41:59.01	31.18	19.97	
2025-01-07 09:42:00.03	30.89	19.92	
2025-01-07 09:42:01.07	30.61	19.88	
2025-01-07 09:42:02.10	30.32	19.83	
2025-01-07 09:42:03.12	30.04	19.79	
2025-01-07 09:42:04.15	29.76	19.74	
2025-01-07 09:42:05.18	29.48	19.70	
2025-01-07 09:42:06.20	29.20	19.65	
2025-01-07 09:42:07.23	28.92	19.60	
2025-01-07 09:42:08.26	28.64	19.55	
2025-01-07 09:42:09.30	28.36	19.51	
2025-01-07 09:42:10.33	28.08	19.46	
2025-01-07 09:42:11.35	27.81	19.41	
2025-01-07 09:42:12.38	27.53	19.36	
2025-01-07 09:42:13.41	27.26	19.31	
2025-01-07 09:42:14.43	26.98	19.25	
2025-01-07 09:42:15.47	26.71	19.20	
2025-01-07 09:42:16.50	26.44	19.15	
2025-01-07 09:42:17.53	26.17	19.10	
2025-01-07 09:42:18.55	25.90	19.04	
2025-01-07 09:42:19.58	25.63	18.99	
2025-01-07 09:42:20.62	25.36	18.93	
2025-01-07 09:42:21.66	25.09	18.88	
2025-01-07 09:42:22.68	24.83	18.82	
2025-01-07 09:42:23.71	24.57	18.77	
2025-01-07 09:42:24.73	24.31	18.71	
2025-01-07 09:42:25.76	24.04	18.65	
2025-01-07 09:42:26.78	23.79	18.60	
2025-01-07 09:42:27.81	23.53	18.54	
2025-01-07 09:42:28.85	23.26	18.48	
2025-01-07 09:42:29.87	23.01	18.42	
2025-01-07 09:42:30.90	22.75	18.36	
2025-01-07 09:42:31.92	22.50	18.31	
2025-01-07 09:42:32.97	22.24	18.24	
2025-01-07 09:42:33.99	21.99	18.18	
2025-01-07 09:42:35.02	21.73	18.12	
2025-01-07 09:42:36.04	21.49	18.06	
2025-01-07 09:42:37.07	21.24	18.00	
2025-01-07 09:42:38.09	20.99	17.94	
2025-01-07 09:42:39.12	20.74	17.88	
2025-01-07 09:42:40.15	20.49	17.82	
2025-01-07 09:42:41.17	20.25	17.75	
2025-01-07 09:42:42.20	20.00	17.69	
2025-01-07 09:42:43.22	19.76	17.63	
2025-01-07 09:42:44.25	19.52	17.56	
2025-01-07 09:42:45.29	19.28	17.50	
2025-01-07 09:42:46.32	19.04	17.43	
2025-01-07 09:42:47.34	18.80	17.37	
2025-01-07 09:42:48.37	18.56	17.30	
2025-01-07 09:42:49.39	18.32	17.24	
2025-01-07 09:42:50.42	18.09	17.17	
2025-01-07 09:42:51.45	17.85	17.11	
2025-01-07 09:42:52.47	17.62	17.04	
2025-01-07 09:42:53.50	17.39	16.98	
2025-01-07 09:42:54.54	17.15	16.91	
2025-01-07 09:42:55.56	16.93	16.84	
2025-01-07 09:42:56.59	16.70	16.78	
2025-01-07 09:42:57.61	16.47	16.71	
2025-01-07 09:42:58.64	16.24	16.64	
2025-01-07 09:42:59.66	16.02	16.57	
2025-01-07 09:43:00.69	15.79	16.51	
2025-01-07 09:43:01.71	15.57	16.44	
2025-01-07 09:43:02.74	15.35	16.37	
2025-01-07 09:43:03.77	15.13	16.30	
2025-01-07 09:43:04.80	14.91	16.23	
2025-01-07 09:43:05.82	14.69	16.16	
2025-01-07 09:43:06.85	14.47	16.09	
2025-01-07 09:43:07.89	14.25	16.02	
2025-01-07 09:43:08.93	14.03	15.95	
2025-01-07 09:43:09.95	13.82	15.88	
2025-01-07 09:43:10.99	13.60	15.81	
2025-01-07 09:43:12.02	13.39	15.74	
2025-01-07 09:43:13.05	13.18	15.67	
2025-01-07 09:43:14.08	12.97	15.60	
2025-01-07 09:43:15.11	12.76	15.53	
2025-01-07 09:43:16.13	12.55	15.46	
2025-01-07 09:43:17.16	12.34	15.39	
2025-01-07 09:43:18.20	12.13	15.32	
2025-01-07 09:43:19.23	11.93	15.25	
2025-01-07 09:43:20.27	11.72	15.17	
2025-01-07 09:43:21.29	11.52	15.10	
2025-01-07 09:43:22.32	11.32	15.03	
2025-01-07 09:43:23.35	11.12	14.96	
2025-01-07 09:43:24.39	10.91	14.89	
2025-01-07 09:43:25.41	10.72	14.82	
2025-01-07 09:43:26.44	10.52	14.74	
2025-01-07 09:43:27.46	10.32	14.67	
2025-01-07 09:43:28.49	10.13	14.60	
2025-01-07 09:43:29.52	9.93	14.53	
2025-01-07 09:43:30.56	9.73	14.45	
2025-01-07 09:43:31.58	9.54	14.38	
2025-01-07 09:43:32.61	9.35	14.31	
2025-01-07 09:43:33.64	9.16	14.24	
2025-01-07 09:43:34.67	8.97	14.17	
2025-01-07 09:43:35.71	8.78	14.09	
2025-01-07 09:43:36.74	8.59	14.02	
2025-01-07 09:43:37.76	8.41	13.95	
2025-01-07 09:43:38.80	8.22	13.87	
2025-01-07 09:43:39.83	8.03	13.80	
2025-01-07 09:43:40.86	7.85	13.73	
2025-01-07 09:43:41.89	7.67	13.65	
2025-01-07 09:43:42.93	7.48	13.58	
2025-01-07 09:43:43.95	7.30	13.51	
2025-01-07 09:43:44.98	7.12	13.44	
2025-01-07 09:43:46.01	6.94	13.36	
2025-01-07 09:43:47.03	6.77	13.29	
2025-01-07 09:43:48.06	6.59	13.22	
2025-01-07 09:43:49.10	6.41	13.14	
2025-01-07 09:43:50.13	6.24	13.07	
2025-01-07 09:43:51.15	6.06	13.00	
2025-01-07 09:43:52.18	5.89	12.92	
2025-01-07 09:43:53.20	5.72	12.85	
2025-01-07 09:43:54.23	5.55	12.78	
2025-01-07 09:43:55.26	5.38	12.71	
2025-01-07 09:43:56.28	5.21	12.63	
2025-01-07 09:43:57.31	5.04	12.56	
2025-01-07 09:43:58.34	4.87	12.49	
2025-01-07 09:43:59.36	4.71	12.41	
2025-01-07 09:44:00.40	4.54	12.34	
2025-01-07 09:44:01.42	4.38	12.27	
2025-01-07 09:44:02.45	4.21	12.19	
2025-01-07 09:44:03.47	4.05	12.12	
2025-01-07 09:44:04.50	3.89	12.05	
2025-01-07 09:44:05.53	3.72	11.98	
2025-01-07 09:44:06.55	3.57	11.90	
2025-01-07 09:44:07.58	3.41	11.83	
2025-01-07 09:44:08.62	3.24	11.76	
2025-01-07 09:44:09.65	3.09	11.68	
2025-01-07 09:44:10.67	2.93	11.61	
2025-01-07 09:44:11.70	2.77	11.54	
2025-01-07 09:44:12.73	2.62	11.47	
2025-01-07 09:44:13.77	2.46	11.39	
2025-01-07 09:44:14.81	2.31	11.32	
2025-01-07 09:44:15.83	2.16	11.25	
2025-01-07 09:44:16.86	2.00	11.18	
2025-01-07 09:44:17.88	1.85	11.10	
2025-01-07 09:44:18.91	1.70	11.03	
2025-01-07 09:44:19.94	1.55	10.96	
2025-01-07 09:44:20.97	1.40	10.89	
2025-01-07 09:44:21.99	1.26	10.81	
2025-01-07 09:44:23.02	1.11	10.74	
2025-01-07 09:44:24.04	0.96	10.67	
2025-01-07 09:44:25.07	0.82	10.60	
2025-01-07 09:44:26.09	0.67	10.53	
2025-01-07 09:44:27.12	0.53	10.46	
2025-01-07 09:44:28.15	0.39	10.38	
2025-01-07 09:44:29.18	0.24	10.31	
2025-01-07 09:44:30.20	0.10	10.24	
2025-01-07 09:44:31.23	359.96	10.17	
2025-01-07 09:44:32.26	359.82	10.10	
2025-01-07 09:44:33.29	359.68	10.03	
2025-01-07 09:44:34.31	359.55	9.96	
2025-01-07 09:44:35.34	359.41	9.88	
2025-01-07 09:44:36.37	359.27	9.81	
2025-01-07 09:44:37.41	359.13	9.74	
2025-01-07 09:44:38.43	359.00	9.67	
2025-01-07 09:44:39.45	358.86	9.60	
2025-01-07 09:44:40.48	358.73	9.53	
2025-01-07 09:44:41.50	358.60	9.46	
2025-01-07 09:44:42.53	358.46	9.39	
2025-01-07 09:44:43.55	358.33	9.32	
2025-01-07 09:44:44.58	358.20	9.25	
2025-01-07 09:44:45.61	358.07	9.18	
2025-01-07 09:44:46.63	357.94	9.11	
2025-01-07 09:44:47.66	357.81	9.04	
2025-01-07 09:44:48.69	357.68	8.97	
2025-01-07 09:44:49.71	357.56	8.90	
2025-01-07 09:44:50.74	357.43	8.83	
2025-01-07 09:44:51.76	357.30	8.76	
2025-01-07 09:44:52.79	357.18	8.69	
2025-01-07 09:44:53.83	357.05	8.62	
2025-01-07 09:44:54.85	356.93	8.55	
2025-01-07 09:44:55.88	356.80	8.48	
2025-01-07 09:44:56.91	356.68	8.41	
2025-01-07 09:44:57.93	356.56	8.34	
2025-01-07 09:44:58.97	356.43	8.27	
2025-01-07 09:45:00.00	356.31	8.20	
2025-01-07 09:45:01.02	356.19	8.13	
2025-01-07 09:45:02.05	356.07	8.06	
2025-01-07 09:45:03.08	355.95	7.99	
2025-01-07 09:45:04.12	355.83	7.92	
2025-01-07 09:45:05.15	355.71	7.85	
2025-01-07 09:45:06.17	355.60	7.78	
2025-01-07 09:45:07.20	355.48	7.72	
2025-01-07 09:45:08.22	355.37	7.65	
2025-01-07 09:45:09.26	355.25	7.58	
2025-01-07 09:45:10.28	355.13	7.51	
2025-01-07 09:45:11.31	355.02	7.44	
2025-01-07 09:45:12.34	354.91	7.37	
2025-01-07 09:45:13.36	354.79	7.31	
2025-01-07 09:45:14.39	354.68	7.24	
2025-01-07 09:45:15.42	354.57	7.17	
2025-01-07 09:45:16.45	354.46	7.10	
2025-01-07 09:45:17.47	354.35	7.04	
2025-01-07 09:45:18.49	354.24	6.97	
2025-01-07 09:45:19.53	354.13	6.90	
2025-01-07 09:45:20.56	354.02	6.83	
2025-01-07 09:45:21.58	353.91	6.77	
2025-01-07 09:45:22.62	353.80	6.70	
2025-01-07 09:45:23.66	353.69	6.63	
2025-01-07 09:45:24.69	353.58	6.57	
2025-01-07 09:45:25.71	353.48	6.50	
2025-01-07 09:45:26.73	353.37	6.43	
2025-01-07 09:45:27.76	353.27	6.37	
2025-01-07 09:45:28.79	353.16	6.30	
2025-01-07 09:45:29.81	353.06	6.23	
2025-01-07 09:45:30.84	352.96	6.17	
2025-01-07 09:45:31.87	352.85	6.10	
2025-01-07 09:45:32.90	352.75	6.03	
2025-01-07 09:45:33.93	352.65	5.97	
2025-01-07 09:45:34.97	352.54	5.90	
2025-01-07 09:45:35.99	352.44	5.84	
2025-01-07 09:45:37.03	352.34	5.77	
2025-01-07 09:45:38.06	352.24	5.71	
2025-01-07 09:45:39.10	352.14	5.64	
2025-01-07 09:45:40.13	352.04	5.57	
2025-01-07 09:45:41.15	351.94	5.51	
2025-01-07 09:45:42.18	351.85	5.44	
2025-01-07 09:45:43.21	351.75	5.38	
2025-01-07 09:45:44.24	351.65	5.31	
2025-01-07 09:45:45.26	351.56	5.25	
2025-01-07 09:45:46.31	351.46	5.18	
2025-01-07 09:45:47.33	351.36	5.12	
2025-01-07 09:45:48.36	351.27	5.05	
2025-01-07 09:45:49.40	351.17	4.99	
2025-01-07 09:45:50.42	351.08	4.93	
2025-01-07 09:45:51.45	350.98	4.86	
2025-01-07 09:45:52.49	350.89	4.80	
2025-01-07 09:45:53.51	350.80	4.73	
2025-01-07 09:45:54.53	350.71	4.67	
2025-01-07 09:45:55.56	350.61	4.61	
2025-01-07 09:45:56.59	350.52	4.54	
2025-01-07 09:45:57.62	350.43	4.48	
2025-01-07 09:45:58.64	350.34	4.42	
2025-01-07 09:45:59.68	350.25	4.35	
2025-01-07 09:46:00.71	350.16	4.29	
2025-01-07 09:46:01.74	350.07	4.22	
2025-01-07 09:46:02.77	349.98	4.16	
2025-01-07 09:46:03.79	349.89	4.10	
2025-01-07 09:46:04.82	349.81	4.04	

#Closed at: 2025-01-07 09:46:05