passes_logs/2025/01/07/SPB_Silybum_02/SPB_Silybum_02__20250107_171327_TERRA_rec.log

#Pass ID: 20250107_171327_TERRA
#Satellite: TERRA
#Configuration: TERRA
#Start time: 2025-01-07 17:13:25

#Version: 2.0.20230423
#Station: SPB_Silybum_02
#Location: 30.233357 lon 59.946436 lat
#TLE: 1 25994U 99068A   25006.77118991  .00001382  00000+0  29492-3 0  9999
#TLE: 2 25994  98.0231  70.0628 0003576  88.8854  23.4584 14.60378914332871

#Time	Az	El	Level	Level2	SNR	BER	Gain	Gain2
2025-01-07 17:13:27.72	121.09	4.02	
2025-01-07 17:13:28.95	121.01	4.10	
2025-01-07 17:13:30.20	120.93	4.18	
2025-01-07 17:13:31.43	120.85	4.26	
2025-01-07 17:13:32.66	120.76	4.34	
2025-01-07 17:13:33.90	120.68	4.43	
2025-01-07 17:13:35.13	120.60	4.51	
2025-01-07 17:13:36.37	120.51	4.59	
2025-01-07 17:13:37.62	120.43	4.68	
2025-01-07 17:13:38.85	120.35	4.76	
2025-01-07 17:13:40.08	120.26	4.85	
2025-01-07 17:13:41.32	120.17	4.93	
2025-01-07 17:13:42.55	120.09	5.01	
2025-01-07 17:13:43.77	120.00	5.10	
2025-01-07 17:13:45.00	119.91	5.18	
2025-01-07 17:13:46.23	119.83	5.27	
2025-01-07 17:13:47.46	119.74	5.35	
2025-01-07 17:13:48.70	119.65	5.44	
2025-01-07 17:13:49.94	119.56	5.52	
2025-01-07 17:13:51.17	119.47	5.61	
2025-01-07 17:13:52.40	119.38	5.70	
2025-01-07 17:13:53.63	119.29	5.78	
2025-01-07 17:13:54.86	119.19	5.87	
2025-01-07 17:13:56.10	119.10	5.96	
2025-01-07 17:13:57.33	119.01	6.04	
2025-01-07 17:13:58.57	118.91	6.13	
2025-01-07 17:13:59.80	118.82	6.22	
2025-01-07 17:14:01.04	118.72	6.31	
2025-01-07 17:14:02.27	118.63	6.40	
2025-01-07 17:14:03.52	118.53	6.49	
2025-01-07 17:14:04.75	118.43	6.57	
2025-01-07 17:14:05.98	118.33	6.66	
2025-01-07 17:14:07.21	118.23	6.75	
2025-01-07 17:14:08.46	118.13	6.84	
2025-01-07 17:14:09.69	118.03	6.93	
2025-01-07 17:14:10.92	117.93	7.02	
2025-01-07 17:14:12.16	117.83	7.11	
2025-01-07 17:14:13.40	117.73	7.21	
2025-01-07 17:14:14.63	117.62	7.30	
2025-01-07 17:14:15.86	117.52	7.39	
2025-01-07 17:14:17.11	117.42	7.48	
2025-01-07 17:14:18.35	117.31	7.57	
2025-01-07 17:14:19.58	117.20	7.66	
2025-01-07 17:14:20.81	117.10	7.76	
2025-01-07 17:14:22.04	116.99	7.85	
2025-01-07 17:14:23.27	116.88	7.94	
2025-01-07 17:14:24.50	116.77	8.03	
2025-01-07 17:14:25.73	116.66	8.13	
2025-01-07 17:14:26.96	116.55	8.22	
2025-01-07 17:14:28.19	116.44	8.32	
2025-01-07 17:14:29.43	116.33	8.41	
2025-01-07 17:14:30.66	116.22	8.51	
2025-01-07 17:14:31.89	116.10	8.60	
2025-01-07 17:14:33.12	115.99	8.70	
2025-01-07 17:14:34.35	115.87	8.79	
2025-01-07 17:14:35.57	115.76	8.89	
2025-01-07 17:14:36.81	115.64	8.98	
2025-01-07 17:14:38.05	115.52	9.08	
2025-01-07 17:14:39.28	115.40	9.18	
2025-01-07 17:14:40.51	115.28	9.27	
2025-01-07 17:14:41.74	115.16	9.37	
2025-01-07 17:14:42.98	115.04	9.47	
2025-01-07 17:14:44.22	114.92	9.57	
2025-01-07 17:14:45.45	114.80	9.67	
2025-01-07 17:14:46.68	114.67	9.76	
2025-01-07 17:14:47.91	114.55	9.86	
2025-01-07 17:14:49.13	114.42	9.96	
2025-01-07 17:14:50.36	114.30	10.06	
2025-01-07 17:14:51.59	114.17	10.16	
2025-01-07 17:14:52.82	114.04	10.26	
2025-01-07 17:14:54.05	113.91	10.36	
2025-01-07 17:14:55.28	113.78	10.46	
2025-01-07 17:14:56.52	113.65	10.56	
2025-01-07 17:14:57.75	113.51	10.66	
2025-01-07 17:14:58.98	113.38	10.77	
2025-01-07 17:15:00.21	113.24	10.87	
2025-01-07 17:15:01.44	113.11	10.97	
2025-01-07 17:15:02.67	112.97	11.07	
2025-01-07 17:15:03.91	112.83	11.18	
2025-01-07 17:15:05.15	112.69	11.28	
2025-01-07 17:15:06.38	112.55	11.38	
2025-01-07 17:15:07.61	112.41	11.49	
2025-01-07 17:15:08.84	112.27	11.59	
2025-01-07 17:15:10.10	112.12	11.70	
2025-01-07 17:15:11.33	111.98	11.80	
2025-01-07 17:15:12.56	111.83	11.91	
2025-01-07 17:15:13.79	111.69	12.02	
2025-01-07 17:15:15.02	111.54	12.12	
2025-01-07 17:15:16.27	111.39	12.23	
2025-01-07 17:15:17.51	111.23	12.34	
2025-01-07 17:15:18.76	111.08	12.45	
2025-01-07 17:15:19.99	110.93	12.55	
2025-01-07 17:15:21.22	110.77	12.66	
2025-01-07 17:15:22.45	110.62	12.77	
2025-01-07 17:15:23.69	110.46	12.88	
2025-01-07 17:15:24.92	110.30	12.99	
2025-01-07 17:15:26.15	110.14	13.09	
2025-01-07 17:15:27.39	109.98	13.20	
2025-01-07 17:15:28.62	109.82	13.31	
2025-01-07 17:15:29.85	109.66	13.42	
2025-01-07 17:15:31.10	109.49	13.54	
2025-01-07 17:15:32.33	109.33	13.65	
2025-01-07 17:15:33.56	109.16	13.76	
2025-01-07 17:15:34.79	108.99	13.87	
2025-01-07 17:15:36.02	108.82	13.98	
2025-01-07 17:15:37.25	108.65	14.09	
2025-01-07 17:15:38.48	108.48	14.20	
2025-01-07 17:15:39.71	108.30	14.32	
2025-01-07 17:15:40.94	108.13	14.43	
2025-01-07 17:15:42.17	107.95	14.54	
2025-01-07 17:15:43.40	107.77	14.66	
2025-01-07 17:15:44.64	107.59	14.77	
2025-01-07 17:15:45.87	107.41	14.89	
2025-01-07 17:15:47.10	107.23	15.00	
2025-01-07 17:15:48.33	107.04	15.11	
2025-01-07 17:15:49.56	106.86	15.23	
2025-01-07 17:15:50.80	106.67	15.35	
2025-01-07 17:15:52.03	106.48	15.46	
2025-01-07 17:15:53.26	106.29	15.58	
2025-01-07 17:15:54.49	106.10	15.69	
2025-01-07 17:15:55.73	105.90	15.81	
2025-01-07 17:15:56.96	105.71	15.93	
2025-01-07 17:15:58.20	105.51	16.05	
2025-01-07 17:15:59.43	105.31	16.16	
2025-01-07 17:16:00.65	105.11	16.28	
2025-01-07 17:16:01.90	104.91	16.40	
2025-01-07 17:16:03.13	104.70	16.52	
2025-01-07 17:16:04.36	104.50	16.64	
2025-01-07 17:16:05.59	104.29	16.76	
2025-01-07 17:16:06.82	104.08	16.87	
2025-01-07 17:16:08.05	103.87	16.99	
2025-01-07 17:16:09.29	103.66	17.11	
2025-01-07 17:16:10.52	103.44	17.23	
2025-01-07 17:16:11.75	103.23	17.35	
2025-01-07 17:16:12.99	103.01	17.48	
2025-01-07 17:16:14.22	102.79	17.60	
2025-01-07 17:16:15.45	102.56	17.72	
2025-01-07 17:16:16.70	102.34	17.84	
2025-01-07 17:16:17.93	102.11	17.96	
2025-01-07 17:16:19.16	101.88	18.08	
2025-01-07 17:16:20.39	101.65	18.20	
2025-01-07 17:16:21.62	101.42	18.33	
2025-01-07 17:16:22.86	101.19	18.45	
2025-01-07 17:16:24.09	100.95	18.57	
2025-01-07 17:16:25.33	100.71	18.70	
2025-01-07 17:16:26.56	100.47	18.82	
2025-01-07 17:16:27.79	100.23	18.94	
2025-01-07 17:16:29.03	99.98	19.06	
2025-01-07 17:16:30.26	99.74	19.19	
2025-01-07 17:16:31.49	99.49	19.31	
2025-01-07 17:16:32.72	99.24	19.43	
2025-01-07 17:16:33.95	98.99	19.56	
2025-01-07 17:16:35.18	98.73	19.68	
2025-01-07 17:16:36.41	98.47	19.80	
2025-01-07 17:16:37.63	98.22	19.93	
2025-01-07 17:16:38.86	97.96	20.05	
2025-01-07 17:16:40.09	97.69	20.18	
2025-01-07 17:16:41.32	97.43	20.30	
2025-01-07 17:16:42.55	97.16	20.42	
2025-01-07 17:16:43.77	96.89	20.55	
2025-01-07 17:16:45.00	96.62	20.67	
2025-01-07 17:16:46.24	96.34	20.80	
2025-01-07 17:16:47.46	96.07	20.92	
2025-01-07 17:16:48.71	95.78	21.04	
2025-01-07 17:16:49.94	95.50	21.17	
2025-01-07 17:16:51.17	95.22	21.29	
2025-01-07 17:16:52.40	94.93	21.42	
2025-01-07 17:16:53.64	94.64	21.54	
2025-01-07 17:16:54.87	94.34	21.66	
2025-01-07 17:16:56.11	94.05	21.79	
2025-01-07 17:16:57.35	93.75	21.91	
2025-01-07 17:16:58.59	93.45	22.04	
2025-01-07 17:16:59.83	93.14	22.16	
2025-01-07 17:17:01.06	92.84	22.28	
2025-01-07 17:17:02.31	92.53	22.41	
2025-01-07 17:17:03.55	92.21	22.53	
2025-01-07 17:17:04.78	91.90	22.65	
2025-01-07 17:17:06.01	91.59	22.78	
2025-01-07 17:17:07.26	91.27	22.90	
2025-01-07 17:17:08.50	90.94	23.02	
2025-01-07 17:17:09.73	90.62	23.14	
2025-01-07 17:17:10.96	90.29	23.26	
2025-01-07 17:17:12.18	89.97	23.38	
2025-01-07 17:17:13.42	89.64	23.50	
2025-01-07 17:17:14.67	89.30	23.63	
2025-01-07 17:17:15.91	88.96	23.75	
2025-01-07 17:17:17.14	88.62	23.86	
2025-01-07 17:17:18.37	88.28	23.98	
2025-01-07 17:17:19.61	87.93	24.10	
2025-01-07 17:17:20.84	87.59	24.22	
2025-01-07 17:17:22.07	87.24	24.34	
2025-01-07 17:17:23.30	86.88	24.45	
2025-01-07 17:17:24.53	86.53	24.57	
2025-01-07 17:17:25.76	86.17	24.68	
2025-01-07 17:17:27.00	85.81	24.80	
2025-01-07 17:17:28.24	85.44	24.91	
2025-01-07 17:17:29.47	85.08	25.02	
2025-01-07 17:17:30.70	84.71	25.14	
2025-01-07 17:17:31.92	84.34	25.25	
2025-01-07 17:17:33.17	83.96	25.36	
2025-01-07 17:17:34.40	83.58	25.47	
2025-01-07 17:17:35.63	83.20	25.58	
2025-01-07 17:17:36.87	82.82	25.69	
2025-01-07 17:17:38.10	82.43	25.79	
2025-01-07 17:17:39.33	82.05	25.90	
2025-01-07 17:17:40.56	81.65	26.01	
2025-01-07 17:17:41.79	81.26	26.11	
2025-01-07 17:17:43.02	80.87	26.21	
2025-01-07 17:17:44.25	80.47	26.32	
2025-01-07 17:17:45.48	80.07	26.42	
2025-01-07 17:17:46.71	79.66	26.52	
2025-01-07 17:17:47.94	79.26	26.62	
2025-01-07 17:17:49.17	78.85	26.71	
2025-01-07 17:17:50.40	78.44	26.81	
2025-01-07 17:17:51.63	78.02	26.91	
2025-01-07 17:17:52.86	77.60	27.00	
2025-01-07 17:17:54.09	77.18	27.09	
2025-01-07 17:17:55.33	76.76	27.18	
2025-01-07 17:17:56.57	76.33	27.28	
2025-01-07 17:17:57.80	75.90	27.36	
2025-01-07 17:17:59.02	75.48	27.45	
2025-01-07 17:18:00.26	75.04	27.54	
2025-01-07 17:18:01.51	74.60	27.62	
2025-01-07 17:18:02.75	74.16	27.71	
2025-01-07 17:18:03.98	73.72	27.79	
2025-01-07 17:18:05.23	73.28	27.87	
2025-01-07 17:18:06.47	72.83	27.95	
2025-01-07 17:18:07.69	72.39	28.02	
2025-01-07 17:18:08.94	71.93	28.10	
2025-01-07 17:18:10.16	71.48	28.17	
2025-01-07 17:18:11.39	71.03	28.24	
2025-01-07 17:18:12.62	70.58	28.31	
2025-01-07 17:18:13.85	70.12	28.38	
2025-01-07 17:18:15.08	69.66	28.45	
2025-01-07 17:18:16.31	69.20	28.51	
2025-01-07 17:18:17.54	68.74	28.57	
2025-01-07 17:18:18.77	68.28	28.63	
2025-01-07 17:18:20.00	67.81	28.69	
2025-01-07 17:18:21.25	67.34	28.75	
2025-01-07 17:18:22.47	66.87	28.81	
2025-01-07 17:18:23.71	66.40	28.86	
2025-01-07 17:18:24.94	65.92	28.91	
2025-01-07 17:18:26.18	65.45	28.96	
2025-01-07 17:18:27.42	64.97	29.01	
2025-01-07 17:18:28.65	64.49	29.05	
2025-01-07 17:18:29.88	64.01	29.09	
2025-01-07 17:18:31.13	63.53	29.13	
2025-01-07 17:18:32.36	63.05	29.17	
2025-01-07 17:18:33.59	62.56	29.21	
2025-01-07 17:18:34.82	62.08	29.24	
2025-01-07 17:18:36.05	61.60	29.27	
2025-01-07 17:18:37.30	61.11	29.30	
2025-01-07 17:18:38.52	60.62	29.33	
2025-01-07 17:18:39.76	60.13	29.36	
2025-01-07 17:18:40.99	59.65	29.38	
2025-01-07 17:18:42.22	59.16	29.40	
2025-01-07 17:18:43.45	58.67	29.42	
2025-01-07 17:18:44.69	58.18	29.43	
2025-01-07 17:18:45.92	57.69	29.45	
2025-01-07 17:18:47.15	57.20	29.46	
2025-01-07 17:18:48.38	56.71	29.47	
2025-01-07 17:18:49.61	56.22	29.48	
2025-01-07 17:18:50.85	55.72	29.48	
2025-01-07 17:18:52.09	55.23	29.48	
2025-01-07 17:18:53.33	54.74	29.48	
2025-01-07 17:18:54.56	54.24	29.48	
2025-01-07 17:18:55.79	53.75	29.48	
2025-01-07 17:18:57.02	53.26	29.47	
2025-01-07 17:18:58.26	52.77	29.46	
2025-01-07 17:18:59.50	52.28	29.45	
2025-01-07 17:19:00.74	51.78	29.44	
2025-01-07 17:19:01.98	51.29	29.42	
2025-01-07 17:19:03.21	50.80	29.40	
2025-01-07 17:19:04.44	50.32	29.38	
2025-01-07 17:19:05.68	49.82	29.36	
2025-01-07 17:19:06.92	49.33	29.34	
2025-01-07 17:19:08.15	48.85	29.31	
2025-01-07 17:19:09.38	48.36	29.28	
2025-01-07 17:19:10.63	47.87	29.25	
2025-01-07 17:19:11.87	47.39	29.21	
2025-01-07 17:19:13.11	46.90	29.18	
2025-01-07 17:19:14.34	46.42	29.14	
2025-01-07 17:19:15.58	45.94	29.10	
2025-01-07 17:19:16.81	45.46	29.06	
2025-01-07 17:19:18.05	44.98	29.01	
2025-01-07 17:19:19.27	44.51	28.97	
2025-01-07 17:19:20.50	44.04	28.92	
2025-01-07 17:19:21.73	43.57	28.87	
2025-01-07 17:19:22.96	43.10	28.82	
2025-01-07 17:19:24.19	42.63	28.76	
2025-01-07 17:19:25.44	42.15	28.70	
2025-01-07 17:19:26.67	41.69	28.65	
2025-01-07 17:19:27.90	41.22	28.59	
2025-01-07 17:19:29.13	40.76	28.52	
2025-01-07 17:19:30.37	40.30	28.46	
2025-01-07 17:19:31.60	39.84	28.39	
2025-01-07 17:19:32.83	39.39	28.33	
2025-01-07 17:19:34.06	38.93	28.26	
2025-01-07 17:19:35.30	38.48	28.18	
2025-01-07 17:19:36.53	38.03	28.11	
2025-01-07 17:19:37.76	37.58	28.04	
2025-01-07 17:19:38.99	37.13	27.96	
2025-01-07 17:19:40.23	36.69	27.88	
2025-01-07 17:19:41.50	36.23	27.80	
2025-01-07 17:19:42.73	35.80	27.72	
2025-01-07 17:19:43.96	35.36	27.64	
2025-01-07 17:19:45.19	34.93	27.55	
2025-01-07 17:19:46.42	34.49	27.47	
2025-01-07 17:19:47.65	34.07	27.38	
2025-01-07 17:19:48.89	33.64	27.29	
2025-01-07 17:19:50.12	33.21	27.20	
2025-01-07 17:19:51.34	32.80	27.11	
2025-01-07 17:19:52.58	32.37	27.02	
2025-01-07 17:19:53.81	31.96	26.93	
2025-01-07 17:19:55.04	31.54	26.83	
2025-01-07 17:19:56.28	31.13	26.73	
2025-01-07 17:19:57.51	30.72	26.64	
2025-01-07 17:19:58.74	30.32	26.54	
2025-01-07 17:19:59.97	29.91	26.44	
2025-01-07 17:20:01.20	29.51	26.34	
2025-01-07 17:20:02.43	29.11	26.24	
2025-01-07 17:20:03.66	28.72	26.13	
2025-01-07 17:20:04.89	28.33	26.03	
2025-01-07 17:20:06.12	27.94	25.93	
2025-01-07 17:20:07.36	27.55	25.82	
2025-01-07 17:20:08.59	27.16	25.71	
2025-01-07 17:20:09.82	26.78	25.60	
2025-01-07 17:20:11.05	26.40	25.50	
2025-01-07 17:20:12.28	26.03	25.39	
2025-01-07 17:20:13.53	25.65	25.27	
2025-01-07 17:20:14.76	25.28	25.16	
2025-01-07 17:20:15.99	24.91	25.05	
2025-01-07 17:20:17.22	24.55	24.94	
2025-01-07 17:20:18.45	24.18	24.83	
2025-01-07 17:20:19.68	23.82	24.71	
2025-01-07 17:20:20.91	23.47	24.60	
2025-01-07 17:20:22.16	23.11	24.48	
2025-01-07 17:20:23.39	22.76	24.37	
2025-01-07 17:20:24.62	22.41	24.25	
2025-01-07 17:20:25.85	22.06	24.13	
2025-01-07 17:20:27.08	21.72	24.02	
2025-01-07 17:20:28.31	21.38	23.90	
2025-01-07 17:20:29.54	21.04	23.78	
2025-01-07 17:20:30.77	20.71	23.66	
2025-01-07 17:20:32.00	20.37	23.54	
2025-01-07 17:20:33.23	20.04	23.42	
2025-01-07 17:20:34.48	19.71	23.30	
2025-01-07 17:20:35.71	19.39	23.18	
2025-01-07 17:20:36.94	19.06	23.06	
2025-01-07 17:20:38.17	18.75	22.94	
2025-01-07 17:20:39.40	18.43	22.82	
2025-01-07 17:20:40.65	18.11	22.70	
2025-01-07 17:20:41.88	17.80	22.57	
2025-01-07 17:20:43.12	17.49	22.45	
2025-01-07 17:20:44.35	17.18	22.33	
2025-01-07 17:20:45.59	16.88	22.21	
2025-01-07 17:20:46.82	16.57	22.08	
2025-01-07 17:20:48.06	16.27	21.96	
2025-01-07 17:20:49.29	15.98	21.84	
2025-01-07 17:20:50.52	15.68	21.71	
2025-01-07 17:20:51.75	15.39	21.59	
2025-01-07 17:20:53.01	15.10	21.47	
2025-01-07 17:20:54.23	14.81	21.34	
2025-01-07 17:20:55.46	14.53	21.22	
2025-01-07 17:20:56.69	14.25	21.10	
2025-01-07 17:20:57.93	13.97	20.97	
2025-01-07 17:20:59.16	13.69	20.85	
2025-01-07 17:21:00.38	13.42	20.73	
2025-01-07 17:21:01.62	13.15	20.60	
2025-01-07 17:21:02.84	12.88	20.48	
2025-01-07 17:21:04.07	12.61	20.36	
2025-01-07 17:21:05.30	12.35	20.23	
2025-01-07 17:21:06.53	12.08	20.11	
2025-01-07 17:21:07.77	11.82	19.98	
2025-01-07 17:21:08.99	11.56	19.86	
2025-01-07 17:21:10.22	11.31	19.74	
2025-01-07 17:21:11.45	11.05	19.62	
2025-01-07 17:21:12.70	10.80	19.49	
2025-01-07 17:21:13.93	10.55	19.37	
2025-01-07 17:21:15.16	10.30	19.25	
2025-01-07 17:21:16.39	10.06	19.12	
2025-01-07 17:21:17.61	9.82	19.00	
2025-01-07 17:21:18.84	9.57	18.88	
2025-01-07 17:21:20.07	9.34	18.76	
2025-01-07 17:21:21.30	9.10	18.64	
2025-01-07 17:21:22.53	8.86	18.51	
2025-01-07 17:21:23.76	8.63	18.39	
2025-01-07 17:21:24.99	8.40	18.27	
2025-01-07 17:21:26.22	8.17	18.15	
2025-01-07 17:21:27.45	7.94	18.03	
2025-01-07 17:21:28.70	7.72	17.91	
2025-01-07 17:21:29.94	7.49	17.78	
2025-01-07 17:21:31.17	7.27	17.66	
2025-01-07 17:21:32.41	7.05	17.54	
2025-01-07 17:21:33.64	6.83	17.42	
2025-01-07 17:21:34.87	6.62	17.30	
2025-01-07 17:21:36.11	6.40	17.18	
2025-01-07 17:21:37.34	6.19	17.06	
2025-01-07 17:21:38.57	5.98	16.95	
2025-01-07 17:21:39.80	5.77	16.83	
2025-01-07 17:21:41.03	5.56	16.71	
2025-01-07 17:21:42.28	5.36	16.59	
2025-01-07 17:21:43.51	5.15	16.47	
2025-01-07 17:21:44.74	4.95	16.35	
2025-01-07 17:21:45.99	4.75	16.23	
2025-01-07 17:21:47.22	4.55	16.12	
2025-01-07 17:21:48.44	4.36	16.00	
2025-01-07 17:21:49.67	4.16	15.88	
2025-01-07 17:21:50.91	3.97	15.77	
2025-01-07 17:21:52.13	3.78	15.65	
2025-01-07 17:21:53.37	3.59	15.54	
2025-01-07 17:21:54.60	3.40	15.42	
2025-01-07 17:21:55.83	3.21	15.31	
2025-01-07 17:21:57.08	3.03	15.19	
2025-01-07 17:21:58.31	2.84	15.08	
2025-01-07 17:21:59.54	2.66	14.96	
2025-01-07 17:22:00.78	2.48	14.85	
2025-01-07 17:22:02.00	2.30	14.73	
2025-01-07 17:22:03.23	2.12	14.62	
2025-01-07 17:22:04.46	1.95	14.51	
2025-01-07 17:22:05.69	1.77	14.40	
2025-01-07 17:22:06.92	1.60	14.28	
2025-01-07 17:22:08.17	1.43	14.17	
2025-01-07 17:22:09.39	1.26	14.06	
2025-01-07 17:22:10.63	1.09	13.95	
2025-01-07 17:22:11.86	0.92	13.84	
2025-01-07 17:22:13.10	0.75	13.73	
2025-01-07 17:22:14.35	0.58	13.61	
2025-01-07 17:22:15.58	0.42	13.50	
2025-01-07 17:22:16.80	0.26	13.39	
2025-01-07 17:22:18.04	0.10	13.28	
2025-01-07 17:22:19.29	359.94	13.17	
2025-01-07 17:22:20.53	359.78	13.06	
2025-01-07 17:22:21.76	359.62	12.96	
2025-01-07 17:22:22.99	359.47	12.85	
2025-01-07 17:22:24.22	359.31	12.74	
2025-01-07 17:22:25.45	359.16	12.63	
2025-01-07 17:22:26.68	359.01	12.53	
2025-01-07 17:22:27.91	358.86	12.42	
2025-01-07 17:22:29.16	358.70	12.31	
2025-01-07 17:22:30.39	358.56	12.21	
2025-01-07 17:22:31.62	358.41	12.10	
2025-01-07 17:22:32.86	358.26	12.00	
2025-01-07 17:22:34.08	358.12	11.89	
2025-01-07 17:22:35.31	357.97	11.79	
2025-01-07 17:22:36.55	357.83	11.68	
2025-01-07 17:22:37.78	357.69	11.58	
2025-01-07 17:22:39.01	357.55	11.47	
2025-01-07 17:22:40.25	357.41	11.37	
2025-01-07 17:22:41.48	357.27	11.27	
2025-01-07 17:22:42.71	357.13	11.16	
2025-01-07 17:22:43.94	357.00	11.06	
2025-01-07 17:22:45.17	356.86	10.96	
2025-01-07 17:22:46.41	356.73	10.86	
2025-01-07 17:22:47.64	356.60	10.76	
2025-01-07 17:22:48.87	356.46	10.66	
2025-01-07 17:22:50.10	356.33	10.55	
2025-01-07 17:22:51.33	356.20	10.45	
2025-01-07 17:22:52.58	356.07	10.35	
2025-01-07 17:22:53.81	355.94	10.25	
2025-01-07 17:22:55.04	355.82	10.15	
2025-01-07 17:22:56.27	355.69	10.05	
2025-01-07 17:22:57.51	355.57	9.95	
2025-01-07 17:22:58.74	355.44	9.86	
2025-01-07 17:22:59.97	355.32	9.76	
2025-01-07 17:23:01.20	355.20	9.66	
2025-01-07 17:23:02.43	355.08	9.56	
2025-01-07 17:23:03.68	354.95	9.46	
2025-01-07 17:23:04.91	354.83	9.37	
2025-01-07 17:23:06.14	354.71	9.27	
2025-01-07 17:23:07.37	354.60	9.17	
2025-01-07 17:23:08.59	354.48	9.08	
2025-01-07 17:23:09.84	354.36	8.98	
2025-01-07 17:23:11.06	354.25	8.89	
2025-01-07 17:23:12.29	354.14	8.79	
2025-01-07 17:23:13.52	354.02	8.70	
2025-01-07 17:23:14.75	353.91	8.60	
2025-01-07 17:23:15.98	353.80	8.51	
2025-01-07 17:23:17.21	353.69	8.41	
2025-01-07 17:23:18.44	353.58	8.32	
2025-01-07 17:23:19.67	353.47	8.23	
2025-01-07 17:23:20.90	353.36	8.13	
2025-01-07 17:23:22.13	353.25	8.04	
2025-01-07 17:23:23.38	353.14	7.95	
2025-01-07 17:23:24.61	353.04	7.85	
2025-01-07 17:23:25.84	352.93	7.76	
2025-01-07 17:23:27.07	352.83	7.67	
2025-01-07 17:23:28.31	352.72	7.58	
2025-01-07 17:23:29.56	352.62	7.49	
2025-01-07 17:23:30.79	352.51	7.39	
2025-01-07 17:23:32.02	352.41	7.30	
2025-01-07 17:23:33.26	352.31	7.21	
2025-01-07 17:23:34.49	352.21	7.12	
2025-01-07 17:23:35.72	352.11	7.03	
2025-01-07 17:23:36.95	352.01	6.94	
2025-01-07 17:23:38.18	351.91	6.85	
2025-01-07 17:23:39.42	351.81	6.76	
2025-01-07 17:23:40.65	351.72	6.68	
2025-01-07 17:23:41.88	351.62	6.59	
2025-01-07 17:23:43.11	351.53	6.50	
2025-01-07 17:23:44.34	351.43	6.41	
2025-01-07 17:23:45.58	351.34	6.32	
2025-01-07 17:23:46.81	351.24	6.24	
2025-01-07 17:23:48.04	351.15	6.15	
2025-01-07 17:23:49.27	351.06	6.06	
2025-01-07 17:23:50.50	350.97	5.98	
2025-01-07 17:23:51.73	350.87	5.89	
2025-01-07 17:23:52.96	350.78	5.80	
2025-01-07 17:23:54.19	350.69	5.72	
2025-01-07 17:23:55.42	350.61	5.63	
2025-01-07 17:23:56.65	350.52	5.55	
2025-01-07 17:23:57.88	350.43	5.46	
2025-01-07 17:23:59.11	350.34	5.38	
2025-01-07 17:24:00.34	350.25	5.29	
2025-01-07 17:24:01.57	350.17	5.21	
2025-01-07 17:24:02.80	350.08	5.12	
2025-01-07 17:24:04.05	350.00	5.04	
2025-01-07 17:24:05.29	349.91	4.95	
2025-01-07 17:24:06.53	349.83	4.87	
2025-01-07 17:24:07.75	349.74	4.79	
2025-01-07 17:24:08.98	349.66	4.70	
2025-01-07 17:24:10.21	349.58	4.62	
2025-01-07 17:24:11.44	349.50	4.54	
2025-01-07 17:24:12.66	349.42	4.46	
2025-01-07 17:24:13.90	349.33	4.37	
2025-01-07 17:24:15.12	349.25	4.29	
2025-01-07 17:24:16.35	349.17	4.21	
2025-01-07 17:24:17.59	349.09	4.13	
2025-01-07 17:24:18.82	349.02	4.05	

#Closed at: 2025-01-07 17:24:19