passes_logs/2025/01/07/SPB_Silybum_02/SPB_Silybum_02__20250107_010303_SUOMI_NPP_rec.log

#Pass ID: 20250107_010303_SUOMI NPP
#Satellite: SUOMI NPP
#Configuration: NPP
#Start time: 2025-01-07 01:03:03

#Version: 2.0.20230423
#Station: SPB_Silybum_02
#Location: 30.233357 lon 59.946436 lat
#TLE: 1 37849U 11061A   25006.17970494  .00000315  00000+0  17023-3 0  9998
#TLE: 2 37849  98.7437 307.2805 0001982  54.5030 305.6331 14.19533747683667

#Time	Az	El	Level	Level2	SNR	BER	Gain	Gain2
2025-01-07 01:03:05.67	15.90	4.18	
2025-01-07 01:03:07.11	15.86	4.27	
2025-01-07 01:03:08.55	15.82	4.37	
2025-01-07 01:03:10.00	15.78	4.47	
2025-01-07 01:03:11.43	15.74	4.57	
2025-01-07 01:03:12.87	15.70	4.67	
2025-01-07 01:03:14.30	15.66	4.77	
2025-01-07 01:03:15.74	15.61	4.87	
2025-01-07 01:03:17.18	15.57	4.97	
2025-01-07 01:03:18.61	15.53	5.06	
2025-01-07 01:03:20.04	15.48	5.17	
2025-01-07 01:03:21.48	15.44	5.27	
2025-01-07 01:03:22.92	15.40	5.37	
2025-01-07 01:03:24.36	15.35	5.47	
2025-01-07 01:03:25.80	15.31	5.57	
2025-01-07 01:03:27.23	15.26	5.67	
2025-01-07 01:03:28.67	15.22	5.78	
2025-01-07 01:03:30.11	15.17	5.88	
2025-01-07 01:03:31.55	15.12	5.98	
2025-01-07 01:03:33.00	15.08	6.09	
2025-01-07 01:03:34.44	15.03	6.19	
2025-01-07 01:03:35.88	14.98	6.30	
2025-01-07 01:03:37.32	14.93	6.40	
2025-01-07 01:03:38.76	14.89	6.51	
2025-01-07 01:03:40.19	14.84	6.62	
2025-01-07 01:03:41.63	14.79	6.72	
2025-01-07 01:03:43.07	14.74	6.83	
2025-01-07 01:03:44.50	14.69	6.94	
2025-01-07 01:03:45.94	14.64	7.04	
2025-01-07 01:03:47.37	14.59	7.15	
2025-01-07 01:03:48.82	14.54	7.26	
2025-01-07 01:03:50.26	14.49	7.37	
2025-01-07 01:03:51.70	14.43	7.48	
2025-01-07 01:03:53.13	14.38	7.59	
2025-01-07 01:03:54.57	14.33	7.70	
2025-01-07 01:03:56.01	14.28	7.81	
2025-01-07 01:03:57.44	14.22	7.92	
2025-01-07 01:03:58.88	14.17	8.03	
2025-01-07 01:04:00.31	14.11	8.15	
2025-01-07 01:04:01.75	14.06	8.26	
2025-01-07 01:04:03.19	14.00	8.37	
2025-01-07 01:04:04.64	13.95	8.49	
2025-01-07 01:04:06.08	13.89	8.60	
2025-01-07 01:04:07.51	13.83	8.71	
2025-01-07 01:04:08.95	13.78	8.83	
2025-01-07 01:04:10.39	13.72	8.95	
2025-01-07 01:04:11.82	13.66	9.06	
2025-01-07 01:04:13.26	13.60	9.18	
2025-01-07 01:04:14.70	13.54	9.30	
2025-01-07 01:04:16.14	13.48	9.41	
2025-01-07 01:04:17.58	13.42	9.53	
2025-01-07 01:04:19.02	13.36	9.65	
2025-01-07 01:04:20.45	13.30	9.77	
2025-01-07 01:04:21.89	13.23	9.89	
2025-01-07 01:04:23.33	13.17	10.01	
2025-01-07 01:04:24.77	13.11	10.13	
2025-01-07 01:04:26.20	13.04	10.25	
2025-01-07 01:04:27.64	12.98	10.37	
2025-01-07 01:04:29.07	12.91	10.50	
2025-01-07 01:04:30.50	12.85	10.62	
2025-01-07 01:04:31.95	12.78	10.74	
2025-01-07 01:04:33.40	12.71	10.87	
2025-01-07 01:04:34.84	12.65	10.99	
2025-01-07 01:04:36.28	12.58	11.12	
2025-01-07 01:04:37.71	12.51	11.25	
2025-01-07 01:04:39.15	12.44	11.37	
2025-01-07 01:04:40.59	12.37	11.50	
2025-01-07 01:04:42.04	12.30	11.63	
2025-01-07 01:04:43.48	12.23	11.76	
2025-01-07 01:04:44.92	12.15	11.89	
2025-01-07 01:04:46.37	12.08	12.02	
2025-01-07 01:04:47.81	12.01	12.15	
2025-01-07 01:04:49.25	11.93	12.28	
2025-01-07 01:04:50.69	11.86	12.41	
2025-01-07 01:04:52.13	11.78	12.55	
2025-01-07 01:04:53.57	11.71	12.68	
2025-01-07 01:04:55.00	11.63	12.81	
2025-01-07 01:04:56.44	11.55	12.95	
2025-01-07 01:04:57.87	11.47	13.08	
2025-01-07 01:04:59.31	11.39	13.22	
2025-01-07 01:05:00.75	11.31	13.35	
2025-01-07 01:05:02.19	11.23	13.49	
2025-01-07 01:05:03.62	11.15	13.63	
2025-01-07 01:05:05.06	11.07	13.77	
2025-01-07 01:05:06.50	10.98	13.91	
2025-01-07 01:05:07.95	10.90	14.05	
2025-01-07 01:05:09.38	10.81	14.19	
2025-01-07 01:05:10.82	10.73	14.33	
2025-01-07 01:05:12.26	10.64	14.47	
2025-01-07 01:05:13.70	10.55	14.62	
2025-01-07 01:05:15.14	10.46	14.76	
2025-01-07 01:05:16.57	10.37	14.91	
2025-01-07 01:05:18.01	10.28	15.05	
2025-01-07 01:05:19.45	10.19	15.20	
2025-01-07 01:05:20.89	10.10	15.35	
2025-01-07 01:05:22.33	10.00	15.49	
2025-01-07 01:05:23.76	9.91	15.64	
2025-01-07 01:05:25.20	9.81	15.79	
2025-01-07 01:05:26.64	9.72	15.94	
2025-01-07 01:05:28.08	9.62	16.10	
2025-01-07 01:05:29.53	9.52	16.25	
2025-01-07 01:05:30.96	9.42	16.40	
2025-01-07 01:05:32.40	9.32	16.56	
2025-01-07 01:05:33.84	9.22	16.71	
2025-01-07 01:05:35.29	9.11	16.87	
2025-01-07 01:05:36.73	9.01	17.03	
2025-01-07 01:05:38.18	8.90	17.18	
2025-01-07 01:05:39.62	8.80	17.34	
2025-01-07 01:05:41.06	8.69	17.50	
2025-01-07 01:05:42.51	8.58	17.66	
2025-01-07 01:05:43.95	8.47	17.83	
2025-01-07 01:05:45.38	8.36	17.99	
2025-01-07 01:05:46.82	8.25	18.15	
2025-01-07 01:05:48.26	8.13	18.32	
2025-01-07 01:05:49.70	8.02	18.48	
2025-01-07 01:05:51.14	7.90	18.65	
2025-01-07 01:05:52.57	7.78	18.81	
2025-01-07 01:05:54.00	7.66	18.98	
2025-01-07 01:05:55.44	7.54	19.15	
2025-01-07 01:05:56.87	7.42	19.32	
2025-01-07 01:05:58.33	7.30	19.49	
2025-01-07 01:05:59.76	7.17	19.67	
2025-01-07 01:06:01.19	7.05	19.84	
2025-01-07 01:06:02.63	6.92	20.01	
2025-01-07 01:06:04.07	6.79	20.19	
2025-01-07 01:06:05.51	6.66	20.36	
2025-01-07 01:06:06.95	6.52	20.54	
2025-01-07 01:06:08.38	6.39	20.72	
2025-01-07 01:06:09.82	6.25	20.90	
2025-01-07 01:06:11.26	6.12	21.08	
2025-01-07 01:06:12.69	5.98	21.26	
2025-01-07 01:06:14.14	5.84	21.45	
2025-01-07 01:06:15.58	5.69	21.63	
2025-01-07 01:06:17.01	5.55	21.82	
2025-01-07 01:06:18.46	5.40	22.01	
2025-01-07 01:06:19.90	5.25	22.19	
2025-01-07 01:06:21.33	5.10	22.38	
2025-01-07 01:06:22.77	4.95	22.57	
2025-01-07 01:06:24.21	4.80	22.76	
2025-01-07 01:06:25.64	4.64	22.96	
2025-01-07 01:06:27.08	4.49	23.15	
2025-01-07 01:06:28.52	4.33	23.35	
2025-01-07 01:06:29.96	4.16	23.54	
2025-01-07 01:06:31.41	4.00	23.74	
2025-01-07 01:06:32.84	3.83	23.94	
2025-01-07 01:06:34.28	3.66	24.14	
2025-01-07 01:06:35.71	3.50	24.34	
2025-01-07 01:06:37.15	3.32	24.54	
2025-01-07 01:06:38.59	3.15	24.75	
2025-01-07 01:06:40.03	2.97	24.95	
2025-01-07 01:06:41.46	2.79	25.16	
2025-01-07 01:06:42.90	2.61	25.37	
2025-01-07 01:06:44.33	2.42	25.57	
2025-01-07 01:06:45.77	2.24	25.79	
2025-01-07 01:06:47.22	2.04	26.00	
2025-01-07 01:06:48.65	1.85	26.21	
2025-01-07 01:06:50.09	1.66	26.43	
2025-01-07 01:06:51.54	1.46	26.64	
2025-01-07 01:06:52.98	1.26	26.86	
2025-01-07 01:06:54.42	1.05	27.08	
2025-01-07 01:06:55.86	0.85	27.30	
2025-01-07 01:06:57.29	0.64	27.52	
2025-01-07 01:06:58.74	0.42	27.74	
2025-01-07 01:07:00.19	0.21	27.97	
2025-01-07 01:07:01.64	359.99	28.20	
2025-01-07 01:07:03.07	359.76	28.42	
2025-01-07 01:07:04.51	359.54	28.65	
2025-01-07 01:07:05.95	359.31	28.88	
2025-01-07 01:07:07.40	359.08	29.11	
2025-01-07 01:07:08.84	358.84	29.35	
2025-01-07 01:07:10.27	358.60	29.58	
2025-01-07 01:07:11.71	358.36	29.81	
2025-01-07 01:07:13.16	358.11	30.05	
2025-01-07 01:07:14.59	357.87	30.29	
2025-01-07 01:07:16.03	357.61	30.53	
2025-01-07 01:07:17.46	357.36	30.77	
2025-01-07 01:07:18.89	357.10	31.01	
2025-01-07 01:07:20.33	356.83	31.25	
2025-01-07 01:07:21.77	356.56	31.50	
2025-01-07 01:07:23.21	356.29	31.74	
2025-01-07 01:07:24.66	356.01	31.99	
2025-01-07 01:07:26.09	355.73	32.24	
2025-01-07 01:07:27.55	355.44	32.49	
2025-01-07 01:07:28.98	355.15	32.74	
2025-01-07 01:07:30.43	354.85	32.99	
2025-01-07 01:07:31.87	354.55	33.25	
2025-01-07 01:07:33.31	354.24	33.50	
2025-01-07 01:07:34.74	353.93	33.76	
2025-01-07 01:07:36.18	353.62	34.01	
2025-01-07 01:07:37.62	353.30	34.27	
2025-01-07 01:07:39.06	352.97	34.53	
2025-01-07 01:07:40.51	352.64	34.79	
2025-01-07 01:07:41.95	352.30	35.05	
2025-01-07 01:07:43.41	351.95	35.32	
2025-01-07 01:07:44.85	351.60	35.58	
2025-01-07 01:07:46.30	351.25	35.85	
2025-01-07 01:07:47.74	350.89	36.12	
2025-01-07 01:07:49.18	350.52	36.38	
2025-01-07 01:07:50.62	350.15	36.65	
2025-01-07 01:07:52.05	349.78	36.92	
2025-01-07 01:07:53.49	349.39	37.18	
2025-01-07 01:07:54.92	349.00	37.45	
2025-01-07 01:07:56.36	348.61	37.72	
2025-01-07 01:07:57.79	348.21	37.99	
2025-01-07 01:07:59.24	347.79	38.26	
2025-01-07 01:08:00.68	347.37	38.54	
2025-01-07 01:08:02.11	346.95	38.81	
2025-01-07 01:08:03.55	346.52	39.08	
2025-01-07 01:08:04.99	346.08	39.35	
2025-01-07 01:08:06.43	345.63	39.62	
2025-01-07 01:08:07.87	345.18	39.90	
2025-01-07 01:08:09.31	344.72	40.17	
2025-01-07 01:08:10.75	344.25	40.44	
2025-01-07 01:08:12.19	343.77	40.71	
2025-01-07 01:08:13.63	343.28	40.99	
2025-01-07 01:08:15.07	342.79	41.26	
2025-01-07 01:08:16.51	342.28	41.53	
2025-01-07 01:08:17.94	341.77	41.80	
2025-01-07 01:08:19.38	341.25	42.07	
2025-01-07 01:08:20.81	340.73	42.34	
2025-01-07 01:08:22.25	340.19	42.61	
2025-01-07 01:08:23.70	339.64	42.88	
2025-01-07 01:08:25.14	339.08	43.14	
2025-01-07 01:08:26.60	338.50	43.41	
2025-01-07 01:08:28.03	337.93	43.68	
2025-01-07 01:08:29.46	337.35	43.94	
2025-01-07 01:08:30.90	336.75	44.20	
2025-01-07 01:08:32.35	336.15	44.46	
2025-01-07 01:08:33.79	335.53	44.72	
2025-01-07 01:08:35.23	334.90	44.97	
2025-01-07 01:08:36.68	334.26	45.23	
2025-01-07 01:08:38.12	333.62	45.48	
2025-01-07 01:08:39.55	332.97	45.72	
2025-01-07 01:08:40.99	332.30	45.97	
2025-01-07 01:08:42.42	331.63	46.21	
2025-01-07 01:08:43.86	330.94	46.45	
2025-01-07 01:08:45.30	330.24	46.68	
2025-01-07 01:08:46.74	329.53	46.92	
2025-01-07 01:08:48.19	328.81	47.15	
2025-01-07 01:08:49.63	328.08	47.37	
2025-01-07 01:08:51.06	327.34	47.59	
2025-01-07 01:08:52.50	326.59	47.81	
2025-01-07 01:08:53.95	325.82	48.02	
2025-01-07 01:08:55.39	325.05	48.23	
2025-01-07 01:08:56.83	324.27	48.44	
2025-01-07 01:08:58.26	323.48	48.63	
2025-01-07 01:08:59.71	322.67	48.83	
2025-01-07 01:09:01.15	321.86	49.02	
2025-01-07 01:09:02.58	321.04	49.20	
2025-01-07 01:09:04.02	320.21	49.37	
2025-01-07 01:09:05.47	319.36	49.55	
2025-01-07 01:09:06.90	318.51	49.71	
2025-01-07 01:09:08.34	317.65	49.87	
2025-01-07 01:09:09.77	316.79	50.02	
2025-01-07 01:09:11.22	315.90	50.16	
2025-01-07 01:09:12.65	315.02	50.30	
2025-01-07 01:09:14.08	314.13	50.43	
2025-01-07 01:09:15.52	313.23	50.56	
2025-01-07 01:09:16.97	312.31	50.68	
2025-01-07 01:09:18.41	311.40	50.79	
2025-01-07 01:09:19.84	310.48	50.89	
2025-01-07 01:09:21.28	309.55	50.98	
2025-01-07 01:09:22.71	308.62	51.07	
2025-01-07 01:09:24.15	307.68	51.15	
2025-01-07 01:09:25.59	306.73	51.22	
2025-01-07 01:09:27.02	305.79	51.28	
2025-01-07 01:09:28.45	304.84	51.34	
2025-01-07 01:09:29.90	303.88	51.38	
2025-01-07 01:09:31.34	302.92	51.42	
2025-01-07 01:09:32.77	301.97	51.45	
2025-01-07 01:09:34.21	301.00	51.47	
2025-01-07 01:09:35.65	300.04	51.48	
2025-01-07 01:09:37.09	299.07	51.49	
2025-01-07 01:09:38.52	298.11	51.48	
2025-01-07 01:09:39.96	297.15	51.47	
2025-01-07 01:09:41.40	296.19	51.45	
2025-01-07 01:09:42.84	295.22	51.42	
2025-01-07 01:09:44.27	294.27	51.38	
2025-01-07 01:09:45.71	293.31	51.34	
2025-01-07 01:09:47.15	292.36	51.28	
2025-01-07 01:09:48.60	291.40	51.22	
2025-01-07 01:09:50.03	290.46	51.15	
2025-01-07 01:09:51.47	289.52	51.07	
2025-01-07 01:09:52.90	288.59	50.98	
2025-01-07 01:09:54.36	287.65	50.89	
2025-01-07 01:09:55.80	286.73	50.78	
2025-01-07 01:09:57.23	285.82	50.67	
2025-01-07 01:09:58.67	284.90	50.56	
2025-01-07 01:10:00.10	284.01	50.43	
2025-01-07 01:10:01.54	283.11	50.30	
2025-01-07 01:10:02.97	282.23	50.16	
2025-01-07 01:10:04.41	281.35	50.02	
2025-01-07 01:10:05.84	280.48	49.86	
2025-01-07 01:10:07.28	279.62	49.71	
2025-01-07 01:10:08.72	278.77	49.54	
2025-01-07 01:10:10.16	277.92	49.37	
2025-01-07 01:10:11.59	277.10	49.19	
2025-01-07 01:10:13.02	276.28	49.01	
2025-01-07 01:10:14.46	275.46	48.82	
2025-01-07 01:10:15.90	274.66	48.63	
2025-01-07 01:10:17.33	273.87	48.43	
2025-01-07 01:10:18.78	273.08	48.23	
2025-01-07 01:10:20.22	272.31	48.02	
2025-01-07 01:10:21.66	271.54	47.81	
2025-01-07 01:10:23.10	270.79	47.59	
2025-01-07 01:10:24.54	270.05	47.37	
2025-01-07 01:10:25.99	269.31	47.14	
2025-01-07 01:10:27.43	268.59	46.91	
2025-01-07 01:10:28.86	267.89	46.68	
2025-01-07 01:10:30.29	267.19	46.44	
2025-01-07 01:10:31.73	266.50	46.20	
2025-01-07 01:10:33.17	265.82	45.96	
2025-01-07 01:10:34.60	265.16	45.72	
2025-01-07 01:10:36.04	264.50	45.47	
2025-01-07 01:10:37.48	263.85	45.22	
2025-01-07 01:10:38.91	263.22	44.96	
2025-01-07 01:10:40.35	262.59	44.71	
2025-01-07 01:10:41.80	261.97	44.45	
2025-01-07 01:10:43.23	261.37	44.19	
2025-01-07 01:10:44.69	260.76	43.92	
2025-01-07 01:10:46.13	260.18	43.66	
2025-01-07 01:10:47.56	259.60	43.40	
2025-01-07 01:10:49.00	259.04	43.13	
2025-01-07 01:10:50.44	258.48	42.86	
2025-01-07 01:10:51.89	257.92	42.59	
2025-01-07 01:10:53.33	257.38	42.32	
2025-01-07 01:10:54.77	256.85	42.05	
2025-01-07 01:10:56.20	256.33	41.78	
2025-01-07 01:10:57.64	255.82	41.51	
2025-01-07 01:10:59.08	255.32	41.24	
2025-01-07 01:11:00.51	254.82	40.97	
2025-01-07 01:11:01.95	254.33	40.69	
2025-01-07 01:11:03.39	253.85	40.42	
2025-01-07 01:11:04.82	253.39	40.15	
2025-01-07 01:11:06.26	252.92	39.87	
2025-01-07 01:11:07.69	252.47	39.60	
2025-01-07 01:11:09.13	252.02	39.33	
2025-01-07 01:11:10.57	251.58	39.05	
2025-01-07 01:11:12.00	251.15	38.78	
2025-01-07 01:11:13.45	250.72	38.51	
2025-01-07 01:11:14.88	250.30	38.24	
2025-01-07 01:11:16.32	249.89	37.97	
2025-01-07 01:11:17.76	249.49	37.69	
2025-01-07 01:11:19.20	249.09	37.42	
2025-01-07 01:11:20.64	248.69	37.15	
2025-01-07 01:11:22.08	248.31	36.88	
2025-01-07 01:11:23.52	247.93	36.61	
2025-01-07 01:11:24.97	247.55	36.34	
2025-01-07 01:11:26.42	247.19	36.08	
2025-01-07 01:11:27.86	246.82	35.81	
2025-01-07 01:11:29.30	246.47	35.54	
2025-01-07 01:11:30.74	246.12	35.28	
2025-01-07 01:11:32.19	245.77	35.01	
2025-01-07 01:11:33.63	245.44	34.75	
2025-01-07 01:11:35.06	245.11	34.49	
2025-01-07 01:11:36.51	244.78	34.23	
2025-01-07 01:11:37.94	244.46	33.97	
2025-01-07 01:11:39.38	244.14	33.71	
2025-01-07 01:11:40.82	243.83	33.46	
2025-01-07 01:11:42.25	243.52	33.20	
2025-01-07 01:11:43.69	243.22	32.95	
2025-01-07 01:11:45.13	242.93	32.69	
2025-01-07 01:11:46.56	242.63	32.44	
2025-01-07 01:11:48.01	242.34	32.19	
2025-01-07 01:11:49.44	242.06	31.94	
2025-01-07 01:11:50.88	241.78	31.70	
2025-01-07 01:11:52.32	241.51	31.45	
2025-01-07 01:11:53.75	241.24	31.21	
2025-01-07 01:11:55.20	240.97	30.96	
2025-01-07 01:11:56.64	240.71	30.72	
2025-01-07 01:11:58.08	240.45	30.47	
2025-01-07 01:11:59.51	240.20	30.24	
2025-01-07 01:12:00.96	239.94	30.00	
2025-01-07 01:12:02.40	239.70	29.76	
2025-01-07 01:12:03.84	239.45	29.52	
2025-01-07 01:12:05.29	239.21	29.29	
2025-01-07 01:12:06.72	238.98	29.05	
2025-01-07 01:12:08.16	238.74	28.82	
2025-01-07 01:12:09.59	238.51	28.59	
2025-01-07 01:12:11.05	238.28	28.36	
2025-01-07 01:12:12.48	238.06	28.13	
2025-01-07 01:12:13.92	237.84	27.91	
2025-01-07 01:12:15.36	237.63	27.68	
2025-01-07 01:12:16.79	237.41	27.46	
2025-01-07 01:12:18.23	237.20	27.24	
2025-01-07 01:12:19.67	236.99	27.02	
2025-01-07 01:12:21.10	236.79	26.80	
2025-01-07 01:12:22.54	236.59	26.58	
2025-01-07 01:12:23.97	236.39	26.36	
2025-01-07 01:12:25.41	236.19	26.15	
2025-01-07 01:12:26.85	236.00	25.93	
2025-01-07 01:12:28.28	235.81	25.72	
2025-01-07 01:12:29.73	235.62	25.51	
2025-01-07 01:12:31.16	235.44	25.30	
2025-01-07 01:12:32.60	235.25	25.09	
2025-01-07 01:12:34.04	235.07	24.89	
2025-01-07 01:12:35.49	234.89	24.68	
2025-01-07 01:12:36.92	234.72	24.47	
2025-01-07 01:12:38.36	234.54	24.27	
2025-01-07 01:12:39.81	234.37	24.07	
2025-01-07 01:12:41.25	234.20	23.86	
2025-01-07 01:12:42.68	234.03	23.67	
2025-01-07 01:12:44.12	233.87	23.47	
2025-01-07 01:12:45.56	233.70	23.27	
2025-01-07 01:12:47.01	233.54	23.07	
2025-01-07 01:12:48.44	233.38	22.88	
2025-01-07 01:12:49.88	233.23	22.69	
2025-01-07 01:12:51.32	233.07	22.49	
2025-01-07 01:12:52.76	232.92	22.30	
2025-01-07 01:12:54.19	232.77	22.11	
2025-01-07 01:12:55.64	232.62	21.92	
2025-01-07 01:12:57.08	232.47	21.74	
2025-01-07 01:12:58.52	232.33	21.55	
2025-01-07 01:12:59.96	232.18	21.36	
2025-01-07 01:13:01.39	232.04	21.18	
2025-01-07 01:13:02.83	231.90	21.00	
2025-01-07 01:13:04.26	231.76	20.82	
2025-01-07 01:13:05.70	231.63	20.64	
2025-01-07 01:13:07.13	231.49	20.46	
2025-01-07 01:13:08.56	231.36	20.28	
2025-01-07 01:13:10.00	231.23	20.10	
2025-01-07 01:13:11.44	231.09	19.93	
2025-01-07 01:13:12.91	230.96	19.75	
2025-01-07 01:13:14.34	230.84	19.57	
2025-01-07 01:13:15.79	230.71	19.40	
2025-01-07 01:13:17.23	230.58	19.23	
2025-01-07 01:13:18.67	230.46	19.06	
2025-01-07 01:13:20.10	230.34	18.89	
2025-01-07 01:13:21.53	230.22	18.72	
2025-01-07 01:13:22.97	230.10	18.55	
2025-01-07 01:13:24.41	229.98	18.39	
2025-01-07 01:13:25.84	229.87	18.22	
2025-01-07 01:13:27.28	229.75	18.06	
2025-01-07 01:13:28.72	229.64	17.89	
2025-01-07 01:13:30.15	229.53	17.73	
2025-01-07 01:13:31.60	229.42	17.57	
2025-01-07 01:13:33.04	229.30	17.41	
2025-01-07 01:13:34.48	229.20	17.25	
2025-01-07 01:13:35.92	229.09	17.09	
2025-01-07 01:13:37.37	228.98	16.93	
2025-01-07 01:13:38.81	228.88	16.77	
2025-01-07 01:13:40.25	228.77	16.61	
2025-01-07 01:13:41.68	228.67	16.46	
2025-01-07 01:13:43.12	228.57	16.30	
2025-01-07 01:13:44.55	228.47	16.15	
2025-01-07 01:13:45.99	228.37	16.00	
2025-01-07 01:13:47.43	228.27	15.85	
2025-01-07 01:13:48.87	228.17	15.69	
2025-01-07 01:13:50.31	228.07	15.54	
2025-01-07 01:13:51.77	227.98	15.39	
2025-01-07 01:13:53.20	227.88	15.24	
2025-01-07 01:13:54.64	227.79	15.10	
2025-01-07 01:13:56.08	227.69	14.95	
2025-01-07 01:13:57.52	227.60	14.80	
2025-01-07 01:13:58.95	227.51	14.66	
2025-01-07 01:14:00.40	227.42	14.51	
2025-01-07 01:14:01.84	227.33	14.37	
2025-01-07 01:14:03.28	227.24	14.23	
2025-01-07 01:14:04.72	227.16	14.08	
2025-01-07 01:14:06.16	227.07	13.94	
2025-01-07 01:14:07.60	226.98	13.80	
2025-01-07 01:14:09.03	226.90	13.66	
2025-01-07 01:14:10.47	226.82	13.52	
2025-01-07 01:14:11.92	226.73	13.38	
2025-01-07 01:14:13.36	226.65	13.24	
2025-01-07 01:14:14.79	226.57	13.11	
2025-01-07 01:14:16.23	226.49	12.97	
2025-01-07 01:14:17.68	226.41	12.83	
2025-01-07 01:14:19.12	226.33	12.70	
2025-01-07 01:14:20.55	226.25	12.57	
2025-01-07 01:14:21.99	226.17	12.43	
2025-01-07 01:14:23.42	226.10	12.30	
2025-01-07 01:14:24.86	226.02	12.17	
2025-01-07 01:14:26.30	225.94	12.04	
2025-01-07 01:14:27.74	225.87	11.91	
2025-01-07 01:14:29.19	225.79	11.77	
2025-01-07 01:14:30.62	225.72	11.65	
2025-01-07 01:14:32.06	225.65	11.52	
2025-01-07 01:14:33.50	225.58	11.39	
2025-01-07 01:14:34.96	225.50	11.26	
2025-01-07 01:14:36.39	225.43	11.13	
2025-01-07 01:14:37.83	225.36	11.00	
2025-01-07 01:14:39.26	225.29	10.88	
2025-01-07 01:14:40.70	225.23	10.75	
2025-01-07 01:14:42.15	225.16	10.63	
2025-01-07 01:14:39.01	225.31	10.90	
2025-01-07 01:14:40.44	225.24	10.78	
2025-01-07 01:14:41.87	225.17	10.65	
2025-01-07 01:14:43.31	225.10	10.53	
2025-01-07 01:14:44.75	225.04	10.40	
2025-01-07 01:14:46.18	224.97	10.28	
2025-01-07 01:14:47.63	224.90	10.16	
2025-01-07 01:14:49.07	224.84	10.04	
2025-01-07 01:14:50.50	224.77	9.92	
2025-01-07 01:14:51.95	224.71	9.79	
2025-01-07 01:14:53.39	224.64	9.67	
2025-01-07 01:14:54.83	224.58	9.55	
2025-01-07 01:14:56.26	224.52	9.44	
2025-01-07 01:14:57.71	224.46	9.32	
2025-01-07 01:14:59.14	224.40	9.20	
2025-01-07 01:15:00.58	224.33	9.08	
2025-01-07 01:15:02.03	224.27	8.96	
2025-01-07 01:15:03.47	224.21	8.85	
2025-01-07 01:15:04.91	224.15	8.73	
2025-01-07 01:15:06.35	224.09	8.61	
2025-01-07 01:15:07.80	224.04	8.50	
2025-01-07 01:15:09.24	223.98	8.38	
2025-01-07 01:15:10.67	223.92	8.27	
2025-01-07 01:15:12.12	223.86	8.16	
2025-01-07 01:15:13.56	223.81	8.04	
2025-01-07 01:15:14.99	223.75	7.93	
2025-01-07 01:15:16.43	223.70	7.82	
2025-01-07 01:15:17.88	223.64	7.71	
2025-01-07 01:15:19.31	223.59	7.59	
2025-01-07 01:15:20.74	223.53	7.48	
2025-01-07 01:15:22.18	223.48	7.37	
2025-01-07 01:15:23.61	223.42	7.26	
2025-01-07 01:15:25.04	223.37	7.16	
2025-01-07 01:15:26.48	223.32	7.05	
2025-01-07 01:15:27.91	223.27	6.94	
2025-01-07 01:15:29.35	223.22	6.83	
2025-01-07 01:15:30.80	223.16	6.72	
2025-01-07 01:15:32.23	223.11	6.62	
2025-01-07 01:15:33.67	223.06	6.51	
2025-01-07 01:15:35.10	223.01	6.40	
2025-01-07 01:15:36.54	222.96	6.30	
2025-01-07 01:15:37.98	222.91	6.19	
2025-01-07 01:15:39.41	222.87	6.09	
2025-01-07 01:15:40.85	222.82	5.98	
2025-01-07 01:15:42.28	222.77	5.88	
2025-01-07 01:15:43.72	222.72	5.77	
2025-01-07 01:15:45.17	222.67	5.67	
2025-01-07 01:15:46.61	222.63	5.57	
2025-01-07 01:15:48.05	222.58	5.46	
2025-01-07 01:15:49.50	222.53	5.36	
2025-01-07 01:15:50.94	222.49	5.26	
2025-01-07 01:15:52.38	222.44	5.16	
2025-01-07 01:15:53.81	222.40	5.06	
2025-01-07 01:15:55.25	222.35	4.95	
2025-01-07 01:15:56.69	222.31	4.85	
2025-01-07 01:15:58.13	222.26	4.75	
2025-01-07 01:15:59.56	222.22	4.65	
2025-01-07 01:16:01.00	222.17	4.55	
2025-01-07 01:16:02.43	222.13	4.46	
2025-01-07 01:16:03.87	222.09	4.36	
2025-01-07 01:16:05.31	222.05	4.26	
2025-01-07 01:16:06.75	222.00	4.16	
2025-01-07 01:16:08.20	221.96	4.06	

#Closed at: 2025-01-07 01:16:09