passes_logs/2025/01/07/SPB_Silybum_02/SPB_Silybum_02__20250107_055939_TERRA_rec.log

#Pass ID: 20250107_055939_TERRA
#Satellite: TERRA
#Configuration: TERRA
#Start time: 2025-01-07 05:59:39

#Version: 2.0.20230423
#Station: SPB_Silybum_02
#Location: 30.233357 lon 59.946436 lat
#TLE: 1 25994U 99068A   25006.77118991  .00001382  00000+0  29492-3 0  9999
#TLE: 2 25994  98.0231  70.0628 0003576  88.8854  23.4584 14.60378914332871

#Time	Az	El	Level	Level2	SNR	BER	Gain	Gain2
2025-01-07 05:59:41.75	39.53	4.09	
2025-01-07 05:59:42.57	39.64	4.12	
2025-01-07 05:59:43.41	39.76	4.15	
2025-01-07 05:59:44.23	39.87	4.18	
2025-01-07 05:59:45.05	39.99	4.21	
2025-01-07 05:59:45.87	40.10	4.25	
2025-01-07 05:59:46.69	40.21	4.28	
2025-01-07 05:59:47.51	40.33	4.31	
2025-01-07 05:59:48.33	40.44	4.34	
2025-01-07 05:59:49.15	40.56	4.37	
2025-01-07 05:59:49.97	40.67	4.40	
2025-01-07 05:59:50.80	40.79	4.44	
2025-01-07 05:59:51.62	40.91	4.47	
2025-01-07 05:59:52.44	41.02	4.50	
2025-01-07 05:59:53.26	41.14	4.53	
2025-01-07 05:59:54.09	41.26	4.56	
2025-01-07 05:59:54.91	41.37	4.59	
2025-01-07 05:59:55.73	41.49	4.63	
2025-01-07 05:59:56.56	41.61	4.66	
2025-01-07 05:59:57.38	41.73	4.69	
2025-01-07 05:59:58.20	41.84	4.72	
2025-01-07 05:59:59.01	41.96	4.75	
2025-01-07 05:59:59.85	42.08	4.78	
2025-01-07 06:00:00.67	42.20	4.81	
2025-01-07 06:00:01.49	42.32	4.84	
2025-01-07 06:00:02.31	42.44	4.87	
2025-01-07 06:00:03.13	42.56	4.91	
2025-01-07 06:00:03.95	42.68	4.94	
2025-01-07 06:00:04.77	42.80	4.97	
2025-01-07 06:00:05.60	42.92	5.00	
2025-01-07 06:00:06.42	43.04	5.03	
2025-01-07 06:00:07.24	43.16	5.06	
2025-01-07 06:00:08.06	43.28	5.09	
2025-01-07 06:00:08.89	43.40	5.12	
2025-01-07 06:00:09.71	43.53	5.15	
2025-01-07 06:00:10.52	43.65	5.18	
2025-01-07 06:00:11.35	43.77	5.21	
2025-01-07 06:00:12.16	43.89	5.24	
2025-01-07 06:00:12.98	44.01	5.27	
2025-01-07 06:00:13.80	44.14	5.30	
2025-01-07 06:00:14.62	44.26	5.33	
2025-01-07 06:00:15.44	44.38	5.36	
2025-01-07 06:00:16.26	44.51	5.39	
2025-01-07 06:00:17.08	44.63	5.42	
2025-01-07 06:00:17.90	44.76	5.45	
2025-01-07 06:00:18.72	44.88	5.48	
2025-01-07 06:00:19.55	45.01	5.51	
2025-01-07 06:00:20.37	45.13	5.54	
2025-01-07 06:00:21.20	45.26	5.57	
2025-01-07 06:00:22.02	45.38	5.60	
2025-01-07 06:00:22.84	45.51	5.63	
2025-01-07 06:00:23.66	45.64	5.66	
2025-01-07 06:00:24.49	45.76	5.69	
2025-01-07 06:00:25.30	45.89	5.71	
2025-01-07 06:00:26.13	46.02	5.74	
2025-01-07 06:00:26.95	46.14	5.77	
2025-01-07 06:00:27.79	46.28	5.80	
2025-01-07 06:00:28.61	46.40	5.83	
2025-01-07 06:00:29.43	46.53	5.86	
2025-01-07 06:00:30.25	46.66	5.89	
2025-01-07 06:00:31.07	46.79	5.92	
2025-01-07 06:00:31.89	46.92	5.95	
2025-01-07 06:00:32.71	47.05	5.97	
2025-01-07 06:00:33.55	47.18	6.00	
2025-01-07 06:00:34.37	47.31	6.03	
2025-01-07 06:00:35.19	47.44	6.06	
2025-01-07 06:00:36.01	47.57	6.09	
2025-01-07 06:00:36.83	47.70	6.12	
2025-01-07 06:00:37.65	47.83	6.14	
2025-01-07 06:00:38.49	47.96	6.17	
2025-01-07 06:00:39.32	48.10	6.20	
2025-01-07 06:00:40.14	48.23	6.23	
2025-01-07 06:00:40.98	48.36	6.26	
2025-01-07 06:00:41.81	48.50	6.28	
2025-01-07 06:00:42.63	48.63	6.31	
2025-01-07 06:00:43.47	48.76	6.34	
2025-01-07 06:00:44.29	48.90	6.37	
2025-01-07 06:00:45.11	49.03	6.39	
2025-01-07 06:00:45.93	49.16	6.42	
2025-01-07 06:00:46.75	49.30	6.45	
2025-01-07 06:00:47.59	49.43	6.47	
2025-01-07 06:00:48.41	49.57	6.50	
2025-01-07 06:00:49.23	49.70	6.53	
2025-01-07 06:00:50.05	49.84	6.55	
2025-01-07 06:00:50.87	49.97	6.58	
2025-01-07 06:00:51.69	50.11	6.61	
2025-01-07 06:00:52.51	50.24	6.63	
2025-01-07 06:00:53.33	50.38	6.66	
2025-01-07 06:00:54.15	50.51	6.68	
2025-01-07 06:00:54.98	50.65	6.71	
2025-01-07 06:00:55.80	50.79	6.74	
2025-01-07 06:00:56.62	50.93	6.76	
2025-01-07 06:00:57.45	51.06	6.79	
2025-01-07 06:00:58.27	51.20	6.81	
2025-01-07 06:00:59.09	51.34	6.84	
2025-01-07 06:00:59.92	51.48	6.87	
2025-01-07 06:01:00.74	51.62	6.89	
2025-01-07 06:01:01.56	51.75	6.92	
2025-01-07 06:01:02.38	51.89	6.94	
2025-01-07 06:01:03.22	52.04	6.97	
2025-01-07 06:01:04.04	52.17	6.99	
2025-01-07 06:01:04.86	52.31	7.02	
2025-01-07 06:01:05.68	52.45	7.04	
2025-01-07 06:01:06.51	52.59	7.06	
2025-01-07 06:01:07.33	52.73	7.09	
2025-01-07 06:01:08.16	52.88	7.11	
2025-01-07 06:01:08.98	53.02	7.14	
2025-01-07 06:01:09.80	53.16	7.16	
2025-01-07 06:01:10.62	53.30	7.19	
2025-01-07 06:01:11.44	53.44	7.21	
2025-01-07 06:01:12.25	53.58	7.23	
2025-01-07 06:01:13.08	53.72	7.26	
2025-01-07 06:01:13.90	53.87	7.28	
2025-01-07 06:01:14.71	54.01	7.30	
2025-01-07 06:01:15.53	54.15	7.33	
2025-01-07 06:01:16.35	54.29	7.35	
2025-01-07 06:01:17.18	54.44	7.37	
2025-01-07 06:01:18.00	54.58	7.40	
2025-01-07 06:01:18.82	54.72	7.42	
2025-01-07 06:01:19.64	54.87	7.44	
2025-01-07 06:01:20.45	55.01	7.46	
2025-01-07 06:01:21.29	55.16	7.49	
2025-01-07 06:01:22.11	55.30	7.51	
2025-01-07 06:01:22.93	55.44	7.53	
2025-01-07 06:01:23.76	55.59	7.55	
2025-01-07 06:01:24.57	55.73	7.57	
2025-01-07 06:01:25.39	55.88	7.60	
2025-01-07 06:01:26.22	56.03	7.62	
2025-01-07 06:01:27.04	56.17	7.64	
2025-01-07 06:01:27.86	56.32	7.66	
2025-01-07 06:01:28.67	56.46	7.68	
2025-01-07 06:01:29.49	56.61	7.70	
2025-01-07 06:01:30.32	56.76	7.72	
2025-01-07 06:01:31.14	56.91	7.74	
2025-01-07 06:01:31.96	57.05	7.77	
2025-01-07 06:01:32.78	57.20	7.79	
2025-01-07 06:01:33.60	57.35	7.81	
2025-01-07 06:01:34.42	57.50	7.83	
2025-01-07 06:01:35.24	57.64	7.85	
2025-01-07 06:01:36.07	57.79	7.87	
2025-01-07 06:01:36.89	57.94	7.89	
2025-01-07 06:01:37.71	58.09	7.91	
2025-01-07 06:01:38.53	58.24	7.93	
2025-01-07 06:01:39.35	58.39	7.95	
2025-01-07 06:01:40.17	58.54	7.96	
2025-01-07 06:01:40.99	58.69	7.98	
2025-01-07 06:01:41.81	58.84	8.00	
2025-01-07 06:01:42.63	58.99	8.02	
2025-01-07 06:01:43.45	59.14	8.04	
2025-01-07 06:01:44.28	59.29	8.06	
2025-01-07 06:01:45.10	59.44	8.08	
2025-01-07 06:01:45.92	59.59	8.10	
2025-01-07 06:01:46.75	59.74	8.11	
2025-01-07 06:01:47.57	59.89	8.13	
2025-01-07 06:01:48.39	60.05	8.15	
2025-01-07 06:01:49.21	60.20	8.17	
2025-01-07 06:01:50.03	60.35	8.19	
2025-01-07 06:01:50.85	60.50	8.20	
2025-01-07 06:01:51.67	60.65	8.22	
2025-01-07 06:01:52.49	60.81	8.24	
2025-01-07 06:01:53.31	60.96	8.25	
2025-01-07 06:01:54.13	61.11	8.27	
2025-01-07 06:01:54.96	61.26	8.29	
2025-01-07 06:01:55.78	61.42	8.30	
2025-01-07 06:01:56.60	61.57	8.32	
2025-01-07 06:01:57.42	61.72	8.34	
2025-01-07 06:01:58.25	61.88	8.35	
2025-01-07 06:01:59.07	62.03	8.37	
2025-01-07 06:01:59.88	62.19	8.38	
2025-01-07 06:02:00.70	62.34	8.40	
2025-01-07 06:02:01.52	62.49	8.42	
2025-01-07 06:02:02.34	62.65	8.43	
2025-01-07 06:02:03.16	62.80	8.45	
2025-01-07 06:02:03.98	62.96	8.46	
2025-01-07 06:02:04.80	63.11	8.48	
2025-01-07 06:02:05.63	63.27	8.49	
2025-01-07 06:02:06.45	63.43	8.50	
2025-01-07 06:02:07.27	63.58	8.52	
2025-01-07 06:02:08.09	63.74	8.53	
2025-01-07 06:02:08.91	63.89	8.55	
2025-01-07 06:02:09.73	64.05	8.56	
2025-01-07 06:02:10.55	64.20	8.57	
2025-01-07 06:02:11.37	64.36	8.59	
2025-01-07 06:02:12.19	64.52	8.60	
2025-01-07 06:02:13.01	64.67	8.61	
2025-01-07 06:02:13.84	64.83	8.63	
2025-01-07 06:02:14.66	64.99	8.64	
2025-01-07 06:02:15.49	65.15	8.65	
2025-01-07 06:02:16.31	65.31	8.67	
2025-01-07 06:02:17.13	65.46	8.68	
2025-01-07 06:02:17.95	65.62	8.69	
2025-01-07 06:02:18.77	65.78	8.70	
2025-01-07 06:02:19.59	65.94	8.71	
2025-01-07 06:02:20.42	66.10	8.72	
2025-01-07 06:02:21.24	66.25	8.74	
2025-01-07 06:02:22.07	66.41	8.75	
2025-01-07 06:02:22.89	66.57	8.76	
2025-01-07 06:02:23.71	66.73	8.77	
2025-01-07 06:02:24.52	66.89	8.78	
2025-01-07 06:02:25.34	67.05	8.79	
2025-01-07 06:02:26.16	67.20	8.80	
2025-01-07 06:02:26.98	67.36	8.81	
2025-01-07 06:02:27.81	67.52	8.82	
2025-01-07 06:02:28.63	67.68	8.83	
2025-01-07 06:02:29.45	67.84	8.84	
2025-01-07 06:02:30.27	68.00	8.85	
2025-01-07 06:02:31.09	68.16	8.86	
2025-01-07 06:02:31.91	68.32	8.87	
2025-01-07 06:02:32.73	68.48	8.88	
2025-01-07 06:02:33.55	68.64	8.89	
2025-01-07 06:02:34.37	68.80	8.89	
2025-01-07 06:02:35.19	68.96	8.90	
2025-01-07 06:02:36.01	69.12	8.91	
2025-01-07 06:02:36.84	69.28	8.92	
2025-01-07 06:02:37.66	69.44	8.93	
2025-01-07 06:02:38.48	69.60	8.93	
2025-01-07 06:02:39.31	69.77	8.94	
2025-01-07 06:02:40.13	69.93	8.95	
2025-01-07 06:02:40.96	70.09	8.96	
2025-01-07 06:02:41.78	70.25	8.96	
2025-01-07 06:02:42.60	70.41	8.97	
2025-01-07 06:02:43.43	70.57	8.98	
2025-01-07 06:02:44.24	70.73	8.98	
2025-01-07 06:02:45.05	70.89	8.99	
2025-01-07 06:02:45.86	71.05	9.00	
2025-01-07 06:02:46.67	71.21	9.00	
2025-01-07 06:02:47.49	71.37	9.01	
2025-01-07 06:02:48.30	71.53	9.01	
2025-01-07 06:02:49.13	71.69	9.02	
2025-01-07 06:02:49.98	71.86	9.02	
2025-01-07 06:02:50.80	72.02	9.03	
2025-01-07 06:02:51.62	72.18	9.03	
2025-01-07 06:02:52.44	72.35	9.04	
2025-01-07 06:02:53.26	72.51	9.04	
2025-01-07 06:02:54.09	72.67	9.05	
2025-01-07 06:02:54.91	72.83	9.05	
2025-01-07 06:02:55.74	73.00	9.05	
2025-01-07 06:02:56.56	73.16	9.06	
2025-01-07 06:02:57.37	73.32	9.06	
2025-01-07 06:02:58.22	73.49	9.06	
2025-01-07 06:02:59.04	73.65	9.07	
2025-01-07 06:02:59.86	73.81	9.07	
2025-01-07 06:03:00.68	73.97	9.07	
2025-01-07 06:03:01.49	74.13	9.07	
2025-01-07 06:03:02.31	74.30	9.08	
2025-01-07 06:03:03.13	74.46	9.08	
2025-01-07 06:03:03.95	74.62	9.08	
2025-01-07 06:03:04.77	74.78	9.08	
2025-01-07 06:03:05.61	74.95	9.08	
2025-01-07 06:03:06.43	75.11	9.09	
2025-01-07 06:03:07.25	75.27	9.09	
2025-01-07 06:03:08.07	75.44	9.09	
2025-01-07 06:03:08.89	75.60	9.09	
2025-01-07 06:03:09.72	75.76	9.09	
2025-01-07 06:03:10.56	75.93	9.09	
2025-01-07 06:03:11.38	76.09	9.09	
2025-01-07 06:03:12.22	76.26	9.09	
2025-01-07 06:03:13.04	76.42	9.09	
2025-01-07 06:03:13.86	76.58	9.09	
2025-01-07 06:03:14.68	76.74	9.09	
2025-01-07 06:03:15.50	76.91	9.09	
2025-01-07 06:03:16.32	77.07	9.09	
2025-01-07 06:03:17.15	77.23	9.08	
2025-01-07 06:03:17.97	77.40	9.08	
2025-01-07 06:03:18.81	77.56	9.08	
2025-01-07 06:03:19.63	77.72	9.08	
2025-01-07 06:03:20.44	77.88	9.08	
2025-01-07 06:03:21.26	78.05	9.08	
2025-01-07 06:03:22.08	78.21	9.07	
2025-01-07 06:03:22.90	78.37	9.07	
2025-01-07 06:03:23.72	78.53	9.07	
2025-01-07 06:03:24.54	78.70	9.07	
2025-01-07 06:03:25.37	78.86	9.06	
2025-01-07 06:03:26.19	79.02	9.06	
2025-01-07 06:03:27.01	79.18	9.06	
2025-01-07 06:03:27.83	79.35	9.05	
2025-01-07 06:03:28.65	79.51	9.05	
2025-01-07 06:03:29.48	79.67	9.04	
2025-01-07 06:03:30.30	79.83	9.04	
2025-01-07 06:03:31.12	79.99	9.04	
2025-01-07 06:03:31.94	80.16	9.03	
2025-01-07 06:03:32.76	80.32	9.03	
2025-01-07 06:03:33.60	80.48	9.02	
2025-01-07 06:03:34.42	80.65	9.02	
2025-01-07 06:03:35.24	80.81	9.01	
2025-01-07 06:03:36.06	80.97	9.01	
2025-01-07 06:03:36.88	81.13	9.00	
2025-01-07 06:03:37.70	81.29	8.99	
2025-01-07 06:03:38.52	81.45	8.99	
2025-01-07 06:03:39.35	81.62	8.98	
2025-01-07 06:03:40.17	81.78	8.97	
2025-01-07 06:03:40.99	81.94	8.97	
2025-01-07 06:03:41.81	82.10	8.96	
2025-01-07 06:03:42.63	82.26	8.95	
2025-01-07 06:03:43.45	82.42	8.95	
2025-01-07 06:03:44.28	82.58	8.94	
2025-01-07 06:03:45.12	82.75	8.93	
2025-01-07 06:03:45.94	82.91	8.92	
2025-01-07 06:03:46.75	83.07	8.92	
2025-01-07 06:03:47.57	83.23	8.91	
2025-01-07 06:03:48.39	83.39	8.90	
2025-01-07 06:03:49.21	83.55	8.89	
2025-01-07 06:03:50.03	83.71	8.88	
2025-01-07 06:03:50.86	83.87	8.87	
2025-01-07 06:03:51.68	84.03	8.86	
2025-01-07 06:03:52.49	84.19	8.86	
2025-01-07 06:03:53.32	84.35	8.85	
2025-01-07 06:03:54.13	84.51	8.84	
2025-01-07 06:03:54.95	84.67	8.83	
2025-01-07 06:03:55.77	84.83	8.82	
2025-01-07 06:03:56.59	84.99	8.81	
2025-01-07 06:03:57.42	85.15	8.80	
2025-01-07 06:03:58.24	85.31	8.79	
2025-01-07 06:03:59.06	85.46	8.78	
2025-01-07 06:03:59.88	85.62	8.76	
2025-01-07 06:04:00.70	85.78	8.75	
2025-01-07 06:04:01.53	85.94	8.74	
2025-01-07 06:04:02.36	86.10	8.73	
2025-01-07 06:04:03.18	86.26	8.72	
2025-01-07 06:04:04.00	86.42	8.71	
2025-01-07 06:04:04.82	86.58	8.70	
2025-01-07 06:04:05.64	86.74	8.68	
2025-01-07 06:04:06.46	86.89	8.67	
2025-01-07 06:04:07.29	87.05	8.66	
2025-01-07 06:04:08.11	87.21	8.65	
2025-01-07 06:04:08.95	87.37	8.63	
2025-01-07 06:04:09.77	87.53	8.62	
2025-01-07 06:04:10.59	87.69	8.61	
2025-01-07 06:04:11.40	87.84	8.59	
2025-01-07 06:04:12.22	88.00	8.58	
2025-01-07 06:04:13.06	88.16	8.57	
2025-01-07 06:04:13.89	88.32	8.55	
2025-01-07 06:04:14.71	88.47	8.54	
2025-01-07 06:04:15.53	88.63	8.53	
2025-01-07 06:04:16.35	88.79	8.51	
2025-01-07 06:04:17.17	88.94	8.50	
2025-01-07 06:04:18.01	89.10	8.48	
2025-01-07 06:04:18.83	89.26	8.47	
2025-01-07 06:04:19.65	89.41	8.45	
2025-01-07 06:04:20.47	89.57	8.44	
2025-01-07 06:04:21.29	89.72	8.42	
2025-01-07 06:04:22.12	89.88	8.41	
2025-01-07 06:04:22.94	90.03	8.39	
2025-01-07 06:04:23.76	90.19	8.38	
2025-01-07 06:04:24.58	90.34	8.36	
2025-01-07 06:04:25.41	90.50	8.34	
2025-01-07 06:04:26.24	90.65	8.33	
2025-01-07 06:04:27.06	90.81	8.31	
2025-01-07 06:04:27.89	90.96	8.29	
2025-01-07 06:04:28.71	91.12	8.28	
2025-01-07 06:04:29.53	91.27	8.26	
2025-01-07 06:04:30.35	91.42	8.24	
2025-01-07 06:04:31.16	91.57	8.23	
2025-01-07 06:04:31.99	91.73	8.21	
2025-01-07 06:04:32.80	91.88	8.19	
2025-01-07 06:04:33.62	92.03	8.17	
2025-01-07 06:04:34.45	92.19	8.16	
2025-01-07 06:04:35.28	92.34	8.14	
2025-01-07 06:04:36.10	92.49	8.12	
2025-01-07 06:04:36.92	92.64	8.10	
2025-01-07 06:04:37.74	92.79	8.08	
2025-01-07 06:04:38.56	92.95	8.07	
2025-01-07 06:04:39.38	93.10	8.05	
2025-01-07 06:04:40.21	93.25	8.03	
2025-01-07 06:04:41.03	93.40	8.01	
2025-01-07 06:04:41.85	93.55	7.99	
2025-01-07 06:04:42.68	93.70	7.97	
2025-01-07 06:04:43.50	93.85	7.95	
2025-01-07 06:04:44.32	94.00	7.93	
2025-01-07 06:04:45.15	94.15	7.91	
2025-01-07 06:04:45.96	94.30	7.89	
2025-01-07 06:04:46.78	94.45	7.87	
2025-01-07 06:04:47.60	94.60	7.85	
2025-01-07 06:04:48.43	94.75	7.83	
2025-01-07 06:04:49.25	94.90	7.81	
2025-01-07 06:04:50.07	95.05	7.79	
2025-01-07 06:04:50.90	95.19	7.77	
2025-01-07 06:04:51.72	95.34	7.75	
2025-01-07 06:04:52.53	95.49	7.73	
2025-01-07 06:04:53.35	95.64	7.71	
2025-01-07 06:04:54.17	95.78	7.69	
2025-01-07 06:04:54.99	95.93	7.67	
2025-01-07 06:04:55.81	96.08	7.64	
2025-01-07 06:04:56.63	96.22	7.62	
2025-01-07 06:04:57.45	96.37	7.60	
2025-01-07 06:04:58.28	96.52	7.58	
2025-01-07 06:04:59.10	96.66	7.56	
2025-01-07 06:04:59.92	96.81	7.53	
2025-01-07 06:05:00.74	96.95	7.51	
2025-01-07 06:05:01.55	97.10	7.49	
2025-01-07 06:05:02.38	97.24	7.47	
2025-01-07 06:05:03.21	97.39	7.45	
2025-01-07 06:05:04.04	97.54	7.42	
2025-01-07 06:05:04.87	97.68	7.40	
2025-01-07 06:05:05.69	97.83	7.38	
2025-01-07 06:05:06.51	97.97	7.35	
2025-01-07 06:05:07.33	98.11	7.33	
2025-01-07 06:05:08.17	98.26	7.31	
2025-01-07 06:05:08.99	98.40	7.28	
2025-01-07 06:05:09.82	98.55	7.26	
2025-01-07 06:05:10.65	98.69	7.23	
2025-01-07 06:05:11.48	98.83	7.21	
2025-01-07 06:05:12.30	98.98	7.19	
2025-01-07 06:05:13.12	99.12	7.16	
2025-01-07 06:05:13.95	99.26	7.14	
2025-01-07 06:05:14.78	99.40	7.11	
2025-01-07 06:05:15.60	99.55	7.09	
2025-01-07 06:05:16.42	99.69	7.06	
2025-01-07 06:05:17.24	99.83	7.04	
2025-01-07 06:05:18.06	99.97	7.02	
2025-01-07 06:05:18.88	100.11	6.99	
2025-01-07 06:05:19.70	100.25	6.97	
2025-01-07 06:05:20.52	100.39	6.94	
2025-01-07 06:05:21.34	100.53	6.92	
2025-01-07 06:05:22.16	100.66	6.89	
2025-01-07 06:05:22.99	100.80	6.86	
2025-01-07 06:05:23.82	100.94	6.84	
2025-01-07 06:05:24.64	101.08	6.81	
2025-01-07 06:05:25.46	101.22	6.79	
2025-01-07 06:05:26.28	101.36	6.76	
2025-01-07 06:05:27.10	101.50	6.74	
2025-01-07 06:05:27.94	101.64	6.71	
2025-01-07 06:05:28.76	101.77	6.68	
2025-01-07 06:05:29.58	101.91	6.66	
2025-01-07 06:05:30.40	102.05	6.63	
2025-01-07 06:05:31.22	102.18	6.60	
2025-01-07 06:05:32.04	102.32	6.58	
2025-01-07 06:05:32.86	102.45	6.55	
2025-01-07 06:05:33.68	102.59	6.52	
2025-01-07 06:05:34.50	102.72	6.50	
2025-01-07 06:05:35.32	102.86	6.47	
2025-01-07 06:05:36.14	102.99	6.44	
2025-01-07 06:05:36.96	103.13	6.42	
2025-01-07 06:05:37.78	103.26	6.39	
2025-01-07 06:05:38.60	103.40	6.36	
2025-01-07 06:05:39.42	103.53	6.33	
2025-01-07 06:05:40.24	103.66	6.31	
2025-01-07 06:05:41.06	103.80	6.28	
2025-01-07 06:05:41.89	103.93	6.25	
2025-01-07 06:05:42.71	104.06	6.22	
2025-01-07 06:05:43.53	104.20	6.20	
2025-01-07 06:05:44.35	104.33	6.17	
2025-01-07 06:05:45.17	104.46	6.14	
2025-01-07 06:05:45.99	104.59	6.11	
2025-01-07 06:05:46.81	104.72	6.08	
2025-01-07 06:05:47.63	104.85	6.06	
2025-01-07 06:05:48.46	104.98	6.03	
2025-01-07 06:05:49.28	105.11	6.00	
2025-01-07 06:05:50.10	105.24	5.97	
2025-01-07 06:05:50.92	105.37	5.94	
2025-01-07 06:05:51.74	105.50	5.91	
2025-01-07 06:05:52.56	105.63	5.88	
2025-01-07 06:05:53.39	105.76	5.86	
2025-01-07 06:05:54.21	105.89	5.83	
2025-01-07 06:05:55.03	106.02	5.80	
2025-01-07 06:05:55.85	106.15	5.77	
2025-01-07 06:05:56.67	106.28	5.74	
2025-01-07 06:05:57.49	106.41	5.71	
2025-01-07 06:05:58.31	106.53	5.68	
2025-01-07 06:05:59.13	106.66	5.65	
2025-01-07 06:05:59.95	106.79	5.62	
2025-01-07 06:06:00.77	106.91	5.59	
2025-01-07 06:06:01.60	107.04	5.56	
2025-01-07 06:06:02.42	107.17	5.53	
2025-01-07 06:06:03.25	107.29	5.50	
2025-01-07 06:06:04.08	107.42	5.47	
2025-01-07 06:06:04.90	107.55	5.44	
2025-01-07 06:06:05.73	107.67	5.41	
2025-01-07 06:06:06.56	107.80	5.38	
2025-01-07 06:06:07.38	107.92	5.35	
2025-01-07 06:06:08.20	108.05	5.32	
2025-01-07 06:06:09.02	108.17	5.29	
2025-01-07 06:06:09.84	108.30	5.26	
2025-01-07 06:06:10.67	108.42	5.23	
2025-01-07 06:06:11.49	108.54	5.20	
2025-01-07 06:06:12.31	108.67	5.17	
2025-01-07 06:06:13.13	108.79	5.14	
2025-01-07 06:06:13.95	108.91	5.11	
2025-01-07 06:06:14.77	109.03	5.08	
2025-01-07 06:06:15.59	109.15	5.05	
2025-01-07 06:06:16.42	109.28	5.02	
2025-01-07 06:06:17.24	109.40	4.99	
2025-01-07 06:06:18.08	109.52	4.95	
2025-01-07 06:06:18.91	109.64	4.92	
2025-01-07 06:06:19.73	109.76	4.89	
2025-01-07 06:06:20.55	109.89	4.86	
2025-01-07 06:06:21.37	110.00	4.83	
2025-01-07 06:06:22.19	110.12	4.80	
2025-01-07 06:06:23.01	110.24	4.77	
2025-01-07 06:06:23.83	110.36	4.73	
2025-01-07 06:06:24.65	110.48	4.70	
2025-01-07 06:06:25.47	110.60	4.67	
2025-01-07 06:06:26.29	110.72	4.64	
2025-01-07 06:06:27.11	110.84	4.61	
2025-01-07 06:06:27.94	110.96	4.58	
2025-01-07 06:06:28.76	111.07	4.55	
2025-01-07 06:06:29.58	111.19	4.51	
2025-01-07 06:06:30.41	111.31	4.48	
2025-01-07 06:06:31.24	111.43	4.45	
2025-01-07 06:06:32.05	111.54	4.42	
2025-01-07 06:06:32.87	111.66	4.39	
2025-01-07 06:06:33.69	111.77	4.35	
2025-01-07 06:06:34.51	111.89	4.32	
2025-01-07 06:06:35.33	112.00	4.29	
2025-01-07 06:06:36.17	112.12	4.26	
2025-01-07 06:06:37.00	112.24	4.22	
2025-01-07 06:06:37.82	112.35	4.19	
2025-01-07 06:06:38.64	112.47	4.16	
2025-01-07 06:06:39.47	112.58	4.13	
2025-01-07 06:06:40.29	112.70	4.10	
2025-01-07 06:06:41.10	112.81	4.06	
2025-01-07 06:06:41.93	112.92	4.03	
2025-01-07 06:06:42.75	113.03	4.00	

#Closed at: 2025-01-07 06:06:42