passes_logs/2025/01/07/SPB_Silybum_02/SPB_Silybum_02__20250107_013545_AQUA_rec.log

#Pass ID: 20250107_013545_AQUA
#Satellite: AQUA
#Configuration: AQUA
#Start time: 2025-01-07 01:35:45

#Version: 2.0.20230423
#Station: SPB_Silybum_02
#Location: 30.233357 lon 59.946436 lat
#TLE: 1 27424U 02022A   25006.18177887  .00003054  00000+0  63725-3 0  9992
#TLE: 2 27424  98.3578 322.7671 0001358 119.7965   7.4247 14.60646386206336

#Time	Az	El	Level	Level2	SNR	BER	Gain	Gain2
2025-01-07 01:35:47.82	15.91	4.18	
2025-01-07 01:35:49.05	15.89	4.27	
2025-01-07 01:35:50.30	15.88	4.36	
2025-01-07 01:35:51.53	15.86	4.45	
2025-01-07 01:35:52.78	15.85	4.54	
2025-01-07 01:35:54.01	15.83	4.63	
2025-01-07 01:35:55.24	15.82	4.72	
2025-01-07 01:35:56.47	15.80	4.81	
2025-01-07 01:35:57.70	15.79	4.90	
2025-01-07 01:35:58.92	15.77	4.99	
2025-01-07 01:36:00.15	15.76	5.08	
2025-01-07 01:36:01.38	15.74	5.18	
2025-01-07 01:36:02.61	15.73	5.27	
2025-01-07 01:36:03.84	15.71	5.36	
2025-01-07 01:36:05.08	15.69	5.45	
2025-01-07 01:36:06.31	15.68	5.55	
2025-01-07 01:36:07.54	15.66	5.64	
2025-01-07 01:36:08.77	15.65	5.73	
2025-01-07 01:36:10.02	15.63	5.83	
2025-01-07 01:36:11.25	15.61	5.93	
2025-01-07 01:36:12.49	15.60	6.02	
2025-01-07 01:36:13.71	15.58	6.12	
2025-01-07 01:36:14.96	15.56	6.21	
2025-01-07 01:36:16.19	15.54	6.31	
2025-01-07 01:36:17.43	15.53	6.41	
2025-01-07 01:36:18.66	15.51	6.50	
2025-01-07 01:36:19.89	15.49	6.60	
2025-01-07 01:36:21.12	15.47	6.70	
2025-01-07 01:36:22.35	15.45	6.80	
2025-01-07 01:36:23.58	15.44	6.90	
2025-01-07 01:36:24.82	15.42	7.00	
2025-01-07 01:36:26.05	15.40	7.10	
2025-01-07 01:36:27.28	15.38	7.20	
2025-01-07 01:36:28.52	15.36	7.30	
2025-01-07 01:36:29.75	15.34	7.40	
2025-01-07 01:36:30.98	15.32	7.50	
2025-01-07 01:36:32.21	15.30	7.60	
2025-01-07 01:36:33.44	15.28	7.70	
2025-01-07 01:36:34.67	15.26	7.81	
2025-01-07 01:36:35.90	15.24	7.91	
2025-01-07 01:36:37.13	15.22	8.01	
2025-01-07 01:36:38.38	15.20	8.12	
2025-01-07 01:36:39.61	15.18	8.22	
2025-01-07 01:36:40.84	15.16	8.33	
2025-01-07 01:36:42.08	15.14	8.43	
2025-01-07 01:36:43.32	15.12	8.54	
2025-01-07 01:36:44.56	15.09	8.65	
2025-01-07 01:36:45.80	15.07	8.76	
2025-01-07 01:36:47.04	15.05	8.86	
2025-01-07 01:36:48.27	15.03	8.97	
2025-01-07 01:36:49.50	15.01	9.08	
2025-01-07 01:36:50.73	14.98	9.19	
2025-01-07 01:36:51.95	14.96	9.30	
2025-01-07 01:36:53.18	14.94	9.41	
2025-01-07 01:36:54.43	14.91	9.52	
2025-01-07 01:36:55.66	14.89	9.63	
2025-01-07 01:36:56.89	14.87	9.74	
2025-01-07 01:36:58.12	14.84	9.86	
2025-01-07 01:36:59.37	14.82	9.97	
2025-01-07 01:37:00.59	14.79	10.08	
2025-01-07 01:37:01.82	14.77	10.20	
2025-01-07 01:37:03.06	14.74	10.31	
2025-01-07 01:37:04.30	14.72	10.43	
2025-01-07 01:37:05.53	14.69	10.55	
2025-01-07 01:37:06.76	14.66	10.66	
2025-01-07 01:37:07.99	14.64	10.78	
2025-01-07 01:37:09.21	14.61	10.90	
2025-01-07 01:37:10.44	14.59	11.01	
2025-01-07 01:37:11.67	14.56	11.13	
2025-01-07 01:37:12.90	14.53	11.25	
2025-01-07 01:37:14.13	14.50	11.37	
2025-01-07 01:37:15.36	14.48	11.49	
2025-01-07 01:37:16.59	14.45	11.62	
2025-01-07 01:37:17.83	14.42	11.74	
2025-01-07 01:37:19.07	14.39	11.86	
2025-01-07 01:37:20.30	14.36	11.99	
2025-01-07 01:37:21.53	14.33	12.11	
2025-01-07 01:37:22.76	14.30	12.23	
2025-01-07 01:37:24.00	14.27	12.36	
2025-01-07 01:37:25.22	14.24	12.49	
2025-01-07 01:37:26.47	14.21	12.62	
2025-01-07 01:37:27.70	14.18	12.74	
2025-01-07 01:37:28.93	14.15	12.87	
2025-01-07 01:37:30.16	14.12	13.00	
2025-01-07 01:37:31.40	14.08	13.13	
2025-01-07 01:37:32.63	14.05	13.26	
2025-01-07 01:37:33.87	14.02	13.40	
2025-01-07 01:37:35.10	13.99	13.53	
2025-01-07 01:37:36.33	13.95	13.66	
2025-01-07 01:37:37.56	13.92	13.79	
2025-01-07 01:37:38.79	13.89	13.93	
2025-01-07 01:37:40.02	13.85	14.07	
2025-01-07 01:37:41.27	13.81	14.20	
2025-01-07 01:37:42.50	13.78	14.34	
2025-01-07 01:37:43.73	13.74	14.48	
2025-01-07 01:37:44.98	13.71	14.62	
2025-01-07 01:37:46.23	13.67	14.76	
2025-01-07 01:37:47.45	13.63	14.90	
2025-01-07 01:37:48.69	13.60	15.04	
2025-01-07 01:37:49.92	13.56	15.19	
2025-01-07 01:37:51.15	13.52	15.33	
2025-01-07 01:37:52.38	13.48	15.48	
2025-01-07 01:37:53.61	13.44	15.62	
2025-01-07 01:37:54.85	13.40	15.77	
2025-01-07 01:37:56.08	13.36	15.92	
2025-01-07 01:37:57.31	13.32	16.06	
2025-01-07 01:37:58.54	13.28	16.21	
2025-01-07 01:37:59.77	13.24	16.36	
2025-01-07 01:38:01.00	13.20	16.51	
2025-01-07 01:38:02.23	13.15	16.67	
2025-01-07 01:38:03.46	13.11	16.82	
2025-01-07 01:38:04.68	13.07	16.97	
2025-01-07 01:38:05.91	13.02	17.13	
2025-01-07 01:38:07.14	12.98	17.28	
2025-01-07 01:38:08.37	12.93	17.44	
2025-01-07 01:38:09.61	12.89	17.60	
2025-01-07 01:38:10.83	12.84	17.76	
2025-01-07 01:38:12.07	12.79	17.92	
2025-01-07 01:38:13.30	12.75	18.08	
2025-01-07 01:38:14.53	12.70	18.25	
2025-01-07 01:38:15.77	12.65	18.41	
2025-01-07 01:38:17.00	12.60	18.58	
2025-01-07 01:38:18.23	12.55	18.74	
2025-01-07 01:38:19.47	12.50	18.91	
2025-01-07 01:38:20.70	12.45	19.08	
2025-01-07 01:38:21.93	12.40	19.25	
2025-01-07 01:38:23.16	12.34	19.43	
2025-01-07 01:38:24.39	12.29	19.60	
2025-01-07 01:38:25.62	12.24	19.77	
2025-01-07 01:38:26.85	12.18	19.95	
2025-01-07 01:38:28.09	12.13	20.13	
2025-01-07 01:38:29.32	12.07	20.30	
2025-01-07 01:38:30.54	12.01	20.48	
2025-01-07 01:38:31.77	11.95	20.66	
2025-01-07 01:38:33.00	11.90	20.85	
2025-01-07 01:38:34.25	11.84	21.03	
2025-01-07 01:38:35.50	11.78	21.22	
2025-01-07 01:38:36.73	11.71	21.41	
2025-01-07 01:38:37.96	11.65	21.60	
2025-01-07 01:38:39.21	11.59	21.79	
2025-01-07 01:38:40.44	11.53	21.98	
2025-01-07 01:38:41.67	11.46	22.17	
2025-01-07 01:38:42.90	11.40	22.37	
2025-01-07 01:38:44.13	11.33	22.56	
2025-01-07 01:38:45.36	11.26	22.76	
2025-01-07 01:38:46.59	11.19	22.96	
2025-01-07 01:38:47.83	11.12	23.16	
2025-01-07 01:38:49.06	11.05	23.37	
2025-01-07 01:38:50.30	10.98	23.57	
2025-01-07 01:38:51.53	10.91	23.78	
2025-01-07 01:38:52.76	10.84	23.99	
2025-01-07 01:38:53.99	10.76	24.20	
2025-01-07 01:38:55.22	10.69	24.41	
2025-01-07 01:38:56.45	10.61	24.62	
2025-01-07 01:38:57.68	10.53	24.84	
2025-01-07 01:38:58.91	10.45	25.05	
2025-01-07 01:39:00.14	10.37	25.27	
2025-01-07 01:39:01.37	10.29	25.49	
2025-01-07 01:39:02.60	10.21	25.71	
2025-01-07 01:39:03.85	10.13	25.94	
2025-01-07 01:39:05.08	10.04	26.17	
2025-01-07 01:39:06.31	9.95	26.40	
2025-01-07 01:39:07.54	9.87	26.63	
2025-01-07 01:39:08.79	9.77	26.86	
2025-01-07 01:39:10.01	9.68	27.10	
2025-01-07 01:39:11.24	9.59	27.33	
2025-01-07 01:39:12.47	9.50	27.57	
2025-01-07 01:39:13.72	9.40	27.82	
2025-01-07 01:39:14.95	9.30	28.06	
2025-01-07 01:39:16.18	9.21	28.31	
2025-01-07 01:39:17.41	9.11	28.55	
2025-01-07 01:39:18.64	9.00	28.80	
2025-01-07 01:39:19.87	8.90	29.06	
2025-01-07 01:39:21.10	8.79	29.31	
2025-01-07 01:39:22.33	8.69	29.57	
2025-01-07 01:39:23.56	8.58	29.83	
2025-01-07 01:39:24.79	8.47	30.09	
2025-01-07 01:39:26.02	8.35	30.36	
2025-01-07 01:39:27.25	8.24	30.62	
2025-01-07 01:39:28.48	8.12	30.89	
2025-01-07 01:39:29.71	8.00	31.16	
2025-01-07 01:39:30.94	7.88	31.44	
2025-01-07 01:39:32.17	7.76	31.72	
2025-01-07 01:39:33.40	7.63	32.00	
2025-01-07 01:39:34.63	7.50	32.28	
2025-01-07 01:39:35.87	7.37	32.57	
2025-01-07 01:39:37.10	7.24	32.86	
2025-01-07 01:39:38.33	7.10	33.15	
2025-01-07 01:39:39.56	6.96	33.44	
2025-01-07 01:39:40.79	6.82	33.74	
2025-01-07 01:39:42.02	6.68	34.04	
2025-01-07 01:39:43.25	6.53	34.34	
2025-01-07 01:39:44.49	6.38	34.65	
2025-01-07 01:39:45.72	6.23	34.95	
2025-01-07 01:39:46.95	6.07	35.27	
2025-01-07 01:39:48.18	5.92	35.58	
2025-01-07 01:39:49.41	5.75	35.90	
2025-01-07 01:39:50.63	5.59	36.22	
2025-01-07 01:39:51.86	5.42	36.54	
2025-01-07 01:39:53.12	5.24	36.87	
2025-01-07 01:39:54.35	5.07	37.20	
2025-01-07 01:39:55.58	4.89	37.54	
2025-01-07 01:39:56.81	4.70	37.87	
2025-01-07 01:39:58.05	4.51	38.22	
2025-01-07 01:39:59.28	4.32	38.56	
2025-01-07 01:40:00.51	4.13	38.91	
2025-01-07 01:40:01.74	3.92	39.26	
2025-01-07 01:40:02.97	3.72	39.61	
2025-01-07 01:40:04.20	3.51	39.97	
2025-01-07 01:40:05.42	3.30	40.32	
2025-01-07 01:40:06.65	3.08	40.69	
2025-01-07 01:40:07.88	2.85	41.05	
2025-01-07 01:40:09.11	2.62	41.42	
2025-01-07 01:40:10.34	2.38	41.80	
2025-01-07 01:40:11.57	2.14	42.18	
2025-01-07 01:40:12.80	1.89	42.56	
2025-01-07 01:40:14.03	1.64	42.94	
2025-01-07 01:40:15.26	1.38	43.33	
2025-01-07 01:40:16.49	1.11	43.72	
2025-01-07 01:40:17.72	0.84	44.11	
2025-01-07 01:40:18.97	0.55	44.52	
2025-01-07 01:40:20.20	0.26	44.92	
2025-01-07 01:40:21.43	359.97	45.33	
2025-01-07 01:40:22.67	359.66	45.74	
2025-01-07 01:40:23.90	359.35	46.15	
2025-01-07 01:40:25.14	359.02	46.57	
2025-01-07 01:40:26.37	358.69	46.99	
2025-01-07 01:40:27.61	358.35	47.41	
2025-01-07 01:40:28.84	358.00	47.84	
2025-01-07 01:40:30.07	357.64	48.27	
2025-01-07 01:40:31.30	357.27	48.70	
2025-01-07 01:40:32.53	356.89	49.14	
2025-01-07 01:40:33.76	356.50	49.58	
2025-01-07 01:40:34.99	356.10	50.02	
2025-01-07 01:40:36.22	355.68	50.46	
2025-01-07 01:40:37.46	355.25	50.91	
2025-01-07 01:40:38.69	354.81	51.36	
2025-01-07 01:40:39.92	354.35	51.82	
2025-01-07 01:40:41.15	353.88	52.27	
2025-01-07 01:40:42.39	353.40	52.73	
2025-01-07 01:40:43.62	352.90	53.19	
2025-01-07 01:40:44.85	352.38	53.65	
2025-01-07 01:40:46.08	351.85	54.12	
2025-01-07 01:40:47.30	351.30	54.58	
2025-01-07 01:40:48.54	350.72	55.05	
2025-01-07 01:40:49.77	350.13	55.52	
2025-01-07 01:40:51.00	349.52	55.99	
2025-01-07 01:40:52.23	348.89	56.46	
2025-01-07 01:40:53.49	348.22	56.94	
2025-01-07 01:40:54.72	347.55	57.42	
2025-01-07 01:40:55.96	346.84	57.89	
2025-01-07 01:40:57.19	346.11	58.36	
2025-01-07 01:40:58.42	345.36	58.84	
2025-01-07 01:40:59.67	344.56	59.31	
2025-01-07 01:41:00.90	343.75	59.78	
2025-01-07 01:41:02.13	342.91	60.25	
2025-01-07 01:41:03.36	342.04	60.72	
2025-01-07 01:41:04.59	341.13	61.18	
2025-01-07 01:41:05.82	340.19	61.64	
2025-01-07 01:41:07.05	339.22	62.09	
2025-01-07 01:41:08.28	338.20	62.55	
2025-01-07 01:41:09.53	337.14	63.00	
2025-01-07 01:41:10.75	336.05	63.44	
2025-01-07 01:41:11.99	334.91	63.88	
2025-01-07 01:41:13.22	333.73	64.30	
2025-01-07 01:41:14.46	332.50	64.73	
2025-01-07 01:41:15.69	331.23	65.14	
2025-01-07 01:41:16.92	329.91	65.54	
2025-01-07 01:41:18.15	328.55	65.94	
2025-01-07 01:41:19.39	327.12	66.32	
2025-01-07 01:41:20.63	325.64	66.70	
2025-01-07 01:41:21.86	324.12	67.05	
2025-01-07 01:41:23.09	322.55	67.40	
2025-01-07 01:41:24.32	320.93	67.73	
2025-01-07 01:41:25.55	319.26	68.04	
2025-01-07 01:41:26.78	317.53	68.34	
2025-01-07 01:41:28.01	315.76	68.61	
2025-01-07 01:41:29.27	313.89	68.88	
2025-01-07 01:41:30.50	312.01	69.12	
2025-01-07 01:41:31.73	310.09	69.34	
2025-01-07 01:41:32.96	308.13	69.54	
2025-01-07 01:41:34.20	306.11	69.71	
2025-01-07 01:41:35.43	304.08	69.87	
2025-01-07 01:41:36.66	302.01	69.99	
2025-01-07 01:41:37.89	299.92	70.10	
2025-01-07 01:41:39.12	297.80	70.18	
2025-01-07 01:41:40.37	295.64	70.23	
2025-01-07 01:41:41.60	293.50	70.26	
2025-01-07 01:41:42.83	291.36	70.26	
2025-01-07 01:41:44.06	289.22	70.23	
2025-01-07 01:41:45.28	287.11	70.18	
2025-01-07 01:41:46.51	284.99	70.11	
2025-01-07 01:41:47.76	282.86	70.00	
2025-01-07 01:41:48.99	280.79	69.88	
2025-01-07 01:41:50.22	278.75	69.73	
2025-01-07 01:41:51.45	276.75	69.55	
2025-01-07 01:41:52.68	274.78	69.36	
2025-01-07 01:41:53.91	272.86	69.14	
2025-01-07 01:41:55.14	270.98	68.90	
2025-01-07 01:41:56.38	269.13	68.64	
2025-01-07 01:41:57.63	267.32	68.36	
2025-01-07 01:41:58.86	265.58	68.07	
2025-01-07 01:42:00.09	263.90	67.75	
2025-01-07 01:42:01.32	262.28	67.42	
2025-01-07 01:42:02.57	260.67	67.08	
2025-01-07 01:42:03.80	259.15	66.72	
2025-01-07 01:42:05.05	257.66	66.34	
2025-01-07 01:42:06.28	256.23	65.96	
2025-01-07 01:42:07.51	254.86	65.57	
2025-01-07 01:42:08.74	253.54	65.16	
2025-01-07 01:42:09.98	252.26	64.75	
2025-01-07 01:42:11.21	251.03	64.33	
2025-01-07 01:42:12.44	249.85	63.90	
2025-01-07 01:42:13.67	248.71	63.46	
2025-01-07 01:42:14.91	247.60	63.02	
2025-01-07 01:42:16.15	246.54	62.57	
2025-01-07 01:42:17.38	245.52	62.11	
2025-01-07 01:42:18.61	244.54	61.66	
2025-01-07 01:42:19.84	243.60	61.20	
2025-01-07 01:42:21.09	242.67	60.73	
2025-01-07 01:42:22.33	241.79	60.25	
2025-01-07 01:42:23.56	240.95	59.79	
2025-01-07 01:42:24.79	240.13	59.32	
2025-01-07 01:42:26.03	239.34	58.84	
2025-01-07 01:42:27.26	238.59	58.37	
2025-01-07 01:42:28.49	237.86	57.89	
2025-01-07 01:42:29.72	237.15	57.42	
2025-01-07 01:42:30.95	236.47	56.95	
2025-01-07 01:42:32.18	235.82	56.47	
2025-01-07 01:42:33.41	235.18	56.00	
2025-01-07 01:42:34.65	234.57	55.53	
2025-01-07 01:42:35.88	233.97	55.06	
2025-01-07 01:42:37.11	233.40	54.59	
2025-01-07 01:42:38.35	232.84	54.11	
2025-01-07 01:42:39.58	232.31	53.65	
2025-01-07 01:42:40.81	231.79	53.18	
2025-01-07 01:42:42.04	231.29	52.72	
2025-01-07 01:42:43.27	230.80	52.26	
2025-01-07 01:42:44.50	230.33	51.81	
2025-01-07 01:42:45.73	229.87	51.35	
2025-01-07 01:42:46.97	229.42	50.90	
2025-01-07 01:42:48.20	228.99	50.45	
2025-01-07 01:42:49.45	228.57	49.99	
2025-01-07 01:42:50.68	228.17	49.55	
2025-01-07 01:42:51.91	227.77	49.11	
2025-01-07 01:42:53.14	227.39	48.67	
2025-01-07 01:42:54.37	227.02	48.24	
2025-01-07 01:42:55.60	226.66	47.81	
2025-01-07 01:42:56.84	226.31	47.38	
2025-01-07 01:42:58.08	225.96	46.95	
2025-01-07 01:42:59.31	225.63	46.53	
2025-01-07 01:43:00.54	225.31	46.11	
2025-01-07 01:43:01.77	225.00	45.70	
2025-01-07 01:43:03.01	224.69	45.28	
2025-01-07 01:43:04.24	224.39	44.88	
2025-01-07 01:43:05.47	224.10	44.47	
2025-01-07 01:43:06.70	223.82	44.07	
2025-01-07 01:43:07.93	223.54	43.68	
2025-01-07 01:43:09.16	223.28	43.28	
2025-01-07 01:43:10.39	223.01	42.89	
2025-01-07 01:43:11.64	222.76	42.50	
2025-01-07 01:43:12.88	222.50	42.12	
2025-01-07 01:43:14.11	222.26	41.74	
2025-01-07 01:43:15.36	222.02	41.36	
2025-01-07 01:43:16.59	221.79	40.98	
2025-01-07 01:43:17.82	221.56	40.62	
2025-01-07 01:43:19.05	221.34	40.25	
2025-01-07 01:43:20.28	221.13	39.89	
2025-01-07 01:43:21.51	220.92	39.53	
2025-01-07 01:43:22.74	220.71	39.18	
2025-01-07 01:43:23.98	220.51	38.82	
2025-01-07 01:43:25.21	220.31	38.48	
2025-01-07 01:43:26.44	220.12	38.13	
2025-01-07 01:43:27.68	219.93	37.79	
2025-01-07 01:43:28.91	219.74	37.45	
2025-01-07 01:43:30.13	219.56	37.12	
2025-01-07 01:43:31.37	219.38	36.78	
2025-01-07 01:43:32.59	219.21	36.46	
2025-01-07 01:43:33.82	219.04	36.13	
2025-01-07 01:43:35.07	218.87	35.81	
2025-01-07 01:43:36.30	218.71	35.49	
2025-01-07 01:43:37.53	218.55	35.17	
2025-01-07 01:43:38.76	218.40	34.86	
2025-01-07 01:43:39.99	218.24	34.55	
2025-01-07 01:43:41.22	218.09	34.24	
2025-01-07 01:43:42.45	217.95	33.94	
2025-01-07 01:43:43.68	217.80	33.64	
2025-01-07 01:43:44.91	217.66	33.34	
2025-01-07 01:43:46.15	217.52	33.04	
2025-01-07 01:43:47.38	217.38	32.75	
2025-01-07 01:43:48.62	217.25	32.46	
2025-01-07 01:43:49.85	217.12	32.17	
2025-01-07 01:43:51.08	216.99	31.89	
2025-01-07 01:43:52.32	216.86	31.61	
2025-01-07 01:43:53.56	216.74	31.32	
2025-01-07 01:43:54.79	216.61	31.05	
2025-01-07 01:43:56.02	216.49	30.78	
2025-01-07 01:43:57.26	216.38	30.50	
2025-01-07 01:43:58.49	216.26	30.24	
2025-01-07 01:43:59.74	216.14	29.97	
2025-01-07 01:44:00.96	216.03	29.70	
2025-01-07 01:44:02.20	215.92	29.44	
2025-01-07 01:44:03.43	215.82	29.18	
2025-01-07 01:44:04.65	215.71	28.93	
2025-01-07 01:44:05.88	215.61	28.68	
2025-01-07 01:44:07.11	215.50	28.43	
2025-01-07 01:44:08.34	215.40	28.18	
2025-01-07 01:44:09.58	215.30	27.93	
2025-01-07 01:44:10.82	215.20	27.68	
2025-01-07 01:44:12.05	215.11	27.44	
2025-01-07 01:44:13.29	215.01	27.20	
2025-01-07 01:44:14.53	214.92	26.96	
2025-01-07 01:44:15.77	214.83	26.72	
2025-01-07 01:44:17.00	214.74	26.49	
2025-01-07 01:44:18.23	214.65	26.26	
2025-01-07 01:44:19.46	214.56	26.03	
2025-01-07 01:44:20.69	214.48	25.80	
2025-01-07 01:44:21.92	214.39	25.58	
2025-01-07 01:44:23.15	214.31	25.35	
2025-01-07 01:44:24.37	214.23	25.13	
2025-01-07 01:44:25.60	214.15	24.91	
2025-01-07 01:44:26.85	214.07	24.69	
2025-01-07 01:44:28.08	213.99	24.48	
2025-01-07 01:44:29.31	213.91	24.26	
2025-01-07 01:44:30.55	213.83	24.05	
2025-01-07 01:44:31.78	213.76	23.84	
2025-01-07 01:44:33.01	213.68	23.63	
2025-01-07 01:44:34.24	213.61	23.43	
2025-01-07 01:44:35.47	213.54	23.22	
2025-01-07 01:44:36.71	213.47	23.02	
2025-01-07 01:44:37.94	213.40	22.81	
2025-01-07 01:44:39.17	213.33	22.61	
2025-01-07 01:44:40.40	213.26	22.42	
2025-01-07 01:44:41.63	213.20	22.22	
2025-01-07 01:44:42.86	213.13	22.02	
2025-01-07 01:44:44.09	213.06	21.83	
2025-01-07 01:44:45.33	213.00	21.64	
2025-01-07 01:44:46.57	212.94	21.45	
2025-01-07 01:44:47.79	212.87	21.26	
2025-01-07 01:44:49.02	212.81	21.07	
2025-01-07 01:44:50.26	212.75	20.88	
2025-01-07 01:44:51.49	212.69	20.70	
2025-01-07 01:44:52.71	212.63	20.52	
2025-01-07 01:44:53.94	212.57	20.34	
2025-01-07 01:44:55.17	212.52	20.16	
2025-01-07 01:44:56.42	212.46	19.97	
2025-01-07 01:44:57.65	212.40	19.80	
2025-01-07 01:44:58.88	212.35	19.62	
2025-01-07 01:45:00.11	212.29	19.45	
2025-01-07 01:45:01.35	212.24	19.27	
2025-01-07 01:45:02.58	212.19	19.10	
2025-01-07 01:45:03.81	212.13	18.93	
2025-01-07 01:45:05.04	212.08	18.76	
2025-01-07 01:45:06.27	212.03	18.59	
2025-01-07 01:45:07.50	211.98	18.42	
2025-01-07 01:45:08.73	211.93	18.26	
2025-01-07 01:45:09.96	211.88	18.09	
2025-01-07 01:45:11.19	211.83	17.93	
2025-01-07 01:45:12.42	211.78	17.77	
2025-01-07 01:45:13.65	211.73	17.60	
2025-01-07 01:45:14.88	211.69	17.44	
2025-01-07 01:45:16.10	211.64	17.29	
2025-01-07 01:45:17.34	211.60	17.13	
2025-01-07 01:45:18.56	211.55	16.97	
2025-01-07 01:45:19.79	211.51	16.82	
2025-01-07 01:45:21.02	211.46	16.66	
2025-01-07 01:45:22.27	211.42	16.51	
2025-01-07 01:45:23.50	211.37	16.35	
2025-01-07 01:45:24.73	211.33	16.20	
2025-01-07 01:45:25.96	211.29	16.05	
2025-01-07 01:45:27.19	211.25	15.90	
2025-01-07 01:45:28.42	211.20	15.75	
2025-01-07 01:45:29.65	211.16	15.61	
2025-01-07 01:45:30.88	211.12	15.46	
2025-01-07 01:45:32.11	211.08	15.31	
2025-01-07 01:45:33.34	211.04	15.17	
2025-01-07 01:45:34.57	211.00	15.02	
2025-01-07 01:45:35.80	210.97	14.88	
2025-01-07 01:45:37.04	210.93	14.74	
2025-01-07 01:45:38.26	210.89	14.60	
2025-01-07 01:45:39.50	210.85	14.46	
2025-01-07 01:45:40.73	210.82	14.32	
2025-01-07 01:45:41.96	210.78	14.18	
2025-01-07 01:45:43.19	210.74	14.04	
2025-01-07 01:45:44.42	210.71	13.91	
2025-01-07 01:45:45.65	210.67	13.77	
2025-01-07 01:45:46.89	210.64	13.63	
2025-01-07 01:45:48.12	210.60	13.50	
2025-01-07 01:45:49.35	210.57	13.37	
2025-01-07 01:45:50.58	210.53	13.23	
2025-01-07 01:45:51.81	210.50	13.10	
2025-01-07 01:45:53.04	210.47	12.97	
2025-01-07 01:45:54.27	210.43	12.84	
2025-01-07 01:45:55.52	210.40	12.71	
2025-01-07 01:45:56.74	210.37	12.58	
2025-01-07 01:45:57.98	210.34	12.45	
2025-01-07 01:45:59.21	210.30	12.32	
2025-01-07 01:46:00.44	210.27	12.20	
2025-01-07 01:46:01.67	210.24	12.07	
2025-01-07 01:46:02.91	210.21	11.94	
2025-01-07 01:46:04.14	210.18	11.82	
2025-01-07 01:46:05.37	210.15	11.70	
2025-01-07 01:46:06.59	210.12	11.57	
2025-01-07 01:46:07.83	210.09	11.45	
2025-01-07 01:46:09.06	210.06	11.33	
2025-01-07 01:46:10.29	210.03	11.21	
2025-01-07 01:46:11.52	210.01	11.09	
2025-01-07 01:46:12.76	209.98	10.97	
2025-01-07 01:46:13.98	209.95	10.85	
2025-01-07 01:46:15.22	209.92	10.73	
2025-01-07 01:46:16.44	209.89	10.61	
2025-01-07 01:46:17.67	209.87	10.49	
2025-01-07 01:46:18.90	209.84	10.38	
2025-01-07 01:46:20.13	209.81	10.26	
2025-01-07 01:46:21.38	209.79	10.14	
2025-01-07 01:46:22.61	209.76	10.03	
2025-01-07 01:46:23.84	209.74	9.92	
2025-01-07 01:46:25.07	209.71	9.80	
2025-01-07 01:46:26.29	209.68	9.69	
2025-01-07 01:46:27.52	209.66	9.58	
2025-01-07 01:46:28.75	209.63	9.46	
2025-01-07 01:46:30.00	209.61	9.35	
2025-01-07 01:46:31.24	209.58	9.24	
2025-01-07 01:46:32.48	209.56	9.13	
2025-01-07 01:46:33.71	209.54	9.02	
2025-01-07 01:46:34.94	209.51	8.91	
2025-01-07 01:46:36.18	209.49	8.80	
2025-01-07 01:46:37.42	209.47	8.69	
2025-01-07 01:46:38.66	209.44	8.58	
2025-01-07 01:46:39.89	209.42	8.47	
2025-01-07 01:46:41.12	209.40	8.37	
2025-01-07 01:46:42.35	209.37	8.26	
2025-01-07 01:46:43.59	209.35	8.15	
2025-01-07 01:46:44.84	209.33	8.05	
2025-01-07 01:46:46.07	209.31	7.94	
2025-01-07 01:46:47.30	209.29	7.84	
2025-01-07 01:46:48.55	209.26	7.73	
2025-01-07 01:46:49.78	209.24	7.63	
2025-01-07 01:46:51.01	209.22	7.53	
2025-01-07 01:46:52.24	209.20	7.42	
2025-01-07 01:46:53.47	209.18	7.32	
2025-01-07 01:46:54.70	209.16	7.22	
2025-01-07 01:46:55.93	209.14	7.12	
2025-01-07 01:46:57.16	209.12	7.02	
2025-01-07 01:46:58.39	209.10	6.92	
2025-01-07 01:46:59.62	209.08	6.82	
2025-01-07 01:47:00.85	209.06	6.72	
2025-01-07 01:47:02.07	209.04	6.62	
2025-01-07 01:47:03.31	209.02	6.52	
2025-01-07 01:47:04.55	209.00	6.42	
2025-01-07 01:47:05.80	208.98	6.32	
2025-01-07 01:47:07.03	208.96	6.23	
2025-01-07 01:47:08.27	208.94	6.13	
2025-01-07 01:47:09.50	208.93	6.03	
2025-01-07 01:47:10.72	208.91	5.94	
2025-01-07 01:47:11.96	208.89	5.84	
2025-01-07 01:47:13.19	208.87	5.75	
2025-01-07 01:47:14.42	208.85	5.65	
2025-01-07 01:47:15.64	208.84	5.56	
2025-01-07 01:47:16.87	208.82	5.46	
2025-01-07 01:47:18.11	208.80	5.37	
2025-01-07 01:47:19.34	208.78	5.27	
2025-01-07 01:47:20.57	208.77	5.18	
2025-01-07 01:47:21.80	208.75	5.09	
2025-01-07 01:47:23.02	208.73	5.00	
2025-01-07 01:47:24.26	208.72	4.90	
2025-01-07 01:47:25.48	208.70	4.81	
2025-01-07 01:47:26.71	208.68	4.72	
2025-01-07 01:47:27.94	208.67	4.63	
2025-01-07 01:47:29.18	208.65	4.54	
2025-01-07 01:47:30.43	208.63	4.45	
2025-01-07 01:47:31.66	208.62	4.36	
2025-01-07 01:47:32.90	208.60	4.27	
2025-01-07 01:47:34.13	208.59	4.18	
2025-01-07 01:47:35.36	208.57	4.09	

#Closed at: 2025-01-07 01:47:36