passes_logs/2025/01/07/SPB_Silybum_02/SPB_Silybum_02__20250107_073613_TERRA_rec.log

#Pass ID: 20250107_073613_TERRA
#Satellite: TERRA
#Configuration: TERRA
#Start time: 2025-01-07 07:36:12

#Version: 2.0.20230423
#Station: SPB_Silybum_02
#Location: 30.233357 lon 59.946436 lat
#TLE: 1 25994U 99068A   25006.77118991  .00001382  00000+0  29492-3 0  9999
#TLE: 2 25994  98.0231  70.0628 0003576  88.8854  23.4584 14.60378914332871

#Time	Az	El	Level	Level2	SNR	BER	Gain	Gain2
2025-01-07 07:36:14.35	21.14	4.06	
2025-01-07 07:36:15.58	21.20	4.14	
2025-01-07 07:36:16.82	21.26	4.23	
2025-01-07 07:36:18.05	21.32	4.31	
2025-01-07 07:36:19.29	21.38	4.40	
2025-01-07 07:36:20.52	21.44	4.48	
2025-01-07 07:36:21.75	21.50	4.57	
2025-01-07 07:36:22.98	21.56	4.65	
2025-01-07 07:36:24.21	21.62	4.74	
2025-01-07 07:36:25.44	21.69	4.83	
2025-01-07 07:36:26.67	21.75	4.91	
2025-01-07 07:36:27.90	21.81	5.00	
2025-01-07 07:36:29.14	21.87	5.09	
2025-01-07 07:36:30.37	21.94	5.18	
2025-01-07 07:36:31.60	22.00	5.27	
2025-01-07 07:36:32.83	22.06	5.35	
2025-01-07 07:36:34.08	22.13	5.44	
2025-01-07 07:36:35.31	22.19	5.53	
2025-01-07 07:36:36.55	22.26	5.62	
2025-01-07 07:36:37.78	22.33	5.71	
2025-01-07 07:36:39.01	22.39	5.80	
2025-01-07 07:36:40.25	22.46	5.89	
2025-01-07 07:36:41.48	22.53	5.98	
2025-01-07 07:36:42.73	22.59	6.08	
2025-01-07 07:36:43.96	22.66	6.17	
2025-01-07 07:36:45.19	22.73	6.26	
2025-01-07 07:36:46.42	22.80	6.35	
2025-01-07 07:36:47.66	22.87	6.44	
2025-01-07 07:36:48.90	22.94	6.54	
2025-01-07 07:36:50.13	23.01	6.63	
2025-01-07 07:36:51.37	23.08	6.73	
2025-01-07 07:36:52.60	23.15	6.82	
2025-01-07 07:36:53.84	23.22	6.91	
2025-01-07 07:36:55.08	23.29	7.01	
2025-01-07 07:36:56.31	23.37	7.10	
2025-01-07 07:36:57.55	23.44	7.20	
2025-01-07 07:36:58.79	23.51	7.30	
2025-01-07 07:37:00.02	23.59	7.39	
2025-01-07 07:37:01.27	23.66	7.49	
2025-01-07 07:37:02.50	23.74	7.59	
2025-01-07 07:37:03.75	23.81	7.68	
2025-01-07 07:37:04.98	23.89	7.78	
2025-01-07 07:37:06.23	23.97	7.88	
2025-01-07 07:37:07.47	24.04	7.98	
2025-01-07 07:37:08.70	24.12	8.08	
2025-01-07 07:37:09.93	24.20	8.18	
2025-01-07 07:37:11.17	24.28	8.28	
2025-01-07 07:37:12.40	24.36	8.38	
2025-01-07 07:37:13.63	24.44	8.48	
2025-01-07 07:37:14.86	24.52	8.58	
2025-01-07 07:37:16.09	24.60	8.68	
2025-01-07 07:37:17.33	24.68	8.78	
2025-01-07 07:37:18.56	24.76	8.88	
2025-01-07 07:37:19.80	24.84	8.98	
2025-01-07 07:37:21.03	24.93	9.09	
2025-01-07 07:37:22.28	25.01	9.19	
2025-01-07 07:37:23.52	25.10	9.30	
2025-01-07 07:37:24.75	25.18	9.40	
2025-01-07 07:37:25.98	25.27	9.50	
2025-01-07 07:37:27.21	25.35	9.61	
2025-01-07 07:37:28.45	25.44	9.71	
2025-01-07 07:37:29.69	25.53	9.82	
2025-01-07 07:37:30.92	25.61	9.93	
2025-01-07 07:37:32.15	25.70	10.03	
2025-01-07 07:37:33.38	25.79	10.14	
2025-01-07 07:37:34.62	25.88	10.25	
2025-01-07 07:37:35.84	25.97	10.36	
2025-01-07 07:37:37.07	26.06	10.46	
2025-01-07 07:37:38.32	26.16	10.57	
2025-01-07 07:37:39.55	26.25	10.68	
2025-01-07 07:37:40.78	26.34	10.79	
2025-01-07 07:37:42.02	26.44	10.90	
2025-01-07 07:37:43.25	26.53	11.02	
2025-01-07 07:37:44.48	26.63	11.13	
2025-01-07 07:37:45.71	26.72	11.24	
2025-01-07 07:37:46.95	26.82	11.35	
2025-01-07 07:37:48.18	26.92	11.46	
2025-01-07 07:37:49.41	27.02	11.58	
2025-01-07 07:37:50.64	27.11	11.69	
2025-01-07 07:37:51.87	27.21	11.81	
2025-01-07 07:37:53.11	27.32	11.92	
2025-01-07 07:37:54.36	27.42	12.04	
2025-01-07 07:37:55.60	27.52	12.16	
2025-01-07 07:37:56.83	27.63	12.27	
2025-01-07 07:37:58.06	27.73	12.39	
2025-01-07 07:37:59.30	27.83	12.51	
2025-01-07 07:38:00.53	27.94	12.63	
2025-01-07 07:38:01.78	28.05	12.75	
2025-01-07 07:38:03.00	28.16	12.86	
2025-01-07 07:38:04.24	28.26	12.99	
2025-01-07 07:38:05.47	28.37	13.11	
2025-01-07 07:38:06.70	28.48	13.23	
2025-01-07 07:38:07.93	28.60	13.35	
2025-01-07 07:38:09.18	28.71	13.47	
2025-01-07 07:38:10.41	28.82	13.60	
2025-01-07 07:38:11.64	28.94	13.72	
2025-01-07 07:38:12.87	29.05	13.84	
2025-01-07 07:38:14.10	29.17	13.97	
2025-01-07 07:38:15.35	29.29	14.10	
2025-01-07 07:38:16.58	29.40	14.22	
2025-01-07 07:38:17.82	29.52	14.35	
2025-01-07 07:38:19.05	29.64	14.48	
2025-01-07 07:38:20.28	29.76	14.60	
2025-01-07 07:38:21.51	29.89	14.73	
2025-01-07 07:38:22.74	30.01	14.86	
2025-01-07 07:38:23.97	30.13	14.99	
2025-01-07 07:38:25.21	30.26	15.12	
2025-01-07 07:38:26.45	30.39	15.25	
2025-01-07 07:38:27.68	30.52	15.39	
2025-01-07 07:38:28.91	30.64	15.52	
2025-01-07 07:38:30.14	30.77	15.65	
2025-01-07 07:38:31.38	30.91	15.79	
2025-01-07 07:38:32.61	31.04	15.92	
2025-01-07 07:38:33.85	31.17	16.06	
2025-01-07 07:38:35.08	31.31	16.19	
2025-01-07 07:38:36.31	31.44	16.33	
2025-01-07 07:38:37.55	31.58	16.47	
2025-01-07 07:38:38.78	31.72	16.60	
2025-01-07 07:38:40.02	31.86	16.74	
2025-01-07 07:38:41.26	32.01	16.88	
2025-01-07 07:38:42.50	32.15	17.03	
2025-01-07 07:38:43.74	32.29	17.17	
2025-01-07 07:38:44.97	32.44	17.31	
2025-01-07 07:38:46.21	32.59	17.45	
2025-01-07 07:38:47.44	32.74	17.60	
2025-01-07 07:38:48.67	32.89	17.74	
2025-01-07 07:38:49.92	33.04	17.89	
2025-01-07 07:38:51.15	33.19	18.03	
2025-01-07 07:38:52.38	33.35	18.18	
2025-01-07 07:38:53.61	33.50	18.32	
2025-01-07 07:38:54.84	33.66	18.47	
2025-01-07 07:38:56.08	33.82	18.62	
2025-01-07 07:38:57.30	33.98	18.77	
2025-01-07 07:38:58.53	34.14	18.92	
2025-01-07 07:38:59.77	34.31	19.07	
2025-01-07 07:39:01.00	34.47	19.22	
2025-01-07 07:39:02.23	34.64	19.38	
2025-01-07 07:39:03.46	34.81	19.53	
2025-01-07 07:39:04.69	34.98	19.68	
2025-01-07 07:39:05.92	35.15	19.84	
2025-01-07 07:39:07.15	35.32	19.99	
2025-01-07 07:39:08.38	35.50	20.15	
2025-01-07 07:39:09.63	35.68	20.31	
2025-01-07 07:39:10.86	35.86	20.47	
2025-01-07 07:39:12.10	36.04	20.63	
2025-01-07 07:39:13.33	36.23	20.79	
2025-01-07 07:39:14.56	36.41	20.95	
2025-01-07 07:39:15.79	36.60	21.11	
2025-01-07 07:39:17.03	36.79	21.27	
2025-01-07 07:39:18.27	36.98	21.44	
2025-01-07 07:39:19.50	37.18	21.60	
2025-01-07 07:39:20.73	37.37	21.77	
2025-01-07 07:39:21.98	37.57	21.94	
2025-01-07 07:39:23.21	37.77	22.10	
2025-01-07 07:39:24.44	37.97	22.27	
2025-01-07 07:39:25.68	38.18	22.44	
2025-01-07 07:39:26.92	38.39	22.61	
2025-01-07 07:39:28.15	38.60	22.78	
2025-01-07 07:39:29.38	38.81	22.95	
2025-01-07 07:39:30.62	39.03	23.12	
2025-01-07 07:39:31.85	39.24	23.30	
2025-01-07 07:39:33.08	39.46	23.47	
2025-01-07 07:39:34.32	39.68	23.65	
2025-01-07 07:39:35.55	39.91	23.82	
2025-01-07 07:39:36.78	40.13	24.00	
2025-01-07 07:39:38.01	40.36	24.18	
2025-01-07 07:39:39.24	40.59	24.35	
2025-01-07 07:39:40.48	40.83	24.53	
2025-01-07 07:39:41.71	41.07	24.71	
2025-01-07 07:39:42.96	41.31	24.90	
2025-01-07 07:39:44.19	41.55	25.08	
2025-01-07 07:39:45.42	41.80	25.26	
2025-01-07 07:39:46.65	42.05	25.44	
2025-01-07 07:39:47.88	42.30	25.63	
2025-01-07 07:39:49.11	42.55	25.81	
2025-01-07 07:39:50.34	42.81	26.00	
2025-01-07 07:39:51.57	43.07	26.18	
2025-01-07 07:39:52.80	43.33	26.37	
2025-01-07 07:39:54.05	43.61	26.56	
2025-01-07 07:39:55.29	43.88	26.75	
2025-01-07 07:39:56.54	44.16	26.94	
2025-01-07 07:39:57.78	44.44	27.14	
2025-01-07 07:39:59.00	44.71	27.33	
2025-01-07 07:40:00.24	45.00	27.52	
2025-01-07 07:40:01.49	45.29	27.71	
2025-01-07 07:40:02.72	45.58	27.91	
2025-01-07 07:40:03.95	45.88	28.10	
2025-01-07 07:40:05.18	46.17	28.30	
2025-01-07 07:40:06.41	46.48	28.49	
2025-01-07 07:40:07.64	46.78	28.69	
2025-01-07 07:40:08.88	47.09	28.89	
2025-01-07 07:40:10.11	47.41	29.08	
2025-01-07 07:40:11.34	47.72	29.28	
2025-01-07 07:40:12.57	48.04	29.48	
2025-01-07 07:40:13.80	48.37	29.68	
2025-01-07 07:40:15.04	48.70	29.88	
2025-01-07 07:40:16.27	49.03	30.08	
2025-01-07 07:40:17.50	49.37	30.28	
2025-01-07 07:40:18.73	49.71	30.48	
2025-01-07 07:40:19.96	50.06	30.68	
2025-01-07 07:40:21.19	50.41	30.88	
2025-01-07 07:40:22.42	50.77	31.08	
2025-01-07 07:40:23.65	51.13	31.29	
2025-01-07 07:40:24.88	51.49	31.49	
2025-01-07 07:40:26.11	51.86	31.69	
2025-01-07 07:40:27.34	52.23	31.90	
2025-01-07 07:40:28.57	52.61	32.10	
2025-01-07 07:40:29.80	53.00	32.30	
2025-01-07 07:40:31.03	53.38	32.51	
2025-01-07 07:40:32.26	53.78	32.71	
2025-01-07 07:40:33.50	54.18	32.92	
2025-01-07 07:40:34.73	54.58	33.12	
2025-01-07 07:40:35.96	54.99	33.32	
2025-01-07 07:40:37.19	55.40	33.53	
2025-01-07 07:40:38.42	55.82	33.73	
2025-01-07 07:40:39.65	56.25	33.93	
2025-01-07 07:40:40.90	56.69	34.14	
2025-01-07 07:40:42.13	57.12	34.34	
2025-01-07 07:40:43.38	57.57	34.55	
2025-01-07 07:40:44.62	58.02	34.75	
2025-01-07 07:40:45.85	58.47	34.95	
2025-01-07 07:40:47.07	58.93	35.15	
2025-01-07 07:40:48.32	59.40	35.35	
2025-01-07 07:40:49.55	59.87	35.55	
2025-01-07 07:40:50.78	60.34	35.75	
2025-01-07 07:40:52.02	60.83	35.95	
2025-01-07 07:40:53.26	61.32	36.15	
2025-01-07 07:40:54.49	61.81	36.35	
2025-01-07 07:40:55.72	62.31	36.54	
2025-01-07 07:40:56.96	62.82	36.74	
2025-01-07 07:40:58.19	63.33	36.93	
2025-01-07 07:40:59.45	63.86	37.12	
2025-01-07 07:41:00.68	64.39	37.31	
2025-01-07 07:41:01.91	64.92	37.50	
2025-01-07 07:41:03.15	65.46	37.69	
2025-01-07 07:41:04.39	66.00	37.88	
2025-01-07 07:41:05.64	66.56	38.06	
2025-01-07 07:41:06.87	67.12	38.24	
2025-01-07 07:41:08.10	67.68	38.42	
2025-01-07 07:41:09.33	68.25	38.60	
2025-01-07 07:41:10.57	68.82	38.78	
2025-01-07 07:41:11.80	69.40	38.95	
2025-01-07 07:41:13.03	69.99	39.12	
2025-01-07 07:41:14.27	70.59	39.29	
2025-01-07 07:41:15.50	71.19	39.46	
2025-01-07 07:41:16.73	71.79	39.62	
2025-01-07 07:41:17.97	72.41	39.78	
2025-01-07 07:41:19.20	73.03	39.94	
2025-01-07 07:41:20.43	73.65	40.09	
2025-01-07 07:41:21.68	74.29	40.25	
2025-01-07 07:41:22.90	74.92	40.39	
2025-01-07 07:41:24.14	75.57	40.54	
2025-01-07 07:41:25.37	76.21	40.68	
2025-01-07 07:41:26.61	76.87	40.82	
2025-01-07 07:41:27.84	77.53	40.96	
2025-01-07 07:41:29.08	78.20	41.09	
2025-01-07 07:41:30.31	78.87	41.22	
2025-01-07 07:41:31.56	79.55	41.34	
2025-01-07 07:41:32.79	80.23	41.46	
2025-01-07 07:41:34.02	80.92	41.58	
2025-01-07 07:41:35.25	81.61	41.69	
2025-01-07 07:41:36.49	82.31	41.80	
2025-01-07 07:41:37.74	83.02	41.90	
2025-01-07 07:41:38.96	83.72	42.00	
2025-01-07 07:41:40.19	84.43	42.10	
2025-01-07 07:41:41.43	85.15	42.19	
2025-01-07 07:41:42.66	85.86	42.27	
2025-01-07 07:41:43.89	86.58	42.35	
2025-01-07 07:41:45.12	87.30	42.43	
2025-01-07 07:41:46.36	88.04	42.50	
2025-01-07 07:41:47.59	88.77	42.56	
2025-01-07 07:41:48.82	89.50	42.63	
2025-01-07 07:41:50.06	90.24	42.68	
2025-01-07 07:41:51.30	90.99	42.73	
2025-01-07 07:41:52.54	91.73	42.78	
2025-01-07 07:41:53.77	92.48	42.82	
2025-01-07 07:41:55.02	93.23	42.86	
2025-01-07 07:41:56.25	93.98	42.89	
2025-01-07 07:41:57.49	94.73	42.91	
2025-01-07 07:41:58.72	95.48	42.93	
2025-01-07 07:41:59.96	96.24	42.95	
2025-01-07 07:42:01.19	96.99	42.96	
2025-01-07 07:42:02.42	97.74	42.96	
2025-01-07 07:42:03.65	98.49	42.96	
2025-01-07 07:42:04.88	99.24	42.95	
2025-01-07 07:42:06.11	99.99	42.94	
2025-01-07 07:42:07.34	100.73	42.92	
2025-01-07 07:42:08.57	101.48	42.90	
2025-01-07 07:42:09.80	102.23	42.87	
2025-01-07 07:42:11.05	102.99	42.84	
2025-01-07 07:42:12.28	103.73	42.80	
2025-01-07 07:42:13.51	104.47	42.75	
2025-01-07 07:42:14.74	105.21	42.71	
2025-01-07 07:42:15.97	105.95	42.65	
2025-01-07 07:42:17.22	106.70	42.59	
2025-01-07 07:42:18.45	107.43	42.53	
2025-01-07 07:42:19.69	108.16	42.46	
2025-01-07 07:42:20.92	108.89	42.38	
2025-01-07 07:42:22.16	109.62	42.30	
2025-01-07 07:42:23.39	110.34	42.22	
2025-01-07 07:42:24.62	111.05	42.13	
2025-01-07 07:42:25.85	111.76	42.04	
2025-01-07 07:42:27.08	112.47	41.94	
2025-01-07 07:42:28.31	113.17	41.84	
2025-01-07 07:42:29.55	113.87	41.74	
2025-01-07 07:42:30.78	114.57	41.62	
2025-01-07 07:42:32.01	115.26	41.51	
2025-01-07 07:42:33.24	115.94	41.39	
2025-01-07 07:42:34.47	116.62	41.27	
2025-01-07 07:42:35.70	117.29	41.14	
2025-01-07 07:42:36.93	117.96	41.01	
2025-01-07 07:42:38.18	118.63	40.88	
2025-01-07 07:42:39.42	119.29	40.74	
2025-01-07 07:42:40.65	119.94	40.60	
2025-01-07 07:42:41.88	120.59	40.45	
2025-01-07 07:42:43.11	121.23	40.31	
2025-01-07 07:42:44.35	121.87	40.15	
2025-01-07 07:42:45.59	122.50	40.00	
2025-01-07 07:42:46.82	123.12	39.84	
2025-01-07 07:42:48.05	123.74	39.68	
2025-01-07 07:42:49.28	124.35	39.52	
2025-01-07 07:42:50.53	124.96	39.35	
2025-01-07 07:42:51.76	125.56	39.18	
2025-01-07 07:42:52.99	126.15	39.01	
2025-01-07 07:42:54.22	126.73	38.84	
2025-01-07 07:42:55.46	127.31	38.66	
2025-01-07 07:42:56.70	127.89	38.49	
2025-01-07 07:42:57.94	128.46	38.31	
2025-01-07 07:42:59.16	129.02	38.13	
2025-01-07 07:43:00.40	129.57	37.94	
2025-01-07 07:43:01.63	130.12	37.76	
2025-01-07 07:43:02.87	130.66	37.57	
2025-01-07 07:43:04.10	131.20	37.38	
2025-01-07 07:43:05.34	131.73	37.19	
2025-01-07 07:43:06.56	132.25	37.00	
2025-01-07 07:43:07.80	132.77	36.80	
2025-01-07 07:43:09.03	133.28	36.61	
2025-01-07 07:43:10.28	133.79	36.41	
2025-01-07 07:43:11.51	134.29	36.22	
2025-01-07 07:43:12.74	134.78	36.02	
2025-01-07 07:43:13.98	135.27	35.82	
2025-01-07 07:43:15.22	135.75	35.62	
2025-01-07 07:43:16.45	136.22	35.42	
2025-01-07 07:43:17.68	136.69	35.22	
2025-01-07 07:43:18.91	137.15	35.02	
2025-01-07 07:43:20.15	137.61	34.81	
2025-01-07 07:43:21.39	138.07	34.61	
2025-01-07 07:43:22.63	138.52	34.40	
2025-01-07 07:43:23.86	138.95	34.20	
2025-01-07 07:43:25.10	139.39	33.99	
2025-01-07 07:43:26.33	139.82	33.79	
2025-01-07 07:43:27.57	140.25	33.58	
2025-01-07 07:43:28.80	140.66	33.38	
2025-01-07 07:43:30.02	141.07	33.18	
2025-01-07 07:43:31.26	141.48	32.97	
2025-01-07 07:43:32.49	141.88	32.77	
2025-01-07 07:43:33.74	142.29	32.56	
2025-01-07 07:43:34.98	142.68	32.35	
2025-01-07 07:43:36.22	143.07	32.14	
2025-01-07 07:43:37.45	143.45	31.94	
2025-01-07 07:43:38.68	143.83	31.74	
2025-01-07 07:43:39.91	144.20	31.53	
2025-01-07 07:43:41.14	144.57	31.33	
2025-01-07 07:43:42.38	144.93	31.12	
2025-01-07 07:43:43.61	145.29	30.92	
2025-01-07 07:43:44.84	145.65	30.72	
2025-01-07 07:43:46.09	146.00	30.51	
2025-01-07 07:43:47.32	146.34	30.31	
2025-01-07 07:43:48.55	146.69	30.11	
2025-01-07 07:43:49.79	147.02	29.90	
2025-01-07 07:43:51.02	147.36	29.70	
2025-01-07 07:43:52.25	147.68	29.50	
2025-01-07 07:43:53.50	148.01	29.30	
2025-01-07 07:43:54.74	148.33	29.10	
2025-01-07 07:43:55.97	148.65	28.90	
2025-01-07 07:43:57.20	148.96	28.70	
2025-01-07 07:43:58.43	149.27	28.50	
2025-01-07 07:43:59.66	149.57	28.31	
2025-01-07 07:44:00.89	149.87	28.11	
2025-01-07 07:44:02.14	150.17	27.91	
2025-01-07 07:44:03.36	150.46	27.72	
2025-01-07 07:44:04.60	150.75	27.52	
2025-01-07 07:44:05.83	151.04	27.33	
2025-01-07 07:44:07.07	151.32	27.14	
2025-01-07 07:44:08.30	151.60	26.95	
2025-01-07 07:44:09.54	151.88	26.75	
2025-01-07 07:44:10.77	152.15	26.56	
2025-01-07 07:44:12.00	152.42	26.37	
2025-01-07 07:44:13.24	152.69	26.18	
2025-01-07 07:44:14.48	152.95	25.99	
2025-01-07 07:44:15.71	153.21	25.81	
2025-01-07 07:44:16.94	153.47	25.62	
2025-01-07 07:44:18.18	153.72	25.43	
2025-01-07 07:44:19.42	153.97	25.25	
2025-01-07 07:44:20.65	154.22	25.07	
2025-01-07 07:44:21.88	154.46	24.88	
2025-01-07 07:44:23.12	154.71	24.70	
2025-01-07 07:44:24.36	154.95	24.52	
2025-01-07 07:44:25.58	155.18	24.34	
2025-01-07 07:44:26.81	155.41	24.16	
2025-01-07 07:44:28.04	155.64	23.98	
2025-01-07 07:44:29.28	155.87	23.80	
2025-01-07 07:44:30.51	156.10	23.62	
2025-01-07 07:44:31.74	156.32	23.45	
2025-01-07 07:44:32.97	156.54	23.27	
2025-01-07 07:44:34.22	156.76	23.10	
2025-01-07 07:44:35.46	156.98	22.92	
2025-01-07 07:44:36.69	157.19	22.75	
2025-01-07 07:44:37.92	157.40	22.58	
2025-01-07 07:44:39.15	157.61	22.41	
2025-01-07 07:44:40.38	157.81	22.24	
2025-01-07 07:44:41.62	158.02	22.07	
2025-01-07 07:44:42.85	158.22	21.90	
2025-01-07 07:44:44.09	158.42	21.73	
2025-01-07 07:44:45.32	158.62	21.57	
2025-01-07 07:44:46.55	158.81	21.40	
2025-01-07 07:44:47.78	159.00	21.24	
2025-01-07 07:44:49.01	159.19	21.07	
2025-01-07 07:44:50.24	159.38	20.91	
2025-01-07 07:44:51.48	159.57	20.75	
2025-01-07 07:44:52.72	159.76	20.58	
2025-01-07 07:44:53.95	159.94	20.42	
2025-01-07 07:44:55.19	160.12	20.26	
2025-01-07 07:44:56.42	160.30	20.11	
2025-01-07 07:44:57.65	160.47	19.95	
2025-01-07 07:44:58.88	160.65	19.79	
2025-01-07 07:45:00.11	160.82	19.63	
2025-01-07 07:45:01.34	160.99	19.48	
2025-01-07 07:45:02.58	161.16	19.32	
2025-01-07 07:45:03.83	161.33	19.17	
2025-01-07 07:45:05.06	161.50	19.02	
2025-01-07 07:45:06.29	161.66	18.86	
2025-01-07 07:45:07.52	161.83	18.71	
2025-01-07 07:45:08.75	161.99	18.56	
2025-01-07 07:45:09.98	162.15	18.41	
2025-01-07 07:45:11.22	162.30	18.26	
2025-01-07 07:45:12.45	162.46	18.11	
2025-01-07 07:45:13.69	162.62	17.97	
2025-01-07 07:45:14.93	162.77	17.82	
2025-01-07 07:45:16.16	162.92	17.67	
2025-01-07 07:45:17.39	163.07	17.53	
2025-01-07 07:45:18.63	163.22	17.38	
2025-01-07 07:45:19.86	163.37	17.24	
2025-01-07 07:45:21.09	163.51	17.10	
2025-01-07 07:45:22.33	163.66	16.95	
2025-01-07 07:45:23.56	163.80	16.81	
2025-01-07 07:45:24.79	163.94	16.67	
2025-01-07 07:45:26.02	164.08	16.53	
2025-01-07 07:45:27.26	164.22	16.39	
2025-01-07 07:45:28.49	164.36	16.25	
2025-01-07 07:45:29.74	164.50	16.12	
2025-01-07 07:45:30.97	164.64	15.98	
2025-01-07 07:45:32.21	164.77	15.84	
2025-01-07 07:45:33.44	164.90	15.71	
2025-01-07 07:45:34.68	165.03	15.57	
2025-01-07 07:45:35.92	165.17	15.44	
2025-01-07 07:45:37.16	165.30	15.30	
2025-01-07 07:45:38.38	165.42	15.17	
2025-01-07 07:45:39.62	165.55	15.04	
2025-01-07 07:45:40.85	165.67	14.91	
2025-01-07 07:45:42.08	165.80	14.77	
2025-01-07 07:45:43.33	165.92	14.64	
2025-01-07 07:45:44.57	166.05	14.51	
2025-01-07 07:45:45.80	166.17	14.38	
2025-01-07 07:45:47.04	166.29	14.25	
2025-01-07 07:45:48.29	166.41	14.13	
2025-01-07 07:45:49.52	166.53	14.00	
2025-01-07 07:45:50.75	166.64	13.87	
2025-01-07 07:45:51.99	166.76	13.75	
2025-01-07 07:45:53.22	166.88	13.62	
2025-01-07 07:45:54.45	166.99	13.50	
2025-01-07 07:45:55.68	167.10	13.37	
2025-01-07 07:45:56.93	167.22	13.25	
2025-01-07 07:45:58.16	167.33	13.13	
2025-01-07 07:45:59.39	167.44	13.00	
2025-01-07 07:46:00.62	167.54	12.88	
2025-01-07 07:46:01.85	167.65	12.76	
2025-01-07 07:46:03.10	167.76	12.64	
2025-01-07 07:46:04.34	167.87	12.52	
2025-01-07 07:46:05.58	167.98	12.40	
2025-01-07 07:46:06.81	168.08	12.28	
2025-01-07 07:46:08.04	168.18	12.16	
2025-01-07 07:46:09.27	168.29	12.05	
2025-01-07 07:46:10.50	168.39	11.93	
2025-01-07 07:46:11.73	168.49	11.81	
2025-01-07 07:46:12.96	168.59	11.70	
2025-01-07 07:46:14.19	168.69	11.58	
2025-01-07 07:46:15.44	168.79	11.47	
2025-01-07 07:46:16.67	168.89	11.35	
2025-01-07 07:46:17.90	168.98	11.24	
2025-01-07 07:46:19.15	169.08	11.12	
2025-01-07 07:46:20.38	169.18	11.01	
2025-01-07 07:46:21.61	169.27	10.90	
2025-01-07 07:46:22.84	169.37	10.79	
2025-01-07 07:46:24.07	169.46	10.68	
2025-01-07 07:46:25.30	169.55	10.57	
2025-01-07 07:46:26.56	169.65	10.45	
2025-01-07 07:46:27.80	169.74	10.34	
2025-01-07 07:46:29.03	169.83	10.24	
2025-01-07 07:46:30.27	169.92	10.13	
2025-01-07 07:46:31.50	170.01	10.02	
2025-01-07 07:46:32.73	170.10	9.91	
2025-01-07 07:46:33.97	170.19	9.80	
2025-01-07 07:46:35.20	170.27	9.70	
2025-01-07 07:46:36.43	170.36	9.59	
2025-01-07 07:46:37.66	170.45	9.48	
2025-01-07 07:46:38.89	170.53	9.38	
2025-01-07 07:46:40.12	170.62	9.27	
2025-01-07 07:46:41.35	170.70	9.17	
2025-01-07 07:46:42.59	170.78	9.06	
2025-01-07 07:46:43.82	170.87	8.96	
2025-01-07 07:46:45.05	170.95	8.86	
2025-01-07 07:46:46.29	171.03	8.75	
2025-01-07 07:46:47.53	171.11	8.65	
2025-01-07 07:46:48.77	171.19	8.55	
2025-01-07 07:46:50.00	171.27	8.45	
2025-01-07 07:46:51.24	171.35	8.34	
2025-01-07 07:46:52.48	171.43	8.24	
2025-01-07 07:46:53.71	171.51	8.14	
2025-01-07 07:46:54.94	171.59	8.04	
2025-01-07 07:46:56.17	171.66	7.94	
2025-01-07 07:46:57.40	171.74	7.85	
2025-01-07 07:46:58.63	171.82	7.75	
2025-01-07 07:46:59.88	171.89	7.65	
2025-01-07 07:47:01.11	171.97	7.55	
2025-01-07 07:47:02.34	172.04	7.45	
2025-01-07 07:47:03.57	172.12	7.35	
2025-01-07 07:47:04.80	172.19	7.26	
2025-01-07 07:47:06.03	172.26	7.16	
2025-01-07 07:47:07.26	172.34	7.07	
2025-01-07 07:47:08.51	172.41	6.97	
2025-01-07 07:47:09.74	172.48	6.87	
2025-01-07 07:47:10.97	172.55	6.78	
2025-01-07 07:47:12.20	172.62	6.68	
2025-01-07 07:47:13.42	172.69	6.59	
2025-01-07 07:47:14.66	172.76	6.50	
2025-01-07 07:47:15.89	172.83	6.40	
2025-01-07 07:47:17.14	172.90	6.31	
2025-01-07 07:47:18.37	172.97	6.21	
2025-01-07 07:47:19.60	173.04	6.12	
2025-01-07 07:47:20.83	173.10	6.03	
2025-01-07 07:47:22.08	173.17	5.94	
2025-01-07 07:47:23.31	173.24	5.85	
2025-01-07 07:47:24.54	173.30	5.75	
2025-01-07 07:47:25.77	173.37	5.66	
2025-01-07 07:47:27.02	173.44	5.57	
2025-01-07 07:47:28.25	173.50	5.48	
2025-01-07 07:47:29.48	173.56	5.39	
2025-01-07 07:47:30.71	173.63	5.30	
2025-01-07 07:47:31.95	173.69	5.21	
2025-01-07 07:47:33.18	173.76	5.12	
2025-01-07 07:47:34.42	173.82	5.03	
2025-01-07 07:47:35.65	173.88	4.95	
2025-01-07 07:47:36.88	173.94	4.86	
2025-01-07 07:47:38.13	174.01	4.77	
2025-01-07 07:47:39.36	174.07	4.68	
2025-01-07 07:47:40.60	174.13	4.59	
2025-01-07 07:47:41.83	174.19	4.51	
2025-01-07 07:47:43.06	174.25	4.42	
2025-01-07 07:47:44.29	174.31	4.33	
2025-01-07 07:47:45.52	174.37	4.25	
2025-01-07 07:47:46.76	174.43	4.16	
2025-01-07 07:47:47.99	174.49	4.08	

#Closed at: 2025-01-07 07:47:49