passes_logs/2025/01/07/SPB_Silybum_02/SPB_Silybum_02__20250107_111201_AQUA_rec.log

#Pass ID: 20250107_111201_AQUA
#Satellite: AQUA
#Configuration: AQUA
#Start time: 2025-01-07 11:12:00

#Version: 2.0.20230423
#Station: SPB_Silybum_02
#Location: 30.233357 lon 59.946436 lat
#TLE: 1 27424U 02022A   25006.84785145  .00002945  00000+0  61491-3 0  9993
#TLE: 2 27424  98.3576 323.4392 0001407 119.3107 268.2761 14.60650503206436

#Time	Az	El	Level	Level2	SNR	BER	Gain	Gain2
2025-01-07 11:12:02.93	155.13	4.09	
2025-01-07 11:12:04.17	155.12	4.18	
2025-01-07 11:12:05.40	155.12	4.27	
2025-01-07 11:12:06.63	155.11	4.36	
2025-01-07 11:12:07.86	155.10	4.45	
2025-01-07 11:12:09.10	155.09	4.54	
2025-01-07 11:12:10.33	155.09	4.63	
2025-01-07 11:12:11.57	155.08	4.72	
2025-01-07 11:12:12.80	155.07	4.82	
2025-01-07 11:12:14.05	155.06	4.91	
2025-01-07 11:12:15.29	155.05	5.00	
2025-01-07 11:12:16.54	155.05	5.10	
2025-01-07 11:12:17.78	155.04	5.19	
2025-01-07 11:12:19.01	155.03	5.28	
2025-01-07 11:12:20.25	155.02	5.38	
2025-01-07 11:12:21.48	155.01	5.47	
2025-01-07 11:12:22.71	155.00	5.57	
2025-01-07 11:12:23.94	155.00	5.66	
2025-01-07 11:12:25.19	154.99	5.76	
2025-01-07 11:12:26.43	154.98	5.85	
2025-01-07 11:12:27.66	154.97	5.95	
2025-01-07 11:12:28.90	154.96	6.05	
2025-01-07 11:12:30.15	154.95	6.15	
2025-01-07 11:12:31.38	154.94	6.24	
2025-01-07 11:12:32.61	154.93	6.34	
2025-01-07 11:12:33.84	154.92	6.44	
2025-01-07 11:12:35.07	154.91	6.54	
2025-01-07 11:12:36.30	154.90	6.64	
2025-01-07 11:12:37.53	154.89	6.73	
2025-01-07 11:12:38.76	154.89	6.83	
2025-01-07 11:12:39.99	154.88	6.93	
2025-01-07 11:12:41.23	154.87	7.04	
2025-01-07 11:12:42.47	154.86	7.14	
2025-01-07 11:12:43.70	154.85	7.24	
2025-01-07 11:12:44.94	154.83	7.34	
2025-01-07 11:12:46.17	154.82	7.44	
2025-01-07 11:12:47.40	154.81	7.55	
2025-01-07 11:12:48.63	154.80	7.65	
2025-01-07 11:12:49.86	154.79	7.75	
2025-01-07 11:12:51.09	154.78	7.86	
2025-01-07 11:12:52.33	154.77	7.96	
2025-01-07 11:12:53.56	154.76	8.07	
2025-01-07 11:12:54.79	154.75	8.17	
2025-01-07 11:12:56.03	154.74	8.28	
2025-01-07 11:12:57.28	154.73	8.39	
2025-01-07 11:12:58.53	154.72	8.50	
2025-01-07 11:12:59.76	154.70	8.61	
2025-01-07 11:13:00.99	154.69	8.71	
2025-01-07 11:13:02.22	154.68	8.82	
2025-01-07 11:13:03.46	154.67	8.93	
2025-01-07 11:13:04.69	154.66	9.04	
2025-01-07 11:13:05.92	154.64	9.15	
2025-01-07 11:13:07.16	154.63	9.27	
2025-01-07 11:13:08.38	154.62	9.38	
2025-01-07 11:13:09.62	154.61	9.49	
2025-01-07 11:13:10.85	154.59	9.60	
2025-01-07 11:13:12.09	154.58	9.72	
2025-01-07 11:13:13.32	154.57	9.83	
2025-01-07 11:13:14.57	154.55	9.94	
2025-01-07 11:13:15.80	154.54	10.06	
2025-01-07 11:13:17.03	154.53	10.18	
2025-01-07 11:13:18.26	154.51	10.29	
2025-01-07 11:13:19.49	154.50	10.41	
2025-01-07 11:13:20.73	154.49	10.53	
2025-01-07 11:13:21.96	154.47	10.64	
2025-01-07 11:13:23.19	154.46	10.76	
2025-01-07 11:13:24.42	154.44	10.88	
2025-01-07 11:13:25.65	154.43	11.00	
2025-01-07 11:13:26.88	154.42	11.12	
2025-01-07 11:13:28.11	154.40	11.24	
2025-01-07 11:13:29.35	154.39	11.37	
2025-01-07 11:13:30.58	154.37	11.49	
2025-01-07 11:13:31.81	154.36	11.61	
2025-01-07 11:13:33.05	154.34	11.74	
2025-01-07 11:13:34.28	154.32	11.86	
2025-01-07 11:13:35.51	154.31	11.99	
2025-01-07 11:13:36.74	154.29	12.11	
2025-01-07 11:13:37.99	154.28	12.24	
2025-01-07 11:13:39.22	154.26	12.37	
2025-01-07 11:13:40.45	154.24	12.50	
2025-01-07 11:13:41.68	154.23	12.63	
2025-01-07 11:13:42.91	154.21	12.76	
2025-01-07 11:13:44.14	154.19	12.89	
2025-01-07 11:13:45.37	154.17	13.02	
2025-01-07 11:13:46.60	154.16	13.15	
2025-01-07 11:13:47.84	154.14	13.28	
2025-01-07 11:13:49.08	154.12	13.42	
2025-01-07 11:13:50.33	154.10	13.55	
2025-01-07 11:13:51.56	154.08	13.69	
2025-01-07 11:13:52.79	154.07	13.83	
2025-01-07 11:13:54.02	154.05	13.96	
2025-01-07 11:13:55.26	154.03	14.10	
2025-01-07 11:13:56.48	154.01	14.24	
2025-01-07 11:13:57.71	153.99	14.38	
2025-01-07 11:13:58.94	153.97	14.52	
2025-01-07 11:14:00.19	153.95	14.66	
2025-01-07 11:14:01.43	153.93	14.81	
2025-01-07 11:14:02.66	153.91	14.95	
2025-01-07 11:14:03.89	153.89	15.09	
2025-01-07 11:14:05.12	153.87	15.24	
2025-01-07 11:14:06.35	153.85	15.38	
2025-01-07 11:14:07.58	153.82	15.53	
2025-01-07 11:14:08.81	153.80	15.68	
2025-01-07 11:14:10.05	153.78	15.83	
2025-01-07 11:14:11.28	153.76	15.98	
2025-01-07 11:14:12.51	153.74	16.13	
2025-01-07 11:14:13.75	153.71	16.28	
2025-01-07 11:14:14.99	153.69	16.44	
2025-01-07 11:14:16.22	153.67	16.59	
2025-01-07 11:14:17.45	153.64	16.75	
2025-01-07 11:14:18.69	153.62	16.90	
2025-01-07 11:14:19.92	153.59	17.06	
2025-01-07 11:14:21.15	153.57	17.22	
2025-01-07 11:14:22.39	153.54	17.38	
2025-01-07 11:14:23.62	153.52	17.54	
2025-01-07 11:14:24.86	153.49	17.70	
2025-01-07 11:14:26.09	153.47	17.87	
2025-01-07 11:14:27.33	153.44	18.03	
2025-01-07 11:14:28.57	153.41	18.20	
2025-01-07 11:14:29.82	153.39	18.37	
2025-01-07 11:14:31.05	153.36	18.54	
2025-01-07 11:14:32.28	153.33	18.71	
2025-01-07 11:14:33.51	153.30	18.88	
2025-01-07 11:14:34.75	153.27	19.05	
2025-01-07 11:14:35.97	153.25	19.22	
2025-01-07 11:14:37.20	153.22	19.40	
2025-01-07 11:14:38.44	153.19	19.57	
2025-01-07 11:14:39.67	153.16	19.75	
2025-01-07 11:14:40.90	153.13	19.93	
2025-01-07 11:14:42.13	153.10	20.11	
2025-01-07 11:14:43.36	153.06	20.29	
2025-01-07 11:14:44.60	153.03	20.48	
2025-01-07 11:14:45.83	153.00	20.66	
2025-01-07 11:14:47.06	152.97	20.85	
2025-01-07 11:14:48.29	152.93	21.03	
2025-01-07 11:14:49.53	152.90	21.22	
2025-01-07 11:14:46.18	152.99	20.71	
2025-01-07 11:14:47.41	152.96	20.90	
2025-01-07 11:14:48.64	152.93	21.09	
2025-01-07 11:14:49.88	152.89	21.28	
2025-01-07 11:14:51.11	152.86	21.47	
2025-01-07 11:14:52.34	152.82	21.66	
2025-01-07 11:14:53.57	152.79	21.85	
2025-01-07 11:14:54.81	152.75	22.05	
2025-01-07 11:14:56.05	152.71	22.25	
2025-01-07 11:14:57.28	152.68	22.45	
2025-01-07 11:14:58.52	152.64	22.65	
2025-01-07 11:14:59.75	152.60	22.85	
2025-01-07 11:15:00.98	152.56	23.06	
2025-01-07 11:15:02.21	152.52	23.26	
2025-01-07 11:15:03.44	152.48	23.47	
2025-01-07 11:15:04.68	152.44	23.68	
2025-01-07 11:15:05.92	152.40	23.89	
2025-01-07 11:15:07.15	152.36	24.11	
2025-01-07 11:15:08.38	152.32	24.32	
2025-01-07 11:15:09.61	152.28	24.54	
2025-01-07 11:15:10.84	152.23	24.76	
2025-01-07 11:15:12.07	152.19	24.98	
2025-01-07 11:15:13.31	152.14	25.20	
2025-01-07 11:15:14.54	152.10	25.43	
2025-01-07 11:15:15.77	152.05	25.65	
2025-01-07 11:15:17.01	152.00	25.88	
2025-01-07 11:15:18.24	151.96	26.12	
2025-01-07 11:15:19.48	151.91	26.35	
2025-01-07 11:15:20.71	151.86	26.59	
2025-01-07 11:15:21.94	151.81	26.82	
2025-01-07 11:15:23.17	151.76	27.06	
2025-01-07 11:15:24.42	151.70	27.31	
2025-01-07 11:15:25.66	151.65	27.55	
2025-01-07 11:15:26.90	151.60	27.80	
2025-01-07 11:15:28.14	151.54	28.05	
2025-01-07 11:15:29.38	151.48	28.31	
2025-01-07 11:15:30.63	151.43	28.57	
2025-01-07 11:15:31.86	151.37	28.82	
2025-01-07 11:15:33.09	151.31	29.08	
2025-01-07 11:15:34.32	151.25	29.34	
2025-01-07 11:15:35.56	151.19	29.61	
2025-01-07 11:15:36.79	151.13	29.87	
2025-01-07 11:15:38.02	151.06	30.14	
2025-01-07 11:15:39.25	151.00	30.42	
2025-01-07 11:15:40.48	150.93	30.69	
2025-01-07 11:15:41.71	150.87	30.97	
2025-01-07 11:15:42.94	150.80	31.25	
2025-01-07 11:15:44.18	150.73	31.53	
2025-01-07 11:15:45.43	150.66	31.82	
2025-01-07 11:15:46.67	150.58	32.12	
2025-01-07 11:15:47.90	150.51	32.41	
2025-01-07 11:15:49.13	150.44	32.70	
2025-01-07 11:15:50.36	150.36	33.00	
2025-01-07 11:15:51.59	150.28	33.30	
2025-01-07 11:15:52.83	150.20	33.61	
2025-01-07 11:15:54.06	150.12	33.91	
2025-01-07 11:15:55.29	150.04	34.23	
2025-01-07 11:15:56.53	149.95	34.54	
2025-01-07 11:15:57.76	149.86	34.86	
2025-01-07 11:15:58.99	149.78	35.18	
2025-01-07 11:16:00.22	149.69	35.50	
2025-01-07 11:16:01.46	149.59	35.83	
2025-01-07 11:16:02.71	149.50	36.17	
2025-01-07 11:16:03.94	149.40	36.50	
2025-01-07 11:16:05.17	149.30	36.84	
2025-01-07 11:16:06.40	149.20	37.18	
2025-01-07 11:16:07.65	149.10	37.53	
2025-01-07 11:16:08.88	148.99	37.88	
2025-01-07 11:16:10.12	148.89	38.24	
2025-01-07 11:16:11.35	148.78	38.60	
2025-01-07 11:16:12.58	148.66	38.96	
2025-01-07 11:16:13.83	148.55	39.33	
2025-01-07 11:16:15.06	148.43	39.70	
2025-01-07 11:16:16.29	148.31	40.07	
2025-01-07 11:16:17.52	148.18	40.44	
2025-01-07 11:16:18.75	148.06	40.82	
2025-01-07 11:16:19.98	147.93	41.21	
2025-01-07 11:16:21.21	147.79	41.60	
2025-01-07 11:16:22.44	147.66	41.99	
2025-01-07 11:16:23.69	147.51	42.39	
2025-01-07 11:16:24.92	147.37	42.80	
2025-01-07 11:16:26.15	147.22	43.20	
2025-01-07 11:16:27.38	147.07	43.61	
2025-01-07 11:16:28.61	146.91	44.03	
2025-01-07 11:16:29.84	146.75	44.45	
2025-01-07 11:16:31.08	146.59	44.87	
2025-01-07 11:16:32.31	146.42	45.30	
2025-01-07 11:16:33.54	146.24	45.73	
2025-01-07 11:16:34.77	146.06	46.17	
2025-01-07 11:16:36.01	145.88	46.62	
2025-01-07 11:16:37.24	145.69	47.06	
2025-01-07 11:16:38.47	145.49	47.51	
2025-01-07 11:16:39.72	145.29	47.98	
2025-01-07 11:16:40.95	145.08	48.44	
2025-01-07 11:16:42.18	144.86	48.90	
2025-01-07 11:16:43.41	144.64	49.37	
2025-01-07 11:16:44.65	144.41	49.85	
2025-01-07 11:16:45.90	144.17	50.34	
2025-01-07 11:16:47.13	143.93	50.82	
2025-01-07 11:16:48.38	143.67	51.32	
2025-01-07 11:16:49.61	143.41	51.81	
2025-01-07 11:16:50.84	143.14	52.31	
2025-01-07 11:16:52.08	142.86	52.82	
2025-01-07 11:16:53.30	142.57	53.32	
2025-01-07 11:16:54.53	142.27	53.83	
2025-01-07 11:16:55.76	141.96	54.35	
2025-01-07 11:16:56.99	141.64	54.87	
2025-01-07 11:16:58.24	141.30	55.40	
2025-01-07 11:16:59.47	140.95	55.93	
2025-01-07 11:17:00.70	140.59	56.47	
2025-01-07 11:17:01.93	140.21	57.01	
2025-01-07 11:17:03.18	139.81	57.56	
2025-01-07 11:17:04.44	139.39	58.12	
2025-01-07 11:17:05.67	138.96	58.67	
2025-01-07 11:17:06.90	138.52	59.22	
2025-01-07 11:17:08.13	138.05	59.78	
2025-01-07 11:17:09.36	137.57	60.34	
2025-01-07 11:17:10.59	137.06	60.90	
2025-01-07 11:17:11.82	136.53	61.47	
2025-01-07 11:17:13.05	135.97	62.04	
2025-01-07 11:17:14.28	135.39	62.61	
2025-01-07 11:17:15.53	134.77	63.20	
2025-01-07 11:17:16.76	134.13	63.78	
2025-01-07 11:17:17.99	133.45	64.35	
2025-01-07 11:17:19.21	132.74	64.93	
2025-01-07 11:17:20.44	131.99	65.51	
2025-01-07 11:17:21.68	131.20	66.09	
2025-01-07 11:17:22.91	130.36	66.68	
2025-01-07 11:17:24.14	129.48	67.26	
2025-01-07 11:17:25.38	128.54	67.84	
2025-01-07 11:17:26.62	127.55	68.42	
2025-01-07 11:17:27.84	126.51	68.99	
2025-01-07 11:17:29.09	125.38	69.57	
2025-01-07 11:17:30.32	124.20	70.14	
2025-01-07 11:17:31.55	122.95	70.70	
2025-01-07 11:17:32.79	121.60	71.26	
2025-01-07 11:17:34.02	120.18	71.81	
2025-01-07 11:17:35.25	118.66	72.35	
2025-01-07 11:17:36.48	117.05	72.88	
2025-01-07 11:17:37.71	115.32	73.40	
2025-01-07 11:17:38.94	113.48	73.91	
2025-01-07 11:17:40.17	111.52	74.40	
2025-01-07 11:17:41.41	109.41	74.88	
2025-01-07 11:17:42.64	107.17	75.33	
2025-01-07 11:17:43.87	104.79	75.77	
2025-01-07 11:17:45.10	102.26	76.18	
2025-01-07 11:17:46.34	99.56	76.56	
2025-01-07 11:17:47.58	96.69	76.92	
2025-01-07 11:17:48.81	93.69	77.24	
2025-01-07 11:17:50.04	90.54	77.53	
2025-01-07 11:17:51.27	87.25	77.77	
2025-01-07 11:17:52.50	83.83	77.98	
2025-01-07 11:17:53.74	80.27	78.15	
2025-01-07 11:17:54.97	76.66	78.26	
2025-01-07 11:17:56.21	72.95	78.34	
2025-01-07 11:17:57.44	69.24	78.36	
2025-01-07 11:17:58.67	65.53	78.34	
2025-01-07 11:17:59.90	61.86	78.27	
2025-01-07 11:18:01.15	58.18	78.15	
2025-01-07 11:18:02.39	54.62	77.98	
2025-01-07 11:18:03.62	51.20	77.77	
2025-01-07 11:18:04.86	47.89	77.53	
2025-01-07 11:18:06.09	44.74	77.24	
2025-01-07 11:18:07.32	41.74	76.92	
2025-01-07 11:18:08.58	38.84	76.56	
2025-01-07 11:18:09.81	36.15	76.17	
2025-01-07 11:18:11.04	33.63	75.76	
2025-01-07 11:18:12.29	31.21	75.32	
2025-01-07 11:18:13.52	28.99	74.87	
2025-01-07 11:18:14.75	26.90	74.39	
2025-01-07 11:18:16.00	24.91	73.89	
2025-01-07 11:18:17.23	23.07	73.39	
2025-01-07 11:18:18.46	21.35	72.87	
2025-01-07 11:18:19.70	19.73	72.34	
2025-01-07 11:18:20.95	18.20	71.79	
2025-01-07 11:18:22.19	16.77	71.23	
2025-01-07 11:18:23.44	15.42	70.67	
2025-01-07 11:18:24.67	14.17	70.11	
2025-01-07 11:18:25.90	13.00	69.54	
2025-01-07 11:18:27.15	11.88	68.96	
2025-01-07 11:18:28.38	10.83	68.39	
2025-01-07 11:18:29.61	9.85	67.81	
2025-01-07 11:18:30.85	8.92	67.23	
2025-01-07 11:18:32.08	8.04	66.65	
2025-01-07 11:18:33.32	7.20	66.06	
2025-01-07 11:18:34.55	6.42	65.48	
2025-01-07 11:18:35.80	5.66	64.90	
2025-01-07 11:18:37.03	4.95	64.32	
2025-01-07 11:18:38.26	4.28	63.74	
2025-01-07 11:18:39.49	3.64	63.17	
2025-01-07 11:18:40.73	3.03	62.59	
2025-01-07 11:18:41.96	2.45	62.02	
2025-01-07 11:18:43.19	1.89	61.45	
2025-01-07 11:18:44.42	1.37	60.88	
2025-01-07 11:18:45.66	0.86	60.32	
2025-01-07 11:18:46.88	0.38	59.76	
2025-01-07 11:18:48.11	359.91	59.21	
2025-01-07 11:18:49.35	359.47	58.65	
2025-01-07 11:18:50.58	359.04	58.10	
2025-01-07 11:18:51.84	358.63	57.54	
2025-01-07 11:18:53.09	358.23	56.99	
2025-01-07 11:18:54.32	357.86	56.46	
2025-01-07 11:18:55.56	357.49	55.92	
2025-01-07 11:18:56.80	357.14	55.39	
2025-01-07 11:18:58.03	356.81	54.87	
2025-01-07 11:18:59.27	356.48	54.34	
2025-01-07 11:19:00.50	356.18	53.83	
2025-01-07 11:19:01.73	355.88	53.32	
2025-01-07 11:19:02.98	355.58	52.80	
2025-01-07 11:19:04.20	355.31	52.31	
2025-01-07 11:19:05.44	355.04	51.81	
2025-01-07 11:19:06.67	354.78	51.32	
2025-01-07 11:19:07.92	354.52	50.82	
2025-01-07 11:19:09.15	354.28	50.34	
2025-01-07 11:19:10.38	354.04	49.86	
2025-01-07 11:19:11.61	353.82	49.39	
2025-01-07 11:19:12.84	353.60	48.92	
2025-01-07 11:19:14.09	353.38	48.45	
2025-01-07 11:19:15.32	353.17	47.99	
2025-01-07 11:19:16.56	352.97	47.54	
2025-01-07 11:19:17.79	352.78	47.09	
2025-01-07 11:19:19.03	352.58	46.64	
2025-01-07 11:19:20.26	352.40	46.20	
2025-01-07 11:19:21.49	352.22	45.76	
2025-01-07 11:19:22.72	352.05	45.33	
2025-01-07 11:19:23.96	351.88	44.90	
2025-01-07 11:19:25.21	351.71	44.47	
2025-01-07 11:19:26.45	351.55	44.05	
2025-01-07 11:19:27.68	351.40	43.64	
2025-01-07 11:19:28.91	351.25	43.23	
2025-01-07 11:19:30.16	351.10	42.82	
2025-01-07 11:19:31.40	350.95	42.42	
2025-01-07 11:19:32.64	350.81	42.02	
2025-01-07 11:19:33.87	350.68	41.63	
2025-01-07 11:19:35.11	350.54	41.24	
2025-01-07 11:19:36.35	350.41	40.85	
2025-01-07 11:19:37.59	350.28	40.47	
2025-01-07 11:19:38.83	350.16	40.09	
2025-01-07 11:19:40.06	350.04	39.72	
2025-01-07 11:19:41.29	349.92	39.36	
2025-01-07 11:19:42.52	349.81	38.99	
2025-01-07 11:19:43.76	349.70	38.63	
2025-01-07 11:19:44.99	349.59	38.28	
2025-01-07 11:19:46.23	349.48	37.92	
2025-01-07 11:19:47.47	349.38	37.57	
2025-01-07 11:19:48.70	349.27	37.23	
2025-01-07 11:19:49.93	349.17	36.89	
2025-01-07 11:19:51.16	349.08	36.55	
2025-01-07 11:19:52.39	348.98	36.22	
2025-01-07 11:19:53.62	348.89	35.89	
2025-01-07 11:19:54.86	348.80	35.56	
2025-01-07 11:19:56.09	348.71	35.24	
2025-01-07 11:19:57.34	348.62	34.92	
2025-01-07 11:19:58.57	348.53	34.60	
2025-01-07 11:19:59.81	348.45	34.29	
2025-01-07 11:20:01.03	348.37	33.98	
2025-01-07 11:20:02.27	348.28	33.67	
2025-01-07 11:20:03.50	348.21	33.37	
2025-01-07 11:20:04.73	348.13	33.07	
2025-01-07 11:20:05.97	348.05	32.77	
2025-01-07 11:20:07.20	347.98	32.48	
2025-01-07 11:20:08.43	347.90	32.19	
2025-01-07 11:20:09.68	347.83	31.89	
2025-01-07 11:20:10.91	347.76	31.61	
2025-01-07 11:20:12.14	347.69	31.33	
2025-01-07 11:20:13.37	347.63	31.05	
2025-01-07 11:20:14.60	347.56	30.77	
2025-01-07 11:20:15.83	347.50	30.50	
2025-01-07 11:20:17.07	347.43	30.23	
2025-01-07 11:20:18.31	347.37	29.96	
2025-01-07 11:20:19.55	347.31	29.69	
2025-01-07 11:20:20.79	347.25	29.42	
2025-01-07 11:20:22.02	347.19	29.16	
2025-01-07 11:20:23.25	347.13	28.91	
2025-01-07 11:20:24.48	347.07	28.65	
2025-01-07 11:20:25.71	347.01	28.40	
2025-01-07 11:20:26.94	346.96	28.15	
2025-01-07 11:20:28.17	346.91	27.90	
2025-01-07 11:20:29.40	346.85	27.65	
2025-01-07 11:20:30.64	346.80	27.41	
2025-01-07 11:20:31.86	346.75	27.17	
2025-01-07 11:20:33.10	346.70	26.93	
2025-01-07 11:20:34.33	346.65	26.69	
2025-01-07 11:20:35.56	346.60	26.46	
2025-01-07 11:20:36.79	346.55	26.23	
2025-01-07 11:20:38.03	346.50	25.99	
2025-01-07 11:20:39.27	346.46	25.76	
2025-01-07 11:20:40.50	346.41	25.54	
2025-01-07 11:20:41.73	346.37	25.31	
2025-01-07 11:20:42.97	346.32	25.09	
2025-01-07 11:20:44.20	346.28	24.87	
2025-01-07 11:20:45.43	346.23	24.65	
2025-01-07 11:20:46.66	346.19	24.44	
2025-01-07 11:20:47.90	346.15	24.22	
2025-01-07 11:20:49.14	346.11	24.01	
2025-01-07 11:20:50.37	346.07	23.80	
2025-01-07 11:20:51.61	346.03	23.59	
2025-01-07 11:20:52.84	345.99	23.38	
2025-01-07 11:20:54.08	345.95	23.17	
2025-01-07 11:20:55.31	345.91	22.97	
2025-01-07 11:20:56.54	345.88	22.77	
2025-01-07 11:20:57.77	345.84	22.57	
2025-01-07 11:20:59.00	345.80	22.37	
2025-01-07 11:21:00.26	345.77	22.17	
2025-01-07 11:21:01.49	345.73	21.98	
2025-01-07 11:21:02.72	345.70	21.78	
2025-01-07 11:21:03.97	345.66	21.59	
2025-01-07 11:21:05.20	345.63	21.40	
2025-01-07 11:21:06.43	345.60	21.21	
2025-01-07 11:21:07.66	345.56	21.02	
2025-01-07 11:21:08.90	345.53	20.83	
2025-01-07 11:21:10.13	345.50	20.65	
2025-01-07 11:21:11.36	345.47	20.47	
2025-01-07 11:21:12.59	345.44	20.29	
2025-01-07 11:21:13.82	345.41	20.11	
2025-01-07 11:21:15.06	345.38	19.93	
2025-01-07 11:21:16.29	345.35	19.75	
2025-01-07 11:21:17.52	345.32	19.57	
2025-01-07 11:21:18.76	345.29	19.40	
2025-01-07 11:21:20.00	345.26	19.22	
2025-01-07 11:21:21.23	345.23	19.05	
2025-01-07 11:21:22.46	345.21	18.88	
2025-01-07 11:21:23.69	345.18	18.71	
2025-01-07 11:21:24.93	345.15	18.54	
2025-01-07 11:21:26.19	345.13	18.37	
2025-01-07 11:21:27.42	345.10	18.21	
2025-01-07 11:21:28.65	345.08	18.04	
2025-01-07 11:21:29.88	345.05	17.88	
2025-01-07 11:21:31.12	345.02	17.72	
2025-01-07 11:21:32.35	345.00	17.56	
2025-01-07 11:21:33.58	344.98	17.40	
2025-01-07 11:21:34.82	344.95	17.24	
2025-01-07 11:21:36.05	344.93	17.08	
2025-01-07 11:21:37.28	344.91	16.93	
2025-01-07 11:21:38.52	344.88	16.77	
2025-01-07 11:21:39.76	344.86	16.61	
2025-01-07 11:21:40.99	344.84	16.46	
2025-01-07 11:21:42.22	344.81	16.31	
2025-01-07 11:21:43.47	344.79	16.16	
2025-01-07 11:21:44.70	344.77	16.01	
2025-01-07 11:21:45.93	344.75	15.86	
2025-01-07 11:21:47.16	344.73	15.71	
2025-01-07 11:21:48.39	344.71	15.56	
2025-01-07 11:21:49.63	344.69	15.42	
2025-01-07 11:21:50.87	344.67	15.27	
2025-01-07 11:21:52.10	344.65	15.13	
2025-01-07 11:21:53.32	344.63	14.99	
2025-01-07 11:21:54.55	344.61	14.84	
2025-01-07 11:21:55.79	344.59	14.70	
2025-01-07 11:21:57.02	344.57	14.56	
2025-01-07 11:21:58.25	344.55	14.42	
2025-01-07 11:21:59.48	344.53	14.28	
2025-01-07 11:22:00.72	344.51	14.14	
2025-01-07 11:22:01.96	344.50	14.01	
2025-01-07 11:22:03.19	344.48	13.87	
2025-01-07 11:22:04.42	344.46	13.74	
2025-01-07 11:22:05.65	344.44	13.60	
2025-01-07 11:22:06.88	344.43	13.47	
2025-01-07 11:22:08.11	344.41	13.34	
2025-01-07 11:22:09.34	344.39	13.20	
2025-01-07 11:22:10.58	344.38	13.07	
2025-01-07 11:22:11.81	344.36	12.94	
2025-01-07 11:22:13.04	344.34	12.81	
2025-01-07 11:22:14.27	344.33	12.68	
2025-01-07 11:22:15.50	344.31	12.55	
2025-01-07 11:22:16.73	344.30	12.43	
2025-01-07 11:22:17.96	344.28	12.30	
2025-01-07 11:22:19.20	344.27	12.17	
2025-01-07 11:22:20.43	344.25	12.05	
2025-01-07 11:22:21.67	344.24	11.92	
2025-01-07 11:22:22.92	344.22	11.80	
2025-01-07 11:22:24.15	344.21	11.67	
2025-01-07 11:22:25.38	344.19	11.55	
2025-01-07 11:22:26.61	344.18	11.43	
2025-01-07 11:22:27.84	344.17	11.31	
2025-01-07 11:22:29.07	344.15	11.19	
2025-01-07 11:22:30.30	344.14	11.07	
2025-01-07 11:22:31.53	344.13	10.95	
2025-01-07 11:22:32.77	344.11	10.83	
2025-01-07 11:22:34.00	344.10	10.71	
2025-01-07 11:22:35.23	344.09	10.60	
2025-01-07 11:22:36.48	344.07	10.48	
2025-01-07 11:22:37.71	344.06	10.36	
2025-01-07 11:22:38.94	344.05	10.25	
2025-01-07 11:22:40.17	344.04	10.13	
2025-01-07 11:22:41.41	344.02	10.02	
2025-01-07 11:22:42.64	344.01	9.90	
2025-01-07 11:22:43.87	344.00	9.79	
2025-01-07 11:22:45.10	343.99	9.68	
2025-01-07 11:22:46.33	343.98	9.57	
2025-01-07 11:22:47.58	343.97	9.45	
2025-01-07 11:22:48.81	343.95	9.34	
2025-01-07 11:22:50.04	343.94	9.23	
2025-01-07 11:22:51.27	343.93	9.12	
2025-01-07 11:22:52.51	343.92	9.01	
2025-01-07 11:22:53.75	343.91	8.90	
2025-01-07 11:22:54.98	343.90	8.79	
2025-01-07 11:22:56.21	343.89	8.69	
2025-01-07 11:22:57.44	343.88	8.58	
2025-01-07 11:22:58.67	343.87	8.47	
2025-01-07 11:22:59.90	343.86	8.37	
2025-01-07 11:23:01.14	343.85	8.26	
2025-01-07 11:23:02.37	343.84	8.16	
2025-01-07 11:23:03.60	343.83	8.05	
2025-01-07 11:23:04.83	343.82	7.95	
2025-01-07 11:23:06.06	343.81	7.84	
2025-01-07 11:23:07.31	343.80	7.74	
2025-01-07 11:23:08.54	343.79	7.64	
2025-01-07 11:23:09.77	343.78	7.53	
2025-01-07 11:23:11.00	343.77	7.43	
2025-01-07 11:23:12.23	343.76	7.33	
2025-01-07 11:23:13.47	343.75	7.23	
2025-01-07 11:23:14.70	343.74	7.13	
2025-01-07 11:23:15.93	343.74	7.03	
2025-01-07 11:23:17.16	343.73	6.93	
2025-01-07 11:23:18.39	343.72	6.83	
2025-01-07 11:23:19.62	343.71	6.73	
2025-01-07 11:23:20.85	343.70	6.63	
2025-01-07 11:23:22.09	343.69	6.53	
2025-01-07 11:23:23.33	343.69	6.44	
2025-01-07 11:23:24.56	343.68	6.34	
2025-01-07 11:23:25.79	343.67	6.24	
2025-01-07 11:23:27.04	343.66	6.14	
2025-01-07 11:23:28.28	343.65	6.05	
2025-01-07 11:23:29.51	343.65	5.95	
2025-01-07 11:23:30.75	343.64	5.86	
2025-01-07 11:23:31.98	343.63	5.76	
2025-01-07 11:23:33.21	343.62	5.67	
2025-01-07 11:23:34.44	343.62	5.57	
2025-01-07 11:23:35.67	343.61	5.48	
2025-01-07 11:23:36.90	343.60	5.39	
2025-01-07 11:23:38.13	343.60	5.29	
2025-01-07 11:23:39.37	343.59	5.20	
2025-01-07 11:23:40.60	343.58	5.11	
2025-01-07 11:23:41.84	343.58	5.02	
2025-01-07 11:23:43.08	343.57	4.92	
2025-01-07 11:23:44.33	343.56	4.83	
2025-01-07 11:23:45.56	343.56	4.74	
2025-01-07 11:23:46.81	343.55	4.65	
2025-01-07 11:23:48.04	343.54	4.56	
2025-01-07 11:23:49.27	343.54	4.47	
2025-01-07 11:23:50.51	343.53	4.38	
2025-01-07 11:23:51.74	343.52	4.29	
2025-01-07 11:23:52.97	343.52	4.20	
2025-01-07 11:23:54.21	343.51	4.11	
2025-01-07 11:23:55.44	343.51	4.02	

#Closed at: 2025-01-07 11:23:55