passes_logs/2026/01/22/planumMaritime01/planumMaritime01__20260122_060640_METEOR-M2_3_rec.log

#Pass ID: 20260122_060640_METEOR-M2 3
#Satellite: METEOR-M2 3
#Configuration: METEOR-M2 3
#Start time: 2026-01-22 06:06:45.730044

#LorettStation: 1.0.0 05.05.2024
#Station: planumMaritime01
#Location: 37.49445 lon 55.92918 lat
#TLE: 1 57166U 23091A   26020.96858691  .00000087  00000+0  56690-4 0  9996
#TLE: 2 57166  98.6318  78.8117 0003146 227.1103 132.9812 14.24031704133564

#Time	Az	El	Level	SNR
2026-01-22 06:06:47.907356	36.0	10.1	-77.6	0.0
2026-01-22 06:06:50.173766	36.3	10.3	-77.5	0.0
2026-01-22 06:06:52.451150	36.5	10.5	-74.3	0.0
2026-01-22 06:06:54.730787	36.8	10.6	-71.6	0.0
2026-01-22 06:06:57.007780	37.1	10.8	-70.1	0.0
2026-01-22 06:06:59.281034	37.4	10.9	-67.6	0.0
2026-01-22 06:07:01.554211	37.6	11.1	-65.7	0.0
2026-01-22 06:07:03.822288	37.9	11.2	-64.2	0.0
2026-01-22 06:07:06.082576	38.2	11.4	-65.4	0.0
2026-01-22 06:07:08.340776	38.5	11.6	-61.6	0.0
2026-01-22 06:07:10.602062	38.8	11.7	-64.4	0.0
2026-01-22 06:07:12.863629	39.0	11.9	-68.0	0.0
2026-01-22 06:07:15.124777	39.3	12.0	-67.6	0.0
2026-01-22 06:07:17.384484	39.6	12.2	-67.9	0.0
2026-01-22 06:07:19.642663	39.9	12.3	-66.9	0.0
2026-01-22 06:07:21.912133	40.2	12.5	-66.4	0.0
2026-01-22 06:07:24.181781	40.5	12.7	-68.6	0.0
2026-01-22 06:07:26.456169	40.9	12.8	-66.5	0.0
2026-01-22 06:07:28.733289	41.2	13.0	-67.7	0.0
2026-01-22 06:07:31.007579	41.5	13.2	-68.1	0.0
2026-01-22 06:07:33.284938	41.8	13.3	-69.3	0.0
2026-01-22 06:07:35.559450	42.1	13.5	-69.3	0.0
2026-01-22 06:07:37.831372	42.5	13.6	-68.8	0.0
2026-01-22 06:07:40.097574	42.8	13.8	-68.6	0.0
2026-01-22 06:07:42.373788	43.1	14.0	-70.1	0.0
2026-01-22 06:07:44.649059	43.5	14.1	-68.0	0.0
2026-01-22 06:07:46.923448	43.8	14.3	-67.5	0.0
2026-01-22 06:07:49.199691	44.1	14.5	-71.5	0.0
2026-01-22 06:07:51.479557	44.5	14.6	-71.7	0.0
2026-01-22 06:07:53.760110	44.8	14.8	-71.9	0.0
2026-01-22 06:07:56.038145	45.2	14.9	-71.9	0.0
2026-01-22 06:07:58.313707	45.6	15.1	-72.3	0.0
2026-01-22 06:08:00.590244	45.9	15.3	-71.3	0.0
2026-01-22 06:08:02.866307	46.3	15.4	-69.6	0.0
2026-01-22 06:08:05.139681	46.7	15.6	-71.5	0.0
2026-01-22 06:08:07.417155	47.0	15.8	-72.7	0.0
2026-01-22 06:08:09.694370	47.4	15.9	-73.8	0.0
2026-01-22 06:08:11.968866	47.8	16.1	-72.4	0.0
2026-01-22 06:08:14.236056	48.2	16.3	-73.3	0.0
2026-01-22 06:08:16.500254	48.6	16.4	-69.2	0.0
2026-01-22 06:08:18.762116	49.0	16.6	-72.8	0.0
2026-01-22 06:08:21.025469	49.4	16.8	-73.2	0.0
2026-01-22 06:08:23.290410	49.8	16.9	-70.1	0.0
2026-01-22 06:08:25.557161	50.2	17.1	-69.0	0.0
2026-01-22 06:08:27.821914	50.6	17.2	-72.6	0.0
2026-01-22 06:08:30.092308	51.0	17.4	-72.3	0.0
2026-01-22 06:08:32.370723	51.5	17.6	-71.1	0.0
2026-01-22 06:08:34.640955	51.9	17.7	-71.7	0.0
2026-01-22 06:08:36.912562	52.3	17.9	-70.9	0.0
2026-01-22 06:08:39.181137	52.8	18.1	-70.9	0.0
2026-01-22 06:08:41.442864	53.2	18.2	-72.4	0.0
2026-01-22 06:08:43.710346	53.6	18.4	-72.3	0.0
2026-01-22 06:08:45.977115	54.1	18.5	-73.1	0.5
2026-01-22 06:08:48.241808	54.5	18.7	-71.6	0.0
2026-01-22 06:08:50.507444	55.0	18.9	-72.4	0.0
2026-01-22 06:08:52.773757	55.5	19.0	-70.9	0.0
2026-01-22 06:08:55.046167	55.9	19.2	-71.2	0.0
2026-01-22 06:08:57.322370	56.4	19.3	-72.4	0.0
2026-01-22 06:08:59.597040	56.9	19.5	-72.2	0.0
2026-01-22 06:09:01.872276	57.4	19.6	-72.7	0.7
2026-01-22 06:09:04.147857	57.9	19.8	-73.5	1.0
2026-01-22 06:09:06.428170	58.4	19.9	-73.5	0.0
2026-01-22 06:09:08.700915	58.9	20.1	-73.2	0.2
2026-01-22 06:09:10.977587	59.4	20.2	-72.9	0.0
2026-01-22 06:09:13.247798	59.9	20.4	-73.2	0.4
2026-01-22 06:09:15.523203	60.4	20.5	-73.9	3.8
2026-01-22 06:09:17.796471	60.9	20.7	-73.7	1.9
2026-01-22 06:09:20.071363	61.4	20.8	-73.5	0.9
2026-01-22 06:09:22.340982	61.9	21.0	-74.0	2.8
2026-01-22 06:09:24.614351	62.5	21.1	-73.2	3.5
2026-01-22 06:09:26.891552	63.0	21.2	-73.5	0.0
2026-01-22 06:09:29.164874	63.6	21.4	-75.0	4.3
2026-01-22 06:09:31.439220	64.1	21.5	-73.7	2.7
2026-01-22 06:09:33.709273	64.7	21.6	-73.3	1.5
2026-01-22 06:09:35.982974	65.2	21.8	-73.2	1.9
2026-01-22 06:09:38.256965	65.8	21.9	-74.2	2.8
2026-01-22 06:09:40.526382	66.3	22.0	-72.3	2.6
2026-01-22 06:09:42.797152	66.9	22.2	-74.6	2.3
2026-01-22 06:09:45.066812	67.5	22.3	-73.9	3.1
2026-01-22 06:09:47.341755	68.1	22.4	-74.2	3.3
2026-01-22 06:09:49.618333	68.6	22.5	-73.6	2.0
2026-01-22 06:09:51.897382	69.2	22.6	-75.0	5.0
2026-01-22 06:09:54.176015	69.8	22.7	-74.6	3.8
2026-01-22 06:09:56.453468	70.4	22.9	-72.7	2.7
2026-01-22 06:09:58.720125	71.0	23.0	-74.6	4.1
2026-01-22 06:10:00.991996	71.6	23.1	-74.6	4.7
2026-01-22 06:10:03.262394	72.2	23.2	-74.1	4.5
2026-01-22 06:10:05.529934	72.8	23.3	-74.5	5.3
2026-01-22 06:10:07.799410	73.5	23.4	-74.6	7.1
2026-01-22 06:10:10.069802	74.1	23.5	-73.3	2.2
2026-01-22 06:10:12.345078	74.7	23.5	-75.0	6.5
2026-01-22 06:10:14.617085	75.3	23.6	-73.6	3.7
2026-01-22 06:10:16.888841	75.9	23.7	-74.2	4.3
2026-01-22 06:10:19.159343	76.6	23.8	-74.0	4.4
2026-01-22 06:10:21.428332	77.2	23.9	-74.3	5.2
2026-01-22 06:10:23.697412	77.9	24.0	-75.1	4.3
2026-01-22 06:10:25.967372	78.5	24.0	-75.0	3.5
2026-01-22 06:10:28.237386	79.1	24.1	-75.4	6.9
2026-01-22 06:10:30.506673	79.8	24.2	-75.0	5.7
2026-01-22 06:10:32.781036	80.4	24.2	-74.6	5.8
2026-01-22 06:10:35.055520	81.1	24.3	-73.3	2.8
2026-01-22 06:10:37.329699	81.8	24.3	-75.4	7.3
2026-01-22 06:10:39.604056	82.4	24.4	-74.2	4.5
2026-01-22 06:10:41.880859	83.1	24.4	-74.6	4.1
2026-01-22 06:10:44.156813	83.7	24.5	-74.3	5.8
2026-01-22 06:10:46.427627	84.4	24.5	-75.3	7.4
2026-01-22 06:10:48.685328	85.1	24.5	-74.4	4.7
2026-01-22 06:10:50.942680	85.7	24.6	-74.0	4.0
2026-01-22 06:10:53.199009	86.4	24.6	-75.5	5.0
2026-01-22 06:10:55.456458	87.0	24.6	-75.3	7.3
2026-01-22 06:10:57.717675	87.7	24.6	-75.7	7.7
2026-01-22 06:10:59.976448	88.4	24.6	-75.9	8.3
2026-01-22 06:11:02.236137	89.0	24.6	-75.1	5.8
2026-01-22 06:11:04.494496	89.7	24.6	-75.5	8.0
2026-01-22 06:11:06.750218	90.4	24.6	-75.1	6.6
2026-01-22 06:11:09.009373	91.0	24.6	-75.0	6.4
2026-01-22 06:11:11.269783	91.7	24.6	-75.2	9.4
2026-01-22 06:11:13.529454	92.4	24.6	-75.3	7.2
2026-01-22 06:11:15.789363	93.0	24.6	-75.9	7.8
2026-01-22 06:11:18.049458	93.7	24.6	-75.3	5.7
2026-01-22 06:11:20.312388	94.4	24.6	-75.4	7.3
2026-01-22 06:11:22.572832	95.0	24.5	-74.9	4.9
2026-01-22 06:11:24.844363	95.7	24.5	-75.2	7.4
2026-01-22 06:11:27.117286	96.4	24.5	-76.0	7.3
2026-01-22 06:11:29.394430	97.0	24.4	-76.2	6.9
2026-01-22 06:11:31.666856	97.7	24.4	-75.3	5.6
2026-01-22 06:11:33.926316	98.3	24.3	-75.9	8.0
2026-01-22 06:11:36.187115	99.0	24.3	-76.2	8.2
2026-01-22 06:11:38.449849	99.6	24.2	-75.9	7.8
2026-01-22 06:11:40.712247	100.3	24.2	-75.7	6.8
2026-01-22 06:11:42.977154	100.9	24.1	-75.9	7.7
2026-01-22 06:11:45.243272	101.6	24.1	-76.4	8.0
2026-01-22 06:11:47.508369	102.2	24.0	-76.9	7.8
2026-01-22 06:11:49.774845	102.9	23.9	-75.9	6.9
2026-01-22 06:11:52.034701	103.5	23.8	-76.1	8.3
2026-01-22 06:11:54.295980	104.2	23.8	-76.3	7.6
2026-01-22 06:11:56.558408	104.8	23.7	-76.5	7.6
2026-01-22 06:11:58.820430	105.4	23.6	-76.3	7.1
2026-01-22 06:12:01.082442	106.0	23.5	-77.2	8.2
2026-01-22 06:12:03.340078	106.7	23.4	-77.0	6.9
2026-01-22 06:12:05.598255	107.3	23.3	-76.8	7.6
2026-01-22 06:12:07.861464	107.9	23.2	-76.4	7.5
2026-01-22 06:12:10.117335	108.5	23.1	-77.2	10.0
2026-01-22 06:12:12.377352	109.1	23.0	-77.4	9.4
2026-01-22 06:12:14.635780	109.7	22.9	-77.7	10.9
2026-01-22 06:12:16.896684	110.3	22.8	-77.5	8.8
2026-01-22 06:12:19.157297	110.9	22.7	-77.8	9.6
2026-01-22 06:12:21.418689	111.5	22.6	-77.3	9.4
2026-01-22 06:12:23.674964	112.1	22.5	-76.9	9.3
2026-01-22 06:12:25.937005	112.6	22.3	-77.5	10.4
2026-01-22 06:12:28.197043	113.2	22.2	-76.8	9.4
2026-01-22 06:12:30.457628	113.8	22.1	-77.7	9.8
2026-01-22 06:12:32.719987	114.4	22.0	-76.9	7.9
2026-01-22 06:12:34.983321	114.9	21.9	-77.1	8.0
2026-01-22 06:12:37.243177	115.5	21.7	-77.5	9.5
2026-01-22 06:12:39.508318	116.0	21.6	-77.4	10.1
2026-01-22 06:12:41.773141	116.6	21.5	-77.9	10.3
2026-01-22 06:12:44.043811	117.1	21.3	-77.9	10.2
2026-01-22 06:12:46.310726	117.7	21.2	-77.6	10.6
2026-01-22 06:12:48.576507	118.2	21.0	-77.7	9.0
2026-01-22 06:12:50.839384	118.7	20.9	-77.8	11.4
2026-01-22 06:12:53.103087	119.3	20.8	-77.8	10.0
2026-01-22 06:12:55.364973	119.8	20.6	-77.6	9.3
2026-01-22 06:12:57.627106	120.3	20.5	-77.6	9.8
2026-01-22 06:12:59.893372	120.8	20.3	-77.8	9.0
2026-01-22 06:13:02.177188	121.3	20.2	-77.8	10.7
2026-01-22 06:13:04.453776	121.8	20.0	-77.7	8.7
2026-01-22 06:13:06.729641	122.3	19.9	-77.7	8.4
2026-01-22 06:13:09.005232	122.8	19.7	-77.7	8.3
2026-01-22 06:13:11.281572	123.3	19.6	-77.1	7.8
2026-01-22 06:13:13.543929	123.8	19.4	-77.4	8.5
2026-01-22 06:13:15.802857	124.3	19.2	-77.2	7.9
2026-01-22 06:13:18.061500	124.8	19.1	-77.4	6.4
2026-01-22 06:13:20.326850	125.2	18.9	-77.3	8.6
2026-01-22 06:13:22.593143	125.7	18.8	-77.6	8.1
2026-01-22 06:13:24.861541	126.2	18.6	-77.7	9.8
2026-01-22 06:13:27.128975	126.6	18.5	-77.6	8.6
2026-01-22 06:13:29.395539	127.1	18.3	-77.2	7.6
2026-01-22 06:13:31.659748	127.5	18.1	-77.1	8.3
2026-01-22 06:13:33.921084	127.9	18.0	-77.6	9.1
2026-01-22 06:13:36.180778	128.4	17.8	-77.5	9.2
2026-01-22 06:13:38.441159	128.8	17.6	-77.8	8.3
2026-01-22 06:13:40.701530	129.2	17.5	-77.7	8.7
2026-01-22 06:13:42.976939	129.7	17.3	-77.0	7.4
2026-01-22 06:13:45.247699	130.1	17.1	-77.2	8.0
2026-01-22 06:13:47.522206	130.5	17.0	-76.4	5.7
2026-01-22 06:13:49.795491	130.9	16.8	-77.4	8.5
2026-01-22 06:13:52.056761	131.3	16.7	-77.2	7.3
2026-01-22 06:13:54.315890	131.7	16.5	-76.3	5.3
2026-01-22 06:13:56.573875	132.1	16.3	-77.1	7.9
2026-01-22 06:13:58.833728	132.5	16.2	-77.5	8.1
2026-01-22 06:14:01.091616	132.9	16.0	-78.0	8.8
2026-01-22 06:14:03.366971	133.3	15.8	-77.4	6.3
2026-01-22 06:14:05.639006	133.7	15.7	-76.4	5.3
2026-01-22 06:14:07.911724	134.0	15.5	-77.0	6.9
2026-01-22 06:14:10.182646	134.4	15.3	-76.7	5.7
2026-01-22 06:14:12.436316	134.8	15.2	-76.5	5.6
2026-01-22 06:14:14.691129	135.1	15.0	-77.0	6.5
2026-01-22 06:14:16.946157	135.5	14.8	-76.9	6.9
2026-01-22 06:14:19.202884	135.8	14.7	-77.0	5.7
2026-01-22 06:14:21.458546	136.2	14.5	-77.3	6.0
2026-01-22 06:14:23.716062	136.5	14.3	-76.5	4.4
2026-01-22 06:14:25.973981	136.9	14.2	-76.9	6.8
2026-01-22 06:14:28.244163	137.2	14.0	-77.1	6.2
2026-01-22 06:14:30.512404	137.6	13.8	-77.2	5.4
2026-01-22 06:14:32.773073	137.9	13.7	-76.8	5.3
2026-01-22 06:14:35.036069	138.2	13.5	-77.5	6.1
2026-01-22 06:14:37.293863	138.5	13.4	-77.8	7.2
2026-01-22 06:14:39.553380	138.9	13.2	-77.2	5.1
2026-01-22 06:14:41.814555	139.2	13.0	-77.6	5.7
2026-01-22 06:14:44.070405	139.5	12.9	-77.6	6.9
2026-01-22 06:14:46.325065	139.8	12.7	-77.9	7.3
2026-01-22 06:14:48.578158	140.1	12.5	-77.6	5.0
2026-01-22 06:14:50.838455	140.4	12.4	-77.8	6.2
2026-01-22 06:14:53.107168	140.7	12.2	-77.5	5.0
2026-01-22 06:14:55.372587	141.0	12.1	-77.5	5.5
2026-01-22 06:14:57.633211	141.3	11.9	-78.4	4.5
2026-01-22 06:14:59.894147	141.6	11.7	-77.0	4.4
2026-01-22 06:15:02.159451	141.9	11.6	-77.4	4.8
2026-01-22 06:15:04.420430	142.2	11.4	-78.5	6.5
2026-01-22 06:15:06.684204	142.5	11.3	-78.3	4.6
2026-01-22 06:15:08.946082	142.8	11.1	-78.0	6.2
2026-01-22 06:15:11.210595	143.0	10.9	-79.2	6.7
2026-01-22 06:15:13.488406	143.3	10.8	-81.8	2.2
2026-01-22 06:15:15.758550	143.6	10.6	-81.4	0.0
2026-01-22 06:15:18.013113	143.9	10.5	-81.9	0.0
2026-01-22 06:15:20.270461	144.1	10.3	-83.3	0.0
2026-01-22 06:15:22.527124	144.4	10.2	-83.5	0.0
2026-01-22 06:15:24.784888	144.6	10.0	-82.1	0.0
#Closed at: 2026-01-22 06:06:40.737201