passes_logs/2026/01/22/planumMaritime01/planumMaritime01__20260122_190446_METOP-C_rec.log

#Pass ID: 20260122_190446_METOP-C
#Satellite: METOP-C
#Configuration: METOP-C
#Start time: 2026-01-22 19:04:51.890918

#LorettStation: 1.0.0 05.05.2024
#Station: planumMaritime01
#Location: 37.49445 lon 55.92918 lat
#TLE: 1 43689U 18087A   26022.22459080  .00000298  00000+0  15592-3 0  9999
#TLE: 2 43689  98.6865  84.3613 0000931 169.4045 190.7152 14.21502507374096

#Time	Az	El	Level	SNR
2026-01-22 19:04:54.055041	198.7	10.2	-72.5	0.0
2026-01-22 19:04:56.310648	198.9	10.3	-70.2	0.0
2026-01-22 19:04:58.563316	199.1	10.5	-68.9	0.0
2026-01-22 19:05:00.813552	199.3	10.7	-68.9	0.0
2026-01-22 19:05:03.066191	199.5	10.9	-68.7	0.0
2026-01-22 19:05:05.321144	199.7	11.1	-66.0	0.0
2026-01-22 19:05:07.570223	199.9	11.3	-65.8	0.0
2026-01-22 19:05:09.821697	200.1	11.4	-65.7	0.0
2026-01-22 19:05:12.074554	200.3	11.6	-65.3	0.0
2026-01-22 19:05:14.327739	200.5	11.8	-66.5	0.0
2026-01-22 19:05:16.582213	200.7	12.0	-65.8	0.0
2026-01-22 19:05:18.835167	200.9	12.2	-66.3	0.0
2026-01-22 19:05:21.085199	201.1	12.4	-65.9	0.0
2026-01-22 19:05:23.341303	201.3	12.6	-66.2	0.0
2026-01-22 19:05:25.595822	201.5	12.8	-65.9	0.0
2026-01-22 19:05:27.849113	201.8	12.9	-66.7	0.0
2026-01-22 19:05:30.098420	202.0	13.1	-66.7	0.0
2026-01-22 19:05:32.356254	202.2	13.3	-69.4	0.0
2026-01-22 19:05:34.612849	202.5	13.5	-68.2	0.0
2026-01-22 19:05:36.864310	202.7	13.7	-69.3	0.0
2026-01-22 19:05:39.118731	202.9	13.9	-70.4	0.0
2026-01-22 19:05:41.372046	203.2	14.1	-69.4	0.0
2026-01-22 19:05:43.623830	203.4	14.3	-68.5	0.0
2026-01-22 19:05:45.876020	203.7	14.5	-69.2	0.0
2026-01-22 19:05:48.128906	203.9	14.7	-69.7	0.0
2026-01-22 19:05:50.381042	204.2	14.9	-69.3	0.0
2026-01-22 19:05:52.634116	204.4	15.1	-69.8	0.0
2026-01-22 19:05:54.886736	204.7	15.4	-69.6	0.0
2026-01-22 19:05:57.138638	204.9	15.6	-69.6	0.0
2026-01-22 19:05:59.389566	205.2	15.8	-68.9	0.0
2026-01-22 19:06:01.640487	205.5	16.0	-69.5	0.0
2026-01-22 19:06:03.897473	205.8	16.2	-69.0	0.0
2026-01-22 19:06:06.151796	206.0	16.4	-70.5	0.0
2026-01-22 19:06:08.404174	206.3	16.6	-69.3	0.0
2026-01-22 19:06:10.658281	206.6	16.8	-70.3	0.0
2026-01-22 19:06:12.915223	206.9	17.1	-69.8	0.0
2026-01-22 19:06:15.169824	207.2	17.3	-71.3	0.0
2026-01-22 19:06:17.426497	207.5	17.5	-70.3	0.0
2026-01-22 19:06:19.684691	207.8	17.7	-69.0	0.0
2026-01-22 19:06:21.943268	208.1	17.9	-69.2	0.0
2026-01-22 19:06:24.196919	208.4	18.2	-69.6	0.0
2026-01-22 19:06:26.452732	208.7	18.4	-70.5	0.0
2026-01-22 19:06:28.704834	209.1	18.6	-69.3	0.0
2026-01-22 19:06:30.959840	209.4	18.8	-69.8	0.0
2026-01-22 19:06:33.215604	209.7	19.1	-69.8	0.0
2026-01-22 19:06:35.469649	210.1	19.3	-69.7	0.0
2026-01-22 19:06:37.727413	210.4	19.5	-70.2	0.2
2026-01-22 19:06:39.981202	210.8	19.8	-70.6	1.9
2026-01-22 19:06:42.236629	211.1	20.0	-70.2	4.5
2026-01-22 19:06:44.491935	211.5	20.2	-70.8	1.4
2026-01-22 19:06:46.744652	211.8	20.5	-70.7	2.1
2026-01-22 19:06:48.998470	212.2	20.7	-70.4	0.5
2026-01-22 19:06:51.252345	212.6	20.9	-71.1	2.6
2026-01-22 19:06:53.501562	212.9	21.2	-70.3	3.9
2026-01-22 19:06:55.753858	213.3	21.4	-71.6	5.2
2026-01-22 19:06:58.005240	213.7	21.6	-71.0	2.9
2026-01-22 19:07:00.257449	214.1	21.9	-71.8	5.1
2026-01-22 19:07:02.509718	214.5	22.1	-72.0	5.6
2026-01-22 19:07:04.761646	214.9	22.4	-71.3	5.4
2026-01-22 19:07:07.015668	215.3	22.6	-72.1	5.3
2026-01-22 19:07:09.269081	215.8	22.9	-71.4	5.6
2026-01-22 19:07:11.520832	216.2	23.1	-71.7	4.0
2026-01-22 19:07:13.773625	216.6	23.3	-71.9	6.6
2026-01-22 19:07:16.025460	217.1	23.6	-72.5	8.3
2026-01-22 19:07:18.277623	217.5	23.8	-72.6	8.5
2026-01-22 19:07:20.528107	218.0	24.1	-72.1	6.9
2026-01-22 19:07:22.779691	218.4	24.3	-72.8	6.4
2026-01-22 19:07:25.032026	218.9	24.6	-71.9	6.8
2026-01-22 19:07:27.285249	219.4	24.8	-72.9	8.6
2026-01-22 19:07:29.540616	219.9	25.1	-72.2	10.4
2026-01-22 19:07:31.792991	220.3	25.3	-72.2	10.1
2026-01-22 19:07:34.045613	220.8	25.6	-72.5	8.9
2026-01-22 19:07:36.297694	221.3	25.8	-72.8	8.7
2026-01-22 19:07:38.552837	221.9	26.1	-72.5	9.0
2026-01-22 19:07:40.807139	222.4	26.3	-72.9	8.9
2026-01-22 19:07:43.058090	222.9	26.6	-73.3	8.5
2026-01-22 19:07:45.310709	223.5	26.8	-73.6	7.3
2026-01-22 19:07:47.567753	224.0	27.1	-73.3	8.3
2026-01-22 19:07:49.821582	224.6	27.3	-73.8	9.0
2026-01-22 19:07:52.073994	225.1	27.6	-73.8	10.3
2026-01-22 19:07:54.328580	225.7	27.8	-73.6	8.7
2026-01-22 19:07:56.585620	226.3	28.1	-73.7	10.2
2026-01-22 19:07:58.838578	226.9	28.3	-73.5	9.9
2026-01-22 19:08:01.088960	227.5	28.6	-73.1	8.9
2026-01-22 19:08:03.342228	228.1	28.8	-72.6	9.3
2026-01-22 19:08:05.596157	228.7	29.0	-72.9	10.4
2026-01-22 19:08:07.844817	229.3	29.3	-72.8	9.5
2026-01-22 19:08:10.098428	230.0	29.5	-72.7	10.6
2026-01-22 19:08:12.353227	230.6	29.8	-72.8	10.9
2026-01-22 19:08:14.605484	231.2	30.0	-72.4	10.9
2026-01-22 19:08:16.856786	231.9	30.2	-72.4	10.9
2026-01-22 19:08:19.111631	232.6	30.4	-72.1	9.4
2026-01-22 19:08:21.365538	233.3	30.7	-72.2	11.2
2026-01-22 19:08:23.618440	234.0	30.9	-72.0	9.7
2026-01-22 19:08:25.869554	234.7	31.1	-72.6	10.2
2026-01-22 19:08:28.121762	235.4	31.3	-72.3	10.7
2026-01-22 19:08:30.374345	236.1	31.6	-72.9	11.0
2026-01-22 19:08:32.625200	236.8	31.8	-73.0	10.4
2026-01-22 19:08:34.875582	237.6	32.0	-73.1	11.4
2026-01-22 19:08:37.126960	238.3	32.2	-72.8	9.5
2026-01-22 19:08:39.377900	239.1	32.4	-73.0	10.9
2026-01-22 19:08:41.631634	239.8	32.6	-72.6	9.4
2026-01-22 19:08:43.883128	240.6	32.8	-72.3	11.5
2026-01-22 19:08:46.135905	241.4	33.0	-72.5	11.0
2026-01-22 19:08:48.390256	242.2	33.1	-71.9	10.5
2026-01-22 19:08:50.638567	243.0	33.3	-72.6	12.2
2026-01-22 19:08:52.889683	243.8	33.5	-72.3	11.7
2026-01-22 19:08:55.141084	244.6	33.7	-71.8	11.5
2026-01-22 19:08:57.392141	245.4	33.8	-72.1	11.3
2026-01-22 19:08:59.643935	246.3	34.0	-71.9	12.0
2026-01-22 19:09:01.896677	247.1	34.1	-72.1	11.5
2026-01-22 19:09:04.148005	248.0	34.3	-72.1	11.4
2026-01-22 19:09:06.398953	248.8	34.4	-72.0	11.1
2026-01-22 19:09:08.650772	249.7	34.5	-72.1	10.2
2026-01-22 19:09:10.902761	250.5	34.7	-72.1	9.8
2026-01-22 19:09:13.158733	251.4	34.8	-71.9	9.7
2026-01-22 19:09:15.412551	252.3	34.9	-72.1	10.8
2026-01-22 19:09:17.665929	253.2	35.0	-71.4	9.1
2026-01-22 19:09:19.917434	254.1	35.1	-71.8	8.7
2026-01-22 19:09:22.173181	255.0	35.2	-72.1	9.8
2026-01-22 19:09:24.426767	255.9	35.3	-71.5	9.5
2026-01-22 19:09:26.684155	256.8	35.3	-72.0	9.1
2026-01-22 19:09:28.937009	257.7	35.4	-71.9	10.0
2026-01-22 19:09:31.190333	258.6	35.4	-71.7	11.0
2026-01-22 19:09:33.446312	259.5	35.5	-71.0	8.7
2026-01-22 19:09:35.698783	260.5	35.5	-71.5	9.3
2026-01-22 19:09:37.953261	261.4	35.6	-71.0	9.1
2026-01-22 19:09:40.205351	262.3	35.6	-70.7	8.7
2026-01-22 19:09:42.458265	263.2	35.6	-71.3	10.5
2026-01-22 19:09:44.714826	264.2	35.6	-70.7	7.8
2026-01-22 19:09:46.967245	265.1	35.6	-70.9	7.8
2026-01-22 19:09:49.221624	266.0	35.6	-69.8	7.7
2026-01-22 19:09:51.472518	266.9	35.6	-69.6	7.3
2026-01-22 19:09:53.727275	267.9	35.6	-69.3	8.5
2026-01-22 19:09:55.982249	268.8	35.5	-69.7	5.8
2026-01-22 19:09:58.233078	269.7	35.5	-69.9	5.8
2026-01-22 19:10:00.487103	270.6	35.5	-70.4	6.8
2026-01-22 19:10:02.743578	271.5	35.4	-70.2	8.2
2026-01-22 19:10:04.996810	272.4	35.3	-69.8	7.0
2026-01-22 19:10:07.248197	273.3	35.3	-70.6	6.0
2026-01-22 19:10:09.499255	274.2	35.2	-69.2	4.1
2026-01-22 19:10:11.751919	275.1	35.1	-70.2	2.5
2026-01-22 19:10:14.004812	276.0	35.0	-70.9	7.9
2026-01-22 19:10:16.257761	276.9	34.9	-69.4	4.2
2026-01-22 19:10:18.511111	277.8	34.8	-69.2	3.3
2026-01-22 19:10:20.761937	278.7	34.7	-69.2	3.0
2026-01-22 19:10:23.019337	279.6	34.6	-69.0	3.7
2026-01-22 19:10:25.270434	280.4	34.4	-68.4	3.4
2026-01-22 19:10:27.528246	281.3	34.3	-67.5	3.6
2026-01-22 19:10:29.780960	282.1	34.2	-69.6	4.2
2026-01-22 19:10:32.034121	283.0	34.0	-68.4	0.5
2026-01-22 19:10:34.290517	283.8	33.8	-69.0	6.1
2026-01-22 19:10:36.544157	284.6	33.7	-70.4	4.1
2026-01-22 19:10:38.796072	285.4	33.5	-69.8	4.1
2026-01-22 19:10:41.049250	286.3	33.4	-68.0	1.7
2026-01-22 19:10:43.302276	287.1	33.2	-68.9	1.7
2026-01-22 19:10:45.555027	287.8	33.0	-68.3	2.3
2026-01-22 19:10:47.807674	288.6	32.8	-68.4	0.0
2026-01-22 19:10:50.060108	289.4	32.6	-67.9	0.3
2026-01-22 19:10:52.314193	290.2	32.4	-68.4	0.0
2026-01-22 19:10:54.566692	290.9	32.2	-68.6	0.0
2026-01-22 19:10:56.818761	291.7	32.0	-67.4	0.0
2026-01-22 19:10:59.074611	292.4	31.8	-70.5	2.9
2026-01-22 19:11:01.327468	293.1	31.6	-70.0	0.0
2026-01-22 19:11:03.581137	293.9	31.4	-68.3	0.0
2026-01-22 19:11:05.837177	294.6	31.2	-65.2	0.0
2026-01-22 19:11:08.091433	295.3	31.0	-68.3	1.6
2026-01-22 19:11:10.345804	296.0	30.7	-68.9	0.7
2026-01-22 19:11:12.600711	296.6	30.5	-66.6	0.0
2026-01-22 19:11:14.854002	297.3	30.3	-68.5	1.5
2026-01-22 19:11:17.105322	298.0	30.1	-68.9	0.0
2026-01-22 19:11:19.357931	298.6	29.8	-68.4	0.0
2026-01-22 19:11:21.612745	299.3	29.6	-68.8	0.0
2026-01-22 19:11:23.867770	299.9	29.4	-67.4	0.0
2026-01-22 19:11:26.120475	300.5	29.1	-66.8	0.0
2026-01-22 19:11:28.375813	301.2	28.9	-68.3	4.3
2026-01-22 19:11:30.630129	301.8	28.6	-67.5	0.0
2026-01-22 19:11:32.884528	302.4	28.4	-67.3	0.1
2026-01-22 19:11:35.137779	303.0	28.1	-66.7	0.0
2026-01-22 19:11:37.390476	303.5	27.9	-67.1	0.0
2026-01-22 19:11:39.640681	304.1	27.7	-67.8	0.0
2026-01-22 19:11:41.899741	304.7	27.4	-68.1	0.0
2026-01-22 19:11:44.152785	305.2	27.2	-68.6	4.2
2026-01-22 19:11:46.405033	305.8	26.9	-65.5	0.0
2026-01-22 19:11:48.658389	306.3	26.7	-68.6	2.3
2026-01-22 19:11:50.910238	306.8	26.4	-66.5	0.0
2026-01-22 19:11:53.163563	307.4	26.2	-67.3	0.0
2026-01-22 19:11:55.418574	307.9	25.9	-66.9	0.0
2026-01-22 19:11:57.672932	308.4	25.7	-68.1	0.3
2026-01-22 19:11:59.925548	308.9	25.4	-68.8	0.0
2026-01-22 19:12:02.178581	309.4	25.2	-66.7	0.0
2026-01-22 19:12:04.427922	309.9	24.9	-69.4	0.0
2026-01-22 19:12:06.680272	310.3	24.7	-67.7	0.0
2026-01-22 19:12:08.932933	310.8	24.4	-68.2	0.0
2026-01-22 19:12:11.186487	311.3	24.2	-69.9	0.0
2026-01-22 19:12:13.441035	311.7	24.0	-67.0	0.0
2026-01-22 19:12:15.694601	312.2	23.7	-68.5	0.0
2026-01-22 19:12:17.949019	312.6	23.5	-67.6	0.0
2026-01-22 19:12:20.202892	313.0	23.2	-69.6	0.0
2026-01-22 19:12:22.454995	313.5	23.0	-67.3	0.0
2026-01-22 19:12:24.707276	313.9	22.7	-69.6	0.0
2026-01-22 19:12:26.961682	314.3	22.5	-68.2	0.0
2026-01-22 19:12:29.215444	314.7	22.2	-69.7	0.0
2026-01-22 19:12:31.469161	315.1	22.0	-67.9	0.0
2026-01-22 19:12:33.722890	315.5	21.8	-67.4	0.0
2026-01-22 19:12:35.978190	315.9	21.5	-68.4	0.0
2026-01-22 19:12:38.230849	316.3	21.3	-67.6	0.0
2026-01-22 19:12:40.484713	316.7	21.1	-65.8	0.0
2026-01-22 19:12:42.737244	317.0	20.8	-68.8	0.0
2026-01-22 19:12:44.989918	317.4	20.6	-67.5	0.0
2026-01-22 19:12:47.244083	317.8	20.4	-66.5	0.0
2026-01-22 19:12:49.502328	318.1	20.1	-68.2	0.0
2026-01-22 19:12:51.756622	318.5	19.9	-68.6	0.0
2026-01-22 19:12:54.009480	318.8	19.7	-68.8	0.0
2026-01-22 19:12:56.262433	319.2	19.4	-67.3	0.0
2026-01-22 19:12:58.513031	319.5	19.2	-65.9	0.0
2026-01-22 19:13:00.766963	319.8	19.0	-65.2	0.0
2026-01-22 19:13:03.019517	320.2	18.8	-67.8	0.0
2026-01-22 19:13:05.273454	320.5	18.5	-66.8	0.0
2026-01-22 19:13:07.527494	320.8	18.3	-67.8	0.0
2026-01-22 19:13:09.778993	321.1	18.1	-70.2	0.0
2026-01-22 19:13:12.030939	321.4	17.9	-67.3	0.0
2026-01-22 19:13:14.286128	321.7	17.6	-69.0	0.0
2026-01-22 19:13:16.537526	322.0	17.4	-68.0	0.0
2026-01-22 19:13:18.791143	322.3	17.2	-67.4	0.0
2026-01-22 19:13:21.041939	322.6	17.0	-66.2	0.0
2026-01-22 19:13:23.295384	322.9	16.8	-66.6	0.0
2026-01-22 19:13:25.550851	323.2	16.6	-65.7	0.0
2026-01-22 19:13:27.803701	323.5	16.4	-65.1	0.0
2026-01-22 19:13:30.057210	323.8	16.1	-65.7	0.0
2026-01-22 19:13:32.312544	324.0	15.9	-65.0	0.0
2026-01-22 19:13:34.567280	324.3	15.7	-66.5	0.0
2026-01-22 19:13:36.820017	324.6	15.5	-67.0	0.0
2026-01-22 19:13:39.075435	324.8	15.3	-66.3	0.0
2026-01-22 19:13:41.329625	325.1	15.1	-66.6	0.0
2026-01-22 19:13:43.585124	325.3	14.9	-64.9	0.0
2026-01-22 19:13:45.838084	325.6	14.7	-65.8	0.0
2026-01-22 19:13:48.093947	325.8	14.5	-67.0	0.0
2026-01-22 19:13:50.347412	326.1	14.3	-64.5	0.0
2026-01-22 19:13:52.601397	326.3	14.1	-65.9	0.0
2026-01-22 19:13:54.854581	326.6	13.9	-67.4	0.0
2026-01-22 19:13:57.108388	326.8	13.7	-63.0	0.0
2026-01-22 19:13:59.363495	327.0	13.5	-62.3	0.0
2026-01-22 19:14:01.619060	327.3	13.3	-62.4	0.0
2026-01-22 19:14:03.870755	327.5	13.1	-62.0	0.0
2026-01-22 19:14:06.125738	327.7	12.9	-63.2	0.0
2026-01-22 19:14:08.377422	327.9	12.7	-62.3	0.0
2026-01-22 19:14:10.630228	328.2	12.6	-62.9	0.0
2026-01-22 19:14:12.886154	328.4	12.4	-61.9	0.0
2026-01-22 19:14:15.137941	328.6	12.2	-63.7	0.0
2026-01-22 19:14:17.391448	328.8	12.0	-61.6	0.0
2026-01-22 19:14:19.644385	329.0	11.8	-61.5	0.0
2026-01-22 19:14:21.899716	329.2	11.6	-62.3	0.0
2026-01-22 19:14:24.156400	329.4	11.4	-62.1	0.0
2026-01-22 19:14:26.408000	329.6	11.3	-61.8	0.0
2026-01-22 19:14:28.660260	329.8	11.1	-62.3	0.0
2026-01-22 19:14:30.912609	330.0	10.9	-65.0	0.0
2026-01-22 19:14:33.164886	330.2	10.7	-67.2	0.0
2026-01-22 19:14:35.417244	330.4	10.5	-69.9	0.0
2026-01-22 19:14:37.670942	330.6	10.4	-73.6	0.0
2026-01-22 19:14:39.920402	330.8	10.2	-71.4	0.0
#Closed at: 2026-01-22 19:04:46.897457