passes_logs/2026/01/22/planumMaritime01/planumMaritime01__20260122_073405_METOP-C_rec.log

#Pass ID: 20260122_073405_METOP-C
#Satellite: METOP-C
#Configuration: METOP-C
#Start time: 2026-01-22 07:34:10.275470

#LorettStation: 1.0.0 05.05.2024
#Station: planumMaritime01
#Location: 37.49445 lon 55.92918 lat
#TLE: 1 43689U 18087A   26020.95760914  .00000315  00000+0  16376-3 0  9999
#TLE: 2 43689  98.6867  83.1145 0000854 172.1455 187.9736 14.21501717373913

#Time	Az	El	Level	SNR
2026-01-22 07:34:12.440719	19.1	10.2	-67.4	0.0
2026-01-22 07:34:14.696640	19.1	10.4	-66.3	0.0
2026-01-22 07:34:16.949478	19.2	10.6	-66.0	0.0
2026-01-22 07:34:19.208297	19.2	10.8	-58.8	0.0
2026-01-22 07:34:21.458137	19.3	11.0	-61.9	0.0
2026-01-22 07:34:23.714393	19.3	11.2	-62.3	0.0
2026-01-22 07:34:25.966674	19.4	11.4	-59.7	0.0
2026-01-22 07:34:28.220661	19.4	11.6	-62.0	0.0
2026-01-22 07:34:30.471403	19.5	11.8	-62.2	0.0
2026-01-22 07:34:32.724035	19.5	12.0	-61.1	0.0
2026-01-22 07:34:34.974842	19.6	12.2	-62.4	0.0
2026-01-22 07:34:37.231381	19.6	12.4	-63.0	0.0
2026-01-22 07:34:39.484197	19.7	12.7	-64.1	0.0
2026-01-22 07:34:41.738254	19.7	12.9	-58.9	0.0
2026-01-22 07:34:43.990280	19.8	13.1	-61.6	0.0
2026-01-22 07:34:46.240513	19.9	13.3	-62.0	0.0
2026-01-22 07:34:48.495131	19.9	13.5	-59.9	0.0
2026-01-22 07:34:50.748639	20.0	13.8	-58.2	0.0
2026-01-22 07:34:53.000465	20.0	14.0	-61.0	0.0
2026-01-22 07:34:55.254012	20.1	14.2	-59.4	0.0
2026-01-22 07:34:57.504885	20.2	14.4	-62.4	0.0
2026-01-22 07:34:59.757285	20.2	14.7	-60.6	0.0
2026-01-22 07:35:02.007432	20.3	14.9	-59.1	0.0
2026-01-22 07:35:04.260667	20.3	15.2	-60.3	0.0
2026-01-22 07:35:06.515300	20.4	15.4	-59.0	0.0
2026-01-22 07:35:08.768016	20.5	15.6	-61.9	0.0
2026-01-22 07:35:11.022604	20.5	15.9	-58.8	0.0
2026-01-22 07:35:13.277636	20.6	16.1	-60.2	0.0
2026-01-22 07:35:15.532679	20.7	16.4	-59.3	0.0
2026-01-22 07:35:17.787156	20.7	16.6	-61.8	0.0
2026-01-22 07:35:20.039970	20.8	16.9	-58.7	0.0
2026-01-22 07:35:22.292954	20.9	17.2	-61.2	0.0
2026-01-22 07:35:24.545581	21.0	17.4	-59.3	0.0
2026-01-22 07:35:26.799422	21.0	17.7	-61.6	0.0
2026-01-22 07:35:29.053060	21.1	17.9	-60.2	0.0
2026-01-22 07:35:31.307767	21.2	18.2	-62.5	0.0
2026-01-22 07:35:33.561006	21.3	18.5	-60.0	0.0
2026-01-22 07:35:35.815918	21.3	18.8	-61.6	0.0
2026-01-22 07:35:38.070329	21.4	19.0	-60.2	0.0
2026-01-22 07:35:40.322343	21.5	19.3	-59.5	0.0
2026-01-22 07:35:42.576749	21.6	19.6	-64.1	0.0
2026-01-22 07:35:44.830159	21.7	19.9	-59.8	0.0
2026-01-22 07:35:47.079348	21.7	20.2	-59.3	0.0
2026-01-22 07:35:49.330630	21.8	20.5	-60.7	0.0
2026-01-22 07:35:51.585461	21.9	20.8	-61.8	0.0
2026-01-22 07:35:53.839174	22.0	21.1	-60.2	0.0
2026-01-22 07:35:56.090027	22.1	21.4	-60.0	0.0
2026-01-22 07:35:58.344798	22.2	21.7	-62.5	0.0
2026-01-22 07:36:00.598028	22.3	22.0	-61.1	0.0
2026-01-22 07:36:02.853186	22.4	22.3	-63.4	0.0
2026-01-22 07:36:05.102259	22.5	22.7	-61.4	0.0
2026-01-22 07:36:07.355992	22.6	23.0	-62.6	0.0
2026-01-22 07:36:09.603642	22.7	23.3	-62.9	0.0
2026-01-22 07:36:11.859447	22.8	23.7	-62.5	0.0
2026-01-22 07:36:14.112202	22.9	24.0	-61.0	0.0
2026-01-22 07:36:16.365552	23.0	24.3	-62.0	0.0
2026-01-22 07:36:18.617139	23.1	24.7	-62.7	0.0
2026-01-22 07:36:20.870785	23.2	25.0	-61.4	0.0
2026-01-22 07:36:23.125720	23.3	25.4	-62.4	0.0
2026-01-22 07:36:25.382742	23.5	25.8	-62.0	0.0
2026-01-22 07:36:27.638411	23.6	26.1	-62.9	0.0
2026-01-22 07:36:29.888925	23.7	26.5	-63.0	0.0
2026-01-22 07:36:32.143010	23.8	26.9	-63.6	0.0
2026-01-22 07:36:34.394836	24.0	27.2	-63.3	0.0
2026-01-22 07:36:36.648827	24.1	27.6	-64.1	0.0
2026-01-22 07:36:38.901402	24.2	28.0	-63.1	0.0
2026-01-22 07:36:41.154190	24.4	28.4	-64.3	0.0
2026-01-22 07:36:43.407066	24.5	28.8	-62.4	0.0
2026-01-22 07:36:45.659538	24.6	29.2	-64.1	0.0
2026-01-22 07:36:47.912470	24.8	29.7	-64.7	0.0
2026-01-22 07:36:50.167424	24.9	30.1	-65.9	0.0
2026-01-22 07:36:52.421274	25.1	30.5	-65.7	0.0
2026-01-22 07:36:54.676023	25.3	30.9	-65.0	0.0
2026-01-22 07:36:56.928777	25.4	31.4	-66.7	0.0
2026-01-22 07:36:59.183999	25.6	31.8	-66.8	0.0
2026-01-22 07:37:01.439661	25.8	32.3	-66.7	0.0
2026-01-22 07:37:03.693321	25.9	32.7	-66.8	0.0
2026-01-22 07:37:05.948178	26.1	33.2	-67.3	0.0
2026-01-22 07:37:08.203339	26.3	33.7	-66.8	0.0
2026-01-22 07:37:10.454947	26.5	34.2	-66.7	0.0
2026-01-22 07:37:12.706514	26.7	34.6	-66.3	0.0
2026-01-22 07:37:14.958496	26.9	35.1	-67.2	0.6
2026-01-22 07:37:17.211622	27.1	35.6	-67.2	1.1
2026-01-22 07:37:19.464072	27.3	36.2	-67.9	1.1
2026-01-22 07:37:21.716925	27.5	36.7	-67.8	0.0
2026-01-22 07:37:23.971501	27.8	37.2	-68.1	1.7
2026-01-22 07:37:26.227648	28.0	37.7	-68.4	1.9
2026-01-22 07:37:28.478696	28.2	38.3	-68.7	3.9
2026-01-22 07:37:30.732284	28.5	38.8	-67.2	0.0
2026-01-22 07:37:32.987491	28.7	39.4	-69.4	2.1
2026-01-22 07:37:35.238724	29.0	40.0	-69.3	4.0
2026-01-22 07:37:37.488497	29.3	40.5	-69.0	4.3
2026-01-22 07:37:39.740345	29.6	41.1	-70.1	6.5
2026-01-22 07:37:41.992118	29.9	41.7	-68.8	6.6
2026-01-22 07:37:44.244804	30.2	42.3	-70.0	7.3
2026-01-22 07:37:46.494703	30.5	42.9	-69.6	4.7
2026-01-22 07:37:48.751958	30.8	43.6	-69.5	4.0
2026-01-22 07:37:51.002260	31.2	44.2	-68.9	5.6
2026-01-22 07:37:53.254409	31.5	44.8	-69.0	2.3
2026-01-22 07:37:55.509000	31.9	45.5	-69.8	4.5
2026-01-22 07:37:57.763330	32.3	46.2	-69.3	5.1
2026-01-22 07:38:00.018890	32.7	46.8	-69.6	4.4
2026-01-22 07:38:02.271963	33.1	47.5	-69.3	4.5
2026-01-22 07:38:04.523264	33.6	48.2	-69.2	4.8
2026-01-22 07:38:06.776107	34.0	48.9	-68.7	3.8
2026-01-22 07:38:09.029471	34.5	49.6	-69.5	6.7
2026-01-22 07:38:11.283138	35.0	50.3	-68.6	6.2
2026-01-22 07:38:13.538501	35.6	51.0	-68.1	3.3
2026-01-22 07:38:15.791398	36.1	51.8	-68.6	4.9
2026-01-22 07:38:18.044528	36.7	52.5	-69.5	5.1
2026-01-22 07:38:20.298392	37.3	53.3	-68.9	4.1
2026-01-22 07:38:22.548465	38.0	54.0	-69.7	4.4
2026-01-22 07:38:24.798648	38.7	54.8	-70.8	6.8
2026-01-22 07:38:27.053287	39.4	55.6	-69.8	0.0
2026-01-22 07:38:29.306122	40.1	56.3	-68.5	3.1
2026-01-22 07:38:31.560208	40.9	57.1	-71.2	7.8
2026-01-22 07:38:33.815157	41.8	57.9	-69.1	4.3
2026-01-22 07:38:36.070376	42.7	58.7	-70.0	5.2
2026-01-22 07:38:38.325905	43.6	59.5	-70.8	6.9
2026-01-22 07:38:40.577341	44.7	60.3	-69.7	4.1
2026-01-22 07:38:42.830994	45.7	61.1	-67.9	0.4
2026-01-22 07:38:45.085763	46.9	61.9	-69.2	6.5
2026-01-22 07:38:47.340238	48.1	62.7	-69.3	6.3
2026-01-22 07:38:49.594015	49.5	63.6	-70.3	6.8
2026-01-22 07:38:51.846181	50.9	64.4	-70.1	6.5
2026-01-22 07:38:54.097033	52.4	65.1	-70.8	6.6
2026-01-22 07:38:56.349885	54.0	65.9	-70.9	8.0
2026-01-22 07:38:58.600327	55.7	66.7	-70.4	6.3
2026-01-22 07:39:00.851437	57.6	67.5	-69.3	0.1
2026-01-22 07:39:03.104270	59.6	68.2	-70.9	8.2
2026-01-22 07:39:05.358228	61.8	68.9	-70.9	6.1
2026-01-22 07:39:07.613543	64.1	69.6	-71.7	5.1
2026-01-22 07:39:09.873459	66.6	70.3	-71.2	6.8
2026-01-22 07:39:12.124697	69.3	70.9	-71.3	4.7
2026-01-22 07:39:14.378297	72.2	71.5	-71.7	5.9
2026-01-22 07:39:16.632094	75.3	72.1	-72.6	6.8
2026-01-22 07:39:18.883220	78.5	72.6	-71.5	1.9
2026-01-22 07:39:21.134460	82.0	73.1	-72.7	6.7
2026-01-22 07:39:23.385985	85.7	73.4	-71.0	7.9
2026-01-22 07:39:25.638585	89.5	73.8	-71.4	6.5
2026-01-22 07:39:27.891047	93.5	74.0	-71.8	5.8
2026-01-22 07:39:30.143214	97.5	74.2	-71.0	1.4
2026-01-22 07:39:32.397636	101.7	74.3	-72.1	9.0
2026-01-22 07:39:34.650397	105.9	74.3	-70.6	4.2
2026-01-22 07:39:36.903599	110.1	74.3	-71.9	4.6
2026-01-22 07:39:39.155304	114.2	74.1	-73.0	8.2
2026-01-22 07:39:41.409700	118.3	73.9	-72.9	7.9
2026-01-22 07:39:43.662181	122.2	73.6	-72.3	8.5
2026-01-22 07:39:45.914647	125.9	73.3	-72.6	8.2
2026-01-22 07:39:48.166269	129.5	72.9	-72.8	9.4
2026-01-22 07:39:50.418106	132.9	72.4	-73.2	9.9
2026-01-22 07:39:52.674463	136.1	71.8	-72.9	9.4
2026-01-22 07:39:54.924866	139.0	71.3	-72.9	9.3
2026-01-22 07:39:57.178397	141.8	70.7	-73.1	10.6
2026-01-22 07:39:59.431518	144.4	70.0	-73.5	11.5
2026-01-22 07:40:01.687203	146.9	69.3	-73.4	11.8
2026-01-22 07:40:03.938306	149.1	68.6	-73.0	12.6
2026-01-22 07:40:06.189880	151.2	67.9	-72.9	13.5
2026-01-22 07:40:08.443746	153.2	67.1	-72.7	12.8
2026-01-22 07:40:10.695655	155.0	66.3	-72.9	13.2
2026-01-22 07:40:12.948171	156.7	65.6	-72.6	12.4
2026-01-22 07:40:15.200272	158.3	64.8	-72.4	12.4
2026-01-22 07:40:17.454130	159.7	64.0	-73.1	12.8
2026-01-22 07:40:19.708682	161.1	63.2	-72.9	11.2
2026-01-22 07:40:21.961408	162.4	62.4	-72.9	12.7
2026-01-22 07:40:24.215296	163.6	61.6	-72.8	11.5
2026-01-22 07:40:26.465251	164.7	60.7	-72.6	11.7
2026-01-22 07:40:28.717939	165.8	59.9	-73.1	13.0
2026-01-22 07:40:30.969348	166.7	59.1	-72.8	13.5
2026-01-22 07:40:33.221225	167.7	58.3	-73.3	12.9
2026-01-22 07:40:35.474795	168.6	57.5	-73.4	11.5
2026-01-22 07:40:37.725697	169.4	56.7	-73.5	12.3
2026-01-22 07:40:39.979460	170.2	55.9	-73.3	13.0
2026-01-22 07:40:42.229552	170.9	55.2	-73.5	12.7
2026-01-22 07:40:44.480001	171.6	54.4	-73.5	12.5
2026-01-22 07:40:46.735005	172.3	53.6	-73.4	13.0
2026-01-22 07:40:48.986873	172.9	52.9	-73.0	12.7
2026-01-22 07:40:51.239617	173.5	52.1	-73.1	12.9
2026-01-22 07:40:53.494266	174.1	51.4	-73.6	12.5
2026-01-22 07:40:55.749438	174.6	50.6	-73.4	13.5
2026-01-22 07:40:58.001988	175.1	49.9	-73.5	13.6
2026-01-22 07:41:00.251353	175.6	49.2	-73.8	14.2
2026-01-22 07:41:02.503630	176.1	48.5	-73.9	13.7
2026-01-22 07:41:04.756005	176.6	47.8	-73.9	13.2
2026-01-22 07:41:07.006613	177.0	47.1	-73.9	12.5
2026-01-22 07:41:09.261021	177.4	46.4	-73.7	13.7
2026-01-22 07:41:11.512863	177.8	45.8	-73.7	13.9
2026-01-22 07:41:13.763840	178.2	45.1	-73.6	13.7
2026-01-22 07:41:16.017093	178.6	44.5	-73.9	14.4
2026-01-22 07:41:18.268965	178.9	43.8	-73.7	12.2
2026-01-22 07:41:20.520948	179.3	43.2	-73.5	12.5
2026-01-22 07:41:22.776578	179.6	42.6	-73.4	12.3
2026-01-22 07:41:25.028890	179.9	42.0	-72.2	11.4
2026-01-22 07:41:27.280818	180.2	41.4	-72.3	11.2
2026-01-22 07:41:29.532008	180.5	40.8	-72.8	11.2
2026-01-22 07:41:31.783659	180.8	40.2	-72.8	10.4
2026-01-22 07:41:34.036848	181.1	39.6	-72.2	7.5
2026-01-22 07:41:36.291457	181.3	39.0	-72.8	8.8
2026-01-22 07:41:38.543037	181.6	38.5	-72.1	9.1
2026-01-22 07:41:40.796069	181.8	37.9	-72.2	9.2
2026-01-22 07:41:43.048473	182.1	37.4	-71.9	8.9
2026-01-22 07:41:45.299681	182.3	36.8	-72.1	10.4
2026-01-22 07:41:47.552345	182.5	36.3	-72.2	7.5
2026-01-22 07:41:49.807274	182.7	35.8	-72.0	8.4
2026-01-22 07:41:52.060959	182.9	35.3	-72.1	7.6
2026-01-22 07:41:54.315158	183.1	34.8	-71.7	7.9
2026-01-22 07:41:56.569617	183.3	34.3	-72.0	6.2
2026-01-22 07:41:58.822684	183.5	33.8	-71.8	6.1
2026-01-22 07:42:01.074745	183.7	33.3	-71.3	6.4
2026-01-22 07:42:03.328366	183.9	32.9	-72.1	5.7
2026-01-22 07:42:05.585003	184.1	32.4	-71.4	6.9
2026-01-22 07:42:07.837814	184.3	31.9	-72.3	5.9
2026-01-22 07:42:10.091089	184.4	31.5	-72.3	7.1
2026-01-22 07:42:12.348200	184.6	31.0	-71.9	5.0
2026-01-22 07:42:14.602423	184.8	30.6	-71.4	2.8
2026-01-22 07:42:16.855745	184.9	30.2	-71.4	4.1
2026-01-22 07:42:19.111065	185.1	29.7	-71.2	3.6
2026-01-22 07:42:21.364702	185.2	29.3	-71.6	2.5
2026-01-22 07:42:23.620978	185.4	28.9	-72.0	1.5
2026-01-22 07:42:25.873016	185.5	28.5	-71.4	2.5
2026-01-22 07:42:28.126692	185.6	28.1	-71.5	3.0
2026-01-22 07:42:30.380740	185.8	27.7	-71.5	1.7
2026-01-22 07:42:32.633386	185.9	27.3	-71.7	2.5
2026-01-22 07:42:34.886188	186.0	26.9	-71.9	6.1
2026-01-22 07:42:37.143064	186.1	26.5	-71.0	2.8
2026-01-22 07:42:39.395857	186.3	26.2	-71.4	3.7
2026-01-22 07:42:41.647835	186.4	25.8	-71.6	4.5
2026-01-22 07:42:43.901442	186.5	25.4	-71.1	4.2
2026-01-22 07:42:46.154423	186.6	25.1	-71.2	5.3
2026-01-22 07:42:48.406115	186.7	24.7	-71.5	2.4
2026-01-22 07:42:50.656620	186.8	24.4	-71.7	2.9
2026-01-22 07:42:52.909383	187.0	24.0	-71.5	1.8
2026-01-22 07:42:55.162067	187.1	23.7	-71.0	1.0
2026-01-22 07:42:57.415886	187.2	23.3	-71.5	2.7
2026-01-22 07:42:59.667964	187.3	23.0	-70.8	2.7
2026-01-22 07:43:01.924895	187.4	22.7	-72.1	2.9
2026-01-22 07:43:04.176215	187.5	22.3	-71.4	3.2
2026-01-22 07:43:06.430194	187.6	22.0	-71.6	4.0
2026-01-22 07:43:08.687289	187.7	21.7	-72.4	4.5
2026-01-22 07:43:10.938775	187.7	21.4	-71.5	2.7
2026-01-22 07:43:13.189623	187.8	21.1	-71.9	3.7
2026-01-22 07:43:15.443787	187.9	20.8	-71.8	3.2
2026-01-22 07:43:17.695333	188.0	20.5	-71.9	2.7
2026-01-22 07:43:19.944420	188.1	20.2	-71.9	2.9
2026-01-22 07:43:22.196674	188.2	19.9	-71.7	2.6
2026-01-22 07:43:24.450960	188.3	19.6	-72.6	5.5
2026-01-22 07:43:26.703158	188.3	19.3	-72.2	2.7
2026-01-22 07:43:28.953242	188.4	19.0	-72.1	1.4
2026-01-22 07:43:31.206758	188.5	18.7	-71.7	1.5
2026-01-22 07:43:33.456360	188.6	18.4	-72.1	2.2
2026-01-22 07:43:35.710406	188.7	18.2	-72.6	1.1
2026-01-22 07:43:37.963420	188.7	17.9	-72.1	0.8
2026-01-22 07:43:40.214900	188.8	17.6	-73.1	1.9
2026-01-22 07:43:42.470210	188.9	17.4	-72.2	0.0
2026-01-22 07:43:44.725529	188.9	17.1	-72.9	1.9
2026-01-22 07:43:46.980695	189.0	16.8	-72.4	1.8
2026-01-22 07:43:49.231219	189.1	16.6	-73.4	2.4
2026-01-22 07:43:51.483899	189.2	16.3	-73.3	2.6
2026-01-22 07:43:53.734459	189.2	16.1	-73.3	2.3
2026-01-22 07:43:55.987187	189.3	15.8	-73.2	0.8
2026-01-22 07:43:58.240874	189.4	15.6	-73.1	2.5
2026-01-22 07:44:00.491585	189.4	15.3	-72.8	1.9
2026-01-22 07:44:02.743159	189.5	15.1	-72.2	0.0
2026-01-22 07:44:04.995700	189.5	14.8	-72.1	0.0
2026-01-22 07:44:07.248700	189.6	14.6	-73.0	0.7
2026-01-22 07:44:09.500078	189.7	14.4	-72.2	1.4
2026-01-22 07:44:11.754534	189.7	14.1	-72.7	0.8
2026-01-22 07:44:14.006095	189.8	13.9	-72.7	0.0
2026-01-22 07:44:16.259194	189.8	13.7	-72.4	1.2
2026-01-22 07:44:18.517577	189.9	13.5	-72.4	0.0
2026-01-22 07:44:20.770404	190.0	13.2	-72.1	0.0
2026-01-22 07:44:23.024345	190.0	13.0	-71.7	0.0
2026-01-22 07:44:25.279701	190.1	12.8	-71.4	0.0
2026-01-22 07:44:27.531953	190.1	12.6	-72.2	0.0
2026-01-22 07:44:29.788820	190.2	12.3	-72.9	0.0
2026-01-22 07:44:32.043368	190.2	12.1	-72.5	0.0
2026-01-22 07:44:34.297572	190.3	11.9	-71.7	0.0
2026-01-22 07:44:36.550371	190.3	11.7	-72.6	0.0
2026-01-22 07:44:38.804577	190.4	11.5	-72.0	0.0
2026-01-22 07:44:41.058062	190.4	11.3	-71.5	0.0
2026-01-22 07:44:43.312119	190.5	11.1	-71.6	0.0
2026-01-22 07:44:45.566665	190.5	10.9	-72.6	0.0
2026-01-22 07:44:47.820293	190.6	10.7	-72.9	0.0
2026-01-22 07:44:50.074771	190.6	10.5	-76.3	0.0
2026-01-22 07:44:52.325058	190.7	10.3	-80.0	0.0
2026-01-22 07:44:54.576269	190.7	10.1	-79.4	0.0
#Closed at: 2026-01-22 07:34:05.282635