passes_logs/2026/01/22/planumMaritime01/planumMaritime01__20260122_065557_METOP-B_rec.log

#Pass ID: 20260122_065557_METOP-B
#Satellite: METOP-B
#Configuration: METOP-B
#Start time: 2026-01-22 06:56:02.071077

#LorettStation: 1.0.0 05.05.2024
#Station: planumMaritime01
#Location: 37.49445 lon 55.92918 lat
#TLE: 1 38771U 12049A   26020.93100023  .00000294  00000+0  15455-3 0  9997
#TLE: 2 38771  98.6739  75.2147 0003130  64.7720 295.3782 14.21425606692340

#Time	Az	El	Level	SNR
2026-01-22 06:56:06.263698	20.4	10.4	-65.7	0.0
2026-01-22 06:56:08.515113	20.5	10.6	-65.0	0.0
2026-01-22 06:56:10.769485	20.5	10.8	-65.9	0.0
2026-01-22 06:56:13.020413	20.6	11.0	-63.0	0.0
2026-01-22 06:56:15.273809	20.7	11.2	-62.9	0.0
2026-01-22 06:56:17.526612	20.7	11.4	-61.9	0.0
2026-01-22 06:56:19.782130	20.8	11.6	-60.6	0.0
2026-01-22 06:56:22.035984	20.9	11.8	-59.9	0.0
2026-01-22 06:56:24.289483	21.0	12.0	-58.1	0.0
2026-01-22 06:56:26.544351	21.0	12.2	-60.4	0.0
2026-01-22 06:56:28.798252	21.1	12.4	-62.0	0.0
2026-01-22 06:56:31.052286	21.2	12.6	-61.0	0.0
2026-01-22 06:56:33.305676	21.3	12.8	-60.1	0.0
2026-01-22 06:56:35.558357	21.3	13.0	-60.5	0.0
2026-01-22 06:56:37.815202	21.4	13.3	-62.3	0.0
2026-01-22 06:56:40.069890	21.5	13.5	-59.5	0.0
2026-01-22 06:56:42.324007	21.6	13.7	-60.8	0.0
2026-01-22 06:56:44.577755	21.7	13.9	-60.8	0.0
2026-01-22 06:56:46.832620	21.8	14.2	-63.1	0.0
2026-01-22 06:56:49.087479	21.8	14.4	-62.3	0.0
2026-01-22 06:56:51.344164	21.9	14.6	-63.3	0.0
2026-01-22 06:56:53.596494	22.0	14.9	-61.4	0.0
2026-01-22 06:56:55.851575	22.1	15.1	-62.6	0.0
2026-01-22 06:56:58.107307	22.2	15.3	-64.5	0.0
2026-01-22 06:57:00.358584	22.3	15.6	-60.9	0.0
2026-01-22 06:57:02.615519	22.4	15.8	-62.5	0.0
2026-01-22 06:57:04.869349	22.5	16.1	-61.8	0.0
2026-01-22 06:57:07.125848	22.6	16.3	-62.6	0.0
2026-01-22 06:57:09.384347	22.7	16.6	-61.1	0.0
2026-01-22 06:57:11.638165	22.8	16.8	-60.0	0.0
2026-01-22 06:57:13.893435	22.9	17.1	-62.4	0.0
2026-01-22 06:57:16.149609	23.0	17.3	-63.2	0.0
2026-01-22 06:57:18.402387	23.1	17.6	-60.3	0.0
2026-01-22 06:57:20.653604	23.2	17.9	-61.1	0.0
2026-01-22 06:57:22.906498	23.3	18.1	-62.3	0.0
2026-01-22 06:57:25.163165	23.4	18.4	-63.7	0.0
2026-01-22 06:57:27.418366	23.5	18.7	-62.4	0.0
2026-01-22 06:57:29.673557	23.6	18.9	-61.0	0.0
2026-01-22 06:57:31.927944	23.8	19.2	-61.0	0.0
2026-01-22 06:57:34.183984	23.9	19.5	-60.5	0.0
2026-01-22 06:57:36.439649	24.0	19.8	-60.9	0.0
2026-01-22 06:57:38.693069	24.1	20.1	-63.3	0.0
2026-01-22 06:57:40.946785	24.2	20.4	-61.0	0.0
2026-01-22 06:57:43.202729	24.4	20.7	-60.5	0.0
2026-01-22 06:57:45.457487	24.5	21.0	-61.0	0.0
2026-01-22 06:57:47.709615	24.6	21.3	-60.3	0.0
2026-01-22 06:57:49.967478	24.8	21.6	-61.5	0.0
2026-01-22 06:57:52.221244	24.9	21.9	-63.6	0.0
2026-01-22 06:57:54.475207	25.0	22.2	-62.3	0.0
2026-01-22 06:57:56.729001	25.2	22.5	-62.6	0.0
2026-01-22 06:57:58.981010	25.3	22.8	-62.7	0.0
2026-01-22 06:58:01.233992	25.5	23.1	-62.2	0.0
2026-01-22 06:58:03.490789	25.6	23.5	-61.4	0.0
2026-01-22 06:58:05.741054	25.8	23.8	-62.7	0.0
2026-01-22 06:58:07.992297	25.9	24.1	-63.1	0.0
2026-01-22 06:58:10.246415	26.1	24.5	-64.8	0.0
2026-01-22 06:58:12.499798	26.2	24.8	-65.1	0.0
2026-01-22 06:58:14.752146	26.4	25.2	-66.0	0.0
2026-01-22 06:58:17.006377	26.6	25.5	-65.6	0.0
2026-01-22 06:58:19.260048	26.8	25.9	-64.4	0.0
2026-01-22 06:58:21.515618	26.9	26.2	-63.7	0.0
2026-01-22 06:58:23.765492	27.1	26.6	-61.8	0.0
2026-01-22 06:58:26.020447	27.3	27.0	-64.4	0.0
2026-01-22 06:58:28.273204	27.5	27.3	-63.7	0.0
2026-01-22 06:58:30.528816	27.7	27.7	-63.9	0.0
2026-01-22 06:58:32.781644	27.9	28.1	-61.2	0.0
2026-01-22 06:58:35.033095	28.1	28.5	-64.4	0.0
2026-01-22 06:58:37.293313	28.3	28.9	-64.5	0.0
2026-01-22 06:58:39.547865	28.5	29.3	-64.9	0.0
2026-01-22 06:58:41.805284	28.7	29.7	-65.6	0.0
2026-01-22 06:58:44.058719	28.9	30.1	-64.1	0.0
2026-01-22 06:58:46.308473	29.2	30.5	-65.8	0.0
2026-01-22 06:58:48.561390	29.4	31.0	-65.1	0.0
2026-01-22 06:58:50.815526	29.6	31.4	-65.5	0.0
2026-01-22 06:58:53.068231	29.9	31.8	-66.2	0.0
2026-01-22 06:58:55.321167	30.1	32.3	-66.0	0.0
2026-01-22 06:58:57.577365	30.4	32.7	-66.5	0.0
2026-01-22 06:58:59.830308	30.6	33.2	-65.5	0.0
2026-01-22 06:59:02.083983	30.9	33.6	-67.6	0.0
2026-01-22 06:59:04.336287	31.2	34.1	-65.0	0.0
2026-01-22 06:59:06.587155	31.5	34.6	-68.2	0.0
2026-01-22 06:59:08.840341	31.8	35.1	-68.7	1.0
2026-01-22 06:59:11.093193	32.1	35.5	-67.6	0.0
2026-01-22 06:59:13.344393	32.4	36.0	-68.7	2.2
2026-01-22 06:59:15.598323	32.7	36.5	-69.5	4.8
2026-01-22 06:59:17.851249	33.1	37.0	-69.0	0.5
2026-01-22 06:59:20.102817	33.4	37.6	-67.4	0.0
2026-01-22 06:59:22.356466	33.8	38.1	-68.5	1.7
2026-01-22 06:59:24.609846	34.1	38.6	-68.2	3.3
2026-01-22 06:59:26.862171	34.5	39.1	-68.8	4.6
2026-01-22 06:59:29.113491	34.9	39.7	-69.5	6.8
2026-01-22 06:59:31.366059	35.3	40.2	-69.8	6.4
2026-01-22 06:59:33.621156	35.7	40.8	-68.7	4.3
2026-01-22 06:59:35.878672	36.1	41.4	-67.8	2.7
2026-01-22 06:59:38.131343	36.6	41.9	-68.5	5.1
2026-01-22 06:59:40.388265	37.1	42.5	-67.5	0.9
2026-01-22 06:59:42.643631	37.5	43.1	-68.1	2.2
2026-01-22 06:59:44.897279	38.0	43.7	-68.7	2.6
2026-01-22 06:59:47.148748	38.5	44.3	-67.7	0.0
2026-01-22 06:59:49.400971	39.1	44.9	-66.2	0.0
2026-01-22 06:59:51.655268	39.6	45.5	-66.6	0.0
2026-01-22 06:59:53.909724	40.2	46.1	-66.7	0.0
2026-01-22 06:59:56.163953	40.8	46.7	-67.1	0.1
2026-01-22 06:59:58.416447	41.4	47.4	-66.8	0.0
2026-01-22 07:00:00.669872	42.1	48.0	-67.6	2.4
2026-01-22 07:00:02.924811	42.8	48.7	-66.4	0.0
2026-01-22 07:00:05.180545	43.5	49.3	-66.4	0.0
2026-01-22 07:00:07.435348	44.2	50.0	-67.3	0.0
2026-01-22 07:00:09.690516	45.0	50.6	-63.9	0.0
2026-01-22 07:00:11.946392	45.8	51.3	-67.2	1.6
2026-01-22 07:00:14.201266	46.6	51.9	-64.5	0.0
2026-01-22 07:00:16.452231	47.5	52.6	-65.2	0.0
2026-01-22 07:00:18.708251	48.4	53.3	-63.5	0.0
2026-01-22 07:00:20.961843	49.4	53.9	-64.2	0.0
2026-01-22 07:00:23.216845	50.4	54.6	-65.2	0.0
2026-01-22 07:00:25.470418	51.4	55.3	-64.9	0.0
2026-01-22 07:00:27.728624	52.5	56.0	-66.2	0.0
2026-01-22 07:00:29.984704	53.7	56.6	-66.2	0.0
2026-01-22 07:00:32.237251	54.9	57.3	-65.7	0.0
2026-01-22 07:00:34.492263	56.2	57.9	-66.2	0.0
2026-01-22 07:00:36.748293	57.5	58.6	-66.0	0.0
2026-01-22 07:00:39.003293	58.9	59.2	-66.8	3.4
2026-01-22 07:00:41.258065	60.4	59.9	-66.5	0.1
2026-01-22 07:00:43.511688	61.9	60.5	-67.6	0.0
2026-01-22 07:00:45.768896	63.6	61.1	-66.3	1.4
2026-01-22 07:00:48.021483	65.3	61.7	-65.8	0.0
2026-01-22 07:00:50.278537	67.1	62.3	-66.1	0.0
2026-01-22 07:00:52.532892	68.9	62.8	-66.0	0.6
2026-01-22 07:00:54.786087	70.9	63.4	-65.5	0.3
2026-01-22 07:00:57.041100	72.9	63.9	-66.6	0.0
2026-01-22 07:00:59.299575	75.1	64.4	-68.6	5.0
2026-01-22 07:01:01.554159	77.3	64.8	-65.9	3.6
2026-01-22 07:01:03.811274	79.6	65.3	-66.4	0.3
2026-01-22 07:01:06.068836	82.0	65.6	-69.8	5.6
2026-01-22 07:01:08.320433	84.5	66.0	-67.7	0.2
2026-01-22 07:01:10.575984	87.1	66.3	-69.4	5.5
2026-01-22 07:01:12.831858	89.7	66.6	-69.3	1.6
2026-01-22 07:01:15.083428	92.4	66.8	-69.5	4.8
2026-01-22 07:01:17.341056	95.1	67.0	-70.7	3.3
2026-01-22 07:01:19.595305	97.9	67.1	-70.5	4.3
2026-01-22 07:01:21.850141	100.7	67.2	-69.2	1.7
2026-01-22 07:01:24.103992	103.5	67.2	-70.5	5.2
2026-01-22 07:01:26.359250	106.3	67.2	-71.7	5.7
2026-01-22 07:01:28.611170	109.1	67.1	-70.8	2.4
2026-01-22 07:01:30.862957	111.9	67.0	-71.2	6.7
2026-01-22 07:01:33.115440	114.6	66.8	-72.2	7.5
2026-01-22 07:01:35.365717	117.3	66.6	-71.5	7.3
2026-01-22 07:01:37.619043	119.9	66.3	-70.9	5.6
2026-01-22 07:01:39.872436	122.5	66.0	-71.9	4.9
2026-01-22 07:01:42.127721	125.0	65.7	-71.6	5.6
2026-01-22 07:01:44.377634	127.4	65.3	-72.0	7.0
2026-01-22 07:01:46.631857	129.7	64.9	-71.3	7.6
2026-01-22 07:01:48.885128	132.0	64.4	-70.8	6.7
2026-01-22 07:01:51.139146	134.1	63.9	-71.4	7.7
2026-01-22 07:01:53.391475	136.2	63.4	-71.7	9.5
2026-01-22 07:01:55.645768	138.1	62.9	-71.7	9.4
2026-01-22 07:01:57.898890	140.0	62.3	-72.1	9.9
2026-01-22 07:02:00.149787	141.8	61.7	-72.1	9.9
2026-01-22 07:02:02.402537	143.5	61.1	-72.6	10.1
2026-01-22 07:02:04.657403	145.1	60.5	-72.1	10.1
2026-01-22 07:02:06.909387	146.7	59.9	-72.4	9.8
2026-01-22 07:02:09.162044	148.2	59.3	-72.4	9.6
2026-01-22 07:02:11.413968	149.6	58.6	-72.4	10.0
2026-01-22 07:02:13.665849	150.9	58.0	-72.5	8.1
2026-01-22 07:02:15.917099	152.2	57.3	-72.7	8.4
2026-01-22 07:02:18.172632	153.4	56.7	-72.7	10.0
2026-01-22 07:02:20.424911	154.6	56.0	-72.7	9.5
2026-01-22 07:02:22.678463	155.7	55.3	-72.9	8.7
2026-01-22 07:02:24.930761	156.7	54.6	-72.8	10.2
2026-01-22 07:02:27.183373	157.8	54.0	-72.6	10.4
2026-01-22 07:02:29.434269	158.7	53.3	-72.2	9.6
2026-01-22 07:02:31.686719	159.6	52.6	-72.4	9.7
2026-01-22 07:02:33.937819	160.5	52.0	-72.5	9.5
2026-01-22 07:02:36.191575	161.4	51.3	-72.2	9.4
2026-01-22 07:02:38.443217	162.2	50.6	-72.6	10.7
2026-01-22 07:02:40.698284	162.9	50.0	-72.6	10.2
2026-01-22 07:02:42.950050	163.7	49.3	-72.6	10.4
2026-01-22 07:02:45.202575	164.4	48.7	-72.6	10.9
2026-01-22 07:02:47.454018	165.1	48.0	-73.0	10.4
2026-01-22 07:02:49.706838	165.7	47.4	-73.0	10.6
2026-01-22 07:02:51.962739	166.3	46.7	-73.6	11.3
2026-01-22 07:02:54.214897	166.9	46.1	-73.4	10.9
2026-01-22 07:02:56.468321	167.5	45.5	-73.3	11.2
2026-01-22 07:02:58.722002	168.1	44.9	-73.2	10.1
2026-01-22 07:03:00.974530	168.6	44.3	-72.6	8.9
2026-01-22 07:03:03.225737	169.1	43.7	-73.9	11.5
2026-01-22 07:03:05.479130	169.6	43.1	-73.3	11.3
2026-01-22 07:03:07.733904	170.1	42.5	-73.2	11.3
2026-01-22 07:03:09.985035	170.6	41.9	-73.4	11.2
2026-01-22 07:03:12.238794	171.0	41.3	-73.1	10.9
2026-01-22 07:03:14.491337	171.5	40.8	-72.9	10.1
2026-01-22 07:03:16.744989	171.9	40.2	-73.0	7.4
2026-01-22 07:03:18.999381	172.3	39.7	-73.2	9.0
2026-01-22 07:03:21.253320	172.7	39.1	-72.3	9.4
2026-01-22 07:03:23.504841	173.1	38.6	-69.9	4.5
2026-01-22 07:03:25.758578	173.4	38.0	-72.9	9.6
2026-01-22 07:03:28.009704	173.8	37.5	-72.6	9.0
2026-01-22 07:03:30.260302	174.1	37.0	-71.6	2.1
2026-01-22 07:03:32.513592	174.5	36.5	-72.7	9.9
2026-01-22 07:03:34.765327	174.8	36.0	-72.5	7.8
2026-01-22 07:03:37.018315	175.1	35.5	-71.3	6.1
2026-01-22 07:03:39.273134	175.4	35.0	-71.6	6.4
2026-01-22 07:03:41.528108	175.7	34.5	-71.4	6.1
2026-01-22 07:03:43.781121	176.0	34.0	-71.6	7.4
2026-01-22 07:03:46.036048	176.3	33.6	-70.1	7.5
2026-01-22 07:03:48.289894	176.5	33.1	-72.1	7.7
2026-01-22 07:03:50.544278	176.8	32.7	-71.9	6.9
2026-01-22 07:03:52.796938	177.1	32.2	-70.5	4.6
2026-01-22 07:03:55.049231	177.3	31.8	-71.7	5.9
2026-01-22 07:03:57.302759	177.6	31.3	-71.7	4.0
2026-01-22 07:03:59.556064	177.8	30.9	-71.8	4.8
2026-01-22 07:04:01.809152	178.0	30.5	-71.6	3.3
2026-01-22 07:04:04.058886	178.3	30.0	-72.5	5.7
2026-01-22 07:04:06.312048	178.5	29.6	-71.9	4.4
2026-01-22 07:04:08.563289	178.7	29.2	-71.7	3.8
2026-01-22 07:04:10.816670	178.9	28.8	-71.0	1.5
2026-01-22 07:04:13.069094	179.1	28.4	-71.3	4.3
2026-01-22 07:04:15.321362	179.3	28.0	-71.3	3.7
2026-01-22 07:04:17.574134	179.5	27.6	-71.7	2.4
2026-01-22 07:04:19.826386	179.7	27.3	-71.9	3.9
2026-01-22 07:04:22.080285	179.9	26.9	-71.4	1.7
2026-01-22 07:04:24.333931	180.1	26.5	-71.5	2.9
2026-01-22 07:04:26.585799	180.2	26.1	-71.1	2.2
2026-01-22 07:04:28.839300	180.4	25.8	-71.4	3.4
2026-01-22 07:04:31.091175	180.6	25.4	-71.0	2.1
2026-01-22 07:04:33.342670	180.8	25.1	-71.8	3.0
2026-01-22 07:04:35.597218	180.9	24.7	-71.3	2.3
2026-01-22 07:04:37.849456	181.1	24.4	-70.9	2.1
2026-01-22 07:04:40.100092	181.2	24.0	-71.7	2.7
2026-01-22 07:04:42.353131	181.4	23.7	-71.6	2.0
2026-01-22 07:04:44.607236	181.5	23.4	-71.9	0.4
2026-01-22 07:04:46.860318	181.7	23.0	-71.3	2.9
2026-01-22 07:04:49.115713	181.8	22.7	-71.8	2.6
2026-01-22 07:04:51.368887	182.0	22.4	-71.3	1.2
2026-01-22 07:04:53.621409	182.1	22.1	-72.3	3.6
2026-01-22 07:04:55.871250	182.3	21.8	-72.6	3.6
2026-01-22 07:04:58.126012	182.4	21.4	-72.5	5.0
2026-01-22 07:05:00.383676	182.5	21.1	-72.9	4.8
2026-01-22 07:05:02.635876	182.7	20.8	-72.1	2.6
2026-01-22 07:05:04.888303	182.8	20.5	-72.5	2.3
2026-01-22 07:05:07.140873	182.9	20.2	-72.1	1.5
2026-01-22 07:05:09.393077	183.0	19.9	-72.4	2.3
2026-01-22 07:05:11.644318	183.1	19.7	-72.4	2.8
2026-01-22 07:05:13.894611	183.3	19.4	-73.0	4.3
2026-01-22 07:05:16.148419	183.4	19.1	-73.2	4.8
2026-01-22 07:05:18.401036	183.5	18.8	-72.8	3.1
2026-01-22 07:05:20.652843	183.6	18.5	-73.9	2.8
2026-01-22 07:05:22.907337	183.7	18.3	-73.3	3.4
2026-01-22 07:05:25.159209	183.8	18.0	-73.1	3.8
2026-01-22 07:05:27.412494	183.9	17.7	-72.7	1.1
2026-01-22 07:05:29.665474	184.0	17.5	-73.5	1.8
2026-01-22 07:05:31.916911	184.1	17.2	-73.3	2.0
2026-01-22 07:05:34.169500	184.2	16.9	-73.1	2.4
2026-01-22 07:05:36.423446	184.3	16.7	-73.3	3.3
2026-01-22 07:05:38.674943	184.4	16.4	-73.4	1.8
2026-01-22 07:05:40.928005	184.5	16.2	-72.3	2.7
2026-01-22 07:05:43.178686	184.6	15.9	-70.6	0.0
2026-01-22 07:05:45.432867	184.7	15.7	-73.7	2.9
2026-01-22 07:05:47.686325	184.8	15.4	-73.5	2.3
2026-01-22 07:05:49.940346	184.9	15.2	-73.4	1.0
2026-01-22 07:05:52.193352	185.0	15.0	-73.4	1.5
2026-01-22 07:05:54.444183	185.1	14.7	-73.7	2.7
2026-01-22 07:05:56.697892	185.2	14.5	-73.4	1.8
2026-01-22 07:05:58.951103	185.3	14.3	-73.3	1.8
2026-01-22 07:06:01.201305	185.4	14.0	-73.5	1.5
2026-01-22 07:06:03.456194	185.4	13.8	-72.7	0.0
2026-01-22 07:06:05.706006	185.5	13.6	-72.7	0.1
2026-01-22 07:06:07.958378	185.6	13.3	-72.9	0.0
2026-01-22 07:06:10.207892	185.7	13.1	-72.9	0.0
2026-01-22 07:06:12.459293	185.8	12.9	-73.1	0.0
2026-01-22 07:06:14.712557	185.8	12.7	-72.9	0.0
2026-01-22 07:06:16.965863	185.9	12.5	-72.6	0.0
2026-01-22 07:06:19.218689	186.0	12.3	-72.2	0.0
2026-01-22 07:06:21.467859	186.1	12.0	-72.9	0.0
2026-01-22 07:06:23.720012	186.1	11.8	-71.9	0.0
2026-01-22 07:06:25.973082	186.2	11.6	-72.5	0.0
2026-01-22 07:06:28.225727	186.3	11.4	-72.2	0.0
2026-01-22 07:06:30.479396	186.4	11.2	-72.4	0.0
2026-01-22 07:06:32.734609	186.4	11.0	-72.4	0.0
2026-01-22 07:06:34.987299	186.5	10.8	-72.7	0.0
2026-01-22 07:06:37.241019	186.6	10.6	-71.8	0.0
2026-01-22 07:06:39.493149	186.6	10.4	-74.4	0.0
2026-01-22 07:06:41.747145	186.7	10.2	-78.9	0.0
2026-01-22 07:06:43.999020	186.8	10.0	-79.2	0.0
#Closed at: 2026-01-22 06:55:57.077156