passes_logs/2026/01/22/planumMaritime01/planumMaritime01__20260122_121631_METEOR-M2_4_rec.log

#Pass ID: 20260122_121631_METEOR-M2 4
#Satellite: METEOR-M2 4
#Configuration: METEOR-M2 4
#Start time: 2026-01-22 12:16:36.420297

#LorettStation: 1.0.0 05.05.2024
#Station: planumMaritime01
#Location: 37.49445 lon 55.92918 lat
#TLE: 1 59051U 24039A   26020.95667625  .00000091  00000+0  60497-4 0  9993
#TLE: 2 59051  98.6825 342.2619 0006126 231.1027 128.9605 14.22408473 98337

#Time	Az	El	Level	SNR
2026-01-22 12:16:38.592558	195.5	10.2	-81.8	0.0
2026-01-22 12:16:40.856860	195.7	10.4	-81.4	0.0
2026-01-22 12:16:43.122329	195.9	10.5	-79.1	0.0
2026-01-22 12:16:45.388935	196.1	10.7	-77.2	0.0
2026-01-22 12:16:47.653078	196.2	10.9	-77.2	2.9
2026-01-22 12:16:49.923195	196.4	11.1	-76.1	4.3
2026-01-22 12:16:52.192069	196.6	11.3	-75.6	3.1
2026-01-22 12:16:54.458383	196.8	11.5	-76.0	3.9
2026-01-22 12:16:56.736030	197.0	11.7	-76.0	4.4
2026-01-22 12:16:59.010073	197.2	11.9	-76.3	5.3
2026-01-22 12:17:01.285112	197.4	12.0	-76.5	5.1
2026-01-22 12:17:03.560630	197.6	12.2	-75.8	4.5
2026-01-22 12:17:05.832533	197.8	12.4	-76.3	4.2
2026-01-22 12:17:08.107552	198.0	12.6	-76.4	4.7
2026-01-22 12:17:10.382815	198.2	12.8	-76.3	5.3
2026-01-22 12:17:12.657851	198.4	13.0	-76.4	6.0
2026-01-22 12:17:14.935247	198.6	13.2	-76.7	6.8
2026-01-22 12:17:17.208471	198.8	13.4	-76.4	5.4
2026-01-22 12:17:19.477366	199.0	13.6	-76.3	5.5
2026-01-22 12:17:21.749362	199.3	13.8	-76.0	4.9
2026-01-22 12:17:24.022208	199.5	14.1	-76.3	5.6
2026-01-22 12:17:26.297368	199.7	14.3	-76.4	4.0
2026-01-22 12:17:28.568345	199.9	14.5	-76.5	5.0
2026-01-22 12:17:30.841732	200.2	14.7	-76.4	5.9
2026-01-22 12:17:33.114482	200.4	14.9	-75.9	4.0
2026-01-22 12:17:35.388804	200.7	15.1	-76.1	5.2
2026-01-22 12:17:37.666357	200.9	15.3	-75.8	4.3
2026-01-22 12:17:39.944311	201.1	15.5	-75.9	5.9
2026-01-22 12:17:42.216795	201.4	15.8	-75.8	5.0
2026-01-22 12:17:44.484992	201.6	16.0	-76.3	5.7
2026-01-22 12:17:46.755343	201.9	16.2	-75.7	5.6
2026-01-22 12:17:49.028810	202.2	16.4	-76.0	5.3
2026-01-22 12:17:51.299651	202.4	16.6	-75.9	5.1
2026-01-22 12:17:53.572209	202.7	16.9	-76.1	6.6
2026-01-22 12:17:55.846441	203.0	17.1	-75.8	4.8
2026-01-22 12:17:58.118567	203.2	17.3	-76.2	6.9
2026-01-22 12:18:00.394803	203.5	17.5	-75.7	5.8
2026-01-22 12:18:02.669847	203.8	17.8	-75.8	6.6
2026-01-22 12:18:04.941138	204.1	18.0	-76.1	7.5
2026-01-22 12:18:07.213539	204.4	18.2	-76.0	6.8
2026-01-22 12:18:09.488735	204.7	18.5	-75.9	7.2
2026-01-22 12:18:11.759317	205.0	18.7	-75.7	7.8
2026-01-22 12:18:14.029088	205.3	19.0	-75.9	7.2
2026-01-22 12:18:16.303629	205.6	19.2	-75.8	8.0
2026-01-22 12:18:18.575481	205.9	19.4	-76.0	6.5
2026-01-22 12:18:20.844031	206.2	19.7	-75.8	6.6
2026-01-22 12:18:23.100949	206.5	19.9	-76.0	6.3
2026-01-22 12:18:25.357064	206.9	20.2	-76.0	7.0
2026-01-22 12:18:27.616014	207.2	20.4	-75.8	7.0
2026-01-22 12:18:29.874580	207.5	20.7	-76.3	6.9
2026-01-22 12:18:32.131398	207.9	20.9	-76.6	7.2
2026-01-22 12:18:34.391602	208.2	21.2	-76.7	9.0
2026-01-22 12:18:36.649271	208.6	21.4	-76.4	9.1
2026-01-22 12:18:38.906567	209.0	21.7	-76.2	9.0
2026-01-22 12:18:41.166067	209.3	21.9	-76.8	8.2
2026-01-22 12:18:43.422525	209.7	22.2	-77.3	9.0
2026-01-22 12:18:45.681528	210.1	22.4	-76.4	8.0
2026-01-22 12:18:47.939856	210.5	22.7	-76.6	7.7
2026-01-22 12:18:50.199930	210.8	23.0	-76.6	8.2
2026-01-22 12:18:52.455332	211.2	23.2	-76.8	8.9
2026-01-22 12:18:54.722639	211.6	23.5	-76.9	10.2
2026-01-22 12:18:56.993496	212.1	23.7	-77.1	10.4
2026-01-22 12:18:59.267122	212.5	24.0	-77.3	10.2
2026-01-22 12:19:01.541782	212.9	24.3	-77.4	10.4
2026-01-22 12:19:03.809960	213.3	24.6	-77.2	10.6
2026-01-22 12:19:06.081072	213.8	24.8	-77.3	11.0
2026-01-22 12:19:08.353516	214.2	25.1	-76.9	10.0
2026-01-22 12:19:10.625704	214.7	25.4	-77.2	11.9
2026-01-22 12:19:12.900937	215.2	25.6	-77.4	11.7
2026-01-22 12:19:15.175437	215.6	25.9	-76.8	10.0
2026-01-22 12:19:17.452776	216.1	26.2	-77.4	12.0
2026-01-22 12:19:19.727193	216.6	26.5	-77.0	11.5
2026-01-22 12:19:22.001590	217.1	26.7	-77.7	11.2
2026-01-22 12:19:24.278717	217.6	27.0	-78.0	11.3
2026-01-22 12:19:26.551642	218.1	27.3	-77.4	10.3
2026-01-22 12:19:28.824095	218.6	27.6	-77.7	11.6
2026-01-22 12:19:31.094396	219.2	27.9	-77.4	11.5
2026-01-22 12:19:33.363310	219.7	28.1	-77.6	12.1
2026-01-22 12:19:35.634824	220.3	28.4	-77.4	11.1
2026-01-22 12:19:37.904354	220.8	28.7	-77.4	12.1
2026-01-22 12:19:40.175990	221.4	29.0	-77.0	10.9
2026-01-22 12:19:42.449184	222.0	29.2	-77.2	11.2
2026-01-22 12:19:44.719531	222.6	29.5	-77.6	12.6
2026-01-22 12:19:46.993050	223.2	29.8	-77.6	11.1
2026-01-22 12:19:49.264807	223.8	30.1	-78.0	12.1
2026-01-22 12:19:51.541854	224.4	30.3	-77.6	11.8
2026-01-22 12:19:53.817488	225.0	30.6	-77.9	11.6
2026-01-22 12:19:56.092235	225.7	30.9	-77.9	11.3
2026-01-22 12:19:58.367932	226.3	31.2	-78.1	11.7
2026-01-22 12:20:00.640343	227.0	31.4	-77.8	10.8
2026-01-22 12:20:02.915264	227.6	31.7	-77.9	12.3
2026-01-22 12:20:05.185012	228.3	32.0	-77.9	11.7
2026-01-22 12:20:07.448415	229.0	32.2	-78.0	12.7
2026-01-22 12:20:09.706726	229.7	32.5	-78.3	12.9
2026-01-22 12:20:11.968253	230.4	32.7	-78.0	12.3
2026-01-22 12:20:14.227236	231.1	33.0	-77.7	11.6
2026-01-22 12:20:16.487734	231.9	33.3	-77.4	12.9
2026-01-22 12:20:18.745560	232.6	33.5	-77.7	12.9
2026-01-22 12:20:21.004028	233.4	33.7	-77.3	13.4
2026-01-22 12:20:23.261852	234.2	34.0	-77.1	13.8
2026-01-22 12:20:25.523943	234.9	34.2	-77.5	12.6
2026-01-22 12:20:27.781974	235.7	34.5	-77.4	13.0
2026-01-22 12:20:30.040969	236.5	34.7	-77.6	13.2
2026-01-22 12:20:32.307606	237.3	34.9	-77.7	12.8
2026-01-22 12:20:34.577495	238.2	35.1	-77.8	13.3
2026-01-22 12:20:36.849923	239.0	35.3	-78.1	12.7
2026-01-22 12:20:39.126484	239.9	35.6	-78.0	12.6
2026-01-22 12:20:41.396721	240.7	35.8	-78.2	12.3
2026-01-22 12:20:43.666922	241.6	36.0	-78.2	12.1
2026-01-22 12:20:45.938241	242.5	36.2	-78.1	11.9
2026-01-22 12:20:48.212844	243.4	36.3	-77.9	11.4
2026-01-22 12:20:50.489080	244.3	36.5	-78.0	11.7
2026-01-22 12:20:52.759821	245.2	36.7	-77.9	10.4
2026-01-22 12:20:55.029122	246.1	36.9	-77.7	10.9
2026-01-22 12:20:57.299476	247.0	37.0	-78.0	11.3
2026-01-22 12:20:59.565213	248.0	37.2	-78.0	11.4
2026-01-22 12:21:01.833505	248.9	37.3	-77.4	9.0
2026-01-22 12:21:04.105883	249.9	37.4	-77.4	11.1
2026-01-22 12:21:06.380157	250.8	37.6	-77.3	10.5
2026-01-22 12:21:08.654890	251.8	37.7	-77.7	11.6
2026-01-22 12:21:10.924659	252.8	37.8	-77.5	10.2
2026-01-22 12:21:13.195355	253.8	37.9	-77.5	9.3
2026-01-22 12:21:15.459881	254.7	38.0	-77.2	8.2
2026-01-22 12:21:17.726659	255.7	38.1	-77.4	9.9
2026-01-22 12:21:20.002519	256.7	38.1	-77.8	10.8
2026-01-22 12:21:22.279683	257.7	38.2	-77.1	9.2
2026-01-22 12:21:24.558025	258.7	38.3	-77.5	10.8
2026-01-22 12:21:26.832238	259.8	38.3	-77.0	9.7
2026-01-22 12:21:29.105903	260.8	38.3	-76.8	9.6
2026-01-22 12:21:31.383468	261.8	38.4	-77.3	10.6
2026-01-22 12:21:33.659720	262.8	38.4	-77.3	10.4
2026-01-22 12:21:35.935535	263.8	38.4	-76.3	9.3
2026-01-22 12:21:38.211800	264.8	38.4	-76.8	10.1
2026-01-22 12:21:40.488555	265.8	38.4	-76.9	8.9
2026-01-22 12:21:42.761780	266.9	38.3	-76.8	8.8
2026-01-22 12:21:45.030351	267.9	38.3	-76.9	7.1
2026-01-22 12:21:47.300683	268.9	38.2	-76.9	7.1
2026-01-22 12:21:49.569198	269.9	38.2	-76.1	6.6
2026-01-22 12:21:51.837459	270.9	38.1	-76.9	6.1
2026-01-22 12:21:54.093532	271.9	38.1	-76.2	3.5
2026-01-22 12:21:56.358608	272.8	38.0	-76.5	6.1
2026-01-22 12:21:58.619260	273.8	37.9	-76.2	5.6
2026-01-22 12:22:00.881055	274.8	37.8	-75.2	1.3
2026-01-22 12:22:03.143141	275.8	37.7	-76.0	6.5
2026-01-22 12:22:05.402117	276.7	37.6	-75.7	4.0
2026-01-22 12:22:07.661027	277.7	37.4	-76.1	7.2
2026-01-22 12:22:09.918412	278.6	37.3	-74.0	3.0
2026-01-22 12:22:12.175560	279.6	37.2	-75.4	6.6
2026-01-22 12:22:14.433613	280.5	37.0	-74.1	5.1
2026-01-22 12:22:16.706349	281.4	36.8	-75.1	5.2
2026-01-22 12:22:18.983351	282.4	36.7	-74.4	3.2
2026-01-22 12:22:21.250783	283.3	36.5	-75.1	4.2
2026-01-22 12:22:23.518433	284.2	36.3	-74.7	2.1
2026-01-22 12:22:25.785832	285.0	36.1	-75.3	5.5
2026-01-22 12:22:28.053325	285.9	35.9	-75.0	4.3
2026-01-22 12:22:30.319416	286.8	35.8	-74.0	0.5
2026-01-22 12:22:32.588226	287.6	35.5	-73.3	2.2
2026-01-22 12:22:34.853922	288.5	35.3	-73.7	0.0
2026-01-22 12:22:37.122118	289.3	35.1	-73.0	1.2
2026-01-22 12:22:39.386863	290.1	34.9	-72.9	0.0
2026-01-22 12:22:41.652308	291.0	34.7	-73.6	1.6
2026-01-22 12:22:43.921464	291.8	34.4	-73.4	3.7
2026-01-22 12:22:46.190207	292.5	34.2	-73.2	0.4
2026-01-22 12:22:48.456746	293.3	34.0	-74.3	2.3
2026-01-22 12:22:50.723517	294.1	33.7	-73.2	3.2
2026-01-22 12:22:52.999703	294.9	33.5	-72.6	2.1
2026-01-22 12:22:55.279958	295.6	33.2	-73.6	2.1
2026-01-22 12:22:57.555431	296.3	33.0	-72.6	0.0
2026-01-22 12:22:59.829824	297.1	32.7	-72.5	0.0
2026-01-22 12:23:02.107409	297.8	32.5	-72.1	1.5
2026-01-22 12:23:04.384787	298.5	32.2	-73.3	2.0
2026-01-22 12:23:06.657270	299.2	31.9	-74.0	1.4
2026-01-22 12:23:08.934321	299.9	31.7	-70.9	0.0
2026-01-22 12:23:11.206299	300.5	31.4	-72.7	1.7
2026-01-22 12:23:13.483746	301.2	31.1	-73.3	2.5
2026-01-22 12:23:15.761055	301.8	30.9	-73.6	3.9
2026-01-22 12:23:18.037074	302.5	30.6	-74.2	5.6
2026-01-22 12:23:20.318721	303.1	30.3	-72.5	1.0
2026-01-22 12:23:22.597126	303.7	30.1	-72.6	2.6
2026-01-22 12:23:24.866773	304.3	29.8	-74.7	5.0
2026-01-22 12:23:27.140904	304.9	29.5	-73.4	1.5
2026-01-22 12:23:29.411012	305.5	29.2	-74.5	3.0
2026-01-22 12:23:31.682269	306.1	29.0	-73.5	2.6
2026-01-22 12:23:33.954057	306.6	28.7	-73.8	2.7
2026-01-22 12:23:36.225540	307.2	28.4	-73.6	2.2
2026-01-22 12:23:38.504294	307.7	28.1	-73.0	0.0
2026-01-22 12:23:40.777511	308.3	27.9	-73.2	2.6
2026-01-22 12:23:43.053004	308.8	27.6	-74.0	1.8
2026-01-22 12:23:45.326504	309.3	27.3	-73.3	1.8
2026-01-22 12:23:47.602520	309.8	27.0	-73.3	0.0
2026-01-22 12:23:49.871800	310.3	26.8	-73.4	3.5
2026-01-22 12:23:52.142271	310.8	26.5	-75.8	6.4
2026-01-22 12:23:54.411761	311.3	26.2	-74.9	5.4
2026-01-22 12:23:56.684827	311.8	25.9	-72.6	0.0
2026-01-22 12:23:58.959817	312.3	25.7	-72.0	0.0
2026-01-22 12:24:01.230687	312.7	25.4	-74.4	2.0
2026-01-22 12:24:03.497657	313.2	25.1	-73.1	3.8
2026-01-22 12:24:05.767139	313.6	24.9	-73.0	3.7
2026-01-22 12:24:08.041131	314.1	24.6	-71.8	0.0
2026-01-22 12:24:10.307690	314.5	24.3	-71.6	0.0
2026-01-22 12:24:12.576651	314.9	24.1	-72.8	2.1
2026-01-22 12:24:14.842581	315.3	23.8	-73.4	0.0
2026-01-22 12:24:17.107020	315.8	23.5	-72.8	1.9
2026-01-22 12:24:19.370740	316.2	23.3	-72.8	0.0
2026-01-22 12:24:21.632119	316.6	23.0	-72.8	0.6
2026-01-22 12:24:23.891972	316.9	22.7	-70.3	0.0
2026-01-22 12:24:26.147829	317.3	22.5	-72.5	0.0
2026-01-22 12:24:28.402541	317.7	22.2	-73.1	0.0
2026-01-22 12:24:30.655962	318.1	22.0	-72.8	0.0
2026-01-22 12:24:32.922470	318.4	21.7	-73.6	0.0
2026-01-22 12:24:35.191202	318.8	21.5	-73.0	0.1
2026-01-22 12:24:37.466321	319.2	21.2	-73.8	0.0
2026-01-22 12:24:39.732394	319.5	21.0	-72.2	0.0
2026-01-22 12:24:42.007010	319.8	20.7	-71.5	0.0
2026-01-22 12:24:44.274972	320.2	20.5	-72.1	0.0
2026-01-22 12:24:46.545883	320.5	20.2	-74.2	0.0
2026-01-22 12:24:48.819258	320.9	20.0	-74.4	1.2
2026-01-22 12:24:51.095781	321.2	19.7	-73.0	0.0
2026-01-22 12:24:53.367745	321.5	19.5	-72.7	0.0
2026-01-22 12:24:55.641048	321.8	19.3	-70.8	0.0
2026-01-22 12:24:57.911509	322.1	19.0	-72.1	0.0
2026-01-22 12:25:00.178567	322.4	18.8	-72.3	0.0
2026-01-22 12:25:02.452675	322.7	18.6	-72.5	0.0
2026-01-22 12:25:04.729325	323.0	18.3	-73.0	0.0
2026-01-22 12:25:07.008509	323.3	18.1	-72.1	0.0
2026-01-22 12:25:09.284073	323.6	17.9	-72.7	0.0
2026-01-22 12:25:11.560220	323.9	17.6	-72.7	0.0
2026-01-22 12:25:13.839707	324.2	17.4	-71.6	0.0
2026-01-22 12:25:16.116844	324.4	17.2	-72.5	0.0
2026-01-22 12:25:18.395228	324.7	16.9	-72.0	0.0
2026-01-22 12:25:20.669065	325.0	16.7	-69.9	0.0
2026-01-22 12:25:22.948670	325.2	16.5	-72.1	0.0
2026-01-22 12:25:25.220281	325.5	16.3	-72.2	0.0
2026-01-22 12:25:27.492378	325.8	16.1	-71.1	0.0
2026-01-22 12:25:29.760373	326.0	15.8	-71.5	0.0
2026-01-22 12:25:32.025504	326.3	15.6	-72.0	0.0
2026-01-22 12:25:34.293161	326.5	15.4	-71.8	0.0
2026-01-22 12:25:36.559877	326.7	15.2	-70.2	0.0
2026-01-22 12:25:38.827229	327.0	15.0	-71.6	0.0
2026-01-22 12:25:41.094091	327.2	14.8	-69.1	0.0
2026-01-22 12:25:43.357627	327.4	14.6	-71.9	0.0
2026-01-22 12:25:45.621530	327.7	14.4	-71.1	0.0
2026-01-22 12:25:47.883609	327.9	14.2	-70.4	0.0
2026-01-22 12:25:50.143359	328.1	14.0	-70.9	0.0
2026-01-22 12:25:52.406936	328.3	13.8	-70.2	0.0
2026-01-22 12:25:54.671078	328.6	13.6	-69.7	0.0
2026-01-22 12:25:56.935452	328.8	13.4	-70.5	0.0
2026-01-22 12:25:59.203711	329.0	13.2	-69.1	0.0
2026-01-22 12:26:01.468482	329.2	13.0	-69.4	0.0
2026-01-22 12:26:03.742417	329.4	12.8	-69.7	0.0
2026-01-22 12:26:06.017542	329.6	12.6	-70.2	0.0
2026-01-22 12:26:08.292807	329.8	12.4	-66.6	0.0
2026-01-22 12:26:10.568198	330.0	12.2	-66.8	0.0
2026-01-22 12:26:12.843690	330.2	12.0	-69.0	0.0
2026-01-22 12:26:15.117518	330.4	11.8	-69.6	0.0
2026-01-22 12:26:17.389842	330.6	11.6	-68.4	0.0
2026-01-22 12:26:19.645627	330.8	11.4	-64.0	0.0
2026-01-22 12:26:21.901195	331.0	11.2	-68.9	0.0
2026-01-22 12:26:24.159850	331.2	11.1	-68.4	0.0
2026-01-22 12:26:26.416041	331.3	10.9	-68.8	0.0
2026-01-22 12:26:28.673036	331.5	10.7	-70.8	0.0
2026-01-22 12:26:30.928893	331.7	10.5	-73.7	0.0
2026-01-22 12:26:33.188495	331.9	10.3	-75.6	0.0
2026-01-22 12:26:35.446950	332.0	10.1	-75.5	0.0
#Closed at: 2026-01-22 12:16:31.426513