passes_logs/2026/01/22/planumMaritime01/planumMaritime01__20260122_164614_METOP-B_rec.log

#Pass ID: 20260122_164614_METOP-B
#Satellite: METOP-B
#Configuration: METOP-B
#Start time: 2026-01-22 16:46:19.305583

#LorettStation: 1.0.0 05.05.2024
#Station: planumMaritime01
#Location: 37.49445 lon 55.92918 lat
#TLE: 1 38771U 12049A   26022.26844106  .00000290  00000+0  15256-3 0  9997
#TLE: 2 38771  98.6737  76.5287 0003095  62.1759 297.9732 14.21426510692530

#Time	Az	El	Level	SNR
2026-01-22 16:46:21.472614	133.8	10.2	-75.4	0.0
2026-01-22 16:46:23.729787	133.7	10.4	-74.9	0.0
2026-01-22 16:46:25.985502	133.5	10.6	-72.7	0.0
2026-01-22 16:46:28.240091	133.4	10.8	-72.5	0.0
2026-01-22 16:46:30.492924	133.3	11.0	-72.1	0.0
2026-01-22 16:46:32.747285	133.1	11.1	-72.6	2.0
2026-01-22 16:46:35.001922	133.0	11.3	-72.2	1.0
2026-01-22 16:46:37.255663	132.9	11.5	-73.0	2.2
2026-01-22 16:46:39.507618	132.7	11.7	-72.8	1.1
2026-01-22 16:46:41.760434	132.6	11.9	-73.2	2.3
2026-01-22 16:46:44.019691	132.4	12.1	-73.1	0.0
2026-01-22 16:46:46.272669	132.3	12.4	-73.0	1.0
2026-01-22 16:46:48.527458	132.1	12.6	-72.6	0.0
2026-01-22 16:46:50.780007	132.0	12.8	-72.4	0.0
2026-01-22 16:46:53.034994	131.8	13.0	-73.6	2.1
2026-01-22 16:46:55.288478	131.7	13.2	-72.7	0.9
2026-01-22 16:46:57.543241	131.5	13.4	-73.5	2.4
2026-01-22 16:46:59.795075	131.3	13.6	-72.2	0.6
2026-01-22 16:47:02.048376	131.2	13.8	-73.1	3.6
2026-01-22 16:47:04.302410	131.0	14.0	-72.5	1.3
2026-01-22 16:47:06.557095	130.9	14.3	-72.3	1.4
2026-01-22 16:47:08.811606	130.7	14.5	-73.2	3.3
2026-01-22 16:47:11.063597	130.5	14.7	-72.9	2.6
2026-01-22 16:47:13.318217	130.3	14.9	-72.9	3.1
2026-01-22 16:47:15.570572	130.2	15.2	-72.7	3.9
2026-01-22 16:47:17.824703	130.0	15.4	-72.6	3.4
2026-01-22 16:47:20.074950	129.8	15.6	-72.7	3.0
2026-01-22 16:47:22.325565	129.6	15.8	-72.8	4.3
2026-01-22 16:47:24.576100	129.4	16.1	-72.7	2.7
2026-01-22 16:47:26.832486	129.2	16.3	-72.8	4.0
2026-01-22 16:47:29.086136	129.0	16.6	-72.5	4.5
2026-01-22 16:47:31.337908	128.8	16.8	-73.2	3.8
2026-01-22 16:47:33.590223	128.6	17.0	-72.9	4.7
2026-01-22 16:47:35.842222	128.4	17.3	-72.0	0.6
2026-01-22 16:47:38.097163	128.2	17.5	-73.0	4.0
2026-01-22 16:47:40.349370	128.0	17.8	-72.9	4.6
2026-01-22 16:47:42.601709	127.8	18.0	-72.1	3.0
2026-01-22 16:47:44.853945	127.6	18.3	-72.8	3.5
2026-01-22 16:47:47.106840	127.3	18.5	-72.4	5.0
2026-01-22 16:47:49.354987	127.1	18.8	-72.8	5.1
2026-01-22 16:47:51.609451	126.9	19.0	-72.2	3.1
2026-01-22 16:47:53.861880	126.6	19.3	-72.2	3.3
2026-01-22 16:47:56.114971	126.4	19.6	-71.8	2.8
2026-01-22 16:47:58.366795	126.1	19.8	-72.8	5.1
2026-01-22 16:48:00.617988	125.9	20.1	-71.4	3.4
2026-01-22 16:48:02.871924	125.6	20.4	-73.0	5.0
2026-01-22 16:48:05.126990	125.4	20.6	-72.7	5.7
2026-01-22 16:48:07.382367	125.1	20.9	-71.8	3.5
2026-01-22 16:48:09.633898	124.9	21.2	-71.8	4.1
2026-01-22 16:48:11.888491	124.6	21.5	-72.7	6.3
2026-01-22 16:48:14.142552	124.3	21.8	-72.3	4.9
2026-01-22 16:48:16.398476	124.0	22.0	-72.3	5.4
2026-01-22 16:48:18.654325	123.7	22.3	-72.7	5.9
2026-01-22 16:48:20.908087	123.4	22.6	-72.3	5.8
2026-01-22 16:48:23.165956	123.1	22.9	-73.0	6.1
2026-01-22 16:48:25.416815	122.8	23.2	-72.6	6.2
2026-01-22 16:48:27.669698	122.5	23.5	-72.5	4.5
2026-01-22 16:48:29.923012	122.2	23.8	-73.2	6.0
2026-01-22 16:48:32.174313	121.9	24.1	-73.1	6.1
2026-01-22 16:48:34.429593	121.5	24.4	-73.4	7.0
2026-01-22 16:48:36.682011	121.2	24.7	-72.2	5.7
2026-01-22 16:48:38.935289	120.9	25.0	-73.0	6.9
2026-01-22 16:48:41.184312	120.5	25.3	-72.2	5.0
2026-01-22 16:48:43.438639	120.2	25.6	-72.9	5.0
2026-01-22 16:48:45.691805	119.8	26.0	-73.0	6.3
2026-01-22 16:48:47.945020	119.4	26.3	-72.5	5.5
2026-01-22 16:48:50.199139	119.0	26.6	-72.8	5.4
2026-01-22 16:48:52.450571	118.7	26.9	-72.5	6.1
2026-01-22 16:48:54.707987	118.3	27.3	-72.2	5.6
2026-01-22 16:48:56.961908	117.9	27.6	-72.3	6.7
2026-01-22 16:48:59.212222	117.4	27.9	-72.5	6.4
2026-01-22 16:49:01.461098	117.0	28.2	-72.9	7.5
2026-01-22 16:49:03.711385	116.6	28.6	-72.8	6.9
2026-01-22 16:49:05.964032	116.1	28.9	-72.9	5.9
2026-01-22 16:49:08.220451	115.7	29.3	-72.8	6.8
2026-01-22 16:49:10.473464	115.2	29.6	-72.2	4.6
2026-01-22 16:49:12.730814	114.8	29.9	-72.2	6.1
2026-01-22 16:49:14.983509	114.3	30.3	-72.3	6.5
2026-01-22 16:49:17.238863	113.8	30.6	-72.4	5.8
2026-01-22 16:49:19.493876	113.3	31.0	-72.5	5.6
2026-01-22 16:49:21.744927	112.8	31.3	-72.5	5.0
2026-01-22 16:49:23.997691	112.3	31.7	-72.1	5.9
2026-01-22 16:49:26.251318	111.7	32.0	-72.6	7.0
2026-01-22 16:49:28.506170	111.2	32.4	-71.0	3.7
2026-01-22 16:49:30.759774	110.6	32.8	-70.7	4.4
2026-01-22 16:49:33.010037	110.1	33.1	-72.0	6.7
2026-01-22 16:49:35.262139	109.5	33.5	-71.1	5.2
2026-01-22 16:49:37.517354	108.9	33.8	-71.2	6.9
2026-01-22 16:49:39.769973	108.3	34.2	-70.9	5.1
2026-01-22 16:49:42.021033	107.6	34.6	-70.7	7.1
2026-01-22 16:49:44.277812	107.0	34.9	-70.8	4.3
2026-01-22 16:49:46.530846	106.3	35.3	-71.1	6.8
2026-01-22 16:49:48.783126	105.7	35.6	-70.7	3.2
2026-01-22 16:49:51.036155	105.0	36.0	-69.6	3.3
2026-01-22 16:49:53.288395	104.3	36.4	-71.1	5.3
2026-01-22 16:49:55.541969	103.6	36.7	-69.7	4.7
2026-01-22 16:49:57.794938	102.8	37.1	-70.3	5.9
2026-01-22 16:50:00.048152	102.1	37.4	-70.6	6.0
2026-01-22 16:50:02.302517	101.3	37.8	-71.1	5.0
2026-01-22 16:50:04.554385	100.6	38.1	-70.0	1.6
2026-01-22 16:50:06.808632	99.8	38.5	-69.2	3.1
2026-01-22 16:50:09.062714	98.9	38.8	-67.6	1.1
2026-01-22 16:50:11.314920	98.1	39.2	-69.3	2.6
2026-01-22 16:50:13.567563	97.3	39.5	-69.4	4.1
2026-01-22 16:50:15.822985	96.4	39.9	-68.6	0.0
2026-01-22 16:50:18.073055	95.5	40.2	-68.4	0.9
2026-01-22 16:50:20.327024	94.6	40.5	-69.2	2.7
2026-01-22 16:50:22.576242	93.7	40.8	-68.0	2.3
2026-01-22 16:50:24.830024	92.7	41.1	-68.5	0.1
2026-01-22 16:50:27.085376	91.8	41.5	-67.4	0.0
2026-01-22 16:50:29.340717	90.8	41.8	-68.1	1.5
2026-01-22 16:50:31.590110	89.8	42.1	-68.4	0.6
2026-01-22 16:50:33.839730	88.8	42.3	-68.6	0.9
2026-01-22 16:50:36.090487	87.8	42.6	-67.7	2.7
2026-01-22 16:50:38.345024	86.7	42.9	-67.1	0.0
2026-01-22 16:50:40.596847	85.7	43.2	-68.3	2.6
2026-01-22 16:50:42.847161	84.6	43.4	-68.0	1.5
2026-01-22 16:50:45.100267	83.5	43.6	-67.4	0.4
2026-01-22 16:50:47.353083	82.4	43.9	-66.8	0.0
2026-01-22 16:50:49.608270	81.2	44.1	-67.7	0.0
2026-01-22 16:50:51.863042	80.1	44.3	-67.1	0.0
2026-01-22 16:50:54.118462	78.9	44.5	-67.9	2.9
2026-01-22 16:50:56.372946	77.7	44.7	-66.6	0.0
2026-01-22 16:50:58.627330	76.5	44.9	-66.7	0.0
2026-01-22 16:51:00.881362	75.3	45.0	-66.7	0.0
2026-01-22 16:51:03.135322	74.1	45.2	-64.9	0.0
2026-01-22 16:51:05.389309	72.9	45.3	-65.5	0.0
2026-01-22 16:51:07.644098	71.7	45.4	-64.5	0.0
2026-01-22 16:51:09.897392	70.4	45.5	-65.2	0.0
2026-01-22 16:51:12.151150	69.2	45.6	-65.6	0.0
2026-01-22 16:51:14.402298	67.9	45.7	-65.8	0.0
2026-01-22 16:51:16.655373	66.7	45.7	-65.3	0.0
2026-01-22 16:51:18.908463	65.4	45.8	-66.8	0.0
2026-01-22 16:51:21.159876	64.1	45.8	-67.1	0.0
2026-01-22 16:51:23.415584	62.9	45.8	-67.0	0.0
2026-01-22 16:51:25.670958	61.6	45.8	-66.8	0.0
2026-01-22 16:51:27.925309	60.3	45.8	-67.6	0.0
2026-01-22 16:51:30.181504	59.0	45.7	-66.2	0.0
2026-01-22 16:51:32.435053	57.8	45.7	-66.3	0.0
2026-01-22 16:51:34.689909	56.5	45.6	-68.1	1.3
2026-01-22 16:51:36.942144	55.3	45.5	-67.3	0.0
2026-01-22 16:51:39.196066	54.0	45.5	-67.2	0.0
2026-01-22 16:51:41.451384	52.8	45.3	-66.6	0.0
2026-01-22 16:51:43.707528	51.6	45.2	-67.8	0.0
2026-01-22 16:51:45.960561	50.3	45.1	-66.7	0.0
2026-01-22 16:51:48.214940	49.1	44.9	-66.5	0.0
2026-01-22 16:51:50.469146	47.9	44.8	-68.2	3.0
2026-01-22 16:51:52.721524	46.8	44.6	-67.7	0.4
2026-01-22 16:51:54.977100	45.6	44.4	-67.8	0.0
2026-01-22 16:51:57.229888	44.4	44.2	-68.8	0.4
2026-01-22 16:51:59.483239	43.3	44.0	-69.8	4.4
2026-01-22 16:52:01.739965	42.2	43.7	-68.6	0.0
2026-01-22 16:52:03.992967	41.1	43.5	-69.0	1.8
2026-01-22 16:52:06.245158	40.0	43.3	-69.1	3.0
2026-01-22 16:52:08.498818	38.9	43.0	-69.5	3.7
2026-01-22 16:52:10.750865	37.9	42.7	-68.9	1.7
2026-01-22 16:52:13.003664	36.8	42.5	-69.9	4.3
2026-01-22 16:52:15.256472	35.8	42.2	-68.3	0.1
2026-01-22 16:52:17.509325	34.8	41.9	-68.8	1.5
2026-01-22 16:52:19.763256	33.8	41.6	-69.3	2.7
2026-01-22 16:52:22.017855	32.9	41.3	-69.4	2.0
2026-01-22 16:52:24.271964	31.9	41.0	-68.1	0.0
2026-01-22 16:52:26.521909	31.0	40.6	-68.7	2.0
2026-01-22 16:52:28.773276	30.1	40.3	-68.8	1.1
2026-01-22 16:52:31.028200	29.2	40.0	-67.0	0.0
2026-01-22 16:52:33.283436	28.3	39.7	-68.6	1.6
2026-01-22 16:52:35.538568	27.5	39.3	-69.1	1.9
2026-01-22 16:52:37.791578	26.6	39.0	-64.1	0.0
2026-01-22 16:52:40.041192	25.8	38.6	-63.8	0.0
2026-01-22 16:52:42.293345	25.0	38.3	-64.8	0.0
2026-01-22 16:52:44.546762	24.2	37.9	-66.3	0.0
2026-01-22 16:52:46.799298	23.5	37.6	-67.7	0.0
2026-01-22 16:52:49.051433	22.7	37.2	-67.5	0.0
2026-01-22 16:52:51.308499	22.0	36.9	-67.7	0.0
2026-01-22 16:52:53.565379	21.3	36.5	-68.3	0.0
2026-01-22 16:52:55.820987	20.6	36.2	-66.2	0.0
2026-01-22 16:52:58.075577	19.9	35.8	-67.6	0.0
2026-01-22 16:53:00.329717	19.2	35.4	-67.4	0.0
2026-01-22 16:53:02.586199	18.6	35.1	-66.6	0.0
2026-01-22 16:53:04.842657	17.9	34.7	-67.7	0.0
2026-01-22 16:53:07.095997	17.3	34.4	-67.4	0.0
2026-01-22 16:53:09.349675	16.7	34.0	-64.5	0.0
2026-01-22 16:53:11.605477	16.1	33.6	-65.6	0.0
2026-01-22 16:53:13.861631	15.5	33.3	-65.6	0.0
2026-01-22 16:53:16.115019	14.9	32.9	-64.2	0.0
2026-01-22 16:53:18.369876	14.3	32.6	-65.7	0.0
2026-01-22 16:53:20.624466	13.8	32.2	-63.5	0.0
2026-01-22 16:53:22.879265	13.3	31.9	-63.5	0.0
2026-01-22 16:53:25.132742	12.7	31.5	-64.8	0.0
2026-01-22 16:53:27.385664	12.2	31.2	-65.1	0.0
2026-01-22 16:53:29.641054	11.7	30.8	-64.5	0.0
2026-01-22 16:53:31.898845	11.2	30.5	-62.8	0.0
2026-01-22 16:53:34.154188	10.7	30.1	-63.4	0.0
2026-01-22 16:53:36.406617	10.3	29.8	-60.8	0.0
2026-01-22 16:53:38.661405	9.8	29.4	-61.7	0.0
2026-01-22 16:53:40.915369	9.4	29.1	-59.2	0.0
2026-01-22 16:53:43.169719	8.9	28.8	-60.1	0.0
2026-01-22 16:53:45.422015	8.5	28.4	-64.8	0.0
2026-01-22 16:53:47.674373	8.1	28.1	-60.8	0.0
2026-01-22 16:53:49.929461	7.6	27.8	-62.5	0.0
2026-01-22 16:53:52.183758	7.2	27.4	-63.2	0.0
2026-01-22 16:53:54.435926	6.8	27.1	-63.4	0.0
2026-01-22 16:53:56.688803	6.5	26.8	-56.5	0.0
2026-01-22 16:53:58.941684	6.1	26.5	-63.4	0.0
2026-01-22 16:54:01.193204	5.7	26.1	-63.3	0.0
2026-01-22 16:54:03.442781	5.3	25.8	-59.0	0.0
2026-01-22 16:54:05.692917	5.0	25.5	-62.0	0.0
2026-01-22 16:54:07.942086	4.6	25.2	-61.2	0.0
2026-01-22 16:54:10.198493	4.3	24.9	-61.9	0.0
2026-01-22 16:54:12.451333	3.9	24.6	-61.0	0.0
2026-01-22 16:54:14.705245	3.6	24.3	-61.4	0.0
2026-01-22 16:54:16.959850	3.3	24.0	-61.0	0.0
2026-01-22 16:54:19.213027	3.0	23.7	-62.0	0.0
2026-01-22 16:54:21.466157	2.7	23.4	-62.7	0.0
2026-01-22 16:54:23.721042	2.4	23.1	-61.8	0.0
2026-01-22 16:54:25.974870	2.1	22.8	-62.6	0.0
2026-01-22 16:54:28.228014	1.8	22.5	-63.0	0.0
2026-01-22 16:54:30.484890	1.5	22.2	-63.6	0.0
2026-01-22 16:54:32.735996	1.2	21.9	-63.6	0.0
2026-01-22 16:54:34.989022	0.9	21.7	-63.8	0.0
2026-01-22 16:54:37.240601	0.6	21.4	-63.7	0.0
2026-01-22 16:54:39.494224	0.4	21.1	-60.6	0.0
2026-01-22 16:54:41.749182	0.1	20.8	-61.9	0.0
2026-01-22 16:54:44.002630	359.8	20.6	-63.1	0.0
2026-01-22 16:54:46.255860	359.6	20.3	-63.7	0.0
2026-01-22 16:54:48.508945	359.3	20.0	-62.6	0.0
2026-01-22 16:54:50.759341	359.1	19.8	-63.5	0.0
2026-01-22 16:54:53.014677	358.9	19.5	-61.4	0.0
2026-01-22 16:54:55.267655	358.6	19.2	-58.6	0.0
2026-01-22 16:54:57.520120	358.4	19.0	-61.9	0.0
2026-01-22 16:54:59.772893	358.2	18.7	-63.2	0.0
2026-01-22 16:55:02.026221	357.9	18.5	-65.1	0.0
2026-01-22 16:55:04.282008	357.7	18.2	-65.2	0.0
2026-01-22 16:55:06.535001	357.5	18.0	-63.9	0.0
2026-01-22 16:55:08.789914	357.3	17.7	-64.0	0.0
2026-01-22 16:55:11.045897	357.1	17.5	-65.4	0.0
2026-01-22 16:55:13.302363	356.9	17.2	-64.4	0.0
2026-01-22 16:55:15.555202	356.7	17.0	-65.4	0.0
2026-01-22 16:55:17.815032	356.5	16.8	-63.5	0.0
2026-01-22 16:55:20.067170	356.3	16.5	-63.3	0.0
2026-01-22 16:55:22.320472	356.1	16.3	-64.5	0.0
2026-01-22 16:55:24.574653	355.9	16.0	-65.1	0.0
2026-01-22 16:55:26.831288	355.7	15.8	-65.7	0.0
2026-01-22 16:55:29.084777	355.5	15.6	-65.2	0.0
2026-01-22 16:55:31.336399	355.3	15.4	-66.3	0.0
2026-01-22 16:55:33.591093	355.2	15.1	-64.1	0.0
2026-01-22 16:55:35.841587	355.0	14.9	-64.8	0.0
2026-01-22 16:55:38.096394	354.8	14.7	-64.7	0.0
2026-01-22 16:55:40.347925	354.7	14.5	-65.8	0.0
2026-01-22 16:55:42.606517	354.5	14.2	-65.2	0.0
2026-01-22 16:55:44.860199	354.3	14.0	-66.1	0.0
2026-01-22 16:55:47.112946	354.2	13.8	-64.2	0.0
2026-01-22 16:55:49.367757	354.0	13.6	-66.4	0.0
2026-01-22 16:55:51.623535	353.8	13.4	-66.2	0.0
2026-01-22 16:55:53.880226	353.7	13.2	-64.6	0.0
2026-01-22 16:55:56.132834	353.5	13.0	-65.5	0.0
2026-01-22 16:55:58.385185	353.4	12.8	-64.3	0.0
2026-01-22 16:56:00.637067	353.2	12.6	-64.8	0.0
2026-01-22 16:56:02.889161	353.1	12.3	-64.2	0.0
2026-01-22 16:56:05.141617	353.0	12.1	-66.5	0.0
2026-01-22 16:56:07.394486	352.8	11.9	-65.0	0.0
2026-01-22 16:56:09.649318	352.7	11.7	-66.7	0.0
2026-01-22 16:56:11.902509	352.5	11.5	-66.0	0.0
2026-01-22 16:56:14.154908	352.4	11.3	-66.1	0.0
2026-01-22 16:56:16.410168	352.3	11.2	-66.0	0.0
2026-01-22 16:56:18.661288	352.1	11.0	-65.6	0.0
2026-01-22 16:56:20.917962	352.0	10.8	-62.4	0.0
2026-01-22 16:56:23.171348	351.9	10.6	-62.3	0.0
2026-01-22 16:56:25.421523	351.8	10.4	-65.0	0.0
2026-01-22 16:56:27.672976	351.6	10.2	-71.6	0.0
#Closed at: 2026-01-22 16:46:14.312939