passes_logs/2026/01/22/planumMaritime01/planumMaritime01__20260122_182631_METOP-B_rec.log

#Pass ID: 20260122_182631_METOP-B
#Satellite: METOP-B
#Configuration: METOP-B
#Start time: 2026-01-22 18:26:36.638272

#LorettStation: 1.0.0 05.05.2024
#Station: planumMaritime01
#Location: 37.49445 lon 55.92918 lat
#TLE: 1 38771U 12049A   26022.26844106  .00000290  00000+0  15256-3 0  9997
#TLE: 2 38771  98.6737  76.5287 0003095  62.1759 297.9732 14.21426510692530

#Time	Az	El	Level	SNR
2026-01-22 18:26:38.815273	194.4	10.2	-74.3	0.0
2026-01-22 18:26:41.064444	194.5	10.4	-72.4	0.0
2026-01-22 18:26:43.312582	194.7	10.5	-71.3	0.0
2026-01-22 18:26:45.561520	194.9	10.7	-69.6	0.0
2026-01-22 18:26:47.813863	195.1	10.9	-69.8	0.0
2026-01-22 18:26:50.068252	195.2	11.1	-68.9	0.0
2026-01-22 18:26:52.319975	195.4	11.3	-70.2	0.0
2026-01-22 18:26:54.574908	195.6	11.5	-69.2	0.0
2026-01-22 18:26:56.823991	195.8	11.7	-69.3	0.0
2026-01-22 18:26:59.073701	196.0	11.9	-68.7	0.0
2026-01-22 18:27:01.326137	196.1	12.1	-68.8	0.0
2026-01-22 18:27:03.578290	196.3	12.2	-69.6	0.0
2026-01-22 18:27:05.831233	196.5	12.4	-68.8	0.0
2026-01-22 18:27:08.082892	196.7	12.6	-69.1	0.0
2026-01-22 18:27:10.337673	196.9	12.8	-70.4	0.0
2026-01-22 18:27:12.591587	197.1	13.0	-69.7	0.0
2026-01-22 18:27:14.843173	197.3	13.2	-69.2	0.0
2026-01-22 18:27:17.095701	197.5	13.4	-69.4	0.0
2026-01-22 18:27:19.345044	197.7	13.6	-68.6	0.0
2026-01-22 18:27:21.598108	198.0	13.9	-69.1	0.0
2026-01-22 18:27:23.851054	198.2	14.1	-69.9	0.0
2026-01-22 18:27:26.102692	198.4	14.3	-68.4	0.0
2026-01-22 18:27:28.354155	198.6	14.5	-69.1	0.0
2026-01-22 18:27:30.605681	198.8	14.7	-68.4	0.0
2026-01-22 18:27:32.857471	199.1	14.9	-68.5	0.0
2026-01-22 18:27:35.110817	199.3	15.1	-68.1	0.0
2026-01-22 18:27:37.360756	199.5	15.3	-68.9	0.0
2026-01-22 18:27:39.611388	199.8	15.5	-69.3	0.0
2026-01-22 18:27:41.865302	200.0	15.8	-68.2	0.0
2026-01-22 18:27:44.116470	200.2	16.0	-70.6	0.0
2026-01-22 18:27:46.368419	200.5	16.2	-69.7	0.0
2026-01-22 18:27:48.620925	200.7	16.4	-69.5	0.0
2026-01-22 18:27:50.872550	201.0	16.7	-69.1	0.0
2026-01-22 18:27:53.127414	201.3	16.9	-70.1	0.0
2026-01-22 18:27:55.381788	201.5	17.1	-69.2	0.0
2026-01-22 18:27:57.633285	201.8	17.3	-68.7	0.0
2026-01-22 18:27:59.887537	202.1	17.6	-70.0	0.0
2026-01-22 18:28:02.139818	202.3	17.8	-68.7	0.0
2026-01-22 18:28:04.392203	202.6	18.0	-69.7	0.0
2026-01-22 18:28:06.644497	202.9	18.3	-69.6	0.0
2026-01-22 18:28:08.895578	203.2	18.5	-69.5	0.0
2026-01-22 18:28:11.150073	203.5	18.7	-69.8	0.0
2026-01-22 18:28:13.405454	203.8	19.0	-68.8	0.0
2026-01-22 18:28:15.661292	204.1	19.2	-70.0	0.0
2026-01-22 18:28:17.916409	204.4	19.5	-68.7	0.0
2026-01-22 18:28:20.168979	204.7	19.7	-70.0	0.0
2026-01-22 18:28:22.423407	205.0	20.0	-68.8	0.0
2026-01-22 18:28:24.680598	205.3	20.2	-68.8	0.0
2026-01-22 18:28:26.933082	205.6	20.5	-69.6	0.0
2026-01-22 18:28:29.188514	206.0	20.7	-69.8	0.0
2026-01-22 18:28:31.444909	206.3	21.0	-70.0	0.6
2026-01-22 18:28:33.697359	206.6	21.2	-69.6	0.0
2026-01-22 18:28:35.951390	207.0	21.5	-71.2	0.0
2026-01-22 18:28:38.204144	207.3	21.7	-70.2	0.0
2026-01-22 18:28:40.458330	207.7	22.0	-71.2	3.2
2026-01-22 18:28:42.715567	208.0	22.3	-70.2	0.0
2026-01-22 18:28:44.967194	208.4	22.5	-70.8	3.0
2026-01-22 18:28:47.221311	208.8	22.8	-70.4	0.0
2026-01-22 18:28:49.476353	209.2	23.1	-70.8	0.4
2026-01-22 18:28:51.728000	209.6	23.3	-70.7	1.1
2026-01-22 18:28:53.977954	210.0	23.6	-70.6	2.3
2026-01-22 18:28:56.231064	210.4	23.9	-70.8	3.7
2026-01-22 18:28:58.484160	210.8	24.1	-71.6	5.6
2026-01-22 18:29:00.735268	211.2	24.4	-71.1	3.7
2026-01-22 18:29:02.987693	211.6	24.7	-71.7	5.9
2026-01-22 18:29:05.239253	212.0	25.0	-71.6	4.7
2026-01-22 18:29:07.491886	212.5	25.2	-71.5	4.5
2026-01-22 18:29:09.743759	212.9	25.5	-71.7	4.1
2026-01-22 18:29:11.998851	213.4	25.8	-72.5	8.4
2026-01-22 18:29:14.251025	213.8	26.1	-71.3	5.3
2026-01-22 18:29:16.505155	214.3	26.4	-71.9	6.5
2026-01-22 18:29:18.762128	214.8	26.6	-72.7	9.5
2026-01-22 18:29:21.013017	215.3	26.9	-72.6	8.0
2026-01-22 18:29:23.265664	215.7	27.2	-72.9	8.4
2026-01-22 18:29:25.518536	216.2	27.5	-72.8	6.6
2026-01-22 18:29:27.774400	216.8	27.8	-72.8	6.5
2026-01-22 18:29:30.028633	217.3	28.1	-73.1	8.6
2026-01-22 18:29:32.281736	217.8	28.3	-73.5	8.8
2026-01-22 18:29:34.532812	218.3	28.6	-73.0	7.2
2026-01-22 18:29:36.785563	218.9	28.9	-73.2	9.5
2026-01-22 18:29:39.037942	219.4	29.2	-73.0	9.6
2026-01-22 18:29:41.289719	220.0	29.5	-73.2	10.3
2026-01-22 18:29:43.541071	220.6	29.8	-73.4	10.2
2026-01-22 18:29:45.794840	221.2	30.1	-73.7	10.1
2026-01-22 18:29:48.046332	221.8	30.4	-73.5	9.8
2026-01-22 18:29:50.295433	222.4	30.6	-73.5	9.7
2026-01-22 18:29:52.547734	223.0	30.9	-73.7	9.6
2026-01-22 18:29:54.801565	223.6	31.2	-73.4	9.4
2026-01-22 18:29:57.052528	224.3	31.5	-73.4	9.6
2026-01-22 18:29:59.304448	224.9	31.8	-73.1	9.9
2026-01-22 18:30:01.559181	225.6	32.1	-73.4	10.3
2026-01-22 18:30:03.813485	226.3	32.3	-72.9	10.1
2026-01-22 18:30:06.067472	226.9	32.6	-72.7	10.5
2026-01-22 18:30:08.316399	227.6	32.9	-72.8	10.2
2026-01-22 18:30:10.568031	228.3	33.2	-72.7	10.4
2026-01-22 18:30:12.823311	229.1	33.4	-72.8	10.5
2026-01-22 18:30:15.076326	229.8	33.7	-72.6	10.2
2026-01-22 18:30:17.328563	230.5	34.0	-72.6	9.9
2026-01-22 18:30:19.581652	231.3	34.2	-72.7	9.8
2026-01-22 18:30:21.831010	232.1	34.5	-73.0	9.9
2026-01-22 18:30:24.082346	232.8	34.7	-73.7	10.9
2026-01-22 18:30:26.334865	233.6	35.0	-73.1	9.7
2026-01-22 18:30:28.584331	234.4	35.2	-73.0	9.7
2026-01-22 18:30:30.836682	235.3	35.5	-72.8	10.2
2026-01-22 18:30:33.087433	236.1	35.7	-72.6	10.0
2026-01-22 18:30:35.339516	236.9	36.0	-73.0	9.5
2026-01-22 18:30:37.594722	237.8	36.2	-72.4	10.3
2026-01-22 18:30:39.847658	238.6	36.4	-72.8	10.6
2026-01-22 18:30:42.101420	239.5	36.6	-72.5	9.6
2026-01-22 18:30:44.354318	240.4	36.8	-72.9	11.3
2026-01-22 18:30:46.604956	241.3	37.0	-72.7	9.7
2026-01-22 18:30:48.857731	242.2	37.2	-72.5	10.4
2026-01-22 18:30:51.111439	243.1	37.4	-72.3	9.9
2026-01-22 18:30:53.362499	244.1	37.6	-72.0	9.6
2026-01-22 18:30:55.612302	245.0	37.8	-72.4	9.5
2026-01-22 18:30:57.864937	245.9	37.9	-72.4	10.2
2026-01-22 18:31:00.116929	246.9	38.1	-72.3	9.7
2026-01-22 18:31:02.369554	247.9	38.3	-71.9	8.3
2026-01-22 18:31:04.621275	248.8	38.4	-72.1	9.9
2026-01-22 18:31:06.870009	249.8	38.5	-71.8	10.0
2026-01-22 18:31:09.121550	250.8	38.7	-72.4	9.8
2026-01-22 18:31:11.372643	251.8	38.8	-71.8	8.4
2026-01-22 18:31:13.624227	252.8	38.9	-71.7	8.2
2026-01-22 18:31:15.877040	253.8	39.0	-71.6	6.5
2026-01-22 18:31:18.131067	254.9	39.1	-72.3	8.3
2026-01-22 18:31:20.382772	255.9	39.2	-72.2	8.8
2026-01-22 18:31:22.632917	256.9	39.2	-72.0	8.9
2026-01-22 18:31:24.882663	257.9	39.3	-72.2	9.0
2026-01-22 18:31:27.133920	259.0	39.3	-71.0	7.9
2026-01-22 18:31:29.387121	260.0	39.4	-72.0	7.4
2026-01-22 18:31:31.640591	261.0	39.4	-71.1	6.2
2026-01-22 18:31:33.891091	262.1	39.4	-72.3	8.0
2026-01-22 18:31:36.145184	263.1	39.4	-70.4	6.3
2026-01-22 18:31:38.398087	264.2	39.4	-71.5	8.3
2026-01-22 18:31:40.648229	265.2	39.4	-71.1	4.9
2026-01-22 18:31:42.900345	266.3	39.4	-70.7	6.7
2026-01-22 18:31:45.153915	267.3	39.4	-69.9	5.7
2026-01-22 18:31:47.410034	268.3	39.3	-70.4	3.8
2026-01-22 18:31:49.658480	269.4	39.3	-71.0	5.4
2026-01-22 18:31:51.908646	270.4	39.2	-69.9	4.2
2026-01-22 18:31:54.158399	271.4	39.1	-70.5	4.7
2026-01-22 18:31:56.411226	272.4	39.0	-70.5	4.8
2026-01-22 18:31:58.662149	273.4	38.9	-70.4	5.6
2026-01-22 18:32:00.914616	274.5	38.8	-70.0	3.6
2026-01-22 18:32:03.164821	275.5	38.7	-70.2	4.2
2026-01-22 18:32:05.415229	276.4	38.6	-68.8	4.1
2026-01-22 18:32:07.668254	277.4	38.5	-70.5	5.9
2026-01-22 18:32:09.919767	278.4	38.3	-69.6	4.9
2026-01-22 18:32:12.170972	279.4	38.2	-69.5	2.7
2026-01-22 18:32:14.423980	280.3	38.0	-69.0	0.9
2026-01-22 18:32:16.679471	281.3	37.9	-69.5	1.8
2026-01-22 18:32:18.932511	282.2	37.7	-68.9	5.4
2026-01-22 18:32:21.185583	283.2	37.5	-69.6	4.6
2026-01-22 18:32:23.438749	284.1	37.3	-69.0	1.7
2026-01-22 18:32:25.689477	285.0	37.1	-68.3	3.1
2026-01-22 18:32:27.941544	285.9	36.9	-67.7	2.8
2026-01-22 18:32:30.190709	286.8	36.7	-68.8	5.8
2026-01-22 18:32:32.443252	287.7	36.5	-68.7	4.9
2026-01-22 18:32:34.694519	288.5	36.3	-67.5	0.0
2026-01-22 18:32:36.950225	289.4	36.1	-67.3	0.0
2026-01-22 18:32:39.206471	290.2	35.8	-67.2	0.0
2026-01-22 18:32:41.459024	291.1	35.6	-68.2	2.5
2026-01-22 18:32:43.713708	291.9	35.4	-68.5	0.0
2026-01-22 18:32:45.966825	292.7	35.1	-68.2	1.1
2026-01-22 18:32:48.221851	293.5	34.9	-69.3	1.9
2026-01-22 18:32:50.474298	294.3	34.6	-67.7	0.0
2026-01-22 18:32:52.727010	295.0	34.4	-66.7	0.0
2026-01-22 18:32:54.979765	295.8	34.1	-67.6	0.0
2026-01-22 18:32:57.233554	296.5	33.8	-67.5	0.0
2026-01-22 18:32:59.486063	297.3	33.6	-66.8	0.0
2026-01-22 18:33:01.741075	298.0	33.3	-69.8	3.0
2026-01-22 18:33:03.994506	298.7	33.0	-69.6	3.0
2026-01-22 18:33:06.247454	299.4	32.8	-69.0	0.0
2026-01-22 18:33:08.499695	300.1	32.5	-66.9	0.0
2026-01-22 18:33:10.754091	300.8	32.2	-67.5	0.0
2026-01-22 18:33:13.007773	301.4	31.9	-69.2	0.9
2026-01-22 18:33:15.263565	302.1	31.6	-68.7	0.0
2026-01-22 18:33:17.515535	302.7	31.4	-68.4	2.0
2026-01-22 18:33:19.769266	303.4	31.1	-67.7	0.0
2026-01-22 18:33:22.020302	304.0	30.8	-67.5	0.0
2026-01-22 18:33:24.273393	304.6	30.5	-66.9	0.0
2026-01-22 18:33:26.527753	305.2	30.2	-67.8	0.0
2026-01-22 18:33:28.780096	305.8	29.9	-69.4	0.2
2026-01-22 18:33:31.036251	306.4	29.7	-67.8	0.0
2026-01-22 18:33:33.286789	306.9	29.4	-68.1	0.0
2026-01-22 18:33:35.540842	307.5	29.1	-70.9	4.9
2026-01-22 18:33:37.795918	308.0	28.8	-67.2	0.0
2026-01-22 18:33:40.049061	308.6	28.5	-68.3	0.0
2026-01-22 18:33:42.300504	309.1	28.2	-68.0	0.0
2026-01-22 18:33:44.553536	309.6	28.0	-67.5	0.0
2026-01-22 18:33:46.806373	310.1	27.7	-69.0	0.0
2026-01-22 18:33:49.061183	310.6	27.4	-68.7	1.0
2026-01-22 18:33:51.311362	311.1	27.1	-68.2	0.0
2026-01-22 18:33:53.565054	311.6	26.8	-67.4	0.0
2026-01-22 18:33:55.817657	312.1	26.5	-67.8	0.0
2026-01-22 18:33:58.070312	312.6	26.3	-68.9	1.7
2026-01-22 18:34:00.323249	313.0	26.0	-68.1	0.0
2026-01-22 18:34:02.576456	313.5	25.7	-67.4	0.0
2026-01-22 18:34:04.829448	313.9	25.4	-67.3	0.0
2026-01-22 18:34:07.079377	314.4	25.2	-66.9	0.0
2026-01-22 18:34:09.332464	314.8	24.9	-67.8	0.0
2026-01-22 18:34:11.586281	315.2	24.6	-67.3	0.0
2026-01-22 18:34:13.839316	315.7	24.3	-67.7	0.0
2026-01-22 18:34:16.092771	316.1	24.1	-69.1	0.0
2026-01-22 18:34:18.342550	316.5	23.8	-68.9	0.0
2026-01-22 18:34:20.593503	316.9	23.5	-68.2	0.0
2026-01-22 18:34:22.846269	317.3	23.3	-67.9	0.0
2026-01-22 18:34:25.095417	317.6	23.0	-68.4	0.0
2026-01-22 18:34:27.347132	318.0	22.7	-68.9	0.0
2026-01-22 18:34:29.601344	318.4	22.5	-67.0	0.0
2026-01-22 18:34:31.852395	318.7	22.2	-67.5	0.0
2026-01-22 18:34:34.103440	319.1	22.0	-64.7	0.0
2026-01-22 18:34:36.354464	319.5	21.7	-65.9	0.0
2026-01-22 18:34:38.605617	319.8	21.4	-64.2	0.0
2026-01-22 18:34:40.855924	320.1	21.2	-64.9	0.0
2026-01-22 18:34:43.107915	320.5	20.9	-65.8	0.0
2026-01-22 18:34:45.359464	320.8	20.7	-66.2	0.0
2026-01-22 18:34:47.612665	321.1	20.4	-65.5	0.0
2026-01-22 18:34:49.865478	321.5	20.2	-66.2	0.0
2026-01-22 18:34:52.118536	321.8	19.9	-62.4	0.0
2026-01-22 18:34:54.372285	322.1	19.7	-64.8	0.0
2026-01-22 18:34:56.626040	322.4	19.5	-63.9	0.0
2026-01-22 18:34:58.880902	322.7	19.2	-64.4	0.0
2026-01-22 18:35:01.134534	323.0	19.0	-64.9	0.0
2026-01-22 18:35:03.385508	323.3	18.7	-64.0	0.0
2026-01-22 18:35:05.638148	323.6	18.5	-65.1	0.0
2026-01-22 18:35:07.892195	323.9	18.3	-63.6	0.0
2026-01-22 18:35:10.145673	324.1	18.0	-66.1	0.0
2026-01-22 18:35:12.396547	324.4	17.8	-66.8	0.0
2026-01-22 18:35:14.648557	324.7	17.6	-66.6	0.0
2026-01-22 18:35:16.902645	325.0	17.3	-61.9	0.0
2026-01-22 18:35:19.153495	325.2	17.1	-66.2	0.0
2026-01-22 18:35:21.406655	325.5	16.9	-64.3	0.0
2026-01-22 18:35:23.657537	325.7	16.7	-66.3	0.0
2026-01-22 18:35:25.909526	326.0	16.4	-66.4	0.0
2026-01-22 18:35:28.161670	326.2	16.2	-63.0	0.0
2026-01-22 18:35:30.411976	326.5	16.0	-65.6	0.0
2026-01-22 18:35:32.666718	326.7	15.8	-66.7	0.0
2026-01-22 18:35:34.917854	327.0	15.6	-62.9	0.0
2026-01-22 18:35:37.168265	327.2	15.4	-64.8	0.0
2026-01-22 18:35:39.420374	327.4	15.1	-65.2	0.0
2026-01-22 18:35:41.673400	327.7	14.9	-64.4	0.0
2026-01-22 18:35:43.928007	327.9	14.7	-64.9	0.0
2026-01-22 18:35:46.180464	328.1	14.5	-65.1	0.0
2026-01-22 18:35:48.433296	328.3	14.3	-64.0	0.0
2026-01-22 18:35:50.689230	328.6	14.1	-64.2	0.0
2026-01-22 18:35:52.941877	328.8	13.9	-63.8	0.0
2026-01-22 18:35:55.193286	329.0	13.7	-63.7	0.0
2026-01-22 18:35:57.447434	329.2	13.5	-63.5	0.0
2026-01-22 18:35:59.699486	329.4	13.3	-63.4	0.0
2026-01-22 18:36:01.956161	329.6	13.1	-63.1	0.0
2026-01-22 18:36:04.210224	329.8	12.9	-60.3	0.0
2026-01-22 18:36:06.463539	330.0	12.7	-62.5	0.0
2026-01-22 18:36:08.715313	330.2	12.5	-61.0	0.0
2026-01-22 18:36:10.969476	330.4	12.3	-60.8	0.0
2026-01-22 18:36:13.222181	330.6	12.1	-59.1	0.0
2026-01-22 18:36:15.477906	330.8	11.9	-59.9	0.0
2026-01-22 18:36:17.734364	331.0	11.7	-62.4	0.0
2026-01-22 18:36:19.988376	331.1	11.5	-60.6	0.0
2026-01-22 18:36:22.239079	331.3	11.4	-61.3	0.0
2026-01-22 18:36:24.491351	331.5	11.2	-61.8	0.0
2026-01-22 18:36:26.743641	331.7	11.0	-63.0	0.0
2026-01-22 18:36:28.996483	331.9	10.8	-62.8	0.0
2026-01-22 18:36:31.248407	332.0	10.6	-66.4	0.0
2026-01-22 18:36:33.499480	332.2	10.4	-69.5	0.0
2026-01-22 18:36:35.752232	332.4	10.3	-71.6	0.0
2026-01-22 18:36:38.000351	332.5	10.1	-71.9	0.0
#Closed at: 2026-01-22 18:26:31.645913