passes_logs/2026/01/22/planumMaritime01/planumMaritime01__20260122_004624_METEOR-M2_4_rec.log

#Pass ID: 20260122_004624_METEOR-M2 4
#Satellite: METEOR-M2 4
#Configuration: METEOR-M2 4
#Start time: 2026-01-22 00:46:29.706402

#LorettStation: 1.0.0 05.05.2024
#Station: planumMaritime01
#Location: 37.49445 lon 55.92918 lat
#TLE: 1 59051U 24039A   26020.95667625  .00000091  00000+0  60497-4 0  9993
#TLE: 2 59051  98.6825 342.2619 0006126 231.1027 128.9605 14.22408473 98337

#Time	Az	El	Level	SNR
2026-01-22 00:46:31.872125	19.9	10.2	-80.3	0.0
2026-01-22 00:46:34.142890	19.9	10.4	-79.8	0.0
2026-01-22 00:46:36.420011	20.0	10.6	-76.6	0.0
2026-01-22 00:46:38.694065	20.1	10.8	-76.0	0.0
2026-01-22 00:46:40.969559	20.1	11.0	-73.0	0.0
2026-01-22 00:46:43.243729	20.2	11.2	-71.9	0.0
2026-01-22 00:46:45.513895	20.3	11.4	-71.6	0.0
2026-01-22 00:46:47.785548	20.3	11.6	-68.9	0.0
2026-01-22 00:46:50.047705	20.4	11.8	-71.9	0.0
2026-01-22 00:46:52.304452	20.5	12.0	-71.6	0.0
2026-01-22 00:46:54.564704	20.5	12.2	-71.3	0.0
2026-01-22 00:46:56.822808	20.6	12.4	-71.1	0.0
2026-01-22 00:46:59.082001	20.7	12.7	-71.7	0.0
2026-01-22 00:47:01.342048	20.7	12.9	-70.2	0.0
2026-01-22 00:47:03.600399	20.8	13.1	-72.6	0.0
2026-01-22 00:47:05.860319	20.9	13.3	-71.4	0.0
2026-01-22 00:47:08.118086	21.0	13.5	-71.7	0.0
2026-01-22 00:47:10.380271	21.0	13.8	-72.0	0.0
2026-01-22 00:47:12.638091	21.1	14.0	-70.9	0.0
2026-01-22 00:47:14.906297	21.2	14.2	-72.0	0.0
2026-01-22 00:47:17.179849	21.3	14.4	-73.1	0.0
2026-01-22 00:47:19.451042	21.3	14.7	-71.4	0.0
2026-01-22 00:47:21.726962	21.4	14.9	-71.5	0.0
2026-01-22 00:47:24.003055	21.5	15.2	-73.3	0.0
2026-01-22 00:47:26.278633	21.6	15.4	-73.4	0.0
2026-01-22 00:47:28.554235	21.7	15.6	-70.8	0.0
2026-01-22 00:47:30.827900	21.8	15.9	-71.5	0.0
2026-01-22 00:47:33.108822	21.8	16.1	-73.2	0.0
2026-01-22 00:47:35.384161	21.9	16.4	-69.4	0.0
2026-01-22 00:47:37.659700	22.0	16.6	-71.9	0.0
2026-01-22 00:47:39.938088	22.1	16.9	-72.2	0.0
2026-01-22 00:47:42.213667	22.2	17.2	-71.1	0.0
2026-01-22 00:47:44.487411	22.3	17.4	-71.7	0.0
2026-01-22 00:47:46.763897	22.4	17.7	-72.3	0.0
2026-01-22 00:47:49.039060	22.5	18.0	-72.7	0.0
2026-01-22 00:47:51.316056	22.6	18.2	-71.3	0.0
2026-01-22 00:47:53.596040	22.7	18.5	-71.4	0.0
2026-01-22 00:47:55.868056	22.8	18.8	-74.0	0.0
2026-01-22 00:47:58.142593	22.9	19.1	-73.9	0.0
2026-01-22 00:48:00.416665	23.0	19.3	-73.5	0.0
2026-01-22 00:48:02.693236	23.1	19.6	-73.7	0.0
2026-01-22 00:48:04.963268	23.2	19.9	-71.1	0.0
2026-01-22 00:48:07.241285	23.3	20.2	-72.8	0.0
2026-01-22 00:48:09.518174	23.4	20.5	-74.2	0.0
2026-01-22 00:48:11.792263	23.6	20.8	-71.9	0.0
2026-01-22 00:48:14.069715	23.7	21.1	-73.9	0.0
2026-01-22 00:48:16.339001	23.8	21.4	-73.5	0.0
2026-01-22 00:48:18.611165	23.9	21.7	-74.4	0.0
2026-01-22 00:48:20.883364	24.0	22.0	-71.5	0.0
2026-01-22 00:48:23.157052	24.2	22.4	-72.1	0.0
2026-01-22 00:48:25.420926	24.3	22.7	-72.7	0.0
2026-01-22 00:48:27.682072	24.4	23.0	-73.9	0.0
2026-01-22 00:48:29.940971	24.5	23.3	-75.3	0.0
2026-01-22 00:48:32.200834	24.7	23.7	-74.2	1.5
2026-01-22 00:48:34.456523	24.8	24.0	-74.1	0.0
2026-01-22 00:48:36.713079	25.0	24.3	-74.9	2.7
2026-01-22 00:48:38.971770	25.1	24.7	-74.4	3.4
2026-01-22 00:48:41.228275	25.2	25.0	-73.0	0.7
2026-01-22 00:48:43.486717	25.4	25.4	-72.0	0.0
2026-01-22 00:48:45.747075	25.6	25.7	-74.7	4.1
2026-01-22 00:48:48.017475	25.7	26.1	-73.8	2.7
2026-01-22 00:48:50.288541	25.9	26.5	-74.0	1.6
2026-01-22 00:48:52.563555	26.0	26.9	-75.5	5.3
2026-01-22 00:48:54.836850	26.2	27.2	-75.0	3.7
2026-01-22 00:48:57.114988	26.4	27.6	-75.5	5.0
2026-01-22 00:48:59.391972	26.5	28.0	-75.1	2.8
2026-01-22 00:49:01.668378	26.7	28.4	-76.5	4.7
2026-01-22 00:49:03.939461	26.9	28.8	-76.1	2.6
2026-01-22 00:49:06.207582	27.1	29.2	-76.0	2.2
2026-01-22 00:49:08.473811	27.3	29.6	-76.2	7.1
2026-01-22 00:49:10.744657	27.5	30.1	-76.5	8.0
2026-01-22 00:49:13.010429	27.7	30.5	-76.2	8.5
2026-01-22 00:49:15.277025	27.9	30.9	-76.0	7.0
2026-01-22 00:49:17.543185	28.1	31.3	-76.8	4.7
2026-01-22 00:49:19.808905	28.3	31.8	-76.7	9.0
2026-01-22 00:49:22.072447	28.6	32.2	-77.5	8.6
2026-01-22 00:49:24.339952	28.8	32.7	-77.2	10.0
2026-01-22 00:49:26.605233	29.0	33.1	-77.4	9.1
2026-01-22 00:49:28.873078	29.3	33.6	-77.5	8.9
2026-01-22 00:49:31.138628	29.5	34.1	-77.6	6.5
2026-01-22 00:49:33.405625	29.8	34.6	-76.9	5.4
2026-01-22 00:49:35.669679	30.0	35.1	-77.6	9.3
2026-01-22 00:49:37.938661	30.3	35.6	-78.2	10.0
2026-01-22 00:49:40.204995	30.6	36.1	-77.9	9.5
2026-01-22 00:49:42.470283	30.9	36.6	-77.5	9.7
2026-01-22 00:49:44.741700	31.2	37.1	-78.1	8.6
2026-01-22 00:49:47.007255	31.5	37.6	-77.9	10.5
2026-01-22 00:49:49.273662	31.8	38.1	-78.0	9.5
2026-01-22 00:49:51.539806	32.1	38.7	-78.1	9.5
2026-01-22 00:49:53.804488	32.5	39.2	-77.2	9.4
2026-01-22 00:49:56.068026	32.8	39.8	-78.0	7.7
2026-01-22 00:49:58.338409	33.2	40.4	-77.9	10.1
2026-01-22 00:50:00.605369	33.6	40.9	-77.2	9.9
2026-01-22 00:50:02.868373	33.9	41.5	-77.5	10.5
2026-01-22 00:50:05.133968	34.3	42.1	-77.9	10.7
2026-01-22 00:50:07.398840	34.8	42.7	-77.7	10.3
2026-01-22 00:50:09.658602	35.2	43.3	-77.1	10.3
2026-01-22 00:50:11.923561	35.6	43.9	-77.6	10.2
2026-01-22 00:50:14.187006	36.1	44.5	-76.2	9.1
2026-01-22 00:50:16.450915	36.6	45.1	-78.4	8.8
2026-01-22 00:50:18.716161	37.1	45.8	-78.6	9.1
2026-01-22 00:50:20.984358	37.6	46.4	-78.7	7.5
2026-01-22 00:50:23.250100	38.2	47.1	-76.8	1.8
2026-01-22 00:50:25.514013	38.7	47.7	-77.8	6.0
2026-01-22 00:50:27.779366	39.3	48.4	-78.1	6.0
2026-01-22 00:50:30.043800	39.9	49.1	-78.3	5.5
2026-01-22 00:50:32.306519	40.6	49.7	-78.3	7.1
2026-01-22 00:50:34.566865	41.3	50.4	-78.1	8.1
2026-01-22 00:50:36.832328	42.0	51.1	-77.4	6.8
2026-01-22 00:50:39.093098	42.7	51.8	-77.5	8.1
2026-01-22 00:50:41.360140	43.5	52.5	-75.9	2.1
2026-01-22 00:50:43.623997	44.3	53.2	-74.6	0.0
2026-01-22 00:50:45.888859	45.1	53.9	-76.7	3.7
2026-01-22 00:50:48.162047	46.0	54.6	-77.8	2.5
2026-01-22 00:50:50.438858	47.0	55.4	-77.9	2.3
2026-01-22 00:50:52.710431	48.0	56.1	-78.3	2.3
2026-01-22 00:50:54.983790	49.0	56.8	-78.5	3.6
2026-01-22 00:50:57.257870	50.1	57.5	-77.7	2.6
2026-01-22 00:50:59.534230	51.3	58.3	-77.6	2.1
2026-01-22 00:51:01.805088	52.5	59.0	-78.6	3.5
2026-01-22 00:51:04.069101	53.8	59.7	-77.4	1.3
2026-01-22 00:51:06.328114	55.2	60.4	-77.9	5.0
2026-01-22 00:51:08.584674	56.6	61.1	-76.5	4.7
2026-01-22 00:51:10.843078	58.1	61.8	-78.1	4.6
2026-01-22 00:51:13.102834	59.7	62.4	-78.8	7.1
2026-01-22 00:51:15.361611	61.4	63.1	-76.5	2.7
2026-01-22 00:51:17.621771	63.2	63.8	-78.5	5.8
2026-01-22 00:51:19.879009	65.1	64.4	-76.1	1.1
2026-01-22 00:51:22.132999	67.1	65.0	-78.0	5.6
2026-01-22 00:51:24.392607	69.2	65.6	-78.6	7.8
2026-01-22 00:51:26.659687	71.4	66.1	-77.1	0.1
2026-01-22 00:51:28.930086	73.7	66.7	-78.4	8.5
2026-01-22 00:51:31.200874	76.2	67.2	-78.0	7.2
2026-01-22 00:51:33.468909	78.8	67.6	-76.7	4.3
2026-01-22 00:51:35.736478	81.4	68.1	-77.9	8.4
2026-01-22 00:51:38.000406	84.2	68.4	-78.8	7.5
2026-01-22 00:51:40.268917	87.1	68.8	-78.8	5.3
2026-01-22 00:51:42.536891	90.1	69.0	-79.6	9.0
2026-01-22 00:51:44.804795	93.2	69.3	-78.0	5.1
2026-01-22 00:51:47.074095	96.3	69.4	-80.0	8.0
2026-01-22 00:51:49.342868	99.5	69.6	-79.4	3.7
2026-01-22 00:51:51.610064	102.6	69.6	-80.3	8.8
2026-01-22 00:51:53.883558	105.9	69.6	-80.1	8.7
2026-01-22 00:51:56.147686	109.1	69.5	-80.5	9.2
2026-01-22 00:51:58.406589	112.2	69.4	-80.4	8.2
2026-01-22 00:52:00.671598	115.3	69.2	-80.1	8.2
2026-01-22 00:52:02.933122	118.4	69.0	-80.6	9.6
2026-01-22 00:52:05.198582	121.3	68.7	-81.0	9.9
2026-01-22 00:52:07.460981	124.2	68.4	-80.9	9.4
2026-01-22 00:52:09.723871	127.0	68.0	-81.0	10.9
2026-01-22 00:52:11.984915	129.6	67.6	-80.8	11.4
2026-01-22 00:52:14.256593	132.2	67.1	-80.6	9.7
2026-01-22 00:52:16.534109	134.7	66.6	-80.3	12.0
2026-01-22 00:52:18.809684	137.0	66.1	-80.2	12.1
2026-01-22 00:52:21.088145	139.2	65.5	-80.4	12.4
2026-01-22 00:52:23.363799	141.3	64.9	-80.3	11.1
2026-01-22 00:52:25.643460	143.3	64.3	-80.6	12.3
2026-01-22 00:52:27.922945	145.2	63.7	-80.9	12.1
2026-01-22 00:52:30.200080	147.0	63.0	-81.1	12.1
2026-01-22 00:52:32.477730	148.7	62.3	-80.6	10.4
2026-01-22 00:52:34.749769	150.3	61.6	-80.6	12.0
2026-01-22 00:52:37.028554	151.8	60.9	-80.7	11.9
2026-01-22 00:52:39.305175	153.3	60.2	-81.0	11.6
2026-01-22 00:52:41.582186	154.6	59.5	-81.1	12.0
2026-01-22 00:52:43.860813	155.9	58.8	-81.1	12.6
2026-01-22 00:52:46.136901	157.1	58.1	-81.1	12.2
2026-01-22 00:52:48.410278	158.3	57.3	-81.1	12.1
2026-01-22 00:52:50.688057	159.4	56.6	-81.1	12.2
2026-01-22 00:52:52.960566	160.4	55.9	-80.9	12.3
2026-01-22 00:52:55.238743	161.4	55.2	-80.8	11.4
2026-01-22 00:52:57.515240	162.3	54.4	-81.0	12.7
2026-01-22 00:52:59.790921	163.2	53.7	-80.8	12.4
2026-01-22 00:53:02.067821	164.1	53.0	-81.1	12.6
2026-01-22 00:53:04.345407	164.9	52.3	-81.2	12.9
2026-01-22 00:53:06.621543	165.6	51.6	-81.3	12.3
2026-01-22 00:53:08.890311	166.4	50.9	-81.2	11.8
2026-01-22 00:53:11.147569	167.1	50.2	-81.5	11.9
2026-01-22 00:53:13.407403	167.7	49.5	-81.7	12.0
2026-01-22 00:53:15.666002	168.4	48.8	-81.5	11.6
2026-01-22 00:53:17.921893	169.0	48.2	-81.6	11.9
2026-01-22 00:53:20.182584	169.6	47.5	-81.6	12.7
2026-01-22 00:53:22.443085	170.1	46.8	-81.0	13.0
2026-01-22 00:53:24.700381	170.7	46.2	-80.6	13.6
2026-01-22 00:53:26.956652	171.2	45.5	-80.9	13.4
2026-01-22 00:53:29.214392	171.7	44.9	-81.0	13.4
2026-01-22 00:53:31.470211	172.2	44.3	-80.7	13.9
2026-01-22 00:53:33.745422	172.6	43.7	-80.3	13.7
2026-01-22 00:53:36.020726	173.1	43.0	-80.2	14.4
2026-01-22 00:53:38.294771	173.5	42.4	-80.0	13.7
2026-01-22 00:53:40.567047	173.9	41.8	-79.8	14.0
2026-01-22 00:53:42.841194	174.3	41.2	-79.5	14.0
2026-01-22 00:53:45.110687	174.7	40.7	-79.8	14.2
2026-01-22 00:53:47.385210	175.1	40.1	-79.4	13.5
2026-01-22 00:53:49.658883	175.5	39.5	-79.8	13.0
2026-01-22 00:53:51.924298	175.8	39.0	-79.4	13.2
2026-01-22 00:53:54.191404	176.1	38.4	-79.6	13.7
2026-01-22 00:53:56.457739	176.5	37.9	-79.0	14.5
2026-01-22 00:53:58.720930	176.8	37.3	-78.9	14.6
2026-01-22 00:54:00.989578	177.1	36.8	-78.9	13.7
2026-01-22 00:54:03.252754	177.4	36.3	-78.7	13.6
2026-01-22 00:54:05.520347	177.7	35.8	-78.9	13.5
2026-01-22 00:54:07.790341	177.9	35.3	-79.0	12.5
2026-01-22 00:54:10.058073	178.2	34.8	-79.0	14.4
2026-01-22 00:54:12.324957	178.5	34.3	-78.6	12.8
2026-01-22 00:54:14.599027	178.7	33.8	-78.6	14.4
2026-01-22 00:54:16.873427	179.0	33.3	-78.6	11.4
2026-01-22 00:54:19.148645	179.2	32.9	-78.6	11.9
2026-01-22 00:54:21.423803	179.5	32.4	-78.6	12.6
2026-01-22 00:54:23.700058	179.7	31.9	-78.3	13.3
2026-01-22 00:54:25.980521	179.9	31.5	-78.5	12.3
2026-01-22 00:54:28.253779	180.1	31.0	-78.8	11.7
2026-01-22 00:54:30.529313	180.3	30.6	-78.4	13.3
2026-01-22 00:54:32.806576	180.5	30.2	-78.7	12.2
2026-01-22 00:54:35.083799	180.7	29.7	-78.5	12.6
2026-01-22 00:54:37.359185	180.9	29.3	-78.7	12.5
2026-01-22 00:54:39.636837	181.1	28.9	-78.4	12.1
2026-01-22 00:54:41.913106	181.3	28.5	-78.5	11.2
2026-01-22 00:54:44.188630	181.5	28.1	-78.1	9.8
2026-01-22 00:54:46.465943	181.7	27.7	-78.6	12.9
2026-01-22 00:54:48.747474	181.8	27.3	-78.7	10.7
2026-01-22 00:54:51.025124	182.0	26.9	-78.7	11.2
2026-01-22 00:54:53.303842	182.2	26.5	-78.5	11.5
2026-01-22 00:54:55.581664	182.3	26.2	-78.4	12.9
2026-01-22 00:54:57.848816	182.5	25.8	-78.3	13.7
2026-01-22 00:55:00.115959	182.7	25.4	-78.3	11.9
2026-01-22 00:55:02.383805	182.8	25.1	-78.5	11.5
2026-01-22 00:55:04.651628	183.0	24.7	-78.7	13.7
2026-01-22 00:55:06.920411	183.1	24.4	-78.6	10.9
2026-01-22 00:55:09.189034	183.2	24.0	-78.6	10.4
2026-01-22 00:55:11.458152	183.4	23.7	-78.8	13.2
2026-01-22 00:55:13.728882	183.5	23.3	-78.7	11.7
2026-01-22 00:55:15.996914	183.7	23.0	-78.8	12.5
2026-01-22 00:55:18.265440	183.8	22.7	-79.4	10.5
2026-01-22 00:55:20.529727	183.9	22.3	-79.1	12.7
2026-01-22 00:55:22.791478	184.0	22.0	-79.0	13.4
2026-01-22 00:55:25.054348	184.2	21.7	-78.6	13.2
2026-01-22 00:55:27.314231	184.3	21.4	-78.4	10.5
2026-01-22 00:55:29.581419	184.4	21.1	-79.1	12.2
2026-01-22 00:55:31.841947	184.5	20.8	-79.4	12.6
2026-01-22 00:55:34.100562	184.6	20.5	-79.0	13.0
2026-01-22 00:55:36.364664	184.7	20.2	-79.1	12.2
2026-01-22 00:55:38.625905	184.8	19.9	-79.1	12.2
2026-01-22 00:55:40.891792	185.0	19.6	-79.1	12.5
2026-01-22 00:55:43.161996	185.1	19.3	-78.8	12.3
2026-01-22 00:55:45.433939	185.2	19.0	-79.3	12.3
2026-01-22 00:55:47.703448	185.3	18.7	-79.0	11.3
2026-01-22 00:55:49.974055	185.4	18.5	-79.4	12.4
2026-01-22 00:55:52.242650	185.5	18.2	-79.3	10.5
2026-01-22 00:55:54.516518	185.6	17.9	-79.7	12.3
2026-01-22 00:55:56.784381	185.7	17.6	-79.4	11.3
2026-01-22 00:55:59.054803	185.8	17.4	-79.3	11.4
2026-01-22 00:56:01.323546	185.8	17.1	-79.7	11.0
2026-01-22 00:56:03.595686	185.9	16.8	-79.7	11.6
2026-01-22 00:56:05.865692	186.0	16.6	-79.3	11.5
2026-01-22 00:56:08.133006	186.1	16.3	-79.3	10.6
2026-01-22 00:56:10.404086	186.2	16.1	-79.4	11.8
2026-01-22 00:56:12.667889	186.3	15.8	-79.4	11.0
2026-01-22 00:56:14.934410	186.4	15.6	-79.3	10.9
2026-01-22 00:56:17.200041	186.5	15.3	-79.4	11.9
2026-01-22 00:56:19.469694	186.5	15.1	-79.4	10.5
2026-01-22 00:56:21.735673	186.6	14.8	-79.7	10.8
2026-01-22 00:56:23.994667	186.7	14.6	-79.7	11.2
2026-01-22 00:56:26.254684	186.8	14.4	-79.2	9.9
2026-01-22 00:56:28.510898	186.9	14.1	-79.4	10.6
2026-01-22 00:56:30.769942	186.9	13.9	-79.6	10.8
2026-01-22 00:56:33.029954	187.0	13.7	-79.5	12.1
2026-01-22 00:56:35.288336	187.1	13.4	-79.7	9.7
2026-01-22 00:56:37.547003	187.2	13.2	-80.0	8.8
2026-01-22 00:56:39.807091	187.2	13.0	-79.8	10.3
2026-01-22 00:56:42.072239	187.3	12.8	-79.8	10.8
2026-01-22 00:56:44.349862	187.4	12.6	-79.8	9.3
2026-01-22 00:56:46.625078	187.4	12.3	-79.3	8.9
2026-01-22 00:56:48.899771	187.5	12.1	-79.1	9.7
2026-01-22 00:56:51.175132	187.6	11.9	-79.8	8.3
2026-01-22 00:56:53.451298	187.6	11.7	-79.8	10.0
2026-01-22 00:56:55.727593	187.7	11.5	-79.7	8.5
2026-01-22 00:56:58.001038	187.8	11.3	-80.3	3.8
2026-01-22 00:57:00.279068	187.8	11.1	-80.0	7.3
2026-01-22 00:57:02.556235	187.9	10.9	-79.6	10.9
2026-01-22 00:57:04.833670	188.0	10.7	-83.6	0.0
2026-01-22 00:57:07.109268	188.0	10.5	-84.9	0.0
2026-01-22 00:57:09.383793	188.1	10.3	-85.6	2.2
2026-01-22 00:57:11.658574	188.1	10.1	-86.4	0.0
#Closed at: 2026-01-22 00:46:24.712039