passes_logs/2026/01/22/planumMaritime01/planumMaritime01__20260122_103613_METEOR-M2_4_rec.log

#Pass ID: 20260122_103613_METEOR-M2 4
#Satellite: METEOR-M2 4
#Configuration: METEOR-M2 4
#Start time: 2026-01-22 10:36:18.658082

#LorettStation: 1.0.0 05.05.2024
#Station: planumMaritime01
#Location: 37.49445 lon 55.92918 lat
#TLE: 1 59051U 24039A   26020.95667625  .00000091  00000+0  60497-4 0  9993
#TLE: 2 59051  98.6825 342.2619 0006126 231.1027 128.9605 14.22408473 98337

#Time	Az	El	Level	SNR
2026-01-22 10:36:20.836111	135.0	10.2	-77.4	0.0
2026-01-22 10:36:23.092362	134.9	10.4	-75.8	0.0
2026-01-22 10:36:25.354255	134.7	10.6	-75.7	0.0
2026-01-22 10:36:27.615817	134.6	10.8	-76.1	2.1
2026-01-22 10:36:29.875704	134.5	11.0	-75.0	1.8
2026-01-22 10:36:32.132744	134.4	11.2	-75.4	0.5
2026-01-22 10:36:34.390531	134.2	11.4	-74.5	0.0
2026-01-22 10:36:36.651031	134.1	11.6	-74.7	0.0
2026-01-22 10:36:38.911612	134.0	11.8	-75.9	1.5
2026-01-22 10:36:41.173278	133.8	12.0	-75.3	1.1
2026-01-22 10:36:43.449674	133.7	12.2	-75.2	1.3
2026-01-22 10:36:45.727463	133.5	12.4	-75.2	1.2
2026-01-22 10:36:48.003799	133.4	12.6	-73.3	0.0
2026-01-22 10:36:50.279329	133.3	12.8	-73.8	0.0
2026-01-22 10:36:52.556509	133.1	13.0	-74.2	0.0
2026-01-22 10:36:54.832159	133.0	13.2	-73.8	0.0
2026-01-22 10:36:57.106217	132.8	13.4	-76.4	2.6
2026-01-22 10:36:59.370846	132.7	13.6	-76.5	5.1
2026-01-22 10:37:01.631360	132.5	13.9	-76.6	3.9
2026-01-22 10:37:03.893671	132.3	14.1	-76.4	2.8
2026-01-22 10:37:06.158838	132.2	14.3	-76.7	4.6
2026-01-22 10:37:08.423734	132.0	14.5	-76.7	4.6
2026-01-22 10:37:10.689439	131.9	14.8	-76.9	6.1
2026-01-22 10:37:12.956115	131.7	15.0	-77.0	6.6
2026-01-22 10:37:15.221562	131.5	15.2	-77.0	6.9
2026-01-22 10:37:17.488208	131.3	15.4	-76.4	6.2
2026-01-22 10:37:19.760518	131.2	15.7	-76.0	4.3
2026-01-22 10:37:22.033732	131.0	15.9	-76.9	6.5
2026-01-22 10:37:24.309726	130.8	16.1	-76.4	5.9
2026-01-22 10:37:26.584170	130.6	16.4	-77.0	6.6
2026-01-22 10:37:28.859660	130.4	16.6	-77.1	7.0
2026-01-22 10:37:31.133680	130.2	16.9	-76.6	5.7
2026-01-22 10:37:33.409473	130.0	17.1	-77.1	7.0
2026-01-22 10:37:35.681225	129.8	17.4	-77.2	6.6
2026-01-22 10:37:37.953584	129.6	17.6	-76.9	7.1
2026-01-22 10:37:40.230169	129.4	17.9	-76.2	5.5
2026-01-22 10:37:42.503312	129.2	18.1	-77.1	6.9
2026-01-22 10:37:44.776547	129.0	18.4	-76.8	6.6
2026-01-22 10:37:47.056431	128.8	18.6	-77.7	7.9
2026-01-22 10:37:49.330990	128.6	18.9	-77.2	7.1
2026-01-22 10:37:51.610854	128.3	19.2	-76.8	6.8
2026-01-22 10:37:53.888607	128.1	19.4	-77.4	6.6
2026-01-22 10:37:56.163778	127.9	19.7	-77.3	7.2
2026-01-22 10:37:58.437124	127.6	20.0	-77.1	6.8
2026-01-22 10:38:00.710993	127.4	20.2	-77.2	6.3
2026-01-22 10:38:02.986423	127.2	20.5	-77.9	8.3
2026-01-22 10:38:05.260187	126.9	20.8	-77.3	7.5
2026-01-22 10:38:07.535014	126.6	21.1	-77.6	7.8
2026-01-22 10:38:09.810431	126.4	21.4	-77.3	7.9
2026-01-22 10:38:12.083878	126.1	21.7	-77.0	7.2
2026-01-22 10:38:14.361032	125.8	21.9	-77.3	7.4
2026-01-22 10:38:16.635286	125.6	22.2	-77.5	8.5
2026-01-22 10:38:18.911637	125.3	22.5	-77.2	8.6
2026-01-22 10:38:21.189020	125.0	22.8	-77.7	8.5
2026-01-22 10:38:23.467406	124.7	23.1	-77.3	8.0
2026-01-22 10:38:25.744071	124.4	23.4	-78.1	9.5
2026-01-22 10:38:28.009985	124.1	23.7	-77.8	9.0
2026-01-22 10:38:30.273335	123.8	24.0	-77.7	8.4
2026-01-22 10:38:32.538458	123.5	24.3	-78.2	9.7
2026-01-22 10:38:34.807166	123.2	24.7	-77.6	9.0
2026-01-22 10:38:37.073106	122.8	25.0	-78.0	9.5
2026-01-22 10:38:39.343278	122.5	25.3	-77.9	9.0
2026-01-22 10:38:41.610476	122.2	25.6	-77.4	8.8
2026-01-22 10:38:43.882275	121.8	25.9	-77.4	9.6
2026-01-22 10:38:46.152370	121.5	26.3	-77.6	9.2
2026-01-22 10:38:48.422403	121.1	26.6	-77.4	9.4
2026-01-22 10:38:50.690942	120.7	26.9	-77.1	10.3
2026-01-22 10:38:52.962797	120.3	27.3	-76.7	7.5
2026-01-22 10:38:55.239592	120.0	27.6	-76.8	7.4
2026-01-22 10:38:57.514723	119.6	27.9	-76.9	7.9
2026-01-22 10:38:59.788080	119.2	28.3	-77.0	9.3
2026-01-22 10:39:02.063990	118.7	28.6	-77.3	9.4
2026-01-22 10:39:04.338276	118.3	29.0	-77.3	9.3
2026-01-22 10:39:06.609469	117.9	29.3	-77.4	9.3
2026-01-22 10:39:08.879224	117.4	29.7	-76.7	8.5
2026-01-22 10:39:11.148880	117.0	30.0	-76.8	8.7
2026-01-22 10:39:13.417483	116.5	30.4	-77.0	9.7
2026-01-22 10:39:15.689566	116.1	30.7	-76.8	10.3
2026-01-22 10:39:17.957013	115.6	31.1	-76.5	8.8
2026-01-22 10:39:20.225378	115.1	31.5	-76.5	8.6
2026-01-22 10:39:22.493902	114.6	31.8	-76.8	9.4
2026-01-22 10:39:24.764693	114.1	32.2	-75.4	7.0
2026-01-22 10:39:27.032531	113.5	32.6	-76.1	7.9
2026-01-22 10:39:29.304978	113.0	32.9	-76.0	5.8
2026-01-22 10:39:31.574161	112.4	33.3	-75.1	4.3
2026-01-22 10:39:33.847467	111.9	33.7	-73.7	1.4
2026-01-22 10:39:36.116470	111.3	34.1	-76.1	5.7
2026-01-22 10:39:38.388460	110.7	34.4	-74.3	3.0
2026-01-22 10:39:40.662186	110.1	34.8	-75.6	4.7
2026-01-22 10:39:42.931190	109.5	35.2	-75.8	6.5
2026-01-22 10:39:45.203445	108.8	35.6	-76.3	3.5
2026-01-22 10:39:47.475259	108.2	36.0	-77.0	6.1
2026-01-22 10:39:49.746227	107.5	36.3	-75.3	1.8
2026-01-22 10:39:52.017426	106.8	36.7	-76.5	3.4
2026-01-22 10:39:54.284961	106.1	37.1	-76.4	5.0
2026-01-22 10:39:56.561512	105.4	37.5	-76.8	4.2
2026-01-22 10:39:58.832071	104.7	37.9	-76.6	3.2
2026-01-22 10:40:01.101417	103.9	38.2	-76.1	3.0
2026-01-22 10:40:03.376267	103.1	38.6	-76.3	2.6
2026-01-22 10:40:05.652664	102.4	39.0	-76.5	2.9
2026-01-22 10:40:07.928966	101.6	39.3	-75.2	1.1
2026-01-22 10:40:10.205486	100.7	39.7	-75.3	1.4
2026-01-22 10:40:12.479342	99.9	40.1	-75.7	1.9
2026-01-22 10:40:14.754761	99.0	40.4	-76.3	3.8
2026-01-22 10:40:17.029276	98.1	40.8	-76.2	2.1
2026-01-22 10:40:19.304881	97.2	41.2	-74.8	1.6
2026-01-22 10:40:21.583315	96.3	41.5	-74.1	0.0
2026-01-22 10:40:23.860972	95.4	41.9	-73.9	0.0
2026-01-22 10:40:26.138381	94.4	42.2	-74.9	1.3
2026-01-22 10:40:28.415917	93.4	42.5	-75.6	0.5
2026-01-22 10:40:30.692562	92.4	42.8	-74.3	0.0
2026-01-22 10:40:32.970571	91.4	43.2	-75.7	0.0
2026-01-22 10:40:35.246224	90.3	43.5	-75.0	0.0
2026-01-22 10:40:37.514163	89.3	43.8	-74.6	0.0
2026-01-22 10:40:39.772758	88.2	44.1	-73.2	0.0
2026-01-22 10:40:42.030755	87.1	44.3	-74.8	0.0
2026-01-22 10:40:44.285711	86.0	44.6	-72.9	0.0
2026-01-22 10:40:46.547211	84.9	44.9	-73.8	0.0
2026-01-22 10:40:48.804768	83.7	45.1	-74.8	0.2
2026-01-22 10:40:51.063110	82.6	45.4	-73.8	0.0
2026-01-22 10:40:53.319361	81.4	45.6	-74.5	0.0
2026-01-22 10:40:55.577965	80.2	45.8	-73.9	0.0
2026-01-22 10:40:57.843248	78.9	46.0	-73.3	0.0
2026-01-22 10:41:00.109350	77.7	46.2	-73.2	0.0
2026-01-22 10:41:02.392006	76.4	46.4	-73.0	0.0
2026-01-22 10:41:04.672055	75.2	46.5	-73.4	0.0
2026-01-22 10:41:06.947256	73.9	46.7	-72.8	0.0
2026-01-22 10:41:09.221630	72.6	46.8	-71.3	0.0
2026-01-22 10:41:11.498176	71.3	46.9	-72.0	0.0
2026-01-22 10:41:13.771013	70.0	47.0	-73.1	0.4
2026-01-22 10:41:16.045331	68.7	47.1	-73.1	0.0
2026-01-22 10:41:18.313327	67.3	47.1	-72.3	0.0
2026-01-22 10:41:20.580925	66.0	47.2	-72.6	0.0
2026-01-22 10:41:22.850395	64.7	47.2	-72.1	0.0
2026-01-22 10:41:25.119483	63.3	47.2	-71.9	0.0
2026-01-22 10:41:27.385340	62.0	47.2	-73.2	0.0
2026-01-22 10:41:29.654422	60.7	47.2	-72.8	0.0
2026-01-22 10:41:31.923272	59.4	47.2	-73.4	0.0
2026-01-22 10:41:34.189996	58.0	47.1	-73.2	0.0
2026-01-22 10:41:36.456306	56.7	47.0	-73.9	0.0
2026-01-22 10:41:38.726559	55.4	47.0	-73.2	0.0
2026-01-22 10:41:40.998242	54.1	46.9	-73.2	0.0
2026-01-22 10:41:43.273827	52.8	46.7	-71.8	0.0
2026-01-22 10:41:45.546477	51.5	46.6	-74.5	0.0
2026-01-22 10:41:47.819799	50.2	46.4	-74.1	0.0
2026-01-22 10:41:50.091024	49.0	46.3	-73.6	0.0
2026-01-22 10:41:52.366487	47.7	46.1	-72.8	0.0
2026-01-22 10:41:54.638304	46.5	45.9	-73.3	0.0
2026-01-22 10:41:56.913271	45.3	45.7	-74.4	0.0
2026-01-22 10:41:59.191196	44.1	45.5	-73.7	0.0
2026-01-22 10:42:01.465388	42.9	45.2	-74.3	0.0
2026-01-22 10:42:03.741952	41.7	45.0	-73.8	0.0
2026-01-22 10:42:06.015108	40.6	44.7	-74.0	0.0
2026-01-22 10:42:08.291735	39.4	44.5	-74.7	0.0
2026-01-22 10:42:10.564304	38.3	44.2	-74.7	0.9
2026-01-22 10:42:12.836020	37.2	43.9	-74.7	0.0
2026-01-22 10:42:15.106926	36.2	43.6	-74.6	0.0
2026-01-22 10:42:17.377343	35.1	43.3	-74.8	0.0
2026-01-22 10:42:19.648937	34.1	43.0	-74.9	0.0
2026-01-22 10:42:21.921511	33.1	42.7	-74.6	0.0
2026-01-22 10:42:24.195891	32.1	42.3	-74.1	0.0
2026-01-22 10:42:26.471202	31.1	42.0	-73.4	0.0
2026-01-22 10:42:28.741275	30.2	41.7	-73.8	0.0
2026-01-22 10:42:31.013648	29.3	41.3	-74.1	1.5
2026-01-22 10:42:33.286902	28.4	41.0	-74.4	0.4
2026-01-22 10:42:35.558680	27.5	40.6	-74.2	0.7
2026-01-22 10:42:37.829412	26.6	40.3	-72.8	0.0
2026-01-22 10:42:40.102645	25.7	39.9	-70.5	0.0
2026-01-22 10:42:42.376998	24.9	39.5	-73.8	0.0
2026-01-22 10:42:44.640248	24.1	39.2	-73.5	0.0
2026-01-22 10:42:46.897411	23.3	38.8	-73.9	0.0
2026-01-22 10:42:49.156118	22.5	38.4	-74.4	0.0
2026-01-22 10:42:51.412650	21.8	38.1	-74.2	0.0
2026-01-22 10:42:53.670144	21.1	37.7	-73.1	0.0
2026-01-22 10:42:55.928800	20.3	37.3	-70.9	0.0
2026-01-22 10:42:58.188827	19.6	36.9	-71.8	0.0
2026-01-22 10:43:00.450222	19.0	36.6	-70.9	0.0
2026-01-22 10:43:02.711687	18.3	36.2	-71.9	0.0
2026-01-22 10:43:04.966799	17.6	35.8	-70.2	0.0
2026-01-22 10:43:07.237551	17.0	35.4	-70.5	0.0
2026-01-22 10:43:09.511232	16.4	35.0	-70.2	0.0
2026-01-22 10:43:11.784740	15.7	34.7	-68.7	0.0
2026-01-22 10:43:14.062161	15.1	34.3	-71.6	0.0
2026-01-22 10:43:16.337438	14.6	33.9	-70.9	0.0
2026-01-22 10:43:18.612310	14.0	33.5	-67.1	0.0
2026-01-22 10:43:20.888795	13.4	33.2	-67.8	0.0
2026-01-22 10:43:23.159112	12.9	32.8	-68.5	0.0
2026-01-22 10:43:25.418091	12.3	32.4	-68.0	0.0
2026-01-22 10:43:27.676002	11.8	32.1	-69.0	0.0
2026-01-22 10:43:29.940183	11.3	31.7	-69.1	0.0
2026-01-22 10:43:32.199097	10.8	31.3	-71.0	0.0
2026-01-22 10:43:34.462153	10.3	31.0	-70.3	0.0
2026-01-22 10:43:36.722468	9.9	30.6	-70.1	0.0
2026-01-22 10:43:38.982540	9.4	30.3	-67.6	0.0
2026-01-22 10:43:41.239360	8.9	29.9	-68.3	0.0
2026-01-22 10:43:43.501636	8.5	29.6	-70.6	0.0
2026-01-22 10:43:45.765180	8.1	29.2	-70.7	0.0
2026-01-22 10:43:48.032993	7.6	28.9	-69.7	0.0
2026-01-22 10:43:50.307405	7.2	28.5	-70.2	0.0
2026-01-22 10:43:52.584543	6.8	28.2	-69.4	0.0
2026-01-22 10:43:54.861034	6.4	27.8	-66.6	0.0
2026-01-22 10:43:57.132000	6.0	27.5	-70.6	0.0
2026-01-22 10:43:59.403276	5.6	27.2	-71.1	0.0
2026-01-22 10:44:01.670604	5.3	26.8	-69.4	0.0
2026-01-22 10:44:03.943033	4.9	26.5	-70.2	0.0
2026-01-22 10:44:06.210888	4.5	26.2	-69.2	0.0
2026-01-22 10:44:08.484322	4.2	25.9	-66.3	0.0
2026-01-22 10:44:10.756661	3.9	25.5	-70.5	0.0
2026-01-22 10:44:13.031826	3.5	25.2	-68.9	0.0
2026-01-22 10:44:15.306038	3.2	24.9	-69.4	0.0
2026-01-22 10:44:17.578092	2.9	24.6	-70.1	0.0
2026-01-22 10:44:19.857300	2.5	24.3	-70.1	0.0
2026-01-22 10:44:22.137235	2.2	24.0	-69.9	0.0
2026-01-22 10:44:24.417873	1.9	23.7	-70.2	0.0
2026-01-22 10:44:26.698091	1.6	23.4	-69.4	0.0
2026-01-22 10:44:28.974681	1.3	23.1	-70.0	0.0
2026-01-22 10:44:31.252210	1.0	22.8	-70.1	0.0
2026-01-22 10:44:33.532039	0.8	22.5	-70.1	0.0
2026-01-22 10:44:35.804891	0.5	22.2	-67.3	0.0
2026-01-22 10:44:38.067804	0.2	21.9	-71.4	0.0
2026-01-22 10:44:40.341332	359.9	21.6	-69.1	0.0
2026-01-22 10:44:42.618732	359.7	21.3	-69.8	0.0
2026-01-22 10:44:44.891942	359.4	21.0	-70.0	0.0
2026-01-22 10:44:47.166608	359.2	20.8	-69.6	0.0
2026-01-22 10:44:49.446199	358.9	20.5	-70.0	0.0
2026-01-22 10:44:51.722626	358.7	20.2	-69.9	0.0
2026-01-22 10:44:54.000717	358.5	19.9	-69.8	0.0
2026-01-22 10:44:56.276235	358.2	19.7	-68.8	0.0
2026-01-22 10:44:58.531209	358.0	19.4	-70.7	0.0
2026-01-22 10:45:00.791299	357.8	19.1	-70.3	0.0
2026-01-22 10:45:03.050094	357.5	18.9	-70.3	0.0
2026-01-22 10:45:05.308362	357.3	18.6	-70.4	0.0
2026-01-22 10:45:07.570329	357.1	18.4	-71.3	0.0
2026-01-22 10:45:09.833389	356.9	18.1	-70.5	0.0
2026-01-22 10:45:12.088499	356.7	17.9	-71.1	0.0
2026-01-22 10:45:14.349312	356.5	17.6	-72.3	0.0
2026-01-22 10:45:16.605104	356.3	17.4	-72.4	0.0
2026-01-22 10:45:18.870922	356.1	17.1	-71.5	0.0
2026-01-22 10:45:21.141139	355.9	16.9	-70.9	0.0
2026-01-22 10:45:23.412472	355.7	16.6	-71.2	0.0
2026-01-22 10:45:25.678397	355.5	16.4	-70.1	0.0
2026-01-22 10:45:27.954061	355.4	16.2	-69.9	0.0
2026-01-22 10:45:30.221327	355.2	15.9	-72.0	0.0
2026-01-22 10:45:32.489764	355.0	15.7	-71.6	0.0
2026-01-22 10:45:34.760644	354.8	15.5	-71.8	0.0
2026-01-22 10:45:37.020882	354.7	15.2	-72.1	0.0
2026-01-22 10:45:39.277005	354.5	15.0	-72.7	0.0
2026-01-22 10:45:41.535862	354.3	14.8	-72.5	0.0
2026-01-22 10:45:43.793836	354.2	14.6	-72.0	0.0
2026-01-22 10:45:46.055918	354.0	14.3	-72.1	0.0
2026-01-22 10:45:48.318316	353.8	14.1	-72.2	0.0
2026-01-22 10:45:50.573805	353.7	13.9	-72.6	0.0
2026-01-22 10:45:52.830914	353.5	13.7	-72.2	0.0
2026-01-22 10:45:55.088553	353.4	13.5	-71.1	0.0
2026-01-22 10:45:57.344409	353.2	13.3	-72.4	0.0
2026-01-22 10:45:59.613008	353.1	13.0	-72.2	0.0
2026-01-22 10:46:01.887517	353.0	12.8	-72.2	0.0
2026-01-22 10:46:04.159305	352.8	12.6	-71.6	0.0
2026-01-22 10:46:06.430893	352.7	12.4	-72.4	0.0
2026-01-22 10:46:08.705537	352.5	12.2	-70.7	0.0
2026-01-22 10:46:10.979928	352.4	12.0	-71.2	0.0
2026-01-22 10:46:13.255858	352.3	11.8	-70.1	0.0
2026-01-22 10:46:15.535102	352.1	11.6	-70.7	0.0
2026-01-22 10:46:17.809058	352.0	11.4	-69.3	0.0
2026-01-22 10:46:20.084928	351.9	11.2	-70.5	0.0
2026-01-22 10:46:22.362215	351.7	11.0	-69.5	0.0
2026-01-22 10:46:24.641651	351.6	10.8	-71.2	0.0
2026-01-22 10:46:26.919245	351.5	10.6	-70.1	0.0
2026-01-22 10:46:29.193977	351.4	10.4	-69.6	0.0
2026-01-22 10:46:31.472745	351.3	10.2	-75.2	0.0
2026-01-22 10:46:33.751158	351.1	10.0	-78.1	0.0
#Closed at: 2026-01-22 10:36:13.663711