passes_logs/2026/01/22/planumMaritime01/planumMaritime01__20260122_172413_METOP-C_rec.log

#Pass ID: 20260122_172413_METOP-C
#Satellite: METOP-C
#Configuration: METOP-C
#Start time: 2026-01-22 17:24:18.684090

#LorettStation: 1.0.0 05.05.2024
#Station: planumMaritime01
#Location: 37.49445 lon 55.92918 lat
#TLE: 1 43689U 18087A   26022.22459080  .00000298  00000+0  15592-3 0  9999
#TLE: 2 43689  98.6865  84.3613 0000931 169.4045 190.7152 14.21502507374096

#Time	Az	El	Level	SNR
2026-01-22 17:24:20.848691	137.7	10.2	-75.7	0.0
2026-01-22 17:24:23.102700	137.6	10.4	-74.9	0.0
2026-01-22 17:24:25.356065	137.5	10.6	-73.6	0.0
2026-01-22 17:24:27.607917	137.4	10.8	-72.5	0.0
2026-01-22 17:24:29.861567	137.3	11.0	-72.0	0.0
2026-01-22 17:24:32.117673	137.2	11.2	-72.2	0.0
2026-01-22 17:24:34.368316	137.1	11.4	-71.1	0.0
2026-01-22 17:24:36.620218	136.9	11.6	-72.9	0.0
2026-01-22 17:24:38.871686	136.8	11.8	-72.0	0.0
2026-01-22 17:24:41.125365	136.7	12.0	-72.2	0.0
2026-01-22 17:24:43.376066	136.6	12.2	-72.6	0.0
2026-01-22 17:24:45.628574	136.5	12.4	-72.0	0.0
2026-01-22 17:24:47.878872	136.3	12.6	-72.5	0.0
2026-01-22 17:24:50.130900	136.2	12.8	-71.9	0.0
2026-01-22 17:24:52.380555	136.1	13.0	-72.9	0.0
2026-01-22 17:24:54.633182	135.9	13.2	-72.2	0.2
2026-01-22 17:24:56.882460	135.8	13.4	-73.1	2.4
2026-01-22 17:24:59.135943	135.7	13.7	-73.3	0.9
2026-01-22 17:25:01.387634	135.5	13.9	-72.5	0.2
2026-01-22 17:25:03.643035	135.4	14.1	-72.6	1.4
2026-01-22 17:25:05.898386	135.2	14.3	-73.0	2.0
2026-01-22 17:25:08.154241	135.1	14.6	-72.7	3.7
2026-01-22 17:25:10.411624	135.0	14.8	-72.8	1.6
2026-01-22 17:25:12.663616	134.8	15.0	-72.7	3.2
2026-01-22 17:25:14.919108	134.6	15.2	-73.2	3.3
2026-01-22 17:25:17.174472	134.5	15.5	-72.7	4.8
2026-01-22 17:25:19.426793	134.3	15.7	-72.8	3.0
2026-01-22 17:25:21.679891	134.2	16.0	-72.7	3.6
2026-01-22 17:25:23.937112	134.0	16.2	-72.7	3.0
2026-01-22 17:25:26.189875	133.8	16.4	-72.4	2.5
2026-01-22 17:25:28.443701	133.7	16.7	-72.8	3.8
2026-01-22 17:25:30.696905	133.5	16.9	-72.4	0.0
2026-01-22 17:25:32.950535	133.3	17.2	-73.0	3.6
2026-01-22 17:25:35.206756	133.2	17.4	-73.4	4.6
2026-01-22 17:25:37.461620	133.0	17.7	-73.4	3.2
2026-01-22 17:25:39.714803	132.8	17.9	-73.5	3.8
2026-01-22 17:25:41.969104	132.6	18.2	-73.6	3.6
2026-01-22 17:25:44.225235	132.4	18.4	-73.8	3.9
2026-01-22 17:25:46.477697	132.2	18.7	-73.3	4.0
2026-01-22 17:25:48.729131	132.0	19.0	-73.2	3.9
2026-01-22 17:25:50.981935	131.8	19.2	-72.9	4.2
2026-01-22 17:25:53.234227	131.6	19.5	-72.9	5.7
2026-01-22 17:25:55.485315	131.4	19.8	-73.5	7.1
2026-01-22 17:25:57.739881	131.2	20.1	-73.1	6.0
2026-01-22 17:25:59.993655	131.0	20.3	-73.2	4.8
2026-01-22 17:26:02.248015	130.8	20.6	-73.2	5.9
2026-01-22 17:26:04.502266	130.5	20.9	-72.7	4.9
2026-01-22 17:26:06.754678	130.3	21.2	-73.3	7.4
2026-01-22 17:26:09.009393	130.1	21.5	-72.4	4.1
2026-01-22 17:26:11.265417	129.8	21.8	-73.5	7.2
2026-01-22 17:26:13.517321	129.6	22.1	-73.4	7.2
2026-01-22 17:26:15.770293	129.3	22.4	-73.7	7.4
2026-01-22 17:26:18.027151	129.1	22.7	-72.8	6.2
2026-01-22 17:26:20.279678	128.8	23.0	-72.7	5.0
2026-01-22 17:26:22.533377	128.6	23.3	-73.5	7.4
2026-01-22 17:26:24.785650	128.3	23.6	-73.4	7.7
2026-01-22 17:26:27.039471	128.0	23.9	-72.9	6.0
2026-01-22 17:26:29.290375	127.8	24.2	-73.5	6.7
2026-01-22 17:26:31.545457	127.5	24.5	-74.0	7.5
2026-01-22 17:26:33.797002	127.2	24.8	-73.7	7.4
2026-01-22 17:26:36.052141	126.9	25.2	-73.9	6.9
2026-01-22 17:26:38.307089	126.6	25.5	-73.7	7.0
2026-01-22 17:26:40.559357	126.3	25.8	-73.6	8.0
2026-01-22 17:26:42.812622	126.0	26.2	-73.1	8.1
2026-01-22 17:26:45.064971	125.6	26.5	-72.9	6.9
2026-01-22 17:26:47.316426	125.3	26.8	-72.8	7.0
2026-01-22 17:26:49.569683	125.0	27.2	-73.0	8.6
2026-01-22 17:26:51.822432	124.6	27.5	-73.3	8.6
2026-01-22 17:26:54.075594	124.3	27.9	-72.9	6.8
2026-01-22 17:26:56.325821	123.9	28.2	-73.3	7.0
2026-01-22 17:26:58.577244	123.5	28.6	-72.9	7.3
2026-01-22 17:27:00.829552	123.2	29.0	-73.1	8.6
2026-01-22 17:27:03.077163	122.8	29.3	-72.7	8.3
2026-01-22 17:27:05.333055	122.4	29.7	-72.7	8.0
2026-01-22 17:27:07.586914	122.0	30.1	-73.0	7.2
2026-01-22 17:27:09.839764	121.6	30.4	-72.9	8.3
2026-01-22 17:27:12.089493	121.2	30.8	-72.5	9.2
2026-01-22 17:27:14.342510	120.7	31.2	-72.2	9.9
2026-01-22 17:27:16.593453	120.3	31.6	-72.5	9.4
2026-01-22 17:27:18.845362	119.8	31.9	-72.5	9.8
2026-01-22 17:27:21.098707	119.4	32.3	-72.7	8.5
2026-01-22 17:27:23.351757	118.9	32.7	-72.0	9.4
2026-01-22 17:27:25.604620	118.4	33.1	-72.3	8.9
2026-01-22 17:27:27.859140	117.9	33.5	-72.3	8.6
2026-01-22 17:27:30.111727	117.4	33.9	-71.7	8.1
2026-01-22 17:27:32.364528	116.9	34.3	-72.0	9.4
2026-01-22 17:27:34.614336	116.3	34.7	-71.7	8.5
2026-01-22 17:27:36.870285	115.8	35.1	-70.1	8.2
2026-01-22 17:27:39.122925	115.2	35.5	-71.3	8.7
2026-01-22 17:27:41.374260	114.6	35.9	-70.9	4.9
2026-01-22 17:27:43.625675	114.0	36.4	-70.5	3.6
2026-01-22 17:27:45.878726	113.4	36.8	-70.7	3.8
2026-01-22 17:27:48.131654	112.8	37.2	-70.3	2.6
2026-01-22 17:27:50.381454	112.1	37.6	-70.1	3.7
2026-01-22 17:27:52.635935	111.5	38.0	-70.7	3.1
2026-01-22 17:27:54.888870	110.8	38.4	-70.8	5.1
2026-01-22 17:27:57.142472	110.1	38.9	-69.2	2.7
2026-01-22 17:27:59.395257	109.4	39.3	-69.4	0.6
2026-01-22 17:28:01.648550	108.7	39.7	-70.2	5.7
2026-01-22 17:28:03.903824	107.9	40.1	-70.3	3.6
2026-01-22 17:28:06.156163	107.1	40.5	-69.4	1.9
2026-01-22 17:28:08.409695	106.3	40.9	-69.0	2.6
2026-01-22 17:28:10.663973	105.5	41.4	-67.9	4.0
2026-01-22 17:28:12.917650	104.7	41.8	-68.8	3.5
2026-01-22 17:28:15.171122	103.8	42.2	-68.4	2.2
2026-01-22 17:28:17.420229	103.0	42.6	-68.0	2.6
2026-01-22 17:28:19.672600	102.1	43.0	-68.7	2.6
2026-01-22 17:28:21.924465	101.1	43.4	-67.7	2.0
2026-01-22 17:28:24.175855	100.2	43.8	-67.6	0.3
2026-01-22 17:28:26.427626	99.2	44.2	-67.3	0.0
2026-01-22 17:28:28.679533	98.2	44.6	-67.5	2.4
2026-01-22 17:28:30.930942	97.2	44.9	-69.4	0.1
2026-01-22 17:28:33.182559	96.2	45.3	-70.7	1.6
2026-01-22 17:28:35.436467	95.1	45.7	-69.7	3.0
2026-01-22 17:28:37.685320	94.0	46.0	-68.4	0.0
2026-01-22 17:28:39.936793	92.9	46.4	-69.3	2.3
2026-01-22 17:28:42.185580	91.8	46.7	-67.0	0.0
2026-01-22 17:28:44.439816	90.6	47.1	-65.8	0.0
2026-01-22 17:28:46.690856	89.4	47.4	-68.0	2.4
2026-01-22 17:28:48.946528	88.2	47.7	-68.7	4.4
2026-01-22 17:28:51.197719	87.0	48.0	-67.1	0.0
2026-01-22 17:28:53.449447	85.7	48.2	-66.8	0.4
2026-01-22 17:28:55.698542	84.4	48.5	-68.4	3.0
2026-01-22 17:28:57.950836	83.1	48.8	-68.0	2.7
2026-01-22 17:29:00.207598	81.8	49.0	-66.3	0.0
2026-01-22 17:29:02.459091	80.4	49.2	-65.2	0.0
2026-01-22 17:29:04.712851	79.1	49.4	-67.1	4.0
2026-01-22 17:29:06.965724	77.7	49.6	-68.0	2.0
2026-01-22 17:29:09.216656	76.3	49.8	-68.4	5.3
2026-01-22 17:29:11.470230	74.9	50.0	-67.0	3.2
2026-01-22 17:29:13.725787	73.5	50.1	-67.9	3.4
2026-01-22 17:29:15.976117	72.0	50.2	-68.7	4.6
2026-01-22 17:29:18.227202	70.6	50.3	-65.4	0.6
2026-01-22 17:29:20.477610	69.1	50.4	-66.9	0.0
2026-01-22 17:29:22.728769	67.6	50.4	-66.1	2.3
2026-01-22 17:29:24.979246	66.2	50.5	-67.4	1.8
2026-01-22 17:29:27.234425	64.7	50.5	-65.6	0.0
2026-01-22 17:29:29.486938	63.2	50.5	-67.7	1.4
2026-01-22 17:29:31.737561	61.8	50.5	-67.6	0.0
2026-01-22 17:29:33.987917	60.3	50.4	-67.9	0.5
2026-01-22 17:29:36.240446	58.8	50.4	-65.8	0.0
2026-01-22 17:29:38.495606	57.4	50.3	-67.3	0.0
2026-01-22 17:29:40.746832	55.9	50.2	-65.8	0.0
2026-01-22 17:29:43.000152	54.5	50.1	-65.5	0.0
2026-01-22 17:29:45.253062	53.0	49.9	-67.1	0.0
2026-01-22 17:29:47.506076	51.6	49.8	-67.4	2.7
2026-01-22 17:29:49.760551	50.2	49.6	-67.6	4.0
2026-01-22 17:29:52.016122	48.9	49.4	-67.6	2.7
2026-01-22 17:29:54.269039	47.5	49.2	-67.8	2.6
2026-01-22 17:29:56.522299	46.2	49.0	-68.4	2.3
2026-01-22 17:29:58.773523	44.8	48.8	-68.3	4.4
2026-01-22 17:30:01.031043	43.5	48.5	-67.9	1.2
2026-01-22 17:30:03.283812	42.2	48.2	-69.5	4.4
2026-01-22 17:30:05.536650	41.0	48.0	-69.8	4.0
2026-01-22 17:30:07.785938	39.8	47.7	-69.1	1.1
2026-01-22 17:30:10.036453	38.5	47.4	-68.9	0.0
2026-01-22 17:30:12.290707	37.4	47.0	-69.0	0.0
2026-01-22 17:30:14.543346	36.2	46.7	-69.6	3.7
2026-01-22 17:30:16.796589	35.1	46.4	-70.0	4.6
2026-01-22 17:30:19.049798	33.9	46.0	-69.6	4.5
2026-01-22 17:30:21.300252	32.9	45.7	-70.0	4.0
2026-01-22 17:30:23.553205	31.8	45.3	-68.8	2.6
2026-01-22 17:30:25.805943	30.8	44.9	-69.8	3.4
2026-01-22 17:30:28.057282	29.7	44.6	-70.4	5.0
2026-01-22 17:30:30.308836	28.8	44.2	-69.4	4.7
2026-01-22 17:30:32.561230	27.8	43.8	-70.2	4.5
2026-01-22 17:30:34.812286	26.9	43.4	-67.8	0.2
2026-01-22 17:30:37.063995	25.9	43.0	-68.9	3.0
2026-01-22 17:30:39.319965	25.0	42.6	-68.8	1.8
2026-01-22 17:30:41.571604	24.2	42.2	-68.9	1.9
2026-01-22 17:30:43.826112	23.3	41.8	-68.7	2.1
2026-01-22 17:30:46.078473	22.5	41.4	-67.8	0.0
2026-01-22 17:30:48.331531	21.7	41.0	-66.7	0.0
2026-01-22 17:30:50.584618	20.9	40.5	-67.6	0.0
2026-01-22 17:30:52.835742	20.1	40.1	-68.0	0.0
2026-01-22 17:30:55.086767	19.4	39.7	-67.5	0.0
2026-01-22 17:30:57.337841	18.6	39.3	-68.0	0.0
2026-01-22 17:30:59.591499	17.9	38.9	-64.0	0.0
2026-01-22 17:31:01.842901	17.2	38.5	-66.4	0.0
2026-01-22 17:31:04.097131	16.6	38.0	-66.0	0.0
2026-01-22 17:31:06.349678	15.9	37.6	-64.5	0.0
2026-01-22 17:31:08.602824	15.3	37.2	-65.8	0.0
2026-01-22 17:31:10.855747	14.6	36.8	-63.8	0.0
2026-01-22 17:31:13.109756	14.0	36.4	-64.1	0.0
2026-01-22 17:31:15.361911	13.4	36.0	-64.8	0.0
2026-01-22 17:31:17.617136	12.9	35.6	-64.0	0.0
2026-01-22 17:31:19.869897	12.3	35.2	-63.2	0.0
2026-01-22 17:31:22.123265	11.7	34.8	-63.2	0.0
2026-01-22 17:31:24.379393	11.2	34.4	-62.8	0.0
2026-01-22 17:31:26.634528	10.7	34.0	-63.5	0.0
2026-01-22 17:31:28.884224	10.2	33.6	-61.3	0.0
2026-01-22 17:31:31.135090	9.7	33.2	-64.7	0.0
2026-01-22 17:31:33.384996	9.2	32.8	-64.8	0.0
2026-01-22 17:31:35.637485	8.7	32.4	-62.7	0.0
2026-01-22 17:31:37.889885	8.3	32.0	-63.3	0.0
2026-01-22 17:31:40.141444	7.8	31.6	-63.3	0.0
2026-01-22 17:31:42.395153	7.4	31.2	-63.8	0.0
2026-01-22 17:31:44.648173	6.9	30.9	-63.9	0.0
2026-01-22 17:31:46.899870	6.5	30.5	-64.9	0.0
2026-01-22 17:31:49.150560	6.1	30.1	-62.3	0.0
2026-01-22 17:31:51.401419	5.7	29.7	-62.9	0.0
2026-01-22 17:31:53.651739	5.3	29.4	-62.7	0.0
2026-01-22 17:31:55.906635	4.9	29.0	-63.2	0.0
2026-01-22 17:31:58.158843	4.5	28.7	-62.3	0.0
2026-01-22 17:32:00.411934	4.2	28.3	-62.1	0.0
2026-01-22 17:32:02.669074	3.8	27.9	-59.5	0.0
2026-01-22 17:32:04.922910	3.5	27.6	-63.7	0.0
2026-01-22 17:32:07.172820	3.1	27.3	-64.4	0.0
2026-01-22 17:32:09.424575	2.8	26.9	-61.7	0.0
2026-01-22 17:32:11.676725	2.5	26.6	-57.9	0.0
2026-01-22 17:32:13.927560	2.2	26.2	-65.2	0.0
2026-01-22 17:32:16.179149	1.8	25.9	-63.9	0.0
2026-01-22 17:32:18.431027	1.5	25.6	-64.5	0.0
2026-01-22 17:32:20.682708	1.2	25.2	-64.2	0.0
2026-01-22 17:32:22.933029	0.9	24.9	-62.8	0.0
2026-01-22 17:32:25.184826	0.6	24.6	-64.6	0.0
2026-01-22 17:32:27.442562	0.4	24.3	-64.4	0.0
2026-01-22 17:32:29.697141	0.1	24.0	-63.1	0.0
2026-01-22 17:32:31.948360	359.8	23.7	-63.2	0.0
2026-01-22 17:32:34.203777	359.6	23.4	-63.0	0.0
2026-01-22 17:32:36.454402	359.3	23.1	-64.3	0.0
2026-01-22 17:32:38.705879	359.0	22.7	-63.1	0.0
2026-01-22 17:32:40.957712	358.8	22.5	-62.9	0.0
2026-01-22 17:32:43.210195	358.5	22.2	-63.6	0.0
2026-01-22 17:32:45.464350	358.3	21.9	-62.4	0.0
2026-01-22 17:32:47.719242	358.1	21.6	-63.4	0.0
2026-01-22 17:32:49.973579	357.8	21.3	-62.4	0.0
2026-01-22 17:32:52.226770	357.6	21.0	-64.2	0.0
2026-01-22 17:32:54.479963	357.4	20.7	-64.4	0.0
2026-01-22 17:32:56.734499	357.2	20.4	-64.3	0.0
2026-01-22 17:32:58.985462	357.0	20.2	-65.0	0.0
2026-01-22 17:33:01.237842	356.7	19.9	-63.6	0.0
2026-01-22 17:33:03.491419	356.5	19.6	-64.3	0.0
2026-01-22 17:33:05.749535	356.3	19.3	-64.4	0.0
2026-01-22 17:33:08.001805	356.1	19.1	-63.8	0.0
2026-01-22 17:33:10.254633	355.9	18.8	-64.2	0.0
2026-01-22 17:33:12.507733	355.8	18.6	-65.4	0.0
2026-01-22 17:33:14.760253	355.6	18.3	-65.7	0.0
2026-01-22 17:33:17.012403	355.4	18.0	-64.7	0.0
2026-01-22 17:33:19.264566	355.2	17.8	-64.8	0.0
2026-01-22 17:33:21.518202	355.0	17.5	-64.5	0.0
2026-01-22 17:33:23.772486	354.8	17.3	-65.1	0.0
2026-01-22 17:33:26.026789	354.7	17.0	-63.2	0.0
2026-01-22 17:33:28.279926	354.5	16.8	-64.8	0.0
2026-01-22 17:33:30.532380	354.3	16.5	-65.0	0.0
2026-01-22 17:33:32.785190	354.2	16.3	-62.4	0.0
2026-01-22 17:33:35.038003	354.0	16.1	-65.0	0.0
2026-01-22 17:33:37.290173	353.8	15.8	-65.7	0.0
2026-01-22 17:33:39.543690	353.7	15.6	-64.0	0.0
2026-01-22 17:33:41.795712	353.5	15.4	-64.8	0.0
2026-01-22 17:33:44.048743	353.4	15.1	-66.2	0.0
2026-01-22 17:33:46.301660	353.2	14.9	-65.6	0.0
2026-01-22 17:33:48.556276	353.1	14.7	-66.0	0.0
2026-01-22 17:33:50.809551	352.9	14.5	-64.8	0.0
2026-01-22 17:33:53.062866	352.8	14.2	-65.3	0.0
2026-01-22 17:33:55.316241	352.7	14.0	-65.9	0.0
2026-01-22 17:33:57.570577	352.5	13.8	-67.0	0.0
2026-01-22 17:33:59.827735	352.4	13.6	-63.4	0.0
2026-01-22 17:34:02.080997	352.3	13.4	-63.4	0.0
2026-01-22 17:34:04.332758	352.1	13.1	-63.4	0.0
2026-01-22 17:34:06.585359	352.0	12.9	-66.0	0.0
2026-01-22 17:34:08.842648	351.9	12.7	-64.9	0.0
2026-01-22 17:34:11.095444	351.8	12.5	-64.2	0.0
2026-01-22 17:34:13.351351	351.6	12.3	-65.8	0.0
2026-01-22 17:34:15.607086	351.5	12.1	-64.9	0.0
2026-01-22 17:34:17.859653	351.4	11.9	-64.1	0.0
2026-01-22 17:34:20.112193	351.3	11.7	-66.3	0.0
2026-01-22 17:34:22.366444	351.2	11.5	-65.0	0.0
2026-01-22 17:34:24.620477	351.0	11.3	-63.4	0.0
2026-01-22 17:34:26.871193	350.9	11.1	-66.1	0.0
2026-01-22 17:34:29.123649	350.8	10.9	-66.1	0.0
2026-01-22 17:34:31.378643	350.7	10.7	-64.0	0.0
2026-01-22 17:34:33.632083	350.6	10.5	-63.9	0.0
2026-01-22 17:34:35.883861	350.5	10.3	-67.6	0.0
2026-01-22 17:34:38.136191	350.4	10.1	-71.4	0.0
#Closed at: 2026-01-22 17:24:13.690593