passes_logs/2025/01/21/Planum_Noyabrsk/Planum_Noyabrsk__20250121_160415_NOAA_19_rec.log

#Pass ID: 20250121_160415_NOAA 19
#Satellite: NOAA 19
#Configuration: NOAA 19
#Start time: 2025-01-21 16:04:20.939153

#LorettStation: 1.0.0 05.05.2024
#Station: Planum_Noyabrsk
#Location: 75.446886 lon 63.207202 lat
#TLE: 1 33591U 09005A   25020.45551859  .00000414  00000+0  24490-3 0  9996
#TLE: 2 33591  99.0187  84.2599 0014292  42.8290 317.3992 14.13264268822314

#Time	Az	El	Level	SNR
2025-01-21 16:04:33.737951	198.0	32.2	-65.6	12.2
2025-01-21 16:04:34.879910	198.2	32.4	-65.7	12.4
2025-01-21 16:04:36.022866	198.4	32.6	-65.5	12.0
2025-01-21 16:04:37.165822	198.7	32.8	-65.6	12.3
2025-01-21 16:04:38.306783	198.9	33.0	-65.4	12.2
2025-01-21 16:04:39.450736	199.1	33.2	-65.6	12.3
2025-01-21 16:04:40.594690	199.4	33.4	-65.4	12.4
2025-01-21 16:04:41.736157	199.6	33.6	-65.8	12.7
2025-01-21 16:04:42.879112	199.8	33.8	-65.5	12.5
2025-01-21 16:04:44.020074	200.1	34.0	-65.8	12.2
2025-01-21 16:04:45.162063	200.3	34.2	-65.5	12.9
2025-01-21 16:04:46.303024	200.6	34.4	-65.5	13.6
2025-01-21 16:04:47.444983	200.8	34.6	-65.5	13.4
2025-01-21 16:04:48.586450	201.1	34.8	-65.4	13.3
2025-01-21 16:04:49.734393	201.3	35.1	-65.6	13.5
2025-01-21 16:04:50.878346	201.6	35.3	-65.7	13.9
2025-01-21 16:04:52.020812	201.8	35.5	-66.1	12.8
2025-01-21 16:04:53.163287	202.1	35.7	-65.9	13.7
2025-01-21 16:04:54.303250	202.4	35.9	-66.1	14.1
2025-01-21 16:04:55.445209	202.6	36.1	-66.3	13.4
2025-01-21 16:04:56.587167	202.9	36.3	-66.2	13.8
2025-01-21 16:04:57.732119	203.2	36.5	-66.4	13.6
2025-01-21 16:04:58.874094	203.5	36.8	-66.1	14.1
2025-01-21 16:05:00.021039	203.8	37.0	-65.9	14.2
2025-01-21 16:05:01.163995	204.1	37.2	-65.5	14.6
2025-01-21 16:05:02.303470	204.3	37.4	-66.0	15.6
2025-01-21 16:05:03.446425	204.6	37.6	-66.1	15.1
2025-01-21 16:05:04.587387	204.9	37.9	-66.0	15.2
2025-01-21 16:05:05.731340	205.2	38.1	-66.2	15.2
2025-01-21 16:05:06.875293	205.6	38.3	-66.0	15.5
2025-01-21 16:05:08.016761	205.9	38.5	-65.8	15.1
2025-01-21 16:05:09.158234	206.2	38.7	-65.8	15.7
2025-01-21 16:05:10.299195	206.5	39.0	-66.1	15.4
2025-01-21 16:05:11.441154	206.8	39.2	-66.0	16.1
2025-01-21 16:05:12.581624	207.2	39.4	-65.7	15.7
2025-01-21 16:05:13.725577	207.5	39.6	-65.9	15.4
2025-01-21 16:05:14.866538	207.8	39.9	-65.6	15.6
2025-01-21 16:05:16.007010	208.2	40.1	-65.9	15.3
2025-01-21 16:05:17.148968	208.5	40.3	-65.9	15.2
2025-01-21 16:05:18.290927	208.9	40.5	-66.1	15.1
2025-01-21 16:05:19.436384	209.3	40.7	-66.0	15.0
2025-01-21 16:05:20.577345	209.6	41.0	-65.8	15.2
2025-01-21 16:05:21.723293	210.0	41.2	-65.9	15.4
2025-01-21 16:05:22.867246	210.4	41.4	-65.9	14.7
2025-01-21 16:05:24.008207	210.7	41.6	-66.0	15.7
2025-01-21 16:05:25.153159	211.1	41.9	-65.5	14.5
2025-01-21 16:05:26.296213	211.5	42.1	-65.6	14.7
2025-01-21 16:05:27.440676	211.9	42.3	-66.0	14.6
2025-01-21 16:05:28.584630	212.3	42.5	-65.9	15.9
2025-01-21 16:05:29.726589	212.7	42.8	-65.6	14.4
2025-01-21 16:05:30.868547	213.1	43.0	-65.9	14.8
2025-01-21 16:05:32.008511	213.6	43.2	-65.7	13.8
2025-01-21 16:05:33.149472	214.0	43.4	-66.3	15.1
2025-01-21 16:05:34.291430	214.4	43.7	-65.7	14.4
2025-01-21 16:05:35.432391	214.8	43.9	-65.6	14.3
2025-01-21 16:05:36.574350	215.3	44.1	-65.6	14.4
2025-01-21 16:05:37.717306	215.7	44.3	-65.7	14.8
2025-01-21 16:05:38.860262	216.2	44.6	-65.8	15.5
2025-01-21 16:05:40.003267	216.6	44.8	-65.4	14.4
2025-01-21 16:05:41.148188	217.1	45.0	-65.7	15.1
2025-01-21 16:05:42.290146	217.6	45.2	-65.2	15.3
2025-01-21 16:05:43.433102	218.1	45.4	-65.3	15.2
2025-01-21 16:05:44.577056	218.5	45.6	-65.2	15.6
2025-01-21 16:05:45.718016	219.0	45.9	-65.2	15.8
2025-01-21 16:05:46.860481	219.5	46.1	-65.1	16.1
2025-01-21 16:05:48.002439	220.0	46.3	-65.1	16.0
2025-01-21 16:05:49.144399	220.6	46.5	-65.2	15.6
2025-01-21 16:05:50.285866	221.1	46.7	-65.0	16.3
2025-01-21 16:05:51.428331	221.6	46.9	-65.1	16.3
2025-01-21 16:05:52.571287	222.1	47.1	-65.0	16.3
2025-01-21 16:05:53.712755	222.7	47.3	-64.9	16.9
2025-01-21 16:05:54.856710	223.2	47.5	-65.0	17.6
2025-01-21 16:05:55.999665	223.8	47.7	-65.0	15.9
2025-01-21 16:05:57.142130	224.3	47.9	-65.1	16.2
2025-01-21 16:05:58.283091	224.9	48.1	-65.2	16.1
2025-01-21 16:05:59.425050	225.5	48.3	-65.0	15.8
2025-01-21 16:06:00.566517	226.1	48.5	-65.3	16.3
2025-01-21 16:06:01.708476	226.6	48.7	-65.3	15.7
2025-01-21 16:06:02.853426	227.2	48.9	-65.0	15.7
2025-01-21 16:06:03.994418	227.8	49.1	-64.9	15.0
2025-01-21 16:06:05.136406	228.5	49.3	-65.0	15.6
2025-01-21 16:06:06.277338	229.1	49.4	-65.3	14.9
2025-01-21 16:06:07.420294	229.7	49.6	-65.3	15.1
2025-01-21 16:06:08.561255	230.3	49.8	-65.2	13.3
2025-01-21 16:06:09.703213	231.0	50.0	-65.2	13.5
2025-01-21 16:06:10.845173	231.6	50.1	-65.1	12.2
2025-01-21 16:06:11.987130	232.3	50.3	-65.2	12.6
2025-01-21 16:06:13.130087	232.9	50.5	-65.1	13.2
2025-01-21 16:06:14.273552	233.6	50.6	-65.0	10.5
2025-01-21 16:06:15.415510	234.3	50.8	-64.8	11.2
2025-01-21 16:06:16.556470	235.0	50.9	-64.7	11.4
2025-01-21 16:06:17.699426	235.6	51.1	-64.8	11.9
2025-01-21 16:06:18.841385	236.3	51.2	-64.5	9.5
2025-01-21 16:06:19.986336	237.0	51.4	-64.2	11.3
2025-01-21 16:06:21.127803	237.7	51.5	-64.6	11.9
2025-01-21 16:06:22.268764	238.5	51.6	-64.3	11.1
2025-01-21 16:06:23.410723	239.2	51.8	-64.2	10.1
2025-01-21 16:06:24.553188	239.9	51.9	-64.4	10.2
2025-01-21 16:06:25.695146	240.6	52.0	-64.2	9.8
2025-01-21 16:06:26.838110	241.4	52.1	-64.4	9.4
2025-01-21 16:06:27.981058	242.1	52.2	-63.8	9.3
2025-01-21 16:06:29.123016	242.9	52.3	-63.8	7.7
2025-01-21 16:06:30.265972	243.6	52.4	-63.5	8.1
2025-01-21 16:06:31.408927	244.4	52.5	-63.8	8.5
2025-01-21 16:06:32.551394	245.1	52.6	-62.8	7.2
2025-01-21 16:06:33.693353	245.9	52.7	-63.6	8.7
2025-01-21 16:06:34.834821	246.7	52.8	-63.1	8.2
2025-01-21 16:06:35.976780	247.5	52.9	-63.0	8.8
2025-01-21 16:06:37.118738	248.2	52.9	-63.0	8.8
2025-01-21 16:06:38.260206	249.0	53.0	-62.5	8.4
2025-01-21 16:06:39.402164	249.8	53.0	-62.7	7.9
2025-01-21 16:06:40.547115	250.6	53.1	-62.4	6.2
2025-01-21 16:06:41.688585	251.4	53.2	-62.1	7.0
2025-01-21 16:06:42.830543	252.2	53.2	-62.3	7.0
2025-01-21 16:06:43.973499	253.0	53.2	-61.8	6.1
2025-01-21 16:06:45.116470	253.8	53.3	-62.3	6.3
2025-01-21 16:06:46.258428	254.6	53.3	-62.3	7.5
2025-01-21 16:06:47.401384	255.4	53.3	-62.2	6.2
2025-01-21 16:06:48.543342	256.2	53.3	-61.9	7.5
2025-01-21 16:06:49.690287	257.0	53.3	-61.3	7.1
2025-01-21 16:06:50.833244	257.8	53.3	-60.7	6.7
2025-01-21 16:06:51.975202	258.6	53.3	-61.0	5.9
2025-01-21 16:06:53.117160	259.4	53.3	-61.6	5.2
2025-01-21 16:06:54.258122	260.2	53.3	-61.4	5.4
2025-01-21 16:06:55.401079	261.0	53.3	-61.6	5.9
2025-01-21 16:06:56.543036	261.8	53.3	-61.8	6.4
2025-01-21 16:06:57.685992	262.6	53.2	-62.0	6.1
2025-01-21 16:06:58.827459	263.4	53.2	-62.0	6.6
2025-01-21 16:06:59.968420	264.2	53.2	-62.1	6.8
2025-01-21 16:07:01.110379	265.0	53.1	-62.1	5.5
2025-01-21 16:07:02.251340	265.8	53.1	-62.8	6.3
2025-01-21 16:07:03.393298	266.6	53.0	-62.5	6.5
2025-01-21 16:07:04.534259	267.4	52.9	-62.4	6.9
2025-01-21 16:07:05.678212	268.1	52.9	-62.7	7.3
2025-01-21 16:07:06.821168	268.9	52.8	-62.6	7.0
2025-01-21 16:07:07.963127	269.7	52.7	-62.8	7.2
2025-01-21 16:07:09.105085	270.5	52.6	-63.3	8.0
2025-01-21 16:07:10.248044	271.2	52.6	-63.4	5.8
2025-01-21 16:07:11.390997	272.0	52.5	-63.7	7.2
2025-01-21 16:07:12.536945	272.7	52.4	-62.7	6.5
2025-01-21 16:07:13.679900	273.5	52.3	-63.8	7.7
2025-01-21 16:07:14.822856	274.2	52.2	-64.4	7.5
2025-01-21 16:07:15.964815	275.0	52.0	-63.0	8.5
2025-01-21 16:07:17.106773	275.7	51.9	-62.9	7.8
2025-01-21 16:07:18.247734	276.4	51.8	-63.6	7.2
2025-01-21 16:07:19.392193	277.2	51.7	-62.7	7.6
2025-01-21 16:07:20.535151	277.9	51.5	-62.3	6.9
2025-01-21 16:07:21.676111	278.6	51.4	-62.2	7.1
2025-01-21 16:07:22.818575	279.3	51.3	-62.2	6.7
2025-01-21 16:07:23.960534	280.0	51.1	-61.4	7.0
2025-01-21 16:07:25.104496	280.7	51.0	-61.8	7.4
2025-01-21 16:07:26.246953	281.3	50.8	-62.1	6.1
2025-01-21 16:07:27.389909	282.0	50.7	-62.2	5.6
2025-01-21 16:07:28.531867	282.7	50.5	-62.2	5.6
2025-01-21 16:07:29.674824	283.4	50.4	-61.5	4.6
2025-01-21 16:07:30.820771	284.0	50.2	-61.2	3.1
2025-01-21 16:07:31.961733	284.7	50.0	-61.0	4.0
2025-01-21 16:07:33.104688	285.3	49.9	-60.7	4.5
2025-01-21 16:07:34.246646	285.9	49.7	-61.2	4.8
2025-01-21 16:07:35.388605	286.6	49.5	-61.2	4.8
2025-01-21 16:07:36.530072	287.2	49.3	-61.0	4.6
2025-01-21 16:07:37.673028	287.8	49.2	-61.4	3.8
2025-01-21 16:07:38.814986	288.4	49.0	-61.8	3.6
2025-01-21 16:07:39.955947	289.0	48.8	-62.0	4.3
2025-01-21 16:07:41.098903	289.6	48.6	-61.1	4.5
2025-01-21 16:07:42.241859	290.2	48.4	-61.3	6.0
2025-01-21 16:07:43.384815	290.7	48.2	-60.6	4.7
2025-01-21 16:07:44.525776	291.3	48.0	-60.8	1.5
2025-01-21 16:07:45.668732	291.9	47.8	-60.8	2.2
2025-01-21 16:07:46.809693	292.4	47.6	-61.1	2.5
2025-01-21 16:07:47.952158	293.0	47.4	-60.5	3.5
2025-01-21 16:07:49.093118	293.5	47.2	-61.2	4.9
2025-01-21 16:07:50.235077	294.0	47.0	-59.7	3.4
2025-01-21 16:07:51.376545	294.6	46.8	-60.6	5.3
2025-01-21 16:07:52.518012	295.1	46.6	-60.0	2.4
2025-01-21 16:07:53.658973	295.6	46.4	-61.2	4.6
2025-01-21 16:07:54.807914	296.1	46.2	-61.7	3.8
2025-01-21 16:07:55.950869	296.6	46.0	-61.2	4.8
2025-01-21 16:07:57.094822	297.1	45.7	-60.7	3.0
2025-01-21 16:07:58.235292	297.6	45.5	-61.3	6.1
2025-01-21 16:07:59.378248	298.1	45.3	-61.2	4.6
2025-01-21 16:08:00.519209	298.5	45.1	-60.7	2.4
2025-01-21 16:08:01.666154	299.0	44.9	-60.9	4.0
2025-01-21 16:08:02.807115	299.5	44.7	-61.9	4.7
2025-01-21 16:08:03.951069	299.9	44.4	-60.9	3.0
2025-01-21 16:08:05.093027	300.4	44.2	-61.1	5.6
2025-01-21 16:08:06.234986	300.8	44.0	-61.5	6.6
2025-01-21 16:08:07.378468	301.2	43.8	-61.6	6.4
2025-01-21 16:08:08.519962	301.7	43.6	-61.3	6.2
2025-01-21 16:08:09.663915	302.1	43.3	-61.0	5.9
2025-01-21 16:08:10.805874	302.5	43.1	-61.4	7.5
2025-01-21 16:08:11.947832	302.9	42.9	-61.3	6.6
2025-01-21 16:08:13.089790	303.3	42.7	-61.3	6.8
2025-01-21 16:08:14.231748	303.7	42.4	-61.6	7.3
2025-01-21 16:08:15.375702	304.1	42.2	-61.3	6.8
2025-01-21 16:08:16.519655	304.5	42.0	-61.7	6.8
2025-01-21 16:08:17.661614	304.9	41.8	-61.7	5.4
2025-01-21 16:08:18.804569	305.3	41.6	-61.3	5.9
2025-01-21 16:08:19.946528	305.7	41.3	-61.8	7.1
2025-01-21 16:08:21.091479	306.0	41.1	-61.6	7.0
2025-01-21 16:08:22.238423	306.4	40.9	-61.3	7.7
2025-01-21 16:08:23.380382	306.8	40.7	-61.7	6.4
2025-01-21 16:08:24.522848	307.1	40.4	-62.3	8.2
2025-01-21 16:08:25.666801	307.5	40.2	-61.7	5.8
2025-01-21 16:08:26.810755	307.8	40.0	-62.4	8.8
2025-01-21 16:08:27.954218	308.2	39.8	-62.2	7.1
2025-01-21 16:08:29.097175	308.5	39.5	-62.0	6.0
2025-01-21 16:08:30.238135	308.8	39.3	-62.2	8.0
2025-01-21 16:08:31.380603	309.2	39.1	-62.3	7.4
2025-01-21 16:08:32.526061	309.5	38.9	-63.2	9.8
2025-01-21 16:08:33.666530	309.8	38.7	-62.4	6.4
2025-01-21 16:08:34.808995	310.1	38.4	-62.2	9.0
2025-01-21 16:08:35.950954	310.4	38.2	-63.2	8.7
2025-01-21 16:08:37.094906	310.7	38.0	-62.9	7.7
2025-01-21 16:08:38.237371	311.0	37.8	-63.2	8.9
2025-01-21 16:08:39.379330	311.3	37.6	-62.3	7.6
2025-01-21 16:08:40.522285	311.6	37.4	-62.9	9.0
2025-01-21 16:08:41.664244	311.9	37.1	-62.1	5.9
2025-01-21 16:08:42.805205	312.2	36.9	-63.7	8.7
2025-01-21 16:08:43.946186	312.5	36.7	-62.0	5.3
2025-01-21 16:08:45.089142	312.8	36.5	-63.0	8.7
2025-01-21 16:08:46.229106	313.0	36.3	-63.2	6.9
2025-01-21 16:08:47.371065	313.3	36.1	-62.9	7.6
2025-01-21 16:08:48.516015	313.6	35.8	-63.1	8.4
2025-01-21 16:08:49.657974	313.8	35.6	-62.5	6.8
2025-01-21 16:08:50.798935	314.1	35.4	-62.6	8.1
2025-01-21 16:08:51.939896	314.4	35.2	-61.9	6.0
2025-01-21 16:08:53.082852	314.6	35.0	-62.9	6.5
2025-01-21 16:08:54.223322	314.9	34.8	-63.0	8.6
2025-01-21 16:08:55.365280	315.1	34.6	-63.0	8.5
2025-01-21 16:08:56.507747	315.4	34.4	-62.7	7.3
2025-01-21 16:08:57.648708	315.6	34.2	-62.3	5.9
2025-01-21 16:08:58.789670	315.9	34.0	-62.3	3.8
2025-01-21 16:08:59.932625	316.1	33.8	-61.8	5.4
2025-01-21 16:09:01.074584	316.3	33.6	-62.7	5.6
2025-01-21 16:09:02.217540	316.6	33.4	-62.7	6.6
2025-01-21 16:09:03.359498	316.8	33.2	-62.8	6.2
2025-01-21 16:09:04.501457	317.0	33.0	-62.7	5.1
2025-01-21 16:09:05.643415	317.2	32.8	-62.9	6.3
2025-01-21 16:09:06.786371	317.5	32.6	-63.5	6.6
2025-01-21 16:09:07.928329	317.7	32.4	-62.6	5.7
2025-01-21 16:09:09.071286	317.9	32.2	-62.5	4.6
2025-01-21 16:09:10.215238	318.1	32.0	-63.5	5.8
2025-01-21 16:09:11.357196	318.3	31.8	-63.0	6.5
2025-01-21 16:09:12.499155	318.5	31.6	-62.9	7.1
2025-01-21 16:09:13.641114	318.7	31.4	-62.4	5.4
2025-01-21 16:09:14.784575	318.9	31.2	-62.6	6.2
2025-01-21 16:09:15.926533	319.1	31.0	-62.1	4.5
2025-01-21 16:09:17.068492	319.3	30.8	-62.6	5.8
2025-01-21 16:09:18.210451	319.5	30.6	-62.8	6.1
2025-01-21 16:09:19.352916	319.7	30.4	-63.0	5.6
2025-01-21 16:09:20.495871	319.9	30.2	-62.5	0.0
2025-01-21 16:09:21.639824	320.1	30.0	-60.3	0.0
#Closed at: 2025-01-21 16:04:15.942840