passes_logs/2025/01/21/Planum_Noyabrsk/Planum_Noyabrsk__20250121_063039_NOAA_18_rec.log

#Pass ID: 20250121_063039_NOAA 18
#Satellite: NOAA 18
#Configuration: NOAA 18
#Start time: 2025-01-21 06:30:44.224113

#LorettStation: 1.0.0 05.05.2024
#Station: Planum_Noyabrsk
#Location: 75.446886 lon 63.207202 lat
#TLE: 1 28654U 05018A   25020.47177258  .00000466  00000+0  27078-3 0  9991
#TLE: 2 28654  98.8558 101.4716 0014594 164.0295 196.1340 14.13491962 13952

#Time	Az	El	Level	SNR
2025-01-21 06:30:50.449210	29.8	31.2	-56.4	0.0
2025-01-21 06:30:51.601142	29.9	31.4	-54.8	0.0
2025-01-21 06:30:52.753075	30.0	31.6	-54.5	0.0
2025-01-21 06:30:53.904009	30.1	31.8	-55.9	0.0
2025-01-21 06:30:55.053948	30.2	32.0	-58.4	1.2
2025-01-21 06:30:56.203885	30.3	32.3	-56.1	0.0
2025-01-21 06:30:57.361802	30.4	32.5	-56.2	0.0
2025-01-21 06:30:58.512736	30.6	32.7	-56.4	0.0
2025-01-21 06:30:59.664179	30.7	32.9	-56.0	0.0
2025-01-21 06:31:00.816111	30.8	33.2	-59.0	0.0
2025-01-21 06:31:01.969041	30.9	33.4	-59.0	4.4
2025-01-21 06:31:03.120508	31.0	33.6	-59.5	1.8
2025-01-21 06:31:04.274437	31.1	33.9	-56.3	0.0
2025-01-21 06:31:05.426368	31.2	34.1	-57.2	0.0
2025-01-21 06:31:06.578301	31.4	34.4	-56.8	0.0
2025-01-21 06:31:07.733224	31.5	34.6	-57.1	0.0
2025-01-21 06:31:08.885156	31.6	34.8	-56.7	0.0
2025-01-21 06:31:10.040081	31.7	35.1	-57.5	0.0
2025-01-21 06:31:11.192014	31.9	35.3	-56.3	0.0
2025-01-21 06:31:12.345940	32.0	35.6	-56.0	0.0
2025-01-21 06:31:13.508843	32.1	35.8	-60.5	0.0
2025-01-21 06:31:14.660776	32.3	36.1	-59.9	0.2
2025-01-21 06:31:15.816697	32.4	36.3	-60.7	0.0
2025-01-21 06:31:16.967633	32.5	36.6	-62.7	0.0
2025-01-21 06:31:18.119565	32.7	36.9	-61.3	0.0
2025-01-21 06:31:19.275486	32.8	37.1	-57.4	0.0
2025-01-21 06:31:20.425424	32.9	37.4	-61.5	0.0
2025-01-21 06:31:21.583340	33.1	37.6	-58.4	0.0
2025-01-21 06:31:22.736269	33.2	37.9	-60.5	0.0
2025-01-21 06:31:23.889218	33.4	38.2	-57.1	0.0
2025-01-21 06:31:25.043145	33.5	38.4	-60.9	1.7
2025-01-21 06:31:26.194081	33.7	38.7	-60.0	1.5
2025-01-21 06:31:27.344018	33.9	39.0	-60.9	3.5
2025-01-21 06:31:28.497944	34.0	39.3	-59.2	2.9
2025-01-21 06:31:29.648879	34.2	39.5	-59.7	1.2
2025-01-21 06:31:30.803804	34.3	39.8	-57.8	0.0
2025-01-21 06:31:31.954253	34.5	40.1	-59.7	3.0
2025-01-21 06:31:33.107183	34.7	40.4	-57.9	0.0
2025-01-21 06:31:34.258118	34.9	40.7	-57.2	0.0
2025-01-21 06:31:35.409052	35.0	40.9	-57.0	0.0
2025-01-21 06:31:36.559988	35.2	41.2	-56.7	0.0
2025-01-21 06:31:37.720896	35.4	41.5	-56.9	0.0
2025-01-21 06:31:38.870834	35.6	41.8	-56.3	0.0
2025-01-21 06:31:40.023764	35.8	42.1	-56.1	0.0
2025-01-21 06:31:41.174698	36.0	42.4	-58.7	0.0
2025-01-21 06:31:42.322641	36.2	42.7	-58.2	0.0
2025-01-21 06:31:43.475571	36.4	43.0	-54.8	0.0
2025-01-21 06:31:44.632001	36.6	43.3	-60.7	5.1
2025-01-21 06:31:45.780450	36.8	43.6	-57.0	0.0
2025-01-21 06:31:46.931385	37.0	43.9	-59.6	5.1
2025-01-21 06:31:48.082320	37.2	44.2	-57.6	0.3
2025-01-21 06:31:49.237244	37.4	44.5	-58.7	0.0
2025-01-21 06:31:50.391172	37.7	44.9	-55.3	0.0
2025-01-21 06:31:51.538117	37.9	45.2	-56.8	0.0
2025-01-21 06:31:52.684065	38.1	45.5	-58.0	0.0
2025-01-21 06:31:53.833005	38.4	45.8	-60.4	4.4
2025-01-21 06:31:54.979951	38.6	46.1	-59.2	0.0
2025-01-21 06:31:56.136869	38.8	46.4	-59.8	3.1
2025-01-21 06:31:57.280850	39.1	46.8	-60.1	1.2
2025-01-21 06:31:58.425774	39.3	47.1	-58.6	0.9
2025-01-21 06:31:59.571723	39.6	47.4	-59.9	3.6
2025-01-21 06:32:00.717671	39.9	47.7	-59.4	2.1
2025-01-21 06:32:01.861624	40.2	48.1	-60.5	3.4
2025-01-21 06:32:03.007084	40.4	48.4	-62.1	6.0
2025-01-21 06:32:04.153032	40.7	48.7	-60.2	3.7
2025-01-21 06:32:05.297985	41.0	49.1	-61.1	0.5
2025-01-21 06:32:06.443963	41.3	49.4	-60.5	3.7
2025-01-21 06:32:07.589879	41.6	49.8	-59.7	2.9
2025-01-21 06:32:08.737336	41.9	50.1	-58.7	0.0
2025-01-21 06:32:09.886783	42.2	50.4	-61.1	5.4
2025-01-21 06:32:11.040710	42.6	50.8	-62.1	6.5
2025-01-21 06:32:12.184663	42.9	51.1	-59.5	0.7
2025-01-21 06:32:13.329614	43.2	51.5	-57.7	0.0
2025-01-21 06:32:14.475562	43.6	51.8	-60.8	3.7
2025-01-21 06:32:15.623016	43.9	52.2	-61.9	6.4
2025-01-21 06:32:16.770958	44.3	52.5	-61.1	5.6
2025-01-21 06:32:17.916907	44.7	52.9	-58.6	0.0
2025-01-21 06:32:19.070834	45.1	53.3	-60.9	3.7
2025-01-21 06:32:20.215784	45.5	53.6	-61.3	4.1
2025-01-21 06:32:21.358741	45.9	54.0	-61.1	4.9
2025-01-21 06:32:22.511185	46.3	54.3	-61.5	6.3
2025-01-21 06:32:23.658130	46.7	54.7	-61.5	5.4
2025-01-21 06:32:24.807069	47.1	55.0	-58.4	0.0
2025-01-21 06:32:25.956009	47.6	55.4	-60.5	4.4
2025-01-21 06:32:27.100960	48.0	55.8	-61.0	5.1
2025-01-21 06:32:28.243916	48.5	56.1	-62.6	8.3
2025-01-21 06:32:29.388867	49.0	56.5	-59.7	1.5
2025-01-21 06:32:30.531823	49.5	56.9	-61.3	7.0
2025-01-21 06:32:31.676774	50.0	57.2	-61.9	3.5
2025-01-21 06:32:32.821725	50.5	57.6	-61.3	5.6
2025-01-21 06:32:33.965678	51.0	58.0	-62.2	6.6
2025-01-21 06:32:35.109632	51.6	58.3	-61.1	4.9
2025-01-21 06:32:36.252589	52.1	58.7	-62.2	5.8
2025-01-21 06:32:37.395545	52.7	59.0	-61.8	5.1
2025-01-21 06:32:38.538501	53.3	59.4	-59.7	0.8
2025-01-21 06:32:39.681457	53.9	59.8	-62.5	5.1
2025-01-21 06:32:40.826407	54.5	60.1	-61.4	3.3
2025-01-21 06:32:41.970361	55.2	60.5	-62.4	1.9
2025-01-21 06:32:43.114315	55.8	60.8	-62.1	3.3
2025-01-21 06:32:44.261261	56.5	61.2	-60.6	3.7
2025-01-21 06:32:45.403219	57.2	61.6	-61.6	8.4
2025-01-21 06:32:46.547679	57.9	61.9	-62.1	8.5
2025-01-21 06:32:47.690635	58.7	62.3	-62.1	8.9
2025-01-21 06:32:48.843565	59.4	62.6	-62.5	9.2
2025-01-21 06:32:49.987518	60.2	63.0	-62.1	8.9
2025-01-21 06:32:51.130475	61.0	63.3	-58.5	3.4
2025-01-21 06:32:52.279415	61.9	63.7	-58.1	0.5
2025-01-21 06:32:53.424365	62.7	64.0	-57.8	1.5
2025-01-21 06:32:54.567342	63.6	64.3	-57.5	2.4
2025-01-21 06:32:55.711295	64.5	64.7	-58.8	4.1
2025-01-21 06:32:56.854252	65.4	65.0	-56.1	2.8
2025-01-21 06:32:57.998229	66.4	65.3	-60.4	7.2
2025-01-21 06:32:59.142182	67.4	65.6	-62.4	12.1
2025-01-21 06:33:00.284141	68.4	65.9	-60.7	7.6
2025-01-21 06:33:01.427098	69.4	66.2	-61.7	9.9
2025-01-21 06:33:02.571050	70.5	66.5	-62.1	11.3
2025-01-21 06:33:03.714006	71.6	66.8	-61.7	10.0
2025-01-21 06:33:04.855966	72.8	67.1	-60.1	10.1
2025-01-21 06:33:06.001914	73.9	67.4	-59.0	2.7
2025-01-21 06:33:07.144870	75.1	67.7	-58.9	1.3
2025-01-21 06:33:08.288824	76.4	67.9	-61.6	8.8
2025-01-21 06:33:09.433775	77.6	68.2	-58.5	0.0
2025-01-21 06:33:10.578725	78.9	68.4	-60.9	9.7
2025-01-21 06:33:11.728173	80.2	68.6	-61.5	9.1
2025-01-21 06:33:12.872126	81.6	68.9	-59.0	7.4
2025-01-21 06:33:14.018073	83.0	69.1	-62.3	10.8
2025-01-21 06:33:15.161030	84.4	69.3	-61.1	7.9
2025-01-21 06:33:16.304984	85.8	69.5	-61.3	8.3
2025-01-21 06:33:17.449934	87.3	69.7	-61.2	7.0
2025-01-21 06:33:18.599872	88.8	69.8	-61.5	9.4
2025-01-21 06:33:19.743825	90.3	70.0	-61.4	9.3
2025-01-21 06:33:20.887779	91.9	70.1	-62.8	10.3
2025-01-21 06:33:22.031249	93.5	70.2	-62.3	6.3
2025-01-21 06:33:23.175202	95.1	70.4	-63.2	6.1
2025-01-21 06:33:24.321678	96.7	70.5	-62.9	9.4
2025-01-21 06:33:25.465631	98.3	70.5	-61.9	6.9
2025-01-21 06:33:26.609094	99.9	70.6	-62.2	8.6
2025-01-21 06:33:27.753049	101.6	70.7	-62.3	7.2
2025-01-21 06:33:28.900991	103.2	70.7	-62.1	7.4
2025-01-21 06:33:30.048934	104.9	70.7	-61.9	6.2
2025-01-21 06:33:31.193885	106.6	70.7	-61.9	8.5
2025-01-21 06:33:32.336841	108.3	70.7	-63.2	8.6
2025-01-21 06:33:33.482790	109.9	70.7	-63.0	8.2
2025-01-21 06:33:34.627740	111.6	70.7	-63.6	10.7
2025-01-21 06:33:35.774686	113.3	70.6	-61.9	10.1
2025-01-21 06:33:36.919636	114.9	70.6	-61.2	5.9
2025-01-21 06:33:38.066582	116.5	70.5	-61.3	4.6
2025-01-21 06:33:39.213528	118.2	70.4	-59.5	3.2
2025-01-21 06:33:40.357481	119.7	70.3	-60.1	8.5
2025-01-21 06:33:41.507438	121.3	70.1	-58.0	1.7
2025-01-21 06:33:42.654383	122.9	70.0	-59.0	2.4
2025-01-21 06:33:43.805340	124.4	69.9	-61.1	7.9
2025-01-21 06:33:44.954282	125.9	69.7	-61.5	7.8
2025-01-21 06:33:46.109205	127.4	69.5	-60.0	7.0
2025-01-21 06:33:47.257147	128.9	69.3	-61.6	10.0
2025-01-21 06:33:48.404094	130.3	69.1	-61.0	7.4
2025-01-21 06:33:49.552036	131.7	68.9	-58.8	3.7
2025-01-21 06:33:50.699980	133.1	68.7	-62.0	8.4
2025-01-21 06:33:51.844930	134.4	68.4	-62.4	8.1
2025-01-21 06:33:52.996882	135.7	68.2	-62.0	9.9
2025-01-21 06:33:54.144825	137.0	68.0	-62.0	9.7
2025-01-21 06:33:55.297754	138.2	67.7	-61.7	6.4
2025-01-21 06:33:56.446694	139.5	67.4	-62.6	12.0
2025-01-21 06:33:57.596632	140.6	67.1	-63.1	10.9
2025-01-21 06:33:58.747570	141.8	66.9	-63.2	9.4
2025-01-21 06:33:59.893515	142.9	66.6	-62.4	8.1
2025-01-21 06:34:01.043470	144.0	66.3	-63.1	10.6
2025-01-21 06:34:02.192411	145.0	66.0	-62.8	10.9
2025-01-21 06:34:03.341350	146.1	65.6	-62.1	7.7
2025-01-21 06:34:04.488296	147.1	65.3	-62.7	8.0
2025-01-21 06:34:05.637236	148.0	65.0	-62.9	8.3
2025-01-21 06:34:06.786177	149.0	64.7	-63.6	10.1
2025-01-21 06:34:07.934119	149.9	64.3	-61.2	6.0
2025-01-21 06:34:09.082062	150.8	64.0	-62.9	8.9
2025-01-21 06:34:10.230512	151.6	63.7	-62.0	7.4
2025-01-21 06:34:11.382446	152.5	63.3	-62.9	8.7
2025-01-21 06:34:12.534378	153.3	63.0	-61.6	8.1
2025-01-21 06:34:13.683338	154.1	62.6	-62.9	8.4
2025-01-21 06:34:14.836267	154.9	62.3	-63.2	7.4
2025-01-21 06:34:15.989196	155.6	61.9	-64.9	9.3
2025-01-21 06:34:17.139133	156.3	61.6	-63.4	7.2
2025-01-21 06:34:18.286079	157.0	61.2	-64.7	7.7
2025-01-21 06:34:19.435019	157.7	60.8	-65.5	7.9
2025-01-21 06:34:20.585962	158.4	60.5	-63.8	5.8
2025-01-21 06:34:21.735404	159.0	60.1	-65.3	8.3
2025-01-21 06:34:22.884344	159.7	59.7	-63.6	3.4
2025-01-21 06:34:24.038272	160.3	59.4	-65.7	7.8
2025-01-21 06:34:25.190204	160.9	59.0	-67.3	9.5
2025-01-21 06:34:26.341138	161.5	58.6	-65.6	7.4
2025-01-21 06:34:27.491076	162.0	58.3	-65.4	6.6
2025-01-21 06:34:28.643008	162.6	57.9	-64.0	5.1
2025-01-21 06:34:29.792967	163.1	57.5	-65.0	5.0
2025-01-21 06:34:30.947891	163.6	57.2	-66.3	8.4
2025-01-21 06:34:32.096850	164.1	56.8	-66.7	7.1
2025-01-21 06:34:33.249292	164.6	56.4	-67.0	8.2
2025-01-21 06:34:34.399230	165.1	56.1	-65.8	6.1
2025-01-21 06:34:35.549167	165.6	55.7	-66.8	9.0
2025-01-21 06:34:36.698614	166.0	55.3	-66.0	7.9
2025-01-21 06:34:37.849549	166.5	55.0	-66.5	8.6
2025-01-21 06:34:39.002479	166.9	54.6	-66.2	7.4
2025-01-21 06:34:40.157404	167.3	54.2	-66.4	8.3
2025-01-21 06:34:41.308338	167.8	53.9	-66.9	9.9
2025-01-21 06:34:42.459273	168.2	53.5	-65.1	6.9
2025-01-21 06:34:43.609211	168.6	53.2	-66.6	11.0
2025-01-21 06:34:44.760145	168.9	52.8	-66.4	11.3
2025-01-21 06:34:45.911081	169.3	52.4	-66.2	11.3
2025-01-21 06:34:47.064519	169.7	52.1	-66.1	12.0
2025-01-21 06:34:48.216960	170.0	51.7	-66.8	12.4
2025-01-21 06:34:49.365901	170.4	51.4	-64.8	10.4
2025-01-21 06:34:50.523329	170.7	51.0	-64.2	8.7
2025-01-21 06:34:51.673266	171.1	50.7	-64.6	6.8
2025-01-21 06:34:52.827193	171.4	50.3	-64.0	9.7
2025-01-21 06:34:53.979125	171.7	50.0	-65.2	10.3
2025-01-21 06:34:55.132055	172.0	49.6	-64.5	10.5
2025-01-21 06:34:56.283987	172.3	49.3	-63.3	8.0
2025-01-21 06:34:57.437424	172.6	49.0	-66.1	13.9
2025-01-21 06:34:58.598841	172.9	48.6	-66.2	13.5
2025-01-21 06:34:59.751770	173.2	48.3	-65.0	11.1
2025-01-21 06:35:00.905209	173.5	47.9	-65.3	11.3
2025-01-21 06:35:02.056143	173.8	47.6	-65.4	12.3
2025-01-21 06:35:03.206081	174.0	47.3	-65.7	11.0
2025-01-21 06:35:04.363000	174.3	46.9	-65.9	11.1
2025-01-21 06:35:05.512448	174.5	46.6	-66.2	12.9
2025-01-21 06:35:06.661388	174.8	46.3	-65.7	10.3
2025-01-21 06:35:07.808334	175.0	46.0	-65.3	11.1
2025-01-21 06:35:08.958271	175.3	45.6	-66.2	10.5
2025-01-21 06:35:10.116190	175.5	45.3	-65.6	8.5
2025-01-21 06:35:11.269117	175.8	45.0	-66.1	12.0
2025-01-21 06:35:12.417078	176.0	44.7	-65.8	9.5
2025-01-21 06:35:13.569011	176.2	44.4	-65.8	10.5
2025-01-21 06:35:14.717951	176.4	44.1	-66.6	11.2
2025-01-21 06:35:15.870880	176.6	43.7	-65.8	11.7
2025-01-21 06:35:17.023810	176.9	43.4	-66.1	10.5
2025-01-21 06:35:18.174745	177.1	43.1	-65.9	9.1
2025-01-21 06:35:19.326677	177.3	42.8	-66.4	9.5
2025-01-21 06:35:20.479607	177.5	42.5	-66.4	10.9
2025-01-21 06:35:21.630543	177.7	42.2	-66.9	10.3
2025-01-21 06:35:22.779482	177.9	41.9	-68.0	11.8
2025-01-21 06:35:23.928933	178.0	41.6	-66.9	10.4
2025-01-21 06:35:25.078871	178.2	41.3	-68.0	11.4
2025-01-21 06:35:26.229806	178.4	41.0	-68.0	10.9
2025-01-21 06:35:27.378747	178.6	40.8	-67.1	10.1
2025-01-21 06:35:28.529681	178.8	40.5	-67.1	8.4
2025-01-21 06:35:29.679619	178.9	40.2	-67.4	8.4
2025-01-21 06:35:30.826564	179.1	39.9	-67.2	9.2
2025-01-21 06:35:31.973510	179.3	39.6	-67.4	9.7
2025-01-21 06:35:33.121453	179.4	39.3	-67.8	10.3
2025-01-21 06:35:34.268398	179.6	39.1	-67.5	10.0
2025-01-21 06:35:35.420357	179.8	38.8	-67.2	11.1
2025-01-21 06:35:36.566305	179.9	38.5	-66.4	8.0
2025-01-21 06:35:37.712253	180.1	38.2	-67.2	11.5
2025-01-21 06:35:38.859709	180.2	38.0	-67.5	12.2
2025-01-21 06:35:40.005657	180.4	37.7	-67.2	11.7
2025-01-21 06:35:41.151625	180.5	37.4	-67.5	12.3
2025-01-21 06:35:42.300566	180.7	37.2	-67.4	13.1
2025-01-21 06:35:43.444519	180.8	36.9	-67.4	13.5
2025-01-21 06:35:44.590979	180.9	36.7	-67.3	13.2
2025-01-21 06:35:45.738921	181.1	36.4	-67.1	13.1
2025-01-21 06:35:46.889369	181.2	36.1	-66.9	12.6
2025-01-21 06:35:48.034317	181.4	35.9	-67.2	13.2
2025-01-21 06:35:49.180265	181.5	35.6	-67.4	14.0
2025-01-21 06:35:50.325725	181.6	35.4	-66.7	13.2
2025-01-21 06:35:51.469698	181.7	35.1	-65.8	10.7
2025-01-21 06:35:52.613652	181.9	34.9	-67.0	13.9
2025-01-21 06:35:53.757624	182.0	34.7	-67.0	14.2
2025-01-21 06:35:54.905566	182.1	34.4	-66.0	11.3
2025-01-21 06:35:56.051515	182.2	34.2	-66.9	14.2
2025-01-21 06:35:57.194472	182.4	33.9	-67.3	12.9
2025-01-21 06:35:58.338424	182.5	33.7	-67.0	14.4
2025-01-21 06:35:59.481888	182.6	33.5	-67.0	14.5
2025-01-21 06:36:00.623848	182.7	33.2	-66.9	14.9
2025-01-21 06:36:01.769794	182.8	33.0	-67.0	14.8
2025-01-21 06:36:02.915742	182.9	32.8	-66.9	14.0
2025-01-21 06:36:04.065681	183.0	32.5	-66.9	14.1
2025-01-21 06:36:05.211140	183.1	32.3	-66.6	12.0
2025-01-21 06:36:06.357595	183.2	32.1	-66.9	14.1
2025-01-21 06:36:07.505565	183.4	31.8	-67.2	14.2
2025-01-21 06:36:08.648522	183.5	31.6	-67.3	14.3
2025-01-21 06:36:09.790989	183.6	31.4	-67.5	13.7
2025-01-21 06:36:10.935940	183.7	31.2	-67.5	14.3
2025-01-21 06:36:12.079406	183.8	31.0	-67.4	14.0
2025-01-21 06:36:13.221365	183.9	30.7	-67.7	13.5
2025-01-21 06:36:14.367313	184.0	30.5	-67.8	14.3
2025-01-21 06:36:15.514259	184.1	30.3	-67.8	13.1
2025-01-21 06:36:16.659210	184.1	30.1	-67.3	12.8
2025-01-21 06:36:17.803163	184.2	29.9	-67.7	8.3
#Closed at: 2025-01-21 06:30:39.234077