passes_logs/2025/01/21/Planum_Noyabrsk/Planum_Noyabrsk__20250121_060648_NOAA_19_rec.log

#Pass ID: 20250121_060648_NOAA 19
#Satellite: NOAA 19
#Configuration: NOAA 19
#Start time: 2025-01-21 06:06:53.206653

#LorettStation: 1.0.0 05.05.2024
#Station: Planum_Noyabrsk
#Location: 75.446886 lon 63.207202 lat
#TLE: 1 33591U 09005A   25020.45551859  .00000414  00000+0  24490-3 0  9996
#TLE: 2 33591  99.0187  84.2599 0014292  42.8290 317.3992 14.13264268822314

#Time	Az	El	Level	SNR
2025-01-21 06:07:00.015795	12.9	31.3	-55.6	0.0
2025-01-21 06:07:01.175706	12.8	31.5	-55.2	0.0
2025-01-21 06:07:02.330631	12.8	31.7	-55.8	0.0
2025-01-21 06:07:03.482563	12.7	31.9	-55.5	0.0
2025-01-21 06:07:04.639482	12.6	32.2	-56.6	0.0
2025-01-21 06:07:05.792412	12.5	32.4	-56.5	0.0
2025-01-21 06:07:06.945342	12.4	32.6	-57.6	0.0
2025-01-21 06:07:08.102261	12.3	32.9	-58.5	0.0
2025-01-21 06:07:09.266671	12.2	33.1	-56.7	0.0
2025-01-21 06:07:10.415611	12.1	33.3	-56.5	0.0
2025-01-21 06:07:11.569538	12.0	33.6	-57.6	0.0
2025-01-21 06:07:12.723465	11.9	33.8	-58.8	0.0
2025-01-21 06:07:13.876395	11.8	34.0	-58.4	0.0
2025-01-21 06:07:15.061240	11.7	34.3	-57.3	0.0
2025-01-21 06:07:16.216163	11.6	34.5	-57.4	0.0
2025-01-21 06:07:17.366103	11.4	34.8	-60.2	1.7
2025-01-21 06:07:18.521534	11.3	35.0	-60.1	0.0
2025-01-21 06:07:19.672468	11.2	35.3	-59.6	0.0
2025-01-21 06:07:20.825398	11.1	35.5	-58.5	1.1
2025-01-21 06:07:21.980322	11.0	35.8	-58.8	1.6
2025-01-21 06:07:23.141231	10.9	36.0	-61.1	7.8
2025-01-21 06:07:24.294160	10.7	36.3	-59.3	2.8
2025-01-21 06:07:25.444098	10.6	36.5	-58.9	3.1
2025-01-21 06:07:26.601017	10.5	36.8	-60.1	1.6
2025-01-21 06:07:27.753947	10.4	37.1	-60.6	3.8
2025-01-21 06:07:28.909868	10.2	37.3	-61.1	3.8
2025-01-21 06:07:30.061801	10.1	37.6	-60.1	2.8
2025-01-21 06:07:31.214730	10.0	37.9	-60.3	3.8
2025-01-21 06:07:32.365665	9.8	38.1	-61.8	6.5
2025-01-21 06:07:33.539051	9.7	38.4	-60.8	3.5
2025-01-21 06:07:34.693976	9.5	38.7	-61.8	5.2
2025-01-21 06:07:35.845908	9.4	38.9	-61.0	6.6
2025-01-21 06:07:36.995845	9.3	39.2	-61.1	5.1
2025-01-21 06:07:38.145294	9.1	39.5	-61.9	7.8
2025-01-21 06:07:39.293236	9.0	39.8	-61.8	5.4
2025-01-21 06:07:40.443174	8.8	40.1	-61.5	6.0
2025-01-21 06:07:41.590119	8.6	40.3	-61.4	6.8
2025-01-21 06:07:42.738062	8.5	40.6	-62.2	8.6
2025-01-21 06:07:43.888001	8.3	40.9	-62.1	8.0
2025-01-21 06:07:45.034945	8.2	41.2	-62.7	7.8
2025-01-21 06:07:46.182889	8.0	41.5	-63.3	10.6
2025-01-21 06:07:47.333824	7.8	41.8	-62.7	7.2
2025-01-21 06:07:48.478774	7.7	42.1	-62.9	10.4
2025-01-21 06:07:49.631704	7.5	42.4	-62.2	8.7
2025-01-21 06:07:50.777652	7.3	42.7	-63.4	8.3
2025-01-21 06:07:51.923600	7.1	43.0	-63.1	8.5
2025-01-21 06:07:53.069565	6.9	43.3	-63.4	8.9
2025-01-21 06:07:54.214516	6.7	43.6	-63.3	8.7
2025-01-21 06:07:55.358470	6.5	43.9	-63.7	9.6
2025-01-21 06:07:56.512398	6.3	44.2	-64.3	9.3
2025-01-21 06:07:57.656859	6.1	44.5	-63.4	7.7
2025-01-21 06:07:58.802316	5.9	44.8	-64.6	9.1
2025-01-21 06:07:59.946269	5.7	45.2	-63.7	10.5
2025-01-21 06:08:01.092219	5.5	45.5	-63.6	9.9
2025-01-21 06:08:02.244151	5.3	45.8	-63.6	8.8
2025-01-21 06:08:03.391096	5.1	46.1	-63.5	7.8
2025-01-21 06:08:04.538041	4.8	46.4	-62.8	10.1
2025-01-21 06:08:05.682992	4.6	46.8	-62.4	7.8
2025-01-21 06:08:06.827943	4.3	47.1	-63.8	11.7
2025-01-21 06:08:07.973891	4.1	47.4	-63.9	8.6
2025-01-21 06:08:09.120836	3.9	47.8	-63.2	9.6
2025-01-21 06:08:10.264302	3.6	48.1	-64.4	11.9
2025-01-21 06:08:11.431192	3.3	48.4	-62.5	8.9
2025-01-21 06:08:12.577140	3.1	48.8	-62.1	12.7
2025-01-21 06:08:13.722091	2.8	49.1	-63.0	8.1
2025-01-21 06:08:14.875040	2.5	49.5	-61.4	7.0
2025-01-21 06:08:16.017996	2.2	49.8	-61.6	5.8
2025-01-21 06:08:17.161949	1.9	50.1	-60.7	7.8
2025-01-21 06:08:18.305903	1.6	50.5	-62.1	9.4
2025-01-21 06:08:19.450854	1.3	50.8	-60.3	7.1
2025-01-21 06:08:20.600791	1.0	51.2	-61.1	8.0
2025-01-21 06:08:21.756713	0.7	51.5	-61.3	8.7
2025-01-21 06:08:22.899669	0.4	51.9	-61.6	7.6
2025-01-21 06:08:24.048611	0.0	52.2	-61.9	7.9
2025-01-21 06:08:25.196553	359.7	52.6	-61.1	6.7
2025-01-21 06:08:26.342501	359.3	53.0	-60.7	4.3
2025-01-21 06:08:27.486961	359.0	53.3	-61.3	5.6
2025-01-21 06:08:28.628919	358.6	53.7	-59.7	5.6
2025-01-21 06:08:29.771877	358.2	54.0	-59.5	5.3
2025-01-21 06:08:30.953240	357.8	54.4	-60.9	4.6
2025-01-21 06:08:32.099189	357.4	54.8	-60.2	5.6
2025-01-21 06:08:33.242145	357.0	55.1	-60.0	3.5
2025-01-21 06:08:34.386098	356.6	55.5	-61.9	6.6
2025-01-21 06:08:35.530559	356.2	55.9	-61.2	3.5
2025-01-21 06:08:36.675510	355.7	56.2	-62.1	5.7
2025-01-21 06:08:37.820460	355.2	56.6	-58.0	0.0
2025-01-21 06:08:38.963416	354.8	57.0	-60.9	2.3
2025-01-21 06:08:40.108368	354.3	57.4	-58.7	2.8
2025-01-21 06:08:41.255314	353.8	57.7	-59.7	3.3
2025-01-21 06:08:42.411235	353.3	58.1	-59.3	0.0
2025-01-21 06:08:43.554700	352.8	58.5	-59.5	0.0
2025-01-21 06:08:44.698653	352.2	58.8	-61.2	2.1
2025-01-21 06:08:45.845109	351.7	59.2	-58.7	1.3
2025-01-21 06:08:46.988066	351.1	59.6	-60.5	2.2
2025-01-21 06:08:48.132019	350.5	60.0	-60.3	3.6
2025-01-21 06:08:49.276970	349.9	60.3	-59.1	0.0
2025-01-21 06:08:50.420923	349.3	60.7	-57.4	0.0
2025-01-21 06:08:51.572857	348.6	61.1	-61.6	3.0
2025-01-21 06:08:52.717806	348.0	61.4	-59.9	2.9
2025-01-21 06:08:53.867744	347.3	61.8	-58.2	0.0
2025-01-21 06:08:55.015687	346.6	62.2	-61.3	5.4
2025-01-21 06:08:56.158643	345.9	62.5	-57.1	0.0
2025-01-21 06:08:57.302596	345.1	62.9	-56.7	0.0
2025-01-21 06:08:58.445553	344.4	63.2	-55.9	0.0
2025-01-21 06:08:59.590504	343.6	63.6	-57.1	0.0
2025-01-21 06:09:00.736452	342.8	63.9	-57.2	0.0
2025-01-21 06:09:01.879408	341.9	64.3	-57.3	0.0
2025-01-21 06:09:03.029345	341.1	64.6	-56.9	0.0
2025-01-21 06:09:04.173299	340.2	65.0	-57.3	0.0
2025-01-21 06:09:05.316255	339.3	65.3	-57.7	0.0
2025-01-21 06:09:06.475169	338.3	65.6	-57.4	0.0
2025-01-21 06:09:07.619122	337.3	66.0	-58.3	0.0
2025-01-21 06:09:08.763587	336.3	66.3	-58.6	0.0
2025-01-21 06:09:09.908538	335.3	66.6	-57.4	0.0
2025-01-21 06:09:11.052002	334.2	66.9	-57.7	0.0
2025-01-21 06:09:12.196466	333.1	67.2	-58.7	0.0
2025-01-21 06:09:13.340418	332.0	67.5	-57.9	0.0
2025-01-21 06:09:14.487364	330.8	67.8	-59.3	0.0
2025-01-21 06:09:15.664740	329.6	68.1	-58.7	0.0
2025-01-21 06:09:16.806698	328.4	68.4	-60.8	1.8
2025-01-21 06:09:17.952646	327.1	68.6	-58.6	0.0
2025-01-21 06:09:19.096600	325.8	68.9	-61.5	2.2
2025-01-21 06:09:20.238068	324.5	69.1	-61.6	0.0
2025-01-21 06:09:21.384016	323.1	69.4	-59.3	0.0
2025-01-21 06:09:22.527481	321.7	69.6	-59.2	0.0
2025-01-21 06:09:23.670435	320.3	69.8	-60.0	0.0
2025-01-21 06:09:24.813391	318.9	70.0	-62.4	4.5
2025-01-21 06:09:25.955350	317.4	70.2	-63.6	3.3
2025-01-21 06:09:27.101299	315.8	70.4	-60.1	0.0
2025-01-21 06:09:28.245252	314.3	70.5	-61.3	0.0
2025-01-21 06:09:29.398692	312.7	70.7	-63.0	2.6
2025-01-21 06:09:30.542643	311.1	70.8	-61.0	2.2
2025-01-21 06:09:31.684602	309.5	70.9	-60.2	0.0
2025-01-21 06:09:32.831547	307.8	71.1	-60.9	0.0
2025-01-21 06:09:33.975500	306.2	71.1	-60.0	0.0
2025-01-21 06:09:35.118456	304.5	71.2	-60.0	0.0
2025-01-21 06:09:36.263407	302.8	71.3	-59.4	0.0
2025-01-21 06:09:37.413345	301.1	71.3	-62.5	3.3
2025-01-21 06:09:38.558295	299.4	71.4	-59.9	0.0
2025-01-21 06:09:39.724698	297.6	71.4	-61.1	1.4
2025-01-21 06:09:40.868651	295.9	71.4	-60.2	0.5
2025-01-21 06:09:42.013604	294.2	71.4	-60.9	1.1
2025-01-21 06:09:43.163540	292.4	71.3	-60.4	2.8
2025-01-21 06:09:44.307494	290.7	71.3	-60.4	3.5
2025-01-21 06:09:45.452444	289.0	71.2	-60.7	2.5
2025-01-21 06:09:46.596398	287.4	71.1	-59.9	2.0
2025-01-21 06:09:47.741349	285.7	71.1	-60.9	5.0
2025-01-21 06:09:48.915222	284.0	70.9	-60.2	4.9
2025-01-21 06:09:50.059177	282.4	70.8	-61.8	5.2
2025-01-21 06:09:51.204127	280.8	70.7	-61.5	6.7
2025-01-21 06:09:52.351072	279.2	70.5	-61.5	4.0
2025-01-21 06:09:53.496532	277.6	70.4	-61.3	3.2
2025-01-21 06:09:54.640485	276.1	70.2	-61.5	4.3
2025-01-21 06:09:55.786433	274.6	70.0	-61.7	6.2
2025-01-21 06:09:56.933379	273.2	69.8	-60.3	2.8
2025-01-21 06:09:58.104261	271.7	69.6	-60.7	2.5
2025-01-21 06:09:59.248214	270.3	69.3	-60.4	2.4
2025-01-21 06:10:00.395160	269.0	69.1	-61.4	4.3
2025-01-21 06:10:01.544100	267.6	68.9	-59.6	0.5
2025-01-21 06:10:02.692043	266.3	68.6	-60.6	1.0
2025-01-21 06:10:03.837991	265.1	68.3	-61.1	1.0
2025-01-21 06:10:04.990920	263.8	68.1	-59.7	0.6
2025-01-21 06:10:06.142854	262.6	67.8	-58.8	0.0
2025-01-21 06:10:07.289310	261.5	67.5	-62.5	3.6
2025-01-21 06:10:08.437252	260.3	67.2	-59.2	0.7
2025-01-21 06:10:09.586192	259.2	66.9	-62.2	6.2
2025-01-21 06:10:10.732647	258.2	66.6	-61.9	5.6
2025-01-21 06:10:11.882585	257.1	66.3	-59.6	1.7
2025-01-21 06:10:13.031037	256.1	65.9	-60.7	0.0
2025-01-21 06:10:14.183966	255.2	65.6	-63.2	5.3
2025-01-21 06:10:15.335411	254.2	65.3	-61.8	7.7
2025-01-21 06:10:16.482356	253.3	64.9	-62.3	8.2
2025-01-21 06:10:17.631296	252.4	64.6	-63.1	8.8
2025-01-21 06:10:18.782232	251.5	64.2	-60.9	0.6
2025-01-21 06:10:19.930175	250.7	63.9	-64.5	10.0
2025-01-21 06:10:21.081110	249.9	63.5	-60.8	3.6
2025-01-21 06:10:22.228565	249.1	63.2	-61.4	6.1
2025-01-21 06:10:23.379498	248.3	62.8	-62.2	7.0
2025-01-21 06:10:24.536418	247.6	62.5	-61.7	5.7
2025-01-21 06:10:25.683871	246.9	62.1	-62.1	7.4
2025-01-21 06:10:26.835802	246.2	61.7	-62.3	6.6
2025-01-21 06:10:27.992722	245.5	61.4	-62.3	6.7
2025-01-21 06:10:29.140665	244.8	61.0	-64.9	10.3
2025-01-21 06:10:30.288609	244.2	60.6	-63.1	8.9
2025-01-21 06:10:31.455500	243.5	60.3	-63.4	9.0
2025-01-21 06:10:32.602448	242.9	59.9	-64.1	11.4
2025-01-21 06:10:33.754888	242.4	59.5	-63.2	8.1
2025-01-21 06:10:34.913801	241.8	59.1	-63.4	9.4
2025-01-21 06:10:36.069723	241.2	58.8	-63.6	8.1
2025-01-21 06:10:37.218663	240.7	58.4	-63.3	7.3
2025-01-21 06:10:38.369598	240.2	58.0	-63.3	8.2
2025-01-21 06:10:39.519536	239.7	57.7	-63.8	9.7
2025-01-21 06:10:40.672465	239.2	57.3	-63.2	8.4
2025-01-21 06:10:41.826393	238.7	56.9	-63.2	8.8
2025-01-21 06:10:42.977327	238.2	56.5	-63.1	6.7
2025-01-21 06:10:44.127285	237.7	56.2	-64.0	9.7
2025-01-21 06:10:45.296173	237.3	55.8	-63.5	8.5
2025-01-21 06:10:46.449612	236.9	55.4	-63.9	8.9
2025-01-21 06:10:47.600547	236.4	55.1	-64.0	10.5
2025-01-21 06:10:48.753476	236.0	54.7	-64.1	9.1
2025-01-21 06:10:49.906916	235.6	54.3	-64.4	10.7
2025-01-21 06:10:51.129660	235.2	53.9	-64.1	9.9
2025-01-21 06:10:52.280596	234.8	53.6	-64.1	10.9
2025-01-21 06:10:53.458458	234.5	53.2	-63.8	8.2
2025-01-21 06:10:54.613382	234.1	52.8	-64.4	11.3
2025-01-21 06:10:55.768306	233.7	52.5	-64.8	11.9
2025-01-21 06:10:56.921237	233.4	52.1	-64.9	11.7
2025-01-21 06:10:58.073168	233.1	51.8	-64.7	11.1
2025-01-21 06:10:59.223658	232.7	51.4	-64.8	11.9
2025-01-21 06:11:00.383569	232.4	51.0	-65.1	12.2
2025-01-21 06:11:01.538009	232.1	50.7	-64.9	12.9
2025-01-21 06:11:02.689942	231.8	50.3	-65.3	12.8
2025-01-21 06:11:03.841873	231.5	50.0	-65.3	13.5
2025-01-21 06:11:04.993807	231.2	49.7	-65.7	13.3
2025-01-21 06:11:06.146736	230.9	49.3	-65.2	12.3
2025-01-21 06:11:07.296673	230.6	49.0	-66.3	13.3
2025-01-21 06:11:08.518420	230.4	48.6	-66.1	13.4
2025-01-21 06:11:09.669355	230.1	48.3	-65.7	12.4
2025-01-21 06:11:10.822284	229.8	47.9	-66.6	14.0
2025-01-21 06:11:11.973219	229.6	47.6	-66.2	13.2
2025-01-21 06:11:13.153586	229.3	47.3	-67.3	13.6
2025-01-21 06:11:14.316489	229.1	46.9	-67.6	13.4
2025-01-21 06:11:15.466426	228.8	46.6	-67.4	13.4
2025-01-21 06:11:16.621350	228.6	46.3	-67.3	13.1
2025-01-21 06:11:17.772286	228.4	45.9	-67.5	14.0
2025-01-21 06:11:18.978075	228.1	45.6	-67.4	13.2
2025-01-21 06:11:20.132512	227.9	45.3	-67.1	13.8
2025-01-21 06:11:21.283445	227.7	45.0	-67.4	13.0
2025-01-21 06:11:22.444354	227.5	44.6	-67.8	14.0
2025-01-21 06:11:23.615236	227.3	44.3	-67.4	12.9
2025-01-21 06:11:24.767168	227.1	44.0	-67.4	14.2
2025-01-21 06:11:25.919100	226.9	43.7	-67.6	14.3
2025-01-21 06:11:27.074024	226.7	43.4	-67.4	13.4
2025-01-21 06:11:28.247410	226.5	43.1	-67.1	13.3
2025-01-21 06:11:29.399341	226.3	42.8	-66.9	13.0
2025-01-21 06:11:30.555265	226.1	42.5	-67.1	13.5
2025-01-21 06:11:31.708193	225.9	42.2	-66.8	12.9
2025-01-21 06:11:32.895032	225.8	41.9	-66.6	12.5
2025-01-21 06:11:34.080874	225.6	41.6	-67.0	13.4
2025-01-21 06:11:35.232807	225.4	41.3	-67.3	15.3
2025-01-21 06:11:36.384739	225.3	41.0	-66.5	12.8
2025-01-21 06:11:37.545647	225.1	40.7	-66.9	12.2
2025-01-21 06:11:38.737474	224.9	40.4	-66.8	14.0
2025-01-21 06:11:39.895897	224.8	40.1	-66.7	13.7
2025-01-21 06:11:41.048827	224.6	39.8	-66.6	12.6
2025-01-21 06:11:42.201756	224.5	39.5	-66.2	12.7
2025-01-21 06:11:43.356684	224.3	39.3	-66.7	13.3
2025-01-21 06:11:44.523573	224.2	39.0	-66.7	12.2
2025-01-21 06:11:45.677011	224.0	38.7	-66.9	13.1
2025-01-21 06:11:46.832933	223.9	38.4	-66.3	11.6
2025-01-21 06:11:47.985862	223.7	38.2	-65.7	10.9
2025-01-21 06:11:49.173699	223.6	37.9	-66.2	11.2
2025-01-21 06:11:50.326139	223.5	37.6	-65.9	10.8
2025-01-21 06:11:51.479069	223.3	37.4	-65.9	10.3
2025-01-21 06:11:52.634991	223.2	37.1	-66.2	11.1
2025-01-21 06:11:53.797894	223.1	36.8	-66.5	10.9
2025-01-21 06:11:54.953816	222.9	36.6	-65.9	10.4
2025-01-21 06:11:56.106745	222.8	36.3	-66.5	11.1
2025-01-21 06:11:57.275632	222.7	36.1	-66.3	11.0
2025-01-21 06:11:58.461982	222.6	35.8	-66.2	9.6
2025-01-21 06:11:59.615932	222.4	35.5	-66.1	11.2
2025-01-21 06:12:00.768373	222.3	35.3	-65.7	9.5
2025-01-21 06:12:01.930281	222.2	35.0	-66.0	9.9
2025-01-21 06:12:03.101161	222.1	34.8	-65.8	9.8
2025-01-21 06:12:04.256084	222.0	34.5	-65.3	8.8
2025-01-21 06:12:05.411008	221.9	34.3	-65.6	9.3
2025-01-21 06:12:06.564935	221.8	34.1	-65.4	8.8
2025-01-21 06:12:07.737811	221.7	33.8	-65.5	9.7
2025-01-21 06:12:08.891740	221.6	33.6	-65.4	8.5
2025-01-21 06:12:10.044184	221.5	33.3	-65.7	8.5
2025-01-21 06:12:11.209081	221.4	33.1	-65.5	8.8
2025-01-21 06:12:12.388939	221.3	32.9	-65.9	8.9
2025-01-21 06:12:13.541869	221.2	32.6	-65.9	9.0
2025-01-21 06:12:14.693801	221.1	32.4	-66.3	9.9
2025-01-21 06:12:15.857212	221.0	32.2	-66.3	10.2
2025-01-21 06:12:17.039064	220.9	31.9	-66.2	10.6
2025-01-21 06:12:18.192991	220.8	31.7	-66.2	10.7
2025-01-21 06:12:19.344924	220.7	31.5	-65.6	10.3
2025-01-21 06:12:20.499359	220.6	31.3	-65.7	9.5
2025-01-21 06:12:21.650294	220.5	31.1	-65.4	9.8
2025-01-21 06:12:22.810205	220.4	30.8	-66.1	10.1
2025-01-21 06:12:23.964132	220.3	30.6	-65.7	9.9
2025-01-21 06:12:25.126038	220.2	30.4	-65.5	10.5
2025-01-21 06:12:26.277970	220.2	30.2	-65.9	11.0
2025-01-21 06:12:27.431897	220.1	30.0	-66.3	8.4
#Closed at: 2025-01-21 06:06:48.209231