passes_logs/2025/01/09/XPeterburg/XPeterburg__20250109_012212_AQUA_rec.log

#Pass ID: 20250109_012212_AQUA
#Satellite: AQUA
#Configuration: AQUA
#Start time: 2025-01-09 01:22:05

#Version: 1.5.20200625
#Station: XPeterburg
#Location: 30.318091 lon 59.932769 lat
#TLE: 1 27424U 02022A   24362.17797472  .00002820  00000+0  59018-3 0  9993
#TLE: 2 27424  98.3558 312.6762 0000863 121.1743 355.2277 14.60570844204873

#Time	Az	El	Level	Level2	SNR	BER	Gain	Gain2
2025-01-09 01:22:05.22	23.06	66.51	-33.5	-44.0	3.3	7667388	83	2022
2025-01-09 01:22:05.62	23.11	66.72	-33.4	-50.4	3.5	7570648	73	4213
2025-01-09 01:22:06.02	23.16	66.94	-33.4	-44.9	3.4	7661743	83	2243
2025-01-09 01:22:06.43	23.22	67.16	-33.5	-45.4	3.5	7566070	83	2370
2025-01-09 01:22:06.83	23.27	67.37	-33.5	-45.0	3.4	7616882	83	2245
2025-01-09 01:22:07.23	23.33	67.59	-33.4	-45.5	3.5	7584686	83	2389
2025-01-09 01:22:07.63	23.38	67.81	-33.5	-45.1	3.4	7610473	83	2267
2025-01-09 01:22:08.04	23.44	68.03	-33.5	-45.5	3.5	7566375	83	2394
2025-01-09 01:22:08.44	23.50	68.25	-33.5	-45.1	3.5	7598266	83	2292
2025-01-09 01:22:08.84	23.56	68.46	-33.4	-45.5	3.5	7559204	83	2390
2025-01-09 01:22:09.24	23.63	68.68	-33.5	-45.1	3.4	7601165	83	2290
2025-01-09 01:22:09.64	23.69	68.90	-33.4	-45.6	3.5	7513885	83	2411
2025-01-09 01:22:10.04	23.75	69.12	-33.5	-45.2	3.5	7611389	83	2305
2025-01-09 01:22:10.45	23.82	69.35	-33.5	-45.5	3.2	7601165	83	2393
2025-01-09 01:22:10.85	23.89	69.57	-33.5	-45.3	3.5	7600860	83	2333
2025-01-09 01:22:11.25	23.96	69.79	-33.5	-44.8	3.4	7650146	83	2214
2025-01-09 01:22:11.65	24.03	70.01	-33.5	-45.4	3.5	7594146	83	2351
2025-01-09 01:22:12.06	24.10	70.24	-33.5	-44.9	3.4	7605743	83	2227
2025-01-09 01:22:12.46	24.18	70.46	-33.5	-45.4	3.5	7584075	83	2360
2025-01-09 01:22:12.86	24.25	70.68	-33.5	-44.9	3.4	7628479	83	2232
2025-01-09 01:22:13.26	24.33	70.91	-33.5	-45.3	3.5	7562866	83	2349
2025-01-09 01:22:13.66	24.41	71.13	-33.5	-44.9	3.4	7636260	83	2221
2025-01-09 01:22:14.07	24.49	71.36	-33.4	-45.5	3.5	7580566	83	2384
2025-01-09 01:22:14.47	24.58	71.59	-33.5	-44.9	3.4	7617340	83	2233
2025-01-09 01:22:14.87	24.66	71.81	-33.4	-45.5	3.5	7531890	83	2388
2025-01-09 01:22:15.27	24.75	72.04	-33.4	-45.0	3.4	7625274	83	2247
2025-01-09 01:22:15.67	24.84	72.27	-33.4	-45.5	3.5	7559356	83	2396
2025-01-09 01:22:16.08	24.94	72.50	-33.4	-45.1	3.4	7627258	83	2276
2025-01-09 01:22:16.48	25.04	72.73	-33.5	-45.5	3.5	7570190	83	2395
2025-01-09 01:22:16.88	25.13	72.95	-33.5	-45.1	3.5	7607727	83	2288
2025-01-09 01:22:17.28	25.23	73.18	-33.4	-45.4	3.4	7554473	83	2370
2025-01-09 01:22:17.68	25.34	73.41	-33.5	-45.1	3.5	7583923	83	2284
2025-01-09 01:22:18.09	25.45	73.64	-33.5	-45.3	3.3	7553558	83	2343
2025-01-09 01:22:18.49	25.56	73.87	-33.4	-45.1	3.5	7547607	83	2280
2025-01-09 01:22:18.89	25.67	74.10	-33.5	-44.7	3.4	7625732	83	2189
2025-01-09 01:22:19.29	25.79	74.33	-33.5	-45.3	3.5	7580871	83	2334
2025-01-09 01:22:19.70	25.91	74.57	-33.5	-44.9	3.4	7627105	83	2219
2025-01-09 01:22:20.10	26.04	74.80	-33.5	-45.3	3.5	7568817	83	2334
2025-01-09 01:22:20.50	26.17	75.03	-33.5	-44.7	3.4	7622985	83	2183
2025-01-09 01:22:20.90	26.30	75.26	-33.4	-45.2	3.5	7576751	83	2325
2025-01-09 01:22:21.30	26.44	75.50	-33.4	-44.6	3.4	7613830	83	2157
2025-01-09 01:22:21.71	26.58	75.73	-33.4	-45.2	3.5	7550201	83	2323
2025-01-09 01:22:22.11	26.73	75.97	-33.4	-44.8	3.4	7623291	83	2213
2025-01-09 01:22:22.51	26.88	76.20	-33.4	-45.4	3.5	7590026	83	2359
2025-01-09 01:22:22.91	27.04	76.43	-33.5	-45.0	3.4	7642364	83	2252
2025-01-09 01:22:23.31	27.20	76.67	-33.5	-45.4	3.5	7573089	83	2375
2025-01-09 01:22:23.72	27.37	76.91	-33.4	-44.8	3.5	7608947	83	2208
2025-01-09 01:22:24.12	27.55	77.14	-33.4	-45.0	3.5	7572479	83	2262
2025-01-09 01:22:24.52	27.73	77.38	-33.4	-44.6	3.5	7620697	83	2156
2025-01-09 01:22:24.92	27.92	77.61	-33.4	-44.9	3.5	7562561	83	2250
2025-01-09 01:22:25.32	28.11	77.85	-33.4	-44.8	3.5	7597961	83	2217
2025-01-09 01:22:25.73	28.32	78.09	-33.4	-45.4	3.2	7557525	83	2356
2025-01-09 01:22:26.13	28.53	78.32	-33.5	-45.3	3.5	7618103	83	2327
2025-01-09 01:22:26.53	28.76	78.56	-33.4	-44.7	3.4	7640686	83	2197
2025-01-09 01:22:26.93	28.99	78.79	-33.5	-45.2	3.5	7572021	83	2320
2025-01-09 01:22:27.33	29.23	79.03	-33.4	-44.6	3.4	7626647	83	2161
2025-01-09 01:22:27.74	29.49	79.27	-33.4	-44.8	3.5	7568206	83	2223
2025-01-09 01:22:28.14	29.75	79.51	-33.4	-43.6	3.4	7620544	83	1948
2025-01-09 01:22:28.54	30.02	79.74	-33.2	-43.0	3.5	7518310	83	1837
2025-01-09 01:22:28.94	30.31	79.98	-33.1	-41.2	3.9	7465515	83	1514
2025-01-09 01:22:29.35	30.62	80.22	-33.0	-41.4	3.6	7506103	83	1560
2025-01-09 01:22:29.75	30.94	80.46	-33.0	-40.8	4.2	7440032	83	1460
2025-01-09 01:22:30.15	31.28	80.69	-33.2	-42.5	3.6	7536468	83	1740
2025-01-09 01:22:30.55	31.63	80.93	-33.3	-43.3	3.5	7611999	83	1895
2025-01-09 01:22:30.95	32.00	81.17	-33.4	-44.9	3.5	7579803	83	2241
2025-01-09 01:22:31.36	32.41	81.41	-33.4	-44.1	3.5	7583465	83	2055
2025-01-09 01:22:31.76	32.82	81.64	-33.3	-43.2	3.5	7564849	83	1888
2025-01-09 01:22:32.16	33.26	81.88	-33.1	-41.9	3.8	7474822	83	1635
2025-01-09 01:22:32.56	33.73	82.12	-33.2	-42.5	3.5	7536621	83	1753
2025-01-09 01:22:32.96	34.22	82.35	-33.3	-43.1	3.6	7606048	83	1859
2025-01-09 01:22:33.37	34.76	82.59	-33.4	-44.6	3.3	7555999	83	2180
2025-01-09 01:22:33.77	35.32	82.83	-33.4	-44.1	3.5	7589569	83	2050
2025-01-09 01:22:34.17	35.93	83.06	-33.1	-41.6	3.5	7613220	83	1578
2025-01-09 01:22:34.57	36.57	83.29	-32.8	-39.7	4.8	7197418	83	1317
2025-01-09 01:22:34.98	37.27	83.53	-32.5	-37.8	5.6	7002410	83	1092
2025-01-09 01:22:35.38	38.02	83.76	-32.3	-36.5	6.3	6864013	83	968
2025-01-09 01:22:35.78	38.82	83.99	-32.3	-36.7	6.7	6823577	82	987
2025-01-09 01:22:36.18	39.68	84.22	-32.3	-36.6	6.7	6805419	82	980
2025-01-09 01:22:36.58	40.61	84.45	-32.5	-37.5	6.0	6927185	82	1063
2025-01-09 01:22:36.99	41.65	84.68	-32.8	-39.9	3.9	7455596	82	1352
2025-01-09 01:22:37.39	42.76	84.91	-33.0	-40.5	4.7	7235717	82	1424
2025-01-09 01:22:37.79	43.97	85.13	-33.0	-41.4	3.6	7540740	83	1564
2025-01-09 01:22:38.19	45.30	85.35	-33.1	-41.9	3.9	7416381	83	1634
2025-01-09 01:22:38.60	46.80	85.58	-33.2	-42.6	3.4	7522125	83	1771
2025-01-09 01:22:39.00	48.41	85.79	-33.2	-42.4	3.8	7508087	83	1717
2025-01-09 01:22:39.40	50.19	86.00	-33.2	-41.7	3.7	7552032	83	1594
2025-01-09 01:22:39.80	52.18	86.21	-33.1	-42.0	3.9	7454376	83	1664
2025-01-09 01:22:40.20	54.39	86.41	-33.2	-41.9	3.7	7547760	83	1638
2025-01-09 01:22:40.61	56.93	86.62	-33.2	-42.9	3.7	7504882	83	1821
2025-01-09 01:22:41.01	59.71	86.80	-33.3	-42.9	3.4	7613067	83	1807
2025-01-09 01:22:41.41	62.83	86.99	-33.3	-43.8	3.5	7554016	83	1997
2025-01-09 01:22:41.81	66.34	87.16	-33.3	-43.6	3.4	7618255	83	1935
2025-01-09 01:22:42.22	70.39	87.32	-33.4	-44.3	3.5	7579193	83	2100
2025-01-09 01:22:42.62	74.81	87.46	-33.4	-44.2	3.4	7639923	83	2072
2025-01-09 01:22:43.02	79.75	87.59	-33.4	-45.3	3.5	7579193	83	2340
2025-01-09 01:22:43.42	85.19	87.70	-33.5	-45.0	3.4	7603302	83	2256
2025-01-09 01:22:43.82	91.10	87.79	-33.5	-45.4	3.5	7576751	83	2355
2025-01-09 01:22:44.23	97.58	87.85	-33.4	-44.7	3.5	7614288	83	2180
2025-01-09 01:22:44.63	104.18	87.88	-33.4	-45.1	3.5	7602844	83	2288
2025-01-09 01:22:45.03	110.89	87.88	-33.4	-44.8	3.5	7588195	83	2202
2025-01-09 01:22:45.43	117.53	87.86	-33.5	-45.3	3.5	7580413	83	2340
2025-01-09 01:22:45.83	123.94	87.80	-33.5	-45.1	3.5	7634277	83	2282
2025-01-09 01:22:46.24	130.11	87.72	-33.5	-45.4	3.2	7561798	83	2371
2025-01-09 01:22:46.64	135.66	87.62	-33.5	-45.1	3.5	7612152	83	2276
2025-01-09 01:22:47.04	140.70	87.49	-33.4	-44.6	3.4	7645416	83	2156
2025-01-09 01:22:47.44	145.24	87.35	-33.5	-45.2	3.5	7567443	83	2306
2025-01-09 01:22:47.84	149.30	87.20	-33.5	-44.8	3.4	7635345	83	2201
2025-01-09 01:22:48.24	152.91	87.03	-33.4	-45.3	3.5	7596282	83	2338
2025-01-09 01:22:48.65	156.20	86.85	-33.5	-44.8	3.4	7636260	83	2211
2025-01-09 01:22:49.05	159.06	86.66	-33.5	-45.4	3.5	7556457	83	2368
2025-01-09 01:22:49.45	161.60	86.46	-33.5	-44.9	3.4	7629547	83	2238
2025-01-09 01:22:49.85	163.87	86.26	-33.5	-45.4	3.5	7595062	83	2373
2025-01-09 01:22:50.26	165.96	86.05	-33.5	-45.0	3.5	7612304	83	2249
2025-01-09 01:22:50.66	167.79	85.84	-33.5	-45.4	3.5	7559204	83	2368
2025-01-09 01:22:51.06	169.44	85.62	-33.5	-44.8	3.4	7609252	83	2210
2025-01-09 01:22:51.46	170.93	85.41	-33.5	-45.4	3.5	7586669	83	2362
2025-01-09 01:22:51.87	172.32	85.18	-33.4	-45.0	3.4	7633819	83	2261
2025-01-09 01:22:52.27	173.55	84.96	-33.5	-45.5	3.5	7584381	83	2400
2025-01-09 01:22:52.67	174.68	84.73	-33.5	-45.2	3.5	7623748	83	2295
2025-01-09 01:22:53.07	175.72	84.51	-33.5	-45.4	3.5	7543640	83	2376
2025-01-09 01:22:53.48	176.70	84.27	-33.5	-45.1	3.5	7609405	83	2288
2025-01-09 01:22:53.88	177.58	84.04	-33.5	-45.5	3.2	7607574	83	2379
2025-01-09 01:22:54.28	178.39	83.81	-33.4	-45.2	3.5	7576751	83	2315
2025-01-09 01:22:54.68	179.14	83.58	-33.4	-44.8	3.4	7648773	83	2206
2025-01-09 01:22:55.09	179.86	83.34	-33.5	-45.3	3.5	7582244	83	2330
2025-01-09 01:22:55.49	180.51	83.11	-33.5	-44.9	3.4	7634429	83	2231
2025-01-09 01:22:55.89	181.12	82.88	-33.5	-45.3	3.5	7586212	83	2344
2025-01-09 01:22:56.29	181.69	82.64	-33.5	-44.8	3.4	7640991	83	2202
2025-01-09 01:22:56.69	182.23	82.41	-33.4	-45.1	3.5	7577819	83	2300
2025-01-09 01:22:57.10	182.74	82.17	-33.4	-44.7	3.4	7625579	83	2175
2025-01-09 01:22:57.50	183.22	81.93	-33.5	-45.4	3.5	7579193	83	2363
2025-01-09 01:22:57.90	183.66	81.69	-33.5	-44.9	3.4	7609100	83	2230
2025-01-09 01:22:58.30	184.08	81.46	-33.5	-45.5	3.5	7569580	83	2395
2025-01-09 01:22:58.70	184.48	81.22	-33.5	-45.0	3.5	7610473	83	2267
2025-01-09 01:22:59.11	184.87	80.98	-33.5	-45.5	3.5	7578582	83	2382
2025-01-09 01:22:59.51	185.22	80.74	-33.5	-45.2	3.4	7633819	83	2297
2025-01-09 01:22:59.91	185.56	80.51	-33.5	-45.5	3.5	7560729	83	2396
2025-01-09 01:23:00.31	185.88	80.27	-33.5	-45.1	3.5	7586364	83	2275
2025-01-09 01:23:00.71	186.19	80.03	-33.5	-45.5	3.5	7560272	83	2395
2025-01-09 01:23:01.12	186.49	79.79	-33.5	-45.1	3.5	7606658	83	2296
2025-01-09 01:23:01.52	186.77	79.55	-33.5	-45.5	3.3	7545471	83	2390
2025-01-09 01:23:01.92	187.04	79.32	-33.5	-45.2	3.5	7563781	83	2316
2025-01-09 01:23:02.32	187.29	79.08	-33.5	-44.7	3.4	7629852	83	2180
2025-01-09 01:23:02.73	187.54	78.84	-33.4	-45.3	3.5	7624664	83	2338
2025-01-09 01:23:03.13	187.77	78.60	-33.5	-44.9	3.4	7671051	83	2218
2025-01-09 01:23:03.53	188.00	78.37	-33.5	-45.4	3.5	7576141	83	2364
2025-01-09 01:23:03.93	188.21	78.13	-33.5	-44.9	3.4	7648315	83	2241
2025-01-09 01:23:04.33	188.42	77.90	-33.5	-45.5	3.5	7588958	83	2382
2025-01-09 01:23:04.74	188.62	77.66	-33.5	-45.0	3.4	7623291	83	2245
2025-01-09 01:23:05.14	188.81	77.42	-33.5	-45.5	3.5	7609100	83	2382
2025-01-09 01:23:05.54	188.99	77.19	-33.5	-45.0	3.4	7583160	83	2250
2025-01-09 01:23:05.94	189.17	76.95	-33.5	-45.5	3.5	7541046	83	2393
2025-01-09 01:23:06.34	189.34	76.72	-33.5	-45.1	3.5	7576141	83	2271
2025-01-09 01:23:06.75	189.51	76.48	-33.5	-45.5	3.5	7590026	83	2396
2025-01-09 01:23:07.15	189.67	76.24	-33.5	-45.2	3.5	7613220	83	2306
2025-01-09 01:23:07.55	189.82	76.01	-33.5	-45.5	3.5	7594299	83	2394
2025-01-09 01:23:07.95	189.97	75.78	-33.5	-45.3	3.5	7575683	83	2329
2025-01-09 01:23:08.35	190.11	75.54	-33.5	-45.6	3.2	7566070	83	2412
2025-01-09 01:23:08.76	190.25	75.31	-33.5	-45.3	3.5	7556915	83	2326
2025-01-09 01:23:09.16	190.38	75.07	-33.5	-44.8	3.4	7662658	83	2209
2025-01-09 01:23:09.56	190.51	74.84	-33.5	-45.3	3.5	7608947	83	2324
2025-01-09 01:23:09.96	190.64	74.61	-33.5	-44.8	3.4	7658996	83	2205
2025-01-09 01:23:10.36	190.76	74.38	-33.5	-45.4	3.5	7600860	83	2366
2025-01-09 01:23:10.77	190.88	74.14	-33.5	-44.9	3.4	7613983	83	2228
2025-01-09 01:23:11.17	190.99	73.91	-33.5	-45.4	3.5	7599029	83	2351
2025-01-09 01:23:11.57	191.11	73.68	-33.5	-44.9	3.4	7630615	83	2233
2025-01-09 01:23:11.98	191.22	73.45	-33.5	-45.5	3.5	7604064	83	2387
2025-01-09 01:23:12.38	191.32	73.22	-33.5	-45.0	3.4	7601470	83	2253
2025-01-09 01:23:12.78	191.42	72.99	-33.5	-45.5	3.5	7588958	83	2384
2025-01-09 01:23:13.18	191.52	72.76	-33.5	-45.1	3.4	7638092	83	2271
2025-01-09 01:23:13.58	191.62	72.53	-33.5	-45.5	3.5	7540435	83	2399
2025-01-09 01:23:13.99	191.71	72.30	-33.5	-45.1	3.4	7593383	83	2276
2025-01-09 01:23:14.39	191.81	72.07	-33.5	-45.5	3.5	7583465	83	2398
2025-01-09 01:23:14.79	191.89	71.85	-33.5	-45.2	3.5	7588958	83	2303
2025-01-09 01:23:15.19	191.98	71.62	-33.5	-45.6	3.5	7564697	83	2407
2025-01-09 01:23:15.59	192.07	71.39	-33.5	-45.2	3.5	7622528	83	2301
2025-01-09 01:23:16.00	192.15	71.16	-33.5	-45.6	3.2	7575683	83	2400
2025-01-09 01:23:16.40	192.23	70.94	-33.5	-45.3	3.5	7575225	83	2323
2025-01-09 01:23:16.80	192.31	70.71	-33.5	-44.8	3.4	7610778	83	2195
2025-01-09 01:23:17.20	192.38	70.49	-33.5	-45.3	3.5	7577209	83	2341

#Closed at: 2025-01-09 01:23:17