passes_logs/2025/01/09/XPeterburg/XPeterburg__20250109_003132_SUOMI_NPP_rec.log

#Pass ID: 20250109_003132_SUOMI NPP
#Satellite: SUOMI NPP
#Configuration: NPP
#Start time: 2025-01-09 00:31:26

#Version: 1.5.20200625
#Station: XPeterburg
#Location: 30.318091 lon 59.932769 lat
#TLE: 1 37849U 11061A   24362.17075939  .00000286  00000+0  15639-3 0  9990
#TLE: 2 37849  98.7425 297.4002 0002189  69.4164 290.7247 14.19524990682249

#Time	Az	El	Level	Level2	SNR	BER	Gain	Gain2
2025-01-09 00:31:26.02	3.02	67.43	-36.9	-45.0	3.3	15351074	90	3121
2025-01-09 00:31:26.42	2.86	67.60	-37.2	-54.7	3.6	15295898	73	9240
2025-01-09 00:31:26.82	2.71	67.78	-37.0	-45.2	3.3	15226097	90	3177
2025-01-09 00:31:27.22	2.55	67.95	-37.0	-46.4	3.6	15226097	90	3641
2025-01-09 00:31:27.62	2.39	68.12	-37.0	-45.3	3.4	15138992	90	3214
2025-01-09 00:31:28.03	2.22	68.30	-36.9	-46.5	3.6	15236579	90	3680
2025-01-09 00:31:28.43	2.05	68.47	-36.9	-45.3	3.4	15136886	90	3216
2025-01-09 00:31:28.83	1.88	68.64	-37.0	-46.5	3.6	15256584	90	3684
2025-01-09 00:31:29.23	1.71	68.82	-36.9	-45.5	3.4	15126106	90	3287
2025-01-09 00:31:29.64	1.53	68.99	-36.9	-46.5	3.6	15258483	90	3693
2025-01-09 00:31:30.04	1.35	69.17	-37.0	-45.6	3.4	15107414	90	3326
2025-01-09 00:31:30.44	1.17	69.34	-37.0	-46.5	3.6	15259841	90	3697
2025-01-09 00:31:30.84	0.98	69.52	-37.4	-46.3	3.5	15069335	91	3437
2025-01-09 00:31:31.24	0.79	69.69	-37.1	-45.9	2.9	15280715	92	3367
2025-01-09 00:31:31.64	0.60	69.86	-37.1	-45.3	3.5	15054969	92	3151
2025-01-09 00:31:32.05	0.40	70.04	-37.1	-44.5	3.3	15054969	92	2871
2025-01-09 00:31:32.45	0.20	70.22	-37.1	-45.4	3.5	15254753	92	3180
2025-01-09 00:31:32.85	359.99	70.39	-37.2	-44.5	3.3	15103248	92	2882
2025-01-09 00:31:33.25	359.78	70.57	-37.1	-45.5	3.6	15270500	92	3234
2025-01-09 00:31:33.66	359.57	70.74	-37.1	-44.6	3.4	15114036	92	2911
2025-01-09 00:31:34.06	359.35	70.92	-37.1	-45.7	3.6	15260421	92	3305
2025-01-09 00:31:34.46	359.13	71.09	-37.1	-44.6	3.4	15117271	92	2922
2025-01-09 00:31:34.86	358.90	71.27	-37.1	-45.9	3.6	15248451	92	3368
2025-01-09 00:31:35.27	358.67	71.45	-37.3	-44.8	3.4	15085205	93	2905
2025-01-09 00:31:35.67	358.43	71.62	-37.1	-45.8	3.6	15201423	92	3358
2025-01-09 00:31:36.07	358.19	71.80	-37.1	-44.8	3.4	15126419	92	2972
2025-01-09 00:31:36.47	357.95	71.97	-37.1	-45.8	3.6	15255729	92	3359
2025-01-09 00:31:36.87	357.70	72.15	-37.1	-44.9	3.4	15141128	92	3011
2025-01-09 00:31:37.28	357.44	72.32	-37.1	-45.9	3.6	15141128	92	3372
2025-01-09 00:31:37.68	357.18	72.50	-37.1	-45.1	3.4	15247047	92	3068
2025-01-09 00:31:38.08	356.91	72.67	-37.1	-45.8	3.4	15128982	92	3340
2025-01-09 00:31:38.48	356.64	72.85	-37.1	-45.2	3.5	15234115	92	3108
2025-01-09 00:31:38.89	356.35	73.03	-37.1	-44.4	3.3	15147994	92	2839
2025-01-09 00:31:39.29	356.07	73.20	-37.1	-45.4	3.5	15219154	92	3175
2025-01-09 00:31:39.69	355.78	73.37	-37.1	-44.4	3.3	15166549	92	2852
2025-01-09 00:31:40.09	355.48	73.55	-37.3	-46.0	3.6	15204223	92	3347
2025-01-09 00:31:40.50	355.17	73.73	-37.3	-45.1	3.3	15140754	92	3002
2025-01-09 00:31:40.90	354.86	73.90	-37.1	-45.8	3.6	15193313	92	3364
2025-01-09 00:31:41.30	354.55	74.07	-37.1	-44.7	3.4	15158302	92	2958
2025-01-09 00:31:41.70	354.22	74.24	-37.1	-45.9	3.6	15236854	92	3356
2025-01-09 00:31:42.11	353.88	74.42	-37.1	-45.0	3.4	15236854	92	3040
2025-01-09 00:31:42.51	353.54	74.59	-37.1	-45.8	3.6	15144554	92	3347
2025-01-09 00:31:42.91	353.19	74.77	-37.1	-45.1	3.4	15223785	92	3068
2025-01-09 00:31:43.31	352.84	74.94	-37.1	-45.8	3.2	15161231	92	3344
2025-01-09 00:31:43.71	352.47	75.11	-37.1	-45.2	3.5	15211395	92	3110
2025-01-09 00:31:44.12	352.09	75.28	-37.1	-45.8	3.3	15170997	92	3329
2025-01-09 00:31:44.52	351.70	75.46	-37.2	-45.3	3.5	15208274	92	3138
2025-01-09 00:31:44.92	351.31	75.63	-37.1	-44.4	3.3	15182998	92	2842
2025-01-09 00:31:45.32	350.91	75.80	-37.3	-45.4	3.6	15205352	93	3108
2025-01-09 00:31:45.72	350.50	75.96	-37.3	-44.5	3.3	15150588	93	2807
2025-01-09 00:31:46.13	350.06	76.14	-37.1	-45.6	3.6	15141731	92	3253
2025-01-09 00:31:46.53	349.63	76.31	-37.1	-44.7	3.4	15198204	92	2932
2025-01-09 00:31:46.93	349.18	76.47	-37.1	-45.7	3.6	15163177	92	3296
2025-01-09 00:31:47.33	348.73	76.64	-37.1	-44.7	3.4	15163177	92	2940
2025-01-09 00:31:47.74	348.25	76.81	-37.2	-45.8	3.6	15228515	92	3337
2025-01-09 00:31:48.14	347.76	76.98	-37.1	-44.8	3.4	15155372	92	2959
2025-01-09 00:31:48.54	347.27	77.14	-37.2	-45.9	3.6	15230957	92	3364
2025-01-09 00:31:48.94	346.76	77.30	-37.4	-44.9	3.4	15111320	93	2945
2025-01-09 00:31:49.34	346.24	77.47	-37.1	-45.9	3.6	15220497	92	3377
2025-01-09 00:31:49.75	345.69	77.63	-37.1	-45.0	3.4	15088363	92	3054
2025-01-09 00:31:50.15	345.14	77.80	-37.1	-45.9	3.6	15249191	92	3381
2025-01-09 00:31:50.55	344.58	77.96	-37.1	-45.1	3.5	15120788	92	3074
2025-01-09 00:31:50.95	344.00	78.12	-37.1	-45.9	3.4	15260818	92	3358
2025-01-09 00:31:51.36	343.38	78.28	-37.1	-45.2	3.5	15117584	92	3129
2025-01-09 00:31:51.76	342.77	78.43	-37.1	-44.5	3.3	15283821	92	2870
2025-01-09 00:31:52.16	342.14	78.59	-37.1	-45.4	3.5	15283821	92	3177
2025-01-09 00:31:52.56	341.49	78.75	-37.1	-44.5	3.3	15103996	92	2881
2025-01-09 00:31:52.96	340.82	78.90	-37.1	-45.5	3.6	15277824	92	3231
2025-01-09 00:31:53.36	340.13	79.05	-37.1	-44.6	3.4	15100425	92	2915
2025-01-09 00:31:53.77	339.41	79.20	-37.1	-45.6	3.6	15274955	92	3259
2025-01-09 00:31:54.17	338.68	79.35	-37.2	-44.6	3.3	15106979	92	2913
2025-01-09 00:31:54.57	337.93	79.50	-37.1	-45.8	3.6	15268379	92	3341
2025-01-09 00:31:54.98	337.15	79.65	-37.1	-44.7	3.4	15122207	92	2928
2025-01-09 00:31:55.38	336.35	79.79	-37.1	-45.8	3.6	15250129	92	3355
2025-01-09 00:31:55.78	335.54	79.94	-37.1	-44.8	3.4	15125541	92	2980
2025-01-09 00:31:56.18	334.70	80.08	-37.1	-45.8	3.6	15247253	92	3352
2025-01-09 00:31:56.58	333.83	80.21	-37.1	-44.8	3.4	15128379	92	2990
2025-01-09 00:31:56.99	332.92	80.35	-37.1	-45.9	3.6	15242240	92	3365
2025-01-09 00:31:57.39	332.01	80.49	-37.1	-44.9	3.4	15242240	92	3024
2025-01-09 00:31:57.79	331.07	80.62	-37.1	-45.8	3.6	15153190	92	3349
2025-01-09 00:31:58.19	330.10	80.75	-37.1	-45.1	3.4	15225616	92	3078
2025-01-09 00:31:58.59	329.10	80.87	-37.1	-45.9	3.4	15154312	92	3365
2025-01-09 00:31:59.00	328.05	81.00	-37.1	-45.2	3.5	15232124	92	3107
2025-01-09 00:31:59.40	327.00	81.12	-37.1	-44.4	3.3	15168960	92	2855
2025-01-09 00:31:59.80	325.92	81.24	-37.3	-45.3	3.5	15216857	93	3095
2025-01-09 00:32:00.20	324.81	81.35	-37.3	-44.5	3.3	15136947	93	2812
2025-01-09 00:32:00.60	323.67	81.46	-37.1	-45.6	3.6	15158126	92	3276
2025-01-09 00:32:01.01	322.47	81.57	-37.1	-44.6	3.4	15176239	92	2896
2025-01-09 00:32:01.41	321.26	81.67	-37.1	-45.9	3.6	15198318	92	3375
2025-01-09 00:32:01.81	320.03	81.78	-37.3	-45.3	3.4	15135429	92	3068
2025-01-09 00:32:02.21	318.77	81.87	-37.1	-45.9	3.6	15135429	92	3357
2025-01-09 00:32:02.62	317.45	81.97	-37.3	-45.4	3.4	15194030	92	3117
2025-01-09 00:32:03.02	316.12	82.05	-37.1	-45.8	3.6	15115272	92	3349
2025-01-09 00:32:03.42	314.77	82.14	-37.3	-45.2	3.5	15198600	93	3050
2025-01-09 00:32:03.82	313.39	82.22	-37.3	-44.4	3.3	15102142	93	2778
2025-01-09 00:32:04.23	311.95	82.29	-37.1	-45.5	3.5	15207923	92	3203
2025-01-09 00:32:04.63	310.51	82.37	-37.2	-44.5	3.3	15138938	92	2878
2025-01-09 00:32:05.03	309.05	82.43	-37.3	-45.5	3.6	15225547	93	3172
2025-01-09 00:32:05.43	307.56	82.49	-37.3	-44.6	3.4	15106208	93	2842
2025-01-09 00:32:05.83	306.05	82.55	-37.4	-46.0	2.9	15197898	93	3312
2025-01-09 00:32:06.24	304.48	82.60	-37.4	-44.8	3.4	15114570	93	2891
2025-01-09 00:32:06.64	302.92	82.64	-37.1	-45.8	3.6	15206069	92	3356
2025-01-09 00:32:07.04	301.35	82.68	-37.2	-45.0	3.4	15150650	92	3019
2025-01-09 00:32:07.44	299.77	82.72	-37.2	-45.9	3.6	15150650	92	3359
2025-01-09 00:32:07.85	298.13	82.74	-37.3	-45.4	3.4	15208625	92	3117
2025-01-09 00:32:08.25	296.51	82.77	-37.1	-45.8	3.6	15119201	92	3332
2025-01-09 00:32:08.65	294.89	82.78	-37.1	-45.1	3.5	15183090	92	3088
2025-01-09 00:32:09.05	293.27	82.79	-37.1	-45.7	3.3	15160888	92	3320
2025-01-09 00:32:09.46	291.59	82.80	-37.1	-45.2	3.5	15195732	92	3097
2025-01-09 00:32:09.86	289.96	82.80	-37.1	-44.5	3.3	15189208	92	2864
2025-01-09 00:32:10.26	288.33	82.79	-37.1	-45.3	3.5	15180969	92	3165
2025-01-09 00:32:10.66	286.71	82.78	-37.2	-44.5	3.3	15196510	92	2881
2025-01-09 00:32:11.06	285.09	82.76	-37.1	-45.6	3.6	15176635	92	3255
2025-01-09 00:32:11.46	283.48	82.74	-37.2	-44.7	3.4	15225357	92	2917
2025-01-09 00:32:11.87	281.84	82.71	-37.1	-45.5	3.6	15156143	92	3231
2025-01-09 00:32:12.27	280.26	82.67	-37.1	-44.6	3.4	15221496	92	2901
2025-01-09 00:32:12.67	278.69	82.63	-37.1	-45.7	3.6	15221496	92	3295
2025-01-09 00:32:13.07	277.14	82.58	-37.1	-44.6	3.4	15152633	92	2897
2025-01-09 00:32:13.48	275.58	82.53	-37.1	-45.8	3.6	15238395	92	3327
2025-01-09 00:32:13.88	274.07	82.48	-37.3	-45.1	3.4	15099075	92	3022
2025-01-09 00:32:14.28	272.59	82.41	-37.1	-45.8	3.6	15232513	92	3332
2025-01-09 00:32:14.68	271.13	82.35	-37.1	-44.9	3.4	15087028	92	3020
2025-01-09 00:32:15.09	269.67	82.27	-37.1	-45.8	3.6	15245056	92	3336
2025-01-09 00:32:15.49	268.27	82.20	-37.1	-45.0	3.4	15114532	92	3036
2025-01-09 00:32:15.89	266.89	82.12	-37.1	-45.9	3.6	15266685	92	3364
2025-01-09 00:32:16.29	265.55	82.03	-37.2	-45.1	3.5	15111625	92	3081
2025-01-09 00:32:16.69	264.23	81.94	-37.1	-45.8	3.4	15290245	92	3330
2025-01-09 00:32:17.09	262.95	81.85	-37.1	-45.2	3.5	15098213	92	3109
2025-01-09 00:32:17.50	261.66	81.75	-37.1	-44.5	3.3	15098213	92	2855
2025-01-09 00:32:17.90	260.44	81.65	-37.2	-45.4	3.5	15280891	92	3195
2025-01-09 00:32:18.30	259.25	81.54	-37.1	-44.5	3.3	15107048	92	2866
2025-01-09 00:32:18.70	258.08	81.43	-37.2	-45.6	3.6	15271469	92	3252
2025-01-09 00:32:19.11	256.92	81.32	-37.1	-44.5	3.4	15117881	92	2889
2025-01-09 00:32:19.51	255.82	81.20	-37.1	-45.8	3.6	15262802	92	3318
2025-01-09 00:32:19.91	254.74	81.09	-37.1	-44.7	3.4	15107475	92	2934
2025-01-09 00:32:20.31	253.70	80.96	-37.1	-45.9	3.6	15252273	92	3369
2025-01-09 00:32:20.72	252.66	80.84	-37.1	-44.8	3.4	15129783	92	2968
2025-01-09 00:32:21.12	251.67	80.71	-37.1	-45.8	3.6	15243988	92	3346
2025-01-09 00:32:21.52	250.71	80.58	-37.1	-44.8	3.4	15124931	92	2957
2025-01-09 00:32:21.92	249.77	80.45	-37.1	-45.8	3.6	15223350	92	3333
2025-01-09 00:32:22.32	248.86	80.32	-37.1	-44.9	3.4	15143829	92	3018
2025-01-09 00:32:22.73	247.96	80.18	-37.1	-45.9	3.6	15143829	92	3359
2025-01-09 00:32:23.13	247.10	80.04	-37.1	-45.0	3.4	15225730	92	3024
2025-01-09 00:32:23.53	246.27	79.90	-37.1	-45.9	3.6	15143493	92	3382
2025-01-09 00:32:23.93	245.46	79.75	-37.2	-45.1	3.5	15212097	92	3084
2025-01-09 00:32:24.33	244.67	79.61	-37.2	-45.9	3.5	15158348	92	3366
2025-01-09 00:32:24.74	243.89	79.46	-37.2	-45.3	3.5	15201828	92	3133
2025-01-09 00:32:25.14	243.14	79.31	-37.2	-44.5	3.3	15187171	92	2864
2025-01-09 00:32:25.54	242.42	79.16	-37.3	-45.4	3.5	15205429	93	3122
2025-01-09 00:32:25.94	241.72	79.01	-37.3	-44.6	3.3	15148338	93	2827
2025-01-09 00:32:26.35	241.02	78.85	-37.1	-45.6	3.6	15146972	92	3268
2025-01-09 00:32:26.75	240.36	78.70	-37.2	-44.6	3.4	15188522	92	2914
2025-01-09 00:32:27.15	239.71	78.55	-37.2	-45.8	3.6	15161262	92	3343
2025-01-09 00:32:27.55	239.09	78.39	-37.1	-44.7	3.4	15161262	92	2937
2025-01-09 00:32:27.95	238.48	78.23	-37.1	-45.9	3.6	15225944	92	3357
2025-01-09 00:32:28.36	237.87	78.07	-37.1	-44.8	3.4	15146530	92	2966
2025-01-09 00:32:28.76	237.29	77.91	-37.1	-45.9	3.6	15238464	92	3369
2025-01-09 00:32:29.16	236.73	77.75	-37.1	-44.9	3.4	15142066	92	2995
2025-01-09 00:32:29.56	236.18	77.59	-37.1	-45.9	3.6	15251014	92	3361
2025-01-09 00:32:29.97	235.64	77.42	-37.1	-45.0	3.4	15120849	92	3039
2025-01-09 00:32:30.37	235.12	77.26	-37.1	-45.9	3.6	15253700	92	3362
2025-01-09 00:32:30.77	234.62	77.09	-37.2	-45.0	3.4	15129570	92	3031
2025-01-09 00:32:31.17	234.13	76.93	-37.2	-45.9	3.6	15256797	92	3377
2025-01-09 00:32:31.57	233.65	76.76	-37.1	-45.1	3.5	15107452	92	3079
2025-01-09 00:32:31.98	233.17	76.59	-37.2	-45.9	3.6	15264968	92	3352
2025-01-09 00:32:32.38	232.72	76.42	-37.2	-45.3	3.5	15103942	92	3125
2025-01-09 00:32:32.78	232.27	76.25	-37.1	-44.4	3.3	15103942	92	2852
2025-01-09 00:32:33.18	231.84	76.09	-37.2	-45.4	3.5	15283927	92	3174
2025-01-09 00:32:33.58	231.42	75.92	-37.1	-44.6	3.3	15097061	92	2891
2025-01-09 00:32:33.99	231.00	75.74	-37.2	-45.6	3.6	15273681	92	3251
2025-01-09 00:32:34.39	230.60	75.57	-37.1	-44.7	3.4	15097282	92	2931
2025-01-09 00:32:34.79	230.21	75.40	-37.1	-45.8	3.6	15257774	92	3329
2025-01-09 00:32:35.19	229.83	75.23	-37.2	-44.7	3.4	15108757	92	2935
2025-01-09 00:32:35.60	229.45	75.06	-37.2	-45.9	3.6	15264358	92	3367
2025-01-09 00:32:36.00	229.09	74.88	-37.2	-44.8	3.4	15130195	92	2956
2025-01-09 00:32:36.40	228.73	74.71	-37.2	-46.0	3.6	15252471	92	3384
2025-01-09 00:32:36.80	228.39	74.54	-37.1	-44.9	3.4	15128807	92	2991
2025-01-09 00:32:37.20	228.05	74.37	-37.1	-45.9	3.6	15243682	92	3358
2025-01-09 00:32:37.60	227.72	74.19	-37.1	-45.0	3.4	15243682	92	3048
2025-01-09 00:32:38.01	227.39	74.02	-37.1	-45.8	3.6	15148101	92	3344
2025-01-09 00:32:38.41	227.07	73.84	-37.2	-45.2	3.5	15216461	92	3090
2025-01-09 00:32:38.81	226.76	73.67	-37.2	-45.9	3.4	15161972	92	3373
2025-01-09 00:32:39.21	226.46	73.50	-37.2	-45.4	3.5	15208763	92	3167
2025-01-09 00:32:39.62	226.16	73.32	-37.2	-44.5	3.3	15173133	92	2878
2025-01-09 00:32:40.02	225.87	73.14	-37.1	-45.2	3.5	15205406	92	3124
2025-01-09 00:32:40.42	225.59	72.97	-37.2	-44.5	3.3	15176406	92	2867
2025-01-09 00:32:40.82	225.31	72.79	-37.2	-45.5	3.5	15192260	92	3202
2025-01-09 00:32:41.22	225.04	72.62	-37.2	-44.6	3.3	15186904	92	2898
2025-01-09 00:32:41.63	224.77	72.44	-37.1	-45.6	3.6	15187103	92	3248
2025-01-09 00:32:42.03	224.51	72.27	-37.2	-44.6	3.4	15194885	92	2914
2025-01-09 00:32:42.43	224.26	72.09	-37.1	-45.8	3.6	15171875	92	3329
2025-01-09 00:32:42.83	224.01	71.92	-37.2	-44.7	3.4	15171875	92	2946
2025-01-09 00:32:43.23	223.77	71.74	-37.1	-45.9	3.6	15206298	92	3355
2025-01-09 00:32:43.64	223.52	71.56	-37.2	-44.8	3.4	15158691	92	2982
2025-01-09 00:32:44.04	223.29	71.39	-37.2	-45.9	3.6	15214843	92	3369
2025-01-09 00:32:44.44	223.06	71.21	-37.3	-44.9	3.4	15115516	93	2926
2025-01-09 00:32:44.84	222.84	71.04	-37.2	-45.9	3.6	15223937	92	3358
2025-01-09 00:32:45.24	222.62	70.86	-37.1	-45.1	3.4	15107612	92	3068
2025-01-09 00:32:45.65	222.40	70.68	-37.2	-45.9	3.6	15237030	92	3377
2025-01-09 00:32:46.05	222.18	70.51	-37.4	-45.2	3.5	15085189	93	3044
2025-01-09 00:32:46.45	221.98	70.33	-37.2	-45.9	2.5	15241744	92	3384

#Closed at: 2025-01-09 00:32:46