passes_logs/2025/01/17/Planum_Noyabrsk/Planum_Noyabrsk__20250117_151322_NOAA_19_rec.log

#Pass ID: 20250117_151322_NOAA 19
#Satellite: NOAA 19
#Configuration: NOAA 19
#Start time: 2025-01-17 15:13:27.774292

#LorettStation: 1.0.0 05.05.2024
#Station: Planum_Noyabrsk
#Location: 75.446886 lon 63.207202 lat
#TLE: 1 33591U 09005A   25016.13687281  .00000278  00000+0  17226-3 0  9992
#TLE: 2 33591  99.0193  79.9081 0014432  54.5182 305.7334 14.13260212821702

#Time	Az	El	Level	SNR
2025-01-17 15:13:33.965190	152.8	31.2	-66.6	13.0
2025-01-17 15:13:35.097700	152.8	31.4	-66.2	12.1
2025-01-17 15:13:36.229728	152.8	31.6	-66.5	11.7
2025-01-17 15:13:37.363751	152.8	31.9	-66.2	12.4
2025-01-17 15:13:38.497775	152.7	32.1	-66.6	10.5
2025-01-17 15:13:39.633793	152.7	32.3	-67.2	13.1
2025-01-17 15:13:40.765823	152.7	32.6	-66.4	11.3
2025-01-17 15:13:41.896853	152.7	32.8	-66.5	12.4
2025-01-17 15:13:43.029879	152.7	33.0	-66.1	12.8
2025-01-17 15:13:44.161916	152.6	33.3	-66.2	12.0
2025-01-17 15:13:45.295940	152.6	33.5	-66.1	11.8
2025-01-17 15:13:46.427968	152.6	33.8	-65.5	11.5
2025-01-17 15:13:47.560995	152.6	34.0	-66.2	10.9
2025-01-17 15:13:48.694781	152.5	34.3	-66.0	11.1
2025-01-17 15:13:49.826811	152.5	34.5	-66.3	12.6
2025-01-17 15:13:50.960381	152.5	34.8	-66.2	11.1
2025-01-17 15:13:52.094403	152.5	35.0	-66.1	11.8
2025-01-17 15:13:53.228390	152.4	35.3	-65.7	12.3
2025-01-17 15:13:54.361415	152.4	35.5	-65.9	11.8
2025-01-17 15:13:55.494442	152.4	35.8	-66.0	12.2
2025-01-17 15:13:56.630459	152.4	36.0	-65.6	11.4
2025-01-17 15:13:57.763489	152.3	36.3	-65.5	10.9
2025-01-17 15:13:58.897767	152.3	36.6	-65.2	9.8
2025-01-17 15:14:00.032787	152.3	36.8	-65.8	10.7
2025-01-17 15:14:01.165325	152.2	37.1	-65.3	11.4
2025-01-17 15:14:02.298351	152.2	37.4	-65.7	11.1
2025-01-17 15:14:03.434370	152.2	37.7	-65.6	9.7
2025-01-17 15:14:04.566503	152.1	37.9	-65.1	11.5
2025-01-17 15:14:05.699529	152.1	38.2	-65.4	11.1
2025-01-17 15:14:06.832795	152.1	38.5	-65.3	9.6
2025-01-17 15:14:07.968815	152.0	38.8	-65.5	10.6
2025-01-17 15:14:09.101838	152.0	39.1	-65.0	10.1
2025-01-17 15:14:10.235863	152.0	39.3	-65.1	9.6
2025-01-17 15:14:11.369360	151.9	39.6	-65.1	10.5
2025-01-17 15:14:12.504382	151.9	39.9	-64.5	10.5
2025-01-17 15:14:13.635412	151.9	40.2	-64.5	9.3
2025-01-17 15:14:14.770434	151.8	40.5	-64.9	10.4
2025-01-17 15:14:15.904538	151.8	40.8	-65.0	10.2
2025-01-17 15:14:17.037563	151.7	41.1	-64.5	10.0
2025-01-17 15:14:18.169591	151.7	41.4	-64.3	9.7
2025-01-17 15:14:19.302617	151.7	41.7	-62.8	5.6
2025-01-17 15:14:20.441137	151.6	42.0	-63.3	8.1
2025-01-17 15:14:21.574167	151.6	42.4	-63.6	10.6
2025-01-17 15:14:22.707189	151.5	42.7	-63.6	10.7
2025-01-17 15:14:23.841213	151.5	43.0	-63.0	10.0
2025-01-17 15:14:24.972986	151.4	43.3	-62.7	7.5
2025-01-17 15:14:26.111999	151.4	43.6	-63.2	8.9
2025-01-17 15:14:27.246020	151.4	44.0	-62.8	9.5
2025-01-17 15:14:28.380043	151.3	44.3	-63.6	10.6
2025-01-17 15:14:29.515479	151.3	44.6	-63.5	8.5
2025-01-17 15:14:30.649502	151.2	45.0	-63.1	9.4
2025-01-17 15:14:31.780533	151.2	45.3	-63.7	8.7
2025-01-17 15:14:32.914556	151.1	45.6	-63.5	9.1
2025-01-17 15:14:34.046585	151.0	46.0	-62.5	8.1
2025-01-17 15:14:35.181607	151.0	46.3	-63.0	9.4
2025-01-17 15:14:36.315629	150.9	46.7	-62.5	9.2
2025-01-17 15:14:37.448654	150.9	47.0	-63.1	9.4
2025-01-17 15:14:38.583680	150.8	47.4	-62.9	9.0
2025-01-17 15:14:39.717719	150.8	47.7	-63.1	8.7
2025-01-17 15:14:40.851726	150.7	48.1	-62.5	8.8
2025-01-17 15:14:41.984754	150.6	48.4	-62.3	8.0
2025-01-17 15:14:43.119367	150.6	48.8	-62.1	8.3
2025-01-17 15:14:44.252394	150.5	49.2	-62.1	8.1
2025-01-17 15:14:45.387414	150.4	49.6	-62.8	10.5
2025-01-17 15:14:46.523432	150.3	49.9	-62.5	8.4
2025-01-17 15:14:47.661446	150.3	50.3	-62.4	8.7
2025-01-17 15:14:48.795468	150.2	50.7	-62.2	9.6
2025-01-17 15:14:49.928495	150.1	51.1	-62.2	7.5
2025-01-17 15:14:51.060522	150.0	51.5	-61.7	6.7
2025-01-17 15:14:52.195543	150.0	51.8	-61.4	6.4
2025-01-17 15:14:53.330565	149.9	52.2	-61.5	5.9
2025-01-17 15:14:54.465585	149.8	52.6	-61.8	7.1
2025-01-17 15:14:55.599608	149.7	53.0	-62.9	7.6
2025-01-17 15:14:56.734539	149.6	53.4	-61.3	8.2
2025-01-17 15:14:57.868563	149.5	53.8	-61.4	6.8
2025-01-17 15:14:59.003584	149.4	54.3	-61.0	6.8
2025-01-17 15:15:00.138605	149.3	54.7	-61.7	8.0
2025-01-17 15:15:01.271660	149.2	55.1	-61.4	7.4
2025-01-17 15:15:02.407649	149.1	55.5	-62.0	7.5
2025-01-17 15:15:03.541640	149.0	55.9	-61.3	5.7
2025-01-17 15:15:04.675664	148.9	56.3	-61.9	6.0
2025-01-17 15:15:05.810683	148.8	56.8	-61.2	8.4
2025-01-17 15:15:06.943710	148.6	57.2	-61.0	5.5
2025-01-17 15:15:08.076736	148.5	57.6	-60.8	5.6
2025-01-17 15:15:09.209761	148.4	58.1	-61.4	6.8
2025-01-17 15:15:10.342793	148.3	58.5	-61.5	6.4
2025-01-17 15:15:11.476814	148.1	59.0	-62.1	5.8
2025-01-17 15:15:12.610837	148.0	59.4	-61.8	5.6
2025-01-17 15:15:13.744863	147.8	59.9	-61.1	5.1
2025-01-17 15:15:14.877398	147.7	60.3	-62.0	6.5
2025-01-17 15:15:16.010422	147.5	60.8	-61.4	5.5
2025-01-17 15:15:17.145443	147.4	61.2	-62.5	6.8
2025-01-17 15:15:18.281970	147.2	61.7	-61.7	5.7
2025-01-17 15:15:19.416827	147.0	62.1	-62.3	5.7
2025-01-17 15:15:20.549854	146.8	62.6	-61.9	7.3
2025-01-17 15:15:21.684873	146.6	63.1	-62.0	5.9
2025-01-17 15:15:22.817900	146.4	63.6	-61.8	6.7
2025-01-17 15:15:23.952758	146.2	64.0	-62.8	4.5
2025-01-17 15:15:25.086780	146.0	64.5	-62.7	6.2
2025-01-17 15:15:26.219806	145.8	65.0	-63.6	8.6
2025-01-17 15:15:27.350838	145.5	65.5	-62.5	3.7
2025-01-17 15:15:28.486855	145.3	66.0	-61.5	3.8
2025-01-17 15:15:29.621876	145.0	66.5	-62.3	5.0
2025-01-17 15:15:30.755900	144.8	66.9	-63.6	8.6
2025-01-17 15:15:31.891922	144.5	67.4	-63.4	8.7
2025-01-17 15:15:33.027147	144.2	67.9	-62.1	5.8
2025-01-17 15:15:34.160175	143.9	68.4	-62.6	5.5
2025-01-17 15:15:35.296191	143.5	68.9	-62.2	5.2
2025-01-17 15:15:36.431213	143.2	69.4	-62.6	3.8
2025-01-17 15:15:37.566232	142.8	69.9	-62.4	5.2
2025-01-17 15:15:38.701256	142.4	70.5	-63.0	4.8
2025-01-17 15:15:39.834280	142.0	71.0	-62.7	4.7
2025-01-17 15:15:40.968303	141.6	71.5	-62.9	6.3
2025-01-17 15:15:42.104320	141.1	72.0	-62.9	3.5
2025-01-17 15:15:43.237346	140.6	72.5	-62.7	4.0
2025-01-17 15:15:44.372367	140.1	73.0	-64.2	6.5
2025-01-17 15:15:45.505393	139.6	73.5	-63.5	3.6
2025-01-17 15:15:46.639416	139.0	74.0	-63.5	2.2
2025-01-17 15:15:47.773439	138.3	74.6	-62.5	1.8
2025-01-17 15:15:48.911453	137.6	75.1	-63.5	1.6
2025-01-17 15:15:50.045272	136.9	75.6	-63.1	0.4
2025-01-17 15:15:51.181292	136.1	76.1	-64.2	2.7
2025-01-17 15:15:52.313319	135.3	76.6	-66.2	3.4
2025-01-17 15:15:53.446345	134.3	77.1	-65.3	0.0
2025-01-17 15:15:54.581366	133.3	77.6	-61.3	0.0
2025-01-17 15:15:55.714391	132.3	78.1	-63.0	0.0
2025-01-17 15:15:56.851407	131.1	78.6	-63.5	1.0
2025-01-17 15:15:57.984433	129.8	79.1	-62.4	0.3
2025-01-17 15:15:59.118121	128.3	79.6	-62.5	1.7
2025-01-17 15:16:00.253142	126.8	80.1	-62.4	0.9
2025-01-17 15:16:01.388165	125.0	80.6	-62.8	1.8
2025-01-17 15:16:02.520191	123.1	81.1	-63.4	3.7
2025-01-17 15:16:03.658713	120.9	81.6	-62.1	2.9
2025-01-17 15:16:04.790741	118.5	82.0	-62.0	4.8
2025-01-17 15:16:05.923768	115.8	82.4	-62.2	5.3
2025-01-17 15:16:07.056793	112.8	82.9	-61.8	4.1
2025-01-17 15:16:08.191029	109.4	83.3	-62.1	5.6
2025-01-17 15:16:09.324056	105.6	83.6	-61.9	4.4
2025-01-17 15:16:10.456084	101.4	84.0	-60.9	3.3
2025-01-17 15:16:11.588632	96.6	84.3	-61.2	4.4
2025-01-17 15:16:12.720665	91.4	84.5	-61.0	3.1
2025-01-17 15:16:13.852772	85.7	84.8	-61.8	4.5
2025-01-17 15:16:14.988790	79.5	84.9	-61.1	3.7
2025-01-17 15:16:16.122814	73.1	85.0	-61.4	3.4
2025-01-17 15:16:17.256838	66.5	85.0	-61.2	3.5
2025-01-17 15:16:18.390861	59.9	85.0	-61.7	3.7
2025-01-17 15:16:19.525881	53.4	84.9	-62.1	3.6
2025-01-17 15:16:20.658906	47.3	84.7	-62.0	2.4
2025-01-17 15:16:21.795781	41.7	84.5	-62.2	2.7
2025-01-17 15:16:22.930803	36.5	84.3	-62.0	4.6
2025-01-17 15:16:24.064825	31.8	83.9	-61.4	3.5
2025-01-17 15:16:25.205341	27.5	83.6	-60.9	4.2
2025-01-17 15:16:26.337370	23.8	83.2	-61.3	4.3
2025-01-17 15:16:27.471392	20.5	82.8	-60.9	2.4
2025-01-17 15:16:28.603421	17.5	82.4	-60.3	3.5
2025-01-17 15:16:29.738365	14.8	82.0	-60.9	3.3
2025-01-17 15:16:30.878372	12.4	81.5	-61.3	4.8
2025-01-17 15:16:32.012396	10.3	81.0	-60.2	3.3
2025-01-17 15:16:33.145931	8.4	80.6	-64.2	6.0
2025-01-17 15:16:34.278956	6.7	80.1	-60.9	3.5
2025-01-17 15:16:35.415972	5.1	79.6	-63.4	5.2
2025-01-17 15:16:36.549995	3.7	79.1	-60.6	2.0
2025-01-17 15:16:37.685024	2.4	78.6	-60.9	2.8
2025-01-17 15:16:38.820042	1.2	78.1	-61.6	0.7
2025-01-17 15:16:39.955062	0.2	77.6	-61.2	0.1
2025-01-17 15:16:41.091082	359.2	77.1	-62.1	0.5
2025-01-17 15:16:42.229095	358.3	76.6	-60.3	0.0
2025-01-17 15:16:43.361632	357.4	76.0	-60.0	0.0
2025-01-17 15:16:44.497656	356.6	75.5	-60.2	0.0
2025-01-17 15:16:45.637658	355.9	75.0	-59.7	0.0
2025-01-17 15:16:46.773419	355.2	74.5	-59.2	0.0
2025-01-17 15:16:47.909436	354.6	74.0	-59.6	0.0
2025-01-17 15:16:49.043896	354.0	73.5	-59.8	0.0
2025-01-17 15:16:50.176926	353.5	73.0	-60.2	0.0
2025-01-17 15:16:51.310468	352.9	72.4	-59.9	1.8
2025-01-17 15:16:52.444000	352.5	71.9	-58.9	1.3
2025-01-17 15:16:53.579021	352.0	71.4	-59.6	0.1
2025-01-17 15:16:54.713044	351.6	70.9	-59.5	0.0
2025-01-17 15:16:55.846982	351.2	70.4	-58.9	0.0
2025-01-17 15:16:56.981006	350.8	69.9	-59.5	1.0
2025-01-17 15:16:58.118023	350.4	69.4	-59.6	2.4
2025-01-17 15:16:59.252560	350.1	68.9	-59.4	3.5
2025-01-17 15:17:00.387586	349.7	68.4	-59.4	1.7
2025-01-17 15:17:01.521610	349.4	67.9	-58.6	1.3
2025-01-17 15:17:02.656633	349.1	67.4	-59.1	1.4
2025-01-17 15:17:03.789656	348.8	66.9	-58.3	0.0
2025-01-17 15:17:04.925119	348.6	66.4	-58.1	0.6
2025-01-17 15:17:06.058146	348.3	65.9	-59.3	1.3
2025-01-17 15:17:07.196158	348.1	65.4	-58.8	2.4
2025-01-17 15:17:08.336348	347.8	65.0	-59.2	2.6
2025-01-17 15:17:09.471369	347.6	64.5	-59.2	2.2
2025-01-17 15:17:10.604395	347.4	64.0	-58.9	0.0
2025-01-17 15:17:11.739415	347.2	63.5	-57.5	0.0
2025-01-17 15:17:12.873970	347.0	63.1	-59.1	1.5
2025-01-17 15:17:14.007992	346.8	62.6	-58.0	0.2
2025-01-17 15:17:15.144009	346.6	62.1	-57.8	0.0
2025-01-17 15:17:16.278032	346.4	61.7	-58.6	0.0
2025-01-17 15:17:17.414138	346.3	61.2	-57.7	0.0
2025-01-17 15:17:18.548164	346.1	60.7	-57.1	0.0
2025-01-17 15:17:19.682695	345.9	60.3	-57.8	0.0
2025-01-17 15:17:20.815721	345.8	59.8	-58.5	0.0
2025-01-17 15:17:21.954738	345.6	59.4	-56.9	0.2
2025-01-17 15:17:23.088763	345.5	58.9	-58.2	0.0
2025-01-17 15:17:24.226290	345.4	58.5	-57.8	0.0
2025-01-17 15:17:25.361310	345.2	58.1	-57.3	0.0
2025-01-17 15:17:26.496333	345.1	57.6	-57.1	0.0
2025-01-17 15:17:27.630354	345.0	57.2	-56.7	0.0
2025-01-17 15:17:28.762383	344.9	56.8	-57.5	0.6
2025-01-17 15:17:29.900395	344.7	56.3	-57.0	0.0
2025-01-17 15:17:31.035420	344.6	55.9	-56.5	0.0
2025-01-17 15:17:32.171438	344.5	55.5	-57.5	0.0
2025-01-17 15:17:33.306459	344.4	55.1	-58.7	0.9
2025-01-17 15:17:34.443474	344.3	54.7	-54.6	0.0
2025-01-17 15:17:35.576501	344.2	54.3	-56.3	0.0
2025-01-17 15:17:36.712519	344.1	53.9	-56.6	0.0
2025-01-17 15:17:37.846543	344.0	53.4	-55.6	0.0
2025-01-17 15:17:38.979083	343.9	53.0	-56.4	0.0
2025-01-17 15:17:40.117095	343.8	52.6	-54.6	0.0
2025-01-17 15:17:41.255109	343.8	52.3	-56.6	1.1
2025-01-17 15:17:42.387648	343.7	51.9	-56.7	0.0
2025-01-17 15:17:43.524113	343.6	51.5	-56.9	0.0
2025-01-17 15:17:44.657141	343.5	51.1	-56.5	0.0
2025-01-17 15:17:45.791163	343.4	50.7	-57.1	0.0
2025-01-17 15:17:46.926489	343.4	50.3	-58.5	0.0
2025-01-17 15:17:48.062511	343.3	50.0	-57.4	0.0
2025-01-17 15:17:49.197532	343.2	49.6	-55.1	0.0
2025-01-17 15:17:50.331555	343.2	49.2	-56.8	0.0
2025-01-17 15:17:51.464581	343.1	48.8	-55.3	0.0
2025-01-17 15:17:52.600599	343.0	48.5	-55.1	0.0
2025-01-17 15:17:53.735620	343.0	48.1	-56.2	0.0
2025-01-17 15:17:54.872635	342.9	47.8	-56.1	0.0
2025-01-17 15:17:56.009651	342.8	47.4	-55.8	0.0
2025-01-17 15:17:57.149659	342.8	47.0	-55.5	0.0
2025-01-17 15:17:58.287671	342.7	46.7	-55.2	0.0
2025-01-17 15:17:59.423689	342.7	46.3	-54.2	0.0
2025-01-17 15:18:00.560704	342.6	46.0	-55.5	0.0
2025-01-17 15:18:01.699715	342.5	45.7	-55.5	0.0
2025-01-17 15:18:02.835733	342.5	45.3	-53.8	0.0
2025-01-17 15:18:03.970268	342.4	45.0	-54.5	0.0
2025-01-17 15:18:05.107283	342.4	44.7	-54.4	0.0
2025-01-17 15:18:06.244299	342.3	44.3	-55.5	0.0
2025-01-17 15:18:07.381820	342.3	44.0	-55.2	0.0
2025-01-17 15:18:08.515844	342.2	43.7	-56.0	0.0
2025-01-17 15:18:09.650863	342.2	43.4	-55.9	0.0
2025-01-17 15:18:10.784886	342.2	43.0	-53.9	0.0
2025-01-17 15:18:11.919907	342.1	42.7	-53.4	0.0
2025-01-17 15:18:13.054443	342.1	42.4	-53.2	0.0
2025-01-17 15:18:14.190461	342.0	42.1	-49.6	0.0
2025-01-17 15:18:15.327476	342.0	41.8	-53.5	0.0
2025-01-17 15:18:16.463009	341.9	41.5	-52.2	0.0
2025-01-17 15:18:17.599028	341.9	41.2	-53.9	0.0
2025-01-17 15:18:18.736042	341.9	40.9	-51.4	0.0
2025-01-17 15:18:19.870066	341.8	40.6	-52.6	0.0
2025-01-17 15:18:21.005086	341.8	40.3	-52.6	0.0
2025-01-17 15:18:22.141104	341.7	40.0	-51.8	0.0
2025-01-17 15:18:23.277122	341.7	39.7	-54.5	0.0
2025-01-17 15:18:24.414137	341.7	39.4	-54.6	0.0
2025-01-17 15:18:25.550278	341.6	39.1	-54.5	0.0
2025-01-17 15:18:26.686294	341.6	38.8	-54.0	0.0
2025-01-17 15:18:27.821315	341.6	38.6	-54.0	0.0
2025-01-17 15:18:28.958331	341.5	38.3	-51.8	0.0
2025-01-17 15:18:30.095346	341.5	38.0	-51.5	0.0
2025-01-17 15:18:31.230366	341.5	37.7	-54.6	0.0
2025-01-17 15:18:32.365387	341.4	37.4	-50.9	0.0
2025-01-17 15:18:33.500329	341.4	37.2	-54.6	0.0
2025-01-17 15:18:34.634982	341.4	36.9	-53.7	0.0
2025-01-17 15:18:35.769005	341.4	36.6	-54.4	0.0
2025-01-17 15:18:36.906021	341.3	36.4	-54.4	0.0
2025-01-17 15:18:38.042040	341.3	36.1	-54.5	0.0
2025-01-17 15:18:39.180052	341.3	35.9	-55.6	0.0
2025-01-17 15:18:40.318058	341.2	35.6	-55.9	0.0
2025-01-17 15:18:41.455582	341.2	35.3	-55.8	0.0
2025-01-17 15:18:42.591111	341.2	35.1	-54.1	0.0
2025-01-17 15:18:43.728127	341.2	34.8	-51.1	0.0
2025-01-17 15:18:44.862150	341.1	34.6	-53.5	0.0
2025-01-17 15:18:45.994683	341.1	34.3	-53.0	0.0
2025-01-17 15:18:47.128707	341.1	34.1	-54.1	0.0
2025-01-17 15:18:48.262241	341.1	33.8	-54.9	0.0
2025-01-17 15:18:49.397267	341.0	33.6	-54.0	0.0
2025-01-17 15:18:50.540775	341.0	33.4	-54.0	0.0
2025-01-17 15:18:51.675800	341.0	33.1	-55.6	0.0
2025-01-17 15:18:52.815807	341.0	32.9	-54.9	0.0
2025-01-17 15:18:53.952824	341.0	32.7	-53.6	0.0
2025-01-17 15:18:55.087845	340.9	32.4	-54.8	0.0
2025-01-17 15:18:56.226854	340.9	32.2	-50.8	0.0
2025-01-17 15:18:57.362872	340.9	32.0	-52.2	0.0
2025-01-17 15:18:58.497893	340.9	31.7	-53.0	0.0
2025-01-17 15:18:59.631917	340.9	31.5	-54.2	0.0
2025-01-17 15:19:00.764942	340.8	31.3	-54.5	0.0
2025-01-17 15:19:01.904950	340.8	31.1	-54.8	0.0
2025-01-17 15:19:03.043959	340.8	30.8	-49.5	0.0
2025-01-17 15:19:04.178985	340.8	30.6	-52.1	0.0
2025-01-17 15:19:05.319994	340.8	30.4	-54.3	0.0
2025-01-17 15:19:06.455517	340.7	30.2	-53.4	0.0
2025-01-17 15:19:07.594527	340.7	30.0	-58.7	0.0
#Closed at: 2025-01-17 15:13:22.777497