passes_logs/2025/01/17/Planum_Noyabrsk/Planum_Noyabrsk__20250117_054146_NOAA_18_rec.log

#Pass ID: 20250117_054146_NOAA 18
#Satellite: NOAA 18
#Configuration: NOAA 18
#Start time: 2025-01-17 05:41:51.914759

#LorettStation: 1.0.0 05.05.2024
#Station: Planum_Noyabrsk
#Location: 75.446886 lon 63.207202 lat
#TLE: 1 28654U 05018A   25016.15379782  .00000321  00000+0  19399-3 0  9994
#TLE: 2 28654  98.8565  97.1968 0014416 175.9109 184.2183 14.13487365 13346

#Time	Az	El	Level	SNR
2025-01-17 05:41:58.093847	57.3	30.7	-47.4	0.0
2025-01-17 05:41:59.221091	57.6	30.9	-51.2	0.0
2025-01-17 05:42:00.350566	57.9	31.0	-50.9	0.0
2025-01-17 05:42:01.480059	58.3	31.1	-53.7	0.0
2025-01-17 05:42:02.607530	58.6	31.2	-48.8	0.0
2025-01-17 05:42:03.737071	58.9	31.4	-53.4	0.0
2025-01-17 05:42:04.866219	59.2	31.5	-50.9	0.0
2025-01-17 05:42:05.995144	59.5	31.6	-48.2	0.0
2025-01-17 05:42:07.127787	59.9	31.8	-49.6	0.0
2025-01-17 05:42:08.256500	60.2	31.9	-54.7	0.0
2025-01-17 05:42:09.387364	60.5	32.0	-50.5	0.0
2025-01-17 05:42:10.519976	60.9	32.1	-51.4	0.0
2025-01-17 05:42:11.650309	61.2	32.3	-50.5	0.0
2025-01-17 05:42:12.782641	61.5	32.4	-50.1	0.0
2025-01-17 05:42:13.912085	61.9	32.5	-51.5	0.0
2025-01-17 05:42:15.044187	62.2	32.6	-51.0	0.0
2025-01-17 05:42:16.175411	62.6	32.8	-58.0	0.0
2025-01-17 05:42:17.306398	62.9	32.9	-49.5	0.0
2025-01-17 05:42:18.432187	63.3	33.0	-53.0	0.0
2025-01-17 05:42:19.563299	63.6	33.1	-59.8	0.0
2025-01-17 05:42:20.696799	64.0	33.3	-58.5	0.0
2025-01-17 05:42:21.826231	64.4	33.4	-59.1	0.0
2025-01-17 05:42:22.953998	64.7	33.5	-51.7	0.0
2025-01-17 05:42:24.085803	65.1	33.6	-58.4	0.0
2025-01-17 05:42:25.215214	65.5	33.7	-58.4	0.0
2025-01-17 05:42:26.348975	65.8	33.9	-52.1	0.0
2025-01-17 05:42:27.480343	66.2	34.0	-52.8	0.0
2025-01-17 05:42:28.609971	66.6	34.1	-54.0	0.0
2025-01-17 05:42:29.741567	67.0	34.2	-59.7	0.0
2025-01-17 05:42:30.870050	67.4	34.3	-56.0	0.0
2025-01-17 05:42:31.998027	67.7	34.4	-53.9	0.0
2025-01-17 05:42:33.126863	68.1	34.5	-60.3	0.0
2025-01-17 05:42:34.257946	68.5	34.7	-59.7	0.0
2025-01-17 05:42:35.386043	68.9	34.8	-60.1	0.0
2025-01-17 05:42:36.515595	69.3	34.9	-57.8	0.0
2025-01-17 05:42:37.645678	69.7	35.0	-59.7	0.0
2025-01-17 05:42:38.774369	70.1	35.1	-56.9	0.0
2025-01-17 05:42:39.903274	70.5	35.2	-55.7	0.0
2025-01-17 05:42:41.033721	70.9	35.3	-55.3	0.0
2025-01-17 05:42:42.163270	71.3	35.4	-54.0	0.0
2025-01-17 05:42:43.293746	71.7	35.5	-59.0	0.0
2025-01-17 05:42:44.426269	72.2	35.6	-56.9	0.0
2025-01-17 05:42:45.557220	72.6	35.7	-58.8	0.0
2025-01-17 05:42:46.686859	73.0	35.8	-58.4	0.0
2025-01-17 05:42:47.817117	73.4	35.9	-58.8	0.0
2025-01-17 05:42:48.945632	73.8	36.0	-58.8	0.0
2025-01-17 05:42:50.076825	74.3	36.1	-58.2	0.0
2025-01-17 05:42:51.205721	74.7	36.2	-52.3	0.0
2025-01-17 05:42:52.337312	75.1	36.3	-55.6	0.0
2025-01-17 05:42:53.469660	75.6	36.4	-57.2	0.0
2025-01-17 05:42:54.602090	76.0	36.4	-53.1	0.0
2025-01-17 05:42:55.735018	76.4	36.5	-52.6	0.0
2025-01-17 05:42:56.867511	76.9	36.6	-55.1	0.0
2025-01-17 05:42:57.994777	77.3	36.7	-55.0	0.0
2025-01-17 05:42:59.124596	77.8	36.8	-53.8	0.0
2025-01-17 05:43:00.254777	78.2	36.8	-52.4	0.0
2025-01-17 05:43:01.386837	78.7	36.9	-52.9	0.0
2025-01-17 05:43:02.517962	79.1	37.0	-51.2	0.0
2025-01-17 05:43:03.647373	79.6	37.1	-52.5	0.0
2025-01-17 05:43:04.778345	80.0	37.1	-56.0	0.0
2025-01-17 05:43:05.908517	80.5	37.2	-53.2	0.0
2025-01-17 05:43:07.037478	80.9	37.3	-52.1	0.0
2025-01-17 05:43:08.168507	81.4	37.3	-56.2	0.0
2025-01-17 05:43:09.298783	81.9	37.4	-51.7	0.0
2025-01-17 05:43:10.430901	82.3	37.5	-49.1	0.0
2025-01-17 05:43:11.558844	82.8	37.5	-49.9	0.0
2025-01-17 05:43:12.690082	83.3	37.6	-49.4	0.0
2025-01-17 05:43:13.818866	83.7	37.6	-48.5	0.0
2025-01-17 05:43:14.951390	84.2	37.7	-51.1	0.0
2025-01-17 05:43:16.079875	84.7	37.8	-51.4	0.0
2025-01-17 05:43:17.211252	85.1	37.8	-54.1	0.0
2025-01-17 05:43:18.340898	85.6	37.9	-49.9	0.0
2025-01-17 05:43:19.470493	86.1	37.9	-50.3	0.0
2025-01-17 05:43:20.598685	86.6	37.9	-54.1	0.0
2025-01-17 05:43:21.731284	87.1	38.0	-52.3	0.0
2025-01-17 05:43:22.859868	87.5	38.0	-53.8	0.0
2025-01-17 05:43:23.991910	88.0	38.1	-52.3	0.0
2025-01-17 05:43:25.122148	88.5	38.1	-53.2	0.0
2025-01-17 05:43:26.253604	89.0	38.1	-53.3	0.0
2025-01-17 05:43:27.388254	89.5	38.2	-55.4	0.0
2025-01-17 05:43:28.519989	90.0	38.2	-50.4	0.0
2025-01-17 05:43:29.650810	90.4	38.2	-49.6	0.0
2025-01-17 05:43:30.782888	90.9	38.2	-50.5	0.0
2025-01-17 05:43:31.911693	91.4	38.3	-51.2	0.0
2025-01-17 05:43:33.040499	91.9	38.3	-52.6	0.0
2025-01-17 05:43:34.169926	92.4	38.3	-54.2	0.0
2025-01-17 05:43:35.299598	92.9	38.3	-51.2	0.0
2025-01-17 05:43:36.431440	93.4	38.3	-51.9	0.0
2025-01-17 05:43:37.562223	93.9	38.3	-52.0	0.0
2025-01-17 05:43:38.696774	94.4	38.3	-52.6	0.0
2025-01-17 05:43:39.827884	94.9	38.3	-52.0	0.0
2025-01-17 05:43:40.960154	95.3	38.3	-50.7	0.0
2025-01-17 05:43:42.092147	95.8	38.3	-52.8	0.0
2025-01-17 05:43:43.224124	96.3	38.3	-50.8	0.0
2025-01-17 05:43:44.353839	96.8	38.3	-58.3	0.0
2025-01-17 05:43:45.484613	97.3	38.3	-54.6	0.0
2025-01-17 05:43:46.615859	97.8	38.3	-51.7	0.0
2025-01-17 05:43:47.746893	98.3	38.3	-52.0	0.0
2025-01-17 05:43:48.879131	98.8	38.3	-54.3	0.0
2025-01-17 05:43:50.012126	99.3	38.3	-51.8	0.0
2025-01-17 05:43:51.143626	99.8	38.3	-56.0	0.0
2025-01-17 05:43:52.275850	100.3	38.2	-52.1	0.0
2025-01-17 05:43:53.407270	100.8	38.2	-52.6	0.0
2025-01-17 05:43:54.537907	101.2	38.2	-53.7	0.0
2025-01-17 05:43:55.670726	101.7	38.2	-54.0	0.0
2025-01-17 05:43:56.803789	102.2	38.1	-58.8	0.0
2025-01-17 05:43:57.934852	102.7	38.1	-53.2	0.0
2025-01-17 05:43:59.063690	103.2	38.1	-58.0	0.0
2025-01-17 05:44:00.193099	103.7	38.0	-52.1	0.0
2025-01-17 05:44:01.324775	104.1	38.0	-54.5	0.0
2025-01-17 05:44:02.456721	104.6	38.0	-53.5	0.0
2025-01-17 05:44:03.587951	105.1	37.9	-54.1	0.0
2025-01-17 05:44:04.719955	105.6	37.9	-56.9	0.0
2025-01-17 05:44:05.850822	106.1	37.8	-51.2	0.0
2025-01-17 05:44:06.982393	106.5	37.8	-50.0	0.0
2025-01-17 05:44:08.114716	107.0	37.7	-53.4	0.0
2025-01-17 05:44:09.250355	107.5	37.7	-50.3	0.0
2025-01-17 05:44:10.382037	108.0	37.6	-50.8	0.0
2025-01-17 05:44:11.513095	108.4	37.6	-51.9	0.0
2025-01-17 05:44:12.644309	108.9	37.5	-52.3	0.0
2025-01-17 05:44:13.777782	109.4	37.4	-52.7	0.0
2025-01-17 05:44:14.909525	109.8	37.4	-55.3	0.0
2025-01-17 05:44:16.045178	110.3	37.3	-51.2	0.0
2025-01-17 05:44:17.178657	110.8	37.2	-51.8	0.0
2025-01-17 05:44:18.309205	111.2	37.2	-50.9	0.0
2025-01-17 05:44:19.440929	111.7	37.1	-51.5	0.0
2025-01-17 05:44:20.573760	112.1	37.0	-52.4	0.0
2025-01-17 05:44:21.707690	112.6	37.0	-52.6	0.0
2025-01-17 05:44:22.840501	113.1	36.9	-53.5	0.0
2025-01-17 05:44:23.972750	113.5	36.8	-52.3	0.0
2025-01-17 05:44:25.107643	114.0	36.7	-52.0	0.0
2025-01-17 05:44:26.238651	114.4	36.6	-52.9	0.0
2025-01-17 05:44:27.370312	114.8	36.6	-53.5	0.0
2025-01-17 05:44:28.503948	115.3	36.5	-54.2	0.0
2025-01-17 05:44:29.633670	115.7	36.4	-52.1	0.0
2025-01-17 05:44:30.763768	116.2	36.3	-54.6	0.0
2025-01-17 05:44:31.895232	116.6	36.2	-54.7	0.0
2025-01-17 05:44:33.026198	117.0	36.1	-52.8	0.0
2025-01-17 05:44:34.158256	117.5	36.0	-55.5	0.0
2025-01-17 05:44:35.290196	117.9	35.9	-58.1	0.0
2025-01-17 05:44:36.421419	118.3	35.8	-52.3	0.0
2025-01-17 05:44:37.552586	118.7	35.7	-55.0	0.0
2025-01-17 05:44:38.685792	119.1	35.6	-54.4	0.0
2025-01-17 05:44:39.818783	119.6	35.5	-54.4	0.0
2025-01-17 05:44:40.952371	120.0	35.4	-54.6	0.0
2025-01-17 05:44:42.084310	120.4	35.3	-54.4	0.0
2025-01-17 05:44:43.215589	120.8	35.2	-54.8	0.0
2025-01-17 05:44:44.347497	121.2	35.1	-54.5	0.0
2025-01-17 05:44:45.477505	121.6	35.0	-55.1	0.0
2025-01-17 05:44:46.608576	122.0	34.9	-56.4	0.0
2025-01-17 05:44:47.739609	122.4	34.8	-58.0	0.0
2025-01-17 05:44:48.868414	122.8	34.7	-60.7	0.0
2025-01-17 05:44:50.003883	123.2	34.6	-58.1	0.0
2025-01-17 05:44:51.132604	123.6	34.5	-56.0	0.0
2025-01-17 05:44:52.263868	124.0	34.3	-58.7	0.0
2025-01-17 05:44:53.395031	124.4	34.2	-59.7	0.6
2025-01-17 05:44:54.527859	124.8	34.1	-58.0	0.0
2025-01-17 05:44:55.660157	125.1	34.0	-58.6	0.0
2025-01-17 05:44:56.793176	125.5	33.9	-58.7	0.0
2025-01-17 05:44:57.927352	125.9	33.8	-58.8	0.0
2025-01-17 05:44:59.060154	126.3	33.6	-57.4	4.2
2025-01-17 05:45:00.190465	126.6	33.5	-55.1	0.0
2025-01-17 05:45:01.321136	127.0	33.4	-61.1	4.7
2025-01-17 05:45:02.451718	127.4	33.3	-61.0	0.3
2025-01-17 05:45:03.584460	127.7	33.2	-55.3	0.0
2025-01-17 05:45:04.716536	128.1	33.0	-62.3	3.4
2025-01-17 05:45:05.848943	128.4	32.9	-58.0	0.0
2025-01-17 05:45:06.979452	128.8	32.8	-62.2	3.9
2025-01-17 05:45:08.109586	129.2	32.7	-62.3	7.0
2025-01-17 05:45:09.238710	129.5	32.5	-58.7	1.3
2025-01-17 05:45:10.369123	129.8	32.4	-60.5	3.6
2025-01-17 05:45:11.501176	130.2	32.3	-57.7	0.0
2025-01-17 05:45:12.633838	130.5	32.2	-60.8	6.2
2025-01-17 05:45:13.764598	130.9	32.0	-59.7	6.6
2025-01-17 05:45:14.898394	131.2	31.9	-60.1	5.4
2025-01-17 05:45:16.029573	131.5	31.8	-60.7	0.0
2025-01-17 05:45:17.162065	131.9	31.6	-63.3	7.5
2025-01-17 05:45:18.294979	132.2	31.5	-57.5	0.0
2025-01-17 05:45:19.426971	132.5	31.4	-62.9	3.4
2025-01-17 05:45:20.558843	132.9	31.2	-59.9	0.0
2025-01-17 05:45:21.694616	133.2	31.1	-58.6	0.0
2025-01-17 05:45:22.827222	133.5	31.0	-62.6	4.0
2025-01-17 05:45:23.956317	133.8	30.8	-62.7	0.0
2025-01-17 05:45:25.089249	134.1	30.7	-61.9	4.0
2025-01-17 05:45:26.222129	134.4	30.6	-61.4	0.5
2025-01-17 05:45:27.352160	134.7	30.4	-62.9	0.0
2025-01-17 05:45:28.485295	135.0	30.3	-59.6	0.0
2025-01-17 05:45:29.618616	135.3	30.2	-62.5	1.8
2025-01-17 05:45:30.754061	135.6	30.0	-60.3	0.0
2025-01-17 05:45:31.890633	135.9	29.9	-61.6	0.0
#Closed at: 2025-01-17 05:41:46.917845