passes_logs/2025/01/17/Planum_Noyabrsk/Planum_Noyabrsk__20250117_171916_NOAA_18_rec.log

#Pass ID: 20250117_171916_NOAA 18
#Satellite: NOAA 18
#Configuration: NOAA 18
#Start time: 2025-01-17 17:19:21.213296

#LorettStation: 1.0.0 05.05.2024
#Station: Planum_Noyabrsk
#Location: 75.446886 lon 63.207202 lat
#TLE: 1 28654U 05018A   25016.15379782  .00000321  00000+0  19399-3 0  9994
#TLE: 2 28654  98.8565  97.1968 0014416 175.9109 184.2183 14.13487365 13346

#Time	Az	El	Level	SNR
2025-01-17 17:19:27.904708	201.6	31.1	-63.9	7.0
2025-01-17 17:19:29.039691	201.9	31.2	-63.3	7.0
2025-01-17 17:19:30.172565	202.1	31.4	-63.5	7.9
2025-01-17 17:19:31.305551	202.3	31.6	-63.3	6.7
2025-01-17 17:19:32.439536	202.5	31.8	-64.2	7.1
2025-01-17 17:19:33.571524	202.8	32.0	-64.1	8.2
2025-01-17 17:19:34.703516	203.0	32.2	-64.4	8.9
2025-01-17 17:19:35.836501	203.2	32.4	-64.3	7.1
2025-01-17 17:19:36.972479	203.5	32.5	-64.5	9.6
2025-01-17 17:19:38.106467	203.7	32.7	-64.9	10.0
2025-01-17 17:19:39.240961	203.9	32.9	-64.3	9.0
2025-01-17 17:19:40.372944	204.2	33.1	-64.5	9.0
2025-01-17 17:19:41.504934	204.4	33.3	-64.6	10.0
2025-01-17 17:19:42.638917	204.7	33.5	-64.5	9.5
2025-01-17 17:19:43.771417	204.9	33.7	-64.6	10.4
2025-01-17 17:19:44.906401	205.2	33.9	-64.6	10.3
2025-01-17 17:19:46.040383	205.4	34.1	-64.9	10.0
2025-01-17 17:19:47.174366	205.7	34.3	-64.6	10.2
2025-01-17 17:19:48.307860	206.0	34.5	-65.3	10.8
2025-01-17 17:19:49.441843	206.2	34.7	-65.1	10.3
2025-01-17 17:19:50.577823	206.5	34.8	-64.7	11.2
2025-01-17 17:19:51.710808	206.8	35.0	-64.8	9.7
2025-01-17 17:19:52.843874	207.1	35.2	-64.4	8.9
2025-01-17 17:19:53.976861	207.3	35.4	-65.1	11.0
2025-01-17 17:19:55.109848	207.6	35.6	-65.0	9.6
2025-01-17 17:19:56.242835	207.9	35.8	-64.9	9.9
2025-01-17 17:19:57.378812	208.2	36.0	-64.1	8.4
2025-01-17 17:19:58.512797	208.5	36.2	-65.3	10.2
2025-01-17 17:19:59.646780	208.8	36.4	-64.9	10.4
2025-01-17 17:20:00.779279	209.1	36.6	-65.3	11.6
2025-01-17 17:20:01.912773	209.4	36.8	-63.9	8.2
2025-01-17 17:20:03.045760	209.7	37.0	-64.7	9.9
2025-01-17 17:20:04.179752	210.0	37.2	-64.8	8.4
2025-01-17 17:20:05.314262	210.3	37.4	-64.6	8.5
2025-01-17 17:20:06.452234	210.7	37.6	-64.2	9.8
2025-01-17 17:20:07.588213	211.0	37.8	-64.3	9.7
2025-01-17 17:20:08.722196	211.3	38.0	-64.1	10.0
2025-01-17 17:20:09.856181	211.6	38.2	-64.4	9.1
2025-01-17 17:20:10.988175	212.0	38.4	-64.3	10.5
2025-01-17 17:20:12.123157	212.3	38.6	-64.2	9.2
2025-01-17 17:20:13.257142	212.7	38.8	-64.7	10.1
2025-01-17 17:20:14.393118	213.0	39.0	-64.3	8.5
2025-01-17 17:20:15.526619	213.4	39.2	-64.8	10.5
2025-01-17 17:20:16.659606	213.7	39.4	-65.0	10.4
2025-01-17 17:20:17.793590	214.1	39.6	-65.7	10.5
2025-01-17 17:20:18.927574	214.4	39.8	-63.8	8.8
2025-01-17 17:20:20.062062	214.8	40.0	-64.4	9.4
2025-01-17 17:20:21.196045	215.2	40.2	-65.8	9.5
2025-01-17 17:20:22.328035	215.6	40.4	-65.3	10.8
2025-01-17 17:20:23.461022	215.9	40.6	-65.2	8.4
2025-01-17 17:20:24.594894	216.3	40.8	-64.7	10.8
2025-01-17 17:20:25.728878	216.7	41.0	-64.2	9.9
2025-01-17 17:20:26.861864	217.1	41.2	-64.7	9.1
2025-01-17 17:20:27.995849	217.5	41.4	-64.4	9.6
2025-01-17 17:20:29.129343	217.9	41.6	-65.0	10.2
2025-01-17 17:20:30.264325	218.3	41.8	-64.8	12.6
2025-01-17 17:20:31.399306	218.8	42.0	-65.9	10.3
2025-01-17 17:20:32.532293	219.2	42.2	-65.3	12.1
2025-01-17 17:20:33.668777	219.6	42.4	-65.7	12.4
2025-01-17 17:20:34.801763	220.0	42.6	-64.3	11.1
2025-01-17 17:20:35.936748	220.5	42.8	-64.8	12.4
2025-01-17 17:20:37.069731	220.9	43.0	-65.3	10.3
2025-01-17 17:20:38.202718	221.4	43.2	-65.3	12.6
2025-01-17 17:20:39.336703	221.8	43.4	-65.0	11.5
2025-01-17 17:20:40.470685	222.3	43.6	-64.4	12.2
2025-01-17 17:20:41.605668	222.7	43.7	-65.1	13.2
2025-01-17 17:20:42.738680	223.2	43.9	-65.3	13.5
2025-01-17 17:20:43.871665	223.7	44.1	-65.5	13.0
2025-01-17 17:20:45.005650	224.2	44.3	-65.9	12.7
2025-01-17 17:20:46.139633	224.6	44.5	-65.6	12.5
2025-01-17 17:20:47.274615	225.1	44.7	-65.5	10.6
2025-01-17 17:20:48.407601	225.6	44.9	-64.8	12.1
2025-01-17 17:20:49.543580	226.1	45.0	-65.3	13.2
2025-01-17 17:20:50.675572	226.6	45.2	-64.6	12.0
2025-01-17 17:20:51.811549	227.2	45.4	-64.4	11.2
2025-01-17 17:20:52.946528	227.7	45.6	-65.2	12.5
2025-01-17 17:20:54.081510	228.2	45.7	-65.2	12.5
2025-01-17 17:20:55.214026	228.7	45.9	-64.9	14.0
2025-01-17 17:20:56.348013	229.3	46.1	-65.0	8.9
2025-01-17 17:20:57.482166	229.8	46.2	-65.0	12.7
2025-01-17 17:20:58.617150	230.4	46.4	-64.0	13.8
2025-01-17 17:20:59.749137	230.9	46.6	-65.4	13.2
2025-01-17 17:21:00.882636	231.5	46.7	-65.3	10.8
2025-01-17 17:21:02.039559	232.0	46.9	-65.6	12.6
2025-01-17 17:21:03.172546	232.6	47.0	-65.8	13.1
2025-01-17 17:21:04.306538	233.2	47.2	-64.6	10.1
2025-01-17 17:21:05.442516	233.8	47.3	-65.3	10.6
2025-01-17 17:21:06.577496	234.4	47.5	-64.6	11.2
2025-01-17 17:21:07.712477	235.0	47.6	-65.3	11.0
2025-01-17 17:21:08.842987	235.5	47.8	-64.3	11.0
2025-01-17 17:21:09.979963	236.2	47.9	-64.8	9.1
2025-01-17 17:21:11.111952	236.8	48.1	-65.1	11.9
2025-01-17 17:21:12.243940	237.4	48.2	-64.9	11.0
2025-01-17 17:21:13.383908	238.0	48.3	-65.1	10.9
2025-01-17 17:21:14.517894	238.6	48.4	-64.5	10.7
2025-01-17 17:21:15.650879	239.2	48.6	-65.0	11.6
2025-01-17 17:21:16.784852	239.9	48.7	-64.3	11.4
2025-01-17 17:21:17.917347	240.5	48.8	-64.5	11.6
2025-01-17 17:21:19.050333	241.2	48.9	-64.4	10.4
2025-01-17 17:21:20.182322	241.8	49.0	-64.5	10.4
2025-01-17 17:21:21.316307	242.5	49.1	-63.7	9.8
2025-01-17 17:21:22.452999	243.1	49.2	-64.0	11.4
2025-01-17 17:21:23.587980	243.8	49.3	-63.8	8.9
2025-01-17 17:21:24.722961	244.4	49.4	-64.2	10.0
2025-01-17 17:21:25.853954	245.1	49.5	-64.7	9.6
2025-01-17 17:21:26.984945	245.8	49.6	-63.7	10.3
2025-01-17 17:21:28.120924	246.5	49.7	-63.7	8.9
2025-01-17 17:21:29.254907	247.1	49.8	-63.9	8.6
2025-01-17 17:21:30.389958	247.8	49.8	-64.2	9.4
2025-01-17 17:21:31.522944	248.5	49.9	-63.8	10.6
2025-01-17 17:21:32.656929	249.2	50.0	-63.9	9.2
2025-01-17 17:21:33.789915	249.9	50.0	-63.4	8.8
2025-01-17 17:21:34.924411	250.6	50.1	-64.2	10.1
2025-01-17 17:21:36.064379	251.3	50.2	-63.8	9.4
2025-01-17 17:21:37.197367	252.0	50.2	-65.0	11.4
2025-01-17 17:21:38.330352	252.7	50.2	-64.5	9.8
2025-01-17 17:21:39.462850	253.4	50.3	-64.7	10.1
2025-01-17 17:21:40.595838	254.1	50.3	-62.9	5.0
2025-01-17 17:21:41.732813	254.8	50.4	-63.2	9.0
2025-01-17 17:21:42.870786	255.5	50.4	-64.0	8.8
2025-01-17 17:21:44.004663	256.2	50.4	-62.0	5.6
2025-01-17 17:21:45.139876	256.9	50.4	-64.2	11.0
2025-01-17 17:21:46.273862	257.7	50.4	-64.9	11.4
2025-01-17 17:21:47.412339	258.4	50.4	-64.5	11.5
2025-01-17 17:21:48.544841	259.1	50.4	-65.4	13.0
2025-01-17 17:21:49.679823	259.8	50.4	-64.0	10.4
2025-01-17 17:21:50.813807	260.5	50.4	-64.6	12.3
2025-01-17 17:21:51.947515	261.2	50.4	-65.1	14.0
2025-01-17 17:21:53.085489	261.9	50.4	-65.2	11.6
2025-01-17 17:21:54.218475	262.7	50.4	-63.1	7.1
2025-01-17 17:21:55.352461	263.4	50.4	-65.8	13.4
2025-01-17 17:21:56.484448	264.1	50.3	-65.8	13.0
2025-01-17 17:21:57.618434	264.8	50.3	-65.9	13.9
2025-01-17 17:21:58.751419	265.5	50.3	-65.5	13.1
2025-01-17 17:21:59.884406	266.2	50.2	-65.8	11.4
2025-01-17 17:22:01.018285	266.9	50.2	-66.0	13.1
2025-01-17 17:22:02.151719	267.6	50.1	-65.3	11.4
2025-01-17 17:22:03.287696	268.3	50.1	-66.0	13.0
2025-01-17 17:22:04.421680	269.0	50.0	-66.3	13.2
2025-01-17 17:22:05.553754	269.7	50.0	-66.2	13.3
2025-01-17 17:22:06.688869	270.4	49.9	-66.2	11.9
2025-01-17 17:22:07.822854	271.0	49.8	-65.8	12.5
2025-01-17 17:22:08.958832	271.7	49.7	-65.7	12.4
2025-01-17 17:22:10.094323	272.4	49.7	-65.0	11.0
2025-01-17 17:22:11.231806	273.1	49.6	-65.6	9.2
2025-01-17 17:22:12.365789	273.8	49.5	-65.6	11.5
2025-01-17 17:22:13.498775	274.4	49.4	-65.5	12.3
2025-01-17 17:22:14.634265	275.1	49.3	-65.6	11.9
2025-01-17 17:22:15.767252	275.8	49.2	-65.1	12.2
2025-01-17 17:22:16.903232	276.4	49.1	-65.0	11.6
2025-01-17 17:22:18.036216	277.1	49.0	-63.4	11.2
2025-01-17 17:22:19.167189	277.7	48.9	-64.5	11.8
2025-01-17 17:22:20.300176	278.3	48.8	-64.4	11.4
2025-01-17 17:22:21.434159	279.0	48.6	-64.1	13.0
2025-01-17 17:22:22.568143	279.6	48.5	-64.3	10.9
2025-01-17 17:22:23.702128	280.2	48.4	-63.5	9.8
2025-01-17 17:22:24.838107	280.9	48.3	-64.0	11.4
2025-01-17 17:22:25.975083	281.5	48.1	-63.1	10.3
2025-01-17 17:22:27.108068	282.1	48.0	-62.8	10.6
2025-01-17 17:22:28.239060	282.7	47.9	-61.8	8.6
2025-01-17 17:22:29.376036	283.3	47.7	-62.6	11.4
2025-01-17 17:22:30.511026	283.9	47.6	-62.4	7.8
2025-01-17 17:22:31.644004	284.5	47.4	-61.5	7.4
2025-01-17 17:22:32.779495	285.1	47.3	-61.7	5.9
2025-01-17 17:22:33.912986	285.6	47.1	-62.8	10.1
2025-01-17 17:22:35.047967	286.2	47.0	-61.7	10.2
2025-01-17 17:22:36.181954	286.8	46.8	-60.8	3.4
2025-01-17 17:22:37.316263	287.4	46.7	-60.3	3.6
2025-01-17 17:22:38.452241	287.9	46.5	-60.2	3.6
2025-01-17 17:22:39.584231	288.5	46.4	-60.4	5.4
2025-01-17 17:22:40.720209	289.0	46.2	-61.2	5.5
2025-01-17 17:22:41.856188	289.5	46.0	-60.2	4.9
2025-01-17 17:22:42.992166	290.1	45.9	-62.1	4.7
2025-01-17 17:22:44.126151	290.6	45.7	-62.2	5.1
2025-01-17 17:22:45.259646	291.1	45.5	-64.3	7.6
2025-01-17 17:22:46.400612	291.7	45.3	-62.6	3.7
2025-01-17 17:22:47.534595	292.2	45.2	-61.3	2.9
2025-01-17 17:22:48.665588	292.7	45.0	-63.4	7.6
2025-01-17 17:22:49.799347	293.2	44.8	-63.6	7.4
2025-01-17 17:22:50.933331	293.7	44.6	-63.9	5.4
2025-01-17 17:22:52.067823	294.2	44.4	-62.6	2.3
2025-01-17 17:22:53.204798	294.6	44.3	-61.5	0.3
2025-01-17 17:22:54.338519	295.1	44.1	-61.9	3.4
2025-01-17 17:22:55.473500	295.6	43.9	-63.0	5.3
2025-01-17 17:22:56.605488	296.1	43.7	-65.2	8.6
2025-01-17 17:22:57.738475	296.5	43.5	-63.0	5.0
2025-01-17 17:22:58.871462	297.0	43.3	-64.0	8.4
2025-01-17 17:23:00.005447	297.4	43.1	-64.4	2.3
2025-01-17 17:23:01.139430	297.9	42.9	-63.4	2.3
2025-01-17 17:23:02.272416	298.3	42.7	-65.8	8.0
2025-01-17 17:23:03.408395	298.7	42.5	-64.1	8.4
2025-01-17 17:23:04.541383	299.2	42.3	-64.8	5.9
2025-01-17 17:23:05.674368	299.6	42.2	-62.4	4.7
2025-01-17 17:23:06.807360	300.0	42.0	-64.7	4.8
2025-01-17 17:23:07.941855	300.4	41.8	-63.6	3.6
2025-01-17 17:23:09.073844	300.8	41.6	-63.9	2.2
2025-01-17 17:23:10.204836	301.3	41.4	-63.3	4.7
2025-01-17 17:23:11.336825	301.7	41.2	-62.8	2.8
2025-01-17 17:23:12.468814	302.0	41.0	-63.8	4.9
2025-01-17 17:23:13.602311	302.4	40.8	-63.8	6.3
2025-01-17 17:23:14.737291	302.8	40.6	-63.1	3.5
2025-01-17 17:23:15.875266	303.2	40.4	-66.9	3.2
2025-01-17 17:23:17.010893	303.6	40.2	-65.5	3.2
2025-01-17 17:23:18.145881	304.0	40.0	-63.7	5.4
2025-01-17 17:23:19.279865	304.3	39.8	-63.0	2.5
2025-01-17 17:23:20.412651	304.7	39.6	-64.4	3.7
2025-01-17 17:23:21.545731	305.1	39.4	-61.7	0.0
2025-01-17 17:23:22.679714	305.4	39.2	-64.7	5.3
2025-01-17 17:23:23.813697	305.8	39.0	-61.4	0.0
2025-01-17 17:23:24.948679	306.1	38.8	-62.6	0.0
2025-01-17 17:23:26.081669	306.4	38.6	-63.2	1.1
2025-01-17 17:23:27.213659	306.8	38.4	-60.2	0.0
2025-01-17 17:23:28.346645	307.1	38.2	-62.9	3.5
2025-01-17 17:23:29.479632	307.4	38.0	-64.0	2.7
2025-01-17 17:23:30.614637	307.8	37.8	-65.0	7.1
2025-01-17 17:23:31.746628	308.1	37.6	-61.5	0.0
2025-01-17 17:23:32.883603	308.4	37.4	-63.4	4.0
2025-01-17 17:23:34.013596	308.7	37.2	-62.0	1.9
2025-01-17 17:23:35.149586	309.0	37.0	-62.6	4.0
2025-01-17 17:23:36.283571	309.3	36.8	-65.1	9.7
2025-01-17 17:23:37.417554	309.6	36.6	-65.1	8.6
2025-01-17 17:23:38.553532	309.9	36.4	-65.2	8.4
2025-01-17 17:23:39.689511	310.2	36.2	-64.4	6.2
2025-01-17 17:23:40.824490	310.5	36.0	-65.0	7.3
2025-01-17 17:23:41.959471	310.8	35.8	-64.8	7.4
2025-01-17 17:23:43.096445	311.1	35.6	-65.3	8.6
2025-01-17 17:23:44.233422	311.4	35.4	-65.5	8.4
2025-01-17 17:23:45.365916	311.7	35.2	-63.9	5.4
2025-01-17 17:23:46.499898	312.0	35.0	-65.5	7.7
2025-01-17 17:23:47.633881	312.2	34.8	-64.2	6.0
2025-01-17 17:23:48.767863	312.5	34.6	-64.0	6.0
2025-01-17 17:23:49.900849	312.8	34.4	-63.5	4.8
2025-01-17 17:23:51.035828	313.0	34.2	-63.8	3.6
2025-01-17 17:23:52.172803	313.3	34.0	-63.6	1.2
2025-01-17 17:23:53.305793	313.5	33.8	-64.4	6.8
2025-01-17 17:23:54.439776	313.8	33.6	-64.4	5.9
2025-01-17 17:23:55.571763	314.1	33.5	-63.7	0.6
2025-01-17 17:23:56.703754	314.3	33.3	-64.4	5.3
2025-01-17 17:23:57.838729	314.5	33.1	-63.5	2.5
2025-01-17 17:23:58.973709	314.8	32.9	-64.1	5.5
2025-01-17 17:24:00.107699	315.0	32.7	-64.3	4.5
2025-01-17 17:24:01.244673	315.3	32.5	-63.9	1.7
2025-01-17 17:24:02.380651	315.5	32.3	-64.6	6.3
2025-01-17 17:24:03.514634	315.7	32.1	-64.3	2.2
2025-01-17 17:24:04.646621	316.0	31.9	-65.5	6.9
2025-01-17 17:24:05.781112	316.2	31.8	-63.4	2.7
2025-01-17 17:24:06.916101	316.4	31.6	-64.4	4.7
2025-01-17 17:24:08.053066	316.6	31.4	-64.3	6.4
2025-01-17 17:24:09.191039	316.9	31.2	-63.5	7.2
2025-01-17 17:24:10.325832	317.1	31.0	-63.3	4.9
2025-01-17 17:24:11.459816	317.3	30.8	-63.8	2.7
2025-01-17 17:24:12.596789	317.5	30.7	-63.8	6.9
2025-01-17 17:24:13.730771	317.7	30.5	-64.3	7.7
2025-01-17 17:24:14.864269	317.9	30.3	-63.4	5.8
2025-01-17 17:24:15.999248	318.1	30.1	-61.6	0.5
2025-01-17 17:24:17.137731	318.3	29.9	-62.8	0.0
#Closed at: 2025-01-17 17:19:16.216805