passes_logs/2025/01/17/Planum_Noyabrsk/Planum_Noyabrsk__20250117_072153_NOAA_18_rec.log

#Pass ID: 20250117_072153_NOAA 18
#Satellite: NOAA 18
#Configuration: NOAA 18
#Start time: 2025-01-17 07:21:58.411517

#LorettStation: 1.0.0 05.05.2024
#Station: Planum_Noyabrsk
#Location: 75.446886 lon 63.207202 lat
#TLE: 1 28654U 05018A   25016.15379782  .00000321  00000+0  19399-3 0  9994
#TLE: 2 28654  98.8565  97.1968 0014416 175.9109 184.2183 14.13487365 13346

#Time	Az	El	Level	SNR
2025-01-17 07:22:04.594866	9.6	31.1	-58.8	1.5
2025-01-17 07:22:05.727843	9.5	31.3	-58.4	0.9
2025-01-17 07:22:06.859832	9.4	31.5	-58.9	0.7
2025-01-17 07:22:07.990821	9.2	31.8	-60.8	2.1
2025-01-17 07:22:09.123814	9.1	32.0	-60.2	1.8
2025-01-17 07:22:10.257799	9.0	32.2	-59.5	1.7
2025-01-17 07:22:11.391781	8.9	32.4	-59.5	2.2
2025-01-17 07:22:12.524766	8.7	32.6	-60.2	0.0
2025-01-17 07:22:13.658749	8.6	32.8	-60.0	1.4
2025-01-17 07:22:14.792732	8.5	33.1	-61.1	5.0
2025-01-17 07:22:15.926716	8.3	33.3	-59.9	1.6
2025-01-17 07:22:17.061697	8.2	33.5	-60.4	2.7
2025-01-17 07:22:18.193743	8.1	33.7	-60.8	3.9
2025-01-17 07:22:19.329167	7.9	34.0	-60.8	3.3
2025-01-17 07:22:20.463150	7.8	34.2	-60.8	2.6
2025-01-17 07:22:21.597132	7.6	34.4	-62.6	5.3
2025-01-17 07:22:22.730125	7.5	34.7	-61.4	4.1
2025-01-17 07:22:23.865105	7.3	34.9	-62.7	7.8
2025-01-17 07:22:24.998090	7.2	35.1	-63.4	6.1
2025-01-17 07:22:26.131080	7.0	35.4	-62.3	4.3
2025-01-17 07:22:27.266057	6.9	35.6	-64.6	6.8
2025-01-17 07:22:28.401037	6.7	35.9	-63.0	7.0
2025-01-17 07:22:29.533027	6.5	36.1	-63.4	7.0
2025-01-17 07:22:30.667007	6.4	36.3	-61.8	3.9
2025-01-17 07:22:31.800503	6.2	36.6	-63.4	7.6
2025-01-17 07:22:32.956427	6.0	36.8	-63.5	7.9
2025-01-17 07:22:34.089413	5.9	37.1	-63.3	3.6
2025-01-17 07:22:35.224527	5.7	37.3	-63.7	6.7
2025-01-17 07:22:36.358510	5.5	37.6	-62.4	5.3
2025-01-17 07:22:37.492494	5.3	37.8	-62.8	7.4
2025-01-17 07:22:38.624481	5.2	38.1	-62.2	4.8
2025-01-17 07:22:39.757470	5.0	38.3	-63.5	7.5
2025-01-17 07:22:40.890452	4.8	38.6	-61.8	6.7
2025-01-17 07:22:42.023438	4.6	38.9	-63.9	8.7
2025-01-17 07:22:43.158929	4.4	39.1	-63.5	10.0
2025-01-17 07:22:44.292911	4.2	39.4	-62.0	7.2
2025-01-17 07:22:45.427892	4.0	39.6	-62.9	8.7
2025-01-17 07:22:46.559882	3.8	39.9	-62.1	5.5
2025-01-17 07:22:47.695858	3.6	40.2	-62.6	7.0
2025-01-17 07:22:48.827353	3.4	40.4	-62.9	6.5
2025-01-17 07:22:49.960342	3.2	40.7	-62.5	7.4
2025-01-17 07:22:51.093327	2.9	41.0	-62.3	8.3
2025-01-17 07:22:52.228307	2.7	41.3	-61.4	5.4
2025-01-17 07:22:53.361295	2.5	41.5	-63.0	8.1
2025-01-17 07:22:54.496033	2.3	41.8	-60.9	5.3
2025-01-17 07:22:55.628024	2.0	42.1	-62.8	9.1
2025-01-17 07:22:56.760010	1.8	42.4	-62.1	4.2
2025-01-17 07:22:57.894498	1.5	42.6	-62.8	6.2
2025-01-17 07:22:59.029479	1.3	42.9	-62.9	9.2
2025-01-17 07:23:00.163977	1.0	43.2	-59.7	2.5
2025-01-17 07:23:01.296963	0.8	43.5	-61.4	6.8
2025-01-17 07:23:02.429947	0.5	43.8	-61.5	3.9
2025-01-17 07:23:03.562653	0.3	44.1	-62.4	7.3
2025-01-17 07:23:04.696634	360.0	44.4	-63.4	8.1
2025-01-17 07:23:05.830618	359.7	44.7	-61.4	7.5
2025-01-17 07:23:06.963607	359.4	44.9	-63.0	9.4
2025-01-17 07:23:08.097591	359.1	45.2	-61.8	7.4
2025-01-17 07:23:09.233568	358.9	45.5	-61.1	6.1
2025-01-17 07:23:10.374533	358.6	45.8	-60.5	3.6
2025-01-17 07:23:11.508515	358.3	46.1	-61.7	7.8
2025-01-17 07:23:12.641503	357.9	46.4	-60.8	5.8
2025-01-17 07:23:13.778479	357.6	46.7	-62.0	8.8
2025-01-17 07:23:14.913456	357.3	47.0	-61.5	7.1
2025-01-17 07:23:16.048437	357.0	47.3	-60.8	5.7
2025-01-17 07:23:17.183420	356.6	47.6	-60.7	6.8
2025-01-17 07:23:18.318403	356.3	47.9	-59.9	5.5
2025-01-17 07:23:19.452386	356.0	48.2	-60.5	6.6
2025-01-17 07:23:20.583383	355.6	48.6	-60.7	5.8
2025-01-17 07:23:21.718365	355.2	48.9	-60.4	4.5
2025-01-17 07:23:22.850352	354.9	49.2	-60.9	4.6
2025-01-17 07:23:23.983339	354.5	49.5	-60.3	3.6
2025-01-17 07:23:25.117326	354.1	49.8	-60.8	4.8
2025-01-17 07:23:26.251929	353.7	50.1	-59.5	0.1
2025-01-17 07:23:27.386909	353.3	50.4	-61.2	3.3
2025-01-17 07:23:28.519895	352.9	50.7	-61.4	3.8
2025-01-17 07:23:29.655872	352.5	51.0	-60.9	1.8
2025-01-17 07:23:30.791850	352.1	51.4	-60.5	0.4
2025-01-17 07:23:31.926830	351.6	51.7	-61.3	0.0
2025-01-17 07:23:33.061813	351.2	52.0	-62.8	5.5
2025-01-17 07:23:34.193799	350.7	52.3	-60.1	0.0
2025-01-17 07:23:35.333767	350.2	52.6	-63.3	4.5
2025-01-17 07:23:36.468746	349.8	52.9	-62.4	2.9
2025-01-17 07:23:37.605722	349.3	53.2	-62.0	3.4
2025-01-17 07:23:38.741702	348.8	53.6	-61.9	3.8
2025-01-17 07:23:39.873688	348.3	53.9	-60.4	1.6
2025-01-17 07:23:41.007672	347.8	54.2	-61.3	3.0
2025-01-17 07:23:42.140821	347.2	54.5	-60.7	1.5
2025-01-17 07:23:43.277798	346.7	54.8	-60.8	2.7
2025-01-17 07:23:44.411781	346.1	55.1	-59.4	0.0
2025-01-17 07:23:45.546761	345.6	55.4	-60.4	0.0
2025-01-17 07:23:46.680743	345.0	55.7	-60.6	0.0
2025-01-17 07:23:47.815723	344.4	56.0	-62.5	2.2
2025-01-17 07:23:48.950704	343.8	56.3	-61.7	1.0
2025-01-17 07:23:50.083690	343.2	56.7	-61.1	0.0
2025-01-17 07:23:51.216675	342.5	57.0	-61.9	0.2
2025-01-17 07:23:52.350658	341.9	57.3	-59.9	0.0
2025-01-17 07:23:53.483644	341.2	57.6	-61.6	0.0
2025-01-17 07:23:54.618624	340.6	57.9	-61.4	0.0
2025-01-17 07:23:55.754604	339.9	58.1	-60.2	0.0
2025-01-17 07:23:56.889582	339.2	58.4	-61.7	1.4
2025-01-17 07:23:58.023566	338.4	58.7	-61.4	2.5
2025-01-17 07:23:59.156550	337.7	59.0	-60.2	0.0
2025-01-17 07:24:00.290044	336.9	59.3	-60.1	0.3
2025-01-17 07:24:01.425357	336.2	59.6	-61.1	1.5
2025-01-17 07:24:02.559339	335.4	59.9	-59.5	0.7
2025-01-17 07:24:03.693322	334.6	60.1	-62.6	6.5
2025-01-17 07:24:04.828812	333.7	60.4	-60.0	2.4
2025-01-17 07:24:05.961800	332.9	60.7	-60.7	4.6
2025-01-17 07:24:07.095782	332.0	60.9	-60.0	2.8
2025-01-17 07:24:08.229765	331.2	61.2	-59.4	5.2
2025-01-17 07:24:09.363277	330.3	61.4	-62.3	8.4
2025-01-17 07:24:10.497261	329.4	61.7	-59.1	2.7
2025-01-17 07:24:11.631242	328.4	61.9	-62.3	8.1
2025-01-17 07:24:12.766223	327.5	62.1	-60.9	5.6
2025-01-17 07:24:13.899715	326.5	62.4	-60.0	4.5
2025-01-17 07:24:15.032699	325.5	62.6	-60.9	6.1
2025-01-17 07:24:16.165685	324.5	62.8	-59.9	2.2
2025-01-17 07:24:17.299096	323.5	63.0	-61.8	8.4
2025-01-17 07:24:18.433584	322.5	63.2	-61.8	6.3
2025-01-17 07:24:19.567568	321.4	63.4	-62.6	6.6
2025-01-17 07:24:20.700553	320.3	63.6	-61.5	4.3
2025-01-17 07:24:21.832542	319.3	63.8	-62.9	7.1
2025-01-17 07:24:22.968519	318.2	63.9	-61.0	3.4
2025-01-17 07:24:24.103503	317.0	64.1	-62.1	6.1
2025-01-17 07:24:25.239477	315.9	64.3	-63.5	8.7
2025-01-17 07:24:26.374977	314.7	64.4	-63.1	4.2
2025-01-17 07:24:27.509960	313.6	64.5	-61.1	3.2
2025-01-17 07:24:28.645935	312.4	64.7	-61.6	5.2
2025-01-17 07:24:29.778923	311.2	64.8	-60.6	4.6
2025-01-17 07:24:30.913420	310.0	64.9	-60.9	3.8
2025-01-17 07:24:32.045408	308.8	65.0	-62.3	5.4
2025-01-17 07:24:33.179390	307.6	65.1	-60.3	0.0
2025-01-17 07:24:34.314372	306.3	65.1	-60.2	0.0
2025-01-17 07:24:35.448861	305.1	65.2	-60.1	6.2
2025-01-17 07:24:36.581847	303.8	65.2	-63.2	3.7
2025-01-17 07:24:37.714834	302.6	65.3	-63.0	4.0
2025-01-17 07:24:38.848816	301.3	65.3	-60.4	0.8
2025-01-17 07:24:39.983310	300.1	65.3	-60.8	0.3
2025-01-17 07:24:41.117294	298.8	65.4	-63.8	6.1
2025-01-17 07:24:42.249282	297.5	65.4	-61.8	1.3
2025-01-17 07:24:43.382267	296.3	65.3	-62.8	5.9
2025-01-17 07:24:44.517255	295.0	65.3	-60.4	1.4
2025-01-17 07:24:45.653231	293.7	65.3	-61.7	6.1
2025-01-17 07:24:46.787216	292.5	65.2	-63.4	8.0
2025-01-17 07:24:47.922197	291.2	65.2	-62.4	7.6
2025-01-17 07:24:49.057174	290.0	65.1	-62.4	8.8
2025-01-17 07:24:50.190161	288.8	65.1	-59.8	0.9
2025-01-17 07:24:51.325141	287.5	65.0	-59.3	0.0
2025-01-17 07:24:52.458128	286.3	64.9	-60.2	0.6
2025-01-17 07:24:53.592110	285.1	64.8	-60.3	0.0
2025-01-17 07:24:54.725095	283.9	64.6	-62.9	7.3
2025-01-17 07:24:55.859080	282.8	64.5	-65.3	10.6
2025-01-17 07:24:56.993061	281.6	64.4	-62.6	5.0
2025-01-17 07:24:58.126046	280.4	64.2	-63.2	10.8
2025-01-17 07:24:59.259039	279.3	64.1	-60.5	2.7
2025-01-17 07:25:00.395017	278.2	63.9	-61.0	5.8
2025-01-17 07:25:01.529998	277.1	63.8	-64.6	10.8
2025-01-17 07:25:02.664978	276.0	63.6	-64.9	9.8
2025-01-17 07:25:03.798962	274.9	63.4	-63.9	6.4
2025-01-17 07:25:04.931947	273.8	63.2	-64.2	6.3
2025-01-17 07:25:06.066929	272.8	63.0	-62.2	6.7
2025-01-17 07:25:07.202294	271.8	62.8	-64.6	7.3
2025-01-17 07:25:08.334283	270.8	62.6	-62.2	5.1
2025-01-17 07:25:09.467268	269.8	62.4	-65.8	10.3
2025-01-17 07:25:10.600253	268.8	62.1	-64.7	8.8
2025-01-17 07:25:11.732242	267.9	61.9	-64.1	6.5
2025-01-17 07:25:12.872397	266.9	61.7	-65.0	8.4
2025-01-17 07:25:14.006381	266.0	61.4	-64.7	10.1
2025-01-17 07:25:15.140362	265.1	61.2	-61.5	3.3
2025-01-17 07:25:16.273358	264.2	60.9	-65.0	9.4
2025-01-17 07:25:17.407341	263.4	60.6	-63.7	5.8
2025-01-17 07:25:18.543319	262.5	60.4	-63.8	6.0
2025-01-17 07:25:19.677303	261.7	60.1	-62.5	5.2
2025-01-17 07:25:20.811800	260.9	59.8	-61.6	5.6
2025-01-17 07:25:21.946783	260.1	59.6	-63.7	8.7
2025-01-17 07:25:23.080764	259.4	59.3	-62.3	5.6
2025-01-17 07:25:24.214746	258.6	59.0	-63.6	7.9
2025-01-17 07:25:25.346178	257.9	58.7	-62.3	6.8
2025-01-17 07:25:26.481158	257.1	58.4	-63.6	9.1
2025-01-17 07:25:27.615142	256.4	58.1	-61.0	5.5
2025-01-17 07:25:28.747130	255.7	57.8	-63.6	6.9
2025-01-17 07:25:29.880749	255.1	57.5	-62.3	7.1
2025-01-17 07:25:31.014733	254.4	57.2	-62.7	6.0
2025-01-17 07:25:32.150711	253.7	56.9	-64.2	9.6
2025-01-17 07:25:33.284046	253.1	56.6	-62.2	7.3
2025-01-17 07:25:34.420541	252.5	56.3	-62.4	9.8
2025-01-17 07:25:35.559510	251.9	56.0	-64.2	11.1
2025-01-17 07:25:36.693004	251.3	55.7	-65.2	10.6
2025-01-17 07:25:37.824993	250.7	55.4	-63.0	8.0
2025-01-17 07:25:38.970463	250.1	55.1	-65.4	12.7
2025-01-17 07:25:40.106442	249.6	54.7	-63.8	7.5
2025-01-17 07:25:41.242418	249.0	54.4	-64.5	10.3
2025-01-17 07:25:42.376406	248.5	54.1	-64.4	8.8
2025-01-17 07:25:43.508395	248.0	53.8	-65.1	11.5
2025-01-17 07:25:44.641379	247.5	53.5	-64.0	9.5
2025-01-17 07:25:45.773368	247.0	53.2	-63.6	8.9
2025-01-17 07:25:46.907352	246.5	52.9	-64.7	10.2
2025-01-17 07:25:48.041339	246.0	52.5	-64.9	11.8
2025-01-17 07:25:49.175323	245.6	52.2	-65.1	11.5
2025-01-17 07:25:50.311300	245.1	51.9	-63.8	9.8
2025-01-17 07:25:51.445283	244.6	51.6	-65.1	12.8
2025-01-17 07:25:52.578775	244.2	51.3	-63.8	9.3
2025-01-17 07:25:53.711760	243.8	51.0	-64.6	11.7
2025-01-17 07:25:54.845744	243.4	50.6	-64.0	11.8
2025-01-17 07:25:55.981721	243.0	50.3	-64.5	12.0
2025-01-17 07:25:57.114796	242.6	50.0	-64.7	11.6
2025-01-17 07:25:58.250775	242.2	49.7	-64.4	10.3
2025-01-17 07:25:59.385608	241.8	49.4	-65.5	13.3
2025-01-17 07:26:00.518593	241.4	49.1	-65.6	13.5
2025-01-17 07:26:01.650685	241.0	48.8	-65.0	10.8
2025-01-17 07:26:02.784669	240.7	48.5	-64.8	12.0
2025-01-17 07:26:03.918651	240.3	48.2	-64.8	12.3
2025-01-17 07:26:05.051636	240.0	47.9	-64.8	11.5
2025-01-17 07:26:06.183627	239.6	47.5	-64.6	9.4
2025-01-17 07:26:07.315615	239.3	47.2	-64.7	10.6
2025-01-17 07:26:08.452588	239.0	46.9	-64.1	10.4
2025-01-17 07:26:09.587569	238.6	46.6	-64.3	10.4
2025-01-17 07:26:10.721065	238.3	46.3	-64.7	11.5
2025-01-17 07:26:11.854050	238.0	46.0	-65.5	13.1
2025-01-17 07:26:12.988035	237.7	45.7	-65.2	11.2
2025-01-17 07:26:14.121464	237.4	45.4	-65.3	13.2
2025-01-17 07:26:15.254454	237.1	45.1	-64.6	10.1
2025-01-17 07:26:16.387440	236.8	44.8	-65.0	12.4
2025-01-17 07:26:17.520425	236.5	44.5	-65.3	12.5
2025-01-17 07:26:18.653409	236.3	44.3	-64.8	12.3
2025-01-17 07:26:19.786009	236.0	44.0	-65.5	12.2
2025-01-17 07:26:20.919985	235.7	43.7	-65.6	12.4
2025-01-17 07:26:22.054561	235.5	43.4	-65.4	12.2
2025-01-17 07:26:23.188540	235.2	43.1	-65.0	11.6
2025-01-17 07:26:24.320033	235.0	42.8	-65.2	11.4
2025-01-17 07:26:25.453014	234.7	42.5	-65.0	12.3
2025-01-17 07:26:26.585997	234.5	42.2	-65.0	11.9
2025-01-17 07:26:27.717979	234.2	42.0	-65.0	11.5
2025-01-17 07:26:28.855045	234.0	41.7	-64.4	9.7
2025-01-17 07:26:29.988023	233.8	41.4	-64.4	8.9
2025-01-17 07:26:31.120007	233.5	41.1	-65.0	10.6
2025-01-17 07:26:32.253985	233.3	40.9	-66.1	11.9
2025-01-17 07:26:33.389958	233.1	40.6	-65.1	12.4
2025-01-17 07:26:34.525932	232.9	40.3	-64.8	10.0
2025-01-17 07:26:35.659911	232.7	40.0	-64.6	10.1
2025-01-17 07:26:36.793758	232.4	39.8	-65.7	12.5
2025-01-17 07:26:37.928737	232.2	39.5	-66.9	13.8
2025-01-17 07:26:39.061716	232.0	39.2	-66.7	13.3
2025-01-17 07:26:40.196694	231.8	39.0	-65.2	10.0
2025-01-17 07:26:41.328676	231.6	38.7	-65.0	10.2
2025-01-17 07:26:42.461583	231.5	38.5	-65.2	10.0
2025-01-17 07:26:43.594566	231.3	38.2	-66.2	10.5
2025-01-17 07:26:44.728058	231.1	37.9	-67.1	13.9
2025-01-17 07:26:45.863031	230.9	37.7	-65.1	10.3
2025-01-17 07:26:46.999523	230.7	37.4	-65.8	12.9
2025-01-17 07:26:48.135496	230.5	37.2	-65.5	10.3
2025-01-17 07:26:49.267481	230.4	36.9	-65.7	10.8
2025-01-17 07:26:50.399463	230.2	36.7	-66.4	9.9
2025-01-17 07:26:51.533443	230.0	36.4	-65.8	10.0
2025-01-17 07:26:52.666424	229.9	36.2	-67.4	14.4
2025-01-17 07:26:53.802397	229.7	35.9	-65.7	10.2
2025-01-17 07:26:54.935377	229.5	35.7	-66.4	11.7
2025-01-17 07:26:56.067361	229.4	35.5	-66.3	11.1
2025-01-17 07:26:57.201339	229.2	35.2	-65.5	11.2
2025-01-17 07:26:58.337314	229.1	35.0	-67.5	13.9
2025-01-17 07:26:59.471292	228.9	34.7	-66.3	10.2
2025-01-17 07:27:00.606273	228.8	34.5	-67.9	12.6
2025-01-17 07:27:01.738256	228.6	34.3	-68.2	13.3
2025-01-17 07:27:02.873231	228.5	34.0	-67.6	13.5
2025-01-17 07:27:04.006212	228.3	33.8	-67.2	10.9
2025-01-17 07:27:05.137707	228.2	33.6	-67.3	12.8
2025-01-17 07:27:06.270691	228.0	33.3	-67.1	11.7
2025-01-17 07:27:07.404666	227.9	33.1	-67.2	11.8
2025-01-17 07:27:08.539642	227.8	32.9	-66.0	9.0
2025-01-17 07:27:09.672141	227.6	32.7	-66.4	11.2
2025-01-17 07:27:10.806117	227.5	32.5	-67.2	12.3
2025-01-17 07:27:11.940096	227.4	32.2	-66.9	11.5
2025-01-17 07:27:13.075578	227.2	32.0	-67.2	11.9
2025-01-17 07:27:14.209558	227.1	31.8	-66.9	11.1
2025-01-17 07:27:15.343536	227.0	31.6	-67.7	12.9
2025-01-17 07:27:16.478511	226.9	31.4	-67.1	12.1
2025-01-17 07:27:17.613487	226.7	31.1	-66.4	10.3
2025-01-17 07:27:18.747971	226.6	30.9	-66.4	12.1
2025-01-17 07:27:19.881950	226.5	30.7	-66.7	11.1
2025-01-17 07:27:21.013933	226.4	30.5	-66.9	11.3
2025-01-17 07:27:22.146915	226.3	30.3	-66.8	10.6
2025-01-17 07:27:23.278409	226.2	30.1	-68.0	11.5
2025-01-17 07:27:24.410397	226.0	29.9	-67.3	0.0
#Closed at: 2025-01-17 07:21:53.415490