passes_logs/2025/01/17/Planum_Noyabrsk/Planum_Noyabrsk__20250117_065735_NOAA_19_rec.log

#Pass ID: 20250117_065735_NOAA 19
#Satellite: NOAA 19
#Configuration: NOAA 19
#Start time: 2025-01-17 06:57:40.491293

#LorettStation: 1.0.0 05.05.2024
#Station: Planum_Noyabrsk
#Location: 75.446886 lon 63.207202 lat
#TLE: 1 33591U 09005A   25016.13687281  .00000278  00000+0  17226-3 0  9992
#TLE: 2 33591  99.0193  79.9081 0014432  54.5182 305.7334 14.13260212821702

#Time	Az	El	Level	SNR
2025-01-17 06:57:46.671365	352.0	30.8	-57.0	0.0
2025-01-17 06:57:47.805355	351.7	31.0	-57.6	0.0
2025-01-17 06:57:48.940341	351.4	31.1	-56.6	0.0
2025-01-17 06:57:50.076325	351.1	31.3	-56.5	0.0
2025-01-17 06:57:51.210316	350.8	31.4	-56.9	0.0
2025-01-17 06:57:52.348293	350.6	31.6	-56.6	0.0
2025-01-17 06:57:53.482283	350.3	31.8	-56.3	0.0
2025-01-17 06:57:54.618267	350.0	31.9	-55.0	0.0
2025-01-17 06:57:55.758246	349.7	32.1	-54.9	0.0
2025-01-17 06:57:56.893233	349.4	32.2	-54.9	0.0
2025-01-17 06:57:58.026223	349.1	32.4	-55.9	0.0
2025-01-17 06:57:59.162209	348.7	32.5	-55.8	0.0
2025-01-17 06:58:00.300697	348.4	32.7	-54.7	0.0
2025-01-17 06:58:01.440514	348.1	32.8	-54.3	0.0
2025-01-17 06:58:02.578491	347.8	33.0	-55.0	0.0
2025-01-17 06:58:03.719974	347.5	33.1	-54.9	0.0
2025-01-17 06:58:04.858947	347.1	33.3	-55.1	0.0
2025-01-17 06:58:05.993933	346.8	33.4	-56.9	0.0
2025-01-17 06:58:07.129428	346.5	33.6	-55.4	0.0
2025-01-17 06:58:08.267407	346.2	33.7	-57.0	0.0
2025-01-17 06:58:09.402395	345.8	33.9	-54.8	0.0
2025-01-17 06:58:10.537381	345.5	34.0	-58.0	0.0
2025-01-17 06:58:11.677372	345.1	34.2	-53.8	0.0
2025-01-17 06:58:12.814335	344.8	34.3	-53.0	0.0
2025-01-17 06:58:13.948325	344.4	34.5	-51.9	0.0
2025-01-17 06:58:15.085307	344.1	34.6	-52.6	0.0
2025-01-17 06:58:16.221290	343.7	34.8	-52.9	0.0
2025-01-17 06:58:17.356277	343.4	34.9	-53.1	0.0
2025-01-17 06:58:18.492783	343.0	35.1	-52.2	0.0
2025-01-17 06:58:19.626793	342.6	35.2	-52.3	0.0
2025-01-17 06:58:20.762777	342.3	35.4	-50.0	0.0
2025-01-17 06:58:21.901753	341.9	35.5	-52.3	0.0
2025-01-17 06:58:23.036575	341.5	35.7	-51.4	0.0
2025-01-17 06:58:24.171075	341.1	35.8	-51.4	0.0
2025-01-17 06:58:25.306062	340.8	35.9	-52.5	0.0
2025-01-17 06:58:26.444040	340.4	36.1	-52.4	0.0
2025-01-17 06:58:27.578031	340.0	36.2	-52.5	0.0
2025-01-17 06:58:28.714477	339.6	36.4	-53.9	0.0
2025-01-17 06:58:29.851459	339.2	36.5	-53.2	0.0
2025-01-17 06:58:30.986445	338.8	36.6	-53.2	0.0
2025-01-17 06:58:32.122429	338.4	36.8	-53.1	0.0
2025-01-17 06:58:33.258412	338.0	36.9	-50.6	0.0
2025-01-17 06:58:34.396393	337.6	37.0	-51.2	0.0
2025-01-17 06:58:35.531207	337.2	37.2	-52.1	0.0
2025-01-17 06:58:36.672687	336.8	37.3	-53.6	0.0
2025-01-17 06:58:37.807674	336.3	37.4	-53.7	0.0
2025-01-17 06:58:38.942661	335.9	37.6	-53.1	0.0
2025-01-17 06:58:40.075653	335.5	37.7	-53.3	0.0
2025-01-17 06:58:41.209642	335.1	37.8	-52.7	0.0
2025-01-17 06:58:42.345627	334.6	37.9	-55.6	0.0
2025-01-17 06:58:43.480613	334.2	38.1	-55.6	0.0
2025-01-17 06:58:44.616598	333.8	38.2	-54.7	0.0
2025-01-17 06:58:45.754585	333.3	38.3	-52.9	0.0
2025-01-17 06:58:46.886573	332.9	38.4	-55.0	0.0
2025-01-17 06:58:48.018565	332.4	38.5	-54.0	0.0
2025-01-17 06:58:49.152554	332.0	38.7	-56.4	0.5
2025-01-17 06:58:50.286544	331.5	38.8	-56.0	0.0
2025-01-17 06:58:51.420533	331.1	38.9	-57.7	0.0
2025-01-17 06:58:52.553034	330.6	39.0	-54.9	0.0
2025-01-17 06:58:53.688081	330.1	39.1	-56.5	0.0
2025-01-17 06:58:54.822069	329.7	39.2	-56.0	0.0
2025-01-17 06:58:55.957057	329.2	39.3	-56.5	0.0
2025-01-17 06:58:57.090048	328.7	39.4	-56.4	0.0
2025-01-17 06:58:58.223550	328.2	39.5	-56.1	0.0
2025-01-17 06:58:59.357538	327.8	39.6	-57.3	0.0
2025-01-17 06:59:00.492524	327.3	39.7	-57.3	0.0
2025-01-17 06:59:01.627513	326.8	39.8	-57.8	1.6
2025-01-17 06:59:02.761776	326.3	39.9	-56.5	0.1
2025-01-17 06:59:03.894766	325.8	40.0	-57.4	1.8
2025-01-17 06:59:05.027760	325.3	40.1	-57.9	4.0
2025-01-17 06:59:06.162745	324.8	40.2	-57.6	0.8
2025-01-17 06:59:07.296761	324.3	40.3	-57.2	1.9
2025-01-17 06:59:08.429754	323.8	40.3	-57.7	0.0
2025-01-17 06:59:09.564740	323.3	40.4	-57.7	2.7
2025-01-17 06:59:10.699727	322.8	40.5	-58.0	2.3
2025-01-17 06:59:11.833746	322.3	40.6	-58.0	1.2
2025-01-17 06:59:12.967735	321.8	40.6	-58.7	0.6
2025-01-17 06:59:14.101725	321.3	40.7	-59.0	1.4
2025-01-17 06:59:15.234717	320.8	40.8	-59.2	2.7
2025-01-17 06:59:16.375687	320.2	40.8	-59.8	4.2
2025-01-17 06:59:17.509679	319.7	40.9	-59.8	2.8
2025-01-17 06:59:18.645174	319.2	41.0	-59.8	4.8
2025-01-17 06:59:19.778165	318.7	41.0	-60.6	4.8
2025-01-17 06:59:20.909255	318.2	41.1	-60.5	5.0
2025-01-17 06:59:22.043243	317.6	41.1	-61.5	6.1
2025-01-17 06:59:23.177233	317.1	41.2	-61.2	4.3
2025-01-17 06:59:24.313216	316.6	41.2	-61.6	5.6
2025-01-17 06:59:25.446208	316.0	41.3	-60.7	5.5
2025-01-17 06:59:26.583190	315.5	41.3	-60.8	6.4
2025-01-17 06:59:27.716181	315.0	41.3	-60.9	5.4
2025-01-17 06:59:28.850171	314.4	41.4	-61.2	7.0
2025-01-17 06:59:29.984162	313.9	41.4	-63.2	8.9
2025-01-17 06:59:31.118151	313.4	41.4	-64.1	9.3
2025-01-17 06:59:32.252139	312.8	41.5	-62.7	6.9
2025-01-17 06:59:33.387635	312.3	41.5	-62.1	6.3
2025-01-17 06:59:34.523617	311.7	41.5	-63.3	6.9
2025-01-17 06:59:35.657606	311.2	41.5	-62.7	6.8
2025-01-17 06:59:36.792593	310.7	41.5	-62.3	6.5
2025-01-17 06:59:37.927582	310.1	41.6	-64.0	7.3
2025-01-17 06:59:39.060573	309.6	41.6	-64.0	7.4
2025-01-17 06:59:40.194563	309.0	41.6	-63.5	9.1
2025-01-17 06:59:41.329550	308.5	41.6	-64.1	9.3
2025-01-17 06:59:42.466530	307.9	41.6	-63.0	7.1
2025-01-17 06:59:43.599769	307.4	41.6	-63.6	6.4
2025-01-17 06:59:44.733760	306.9	41.6	-63.6	8.5
2025-01-17 06:59:45.867748	306.3	41.6	-64.6	8.2
2025-01-17 06:59:47.002243	305.8	41.6	-64.1	6.8
2025-01-17 06:59:48.138236	305.2	41.5	-64.0	8.0
2025-01-17 06:59:49.271227	304.7	41.5	-64.3	7.5
2025-01-17 06:59:50.405223	304.2	41.5	-63.7	7.6
2025-01-17 06:59:51.539220	303.6	41.5	-64.0	8.2
2025-01-17 06:59:52.677198	303.1	41.5	-63.5	7.7
2025-01-17 06:59:53.809204	302.5	41.4	-62.6	7.0
2025-01-17 06:59:54.941185	302.0	41.4	-63.2	6.9
2025-01-17 06:59:56.074408	301.5	41.4	-63.0	7.3
2025-01-17 06:59:57.209394	300.9	41.3	-63.0	8.3
2025-01-17 06:59:58.345379	300.4	41.3	-63.2	7.7
2025-01-17 06:59:59.478373	299.9	41.2	-63.0	7.4
2025-01-17 07:00:00.611383	299.3	41.2	-61.7	7.1
2025-01-17 07:00:01.745370	298.8	41.1	-62.4	8.3
2025-01-17 07:00:02.879360	298.3	41.1	-62.8	9.2
2025-01-17 07:00:04.013349	297.7	41.0	-63.1	10.1
2025-01-17 07:00:05.147339	297.2	41.0	-62.1	7.7
2025-01-17 07:00:06.282435	296.7	40.9	-62.0	7.6
2025-01-17 07:00:07.417421	296.2	40.9	-60.7	6.9
2025-01-17 07:00:08.556401	295.7	40.8	-61.8	7.1
2025-01-17 07:00:09.688213	295.1	40.7	-62.2	8.3
2025-01-17 07:00:10.821205	294.6	40.7	-62.9	7.9
2025-01-17 07:00:11.956192	294.1	40.6	-62.6	7.8
2025-01-17 07:00:13.090181	293.6	40.5	-62.5	7.7
2025-01-17 07:00:14.225173	293.1	40.5	-63.1	7.4
2025-01-17 07:00:15.358166	292.6	40.4	-62.1	6.3
2025-01-17 07:00:16.491156	292.1	40.3	-61.9	5.3
2025-01-17 07:00:17.628137	291.6	40.2	-60.8	4.4
2025-01-17 07:00:18.761130	291.1	40.1	-62.7	6.4
2025-01-17 07:00:19.897114	290.6	40.0	-63.1	6.9
2025-01-17 07:00:21.033097	290.1	39.9	-63.3	7.1
2025-01-17 07:00:22.166090	289.6	39.9	-63.5	7.2
2025-01-17 07:00:23.299589	289.1	39.8	-63.8	8.5
2025-01-17 07:00:24.432581	288.6	39.7	-63.4	6.6
2025-01-17 07:00:25.567567	288.2	39.6	-64.2	7.5
2025-01-17 07:00:26.699562	287.7	39.5	-63.8	8.1
2025-01-17 07:00:27.838539	287.2	39.4	-63.1	8.1
2025-01-17 07:00:28.972528	286.7	39.3	-64.4	9.4
2025-01-17 07:00:30.110508	286.3	39.2	-64.6	10.0
2025-01-17 07:00:31.250481	285.8	39.0	-64.1	9.1
2025-01-17 07:00:32.396439	285.3	38.9	-62.8	7.4
2025-01-17 07:00:33.536411	284.9	38.8	-64.2	9.4
2025-01-17 07:00:34.670401	284.4	38.7	-64.2	9.6
2025-01-17 07:00:35.804390	284.0	38.6	-63.8	9.3
2025-01-17 07:00:36.941372	283.5	38.5	-63.7	11.0
2025-01-17 07:00:38.074372	283.1	38.4	-63.9	10.7
2025-01-17 07:00:39.209350	282.6	38.2	-63.7	10.6
2025-01-17 07:00:40.342045	282.2	38.1	-63.3	9.0
2025-01-17 07:00:41.477030	281.7	38.0	-63.2	9.7
2025-01-17 07:00:42.610023	281.3	37.9	-62.0	8.6
2025-01-17 07:00:43.743015	280.9	37.7	-63.7	11.0
2025-01-17 07:00:44.877510	280.5	37.6	-62.9	11.3
2025-01-17 07:00:46.009505	280.0	37.5	-62.8	10.3
2025-01-17 07:00:47.143495	279.6	37.4	-63.2	10.9
2025-01-17 07:00:48.277484	279.2	37.2	-63.1	12.2
2025-01-17 07:00:49.410475	278.8	37.1	-63.4	10.7
2025-01-17 07:00:50.546460	278.4	37.0	-63.2	10.2
2025-01-17 07:00:51.680449	278.0	36.8	-63.4	11.8
2025-01-17 07:00:52.814440	277.6	36.7	-63.3	9.9
2025-01-17 07:00:53.947436	277.2	36.6	-64.1	13.1
2025-01-17 07:00:55.081424	276.8	36.4	-63.1	9.9
2025-01-17 07:00:56.216410	276.4	36.3	-63.7	10.6
2025-01-17 07:00:57.350400	276.0	36.1	-63.6	9.7
2025-01-17 07:00:58.483404	275.6	36.0	-63.5	9.7
2025-01-17 07:00:59.616906	275.2	35.9	-63.6	9.9
2025-01-17 07:01:00.749898	274.8	35.7	-64.8	10.0
2025-01-17 07:01:01.883886	274.5	35.6	-64.4	9.9
2025-01-17 07:01:03.016896	274.1	35.4	-64.6	10.9
2025-01-17 07:01:04.154875	273.7	35.3	-64.1	8.9
2025-01-17 07:01:05.288864	273.3	35.1	-64.9	10.3
2025-01-17 07:01:06.422855	273.0	35.0	-65.7	11.7
2025-01-17 07:01:07.558386	272.6	34.9	-65.1	9.5
2025-01-17 07:01:08.691378	272.3	34.7	-65.6	9.4
2025-01-17 07:01:09.829357	271.9	34.6	-66.0	10.5
2025-01-17 07:01:10.964343	271.6	34.4	-65.5	9.5
2025-01-17 07:01:12.098662	271.2	34.3	-66.0	10.4
2025-01-17 07:01:13.234646	270.9	34.1	-65.9	11.0
2025-01-17 07:01:14.370631	270.5	34.0	-66.5	10.3
2025-01-17 07:01:15.505617	270.2	33.8	-66.4	10.5
2025-01-17 07:01:16.638852	269.8	33.7	-67.0	10.5
2025-01-17 07:01:17.773839	269.5	33.5	-66.7	9.8
2025-01-17 07:01:18.908825	269.2	33.4	-66.9	10.9
2025-01-17 07:01:20.043812	268.9	33.2	-67.1	10.6
2025-01-17 07:01:21.179310	268.5	33.1	-66.7	11.3
2025-01-17 07:01:22.312301	268.2	32.9	-66.8	10.1
2025-01-17 07:01:23.447286	267.9	32.8	-66.7	9.8
2025-01-17 07:01:24.584268	267.6	32.6	-66.5	9.6
2025-01-17 07:01:25.724257	267.3	32.5	-66.8	10.3
2025-01-17 07:01:26.858246	267.0	32.3	-66.2	9.9
2025-01-17 07:01:27.991238	266.7	32.1	-66.0	9.4
2025-01-17 07:01:29.123233	266.4	32.0	-66.2	10.2
2025-01-17 07:01:30.258219	266.1	31.8	-66.2	10.2
2025-01-17 07:01:31.392209	265.8	31.7	-66.2	10.2
2025-01-17 07:01:32.527196	265.5	31.5	-66.0	8.3
2025-01-17 07:01:33.659190	265.2	31.4	-65.8	9.6
2025-01-17 07:01:34.794177	264.9	31.2	-66.1	10.9
2025-01-17 07:01:35.928167	264.6	31.1	-65.6	8.6
2025-01-17 07:01:37.064151	264.3	30.9	-66.2	10.3
2025-01-17 07:01:38.198145	264.0	30.8	-66.6	11.4
2025-01-17 07:01:39.333137	263.8	30.6	-66.8	11.3
2025-01-17 07:01:40.467126	263.5	30.5	-66.1	9.5
2025-01-17 07:01:41.603110	263.2	30.3	-66.8	10.9
2025-01-17 07:01:42.737099	263.0	30.2	-65.4	8.7
2025-01-17 07:01:43.875078	262.7	30.0	-65.8	0.0
#Closed at: 2025-01-17 06:57:35.495054