passes_logs/2026/01/05/R4.6S_Anadyr/R4.6S_Anadyr__20260105_021657_AQUA_rec.log

#Pass ID: 20260105_021657_AQUA
#Satellite: AQUA
#Configuration: AQUA
#almurnet v.1.7.20251203
#Start time: 2026-01-05 02:17:00

#Version: 2.2.20231116
#Station: R4.6S_Anadyr
#Location: 177.4865 lon 64.73178 lat
#TLE: 1 27424U 02022A   25365.92641127  .00002078  00000+0  42628-3 0  9999
#TLE: 2 27424  98.4058 327.1196 0001962  94.7781 340.6230 14.61783896258835

#Time	Az	El	Level	Level2	SNR	BER	BlckErr	Temp	State	Recorded	gain1	gain2
2026-01-05 02:17:00.92	165.72	0.21	-50.3	-66.7	3.3	3.02e+01	0	27	0	0	60	83061
2026-01-05 02:17:04.95	165.78	0.46	-49.1	-67.1	3.5	3.02e+01	0	27	104	0	60	86980
2026-01-05 02:17:08.99	165.85	0.71	-48.9	-66.8	3.5	3.02e+01	0	28	104	0	60	84648
2026-01-05 02:17:13.03	165.91	0.97	-48.3	-66.1	3.5	3.02e+01	0	28	104	0	60	78115
2026-01-05 02:17:17.06	165.97	1.23	-47.8	-65.6	3.5	3.02e+01	0	28	104	0	60	73077
2026-01-05 02:17:21.11	166.04	1.49	-48.0	-65.1	3.5	3.02e+01	0	28	104	0	60	69619
2026-01-05 02:17:25.15	166.10	1.75	-48.0	-64.9	3.5	3.02e+01	0	28	104	0	60	67781
2026-01-05 02:17:29.19	166.17	2.02	-47.7	-65.4	3.5	3.02e+01	0	28	104	0	60	72031
2026-01-05 02:17:33.23	166.24	2.29	-47.7	-65.3	3.5	3.02e+01	0	28	104	0	60	70457
2026-01-05 02:17:37.27	166.31	2.56	-47.7	-63.2	3.8	3.02e+01	0	28	104	0	60	55497
2026-01-05 02:17:41.31	166.38	2.84	-47.6	-62.0	3.7	3.02e+01	0	28	104	0	60	48313
2026-01-05 02:17:45.34	166.45	3.11	-46.7	-54.3	10.0	3.02e+01	92	28	0	1048576	60	19923
2026-01-05 02:17:49.38	166.52	3.40	-41.4	-43.5	21.4	3.02e+01	90	28	0	8912896	58	6487
2026-01-05 02:17:53.42	166.60	3.68	-38.5	-40.0	24.7	3.02e+01	90	28	0	16252928	52	6109
2026-01-05 02:17:57.46	166.67	3.97	-43.1	-45.7	19.6	3.02e+01	91	28	0	24117248	60	7404
2026-01-05 02:18:01.49	166.75	4.26	-43.7	-46.5	20.1	3.02e+01	90	28	0	29360128	60	8147
2026-01-05 02:18:05.53	166.83	4.55	-39.8	-41.6	23.5	3.02e+01	90	28	0	37224448	54	6519
2026-01-05 02:18:09.57	166.91	4.85	-38.8	-40.4	24.8	3.02e+01	84	28	0	44564480	52	6378
2026-01-05 02:18:13.61	166.99	5.15	-37.9	-39.4	25.9	3.02e+01	92	28	0	51904512	52	5688
2026-01-05 02:18:17.64	167.07	5.46	-37.8	-39.2	25.8	3.02e+01	92	28	0	59768832	50	6274
2026-01-05 02:18:21.68	167.16	5.77	-37.6	-39.1	26.1	3.02e+01	92	28	0	67108864	50	6144
2026-01-05 02:18:25.72	167.24	6.08	-37.0	-38.3	26.8	3.02e+01	92	28	0	74973184	48	6337
2026-01-05 02:18:29.76	167.33	6.40	-36.4	-37.7	27.4	3.02e+01	92	28	0	82313216	48	5879
2026-01-05 02:18:33.79	167.42	6.72	-35.8	-37.1	27.9	3.02e+01	92	28	0	90177536	46	6176
2026-01-05 02:18:37.83	167.51	7.05	-36.0	-37.3	27.7	3.02e+01	89	28	0	97517568	46	6296
2026-01-05 02:18:41.87	167.60	7.38	-36.0	-37.3	27.9	3.02e+01	91	28	0	104857600	46	6330
2026-01-05 02:18:45.91	167.70	7.72	-35.9	-37.2	28.3	3.02e+01	92	28	0	112721920	46	6224
2026-01-05 02:18:49.95	167.80	8.06	-36.2	-37.5	28.0	3.02e+01	92	28	0	120061952	46	6444
2026-01-05 02:18:53.98	167.90	8.40	-36.2	-37.4	28.0	3.02e+01	90	28	0	127926272	46	6420
2026-01-05 02:18:58.02	168.00	8.76	-36.5	-37.8	28.2	3.02e+01	91	28	0	135266304	48	5939
2026-01-05 02:19:02.06	168.10	9.11	-36.4	-37.7	28.1	3.02e+01	90	28	0	143130624	48	5887
2026-01-05 02:19:06.10	168.21	9.48	-36.7	-37.9	28.1	3.02e+01	90	28	0	150470656	48	6062
2026-01-05 02:19:10.14	168.32	9.85	-36.5	-37.7	28.1	3.02e+01	92	28	0	158334976	46	6617
2026-01-05 02:19:14.18	168.43	10.22	-35.5	-36.7	28.5	3.02e+01	92	28	0	165675008	46	5901
2026-01-05 02:19:18.21	168.55	10.60	-35.1	-36.4	28.8	3.02e+01	91	28	0	173015040	46	5690
2026-01-05 02:19:22.25	168.66	10.99	-35.2	-36.4	29.0	3.02e+01	92	28	0	180879360	46	5699
2026-01-05 02:19:26.29	168.78	11.39	-35.2	-36.5	28.9	3.02e+01	88	28	0	188219392	44	6430
2026-01-05 02:19:30.32	168.91	11.79	-34.8	-36.0	29.3	3.02e+01	92	28	0	196083712	44	6128
2026-01-05 02:19:34.36	169.03	12.20	-34.7	-36.0	29.3	3.02e+01	88	28	0	203423744	44	6069
2026-01-05 02:19:38.40	169.17	12.62	-35.0	-36.2	29.2	3.02e+01	92	28	0	211288064	44	6228
2026-01-05 02:19:42.44	169.30	13.04	-34.7	-36.0	29.3	3.02e+01	92	28	0	218628096	44	6073
2026-01-05 02:19:46.48	169.44	13.48	-34.7	-35.9	29.4	3.02e+01	92	28	0	226492416	44	6060
2026-01-05 02:19:50.52	169.58	13.92	-34.6	-35.8	29.4	3.02e+01	91	28	0	233832448	44	5959
2026-01-05 02:19:54.56	169.73	14.37	-34.3	-35.5	29.6	3.02e+01	91	28	0	241172480	44	5751
2026-01-05 02:19:58.60	169.88	14.83	-34.4	-35.5	29.6	3.02e+01	91	28	0	249036800	44	5791
2026-01-05 02:20:02.64	170.03	15.30	-34.6	-35.7	29.5	3.02e+01	92	28	0	256376832	44	5926
2026-01-05 02:20:06.67	170.19	15.78	-34.5	-35.6	29.6	3.02e+01	91	28	0	264241152	44	5850
2026-01-05 02:20:10.71	170.36	16.27	-34.4	-35.6	29.7	3.02e+01	91	28	0	271581184	44	5815
2026-01-05 02:20:14.75	170.53	16.78	-34.5	-35.6	29.6	3.02e+01	91	28	0	279445504	44	5856
2026-01-05 02:20:18.79	170.70	17.29	-34.7	-35.9	29.7	3.02e+01	91	28	0	286785536	44	6031
2026-01-05 02:20:22.83	170.89	17.82	-34.6	-35.8	29.6	3.02e+01	92	28	0	294125568	44	5962
2026-01-05 02:20:26.86	171.08	18.35	-34.4	-35.6	29.8	3.02e+01	92	28	0	301989888	44	5822
2026-01-05 02:20:30.90	171.27	18.91	-34.5	-35.7	29.6	3.02e+01	92	28	0	309329920	44	5860
2026-01-05 02:20:34.94	171.47	19.47	-34.5	-35.7	29.6	3.02e+01	92	28	0	317194240	44	5907
2026-01-05 02:20:38.97	171.68	20.05	-34.5	-35.7	29.7	3.02e+01	90	28	0	324534272	44	5886
2026-01-05 02:20:43.01	171.90	20.64	-34.6	-35.8	29.5	3.02e+01	89	29	0	332398592	44	5964
2026-01-05 02:20:47.06	172.13	21.25	-34.8	-36.0	29.4	3.02e+01	92	28	0	339738624	44	6093
2026-01-05 02:20:51.09	172.36	21.87	-34.9	-36.0	29.5	3.02e+01	92	28	0	347602944	44	6132
2026-01-05 02:20:55.13	172.61	22.52	-34.7	-35.9	29.5	3.02e+01	90	28	0	354942976	44	6007
2026-01-05 02:20:59.16	172.86	23.17	-35.0	-36.2	29.4	3.02e+01	92	28	0	362283008	44	6215
2026-01-05 02:21:03.21	173.13	23.85	-34.6	-35.8	29.5	3.02e+01	92	28	0	370147328	44	5955
2026-01-05 02:21:07.25	173.41	24.55	-34.7	-35.9	29.5	3.02e+01	92	28	0	377487360	44	6042
2026-01-05 02:21:11.29	173.70	25.27	-34.8	-36.0	29.4	3.02e+01	92	28	0	385351680	44	6097
2026-01-05 02:21:15.33	174.01	26.00	-35.4	-45.4	3.4	3.02e+01	0	28	104	390594560	44	17990
2026-01-05 02:21:19.36	174.32	26.76	-37.2	-47.4	3.5	3.02e+01	0	28	104	390594560	54	12723
2026-01-05 02:21:23.40	174.66	27.54	-39.3	-49.6	3.6	3.02e+01	0	28	104	390594560	52	18332
2026-01-05 02:21:27.44	175.01	28.35	-38.1	-48.3	4.1	3.02e+01	0	28	104	390594560	48	19892
2026-01-05 02:21:31.48	175.38	29.18	-47.2	-60.7	3.5	3.02e+01	0	28	104	390594560	60	41848
2026-01-05 02:21:35.51	175.77	30.03	-39.5	-49.9	3.5	3.02e+01	0	28	104	390594560	54	17032
2026-01-05 02:21:39.55	176.18	30.92	-37.5	-47.8	3.5	3.02e+01	0	28	104	390594560	48	18910
2026-01-05 02:21:43.59	176.61	31.83	-37.0	-47.3	3.5	3.02e+01	0	28	104	390594560	50	15848
2026-01-05 02:21:47.63	177.07	32.77	-42.2	-53.0	3.5	3.02e+01	0	28	104	390594560	60	17143
2026-01-05 02:21:51.66	177.56	33.73	-38.2	-48.4	3.5	3.02e+01	0	28	104	390594560	50	18056
2026-01-05 02:21:55.70	178.07	34.74	-38.2	-48.5	3.4	3.02e+01	0	29	104	390594560	46	22924
2026-01-05 02:21:59.74	178.62	35.77	-40.5	-51.1	3.5	3.02e+01	0	28	104	390594560	56	17323
2026-01-05 02:22:03.78	179.21	36.84	-48.9	-66.1	3.5	3.02e+01	0	28	104	390594560	60	77801
2026-01-05 02:22:07.82	179.84	37.94	-40.6	-51.3	3.5	3.02e+01	0	28	104	390594560	56	17828
2026-01-05 02:22:11.86	180.51	39.08	-41.4	-52.2	3.5	3.02e+01	0	28	104	390594560	54	22101
2026-01-05 02:22:15.89	181.22	40.25	-42.9	-54.1	3.5	3.02e+01	0	29	104	390594560	56	24425
2026-01-05 02:22:19.93	182.00	41.46	-37.3	-47.5	3.5	3.02e+01	0	28	104	390594560	50	16265
2026-01-05 02:22:23.97	182.83	42.71	-43.2	-54.3	3.5	3.02e+01	0	28	104	390594560	58	22432
2026-01-05 02:22:28.01	183.74	44.00	-37.4	-47.8	3.5	3.02e+01	0	28	104	390594560	48	18764
2026-01-05 02:22:32.04	184.71	45.32	-43.8	-55.0	3.5	3.02e+01	0	28	104	390594560	60	21746
2026-01-05 02:22:36.08	185.78	46.68	-38.5	-48.9	3.5	3.02e+01	0	28	104	390594560	52	17040
2026-01-05 02:22:40.12	186.94	48.08	-43.8	-55.0	3.5	3.02e+01	0	29	104	390594560	60	21655
2026-01-05 02:22:44.16	188.22	49.52	-36.9	-47.1	3.5	3.02e+01	0	28	104	390594560	48	17393
2026-01-05 02:22:48.20	189.62	50.98	-36.2	-46.5	3.3	3.02e+01	0	28	104	390594560	50	14383
2026-01-05 02:22:52.24	191.17	52.48	-46.0	-58.4	3.5	3.02e+01	0	29	104	390594560	60	31993
2026-01-05 02:22:56.27	192.88	54.00	-35.8	-46.1	3.5	3.02e+01	0	28	104	390594560	46	17383
2026-01-05 02:23:00.31	194.78	55.54	-47.7	-61.9	3.6	3.02e+01	0	29	104	390594560	60	47777
2026-01-05 02:23:04.35	196.91	57.09	-39.7	-50.1	3.5	3.02e+01	0	28	104	390594560	56	15506
2026-01-05 02:23:08.39	199.29	58.65	-47.7	-62.3	3.5	3.02e+01	0	29	104	390594560	60	50165
2026-01-05 02:23:12.42	201.96	60.19	-38.8	-49.1	3.5	3.02e+01	0	29	104	390594560	52	17484
2026-01-05 02:23:16.46	204.98	61.71	-37.9	-48.0	3.5	3.02e+01	0	29	104	390594560	52	15385
2026-01-05 02:23:20.50	208.39	63.19	-43.7	-54.8	3.5	3.02e+01	0	28	104	390594560	60	21121
2026-01-05 02:23:24.54	212.24	64.61	-45.5	-57.7	3.5	3.02e+01	0	28	104	390594560	60	29397
2026-01-05 02:23:28.58	216.58	65.94	-44.4	-55.8	3.5	3.02e+01	0	29	104	390594560	60	23652
2026-01-05 02:23:32.62	221.47	67.16	-42.4	-53.2	3.5	3.02e+01	0	29	104	390594560	60	17654
2026-01-05 02:23:36.66	226.91	68.21	-42.2	-52.8	3.5	3.02e+01	0	29	104	390594560	56	21234
2026-01-05 02:23:40.69	232.89	69.08	-42.1	-53.0	3.5	3.02e+01	0	29	104	390594560	58	19278
2026-01-05 02:23:44.73	239.36	69.73	-49.0	-66.9	3.5	3.02e+01	0	29	104	390594560	60	85374
2026-01-05 02:23:48.77	246.21	70.13	-43.2	-54.5	3.5	3.02e+01	0	29	104	390594560	60	20485
2026-01-05 02:23:52.80	253.23	70.26	-49.7	-67.4	3.5	3.02e+01	0	28	104	390594560	60	90195
2026-01-05 02:23:56.84	260.26	70.11	-45.5	-57.1	3.5	3.02e+01	0	28	104	390594560	60	27446
2026-01-05 02:24:00.88	267.08	69.69	-47.4	-60.8	3.5	3.02e+01	0	28	104	390594560	60	42078
2026-01-05 02:24:04.92	273.51	69.02	-41.7	-52.3	3.5	3.02e+01	0	28	104	390594560	56	20020
2026-01-05 02:24:08.96	279.45	68.13	-45.3	-57.0	3.5	3.02e+01	0	28	104	390594560	60	27346
2026-01-05 02:24:12.99	284.83	67.06	-47.4	-59.9	3.5	3.02e+01	0	28	104	390594560	60	38074
2026-01-05 02:24:17.03	289.66	65.84	-39.6	-50.2	3.5	3.02e+01	0	28	104	390594560	52	19696
2026-01-05 02:24:21.06	293.95	64.51	-49.3	-66.5	3.5	3.02e+01	0	28	104	390594560	60	81048
2026-01-05 02:24:25.10	297.76	63.09	-40.3	-51.0	3.6	3.02e+01	0	28	104	390594560	54	19185
2026-01-05 02:24:29.14	301.13	61.60	-49.7	-67.3	3.5	3.02e+01	0	29	104	390594560	60	88795
2026-01-05 02:24:33.18	304.11	60.08	-37.7	-47.6	3.5	3.02e+01	0	29	104	390594560	48	18412
2026-01-05 02:24:37.22	306.76	58.54	-41.2	-51.9	3.4	3.02e+01	0	29	104	390594560	60	15123
2026-01-05 02:24:41.26	309.12	56.99	-36.3	-46.4	3.5	3.02e+01	0	29	104	390594560	46	18038
2026-01-05 02:24:45.30	311.22	55.44	-40.8	-51.5	3.5	3.02e+01	0	29	104	390594560	60	14416
2026-01-05 02:24:49.34	313.11	53.90	-42.3	-53.3	3.5	3.02e+01	0	29	104	390594560	60	17838
2026-01-05 02:24:53.37	314.80	52.39	-38.8	-49.4	3.5	3.02e+01	0	28	104	390594560	50	20238
2026-01-05 02:24:57.41	316.33	50.90	-44.1	-55.4	3.5	3.02e+01	0	28	104	390594560	60	22748
2026-01-05 02:25:01.44	317.72	49.45	-35.9	-46.1	3.5	3.02e+01	0	29	104	390594560	48	15493
2026-01-05 02:25:05.48	318.99	48.02	-48.4	-64.6	3.5	3.02e+01	0	29	104	390594560	60	65465
2026-01-05 02:25:09.52	320.14	46.63	-37.2	-47.5	3.5	3.02e+01	0	28	104	390594560	50	16306
2026-01-05 02:25:13.56	321.20	45.28	-40.7	-51.2	3.5	3.02e+01	0	29	104	390594560	50	24954
2026-01-05 02:25:17.60	322.17	43.96	-38.0	-48.3	3.5	3.02e+01	0	29	104	390594560	50	17800
2026-01-05 02:25:21.64	323.07	42.68	-37.4	-47.6	3.5	3.02e+01	0	28	104	390594560	48	18384
2026-01-05 02:25:25.68	323.90	41.44	-40.4	-51.1	3.6	3.02e+01	0	29	104	390594560	56	17305
2026-01-05 02:25:29.71	324.67	40.24	-42.2	-53.1	3.5	3.02e+01	0	29	104	390594560	56	21931
2026-01-05 02:25:33.75	325.39	39.07	-36.4	-46.6	3.5	3.02e+01	0	28	104	390594560	48	16414
2026-01-05 02:25:37.79	326.05	37.94	-36.3	-46.4	3.5	3.02e+01	0	29	104	390594560	48	16081
2026-01-05 02:25:41.83	326.68	36.84	-49.5	-65.6	3.5	3.02e+01	0	29	104	390594560	60	73172
2026-01-05 02:25:45.87	327.26	35.78	-42.4	-53.2	3.5	3.02e+01	0	28	104	390594560	60	17491
2026-01-05 02:25:49.91	327.81	34.75	-49.2	-64.2	3.5	3.02e+01	0	29	104	390594560	60	62359
2026-01-05 02:25:53.94	328.32	33.76	-37.6	-48.0	3.5	3.02e+01	0	29	104	390594560	50	17271
2026-01-05 02:25:57.98	328.81	32.80	-37.5	-47.8	3.5	3.02e+01	0	29	104	390594560	48	18774
2026-01-05 02:26:02.01	329.26	31.86	-37.4	-47.5	3.5	3.02e+01	0	29	104	390594560	50	16284
2026-01-05 02:26:06.05	329.70	30.96	-35.2	-45.3	3.5	3.02e+01	0	28	104	390594560	46	15908
2026-01-05 02:26:10.09	330.11	30.08	-40.9	-51.4	3.5	3.02e+01	0	29	104	390594560	56	17972
2026-01-05 02:26:14.13	330.49	29.23	-38.8	-49.3	3.5	3.02e+01	0	29	104	390594560	50	20032
2026-01-05 02:26:18.17	330.86	28.40	-47.1	-59.9	3.5	3.02e+01	0	29	104	390594560	60	38031
2026-01-05 02:26:22.21	331.22	27.60	-37.1	-47.3	3.5	3.02e+01	0	29	104	390594560	50	15793
2026-01-05 02:26:26.25	331.55	26.82	-47.3	-60.6	3.5	3.02e+01	0	29	104	390594560	60	41271
2026-01-05 02:26:30.29	331.87	26.07	-36.9	-47.3	3.5	3.02e+01	0	29	104	390594560	46	20043
2026-01-05 02:26:34.33	332.17	25.34	-38.6	-49.1	3.7	3.02e+01	0	29	104	390594560	56	13783
2026-01-05 02:26:38.36	332.46	24.63	-41.6	-52.3	3.5	3.02e+01	0	29	104	390594560	56	20006
2026-01-05 02:26:42.40	332.74	23.93	-44.8	-56.4	3.5	3.02e+01	0	29	104	390594560	60	25384
2026-01-05 02:26:46.44	333.01	23.26	-39.6	-50.0	3.5	3.02e+01	0	29	104	390594560	52	19222
2026-01-05 02:26:50.48	333.27	22.60	-35.4	-45.4	3.5	3.02e+01	0	29	104	390594560	46	16078
2026-01-05 02:26:54.52	333.51	21.96	-36.3	-46.4	3.5	3.02e+01	0	29	104	390594560	50	14247
2026-01-05 02:26:58.56	333.75	21.34	-35.9	-46.1	3.5	3.02e+01	0	28	104	390594560	46	17444
2026-01-05 02:27:02.60	333.98	20.74	-48.2	-62.8	3.5	3.02e+01	0	29	104	390594560	60	53294
2026-01-05 02:27:06.64	334.20	20.15	-38.0	-48.4	3.5	3.02e+01	0	29	104	390594560	50	17902
2026-01-05 02:27:10.68	334.41	19.57	-45.3	-57.2	3.5	3.02e+01	0	28	104	390594560	52	44290
2026-01-05 02:27:14.72	334.61	19.01	-36.9	-47.2	3.5	3.02e+01	0	29	104	390594560	50	15661
2026-01-05 02:27:18.76	334.81	18.46	-41.0	-51.5	3.5	3.02e+01	0	29	104	390594560	54	20347
2026-01-05 02:27:22.79	335.00	17.92	-38.0	-48.1	3.5	3.02e+01	0	29	104	390594560	52	15505
2026-01-05 02:27:26.83	335.18	17.40	-35.0	-45.2	3.5	3.02e+01	0	29	104	390594560	44	17636
2026-01-05 02:27:30.87	335.36	16.89	-40.9	-51.6	3.5	3.02e+01	0	28	104	390594560	52	23255
2026-01-05 02:27:34.91	335.53	16.39	-38.3	-48.8	3.5	3.02e+01	0	29	104	390594560	50	18798
2026-01-05 02:27:38.95	335.70	15.90	-48.0	-64.8	3.5	3.02e+01	0	29	104	390594560	60	67105
2026-01-05 02:27:42.99	335.86	15.42	-37.0	-47.3	3.5	3.02e+01	0	28	104	390594560	48	17812
2026-01-05 02:27:47.02	336.02	14.95	-48.4	-63.1	3.7	3.02e+01	0	29	104	390594560	60	55120
2026-01-05 02:27:51.06	336.17	14.49	-37.9	-39.2	27.2	3.02e+01	92	28	0	396361728	48	7021
2026-01-05 02:27:55.10	336.32	14.04	-38.2	-39.7	26.2	3.02e+01	90	28	0	403701760	50	6578
2026-01-05 02:27:59.14	336.46	13.60	-35.6	-36.9	28.5	3.02e+01	92	28	0	411041792	46	6034
2026-01-05 02:28:03.16	336.60	13.17	-36.5	-37.9	27.4	3.02e+01	92	28	0	418906112	48	6001
2026-01-05 02:28:07.20	336.74	12.75	-36.3	-37.6	27.7	3.02e+01	92	28	0	426246144	46	6544
2026-01-05 02:28:11.24	336.87	12.33	-35.8	-37.1	28.1	3.02e+01	92	28	0	434110464	46	6165
2026-01-05 02:28:15.27	337.00	11.92	-36.7	-38.1	28.0	3.02e+01	91	28	0	441450496	46	6910
2026-01-05 02:28:19.31	337.13	11.52	-36.2	-37.5	28.1	3.02e+01	92	28	0	449314816	46	6483
2026-01-05 02:28:23.35	337.25	11.13	-36.3	-37.6	28.1	3.02e+01	90	28	0	456654848	46	6515
2026-01-05 02:28:27.39	337.37	10.74	-36.5	-37.8	27.4	3.02e+01	92	28	0	464519168	46	6712
2026-01-05 02:28:31.43	337.49	10.36	-36.4	-37.6	28.0	3.02e+01	92	28	0	471859200	46	6566
2026-01-05 02:28:35.47	337.60	9.99	-35.3	-36.6	28.7	3.02e+01	92	28	0	479199232	46	5802
2026-01-05 02:28:39.50	337.72	9.62	-35.3	-36.6	28.8	3.02e+01	92	28	0	487063552	44	6517
2026-01-05 02:28:43.54	337.82	9.26	-35.2	-36.5	28.8	3.02e+01	52	28	0	494403584	46	5740
2026-01-05 02:28:47.58	337.93	8.90	-35.4	-36.7	28.5	3.02e+01	61	28	0	502267904	46	5866
2026-01-05 02:28:51.62	338.04	8.55	-35.9	-37.2	28.1	3.02e+01	59	28	0	509607936	46	6208
2026-01-05 02:28:55.66	338.14	8.20	-35.6	-36.8	28.3	3.02e+01	56	28	0	517472256	46	5984
2026-01-05 02:28:59.69	338.24	7.86	-36.1	-37.4	27.6	3.02e+01	47	28	0	524812288	46	6382
2026-01-05 02:29:03.73	338.34	7.53	-36.3	-37.6	27.5	3.02e+01	60	28	0	532152320	46	6551
2026-01-05 02:29:07.77	338.43	7.20	-35.9	-37.2	27.9	3.02e+01	49	28	0	540016640	46	6255
2026-01-05 02:29:11.80	338.53	6.87	-36.5	-37.8	27.7	3.02e+01	60	28	0	547356672	46	6685
2026-01-05 02:29:15.84	338.62	6.55	-36.2	-37.6	27.6	3.02e+01	44	28	0	555220992	48	5793
2026-01-05 02:29:19.88	338.71	6.23	-36.3	-37.6	27.5	3.02e+01	58	28	0	562561024	46	6545
2026-01-05 02:29:23.92	338.80	5.92	-36.2	-37.5	27.2	3.02e+01	45	28	0	570425344	46	6461
2026-01-05 02:29:27.96	338.89	5.61	-36.6	-38.0	26.5	3.02e+01	58	28	0	577765376	48	6089
2026-01-05 02:29:32.00	338.97	5.31	-37.5	-39.0	25.3	3.02e+01	47	28	0	585629696	48	6825
2026-01-05 02:29:36.04	339.06	5.01	-39.1	-41.1	22.6	3.02e+01	59	28	0	592969728	52	6914
2026-01-05 02:29:40.08	339.14	4.71	-41.1	-44.1	18.7	3.02e+01	46	28	0	600309760	56	7733
2026-01-05 02:29:44.12	339.22	4.42	-42.6	-47.4	14.7	3.02e+01	60	28	0	608174080	58	10078
2026-01-05 02:29:48.16	339.30	4.13	-43.7	-51.6	9.6	3.02e+01	56	28	0	615514112	60	14707
2026-01-05 02:29:52.20	339.38	3.84	-44.1	-57.5	3.7	3.02e+01	0	29	104	620756992	60	28750
2026-01-05 02:29:56.24	339.46	3.56	-44.5	-61.0	3.5	3.02e+01	0	29	104	620756992	60	43123
2026-01-05 02:30:00.27	339.54	3.28	-44.6	-62.1	3.5	3.02e+01	0	29	104	620756992	60	49188
2026-01-05 02:30:04.31	339.61	3.00	-44.5	-62.2	3.5	3.02e+01	0	28	104	620756992	60	49793
2026-01-05 02:30:08.35	339.69	2.72	-49.0	-66.9	3.5	3.02e+01	0	29	104	620756992	60	85156
2026-01-05 02:30:12.39	339.76	2.45	-49.6	-67.5	3.5	3.02e+01	0	29	104	620756992	60	91462
2026-01-05 02:30:16.43	339.83	2.19	-49.4	-67.3	3.5	3.02e+01	0	29	104	620756992	60	88866
2026-01-05 02:30:20.47	339.90	1.92	-50.0	-67.8	3.5	3.02e+01	0	28	104	620756992	60	94798
2026-01-05 02:30:24.51	339.97	1.66	-49.8	-67.8	3.5	3.02e+01	0	29	104	620756992	60	94014
2026-01-05 02:30:28.55	340.04	1.40	-49.1	-67.0	3.5	3.02e+01	0	29	104	620756992	60	85765
2026-01-05 02:30:32.59	340.11	1.14	-49.3	-67.3	3.5	3.02e+01	0	29	104	620756992	60	88724
2026-01-05 02:30:36.64	340.17	0.88	-49.6	-67.6	3.5	3.02e+01	0	29	104	620756992	60	91941
2026-01-05 02:30:40.68	340.24	0.63	-49.4	-67.3	3.5	3.02e+01	0	29	104	620756992	60	89420
2026-01-05 02:30:44.72	340.31	0.38	-49.5	-67.4	3.5	3.02e+01	0	29	104	620756992	60	90505
2026-01-05 02:30:48.75	340.37	0.13	-49.0	-67.0	3.5	3.02e+01	0	29	104	620756992	60	86254
2026-01-05 02:30:52.79	340.43	-0.12	-49.2	-67.1	3.5	3.02e+01	0	29	104	620756992	60	86725

#Closed at: 2026-01-05 02:30:53
#Recorded file [620 MB]: D:/lorett/data/35029_260105_141700.dat