passes_logs/2026/01/05/R4.6S_Anadyr/R4.6S_Anadyr__20260105_122143_NOAA_21_JPSS-2_rec.log

#Pass ID: 20260105_122143_NOAA 21 (JPSS-2)
#Satellite: NOAA 21 (JPSS-2)
#Configuration: NOAA-21
#almurnet v.1.7.20251203
#Start time: 2026-01-05 12:21:44

#Version: 2.2.20231116
#Station: R4.6S_Anadyr
#Location: 177.4865 lon 64.73178 lat
#TLE: 1 54234U 22150A   26004.93331070  .00000143  00000+0  88672-4 0  9998
#TLE: 2 54234  98.7489 305.9554 0001075 342.5085  17.6054 14.19532053163383

#Time	Az	El	Level	Level2	SNR	BER	BlckErr	Temp	State	Recorded	gain1	gain2
2026-01-05 12:21:44.62	19.02	0.04	-49.8	-64.7	3.6	1.51e+00	0	21	0	0	60	62078
2026-01-05 12:21:48.66	19.32	0.24	-48.8	-61.6	3.5	1.52e+00	0	23	104	0	60	42137
2026-01-05 12:21:52.70	19.62	0.43	-48.5	-61.3	3.5	1.52e+00	0	23	104	0	60	41000
2026-01-05 12:21:56.74	19.93	0.63	-48.1	-61.0	3.5	1.51e+00	0	23	104	0	60	39182
2026-01-05 12:22:00.77	20.24	0.83	-47.2	-60.0	3.5	1.52e+00	0	23	104	0	60	34969
2026-01-05 12:22:04.81	20.55	1.03	-47.0	-59.7	3.5	1.52e+00	0	23	104	0	60	34015
2026-01-05 12:22:08.85	20.87	1.23	-46.9	-59.8	3.5	1.52e+00	0	23	104	0	60	34156
2026-01-05 12:22:12.89	21.19	1.43	-47.0	-59.8	3.5	1.52e+00	0	23	104	0	60	34223
2026-01-05 12:22:16.93	21.52	1.63	-47.0	-59.8	3.5	1.52e+00	0	23	104	0	60	34107
2026-01-05 12:22:20.97	21.85	1.84	-47.0	-59.6	3.5	1.52e+00	0	23	104	0	60	33493
2026-01-05 12:22:25.01	22.19	2.04	-46.9	-59.6	3.5	1.52e+00	0	23	104	0	60	33579
2026-01-05 12:22:29.05	22.53	2.24	-46.9	-59.1	3.5	1.52e+00	0	23	104	0	60	31726
2026-01-05 12:22:33.09	22.87	2.45	-46.8	-58.3	3.6	1.51e+00	0	23	104	0	60	28919
2026-01-05 12:22:37.12	23.22	2.65	-40.5	-42.2	16.7	0.00e+00	123	23	0	8388608	56	5689
2026-01-05 12:22:41.16	23.57	2.86	-40.0	-41.5	17.4	0.00e+00	120	23	0	20971520	52	6639
2026-01-05 12:22:45.20	23.93	3.07	-42.5	-44.9	14.2	0.00e+00	123	23	0	33554432	56	7724
2026-01-05 12:22:49.24	24.29	3.27	-47.1	-59.8	3.5	1.51e+00	0	23	104	37748736	60	34168
2026-01-05 12:22:53.27	24.66	3.48	-41.1	-42.9	15.4	0.00e+00	120	23	0	45088768	56	6193
2026-01-05 12:22:57.31	25.03	3.69	-41.4	-43.2	16.6	0.00e+00	122	23	0	58720256	56	6404
2026-01-05 12:23:01.35	25.41	3.90	-40.9	-42.6	16.7	0.00e+00	120	23	0	71303168	54	6720
2026-01-05 12:23:05.38	25.79	4.11	-41.2	-43.0	16.2	0.00e+00	120	23	0	83886080	54	6989
2026-01-05 12:23:09.42	26.18	4.32	-39.6	-41.0	18.5	0.00e+00	123	23	0	96468992	52	6254
2026-01-05 12:23:13.46	26.57	4.53	-39.2	-40.6	19.0	0.00e+00	120	23	0	109051904	50	6658
2026-01-05 12:23:17.50	26.97	4.74	-38.6	-39.9	19.5	0.00e+00	123	23	0	121634816	50	6135
2026-01-05 12:23:21.54	27.37	4.96	-37.9	-39.1	20.2	0.00e+00	123	23	0	134217728	48	6318
2026-01-05 12:23:25.58	27.78	5.17	-37.5	-38.6	20.6	0.00e+00	120	23	0	146800640	48	5976
2026-01-05 12:23:29.62	28.20	5.38	-37.7	-38.9	20.5	0.00e+00	121	23	0	159383552	48	6136
2026-01-05 12:23:33.65	28.62	5.60	-37.6	-38.8	20.5	0.00e+00	122	24	0	171966464	48	6099
2026-01-05 12:23:37.69	29.04	5.81	-37.8	-39.0	20.2	0.00e+00	120	23	0	184549376	48	6251
2026-01-05 12:23:41.73	29.48	6.03	-37.2	-38.3	21.0	0.00e+00	122	23	0	197132288	48	5744
2026-01-05 12:23:45.77	29.92	6.24	-37.0	-38.1	21.2	0.00e+00	122	24	0	209715200	46	6297
2026-01-05 12:23:49.80	30.36	6.46	-36.9	-38.0	21.3	0.00e+00	123	24	0	222298112	46	6221
2026-01-05 12:23:53.84	30.81	6.67	-36.8	-37.9	21.4	0.00e+00	122	24	0	234881024	46	6192
2026-01-05 12:23:57.88	31.27	6.89	-36.6	-37.7	21.6	0.00e+00	120	24	0	247463936	46	6023
2026-01-05 12:24:01.92	31.74	7.11	-36.6	-37.6	21.7	0.00e+00	122	24	0	260046848	46	5983
2026-01-05 12:24:05.96	32.21	7.32	-36.5	-37.6	21.7	0.00e+00	123	24	0	272629760	46	5943
2026-01-05 12:24:10.00	32.69	7.54	-36.7	-37.8	21.6	0.00e+00	122	24	0	285212672	46	6093
2026-01-05 12:24:14.04	33.17	7.76	-36.1	-37.2	22.1	0.00e+00	122	24	0	297795584	46	5669
2026-01-05 12:24:18.08	33.66	7.98	-36.0	-37.0	22.3	0.00e+00	123	24	0	310378496	46	5589
2026-01-05 12:24:22.11	34.16	8.19	-35.9	-36.9	22.5	0.00e+00	122	24	0	322961408	46	5517
2026-01-05 12:24:26.15	34.67	8.41	-35.7	-36.7	22.6	0.00e+00	123	24	0	335544320	46	5369
2026-01-05 12:24:30.19	35.18	8.63	-35.8	-36.8	22.5	0.00e+00	122	24	0	348127232	44	6073
2026-01-05 12:24:34.23	35.70	8.85	-35.5	-36.5	22.7	0.00e+00	123	24	0	360710144	44	5918
2026-01-05 12:24:38.26	36.23	9.06	-35.5	-36.5	22.8	0.00e+00	122	24	0	373293056	44	5886
2026-01-05 12:24:42.30	36.77	9.28	-35.8	-36.8	22.5	0.00e+00	123	24	0	385875968	44	6117
2026-01-05 12:24:46.34	37.31	9.50	-35.7	-36.7	22.6	0.00e+00	123	24	0	399507456	44	6055
2026-01-05 12:24:50.37	37.86	9.71	-35.5	-36.4	22.8	0.00e+00	123	24	0	411041792	44	5850
2026-01-05 12:24:54.41	38.42	9.93	-35.3	-36.2	23.0	0.00e+00	123	24	0	424673280	44	5716
2026-01-05 12:24:58.45	38.99	10.15	-35.4	-36.3	23.0	0.00e+00	123	24	0	437256192	44	5768
2026-01-05 12:25:02.49	39.56	10.36	-35.1	-36.1	23.2	0.00e+00	123	24	0	449839104	44	5622
2026-01-05 12:25:06.53	40.15	10.58	-35.0	-36.0	23.3	0.00e+00	123	24	0	462422016	44	5541
2026-01-05 12:25:10.57	40.74	10.79	-35.0	-36.0	23.2	0.00e+00	123	24	0	475004928	44	5535
2026-01-05 12:25:14.61	41.34	11.00	-34.9	-35.9	23.4	0.00e+00	122	24	0	487587840	44	5483
2026-01-05 12:25:18.65	41.95	11.21	-35.2	-36.2	23.2	0.00e+00	122	24	0	500170752	44	5662
2026-01-05 12:25:22.69	42.57	11.43	-34.9	-35.9	23.3	0.00e+00	122	24	0	512753664	44	5492
2026-01-05 12:25:26.73	43.20	11.64	-34.8	-35.7	23.6	0.00e+00	123	24	0	525336576	42	6064
2026-01-05 12:25:30.76	43.83	11.84	-34.8	-35.7	23.6	0.00e+00	123	24	0	537919488	42	6028
2026-01-05 12:25:34.80	44.47	12.05	-34.7	-35.6	23.7	0.00e+00	123	24	0	550502400	42	5948
2026-01-05 12:25:38.84	45.13	12.26	-34.8	-35.7	23.6	0.00e+00	123	24	0	563085312	42	6044
2026-01-05 12:25:42.87	45.79	12.46	-34.8	-35.7	23.6	0.00e+00	123	24	0	575668224	42	6050
2026-01-05 12:25:46.91	46.46	12.66	-34.7	-35.6	23.8	0.00e+00	122	24	0	588251136	42	5963
2026-01-05 12:25:50.95	47.14	12.86	-35.4	-36.4	23.0	0.00e+00	123	24	0	600834048	42	6555
2026-01-05 12:25:54.99	47.83	13.06	-35.1	-36.1	23.2	0.00e+00	120	24	0	613416960	42	6325
2026-01-05 12:25:59.04	48.53	13.26	-35.3	-36.3	23.1	0.00e+00	122	24	0	625999872	42	6451
2026-01-05 12:26:03.08	49.23	13.45	-34.9	-35.8	23.6	0.00e+00	122	24	0	638582784	42	6124
2026-01-05 12:26:07.12	49.95	13.64	-34.8	-35.8	23.6	0.00e+00	123	24	0	651165696	42	6072
2026-01-05 12:26:11.17	50.68	13.83	-35.0	-36.0	23.4	0.00e+00	120	24	0	663748608	42	6208
2026-01-05 12:26:15.21	51.41	14.02	-35.0	-36.0	23.4	0.00e+00	123	24	0	676331520	42	6239
2026-01-05 12:26:19.25	52.15	14.20	-34.8	-35.7	23.7	0.00e+00	122	24	0	688914432	42	6026
2026-01-05 12:26:23.29	52.90	14.38	-34.9	-35.8	23.5	0.00e+00	123	24	0	701497344	42	6104
2026-01-05 12:26:27.33	53.66	14.56	-35.0	-35.9	23.4	0.00e+00	123	24	0	714080256	42	6201
2026-01-05 12:26:31.37	54.43	14.73	-34.7	-35.6	23.8	0.00e+00	122	24	0	726663168	42	5994
2026-01-05 12:26:35.41	55.21	14.90	-34.6	-35.5	23.8	0.00e+00	123	24	0	740294656	42	5904
2026-01-05 12:26:39.45	56.00	15.07	-34.6	-35.6	23.7	0.00e+00	122	24	0	752877568	42	5944
2026-01-05 12:26:43.49	56.79	15.23	-34.6	-35.5	23.9	0.00e+00	123	24	0	765460480	42	5901
2026-01-05 12:26:47.52	57.59	15.39	-34.7	-35.7	23.9	0.00e+00	122	24	0	778043392	42	5996
2026-01-05 12:26:51.56	58.41	15.54	-35.0	-35.9	23.5	0.00e+00	123	24	0	790626304	42	6184
2026-01-05 12:26:55.60	59.23	15.69	-34.9	-35.8	23.6	0.00e+00	122	24	0	803209216	44	5429
2026-01-05 12:26:59.64	60.05	15.83	-34.3	-35.2	24.1	0.00e+00	123	24	0	815792128	42	5673
2026-01-05 12:27:03.68	60.89	15.97	-34.1	-35.0	24.2	0.00e+00	123	24	0	828375040	42	5592
2026-01-05 12:27:07.72	61.73	16.11	-34.0	-34.8	24.3	0.00e+00	122	24	0	840957952	42	5467
2026-01-05 12:27:11.76	62.58	16.24	-34.2	-35.1	24.1	0.00e+00	123	24	0	853540864	42	5628
2026-01-05 12:27:15.80	63.44	16.36	-34.1	-35.0	24.2	0.00e+00	122	24	0	866123776	42	5588
2026-01-05 12:27:19.84	64.30	16.48	-33.9	-34.8	24.2	0.00e+00	123	24	0	878706688	42	5467
2026-01-05 12:27:23.88	65.17	16.59	-34.1	-35.0	24.2	0.00e+00	122	24	0	891289600	42	5571
2026-01-05 12:27:27.92	66.05	16.70	-33.9	-34.8	24.4	0.00e+00	122	24	0	903872512	42	5429
2026-01-05 12:27:31.96	66.93	16.80	-34.0	-35.0	24.1	0.00e+00	120	24	0	916455424	42	5539
2026-01-05 12:27:36.00	67.82	16.90	-33.9	-34.8	24.4	0.00e+00	123	24	0	929038336	42	5432
2026-01-05 12:27:40.04	68.72	16.99	-34.0	-34.9	24.2	0.00e+00	122	24	0	941621248	42	5504
2026-01-05 12:27:44.08	69.62	17.07	-34.2	-35.1	24.2	0.00e+00	122	24	0	954204160	42	5624
2026-01-05 12:27:48.12	70.52	17.14	-34.0	-34.9	24.2	0.00e+00	123	24	0	966787072	42	5508
2026-01-05 12:27:52.16	71.43	17.21	-34.1	-35.0	24.3	0.00e+00	122	24	0	979369984	42	5587
2026-01-05 12:27:56.20	72.34	17.28	-34.0	-34.9	24.3	0.00e+00	121	24	0	991952896	42	5523
2026-01-05 12:28:00.24	73.26	17.33	-34.4	-35.3	23.9	0.00e+00	120	24	0	1004535808	42	5783
2026-01-05 12:28:04.28	74.18	17.38	-34.0	-34.9	24.4	0.00e+00	123	24	0	1017118720	42	5527
2026-01-05 12:28:08.32	75.10	17.42	-34.1	-35.0	24.2	0.00e+00	123	24	0	1029701632	42	5573
2026-01-05 12:28:12.36	76.02	17.46	-34.1	-35.1	24.2	0.00e+00	123	24	0	1042284544	42	5595
2026-01-05 12:28:16.39	76.95	17.49	-34.3	-35.2	24.1	0.00e+00	123	24	0	1055916032	42	5722
2026-01-05 12:28:20.43	77.87	17.51	-34.0	-34.9	24.4	0.00e+00	123	24	0	1067450368	42	5488
2026-01-05 12:28:24.47	78.80	17.52	-34.3	-35.2	24.2	0.00e+00	122	24	0	1081081856	42	5685
2026-01-05 12:28:28.50	79.73	17.53	-34.1	-35.0	24.2	0.00e+00	123	24	0	1093664768	42	5571
2026-01-05 12:28:32.54	80.66	17.53	-34.2	-35.1	24.2	0.00e+00	120	24	0	1106247680	42	5632
2026-01-05 12:28:36.58	81.59	17.52	-34.2	-35.1	24.1	0.00e+00	123	24	0	1118830592	42	5620
2026-01-05 12:28:40.62	82.52	17.50	-34.3	-35.2	24.2	0.00e+00	121	24	0	1131413504	42	5707
2026-01-05 12:28:44.66	83.44	17.48	-34.1	-35.0	24.2	0.00e+00	123	24	0	1143996416	42	5559
2026-01-05 12:28:48.70	84.37	17.45	-34.4	-35.3	24.0	0.00e+00	122	24	0	1156579328	42	5757
2026-01-05 12:28:52.73	85.29	17.41	-34.1	-35.0	24.3	0.00e+00	123	24	0	1169162240	42	5578
2026-01-05 12:28:56.77	86.21	17.37	-34.6	-35.5	23.9	0.00e+00	122	24	0	1181745152	42	5887
2026-01-05 12:29:00.81	87.13	17.32	-34.3	-35.2	24.1	0.00e+00	122	24	0	1194328064	42	5701
2026-01-05 12:29:04.85	88.05	17.26	-34.0	-35.0	24.3	0.00e+00	123	24	0	1206910976	42	5538
2026-01-05 12:29:08.89	88.96	17.20	-34.0	-34.9	24.3	0.00e+00	120	24	0	1219493888	42	5484
2026-01-05 12:29:12.92	89.87	17.12	-34.3	-35.2	24.0	0.00e+00	122	24	0	1232076800	42	5683
2026-01-05 12:29:16.96	90.77	17.05	-33.9	-34.8	24.3	0.00e+00	123	24	0	1244659712	42	5419
2026-01-05 12:29:21.00	91.67	16.96	-34.1	-35.0	24.2	0.00e+00	123	24	0	1257242624	42	5560
2026-01-05 12:29:25.04	92.57	16.87	-34.0	-34.9	24.3	0.00e+00	123	24	0	1269825536	42	5526
2026-01-05 12:29:29.08	93.46	16.77	-34.0	-34.9	24.3	0.00e+00	123	24	0	1282408448	42	5492
2026-01-05 12:29:33.12	94.34	16.67	-34.0	-34.9	24.4	0.00e+00	122	24	0	1294991360	42	5501
2026-01-05 12:29:37.15	95.22	16.56	-34.3	-35.2	24.2	0.00e+00	123	24	0	1307574272	42	5671
2026-01-05 12:29:41.19	96.09	16.45	-33.8	-34.7	24.4	0.00e+00	123	24	0	1320157184	42	5388
2026-01-05 12:29:45.23	96.95	16.33	-34.5	-35.4	24.0	0.00e+00	122	24	0	1332740096	42	5804
2026-01-05 12:29:49.26	97.81	16.20	-34.1	-35.0	24.2	0.00e+00	123	24	0	1345323008	42	5590
2026-01-05 12:29:53.30	98.66	16.07	-33.6	-34.5	24.6	0.00e+00	123	24	0	1357905920	40	5902
2026-01-05 12:29:57.34	99.50	15.93	-34.0	-34.9	24.3	0.00e+00	122	24	0	1370488832	40	6166
2026-01-05 12:30:01.38	100.34	15.79	-33.9	-34.8	24.4	0.00e+00	122	24	0	1383071744	40	6087
2026-01-05 12:30:05.42	101.17	15.64	-33.8	-34.6	24.6	0.00e+00	123	24	0	1395654656	40	5994
2026-01-05 12:30:09.46	101.99	15.49	-34.1	-35.0	24.1	0.00e+00	122	24	0	1408237568	40	6231
2026-01-05 12:30:13.50	102.80	15.34	-34.4	-35.3	23.9	0.00e+00	120	24	0	1421869056	40	6474
2026-01-05 12:30:17.54	103.60	15.18	-34.2	-35.2	24.1	0.00e+00	122	24	0	1433403392	42	5677
2026-01-05 12:30:21.58	104.40	15.01	-34.2	-35.1	24.1	0.00e+00	122	24	0	1447034880	42	5619
2026-01-05 12:30:25.62	105.19	14.85	-34.7	-35.6	23.7	0.00e+00	123	24	0	1459617792	42	5968
2026-01-05 12:30:29.66	105.96	14.67	-34.9	-35.8	23.6	0.00e+00	123	24	0	1472200704	42	6095
2026-01-05 12:30:33.70	106.73	14.50	-34.5	-35.4	23.8	0.00e+00	122	24	0	1484783616	42	5824
2026-01-05 12:30:37.74	107.49	14.32	-34.6	-35.5	23.7	0.00e+00	120	24	0	1497366528	42	5912
2026-01-05 12:30:41.77	108.25	14.14	-34.7	-35.7	23.6	0.00e+00	122	24	0	1509949440	42	6008
2026-01-05 12:30:45.80	108.99	13.95	-34.8	-35.7	23.6	0.00e+00	123	24	0	1522532352	42	6022
2026-01-05 12:30:49.83	109.72	13.77	-34.5	-35.5	23.7	0.00e+00	120	24	0	1535115264	42	5868
2026-01-05 12:30:53.86	110.44	13.58	-34.5	-35.4	23.8	0.00e+00	123	24	0	1547698176	42	5841
2026-01-05 12:30:57.90	111.16	13.38	-34.6	-35.6	23.7	0.00e+00	122	24	0	1560281088	42	5942
2026-01-05 12:31:01.93	111.86	13.19	-35.0	-36.0	23.4	0.00e+00	120	24	0	1572864000	42	6230
2026-01-05 12:31:05.97	112.56	12.99	-34.7	-35.7	23.6	0.00e+00	123	24	0	1585446912	42	6003
2026-01-05 12:31:10.00	113.25	12.79	-34.5	-35.4	23.8	0.00e+00	123	24	0	1598029824	42	5841
2026-01-05 12:31:14.04	113.93	12.59	-34.9	-35.9	23.4	0.00e+00	123	24	0	1610612736	42	6184
2026-01-05 12:31:18.08	114.60	12.38	-35.7	-36.7	22.9	0.00e+00	120	24	0	1623195648	42	6739
2026-01-05 12:31:22.12	115.26	12.17	-34.7	-35.7	23.6	0.00e+00	122	24	0	1635778560	42	6020
2026-01-05 12:31:26.16	115.91	11.97	-34.6	-35.5	23.7	0.00e+00	123	24	0	1648361472	42	5915
2026-01-05 12:31:30.20	116.56	11.76	-34.9	-35.8	23.5	0.00e+00	120	24	0	1660944384	42	6131
2026-01-05 12:31:34.23	117.19	11.55	-34.9	-35.9	23.4	0.00e+00	123	24	0	1673527296	42	6139
2026-01-05 12:31:38.26	117.82	11.34	-35.0	-35.9	23.4	0.00e+00	123	24	0	1686110208	42	6201
2026-01-05 12:31:42.30	118.44	11.12	-34.8	-35.7	23.5	0.00e+00	122	24	0	1698693120	42	6028
2026-01-05 12:31:46.34	119.05	10.91	-34.8	-35.8	23.4	0.00e+00	123	24	0	1711276032	42	6088
2026-01-05 12:31:50.38	119.65	10.69	-35.1	-36.0	23.3	0.00e+00	122	24	0	1723858944	42	6272
2026-01-05 12:31:54.42	120.24	10.48	-35.2	-36.1	23.2	0.00e+00	120	24	0	1736441856	42	6341
2026-01-05 12:31:58.46	120.82	10.26	-35.2	-36.2	23.1	0.00e+00	123	24	0	1749024768	42	6368
2026-01-05 12:32:02.49	121.40	10.04	-35.3	-36.2	23.1	0.00e+00	120	24	0	1761607680	42	6407
2026-01-05 12:32:06.53	121.96	9.83	-35.4	-36.4	22.8	0.00e+00	123	24	0	1774190592	42	6533
2026-01-05 12:32:10.57	122.52	9.61	-35.6	-36.6	22.7	0.00e+00	123	24	0	1786773504	42	6653
2026-01-05 12:32:14.60	123.07	9.39	-36.0	-37.0	22.2	0.00e+00	122	24	0	1799356416	44	6255
2026-01-05 12:32:18.64	123.62	9.17	-36.2	-37.3	22.1	0.00e+00	122	24	0	1812987904	44	6436
2026-01-05 12:32:22.67	124.15	8.95	-35.6	-36.6	22.7	0.00e+00	123	24	0	1824522240	44	5968
2026-01-05 12:32:26.71	124.68	8.73	-35.6	-36.6	22.5	0.00e+00	123	24	0	1837105152	44	5964
2026-01-05 12:32:30.74	125.20	8.51	-35.9	-36.9	22.3	0.00e+00	122	24	0	1850736640	44	6203
2026-01-05 12:32:34.78	125.71	8.29	-36.0	-37.0	22.1	0.00e+00	123	24	0	1862270976	44	6242
2026-01-05 12:32:38.82	126.22	8.07	-36.0	-37.0	22.3	0.00e+00	123	24	0	1875902464	44	6239
2026-01-05 12:32:42.86	126.72	7.85	-35.8	-36.8	22.4	0.00e+00	122	24	0	1888485376	44	6126
2026-01-05 12:32:46.89	127.21	7.63	-36.0	-37.0	22.2	0.00e+00	123	24	0	1901068288	44	6242
2026-01-05 12:32:50.93	127.69	7.41	-36.1	-37.2	22.0	0.00e+00	120	24	0	1913651200	44	6364
2026-01-05 12:32:54.98	128.17	7.19	-36.2	-37.2	22.0	0.00e+00	123	24	0	1926234112	44	6423
2026-01-05 12:32:59.02	128.64	6.98	-36.5	-37.5	21.7	0.00e+00	123	24	0	1938817024	44	6626
2026-01-05 12:33:03.05	129.10	6.76	-36.7	-37.8	21.6	0.00e+00	123	24	0	1951399936	44	6805
2026-01-05 12:33:07.09	129.56	6.54	-36.6	-37.7	21.6	0.00e+00	123	24	0	1963982848	44	6731
2026-01-05 12:33:11.12	130.01	6.32	-36.7	-37.8	21.4	0.00e+00	121	24	0	1976565760	46	6103
2026-01-05 12:33:15.16	130.45	6.10	-36.6	-37.7	21.5	0.00e+00	120	24	0	1989148672	46	6023
2026-01-05 12:33:19.21	130.89	5.89	-36.7	-37.8	21.4	0.00e+00	120	24	0	2001731584	46	6113
2026-01-05 12:33:23.25	131.32	5.67	-36.7	-37.8	21.5	0.00e+00	120	24	0	2014314496	46	6090
2026-01-05 12:33:27.29	131.75	5.45	-36.7	-37.8	21.4	0.00e+00	120	24	0	2026897408	46	6094
2026-01-05 12:33:31.32	132.17	5.24	-37.0	-38.1	21.0	0.00e+00	123	24	0	2039480320	46	6323
2026-01-05 12:33:35.36	132.58	5.02	-37.0	-38.2	20.9	0.00e+00	122	24	0	2052063232	46	6367
2026-01-05 12:33:39.40	132.99	4.81	-37.0	-38.1	21.0	0.00e+00	123	24	0	2064646144	46	6320
2026-01-05 12:33:43.43	133.39	4.59	-37.1	-38.3	20.7	0.00e+00	123	24	0	2077229056	46	6453
2026-01-05 12:33:47.47	133.78	4.38	-37.1	-38.3	20.7	0.00e+00	123	24	0	2089811968	46	6440
2026-01-05 12:33:51.51	134.18	4.17	-37.4	-38.6	20.5	0.00e+00	123	24	0	2102394880	46	6697
2026-01-05 12:33:55.55	134.56	3.95	-37.2	-38.3	20.7	0.00e+00	123	24	0	2114977792	46	6465
2026-01-05 12:33:59.59	134.94	3.74	-37.0	-38.2	20.6	0.00e+00	122	24	0	2127560704	46	6373
2026-01-05 12:34:03.61	135.31	3.53	-37.2	-38.4	20.5	0.00e+00	123	24	0	2140143616	46	6528
2026-01-05 12:34:07.66	135.69	3.32	-37.4	-38.6	20.2	0.00e+00	122	24	0	2152726528	48	5961
2026-01-05 12:34:11.69	136.05	3.11	-38.0	-39.3	19.7	0.00e+00	122	24	0	2165309440	48	6460
2026-01-05 12:34:15.73	136.41	2.90	-48.0	-60.9	3.5	1.52e+00	0	24	104	2171600896	60	38804
2026-01-05 12:34:19.77	136.77	2.69	-48.4	-61.3	3.5	1.51e+00	0	25	104	2171600896	60	40688
2026-01-05 12:34:23.81	137.12	2.49	-48.4	-61.3	3.5	1.52e+00	0	25	104	2171600896	60	40801
2026-01-05 12:34:27.85	137.46	2.28	-48.4	-61.3	3.5	1.51e+00	0	24	104	2171600896	60	40766
2026-01-05 12:34:31.88	137.80	2.07	-48.5	-61.4	3.5	1.52e+00	0	24	104	2171600896	60	41042
2026-01-05 12:34:35.92	138.14	1.87	-48.4	-61.3	3.5	1.52e+00	0	25	104	2171600896	60	40653
2026-01-05 12:34:39.96	138.47	1.66	-48.5	-61.3	3.5	1.52e+00	0	24	104	2171600896	60	40785
2026-01-05 12:34:43.99	138.80	1.46	-48.6	-61.4	3.5	1.52e+00	0	25	104	2171600896	60	41261
2026-01-05 12:34:48.03	139.12	1.25	-48.5	-61.4	3.5	1.52e+00	0	25	104	2171600896	60	41172
2026-01-05 12:34:52.07	139.44	1.05	-48.6	-61.4	3.5	1.52e+00	0	25	104	2171600896	60	41174
2026-01-05 12:34:56.10	139.76	0.85	-48.6	-61.5	3.5	1.52e+00	0	25	104	2171600896	60	41637
2026-01-05 12:35:00.14	140.07	0.65	-44.8	-58.0	3.5	1.51e+00	0	25	104	2171600896	60	27797
2026-01-05 12:35:04.18	140.38	0.45	-44.4	-57.5	3.5	1.51e+00	0	25	104	2171600896	60	26352
2026-01-05 12:35:08.22	140.68	0.25	-44.6	-57.7	3.5	1.52e+00	0	25	104	2171600896	60	26931
2026-01-05 12:35:12.26	140.98	0.05	-44.7	-57.8	3.5	1.52e+00	0	25	104	2171600896	60	27335

#Closed at: 2026-01-05 12:35:15
#Recorded file [2171 MB]: D:/lorett/data/35029_260106_002144.dat