passes_logs/2026/01/05/R4.6S_Anadyr/R4.6S_Anadyr__20260105_171250_FENGYUN_3D_rec.log

#Pass ID: 20260105_171250_FENGYUN 3D
#Satellite: FENGYUN 3D
#Configuration: FENGYUN 3D
#almurnet v.1.7.20251203
#Start time: 2026-01-05 17:12:52

#Version: 2.2.20231116
#Station: R4.6S_Anadyr
#Location: 177.4865 lon 64.73178 lat
#TLE: 1 43010U 17072A   26004.99581904 -.00000126  00000+0 -37613-4 0  9996
#TLE: 2 43010  98.9917 336.6574 0001994 126.4096 233.7264 14.19691690421839

#Time	Az	El	Level	Level2	SNR	BER	BlckErr	Temp	State	Recorded	gain1	gain2
2026-01-05 17:12:52.54	22.03	0.14	-48.6	-63.5	3.5	1.51e+00	0	30	0	0	60	53868
2026-01-05 17:12:56.58	22.00	0.39	-48.6	-60.7	3.6	8.45e-01	0	31	104	0	60	39012
2026-01-05 17:13:00.62	21.98	0.63	-48.6	-60.6	3.5	8.45e-01	0	31	104	0	60	38850
2026-01-05 17:13:04.66	21.94	0.88	-48.2	-60.3	3.6	8.45e-01	0	32	104	0	60	37408
2026-01-05 17:13:08.70	21.91	1.13	-47.3	-59.4	3.6	8.46e-01	0	32	104	0	60	33826
2026-01-05 17:13:12.74	21.88	1.38	-47.2	-59.1	3.6	8.45e-01	0	32	104	0	60	32506
2026-01-05 17:13:16.78	21.85	1.63	-47.2	-58.4	3.6	8.45e-01	0	32	104	0	60	30124
2026-01-05 17:13:20.82	21.81	1.88	-47.2	-59.1	3.6	8.46e-01	0	32	104	0	60	32491
2026-01-05 17:13:24.85	21.78	2.14	-47.2	-59.2	3.6	8.45e-01	0	32	104	0	60	32998
2026-01-05 17:13:28.89	21.74	2.40	-47.2	-58.4	3.6	8.45e-01	0	32	104	0	60	30235
2026-01-05 17:13:32.93	21.71	2.66	-47.0	-56.3	3.9	8.41e-01	0	32	104	0	60	23529
2026-01-05 17:13:36.97	21.67	2.93	-47.1	-57.4	3.6	8.44e-01	0	32	104	0	60	26910
2026-01-05 17:13:41.01	21.63	3.19	-44.9	-48.4	9.5	2.56e-02	0	32	0	10485760	60	9491
2026-01-05 17:13:45.05	21.59	3.46	-42.6	-44.6	13.7	2.40e-05	0	32	0	32505856	58	6894
2026-01-05 17:13:49.09	21.55	3.74	-43.5	-46.0	12.0	3.51e-04	0	32	0	55574528	58	8094
2026-01-05 17:13:53.13	21.51	4.01	-47.0	-57.7	3.6	8.44e-01	0	32	104	67108864	60	27782
2026-01-05 17:13:57.16	21.46	4.29	-35.3	-36.1	22.2	0.00e+00	0	32	0	74448896	44	5808
2026-01-05 17:14:01.19	21.42	4.57	-35.2	-35.9	22.5	0.00e+00	0	32	0	97517568	44	5689
2026-01-05 17:14:05.23	21.38	4.85	-35.2	-36.0	22.5	0.00e+00	0	32	0	119537664	44	5707
2026-01-05 17:14:09.27	21.33	5.14	-34.9	-35.7	22.8	0.00e+00	0	32	0	142606336	42	6197
2026-01-05 17:14:13.31	21.28	5.43	-34.6	-35.4	23.1	0.00e+00	0	32	0	165675008	42	5972
2026-01-05 17:14:17.35	21.23	5.72	-34.4	-35.1	23.5	0.00e+00	0	32	0	187695104	42	5777
2026-01-05 17:14:21.38	21.18	6.02	-34.5	-35.2	23.3	0.00e+00	0	32	0	210763776	42	5846
2026-01-05 17:14:25.42	21.13	6.31	-34.3	-35.0	23.5	0.00e+00	0	32	0	233832448	42	5742
2026-01-05 17:14:29.46	21.07	6.62	-34.3	-35.0	23.5	0.00e+00	0	32	0	255852544	42	5741
2026-01-05 17:14:33.50	21.02	6.92	-34.1	-34.8	23.8	0.00e+00	0	32	0	278921216	42	5612
2026-01-05 17:14:37.53	20.96	7.23	-34.0	-34.7	23.9	0.00e+00	0	32	0	301989888	42	5517
2026-01-05 17:14:41.57	20.91	7.55	-33.8	-34.5	24.1	0.00e+00	0	32	0	324009984	42	5419
2026-01-05 17:14:45.61	20.85	7.87	-33.8	-34.5	24.2	0.00e+00	0	32	0	347078656	40	6047
2026-01-05 17:14:49.64	20.78	8.19	-33.7	-34.4	24.3	0.00e+00	0	32	0	370147328	40	5978
2026-01-05 17:14:53.68	20.72	8.51	-33.7	-34.4	24.4	0.00e+00	0	32	0	392167424	40	5966
2026-01-05 17:14:57.72	20.66	8.84	-33.5	-34.2	24.5	0.00e+00	0	32	0	415236096	40	5832
2026-01-05 17:15:01.76	20.59	9.18	-33.3	-34.0	24.6	0.00e+00	0	32	0	438304768	40	5742
2026-01-05 17:15:05.79	20.52	9.52	-33.4	-34.1	24.6	0.00e+00	0	32	0	460324864	40	5813
2026-01-05 17:15:09.84	20.45	9.86	-33.2	-33.9	24.8	0.00e+00	0	32	0	483393536	40	5648
2026-01-05 17:15:13.88	20.38	10.21	-33.1	-33.8	24.8	0.00e+00	0	32	0	506462208	40	5615
2026-01-05 17:15:17.92	20.30	10.56	-33.0	-33.7	24.9	0.00e+00	0	32	0	528482304	40	5550
2026-01-05 17:15:21.95	20.22	10.92	-33.0	-33.6	25.1	0.00e+00	0	32	0	551550976	40	5495
2026-01-05 17:15:25.99	20.14	11.28	-32.9	-33.5	25.2	0.00e+00	0	33	0	574619648	40	5434
2026-01-05 17:15:30.02	20.06	11.65	-32.8	-33.5	25.3	0.00e+00	0	33	0	596639744	40	5397
2026-01-05 17:15:34.06	19.98	12.03	-32.8	-33.4	25.3	0.00e+00	0	32	0	619708416	38	6032
2026-01-05 17:15:38.10	19.89	12.41	-32.7	-33.3	25.4	0.00e+00	0	32	0	641728512	38	5963
2026-01-05 17:15:42.13	19.80	12.79	-32.7	-33.4	25.4	0.00e+00	0	32	0	664797184	38	5995
2026-01-05 17:15:46.17	19.70	13.18	-32.7	-33.3	25.5	0.00e+00	0	32	0	687865856	38	5961
2026-01-05 17:15:50.21	19.61	13.58	-32.8	-33.5	25.3	0.00e+00	0	33	0	710934528	38	6052
2026-01-05 17:15:54.24	19.51	13.99	-32.7	-33.4	25.4	0.00e+00	0	33	0	732954624	38	5977
2026-01-05 17:15:58.28	19.41	14.40	-32.5	-33.2	25.4	0.00e+00	0	32	0	756023296	38	5866
2026-01-05 17:16:02.32	19.30	14.82	-32.5	-33.2	25.6	0.00e+00	0	33	0	779091968	38	5844
2026-01-05 17:16:06.36	19.19	15.25	-32.2	-32.9	26.0	0.00e+00	0	32	0	801112064	38	5655
2026-01-05 17:16:10.40	19.08	15.68	-32.0	-32.7	26.1	0.00e+00	0	33	0	824180736	38	5512
2026-01-05 17:16:14.44	18.96	16.12	-31.7	-32.3	26.4	0.00e+00	0	32	0	846200832	36	5954
2026-01-05 17:16:18.48	18.84	16.57	-31.4	-32.1	26.6	0.00e+00	0	33	0	869269504	36	5777
2026-01-05 17:16:22.52	18.72	17.03	-31.3	-31.9	26.7	0.00e+00	0	33	0	892338176	36	5676
2026-01-05 17:16:26.55	18.59	17.49	-31.3	-31.9	26.9	0.00e+00	0	32	0	914358272	36	5649
2026-01-05 17:16:30.58	18.45	17.97	-31.0	-31.6	27.0	0.00e+00	0	32	0	937426944	36	5449
2026-01-05 17:16:34.62	18.31	18.45	-30.6	-31.2	27.2	0.00e+00	0	33	0	960495616	34	5869
2026-01-05 17:16:38.66	18.17	18.95	-30.5	-31.1	27.5	0.00e+00	0	33	0	983564288	34	5803
2026-01-05 17:16:42.70	18.02	19.45	-30.7	-31.3	27.3	0.00e+00	0	33	0	1005584384	34	5916
2026-01-05 17:16:46.74	17.86	19.97	-30.7	-31.4	27.2	0.00e+00	0	33	0	1028653056	34	5979
2026-01-05 17:16:50.77	17.70	20.49	-30.7	-31.4	27.2	0.00e+00	0	33	0	1050673152	34	5993
2026-01-05 17:16:54.81	17.54	21.02	-30.7	-31.4	27.2	0.00e+00	0	33	0	1073741824	34	5981
2026-01-05 17:16:58.85	17.36	21.57	-30.7	-31.3	27.3	0.00e+00	0	32	0	1096810496	34	5939
2026-01-05 17:17:02.89	17.18	22.13	-30.1	-30.7	27.7	0.00e+00	0	33	0	1118830592	34	5546
2026-01-05 17:17:06.93	16.99	22.70	-30.0	-30.6	27.9	0.00e+00	0	33	0	1141899264	34	5447
2026-01-05 17:17:10.97	16.80	23.29	-29.9	-30.5	27.9	0.00e+00	0	33	0	1164967936	32	6040
2026-01-05 17:17:15.01	16.59	23.88	-29.7	-30.4	28.1	0.00e+00	0	33	0	1188036608	32	5971
2026-01-05 17:17:19.04	16.38	24.49	-29.9	-30.5	28.0	0.00e+00	0	32	0	1210056704	32	6048
2026-01-05 17:17:23.08	16.16	25.12	-30.0	-30.5	27.9	0.00e+00	0	32	0	1233125376	32	6090
2026-01-05 17:17:27.11	15.93	25.75	-29.8	-30.5	28.1	0.00e+00	0	32	0	1255145472	32	6047
2026-01-05 17:17:31.15	15.69	26.41	-29.6	-30.2	28.2	0.00e+00	0	33	0	1278214144	32	5852
2026-01-05 17:17:35.19	15.44	27.08	-29.6	-30.2	28.2	0.00e+00	0	33	0	1301282816	32	5838
2026-01-05 17:17:39.23	15.17	27.76	-29.6	-30.2	28.2	0.00e+00	0	33	0	1323302912	32	5849
2026-01-05 17:17:43.27	14.90	28.47	-29.7	-30.3	28.2	0.00e+00	0	33	0	1346371584	32	5907
2026-01-05 17:17:47.31	14.61	29.19	-29.6	-30.2	28.2	0.00e+00	0	33	0	1369440256	32	5858
2026-01-05 17:17:51.35	14.30	29.93	-29.6	-30.2	28.2	0.00e+00	0	33	0	1392508928	32	5870
2026-01-05 17:17:55.39	13.99	30.68	-29.5	-30.2	28.3	0.00e+00	0	33	0	1414529024	32	5832
2026-01-05 17:17:59.43	13.65	31.46	-29.2	-29.8	28.5	0.00e+00	0	33	0	1437597696	32	5625
2026-01-05 17:18:03.47	13.30	32.26	-29.2	-29.8	28.5	0.00e+00	0	33	0	1459617792	32	5618
2026-01-05 17:18:07.51	12.93	33.07	-28.8	-29.4	28.8	0.00e+00	0	32	0	1482686464	32	5327
2026-01-05 17:18:11.55	12.53	33.91	-28.8	-29.4	28.9	0.00e+00	0	33	0	1505755136	30	6022
2026-01-05 17:18:15.58	12.12	34.77	-28.8	-29.4	28.8	0.00e+00	0	32	0	1527775232	30	5993
2026-01-05 17:18:19.62	11.69	35.65	-28.3	-28.8	29.1	0.00e+00	0	32	0	1550843904	30	5625
2026-01-05 17:18:23.66	11.22	36.56	-28.5	-29.1	29.0	0.00e+00	0	32	0	1573912576	30	5803
2026-01-05 17:18:27.69	10.74	37.48	-29.0	-29.6	28.7	0.00e+00	0	33	0	1595932672	30	6137
2026-01-05 17:18:31.73	10.22	38.43	-28.8	-29.4	28.8	0.00e+00	0	33	0	1619001344	30	6012
2026-01-05 17:18:35.77	9.66	39.41	-29.3	-29.9	28.5	0.00e+00	0	32	0	1642070016	30	6322
2026-01-05 17:18:39.81	9.08	40.41	-29.2	-29.8	28.6	0.00e+00	0	32	0	1664090112	30	6263
2026-01-05 17:18:43.85	8.45	41.44	-29.4	-30.0	28.4	0.00e+00	0	32	0	1687158784	30	6438
2026-01-05 17:18:47.88	7.78	42.49	-29.4	-30.0	28.5	0.00e+00	0	33	0	1710227456	30	6405
2026-01-05 17:18:51.92	7.06	43.57	-29.0	-29.5	28.8	0.00e+00	0	33	0	1732247552	30	6081
2026-01-05 17:18:55.96	6.30	44.67	-29.3	-29.9	28.5	0.00e+00	0	33	0	1755316224	30	6363
2026-01-05 17:19:00.00	5.47	45.80	-29.6	-30.2	28.3	0.00e+00	0	33	0	1778384896	30	6559
2026-01-05 17:19:04.04	4.58	46.96	-29.3	-30.0	28.4	0.00e+00	0	33	0	1800404992	30	6405
2026-01-05 17:19:08.08	3.63	48.14	-29.9	-30.5	28.0	0.00e+00	0	33	0	1823473664	32	6095
2026-01-05 17:19:12.11	2.59	49.34	-30.0	-30.7	27.9	0.00e+00	0	32	0	1846542336	32	6174
2026-01-05 17:19:16.15	1.47	50.56	-30.1	-30.7	27.9	0.00e+00	0	32	0	1868562432	32	6176
2026-01-05 17:19:20.19	0.25	51.80	-31.0	-31.7	27.1	0.00e+00	0	33	0	1891631104	34	6194
2026-01-05 17:19:24.22	358.93	53.06	-30.2	-30.8	27.8	0.00e+00	0	33	0	1914699776	34	5577
2026-01-05 17:19:28.26	357.48	54.34	-30.1	-30.7	27.9	0.00e+00	0	33	0	1936719872	34	5555
2026-01-05 17:19:32.30	355.89	55.63	-30.3	-31.0	27.7	0.00e+00	0	33	0	1959788544	34	5702
2026-01-05 17:19:36.34	354.15	56.92	-30.1	-30.7	27.8	0.00e+00	0	33	0	1982857216	32	6213
2026-01-05 17:19:40.38	352.23	58.22	-30.2	-30.8	27.8	0.00e+00	0	33	0	2004877312	32	6270
2026-01-05 17:19:44.42	350.12	59.51	-30.1	-30.7	27.9	0.00e+00	0	33	0	2027945984	32	6213
2026-01-05 17:19:48.46	347.79	60.79	-29.7	-30.3	28.2	0.00e+00	0	33	0	2051014656	32	5960
2026-01-05 17:19:52.49	345.21	62.05	-29.6	-30.2	28.2	0.00e+00	0	33	0	2073034752	32	5864
2026-01-05 17:19:56.53	342.35	63.28	-29.3	-29.8	28.4	0.00e+00	0	32	0	2096103424	32	5626
2026-01-05 17:20:00.56	339.19	64.45	-28.8	-29.4	28.7	0.00e+00	0	32	0	2119172096	32	5375
2026-01-05 17:20:04.60	335.69	65.57	-28.7	-29.3	28.8	0.00e+00	0	33	0	2141192192	30	5915
2026-01-05 17:20:08.64	331.82	66.62	-28.2	-28.8	29.2	0.00e+00	0	33	0	2164260864	30	5611
2026-01-05 17:20:12.68	327.57	67.57	-28.0	-28.6	29.3	0.00e+00	0	33	0	2187329536	30	5486
2026-01-05 17:20:16.72	322.94	68.40	-28.2	-28.8	29.1	0.00e+00	0	33	0	2209349632	30	5584
2026-01-05 17:20:20.76	317.93	69.10	-28.5	-29.1	28.9	0.00e+00	0	33	0	2232418304	30	5824
2026-01-05 17:20:24.80	312.60	69.64	-28.7	-29.3	28.9	0.00e+00	0	33	0	2254438400	30	5935
2026-01-05 17:20:28.84	306.99	70.01	-28.6	-29.2	28.9	0.00e+00	0	33	0	2277507072	30	5832
2026-01-05 17:20:32.88	301.22	70.20	-28.4	-29.0	29.1	0.00e+00	0	33	0	2300575744	30	5754
2026-01-05 17:20:36.91	295.40	70.20	-28.6	-29.2	28.9	0.00e+00	0	33	0	2323644416	30	5870
2026-01-05 17:20:40.95	289.63	70.00	-28.2	-28.8	29.0	0.00e+00	0	33	0	2345664512	30	5625
2026-01-05 17:20:44.99	284.04	69.62	-28.2	-28.7	29.1	0.00e+00	0	33	0	2368733184	30	5554
2026-01-05 17:20:49.03	278.71	69.07	-28.7	-29.3	28.8	0.00e+00	0	33	0	2391801856	30	5950
2026-01-05 17:20:53.06	273.73	68.37	-28.3	-28.8	29.2	0.00e+00	0	33	0	2413821952	30	5610
2026-01-05 17:20:57.10	269.11	67.53	-28.3	-28.8	29.1	0.00e+00	0	33	0	2436890624	30	5628
2026-01-05 17:21:01.14	264.87	66.57	-28.4	-29.0	29.0	0.00e+00	0	33	0	2458910720	30	5736
2026-01-05 17:21:05.18	261.02	65.52	-28.1	-28.8	29.2	0.00e+00	0	32	0	2481979392	30	5567
2026-01-05 17:21:09.22	257.53	64.40	-28.3	-28.9	29.1	0.00e+00	0	33	0	2505048064	30	5679
2026-01-05 17:21:13.26	254.37	63.21	-28.8	-29.5	28.8	0.00e+00	0	33	0	2528116736	30	6035
2026-01-05 17:21:17.29	251.53	61.98	-29.2	-29.7	28.5	0.00e+00	0	33	0	2550136832	30	6223
2026-01-05 17:21:21.33	248.95	60.72	-29.3	-29.9	28.3	0.00e+00	0	33	0	2573205504	30	6388
2026-01-05 17:21:25.36	246.63	59.44	-29.3	-29.9	28.3	0.00e+00	0	33	0	2596274176	30	6358
2026-01-05 17:21:29.41	244.52	58.14	-29.4	-29.9	28.4	0.00e+00	0	33	0	2618294272	30	6375
2026-01-05 17:21:33.45	242.61	56.84	-29.7	-30.3	28.0	0.00e+00	0	33	0	2641362944	30	6627
2026-01-05 17:21:37.48	240.88	55.54	-29.7	-30.4	28.0	0.00e+00	0	33	0	2663383040	32	5997
2026-01-05 17:21:41.52	239.30	54.25	-30.0	-30.6	27.9	0.00e+00	0	33	0	2686451712	32	6156
2026-01-05 17:21:45.56	237.85	52.97	-29.5	-30.1	28.3	0.00e+00	0	33	0	2709520384	32	5811
2026-01-05 17:21:49.60	236.53	51.71	-30.1	-30.6	27.4	0.00e+00	0	32	0	2731540480	32	6169
2026-01-05 17:21:53.63	235.32	50.46	-30.0	-30.7	27.3	0.00e+00	0	33	0	2754609152	32	6228
2026-01-05 17:21:57.67	234.20	49.24	-29.0	-29.5	28.5	0.00e+00	0	33	0	2777677824	32	5429
2026-01-05 17:22:01.71	233.16	48.03	-28.8	-29.3	28.7	0.00e+00	0	33	0	2800746496	30	5938
2026-01-05 17:22:05.75	232.21	46.85	-29.3	-29.8	28.4	0.00e+00	0	33	0	2822766592	30	6311
2026-01-05 17:22:09.79	231.32	45.69	-29.3	-29.9	28.4	0.00e+00	0	33	0	2845835264	30	6384
2026-01-05 17:22:13.83	230.50	44.56	-28.8	-29.4	28.8	0.00e+00	0	33	0	2867855360	30	6032
2026-01-05 17:22:17.87	229.73	43.45	-29.0	-29.5	28.7	0.00e+00	0	33	0	2890924032	30	6053
2026-01-05 17:22:21.91	229.01	42.37	-29.0	-29.5	28.6	0.00e+00	0	32	0	2913992704	30	6069
2026-01-05 17:22:25.94	228.35	41.32	-29.1	-29.8	28.5	0.00e+00	0	33	0	2936012800	30	6281
2026-01-05 17:22:29.98	227.72	40.29	-28.6	-29.1	28.9	0.00e+00	0	33	0	2959081472	30	5798
2026-01-05 17:22:34.02	227.13	39.29	-28.4	-29.1	29.1	0.00e+00	0	33	0	2982150144	30	5796
2026-01-05 17:22:38.06	226.58	38.31	-28.4	-29.0	29.0	0.00e+00	0	33	0	3005218816	30	5759
2026-01-05 17:22:42.10	226.06	37.35	-28.7	-29.4	28.9	0.00e+00	0	33	0	3027238912	30	5988
2026-01-05 17:22:46.14	225.57	36.42	-29.0	-29.6	28.6	0.00e+00	0	33	0	3050307584	30	6122
2026-01-05 17:22:50.17	225.11	35.52	-29.1	-29.7	28.5	0.00e+00	0	33	0	3072327680	30	6174
2026-01-05 17:22:54.21	224.67	34.64	-29.2	-29.8	28.5	0.00e+00	0	33	0	3095396352	30	6262
2026-01-05 17:22:58.25	224.26	33.77	-29.1	-29.6	28.5	0.00e+00	0	33	0	3118465024	30	6131
2026-01-05 17:23:02.28	223.87	32.94	-28.8	-29.3	28.7	0.00e+00	0	33	0	3140485120	30	5950
2026-01-05 17:23:06.32	223.50	32.12	-29.3	-29.9	28.4	0.00e+00	0	33	0	3163553792	30	6380
2026-01-05 17:23:10.36	223.14	31.32	-29.0	-29.7	28.6	0.00e+00	0	33	0	3186622464	30	6219
2026-01-05 17:23:14.40	222.81	30.54	-29.0	-29.7	28.4	0.00e+00	0	33	0	3208642560	30	6202
2026-01-05 17:23:18.44	222.49	29.78	-29.3	-29.8	28.5	0.00e+00	0	33	0	3231711232	30	6271
2026-01-05 17:23:22.47	222.18	29.05	-29.1	-29.6	28.5	0.00e+00	0	33	0	3254779904	30	6173
2026-01-05 17:23:26.51	221.89	28.32	-29.1	-29.6	28.5	0.00e+00	0	33	0	3276800000	30	6130
2026-01-05 17:23:30.55	221.61	27.62	-29.2	-29.7	28.5	0.00e+00	0	33	0	3299868672	30	6203
2026-01-05 17:23:34.59	221.35	26.93	-29.4	-30.0	28.3	0.00e+00	0	33	0	3322937344	30	6402
2026-01-05 17:23:38.63	221.10	26.26	-29.7	-30.2	28.1	0.00e+00	0	33	0	3344957440	30	6578
2026-01-05 17:23:42.67	220.85	25.61	-29.6	-30.1	28.1	0.00e+00	0	33	0	3368026112	30	6520
2026-01-05 17:23:46.71	220.62	24.97	-29.4	-29.9	28.3	0.00e+00	0	33	0	3391094784	30	6334
2026-01-05 17:23:50.75	220.40	24.34	-29.7	-30.2	28.1	0.00e+00	0	33	0	3413114880	32	5894
2026-01-05 17:23:54.78	220.19	23.73	-30.0	-30.6	27.8	0.00e+00	0	33	0	3436183552	32	6123
2026-01-05 17:23:58.82	219.98	23.13	-30.2	-30.8	27.6	0.00e+00	0	32	0	3459252224	32	6267
2026-01-05 17:24:02.86	219.78	22.55	-30.1	-30.6	27.7	0.00e+00	0	33	0	3481272320	32	6172
2026-01-05 17:24:06.90	219.59	21.98	-30.0	-30.6	27.8	0.00e+00	0	33	0	3504340992	32	6166
2026-01-05 17:24:10.93	219.41	21.42	-29.9	-30.4	27.9	0.00e+00	0	33	0	3527409664	32	6012
2026-01-05 17:24:14.97	219.24	20.87	-30.1	-30.6	27.7	0.00e+00	0	33	0	3549429760	32	6159
2026-01-05 17:24:19.00	219.07	20.33	-30.3	-30.9	27.5	0.00e+00	0	33	0	3572498432	32	6343
2026-01-05 17:24:23.04	218.90	19.81	-30.5	-31.1	27.4	0.00e+00	0	33	0	3595567104	32	6472
2026-01-05 17:24:27.08	218.75	19.29	-30.7	-31.2	27.3	0.00e+00	0	33	0	3617587200	32	6597
2026-01-05 17:24:31.13	218.60	18.79	-30.8	-31.3	27.2	0.00e+00	0	33	0	3640655872	34	5931
2026-01-05 17:24:35.17	218.45	18.29	-30.8	-31.4	27.1	0.00e+00	0	33	0	3663724544	34	5980
2026-01-05 17:24:39.21	218.31	17.81	-30.9	-31.4	27.1	0.00e+00	0	33	0	3685744640	34	6011
2026-01-05 17:24:43.25	218.17	17.33	-31.1	-31.7	26.9	0.00e+00	0	33	0	3708813312	34	6194
2026-01-05 17:24:47.28	218.04	16.86	-31.3	-31.8	26.7	0.00e+00	0	33	0	3731881984	34	6316
2026-01-05 17:24:51.32	217.91	16.41	-31.5	-32.0	26.5	0.00e+00	0	33	0	3753902080	34	6459
2026-01-05 17:24:55.36	217.79	15.96	-31.6	-32.3	26.4	0.00e+00	0	33	0	3776970752	34	6630
2026-01-05 17:24:59.40	217.67	15.51	-31.7	-32.3	26.4	0.00e+00	0	33	0	3800039424	34	6673
2026-01-05 17:25:03.43	217.56	15.08	-31.9	-32.4	26.2	0.00e+00	0	33	0	3822059520	36	6016
2026-01-05 17:25:07.47	217.45	14.65	-32.0	-32.7	26.1	0.00e+00	0	33	0	3845128192	36	6242
2026-01-05 17:25:11.51	217.34	14.23	-32.0	-32.8	26.0	0.00e+00	0	33	0	3868196864	36	6270
2026-01-05 17:25:15.54	217.23	13.82	-32.2	-33.0	25.9	0.00e+00	0	33	0	3890216960	36	6391
2026-01-05 17:25:19.58	217.13	13.42	-32.4	-33.0	25.7	0.00e+00	0	33	0	3913285632	36	6423
2026-01-05 17:25:23.62	217.03	13.02	-32.4	-33.0	25.8	0.00e+00	0	33	0	3936354304	36	6454
2026-01-05 17:25:27.66	216.94	12.62	-32.4	-33.2	25.7	0.00e+00	0	33	0	3958374400	36	6552
2026-01-05 17:25:31.70	216.84	12.24	-32.5	-33.3	25.5	0.00e+00	0	33	0	3981443072	36	6621
2026-01-05 17:25:35.74	216.75	11.86	-32.4	-33.0	25.7	0.00e+00	0	33	0	4003463168	36	6413
2026-01-05 17:25:39.77	216.67	11.48	-32.5	-33.1	25.5	0.00e+00	0	33	0	4026531840	36	6470
2026-01-05 17:25:43.82	216.58	11.11	-32.3	-32.9	25.6	0.00e+00	0	33	0	4049600512	36	6369
2026-01-05 17:25:47.85	216.50	10.75	-32.7	-33.3	25.3	0.00e+00	0	33	0	4072669184	36	6667
2026-01-05 17:25:51.89	216.42	10.39	-32.5	-33.1	25.5	0.00e+00	0	33	0	4094689280	38	5807
2026-01-05 17:25:55.93	216.34	10.03	-32.7	-33.2	25.3	0.00e+00	0	33	0	4117757952	38	5883
2026-01-05 17:25:59.96	216.26	9.69	-32.8	-33.4	25.2	0.00e+00	0	33	0	4140826624	38	5993
2026-01-05 17:26:04.00	216.19	9.34	-33.0	-33.6	25.0	0.00e+00	0	33	0	4162846720	38	6128
2026-01-05 17:26:08.04	216.12	9.00	-33.1	-33.7	24.9	0.00e+00	0	33	0	4185915392	38	6235
2026-01-05 17:26:12.07	216.05	8.67	-33.2	-34.0	24.8	0.00e+00	0	33	0	4207935488	38	6408
2026-01-05 17:26:16.11	215.98	8.34	-33.5	-34.3	24.5	0.00e+00	0	33	0	4231004160	38	6632
2026-01-05 17:26:20.15	215.91	8.01	-33.6	-34.2	24.4	0.00e+00	0	33	0	4254072832	40	5878
2026-01-05 17:26:24.19	215.85	7.69	-33.8	-34.4	24.1	0.00e+00	0	33	0	4276092928	40	6009
2026-01-05 17:26:28.22	215.79	7.37	-33.6	-34.2	24.3	0.00e+00	0	33	0	4299161600	40	5874
2026-01-05 17:26:32.26	215.73	7.06	-33.8	-34.5	24.1	0.00e+00	0	33	0	4322230272	40	6036
2026-01-05 17:26:36.30	215.67	6.75	-34.1	-34.9	23.8	0.00e+00	0	33	0	4344250368	40	6341
2026-01-05 17:26:40.34	215.61	6.44	-34.1	-34.8	23.7	0.00e+00	0	33	0	4367319040	40	6250
2026-01-05 17:26:44.38	215.55	6.14	-34.2	-34.8	23.6	0.00e+00	0	33	0	4390387712	40	6307
2026-01-05 17:26:48.42	215.50	5.84	-34.5	-35.1	23.3	0.00e+00	0	33	0	4412407808	40	6539
2026-01-05 17:26:52.46	215.44	5.54	-34.5	-35.1	23.3	0.00e+00	0	33	0	4435476480	40	6519
2026-01-05 17:26:56.50	215.39	5.25	-34.6	-35.4	23.1	0.00e+00	0	33	0	4458545152	40	6750
2026-01-05 17:27:00.54	215.34	4.96	-34.8	-35.6	23.0	0.00e+00	0	33	0	4480565248	42	6120
2026-01-05 17:27:04.59	215.29	4.67	-35.0	-35.7	22.7	0.00e+00	0	33	0	4503633920	42	6202
2026-01-05 17:27:08.63	215.24	4.39	-35.4	-36.3	22.2	0.00e+00	0	33	0	4526702592	42	6643
2026-01-05 17:27:12.66	215.19	4.11	-35.1	-35.8	22.5	0.00e+00	0	33	0	4549771264	42	6253
2026-01-05 17:27:16.70	215.14	3.83	-35.2	-36.0	22.2	0.00e+00	0	33	0	4571791360	42	6398
2026-01-05 17:27:20.74	215.10	3.55	-35.1	-36.0	22.3	0.00e+00	0	33	0	4594860032	44	5719
2026-01-05 17:27:24.78	215.05	3.28	-35.1	-35.8	22.3	0.00e+00	0	33	0	4616880128	44	5583
2026-01-05 17:27:28.82	215.01	3.01	-47.4	-59.1	3.6	7.34e-01	0	33	104	4638900224	60	32552
2026-01-05 17:27:32.86	214.97	2.74	-48.5	-60.6	3.6	8.46e-01	0	33	104	4638900224	60	38800
2026-01-05 17:27:36.90	214.93	2.48	-48.6	-60.7	3.6	8.45e-01	0	33	104	4638900224	60	39337
2026-01-05 17:27:40.94	214.89	2.22	-48.5	-60.6	3.6	8.46e-01	0	33	104	4638900224	60	38709
2026-01-05 17:27:44.98	214.85	1.96	-48.5	-60.6	3.6	8.44e-01	0	33	104	4638900224	60	38565
2026-01-05 17:27:49.02	214.81	1.70	-48.5	-60.6	3.6	8.44e-01	0	33	104	4638900224	60	38528
2026-01-05 17:27:53.06	214.77	1.44	-48.5	-60.5	3.6	8.46e-01	0	33	104	4638900224	60	38492
2026-01-05 17:27:57.10	214.73	1.19	-48.5	-60.5	3.6	8.46e-01	0	33	104	4638900224	60	38509
2026-01-05 17:28:01.14	214.70	0.94	-48.5	-60.6	3.6	8.46e-01	0	33	104	4638900224	60	38756
2026-01-05 17:28:05.18	214.66	0.69	-48.5	-60.6	3.6	8.45e-01	0	33	104	4638900224	60	38747
2026-01-05 17:28:09.22	214.63	0.44	-48.5	-60.6	3.6	8.45e-01	0	33	104	4638900224	60	38540
2026-01-05 17:28:13.26	214.59	0.20	-48.5	-60.6	3.6	8.45e-01	0	33	104	4638900224	60	38552

#Closed at: 2026-01-05 17:28:16
#Recorded file [4638 MB]: D:/lorett/data/35029_260106_051252.dat