passes_logs/2026/01/05/R4.6S_Anadyr/R4.6S_Anadyr__20260105_153912_AQUA_rec.log

#Pass ID: 20260105_153912_AQUA
#Satellite: AQUA
#Configuration: AQUA
#almurnet v.1.7.20251203
#Start time: 2026-01-05 15:39:12

#Version: 2.2.20231116
#Station: R4.6S_Anadyr
#Location: 177.4865 lon 64.73178 lat
#TLE: 1 27424U 02022A   26003.93831470  .00001925  00000+0  39553-3 0  9995
#TLE: 2 27424  98.4067 330.1809 0002003  92.1713 343.8415 14.61796291259276

#Time	Az	El	Level	Level2	SNR	BER	BlckErr	Temp	State	Recorded	gain1	gain2
2026-01-05 15:39:12.65	19.54	0.03	-48.5	-63.5	3.5	1.51e+00	0	28	0	0	60	53795
2026-01-05 15:39:16.69	19.66	0.28	-48.9	-66.8	3.5	3.02e+01	0	29	104	0	60	84327
2026-01-05 15:39:20.73	19.78	0.52	-48.8	-66.8	3.5	3.02e+01	0	30	104	0	60	83869
2026-01-05 15:39:24.77	19.90	0.77	-48.5	-66.4	3.5	3.02e+01	0	30	104	0	60	80381
2026-01-05 15:39:28.81	20.03	1.02	-47.6	-65.5	3.5	3.02e+01	0	30	104	0	60	72150
2026-01-05 15:39:32.85	20.16	1.27	-47.6	-65.5	3.5	3.02e+01	0	30	104	0	60	72177
2026-01-05 15:39:36.89	20.29	1.53	-47.6	-65.3	3.5	3.02e+01	0	30	104	0	60	70633
2026-01-05 15:39:40.92	20.42	1.79	-47.5	-65.3	3.5	3.02e+01	0	30	104	0	60	70616
2026-01-05 15:39:44.96	20.56	2.04	-42.8	-65.2	3.5	3.02e+01	0	30	104	0	60	70006
2026-01-05 15:39:49.01	20.69	2.31	-39.2	-63.7	3.5	3.02e+01	0	30	104	0	52	93440
2026-01-05 15:39:53.05	20.83	2.57	-47.2	-60.7	3.7	3.02e+01	0	30	104	0	60	41951
2026-01-05 15:39:57.09	20.97	2.84	-45.8	-51.0	13.8	3.02e+01	0	30	0	3670016	60	13720
2026-01-05 15:40:01.13	21.12	3.11	-40.5	-42.4	22.9	3.02e+01	0	30	0	11010048	56	6416
2026-01-05 15:40:05.17	21.26	3.38	-39.3	-41.0	23.9	3.02e+01	0	30	0	18874368	52	6824
2026-01-05 15:40:09.21	21.41	3.66	-44.0	-55.9	3.4	3.02e+01	0	30	104	20447232	60	23962
2026-01-05 15:40:13.24	21.56	3.94	-47.7	-65.3	3.5	3.02e+01	0	30	104	20447232	60	71115
2026-01-05 15:40:17.28	21.72	4.22	-44.1	-55.9	3.6	3.02e+01	0	30	104	20447232	60	24046
2026-01-05 15:40:21.31	21.88	4.50	-39.1	-49.5	3.6	3.02e+01	0	30	104	20447232	50	20367
2026-01-05 15:40:25.35	22.04	4.79	-38.9	-49.3	3.4	3.02e+01	0	30	104	20447232	52	17820
2026-01-05 15:40:29.38	22.20	5.08	-43.1	-54.4	3.6	3.02e+01	0	30	104	20447232	60	20282
2026-01-05 15:40:33.42	22.37	5.38	-46.5	-60.5	3.5	3.02e+01	0	30	104	20447232	60	40746
2026-01-05 15:40:37.45	22.54	5.68	-37.7	-48.1	3.5	3.02e+01	0	30	104	20447232	50	17448
2026-01-05 15:40:41.49	22.71	5.98	-40.4	-51.1	3.5	3.02e+01	0	31	104	20447232	58	15537
2026-01-05 15:40:45.53	22.89	6.29	-42.0	-53.0	3.5	3.02e+01	0	30	104	20447232	58	19348
2026-01-05 15:40:49.56	23.07	6.59	-47.5	-63.6	3.5	3.02e+01	0	31	104	20447232	60	57918
2026-01-05 15:40:53.60	23.25	6.91	-37.9	-48.3	3.5	3.02e+01	0	31	104	20447232	52	15836
2026-01-05 15:40:57.64	23.44	7.23	-44.4	-56.2	3.4	3.02e+01	0	30	104	20447232	54	35101
2026-01-05 15:41:01.68	23.63	7.55	-38.2	-48.6	3.5	3.02e+01	0	31	104	20447232	52	16460
2026-01-05 15:41:05.71	23.83	7.88	-37.0	-47.3	3.5	3.02e+01	0	31	104	20447232	48	17872
2026-01-05 15:41:09.75	24.03	8.21	-43.3	-54.6	3.5	3.02e+01	0	31	104	20447232	60	20731
2026-01-05 15:41:13.79	24.24	8.54	-41.2	-51.9	3.5	3.02e+01	0	31	104	20447232	56	19169
2026-01-05 15:41:17.83	24.45	8.88	-46.8	-60.5	3.5	3.02e+01	0	31	104	20447232	60	40831
2026-01-05 15:41:21.86	24.66	9.23	-40.9	-51.6	3.5	3.02e+01	0	31	104	20447232	56	18397
2026-01-05 15:41:25.90	24.88	9.58	-40.7	-51.5	3.5	3.02e+01	0	31	104	20447232	58	16236
2026-01-05 15:41:29.94	25.11	9.94	-36.6	-46.9	3.5	3.02e+01	0	31	104	20447232	48	17068
2026-01-05 15:41:33.98	25.34	10.30	-48.0	-64.5	3.5	3.02e+01	0	31	104	20447232	60	64365
2026-01-05 15:41:38.01	25.58	10.67	-39.9	-50.7	3.5	3.02e+01	0	31	104	20447232	54	18614
2026-01-05 15:41:42.05	25.82	11.04	-38.1	-48.4	3.5	3.02e+01	0	31	104	20447232	48	20285
2026-01-05 15:41:46.09	26.07	11.42	-37.3	-47.6	3.5	3.02e+01	0	31	104	20447232	50	16412
2026-01-05 15:41:50.13	26.33	11.80	-39.4	-50.0	3.5	3.02e+01	0	31	104	20447232	52	19209
2026-01-05 15:41:54.17	26.60	12.20	-47.9	-63.9	3.5	3.02e+01	0	31	104	20447232	60	60514
2026-01-05 15:41:58.21	26.87	12.60	-36.2	-46.4	3.5	3.02e+01	0	31	104	20447232	48	16092
2026-01-05 15:42:02.24	27.14	13.00	-38.9	-49.5	3.5	3.02e+01	0	31	104	20447232	54	16138
2026-01-05 15:42:06.28	27.43	13.41	-39.3	-49.8	3.5	3.02e+01	0	31	104	20447232	54	16711
2026-01-05 15:42:10.31	27.72	13.83	-48.0	-64.6	3.5	3.02e+01	0	31	104	20447232	60	65483
2026-01-05 15:42:14.35	28.03	14.26	-39.8	-50.4	3.5	3.02e+01	0	31	104	20447232	54	17917
2026-01-05 15:42:18.39	28.34	14.69	-36.9	-47.2	3.5	3.02e+01	0	31	104	20447232	48	17549
2026-01-05 15:42:22.43	28.66	15.14	-36.1	-46.3	3.5	3.02e+01	0	31	104	20447232	48	15840
2026-01-05 15:42:26.47	28.99	15.59	-39.2	-49.7	3.5	3.02e+01	0	31	104	20447232	54	16528
2026-01-05 15:42:30.51	29.33	16.05	-45.5	-58.6	3.5	3.02e+01	0	31	104	20447232	60	32738
2026-01-05 15:42:34.55	29.69	16.52	-38.7	-49.1	3.5	3.02e+01	0	31	104	20447232	48	21815
2026-01-05 15:42:38.58	30.05	17.00	-37.1	-47.4	3.5	3.02e+01	0	31	104	20447232	48	17915
2026-01-05 15:42:42.62	30.43	17.49	-40.5	-51.1	3.5	3.02e+01	0	31	104	20447232	54	19408
2026-01-05 15:42:46.66	30.81	17.98	-42.3	-53.3	3.6	3.02e+01	0	31	104	20447232	60	17728
2026-01-05 15:42:50.70	31.22	18.49	-35.6	-45.8	3.5	3.02e+01	0	31	104	20447232	46	16705
2026-01-05 15:42:54.73	31.63	19.01	-47.6	-62.0	3.5	3.02e+01	0	31	104	20447232	60	48553
2026-01-05 15:42:58.77	32.06	19.54	-35.6	-45.8	3.5	3.02e+01	0	31	104	20447232	46	16808
2026-01-05 15:43:02.81	32.51	20.08	-37.5	-47.8	3.5	3.02e+01	0	31	104	20447232	48	18821
2026-01-05 15:43:06.84	32.97	20.63	-40.7	-51.3	3.5	3.02e+01	0	31	104	20447232	58	15949
2026-01-05 15:43:10.88	33.45	21.19	-35.5	-45.6	3.6	3.02e+01	0	31	104	20447232	46	16465
2026-01-05 15:43:14.92	33.94	21.77	-46.7	-60.4	3.5	3.02e+01	0	31	104	20447232	60	40151
2026-01-05 15:43:18.96	34.46	22.36	-35.3	-45.5	3.5	3.02e+01	0	31	104	20447232	46	16230
2026-01-05 15:43:22.99	35.00	22.96	-40.3	-51.0	3.5	3.02e+01	0	31	104	20447232	54	19350
2026-01-05 15:43:27.03	35.56	23.57	-36.2	-46.4	3.5	3.02e+01	0	31	104	20447232	48	16062
2026-01-05 15:43:31.07	36.14	24.20	-48.1	-64.2	3.5	3.02e+01	0	31	104	20447232	60	62562
2026-01-05 15:43:35.10	36.74	24.84	-39.2	-49.6	3.5	3.02e+01	0	31	104	20447232	54	16479
2026-01-05 15:43:39.14	37.38	25.50	-37.1	-47.4	3.5	3.02e+01	0	31	104	20447232	48	18023
2026-01-05 15:43:43.18	38.03	26.17	-36.1	-46.3	3.5	3.02e+01	0	31	104	20447232	48	15904
2026-01-05 15:43:47.21	38.72	26.85	-40.5	-51.1	3.5	3.02e+01	0	31	104	20447232	56	17327
2026-01-05 15:43:51.26	39.44	27.55	-47.8	-62.6	3.5	3.02e+01	0	31	104	20447232	60	51729
2026-01-05 15:43:55.29	40.19	28.27	-36.1	-46.3	3.5	3.02e+01	0	31	104	20447232	46	17718
2026-01-05 15:43:59.33	40.98	28.99	-39.7	-50.3	3.5	3.02e+01	0	31	104	20447232	56	15867
2026-01-05 15:44:03.36	41.80	29.74	-37.1	-47.3	3.5	3.02e+01	0	31	104	20447232	50	15803
2026-01-05 15:44:07.40	42.67	30.50	-48.2	-64.9	3.5	3.02e+01	0	31	104	20447232	60	67936
2026-01-05 15:44:11.44	43.57	31.27	-36.0	-46.3	3.5	3.02e+01	0	31	104	20447232	46	17769
2026-01-05 15:44:15.48	44.53	32.06	-38.5	-48.8	3.5	3.02e+01	0	31	104	20447232	48	21188
2026-01-05 15:44:19.52	45.53	32.86	-36.3	-46.5	3.5	3.02e+01	0	31	104	20447232	48	16266
2026-01-05 15:44:23.55	46.58	33.68	-40.1	-50.8	3.5	3.02e+01	0	31	104	20447232	56	16707
2026-01-05 15:44:27.59	47.68	34.51	-45.4	-58.4	3.5	3.02e+01	0	31	104	20447232	60	32170
2026-01-05 15:44:31.62	48.85	35.35	-44.1	-55.5	3.6	3.02e+01	0	31	104	20447232	58	25732
2026-01-05 15:44:35.66	50.08	36.20	-37.9	-48.2	3.4	3.02e+01	0	31	104	20447232	50	17620
2026-01-05 15:44:39.70	51.37	37.06	-39.1	-49.6	3.5	3.02e+01	0	31	104	20447232	52	18437
2026-01-05 15:44:43.73	52.74	37.93	-42.0	-53.0	3.5	3.02e+01	0	31	104	20447232	60	17148
2026-01-05 15:44:47.77	54.18	38.81	-37.1	-47.5	3.5	3.02e+01	0	31	104	20447232	48	18164
2026-01-05 15:44:51.81	55.70	39.68	-48.7	-66.3	3.5	3.02e+01	0	31	104	20447232	60	79260
2026-01-05 15:44:55.85	57.31	40.56	-39.0	-49.5	3.5	3.02e+01	0	31	104	20447232	54	16153
2026-01-05 15:44:59.88	59.01	41.43	-36.8	-47.0	3.6	3.02e+01	0	31	104	20447232	48	17165
2026-01-05 15:45:03.92	60.80	42.30	-39.2	-49.6	3.5	3.02e+01	0	31	104	20447232	56	14663
2026-01-05 15:45:07.96	62.70	43.16	-39.4	-49.8	3.5	3.02e+01	0	31	104	20447232	52	18835
2026-01-05 15:45:12.00	64.69	44.00	-47.8	-62.4	3.5	3.02e+01	0	31	104	20447232	60	50924
2026-01-05 15:45:16.04	66.80	44.83	-34.4	-44.6	3.5	3.02e+01	0	31	104	20447232	44	16441
2026-01-05 15:45:20.07	69.01	45.62	-41.9	-52.7	3.5	3.02e+01	0	31	104	20447232	56	20992
2026-01-05 15:45:24.11	71.34	46.38	-38.5	-48.9	3.5	3.02e+01	0	31	104	20447232	52	16921
2026-01-05 15:45:28.14	73.78	47.11	-48.3	-63.9	3.5	3.02e+01	0	31	104	20447232	60	60613
2026-01-05 15:45:32.18	76.33	47.79	-37.7	-47.9	3.5	3.02e+01	0	31	104	20447232	50	16948
2026-01-05 15:45:36.22	79.00	48.41	-36.8	-47.2	3.6	3.02e+01	0	31	104	20447232	50	15641
2026-01-05 15:45:40.26	81.77	48.98	-35.3	-45.4	3.5	3.02e+01	0	31	104	20447232	46	16093
2026-01-05 15:45:44.29	84.64	49.48	-46.4	-59.5	3.6	3.02e+01	0	31	104	20447232	60	36262
2026-01-05 15:45:48.33	87.60	49.92	-48.6	-65.1	3.5	3.02e+01	0	31	104	20447232	60	69583
2026-01-05 15:45:52.37	90.64	50.27	-39.7	-50.2	3.5	3.02e+01	0	31	104	20447232	54	17581
2026-01-05 15:45:56.41	93.74	50.54	-36.5	-46.8	3.5	3.02e+01	0	31	104	20447232	48	16842
2026-01-05 15:46:00.45	96.90	50.72	-35.5	-45.7	3.5	3.02e+01	0	31	104	20447232	46	16622
2026-01-05 15:46:04.49	100.08	50.82	-47.9	-62.9	3.6	3.02e+01	0	31	104	20447232	60	53435
2026-01-05 15:46:08.53	103.27	50.82	-36.1	-46.4	3.5	3.02e+01	0	31	104	20447232	48	16021
2026-01-05 15:46:12.57	106.45	50.73	-36.6	-46.8	3.4	3.02e+01	0	31	104	20447232	48	16847
2026-01-05 15:46:16.61	109.61	50.56	-39.0	-49.3	3.5	3.02e+01	0	31	104	20447232	54	15936
2026-01-05 15:46:20.64	112.71	50.29	-38.1	-48.3	3.5	3.02e+01	0	31	104	20447232	46	22516
2026-01-05 15:46:24.68	115.76	49.95	-43.9	-55.1	3.6	3.02e+01	0	31	104	20447232	60	22007
2026-01-05 15:46:28.72	118.73	49.52	-44.8	-56.5	3.5	3.02e+01	0	31	104	20447232	54	36283
2026-01-05 15:46:32.75	121.61	49.02	-40.6	-50.9	3.5	3.02e+01	0	31	104	20447232	48	26980
2026-01-05 15:46:36.79	124.40	48.46	-36.5	-46.8	3.5	3.02e+01	0	31	104	20447232	48	16767
2026-01-05 15:46:40.83	127.07	47.83	-43.1	-54.3	3.4	3.02e+01	0	31	104	20447232	60	19855
2026-01-05 15:46:44.86	129.64	47.16	-37.9	-39.2	26.8	3.02e+01	0	31	0	25690112	52	5587
2026-01-05 15:46:48.90	132.10	46.43	-37.0	-38.3	28.0	3.02e+01	0	31	0	33030144	48	6304
2026-01-05 15:46:52.94	134.44	45.67	-36.2	-37.5	28.3	3.02e+01	0	31	0	40894464	48	5772
2026-01-05 15:46:56.98	136.67	44.87	-35.6	-36.8	29.0	3.02e+01	0	31	0	48234496	46	5964
2026-01-05 15:47:01.01	138.78	44.05	-35.4	-36.6	29.1	3.02e+01	0	31	0	56098816	46	5839
2026-01-05 15:47:05.05	140.79	43.21	-35.1	-36.3	29.3	3.02e+01	0	31	0	63438848	44	6336
2026-01-05 15:47:09.09	142.70	42.35	-35.3	-36.5	29.1	3.02e+01	0	31	0	70778880	44	6479
2026-01-05 15:47:13.13	144.50	41.48	-35.3	-36.5	29.2	3.02e+01	0	31	0	78643200	44	6483
2026-01-05 15:47:17.16	146.21	40.60	-35.5	-36.7	29.0	3.02e+01	0	31	0	85983232	44	6607
2026-01-05 15:47:21.19	147.82	39.72	-35.5	-36.7	29.1	3.02e+01	0	31	0	93847552	44	6603
2026-01-05 15:47:25.22	149.35	38.84	-35.5	-36.7	29.1	3.02e+01	0	31	0	101187584	44	6580
2026-01-05 15:47:29.26	150.81	37.96	-35.2	-36.4	29.3	3.02e+01	0	31	0	109051904	44	6378
2026-01-05 15:47:33.30	152.18	37.09	-35.2	-36.4	29.3	3.02e+01	0	31	0	116391936	44	6384
2026-01-05 15:47:37.34	153.49	36.22	-34.7	-35.8	29.7	3.02e+01	0	31	0	123731968	44	5994
2026-01-05 15:47:41.38	154.72	35.36	-34.4	-35.6	30.0	3.02e+01	0	31	0	131596288	44	5795
2026-01-05 15:47:45.41	155.89	34.52	-34.0	-35.2	30.2	3.02e+01	0	31	0	138936320	44	5543
2026-01-05 15:47:49.45	157.01	33.68	-33.8	-35.0	30.3	3.02e+01	0	31	0	146800640	42	6071
2026-01-05 15:47:53.49	158.07	32.86	-33.2	-34.3	30.8	3.02e+01	0	31	0	154140672	42	5655
2026-01-05 15:47:57.53	159.07	32.05	-33.4	-34.6	30.6	3.02e+01	0	31	0	162004992	42	5820
2026-01-05 15:48:01.56	160.03	31.26	-33.5	-34.6	30.7	3.02e+01	0	31	0	169345024	42	5839
2026-01-05 15:48:05.60	160.94	30.48	-33.5	-34.6	30.6	3.02e+01	0	31	0	177209344	42	5845
2026-01-05 15:48:09.64	161.81	29.72	-33.4	-34.6	30.7	3.02e+01	0	31	0	184549376	42	5804
2026-01-05 15:48:13.68	162.64	28.97	-33.6	-34.8	30.5	3.02e+01	0	31	0	191889408	42	5948
2026-01-05 15:48:17.71	163.42	28.24	-33.7	-34.9	30.4	3.02e+01	0	31	0	199753728	42	5998
2026-01-05 15:48:21.75	164.18	27.52	-33.8	-34.9	30.3	3.02e+01	0	31	0	207093760	42	6062
2026-01-05 15:48:25.79	164.90	26.81	-34.2	-35.3	30.1	3.02e+01	0	31	0	214958080	42	6341
2026-01-05 15:48:29.82	165.59	26.13	-34.4	-35.6	29.8	3.02e+01	0	31	0	222298112	42	6500
2026-01-05 15:48:33.86	166.25	25.45	-34.3	-35.4	29.9	3.02e+01	0	31	0	230162432	42	6410
2026-01-05 15:48:37.90	166.89	24.79	-34.4	-35.6	29.9	3.02e+01	0	31	0	237502464	42	6517
2026-01-05 15:48:41.94	167.49	24.14	-34.5	-35.7	29.8	3.02e+01	0	31	0	244842496	42	6579
2026-01-05 15:48:45.98	168.08	23.51	-34.7	-35.9	29.5	3.02e+01	0	31	0	252706816	42	6764
2026-01-05 15:48:50.01	168.64	22.90	-34.2	-35.4	29.9	3.02e+01	0	31	0	260046848	42	6388
2026-01-05 15:48:54.04	169.17	22.29	-34.5	-35.7	29.8	3.02e+01	0	31	0	267911168	42	6598
2026-01-05 15:48:58.08	169.69	21.70	-34.4	-35.6	29.7	3.02e+01	0	31	0	275251200	42	6543
2026-01-05 15:49:02.12	170.19	21.12	-34.3	-35.5	29.9	3.02e+01	0	31	0	283115520	42	6424
2026-01-05 15:49:06.15	170.67	20.55	-34.4	-35.6	29.8	3.02e+01	0	31	0	290455552	42	6556
2026-01-05 15:49:10.20	171.13	20.00	-34.3	-35.4	29.9	3.02e+01	0	31	0	298319872	42	6407
2026-01-05 15:49:14.23	171.58	19.46	-34.1	-35.2	30.1	3.02e+01	0	31	0	305659904	42	6270
2026-01-05 15:49:18.27	172.01	18.92	-34.1	-35.3	30.1	3.02e+01	0	31	0	312999936	42	6295
2026-01-05 15:49:22.31	172.42	18.40	-34.2	-35.3	30.0	3.02e+01	0	31	0	320864256	42	6346
2026-01-05 15:49:26.34	172.82	17.89	-34.2	-35.4	29.9	3.02e+01	0	31	0	328204288	42	6404
2026-01-05 15:49:30.38	173.21	17.39	-34.4	-35.6	29.7	3.02e+01	0	31	0	336068608	42	6541
2026-01-05 15:49:34.41	173.59	16.90	-34.5	-35.7	29.6	3.02e+01	0	31	0	343408640	42	6616
2026-01-05 15:49:38.45	173.95	16.42	-34.4	-35.6	29.6	3.02e+01	0	31	0	351272960	42	6549
2026-01-05 15:49:42.48	174.30	15.95	-34.1	-35.3	29.9	3.02e+01	0	31	0	358612992	42	6327
2026-01-05 15:49:46.52	174.64	15.49	-34.1	-35.3	29.9	3.02e+01	0	31	0	366477312	42	6305
2026-01-05 15:49:50.56	174.97	15.03	-34.3	-35.5	29.7	3.02e+01	0	31	0	373817344	42	6456
2026-01-05 15:49:54.60	175.29	14.59	-34.3	-35.5	29.7	3.02e+01	0	31	0	381157376	42	6465
2026-01-05 15:49:58.64	175.60	14.15	-34.3	-35.5	29.7	3.02e+01	0	31	0	389021696	42	6447
2026-01-05 15:50:02.67	175.90	13.72	-34.6	-35.8	29.5	3.02e+01	0	31	0	396361728	42	6674
2026-01-05 15:50:06.71	176.20	13.30	-34.4	-35.5	29.6	3.02e+01	0	31	0	404226048	42	6494
2026-01-05 15:50:10.74	176.48	12.88	-34.4	-35.6	29.6	3.02e+01	0	31	0	411566080	42	6572
2026-01-05 15:50:14.78	176.76	12.48	-34.4	-35.7	29.6	3.02e+01	0	31	0	419430400	42	6580
2026-01-05 15:50:18.82	177.03	12.08	-34.6	-35.9	29.5	3.02e+01	0	31	0	426770432	42	6734
2026-01-05 15:50:22.86	177.29	11.68	-34.9	-36.1	29.1	3.02e+01	0	31	0	434110464	42	6957
2026-01-05 15:50:26.89	177.54	11.30	-34.8	-36.1	29.2	3.02e+01	0	31	0	441974784	42	6903
2026-01-05 15:50:30.93	177.79	10.91	-34.8	-36.0	29.1	3.02e+01	0	31	0	449314816	44	6131
2026-01-05 15:50:34.97	178.03	10.54	-34.9	-36.1	29.1	3.02e+01	0	31	0	457179136	44	6157
2026-01-05 15:50:39.00	178.27	10.17	-35.0	-36.2	29.0	3.02e+01	0	31	0	464519168	44	6252
2026-01-05 15:50:43.04	178.50	9.81	-35.1	-36.3	28.8	3.02e+01	0	31	0	472383488	44	6335
2026-01-05 15:50:47.08	178.72	9.45	-35.0	-36.2	28.8	3.02e+01	0	31	0	479723520	44	6272
2026-01-05 15:50:51.11	178.94	9.10	-35.1	-36.3	28.8	3.02e+01	0	31	0	487063552	44	6315
2026-01-05 15:50:55.14	179.16	8.75	-35.2	-36.5	28.7	3.02e+01	0	31	0	494927872	44	6459
2026-01-05 15:50:59.18	179.36	8.41	-35.4	-36.6	28.5	3.02e+01	0	31	0	502267904	44	6567
2026-01-05 15:51:03.22	179.57	8.07	-35.8	-37.0	28.2	3.02e+01	0	31	0	510132224	44	6878
2026-01-05 15:51:07.25	179.77	7.74	-35.6	-36.9	28.2	3.02e+01	0	31	0	517472256	44	6759
2026-01-05 15:51:11.29	179.96	7.41	-35.8	-37.1	28.1	3.02e+01	0	31	0	525336576	44	6889
2026-01-05 15:51:15.33	180.15	7.09	-35.8	-37.1	28.0	3.02e+01	0	31	0	532676608	44	6935
2026-01-05 15:51:19.36	180.34	6.77	-35.9	-37.3	28.0	3.02e+01	0	31	0	540540928	46	6306
2026-01-05 15:51:23.40	180.52	6.45	-36.1	-37.4	27.7	3.02e+01	0	31	0	547880960	46	6395
2026-01-05 15:51:27.44	180.70	6.14	-36.5	-37.8	27.3	3.02e+01	0	31	0	555220992	46	6726
2026-01-05 15:51:31.48	180.87	5.83	-36.7	-38.1	27.1	3.02e+01	0	31	0	563085312	46	6889
2026-01-05 15:51:35.52	181.04	5.53	-36.5	-37.9	27.3	3.02e+01	0	31	0	570425344	46	6745
2026-01-05 15:51:39.55	181.21	5.23	-36.3	-37.6	27.4	3.02e+01	0	31	0	578289664	46	6572
2026-01-05 15:51:43.58	181.37	4.93	-36.3	-37.6	27.3	3.02e+01	0	31	0	585629696	48	5847
2026-01-05 15:51:47.62	181.53	4.64	-36.7	-38.1	26.9	3.02e+01	0	31	0	593494016	48	6196
2026-01-05 15:51:51.66	181.69	4.35	-36.9	-38.4	26.6	3.02e+01	0	31	0	600834048	48	6365
2026-01-05 15:51:55.70	181.85	4.06	-37.1	-38.5	26.4	3.02e+01	0	31	0	608174080	48	6482
2026-01-05 15:51:59.73	182.00	3.78	-37.2	-38.7	26.2	3.02e+01	0	31	0	616038400	48	6642
2026-01-05 15:52:03.77	182.14	3.50	-37.7	-39.2	25.8	3.02e+01	0	31	0	623378432	48	6969
2026-01-05 15:52:07.80	182.29	3.23	-37.5	-39.0	25.8	3.02e+01	0	31	0	631242752	50	6069
2026-01-05 15:52:11.83	182.43	2.95	-47.7	-65.6	3.5	3.02e+01	0	31	104	638058496	60	73046
2026-01-05 15:52:15.87	182.57	2.68	-48.7	-66.6	3.5	3.02e+01	0	31	104	638058496	60	82549
2026-01-05 15:52:19.91	182.71	2.41	-48.4	-66.8	3.5	3.02e+01	0	31	104	638058496	60	84365
2026-01-05 15:52:23.95	182.85	2.15	-48.7	-66.8	3.5	3.02e+01	0	31	104	638058496	60	84219
2026-01-05 15:52:27.99	182.98	1.88	-48.8	-66.7	3.5	3.02e+01	0	31	104	638058496	60	83550
2026-01-05 15:52:32.03	183.11	1.62	-48.8	-66.7	3.5	3.02e+01	0	31	104	638058496	60	83575
2026-01-05 15:52:36.06	183.24	1.37	-48.8	-66.7	3.5	3.02e+01	0	31	104	638058496	60	82932
2026-01-05 15:52:40.10	183.37	1.11	-48.8	-66.7	3.5	3.02e+01	0	31	104	638058496	60	83554
2026-01-05 15:52:44.14	183.49	0.86	-48.8	-66.7	3.5	3.02e+01	0	31	104	638058496	60	83403
2026-01-05 15:52:48.18	183.61	0.61	-48.9	-66.7	3.5	3.02e+01	0	31	104	638058496	60	83610
2026-01-05 15:52:52.22	183.73	0.36	-48.8	-66.7	3.5	3.02e+01	0	31	104	638058496	60	83544
2026-01-05 15:52:56.26	183.85	0.11	-48.8	-66.7	3.5	3.02e+01	0	31	104	638058496	60	83500

#Closed at: 2026-01-05 15:52:59
#Recorded file [638 MB]: D:/lorett/data/35029_260106_033912.dat