passes_logs/2026/01/05/R4.6S_Anadyr/R4.6S_Anadyr__20260105_125118_SUOMI_NPP_rec.log

#Pass ID: 20260105_125118_SUOMI NPP
#Satellite: SUOMI NPP
#Configuration: NPP
#almurnet v.1.7.20251203
#Start time: 2026-01-05 12:51:22

#Version: 2.2.20231116
#Station: R4.6S_Anadyr
#Location: 177.4865 lon 64.73178 lat
#TLE: 1 37849U 11061A   26004.95404768  .00000136  00000+0  85334-4 0  9991
#TLE: 2 37849  98.7801 307.0898 0002574  80.6707 279.4760 14.19522289735280

#Time	Az	El	Level	Level2	SNR	BER	BlckErr	Temp	State	Recorded	gain1	gain2
2026-01-05 12:51:22.40	19.01	0.18	-49.7	-63.4	3.3	1.54e+00	0	23	0	0	60	53284
2026-01-05 12:51:26.43	19.26	0.40	-48.5	-63.6	3.6	1.51e+00	0	23	104	0	60	54701
2026-01-05 12:51:30.47	19.52	0.61	-48.2	-63.4	3.6	1.51e+00	0	24	104	0	60	53685
2026-01-05 12:51:34.51	19.78	0.82	-47.6	-62.7	3.6	1.51e+00	0	24	104	0	60	49388
2026-01-05 12:51:38.55	20.05	1.04	-46.9	-61.9	3.6	1.51e+00	0	24	104	0	60	45050
2026-01-05 12:51:42.59	20.31	1.25	-46.9	-62.1	3.6	1.51e+00	0	24	104	0	60	46246
2026-01-05 12:51:46.63	20.59	1.47	-46.9	-62.1	3.6	1.51e+00	0	24	104	0	60	45978
2026-01-05 12:51:50.67	20.86	1.69	-46.9	-61.9	3.6	1.51e+00	0	24	104	0	60	45180
2026-01-05 12:51:54.70	21.14	1.91	-46.9	-62.0	3.6	1.51e+00	0	24	104	0	60	45603
2026-01-05 12:51:58.74	21.42	2.13	-46.9	-61.8	3.6	1.51e+00	0	24	104	0	60	44591
2026-01-05 12:52:02.79	21.71	2.35	-46.9	-61.3	3.6	1.51e+00	0	24	104	0	60	41827
2026-01-05 12:52:06.83	22.00	2.58	-45.0	-49.3	11.7	1.73e-02	0	24	0	2097152	60	10585
2026-01-05 12:52:10.87	22.30	2.80	-39.7	-41.0	19.5	0.00e+00	60	24	0	10485760	52	6463
2026-01-05 12:52:14.91	22.59	3.03	-42.4	-44.7	16.2	0.00e+00	0	24	0	17825792	56	7825
2026-01-05 12:52:18.95	22.90	3.26	-46.7	-60.5	3.6	6.10e-02	0	24	104	25165824	60	38274
2026-01-05 12:52:22.99	23.21	3.49	-43.7	-46.6	14.7	3.89e-02	0	24	0	26214400	60	7703
2026-01-05 12:52:27.02	23.52	3.71	-43.8	-46.8	14.9	0.00e+00	73	24	0	33554432	58	8890
2026-01-05 12:52:31.06	23.83	3.95	-42.7	-45.0	16.3	0.00e+00	0	24	0	40894464	58	7189
2026-01-05 12:52:35.10	24.16	4.18	-43.2	-45.7	16.1	0.00e+00	0	24	0	49283072	58	7832
2026-01-05 12:52:39.14	24.48	4.41	-42.2	-44.2	17.2	0.00e+00	90	24	0	56623104	58	6591
2026-01-05 12:52:43.18	24.81	4.65	-41.8	-43.6	17.5	0.00e+00	0	24	0	63963136	56	6923
2026-01-05 12:52:47.21	25.15	4.88	-41.9	-43.7	17.7	0.00e+00	0	24	0	71303168	56	6983
2026-01-05 12:52:51.25	25.49	5.12	-42.2	-44.1	17.7	0.00e+00	0	24	0	79691776	56	7319
2026-01-05 12:52:55.29	25.84	5.36	-41.9	-43.7	17.6	0.00e+00	55	24	0	87031808	56	6990
2026-01-05 12:52:59.33	26.19	5.60	-41.1	-42.7	18.6	0.00e+00	0	24	0	94371840	54	6983
2026-01-05 12:53:03.36	26.55	5.84	-39.7	-41.1	20.4	0.00e+00	0	24	0	101711872	52	6474
2026-01-05 12:53:07.40	26.91	6.09	-38.8	-39.9	21.1	0.00e+00	0	24	0	109051904	50	6371
2026-01-05 12:53:11.44	27.28	6.33	-39.2	-40.4	20.9	0.00e+00	66	24	0	117440512	50	6716
2026-01-05 12:53:15.48	27.66	6.58	-39.2	-40.4	20.9	0.00e+00	0	24	0	124780544	50	6735
2026-01-05 12:53:19.52	28.04	6.82	-39.7	-40.9	20.6	0.00e+00	0	24	0	132120576	50	7137
2026-01-05 12:53:23.56	28.43	7.07	-39.4	-40.6	20.8	0.00e+00	0	24	0	139460608	50	6920
2026-01-05 12:53:27.59	28.82	7.32	-39.9	-41.2	20.3	0.00e+00	86	24	0	147849216	52	6613
2026-01-05 12:53:31.63	29.22	7.57	-39.9	-41.3	20.1	0.00e+00	0	24	0	155189248	52	6626
2026-01-05 12:53:35.67	29.63	7.82	-40.2	-41.5	20.1	0.00e+00	0	25	0	162529280	52	6821
2026-01-05 12:53:39.71	30.04	8.08	-40.1	-41.4	20.0	0.00e+00	0	24	0	169869312	52	6756
2026-01-05 12:53:43.75	30.46	8.33	-39.4	-40.6	20.8	0.00e+00	0	25	0	177209344	52	6148
2026-01-05 12:53:47.78	30.89	8.59	-39.1	-40.3	21.2	0.00e+00	0	25	0	185597952	52	5913
2026-01-05 12:53:51.81	31.33	8.85	-39.1	-40.3	21.1	0.00e+00	0	25	0	192937984	52	5944
2026-01-05 12:53:55.85	31.77	9.11	-38.8	-39.9	21.5	0.00e+00	87	24	0	200278016	50	6347
2026-01-05 12:53:59.88	32.22	9.37	-38.4	-39.4	22.0	0.00e+00	0	25	0	207618048	50	6014
2026-01-05 12:54:03.92	32.68	9.63	-38.1	-39.1	22.1	0.00e+00	0	25	0	216006656	50	5826
2026-01-05 12:54:07.96	33.14	9.89	-38.1	-39.2	21.8	0.00e+00	0	25	0	223346688	50	5840
2026-01-05 12:54:11.99	33.62	10.15	-38.0	-39.0	22.2	0.00e+00	86	25	0	230686720	50	5740
2026-01-05 12:54:16.03	34.10	10.42	-38.1	-39.2	22.1	0.00e+00	0	24	0	238026752	50	5841
2026-01-05 12:54:20.07	34.59	10.69	-38.2	-39.2	22.2	0.00e+00	0	25	0	245366784	50	5844
2026-01-05 12:54:24.11	35.09	10.95	-38.2	-39.2	22.2	0.00e+00	89	24	0	253755392	50	5896
2026-01-05 12:54:28.15	35.60	11.22	-38.0	-39.0	22.4	0.00e+00	0	25	0	261095424	50	5703
2026-01-05 12:54:32.19	36.12	11.49	-38.0	-39.0	22.3	0.00e+00	0	25	0	268435456	50	5748
2026-01-05 12:54:36.22	36.64	11.76	-38.1	-39.1	22.3	0.00e+00	0	25	0	275775488	50	5792
2026-01-05 12:54:40.26	37.18	12.03	-37.6	-38.6	22.8	0.00e+00	89	25	0	284164096	48	6104
2026-01-05 12:54:44.30	37.72	12.30	-37.6	-38.5	22.9	0.00e+00	0	25	0	291504128	48	6083
2026-01-05 12:54:48.34	38.28	12.58	-37.2	-38.1	23.1	0.00e+00	0	25	0	298844160	48	5790
2026-01-05 12:54:52.38	38.84	12.85	-37.2	-38.2	23.0	0.00e+00	0	25	0	306184192	48	5829
2026-01-05 12:54:56.42	39.42	13.12	-37.4	-38.3	23.1	0.00e+00	85	25	0	313524224	48	5922
2026-01-05 12:55:00.45	40.01	13.40	-37.3	-38.3	22.9	0.00e+00	0	25	0	321912832	48	5898
2026-01-05 12:55:04.49	40.60	13.67	-37.6	-38.6	22.6	0.00e+00	0	25	0	329252864	48	6111
2026-01-05 12:55:08.53	41.21	13.95	-37.8	-38.8	22.6	0.00e+00	0	25	0	336592896	48	6305
2026-01-05 12:55:12.56	41.83	14.22	-37.0	-37.9	23.4	0.00e+00	65	25	0	343932928	48	5682
2026-01-05 12:55:16.60	42.46	14.50	-37.2	-38.1	23.3	0.00e+00	0	25	0	351272960	48	5784
2026-01-05 12:55:20.64	43.10	14.77	-36.9	-37.8	23.4	0.00e+00	0	25	0	359661568	48	5625
2026-01-05 12:55:24.68	43.75	15.05	-36.9	-37.8	23.4	0.00e+00	0	25	0	367001600	48	5601
2026-01-05 12:55:28.71	44.41	15.32	-36.9	-37.9	23.4	0.00e+00	0	25	0	374341632	48	5640
2026-01-05 12:55:32.75	45.09	15.59	-36.9	-37.8	23.5	0.00e+00	0	25	0	381681664	46	6299
2026-01-05 12:55:36.79	45.78	15.87	-37.3	-38.3	23.0	0.00e+00	0	25	0	390070272	46	6661
2026-01-05 12:55:40.83	46.48	16.14	-37.2	-38.2	23.2	0.00e+00	75	25	0	397410304	46	6540
2026-01-05 12:55:44.86	47.19	16.41	-37.1	-38.1	23.3	0.00e+00	0	25	0	404750336	46	6478
2026-01-05 12:55:48.90	47.92	16.68	-37.4	-38.3	23.2	0.00e+00	0	25	0	412090368	46	6689
2026-01-05 12:55:52.94	48.66	16.95	-37.3	-38.2	23.2	0.00e+00	0	25	0	419430400	46	6609
2026-01-05 12:55:56.98	49.41	17.22	-36.9	-37.8	23.5	0.00e+00	92	25	0	427819008	46	6302
2026-01-05 12:56:01.02	50.18	17.48	-37.0	-37.9	23.4	0.00e+00	0	25	0	435159040	46	6365
2026-01-05 12:56:05.05	50.95	17.75	-36.9	-37.8	23.5	0.00e+00	0	25	0	442499072	46	6260
2026-01-05 12:56:09.09	51.74	18.01	-37.3	-38.2	23.2	0.00e+00	62	25	0	449839104	46	6575
2026-01-05 12:56:13.13	52.55	18.27	-36.9	-37.8	23.4	0.00e+00	30	25	0	458227712	46	6317
2026-01-05 12:56:17.16	53.37	18.52	-37.3	-38.2	23.2	0.00e+00	0	25	0	465567744	46	6588
2026-01-05 12:56:21.20	54.20	18.77	-37.5	-38.4	23.1	0.00e+00	0	25	0	472907776	48	6023
2026-01-05 12:56:25.24	55.04	19.02	-37.7	-38.7	22.7	0.00e+00	0	25	0	480247808	48	6211
2026-01-05 12:56:29.28	55.90	19.27	-38.3	-39.4	22.2	0.00e+00	0	25	0	487587840	48	6721
2026-01-05 12:56:33.32	56.77	19.51	-37.8	-38.8	22.6	0.00e+00	0	25	0	495976448	48	6247
2026-01-05 12:56:37.35	57.66	19.75	-38.3	-39.4	22.3	0.00e+00	0	25	0	503316480	48	6707
2026-01-05 12:56:41.39	58.56	19.98	-38.5	-39.5	22.1	0.00e+00	92	25	0	510656512	48	6835
2026-01-05 12:56:45.43	59.47	20.21	-39.0	-40.1	21.9	0.00e+00	0	25	0	517996544	50	6501
2026-01-05 12:56:49.47	60.40	20.43	-37.9	-38.9	22.8	0.00e+00	0	25	0	526385152	50	5651
2026-01-05 12:56:53.50	61.33	20.65	-37.7	-38.7	22.9	0.00e+00	0	25	0	533725184	48	6177
2026-01-05 12:56:57.53	62.28	20.86	-38.3	-39.3	22.3	0.00e+00	92	25	0	541065216	48	6649
2026-01-05 12:57:01.56	63.24	21.06	-38.2	-39.2	22.5	0.00e+00	0	25	0	548405248	50	5856
2026-01-05 12:57:05.60	64.22	21.26	-37.6	-38.5	23.0	0.00e+00	0	25	0	555745280	48	6087
2026-01-05 12:57:09.63	65.21	21.45	-37.9	-38.9	22.7	0.00e+00	2	25	0	564133888	48	6339
2026-01-05 12:57:13.67	66.21	21.64	-38.3	-39.3	22.3	0.00e+00	0	25	0	571473920	48	6656
2026-01-05 12:57:17.71	67.22	21.82	-37.4	-38.4	23.0	0.00e+00	0	25	0	578813952	48	5987
2026-01-05 12:57:21.75	68.25	21.99	-37.7	-38.7	22.8	0.00e+00	0	25	0	586153984	48	6225
2026-01-05 12:57:25.78	69.28	22.15	-37.8	-38.8	22.7	0.00e+00	87	25	0	593494016	48	6300
2026-01-05 12:57:29.82	70.32	22.30	-37.4	-38.4	23.1	0.00e+00	0	25	0	601882624	48	5965
2026-01-05 12:57:33.85	71.38	22.44	-37.7	-38.7	22.9	0.00e+00	0	25	0	609222656	48	6211
2026-01-05 12:57:37.89	72.44	22.58	-37.8	-38.8	22.8	0.00e+00	0	25	0	616562688	48	6263
2026-01-05 12:57:41.92	73.51	22.70	-38.7	-39.8	22.0	0.00e+00	56	25	0	623902720	48	7022
2026-01-05 12:57:45.96	74.59	22.82	-38.0	-39.0	22.7	0.00e+00	0	25	0	632291328	48	6430
2026-01-05 12:57:50.00	75.68	22.92	-37.8	-38.7	22.9	0.00e+00	0	25	0	639631360	48	6243
2026-01-05 12:57:54.03	76.77	23.02	-37.1	-38.0	23.4	0.00e+00	0	25	0	646971392	48	5743
2026-01-05 12:57:58.07	77.88	23.10	-37.7	-38.7	22.9	0.00e+00	0	25	0	654311424	48	6221
2026-01-05 12:58:02.11	78.98	23.18	-37.1	-38.1	23.4	0.00e+00	0	25	0	661651456	48	5764
2026-01-05 12:58:06.15	80.10	23.24	-37.3	-38.2	23.2	0.00e+00	0	25	0	670040064	48	5895
2026-01-05 12:58:10.18	81.21	23.29	-37.8	-38.7	22.8	0.00e+00	87	25	0	677380096	48	6219
2026-01-05 12:58:14.22	82.33	23.34	-37.2	-38.1	23.3	0.00e+00	0	25	0	684720128	48	5803
2026-01-05 12:58:18.26	83.46	23.37	-37.6	-38.6	23.0	0.00e+00	0	25	0	692060160	48	6105
2026-01-05 12:58:22.29	84.58	23.39	-37.5	-38.4	23.1	0.00e+00	0	25	0	699400192	48	6014
2026-01-05 12:58:26.33	85.70	23.40	-37.2	-38.1	23.3	0.00e+00	91	25	0	707788800	48	5779
2026-01-05 12:58:30.37	86.83	23.39	-37.1	-38.0	23.4	0.00e+00	0	25	0	715128832	48	5719
2026-01-05 12:58:34.40	87.95	23.38	-36.8	-37.7	23.6	0.00e+00	31	25	0	722468864	48	5549
2026-01-05 12:58:38.44	89.08	23.35	-36.3	-37.1	24.1	0.00e+00	17	25	0	729808896	46	5827
2026-01-05 12:58:42.48	90.20	23.32	-37.0	-37.8	23.4	0.00e+00	85	25	0	738197504	46	6314
2026-01-05 12:58:46.51	91.32	23.27	-37.4	-38.4	23.1	0.00e+00	0	25	0	745537536	46	6697
2026-01-05 12:58:50.55	92.43	23.21	-37.4	-38.3	23.0	0.00e+00	0	25	0	752877568	46	6663
2026-01-05 12:58:54.59	93.55	23.14	-37.1	-38.0	23.2	0.00e+00	0	25	0	760217600	46	6454
2026-01-05 12:58:58.63	94.65	23.06	-37.2	-38.2	23.3	0.00e+00	0	25	0	767557632	46	6549
2026-01-05 12:59:02.66	95.75	22.97	-36.1	-36.9	24.3	0.00e+00	0	25	0	775946240	46	5663
2026-01-05 12:59:06.70	96.84	22.87	-36.1	-37.0	24.1	0.00e+00	0	25	0	783286272	46	5712
2026-01-05 12:59:10.73	97.93	22.76	-35.5	-36.3	24.6	0.00e+00	88	25	0	790626304	44	5964
2026-01-05 12:59:14.77	99.01	22.64	-36.1	-36.9	24.0	0.00e+00	0	25	0	797966336	44	6354
2026-01-05 12:59:18.81	100.08	22.51	-36.0	-36.9	24.1	0.00e+00	0	25	0	806354944	44	6318
2026-01-05 12:59:22.84	101.14	22.37	-36.2	-37.1	23.9	0.00e+00	0	25	0	813694976	44	6466
2026-01-05 12:59:26.88	102.19	22.22	-35.4	-36.2	24.6	0.00e+00	90	25	0	821035008	44	5848
2026-01-05 12:59:30.92	103.23	22.06	-34.8	-35.6	25.1	0.00e+00	33	25	0	828375040	42	6139
2026-01-05 12:59:34.95	104.26	21.89	-35.6	-36.4	24.5	0.00e+00	0	25	0	835715072	42	6727
2026-01-05 12:59:38.99	105.28	21.72	-35.3	-36.1	24.8	0.00e+00	0	25	0	844103680	42	6483
2026-01-05 12:59:43.03	106.29	21.54	-35.5	-36.3	24.5	0.00e+00	21	25	0	851443712	44	5932
2026-01-05 12:59:47.06	107.29	21.35	-35.8	-36.6	24.4	0.00e+00	0	25	0	858783744	44	6148
2026-01-05 12:59:51.10	108.27	21.15	-36.4	-37.2	23.9	0.00e+00	0	25	0	866123776	44	6609
2026-01-05 12:59:55.13	109.24	20.95	-35.5	-36.4	24.4	0.00e+00	89	25	0	874512384	44	5967
2026-01-05 12:59:59.17	110.20	20.74	-36.6	-37.5	23.6	0.00e+00	0	25	0	881852416	44	6809
2026-01-05 13:00:03.20	111.15	20.52	-37.2	-38.1	23.1	0.00e+00	0	25	0	889192448	46	6533
2026-01-05 13:00:07.24	112.09	20.30	-37.0	-37.9	23.3	0.00e+00	0	25	0	896532480	46	6372
2026-01-05 13:00:11.28	113.01	20.07	-36.6	-37.5	23.7	0.00e+00	87	25	0	903872512	46	6046
2026-01-05 13:00:15.32	113.92	19.84	-37.1	-38.0	23.5	0.00e+00	0	25	0	912261120	46	6434
2026-01-05 13:00:19.35	114.81	19.61	-37.1	-38.0	23.2	0.00e+00	0	25	0	919601152	46	6459
2026-01-05 13:00:23.38	115.69	19.37	-37.4	-38.4	23.0	0.00e+00	0	25	0	926941184	48	5997
2026-01-05 13:00:27.41	116.55	19.12	-37.0	-37.9	23.4	0.00e+00	84	25	0	934281216	48	5659
2026-01-05 13:00:31.45	117.41	18.87	-37.7	-38.6	22.9	0.00e+00	0	25	0	941621248	48	6171
2026-01-05 13:00:35.49	118.25	18.62	-37.2	-38.1	23.1	0.00e+00	0	25	0	950009856	48	5813
2026-01-05 13:00:39.53	119.08	18.36	-37.8	-38.8	22.7	0.00e+00	0	25	0	957349888	48	6309
2026-01-05 13:00:43.57	119.89	18.10	-37.3	-38.3	23.2	0.00e+00	17	25	0	964689920	48	5943
2026-01-05 13:00:47.61	120.69	17.84	-37.2	-38.2	23.2	0.00e+00	0	25	0	972029952	48	5853
2026-01-05 13:00:51.65	121.48	17.58	-36.5	-37.4	23.9	0.00e+00	0	25	0	980418560	46	5973
2026-01-05 13:00:55.69	122.25	17.31	-36.6	-37.4	23.7	0.00e+00	68	25	0	987758592	46	6033
2026-01-05 13:00:59.72	123.01	17.04	-37.5	-38.4	23.0	0.00e+00	0	25	0	995098624	46	6756
2026-01-05 13:01:03.76	123.76	16.77	-38.0	-39.1	22.5	0.00e+00	0	25	0	1002438656	48	6493
2026-01-05 13:01:07.79	124.49	16.50	-38.6	-39.7	21.8	0.00e+00	0	25	0	1009778688	50	6237
2026-01-05 13:01:11.83	125.21	16.23	-36.7	-37.6	23.6	0.00e+00	87	25	0	1018167296	48	5466
2026-01-05 13:01:15.87	125.92	15.96	-37.2	-38.1	23.2	0.00e+00	0	25	0	1025507328	46	6528
2026-01-05 13:01:19.91	126.62	15.68	-37.7	-38.6	22.8	0.00e+00	0	25	0	1032847360	48	6163
2026-01-05 13:01:23.95	127.30	15.40	-36.7	-37.6	23.6	0.00e+00	0	25	0	1040187392	46	6119
2026-01-05 13:01:27.98	127.97	15.13	-37.6	-38.5	22.8	0.00e+00	90	25	0	1048576000	46	6838
2026-01-05 13:01:32.02	128.63	14.85	-37.1	-38.0	23.2	0.00e+00	0	25	0	1055916032	46	6420
2026-01-05 13:01:36.06	129.28	14.57	-37.7	-38.7	22.7	0.00e+00	0	25	0	1063256064	46	6992
2026-01-05 13:01:40.10	129.92	14.30	-38.1	-39.1	22.4	0.00e+00	29	25	0	1070596096	48	6533
2026-01-05 13:01:44.13	130.54	14.02	-37.5	-38.4	22.9	0.00e+00	0	25	0	1077936128	48	6023
2026-01-05 13:01:48.17	131.16	13.74	-38.3	-39.4	22.1	0.00e+00	0	25	0	1086324736	48	6738
2026-01-05 13:01:52.20	131.76	13.47	-38.6	-39.7	21.8	0.00e+00	0	25	0	1093664768	50	6198
2026-01-05 13:01:56.24	132.35	13.19	-38.0	-39.1	22.4	0.00e+00	84	25	0	1101004800	50	5763
2026-01-05 13:02:00.27	132.93	12.92	-37.8	-38.8	22.6	0.00e+00	0	25	0	1108344832	48	6262
2026-01-05 13:02:04.30	133.50	12.64	-37.3	-38.2	23.1	0.00e+00	0	25	0	1115684864	48	5881
2026-01-05 13:02:08.34	134.06	12.36	-36.9	-37.8	23.1	0.00e+00	0	25	0	1124073472	48	5619
2026-01-05 13:02:12.38	134.61	12.09	-37.5	-38.5	22.7	0.00e+00	90	25	0	1131413504	48	6043
2026-01-05 13:02:16.41	135.15	11.82	-37.9	-38.9	22.1	0.00e+00	0	25	0	1138753536	48	6339
2026-01-05 13:02:20.45	135.69	11.54	-37.7	-38.7	22.6	0.00e+00	0	25	0	1146093568	48	6199
2026-01-05 13:02:24.49	136.21	11.27	-37.3	-38.2	23.0	0.00e+00	0	25	0	1154482176	48	5883
2026-01-05 13:02:28.52	136.72	11.00	-37.8	-38.8	22.5	0.00e+00	92	25	0	1161822208	48	6280
2026-01-05 13:02:32.56	137.22	10.73	-37.9	-38.9	22.4	0.00e+00	0	25	0	1169162240	48	6340
2026-01-05 13:02:36.60	137.72	10.46	-37.5	-38.4	22.7	0.00e+00	0	25	0	1176502272	48	6011
2026-01-05 13:02:40.64	138.21	10.20	-37.8	-38.8	22.4	0.00e+00	10	25	0	1183842304	48	6259
2026-01-05 13:02:44.67	138.68	9.93	-38.7	-39.8	21.5	0.00e+00	0	25	0	1192230912	50	6281
2026-01-05 13:02:48.71	139.15	9.66	-40.0	-41.3	20.2	0.00e+00	0	25	0	1199570944	52	6661
2026-01-05 13:02:52.75	139.61	9.40	-39.8	-41.1	20.2	0.00e+00	0	25	0	1206910976	52	6491
2026-01-05 13:02:56.78	140.07	9.14	-40.0	-41.4	19.6	0.00e+00	78	25	0	1214251008	52	6756
2026-01-05 13:03:00.82	140.51	8.88	-40.2	-41.7	19.3	0.00e+00	0	25	0	1222639616	52	6959
2026-01-05 13:03:04.85	140.95	8.62	-40.4	-42.0	18.8	0.00e+00	0	25	0	1229979648	52	7227
2026-01-05 13:03:08.89	141.38	8.36	-40.6	-42.2	18.5	0.00e+00	0	25	0	1237319680	52	7385
2026-01-05 13:03:12.93	141.81	8.10	-40.5	-42.1	18.8	0.00e+00	92	25	0	1244659712	52	7275
2026-01-05 13:03:16.96	142.22	7.84	-40.8	-42.5	18.3	0.00e+00	0	25	0	1251999744	54	6778
2026-01-05 13:03:21.00	142.63	7.59	-41.2	-42.9	18.1	0.00e+00	0	25	0	1260388352	54	7156
2026-01-05 13:03:25.04	143.03	7.33	-41.1	-42.9	18.2	0.00e+00	0	25	0	1267728384	54	7131
2026-01-05 13:03:29.08	143.43	7.08	-40.4	-42.0	19.0	0.00e+00	0	25	0	1275068416	54	6443
2026-01-05 13:03:33.11	143.82	6.83	-39.9	-41.4	19.6	0.00e+00	0	25	0	1282408448	52	6693
2026-01-05 13:03:37.15	144.20	6.58	-40.0	-41.4	19.6	0.00e+00	0	25	0	1289748480	52	6736
2026-01-05 13:03:41.19	144.58	6.33	-40.3	-41.8	19.2	0.00e+00	92	25	0	1298137088	52	7041
2026-01-05 13:03:45.23	144.95	6.08	-40.7	-42.3	18.8	0.00e+00	0	25	0	1305477120	54	6679
2026-01-05 13:03:49.27	145.32	5.84	-40.7	-42.3	18.8	0.00e+00	0	25	0	1312817152	54	6661
2026-01-05 13:03:53.31	145.67	5.59	-40.3	-41.8	19.3	0.00e+00	0	25	0	1320157184	54	6262
2026-01-05 13:03:57.34	146.03	5.35	-39.7	-41.1	20.1	0.00e+00	82	25	0	1328545792	52	6467
2026-01-05 13:04:01.37	146.37	5.11	-39.9	-41.3	19.9	0.00e+00	0	25	0	1335885824	52	6619
2026-01-05 13:04:05.40	146.72	4.87	-39.6	-40.9	20.2	0.00e+00	0	25	0	1343225856	52	6335
2026-01-05 13:04:09.44	147.05	4.63	-40.1	-41.5	19.5	0.00e+00	73	25	0	1350565888	52	6799
2026-01-05 13:04:13.48	147.39	4.39	-40.3	-41.8	19.3	0.00e+00	78	25	0	1357905920	52	7052
2026-01-05 13:04:17.52	147.71	4.16	-40.5	-42.1	18.7	0.00e+00	0	25	0	1366294528	52	7304
2026-01-05 13:04:21.55	148.03	3.92	-40.1	-41.6	19.0	0.00e+00	0	25	0	1373634560	52	6925
2026-01-05 13:04:25.59	148.35	3.69	-40.6	-42.3	18.3	0.00e+00	74	25	0	1380974592	52	7499
2026-01-05 13:04:29.63	148.66	3.46	-40.5	-42.2	18.3	0.00e+00	0	25	0	1388314624	52	7415
2026-01-05 13:04:33.67	148.97	3.23	-41.1	-43.0	17.6	0.00e+00	0	25	0	1396703232	54	7219
2026-01-05 13:04:37.70	149.27	3.00	-46.7	-61.8	3.6	0.00e+00	0	25	104	1402994688	60	44393
2026-01-05 13:04:41.74	149.57	2.77	-48.3	-63.4	3.6	1.51e+00	0	25	104	1402994688	60	53700
2026-01-05 13:04:45.78	149.87	2.54	-48.5	-63.7	3.6	1.51e+00	0	25	104	1402994688	60	55057
2026-01-05 13:04:49.82	150.16	2.32	-48.4	-63.5	3.6	1.51e+00	0	25	104	1402994688	60	54304
2026-01-05 13:04:53.86	150.44	2.09	-48.4	-63.6	3.6	1.51e+00	0	25	104	1402994688	60	54640
2026-01-05 13:04:57.89	150.72	1.87	-48.4	-63.5	3.6	1.51e+00	0	25	104	1402994688	60	54282
2026-01-05 13:05:01.93	151.00	1.65	-48.4	-63.5	3.6	1.51e+00	0	25	104	1402994688	60	54325
2026-01-05 13:05:05.97	151.28	1.43	-48.4	-63.6	3.6	1.51e+00	0	25	104	1402994688	60	54574
2026-01-05 13:05:10.01	151.55	1.21	-48.4	-63.6	3.6	1.51e+00	0	25	104	1402994688	60	54769
2026-01-05 13:05:14.04	151.81	0.99	-48.4	-63.5	3.6	1.51e+00	0	25	104	1402994688	60	54072
2026-01-05 13:05:18.08	152.08	0.77	-48.4	-63.6	3.6	1.51e+00	0	25	104	1402994688	60	54885
2026-01-05 13:05:22.12	152.33	0.55	-48.5	-63.7	3.6	1.51e+00	0	25	104	1402994688	60	55030
2026-01-05 13:05:26.16	152.59	0.34	-48.4	-63.6	3.6	1.51e+00	0	25	104	1402994688	60	54454
2026-01-05 13:05:30.20	152.84	0.12	-48.6	-63.8	3.6	1.51e+00	0	25	104	1402994688	60	55717

#Closed at: 2026-01-05 13:05:33
#Recorded file [1402 MB]: D:/lorett/data/35029_260106_005122.dat