passes_logs/2026/01/05/R4.6S_Anadyr/R4.6S_Anadyr__20260105_224729_SUOMI_NPP_rec.log

#Pass ID: 20260105_224729_SUOMI NPP
#Satellite: SUOMI NPP
#Configuration: NPP
#almurnet v.1.7.20251203
#Start time: 2026-01-05 22:47:31

#Version: 2.2.20231116
#Station: R4.6S_Anadyr
#Location: 177.4865 lon 64.73178 lat
#TLE: 1 37849U 11061A   26004.95404768  .00000136  00000+0  85334-4 0  9991
#TLE: 2 37849  98.7801 307.0898 0002575  80.6707 279.4760 14.19522289735281

#Time	Az	El	Level	Level2	SNR	BER	BlckErr	Temp	State	Recorded	gain1	gain2
2026-01-05 22:47:31.31	119.80	0.11	-48.5	-61.0	3.5	1.52e+00	0	31	0	0	60	39445
2026-01-05 22:47:35.34	119.66	0.34	-48.6	-63.8	3.6	1.51e+00	0	32	104	0	60	55751
2026-01-05 22:47:39.39	119.51	0.58	-48.7	-63.8	3.6	1.51e+00	0	32	104	0	60	56179
2026-01-05 22:47:43.42	119.36	0.82	-48.5	-63.7	3.6	1.51e+00	0	33	104	0	60	55159
2026-01-05 22:47:47.47	119.20	1.06	-47.5	-63.0	3.6	1.51e+00	0	33	104	0	60	51059
2026-01-05 22:47:51.51	119.05	1.30	-46.8	-62.2	3.6	1.51e+00	0	33	104	0	60	46628
2026-01-05 22:47:55.55	118.89	1.54	-46.7	-62.3	3.6	1.51e+00	0	33	104	0	60	46933
2026-01-05 22:47:59.59	118.72	1.79	-46.7	-62.2	3.6	1.51e+00	0	33	104	0	60	46834
2026-01-05 22:48:03.63	118.56	2.03	-46.7	-62.1	3.6	1.51e+00	0	33	104	0	60	46054
2026-01-05 22:48:07.67	118.39	2.28	-46.7	-62.0	3.6	1.51e+00	0	33	104	0	60	45705
2026-01-05 22:48:11.71	118.22	2.53	-46.7	-62.2	3.5	1.51e+00	0	33	104	0	60	46669
2026-01-05 22:48:15.75	118.04	2.78	-46.7	-62.1	3.6	1.51e+00	0	33	104	0	60	46155
2026-01-05 22:48:19.79	117.86	3.04	-46.7	-61.4	3.6	1.51e+00	0	33	104	0	60	42371
2026-01-05 22:48:23.82	117.68	3.29	-46.7	-61.1	3.6	1.51e+00	0	33	104	0	60	41066
2026-01-05 22:48:27.87	117.50	3.55	-44.8	-49.3	11.6	4.09e-03	0	33	0	4194304	60	10494
2026-01-05 22:48:31.90	117.31	3.81	-45.4	-51.4	8.9	5.56e-01	0	33	104	7340032	60	13465
2026-01-05 22:48:35.94	117.12	4.08	-42.0	-44.1	17.2	0.00e+00	0	33	0	9437184	56	7301
2026-01-05 22:48:39.97	116.92	4.34	-40.9	-42.5	18.8	0.00e+00	0	33	0	16777216	56	6069
2026-01-05 22:48:44.00	116.72	4.61	-40.7	-42.3	19.0	0.00e+00	0	33	0	25165824	54	6688
2026-01-05 22:48:48.04	116.52	4.88	-41.0	-42.7	18.6	0.00e+00	0	33	0	32505856	54	6966
2026-01-05 22:48:52.07	116.31	5.15	-40.8	-42.3	19.0	0.00e+00	0	33	0	39845888	54	6663
2026-01-05 22:48:56.10	116.10	5.43	-40.7	-42.3	19.1	0.00e+00	0	33	0	47185920	54	6640
2026-01-05 22:49:00.14	115.89	5.70	-41.0	-42.6	18.8	0.00e+00	0	33	0	54525952	54	6864
2026-01-05 22:49:04.18	115.67	5.98	-40.6	-42.1	19.4	0.00e+00	0	33	0	62914560	54	6471
2026-01-05 22:49:08.22	115.44	6.27	-39.8	-41.2	20.2	0.00e+00	0	33	0	70254592	52	6557
2026-01-05 22:49:12.25	115.21	6.55	-40.2	-41.7	19.7	0.00e+00	0	33	0	77594624	52	6946
2026-01-05 22:49:16.29	114.98	6.84	-40.5	-41.9	19.7	0.00e+00	0	33	0	84934656	54	6371
2026-01-05 22:49:20.33	114.74	7.13	-39.8	-41.0	20.5	0.00e+00	0	33	0	93323264	52	6444
2026-01-05 22:49:24.36	114.50	7.42	-39.7	-40.9	20.6	0.00e+00	0	33	0	100663296	52	6354
2026-01-05 22:49:28.40	114.25	7.72	-39.6	-40.8	20.7	0.00e+00	0	33	0	108003328	52	6280
2026-01-05 22:49:32.44	113.99	8.02	-39.3	-40.4	21.1	0.00e+00	0	33	0	115343360	52	6027
2026-01-05 22:49:36.48	113.73	8.32	-39.6	-40.8	20.7	0.00e+00	0	33	0	122683392	52	6293
2026-01-05 22:49:40.52	113.46	8.63	-39.4	-40.7	20.9	0.00e+00	0	33	0	131072000	52	6204
2026-01-05 22:49:44.55	113.19	8.93	-39.0	-40.2	21.4	0.00e+00	0	33	0	138412032	52	5838
2026-01-05 22:49:48.59	112.92	9.25	-38.9	-40.0	21.4	0.00e+00	0	33	0	145752064	52	5703
2026-01-05 22:49:52.63	112.63	9.56	-39.5	-40.8	20.8	0.00e+00	0	33	0	153092096	50	7028
2026-01-05 22:49:56.66	112.34	9.88	-39.4	-40.6	21.1	0.00e+00	0	33	0	160432128	50	6861
2026-01-05 22:50:00.70	112.04	10.20	-38.8	-40.0	21.6	0.00e+00	0	33	0	168820736	50	6396
2026-01-05 22:50:04.73	111.74	10.53	-38.7	-39.8	21.7	0.00e+00	0	33	0	176160768	50	6267
2026-01-05 22:50:08.77	111.43	10.85	-38.3	-39.4	22.0	0.00e+00	0	33	0	183500800	50	6020
2026-01-05 22:50:12.81	111.11	11.19	-38.2	-39.2	22.1	0.00e+00	0	33	0	190840832	50	5852
2026-01-05 22:50:16.84	110.78	11.52	-38.3	-39.3	22.2	0.00e+00	0	33	0	199229440	50	5924
2026-01-05 22:50:20.88	110.45	11.86	-37.9	-38.9	22.5	0.00e+00	0	33	0	206569472	50	5677
2026-01-05 22:50:24.92	110.11	12.21	-38.5	-39.6	22.0	0.00e+00	0	33	0	213909504	50	6124
2026-01-05 22:50:28.96	109.75	12.55	-38.2	-39.2	22.1	0.00e+00	0	33	0	221249536	50	5884
2026-01-05 22:50:33.00	109.40	12.90	-38.1	-39.1	22.4	0.00e+00	0	34	0	228589568	50	5776
2026-01-05 22:50:37.03	109.03	13.26	-38.5	-39.6	22.1	0.00e+00	0	33	0	236978176	50	6106
2026-01-05 22:50:41.07	108.65	13.62	-38.2	-39.2	22.3	0.00e+00	0	34	0	244318208	50	5835
2026-01-05 22:50:45.11	108.26	13.98	-38.2	-39.2	22.4	0.00e+00	0	34	0	251658240	50	5887
2026-01-05 22:50:49.14	107.87	14.35	-38.8	-39.8	21.8	0.00e+00	0	33	0	258998272	50	6315
2026-01-05 22:50:53.18	107.46	14.72	-38.1	-39.1	22.4	0.00e+00	0	34	0	267386880	50	5807
2026-01-05 22:50:57.22	107.04	15.09	-37.7	-38.7	22.8	0.00e+00	0	34	0	274726912	48	6183
2026-01-05 22:51:01.25	106.61	15.47	-37.3	-38.2	23.2	0.00e+00	0	34	0	282066944	48	5885
2026-01-05 22:51:05.29	106.17	15.86	-37.1	-38.0	23.4	0.00e+00	0	34	0	289406976	48	5708
2026-01-05 22:51:09.33	105.72	16.25	-37.2	-38.1	23.3	0.00e+00	0	34	0	296747008	48	5780
2026-01-05 22:51:13.37	105.25	16.64	-37.5	-38.4	23.0	0.00e+00	0	34	0	305135616	48	6032
2026-01-05 22:51:17.40	104.78	17.04	-37.7	-38.7	22.8	0.00e+00	0	34	0	312475648	48	6187
2026-01-05 22:51:21.44	104.29	17.44	-37.9	-38.9	22.6	0.00e+00	0	34	0	319815680	48	6361
2026-01-05 22:51:25.48	103.78	17.84	-37.7	-38.6	22.9	0.00e+00	0	34	0	327155712	48	6164
2026-01-05 22:51:29.52	103.27	18.25	-38.0	-38.9	22.5	0.00e+00	0	33	0	335544320	48	6372
2026-01-05 22:51:33.55	102.73	18.67	-37.9	-38.8	22.7	0.00e+00	0	34	0	342884352	48	6315
2026-01-05 22:51:37.59	102.19	19.09	-38.4	-39.4	22.2	0.00e+00	0	34	0	350224384	50	6016
2026-01-05 22:51:41.62	101.62	19.51	-38.3	-39.3	22.4	0.00e+00	0	34	0	357564416	50	5955
2026-01-05 22:51:45.66	101.05	19.94	-38.7	-39.7	22.0	0.00e+00	0	34	0	364904448	50	6215
2026-01-05 22:51:49.69	100.45	20.37	-38.3	-39.3	22.4	0.00e+00	0	34	0	373293056	50	5928
2026-01-05 22:51:53.72	99.84	20.80	-38.1	-39.0	22.6	0.00e+00	0	34	0	380633088	50	5739
2026-01-05 22:51:57.76	99.21	21.24	-38.1	-39.1	22.7	0.00e+00	0	33	0	387973120	50	5770
2026-01-05 22:52:01.79	98.56	21.69	-37.3	-38.2	23.4	0.00e+00	0	34	0	395313152	48	5874
2026-01-05 22:52:05.83	97.89	22.13	-37.7	-38.6	23.0	0.00e+00	0	33	0	403701760	48	6153
2026-01-05 22:52:09.87	97.20	22.58	-37.5	-38.4	23.2	0.00e+00	0	34	0	411041792	48	6011
2026-01-05 22:52:13.90	96.49	23.04	-37.9	-38.8	22.8	0.00e+00	0	34	0	418381824	48	6307
2026-01-05 22:52:17.94	95.76	23.50	-38.4	-39.4	22.3	0.00e+00	0	33	0	425721856	48	6730
2026-01-05 22:52:21.97	95.01	23.95	-39.0	-40.2	21.7	0.00e+00	0	34	0	433061888	50	6552
2026-01-05 22:52:26.01	94.24	24.42	-39.7	-41.0	21.1	0.00e+00	0	34	0	441450496	52	6397
2026-01-05 22:52:30.05	93.44	24.88	-39.4	-40.5	21.1	0.00e+00	0	33	0	448790528	52	6091
2026-01-05 22:52:34.08	92.61	25.35	-39.0	-40.1	21.9	0.00e+00	0	34	0	456130560	52	5807
2026-01-05 22:52:38.12	91.77	25.82	-38.9	-40.0	21.9	0.00e+00	0	34	0	463470592	52	5727
2026-01-05 22:52:42.15	90.89	26.29	-38.9	-40.0	22.0	0.00e+00	0	34	0	470810624	50	6404
2026-01-05 22:52:46.19	89.99	26.76	-38.9	-40.0	21.9	0.00e+00	0	33	0	479199232	50	6441
2026-01-05 22:52:50.23	89.07	27.23	-38.9	-40.0	22.2	0.00e+00	0	33	0	486539264	50	6431
2026-01-05 22:52:54.27	88.11	27.70	-38.5	-39.5	22.3	0.00e+00	0	34	0	493879296	50	6072
2026-01-05 22:52:58.30	87.13	28.17	-38.9	-39.9	22.0	0.00e+00	0	34	0	501219328	50	6380
2026-01-05 22:53:02.34	86.11	28.63	-39.3	-40.5	21.5	0.00e+00	0	33	0	509607936	52	6038
2026-01-05 22:53:06.38	85.07	29.10	-38.4	-39.3	22.4	0.00e+00	0	34	0	516947968	50	5960
2026-01-05 22:53:10.42	84.00	29.56	-38.6	-39.6	22.3	0.00e+00	0	34	0	524288000	50	6134
2026-01-05 22:53:14.46	82.89	30.02	-38.6	-39.6	22.4	0.00e+00	0	34	0	531628032	50	6112
2026-01-05 22:53:18.50	81.75	30.47	-40.5	-41.8	20.4	0.00e+00	0	34	0	538968064	52	7038
2026-01-05 22:53:22.53	80.58	30.91	-40.9	-42.3	20.0	0.00e+00	0	34	0	547356672	54	6680
2026-01-05 22:53:26.57	79.38	31.35	-39.6	-40.8	21.3	0.00e+00	0	34	0	554696704	52	6247
2026-01-05 22:53:30.60	78.15	31.78	-41.1	-42.5	19.5	0.00e+00	0	34	0	562036736	54	6795
2026-01-05 22:53:34.64	76.88	32.20	-41.5	-43.0	19.4	0.00e+00	0	34	0	569376768	56	6414
2026-01-05 22:53:38.68	75.58	32.61	-42.2	-43.9	18.4	0.00e+00	0	34	0	577765376	56	7139
2026-01-05 22:53:42.72	74.25	33.01	-42.3	-44.1	18.2	0.00e+00	0	34	0	585105408	58	6468
2026-01-05 22:53:46.76	72.88	33.40	-40.8	-42.1	20.1	0.00e+00	0	34	0	592445440	54	6519
2026-01-05 22:53:50.80	71.48	33.77	-41.2	-42.6	19.7	0.00e+00	0	34	0	599785472	54	6900
2026-01-05 22:53:54.83	70.05	34.12	-40.1	-41.3	20.6	0.00e+00	0	34	0	607125504	52	6621
2026-01-05 22:53:58.87	68.59	34.46	-40.6	-41.9	20.3	0.00e+00	0	34	0	615514112	54	6336
2026-01-05 22:54:02.91	67.10	34.78	-40.0	-41.2	21.0	0.00e+00	0	34	0	622854144	52	6610
2026-01-05 22:54:06.95	65.58	35.08	-38.1	-39.1	22.8	0.00e+00	0	34	0	630194176	50	5782
2026-01-05 22:54:10.99	64.03	35.36	-36.2	-37.0	24.1	0.00e+00	0	34	0	637534208	46	5698
2026-01-05 22:54:15.03	62.46	35.62	-36.5	-37.3	24.1	0.00e+00	0	34	0	645922816	46	5940
2026-01-05 22:54:19.06	60.86	35.85	-37.1	-38.0	23.5	0.00e+00	0	34	0	653262848	48	5727
2026-01-05 22:54:23.10	59.24	36.06	-36.6	-37.5	24.0	0.00e+00	0	34	0	660602880	46	6061
2026-01-05 22:54:27.14	57.60	36.25	-37.2	-38.1	23.5	0.00e+00	0	34	0	667942912	46	6509
2026-01-05 22:54:31.17	55.95	36.41	-36.6	-37.5	24.0	0.00e+00	0	34	0	675282944	46	6051
2026-01-05 22:54:35.21	54.28	36.54	-35.7	-36.4	24.6	0.00e+00	0	33	0	683671552	44	6021
2026-01-05 22:54:39.25	52.60	36.65	-37.7	-38.6	23.2	0.00e+00	0	34	0	691011584	48	6128
2026-01-05 22:54:43.28	50.91	36.72	-38.2	-39.2	22.7	0.00e+00	0	34	0	698351616	48	6542
2026-01-05 22:54:47.31	49.21	36.77	-38.8	-39.9	22.0	0.00e+00	0	34	0	705691648	50	6365
2026-01-05 22:54:51.34	47.51	36.79	-38.0	-39.0	22.9	0.00e+00	0	34	0	713031680	50	5703
2026-01-05 22:54:55.38	45.81	36.78	-38.4	-39.3	22.6	0.00e+00	0	34	0	721420288	50	5932
2026-01-05 22:54:59.42	44.11	36.74	-38.7	-39.8	22.1	0.00e+00	0	34	0	728760320	50	6278
2026-01-05 22:55:03.45	42.42	36.68	-39.9	-41.1	21.1	0.00e+00	0	34	0	736100352	52	6515
2026-01-05 22:55:07.49	40.73	36.58	-39.1	-40.1	21.9	0.00e+00	0	34	0	743440384	52	5801
2026-01-05 22:55:11.53	39.06	36.46	-39.0	-40.0	22.1	0.00e+00	0	34	0	751828992	50	6436
2026-01-05 22:55:15.56	37.40	36.31	-39.6	-40.7	21.3	0.00e+00	0	34	0	759169024	52	6226
2026-01-05 22:55:19.60	35.75	36.13	-39.2	-40.3	21.9	0.00e+00	0	33	0	766509056	52	5898
2026-01-05 22:55:23.64	34.13	35.93	-40.3	-41.6	20.6	0.00e+00	0	34	0	773849088	52	6879
2026-01-05 22:55:27.68	32.53	35.71	-39.9	-41.1	21.2	0.00e+00	0	34	0	781189120	54	5785
2026-01-05 22:55:31.72	30.95	35.46	-38.4	-39.4	22.4	0.00e+00	0	34	0	789577728	50	6025
2026-01-05 22:55:35.75	29.39	35.19	-38.9	-39.9	21.9	0.00e+00	0	34	0	796917760	52	5667
2026-01-05 22:55:39.79	27.87	34.89	-37.5	-38.4	23.3	0.00e+00	0	34	0	804257792	48	6023
2026-01-05 22:55:43.82	26.37	34.58	-39.8	-41.1	21.0	0.00e+00	0	34	0	811597824	50	7269
2026-01-05 22:55:47.86	24.90	34.25	-38.8	-39.9	22.1	0.00e+00	0	34	0	818937856	52	5655
2026-01-05 22:55:51.90	23.46	33.90	-39.3	-40.5	21.7	0.00e+00	0	34	0	827326464	50	6780
2026-01-05 22:55:55.93	22.06	33.54	-39.2	-40.3	21.7	0.00e+00	0	34	0	834666496	52	5955
2026-01-05 22:55:59.97	20.68	33.16	-37.9	-38.8	23.0	0.00e+00	0	34	0	842006528	50	5598
2026-01-05 22:56:04.01	19.34	32.77	-39.6	-40.7	21.3	0.00e+00	0	34	0	849346560	50	6975
2026-01-05 22:56:08.04	18.03	32.36	-38.1	-39.1	22.8	0.00e+00	0	34	0	857735168	50	5771
2026-01-05 22:56:12.08	16.75	31.95	-39.2	-40.2	21.8	0.00e+00	0	34	0	865075200	50	6612
2026-01-05 22:56:16.11	15.51	31.52	-38.9	-40.0	22.0	0.00e+00	0	34	0	872415232	50	6432
2026-01-05 22:56:20.15	14.30	31.09	-39.7	-40.9	21.1	0.00e+00	0	34	0	879755264	50	7102
2026-01-05 22:56:24.19	13.12	30.64	-41.6	-43.2	19.3	0.00e+00	0	34	0	887095296	56	6566
2026-01-05 22:56:28.22	11.98	30.20	-40.4	-41.7	20.5	0.00e+00	0	34	0	895483904	54	6191
2026-01-05 22:56:32.25	10.87	29.75	-39.7	-40.8	21.5	0.00e+00	0	34	0	902823936	54	5627
2026-01-05 22:56:36.29	9.78	29.29	-38.3	-39.2	22.5	0.00e+00	0	34	0	910163968	50	5891
2026-01-05 22:56:40.33	8.73	28.82	-38.4	-39.4	22.4	0.00e+00	0	34	0	917504000	50	6023
2026-01-05 22:56:44.37	7.71	28.36	-39.3	-40.5	21.4	0.00e+00	0	34	0	925892608	50	6804
2026-01-05 22:56:48.41	6.72	27.89	-38.2	-39.2	22.5	0.00e+00	0	34	0	933232640	50	5851
2026-01-05 22:56:52.43	5.76	27.43	-38.7	-39.8	22.0	0.00e+00	0	34	0	940572672	50	6268
2026-01-05 22:56:56.46	4.83	26.96	-37.2	-38.1	23.1	0.00e+00	0	33	0	947912704	48	5816
2026-01-05 22:57:00.50	3.92	26.49	-37.4	-38.3	23.2	0.00e+00	0	34	0	955252736	48	5928
2026-01-05 22:57:04.54	3.04	26.02	-37.9	-38.9	22.8	0.00e+00	0	33	0	963641344	48	6382
2026-01-05 22:57:08.58	2.18	25.55	-37.8	-38.8	22.9	0.00e+00	0	34	0	970981376	48	6312
2026-01-05 22:57:12.61	1.35	25.09	-37.8	-38.8	22.9	0.00e+00	0	33	0	978321408	48	6304
2026-01-05 22:57:16.65	0.55	24.62	-37.4	-38.3	23.2	0.00e+00	0	34	0	985661440	48	5942
2026-01-05 22:57:20.68	359.77	24.16	-37.8	-38.8	22.9	0.00e+00	0	33	0	994050048	48	6275
2026-01-05 22:57:24.72	359.01	23.70	-37.6	-38.5	23.0	0.00e+00	0	34	0	1001390080	48	6088
2026-01-05 22:57:28.76	358.28	23.25	-36.8	-37.7	23.5	0.00e+00	0	34	0	1008730112	48	5520
2026-01-05 22:57:32.80	357.56	22.79	-37.8	-38.8	22.9	0.00e+00	0	34	0	1016070144	48	6284
2026-01-05 22:57:36.84	356.87	22.34	-39.1	-40.2	21.6	0.00e+00	0	34	0	1023410176	50	6588
2026-01-05 22:57:40.88	356.19	21.89	-37.7	-38.6	22.9	0.00e+00	0	34	0	1031798784	50	5493
2026-01-05 22:57:44.91	355.54	21.45	-37.1	-38.0	23.4	0.00e+00	0	34	0	1039138816	48	5700
2026-01-05 22:57:48.95	354.90	21.01	-37.8	-38.8	22.9	0.00e+00	0	34	0	1046478848	48	6270
2026-01-05 22:57:52.99	354.29	20.57	-36.7	-37.5	23.7	0.00e+00	0	34	0	1053818880	46	6097
2026-01-05 22:57:57.02	353.69	20.14	-37.1	-38.0	23.4	0.00e+00	0	34	0	1062207488	46	6450
2026-01-05 22:58:01.07	353.11	19.71	-39.1	-40.3	21.6	0.00e+00	0	34	0	1069547520	50	6623
2026-01-05 22:58:05.11	352.54	19.29	-40.5	-41.9	20.0	0.00e+00	0	34	0	1076887552	54	6323
2026-01-05 22:58:09.14	351.99	18.87	-39.5	-40.7	21.3	0.00e+00	0	34	0	1084227584	52	6228
2026-01-05 22:58:13.17	351.46	18.46	-38.3	-39.3	22.4	0.00e+00	0	34	0	1091567616	50	5947
2026-01-05 22:58:17.21	350.93	18.05	-39.0	-40.1	21.8	0.00e+00	0	34	0	1099956224	50	6513
2026-01-05 22:58:21.25	350.43	17.64	-38.4	-39.4	22.6	0.00e+00	0	34	0	1107296256	50	5980
2026-01-05 22:58:25.28	349.94	17.24	-37.2	-38.1	23.4	0.00e+00	0	34	0	1114636288	48	5769
2026-01-05 22:58:29.32	349.46	16.84	-37.4	-38.3	22.9	0.00e+00	0	34	0	1121976320	48	5942
2026-01-05 22:58:33.36	348.99	16.45	-37.9	-38.9	22.6	0.00e+00	0	34	0	1129316352	48	6352
2026-01-05 22:58:37.40	348.54	16.06	-37.9	-38.8	22.6	0.00e+00	0	34	0	1137704960	48	6301
2026-01-05 22:58:41.44	348.09	15.67	-38.4	-39.4	22.2	0.00e+00	0	34	0	1145044992	48	6760
2026-01-05 22:58:45.47	347.66	15.30	-38.8	-39.9	21.9	0.00e+00	0	34	0	1152385024	50	6332
2026-01-05 22:58:49.51	347.24	14.92	-39.0	-40.1	21.8	0.00e+00	0	34	0	1159725056	50	6469
2026-01-05 22:58:53.55	346.84	14.55	-39.7	-40.9	20.9	0.00e+00	0	34	0	1168113664	50	7139
2026-01-05 22:58:57.58	346.44	14.18	-40.8	-42.3	19.7	0.00e+00	0	34	0	1175453696	52	7495
2026-01-05 22:59:01.62	346.05	13.82	-40.2	-41.7	20.2	0.00e+00	0	34	0	1182793728	54	6192
2026-01-05 22:59:05.66	345.67	13.46	-39.0	-40.2	21.6	0.00e+00	0	34	0	1190133760	52	5835
2026-01-05 22:59:09.69	345.30	13.10	-38.3	-39.4	22.2	0.00e+00	0	34	0	1197473792	50	6010
2026-01-05 22:59:13.73	344.94	12.75	-38.1	-39.1	22.3	0.00e+00	0	34	0	1205862400	50	5791
2026-01-05 22:59:17.77	344.59	12.40	-38.4	-39.5	22.1	0.00e+00	0	34	0	1213202432	50	6068
2026-01-05 22:59:21.81	344.25	12.06	-38.3	-39.3	22.1	0.00e+00	0	34	0	1220542464	50	5957
2026-01-05 22:59:25.84	343.91	11.72	-38.9	-40.1	21.6	0.00e+00	0	34	0	1227882496	50	6482
2026-01-05 22:59:29.87	343.59	11.38	-39.4	-40.6	21.1	0.00e+00	0	34	0	1235222528	50	6870
2026-01-05 22:59:33.91	343.27	11.05	-39.5	-40.7	21.0	0.00e+00	0	34	0	1243611136	50	7006
2026-01-05 22:59:37.95	342.96	10.72	-39.5	-40.7	21.0	0.00e+00	0	34	0	1250951168	50	6975
2026-01-05 22:59:41.98	342.65	10.40	-39.8	-41.2	20.5	0.00e+00	0	34	0	1258291200	52	6575
2026-01-05 22:59:46.01	342.36	10.08	-40.6	-42.1	19.7	0.00e+00	0	34	0	1265631232	52	7323
2026-01-05 22:59:50.05	342.07	9.76	-41.4	-43.2	18.7	0.00e+00	0	34	0	1274019840	54	7395
2026-01-05 22:59:54.09	341.78	9.44	-41.4	-43.2	18.6	0.00e+00	0	34	0	1281359872	54	7392
2026-01-05 22:59:58.13	341.50	9.13	-40.6	-42.2	19.5	0.00e+00	0	34	0	1288699904	54	6582
2026-01-05 23:00:02.17	341.23	8.82	-39.7	-41.1	20.4	0.00e+00	0	34	0	1296039936	54	5785
2026-01-05 23:00:06.20	340.97	8.51	-39.4	-40.7	20.8	0.00e+00	0	34	0	1303379968	52	6206
2026-01-05 23:00:10.23	340.71	8.21	-39.3	-40.5	20.8	0.00e+00	0	34	0	1311768576	52	6101
2026-01-05 23:00:14.27	340.46	7.91	-39.9	-41.3	20.2	0.00e+00	0	34	0	1319108608	52	6632
2026-01-05 23:00:18.31	340.21	7.61	-39.8	-41.2	20.3	0.00e+00	0	34	0	1326448640	52	6575
2026-01-05 23:00:22.35	339.96	7.32	-40.5	-42.0	19.6	0.00e+00	0	34	0	1333788672	52	7250
2026-01-05 23:00:26.39	339.73	7.03	-40.9	-42.5	19.0	0.00e+00	0	34	0	1342177280	54	6838
2026-01-05 23:00:30.42	339.49	6.74	-41.0	-42.7	18.9	0.00e+00	0	34	0	1349517312	54	6966
2026-01-05 23:00:34.46	339.26	6.46	-41.0	-42.7	18.7	0.00e+00	0	34	0	1356857344	54	7007
2026-01-05 23:00:38.50	339.04	6.17	-41.2	-43.0	18.5	0.00e+00	0	34	0	1364197376	54	7205
2026-01-05 23:00:42.53	338.82	5.89	-41.4	-43.2	18.1	0.00e+00	0	34	0	1371537408	54	7406
2026-01-05 23:00:46.57	338.61	5.62	-42.0	-44.1	17.0	0.00e+00	0	34	0	1379926016	56	7319
2026-01-05 23:00:50.61	338.40	5.34	-42.4	-45.0	15.7	0.00e+00	0	34	0	1387266048	56	8061
2026-01-05 23:00:54.65	338.19	5.07	-43.0	-46.6	13.4	1.14e-05	0	34	0	1394606080	58	8638
2026-01-05 23:00:58.69	337.99	4.80	-43.4	-48.2	10.7	1.67e-03	0	34	0	1401946112	58	10447
2026-01-05 23:01:02.72	337.79	4.53	-43.6	-50.6	7.0	9.42e-02	0	34	0	1409286144	58	13770
2026-01-05 23:01:06.76	337.60	4.26	-43.7	-53.1	4.2	7.45e-01	0	34	0	1417674752	58	18357
2026-01-05 23:01:10.80	337.41	4.00	-43.5	-57.1	3.6	1.50e+00	0	34	104	1418723328	58	29016
2026-01-05 23:01:14.83	337.22	3.74	-43.5	-58.2	3.6	1.51e+00	0	34	104	1418723328	58	33121
2026-01-05 23:01:18.87	337.04	3.48	-43.5	-58.4	3.6	1.51e+00	0	34	104	1418723328	58	33841
2026-01-05 23:01:22.90	336.86	3.22	-43.4	-58.5	3.6	1.51e+00	0	34	104	1418723328	58	34059
2026-01-05 23:01:26.93	336.68	2.97	-43.7	-58.8	3.6	1.51e+00	0	34	104	1418723328	58	35303
2026-01-05 23:01:30.97	336.51	2.72	-48.6	-63.7	3.6	1.51e+00	0	34	104	1418723328	60	55506
2026-01-05 23:01:35.01	336.34	2.47	-48.7	-63.9	3.6	1.51e+00	0	34	104	1418723328	60	56937
2026-01-05 23:01:39.05	336.18	2.22	-48.5	-63.7	3.6	1.51e+00	0	34	104	1418723328	60	55564
2026-01-05 23:01:43.09	336.01	1.97	-48.7	-63.8	3.6	1.51e+00	0	34	104	1418723328	60	56040
2026-01-05 23:01:47.12	335.85	1.72	-48.6	-63.8	3.6	1.51e+00	0	34	104	1418723328	60	56192
2026-01-05 23:01:51.16	335.70	1.48	-48.6	-63.8	3.6	1.51e+00	0	34	104	1418723328	60	56169
2026-01-05 23:01:55.20	335.54	1.24	-48.6	-63.8	3.6	1.51e+00	0	34	104	1418723328	60	55948
2026-01-05 23:01:59.25	335.39	1.00	-48.6	-63.7	3.6	1.51e+00	0	34	104	1418723328	60	55630
2026-01-05 23:02:03.29	335.24	0.76	-48.6	-63.8	3.6	1.51e+00	0	34	104	1418723328	60	55791
2026-01-05 23:02:07.33	335.09	0.53	-48.6	-63.8	3.6	1.51e+00	0	34	104	1418723328	60	55998
2026-01-05 23:02:11.37	334.95	0.29	-48.6	-63.8	3.6	1.51e+00	0	34	104	1418723328	60	56144
2026-01-05 23:02:15.41	334.81	0.06	-48.6	-63.8	3.6	1.51e+00	0	34	104	1418723328	60	55685

#Closed at: 2026-01-05 23:02:18
#Recorded file [1418 MB]: D:/lorett/data/35029_260106_104731.dat