passes_logs/2026/01/05/R4.6S_Anadyr/R4.6S_Anadyr__20260105_212852_TY-42_rec.log

#Pass ID: 20260105_212852_TY-42
#Satellite: TY-42
#Configuration: TY-42_900M
#almurnet v.1.7.20251203
#Start time: 2026-01-05 21:29:26

#Version: 2.2.20231116
#Station: R4.6S_Anadyr
#Location: 177.4865 lon 64.73178 lat
#TLE: 1 64048U 25103A   26005.68684028  .00008011  00000-0  38191-3 0 09993
#TLE: 2 64048 097.4106 081.2795 0001725 092.4682 306.5290 15.19173644 35407

#Time	Az	El	Level	Level2	SNR	BER	BlckErr	Temp	State	Recorded	gain1	gain2
2026-01-05 21:29:26.08	27.90	1.70	-46.8	-49.3	6.1	0.00e+00	0	33	104	0	60	35914
2026-01-05 21:29:29.26	28.28	1.86	-46.8	-49.3	6.1	0.00e+00	0	33	104	0	60	35931
2026-01-05 21:29:32.15	28.62	2.01	-46.8	-49.3	6.1	0.00e+00	0	33	104	0	60	35936
2026-01-05 21:29:35.32	29.01	2.18	-46.8	-49.4	6.1	0.00e+00	0	33	104	0	60	36165
2026-01-05 21:29:38.21	29.36	2.33	-46.8	-49.3	6.1	0.00e+00	0	33	104	0	60	35931
2026-01-05 21:29:41.38	29.76	2.49	-46.8	-49.4	6.1	0.00e+00	0	33	104	0	60	36088
2026-01-05 21:29:44.27	30.12	2.65	-46.8	-49.3	6.1	0.00e+00	0	33	104	0	60	35915
2026-01-05 21:29:47.44	30.53	2.81	-46.8	-49.4	6.1	0.00e+00	0	33	104	0	60	35967
2026-01-05 21:29:50.33	30.90	2.96	-46.8	-49.4	6.1	0.00e+00	0	34	104	0	60	36033
2026-01-05 21:29:53.50	31.32	3.13	-46.8	-49.4	6.1	0.00e+00	0	34	104	0	60	36039
2026-01-05 21:29:56.39	31.70	3.28	-46.7	-49.2	6.1	0.00e+00	0	34	104	0	60	35522
2026-01-05 21:29:59.56	32.13	3.45	-47.3	-49.8	6.1	0.00e+00	0	34	104	0	60	37777
2026-01-05 21:30:02.44	32.52	3.60	-47.4	-50.0	6.1	0.00e+00	0	34	104	0	60	38535
2026-01-05 21:30:05.61	32.96	3.77	-47.2	-49.8	6.1	0.00e+00	0	34	104	0	60	37675
2026-01-05 21:30:08.50	33.36	3.93	-47.1	-49.7	6.1	0.00e+00	0	34	104	0	60	37335
2026-01-05 21:30:11.67	33.82	4.10	-47.0	-49.6	6.1	0.00e+00	0	34	104	0	60	37118
2026-01-05 21:30:14.55	34.23	4.25	-47.3	-49.8	6.1	0.00e+00	0	34	104	0	60	38052
2026-01-05 21:30:17.73	34.70	4.42	-47.4	-49.9	6.1	0.00e+00	0	34	104	0	60	38493
2026-01-05 21:30:20.61	35.12	4.57	-47.4	-49.9	6.1	0.00e+00	0	34	104	0	60	38424
2026-01-05 21:30:23.78	35.60	4.74	-47.5	-50.0	6.1	0.00e+00	0	34	104	0	60	38680
2026-01-05 21:30:26.67	36.04	4.89	-47.6	-50.1	6.1	0.00e+00	0	34	104	0	60	39164
2026-01-05 21:30:29.84	36.53	5.06	-47.7	-50.1	6.1	0.00e+00	0	34	104	0	60	39385
2026-01-05 21:30:32.73	36.98	5.22	-47.5	-50.0	6.1	0.00e+00	0	34	104	0	60	38905
2026-01-05 21:30:35.90	37.48	5.39	-47.6	-50.1	6.1	0.00e+00	0	34	104	0	60	39119
2026-01-05 21:30:38.78	37.94	5.54	-47.6	-50.1	6.1	0.00e+00	0	34	104	0	60	39334
2026-01-05 21:30:41.95	38.46	5.71	-47.8	-50.3	6.1	0.00e+00	0	35	104	0	60	40054
2026-01-05 21:30:44.84	38.93	5.86	-47.5	-50.1	6.1	0.00e+00	0	35	104	0	60	39061
2026-01-05 21:30:48.01	39.46	6.03	-47.8	-50.3	6.1	0.00e+00	0	35	104	0	60	39948
2026-01-05 21:30:50.90	39.95	6.18	-47.7	-50.2	6.1	0.00e+00	0	35	104	0	60	39721
2026-01-05 21:30:54.07	40.50	6.35	-47.8	-50.3	6.1	0.00e+00	0	35	104	0	60	39991
2026-01-05 21:30:56.95	41.00	6.50	-47.8	-50.3	6.1	0.00e+00	0	35	104	0	60	40102
2026-01-05 21:31:00.12	41.56	6.67	-47.8	-50.3	6.1	0.00e+00	0	35	104	0	60	40176
2026-01-05 21:31:03.01	42.07	6.82	-45.9	-48.6	6.2	0.00e+00	0	35	104	0	60	32835
2026-01-05 21:31:06.18	42.65	6.99	-46.5	-49.2	6.1	0.00e+00	0	35	104	0	60	35138
2026-01-05 21:31:09.06	43.18	7.13	-47.2	-49.8	6.1	0.00e+00	0	35	104	0	60	37910
2026-01-05 21:31:12.23	43.77	7.30	-47.2	-49.8	6.1	0.00e+00	0	35	104	0	60	37710
2026-01-05 21:31:15.12	44.31	7.45	-47.2	-49.8	6.1	0.00e+00	0	35	104	0	60	37961
2026-01-05 21:31:18.29	44.91	7.61	-47.9	-50.5	6.1	0.00e+00	0	35	104	0	60	41071
2026-01-05 21:31:21.17	45.47	7.76	-47.2	-49.8	6.1	0.00e+00	0	35	104	0	60	37919
2026-01-05 21:31:24.35	46.09	7.92	-47.8	-50.3	6.1	0.00e+00	0	35	104	0	60	39992
2026-01-05 21:31:27.23	46.66	8.06	-47.7	-50.3	6.1	0.00e+00	0	35	104	0	60	39909
2026-01-05 21:31:30.40	47.30	8.22	-47.5	-50.1	6.1	0.00e+00	0	35	104	0	60	39052
2026-01-05 21:31:33.28	47.89	8.36	-47.6	-50.1	6.1	0.00e+00	0	35	104	0	60	39133
2026-01-05 21:31:36.46	48.54	8.52	-47.9	-50.5	6.1	0.00e+00	0	35	104	0	60	40899
2026-01-05 21:31:39.34	49.14	8.66	-47.4	-50.0	6.1	0.00e+00	0	35	104	0	60	38793
2026-01-05 21:31:42.51	49.81	8.81	-47.4	-50.1	6.1	0.00e+00	0	35	104	0	60	39020
2026-01-05 21:31:45.39	50.42	8.95	-48.0	-50.5	6.1	0.00e+00	0	35	104	0	60	41108
2026-01-05 21:31:48.57	51.11	9.10	-46.6	-49.3	6.1	0.00e+00	0	35	104	0	60	35740
2026-01-05 21:31:51.45	51.74	9.23	-47.9	-50.5	6.1	0.00e+00	0	35	104	0	60	40926
2026-01-05 21:31:54.63	52.44	9.38	-45.8	-48.6	6.2	0.00e+00	0	35	104	0	60	33005
2026-01-05 21:31:57.51	53.09	9.51	-47.4	-49.9	6.1	0.00e+00	0	35	104	0	60	38501
2026-01-05 21:32:00.67	53.80	9.65	-45.0	-47.8	6.3	0.00e+00	0	35	104	0	60	30148
2026-01-05 21:32:03.56	54.46	9.77	-48.1	-50.6	6.1	0.00e+00	0	35	104	0	60	41643
2026-01-05 21:32:06.73	55.19	9.91	-47.5	-50.1	6.1	0.00e+00	0	35	104	0	60	39229
2026-01-05 21:32:09.61	55.87	10.03	-26.5	-26.7	11.8	0.00e+00	15	35	104	0	36	10584
2026-01-05 21:32:12.78	56.62	10.16	-23.3	-23.7	17.2	1.02e-02	0	36	0	260046848	22	16786
2026-01-05 21:32:15.67	57.30	10.28	-23.5	-23.9	16.7	0.00e+00	0	36	0	587202560	22	17201
2026-01-05 21:32:18.83	58.07	10.41	-23.8	-24.3	17.1	0.00e+00	0	36	0	939524096	22	17964
2026-01-05 21:32:21.71	58.77	10.52	-23.9	-24.4	17.0	0.00e+00	0	36	0	1266679808	22	18178
2026-01-05 21:32:24.89	59.55	10.64	-24.1	-24.6	16.9	0.00e+00	0	36	0	1619001344	22	18555
2026-01-05 21:32:27.77	60.26	10.74	-24.3	-24.8	16.7	0.00e+00	0	36	0	1946157056	22	18958
2026-01-05 21:32:30.94	61.05	10.86	-24.4	-24.9	16.8	0.00e+00	0	36	0	2306867200	22	19163
2026-01-05 21:32:33.83	61.78	10.96	-24.5	-25.0	16.6	1.08e-05	0	36	0	2625634304	22	19366
2026-01-05 21:32:37.00	62.59	11.06	-24.5	-24.9	15.2	7.62e-05	0	36	0	2986344448	22	19137
2026-01-05 21:32:39.88	63.33	11.16	-24.4	-24.8	15.6	1.69e-04	0	36	0	3305111552	22	18999
2026-01-05 21:32:43.06	64.15	11.25	-24.5	-25.0	16.8	7.62e-05	0	36	0	3665821696	22	19488
2026-01-05 21:32:45.94	64.90	11.34	-24.4	-24.9	16.9	0.00e+00	0	36	0	3992977408	22	19108
2026-01-05 21:32:49.11	65.73	11.43	-24.5	-25.0	16.8	5.40e-06	0	36	0	4345298944	22	19373
2026-01-05 21:32:51.99	66.49	11.51	-24.6	-25.1	16.8	0.00e+00	0	36	0	4672454656	22	19633
2026-01-05 21:32:55.17	67.34	11.59	-24.5	-24.9	15.8	5.40e-06	0	36	0	5024776192	22	19194
2026-01-05 21:32:58.05	68.11	11.66	-24.4	-24.9	16.1	9.26e-05	0	36	0	5351931904	22	19102
2026-01-05 21:33:01.22	68.96	11.74	-24.3	-24.7	15.8	7.08e-05	0	36	0	5704253440	22	18802
2026-01-05 21:33:04.10	69.74	11.80	-24.3	-24.8	15.7	7.08e-05	0	36	0	6031409152	22	18879
2026-01-05 21:33:07.27	70.60	11.86	-24.4	-24.9	16.7	1.08e-05	0	36	0	6392119296	22	19182
2026-01-05 21:33:10.15	71.39	11.92	-24.5	-24.9	16.6	0.00e+00	0	36	0	6719275008	22	19269
2026-01-05 21:33:13.32	72.26	11.97	-24.4	-24.8	16.6	1.08e-05	0	36	0	7071596544	22	19066
2026-01-05 21:33:16.21	73.06	12.02	-24.5	-25.0	16.7	1.08e-05	0	36	0	7398752256	22	19307
2026-01-05 21:33:19.39	73.94	12.06	-24.3	-24.8	16.8	0.00e+00	0	36	0	7751073792	22	18931
2026-01-05 21:33:22.27	74.74	12.10	-24.4	-24.9	16.0	1.63e-05	0	36	0	8078229504	22	19080
2026-01-05 21:33:25.45	75.62	12.14	-24.4	-24.9	16.6	8.17e-05	0	36	0	8438939648	22	19155
2026-01-05 21:33:28.33	76.43	12.16	-24.5	-25.0	16.3	5.99e-05	0	36	0	8757706752	22	19402
2026-01-05 21:33:31.51	77.32	12.19	-24.4	-24.8	16.3	3.81e-05	0	36	0	9118416896	22	19065
2026-01-05 21:33:34.39	78.13	12.21	-24.4	-24.8	16.4	4.35e-05	0	36	0	9437184000	22	18949
2026-01-05 21:33:37.56	79.02	12.22	-24.3	-24.7	16.6	2.17e-05	0	36	0	9797894144	22	18806
2026-01-05 21:33:40.45	79.83	12.23	-24.4	-24.9	16.7	1.08e-05	0	36	0	10125049856	22	19152
2026-01-05 21:33:43.62	80.72	12.23	-24.4	-24.9	16.6	3.26e-05	0	36	0	10477371392	22	19161
2026-01-05 21:33:46.51	81.53	12.23	-24.5	-25.0	16.6	3.26e-05	0	37	0	10804527104	22	19423
2026-01-05 21:33:49.68	82.43	12.22	-24.6	-25.0	16.5	1.63e-05	0	37	0	11156848640	22	19467
2026-01-05 21:33:52.57	83.24	12.21	-24.4	-24.9	16.5	2.72e-05	0	36	0	11484004352	22	19171
2026-01-05 21:33:55.74	84.13	12.20	-24.4	-24.8	16.6	5.40e-06	0	37	0	11836325888	22	19025
2026-01-05 21:33:58.62	84.94	12.18	-24.4	-24.8	16.6	0.00e+00	0	37	0	12163481600	22	19048
2026-01-05 21:34:01.79	85.82	12.15	-24.5	-24.9	16.6	0.00e+00	0	37	0	12524191744	22	19273
2026-01-05 21:34:04.67	86.63	12.12	-24.4	-24.9	16.6	0.00e+00	0	36	0	12842958848	22	19109
2026-01-05 21:34:07.85	87.51	12.08	-24.6	-25.1	16.5	2.72e-05	0	37	0	13203668992	22	19527
2026-01-05 21:34:10.73	88.31	12.04	-24.6	-25.0	16.5	2.17e-05	0	37	0	13530824704	22	19405
2026-01-05 21:34:13.90	89.19	11.99	-24.6	-25.0	16.6	1.08e-05	0	36	0	13883146240	22	19389
2026-01-05 21:34:16.78	89.99	11.95	-24.5	-25.0	16.5	0.00e+00	0	37	0	14210301952	22	19328
2026-01-05 21:34:19.96	90.86	11.89	-24.5	-24.9	16.5	5.40e-06	0	37	0	14571012096	22	19213
2026-01-05 21:34:22.84	91.65	11.83	-24.4	-24.9	16.6	5.40e-06	0	37	0	14889779200	22	19125
2026-01-05 21:34:26.01	92.51	11.77	-24.5	-24.9	16.5	5.40e-06	0	37	0	15250489344	22	19148
2026-01-05 21:34:28.90	93.29	11.70	-24.4	-24.8	16.5	5.40e-06	0	37	0	15577645056	22	19025
2026-01-05 21:34:32.07	94.14	11.62	-24.5	-24.9	16.5	0.00e+00	0	37	0	15929966592	22	19300
2026-01-05 21:34:34.95	94.91	11.55	-24.7	-25.1	16.5	2.72e-05	0	37	0	16257122304	22	19738
2026-01-05 21:34:38.13	95.76	11.47	-24.5	-25.0	16.5	1.63e-05	0	37	0	16609443840	24	17202
2026-01-05 21:34:41.01	96.52	11.39	-24.5	-24.9	16.6	0.00e+00	0	37	0	16936599552	24	17068
2026-01-05 21:34:44.18	97.35	11.29	-24.4	-24.8	16.6	2.17e-05	0	37	0	17288921088	24	16924
2026-01-05 21:34:47.07	98.10	11.20	-24.6	-25.0	16.7	1.08e-05	0	37	0	17616076800	24	17249
2026-01-05 21:34:50.24	98.92	11.10	-24.5	-24.9	16.6	5.40e-06	0	37	0	17976786944	24	17088
2026-01-05 21:34:53.12	99.66	11.01	-24.4	-24.8	16.5	2.72e-05	0	37	0	18295554048	24	16957
2026-01-05 21:34:56.29	100.47	10.90	-24.4	-24.8	16.6	1.63e-05	0	37	0	18656264192	24	16992
2026-01-05 21:34:59.17	101.20	10.80	-24.7	-25.1	16.8	2.72e-05	0	37	0	18975031296	24	17414
2026-01-05 21:35:02.34	101.99	10.68	-24.8	-25.2	16.7	1.63e-05	0	37	0	19335741440	24	17655
2026-01-05 21:35:05.23	102.70	10.57	-24.9	-25.2	16.7	5.40e-06	0	37	0	19654508544	24	17793
2026-01-05 21:35:08.40	103.48	10.45	-24.7	-25.1	16.8	0.00e+00	0	37	0	20015218688	24	17589
2026-01-05 21:35:11.29	104.18	10.34	-25.1	-25.5	16.8	5.40e-06	0	37	0	20342374400	24	18342
2026-01-05 21:35:14.46	104.95	10.21	-24.9	-25.3	16.8	5.40e-06	0	37	0	20703084544	24	18001
2026-01-05 21:35:17.34	105.63	10.09	-24.8	-25.2	16.8	0.00e+00	0	37	0	21021851648	24	17672
2026-01-05 21:35:20.52	106.38	9.96	-24.8	-25.2	16.9	0.00e+00	0	37	0	21382561792	24	17662
2026-01-05 21:35:23.54	107.09	9.83	-24.9	-25.3	16.9	0.00e+00	0	37	0	21692940288	24	17938
2026-01-05 21:35:26.85	107.85	9.68	-25.0	-25.4	16.8	5.40e-06	0	37	0	22062039040	24	18049
2026-01-05 21:35:29.59	108.48	9.56	-25.1	-25.5	16.8	5.40e-06	0	37	0	22372417536	24	18274
2026-01-05 21:35:32.91	109.23	9.41	-25.1	-25.5	16.9	0.00e+00	0	37	0	22741516288	24	18290
2026-01-05 21:35:35.65	109.84	9.28	-25.0	-25.4	17.0	1.08e-05	0	37	0	23051894784	24	18063
2026-01-05 21:35:38.97	110.57	9.13	-25.1	-25.5	17.0	5.40e-06	0	37	0	23420993536	24	18333
2026-01-05 21:35:41.71	111.17	9.00	-25.1	-25.5	17.0	1.63e-05	0	37	0	23731372032	24	18404
2026-01-05 21:35:45.03	111.89	8.84	-25.2	-25.6	17.0	1.08e-05	0	37	0	24100470784	24	18641
2026-01-05 21:35:47.76	112.47	8.71	-25.2	-25.7	17.0	0.00e+00	0	37	0	24410849280	24	18656
2026-01-05 21:35:51.08	113.17	8.55	-25.3	-25.8	17.0	1.63e-05	0	37	0	24788336640	24	18876
2026-01-05 21:35:53.82	113.74	8.41	-25.5	-25.9	17.0	5.40e-06	0	37	0	25090326528	24	19142
2026-01-05 21:35:57.14	114.42	8.25	-25.3	-25.8	17.0	2.17e-05	0	37	0	25467813888	24	18880
2026-01-05 21:35:59.88	114.98	8.11	-25.6	-26.1	17.0	1.63e-05	0	37	0	25769803776	26	17405
2026-01-05 21:36:03.19	115.64	7.94	-25.4	-25.8	17.0	1.08e-05	0	37	0	26147291136	26	16878
2026-01-05 21:36:05.93	116.18	7.80	-25.4	-25.8	17.0	1.08e-05	0	37	0	26457669632	26	16917
2026-01-05 21:36:09.25	116.83	7.63	-25.5	-25.9	17.0	1.63e-05	0	37	0	26826768384	26	17163
2026-01-05 21:36:11.99	117.36	7.49	-25.5	-26.0	17.0	5.40e-06	0	37	0	27137146880	26	17224
2026-01-05 21:36:15.31	117.99	7.32	-25.8	-26.2	16.9	1.08e-05	0	37	0	27514634240	26	17703
2026-01-05 21:36:18.04	118.50	7.18	-25.7	-26.1	17.0	5.40e-06	0	37	0	27816624128	26	17488
2026-01-05 21:36:21.36	119.12	7.00	-25.7	-26.2	16.9	0.00e+00	0	37	0	28194111488	26	17615
2026-01-05 21:36:24.10	119.62	6.86	-25.9	-26.3	17.0	3.26e-05	0	37	0	28504489984	26	17874
2026-01-05 21:36:27.41	120.22	6.68	-25.9	-26.3	16.8	1.63e-05	0	37	0	28873588736	26	17929
2026-01-05 21:36:30.15	120.71	6.54	-26.2	-26.6	16.7	1.08e-05	0	37	0	29183967232	26	18519
2026-01-05 21:36:33.47	121.29	6.36	-26.1	-26.6	16.8	3.26e-05	0	37	0	29553065984	26	18515
2026-01-05 21:36:36.21	121.77	6.22	-25.9	-26.4	16.9	1.08e-05	0	37	0	29863444480	26	18073
2026-01-05 21:36:39.52	122.33	6.04	-26.2	-26.7	16.9	2.72e-05	0	37	0	30232543232	26	18798
2026-01-05 21:36:42.26	122.80	5.89	-26.3	-26.8	16.9	2.72e-05	0	37	0	30542921728	26	18935
2026-01-05 21:36:45.58	123.35	5.72	-26.0	-26.5	17.0	1.63e-05	0	37	0	30920409088	26	18348
2026-01-05 21:36:48.33	123.80	5.57	-47.7	-50.1	6.1	5.40e-06	0	37	104	31029460992	60	39315
2026-01-05 21:36:51.64	124.34	5.39	-47.6	-50.1	6.1	5.40e-06	0	37	104	31029460992	60	39188
2026-01-05 21:36:54.38	124.78	5.24	-47.7	-50.2	6.1	5.40e-06	0	37	104	31029460992	60	39752
2026-01-05 21:36:57.69	125.30	5.06	-47.6	-50.1	6.1	5.40e-06	0	37	104	31029460992	60	39080
2026-01-05 21:37:00.43	125.73	4.92	-47.6	-50.1	6.1	0.00e+00	0	36	104	31029460992	60	39247
2026-01-05 21:37:03.75	126.24	4.74	-47.6	-50.1	6.1	0.00e+00	0	37	104	31029460992	60	39294
2026-01-05 21:37:06.49	126.65	4.59	-47.6	-50.1	6.1	0.00e+00	0	37	104	31029460992	60	39154
2026-01-05 21:37:09.81	127.15	4.41	-47.5	-50.0	6.1	0.00e+00	0	37	104	31029460992	60	38719
2026-01-05 21:37:12.54	127.55	4.27	-47.5	-50.0	6.1	0.00e+00	0	37	104	31029460992	60	38684
2026-01-05 21:37:15.86	128.03	4.09	-47.5	-50.0	6.1	0.00e+00	0	37	104	31029460992	60	38579
2026-01-05 21:37:18.60	128.43	3.94	-47.5	-50.0	6.1	0.00e+00	0	37	104	31029460992	60	38717
2026-01-05 21:37:21.92	128.90	3.76	-47.4	-49.9	6.0	0.00e+00	0	37	104	31029460992	60	38202
2026-01-05 21:37:24.65	129.28	3.62	-47.3	-49.8	6.0	0.00e+00	0	37	104	31029460992	60	37706
2026-01-05 21:37:27.97	129.73	3.44	-47.3	-49.8	6.1	0.00e+00	0	37	104	31029460992	60	37649
2026-01-05 21:37:30.71	130.11	3.29	-47.3	-49.8	6.1	0.00e+00	0	37	104	31029460992	60	37842
2026-01-05 21:37:34.02	130.55	3.11	-47.3	-49.8	6.1	0.00e+00	0	37	104	31029460992	60	37761
2026-01-05 21:37:36.76	130.91	2.97	-47.3	-49.8	6.1	0.00e+00	0	37	104	31029460992	60	37657
2026-01-05 21:37:40.08	131.35	2.79	-48.4	-50.9	6.1	0.00e+00	0	37	104	31029460992	60	43030
2026-01-05 21:37:42.82	131.70	2.65	-48.4	-51.0	6.1	0.00e+00	0	37	104	31029460992	60	43418
2026-01-05 21:37:46.14	132.12	2.47	-48.7	-51.2	6.1	0.00e+00	0	36	104	31029460992	60	44611
2026-01-05 21:37:48.88	132.47	2.33	-48.7	-51.2	6.1	0.00e+00	0	37	104	31029460992	60	44640
2026-01-05 21:37:52.19	132.88	2.15	-48.7	-51.1	6.1	0.00e+00	0	37	104	31029460992	60	44103
2026-01-05 21:37:54.93	133.21	2.01	-48.7	-51.2	6.1	0.00e+00	0	36	104	31029460992	60	44367
2026-01-05 21:37:58.25	133.61	1.83	-48.7	-51.2	6.1	0.00e+00	0	36	104	31029460992	60	44303
2026-01-05 21:38:00.99	133.94	1.69	-48.7	-51.2	6.1	0.00e+00	0	36	104	31029460992	60	44517
2026-01-05 21:38:04.31	134.33	1.52	-48.7	-51.2	6.1	0.00e+00	0	37	104	31029460992	60	44370
2026-01-05 21:38:07.05	134.64	1.37	-48.7	-51.2	6.1	0.00e+00	0	37	104	31029460992	60	44305
2026-01-05 21:38:10.36	135.02	1.20	-48.7	-51.2	6.1	0.00e+00	0	36	104	31029460992	60	44443
2026-01-05 21:38:13.11	135.33	1.06	-48.7	-51.2	6.1	0.00e+00	0	36	104	31029460992	60	44221
2026-01-05 21:38:16.42	135.70	0.89	-48.7	-51.2	6.1	0.00e+00	0	36	104	31029460992	60	44309
2026-01-05 21:38:19.16	136.00	0.75	-48.7	-51.2	6.1	0.00e+00	0	36	104	31029460992	60	44402
2026-01-05 21:38:22.48	136.36	0.57	-48.7	-51.1	6.1	0.00e+00	0	36	104	31029460992	60	44151
2026-01-05 21:38:25.22	136.66	0.43	-48.7	-51.2	6.1	0.00e+00	0	36	104	31029460992	60	44301
2026-01-05 21:38:28.54	137.01	0.26	-48.7	-51.2	6.1	0.00e+00	0	36	104	31029460992	60	44446
2026-01-05 21:38:31.28	137.30	0.12	-48.7	-51.2	6.1	0.00e+00	0	36	104	31029460992	60	44569
2026-01-05 21:38:34.59	137.64	-0.04	-48.7	-51.1	6.1	0.00e+00	0	37	104	31029460992	60	44172

#Closed at: 2026-01-05 21:38:34
#Recorded file [31029 MB]: D:/lorett/data/35029_260106_092926.dat