passes_logs/2026/01/05/R4.6S_Anadyr/R4.6S_Anadyr__20260105_175200_SUOMI_NPP_rec.log

#Pass ID: 20260105_175200_SUOMI NPP
#Satellite: SUOMI NPP
#Configuration: NPP
#almurnet v.1.7.20251203
#Start time: 2026-01-05 17:52:03

#Version: 2.2.20231116
#Station: R4.6S_Anadyr
#Location: 177.4865 lon 64.73178 lat
#TLE: 1 37849U 11061A   26004.95404768  .00000136  00000+0  85334-4 0  9991
#TLE: 2 37849  98.7801 307.0898 0002574  80.6707 279.4760 14.19522289735280

#Time	Az	El	Level	Level2	SNR	BER	BlckErr	Temp	State	Recorded	gain1	gain2
2026-01-05 17:52:03.43	34.56	0.16	-48.6	-62.3	3.3	1.54e+00	0	31	0	0	60	47181
2026-01-05 17:52:07.47	34.30	0.37	-48.7	-63.8	3.6	1.51e+00	0	32	104	0	60	56167
2026-01-05 17:52:11.50	34.03	0.58	-48.4	-63.7	3.6	1.51e+00	0	32	104	0	60	55045
2026-01-05 17:52:15.54	33.76	0.79	-47.9	-63.2	3.6	1.51e+00	0	32	104	0	60	52010
2026-01-05 17:52:19.58	33.49	1.00	-47.1	-62.2	3.6	1.51e+00	0	32	104	0	60	46734
2026-01-05 17:52:23.62	33.21	1.22	-47.1	-62.2	3.5	1.51e+00	0	32	104	0	60	46777
2026-01-05 17:52:27.67	32.93	1.43	-47.1	-62.2	3.6	1.51e+00	0	32	104	0	60	46429
2026-01-05 17:52:31.71	32.65	1.65	-47.1	-62.3	3.5	1.51e+00	0	32	104	0	60	46964
2026-01-05 17:52:35.75	32.36	1.87	-47.1	-62.2	3.6	1.51e+00	0	32	104	0	60	46614
2026-01-05 17:52:39.79	32.06	2.08	-47.1	-61.9	3.6	1.51e+00	0	32	104	0	60	44931
2026-01-05 17:52:43.83	31.76	2.30	-47.1	-62.2	3.6	1.51e+00	0	32	104	0	60	46831
2026-01-05 17:52:47.87	31.46	2.52	-47.1	-62.2	3.6	1.51e+00	0	32	104	0	60	46805
2026-01-05 17:52:51.91	31.15	2.74	-47.0	-61.0	3.6	1.51e+00	0	32	104	0	60	40535
2026-01-05 17:52:55.95	30.84	2.96	-46.9	-57.8	4.4	1.50e+00	50	32	104	0	60	28185
2026-01-05 17:52:59.99	30.52	3.19	-47.2	-62.0	3.6	1.51e+00	0	32	104	3145728	60	45494
2026-01-05 17:53:04.03	30.19	3.41	-41.3	-43.1	17.3	9.43e-01	0	32	104	5242880	56	6484
2026-01-05 17:53:08.07	29.87	3.63	-41.5	-43.3	18.2	0.00e+00	0	32	0	11534336	56	6681
2026-01-05 17:53:12.11	29.53	3.86	-41.7	-43.6	17.8	0.00e+00	40	32	0	18874368	56	6852
2026-01-05 17:53:16.15	29.19	4.09	-41.3	-42.9	18.6	0.00e+00	0	32	0	26214400	56	6375
2026-01-05 17:53:20.18	28.85	4.31	-40.9	-42.5	18.9	0.00e+00	0	32	0	34603008	56	6044
2026-01-05 17:53:24.22	28.50	4.54	-41.2	-42.9	18.6	0.00e+00	0	33	0	41943040	56	6321
2026-01-05 17:53:28.26	28.14	4.77	-40.7	-42.2	19.2	0.00e+00	79	32	0	49283072	54	6615
2026-01-05 17:53:32.29	27.78	5.00	-40.5	-42.0	19.5	0.00e+00	0	32	0	56623104	54	6413
2026-01-05 17:53:36.33	27.41	5.23	-40.4	-41.9	19.6	0.00e+00	0	32	0	63963136	54	6319
2026-01-05 17:53:40.37	27.04	5.46	-40.1	-41.4	19.9	0.00e+00	0	32	0	72351744	54	6018
2026-01-05 17:53:44.40	26.66	5.69	-40.1	-41.4	20.0	0.00e+00	92	32	0	79691776	54	5983
2026-01-05 17:53:48.44	26.27	5.93	-40.1	-41.5	20.1	0.00e+00	0	33	0	87031808	54	6043
2026-01-05 17:53:52.48	25.88	6.16	-40.5	-41.9	19.6	0.00e+00	0	33	0	94371840	54	6378
2026-01-05 17:53:56.52	25.48	6.40	-40.6	-42.0	19.5	0.00e+00	37	33	0	102760448	54	6451
2026-01-05 17:54:00.56	25.07	6.63	-40.9	-42.4	19.2	0.00e+00	0	33	0	110100480	54	6710
2026-01-05 17:54:04.60	24.66	6.87	-40.7	-42.2	19.6	0.00e+00	0	33	0	117440512	54	6564
2026-01-05 17:54:08.64	24.23	7.10	-40.3	-41.6	20.1	0.00e+00	0	33	0	124780544	54	6149
2026-01-05 17:54:12.67	23.81	7.34	-40.2	-41.5	20.1	0.00e+00	23	33	0	132120576	54	6103
2026-01-05 17:54:16.71	23.37	7.58	-40.3	-41.6	19.9	0.00e+00	0	33	0	140509184	54	6125
2026-01-05 17:54:20.75	22.93	7.82	-40.2	-41.5	20.2	0.00e+00	0	32	0	147849216	54	6048
2026-01-05 17:54:24.79	22.48	8.06	-40.6	-42.0	19.8	0.00e+00	0	33	0	155189248	54	6429
2026-01-05 17:54:28.82	22.02	8.30	-40.6	-42.0	19.8	0.00e+00	44	33	0	162529280	54	6447
2026-01-05 17:54:32.86	21.56	8.54	-40.5	-41.9	19.9	0.00e+00	0	33	0	170917888	54	6372
2026-01-05 17:54:36.90	21.08	8.78	-40.5	-41.9	20.0	0.00e+00	0	33	0	178257920	54	6323
2026-01-05 17:54:40.94	20.60	9.02	-39.8	-41.0	20.7	0.00e+00	0	33	0	185597952	54	5737
2026-01-05 17:54:44.98	20.11	9.27	-40.1	-41.4	20.4	0.00e+00	86	33	0	192937984	52	6704
2026-01-05 17:54:49.01	19.61	9.51	-39.5	-40.7	21.1	0.00e+00	0	32	0	200278016	52	6231
2026-01-05 17:54:53.05	19.11	9.75	-39.6	-40.8	21.0	0.00e+00	0	33	0	208666624	52	6303
2026-01-05 17:54:57.09	18.59	9.99	-40.0	-41.3	20.6	0.00e+00	76	33	0	216006656	52	6634
2026-01-05 17:55:01.13	18.07	10.23	-39.9	-41.2	20.7	0.00e+00	0	33	0	223346688	52	6542
2026-01-05 17:55:05.17	17.53	10.48	-39.7	-40.9	20.9	0.00e+00	0	33	0	230686720	52	6377
2026-01-05 17:55:09.20	16.99	10.72	-39.4	-40.6	20.7	0.00e+00	0	33	0	239075328	52	6115
2026-01-05 17:55:13.24	16.44	10.96	-39.2	-40.3	21.5	0.00e+00	91	33	0	246415360	52	5960
2026-01-05 17:55:17.27	15.88	11.20	-39.3	-40.4	21.4	0.00e+00	0	33	0	253755392	52	5998
2026-01-05 17:55:21.31	15.31	11.45	-39.2	-40.3	21.5	0.00e+00	0	33	0	261095424	52	5939
2026-01-05 17:55:25.35	14.73	11.69	-39.4	-40.6	21.1	0.00e+00	0	33	0	268435456	52	6135
2026-01-05 17:55:29.39	14.14	11.93	-39.3	-40.4	21.4	0.00e+00	92	33	0	276824064	52	6015
2026-01-05 17:55:33.42	13.54	12.17	-39.3	-40.4	21.4	0.00e+00	0	33	0	284164096	52	5993
2026-01-05 17:55:37.46	12.93	12.41	-39.9	-41.1	20.8	0.00e+00	0	33	0	291504128	52	6473
2026-01-05 17:55:41.50	12.31	12.64	-39.5	-40.6	21.2	0.00e+00	43	33	0	298844160	52	6145
2026-01-05 17:55:45.54	11.68	12.88	-39.9	-41.2	20.7	0.00e+00	59	33	0	306184192	52	6552
2026-01-05 17:55:49.58	11.03	13.12	-39.2	-40.3	21.5	0.00e+00	0	33	0	314572800	52	5928
2026-01-05 17:55:53.62	10.38	13.35	-39.6	-40.8	21.1	0.00e+00	0	33	0	321912832	52	6299
2026-01-05 17:55:57.66	9.72	13.59	-39.2	-40.3	21.4	0.00e+00	92	33	0	329252864	52	5963
2026-01-05 17:56:01.69	9.05	13.82	-39.7	-40.9	21.0	0.00e+00	0	33	0	336592896	52	6369
2026-01-05 17:56:05.73	8.36	14.05	-39.7	-40.9	20.9	0.00e+00	0	33	0	344981504	52	6341
2026-01-05 17:56:09.76	7.67	14.27	-38.9	-40.0	21.8	0.00e+00	0	33	0	352321536	52	5714
2026-01-05 17:56:13.80	6.97	14.50	-38.4	-39.4	22.4	0.00e+00	49	33	0	359661568	50	6024
2026-01-05 17:56:17.84	6.25	14.72	-37.8	-38.8	22.7	0.00e+00	0	33	0	367001600	48	6308
2026-01-05 17:56:21.88	5.52	14.94	-38.1	-39.1	22.5	0.00e+00	0	33	0	374341632	48	6500
2026-01-05 17:56:25.91	4.78	15.16	-37.5	-38.5	23.1	0.00e+00	0	33	0	382730240	48	6043
2026-01-05 17:56:29.95	4.03	15.38	-37.7	-38.7	22.9	0.00e+00	86	33	0	390070272	48	6194
2026-01-05 17:56:33.99	3.27	15.59	-37.9	-39.0	22.7	0.00e+00	0	33	0	397410304	48	6392
2026-01-05 17:56:38.03	2.50	15.79	-38.4	-39.5	22.2	0.00e+00	0	33	0	404750336	48	6799
2026-01-05 17:56:42.07	1.72	16.00	-37.0	-37.9	23.6	0.00e+00	4	33	0	413138944	48	5672
2026-01-05 17:56:46.11	0.93	16.20	-36.9	-37.7	23.8	0.00e+00	0	33	0	420478976	46	6227
2026-01-05 17:56:50.15	0.12	16.40	-37.0	-37.8	23.5	0.00e+00	0	33	0	427819008	46	6315
2026-01-05 17:56:54.18	359.31	16.59	-37.4	-38.4	23.3	0.00e+00	0	33	0	435159040	46	6704
2026-01-05 17:56:58.22	358.49	16.78	-37.1	-38.0	23.5	0.00e+00	89	33	0	442499072	46	6445
2026-01-05 17:57:02.26	357.65	16.96	-37.1	-38.0	23.5	0.00e+00	0	33	0	450887680	46	6440
2026-01-05 17:57:06.30	356.80	17.14	-36.3	-37.1	24.2	0.00e+00	0	33	0	458227712	46	5819
2026-01-05 17:57:10.33	355.95	17.31	-36.4	-37.3	24.1	0.00e+00	0	33	0	465567744	46	5920
2026-01-05 17:57:14.37	355.09	17.48	-36.4	-37.3	23.9	0.00e+00	39	33	0	472907776	46	5905
2026-01-05 17:57:18.41	354.21	17.64	-37.4	-38.4	23.2	0.00e+00	0	33	0	481296384	46	6727
2026-01-05 17:57:22.44	353.33	17.80	-37.1	-38.0	23.5	0.00e+00	0	33	0	488636416	46	6419
2026-01-05 17:57:26.47	352.44	17.95	-36.9	-37.8	23.7	0.00e+00	31	33	0	495976448	46	6284
2026-01-05 17:57:30.51	351.53	18.09	-36.3	-37.1	24.2	0.00e+00	0	33	0	503316480	46	5790
2026-01-05 17:57:34.55	350.62	18.23	-36.3	-37.1	24.2	0.00e+00	0	33	0	510656512	46	5787
2026-01-05 17:57:38.58	349.71	18.36	-35.7	-36.5	24.7	0.00e+00	0	33	0	519045120	44	6072
2026-01-05 17:57:42.62	348.78	18.48	-36.7	-37.6	23.8	0.00e+00	32	33	0	526385152	46	6136
2026-01-05 17:57:46.66	347.85	18.59	-37.0	-37.8	23.7	0.00e+00	0	33	0	533725184	46	6310
2026-01-05 17:57:50.69	346.91	18.70	-37.6	-38.5	22.9	0.00e+00	0	33	0	541065216	46	6842
2026-01-05 17:57:54.73	345.96	18.80	-37.7	-38.7	23.2	0.00e+00	0	33	0	548405248	48	6174
2026-01-05 17:57:58.76	345.01	18.89	-37.5	-38.4	23.1	0.00e+00	82	33	0	556793856	48	6028
2026-01-05 17:58:02.80	344.05	18.98	-36.9	-37.7	23.7	0.00e+00	0	33	0	564133888	46	6220
2026-01-05 17:58:06.84	343.08	19.06	-37.8	-38.8	22.9	0.00e+00	0	33	0	571473920	48	6249
2026-01-05 17:58:10.88	342.11	19.12	-37.9	-38.8	23.0	0.00e+00	9	33	0	578813952	48	6309
2026-01-05 17:58:14.91	341.14	19.18	-39.2	-40.4	21.6	0.00e+00	92	33	0	587202560	50	6739
2026-01-05 17:58:18.95	340.16	19.24	-39.1	-40.2	21.7	0.00e+00	0	33	0	594542592	52	5870
2026-01-05 17:58:22.98	339.19	19.28	-37.7	-38.7	23.0	0.00e+00	0	33	0	601882624	48	6180
2026-01-05 17:58:27.02	338.20	19.31	-38.2	-39.2	22.6	0.00e+00	45	33	0	609222656	48	6587
2026-01-05 17:58:31.06	337.22	19.34	-37.5	-38.4	23.2	0.00e+00	0	33	0	616562688	48	6015
2026-01-05 17:58:35.10	336.23	19.35	-37.5	-38.5	23.2	0.00e+00	0	33	0	624951296	48	6041
2026-01-05 17:58:39.13	335.25	19.36	-37.8	-38.8	22.9	0.00e+00	0	33	0	632291328	48	6281
2026-01-05 17:58:43.17	334.26	19.36	-37.4	-38.3	23.1	0.00e+00	92	33	0	639631360	48	5931
2026-01-05 17:58:47.20	333.28	19.35	-37.5	-38.4	23.2	0.00e+00	0	33	0	646971392	48	5990
2026-01-05 17:58:51.24	332.29	19.33	-38.1	-39.1	22.7	0.00e+00	0	33	0	655360000	48	6467
2026-01-05 17:58:55.28	331.31	19.30	-38.8	-39.9	21.6	0.00e+00	0	33	0	662700032	50	6371
2026-01-05 17:58:59.32	330.32	19.27	-38.0	-39.0	22.8	0.00e+00	82	33	0	670040064	50	5711
2026-01-05 17:59:03.35	329.35	19.22	-36.7	-37.5	23.9	0.00e+00	0	33	0	677380096	46	6085
2026-01-05 17:59:07.39	328.37	19.17	-36.6	-37.4	24.0	0.00e+00	0	33	0	684720128	46	6016
2026-01-05 17:59:11.43	327.40	19.10	-36.2	-37.0	24.2	0.00e+00	0	33	0	693108736	46	5714
2026-01-05 17:59:15.47	326.43	19.03	-36.6	-37.4	24.0	0.00e+00	0	33	0	700448768	46	6028
2026-01-05 17:59:19.51	325.47	18.95	-36.0	-36.8	24.4	0.00e+00	0	33	0	707788800	46	5603
2026-01-05 17:59:23.55	324.51	18.87	-36.1	-36.9	24.4	0.00e+00	0	33	0	715128832	46	5681
2026-01-05 17:59:27.59	323.55	18.77	-36.5	-37.3	23.9	0.00e+00	32	33	0	722468864	46	5936
2026-01-05 17:59:31.62	322.61	18.67	-36.9	-37.8	23.7	0.00e+00	0	33	0	730857472	46	6256
2026-01-05 17:59:35.66	321.67	18.56	-36.6	-37.5	24.0	0.00e+00	0	33	0	738197504	46	6060
2026-01-05 17:59:39.70	320.74	18.44	-37.7	-38.7	23.0	0.00e+00	0	33	0	745537536	48	6217
2026-01-05 17:59:43.73	319.81	18.31	-38.5	-39.5	22.4	0.00e+00	91	33	0	752877568	48	6848
2026-01-05 17:59:47.77	318.90	18.18	-38.3	-39.3	22.6	0.00e+00	0	33	0	761266176	48	6616
2026-01-05 17:59:51.81	317.99	18.04	-38.4	-39.4	22.5	0.00e+00	0	33	0	768606208	48	6716
2026-01-05 17:59:55.84	317.09	17.90	-39.0	-40.1	22.0	0.00e+00	0	33	0	775946240	50	6509
2026-01-05 17:59:59.88	316.20	17.75	-39.2	-40.3	21.8	0.00e+00	90	33	0	783286272	50	6628
2026-01-05 18:00:03.92	315.31	17.59	-38.2	-39.1	22.7	0.00e+00	0	33	0	790626304	50	5812
2026-01-05 18:00:07.95	314.44	17.42	-38.1	-39.1	22.9	0.00e+00	0	33	0	799014912	50	5793
2026-01-05 18:00:11.99	313.58	17.25	-37.5	-38.4	23.3	0.00e+00	35	33	0	806354944	48	5967
2026-01-05 18:00:16.03	312.73	17.08	-36.9	-37.7	23.6	0.00e+00	0	33	0	813694976	46	6215
2026-01-05 18:00:20.07	311.88	16.90	-36.9	-37.8	23.7	0.00e+00	0	33	0	821035008	46	6247
2026-01-05 18:00:24.10	311.05	16.72	-37.2	-38.0	23.5	0.00e+00	0	33	0	829423616	46	6457
2026-01-05 18:00:28.14	310.23	16.53	-39.2	-40.3	21.7	0.00e+00	54	33	0	836763648	50	6643
2026-01-05 18:00:32.18	309.42	16.33	-38.6	-39.6	22.4	0.00e+00	0	33	0	844103680	50	6155
2026-01-05 18:00:36.22	308.61	16.13	-38.8	-39.8	22.1	0.00e+00	0	33	0	851443712	50	6307
2026-01-05 18:00:40.25	307.83	15.93	-39.1	-40.1	21.9	0.00e+00	0	33	0	858783744	50	6520
2026-01-05 18:00:44.30	307.04	15.72	-38.2	-39.1	22.7	0.00e+00	92	33	0	867172352	50	5818
2026-01-05 18:00:48.33	306.28	15.52	-37.7	-38.6	23.1	0.00e+00	0	33	0	874512384	48	6131
2026-01-05 18:00:52.37	305.52	15.30	-38.2	-39.2	22.6	0.00e+00	0	33	0	881852416	48	6577
2026-01-05 18:00:56.41	304.77	15.09	-38.4	-39.5	22.5	0.00e+00	13	33	0	889192448	48	6774
2026-01-05 18:01:00.45	304.03	14.87	-37.6	-38.5	23.2	0.00e+00	0	33	0	897581056	48	6076
2026-01-05 18:01:04.48	303.31	14.65	-38.3	-39.2	22.4	7.00e-07	0	33	0	904921088	48	6592
2026-01-05 18:01:08.52	302.59	14.42	-40.0	-41.2	20.9	0.00e+00	0	33	0	912261120	52	6563
2026-01-05 18:01:12.55	301.89	14.20	-40.3	-41.6	20.6	0.00e+00	92	33	0	919601152	52	6914
2026-01-05 18:01:16.59	301.20	13.97	-39.6	-40.8	21.3	0.00e+00	0	33	0	926941184	52	6266
2026-01-05 18:01:20.63	300.52	13.74	-39.2	-40.3	21.6	0.00e+00	0	33	0	935329792	52	5960
2026-01-05 18:01:24.66	299.85	13.50	-38.9	-39.9	22.0	0.00e+00	0	33	0	942669824	50	6378
2026-01-05 18:01:28.69	299.19	13.27	-39.8	-41.0	21.2	0.00e+00	33	33	0	950009856	52	6420
2026-01-05 18:01:32.73	298.54	13.04	-39.1	-40.2	21.8	0.00e+00	0	33	0	957349888	52	5861
2026-01-05 18:01:36.77	297.90	12.80	-38.5	-39.5	22.3	0.00e+00	0	33	0	965738496	50	6067
2026-01-05 18:01:40.80	297.27	12.56	-38.9	-39.9	21.9	0.00e+00	0	33	0	973078528	50	6372
2026-01-05 18:01:44.84	296.65	12.32	-39.2	-40.3	21.8	0.00e+00	90	33	0	980418560	50	6625
2026-01-05 18:01:48.88	296.04	12.08	-39.0	-40.1	21.7	0.00e+00	0	33	0	987758592	50	6511
2026-01-05 18:01:52.91	295.44	11.84	-38.8	-39.8	22.0	0.00e+00	0	33	0	995098624	50	6297
2026-01-05 18:01:56.95	294.86	11.60	-37.8	-38.8	22.8	0.00e+00	32	33	0	1003487232	50	5582
2026-01-05 18:02:00.99	294.28	11.36	-37.0	-37.8	23.6	0.00e+00	12	33	0	1010827264	48	5616
2026-01-05 18:02:05.02	293.71	11.12	-37.0	-37.9	23.6	0.00e+00	0	33	0	1018167296	46	6333
2026-01-05 18:02:09.06	293.15	10.87	-37.7	-38.6	22.9	0.00e+00	0	33	0	1025507328	46	6902
2026-01-05 18:02:13.10	292.60	10.63	-37.6	-38.5	23.0	0.00e+00	91	33	0	1033895936	48	6085
2026-01-05 18:02:17.14	292.06	10.39	-37.2	-38.1	23.3	0.00e+00	26	33	0	1041235968	48	5777
2026-01-05 18:02:21.18	291.52	10.15	-37.3	-38.2	23.2	0.00e+00	0	33	0	1048576000	48	5867
2026-01-05 18:02:25.21	291.00	9.90	-37.4	-38.3	23.0	0.00e+00	0	33	0	1055916032	48	5948
2026-01-05 18:02:29.25	290.49	9.66	-37.8	-38.8	22.7	0.00e+00	92	33	0	1063256064	48	6258
2026-01-05 18:02:33.29	289.98	9.42	-38.5	-39.5	22.0	0.00e+00	0	33	0	1071644672	48	6830
2026-01-05 18:02:37.32	289.48	9.18	-38.6	-39.7	21.6	0.00e+00	0	33	0	1078984704	50	6203
2026-01-05 18:02:41.35	289.00	8.93	-38.4	-39.4	22.2	0.00e+00	31	33	0	1086324736	50	5986
2026-01-05 18:02:45.39	288.51	8.69	-37.6	-38.6	22.9	0.00e+00	92	33	0	1093664768	48	6108
2026-01-05 18:02:49.43	288.04	8.45	-38.0	-39.0	22.4	0.00e+00	0	33	0	1101004800	48	6452
2026-01-05 18:02:53.46	287.58	8.21	-39.0	-40.1	21.5	0.00e+00	0	33	0	1109393408	50	6518
2026-01-05 18:02:57.49	287.12	7.97	-38.9	-40.0	21.7	0.00e+00	20	33	0	1116733440	50	6392
2026-01-05 18:03:01.53	286.67	7.73	-38.4	-39.5	22.0	0.00e+00	0	33	0	1124073472	50	6043
2026-01-05 18:03:05.57	286.23	7.49	-38.4	-39.5	21.9	0.00e+00	0	33	0	1131413504	50	6060
2026-01-05 18:03:09.61	285.80	7.25	-38.9	-40.0	21.5	0.00e+00	0	33	0	1139802112	50	6401
2026-01-05 18:03:13.65	285.37	7.01	-39.3	-40.4	21.2	0.00e+00	70	33	0	1147142144	50	6757
2026-01-05 18:03:17.68	284.95	6.78	-39.8	-41.0	20.7	0.00e+00	0	33	0	1154482176	52	6428
2026-01-05 18:03:21.72	284.54	6.54	-39.8	-41.0	20.7	0.00e+00	0	33	0	1161822208	52	6421
2026-01-05 18:03:25.75	284.13	6.31	-39.3	-40.4	21.1	0.00e+00	0	33	0	1169162240	52	6008
2026-01-05 18:03:29.79	283.73	6.07	-39.7	-40.9	20.6	0.00e+00	92	33	0	1177550848	52	6368
2026-01-05 18:03:33.83	283.34	5.84	-40.4	-41.7	19.9	0.00e+00	0	33	0	1184890880	52	6989
2026-01-05 18:03:37.86	282.95	5.60	-41.1	-42.6	19.0	0.00e+00	0	33	0	1192230912	54	6904
2026-01-05 18:03:41.90	282.57	5.37	-40.8	-42.3	19.3	0.00e+00	44	33	0	1199570944	54	6643
2026-01-05 18:03:45.93	282.20	5.14	-40.6	-42.0	19.5	0.00e+00	90	33	0	1206910976	54	6453
2026-01-05 18:03:49.97	281.83	4.91	-40.0	-41.3	20.1	0.00e+00	0	33	0	1215299584	52	6640
2026-01-05 18:03:54.01	281.47	4.68	-39.9	-41.2	20.2	0.00e+00	0	33	0	1222639616	52	6588
2026-01-05 18:03:58.05	281.11	4.45	-40.0	-41.3	20.0	0.00e+00	0	33	0	1229979648	52	6672
2026-01-05 18:04:02.08	280.76	4.22	-40.1	-41.4	20.0	0.00e+00	0	33	0	1237319680	52	6714
2026-01-05 18:04:06.12	280.41	4.00	-40.3	-41.7	19.7	0.00e+00	0	33	0	1245708288	52	6935
2026-01-05 18:04:10.16	280.08	3.77	-40.0	-41.4	19.9	0.00e+00	0	33	0	1253048320	52	6699
2026-01-05 18:04:14.20	279.74	3.54	-40.0	-41.4	19.8	0.00e+00	92	33	0	1260388352	52	6728
2026-01-05 18:04:18.24	279.41	3.32	-40.4	-41.9	19.3	0.00e+00	0	33	0	1267728384	52	7106
2026-01-05 18:04:22.28	279.09	3.10	-40.6	-42.1	19.1	0.00e+00	0	33	0	1275068416	52	7324
2026-01-05 18:04:26.32	278.77	2.87	-48.4	-63.6	3.6	1.51e+00	0	33	104	1279262720	60	54559
2026-01-05 18:04:30.36	278.46	2.65	-48.7	-63.9	3.6	1.51e+00	0	33	104	1279262720	60	56516
2026-01-05 18:04:34.40	278.15	2.43	-48.6	-63.9	3.6	1.51e+00	0	33	104	1279262720	60	56584
2026-01-05 18:04:38.44	277.84	2.21	-48.6	-63.8	3.6	1.51e+00	0	33	104	1279262720	60	55793
2026-01-05 18:04:42.48	277.54	1.99	-48.6	-63.8	3.6	1.51e+00	0	33	104	1279262720	60	55862
2026-01-05 18:04:46.52	277.25	1.78	-48.6	-63.8	3.6	1.51e+00	0	33	104	1279262720	60	56071
2026-01-05 18:04:50.55	276.96	1.56	-48.6	-63.8	3.6	1.51e+00	0	33	104	1279262720	60	56097
2026-01-05 18:04:54.59	276.67	1.34	-48.6	-63.8	3.5	1.51e+00	0	33	104	1279262720	60	55857
2026-01-05 18:04:58.63	276.39	1.13	-48.6	-63.7	3.6	1.51e+00	0	33	104	1279262720	60	55573
2026-01-05 18:05:02.67	276.11	0.92	-48.6	-63.8	3.6	1.51e+00	0	33	104	1279262720	60	55930
2026-01-05 18:05:06.71	275.84	0.70	-48.6	-63.8	3.6	1.51e+00	0	33	104	1279262720	60	55812
2026-01-05 18:05:10.76	275.57	0.49	-48.6	-63.8	3.6	1.51e+00	0	34	104	1279262720	60	55813
2026-01-05 18:05:14.80	275.30	0.28	-48.6	-63.8	3.6	1.51e+00	0	33	104	1279262720	60	55679
2026-01-05 18:05:18.83	275.04	0.07	-48.6	-63.8	3.6	1.51e+00	0	34	104	1279262720	60	55889
2026-01-05 18:05:22.87	274.78	-0.14	-48.6	-63.8	3.6	1.51e+00	0	33	104	1279262720	60	55672

#Closed at: 2026-01-05 18:05:23
#Recorded file [1279 MB]: D:/lorett/data/35029_260106_055203.dat