passes_logs/2026/01/05/R4.6S_Anadyr/R4.6S_Anadyr__20260105_001616_NOAA_21_JPSS-2_rec.log

#Pass ID: 20260105_001616_NOAA 21 (JPSS-2)
#Satellite: NOAA 21 (JPSS-2)
#Configuration: NOAA-21
#almurnet v.1.7.20251203
#Start time: 2026-01-05 00:16:17

#Version: 2.2.20231116
#Station: R4.6S_Anadyr
#Location: 177.4865 lon 64.73178 lat
#TLE: 1 54234U 22150A   26003.45311712  .00000198  00000+0  11468-3 0  9993
#TLE: 2 54234  98.7487 304.4932 0001159 347.5017  12.6130 14.19531745163172

#Time	Az	El	Level	Level2	SNR	BER	BlckErr	Temp	State	Recorded	gain1	gain2
2026-01-05 00:16:17.72	157.65	0.09	-49.1	-63.9	3.5	1.51e+00	0	28	0	0	60	56850
2026-01-05 00:16:21.76	157.67	0.33	-50.1	-62.9	3.5	1.52e+00	0	30	104	0	60	49099
2026-01-05 00:16:25.79	157.69	0.58	-49.1	-62.0	3.5	1.52e+00	0	30	104	0	60	43996
2026-01-05 00:16:29.83	157.71	0.82	-48.6	-61.4	3.5	1.52e+00	0	30	104	0	60	41419
2026-01-05 00:16:33.87	157.74	1.07	-47.4	-60.2	3.5	1.51e+00	0	30	104	0	60	35985
2026-01-05 00:16:37.91	157.76	1.33	-47.4	-60.2	3.5	1.52e+00	0	30	104	0	60	35831
2026-01-05 00:16:41.95	157.78	1.58	-47.3	-60.0	3.5	1.52e+00	0	30	104	0	60	35045
2026-01-05 00:16:45.98	157.80	1.84	-47.2	-59.9	3.5	1.52e+00	0	30	104	0	60	34636
2026-01-05 00:16:50.02	157.82	2.10	-47.2	-59.7	3.5	1.52e+00	0	30	104	0	60	33894
2026-01-05 00:16:54.06	157.85	2.36	-47.4	-59.7	3.5	1.52e+00	0	30	104	0	60	33820
2026-01-05 00:16:58.10	157.87	2.62	-47.3	-59.2	3.5	1.51e+00	0	30	104	0	60	31909
2026-01-05 00:17:02.14	157.89	2.89	-47.2	-58.1	3.5	1.51e+00	0	30	104	0	60	28212
2026-01-05 00:17:06.17	157.91	3.16	-44.5	-48.0	11.0	6.40e-03	120	30	0	6291456	60	8816
2026-01-05 00:17:10.21	157.94	3.43	-40.8	-42.5	16.4	0.00e+00	122	30	0	18874368	54	6623
2026-01-05 00:17:14.25	157.96	3.70	-40.5	-42.2	17.1	0.00e+00	123	30	0	31457280	52	7134
2026-01-05 00:17:18.29	157.98	3.98	-45.5	-50.8	4.7	1.41e+00	0	30	104	36700160	60	12142
2026-01-05 00:17:22.33	158.01	4.26	-40.0	-41.4	18.3	0.00e+00	122	30	0	42991616	52	6570
2026-01-05 00:17:26.37	158.03	4.55	-39.9	-41.3	18.8	0.00e+00	122	30	0	55574528	52	6492
2026-01-05 00:17:30.41	158.05	4.83	-40.1	-41.6	18.1	0.00e+00	123	30	0	68157440	52	6660
2026-01-05 00:17:34.45	158.08	5.12	-39.5	-40.8	19.4	0.00e+00	123	31	0	80740352	52	6120
2026-01-05 00:17:38.49	158.10	5.41	-38.3	-39.5	20.0	0.00e+00	123	31	0	93323264	50	5875
2026-01-05 00:17:42.53	158.13	5.71	-38.4	-39.6	19.9	0.00e+00	122	31	0	105906176	50	5991
2026-01-05 00:17:46.57	158.15	6.01	-37.8	-39.0	20.5	0.00e+00	122	31	0	118489088	50	5531
2026-01-05 00:17:50.61	158.18	6.31	-37.8	-38.9	20.5	0.00e+00	123	30	0	131072000	48	6193
2026-01-05 00:17:54.65	158.20	6.62	-38.0	-39.2	20.6	0.00e+00	123	30	0	143654912	48	6351
2026-01-05 00:17:58.69	158.23	6.93	-37.4	-38.6	21.0	0.00e+00	123	30	0	156237824	48	5933
2026-01-05 00:18:02.73	158.25	7.24	-36.9	-38.0	21.6	0.00e+00	123	31	0	168820736	46	6254
2026-01-05 00:18:06.77	158.28	7.56	-37.2	-38.3	21.5	0.00e+00	122	31	0	181403648	46	6447
2026-01-05 00:18:10.81	158.31	7.88	-37.0	-38.1	21.7	0.00e+00	123	31	0	193986560	46	6308
2026-01-05 00:18:14.85	158.33	8.21	-37.6	-38.7	21.4	0.00e+00	123	31	0	206569472	48	6003
2026-01-05 00:18:18.89	158.36	8.54	-37.3	-38.4	21.3	0.00e+00	122	31	0	219152384	48	5820
2026-01-05 00:18:22.92	158.39	8.87	-37.0	-38.1	21.7	0.00e+00	120	31	0	231735296	48	5599
2026-01-05 00:18:26.96	158.42	9.21	-36.4	-37.4	22.2	0.00e+00	121	31	0	244318208	46	5856
2026-01-05 00:18:31.00	158.45	9.55	-36.2	-37.2	22.4	0.00e+00	122	31	0	257949696	46	5707
2026-01-05 00:18:35.04	158.47	9.90	-35.9	-36.9	22.6	0.00e+00	123	31	0	270532608	46	5496
2026-01-05 00:18:39.08	158.50	10.25	-35.7	-36.7	22.8	0.00e+00	123	31	0	282066944	44	6051
2026-01-05 00:18:43.12	158.53	10.61	-35.5	-36.5	23.0	0.00e+00	122	31	0	295698432	44	5878
2026-01-05 00:18:47.16	158.56	10.98	-35.3	-36.3	23.2	0.00e+00	123	31	0	308281344	44	5754
2026-01-05 00:18:51.19	158.59	11.35	-35.3	-36.2	23.3	0.00e+00	123	31	0	320864256	44	5703
2026-01-05 00:18:55.24	158.62	11.72	-35.0	-35.9	23.4	0.00e+00	123	31	0	333447168	44	5495
2026-01-05 00:18:59.28	158.65	12.10	-35.1	-36.0	23.4	0.00e+00	123	31	0	346030080	44	5563
2026-01-05 00:19:03.32	158.69	12.49	-35.0	-35.9	23.5	0.00e+00	123	31	0	358612992	44	5505
2026-01-05 00:19:07.36	158.72	12.88	-34.9	-35.9	23.7	0.00e+00	123	31	0	371195904	42	6145
2026-01-05 00:19:11.40	158.75	13.28	-34.9	-35.8	23.8	0.00e+00	122	31	0	383778816	42	6088
2026-01-05 00:19:15.44	158.78	13.69	-35.1	-36.0	23.7	0.00e+00	120	31	0	396361728	42	6250
2026-01-05 00:19:19.48	158.82	14.10	-35.1	-36.0	24.0	0.00e+00	123	31	0	408944640	42	6273
2026-01-05 00:19:23.52	158.85	14.52	-35.0	-35.9	23.7	0.00e+00	122	31	0	421527552	42	6161
2026-01-05 00:19:27.56	158.89	14.95	-34.6	-35.5	24.1	0.00e+00	123	31	0	434110464	42	5887
2026-01-05 00:19:31.60	158.92	15.38	-35.3	-36.2	24.1	0.00e+00	123	31	0	446693376	42	6355
2026-01-05 00:19:35.64	158.96	15.83	-35.2	-36.1	23.9	0.00e+00	123	31	0	459276288	42	6316
2026-01-05 00:19:39.68	159.00	16.28	-34.7	-35.6	24.1	0.00e+00	123	31	0	471859200	42	5960
2026-01-05 00:19:43.72	159.03	16.74	-34.9	-35.8	24.0	0.00e+00	123	31	0	484442112	42	6106
2026-01-05 00:19:47.76	159.07	17.21	-35.0	-36.0	23.7	0.00e+00	123	31	0	497025024	42	6226
2026-01-05 00:19:51.80	159.11	17.69	-35.6	-36.6	23.6	0.00e+00	122	31	0	509607936	42	6656
2026-01-05 00:19:55.84	159.15	18.17	-35.3	-36.2	23.7	0.00e+00	120	31	0	522190848	42	6388
2026-01-05 00:19:59.88	159.19	18.67	-34.9	-35.8	23.7	0.00e+00	122	31	0	534773760	42	6130
2026-01-05 00:20:03.92	159.23	19.18	-35.0	-36.0	23.7	0.00e+00	123	31	0	547356672	42	6218
2026-01-05 00:20:07.96	159.28	19.70	-35.0	-36.0	23.8	0.00e+00	123	31	0	559939584	42	6218
2026-01-05 00:20:12.00	159.32	20.23	-34.9	-35.8	24.0	0.00e+00	123	31	0	573571072	42	6128
2026-01-05 00:20:16.04	159.36	20.77	-34.4	-35.3	24.3	0.00e+00	122	31	0	586153984	42	5765
2026-01-05 00:20:20.08	159.41	21.32	-34.5	-35.4	24.5	0.00e+00	123	31	0	598736896	42	5841
2026-01-05 00:20:24.12	159.46	21.88	-34.1	-34.9	24.8	0.00e+00	122	31	0	611319808	42	5517
2026-01-05 00:20:28.16	159.51	22.46	-33.6	-34.5	24.8	0.00e+00	123	31	0	623902720	40	5897
2026-01-05 00:20:32.20	159.56	23.05	-33.4	-34.3	25.0	0.00e+00	122	31	0	636485632	40	5740
2026-01-05 00:20:36.24	159.61	23.66	-34.3	-35.1	24.6	0.00e+00	123	31	0	649068544	40	6340
2026-01-05 00:20:40.28	159.66	24.28	-33.1	-34.0	25.4	0.00e+00	122	31	0	661651456	40	5558
2026-01-05 00:20:44.32	159.71	24.91	-33.1	-34.0	25.3	0.00e+00	122	31	0	674234368	40	5531
2026-01-05 00:20:48.36	159.77	25.56	-33.6	-34.5	24.9	0.00e+00	123	31	0	686817280	40	5860
2026-01-05 00:20:52.40	159.83	26.23	-34.4	-35.2	24.9	0.00e+00	123	31	0	699400192	40	6422
2026-01-05 00:20:56.44	159.88	26.91	-34.6	-35.4	24.4	0.00e+00	122	31	0	711983104	42	5846
2026-01-05 00:21:00.48	159.95	27.61	-34.9	-35.8	24.2	0.00e+00	122	31	0	724566016	42	6120
2026-01-05 00:21:04.52	160.01	28.33	-34.9	-35.8	24.0	0.00e+00	120	31	0	737148928	42	6085
2026-01-05 00:21:08.56	160.08	29.07	-35.3	-36.2	24.0	0.00e+00	122	31	0	749731840	42	6378
2026-01-05 00:21:12.60	160.14	29.82	-35.2	-36.1	24.2	0.00e+00	123	31	0	762314752	42	6320
2026-01-05 00:21:16.64	160.21	30.60	-34.7	-35.6	24.2	0.00e+00	123	31	0	774897664	42	5946
2026-01-05 00:21:20.68	160.29	31.40	-34.6	-35.4	24.8	0.00e+00	123	31	0	787480576	42	5845
2026-01-05 00:21:24.72	160.36	32.23	-34.2	-35.1	24.8	0.00e+00	120	31	0	800063488	42	5610
2026-01-05 00:21:28.75	160.44	33.07	-34.6	-35.5	24.4	0.00e+00	123	31	0	812646400	42	5867
2026-01-05 00:21:32.79	160.53	33.94	-35.0	-35.9	24.2	0.00e+00	123	31	0	825229312	42	6190
2026-01-05 00:21:36.83	160.61	34.83	-35.5	-36.4	23.6	0.00e+00	123	31	0	837812224	44	5847
2026-01-05 00:21:40.87	160.71	35.75	-36.3	-37.3	23.4	0.00e+00	123	31	0	850395136	44	6424
2026-01-05 00:21:44.90	160.80	36.70	-37.2	-38.2	22.8	0.00e+00	120	31	0	862978048	46	6390
2026-01-05 00:21:48.94	160.90	37.68	-37.5	-38.5	22.5	0.00e+00	123	31	0	875560960	48	5926
2026-01-05 00:21:52.97	161.01	38.68	-36.4	-37.4	23.0	0.00e+00	123	31	0	888143872	46	5824
2026-01-05 00:21:57.01	161.12	39.72	-36.2	-37.1	23.3	0.00e+00	123	31	0	900726784	46	5629
2026-01-05 00:22:01.05	161.24	40.78	-35.7	-36.6	23.6	0.00e+00	122	31	0	914358272	44	5989
2026-01-05 00:22:05.09	161.37	41.88	-36.2	-37.1	23.3	0.00e+00	122	31	0	926941184	44	6310
2026-01-05 00:22:09.13	161.50	43.02	-37.5	-38.6	21.9	0.00e+00	123	31	0	939524096	46	6650
2026-01-05 00:22:13.18	161.64	44.19	-37.4	-38.5	22.1	0.00e+00	123	31	0	952107008	48	5896
2026-01-05 00:22:17.22	161.80	45.39	-37.1	-38.1	22.3	0.00e+00	123	31	0	964689920	48	5652
2026-01-05 00:22:21.26	161.96	46.63	-37.2	-38.2	22.0	0.00e+00	122	31	0	977272832	48	5671
2026-01-05 00:22:25.30	162.13	47.91	-36.5	-37.5	22.7	0.00e+00	123	31	0	989855744	46	5897
2026-01-05 00:22:29.34	162.33	49.23	-36.1	-37.1	23.3	0.00e+00	122	31	0	1002438656	46	5620
2026-01-05 00:22:33.38	162.53	50.59	-35.7	-36.6	23.6	0.00e+00	123	31	0	1015021568	44	5982
2026-01-05 00:22:37.42	162.76	51.99	-35.3	-36.2	24.0	0.00e+00	123	31	0	1027604480	44	5689
2026-01-05 00:22:41.47	163.00	53.43	-35.4	-36.3	23.9	0.00e+00	123	31	0	1040187392	44	5745
2026-01-05 00:22:45.51	163.27	54.91	-35.8	-36.8	23.7	0.00e+00	123	31	0	1052770304	44	6070
2026-01-05 00:22:49.54	163.57	56.43	-34.8	-35.7	23.9	0.00e+00	122	31	0	1065353216	42	6044
2026-01-05 00:22:53.59	163.90	58.00	-34.1	-35.0	24.7	0.00e+00	123	31	0	1077936128	42	5574
2026-01-05 00:22:57.63	164.27	59.61	-34.7	-35.6	24.5	0.00e+00	122	31	0	1090519040	42	5979
2026-01-05 00:23:01.66	164.69	61.25	-33.7	-34.6	25.0	0.00e+00	123	31	0	1103101952	40	5968
2026-01-05 00:23:05.70	165.17	62.94	-33.4	-34.2	25.4	0.00e+00	123	31	0	1115684864	40	5710
2026-01-05 00:23:09.74	165.71	64.67	-33.3	-34.2	25.3	0.00e+00	121	31	0	1128267776	40	5676
2026-01-05 00:23:13.78	166.35	66.44	-33.5	-34.4	25.1	0.00e+00	123	31	0	1140850688	40	5856
2026-01-05 00:23:17.82	167.10	68.24	-33.0	-33.8	25.2	0.00e+00	123	31	0	1153433600	38	6117
2026-01-05 00:23:21.86	167.99	70.08	-33.9	-34.8	25.2	0.00e+00	122	31	0	1166016512	40	6075
2026-01-05 00:23:25.90	169.08	71.94	-33.6	-34.4	25.5	0.00e+00	122	31	0	1178599424	40	5829
2026-01-05 00:23:29.94	170.44	73.83	-33.1	-33.9	25.9	0.00e+00	120	31	0	1191182336	38	6155
2026-01-05 00:23:33.98	172.17	75.74	-32.7	-33.5	25.5	0.00e+00	123	31	0	1203765248	38	5916
2026-01-05 00:23:38.02	174.45	77.67	-33.3	-34.2	24.7	1.50e-06	120	31	0	1216348160	38	6370
2026-01-05 00:23:42.06	177.60	79.58	-33.8	-34.7	24.6	0.00e+00	121	31	0	1229979648	40	6021
2026-01-05 00:23:46.10	182.17	81.48	-34.4	-35.3	24.4	0.00e+00	123	31	0	1242562560	40	6467
2026-01-05 00:23:50.13	189.30	83.29	-34.0	-34.9	24.5	0.00e+00	122	31	0	1255145472	40	6190
2026-01-05 00:23:54.17	201.47	84.95	-33.8	-34.8	24.5	0.00e+00	123	31	0	1267728384	40	6075
2026-01-05 00:23:58.21	223.28	86.19	-35.1	-35.9	24.5	0.00e+00	123	31	0	1280311296	42	6184
2026-01-05 00:24:02.25	255.99	86.52	-33.2	-34.1	25.1	0.00e+00	122	31	0	1292894208	40	5605
2026-01-05 00:24:06.29	284.78	85.73	-35.0	-35.9	24.9	0.00e+00	122	31	0	1305477120	44	5479
2026-01-05 00:24:10.33	301.72	84.26	-34.6	-35.4	25.2	0.00e+00	122	31	0	1318060032	40	6531
2026-01-05 00:24:14.37	311.26	82.51	-33.8	-34.7	24.8	0.00e+00	123	31	0	1330642944	40	5997
2026-01-05 00:24:18.41	317.08	80.66	-33.6	-34.5	25.0	0.00e+00	123	31	0	1343225856	40	5869
2026-01-05 00:24:22.45	320.94	78.75	-34.0	-34.9	25.3	0.00e+00	122	31	0	1355808768	40	6158
2026-01-05 00:24:26.49	323.65	76.83	-33.7	-34.5	25.4	0.00e+00	123	31	0	1368391680	40	5889
2026-01-05 00:24:30.53	325.66	74.92	-33.8	-34.6	25.1	0.00e+00	123	31	0	1380974592	40	5990
2026-01-05 00:24:34.57	327.21	73.02	-35.2	-36.0	24.5	0.00e+00	122	31	0	1393557504	44	5574
2026-01-05 00:24:38.61	328.44	71.14	-32.9	-33.8	25.7	0.00e+00	123	31	0	1406140416	38	6082
2026-01-05 00:24:42.65	329.44	69.29	-35.3	-36.3	23.7	0.00e+00	123	31	0	1418723328	44	5748
2026-01-05 00:24:46.69	330.27	67.47	-33.1	-33.9	25.6	0.00e+00	123	31	0	1431306240	40	5495
2026-01-05 00:24:50.73	330.96	65.69	-33.6	-34.5	25.0	0.00e+00	120	31	0	1443889152	40	5904
2026-01-05 00:24:54.77	331.56	63.94	-31.9	-32.8	26.3	0.00e+00	123	31	0	1456472064	36	6066
2026-01-05 00:24:58.81	332.07	62.23	-34.8	-35.8	24.2	0.00e+00	122	31	0	1469054976	42	6093
2026-01-05 00:25:02.85	332.52	60.57	-32.6	-33.5	25.9	0.00e+00	122	31	0	1481637888	40	5225
2026-01-05 00:25:06.89	332.92	58.94	-34.3	-35.2	24.9	0.00e+00	122	31	0	1494220800	40	6355
2026-01-05 00:25:10.93	333.27	57.36	-33.8	-34.6	25.1	0.00e+00	123	31	0	1506803712	40	5980
2026-01-05 00:25:14.97	333.59	55.82	-35.9	-36.9	22.9	0.00e+00	123	31	0	1519386624	44	6146
2026-01-05 00:25:19.01	333.88	54.32	-35.9	-36.8	23.5	0.00e+00	123	31	0	1531969536	44	6131
2026-01-05 00:25:23.05	334.14	52.86	-34.4	-35.3	24.5	0.00e+00	123	31	0	1545601024	42	5780
2026-01-05 00:25:27.10	334.37	51.44	-36.2	-37.1	23.0	0.00e+00	123	31	0	1558183936	44	6345
2026-01-05 00:25:31.13	334.59	50.06	-36.9	-37.9	22.4	0.00e+00	123	31	0	1570766848	46	6200
2026-01-05 00:25:35.17	334.79	48.73	-36.8	-37.8	22.9	0.00e+00	122	31	0	1583349760	46	6088
2026-01-05 00:25:39.21	334.97	47.43	-37.8	-38.9	21.7	0.00e+00	122	31	0	1595932672	48	6199
2026-01-05 00:25:43.25	335.14	46.17	-38.9	-40.0	21.3	0.00e+00	123	31	0	1608515584	50	6266
2026-01-05 00:25:47.29	335.30	44.95	-37.8	-38.8	21.8	0.00e+00	123	31	0	1621098496	48	6126
2026-01-05 00:25:51.34	335.45	43.76	-39.2	-40.4	20.4	0.00e+00	121	31	0	1633681408	52	5858
2026-01-05 00:25:55.37	335.59	42.62	-36.7	-37.7	22.7	0.00e+00	123	31	0	1646264320	46	6050
2026-01-05 00:25:59.42	335.72	41.50	-37.3	-38.4	21.9	0.00e+00	122	31	0	1658847232	46	6511
2026-01-05 00:26:03.45	335.85	40.42	-37.4	-38.5	21.9	0.00e+00	120	31	0	1671430144	48	5861
2026-01-05 00:26:07.49	335.97	39.37	-37.1	-38.1	22.1	0.00e+00	122	31	0	1684013056	46	6311
2026-01-05 00:26:11.53	336.08	38.35	-36.6	-37.6	22.5	0.00e+00	120	31	0	1696595968	46	5974
2026-01-05 00:26:15.57	336.18	37.36	-35.4	-36.3	23.5	0.00e+00	120	31	0	1709178880	44	5776
2026-01-05 00:26:19.62	336.28	36.40	-34.8	-35.7	23.8	0.00e+00	123	31	0	1721761792	42	6046
2026-01-05 00:26:23.66	336.38	35.46	-35.6	-36.5	23.5	0.00e+00	123	31	0	1734344704	42	6620
2026-01-05 00:26:27.70	336.47	34.56	-35.8	-36.7	23.4	0.00e+00	123	31	0	1746927616	44	6056
2026-01-05 00:26:31.74	336.55	33.68	-35.9	-36.9	23.3	0.00e+00	122	31	0	1759510528	44	6143
2026-01-05 00:26:35.78	336.64	32.82	-34.8	-35.7	24.1	0.00e+00	123	31	0	1772093440	42	6015
2026-01-05 00:26:39.82	336.72	31.99	-34.7	-35.6	24.3	0.00e+00	123	31	0	1784676352	42	5960
2026-01-05 00:26:43.86	336.79	31.18	-34.9	-35.8	24.1	0.00e+00	123	31	0	1797259264	42	6087
2026-01-05 00:26:47.90	336.87	30.39	-34.8	-35.8	24.0	0.00e+00	122	31	0	1809842176	42	6076
2026-01-05 00:26:51.94	336.94	29.62	-35.3	-36.3	23.7	0.00e+00	123	31	0	1822425088	42	6443
2026-01-05 00:26:55.98	337.01	28.88	-35.0	-36.0	23.7	0.00e+00	123	31	0	1835008000	42	6215
2026-01-05 00:27:00.02	337.07	28.15	-35.1	-36.1	23.1	0.00e+00	123	31	0	1847590912	42	6314
2026-01-05 00:27:04.06	337.14	27.44	-34.9	-35.9	23.5	0.00e+00	123	31	0	1861222400	42	6192
2026-01-05 00:27:08.10	337.20	26.75	-34.4	-35.4	24.0	0.00e+00	120	31	0	1873805312	42	5797
2026-01-05 00:27:12.14	337.26	26.08	-34.2	-35.1	24.3	0.00e+00	123	31	0	1886388224	42	5659
2026-01-05 00:27:16.18	337.32	25.42	-33.5	-34.4	24.8	0.00e+00	120	31	0	1898971136	40	5856
2026-01-05 00:27:20.22	337.38	24.78	-33.6	-34.5	24.8	0.00e+00	123	31	0	1911554048	40	5909
2026-01-05 00:27:24.26	337.43	24.15	-33.7	-34.6	24.8	0.00e+00	123	31	0	1924136960	40	5967
2026-01-05 00:27:28.30	337.48	23.54	-33.7	-34.5	24.9	0.00e+00	123	31	0	1936719872	40	5925
2026-01-05 00:27:32.34	337.54	22.94	-33.7	-34.5	24.9	0.00e+00	122	31	0	1949302784	40	5911
2026-01-05 00:27:36.38	337.59	22.36	-33.8	-34.6	24.8	0.00e+00	123	31	0	1961885696	40	5981
2026-01-05 00:27:40.42	337.64	21.79	-33.6	-34.5	24.9	0.00e+00	123	31	0	1974468608	40	5889
2026-01-05 00:27:44.46	337.69	21.23	-34.2	-35.1	24.6	0.00e+00	122	31	0	1987051520	40	6284
2026-01-05 00:27:48.50	337.73	20.69	-34.1	-35.0	24.5	0.00e+00	122	31	0	1999634432	40	6262
2026-01-05 00:27:52.53	337.78	20.15	-34.2	-35.1	24.4	0.00e+00	120	31	0	2012217344	40	6292
2026-01-05 00:27:56.57	337.83	19.63	-34.4	-35.3	24.2	0.00e+00	122	31	0	2024800256	40	6447
2026-01-05 00:28:00.61	337.87	19.12	-34.6	-35.6	24.1	0.00e+00	123	31	0	2037383168	42	5933
2026-01-05 00:28:04.64	337.91	18.62	-34.5	-35.4	24.0	0.00e+00	122	31	0	2049966080	42	5817
2026-01-05 00:28:08.69	337.96	18.13	-34.3	-35.2	24.2	0.00e+00	123	31	0	2062548992	42	5724
2026-01-05 00:28:12.73	338.00	17.64	-34.6	-35.5	24.1	0.00e+00	122	31	0	2075131904	42	5868
2026-01-05 00:28:16.76	338.04	17.17	-34.6	-35.5	24.0	0.00e+00	123	31	0	2087714816	42	5868
2026-01-05 00:28:20.81	338.08	16.71	-34.9	-35.9	23.8	0.00e+00	123	31	0	2100297728	42	6154
2026-01-05 00:28:24.84	338.12	16.25	-34.9	-35.9	23.8	0.00e+00	123	31	0	2112880640	42	6162
2026-01-05 00:28:28.88	338.16	15.81	-34.8	-35.7	23.7	0.00e+00	123	31	0	2125463552	42	6058
2026-01-05 00:28:32.92	338.20	15.37	-35.3	-36.2	23.5	0.00e+00	123	31	0	2138046464	42	6393
2026-01-05 00:28:36.96	338.23	14.94	-35.1	-36.0	23.6	0.00e+00	123	31	0	2150629376	42	6250
2026-01-05 00:28:41.00	338.27	14.51	-35.3	-36.2	23.3	0.00e+00	122	31	0	2163212288	42	6400
2026-01-05 00:28:45.04	338.31	14.10	-35.6	-36.5	23.0	0.00e+00	122	31	0	2176843776	44	5923
2026-01-05 00:28:49.08	338.34	13.69	-35.3	-36.2	23.2	0.00e+00	122	31	0	2188378112	44	5696
2026-01-05 00:28:53.12	338.38	13.29	-35.5	-36.5	23.1	0.00e+00	122	31	0	2202009600	44	5877
2026-01-05 00:28:57.15	338.42	12.89	-35.3	-36.2	23.2	0.00e+00	123	31	0	2214592512	44	5708
2026-01-05 00:29:01.19	338.45	12.50	-35.4	-36.3	23.2	0.00e+00	122	31	0	2227175424	44	5781
2026-01-05 00:29:05.23	338.48	12.12	-35.3	-36.2	23.1	0.00e+00	123	31	0	2239758336	44	5708
2026-01-05 00:29:09.27	338.52	11.74	-35.4	-36.4	23.0	0.00e+00	123	31	0	2252341248	44	5795
2026-01-05 00:29:13.31	338.55	11.37	-35.3	-36.3	23.1	0.00e+00	123	31	0	2264924160	44	5743
2026-01-05 00:29:17.35	338.58	11.00	-35.3	-36.3	23.1	0.00e+00	122	31	0	2277507072	44	5754
2026-01-05 00:29:21.39	338.62	10.64	-35.3	-36.3	23.1	0.00e+00	122	31	0	2290089984	44	5754
2026-01-05 00:29:25.43	338.65	10.29	-35.4	-36.4	22.9	0.00e+00	120	31	0	2302672896	44	5804
2026-01-05 00:29:29.47	338.68	9.94	-35.5	-36.4	22.9	0.00e+00	120	31	0	2315255808	44	5855
2026-01-05 00:29:33.51	338.71	9.59	-35.6	-36.6	22.8	0.00e+00	122	31	0	2327838720	44	5931
2026-01-05 00:29:37.55	338.74	9.25	-35.7	-36.7	22.7	0.00e+00	122	31	0	2340421632	44	6009
2026-01-05 00:29:41.59	338.78	8.91	-35.7	-36.7	22.7	0.00e+00	123	31	0	2353004544	44	6004
2026-01-05 00:29:45.63	338.81	8.58	-35.8	-36.8	22.6	0.00e+00	122	31	0	2365587456	44	6094
2026-01-05 00:29:49.67	338.84	8.25	-35.9	-36.9	22.4	0.00e+00	123	31	0	2378170368	44	6202
2026-01-05 00:29:53.71	338.87	7.93	-36.4	-37.4	21.9	0.00e+00	123	31	0	2390753280	44	6530
2026-01-05 00:29:57.75	338.90	7.61	-36.3	-37.3	22.1	0.00e+00	123	31	0	2403336192	44	6472
2026-01-05 00:30:01.79	338.93	7.30	-36.5	-37.5	21.9	0.00e+00	123	31	0	2415919104	44	6637
2026-01-05 00:30:05.83	338.96	6.98	-36.5	-37.6	21.8	0.00e+00	123	31	0	2428502016	46	5936
2026-01-05 00:30:09.87	338.98	6.68	-37.0	-38.1	21.4	0.00e+00	123	31	0	2441084928	46	6298
2026-01-05 00:30:13.91	339.01	6.37	-37.0	-38.2	21.3	0.00e+00	123	31	0	2453667840	46	6363
2026-01-05 00:30:17.95	339.04	6.07	-37.0	-38.1	21.2	0.00e+00	123	31	0	2466250752	46	6304
2026-01-05 00:30:21.99	339.07	5.78	-37.7	-38.9	20.3	0.00e+00	123	31	0	2478833664	46	6911
2026-01-05 00:30:26.03	339.10	5.48	-38.3	-39.6	19.5	0.00e+00	122	31	0	2491416576	48	6709
2026-01-05 00:30:30.07	339.13	5.19	-39.5	-41.1	17.6	0.00e+00	122	31	0	2503999488	50	7046
2026-01-05 00:30:34.11	339.15	4.90	-40.8	-43.0	14.8	0.00e+00	123	31	0	2517630976	52	7834
2026-01-05 00:30:38.15	339.18	4.62	-42.5	-45.8	11.5	4.90e-04	122	31	0	2530213888	56	8575
2026-01-05 00:30:42.18	339.21	4.34	-43.4	-48.4	7.6	9.67e-02	123	31	0	2541748224	58	10361
2026-01-05 00:30:46.23	339.24	4.06	-44.0	-53.2	4.3	1.12e+00	75	31	104	2546991104	60	16055
2026-01-05 00:30:50.26	339.26	3.79	-43.9	-55.1	3.5	1.51e+00	0	31	104	2546991104	60	19926
2026-01-05 00:30:54.30	339.29	3.51	-43.9	-56.1	3.5	1.51e+00	0	31	104	2546991104	60	22307
2026-01-05 00:30:58.34	339.32	3.24	-43.8	-56.5	3.5	1.52e+00	0	31	104	2546991104	60	23415
2026-01-05 00:31:02.38	339.34	2.97	-45.0	-57.8	3.5	1.52e+00	0	31	104	2546991104	60	27338
2026-01-05 00:31:06.41	339.37	2.71	-48.6	-61.5	3.5	1.52e+00	0	31	104	2546991104	60	41705
2026-01-05 00:31:10.45	339.40	2.45	-48.7	-61.7	3.5	1.52e+00	0	31	104	2546991104	60	42664
2026-01-05 00:31:14.49	339.42	2.19	-48.6	-61.5	3.5	1.52e+00	0	31	104	2546991104	60	41775
2026-01-05 00:31:18.52	339.45	1.93	-49.1	-61.9	3.5	1.52e+00	0	31	104	2546991104	60	43474
2026-01-05 00:31:22.56	339.47	1.68	-49.0	-61.8	3.5	1.52e+00	0	31	104	2546991104	60	43243
2026-01-05 00:31:26.59	339.50	1.42	-49.1	-61.9	3.5	1.51e+00	0	31	104	2546991104	60	43756
2026-01-05 00:31:30.63	339.53	1.17	-49.3	-62.1	3.5	1.51e+00	0	31	104	2546991104	60	44894
2026-01-05 00:31:34.67	339.55	0.92	-49.8	-62.6	3.5	1.51e+00	0	31	104	2546991104	60	47271
2026-01-05 00:31:38.71	339.58	0.68	-49.3	-62.1	3.5	1.51e+00	0	31	104	2546991104	60	44665
2026-01-05 00:31:42.74	339.60	0.43	-48.8	-61.7	3.5	1.51e+00	0	31	104	2546991104	60	42470
2026-01-05 00:31:46.78	339.63	0.19	-48.8	-61.6	3.5	1.52e+00	0	31	104	2546991104	60	42194
2026-01-05 00:31:50.82	339.65	-0.05	-48.9	-61.8	3.5	1.52e+00	0	31	104	2546991104	60	43049

#Closed at: 2026-01-05 00:31:51
#Recorded file [2546 MB]: D:/lorett/data/35029_260105_121617.dat