passes_logs/2026/01/05/R4.6S_Anadyr/R4.6S_Anadyr__20260105_004001_AQUA_rec.log

#Pass ID: 20260105_004001_AQUA
#Satellite: AQUA
#Configuration: AQUA
#almurnet v.1.7.20251203
#Start time: 2026-01-05 00:40:02

#Version: 2.2.20231116
#Station: R4.6S_Anadyr
#Location: 177.4865 lon 64.73178 lat
#TLE: 1 27424U 02022A   25365.92641127  .00002078  00000+0  42628-3 0  9999
#TLE: 2 27424  98.4058 327.1196 0001962  94.7781 340.6230 14.61783896258835

#Time	Az	El	Level	Level2	SNR	BER	BlckErr	Temp	State	Recorded	gain1	gain2
2026-01-05 00:40:02.22	124.06	0.07	-49.4	-61.9	3.5	1.52e+00	0	28	0	0	60	43914
2026-01-05 00:40:06.25	123.91	0.31	-49.5	-67.4	3.5	3.03e+01	0	29	104	0	60	90126
2026-01-05 00:40:10.29	123.75	0.55	-49.3	-67.3	3.5	3.03e+01	0	29	104	0	60	89103
2026-01-05 00:40:14.33	123.58	0.80	-48.8	-66.7	3.5	3.03e+01	0	29	104	0	60	83691
2026-01-05 00:40:18.37	123.42	1.05	-47.7	-65.6	3.5	3.03e+01	0	29	104	0	60	73723
2026-01-05 00:40:22.41	123.25	1.30	-47.5	-65.4	3.5	3.03e+01	0	30	104	0	60	71595
2026-01-05 00:40:26.45	123.07	1.55	-47.6	-65.4	3.5	3.03e+01	0	30	104	0	60	72057
2026-01-05 00:40:30.49	122.90	1.80	-47.6	-65.5	3.5	3.03e+01	0	30	104	0	60	72137
2026-01-05 00:40:34.53	122.72	2.06	-47.6	-65.4	3.5	3.03e+01	0	30	104	0	60	71737
2026-01-05 00:40:38.57	122.53	2.32	-47.5	-65.3	3.5	3.03e+01	0	30	104	0	60	70534
2026-01-05 00:40:42.61	122.35	2.58	-47.5	-65.3	3.5	3.03e+01	0	30	104	0	60	71089
2026-01-05 00:40:46.65	122.15	2.84	-47.5	-65.3	3.5	3.03e+01	0	30	104	0	60	71063
2026-01-05 00:40:50.69	121.96	3.11	-47.5	-65.4	3.5	3.03e+01	0	30	104	0	60	71877
2026-01-05 00:40:54.73	121.76	3.38	-47.5	-65.2	3.5	3.03e+01	0	30	104	0	60	70008
2026-01-05 00:40:58.77	121.55	3.65	-44.1	-56.1	3.5	3.03e+01	0	30	104	0	60	24575
2026-01-05 00:41:02.81	121.35	3.92	-47.3	-65.0	3.5	3.03e+01	0	30	104	0	60	68672
2026-01-05 00:41:06.85	121.13	4.20	-39.3	-49.9	3.5	3.03e+01	0	30	104	0	52	19117
2026-01-05 00:41:10.89	120.91	4.48	-45.9	-59.5	3.5	3.03e+01	0	30	104	0	60	36178
2026-01-05 00:41:14.92	120.69	4.76	-39.7	-50.3	3.5	3.03e+01	0	30	104	0	54	17744
2026-01-05 00:41:18.96	120.46	5.05	-47.6	-64.3	3.5	3.03e+01	0	30	104	0	60	62903
2026-01-05 00:41:23.01	120.23	5.34	-40.3	-51.0	3.5	3.03e+01	0	30	104	0	52	21571
2026-01-05 00:41:27.04	119.99	5.63	-36.8	-47.1	3.5	3.03e+01	0	30	104	0	48	17420
2026-01-05 00:41:31.08	119.75	5.92	-47.6	-65.7	3.5	3.03e+01	0	30	104	0	60	73844
2026-01-05 00:41:35.13	119.50	6.22	-37.8	-48.2	3.5	3.03e+01	0	30	104	0	50	17507
2026-01-05 00:41:39.16	119.24	6.52	-48.1	-65.8	3.5	3.03e+01	0	30	104	0	60	74745
2026-01-05 00:41:43.20	118.98	6.83	-40.7	-51.5	3.5	3.03e+01	0	30	104	0	54	20355
2026-01-05 00:41:47.24	118.71	7.13	-42.0	-52.9	3.5	3.03e+01	0	30	104	0	58	19140
2026-01-05 00:41:51.28	118.44	7.45	-36.8	-47.2	3.5	3.03e+01	0	30	104	0	48	17491
2026-01-05 00:41:55.32	118.16	7.76	-37.1	-47.5	3.5	3.03e+01	0	30	104	0	50	16137
2026-01-05 00:41:59.36	117.87	8.08	-48.2	-66.0	3.5	3.03e+01	0	30	104	0	60	76367
2026-01-05 00:42:03.41	117.57	8.40	-41.1	-51.9	3.5	3.03e+01	0	30	104	0	56	19030
2026-01-05 00:42:07.45	117.27	8.73	-45.9	-58.8	3.6	3.03e+01	0	30	104	0	60	33380
2026-01-05 00:42:11.49	116.96	9.06	-36.9	-47.1	3.6	3.03e+01	0	30	104	0	48	17431
2026-01-05 00:42:15.53	116.64	9.40	-47.8	-64.1	3.5	3.03e+01	0	30	104	0	60	61651
2026-01-05 00:42:19.57	116.31	9.74	-40.6	-51.2	3.5	3.03e+01	0	30	104	0	54	19775
2026-01-05 00:42:23.60	115.97	10.08	-45.8	-58.5	3.4	3.03e+01	0	30	104	0	58	36148
2026-01-05 00:42:27.64	115.63	10.43	-37.0	-47.3	3.5	3.03e+01	0	30	104	0	50	15874
2026-01-05 00:42:31.68	115.27	10.78	-37.0	-47.3	3.5	3.03e+01	0	30	104	0	46	19932
2026-01-05 00:42:35.72	114.91	11.14	-37.8	-48.1	3.3	3.03e+01	0	30	104	0	54	13839
2026-01-05 00:42:39.76	114.53	11.50	-44.6	-56.5	3.5	3.03e+01	0	30	104	0	58	29001
2026-01-05 00:42:43.79	114.15	11.87	-48.3	-65.9	3.5	3.03e+01	0	30	104	0	60	75982
2026-01-05 00:42:47.83	113.75	12.24	-41.4	-52.2	3.6	3.03e+01	0	30	104	0	56	19714
2026-01-05 00:42:51.87	113.35	12.62	-43.5	-55.0	3.5	3.03e+01	0	30	104	0	60	21625
2026-01-05 00:42:55.91	112.93	13.00	-41.4	-52.2	3.5	3.03e+01	0	30	104	0	56	19651
2026-01-05 00:42:59.95	112.50	13.39	-48.2	-65.3	3.5	3.03e+01	0	30	104	0	60	70959
2026-01-05 00:43:03.99	112.05	13.78	-34.8	-45.0	3.6	3.03e+01	0	30	104	0	44	17111
2026-01-05 00:43:08.02	111.60	14.18	-39.0	-49.4	3.6	3.03e+01	0	30	104	0	50	20278
2026-01-05 00:43:12.07	111.13	14.58	-39.7	-50.3	3.5	3.03e+01	0	30	104	0	56	15774
2026-01-05 00:43:16.11	110.64	14.99	-47.3	-62.4	3.5	3.03e+01	0	30	104	0	60	50802
2026-01-05 00:43:20.15	110.14	15.41	-37.9	-48.3	3.6	3.03e+01	0	30	104	0	48	19875
2026-01-05 00:43:24.18	109.63	15.83	-38.7	-49.1	3.5	3.03e+01	0	30	104	0	50	19472
2026-01-05 00:43:28.23	109.10	16.26	-36.8	-47.1	3.5	3.03e+01	0	30	104	0	52	13789
2026-01-05 00:43:32.27	108.55	16.69	-35.5	-45.7	3.5	3.03e+01	0	30	104	0	46	16690
2026-01-05 00:43:36.31	107.98	17.13	-48.5	-66.0	3.5	3.03e+01	0	30	104	0	60	76937
2026-01-05 00:43:40.35	107.40	17.57	-35.0	-45.2	3.5	3.03e+01	0	30	104	0	44	17596
2026-01-05 00:43:44.38	106.80	18.02	-38.7	-49.1	3.5	3.03e+01	0	30	104	0	50	19594
2026-01-05 00:43:48.42	106.18	18.48	-38.4	-48.8	3.5	3.03e+01	0	30	104	0	50	18949
2026-01-05 00:43:52.46	105.53	18.94	-35.2	-45.4	3.5	3.03e+01	0	30	104	0	46	16065
2026-01-05 00:43:56.50	104.87	19.41	-40.9	-51.6	3.4	3.03e+01	0	30	104	0	60	14588
2026-01-05 00:44:00.54	104.18	19.88	-38.8	-49.2	3.5	3.03e+01	0	30	104	0	46	24732
2026-01-05 00:44:04.57	103.48	20.36	-42.9	-54.0	3.5	3.03e+01	0	30	104	0	56	24339
2026-01-05 00:44:08.61	102.74	20.84	-41.3	-52.0	3.5	3.03e+01	0	30	104	0	58	17223
2026-01-05 00:44:12.65	101.98	21.33	-48.1	-64.3	3.5	3.03e+01	0	30	104	0	60	62827
2026-01-05 00:44:16.69	101.20	21.83	-37.1	-47.3	3.5	3.03e+01	0	31	104	0	48	17838
2026-01-05 00:44:20.73	100.39	22.33	-48.3	-65.3	3.5	3.03e+01	0	31	104	0	60	71184
2026-01-05 00:44:24.77	99.55	22.83	-35.3	-45.5	3.6	3.03e+01	0	31	104	0	46	16214
2026-01-05 00:44:28.81	98.68	23.34	-36.3	-46.5	3.5	3.03e+01	0	31	104	0	44	20510
2026-01-05 00:44:32.85	97.78	23.86	-37.3	-47.6	3.5	3.03e+01	0	31	104	0	52	14582
2026-01-05 00:44:36.89	96.85	24.37	-48.3	-65.6	3.5	3.03e+01	0	30	104	0	60	73204
2026-01-05 00:44:40.93	95.88	24.89	-48.7	-65.9	3.5	3.03e+01	0	31	104	0	60	75591
2026-01-05 00:44:44.97	94.89	25.41	-37.4	-47.7	3.5	3.03e+01	0	30	104	0	50	16539
2026-01-05 00:44:49.01	93.85	25.93	-39.2	-49.7	3.5	3.03e+01	0	31	104	0	52	18629
2026-01-05 00:44:53.05	92.78	26.46	-35.5	-45.7	3.5	3.03e+01	0	31	104	0	46	16530
2026-01-05 00:44:57.09	91.67	26.98	-48.2	-64.5	3.5	3.03e+01	0	31	104	0	60	64692
2026-01-05 00:45:01.12	90.53	27.50	-35.0	-45.1	3.6	3.03e+01	0	30	104	0	46	15506
2026-01-05 00:45:05.16	89.35	28.02	-37.3	-47.6	3.5	3.03e+01	0	30	104	0	48	18419
2026-01-05 00:45:09.20	88.12	28.54	-37.7	-48.0	3.5	3.03e+01	0	30	104	0	50	17268
2026-01-05 00:45:13.23	86.86	29.05	-40.6	-51.3	3.7	3.03e+01	0	30	104	0	60	14076
2026-01-05 00:45:17.27	85.55	29.55	-48.1	-65.4	3.5	3.03e+01	0	30	104	0	60	71276
2026-01-05 00:45:21.31	84.19	30.05	-34.3	-44.4	3.5	3.03e+01	0	30	104	0	42	17960
2026-01-05 00:45:25.35	82.80	30.54	-34.0	-44.2	3.5	3.03e+01	0	30	104	0	44	15617
2026-01-05 00:45:29.39	81.36	31.02	-34.7	-44.8	3.5	3.03e+01	0	30	104	0	44	16861
2026-01-05 00:45:33.43	79.87	31.49	-44.0	-56.5	3.5	3.03e+01	0	30	104	0	60	25760
2026-01-05 00:45:37.47	78.34	31.94	-34.9	-45.1	3.4	3.03e+01	0	30	104	0	46	15494
2026-01-05 00:45:41.51	76.77	32.38	-41.9	-52.7	3.4	3.03e+01	0	30	104	0	48	33277
2026-01-05 00:45:45.55	75.15	32.80	-35.7	-46.0	3.5	3.03e+01	0	31	104	0	46	17103
2026-01-05 00:45:49.59	73.49	33.20	-34.6	-44.7	3.5	3.03e+01	0	30	104	0	44	16545
2026-01-05 00:45:53.63	71.79	33.57	-41.5	-52.4	3.8	3.03e+01	0	30	104	0	60	15961
2026-01-05 00:45:57.66	70.06	33.92	-40.4	-50.9	3.5	3.03e+01	0	30	104	0	50	24113
2026-01-05 00:46:01.70	68.28	34.25	-46.9	-60.4	3.5	3.03e+01	0	31	104	0	56	50649
2026-01-05 00:46:05.74	66.47	34.55	-38.3	-48.6	3.5	3.03e+01	0	30	104	0	50	18359
2026-01-05 00:46:09.78	64.62	34.82	-39.9	-50.4	3.5	3.03e+01	0	31	104	0	58	14336
2026-01-05 00:46:13.82	62.75	35.05	-35.7	-45.9	3.5	3.03e+01	0	31	104	0	46	17064
2026-01-05 00:46:17.85	60.85	35.26	-48.3	-64.9	3.5	3.03e+01	0	31	104	0	60	67621
2026-01-05 00:46:21.89	58.93	35.43	-35.2	-45.3	3.6	3.03e+01	0	31	104	0	46	15884
2026-01-05 00:46:25.93	56.99	35.56	-34.9	-36.2	29.3	3.03e+01	0	30	0	3145728	44	6229
2026-01-05 00:46:29.97	55.03	35.66	-35.1	-36.3	29.2	3.03e+01	0	30	0	10485760	44	6313
2026-01-05 00:46:34.01	53.07	35.72	-34.7	-36.0	29.5	3.03e+01	0	30	0	18350080	44	6110
2026-01-05 00:46:38.05	51.10	35.74	-34.7	-35.9	29.6	3.03e+01	0	30	0	25690112	44	5998
2026-01-05 00:46:42.09	49.12	35.73	-34.9	-36.1	29.4	3.03e+01	0	30	0	33554432	44	6203
2026-01-05 00:46:46.13	47.16	35.68	-35.0	-36.2	29.2	3.03e+01	0	31	0	40894464	44	6232
2026-01-05 00:46:50.17	45.20	35.59	-35.2	-36.5	29.1	3.03e+01	0	30	0	48234496	44	6424
2026-01-05 00:46:54.21	43.26	35.46	-34.9	-36.1	29.4	3.03e+01	0	30	0	56098816	44	6192
2026-01-05 00:46:58.25	41.33	35.30	-35.1	-36.3	29.2	3.03e+01	0	31	0	63438848	44	6334
2026-01-05 00:47:02.29	39.43	35.10	-34.8	-36.0	29.5	3.03e+01	0	30	0	71303168	44	6096
2026-01-05 00:47:06.32	37.55	34.87	-35.0	-36.2	29.3	3.03e+01	0	31	0	78643200	44	6276
2026-01-05 00:47:10.36	35.70	34.61	-34.8	-36.0	29.5	3.03e+01	0	30	0	86507520	44	6084
2026-01-05 00:47:14.40	33.89	34.32	-34.9	-36.1	29.4	3.03e+01	0	31	0	93847552	44	6192
2026-01-05 00:47:18.44	32.11	34.00	-35.3	-36.6	29.0	3.03e+01	0	30	0	101711872	44	6507
2026-01-05 00:47:22.47	30.37	33.65	-34.8	-36.0	29.4	3.03e+01	0	31	0	109051904	44	6108
2026-01-05 00:47:26.51	28.66	33.28	-34.7	-35.9	29.5	3.03e+01	0	31	0	116391936	44	6047
2026-01-05 00:47:30.55	27.00	32.89	-35.2	-36.4	29.2	3.03e+01	0	30	0	124256256	44	6368
2026-01-05 00:47:34.59	25.37	32.48	-35.0	-36.2	29.3	3.03e+01	0	30	0	131596288	44	6247
2026-01-05 00:47:38.63	23.79	32.05	-34.8	-36.0	29.5	3.03e+01	0	30	0	139460608	44	6069
2026-01-05 00:47:42.67	22.26	31.60	-34.8	-36.0	29.5	3.03e+01	0	30	0	146800640	44	6103
2026-01-05 00:47:46.71	20.77	31.13	-34.7	-35.9	29.5	3.03e+01	0	31	0	154664960	44	6055
2026-01-05 00:47:50.75	19.32	30.66	-35.1	-36.3	29.3	3.03e+01	0	30	0	162004992	44	6308
2026-01-05 00:47:54.79	17.92	30.17	-34.9	-36.1	29.3	3.03e+01	0	30	0	169869312	44	6177
2026-01-05 00:47:58.83	16.56	29.68	-35.5	-36.8	28.7	3.03e+01	0	31	0	177209344	44	6665
2026-01-05 00:48:02.87	15.25	29.18	-35.2	-36.4	29.3	3.03e+01	0	30	0	184549376	44	6380
2026-01-05 00:48:06.91	13.97	28.67	-34.9	-36.1	29.3	3.03e+01	0	31	0	192413696	44	6141
2026-01-05 00:48:10.94	12.75	28.15	-34.9	-36.1	29.4	3.03e+01	0	31	0	199753728	44	6188
2026-01-05 00:48:14.98	11.56	27.64	-35.3	-36.6	28.9	3.03e+01	0	31	0	207618048	44	6511
2026-01-05 00:48:19.02	10.41	27.12	-35.1	-36.4	29.2	3.03e+01	0	30	0	214958080	44	6359
2026-01-05 00:48:23.06	9.29	26.60	-35.0	-36.2	29.2	3.03e+01	0	31	0	222822400	44	6224
2026-01-05 00:48:27.10	8.22	26.07	-35.1	-36.3	29.2	3.03e+01	0	30	0	230162432	44	6310
2026-01-05 00:48:31.14	7.18	25.55	-35.1	-36.3	29.2	3.03e+01	0	30	0	238026752	44	6336
2026-01-05 00:48:35.18	6.18	25.03	-35.4	-36.6	28.9	3.03e+01	0	31	0	245366784	44	6558
2026-01-05 00:48:39.22	5.21	24.52	-35.2	-36.5	29.1	3.03e+01	0	30	0	252706816	44	6429
2026-01-05 00:48:43.26	4.28	24.00	-35.7	-36.9	28.6	3.03e+01	0	31	0	260571136	44	6783
2026-01-05 00:48:47.30	3.37	23.49	-35.2	-36.5	28.9	3.03e+01	0	30	0	267911168	44	6430
2026-01-05 00:48:51.34	2.50	22.98	-35.4	-36.7	28.8	3.03e+01	0	30	0	275775488	44	6601
2026-01-05 00:48:55.38	1.66	22.48	-35.2	-36.4	29.1	3.03e+01	0	30	0	283115520	44	6409
2026-01-05 00:48:59.42	0.84	21.98	-35.3	-36.5	29.0	3.03e+01	0	31	0	290979840	44	6478
2026-01-05 00:49:03.45	0.06	21.49	-34.9	-36.1	29.4	3.03e+01	0	30	0	298319872	44	6163
2026-01-05 00:49:07.49	359.30	21.00	-35.1	-36.4	29.0	3.03e+01	0	30	0	306184192	44	6374
2026-01-05 00:49:11.53	358.56	20.51	-35.0	-36.3	29.1	3.03e+01	0	30	0	313524224	44	6281
2026-01-05 00:49:15.57	357.85	20.04	-34.9	-36.1	29.2	3.03e+01	0	30	0	320864256	44	6166
2026-01-05 00:49:19.61	357.16	19.56	-35.0	-36.2	29.3	3.03e+01	0	30	0	328728576	44	6263
2026-01-05 00:49:23.65	356.50	19.09	-34.7	-35.9	29.4	3.03e+01	0	30	0	336068608	44	6041
2026-01-05 00:49:27.69	355.85	18.63	-35.0	-36.2	29.1	3.03e+01	0	31	0	343932928	44	6220
2026-01-05 00:49:31.73	355.23	18.18	-35.1	-36.3	29.1	3.03e+01	0	30	0	351272960	44	6338
2026-01-05 00:49:35.77	354.63	17.73	-35.0	-36.2	29.0	3.03e+01	0	30	0	359137280	44	6245
2026-01-05 00:49:39.81	354.04	17.28	-34.8	-36.0	29.3	3.03e+01	0	30	0	366477312	44	6096
2026-01-05 00:49:43.84	353.48	16.85	-34.8	-36.0	29.2	3.03e+01	0	30	0	374341632	44	6115
2026-01-05 00:49:47.88	352.93	16.41	-35.2	-36.5	28.9	3.03e+01	0	30	0	381681664	44	6454
2026-01-05 00:49:51.91	352.40	15.99	-34.8	-36.0	29.1	3.03e+01	0	30	0	389021696	44	6120
2026-01-05 00:49:55.95	351.88	15.57	-35.1	-36.3	29.0	3.03e+01	0	30	0	396886016	44	6326
2026-01-05 00:49:59.99	351.38	15.15	-34.9	-36.1	29.0	3.03e+01	0	30	0	404226048	44	6200
2026-01-05 00:50:04.03	350.90	14.74	-34.9	-36.1	29.1	3.03e+01	0	30	0	412090368	44	6190
2026-01-05 00:50:08.07	350.43	14.34	-35.1	-36.4	28.9	3.03e+01	0	30	0	419430400	44	6358
2026-01-05 00:50:12.11	349.97	13.94	-35.0	-36.2	29.0	3.03e+01	0	30	0	427294720	44	6275
2026-01-05 00:50:16.15	349.53	13.55	-35.3	-36.5	28.7	3.03e+01	0	30	0	434634752	44	6485
2026-01-05 00:50:20.19	349.10	13.16	-35.2	-36.4	28.8	3.03e+01	0	30	0	442499072	44	6423
2026-01-05 00:50:24.23	348.68	12.78	-35.3	-36.5	28.8	3.03e+01	0	30	0	449839104	44	6476
2026-01-05 00:50:28.27	348.27	12.40	-35.4	-36.6	28.7	3.03e+01	0	30	0	457179136	44	6545
2026-01-05 00:50:32.30	347.88	12.03	-35.2	-36.5	28.7	3.03e+01	0	30	0	465043456	44	6450
2026-01-05 00:50:36.34	347.49	11.66	-35.7	-37.0	28.2	3.03e+01	0	30	0	472383488	46	6094
2026-01-05 00:50:40.38	347.12	11.30	-35.8	-37.0	28.1	3.03e+01	0	30	0	480247808	46	6123
2026-01-05 00:50:44.42	346.75	10.94	-35.6	-36.9	28.4	3.03e+01	0	31	0	487587840	46	6025
2026-01-05 00:50:48.46	346.40	10.59	-35.7	-37.0	28.3	3.03e+01	0	30	0	495452160	46	6068
2026-01-05 00:50:52.49	346.05	10.24	-35.7	-37.0	28.3	3.03e+01	0	30	0	502792192	46	6099
2026-01-05 00:50:56.53	345.72	9.90	-35.8	-37.1	28.2	3.03e+01	0	30	0	510656512	46	6164
2026-01-05 00:51:00.57	345.39	9.56	-35.6	-36.8	28.4	3.03e+01	0	31	0	517996544	46	5968
2026-01-05 00:51:04.61	345.07	9.22	-36.1	-37.4	28.0	3.03e+01	0	30	0	525336576	46	6397
2026-01-05 00:51:08.64	344.76	8.89	-35.8	-37.1	28.1	3.03e+01	0	30	0	533200896	46	6174
2026-01-05 00:51:12.68	344.46	8.57	-36.0	-37.3	27.9	3.03e+01	0	30	0	540540928	46	6306
2026-01-05 00:51:16.72	344.17	8.24	-36.2	-37.5	27.6	3.03e+01	0	30	0	548405248	46	6453
2026-01-05 00:51:20.76	343.88	7.92	-36.3	-37.7	27.6	3.03e+01	0	31	0	555745280	46	6575
2026-01-05 00:51:24.80	343.60	7.61	-36.4	-37.7	27.5	3.03e+01	0	30	0	563609600	46	6622
2026-01-05 00:51:28.83	343.33	7.30	-36.5	-37.8	27.3	3.03e+01	0	31	0	570949632	46	6681
2026-01-05 00:51:32.87	343.06	6.99	-37.0	-38.4	26.8	3.03e+01	0	31	0	578289664	48	6376
2026-01-05 00:51:36.90	342.80	6.68	-37.2	-38.6	26.6	3.03e+01	0	31	0	586153984	48	6503
2026-01-05 00:51:40.94	342.55	6.38	-37.4	-38.8	26.1	3.03e+01	0	31	0	593494016	48	6693
2026-01-05 00:51:44.98	342.30	6.08	-37.9	-39.5	25.2	3.03e+01	0	31	0	601358336	50	6424
2026-01-05 00:51:49.02	342.06	5.79	-38.7	-40.4	24.0	3.03e+01	0	30	0	608698368	50	7200
2026-01-05 00:51:53.05	341.82	5.50	-40.0	-42.1	21.8	3.03e+01	0	31	0	616562688	54	6889
2026-01-05 00:51:57.09	341.59	5.21	-41.6	-44.4	19.5	3.03e+01	0	30	0	623902720	58	7143
2026-01-05 00:52:01.13	341.36	4.92	-42.6	-46.3	16.8	3.03e+01	0	31	0	631767040	60	7969
2026-01-05 00:52:05.17	341.14	4.64	-43.6	-48.9	13.6	3.03e+01	0	31	0	639107072	60	10745
2026-01-05 00:52:09.20	340.92	4.36	-44.2	-52.0	9.7	3.03e+01	0	31	0	646447104	60	15336
2026-01-05 00:52:13.24	340.71	4.09	-44.2	-56.4	3.9	3.03e+01	0	31	104	653262848	60	25432
2026-01-05 00:52:17.28	340.51	3.81	-44.3	-58.6	4.2	3.03e+01	0	31	104	653262848	60	32659
2026-01-05 00:52:21.32	340.30	3.54	-44.3	-61.7	3.5	3.03e+01	0	31	104	653262848	60	47032
2026-01-05 00:52:25.36	340.11	3.27	-44.3	-61.7	3.5	3.03e+01	0	31	104	653262848	60	46887
2026-01-05 00:52:29.40	339.91	3.00	-44.2	-62.1	3.5	3.03e+01	0	31	104	653262848	60	48764
2026-01-05 00:52:33.44	339.72	2.74	-48.9	-66.7	3.5	3.03e+01	0	31	104	653262848	60	83134
2026-01-05 00:52:37.48	339.54	2.48	-48.9	-66.9	3.5	3.03e+01	0	31	104	653262848	60	85574
2026-01-05 00:52:41.52	339.36	2.22	-49.2	-67.1	3.5	3.03e+01	0	31	104	653262848	60	87117
2026-01-05 00:52:45.55	339.18	1.96	-49.1	-67.1	3.5	3.03e+01	0	31	104	653262848	60	86660
2026-01-05 00:52:49.60	339.00	1.71	-48.9	-66.8	3.5	3.03e+01	0	31	104	653262848	60	83737
2026-01-05 00:52:53.63	338.83	1.46	-48.9	-66.8	3.5	3.03e+01	0	31	104	653262848	60	84581
2026-01-05 00:52:57.68	338.67	1.21	-48.9	-66.9	3.5	3.03e+01	0	31	104	653262848	60	84869
2026-01-05 00:53:01.72	338.50	0.96	-48.9	-66.8	3.5	3.03e+01	0	31	104	653262848	60	84474
2026-01-05 00:53:05.76	338.34	0.71	-48.8	-66.7	3.5	3.03e+01	0	31	104	653262848	60	83468
2026-01-05 00:53:09.80	338.18	0.47	-49.1	-67.0	3.5	3.03e+01	0	31	104	653262848	60	86250
2026-01-05 00:53:13.83	338.03	0.23	-49.1	-67.0	3.5	3.03e+01	0	31	104	653262848	60	85846
2026-01-05 00:53:17.87	337.88	-0.01	-49.0	-67.0	3.5	3.03e+01	0	31	104	653262848	60	85786

#Closed at: 2026-01-05 00:53:19
#Recorded file [653 MB]: D:/lorett/data/35029_260105_124002.dat