passes_logs/2026/01/05/R4.6S_Anadyr/R4.6S_Anadyr__20260105_022800_SUOMI_NPP_rec.log

#Pass ID: 20260105_022800_SUOMI NPP
#Satellite: SUOMI NPP
#Configuration: NPP
#almurnet v.1.7.20251203
#Start time: 2026-01-05 02:30:56

#Version: 2.2.20231116
#Station: R4.6S_Anadyr
#Location: 177.4865 lon 64.73178 lat
#TLE: 1 37849U 11061A   26001.07732418  .00000182  00000+0  10735-3 0  9990
#TLE: 2 37849  98.7795 303.2470 0002580  87.2016 272.9455 14.19520779734739

#Time	Az	El	Level	Level2	SNR	BER	BlckErr	Temp	State	Recorded	gain1	gain2
2026-01-05 02:30:56.85	229.76	9.91	-49.0	-66.8	3.5	3.02e+01	0	28	0	0	60	84021
2026-01-05 02:30:59.87	230.15	10.09	-49.1	-64.3	3.6	1.51e+00	0	29	104	0	60	58961
2026-01-05 02:31:02.90	230.55	10.27	-49.2	-64.5	3.6	1.51e+00	0	29	104	0	60	60598
2026-01-05 02:31:05.93	230.96	10.45	-48.6	-64.0	3.6	1.51e+00	0	29	104	0	60	57332
2026-01-05 02:31:08.96	231.37	10.64	-48.6	-63.8	3.6	1.51e+00	0	29	104	0	60	56140
2026-01-05 02:31:11.99	231.78	10.82	-48.6	-63.8	3.6	1.51e+00	0	29	104	0	60	55855
2026-01-05 02:31:15.01	232.20	11.00	-48.3	-63.5	3.6	1.51e+00	0	29	104	0	60	53798
2026-01-05 02:31:18.04	232.62	11.19	-48.3	-63.4	3.6	1.51e+00	0	29	104	0	60	53545
2026-01-05 02:31:21.07	233.05	11.37	-48.2	-63.3	3.6	1.51e+00	0	29	104	0	60	52839
2026-01-05 02:31:24.10	233.48	11.55	-48.2	-63.2	3.6	1.51e+00	0	29	104	0	60	52548
2026-01-05 02:31:27.13	233.92	11.73	-48.3	-63.5	3.6	1.51e+00	0	29	104	0	60	53850
2026-01-05 02:31:30.16	234.37	11.92	-48.5	-63.6	3.6	1.51e+00	0	29	104	0	60	54696
2026-01-05 02:31:33.19	234.82	12.10	-48.5	-63.7	3.6	1.51e+00	0	29	104	0	60	55447
2026-01-05 02:31:36.21	235.27	12.28	-48.4	-63.5	3.6	1.51e+00	0	29	104	0	60	53854
2026-01-05 02:31:39.24	235.74	12.46	-48.3	-63.5	3.6	1.51e+00	0	29	104	0	60	54133
2026-01-05 02:31:42.27	236.20	12.64	-48.3	-63.4	3.6	1.51e+00	0	29	104	0	60	53699
2026-01-05 02:31:45.30	236.67	12.83	-48.3	-63.1	3.6	1.51e+00	0	28	104	0	60	51909
2026-01-05 02:31:48.33	237.15	13.01	-48.2	-62.9	3.6	1.51e+00	0	28	104	0	60	50627
2026-01-05 02:31:51.36	237.64	13.19	-47.8	-56.5	4.9	1.32e+00	1	29	0	2097152	60	24024
2026-01-05 02:31:54.39	238.13	13.37	-41.3	-42.8	20.0	0.00e+00	92	28	0	7340032	56	6246
2026-01-05 02:31:57.42	238.62	13.55	-40.2	-41.5	21.0	2.28e-05	92	29	0	12582912	56	5382
2026-01-05 02:32:00.45	239.12	13.73	-42.1	-43.7	18.6	0.00e+00	0	28	0	15728640	58	6208
2026-01-05 02:32:03.48	239.63	13.90	-40.9	-42.3	19.6	0.00e+00	92	28	0	22020096	56	5921
2026-01-05 02:32:06.51	240.14	14.08	-41.1	-42.5	19.8	0.00e+00	92	28	0	27262976	54	6830
2026-01-05 02:32:09.53	240.66	14.26	-39.8	-40.9	20.9	0.00e+00	0	28	0	33554432	52	6386
2026-01-05 02:32:12.56	241.18	14.43	-39.4	-40.4	21.3	0.00e+00	92	28	0	38797312	52	6031
2026-01-05 02:32:15.59	241.72	14.61	-39.8	-41.0	21.2	0.00e+00	90	28	0	45088768	52	6417
2026-01-05 02:32:18.62	242.25	14.78	-38.4	-39.4	22.4	0.00e+00	65	28	0	50331648	50	5983
2026-01-05 02:32:21.65	242.79	14.95	-37.7	-38.7	23.0	0.00e+00	0	28	0	55574528	48	6196
2026-01-05 02:32:24.68	243.34	15.12	-37.6	-38.5	23.3	0.00e+00	90	28	0	61865984	48	6047
2026-01-05 02:32:27.71	243.90	15.29	-37.6	-38.6	23.2	0.00e+00	92	28	0	67108864	48	6116
2026-01-05 02:32:30.74	244.46	15.46	-37.4	-38.3	23.3	0.00e+00	0	28	0	73400320	48	5924
2026-01-05 02:32:33.76	245.03	15.63	-37.6	-38.5	23.3	0.00e+00	92	28	0	78643200	48	6050
2026-01-05 02:32:36.79	245.60	15.79	-37.7	-38.6	23.0	0.00e+00	74	28	0	83886080	48	6152
2026-01-05 02:32:39.82	246.18	15.96	-37.5	-38.5	23.2	0.00e+00	0	28	0	90177536	48	6041
2026-01-05 02:32:42.85	246.76	16.12	-37.5	-38.4	23.3	0.00e+00	0	28	0	95420416	48	5985
2026-01-05 02:32:45.88	247.36	16.28	-38.0	-39.0	22.8	0.00e+00	88	28	0	101711872	48	6407
2026-01-05 02:32:48.90	247.95	16.44	-38.2	-39.2	22.5	0.00e+00	74	28	0	106954752	48	6579
2026-01-05 02:32:51.93	248.56	16.59	-38.0	-39.0	22.8	0.00e+00	0	28	0	113246208	48	6404
2026-01-05 02:32:54.95	249.17	16.75	-38.3	-39.3	22.4	0.00e+00	92	28	0	118489088	48	6648
2026-01-05 02:32:57.98	249.78	16.90	-38.7	-39.7	22.2	0.00e+00	91	28	0	123731968	50	6211
2026-01-05 02:33:01.02	250.41	17.05	-38.8	-39.9	22.1	0.00e+00	0	28	0	130023424	50	6319
2026-01-05 02:33:04.04	251.03	17.20	-38.9	-40.0	21.9	0.00e+00	92	28	0	135266304	50	6396
2026-01-05 02:33:07.07	251.67	17.34	-39.1	-40.2	21.7	0.00e+00	41	28	0	141557760	50	6564
2026-01-05 02:33:10.10	252.31	17.48	-39.3	-40.4	21.7	0.00e+00	0	28	0	146800640	50	6693
2026-01-05 02:33:13.13	252.95	17.62	-39.6	-40.7	21.4	0.00e+00	0	28	0	152043520	52	6201
2026-01-05 02:33:16.17	253.61	17.76	-39.5	-40.6	21.6	0.00e+00	92	28	0	158334976	52	6121
2026-01-05 02:33:19.20	254.26	17.90	-40.1	-41.2	21.2	0.00e+00	71	28	0	163577856	52	6592
2026-01-05 02:33:22.22	254.92	18.03	-39.5	-40.6	21.6	0.00e+00	0	28	0	169869312	52	6127
2026-01-05 02:33:25.25	255.59	18.16	-38.7	-39.7	22.4	0.00e+00	92	28	0	175112192	50	6191
2026-01-05 02:33:28.28	256.27	18.28	-39.1	-40.2	21.9	0.00e+00	92	28	0	181403648	50	6563
2026-01-05 02:33:31.31	256.95	18.40	-38.7	-39.7	22.4	0.00e+00	0	28	0	186646528	50	6198
2026-01-05 02:33:34.34	257.63	18.52	-38.7	-39.8	22.4	0.00e+00	92	28	0	191889408	50	6251
2026-01-05 02:33:37.37	258.32	18.64	-39.9	-41.0	21.7	0.00e+00	75	28	0	198180864	52	6423
2026-01-05 02:33:40.40	259.02	18.75	-38.1	-39.1	22.8	0.00e+00	0	28	0	203423744	50	5778
2026-01-05 02:33:43.43	259.71	18.86	-37.7	-38.6	23.2	0.00e+00	0	28	0	209715200	48	6117
2026-01-05 02:33:46.46	260.42	18.96	-38.2	-39.1	22.9	0.00e+00	92	28	0	214958080	48	6509
2026-01-05 02:33:49.48	261.13	19.06	-37.6	-38.5	23.4	0.00e+00	59	28	0	220200960	48	6040
2026-01-05 02:33:52.51	261.84	19.16	-37.4	-38.3	23.5	0.00e+00	0	28	0	226492416	48	5909
2026-01-05 02:33:55.54	262.56	19.25	-36.8	-37.7	24.0	0.00e+00	92	28	0	231735296	48	5515
2026-01-05 02:33:58.57	263.28	19.34	-37.0	-37.8	23.8	0.00e+00	90	28	0	238026752	46	6312
2026-01-05 02:34:01.60	264.00	19.42	-37.2	-38.1	23.2	0.00e+00	0	28	0	243269632	46	6519
2026-01-05 02:34:04.63	264.73	19.50	-37.0	-37.9	23.6	0.00e+00	34	28	0	249561088	46	6346
2026-01-05 02:34:07.66	265.47	19.58	-38.0	-39.0	22.9	0.00e+00	92	28	0	254803968	48	6403
2026-01-05 02:34:10.69	266.20	19.65	-37.4	-38.3	23.5	0.00e+00	0	28	0	260046848	48	5942
2026-01-05 02:34:13.72	266.94	19.72	-37.5	-38.4	23.2	0.00e+00	0	28	0	266338304	48	6026
2026-01-05 02:34:16.75	267.69	19.78	-37.3	-38.2	23.5	0.00e+00	90	28	0	271581184	48	5840
2026-01-05 02:34:19.78	268.43	19.84	-37.2	-38.1	23.5	0.00e+00	92	28	0	277872640	48	5802
2026-01-05 02:34:22.81	269.18	19.89	-38.3	-39.2	22.7	0.00e+00	0	28	0	283115520	48	6615
2026-01-05 02:34:25.84	269.93	19.94	-38.1	-39.0	22.8	0.00e+00	90	28	0	288358400	48	6446
2026-01-05 02:34:28.87	270.68	19.98	-38.8	-39.8	22.2	0.00e+00	92	28	0	294649856	50	6284
2026-01-05 02:34:31.90	271.44	20.02	-38.2	-39.1	22.8	0.00e+00	0	28	0	299892736	50	5787
2026-01-05 02:34:34.92	272.19	20.06	-37.9	-38.8	23.2	0.00e+00	0	28	0	306184192	50	5583
2026-01-05 02:34:37.95	272.95	20.08	-37.9	-38.8	23.1	0.00e+00	91	28	0	311427072	48	6298
2026-01-05 02:34:40.98	273.71	20.11	-37.8	-38.7	23.1	0.00e+00	73	28	0	317718528	48	6188
2026-01-05 02:34:44.01	274.47	20.13	-38.1	-39.1	22.9	0.00e+00	0	28	0	322961408	48	6496
2026-01-05 02:34:47.04	275.23	20.14	-39.0	-40.0	22.1	0.00e+00	84	28	0	328204288	50	6457
2026-01-05 02:34:50.07	275.99	20.15	-38.6	-39.6	22.4	0.00e+00	92	28	0	334495744	50	6169
2026-01-05 02:34:53.11	276.76	20.16	-38.7	-39.7	22.4	0.00e+00	0	28	0	339738624	50	6214
2026-01-05 02:34:56.14	277.52	20.16	-38.9	-39.9	22.5	0.00e+00	92	28	0	346030080	50	6335
2026-01-05 02:34:59.17	278.28	20.15	-38.8	-39.8	22.2	0.00e+00	55	28	0	351272960	50	6284
2026-01-05 02:35:02.19	279.04	20.14	-38.8	-39.8	22.4	0.00e+00	0	28	0	356515840	50	6260
2026-01-05 02:35:05.22	279.80	20.12	-38.8	-39.8	22.4	0.00e+00	0	28	0	362807296	50	6279
2026-01-05 02:35:08.25	280.56	20.10	-38.9	-40.0	22.1	0.00e+00	88	28	0	368050176	50	6404
2026-01-05 02:35:11.28	281.31	20.08	-38.6	-39.6	22.4	0.00e+00	92	28	0	374341632	50	6173
2026-01-05 02:35:14.31	282.07	20.05	-38.9	-39.9	22.1	0.00e+00	0	28	0	379584512	50	6360
2026-01-05 02:35:17.34	282.83	20.01	-38.4	-39.4	22.5	0.00e+00	92	28	0	385875968	50	6004
2026-01-05 02:35:20.35	283.58	19.97	-37.9	-38.8	23.0	0.00e+00	30	28	0	391118848	50	5629
2026-01-05 02:35:23.38	284.33	19.93	-37.8	-38.8	23.0	0.00e+00	0	28	0	396361728	48	6263
2026-01-05 02:35:26.42	285.08	19.88	-38.3	-39.3	22.6	0.00e+00	0	28	0	402653184	48	6658
2026-01-05 02:35:29.45	285.82	19.82	-38.4	-39.4	22.6	0.00e+00	86	28	0	407896064	48	6710
2026-01-05 02:35:32.47	286.57	19.76	-38.2	-39.2	22.8	0.00e+00	9	28	0	414187520	48	6551
2026-01-05 02:35:35.50	287.31	19.70	-38.0	-39.0	22.9	0.00e+00	0	28	0	419430400	48	6403
2026-01-05 02:35:38.53	288.04	19.63	-38.1	-39.1	22.9	0.00e+00	92	28	0	424673280	48	6484
2026-01-05 02:35:41.55	288.78	19.56	-38.0	-38.9	23.2	0.00e+00	92	28	0	430964736	48	6350
2026-01-05 02:35:44.58	289.51	19.48	-37.9	-38.9	22.9	0.00e+00	0	28	0	436207616	48	6335
2026-01-05 02:35:47.61	290.23	19.40	-37.8	-38.8	23.0	0.00e+00	59	28	0	442499072	48	6270
2026-01-05 02:35:50.64	290.96	19.32	-38.1	-39.1	22.7	0.00e+00	13	28	0	447741952	48	6476
2026-01-05 02:35:53.67	291.67	19.23	-39.1	-40.2	21.9	0.00e+00	0	28	0	454033408	50	6549
2026-01-05 02:35:56.70	292.39	19.13	-38.8	-39.8	22.3	0.00e+00	0	28	0	459276288	50	6308
2026-01-05 02:35:59.73	293.10	19.04	-37.8	-38.8	23.0	0.00e+00	91	28	0	464519168	48	6259
2026-01-05 02:36:02.76	293.81	18.93	-38.4	-39.3	22.7	0.00e+00	30	28	0	470810624	48	6680
2026-01-05 02:36:05.79	294.51	18.83	-38.5	-39.5	22.6	0.00e+00	0	28	0	476053504	48	6784
2026-01-05 02:36:08.82	295.20	18.72	-38.0	-38.9	23.1	0.00e+00	92	28	0	482344960	48	6336
2026-01-05 02:36:11.85	295.89	18.61	-38.2	-39.2	22.8	0.00e+00	92	28	0	487587840	48	6588
2026-01-05 02:36:14.88	296.58	18.49	-38.0	-38.9	23.0	0.00e+00	0	28	0	492830720	50	5695
2026-01-05 02:36:17.91	297.26	18.37	-36.9	-37.8	23.9	0.00e+00	0	28	0	499122176	48	5575
2026-01-05 02:36:20.94	297.94	18.25	-37.1	-38.0	23.6	0.00e+00	40	28	0	504365056	48	5722
2026-01-05 02:36:23.97	298.61	18.13	-37.5	-38.4	23.4	0.00e+00	0	28	0	510656512	48	6017
2026-01-05 02:36:27.01	299.27	18.00	-37.2	-38.1	23.5	0.00e+00	0	28	0	515899392	48	5803
2026-01-05 02:36:30.04	299.93	17.86	-37.8	-38.7	23.2	0.00e+00	55	28	0	522190848	48	6213
2026-01-05 02:36:33.07	300.59	17.73	-37.8	-38.7	23.0	0.00e+00	92	28	0	527433728	48	6201
2026-01-05 02:36:36.10	301.23	17.59	-37.7	-38.7	23.1	0.00e+00	0	28	0	532676608	48	6180
2026-01-05 02:36:39.13	301.88	17.45	-37.8	-38.7	23.1	0.00e+00	92	28	0	538968064	48	6195
2026-01-05 02:36:42.16	302.51	17.31	-38.2	-39.1	23.0	0.00e+00	4	28	0	544210944	48	6498
2026-01-05 02:36:45.19	303.14	17.17	-38.8	-39.8	22.3	0.00e+00	0	28	0	550502400	48	7047
2026-01-05 02:36:48.22	303.77	17.02	-39.2	-40.3	22.2	0.00e+00	0	28	0	555745280	50	6618
2026-01-05 02:36:51.25	304.39	16.87	-38.5	-39.5	22.5	0.00e+00	71	28	0	562036736	50	6056
2026-01-05 02:36:54.28	305.00	16.72	-38.4	-39.4	22.8	0.00e+00	0	28	0	567279616	50	5982
2026-01-05 02:36:57.30	305.60	16.56	-37.9	-38.9	23.0	0.00e+00	0	28	0	572522496	50	5643
2026-01-05 02:37:00.33	306.20	16.41	-38.3	-39.3	22.7	0.00e+00	92	28	0	578813952	50	5925
2026-01-05 02:37:03.36	306.80	16.25	-39.1	-40.2	22.0	0.00e+00	71	28	0	584056832	50	6549
2026-01-05 02:37:06.39	307.38	16.09	-40.5	-41.7	21.3	0.00e+00	0	28	0	590348288	52	6949
2026-01-05 02:37:09.42	307.97	15.93	-39.7	-40.8	21.7	0.00e+00	0	28	0	595591168	52	6287
2026-01-05 02:37:12.44	308.54	15.77	-39.2	-40.2	22.3	0.00e+00	41	28	0	600834048	52	5876
2026-01-05 02:37:15.47	309.11	15.60	-38.4	-39.4	22.7	0.00e+00	0	28	0	607125504	50	5968
2026-01-05 02:37:18.50	309.67	15.44	-38.4	-39.4	22.6	0.00e+00	0	28	0	612368384	50	5994
2026-01-05 02:37:21.54	310.23	15.27	-39.2	-40.3	22.0	0.00e+00	92	28	0	618659840	50	6641
2026-01-05 02:37:24.56	310.78	15.10	-40.1	-41.2	21.4	0.00e+00	17	28	0	623902720	52	6610
2026-01-05 02:37:27.59	311.33	14.93	-39.0	-40.0	22.2	0.00e+00	0	28	0	630194176	52	5729
2026-01-05 02:37:30.62	311.87	14.76	-38.8	-39.8	22.3	0.00e+00	65	28	0	635437056	50	6317
2026-01-05 02:37:33.65	312.40	14.59	-38.6	-39.7	22.2	0.00e+00	92	28	0	640679936	50	6175
2026-01-05 02:37:36.68	312.93	14.41	-38.2	-39.2	22.7	0.00e+00	0	28	0	646971392	50	5868
2026-01-05 02:37:39.71	313.45	14.24	-38.4	-39.4	22.6	0.00e+00	0	28	0	652214272	50	5969
2026-01-05 02:37:42.74	313.96	14.06	-38.7	-39.8	22.1	0.00e+00	0	28	0	658505728	50	6247
2026-01-05 02:37:45.77	314.47	13.89	-38.7	-39.8	22.3	0.00e+00	0	28	0	663748608	50	6265
2026-01-05 02:37:48.80	314.98	13.71	-38.0	-39.0	22.6	0.00e+00	0	28	0	668991488	50	5696
2026-01-05 02:37:51.83	315.47	13.53	-38.5	-39.5	22.4	0.00e+00	90	28	0	675282944	50	6064
2026-01-05 02:37:54.86	315.96	13.36	-38.7	-39.8	22.1	0.00e+00	41	28	0	680525824	50	6268
2026-01-05 02:37:57.89	316.45	13.18	-39.2	-40.2	22.2	0.00e+00	0	28	0	686817280	50	6600
2026-01-05 02:38:00.92	316.93	13.00	-39.5	-40.5	22.2	0.00e+00	0	28	0	692060160	50	6835
2026-01-05 02:38:03.95	317.41	12.82	-39.9	-41.0	21.9	0.00e+00	68	28	0	698351616	52	6412
2026-01-05 02:38:06.97	317.87	12.64	-38.7	-39.7	22.7	0.00e+00	0	28	0	703594496	52	5539
2026-01-05 02:38:10.00	318.34	12.46	-38.4	-39.3	23.2	0.00e+00	0	28	0	708837376	48	6660
2026-01-05 02:38:13.03	318.80	12.28	-37.8	-38.7	23.0	0.00e+00	92	28	0	715128832	48	6244
2026-01-05 02:38:16.06	319.25	12.10	-38.1	-39.1	22.7	0.00e+00	0	28	0	720371712	48	6476
2026-01-05 02:38:19.09	319.70	11.92	-38.3	-39.3	22.5	0.00e+00	0	28	0	726663168	48	6668
2026-01-05 02:38:22.11	320.14	11.74	-38.0	-38.9	22.9	0.00e+00	0	28	0	731906048	48	6370
2026-01-05 02:38:25.14	320.57	11.56	-38.4	-39.4	22.8	0.00e+00	37	28	0	737148928	48	6708
2026-01-05 02:38:28.17	321.01	11.37	-38.9	-40.0	22.0	0.00e+00	0	28	0	743440384	50	6402
2026-01-05 02:38:31.20	321.43	11.19	-38.8	-39.9	22.2	0.00e+00	0	28	0	748683264	50	6336
2026-01-05 02:38:34.23	321.85	11.01	-38.0	-38.9	22.8	0.00e+00	92	28	0	754974720	50	5693
2026-01-05 02:38:37.26	322.27	10.83	-38.1	-39.0	22.8	0.00e+00	0	28	0	760217600	50	5737
2026-01-05 02:38:40.29	322.68	10.65	-38.3	-39.3	22.3	0.00e+00	0	28	0	765460480	50	5955
2026-01-05 02:38:43.31	323.09	10.47	-39.8	-40.9	21.1	0.00e+00	0	28	0	771751936	50	7160
2026-01-05 02:38:46.34	323.49	10.29	-39.7	-40.8	21.3	0.00e+00	0	28	0	776994816	52	6313
2026-01-05 02:38:49.37	323.89	10.10	-39.2	-40.4	21.6	0.00e+00	0	28	0	783286272	52	5976
2026-01-05 02:38:52.40	324.28	9.92	-39.1	-40.1	21.6	0.00e+00	0	28	0	788529152	52	5824
2026-01-05 02:38:55.43	324.67	9.74	-39.2	-40.3	21.4	0.00e+00	29	28	0	794820608	52	5950
2026-01-05 02:38:58.46	325.05	9.56	-39.0	-40.1	21.4	0.00e+00	0	28	0	800063488	52	5801
2026-01-05 02:39:01.49	325.43	9.38	-38.7	-39.8	21.8	0.00e+00	0	28	0	805306368	50	6249
2026-01-05 02:39:04.52	325.80	9.20	-38.9	-40.0	21.6	0.00e+00	64	28	0	811597824	50	6395
2026-01-05 02:39:07.54	326.17	9.02	-39.1	-40.2	21.2	0.00e+00	0	28	0	816840704	50	6565
2026-01-05 02:39:10.58	326.54	8.84	-39.0	-40.2	21.3	0.00e+00	0	28	0	823132160	50	6575
2026-01-05 02:39:13.60	326.90	8.66	-38.6	-39.7	21.8	0.00e+00	27	28	0	828375040	50	6176
2026-01-05 02:39:16.63	327.26	8.49	-38.5	-39.6	22.0	0.00e+00	0	28	0	833617920	50	6107
2026-01-05 02:39:19.66	327.61	8.31	-38.7	-39.8	22.0	0.00e+00	0	28	0	839909376	50	6250
2026-01-05 02:39:22.68	327.96	8.13	-39.0	-40.1	21.4	0.00e+00	0	28	0	845152256	50	6478
2026-01-05 02:39:25.72	328.30	7.95	-39.6	-40.8	20.8	0.00e+00	64	28	0	851443712	50	7053
2026-01-05 02:39:28.75	328.64	7.77	-39.4	-40.6	20.9	0.00e+00	0	28	0	856686592	50	6894
2026-01-05 02:39:31.78	328.98	7.60	-39.4	-40.5	21.4	0.00e+00	0	28	0	862978048	50	6771
2026-01-05 02:39:34.81	329.31	7.42	-39.0	-40.1	21.9	0.00e+00	90	28	0	868220928	50	6498
2026-01-05 02:39:37.84	329.64	7.25	-39.1	-40.1	21.6	0.00e+00	0	28	0	873463808	50	6527
2026-01-05 02:39:40.86	329.97	7.07	-39.5	-40.7	20.9	0.00e+00	0	28	0	879755264	50	6968
2026-01-05 02:39:43.89	330.29	6.90	-40.0	-41.3	20.6	0.00e+00	0	28	0	884998144	52	6641
2026-01-05 02:39:46.92	330.61	6.72	-40.3	-41.6	20.2	0.00e+00	68	28	0	891289600	52	6895
2026-01-05 02:39:49.95	330.92	6.55	-40.3	-41.6	20.2	0.00e+00	0	28	0	896532480	52	6872
2026-01-05 02:39:52.98	331.23	6.37	-41.1	-42.6	19.5	0.00e+00	0	28	0	901775360	54	6865
2026-01-05 02:39:56.01	331.54	6.20	-41.1	-42.7	18.8	0.00e+00	79	28	0	908066816	54	6987
2026-01-05 02:39:59.04	331.84	6.03	-41.3	-42.9	18.8	0.00e+00	33	28	0	913309696	54	7163
2026-01-05 02:40:02.07	332.14	5.86	-41.1	-42.7	18.9	0.00e+00	0	28	0	919601152	54	6945
2026-01-05 02:40:05.10	332.44	5.68	-40.6	-42.2	19.2	0.00e+00	92	28	0	924844032	54	6560
2026-01-05 02:40:08.13	332.73	5.51	-41.1	-42.8	18.2	0.00e+00	33	28	0	931135488	54	7060
2026-01-05 02:40:11.16	333.02	5.34	-41.6	-43.7	16.7	0.00e+00	0	28	0	936378368	54	7859
2026-01-05 02:40:14.19	333.31	5.17	-42.6	-46.2	13.1	7.00e-07	0	28	0	941621248	56	9246
2026-01-05 02:40:17.22	333.60	5.00	-43.3	-48.7	9.4	9.12e-03	65	28	0	947912704	58	11007
2026-01-05 02:40:20.25	333.88	4.83	-43.6	-50.6	6.9	1.91e-01	0	28	0	953155584	58	13730
2026-01-05 02:40:23.27	334.15	4.67	-43.5	-52.3	4.6	6.45e-01	0	28	0	959447040	58	16620
2026-01-05 02:40:26.30	334.43	4.50	-43.6	-55.7	3.9	1.48e+00	0	28	104	961544192	58	24838
2026-01-05 02:40:29.33	334.70	4.33	-43.5	-57.0	3.6	1.50e+00	0	28	104	961544192	58	28853
2026-01-05 02:40:32.35	334.97	4.16	-43.7	-58.0	3.6	1.51e+00	0	28	104	961544192	60	28598
2026-01-05 02:40:35.38	335.24	4.00	-43.7	-58.8	3.6	1.51e+00	0	28	104	961544192	60	31640
2026-01-05 02:40:38.41	335.50	3.83	-43.7	-58.6	3.6	1.51e+00	0	28	104	961544192	60	30910
2026-01-05 02:40:41.43	335.76	3.67	-43.7	-58.7	3.6	1.51e+00	0	28	104	961544192	60	31208
2026-01-05 02:40:44.46	336.02	3.50	-43.7	-58.8	3.6	1.51e+00	0	28	104	961544192	60	31405
2026-01-05 02:40:47.49	336.27	3.34	-43.8	-58.9	3.6	1.51e+00	0	28	104	961544192	60	31768
2026-01-05 02:40:50.52	336.53	3.17	-43.6	-58.7	3.6	1.51e+00	0	28	104	961544192	60	31150
2026-01-05 02:40:53.55	336.78	3.01	-43.5	-58.6	3.6	1.51e+00	0	28	104	961544192	60	30891
2026-01-05 02:40:56.58	337.02	2.85	-48.5	-63.7	3.6	1.51e+00	0	28	104	961544192	60	55187
2026-01-05 02:40:59.60	337.27	2.69	-48.7	-63.9	3.6	1.51e+00	0	28	104	961544192	60	56492
2026-01-05 02:41:02.63	337.51	2.53	-49.0	-64.2	3.6	1.51e+00	0	28	104	961544192	60	58809
2026-01-05 02:41:05.66	337.75	2.37	-48.9	-64.2	3.6	1.51e+00	0	28	104	961544192	60	58735
2026-01-05 02:41:08.69	337.99	2.21	-49.0	-64.2	3.6	1.51e+00	0	28	104	961544192	60	58719
2026-01-05 02:41:11.72	338.22	2.05	-48.8	-64.1	3.6	1.51e+00	0	28	104	961544192	60	57728
2026-01-05 02:41:14.74	338.45	1.89	-49.0	-64.1	3.6	1.51e+00	0	28	104	961544192	60	58145
2026-01-05 02:41:17.77	338.68	1.73	-48.9	-64.0	3.6	1.51e+00	0	28	104	961544192	60	57291
2026-01-05 02:41:20.80	338.91	1.57	-48.9	-64.0	3.6	1.51e+00	0	28	104	961544192	60	57409
2026-01-05 02:41:23.83	339.14	1.41	-49.0	-64.2	3.6	1.51e+00	0	28	104	961544192	60	58441
2026-01-05 02:41:26.86	339.36	1.26	-49.0	-64.2	3.6	1.51e+00	0	28	104	961544192	60	58592
2026-01-05 02:41:29.88	339.58	1.10	-49.1	-64.3	3.6	1.51e+00	0	28	104	961544192	60	59052
2026-01-05 02:41:32.91	339.80	0.94	-50.0	-65.1	3.6	1.51e+00	0	28	104	961544192	60	65387
2026-01-05 02:41:35.94	340.02	0.79	-50.5	-65.7	3.6	1.51e+00	0	28	104	961544192	60	69752
2026-01-05 02:41:38.97	340.23	0.63	-49.6	-64.8	3.6	1.51e+00	0	28	104	961544192	60	62647
2026-01-05 02:41:42.00	340.45	0.48	-49.5	-64.7	3.6	1.51e+00	0	28	104	961544192	60	61982
2026-01-05 02:41:45.03	340.66	0.32	-49.6	-64.8	3.6	1.51e+00	0	28	104	961544192	60	62988
2026-01-05 02:41:48.06	340.87	0.17	-49.3	-64.4	3.6	1.51e+00	0	28	104	961544192	60	60303
2026-01-05 02:41:51.09	341.07	0.02	-49.7	-64.9	3.6	1.51e+00	0	28	104	961544192	60	63259

#Closed at: 2026-01-05 02:41:54
#Recorded file [961 MB]: D:/lorett/data/35029_260105_143056.dat