passes_logs/2026/01/05/R4.6S_Anadyr/R4.6S_Anadyr__20260105_161207_SUOMI_NPP_rec.log

#Pass ID: 20260105_161207_SUOMI NPP
#Satellite: SUOMI NPP
#Configuration: NPP
#almurnet v.1.7.20251203
#Start time: 2026-01-05 16:12:08

#Version: 2.2.20231116
#Station: R4.6S_Anadyr
#Location: 177.4865 lon 64.73178 lat
#TLE: 1 37849U 11061A   26004.95404768  .00000136  00000+0  85334-4 0  9991
#TLE: 2 37849  98.7801 307.0898 0002574  80.6707 279.4760 14.19522289735280

#Time	Az	El	Level	Level2	SNR	BER	BlckErr	Temp	State	Recorded	gain1	gain2
2026-01-05 16:12:08.39	24.76	0.07	-48.8	-66.6	3.5	3.02e+01	0	29	0	0	60	82724
2026-01-05 16:12:12.43	24.63	0.31	-48.6	-63.9	3.6	1.51e+00	0	31	104	0	60	56322
2026-01-05 16:12:16.47	24.50	0.55	-48.6	-63.7	3.6	1.51e+00	0	31	104	0	60	55411
2026-01-05 16:12:20.51	24.36	0.78	-48.1	-63.3	3.6	1.51e+00	0	31	104	0	60	52800
2026-01-05 16:12:24.55	24.22	1.02	-47.2	-62.3	3.6	1.51e+00	0	31	104	0	60	47346
2026-01-05 16:12:28.59	24.08	1.26	-47.2	-62.4	3.6	1.51e+00	0	31	104	0	60	47379
2026-01-05 16:12:32.63	23.93	1.51	-47.2	-62.3	3.6	1.51e+00	0	31	104	0	60	47201
2026-01-05 16:12:36.67	23.79	1.75	-47.2	-62.3	3.6	1.51e+00	0	31	104	0	60	47150
2026-01-05 16:12:40.71	23.64	2.00	-47.2	-62.1	3.6	1.51e+00	0	31	104	0	60	45804
2026-01-05 16:12:44.75	23.48	2.25	-47.2	-62.4	3.6	1.51e+00	0	31	104	0	60	47467
2026-01-05 16:12:48.79	23.33	2.50	-47.2	-62.2	3.6	1.51e+00	0	31	104	0	60	46372
2026-01-05 16:12:52.83	23.17	2.75	-47.2	-61.8	3.6	1.51e+00	0	31	104	0	60	44333
2026-01-05 16:12:56.87	23.01	3.01	-47.2	-62.0	3.6	1.51e+00	0	31	104	0	60	45765
2026-01-05 16:13:00.91	22.84	3.26	-46.9	-56.8	4.5	1.21e+00	0	31	0	0	60	25066
2026-01-05 16:13:04.95	22.67	3.52	-45.9	-51.3	9.5	3.16e-02	0	31	0	6291456	60	13292
2026-01-05 16:13:08.99	22.50	3.78	-47.1	-60.5	3.6	8.39e-01	0	32	104	9437184	60	38151
2026-01-05 16:13:13.03	22.33	4.05	-40.1	-41.6	19.8	0.00e+00	0	31	0	11534336	54	6109
2026-01-05 16:13:17.07	22.15	4.31	-40.1	-41.5	19.8	0.00e+00	0	31	0	19922944	52	6811
2026-01-05 16:13:21.11	21.96	4.58	-40.0	-41.4	19.9	0.00e+00	0	31	0	27262976	52	6728
2026-01-05 16:13:25.15	21.78	4.85	-39.8	-41.1	20.2	0.00e+00	0	31	0	34603008	52	6519
2026-01-05 16:13:29.18	21.59	5.12	-39.8	-41.2	20.2	0.00e+00	0	32	0	41943040	52	6541
2026-01-05 16:13:33.22	21.40	5.40	-40.0	-41.3	20.1	0.00e+00	0	31	0	49283072	52	6652
2026-01-05 16:13:37.25	21.20	5.68	-40.0	-41.3	20.1	0.00e+00	0	32	0	57671680	52	6674
2026-01-05 16:13:41.29	21.00	5.96	-39.8	-41.1	20.3	0.00e+00	0	32	0	65011712	52	6538
2026-01-05 16:13:45.33	20.79	6.24	-39.9	-41.3	20.2	0.00e+00	0	32	0	72351744	52	6627
2026-01-05 16:13:49.36	20.58	6.53	-39.6	-40.9	20.6	0.00e+00	0	32	0	79691776	52	6344
2026-01-05 16:13:53.39	20.37	6.82	-39.6	-40.8	20.6	0.00e+00	0	32	0	88080384	52	6282
2026-01-05 16:13:57.43	20.15	7.11	-39.7	-40.9	20.6	0.00e+00	0	32	0	95420416	52	6381
2026-01-05 16:14:01.47	19.92	7.40	-39.5	-40.7	20.8	0.00e+00	0	32	0	102760448	52	6188
2026-01-05 16:14:05.51	19.69	7.70	-39.3	-40.5	21.0	0.00e+00	0	32	0	110100480	52	6051
2026-01-05 16:14:09.54	19.46	8.00	-39.1	-40.3	21.3	0.00e+00	0	32	0	117440512	52	5899
2026-01-05 16:14:13.57	19.22	8.30	-39.1	-40.3	21.3	0.00e+00	0	32	0	125829120	52	5911
2026-01-05 16:14:17.61	18.98	8.61	-39.2	-40.4	21.2	0.00e+00	0	32	0	133169152	52	6004
2026-01-05 16:14:21.65	18.73	8.92	-39.7	-40.9	20.6	0.00e+00	0	32	0	140509184	52	6364
2026-01-05 16:14:25.68	18.47	9.23	-39.5	-40.7	21.0	0.00e+00	0	32	0	147849216	52	6224
2026-01-05 16:14:29.72	18.21	9.55	-39.4	-40.6	21.1	0.00e+00	0	32	0	156237824	52	6110
2026-01-05 16:14:33.76	17.94	9.87	-38.8	-39.9	21.7	0.00e+00	0	32	0	163577856	50	6346
2026-01-05 16:14:37.79	17.67	10.20	-38.9	-40.0	21.6	0.00e+00	0	32	0	170917888	50	6413
2026-01-05 16:14:41.82	17.39	10.52	-38.9	-40.0	21.7	0.00e+00	0	32	0	178257920	50	6435
2026-01-05 16:14:45.86	17.10	10.85	-38.3	-39.3	22.2	0.00e+00	0	32	0	185597952	50	5945
2026-01-05 16:14:49.89	16.80	11.19	-38.3	-39.3	22.2	0.00e+00	0	32	0	193986560	50	5951
2026-01-05 16:14:53.93	16.50	11.53	-38.3	-39.3	22.2	0.00e+00	0	32	0	201326592	50	5961
2026-01-05 16:14:57.97	16.19	11.87	-38.4	-39.4	22.2	0.00e+00	0	32	0	208666624	50	6008
2026-01-05 16:15:02.00	15.88	12.22	-38.6	-39.6	22.0	0.00e+00	0	32	0	216006656	50	6166
2026-01-05 16:15:06.04	15.55	12.57	-38.3	-39.4	22.2	0.00e+00	0	32	0	223346688	50	5982
2026-01-05 16:15:10.08	15.22	12.92	-38.1	-39.0	22.5	0.00e+00	0	32	0	231735296	50	5759
2026-01-05 16:15:14.12	14.88	13.28	-38.2	-39.3	22.4	0.00e+00	0	32	0	239075328	50	5907
2026-01-05 16:15:18.15	14.53	13.64	-38.4	-39.5	22.2	0.00e+00	0	32	0	246415360	50	6039
2026-01-05 16:15:22.18	14.17	14.01	-38.6	-39.7	22.2	0.00e+00	0	32	0	253755392	50	6176
2026-01-05 16:15:26.21	13.80	14.38	-38.4	-39.4	22.2	0.00e+00	0	32	0	262144000	50	6033
2026-01-05 16:15:30.25	13.42	14.76	-37.9	-38.9	22.7	0.00e+00	0	32	0	269484032	50	5643
2026-01-05 16:15:34.28	13.03	15.14	-37.8	-38.8	22.8	0.00e+00	0	32	0	276824064	48	6266
2026-01-05 16:15:38.31	12.63	15.52	-37.6	-38.5	23.1	0.00e+00	0	32	0	284164096	48	6091
2026-01-05 16:15:42.35	12.22	15.91	-38.2	-39.2	22.5	0.00e+00	0	32	0	291504128	48	6542
2026-01-05 16:15:46.38	11.80	16.31	-37.5	-38.4	23.0	0.00e+00	0	32	0	299892736	48	5989
2026-01-05 16:15:50.42	11.37	16.71	-38.7	-39.8	22.0	0.00e+00	0	32	0	307232768	50	6291
2026-01-05 16:15:54.45	10.92	17.11	-37.9	-38.8	22.6	0.00e+00	0	32	0	314572800	50	5622
2026-01-05 16:15:58.49	10.46	17.52	-38.0	-39.0	22.7	0.00e+00	0	32	0	321912832	50	5698
2026-01-05 16:16:02.52	9.99	17.94	-37.7	-38.7	23.0	0.00e+00	0	32	0	329252864	48	6174
2026-01-05 16:16:06.56	9.51	18.36	-37.8	-38.8	22.9	0.00e+00	0	32	0	337641472	48	6284
2026-01-05 16:16:10.60	9.01	18.78	-38.2	-39.2	22.4	0.00e+00	0	32	0	344981504	48	6562
2026-01-05 16:16:14.63	8.50	19.21	-37.8	-38.7	23.0	0.00e+00	0	32	0	352321536	48	6230
2026-01-05 16:16:18.66	7.97	19.64	-37.8	-38.8	22.8	0.00e+00	0	32	0	359661568	48	6246
2026-01-05 16:16:22.69	7.42	20.08	-38.1	-39.1	22.5	0.00e+00	0	32	0	367001600	48	6535
2026-01-05 16:16:26.72	6.86	20.53	-38.5	-39.6	22.2	0.00e+00	0	32	0	375390208	48	6861
2026-01-05 16:16:30.75	6.29	20.98	-38.0	-39.0	22.8	0.00e+00	0	32	0	382730240	48	6403
2026-01-05 16:16:34.79	5.69	21.43	-37.8	-38.7	23.0	0.00e+00	0	32	0	390070272	48	6223
2026-01-05 16:16:38.82	5.08	21.89	-38.5	-39.6	22.3	0.00e+00	0	32	0	397410304	48	6856
2026-01-05 16:16:42.85	4.45	22.35	-39.3	-40.5	21.2	0.00e+00	0	32	0	405798912	50	6803
2026-01-05 16:16:46.89	3.80	22.82	-38.7	-39.7	22.3	0.00e+00	0	32	0	413138944	50	6238
2026-01-05 16:16:50.93	3.13	23.29	-39.0	-40.1	21.9	0.00e+00	0	32	0	420478976	50	6534
2026-01-05 16:16:54.96	2.43	23.77	-38.6	-39.7	22.3	0.00e+00	0	32	0	427819008	50	6192
2026-01-05 16:16:59.00	1.72	24.25	-37.8	-38.7	23.0	0.00e+00	0	32	0	435159040	48	6202
2026-01-05 16:17:03.03	0.98	24.74	-37.8	-38.7	23.0	0.00e+00	0	32	0	443547648	48	6208
2026-01-05 16:17:07.07	0.22	25.22	-38.0	-39.0	22.6	0.00e+00	0	32	0	450887680	48	6401
2026-01-05 16:17:11.11	359.43	25.72	-38.6	-39.7	22.3	0.00e+00	0	32	0	458227712	48	6944
2026-01-05 16:17:15.15	358.62	26.21	-39.5	-40.7	21.4	0.00e+00	0	32	0	465567744	50	6928
2026-01-05 16:17:19.18	357.78	26.71	-39.9	-41.1	21.0	0.00e+00	0	32	0	473956352	52	6529
2026-01-05 16:17:23.22	356.92	27.21	-40.1	-41.4	20.8	0.00e+00	0	32	0	481296384	52	6706
2026-01-05 16:17:27.26	356.03	27.71	-41.4	-43.0	19.4	0.00e+00	0	32	0	488636416	54	7194
2026-01-05 16:17:31.30	355.10	28.21	-40.9	-42.4	20.1	0.00e+00	0	32	0	495976448	54	6725
2026-01-05 16:17:35.34	354.15	28.72	-39.8	-41.0	21.2	0.00e+00	0	32	0	503316480	52	6434
2026-01-05 16:17:39.38	353.17	29.22	-39.7	-40.9	21.5	0.00e+00	0	32	0	511705088	52	6341
2026-01-05 16:17:43.41	352.16	29.72	-38.7	-39.8	22.2	0.00e+00	0	32	0	519045120	50	6258
2026-01-05 16:17:47.44	351.11	30.22	-39.8	-41.0	21.1	0.00e+00	0	32	0	526385152	52	6444
2026-01-05 16:17:51.48	350.03	30.72	-40.2	-41.4	20.8	0.00e+00	0	32	0	533725184	54	5995
2026-01-05 16:17:55.51	348.92	31.22	-39.7	-40.9	21.5	0.00e+00	0	32	0	542113792	52	6335
2026-01-05 16:17:59.54	347.77	31.70	-39.5	-40.6	21.8	0.00e+00	0	32	0	549453824	52	6123
2026-01-05 16:18:03.58	346.59	32.19	-39.4	-40.6	21.4	0.00e+00	0	32	0	556793856	52	6120
2026-01-05 16:18:07.61	345.37	32.67	-40.6	-41.9	20.6	0.00e+00	0	32	0	564133888	52	7104
2026-01-05 16:18:11.65	344.12	33.14	-40.3	-41.6	20.8	0.00e+00	0	32	0	571473920	52	6856
2026-01-05 16:18:15.69	342.82	33.60	-41.5	-43.1	19.5	0.00e+00	0	33	0	579862528	54	7303
2026-01-05 16:18:19.72	341.49	34.05	-42.1	-43.9	18.6	0.00e+00	0	33	0	587202560	56	7128
2026-01-05 16:18:23.76	340.12	34.49	-43.4	-45.9	16.8	0.00e+00	0	32	0	594542592	58	7994
2026-01-05 16:18:27.80	338.72	34.92	-40.7	-42.0	20.4	0.00e+00	0	32	0	601882624	56	5746
2026-01-05 16:18:31.84	337.28	35.33	-40.6	-41.9	20.3	0.00e+00	0	32	0	609222656	54	6358
2026-01-05 16:18:35.87	335.80	35.73	-41.0	-42.5	20.0	0.00e+00	0	33	0	617611264	56	6099
2026-01-05 16:18:39.91	334.28	36.11	-40.1	-41.5	20.7	0.00e+00	0	32	0	624951296	52	6800
2026-01-05 16:18:43.95	332.73	36.47	-39.1	-40.2	22.0	0.00e+00	0	33	0	632291328	52	5867
2026-01-05 16:18:47.99	331.15	36.81	-38.5	-39.5	22.3	0.00e+00	0	33	0	639631360	50	6087
2026-01-05 16:18:52.02	329.54	37.12	-38.1	-39.1	22.8	0.00e+00	0	33	0	648019968	50	5816
2026-01-05 16:18:56.06	327.89	37.42	-37.5	-38.5	23.3	0.00e+00	0	33	0	655360000	48	6046
2026-01-05 16:19:00.10	326.21	37.68	-37.3	-38.2	23.6	0.00e+00	0	32	0	662700032	48	5874
2026-01-05 16:19:04.13	324.51	37.92	-39.1	-40.3	21.9	0.00e+00	0	33	0	670040064	50	6660
2026-01-05 16:19:08.17	322.79	38.14	-36.5	-37.3	24.3	0.00e+00	0	33	0	677380096	46	5928
2026-01-05 16:19:12.21	321.04	38.32	-36.5	-37.4	24.0	0.00e+00	0	33	0	685768704	44	6745
2026-01-05 16:19:16.25	319.27	38.48	-36.0	-36.9	24.4	0.00e+00	0	33	0	693108736	46	5639
2026-01-05 16:19:20.28	317.49	38.60	-37.5	-38.5	23.3	0.00e+00	0	33	0	700448768	46	6798
2026-01-05 16:19:24.31	315.70	38.69	-36.3	-37.1	24.3	0.00e+00	0	33	0	707788800	46	5796
2026-01-05 16:19:28.35	313.90	38.76	-37.4	-38.3	23.5	0.00e+00	0	32	0	715128832	46	6628
2026-01-05 16:19:32.38	312.09	38.78	-36.4	-37.2	24.2	0.00e+00	0	33	0	723517440	46	5892
2026-01-05 16:19:36.42	310.28	38.78	-39.0	-40.1	22.0	0.00e+00	0	33	0	730857472	50	6513
2026-01-05 16:19:40.46	308.47	38.74	-39.4	-40.6	21.8	0.00e+00	0	33	0	738197504	50	6873
2026-01-05 16:19:44.49	306.68	38.67	-38.3	-39.3	22.7	0.00e+00	0	33	0	745537536	50	5927
2026-01-05 16:19:48.53	304.88	38.57	-38.5	-39.5	22.5	0.00e+00	0	33	0	753926144	50	6056
2026-01-05 16:19:52.56	303.11	38.44	-40.0	-41.2	21.2	0.00e+00	0	33	0	761266176	52	6610
2026-01-05 16:19:56.61	301.34	38.28	-41.2	-42.6	19.8	0.00e+00	0	33	0	768606208	54	6912
2026-01-05 16:20:00.64	299.60	38.09	-40.7	-42.0	20.3	0.00e+00	0	33	0	775946240	54	6464
2026-01-05 16:20:04.68	297.87	37.87	-40.6	-41.9	20.1	0.00e+00	0	33	0	783286272	54	6383
2026-01-05 16:20:08.71	296.18	37.62	-41.2	-42.8	19.7	0.00e+00	0	33	0	791674880	54	7034
2026-01-05 16:20:12.75	294.51	37.34	-42.3	-44.3	18.5	0.00e+00	0	33	0	799014912	58	6634
2026-01-05 16:20:16.79	292.87	37.04	-38.7	-39.8	22.3	0.00e+00	0	33	0	806354944	50	6263
2026-01-05 16:20:20.82	291.26	36.72	-39.1	-40.2	22.0	0.00e+00	0	33	0	813694976	52	5876
2026-01-05 16:20:24.85	289.68	36.38	-36.7	-37.5	24.0	0.00e+00	0	33	0	821035008	46	6097
2026-01-05 16:20:28.89	288.14	36.01	-37.4	-38.4	23.5	0.00e+00	0	33	0	829423616	46	6735
2026-01-05 16:20:32.93	286.63	35.63	-38.3	-39.4	22.8	0.00e+00	0	33	0	836763648	48	6705
2026-01-05 16:20:36.97	285.16	35.23	-39.0	-40.1	22.0	0.00e+00	0	33	0	844103680	48	7331
2026-01-05 16:20:41.01	283.72	34.81	-38.9	-40.0	22.1	0.00e+00	0	33	0	851443712	50	6455
2026-01-05 16:20:45.04	282.32	34.38	-38.0	-39.0	22.9	0.00e+00	0	33	0	859832320	48	6420
2026-01-05 16:20:49.08	280.96	33.93	-38.2	-39.2	22.7	0.00e+00	0	33	0	867172352	48	6549
2026-01-05 16:20:53.12	279.64	33.48	-37.6	-38.5	23.4	0.00e+00	0	33	0	874512384	48	6059
2026-01-05 16:20:57.16	278.35	33.01	-38.8	-39.9	22.2	0.00e+00	0	33	0	881852416	50	6327
2026-01-05 16:21:01.19	277.10	32.54	-38.5	-39.5	22.6	0.00e+00	0	33	0	889192448	50	6051
2026-01-05 16:21:05.23	275.89	32.06	-40.0	-41.2	21.1	0.00e+00	0	33	0	897581056	52	6543
2026-01-05 16:21:09.27	274.71	31.57	-41.2	-42.7	19.6	0.00e+00	0	33	0	904921088	54	6932
2026-01-05 16:21:13.30	273.57	31.08	-40.0	-41.2	21.1	0.00e+00	0	33	0	912261120	54	5840
2026-01-05 16:21:17.34	272.46	30.58	-40.0	-41.2	21.1	0.00e+00	0	33	0	919601152	54	5893
2026-01-05 16:21:21.38	271.39	30.08	-38.0	-39.0	23.0	0.00e+00	0	33	0	927989760	50	5704
2026-01-05 16:21:25.42	270.34	29.57	-36.9	-37.7	23.8	0.00e+00	0	33	0	935329792	48	5531
2026-01-05 16:21:29.46	269.33	29.07	-38.9	-40.0	22.1	0.00e+00	0	33	0	942669824	50	6392
2026-01-05 16:21:33.50	268.36	28.56	-39.0	-40.1	22.1	0.00e+00	0	33	0	950009856	50	6480
2026-01-05 16:21:37.53	267.41	28.06	-38.7	-39.8	22.1	0.00e+00	0	33	0	957349888	50	6260
2026-01-05 16:21:41.57	266.49	27.56	-37.9	-38.9	23.0	0.00e+00	0	33	0	965738496	50	5641
2026-01-05 16:21:45.61	265.61	27.05	-36.9	-37.8	23.8	0.00e+00	0	33	0	973078528	48	5569
2026-01-05 16:21:49.64	264.75	26.55	-37.2	-38.1	23.4	0.00e+00	0	33	0	980418560	48	5803
2026-01-05 16:21:53.68	263.91	26.05	-38.2	-39.2	22.7	0.00e+00	0	33	0	987758592	50	5849
2026-01-05 16:21:57.72	263.11	25.56	-37.9	-38.8	23.0	0.00e+00	0	33	0	996147200	48	6301
2026-01-05 16:22:01.76	262.32	25.06	-37.9	-38.9	22.9	0.00e+00	0	33	0	1003487232	48	6329
2026-01-05 16:22:05.80	261.56	24.57	-37.3	-38.2	23.2	0.00e+00	0	33	0	1010827264	48	5886
2026-01-05 16:22:09.83	260.83	24.09	-37.9	-38.8	23.0	0.00e+00	0	33	0	1018167296	48	6274
2026-01-05 16:22:13.87	260.12	23.61	-38.0	-39.0	22.9	0.00e+00	0	33	0	1025507328	48	6423
2026-01-05 16:22:17.90	259.43	23.13	-38.3	-39.3	22.6	0.00e+00	0	33	0	1033895936	48	6664
2026-01-05 16:22:21.94	258.76	22.66	-39.1	-40.2	21.9	0.00e+00	0	33	0	1041235968	50	6544
2026-01-05 16:22:25.97	258.11	22.19	-38.9	-40.0	22.0	0.00e+00	0	33	0	1048576000	50	6429
2026-01-05 16:22:30.01	257.48	21.73	-37.5	-38.4	23.3	0.00e+00	0	33	0	1055916032	48	5976
2026-01-05 16:22:34.04	256.87	21.27	-37.8	-38.8	22.9	0.00e+00	0	33	0	1064304640	48	6251
2026-01-05 16:22:38.08	256.28	20.81	-38.2	-39.1	22.7	0.00e+00	0	33	0	1071644672	48	6530
2026-01-05 16:22:42.12	255.70	20.36	-36.9	-37.8	23.7	0.00e+00	0	33	0	1078984704	48	5588
2026-01-05 16:22:46.16	255.14	19.92	-37.6	-38.5	23.0	0.00e+00	0	33	0	1086324736	48	6102
2026-01-05 16:22:50.20	254.60	19.48	-39.8	-41.0	21.1	0.00e+00	0	33	0	1093664768	52	6451
2026-01-05 16:22:54.23	254.07	19.04	-41.4	-42.9	19.4	0.00e+00	0	33	0	1102053376	54	7161
2026-01-05 16:22:58.27	253.56	18.61	-39.6	-40.8	21.4	0.00e+00	0	33	0	1109393408	52	6283
2026-01-05 16:23:02.31	253.06	18.19	-38.5	-39.5	22.4	0.00e+00	0	33	0	1116733440	50	6098
2026-01-05 16:23:06.34	252.58	17.77	-39.2	-40.4	21.7	0.00e+00	0	33	0	1124073472	50	6712
2026-01-05 16:23:10.38	252.11	17.36	-39.2	-40.3	21.7	0.00e+00	0	33	0	1131413504	50	6669
2026-01-05 16:23:14.42	251.65	16.95	-37.7	-38.6	23.0	0.00e+00	0	33	0	1139802112	48	6139
2026-01-05 16:23:18.45	251.21	16.54	-38.0	-39.0	22.7	0.00e+00	0	33	0	1147142144	48	6431
2026-01-05 16:23:22.49	250.77	16.14	-38.6	-39.7	22.2	0.00e+00	0	33	0	1154482176	48	6940
2026-01-05 16:23:26.52	250.35	15.75	-38.6	-39.6	22.2	0.00e+00	0	33	0	1161822208	50	6169
2026-01-05 16:23:30.56	249.94	15.36	-38.9	-40.0	21.9	0.00e+00	0	33	0	1170210816	50	6393
2026-01-05 16:23:34.60	249.54	14.97	-39.1	-40.1	21.8	0.00e+00	0	33	0	1177550848	50	6535
2026-01-05 16:23:38.64	249.16	14.59	-38.4	-39.4	22.3	0.00e+00	0	33	0	1184890880	50	6004
2026-01-05 16:23:42.68	248.78	14.21	-38.8	-39.8	22.0	0.00e+00	0	33	0	1192230912	50	6296
2026-01-05 16:23:46.71	248.41	13.84	-39.6	-40.8	21.2	0.00e+00	0	33	0	1199570944	50	7057
2026-01-05 16:23:50.74	248.05	13.48	-40.6	-42.0	20.1	0.00e+00	0	33	0	1207959552	52	7181
2026-01-05 16:23:54.78	247.70	13.11	-39.9	-41.2	20.9	0.00e+00	0	33	0	1215299584	52	6544
2026-01-05 16:23:58.82	247.36	12.75	-39.1	-40.2	21.7	0.00e+00	0	33	0	1222639616	52	5832
2026-01-05 16:24:02.85	247.02	12.40	-38.3	-39.3	22.4	0.00e+00	0	33	0	1229979648	50	5919
2026-01-05 16:24:06.89	246.70	12.05	-38.5	-39.5	22.2	0.00e+00	0	33	0	1238368256	50	6055
2026-01-05 16:24:10.93	246.38	11.70	-38.6	-39.6	22.0	0.00e+00	0	33	0	1245708288	50	6166
2026-01-05 16:24:14.97	246.07	11.36	-38.8	-39.8	21.8	0.00e+00	0	33	0	1253048320	50	6317
2026-01-05 16:24:19.01	245.77	11.02	-39.2	-40.3	21.5	0.00e+00	0	33	0	1260388352	50	6619
2026-01-05 16:24:23.05	245.47	10.69	-39.6	-40.7	21.0	0.00e+00	0	33	0	1267728384	50	6982
2026-01-05 16:24:27.09	245.18	10.36	-40.0	-41.2	20.5	0.00e+00	0	33	0	1276116992	52	6575
2026-01-05 16:24:31.12	244.90	10.03	-40.5	-41.8	20.0	0.00e+00	0	33	0	1283457024	52	7050
2026-01-05 16:24:35.16	244.63	9.71	-40.8	-42.2	19.7	0.00e+00	0	33	0	1290797056	54	6568
2026-01-05 16:24:39.20	244.36	9.39	-41.4	-43.0	18.8	0.00e+00	0	33	0	1298137088	54	7212
2026-01-05 16:24:43.24	244.09	9.07	-42.1	-44.0	17.9	0.00e+00	0	33	0	1306525696	56	7171
2026-01-05 16:24:47.28	243.84	8.76	-42.7	-44.8	16.9	0.00e+00	0	33	0	1313865728	58	7052
2026-01-05 16:24:51.31	243.59	8.45	-43.0	-45.3	16.5	0.00e+00	0	33	0	1321205760	58	7444
2026-01-05 16:24:55.35	243.34	8.14	-43.0	-45.2	16.5	0.00e+00	0	33	0	1328545792	58	7354
2026-01-05 16:24:59.39	243.10	7.84	-42.6	-44.7	17.0	0.00e+00	0	33	0	1335885824	58	6985
2026-01-05 16:25:03.43	242.86	7.54	-42.6	-44.7	17.0	0.00e+00	0	33	0	1344274432	58	6943
2026-01-05 16:25:07.46	242.63	7.24	-42.8	-44.9	16.6	0.00e+00	0	33	0	1351614464	58	7151
2026-01-05 16:25:11.50	242.41	6.94	-43.1	-45.5	16.0	0.00e+00	0	34	0	1358954496	58	7637
2026-01-05 16:25:15.54	242.19	6.65	-43.9	-46.6	14.8	0.00e+00	0	33	0	1366294528	60	7755
2026-01-05 16:25:19.58	241.97	6.36	-44.5	-47.8	13.4	6.80e-06	0	33	0	1374683136	60	8889
2026-01-05 16:25:23.63	241.76	6.08	-45.1	-49.1	12.1	1.21e-04	0	33	0	1382023168	60	10273
2026-01-05 16:25:27.67	241.55	5.79	-45.4	-49.9	11.2	1.51e-03	0	33	0	1389363200	60	11272
2026-01-05 16:25:31.70	241.35	5.51	-45.8	-51.2	9.7	1.07e-02	0	33	0	1396703232	60	13057
2026-01-05 16:25:35.74	241.15	5.24	-45.9	-51.8	8.8	2.74e-02	0	33	0	1404043264	60	14000
2026-01-05 16:25:39.78	240.95	4.96	-46.2	-52.9	7.4	8.35e-02	0	33	0	1412431872	60	15953
2026-01-05 16:25:43.81	240.76	4.69	-46.4	-54.3	5.7	2.82e-01	0	33	0	1419771904	60	18727
2026-01-05 16:25:47.85	240.57	4.42	-46.5	-55.0	5.0	5.32e-01	0	34	0	1427111936	60	20229
2026-01-05 16:25:51.89	240.39	4.15	-46.5	-55.7	4.4	8.54e-01	0	33	0	1434451968	60	21929
2026-01-05 16:25:55.92	240.21	3.89	-46.4	-56.3	4.1	1.06e+00	25	34	0	1442840576	60	23567
2026-01-05 16:25:59.96	240.03	3.62	-46.4	-58.3	4.0	1.46e+00	0	33	104	1444937728	60	29669
2026-01-05 16:26:04.00	239.86	3.36	-46.4	-58.7	3.8	1.49e+00	0	34	104	1444937728	60	31155
2026-01-05 16:26:08.04	239.69	3.10	-46.3	-59.0	3.6	1.49e+00	0	33	104	1444937728	60	32045
2026-01-05 16:26:12.08	239.52	2.85	-48.5	-63.6	3.6	1.51e+00	0	34	104	1444937728	60	54974
2026-01-05 16:26:16.12	239.36	2.59	-48.7	-63.9	3.6	1.51e+00	0	33	104	1444937728	60	56474
2026-01-05 16:26:20.15	239.19	2.34	-48.3	-63.8	3.6	1.51e+00	0	34	104	1444937728	60	55812
2026-01-05 16:26:24.19	239.04	2.09	-48.5	-63.7	3.6	1.51e+00	0	34	104	1444937728	60	55546
2026-01-05 16:26:28.23	238.88	1.84	-48.6	-63.7	3.6	1.51e+00	0	34	104	1444937728	60	55313
2026-01-05 16:26:32.27	238.73	1.59	-48.5	-63.7	3.6	1.51e+00	0	34	104	1444937728	60	55296
2026-01-05 16:26:36.31	238.58	1.35	-48.5	-63.7	3.6	1.51e+00	0	34	104	1444937728	60	55149
2026-01-05 16:26:40.35	238.43	1.10	-48.5	-63.7	3.6	1.51e+00	0	34	104	1444937728	60	55143
2026-01-05 16:26:44.38	238.29	0.86	-48.5	-63.7	3.6	1.51e+00	0	34	104	1444937728	60	55338
2026-01-05 16:26:48.42	238.14	0.63	-48.5	-63.7	3.5	1.51e+00	0	34	104	1444937728	60	55332
2026-01-05 16:26:52.46	238.00	0.39	-48.5	-63.7	3.6	1.51e+00	0	34	104	1444937728	60	55521
2026-01-05 16:26:56.50	237.87	0.15	-48.5	-63.7	3.6	1.51e+00	0	34	104	1444937728	60	55104

#Closed at: 2026-01-05 16:27:00
#Recorded file [1444 MB]: D:/lorett/data/35029_260106_041208.dat