passes_logs/2026/01/05/R4.6S_Anadyr/R4.6S_Anadyr__20260105_140209_NOAA_21_JPSS-2_rec.log

#Pass ID: 20260105_140209_NOAA 21 (JPSS-2)
#Satellite: NOAA 21 (JPSS-2)
#Configuration: NOAA-21
#almurnet v.1.7.20251203
#Start time: 2026-01-05 14:02:12

#Version: 2.2.20231116
#Station: R4.6S_Anadyr
#Location: 177.4865 lon 64.73178 lat
#TLE: 1 54234U 22150A   26004.93331070  .00000143  00000+0  88672-4 0  9998
#TLE: 2 54234  98.7489 305.9554 0001075 342.5085  17.6054 14.19532053163383

#Time	Az	El	Level	Level2	SNR	BER	BlckErr	Temp	State	Recorded	gain1	gain2
2026-01-05 14:02:12.74	19.41	0.20	-48.6	-59.9	3.2	1.54e+00	0	26	0	0	60	34562
2026-01-05 14:02:16.77	19.51	0.44	-48.5	-61.3	3.5	1.51e+00	0	26	104	0	60	40931
2026-01-05 14:02:20.81	19.61	0.68	-48.2	-61.0	3.5	1.52e+00	0	26	104	0	60	39518
2026-01-05 14:02:24.86	19.72	0.92	-47.5	-60.3	3.5	1.52e+00	0	26	104	0	60	36440
2026-01-05 14:02:28.89	19.82	1.16	-47.0	-59.8	3.5	1.52e+00	0	27	104	0	60	34145
2026-01-05 14:02:32.93	19.93	1.41	-47.0	-59.8	3.5	1.52e+00	0	27	104	0	60	34278
2026-01-05 14:02:36.97	20.03	1.66	-47.0	-59.8	3.5	1.52e+00	0	27	104	0	60	34403
2026-01-05 14:02:41.01	20.14	1.91	-47.0	-59.8	3.5	1.52e+00	0	27	104	0	60	34471
2026-01-05 14:02:45.05	20.25	2.16	-46.9	-58.5	3.5	1.51e+00	0	27	104	0	60	29670
2026-01-05 14:02:49.09	20.36	2.42	-46.9	-58.3	3.5	1.51e+00	0	27	104	0	60	28711
2026-01-05 14:02:53.14	20.48	2.67	-45.5	-50.2	8.1	7.07e-02	123	27	0	2097152	60	11413
2026-01-05 14:02:57.18	20.59	2.93	-40.7	-42.5	16.7	0.00e+00	123	27	0	14680064	56	5881
2026-01-05 14:03:01.22	20.71	3.19	-38.8	-40.2	18.6	0.00e+00	120	27	0	28311552	50	6392
2026-01-05 14:03:05.26	20.83	3.46	-42.0	-44.2	14.8	0.00e+00	122	27	0	40894464	56	7146
2026-01-05 14:03:09.30	20.95	3.72	-46.5	-55.6	3.7	1.10e+00	0	27	104	52428800	60	21202
2026-01-05 14:03:13.33	21.07	3.99	-38.7	-40.0	19.1	0.00e+00	122	27	0	53477376	50	6229
2026-01-05 14:03:17.37	21.19	4.27	-37.6	-38.8	20.2	0.00e+00	120	27	0	66060288	48	6120
2026-01-05 14:03:21.40	21.32	4.54	-37.2	-38.4	20.7	0.00e+00	123	27	0	78643200	48	5810
2026-01-05 14:03:25.44	21.45	4.82	-36.9	-38.1	21.0	0.00e+00	123	27	0	91226112	48	5602
2026-01-05 14:03:29.48	21.58	5.10	-37.1	-38.3	20.8	0.00e+00	122	27	0	103809024	48	5732
2026-01-05 14:03:33.52	21.71	5.38	-37.0	-38.1	21.0	0.00e+00	123	27	0	116391936	48	5636
2026-01-05 14:03:37.56	21.84	5.67	-36.6	-37.7	21.4	0.00e+00	123	27	0	128974848	46	6000
2026-01-05 14:03:41.60	21.98	5.95	-36.7	-37.8	21.2	0.00e+00	120	27	0	141557760	46	6094
2026-01-05 14:03:45.63	22.12	6.25	-36.4	-37.4	21.8	0.00e+00	122	27	0	154140672	46	5831
2026-01-05 14:03:49.68	22.26	6.54	-36.3	-37.4	21.9	0.00e+00	123	27	0	166723584	46	5819
2026-01-05 14:03:53.71	22.40	6.84	-36.3	-37.3	21.9	0.00e+00	122	27	0	179306496	46	5785
2026-01-05 14:03:57.75	22.55	7.14	-36.1	-37.1	22.1	0.00e+00	123	27	0	191889408	46	5620
2026-01-05 14:04:01.79	22.70	7.45	-36.0	-37.0	22.2	0.00e+00	122	28	0	204472320	46	5553
2026-01-05 14:04:05.83	22.85	7.76	-35.9	-36.9	22.3	0.00e+00	123	27	0	217055232	46	5481
2026-01-05 14:04:09.87	23.01	8.07	-35.6	-36.6	22.7	0.00e+00	123	27	0	229638144	44	5945
2026-01-05 14:04:13.90	23.17	8.38	-35.6	-36.6	22.5	0.00e+00	123	28	0	242221056	44	5945
2026-01-05 14:04:17.94	23.33	8.70	-35.4	-36.4	22.7	0.00e+00	123	28	0	254803968	44	5846
2026-01-05 14:04:21.98	23.49	9.03	-35.4	-36.3	22.8	0.00e+00	123	27	0	267386880	44	5782
2026-01-05 14:04:26.01	23.66	9.36	-35.2	-36.1	23.0	0.00e+00	122	28	0	279969792	44	5649
2026-01-05 14:04:30.05	23.83	9.69	-35.0	-36.0	23.1	0.00e+00	123	28	0	293601280	44	5561
2026-01-05 14:04:34.09	24.00	10.03	-34.8	-35.8	23.3	0.00e+00	123	28	0	305135616	44	5430
2026-01-05 14:04:38.13	24.18	10.37	-34.8	-35.8	23.3	0.00e+00	123	28	0	318767104	42	6101
2026-01-05 14:04:42.17	24.36	10.71	-34.8	-35.8	23.4	0.00e+00	123	27	0	331350016	42	6073
2026-01-05 14:04:46.21	24.55	11.06	-34.6	-35.6	23.5	0.00e+00	122	28	0	343932928	42	5937
2026-01-05 14:04:50.25	24.74	11.42	-34.7	-35.6	23.5	0.00e+00	123	28	0	356515840	42	5961
2026-01-05 14:04:54.29	24.93	11.78	-34.7	-35.6	23.4	0.00e+00	123	28	0	369098752	42	5992
2026-01-05 14:04:58.32	25.13	12.14	-34.5	-35.5	23.7	0.00e+00	121	28	0	381681664	42	5873
2026-01-05 14:05:02.36	25.34	12.51	-34.7	-35.6	23.6	0.00e+00	123	28	0	394264576	42	5952
2026-01-05 14:05:06.40	25.54	12.89	-34.5	-35.4	23.7	0.00e+00	122	28	0	406847488	42	5851
2026-01-05 14:05:10.43	25.76	13.27	-34.3	-35.3	23.9	0.00e+00	122	28	0	419430400	42	5739
2026-01-05 14:05:14.47	25.97	13.66	-34.3	-35.3	23.9	0.00e+00	122	28	0	432013312	42	5740
2026-01-05 14:05:18.51	26.20	14.05	-34.3	-35.3	23.9	0.00e+00	122	28	0	444596224	42	5735
2026-01-05 14:05:22.55	26.43	14.45	-34.1	-35.0	24.1	0.00e+00	122	28	0	457179136	42	5591
2026-01-05 14:05:26.59	26.66	14.86	-34.3	-35.2	24.0	0.00e+00	120	28	0	469762048	42	5703
2026-01-05 14:05:30.63	26.90	15.27	-34.2	-35.1	24.0	0.00e+00	123	28	0	482344960	42	5655
2026-01-05 14:05:34.66	27.15	15.69	-34.2	-35.1	24.0	0.00e+00	123	28	0	494927872	42	5632
2026-01-05 14:05:38.70	27.40	16.12	-34.4	-35.3	23.9	0.00e+00	123	28	0	507510784	42	5744
2026-01-05 14:05:42.74	27.66	16.55	-34.2	-35.1	24.0	0.00e+00	123	28	0	520093696	42	5644
2026-01-05 14:05:46.77	27.93	16.99	-34.1	-35.0	24.1	0.00e+00	123	28	0	532676608	42	5575
2026-01-05 14:05:50.81	28.20	17.44	-34.2	-35.1	24.0	0.00e+00	122	28	0	545259520	42	5655
2026-01-05 14:05:54.85	28.49	17.89	-34.4	-35.3	23.9	0.00e+00	122	28	0	557842432	42	5744
2026-01-05 14:05:58.89	28.78	18.35	-34.4	-35.3	23.9	0.00e+00	120	28	0	570425344	42	5784
2026-01-05 14:06:02.93	29.08	18.83	-34.3	-35.3	23.9	0.00e+00	120	28	0	583008256	42	5734
2026-01-05 14:06:06.97	29.38	19.31	-34.4	-35.3	23.9	0.00e+00	123	28	0	595591168	42	5740
2026-01-05 14:06:11.01	29.70	19.80	-33.9	-34.9	24.2	0.00e+00	120	28	0	608174080	42	5468
2026-01-05 14:06:15.05	30.03	20.29	-34.0	-34.9	24.1	0.00e+00	123	28	0	620756992	42	5502
2026-01-05 14:06:19.09	30.37	20.80	-33.7	-34.6	24.3	0.00e+00	120	28	0	633339904	42	5311
2026-01-05 14:06:23.13	30.71	21.32	-33.5	-34.4	24.5	0.00e+00	122	28	0	645922816	40	5811
2026-01-05 14:06:27.16	31.07	21.84	-33.3	-34.2	24.7	0.00e+00	123	28	0	659554304	40	5694
2026-01-05 14:06:31.20	31.44	22.38	-33.2	-34.1	24.8	0.00e+00	122	28	0	672137216	40	5595
2026-01-05 14:06:35.24	31.83	22.93	-32.9	-33.7	25.0	0.00e+00	123	28	0	683671552	40	5389
2026-01-05 14:06:39.28	32.23	23.49	-32.9	-33.8	25.1	0.00e+00	123	28	0	697303040	38	6066
2026-01-05 14:06:43.32	32.64	24.05	-32.8	-33.7	25.2	0.00e+00	123	28	0	709885952	38	6006
2026-01-05 14:06:47.35	33.06	24.63	-32.9	-33.7	25.2	0.00e+00	123	28	0	722468864	38	6041
2026-01-05 14:06:51.39	33.50	25.22	-33.0	-33.9	25.1	0.00e+00	123	28	0	735051776	38	6172
2026-01-05 14:06:55.43	33.96	25.83	-33.3	-34.2	25.0	0.00e+00	123	28	0	747634688	38	6353
2026-01-05 14:06:59.47	34.43	26.44	-33.5	-34.4	24.8	0.00e+00	123	28	0	760217600	38	6527
2026-01-05 14:07:03.51	34.93	27.07	-33.9	-34.8	24.4	0.00e+00	123	28	0	772800512	40	6126
2026-01-05 14:07:07.55	35.44	27.71	-33.7	-34.6	24.6	0.00e+00	123	28	0	785383424	40	5931
2026-01-05 14:07:11.58	35.97	28.36	-33.8	-34.6	24.6	0.00e+00	123	28	0	797966336	40	5989
2026-01-05 14:07:15.62	36.52	29.02	-34.0	-34.9	24.3	0.00e+00	123	28	0	810549248	40	6143
2026-01-05 14:07:19.65	37.10	29.70	-33.9	-34.8	24.4	0.00e+00	122	28	0	823132160	40	6081
2026-01-05 14:07:23.69	37.70	30.39	-33.8	-34.7	24.5	0.00e+00	122	28	0	835715072	40	6006
2026-01-05 14:07:27.72	38.33	31.10	-33.8	-34.7	24.5	0.00e+00	123	28	0	848297984	40	6000
2026-01-05 14:07:31.76	38.98	31.82	-33.9	-34.8	24.4	0.00e+00	123	28	0	860880896	40	6066
2026-01-05 14:07:35.80	39.66	32.55	-33.9	-34.8	24.6	0.00e+00	123	28	0	873463808	40	6074
2026-01-05 14:07:39.84	40.38	33.30	-34.4	-35.3	24.2	0.00e+00	123	28	0	886046720	40	6447
2026-01-05 14:07:43.87	41.12	34.06	-34.9	-35.8	23.8	0.00e+00	123	28	0	898629632	42	6121
2026-01-05 14:07:47.91	41.91	34.83	-35.3	-36.3	23.4	0.00e+00	120	28	0	911212544	42	6431
2026-01-05 14:07:51.95	42.73	35.62	-35.5	-36.4	23.3	0.00e+00	123	28	0	923795456	42	6544
2026-01-05 14:07:55.98	43.58	36.42	-35.6	-36.6	23.2	0.00e+00	123	28	0	936378368	44	5970
2026-01-05 14:08:00.02	44.49	37.23	-35.8	-36.8	23.1	0.00e+00	122	28	0	948961280	44	6066
2026-01-05 14:08:04.06	45.43	38.06	-36.3	-37.3	22.3	0.00e+00	123	28	0	961544192	44	6450
2026-01-05 14:08:08.10	46.43	38.90	-36.4	-37.4	22.2	0.00e+00	124	28	0	974127104	44	6551
2026-01-05 14:08:12.13	47.48	39.75	-36.3	-37.4	22.3	0.00e+00	123	28	0	986710016	44	6534
2026-01-05 14:08:16.17	48.58	40.60	-35.8	-36.8	22.9	0.00e+00	122	28	0	999292928	44	6110
2026-01-05 14:08:20.21	49.75	41.47	-36.3	-37.3	22.5	0.00e+00	123	28	0	1011875840	44	6456
2026-01-05 14:08:24.25	50.97	42.35	-35.9	-36.9	22.9	0.00e+00	122	28	0	1024458752	44	6145
2026-01-05 14:08:28.29	52.27	43.23	-37.2	-38.2	21.8	0.00e+00	123	28	0	1037041664	46	6393
2026-01-05 14:08:32.32	53.63	44.11	-36.8	-37.9	22.0	0.00e+00	123	28	0	1049624576	46	6139
2026-01-05 14:08:36.36	55.08	45.00	-36.5	-37.5	22.5	0.00e+00	123	28	0	1063256064	46	5918
2026-01-05 14:08:40.40	56.61	45.88	-35.6	-36.6	23.0	0.00e+00	123	28	0	1074790400	44	5970
2026-01-05 14:08:44.44	58.22	46.77	-35.6	-36.5	23.2	0.00e+00	123	28	0	1088421888	44	5917
2026-01-05 14:08:48.47	59.92	47.64	-36.2	-37.3	22.5	0.00e+00	123	28	0	1101004800	44	6424
2026-01-05 14:08:52.51	61.72	48.50	-35.7	-36.7	22.9	0.00e+00	123	28	0	1113587712	44	6014
2026-01-05 14:08:56.55	63.63	49.35	-36.2	-37.2	22.4	0.00e+00	122	28	0	1126170624	44	6393
2026-01-05 14:09:00.59	65.64	50.18	-35.7	-36.7	22.9	0.00e+00	123	28	0	1138753536	44	6006
2026-01-05 14:09:04.63	67.76	50.99	-35.4	-36.3	23.4	0.00e+00	123	28	0	1151336448	44	5742
2026-01-05 14:09:08.68	70.01	51.77	-34.7	-35.6	23.9	0.00e+00	120	28	0	1163919360	42	5953
2026-01-05 14:09:12.71	72.36	52.51	-35.0	-36.0	23.6	0.00e+00	123	28	0	1176502272	42	6215
2026-01-05 14:09:16.75	74.83	53.21	-35.0	-35.9	23.7	0.00e+00	122	28	0	1189085184	42	6168
2026-01-05 14:09:20.79	77.41	53.87	-34.2	-35.1	24.2	0.00e+00	122	28	0	1201668096	42	5631
2026-01-05 14:09:24.83	80.12	54.47	-34.2	-35.1	24.2	0.00e+00	122	28	0	1214251008	42	5626
2026-01-05 14:09:28.87	82.93	55.02	-34.1	-35.0	24.2	0.00e+00	123	28	0	1226833920	42	5539
2026-01-05 14:09:32.91	85.85	55.50	-33.9	-34.8	24.5	0.00e+00	122	28	0	1239416832	40	6085
2026-01-05 14:09:36.95	88.86	55.91	-33.9	-34.8	24.4	0.00e+00	120	28	0	1251999744	40	6084
2026-01-05 14:09:40.98	91.94	56.24	-33.7	-34.6	24.7	0.00e+00	120	28	0	1264582656	40	5951
2026-01-05 14:09:45.02	95.10	56.49	-33.2	-34.0	24.8	0.00e+00	120	28	0	1277165568	40	5592
2026-01-05 14:09:49.05	98.29	56.66	-34.4	-35.3	24.1	0.00e+00	122	28	0	1289748480	40	6495
2026-01-05 14:09:53.09	101.53	56.75	-33.4	-34.3	24.8	0.00e+00	122	28	0	1302331392	40	5755
2026-01-05 14:09:57.13	104.77	56.75	-33.7	-34.6	24.4	0.00e+00	123	28	0	1314914304	40	5948
2026-01-05 14:10:01.17	108.01	56.66	-33.6	-34.4	24.6	0.00e+00	123	28	0	1327497216	40	5852
2026-01-05 14:10:05.21	111.21	56.48	-32.8	-33.7	25.1	0.00e+00	123	28	0	1340080128	40	5368
2026-01-05 14:10:09.25	114.37	56.22	-33.5	-34.3	24.8	0.00e+00	120	28	0	1352663040	40	5781
2026-01-05 14:10:13.29	117.46	55.89	-33.5	-34.4	24.3	0.00e+00	123	28	0	1365245952	40	5830
2026-01-05 14:10:17.33	120.47	55.47	-34.3	-35.2	24.2	0.00e+00	123	28	0	1377828864	40	6405
2026-01-05 14:10:21.36	123.37	54.99	-34.4	-35.3	24.0	0.00e+00	123	28	0	1390411776	40	6458
2026-01-05 14:10:25.40	126.19	54.44	-34.3	-35.2	24.3	0.00e+00	123	28	0	1402994688	40	6398
2026-01-05 14:10:29.44	128.89	53.84	-33.7	-34.6	24.7	0.00e+00	122	28	0	1415577600	40	5974
2026-01-05 14:10:33.47	131.47	53.18	-34.8	-35.8	23.4	0.00e+00	123	28	0	1429209088	42	6094
2026-01-05 14:10:37.51	133.94	52.47	-35.1	-36.0	23.6	0.00e+00	123	28	0	1441792000	42	6276
2026-01-05 14:10:41.55	136.29	51.73	-35.2	-36.2	23.1	0.00e+00	121	28	0	1454374912	42	6408
2026-01-05 14:10:45.59	138.53	50.94	-35.2	-36.2	23.5	0.00e+00	122	28	0	1466957824	42	6386
2026-01-05 14:10:49.63	140.65	50.13	-36.1	-37.2	22.6	0.00e+00	123	28	0	1479540736	44	6372
2026-01-05 14:10:53.66	142.65	49.30	-35.6	-36.6	23.2	0.00e+00	120	28	0	1492123648	44	5948
2026-01-05 14:10:57.70	144.56	48.45	-36.0	-37.0	22.6	0.00e+00	123	28	0	1504706560	44	6273
2026-01-05 14:11:01.74	146.36	47.58	-35.1	-36.0	23.6	0.00e+00	122	28	0	1517289472	44	5573
2026-01-05 14:11:05.77	148.06	46.70	-35.6	-36.5	23.1	0.00e+00	123	28	0	1529872384	42	6621
2026-01-05 14:11:09.81	149.67	45.82	-36.0	-37.0	22.4	0.00e+00	121	28	0	1542455296	46	5534
2026-01-05 14:11:13.85	151.20	44.93	-35.9	-36.9	22.9	0.00e+00	123	28	0	1555038208	44	6147
2026-01-05 14:11:17.88	152.64	44.04	-37.0	-38.1	22.0	0.00e+00	124	28	0	1567621120	46	6283
2026-01-05 14:11:21.92	154.01	43.15	-35.6	-36.5	23.2	0.00e+00	122	28	0	1580204032	44	5898
2026-01-05 14:11:25.96	155.30	42.27	-36.9	-37.9	22.1	0.00e+00	123	28	0	1592786944	46	6160
2026-01-05 14:11:29.99	156.53	41.39	-37.4	-38.5	21.3	0.00e+00	123	28	0	1605369856	46	6591
2026-01-05 14:11:34.03	157.69	40.52	-36.1	-37.0	22.8	0.00e+00	120	28	0	1617952768	46	5594
2026-01-05 14:11:38.07	158.79	39.66	-36.8	-37.8	22.2	0.00e+00	123	28	0	1630535680	46	6091
2026-01-05 14:11:42.11	159.84	38.81	-35.5	-36.4	23.1	0.00e+00	123	28	0	1643118592	44	5840
2026-01-05 14:11:46.14	160.83	37.97	-35.2	-36.1	23.5	0.00e+00	121	28	0	1655701504	44	5625
2026-01-05 14:11:50.18	161.78	37.14	-35.0	-35.9	23.7	0.00e+00	123	28	0	1668284416	44	5500
2026-01-05 14:11:54.21	162.68	36.32	-35.0	-35.9	23.7	0.00e+00	120	28	0	1680867328	42	6170
2026-01-05 14:11:58.25	163.54	35.52	-34.3	-35.2	24.3	0.00e+00	122	28	0	1693450240	42	5673
2026-01-05 14:12:02.30	164.36	34.72	-35.0	-36.0	23.1	0.00e+00	123	28	0	1706033152	42	6240
2026-01-05 14:12:06.34	165.14	33.95	-35.4	-36.4	22.7	0.00e+00	123	28	0	1718616064	42	6569
2026-01-05 14:12:10.37	165.88	33.18	-34.6	-35.5	24.0	0.00e+00	123	28	0	1731198976	42	5872
2026-01-05 14:12:14.41	166.60	32.43	-35.0	-35.9	23.7	0.00e+00	122	28	0	1743781888	42	6188
2026-01-05 14:12:18.45	167.28	31.70	-34.8	-35.8	23.8	0.00e+00	122	28	0	1756364800	42	6101
2026-01-05 14:12:22.48	167.93	30.98	-33.9	-34.8	24.3	0.00e+00	120	28	0	1768947712	42	5443
2026-01-05 14:12:26.53	168.56	30.27	-33.6	-34.5	24.1	0.00e+00	122	28	0	1781530624	40	5872
2026-01-05 14:12:30.56	169.15	29.58	-33.4	-34.3	24.4	0.00e+00	123	28	0	1795162112	40	5775
2026-01-05 14:12:34.60	169.73	28.89	-33.6	-34.5	24.3	0.00e+00	122	28	0	1806696448	40	5918
2026-01-05 14:12:38.63	170.28	28.23	-33.8	-34.7	24.4	0.00e+00	120	28	0	1820327936	40	6014
2026-01-05 14:12:42.67	170.81	27.57	-33.7	-34.6	24.6	0.00e+00	122	28	0	1832910848	40	5971
2026-01-05 14:12:46.71	171.32	26.93	-33.4	-34.3	24.8	0.00e+00	123	28	0	1845493760	40	5749
2026-01-05 14:12:50.75	171.81	26.30	-33.3	-34.1	24.9	0.00e+00	122	29	0	1858076672	40	5650
2026-01-05 14:12:54.79	172.29	25.69	-33.0	-33.9	25.1	0.00e+00	122	28	0	1870659584	40	5476
2026-01-05 14:12:58.82	172.74	25.08	-32.9	-33.8	25.2	0.00e+00	123	28	0	1883242496	40	5437
2026-01-05 14:13:02.86	173.18	24.49	-32.9	-33.8	25.1	0.00e+00	123	28	0	1895825408	38	6085
2026-01-05 14:13:06.90	173.60	23.91	-33.3	-34.2	24.8	0.00e+00	120	28	0	1908408320	38	6375
2026-01-05 14:13:10.94	174.01	23.34	-33.4	-34.3	24.8	0.00e+00	120	28	0	1920991232	38	6466
2026-01-05 14:13:14.97	174.41	22.78	-33.7	-34.6	24.7	0.00e+00	123	28	0	1933574144	38	6685
2026-01-05 14:13:19.01	174.79	22.23	-33.6	-34.5	24.6	0.00e+00	123	28	0	1946157056	40	5889
2026-01-05 14:13:23.05	175.16	21.69	-33.6	-34.5	24.4	0.00e+00	123	28	0	1958739968	40	5902
2026-01-05 14:13:27.09	175.52	21.16	-33.6	-34.5	24.3	0.00e+00	123	28	0	1971322880	40	5868
2026-01-05 14:13:31.13	175.86	20.65	-33.4	-34.3	24.6	0.00e+00	123	28	0	1983905792	40	5773
2026-01-05 14:13:35.17	176.20	20.14	-33.0	-33.8	24.9	0.00e+00	123	28	0	1996488704	40	5459
2026-01-05 14:13:39.21	176.52	19.64	-33.1	-34.0	24.8	0.00e+00	122	28	0	2009071616	40	5558
2026-01-05 14:13:43.25	176.84	19.15	-33.3	-34.2	24.7	0.00e+00	122	28	0	2021654528	40	5702
2026-01-05 14:13:47.28	177.14	18.67	-33.6	-34.5	24.5	0.00e+00	123	28	0	2034237440	40	5901
2026-01-05 14:13:51.32	177.44	18.19	-33.7	-34.6	24.5	0.00e+00	122	28	0	2046820352	40	5958
2026-01-05 14:13:55.36	177.73	17.73	-33.9	-34.8	24.2	0.00e+00	123	28	0	2059403264	40	6118
2026-01-05 14:13:59.40	178.01	17.27	-34.1	-35.0	24.1	0.00e+00	122	28	0	2071986176	40	6246
2026-01-05 14:14:03.43	178.28	16.82	-34.1	-35.0	24.1	0.00e+00	122	28	0	2084569088	40	6212
2026-01-05 14:14:07.47	178.54	16.38	-34.3	-35.2	24.0	0.00e+00	122	28	0	2097152000	40	6373
2026-01-05 14:14:11.51	178.80	15.95	-34.5	-35.4	23.8	0.00e+00	122	28	0	2109734912	40	6535
2026-01-05 14:14:15.55	179.05	15.52	-34.5	-35.4	23.8	0.00e+00	123	28	0	2122317824	40	6537
2026-01-05 14:14:19.58	179.30	15.10	-34.8	-35.7	23.6	0.00e+00	123	28	0	2134900736	40	6793
2026-01-05 14:14:23.62	179.53	14.69	-34.8	-35.8	23.6	0.00e+00	120	28	0	2147483648	42	6087
2026-01-05 14:14:27.66	179.77	14.28	-34.8	-35.7	23.6	0.00e+00	123	28	0	2161115136	42	6043
2026-01-05 14:14:31.70	179.99	13.88	-34.8	-35.7	23.6	0.00e+00	122	28	0	2172649472	42	6025
2026-01-05 14:14:35.74	180.21	13.48	-34.8	-35.7	23.6	0.00e+00	123	28	0	2185232384	42	6063
2026-01-05 14:14:39.77	180.43	13.10	-34.7	-35.6	23.6	0.00e+00	123	28	0	2198863872	42	5992
2026-01-05 14:14:43.81	180.64	12.71	-34.8	-35.7	23.6	0.00e+00	123	28	0	2211446784	42	6021
2026-01-05 14:14:47.85	180.84	12.34	-34.7	-35.6	23.7	0.00e+00	123	28	0	2224029696	42	5967
2026-01-05 14:14:51.89	181.04	11.96	-34.8	-35.7	23.5	0.00e+00	123	29	0	2236612608	42	6039
2026-01-05 14:14:55.93	181.24	11.60	-34.8	-35.7	23.4	0.00e+00	123	29	0	2249195520	42	6060
2026-01-05 14:14:59.97	181.43	11.24	-34.9	-35.9	23.4	0.00e+00	122	28	0	2261778432	42	6157
2026-01-05 14:15:04.00	181.62	10.88	-34.9	-35.8	23.3	0.00e+00	123	28	0	2274361344	42	6113
2026-01-05 14:15:08.04	181.80	10.53	-35.0	-35.9	23.3	0.00e+00	122	28	0	2286944256	42	6180
2026-01-05 14:15:12.08	181.98	10.18	-35.1	-36.0	23.2	0.00e+00	120	29	0	2299527168	42	6243
2026-01-05 14:15:16.11	182.15	9.84	-35.0	-35.9	23.3	0.00e+00	120	29	0	2312110080	42	6191
2026-01-05 14:15:20.15	182.32	9.50	-35.1	-36.0	23.2	0.00e+00	120	29	0	2324692992	42	6253
2026-01-05 14:15:24.19	182.49	9.17	-35.0	-36.0	23.2	0.00e+00	122	29	0	2337275904	42	6211
2026-01-05 14:15:28.23	182.66	8.84	-35.1	-36.1	23.2	0.00e+00	123	29	0	2349858816	42	6303
2026-01-05 14:15:32.26	182.82	8.52	-35.1	-36.0	23.1	0.00e+00	123	29	0	2362441728	42	6266
2026-01-05 14:15:36.30	182.98	8.20	-35.4	-36.4	22.7	0.00e+00	123	28	0	2375024640	42	6534
2026-01-05 14:15:40.34	183.13	7.88	-35.8	-36.8	22.4	0.00e+00	123	28	0	2387607552	44	6071
2026-01-05 14:15:44.38	183.28	7.56	-35.8	-36.9	22.3	0.00e+00	123	29	0	2400190464	44	6136
2026-01-05 14:15:48.42	183.43	7.26	-36.3	-37.3	21.9	0.00e+00	123	29	0	2412773376	44	6467
2026-01-05 14:15:52.46	183.58	6.95	-36.5	-37.6	21.7	0.00e+00	120	29	0	2425356288	44	6661
2026-01-05 14:15:56.49	183.72	6.65	-36.8	-37.9	21.4	0.00e+00	122	29	0	2437939200	46	6193
2026-01-05 14:16:00.53	183.86	6.35	-36.9	-38.0	21.2	0.00e+00	122	29	0	2450522112	46	6224
2026-01-05 14:16:04.58	184.00	6.05	-36.9	-38.0	21.2	0.00e+00	123	29	0	2463105024	46	6232
2026-01-05 14:16:08.61	184.13	5.76	-36.9	-38.0	21.2	0.00e+00	120	29	0	2475687936	46	6229
2026-01-05 14:16:12.65	184.27	5.47	-37.1	-38.2	21.1	0.00e+00	123	29	0	2488270848	46	6369
2026-01-05 14:16:16.69	184.40	5.18	-37.1	-38.3	21.0	0.00e+00	123	29	0	2500853760	46	6428
2026-01-05 14:16:20.73	184.53	4.90	-37.3	-38.5	20.7	0.00e+00	123	29	0	2513436672	46	6585
2026-01-05 14:16:24.76	184.65	4.62	-37.4	-38.6	20.7	0.00e+00	123	29	0	2526019584	46	6654
2026-01-05 14:16:28.80	184.78	4.34	-37.4	-38.6	20.6	0.00e+00	122	29	0	2539651072	46	6669
2026-01-05 14:16:32.84	184.90	4.07	-37.7	-38.9	20.1	0.00e+00	122	29	0	2551185408	46	6943
2026-01-05 14:16:36.87	185.02	3.79	-37.8	-39.0	20.1	0.00e+00	122	29	0	2564816896	48	6217
2026-01-05 14:16:40.91	185.14	3.52	-37.5	-38.7	20.3	0.00e+00	120	29	0	2577399808	48	6036
2026-01-05 14:16:44.95	185.25	3.26	-38.1	-39.3	19.7	0.00e+00	123	29	0	2589982720	48	6464
2026-01-05 14:16:48.99	185.37	2.99	-47.3	-60.0	3.5	9.36e-01	0	29	104	2601517056	60	35157
2026-01-05 14:16:53.03	185.48	2.73	-48.3	-61.1	3.5	1.52e+00	0	29	104	2601517056	60	39780
2026-01-05 14:16:57.07	185.59	2.47	-48.5	-61.3	3.5	1.52e+00	0	29	104	2601517056	60	40584
2026-01-05 14:17:01.11	185.70	2.21	-48.4	-61.2	3.5	1.52e+00	0	29	104	2601517056	60	40361
2026-01-05 14:17:05.15	185.81	1.96	-48.4	-61.2	3.5	1.52e+00	0	29	104	2601517056	60	40226
2026-01-05 14:17:09.19	185.91	1.70	-48.4	-61.2	3.5	1.52e+00	0	29	104	2601517056	60	40359
2026-01-05 14:17:13.22	186.02	1.45	-48.4	-61.2	3.5	1.52e+00	0	29	104	2601517056	60	40286
2026-01-05 14:17:17.26	186.12	1.20	-48.4	-61.2	3.5	1.52e+00	0	29	104	2601517056	60	40212
2026-01-05 14:17:21.30	186.22	0.96	-48.4	-61.2	3.5	1.52e+00	0	29	104	2601517056	60	40340
2026-01-05 14:17:25.34	186.32	0.71	-48.4	-61.2	3.5	1.52e+00	0	29	104	2601517056	60	40473
2026-01-05 14:17:29.38	186.42	0.47	-48.4	-61.2	3.5	1.52e+00	0	29	104	2601517056	60	40375
2026-01-05 14:17:33.42	186.51	0.23	-48.4	-61.2	3.5	1.52e+00	0	29	104	2601517056	60	40386
2026-01-05 14:17:37.46	186.61	-0.01	-48.4	-61.2	3.5	1.51e+00	0	29	104	2601517056	60	40346

#Closed at: 2026-01-05 14:17:39
#Recorded file [2601 MB]: D:/lorett/data/35029_260106_020212.dat