passes_logs/2026/01/05/R4.6S_Anadyr/R4.6S_Anadyr__20260105_143146_SUOMI_NPP_rec.log

#Pass ID: 20260105_143146_SUOMI NPP
#Satellite: SUOMI NPP
#Configuration: NPP
#almurnet v.1.7.20251203
#Start time: 2026-01-05 14:31:47

#Version: 2.2.20231116
#Station: R4.6S_Anadyr
#Location: 177.4865 lon 64.73178 lat
#TLE: 1 37849U 11061A   26004.95404768  .00000136  00000+0  85334-4 0  9991
#TLE: 2 37849  98.7801 307.0898 0002574  80.6707 279.4760 14.19522289735280

#Time	Az	El	Level	Level2	SNR	BER	BlckErr	Temp	State	Recorded	gain1	gain2
2026-01-05 14:31:47.92	20.06	0.11	-48.4	-60.9	3.5	1.52e+00	0	26	0	0	60	38931
2026-01-05 14:31:51.96	20.11	0.35	-48.5	-63.6	3.6	1.51e+00	0	27	104	0	60	54864
2026-01-05 14:31:56.00	20.16	0.59	-48.4	-63.6	3.6	1.51e+00	0	28	104	0	60	54866
2026-01-05 14:32:00.04	20.21	0.84	-48.1	-63.2	3.6	1.51e+00	0	28	104	0	60	52275
2026-01-05 14:32:04.08	20.26	1.09	-47.1	-62.2	3.6	1.51e+00	0	28	104	0	60	46586
2026-01-05 14:32:08.11	20.32	1.34	-47.1	-62.2	3.6	1.51e+00	0	28	104	0	60	46471
2026-01-05 14:32:12.15	20.37	1.59	-47.1	-62.2	3.6	1.51e+00	0	28	104	0	60	46391
2026-01-05 14:32:16.18	20.42	1.84	-47.1	-62.2	3.6	1.51e+00	0	28	104	0	60	46822
2026-01-05 14:32:20.22	20.48	2.10	-47.1	-62.2	3.6	1.51e+00	0	28	104	0	60	46630
2026-01-05 14:32:24.26	20.53	2.36	-47.0	-61.0	3.6	1.51e+00	0	28	104	0	60	40401
2026-01-05 14:32:28.30	20.59	2.62	-47.0	-60.0	3.7	1.50e+00	0	28	104	0	60	36316
2026-01-05 14:32:32.34	20.64	2.88	-46.5	-54.0	6.2	4.77e-01	0	28	0	2097152	60	18092
2026-01-05 14:32:36.37	20.70	3.14	-44.5	-48.1	13.2	7.47e-05	0	28	0	9437184	60	9169
2026-01-05 14:32:40.41	20.76	3.41	-43.2	-45.8	15.6	0.00e+00	0	28	0	17825792	60	7047
2026-01-05 14:32:44.45	20.81	3.68	-44.8	-48.8	12.3	2.67e-05	0	28	0	25165824	60	9947
2026-01-05 14:32:48.49	20.87	3.96	-43.0	-45.5	15.8	0.00e+00	0	28	0	32505856	58	7616
2026-01-05 14:32:52.53	20.93	4.23	-42.3	-44.4	16.2	1.13e+00	0	28	104	33554432	58	6764
2026-01-05 14:32:56.57	20.99	4.51	-40.8	-42.4	18.7	0.00e+00	0	28	0	39845888	54	6764
2026-01-05 14:33:00.61	21.05	4.80	-40.7	-42.3	18.9	0.00e+00	0	28	0	47185920	54	6632
2026-01-05 14:33:04.65	21.11	5.08	-40.4	-41.9	19.4	0.00e+00	0	28	0	54525952	54	6318
2026-01-05 14:33:08.68	21.18	5.37	-40.4	-41.9	19.3	0.00e+00	0	28	0	62914560	54	6375
2026-01-05 14:33:12.72	21.24	5.66	-40.2	-41.7	19.3	0.00e+00	0	28	0	70254592	54	6191
2026-01-05 14:33:16.76	21.31	5.95	-39.7	-41.0	20.3	0.00e+00	0	28	0	77594624	54	5709
2026-01-05 14:33:20.80	21.37	6.25	-39.8	-41.1	20.3	0.00e+00	0	28	0	84934656	52	6506
2026-01-05 14:33:24.83	21.44	6.55	-39.4	-40.7	20.7	0.00e+00	0	28	0	93323264	52	6178
2026-01-05 14:33:28.88	21.51	6.86	-39.3	-40.5	20.8	0.00e+00	0	28	0	100663296	52	6088
2026-01-05 14:33:32.92	21.57	7.17	-39.1	-40.3	21.0	0.00e+00	0	28	0	108003328	52	5940
2026-01-05 14:33:36.96	21.64	7.48	-39.2	-40.4	21.1	0.00e+00	0	28	0	115343360	52	5990
2026-01-05 14:33:41.00	21.71	7.80	-39.0	-40.2	21.2	0.00e+00	0	28	0	122683392	52	5839
2026-01-05 14:33:45.03	21.79	8.12	-38.9	-40.1	21.4	0.00e+00	0	29	0	131072000	52	5804
2026-01-05 14:33:49.07	21.86	8.44	-38.8	-39.9	21.6	0.00e+00	0	29	0	138412032	52	5662
2026-01-05 14:33:53.11	21.93	8.77	-38.7	-39.8	21.6	0.00e+00	0	29	0	145752064	50	6276
2026-01-05 14:33:57.15	22.01	9.10	-38.4	-39.5	21.9	0.00e+00	0	29	0	153092096	50	6039
2026-01-05 14:34:01.19	22.09	9.44	-38.3	-39.4	21.9	0.00e+00	0	29	0	161480704	50	6003
2026-01-05 14:34:05.22	22.16	9.78	-38.3	-39.4	22.0	0.00e+00	0	29	0	168820736	50	6001
2026-01-05 14:34:09.26	22.24	10.13	-38.1	-39.2	22.2	0.00e+00	0	29	0	176160768	50	5848
2026-01-05 14:34:13.30	22.33	10.48	-38.0	-39.0	22.3	0.00e+00	0	29	0	183500800	50	5749
2026-01-05 14:34:17.34	22.41	10.84	-37.8	-38.8	22.5	0.00e+00	0	29	0	190840832	48	6282
2026-01-05 14:34:21.37	22.49	11.20	-37.5	-38.4	22.9	0.00e+00	0	29	0	199229440	48	6020
2026-01-05 14:34:25.41	22.58	11.57	-37.3	-38.3	23.0	0.00e+00	0	29	0	206569472	48	5907
2026-01-05 14:34:29.45	22.67	11.94	-37.2	-38.1	23.1	0.00e+00	0	29	0	213909504	48	5807
2026-01-05 14:34:33.49	22.76	12.32	-37.1	-38.0	23.1	0.00e+00	0	29	0	221249536	48	5748
2026-01-05 14:34:37.53	22.85	12.70	-37.1	-38.0	23.2	0.00e+00	0	29	0	228589568	48	5750
2026-01-05 14:34:41.56	22.94	13.09	-37.2	-38.2	23.0	0.00e+00	0	29	0	236978176	48	5841
2026-01-05 14:34:45.60	23.04	13.49	-37.0	-37.9	23.2	0.00e+00	0	29	0	244318208	48	5675
2026-01-05 14:34:49.64	23.14	13.90	-36.9	-37.8	23.4	0.00e+00	0	29	0	251658240	48	5628
2026-01-05 14:34:53.67	23.23	14.30	-36.9	-37.8	23.5	0.00e+00	0	29	0	258998272	48	5568
2026-01-05 14:34:57.71	23.34	14.72	-37.0	-37.9	23.3	0.00e+00	0	29	0	267386880	48	5660
2026-01-05 14:35:01.74	23.44	15.15	-37.3	-38.3	23.1	0.00e+00	0	29	0	274726912	46	6617
2026-01-05 14:35:05.78	23.55	15.58	-37.4	-38.3	22.7	0.00e+00	0	29	0	282066944	46	6690
2026-01-05 14:35:09.82	23.66	16.02	-37.4	-38.4	23.1	0.00e+00	0	29	0	289406976	46	6712
2026-01-05 14:35:13.86	23.77	16.47	-37.6	-38.5	23.0	0.00e+00	0	29	0	296747008	46	6835
2026-01-05 14:35:17.89	23.89	16.92	-38.1	-39.1	22.5	0.00e+00	0	29	0	305135616	48	6491
2026-01-05 14:35:21.73	24.00	17.37	-37.7	-38.7	22.7	0.00e+00	0	29	0	312475648	48	6219
2026-01-05 14:35:25.77	24.12	17.84	-38.3	-39.4	22.3	0.00e+00	0	29	0	319815680	48	6715
2026-01-05 14:35:29.80	24.25	18.32	-38.6	-39.6	22.1	0.00e+00	0	29	0	327155712	48	6907
2026-01-05 14:35:33.85	24.38	18.81	-38.8	-39.9	21.9	0.00e+00	0	29	0	335544320	50	6373
2026-01-05 14:35:37.88	24.51	19.32	-38.8	-39.9	21.9	0.00e+00	0	29	0	342884352	50	6367
2026-01-05 14:35:41.92	24.64	19.83	-38.7	-39.8	21.9	0.00e+00	0	29	0	350224384	50	6305
2026-01-05 14:35:45.95	24.78	20.35	-38.7	-39.8	22.0	0.00e+00	0	29	0	357564416	50	6307
2026-01-05 14:35:49.99	24.93	20.89	-38.4	-39.4	22.4	0.00e+00	0	29	0	364904448	50	6020
2026-01-05 14:35:54.03	25.08	21.43	-38.4	-39.5	22.2	0.00e+00	0	29	0	373293056	50	6067
2026-01-05 14:35:58.07	25.23	21.99	-38.5	-39.5	22.3	0.00e+00	0	29	0	380633088	50	6086
2026-01-05 14:36:02.11	25.39	22.56	-38.5	-39.5	22.3	0.00e+00	0	29	0	387973120	50	6099
2026-01-05 14:36:06.15	25.55	23.14	-38.5	-39.6	22.3	0.00e+00	0	29	0	395313152	50	6151
2026-01-05 14:36:10.19	25.72	23.74	-38.5	-39.6	22.2	0.00e+00	0	29	0	403701760	50	6107
2026-01-05 14:36:14.23	25.90	24.35	-38.3	-39.3	22.4	0.00e+00	0	29	0	411041792	50	5961
2026-01-05 14:36:18.26	26.08	24.97	-37.8	-38.8	22.8	0.00e+00	0	29	0	418381824	50	5575
2026-01-05 14:36:22.30	26.27	25.61	-38.0	-38.9	22.8	0.00e+00	0	29	0	425721856	48	6381
2026-01-05 14:36:26.34	26.47	26.27	-37.8	-38.8	22.9	0.00e+00	0	29	0	433061888	48	6263
2026-01-05 14:36:30.37	26.67	26.94	-37.8	-38.8	22.9	0.00e+00	0	29	0	441450496	48	6271
2026-01-05 14:36:34.41	26.88	27.62	-38.3	-39.3	22.4	0.00e+00	0	29	0	448790528	48	6620
2026-01-05 14:36:38.45	27.10	28.33	-37.9	-38.9	22.8	0.00e+00	0	29	0	456130560	48	6343
2026-01-05 14:36:42.48	27.33	29.05	-37.5	-38.4	23.4	0.00e+00	0	29	0	463470592	48	5969
2026-01-05 14:36:46.52	27.57	29.79	-37.6	-38.5	23.1	0.00e+00	0	29	0	470810624	48	6071
2026-01-05 14:36:50.56	27.82	30.55	-37.6	-38.5	23.3	0.00e+00	0	29	0	479199232	48	6057
2026-01-05 14:36:54.60	28.08	31.34	-38.6	-39.7	22.2	0.00e+00	0	29	0	486539264	48	6957
2026-01-05 14:36:58.63	28.36	32.14	-39.2	-40.4	21.4	0.00e+00	0	29	0	493879296	50	6703
2026-01-05 14:37:02.66	28.64	32.96	-39.9	-41.2	21.1	0.00e+00	0	29	0	501219328	52	6552
2026-01-05 14:37:06.70	28.94	33.80	-40.3	-41.6	20.7	0.00e+00	0	29	0	509607936	52	6882
2026-01-05 14:37:10.73	29.26	34.67	-38.7	-39.7	22.1	0.00e+00	0	29	0	516947968	50	6241
2026-01-05 14:37:14.78	29.59	35.57	-37.8	-38.7	23.0	0.00e+00	0	29	0	524288000	48	6222
2026-01-05 14:37:18.81	29.94	36.48	-37.7	-38.6	23.0	0.00e+00	0	29	0	531628032	48	6163
2026-01-05 14:37:22.85	30.31	37.43	-38.2	-39.2	22.6	0.00e+00	0	29	0	538968064	48	6603
2026-01-05 14:37:26.89	30.71	38.40	-39.6	-40.8	21.2	0.00e+00	0	29	0	547356672	52	6303
2026-01-05 14:37:30.92	31.12	39.39	-40.5	-41.9	20.2	0.00e+00	0	29	0	554696704	52	7103
2026-01-05 14:37:34.95	31.56	40.41	-41.0	-42.5	20.1	0.00e+00	0	29	0	562036736	54	6811
2026-01-05 14:37:38.99	32.03	41.47	-39.7	-40.9	21.2	0.00e+00	0	29	0	569376768	52	6360
2026-01-05 14:37:43.03	32.53	42.55	-38.4	-39.4	22.3	0.00e+00	0	29	0	577765376	50	5983
2026-01-05 14:37:47.07	33.07	43.66	-38.1	-39.1	22.6	0.00e+00	0	29	0	585105408	48	6524
2026-01-05 14:37:51.11	33.64	44.81	-38.8	-39.8	22.1	0.00e+00	0	29	0	592445440	48	7085
2026-01-05 14:37:55.15	34.25	45.98	-39.3	-40.4	21.5	0.00e+00	0	29	0	599785472	50	6728
2026-01-05 14:37:59.18	34.91	47.18	-40.5	-41.9	20.2	0.00e+00	0	29	0	607125504	52	7098
2026-01-05 14:38:03.21	35.62	48.42	-40.1	-41.4	20.7	0.00e+00	0	29	0	615514112	54	5970
2026-01-05 14:38:07.24	36.39	49.68	-37.8	-38.8	23.0	0.00e+00	0	29	0	622854144	48	6274
2026-01-05 14:38:11.27	37.23	50.98	-36.5	-37.4	24.0	0.00e+00	0	29	0	630194176	46	6016
2026-01-05 14:38:15.31	38.14	52.31	-35.4	-36.2	24.6	0.00e+00	0	29	0	637534208	44	5880
2026-01-05 14:38:19.35	39.14	53.66	-35.4	-36.2	24.7	0.00e+00	0	29	0	644874240	44	5889
2026-01-05 14:38:23.38	40.24	55.05	-34.2	-34.9	25.2	0.00e+00	0	29	0	653262848	42	5679
2026-01-05 14:38:27.42	41.44	56.46	-34.0	-34.7	25.7	0.00e+00	0	29	0	660602880	40	6242
2026-01-05 14:38:31.45	42.78	57.89	-33.9	-34.6	25.8	0.00e+00	0	29	0	667942912	40	6120
2026-01-05 14:38:35.49	44.27	59.34	-35.0	-35.7	25.1	0.00e+00	0	29	0	675282944	42	6228
2026-01-05 14:38:39.52	45.92	60.81	-34.5	-35.3	25.4	0.00e+00	0	29	0	683671552	42	5903
2026-01-05 14:38:43.57	47.79	62.29	-34.6	-35.3	25.4	0.00e+00	0	29	0	691011584	42	5962
2026-01-05 14:38:47.60	49.90	63.78	-34.9	-35.7	25.2	0.00e+00	0	29	0	698351616	42	6204
2026-01-05 14:38:51.64	52.29	65.26	-35.2	-36.0	24.9	0.00e+00	0	29	0	705691648	42	6460
2026-01-05 14:38:55.67	55.01	66.72	-35.4	-36.1	24.8	0.00e+00	0	29	0	713031680	44	5819
2026-01-05 14:38:59.71	58.13	68.15	-38.9	-40.0	22.0	0.00e+00	0	29	0	721420288	50	6404
2026-01-05 14:39:03.74	61.71	69.54	-37.7	-38.6	23.0	0.00e+00	0	29	0	728760320	48	6140
2026-01-05 14:39:07.78	65.85	70.87	-40.0	-41.3	20.9	0.00e+00	0	29	0	736100352	52	6660
2026-01-05 14:39:11.81	70.61	72.10	-38.0	-39.0	22.8	0.00e+00	0	29	0	743440384	50	5736
2026-01-05 14:39:15.85	76.08	73.21	-37.0	-37.9	23.4	0.00e+00	0	29	0	751828992	46	6379
2026-01-05 14:39:19.88	82.29	74.16	-37.3	-38.1	23.5	0.00e+00	0	29	0	759169024	46	6539
2026-01-05 14:39:23.92	89.27	74.93	-37.2	-38.1	23.5	0.00e+00	0	29	0	766509056	48	5788
2026-01-05 14:39:27.95	96.87	75.45	-39.9	-41.1	20.8	0.00e+00	0	29	0	773849088	52	6537
2026-01-05 14:39:31.99	104.93	75.72	-38.0	-39.0	22.6	0.00e+00	0	29	0	781189120	50	5710
2026-01-05 14:39:36.02	113.13	75.71	-37.1	-38.0	23.4	0.00e+00	0	29	0	789577728	46	6449
2026-01-05 14:39:40.06	121.17	75.42	-39.4	-40.5	21.4	0.00e+00	0	29	0	796917760	50	6806
2026-01-05 14:39:44.10	128.75	74.88	-38.8	-39.8	22.1	0.00e+00	0	29	0	804257792	50	6314
2026-01-05 14:39:48.14	135.68	74.10	-40.7	-42.0	20.2	0.00e+00	0	29	0	811597824	52	7235
2026-01-05 14:39:52.18	141.85	73.13	-37.9	-38.9	22.7	0.00e+00	0	29	0	818937856	50	5676
2026-01-05 14:39:56.22	147.27	72.00	-38.1	-39.1	22.8	0.00e+00	0	29	0	827326464	48	6472
2026-01-05 14:40:00.25	151.98	70.76	-38.8	-39.8	22.1	0.00e+00	0	29	0	834666496	52	5608
2026-01-05 14:40:04.29	156.08	69.43	-37.8	-38.8	23.0	0.00e+00	0	29	0	842006528	48	6249
2026-01-05 14:40:08.32	159.62	68.03	-37.9	-38.9	22.8	0.00e+00	0	29	0	849346560	48	6368
2026-01-05 14:40:12.36	162.71	66.59	-37.5	-38.5	23.2	0.00e+00	0	29	0	857735168	46	6787
2026-01-05 14:40:16.40	165.41	65.12	-35.8	-36.6	24.6	0.00e+00	0	29	0	865075200	44	6151
2026-01-05 14:40:20.44	167.78	63.64	-33.6	-34.3	26.1	0.00e+00	0	29	0	872415232	40	5934
2026-01-05 14:40:24.47	169.86	62.15	-35.6	-36.5	24.1	0.00e+00	0	29	0	879755264	44	6049
2026-01-05 14:40:28.51	171.71	60.67	-35.7	-36.5	24.6	0.00e+00	0	29	0	887095296	44	6087
2026-01-05 14:40:32.55	173.36	59.20	-36.5	-37.4	24.0	0.00e+00	0	29	0	895483904	46	5979
2026-01-05 14:40:36.59	174.83	57.74	-34.7	-35.4	25.3	0.00e+00	0	29	0	902823936	42	6024
2026-01-05 14:40:40.62	176.15	56.31	-33.7	-34.4	26.0	0.00e+00	0	29	0	910163968	42	5370
2026-01-05 14:40:44.66	177.35	54.89	-34.9	-35.7	25.1	0.00e+00	0	29	0	917504000	42	6224
2026-01-05 14:40:48.70	178.44	53.50	-35.5	-36.4	24.7	0.00e+00	0	29	0	925892608	44	5966
2026-01-05 14:40:52.74	179.43	52.15	-38.5	-39.7	22.2	0.00e+00	0	29	0	933232640	48	6955
2026-01-05 14:40:56.77	180.34	50.82	-36.3	-37.2	24.3	0.00e+00	0	29	0	940572672	46	5859
2026-01-05 14:41:00.81	181.17	49.52	-41.1	-42.8	19.0	0.00e+00	0	29	0	947912704	54	7026
2026-01-05 14:41:04.85	181.93	48.25	-39.5	-40.7	21.6	0.00e+00	0	29	0	955252736	52	6192
2026-01-05 14:41:08.88	182.64	47.02	-39.3	-40.4	21.8	0.00e+00	0	29	0	963641344	50	6743
2026-01-05 14:41:12.92	183.30	45.81	-40.2	-41.5	20.8	0.00e+00	0	29	0	970981376	52	6806
2026-01-05 14:41:16.96	183.91	44.64	-36.1	-36.9	24.4	0.00e+00	0	29	0	978321408	46	5661
2026-01-05 14:41:21.00	184.47	43.49	-37.6	-38.6	22.4	0.00e+00	0	29	0	985661440	46	6856
2026-01-05 14:41:25.04	185.01	42.38	-39.0	-40.2	21.9	0.00e+00	0	29	0	994050048	52	5845
2026-01-05 14:41:29.08	185.50	41.29	-34.8	-35.5	25.4	0.00e+00	0	29	0	1001390080	42	6060
2026-01-05 14:41:33.11	185.97	40.24	-36.2	-37.1	24.3	0.00e+00	0	29	0	1008730112	44	6486
2026-01-05 14:41:37.15	186.40	39.22	-39.0	-40.2	21.7	0.00e+00	0	29	0	1016070144	50	6574
2026-01-05 14:41:41.19	186.82	38.22	-36.8	-37.7	23.8	0.00e+00	0	29	0	1023410176	48	5523
2026-01-05 14:41:45.22	187.21	37.25	-37.3	-38.2	23.3	0.00e+00	0	29	0	1031798784	46	6603
2026-01-05 14:41:49.26	187.57	36.31	-42.4	-44.4	18.1	0.00e+00	0	29	0	1039138816	56	7547
2026-01-05 14:41:53.30	187.92	35.39	-37.6	-38.6	23.2	0.00e+00	0	29	0	1046478848	48	6123
2026-01-05 14:41:57.34	188.25	34.49	-36.5	-37.4	24.0	0.00e+00	0	29	0	1053818880	46	5965
2026-01-05 14:42:01.37	188.57	33.63	-40.3	-41.6	20.6	0.00e+00	0	29	0	1061158912	52	6890
2026-01-05 14:42:05.41	188.86	32.78	-40.8	-42.2	20.1	0.00e+00	0	29	0	1069547520	54	6613
2026-01-05 14:42:09.45	189.15	31.95	-38.8	-39.9	22.2	0.00e+00	0	29	0	1076887552	52	5654
2026-01-05 14:42:13.49	189.42	31.15	-38.0	-39.0	22.8	0.00e+00	0	29	0	1084227584	50	5716
2026-01-05 14:42:17.53	189.68	30.37	-37.5	-38.4	23.3	0.00e+00	0	29	0	1091567616	48	5965
2026-01-05 14:42:21.56	189.93	29.61	-36.5	-37.3	24.1	0.00e+00	0	29	0	1099956224	46	5913
2026-01-05 14:42:25.60	190.16	28.87	-38.1	-39.1	22.6	0.00e+00	0	29	0	1107296256	48	6484
2026-01-05 14:42:29.64	190.39	28.15	-39.6	-40.7	21.5	0.00e+00	0	29	0	1114636288	50	6977
2026-01-05 14:42:33.67	190.61	27.44	-39.2	-40.3	22.0	0.00e+00	0	29	0	1121976320	52	5930
2026-01-05 14:42:37.72	190.82	26.75	-38.0	-39.0	22.8	0.00e+00	0	29	0	1129316352	50	5726
2026-01-05 14:42:41.75	191.02	26.08	-36.9	-37.8	23.7	0.00e+00	0	29	0	1137704960	48	5613
2026-01-05 14:42:45.79	191.21	25.43	-36.2	-37.0	24.2	0.00e+00	0	29	0	1145044992	46	5749
2026-01-05 14:42:49.83	191.40	24.79	-36.0	-36.9	24.5	0.00e+00	0	29	0	1152385024	46	5633
2026-01-05 14:42:53.86	191.58	24.16	-35.3	-36.1	24.9	0.00e+00	0	29	0	1159725056	44	5783
2026-01-05 14:42:57.90	191.75	23.55	-34.9	-35.7	25.2	0.00e+00	0	29	0	1168113664	44	5520
2026-01-05 14:43:01.93	191.92	22.96	-35.7	-36.5	24.5	0.00e+00	0	29	0	1175453696	42	6797
2026-01-05 14:43:05.97	192.08	22.37	-36.4	-37.3	24.1	0.00e+00	0	29	0	1182793728	44	6629
2026-01-05 14:43:10.01	192.24	21.80	-36.5	-37.3	24.1	0.00e+00	0	30	0	1190133760	46	5931
2026-01-05 14:43:14.05	192.39	21.24	-35.7	-36.5	24.7	0.00e+00	0	29	0	1197473792	44	6048
2026-01-05 14:43:18.09	192.53	20.70	-35.8	-36.6	24.6	0.00e+00	0	29	0	1205862400	44	6140
2026-01-05 14:43:22.13	192.68	20.16	-36.1	-37.0	24.2	0.00e+00	0	29	0	1213202432	44	6391
2026-01-05 14:43:26.17	192.81	19.64	-36.4	-37.3	24.0	0.00e+00	0	29	0	1220542464	44	6616
2026-01-05 14:43:30.21	192.95	19.13	-36.6	-37.6	23.9	0.00e+00	0	29	0	1227882496	46	6111
2026-01-05 14:43:34.25	193.08	18.62	-36.5	-37.4	23.9	0.00e+00	0	29	0	1236271104	46	5971
2026-01-05 14:43:38.28	193.20	18.13	-36.6	-37.5	23.8	0.00e+00	0	29	0	1243611136	46	6081
2026-01-05 14:43:42.32	193.33	17.65	-37.0	-37.9	23.3	0.00e+00	0	29	0	1250951168	46	6368
2026-01-05 14:43:46.36	193.44	17.18	-37.2	-38.1	23.3	0.00e+00	0	29	0	1258291200	46	6533
2026-01-05 14:43:50.40	193.56	16.71	-37.6	-38.6	22.9	0.00e+00	0	29	0	1265631232	46	6897
2026-01-05 14:43:54.44	193.67	16.25	-37.4	-38.3	23.1	0.00e+00	0	29	0	1274019840	48	5949
2026-01-05 14:43:58.47	193.78	15.81	-37.5	-38.4	23.0	0.00e+00	0	29	0	1281359872	48	6028
2026-01-05 14:44:02.51	193.89	15.37	-37.7	-38.7	22.9	0.00e+00	0	29	0	1288699904	48	6204
2026-01-05 14:44:06.55	193.99	14.93	-38.0	-38.9	22.6	0.00e+00	0	29	0	1296039936	48	6378
2026-01-05 14:44:10.59	194.10	14.51	-38.1	-39.1	22.5	0.00e+00	0	29	0	1304428544	48	6527
2026-01-05 14:44:14.62	194.19	14.09	-38.1	-39.1	22.5	0.00e+00	0	29	0	1311768576	48	6475
2026-01-05 14:44:18.66	194.29	13.68	-37.8	-38.8	22.7	0.00e+00	0	29	0	1319108608	48	6251
2026-01-05 14:44:22.70	194.39	13.28	-37.7	-38.6	22.9	0.00e+00	0	29	0	1326448640	48	6125
2026-01-05 14:44:26.74	194.48	12.88	-37.4	-38.4	23.1	0.00e+00	0	29	0	1333788672	48	5978
2026-01-05 14:44:30.78	194.57	12.49	-37.3	-38.2	23.1	0.00e+00	0	29	0	1342177280	48	5891
2026-01-05 14:44:34.82	194.66	12.11	-37.7	-38.7	22.7	0.00e+00	0	29	0	1349517312	48	6198
2026-01-05 14:44:38.86	194.74	11.73	-37.5	-38.4	22.9	0.00e+00	0	29	0	1356857344	48	6033
2026-01-05 14:44:42.90	194.83	11.35	-37.5	-38.5	22.9	0.00e+00	0	29	0	1364197376	48	6040
2026-01-05 14:44:46.93	194.91	10.99	-37.6	-38.6	22.8	0.00e+00	0	29	0	1372585984	48	6123
2026-01-05 14:44:50.97	194.99	10.62	-37.9	-38.9	22.5	0.00e+00	0	29	0	1379926016	48	6319
2026-01-05 14:44:55.01	195.07	10.27	-37.6	-38.6	22.9	0.00e+00	0	29	0	1387266048	48	6144
2026-01-05 14:44:59.04	195.15	9.92	-37.7	-38.7	22.7	0.00e+00	0	29	0	1394606080	48	6190
2026-01-05 14:45:03.08	195.23	9.57	-37.9	-38.9	22.6	0.00e+00	0	29	0	1401946112	48	6318
2026-01-05 14:45:07.12	195.30	9.23	-37.8	-38.7	22.6	0.00e+00	0	29	0	1410334720	48	6230
2026-01-05 14:45:11.16	195.38	8.89	-37.8	-38.8	22.6	0.00e+00	0	29	0	1417674752	48	6279
2026-01-05 14:45:15.20	195.45	8.56	-37.9	-38.9	22.5	0.00e+00	0	29	0	1425014784	48	6355
2026-01-05 14:45:19.24	195.52	8.23	-37.9	-38.9	22.4	0.00e+00	0	29	0	1432354816	48	6373
2026-01-05 14:45:23.28	195.59	7.90	-38.0	-39.0	22.4	0.00e+00	0	29	0	1439694848	48	6433
2026-01-05 14:45:27.31	195.66	7.58	-37.7	-38.6	22.6	0.00e+00	0	30	0	1448083456	48	6160
2026-01-05 14:45:31.35	195.72	7.27	-38.1	-39.1	22.2	0.00e+00	0	29	0	1455423488	48	6502
2026-01-05 14:45:35.38	195.79	6.96	-38.1	-39.2	22.0	0.00e+00	0	29	0	1462763520	48	6549
2026-01-05 14:45:39.42	195.86	6.65	-38.1	-39.1	22.2	0.00e+00	0	30	0	1470103552	48	6483
2026-01-05 14:45:43.45	195.92	6.34	-38.0	-39.0	22.2	0.00e+00	0	29	0	1478492160	48	6407
2026-01-05 14:45:47.49	195.98	6.04	-38.2	-39.2	22.0	0.00e+00	0	29	0	1485832192	48	6568
2026-01-05 14:45:51.52	196.04	5.74	-38.5	-39.6	21.6	0.00e+00	0	30	0	1493172224	48	6899
2026-01-05 14:45:55.56	196.10	5.45	-38.5	-39.5	21.7	0.00e+00	0	30	0	1500512256	50	6083
2026-01-05 14:45:59.59	196.16	5.16	-38.5	-39.6	21.6	0.00e+00	0	30	0	1507852288	50	6124
2026-01-05 14:46:03.63	196.22	4.87	-38.5	-39.6	21.6	0.00e+00	0	30	0	1516240896	50	6141
2026-01-05 14:46:07.67	196.28	4.58	-38.7	-39.8	21.3	0.00e+00	0	30	0	1523580928	50	6286
2026-01-05 14:46:11.71	196.34	4.30	-39.2	-40.4	20.8	0.00e+00	0	29	0	1530920960	50	6733
2026-01-05 14:46:15.74	196.39	4.02	-39.3	-40.5	20.9	0.00e+00	0	30	0	1538260992	50	6819
2026-01-05 14:46:19.78	196.45	3.74	-39.3	-40.5	20.6	0.00e+00	0	29	0	1546649600	50	6797
2026-01-05 14:46:23.82	196.50	3.47	-39.3	-40.5	20.5	0.00e+00	0	30	0	1553989632	50	6808
2026-01-05 14:46:27.85	196.56	3.20	-40.3	-41.8	19.3	0.00e+00	0	30	0	1561329664	52	7015
2026-01-05 14:46:31.89	196.61	2.93	-47.9	-63.1	3.6	1.51e+00	0	30	104	1566572544	60	51627
2026-01-05 14:46:35.93	196.66	2.67	-48.5	-63.7	3.6	1.51e+00	0	30	104	1566572544	60	55484
2026-01-05 14:46:39.97	196.72	2.40	-48.5	-63.8	3.6	1.51e+00	0	30	104	1566572544	60	55758
2026-01-05 14:46:44.01	196.77	2.14	-48.4	-63.6	3.6	1.51e+00	0	30	104	1566572544	60	54645
2026-01-05 14:46:48.05	196.82	1.88	-48.5	-63.7	3.6	1.51e+00	0	30	104	1566572544	60	55216
2026-01-05 14:46:52.09	196.87	1.63	-48.5	-63.7	3.6	1.51e+00	0	30	104	1566572544	60	55070
2026-01-05 14:46:56.13	196.92	1.37	-48.5	-63.7	3.6	1.51e+00	0	30	104	1566572544	60	55264
2026-01-05 14:47:00.17	196.96	1.12	-48.5	-63.6	3.6	1.51e+00	0	30	104	1566572544	60	54977
2026-01-05 14:47:04.21	197.01	0.87	-48.5	-63.7	3.6	1.51e+00	0	30	104	1566572544	60	55225
2026-01-05 14:47:08.25	197.06	0.62	-48.5	-63.6	3.6	1.51e+00	0	30	104	1566572544	60	54850
2026-01-05 14:47:12.29	197.11	0.38	-48.5	-63.7	3.6	1.51e+00	0	30	104	1566572544	60	55073
2026-01-05 14:47:16.33	197.15	0.13	-48.5	-63.6	3.6	1.51e+00	0	30	104	1566572544	60	54863

#Closed at: 2026-01-05 14:47:20
#Recorded file [1566 MB]: D:/lorett/data/35029_260106_023147.dat