passes_logs/2026/01/05/R4.6S_Anadyr/R4.6S_Anadyr__20260105_014644_FENGYUN_3D_rec.log

#Pass ID: 20260105_014644_FENGYUN 3D
#Satellite: FENGYUN 3D
#Configuration: FENGYUN 3D
#almurnet v.1.7.20251203
#Start time: 2026-01-05 01:46:46

#Version: 2.2.20231116
#Station: R4.6S_Anadyr
#Location: 177.4865 lon 64.73178 lat
#TLE: 1 43010U 17072A   26003.51579816  .00000092  00000+0  65324-4 0  9992
#TLE: 2 43010  98.9912 335.1548 0001916 128.4619 231.6729 14.19692074421623

#Time	Az	El	Level	Level2	SNR	BER	BlckErr	Temp	State	Recorded	gain1	gain2
2026-01-05 01:46:46.83	144.74	0.16	-49.5	-64.4	3.6	1.51e+00	0	27	0	0	60	59832
2026-01-05 01:46:50.87	144.70	0.41	-49.0	-61.1	3.6	8.45e-01	0	28	104	0	60	41078
2026-01-05 01:46:54.91	144.66	0.65	-48.6	-60.7	3.6	8.45e-01	0	28	104	0	60	39341
2026-01-05 01:46:58.95	144.63	0.90	-48.3	-60.4	3.6	8.45e-01	0	28	104	0	60	37823
2026-01-05 01:47:02.99	144.59	1.15	-46.9	-58.9	3.6	8.46e-01	0	28	104	0	60	31805
2026-01-05 01:47:07.03	144.55	1.40	-46.7	-58.7	3.6	8.46e-01	0	28	104	0	60	31270
2026-01-05 01:47:11.07	144.51	1.66	-46.7	-58.8	3.6	8.45e-01	0	29	104	0	60	31430
2026-01-05 01:47:15.10	144.46	1.91	-46.7	-58.8	3.6	8.45e-01	0	29	104	0	60	31630
2026-01-05 01:47:19.13	144.42	2.17	-46.7	-58.8	3.6	8.46e-01	0	29	104	0	60	31374
2026-01-05 01:47:23.17	144.38	2.43	-46.8	-59.0	3.6	8.46e-01	0	29	104	0	60	32044
2026-01-05 01:47:27.21	144.33	2.70	-46.6	-58.8	3.6	8.46e-01	0	29	104	0	60	31530
2026-01-05 01:47:31.25	144.29	2.96	-46.7	-58.4	3.6	8.46e-01	0	29	104	0	60	30045
2026-01-05 01:47:35.29	144.24	3.23	-45.5	-50.4	6.8	4.07e-01	0	29	0	2097152	60	11928
2026-01-05 01:47:39.33	144.19	3.51	-43.6	-46.3	12.0	7.00e-04	0	29	0	25165824	60	7487
2026-01-05 01:47:43.37	144.14	3.78	-41.3	-43.1	14.7	0.00e+00	0	29	0	48234496	56	6465
2026-01-05 01:47:47.41	144.09	4.06	-40.9	-42.4	15.6	9.64e-03	0	29	0	71303168	56	6031
2026-01-05 01:47:51.45	144.04	4.34	-38.3	-39.4	18.5	0.00e+00	0	29	0	83886080	50	5997
2026-01-05 01:47:55.49	143.99	4.62	-37.4	-38.3	19.7	0.00e+00	0	29	0	106954752	48	5938
2026-01-05 01:47:59.52	143.93	4.90	-37.0	-38.0	20.6	0.00e+00	0	29	0	130023424	48	5699
2026-01-05 01:48:03.56	143.88	5.19	-36.9	-37.8	20.4	0.00e+00	0	29	0	152043520	48	5622
2026-01-05 01:48:07.60	143.82	5.49	-36.9	-37.8	20.7	0.00e+00	0	29	0	175112192	46	6307
2026-01-05 01:48:11.64	143.76	5.78	-36.7	-37.6	20.7	0.00e+00	0	29	0	197132288	46	6108
2026-01-05 01:48:15.68	143.70	6.08	-36.6	-37.5	20.8	0.00e+00	0	29	0	220200960	46	6094
2026-01-05 01:48:19.72	143.64	6.38	-36.1	-36.9	21.2	0.00e+00	0	29	0	243269632	46	5684
2026-01-05 01:48:23.76	143.58	6.69	-36.0	-36.9	21.5	0.00e+00	0	29	0	266338304	46	5634
2026-01-05 01:48:27.80	143.52	7.00	-35.9	-36.8	21.7	0.00e+00	0	29	0	288358400	44	6250
2026-01-05 01:48:31.84	143.45	7.31	-35.7	-36.5	22.0	0.00e+00	0	29	0	311427072	44	6043
2026-01-05 01:48:35.88	143.38	7.63	-35.6	-36.4	22.2	0.00e+00	0	29	0	334495744	44	6005
2026-01-05 01:48:39.91	143.31	7.95	-35.5	-36.3	22.3	0.00e+00	0	29	0	356515840	44	5959
2026-01-05 01:48:43.95	143.24	8.27	-35.3	-36.0	22.7	0.00e+00	0	29	0	379584512	44	5758
2026-01-05 01:48:47.99	143.17	8.60	-35.1	-35.9	22.8	0.00e+00	0	29	0	401604608	42	6360
2026-01-05 01:48:52.03	143.09	8.94	-35.1	-35.8	22.9	0.00e+00	0	29	0	424673280	42	6311
2026-01-05 01:48:56.07	143.02	9.27	-35.0	-35.7	23.1	0.00e+00	0	29	0	447741952	42	6240
2026-01-05 01:49:00.11	142.94	9.62	-34.7	-35.4	23.1	0.00e+00	0	29	0	470810624	42	6012
2026-01-05 01:49:04.15	142.86	9.96	-34.6	-35.3	23.2	0.00e+00	0	29	0	492830720	42	5940
2026-01-05 01:49:08.19	142.77	10.32	-34.6	-35.4	23.1	0.00e+00	0	29	0	515899392	42	5985
2026-01-05 01:49:12.24	142.69	10.67	-34.7	-35.4	23.2	0.00e+00	0	29	0	538968064	42	6018
2026-01-05 01:49:16.27	142.60	11.03	-34.8	-35.5	22.6	0.00e+00	0	29	0	560988160	42	6067
2026-01-05 01:49:20.32	142.51	11.40	-34.7	-35.5	22.8	0.00e+00	0	29	0	584056832	42	6055
2026-01-05 01:49:24.36	142.42	11.78	-34.5	-35.2	23.1	0.00e+00	0	29	0	607125504	42	5868
2026-01-05 01:49:28.40	142.32	12.16	-34.7	-35.5	23.3	0.00e+00	0	29	0	629145600	42	6067
2026-01-05 01:49:32.44	142.22	12.54	-34.4	-35.1	23.5	0.00e+00	0	29	0	652214272	42	5804
2026-01-05 01:49:36.48	142.12	12.93	-34.1	-34.9	24.1	0.00e+00	0	29	0	675282944	42	5632
2026-01-05 01:49:40.52	142.01	13.33	-33.7	-34.4	24.5	0.00e+00	0	29	0	697303040	40	5979
2026-01-05 01:49:44.56	141.90	13.73	-33.4	-34.0	24.7	0.00e+00	0	29	0	720371712	40	5759
2026-01-05 01:49:48.60	141.79	14.14	-34.4	-35.1	24.9	0.00e+00	0	29	0	743440384	40	6496
2026-01-05 01:49:52.64	141.68	14.56	-33.1	-33.7	25.4	0.00e+00	0	29	0	765460480	40	5563
2026-01-05 01:49:56.68	141.56	14.98	-32.4	-33.1	25.9	0.00e+00	0	29	0	788529152	38	5762
2026-01-05 01:50:00.72	141.44	15.42	-32.1	-32.7	26.0	0.00e+00	0	29	0	811597824	38	5550
2026-01-05 01:50:04.76	141.31	15.86	-32.0	-32.6	26.2	0.00e+00	0	29	0	833617920	38	5469
2026-01-05 01:50:08.80	141.18	16.30	-31.8	-32.5	26.3	0.00e+00	0	29	0	856686592	36	6067
2026-01-05 01:50:12.84	141.04	16.76	-31.8	-32.4	26.1	0.00e+00	0	29	0	879755264	36	6000
2026-01-05 01:50:16.88	140.90	17.22	-31.4	-32.1	26.6	0.00e+00	0	29	0	901775360	36	5769
2026-01-05 01:50:20.92	140.76	17.69	-31.4	-32.1	26.7	0.00e+00	0	29	0	924844032	36	5768
2026-01-05 01:50:24.96	140.61	18.18	-31.2	-31.8	27.0	0.00e+00	0	29	0	947912704	36	5626
2026-01-05 01:50:28.99	140.45	18.67	-31.4	-32.0	26.8	0.00e+00	0	29	0	969932800	36	5746
2026-01-05 01:50:33.03	140.29	19.17	-31.5	-32.1	26.7	0.00e+00	0	29	0	993001472	36	5820
2026-01-05 01:50:37.08	140.12	19.68	-31.5	-32.1	26.7	0.00e+00	0	29	0	1016070144	36	5817
2026-01-05 01:50:41.12	139.95	20.20	-32.1	-32.7	26.4	0.00e+00	0	29	0	1038090240	36	6223
2026-01-05 01:50:45.16	139.77	20.73	-31.8	-32.4	26.5	0.00e+00	0	29	0	1061158912	38	5377
2026-01-05 01:50:49.19	139.59	21.28	-31.0	-31.6	27.2	0.00e+00	0	29	0	1084227584	36	5491
2026-01-05 01:50:53.23	139.39	21.83	-30.7	-31.3	27.6	0.00e+00	0	29	0	1106247680	34	5919
2026-01-05 01:50:57.27	139.19	22.40	-30.6	-31.2	27.5	0.00e+00	0	29	0	1129316352	34	5876
2026-01-05 01:51:01.31	138.99	22.98	-30.4	-31.0	27.6	0.00e+00	0	29	0	1152385024	34	5737
2026-01-05 01:51:05.34	138.77	23.57	-30.5	-31.1	27.7	0.00e+00	0	29	0	1174405120	34	5804
2026-01-05 01:51:09.38	138.54	24.17	-30.3	-30.9	27.8	0.00e+00	0	29	0	1197473792	34	5661
2026-01-05 01:51:13.42	138.31	24.79	-30.1	-30.7	27.9	0.00e+00	0	29	0	1220542464	34	5512
2026-01-05 01:51:17.46	138.06	25.43	-30.1	-30.7	27.7	0.00e+00	0	29	0	1242562560	34	5547
2026-01-05 01:51:21.50	137.81	26.07	-30.0	-30.6	28.0	0.00e+00	0	29	0	1265631232	34	5474
2026-01-05 01:51:25.54	137.54	26.74	-30.5	-31.1	27.8	0.00e+00	0	29	0	1288699904	34	5806
2026-01-05 01:51:29.57	137.26	27.42	-30.2	-30.8	27.9	0.00e+00	0	29	0	1310720000	34	5592
2026-01-05 01:51:33.61	136.97	28.11	-29.9	-30.5	28.2	0.00e+00	0	29	0	1333788672	34	5431
2026-01-05 01:51:37.65	136.66	28.83	-29.7	-30.3	28.2	0.00e+00	0	29	0	1356857344	32	5949
2026-01-05 01:51:41.69	136.34	29.56	-29.8	-30.4	28.2	0.00e+00	0	29	0	1378877440	32	6015
2026-01-05 01:51:45.73	136.00	30.31	-29.6	-30.2	28.3	0.00e+00	0	29	0	1401946112	32	5884
2026-01-05 01:51:49.78	135.65	31.07	-29.4	-30.0	28.5	0.00e+00	0	29	0	1425014784	32	5755
2026-01-05 01:51:53.82	135.28	31.86	-29.5	-30.2	28.5	0.00e+00	0	29	0	1447034880	32	5829
2026-01-05 01:51:57.86	134.89	32.67	-29.7	-30.3	28.4	0.00e+00	0	29	0	1470103552	32	5921
2026-01-05 01:52:01.90	134.48	33.50	-29.8	-30.3	28.3	0.00e+00	0	29	0	1493172224	32	5963
2026-01-05 01:52:05.93	134.05	34.34	-29.3	-29.9	28.6	0.00e+00	0	29	0	1515192320	32	5649
2026-01-05 01:52:09.97	133.59	35.21	-29.3	-30.0	28.5	0.00e+00	0	29	0	1538260992	32	5704
2026-01-05 01:52:14.01	133.10	36.11	-29.6	-30.2	28.6	0.00e+00	0	29	0	1561329664	32	5834
2026-01-05 01:52:18.05	132.59	37.02	-29.3	-29.9	28.6	0.00e+00	0	29	0	1584398336	32	5635
2026-01-05 01:52:22.09	132.05	37.96	-29.2	-29.8	28.5	0.00e+00	0	29	0	1606418432	32	5568
2026-01-05 01:52:26.13	131.47	38.92	-29.7	-30.3	28.3	0.00e+00	0	29	0	1629487104	32	5906
2026-01-05 01:52:30.16	130.86	39.90	-29.6	-30.2	28.4	0.00e+00	0	29	0	1651507200	32	5878
2026-01-05 01:52:34.20	130.21	40.92	-30.3	-30.9	28.0	0.00e+00	0	29	0	1674575872	32	6389
2026-01-05 01:52:38.24	129.52	41.95	-29.7	-30.3	28.3	0.00e+00	0	29	0	1697644544	32	5902
2026-01-05 01:52:42.28	128.78	43.01	-29.8	-30.5	28.1	0.00e+00	0	29	0	1719664640	32	6048
2026-01-05 01:52:46.32	127.98	44.09	-30.1	-30.7	28.1	0.00e+00	0	29	0	1742733312	32	6196
2026-01-05 01:52:50.36	127.13	45.20	-30.2	-30.8	27.8	0.00e+00	0	29	0	1765801984	32	6246
2026-01-05 01:52:54.40	126.22	46.33	-29.9	-30.5	28.1	0.00e+00	0	29	0	1787822080	32	6042
2026-01-05 01:52:58.43	125.23	47.48	-29.8	-30.4	28.2	0.00e+00	0	29	0	1810890752	32	6006
2026-01-05 01:53:02.47	124.17	48.66	-30.3	-30.9	27.9	0.00e+00	0	29	0	1833959424	32	6349
2026-01-05 01:53:06.51	123.02	49.86	-30.7	-31.3	27.5	0.00e+00	0	29	0	1855979520	32	6618
2026-01-05 01:53:10.56	121.78	51.07	-31.1	-31.7	27.1	0.00e+00	0	29	0	1879048192	34	6238
2026-01-05 01:53:14.59	120.43	52.30	-30.6	-31.3	27.5	0.00e+00	0	29	0	1902116864	34	5904
2026-01-05 01:53:18.63	118.96	53.55	-30.9	-31.6	27.4	0.00e+00	0	29	0	1924136960	34	6110
2026-01-05 01:53:22.67	117.36	54.80	-30.8	-31.4	27.5	0.00e+00	0	29	0	1947205632	34	6006
2026-01-05 01:53:26.71	115.61	56.06	-30.9	-31.6	27.2	0.00e+00	0	29	0	1970274304	34	6105
2026-01-05 01:53:30.75	113.69	57.32	-30.3	-30.8	27.9	0.00e+00	0	29	0	1993342976	34	5615
2026-01-05 01:53:34.79	111.59	58.57	-30.7	-31.3	27.5	0.00e+00	0	29	0	2015363072	34	5935
2026-01-05 01:53:38.82	109.28	59.81	-30.8	-31.4	27.4	0.00e+00	0	29	0	2038431744	34	6005
2026-01-05 01:53:42.86	106.74	61.02	-30.2	-30.8	28.2	0.00e+00	0	29	0	2060451840	34	5599
2026-01-05 01:53:46.90	103.94	62.21	-29.6	-30.2	28.2	0.00e+00	0	29	0	2083520512	32	5832
2026-01-05 01:53:50.94	100.86	63.34	-28.9	-29.4	28.8	0.00e+00	0	29	0	2106589184	32	5367
2026-01-05 01:53:54.98	97.47	64.42	-28.8	-29.3	28.8	0.00e+00	0	29	0	2128609280	32	5288
2026-01-05 01:53:59.02	93.76	65.43	-28.6	-29.2	29.0	0.00e+00	0	29	0	2151677952	30	5861
2026-01-05 01:54:03.06	89.72	66.35	-27.8	-28.4	29.5	0.00e+00	0	29	0	2174746624	30	5370
2026-01-05 01:54:07.10	85.33	67.15	-28.0	-28.6	29.3	0.00e+00	0	29	0	2197815296	28	6163
2026-01-05 01:54:11.14	80.62	67.84	-28.3	-28.9	29.2	0.00e+00	0	29	0	2219835392	30	5667
2026-01-05 01:54:15.18	75.62	68.38	-28.6	-29.2	29.0	0.00e+00	0	29	0	2242904064	30	5887
2026-01-05 01:54:19.22	70.38	68.76	-28.3	-28.8	29.3	0.00e+00	0	29	0	2264924160	30	5629
2026-01-05 01:54:23.26	64.98	68.97	-28.5	-29.1	29.1	0.00e+00	0	29	0	2287992832	30	5823
2026-01-05 01:54:27.30	59.52	69.00	-28.2	-28.8	29.2	0.00e+00	0	29	0	2311061504	30	5601
2026-01-05 01:54:31.34	54.09	68.86	-29.0	-29.6	28.8	0.00e+00	0	29	0	2333081600	30	6139
2026-01-05 01:54:35.38	48.78	68.54	-28.5	-29.0	29.2	0.00e+00	0	29	0	2356150272	30	5735
2026-01-05 01:54:39.42	43.68	68.07	-28.4	-29.0	29.1	0.00e+00	0	29	0	2379218944	30	5722
2026-01-05 01:54:43.46	38.85	67.44	-28.5	-29.1	29.1	0.00e+00	0	29	0	2402287616	30	5782
2026-01-05 01:54:47.50	34.34	66.68	-28.5	-29.2	29.2	0.00e+00	0	29	0	2424307712	30	5852
2026-01-05 01:54:51.54	30.16	65.80	-29.0	-29.5	28.7	0.00e+00	0	29	0	2447376384	30	6075
2026-01-05 01:54:55.58	26.33	64.83	-28.6	-29.2	29.0	0.00e+00	0	29	0	2469396480	30	5837
2026-01-05 01:54:59.62	22.82	63.78	-28.8	-29.5	28.9	0.00e+00	0	29	0	2492465152	30	6036
2026-01-05 01:55:03.66	19.63	62.66	-29.1	-29.8	28.5	0.00e+00	0	29	0	2515533824	30	6268
2026-01-05 01:55:07.70	16.72	61.50	-29.9	-30.5	28.1	0.00e+00	0	29	0	2538602496	32	6080
2026-01-05 01:55:11.74	14.09	60.30	-30.0	-30.6	27.9	0.00e+00	0	29	0	2560622592	32	6130
2026-01-05 01:55:15.78	11.69	59.07	-29.8	-30.3	28.3	0.00e+00	0	29	0	2583691264	32	5956
2026-01-05 01:55:19.82	9.51	57.82	-29.8	-30.5	28.2	0.00e+00	0	29	0	2606759936	32	6072
2026-01-05 01:55:23.86	7.52	56.57	-30.0	-30.5	28.0	0.00e+00	0	29	0	2628780032	32	6092
2026-01-05 01:55:27.90	5.71	55.31	-30.2	-30.8	27.7	0.00e+00	0	29	0	2651848704	32	6256
2026-01-05 01:55:31.94	4.06	54.06	-29.7	-30.2	28.2	0.00e+00	0	29	0	2673868800	32	5844
2026-01-05 01:55:35.98	2.54	52.81	-30.2	-30.8	27.8	0.00e+00	0	29	0	2696937472	32	6261
2026-01-05 01:55:40.01	1.15	51.58	-30.5	-31.0	27.4	0.00e+00	0	29	0	2720006144	34	5757
2026-01-05 01:55:44.05	359.87	50.36	-29.8	-30.3	28.0	0.00e+00	0	29	0	2743074816	34	5306
2026-01-05 01:55:48.08	358.69	49.17	-29.4	-30.1	28.3	0.00e+00	0	29	0	2765094912	32	5799
2026-01-05 01:55:52.13	357.59	47.98	-29.5	-30.0	28.2	0.00e+00	0	29	0	2788163584	32	5740
2026-01-05 01:55:56.16	356.58	46.83	-29.9	-30.5	27.9	0.00e+00	0	29	0	2811232256	32	6049
2026-01-05 01:56:00.20	355.64	45.69	-29.5	-30.0	28.2	0.00e+00	0	29	0	2833252352	32	5755
2026-01-05 01:56:04.24	354.77	44.57	-30.2	-30.8	27.9	0.00e+00	0	29	0	2856321024	32	6265
2026-01-05 01:56:08.28	353.96	43.48	-29.7	-30.4	27.8	0.00e+00	0	29	0	2878341120	32	6008
2026-01-05 01:56:12.32	353.20	42.42	-30.2	-30.9	27.7	0.00e+00	0	29	0	2901409792	32	6324
2026-01-05 01:56:16.36	352.48	41.38	-28.9	-29.4	28.7	0.00e+00	0	29	0	2924478464	32	5325
2026-01-05 01:56:20.40	351.82	40.36	-28.7	-29.2	29.0	0.00e+00	0	29	0	2947547136	30	5839
2026-01-05 01:56:24.44	351.19	39.37	-28.6	-29.1	29.0	0.00e+00	0	29	0	2969567232	30	5779
2026-01-05 01:56:28.48	350.60	38.40	-29.0	-29.7	28.8	0.00e+00	0	29	0	2992635904	30	6208
2026-01-05 01:56:32.52	350.05	37.45	-28.7	-29.2	28.9	0.00e+00	0	29	0	3015704576	30	5851
2026-01-05 01:56:36.56	349.53	36.53	-29.0	-29.7	28.6	0.00e+00	0	29	0	3037724672	30	6183
2026-01-05 01:56:40.60	349.04	35.63	-28.7	-29.4	28.8	0.00e+00	0	29	0	3060793344	30	5996
2026-01-05 01:56:44.64	348.57	34.76	-29.1	-29.8	28.6	0.00e+00	0	29	0	3082813440	30	6256
2026-01-05 01:56:48.68	348.13	33.90	-29.2	-29.7	28.6	0.00e+00	0	29	0	3105882112	30	6209
2026-01-05 01:56:52.72	347.71	33.07	-29.0	-29.7	28.7	0.00e+00	0	29	0	3128950784	32	5537
2026-01-05 01:56:56.76	347.31	32.26	-29.1	-29.6	28.5	0.00e+00	0	29	0	3152019456	32	5457
2026-01-05 01:57:00.80	346.94	31.46	-29.2	-29.7	28.5	0.00e+00	0	29	0	3174039552	32	5540
2026-01-05 01:57:04.84	346.58	30.69	-29.3	-29.8	28.5	0.00e+00	0	29	0	3197108224	32	5582
2026-01-05 01:57:08.88	346.24	29.94	-29.4	-29.9	28.5	0.00e+00	0	29	0	3220176896	32	5644
2026-01-05 01:57:12.92	345.91	29.20	-29.5	-30.0	28.4	0.00e+00	0	29	0	3242196992	32	5732
2026-01-05 01:57:16.96	345.60	28.48	-29.5	-30.1	28.2	0.00e+00	0	29	0	3265265664	32	5783
2026-01-05 01:57:21.00	345.31	27.78	-29.5	-30.0	28.2	0.00e+00	0	29	0	3288334336	32	5753
2026-01-05 01:57:25.04	345.02	27.10	-29.2	-29.7	28.6	0.00e+00	0	29	0	3310354432	32	5524
2026-01-05 01:57:29.07	344.75	26.43	-29.7	-30.2	28.3	0.00e+00	0	29	0	3333423104	32	5895
2026-01-05 01:57:33.12	344.50	25.78	-29.8	-30.3	28.1	0.00e+00	0	29	0	3356491776	32	5937
2026-01-05 01:57:37.15	344.25	25.14	-29.6	-30.2	28.1	0.00e+00	0	29	0	3378511872	32	5841
2026-01-05 01:57:41.19	344.01	24.52	-29.8	-30.3	28.0	0.00e+00	0	29	0	3401580544	32	5939
2026-01-05 01:57:45.23	343.78	23.91	-29.8	-30.3	28.1	0.00e+00	0	29	0	3424649216	32	5940
2026-01-05 01:57:49.27	343.56	23.31	-29.9	-30.4	28.0	0.00e+00	0	29	0	3446669312	32	6020
2026-01-05 01:57:53.31	343.35	22.73	-29.9	-30.6	27.7	0.00e+00	0	29	0	3469737984	32	6155
2026-01-05 01:57:57.34	343.15	22.16	-30.2	-30.7	27.7	0.00e+00	0	29	0	3491758080	32	6217
2026-01-05 01:58:01.38	342.96	21.60	-30.6	-31.3	27.6	0.00e+00	0	29	0	3514826752	34	5900
2026-01-05 01:58:05.42	342.77	21.05	-31.6	-32.2	26.7	0.00e+00	0	29	0	3537895424	34	6551
2026-01-05 01:58:09.46	342.59	20.52	-30.7	-31.4	27.3	0.00e+00	0	29	0	3560964096	34	6005
2026-01-05 01:58:13.50	342.42	19.99	-30.4	-31.0	27.4	0.00e+00	0	29	0	3582984192	34	5714
2026-01-05 01:58:17.55	342.25	19.48	-30.6	-31.1	27.4	0.00e+00	0	29	0	3606052864	34	5827
2026-01-05 01:58:21.59	342.09	18.97	-30.8	-31.3	27.1	0.00e+00	0	29	0	3629121536	34	5924
2026-01-05 01:58:25.63	341.94	18.48	-31.1	-31.6	27.0	0.00e+00	0	29	0	3651141632	34	6156
2026-01-05 01:58:29.67	341.79	18.00	-31.1	-31.6	26.9	0.00e+00	0	29	0	3674210304	34	6171
2026-01-05 01:58:33.71	341.64	17.52	-31.5	-32.0	26.6	0.00e+00	0	29	0	3697278976	34	6451
2026-01-05 01:58:37.75	341.50	17.05	-31.4	-32.2	26.6	0.00e+00	0	29	0	3719299072	36	5831
2026-01-05 01:58:41.79	341.37	16.60	-31.7	-32.3	26.4	0.00e+00	0	29	0	3742367744	36	5939
2026-01-05 01:58:45.83	341.24	16.15	-31.8	-32.5	26.3	0.00e+00	0	29	0	3765436416	36	6068
2026-01-05 01:58:49.87	341.11	15.71	-31.6	-32.1	26.4	0.00e+00	0	29	0	3787456512	36	5828
2026-01-05 01:58:53.91	340.99	15.27	-31.8	-32.6	26.1	0.00e+00	0	29	0	3810525184	36	6107
2026-01-05 01:58:57.95	340.87	14.85	-32.0	-32.6	26.0	0.00e+00	0	29	0	3833593856	36	6126
2026-01-05 01:59:01.98	340.76	14.43	-32.1	-32.9	25.9	0.00e+00	0	29	0	3855613952	36	6336
2026-01-05 01:59:06.02	340.65	14.01	-32.5	-33.1	25.5	0.00e+00	0	29	0	3878682624	36	6476
2026-01-05 01:59:10.06	340.54	13.61	-32.4	-33.1	25.6	0.00e+00	0	29	0	3901751296	36	6501
2026-01-05 01:59:14.10	340.44	13.21	-32.5	-33.1	25.5	0.00e+00	0	29	0	3923771392	36	6476
2026-01-05 01:59:18.14	340.34	12.82	-32.9	-33.5	25.1	0.00e+00	0	29	0	3946840064	38	6078
2026-01-05 01:59:22.18	340.24	12.43	-32.8	-33.5	25.1	0.00e+00	0	29	0	3969908736	38	6089
2026-01-05 01:59:26.22	340.14	12.05	-32.9	-33.5	25.2	0.00e+00	0	29	0	3991928832	38	6055
2026-01-05 01:59:30.26	340.05	11.68	-33.0	-33.6	25.2	0.00e+00	0	29	0	4014997504	38	6111
2026-01-05 01:59:34.30	339.96	11.31	-33.1	-33.7	25.0	0.00e+00	0	29	0	4038066176	38	6213
2026-01-05 01:59:38.34	339.88	10.94	-33.4	-34.0	24.8	0.00e+00	0	29	0	4060086272	38	6409
2026-01-05 01:59:42.38	339.79	10.58	-33.5	-34.1	24.8	0.00e+00	0	29	0	4083154944	40	5788
2026-01-05 01:59:46.42	339.71	10.23	-33.3	-33.9	24.7	0.00e+00	0	29	0	4106223616	40	5642
2026-01-05 01:59:50.46	339.63	9.88	-33.2	-33.9	24.8	0.00e+00	0	29	0	4128243712	40	5686
2026-01-05 01:59:54.50	339.55	9.54	-33.4	-34.0	24.6	0.00e+00	0	29	0	4151312384	40	5753
2026-01-05 01:59:58.54	339.48	9.20	-33.6	-34.2	24.4	0.00e+00	0	29	0	4174381056	40	5868
2026-01-05 02:00:02.58	339.41	8.86	-33.6	-34.4	24.3	0.00e+00	0	29	0	4196401152	40	6003
2026-01-05 02:00:06.62	339.34	8.53	-34.4	-35.0	23.6	0.00e+00	0	29	0	4219469824	40	6464
2026-01-05 02:00:10.66	339.27	8.21	-33.9	-34.6	24.0	0.00e+00	0	29	0	4242538496	42	5502
2026-01-05 02:00:14.70	339.20	7.89	-34.3	-35.0	23.7	0.00e+00	0	29	0	4265607168	42	5700
2026-01-05 02:00:18.73	339.13	7.57	-34.9	-35.7	23.2	0.00e+00	0	29	0	4287627264	44	5566
2026-01-05 02:00:22.77	339.07	7.26	-34.4	-35.0	23.5	0.00e+00	0	29	0	4310695936	42	5743
2026-01-05 02:00:26.81	339.01	6.94	-34.7	-35.5	23.3	0.00e+00	0	29	0	4332716032	42	6049
2026-01-05 02:00:30.85	338.95	6.64	-35.0	-35.6	22.9	0.00e+00	0	29	0	4355784704	42	6170
2026-01-05 02:00:34.89	338.89	6.33	-35.0	-35.9	22.8	0.00e+00	0	29	0	4378853376	42	6343
2026-01-05 02:00:38.93	338.83	6.04	-34.9	-35.6	22.9	0.00e+00	0	29	0	4400873472	42	6150
2026-01-05 02:00:42.96	338.78	5.74	-34.6	-35.5	22.7	0.00e+00	0	29	0	4423942144	42	6040
2026-01-05 02:00:47.00	338.73	5.45	-35.4	-36.2	21.7	0.00e+00	0	29	0	4447010816	42	6566
2026-01-05 02:00:51.04	338.67	5.16	-36.6	-37.5	19.9	0.00e+00	0	29	0	4469030912	44	6783
2026-01-05 02:00:55.08	338.62	4.87	-38.4	-39.7	17.1	0.00e+00	0	29	0	4492099584	48	6996
2026-01-05 02:00:59.12	338.57	4.59	-40.3	-42.5	13.4	3.40e-06	0	29	0	4515168256	52	7598
2026-01-05 02:01:03.16	338.52	4.31	-42.1	-45.7	9.1	9.03e-03	0	29	0	4537188352	56	8820
2026-01-05 02:01:07.19	338.48	4.03	-43.1	-48.8	5.0	5.37e-01	0	29	0	4559208448	58	11160
2026-01-05 02:01:11.23	338.43	3.75	-43.5	-53.3	3.6	8.41e-01	0	29	104	4559208448	58	18722
2026-01-05 02:01:15.27	338.39	3.48	-43.5	-54.8	3.6	8.46e-01	0	29	104	4559208448	58	22326
2026-01-05 02:01:19.31	338.34	3.21	-43.6	-55.3	3.6	8.44e-01	0	29	104	4559208448	58	23726
2026-01-05 02:01:23.34	338.30	2.95	-43.8	-55.7	3.6	8.45e-01	0	29	104	4559208448	58	24840
2026-01-05 02:01:27.38	338.26	2.68	-48.8	-60.9	3.6	8.46e-01	0	29	104	4559208448	60	40121
2026-01-05 02:01:31.42	338.22	2.42	-48.8	-60.9	3.6	8.46e-01	0	29	104	4559208448	60	40163
2026-01-05 02:01:35.46	338.18	2.16	-48.8	-61.1	3.6	8.45e-01	0	29	104	4559208448	60	40801
2026-01-05 02:01:39.50	338.14	1.90	-48.7	-60.8	3.6	8.45e-01	0	29	104	4559208448	60	39718
2026-01-05 02:01:43.54	338.10	1.65	-48.7	-60.8	3.6	8.45e-01	0	29	104	4559208448	60	39535
2026-01-05 02:01:47.58	338.07	1.39	-48.7	-60.9	3.6	8.45e-01	0	29	104	4559208448	60	39923
2026-01-05 02:01:51.61	338.03	1.14	-49.0	-61.1	3.6	8.46e-01	0	29	104	4559208448	60	41150
2026-01-05 02:01:55.65	338.00	0.89	-48.9	-61.0	3.6	8.44e-01	0	29	104	4559208448	60	40592
2026-01-05 02:01:59.68	337.96	0.65	-48.8	-60.9	3.6	8.45e-01	0	29	104	4559208448	60	40177
2026-01-05 02:02:03.72	337.93	0.40	-48.8	-60.9	3.6	8.45e-01	0	29	104	4559208448	60	39975
2026-01-05 02:02:07.76	337.90	0.16	-49.2	-61.2	3.6	8.47e-01	0	29	104	4559208448	60	41715

#Closed at: 2026-01-05 02:02:11
#Recorded file [4559 MB]: D:/lorett/data/35029_260105_134646.dat