passes_logs/2026/01/05/R4.6S_Anadyr/R4.6S_Anadyr__20260105_210911_SUOMI_NPP_rec.log

#Pass ID: 20260105_210911_SUOMI NPP
#Satellite: SUOMI NPP
#Configuration: NPP
#almurnet v.1.7.20251203
#Start time: 2026-01-05 21:09:11

#Version: 2.2.20231116
#Station: R4.6S_Anadyr
#Location: 177.4865 lon 64.73178 lat
#TLE: 1 37849U 11061A   26004.95404768  .00000136  00000+0  85334-4 0  9991
#TLE: 2 37849  98.7801 307.0898 0002575  80.6707 279.4760 14.19522289735281

#Time	Az	El	Level	Level2	SNR	BER	BlckErr	Temp	State	Recorded	gain1	gain2
2026-01-05 21:09:11.93	82.93	0.04	-48.4	-59.1	3.5	8.45e-01	0	31	0	0	60	32440
2026-01-05 21:09:15.96	82.67	0.25	-48.6	-63.8	3.6	1.51e+00	0	32	104	0	60	56186
2026-01-05 21:09:20.00	82.40	0.46	-48.7	-63.8	3.6	1.51e+00	0	32	104	0	60	56238
2026-01-05 21:09:24.04	82.12	0.67	-48.6	-63.9	3.6	1.51e+00	0	32	104	0	60	56393
2026-01-05 21:09:28.07	81.84	0.88	-48.1	-63.3	3.6	1.51e+00	0	33	104	0	60	52883
2026-01-05 21:09:32.12	81.56	1.09	-47.0	-62.3	3.6	1.51e+00	0	33	104	0	60	47226
2026-01-05 21:09:36.16	81.27	1.30	-47.0	-62.2	3.6	1.51e+00	0	33	104	0	60	46824
2026-01-05 21:09:40.20	80.98	1.52	-47.0	-62.3	3.6	1.51e+00	0	33	104	0	60	47019
2026-01-05 21:09:44.24	80.69	1.73	-47.0	-62.2	3.6	1.51e+00	0	33	104	0	60	46752
2026-01-05 21:09:48.27	80.39	1.95	-47.0	-62.3	3.6	1.51e+00	0	33	104	0	60	46864
2026-01-05 21:09:52.31	80.08	2.16	-47.0	-61.9	3.6	1.51e+00	0	33	104	0	60	45138
2026-01-05 21:09:56.35	79.78	2.38	-47.0	-62.3	3.6	1.51e+00	0	33	104	0	60	46966
2026-01-05 21:10:00.38	79.46	2.60	-47.0	-62.3	3.6	1.51e+00	0	33	104	0	60	47118
2026-01-05 21:10:04.42	79.14	2.82	-46.9	-61.4	3.6	1.51e+00	0	33	104	0	60	42564
2026-01-05 21:10:08.46	78.82	3.04	-46.3	-54.0	6.6	4.76e-01	92	33	0	0	60	18202
2026-01-05 21:10:12.50	78.49	3.26	-45.3	-50.2	8.1	4.20e-02	92	33	0	3145728	60	11752
2026-01-05 21:10:16.54	78.16	3.48	-42.3	-44.5	17.0	0.00e+00	0	33	0	5242880	58	6778
2026-01-05 21:10:20.57	77.82	3.70	-41.2	-42.9	18.5	0.00e+00	0	33	0	12582912	56	6319
2026-01-05 21:10:24.61	77.47	3.93	-40.9	-42.4	18.8	0.00e+00	34	33	0	19922944	54	6748
2026-01-05 21:10:28.65	77.12	4.15	-40.7	-42.2	19.1	0.00e+00	92	33	0	27262976	54	6556
2026-01-05 21:10:32.69	76.77	4.38	-40.5	-42.0	19.2	0.00e+00	0	33	0	34603008	54	6432
2026-01-05 21:10:36.73	76.40	4.60	-40.7	-42.2	19.1	0.00e+00	34	33	0	42991616	54	6548
2026-01-05 21:10:40.76	76.04	4.83	-40.8	-42.3	19.2	0.00e+00	92	33	0	50331648	54	6640
2026-01-05 21:10:44.80	75.66	5.06	-41.1	-42.7	18.9	0.00e+00	37	33	0	57671680	54	6944
2026-01-05 21:10:48.84	75.29	5.29	-40.9	-42.4	19.0	0.00e+00	0	33	0	65011712	54	6744
2026-01-05 21:10:52.88	74.90	5.52	-41.0	-42.6	18.6	0.00e+00	92	33	0	72351744	54	6865
2026-01-05 21:10:56.92	74.51	5.75	-40.8	-42.3	19.1	0.00e+00	90	33	0	80740352	54	6625
2026-01-05 21:11:00.96	74.11	5.98	-40.7	-42.1	19.5	0.00e+00	0	33	0	88080384	54	6496
2026-01-05 21:11:04.99	73.70	6.21	-40.5	-41.9	19.5	0.00e+00	0	33	0	95420416	54	6367
2026-01-05 21:11:09.03	73.29	6.44	-40.8	-42.3	19.3	0.00e+00	92	33	0	102760448	54	6680
2026-01-05 21:11:13.07	72.87	6.67	-41.0	-42.5	19.1	0.00e+00	92	33	0	111149056	54	6807
2026-01-05 21:11:17.11	72.45	6.91	-40.9	-42.4	19.1	0.00e+00	0	33	0	118489088	54	6712
2026-01-05 21:11:21.14	72.02	7.14	-40.6	-42.0	19.6	0.00e+00	92	33	0	125829120	54	6450
2026-01-05 21:11:25.19	71.58	7.38	-40.6	-42.0	19.6	0.00e+00	36	33	0	133169152	54	6450
2026-01-05 21:11:29.22	71.13	7.61	-40.2	-41.5	20.2	0.00e+00	0	33	0	140509184	54	6095
2026-01-05 21:11:33.26	70.68	7.85	-40.4	-41.9	19.8	0.00e+00	0	33	0	148897792	54	6319
2026-01-05 21:11:37.30	70.21	8.08	-39.9	-41.2	20.4	0.00e+00	92	33	0	156237824	54	5860
2026-01-05 21:11:41.34	69.74	8.32	-40.2	-41.5	20.1	0.00e+00	92	33	0	163577856	54	6088
2026-01-05 21:11:45.38	69.27	8.56	-40.3	-41.7	20.0	0.00e+00	0	33	0	170917888	54	6175
2026-01-05 21:11:49.42	68.78	8.80	-40.3	-41.7	20.0	0.00e+00	0	33	0	179306496	54	6219
2026-01-05 21:11:53.46	68.29	9.03	-40.5	-41.9	19.9	0.00e+00	92	33	0	186646528	54	6323
2026-01-05 21:11:57.49	67.79	9.27	-39.9	-41.1	20.6	0.00e+00	92	33	0	193986560	54	5814
2026-01-05 21:12:01.53	67.28	9.51	-39.5	-40.7	21.0	0.00e+00	0	33	0	201326592	52	6217
2026-01-05 21:12:05.57	66.76	9.75	-39.4	-40.5	21.2	0.00e+00	9	33	0	208666624	52	6091
2026-01-05 21:12:09.60	66.23	9.98	-39.4	-40.6	21.1	0.00e+00	71	33	0	217055232	52	6142
2026-01-05 21:12:13.64	65.69	10.22	-39.4	-40.6	20.9	0.00e+00	0	33	0	224395264	52	6143
2026-01-05 21:12:17.68	65.15	10.46	-39.5	-40.6	21.1	0.00e+00	0	33	0	231735296	52	6163
2026-01-05 21:12:21.72	64.59	10.70	-39.1	-40.2	21.4	0.00e+00	64	33	0	239075328	52	5885
2026-01-05 21:12:25.76	64.03	10.93	-39.3	-40.4	21.3	0.00e+00	92	33	0	247463936	52	6026
2026-01-05 21:12:29.80	63.45	11.17	-39.5	-40.6	21.1	0.00e+00	0	33	0	254803968	52	6171
2026-01-05 21:12:33.84	62.87	11.41	-39.5	-40.6	21.1	0.00e+00	0	33	0	262144000	52	6167
2026-01-05 21:12:37.88	62.28	11.64	-39.7	-40.9	20.9	0.00e+00	78	33	0	269484032	52	6378
2026-01-05 21:12:41.92	61.68	11.87	-39.9	-41.2	20.7	0.00e+00	92	33	0	276824064	52	6561
2026-01-05 21:12:45.95	61.07	12.11	-40.0	-41.3	20.7	0.00e+00	0	33	0	285212672	52	6625
2026-01-05 21:12:49.99	60.44	12.34	-39.9	-41.1	20.8	0.00e+00	8	33	0	292552704	52	6512
2026-01-05 21:12:54.03	59.81	12.57	-39.5	-40.6	21.2	0.00e+00	7	33	0	299892736	52	6152
2026-01-05 21:12:58.06	59.17	12.80	-39.4	-40.6	21.3	0.00e+00	65	33	0	307232768	52	6141
2026-01-05 21:13:02.10	58.52	13.03	-39.2	-40.3	21.5	0.00e+00	0	33	0	315621376	52	5902
2026-01-05 21:13:06.13	57.86	13.25	-39.0	-40.1	21.5	0.00e+00	34	33	0	322961408	52	5820
2026-01-05 21:13:10.16	57.19	13.48	-38.0	-39.0	22.6	0.00e+00	92	33	0	330301440	50	5714
2026-01-05 21:13:14.20	56.50	13.70	-37.9	-38.8	22.9	0.00e+00	0	33	0	337641472	48	6312
2026-01-05 21:13:18.23	55.81	13.92	-37.7	-38.7	22.9	0.00e+00	0	33	0	344981504	48	6178
2026-01-05 21:13:22.27	55.11	14.14	-37.4	-38.3	23.1	0.00e+00	92	33	0	353370112	48	5953
2026-01-05 21:13:26.31	54.39	14.36	-37.4	-38.3	23.1	0.00e+00	92	33	0	360710144	48	5954
2026-01-05 21:13:30.35	53.67	14.57	-37.7	-38.6	22.9	0.00e+00	0	33	0	368050176	48	6167
2026-01-05 21:13:34.39	52.93	14.78	-38.0	-39.0	22.6	0.00e+00	0	33	0	375390208	48	6429
2026-01-05 21:13:38.42	52.19	14.99	-37.6	-38.6	22.8	0.00e+00	24	34	0	382730240	48	6131
2026-01-05 21:13:42.46	51.43	15.19	-36.7	-37.6	23.5	0.00e+00	83	34	0	391118848	48	5482
2026-01-05 21:13:46.50	50.66	15.40	-36.5	-37.4	23.9	0.00e+00	0	33	0	398458880	46	5994
2026-01-05 21:13:50.54	49.89	15.59	-37.2	-38.1	23.4	0.00e+00	44	34	0	405798912	46	6487
2026-01-05 21:13:54.58	49.10	15.79	-37.8	-38.8	22.9	0.00e+00	90	34	0	413138944	48	6251
2026-01-05 21:13:58.62	48.30	15.98	-37.1	-38.0	23.4	0.00e+00	0	34	0	421527552	48	5743
2026-01-05 21:14:02.66	47.49	16.16	-36.6	-37.5	23.8	0.00e+00	0	34	0	428867584	46	6071
2026-01-05 21:14:06.69	46.68	16.34	-36.7	-37.5	23.8	0.00e+00	85	33	0	436207616	46	6102
2026-01-05 21:14:10.73	45.85	16.52	-36.7	-37.6	23.8	0.00e+00	92	33	0	443547648	46	6121
2026-01-05 21:14:14.77	45.01	16.69	-36.7	-37.6	23.8	0.00e+00	0	34	0	450887680	46	6120
2026-01-05 21:14:18.80	44.16	16.85	-37.7	-38.7	23.0	0.00e+00	0	33	0	459276288	46	6961
2026-01-05 21:14:22.84	43.31	17.01	-36.9	-37.8	23.5	0.00e+00	82	33	0	466616320	48	5575
2026-01-05 21:14:26.88	42.44	17.17	-36.3	-37.2	24.0	0.00e+00	92	33	0	473956352	46	5842
2026-01-05 21:14:30.92	41.57	17.32	-35.9	-36.7	24.5	0.00e+00	0	33	0	481296384	46	5515
2026-01-05 21:14:34.95	40.68	17.46	-35.9	-36.7	23.8	0.00e+00	0	34	0	489684992	44	6204
2026-01-05 21:14:38.99	39.79	17.60	-36.6	-37.4	23.8	0.00e+00	43	33	0	497025024	44	6760
2026-01-05 21:14:43.03	38.89	17.73	-36.8	-37.6	23.7	0.00e+00	0	34	0	504365056	44	6923
2026-01-05 21:14:47.07	37.99	17.85	-37.1	-38.0	23.4	0.00e+00	0	34	0	511705088	46	6398
2026-01-05 21:14:51.11	37.07	17.97	-37.9	-38.9	22.8	0.00e+00	44	33	0	519045120	46	7091
2026-01-05 21:14:55.15	36.15	18.08	-37.5	-38.4	23.1	0.00e+00	0	34	0	527433728	48	6027
2026-01-05 21:14:59.18	35.22	18.18	-37.4	-38.3	23.2	0.00e+00	0	34	0	534773760	48	5916
2026-01-05 21:15:03.22	34.29	18.28	-37.2	-38.1	23.4	0.00e+00	0	34	0	542113792	46	6479
2026-01-05 21:15:07.26	33.35	18.36	-37.1	-38.0	23.3	0.00e+00	38	34	0	549453824	46	6456
2026-01-05 21:15:11.29	32.41	18.44	-37.5	-38.4	23.1	0.00e+00	0	34	0	557842432	46	6765
2026-01-05 21:15:15.33	31.46	18.51	-38.8	-40.0	21.9	0.00e+00	0	34	0	565182464	50	6399
2026-01-05 21:15:19.37	30.51	18.58	-38.8	-39.9	21.9	0.00e+00	0	33	0	572522496	50	6335
2026-01-05 21:15:23.40	29.55	18.63	-38.0	-39.0	22.6	0.00e+00	92	33	0	579862528	50	5727
2026-01-05 21:15:27.44	28.59	18.68	-37.8	-38.8	22.8	0.00e+00	0	34	0	587202560	48	6304
2026-01-05 21:15:31.48	27.63	18.72	-37.9	-38.8	22.8	0.00e+00	0	34	0	595591168	48	6300
2026-01-05 21:15:35.52	26.66	18.75	-37.2	-38.1	23.3	0.00e+00	0	34	0	602931200	48	5797
2026-01-05 21:15:39.56	25.69	18.77	-37.6	-38.5	23.0	0.00e+00	0	34	0	610271232	48	6075
2026-01-05 21:15:43.59	24.73	18.79	-37.9	-38.9	22.7	0.00e+00	0	33	0	617611264	48	6328
2026-01-05 21:15:47.63	23.76	18.79	-37.7	-38.6	22.9	0.00e+00	0	34	0	624951296	48	6168
2026-01-05 21:15:51.67	22.79	18.79	-37.5	-38.5	23.0	0.00e+00	90	34	0	633339904	48	6066
2026-01-05 21:15:55.71	21.82	18.78	-38.7	-39.8	22.0	0.00e+00	0	33	0	640679936	48	7019
2026-01-05 21:15:59.74	20.85	18.76	-38.3	-39.3	22.3	0.00e+00	0	33	0	648019968	50	5944
2026-01-05 21:16:03.78	19.89	18.73	-37.1	-38.0	23.3	0.00e+00	0	34	0	655360000	48	5760
2026-01-05 21:16:07.81	18.93	18.69	-36.6	-37.5	23.6	0.00e+00	92	33	0	663748608	46	6051
2026-01-05 21:16:11.86	17.96	18.65	-36.5	-37.3	23.9	0.00e+00	0	34	0	671088640	46	5944
2026-01-05 21:16:15.90	17.01	18.59	-36.9	-37.8	23.6	0.00e+00	0	34	0	678428672	46	6283
2026-01-05 21:16:19.93	16.05	18.53	-36.0	-36.9	24.3	0.00e+00	33	33	0	685768704	46	5648
2026-01-05 21:16:23.97	15.10	18.46	-35.8	-36.6	24.4	0.00e+00	44	33	0	693108736	44	6136
2026-01-05 21:16:28.00	14.16	18.38	-36.0	-36.8	24.3	0.00e+00	0	34	0	701497344	44	6304
2026-01-05 21:16:32.04	13.22	18.30	-36.4	-37.2	24.0	0.00e+00	0	33	0	708837376	44	6592
2026-01-05 21:16:36.08	12.29	18.21	-36.6	-37.5	23.7	0.00e+00	74	33	0	716177408	44	6826
2026-01-05 21:16:40.12	11.36	18.10	-36.8	-37.7	23.7	0.00e+00	33	33	0	723517440	46	6227
2026-01-05 21:16:44.15	10.44	18.00	-37.7	-38.7	22.9	0.00e+00	0	33	0	731906048	46	6968
2026-01-05 21:16:48.19	9.52	17.88	-37.9	-38.9	22.8	0.00e+00	0	33	0	739246080	48	6337
2026-01-05 21:16:52.23	8.61	17.76	-38.1	-39.2	22.5	0.00e+00	74	34	0	746586112	48	6560
2026-01-05 21:16:56.27	7.71	17.63	-37.9	-38.9	22.7	0.00e+00	0	34	0	753926144	48	6372
2026-01-05 21:17:00.30	6.82	17.50	-38.6	-39.7	22.1	0.00e+00	0	33	0	761266176	48	6930
2026-01-05 21:17:04.34	5.94	17.36	-37.8	-38.8	22.8	0.00e+00	0	34	0	769654784	48	6295
2026-01-05 21:17:08.37	5.07	17.21	-37.9	-38.9	22.7	0.00e+00	92	34	0	776994816	48	6319
2026-01-05 21:17:12.41	4.20	17.06	-37.7	-38.6	23.0	0.00e+00	0	33	0	784334848	48	6149
2026-01-05 21:17:16.45	3.34	16.90	-36.9	-37.8	23.6	0.00e+00	0	33	0	791674880	48	5605
2026-01-05 21:17:20.48	2.50	16.73	-36.7	-37.5	23.7	0.00e+00	9	34	0	800063488	46	6099
2026-01-05 21:17:24.52	1.66	16.56	-36.9	-37.8	23.5	0.00e+00	36	33	0	807403520	46	6287
2026-01-05 21:17:28.56	0.83	16.39	-38.9	-40.0	21.8	0.00e+00	0	34	0	814743552	50	6432
2026-01-05 21:17:32.60	0.01	16.21	-38.5	-39.6	22.2	0.00e+00	0	34	0	822083584	50	6158
2026-01-05 21:17:36.64	359.20	16.02	-38.6	-39.6	22.1	0.00e+00	56	34	0	829423616	50	6169
2026-01-05 21:17:40.68	358.40	15.84	-39.1	-40.2	21.7	0.00e+00	0	34	0	837812224	50	6575
2026-01-05 21:17:44.71	357.61	15.64	-37.8	-38.7	22.8	0.00e+00	0	34	0	845152256	50	5548
2026-01-05 21:17:48.74	356.83	15.45	-37.3	-38.3	23.2	0.00e+00	0	34	0	852492288	48	5899
2026-01-05 21:17:52.78	356.07	15.25	-37.3	-38.2	23.2	0.00e+00	33	34	0	859832320	48	5851
2026-01-05 21:17:56.83	355.31	15.05	-38.3	-39.4	22.6	0.00e+00	0	33	0	868220928	48	6723
2026-01-05 21:18:00.86	354.56	14.84	-37.4	-38.4	23.1	0.00e+00	0	33	0	875560960	48	5967
2026-01-05 21:18:04.90	353.82	14.63	-37.5	-38.4	23.0	0.00e+00	0	33	0	882900992	48	5997
2026-01-05 21:18:08.93	353.10	14.42	-39.2	-40.3	21.4	0.00e+00	92	34	0	890241024	50	6641
2026-01-05 21:18:12.97	352.38	14.20	-40.7	-42.1	20.2	0.00e+00	0	34	0	897581056	52	7307
2026-01-05 21:18:17.01	351.68	13.98	-39.8	-41.1	20.8	0.00e+00	0	34	0	905969664	54	5801
2026-01-05 21:18:21.05	350.98	13.76	-39.3	-40.5	21.3	0.00e+00	84	34	0	913309696	52	6082
2026-01-05 21:18:25.09	350.30	13.54	-38.9	-39.9	21.8	0.00e+00	3	34	0	920649728	50	6388
2026-01-05 21:18:29.13	349.63	13.32	-39.3	-40.5	21.3	0.00e+00	0	34	0	927989760	50	6824
2026-01-05 21:18:33.16	348.96	13.09	-39.0	-40.2	21.7	0.00e+00	30	34	0	936378368	50	6543
2026-01-05 21:18:37.20	348.31	12.86	-38.1	-39.1	22.5	0.00e+00	88	34	0	943718400	50	5793
2026-01-05 21:18:41.24	347.67	12.64	-38.1	-39.1	22.4	0.00e+00	0	34	0	951058432	50	5788
2026-01-05 21:18:45.28	347.04	12.41	-38.6	-39.7	21.7	0.00e+00	0	34	0	958398464	50	6191
2026-01-05 21:18:49.32	346.41	12.17	-38.5	-39.6	21.9	0.00e+00	0	34	0	965738496	50	6163
2026-01-05 21:18:53.36	345.80	11.94	-38.0	-39.0	22.4	0.00e+00	91	34	0	974127104	50	5746
2026-01-05 21:18:57.39	345.20	11.71	-37.8	-38.8	22.6	0.00e+00	0	34	0	981467136	48	6284
2026-01-05 21:19:01.43	344.61	11.47	-36.8	-37.7	23.4	0.00e+00	0	34	0	988807168	48	5560
2026-01-05 21:19:05.46	344.02	11.24	-37.0	-37.9	23.5	0.00e+00	31	33	0	996147200	46	6332
2026-01-05 21:19:09.50	343.45	11.00	-37.3	-38.3	23.1	0.00e+00	0	34	0	1004535808	46	6626
2026-01-05 21:19:13.54	342.89	10.77	-37.6	-38.6	22.8	0.00e+00	0	34	0	1011875840	48	6129
2026-01-05 21:19:17.57	342.33	10.53	-37.2	-38.2	23.1	0.00e+00	0	34	0	1019215872	48	5852
2026-01-05 21:19:21.61	341.79	10.29	-37.1	-38.0	23.2	0.00e+00	31	34	0	1026555904	48	5736
2026-01-05 21:19:25.65	341.25	10.06	-37.4	-38.3	22.9	0.00e+00	0	34	0	1033895936	48	5952
2026-01-05 21:19:29.68	340.72	9.82	-37.9	-38.9	22.4	0.00e+00	0	33	0	1042284544	48	6378
2026-01-05 21:19:33.72	340.20	9.58	-38.3	-39.3	22.1	0.00e+00	0	34	0	1049624576	48	6667
2026-01-05 21:19:37.75	339.69	9.34	-38.0	-39.0	22.3	0.00e+00	63	34	0	1056964608	48	6435
2026-01-05 21:19:41.79	339.19	9.11	-37.5	-38.5	22.5	0.00e+00	0	34	0	1064304640	48	6059
2026-01-05 21:19:45.83	338.70	8.87	-37.5	-38.5	22.5	0.00e+00	0	33	0	1071644672	48	6072
2026-01-05 21:19:49.86	338.21	8.63	-38.8	-39.9	21.6	0.00e+00	0	34	0	1080033280	48	7119
2026-01-05 21:19:53.90	337.73	8.40	-39.0	-40.2	21.4	0.00e+00	92	34	0	1087373312	50	6544
2026-01-05 21:19:57.94	337.26	8.16	-39.0	-40.2	21.4	0.00e+00	0	34	0	1094713344	50	6576
2026-01-05 21:20:01.98	336.80	7.92	-38.1	-39.1	22.1	0.00e+00	0	34	0	1102053376	50	5814
2026-01-05 21:20:06.02	336.35	7.69	-38.2	-39.3	22.0	0.00e+00	1	34	0	1110441984	50	5918
2026-01-05 21:20:10.05	335.90	7.45	-38.9	-40.0	21.3	0.00e+00	0	34	0	1117782016	50	6425
2026-01-05 21:20:14.09	335.46	7.22	-38.9	-40.1	21.2	0.00e+00	0	34	0	1125122048	50	6523
2026-01-05 21:20:18.13	335.03	6.99	-39.3	-40.6	20.8	0.00e+00	0	34	0	1132462080	50	6866
2026-01-05 21:20:22.17	334.60	6.75	-39.2	-40.5	20.8	0.00e+00	17	34	0	1139802112	50	6785
2026-01-05 21:20:26.20	334.18	6.52	-38.8	-39.9	21.2	0.00e+00	0	34	0	1148190720	50	6381
2026-01-05 21:20:30.24	333.77	6.29	-39.4	-40.8	20.3	0.00e+00	0	34	0	1155530752	50	7009
2026-01-05 21:20:34.28	333.37	6.06	-40.2	-41.8	19.3	0.00e+00	0	34	0	1162870784	52	7009
2026-01-05 21:20:38.31	332.97	5.83	-40.4	-41.9	19.1	0.00e+00	92	34	0	1170210816	52	7153
2026-01-05 21:20:42.35	332.58	5.60	-40.3	-41.7	19.4	0.00e+00	0	34	0	1178599424	52	6987
2026-01-05 21:20:46.38	332.19	5.37	-39.8	-41.2	19.9	0.00e+00	0	34	0	1185939456	52	6575
2026-01-05 21:20:50.42	331.82	5.14	-39.8	-41.2	19.9	0.00e+00	0	34	0	1193279488	52	6582
2026-01-05 21:20:54.45	331.44	4.91	-39.9	-41.3	19.7	0.00e+00	62	34	0	1200619520	52	6664
2026-01-05 21:20:58.49	331.08	4.68	-40.0	-41.4	19.9	0.00e+00	0	34	0	1207959552	52	6697
2026-01-05 21:21:02.53	330.71	4.46	-39.9	-41.3	19.9	0.00e+00	0	34	0	1216348160	52	6664
2026-01-05 21:21:06.56	330.36	4.23	-39.9	-41.3	19.9	0.00e+00	51	34	0	1223688192	52	6623
2026-01-05 21:21:10.60	330.01	4.01	-40.1	-41.6	19.4	0.00e+00	0	34	0	1231028224	52	6893
2026-01-05 21:21:14.64	329.67	3.78	-40.3	-41.9	19.2	0.00e+00	0	34	0	1238368256	52	7099
2026-01-05 21:21:18.68	329.33	3.56	-40.8	-42.5	18.4	0.00e+00	0	34	0	1245708288	54	6811
2026-01-05 21:21:22.71	328.99	3.34	-41.3	-43.2	17.5	0.00e+00	92	34	0	1254096896	54	7378
2026-01-05 21:21:26.75	328.67	3.12	-42.3	-44.7	16.1	0.00e+00	0	34	0	1261436928	56	7848
2026-01-05 21:21:30.78	328.34	2.90	-48.2	-63.4	3.6	1.51e+00	0	34	104	1264582656	60	53439
2026-01-05 21:21:34.82	328.02	2.68	-48.7	-63.9	3.6	1.51e+00	0	34	104	1264582656	60	56308
2026-01-05 21:21:38.86	327.71	2.46	-48.6	-63.8	3.6	1.51e+00	0	34	104	1264582656	60	56109
2026-01-05 21:21:42.90	327.40	2.24	-48.4	-63.8	3.6	1.51e+00	0	34	104	1264582656	60	55727
2026-01-05 21:21:46.95	327.10	2.03	-48.6	-63.7	3.6	1.51e+00	0	34	104	1264582656	60	55544
2026-01-05 21:21:50.99	326.80	1.81	-48.5	-63.8	3.6	1.51e+00	0	34	104	1264582656	60	55767
2026-01-05 21:21:55.02	326.51	1.60	-48.6	-63.8	3.6	1.51e+00	0	34	104	1264582656	60	55956
2026-01-05 21:21:59.06	326.21	1.38	-48.6	-63.7	3.6	1.51e+00	0	34	104	1264582656	60	55617
2026-01-05 21:22:03.10	325.93	1.17	-48.6	-63.8	3.6	1.51e+00	0	34	104	1264582656	60	55700
2026-01-05 21:22:07.14	325.65	0.96	-48.6	-63.7	3.6	1.51e+00	0	34	104	1264582656	60	55553
2026-01-05 21:22:11.18	325.37	0.75	-48.6	-63.7	3.6	1.51e+00	0	34	104	1264582656	60	55627
2026-01-05 21:22:15.22	325.10	0.54	-48.6	-63.7	3.6	1.51e+00	0	34	104	1264582656	60	55623
2026-01-05 21:22:19.26	324.83	0.33	-48.5	-63.7	3.6	1.51e+00	0	34	104	1264582656	60	55483
2026-01-05 21:22:23.28	324.56	0.12	-48.5	-63.7	3.6	1.51e+00	0	34	104	1264582656	60	55294
2026-01-05 21:22:27.33	324.30	-0.09	-48.5	-63.7	3.6	1.51e+00	0	34	104	1264582656	60	55281

#Closed at: 2026-01-05 21:22:27
#Recorded file [1264 MB]: D:/lorett/data/35029_260106_090911.dat