passes_logs/2026/01/05/R4.6S_Anadyr/R4.6S_Anadyr__20260105_035557_AQUA_rec.log

#Pass ID: 20260105_035557_AQUA
#Satellite: AQUA
#Configuration: AQUA
#almurnet v.1.7.20251203
#Start time: 2026-01-05 03:55:59

#Version: 2.2.20231116
#Station: R4.6S_Anadyr
#Location: 177.4865 lon 64.73178 lat
#TLE: 1 27424U 02022A   25365.92641127  .00002078  00000+0  42628-3 0  9999
#TLE: 2 27424  98.4058 327.1196 0001962  94.7781 340.6230 14.61783896258835

#Time	Az	El	Level	Level2	SNR	BER	BlckErr	Temp	State	Recorded	gain1	gain2
2026-01-05 03:55:59.39	211.23	0.10	-48.9	-59.7	3.5	8.46e-01	0	24	0	0	60	35100
2026-01-05 03:56:02.41	211.45	0.26	-49.9	-67.7	3.5	3.02e+01	0	25	104	0	60	93710
2026-01-05 03:56:05.44	211.68	0.42	-49.3	-67.3	3.5	3.02e+01	0	25	104	0	60	89642
2026-01-05 03:56:08.47	211.91	0.59	-48.8	-66.7	3.5	3.02e+01	0	26	104	0	60	83491
2026-01-05 03:56:11.50	212.14	0.75	-48.6	-66.8	3.5	3.02e+01	0	26	104	0	60	83982
2026-01-05 03:56:14.53	212.38	0.91	-48.2	-66.3	3.5	3.02e+01	0	26	104	0	60	79457
2026-01-05 03:56:17.56	212.62	1.08	-47.5	-65.3	3.5	3.02e+01	0	26	104	0	60	71022
2026-01-05 03:56:20.60	212.86	1.24	-47.6	-65.3	3.5	3.02e+01	0	26	104	0	60	70507
2026-01-05 03:56:23.63	213.11	1.41	-47.7	-65.7	3.5	3.02e+01	0	26	104	0	60	74031
2026-01-05 03:56:26.65	213.35	1.57	-47.7	-65.4	3.5	3.02e+01	0	26	104	0	60	72022
2026-01-05 03:56:29.68	213.60	1.74	-47.9	-65.6	3.5	3.02e+01	0	26	104	0	60	73044
2026-01-05 03:56:32.71	213.86	1.91	-47.8	-65.8	3.5	3.02e+01	0	26	104	0	60	75021
2026-01-05 03:56:35.74	214.12	2.08	-47.8	-65.6	3.5	3.02e+01	0	26	104	0	60	73170
2026-01-05 03:56:38.77	214.37	2.25	-47.6	-65.4	3.5	3.02e+01	0	26	104	0	60	71488
2026-01-05 03:56:41.80	214.64	2.42	-47.6	-65.3	3.5	3.02e+01	0	26	104	0	60	70683
2026-01-05 03:56:44.82	214.90	2.59	-47.5	-64.5	3.5	3.02e+01	0	26	104	0	60	64919
2026-01-05 03:56:47.85	215.17	2.76	-47.4	-63.4	3.6	3.02e+01	0	26	104	0	60	56645
2026-01-05 03:56:50.88	215.44	2.93	-47.4	-62.1	3.8	3.02e+01	0	26	104	0	60	48984
2026-01-05 03:56:53.91	215.72	3.10	-45.4	-50.0	15.1	3.02e+01	0	26	0	524288	60	12239
2026-01-05 03:56:56.94	216.00	3.28	-43.3	-46.2	18.1	3.02e+01	0	26	0	6291456	58	8837
2026-01-05 03:56:59.97	216.28	3.45	-44.4	-48.2	16.6	3.02e+01	0	26	0	9437184	60	9878
2026-01-05 03:57:03.00	216.57	3.62	-39.4	-41.1	24.0	3.02e+01	0	26	0	12582912	52	6942
2026-01-05 03:57:06.03	216.86	3.80	-39.1	-40.7	24.7	3.02e+01	0	26	0	18350080	52	6624
2026-01-05 03:57:09.06	217.15	3.98	-39.8	-41.5	23.8	3.02e+01	0	26	0	24117248	54	6486
2026-01-05 03:57:12.08	217.45	4.15	-39.2	-40.9	24.3	3.02e+01	0	26	0	29884416	52	6733
2026-01-05 03:57:15.11	217.75	4.33	-38.9	-40.6	24.9	3.02e+01	0	26	0	35127296	52	6499
2026-01-05 03:57:18.14	218.06	4.51	-38.1	-39.6	25.5	3.02e+01	0	26	0	40894464	52	5820
2026-01-05 03:57:21.17	218.36	4.69	-38.0	-39.6	25.6	3.02e+01	0	26	0	46661632	50	6541
2026-01-05 03:57:24.20	218.68	4.87	-38.1	-39.6	25.5	3.02e+01	0	26	0	52428800	50	6541
2026-01-05 03:57:27.22	218.99	5.05	-38.4	-39.8	25.8	3.02e+01	0	26	0	58195968	50	6696
2026-01-05 03:57:30.25	219.31	5.23	-37.7	-39.1	26.1	3.02e+01	0	26	0	63963136	50	6174
2026-01-05 03:57:33.28	219.64	5.41	-38.0	-39.5	26.0	3.02e+01	0	26	0	69206016	50	6476
2026-01-05 03:57:36.31	219.97	5.59	-37.6	-39.0	26.0	3.02e+01	0	26	0	74973184	50	6123
2026-01-05 03:57:39.34	220.30	5.77	-38.0	-39.5	25.7	3.02e+01	0	26	0	80740352	50	6439
2026-01-05 03:57:42.37	220.64	5.96	-38.2	-39.7	26.0	3.02e+01	0	26	0	86507520	50	6647
2026-01-05 03:57:45.40	220.99	6.14	-37.7	-39.3	26.3	3.02e+01	0	26	0	92274688	50	6325
2026-01-05 03:57:48.42	221.33	6.33	-37.7	-39.1	26.3	3.02e+01	0	26	0	98041856	50	6188
2026-01-05 03:57:51.45	221.68	6.51	-37.9	-39.5	26.2	3.02e+01	0	26	0	103284736	50	6426
2026-01-05 03:57:54.48	222.04	6.70	-37.7	-39.4	25.9	3.02e+01	0	26	0	109051904	50	6385
2026-01-05 03:57:57.51	222.40	6.88	-37.9	-39.6	25.9	3.02e+01	0	26	0	114819072	50	6549
2026-01-05 03:58:00.54	222.77	7.07	-37.8	-39.7	25.7	3.02e+01	0	26	0	120586240	50	6626
2026-01-05 03:58:03.57	223.14	7.26	-37.7	-39.7	26.0	3.02e+01	0	26	0	126353408	50	6578
2026-01-05 03:58:06.59	223.52	7.45	-38.2	-39.9	25.9	3.02e+01	0	26	0	131596288	50	6781
2026-01-05 03:58:09.63	223.90	7.64	-38.2	-39.9	25.9	3.02e+01	0	26	0	137363456	50	6752
2026-01-05 03:58:12.65	224.29	7.83	-38.1	-39.7	26.1	3.02e+01	0	26	0	143130624	50	6637
2026-01-05 03:58:15.68	224.68	8.02	-38.5	-40.2	25.7	3.02e+01	0	26	0	148897792	50	7038
2026-01-05 03:58:18.71	225.08	8.21	-38.2	-40.0	25.6	3.02e+01	0	26	0	154664960	50	6818
2026-01-05 03:58:21.74	225.48	8.40	-37.9	-39.8	25.9	3.02e+01	0	26	0	160432128	50	6678
2026-01-05 03:58:24.77	225.89	8.59	-38.5	-40.3	25.5	3.02e+01	0	26	0	166199296	50	7085
2026-01-05 03:58:27.80	226.30	8.78	-38.8	-40.4	25.7	3.02e+01	0	26	0	171442176	52	6420
2026-01-05 03:58:30.83	226.72	8.98	-38.8	-40.3	25.8	3.02e+01	0	26	0	177209344	52	6306
2026-01-05 03:58:33.85	227.15	9.17	-38.5	-40.1	25.8	3.02e+01	0	26	0	182976512	52	6195
2026-01-05 03:58:36.88	227.58	9.36	-38.2	-39.8	25.6	3.02e+01	0	26	0	188743680	52	5986
2026-01-05 03:58:39.91	228.02	9.55	-39.0	-40.5	25.3	3.02e+01	0	26	0	194510848	52	6477
2026-01-05 03:58:42.94	228.46	9.75	-38.8	-40.4	25.2	3.02e+01	0	26	0	199753728	52	6359
2026-01-05 03:58:45.97	228.91	9.94	-39.3	-40.9	24.9	3.02e+01	0	26	0	205520896	52	6755
2026-01-05 03:58:49.00	229.37	10.14	-39.2	-40.8	25.3	3.02e+01	0	26	0	211288064	52	6668
2026-01-05 03:58:52.03	229.83	10.33	-39.1	-40.6	25.1	3.02e+01	0	26	0	217055232	52	6571
2026-01-05 03:58:55.05	230.30	10.53	-38.3	-39.9	25.8	3.02e+01	0	26	0	222822400	52	6029
2026-01-05 03:58:58.08	230.78	10.72	-38.3	-39.8	25.9	3.02e+01	0	26	0	228589568	52	5981
2026-01-05 03:59:01.11	231.26	10.92	-39.2	-40.8	25.5	3.02e+01	0	26	0	234356736	52	6664
2026-01-05 03:59:04.14	231.75	11.11	-39.3	-40.9	24.8	3.02e+01	0	26	0	239599616	52	6730
2026-01-05 03:59:07.17	232.25	11.30	-38.9	-40.5	25.6	3.02e+01	0	26	0	245366784	52	6426
2026-01-05 03:59:10.20	232.75	11.50	-38.3	-39.8	26.0	3.02e+01	0	26	0	251133952	52	5961
2026-01-05 03:59:13.22	233.26	11.69	-38.0	-39.4	26.1	3.02e+01	0	26	0	256901120	50	6398
2026-01-05 03:59:16.26	233.78	11.89	-37.8	-39.3	26.3	3.02e+01	0	26	0	262668288	50	6292
2026-01-05 03:59:19.28	234.30	12.08	-38.4	-39.9	26.1	3.02e+01	0	26	0	267911168	50	6734
2026-01-05 03:59:22.31	234.83	12.28	-38.2	-39.6	26.6	3.02e+01	0	26	0	273678336	52	5822
2026-01-05 03:59:25.34	235.37	12.47	-38.0	-39.4	26.6	3.02e+01	0	26	0	279445504	50	6366
2026-01-05 03:59:28.37	235.92	12.66	-37.6	-39.0	26.8	3.02e+01	0	26	0	285212672	50	6080
2026-01-05 03:59:31.40	236.47	12.85	-37.2	-38.5	27.0	3.02e+01	0	26	0	290979840	50	5787
2026-01-05 03:59:34.43	237.03	13.04	-37.1	-38.4	27.2	3.02e+01	0	26	0	296747008	50	5690
2026-01-05 03:59:37.46	237.60	13.23	-36.4	-37.7	27.7	3.02e+01	0	26	0	302514176	48	5920
2026-01-05 03:59:40.48	238.18	13.42	-36.5	-37.8	27.7	3.02e+01	0	26	0	307757056	48	5961
2026-01-05 03:59:43.51	238.76	13.61	-36.1	-37.3	28.0	3.02e+01	0	26	0	313524224	48	5648
2026-01-05 03:59:46.54	239.36	13.80	-36.0	-37.3	27.9	3.02e+01	0	26	0	319291392	46	6305
2026-01-05 03:59:49.57	239.96	13.99	-35.7	-37.0	28.5	3.02e+01	0	26	0	325058560	46	6081
2026-01-05 03:59:52.60	240.56	14.17	-35.5	-36.7	28.6	3.02e+01	0	26	0	330825728	46	5917
2026-01-05 03:59:55.62	241.18	14.36	-35.2	-36.5	28.9	3.02e+01	0	26	0	336068608	46	5728
2026-01-05 03:59:58.66	241.80	14.54	-35.5	-36.7	28.7	3.02e+01	0	26	0	341835776	46	5923
2026-01-05 04:00:01.69	242.44	14.72	-35.0	-36.3	29.1	3.02e+01	0	26	0	347602944	46	5596
2026-01-05 04:00:04.72	243.08	14.90	-35.2	-36.4	29.0	3.02e+01	0	26	0	353370112	46	5694
2026-01-05 04:00:07.75	243.72	15.08	-35.0	-36.2	29.2	3.02e+01	0	26	0	359137280	44	6234
2026-01-05 04:00:10.78	244.38	15.25	-35.3	-36.6	28.9	3.02e+01	0	26	0	364904448	44	6516
2026-01-05 04:00:13.81	245.04	15.43	-35.2	-36.4	29.2	3.02e+01	0	26	0	370671616	44	6394
2026-01-05 04:00:16.84	245.72	15.60	-35.2	-36.4	29.3	3.02e+01	0	26	0	375914496	44	6372
2026-01-05 04:00:19.87	246.40	15.77	-35.0	-36.2	29.2	3.02e+01	0	26	0	381681664	44	6227
2026-01-05 04:00:22.89	247.08	15.94	-35.2	-36.5	29.1	3.02e+01	0	26	0	387448832	46	5726
2026-01-05 04:00:25.92	247.78	16.10	-35.8	-37.0	28.8	3.02e+01	0	26	0	393216000	46	6110
2026-01-05 04:00:28.95	248.48	16.26	-35.4	-36.6	29.0	3.02e+01	0	26	0	398983168	46	5827
2026-01-05 04:00:31.98	249.19	16.42	-34.9	-36.2	29.4	3.02e+01	0	26	0	404226048	44	6210
2026-01-05 04:00:35.01	249.91	16.58	-35.1	-36.3	29.2	3.02e+01	0	26	0	409993216	44	6337
2026-01-05 04:00:38.04	250.64	16.73	-35.9	-37.2	28.6	3.02e+01	0	26	0	415760384	44	6976
2026-01-05 04:00:41.08	251.38	16.88	-34.8	-36.0	29.4	3.02e+01	0	26	0	421527552	44	6093
2026-01-05 04:00:44.10	252.12	17.03	-35.6	-36.8	29.0	3.02e+01	0	26	0	427294720	44	6686
2026-01-05 04:00:47.13	252.87	17.17	-35.5	-36.7	29.2	3.02e+01	0	26	0	433061888	46	5875
2026-01-05 04:00:50.16	253.62	17.31	-35.4	-36.7	29.2	3.02e+01	0	26	0	438829056	46	5868
2026-01-05 04:00:53.19	254.39	17.44	-35.0	-36.2	29.4	3.02e+01	0	26	0	444071936	46	5583
2026-01-05 04:00:56.22	255.16	17.58	-35.4	-36.6	29.2	3.02e+01	0	26	0	449839104	46	5822
2026-01-05 04:00:59.25	255.94	17.70	-35.6	-36.8	28.7	3.02e+01	0	26	0	455606272	46	5957
2026-01-05 04:01:02.28	256.72	17.83	-35.8	-37.0	29.0	3.02e+01	0	26	0	461373440	46	6096
2026-01-05 04:01:05.30	257.51	17.95	-35.3	-36.5	29.2	3.02e+01	0	26	0	467140608	46	5751
2026-01-05 04:01:08.33	258.31	18.06	-35.3	-36.5	29.1	3.02e+01	0	26	0	472383488	46	5777
2026-01-05 04:01:11.35	259.11	18.17	-35.2	-36.5	29.2	3.02e+01	0	26	0	478150656	46	5736
2026-01-05 04:01:14.38	259.92	18.27	-35.1	-36.3	29.2	3.02e+01	0	26	0	483917824	46	5648
2026-01-05 04:01:17.41	260.73	18.37	-34.9	-36.1	29.3	3.02e+01	0	26	0	489684992	44	6167
2026-01-05 04:01:20.44	261.55	18.47	-35.1	-36.3	29.3	3.02e+01	0	26	0	495452160	44	6308
2026-01-05 04:01:23.47	262.38	18.56	-34.9	-36.1	29.4	3.02e+01	0	26	0	501219328	44	6170
2026-01-05 04:01:26.50	263.21	18.64	-36.0	-37.3	28.4	3.02e+01	0	26	0	506462208	46	6289
2026-01-05 04:01:29.53	264.04	18.72	-35.6	-36.8	29.1	3.02e+01	0	26	0	512229376	46	5985
2026-01-05 04:01:32.56	264.88	18.80	-35.5	-36.7	29.3	3.02e+01	0	26	0	517996544	46	5923
2026-01-05 04:01:35.58	265.72	18.87	-35.1	-36.3	29.4	3.02e+01	0	26	0	523763712	46	5628
2026-01-05 04:01:38.62	266.57	18.93	-35.3	-36.5	29.2	3.02e+01	0	26	0	529530880	46	5767
2026-01-05 04:01:41.64	267.42	18.99	-35.6	-36.8	28.9	3.02e+01	0	26	0	535298048	46	5974
2026-01-05 04:01:44.67	268.27	19.04	-35.9	-37.1	28.9	3.02e+01	0	26	0	540540928	46	6182
2026-01-05 04:01:47.70	269.13	19.08	-35.6	-36.9	29.0	3.02e+01	0	26	0	546308096	46	6002
2026-01-05 04:01:50.72	269.98	19.12	-36.3	-37.5	28.6	3.02e+01	0	26	0	552075264	46	6443
2026-01-05 04:01:53.76	270.85	19.16	-35.7	-36.9	29.0	3.02e+01	0	26	0	557842432	46	6007
2026-01-05 04:01:56.78	271.70	19.18	-35.1	-36.3	29.4	3.02e+01	0	26	0	563609600	46	5620
2026-01-05 04:01:59.81	272.57	19.20	-35.4	-36.7	29.3	3.02e+01	0	26	0	569376768	46	5861
2026-01-05 04:02:02.84	273.43	19.22	-35.0	-36.2	29.4	3.02e+01	0	26	0	574619648	44	6231
2026-01-05 04:02:05.87	274.30	19.23	-35.4	-36.6	29.0	3.02e+01	0	26	0	580386816	44	6560
2026-01-05 04:02:08.90	275.16	19.23	-35.0	-36.2	29.3	3.02e+01	0	26	0	586153984	44	6260
2026-01-05 04:02:11.93	276.03	19.23	-34.9	-36.1	29.2	3.02e+01	0	26	0	591921152	44	6173
2026-01-05 04:02:14.96	276.89	19.22	-35.0	-36.2	29.3	3.02e+01	0	26	0	597688320	44	6252
2026-01-05 04:02:17.99	277.76	19.20	-34.9	-36.1	29.2	3.02e+01	0	26	0	603455488	44	6202
2026-01-05 04:02:21.02	278.62	19.18	-35.0	-36.2	29.4	3.02e+01	0	26	0	608698368	44	6211
2026-01-05 04:02:24.04	279.48	19.15	-35.5	-36.7	29.0	3.02e+01	0	26	0	614465536	44	6587
2026-01-05 04:02:27.07	280.34	19.12	-34.9	-36.1	29.2	3.02e+01	0	26	0	620232704	44	6149
2026-01-05 04:02:30.10	281.20	19.08	-35.0	-36.2	29.4	3.02e+01	0	26	0	625999872	44	6253
2026-01-05 04:02:33.13	282.05	19.03	-35.3	-36.5	29.1	3.02e+01	0	26	0	631767040	44	6476
2026-01-05 04:02:36.16	282.90	18.98	-35.1	-36.3	29.5	3.02e+01	0	26	0	637534208	44	6289
2026-01-05 04:02:39.19	283.75	18.92	-35.8	-37.0	28.9	3.02e+01	0	26	0	642777088	44	6831
2026-01-05 04:02:42.22	284.60	18.86	-34.9	-36.1	29.5	3.02e+01	0	26	0	648544256	44	6169
2026-01-05 04:02:45.25	285.44	18.79	-34.8	-36.0	29.5	3.02e+01	0	26	0	654311424	44	6109
2026-01-05 04:02:48.28	286.27	18.72	-35.1	-36.3	29.4	3.02e+01	0	26	0	660078592	44	6307
2026-01-05 04:02:51.31	287.11	18.64	-35.2	-36.3	29.5	3.02e+01	0	26	0	665845760	44	6349
2026-01-05 04:02:54.33	287.93	18.55	-35.4	-36.6	29.4	3.02e+01	0	26	0	671612928	44	6539
2026-01-05 04:02:57.36	288.75	18.46	-35.0	-36.2	29.6	3.02e+01	0	26	0	676855808	44	6251
2026-01-05 04:03:00.39	289.57	18.37	-34.9	-36.1	29.6	3.02e+01	0	26	0	682622976	44	6183
2026-01-05 04:03:03.42	290.38	18.27	-35.1	-36.3	29.6	3.02e+01	0	26	0	688390144	44	6316
2026-01-05 04:03:06.45	291.19	18.16	-34.8	-35.9	29.7	3.02e+01	0	26	0	694157312	44	6064
2026-01-05 04:03:09.48	291.99	18.05	-34.7	-35.9	29.6	3.02e+01	0	26	0	699924480	44	6000
2026-01-05 04:03:12.50	292.78	17.94	-34.6	-35.8	29.6	3.02e+01	0	26	0	705691648	44	5980
2026-01-05 04:03:15.53	293.57	17.82	-34.9	-36.1	29.6	3.02e+01	0	26	0	710934528	44	6187
2026-01-05 04:03:18.56	294.35	17.70	-34.9	-36.1	29.7	3.02e+01	0	26	0	716701696	44	6175
2026-01-05 04:03:21.59	295.13	17.57	-35.7	-36.9	29.6	3.02e+01	0	26	0	722468864	44	6793
2026-01-05 04:03:24.61	295.89	17.44	-36.3	-37.6	28.2	3.02e+01	0	26	0	728236032	44	7311
2026-01-05 04:03:27.65	296.65	17.30	-35.5	-36.7	29.4	3.02e+01	0	26	0	734003200	46	5889
2026-01-05 04:03:30.68	297.41	17.16	-35.5	-36.7	29.2	3.02e+01	0	26	0	739770368	44	6638
2026-01-05 04:03:33.70	298.15	17.02	-35.7	-36.9	29.3	3.02e+01	0	26	0	745013248	46	6013
2026-01-05 04:03:36.73	298.89	16.88	-35.9	-37.1	29.6	3.02e+01	0	26	0	750780416	46	6205
2026-01-05 04:03:39.76	299.62	16.73	-35.5	-36.7	29.5	3.02e+01	0	26	0	756547584	46	5907
2026-01-05 04:03:42.79	300.35	16.57	-35.5	-36.7	29.2	3.02e+01	0	26	0	762314752	44	6626
2026-01-05 04:03:45.82	301.06	16.42	-34.7	-35.9	29.5	3.02e+01	0	26	0	768081920	44	6045
2026-01-05 04:03:48.85	301.77	16.26	-35.0	-36.2	29.6	3.02e+01	0	26	0	773324800	44	6228
2026-01-05 04:03:51.88	302.47	16.10	-34.9	-36.1	29.5	3.02e+01	0	26	0	779091968	44	6188
2026-01-05 04:03:54.91	303.16	15.94	-35.3	-36.5	29.4	3.02e+01	0	26	0	784859136	46	5744
2026-01-05 04:03:57.93	303.84	15.77	-36.1	-37.3	29.4	3.02e+01	0	26	0	790626304	46	6331
2026-01-05 04:04:00.96	304.52	15.60	-35.0	-36.2	29.4	3.02e+01	0	26	0	796393472	46	5578
2026-01-05 04:04:03.99	305.19	15.43	-35.4	-36.7	29.0	3.02e+01	0	26	0	802160640	44	6617
2026-01-05 04:04:07.02	305.85	15.26	-35.4	-36.6	29.0	3.02e+01	0	26	0	807927808	44	6537
2026-01-05 04:04:10.05	306.50	15.08	-35.3	-36.5	29.1	3.02e+01	0	26	0	813170688	44	6454
2026-01-05 04:04:13.08	307.15	14.91	-35.2	-36.4	29.7	3.02e+01	0	26	0	818937856	44	6362
2026-01-05 04:04:16.11	307.78	14.73	-35.3	-36.5	29.4	3.02e+01	0	26	0	824705024	44	6450
2026-01-05 04:04:19.14	308.41	14.55	-35.1	-36.3	29.6	3.02e+01	0	26	0	830472192	44	6283
2026-01-05 04:04:22.17	309.03	14.37	-35.0	-36.2	29.4	3.02e+01	0	26	0	836239360	44	6267
2026-01-05 04:04:25.20	309.65	14.18	-35.2	-36.4	29.3	3.02e+01	0	26	0	841482240	44	6412
2026-01-05 04:04:28.23	310.25	14.00	-35.3	-36.6	29.2	3.02e+01	0	26	0	847249408	44	6513
2026-01-05 04:04:31.26	310.85	13.82	-35.6	-36.9	29.1	3.02e+01	0	26	0	853016576	46	6019
2026-01-05 04:04:34.29	311.44	13.63	-36.1	-37.3	29.0	3.02e+01	0	26	0	858783744	46	6350
2026-01-05 04:04:37.32	312.02	13.44	-35.5	-36.7	29.2	3.02e+01	0	26	0	864550912	46	5908
2026-01-05 04:04:40.35	312.59	13.25	-35.8	-37.0	28.6	3.02e+01	0	26	0	870318080	46	6132
2026-01-05 04:04:43.38	313.16	13.06	-35.7	-37.0	29.0	3.02e+01	0	26	0	876085248	46	6082
2026-01-05 04:04:46.41	313.72	12.87	-36.3	-37.6	28.7	3.02e+01	0	26	0	881328128	48	5799
2026-01-05 04:04:49.43	314.27	12.68	-36.2	-37.4	29.0	3.02e+01	0	26	0	887095296	46	6377
2026-01-05 04:04:52.46	314.81	12.49	-35.5	-36.7	29.2	3.02e+01	0	26	0	892862464	46	5893
2026-01-05 04:04:55.49	315.35	12.30	-36.0	-37.3	28.7	3.02e+01	0	26	0	898629632	46	6307
2026-01-05 04:04:58.52	315.88	12.11	-35.5	-36.7	29.0	3.02e+01	0	26	0	904396800	46	5895
2026-01-05 04:05:01.55	316.40	11.92	-35.4	-36.6	29.0	3.02e+01	0	26	0	909639680	46	5812
2026-01-05 04:05:04.58	316.91	11.73	-36.0	-37.3	28.9	3.02e+01	0	26	0	915406848	46	6297
2026-01-05 04:05:07.61	317.42	11.53	-36.1	-37.4	28.5	3.02e+01	0	26	0	921174016	46	6360
2026-01-05 04:05:10.64	317.92	11.34	-35.6	-36.8	28.9	3.02e+01	0	26	0	926941184	46	5987
2026-01-05 04:05:13.66	318.42	11.15	-36.0	-37.2	28.7	3.02e+01	0	26	0	932708352	46	6267
2026-01-05 04:05:16.69	318.90	10.95	-36.8	-38.1	28.0	3.02e+01	0	26	0	938475520	48	6144
2026-01-05 04:05:19.72	319.38	10.76	-37.0	-38.2	28.3	3.02e+01	0	26	0	944242688	48	6276
2026-01-05 04:05:22.75	319.86	10.57	-36.4	-37.7	27.7	3.02e+01	0	26	0	949485568	48	5866
2026-01-05 04:05:25.77	320.32	10.38	-37.9	-39.2	28.2	3.02e+01	0	26	0	955252736	50	6215
2026-01-05 04:05:28.80	320.79	10.18	-37.6	-38.9	28.2	3.02e+01	0	26	0	961019904	50	5995
2026-01-05 04:05:31.83	321.24	9.99	-37.6	-38.9	27.6	3.02e+01	0	26	0	966787072	50	6008
2026-01-05 04:05:34.86	321.69	9.80	-37.2	-38.5	27.5	3.02e+01	0	26	0	972554240	48	6493
2026-01-05 04:05:37.89	322.13	9.60	-38.0	-39.3	26.8	3.02e+01	0	26	0	977797120	48	7114
2026-01-05 04:05:40.92	322.57	9.41	-36.1	-37.4	28.1	3.02e+01	0	26	0	983564288	48	5675
2026-01-05 04:05:43.95	323.00	9.22	-36.0	-37.2	28.4	3.02e+01	0	26	0	989331456	46	6259
2026-01-05 04:05:46.98	323.42	9.03	-36.1	-37.4	28.4	3.02e+01	0	26	0	995098624	46	6378
2026-01-05 04:05:50.00	323.84	8.84	-35.7	-36.9	28.2	3.02e+01	0	26	0	1000865792	46	6039
2026-01-05 04:05:53.03	324.25	8.65	-35.6	-36.8	28.4	3.02e+01	0	26	0	1006632960	46	5968
2026-01-05 04:05:56.06	324.66	8.46	-35.9	-37.2	28.1	3.02e+01	0	26	0	1012400128	46	6214
2026-01-05 04:05:59.09	325.06	8.27	-36.3	-37.5	28.0	3.02e+01	0	26	0	1017643008	46	6480
2026-01-05 04:06:02.12	325.46	8.08	-36.4	-37.7	28.1	3.02e+01	0	26	0	1023410176	46	6636
2026-01-05 04:06:05.15	325.85	7.89	-36.8	-38.1	27.6	3.02e+01	0	26	0	1029177344	46	6901
2026-01-05 04:06:08.17	326.24	7.70	-37.6	-38.9	27.7	3.02e+01	0	26	0	1034944512	48	6739
2026-01-05 04:06:11.20	326.62	7.52	-36.5	-37.7	27.9	3.02e+01	0	26	0	1040711680	48	5925
2026-01-05 04:06:14.23	326.99	7.33	-37.5	-47.7	3.6	3.02e+01	0	26	104	1042808832	48	18572
2026-01-05 04:06:17.26	327.36	7.14	-42.3	-53.3	3.6	3.02e+01	0	26	104	1042808832	60	17772
2026-01-05 04:06:20.29	327.73	6.96	-44.5	-56.0	3.6	3.02e+01	0	26	104	1042808832	60	24230
2026-01-05 04:06:23.32	328.09	6.77	-39.5	-49.9	4.1	3.02e+01	0	26	104	1042808832	56	15095
2026-01-05 04:06:26.35	328.45	6.59	-41.8	-52.8	4.0	3.02e+01	0	26	104	1042808832	54	23709
2026-01-05 04:06:29.38	328.80	6.40	-42.7	-53.6	3.5	3.02e+01	0	26	104	1042808832	58	20654
2026-01-05 04:06:32.41	329.15	6.22	-38.4	-48.8	3.5	3.02e+01	0	26	104	1042808832	52	16726
2026-01-05 04:06:35.43	329.49	6.04	-40.6	-51.1	3.5	3.02e+01	0	26	104	1042808832	58	15518
2026-01-05 04:06:38.46	329.83	5.86	-44.3	-55.8	3.6	3.02e+01	0	26	104	1042808832	60	23716
2026-01-05 04:06:41.49	330.16	5.68	-37.8	-48.2	3.5	3.02e+01	0	26	104	1042808832	50	17562
2026-01-05 04:06:44.52	330.49	5.49	-42.7	-53.7	3.5	3.02e+01	0	26	104	1042808832	60	18563
2026-01-05 04:06:47.55	330.81	5.31	-40.5	-51.2	3.6	3.02e+01	0	26	104	1042808832	56	17540
2026-01-05 04:06:50.58	331.14	5.14	-39.4	-49.8	3.5	3.02e+01	0	26	104	1042808832	52	18939
2026-01-05 04:06:53.61	331.45	4.96	-39.4	-50.0	3.5	3.02e+01	0	26	104	1042808832	54	17209
2026-01-05 04:06:56.64	331.77	4.78	-40.2	-50.9	3.5	3.02e+01	0	26	104	1042808832	58	15086
2026-01-05 04:06:59.67	332.07	4.60	-40.0	-50.6	3.5	3.02e+01	0	26	104	1042808832	54	18462
2026-01-05 04:07:02.70	332.38	4.42	-40.6	-51.7	3.5	3.02e+01	0	26	104	1042808832	58	16582
2026-01-05 04:07:05.73	332.68	4.25	-44.0	-58.7	3.5	3.02e+01	0	26	104	1042808832	60	33206
2026-01-05 04:07:08.76	332.98	4.07	-44.1	-60.4	3.5	3.02e+01	0	26	104	1042808832	60	40522
2026-01-05 04:07:11.79	333.27	3.90	-44.2	-61.3	3.5	3.02e+01	0	26	104	1042808832	60	44541
2026-01-05 04:07:14.82	333.56	3.73	-44.9	-62.6	3.5	3.02e+01	0	26	104	1042808832	60	51856
2026-01-05 04:07:17.85	333.85	3.55	-44.9	-62.8	3.5	3.02e+01	0	26	104	1042808832	60	53208
2026-01-05 04:07:20.89	334.13	3.38	-44.4	-62.4	3.5	3.02e+01	0	26	104	1042808832	60	50600
2026-01-05 04:07:23.92	334.41	3.21	-44.1	-62.0	3.5	3.02e+01	0	26	104	1042808832	60	48308
2026-01-05 04:07:26.95	334.69	3.04	-43.9	-61.8	3.5	3.02e+01	0	26	104	1042808832	60	47346
2026-01-05 04:07:29.97	334.96	2.87	-48.4	-66.3	3.5	3.02e+01	0	26	104	1042808832	60	79628
2026-01-05 04:07:33.01	335.23	2.70	-49.2	-67.2	3.5	3.02e+01	0	26	104	1042808832	60	88021
2026-01-05 04:07:36.04	335.50	2.53	-49.4	-67.4	3.5	3.02e+01	0	26	104	1042808832	60	90691
2026-01-05 04:07:39.06	335.76	2.36	-50.0	-68.1	3.5	3.02e+01	0	26	104	1042808832	60	97569
2026-01-05 04:07:42.09	336.02	2.19	-49.4	-67.3	3.5	3.02e+01	0	26	104	1042808832	60	89350
2026-01-05 04:07:45.12	336.28	2.02	-49.1	-67.0	3.5	3.02e+01	0	26	104	1042808832	60	86252
2026-01-05 04:07:48.15	336.54	1.86	-49.4	-67.2	3.5	3.02e+01	0	26	104	1042808832	60	88276
2026-01-05 04:07:51.17	336.79	1.69	-49.5	-67.3	3.5	3.02e+01	0	26	104	1042808832	60	89274
2026-01-05 04:07:54.20	337.04	1.53	-50.3	-68.1	3.5	3.02e+01	0	26	104	1042808832	60	98118
2026-01-05 04:07:57.23	337.28	1.36	-49.7	-67.6	3.5	3.02e+01	0	26	104	1042808832	60	92065
2026-01-05 04:08:00.26	337.52	1.20	-50.2	-68.1	3.5	3.02e+01	0	26	104	1042808832	60	97306
2026-01-05 04:08:03.29	337.76	1.04	-49.6	-67.5	3.5	3.02e+01	0	26	104	1042808832	60	90888
2026-01-05 04:08:06.32	338.00	0.87	-50.8	-68.6	3.5	3.02e+01	0	26	104	1042808832	60	103652
2026-01-05 04:08:09.35	338.24	0.71	-50.3	-68.2	3.5	3.02e+01	0	26	104	1042808832	60	99016
2026-01-05 04:08:12.38	338.47	0.55	-49.2	-67.0	3.5	3.02e+01	0	26	104	1042808832	60	86609
2026-01-05 04:08:15.41	338.70	0.39	-49.5	-67.4	3.5	3.02e+01	0	26	104	1042808832	60	89939
2026-01-05 04:08:18.44	338.93	0.23	-49.2	-67.1	3.5	3.02e+01	0	26	104	1042808832	60	86899
2026-01-05 04:08:21.47	339.15	0.07	-49.4	-67.3	3.5	3.02e+01	0	26	104	1042808832	60	88698

#Closed at: 2026-01-05 04:08:23
#Recorded file [1042 MB]: D:/lorett/data/35029_260105_155559.dat