passes_logs/2026/01/05/R4.6S_Anadyr/R4.6S_Anadyr__20260105_065619_FENGYUN_3E_rec.log

#Pass ID: 20260105_065619_FENGYUN 3E
#Satellite: FENGYUN 3E
#Configuration: FENGYUN 3E
#almurnet v.1.7.20251203
#Start time: 2026-01-05 06:56:21

#Version: 2.2.20231116
#Station: R4.6S_Anadyr
#Location: 177.4865 lon 64.73178 lat
#TLE: 1 49008U 21062A   26004.99925679  .00000018  00000+0  29282-4 0  9995
#TLE: 2 49008  98.7472  10.2448 0001540 159.6420 200.4818 14.19883565233423

#Time	Az	El	Level	Level2	SNR	BER	BlckErr	Temp	State	Recorded	gain1	gain2
2026-01-05 06:56:21.99	220.67	0.12	-49.8	-60.5	3.4	8.45e-01	0	22	0	0	60	38451
2026-01-05 06:56:26.02	220.98	0.32	-48.7	-60.2	3.6	8.47e-01	0	23	104	0	60	36964
2026-01-05 06:56:30.06	221.29	0.51	-48.4	-59.7	3.6	8.46e-01	0	23	104	0	60	34764
2026-01-05 06:56:34.11	221.61	0.71	-48.1	-59.6	3.6	8.45e-01	0	23	104	0	60	34642
2026-01-05 06:56:38.15	221.93	0.91	-37.8	-57.6	3.6	8.44e-01	0	23	104	0	46	61721
2026-01-05 06:56:42.19	222.25	1.11	-38.3	-57.1	3.6	8.46e-01	0	23	104	0	48	51556
2026-01-05 06:56:46.23	222.58	1.31	-38.3	-57.1	3.6	8.45e-01	0	23	104	0	50	45784
2026-01-05 06:56:50.27	222.91	1.52	-38.5	-57.3	3.6	8.45e-01	0	24	104	0	50	47272
2026-01-05 06:56:54.30	223.25	1.72	-38.3	-57.2	3.6	8.45e-01	0	24	104	0	50	46550
2026-01-05 06:56:58.34	223.59	1.92	-38.3	-57.0	3.6	8.47e-01	0	24	104	0	50	45690
2026-01-05 06:57:02.38	223.93	2.12	-38.0	-56.9	3.6	8.44e-01	0	24	104	0	48	50298
2026-01-05 06:57:06.42	224.28	2.33	-38.4	-56.9	3.6	8.46e-01	0	24	104	0	48	50537
2026-01-05 06:57:10.46	224.64	2.53	-38.7	-55.4	3.6	8.46e-01	0	24	104	0	48	42272
2026-01-05 06:57:14.49	225.00	2.74	-37.7	-46.1	9.7	1.25e-02	0	24	0	16777216	48	14551
2026-01-05 06:57:18.53	225.36	2.94	-36.7	-42.4	13.3	2.20e-06	0	24	0	46137344	46	10672
2026-01-05 06:57:22.58	225.73	3.15	-38.1	-44.8	9.1	1.27e-04	0	24	104	61865984	50	11126
2026-01-05 06:57:26.61	226.10	3.36	-36.9	-41.1	15.0	0.00e+00	0	24	0	74448896	46	9176
2026-01-05 06:57:30.65	226.48	3.56	-36.1	-40.9	15.3	0.00e+00	0	24	0	103809024	46	9024
2026-01-05 06:57:34.69	226.87	3.77	-36.6	-41.3	14.9	1.10e-06	0	24	0	132120576	46	9407
2026-01-05 06:57:38.73	227.26	3.98	-37.9	-41.7	14.6	0.00e+00	0	24	0	161480704	48	8760
2026-01-05 06:57:42.77	227.65	4.19	-39.3	-42.3	14.1	0.00e+00	0	24	0	190840832	50	8406
2026-01-05 06:57:46.81	228.05	4.40	-40.6	-42.7	13.8	3.40e-06	0	24	0	220200960	52	7827
2026-01-05 06:57:50.85	228.46	4.61	-40.9	-43.1	13.5	1.14e-05	0	24	0	248512512	54	7333
2026-01-05 06:57:54.88	228.87	4.82	-40.3	-43.0	13.6	3.40e-06	0	24	0	277872640	54	7185
2026-01-05 06:57:58.92	229.28	5.03	-40.5	-43.5	13.3	2.28e-05	0	24	0	307232768	54	7639
2026-01-05 06:58:02.96	229.71	5.24	-41.3	-43.4	13.2	1.14e-05	0	24	0	336592896	54	7590
2026-01-05 06:58:07.00	230.14	5.46	-41.4	-43.3	13.4	2.97e-05	0	24	0	365953024	54	7499
2026-01-05 06:58:11.04	230.57	5.67	-41.2	-43.8	13.2	1.83e-05	0	24	0	394264576	54	7899
2026-01-05 06:58:15.08	231.01	5.88	-42.1	-44.7	12.6	7.43e-05	0	24	0	423624704	56	7789
2026-01-05 06:58:19.12	231.46	6.09	-42.4	-44.7	12.8	4.92e-05	0	24	0	452984832	58	6933
2026-01-05 06:58:23.16	231.91	6.31	-42.2	-44.6	12.7	6.52e-05	0	24	0	482344960	56	7685
2026-01-05 06:58:27.20	232.37	6.52	-42.3	-44.4	12.9	5.26e-05	0	24	0	511705088	56	7515
2026-01-05 06:58:31.24	232.84	6.73	-42.2	-44.6	12.7	8.23e-05	0	24	0	540016640	56	7688
2026-01-05 06:58:35.28	233.31	6.95	-41.7	-44.5	12.7	5.83e-05	0	24	0	569376768	56	7642
2026-01-05 06:58:39.32	233.79	7.16	-42.0	-44.0	13.4	1.14e-05	0	24	0	598736896	56	7230
2026-01-05 06:58:43.36	234.28	7.38	-42.4	-44.2	13.4	1.48e-05	0	24	0	628097024	56	7419
2026-01-05 06:58:47.40	234.77	7.59	-41.8	-43.8	13.7	9.10e-06	0	24	0	657457152	56	7031
2026-01-05 06:58:51.44	235.27	7.81	-41.0	-43.0	14.6	0.00e+00	0	24	0	686817280	56	6439
2026-01-05 06:58:55.48	235.78	8.02	-41.1	-42.7	14.9	0.00e+00	0	24	0	715128832	56	6198
2026-01-05 06:58:59.52	236.30	8.23	-41.0	-42.6	15.2	0.00e+00	0	24	0	744488960	56	6137
2026-01-05 06:59:03.56	236.82	8.45	-40.2	-41.6	15.8	0.00e+00	0	24	0	773849088	54	6152
2026-01-05 06:59:07.60	237.35	8.66	-40.0	-41.3	16.3	0.00e+00	0	24	0	803209216	52	6673
2026-01-05 06:59:11.64	237.88	8.87	-39.5	-40.7	17.3	0.00e+00	0	24	0	832569344	52	6243
2026-01-05 06:59:15.68	238.43	9.09	-39.0	-40.2	17.4	0.00e+00	0	24	0	860880896	50	6589
2026-01-05 06:59:19.71	238.98	9.30	-37.8	-38.9	18.5	0.00e+00	0	24	0	890241024	50	5641
2026-01-05 06:59:23.75	239.54	9.51	-37.3	-38.4	18.9	0.00e+00	0	24	0	919601152	48	5967
2026-01-05 06:59:27.79	240.11	9.72	-36.8	-37.9	19.5	0.00e+00	0	24	0	948961280	46	6319
2026-01-05 06:59:31.83	240.69	9.93	-36.1	-37.0	19.8	0.00e+00	0	24	0	978321408	46	5740
2026-01-05 06:59:35.86	241.27	10.14	-35.3	-36.2	20.5	0.00e+00	0	24	0	1007681536	44	5850
2026-01-05 06:59:39.90	241.86	10.35	-34.9	-35.8	20.8	0.00e+00	0	24	0	1035993088	42	6285
2026-01-05 06:59:43.94	242.46	10.56	-34.5	-35.4	21.1	0.00e+00	0	24	0	1065353216	42	6030
2026-01-05 06:59:47.98	243.07	10.77	-34.2	-35.1	21.5	0.00e+00	0	24	0	1094713344	42	5763
2026-01-05 06:59:52.02	243.69	10.97	-33.3	-34.2	22.0	0.00e+00	0	24	0	1124073472	40	5836
2026-01-05 06:59:56.05	244.31	11.18	-32.6	-33.4	22.6	0.00e+00	0	24	0	1153433600	38	6003
2026-01-05 07:00:00.09	244.95	11.38	-32.6	-33.4	22.7	0.00e+00	0	24	0	1181745152	38	5986
2026-01-05 07:00:04.13	245.59	11.58	-32.7	-33.5	22.6	0.00e+00	0	24	0	1211105280	38	6102
2026-01-05 07:00:08.17	246.24	11.78	-32.8	-33.6	22.5	0.00e+00	0	24	0	1240465408	38	6160
2026-01-05 07:00:12.21	246.90	11.98	-32.1	-33.0	22.9	0.00e+00	0	24	0	1269825536	38	5707
2026-01-05 07:00:16.25	247.57	12.18	-32.0	-32.9	22.7	0.00e+00	0	24	0	1299185664	38	5656
2026-01-05 07:00:20.29	248.24	12.37	-32.9	-33.8	22.5	0.00e+00	0	24	0	1327497216	40	5584
2026-01-05 07:00:24.34	248.93	12.57	-32.4	-33.2	22.9	0.00e+00	0	24	0	1356857344	38	5872
2026-01-05 07:00:28.38	249.63	12.76	-32.0	-32.8	23.0	0.00e+00	0	24	0	1386217472	36	6315
2026-01-05 07:00:32.42	250.33	12.95	-32.2	-33.0	23.0	0.00e+00	0	24	0	1415577600	36	6413
2026-01-05 07:00:36.45	251.04	13.13	-32.7	-33.5	23.0	0.00e+00	0	24	0	1444937728	38	6078
2026-01-05 07:00:40.49	251.76	13.31	-32.2	-33.0	23.1	0.00e+00	0	24	0	1473249280	38	5747
2026-01-05 07:00:44.53	252.49	13.49	-31.6	-32.4	23.3	0.00e+00	0	24	0	1502609408	36	6000
2026-01-05 07:00:48.56	253.22	13.67	-31.7	-32.5	23.2	0.00e+00	0	24	0	1531969536	36	6055
2026-01-05 07:00:52.60	253.97	13.84	-31.8	-32.6	23.1	0.00e+00	0	24	0	1561329664	36	6125
2026-01-05 07:00:56.64	254.72	14.01	-31.4	-32.2	23.5	0.00e+00	0	24	0	1589641216	36	5847
2026-01-05 07:01:00.68	255.49	14.18	-31.2	-32.0	23.3	0.00e+00	0	24	0	1619001344	36	5745
2026-01-05 07:01:04.72	256.26	14.35	-31.6	-32.4	23.5	0.00e+00	0	24	0	1648361472	36	5991
2026-01-05 07:01:08.76	257.04	14.51	-31.4	-32.2	23.6	0.00e+00	0	24	0	1677721600	36	5833
2026-01-05 07:01:12.80	257.82	14.66	-31.3	-32.1	23.3	0.00e+00	0	24	0	1707081728	36	5783
2026-01-05 07:01:16.83	258.62	14.81	-31.4	-32.2	23.5	0.00e+00	0	24	0	1736441856	36	5830
2026-01-05 07:01:20.87	259.42	14.96	-31.3	-32.1	23.5	0.00e+00	0	24	0	1764753408	36	5826
2026-01-05 07:01:24.91	260.23	15.10	-31.0	-31.8	23.4	0.00e+00	0	24	0	1794113536	36	5614
2026-01-05 07:01:28.94	261.05	15.24	-30.9	-31.7	23.4	0.00e+00	0	24	0	1823473664	36	5505
2026-01-05 07:01:32.98	261.87	15.38	-31.0	-31.8	23.4	0.00e+00	0	24	0	1852833792	36	5574
2026-01-05 07:01:37.01	262.70	15.50	-31.3	-32.2	23.4	0.00e+00	0	24	0	1882193920	36	5841
2026-01-05 07:01:41.05	263.54	15.63	-30.8	-31.6	23.5	0.00e+00	0	24	0	1910505472	36	5441
2026-01-05 07:01:45.08	264.38	15.75	-31.6	-32.4	23.1	0.00e+00	0	24	0	1939865600	36	5980
2026-01-05 07:01:49.12	265.24	15.86	-31.4	-32.2	23.6	0.00e+00	0	24	0	1969225728	36	5860
2026-01-05 07:01:53.16	266.09	15.97	-30.8	-31.6	23.8	0.00e+00	0	24	0	1998585856	36	5465
2026-01-05 07:01:57.20	266.96	16.07	-30.9	-31.7	23.8	0.00e+00	0	24	0	2026897408	34	6184
2026-01-05 07:02:01.23	267.82	16.17	-31.0	-31.8	23.6	0.00e+00	0	24	0	2056257536	34	6283
2026-01-05 07:02:05.27	268.70	16.26	-30.4	-31.2	23.7	0.00e+00	0	24	0	2085617664	34	5874
2026-01-05 07:02:09.31	269.58	16.34	-31.0	-31.8	23.4	0.00e+00	0	24	0	2114977792	34	6287
2026-01-05 07:02:13.35	270.46	16.42	-31.0	-31.8	23.3	0.00e+00	0	24	0	2143289344	34	6272
2026-01-05 07:02:17.38	271.35	16.49	-30.7	-31.5	23.4	0.00e+00	0	24	0	2172649472	34	6074
2026-01-05 07:02:21.42	272.24	16.56	-30.6	-31.4	23.6	0.00e+00	0	24	0	2202009600	34	6005
2026-01-05 07:02:25.46	273.14	16.62	-30.4	-31.1	23.7	0.00e+00	0	24	0	2231369728	34	5820
2026-01-05 07:02:29.50	274.04	16.67	-30.9	-31.7	23.5	0.00e+00	0	24	0	2260729856	34	6193
2026-01-05 07:02:33.53	274.94	16.72	-30.8	-31.6	23.5	0.00e+00	0	24	0	2290089984	34	6111
2026-01-05 07:02:37.56	275.84	16.76	-30.5	-31.3	23.7	0.00e+00	0	24	0	2318401536	34	5938
2026-01-05 07:02:41.60	276.74	16.79	-30.7	-31.5	23.5	0.00e+00	0	24	0	2347761664	34	6059
2026-01-05 07:02:45.64	277.65	16.81	-30.9	-31.7	23.4	0.00e+00	0	24	0	2377121792	34	6191
2026-01-05 07:02:49.68	278.56	16.83	-30.9	-31.7	23.4	0.00e+00	0	24	0	2406481920	34	6224
2026-01-05 07:02:53.72	279.47	16.85	-30.9	-31.7	23.5	0.00e+00	0	24	0	2435842048	34	6186
2026-01-05 07:02:57.76	280.38	16.85	-31.0	-31.8	23.6	0.00e+00	0	24	0	2464153600	34	6288
2026-01-05 07:03:01.80	281.29	16.85	-30.6	-31.4	23.8	0.00e+00	0	24	0	2493513728	34	6023
2026-01-05 07:03:05.84	282.20	16.84	-30.8	-31.6	23.6	0.00e+00	0	24	0	2522873856	34	6153
2026-01-05 07:03:09.87	283.11	16.83	-30.6	-31.4	23.5	0.00e+00	0	24	0	2552233984	34	6012
2026-01-05 07:03:13.91	284.02	16.80	-31.1	-32.0	23.3	0.00e+00	0	24	0	2581594112	34	6393
2026-01-05 07:03:17.95	284.93	16.78	-30.7	-31.5	23.4	0.00e+00	0	24	0	2610954240	34	6042
2026-01-05 07:03:21.99	285.83	16.74	-30.9	-31.7	23.2	0.00e+00	0	24	0	2639265792	34	6222
2026-01-05 07:03:26.03	286.73	16.70	-30.6	-31.4	23.4	0.00e+00	0	24	0	2668625920	34	5978
2026-01-05 07:03:30.07	287.63	16.65	-32.2	-33.0	23.3	0.00e+00	0	24	0	2697986048	34	7211
2026-01-05 07:03:34.10	288.53	16.59	-30.8	-31.6	23.3	0.00e+00	0	24	0	2727346176	34	6132
2026-01-05 07:03:38.14	289.42	16.53	-31.2	-32.0	23.5	0.00e+00	0	24	0	2755657728	34	6436
2026-01-05 07:03:42.18	290.31	16.46	-31.3	-32.1	23.6	0.00e+00	0	24	0	2785017856	36	5773
2026-01-05 07:03:46.22	291.19	16.39	-32.0	-32.8	23.2	0.00e+00	0	24	0	2814377984	36	6268
2026-01-05 07:03:50.26	292.08	16.31	-31.7	-32.5	23.4	0.00e+00	0	24	0	2843738112	36	6054
2026-01-05 07:03:54.29	292.95	16.22	-31.4	-32.2	23.5	0.00e+00	0	24	0	2872049664	36	5869
2026-01-05 07:03:58.33	293.82	16.13	-31.3	-32.1	23.4	0.00e+00	0	24	0	2901409792	36	5801
2026-01-05 07:04:02.37	294.69	16.03	-31.0	-31.8	23.5	0.00e+00	0	24	0	2930769920	36	5610
2026-01-05 07:04:06.41	295.54	15.93	-31.8	-32.6	23.2	0.00e+00	0	24	0	2960130048	36	6104
2026-01-05 07:04:10.45	296.40	15.82	-31.4	-32.2	23.2	0.00e+00	0	24	0	2989490176	36	5892
2026-01-05 07:04:14.48	297.24	15.70	-31.2	-32.1	23.2	0.00e+00	0	24	0	3017801728	36	5773
2026-01-05 07:04:18.52	298.08	15.58	-31.7	-32.6	23.1	0.00e+00	0	24	0	3047161856	36	6117
2026-01-05 07:04:22.56	298.92	15.46	-31.4	-32.3	23.2	0.00e+00	0	24	0	3076521984	36	5898
2026-01-05 07:04:26.59	299.74	15.33	-32.1	-32.9	23.2	0.00e+00	0	24	0	3105882112	36	6364
2026-01-05 07:04:30.63	300.56	15.19	-31.7	-32.5	23.4	0.00e+00	0	24	0	3135242240	36	6048
2026-01-05 07:04:34.67	301.37	15.05	-31.2	-31.8	26.2	0.00e+00	0	24	0	3164602368	36	5619
2026-01-05 07:04:38.70	302.18	14.91	-31.7	-32.3	26.0	0.00e+00	0	24	0	3192913920	36	5959
2026-01-05 07:04:42.74	302.97	14.76	-32.5	-33.1	26.0	0.00e+00	0	24	0	3222274048	36	6477
2026-01-05 07:04:46.78	303.76	14.61	-33.0	-33.6	25.3	0.00e+00	0	24	0	3251634176	38	6151
2026-01-05 07:04:50.82	304.55	14.45	-32.6	-33.3	25.6	0.00e+00	0	24	0	3280994304	38	5917
2026-01-05 07:04:54.86	305.32	14.29	-32.2	-32.9	25.7	0.00e+00	0	24	0	3310354432	38	5643
2026-01-05 07:04:58.90	306.08	14.13	-32.4	-33.0	25.7	0.00e+00	0	24	0	3338665984	38	5741
2026-01-05 07:05:02.94	306.84	13.96	-32.2	-32.8	25.5	0.00e+00	0	24	0	3368026112	38	5616
2026-01-05 07:05:06.98	307.59	13.79	-32.7	-33.4	25.3	0.00e+00	0	24	0	3397386240	38	5972
2026-01-05 07:05:11.01	308.33	13.61	-33.2	-33.8	25.6	0.00e+00	0	24	0	3426746368	38	6270
2026-01-05 07:05:15.05	309.06	13.44	-32.3	-32.9	25.7	0.00e+00	0	24	0	3456106496	38	5677
2026-01-05 07:05:19.09	309.78	13.26	-32.8	-33.5	25.2	0.00e+00	0	24	0	3484418048	38	6074
2026-01-05 07:05:23.13	310.49	13.07	-32.1	-32.7	25.4	0.00e+00	0	24	0	3513778176	38	5528
2026-01-05 07:05:27.17	311.20	12.89	-32.9	-33.5	25.0	0.00e+00	0	24	0	3543138304	38	6097
2026-01-05 07:05:31.22	311.90	12.70	-33.1	-33.7	25.4	0.00e+00	0	24	0	3572498432	38	6217
2026-01-05 07:05:35.26	312.59	12.51	-33.3	-34.0	25.1	0.00e+00	0	24	0	3601858560	38	6422
2026-01-05 07:05:39.29	313.27	12.32	-32.8	-33.4	25.1	0.00e+00	0	24	0	3630170112	38	6017
2026-01-05 07:05:43.33	313.94	12.12	-34.6	-35.3	24.7	0.00e+00	0	24	0	3659530240	40	6622
2026-01-05 07:05:47.37	314.60	11.93	-33.6	-34.3	24.6	0.00e+00	0	24	0	3688890368	38	6633
2026-01-05 07:05:51.41	315.25	11.73	-34.5	-35.2	24.4	0.00e+00	0	24	0	3718250496	42	5841
2026-01-05 07:05:55.45	315.90	11.53	-33.4	-34.1	24.1	0.00e+00	0	24	0	3747610624	40	5800
2026-01-05 07:05:59.49	316.54	11.33	-32.7	-33.4	24.7	0.00e+00	0	24	0	3775922176	40	5338
2026-01-05 07:06:03.53	317.16	11.13	-32.8	-33.4	24.8	0.00e+00	0	24	0	3805282304	38	6024
2026-01-05 07:06:07.56	317.78	10.93	-32.7	-33.4	24.8	0.00e+00	0	24	0	3834642432	38	5987
2026-01-05 07:06:11.60	318.40	10.72	-33.2	-33.8	24.4	0.00e+00	0	24	0	3864002560	38	6310
2026-01-05 07:06:15.64	319.00	10.52	-33.3	-33.9	24.3	0.00e+00	0	24	0	3893362688	40	5672
2026-01-05 07:06:19.68	319.59	10.31	-33.2	-33.9	24.5	0.00e+00	0	24	0	3921674240	40	5670
2026-01-05 07:06:23.72	320.18	10.10	-33.0	-33.7	24.6	0.00e+00	0	24	0	3951034368	40	5513
2026-01-05 07:06:27.75	320.76	9.89	-33.0	-33.7	24.4	0.00e+00	0	24	0	3980394496	40	5505
2026-01-05 07:06:31.79	321.33	9.68	-33.4	-34.0	24.1	0.00e+00	0	24	0	4009754624	40	5751
2026-01-05 07:06:35.83	321.89	9.47	-33.3	-34.0	24.0	0.00e+00	0	24	0	4039114752	40	5745
2026-01-05 07:06:39.87	322.45	9.26	-34.0	-34.7	23.7	0.00e+00	0	24	0	4067426304	42	5528
2026-01-05 07:06:43.91	323.00	9.05	-33.6	-34.3	23.8	0.00e+00	0	25	0	4096786432	42	5284
2026-01-05 07:06:47.95	323.54	8.84	-35.0	-35.7	23.8	0.00e+00	0	24	0	4126146560	40	6946
2026-01-05 07:06:51.99	324.07	8.63	-33.3	-34.0	24.3	0.00e+00	0	24	0	4155506688	40	5719
2026-01-05 07:06:56.03	324.60	8.42	-32.9	-33.6	24.3	0.00e+00	0	24	0	4184866816	40	5448
2026-01-05 07:07:00.07	325.12	8.21	-33.0	-33.6	24.0	0.00e+00	0	24	0	4214226944	40	5495
2026-01-05 07:07:04.11	325.63	7.99	-33.8	-34.5	23.7	0.00e+00	0	24	0	4242538496	40	6050
2026-01-05 07:07:08.14	326.13	7.78	-33.9	-34.6	23.3	0.00e+00	0	24	0	4271898624	42	5449
2026-01-05 07:07:12.18	326.63	7.57	-34.1	-34.8	23.0	0.00e+00	0	24	0	4301258752	42	5603
2026-01-05 07:07:16.22	327.12	7.36	-33.9	-34.6	23.3	0.00e+00	0	24	0	4330618880	40	6133
2026-01-05 07:07:20.26	327.60	7.14	-34.0	-34.6	23.5	0.00e+00	0	24	0	4359979008	42	5495
2026-01-05 07:07:24.30	328.08	6.93	-33.7	-34.4	23.2	0.00e+00	0	24	0	4388290560	40	5986
2026-01-05 07:07:28.33	328.55	6.72	-33.9	-34.6	23.1	0.00e+00	0	25	0	4417650688	40	6132
2026-01-05 07:07:32.38	329.01	6.51	-34.2	-34.9	23.1	0.00e+00	0	25	0	4447010816	40	6379
2026-01-05 07:07:36.42	329.47	6.30	-33.9	-34.6	22.8	0.00e+00	0	24	0	4476370944	40	6165
2026-01-05 07:07:40.45	329.92	6.09	-34.0	-34.7	23.1	0.00e+00	0	24	0	4505731072	42	5516
2026-01-05 07:07:44.49	330.36	5.87	-34.8	-35.5	22.3	0.00e+00	0	24	0	4534042624	42	6088
2026-01-05 07:07:48.53	330.80	5.66	-35.0	-35.7	22.0	0.00e+00	0	24	0	4563402752	44	5552
2026-01-05 07:07:52.56	331.23	5.45	-35.2	-36.0	21.5	0.00e+00	0	24	0	4592762880	44	5732
2026-01-05 07:07:56.60	331.66	5.24	-34.6	-35.4	22.1	0.00e+00	0	25	0	4622123008	42	5965
2026-01-05 07:08:00.64	332.08	5.03	-35.0	-35.8	21.2	0.00e+00	0	24	0	4650434560	42	6302
2026-01-05 07:08:04.67	332.49	4.83	-37.0	-38.1	17.6	0.00e+00	0	24	0	4679794688	46	6473
2026-01-05 07:08:08.71	332.90	4.62	-39.5	-41.5	12.7	1.48e-05	0	24	0	4709154816	50	7598
2026-01-05 07:08:12.75	333.31	4.41	-42.3	-46.7	6.0	2.13e-01	0	24	0	4738514944	56	9812
2026-01-05 07:08:16.79	333.71	4.20	-42.8	-51.5	3.8	8.43e-01	0	25	104	4744806400	58	15180
2026-01-05 07:08:20.83	334.10	3.99	-43.5	-54.1	3.6	8.45e-01	0	24	104	4744806400	58	20579
2026-01-05 07:08:24.87	334.49	3.79	-43.6	-54.7	3.6	8.45e-01	0	24	104	4744806400	60	19601
2026-01-05 07:08:28.91	334.87	3.58	-43.4	-54.5	3.6	8.45e-01	0	25	104	4744806400	60	19124
2026-01-05 07:08:32.94	335.25	3.38	-43.4	-54.6	3.6	8.45e-01	0	25	104	4744806400	60	19349
2026-01-05 07:08:36.98	335.62	3.17	-43.4	-54.6	3.6	8.45e-01	0	25	104	4744806400	60	19320
2026-01-05 07:08:41.01	335.99	2.97	-43.6	-54.7	3.6	8.46e-01	0	24	104	4744806400	60	19636
2026-01-05 07:08:45.05	336.35	2.76	-48.7	-60.0	3.6	8.46e-01	0	25	104	4744806400	60	36135
2026-01-05 07:08:49.09	336.71	2.56	-48.5	-60.0	3.6	8.45e-01	0	25	104	4744806400	60	36117
2026-01-05 07:08:53.13	337.06	2.36	-49.8	-61.2	3.6	8.46e-01	0	25	104	4744806400	60	41568
2026-01-05 07:08:57.17	337.41	2.16	-48.9	-60.1	3.6	8.44e-01	0	25	104	4744806400	60	36501
2026-01-05 07:09:01.21	337.76	1.96	-49.1	-60.3	3.6	8.46e-01	0	25	104	4744806400	60	37600
2026-01-05 07:09:05.25	338.10	1.75	-49.0	-60.2	3.6	8.45e-01	0	25	104	4744806400	60	36857
2026-01-05 07:09:09.28	338.44	1.56	-49.5	-60.7	3.6	8.46e-01	0	25	104	4744806400	60	39210
2026-01-05 07:09:13.32	338.77	1.36	-49.2	-60.4	3.6	8.46e-01	0	25	104	4744806400	60	37815
2026-01-05 07:09:17.36	339.10	1.16	-49.5	-60.7	3.6	8.47e-01	0	25	104	4744806400	60	39402
2026-01-05 07:09:21.40	339.42	0.96	-49.3	-60.5	3.6	8.45e-01	0	24	104	4744806400	60	38101
2026-01-05 07:09:25.44	339.74	0.76	-49.1	-60.4	3.6	8.45e-01	0	25	104	4744806400	60	37807
2026-01-05 07:09:29.48	340.06	0.57	-48.7	-59.9	3.6	8.45e-01	0	25	104	4744806400	60	35694
2026-01-05 07:09:33.52	340.37	0.37	-49.0	-60.3	3.6	8.45e-01	0	25	104	4744806400	60	37267
2026-01-05 07:09:37.55	340.68	0.17	-49.8	-61.0	3.6	8.45e-01	0	25	104	4744806400	60	40415
2026-01-05 07:09:41.59	340.98	-0.02	-49.3	-60.5	3.6	8.45e-01	0	25	104	4744806400	60	38290

#Closed at: 2026-01-05 07:09:43
#Recorded file [4744 MB]: D:/lorett/data/35029_260105_185621.dat