passes_logs/2026/01/05/R4.6S_Anadyr/R4.6S_Anadyr__20260105_193101_SUOMI_NPP_rec.log

#Pass ID: 20260105_193101_SUOMI NPP
#Satellite: SUOMI NPP
#Configuration: NPP
#almurnet v.1.7.20251203
#Start time: 2026-01-05 19:31:03

#Version: 2.2.20231116
#Station: R4.6S_Anadyr
#Location: 177.4865 lon 64.73178 lat
#TLE: 1 37849U 11061A   26004.95404768  .00000136  00000+0  85334-4 0  9991
#TLE: 2 37849  98.7801 307.0898 0002575  80.6707 279.4760 14.19522289735281

#Time	Az	El	Level	Level2	SNR	BER	BlckErr	Temp	State	Recorded	gain1	gain2
2026-01-05 19:31:03.44	53.30	0.11	-48.5	-59.3	3.4	8.46e-01	0	31	0	0	60	33192
2026-01-05 19:31:06.47	53.07	0.26	-48.7	-63.9	3.6	1.51e+00	0	32	104	0	60	56472
2026-01-05 19:31:09.50	52.84	0.41	-48.8	-64.0	3.6	1.51e+00	0	32	104	0	60	57345
2026-01-05 19:31:12.53	52.60	0.55	-48.8	-63.9	3.6	1.51e+00	0	32	104	0	60	56827
2026-01-05 19:31:15.56	52.36	0.70	-48.6	-63.8	3.6	1.51e+00	0	32	104	0	60	55995
2026-01-05 19:31:18.58	52.12	0.85	-48.3	-63.4	3.6	1.51e+00	0	32	104	0	60	53653
2026-01-05 19:31:21.61	51.88	1.00	-47.2	-62.4	3.6	1.51e+00	0	32	104	0	60	47484
2026-01-05 19:31:24.64	51.64	1.14	-47.2	-62.3	3.6	1.51e+00	0	32	104	0	60	47257
2026-01-05 19:31:27.67	51.39	1.29	-47.2	-62.4	3.6	1.51e+00	0	33	104	0	60	47478
2026-01-05 19:31:30.70	51.14	1.44	-47.2	-62.4	3.6	1.51e+00	0	32	104	0	60	47439
2026-01-05 19:31:33.73	50.89	1.59	-47.2	-62.3	3.6	1.51e+00	0	33	104	0	60	47369
2026-01-05 19:31:36.76	50.63	1.74	-47.2	-62.3	3.6	1.51e+00	0	33	104	0	60	47165
2026-01-05 19:31:39.79	50.37	1.89	-47.2	-62.4	3.6	1.51e+00	0	33	104	0	60	47683
2026-01-05 19:31:42.82	50.11	2.04	-47.2	-62.3	3.6	1.51e+00	0	33	104	0	60	46855
2026-01-05 19:31:45.85	49.85	2.19	-47.1	-62.1	3.6	1.51e+00	0	33	104	0	60	46114
2026-01-05 19:31:48.88	49.58	2.34	-47.2	-62.3	3.6	1.51e+00	0	33	104	0	60	46999
2026-01-05 19:31:51.91	49.31	2.49	-47.2	-62.2	3.6	1.51e+00	0	33	104	0	60	46672
2026-01-05 19:31:54.94	49.04	2.64	-47.2	-62.3	3.6	1.51e+00	0	33	104	0	60	46893
2026-01-05 19:31:57.97	48.76	2.79	-47.1	-61.2	3.6	1.51e+00	0	33	104	0	60	41717
2026-01-05 19:32:00.98	48.49	2.95	-47.0	-59.6	3.8	1.51e+00	0	33	104	0	60	34419
2026-01-05 19:32:04.01	48.21	3.10	-47.4	-61.5	3.6	3.89e-01	0	33	104	3145728	60	43161
2026-01-05 19:32:07.04	47.92	3.25	-47.4	-62.4	3.6	1.51e+00	0	33	104	3145728	60	47870
2026-01-05 19:32:10.06	47.63	3.40	-43.8	-46.7	14.8	0.00e+00	36	33	0	6291456	60	7839
2026-01-05 19:32:13.09	47.34	3.55	-42.3	-44.5	17.0	0.00e+00	18	33	0	11534336	58	6779
2026-01-05 19:32:16.12	47.05	3.70	-42.0	-43.9	17.4	0.00e+00	0	33	0	16777216	58	6352
2026-01-05 19:32:19.14	46.76	3.86	-42.0	-43.9	17.5	0.00e+00	91	33	0	23068672	56	7141
2026-01-05 19:32:22.17	46.46	4.01	-42.0	-43.9	17.6	0.00e+00	92	33	0	28311552	56	7110
2026-01-05 19:32:25.20	46.15	4.16	-42.0	-43.9	17.6	0.00e+00	0	33	0	34603008	56	7149
2026-01-05 19:32:28.22	45.85	4.31	-41.9	-43.8	17.7	0.00e+00	0	33	0	39845888	56	7064
2026-01-05 19:32:31.25	45.54	4.47	-41.8	-43.6	18.0	0.00e+00	53	33	0	45088768	56	6891
2026-01-05 19:32:34.28	45.22	4.62	-42.3	-44.3	17.4	0.00e+00	0	33	0	51380224	56	7473
2026-01-05 19:32:37.30	44.91	4.77	-41.7	-43.4	18.2	0.00e+00	0	33	0	56623104	56	6753
2026-01-05 19:32:40.33	44.59	4.92	-41.8	-43.6	18.1	0.00e+00	91	33	0	62914560	56	6860
2026-01-05 19:32:43.36	44.27	5.08	-41.5	-43.2	18.4	0.00e+00	90	33	0	68157440	56	6611
2026-01-05 19:32:46.39	43.94	5.23	-41.8	-43.6	18.0	0.00e+00	0	33	0	74448896	56	6910
2026-01-05 19:32:49.42	43.61	5.38	-41.7	-43.4	18.4	0.00e+00	0	33	0	79691776	56	6735
2026-01-05 19:32:52.44	43.28	5.53	-41.5	-43.2	18.5	0.00e+00	47	33	0	84934656	56	6579
2026-01-05 19:32:55.47	42.94	5.69	-40.8	-42.3	19.4	0.00e+00	0	33	0	91226112	54	6649
2026-01-05 19:32:58.50	42.60	5.84	-40.5	-41.9	19.7	0.00e+00	0	33	0	96468992	54	6367
2026-01-05 19:33:01.52	42.25	5.99	-40.4	-41.8	19.8	0.00e+00	60	33	0	102760448	54	6288
2026-01-05 19:33:04.55	41.91	6.15	-40.2	-41.6	20.0	0.00e+00	47	33	0	108003328	54	6125
2026-01-05 19:33:07.58	41.55	6.30	-40.2	-41.6	20.0	0.00e+00	0	33	0	113246208	54	6110
2026-01-05 19:33:10.61	41.20	6.45	-40.2	-41.6	19.6	0.00e+00	0	33	0	119537664	54	6129
2026-01-05 19:33:13.64	40.84	6.60	-40.1	-41.4	20.2	0.00e+00	20	33	0	124780544	54	6008
2026-01-05 19:33:16.66	40.47	6.75	-40.5	-41.9	19.8	0.00e+00	0	33	0	131072000	54	6351
2026-01-05 19:33:19.69	40.11	6.91	-40.6	-42.1	19.7	0.00e+00	0	33	0	136314880	54	6473
2026-01-05 19:33:22.72	39.73	7.06	-40.4	-41.8	19.9	0.00e+00	91	33	0	142606336	54	6265
2026-01-05 19:33:25.75	39.36	7.21	-40.5	-42.0	19.6	0.00e+00	0	33	0	147849216	54	6395
2026-01-05 19:33:28.77	38.98	7.36	-40.7	-42.2	19.5	0.00e+00	0	33	0	153092096	54	6587
2026-01-05 19:33:31.80	38.60	7.51	-40.7	-42.1	19.7	0.00e+00	83	33	0	159383552	54	6495
2026-01-05 19:33:34.83	38.21	7.66	-40.5	-41.8	19.9	0.00e+00	0	33	0	164626432	54	6303
2026-01-05 19:33:37.86	37.82	7.81	-40.3	-41.6	20.2	0.00e+00	0	33	0	170917888	54	6139
2026-01-05 19:33:40.89	37.42	7.96	-40.1	-41.4	20.3	0.00e+00	0	33	0	176160768	54	5986
2026-01-05 19:33:43.92	37.02	8.11	-39.9	-41.1	20.5	0.00e+00	51	33	0	181403648	54	5815
2026-01-05 19:33:46.95	36.62	8.26	-40.2	-41.5	20.1	0.00e+00	0	33	0	187695104	54	6082
2026-01-05 19:33:49.98	36.21	8.41	-40.6	-42.0	19.8	0.00e+00	0	33	0	192937984	54	6464
2026-01-05 19:33:53.01	35.79	8.55	-40.7	-42.2	19.7	0.00e+00	63	33	0	199229440	54	6560
2026-01-05 19:33:56.04	35.38	8.70	-40.4	-41.8	20.1	0.00e+00	0	33	0	204472320	54	6255
2026-01-05 19:33:59.07	34.96	8.85	-40.4	-41.7	20.0	0.00e+00	0	33	0	210763776	54	6240
2026-01-05 19:34:02.10	34.53	8.99	-40.4	-41.8	20.0	0.00e+00	0	33	0	216006656	54	6267
2026-01-05 19:34:05.13	34.10	9.14	-39.8	-41.0	20.8	0.00e+00	35	33	0	221249536	54	5732
2026-01-05 19:34:08.16	33.66	9.28	-39.7	-40.9	20.9	0.00e+00	0	33	0	227540992	52	6355
2026-01-05 19:34:11.19	33.23	9.43	-39.3	-40.5	21.2	0.00e+00	0	33	0	232783872	52	6068
2026-01-05 19:34:14.22	32.78	9.57	-39.2	-40.3	21.4	0.00e+00	76	33	0	239075328	52	5933
2026-01-05 19:34:17.25	32.33	9.71	-38.9	-40.0	21.5	0.00e+00	0	33	0	244318208	52	5720
2026-01-05 19:34:20.27	31.88	9.85	-38.4	-39.4	22.1	0.00e+00	0	33	0	249561088	50	6023
2026-01-05 19:34:23.30	31.43	9.99	-38.2	-39.2	22.3	0.00e+00	82	33	0	255852544	50	5896
2026-01-05 19:34:26.33	30.97	10.13	-38.6	-39.7	22.0	0.00e+00	0	33	0	261095424	50	6191
2026-01-05 19:34:29.36	30.50	10.27	-38.9	-40.0	21.7	0.00e+00	0	33	0	267386880	50	6436
2026-01-05 19:34:32.38	30.03	10.41	-39.1	-40.3	21.5	0.00e+00	0	33	0	272629760	50	6635
2026-01-05 19:34:35.41	29.56	10.54	-38.6	-39.7	22.0	0.00e+00	51	33	0	278921216	50	6183
2026-01-05 19:34:38.44	29.08	10.68	-38.0	-39.0	22.4	0.00e+00	0	33	0	284164096	50	5742
2026-01-05 19:34:41.47	28.59	10.81	-37.7	-38.7	22.7	0.00e+00	0	33	0	289406976	48	6202
2026-01-05 19:34:44.49	28.11	10.94	-37.7	-38.7	22.7	0.00e+00	47	33	0	295698432	48	6197
2026-01-05 19:34:47.52	27.61	11.07	-37.7	-38.7	22.9	0.00e+00	0	33	0	300941312	48	6181
2026-01-05 19:34:50.54	27.12	11.20	-37.8	-38.8	22.7	0.00e+00	0	33	0	307232768	48	6306
2026-01-05 19:34:53.57	26.62	11.33	-37.4	-38.4	23.1	0.00e+00	90	33	0	312475648	48	5970
2026-01-05 19:34:56.60	26.11	11.46	-37.3	-38.2	23.1	0.00e+00	55	33	0	317718528	48	5891
2026-01-05 19:34:59.63	25.60	11.58	-37.3	-38.2	23.2	0.00e+00	0	33	0	324009984	48	5889
2026-01-05 19:35:02.66	25.09	11.71	-37.8	-38.8	22.8	0.00e+00	0	33	0	329252864	48	6263
2026-01-05 19:35:05.69	24.57	11.83	-38.1	-39.2	22.4	0.00e+00	22	33	0	335544320	48	6555
2026-01-05 19:35:08.72	24.04	11.95	-38.1	-39.2	21.9	0.00e+00	0	33	0	340787200	48	6561
2026-01-05 19:35:11.74	23.52	12.06	-38.2	-39.2	22.4	0.00e+00	0	33	0	346030080	48	6604
2026-01-05 19:35:14.76	22.99	12.18	-38.1	-39.1	22.6	0.00e+00	76	33	0	352321536	48	6484
2026-01-05 19:35:17.79	22.45	12.29	-38.4	-39.5	22.3	0.00e+00	0	33	0	357564416	48	6774
2026-01-05 19:35:20.82	21.91	12.41	-38.2	-39.2	22.5	0.00e+00	0	33	0	363855872	48	6589
2026-01-05 19:35:23.82	21.37	12.52	-37.6	-38.6	22.8	0.00e+00	91	33	0	369098752	48	6131
2026-01-05 19:35:26.85	20.82	12.63	-37.6	-38.6	23.0	0.00e+00	0	33	0	375390208	48	6120
2026-01-05 19:35:29.88	20.27	12.73	-37.7	-38.7	22.8	0.00e+00	0	33	0	380633088	48	6180
2026-01-05 19:35:32.91	19.71	12.84	-38.3	-39.3	22.5	0.00e+00	0	33	0	385875968	48	6665
2026-01-05 19:35:35.93	19.15	12.94	-37.9	-38.9	22.7	0.00e+00	55	33	0	392167424	48	6323
2026-01-05 19:35:38.96	18.59	13.04	-37.9	-38.9	22.6	0.00e+00	0	33	0	397410304	48	6363
2026-01-05 19:35:41.99	18.02	13.13	-38.5	-39.5	22.1	0.00e+00	0	33	0	403701760	48	6840
2026-01-05 19:35:45.01	17.45	13.23	-38.8	-40.0	21.7	0.00e+00	23	33	0	408944640	50	6426
2026-01-05 19:35:48.04	16.87	13.32	-38.3	-39.3	22.4	0.00e+00	0	34	0	414187520	50	5915
2026-01-05 19:35:51.07	16.29	13.41	-37.3	-38.2	23.1	0.00e+00	0	33	0	420478976	48	5851
2026-01-05 19:35:54.09	15.71	13.50	-36.8	-37.7	23.7	0.00e+00	33	33	0	425721856	46	6186
2026-01-05 19:35:57.13	15.12	13.58	-37.1	-38.0	23.5	0.00e+00	52	33	0	432013312	46	6403
2026-01-05 19:36:00.15	14.54	13.66	-37.0	-37.8	23.6	0.00e+00	0	33	0	437256192	46	6312
2026-01-05 19:36:03.18	13.94	13.74	-37.1	-38.0	23.5	0.00e+00	0	33	0	442499072	46	6446
2026-01-05 19:36:06.21	13.35	13.82	-37.2	-38.1	23.4	0.00e+00	53	33	0	448790528	46	6524
2026-01-05 19:36:09.23	12.75	13.89	-38.1	-39.1	22.5	0.00e+00	0	33	0	454033408	48	6539
2026-01-05 19:36:12.27	12.14	13.96	-38.2	-39.2	22.5	0.00e+00	0	33	0	460324864	48	6552
2026-01-05 19:36:15.29	11.54	14.03	-38.3	-39.3	22.3	0.00e+00	57	33	0	465567744	48	6691
2026-01-05 19:36:18.33	10.93	14.09	-38.5	-39.5	22.0	0.00e+00	0	33	0	471859200	48	6840
2026-01-05 19:36:21.35	10.32	14.15	-38.3	-39.3	22.4	0.00e+00	0	33	0	477102080	48	6686
2026-01-05 19:36:24.38	9.71	14.21	-38.0	-39.0	22.7	0.00e+00	0	33	0	482344960	48	6444
2026-01-05 19:36:27.41	9.09	14.27	-37.9	-38.9	23.0	0.00e+00	0	33	0	488636416	48	6342
2026-01-05 19:36:30.44	8.48	14.32	-37.3	-38.2	23.2	0.00e+00	0	33	0	493879296	48	5876
2026-01-05 19:36:33.47	7.86	14.37	-37.3	-38.1	23.4	0.00e+00	0	33	0	500170752	48	5828
2026-01-05 19:36:36.49	7.24	14.41	-37.8	-38.7	22.9	0.00e+00	45	33	0	505413632	48	6216
2026-01-05 19:36:39.52	6.61	14.45	-37.8	-38.7	22.7	0.00e+00	0	33	0	510656512	48	6233
2026-01-05 19:36:42.55	5.99	14.49	-37.8	-38.8	22.7	0.00e+00	0	33	0	516947968	48	6272
2026-01-05 19:36:45.58	5.36	14.53	-37.7	-38.7	22.9	0.00e+00	78	33	0	522190848	48	6184
2026-01-05 19:36:48.61	4.73	14.56	-37.7	-38.7	22.9	0.00e+00	0	33	0	528482304	48	6179
2026-01-05 19:36:51.64	4.10	14.59	-38.0	-39.0	22.7	0.00e+00	0	33	0	533725184	48	6428
2026-01-05 19:36:54.66	3.48	14.61	-37.8	-38.8	22.7	0.00e+00	0	33	0	538968064	48	6254
2026-01-05 19:36:57.69	2.84	14.63	-37.4	-38.3	23.1	0.00e+00	54	33	0	545259520	48	5936
2026-01-05 19:37:00.72	2.21	14.65	-37.6	-38.6	23.0	0.00e+00	0	33	0	550502400	48	6144
2026-01-05 19:37:03.75	1.58	14.67	-37.6	-38.6	23.0	0.00e+00	0	33	0	556793856	48	6111
2026-01-05 19:37:06.78	0.94	14.68	-37.6	-38.5	23.0	0.00e+00	92	34	0	562036736	48	6086
2026-01-05 19:37:09.81	0.31	14.69	-38.3	-39.3	22.4	0.00e+00	0	33	0	568328192	48	6674
2026-01-05 19:37:12.83	359.68	14.69	-38.2	-39.2	22.5	0.00e+00	0	33	0	573571072	48	6598
2026-01-05 19:37:15.86	359.04	14.69	-37.8	-38.7	22.9	0.00e+00	90	33	0	578813952	48	6224
2026-01-05 19:37:18.89	358.41	14.69	-37.4	-38.3	23.2	0.00e+00	0	33	0	585105408	48	5908
2026-01-05 19:37:21.92	357.77	14.68	-37.8	-38.7	22.8	0.00e+00	0	33	0	590348288	48	6241
2026-01-05 19:37:24.95	357.14	14.67	-38.3	-39.3	22.4	0.00e+00	0	33	0	596639744	48	6672
2026-01-05 19:37:27.98	356.51	14.66	-38.0	-39.0	22.7	0.00e+00	27	33	0	601882624	48	6407
2026-01-05 19:37:31.00	355.88	14.64	-38.2	-39.2	21.7	0.00e+00	0	33	0	607125504	48	6573
2026-01-05 19:37:34.03	355.24	14.62	-38.7	-39.8	21.9	0.00e+00	0	33	0	613416960	48	7028
2026-01-05 19:37:37.06	354.61	14.60	-38.2	-39.2	22.5	0.00e+00	90	33	0	618659840	48	6603
2026-01-05 19:37:40.09	353.98	14.57	-37.6	-38.5	23.0	0.00e+00	0	33	0	624951296	48	6100
2026-01-05 19:37:43.11	353.36	14.54	-37.6	-38.6	23.0	0.00e+00	0	33	0	630194176	48	6129
2026-01-05 19:37:46.14	352.73	14.50	-37.8	-38.8	23.0	0.00e+00	90	33	0	636485632	48	6306
2026-01-05 19:37:49.17	352.10	14.47	-38.1	-39.1	22.6	0.00e+00	0	33	0	641728512	48	6491
2026-01-05 19:37:52.20	351.48	14.43	-37.6	-38.5	23.2	0.00e+00	0	33	0	646971392	48	6075
2026-01-05 19:37:55.22	350.86	14.38	-36.9	-37.8	23.4	0.00e+00	0	34	0	653262848	46	6279
2026-01-05 19:37:58.25	350.24	14.33	-37.4	-38.3	23.0	0.00e+00	54	33	0	658505728	46	6643
2026-01-05 19:38:01.28	349.62	14.28	-37.4	-38.4	23.2	0.00e+00	0	34	0	664797184	46	6702
2026-01-05 19:38:04.30	349.01	14.23	-37.8	-38.7	22.7	0.00e+00	0	34	0	670040064	48	6229
2026-01-05 19:38:07.33	348.39	14.17	-37.9	-38.9	22.5	0.00e+00	63	34	0	675282944	48	6359
2026-01-05 19:38:10.36	347.78	14.11	-38.1	-39.1	22.5	0.00e+00	0	34	0	681574400	48	6501
2026-01-05 19:38:13.39	347.17	14.05	-37.7	-38.7	22.9	0.00e+00	0	34	0	686817280	48	6224
2026-01-05 19:38:16.42	346.57	13.98	-37.2	-38.2	23.4	0.00e+00	8	34	0	693108736	48	5839
2026-01-05 19:38:19.44	345.97	13.91	-37.5	-38.4	23.0	0.00e+00	0	34	0	698351616	48	6031
2026-01-05 19:38:22.47	345.37	13.84	-37.8	-38.8	22.7	0.00e+00	0	34	0	703594496	48	6263
2026-01-05 19:38:25.49	344.77	13.77	-37.3	-38.2	23.3	0.00e+00	0	34	0	709885952	48	5869
2026-01-05 19:38:28.52	344.18	13.69	-37.7	-38.7	22.9	0.00e+00	50	34	0	715128832	48	6182
2026-01-05 19:38:31.55	343.59	13.61	-37.7	-38.7	22.7	0.00e+00	0	33	0	721420288	48	6228
2026-01-05 19:38:34.58	343.00	13.52	-38.0	-39.0	22.5	0.00e+00	0	34	0	726663168	48	6446
2026-01-05 19:38:37.60	342.42	13.44	-37.9	-39.0	22.5	0.00e+00	71	34	0	732954624	48	6409
2026-01-05 19:38:40.63	341.84	13.35	-38.1	-39.1	22.5	0.00e+00	0	34	0	738197504	48	6528
2026-01-05 19:38:43.66	341.26	13.26	-38.1	-39.1	22.6	0.00e+00	0	33	0	743440384	48	6480
2026-01-05 19:38:46.69	340.68	13.16	-37.9	-38.9	22.8	0.00e+00	19	34	0	749731840	48	6318
2026-01-05 19:38:49.71	340.12	13.07	-37.9	-38.9	22.7	0.00e+00	52	34	0	754974720	48	6323
2026-01-05 19:38:52.74	339.55	12.97	-37.9	-38.9	22.6	0.00e+00	0	33	0	761266176	48	6351
2026-01-05 19:38:55.77	338.99	12.87	-37.7	-38.7	22.9	0.00e+00	0	33	0	766509056	48	6179
2026-01-05 19:38:58.80	338.43	12.77	-37.1	-38.0	23.4	0.00e+00	49	33	0	771751936	48	5716
2026-01-05 19:39:01.82	337.88	12.66	-37.4	-38.4	23.1	0.00e+00	0	33	0	778043392	48	5967
2026-01-05 19:39:04.85	337.33	12.55	-37.5	-38.4	22.8	0.00e+00	0	33	0	783286272	48	6003
2026-01-05 19:39:07.87	336.78	12.44	-37.7	-38.7	22.7	0.00e+00	92	34	0	789577728	48	6232
2026-01-05 19:39:10.90	336.24	12.33	-38.0	-39.0	22.6	0.00e+00	0	33	0	794820608	48	6424
2026-01-05 19:39:13.92	335.71	12.22	-38.3	-39.4	22.3	0.00e+00	0	34	0	800063488	48	6706
2026-01-05 19:39:16.95	335.17	12.10	-38.0	-39.0	22.5	0.00e+00	0	33	0	806354944	48	6412
2026-01-05 19:39:19.98	334.64	11.98	-38.4	-39.4	22.0	0.00e+00	9	33	0	811597824	48	6715
2026-01-05 19:39:23.00	334.12	11.87	-38.4	-39.5	22.1	0.00e+00	0	33	0	817889280	48	6801
2026-01-05 19:39:26.03	333.60	11.74	-38.7	-39.8	22.0	0.00e+00	0	34	0	823132160	48	7027
2026-01-05 19:39:29.06	333.08	11.62	-38.8	-39.8	21.8	0.00e+00	19	33	0	829423616	50	6284
2026-01-05 19:39:32.08	332.57	11.50	-38.9	-40.0	21.8	0.00e+00	33	34	0	834666496	50	6398
2026-01-05 19:39:35.11	332.07	11.37	-39.0	-40.1	21.7	0.00e+00	33	34	0	839909376	50	6494
2026-01-05 19:39:38.14	331.56	11.24	-38.6	-39.6	22.1	0.00e+00	92	34	0	846200832	50	6136
2026-01-05 19:39:41.17	331.06	11.12	-38.4	-39.4	22.2	0.00e+00	0	34	0	851443712	50	6008
2026-01-05 19:39:44.19	330.57	10.99	-39.3	-40.4	21.4	0.00e+00	0	34	0	857735168	50	6766
2026-01-05 19:39:47.22	330.08	10.85	-40.2	-41.5	20.4	0.00e+00	48	34	0	862978048	52	6817
2026-01-05 19:39:50.25	329.60	10.72	-40.3	-41.6	20.3	0.00e+00	13	34	0	868220928	52	6911
2026-01-05 19:39:53.28	329.12	10.59	-39.3	-40.4	21.4	0.00e+00	0	33	0	874512384	52	6018
2026-01-05 19:39:56.30	328.64	10.45	-39.5	-40.6	21.2	0.00e+00	0	33	0	879755264	52	6171
2026-01-05 19:39:59.33	328.17	10.31	-40.6	-42.0	20.0	0.00e+00	58	33	0	886046720	52	7217
2026-01-05 19:40:02.36	327.70	10.18	-41.8	-43.5	18.7	0.00e+00	0	34	0	891289600	56	6781
2026-01-05 19:40:05.38	327.24	10.04	-41.8	-43.4	18.7	0.00e+00	0	33	0	897581056	56	6768
2026-01-05 19:40:08.41	326.78	9.90	-41.2	-42.6	19.5	0.00e+00	65	34	0	902823936	56	6160
2026-01-05 19:40:11.44	326.33	9.76	-41.0	-42.4	19.6	0.00e+00	0	33	0	908066816	56	6030
2026-01-05 19:40:14.47	325.88	9.62	-40.6	-41.9	20.0	0.00e+00	0	33	0	914358272	54	6369
2026-01-05 19:40:17.50	325.44	9.47	-40.4	-41.8	20.1	0.00e+00	0	33	0	919601152	54	6256
2026-01-05 19:40:20.53	325.00	9.33	-40.0	-41.3	20.6	0.00e+00	46	33	0	925892608	54	5925
2026-01-05 19:40:23.55	324.56	9.19	-40.1	-41.3	20.5	0.00e+00	0	34	0	931135488	54	5938
2026-01-05 19:40:26.58	324.13	9.04	-39.9	-41.1	20.8	0.00e+00	0	33	0	936378368	54	5767
2026-01-05 19:40:29.61	323.70	8.90	-39.5	-40.6	21.1	0.00e+00	74	34	0	942669824	52	6141
2026-01-05 19:40:32.64	323.28	8.75	-39.3	-40.5	21.3	0.00e+00	0	33	0	947912704	52	6035
2026-01-05 19:40:35.67	322.86	8.60	-39.3	-40.4	21.3	0.00e+00	0	33	0	954204160	52	5996
2026-01-05 19:40:38.70	322.45	8.46	-39.3	-40.5	21.3	0.00e+00	92	33	0	959447040	52	6046
2026-01-05 19:40:41.72	322.04	8.31	-39.8	-41.0	20.8	0.00e+00	0	33	0	964689920	52	6446
2026-01-05 19:40:44.75	321.63	8.16	-39.8	-41.0	20.8	0.00e+00	0	34	0	970981376	52	6409
2026-01-05 19:40:47.78	321.23	8.01	-39.8	-41.0	20.7	0.00e+00	0	33	0	976224256	52	6456
2026-01-05 19:40:50.81	320.83	7.86	-39.6	-40.8	20.9	0.00e+00	50	33	0	982515712	52	6291
2026-01-05 19:40:53.84	320.44	7.71	-39.7	-40.9	20.8	0.00e+00	0	34	0	987758592	52	6357
2026-01-05 19:40:56.88	320.05	7.56	-39.5	-40.7	21.0	0.00e+00	0	34	0	994050048	52	6201
2026-01-05 19:40:59.91	319.66	7.41	-38.8	-39.9	21.7	0.00e+00	92	33	0	999292928	52	5648
2026-01-05 19:41:02.93	319.28	7.26	-38.4	-39.5	22.1	0.00e+00	0	33	0	1004535808	50	6056
2026-01-05 19:41:05.95	318.91	7.11	-38.5	-39.5	22.0	0.00e+00	0	34	0	1010827264	50	6066
2026-01-05 19:41:08.98	318.54	6.96	-38.7	-39.8	21.7	0.00e+00	92	34	0	1016070144	50	6272
2026-01-05 19:41:12.01	318.17	6.81	-38.8	-39.9	21.7	0.00e+00	0	34	0	1022361600	50	6326
2026-01-05 19:41:15.03	317.80	6.65	-38.3	-39.3	22.1	0.00e+00	0	33	0	1027604480	50	5956
2026-01-05 19:41:18.07	317.44	6.50	-38.2	-39.2	22.1	0.00e+00	0	34	0	1032847360	50	5881
2026-01-05 19:41:21.10	317.08	6.35	-38.7	-39.7	21.7	0.00e+00	42	33	0	1039138816	50	6241
2026-01-05 19:41:24.13	316.73	6.20	-38.8	-39.9	21.6	0.00e+00	0	33	0	1044381696	50	6374
2026-01-05 19:41:27.16	316.38	6.04	-39.1	-40.2	21.3	0.00e+00	0	34	0	1050673152	50	6612
2026-01-05 19:41:30.19	316.03	5.89	-39.3	-40.5	21.0	0.00e+00	59	33	0	1055916032	50	6772
2026-01-05 19:41:33.21	315.69	5.74	-39.4	-40.6	21.0	0.00e+00	0	34	0	1062207488	50	6892
2026-01-05 19:41:36.24	315.35	5.59	-39.3	-40.5	20.9	0.00e+00	0	34	0	1067450368	50	6833
2026-01-05 19:41:39.27	315.02	5.43	-39.4	-40.6	20.8	0.00e+00	92	33	0	1072693248	50	6868
2026-01-05 19:41:42.30	314.69	5.28	-39.6	-40.9	20.7	0.00e+00	49	34	0	1078984704	50	7092
2026-01-05 19:41:45.32	314.36	5.13	-39.3	-40.5	20.6	0.00e+00	0	34	0	1084227584	50	6786
2026-01-05 19:41:48.35	314.04	4.97	-38.8	-39.9	21.4	0.00e+00	0	34	0	1090519040	50	6357
2026-01-05 19:41:51.38	313.72	4.82	-39.3	-40.5	20.8	0.00e+00	56	34	0	1095761920	50	6835
2026-01-05 19:41:54.41	313.40	4.67	-39.1	-40.3	21.0	0.00e+00	0	34	0	1101004800	50	6682
2026-01-05 19:41:57.44	313.08	4.52	-39.2	-40.4	20.9	0.00e+00	0	34	0	1107296256	50	6711
2026-01-05 19:42:00.47	312.77	4.36	-39.9	-41.3	20.0	0.00e+00	91	34	0	1112539136	52	6637
2026-01-05 19:42:03.49	312.47	4.21	-40.3	-41.7	19.5	0.00e+00	0	34	0	1118830592	52	6998
2026-01-05 19:42:06.52	312.16	4.06	-39.9	-41.2	20.3	0.00e+00	0	34	0	1124073472	52	6612
2026-01-05 19:42:09.55	311.86	3.91	-39.3	-40.5	20.8	0.00e+00	9	34	0	1130364928	52	6040
2026-01-05 19:42:12.58	311.56	3.75	-39.1	-40.2	20.9	0.00e+00	17	34	0	1135607808	52	5895
2026-01-05 19:42:15.60	311.27	3.60	-38.9	-40.0	21.1	0.00e+00	0	34	0	1140850688	52	5735
2026-01-05 19:42:18.63	310.98	3.45	-39.1	-40.3	20.8	0.00e+00	0	33	0	1147142144	52	5913
2026-01-05 19:42:21.66	310.69	3.30	-39.6	-40.9	20.2	0.00e+00	92	33	0	1152385024	52	6323
2026-01-05 19:42:24.69	310.41	3.15	-40.3	-41.7	19.3	0.00e+00	0	34	0	1158676480	52	6979
2026-01-05 19:42:27.71	310.13	3.00	-47.6	-62.7	3.6	2.20e-06	0	34	104	1162870784	60	49318
2026-01-05 19:42:30.75	309.85	2.84	-48.6	-63.8	3.6	1.51e+00	0	34	104	1162870784	60	55908
2026-01-05 19:42:33.77	309.57	2.69	-48.8	-64.0	3.6	1.51e+00	0	34	104	1162870784	60	57024
2026-01-05 19:42:36.80	309.30	2.54	-48.8	-64.0	3.6	1.51e+00	0	34	104	1162870784	60	57478
2026-01-05 19:42:39.83	309.03	2.39	-48.7	-63.8	3.6	1.51e+00	0	34	104	1162870784	60	56213
2026-01-05 19:42:42.86	308.76	2.24	-48.7	-63.8	3.6	1.51e+00	0	34	104	1162870784	60	55830
2026-01-05 19:42:45.89	308.49	2.09	-48.7	-63.8	3.6	1.51e+00	0	34	104	1162870784	60	56276
2026-01-05 19:42:48.91	308.23	1.94	-48.7	-63.9	3.6	1.51e+00	0	34	104	1162870784	60	56311
2026-01-05 19:42:51.94	307.97	1.79	-48.7	-63.9	3.6	1.51e+00	0	34	104	1162870784	60	56454
2026-01-05 19:42:54.97	307.72	1.64	-48.7	-63.8	3.6	1.51e+00	0	34	104	1162870784	60	56278
2026-01-05 19:42:58.00	307.46	1.49	-48.7	-63.8	3.6	1.51e+00	0	34	104	1162870784	60	56259
2026-01-05 19:43:01.03	307.21	1.34	-48.7	-63.8	3.6	1.51e+00	0	34	104	1162870784	60	56219
2026-01-05 19:43:04.06	306.96	1.19	-48.7	-63.8	3.6	1.51e+00	0	34	104	1162870784	60	56084
2026-01-05 19:43:07.08	306.72	1.05	-48.6	-63.8	3.6	1.51e+00	0	34	104	1162870784	60	56207
2026-01-05 19:43:10.11	306.48	0.90	-48.6	-63.8	3.6	1.51e+00	0	34	104	1162870784	60	55887
2026-01-05 19:43:13.14	306.23	0.75	-48.6	-63.8	3.6	1.51e+00	0	34	104	1162870784	60	56070
2026-01-05 19:43:16.17	306.00	0.60	-48.6	-63.8	3.6	1.51e+00	0	34	104	1162870784	60	56019
2026-01-05 19:43:19.20	305.76	0.45	-48.6	-63.8	3.6	1.51e+00	0	34	104	1162870784	60	55986
2026-01-05 19:43:22.22	305.53	0.31	-48.7	-63.8	3.6	1.51e+00	0	34	104	1162870784	60	56167
2026-01-05 19:43:25.25	305.30	0.16	-48.6	-63.8	3.6	1.51e+00	0	34	104	1162870784	60	56296
2026-01-05 19:43:28.28	305.07	0.01	-48.6	-63.8	3.6	1.51e+00	0	34	104	1162870784	60	56025

#Closed at: 2026-01-05 19:43:28
#Recorded file [1162 MB]: D:/lorett/data/35029_260106_073103.dat