passes_logs/2026/01/05/R4.6S_Anadyr/R4.6S_Anadyr__20260105_195118_NOAA_20_JPSS-1_rec.log

#Pass ID: 20260105_195118_NOAA 20 (JPSS-1)
#Satellite: NOAA 20 (JPSS-1)
#Configuration: NOAA 20
#almurnet v.1.7.20251203
#Start time: 2026-01-05 19:51:20

#Version: 2.2.20231116
#Station: R4.6S_Anadyr
#Location: 177.4865 lon 64.73178 lat
#TLE: 1 43013U 17073A   26005.46207808  .00000128  00000+0  81791-4 0  9997
#TLE: 2 43013  98.7627 306.5027 0001826  53.0458 307.0885 14.19533487421381

#Time	Az	El	Level	Level2	SNR	BER	BlckErr	Temp	State	Recorded	gain1	gain2
2026-01-05 19:51:20.36	59.71	0.11	-48.6	-63.5	3.5	1.51e+00	0	31	0	0	60	54149
2026-01-05 19:51:23.39	59.48	0.25	-48.7	-63.9	3.6	1.51e+00	0	32	104	0	60	56494
2026-01-05 19:51:26.42	59.25	0.40	-48.8	-63.9	3.6	1.51e+00	0	32	104	0	60	56959
2026-01-05 19:51:29.45	59.01	0.55	-48.7	-63.9	3.6	1.51e+00	0	32	104	0	60	56889
2026-01-05 19:51:32.48	58.78	0.70	-48.6	-63.8	3.6	1.51e+00	0	32	104	0	60	55946
2026-01-05 19:51:35.51	58.54	0.85	-48.3	-63.5	3.6	1.51e+00	0	32	104	0	60	53801
2026-01-05 19:51:38.54	58.30	1.00	-47.2	-62.3	3.6	1.51e+00	0	33	104	0	60	47207
2026-01-05 19:51:41.56	58.05	1.14	-47.2	-62.3	3.6	1.51e+00	0	33	104	0	60	46994
2026-01-05 19:51:44.59	57.81	1.29	-47.2	-62.3	3.6	1.51e+00	0	32	104	0	60	47230
2026-01-05 19:51:47.63	57.56	1.44	-47.2	-62.3	3.6	1.51e+00	0	33	104	0	60	47237
2026-01-05 19:51:50.65	57.31	1.59	-47.2	-62.3	3.6	1.51e+00	0	33	104	0	60	47186
2026-01-05 19:51:53.68	57.05	1.74	-47.1	-62.2	3.6	1.51e+00	0	33	104	0	60	46788
2026-01-05 19:51:56.71	56.80	1.89	-47.2	-62.3	3.6	1.51e+00	0	33	104	0	60	47127
2026-01-05 19:51:59.74	56.54	2.04	-47.1	-62.2	3.6	1.51e+00	0	33	104	0	60	46499
2026-01-05 19:52:02.77	56.27	2.20	-47.1	-62.0	3.6	1.51e+00	0	33	104	0	60	45768
2026-01-05 19:52:05.80	56.01	2.35	-47.1	-62.3	3.6	1.51e+00	0	33	104	0	60	47151
2026-01-05 19:52:08.83	55.74	2.50	-47.1	-62.2	3.6	1.51e+00	0	33	104	0	60	46513
2026-01-05 19:52:11.86	55.47	2.65	-47.1	-62.0	3.6	1.51e+00	0	33	104	0	60	45646
2026-01-05 19:52:14.89	55.20	2.80	-47.1	-61.8	3.6	1.51e+00	0	33	104	0	60	44617
2026-01-05 19:52:17.92	54.92	2.95	-46.7	-55.5	5.2	9.02e-01	0	33	0	0	60	21494
2026-01-05 19:52:20.95	54.64	3.11	-45.4	-49.8	11.3	2.02e-03	92	33	0	5242880	60	11111
2026-01-05 19:52:23.98	54.36	3.26	-43.6	-46.4	14.6	5.61e-01	92	33	104	7340032	60	7542
2026-01-05 19:52:27.00	54.07	3.41	-43.6	-46.3	14.8	0.00e+00	0	33	0	11534336	60	7460
2026-01-05 19:52:30.03	53.78	3.56	-43.1	-45.5	16.0	0.00e+00	0	33	0	17825792	60	6783
2026-01-05 19:52:33.06	53.49	3.72	-41.9	-43.8	17.7	0.00e+00	92	33	0	23068672	58	6268
2026-01-05 19:52:36.08	53.20	3.87	-42.1	-44.1	17.5	0.00e+00	0	33	0	28311552	58	6490
2026-01-05 19:52:39.11	52.90	4.02	-42.0	-43.9	17.6	0.00e+00	53	33	0	34603008	58	6367
2026-01-05 19:52:42.14	52.60	4.17	-42.0	-43.8	17.7	0.00e+00	92	33	0	39845888	56	7052
2026-01-05 19:52:45.17	52.29	4.33	-41.6	-43.2	18.4	0.00e+00	92	33	0	46137344	56	6612
2026-01-05 19:52:48.20	51.99	4.48	-41.8	-43.5	18.1	0.00e+00	26	33	0	51380224	56	6827
2026-01-05 19:52:51.23	51.67	4.64	-41.5	-43.2	18.6	0.00e+00	0	33	0	57671680	56	6553
2026-01-05 19:52:54.26	51.36	4.79	-41.4	-43.0	18.7	0.00e+00	92	33	0	62914560	56	6452
2026-01-05 19:52:57.29	51.04	4.94	-41.4	-43.1	18.7	0.00e+00	53	33	0	68157440	56	6472
2026-01-05 19:53:00.32	50.72	5.10	-41.4	-43.1	18.8	0.00e+00	0	33	0	74448896	56	6468
2026-01-05 19:53:03.35	50.39	5.25	-41.2	-42.7	19.2	0.00e+00	92	33	0	79691776	56	6213
2026-01-05 19:53:06.37	50.07	5.40	-41.0	-42.4	19.3	0.00e+00	0	33	0	85983232	56	6020
2026-01-05 19:53:09.40	49.73	5.56	-40.9	-42.4	19.5	0.00e+00	26	33	0	91226112	56	5988
2026-01-05 19:53:12.43	49.40	5.71	-40.7	-42.1	19.6	0.00e+00	92	33	0	96468992	54	6512
2026-01-05 19:53:15.46	49.06	5.87	-40.7	-42.1	19.6	0.00e+00	40	33	0	102760448	54	6507
2026-01-05 19:53:18.48	48.72	6.02	-40.7	-42.2	19.6	0.00e+00	0	33	0	108003328	54	6542
2026-01-05 19:53:21.51	48.37	6.17	-40.8	-42.2	19.6	0.00e+00	90	33	0	114294784	54	6605
2026-01-05 19:53:24.54	48.02	6.33	-40.8	-42.2	19.7	0.00e+00	92	33	0	119537664	54	6577
2026-01-05 19:53:27.57	47.66	6.48	-41.0	-42.5	19.3	0.00e+00	54	33	0	124780544	54	6817
2026-01-05 19:53:30.60	47.30	6.63	-40.9	-42.3	19.6	0.00e+00	6	33	0	131072000	54	6681
2026-01-05 19:53:33.63	46.94	6.79	-40.6	-41.9	19.9	0.00e+00	90	33	0	136314880	54	6384
2026-01-05 19:53:36.66	46.58	6.94	-40.6	-41.9	19.9	0.00e+00	5	33	0	142606336	54	6382
2026-01-05 19:53:39.68	46.21	7.09	-40.5	-41.9	20.1	0.00e+00	55	33	0	147849216	54	6320
2026-01-05 19:53:42.71	45.83	7.25	-40.6	-41.9	20.0	0.00e+00	92	33	0	154140672	54	6366
2026-01-05 19:53:45.74	45.45	7.40	-40.6	-41.9	20.0	0.00e+00	42	33	0	159383552	54	6375
2026-01-05 19:53:48.77	45.07	7.55	-40.5	-41.8	20.2	0.00e+00	55	33	0	164626432	54	6278
2026-01-05 19:53:51.80	44.68	7.70	-40.4	-41.8	20.2	0.00e+00	92	33	0	170917888	54	6270
2026-01-05 19:53:54.82	44.30	7.85	-40.2	-41.5	20.5	0.00e+00	11	33	0	176160768	54	6076
2026-01-05 19:53:57.85	43.90	8.00	-40.2	-41.5	20.6	0.00e+00	0	33	0	182452224	54	6052
2026-01-05 19:54:00.88	43.50	8.15	-40.1	-41.3	20.6	0.00e+00	56	33	0	187695104	54	5955
2026-01-05 19:54:03.91	43.10	8.30	-39.8	-41.0	20.9	0.00e+00	91	33	0	192937984	54	5757
2026-01-05 19:54:06.93	42.69	8.45	-40.0	-41.3	20.8	0.00e+00	27	33	0	199229440	54	5897
2026-01-05 19:54:09.96	42.28	8.60	-39.9	-41.1	20.9	0.00e+00	27	33	0	204472320	54	5820
2026-01-05 19:54:12.98	41.87	8.75	-40.0	-41.2	20.8	0.00e+00	91	33	0	210763776	54	5863
2026-01-05 19:54:16.01	41.44	8.90	-39.9	-41.1	20.9	0.00e+00	34	33	0	216006656	54	5811
2026-01-05 19:54:19.04	41.02	9.05	-40.1	-41.3	20.6	0.00e+00	0	33	0	222298112	54	5934
2026-01-05 19:54:22.07	40.59	9.19	-40.0	-41.2	20.8	0.00e+00	31	33	0	227540992	54	5894
2026-01-05 19:54:25.09	40.16	9.34	-39.9	-41.1	20.9	0.00e+00	2	33	0	232783872	54	5814
2026-01-05 19:54:28.12	39.72	9.48	-39.8	-41.0	21.1	0.00e+00	56	34	0	239075328	52	6410
2026-01-05 19:54:31.15	39.28	9.63	-39.6	-40.8	21.3	0.00e+00	55	34	0	244318208	52	6252
2026-01-05 19:54:34.18	38.83	9.77	-39.3	-40.5	21.6	0.00e+00	92	33	0	250609664	52	6037
2026-01-05 19:54:37.20	38.38	9.91	-39.2	-40.2	21.8	0.00e+00	0	34	0	255852544	52	5887
2026-01-05 19:54:40.23	37.93	10.06	-39.1	-40.1	22.0	0.00e+00	0	33	0	261095424	52	5827
2026-01-05 19:54:43.26	37.47	10.20	-38.6	-39.6	22.4	0.00e+00	90	34	0	267386880	50	6135
2026-01-05 19:54:46.29	37.00	10.34	-38.5	-39.5	22.5	0.00e+00	0	34	0	272629760	50	6042
2026-01-05 19:54:49.31	36.53	10.48	-38.4	-39.4	22.5	0.00e+00	0	33	0	278921216	50	5971
2026-01-05 19:54:52.34	36.06	10.61	-38.3	-39.2	22.7	0.00e+00	90	34	0	284164096	50	5896
2026-01-05 19:54:55.37	35.58	10.75	-38.3	-39.3	22.7	0.00e+00	43	34	0	289406976	50	5923
2026-01-05 19:54:58.39	35.10	10.88	-38.0	-39.0	23.0	0.00e+00	7	34	0	295698432	50	5732
2026-01-05 19:55:01.42	34.61	11.02	-38.0	-39.0	23.0	0.00e+00	24	34	0	300941312	50	5697
2026-01-05 19:55:04.45	34.12	11.15	-37.9	-38.9	23.1	0.00e+00	92	34	0	307232768	50	5642
2026-01-05 19:55:07.47	33.62	11.28	-38.0	-38.9	23.0	0.00e+00	5	34	0	312475648	50	5679
2026-01-05 19:55:10.50	33.12	11.41	-38.0	-39.0	23.1	0.00e+00	0	34	0	318767104	50	5715
2026-01-05 19:55:13.53	32.62	11.54	-37.4	-38.3	23.6	0.00e+00	92	34	0	324009984	48	5954
2026-01-05 19:55:16.56	32.11	11.67	-37.5	-38.4	23.5	0.00e+00	31	34	0	329252864	48	6015
2026-01-05 19:55:19.58	31.59	11.79	-37.4	-38.3	23.6	0.00e+00	6	34	0	335544320	48	5960
2026-01-05 19:55:22.61	31.08	11.92	-37.6	-38.5	23.4	0.00e+00	92	33	0	340787200	48	6080
2026-01-05 19:55:25.64	30.55	12.04	-37.7	-38.7	23.3	0.00e+00	0	34	0	347078656	48	6189
2026-01-05 19:55:28.67	30.02	12.16	-37.8	-38.8	23.0	0.00e+00	0	33	0	352321536	48	6252
2026-01-05 19:55:31.69	29.49	12.28	-37.8	-38.8	23.2	0.00e+00	0	34	0	357564416	48	6265
2026-01-05 19:55:34.72	28.96	12.39	-38.1	-39.1	22.9	0.00e+00	0	34	0	363855872	48	6494
2026-01-05 19:55:37.75	28.42	12.51	-38.0	-39.0	23.1	0.00e+00	26	34	0	369098752	48	6419
2026-01-05 19:55:40.78	27.87	12.62	-37.9	-38.9	23.1	0.00e+00	0	34	0	375390208	48	6345
2026-01-05 19:55:43.81	27.32	12.73	-37.9	-38.8	23.1	0.00e+00	90	33	0	380633088	48	6306
2026-01-05 19:55:46.83	26.77	12.84	-37.8	-38.8	23.2	0.00e+00	0	34	0	386924544	48	6246
2026-01-05 19:55:49.86	26.21	12.95	-38.0	-38.9	23.1	0.00e+00	0	34	0	392167424	48	6346
2026-01-05 19:55:52.89	25.65	13.05	-37.6	-38.5	23.5	0.00e+00	92	34	0	397410304	48	6060
2026-01-05 19:55:55.92	25.09	13.15	-37.7	-38.6	23.4	0.00e+00	0	34	0	403701760	48	6142
2026-01-05 19:55:58.94	24.52	13.25	-37.7	-38.6	23.2	0.00e+00	57	34	0	408944640	48	6128
2026-01-05 19:56:01.97	23.95	13.35	-37.7	-38.6	23.4	0.00e+00	92	34	0	415236096	48	6145
2026-01-05 19:56:05.00	23.37	13.44	-37.5	-38.4	23.5	0.00e+00	31	34	0	420478976	48	6015
2026-01-05 19:56:08.02	22.79	13.53	-37.4	-38.3	23.7	0.00e+00	0	34	0	425721856	48	5919
2026-01-05 19:56:11.05	22.21	13.62	-37.5	-38.5	23.5	0.00e+00	0	34	0	432013312	48	6041
2026-01-05 19:56:14.08	21.62	13.71	-37.5	-38.4	23.6	0.00e+00	82	34	0	437256192	48	5990
2026-01-05 19:56:17.11	21.03	13.79	-37.5	-38.4	23.6	0.00e+00	56	34	0	443547648	48	5997
2026-01-05 19:56:20.13	20.43	13.87	-37.4	-38.3	23.7	0.00e+00	25	34	0	448790528	48	5926
2026-01-05 19:56:23.16	19.84	13.95	-37.6	-38.5	23.5	0.00e+00	92	34	0	454033408	48	6045
2026-01-05 19:56:26.19	19.24	14.03	-37.9	-38.9	23.1	0.00e+00	0	34	0	460324864	48	6329
2026-01-05 19:56:29.21	18.63	14.10	-37.7	-38.6	23.4	0.00e+00	24	34	0	465567744	48	6138
2026-01-05 19:56:32.24	18.03	14.17	-38.1	-39.0	23.0	0.00e+00	92	34	0	471859200	48	6445
2026-01-05 19:56:35.27	17.42	14.24	-38.1	-39.1	23.0	0.00e+00	0	34	0	477102080	48	6488
2026-01-05 19:56:38.29	16.81	14.30	-38.4	-39.4	22.8	0.00e+00	49	34	0	483393536	48	6710
2026-01-05 19:56:41.32	16.19	14.36	-38.5	-39.5	22.6	0.00e+00	91	34	0	488636416	48	6811
2026-01-05 19:56:44.35	15.57	14.42	-38.2	-39.2	22.9	0.00e+00	43	34	0	493879296	48	6584
2026-01-05 19:56:47.37	14.96	14.47	-38.1	-39.0	23.1	0.00e+00	25	34	0	500170752	48	6462
2026-01-05 19:56:50.40	14.34	14.52	-37.8	-38.7	23.3	0.00e+00	0	34	0	505413632	48	6213
2026-01-05 19:56:53.43	13.71	14.57	-37.6	-38.5	23.5	0.00e+00	37	34	0	511705088	48	6078
2026-01-05 19:56:56.45	13.09	14.61	-37.8	-38.7	23.4	0.00e+00	0	34	0	516947968	48	6206
2026-01-05 19:56:59.48	12.46	14.65	-37.7	-38.6	23.4	0.00e+00	0	34	0	522190848	48	6113
2026-01-05 19:57:02.51	11.83	14.69	-37.9	-38.9	23.2	0.00e+00	92	34	0	528482304	48	6331
2026-01-05 19:57:05.53	11.20	14.72	-38.2	-39.1	23.0	0.00e+00	5	34	0	533725184	48	6534
2026-01-05 19:57:08.56	10.57	14.76	-37.9	-38.8	23.3	0.00e+00	50	34	0	540016640	48	6282
2026-01-05 19:57:11.59	9.94	14.78	-37.9	-38.8	23.2	0.00e+00	92	34	0	545259520	48	6276
2026-01-05 19:57:14.62	9.30	14.81	-37.8	-38.8	23.2	0.00e+00	30	34	0	550502400	48	6260
2026-01-05 19:57:17.64	8.67	14.83	-37.8	-38.7	23.3	0.00e+00	6	34	0	556793856	48	6216
2026-01-05 19:57:20.67	8.03	14.84	-37.7	-38.7	23.4	0.00e+00	57	34	0	562036736	48	6176
2026-01-05 19:57:23.70	7.39	14.86	-37.9	-38.8	23.2	0.00e+00	0	34	0	568328192	48	6317
2026-01-05 19:57:26.73	6.76	14.86	-37.7	-38.6	23.4	0.00e+00	58	33	0	573571072	48	6118
2026-01-05 19:57:29.76	6.12	14.87	-38.0	-38.9	23.2	0.00e+00	24	34	0	579862528	48	6356
2026-01-05 19:57:32.78	5.48	14.87	-38.2	-39.1	23.0	0.00e+00	91	34	0	585105408	48	6534
2026-01-05 19:57:35.81	4.85	14.87	-37.6	-38.5	23.5	0.00e+00	0	34	0	590348288	48	6086
2026-01-05 19:57:38.84	4.21	14.87	-37.5	-38.4	23.4	0.00e+00	0	34	0	596639744	48	6028
2026-01-05 19:57:41.87	3.57	14.86	-37.7	-38.6	23.4	0.00e+00	92	34	0	601882624	48	6163
2026-01-05 19:57:44.90	2.93	14.85	-37.8	-38.7	23.3	0.00e+00	55	34	0	608174080	48	6226
2026-01-05 19:57:47.92	2.30	14.83	-38.0	-38.9	23.2	0.00e+00	0	34	0	613416960	48	6364
2026-01-05 19:57:50.95	1.66	14.81	-38.4	-39.4	22.8	0.00e+00	92	34	0	618659840	48	6704
2026-01-05 19:57:53.98	1.03	14.79	-38.2	-39.2	23.0	0.00e+00	0	34	0	624951296	48	6571
2026-01-05 19:57:57.01	0.40	14.76	-38.0	-39.0	23.1	0.00e+00	25	34	0	630194176	48	6419
2026-01-05 19:58:00.03	359.76	14.73	-38.4	-39.4	22.8	0.00e+00	28	34	0	636485632	48	6742
2026-01-05 19:58:03.06	359.13	14.70	-38.6	-39.6	22.6	0.00e+00	0	34	0	641728512	48	6896
2026-01-05 19:58:06.09	358.50	14.66	-38.8	-39.8	22.5	0.00e+00	0	34	0	648019968	50	6296
2026-01-05 19:58:09.12	357.88	14.62	-38.1	-39.1	23.1	0.00e+00	52	34	0	653262848	50	5786
2026-01-05 19:58:12.14	357.25	14.58	-38.1	-39.1	23.1	0.00e+00	92	34	0	658505728	50	5764
2026-01-05 19:58:15.17	356.63	14.53	-38.1	-39.0	23.1	0.00e+00	56	34	0	664797184	50	5723
2026-01-05 19:58:18.20	356.01	14.48	-38.0	-38.9	23.2	0.00e+00	0	34	0	670040064	50	5664
2026-01-05 19:58:21.23	355.39	14.43	-37.6	-38.5	23.5	0.00e+00	92	34	0	676331520	48	6058
2026-01-05 19:58:24.26	354.77	14.38	-37.6	-38.5	23.6	0.00e+00	0	34	0	681574400	48	6062
2026-01-05 19:58:27.29	354.15	14.32	-37.7	-38.7	23.3	0.00e+00	0	34	0	686817280	48	6175
2026-01-05 19:58:30.31	353.54	14.25	-37.6	-38.6	23.5	0.00e+00	92	34	0	693108736	48	6110
2026-01-05 19:58:33.34	352.93	14.19	-37.8	-38.7	23.3	0.00e+00	54	34	0	698351616	48	6218
2026-01-05 19:58:36.37	352.32	14.12	-38.1	-39.0	23.2	0.00e+00	33	34	0	704643072	48	6428
2026-01-05 19:58:39.40	351.72	14.05	-38.1	-39.1	23.0	0.00e+00	6	34	0	709885952	48	6482
2026-01-05 19:58:42.43	351.12	13.97	-38.1	-39.0	23.1	0.00e+00	61	34	0	716177408	48	6423
2026-01-05 19:58:45.46	350.52	13.90	-38.0	-39.0	23.1	0.00e+00	7	34	0	721420288	48	6411
2026-01-05 19:58:48.48	349.93	13.81	-38.1	-39.1	23.0	0.00e+00	0	34	0	726663168	48	6500
2026-01-05 19:58:51.51	349.34	13.73	-38.2	-39.1	23.0	0.00e+00	90	34	0	732954624	48	6531
2026-01-05 19:58:54.54	348.75	13.65	-38.2	-39.2	23.0	0.00e+00	33	34	0	738197504	48	6573
2026-01-05 19:58:57.56	348.16	13.56	-38.3	-39.3	22.8	0.00e+00	0	34	0	744488960	48	6634
2026-01-05 19:59:00.59	347.58	13.47	-37.8	-38.8	23.3	0.00e+00	92	34	0	749731840	48	6249
2026-01-05 19:59:03.62	347.01	13.37	-37.6	-38.5	23.5	0.00e+00	32	34	0	754974720	48	6092
2026-01-05 19:59:06.65	346.43	13.28	-37.7	-38.6	23.3	0.00e+00	6	34	0	761266176	48	6159
2026-01-05 19:59:09.67	345.86	13.18	-37.6	-38.6	23.1	0.00e+00	37	34	0	766509056	48	6125
2026-01-05 19:59:12.70	345.30	13.08	-37.7	-38.6	23.3	0.00e+00	0	34	0	772800512	48	6126
2026-01-05 19:59:15.73	344.74	12.97	-37.7	-38.7	23.3	0.00e+00	0	34	0	778043392	48	6194
2026-01-05 19:59:18.75	344.18	12.87	-37.9	-38.8	23.1	0.00e+00	25	34	0	783286272	48	6308
2026-01-05 19:59:21.78	343.62	12.76	-37.8	-38.8	23.2	0.00e+00	92	34	0	789577728	48	6264
2026-01-05 19:59:24.81	343.08	12.65	-37.7	-38.6	23.3	0.00e+00	33	34	0	794820608	48	6166
2026-01-05 19:59:27.84	342.53	12.54	-37.6	-38.5	23.4	0.00e+00	0	34	0	801112064	48	6103
2026-01-05 19:59:30.86	341.99	12.42	-37.8	-38.7	23.3	0.00e+00	92	34	0	806354944	48	6236
2026-01-05 19:59:33.89	341.45	12.31	-37.8	-38.7	23.2	0.00e+00	0	34	0	812646400	48	6239
2026-01-05 19:59:36.92	340.92	12.19	-37.8	-38.7	23.2	0.00e+00	0	34	0	817889280	48	6244
2026-01-05 19:59:39.95	340.39	12.07	-38.1	-39.0	23.0	0.00e+00	91	34	0	823132160	48	6440
2026-01-05 19:59:42.98	339.87	11.95	-38.4	-39.3	22.7	0.00e+00	29	34	0	829423616	48	6684
2026-01-05 19:59:46.01	339.35	11.83	-38.6	-39.7	22.3	0.00e+00	2	34	0	834666496	48	6942
2026-01-05 19:59:49.04	338.83	11.70	-38.7	-39.7	22.4	0.00e+00	4	34	0	840957952	48	6961
2026-01-05 19:59:52.07	338.32	11.57	-38.9	-40.0	22.1	0.00e+00	0	34	0	846200832	50	6430
2026-01-05 19:59:55.09	337.82	11.45	-39.0	-40.1	21.9	0.00e+00	0	34	0	851443712	50	6507
2026-01-05 19:59:58.12	337.31	11.32	-39.3	-40.4	21.7	0.00e+00	0	34	0	857735168	50	6717
2026-01-05 20:00:01.14	336.82	11.19	-39.7	-40.9	21.2	0.00e+00	92	34	0	862978048	50	7107
2026-01-05 20:00:04.17	336.33	11.05	-39.8	-41.0	21.2	0.00e+00	33	34	0	869269504	52	6429
2026-01-05 20:00:07.20	335.84	10.92	-39.9	-41.1	20.9	0.00e+00	2	34	0	874512384	52	6532
2026-01-05 20:00:10.23	335.35	10.79	-39.9	-41.2	21.0	0.00e+00	90	34	0	880803840	52	6541
2026-01-05 20:00:13.26	334.88	10.65	-40.3	-41.6	20.6	0.00e+00	2	34	0	886046720	52	6894
2026-01-05 20:00:16.29	334.40	10.51	-40.9	-42.3	20.0	0.00e+00	53	34	0	891289600	54	6658
2026-01-05 20:00:19.32	333.93	10.37	-40.8	-42.1	19.9	0.00e+00	0	34	0	897581056	54	6536
2026-01-05 20:00:22.34	333.47	10.23	-40.6	-41.9	20.2	0.00e+00	41	34	0	902823936	54	6370
2026-01-05 20:00:25.36	333.01	10.09	-40.9	-42.3	19.8	0.00e+00	31	34	0	909115392	54	6673
2026-01-05 20:00:28.39	332.55	9.95	-41.0	-42.4	19.7	0.00e+00	5	34	0	914358272	54	6756
2026-01-05 20:00:31.42	332.10	9.81	-40.9	-42.3	19.9	0.00e+00	93	34	0	919601152	54	6652
2026-01-05 20:00:34.45	331.65	9.67	-40.9	-42.3	19.9	0.00e+00	5	34	0	925892608	54	6617
2026-01-05 20:00:37.47	331.21	9.52	-40.8	-42.2	20.0	0.00e+00	0	34	0	931135488	54	6543
2026-01-05 20:00:40.50	330.77	9.38	-40.9	-42.3	19.8	0.00e+00	90	34	0	937426944	54	6643
2026-01-05 20:00:43.53	330.34	9.23	-41.0	-42.4	19.7	0.00e+00	42	34	0	942669824	54	6751
2026-01-05 20:00:46.56	329.91	9.09	-40.6	-42.0	20.2	0.00e+00	36	34	0	947912704	54	6397
2026-01-05 20:00:49.58	329.48	8.94	-40.4	-41.7	20.3	0.00e+00	57	34	0	954204160	54	6233
2026-01-05 20:00:52.61	329.06	8.79	-40.4	-41.7	20.4	0.00e+00	5	34	0	959447040	54	6195
2026-01-05 20:00:55.63	328.65	8.64	-40.2	-41.5	20.5	0.00e+00	7	34	0	965738496	54	6072
2026-01-05 20:00:58.66	328.23	8.50	-40.2	-41.5	20.5	0.00e+00	7	34	0	970981376	54	6062
2026-01-05 20:01:01.68	327.83	8.35	-40.1	-41.3	20.7	0.00e+00	47	34	0	977272832	54	5930
2026-01-05 20:01:04.71	327.42	8.20	-40.0	-41.2	20.8	0.00e+00	0	34	0	982515712	54	5859
2026-01-05 20:01:07.73	327.02	8.05	-39.8	-41.0	21.0	0.00e+00	47	34	0	987758592	52	6435
2026-01-05 20:01:10.76	326.63	7.90	-39.6	-40.7	21.2	0.00e+00	92	34	0	994050048	52	6243
2026-01-05 20:01:13.79	326.24	7.74	-39.2	-40.4	21.6	0.00e+00	29	34	0	999292928	52	5975
2026-01-05 20:01:16.82	325.85	7.59	-39.2	-40.4	21.6	0.00e+00	0	34	0	1005584384	52	5973
2026-01-05 20:01:19.85	325.47	7.44	-39.1	-40.3	21.6	0.00e+00	91	34	0	1010827264	52	5902
2026-01-05 20:01:22.87	325.09	7.29	-39.1	-40.2	21.7	0.00e+00	0	34	0	1016070144	52	5834
2026-01-05 20:01:25.90	324.71	7.14	-38.8	-39.9	22.0	0.00e+00	0	34	0	1022361600	52	5643
2026-01-05 20:01:28.93	324.34	6.98	-38.5	-39.5	22.2	0.00e+00	90	34	0	1027604480	50	6080
2026-01-05 20:01:31.96	323.98	6.83	-38.5	-39.6	22.1	0.00e+00	49	34	0	1033895936	50	6136
2026-01-05 20:01:34.98	323.62	6.68	-38.6	-39.7	22.0	0.00e+00	0	34	0	1039138816	50	6185
2026-01-05 20:01:38.01	323.26	6.53	-38.7	-39.8	21.8	0.00e+00	2	34	0	1044381696	50	6278
2026-01-05 20:01:41.04	322.90	6.37	-38.7	-39.7	22.0	0.00e+00	80	34	0	1050673152	50	6228
2026-01-05 20:01:44.06	322.55	6.22	-38.8	-39.8	21.9	0.00e+00	0	34	0	1055916032	50	6301
2026-01-05 20:01:47.10	322.20	6.07	-38.8	-39.9	21.9	0.00e+00	0	34	0	1062207488	50	6339
2026-01-05 20:01:50.12	321.86	5.91	-38.7	-39.8	21.8	0.00e+00	92	34	0	1067450368	50	6275
2026-01-05 20:01:53.14	321.52	5.76	-38.9	-40.0	21.7	0.00e+00	50	34	0	1073741824	50	6421
2026-01-05 20:01:56.17	321.18	5.60	-39.2	-40.3	21.4	0.00e+00	31	34	0	1078984704	50	6659
2026-01-05 20:01:59.20	320.85	5.45	-39.2	-40.3	21.4	0.00e+00	90	34	0	1084227584	50	6680
2026-01-05 20:02:02.23	320.52	5.30	-39.4	-40.6	21.1	0.00e+00	2	34	0	1090519040	50	6881
2026-01-05 20:02:05.26	320.20	5.14	-39.3	-40.4	21.2	0.00e+00	0	34	0	1095761920	50	6753
2026-01-05 20:02:08.29	319.87	4.99	-39.1	-40.3	21.3	0.00e+00	44	34	0	1102053376	50	6637
2026-01-05 20:02:11.31	319.56	4.84	-39.3	-40.5	21.1	0.00e+00	0	34	0	1107296256	50	6809
2026-01-05 20:02:14.34	319.24	4.68	-39.5	-40.7	20.9	0.00e+00	48	34	0	1112539136	50	6996
2026-01-05 20:02:17.37	318.93	4.53	-39.6	-40.8	20.7	0.00e+00	47	34	0	1118830592	50	7058
2026-01-05 20:02:20.40	318.62	4.38	-40.0	-41.3	20.3	0.00e+00	92	34	0	1124073472	52	6644
2026-01-05 20:02:23.42	318.32	4.22	-39.9	-41.2	20.4	0.00e+00	5	34	0	1130364928	52	6600
2026-01-05 20:02:26.45	318.01	4.07	-40.1	-41.4	20.2	0.00e+00	0	34	0	1135607808	52	6737
2026-01-05 20:02:29.48	317.71	3.92	-40.2	-41.6	19.9	0.00e+00	90	34	0	1141899264	52	6907
2026-01-05 20:02:32.51	317.42	3.76	-40.5	-41.9	19.5	0.00e+00	49	34	0	1147142144	52	7118
2026-01-05 20:02:35.54	317.13	3.61	-40.4	-41.8	19.6	0.00e+00	47	34	0	1152385024	52	7075
2026-01-05 20:02:38.57	316.84	3.46	-40.4	-41.9	19.6	0.00e+00	92	34	0	1158676480	52	7119
2026-01-05 20:02:41.60	316.55	3.30	-40.8	-42.4	19.0	0.00e+00	6	34	0	1163919360	54	6712
2026-01-05 20:02:44.62	316.27	3.15	-40.8	-42.4	19.0	0.00e+00	6	34	0	1170210816	54	6728
2026-01-05 20:02:47.65	315.99	3.00	-47.5	-62.7	3.6	8.18e-01	0	34	104	1175453696	60	49198
2026-01-05 20:02:50.67	315.71	2.85	-48.5	-63.7	3.6	1.51e+00	0	34	104	1175453696	60	55220
2026-01-05 20:02:53.70	315.44	2.70	-48.7	-63.9	3.6	1.51e+00	0	34	104	1175453696	60	56796
2026-01-05 20:02:56.73	315.17	2.55	-48.8	-63.9	3.6	1.51e+00	0	34	104	1175453696	60	56840
2026-01-05 20:02:59.76	314.90	2.39	-48.6	-63.8	3.6	1.51e+00	0	34	104	1175453696	60	55816
2026-01-05 20:03:02.79	314.63	2.24	-48.6	-63.8	3.6	1.51e+00	0	34	104	1175453696	60	56050
2026-01-05 20:03:05.82	314.37	2.09	-48.7	-63.8	3.6	1.51e+00	0	34	104	1175453696	60	56061
2026-01-05 20:03:08.85	314.11	1.94	-48.6	-63.8	3.6	1.51e+00	0	34	104	1175453696	60	55782
2026-01-05 20:03:11.88	313.85	1.79	-48.6	-63.8	3.6	1.51e+00	0	34	104	1175453696	60	55862
2026-01-05 20:03:14.91	313.60	1.64	-48.6	-63.8	3.6	1.51e+00	0	34	104	1175453696	60	56004
2026-01-05 20:03:17.94	313.35	1.49	-48.6	-63.8	3.6	1.51e+00	0	34	104	1175453696	60	56115
2026-01-05 20:03:20.97	313.10	1.34	-48.6	-63.8	3.6	1.51e+00	0	34	104	1175453696	60	55992
2026-01-05 20:03:24.00	312.85	1.19	-48.6	-63.8	3.6	1.51e+00	0	34	104	1175453696	60	55947
2026-01-05 20:03:27.03	312.61	1.04	-48.6	-63.8	3.5	1.51e+00	0	34	104	1175453696	60	56116
2026-01-05 20:03:30.06	312.37	0.89	-48.7	-63.8	3.6	1.51e+00	0	34	104	1175453696	60	56283
2026-01-05 20:03:33.09	312.13	0.75	-48.6	-63.8	3.6	1.51e+00	0	34	104	1175453696	60	55934
2026-01-05 20:03:36.11	311.89	0.60	-48.6	-63.8	3.6	1.51e+00	0	34	104	1175453696	60	55928
2026-01-05 20:03:39.14	311.66	0.45	-48.6	-63.8	3.6	1.51e+00	0	34	104	1175453696	60	55837
2026-01-05 20:03:42.17	311.43	0.30	-48.6	-63.8	3.6	1.51e+00	0	34	104	1175453696	60	56197
2026-01-05 20:03:45.20	311.20	0.16	-48.7	-63.8	3.6	1.51e+00	0	34	104	1175453696	60	56281
2026-01-05 20:03:48.23	310.97	0.01	-48.6	-63.8	3.6	1.51e+00	0	34	104	1175453696	60	55707

#Closed at: 2026-01-05 20:03:48
#Recorded file [1175 MB]: D:/lorett/data/35029_260106_075120.dat