passes_logs/2026/01/05/R4.6S_Anadyr/R4.6S_Anadyr__20260105_185925_FENGYUN_3E_rec.log

#Pass ID: 20260105_185925_FENGYUN 3E
#Satellite: FENGYUN 3E
#Configuration: FENGYUN 3E
#almurnet v.1.7.20251203
#Start time: 2026-01-05 18:59:26

#Version: 2.2.20231116
#Station: R4.6S_Anadyr
#Location: 177.4865 lon 64.73178 lat
#TLE: 1 49008U 21062A   26004.99925679  .00000018  00000+0  29282-4 0  9995
#TLE: 2 49008  98.7472  10.2448 0001540 159.6420 200.4818 14.19883565233423

#Time	Az	El	Level	Level2	SNR	BER	BlckErr	Temp	State	Recorded	gain1	gain2
2026-01-05 18:59:26.87	20.45	0.06	-48.7	-63.5	3.5	1.51e+00	0	31	0	0	60	54168
2026-01-05 18:59:30.90	20.47	0.30	-48.4	-59.7	3.6	8.44e-01	0	32	104	0	60	34773
2026-01-05 18:59:34.94	20.49	0.55	-48.4	-59.7	3.5	8.46e-01	0	32	104	0	60	34839
2026-01-05 18:59:38.98	20.51	0.79	-48.0	-59.2	3.6	8.46e-01	0	32	104	0	60	33053
2026-01-05 18:59:43.01	20.53	1.04	-47.0	-58.2	3.6	8.45e-01	0	32	104	0	60	29519
2026-01-05 18:59:47.05	20.55	1.29	-47.0	-58.0	3.6	8.44e-01	0	32	104	0	60	28615
2026-01-05 18:59:51.09	20.57	1.54	-47.0	-57.7	3.6	8.45e-01	0	32	104	0	60	27847
2026-01-05 18:59:55.13	20.59	1.80	-47.0	-58.1	3.6	8.47e-01	0	33	104	0	60	29191
2026-01-05 18:59:59.17	20.61	2.05	-47.0	-58.2	3.6	8.45e-01	0	33	104	0	60	29232
2026-01-05 19:00:03.21	20.63	2.31	-46.8	-56.5	3.6	8.44e-01	0	33	104	0	60	24107
2026-01-05 19:00:07.25	20.65	2.57	-46.5	-53.1	3.9	8.28e-01	0	33	0	0	60	16417
2026-01-05 19:00:11.29	20.67	2.84	-45.8	-50.3	6.0	5.24e-01	0	33	0	1048576	60	11797
2026-01-05 19:00:15.33	20.69	3.10	-41.6	-43.2	14.1	1.71e-05	0	33	0	29360128	58	5860
2026-01-05 19:00:19.37	20.71	3.37	-39.1	-40.1	17.0	0.00e+00	0	33	0	58720256	52	5824
2026-01-05 19:00:23.41	20.73	3.65	-41.7	-43.3	13.7	2.20e-06	0	33	0	88080384	54	7433
2026-01-05 19:00:27.45	20.75	3.92	-42.0	-43.7	11.2	0.00e+00	0	33	0	117440512	52	8817
2026-01-05 19:00:31.49	20.77	4.20	-34.7	-35.5	21.9	0.00e+00	0	33	0	127926272	42	6051
2026-01-05 19:00:35.53	20.79	4.48	-33.9	-34.6	22.7	0.00e+00	0	33	0	157286400	42	5491
2026-01-05 19:00:39.57	20.81	4.76	-34.0	-34.7	22.8	0.00e+00	0	33	0	186646528	40	6210
2026-01-05 19:00:43.61	20.83	5.05	-33.6	-34.3	23.1	0.00e+00	0	33	0	216006656	40	5949
2026-01-05 19:00:47.65	20.85	5.34	-33.8	-34.6	23.0	0.00e+00	0	33	0	245366784	40	6107
2026-01-05 19:00:51.69	20.87	5.63	-33.4	-34.1	23.4	0.00e+00	0	33	0	274726912	40	5771
2026-01-05 19:00:55.72	20.89	5.92	-33.8	-34.5	23.1	0.00e+00	0	33	0	303038464	40	6099
2026-01-05 19:00:59.76	20.91	6.22	-33.4	-34.1	23.4	0.00e+00	0	33	0	332398592	40	5823
2026-01-05 19:01:03.80	20.93	6.52	-33.5	-34.2	23.5	0.00e+00	0	33	0	361758720	40	5833
2026-01-05 19:01:07.83	20.95	6.83	-33.4	-34.1	23.6	0.00e+00	0	33	0	391118848	40	5767
2026-01-05 19:01:11.87	20.97	7.14	-33.0	-33.7	23.9	0.00e+00	0	33	0	419430400	40	5518
2026-01-05 19:01:15.91	20.99	7.45	-33.0	-33.6	24.0	0.00e+00	0	33	0	448790528	40	5490
2026-01-05 19:01:19.94	21.01	7.77	-32.9	-33.5	24.2	0.00e+00	0	33	0	478150656	38	6083
2026-01-05 19:01:23.98	21.03	8.09	-32.9	-33.5	24.0	0.00e+00	0	33	0	507510784	38	6092
2026-01-05 19:01:28.01	21.05	8.42	-32.7	-33.3	24.3	0.00e+00	0	33	0	535822336	38	5963
2026-01-05 19:01:32.05	21.07	8.75	-32.5	-33.1	24.6	0.00e+00	0	33	0	565182464	38	5810
2026-01-05 19:01:36.09	21.09	9.08	-32.2	-32.8	24.8	0.00e+00	0	33	0	594542592	38	5622
2026-01-05 19:01:40.13	21.11	9.42	-32.2	-32.8	24.9	0.00e+00	0	33	0	623902720	38	5608
2026-01-05 19:01:44.17	21.13	9.76	-32.2	-32.9	24.9	0.00e+00	0	33	0	653262848	38	5634
2026-01-05 19:01:48.20	21.16	10.11	-32.0	-32.6	25.2	0.00e+00	0	33	0	682622976	38	5475
2026-01-05 19:01:52.24	21.18	10.47	-32.0	-32.7	25.1	0.00e+00	0	33	0	710934528	38	5520
2026-01-05 19:01:56.28	21.20	10.82	-31.9	-32.5	25.3	0.00e+00	0	33	0	740294656	36	6088
2026-01-05 19:02:00.32	21.22	11.19	-31.9	-32.6	25.3	0.00e+00	0	33	0	769654784	36	6136
2026-01-05 19:02:04.36	21.24	11.56	-31.8	-32.4	25.4	0.00e+00	0	33	0	799014912	36	5999
2026-01-05 19:02:08.39	21.26	11.93	-31.6	-32.3	25.5	0.00e+00	0	33	0	828375040	36	5899
2026-01-05 19:02:12.43	21.28	12.31	-31.4	-32.1	25.6	0.00e+00	0	33	0	856686592	36	5763
2026-01-05 19:02:16.47	21.30	12.70	-31.2	-31.8	25.9	0.00e+00	0	33	0	886046720	36	5613
2026-01-05 19:02:20.50	21.33	13.09	-31.3	-31.9	25.9	0.00e+00	0	33	0	915406848	36	5663
2026-01-05 19:02:24.53	21.35	13.49	-31.0	-31.6	26.1	0.00e+00	0	33	0	944766976	36	5502
2026-01-05 19:02:28.57	21.37	13.90	-30.7	-31.3	26.4	0.00e+00	0	33	0	973078528	34	5943
2026-01-05 19:02:32.61	21.39	14.31	-30.6	-31.2	26.5	0.00e+00	0	33	0	1002438656	34	5894
2026-01-05 19:02:36.65	21.41	14.73	-30.4	-31.0	26.6	0.00e+00	0	33	0	1031798784	34	5755
2026-01-05 19:02:40.69	21.44	15.16	-30.6	-31.2	26.5	0.00e+00	0	33	0	1061158912	34	5852
2026-01-05 19:02:44.73	21.46	15.60	-30.6	-31.2	26.5	0.00e+00	0	34	0	1089470464	34	5886
2026-01-05 19:02:48.77	21.48	16.04	-30.6	-31.2	26.5	0.00e+00	0	33	0	1118830592	34	5869
2026-01-05 19:02:52.80	21.50	16.49	-30.6	-31.3	26.5	0.00e+00	0	34	0	1148190720	34	5897
2026-01-05 19:02:56.84	21.53	16.95	-30.6	-31.3	26.6	0.00e+00	0	33	0	1177550848	34	5906
2026-01-05 19:03:00.88	21.55	17.42	-30.4	-31.0	26.7	0.00e+00	0	33	0	1206910976	34	5739
2026-01-05 19:03:04.92	21.57	17.90	-30.3	-30.9	26.8	0.00e+00	0	34	0	1236271104	34	5659
2026-01-05 19:03:08.96	21.60	18.39	-30.0	-30.6	27.0	0.00e+00	0	34	0	1264582656	34	5466
2026-01-05 19:03:13.00	21.62	18.89	-29.9	-30.5	27.0	0.00e+00	0	33	0	1293942784	34	5439
2026-01-05 19:03:17.04	21.64	19.39	-30.0	-30.6	27.0	0.00e+00	0	33	0	1323302912	34	5444
2026-01-05 19:03:21.07	21.67	19.91	-29.9	-30.5	27.1	0.00e+00	0	33	0	1352663040	34	5421
2026-01-05 19:03:25.11	21.69	20.44	-29.6	-30.2	27.4	0.00e+00	0	33	0	1382023168	32	5863
2026-01-05 19:03:29.15	21.72	20.98	-29.4	-30.0	27.4	0.00e+00	0	34	0	1411383296	32	5747
2026-01-05 19:03:33.18	21.74	21.54	-29.4	-30.0	27.6	0.00e+00	0	33	0	1439694848	32	5723
2026-01-05 19:03:37.22	21.77	22.10	-29.4	-30.0	27.6	0.00e+00	0	33	0	1469054976	32	5737
2026-01-05 19:03:41.26	21.79	22.68	-29.3	-29.9	27.6	0.00e+00	0	33	0	1498415104	32	5676
2026-01-05 19:03:45.30	21.82	23.27	-29.3	-29.9	27.6	0.00e+00	0	34	0	1527775232	32	5667
2026-01-05 19:03:49.34	21.84	23.88	-29.2	-29.8	27.8	0.00e+00	0	33	0	1557135360	32	5585
2026-01-05 19:03:53.38	21.87	24.50	-29.1	-29.7	27.8	0.00e+00	0	33	0	1585446912	32	5535
2026-01-05 19:03:57.42	21.90	25.14	-29.2	-29.8	27.8	0.00e+00	0	33	0	1614807040	32	5603
2026-01-05 19:04:01.45	21.92	25.79	-29.2	-29.8	27.8	0.00e+00	0	34	0	1644167168	32	5616
2026-01-05 19:04:05.49	21.95	26.45	-28.9	-29.5	28.0	0.00e+00	0	34	0	1673527296	32	5435
2026-01-05 19:04:09.53	21.98	27.14	-28.7	-29.3	28.2	0.00e+00	0	34	0	1701838848	30	5938
2026-01-05 19:04:13.57	22.01	27.84	-28.8	-29.4	28.1	0.00e+00	0	34	0	1731198976	30	5981
2026-01-05 19:04:17.60	22.04	28.56	-28.9	-29.5	28.1	0.00e+00	0	34	0	1760559104	30	6096
2026-01-05 19:04:21.64	22.07	29.30	-28.9	-29.5	28.1	0.00e+00	0	34	0	1789919232	30	6047
2026-01-05 19:04:25.68	22.10	30.06	-28.7	-29.2	28.2	0.00e+00	0	34	0	1818230784	30	5894
2026-01-05 19:04:29.71	22.13	30.84	-28.7	-29.3	28.2	0.00e+00	0	34	0	1847590912	30	5920
2026-01-05 19:04:33.75	22.16	31.64	-28.7	-29.3	28.3	0.00e+00	0	34	0	1876951040	30	5904
2026-01-05 19:04:37.79	22.20	32.47	-28.4	-29.0	28.4	0.00e+00	0	34	0	1906311168	30	5703
2026-01-05 19:04:41.83	22.23	33.32	-28.5	-29.1	28.4	0.00e+00	0	34	0	1935671296	30	5784
2026-01-05 19:04:45.86	22.26	34.19	-28.6	-29.2	28.2	0.00e+00	0	34	0	1965031424	30	5892
2026-01-05 19:04:49.90	22.30	35.09	-29.0	-29.6	28.0	0.00e+00	0	34	0	1993342976	30	6110
2026-01-05 19:04:53.94	22.34	36.01	-28.5	-29.1	28.3	0.00e+00	0	33	0	2022703104	30	5815
2026-01-05 19:04:57.98	22.38	36.96	-28.4	-29.0	28.4	0.00e+00	0	34	0	2052063232	30	5701
2026-01-05 19:05:02.02	22.41	37.95	-28.5	-29.1	28.3	0.00e+00	0	34	0	2081423360	30	5789
2026-01-05 19:05:06.06	22.46	38.96	-29.0	-29.6	28.1	0.00e+00	0	34	0	2110783488	30	6111
2026-01-05 19:05:10.10	22.50	40.00	-29.3	-29.9	28.0	0.00e+00	0	34	0	2139095040	30	6323
2026-01-05 19:05:14.13	22.54	41.07	-28.9	-29.5	28.1	0.00e+00	0	34	0	2168455168	30	6077
2026-01-05 19:05:18.17	22.59	42.18	-28.9	-29.5	28.2	0.00e+00	0	34	0	2197815296	30	6051
2026-01-05 19:05:22.21	22.64	43.32	-29.0	-29.5	28.1	0.00e+00	0	34	0	2227175424	30	6095
2026-01-05 19:05:26.25	22.69	44.49	-28.8	-29.4	27.9	0.00e+00	0	34	0	2256535552	30	6003
2026-01-05 19:05:30.28	22.74	45.70	-29.4	-30.0	27.8	0.00e+00	0	34	0	2284847104	30	6413
2026-01-05 19:05:34.32	22.80	46.95	-29.5	-30.1	27.5	0.00e+00	0	34	0	2314207232	30	6528
2026-01-05 19:05:38.36	22.86	48.24	-29.7	-30.3	27.5	0.00e+00	0	34	0	2343567360	32	5921
2026-01-05 19:05:42.40	22.92	49.57	-30.2	-30.8	27.2	0.00e+00	0	34	0	2372927488	32	6275
2026-01-05 19:05:46.43	22.99	50.93	-30.5	-31.1	26.8	0.00e+00	0	34	0	2402287616	34	5783
2026-01-05 19:05:50.47	23.07	52.34	-29.9	-30.5	27.2	0.00e+00	0	34	0	2430599168	34	5409
2026-01-05 19:05:54.50	23.14	53.79	-30.1	-30.7	27.1	0.00e+00	0	34	0	2459959296	34	5547
2026-01-05 19:05:58.54	23.23	55.29	-30.0	-30.6	27.2	0.00e+00	0	34	0	2489319424	32	6121
2026-01-05 19:06:02.58	23.33	56.82	-30.5	-31.1	26.6	0.00e+00	0	34	0	2518679552	34	5813
2026-01-05 19:06:06.61	23.43	58.40	-30.5	-31.1	26.8	0.00e+00	0	34	0	2546991104	34	5796
2026-01-05 19:06:10.65	23.54	60.02	-30.0	-30.6	27.1	0.00e+00	0	34	0	2576351232	34	5480
2026-01-05 19:06:14.68	23.67	61.69	-29.9	-30.5	27.3	0.00e+00	0	34	0	2605711360	32	6051
2026-01-05 19:06:18.72	23.82	63.40	-29.4	-29.9	27.8	0.00e+00	0	34	0	2635071488	32	5660
2026-01-05 19:06:22.76	23.98	65.15	-28.4	-29.0	28.3	0.00e+00	0	34	0	2664431616	30	5727
2026-01-05 19:06:26.80	24.18	66.94	-28.6	-29.2	28.3	0.00e+00	0	34	0	2693791744	30	5836
2026-01-05 19:06:30.84	24.40	68.78	-29.1	-29.7	27.9	0.00e+00	0	34	0	2722103296	30	6235
2026-01-05 19:06:34.87	24.67	70.64	-28.9	-29.5	27.9	0.00e+00	0	34	0	2751463424	30	6067
2026-01-05 19:06:38.91	25.00	72.55	-29.1	-29.7	27.7	0.00e+00	0	34	0	2780823552	30	6193
2026-01-05 19:06:42.94	25.40	74.48	-28.6	-29.2	28.3	0.00e+00	0	33	0	2810183680	30	5890
2026-01-05 19:06:46.98	25.93	76.45	-28.1	-28.6	28.7	0.00e+00	0	34	0	2838495232	30	5502
2026-01-05 19:06:51.02	26.64	78.44	-27.5	-28.1	29.0	0.00e+00	0	34	0	2867855360	28	5811
2026-01-05 19:06:55.06	27.65	80.46	-27.2	-27.7	29.1	0.00e+00	0	34	0	2897215488	28	5565
2026-01-05 19:06:59.09	29.20	82.48	-27.1	-27.7	29.2	0.00e+00	0	34	0	2926575616	28	5529
2026-01-05 19:07:03.13	31.90	84.52	-27.4	-27.9	29.0	0.00e+00	0	34	0	2954887168	28	5687
2026-01-05 19:07:07.17	37.81	86.54	-27.9	-28.5	28.6	0.00e+00	0	34	0	2984247296	28	6068
2026-01-05 19:07:11.20	58.89	88.44	-29.1	-29.7	28.2	0.00e+00	0	34	0	3013607424	30	6203
2026-01-05 19:07:15.24	153.74	88.75	-29.9	-30.4	27.8	0.00e+00	0	34	0	3042967552	34	5373
2026-01-05 19:07:19.27	184.32	86.95	-28.9	-29.5	28.3	0.00e+00	0	34	0	3072327680	30	6053
2026-01-05 19:07:23.31	191.56	84.93	-28.3	-28.8	28.3	0.00e+00	0	34	0	3100639232	30	5630
2026-01-05 19:07:27.35	194.65	82.89	-26.9	-27.5	29.2	0.00e+00	0	34	0	3129999360	28	5411
2026-01-05 19:07:31.38	196.37	80.86	-27.2	-27.8	29.2	0.00e+00	0	34	0	3159359488	28	5593
2026-01-05 19:07:35.42	197.46	78.84	-27.3	-27.9	29.1	0.00e+00	0	34	0	3188719616	28	5666
2026-01-05 19:07:39.45	198.21	76.85	-27.6	-28.1	29.1	0.00e+00	0	34	0	3218079744	28	5822
2026-01-05 19:07:43.49	198.77	74.87	-29.0	-29.7	28.1	0.00e+00	0	34	0	3247439872	30	6179
2026-01-05 19:07:47.52	199.20	72.93	-29.1	-29.7	27.7	0.00e+00	0	34	0	3275751424	30	6179
2026-01-05 19:07:51.56	199.54	71.01	-28.9	-29.5	28.0	0.00e+00	0	34	0	3305111552	30	6103
2026-01-05 19:07:55.60	199.82	69.13	-28.9	-29.4	28.1	0.00e+00	0	34	0	3334471680	30	6029
2026-01-05 19:07:59.64	200.05	67.28	-28.2	-28.8	28.5	0.00e+00	0	34	0	3363831808	30	5604
2026-01-05 19:08:03.67	200.25	65.48	-28.6	-29.2	28.3	0.00e+00	0	34	0	3392143360	30	5878
2026-01-05 19:08:07.71	200.42	63.72	-29.2	-29.8	27.9	0.00e+00	0	34	0	3421503488	30	6281
2026-01-05 19:08:11.75	200.57	62.00	-29.3	-29.9	27.6	0.00e+00	0	34	0	3450863616	30	6383
2026-01-05 19:08:15.79	200.70	60.32	-30.2	-30.9	26.6	0.00e+00	0	34	0	3480223744	32	6325
2026-01-05 19:08:19.83	200.81	58.68	-30.3	-30.9	27.0	0.00e+00	0	34	0	3508535296	32	6338
2026-01-05 19:08:23.86	200.92	57.09	-31.0	-31.6	26.1	0.00e+00	0	34	0	3537895424	34	6157
2026-01-05 19:08:27.90	201.02	55.54	-30.1	-30.7	27.1	0.00e+00	0	34	0	3567255552	34	5553
2026-01-05 19:08:31.94	201.10	54.03	-29.8	-30.4	27.2	0.00e+00	0	34	0	3596615680	34	5362
2026-01-05 19:08:35.98	201.18	52.56	-30.1	-30.7	27.2	0.00e+00	0	34	0	3625975808	34	5547
2026-01-05 19:08:40.01	201.26	51.15	-29.9	-30.5	27.4	0.00e+00	0	34	0	3654287360	34	5412
2026-01-05 19:08:44.05	201.33	49.76	-30.2	-30.8	27.1	0.00e+00	0	34	0	3683647488	34	5626
2026-01-05 19:08:48.09	201.39	48.42	-30.1	-30.8	27.1	0.00e+00	0	34	0	3713007616	34	5569
2026-01-05 19:08:52.13	201.45	47.12	-29.1	-29.7	28.0	0.00e+00	0	34	0	3742367744	32	5514
2026-01-05 19:08:56.16	201.51	45.86	-29.2	-29.7	27.4	0.00e+00	0	34	0	3771727872	32	5565
2026-01-05 19:09:00.20	201.56	44.64	-29.2	-29.9	27.7	0.00e+00	0	34	0	3801088000	32	5643
2026-01-05 19:09:04.24	201.61	43.45	-28.9	-29.5	26.9	0.00e+00	0	34	0	3829399552	32	5396
2026-01-05 19:09:08.28	201.66	42.30	-28.9	-29.5	28.1	0.00e+00	0	34	0	3858759680	30	6039
2026-01-05 19:09:12.31	201.70	41.19	-28.6	-29.2	27.7	0.00e+00	0	34	0	3888119808	30	5875
2026-01-05 19:09:16.35	201.75	40.11	-28.7	-29.2	28.0	0.00e+00	0	34	0	3917479936	30	5883
2026-01-05 19:09:20.38	201.79	39.06	-28.8	-29.4	28.1	0.00e+00	0	34	0	3946840064	30	5988
2026-01-05 19:09:24.43	201.83	38.03	-29.0	-29.6	28.0	0.00e+00	0	34	0	3975151616	30	6159
2026-01-05 19:09:28.46	201.87	37.05	-28.8	-29.4	28.2	0.00e+00	0	34	0	4004511744	30	6000
2026-01-05 19:09:32.50	201.90	36.09	-28.7	-29.3	28.4	0.00e+00	0	34	0	4033871872	30	5904
2026-01-05 19:09:36.54	201.94	35.15	-28.4	-29.0	28.2	0.00e+00	0	34	0	4063232000	30	5736
2026-01-05 19:09:40.58	201.98	34.25	-28.3	-28.9	28.3	0.00e+00	0	34	0	4091543552	30	5643
2026-01-05 19:09:44.62	202.01	33.36	-28.5	-29.0	28.4	0.00e+00	0	34	0	4120903680	30	5747
2026-01-05 19:09:48.66	202.04	32.51	-28.4	-29.0	28.4	0.00e+00	0	34	0	4150263808	30	5733
2026-01-05 19:09:52.69	202.07	31.68	-28.2	-28.8	28.5	0.00e+00	0	34	0	4179623936	30	5580
2026-01-05 19:09:56.73	202.10	30.87	-28.1	-28.7	28.7	0.00e+00	0	34	0	4208984064	30	5503
2026-01-05 19:10:00.77	202.13	30.08	-28.1	-28.7	28.7	0.00e+00	0	34	0	4237295616	30	5538
2026-01-05 19:10:04.80	202.16	29.32	-28.5	-29.1	28.4	0.00e+00	0	34	0	4266655744	30	5780
2026-01-05 19:10:08.84	202.19	28.57	-28.8	-29.4	28.2	0.00e+00	0	34	0	4296015872	30	5983
2026-01-05 19:10:12.88	202.22	27.84	-28.9	-29.5	28.0	0.00e+00	0	34	0	4325376000	30	6083
2026-01-05 19:10:16.91	202.25	27.14	-29.0	-29.6	28.0	0.00e+00	0	34	0	4354736128	30	6120
2026-01-05 19:10:20.96	202.27	26.44	-29.1	-29.7	27.9	0.00e+00	0	34	0	4383047680	30	6187
2026-01-05 19:10:24.99	202.30	25.77	-29.1	-29.7	27.8	0.00e+00	0	34	0	4412407808	30	6235
2026-01-05 19:10:29.03	202.33	25.12	-29.3	-29.9	27.7	0.00e+00	0	34	0	4441767936	30	6352
2026-01-05 19:10:33.07	202.35	24.47	-29.3	-29.9	27.6	0.00e+00	0	34	0	4471128064	30	6382
2026-01-05 19:10:37.11	202.38	23.85	-29.3	-29.8	27.8	0.00e+00	0	34	0	4500488192	30	6315
2026-01-05 19:10:41.15	202.40	23.24	-29.2	-29.8	27.9	0.00e+00	0	34	0	4528799744	30	6278
2026-01-05 19:10:45.18	202.42	22.64	-29.2	-29.8	27.8	0.00e+00	0	34	0	4558159872	30	6307
2026-01-05 19:10:49.22	202.45	22.06	-29.2	-29.8	27.8	0.00e+00	0	34	0	4587520000	30	6310
2026-01-05 19:10:53.25	202.47	21.49	-29.4	-30.0	27.6	0.00e+00	0	34	0	4616880128	30	6459
2026-01-05 19:10:57.29	202.49	20.93	-29.5	-30.1	27.7	0.00e+00	0	34	0	4646240256	30	6478
2026-01-05 19:11:01.33	202.52	20.39	-29.4	-30.0	27.6	0.00e+00	0	34	0	4674551808	30	6446
2026-01-05 19:11:05.37	202.54	19.86	-29.6	-30.2	27.5	0.00e+00	0	34	0	4703911936	30	6545
2026-01-05 19:11:09.41	202.56	19.33	-29.6	-30.2	27.4	0.00e+00	0	34	0	4733272064	30	6551
2026-01-05 19:11:13.45	202.58	18.82	-29.6	-30.2	27.4	0.00e+00	0	34	0	4762632192	32	5880
2026-01-05 19:11:17.49	202.60	18.32	-29.8	-30.4	27.3	0.00e+00	0	34	0	4791992320	32	6014
2026-01-05 19:11:21.53	202.62	17.83	-29.9	-30.5	27.1	0.00e+00	0	34	0	4820303872	32	6041
2026-01-05 19:11:25.57	202.65	17.35	-30.0	-30.6	27.2	0.00e+00	0	34	0	4849664000	32	6128
2026-01-05 19:11:29.61	202.67	16.87	-30.1	-30.7	26.9	0.00e+00	0	34	0	4879024128	32	6195
2026-01-05 19:11:33.65	202.69	16.41	-30.2	-30.8	27.0	0.00e+00	0	34	0	4908384256	32	6285
2026-01-05 19:11:37.69	202.71	15.96	-30.3	-30.9	26.8	0.00e+00	0	34	0	4937744384	32	6375
2026-01-05 19:11:41.73	202.73	15.51	-30.7	-31.3	26.6	0.00e+00	0	34	0	4966055936	32	6683
2026-01-05 19:11:45.77	202.75	15.07	-30.7	-31.4	26.4	0.00e+00	0	34	0	4995416064	34	5981
2026-01-05 19:11:49.80	202.77	14.64	-31.0	-31.6	26.2	0.00e+00	0	34	0	5024776192	34	6141
2026-01-05 19:11:53.84	202.79	14.22	-31.2	-31.8	26.1	0.00e+00	0	34	0	5054136320	34	6287
2026-01-05 19:11:57.87	202.81	13.80	-31.4	-32.0	25.8	0.00e+00	0	34	0	5083496448	34	6426
2026-01-05 19:12:01.90	202.82	13.40	-31.5	-32.2	25.8	0.00e+00	0	34	0	5111808000	34	6553
2026-01-05 19:12:05.94	202.84	12.99	-31.8	-32.4	25.5	0.00e+00	0	34	0	5141168128	36	6015
2026-01-05 19:12:09.98	202.86	12.60	-32.0	-32.6	25.4	0.00e+00	0	34	0	5170528256	36	6167
2026-01-05 19:12:14.01	202.88	12.21	-32.0	-32.7	25.3	0.00e+00	0	34	0	5199888384	36	6187
2026-01-05 19:12:18.05	202.90	11.83	-32.2	-32.8	25.2	0.00e+00	0	34	0	5229248512	36	6288
2026-01-05 19:12:22.09	202.92	11.45	-32.3	-33.0	25.1	0.00e+00	0	34	0	5257560064	36	6422
2026-01-05 19:12:26.13	202.94	11.08	-32.3	-32.9	25.0	0.00e+00	0	34	0	5286920192	36	6347
2026-01-05 19:12:30.16	202.95	10.71	-32.4	-33.0	24.9	0.00e+00	0	34	0	5316280320	36	6435
2026-01-05 19:12:34.20	202.97	10.35	-32.4	-33.0	24.9	0.00e+00	0	34	0	5345640448	36	6423
2026-01-05 19:12:38.23	202.99	10.00	-32.4	-33.0	24.7	0.00e+00	0	34	0	5375000576	36	6436
2026-01-05 19:12:42.27	203.01	9.65	-32.5	-33.2	24.8	0.00e+00	0	34	0	5403312128	36	6540
2026-01-05 19:12:46.31	203.03	9.30	-32.6	-33.2	24.7	0.00e+00	0	34	0	5432672256	36	6596
2026-01-05 19:12:50.35	203.04	8.96	-32.5	-33.1	24.8	0.00e+00	0	34	0	5462032384	36	6515
2026-01-05 19:12:54.39	203.06	8.63	-32.7	-33.4	24.5	0.00e+00	0	34	0	5491392512	38	5969
2026-01-05 19:12:58.42	203.08	8.30	-32.8	-33.5	24.4	0.00e+00	0	34	0	5519704064	38	6048
2026-01-05 19:13:02.46	203.10	7.97	-32.8	-33.5	24.4	0.00e+00	0	34	0	5549064192	38	6054
2026-01-05 19:13:06.49	203.11	7.65	-32.8	-33.4	24.3	0.00e+00	0	34	0	5578424320	38	6021
2026-01-05 19:13:10.53	203.13	7.33	-32.9	-33.6	24.2	0.00e+00	0	34	0	5607784448	38	6112
2026-01-05 19:13:14.57	203.15	7.01	-33.0	-33.6	24.2	0.00e+00	0	34	0	5637144576	38	6152
2026-01-05 19:13:18.60	203.16	6.70	-33.1	-33.8	24.0	0.00e+00	0	34	0	5665456128	38	6255
2026-01-05 19:13:22.63	203.18	6.40	-33.1	-33.7	23.9	0.00e+00	0	34	0	5694816256	38	6224
2026-01-05 19:13:26.66	203.20	6.09	-33.4	-34.1	23.6	0.00e+00	0	34	0	5724176384	38	6488
2026-01-05 19:13:30.69	203.21	5.79	-33.2	-33.9	23.8	0.00e+00	0	34	0	5753536512	38	6334
2026-01-05 19:13:34.73	203.23	5.50	-33.4	-34.1	23.6	0.00e+00	0	34	0	5781848064	38	6492
2026-01-05 19:13:38.77	203.25	5.20	-33.6	-34.2	23.4	0.00e+00	0	34	0	5811208192	38	6612
2026-01-05 19:13:42.80	203.26	4.91	-34.0	-34.7	23.0	0.00e+00	0	34	0	5840568320	40	6196
2026-01-05 19:13:46.83	203.28	4.63	-33.9	-34.6	23.0	0.00e+00	0	34	0	5869928448	40	6121
2026-01-05 19:13:50.87	203.30	4.34	-33.9	-34.6	22.9	0.00e+00	0	34	0	5898240000	40	6128
2026-01-05 19:13:54.91	203.31	4.06	-34.5	-35.3	22.3	0.00e+00	0	34	0	5927600128	40	6641
2026-01-05 19:13:58.94	203.33	3.78	-34.7	-35.5	22.1	0.00e+00	0	34	0	5956960256	42	6058
2026-01-05 19:14:02.98	203.34	3.51	-34.7	-35.4	22.1	0.00e+00	0	34	0	5986320384	42	6011
2026-01-05 19:14:07.02	203.36	3.23	-34.6	-35.3	22.0	0.00e+00	0	34	0	6015680512	42	5932
2026-01-05 19:14:11.05	203.38	2.96	-47.7	-58.7	3.6	8.45e-01	0	34	104	6039797760	60	31165
2026-01-05 19:14:15.10	203.39	2.70	-48.3	-59.7	3.6	8.45e-01	0	34	104	6039797760	60	34988
2026-01-05 19:14:19.14	203.41	2.43	-48.3	-59.7	3.6	8.45e-01	0	34	104	6039797760	60	35024
2026-01-05 19:14:23.18	203.42	2.17	-48.3	-59.8	3.6	8.45e-01	0	34	104	6039797760	60	35304
2026-01-05 19:14:27.22	203.44	1.91	-48.6	-59.8	3.6	8.46e-01	0	34	104	6039797760	60	35388
2026-01-05 19:14:31.26	203.45	1.65	-48.5	-59.7	3.6	8.45e-01	0	34	104	6039797760	60	34976
2026-01-05 19:14:35.29	203.47	1.40	-48.5	-59.7	3.6	8.44e-01	0	34	104	6039797760	60	34920
2026-01-05 19:14:39.33	203.48	1.14	-48.5	-59.7	3.6	8.45e-01	0	34	104	6039797760	60	35034
2026-01-05 19:14:43.38	203.50	0.89	-48.5	-59.8	3.6	8.44e-01	0	34	104	6039797760	60	35124
2026-01-05 19:14:47.42	203.52	0.64	-48.5	-59.7	3.6	8.46e-01	0	34	104	6039797760	60	35023
2026-01-05 19:14:51.45	203.53	0.40	-48.5	-59.7	3.6	8.45e-01	0	34	104	6039797760	60	35075
2026-01-05 19:14:55.50	203.55	0.15	-48.6	-59.8	3.6	8.45e-01	0	34	104	6039797760	60	35407

#Closed at: 2026-01-05 19:14:58
#Recorded file [6039 MB]: D:/lorett/data/35029_260106_065926.dat