passes_logs/2026/01/05/R4.6S_Anadyr/R4.6S_Anadyr__20260105_145233_NOAA_20_JPSS-1_rec.log

#Pass ID: 20260105_145233_NOAA 20 (JPSS-1)
#Satellite: NOAA 20 (JPSS-1)
#Configuration: NOAA 20
#almurnet v.1.7.20251203
#Start time: 2026-01-05 14:52:36

#Version: 2.2.20231116
#Station: R4.6S_Anadyr
#Location: 177.4865 lon 64.73178 lat
#TLE: 1 43013U 17073A   26004.89819562  .00000113  00000+0  74278-4 0  9995
#TLE: 2 43013  98.7626 305.9448 0001841  53.9015 306.2332 14.19533229421309

#Time	Az	El	Level	Level2	SNR	BER	BlckErr	Temp	State	Recorded	gain1	gain2
2026-01-05 14:52:36.50	20.84	0.15	-48.5	-63.4	3.5	1.51e+00	0	27	0	0	60	53457
2026-01-05 14:52:40.54	20.84	0.40	-48.5	-63.7	3.6	1.51e+00	0	29	104	0	60	55186
2026-01-05 14:52:44.58	20.84	0.64	-48.5	-63.7	3.6	1.51e+00	0	29	104	0	60	55449
2026-01-05 14:52:48.62	20.84	0.89	-48.1	-63.3	3.6	1.51e+00	0	29	104	0	60	52706
2026-01-05 14:52:52.66	20.84	1.14	-47.2	-62.3	3.6	1.51e+00	0	29	104	0	60	47290
2026-01-05 14:52:56.70	20.84	1.39	-47.2	-62.3	3.6	1.51e+00	0	29	104	0	60	46966
2026-01-05 14:53:00.74	20.84	1.64	-47.2	-62.2	3.6	1.51e+00	0	29	104	0	60	46324
2026-01-05 14:53:04.78	20.84	1.90	-47.2	-62.3	3.6	1.51e+00	0	29	104	0	60	47338
2026-01-05 14:53:08.82	20.84	2.15	-47.2	-62.3	3.6	1.51e+00	0	29	104	0	60	46917
2026-01-05 14:53:12.86	20.83	2.41	-47.1	-61.5	3.6	1.51e+00	0	29	104	0	60	43184
2026-01-05 14:53:16.90	20.83	2.68	-47.1	-60.8	3.6	1.51e+00	0	29	104	0	60	39445
2026-01-05 14:53:20.94	20.83	2.94	-47.0	-58.9	4.0	1.46e+00	0	29	104	0	60	31701
2026-01-05 14:53:24.98	20.83	3.21	-45.8	-51.2	9.6	2.14e-02	0	29	0	6291456	60	13162
2026-01-05 14:53:29.02	20.82	3.48	-44.8	-48.7	12.4	8.31e-05	0	29	0	13631488	60	9786
2026-01-05 14:53:33.05	20.82	3.75	-45.8	-51.2	9.6	5.79e-03	0	29	0	22020096	60	13170
2026-01-05 14:53:37.09	20.81	4.03	-47.1	-61.7	3.6	1.48e+00	0	29	104	28311552	60	43862
2026-01-05 14:53:41.13	20.81	4.31	-41.7	-43.5	17.9	0.00e+00	0	29	0	28311552	56	6843
2026-01-05 14:53:45.17	20.80	4.59	-41.7	-43.4	18.1	0.00e+00	0	29	0	36700160	56	6742
2026-01-05 14:53:49.20	20.80	4.87	-41.8	-43.5	18.1	0.00e+00	0	30	0	44040192	56	6839
2026-01-05 14:53:53.24	20.79	5.16	-41.7	-43.5	18.1	0.00e+00	0	29	0	51380224	56	6803
2026-01-05 14:53:57.28	20.79	5.45	-41.5	-43.1	18.4	0.00e+00	0	30	0	58720256	56	6518
2026-01-05 14:54:01.32	20.78	5.74	-41.4	-43.1	18.7	0.00e+00	0	30	0	66060288	56	6494
2026-01-05 14:54:05.35	20.77	6.04	-41.2	-42.8	19.0	0.00e+00	0	30	0	74448896	56	6248
2026-01-05 14:54:09.40	20.76	6.34	-41.1	-42.6	19.2	0.00e+00	0	29	0	81788928	56	6126
2026-01-05 14:54:13.43	20.75	6.65	-41.0	-42.5	19.3	0.00e+00	0	30	0	89128960	56	6093
2026-01-05 14:54:17.47	20.74	6.95	-41.0	-42.5	19.4	0.00e+00	0	30	0	96468992	56	6076
2026-01-05 14:54:21.51	20.73	7.27	-40.8	-42.3	19.6	0.00e+00	0	30	0	103809024	56	5912
2026-01-05 14:54:25.55	20.72	7.58	-40.7	-42.1	19.7	0.00e+00	0	30	0	112197632	54	6527
2026-01-05 14:54:29.58	20.71	7.90	-40.5	-41.9	20.0	0.00e+00	0	29	0	119537664	54	6341
2026-01-05 14:54:33.62	20.70	8.22	-40.6	-42.0	19.9	0.00e+00	0	30	0	126877696	54	6428
2026-01-05 14:54:37.66	20.69	8.55	-40.4	-41.7	20.3	0.00e+00	0	30	0	134217728	54	6190
2026-01-05 14:54:41.69	20.68	8.88	-40.3	-41.6	20.3	0.00e+00	0	30	0	142606336	54	6170
2026-01-05 14:54:45.73	20.66	9.22	-40.3	-41.6	20.3	0.00e+00	0	30	0	149946368	54	6153
2026-01-05 14:54:49.77	20.65	9.56	-40.2	-41.4	20.6	0.00e+00	0	30	0	157286400	54	6017
2026-01-05 14:54:53.81	20.63	9.91	-39.9	-41.2	20.9	0.00e+00	0	30	0	164626432	54	5834
2026-01-05 14:54:57.85	20.62	10.26	-39.9	-41.1	20.9	0.00e+00	0	30	0	171966464	54	5783
2026-01-05 14:55:01.88	20.60	10.61	-39.9	-41.1	20.9	0.00e+00	0	30	0	180355072	52	6472
2026-01-05 14:55:05.91	20.58	10.97	-39.8	-40.9	21.1	0.00e+00	0	30	0	187695104	52	6380
2026-01-05 14:55:09.95	20.56	11.34	-39.5	-40.7	21.4	0.00e+00	0	30	0	195035136	52	6186
2026-01-05 14:55:13.99	20.54	11.71	-39.5	-40.6	21.5	0.00e+00	0	30	0	202375168	52	6126
2026-01-05 14:55:18.03	20.52	12.09	-39.4	-40.5	21.6	0.00e+00	0	30	0	210763776	52	6102
2026-01-05 14:55:22.06	20.50	12.47	-39.3	-40.4	21.7	0.00e+00	0	30	0	218103808	52	6020
2026-01-05 14:55:26.10	20.48	12.86	-39.2	-40.3	21.8	0.00e+00	0	30	0	225443840	52	5902
2026-01-05 14:55:30.14	20.46	13.26	-39.1	-40.2	22.0	0.00e+00	0	30	0	232783872	52	5851
2026-01-05 14:55:34.18	20.43	13.66	-38.9	-39.9	22.2	0.00e+00	0	30	0	240123904	52	5670
2026-01-05 14:55:38.22	20.41	14.07	-38.9	-39.9	22.2	0.00e+00	0	30	0	248512512	52	5693
2026-01-05 14:55:42.26	20.38	14.48	-38.7	-39.7	22.4	0.00e+00	0	30	0	255852544	50	6193
2026-01-05 14:55:46.29	20.35	14.91	-38.6	-39.6	22.4	0.00e+00	0	30	0	263192576	50	6165
2026-01-05 14:55:50.33	20.32	15.34	-38.5	-39.5	22.6	0.00e+00	0	30	0	270532608	50	6079
2026-01-05 14:55:54.36	20.29	15.77	-38.4	-39.4	22.8	0.00e+00	0	30	0	277872640	50	5995
2026-01-05 14:55:58.40	20.26	16.22	-38.2	-39.2	22.8	0.00e+00	0	30	0	286261248	50	5838
2026-01-05 14:56:02.44	20.22	16.68	-38.1	-39.1	23.1	0.00e+00	0	30	0	293601280	50	5778
2026-01-05 14:56:06.48	20.19	17.14	-38.0	-38.9	23.2	0.00e+00	0	30	0	300941312	50	5690
2026-01-05 14:56:10.51	20.15	17.61	-37.8	-38.8	23.4	0.00e+00	0	30	0	308281344	50	5568
2026-01-05 14:56:14.56	20.11	18.10	-37.7	-38.6	23.4	0.00e+00	0	30	0	316669952	48	6134
2026-01-05 14:56:18.59	20.07	18.59	-37.7	-38.6	23.5	0.00e+00	0	30	0	324009984	48	6153
2026-01-05 14:56:22.63	20.03	19.09	-37.7	-38.6	23.5	0.00e+00	0	30	0	331350016	48	6121
2026-01-05 14:56:26.66	19.99	19.60	-37.5	-38.4	23.7	0.00e+00	0	30	0	338690048	48	5999
2026-01-05 14:56:30.70	19.94	20.12	-37.6	-38.5	23.6	0.00e+00	0	30	0	346030080	48	6050
2026-01-05 14:56:34.74	19.89	20.66	-37.4	-38.3	23.8	0.00e+00	0	30	0	354418688	48	5901
2026-01-05 14:56:38.78	19.84	21.20	-37.4	-38.3	23.9	0.00e+00	0	30	0	361758720	48	5936
2026-01-05 14:56:42.82	19.79	21.76	-37.3	-38.2	23.9	0.00e+00	0	30	0	369098752	48	5831
2026-01-05 14:56:46.86	19.73	22.33	-37.4	-38.3	23.8	0.00e+00	0	30	0	376438784	48	5914
2026-01-05 14:56:50.90	19.67	22.91	-37.3	-38.1	24.0	0.00e+00	0	30	0	384827392	48	5818
2026-01-05 14:56:54.94	19.61	23.51	-37.1	-37.9	24.0	0.00e+00	0	30	0	392167424	48	5683
2026-01-05 14:56:58.98	19.54	24.12	-37.0	-37.9	24.2	0.00e+00	0	30	0	399507456	48	5645
2026-01-05 14:57:03.02	19.48	24.75	-37.1	-37.9	24.2	0.00e+00	0	30	0	406847488	48	5678
2026-01-05 14:57:07.06	19.40	25.39	-37.1	-38.0	24.2	0.00e+00	0	30	0	414187520	48	5704
2026-01-05 14:57:11.09	19.33	26.04	-37.3	-38.2	24.0	0.00e+00	0	30	0	422576128	48	5849
2026-01-05 14:57:15.13	19.25	26.71	-37.8	-38.7	23.5	0.00e+00	0	30	0	429916160	48	6203
2026-01-05 14:57:19.16	19.17	27.40	-38.0	-38.9	23.3	0.00e+00	0	30	0	437256192	48	6372
2026-01-05 14:57:23.19	19.08	28.11	-38.6	-39.6	22.6	0.00e+00	0	30	0	444596224	48	6896
2026-01-05 14:57:27.23	18.99	28.83	-39.2	-40.3	22.1	0.00e+00	0	30	0	452984832	50	6627
2026-01-05 14:57:31.27	18.89	29.58	-40.0	-41.1	21.2	0.00e+00	0	30	0	460324864	52	6535
2026-01-05 14:57:35.31	18.79	30.34	-40.8	-42.1	20.4	0.00e+00	0	30	0	467664896	54	6512
2026-01-05 14:57:39.35	18.68	31.13	-41.2	-42.6	20.0	0.00e+00	0	30	0	475004928	54	6851
2026-01-05 14:57:43.39	18.56	31.94	-41.4	-42.8	19.9	0.00e+00	0	30	0	482344960	54	7050
2026-01-05 14:57:47.43	18.44	32.77	-40.6	-41.9	20.7	0.00e+00	0	30	0	490733568	54	6351
2026-01-05 14:57:51.47	18.31	33.62	-39.4	-40.4	22.0	0.00e+00	0	30	0	498073600	52	6031
2026-01-05 14:57:55.50	18.17	34.50	-38.1	-39.0	23.3	0.00e+00	0	30	0	505413632	50	5702
2026-01-05 14:57:59.54	18.03	35.40	-37.5	-38.4	23.9	0.00e+00	0	30	0	512753664	48	5968
2026-01-05 14:58:03.58	17.87	36.33	-36.5	-37.3	24.7	0.00e+00	0	30	0	521142272	46	5959
2026-01-05 14:58:07.62	17.71	37.29	-36.1	-36.9	25.1	0.00e+00	0	30	0	528482304	46	5668
2026-01-05 14:58:11.65	17.53	38.27	-36.2	-37.0	24.9	0.00e+00	0	30	0	535822336	46	5717
2026-01-05 14:58:15.69	17.34	39.29	-36.7	-37.6	24.7	0.00e+00	0	30	0	543162368	46	6106
2026-01-05 14:58:19.73	17.14	40.33	-37.1	-38.0	24.2	0.00e+00	0	30	0	550502400	46	6403
2026-01-05 14:58:23.77	16.92	41.41	-37.2	-38.1	24.1	0.00e+00	0	30	0	558891008	46	6492
2026-01-05 14:58:27.80	16.69	42.51	-37.4	-38.3	24.1	0.00e+00	0	30	0	566231040	46	6630
2026-01-05 14:58:31.84	16.44	43.65	-37.7	-38.6	23.7	0.00e+00	0	30	0	573571072	46	6867
2026-01-05 14:58:35.88	16.17	44.83	-38.2	-39.1	23.2	0.00e+00	0	30	0	580911104	48	6479
2026-01-05 14:58:39.92	15.88	46.04	-39.9	-41.1	21.5	0.00e+00	0	30	0	589299712	52	6465
2026-01-05 14:58:43.96	15.56	47.29	-41.3	-42.7	19.9	0.00e+00	0	30	0	596639744	54	6942
2026-01-05 14:58:47.99	15.21	48.57	-40.1	-41.2	21.3	0.00e+00	0	30	0	603979776	54	5892
2026-01-05 14:58:52.03	14.84	49.89	-39.2	-40.2	22.2	0.00e+00	0	30	0	611319808	52	5878
2026-01-05 14:58:56.07	14.42	51.25	-37.0	-37.9	24.4	0.00e+00	0	30	0	618659840	48	5648
2026-01-05 14:59:00.10	13.97	52.65	-35.8	-36.6	25.4	0.00e+00	0	30	0	627048448	46	5483
2026-01-05 14:59:04.13	13.46	54.08	-36.0	-36.8	25.1	0.00e+00	0	30	0	634388480	44	6291
2026-01-05 14:59:08.17	12.90	55.55	-36.7	-37.5	24.6	0.00e+00	0	30	0	641728512	44	6826
2026-01-05 14:59:12.21	12.28	57.07	-39.6	-40.7	21.9	0.00e+00	0	30	0	649068544	50	6988
2026-01-05 14:59:16.24	11.58	58.62	-41.3	-42.7	19.8	0.00e+00	0	30	0	656408576	54	6958
2026-01-05 14:59:20.28	10.79	60.20	-39.3	-40.4	22.0	0.00e+00	0	30	0	664797184	52	5991
2026-01-05 14:59:24.32	9.90	61.83	-37.4	-38.3	24.0	0.00e+00	0	30	0	672137216	48	5920
2026-01-05 14:59:28.35	8.87	63.48	-36.4	-37.2	24.8	0.00e+00	0	30	0	679477248	46	5880
2026-01-05 14:59:32.39	7.69	65.17	-37.0	-37.8	23.9	0.00e+00	0	30	0	686817280	46	6291
2026-01-05 14:59:36.42	6.31	66.87	-38.2	-39.1	23.0	0.00e+00	0	30	0	695205888	48	6520
2026-01-05 14:59:40.46	4.67	68.61	-37.9	-38.8	23.4	0.00e+00	0	30	0	702545920	48	6261
2026-01-05 14:59:44.50	2.72	70.36	-37.5	-38.4	23.7	0.00e+00	0	30	0	709885952	48	5971
2026-01-05 14:59:48.54	0.36	72.11	-37.6	-38.5	23.8	0.00e+00	0	30	0	717225984	48	6055
2026-01-05 14:59:52.58	357.45	73.86	-38.6	-39.6	22.4	0.00e+00	0	30	0	724566016	48	6914
2026-01-05 14:59:56.61	353.81	75.57	-38.4	-39.4	23.0	0.00e+00	0	30	0	732954624	50	6015
2026-01-05 15:00:00.65	349.15	77.24	-39.7	-40.9	21.6	0.00e+00	0	30	0	740294656	52	6323
2026-01-05 15:00:04.69	343.08	78.82	-37.2	-38.0	24.1	0.00e+00	0	30	0	747634688	48	5734
2026-01-05 15:00:08.72	335.10	80.24	-36.2	-37.0	25.0	0.00e+00	0	30	0	754974720	46	5720
2026-01-05 15:00:12.76	324.58	81.43	-37.7	-38.5	23.7	0.00e+00	0	30	0	763363328	48	6087
2026-01-05 15:00:16.80	311.24	82.26	-40.8	-42.1	20.4	0.00e+00	0	30	0	770703360	54	6536
2026-01-05 15:00:20.84	295.75	82.58	-40.3	-41.5	20.9	0.00e+00	0	30	0	778043392	54	6082
2026-01-05 15:00:24.88	280.06	82.35	-40.0	-41.1	21.2	0.00e+00	0	30	0	785383424	54	5792
2026-01-05 15:00:28.91	266.29	81.61	-39.4	-40.5	21.8	0.00e+00	0	30	0	792723456	52	6103
2026-01-05 15:00:32.95	255.28	80.47	-37.2	-38.1	24.1	0.00e+00	0	30	0	801112064	48	5795
2026-01-05 15:00:36.98	246.90	79.08	-37.7	-38.6	23.6	0.00e+00	0	30	0	808452096	48	6109
2026-01-05 15:00:41.02	240.53	77.52	-40.5	-41.7	20.9	0.00e+00	0	30	0	815792128	52	6991
2026-01-05 15:00:45.06	235.65	75.86	-37.5	-38.4	23.7	0.00e+00	0	30	0	823132160	48	5975
2026-01-05 15:00:49.10	231.84	74.15	-38.2	-39.2	23.2	0.00e+00	0	30	0	831520768	50	5841
2026-01-05 15:00:53.14	228.82	72.40	-35.9	-36.7	25.3	0.00e+00	0	30	0	838860800	46	5525
2026-01-05 15:00:57.17	226.38	70.65	-35.9	-36.7	25.2	0.00e+00	0	30	0	846200832	44	6182
2026-01-05 15:01:01.21	224.36	68.90	-39.2	-40.2	22.2	0.00e+00	0	30	0	853540864	50	6567
2026-01-05 15:01:05.25	222.68	67.16	-40.7	-42.0	20.4	0.00e+00	0	30	0	860880896	52	7181
2026-01-05 15:01:09.29	221.26	65.44	-39.8	-40.9	21.5	0.00e+00	0	30	0	869269504	54	5660
2026-01-05 15:01:13.32	220.04	63.75	-35.6	-36.4	25.5	0.00e+00	0	30	0	876609536	44	5977
2026-01-05 15:01:17.37	218.99	62.08	-36.3	-37.1	24.6	0.00e+00	0	30	0	883949568	44	6504
2026-01-05 15:01:21.41	218.07	60.44	-37.1	-38.0	24.1	0.00e+00	0	30	0	891289600	46	6407
2026-01-05 15:01:25.45	217.26	58.85	-40.0	-41.2	21.2	0.00e+00	0	30	0	899678208	52	6597
2026-01-05 15:01:29.49	216.55	57.29	-39.4	-40.4	22.0	0.00e+00	0	30	0	907018240	52	6005
2026-01-05 15:01:33.52	215.91	55.77	-38.0	-38.9	23.4	0.00e+00	0	30	0	914358272	50	5676
2026-01-05 15:01:37.56	215.34	54.28	-35.2	-35.9	25.9	0.00e+00	0	30	0	921698304	44	5675
2026-01-05 15:01:41.60	214.83	52.83	-36.2	-37.0	25.0	0.00e+00	0	30	0	929038336	44	6457
2026-01-05 15:01:45.64	214.37	51.43	-36.8	-37.6	24.6	0.00e+00	0	30	0	937426944	44	6860
2026-01-05 15:01:49.67	213.94	50.06	-39.7	-40.8	21.6	0.00e+00	0	30	0	944766976	52	6302
2026-01-05 15:01:53.71	213.56	48.73	-40.6	-41.8	20.6	0.00e+00	0	30	0	952107008	54	6299
2026-01-05 15:01:57.75	213.21	47.43	-41.9	-43.4	19.3	0.00e+00	0	30	0	959447040	56	6746
2026-01-05 15:02:01.79	212.88	46.18	-40.5	-41.7	20.9	0.00e+00	0	30	0	967835648	54	6229
2026-01-05 15:02:05.82	212.59	44.96	-39.8	-40.9	21.4	0.00e+00	0	30	0	975175680	52	6356
2026-01-05 15:02:09.86	212.31	43.78	-40.9	-42.2	20.3	0.00e+00	0	30	0	982515712	54	6593
2026-01-05 15:02:13.90	212.06	42.63	-39.4	-40.5	22.0	0.00e+00	0	30	0	989855744	52	6044
2026-01-05 15:02:17.93	211.82	41.51	-39.6	-40.6	21.7	0.00e+00	0	30	0	997195776	52	6160
2026-01-05 15:02:21.98	211.60	40.43	-40.7	-41.9	20.7	0.00e+00	0	30	0	1005584384	54	6350
2026-01-05 15:02:26.01	211.39	39.38	-40.3	-41.5	21.0	0.00e+00	0	30	0	1012924416	54	6099
2026-01-05 15:02:30.05	211.20	38.35	-39.6	-40.7	21.7	0.00e+00	0	30	0	1020264448	52	6198
2026-01-05 15:02:34.08	211.02	37.36	-39.7	-40.9	21.5	0.00e+00	0	30	0	1027604480	52	6319
2026-01-05 15:02:38.12	210.85	36.40	-39.2	-40.3	22.2	0.00e+00	0	30	0	1035993088	52	5899
2026-01-05 15:02:42.16	210.70	35.46	-39.0	-40.0	22.5	0.00e+00	0	30	0	1043333120	52	5709
2026-01-05 15:02:46.20	210.55	34.55	-39.0	-40.0	22.4	0.00e+00	0	30	0	1050673152	52	5743
2026-01-05 15:02:50.24	210.41	33.67	-38.6	-39.5	22.9	0.00e+00	0	30	0	1058013184	50	6081
2026-01-05 15:02:54.27	210.28	32.81	-39.9	-41.1	21.5	0.00e+00	0	30	0	1065353216	52	6485
2026-01-05 15:02:58.31	210.15	31.97	-40.5	-41.7	20.8	0.00e+00	0	30	0	1073741824	52	6988
2026-01-05 15:03:02.35	210.03	31.16	-39.9	-41.0	21.5	0.00e+00	0	30	0	1081081856	52	6452
2026-01-05 15:03:06.39	209.92	30.37	-39.2	-40.3	22.2	0.00e+00	0	30	0	1088421888	52	5903
2026-01-05 15:03:10.42	209.82	29.60	-39.2	-40.2	22.3	0.00e+00	0	30	0	1095761920	52	5847
2026-01-05 15:03:14.46	209.72	28.85	-39.6	-40.6	21.8	0.00e+00	0	30	0	1103101952	52	6168
2026-01-05 15:03:18.49	209.62	28.12	-39.8	-40.9	21.6	0.00e+00	0	30	0	1111490560	52	6371
2026-01-05 15:03:22.53	209.53	27.41	-39.4	-40.5	22.0	0.00e+00	0	30	0	1118830592	52	6076
2026-01-05 15:03:26.57	209.45	26.71	-39.0	-40.1	22.3	0.00e+00	0	30	0	1126170624	52	5779
2026-01-05 15:03:30.61	209.36	26.04	-38.6	-39.5	22.8	0.00e+00	0	30	0	1133510656	50	6101
2026-01-05 15:03:34.65	209.29	25.38	-38.4	-39.4	23.0	0.00e+00	0	30	0	1141899264	50	5972
2026-01-05 15:03:38.69	209.21	24.73	-38.2	-39.1	23.0	0.00e+00	0	30	0	1149239296	50	5816
2026-01-05 15:03:42.72	209.14	24.10	-38.2	-39.2	23.1	0.00e+00	0	30	0	1156579328	50	5837
2026-01-05 15:03:46.76	209.08	23.49	-38.3	-39.3	22.9	0.00e+00	0	30	0	1163919360	50	5898
2026-01-05 15:03:50.79	209.01	22.89	-38.3	-39.3	23.0	0.00e+00	0	30	0	1171259392	50	5913
2026-01-05 15:03:54.83	208.95	22.30	-38.3	-39.3	23.0	0.00e+00	0	30	0	1179648000	50	5902
2026-01-05 15:03:58.87	208.89	21.73	-38.3	-39.2	23.0	0.00e+00	0	30	0	1186988032	50	5892
2026-01-05 15:04:02.91	208.84	21.17	-38.3	-39.3	23.0	0.00e+00	0	30	0	1194328064	50	5899
2026-01-05 15:04:06.94	208.78	20.62	-38.7	-39.7	22.6	0.00e+00	0	30	0	1201668096	50	6208
2026-01-05 15:04:10.98	208.73	20.08	-38.9	-39.9	22.4	0.00e+00	0	30	0	1210056704	50	6351
2026-01-05 15:04:15.02	208.68	19.56	-39.1	-40.1	22.2	0.00e+00	0	30	0	1217396736	50	6525
2026-01-05 15:04:19.06	208.63	19.04	-38.8	-39.8	22.5	0.00e+00	0	30	0	1224736768	50	6293
2026-01-05 15:04:23.10	208.59	18.54	-39.1	-40.1	22.2	0.00e+00	0	30	0	1232076800	50	6496
2026-01-05 15:04:27.13	208.55	18.05	-39.3	-40.4	21.9	0.00e+00	0	30	0	1239416832	50	6718
2026-01-05 15:04:31.17	208.51	17.56	-39.6	-40.7	21.6	0.00e+00	0	30	0	1247805440	50	6964
2026-01-05 15:04:35.21	208.47	17.09	-40.0	-41.1	21.3	0.00e+00	0	30	0	1255145472	52	6539
2026-01-05 15:04:39.25	208.43	16.62	-40.0	-41.2	21.2	0.00e+00	0	30	0	1262485504	52	6559
2026-01-05 15:04:43.28	208.39	16.16	-40.2	-41.4	20.9	0.00e+00	0	30	0	1269825536	52	6740
2026-01-05 15:04:47.32	208.36	15.71	-40.2	-41.4	20.9	0.00e+00	0	30	0	1278214144	52	6767
2026-01-05 15:04:51.36	208.32	15.27	-40.2	-41.4	21.0	0.00e+00	0	30	0	1285554176	52	6698
2026-01-05 15:04:55.40	208.29	14.84	-40.0	-41.2	21.1	0.00e+00	0	30	0	1292894208	52	6582
2026-01-05 15:04:59.44	208.26	14.41	-40.0	-41.2	21.2	0.00e+00	0	30	0	1300234240	52	6544
2026-01-05 15:05:03.48	208.23	14.00	-39.8	-41.0	21.3	0.00e+00	0	30	0	1307574272	52	6409
2026-01-05 15:05:07.52	208.20	13.58	-39.9	-41.0	21.3	0.00e+00	0	30	0	1315962880	52	6436
2026-01-05 15:05:11.56	208.17	13.18	-39.7	-40.8	21.5	0.00e+00	0	30	0	1323302912	52	6266
2026-01-05 15:05:15.60	208.15	12.78	-39.8	-41.0	21.3	0.00e+00	0	30	0	1330642944	52	6402
2026-01-05 15:05:19.64	208.12	12.39	-39.7	-40.8	21.4	0.00e+00	0	30	0	1337982976	52	6300
2026-01-05 15:05:23.67	208.10	12.01	-39.7	-40.9	21.3	0.00e+00	0	30	0	1346371584	52	6323
2026-01-05 15:05:27.71	208.07	11.63	-39.9	-41.0	21.2	0.00e+00	0	30	0	1353711616	52	6453
2026-01-05 15:05:31.75	208.05	11.25	-40.1	-41.3	20.9	0.00e+00	0	30	0	1361051648	52	6628
2026-01-05 15:05:35.79	208.03	10.89	-40.2	-41.4	20.8	0.00e+00	0	30	0	1368391680	52	6724
2026-01-05 15:05:39.82	208.01	10.52	-40.4	-41.6	20.5	0.00e+00	0	30	0	1375731712	52	6908
2026-01-05 15:05:43.86	207.99	10.17	-40.4	-41.7	20.5	0.00e+00	0	30	0	1384120320	52	6950
2026-01-05 15:05:47.90	207.97	9.82	-40.6	-41.9	20.2	0.00e+00	0	30	0	1391460352	54	6380
2026-01-05 15:05:51.94	207.95	9.47	-40.6	-42.0	20.1	0.00e+00	0	30	0	1398800384	54	6408
2026-01-05 15:05:55.97	207.93	9.13	-40.8	-42.2	20.0	0.00e+00	0	30	0	1406140416	54	6541
2026-01-05 15:06:00.01	207.92	8.79	-40.8	-42.2	19.9	0.00e+00	0	30	0	1413480448	54	6558
2026-01-05 15:06:04.05	207.90	8.46	-40.9	-42.3	19.7	0.00e+00	0	30	0	1421869056	54	6651
2026-01-05 15:06:08.09	207.89	8.13	-40.7	-42.1	19.8	0.00e+00	0	30	0	1429209088	54	6467
2026-01-05 15:06:12.13	207.87	7.80	-40.7	-42.1	19.8	0.00e+00	0	30	0	1436549120	54	6466
2026-01-05 15:06:16.17	207.86	7.48	-40.7	-42.1	19.8	0.00e+00	0	30	0	1443889152	54	6510
2026-01-05 15:06:20.21	207.84	7.16	-41.1	-42.6	19.3	0.00e+00	0	30	0	1452277760	54	6897
2026-01-05 15:06:24.25	207.83	6.85	-40.7	-42.1	19.7	0.00e+00	0	30	0	1459617792	54	6468
2026-01-05 15:06:28.29	207.82	6.54	-40.7	-42.1	19.8	0.00e+00	0	30	0	1466957824	54	6479
2026-01-05 15:06:32.32	207.80	6.24	-40.7	-42.2	19.6	0.00e+00	0	30	0	1474297856	54	6542
2026-01-05 15:06:36.36	207.79	5.94	-40.7	-42.1	19.6	0.00e+00	0	30	0	1481637888	54	6512
2026-01-05 15:06:40.40	207.78	5.64	-40.6	-42.0	19.7	0.00e+00	0	30	0	1490026496	54	6428
2026-01-05 15:06:44.43	207.77	5.34	-40.6	-42.0	19.7	0.00e+00	0	30	0	1497366528	54	6396
2026-01-05 15:06:48.47	207.76	5.05	-40.9	-42.4	19.3	0.00e+00	0	30	0	1504706560	54	6724
2026-01-05 15:06:52.50	207.75	4.76	-40.9	-42.3	19.2	0.00e+00	0	30	0	1512046592	54	6692
2026-01-05 15:06:56.54	207.74	4.48	-41.2	-42.7	18.9	0.00e+00	0	30	0	1520435200	54	7007
2026-01-05 15:07:00.58	207.73	4.20	-41.1	-42.7	18.9	0.00e+00	0	30	0	1527775232	54	6929
2026-01-05 15:07:04.62	207.72	3.92	-40.8	-42.3	19.2	0.00e+00	0	30	0	1535115264	54	6637
2026-01-05 15:07:08.66	207.72	3.64	-41.1	-42.7	18.7	0.00e+00	0	30	0	1542455296	54	6962
2026-01-05 15:07:12.70	207.71	3.37	-41.0	-42.6	18.7	0.00e+00	0	30	0	1549795328	54	6883
2026-01-05 15:07:16.74	207.70	3.10	-41.7	-43.6	17.8	0.00e+00	0	30	0	1558183936	56	6851
2026-01-05 15:07:20.78	207.69	2.83	-48.2	-63.4	3.6	1.51e+00	0	31	104	1561329664	60	53436
2026-01-05 15:07:24.81	207.69	2.56	-48.6	-63.8	3.6	1.51e+00	0	31	104	1561329664	60	56145
2026-01-05 15:07:28.85	207.68	2.30	-48.2	-63.8	3.6	1.51e+00	0	30	104	1561329664	60	55732
2026-01-05 15:07:32.89	207.67	2.04	-48.4	-63.7	3.6	1.51e+00	0	31	104	1561329664	60	55092
2026-01-05 15:07:36.93	207.67	1.78	-48.5	-63.7	3.6	1.51e+00	0	31	104	1561329664	60	55124
2026-01-05 15:07:40.97	207.66	1.52	-48.5	-63.7	3.6	1.51e+00	0	31	104	1561329664	60	55082
2026-01-05 15:07:45.01	207.66	1.27	-48.5	-63.7	3.6	1.51e+00	0	30	104	1561329664	60	55130
2026-01-05 15:07:49.05	207.65	1.02	-48.5	-63.7	3.6	1.51e+00	0	31	104	1561329664	60	55417
2026-01-05 15:07:53.09	207.65	0.77	-48.5	-63.7	3.6	1.51e+00	0	31	104	1561329664	60	55376
2026-01-05 15:07:57.13	207.64	0.52	-48.5	-63.7	3.6	1.51e+00	0	31	104	1561329664	60	55264
2026-01-05 15:08:01.17	207.64	0.27	-48.5	-63.7	3.6	1.51e+00	0	31	104	1561329664	60	55326
2026-01-05 15:08:05.21	207.64	0.03	-48.5	-63.7	3.6	1.51e+00	0	31	104	1561329664	60	55124

#Closed at: 2026-01-05 15:08:06
#Recorded file [1561 MB]: D:/lorett/data/35029_260106_025236.dat