passes_logs/2026/01/05/R4.6S_Anadyr/R4.6S_Anadyr__20260105_051352_FENGYUN_3E_rec.log

#Pass ID: 20260105_051352_FENGYUN 3E
#Satellite: FENGYUN 3E
#Configuration: FENGYUN 3E
#almurnet v.1.7.20251203
#Start time: 2026-01-05 05:13:55

#Version: 2.2.20231116
#Station: R4.6S_Anadyr
#Location: 177.4865 lon 64.73178 lat
#TLE: 1 49008U 21062A   26004.99925679  .00000018  00000+0  29282-4 0  9995
#TLE: 2 49008  98.7472  10.2448 0001540 159.6420 200.4818 14.19883565233423

#Time	Az	El	Level	Level2	SNR	BER	BlckErr	Temp	State	Recorded	gain1	gain2
2026-01-05 05:13:55.63	174.82	0.21	-49.4	-59.3	3.3	8.40e-01	0	24	0	0	60	33270
2026-01-05 05:13:59.67	174.92	0.45	-48.4	-60.1	3.6	8.45e-01	0	25	104	0	60	36454
2026-01-05 05:14:03.70	175.03	0.69	-47.7	-59.8	3.6	8.45e-01	0	25	104	0	60	35334
2026-01-05 05:14:07.74	175.13	0.94	-47.6	-59.2	3.6	8.45e-01	0	25	104	0	60	32859
2026-01-05 05:14:11.78	175.24	1.18	-46.8	-58.2	3.6	8.46e-01	0	25	104	0	60	29498
2026-01-05 05:14:15.82	175.35	1.43	-47.6	-59.1	3.6	8.46e-01	0	25	104	0	60	32464
2026-01-05 05:14:19.86	175.46	1.68	-47.0	-58.4	3.6	8.46e-01	0	25	104	0	60	30105
2026-01-05 05:14:23.89	175.58	1.93	-46.7	-58.1	3.6	8.46e-01	0	25	104	0	60	29138
2026-01-05 05:14:27.93	175.69	2.19	-46.7	-57.9	3.6	8.45e-01	0	25	104	0	60	28343
2026-01-05 05:14:31.97	175.81	2.45	-47.2	-58.5	3.6	8.44e-01	0	25	104	0	60	30270
2026-01-05 05:14:36.00	175.92	2.70	-46.6	-56.0	3.7	8.42e-01	0	25	104	0	60	22881
2026-01-05 05:14:40.04	176.04	2.97	-46.1	-52.7	5.1	8.18e-01	0	25	104	0	60	15664
2026-01-05 05:14:44.08	176.17	3.23	-40.2	-41.4	16.6	2.20e-06	0	25	0	26214400	54	5978
2026-01-05 05:14:48.12	176.29	3.50	-35.1	-35.8	21.8	0.00e+00	0	25	0	55574528	44	5586
2026-01-05 05:14:52.16	176.42	3.76	-39.9	-41.0	17.2	8.01e-05	0	25	0	84934656	56	5091
2026-01-05 05:14:56.20	176.54	4.04	-36.7	-37.5	20.8	0.00e+00	0	25	0	114294784	46	6055
2026-01-05 05:15:00.23	176.67	4.31	-36.6	-37.3	20.6	0.00e+00	0	25	0	142606336	46	5945
2026-01-05 05:15:04.27	176.81	4.59	-36.0	-36.7	20.7	0.00e+00	0	25	0	171966464	44	6234
2026-01-05 05:15:08.31	176.94	4.87	-35.3	-36.0	21.4	0.00e+00	0	25	0	201326592	44	5698
2026-01-05 05:15:12.35	177.08	5.15	-35.4	-36.1	21.3	0.00e+00	0	25	0	230686720	42	6473
2026-01-05 05:15:16.39	177.22	5.43	-35.3	-36.0	21.7	0.00e+00	0	25	0	258998272	44	5698
2026-01-05 05:15:20.43	177.36	5.72	-34.6	-35.2	22.2	0.00e+00	0	25	0	288358400	42	5860
2026-01-05 05:15:24.45	177.51	6.01	-34.7	-35.4	22.7	0.00e+00	0	25	0	317718528	42	5971
2026-01-05 05:15:28.49	177.65	6.31	-33.6	-34.2	23.9	0.00e+00	0	25	0	347078656	40	5859
2026-01-05 05:15:32.52	177.80	6.60	-33.0	-33.5	24.2	0.00e+00	0	25	0	375390208	40	5437
2026-01-05 05:15:36.55	177.95	6.91	-33.1	-33.7	24.1	0.00e+00	0	25	0	404750336	40	5522
2026-01-05 05:15:40.59	178.11	7.21	-33.1	-33.6	24.3	0.00e+00	0	26	0	434110464	38	6145
2026-01-05 05:15:44.63	178.27	7.52	-33.1	-33.6	24.2	0.00e+00	0	26	0	463470592	38	6161
2026-01-05 05:15:48.67	178.43	7.83	-33.0	-33.5	24.5	0.00e+00	0	25	0	492830720	38	6072
2026-01-05 05:15:52.70	178.60	8.14	-32.6	-33.2	24.9	0.00e+00	0	25	0	522190848	38	5830
2026-01-05 05:15:56.74	178.76	8.46	-32.8	-33.3	24.7	0.00e+00	0	25	0	550502400	38	5944
2026-01-05 05:16:00.78	178.94	8.79	-32.6	-33.1	24.8	0.00e+00	0	25	0	579862528	38	5795
2026-01-05 05:16:04.82	179.11	9.11	-31.9	-32.4	25.2	0.00e+00	0	26	0	609222656	38	5320
2026-01-05 05:16:08.86	179.29	9.45	-32.2	-32.7	25.2	0.00e+00	0	26	0	638582784	36	6228
2026-01-05 05:16:12.89	179.47	9.78	-31.9	-32.4	25.3	0.00e+00	0	26	0	667942912	36	5996
2026-01-05 05:16:16.94	179.66	10.12	-31.8	-32.3	25.2	0.00e+00	0	25	0	696254464	36	5948
2026-01-05 05:16:20.98	179.85	10.47	-32.0	-32.5	25.2	0.00e+00	0	26	0	725614592	36	6093
2026-01-05 05:16:25.01	180.05	10.81	-31.7	-32.2	25.5	0.00e+00	0	26	0	754974720	36	5871
2026-01-05 05:16:29.05	180.25	11.17	-31.9	-32.4	25.5	0.00e+00	0	26	0	784334848	36	5995
2026-01-05 05:16:33.09	180.45	11.53	-31.8	-32.3	25.4	0.00e+00	0	26	0	812646400	36	5937
2026-01-05 05:16:37.12	180.66	11.89	-31.8	-32.4	25.4	0.00e+00	0	26	0	842006528	36	5974
2026-01-05 05:16:41.15	180.87	12.26	-31.8	-32.3	25.3	0.00e+00	0	26	0	871366656	36	5959
2026-01-05 05:16:45.19	181.09	12.63	-31.2	-31.7	25.9	0.00e+00	0	26	0	900726784	36	5532
2026-01-05 05:16:49.23	181.32	13.01	-31.5	-32.0	25.7	0.00e+00	0	26	0	930086912	36	5755
2026-01-05 05:16:53.27	181.55	13.40	-31.2	-31.7	25.9	0.00e+00	0	26	0	958398464	36	5530
2026-01-05 05:16:57.31	181.78	13.79	-30.9	-31.4	26.3	0.00e+00	0	26	0	987758592	34	5966
2026-01-05 05:17:01.35	182.02	14.19	-31.0	-31.5	26.1	0.00e+00	0	26	0	1017118720	34	6086
2026-01-05 05:17:05.38	182.27	14.59	-30.8	-31.2	26.5	0.00e+00	0	26	0	1046478848	34	5896
2026-01-05 05:17:09.42	182.52	15.00	-30.8	-31.3	26.4	0.00e+00	0	26	0	1075838976	34	5919
2026-01-05 05:17:13.46	182.79	15.42	-30.6	-31.1	26.6	0.00e+00	0	26	0	1104150528	34	5812
2026-01-05 05:17:17.49	183.05	15.84	-30.4	-30.9	26.7	0.00e+00	0	26	0	1133510656	34	5639
2026-01-05 05:17:21.53	183.33	16.27	-31.0	-31.5	26.6	0.00e+00	0	25	0	1162870784	36	5393
2026-01-05 05:17:25.57	183.61	16.70	-31.2	-31.7	26.8	0.00e+00	0	26	0	1192230912	36	5534
2026-01-05 05:17:29.61	183.90	17.15	-31.1	-31.6	26.4	0.00e+00	0	26	0	1221591040	34	6132
2026-01-05 05:17:33.65	184.20	17.60	-31.2	-31.7	26.2	0.00e+00	0	26	0	1250951168	34	6220
2026-01-05 05:17:37.68	184.51	18.06	-31.5	-32.0	25.9	0.00e+00	0	26	0	1279262720	34	6401
2026-01-05 05:17:41.71	184.82	18.52	-31.4	-31.9	26.3	0.00e+00	0	26	0	1308622848	34	6336
2026-01-05 05:17:45.75	185.15	19.00	-30.9	-31.4	26.8	0.00e+00	0	26	0	1337982976	34	6012
2026-01-05 05:17:49.78	185.48	19.48	-31.4	-31.9	26.4	0.00e+00	0	26	0	1366294528	34	6374
2026-01-05 05:17:53.82	185.83	19.98	-29.7	-30.2	27.5	0.00e+00	0	26	0	1395654656	32	5874
2026-01-05 05:17:57.86	186.19	20.48	-29.8	-30.2	27.3	0.00e+00	0	26	0	1425014784	32	5890
2026-01-05 05:18:01.89	186.55	20.99	-29.5	-30.0	27.6	0.00e+00	0	26	0	1454374912	32	5702
2026-01-05 05:18:05.93	186.93	21.51	-29.3	-29.8	27.7	0.00e+00	0	26	0	1483735040	32	5598
2026-01-05 05:18:09.97	187.33	22.04	-29.2	-29.7	27.6	0.00e+00	0	26	0	1512046592	32	5531
2026-01-05 05:18:14.01	187.73	22.58	-29.4	-29.9	27.7	0.00e+00	0	26	0	1541406720	32	5638
2026-01-05 05:18:18.05	188.15	23.13	-29.4	-29.9	27.6	0.00e+00	0	26	0	1570766848	32	5671
2026-01-05 05:18:22.09	188.59	23.69	-29.4	-29.8	27.7	0.00e+00	0	26	0	1600126976	32	5622
2026-01-05 05:18:26.13	189.04	24.26	-29.8	-30.2	27.4	0.00e+00	0	26	0	1629487104	32	5876
2026-01-05 05:18:30.16	189.50	24.84	-29.6	-30.1	27.5	0.00e+00	0	26	0	1657798656	32	5816
2026-01-05 05:18:34.20	189.99	25.43	-29.5	-30.0	27.7	0.00e+00	0	26	0	1687158784	32	5744
2026-01-05 05:18:38.24	190.49	26.04	-29.3	-29.8	27.9	0.00e+00	0	26	0	1716518912	32	5614
2026-01-05 05:18:42.27	191.01	26.65	-28.9	-29.4	28.2	0.00e+00	0	26	0	1745879040	30	5984
2026-01-05 05:18:46.31	191.55	27.28	-29.3	-29.7	27.9	0.00e+00	0	26	0	1775239168	30	6222
2026-01-05 05:18:50.34	192.11	27.92	-29.0	-29.4	28.2	0.00e+00	0	26	0	1803550720	30	6026
2026-01-05 05:18:54.37	192.69	28.57	-28.6	-29.1	28.5	0.00e+00	0	26	0	1832910848	30	5802
2026-01-05 05:18:58.41	193.29	29.23	-28.3	-28.8	28.6	0.00e+00	0	26	0	1862270976	30	5590
2026-01-05 05:19:02.45	193.93	29.91	-28.4	-28.8	28.5	0.00e+00	0	26	0	1891631104	30	5614
2026-01-05 05:19:06.49	194.59	30.59	-28.7	-29.1	28.4	0.00e+00	0	26	0	1919942656	30	5813
2026-01-05 05:19:10.53	195.27	31.30	-28.9	-29.4	28.1	0.00e+00	0	26	0	1949302784	30	5986
2026-01-05 05:19:14.56	195.99	32.01	-28.8	-29.2	28.2	0.00e+00	0	26	0	1978662912	30	5891
2026-01-05 05:19:18.59	196.73	32.73	-28.7	-29.2	28.2	0.00e+00	0	26	0	2008023040	30	5830
2026-01-05 05:19:22.63	197.51	33.47	-28.8	-29.2	28.3	0.00e+00	0	26	0	2037383168	30	5878
2026-01-05 05:19:26.66	198.33	34.22	-29.0	-29.5	28.0	0.00e+00	0	26	0	2065694720	30	6068
2026-01-05 05:19:30.71	199.19	34.98	-28.8	-29.2	28.1	0.00e+00	0	26	0	2095054848	30	5875
2026-01-05 05:19:34.74	200.08	35.76	-28.5	-28.9	28.3	0.00e+00	0	26	0	2124414976	30	5688
2026-01-05 05:19:38.78	201.02	36.54	-29.1	-29.7	28.3	0.00e+00	0	26	0	2153775104	30	6188
2026-01-05 05:19:42.82	202.00	37.34	-28.7	-29.2	28.3	0.00e+00	0	26	0	2183135232	30	5852
2026-01-05 05:19:46.85	203.03	38.14	-29.4	-29.9	27.8	0.00e+00	0	26	0	2212495360	30	6322
2026-01-05 05:19:50.89	204.12	38.95	-29.4	-29.9	27.6	0.00e+00	0	26	0	2240806912	32	5670
2026-01-05 05:19:54.92	205.26	39.77	-29.3	-29.8	27.9	0.00e+00	0	26	0	2270167040	32	5572
2026-01-05 05:19:58.96	206.45	40.60	-29.2	-29.7	28.1	0.00e+00	0	26	0	2299527168	32	5510
2026-01-05 05:20:03.00	207.71	41.44	-29.4	-29.9	27.7	0.00e+00	0	26	0	2328887296	32	5680
2026-01-05 05:20:07.04	209.04	42.27	-29.2	-29.6	27.8	0.00e+00	0	26	0	2357198848	32	5502
2026-01-05 05:20:11.08	210.43	43.11	-29.2	-29.7	27.9	0.00e+00	0	26	0	2386558976	32	5520
2026-01-05 05:20:15.11	211.90	43.94	-28.8	-29.2	28.1	0.00e+00	0	26	0	2415919104	30	5886
2026-01-05 05:20:19.15	213.44	44.78	-29.2	-29.7	27.8	0.00e+00	0	26	0	2445279232	30	6206
2026-01-05 05:20:23.19	215.07	45.60	-29.4	-29.9	27.7	0.00e+00	0	26	0	2473590784	30	6362
2026-01-05 05:20:27.22	216.78	46.42	-29.4	-29.9	27.4	0.00e+00	0	26	0	2502950912	32	5657
2026-01-05 05:20:31.26	218.58	47.22	-29.2	-29.7	27.7	0.00e+00	0	26	0	2532311040	32	5514
2026-01-05 05:20:35.29	220.47	48.01	-29.7	-30.2	27.4	0.00e+00	0	26	0	2561671168	32	5837
2026-01-05 05:20:39.33	222.46	48.77	-29.7	-30.2	27.4	0.00e+00	0	26	0	2591031296	32	5849
2026-01-05 05:20:43.36	224.55	49.51	-30.1	-30.6	26.8	0.00e+00	0	26	0	2619342848	32	6135
2026-01-05 05:20:47.40	226.74	50.23	-30.0	-30.5	27.3	0.00e+00	0	26	0	2648702976	32	6064
2026-01-05 05:20:51.44	229.03	50.90	-30.4	-30.9	26.9	0.00e+00	0	26	0	2678063104	32	6343
2026-01-05 05:20:55.48	231.43	51.54	-30.3	-30.8	26.9	0.00e+00	0	26	0	2707423232	32	6259
2026-01-05 05:20:59.52	233.92	52.13	-30.4	-30.9	26.9	0.00e+00	0	26	0	2736783360	34	5670
2026-01-05 05:21:03.56	236.51	52.67	-30.4	-30.8	27.3	0.00e+00	0	26	0	2766143488	34	5615
2026-01-05 05:21:07.60	239.19	53.15	-31.3	-31.8	26.2	0.00e+00	0	26	0	2794455040	34	6279
2026-01-05 05:21:11.63	241.95	53.58	-30.8	-31.3	26.9	0.00e+00	0	26	0	2823815168	34	5897
2026-01-05 05:21:15.66	244.78	53.93	-30.9	-31.4	26.7	0.00e+00	0	26	0	2853175296	34	5972
2026-01-05 05:21:19.70	247.68	54.22	-30.4	-30.9	26.9	0.00e+00	0	26	0	2882535424	34	5647
2026-01-05 05:21:23.74	250.64	54.44	-30.8	-31.3	26.5	0.00e+00	0	26	0	2910846976	34	5928
2026-01-05 05:21:27.78	253.63	54.58	-30.8	-31.3	26.7	0.00e+00	0	26	0	2940207104	34	5934
2026-01-05 05:21:31.82	256.64	54.64	-30.6	-31.0	26.8	0.00e+00	0	26	0	2969567232	34	5750
2026-01-05 05:21:35.86	259.66	54.63	-30.6	-31.1	26.8	0.00e+00	0	26	0	2998927360	34	5774
2026-01-05 05:21:39.90	262.66	54.54	-30.3	-30.8	26.9	0.00e+00	0	26	0	3028287488	34	5591
2026-01-05 05:21:43.93	265.63	54.37	-30.5	-31.0	26.8	0.00e+00	0	26	0	3056599040	34	5739
2026-01-05 05:21:47.97	268.57	54.13	-30.1	-30.5	27.0	0.00e+00	0	26	0	3085959168	34	5428
2026-01-05 05:21:52.01	271.45	53.82	-30.7	-31.1	26.9	0.00e+00	0	26	0	3115319296	34	5825
2026-01-05 05:21:56.04	274.25	53.43	-31.0	-31.5	26.7	0.00e+00	0	26	0	3144679424	34	6061
2026-01-05 05:22:00.08	276.98	52.99	-30.7	-31.2	26.8	0.00e+00	0	26	0	3174039552	34	5852
2026-01-05 05:22:04.12	279.63	52.49	-31.1	-31.7	26.9	0.00e+00	0	26	0	3202351104	34	6175
2026-01-05 05:22:08.16	282.18	51.93	-31.5	-32.0	26.5	0.00e+00	0	26	0	3231711232	36	5758
2026-01-05 05:22:12.19	284.63	51.32	-30.6	-31.1	26.6	0.00e+00	0	26	0	3261071360	34	5816
2026-01-05 05:22:16.23	286.99	50.68	-30.5	-30.9	27.0	0.00e+00	0	26	0	3290431488	34	5679
2026-01-05 05:22:20.27	289.24	49.99	-30.6	-31.1	26.9	0.00e+00	0	26	0	3319791616	34	5805
2026-01-05 05:22:24.31	291.39	49.27	-30.6	-31.1	26.9	0.00e+00	0	26	0	3348103168	34	5814
2026-01-05 05:22:28.35	293.44	48.52	-30.8	-31.3	27.1	0.00e+00	0	26	0	3377463296	34	5918
2026-01-05 05:22:32.39	295.40	47.75	-31.2	-31.7	26.9	0.00e+00	0	26	0	3406823424	34	6180
2026-01-05 05:22:36.43	297.26	46.96	-30.7	-31.2	27.6	0.00e+00	0	26	0	3436183552	34	5841
2026-01-05 05:22:40.46	299.02	46.15	-30.6	-31.0	27.8	0.00e+00	0	26	0	3465543680	34	5729
2026-01-05 05:22:44.50	300.70	45.33	-30.9	-31.4	27.3	0.00e+00	0	26	0	3494903808	34	5977
2026-01-05 05:22:48.54	302.29	44.51	-29.5	-29.9	28.1	0.00e+00	0	26	0	3523215360	32	5682
2026-01-05 05:22:52.58	303.81	43.68	-30.1	-30.6	27.6	0.00e+00	0	26	0	3552575488	34	5466
2026-01-05 05:22:56.62	305.25	42.84	-32.0	-32.7	26.3	0.00e+00	0	26	0	3581935616	36	6176
2026-01-05 05:23:00.66	306.62	42.01	-29.8	-30.3	27.7	0.00e+00	0	26	0	3611295744	34	5280
2026-01-05 05:23:04.69	307.91	41.18	-29.4	-29.8	27.9	0.00e+00	0	26	0	3640655872	32	5630
2026-01-05 05:23:08.73	309.15	40.35	-30.0	-30.5	27.6	0.00e+00	0	26	0	3668967424	34	5412
2026-01-05 05:23:12.77	310.32	39.53	-29.6	-30.1	27.9	0.00e+00	0	26	0	3698327552	32	5801
2026-01-05 05:23:16.80	311.44	38.72	-29.3	-29.7	27.7	0.00e+00	0	26	0	3727687680	32	5557
2026-01-05 05:23:20.84	312.50	37.91	-28.9	-29.4	28.1	0.00e+00	0	26	0	3757047808	32	5343
2026-01-05 05:23:24.88	313.52	37.11	-29.3	-29.8	27.3	0.00e+00	0	26	0	3785359360	30	6299
2026-01-05 05:23:28.92	314.48	36.32	-29.0	-29.4	28.0	0.00e+00	0	26	0	3814719488	30	6006
2026-01-05 05:23:32.96	315.41	35.54	-29.1	-29.6	28.3	0.00e+00	0	26	0	3844079616	30	6140
2026-01-05 05:23:36.99	316.28	34.78	-31.6	-32.1	27.3	0.00e+00	0	26	0	3873439744	32	7275
2026-01-05 05:23:41.03	317.12	34.02	-30.6	-30.9	27.7	0.00e+00	0	26	0	3901751296	34	5695
2026-01-05 05:23:45.07	317.93	33.28	-29.7	-30.2	27.5	0.00e+00	0	26	0	3931111424	32	5865
2026-01-05 05:23:49.11	318.70	32.55	-28.6	-29.1	28.2	0.00e+00	0	26	0	3960471552	30	5804
2026-01-05 05:23:53.15	319.44	31.83	-29.8	-30.3	27.9	0.00e+00	0	26	0	3989831680	32	5911
2026-01-05 05:23:57.18	320.14	31.12	-29.9	-30.3	27.5	0.00e+00	0	26	0	4019191808	34	5314
2026-01-05 05:24:01.22	320.82	30.43	-31.1	-31.6	27.4	0.00e+00	0	26	0	4048551936	34	6106
2026-01-05 05:24:05.26	321.47	29.75	-30.0	-30.5	27.5	0.00e+00	0	26	0	4076863488	34	5417
2026-01-05 05:24:09.29	322.09	29.08	-29.9	-30.3	27.8	0.00e+00	0	26	0	4106223616	32	5932
2026-01-05 05:24:13.33	322.69	28.43	-30.0	-30.5	27.8	0.00e+00	0	26	0	4135583744	32	6057
2026-01-05 05:24:17.36	323.26	27.78	-30.4	-30.9	27.8	0.00e+00	0	26	0	4164943872	32	6318
2026-01-05 05:24:21.40	323.82	27.15	-30.0	-30.5	27.9	0.00e+00	0	26	0	4194304000	32	6073
2026-01-05 05:24:25.44	324.35	26.53	-30.3	-30.8	27.3	0.00e+00	0	26	0	4222615552	32	6250
2026-01-05 05:24:29.47	324.86	25.92	-30.5	-31.0	27.7	0.00e+00	0	26	0	4251975680	32	6399
2026-01-05 05:24:33.51	325.36	25.32	-30.3	-30.8	27.3	0.00e+00	0	26	0	4281335808	32	6275
2026-01-05 05:24:37.54	325.83	24.74	-30.1	-30.6	27.2	0.00e+00	0	26	0	4310695936	32	6112
2026-01-05 05:24:41.59	326.30	24.16	-29.7	-30.2	27.2	0.00e+00	0	26	0	4339007488	32	5854
2026-01-05 05:24:45.62	326.74	23.60	-29.9	-30.3	27.7	0.00e+00	0	26	0	4368367616	32	5939
2026-01-05 05:24:49.66	327.17	23.04	-29.4	-29.9	27.5	0.00e+00	0	26	0	4397727744	32	5645
2026-01-05 05:24:53.70	327.59	22.50	-30.1	-30.5	27.1	0.00e+00	0	26	0	4427087872	32	6091
2026-01-05 05:24:57.74	327.99	21.97	-29.7	-30.2	27.3	0.00e+00	0	26	0	4455399424	32	5856
2026-01-05 05:25:01.77	328.38	21.44	-29.8	-30.3	27.2	0.00e+00	0	26	0	4484759552	32	5909
2026-01-05 05:25:05.81	328.76	20.93	-30.0	-30.5	27.1	0.00e+00	0	26	0	4514119680	32	6040
2026-01-05 05:25:09.85	329.12	20.42	-30.0	-30.5	27.0	0.00e+00	0	26	0	4543479808	32	6060
2026-01-05 05:25:13.89	329.48	19.93	-30.1	-30.6	27.1	0.00e+00	0	26	0	4572839936	32	6152
2026-01-05 05:25:17.92	329.82	19.44	-30.1	-30.6	27.0	0.00e+00	0	26	0	4602200064	32	6111
2026-01-05 05:25:21.96	330.15	18.96	-30.0	-30.5	27.1	0.00e+00	0	26	0	4630511616	32	6053
2026-01-05 05:25:26.00	330.48	18.49	-30.4	-30.9	26.7	0.00e+00	0	26	0	4659871744	32	6323
2026-01-05 05:25:30.04	330.79	18.03	-30.3	-30.8	26.7	0.00e+00	0	26	0	4689231872	32	6301
2026-01-05 05:25:34.07	331.10	17.57	-30.5	-31.0	26.4	0.00e+00	0	26	0	4718592000	34	5744
2026-01-05 05:25:38.11	331.40	17.12	-30.6	-31.1	26.6	0.00e+00	0	26	0	4747952128	34	5795
2026-01-05 05:25:42.15	331.69	16.68	-30.9	-31.4	26.3	0.00e+00	0	26	0	4776263680	36	5336
2026-01-05 05:25:46.19	331.97	16.25	-31.0	-31.5	26.2	0.00e+00	0	26	0	4805623808	36	5387
2026-01-05 05:25:50.23	332.24	15.83	-31.6	-32.1	25.9	0.00e+00	0	26	0	4834983936	36	5806
2026-01-05 05:25:54.27	332.51	15.41	-31.5	-32.0	25.9	0.00e+00	0	26	0	4864344064	36	5703
2026-01-05 05:25:58.31	332.77	14.99	-31.2	-31.7	26.0	0.00e+00	0	26	0	4893704192	36	5510
2026-01-05 05:26:02.34	333.03	14.59	-31.6	-32.1	25.8	0.00e+00	0	26	0	4922015744	36	5792
2026-01-05 05:26:06.38	333.27	14.19	-31.7	-32.2	25.6	0.00e+00	0	26	0	4951375872	36	5890
2026-01-05 05:26:10.42	333.51	13.80	-32.1	-32.7	25.5	0.00e+00	0	26	0	4980736000	36	6186
2026-01-05 05:26:14.45	333.75	13.41	-31.7	-32.2	25.3	0.00e+00	0	26	0	5010096128	36	5896
2026-01-05 05:26:18.49	333.98	13.03	-32.7	-33.2	25.1	0.00e+00	0	26	0	5038407680	38	5880
2026-01-05 05:26:22.52	334.20	12.65	-32.2	-32.7	24.9	0.00e+00	0	26	0	5067767808	38	5533
2026-01-05 05:26:26.56	334.42	12.28	-32.0	-32.5	25.2	0.00e+00	0	26	0	5097127936	38	5386
2026-01-05 05:26:30.60	334.64	11.91	-32.3	-32.8	25.0	0.00e+00	0	26	0	5126488064	38	5574
2026-01-05 05:26:34.64	334.85	11.55	-32.2	-32.7	24.9	0.00e+00	0	26	0	5155848192	38	5538
2026-01-05 05:26:38.68	335.05	11.20	-32.4	-33.0	24.6	0.00e+00	0	26	0	5184159744	38	5709
2026-01-05 05:26:42.72	335.26	10.85	-32.8	-33.4	24.4	0.00e+00	0	26	0	5213519872	38	5970
2026-01-05 05:26:46.76	335.45	10.50	-33.8	-34.3	24.0	0.00e+00	0	26	0	5242880000	40	5927
2026-01-05 05:26:50.80	335.64	10.16	-32.9	-33.4	24.6	0.00e+00	0	26	0	5272240128	40	5364
2026-01-05 05:26:54.83	335.83	9.82	-32.9	-33.4	24.3	0.00e+00	0	26	0	5301600256	38	6033
2026-01-05 05:26:58.87	336.02	9.49	-33.5	-34.0	24.0	0.00e+00	0	26	0	5329911808	38	6443
2026-01-05 05:27:02.90	336.20	9.16	-33.5	-34.1	23.8	0.00e+00	0	26	0	5359271936	40	5774
2026-01-05 05:27:06.93	336.38	8.84	-33.1	-33.6	24.0	0.00e+00	0	26	0	5388632064	40	5480
2026-01-05 05:27:10.97	336.55	8.51	-33.5	-34.0	23.8	0.00e+00	0	26	0	5417992192	40	5738
2026-01-05 05:27:15.01	336.72	8.20	-33.6	-34.1	23.7	0.00e+00	0	26	0	5447352320	40	5812
2026-01-05 05:27:19.05	336.89	7.88	-33.7	-34.2	23.4	0.00e+00	0	26	0	5476712448	40	5895
2026-01-05 05:27:23.08	337.05	7.58	-33.7	-34.3	23.3	0.00e+00	0	26	0	5505024000	40	5908
2026-01-05 05:27:27.12	337.21	7.27	-34.2	-34.8	23.1	0.00e+00	0	26	0	5534384128	40	6246
2026-01-05 05:27:31.16	337.37	6.97	-33.6	-34.2	23.2	0.00e+00	0	26	0	5563744256	40	5868
2026-01-05 05:27:35.20	337.53	6.67	-33.6	-34.1	23.3	0.00e+00	0	26	0	5593104384	40	5824
2026-01-05 05:27:39.23	337.68	6.37	-33.7	-34.3	23.0	0.00e+00	0	26	0	5621415936	40	5921
2026-01-05 05:27:43.27	337.83	6.08	-34.2	-34.9	22.4	0.00e+00	0	26	0	5650776064	40	6320
2026-01-05 05:27:47.31	337.97	5.79	-33.9	-34.5	22.5	0.00e+00	0	26	0	5680136192	40	6035
2026-01-05 05:27:51.35	338.12	5.50	-35.5	-36.1	21.2	0.00e+00	0	26	0	5709496320	42	6512
2026-01-05 05:27:55.38	338.26	5.22	-36.2	-36.9	19.8	0.00e+00	0	26	0	5737807872	44	6383
2026-01-05 05:27:59.42	338.40	4.94	-37.4	-38.3	17.9	0.00e+00	0	26	0	5767168000	46	6670
2026-01-05 05:28:03.46	338.54	4.66	-38.8	-40.2	14.7	0.00e+00	0	26	0	5796528128	50	6573
2026-01-05 05:28:07.50	338.68	4.39	-41.2	-43.7	10.5	2.52e-03	0	26	0	5825888256	54	7792
2026-01-05 05:28:11.53	338.81	4.12	-42.5	-46.9	6.0	2.98e-01	0	26	0	5855248384	56	10098
2026-01-05 05:28:15.57	338.94	3.85	-43.3	-52.1	3.7	8.39e-01	0	26	104	5859442688	58	16285
2026-01-05 05:28:19.61	339.07	3.58	-43.3	-53.6	3.6	8.44e-01	0	26	104	5859442688	58	19478
2026-01-05 05:28:23.65	339.20	3.32	-43.9	-55.0	3.6	8.44e-01	0	26	104	5859442688	60	20396
2026-01-05 05:28:27.68	339.32	3.05	-43.7	-54.8	3.6	8.45e-01	0	26	104	5859442688	60	19959
2026-01-05 05:28:31.72	339.44	2.79	-48.1	-59.5	3.6	8.46e-01	0	26	104	5859442688	60	33931
2026-01-05 05:28:35.76	339.57	2.54	-48.6	-59.9	3.6	8.45e-01	0	26	104	5859442688	60	35693
2026-01-05 05:28:39.80	339.69	2.28	-48.5	-59.8	3.6	8.45e-01	0	26	104	5859442688	60	35371
2026-01-05 05:28:43.83	339.80	2.03	-48.6	-59.8	3.6	8.45e-01	0	26	104	5859442688	60	35380
2026-01-05 05:28:47.87	339.92	1.78	-49.1	-60.3	3.6	8.44e-01	0	26	104	5859442688	60	37487
2026-01-05 05:28:51.91	340.04	1.53	-49.0	-60.2	3.6	8.46e-01	0	26	104	5859442688	60	37102
2026-01-05 05:28:55.95	340.15	1.28	-49.4	-60.6	3.6	8.45e-01	0	26	104	5859442688	60	38643
2026-01-05 05:28:59.99	340.26	1.04	-49.3	-60.5	3.6	8.45e-01	0	26	104	5859442688	60	38506
2026-01-05 05:29:04.02	340.37	0.80	-48.8	-60.1	3.6	8.45e-01	0	26	104	5859442688	60	36502
2026-01-05 05:29:08.05	340.48	0.55	-49.3	-60.6	3.6	8.46e-01	0	26	104	5859442688	60	38591
2026-01-05 05:29:12.08	340.59	0.32	-49.7	-61.0	3.6	8.44e-01	0	26	104	5859442688	60	40536
2026-01-05 05:29:16.12	340.69	0.08	-49.2	-60.5	3.6	8.45e-01	0	26	104	5859442688	60	38072

#Closed at: 2026-01-05 05:29:18
#Recorded file [5859 MB]: D:/lorett/data/35029_260105_171355.dat