passes_logs/2026/01/05/R4.6S_Anadyr/R4.6S_Anadyr__20260105_131206_NOAA_20_JPSS-1_rec.log

#Pass ID: 20260105_131206_NOAA 20 (JPSS-1)
#Satellite: NOAA 20 (JPSS-1)
#Configuration: NOAA 20
#almurnet v.1.7.20251203
#Start time: 2026-01-05 13:12:06

#Version: 2.2.20231116
#Station: R4.6S_Anadyr
#Location: 177.4865 lon 64.73178 lat
#TLE: 1 43013U 17073A   26004.89819562  .00000113  00000+0  74278-4 0  9995
#TLE: 2 43013  98.7626 305.9448 0001841  53.9015 306.2332 14.19533229421309

#Time	Az	El	Level	Level2	SNR	BER	BlckErr	Temp	State	Recorded	gain1	gain2
2026-01-05 13:12:06.96	18.76	0.04	-48.5	-63.4	3.5	1.51e+00	0	23	0	0	60	53182
2026-01-05 13:12:10.99	18.96	0.26	-48.5	-63.6	3.6	1.51e+00	0	24	104	0	60	54861
2026-01-05 13:12:15.03	19.16	0.48	-48.4	-63.6	3.6	1.51e+00	0	24	104	0	60	54617
2026-01-05 13:12:19.07	19.37	0.71	-48.0	-63.2	3.6	1.51e+00	0	24	104	0	60	51978
2026-01-05 13:12:23.10	19.58	0.94	-47.0	-62.1	3.6	1.51e+00	0	24	104	0	60	46203
2026-01-05 13:12:27.14	19.79	1.16	-47.0	-62.1	3.6	1.51e+00	0	24	104	0	60	46046
2026-01-05 13:12:31.18	20.00	1.39	-47.0	-62.1	3.6	1.51e+00	0	25	104	0	60	46143
2026-01-05 13:12:35.21	20.22	1.63	-47.0	-62.0	3.6	1.51e+00	0	25	104	0	60	45619
2026-01-05 13:12:39.25	20.44	1.86	-47.0	-62.1	3.6	1.51e+00	0	25	104	0	60	46228
2026-01-05 13:12:43.28	20.67	2.09	-47.0	-62.1	3.6	1.51e+00	0	25	104	0	60	46154
2026-01-05 13:12:47.32	20.89	2.33	-46.9	-61.2	3.6	1.51e+00	0	25	104	0	60	41534
2026-01-05 13:12:51.36	21.13	2.57	-46.8	-59.4	3.6	1.51e+00	0	25	104	0	60	33838
2026-01-05 13:12:55.39	21.36	2.81	-43.8	-46.9	14.2	1.37e-05	5	25	0	5242880	60	7972
2026-01-05 13:12:59.43	21.60	3.05	-41.5	-43.4	17.7	0.00e+00	3	25	0	12582912	56	6741
2026-01-05 13:13:03.47	21.84	3.29	-44.4	-48.1	12.8	1.29e-05	0	25	0	19922944	60	9208
2026-01-05 13:13:07.50	22.08	3.54	-44.3	-48.0	7.6	0.00e+00	92	25	0	27262976	56	11381
2026-01-05 13:13:11.54	22.33	3.78	-43.3	-45.9	15.5	7.00e-07	22	25	0	30408704	60	7096
2026-01-05 13:13:15.58	22.59	4.03	-41.5	-43.2	18.2	0.00e+00	71	25	0	37748736	56	6592
2026-01-05 13:13:19.61	22.84	4.28	-41.4	-43.1	18.5	0.00e+00	0	25	0	46137344	56	6481
2026-01-05 13:13:23.65	23.11	4.54	-40.9	-42.5	19.0	0.00e+00	91	25	0	53477376	56	6049
2026-01-05 13:13:27.69	23.37	4.79	-40.7	-42.2	19.3	0.00e+00	23	25	0	60817408	54	6584
2026-01-05 13:13:31.72	23.64	5.05	-40.3	-41.7	19.7	0.00e+00	17	25	0	68157440	54	6204
2026-01-05 13:13:35.75	23.91	5.30	-40.1	-41.5	19.9	0.00e+00	23	25	0	75497472	54	6081
2026-01-05 13:13:39.79	24.19	5.56	-40.0	-41.3	20.2	0.00e+00	89	25	0	83886080	54	5952
2026-01-05 13:13:43.83	24.48	5.83	-39.6	-40.8	20.8	0.00e+00	0	25	0	91226112	52	6308
2026-01-05 13:13:47.87	24.77	6.09	-39.4	-40.6	21.0	0.00e+00	2	25	0	98566144	52	6148
2026-01-05 13:13:51.90	25.06	6.36	-39.4	-40.6	21.0	0.00e+00	24	25	0	105906176	52	6112
2026-01-05 13:13:55.94	25.36	6.63	-39.1	-40.2	21.4	0.00e+00	89	25	0	114294784	52	5881
2026-01-05 13:13:59.97	25.66	6.90	-38.9	-40.0	21.6	0.00e+00	57	25	0	121634816	52	5744
2026-01-05 13:14:04.01	25.97	7.17	-38.9	-40.0	21.7	0.00e+00	61	25	0	128974848	50	6423
2026-01-05 13:14:08.05	26.28	7.45	-38.7	-39.7	21.8	0.00e+00	90	25	0	136314880	50	6241
2026-01-05 13:14:12.08	26.60	7.72	-38.5	-39.6	22.0	0.00e+00	20	25	0	143654912	50	6136
2026-01-05 13:14:16.12	26.93	8.00	-38.7	-39.8	21.8	0.00e+00	0	25	0	152043520	50	6274
2026-01-05 13:14:20.16	27.26	8.29	-38.6	-39.6	22.1	0.00e+00	64	25	0	159383552	50	6151
2026-01-05 13:14:24.19	27.60	8.57	-38.2	-39.2	22.4	0.00e+00	90	25	0	166723584	50	5866
2026-01-05 13:14:28.23	27.94	8.86	-38.4	-39.4	22.3	0.00e+00	0	25	0	174063616	50	5983
2026-01-05 13:14:32.27	28.29	9.15	-38.3	-39.3	22.4	0.00e+00	0	25	0	181403648	50	5907
2026-01-05 13:14:36.31	28.65	9.44	-38.3	-39.3	22.4	0.00e+00	19	25	0	189792256	50	5928
2026-01-05 13:14:40.35	29.02	9.74	-38.4	-39.4	22.4	0.00e+00	92	25	0	197132288	50	6028
2026-01-05 13:14:44.38	29.39	10.04	-38.3	-39.3	22.5	0.00e+00	62	25	0	204472320	50	5913
2026-01-05 13:14:48.42	29.76	10.34	-38.0	-39.0	22.9	0.00e+00	6	25	0	211812352	50	5738
2026-01-05 13:14:52.46	30.15	10.64	-37.8	-38.8	23.0	0.00e+00	0	25	0	220200960	48	6279
2026-01-05 13:14:56.49	30.54	10.94	-37.8	-38.7	23.0	0.00e+00	90	25	0	227540992	48	6234
2026-01-05 13:15:00.53	30.95	11.25	-38.0	-39.0	22.6	0.00e+00	66	25	0	234881024	48	6406
2026-01-05 13:15:04.57	31.36	11.56	-37.5	-38.4	23.4	0.00e+00	62	25	0	242221056	48	6031
2026-01-05 13:15:08.60	31.77	11.88	-37.4	-38.4	23.4	0.00e+00	0	25	0	249561088	48	5975
2026-01-05 13:15:12.64	32.20	12.19	-37.7	-38.6	23.2	0.00e+00	92	25	0	257949696	48	6157
2026-01-05 13:15:16.67	32.64	12.51	-37.8	-38.8	23.1	0.00e+00	21	25	0	265289728	48	6254
2026-01-05 13:15:20.71	33.08	12.83	-37.9	-38.9	23.0	0.00e+00	0	25	0	272629760	48	6342
2026-01-05 13:15:24.75	33.54	13.16	-38.0	-38.9	22.9	0.00e+00	0	25	0	279969792	48	6365
2026-01-05 13:15:28.78	34.00	13.49	-37.7	-38.7	23.2	0.00e+00	90	25	0	288358400	48	6195
2026-01-05 13:15:32.82	34.47	13.82	-38.0	-39.0	22.8	0.00e+00	2	25	0	295698432	48	6432
2026-01-05 13:15:36.86	34.96	14.15	-38.0	-39.0	22.6	0.00e+00	0	25	0	303038464	48	6416
2026-01-05 13:15:40.90	35.45	14.48	-37.8	-38.7	23.2	0.00e+00	0	25	0	310378496	48	6196
2026-01-05 13:15:44.93	35.96	14.82	-37.7	-38.6	23.3	0.00e+00	89	25	0	317718528	48	6162
2026-01-05 13:15:48.97	36.47	15.16	-37.9	-38.8	23.1	0.00e+00	54	25	0	326107136	48	6308
2026-01-05 13:15:53.01	37.00	15.51	-37.9	-38.8	23.2	0.00e+00	2	25	0	333447168	48	6278
2026-01-05 13:15:57.04	37.54	15.85	-37.7	-38.6	23.3	0.00e+00	90	25	0	340787200	48	6166
2026-01-05 13:16:01.08	38.10	16.20	-37.9	-38.8	23.1	0.00e+00	28	25	0	348127232	48	6276
2026-01-05 13:16:05.12	38.66	16.55	-37.8	-38.7	23.2	0.00e+00	25	25	0	355467264	48	6227
2026-01-05 13:16:09.15	39.24	16.91	-37.8	-38.8	23.2	0.00e+00	22	25	0	363855872	48	6261
2026-01-05 13:16:13.18	39.83	17.26	-37.6	-38.5	23.5	0.00e+00	92	25	0	371195904	48	6043
2026-01-05 13:16:17.22	40.43	17.62	-37.6	-38.5	23.5	0.00e+00	0	25	0	378535936	48	6067
2026-01-05 13:16:21.26	41.05	17.98	-37.2	-38.1	23.8	0.00e+00	0	25	0	385875968	48	5796
2026-01-05 13:16:25.29	41.69	18.35	-36.7	-37.5	24.2	0.00e+00	27	25	0	394264576	46	6098
2026-01-05 13:16:29.33	42.34	18.71	-36.7	-37.5	24.4	0.00e+00	90	25	0	401604608	46	6064
2026-01-05 13:16:33.36	43.00	19.08	-36.5	-37.3	24.6	0.00e+00	26	25	0	408944640	46	5919
2026-01-05 13:16:37.40	43.68	19.45	-36.6	-37.4	24.5	0.00e+00	57	25	0	416284672	46	6008
2026-01-05 13:16:41.44	44.37	19.82	-36.6	-37.5	24.3	0.00e+00	5	26	0	423624704	46	6055
2026-01-05 13:16:45.47	45.09	20.19	-36.2	-37.0	24.7	0.00e+00	92	26	0	432013312	46	5741
2026-01-05 13:16:49.51	45.82	20.56	-36.3	-37.1	24.8	0.00e+00	0	26	0	439353344	46	5767
2026-01-05 13:16:53.55	46.56	20.93	-36.3	-37.1	24.7	0.00e+00	27	25	0	446693376	46	5817
2026-01-05 13:16:57.59	47.33	21.31	-35.8	-36.6	25.2	0.00e+00	0	26	0	454033408	46	5448
2026-01-05 13:17:01.63	48.11	21.68	-35.7	-36.5	25.2	0.00e+00	92	25	0	462422016	44	6058
2026-01-05 13:17:05.66	48.91	22.06	-35.4	-36.2	25.4	0.00e+00	6	26	0	469762048	44	5848
2026-01-05 13:17:09.70	49.73	22.43	-35.3	-36.0	25.5	0.00e+00	23	25	0	477102080	44	5751
2026-01-05 13:17:13.74	50.57	22.81	-35.8	-36.6	25.1	0.00e+00	16	25	0	484442112	44	6142
2026-01-05 13:17:17.77	51.43	23.18	-36.2	-37.0	24.7	0.00e+00	92	25	0	491782144	44	6440
2026-01-05 13:17:21.81	52.31	23.55	-36.1	-36.9	24.9	0.00e+00	0	25	0	500170752	44	6356
2026-01-05 13:17:25.85	53.22	23.92	-36.2	-37.0	24.7	0.00e+00	0	26	0	507510784	44	6463
2026-01-05 13:17:29.89	54.14	24.29	-36.7	-37.5	24.4	0.00e+00	0	26	0	514850816	44	6820
2026-01-05 13:17:33.93	55.08	24.66	-37.0	-37.8	24.2	0.00e+00	91	26	0	522190848	46	6307
2026-01-05 13:17:37.96	56.05	25.02	-37.0	-37.9	24.1	0.00e+00	57	26	0	529530880	46	6355
2026-01-05 13:17:42.00	57.04	25.38	-37.3	-38.2	23.9	0.00e+00	0	26	0	537919488	46	6586
2026-01-05 13:17:46.04	58.05	25.73	-36.8	-37.6	24.3	0.00e+00	90	26	0	545259520	46	6144
2026-01-05 13:17:50.07	59.08	26.08	-37.2	-38.1	23.9	0.00e+00	0	25	0	552599552	46	6519
2026-01-05 13:17:54.11	60.13	26.43	-38.1	-39.1	23.0	0.00e+00	0	26	0	559939584	48	6494
2026-01-05 13:17:58.14	61.21	26.77	-38.4	-39.3	22.8	0.00e+00	29	26	0	568328192	48	6678
2026-01-05 13:18:02.18	62.30	27.10	-38.9	-39.9	22.4	0.00e+00	92	26	0	575668224	50	6376
2026-01-05 13:18:06.22	63.43	27.42	-39.0	-40.1	22.2	0.00e+00	56	25	0	583008256	50	6468
2026-01-05 13:18:10.25	64.57	27.74	-39.8	-41.0	21.5	0.00e+00	0	26	0	590348288	52	6400
2026-01-05 13:18:14.29	65.74	28.05	-39.1	-40.1	22.1	0.00e+00	26	26	0	597688320	52	5814
2026-01-05 13:18:18.33	66.93	28.35	-38.6	-39.6	22.6	0.00e+00	92	26	0	606076928	50	6133
2026-01-05 13:18:22.37	68.14	28.64	-38.6	-39.6	22.6	0.00e+00	27	26	0	613416960	50	6136
2026-01-05 13:18:26.41	69.37	28.92	-38.5	-39.5	22.7	0.00e+00	0	26	0	620756992	50	6036
2026-01-05 13:18:30.44	70.62	29.18	-39.7	-40.9	21.5	0.00e+00	0	26	0	628097024	50	7090
2026-01-05 13:18:34.48	71.89	29.44	-40.4	-41.6	20.8	0.00e+00	91	26	0	636485632	52	6889
2026-01-05 13:18:38.52	73.18	29.68	-40.8	-42.1	20.3	0.00e+00	1	26	0	643825664	54	6499
2026-01-05 13:18:42.55	74.49	29.90	-41.2	-42.7	19.7	0.00e+00	23	26	0	651165696	54	6963
2026-01-05 13:18:46.59	75.82	30.12	-41.1	-42.5	19.9	0.00e+00	60	26	0	658505728	54	6800
2026-01-05 13:18:50.63	77.17	30.31	-40.4	-41.6	20.8	0.00e+00	92	26	0	665845760	54	6156
2026-01-05 13:18:54.66	78.53	30.49	-40.5	-41.8	20.5	0.00e+00	8	26	0	674234368	54	6261
2026-01-05 13:18:58.70	79.90	30.66	-39.6	-40.8	21.7	0.00e+00	0	26	0	681574400	52	6246
2026-01-05 13:19:02.74	81.29	30.81	-39.7	-40.8	21.5	0.00e+00	0	26	0	688914432	52	6312
2026-01-05 13:19:06.77	82.69	30.94	-39.5	-40.6	21.6	0.00e+00	91	26	0	696254464	52	6171
2026-01-05 13:19:10.81	84.10	31.05	-39.4	-40.4	21.8	0.00e+00	58	26	0	704643072	52	6023
2026-01-05 13:19:14.84	85.52	31.14	-40.3	-41.5	21.0	0.00e+00	0	26	0	711983104	52	6797
2026-01-05 13:19:18.88	86.95	31.22	-39.8	-40.9	21.4	0.00e+00	0	26	0	719323136	52	6372
2026-01-05 13:19:22.92	88.38	31.27	-39.6	-40.7	21.7	0.00e+00	88	26	0	726663168	52	6191
2026-01-05 13:19:26.96	89.82	31.31	-38.6	-39.6	22.6	0.00e+00	28	26	0	734003200	50	6154
2026-01-05 13:19:30.99	91.26	31.32	-38.5	-39.5	22.7	0.00e+00	0	26	0	742391808	50	6094
2026-01-05 13:19:35.03	92.70	31.32	-39.5	-40.6	21.6	0.00e+00	91	26	0	749731840	50	6874
2026-01-05 13:19:39.07	94.14	31.30	-39.8	-41.0	21.3	0.00e+00	27	26	0	757071872	52	6417
2026-01-05 13:19:43.10	95.57	31.26	-39.6	-40.7	21.7	0.00e+00	23	26	0	764411904	52	6207
2026-01-05 13:19:47.14	97.00	31.19	-39.5	-40.6	21.7	0.00e+00	0	26	0	772800512	52	6157
2026-01-05 13:19:51.18	98.43	31.11	-40.0	-41.2	21.1	0.00e+00	92	26	0	780140544	52	6572
2026-01-05 13:19:55.21	99.85	31.01	-41.1	-42.4	20.0	0.00e+00	2	26	0	787480576	54	6763
2026-01-05 13:19:59.25	101.26	30.90	-40.6	-41.9	20.5	0.00e+00	2	26	0	794820608	54	6336
2026-01-05 13:20:03.29	102.66	30.76	-40.3	-41.6	20.7	0.00e+00	0	26	0	802160640	54	6131
2026-01-05 13:20:07.32	104.04	30.61	-40.8	-42.2	20.2	0.00e+00	92	26	0	810549248	54	6545
2026-01-05 13:20:11.36	105.41	30.44	-39.2	-40.2	22.1	0.00e+00	0	26	0	817889280	52	5872
2026-01-05 13:20:15.40	106.77	30.25	-38.5	-39.5	22.6	0.00e+00	6	26	0	825229312	50	6092
2026-01-05 13:20:19.44	108.12	30.05	-39.1	-40.2	22.1	0.00e+00	0	26	0	832569344	50	6551
2026-01-05 13:20:23.48	109.44	29.83	-39.2	-40.2	22.0	0.00e+00	93	26	0	840957952	50	6611
2026-01-05 13:20:27.51	110.75	29.60	-38.4	-39.4	22.7	0.00e+00	25	26	0	848297984	50	5987
2026-01-05 13:20:31.55	112.04	29.35	-39.1	-40.1	22.1	0.00e+00	27	26	0	855638016	50	6528
2026-01-05 13:20:35.59	113.31	29.09	-40.0	-41.1	21.2	0.00e+00	69	26	0	862978048	52	6522
2026-01-05 13:20:39.62	114.55	28.82	-38.9	-39.9	22.4	0.00e+00	90	26	0	870318080	52	5681
2026-01-05 13:20:43.66	115.78	28.54	-39.4	-40.5	21.8	0.00e+00	6	26	0	878706688	52	6035
2026-01-05 13:20:47.70	116.99	28.25	-40.3	-41.5	20.8	0.00e+00	3	26	0	886046720	52	6848
2026-01-05 13:20:51.74	118.17	27.94	-40.1	-41.4	21.1	0.00e+00	16	26	0	893386752	52	6701
2026-01-05 13:20:55.77	119.34	27.63	-39.7	-40.8	21.6	0.00e+00	92	26	0	900726784	52	6284
2026-01-05 13:20:59.81	120.48	27.31	-38.7	-39.7	22.5	0.00e+00	56	26	0	908066816	50	6221
2026-01-05 13:21:03.85	121.59	26.98	-37.7	-38.6	23.4	0.00e+00	0	26	0	916455424	48	6166
2026-01-05 13:21:07.88	122.69	26.64	-38.7	-39.7	22.5	0.00e+00	9	26	0	923795456	48	6942
2026-01-05 13:21:11.92	123.76	26.30	-38.9	-40.0	22.2	0.00e+00	90	26	0	931135488	50	6402
2026-01-05 13:21:15.96	124.81	25.95	-37.6	-38.5	23.6	0.00e+00	54	26	0	938475520	48	6067
2026-01-05 13:21:19.99	125.84	25.60	-37.8	-38.7	23.3	0.00e+00	2	26	0	946864128	48	6232
2026-01-05 13:21:24.03	126.84	25.24	-37.7	-38.6	23.4	0.00e+00	92	26	0	954204160	48	6131
2026-01-05 13:21:28.07	127.83	24.88	-39.6	-40.8	21.6	0.00e+00	13	26	0	961544192	52	6251
2026-01-05 13:21:32.10	128.79	24.51	-38.6	-39.6	22.5	0.00e+00	0	26	0	968884224	50	6150
2026-01-05 13:21:36.14	129.73	24.14	-38.8	-39.8	22.6	0.00e+00	21	26	0	976224256	50	6267
2026-01-05 13:21:40.17	130.64	23.77	-37.3	-38.1	23.8	0.00e+00	90	26	0	984612864	48	5818
2026-01-05 13:21:44.21	131.54	23.40	-38.0	-38.9	23.2	0.00e+00	55	26	0	991952896	48	6375
2026-01-05 13:21:48.24	132.42	23.03	-37.4	-38.3	23.5	0.00e+00	0	26	0	999292928	48	5944
2026-01-05 13:21:52.28	133.27	22.65	-38.1	-39.1	23.0	0.00e+00	23	26	0	1006632960	48	6504
2026-01-05 13:21:56.32	134.11	22.27	-37.2	-38.1	23.8	0.00e+00	92	26	0	1013972992	48	5783
2026-01-05 13:22:00.36	134.93	21.90	-37.8	-38.8	23.3	0.00e+00	57	26	0	1022361600	48	6252
2026-01-05 13:22:04.40	135.73	21.52	-36.8	-37.7	24.2	0.00e+00	58	26	0	1029701632	46	6211
2026-01-05 13:22:08.43	136.50	21.14	-37.5	-38.4	23.7	0.00e+00	6	26	0	1037041664	46	6705
2026-01-05 13:22:12.46	137.26	20.77	-36.6	-37.4	24.5	0.00e+00	92	26	0	1044381696	46	6003
2026-01-05 13:22:16.50	138.01	20.39	-36.4	-37.3	24.4	0.00e+00	24	26	0	1052770304	46	5910
2026-01-05 13:22:20.54	138.73	20.01	-36.5	-37.3	24.1	0.00e+00	63	26	0	1060110336	46	5927
2026-01-05 13:22:24.57	139.44	19.64	-36.0	-36.8	24.9	0.00e+00	74	26	0	1067450368	46	5579
2026-01-05 13:22:28.61	140.13	19.27	-36.3	-37.1	24.7	0.00e+00	90	26	0	1074790400	46	5801
2026-01-05 13:22:32.65	140.81	18.90	-36.1	-36.9	24.8	0.00e+00	7	26	0	1082130432	46	5680
2026-01-05 13:22:36.69	141.47	18.53	-36.0	-36.8	24.8	0.00e+00	2	26	0	1090519040	46	5624
2026-01-05 13:22:40.72	142.11	18.16	-36.6	-37.5	24.3	0.00e+00	0	26	0	1097859072	46	6055
2026-01-05 13:22:44.76	142.74	17.80	-37.1	-37.9	23.9	0.00e+00	92	26	0	1105199104	46	6381
2026-01-05 13:22:48.80	143.36	17.44	-36.7	-37.6	24.3	0.00e+00	0	26	0	1112539136	46	6131
2026-01-05 13:22:52.83	143.96	17.08	-37.0	-37.9	23.9	0.00e+00	0	26	0	1120927744	46	6360
2026-01-05 13:22:56.87	144.55	16.72	-37.2	-38.1	23.7	0.00e+00	69	26	0	1128267776	46	6483
2026-01-05 13:23:00.91	145.12	16.36	-37.3	-38.3	23.5	0.00e+00	92	26	0	1135607808	46	6620
2026-01-05 13:23:04.94	145.68	16.01	-37.9	-38.8	23.0	0.00e+00	21	26	0	1142947840	48	6292
2026-01-05 13:23:08.98	146.23	15.66	-38.2	-39.2	22.8	0.00e+00	65	26	0	1150287872	48	6613
2026-01-05 13:23:13.02	146.77	15.31	-38.4	-39.4	22.5	0.00e+00	91	26	0	1158676480	48	6737
2026-01-05 13:23:17.05	147.29	14.97	-38.0	-39.0	23.1	0.00e+00	92	26	0	1166016512	48	6396
2026-01-05 13:23:21.09	147.81	14.62	-37.5	-38.4	23.4	0.00e+00	21	26	0	1173356544	48	5992
2026-01-05 13:23:25.13	148.31	14.28	-37.9	-38.9	23.0	0.00e+00	19	26	0	1180696576	48	6319
2026-01-05 13:23:29.16	148.80	13.95	-38.4	-39.4	22.5	0.00e+00	92	26	0	1188036608	48	6744
2026-01-05 13:23:33.19	149.28	13.61	-38.1	-39.1	22.6	0.00e+00	2	26	0	1196425216	48	6527
2026-01-05 13:23:37.23	149.75	13.28	-37.4	-38.3	23.5	0.00e+00	1	26	0	1203765248	48	5941
2026-01-05 13:23:41.26	150.21	12.95	-37.6	-38.5	23.2	0.00e+00	0	26	0	1211105280	48	6088
2026-01-05 13:23:45.30	150.66	12.63	-38.3	-39.3	22.5	0.00e+00	92	26	0	1218445312	48	6686
2026-01-05 13:23:49.34	151.10	12.30	-38.2	-39.2	22.6	0.00e+00	62	26	0	1226833920	48	6554
2026-01-05 13:23:53.38	151.53	11.98	-37.5	-38.4	23.3	0.00e+00	6	26	0	1234173952	48	5991
2026-01-05 13:23:57.41	151.95	11.67	-37.2	-38.1	23.6	0.00e+00	3	26	0	1241513984	48	5777
2026-01-05 13:24:01.44	152.37	11.35	-37.8	-38.8	22.9	0.00e+00	92	26	0	1248854016	48	6258
2026-01-05 13:24:05.48	152.77	11.04	-38.3	-39.3	22.3	0.00e+00	5	26	0	1256194048	48	6684
2026-01-05 13:24:09.52	153.17	10.73	-39.0	-40.1	21.3	0.00e+00	6	26	0	1264582656	50	6529
2026-01-05 13:24:13.56	153.56	10.42	-39.7	-41.0	20.2	0.00e+00	0	26	0	1271922688	50	7247
2026-01-05 13:24:17.59	153.94	10.12	-40.4	-42.0	19.1	0.00e+00	91	26	0	1279262720	52	7179
2026-01-05 13:24:21.63	154.32	9.82	-41.4	-43.4	17.3	0.00e+00	3	26	0	1286602752	54	7529
2026-01-05 13:24:25.67	154.69	9.52	-42.4	-44.9	15.6	0.00e+00	0	26	0	1294991360	56	7980
2026-01-05 13:24:29.70	155.05	9.22	-42.7	-45.5	14.9	0.00e+00	2	26	0	1302331392	58	7653
2026-01-05 13:24:33.74	155.40	8.93	-41.7	-43.8	17.1	0.00e+00	92	26	0	1309671424	56	7054
2026-01-05 13:24:37.78	155.75	8.64	-41.6	-43.6	17.5	0.00e+00	68	26	0	1317011456	56	6851
2026-01-05 13:24:41.82	156.09	8.35	-40.3	-41.7	19.5	0.00e+00	0	26	0	1324351488	54	6203
2026-01-05 13:24:45.85	156.42	8.07	-39.8	-41.1	20.4	0.00e+00	71	26	0	1332740096	52	6466
2026-01-05 13:24:49.89	156.75	7.78	-39.6	-40.8	20.7	0.00e+00	16	26	0	1340080128	52	6282
2026-01-05 13:24:53.93	157.07	7.50	-39.3	-40.4	21.2	0.00e+00	14	26	0	1347420160	52	6033
2026-01-05 13:24:57.97	157.39	7.22	-39.2	-40.4	21.2	0.00e+00	65	26	0	1354760192	52	6021
2026-01-05 13:25:02.01	157.70	6.94	-39.1	-40.2	21.2	0.00e+00	92	26	0	1363148800	52	5885
2026-01-05 13:25:06.05	158.00	6.67	-39.4	-40.6	21.0	0.00e+00	2	26	0	1370488832	52	6119
2026-01-05 13:25:10.08	158.30	6.40	-39.5	-40.7	20.8	0.00e+00	11	26	0	1377828864	52	6228
2026-01-05 13:25:14.12	158.60	6.13	-39.6	-40.9	20.7	0.00e+00	0	26	0	1385168896	52	6344
2026-01-05 13:25:18.16	158.89	5.86	-40.1	-41.4	20.1	0.00e+00	92	26	0	1392508928	52	6736
2026-01-05 13:25:22.19	159.17	5.60	-40.1	-41.5	19.9	0.00e+00	2	26	0	1400897536	52	6825
2026-01-05 13:25:26.23	159.45	5.33	-40.4	-41.8	19.7	0.00e+00	0	26	0	1408237568	52	7021
2026-01-05 13:25:30.27	159.72	5.07	-40.6	-42.0	19.4	0.00e+00	4	26	0	1415577600	52	7243
2026-01-05 13:25:34.30	159.99	4.81	-40.5	-42.0	19.4	0.00e+00	92	26	0	1422917632	52	7232
2026-01-05 13:25:38.34	160.26	4.55	-40.4	-41.9	19.5	0.00e+00	2	26	0	1431306240	52	7126
2026-01-05 13:25:42.38	160.52	4.30	-40.9	-42.5	18.8	0.00e+00	0	26	0	1438646272	54	6815
2026-01-05 13:25:46.41	160.78	4.05	-41.2	-42.8	18.4	0.00e+00	0	26	0	1445986304	54	7086
2026-01-05 13:25:50.45	161.03	3.79	-40.9	-42.6	18.4	0.00e+00	92	26	0	1453326336	54	6871
2026-01-05 13:25:54.49	161.28	3.55	-41.1	-42.9	18.2	0.00e+00	14	26	0	1460666368	54	7097
2026-01-05 13:25:58.52	161.52	3.30	-41.0	-42.6	18.3	0.00e+00	12	26	0	1469054976	54	6920
2026-01-05 13:26:02.56	161.76	3.05	-41.2	-42.9	18.1	0.00e+00	3	26	0	1476395008	54	7152
2026-01-05 13:26:06.60	162.00	2.81	-48.1	-63.2	3.5	1.51e+00	0	26	104	1477443584	60	52514
2026-01-05 13:26:10.64	162.23	2.57	-48.5	-63.6	3.6	1.51e+00	0	26	104	1477443584	60	54930
2026-01-05 13:26:14.68	162.47	2.32	-48.5	-63.6	3.5	1.51e+00	0	26	104	1477443584	60	54699
2026-01-05 13:26:18.72	162.69	2.09	-48.5	-63.6	3.6	1.51e+00	0	26	104	1477443584	60	54976
2026-01-05 13:26:22.76	162.92	1.85	-48.4	-63.6	3.6	1.51e+00	0	26	104	1477443584	60	54793
2026-01-05 13:26:26.80	163.14	1.61	-48.5	-63.7	3.6	1.51e+00	0	26	104	1477443584	60	55139
2026-01-05 13:26:30.83	163.35	1.38	-48.7	-63.8	3.6	1.51e+00	0	26	104	1477443584	60	56210
2026-01-05 13:26:34.87	163.56	1.15	-48.5	-63.6	3.6	1.51e+00	0	26	104	1477443584	60	54844
2026-01-05 13:26:38.91	163.78	0.92	-48.8	-64.0	3.6	1.51e+00	0	26	104	1477443584	60	57392
2026-01-05 13:26:42.95	163.98	0.69	-48.5	-63.7	3.6	1.51e+00	0	26	104	1477443584	60	55071
2026-01-05 13:26:46.99	164.19	0.46	-48.7	-63.9	3.6	1.51e+00	0	26	104	1477443584	60	56422
2026-01-05 13:26:51.02	164.39	0.23	-48.8	-63.9	3.6	1.51e+00	0	26	104	1477443584	60	56716
2026-01-05 13:26:55.06	164.59	0.01	-48.9	-64.0	3.6	1.51e+00	0	26	104	1477443584	60	57494

#Closed at: 2026-01-05 13:26:55
#Recorded file [1477 MB]: D:/lorett/data/35029_260106_011206.dat