passes_logs/2026/01/05/R4.6S_Anadyr/R4.6S_Anadyr__20260105_181232_NOAA_20_JPSS-1_rec.log

#Pass ID: 20260105_181232_NOAA 20 (JPSS-1)
#Satellite: NOAA 20 (JPSS-1)
#Configuration: NOAA 20
#almurnet v.1.7.20251203
#Start time: 2026-01-05 18:12:35

#Version: 2.2.20231116
#Station: R4.6S_Anadyr
#Location: 177.4865 lon 64.73178 lat
#TLE: 1 43013U 17073A   26004.89819562  .00000113  00000+0  74278-4 0  9995
#TLE: 2 43013  98.7626 305.9448 0001841  53.9015 306.2332 14.19533229421309

#Time	Az	El	Level	Level2	SNR	BER	BlckErr	Temp	State	Recorded	gain1	gain2
2026-01-05 18:12:35.40	38.24	0.14	-48.6	-63.5	3.5	1.51e+00	0	31	0	0	60	54181
2026-01-05 18:12:39.43	37.96	0.34	-48.7	-63.9	3.6	1.51e+00	0	32	104	0	60	56443
2026-01-05 18:12:43.47	37.67	0.55	-48.7	-63.8	3.6	1.51e+00	0	32	104	0	60	56110
2026-01-05 18:12:47.51	37.38	0.76	-48.4	-63.6	3.6	1.51e+00	0	32	104	0	60	54580
2026-01-05 18:12:51.55	37.09	0.96	-47.2	-62.3	3.6	1.51e+00	0	32	104	0	60	47355
2026-01-05 18:12:55.59	36.79	1.17	-47.2	-62.3	3.5	1.51e+00	0	32	104	0	60	47178
2026-01-05 18:12:59.63	36.49	1.38	-47.2	-62.4	3.6	1.51e+00	0	32	104	0	60	47582
2026-01-05 18:13:03.67	36.19	1.59	-47.2	-62.3	3.6	1.51e+00	0	32	104	0	60	47093
2026-01-05 18:13:07.71	35.87	1.80	-47.2	-62.3	3.6	1.51e+00	0	32	104	0	60	47172
2026-01-05 18:13:11.75	35.56	2.01	-47.2	-62.3	3.6	1.51e+00	0	32	104	0	60	47084
2026-01-05 18:13:15.79	35.24	2.22	-47.2	-62.1	3.6	1.51e+00	0	32	104	0	60	45854
2026-01-05 18:13:19.83	34.91	2.43	-47.2	-62.3	3.6	1.51e+00	0	33	104	0	60	47261
2026-01-05 18:13:23.87	34.58	2.64	-47.2	-62.3	3.6	1.51e+00	0	33	104	0	60	47250
2026-01-05 18:13:27.91	34.25	2.86	-47.1	-61.4	3.6	1.51e+00	0	33	104	0	60	42424
2026-01-05 18:13:31.95	33.91	3.07	-46.7	-55.5	5.5	1.16e+00	69	33	0	0	60	21526
2026-01-05 18:13:35.99	33.56	3.28	-46.4	-53.9	7.1	5.97e-01	92	33	104	3145728	60	17836
2026-01-05 18:13:40.03	33.21	3.50	-41.9	-43.7	17.8	0.00e+00	0	33	0	5242880	58	6234
2026-01-05 18:13:44.06	32.86	3.72	-41.6	-43.3	18.2	0.00e+00	0	33	0	13631488	56	6685
2026-01-05 18:13:48.10	32.50	3.93	-41.6	-43.3	18.2	0.00e+00	0	33	0	20971520	56	6672
2026-01-05 18:13:52.14	32.13	4.15	-41.7	-43.4	18.3	0.00e+00	90	33	0	28311552	56	6708
2026-01-05 18:13:56.18	31.76	4.37	-41.5	-43.2	18.5	0.00e+00	70	33	0	35651584	56	6600
2026-01-05 18:14:00.21	31.38	4.59	-41.7	-43.4	18.3	0.00e+00	12	33	0	42991616	56	6742
2026-01-05 18:14:04.25	30.99	4.81	-41.8	-43.5	18.5	0.00e+00	11	33	0	51380224	56	6793
2026-01-05 18:14:08.29	30.60	5.02	-41.7	-43.4	18.4	0.00e+00	92	33	0	58720256	56	6757
2026-01-05 18:14:12.32	30.21	5.24	-41.5	-43.1	18.7	0.00e+00	69	33	0	66060288	56	6522
2026-01-05 18:14:16.36	29.80	5.47	-41.7	-43.3	18.6	0.00e+00	71	33	0	73400320	56	6676
2026-01-05 18:14:20.39	29.40	5.69	-41.5	-43.2	18.8	0.00e+00	0	33	0	81788928	56	6542
2026-01-05 18:14:24.43	28.98	5.91	-41.5	-43.1	18.8	0.00e+00	90	33	0	89128960	56	6533
2026-01-05 18:14:28.47	28.56	6.13	-41.4	-42.9	19.1	0.00e+00	0	33	0	96468992	56	6381
2026-01-05 18:14:32.51	28.13	6.35	-41.5	-43.1	18.9	0.00e+00	0	33	0	103809024	56	6523
2026-01-05 18:14:36.54	27.69	6.57	-41.3	-42.8	19.2	0.00e+00	42	33	0	111149056	56	6294
2026-01-05 18:14:40.58	27.25	6.80	-41.3	-42.8	19.2	0.00e+00	21	33	0	119537664	56	6310
2026-01-05 18:14:44.62	26.80	7.02	-41.0	-42.5	19.5	0.00e+00	15	33	0	126877696	56	6064
2026-01-05 18:14:48.65	26.35	7.24	-40.9	-42.4	19.7	0.00e+00	14	33	0	134217728	56	5967
2026-01-05 18:14:52.70	25.88	7.47	-40.5	-41.8	20.3	0.00e+00	90	33	0	141557760	54	6260
2026-01-05 18:14:56.74	25.41	7.69	-40.3	-41.6	20.4	0.00e+00	0	33	0	149946368	54	6154
2026-01-05 18:15:00.77	24.93	7.92	-40.4	-41.7	20.3	0.00e+00	71	33	0	157286400	54	6231
2026-01-05 18:15:04.81	24.44	8.14	-40.3	-41.5	20.5	0.00e+00	71	33	0	164626432	54	6099
2026-01-05 18:15:08.84	23.95	8.36	-40.5	-41.8	20.4	0.00e+00	92	33	0	171966464	54	6300
2026-01-05 18:15:12.88	23.45	8.59	-40.4	-41.7	20.7	0.00e+00	0	33	0	179306496	54	6186
2026-01-05 18:15:16.92	22.94	8.81	-40.3	-41.6	20.6	0.00e+00	0	33	0	187695104	54	6116
2026-01-05 18:15:20.96	22.42	9.04	-40.0	-41.2	20.9	0.00e+00	0	33	0	195035136	54	5878
2026-01-05 18:15:25.00	21.89	9.26	-40.0	-41.2	20.9	0.00e+00	92	33	0	202375168	54	5856
2026-01-05 18:15:29.04	21.36	9.48	-39.8	-41.0	21.1	0.00e+00	9	33	0	209715200	54	5734
2026-01-05 18:15:33.08	20.81	9.70	-39.8	-41.0	21.2	0.00e+00	0	33	0	218103808	52	6403
2026-01-05 18:15:37.11	20.26	9.93	-39.7	-40.9	21.3	0.00e+00	0	33	0	225443840	52	6354
2026-01-05 18:15:41.15	19.70	10.15	-39.7	-40.8	21.4	0.00e+00	90	33	0	232783872	52	6296
2026-01-05 18:15:45.19	19.13	10.37	-39.9	-41.0	21.2	0.00e+00	73	33	0	240123904	52	6454
2026-01-05 18:15:49.22	18.56	10.59	-39.9	-41.1	21.1	0.00e+00	8	33	0	247463936	52	6498
2026-01-05 18:15:53.26	17.97	10.80	-39.9	-41.1	21.1	0.00e+00	12	33	0	255852544	52	6526
2026-01-05 18:15:57.29	17.37	11.02	-40.0	-41.1	21.2	0.00e+00	92	33	0	263192576	52	6534
2026-01-05 18:16:01.33	16.77	11.24	-39.6	-40.8	21.3	0.00e+00	0	33	0	270532608	52	6258
2026-01-05 18:16:05.37	16.15	11.45	-39.9	-41.1	21.1	0.00e+00	15	33	0	277872640	52	6513
2026-01-05 18:16:09.41	15.53	11.67	-39.9	-41.1	21.2	0.00e+00	0	33	0	285212672	52	6517
2026-01-05 18:16:13.44	14.90	11.88	-39.6	-40.7	21.6	0.00e+00	77	33	0	293601280	52	6219
2026-01-05 18:16:17.48	14.26	12.09	-39.5	-40.6	21.7	0.00e+00	0	33	0	300941312	52	6159
2026-01-05 18:16:21.51	13.61	12.30	-39.1	-40.2	22.0	0.00e+00	0	33	0	308281344	52	5857
2026-01-05 18:16:25.55	12.95	12.51	-38.9	-40.0	22.3	0.00e+00	90	33	0	315621376	52	5706
2026-01-05 18:16:29.60	12.27	12.71	-38.4	-39.4	22.8	0.00e+00	12	33	0	324009984	50	6011
2026-01-05 18:16:33.63	11.60	12.91	-38.3	-39.2	23.0	0.00e+00	0	33	0	331350016	50	5884
2026-01-05 18:16:37.67	10.91	13.11	-38.4	-39.4	22.9	0.00e+00	0	33	0	338690048	50	5972
2026-01-05 18:16:41.71	10.21	13.31	-38.1	-39.1	23.1	0.00e+00	92	33	0	346030080	50	5784
2026-01-05 18:16:45.74	9.50	13.50	-38.0	-38.9	23.2	0.00e+00	73	33	0	353370112	50	5690
2026-01-05 18:16:49.78	8.78	13.70	-37.6	-38.5	23.6	0.00e+00	74	33	0	361758720	48	6098
2026-01-05 18:16:53.82	8.06	13.89	-37.5	-38.4	23.7	0.00e+00	0	33	0	369098752	48	5972
2026-01-05 18:16:57.86	7.32	14.07	-37.2	-38.1	23.9	0.00e+00	92	33	0	376438784	48	5773
2026-01-05 18:17:01.89	6.57	14.25	-37.4	-38.2	23.9	0.00e+00	0	33	0	383778816	48	5888
2026-01-05 18:17:05.93	5.82	14.43	-37.5	-38.4	23.6	0.00e+00	69	33	0	392167424	48	6013
2026-01-05 18:17:09.96	5.06	14.61	-37.9	-38.9	23.3	0.00e+00	6	33	0	399507456	48	6331
2026-01-05 18:17:13.99	4.29	14.78	-37.8	-38.7	23.4	0.00e+00	92	33	0	406847488	48	6231
2026-01-05 18:17:18.02	3.50	14.94	-37.9	-38.8	23.4	0.00e+00	0	33	0	414187520	48	6317
2026-01-05 18:17:22.05	2.72	15.11	-37.9	-38.8	23.4	0.00e+00	15	33	0	421527552	48	6282
2026-01-05 18:17:26.09	1.92	15.26	-37.5	-38.4	23.8	0.00e+00	0	33	0	429916160	48	5996
2026-01-05 18:17:30.13	1.11	15.42	-37.3	-38.2	24.0	0.00e+00	92	33	0	437256192	48	5842
2026-01-05 18:17:34.16	0.29	15.57	-37.2	-38.0	23.4	0.00e+00	6	33	0	444596224	48	5739
2026-01-05 18:17:38.20	359.47	15.71	-37.4	-38.3	24.0	0.00e+00	0	33	0	451936256	48	5929
2026-01-05 18:17:42.24	358.63	15.85	-37.2	-38.1	24.1	0.00e+00	21	33	0	459276288	48	5790
2026-01-05 18:17:46.28	357.79	15.98	-37.4	-38.2	23.8	0.00e+00	30	33	0	467664896	48	5883
2026-01-05 18:17:50.31	356.95	16.11	-37.1	-38.0	24.2	0.00e+00	0	33	0	475004928	48	5696
2026-01-05 18:17:54.35	356.09	16.23	-37.5	-38.4	23.9	0.00e+00	0	33	0	482344960	48	5975
2026-01-05 18:17:58.39	355.23	16.34	-37.3	-38.2	24.0	0.00e+00	0	33	0	489684992	48	5842
2026-01-05 18:18:02.43	354.36	16.45	-37.3	-38.1	24.0	0.00e+00	0	33	0	498073600	48	5824
2026-01-05 18:18:06.46	353.49	16.55	-37.1	-37.9	24.2	0.00e+00	5	33	0	505413632	48	5683
2026-01-05 18:18:10.49	352.61	16.65	-37.4	-38.3	23.8	0.00e+00	6	33	0	512753664	48	5911
2026-01-05 18:18:14.53	351.73	16.74	-37.6	-38.5	23.7	0.00e+00	92	33	0	520093696	48	6071
2026-01-05 18:18:18.57	350.83	16.82	-38.0	-38.9	23.4	0.00e+00	18	33	0	527433728	48	6381
2026-01-05 18:18:22.61	349.94	16.90	-38.0	-39.0	23.2	0.00e+00	14	33	0	535822336	48	6404
2026-01-05 18:18:26.65	349.04	16.97	-37.9	-38.8	23.5	0.00e+00	18	33	0	543162368	48	6265
2026-01-05 18:18:30.68	348.14	17.03	-38.0	-38.9	23.4	0.00e+00	92	33	0	550502400	48	6352
2026-01-05 18:18:34.72	347.23	17.09	-38.3	-39.2	23.0	0.00e+00	69	33	0	557842432	48	6582
2026-01-05 18:18:38.75	346.32	17.13	-38.2	-39.2	23.1	0.00e+00	0	33	0	565182464	48	6544
2026-01-05 18:18:42.79	345.40	17.17	-38.1	-39.0	23.3	0.00e+00	15	33	0	573571072	48	6429
2026-01-05 18:18:46.83	344.49	17.21	-38.2	-39.1	23.1	0.00e+00	90	33	0	580911104	48	6516
2026-01-05 18:18:50.86	343.57	17.23	-38.1	-39.0	23.3	0.00e+00	0	33	0	588251136	48	6445
2026-01-05 18:18:54.90	342.65	17.25	-38.0	-38.9	23.4	0.00e+00	2	33	0	595591168	48	6369
2026-01-05 18:18:58.94	341.73	17.26	-38.0	-39.0	23.3	0.00e+00	4	33	0	603979776	48	6397
2026-01-05 18:19:02.97	340.81	17.26	-38.2	-39.1	23.1	0.00e+00	92	33	0	611319808	48	6508
2026-01-05 18:19:07.01	339.89	17.26	-38.4	-39.4	22.2	0.00e+00	2	33	0	618659840	48	6726
2026-01-05 18:19:11.05	338.97	17.25	-37.9	-38.8	23.5	0.00e+00	2	33	0	625999872	48	6289
2026-01-05 18:19:15.09	338.06	17.23	-37.9	-38.9	23.4	0.00e+00	0	33	0	633339904	48	6325
2026-01-05 18:19:19.12	337.14	17.20	-38.1	-39.1	23.1	0.00e+00	92	33	0	641728512	48	6477
2026-01-05 18:19:23.16	336.22	17.16	-38.2	-39.2	23.1	0.00e+00	0	33	0	649068544	48	6547
2026-01-05 18:19:27.20	335.31	17.12	-37.6	-38.5	23.7	0.00e+00	10	33	0	656408576	48	6052
2026-01-05 18:19:31.24	334.40	17.07	-37.7	-38.6	23.6	0.00e+00	0	33	0	663748608	48	6129
2026-01-05 18:19:35.27	333.49	17.01	-37.6	-38.5	23.7	0.00e+00	50	33	0	672137216	48	6060
2026-01-05 18:19:39.30	332.59	16.95	-37.5	-38.4	23.8	0.00e+00	0	33	0	679477248	48	5978
2026-01-05 18:19:43.34	331.69	16.88	-37.2	-38.1	24.0	0.00e+00	72	33	0	686817280	48	5787
2026-01-05 18:19:47.38	330.80	16.80	-37.2	-38.0	24.1	0.00e+00	67	33	0	694157312	48	5748
2026-01-05 18:19:51.42	329.91	16.71	-37.3	-38.2	24.0	0.00e+00	13	33	0	701497344	48	5833
2026-01-05 18:19:55.45	329.03	16.62	-37.4	-38.3	23.8	0.00e+00	0	33	0	709885952	48	5933
2026-01-05 18:19:59.49	328.15	16.52	-37.5	-38.3	23.8	0.00e+00	6	33	0	717225984	48	5963
2026-01-05 18:20:03.53	327.27	16.42	-37.6	-38.5	23.6	0.00e+00	92	33	0	724566016	48	6053
2026-01-05 18:20:07.56	326.41	16.31	-37.8	-38.8	23.5	0.00e+00	72	33	0	731906048	48	6247
2026-01-05 18:20:11.60	325.55	16.19	-38.1	-39.1	23.2	0.00e+00	15	33	0	740294656	48	6468
2026-01-05 18:20:15.64	324.69	16.07	-38.2	-39.2	23.1	0.00e+00	6	33	0	747634688	48	6559
2026-01-05 18:20:19.67	323.85	15.94	-38.2	-39.2	23.1	0.00e+00	92	33	0	754974720	48	6559
2026-01-05 18:20:23.71	323.01	15.81	-38.2	-39.1	23.2	0.00e+00	71	33	0	762314752	48	6509
2026-01-05 18:20:27.75	322.18	15.67	-37.7	-38.6	23.6	0.00e+00	72	33	0	769654784	48	6122
2026-01-05 18:20:31.78	321.36	15.52	-37.8	-38.6	23.5	0.00e+00	72	33	0	778043392	48	6171
2026-01-05 18:20:35.82	320.54	15.37	-37.8	-38.7	23.5	0.00e+00	92	33	0	785383424	48	6227
2026-01-05 18:20:39.86	319.74	15.22	-37.9	-38.9	23.4	0.00e+00	0	33	0	792723456	48	6324
2026-01-05 18:20:43.90	318.94	15.06	-37.8	-38.7	23.5	0.00e+00	0	33	0	800063488	48	6239
2026-01-05 18:20:47.93	318.15	14.89	-37.8	-38.7	23.5	0.00e+00	0	33	0	808452096	48	6227
2026-01-05 18:20:51.96	317.37	14.73	-38.0	-39.0	23.2	0.00e+00	91	33	0	815792128	48	6404
2026-01-05 18:20:56.00	316.60	14.55	-38.1	-39.1	23.2	0.00e+00	10	33	0	823132160	48	6481
2026-01-05 18:21:00.04	315.84	14.38	-37.8	-38.7	23.6	0.00e+00	0	33	0	830472192	48	6191
2026-01-05 18:21:04.08	315.08	14.20	-38.4	-39.4	22.9	0.00e+00	0	33	0	837812224	48	6715
2026-01-05 18:21:08.12	314.34	14.01	-38.7	-39.7	22.6	0.00e+00	92	33	0	846200832	50	6196
2026-01-05 18:21:12.15	313.61	13.83	-38.8	-39.8	22.5	0.00e+00	68	33	0	853540864	50	6284
2026-01-05 18:21:16.19	312.88	13.64	-38.9	-40.0	22.3	0.00e+00	9	33	0	860880896	50	6410
2026-01-05 18:21:20.23	312.16	13.45	-39.2	-40.3	22.1	0.00e+00	62	33	0	868220928	50	6625
2026-01-05 18:21:24.27	311.46	13.25	-39.7	-40.8	21.6	0.00e+00	92	33	0	876609536	50	7075
2026-01-05 18:21:28.30	310.76	13.05	-39.8	-41.0	21.5	0.00e+00	0	33	0	883949568	52	6420
2026-01-05 18:21:32.34	310.07	12.85	-39.4	-40.5	21.9	0.00e+00	0	33	0	891289600	52	6059
2026-01-05 18:21:36.38	309.40	12.65	-39.8	-41.0	21.4	0.00e+00	65	33	0	898629632	52	6398
2026-01-05 18:21:40.42	308.73	12.44	-40.4	-41.6	20.9	0.00e+00	7	33	0	905969664	52	6870
2026-01-05 18:21:44.46	308.07	12.23	-40.1	-41.2	21.2	0.00e+00	5	33	0	914358272	52	6592
2026-01-05 18:21:48.49	307.42	12.02	-40.1	-41.3	21.0	0.00e+00	0	33	0	921698304	52	6674
2026-01-05 18:21:52.53	306.78	11.81	-40.2	-41.4	21.0	0.00e+00	92	33	0	929038336	52	6706
2026-01-05 18:21:56.57	306.15	11.60	-40.2	-41.4	21.0	0.00e+00	68	33	0	936378368	52	6752
2026-01-05 18:22:00.61	305.53	11.39	-40.3	-41.6	20.8	0.00e+00	69	33	0	943718400	52	6865
2026-01-05 18:22:04.64	304.92	11.17	-40.3	-41.5	20.9	0.00e+00	6	33	0	952107008	52	6792
2026-01-05 18:22:08.68	304.31	10.95	-39.9	-41.1	21.3	0.00e+00	92	33	0	959447040	52	6500
2026-01-05 18:22:12.72	303.72	10.74	-39.7	-40.8	21.5	0.00e+00	63	33	0	966787072	52	6313
2026-01-05 18:22:16.76	303.13	10.52	-39.4	-40.5	21.8	0.00e+00	0	33	0	974127104	52	6050
2026-01-05 18:22:20.80	302.55	10.30	-39.3	-40.4	21.9	0.00e+00	68	33	0	982515712	52	5975
2026-01-05 18:22:24.83	301.99	10.08	-39.6	-40.7	21.7	0.00e+00	92	33	0	989855744	52	6191
2026-01-05 18:22:28.87	301.43	9.85	-39.2	-40.2	22.1	0.00e+00	0	33	0	997195776	52	5876
2026-01-05 18:22:32.91	300.88	9.63	-38.7	-39.8	22.4	0.00e+00	67	33	0	1004535808	52	5567
2026-01-05 18:22:36.95	300.34	9.41	-38.6	-39.6	22.5	0.00e+00	0	33	0	1011875840	50	6125
2026-01-05 18:22:40.99	299.80	9.19	-38.4	-39.4	22.7	0.00e+00	92	33	0	1020264448	50	6021
2026-01-05 18:22:45.03	299.28	8.96	-38.3	-39.3	22.7	0.00e+00	2	33	0	1027604480	50	5926
2026-01-05 18:22:49.06	298.76	8.74	-38.1	-39.0	22.4	0.00e+00	0	33	0	1034944512	50	5728
2026-01-05 18:22:53.10	298.25	8.52	-38.1	-39.1	22.9	0.00e+00	0	33	0	1042284544	50	5797
2026-01-05 18:22:57.14	297.75	8.29	-38.3	-39.3	22.7	0.00e+00	90	33	0	1050673152	50	5949
2026-01-05 18:23:01.17	297.26	8.07	-38.3	-39.3	22.7	0.00e+00	69	33	0	1058013184	50	5935
2026-01-05 18:23:05.21	296.77	7.84	-38.4	-39.4	22.6	0.00e+00	20	33	0	1065353216	50	6002
2026-01-05 18:23:09.25	296.29	7.62	-38.5	-39.5	22.5	0.00e+00	52	33	0	1072693248	50	6088
2026-01-05 18:23:13.28	295.82	7.40	-38.9	-39.9	22.1	0.00e+00	61	33	0	1080033280	50	6374
2026-01-05 18:23:17.32	295.36	7.17	-38.9	-40.0	22.0	0.00e+00	0	33	0	1088421888	50	6423
2026-01-05 18:23:21.36	294.90	6.95	-38.7	-39.8	22.2	0.00e+00	16	33	0	1095761920	50	6272
2026-01-05 18:23:25.40	294.46	6.72	-38.6	-39.7	22.3	0.00e+00	66	33	0	1103101952	50	6181
2026-01-05 18:23:29.43	294.01	6.50	-38.9	-39.9	22.0	0.00e+00	6	33	0	1110441984	50	6374
2026-01-05 18:23:33.47	293.58	6.28	-39.3	-40.4	21.6	0.00e+00	5	33	0	1118830592	50	6725
2026-01-05 18:23:37.51	293.15	6.06	-39.5	-40.6	21.3	0.00e+00	5	33	0	1126170624	50	6892
2026-01-05 18:23:41.55	292.73	5.83	-39.7	-40.9	21.1	0.00e+00	92	33	0	1133510656	52	6360
2026-01-05 18:23:45.59	292.31	5.61	-39.5	-40.7	21.2	0.00e+00	7	33	0	1140850688	52	6208
2026-01-05 18:23:49.63	291.91	5.39	-39.9	-41.1	20.8	0.00e+00	7	33	0	1148190720	52	6529
2026-01-05 18:23:53.67	291.50	5.17	-40.1	-41.4	20.5	0.00e+00	5	33	0	1156579328	52	6699
2026-01-05 18:23:57.70	291.11	4.95	-40.6	-42.0	19.8	0.00e+00	92	33	0	1163919360	52	7250
2026-01-05 18:24:01.74	290.72	4.73	-40.7	-42.1	19.7	0.00e+00	63	33	0	1171259392	52	7280
2026-01-05 18:24:05.78	290.33	4.51	-40.6	-42.0	19.7	0.00e+00	60	33	0	1178599424	54	6423
2026-01-05 18:24:09.82	289.96	4.29	-40.8	-42.3	19.4	0.00e+00	22	33	0	1186988032	54	6628
2026-01-05 18:24:13.86	289.58	4.07	-40.8	-42.3	19.3	0.00e+00	92	33	0	1194328064	54	6629
2026-01-05 18:24:17.89	289.22	3.86	-41.1	-42.6	19.0	0.00e+00	0	33	0	1201668096	54	6892
2026-01-05 18:24:21.93	288.86	3.64	-41.4	-43.0	18.6	0.00e+00	64	33	0	1209008128	54	7204
2026-01-05 18:24:25.98	288.50	3.43	-41.3	-42.9	18.6	0.00e+00	58	33	0	1216348160	54	7140
2026-01-05 18:24:30.01	288.15	3.21	-41.4	-43.1	18.3	0.00e+00	90	33	0	1224736768	54	7278
2026-01-05 18:24:34.06	287.80	3.00	-48.0	-63.1	3.6	1.14e+00	0	34	104	1231028224	60	51856
2026-01-05 18:24:38.09	287.46	2.78	-48.7	-63.9	3.6	1.51e+00	0	34	104	1231028224	60	56583
2026-01-05 18:24:42.14	287.13	2.57	-48.8	-64.0	3.6	1.51e+00	0	33	104	1231028224	60	57415
2026-01-05 18:24:46.17	286.80	2.36	-48.7	-63.9	3.5	1.51e+00	0	34	104	1231028224	60	56606
2026-01-05 18:24:50.21	286.47	2.14	-48.7	-63.8	3.6	1.51e+00	0	33	104	1231028224	60	55972
2026-01-05 18:24:54.25	286.15	1.93	-48.7	-63.8	3.6	1.51e+00	0	33	104	1231028224	60	56208
2026-01-05 18:24:58.29	285.84	1.72	-48.7	-63.8	3.5	1.51e+00	0	33	104	1231028224	60	56079
2026-01-05 18:25:02.34	285.53	1.51	-48.7	-63.9	3.6	1.51e+00	0	33	104	1231028224	60	56384
2026-01-05 18:25:06.37	285.22	1.30	-48.7	-63.8	3.6	1.51e+00	0	34	104	1231028224	60	56142
2026-01-05 18:25:10.42	284.92	1.10	-48.7	-63.8	3.6	1.51e+00	0	33	104	1231028224	60	56283
2026-01-05 18:25:14.45	284.62	0.89	-48.7	-63.8	3.6	1.51e+00	0	33	104	1231028224	60	56089
2026-01-05 18:25:18.50	284.33	0.68	-48.6	-63.9	3.6	1.51e+00	0	34	104	1231028224	60	56419
2026-01-05 18:25:22.54	284.04	0.48	-48.7	-63.8	3.6	1.51e+00	0	34	104	1231028224	60	56053
2026-01-05 18:25:26.58	283.75	0.27	-48.7	-63.9	3.6	1.51e+00	0	33	104	1231028224	60	56321
2026-01-05 18:25:30.61	283.47	0.07	-48.7	-63.8	3.6	1.51e+00	0	33	104	1231028224	60	56244

#Closed at: 2026-01-05 18:25:32
#Recorded file [1231 MB]: D:/lorett/data/35029_260106_061235.dat