passes_logs/2026/01/05/R4.6S_Anadyr/R4.6S_Anadyr__20260105_010653_NOAA_20_JPSS-1_rec.log

#Pass ID: 20260105_010653_NOAA 20 (JPSS-1)
#Satellite: NOAA 20 (JPSS-1)
#Configuration: NOAA 20
#almurnet v.1.7.20251203
#Start time: 2026-01-05 01:06:55

#Version: 2.2.20231116
#Station: R4.6S_Anadyr
#Location: 177.4865 lon 64.73178 lat
#TLE: 1 43013U 17073A   26003.41800368  .00000169  00000+0  10117-3 0  9998
#TLE: 2 43013  98.7624 304.4804 0001884  56.1176 304.0179 14.19532918421092

#Time	Az	El	Level	Level2	SNR	BER	BlckErr	Temp	State	Recorded	gain1	gain2
2026-01-05 01:06:55.49	179.00	0.09	-49.3	-64.2	3.6	1.51e+00	0	28	0	0	60	58324
2026-01-05 01:06:59.53	179.12	0.33	-49.2	-64.4	3.6	1.51e+00	0	29	104	0	60	59676
2026-01-05 01:07:03.57	179.25	0.57	-48.7	-63.9	3.6	1.51e+00	0	29	104	0	60	56519
2026-01-05 01:07:07.61	179.37	0.81	-48.3	-63.5	3.6	1.51e+00	0	29	104	0	60	54244
2026-01-05 01:07:11.65	179.50	1.05	-47.3	-62.4	3.6	1.51e+00	0	30	104	0	60	47496
2026-01-05 01:07:15.69	179.63	1.30	-47.1	-62.3	3.6	1.51e+00	0	30	104	0	60	47112
2026-01-05 01:07:19.73	179.76	1.54	-47.1	-62.3	3.5	1.51e+00	0	30	104	0	60	47060
2026-01-05 01:07:23.77	179.90	1.79	-47.1	-62.2	3.6	1.51e+00	0	30	104	0	60	46690
2026-01-05 01:07:27.80	180.03	2.04	-47.1	-62.2	3.6	1.51e+00	0	30	104	0	60	46716
2026-01-05 01:07:31.84	180.17	2.30	-47.1	-62.2	3.6	1.51e+00	0	30	104	0	60	46716
2026-01-05 01:07:35.88	180.31	2.55	-47.1	-62.0	3.6	1.51e+00	0	30	104	0	60	45559
2026-01-05 01:07:39.92	180.46	2.81	-47.1	-60.7	3.6	1.51e+00	0	30	104	0	60	39170
2026-01-05 01:07:43.96	180.60	3.07	-47.1	-60.7	3.6	1.50e+00	0	30	104	0	60	39149
2026-01-05 01:07:48.00	180.75	3.33	-43.6	-46.4	15.2	5.03e-05	0	30	0	4194304	60	7527
2026-01-05 01:07:52.04	180.90	3.60	-41.7	-43.6	17.7	0.00e+00	0	30	0	12582912	58	6134
2026-01-05 01:07:56.08	181.05	3.86	-43.3	-45.6	15.9	0.00e+00	0	30	0	17825792	58	7764
2026-01-05 01:08:00.12	181.21	4.13	-42.2	-44.3	17.1	0.00e+00	0	30	0	25165824	58	6623
2026-01-05 01:08:04.16	181.37	4.40	-41.9	-43.7	17.9	0.00e+00	0	30	0	32505856	56	6986
2026-01-05 01:08:08.20	181.53	4.68	-42.0	-43.8	18.7	0.00e+00	0	30	0	39845888	56	7016
2026-01-05 01:08:12.24	181.69	4.96	-42.1	-44.0	17.9	0.00e+00	0	30	0	47185920	56	7209
2026-01-05 01:08:16.27	181.86	5.24	-41.2	-42.8	19.1	0.00e+00	0	30	0	55574528	56	6261
2026-01-05 01:08:20.31	182.02	5.52	-41.6	-43.2	18.7	0.00e+00	0	30	0	62914560	56	6594
2026-01-05 01:08:24.35	182.20	5.80	-42.3	-44.1	18.4	0.00e+00	0	30	0	70254592	56	7278
2026-01-05 01:08:28.39	182.37	6.09	-42.0	-43.8	18.4	0.00e+00	0	30	0	77594624	56	7012
2026-01-05 01:08:32.43	182.55	6.39	-40.6	-41.9	20.2	0.00e+00	0	30	0	84934656	54	6350
2026-01-05 01:08:36.47	182.73	6.68	-40.1	-41.4	20.7	0.00e+00	0	30	0	93323264	54	5999
2026-01-05 01:08:40.51	182.92	6.98	-40.0	-41.3	20.8	0.00e+00	0	30	0	100663296	54	5920
2026-01-05 01:08:44.54	183.11	7.28	-39.9	-41.1	21.1	0.00e+00	0	30	0	108003328	52	6512
2026-01-05 01:08:48.58	183.30	7.58	-39.9	-41.1	20.9	0.00e+00	0	30	0	115343360	52	6525
2026-01-05 01:08:52.62	183.50	7.89	-39.5	-40.7	21.2	0.00e+00	0	30	0	123731968	52	6195
2026-01-05 01:08:56.66	183.70	8.20	-39.5	-40.7	21.3	0.00e+00	0	30	0	131072000	52	6214
2026-01-05 01:09:00.70	183.90	8.52	-39.4	-40.6	21.3	0.00e+00	0	30	0	138412032	52	6121
2026-01-05 01:09:04.73	184.11	8.84	-39.3	-40.4	21.6	0.00e+00	0	30	0	145752064	52	5994
2026-01-05 01:09:08.77	184.32	9.16	-39.3	-40.5	21.5	0.00e+00	0	30	0	153092096	52	6041
2026-01-05 01:09:12.81	184.54	9.49	-38.8	-39.9	22.1	0.00e+00	0	30	0	161480704	52	5632
2026-01-05 01:09:16.85	184.76	9.82	-38.8	-39.8	22.2	0.00e+00	0	30	0	168820736	52	5599
2026-01-05 01:09:20.89	184.99	10.15	-38.7	-39.7	22.3	0.00e+00	0	30	0	176160768	50	6208
2026-01-05 01:09:24.93	185.22	10.49	-38.6	-39.6	22.3	0.00e+00	0	30	0	183500800	50	6151
2026-01-05 01:09:28.97	185.46	10.84	-38.6	-39.7	22.4	0.00e+00	0	30	0	191889408	50	6178
2026-01-05 01:09:33.01	185.70	11.19	-38.8	-39.8	22.3	0.00e+00	0	30	0	199229440	50	6288
2026-01-05 01:09:37.04	185.95	11.54	-38.6	-39.6	22.5	0.00e+00	0	30	0	206569472	50	6140
2026-01-05 01:09:41.08	186.20	11.89	-38.3	-39.3	22.7	0.00e+00	0	30	0	213909504	50	5933
2026-01-05 01:09:45.12	186.46	12.26	-38.1	-39.1	23.0	0.00e+00	0	30	0	221249536	50	5772
2026-01-05 01:09:49.16	186.73	12.62	-37.9	-38.8	23.2	0.00e+00	0	30	0	229638144	50	5612
2026-01-05 01:09:53.20	187.00	13.00	-38.1	-39.1	23.0	0.00e+00	0	30	0	236978176	50	5763
2026-01-05 01:09:57.24	187.28	13.37	-37.8	-38.7	23.2	0.00e+00	0	30	0	244318208	50	5537
2026-01-05 01:10:01.28	187.56	13.76	-37.8	-38.7	23.2	0.00e+00	0	30	0	251658240	48	6229
2026-01-05 01:10:05.32	187.86	14.14	-37.4	-38.3	23.6	0.00e+00	0	30	0	260046848	48	5936
2026-01-05 01:10:09.35	188.15	14.54	-37.2	-38.1	23.8	0.00e+00	0	30	0	267386880	48	5776
2026-01-05 01:10:13.39	188.46	14.94	-37.2	-38.1	23.8	0.00e+00	0	30	0	274726912	48	5786
2026-01-05 01:10:17.42	188.78	15.34	-36.8	-37.7	24.3	0.00e+00	0	30	0	282066944	48	5516
2026-01-05 01:10:21.46	189.10	15.75	-36.9	-37.8	24.1	0.00e+00	0	30	0	289406976	48	5591
2026-01-05 01:10:25.51	189.43	16.17	-36.9	-37.7	24.2	0.00e+00	0	30	0	297795584	48	5534
2026-01-05 01:10:29.54	189.77	16.60	-36.8	-37.6	24.3	0.00e+00	0	30	0	305135616	46	6139
2026-01-05 01:10:33.58	190.13	17.03	-36.8	-37.7	24.2	0.00e+00	0	30	0	312475648	46	6184
2026-01-05 01:10:37.62	190.49	17.46	-36.6	-37.4	24.5	0.00e+00	0	30	0	319815680	46	6023
2026-01-05 01:10:41.66	190.86	17.91	-36.9	-37.7	24.2	0.00e+00	0	30	0	328204288	46	6243
2026-01-05 01:10:45.70	191.24	18.36	-36.7	-37.5	24.4	0.00e+00	0	30	0	335544320	46	6064
2026-01-05 01:10:49.74	191.63	18.82	-36.8	-37.6	24.3	0.00e+00	0	30	0	342884352	46	6159
2026-01-05 01:10:53.78	192.04	19.28	-36.8	-37.6	24.4	0.00e+00	0	30	0	350224384	46	6133
2026-01-05 01:10:57.81	192.45	19.76	-36.6	-37.4	24.5	0.00e+00	0	30	0	357564416	46	6027
2026-01-05 01:11:01.85	192.88	20.24	-36.8	-37.6	24.5	0.00e+00	0	30	0	365953024	46	6137
2026-01-05 01:11:05.89	193.32	20.73	-36.8	-37.6	24.5	0.00e+00	0	30	0	373293056	46	6132
2026-01-05 01:11:09.93	193.78	21.22	-36.7	-37.5	24.5	0.00e+00	0	30	0	380633088	46	6059
2026-01-05 01:11:13.97	194.25	21.73	-37.0	-37.8	24.2	0.00e+00	0	30	0	387973120	46	6295
2026-01-05 01:11:18.01	194.73	22.24	-36.8	-37.6	24.4	0.00e+00	0	30	0	396361728	46	6153
2026-01-05 01:11:22.04	195.23	22.76	-36.8	-37.7	24.4	0.00e+00	0	30	0	403701760	46	6224
2026-01-05 01:11:26.08	195.75	23.29	-36.9	-37.8	24.3	0.00e+00	0	30	0	411041792	46	6300
2026-01-05 01:11:30.11	196.28	23.83	-36.9	-37.8	24.3	0.00e+00	0	30	0	418381824	46	6288
2026-01-05 01:11:34.16	196.84	24.38	-36.8	-37.6	24.5	0.00e+00	0	30	0	425721856	46	6154
2026-01-05 01:11:38.19	197.41	24.94	-37.2	-38.1	24.2	0.00e+00	0	30	0	434110464	46	6478
2026-01-05 01:11:42.23	198.00	25.50	-37.3	-38.2	24.0	0.00e+00	0	30	0	441450496	46	6583
2026-01-05 01:11:46.27	198.62	26.08	-37.5	-38.4	23.9	0.00e+00	0	30	0	448790528	46	6729
2026-01-05 01:11:50.31	199.25	26.66	-37.5	-38.4	23.8	0.00e+00	0	30	0	456130560	48	6020
2026-01-05 01:11:54.35	199.91	27.25	-37.9	-38.9	23.5	0.00e+00	0	30	0	464519168	48	6323
2026-01-05 01:11:58.39	200.60	27.85	-37.9	-38.8	23.5	0.00e+00	0	30	0	471859200	48	6289
2026-01-05 01:12:02.43	201.30	28.46	-38.4	-39.3	23.2	0.00e+00	0	30	0	479199232	48	6679
2026-01-05 01:12:06.46	202.04	29.08	-38.8	-39.8	22.8	0.00e+00	0	30	0	486539264	50	6275
2026-01-05 01:12:10.50	202.80	29.71	-40.0	-41.1	21.4	0.00e+00	0	30	0	493879296	52	6534
2026-01-05 01:12:14.54	203.60	30.35	-40.4	-41.6	21.0	0.00e+00	0	30	0	502267904	52	6884
2026-01-05 01:12:18.58	204.42	30.99	-40.9	-42.2	20.3	0.00e+00	0	30	0	509607936	54	6598
2026-01-05 01:12:22.62	205.28	31.64	-40.9	-42.3	20.5	0.00e+00	0	30	0	516947968	54	6636
2026-01-05 01:12:26.66	206.17	32.30	-40.4	-41.6	20.6	0.00e+00	0	30	0	524288000	54	6165
2026-01-05 01:12:30.70	207.10	32.97	-39.8	-40.9	21.7	0.00e+00	0	30	0	532676608	52	6357
2026-01-05 01:12:34.74	208.07	33.64	-38.5	-39.5	23.1	0.00e+00	0	30	0	540016640	50	6054
2026-01-05 01:12:38.78	209.08	34.32	-37.7	-38.6	23.6	0.00e+00	0	30	0	547356672	48	6138
2026-01-05 01:12:42.81	210.13	35.00	-37.1	-38.0	24.3	0.00e+00	0	30	0	554696704	48	5704
2026-01-05 01:12:46.85	211.22	35.69	-37.9	-38.8	23.7	0.00e+00	0	30	0	562036736	48	6298
2026-01-05 01:12:50.89	212.36	36.38	-38.8	-39.8	22.5	0.00e+00	0	30	0	570425344	50	6252
2026-01-05 01:12:54.93	213.55	37.07	-36.7	-37.5	24.6	0.00e+00	0	30	0	577765376	46	6079
2026-01-05 01:12:58.96	214.79	37.76	-36.6	-37.4	24.7	0.00e+00	0	30	0	585105408	46	6009
2026-01-05 01:13:03.00	216.08	38.46	-37.3	-38.2	24.2	0.00e+00	0	30	0	592445440	46	6548
2026-01-05 01:13:07.04	217.43	39.14	-37.5	-38.3	24.3	0.00e+00	0	30	0	600834048	48	5946
2026-01-05 01:13:11.08	218.83	39.83	-37.3	-38.2	24.1	0.00e+00	0	30	0	608174080	48	5836
2026-01-05 01:13:15.12	220.29	40.51	-37.8	-38.7	23.6	0.00e+00	0	30	0	615514112	48	6226
2026-01-05 01:13:19.16	221.82	41.18	-37.9	-38.8	23.6	0.00e+00	0	30	0	622854144	48	6310
2026-01-05 01:13:23.20	223.41	41.84	-38.9	-39.9	22.9	0.00e+00	0	30	0	630194176	50	6326
2026-01-05 01:13:27.24	225.06	42.48	-38.9	-40.0	22.5	0.00e+00	0	30	0	638582784	50	6394
2026-01-05 01:13:31.28	226.78	43.11	-38.3	-39.2	23.1	0.00e+00	0	30	0	645922816	50	5889
2026-01-05 01:13:35.31	228.56	43.72	-39.0	-40.0	22.5	0.00e+00	0	30	0	653262848	50	6430
2026-01-05 01:13:39.35	230.41	44.31	-38.3	-39.2	23.2	0.00e+00	0	30	0	660602880	50	5888
2026-01-05 01:13:43.40	232.33	44.87	-39.0	-40.0	22.5	0.00e+00	0	30	0	668991488	50	6397
2026-01-05 01:13:47.44	234.32	45.40	-37.8	-38.7	23.7	0.00e+00	0	30	0	676331520	50	5532
2026-01-05 01:13:51.48	236.37	45.91	-38.7	-39.7	22.7	0.00e+00	0	30	0	683671552	48	6955
2026-01-05 01:13:55.52	238.48	46.37	-39.6	-40.7	22.1	0.00e+00	0	30	0	691011584	52	6198
2026-01-05 01:13:59.56	240.66	46.80	-39.9	-41.1	21.6	0.00e+00	0	30	0	698351616	52	6469
2026-01-05 01:14:03.59	242.88	47.19	-39.6	-40.7	21.9	0.00e+00	0	30	0	706740224	52	6178
2026-01-05 01:14:07.63	245.17	47.53	-39.5	-40.6	22.1	0.00e+00	0	30	0	714080256	52	6148
2026-01-05 01:14:11.67	247.50	47.83	-39.3	-40.3	22.3	0.00e+00	0	30	0	721420288	52	5910
2026-01-05 01:14:15.71	249.87	48.08	-39.3	-40.3	22.3	0.00e+00	0	30	0	728760320	52	5932
2026-01-05 01:14:19.74	252.27	48.27	-39.6	-40.7	22.1	0.00e+00	0	30	0	737148928	52	6179
2026-01-05 01:14:23.78	254.70	48.41	-39.5	-40.5	22.1	0.00e+00	0	30	0	744488960	52	6085
2026-01-05 01:14:27.82	257.14	48.50	-38.6	-39.5	23.0	0.00e+00	0	30	0	751828992	50	6092
2026-01-05 01:14:31.85	259.59	48.53	-38.6	-39.6	23.1	0.00e+00	0	30	0	759169024	50	6134
2026-01-05 01:14:35.89	262.05	48.51	-38.5	-39.5	23.0	0.00e+00	0	30	0	766509056	50	6053
2026-01-05 01:14:39.93	264.50	48.43	-38.7	-39.7	22.9	0.00e+00	0	30	0	774897664	50	6215
2026-01-05 01:14:43.97	266.93	48.30	-39.1	-40.1	22.6	0.00e+00	0	30	0	782237696	50	6503
2026-01-05 01:14:48.01	269.34	48.11	-39.9	-41.1	21.5	0.00e+00	0	30	0	789577728	52	6471
2026-01-05 01:14:52.05	271.72	47.87	-38.8	-39.8	22.6	0.00e+00	0	30	0	796917760	52	5593
2026-01-05 01:14:56.08	274.04	47.59	-39.0	-40.0	22.7	0.00e+00	0	30	0	805306368	52	5707
2026-01-05 01:15:00.12	276.33	47.25	-40.9	-42.1	20.8	0.00e+00	0	30	0	812646400	54	6528
2026-01-05 01:15:04.16	278.57	46.87	-41.2	-42.5	20.3	0.00e+00	0	30	0	819986432	54	6781
2026-01-05 01:15:08.20	280.75	46.45	-41.3	-42.6	20.3	0.00e+00	0	30	0	827326464	56	6113
2026-01-05 01:15:12.24	282.87	45.99	-41.4	-42.6	21.1	0.00e+00	0	30	0	834666496	56	6125
2026-01-05 01:15:16.28	284.93	45.50	-41.4	-42.7	20.4	0.00e+00	0	30	0	843055104	56	6242
2026-01-05 01:15:20.31	286.92	44.97	-39.4	-40.3	22.7	0.00e+00	0	30	0	850395136	50	6674
2026-01-05 01:15:24.35	288.84	44.41	-38.7	-39.6	23.6	0.00e+00	0	30	0	857735168	50	6148
2026-01-05 01:15:28.39	290.70	43.83	-37.8	-38.6	23.7	0.00e+00	0	30	0	865075200	50	5495
2026-01-05 01:15:32.43	292.49	43.23	-36.9	-37.7	24.7	0.00e+00	0	30	0	873463808	48	5537
2026-01-05 01:15:36.47	294.22	42.61	-37.4	-38.2	24.2	0.00e+00	0	30	0	880803840	46	6595
2026-01-05 01:15:40.51	295.88	41.97	-37.4	-38.2	24.4	0.00e+00	0	30	0	888143872	46	6572
2026-01-05 01:15:44.56	297.48	41.31	-37.2	-38.1	24.2	0.00e+00	0	30	0	895483904	48	5780
2026-01-05 01:15:48.60	299.01	40.65	-38.8	-39.8	22.9	0.00e+00	0	30	0	902823936	50	6275
2026-01-05 01:15:52.63	300.48	39.97	-37.7	-38.6	24.1	0.00e+00	0	30	0	911212544	48	6141
2026-01-05 01:15:56.68	301.89	39.29	-38.4	-39.3	23.6	0.00e+00	0	30	0	918552576	50	5961
2026-01-05 01:16:00.71	303.24	38.61	-39.6	-40.6	22.5	0.00e+00	0	30	0	925892608	50	6889
2026-01-05 01:16:04.75	304.54	37.92	-37.6	-38.4	24.1	0.00e+00	0	30	0	933232640	48	6029
2026-01-05 01:16:08.79	305.79	37.23	-40.3	-41.4	21.8	0.00e+00	0	30	0	941621248	54	6019
2026-01-05 01:16:12.83	306.98	36.54	-40.0	-41.0	22.5	0.00e+00	0	30	0	948961280	52	6425
2026-01-05 01:16:16.86	308.12	35.86	-40.3	-41.4	21.9	0.00e+00	0	30	0	956301312	54	6023
2026-01-05 01:16:20.90	309.22	35.17	-39.7	-40.6	22.9	0.00e+00	0	30	0	963641344	50	6923
2026-01-05 01:16:24.94	310.28	34.49	-40.4	-41.5	21.6	0.00e+00	0	30	0	970981376	54	6059
2026-01-05 01:16:28.97	311.29	33.82	-40.0	-41.0	22.7	0.00e+00	0	30	0	979369984	52	6395
2026-01-05 01:16:33.00	312.26	33.15	-42.1	-43.7	19.8	0.00e+00	0	30	0	986710016	56	6935
2026-01-05 01:16:37.04	313.20	32.48	-39.4	-40.2	23.6	0.00e+00	0	30	0	994050048	50	6615
2026-01-05 01:16:41.08	314.09	31.83	-42.6	-44.3	18.8	0.00e+00	0	30	0	1001390080	56	7452
2026-01-05 01:16:45.13	314.96	31.18	-39.3	-40.3	22.7	0.00e+00	0	30	0	1009778688	52	5925
2026-01-05 01:16:49.16	315.79	30.53	-38.3	-39.2	23.5	0.00e+00	0	30	0	1017118720	50	5851
2026-01-05 01:16:53.20	316.59	29.90	-40.7	-41.9	21.3	0.00e+00	0	30	0	1024458752	54	6373
2026-01-05 01:16:57.23	317.35	29.28	-39.2	-40.1	23.0	0.00e+00	0	30	0	1031798784	52	5801
2026-01-05 01:17:01.27	318.09	28.66	-39.6	-40.6	22.5	0.00e+00	0	30	0	1039138816	52	6131
2026-01-05 01:17:05.31	318.81	28.05	-39.6	-40.6	22.8	0.00e+00	0	30	0	1047527424	52	6110
2026-01-05 01:17:09.35	319.49	27.45	-37.1	-37.9	24.4	0.00e+00	0	30	0	1054867456	48	5657
2026-01-05 01:17:13.38	320.16	26.86	-37.8	-38.6	24.1	0.00e+00	0	30	0	1062207488	48	6164
2026-01-05 01:17:17.42	320.80	26.28	-38.4	-39.3	23.2	0.00e+00	0	30	0	1069547520	50	5957
2026-01-05 01:17:21.46	321.41	25.71	-37.8	-38.7	23.6	0.00e+00	0	30	0	1077936128	50	5548
2026-01-05 01:17:25.50	322.01	25.14	-37.9	-38.8	23.9	0.00e+00	0	30	0	1085276160	48	6268
2026-01-05 01:17:29.53	322.59	24.59	-37.8	-38.6	23.7	0.00e+00	0	30	0	1092616192	48	6172
2026-01-05 01:17:33.57	323.14	24.04	-38.7	-39.7	22.9	0.00e+00	0	30	0	1099956224	50	6179
2026-01-05 01:17:37.61	323.68	23.50	-39.4	-40.4	22.5	0.00e+00	0	30	0	1107296256	50	6752
2026-01-05 01:17:41.65	324.20	22.97	-38.2	-39.1	23.4	0.00e+00	0	30	0	1115684864	50	5811
2026-01-05 01:17:45.69	324.71	22.45	-38.3	-39.2	23.4	0.00e+00	0	30	0	1123024896	50	5843
2026-01-05 01:17:49.72	325.20	21.94	-38.6	-39.6	23.1	0.00e+00	0	30	0	1130364928	50	6112
2026-01-05 01:17:53.76	325.67	21.44	-38.5	-39.4	23.3	0.00e+00	0	30	0	1137704960	50	6024
2026-01-05 01:17:57.80	326.13	20.94	-38.0	-38.9	23.5	0.00e+00	0	30	0	1145044992	50	5672
2026-01-05 01:18:01.83	326.57	20.46	-38.3	-39.2	23.3	0.00e+00	0	30	0	1153433600	50	5886
2026-01-05 01:18:05.87	327.01	19.97	-38.5	-39.4	23.1	0.00e+00	0	30	0	1160773632	50	6000
2026-01-05 01:18:09.91	327.43	19.50	-38.6	-39.6	23.0	0.00e+00	0	30	0	1168113664	50	6128
2026-01-05 01:18:13.95	327.83	19.04	-38.9	-39.9	22.7	0.00e+00	0	30	0	1175453696	50	6321
2026-01-05 01:18:17.99	328.23	18.58	-39.0	-40.1	22.5	0.00e+00	0	30	0	1183842304	50	6478
2026-01-05 01:18:22.02	328.61	18.13	-39.2	-40.3	22.3	0.00e+00	0	30	0	1191182336	50	6629
2026-01-05 01:18:26.06	328.99	17.69	-39.2	-40.2	22.4	0.00e+00	0	30	0	1198522368	50	6547
2026-01-05 01:18:30.10	329.35	17.25	-39.0	-40.0	22.5	0.00e+00	0	30	0	1205862400	50	6444
2026-01-05 01:18:34.14	329.71	16.82	-39.1	-40.1	22.5	0.00e+00	0	30	0	1213202432	50	6521
2026-01-05 01:18:38.18	330.05	16.40	-38.5	-39.5	22.9	0.00e+00	0	30	0	1221591040	50	6051
2026-01-05 01:18:42.21	330.39	15.98	-38.6	-39.6	22.9	0.00e+00	0	30	0	1228931072	50	6114
2026-01-05 01:18:46.25	330.71	15.57	-38.5	-39.5	22.9	0.00e+00	0	30	0	1236271104	50	6041
2026-01-05 01:18:50.29	331.03	15.16	-38.4	-39.3	23.0	0.00e+00	0	30	0	1243611136	50	5953
2026-01-05 01:18:54.33	331.34	14.77	-39.1	-40.1	22.6	0.00e+00	0	30	0	1251999744	50	6498
2026-01-05 01:18:58.37	331.65	14.37	-39.6	-40.7	22.0	0.00e+00	0	30	0	1259339776	50	6940
2026-01-05 01:19:02.41	331.94	13.98	-39.7	-40.8	21.7	0.00e+00	0	30	0	1266679808	52	6267
2026-01-05 01:19:06.45	332.23	13.60	-39.6	-40.8	21.7	0.00e+00	0	30	0	1274019840	52	6252
2026-01-05 01:19:10.49	332.51	13.23	-39.4	-40.4	22.0	0.00e+00	0	30	0	1281359872	52	6019
2026-01-05 01:19:14.53	332.79	12.85	-39.0	-40.0	22.3	0.00e+00	0	30	0	1289748480	52	5754
2026-01-05 01:19:18.57	333.06	12.49	-38.6	-39.6	22.7	0.00e+00	0	30	0	1297088512	50	6138
2026-01-05 01:19:22.61	333.32	12.13	-38.6	-39.6	22.6	0.00e+00	0	30	0	1304428544	50	6128
2026-01-05 01:19:26.65	333.58	11.77	-38.9	-39.9	22.3	0.00e+00	0	30	0	1311768576	50	6343
2026-01-05 01:19:30.69	333.83	11.42	-39.3	-40.4	21.9	0.00e+00	0	30	0	1320157184	50	6721
2026-01-05 01:19:34.74	334.08	11.07	-39.9	-41.1	21.3	0.00e+00	0	30	0	1327497216	52	6509
2026-01-05 01:19:38.78	334.32	10.73	-40.2	-41.4	21.0	0.00e+00	0	30	0	1334837248	52	6734
2026-01-05 01:19:42.82	334.55	10.39	-40.2	-41.4	20.8	0.00e+00	0	30	0	1342177280	52	6764
2026-01-05 01:19:46.85	334.78	10.05	-40.1	-41.3	21.0	0.00e+00	0	30	0	1349517312	52	6670
2026-01-05 01:19:50.89	335.01	9.72	-40.1	-41.3	21.2	0.00e+00	0	30	0	1357905920	52	6626
2026-01-05 01:19:54.93	335.23	9.40	-39.9	-41.1	21.2	0.00e+00	0	30	0	1365245952	52	6521
2026-01-05 01:19:58.97	335.45	9.08	-39.9	-41.1	21.3	0.00e+00	0	30	0	1372585984	52	6479
2026-01-05 01:20:03.00	335.66	8.76	-39.8	-40.9	21.2	0.00e+00	0	30	0	1379926016	52	6388
2026-01-05 01:20:07.04	335.87	8.44	-39.6	-40.8	21.3	0.00e+00	0	30	0	1388314624	52	6261
2026-01-05 01:20:11.08	336.07	8.13	-40.6	-41.9	20.4	0.00e+00	0	30	0	1395654656	52	7158
2026-01-05 01:20:15.12	336.27	7.82	-40.1	-41.4	20.6	0.00e+00	0	30	0	1402994688	54	6001
2026-01-05 01:20:19.16	336.47	7.52	-39.9	-41.2	20.7	0.00e+00	0	30	0	1410334720	52	6555
2026-01-05 01:20:23.19	336.66	7.22	-41.0	-42.5	19.3	0.00e+00	0	30	0	1417674752	54	6778
2026-01-05 01:20:27.23	336.85	6.92	-40.4	-41.7	20.0	0.00e+00	0	30	0	1426063360	54	6233
2026-01-05 01:20:31.27	337.03	6.63	-40.8	-42.3	19.6	0.00e+00	0	30	0	1433403392	54	6658
2026-01-05 01:20:35.31	337.22	6.34	-40.7	-42.2	19.6	0.00e+00	0	30	0	1440743424	54	6567
2026-01-05 01:20:39.34	337.40	6.05	-40.9	-42.5	19.1	0.00e+00	0	30	0	1448083456	54	6807
2026-01-05 01:20:43.39	337.57	5.76	-40.9	-42.6	18.7	0.00e+00	0	30	0	1456472064	54	6875
2026-01-05 01:20:47.42	337.75	5.48	-41.7	-43.6	17.6	0.00e+00	0	30	0	1463812096	56	6888
2026-01-05 01:20:51.46	337.92	5.20	-42.2	-44.6	16.0	0.00e+00	0	30	0	1471152128	56	7760
2026-01-05 01:20:55.50	338.08	4.92	-42.8	-46.0	13.8	5.30e-06	0	30	0	1478492160	58	8119
2026-01-05 01:20:59.54	338.25	4.65	-43.4	-48.1	10.8	1.97e-03	0	30	0	1485832192	58	10327
2026-01-05 01:21:03.58	338.41	4.38	-43.6	-50.2	7.6	6.06e-02	0	30	0	1494220800	58	13116
2026-01-05 01:21:07.61	338.57	4.11	-43.7	-53.3	4.2	8.96e-01	0	30	0	1501560832	60	16688
2026-01-05 01:21:11.65	338.73	3.84	-43.7	-56.9	3.7	1.50e+00	0	30	104	1502609408	60	25438
2026-01-05 01:21:15.69	338.88	3.58	-43.7	-58.2	3.6	1.51e+00	0	30	104	1502609408	60	29284
2026-01-05 01:21:19.73	339.03	3.32	-43.7	-58.6	3.6	1.51e+00	0	30	104	1502609408	60	30729
2026-01-05 01:21:23.76	339.18	3.06	-43.6	-58.7	3.6	1.51e+00	0	30	104	1502609408	60	31037
2026-01-05 01:21:27.81	339.33	2.80	-48.4	-63.6	3.6	1.51e+00	0	30	104	1502609408	60	54953
2026-01-05 01:21:31.85	339.48	2.55	-48.9	-64.0	3.6	1.51e+00	0	30	104	1502609408	60	57606
2026-01-05 01:21:35.89	339.62	2.29	-48.9	-64.1	3.6	1.51e+00	0	30	104	1502609408	60	57974
2026-01-05 01:21:39.93	339.76	2.04	-48.7	-63.8	3.6	1.51e+00	0	30	104	1502609408	60	56248
2026-01-05 01:21:43.97	339.90	1.80	-49.0	-64.2	3.6	1.51e+00	0	30	104	1502609408	60	58525
2026-01-05 01:21:48.00	340.04	1.55	-49.1	-64.3	3.6	1.51e+00	0	30	104	1502609408	60	59391
2026-01-05 01:21:52.04	340.17	1.31	-49.0	-64.2	3.6	1.51e+00	0	30	104	1502609408	60	58372
2026-01-05 01:21:56.08	340.30	1.06	-49.5	-64.7	3.6	1.51e+00	0	30	104	1502609408	60	62110
2026-01-05 01:22:00.12	340.44	0.82	-49.3	-64.5	3.6	1.51e+00	0	30	104	1502609408	60	60612
2026-01-05 01:22:04.15	340.56	0.58	-49.0	-64.2	3.6	1.51e+00	0	30	104	1502609408	60	58359
2026-01-05 01:22:08.20	340.69	0.35	-49.3	-64.5	3.6	1.51e+00	0	30	104	1502609408	60	60569
2026-01-05 01:22:12.24	340.82	0.11	-49.4	-64.5	3.6	1.51e+00	0	30	104	1502609408	60	60822

#Closed at: 2026-01-05 01:22:15
#Recorded file [1502 MB]: D:/lorett/data/35029_260105_130655.dat