passes_logs/2026/01/05/R4.6S_Anadyr/R4.6S_Anadyr__20260105_033342_FENGYUN_3E_rec.log

#Pass ID: 20260105_033342_FENGYUN 3E
#Satellite: FENGYUN 3E
#Configuration: FENGYUN 3E
#almurnet v.1.7.20251203
#Start time: 2026-01-05 03:33:44

#Version: 2.2.20231116
#Station: R4.6S_Anadyr
#Location: 177.4865 lon 64.73178 lat
#TLE: 1 49008U 21062A   26003.51942929 -.00000034  00000+0  45519-5 0  9990
#TLE: 2 49008  98.7472   8.7829 0001426 160.7926 199.3304 14.19883272233213

#Time	Az	El	Level	Level2	SNR	BER	BlckErr	Temp	State	Recorded	gain1	gain2
2026-01-05 03:33:44.29	133.27	0.13	-49.7	-64.7	3.6	1.51e+00	0	24	0	0	60	61788
2026-01-05 03:33:48.33	133.18	0.37	-48.8	-60.1	3.6	8.46e-01	0	26	104	0	60	36393
2026-01-05 03:33:52.37	133.09	0.61	-48.7	-59.9	3.6	8.45e-01	0	26	104	0	60	35888
2026-01-05 03:33:56.41	132.99	0.86	-48.1	-59.6	3.6	8.46e-01	0	26	104	0	60	34682
2026-01-05 03:34:00.44	132.89	1.10	-47.5	-58.7	3.6	8.46e-01	0	26	104	0	60	31158
2026-01-05 03:34:04.48	132.80	1.35	-47.0	-58.3	3.6	8.44e-01	0	26	104	0	60	29678
2026-01-05 03:34:08.51	132.70	1.60	-47.0	-58.2	3.6	8.44e-01	0	26	104	0	60	29407
2026-01-05 03:34:12.55	132.60	1.86	-47.2	-58.5	3.6	8.45e-01	0	26	104	0	60	30527
2026-01-05 03:34:16.59	132.49	2.11	-47.3	-58.1	3.6	8.45e-01	0	26	104	0	60	29062
2026-01-05 03:34:20.63	132.39	2.37	-47.1	-58.3	3.6	8.45e-01	0	26	104	0	60	29755
2026-01-05 03:34:24.66	132.28	2.63	-47.1	-58.1	3.6	8.45e-01	0	27	104	0	60	29018
2026-01-05 03:34:28.70	132.17	2.89	-46.8	-57.2	3.6	8.44e-01	0	26	104	0	60	26200
2026-01-05 03:34:32.74	132.06	3.15	-47.2	-58.2	3.6	8.45e-01	0	26	104	0	60	29350
2026-01-05 03:34:36.78	131.94	3.42	-45.6	-50.0	8.5	3.95e-02	0	27	0	13631488	60	11470
2026-01-05 03:34:40.82	131.83	3.69	-41.8	-43.7	13.4	1.10e-06	0	27	0	42991616	54	7800
2026-01-05 03:34:44.85	131.71	3.96	-47.0	-57.6	3.6	5.87e-01	0	27	104	55574528	60	27498
2026-01-05 03:34:48.89	131.59	4.23	-35.4	-36.2	21.3	0.00e+00	0	27	0	71303168	44	5839
2026-01-05 03:34:52.93	131.46	4.51	-34.9	-35.7	22.0	0.00e+00	0	27	0	100663296	42	6181
2026-01-05 03:34:56.97	131.34	4.79	-34.1	-34.8	22.6	0.00e+00	0	27	0	130023424	42	5599
2026-01-05 03:35:01.01	131.21	5.07	-33.9	-34.5	22.9	0.00e+00	0	27	0	158334976	42	5429
2026-01-05 03:35:05.05	131.08	5.35	-34.1	-34.8	22.8	0.00e+00	0	27	0	187695104	40	6248
2026-01-05 03:35:09.09	130.94	5.64	-33.7	-34.3	23.3	0.00e+00	0	27	0	217055232	40	5947
2026-01-05 03:35:13.13	130.80	5.93	-33.6	-34.2	23.1	0.00e+00	0	27	0	246415360	40	5891
2026-01-05 03:35:17.17	130.66	6.23	-33.5	-34.1	23.3	0.00e+00	0	27	0	275775488	40	5825
2026-01-05 03:35:21.46	130.51	6.54	-33.4	-34.1	23.4	0.00e+00	0	27	0	305135616	40	5780
2026-01-05 03:35:25.50	130.36	6.84	-33.4	-34.1	23.6	0.00e+00	0	27	0	333447168	40	5783
2026-01-05 03:35:29.54	130.21	7.15	-35.3	-36.1	21.5	0.00e+00	0	27	0	362807296	42	6481
2026-01-05 03:35:33.58	130.06	7.46	-33.7	-34.3	23.6	0.00e+00	0	27	0	392167424	40	5957
2026-01-05 03:35:37.62	129.90	7.77	-34.1	-34.8	23.5	0.00e+00	0	27	0	421527552	40	6273
2026-01-05 03:35:41.65	129.74	8.08	-33.4	-34.1	23.8	0.00e+00	0	27	0	449839104	40	5771
2026-01-05 03:35:45.70	129.57	8.40	-33.4	-34.1	23.8	0.00e+00	0	27	0	479199232	40	5797
2026-01-05 03:35:49.74	129.40	8.72	-33.3	-34.0	24.1	0.00e+00	0	27	0	508559360	40	5719
2026-01-05 03:35:53.78	129.23	9.05	-33.1	-33.8	24.1	0.00e+00	0	27	0	537919488	40	5602
2026-01-05 03:35:57.82	129.05	9.38	-32.7	-33.3	24.2	0.00e+00	0	27	0	567279616	38	5960
2026-01-05 03:36:01.86	128.87	9.71	-32.5	-33.1	24.5	0.00e+00	0	27	0	596639744	38	5807
2026-01-05 03:36:05.90	128.69	10.05	-32.5	-33.1	24.5	0.00e+00	0	27	0	624951296	38	5809
2026-01-05 03:36:09.94	128.49	10.40	-32.3	-33.0	24.8	0.00e+00	0	27	0	654311424	38	5716
2026-01-05 03:36:13.98	128.30	10.74	-32.5	-33.1	24.7	0.00e+00	0	27	0	683671552	38	5789
2026-01-05 03:36:18.02	128.10	11.10	-32.2	-32.8	24.9	0.00e+00	0	27	0	713031680	38	5624
2026-01-05 03:36:22.06	127.89	11.45	-32.1	-32.7	24.9	0.00e+00	0	27	0	742391808	38	5534
2026-01-05 03:36:26.10	127.68	11.81	-32.1	-32.7	25.0	0.00e+00	0	27	0	770703360	38	5529
2026-01-05 03:36:30.14	127.46	12.18	-31.8	-32.4	25.3	0.00e+00	0	27	0	800063488	36	5990
2026-01-05 03:36:34.18	127.24	12.55	-31.7	-32.3	25.4	0.00e+00	0	27	0	829423616	36	5948
2026-01-05 03:36:38.23	127.01	12.93	-31.9	-32.5	25.4	0.00e+00	0	27	0	858783744	36	6095
2026-01-05 03:36:42.27	126.78	13.31	-31.5	-32.1	25.7	0.00e+00	0	27	0	888143872	36	5814
2026-01-05 03:36:46.31	126.53	13.70	-32.3	-33.0	25.3	0.00e+00	0	27	0	917504000	38	5697
2026-01-05 03:36:50.35	126.29	14.10	-32.3	-33.0	25.4	0.00e+00	0	27	0	945815552	38	5700
2026-01-05 03:36:54.39	126.03	14.50	-32.9	-33.5	24.7	0.00e+00	0	27	0	975175680	38	6103
2026-01-05 03:36:58.43	125.77	14.90	-32.1	-32.7	25.9	0.00e+00	0	27	0	1004535808	38	5520
2026-01-05 03:37:02.47	125.50	15.31	-32.0	-32.6	25.7	0.00e+00	0	27	0	1033895936	36	6115
2026-01-05 03:37:06.50	125.22	15.73	-31.5	-32.1	25.9	0.00e+00	0	27	0	1062207488	36	5800
2026-01-05 03:37:10.54	124.93	16.16	-31.6	-32.2	25.7	0.00e+00	0	27	0	1091567616	38	5252
2026-01-05 03:37:14.58	124.64	16.59	-31.3	-31.9	26.3	0.00e+00	0	27	0	1120927744	36	5667
2026-01-05 03:37:18.61	124.33	17.03	-30.8	-31.4	26.3	0.00e+00	0	27	0	1150287872	34	5992
2026-01-05 03:37:22.65	124.02	17.47	-30.1	-30.7	26.9	0.00e+00	0	27	0	1179648000	34	5563
2026-01-05 03:37:26.69	123.70	17.93	-31.2	-31.9	25.9	0.00e+00	0	27	0	1207959552	34	6319
2026-01-05 03:37:30.73	123.36	18.39	-30.0	-30.5	27.0	0.00e+00	0	27	0	1237319680	34	5436
2026-01-05 03:37:34.77	123.02	18.86	-30.3	-30.9	26.7	0.00e+00	0	27	0	1266679808	34	5677
2026-01-05 03:37:38.81	122.66	19.33	-29.8	-30.4	27.3	0.00e+00	0	27	0	1296039936	34	5327
2026-01-05 03:37:42.85	122.30	19.82	-30.7	-31.3	26.6	0.00e+00	0	27	0	1325400064	34	5950
2026-01-05 03:37:46.90	121.91	20.31	-31.3	-31.9	26.6	0.00e+00	0	27	0	1354760192	34	6334
2026-01-05 03:37:50.93	121.52	20.81	-30.0	-30.6	27.3	0.00e+00	0	27	0	1383071744	34	5462
2026-01-05 03:37:54.97	121.12	21.32	-29.6	-30.2	27.5	0.00e+00	0	27	0	1412431872	32	5869
2026-01-05 03:37:59.01	120.70	21.84	-29.5	-30.0	27.5	0.00e+00	0	27	0	1441792000	32	5757
2026-01-05 03:38:03.05	120.26	22.37	-30.0	-30.6	27.3	0.00e+00	0	27	0	1471152128	32	6167
2026-01-05 03:38:07.09	119.81	22.90	-30.0	-30.6	27.2	0.00e+00	0	27	0	1500512256	32	6133
2026-01-05 03:38:11.14	119.34	23.45	-29.5	-30.1	27.3	0.00e+00	0	27	0	1528823808	32	5792
2026-01-05 03:38:15.18	118.86	24.01	-30.4	-31.0	26.9	0.00e+00	0	27	0	1558183936	32	6395
2026-01-05 03:38:19.21	118.36	24.57	-30.1	-30.7	27.0	0.00e+00	0	27	0	1587544064	32	6223
2026-01-05 03:38:23.26	117.84	25.15	-30.1	-30.7	27.0	0.00e+00	0	27	0	1616904192	32	6196
2026-01-05 03:38:27.30	117.30	25.73	-29.9	-30.5	26.9	0.00e+00	0	27	0	1646264320	32	6035
2026-01-05 03:38:31.33	116.74	26.33	-29.8	-30.4	27.6	0.00e+00	0	27	0	1675624448	32	5975
2026-01-05 03:38:35.37	116.15	26.93	-29.8	-30.4	27.4	0.00e+00	0	27	0	1703936000	34	5344
2026-01-05 03:38:39.41	115.55	27.55	-28.8	-29.4	28.1	0.00e+00	0	27	0	1733296128	30	6005
2026-01-05 03:38:43.45	114.92	28.17	-29.0	-29.5	28.0	0.00e+00	0	27	0	1762656256	30	6071
2026-01-05 03:38:47.49	114.26	28.81	-28.3	-28.9	28.3	0.00e+00	0	27	0	1792016384	30	5666
2026-01-05 03:38:51.53	113.57	29.46	-29.1	-29.7	27.5	0.00e+00	0	27	0	1821376512	30	6245
2026-01-05 03:38:55.57	112.86	30.11	-29.1	-29.7	27.9	0.00e+00	0	27	0	1849688064	32	5530
2026-01-05 03:38:59.61	112.12	30.78	-29.4	-30.0	27.7	0.00e+00	0	27	0	1879048192	32	5746
2026-01-05 03:39:03.65	111.34	31.46	-30.1	-30.7	27.2	0.00e+00	0	27	0	1908408320	32	6217
2026-01-05 03:39:07.69	110.54	32.14	-29.4	-30.0	27.9	0.00e+00	0	27	0	1937768448	32	5701
2026-01-05 03:39:11.72	109.69	32.83	-28.8	-29.4	28.2	0.00e+00	0	27	0	1967128576	32	5352
2026-01-05 03:39:15.77	108.81	33.54	-28.6	-29.1	28.3	0.00e+00	0	27	0	1996488704	30	5819
2026-01-05 03:39:19.81	107.89	34.25	-30.3	-30.9	27.1	0.00e+00	0	27	0	2024800256	32	6365
2026-01-05 03:39:23.85	106.93	34.97	-29.7	-30.3	27.6	0.00e+00	0	27	0	2054160384	32	5918
2026-01-05 03:39:27.89	105.92	35.70	-28.8	-29.4	28.2	0.00e+00	0	27	0	2083520512	32	5348
2026-01-05 03:39:31.93	104.87	36.43	-29.0	-29.6	28.2	0.00e+00	0	27	0	2112880640	30	6115
2026-01-05 03:39:35.97	103.76	37.17	-29.3	-29.9	28.0	0.00e+00	0	27	0	2142240768	30	6340
2026-01-05 03:39:40.01	102.61	37.91	-30.2	-30.9	27.1	0.00e+00	0	27	0	2170552320	32	6323
2026-01-05 03:39:44.04	101.40	38.65	-29.4	-30.0	27.6	0.00e+00	0	27	0	2199912448	32	5754
2026-01-05 03:39:48.08	100.14	39.39	-29.7	-30.2	27.7	0.00e+00	0	27	0	2229272576	32	5887
2026-01-05 03:39:52.12	98.81	40.14	-29.1	-29.6	28.0	0.00e+00	0	27	0	2258632704	32	5491
2026-01-05 03:39:56.16	97.43	40.88	-30.0	-30.6	27.7	0.00e+00	0	27	0	2287992832	32	6129
2026-01-05 03:40:00.21	95.97	41.61	-29.5	-30.0	27.8	0.00e+00	0	27	0	2316304384	32	5758
2026-01-05 03:40:04.25	94.45	42.34	-28.9	-29.5	28.3	0.00e+00	0	27	0	2345664512	30	6062
2026-01-05 03:40:08.29	92.86	43.06	-29.1	-29.6	28.1	0.00e+00	0	27	0	2375024640	30	6173
2026-01-05 03:40:12.33	91.20	43.77	-29.2	-29.8	27.9	0.00e+00	0	27	0	2404384768	30	6282
2026-01-05 03:40:16.37	89.46	44.46	-29.2	-29.7	27.9	0.00e+00	0	27	0	2433744896	30	6241
2026-01-05 03:40:20.41	87.65	45.13	-29.0	-29.6	27.9	0.00e+00	0	27	0	2462056448	30	6125
2026-01-05 03:40:24.44	85.76	45.78	-29.7	-30.3	27.4	0.00e+00	0	27	0	2491416576	30	6653
2026-01-05 03:40:28.48	83.79	46.40	-29.3	-29.9	27.6	0.00e+00	0	27	0	2520776704	30	6346
2026-01-05 03:40:32.52	81.75	46.99	-30.4	-31.0	27.2	0.00e+00	0	27	0	2550136832	32	6413
2026-01-05 03:40:36.56	79.62	47.55	-30.2	-30.7	27.3	0.00e+00	0	27	0	2579496960	32	6239
2026-01-05 03:40:40.61	77.42	48.07	-30.5	-31.1	27.1	0.00e+00	0	27	0	2607808512	34	5790
2026-01-05 03:40:44.64	75.15	48.55	-30.2	-30.8	27.4	0.00e+00	0	27	0	2637168640	34	5579
2026-01-05 03:40:48.68	72.81	48.98	-31.0	-31.6	26.6	0.00e+00	0	27	0	2666528768	34	6163
2026-01-05 03:40:52.72	70.41	49.37	-30.0	-30.6	27.3	0.00e+00	0	27	0	2695888896	34	5455
2026-01-05 03:40:56.76	67.95	49.70	-30.7	-31.3	26.5	0.00e+00	0	27	0	2725249024	34	5936
2026-01-05 03:41:00.80	65.44	49.98	-29.9	-30.5	27.2	0.00e+00	0	27	0	2753560576	34	5387
2026-01-05 03:41:04.84	62.89	50.20	-30.3	-30.9	27.1	0.00e+00	0	27	0	2782920704	34	5662
2026-01-05 03:41:08.88	60.31	50.35	-30.3	-30.9	27.1	0.00e+00	0	27	0	2812280832	32	6345
2026-01-05 03:41:12.92	57.70	50.45	-30.2	-30.8	27.1	0.00e+00	0	27	0	2841640960	34	5571
2026-01-05 03:41:16.96	55.09	50.48	-31.9	-32.5	26.2	0.00e+00	0	27	0	2871001088	34	6804
2026-01-05 03:41:21.00	52.47	50.45	-29.6	-30.2	27.3	0.00e+00	0	27	0	2899312640	32	5842
2026-01-05 03:41:25.04	49.87	50.36	-30.1	-30.7	26.7	0.00e+00	0	27	0	2928672768	32	6223
2026-01-05 03:41:29.07	47.29	50.20	-29.9	-30.5	27.2	0.00e+00	0	27	0	2958032896	32	6045
2026-01-05 03:41:33.12	44.73	49.99	-29.8	-30.4	27.4	0.00e+00	0	27	0	2987393024	32	5980
2026-01-05 03:41:37.16	42.22	49.71	-30.5	-31.1	26.7	0.00e+00	0	27	0	3016753152	32	6512
2026-01-05 03:41:41.20	39.76	49.38	-30.2	-30.8	27.1	0.00e+00	0	27	0	3046113280	34	5593
2026-01-05 03:41:45.24	37.36	49.00	-29.5	-30.1	27.6	0.00e+00	0	27	0	3074424832	32	5790
2026-01-05 03:41:49.28	35.02	48.57	-30.5	-31.1	27.0	0.00e+00	0	27	0	3103784960	34	5815
2026-01-05 03:41:53.31	32.75	48.09	-29.5	-30.0	27.6	0.00e+00	0	27	0	3133145088	32	5754
2026-01-05 03:41:57.35	30.56	47.58	-29.8	-30.4	27.8	0.00e+00	0	27	0	3162505216	32	5985
2026-01-05 03:42:01.39	28.43	47.02	-29.7	-30.3	27.5	0.00e+00	0	27	0	3191865344	32	5928
2026-01-05 03:42:05.43	26.39	46.43	-29.4	-29.9	27.7	0.00e+00	0	27	0	3220176896	32	5692
2026-01-05 03:42:09.46	24.42	45.81	-28.9	-29.5	28.2	0.00e+00	0	27	0	3249537024	30	6065
2026-01-05 03:42:13.50	22.53	45.16	-30.5	-31.2	25.1	0.00e+00	0	27	0	3278897152	34	5848
2026-01-05 03:42:17.54	20.72	44.50	-29.7	-30.2	27.7	0.00e+00	0	27	0	3308257280	32	5896
2026-01-05 03:42:21.58	18.98	43.81	-29.0	-29.5	27.8	0.00e+00	0	27	0	3337617408	32	5421
2026-01-05 03:42:25.62	17.32	43.10	-28.7	-29.2	28.3	0.00e+00	0	27	0	3366977536	30	5887
2026-01-05 03:42:29.67	15.72	42.39	-28.9	-29.5	28.1	0.00e+00	0	27	0	3395289088	30	6065
2026-01-05 03:42:33.70	14.21	41.66	-29.0	-29.6	27.9	0.00e+00	0	27	0	3424649216	30	6108
2026-01-05 03:42:37.75	12.75	40.93	-28.7	-29.2	28.2	0.00e+00	0	27	0	3454009344	30	5894
2026-01-05 03:42:41.78	11.37	40.19	-28.6	-29.2	28.2	0.00e+00	0	27	0	3483369472	30	5860
2026-01-05 03:42:45.83	10.04	39.45	-28.7	-29.3	28.2	0.00e+00	0	27	0	3512729600	30	5936
2026-01-05 03:42:49.87	8.78	38.71	-29.2	-29.8	27.6	0.00e+00	0	27	0	3541041152	30	6273
2026-01-05 03:42:53.90	7.57	37.97	-28.9	-29.4	28.1	0.00e+00	0	27	0	3570401280	32	5373
2026-01-05 03:42:57.94	6.42	37.23	-28.9	-29.5	27.7	0.00e+00	0	27	0	3599761408	30	6040
2026-01-05 03:43:01.98	5.32	36.49	-29.1	-29.7	27.9	0.00e+00	0	27	0	3629121536	30	6176
2026-01-05 03:43:06.02	4.26	35.76	-29.0	-29.6	28.0	0.00e+00	0	27	0	3658481664	32	5480
2026-01-05 03:43:10.06	3.26	35.04	-28.4	-29.0	28.5	0.00e+00	0	27	0	3687841792	30	5698
2026-01-05 03:43:14.11	2.29	34.32	-28.8	-29.3	28.0	0.00e+00	0	27	0	3716153344	30	5959
2026-01-05 03:43:18.15	1.37	33.61	-28.6	-29.1	28.2	0.00e+00	0	27	0	3745513472	30	5817
2026-01-05 03:43:22.19	0.49	32.91	-28.6	-29.2	28.3	0.00e+00	0	27	0	3774873600	30	5840
2026-01-05 03:43:26.23	359.65	32.21	-28.6	-29.2	28.2	0.00e+00	0	27	0	3804233728	30	5895
2026-01-05 03:43:30.27	358.84	31.53	-28.7	-29.3	27.9	0.00e+00	0	27	0	3833593856	30	5915
2026-01-05 03:43:34.30	358.07	30.86	-28.5	-29.0	28.2	0.00e+00	0	27	0	3861905408	30	5746
2026-01-05 03:43:38.35	357.33	30.19	-28.6	-29.2	27.9	0.00e+00	0	27	0	3891265536	30	5851
2026-01-05 03:43:42.38	356.62	29.54	-29.3	-29.9	27.7	0.00e+00	0	27	0	3920625664	32	5664
2026-01-05 03:43:46.42	355.93	28.89	-28.9	-29.5	27.8	0.00e+00	0	27	0	3949985792	32	5412
2026-01-05 03:43:50.46	355.28	28.26	-28.9	-29.5	27.8	0.00e+00	0	27	0	3979345920	32	5406
2026-01-05 03:43:54.50	354.65	27.63	-29.0	-29.6	27.9	0.00e+00	0	27	0	4007657472	32	5462
2026-01-05 03:43:58.54	354.04	27.02	-29.2	-29.8	27.9	0.00e+00	0	27	0	4037017600	32	5595
2026-01-05 03:44:02.58	353.46	26.42	-29.6	-30.2	27.4	0.00e+00	0	27	0	4066377728	32	5832
2026-01-05 03:44:06.62	352.90	25.82	-30.4	-31.0	27.1	0.00e+00	0	27	0	4095737856	34	5730
2026-01-05 03:44:10.66	352.36	25.24	-29.6	-30.1	27.5	0.00e+00	0	27	0	4124049408	32	5828
2026-01-05 03:44:14.69	351.84	24.67	-30.9	-31.5	26.9	0.00e+00	0	27	0	4153409536	34	6079
2026-01-05 03:44:18.73	351.34	24.10	-30.0	-30.6	27.2	0.00e+00	0	27	0	4182769664	32	6153
2026-01-05 03:44:22.77	350.86	23.55	-29.7	-30.3	27.4	0.00e+00	0	27	0	4212129792	32	5901
2026-01-05 03:44:26.81	350.39	23.00	-29.5	-30.1	27.5	0.00e+00	0	27	0	4241489920	32	5768
2026-01-05 03:44:30.85	349.94	22.47	-29.3	-29.9	27.7	0.00e+00	0	27	0	4269801472	32	5643
2026-01-05 03:44:34.89	349.51	21.94	-29.3	-29.9	27.7	0.00e+00	0	27	0	4299161600	32	5674
2026-01-05 03:44:38.93	349.09	21.42	-29.4	-29.9	27.6	0.00e+00	0	27	0	4328521728	32	5691
2026-01-05 03:44:42.97	348.69	20.91	-29.9	-30.5	27.1	0.00e+00	0	27	0	4357881856	32	6038
2026-01-05 03:44:47.01	348.30	20.41	-30.1	-30.7	27.0	0.00e+00	0	27	0	4387241984	32	6239
2026-01-05 03:44:51.05	347.92	19.92	-30.2	-30.8	26.8	0.00e+00	0	27	0	4415553536	32	6302
2026-01-05 03:44:55.09	347.55	19.44	-30.1	-30.7	26.8	0.00e+00	0	27	0	4444913664	32	6221
2026-01-05 03:44:59.13	347.20	18.96	-30.1	-30.7	26.8	0.00e+00	0	27	0	4474273792	32	6210
2026-01-05 03:45:03.16	346.86	18.50	-30.1	-30.7	26.8	0.00e+00	0	27	0	4503633920	32	6175
2026-01-05 03:45:07.21	346.52	18.03	-30.3	-30.9	26.8	0.00e+00	0	27	0	4532994048	32	6346
2026-01-05 03:45:11.24	346.20	17.58	-30.1	-30.7	26.9	0.00e+00	0	27	0	4562354176	32	6221
2026-01-05 03:45:15.29	345.89	17.14	-30.3	-30.9	26.7	0.00e+00	0	27	0	4590665728	34	5669
2026-01-05 03:45:19.33	345.59	16.70	-30.4	-31.0	26.7	0.00e+00	0	27	0	4620025856	34	5711
2026-01-05 03:45:23.37	345.30	16.27	-30.6	-31.2	26.5	0.00e+00	0	27	0	4649385984	34	5835
2026-01-05 03:45:27.41	345.01	15.84	-30.7	-31.3	26.3	0.00e+00	0	27	0	4678746112	34	5916
2026-01-05 03:45:31.45	344.73	15.42	-31.1	-31.7	26.0	0.00e+00	0	27	0	4708106240	34	6234
2026-01-05 03:45:35.49	344.47	15.01	-31.3	-31.9	25.9	0.00e+00	0	27	0	4736417792	34	6334
2026-01-05 03:45:39.53	344.21	14.61	-31.5	-32.1	25.7	0.00e+00	0	27	0	4765777920	34	6516
2026-01-05 03:45:43.57	343.95	14.21	-31.4	-32.0	25.8	0.00e+00	0	27	0	4795138048	36	5705
2026-01-05 03:45:47.61	343.71	13.81	-31.8	-32.4	25.5	0.00e+00	0	27	0	4824498176	36	5977
2026-01-05 03:45:51.65	343.47	13.43	-31.9	-32.5	25.4	0.00e+00	0	27	0	4853858304	36	6087
2026-01-05 03:45:55.69	343.23	13.04	-32.1	-32.7	25.1	0.00e+00	0	27	0	4883218432	36	6236
2026-01-05 03:45:59.73	343.01	12.67	-32.1	-32.8	25.0	0.00e+00	0	27	0	4911529984	36	6261
2026-01-05 03:46:03.77	342.79	12.30	-32.4	-33.0	24.7	0.00e+00	0	27	0	4940890112	36	6446
2026-01-05 03:46:07.81	342.57	11.93	-32.1	-32.7	25.0	0.00e+00	0	27	0	4970250240	38	5544
2026-01-05 03:46:11.85	342.36	11.57	-32.6	-33.2	24.7	0.00e+00	0	27	0	4999610368	38	5894
2026-01-05 03:46:15.89	342.16	11.21	-32.4	-33.0	24.8	0.00e+00	0	27	0	5028970496	38	5730
2026-01-05 03:46:19.94	341.96	10.86	-32.6	-33.2	24.5	0.00e+00	0	27	0	5057282048	38	5850
2026-01-05 03:46:23.98	341.77	10.51	-32.9	-33.6	24.3	0.00e+00	0	27	0	5086642176	38	6125
2026-01-05 03:46:28.02	341.58	10.17	-32.9	-33.6	24.2	0.00e+00	0	27	0	5116002304	38	6113
2026-01-05 03:46:32.06	341.39	9.83	-33.1	-33.7	24.0	0.00e+00	0	27	0	5145362432	38	6243
2026-01-05 03:46:36.10	341.22	9.50	-33.0	-33.7	24.1	0.00e+00	0	27	0	5174722560	38	6174
2026-01-05 03:46:40.13	341.04	9.17	-33.3	-34.0	23.8	0.00e+00	0	27	0	5204082688	38	6415
2026-01-05 03:46:44.17	340.87	8.84	-33.1	-33.8	23.8	0.00e+00	0	27	0	5232394240	38	6312
2026-01-05 03:46:48.21	340.70	8.52	-33.2	-33.8	23.7	0.00e+00	0	27	0	5261754368	38	6313
2026-01-05 03:46:52.25	340.54	8.20	-33.5	-34.2	23.4	0.00e+00	0	27	0	5291114496	40	5853
2026-01-05 03:46:56.29	340.38	7.89	-33.2	-33.9	23.6	0.00e+00	0	27	0	5320474624	40	5673
2026-01-05 03:47:00.33	340.23	7.58	-33.5	-34.2	23.4	0.00e+00	0	27	0	5349834752	40	5861
2026-01-05 03:47:04.37	340.08	7.27	-33.5	-34.2	23.4	0.00e+00	0	27	0	5378146304	40	5861
2026-01-05 03:47:08.41	339.93	6.97	-34.3	-35.0	22.6	0.00e+00	0	27	0	5407506432	40	6436
2026-01-05 03:47:12.45	339.79	6.67	-33.7	-34.3	23.2	0.00e+00	0	27	0	5436866560	40	5964
2026-01-05 03:47:16.49	339.64	6.37	-34.3	-35.0	22.7	0.00e+00	0	27	0	5466226688	42	5727
2026-01-05 03:47:20.53	339.51	6.07	-34.5	-35.2	22.4	0.00e+00	0	27	0	5495586816	42	5892
2026-01-05 03:47:24.56	339.37	5.78	-34.7	-35.4	21.9	0.00e+00	0	27	0	5524946944	42	5979
2026-01-05 03:47:28.60	339.24	5.50	-35.6	-36.4	20.6	0.00e+00	0	27	0	5553258496	42	6717
2026-01-05 03:47:32.64	339.11	5.21	-37.6	-38.7	17.9	0.00e+00	0	27	0	5582618624	46	6932
2026-01-05 03:47:36.69	338.98	4.93	-37.3	-38.3	17.3	0.00e+00	0	27	0	5611978752	46	6682
2026-01-05 03:47:40.73	338.86	4.65	-39.7	-41.5	13.1	0.00e+00	0	27	0	5641338880	50	7650
2026-01-05 03:47:44.76	338.74	4.37	-41.9	-45.0	9.0	1.57e-02	0	27	0	5670699008	56	8094
2026-01-05 03:47:48.81	338.62	4.10	-42.6	-47.2	5.5	3.93e-01	0	27	0	5699010560	58	9344
2026-01-05 03:47:52.85	338.51	3.83	-43.1	-51.3	3.9	8.40e-01	0	27	104	5702156288	58	14835
2026-01-05 03:47:56.89	338.39	3.56	-43.4	-53.8	3.6	8.45e-01	0	27	104	5702156288	58	19923
2026-01-05 03:48:00.93	338.28	3.29	-43.3	-54.1	3.6	8.45e-01	0	27	104	5702156288	58	20654
2026-01-05 03:48:04.97	338.17	3.03	-43.2	-54.3	3.6	8.46e-01	0	27	104	5702156288	58	21053
2026-01-05 03:48:09.01	338.07	2.77	-48.3	-59.5	3.6	8.45e-01	0	27	104	5702156288	60	33999
2026-01-05 03:48:13.05	337.96	2.51	-48.8	-59.9	3.6	8.46e-01	0	27	104	5702156288	60	35885
2026-01-05 03:48:17.09	337.86	2.25	-48.1	-59.9	3.6	8.45e-01	0	27	104	5702156288	60	35913
2026-01-05 03:48:21.12	337.76	2.00	-49.2	-60.5	3.6	8.44e-01	0	28	104	5702156288	60	38162
2026-01-05 03:48:25.16	337.66	1.75	-49.0	-60.2	3.6	8.46e-01	0	27	104	5702156288	60	37098
2026-01-05 03:48:29.19	337.57	1.50	-49.4	-60.6	3.6	8.45e-01	0	27	104	5702156288	60	38776
2026-01-05 03:48:33.23	337.47	1.25	-49.3	-60.5	3.6	8.45e-01	0	27	104	5702156288	60	38245
2026-01-05 03:48:37.27	337.38	1.00	-49.1	-60.4	3.6	8.45e-01	0	27	104	5702156288	60	37968
2026-01-05 03:48:41.31	337.29	0.76	-49.7	-60.9	3.6	8.47e-01	0	27	104	5702156288	60	40239
2026-01-05 03:48:45.35	337.20	0.51	-48.7	-60.0	3.6	8.45e-01	0	27	104	5702156288	60	35983
2026-01-05 03:48:49.39	337.11	0.27	-49.1	-60.4	3.6	8.44e-01	0	27	104	5702156288	60	38016
2026-01-05 03:48:53.43	337.03	0.03	-48.9	-60.2	3.6	8.46e-01	0	27	104	5702156288	60	36776

#Closed at: 2026-01-05 03:48:54
#Recorded file [5702 MB]: D:/lorett/data/35029_260105_153344.dat