passes_logs/2026/01/05/R4.6S_Anadyr/R4.6S_Anadyr__20260105_024939_NOAA_20_JPSS-1_rec.log

#Pass ID: 20260105_024939_NOAA 20 (JPSS-1)
#Satellite: NOAA 20 (JPSS-1)
#Configuration: NOAA 20
#almurnet v.1.7.20251203
#Start time: 2026-01-05 02:49:42

#Version: 2.2.20231116
#Station: R4.6S_Anadyr
#Location: 177.4865 lon 64.73178 lat
#TLE: 1 43013U 17073A   26003.41800368  .00000169  00000+0  10117-3 0  9998
#TLE: 2 43013  98.7624 304.4804 0001884  56.1176 304.0179 14.19532918421092

#Time	Az	El	Level	Level2	SNR	BER	BlckErr	Temp	State	Recorded	gain1	gain2
2026-01-05 02:49:42.53	225.68	0.17	-49.3	-63.1	3.3	1.54e+00	0	27	0	0	60	51887
2026-01-05 02:49:46.56	226.00	0.36	-49.1	-64.3	3.6	1.51e+00	0	27	104	0	60	59426
2026-01-05 02:49:50.60	226.33	0.55	-48.4	-63.9	3.6	1.51e+00	0	27	104	0	60	56841
2026-01-05 02:49:54.64	226.67	0.74	-48.2	-63.4	3.6	1.51e+00	0	27	104	0	60	53201
2026-01-05 02:49:58.68	227.01	0.93	-46.3	-61.4	3.6	1.51e+00	0	27	104	0	60	42576
2026-01-05 02:50:02.71	227.35	1.12	-46.0	-61.2	3.6	1.51e+00	0	27	104	0	60	41508
2026-01-05 02:50:06.75	227.70	1.32	-45.9	-61.1	3.6	1.51e+00	0	27	104	0	60	40941
2026-01-05 02:50:10.79	228.06	1.51	-46.1	-61.3	3.6	1.51e+00	0	27	104	0	60	41955
2026-01-05 02:50:14.84	228.42	1.70	-45.9	-61.1	3.6	1.51e+00	0	27	104	0	60	41032
2026-01-05 02:50:18.88	228.78	1.90	-46.0	-61.1	3.6	1.51e+00	0	27	104	0	60	41227
2026-01-05 02:50:22.91	229.14	2.09	-46.0	-61.1	3.6	1.51e+00	0	27	104	0	60	41259
2026-01-05 02:50:26.95	229.51	2.29	-46.1	-61.1	3.6	1.51e+00	0	27	104	0	60	41160
2026-01-05 02:50:30.99	229.89	2.48	-46.1	-61.2	3.6	1.51e+00	0	27	104	0	60	41376
2026-01-05 02:50:35.03	230.27	2.68	-46.1	-60.9	3.6	1.51e+00	0	27	104	0	60	39877
2026-01-05 02:50:39.07	230.66	2.88	-46.0	-59.1	3.6	1.50e+00	0	27	104	0	60	32670
2026-01-05 02:50:43.11	231.05	3.07	-46.2	-60.6	3.6	1.50e+00	0	27	104	0	60	38950
2026-01-05 02:50:47.16	231.44	3.27	-46.1	-59.6	3.7	1.48e+00	0	27	104	0	60	34494
2026-01-05 02:50:51.19	231.84	3.47	-46.2	-58.8	3.7	1.45e+00	0	27	104	0	60	31649
2026-01-05 02:50:55.23	232.25	3.67	-46.4	-58.9	3.8	1.48e+00	0	27	104	0	60	31804
2026-01-05 02:50:59.27	232.66	3.86	-46.5	-59.0	3.8	1.48e+00	0	27	104	0	60	32396
2026-01-05 02:51:03.32	233.08	4.06	-46.6	-59.3	3.7	1.47e+00	0	28	104	0	60	33394
2026-01-05 02:51:07.36	233.50	4.26	-46.7	-58.9	3.8	1.47e+00	0	28	104	0	60	31922
2026-01-05 02:51:11.39	233.93	4.46	-46.8	-58.8	3.9	1.47e+00	0	28	104	0	60	31635
2026-01-05 02:51:15.43	234.36	4.66	-46.9	-58.8	4.0	1.45e+00	0	28	104	0	60	31379
2026-01-05 02:51:19.46	234.80	4.86	-47.1	-57.6	3.9	1.39e+00	0	28	0	0	60	27440
2026-01-05 02:51:23.50	235.24	5.05	-47.2	-57.3	4.0	1.36e+00	38	28	0	0	60	26414
2026-01-05 02:51:27.54	235.69	5.25	-47.2	-56.7	4.3	9.47e-01	92	28	0	7340032	60	24612
2026-01-05 02:51:31.58	236.15	5.45	-47.1	-56.3	4.4	8.47e-01	90	28	0	14680064	60	23708
2026-01-05 02:51:35.62	236.61	5.65	-47.0	-55.4	5.1	6.50e-01	92	28	0	22020096	60	21179
2026-01-05 02:51:39.65	237.08	5.85	-46.9	-54.4	6.2	3.06e-01	92	28	0	29360128	60	19037
2026-01-05 02:51:43.69	237.55	6.05	-46.7	-53.5	7.3	1.42e-01	90	28	0	36700160	60	17138
2026-01-05 02:51:47.73	238.03	6.25	-46.3	-52.5	8.3	4.91e-02	90	28	0	45088768	60	15289
2026-01-05 02:51:51.77	238.52	6.45	-46.1	-51.5	9.5	1.38e-02	21	28	0	52428800	60	13626
2026-01-05 02:51:55.80	239.01	6.64	-45.7	-50.2	11.3	1.57e-03	92	28	0	59768832	60	11711
2026-01-05 02:51:59.83	239.51	6.84	-45.2	-49.0	12.5	1.76e-04	90	28	0	67108864	60	10192
2026-01-05 02:52:03.87	240.02	7.04	-44.8	-48.2	13.5	1.83e-05	92	28	0	75497472	60	9243
2026-01-05 02:52:07.91	240.53	7.24	-44.3	-47.2	14.7	7.00e-07	0	28	0	82837504	60	8268
2026-01-05 02:52:11.95	241.05	7.43	-43.7	-46.3	15.5	0.00e+00	92	28	0	90177536	60	7458
2026-01-05 02:52:15.99	241.58	7.63	-43.1	-45.3	16.5	0.00e+00	92	28	0	97517568	60	6656
2026-01-05 02:52:20.03	242.11	7.83	-42.8	-45.0	17.0	0.00e+00	38	28	0	104857600	58	7199
2026-01-05 02:52:24.06	242.65	8.02	-42.4	-44.2	18.1	0.00e+00	37	28	0	113246208	58	6554
2026-01-05 02:52:28.10	243.20	8.22	-42.1	-43.8	18.3	0.00e+00	90	28	0	120586240	58	6279
2026-01-05 02:52:32.14	243.75	8.41	-41.4	-42.9	19.6	0.00e+00	92	28	0	127926272	56	6349
2026-01-05 02:52:36.18	244.32	8.60	-40.5	-41.8	20.4	0.00e+00	69	28	0	135266304	54	6281
2026-01-05 02:52:40.22	244.89	8.80	-39.7	-40.9	21.1	0.00e+00	64	28	0	143654912	54	5661
2026-01-05 02:52:44.25	245.46	8.99	-39.6	-40.7	21.5	0.00e+00	92	28	0	150994944	52	6185
2026-01-05 02:52:48.29	246.04	9.18	-39.0	-40.0	22.0	0.00e+00	92	28	0	158334976	52	5742
2026-01-05 02:52:52.33	246.63	9.37	-38.6	-39.6	22.4	0.00e+00	0	28	0	165675008	50	6136
2026-01-05 02:52:56.37	247.23	9.55	-38.4	-39.3	22.8	0.00e+00	92	28	0	173015040	50	5959
2026-01-05 02:53:00.40	247.84	9.74	-38.3	-39.3	22.8	0.00e+00	90	28	0	181403648	50	5908
2026-01-05 02:53:04.44	248.45	9.92	-38.2	-39.1	23.0	0.00e+00	92	28	0	188743680	50	5809
2026-01-05 02:53:08.48	249.07	10.11	-38.8	-39.8	23.1	0.00e+00	0	28	0	196083712	50	6291
2026-01-05 02:53:12.52	249.70	10.29	-38.4	-39.3	23.1	0.00e+00	92	28	0	203423744	50	5946
2026-01-05 02:53:16.56	250.33	10.47	-38.2	-39.1	23.0	0.00e+00	92	28	0	211812352	50	5824
2026-01-05 02:53:20.60	250.98	10.65	-38.2	-39.1	23.0	0.00e+00	92	28	0	219152384	50	5799
2026-01-05 02:53:24.65	251.63	10.82	-38.5	-39.5	23.0	0.00e+00	0	28	0	226492416	50	6074
2026-01-05 02:53:28.68	252.29	11.00	-38.4	-39.3	23.1	0.00e+00	91	28	0	233832448	50	5955
2026-01-05 02:53:32.72	252.95	11.17	-38.2	-39.2	23.0	0.00e+00	92	28	0	241172480	50	5845
2026-01-05 02:53:36.76	253.63	11.34	-38.9	-39.9	22.6	0.00e+00	92	28	0	249561088	50	6383
2026-01-05 02:53:40.80	254.31	11.51	-39.0	-40.0	22.4	0.00e+00	21	28	0	256901120	50	6422
2026-01-05 02:53:44.84	255.00	11.67	-38.9	-39.9	22.6	0.00e+00	92	28	0	264241152	50	6386
2026-01-05 02:53:48.88	255.69	11.83	-40.4	-41.5	21.8	0.00e+00	91	28	0	271581184	52	6815
2026-01-05 02:53:52.91	256.39	11.99	-39.9	-41.1	21.6	0.00e+00	92	28	0	279969792	52	6473
2026-01-05 02:53:56.95	257.10	12.15	-39.8	-40.9	21.7	0.00e+00	54	28	0	287309824	52	6347
2026-01-05 02:54:00.99	257.82	12.30	-39.5	-40.6	21.8	0.00e+00	92	28	0	294649856	52	6124
2026-01-05 02:54:05.03	258.55	12.45	-40.2	-41.4	21.3	0.00e+00	92	28	0	301989888	52	6719
2026-01-05 02:54:09.07	259.28	12.60	-39.8	-40.9	21.7	0.00e+00	76	28	0	309329920	52	6340
2026-01-05 02:54:13.11	260.02	12.74	-39.9	-40.9	21.9	0.00e+00	92	28	0	317718528	52	6390
2026-01-05 02:54:17.15	260.76	12.88	-39.7	-40.8	21.7	0.00e+00	92	27	0	325058560	52	6304
2026-01-05 02:54:21.19	261.52	13.02	-40.2	-41.4	21.2	0.00e+00	92	27	0	332398592	52	6727
2026-01-05 02:54:25.22	262.27	13.15	-40.0	-41.1	21.4	0.00e+00	87	28	0	339738624	52	6517
2026-01-05 02:54:29.26	263.04	13.28	-40.6	-41.8	21.5	0.00e+00	91	28	0	348127232	52	7072
2026-01-05 02:54:33.30	263.81	13.41	-40.4	-41.6	21.2	0.00e+00	92	28	0	355467264	54	6115
2026-01-05 02:54:37.34	264.59	13.53	-40.7	-41.8	21.1	0.00e+00	90	28	0	362807296	54	6283
2026-01-05 02:54:41.37	265.37	13.64	-40.0	-41.1	21.8	0.00e+00	14	28	0	370147328	54	5769
2026-01-05 02:54:45.41	266.16	13.76	-39.0	-40.1	22.6	0.00e+00	90	28	0	377487360	52	5767
2026-01-05 02:54:49.45	266.96	13.86	-38.6	-39.6	22.9	0.00e+00	92	28	0	385875968	50	6137
2026-01-05 02:54:53.49	267.76	13.97	-39.0	-39.9	22.8	0.00e+00	92	27	0	393216000	50	6389
2026-01-05 02:54:57.52	268.56	14.06	-38.9	-39.9	22.8	0.00e+00	0	28	0	400556032	50	6362
2026-01-05 02:55:01.56	269.38	14.16	-38.5	-39.5	23.1	0.00e+00	91	28	0	407896064	50	6058
2026-01-05 02:55:05.60	270.19	14.25	-38.6	-39.6	22.8	0.00e+00	91	27	0	416284672	50	6118
2026-01-05 02:55:09.64	271.01	14.33	-39.3	-40.3	22.4	0.00e+00	92	28	0	423624704	50	6644
2026-01-05 02:55:13.68	271.84	14.41	-39.5	-40.6	21.8	0.00e+00	6	28	0	430964736	50	6869
2026-01-05 02:55:17.73	272.67	14.48	-39.5	-40.6	21.8	0.00e+00	92	28	0	438304768	52	6155
2026-01-05 02:55:21.77	273.50	14.55	-39.5	-40.6	22.0	0.00e+00	91	28	0	445644800	52	6115
2026-01-05 02:55:25.81	274.34	14.61	-39.3	-40.4	22.2	0.00e+00	92	28	0	454033408	52	5970
2026-01-05 02:55:29.85	275.18	14.66	-39.3	-40.3	22.2	0.00e+00	0	28	0	461373440	52	5937
2026-01-05 02:55:33.89	276.02	14.72	-39.2	-40.3	22.0	0.00e+00	90	27	0	468713472	52	5901
2026-01-05 02:55:37.92	276.86	14.76	-39.0	-40.0	22.5	0.00e+00	92	27	0	476053504	52	5748
2026-01-05 02:55:41.96	277.71	14.80	-39.2	-40.2	22.2	0.00e+00	74	28	0	484442112	52	5894
2026-01-05 02:55:46.00	278.56	14.83	-39.1	-40.1	22.2	0.00e+00	92	28	0	491782144	52	5823
2026-01-05 02:55:50.04	279.41	14.86	-38.6	-39.6	22.7	0.00e+00	92	28	0	499122176	50	6127
2026-01-05 02:55:54.08	280.26	14.88	-38.7	-39.7	22.6	0.00e+00	92	27	0	506462208	50	6200
2026-01-05 02:55:58.12	281.12	14.90	-38.8	-39.8	22.4	0.00e+00	68	28	0	513802240	50	6301
2026-01-05 02:56:02.15	281.97	14.91	-38.7	-39.7	22.8	0.00e+00	90	28	0	522190848	50	6225
2026-01-05 02:56:06.19	282.82	14.91	-38.3	-39.2	23.1	0.00e+00	92	28	0	529530880	50	5896
2026-01-05 02:56:10.23	283.68	14.91	-38.4	-39.3	23.0	0.00e+00	92	28	0	536870912	50	5961
2026-01-05 02:56:14.27	284.53	14.90	-38.5	-39.5	22.9	0.00e+00	0	28	0	544210944	50	6074
2026-01-05 02:56:18.31	285.38	14.89	-37.8	-38.7	23.5	0.00e+00	92	28	0	552599552	50	5533
2026-01-05 02:56:22.35	286.24	14.87	-38.4	-39.4	22.9	0.00e+00	92	28	0	559939584	48	6714
2026-01-05 02:56:26.39	287.09	14.84	-38.1	-39.0	23.4	0.00e+00	0	28	0	567279616	48	6417
2026-01-05 02:56:30.42	287.93	14.81	-38.1	-39.0	23.4	0.00e+00	20	28	0	574619648	48	6439
2026-01-05 02:56:34.46	288.78	14.78	-38.2	-39.1	23.3	0.00e+00	92	28	0	581959680	50	5788
2026-01-05 02:56:38.50	289.63	14.73	-38.1	-39.0	23.2	0.00e+00	92	28	0	590348288	50	5752
2026-01-05 02:56:42.54	290.47	14.69	-38.3	-39.2	23.2	0.00e+00	68	28	0	597688320	50	5881
2026-01-05 02:56:46.58	291.31	14.63	-38.5	-39.4	23.3	0.00e+00	18	28	0	605028352	50	6026
2026-01-05 02:56:50.61	292.14	14.57	-37.9	-38.8	23.5	0.00e+00	92	28	0	612368384	50	5619
2026-01-05 02:56:54.65	292.97	14.51	-38.6	-39.6	23.3	0.00e+00	92	28	0	620756992	50	6107
2026-01-05 02:56:58.68	293.80	14.44	-38.0	-38.8	23.7	0.00e+00	0	28	0	628097024	50	5618
2026-01-05 02:57:02.72	294.63	14.36	-37.9	-38.8	23.7	0.00e+00	0	28	0	635437056	48	6256
2026-01-05 02:57:06.76	295.45	14.28	-38.1	-39.1	23.3	0.00e+00	90	28	0	642777088	48	6474
2026-01-05 02:57:10.80	296.26	14.20	-37.9	-38.8	23.7	0.00e+00	92	27	0	650117120	48	6280
2026-01-05 02:57:14.84	297.07	14.10	-37.7	-38.5	24.1	0.00e+00	8	28	0	658505728	48	6095
2026-01-05 02:57:18.88	297.88	14.01	-37.8	-38.7	24.0	0.00e+00	21	28	0	665845760	48	6195
2026-01-05 02:57:22.91	298.68	13.91	-38.1	-38.9	23.8	0.00e+00	92	28	0	673185792	48	6384
2026-01-05 02:57:26.95	299.48	13.80	-37.8	-38.7	23.8	0.00e+00	90	28	0	680525824	48	6178
2026-01-05 02:57:30.99	300.27	13.69	-37.9	-38.8	23.9	0.00e+00	4	28	0	687865856	48	6271
2026-01-05 02:57:35.03	301.05	13.58	-37.6	-38.4	24.3	0.00e+00	92	28	0	696254464	48	6004
2026-01-05 02:57:39.07	301.83	13.46	-38.1	-38.9	24.2	0.00e+00	92	28	0	703594496	48	6389
2026-01-05 02:57:43.11	302.60	13.34	-37.9	-38.7	24.0	0.00e+00	72	27	0	710934528	48	6231
2026-01-05 02:57:47.15	303.37	13.21	-37.7	-38.6	23.9	0.00e+00	0	28	0	718274560	48	6140
2026-01-05 02:57:51.19	304.13	13.08	-37.7	-38.6	24.0	0.00e+00	92	28	0	726663168	48	6124
2026-01-05 02:57:55.23	304.88	12.95	-37.8	-38.6	23.9	0.00e+00	92	28	0	734003200	48	6157
2026-01-05 02:57:59.27	305.62	12.81	-38.2	-39.1	23.7	0.00e+00	2	28	0	741343232	48	6506
2026-01-05 02:58:03.31	306.36	12.67	-38.8	-39.8	23.4	0.00e+00	0	28	0	748683264	50	6251
2026-01-05 02:58:07.35	307.10	12.52	-39.3	-40.2	23.3	0.00e+00	90	28	0	757071872	50	6605
2026-01-05 02:58:11.39	307.82	12.38	-39.4	-40.4	23.0	0.00e+00	92	28	0	764411904	52	5997
2026-01-05 02:58:15.43	308.54	12.22	-39.8	-40.8	22.5	0.00e+00	5	28	0	771751936	52	6249
2026-01-05 02:58:19.47	309.25	12.07	-39.3	-40.2	22.6	0.00e+00	5	28	0	779091968	52	5890
2026-01-05 02:58:23.50	309.95	11.91	-40.1	-41.1	22.2	0.00e+00	92	28	0	786432000	52	6521
2026-01-05 02:58:27.54	310.65	11.75	-41.8	-43.1	20.6	0.00e+00	0	27	0	794820608	56	6473
2026-01-05 02:58:31.58	311.33	11.59	-41.3	-42.6	20.6	0.00e+00	71	28	0	802160640	54	6882
2026-01-05 02:58:35.61	312.01	11.43	-41.6	-43.0	19.9	0.00e+00	34	28	0	809500672	54	7198
2026-01-05 02:58:39.65	312.69	11.26	-40.9	-42.2	20.4	0.00e+00	90	28	0	816840704	56	5877
2026-01-05 02:58:43.69	313.35	11.09	-40.4	-41.6	21.4	0.00e+00	0	28	0	824180736	54	6120
2026-01-05 02:58:47.73	314.01	10.92	-41.3	-42.5	21.0	0.00e+00	0	28	0	832569344	54	6825
2026-01-05 02:58:51.77	314.66	10.74	-40.9	-42.1	20.6	0.00e+00	28	28	0	839909376	56	5817
2026-01-05 02:58:55.81	315.31	10.57	-41.2	-42.5	20.2	0.00e+00	92	28	0	847249408	56	6087
2026-01-05 02:58:59.85	315.94	10.39	-41.0	-42.3	20.7	0.00e+00	3	28	0	854589440	54	6635
2026-01-05 02:59:03.89	316.57	10.21	-40.7	-41.9	20.7	0.00e+00	0	28	0	862978048	54	6370
2026-01-05 02:59:07.93	317.19	10.03	-41.0	-42.2	20.9	0.00e+00	92	27	0	870318080	54	6574
2026-01-05 02:59:11.97	317.81	9.85	-40.3	-41.4	21.6	0.00e+00	11	28	0	877658112	54	5972
2026-01-05 02:59:16.01	318.41	9.66	-40.1	-41.3	21.5	0.00e+00	2	28	0	884998144	54	5909
2026-01-05 02:59:20.04	319.01	9.48	-40.1	-41.3	21.3	0.00e+00	0	27	0	893386752	54	5919
2026-01-05 02:59:24.08	319.60	9.29	-40.6	-41.8	21.2	0.00e+00	92	28	0	900726784	54	6254
2026-01-05 02:59:28.12	320.19	9.10	-40.3	-41.5	20.9	0.00e+00	0	28	0	908066816	54	6103
2026-01-05 02:59:32.16	320.76	8.91	-40.2	-41.4	21.0	0.00e+00	72	28	0	915406848	54	6006
2026-01-05 02:59:36.20	321.33	8.72	-39.1	-40.1	22.0	0.00e+00	10	28	0	922746880	52	5826
2026-01-05 02:59:40.24	321.90	8.53	-39.3	-40.3	22.3	0.00e+00	92	28	0	931135488	52	5945
2026-01-05 02:59:44.28	322.45	8.34	-39.9	-40.9	21.9	0.00e+00	0	28	0	938475520	54	5680
2026-01-05 02:59:48.32	323.00	8.15	-39.5	-40.6	21.8	0.00e+00	0	28	0	945815552	52	6126
2026-01-05 02:59:52.36	323.54	7.96	-39.7	-40.8	22.0	0.00e+00	58	28	0	953155584	52	6273
2026-01-05 02:59:56.39	324.07	7.76	-39.5	-40.6	21.6	0.00e+00	94	27	0	961544192	52	6147
2026-01-05 03:00:00.43	324.60	7.57	-39.4	-40.5	21.8	0.00e+00	12	28	0	968884224	52	6087
2026-01-05 03:00:04.47	325.12	7.37	-40.2	-41.3	21.5	0.00e+00	6	28	0	976224256	52	6679
2026-01-05 03:00:08.51	325.64	7.18	-40.0	-41.0	21.9	0.00e+00	0	28	0	983564288	54	5749
2026-01-05 03:00:12.54	326.14	6.98	-40.9	-42.0	21.5	0.00e+00	91	28	0	990904320	54	6457
2026-01-05 03:00:16.59	326.65	6.79	-40.2	-41.3	22.0	0.00e+00	18	28	0	999292928	52	6654
2026-01-05 03:00:20.62	327.14	6.59	-40.0	-41.0	21.9	0.00e+00	18	27	0	1006632960	52	6459
2026-01-05 03:00:24.66	327.63	6.39	-40.1	-41.3	21.2	0.00e+00	92	28	0	1013972992	52	6623
2026-01-05 03:00:28.70	328.11	6.20	-39.8	-41.0	20.9	0.00e+00	67	28	0	1021313024	52	6463
2026-01-05 03:00:32.74	328.59	6.00	-40.4	-41.6	21.0	0.00e+00	67	28	0	1029701632	54	6163
2026-01-05 03:00:36.79	329.06	5.80	-39.8	-40.9	20.8	0.00e+00	68	28	0	1037041664	52	6376
2026-01-05 03:00:40.83	329.52	5.61	-40.8	-42.2	19.7	0.00e+00	92	28	0	1044381696	54	6556
2026-01-05 03:00:44.87	329.98	5.41	-40.4	-41.8	19.8	0.00e+00	3	28	0	1051721728	54	6306
2026-01-05 03:00:48.91	330.43	5.21	-40.3	-41.6	20.1	0.00e+00	65	28	0	1059061760	54	6145
2026-01-05 03:00:52.95	330.88	5.02	-40.4	-41.8	19.7	0.00e+00	16	28	0	1067450368	54	6271
2026-01-05 03:00:56.98	331.32	4.82	-40.6	-42.0	19.6	0.00e+00	90	28	0	1074790400	54	6444
2026-01-05 03:01:01.02	331.75	4.62	-40.9	-42.5	19.1	0.00e+00	0	28	0	1082130432	54	6791
2026-01-05 03:01:05.06	332.18	4.43	-42.5	-45.2	15.0	0.00e+00	0	28	0	1089470464	56	8251
2026-01-05 03:01:09.10	332.61	4.23	-43.3	-48.8	9.3	8.87e-03	61	28	0	1097859072	58	11145
2026-01-05 03:01:13.14	333.03	4.03	-43.5	-53.4	4.0	9.58e-01	75	28	0	1105199104	58	18918
2026-01-05 03:01:17.18	333.44	3.84	-43.4	-57.6	3.6	1.51e+00	0	28	104	1105199104	58	30880
2026-01-05 03:01:21.22	333.85	3.64	-43.6	-58.6	3.6	1.51e+00	0	28	104	1105199104	58	34619
2026-01-05 03:01:25.26	334.25	3.45	-43.9	-59.0	3.6	1.51e+00	0	28	104	1105199104	60	32191
2026-01-05 03:01:29.30	334.65	3.25	-43.5	-58.6	3.6	1.51e+00	0	28	104	1105199104	60	30907
2026-01-05 03:01:33.33	335.04	3.06	-43.6	-58.7	3.6	1.51e+00	0	28	104	1105199104	60	31125
2026-01-05 03:01:37.37	335.43	2.86	-48.5	-63.7	3.6	1.51e+00	0	28	104	1105199104	60	55094
2026-01-05 03:01:41.41	335.81	2.67	-49.0	-64.2	3.6	1.51e+00	0	28	104	1105199104	60	58592
2026-01-05 03:01:45.44	336.19	2.47	-49.0	-64.3	3.6	1.51e+00	0	28	104	1105199104	60	59426
2026-01-05 03:01:49.48	336.56	2.28	-49.1	-64.3	3.6	1.51e+00	0	28	104	1105199104	60	59584
2026-01-05 03:01:53.52	336.93	2.09	-49.1	-64.2	3.6	1.51e+00	0	28	104	1105199104	60	58730
2026-01-05 03:01:57.56	337.30	1.90	-49.6	-64.7	3.6	1.51e+00	0	28	104	1105199104	60	61941
2026-01-05 03:02:01.60	337.66	1.70	-49.6	-64.8	3.6	1.51e+00	0	28	104	1105199104	60	62880
2026-01-05 03:02:05.64	338.01	1.51	-48.8	-64.0	3.6	1.51e+00	0	28	104	1105199104	60	57060
2026-01-05 03:02:09.67	338.36	1.32	-50.4	-65.6	3.6	1.51e+00	0	28	104	1105199104	60	69007
2026-01-05 03:02:13.71	338.71	1.13	-49.2	-64.4	3.6	1.51e+00	0	28	104	1105199104	60	60235
2026-01-05 03:02:17.75	339.06	0.94	-50.3	-65.4	3.6	1.51e+00	0	28	104	1105199104	60	67628
2026-01-05 03:02:21.79	339.39	0.75	-49.3	-64.4	3.6	1.51e+00	0	28	104	1105199104	60	60328
2026-01-05 03:02:25.82	339.73	0.56	-49.9	-65.1	3.6	1.51e+00	0	28	104	1105199104	60	65111
2026-01-05 03:02:29.87	340.06	0.37	-49.4	-64.6	3.6	1.51e+00	0	28	104	1105199104	60	61228
2026-01-05 03:02:33.91	340.39	0.18	-49.1	-64.3	3.6	1.51e+00	0	28	104	1105199104	60	58969
2026-01-05 03:02:37.94	340.71	-0.00	-49.9	-65.1	3.6	1.51e+00	0	28	104	1105199104	60	65041

#Closed at: 2026-01-05 03:02:40
#Recorded file [1105 MB]: D:/lorett/data/35029_260105_144942.dat