passes_logs/2026/01/05/R4.6S_Anadyr/R4.6S_Anadyr__20260105_221820_NOAA_21_JPSS-2_rec.log

#Pass ID: 20260105_221820_NOAA 21 (JPSS-2)
#Satellite: NOAA 21 (JPSS-2)
#Configuration: NOAA-21
#almurnet v.1.7.20251203
#Start time: 2026-01-05 22:18:26

#Version: 2.2.20231116
#Station: R4.6S_Anadyr
#Location: 177.4865 lon 64.73178 lat
#TLE: 1 54234U 22150A   26005.42670836  .00000142  00000+0  88292-4 0  9996
#TLE: 2 54234  98.7490 306.4427 0001045 340.6622  19.4514 14.19532269163451

#Time	Az	El	Level	Level2	SNR	BER	BlckErr	Temp	State	Recorded	gain1	gain2
2026-01-05 22:18:26.42	109.90	0.35	-48.7	-50.2	5.7	0.00e+00	0	31	0	0	60	39745
2026-01-05 22:18:30.32	109.71	0.57	-48.6	-61.4	3.5	1.51e+00	0	33	104	0	60	41150
2026-01-05 22:18:34.23	109.53	0.80	-48.5	-61.4	3.5	1.52e+00	0	33	104	0	60	41214
2026-01-05 22:18:38.14	109.34	1.02	-48.0	-60.9	3.5	1.52e+00	0	33	104	0	60	38758
2026-01-05 22:18:42.06	109.15	1.25	-45.9	-59.2	3.5	1.52e+00	0	33	104	0	60	32076
2026-01-05 22:18:45.97	108.96	1.48	-45.8	-59.2	3.5	1.52e+00	0	33	104	0	60	32038
2026-01-05 22:18:49.87	108.77	1.71	-45.8	-59.2	3.5	1.51e+00	0	33	104	0	60	31936
2026-01-05 22:18:53.79	108.57	1.94	-45.8	-59.2	3.5	1.52e+00	0	33	104	0	60	31916
2026-01-05 22:18:57.70	108.36	2.17	-45.9	-59.3	3.5	1.52e+00	0	33	104	0	60	32250
2026-01-05 22:19:01.61	108.16	2.40	-45.8	-59.1	3.5	1.51e+00	0	33	104	0	60	31710
2026-01-05 22:19:05.52	107.95	2.64	-45.8	-59.0	3.5	1.52e+00	0	33	104	0	60	31272
2026-01-05 22:19:09.43	107.73	2.88	-45.8	-58.8	3.5	1.52e+00	0	33	104	0	60	30488
2026-01-05 22:19:13.34	107.52	3.12	-45.6	-57.2	3.7	1.50e+00	0	33	104	0	60	25430
2026-01-05 22:19:17.24	107.30	3.36	-45.7	-56.9	3.8	1.51e+00	0	33	104	0	60	24614
2026-01-05 22:19:21.15	107.07	3.60	-43.0	-46.5	11.8	1.26e-03	0	33	0	4194304	60	7416
2026-01-05 22:19:25.06	106.84	3.85	-38.4	-40.0	18.5	0.00e+00	0	33	0	7340032	50	6266
2026-01-05 22:19:28.97	106.61	4.09	-39.1	-40.8	17.9	0.00e+00	0	33	0	13631488	50	6851
2026-01-05 22:19:32.88	106.38	4.34	-38.1	-39.4	19.4	0.00e+00	0	33	0	25165824	50	5832
2026-01-05 22:19:36.79	106.13	4.59	-37.6	-38.8	20.2	0.00e+00	0	34	0	37748736	48	6078
2026-01-05 22:19:40.70	105.89	4.84	-37.0	-38.2	21.0	0.00e+00	0	34	0	50331648	48	5673
2026-01-05 22:19:44.61	105.64	5.09	-36.7	-37.8	21.1	0.00e+00	0	34	0	61865984	46	6126
2026-01-05 22:19:48.52	105.39	5.35	-36.6	-37.7	21.2	0.00e+00	0	34	0	74448896	46	6060
2026-01-05 22:19:52.42	105.13	5.61	-36.7	-37.8	21.2	0.00e+00	0	33	0	87031808	46	6130
2026-01-05 22:19:56.34	104.86	5.87	-36.4	-37.5	21.4	0.00e+00	0	34	0	98566144	46	5897
2026-01-05 22:20:00.24	104.59	6.13	-36.6	-37.7	21.5	0.00e+00	0	34	0	111149056	46	6002
2026-01-05 22:20:04.15	104.32	6.39	-36.6	-37.7	21.5	0.00e+00	0	34	0	123731968	46	6013
2026-01-05 22:20:08.06	104.04	6.65	-36.2	-37.3	21.9	0.00e+00	0	34	0	135266304	46	5747
2026-01-05 22:20:11.97	103.76	6.92	-36.1	-37.2	22.0	0.00e+00	0	34	0	147849216	46	5660
2026-01-05 22:20:15.87	103.47	7.19	-36.0	-37.0	22.2	0.00e+00	0	34	0	159383552	46	5545
2026-01-05 22:20:19.79	103.17	7.46	-35.7	-36.8	22.3	0.00e+00	0	34	0	171966464	46	5405
2026-01-05 22:20:23.70	102.87	7.74	-36.0	-37.0	22.1	0.00e+00	0	34	0	184549376	44	6276
2026-01-05 22:20:27.61	102.56	8.01	-35.6	-36.6	22.4	0.00e+00	0	34	0	197132288	44	5970
2026-01-05 22:20:31.52	102.25	8.29	-35.7	-36.8	22.4	0.00e+00	0	34	0	208666624	44	6077
2026-01-05 22:20:35.42	101.93	8.57	-35.6	-36.6	22.6	0.00e+00	0	34	0	221249536	44	5953
2026-01-05 22:20:39.33	101.61	8.85	-35.7	-36.7	22.5	0.00e+00	0	34	0	233832448	44	6058
2026-01-05 22:20:43.23	101.27	9.14	-35.2	-36.2	23.0	0.00e+00	0	34	0	245366784	44	5667
2026-01-05 22:20:47.15	100.93	9.43	-35.3	-36.3	22.9	0.00e+00	0	34	0	257949696	44	5727
2026-01-05 22:20:51.06	100.59	9.72	-35.2	-36.1	22.9	0.00e+00	0	34	0	269484032	44	5638
2026-01-05 22:20:54.97	100.23	10.01	-35.1	-36.0	23.0	0.00e+00	0	34	0	282066944	44	5584
2026-01-05 22:20:58.88	99.87	10.30	-35.1	-36.0	23.1	0.00e+00	0	34	0	294649856	44	5576
2026-01-05 22:21:02.80	99.50	10.60	-35.0	-36.0	23.2	0.00e+00	0	34	0	306184192	44	5551
2026-01-05 22:21:06.71	99.13	10.90	-35.2	-36.1	23.1	0.00e+00	0	34	0	318767104	44	5655
2026-01-05 22:21:10.61	98.74	11.20	-34.8	-35.7	23.5	0.00e+00	0	34	0	331350016	42	6043
2026-01-05 22:21:14.50	98.35	11.50	-34.7	-35.6	23.6	0.00e+00	0	34	0	342884352	42	5971
2026-01-05 22:21:18.42	97.95	11.81	-34.6	-35.5	23.6	0.00e+00	0	34	0	355467264	42	5918
2026-01-05 22:21:22.33	97.54	12.12	-34.4	-35.3	23.8	0.00e+00	0	34	0	368050176	42	5756
2026-01-05 22:21:26.23	97.13	12.43	-34.5	-35.4	23.7	0.00e+00	0	34	0	379584512	42	5829
2026-01-05 22:21:30.14	96.70	12.74	-34.0	-35.0	24.1	0.00e+00	0	34	0	392167424	42	5540
2026-01-05 22:21:34.05	96.26	13.06	-34.2	-35.1	24.0	0.00e+00	0	34	0	404750336	42	5631
2026-01-05 22:21:37.96	95.81	13.38	-34.0	-34.9	24.1	0.00e+00	0	34	0	416284672	42	5479
2026-01-05 22:21:41.87	95.36	13.70	-34.1	-35.0	24.2	0.00e+00	0	34	0	428867584	42	5563
2026-01-05 22:21:45.78	94.89	14.02	-33.9	-34.8	24.3	0.00e+00	0	34	0	440401920	42	5428
2026-01-05 22:21:49.68	94.41	14.35	-33.9	-34.8	24.2	0.00e+00	0	34	0	452984832	42	5459
2026-01-05 22:21:53.58	93.93	14.67	-34.2	-35.1	23.9	0.00e+00	0	34	0	465567744	42	5654
2026-01-05 22:21:57.50	93.43	15.00	-34.3	-35.2	24.1	0.00e+00	0	34	0	477102080	42	5676
2026-01-05 22:22:01.40	92.92	15.33	-34.1	-35.0	24.2	0.00e+00	0	34	0	489684992	42	5582
2026-01-05 22:22:05.32	92.39	15.67	-34.0	-34.9	24.2	0.00e+00	0	34	0	502267904	42	5513
2026-01-05 22:22:09.23	91.86	16.01	-34.2	-35.1	24.0	0.00e+00	0	34	0	513802240	42	5635
2026-01-05 22:22:13.13	91.31	16.35	-34.3	-35.2	24.0	0.00e+00	0	34	0	526385152	42	5695
2026-01-05 22:22:17.05	90.75	16.69	-34.3	-35.2	24.1	0.00e+00	0	34	0	538968064	42	5681
2026-01-05 22:22:20.96	90.18	17.03	-34.1	-35.0	24.1	0.00e+00	0	34	0	550502400	42	5571
2026-01-05 22:22:24.87	89.59	17.37	-34.1	-35.0	24.1	0.00e+00	0	34	0	563085312	42	5583
2026-01-05 22:22:28.78	88.99	17.72	-34.1	-35.0	24.2	0.00e+00	0	34	0	575668224	42	5574
2026-01-05 22:22:32.68	88.38	18.07	-34.0	-34.9	24.3	0.00e+00	0	34	0	587202560	42	5514
2026-01-05 22:22:36.59	87.75	18.42	-34.1	-35.0	24.2	0.00e+00	0	34	0	599785472	42	5543
2026-01-05 22:22:40.50	87.11	18.77	-34.3	-35.2	24.1	0.00e+00	0	34	0	612368384	42	5689
2026-01-05 22:22:44.41	86.45	19.12	-33.9	-34.8	24.4	0.00e+00	0	34	0	623902720	42	5447
2026-01-05 22:22:48.31	85.77	19.47	-33.8	-34.7	24.4	0.00e+00	0	34	0	636485632	40	6002
2026-01-05 22:22:52.22	85.08	19.82	-33.8	-34.7	24.3	0.00e+00	0	34	0	648019968	40	6009
2026-01-05 22:22:56.12	84.38	20.17	-33.7	-34.6	24.5	0.00e+00	0	34	0	660602880	40	5977
2026-01-05 22:23:00.03	83.66	20.53	-33.6	-34.5	24.5	0.00e+00	0	34	0	673185792	40	5880
2026-01-05 22:23:03.93	82.92	20.88	-33.5	-34.4	24.7	0.00e+00	0	34	0	684720128	40	5803
2026-01-05 22:23:07.85	82.16	21.24	-33.4	-34.3	24.7	0.00e+00	0	34	0	697303040	40	5759
2026-01-05 22:23:11.76	81.38	21.59	-33.4	-34.2	24.8	0.00e+00	0	34	0	709885952	40	5714
2026-01-05 22:23:15.67	80.59	21.94	-33.2	-34.1	24.9	0.00e+00	0	34	0	721420288	40	5619
2026-01-05 22:23:19.59	79.78	22.29	-33.3	-34.1	24.9	0.00e+00	0	34	0	734003200	40	5654
2026-01-05 22:23:23.49	78.95	22.64	-33.0	-33.9	25.1	0.00e+00	0	34	0	746586112	40	5497
2026-01-05 22:23:27.40	78.10	22.99	-33.1	-33.9	25.0	0.00e+00	0	34	0	758120448	40	5515
2026-01-05 22:23:31.30	77.24	23.33	-32.9	-33.7	25.2	0.00e+00	0	34	0	770703360	40	5402
2026-01-05 22:23:35.20	76.35	23.67	-32.9	-33.8	25.1	0.00e+00	0	34	0	783286272	40	5421
2026-01-05 22:23:39.11	75.44	24.01	-33.1	-34.0	24.9	0.00e+00	0	34	0	794820608	40	5588
2026-01-05 22:23:43.02	74.52	24.35	-33.2	-34.1	24.8	0.00e+00	0	34	0	807403520	40	5607
2026-01-05 22:23:46.93	73.57	24.68	-33.5	-34.4	24.7	0.00e+00	0	34	0	819986432	40	5849
2026-01-05 22:23:50.84	72.60	25.01	-33.6	-34.5	24.5	0.00e+00	0	34	0	831520768	40	5901
2026-01-05 22:23:54.75	71.62	25.33	-33.7	-34.6	24.7	0.00e+00	0	34	0	844103680	40	5939
2026-01-05 22:23:58.66	70.61	25.64	-33.5	-34.4	24.6	0.00e+00	0	34	0	855638016	40	5794
2026-01-05 22:24:02.57	69.58	25.95	-33.6	-34.5	24.7	0.00e+00	0	34	0	868220928	40	5893
2026-01-05 22:24:06.49	68.53	26.26	-33.6	-34.5	24.5	0.00e+00	0	34	0	880803840	40	5889
2026-01-05 22:24:10.40	67.46	26.55	-33.9	-34.8	24.5	0.00e+00	0	34	0	893386752	40	6085
2026-01-05 22:24:14.31	66.37	26.84	-33.8	-34.6	24.6	0.00e+00	0	34	0	904921088	40	5984
2026-01-05 22:24:18.21	65.27	27.12	-33.7	-34.6	24.6	0.00e+00	0	34	0	917504000	40	5941
2026-01-05 22:24:22.13	64.14	27.39	-33.4	-34.2	24.8	0.00e+00	0	34	0	930086912	40	5708
2026-01-05 22:24:26.05	62.99	27.65	-33.5	-34.4	24.8	0.00e+00	0	34	0	941621248	40	5821
2026-01-05 22:24:29.96	61.83	27.90	-33.2	-34.1	24.9	0.00e+00	0	34	0	954204160	40	5623
2026-01-05 22:24:33.88	60.64	28.14	-33.4	-34.3	24.9	0.00e+00	0	34	0	965738496	40	5764
2026-01-05 22:24:37.79	59.44	28.36	-33.6	-34.5	24.7	0.00e+00	0	34	0	978321408	40	5866
2026-01-05 22:24:41.71	58.23	28.57	-33.5	-34.4	24.9	0.00e+00	0	34	0	990904320	40	5813
2026-01-05 22:24:45.63	56.99	28.78	-33.6	-34.5	24.6	0.00e+00	0	34	0	1003487232	40	5892
2026-01-05 22:24:49.55	55.74	28.96	-33.8	-34.7	24.6	0.00e+00	0	34	0	1015021568	40	6022
2026-01-05 22:24:53.48	54.47	29.13	-33.8	-34.7	24.6	0.00e+00	0	34	0	1027604480	40	6052
2026-01-05 22:24:57.42	53.19	29.29	-33.7	-34.6	24.7	0.00e+00	0	34	0	1040187392	40	5940
2026-01-05 22:25:01.35	51.90	29.44	-33.9	-34.8	24.6	0.00e+00	0	34	0	1051721728	40	6065
2026-01-05 22:25:05.29	50.59	29.56	-34.1	-35.0	24.2	0.00e+00	0	34	0	1064304640	40	6239
2026-01-05 22:25:09.30	49.25	29.68	-33.8	-34.7	24.6	0.00e+00	0	34	0	1076887552	40	6052
2026-01-05 22:25:13.33	47.90	29.77	-33.8	-34.7	24.6	0.00e+00	0	34	0	1089470464	40	6042
2026-01-05 22:25:17.34	46.54	29.85	-33.5	-34.4	24.8	0.00e+00	0	34	0	1102053376	40	5804
2026-01-05 22:25:21.33	45.19	29.91	-33.2	-34.1	25.1	0.00e+00	0	34	0	1114636288	40	5604
2026-01-05 22:25:25.32	43.83	29.95	-33.3	-34.2	24.8	0.00e+00	0	34	0	1127219200	40	5664
2026-01-05 22:25:29.31	42.47	29.97	-33.5	-34.3	24.7	0.00e+00	0	34	0	1139802112	40	5777
2026-01-05 22:25:33.31	41.11	29.98	-33.3	-34.1	24.9	0.00e+00	0	34	0	1152385024	40	5643
2026-01-05 22:25:37.35	39.73	29.96	-33.6	-34.5	24.6	0.00e+00	0	34	0	1164967936	40	5867
2026-01-05 22:25:41.39	38.35	29.93	-34.1	-35.0	24.3	0.00e+00	0	34	0	1177550848	40	6244
2026-01-05 22:25:45.42	36.98	29.88	-34.2	-35.1	24.3	0.00e+00	0	34	0	1190133760	40	6348
2026-01-05 22:25:49.46	35.61	29.81	-33.7	-34.6	24.5	0.00e+00	0	34	0	1202716672	40	5966
2026-01-05 22:25:53.50	34.25	29.73	-34.0	-34.9	24.6	0.00e+00	0	34	0	1215299584	40	6139
2026-01-05 22:25:57.54	32.90	29.62	-34.0	-34.9	24.2	0.00e+00	0	34	0	1227882496	40	6155
2026-01-05 22:26:01.58	31.56	29.50	-33.7	-34.6	24.5	0.00e+00	0	34	0	1240465408	40	5965
2026-01-05 22:26:05.62	30.22	29.36	-33.9	-34.8	24.4	0.00e+00	0	34	0	1253048320	40	6130
2026-01-05 22:26:09.66	28.90	29.21	-33.6	-34.5	24.7	0.00e+00	0	34	0	1265631232	40	5891
2026-01-05 22:26:13.70	27.60	29.04	-34.2	-35.1	24.3	0.00e+00	0	35	0	1278214144	40	6339
2026-01-05 22:26:17.74	26.31	28.85	-33.9	-34.8	24.5	0.00e+00	0	34	0	1290797056	40	6118
2026-01-05 22:26:21.78	25.03	28.65	-33.9	-34.8	24.6	0.00e+00	0	34	0	1303379968	40	6097
2026-01-05 22:26:25.81	23.77	28.43	-33.8	-34.6	24.6	0.00e+00	0	34	0	1315962880	40	5985
2026-01-05 22:26:29.85	22.53	28.21	-33.6	-34.4	24.8	0.00e+00	0	34	0	1328545792	40	5843
2026-01-05 22:26:33.89	21.31	27.96	-33.6	-34.5	24.6	0.00e+00	0	34	0	1341128704	40	5889
2026-01-05 22:26:37.93	20.10	27.71	-33.4	-34.3	24.9	0.00e+00	0	34	0	1353711616	40	5760
2026-01-05 22:26:41.97	18.92	27.45	-33.7	-34.6	24.7	0.00e+00	0	34	0	1366294528	40	5957
2026-01-05 22:26:46.00	17.76	27.17	-34.2	-35.1	24.1	0.00e+00	0	34	0	1378877440	40	6319
2026-01-05 22:26:50.04	16.61	26.89	-33.6	-34.5	24.7	0.00e+00	0	34	0	1391460352	40	5895
2026-01-05 22:26:54.08	15.49	26.59	-33.1	-33.9	25.0	0.00e+00	0	34	0	1404043264	40	5527
2026-01-05 22:26:58.12	14.39	26.29	-33.0	-33.8	25.0	0.00e+00	0	34	0	1416626176	38	6110
2026-01-05 22:27:02.16	13.31	25.98	-33.7	-34.6	24.4	0.00e+00	0	34	0	1429209088	40	5978
2026-01-05 22:27:06.20	12.25	25.66	-32.7	-33.5	25.1	0.00e+00	0	34	0	1441792000	38	5901
2026-01-05 22:27:10.24	11.21	25.33	-33.3	-34.2	25.0	0.00e+00	0	34	0	1455423488	38	6384
2026-01-05 22:27:14.28	10.19	25.00	-33.3	-34.2	25.0	0.00e+00	0	34	0	1466957824	38	6405
2026-01-05 22:27:18.32	9.20	24.66	-33.6	-34.5	24.7	0.00e+00	0	34	0	1480589312	38	6619
2026-01-05 22:27:22.35	8.23	24.32	-33.7	-34.5	24.7	0.00e+00	0	34	0	1493172224	40	5923
2026-01-05 22:27:26.39	7.28	23.97	-33.1	-34.0	25.2	0.00e+00	0	34	0	1505755136	40	5558
2026-01-05 22:27:30.42	6.35	23.63	-33.7	-34.6	24.6	0.00e+00	0	34	0	1518338048	40	5959
2026-01-05 22:27:34.46	5.44	23.27	-33.6	-34.5	24.5	0.00e+00	0	34	0	1530920960	40	5865
2026-01-05 22:27:38.50	4.55	22.92	-33.4	-34.3	24.9	0.00e+00	0	34	0	1543503872	40	5738
2026-01-05 22:27:42.53	3.68	22.56	-33.3	-34.2	25.0	0.00e+00	0	34	0	1556086784	40	5664
2026-01-05 22:27:46.57	2.83	22.20	-33.3	-34.2	24.9	0.00e+00	0	34	0	1568669696	40	5665
2026-01-05 22:27:50.61	2.00	21.84	-33.5	-34.4	24.8	0.00e+00	0	34	0	1581252608	40	5796
2026-01-05 22:27:54.65	1.20	21.47	-33.3	-34.2	24.9	0.00e+00	0	34	0	1593835520	40	5705
2026-01-05 22:27:58.69	0.41	21.11	-33.6	-34.5	24.7	0.00e+00	0	34	0	1606418432	40	5863
2026-01-05 22:28:02.72	359.64	20.75	-33.8	-34.7	24.5	0.00e+00	0	34	0	1619001344	40	6010
2026-01-05 22:28:06.76	358.88	20.38	-33.8	-34.7	24.5	0.00e+00	0	34	0	1631584256	40	6038
2026-01-05 22:28:10.80	358.15	20.02	-33.6	-34.5	24.5	0.00e+00	0	34	0	1644167168	40	5911
2026-01-05 22:28:14.84	357.43	19.66	-33.1	-33.9	25.0	0.00e+00	0	34	0	1656750080	40	5514
2026-01-05 22:28:18.87	356.73	19.29	-33.2	-34.0	24.9	0.00e+00	0	34	0	1669332992	40	5570
2026-01-05 22:28:22.91	356.05	18.93	-33.8	-34.7	24.4	0.00e+00	0	34	0	1681915904	40	6031
2026-01-05 22:28:26.96	355.38	18.57	-33.9	-34.8	24.2	0.00e+00	0	34	0	1694498816	40	6078
2026-01-05 22:28:31.00	354.73	18.21	-33.9	-34.8	24.3	0.00e+00	0	34	0	1707081728	40	6080
2026-01-05 22:28:35.04	354.09	17.85	-34.1	-35.1	24.2	0.00e+00	0	34	0	1719664640	40	6286
2026-01-05 22:28:39.08	353.47	17.49	-34.2	-35.1	24.0	0.00e+00	0	34	0	1732247552	40	6347
2026-01-05 22:28:43.11	352.86	17.14	-33.9	-34.8	24.4	0.00e+00	0	34	0	1744830464	40	6104
2026-01-05 22:28:47.15	352.27	16.79	-33.8	-34.7	24.5	0.00e+00	0	34	0	1757413376	40	6018
2026-01-05 22:28:51.19	351.69	16.44	-34.4	-35.4	23.9	0.00e+00	0	34	0	1769996288	40	6516
2026-01-05 22:28:55.23	351.13	16.09	-34.5	-35.4	23.8	0.00e+00	0	34	0	1782579200	40	6555
2026-01-05 22:28:59.26	350.58	15.74	-34.0	-34.9	24.1	0.00e+00	0	34	0	1795162112	40	6190
2026-01-05 22:29:03.30	350.04	15.40	-34.0	-34.9	24.3	0.00e+00	0	34	0	1807745024	40	6153
2026-01-05 22:29:07.34	349.52	15.05	-34.5	-35.5	23.8	0.00e+00	0	34	0	1820327936	40	6583
2026-01-05 22:29:11.38	349.00	14.71	-34.5	-35.4	23.8	0.00e+00	0	34	0	1832910848	42	5855
2026-01-05 22:29:15.42	348.50	14.38	-34.1	-35.0	24.1	0.00e+00	0	34	0	1845493760	42	5587
2026-01-05 22:29:19.46	348.01	14.04	-34.0	-34.9	24.3	0.00e+00	0	34	0	1859125248	42	5478
2026-01-05 22:29:23.49	347.54	13.71	-34.4	-35.3	24.0	0.00e+00	0	34	0	1871708160	42	5730
2026-01-05 22:29:27.53	347.07	13.38	-34.8	-35.8	23.6	0.00e+00	0	34	0	1884291072	42	6075
2026-01-05 22:29:31.57	346.61	13.05	-35.0	-36.0	23.3	0.00e+00	0	34	0	1896873984	42	6253
2026-01-05 22:29:35.60	346.16	12.73	-35.1	-36.1	23.1	0.00e+00	0	34	0	1909456896	42	6295
2026-01-05 22:29:39.65	345.73	12.40	-34.6	-35.5	23.6	0.00e+00	0	34	0	1922039808	42	5920
2026-01-05 22:29:43.68	345.30	12.08	-34.8	-35.7	23.5	0.00e+00	0	34	0	1934622720	42	6061
2026-01-05 22:29:47.72	344.88	11.77	-35.3	-36.3	23.1	0.00e+00	0	34	0	1947205632	42	6461
2026-01-05 22:29:51.76	344.47	11.45	-35.6	-36.6	22.8	0.00e+00	0	34	0	1959788544	42	6723
2026-01-05 22:29:55.79	344.08	11.14	-35.9	-36.9	22.5	0.00e+00	0	34	0	1972371456	44	6170
2026-01-05 22:29:59.83	343.68	10.83	-35.5	-36.5	22.8	0.00e+00	0	34	0	1984954368	44	5887
2026-01-05 22:30:03.87	343.30	10.52	-35.4	-36.4	22.9	0.00e+00	0	34	0	1997537280	44	5819
2026-01-05 22:30:07.91	342.93	10.22	-35.7	-36.7	22.6	0.00e+00	0	34	0	2010120192	44	6020
2026-01-05 22:30:11.95	342.56	9.92	-35.7	-36.7	22.7	0.00e+00	0	34	0	2022703104	44	6037
2026-01-05 22:30:15.99	342.20	9.62	-36.2	-37.2	22.1	0.00e+00	0	34	0	2035286016	44	6414
2026-01-05 22:30:20.03	341.85	9.32	-36.5	-37.6	21.9	0.00e+00	0	35	0	2047868928	44	6650
2026-01-05 22:30:24.07	341.51	9.03	-36.4	-37.5	21.8	0.00e+00	0	34	0	2060451840	44	6607
2026-01-05 22:30:28.11	341.17	8.73	-36.1	-37.1	22.1	0.00e+00	0	34	0	2073034752	44	6334
2026-01-05 22:30:32.16	340.84	8.44	-35.9	-36.9	22.3	0.00e+00	0	34	0	2085617664	44	6159
2026-01-05 22:30:36.19	340.52	8.16	-35.9	-36.9	22.3	0.00e+00	0	34	0	2098200576	44	6171
2026-01-05 22:30:40.23	340.20	7.87	-36.0	-37.1	22.2	0.00e+00	0	35	0	2110783488	44	6291
2026-01-05 22:30:44.27	339.89	7.59	-36.2	-37.2	22.0	0.00e+00	0	34	0	2123366400	44	6422
2026-01-05 22:30:48.31	339.59	7.31	-36.3	-37.4	21.9	0.00e+00	0	34	0	2135949312	44	6524
2026-01-05 22:30:52.35	339.29	7.03	-36.5	-37.6	21.7	0.00e+00	0	34	0	2148532224	44	6661
2026-01-05 22:30:56.39	339.00	6.76	-36.5	-37.6	21.6	0.00e+00	0	34	0	2161115136	46	5932
2026-01-05 22:31:00.43	338.71	6.48	-36.3	-37.4	21.6	0.00e+00	0	34	0	2173698048	46	5824
2026-01-05 22:31:04.46	338.43	6.21	-36.4	-37.4	21.6	0.00e+00	0	34	0	2186280960	46	5837
2026-01-05 22:31:08.50	338.16	5.94	-36.4	-37.5	21.4	0.00e+00	0	34	0	2199912448	46	5860
2026-01-05 22:31:12.54	337.89	5.67	-36.7	-37.8	21.0	0.00e+00	0	34	0	2212495360	46	6133
2026-01-05 22:31:16.58	337.63	5.41	-37.8	-39.1	19.4	0.00e+00	0	34	0	2225078272	48	6324
2026-01-05 22:31:20.61	337.37	5.15	-39.4	-41.2	16.4	0.00e+00	0	34	0	2237661184	50	7191
2026-01-05 22:31:24.65	337.11	4.89	-41.2	-44.1	12.5	3.43e-05	0	34	0	2250244096	54	7930
2026-01-05 22:31:28.69	336.86	4.63	-42.5	-47.1	8.4	3.44e-02	0	34	0	2262827008	56	10029
2026-01-05 22:31:32.73	336.62	4.37	-43.1	-51.6	4.9	1.49e+00	2	34	104	2270167040	58	15002
2026-01-05 22:31:36.77	336.38	4.11	-43.4	-54.1	3.6	1.50e+00	0	34	104	2270167040	58	20067
2026-01-05 22:31:40.80	336.14	3.86	-43.6	-55.1	3.6	1.51e+00	0	34	104	2270167040	58	22501
2026-01-05 22:31:44.84	335.91	3.61	-43.5	-56.0	3.5	1.52e+00	0	34	104	2270167040	58	24773
2026-01-05 22:31:48.88	335.68	3.36	-43.3	-56.1	3.5	1.52e+00	0	34	104	2270167040	58	25052
2026-01-05 22:31:52.92	335.46	3.11	-43.3	-56.0	3.5	1.52e+00	0	34	104	2270167040	58	24973
2026-01-05 22:31:56.96	335.24	2.87	-48.1	-60.9	3.5	1.52e+00	0	34	104	2270167040	60	38757
2026-01-05 22:32:00.99	335.02	2.62	-48.6	-61.4	3.5	1.51e+00	0	35	104	2270167040	60	41417
2026-01-05 22:32:05.04	334.81	2.38	-48.5	-61.4	3.5	1.52e+00	0	34	104	2270167040	60	41412
2026-01-05 22:32:09.07	334.60	2.14	-48.5	-61.4	3.5	1.52e+00	0	34	104	2270167040	60	41166
2026-01-05 22:32:13.11	334.40	1.90	-48.6	-61.4	3.5	1.52e+00	0	34	104	2270167040	60	41218
2026-01-05 22:32:17.15	334.20	1.66	-48.5	-61.4	3.5	1.52e+00	0	34	104	2270167040	60	41167
2026-01-05 22:32:21.19	334.00	1.43	-48.5	-61.3	3.5	1.51e+00	0	35	104	2270167040	60	40869
2026-01-05 22:32:25.22	333.81	1.19	-48.5	-61.4	3.5	1.52e+00	0	35	104	2270167040	60	41047
2026-01-05 22:32:29.26	333.61	0.96	-48.5	-61.4	3.5	1.52e+00	0	34	104	2270167040	60	41101
2026-01-05 22:32:33.30	333.43	0.73	-48.5	-61.3	3.5	1.52e+00	0	34	104	2270167040	60	40898
2026-01-05 22:32:37.34	333.24	0.50	-48.5	-61.4	3.5	1.52e+00	0	34	104	2270167040	60	41202
2026-01-05 22:32:41.37	333.06	0.27	-48.5	-61.4	3.6	1.52e+00	0	34	104	2270167040	60	41162
2026-01-05 22:32:45.41	332.88	0.04	-48.5	-61.3	3.5	1.52e+00	0	35	104	2270167040	60	40938

#Closed at: 2026-01-05 22:32:46
#Recorded file [2270 MB]: D:/lorett/data/35029_260106_101826.dat