passes_logs/2026/01/05/R4.6S_Anadyr/R4.6S_Anadyr__20260105_235730_NOAA_21_JPSS-2_rec.log

#Pass ID: 20260105_235730_NOAA 21 (JPSS-2)
#Satellite: NOAA 21 (JPSS-2)
#Configuration: NOAA-21
#almurnet v.1.7.20251203
#Start time: 2026-01-05 23:57:31

#Version: 2.2.20231116
#Station: R4.6S_Anadyr
#Location: 177.4865 lon 64.73178 lat
#TLE: 1 54234U 22150A   26005.42670836  .00000142  00000+0  88292-4 0  9996
#TLE: 2 54234  98.7490 306.4427 0001045 340.6622  19.4514 14.19532269163451

#Time	Az	El	Level	Level2	SNR	BER	BlckErr	Temp	State	Recorded	gain1	gain2
2026-01-05 23:57:31.83	149.88	0.09	-48.6	-63.5	3.5	1.51e+00	0	31	0	0	60	54222
2026-01-05 23:57:35.87	149.87	0.33	-48.7	-61.5	3.5	1.51e+00	0	33	104	0	60	41906
2026-01-05 23:57:39.91	149.85	0.58	-48.7	-61.6	3.5	1.52e+00	0	33	104	0	60	41999
2026-01-05 23:57:43.95	149.84	0.83	-48.2	-61.1	3.5	1.52e+00	0	33	104	0	60	39752
2026-01-05 23:57:47.99	149.82	1.08	-47.1	-59.9	3.5	1.52e+00	0	33	104	0	60	34705
2026-01-05 23:57:52.03	149.80	1.33	-47.1	-59.9	3.5	1.52e+00	0	33	104	0	60	34611
2026-01-05 23:57:56.07	149.78	1.58	-47.1	-59.9	3.5	1.52e+00	0	33	104	0	60	34726
2026-01-05 23:58:00.11	149.77	1.84	-47.1	-59.9	3.5	1.51e+00	0	33	104	0	60	34733
2026-01-05 23:58:04.15	149.75	2.10	-47.1	-59.7	3.5	1.51e+00	0	33	104	0	60	33869
2026-01-05 23:58:08.19	149.73	2.36	-47.1	-59.6	3.5	1.51e+00	0	33	104	0	60	33334
2026-01-05 23:58:12.23	149.71	2.63	-47.0	-59.2	3.5	1.52e+00	0	33	104	0	60	31839
2026-01-05 23:58:16.27	149.69	2.89	-47.0	-59.0	3.5	1.51e+00	0	33	104	0	60	31375
2026-01-05 23:58:20.30	149.66	3.16	-47.0	-58.8	3.5	1.51e+00	0	33	104	0	60	30541
2026-01-05 23:58:24.34	149.64	3.43	-45.4	-49.9	8.7	4.32e-02	123	33	0	2097152	60	10931
2026-01-05 23:58:28.38	149.62	3.71	-42.9	-45.5	13.7	2.20e-06	123	33	0	14680064	60	6580
2026-01-05 23:58:32.42	149.60	3.99	-44.3	-48.2	4.9	1.51e+00	0	33	104	20971520	60	9050
2026-01-05 23:58:36.46	149.57	4.27	-41.3	-43.5	15.8	0.00e+00	122	33	104	22020096	56	6618
2026-01-05 23:58:40.49	149.55	4.55	-37.8	-39.0	20.2	0.00e+00	123	33	0	33554432	48	6226
2026-01-05 23:58:44.53	149.52	4.83	-38.0	-39.2	20.2	0.00e+00	123	33	0	46137344	48	6411
2026-01-05 23:58:48.58	149.50	5.12	-37.3	-38.4	20.9	0.00e+00	123	33	0	58720256	48	5851
2026-01-05 23:58:52.61	149.47	5.42	-37.0	-38.1	21.2	0.00e+00	123	34	0	71303168	48	5596
2026-01-05 23:58:56.65	149.44	5.71	-36.9	-37.9	21.3	0.00e+00	123	33	0	83886080	46	6204
2026-01-05 23:59:00.69	149.41	6.01	-36.8	-37.9	21.5	0.00e+00	123	34	0	96468992	46	6139
2026-01-05 23:59:04.72	149.38	6.31	-36.7	-37.7	21.6	0.00e+00	119	34	0	109051904	46	6060
2026-01-05 23:59:08.76	149.35	6.62	-36.6	-37.7	21.7	0.00e+00	123	34	0	121634816	46	5999
2026-01-05 23:59:12.80	149.32	6.93	-36.4	-37.5	21.9	0.00e+00	123	34	0	134217728	46	5873
2026-01-05 23:59:16.84	149.29	7.24	-36.2	-37.3	22.1	0.00e+00	122	34	0	147849216	46	5728
2026-01-05 23:59:20.88	149.26	7.56	-36.3	-37.4	22.0	0.00e+00	122	34	0	159383552	46	5801
2026-01-05 23:59:24.92	149.22	7.88	-36.2	-37.2	22.1	0.00e+00	123	34	0	173015040	46	5721
2026-01-05 23:59:28.95	149.19	8.21	-36.1	-37.1	22.3	0.00e+00	123	34	0	185597952	46	5611
2026-01-05 23:59:32.99	149.15	8.54	-35.9	-36.9	22.5	0.00e+00	123	34	0	198180864	46	5485
2026-01-05 23:59:37.03	149.11	8.87	-35.8	-36.8	22.5	0.00e+00	123	34	0	210763776	46	5463
2026-01-05 23:59:41.07	149.08	9.21	-35.7	-36.7	22.6	0.00e+00	123	34	0	223346688	44	6007
2026-01-05 23:59:45.11	149.04	9.55	-35.6	-36.6	22.8	0.00e+00	122	34	0	235929600	44	5955
2026-01-05 23:59:49.15	149.00	9.90	-35.3	-36.3	23.0	0.00e+00	123	34	0	248512512	44	5754
2026-01-05 23:59:53.19	148.95	10.25	-35.2	-36.2	23.1	0.00e+00	123	34	0	261095424	44	5681
2026-01-05 23:59:57.22	148.91	10.61	-35.2	-36.1	23.1	0.00e+00	120	34	0	273678336	44	5641
2026-01-06 00:00:01.26	148.87	10.97	-35.0	-36.0	23.3	0.00e+00	120	34	0	286261248	44	5533
2026-01-06 00:00:05.30	148.82	11.34	-35.2	-36.1	23.2	0.00e+00	122	34	0	298844160	44	5631
2026-01-06 00:00:09.33	148.77	11.71	-34.9	-35.9	23.5	0.00e+00	123	34	0	311427072	42	6152
2026-01-06 00:00:13.38	148.72	12.10	-34.8	-35.7	23.6	0.00e+00	123	34	0	324009984	42	6043
2026-01-06 00:00:17.41	148.67	12.48	-34.6	-35.5	23.7	0.00e+00	123	34	0	336592896	42	5912
2026-01-06 00:00:21.45	148.62	12.87	-34.7	-35.6	23.6	0.00e+00	123	34	0	349175808	42	5947
2026-01-06 00:00:25.49	148.56	13.27	-34.4	-35.3	23.9	0.00e+00	122	34	0	361758720	42	5790
2026-01-06 00:00:29.52	148.51	13.68	-34.4	-35.4	23.9	0.00e+00	122	34	0	374341632	42	5796
2026-01-06 00:00:33.56	148.45	14.09	-34.4	-35.3	24.0	0.00e+00	123	34	0	386924544	42	5743
2026-01-06 00:00:37.60	148.39	14.51	-34.5	-35.4	23.9	0.00e+00	123	34	0	399507456	42	5831
2026-01-06 00:00:41.64	148.32	14.93	-34.5	-35.4	23.9	0.00e+00	123	34	0	412090368	42	5823
2026-01-06 00:00:45.67	148.26	15.37	-34.5	-35.4	24.0	0.00e+00	122	34	0	424673280	42	5836
2026-01-06 00:00:49.71	148.19	15.81	-34.6	-35.5	23.9	0.00e+00	122	34	0	437256192	42	5897
2026-01-06 00:00:53.75	148.12	16.26	-34.7	-35.7	23.7	0.00e+00	123	34	0	449839104	42	5999
2026-01-06 00:00:57.79	148.05	16.72	-34.7	-35.6	23.7	0.00e+00	122	34	0	462422016	42	5970
2026-01-06 00:01:01.83	147.98	17.18	-34.7	-35.7	23.7	0.00e+00	123	34	0	475004928	42	6002
2026-01-06 00:01:05.86	147.90	17.66	-34.8	-35.8	23.6	0.00e+00	120	34	0	487587840	42	6087
2026-01-06 00:01:09.90	147.82	18.15	-34.7	-35.7	23.6	0.00e+00	123	34	0	500170752	42	6013
2026-01-06 00:01:13.94	147.74	18.64	-34.9	-35.8	23.6	0.00e+00	122	34	0	513802240	42	6097
2026-01-06 00:01:17.98	147.65	19.15	-34.7	-35.6	23.6	0.00e+00	123	34	0	525336576	42	5986
2026-01-06 00:01:22.02	147.56	19.66	-34.6	-35.6	23.8	0.00e+00	122	34	0	538968064	42	5950
2026-01-06 00:01:26.05	147.47	20.19	-34.6	-35.5	23.9	0.00e+00	123	34	0	551550976	42	5900
2026-01-06 00:01:30.09	147.37	20.72	-34.1	-35.0	24.3	0.00e+00	123	34	0	564133888	42	5554
2026-01-06 00:01:34.13	147.27	21.27	-33.9	-34.8	24.5	0.00e+00	120	34	0	576716800	42	5422
2026-01-06 00:01:38.17	147.16	21.83	-33.5	-34.4	24.8	0.00e+00	122	34	0	589299712	40	5835
2026-01-06 00:01:42.21	147.05	22.41	-33.3	-34.1	24.9	0.00e+00	123	34	0	601882624	40	5656
2026-01-06 00:01:46.25	146.94	23.00	-33.1	-34.0	25.1	0.00e+00	120	34	0	614465536	40	5564
2026-01-06 00:01:50.29	146.82	23.60	-32.9	-33.7	25.3	0.00e+00	123	34	0	627048448	40	5393
2026-01-06 00:01:54.33	146.69	24.21	-33.0	-33.9	25.2	0.00e+00	123	34	0	639631360	40	5476
2026-01-06 00:01:58.36	146.56	24.84	-33.1	-34.0	25.1	0.00e+00	122	34	0	652214272	40	5564
2026-01-06 00:02:02.40	146.43	25.48	-33.5	-34.4	24.9	0.00e+00	123	34	0	664797184	40	5808
2026-01-06 00:02:06.44	146.28	26.14	-34.0	-34.9	24.6	0.00e+00	120	34	0	677380096	40	6190
2026-01-06 00:02:10.48	146.14	26.82	-34.3	-35.2	24.3	0.00e+00	123	34	0	689963008	40	6385
2026-01-06 00:02:14.52	145.98	27.51	-34.6	-35.5	24.1	0.00e+00	122	34	0	702545920	40	6638
2026-01-06 00:02:18.56	145.82	28.22	-34.9	-35.8	24.0	0.00e+00	120	34	0	715128832	42	6088
2026-01-06 00:02:22.59	145.64	28.95	-35.1	-36.0	23.8	0.00e+00	122	34	0	727711744	42	6231
2026-01-06 00:02:26.63	145.46	29.70	-34.5	-35.4	24.2	0.00e+00	121	34	0	740294656	42	5821
2026-01-06 00:02:30.67	145.27	30.47	-34.2	-35.1	24.3	0.00e+00	120	34	0	752877568	42	5625
2026-01-06 00:02:34.71	145.07	31.26	-33.6	-34.5	24.8	0.00e+00	120	34	0	765460480	40	5866
2026-01-06 00:02:38.75	144.86	32.07	-33.5	-34.4	24.9	0.00e+00	122	34	0	778043392	40	5812
2026-01-06 00:02:42.79	144.64	32.90	-33.8	-34.7	24.7	0.00e+00	123	34	0	790626304	40	6031
2026-01-06 00:02:46.83	144.41	33.75	-34.2	-35.1	24.4	0.00e+00	123	34	0	803209216	40	6331
2026-01-06 00:02:50.87	144.16	34.63	-34.9	-35.8	23.8	0.00e+00	122	34	0	815792128	42	6113
2026-01-06 00:02:54.91	143.90	35.54	-35.5	-36.5	23.3	0.00e+00	123	34	0	828375040	42	6607
2026-01-06 00:02:58.93	143.62	36.46	-35.7	-36.7	23.1	0.00e+00	121	34	0	840957952	44	6030
2026-01-06 00:03:02.97	143.32	37.42	-35.9	-36.8	23.1	0.00e+00	122	34	0	853540864	44	6127
2026-01-06 00:03:07.01	143.01	38.40	-35.9	-36.9	23.2	0.00e+00	123	34	0	866123776	44	6159
2026-01-06 00:03:11.05	142.67	39.41	-35.5	-36.4	23.5	0.00e+00	123	34	0	879755264	44	5820
2026-01-06 00:03:15.09	142.31	40.45	-35.6	-36.5	23.3	0.00e+00	123	34	0	892338176	44	5896
2026-01-06 00:03:19.13	141.93	41.52	-35.8	-36.7	23.3	0.00e+00	123	34	0	904921088	44	6033
2026-01-06 00:03:23.16	141.52	42.62	-36.4	-37.3	22.6	0.00e+00	123	34	0	917504000	44	6473
2026-01-06 00:03:27.20	141.08	43.75	-37.1	-38.2	21.8	0.00e+00	123	34	0	930086912	46	6393
2026-01-06 00:03:31.24	140.60	44.91	-37.3	-38.4	22.0	0.00e+00	122	34	0	942669824	46	6518
2026-01-06 00:03:35.28	140.09	46.11	-36.9	-37.9	22.3	0.00e+00	123	34	0	955252736	46	6142
2026-01-06 00:03:39.31	139.54	47.34	-36.0	-37.0	22.9	0.00e+00	123	34	0	967835648	46	5569
2026-01-06 00:03:43.36	138.93	48.60	-36.0	-37.0	23.1	0.00e+00	122	34	0	980418560	46	5564
2026-01-06 00:03:47.40	138.28	49.90	-36.0	-37.0	23.0	0.00e+00	123	34	0	993001472	46	5572
2026-01-06 00:03:51.43	137.56	51.22	-35.6	-36.6	23.2	0.00e+00	123	34	0	1005584384	44	5940
2026-01-06 00:03:55.46	136.78	52.58	-35.4	-36.3	23.3	0.00e+00	123	34	0	1018167296	44	5791
2026-01-06 00:03:59.49	135.92	53.97	-34.7	-35.6	24.1	0.00e+00	123	34	0	1030750208	42	5955
2026-01-06 00:04:03.53	134.97	55.40	-34.4	-35.3	24.2	0.00e+00	121	34	0	1043333120	42	5753
2026-01-06 00:04:07.57	133.92	56.85	-33.7	-34.5	24.9	0.00e+00	123	34	0	1055916032	40	5912
2026-01-06 00:04:11.61	132.74	58.33	-33.7	-34.6	24.4	0.00e+00	120	34	0	1068498944	40	5940
2026-01-06 00:04:15.64	131.43	59.84	-33.1	-34.0	25.2	0.00e+00	120	34	0	1081081856	40	5560
2026-01-06 00:04:19.68	129.94	61.37	-33.4	-34.3	24.8	0.00e+00	120	34	0	1093664768	40	5739
2026-01-06 00:04:23.72	128.27	62.91	-32.9	-33.7	25.5	0.00e+00	123	34	0	1106247680	40	5402
2026-01-06 00:04:27.76	126.35	64.46	-32.4	-33.2	25.7	0.00e+00	123	34	0	1118830592	38	5715
2026-01-06 00:04:31.79	124.16	66.02	-32.7	-33.5	25.2	0.00e+00	123	34	0	1131413504	38	5916
2026-01-06 00:04:35.83	121.63	67.57	-33.0	-33.9	25.3	0.00e+00	123	34	0	1143996416	38	6143
2026-01-06 00:04:39.87	118.69	69.10	-31.8	-32.6	26.2	0.00e+00	120	34	0	1156579328	38	5320
2026-01-06 00:04:43.91	115.24	70.59	-31.8	-32.6	26.1	0.00e+00	122	34	0	1169162240	36	5933
2026-01-06 00:04:47.95	111.19	72.03	-32.7	-33.6	25.4	0.00e+00	116	34	0	1181745152	36	6690
2026-01-06 00:04:51.99	106.41	73.39	-32.6	-33.4	25.7	0.00e+00	120	34	0	1194328064	38	5829
2026-01-06 00:04:56.03	100.78	74.63	-32.6	-33.5	25.6	0.00e+00	122	34	0	1206910976	38	5871
2026-01-06 00:05:00.07	94.20	75.71	-32.8	-33.7	25.4	0.00e+00	123	34	0	1219493888	38	6003
2026-01-06 00:05:04.11	86.60	76.58	-33.0	-33.8	25.4	0.00e+00	120	34	0	1232076800	38	6114
2026-01-06 00:05:08.15	78.09	77.20	-32.5	-33.4	25.4	0.00e+00	122	34	0	1245708288	38	5794
2026-01-06 00:05:12.19	68.90	77.52	-32.9	-33.8	24.4	0.00e+00	123	34	0	1258291200	38	6096
2026-01-06 00:05:16.23	59.48	77.52	-33.0	-33.9	25.0	0.00e+00	120	34	0	1270874112	38	6156
2026-01-06 00:05:20.27	50.30	77.19	-32.7	-33.5	25.6	0.00e+00	123	34	0	1283457024	38	5907
2026-01-06 00:05:24.30	41.83	76.57	-32.7	-33.5	25.4	0.00e+00	123	34	0	1296039936	38	5925
2026-01-06 00:05:28.33	34.27	75.69	-33.1	-33.9	25.3	0.00e+00	123	34	0	1308622848	38	6193
2026-01-06 00:05:32.37	27.71	74.61	-32.4	-33.2	25.8	0.00e+00	122	34	0	1321205760	38	5691
2026-01-06 00:05:36.41	22.10	73.37	-32.1	-32.9	25.2	0.00e+00	122	34	0	1333788672	38	5525
2026-01-06 00:05:40.45	17.33	72.02	-33.1	-34.0	24.2	0.00e+00	123	34	0	1346371584	38	6266
2026-01-06 00:05:44.48	13.31	70.58	-32.9	-33.7	25.4	0.00e+00	123	34	0	1358954496	38	6047
2026-01-06 00:05:48.52	9.87	69.09	-31.7	-32.5	25.9	0.00e+00	123	34	0	1371537408	38	5257
2026-01-06 00:05:52.56	6.94	67.56	-34.0	-35.0	23.7	0.00e+00	122	34	0	1384120320	40	6210
2026-01-06 00:05:56.60	4.41	66.02	-32.6	-33.4	25.5	0.00e+00	120	34	0	1396703232	38	5839
2026-01-06 00:06:00.64	2.22	64.46	-33.7	-34.6	24.8	0.00e+00	120	34	0	1409286144	40	5991
2026-01-06 00:06:04.68	0.31	62.91	-34.0	-34.9	24.3	0.00e+00	120	34	0	1421869056	40	6187
2026-01-06 00:06:08.72	358.64	61.37	-33.4	-34.3	24.6	0.00e+00	122	34	0	1434451968	40	5743
2026-01-06 00:06:12.76	357.16	59.85	-33.9	-34.8	24.1	0.00e+00	122	34	0	1447034880	40	6121
2026-01-06 00:06:16.80	355.85	58.34	-35.6	-36.7	22.9	0.00e+00	122	34	0	1459617792	44	6027
2026-01-06 00:06:20.83	354.68	56.87	-33.6	-34.5	24.8	0.00e+00	123	34	0	1472200704	38	6585
2026-01-06 00:06:24.88	353.62	55.42	-35.3	-36.3	23.3	0.00e+00	123	34	0	1484783616	44	5753
2026-01-06 00:06:28.91	352.68	54.00	-33.8	-34.7	24.6	0.00e+00	120	34	0	1497366528	42	5351
2026-01-06 00:06:32.95	351.82	52.61	-36.7	-37.8	22.2	0.00e+00	122	34	0	1509949440	44	6819
2026-01-06 00:06:36.99	351.04	51.25	-35.8	-36.8	22.7	0.00e+00	122	34	0	1522532352	44	6111
2026-01-06 00:06:41.03	350.32	49.93	-35.7	-36.7	23.1	0.00e+00	123	34	0	1535115264	44	6030
2026-01-06 00:06:45.07	349.67	48.64	-36.2	-37.2	22.8	0.00e+00	123	34	0	1547698176	44	6398
2026-01-06 00:06:49.10	349.07	47.38	-36.3	-37.3	22.3	0.00e+00	122	34	0	1560281088	44	6496
2026-01-06 00:06:53.13	348.52	46.16	-35.8	-36.8	23.3	0.00e+00	122	34	0	1572864000	44	6085
2026-01-06 00:06:57.17	348.01	44.97	-36.1	-37.1	22.8	0.00e+00	123	34	0	1585446912	44	6326
2026-01-06 00:07:01.21	347.54	43.81	-38.6	-39.9	20.6	0.00e+00	120	34	0	1598029824	48	6887
2026-01-06 00:07:05.25	347.10	42.68	-38.0	-39.2	21.1	0.00e+00	120	34	0	1610612736	50	5663
2026-01-06 00:07:09.29	346.69	41.59	-35.8	-36.7	23.3	0.00e+00	122	34	0	1624244224	46	5365
2026-01-06 00:07:13.33	346.31	40.52	-36.5	-37.6	22.5	0.00e+00	123	34	0	1635778560	44	6653
2026-01-06 00:07:17.37	345.95	39.49	-36.7	-37.8	22.2	0.00e+00	122	34	0	1649410048	46	6083
2026-01-06 00:07:21.40	345.62	38.48	-36.4	-37.4	22.8	0.00e+00	123	34	0	1661992960	46	5820
2026-01-06 00:07:25.44	345.30	37.50	-36.1	-37.1	23.0	0.00e+00	123	34	0	1674575872	46	5644
2026-01-06 00:07:29.47	345.01	36.55	-35.3	-36.2	23.6	0.00e+00	122	34	0	1687158784	44	5688
2026-01-06 00:07:33.51	344.73	35.63	-35.0	-35.9	24.0	0.00e+00	123	34	0	1699741696	44	5496
2026-01-06 00:07:37.55	344.47	34.73	-35.2	-36.1	23.8	0.00e+00	122	34	0	1712324608	44	5644
2026-01-06 00:07:41.58	344.22	33.85	-34.8	-35.8	23.9	0.00e+00	123	34	0	1724907520	44	5407
2026-01-06 00:07:45.62	343.99	33.00	-34.7	-35.6	23.9	0.00e+00	123	34	0	1737490432	42	5973
2026-01-06 00:07:49.66	343.77	32.17	-34.5	-35.4	24.2	0.00e+00	122	34	0	1750073344	42	5832
2026-01-06 00:07:53.69	343.56	31.36	-34.2	-35.0	24.5	0.00e+00	122	34	0	1762656256	42	5586
2026-01-06 00:07:57.73	343.36	30.58	-34.0	-34.9	24.7	0.00e+00	122	34	0	1775239168	42	5474
2026-01-06 00:08:01.77	343.18	29.81	-33.9	-34.8	24.7	0.00e+00	122	34	0	1787822080	42	5416
2026-01-06 00:08:05.81	343.00	29.07	-34.2	-35.1	24.4	0.00e+00	123	34	0	1800404992	42	5652
2026-01-06 00:08:09.85	342.83	28.34	-34.3	-35.2	24.4	0.00e+00	123	34	0	1812987904	42	5685
2026-01-06 00:08:13.89	342.67	27.63	-34.1	-35.0	24.5	0.00e+00	122	34	0	1825570816	42	5579
2026-01-06 00:08:17.93	342.51	26.94	-33.5	-34.4	24.8	0.00e+00	123	34	0	1838153728	40	5813
2026-01-06 00:08:21.96	342.36	26.27	-33.3	-34.1	24.8	0.00e+00	123	34	0	1850736640	40	5634
2026-01-06 00:08:26.00	342.22	25.61	-33.3	-34.2	24.8	0.00e+00	119	34	0	1863319552	40	5702
2026-01-06 00:08:30.04	342.09	24.97	-33.5	-34.4	24.6	0.00e+00	123	34	0	1875902464	40	5806
2026-01-06 00:08:34.07	341.96	24.34	-33.5	-34.4	24.6	0.00e+00	122	34	0	1888485376	40	5792
2026-01-06 00:08:38.11	341.84	23.73	-33.5	-34.4	24.6	0.00e+00	122	34	0	1901068288	40	5817
2026-01-06 00:08:42.15	341.72	23.13	-33.5	-34.4	24.8	0.00e+00	123	34	0	1913651200	40	5807
2026-01-06 00:08:46.19	341.61	22.54	-33.4	-34.3	24.9	0.00e+00	121	34	0	1926234112	40	5750
2026-01-06 00:08:50.23	341.50	21.97	-33.2	-34.0	25.1	0.00e+00	123	34	0	1938817024	40	5583
2026-01-06 00:08:54.26	341.40	21.41	-33.1	-34.0	25.1	0.00e+00	120	34	0	1951399936	40	5550
2026-01-06 00:08:58.31	341.30	20.86	-33.3	-34.1	25.0	0.00e+00	122	34	0	1963982848	40	5643
2026-01-06 00:09:02.34	341.20	20.33	-33.4	-34.3	24.9	0.00e+00	123	34	0	1976565760	40	5731
2026-01-06 00:09:06.39	341.11	19.80	-33.8	-34.6	24.6	0.00e+00	123	34	0	1989148672	40	5985
2026-01-06 00:09:10.42	341.02	19.29	-34.0	-34.9	24.5	0.00e+00	123	34	0	2001731584	40	6150
2026-01-06 00:09:14.46	340.94	18.79	-34.1	-34.9	24.4	0.00e+00	123	34	0	2015363072	40	6203
2026-01-06 00:09:18.50	340.86	18.29	-34.2	-35.2	24.1	0.00e+00	122	34	0	2027945984	40	6359
2026-01-06 00:09:22.54	340.78	17.81	-34.4	-35.3	24.1	0.00e+00	122	34	0	2040528896	40	6475
2026-01-06 00:09:26.58	340.70	17.33	-34.5	-35.5	23.9	0.00e+00	122	34	0	2053111808	40	6593
2026-01-06 00:09:30.61	340.63	16.87	-34.6	-35.6	23.9	0.00e+00	120	34	0	2065694720	42	5943
2026-01-06 00:09:34.65	340.56	16.41	-34.5	-35.5	23.9	0.00e+00	123	34	0	2078277632	42	5893
2026-01-06 00:09:38.69	340.50	15.96	-34.5	-35.5	23.8	0.00e+00	123	34	0	2090860544	42	5887
2026-01-06 00:09:42.72	340.43	15.52	-34.7	-35.7	23.7	0.00e+00	123	34	0	2103443456	42	6003
2026-01-06 00:09:46.76	340.37	15.09	-34.8	-35.8	23.5	0.00e+00	123	34	0	2116026368	42	6115
2026-01-06 00:09:50.79	340.31	14.67	-35.0	-36.0	23.4	0.00e+00	122	34	0	2128609280	42	6252
2026-01-06 00:09:54.84	340.25	14.25	-35.0	-36.0	23.4	0.00e+00	120	34	0	2141192192	42	6243
2026-01-06 00:09:58.88	340.20	13.84	-35.2	-36.2	23.2	0.00e+00	123	34	0	2153775104	42	6381
2026-01-06 00:10:02.92	340.14	13.43	-35.2	-36.2	23.2	0.00e+00	122	34	0	2166358016	42	6393
2026-01-06 00:10:06.95	340.09	13.03	-35.2	-36.2	23.2	0.00e+00	120	34	0	2178940928	42	6378
2026-01-06 00:10:10.99	340.04	12.64	-35.3	-36.2	23.2	0.00e+00	122	34	0	2191523840	42	6396
2026-01-06 00:10:15.04	339.99	12.26	-35.2	-36.2	23.2	0.00e+00	123	34	0	2204106752	42	6392
2026-01-06 00:10:19.07	339.94	11.88	-35.2	-36.2	23.2	0.00e+00	122	34	0	2216689664	42	6362
2026-01-06 00:10:23.11	339.90	11.50	-35.2	-36.2	23.0	0.00e+00	123	34	0	2229272576	42	6386
2026-01-06 00:10:27.15	339.86	11.14	-35.4	-36.4	22.9	0.00e+00	123	34	0	2241855488	42	6525
2026-01-06 00:10:31.19	339.81	10.77	-35.6	-36.6	22.8	0.00e+00	123	34	0	2254438400	42	6650
2026-01-06 00:10:35.23	339.77	10.42	-35.5	-36.5	22.8	0.00e+00	123	34	0	2267021312	42	6614
2026-01-06 00:10:39.27	339.73	10.06	-35.8	-36.8	22.4	0.00e+00	123	34	0	2279604224	44	6124
2026-01-06 00:10:43.31	339.70	9.72	-35.8	-36.8	22.5	0.00e+00	122	34	0	2292187136	44	6111
2026-01-06 00:10:47.35	339.66	9.37	-36.0	-37.1	22.2	0.00e+00	123	34	0	2304770048	44	6280
2026-01-06 00:10:51.38	339.62	9.04	-36.1	-37.1	22.2	0.00e+00	123	34	0	2317352960	44	6321
2026-01-06 00:10:55.42	339.59	8.70	-36.2	-37.2	22.1	0.00e+00	123	34	0	2329935872	44	6389
2026-01-06 00:10:59.46	339.56	8.38	-36.3	-37.4	22.0	0.00e+00	123	34	0	2342518784	44	6524
2026-01-06 00:11:03.49	339.52	8.05	-36.5	-37.6	21.8	0.00e+00	122	34	0	2356150272	44	6656
2026-01-06 00:11:07.53	339.49	7.73	-36.6	-37.7	21.7	0.00e+00	122	34	0	2367684608	46	5999
2026-01-06 00:11:11.57	339.46	7.41	-36.7	-37.8	21.6	0.00e+00	122	34	0	2381316096	46	6071
2026-01-06 00:11:15.61	339.44	7.10	-36.9	-37.9	21.3	0.00e+00	120	34	0	2393899008	46	6204
2026-01-06 00:11:19.66	339.41	6.79	-36.9	-38.0	21.3	0.00e+00	122	34	0	2406481920	46	6275
2026-01-06 00:11:23.70	339.38	6.49	-36.9	-38.0	21.2	0.00e+00	123	34	0	2419064832	46	6254
2026-01-06 00:11:27.74	339.35	6.18	-37.0	-38.1	21.1	0.00e+00	123	34	0	2431647744	46	6331
2026-01-06 00:11:31.78	339.33	5.89	-37.0	-38.2	20.9	0.00e+00	123	34	0	2444230656	46	6379
2026-01-06 00:11:35.81	339.31	5.59	-37.7	-39.0	19.8	0.00e+00	123	34	0	2456813568	48	6246
2026-01-06 00:11:39.85	339.28	5.30	-38.6	-40.0	18.5	0.00e+00	123	34	0	2469396480	48	6999
2026-01-06 00:11:43.89	339.26	5.01	-40.1	-42.0	15.9	0.00e+00	122	34	0	2481979392	52	7013
2026-01-06 00:11:47.93	339.24	4.73	-41.5	-44.4	12.4	5.03e-05	122	34	0	2494562304	54	8275
2026-01-06 00:11:51.97	339.22	4.44	-42.7	-47.6	8.0	4.54e-02	120	34	0	2507145216	58	9474
2026-01-06 00:11:56.01	339.20	4.16	-43.3	-52.1	4.7	1.49e+00	123	34	104	2514485248	58	15812
2026-01-06 00:12:00.04	339.18	3.89	-43.4	-55.1	3.5	1.50e+00	0	34	104	2514485248	58	22471
2026-01-06 00:12:04.08	339.16	3.61	-43.7	-55.4	3.5	1.51e+00	0	34	104	2514485248	58	23113
2026-01-06 00:12:08.11	339.14	3.34	-43.5	-56.0	3.5	1.52e+00	0	34	104	2514485248	58	24990
2026-01-06 00:12:12.15	339.12	3.07	-43.7	-56.5	3.5	1.52e+00	0	34	104	2514485248	58	26198
2026-01-06 00:12:16.19	339.11	2.81	-48.2	-61.0	3.5	1.52e+00	0	34	104	2514485248	60	39435
2026-01-06 00:12:20.22	339.09	2.54	-48.7	-61.5	3.5	1.51e+00	0	34	104	2514485248	60	41955
2026-01-06 00:12:24.26	339.07	2.28	-48.3	-61.5	3.5	1.51e+00	0	34	104	2514485248	60	41812
2026-01-06 00:12:28.30	339.06	2.03	-48.6	-61.5	3.4	1.52e+00	0	34	104	2514485248	60	41684
2026-01-06 00:12:32.34	339.04	1.77	-48.6	-61.5	3.5	1.51e+00	0	34	104	2514485248	60	41513
2026-01-06 00:12:36.38	339.03	1.51	-48.6	-61.4	3.5	1.52e+00	0	34	104	2514485248	60	41429
2026-01-06 00:12:40.42	339.02	1.26	-48.6	-61.5	3.5	1.51e+00	0	34	104	2514485248	60	41725
2026-01-06 00:12:44.47	339.00	1.01	-48.6	-61.4	3.5	1.52e+00	0	34	104	2514485248	60	41409
2026-01-06 00:12:48.50	338.99	0.76	-48.6	-61.4	3.5	1.52e+00	0	34	104	2514485248	60	41427
2026-01-06 00:12:52.54	338.98	0.52	-48.6	-61.4	3.5	1.52e+00	0	34	104	2514485248	60	41229
2026-01-06 00:12:56.58	338.97	0.28	-48.6	-61.5	3.5	1.52e+00	0	34	104	2514485248	60	41484
2026-01-06 00:13:00.62	338.96	0.03	-48.6	-61.4	3.5	1.52e+00	0	34	104	2514485248	60	41318

#Closed at: 2026-01-06 00:13:02
#Recorded file [2514 MB]: D:/lorett/data/35029_260106_115731.dat