passes_logs/2026/01/05/R4.6S_Anadyr/R4.6S_Anadyr__20260105_230754_NOAA_20_JPSS-1_rec.log

#Pass ID: 20260105_230754_NOAA 20 (JPSS-1)
#Satellite: NOAA 20 (JPSS-1)
#Configuration: NOAA 20
#almurnet v.1.7.20251203
#Start time: 2026-01-05 23:07:56

#Version: 2.2.20231116
#Station: R4.6S_Anadyr
#Location: 177.4865 lon 64.73178 lat
#TLE: 1 43013U 17073A   26005.46207808  .00000128  00000+0  81791-4 0  9997
#TLE: 2 43013  98.7627 306.5027 0001826  53.0458 307.0885 14.19533487421381

#Time	Az	El	Level	Level2	SNR	BER	BlckErr	Temp	State	Recorded	gain1	gain2
2026-01-05 23:07:56.30	129.68	0.09	-48.6	-63.5	3.5	1.51e+00	0	31	0	0	60	53952
2026-01-05 23:08:00.34	129.57	0.33	-48.7	-63.8	3.6	1.51e+00	0	32	104	0	60	56251
2026-01-05 23:08:04.38	129.47	0.57	-48.7	-63.8	3.6	1.51e+00	0	32	104	0	60	56289
2026-01-05 23:08:08.42	129.36	0.81	-48.2	-63.5	3.6	1.51e+00	0	33	104	0	60	54394
2026-01-05 23:08:12.46	129.24	1.05	-47.3	-62.4	3.6	1.51e+00	0	33	104	0	60	47502
2026-01-05 23:08:16.49	129.13	1.30	-47.3	-62.4	3.6	1.51e+00	0	33	104	0	60	47874
2026-01-05 23:08:20.53	129.01	1.55	-47.3	-62.4	3.6	1.51e+00	0	33	104	0	60	47427
2026-01-05 23:08:24.57	128.90	1.80	-47.3	-62.3	3.6	1.51e+00	0	33	104	0	60	47296
2026-01-05 23:08:28.61	128.78	2.05	-47.2	-62.1	3.6	1.51e+00	0	33	104	0	60	46121
2026-01-05 23:08:32.65	128.65	2.31	-47.2	-62.2	3.6	1.51e+00	0	33	104	0	60	46378
2026-01-05 23:08:36.68	128.53	2.56	-47.2	-62.4	3.6	1.51e+00	0	33	104	0	60	47808
2026-01-05 23:08:40.72	128.40	2.82	-47.2	-62.1	3.6	1.51e+00	0	33	104	0	60	46075
2026-01-05 23:08:44.76	128.27	3.08	-47.2	-61.7	3.6	1.51e+00	0	33	104	0	60	44050
2026-01-05 23:08:48.80	128.14	3.35	-47.0	-57.2	4.6	1.29e+00	0	33	0	0	60	26202
2026-01-05 23:08:52.84	128.00	3.61	-44.8	-48.5	12.8	2.76e-04	0	33	0	7340032	60	9609
2026-01-05 23:08:56.88	127.87	3.88	-45.9	-52.1	7.8	1.38e+00	0	33	104	10485760	60	14626
2026-01-05 23:09:00.92	127.73	4.15	-40.2	-41.6	19.8	0.00e+00	0	33	0	12582912	54	6123
2026-01-05 23:09:04.95	127.58	4.43	-40.0	-41.3	20.0	0.00e+00	0	33	0	19922944	52	6675
2026-01-05 23:09:08.99	127.44	4.70	-40.0	-41.4	20.1	0.00e+00	0	33	0	27262976	52	6715
2026-01-05 23:09:13.03	127.29	4.98	-40.0	-41.4	20.2	0.00e+00	0	33	0	35651584	52	6693
2026-01-05 23:09:17.07	127.13	5.26	-39.8	-41.0	20.6	0.00e+00	0	33	0	42991616	52	6461
2026-01-05 23:09:21.10	126.98	5.55	-39.4	-40.6	21.0	0.00e+00	0	33	0	50331648	52	6116
2026-01-05 23:09:25.13	126.82	5.83	-39.6	-40.9	20.7	0.00e+00	0	33	0	57671680	52	6330
2026-01-05 23:09:29.17	126.66	6.12	-39.7	-40.9	20.8	0.00e+00	0	33	0	66060288	52	6352
2026-01-05 23:09:33.21	126.49	6.42	-39.4	-40.7	21.1	0.00e+00	0	33	0	73400320	52	6177
2026-01-05 23:09:37.24	126.32	6.71	-39.5	-40.7	21.1	0.00e+00	0	33	0	80740352	52	6183
2026-01-05 23:09:41.28	126.15	7.01	-39.6	-40.9	20.9	0.00e+00	0	33	0	88080384	52	6332
2026-01-05 23:09:45.32	125.97	7.32	-39.4	-40.6	21.3	0.00e+00	0	33	0	95420416	52	6117
2026-01-05 23:09:49.36	125.79	7.62	-39.1	-40.2	21.7	0.00e+00	0	33	0	103809024	52	5872
2026-01-05 23:09:53.40	125.60	7.93	-39.3	-40.4	21.4	0.00e+00	0	33	0	111149056	52	6017
2026-01-05 23:09:57.44	125.42	8.25	-39.2	-40.4	21.6	0.00e+00	0	33	0	118489088	52	5967
2026-01-05 23:10:01.47	125.22	8.56	-38.9	-40.0	21.8	0.00e+00	0	34	0	125829120	52	5746
2026-01-05 23:10:05.51	125.02	8.88	-38.8	-39.9	21.9	0.00e+00	0	33	0	134217728	52	5684
2026-01-05 23:10:09.55	124.82	9.21	-38.8	-39.9	22.0	0.00e+00	0	33	0	141557760	52	5656
2026-01-05 23:10:13.59	124.61	9.54	-38.6	-39.7	22.3	0.00e+00	0	33	0	148897792	50	6193
2026-01-05 23:10:17.62	124.40	9.87	-38.4	-39.4	22.6	0.00e+00	0	33	0	156237824	50	5981
2026-01-05 23:10:21.66	124.18	10.21	-38.5	-39.6	22.4	0.00e+00	0	33	0	163577856	50	6110
2026-01-05 23:10:25.70	123.96	10.55	-38.1	-39.1	22.8	0.00e+00	0	33	0	171966464	50	5769
2026-01-05 23:10:29.74	123.73	10.89	-38.0	-39.0	22.9	0.00e+00	0	33	0	179306496	50	5711
2026-01-05 23:10:33.77	123.49	11.24	-38.1	-39.0	23.0	0.00e+00	0	34	0	186646528	50	5760
2026-01-05 23:10:37.81	123.25	11.59	-37.7	-38.7	23.3	0.00e+00	0	34	0	193986560	50	5516
2026-01-05 23:10:41.85	123.00	11.95	-37.8	-38.7	23.2	0.00e+00	0	33	0	202375168	48	6200
2026-01-05 23:10:45.89	122.75	12.32	-37.8	-38.7	23.3	0.00e+00	0	34	0	209715200	48	6228
2026-01-05 23:10:49.92	122.49	12.68	-37.7	-38.6	23.2	0.00e+00	0	34	0	217055232	48	6155
2026-01-05 23:10:53.96	122.22	13.06	-37.6	-38.5	23.4	0.00e+00	0	33	0	224395264	48	6099
2026-01-05 23:10:58.00	121.95	13.44	-37.7	-38.6	23.3	0.00e+00	0	34	0	231735296	48	6143
2026-01-05 23:11:02.04	121.67	13.82	-37.6	-38.5	23.5	0.00e+00	0	34	0	240123904	48	6069
2026-01-05 23:11:06.08	121.38	14.21	-37.6	-38.5	23.5	0.00e+00	0	33	0	247463936	48	6082
2026-01-05 23:11:10.11	121.08	14.60	-37.6	-38.5	23.4	0.00e+00	0	33	0	254803968	48	6085
2026-01-05 23:11:14.15	120.77	15.00	-37.7	-38.6	23.4	0.00e+00	0	33	0	262144000	48	6126
2026-01-05 23:11:18.19	120.46	15.41	-37.6	-38.6	23.4	0.00e+00	0	34	0	270532608	48	6104
2026-01-05 23:11:22.23	120.13	15.82	-37.7	-38.7	23.3	0.00e+00	0	33	0	277872640	48	6180
2026-01-05 23:11:26.27	119.80	16.24	-37.4	-38.3	23.7	0.00e+00	0	34	0	285212672	48	5925
2026-01-05 23:11:30.30	119.46	16.66	-37.6	-38.6	23.5	0.00e+00	0	34	0	292552704	48	6104
2026-01-05 23:11:34.34	119.11	17.09	-37.7	-38.6	23.4	0.00e+00	0	34	0	299892736	48	6135
2026-01-05 23:11:38.38	118.74	17.53	-37.9	-38.8	23.3	0.00e+00	0	34	0	308281344	48	6289
2026-01-05 23:11:42.41	118.37	17.97	-38.0	-38.9	23.2	0.00e+00	0	34	0	315621376	48	6363
2026-01-05 23:11:46.45	117.98	18.43	-37.9	-38.8	23.2	0.00e+00	0	34	0	322961408	48	6317
2026-01-05 23:11:50.48	117.58	18.88	-38.1	-39.0	23.1	0.00e+00	0	34	0	330301440	48	6456
2026-01-05 23:11:54.51	117.17	19.35	-37.9	-38.8	23.3	0.00e+00	0	34	0	337641472	48	6276
2026-01-05 23:11:58.55	116.75	19.82	-38.0	-39.0	23.2	0.00e+00	0	34	0	346030080	48	6401
2026-01-05 23:12:02.59	116.31	20.30	-38.0	-38.9	23.3	0.00e+00	0	34	0	353370112	48	6388
2026-01-05 23:12:06.62	115.86	20.78	-38.1	-39.0	23.2	0.00e+00	0	34	0	360710144	48	6426
2026-01-05 23:12:10.66	115.39	21.28	-38.2	-39.1	23.0	0.00e+00	0	34	0	368050176	48	6535
2026-01-05 23:12:14.69	114.91	21.78	-38.1	-39.0	23.2	0.00e+00	0	34	0	376438784	48	6438
2026-01-05 23:12:18.73	114.41	22.29	-38.0	-39.0	23.2	0.00e+00	0	34	0	383778816	48	6417
2026-01-05 23:12:22.77	113.89	22.80	-38.0	-38.9	23.3	0.00e+00	0	34	0	391118848	48	6350
2026-01-05 23:12:26.80	113.36	23.33	-38.1	-39.0	23.3	0.00e+00	0	34	0	398458880	48	6436
2026-01-05 23:12:30.84	112.81	23.86	-38.0	-38.9	23.2	0.00e+00	0	34	0	405798912	48	6354
2026-01-05 23:12:34.88	112.24	24.40	-37.9	-38.9	23.3	0.00e+00	0	34	0	414187520	48	6319
2026-01-05 23:12:38.92	111.64	24.95	-38.3	-39.2	23.1	0.00e+00	0	34	0	421527552	48	6581
2026-01-05 23:12:42.96	111.03	25.51	-38.2	-39.2	23.1	0.00e+00	0	34	0	428867584	48	6556
2026-01-05 23:12:46.99	110.39	26.07	-38.1	-39.1	23.2	0.00e+00	0	34	0	436207616	48	6493
2026-01-05 23:12:51.03	109.73	26.65	-37.9	-38.8	23.4	0.00e+00	0	34	0	444596224	48	6289
2026-01-05 23:12:55.07	109.05	27.23	-38.1	-39.0	23.2	0.00e+00	0	34	0	451936256	48	6412
2026-01-05 23:12:59.11	108.33	27.82	-38.0	-38.9	23.3	0.00e+00	0	34	0	459276288	48	6343
2026-01-05 23:13:03.14	107.60	28.41	-38.2	-39.2	23.2	0.00e+00	0	34	0	466616320	48	6541
2026-01-05 23:13:07.18	106.83	29.02	-38.7	-39.7	22.7	0.00e+00	0	34	0	473956352	48	6939
2026-01-05 23:13:11.22	106.03	29.63	-39.6	-40.7	21.8	0.00e+00	0	34	0	482344960	50	6943
2026-01-05 23:13:15.25	105.21	30.25	-40.3	-41.5	21.1	0.00e+00	0	34	0	489684992	52	6793
2026-01-05 23:13:19.29	104.34	30.87	-40.6	-41.9	20.7	0.00e+00	0	34	0	497025024	52	7126
2026-01-05 23:13:23.33	103.45	31.50	-41.0	-42.3	20.3	0.00e+00	0	34	0	504365056	54	6632
2026-01-05 23:13:27.36	102.52	32.13	-41.0	-42.3	20.3	0.00e+00	0	34	0	511705088	54	6687
2026-01-05 23:13:31.40	101.55	32.77	-40.5	-41.8	20.8	0.00e+00	0	34	0	520093696	54	6250
2026-01-05 23:13:35.44	100.54	33.42	-40.7	-42.0	20.6	0.00e+00	0	34	0	527433728	54	6412
2026-01-05 23:13:39.48	99.49	34.07	-40.8	-42.1	20.5	0.00e+00	0	34	0	534773760	54	6500
2026-01-05 23:13:43.52	98.40	34.71	-40.3	-41.5	21.0	0.00e+00	0	34	0	542113792	54	6100
2026-01-05 23:13:47.55	97.26	35.36	-39.6	-40.7	21.9	0.00e+00	0	34	0	550502400	52	6180
2026-01-05 23:13:51.59	96.08	36.01	-39.2	-40.3	22.3	0.00e+00	0	34	0	557842432	52	5904
2026-01-05 23:13:55.63	94.85	36.66	-39.2	-40.2	22.3	0.00e+00	0	34	0	565182464	52	5893
2026-01-05 23:13:59.66	93.57	37.30	-39.3	-40.4	22.2	0.00e+00	0	34	0	572522496	52	5975
2026-01-05 23:14:03.69	92.24	37.94	-39.5	-40.5	22.1	0.00e+00	0	34	0	579862528	52	6097
2026-01-05 23:14:07.72	90.85	38.58	-39.6	-40.7	21.8	0.00e+00	0	34	0	588251136	52	6220
2026-01-05 23:14:11.76	89.41	39.20	-40.2	-41.4	21.1	0.00e+00	0	34	0	595591168	52	6746
2026-01-05 23:14:15.80	87.91	39.82	-40.2	-41.4	21.3	0.00e+00	0	34	0	602931200	52	6695
2026-01-05 23:14:19.84	86.35	40.42	-39.0	-40.0	22.5	0.00e+00	0	34	0	610271232	52	5745
2026-01-05 23:14:23.87	84.74	41.01	-38.9	-39.9	22.7	0.00e+00	0	34	0	618659840	52	5653
2026-01-05 23:14:27.91	83.07	41.58	-37.6	-38.5	23.8	0.00e+00	0	34	0	625999872	48	6088
2026-01-05 23:14:31.95	81.33	42.13	-36.8	-37.6	24.5	0.00e+00	0	34	0	633339904	48	5499
2026-01-05 23:14:35.98	79.55	42.65	-37.0	-37.8	24.4	0.00e+00	0	34	0	640679936	48	5628
2026-01-05 23:14:40.02	77.69	43.15	-37.3	-38.1	24.1	0.00e+00	0	34	0	648019968	48	5800
2026-01-05 23:14:44.06	75.79	43.63	-38.3	-39.2	23.1	0.00e+00	0	34	0	656408576	48	6613
2026-01-05 23:14:48.10	73.82	44.07	-38.4	-39.3	23.1	0.00e+00	0	34	0	663748608	48	6692
2026-01-05 23:14:52.14	71.81	44.48	-38.2	-39.2	23.2	0.00e+00	0	34	0	671088640	48	6556
2026-01-05 23:14:56.18	69.74	44.85	-38.3	-39.3	23.1	0.00e+00	0	34	0	678428672	48	6619
2026-01-05 23:15:00.22	67.63	45.18	-38.6	-39.6	22.8	0.00e+00	0	34	0	686817280	48	6868
2026-01-05 23:15:04.25	65.48	45.47	-39.1	-40.2	22.5	0.00e+00	0	34	0	694157312	50	6544
2026-01-05 23:15:08.29	63.29	45.71	-38.9	-39.9	22.7	0.00e+00	0	34	0	701497344	50	6334
2026-01-05 23:15:12.33	61.06	45.91	-39.7	-40.8	21.7	0.00e+00	0	34	0	708837376	50	7029
2026-01-05 23:15:16.37	58.82	46.06	-39.4	-40.5	22.1	0.00e+00	0	34	0	716177408	52	6036
2026-01-05 23:15:20.41	56.55	46.17	-39.6	-40.7	22.0	0.00e+00	0	34	0	724566016	52	6181
2026-01-05 23:15:24.45	54.27	46.22	-39.3	-40.3	22.2	0.00e+00	0	34	0	731906048	52	5963
2026-01-05 23:15:28.49	51.99	46.23	-39.2	-40.2	22.3	0.00e+00	0	34	0	739246080	52	5896
2026-01-05 23:15:32.53	49.72	46.18	-39.6	-40.7	21.7	0.00e+00	0	34	0	746586112	52	6207
2026-01-05 23:15:36.56	47.46	46.08	-39.9	-41.0	21.5	0.00e+00	0	34	0	753926144	52	6427
2026-01-05 23:15:40.60	45.21	45.94	-40.9	-42.2	20.4	0.00e+00	0	34	0	762314752	54	6569
2026-01-05 23:15:44.63	42.99	45.75	-40.2	-41.4	21.2	0.00e+00	0	34	0	769654784	54	5989
2026-01-05 23:15:48.67	40.79	45.51	-40.6	-41.8	20.8	0.00e+00	0	34	0	776994816	54	6296
2026-01-05 23:15:52.71	38.63	45.23	-39.8	-40.9	21.6	0.00e+00	0	34	0	784334848	54	5671
2026-01-05 23:15:56.75	36.51	44.90	-39.6	-40.7	21.9	0.00e+00	0	34	0	792723456	52	6178
2026-01-05 23:16:00.79	34.44	44.54	-38.9	-40.0	22.5	0.00e+00	0	34	0	800063488	50	6397
2026-01-05 23:16:04.83	32.42	44.14	-37.6	-38.5	23.9	0.00e+00	0	34	0	807403520	48	6071
2026-01-05 23:16:08.87	30.45	43.70	-37.6	-38.4	23.9	0.00e+00	0	34	0	814743552	48	6030
2026-01-05 23:16:12.91	28.54	43.24	-36.6	-37.4	24.7	0.00e+00	0	34	0	822083584	46	6006
2026-01-05 23:16:16.95	26.68	42.74	-36.1	-36.9	25.1	0.00e+00	0	34	0	830472192	46	5682
2026-01-05 23:16:20.98	24.89	42.22	-35.9	-36.7	25.3	0.00e+00	0	34	0	837812224	46	5530
2026-01-05 23:16:25.02	23.15	41.67	-35.9	-36.7	25.4	0.00e+00	0	34	0	845152256	46	5520
2026-01-05 23:16:29.06	21.47	41.11	-35.9	-36.6	25.4	0.00e+00	0	34	0	852492288	46	5495
2026-01-05 23:16:33.10	19.85	40.53	-36.0	-36.8	25.2	0.00e+00	0	34	0	860880896	44	6251
2026-01-05 23:16:37.14	18.28	39.93	-36.3	-37.1	24.9	0.00e+00	0	34	0	868220928	44	6476
2026-01-05 23:16:41.17	16.78	39.32	-36.7	-37.5	24.6	0.00e+00	0	34	0	875560960	44	6825
2026-01-05 23:16:45.21	15.34	38.70	-37.0	-37.9	24.4	0.00e+00	0	34	0	882900992	46	6318
2026-01-05 23:16:49.25	13.94	38.06	-37.0	-37.8	24.4	0.00e+00	0	34	0	890241024	46	6271
2026-01-05 23:16:53.29	12.60	37.43	-37.5	-38.3	24.0	0.00e+00	0	34	0	898629632	46	6685
2026-01-05 23:16:57.32	11.32	36.79	-38.1	-39.0	23.5	0.00e+00	0	34	0	905969664	48	6429
2026-01-05 23:17:01.36	10.08	36.14	-38.9	-39.9	22.6	0.00e+00	0	34	0	913309696	50	6345
2026-01-05 23:17:05.40	8.89	35.49	-39.5	-40.6	22.0	0.00e+00	0	34	0	920649728	50	6849
2026-01-05 23:17:09.43	7.75	34.85	-40.2	-41.4	21.3	0.00e+00	0	34	0	929038336	52	6722
2026-01-05 23:17:13.47	6.66	34.20	-41.3	-42.7	20.0	0.00e+00	0	34	0	936378368	54	6951
2026-01-05 23:17:17.51	5.60	33.56	-41.4	-42.9	19.9	0.00e+00	0	34	0	943718400	54	7104
2026-01-05 23:17:21.55	4.59	32.91	-40.9	-42.3	20.4	0.00e+00	0	34	0	951058432	54	6638
2026-01-05 23:17:25.59	3.62	32.28	-40.9	-42.3	20.4	0.00e+00	0	34	0	958398464	54	6616
2026-01-05 23:17:29.63	2.69	31.64	-40.1	-41.2	21.3	0.00e+00	0	34	0	966787072	54	5895
2026-01-05 23:17:33.66	1.79	31.01	-39.4	-40.5	22.1	0.00e+00	0	34	0	974127104	52	6048
2026-01-05 23:17:37.70	0.93	30.39	-39.9	-41.1	21.6	0.00e+00	0	34	0	981467136	52	6470
2026-01-05 23:17:41.74	0.09	29.78	-39.7	-40.7	21.8	0.00e+00	0	34	0	988807168	52	6237
2026-01-05 23:17:45.77	359.30	29.17	-39.7	-40.8	21.7	0.00e+00	0	34	0	997195776	52	6278
2026-01-05 23:17:49.81	358.53	28.56	-39.6	-40.6	21.8	0.00e+00	0	34	0	1004535808	52	6169
2026-01-05 23:17:53.84	357.79	27.97	-39.1	-40.2	22.3	0.00e+00	0	34	0	1011875840	52	5846
2026-01-05 23:17:57.88	357.08	27.38	-39.7	-40.9	21.6	0.00e+00	0	34	0	1019215872	52	6331
2026-01-05 23:18:01.91	356.39	26.80	-39.1	-40.2	22.3	0.00e+00	0	34	0	1026555904	52	5835
2026-01-05 23:18:05.95	355.73	26.23	-39.0	-40.1	22.3	0.00e+00	0	34	0	1034944512	52	5781
2026-01-05 23:18:09.98	355.09	25.67	-38.8	-39.8	22.6	0.00e+00	0	34	0	1042284544	52	5621
2026-01-05 23:18:14.03	354.47	25.11	-39.0	-40.1	22.3	0.00e+00	0	34	0	1049624576	52	5764
2026-01-05 23:18:18.06	353.88	24.56	-38.8	-39.9	22.6	0.00e+00	0	34	0	1056964608	52	5640
2026-01-05 23:18:22.10	353.31	24.02	-38.4	-39.4	22.9	0.00e+00	0	34	0	1065353216	50	5996
2026-01-05 23:18:26.14	352.75	23.49	-38.1	-39.0	23.3	0.00e+00	0	34	0	1072693248	50	5744
2026-01-05 23:18:30.17	352.22	22.96	-38.3	-39.3	23.0	0.00e+00	0	34	0	1080033280	50	5936
2026-01-05 23:18:34.21	351.70	22.45	-38.3	-39.3	23.0	0.00e+00	0	34	0	1087373312	50	5932
2026-01-05 23:18:38.25	351.20	21.94	-38.2	-39.2	23.1	0.00e+00	0	34	0	1094713344	50	5832
2026-01-05 23:18:42.28	350.72	21.44	-38.3	-39.2	23.0	0.00e+00	0	34	0	1103101952	50	5887
2026-01-05 23:18:46.32	350.26	20.94	-38.5	-39.5	22.9	0.00e+00	0	34	0	1110441984	50	6066
2026-01-05 23:18:50.36	349.80	20.46	-38.4	-39.4	22.9	0.00e+00	0	34	0	1117782016	50	5999
2026-01-05 23:18:54.40	349.37	19.98	-38.5	-39.5	22.8	0.00e+00	0	34	0	1125122048	50	6038
2026-01-05 23:18:58.44	348.94	19.51	-38.6	-39.6	22.7	0.00e+00	0	34	0	1133510656	50	6122
2026-01-05 23:19:02.47	348.53	19.04	-38.4	-39.4	22.8	0.00e+00	0	34	0	1140850688	50	6004
2026-01-05 23:19:06.51	348.13	18.59	-38.5	-39.5	22.8	0.00e+00	0	34	0	1148190720	50	6077
2026-01-05 23:19:10.55	347.75	18.14	-38.7	-39.8	22.5	0.00e+00	0	34	0	1155530752	50	6267
2026-01-05 23:19:14.59	347.37	17.69	-39.1	-40.1	22.2	0.00e+00	0	34	0	1162870784	50	6530
2026-01-05 23:19:18.62	347.01	17.26	-39.1	-40.2	22.1	0.00e+00	0	34	0	1171259392	50	6594
2026-01-05 23:19:22.66	346.66	16.82	-39.0	-40.1	22.2	0.00e+00	0	34	0	1178599424	50	6483
2026-01-05 23:19:26.70	346.32	16.40	-38.9	-39.9	22.4	0.00e+00	0	34	0	1185939456	50	6382
2026-01-05 23:19:30.74	345.98	15.98	-38.6	-39.6	22.6	0.00e+00	0	34	0	1193279488	50	6127
2026-01-05 23:19:34.78	345.66	15.57	-38.3	-39.3	22.8	0.00e+00	0	34	0	1201668096	50	5953
2026-01-05 23:19:38.81	345.35	15.17	-38.5	-39.6	22.5	0.00e+00	0	34	0	1209008128	50	6117
2026-01-05 23:19:42.85	345.04	14.77	-38.7	-39.8	22.3	0.00e+00	0	34	0	1216348160	50	6249
2026-01-05 23:19:46.89	344.75	14.37	-39.1	-40.2	21.9	0.00e+00	0	34	0	1223688192	50	6598
2026-01-05 23:19:50.93	344.46	13.98	-39.3	-40.4	21.7	0.00e+00	0	34	0	1231028224	50	6756
2026-01-05 23:19:54.96	344.18	13.60	-39.5	-40.7	21.4	0.00e+00	0	34	0	1239416832	50	6937
2026-01-05 23:19:59.00	343.90	13.22	-39.5	-40.7	21.2	0.00e+00	0	34	0	1246756864	50	7005
2026-01-05 23:20:03.04	343.64	12.85	-39.7	-41.0	21.1	0.00e+00	0	34	0	1254096896	50	7175
2026-01-05 23:20:07.07	343.38	12.48	-39.5	-40.8	21.3	0.00e+00	0	34	0	1261436928	50	7034
2026-01-05 23:20:11.12	343.13	12.12	-39.5	-40.8	21.3	0.00e+00	0	34	0	1269825536	50	7028
2026-01-05 23:20:15.16	342.88	11.76	-39.6	-40.8	21.3	0.00e+00	0	34	0	1277165568	52	6301
2026-01-05 23:20:19.19	342.64	11.40	-39.7	-41.0	21.1	0.00e+00	0	34	0	1284505600	52	6413
2026-01-05 23:20:23.23	342.41	11.06	-39.7	-40.9	21.2	0.00e+00	0	34	0	1291845632	52	6360
2026-01-05 23:20:27.26	342.18	10.71	-39.9	-41.1	20.9	0.00e+00	0	34	0	1299185664	52	6531
2026-01-05 23:20:31.30	341.96	10.37	-40.0	-41.3	20.9	0.00e+00	0	34	0	1307574272	52	6633
2026-01-05 23:20:35.34	341.74	10.03	-40.0	-41.4	20.6	0.00e+00	0	34	0	1314914304	52	6707
2026-01-05 23:20:39.38	341.53	9.70	-40.2	-41.5	20.5	0.00e+00	0	34	0	1322254336	52	6838
2026-01-05 23:20:43.42	341.33	9.37	-40.1	-41.5	20.4	0.00e+00	0	34	0	1329594368	52	6807
2026-01-05 23:20:47.45	341.13	9.05	-40.1	-41.5	20.5	0.00e+00	0	34	0	1336934400	52	6793
2026-01-05 23:20:51.47	340.93	8.73	-40.1	-41.4	20.5	0.00e+00	0	34	0	1345323008	52	6719
2026-01-05 23:20:55.51	340.74	8.41	-40.2	-41.5	20.4	0.00e+00	0	34	0	1352663040	52	6822
2026-01-05 23:20:59.55	340.55	8.10	-40.3	-41.6	20.3	0.00e+00	0	34	0	1360003072	52	6908
2026-01-05 23:21:03.58	340.37	7.79	-40.4	-41.7	20.2	0.00e+00	0	34	0	1367343104	52	6981
2026-01-05 23:21:07.63	340.19	7.48	-40.8	-42.2	19.6	0.00e+00	0	34	0	1375731712	54	6612
2026-01-05 23:21:11.66	340.01	7.18	-40.9	-42.4	19.4	0.00e+00	0	34	0	1383071744	54	6719
2026-01-05 23:21:15.70	339.84	6.88	-40.8	-42.3	19.4	0.00e+00	0	34	0	1390411776	54	6643
2026-01-05 23:21:19.74	339.68	6.59	-40.6	-42.1	19.6	0.00e+00	0	34	0	1397751808	54	6497
2026-01-05 23:21:23.77	339.51	6.29	-40.6	-42.1	19.6	0.00e+00	0	34	0	1405091840	54	6480
2026-01-05 23:21:27.81	339.35	6.00	-40.7	-42.2	19.3	0.00e+00	0	34	0	1413480448	54	6611
2026-01-05 23:21:31.85	339.20	5.71	-41.1	-42.7	18.6	0.00e+00	0	34	0	1420820480	54	7007
2026-01-05 23:21:35.88	339.04	5.43	-41.6	-43.6	17.4	0.00e+00	0	34	0	1428160512	54	7715
2026-01-05 23:21:39.92	338.89	5.15	-42.4	-44.9	15.5	0.00e+00	0	34	0	1435500544	56	8043
2026-01-05 23:21:43.95	338.75	4.87	-43.2	-47.1	12.5	3.43e-05	0	34	0	1442840576	58	9162
2026-01-05 23:21:47.99	338.60	4.59	-43.7	-49.5	8.9	1.01e-02	0	34	0	1451229184	58	12119
2026-01-05 23:21:52.03	338.46	4.32	-43.9	-51.9	5.7	3.28e-01	0	34	0	1458569216	60	14211
2026-01-05 23:21:56.07	338.33	4.05	-43.8	-56.1	3.7	1.44e+00	0	34	104	1463812096	60	23024
2026-01-05 23:22:00.11	338.19	3.78	-43.7	-57.9	3.6	1.51e+00	0	34	104	1463812096	60	28351
2026-01-05 23:22:04.15	338.06	3.52	-43.5	-58.6	3.6	1.51e+00	0	34	104	1463812096	60	30749
2026-01-05 23:22:08.19	337.93	3.25	-43.5	-58.6	3.6	1.51e+00	0	34	104	1463812096	60	30882
2026-01-05 23:22:12.23	337.80	2.99	-43.5	-58.6	3.6	1.51e+00	0	34	104	1463812096	60	30909
2026-01-05 23:22:16.27	337.68	2.73	-48.5	-63.6	3.6	1.51e+00	0	34	104	1463812096	60	54828
2026-01-05 23:22:20.31	337.56	2.47	-48.7	-63.9	3.6	1.51e+00	0	34	104	1463812096	60	56641
2026-01-05 23:22:24.35	337.44	2.22	-48.6	-63.8	3.6	1.51e+00	0	34	104	1463812096	60	56125
2026-01-05 23:22:28.39	337.32	1.97	-48.6	-63.8	3.6	1.51e+00	0	34	104	1463812096	60	55882
2026-01-05 23:22:32.43	337.20	1.72	-48.6	-63.8	3.6	1.51e+00	0	34	104	1463812096	60	56094
2026-01-05 23:22:36.47	337.09	1.47	-48.6	-63.8	3.6	1.51e+00	0	34	104	1463812096	60	56107
2026-01-05 23:22:40.50	336.98	1.22	-48.6	-63.8	3.6	1.51e+00	0	34	104	1463812096	60	55929
2026-01-05 23:22:44.54	336.87	0.98	-48.6	-63.8	3.6	1.51e+00	0	34	104	1463812096	60	55809
2026-01-05 23:22:48.58	336.77	0.73	-48.6	-63.8	3.5	1.51e+00	0	34	104	1463812096	60	55931
2026-01-05 23:22:52.62	336.66	0.49	-48.6	-63.8	3.6	1.51e+00	0	34	104	1463812096	60	55889
2026-01-05 23:22:56.66	336.56	0.25	-48.6	-63.8	3.6	1.51e+00	0	34	104	1463812096	60	55865
2026-01-05 23:23:00.70	336.46	0.02	-48.6	-63.8	3.6	1.51e+00	0	34	104	1463812096	60	55724

#Closed at: 2026-01-05 23:23:02
#Recorded file [1463 MB]: D:/lorett/data/35029_260106_110756.dat