passes_logs/2026/01/05/R4.6S_Anadyr/R4.6S_Anadyr__20260105_203942_FENGYUN_3E_rec.log

#Pass ID: 20260105_203942_FENGYUN 3E
#Satellite: FENGYUN 3E
#Configuration: FENGYUN 3E
#almurnet v.1.7.20251203
#Start time: 2026-01-05 20:39:46

#Version: 2.2.20231116
#Station: R4.6S_Anadyr
#Location: 177.4865 lon 64.73178 lat
#TLE: 1 49008U 21062A   26005.56299987  .00000339  00000+0  18069-3 0  9991
#TLE: 2 49008  98.7472  10.8019 0001562 158.0357 202.0886 14.19884907233502

#Time	Az	El	Level	Level2	SNR	BER	BlckErr	Temp	State	Recorded	gain1	gain2
2026-01-05 20:39:46.15	25.70	0.20	-48.4	-58.2	3.3	8.40e-01	0	32	0	0	60	29417
2026-01-05 20:39:50.18	25.55	0.43	-48.5	-59.7	3.6	8.46e-01	0	32	104	0	60	35091
2026-01-05 20:39:54.23	25.39	0.66	-48.3	-59.5	3.6	8.45e-01	0	32	104	0	60	34036
2026-01-05 20:39:58.26	25.22	0.90	-47.7	-58.9	3.6	8.45e-01	0	33	104	0	60	31683
2026-01-05 20:40:02.30	25.06	1.13	-47.0	-58.2	3.6	8.44e-01	0	33	104	0	60	29523
2026-01-05 20:40:06.34	24.89	1.37	-47.0	-58.2	3.6	8.44e-01	0	33	104	0	60	29422
2026-01-05 20:40:10.38	24.72	1.61	-47.0	-58.2	3.6	8.45e-01	0	33	104	0	60	29469
2026-01-05 20:40:14.42	24.54	1.85	-47.0	-58.1	3.6	8.46e-01	0	33	104	0	60	29033
2026-01-05 20:40:18.46	24.36	2.10	-46.9	-57.5	3.6	8.45e-01	0	33	104	0	60	27196
2026-01-05 20:40:22.49	24.18	2.34	-47.0	-58.2	3.6	8.44e-01	0	33	104	0	60	29342
2026-01-05 20:40:26.53	24.00	2.59	-47.0	-58.1	3.5	8.45e-01	0	33	104	0	60	28896
2026-01-05 20:40:30.57	23.81	2.84	-46.9	-57.0	3.6	8.44e-01	0	33	104	0	60	25658
2026-01-05 20:40:34.61	23.61	3.09	-46.9	-57.7	3.6	8.45e-01	0	33	104	0	60	27828
2026-01-05 20:40:38.65	23.42	3.34	-44.6	-47.9	8.8	5.30e-02	0	33	0	10485760	60	8940
2026-01-05 20:40:42.68	23.22	3.60	-47.0	-56.7	3.6	8.38e-01	0	33	104	31457280	60	24761
2026-01-05 20:40:46.72	23.02	3.85	-36.6	-37.3	6.2	8.27e-01	0	33	104	36700160	50	4732
2026-01-05 20:40:50.76	22.81	4.11	-34.7	-35.5	21.9	0.00e+00	0	33	0	59768832	42	6041
2026-01-05 20:40:54.79	22.60	4.37	-34.4	-35.2	22.2	0.00e+00	0	33	0	89128960	42	5851
2026-01-05 20:40:58.83	22.39	4.64	-34.6	-35.3	22.3	0.00e+00	0	33	0	117440512	42	5949
2026-01-05 20:41:02.86	22.17	4.90	-34.0	-34.7	22.7	0.00e+00	0	33	0	146800640	42	5545
2026-01-05 20:41:06.90	21.94	5.17	-34.5	-35.2	22.3	0.00e+00	0	33	0	176160768	42	5859
2026-01-05 20:41:10.93	21.72	5.44	-34.2	-34.9	22.7	0.00e+00	0	33	0	205520896	42	5646
2026-01-05 20:41:14.97	21.48	5.71	-34.0	-34.7	22.8	0.00e+00	0	33	0	234881024	42	5514
2026-01-05 20:41:19.01	21.25	5.99	-33.9	-34.6	22.9	0.00e+00	0	33	0	264241152	40	6159
2026-01-05 20:41:23.05	21.00	6.26	-33.7	-34.4	23.1	0.00e+00	0	33	0	292552704	40	6023
2026-01-05 20:41:27.09	20.76	6.54	-33.7	-34.4	23.2	0.00e+00	0	33	0	321912832	40	6018
2026-01-05 20:41:31.13	20.50	6.82	-33.6	-34.3	23.4	0.00e+00	0	33	0	351272960	40	5958
2026-01-05 20:41:35.17	20.25	7.11	-33.5	-34.2	23.5	0.00e+00	0	33	0	380633088	40	5875
2026-01-05 20:41:39.21	19.98	7.40	-33.4	-34.1	23.6	0.00e+00	0	33	0	409993216	40	5796
2026-01-05 20:41:43.25	19.71	7.69	-33.2	-33.9	23.8	0.00e+00	0	33	0	438304768	40	5684
2026-01-05 20:41:47.29	19.44	7.98	-33.3	-34.0	23.7	0.00e+00	0	33	0	467664896	40	5705
2026-01-05 20:41:51.33	19.16	8.27	-33.0	-33.7	24.0	0.00e+00	0	33	0	497025024	40	5532
2026-01-05 20:41:55.37	18.87	8.57	-33.1	-33.8	23.9	0.00e+00	0	33	0	526385152	40	5606
2026-01-05 20:41:59.41	18.58	8.87	-32.9	-33.6	24.2	0.00e+00	0	34	0	554696704	40	5452
2026-01-05 20:42:03.45	18.28	9.18	-32.8	-33.5	24.3	0.00e+00	0	33	0	584056832	38	6064
2026-01-05 20:42:07.48	17.98	9.48	-32.7	-33.4	24.3	0.00e+00	0	34	0	613416960	38	5981
2026-01-05 20:42:11.52	17.67	9.79	-32.6	-33.3	24.5	0.00e+00	0	34	0	642777088	38	5915
2026-01-05 20:42:15.56	17.35	10.11	-32.8	-33.4	24.5	0.00e+00	0	34	0	672137216	38	6028
2026-01-05 20:42:19.60	17.02	10.42	-32.4	-33.1	24.7	0.00e+00	0	34	0	700448768	38	5790
2026-01-05 20:42:23.63	16.69	10.74	-32.3	-32.9	24.9	0.00e+00	0	34	0	729808896	38	5678
2026-01-05 20:42:27.67	16.34	11.06	-32.0	-32.7	25.1	0.00e+00	0	34	0	759169024	38	5508
2026-01-05 20:42:31.70	15.99	11.39	-31.9	-32.6	25.3	0.00e+00	0	34	0	788529152	36	6111
2026-01-05 20:42:35.74	15.64	11.72	-32.0	-32.6	25.2	0.00e+00	0	34	0	817889280	36	6127
2026-01-05 20:42:39.78	15.27	12.05	-32.1	-32.7	25.1	0.00e+00	0	34	0	846200832	36	6220
2026-01-05 20:42:43.82	14.89	12.38	-32.5	-33.1	24.8	0.00e+00	0	34	0	875560960	36	6517
2026-01-05 20:42:47.86	14.51	12.72	-31.8	-32.5	25.4	0.00e+00	0	34	0	904921088	36	6052
2026-01-05 20:42:51.89	14.12	13.06	-32.2	-32.9	25.0	0.00e+00	0	34	0	934281216	36	6319
2026-01-05 20:42:55.93	13.71	13.41	-31.4	-32.0	25.8	0.00e+00	0	34	0	963641344	36	5750
2026-01-05 20:42:59.97	13.30	13.76	-31.3	-31.9	25.9	0.00e+00	0	34	0	993001472	36	5680
2026-01-05 20:43:04.01	12.88	14.11	-31.4	-32.0	25.8	0.00e+00	0	34	0	1021313024	36	5743
2026-01-05 20:43:08.05	12.44	14.46	-31.4	-32.0	25.8	0.00e+00	0	34	0	1050673152	36	5725
2026-01-05 20:43:12.09	12.00	14.82	-31.3	-32.0	25.8	0.00e+00	0	34	0	1080033280	36	5696
2026-01-05 20:43:16.13	11.54	15.19	-31.3	-31.9	25.9	0.00e+00	0	34	0	1109393408	36	5675
2026-01-05 20:43:20.17	11.07	15.55	-31.1	-31.7	26.1	0.00e+00	0	34	0	1138753536	36	5552
2026-01-05 20:43:24.20	10.59	15.92	-31.1	-31.7	26.0	0.00e+00	0	34	0	1167065088	34	6232
2026-01-05 20:43:28.24	10.10	16.30	-30.9	-31.5	26.3	0.00e+00	0	34	0	1196425216	34	6085
2026-01-05 20:43:32.28	9.59	16.67	-30.8	-31.4	26.4	0.00e+00	0	34	0	1225785344	34	6000
2026-01-05 20:43:36.32	9.08	17.05	-30.4	-31.1	26.6	0.00e+00	0	34	0	1255145472	34	5773
2026-01-05 20:43:40.36	8.54	17.44	-30.5	-31.1	26.7	0.00e+00	0	34	0	1283457024	34	5790
2026-01-05 20:43:44.40	8.00	17.83	-30.2	-30.8	26.9	0.00e+00	0	34	0	1312817152	34	5598
2026-01-05 20:43:48.43	7.44	18.22	-30.2	-30.8	27.0	0.00e+00	0	34	0	1342177280	34	5595
2026-01-05 20:43:52.47	6.86	18.61	-30.0	-30.6	27.1	0.00e+00	0	34	0	1371537408	34	5473
2026-01-05 20:43:56.51	6.27	19.01	-29.7	-30.3	27.2	0.00e+00	0	34	0	1400897536	32	5955
2026-01-05 20:44:00.55	5.66	19.41	-29.7	-30.3	27.4	0.00e+00	0	34	0	1429209088	32	5919
2026-01-05 20:44:04.59	5.04	19.81	-30.0	-30.6	27.1	0.00e+00	0	34	0	1458569216	32	6127
2026-01-05 20:44:08.63	4.40	20.22	-30.2	-30.8	27.0	0.00e+00	0	34	0	1487929344	32	6265
2026-01-05 20:44:12.67	3.74	20.63	-30.0	-30.6	27.2	0.00e+00	0	34	0	1517289472	32	6116
2026-01-05 20:44:16.70	3.06	21.04	-29.9	-30.5	27.3	0.00e+00	0	34	0	1546649600	32	6039
2026-01-05 20:44:20.74	2.37	21.45	-30.0	-30.6	27.3	0.00e+00	0	34	0	1574961152	32	6162
2026-01-05 20:44:24.78	1.65	21.87	-29.9	-30.6	27.3	0.00e+00	0	34	0	1604321280	32	6105
2026-01-05 20:44:28.82	0.92	22.28	-29.7	-30.3	27.4	0.00e+00	0	34	0	1633681408	32	5924
2026-01-05 20:44:32.86	0.16	22.70	-29.7	-30.3	27.5	0.00e+00	0	34	0	1663041536	32	5953
2026-01-05 20:44:36.90	359.38	23.13	-29.4	-30.0	27.6	0.00e+00	0	34	0	1692401664	32	5713
2026-01-05 20:44:40.93	358.59	23.55	-29.3	-29.9	27.6	0.00e+00	0	34	0	1721761792	32	5680
2026-01-05 20:44:44.97	357.77	23.97	-29.0	-29.6	27.8	0.00e+00	0	34	0	1750073344	32	5491
2026-01-05 20:44:49.01	356.92	24.39	-29.1	-29.7	27.8	0.00e+00	0	34	0	1779433472	32	5531
2026-01-05 20:44:53.05	356.06	24.81	-28.9	-29.5	27.9	0.00e+00	0	34	0	1808793600	32	5383
2026-01-05 20:44:57.09	355.17	25.24	-29.0	-29.6	28.0	0.00e+00	0	34	0	1838153728	32	5460
2026-01-05 20:45:01.13	354.25	25.66	-29.0	-29.6	27.8	0.00e+00	0	34	0	1867513856	32	5448
2026-01-05 20:45:05.16	353.32	26.08	-29.2	-29.8	27.6	0.00e+00	0	34	0	1895825408	32	5616
2026-01-05 20:45:09.21	352.35	26.49	-29.2	-29.8	27.8	0.00e+00	0	34	0	1925185536	32	5582
2026-01-05 20:45:13.24	351.36	26.91	-29.1	-29.7	28.0	0.00e+00	0	34	0	1954545664	32	5521
2026-01-05 20:45:17.28	350.34	27.32	-29.1	-29.7	27.9	0.00e+00	0	34	0	1983905792	32	5533
2026-01-05 20:45:21.31	349.30	27.72	-29.2	-29.8	27.9	0.00e+00	0	34	0	2013265920	32	5611
2026-01-05 20:45:25.35	348.23	28.13	-28.8	-29.3	28.2	0.00e+00	0	34	0	2041577472	30	5962
2026-01-05 20:45:29.39	347.13	28.52	-28.9	-29.5	28.0	0.00e+00	0	34	0	2070937600	30	6088
2026-01-05 20:45:33.44	346.00	28.91	-29.3	-29.9	27.8	0.00e+00	0	34	0	2100297728	30	6356
2026-01-05 20:45:37.47	344.85	29.29	-29.0	-29.6	28.0	0.00e+00	0	34	0	2129657856	30	6143
2026-01-05 20:45:41.51	343.67	29.67	-29.3	-29.9	27.8	0.00e+00	0	34	0	2157969408	30	6363
2026-01-05 20:45:45.55	342.46	30.03	-28.8	-29.3	28.2	0.00e+00	0	34	0	2187329536	30	5953
2026-01-05 20:45:49.59	341.22	30.39	-28.5	-29.1	28.3	0.00e+00	0	34	0	2216689664	30	5812
2026-01-05 20:45:53.62	339.96	30.73	-28.8	-29.4	28.1	0.00e+00	0	34	0	2246049792	30	6001
2026-01-05 20:45:57.66	338.67	31.06	-29.0	-29.6	28.0	0.00e+00	0	34	0	2275409920	30	6120
2026-01-05 20:46:01.69	337.36	31.38	-28.6	-29.2	28.3	0.00e+00	0	34	0	2303721472	30	5881
2026-01-05 20:46:05.73	336.01	31.68	-28.6	-29.2	28.2	0.00e+00	0	34	0	2333081600	30	5844
2026-01-05 20:46:09.77	334.65	31.97	-28.5	-29.1	28.4	0.00e+00	0	34	0	2362441728	30	5782
2026-01-05 20:46:13.81	333.25	32.24	-28.6	-29.2	28.4	0.00e+00	0	34	0	2391801856	30	5856
2026-01-05 20:46:17.85	331.84	32.50	-28.4	-29.0	28.5	0.00e+00	0	34	0	2421161984	30	5711
2026-01-05 20:46:21.89	330.40	32.73	-28.2	-28.8	28.5	0.00e+00	0	34	0	2449473536	30	5581
2026-01-05 20:46:25.92	328.95	32.95	-28.5	-29.1	28.4	0.00e+00	0	34	0	2478833664	30	5784
2026-01-05 20:46:29.96	327.47	33.15	-28.6	-29.1	28.3	0.00e+00	0	34	0	2508193792	30	5812
2026-01-05 20:46:34.00	325.97	33.33	-28.4	-29.0	28.6	0.00e+00	0	34	0	2537553920	30	5699
2026-01-05 20:46:38.04	324.46	33.48	-28.4	-28.9	28.5	0.00e+00	0	34	0	2566914048	30	5690
2026-01-05 20:46:42.09	322.94	33.62	-28.5	-29.1	28.4	0.00e+00	0	34	0	2596274176	30	5767
2026-01-05 20:46:46.12	321.40	33.73	-28.7	-29.2	28.2	0.00e+00	0	34	0	2624585728	30	5891
2026-01-05 20:46:50.16	319.86	33.82	-28.8	-29.4	28.2	0.00e+00	0	34	0	2653945856	30	5989
2026-01-05 20:46:54.19	318.31	33.88	-28.5	-29.1	28.4	0.00e+00	0	34	0	2683305984	30	5795
2026-01-05 20:46:58.23	316.75	33.92	-28.3	-28.9	28.6	0.00e+00	0	34	0	2712666112	30	5653
2026-01-05 20:47:02.27	315.19	33.94	-28.1	-28.7	28.7	0.00e+00	0	34	0	2742026240	30	5510
2026-01-05 20:47:06.31	313.63	33.93	-28.6	-29.2	28.3	0.00e+00	0	34	0	2770337792	30	5851
2026-01-05 20:47:10.35	312.07	33.90	-28.4	-29.0	28.4	0.00e+00	0	34	0	2799697920	30	5708
2026-01-05 20:47:14.39	310.52	33.84	-28.6	-29.1	28.0	0.00e+00	0	34	0	2829058048	30	5827
2026-01-05 20:47:18.42	308.97	33.76	-28.5	-29.1	28.3	0.00e+00	0	34	0	2858418176	30	5782
2026-01-05 20:47:22.46	307.43	33.66	-28.6	-29.1	28.4	0.00e+00	0	34	0	2887778304	30	5819
2026-01-05 20:47:26.50	305.90	33.53	-28.4	-29.0	28.5	0.00e+00	0	34	0	2916089856	30	5703
2026-01-05 20:47:30.53	304.39	33.39	-28.5	-29.1	28.4	0.00e+00	0	34	0	2945449984	30	5764
2026-01-05 20:47:34.57	302.89	33.22	-28.2	-28.8	28.6	0.00e+00	0	34	0	2974810112	30	5598
2026-01-05 20:47:38.61	301.40	33.03	-28.5	-29.1	28.4	0.00e+00	0	34	0	3004170240	30	5799
2026-01-05 20:47:42.65	299.93	32.81	-28.4	-28.9	28.4	0.00e+00	0	34	0	3032481792	30	5692
2026-01-05 20:47:46.69	298.49	32.58	-28.5	-29.1	28.4	0.00e+00	0	34	0	3061841920	30	5767
2026-01-05 20:47:50.73	297.06	32.33	-28.5	-29.1	28.4	0.00e+00	0	34	0	3091202048	30	5817
2026-01-05 20:47:54.76	295.66	32.07	-28.4	-29.0	28.4	0.00e+00	0	34	0	3120562176	30	5757
2026-01-05 20:47:58.80	294.28	31.78	-28.5	-29.1	28.1	0.00e+00	0	34	0	3149922304	30	5819
2026-01-05 20:48:02.84	292.92	31.49	-28.4	-28.9	28.5	0.00e+00	0	34	0	3178233856	30	5688
2026-01-05 20:48:06.88	291.59	31.17	-28.7	-29.3	28.2	0.00e+00	0	34	0	3207593984	30	5937
2026-01-05 20:48:10.91	290.29	30.84	-28.5	-29.1	28.3	0.00e+00	0	34	0	3236954112	30	5809
2026-01-05 20:48:14.95	289.02	30.51	-28.6	-29.2	28.4	0.00e+00	0	34	0	3266314240	30	5848
2026-01-05 20:48:18.99	287.77	30.15	-28.6	-29.2	28.2	0.00e+00	0	34	0	3295674368	30	5876
2026-01-05 20:48:23.03	286.54	29.79	-28.8	-29.4	28.2	0.00e+00	0	34	0	3325034496	30	5977
2026-01-05 20:48:27.06	285.35	29.42	-28.6	-29.2	28.2	0.00e+00	0	34	0	3353346048	30	5876
2026-01-05 20:48:31.10	284.18	29.04	-28.7	-29.3	28.0	0.00e+00	0	34	0	3382706176	30	5950
2026-01-05 20:48:35.14	283.05	28.65	-28.6	-29.1	28.2	0.00e+00	0	34	0	3412066304	30	5818
2026-01-05 20:48:39.18	281.93	28.26	-28.6	-29.2	28.2	0.00e+00	0	34	0	3441426432	30	5836
2026-01-05 20:48:43.22	280.85	27.86	-28.8	-29.6	24.1	0.00e+00	0	34	0	3470786560	30	6149
2026-01-05 20:48:47.26	279.79	27.45	-29.1	-29.9	24.0	0.00e+00	0	34	0	3499098112	30	6347
2026-01-05 20:48:51.30	278.76	27.04	-28.8	-29.6	24.3	0.00e+00	0	34	0	3528458240	30	6115
2026-01-05 20:48:55.34	277.76	26.62	-28.7	-29.5	24.4	0.00e+00	0	34	0	3557818368	30	6080
2026-01-05 20:48:59.38	276.78	26.21	-29.0	-29.8	24.0	0.00e+00	0	34	0	3587178496	30	6256
2026-01-05 20:49:03.42	275.83	25.79	-28.8	-29.6	24.2	0.00e+00	0	34	0	3616538624	30	6138
2026-01-05 20:49:07.46	274.90	25.36	-28.8	-29.6	24.4	0.00e+00	0	34	0	3644850176	30	6126
2026-01-05 20:49:11.49	274.00	24.94	-28.8	-29.6	24.2	0.00e+00	0	34	0	3674210304	30	6149
2026-01-05 20:49:15.53	273.12	24.52	-29.2	-30.0	23.9	0.00e+00	0	34	0	3703570432	30	6433
2026-01-05 20:49:19.57	272.27	24.09	-29.4	-30.2	24.2	0.00e+00	0	34	0	3732930560	30	6566
2026-01-05 20:49:23.60	271.44	23.67	-28.8	-29.5	24.6	0.00e+00	0	34	0	3761242112	30	6083
2026-01-05 20:49:27.64	270.63	23.25	-29.1	-29.9	24.2	0.00e+00	0	34	0	3790602240	30	6326
2026-01-05 20:49:31.68	269.84	22.82	-28.9	-29.7	24.1	0.00e+00	0	34	0	3819962368	30	6183
2026-01-05 20:49:35.72	269.07	22.40	-29.0	-29.8	24.1	0.00e+00	0	34	0	3849322496	30	6249
2026-01-05 20:49:39.76	268.33	21.98	-29.1	-29.9	24.0	0.00e+00	0	34	0	3878682624	30	6370
2026-01-05 20:49:43.80	267.60	21.56	-29.5	-30.3	24.1	0.00e+00	0	34	0	3906994176	30	6631
2026-01-05 20:49:47.84	266.90	21.15	-29.4	-30.2	24.0	0.00e+00	0	34	0	3936354304	30	6579
2026-01-05 20:49:51.88	266.21	20.73	-29.7	-30.5	23.7	0.00e+00	0	34	0	3965714432	32	6071
2026-01-05 20:49:55.91	265.54	20.32	-29.5	-30.3	24.0	0.00e+00	0	34	0	3995074560	32	5917
2026-01-05 20:49:59.95	264.89	19.91	-29.5	-30.3	24.1	0.00e+00	0	34	0	4024434688	32	5924
2026-01-05 20:50:03.99	264.26	19.51	-29.7	-30.5	24.0	0.00e+00	0	34	0	4052746240	32	6060
2026-01-05 20:50:08.03	263.64	19.10	-29.7	-30.5	23.9	0.00e+00	0	34	0	4082106368	32	6035
2026-01-05 20:50:12.07	263.04	18.70	-30.0	-30.8	23.7	0.00e+00	0	34	0	4111466496	32	6248
2026-01-05 20:50:16.11	262.46	18.31	-30.3	-31.1	23.5	0.00e+00	0	34	0	4140826624	32	6512
2026-01-05 20:50:20.15	261.89	17.91	-30.3	-31.1	23.6	0.00e+00	0	34	0	4170186752	32	6493
2026-01-05 20:50:24.19	261.33	17.52	-30.1	-30.9	23.8	0.00e+00	0	34	0	4199546880	32	6350
2026-01-05 20:50:28.23	260.79	17.14	-30.2	-30.9	23.8	0.00e+00	0	34	0	4227858432	32	6384
2026-01-05 20:50:32.27	260.27	16.75	-30.6	-31.4	23.6	0.00e+00	0	34	0	4257218560	32	6727
2026-01-05 20:50:36.31	259.75	16.37	-31.1	-31.9	23.1	0.00e+00	0	34	0	4286578688	34	6386
2026-01-05 20:50:40.35	259.25	16.00	-31.0	-31.8	23.1	0.00e+00	0	34	0	4315938816	34	6285
2026-01-05 20:50:44.38	258.77	15.63	-30.9	-31.7	23.4	0.00e+00	0	34	0	4345298944	34	6231
2026-01-05 20:50:48.42	258.29	15.26	-30.7	-31.4	23.7	0.00e+00	0	34	0	4373610496	34	6024
2026-01-05 20:50:52.46	257.83	14.89	-30.8	-31.6	23.6	0.00e+00	0	34	0	4402970624	34	6146
2026-01-05 20:50:56.50	257.38	14.53	-31.2	-32.0	23.4	0.00e+00	0	34	0	4432330752	34	6421
2026-01-05 20:51:00.54	256.94	14.17	-31.1	-31.9	23.4	0.00e+00	0	34	0	4461690880	34	6351
2026-01-05 20:51:04.57	256.51	13.82	-31.4	-32.2	23.2	0.00e+00	0	34	0	4491051008	34	6583
2026-01-05 20:51:08.61	256.09	13.47	-31.9	-32.7	22.7	0.00e+00	0	34	0	4520411136	36	6228
2026-01-05 20:51:12.65	255.68	13.12	-31.8	-32.7	22.7	0.00e+00	0	34	0	4548722688	36	6185
2026-01-05 20:51:16.69	255.28	12.77	-31.5	-32.4	22.8	0.00e+00	0	34	0	4578082816	36	5982
2026-01-05 20:51:20.73	254.89	12.43	-31.5	-32.3	23.1	0.00e+00	0	34	0	4607442944	36	5935
2026-01-05 20:51:24.76	254.51	12.10	-31.4	-32.2	23.1	0.00e+00	0	34	0	4636803072	36	5885
2026-01-05 20:51:28.80	254.13	11.76	-31.7	-32.5	23.0	0.00e+00	0	34	0	4665114624	36	6050
2026-01-05 20:51:32.84	253.77	11.43	-32.0	-32.8	22.8	0.00e+00	0	34	0	4694474752	36	6292
2026-01-05 20:51:36.88	253.41	11.10	-31.9	-32.8	22.8	0.00e+00	0	34	0	4723834880	36	6256
2026-01-05 20:51:40.91	253.07	10.78	-32.3	-32.9	24.9	0.00e+00	0	34	0	4753195008	36	6351
2026-01-05 20:51:44.96	252.73	10.46	-32.6	-33.3	24.6	0.00e+00	0	34	0	4782555136	36	6648
2026-01-05 20:51:49.00	252.40	10.14	-32.6	-33.3	24.5	0.00e+00	0	34	0	4810866688	36	6631
2026-01-05 20:51:53.03	252.07	9.83	-32.4	-33.0	24.7	0.00e+00	0	34	0	4840226816	36	6449
2026-01-05 20:51:57.07	251.75	9.51	-32.1	-32.7	25.0	0.00e+00	0	34	0	4869586944	36	6226
2026-01-05 20:52:01.11	251.44	9.21	-32.4	-33.0	24.7	0.00e+00	0	34	0	4898947072	36	6432
2026-01-05 20:52:05.14	251.14	8.90	-32.6	-33.2	24.5	0.00e+00	0	34	0	4927258624	36	6583
2026-01-05 20:52:09.18	250.84	8.60	-33.0	-33.6	24.1	0.00e+00	0	34	0	4956618752	38	6168
2026-01-05 20:52:13.22	250.55	8.30	-33.4	-34.1	23.7	0.00e+00	0	34	0	4985978880	38	6467
2026-01-05 20:52:17.26	250.26	8.00	-33.8	-34.5	23.3	0.00e+00	0	34	0	5015339008	40	6071
2026-01-05 20:52:21.31	249.98	7.71	-33.9	-34.6	23.2	0.00e+00	0	34	0	5044699136	40	6128
2026-01-05 20:52:25.35	249.71	7.41	-33.8	-34.5	23.1	0.00e+00	0	34	0	5074059264	40	6103
2026-01-05 20:52:29.38	249.44	7.13	-34.1	-34.8	22.9	0.00e+00	0	34	0	5102370816	40	6313
2026-01-05 20:52:33.42	249.18	6.84	-33.9	-34.6	23.1	0.00e+00	0	34	0	5131730944	40	6119
2026-01-05 20:52:37.47	248.92	6.55	-33.9	-34.6	23.1	0.00e+00	0	34	0	5161091072	40	6112
2026-01-05 20:52:41.51	248.67	6.27	-34.0	-34.7	22.9	0.00e+00	0	34	0	5190451200	40	6238
2026-01-05 20:52:45.54	248.43	6.00	-34.1	-34.8	22.7	0.00e+00	0	34	0	5219811328	40	6301
2026-01-05 20:52:49.58	248.18	5.72	-34.1	-34.8	22.7	0.00e+00	0	34	0	5248122880	40	6297
2026-01-05 20:52:53.62	247.95	5.45	-34.2	-34.9	22.5	0.00e+00	0	34	0	5277483008	40	6357
2026-01-05 20:52:57.66	247.71	5.17	-34.5	-35.3	22.1	0.00e+00	0	34	0	5306843136	40	6622
2026-01-05 20:53:01.69	247.49	4.91	-34.7	-35.5	22.0	0.00e+00	0	34	0	5336203264	42	6044
2026-01-05 20:53:05.73	247.26	4.64	-35.3	-36.0	21.4	0.00e+00	0	34	0	5365563392	42	6428
2026-01-05 20:53:09.77	247.04	4.37	-35.5	-36.3	21.0	0.00e+00	0	34	0	5394923520	42	6654
2026-01-05 20:53:13.81	246.83	4.11	-36.1	-36.9	20.3	0.00e+00	0	34	0	5423235072	44	6338
2026-01-05 20:53:17.85	246.62	3.85	-36.7	-37.7	19.4	0.00e+00	0	34	0	5452595200	44	6931
2026-01-05 20:53:21.89	246.41	3.59	-37.2	-38.1	19.0	0.00e+00	0	34	0	5481955328	46	6529
2026-01-05 20:53:25.93	246.20	3.34	-37.6	-38.6	18.4	0.00e+00	0	34	0	5511315456	48	6145
2026-01-05 20:53:29.97	246.00	3.08	-38.6	-39.7	17.0	0.00e+00	0	34	0	5540675584	50	6220
2026-01-05 20:53:34.01	245.81	2.83	-48.3	-59.5	3.6	8.45e-01	0	34	104	5550112768	60	34232
2026-01-05 20:53:38.05	245.62	2.58	-48.5	-59.7	3.6	8.46e-01	0	34	104	5550112768	60	34968
2026-01-05 20:53:42.09	245.43	2.33	-48.0	-59.7	3.6	8.46e-01	0	34	104	5550112768	60	35016
2026-01-05 20:53:46.13	245.24	2.09	-48.3	-59.7	3.6	8.46e-01	0	34	104	5550112768	60	34755
2026-01-05 20:53:50.17	245.06	1.84	-48.4	-59.6	3.6	8.45e-01	0	34	104	5550112768	60	34625
2026-01-05 20:53:54.21	244.88	1.60	-48.4	-59.7	3.6	8.46e-01	0	34	104	5550112768	60	34726
2026-01-05 20:53:58.25	244.70	1.36	-48.4	-59.6	3.6	8.46e-01	0	34	104	5550112768	60	34591
2026-01-05 20:54:02.29	244.53	1.12	-48.4	-59.6	3.6	8.45e-01	0	34	104	5550112768	60	34430
2026-01-05 20:54:06.32	244.36	0.88	-48.4	-59.6	3.6	8.45e-01	0	34	104	5550112768	60	34564
2026-01-05 20:54:10.36	244.19	0.64	-48.4	-59.6	3.6	8.46e-01	0	34	104	5550112768	60	34568
2026-01-05 20:54:14.40	244.03	0.41	-48.4	-59.6	3.6	8.45e-01	0	34	104	5550112768	60	34699
2026-01-05 20:54:18.44	243.86	0.18	-48.4	-59.6	3.6	8.45e-01	0	34	104	5550112768	60	34521
2026-01-05 20:54:22.48	243.70	-0.05	-48.4	-59.6	3.6	8.45e-01	0	34	104	5550112768	60	34456

#Closed at: 2026-01-05 20:54:23
#Recorded file [5550 MB]: D:/lorett/data/35029_260106_083946.dat