passes_logs/2026/01/05/R4.6S_Anadyr/R4.6S_Anadyr__20260105_004554_SUOMI_NPP_rec.log

#Pass ID: 20260105_004554_SUOMI NPP
#Satellite: SUOMI NPP
#Configuration: NPP
#almurnet v.1.7.20251203
#Start time: 2026-01-05 00:53:22

#Version: 2.2.20231116
#Station: R4.6S_Anadyr
#Location: 177.4865 lon 64.73178 lat
#TLE: 1 37849U 11061A   26001.07732418  .00000182  00000+0  10735-3 0  9990
#TLE: 2 37849  98.7795 303.2470 0002580  87.2016 272.9455 14.19520779734739

#Time	Az	El	Level	Level2	SNR	BER	BlckErr	Temp	State	Recorded	gain1	gain2
2026-01-05 00:53:22.47	236.68	64.37	-49.2	-67.0	3.5	3.03e+01	0	30	0	0	60	86152
2026-01-05 00:53:24.49	238.80	64.62	-48.7	-64.0	3.6	1.51e+00	0	31	104	0	60	57285
2026-01-05 00:53:26.51	240.97	64.84	-48.8	-64.0	3.6	1.51e+00	0	31	104	0	60	57177
2026-01-05 00:53:28.53	243.17	65.02	-48.6	-64.0	3.6	1.51e+00	0	31	104	0	60	57585
2026-01-05 00:53:30.55	245.41	65.17	-48.5	-63.9	3.6	1.51e+00	0	31	104	0	60	56762
2026-01-05 00:53:32.57	247.68	65.29	-48.4	-63.9	3.6	1.51e+00	0	31	104	0	60	56569
2026-01-05 00:53:34.59	249.96	65.37	-48.5	-63.9	3.6	1.51e+00	0	31	104	0	60	56898
2026-01-05 00:53:36.61	252.26	65.42	-48.8	-64.2	3.6	1.51e+00	0	31	104	0	60	58553
2026-01-05 00:53:38.63	254.57	65.43	-48.7	-64.1	3.6	1.51e+00	0	31	104	0	60	58164
2026-01-05 00:53:40.65	256.87	65.40	-48.6	-64.0	3.6	1.51e+00	0	31	104	0	60	57294
2026-01-05 00:53:42.67	259.17	65.34	-48.9	-64.3	3.6	1.51e+00	0	31	104	0	60	59446
2026-01-05 00:53:44.69	261.45	65.25	-48.5	-64.0	3.6	1.51e+00	0	31	104	0	60	57075
2026-01-05 00:53:46.71	263.70	65.12	-49.0	-64.4	3.6	1.51e+00	0	31	104	0	60	59735
2026-01-05 00:53:48.73	265.93	64.96	-49.0	-64.4	3.6	1.51e+00	0	31	104	0	60	60191
2026-01-05 00:53:50.75	268.12	64.76	-49.1	-64.5	3.6	1.51e+00	0	31	104	0	60	60545
2026-01-05 00:53:52.77	270.27	64.53	-48.9	-64.3	3.6	1.51e+00	0	31	104	0	60	58966
2026-01-05 00:53:54.79	272.38	64.28	-48.7	-64.0	3.6	1.51e+00	0	31	104	0	60	57538
2026-01-05 00:53:56.81	274.43	63.99	-48.9	-64.2	3.6	1.51e+00	0	31	104	0	60	58514
2026-01-05 00:53:58.83	276.44	63.67	-48.6	-64.0	3.6	1.51e+00	0	31	104	0	60	57137
2026-01-05 00:54:00.85	278.38	63.33	-48.8	-64.2	3.6	1.51e+00	0	31	104	0	60	58418
2026-01-05 00:54:02.87	280.28	62.97	-48.7	-63.9	3.6	1.51e+00	0	31	104	0	60	56903
2026-01-05 00:54:04.89	282.11	62.58	-49.1	-64.5	3.6	1.51e+00	0	31	104	0	60	60400
2026-01-05 00:54:06.90	283.87	62.17	-49.1	-64.2	3.6	1.51e+00	0	31	104	0	60	58573
2026-01-05 00:54:08.92	285.59	61.75	-48.7	-64.0	3.6	1.51e+00	0	31	104	0	60	57471
2026-01-05 00:54:10.94	287.24	61.30	-48.8	-63.9	3.6	1.51e+00	0	31	104	0	60	56517
2026-01-05 00:54:12.96	288.84	60.84	-48.5	-63.7	3.6	1.51e+00	0	31	104	0	60	55562
2026-01-05 00:54:14.98	290.38	60.36	-48.7	-63.7	3.6	1.51e+00	0	31	104	0	60	55249
2026-01-05 00:54:17.00	291.86	59.86	-48.7	-63.5	3.6	1.51e+00	0	31	104	0	60	54083
2026-01-05 00:54:19.02	293.28	59.36	-46.9	-52.0	11.0	9.76e-01	0	31	104	0	60	14455
2026-01-05 00:54:21.04	294.65	58.84	-49.2	-64.5	3.6	1.06e+00	0	31	104	2097152	60	60525
2026-01-05 00:54:23.06	295.97	58.32	-45.0	-47.7	15.2	0.00e+00	0	31	0	3145728	60	8819
2026-01-05 00:54:25.07	297.23	57.79	-42.1	-43.7	18.8	7.00e-07	0	31	0	4194304	54	7838
2026-01-05 00:54:27.10	298.45	57.24	-38.3	-39.3	22.9	0.00e+00	0	31	0	8388608	50	5911
2026-01-05 00:54:29.11	299.62	56.70	-38.6	-39.6	22.2	0.00e+00	0	31	0	11534336	48	6911
2026-01-05 00:54:31.13	300.74	56.14	-38.6	-39.5	23.3	0.00e+00	0	31	0	15728640	50	6098
2026-01-05 00:54:33.15	301.82	55.59	-37.3	-38.1	24.0	0.00e+00	0	31	0	19922944	46	6491
2026-01-05 00:54:35.17	302.86	55.02	-36.6	-37.4	24.4	0.00e+00	0	31	0	23068672	46	5987
2026-01-05 00:54:37.19	303.86	54.46	-36.0	-36.7	24.8	0.00e+00	0	31	0	27262976	44	6244
2026-01-05 00:54:39.21	304.82	53.89	-38.5	-39.5	22.7	0.00e+00	0	31	0	30408704	48	6832
2026-01-05 00:54:41.23	305.74	53.33	-35.6	-36.4	25.0	0.00e+00	0	31	0	34603008	46	5327
2026-01-05 00:54:43.25	306.63	52.76	-36.9	-37.7	24.4	0.00e+00	0	31	0	38797312	44	6970
2026-01-05 00:54:45.27	307.49	52.19	-36.2	-37.0	24.8	0.00e+00	0	31	0	41943040	46	5705
2026-01-05 00:54:47.29	308.31	51.62	-37.6	-38.4	24.2	0.00e+00	0	31	0	46137344	46	6753
2026-01-05 00:54:49.30	309.10	51.06	-35.8	-36.6	25.0	0.00e+00	0	31	0	49283072	44	6124
2026-01-05 00:54:51.32	309.86	50.49	-36.8	-37.6	23.8	0.00e+00	0	31	0	53477376	46	6142
2026-01-05 00:54:53.34	310.60	49.93	-37.0	-37.8	23.9	0.00e+00	0	31	0	57671680	46	6275
2026-01-05 00:54:55.36	311.31	49.37	-38.3	-39.3	23.0	0.00e+00	0	31	0	60817408	48	6667
2026-01-05 00:54:57.38	311.99	48.81	-38.7	-39.7	22.7	0.00e+00	0	31	0	65011712	50	6238
2026-01-05 00:54:59.40	312.65	48.25	-37.2	-38.1	23.7	0.00e+00	0	31	0	69206016	48	5793
2026-01-05 00:55:01.42	313.29	47.70	-37.7	-38.6	23.5	0.00e+00	0	31	0	72351744	48	6158
2026-01-05 00:55:03.44	313.91	47.15	-38.8	-39.8	22.8	0.00e+00	0	31	0	76546048	50	6275
2026-01-05 00:55:05.46	314.50	46.61	-40.5	-41.7	20.8	0.00e+00	0	31	0	79691776	52	6992
2026-01-05 00:55:07.48	315.07	46.07	-39.8	-40.9	21.5	0.00e+00	0	31	0	83886080	54	5660
2026-01-05 00:55:09.49	315.63	45.53	-37.7	-38.6	23.4	0.00e+00	0	31	0	88080384	50	5478
2026-01-05 00:55:11.51	316.17	45.00	-38.0	-38.9	23.2	0.00e+00	0	31	0	91226112	48	6390
2026-01-05 00:55:13.53	316.69	44.47	-39.0	-40.0	22.2	0.00e+00	0	31	0	95420416	50	6449
2026-01-05 00:55:15.55	317.19	43.95	-40.5	-41.7	21.0	0.00e+00	0	31	0	98566144	52	7007
2026-01-05 00:55:17.57	317.68	43.43	-39.0	-40.0	22.4	0.00e+00	0	31	0	102760448	52	5711
2026-01-05 00:55:19.59	318.15	42.92	-38.0	-38.8	23.1	0.00e+00	0	31	0	106954752	50	5620
2026-01-05 00:55:21.61	318.61	42.41	-39.2	-40.2	22.1	0.00e+00	0	31	0	110100480	50	6575
2026-01-05 00:55:23.63	319.05	41.90	-38.2	-39.2	23.0	0.00e+00	0	31	0	114294784	50	5888
2026-01-05 00:55:25.65	319.48	41.41	-36.3	-37.1	24.6	0.00e+00	0	31	0	117440512	46	5804
2026-01-05 00:55:27.67	319.90	40.91	-35.4	-36.1	25.1	0.00e+00	0	31	0	121634816	44	5826
2026-01-05 00:55:29.69	320.31	40.42	-38.2	-39.2	22.8	0.00e+00	0	31	0	125829120	48	6540
2026-01-05 00:55:31.71	320.70	39.94	-40.0	-41.2	21.3	0.00e+00	0	31	0	128974848	52	6588
2026-01-05 00:55:33.72	321.08	39.46	-39.2	-40.2	22.1	0.00e+00	0	31	0	133169152	52	5885
2026-01-05 00:55:35.74	321.45	38.99	-36.0	-36.7	24.6	0.00e+00	0	31	0	137363456	46	5559
2026-01-05 00:55:37.76	321.81	38.52	-35.0	-35.8	25.2	0.00e+00	0	31	0	140509184	44	5585
2026-01-05 00:55:39.78	322.17	38.06	-37.6	-38.5	23.3	0.00e+00	0	31	0	144703488	46	6815
2026-01-05 00:55:41.80	322.51	37.60	-40.6	-42.0	20.6	0.00e+00	0	31	0	147849216	52	7229
2026-01-05 00:55:43.82	322.84	37.15	-38.7	-39.7	22.7	0.00e+00	0	31	0	152043520	52	5560
2026-01-05 00:55:45.83	323.16	36.71	-36.4	-37.2	24.3	0.00e+00	0	31	0	155189248	46	5871
2026-01-05 00:55:47.85	323.48	36.27	-36.6	-37.4	24.2	0.00e+00	0	31	0	159383552	46	5996
2026-01-05 00:55:49.87	323.79	35.83	-38.7	-39.7	22.5	0.00e+00	0	31	0	163577856	48	6952
2026-01-05 00:55:51.89	324.09	35.40	-39.3	-40.4	21.9	0.00e+00	0	31	0	166723584	50	6723
2026-01-05 00:55:53.91	324.38	34.97	-39.0	-40.0	22.4	0.00e+00	0	31	0	170917888	50	6417
2026-01-05 00:55:55.93	324.66	34.55	-38.1	-39.0	23.3	0.00e+00	0	31	0	175112192	50	5751
2026-01-05 00:55:57.95	324.94	34.13	-37.0	-37.9	23.8	0.00e+00	0	31	0	178257920	48	5635
2026-01-05 00:55:59.97	325.21	33.72	-37.2	-38.1	23.9	0.00e+00	0	31	0	182452224	48	5774
2026-01-05 00:56:01.99	325.48	33.31	-38.1	-39.0	22.9	0.00e+00	0	31	0	185597952	48	6420
2026-01-05 00:56:04.01	325.74	32.91	-38.1	-39.0	23.3	0.00e+00	0	31	0	189792256	50	5715
2026-01-05 00:56:06.03	325.99	32.51	-37.8	-38.7	23.4	0.00e+00	0	31	0	193986560	50	5520
2026-01-05 00:56:08.05	326.23	32.12	-38.7	-39.6	23.4	0.00e+00	0	31	0	197132288	48	6875
2026-01-05 00:56:10.07	326.48	31.73	-38.2	-39.1	23.0	0.00e+00	0	31	0	201326592	48	6513
2026-01-05 00:56:12.09	326.71	31.35	-39.2	-40.3	22.0	0.00e+00	0	31	0	205520896	50	6623
2026-01-05 00:56:14.11	326.94	30.97	-39.2	-40.2	22.0	0.00e+00	0	31	0	208666624	50	6595
2026-01-05 00:56:16.13	327.17	30.59	-39.7	-40.8	21.7	0.00e+00	0	31	0	212860928	52	6285
2026-01-05 00:56:18.15	327.39	30.22	-39.6	-40.6	22.2	0.00e+00	0	31	0	216006656	52	6160
2026-01-05 00:56:20.17	327.60	29.86	-38.7	-39.7	22.7	0.00e+00	0	31	0	220200960	50	6207
2026-01-05 00:56:22.19	327.81	29.49	-38.6	-39.5	22.8	0.00e+00	0	31	0	224395264	50	6051
2026-01-05 00:56:24.21	328.02	29.14	-38.8	-39.8	22.7	0.00e+00	0	31	0	227540992	50	6252
2026-01-05 00:56:26.23	328.22	28.78	-39.1	-40.1	22.3	0.00e+00	0	31	0	231735296	50	6521
2026-01-05 00:56:28.25	328.42	28.43	-39.1	-40.2	22.2	0.00e+00	0	31	0	234881024	50	6557
2026-01-05 00:56:30.27	328.61	28.09	-39.2	-40.3	21.9	0.00e+00	0	31	0	239075328	50	6621
2026-01-05 00:56:32.29	328.80	27.75	-39.3	-40.4	21.9	0.00e+00	0	31	0	243269632	50	6715
2026-01-05 00:56:34.31	328.99	27.41	-38.3	-39.2	22.7	0.00e+00	0	31	0	246415360	50	5882
2026-01-05 00:56:36.33	329.17	27.08	-37.4	-38.3	23.4	0.00e+00	0	31	0	250609664	48	5907
2026-01-05 00:56:38.35	329.35	26.75	-37.2	-38.1	23.6	0.00e+00	0	31	0	253755392	48	5775
2026-01-05 00:56:40.37	329.52	26.42	-37.4	-38.3	23.3	0.00e+00	0	31	0	257949696	48	5912
2026-01-05 00:56:42.39	329.69	26.10	-37.6	-38.5	23.2	0.00e+00	0	31	0	262144000	48	6098
2026-01-05 00:56:44.40	329.86	25.78	-38.0	-39.0	23.1	0.00e+00	0	31	0	265289728	48	6433
2026-01-05 00:56:46.42	330.03	25.46	-37.8	-38.7	23.1	0.00e+00	0	31	0	269484032	48	6211
2026-01-05 00:56:48.44	330.19	25.15	-37.6	-38.5	23.2	0.00e+00	0	31	0	273678336	48	6099
2026-01-05 00:56:50.46	330.35	24.84	-37.6	-38.5	23.3	0.00e+00	0	31	0	276824064	48	6089
2026-01-05 00:56:52.47	330.50	24.54	-37.6	-38.6	23.1	0.00e+00	0	31	0	281018368	48	6128
2026-01-05 00:56:54.49	330.66	24.24	-37.9	-38.9	22.9	0.00e+00	0	31	0	284164096	48	6339
2026-01-05 00:56:56.51	330.81	23.94	-37.7	-38.7	23.0	0.00e+00	0	31	0	288358400	48	6209
2026-01-05 00:56:58.53	330.96	23.64	-37.5	-38.4	23.2	0.00e+00	0	31	0	291504128	48	6026
2026-01-05 00:57:00.55	331.10	23.35	-36.3	-37.2	24.2	0.00e+00	0	31	0	295698432	46	5838
2026-01-05 00:57:02.57	331.25	23.06	-35.5	-36.3	24.8	0.00e+00	0	31	0	299892736	44	5908
2026-01-05 00:57:04.59	331.39	22.78	-34.8	-35.5	25.3	0.00e+00	0	31	0	303038464	42	6070
2026-01-05 00:57:06.61	331.52	22.49	-34.3	-35.0	25.5	0.00e+00	0	31	0	307232768	42	5755
2026-01-05 00:57:08.63	331.66	22.21	-34.5	-35.2	25.5	0.00e+00	0	31	0	311427072	42	5851
2026-01-05 00:57:10.65	331.79	21.94	-35.1	-35.8	25.2	0.00e+00	0	31	0	314572800	42	6301
2026-01-05 00:57:12.67	331.93	21.66	-35.7	-36.4	24.8	0.00e+00	0	31	0	318767104	42	6759
2026-01-05 00:57:14.69	332.06	21.39	-35.8	-36.6	24.5	0.00e+00	0	31	0	321912832	44	6163
2026-01-05 00:57:16.71	332.18	21.12	-36.0	-36.9	24.4	0.00e+00	0	31	0	326107136	44	6325
2026-01-05 00:57:18.73	332.31	20.86	-36.3	-37.2	24.2	0.00e+00	0	31	0	330301440	44	6557
2026-01-05 00:57:20.75	332.43	20.59	-36.1	-36.9	24.3	0.00e+00	0	31	0	333447168	44	6380
2026-01-05 00:57:22.77	332.55	20.33	-36.0	-36.9	24.5	0.00e+00	0	31	0	337641472	44	6324
2026-01-05 00:57:24.79	332.67	20.08	-35.9	-36.7	24.5	0.00e+00	0	31	0	340787200	44	6235
2026-01-05 00:57:26.80	332.79	19.82	-35.9	-36.7	24.4	0.00e+00	0	31	0	344981504	44	6221
2026-01-05 00:57:28.82	332.90	19.57	-35.7	-36.6	24.5	0.00e+00	0	31	0	349175808	44	6104
2026-01-05 00:57:30.84	333.02	19.32	-35.9	-36.7	24.5	0.00e+00	0	31	0	352321536	44	6208
2026-01-05 00:57:32.86	333.13	19.07	-35.9	-36.7	24.3	0.00e+00	0	31	0	356515840	44	6207
2026-01-05 00:57:34.88	333.24	18.82	-36.3	-37.1	24.2	0.00e+00	0	31	0	359661568	44	6520
2026-01-05 00:57:36.90	333.35	18.58	-36.4	-37.2	24.1	0.00e+00	0	31	0	363855872	44	6610
2026-01-05 00:57:38.92	333.46	18.34	-36.7	-37.5	23.9	0.00e+00	0	31	0	368050176	44	6826
2026-01-05 00:57:40.94	333.56	18.10	-36.8	-37.7	23.7	0.00e+00	0	30	0	371195904	46	6224
2026-01-05 00:57:42.96	333.67	17.86	-37.2	-38.1	23.6	0.00e+00	0	31	0	375390208	46	6482
2026-01-05 00:57:44.97	333.77	17.63	-37.2	-38.1	23.5	0.00e+00	0	31	0	379584512	46	6517
2026-01-05 00:57:46.99	333.87	17.40	-37.4	-38.3	23.4	0.00e+00	0	31	0	382730240	46	6668
2026-01-05 00:57:49.01	333.97	17.17	-37.2	-38.1	23.5	0.00e+00	0	31	0	386924544	46	6523
2026-01-05 00:57:51.03	334.07	16.94	-37.3	-38.2	23.4	0.00e+00	0	31	0	390070272	46	6603
2026-01-05 00:57:53.05	334.17	16.71	-37.2	-38.1	23.4	0.00e+00	0	31	0	394264576	46	6504
2026-01-05 00:57:55.07	334.27	16.49	-36.8	-37.7	23.9	0.00e+00	0	31	0	398458880	46	6174
2026-01-05 00:57:57.09	334.36	16.27	-36.4	-37.2	24.1	0.00e+00	0	31	0	401604608	46	5869
2026-01-05 00:57:59.11	334.45	16.05	-36.1	-36.9	24.4	0.00e+00	0	31	0	405798912	46	5679
2026-01-05 00:58:01.13	334.55	15.83	-36.0	-36.8	24.3	0.00e+00	0	31	0	408944640	46	5592
2026-01-05 00:58:03.15	334.64	15.61	-35.8	-36.6	24.4	0.00e+00	0	31	0	413138944	46	5499
2026-01-05 00:58:05.17	334.73	15.40	-35.6	-36.4	24.5	0.00e+00	0	31	0	417333248	44	6015
2026-01-05 00:58:07.19	334.82	15.19	-35.9	-36.7	24.0	0.00e+00	0	31	0	420478976	44	6193
2026-01-05 00:58:09.21	334.90	14.98	-36.0	-36.8	24.1	0.00e+00	0	31	0	424673280	44	6267
2026-01-05 00:58:11.23	334.99	14.77	-36.1	-37.0	24.1	0.00e+00	0	31	0	427819008	44	6412
2026-01-05 00:58:13.25	335.08	14.56	-36.4	-37.2	23.9	0.00e+00	0	31	0	432013312	44	6570
2026-01-05 00:58:15.27	335.16	14.35	-36.4	-37.3	23.8	0.00e+00	0	31	0	436207616	44	6635
2026-01-05 00:58:17.29	335.24	14.15	-36.9	-37.8	23.6	0.00e+00	0	30	0	439353344	46	6284
2026-01-05 00:58:19.31	335.33	13.95	-37.3	-38.2	23.2	0.00e+00	0	30	0	443547648	46	6546
2026-01-05 00:58:21.33	335.41	13.75	-37.1	-38.0	23.5	0.00e+00	0	30	0	447741952	46	6425
2026-01-05 00:58:23.35	335.49	13.55	-37.7	-38.6	23.1	0.00e+00	0	30	0	450887680	46	6880
2026-01-05 00:58:25.36	335.57	13.35	-37.4	-38.3	23.1	0.00e+00	0	31	0	455081984	48	5934
2026-01-05 00:58:27.39	335.65	13.15	-37.5	-38.4	23.0	0.00e+00	0	30	0	458227712	48	6031
2026-01-05 00:58:29.40	335.72	12.96	-37.8	-38.8	22.6	0.00e+00	0	30	0	462422016	48	6270
2026-01-05 00:58:31.42	335.80	12.77	-37.9	-38.9	22.7	0.00e+00	0	31	0	466616320	48	6364
2026-01-05 00:58:33.44	335.88	12.58	-38.1	-39.2	22.4	0.00e+00	0	31	0	469762048	48	6544
2026-01-05 00:58:35.46	335.95	12.39	-38.4	-39.5	22.2	0.00e+00	0	31	0	473956352	48	6774
2026-01-05 00:58:37.48	336.03	12.20	-38.5	-39.6	22.1	0.00e+00	0	30	0	477102080	48	6855
2026-01-05 00:58:39.50	336.10	12.01	-38.6	-39.7	21.7	0.00e+00	0	31	0	481296384	50	6236
2026-01-05 00:58:41.51	336.17	11.83	-39.2	-40.3	21.4	0.00e+00	0	30	0	485490688	50	6671
2026-01-05 00:58:43.53	336.24	11.64	-39.2	-40.4	21.5	0.00e+00	0	31	0	488636416	50	6711
2026-01-05 00:58:45.55	336.31	11.46	-39.9	-41.2	20.8	0.00e+00	0	30	0	492830720	52	6562
2026-01-05 00:58:47.56	336.38	11.28	-39.6	-40.8	21.0	0.00e+00	0	30	0	495976448	52	6292
2026-01-05 00:58:49.58	336.45	11.10	-39.7	-40.9	21.0	0.00e+00	0	31	0	500170752	52	6377
2026-01-05 00:58:51.61	336.52	10.92	-40.2	-41.6	20.2	0.00e+00	0	31	0	504365056	52	6861
2026-01-05 00:58:53.63	336.59	10.74	-39.5	-40.7	21.0	0.00e+00	0	31	0	507510784	52	6236
2026-01-05 00:58:55.65	336.66	10.56	-39.5	-40.7	21.2	0.00e+00	0	31	0	511705088	52	6216
2026-01-05 00:58:57.66	336.72	10.39	-39.0	-40.2	21.5	0.00e+00	0	31	0	515899392	52	5834
2026-01-05 00:58:59.68	336.79	10.22	-38.8	-39.9	21.6	0.00e+00	0	31	0	519045120	52	5684
2026-01-05 00:59:01.70	336.86	10.04	-38.8	-39.9	21.7	0.00e+00	0	30	0	523239424	50	6358
2026-01-05 00:59:03.72	336.92	9.87	-38.5	-39.6	22.0	0.00e+00	0	31	0	526385152	50	6131
2026-01-05 00:59:05.75	336.98	9.70	-38.7	-39.8	21.8	0.00e+00	0	31	0	530579456	50	6304
2026-01-05 00:59:07.77	337.05	9.53	-38.8	-39.9	21.7	0.00e+00	0	31	0	534773760	50	6388
2026-01-05 00:59:09.79	337.11	9.36	-38.6	-39.7	21.9	0.00e+00	0	31	0	537919488	50	6190
2026-01-05 00:59:11.80	337.17	9.20	-38.3	-39.4	22.1	0.00e+00	0	31	0	542113792	50	5974
2026-01-05 00:59:13.82	337.23	9.03	-38.2	-39.2	22.1	0.00e+00	0	31	0	545259520	50	5862
2026-01-05 00:59:15.84	337.29	8.86	-38.1	-39.1	22.4	0.00e+00	0	31	0	549453824	50	5825
2026-01-05 00:59:17.86	337.36	8.70	-38.3	-39.4	22.2	0.00e+00	0	31	0	553648128	50	5978
2026-01-05 00:59:19.88	337.41	8.54	-38.1	-39.1	22.3	0.00e+00	0	31	0	556793856	50	5782
2026-01-05 00:59:21.90	337.47	8.38	-37.9	-38.9	22.4	0.00e+00	0	31	0	560988160	50	5688
2026-01-05 00:59:23.92	337.53	8.22	-38.1	-39.1	22.2	0.00e+00	0	31	0	564133888	50	5787
2026-01-05 00:59:25.93	337.59	8.06	-38.4	-39.5	22.0	0.00e+00	0	31	0	568328192	50	6065
2026-01-05 00:59:27.95	337.65	7.90	-38.4	-39.4	22.0	0.00e+00	0	31	0	572522496	50	6005
2026-01-05 00:59:29.97	337.71	7.74	-38.2	-39.2	22.2	0.00e+00	0	31	0	575668224	50	5868
2026-01-05 00:59:31.99	337.76	7.58	-38.4	-39.4	22.2	0.00e+00	0	31	0	579862528	50	6031
2026-01-05 00:59:34.01	337.82	7.43	-38.5	-39.5	22.1	0.00e+00	0	30	0	584056832	50	6080
2026-01-05 00:59:36.03	337.87	7.27	-38.5	-39.6	22.1	0.00e+00	0	31	0	587202560	50	6110
2026-01-05 00:59:38.05	337.93	7.12	-38.5	-39.6	21.8	0.00e+00	0	31	0	591396864	50	6119
2026-01-05 00:59:40.07	337.98	6.96	-38.8	-39.9	21.7	0.00e+00	0	31	0	594542592	50	6340
2026-01-05 00:59:42.09	338.04	6.81	-38.6	-39.7	21.5	0.00e+00	0	31	0	598736896	50	6224
2026-01-05 00:59:44.11	338.09	6.66	-38.7	-39.8	21.5	0.00e+00	0	31	0	602931200	50	6309
2026-01-05 00:59:46.13	338.14	6.51	-38.4	-39.5	21.6	0.00e+00	0	31	0	606076928	50	6094
2026-01-05 00:59:48.15	338.20	6.36	-38.6	-39.7	21.6	0.00e+00	0	31	0	610271232	50	6229
2026-01-05 00:59:50.17	338.25	6.21	-38.7	-39.9	21.3	0.00e+00	0	31	0	613416960	50	6339
2026-01-05 00:59:52.19	338.30	6.06	-38.8	-39.9	21.2	0.00e+00	0	31	0	617611264	50	6375
2026-01-05 00:59:54.21	338.35	5.92	-38.6	-39.8	21.3	0.00e+00	0	31	0	621805568	50	6246
2026-01-05 00:59:56.23	338.40	5.77	-38.7	-39.9	21.0	0.00e+00	0	31	0	624951296	50	6365
2026-01-05 00:59:58.25	338.45	5.62	-39.4	-40.8	20.2	0.00e+00	0	31	0	629145600	50	7016
2026-01-05 01:00:00.27	338.50	5.48	-39.4	-40.8	19.9	0.00e+00	0	31	0	632291328	52	6269
2026-01-05 01:00:02.29	338.55	5.34	-40.0	-41.6	18.9	0.00e+00	0	31	0	636485632	52	6923
2026-01-05 01:00:04.31	338.60	5.19	-40.6	-42.4	17.8	0.00e+00	0	31	0	640679936	52	7587
2026-01-05 01:00:06.33	338.65	5.05	-41.3	-43.7	16.0	0.00e+00	0	31	0	643825664	54	7781
2026-01-05 01:00:08.35	338.70	4.91	-42.1	-45.1	14.6	0.00e+00	0	31	0	648019968	56	8220
2026-01-05 01:00:10.37	338.75	4.77	-42.6	-46.3	12.4	1.67e-05	0	31	0	652214272	56	9450
2026-01-05 01:00:12.39	338.80	4.63	-42.9	-47.8	10.7	1.51e-03	0	31	0	655360000	58	9981
2026-01-05 01:00:14.41	338.84	4.49	-43.2	-49.5	8.2	4.83e-02	0	31	0	659554304	58	12066
2026-01-05 01:00:16.42	338.89	4.35	-43.5	-50.9	6.4	1.64e-01	0	31	0	662700032	58	14234
2026-01-05 01:00:18.44	338.94	4.21	-43.6	-52.2	5.0	4.02e-01	0	31	0	666894336	58	16503
2026-01-05 01:00:20.46	338.98	4.07	-43.7	-53.9	4.0	8.87e-01	92	31	0	671088640	60	17873
2026-01-05 01:00:22.48	339.03	3.94	-43.7	-56.6	3.7	1.48e+00	0	31	104	671088640	60	24371
2026-01-05 01:00:24.50	339.08	3.80	-43.7	-57.6	3.6	1.51e+00	0	31	104	671088640	60	27321
2026-01-05 01:00:26.52	339.12	3.67	-43.7	-58.2	3.6	1.51e+00	0	31	104	671088640	60	29288
2026-01-05 01:00:28.54	339.17	3.53	-43.7	-58.6	3.6	1.51e+00	0	31	104	671088640	60	30806
2026-01-05 01:00:30.56	339.21	3.40	-43.8	-58.6	3.6	1.51e+00	0	31	104	671088640	60	30656
2026-01-05 01:00:32.57	339.26	3.26	-43.7	-58.7	3.6	1.51e+00	0	31	104	671088640	60	31150
2026-01-05 01:00:34.59	339.30	3.13	-43.7	-58.7	3.6	1.51e+00	0	31	104	671088640	60	31202
2026-01-05 01:00:36.61	339.34	3.00	-43.7	-58.9	3.6	1.51e+00	0	31	104	671088640	60	31709
2026-01-05 01:00:38.63	339.39	2.87	-48.1	-63.3	3.6	1.51e+00	0	31	104	671088640	60	52853
2026-01-05 01:00:40.66	339.43	2.74	-48.5	-63.7	3.6	1.51e+00	0	31	104	671088640	60	55449
2026-01-05 01:00:42.68	339.47	2.61	-48.7	-63.9	3.6	1.51e+00	0	31	104	671088640	60	56760
2026-01-05 01:00:44.70	339.52	2.48	-48.7	-64.0	3.6	1.51e+00	0	31	104	671088640	60	56987
2026-01-05 01:00:46.71	339.56	2.35	-48.3	-64.0	3.6	1.51e+00	0	31	104	671088640	60	57296
2026-01-05 01:00:48.73	339.60	2.22	-48.8	-64.0	3.6	1.51e+00	0	31	104	671088640	60	57468
2026-01-05 01:00:50.75	339.64	2.09	-48.8	-64.0	3.6	1.51e+00	0	31	104	671088640	60	57171
2026-01-05 01:00:52.77	339.68	1.96	-48.9	-64.1	3.6	1.51e+00	0	31	104	671088640	60	57957
2026-01-05 01:00:54.79	339.72	1.84	-48.9	-64.1	3.6	1.51e+00	0	31	104	671088640	60	57975
2026-01-05 01:00:56.81	339.76	1.71	-49.5	-64.7	3.5	1.51e+00	0	31	104	671088640	60	62245
2026-01-05 01:00:58.84	339.81	1.58	-48.7	-63.9	3.6	1.51e+00	0	31	104	671088640	60	56633
2026-01-05 01:01:00.85	339.85	1.46	-48.8	-63.9	3.6	1.51e+00	0	31	104	671088640	60	56956
2026-01-05 01:01:02.87	339.89	1.33	-48.9	-64.1	3.6	1.51e+00	0	31	104	671088640	60	57874
2026-01-05 01:01:04.89	339.93	1.21	-48.9	-64.1	3.6	1.51e+00	0	31	104	671088640	60	57825
2026-01-05 01:01:06.91	339.97	1.09	-49.1	-64.3	3.6	1.51e+00	0	31	104	671088640	60	59215
2026-01-05 01:01:08.92	340.00	0.96	-48.8	-64.0	3.6	1.51e+00	0	31	104	671088640	60	57018
2026-01-05 01:01:10.95	340.04	0.84	-49.1	-64.2	3.5	1.51e+00	0	31	104	671088640	60	58844
2026-01-05 01:01:12.96	340.08	0.72	-49.5	-64.7	3.6	1.51e+00	0	31	104	671088640	60	62055
2026-01-05 01:01:14.98	340.12	0.60	-49.4	-64.6	3.6	1.51e+00	0	31	104	671088640	60	61432
2026-01-05 01:01:17.00	340.16	0.48	-48.9	-64.1	3.6	1.51e+00	0	31	104	671088640	60	57785
2026-01-05 01:01:19.02	340.20	0.35	-48.9	-64.0	3.6	1.51e+00	0	31	104	671088640	60	57477
2026-01-05 01:01:21.04	340.24	0.23	-49.1	-64.2	3.6	1.51e+00	0	31	104	671088640	60	58832
2026-01-05 01:01:23.06	340.27	0.11	-48.7	-63.9	3.6	1.51e+00	0	31	104	671088640	60	56766
2026-01-05 01:01:25.08	340.31	-0.00	-48.8	-63.9	3.6	1.51e+00	0	31	104	671088640	60	56830

#Closed at: 2026-01-05 01:01:26
#Recorded file [671 MB]: D:/lorett/data/35029_260105_125322.dat