passes_logs/2026/01/05/R4.6S_Anadyr/R4.6S_Anadyr__20260105_113151_NOAA_20_JPSS-1_rec.log

#Pass ID: 20260105_113151_NOAA 20 (JPSS-1)
#Satellite: NOAA 20 (JPSS-1)
#Configuration: NOAA 20
#almurnet v.1.7.20251203
#Start time: 2026-01-05 11:31:54

#Version: 2.2.20231116
#Station: R4.6S_Anadyr
#Location: 177.4865 lon 64.73178 lat
#TLE: 1 43013U 17073A   26004.89819562  .00000113  00000+0  74278-4 0  9995
#TLE: 2 43013  98.7626 305.9448 0001841  53.9015 306.2332 14.19533229421309

#Time	Az	El	Level	Level2	SNR	BER	BlckErr	Temp	State	Recorded	gain1	gain2
2026-01-05 11:31:54.38	21.03	0.11	-49.9	-60.7	3.5	8.46e-01	0	21	0	0	60	38978
2026-01-05 11:31:57.40	21.32	0.23	-49.9	-65.1	3.6	1.51e+00	0	22	104	0	60	65218
2026-01-05 11:32:00.43	21.62	0.35	-48.8	-64.0	3.6	1.51e+00	0	22	104	0	60	57264
2026-01-05 11:32:03.45	21.91	0.46	-48.4	-63.6	3.6	1.51e+00	0	22	104	0	60	54831
2026-01-05 11:32:06.49	22.22	0.58	-48.2	-63.3	3.6	1.51e+00	0	22	104	0	60	53146
2026-01-05 11:32:09.52	22.52	0.70	-47.8	-62.9	3.6	1.51e+00	0	22	104	0	60	50677
2026-01-05 11:32:12.55	22.83	0.82	-46.9	-62.0	3.6	1.51e+00	0	22	104	0	60	45737
2026-01-05 11:32:15.57	23.13	0.93	-46.9	-62.1	3.6	1.51e+00	0	22	104	0	60	45784
2026-01-05 11:32:18.60	23.44	1.05	-46.9	-62.0	3.6	1.51e+00	0	22	104	0	60	45606
2026-01-05 11:32:21.63	23.76	1.17	-46.9	-62.1	3.6	1.51e+00	0	22	104	0	60	45778
2026-01-05 11:32:24.65	24.07	1.28	-47.0	-62.1	3.6	1.51e+00	0	22	104	0	60	46095
2026-01-05 11:32:27.68	24.39	1.40	-47.0	-62.1	3.6	1.51e+00	0	22	104	0	60	45909
2026-01-05 11:32:30.72	24.71	1.52	-46.9	-62.0	3.6	1.51e+00	0	22	104	0	60	45690
2026-01-05 11:32:33.75	25.03	1.63	-47.0	-62.1	3.6	1.51e+00	0	23	104	0	60	45966
2026-01-05 11:32:36.77	25.35	1.75	-47.0	-62.1	3.6	1.51e+00	0	23	104	0	60	45998
2026-01-05 11:32:39.81	25.68	1.87	-46.9	-62.0	3.6	1.51e+00	0	23	104	0	60	45485
2026-01-05 11:32:42.83	26.01	1.98	-46.9	-62.0	3.6	1.51e+00	0	23	104	0	60	45463
2026-01-05 11:32:45.86	26.34	2.10	-47.0	-62.0	3.6	1.51e+00	0	23	104	0	60	45747
2026-01-05 11:32:48.90	26.68	2.21	-47.0	-62.1	3.6	1.51e+00	0	23	104	0	60	45943
2026-01-05 11:32:51.93	27.01	2.33	-47.0	-62.0	3.6	1.51e+00	0	23	104	0	60	45665
2026-01-05 11:32:54.96	27.35	2.44	-47.0	-62.1	3.6	1.51e+00	0	23	104	0	60	45929
2026-01-05 11:32:57.99	27.69	2.55	-46.9	-61.3	3.6	1.51e+00	0	23	104	0	60	42080
2026-01-05 11:33:01.01	28.04	2.67	-47.0	-61.9	3.6	1.51e+00	0	23	104	0	60	45059
2026-01-05 11:33:04.04	28.38	2.78	-43.8	-46.9	14.1	1.14e-03	0	23	0	2097152	60	7978
2026-01-05 11:33:07.07	28.73	2.89	-40.9	-42.6	18.4	0.00e+00	2	23	0	7340032	54	6873
2026-01-05 11:33:10.10	29.09	3.01	-44.4	-48.0	13.0	6.80e-06	90	23	0	13631488	60	9113
2026-01-05 11:33:13.13	29.44	3.12	-45.3	-50.0	11.8	1.45e+00	6	23	104	16777216	60	11487
2026-01-05 11:33:16.15	29.80	3.23	-46.7	-60.8	3.6	1.51e+00	0	23	104	17825792	60	39774
2026-01-05 11:33:19.18	30.16	3.34	-46.9	-60.5	3.6	9.40e-01	0	23	104	19922944	60	38410
2026-01-05 11:33:22.21	30.52	3.45	-40.5	-42.0	18.4	0.00e+00	16	23	0	20971520	54	6445
2026-01-05 11:33:25.23	30.88	3.56	-44.9	-48.9	12.9	7.35e-01	43	23	104	22020096	60	10096
2026-01-05 11:33:28.27	31.25	3.67	-47.0	-60.5	3.7	1.51e+00	0	23	104	24117248	60	38196
2026-01-05 11:33:31.29	31.62	3.78	-47.1	-61.7	3.6	1.49e+00	0	23	104	26214400	60	44179
2026-01-05 11:33:34.32	31.99	3.89	-41.2	-42.9	17.9	0.00e+00	0	23	0	27262976	52	7994
2026-01-05 11:33:37.35	32.37	4.00	-43.9	-46.9	16.0	2.20e-03	34	23	104	28311552	60	8018
2026-01-05 11:33:40.38	32.75	4.11	-47.1	-60.2	4.7	1.51e+00	0	23	104	30408704	60	37162
2026-01-05 11:33:43.41	33.13	4.21	-47.2	-62.1	3.6	1.51e+00	0	23	104	32505856	60	46243
2026-01-05 11:33:46.44	33.51	4.32	-42.7	-45.0	16.0	0.00e+00	0	23	0	33554432	54	9054
2026-01-05 11:33:49.47	33.90	4.42	-41.9	-43.7	18.6	2.17e-03	92	23	0	35651584	60	5524
2026-01-05 11:33:52.50	34.28	4.53	-45.6	-50.6	5.9	1.51e+00	37	23	104	37748736	60	12299
2026-01-05 11:33:55.53	34.68	4.63	-47.3	-62.3	3.6	1.51e+00	0	23	104	39845888	60	47359
2026-01-05 11:33:58.56	35.07	4.74	-44.7	-48.4	12.0	0.00e+00	47	23	0	40894464	56	11917
2026-01-05 11:34:01.59	35.47	4.84	-39.8	-41.0	20.4	7.98e-04	92	23	0	41943040	54	5727
2026-01-05 11:34:04.61	35.87	4.94	-42.6	-44.8	6.1	1.49e+00	0	23	104	44040192	60	6246
2026-01-05 11:34:07.64	36.27	5.05	-47.4	-62.2	3.6	1.51e+00	0	23	104	46137344	60	46815
2026-01-05 11:34:10.67	36.67	5.15	-47.4	-61.8	3.6	1.51e+00	0	23	104	46137344	60	44633
2026-01-05 11:34:13.70	37.08	5.25	-48.3	-63.4	3.6	1.51e+00	0	23	104	46137344	60	53585
2026-01-05 11:34:16.73	37.49	5.35	-48.5	-63.7	3.6	1.51e+00	0	23	104	46137344	60	55108
2026-01-05 11:34:19.76	37.90	5.44	-48.6	-63.8	3.6	1.51e+00	0	23	104	46137344	60	55705
2026-01-05 11:34:22.78	38.32	5.54	-48.6	-63.7	3.6	1.51e+00	0	23	104	46137344	60	55638
2026-01-05 11:34:25.81	38.74	5.64	-48.7	-63.9	3.6	1.51e+00	0	23	104	46137344	60	56533
2026-01-05 11:34:28.84	39.16	5.73	-49.3	-64.4	3.6	1.51e+00	0	23	104	46137344	60	60318
2026-01-05 11:34:31.87	39.58	5.83	-48.9	-64.1	3.6	1.51e+00	0	23	104	46137344	60	57644
2026-01-05 11:34:34.90	40.01	5.92	-49.9	-65.0	3.6	1.51e+00	0	23	104	46137344	60	64243
2026-01-05 11:34:37.93	40.44	6.02	-50.2	-65.3	3.6	1.51e+00	0	23	104	46137344	60	66403
2026-01-05 11:34:40.96	40.87	6.11	-50.5	-65.6	3.6	1.51e+00	0	23	104	46137344	60	69142
2026-01-05 11:34:43.99	41.30	6.20	-50.3	-65.4	3.6	1.51e+00	0	23	104	46137344	60	67508
2026-01-05 11:34:47.02	41.74	6.29	-50.4	-65.5	3.6	1.51e+00	0	23	104	46137344	60	68001
2026-01-05 11:34:50.05	42.18	6.38	-50.3	-65.5	3.6	1.51e+00	0	23	104	46137344	60	67761
2026-01-05 11:34:53.08	42.62	6.47	-49.8	-64.9	3.6	1.51e+00	0	23	104	46137344	60	63496
2026-01-05 11:34:56.12	43.07	6.55	-45.4	-60.9	3.6	1.51e+00	0	23	104	46137344	60	39996
2026-01-05 11:34:59.15	43.52	6.64	-50.0	-65.2	3.6	1.51e+00	0	23	104	46137344	60	65484
2026-01-05 11:35:02.18	43.97	6.72	-49.6	-64.7	3.6	1.51e+00	0	23	104	46137344	60	62118
2026-01-05 11:35:05.21	44.42	6.81	-50.1	-65.3	3.6	1.51e+00	0	23	104	46137344	60	66325
2026-01-05 11:35:08.24	44.87	6.89	-49.8	-64.9	3.5	1.51e+00	0	23	104	46137344	60	63432
2026-01-05 11:35:11.27	45.33	6.97	-49.3	-64.4	3.6	1.51e+00	0	23	104	46137344	60	60273
2026-01-05 11:35:14.29	45.79	7.05	-49.3	-64.4	3.6	1.51e+00	0	23	104	46137344	60	60312
2026-01-05 11:35:17.32	46.25	7.13	-49.0	-64.1	3.6	1.51e+00	0	23	104	46137344	60	58081
2026-01-05 11:35:20.35	46.72	7.20	-48.6	-63.8	3.6	1.51e+00	0	23	104	46137344	60	55785
2026-01-05 11:35:23.36	47.18	7.28	-48.5	-63.7	3.6	1.51e+00	0	23	104	46137344	60	55030
2026-01-05 11:35:26.39	47.65	7.35	-48.1	-63.2	3.6	1.51e+00	0	23	104	46137344	60	51955
2026-01-05 11:35:29.42	48.12	7.42	-46.8	-53.3	5.2	5.81e-02	26	23	0	48234496	60	16628
2026-01-05 11:35:32.45	48.59	7.50	-44.9	-48.4	15.7	7.26e-01	7	23	104	48234496	60	9533
2026-01-05 11:35:35.48	49.07	7.56	-41.3	-42.9	18.3	3.74e-01	33	23	104	49283072	54	7142
2026-01-05 11:35:38.50	49.55	7.63	-39.9	-41.2	20.6	0.00e+00	0	23	0	54525952	54	5845
2026-01-05 11:35:41.53	50.03	7.70	-40.1	-41.4	20.3	0.00e+00	39	23	0	59768832	54	6013
2026-01-05 11:35:44.56	50.51	7.76	-40.2	-41.5	20.3	0.00e+00	42	23	0	65011712	54	6040
2026-01-05 11:35:47.58	50.99	7.83	-40.0	-41.3	20.6	0.00e+00	8	23	0	71303168	54	5911
2026-01-05 11:35:50.62	51.48	7.89	-40.1	-41.4	20.5	0.00e+00	90	23	0	76546048	54	5983
2026-01-05 11:35:53.64	51.97	7.95	-40.1	-41.4	20.5	0.00e+00	5	23	0	82837504	54	5982
2026-01-05 11:35:56.67	52.46	8.01	-40.0	-41.3	20.5	0.00e+00	0	23	0	88080384	54	5898
2026-01-05 11:35:59.70	52.95	8.07	-39.9	-41.2	20.6	0.00e+00	92	23	0	93323264	54	5844
2026-01-05 11:36:02.72	53.44	8.12	-40.2	-41.5	20.6	0.00e+00	39	23	0	99614720	52	6814
2026-01-05 11:36:05.75	53.94	8.17	-40.0	-41.2	20.7	0.00e+00	43	23	0	104857600	52	6578
2026-01-05 11:36:08.78	54.44	8.23	-40.1	-41.4	20.5	0.00e+00	90	23	0	111149056	52	6694
2026-01-05 11:36:11.80	54.94	8.28	-40.1	-41.4	20.5	0.00e+00	47	23	0	116391936	52	6755
2026-01-05 11:36:14.83	55.44	8.32	-40.1	-41.4	20.4	0.00e+00	2	23	0	122683392	52	6742
2026-01-05 11:36:17.85	55.94	8.37	-39.9	-41.2	20.7	0.00e+00	0	23	0	127926272	52	6558
2026-01-05 11:36:20.88	56.44	8.42	-39.9	-41.2	20.7	0.00e+00	90	23	0	133169152	52	6555
2026-01-05 11:36:23.91	56.95	8.46	-40.1	-41.4	20.4	0.00e+00	41	23	0	139460608	52	6723
2026-01-05 11:36:26.94	57.46	8.50	-40.3	-41.6	20.4	0.00e+00	0	23	0	144703488	52	6883
2026-01-05 11:36:29.97	57.96	8.54	-40.6	-42.0	19.9	0.00e+00	90	23	0	150994944	54	6453
2026-01-05 11:36:33.00	58.47	8.58	-40.9	-42.3	19.6	0.00e+00	39	23	0	156237824	54	6660
2026-01-05 11:36:36.02	58.98	8.61	-41.1	-42.7	19.2	0.00e+00	0	23	0	161480704	54	6949
2026-01-05 11:36:39.05	59.50	8.65	-40.6	-42.0	19.9	0.00e+00	92	23	0	167772160	54	6412
2026-01-05 11:36:42.07	60.01	8.68	-40.3	-41.7	20.2	0.00e+00	2	23	0	173015040	54	6179
2026-01-05 11:36:45.11	60.52	8.71	-40.7	-42.1	19.8	0.00e+00	41	23	0	179306496	54	6523
2026-01-05 11:36:48.13	61.04	8.74	-41.2	-42.8	19.1	0.00e+00	43	23	0	184549376	54	7021
2026-01-05 11:36:51.16	61.55	8.76	-41.1	-42.6	19.3	0.00e+00	0	23	0	189792256	54	6860
2026-01-05 11:36:54.19	62.07	8.78	-40.9	-42.3	19.7	0.00e+00	38	23	0	196083712	54	6661
2026-01-05 11:36:57.22	62.59	8.81	-40.8	-42.3	19.9	0.00e+00	0	23	0	201326592	54	6617
2026-01-05 11:37:00.25	63.11	8.83	-40.4	-41.8	20.2	0.00e+00	90	23	0	207618048	54	6252
2026-01-05 11:37:03.28	63.63	8.84	-40.2	-41.5	20.5	0.00e+00	41	23	0	212860928	54	6048
2026-01-05 11:37:06.30	64.15	8.86	-40.1	-41.4	20.5	0.00e+00	0	23	0	219152384	54	6007
2026-01-05 11:37:09.33	64.67	8.87	-40.3	-41.6	20.4	0.00e+00	92	23	0	224395264	54	6152
2026-01-05 11:37:12.36	65.19	8.89	-40.2	-41.5	20.3	0.00e+00	45	23	0	229638144	54	6103
2026-01-05 11:37:15.38	65.71	8.90	-40.0	-41.3	20.5	0.00e+00	5	23	0	235929600	54	5924
2026-01-05 11:37:18.41	66.23	8.90	-39.6	-40.8	20.9	0.00e+00	92	23	0	241172480	52	6313
2026-01-05 11:37:21.44	66.75	8.91	-39.5	-40.7	21.4	0.00e+00	5	23	0	247463936	52	6216
2026-01-05 11:37:24.46	67.28	8.91	-39.4	-40.6	21.1	0.00e+00	0	23	0	252706816	52	6142
2026-01-05 11:37:27.49	67.80	8.91	-39.6	-40.8	21.0	0.00e+00	40	23	0	257949696	52	6260
2026-01-05 11:37:30.52	68.32	8.91	-39.4	-40.6	21.2	0.00e+00	92	23	0	264241152	52	6110
2026-01-05 11:37:33.55	68.84	8.91	-39.1	-40.2	21.6	0.00e+00	40	23	0	269484032	52	5863
2026-01-05 11:37:36.58	69.37	8.91	-38.8	-39.9	21.5	0.00e+00	6	23	0	275775488	52	5664
2026-01-05 11:37:39.61	69.89	8.90	-38.8	-39.9	21.8	0.00e+00	92	23	0	281018368	50	6337
2026-01-05 11:37:42.64	70.41	8.89	-39.0	-40.1	21.6	0.00e+00	0	23	0	287309824	50	6532
2026-01-05 11:37:45.67	70.93	8.88	-38.8	-39.8	21.9	0.00e+00	41	23	0	292552704	50	6312
2026-01-05 11:37:48.69	71.45	8.87	-39.0	-40.1	21.8	0.00e+00	92	23	0	297795584	50	6475
2026-01-05 11:37:51.73	71.97	8.85	-39.4	-40.5	21.4	0.00e+00	41	23	0	304087040	50	6834
2026-01-05 11:37:54.75	72.49	8.84	-38.9	-40.0	21.7	0.00e+00	40	23	0	309329920	50	6453
2026-01-05 11:37:57.78	73.01	8.82	-38.9	-40.0	21.8	0.00e+00	92	23	0	315621376	50	6408
2026-01-05 11:38:00.81	73.53	8.80	-39.3	-40.4	21.5	0.00e+00	41	23	0	320864256	50	6754
2026-01-05 11:38:03.84	74.05	8.77	-39.0	-40.1	21.7	0.00e+00	0	23	0	326107136	50	6500
2026-01-05 11:38:06.87	74.57	8.75	-38.7	-39.8	22.0	0.00e+00	0	23	0	332398592	50	6283
2026-01-05 11:38:09.90	75.08	8.72	-39.0	-40.2	21.6	0.00e+00	92	23	0	337641472	50	6542
2026-01-05 11:38:12.93	75.60	8.69	-39.0	-40.1	21.6	0.00e+00	46	23	0	343932928	50	6529
2026-01-05 11:38:15.95	76.11	8.66	-39.1	-40.2	21.5	0.00e+00	39	23	0	349175808	50	6585
2026-01-05 11:38:18.98	76.63	8.63	-39.1	-40.3	21.6	0.00e+00	91	23	0	355467264	50	6636
2026-01-05 11:38:22.02	77.14	8.59	-39.1	-40.4	21.4	0.00e+00	0	23	0	360710144	50	6704
2026-01-05 11:38:25.05	77.65	8.56	-39.2	-40.4	20.9	0.00e+00	2	23	0	365953024	50	6707
2026-01-05 11:38:28.08	78.16	8.52	-39.0	-40.1	21.5	0.00e+00	91	23	0	372244480	50	6525
2026-01-05 11:38:31.11	78.67	8.48	-39.0	-40.1	21.7	0.00e+00	27	23	0	377487360	50	6491
2026-01-05 11:38:34.14	79.18	8.44	-39.1	-40.2	21.5	0.00e+00	0	23	0	383778816	50	6613
2026-01-05 11:38:37.17	79.69	8.39	-39.2	-40.4	21.3	0.00e+00	47	23	0	389021696	50	6731
2026-01-05 11:38:40.20	80.19	8.35	-39.4	-40.7	21.1	0.00e+00	85	23	0	394264576	50	6940
2026-01-05 11:38:43.23	80.69	8.30	-39.5	-40.7	21.3	0.00e+00	0	23	0	400556032	50	6972
2026-01-05 11:38:46.26	81.19	8.25	-38.6	-39.8	22.1	0.00e+00	0	23	0	405798912	50	6254
2026-01-05 11:38:49.29	81.69	8.20	-39.3	-40.6	21.0	0.00e+00	92	23	0	412090368	50	6875
2026-01-05 11:38:52.32	82.19	8.14	-38.8	-39.8	22.2	0.00e+00	44	23	0	417333248	50	6299
2026-01-05 11:38:55.35	82.69	8.09	-38.6	-39.6	22.4	0.00e+00	38	23	0	423624704	50	6140
2026-01-05 11:38:58.37	83.18	8.03	-38.7	-39.8	21.9	0.00e+00	92	23	0	428867584	50	6268
2026-01-05 11:39:01.40	83.67	7.97	-38.8	-39.9	21.8	0.00e+00	5	23	0	434110464	50	6373
2026-01-05 11:39:04.43	84.17	7.91	-38.7	-39.7	22.0	0.00e+00	0	23	0	440401920	50	6238
2026-01-05 11:39:07.45	84.65	7.85	-38.9	-40.0	21.6	0.00e+00	0	23	0	445644800	50	6402
2026-01-05 11:39:10.48	85.14	7.79	-39.0	-40.1	21.5	0.00e+00	0	23	0	451936256	50	6520
2026-01-05 11:39:13.51	85.62	7.73	-38.7	-39.8	21.9	0.00e+00	0	23	0	457179136	50	6274
2026-01-05 11:39:16.54	86.11	7.66	-38.3	-39.3	22.3	0.00e+00	49	23	0	462422016	50	5957
2026-01-05 11:39:19.57	86.59	7.59	-39.1	-40.2	21.5	0.00e+00	92	23	0	468713472	50	6608
2026-01-05 11:39:22.60	87.07	7.52	-39.2	-40.3	21.2	0.00e+00	48	23	0	473956352	50	6691
2026-01-05 11:39:25.62	87.54	7.45	-39.5	-40.6	21.2	0.00e+00	7	23	0	480247808	50	6917
2026-01-05 11:39:28.65	88.01	7.38	-39.7	-40.9	20.8	0.00e+00	92	23	0	485490688	52	6381
2026-01-05 11:39:31.67	88.48	7.31	-39.2	-40.3	21.4	0.00e+00	0	23	0	491782144	52	5939
2026-01-05 11:39:34.70	88.95	7.23	-39.0	-40.1	21.4	0.00e+00	39	23	0	497025024	52	5780
2026-01-05 11:39:37.73	89.42	7.15	-39.3	-40.4	21.3	0.00e+00	90	23	0	502267904	52	6033
2026-01-05 11:39:40.76	89.89	7.08	-39.4	-40.6	21.1	0.00e+00	49	23	0	508559360	52	6143
2026-01-05 11:39:43.79	90.35	7.00	-39.8	-41.1	20.6	0.00e+00	0	23	0	513802240	52	6482
2026-01-05 11:39:46.82	90.81	6.92	-40.5	-41.8	19.9	0.00e+00	0	23	0	520093696	52	7087
2026-01-05 11:39:49.85	91.27	6.83	-41.3	-42.9	18.7	0.00e+00	2	23	0	525336576	54	7166
2026-01-05 11:39:52.88	91.72	6.75	-41.4	-43.1	18.7	0.00e+00	39	23	0	530579456	54	7309
2026-01-05 11:39:55.91	92.17	6.67	-41.4	-43.0	19.2	0.00e+00	35	23	0	536870912	54	7209
2026-01-05 11:39:58.94	92.62	6.58	-40.9	-42.4	19.3	0.00e+00	92	23	0	542113792	54	6726
2026-01-05 11:40:01.97	93.07	6.49	-40.6	-42.2	19.7	0.00e+00	45	23	0	548405248	54	6542
2026-01-05 11:40:05.00	93.52	6.41	-40.3	-41.9	19.8	0.00e+00	2	23	0	553648128	54	6357
2026-01-05 11:40:08.03	93.96	6.32	-40.8	-42.4	19.3	0.00e+00	92	23	0	559939584	54	6714
2026-01-05 11:40:11.06	94.40	6.23	-41.3	-43.1	18.6	0.00e+00	0	23	0	565182464	54	7316
2026-01-05 11:40:14.08	94.83	6.14	-42.2	-44.4	17.4	0.00e+00	0	23	0	570425344	56	7539
2026-01-05 11:40:17.11	95.27	6.04	-42.4	-44.6	17.3	0.00e+00	90	23	0	576716800	56	7684
2026-01-05 11:40:20.14	95.70	5.95	-42.3	-44.3	17.6	0.00e+00	13	23	0	581959680	56	7423
2026-01-05 11:40:23.16	96.13	5.86	-42.2	-44.1	17.8	0.00e+00	44	23	0	588251136	56	7296
2026-01-05 11:40:26.19	96.55	5.76	-41.9	-43.9	18.0	0.00e+00	2	23	0	593494016	56	7155
2026-01-05 11:40:29.22	96.98	5.67	-42.3	-44.3	17.5	0.00e+00	89	23	0	598736896	58	6664
2026-01-05 11:40:32.25	97.40	5.57	-42.2	-44.3	17.8	0.00e+00	0	23	0	605028352	56	7431
2026-01-05 11:40:35.28	97.82	5.47	-42.3	-44.3	17.3	0.00e+00	0	23	0	610271232	56	7497
2026-01-05 11:40:38.31	98.23	5.37	-42.1	-44.0	17.7	0.00e+00	90	23	0	616562688	56	7221
2026-01-05 11:40:41.33	98.64	5.27	-41.4	-43.0	18.7	0.00e+00	29	23	0	621805568	56	6454
2026-01-05 11:40:44.36	99.05	5.17	-41.2	-42.9	18.8	0.00e+00	46	23	0	627048448	56	6372
2026-01-05 11:40:47.39	99.46	5.07	-41.6	-43.7	18.0	0.00e+00	90	23	0	633339904	56	6931
2026-01-05 11:40:50.42	99.87	4.97	-42.4	-44.5	17.0	0.00e+00	0	23	0	638582784	56	7647
2026-01-05 11:40:53.45	100.27	4.86	-41.8	-43.7	17.8	0.00e+00	0	23	0	644874240	56	6975
2026-01-05 11:40:56.48	100.67	4.76	-41.2	-42.9	18.7	0.00e+00	92	23	0	650117120	56	6354
2026-01-05 11:40:59.51	101.06	4.66	-40.9	-42.6	19.0	0.00e+00	1	23	0	656408576	56	6111
2026-01-05 11:41:02.53	101.46	4.55	-40.9	-43.0	18.4	0.00e+00	34	23	0	661651456	56	6462
2026-01-05 11:41:05.56	101.85	4.44	-40.5	-42.9	18.4	0.00e+00	7	23	0	666894336	54	7138
2026-01-05 11:41:08.59	102.24	4.34	-40.5	-42.4	18.9	0.00e+00	90	23	0	673185792	54	6766
2026-01-05 11:41:11.62	102.62	4.23	-41.0	-42.6	18.7	0.00e+00	0	23	0	678428672	54	6866
2026-01-05 11:41:14.65	103.01	4.12	-41.1	-42.7	18.6	0.00e+00	0	23	0	684720128	54	6994
2026-01-05 11:41:17.68	103.39	4.01	-41.4	-43.2	18.2	0.00e+00	92	23	0	689963008	54	7360
2026-01-05 11:41:20.70	103.76	3.91	-40.9	-42.6	18.6	0.00e+00	0	23	0	695205888	54	6867
2026-01-05 11:41:23.73	104.14	3.80	-40.6	-42.6	18.6	0.00e+00	35	23	0	701497344	54	6854
2026-01-05 11:41:26.76	104.51	3.69	-40.4	-42.6	18.3	0.00e+00	92	23	0	706740224	54	6900
2026-01-05 11:41:29.79	104.88	3.58	-40.4	-42.2	18.3	0.00e+00	47	23	0	713031680	54	6551
2026-01-05 11:41:32.82	105.25	3.46	-41.0	-43.0	17.9	0.00e+00	0	23	0	718274560	54	7225
2026-01-05 11:41:35.84	105.61	3.35	-41.1	-43.2	17.7	0.00e+00	0	23	0	724566016	54	7411
2026-01-05 11:41:38.87	105.97	3.24	-41.7	-44.1	16.7	0.00e+00	15	23	0	729808896	56	7335
2026-01-05 11:41:41.90	106.33	3.13	-40.9	-43.2	17.2	0.00e+00	29	23	0	735051776	54	7390
2026-01-05 11:41:44.93	106.69	3.01	-42.0	-44.9	15.1	0.00e+00	32	23	0	741343232	56	8006
2026-01-05 11:41:47.95	107.04	2.90	-48.2	-63.4	3.6	1.51e+00	0	23	104	742391808	60	53455
2026-01-05 11:41:50.98	107.39	2.79	-48.5	-63.7	3.6	1.51e+00	0	23	104	742391808	60	55077
2026-01-05 11:41:54.01	107.74	2.67	-48.5	-63.8	3.6	1.51e+00	0	23	104	742391808	60	55757
2026-01-05 11:41:57.04	108.09	2.56	-48.7	-63.8	3.6	1.51e+00	0	23	104	742391808	60	56243
2026-01-05 11:42:00.07	108.43	2.44	-48.6	-63.8	3.6	1.51e+00	0	23	104	742391808	60	55898
2026-01-05 11:42:03.10	108.77	2.33	-48.9	-64.0	3.6	1.51e+00	0	23	104	742391808	60	57290
2026-01-05 11:42:06.13	109.11	2.21	-49.0	-64.1	3.6	1.51e+00	0	23	104	742391808	60	57786
2026-01-05 11:42:09.16	109.45	2.10	-49.3	-64.5	3.6	1.51e+00	0	23	104	742391808	60	60741
2026-01-05 11:42:12.19	109.78	1.98	-49.1	-64.2	3.6	1.51e+00	0	23	104	742391808	60	58735
2026-01-05 11:42:15.21	110.11	1.86	-48.9	-64.0	3.6	1.51e+00	0	23	104	742391808	60	57582
2026-01-05 11:42:18.24	110.44	1.75	-50.7	-65.8	3.6	1.51e+00	0	23	104	742391808	60	70316
2026-01-05 11:42:21.27	110.76	1.63	-49.0	-64.2	3.6	1.51e+00	0	23	104	742391808	60	58443
2026-01-05 11:42:24.30	111.09	1.51	-51.0	-66.2	3.6	1.51e+00	0	23	104	742391808	60	73394
2026-01-05 11:42:27.33	111.41	1.40	-49.0	-64.2	3.6	1.51e+00	0	24	104	742391808	60	58796
2026-01-05 11:42:30.36	111.73	1.28	-49.3	-64.5	3.6	1.51e+00	0	23	104	742391808	60	60486
2026-01-05 11:42:33.39	112.04	1.16	-49.6	-64.8	3.6	1.51e+00	0	23	104	742391808	60	62783
2026-01-05 11:42:36.42	112.36	1.04	-49.1	-64.3	3.6	1.51e+00	0	23	104	742391808	60	58999
2026-01-05 11:42:39.45	112.67	0.92	-49.6	-64.8	3.6	1.51e+00	0	23	104	742391808	60	62487
2026-01-05 11:42:42.48	112.98	0.81	-49.0	-64.1	3.6	1.51e+00	0	23	104	742391808	60	58199
2026-01-05 11:42:45.51	113.28	0.69	-50.2	-65.4	3.6	1.51e+00	0	23	104	742391808	60	67414
2026-01-05 11:42:48.54	113.59	0.57	-48.9	-64.1	3.6	1.51e+00	0	23	104	742391808	60	57956
2026-01-05 11:42:51.57	113.89	0.45	-49.3	-64.4	3.6	1.51e+00	0	23	104	742391808	60	60172
2026-01-05 11:42:54.60	114.19	0.33	-49.7	-64.8	3.6	1.51e+00	0	23	104	742391808	60	62808
2026-01-05 11:42:57.63	114.49	0.21	-49.8	-64.9	3.6	1.51e+00	0	23	104	742391808	60	63725
2026-01-05 11:43:00.66	114.78	0.09	-49.5	-64.7	3.6	1.51e+00	0	23	104	742391808	60	61808

#Closed at: 2026-01-05 11:43:03
#Recorded file [742 MB]: D:/lorett/data/35029_260105_233154.dat