passes_logs/2026/01/05/R4.6S_Anadyr/R4.6S_Anadyr__20260105_163250_NOAA_20_JPSS-1_rec.log

#Pass ID: 20260105_163250_NOAA 20 (JPSS-1)
#Satellite: NOAA 20 (JPSS-1)
#Configuration: NOAA 20
#almurnet v.1.7.20251203
#Start time: 2026-01-05 16:32:53

#Version: 2.2.20231116
#Station: R4.6S_Anadyr
#Location: 177.4865 lon 64.73178 lat
#TLE: 1 43013U 17073A   26004.89819562  .00000113  00000+0  74278-4 0  9995
#TLE: 2 43013  98.7626 305.9448 0001841  53.9015 306.2332 14.19533229421309

#Time	Az	El	Level	Level2	SNR	BER	BlckErr	Temp	State	Recorded	gain1	gain2
2026-01-05 16:32:53.24	26.54	0.17	-48.6	-62.4	3.3	1.54e+00	0	32	0	0	60	47513
2026-01-05 16:32:57.27	26.37	0.40	-48.7	-63.8	3.6	1.51e+00	0	32	104	0	60	55990
2026-01-05 16:33:01.31	26.19	0.63	-48.3	-63.5	3.6	1.51e+00	0	33	104	0	60	54345
2026-01-05 16:33:05.35	26.01	0.86	-47.6	-62.7	3.6	1.51e+00	0	33	104	0	60	49593
2026-01-05 16:33:09.39	25.83	1.09	-47.2	-62.3	3.5	1.51e+00	0	33	104	0	60	47365
2026-01-05 16:33:13.43	25.65	1.33	-47.2	-62.4	3.6	1.51e+00	0	33	104	0	60	47529
2026-01-05 16:33:17.47	25.46	1.57	-47.2	-62.4	3.6	1.51e+00	0	33	104	0	60	47667
2026-01-05 16:33:21.51	25.27	1.81	-47.2	-62.3	3.6	1.51e+00	0	33	104	0	60	47335
2026-01-05 16:33:25.55	25.08	2.05	-47.2	-62.1	3.6	1.51e+00	0	33	104	0	60	46133
2026-01-05 16:33:29.59	24.88	2.29	-47.2	-62.4	3.6	1.51e+00	0	33	104	0	60	47474
2026-01-05 16:33:33.62	24.68	2.53	-47.2	-62.3	3.6	1.51e+00	0	33	104	0	60	47331
2026-01-05 16:33:37.66	24.48	2.78	-47.2	-61.8	3.6	1.51e+00	0	33	104	0	60	44548
2026-01-05 16:33:41.70	24.27	3.03	-47.2	-62.3	3.6	1.51e+00	0	33	104	0	60	47124
2026-01-05 16:33:45.74	24.06	3.28	-46.7	-54.7	5.7	6.23e-01	0	33	0	2097152	60	19673
2026-01-05 16:33:49.78	23.84	3.53	-44.0	-47.1	14.4	1.51e+00	91	33	104	7340032	60	8226
2026-01-05 16:33:53.81	23.62	3.78	-43.2	-45.7	16.0	0.00e+00	0	33	0	9437184	60	6933
2026-01-05 16:33:57.85	23.40	4.03	-41.3	-43.0	18.7	0.00e+00	0	33	0	16777216	56	6436
2026-01-05 16:34:01.89	23.17	4.29	-41.1	-42.6	19.0	0.00e+00	0	33	0	24117248	54	6920
2026-01-05 16:34:05.93	22.94	4.55	-41.0	-42.6	19.1	0.00e+00	0	33	0	31457280	54	6855
2026-01-05 16:34:09.97	22.70	4.81	-40.6	-42.1	19.5	0.00e+00	0	33	0	39845888	54	6484
2026-01-05 16:34:14.00	22.46	5.07	-40.7	-42.1	19.6	0.00e+00	0	33	0	47185920	54	6503
2026-01-05 16:34:18.04	22.21	5.34	-40.3	-41.7	20.0	0.00e+00	0	33	0	54525952	54	6187
2026-01-05 16:34:22.07	21.96	5.61	-40.5	-41.9	19.9	0.00e+00	0	33	0	61865984	54	6371
2026-01-05 16:34:26.10	21.70	5.88	-40.1	-41.4	20.4	0.00e+00	0	33	0	69206016	54	5986
2026-01-05 16:34:30.14	21.44	6.15	-40.0	-41.3	20.5	0.00e+00	0	33	0	77594624	54	5912
2026-01-05 16:34:34.18	21.18	6.42	-40.2	-41.5	20.4	0.00e+00	0	33	0	84934656	54	6077
2026-01-05 16:34:38.22	20.91	6.70	-39.9	-41.2	20.5	0.00e+00	0	33	0	92274688	54	5856
2026-01-05 16:34:42.25	20.63	6.98	-40.0	-41.3	20.6	0.00e+00	0	33	0	99614720	52	6623
2026-01-05 16:34:46.29	20.35	7.26	-39.7	-41.0	20.9	0.00e+00	0	33	0	106954752	52	6392
2026-01-05 16:34:50.32	20.06	7.54	-40.1	-41.3	20.6	0.00e+00	0	33	0	115343360	52	6688
2026-01-05 16:34:54.36	19.76	7.83	-40.0	-41.3	20.7	0.00e+00	0	33	0	122683392	52	6641
2026-01-05 16:34:58.40	19.46	8.11	-40.0	-41.2	20.7	0.00e+00	0	33	0	130023424	52	6615
2026-01-05 16:35:02.44	19.15	8.41	-40.0	-41.3	20.7	0.00e+00	0	33	0	137363456	52	6626
2026-01-05 16:35:06.48	18.84	8.70	-39.9	-41.1	20.9	0.00e+00	0	33	0	145752064	52	6508
2026-01-05 16:35:10.51	18.52	8.99	-39.8	-41.0	21.1	0.00e+00	0	33	0	153092096	52	6426
2026-01-05 16:35:14.55	18.19	9.29	-39.7	-40.8	21.1	0.00e+00	0	33	0	160432128	52	6315
2026-01-05 16:35:18.58	17.86	9.59	-39.7	-40.9	21.2	0.00e+00	0	33	0	167772160	52	6334
2026-01-05 16:35:22.60	17.52	9.90	-39.3	-40.5	21.6	0.00e+00	0	33	0	175112192	52	6040
2026-01-05 16:35:26.64	17.17	10.20	-39.2	-40.2	21.8	0.00e+00	0	33	0	183500800	52	5891
2026-01-05 16:35:30.67	16.81	10.51	-39.0	-40.1	22.0	0.00e+00	0	33	0	190840832	52	5799
2026-01-05 16:35:34.71	16.45	10.82	-38.8	-39.8	22.1	0.00e+00	0	33	0	198180864	50	6299
2026-01-05 16:35:38.75	16.07	11.14	-38.8	-39.8	22.3	0.00e+00	0	33	0	205520896	50	6287
2026-01-05 16:35:42.79	15.69	11.46	-38.8	-39.9	22.2	0.00e+00	0	33	0	213909504	50	6347
2026-01-05 16:35:46.82	15.30	11.78	-38.8	-39.8	22.3	0.00e+00	0	33	0	221249536	50	6303
2026-01-05 16:35:50.85	14.90	12.10	-38.8	-39.8	22.3	0.00e+00	0	33	0	228589568	50	6311
2026-01-05 16:35:54.89	14.49	12.43	-38.8	-39.8	22.2	0.00e+00	0	33	0	235929600	50	6300
2026-01-05 16:35:58.93	14.08	12.76	-38.8	-39.8	22.3	0.00e+00	0	33	0	243269632	50	6279
2026-01-05 16:36:02.97	13.65	13.09	-38.6	-39.6	22.5	0.00e+00	0	33	0	251658240	50	6132
2026-01-05 16:36:07.00	13.21	13.42	-38.8	-39.8	22.4	0.00e+00	0	33	0	258998272	50	6284
2026-01-05 16:36:11.04	12.76	13.76	-38.5	-39.5	22.6	0.00e+00	0	33	0	266338304	50	6085
2026-01-05 16:36:15.08	12.30	14.10	-38.8	-39.8	22.5	0.00e+00	0	34	0	273678336	50	6262
2026-01-05 16:36:19.12	11.83	14.45	-38.8	-39.8	22.5	0.00e+00	0	33	0	282066944	50	6306
2026-01-05 16:36:23.15	11.35	14.79	-38.8	-39.8	22.4	0.00e+00	0	33	0	289406976	50	6287
2026-01-05 16:36:27.19	10.86	15.14	-39.0	-40.0	22.0	0.00e+00	0	33	0	296747008	50	6434
2026-01-05 16:36:31.23	10.35	15.49	-38.7	-39.7	22.5	0.00e+00	0	33	0	304087040	50	6229
2026-01-05 16:36:35.27	9.83	15.85	-38.6	-39.6	22.5	0.00e+00	0	33	0	311427072	50	6146
2026-01-05 16:36:39.31	9.30	16.21	-38.8	-39.8	22.5	0.00e+00	0	33	0	319815680	50	6295
2026-01-05 16:36:43.35	8.76	16.57	-38.9	-39.9	22.3	0.00e+00	0	33	0	327155712	50	6371
2026-01-05 16:36:47.38	8.20	16.93	-38.9	-39.9	22.3	0.00e+00	0	33	0	334495744	50	6351
2026-01-05 16:36:51.42	7.63	17.30	-38.8	-39.8	22.4	0.00e+00	0	33	0	341835776	50	6281
2026-01-05 16:36:55.46	7.04	17.66	-38.7	-39.6	22.5	0.00e+00	0	33	0	350224384	50	6167
2026-01-05 16:36:59.50	6.44	18.04	-38.5	-39.4	22.8	0.00e+00	0	33	0	357564416	50	6029
2026-01-05 16:37:03.54	5.83	18.41	-38.3	-39.2	23.0	0.00e+00	0	33	0	364904448	50	5887
2026-01-05 16:37:07.57	5.20	18.78	-38.0	-39.0	23.2	0.00e+00	0	33	0	372244480	50	5707
2026-01-05 16:37:11.60	4.55	19.16	-38.1	-39.0	22.4	0.00e+00	0	33	0	379584512	50	5743
2026-01-05 16:37:15.64	3.89	19.54	-38.0	-38.9	23.4	0.00e+00	0	33	0	387973120	50	5648
2026-01-05 16:37:19.68	3.20	19.92	-37.9	-38.8	23.5	0.00e+00	0	34	0	395313152	50	5597
2026-01-05 16:37:23.72	2.50	20.30	-38.0	-38.9	23.4	0.00e+00	0	33	0	402653184	50	5682
2026-01-05 16:37:27.76	1.79	20.68	-37.9	-38.8	23.4	0.00e+00	0	34	0	409993216	50	5578
2026-01-05 16:37:31.79	1.05	21.06	-38.3	-39.2	23.2	0.00e+00	0	34	0	418381824	50	5856
2026-01-05 16:37:35.83	0.30	21.45	-38.4	-39.4	23.0	0.00e+00	0	33	0	425721856	50	6007
2026-01-05 16:37:39.87	359.53	21.83	-38.6	-39.6	22.7	0.00e+00	0	34	0	433061888	50	6140
2026-01-05 16:37:43.91	358.73	22.22	-38.5	-39.4	22.9	0.00e+00	0	33	0	440401920	50	6030
2026-01-05 16:37:47.94	357.92	22.60	-38.3	-39.2	23.1	0.00e+00	0	34	0	447741952	50	5885
2026-01-05 16:37:51.98	357.09	22.99	-38.0	-39.0	23.3	0.00e+00	0	34	0	456130560	50	5713
2026-01-05 16:37:56.02	356.23	23.37	-37.9	-38.8	23.4	0.00e+00	0	34	0	463470592	48	6279
2026-01-05 16:38:00.06	355.36	23.75	-37.6	-38.5	23.6	0.00e+00	0	34	0	470810624	48	6059
2026-01-05 16:38:04.09	354.46	24.13	-37.0	-37.9	24.3	0.00e+00	0	34	0	478150656	48	5635
2026-01-05 16:38:08.13	353.54	24.51	-37.0	-37.8	24.3	0.00e+00	0	33	0	485490688	48	5619
2026-01-05 16:38:12.17	352.60	24.88	-37.1	-38.0	24.1	0.00e+00	0	33	0	493879296	48	5733
2026-01-05 16:38:16.20	351.63	25.25	-37.2	-38.0	24.2	0.00e+00	0	33	0	501219328	48	5748
2026-01-05 16:38:20.24	350.64	25.62	-37.0	-37.9	24.4	0.00e+00	0	34	0	508559360	48	5643
2026-01-05 16:38:24.28	349.63	25.98	-37.1	-38.0	24.2	0.00e+00	0	33	0	515899392	48	5708
2026-01-05 16:38:28.31	348.60	26.33	-37.6	-38.4	23.9	0.00e+00	0	34	0	524288000	48	6016
2026-01-05 16:38:32.35	347.54	26.69	-38.1	-39.0	23.3	0.00e+00	0	34	0	531628032	48	6448
2026-01-05 16:38:36.39	346.46	27.03	-38.3	-39.3	23.1	0.00e+00	0	33	0	538968064	48	6647
2026-01-05 16:38:40.42	345.35	27.37	-38.7	-39.7	22.7	0.00e+00	0	34	0	546308096	48	6963
2026-01-05 16:38:44.46	344.22	27.69	-39.0	-40.0	22.3	0.00e+00	0	34	0	553648128	50	6444
2026-01-05 16:38:48.49	343.07	28.01	-39.1	-40.1	22.4	0.00e+00	0	33	0	562036736	50	6496
2026-01-05 16:38:52.52	341.90	28.32	-39.3	-40.3	22.2	0.00e+00	0	34	0	569376768	50	6660
2026-01-05 16:38:56.56	340.70	28.62	-39.1	-40.1	22.3	0.00e+00	0	33	0	576716800	50	6530
2026-01-05 16:39:00.60	339.47	28.91	-38.6	-39.6	22.9	0.00e+00	0	33	0	584056832	50	6109
2026-01-05 16:39:04.64	338.23	29.19	-38.7	-39.7	22.6	0.00e+00	0	33	0	592445440	50	6191
2026-01-05 16:39:08.67	336.97	29.45	-38.4	-39.4	23.0	0.00e+00	0	33	0	599785472	50	5979
2026-01-05 16:39:12.71	335.68	29.70	-38.8	-39.8	22.7	0.00e+00	0	33	0	607125504	50	6246
2026-01-05 16:39:16.75	334.38	29.94	-38.9	-39.9	22.6	0.00e+00	0	34	0	614465536	50	6339
2026-01-05 16:39:20.78	333.05	30.16	-39.0	-40.0	22.4	0.00e+00	0	33	0	621805568	50	6446
2026-01-05 16:39:24.82	331.71	30.37	-39.4	-40.5	22.0	0.00e+00	0	33	0	630194176	50	6803
2026-01-05 16:39:28.85	330.36	30.55	-39.6	-40.7	21.9	0.00e+00	0	33	0	637534208	50	6964
2026-01-05 16:39:32.89	328.98	30.72	-38.6	-39.6	22.9	0.00e+00	0	33	0	644874240	50	6141
2026-01-05 16:39:36.93	327.59	30.88	-38.8	-39.8	22.7	0.00e+00	0	33	0	652214272	50	6267
2026-01-05 16:39:40.96	326.20	31.01	-38.5	-39.5	23.0	0.00e+00	0	33	0	659554304	50	6063
2026-01-05 16:39:45.00	324.78	31.13	-38.7	-39.7	22.8	0.00e+00	0	33	0	667942912	50	6210
2026-01-05 16:39:49.04	323.36	31.23	-39.1	-40.1	22.4	0.00e+00	0	33	0	675282944	50	6521
2026-01-05 16:39:53.08	321.93	31.30	-39.3	-40.4	22.2	0.00e+00	0	33	0	682622976	50	6700
2026-01-05 16:39:57.12	320.50	31.36	-39.6	-40.7	21.8	0.00e+00	0	33	0	689963008	50	6981
2026-01-05 16:40:01.16	319.06	31.40	-40.3	-41.5	21.2	0.00e+00	0	33	0	698351616	52	6809
2026-01-05 16:40:05.20	317.61	31.41	-39.8	-40.9	21.8	0.00e+00	0	33	0	705691648	52	6318
2026-01-05 16:40:09.23	316.18	31.41	-40.3	-41.4	21.3	0.00e+00	0	33	0	713031680	52	6741
2026-01-05 16:40:13.27	314.73	31.38	-39.6	-40.6	22.0	0.00e+00	0	33	0	720371712	52	6154
2026-01-05 16:40:17.30	313.30	31.34	-39.2	-40.2	22.4	0.00e+00	0	33	0	727711744	52	5840
2026-01-05 16:40:21.34	311.86	31.27	-39.5	-40.5	22.0	0.00e+00	0	33	0	736100352	52	6090
2026-01-05 16:40:25.38	310.44	31.19	-38.9	-39.8	22.7	0.00e+00	0	33	0	743440384	52	5619
2026-01-05 16:40:29.42	309.02	31.08	-39.4	-40.5	22.1	0.00e+00	0	33	0	750780416	52	6056
2026-01-05 16:40:33.45	307.61	30.96	-39.3	-40.4	22.2	0.00e+00	0	33	0	758120448	52	5999
2026-01-05 16:40:37.49	306.22	30.82	-39.0	-40.0	22.6	0.00e+00	0	33	0	766509056	52	5749
2026-01-05 16:40:41.53	304.83	30.66	-39.2	-40.2	22.4	0.00e+00	0	34	0	773849088	52	5856
2026-01-05 16:40:45.57	303.46	30.48	-39.2	-40.2	22.4	0.00e+00	0	34	0	781189120	52	5859
2026-01-05 16:40:49.61	302.11	30.28	-39.1	-40.1	22.5	0.00e+00	0	33	0	788529152	52	5823
2026-01-05 16:40:53.64	300.78	30.07	-39.4	-40.5	22.0	0.00e+00	0	33	0	795869184	52	6071
2026-01-05 16:40:57.68	299.46	29.84	-39.5	-40.6	22.0	0.00e+00	0	33	0	804257792	52	6136
2026-01-05 16:41:01.72	298.16	29.60	-39.7	-40.8	21.8	0.00e+00	0	33	0	811597824	52	6316
2026-01-05 16:41:05.75	296.88	29.34	-39.6	-40.7	22.0	0.00e+00	0	33	0	818937856	52	6175
2026-01-05 16:41:09.79	295.62	29.07	-39.9	-41.0	21.5	0.00e+00	0	33	0	826277888	52	6455
2026-01-05 16:41:13.82	294.39	28.79	-39.9	-41.0	21.6	0.00e+00	0	33	0	833617920	52	6424
2026-01-05 16:41:17.86	293.17	28.50	-39.4	-40.5	22.0	0.00e+00	0	33	0	842006528	52	6059
2026-01-05 16:41:21.90	291.98	28.19	-39.3	-40.3	22.3	0.00e+00	0	33	0	849346560	52	5915
2026-01-05 16:41:25.93	290.81	27.88	-39.3	-40.3	22.2	0.00e+00	0	33	0	856686592	52	5948
2026-01-05 16:41:29.97	289.67	27.55	-38.7	-39.6	22.8	0.00e+00	0	33	0	864026624	50	6170
2026-01-05 16:41:34.01	288.54	27.22	-38.8	-39.8	22.7	0.00e+00	0	33	0	872415232	50	6283
2026-01-05 16:41:38.05	287.44	26.88	-39.0	-40.0	22.5	0.00e+00	0	33	0	879755264	50	6417
2026-01-05 16:41:42.09	286.37	26.53	-38.5	-39.4	23.0	0.00e+00	0	33	0	887095296	50	6024
2026-01-05 16:41:46.13	285.32	26.18	-38.2	-39.2	23.2	0.00e+00	0	33	0	894435328	50	5832
2026-01-05 16:41:50.16	284.29	25.82	-38.0	-38.9	23.4	0.00e+00	0	33	0	901775360	50	5694
2026-01-05 16:41:54.20	283.29	25.45	-37.7	-38.6	23.7	0.00e+00	0	33	0	910163968	50	5469
2026-01-05 16:41:58.24	282.30	25.08	-37.4	-38.3	24.1	0.00e+00	0	33	0	917504000	48	5902
2026-01-05 16:42:02.27	281.35	24.71	-36.8	-37.6	24.5	0.00e+00	0	33	0	924844032	48	5474
2026-01-05 16:42:06.31	280.41	24.33	-36.5	-37.3	24.9	0.00e+00	0	33	0	932184064	46	5913
2026-01-05 16:42:10.35	279.50	23.95	-36.3	-37.0	25.1	0.00e+00	0	33	0	940572672	46	5757
2026-01-05 16:42:14.39	278.61	23.57	-36.3	-37.1	25.1	0.00e+00	0	33	0	947912704	46	5794
2026-01-05 16:42:18.41	277.74	23.19	-35.8	-36.5	25.4	0.00e+00	0	33	0	955252736	44	6095
2026-01-05 16:42:22.45	276.89	22.81	-35.6	-36.3	25.6	0.00e+00	0	33	0	962592768	44	5946
2026-01-05 16:42:26.48	276.07	22.42	-35.6	-36.3	25.6	0.00e+00	0	33	0	969932800	44	5953
2026-01-05 16:42:30.52	275.26	22.04	-35.6	-36.4	25.5	0.00e+00	0	33	0	978321408	44	5980
2026-01-05 16:42:34.56	274.47	21.65	-35.5	-36.3	25.5	0.00e+00	0	33	0	985661440	44	5905
2026-01-05 16:42:38.60	273.70	21.26	-35.9	-36.7	25.3	0.00e+00	0	33	0	993001472	44	6174
2026-01-05 16:42:42.63	272.96	20.88	-35.9	-36.7	25.1	0.00e+00	0	33	0	1000341504	44	6175
2026-01-05 16:42:46.67	272.23	20.50	-36.2	-36.9	25.0	0.00e+00	0	33	0	1008730112	44	6387
2026-01-05 16:42:50.71	271.51	20.11	-36.3	-37.0	24.9	0.00e+00	0	33	0	1016070144	44	6455
2026-01-05 16:42:54.74	270.82	19.73	-36.6	-37.4	24.7	0.00e+00	0	33	0	1023410176	44	6712
2026-01-05 16:42:58.78	270.14	19.35	-37.0	-37.8	24.3	0.00e+00	0	33	0	1030750208	46	6269
2026-01-05 16:43:02.82	269.48	18.97	-36.9	-37.8	24.4	0.00e+00	0	33	0	1038090240	46	6251
2026-01-05 16:43:06.86	268.84	18.59	-37.3	-38.2	24.0	0.00e+00	0	33	0	1046478848	46	6562
2026-01-05 16:43:10.90	268.21	18.22	-37.2	-38.1	24.2	0.00e+00	0	33	0	1053818880	46	6481
2026-01-05 16:43:14.93	267.60	17.85	-37.3	-38.2	24.0	0.00e+00	0	33	0	1061158912	46	6573
2026-01-05 16:43:18.97	267.00	17.48	-37.4	-38.3	23.8	0.00e+00	0	33	0	1068498944	46	6666
2026-01-05 16:43:23.01	266.42	17.11	-37.6	-38.5	23.8	0.00e+00	0	33	0	1076887552	46	6770
2026-01-05 16:43:27.05	265.85	16.74	-37.5	-38.4	23.8	0.00e+00	0	33	0	1084227584	46	6720
2026-01-05 16:43:31.09	265.30	16.38	-37.8	-38.7	23.5	0.00e+00	0	33	0	1091567616	48	6178
2026-01-05 16:43:35.13	264.76	16.02	-38.0	-39.0	23.2	0.00e+00	0	33	0	1098907648	48	6402
2026-01-05 16:43:39.17	264.23	15.66	-38.2	-39.1	23.0	0.00e+00	0	33	0	1106247680	48	6509
2026-01-05 16:43:43.21	263.71	15.31	-38.1	-39.1	23.1	0.00e+00	0	33	0	1114636288	48	6478
2026-01-05 16:43:47.24	263.21	14.96	-38.5	-39.4	22.7	0.00e+00	0	33	0	1121976320	48	6758
2026-01-05 16:43:51.28	262.72	14.61	-38.5	-39.5	22.7	0.00e+00	0	33	0	1129316352	48	6831
2026-01-05 16:43:55.32	262.24	14.26	-38.7	-39.7	22.6	0.00e+00	0	33	0	1136656384	48	7007
2026-01-05 16:43:59.36	261.77	13.92	-38.5	-39.5	22.7	0.00e+00	0	33	0	1145044992	48	6823
2026-01-05 16:44:03.40	261.32	13.58	-38.6	-39.6	22.6	0.00e+00	0	33	0	1152385024	48	6907
2026-01-05 16:44:07.43	260.87	13.24	-38.8	-39.8	22.4	0.00e+00	0	33	0	1159725056	50	6290
2026-01-05 16:44:11.46	260.44	12.90	-39.0	-40.0	22.2	0.00e+00	0	33	0	1167065088	50	6421
2026-01-05 16:44:15.50	260.01	12.57	-38.9	-39.9	22.3	0.00e+00	0	33	0	1174405120	50	6341
2026-01-05 16:44:19.53	259.59	12.24	-38.9	-40.0	22.1	0.00e+00	0	33	0	1182793728	50	6416
2026-01-05 16:44:23.57	259.19	11.92	-39.2	-40.2	22.0	0.00e+00	0	33	0	1190133760	50	6597
2026-01-05 16:44:27.61	258.79	11.60	-39.2	-40.2	21.9	0.00e+00	0	33	0	1197473792	50	6614
2026-01-05 16:44:31.64	258.40	11.28	-39.3	-40.4	21.8	0.00e+00	0	33	0	1204813824	50	6730
2026-01-05 16:44:35.68	258.02	10.96	-39.5	-40.6	21.6	0.00e+00	0	33	0	1212153856	50	6864
2026-01-05 16:44:39.72	257.65	10.64	-39.7	-40.9	21.3	0.00e+00	0	33	0	1220542464	50	7096
2026-01-05 16:44:43.75	257.28	10.33	-39.7	-40.9	21.3	0.00e+00	0	33	0	1227882496	52	6331
2026-01-05 16:44:47.79	256.93	10.02	-39.5	-40.6	21.5	0.00e+00	0	33	0	1235222528	52	6149
2026-01-05 16:44:51.83	256.58	9.72	-39.6	-40.7	21.4	0.00e+00	0	33	0	1242562560	52	6206
2026-01-05 16:44:55.86	256.24	9.41	-39.8	-40.9	21.2	0.00e+00	0	33	0	1250951168	52	6388
2026-01-05 16:44:59.90	255.90	9.11	-39.9	-41.1	21.0	0.00e+00	0	33	0	1258291200	52	6527
2026-01-05 16:45:03.94	255.57	8.82	-40.3	-41.6	20.5	0.00e+00	0	33	0	1265631232	52	6908
2026-01-05 16:45:07.98	255.25	8.52	-40.1	-41.4	20.7	0.00e+00	0	33	0	1272971264	52	6709
2026-01-05 16:45:12.02	254.94	8.23	-40.4	-41.6	20.4	0.00e+00	0	33	0	1280311296	52	6923
2026-01-05 16:45:16.06	254.63	7.94	-40.6	-42.0	20.1	0.00e+00	0	33	0	1288699904	52	7174
2026-01-05 16:45:20.09	254.33	7.65	-40.7	-42.0	19.9	0.00e+00	0	33	0	1296039936	54	6455
2026-01-05 16:45:24.12	254.04	7.36	-40.6	-41.9	20.0	0.00e+00	0	33	0	1303379968	54	6378
2026-01-05 16:45:28.16	253.75	7.08	-40.9	-42.3	19.6	0.00e+00	0	33	0	1310720000	54	6655
2026-01-05 16:45:32.20	253.47	6.80	-40.4	-41.8	20.2	0.00e+00	0	33	0	1319108608	54	6246
2026-01-05 16:45:36.23	253.19	6.52	-40.7	-42.1	19.8	0.00e+00	0	33	0	1326448640	54	6533
2026-01-05 16:45:40.27	252.92	6.25	-40.8	-42.2	19.6	0.00e+00	0	33	0	1333788672	54	6600
2026-01-05 16:45:44.31	252.65	5.97	-41.0	-42.4	19.4	0.00e+00	0	33	0	1341128704	54	6755
2026-01-05 16:45:48.35	252.39	5.70	-41.2	-42.7	19.1	0.00e+00	0	33	0	1348468736	54	6935
2026-01-05 16:45:52.39	252.13	5.43	-41.4	-42.9	18.8	0.00e+00	0	33	0	1356857344	54	7162
2026-01-05 16:45:56.43	251.88	5.17	-41.5	-43.2	18.6	0.00e+00	0	33	0	1364197376	54	7369
2026-01-05 16:46:00.46	251.63	4.90	-41.4	-43.0	18.6	0.00e+00	0	33	0	1371537408	54	7228
2026-01-05 16:46:04.50	251.39	4.64	-41.5	-43.2	18.4	0.00e+00	0	33	0	1378877440	54	7407
2026-01-05 16:46:08.54	251.15	4.38	-41.8	-43.6	18.0	0.00e+00	0	33	0	1387266048	56	6894
2026-01-05 16:46:12.57	250.92	4.12	-41.8	-43.6	18.1	0.00e+00	0	33	0	1394606080	56	6877
2026-01-05 16:46:16.61	250.69	3.86	-42.1	-44.1	17.6	0.00e+00	0	33	0	1401946112	56	7255
2026-01-05 16:46:20.64	250.46	3.61	-42.3	-44.3	17.3	0.00e+00	0	33	0	1409286144	56	7427
2026-01-05 16:46:24.67	250.24	3.36	-42.4	-44.5	16.9	0.00e+00	0	33	0	1416626176	56	7654
2026-01-05 16:46:28.71	250.03	3.11	-42.2	-44.3	17.1	0.00e+00	0	33	0	1425014784	58	6641
2026-01-05 16:46:32.75	249.81	2.86	-48.4	-63.6	3.6	1.51e+00	0	33	104	1428160512	60	54684
2026-01-05 16:46:36.79	249.60	2.61	-48.7	-63.9	3.6	1.51e+00	0	33	104	1428160512	60	56459
2026-01-05 16:46:40.83	249.40	2.36	-48.6	-63.8	3.6	1.51e+00	0	33	104	1428160512	60	56052
2026-01-05 16:46:44.87	249.20	2.12	-48.6	-63.8	3.6	1.51e+00	0	33	104	1428160512	60	56001
2026-01-05 16:46:48.91	249.00	1.88	-48.6	-63.7	3.6	1.51e+00	0	33	104	1428160512	60	55647
2026-01-05 16:46:52.95	248.80	1.64	-48.6	-63.7	3.6	1.51e+00	0	33	104	1428160512	60	55562
2026-01-05 16:46:56.99	248.61	1.40	-48.6	-63.7	3.6	1.51e+00	0	33	104	1428160512	60	55474
2026-01-05 16:47:01.03	248.42	1.16	-48.6	-63.8	3.6	1.51e+00	0	33	104	1428160512	60	55781
2026-01-05 16:47:05.07	248.23	0.93	-48.6	-63.7	3.6	1.51e+00	0	34	104	1428160512	60	55484
2026-01-05 16:47:09.11	248.05	0.69	-48.6	-63.7	3.6	1.51e+00	0	33	104	1428160512	60	55139
2026-01-05 16:47:13.14	247.87	0.46	-48.6	-63.7	3.6	1.51e+00	0	33	104	1428160512	60	55373
2026-01-05 16:47:17.18	247.70	0.23	-48.6	-63.7	3.6	1.51e+00	0	33	104	1428160512	60	55304
2026-01-05 16:47:21.22	247.52	0.00	-48.6	-63.7	3.6	1.51e+00	0	33	104	1428160512	60	55426

#Closed at: 2026-01-05 16:47:22
#Recorded file [1428 MB]: D:/lorett/data/35029_260106_043253.dat