passes_logs/2026/01/02/R2M6_AANII_01/R2M6_AANII_01__20260102_221959_SUOMI_NPP_rec.log

#Pass ID: 20260102_221959_SUOMI NPP
#Satellite: SUOMI NPP
#Configuration: NPP
#almurnet v.1.7.20240730
#Start time: 2026-01-02 22:20:00

#Version: 2.2.20231116
#Station: R2M6_AANII_01
#Location: 30.233357 lon 59.946436 lat
#TLE: 1 37849U 11061A   26001.07732418  .00000182  00000+0  10735-3 0  9990
#TLE: 2 37849  98.7795 303.2470 0002580  87.2016 272.9455 14.19520779734739

#Time	Az	El	Level	Level2	SNR	BER	BlckErr	Temp	State	Recorded	gain1	gain2
2026-01-02 22:20:00.22	36.36	7.04	-30.7	-34.9	5.1	1.19e+00	0	41	0	0	22	5790
2026-01-02 22:20:03.23	36.73	7.19	-31.1	-35.6	7.3	1.19e-01	0	41	0	1048576	23	6064
2026-01-02 22:20:06.24	37.10	7.35	-31.1	-35.6	7.3	1.26e-01	0	41	0	7340032	23	6024
2026-01-02 22:20:09.26	37.47	7.50	-30.9	-34.9	7.9	8.89e-02	0	41	0	12582912	23	5684
2026-01-02 22:20:12.28	37.85	7.66	-30.6	-34.2	8.8	4.98e-02	0	41	0	18874368	22	5429
2026-01-02 22:20:15.30	38.23	7.81	-29.9	-32.0	10.9	3.26e-03	0	41	0	24117248	21	4570
2026-01-02 22:20:18.32	38.61	7.97	-29.9	-32.3	11.2	1.42e-03	0	41	0	29360128	20	4748
2026-01-02 22:20:21.33	39.00	8.12	-30.0	-32.5	11.0	1.62e-03	0	41	0	35651584	20	4846
2026-01-02 22:20:24.34	39.39	8.27	-29.9	-32.3	11.2	1.45e-03	0	41	0	40894464	20	4754
2026-01-02 22:20:27.37	39.79	8.43	-29.8	-32.1	11.3	1.29e-03	0	41	0	46137344	20	4669
2026-01-02 22:20:30.39	40.19	8.58	-29.5	-31.0	12.2	2.68e-04	0	42	0	52428800	20	4289
2026-01-02 22:20:33.40	40.59	8.74	-29.4	-30.7	12.4	1.55e-04	0	42	0	57671680	20	4175
2026-01-02 22:20:36.42	41.00	8.89	-29.2	-30.6	12.9	6.71e-05	0	42	0	63963136	19	4212
2026-01-02 22:20:39.43	41.41	9.04	-29.0	-30.1	13.2	2.82e-05	0	42	0	69206016	19	4077
2026-01-02 22:20:42.44	41.83	9.19	-28.9	-29.8	13.4	1.44e-05	0	42	0	74448896	19	3987
2026-01-02 22:20:45.46	42.25	9.35	-29.1	-30.5	13.0	1.90e-05	0	42	0	80740352	19	4198
2026-01-02 22:20:48.49	42.68	9.50	-29.3	-30.8	12.7	4.65e-05	0	42	0	85983232	19	4306
2026-01-02 22:20:51.49	43.10	9.65	-29.3	-30.8	12.8	6.56e-05	0	42	0	92274688	19	4281
2026-01-02 22:20:54.51	43.54	9.80	-29.1	-30.2	13.2	2.89e-05	0	42	0	97517568	19	4102
2026-01-02 22:20:57.53	43.98	9.95	-29.1	-30.3	13.2	2.59e-05	0	42	0	102760448	19	4117
2026-01-02 22:21:00.54	44.42	10.10	-29.2	-31.2	12.9	4.11e-05	0	42	0	109051904	18	4508
2026-01-02 22:21:03.55	44.86	10.25	-29.3	-31.4	12.8	4.57e-05	0	42	0	114294784	18	4561
2026-01-02 22:21:06.58	45.32	10.40	-29.3	-31.3	12.8	5.49e-05	0	42	0	120586240	18	4521
2026-01-02 22:21:09.59	45.77	10.55	-29.3	-31.3	12.8	3.66e-05	0	42	0	125829120	18	4525
2026-01-02 22:21:12.61	46.23	10.70	-29.3	-31.3	12.8	4.73e-05	0	42	0	131072000	18	4548
2026-01-02 22:21:15.61	46.69	10.84	-29.2	-31.2	12.9	4.11e-05	0	42	0	137363456	18	4486
2026-01-02 22:21:18.62	47.16	10.99	-29.3	-31.4	12.9	8.77e-05	0	42	0	142606336	18	4563
2026-01-02 22:21:21.63	47.64	11.13	-29.3	-31.4	12.9	4.50e-05	0	42	0	148897792	18	4560
2026-01-02 22:21:24.64	48.11	11.27	-29.1	-31.4	12.0	2.01e-04	0	42	0	154140672	19	4703
2026-01-02 22:21:27.65	48.59	11.42	-29.7	-31.9	11.8	2.59e-04	0	42	0	159383552	19	4650
2026-01-02 22:21:30.67	49.08	11.56	-29.8	-32.0	12.2	1.69e-04	0	43	0	165675008	19	4671
2026-01-02 22:21:33.69	49.58	11.70	-29.4	-31.1	12.7	9.53e-05	0	42	0	170917888	19	4351
2026-01-02 22:21:36.70	50.07	11.84	-29.6	-31.6	12.4	1.48e-04	0	42	0	176160768	19	4545
2026-01-02 22:21:39.72	50.57	11.98	-29.6	-31.5	12.5	2.06e-04	0	42	0	182452224	19	4497
2026-01-02 22:21:42.74	51.08	12.12	-29.6	-31.5	12.5	1.35e-04	0	43	0	187695104	19	4500
2026-01-02 22:21:45.76	51.59	12.26	-29.7	-31.8	12.3	1.25e-04	0	42	0	193986560	19	4599
2026-01-02 22:21:48.77	52.11	12.39	-29.5	-31.4	12.6	2.49e-04	0	43	0	199229440	19	4453
2026-01-02 22:21:51.78	52.62	12.52	-29.8	-32.2	12.0	3.11e-04	0	43	0	204472320	19	4742
2026-01-02 22:21:54.80	53.15	12.66	-29.9	-32.1	11.7	7.36e-04	0	43	0	210763776	20	4637
2026-01-02 22:21:57.82	53.68	12.79	-30.1	-32.8	11.3	1.28e-03	0	43	0	216006656	20	4862
2026-01-02 22:22:00.83	54.21	12.92	-30.1	-32.5	11.5	1.14e-03	0	43	0	222298112	20	4774
2026-01-02 22:22:03.85	54.75	13.05	-30.3	-33.1	11.0	2.08e-03	0	43	0	227540992	20	4999
2026-01-02 22:22:06.85	55.29	13.17	-30.2	-33.0	11.2	1.65e-03	0	43	0	232783872	20	4941
2026-01-02 22:22:09.87	55.84	13.30	-30.3	-33.4	10.9	2.10e-03	0	43	0	239075328	20	5126
2026-01-02 22:22:12.89	56.39	13.42	-30.2	-33.1	11.1	2.00e-03	0	43	0	244318208	20	4986
2026-01-02 22:22:15.91	56.95	13.54	-30.3	-33.2	11.0	3.37e-03	0	43	0	250609664	20	5032
2026-01-02 22:22:18.93	57.51	13.66	-30.5	-33.5	10.4	4.06e-03	0	43	0	255852544	21	5067
2026-01-02 22:22:21.95	58.07	13.78	-30.3	-33.1	11.0	2.67e-03	0	43	0	261095424	20	4979
2026-01-02 22:22:24.97	58.64	13.89	-30.3	-33.2	11.0	1.81e-03	0	43	0	267386880	20	5016
2026-01-02 22:22:27.99	59.22	14.01	-30.3	-33.3	11.0	2.33e-03	0	43	0	272629760	20	5056
2026-01-02 22:22:31.01	59.80	14.12	-30.2	-32.8	11.3	2.32e-03	0	43	0	278921216	20	4871
2026-01-02 22:22:34.03	60.38	14.23	-30.1	-32.4	11.5	6.92e-04	0	43	0	284164096	20	4715
2026-01-02 22:22:37.04	60.96	14.33	-30.0	-32.3	11.7	5.78e-04	0	43	0	289406976	20	4666
2026-01-02 22:22:40.05	61.55	14.44	-29.1	-30.2	13.5	8.30e-06	0	43	0	295698432	19	4054
2026-01-02 22:22:43.07	62.15	14.54	-28.9	-30.0	13.9	1.50e-06	0	43	0	300941312	18	4105
2026-01-02 22:22:46.10	62.75	14.64	-29.1	-30.4	13.8	6.80e-06	0	43	0	307232768	18	4222
2026-01-02 22:22:49.12	63.35	14.74	-29.1	-30.7	13.5	8.30e-06	0	43	0	312475648	18	4310
2026-01-02 22:22:52.13	63.96	14.83	-29.3	-31.0	13.4	9.10e-06	0	43	0	317718528	18	4411
2026-01-02 22:22:55.15	64.57	14.92	-29.1	-30.6	13.6	3.00e-06	0	43	0	324009984	18	4256
2026-01-02 22:22:58.16	65.18	15.01	-29.3	-31.2	13.3	1.37e-05	0	43	0	329252864	18	4463
2026-01-02 22:23:01.18	65.80	15.10	-29.5	-31.3	12.9	4.27e-05	0	43	0	335544320	19	4397
2026-01-02 22:23:04.19	66.42	15.18	-29.2	-30.7	13.6	8.30e-06	0	43	0	340787200	18	4294
2026-01-02 22:23:07.21	67.04	15.26	-29.4	-31.3	13.3	1.60e-05	0	43	0	346030080	18	4494
2026-01-02 22:23:10.23	67.67	15.34	-29.8	-32.0	12.3	1.40e-04	0	43	0	352321536	19	4642
2026-01-02 22:23:13.24	68.30	15.41	-29.6	-31.4	12.8	3.96e-05	0	43	0	357564416	19	4424
2026-01-02 22:23:16.25	68.93	15.48	-30.0	-32.5	12.1	1.85e-04	0	43	0	362807296	19	4816
2026-01-02 22:23:19.26	69.57	15.55	-30.0	-32.3	11.8	8.83e-04	0	43	0	369098752	20	4659
2026-01-02 22:23:22.29	70.21	15.62	-29.3	-30.1	13.3	3.12e-05	0	43	0	374341632	20	3953
2026-01-02 22:23:25.30	70.85	15.68	-29.4	-31.3	13.2	1.22e-05	0	43	0	380633088	18	4497
2026-01-02 22:23:28.32	71.50	15.74	-29.8	-31.9	12.5	9.68e-05	0	43	0	385875968	19	4600
2026-01-02 22:23:31.34	72.14	15.80	-29.3	-30.4	13.5	1.06e-05	0	43	0	391118848	19	4121
2026-01-02 22:23:34.36	72.79	15.85	-29.4	-30.8	13.2	2.21e-05	0	43	0	397410304	19	4217
2026-01-02 22:23:37.37	73.44	15.90	-29.4	-30.8	13.3	2.82e-05	0	43	0	402653184	19	4221
2026-01-02 22:23:40.38	74.10	15.94	-29.6	-31.3	12.9	3.66e-05	0	43	0	408944640	19	4390
2026-01-02 22:23:43.40	74.75	15.99	-30.0	-32.0	12.0	2.97e-04	0	43	0	414187520	20	4564
2026-01-02 22:23:46.42	75.41	16.03	-29.6	-31.1	12.6	1.72e-04	0	43	0	419430400	20	4249
2026-01-02 22:23:49.43	76.07	16.06	-29.6	-31.4	12.8	6.10e-05	0	43	0	425721856	19	4444
2026-01-02 22:23:52.44	76.73	16.09	-29.9	-31.9	12.1	2.35e-04	0	43	0	430964736	20	4529
2026-01-02 22:23:55.46	77.39	16.12	-29.9	-31.9	12.1	5.07e-04	0	43	0	437256192	20	4528
2026-01-02 22:23:58.47	78.05	16.15	-29.8	-31.5	12.3	1.77e-04	0	43	0	442499072	20	4395
2026-01-02 22:24:01.49	78.72	16.17	-29.7	-31.6	12.7	1.10e-04	0	43	0	447741952	19	4496
2026-01-02 22:24:04.51	79.38	16.18	-29.6	-31.3	13.0	4.04e-05	0	43	0	454033408	19	4392
2026-01-02 22:24:07.52	80.05	16.20	-29.6	-31.4	12.8	4.27e-05	0	43	0	459276288	19	4428
2026-01-02 22:24:10.54	80.71	16.21	-29.3	-30.5	13.4	1.29e-05	0	43	0	465567744	19	4149
2026-01-02 22:24:13.55	81.38	16.21	-28.9	-30.1	13.9	3.80e-06	0	43	0	470810624	18	4133
2026-01-02 22:24:16.58	82.05	16.22	-29.4	-31.3	13.1	1.75e-05	0	43	0	476053504	18	4484
2026-01-02 22:24:19.59	82.71	16.22	-29.4	-31.4	13.1	2.44e-05	0	43	0	482344960	18	4529
2026-01-02 22:24:22.61	83.38	16.21	-29.3	-30.6	13.4	9.90e-06	0	43	0	487587840	19	4176
2026-01-02 22:24:25.63	84.05	16.20	-29.6	-31.6	12.7	4.80e-05	0	43	0	493879296	19	4497
2026-01-02 22:24:28.63	84.71	16.19	-29.7	-31.6	12.7	5.87e-05	0	43	0	499122176	19	4498
2026-01-02 22:24:31.64	85.38	16.18	-29.3	-30.7	13.2	2.05e-05	0	43	0	504365056	19	4223
2026-01-02 22:24:34.65	86.04	16.16	-29.7	-31.9	12.5	1.03e-04	0	43	0	510656512	19	4600
2026-01-02 22:24:37.67	86.70	16.13	-29.9	-32.3	12.2	2.66e-04	0	43	0	515899392	19	4759
2026-01-02 22:24:40.68	87.37	16.11	-29.5	-31.2	12.9	6.63e-05	0	43	0	521142272	19	4380
2026-01-02 22:24:43.70	88.03	16.08	-29.4	-31.0	13.0	3.66e-05	0	43	0	527433728	19	4304
2026-01-02 22:24:46.71	88.69	16.04	-29.6	-31.5	12.8	5.72e-05	0	43	0	532676608	19	4477
2026-01-02 22:24:49.73	89.35	16.01	-29.6	-31.5	12.7	4.34e-05	0	43	0	538968064	19	4466
2026-01-02 22:24:52.75	90.01	15.97	-29.7	-31.7	12.5	9.68e-05	0	43	0	544210944	19	4555
2026-01-02 22:24:55.77	90.66	15.92	-29.6	-31.4	12.8	1.64e-04	0	43	0	549453824	19	4440
2026-01-02 22:24:58.79	91.32	15.88	-29.1	-30.1	13.6	1.98e-05	0	43	0	555745280	19	4033
2026-01-02 22:25:01.81	91.97	15.83	-28.9	-29.6	14.0	1.29e-05	0	43	0	560988160	19	3899
2026-01-02 22:25:04.82	92.62	15.77	-28.9	-29.6	14.0	1.06e-05	0	43	0	567279616	19	3882
2026-01-02 22:25:07.83	93.26	15.71	-28.8	-29.8	14.2	2.20e-06	0	43	0	572522496	18	4037
2026-01-02 22:25:10.84	93.91	15.65	-29.3	-30.9	13.6	1.06e-05	0	43	0	577765376	18	4352
2026-01-02 22:25:13.86	94.55	15.59	-29.4	-30.8	13.3	2.13e-05	0	43	0	584056832	19	4237
2026-01-02 22:25:16.86	95.19	15.52	-29.3	-30.9	13.5	1.22e-05	0	43	0	589299712	18	4329
2026-01-02 22:25:19.88	95.82	15.45	-29.3	-31.0	13.4	5.11e-05	0	43	0	595591168	18	4391
2026-01-02 22:25:22.90	96.46	15.38	-29.2	-30.7	13.7	9.10e-06	0	43	0	600834048	18	4277
2026-01-02 22:25:25.91	97.09	15.30	-28.7	-29.5	14.4	3.80e-06	0	43	0	606076928	18	3943
2026-01-02 22:25:28.94	97.72	15.22	-28.5	-28.9	14.8	7.00e-07	0	43	0	612368384	18	3763
2026-01-02 22:25:31.96	98.34	15.14	-28.8	-30.1	14.3	0.00e+00	0	43	0	617611264	17	4211
2026-01-02 22:25:34.96	98.96	15.05	-29.0	-30.2	13.9	5.30e-06	0	43	0	623902720	18	4145
2026-01-02 22:25:37.97	99.58	14.97	-28.9	-30.0	13.9	7.00e-07	0	43	0	629145600	18	4067
2026-01-02 22:25:40.99	100.19	14.88	-29.1	-30.5	13.6	6.10e-06	0	43	0	634388480	18	4222
2026-01-02 22:25:44.01	100.80	14.78	-29.2	-30.7	13.6	1.05e-04	0	43	0	640679936	18	4291
2026-01-02 22:25:47.03	101.41	14.69	-29.0	-30.2	14.0	6.86e-05	0	43	0	645922816	18	4127
2026-01-02 22:25:50.05	102.01	14.59	-28.9	-30.1	14.0	1.50e-06	0	43	0	652214272	18	4100
2026-01-02 22:25:53.06	102.61	14.49	-28.8	-29.7	14.2	2.20e-06	0	43	0	657457152	18	3992
2026-01-02 22:25:56.08	103.21	14.38	-29.1	-30.4	13.8	2.20e-06	0	43	0	662700032	18	4201
2026-01-02 22:25:59.10	103.80	14.28	-29.2	-30.9	13.5	1.22e-05	0	43	0	668991488	18	4350
2026-01-02 22:26:02.11	104.38	14.17	-29.4	-30.9	13.1	6.25e-05	0	43	0	674234368	19	4272
2026-01-02 22:26:05.13	104.97	14.06	-30.1	-32.3	11.7	6.23e-04	0	43	0	680525824	20	4655
2026-01-02 22:26:08.14	105.54	13.94	-30.1	-32.4	11.6	9.05e-04	0	43	0	685768704	20	4705
2026-01-02 22:26:11.16	106.12	13.83	-30.0	-32.1	11.9	5.74e-04	0	43	0	691011584	20	4585
2026-01-02 22:26:14.18	106.69	13.71	-29.7	-31.3	12.4	1.59e-04	0	43	0	697303040	20	4307
2026-01-02 22:26:17.19	107.25	13.59	-30.0	-32.1	11.8	4.16e-04	0	43	0	702545920	20	4590
2026-01-02 22:26:20.21	107.81	13.47	-30.0	-32.1	11.9	6.11e-04	0	43	0	707788800	20	4580
2026-01-02 22:26:23.23	108.37	13.35	-30.0	-32.0	11.9	6.56e-04	0	43	0	714080256	20	4538
2026-01-02 22:26:26.24	108.92	13.23	-30.0	-32.2	11.8	4.51e-04	0	43	0	719323136	20	4603
2026-01-02 22:26:29.26	109.47	13.10	-30.2	-32.9	11.3	1.24e-03	0	43	0	725614592	20	4869
2026-01-02 22:26:32.28	110.01	12.97	-30.4	-33.4	10.9	1.41e-03	0	43	0	730857472	20	5077
2026-01-02 22:26:35.30	110.55	12.84	-30.7	-33.8	10.2	4.45e-03	0	43	0	736100352	21	5177
2026-01-02 22:26:38.32	111.09	12.71	-30.3	-32.6	11.0	3.40e-03	0	43	0	742391808	21	4693
2026-01-02 22:26:41.35	111.62	12.58	-29.9	-31.2	12.1	2.55e-04	0	43	0	747634688	21	4203
2026-01-02 22:26:44.35	112.14	12.44	-29.9	-32.4	12.1	2.83e-04	0	43	0	753926144	19	4767
2026-01-02 22:26:47.37	112.66	12.31	-30.2	-32.6	11.4	1.08e-03	0	43	0	759169024	20	4781
2026-01-02 22:26:50.38	113.17	12.17	-30.2	-32.6	11.4	9.75e-04	0	43	0	764411904	20	4783
2026-01-02 22:26:53.40	113.68	12.03	-30.2	-32.8	11.3	1.06e-03	0	43	0	770703360	20	4853
2026-01-02 22:26:56.42	114.19	11.89	-30.1	-32.7	11.3	1.24e-03	0	43	0	775946240	20	4807
2026-01-02 22:26:59.43	114.69	11.75	-30.1	-32.5	11.4	9.49e-04	0	43	0	782237696	20	4762
2026-01-02 22:27:02.45	115.19	11.61	-30.2	-33.0	11.1	1.34e-03	0	43	0	787480576	20	4937
2026-01-02 22:27:05.46	115.68	11.47	-30.1	-32.5	11.4	1.74e-03	0	43	0	792723456	20	4765
2026-01-02 22:27:08.47	116.16	11.32	-30.0	-32.1	11.7	6.28e-04	0	43	0	799014912	20	4596
2026-01-02 22:27:11.48	116.65	11.18	-29.9	-32.0	11.7	4.54e-04	0	43	0	804257792	20	4564
2026-01-02 22:27:14.49	117.12	11.03	-29.9	-32.4	11.8	4.94e-04	0	43	0	810549248	19	4808
2026-01-02 22:27:17.50	117.60	10.89	-29.8	-32.0	12.1	2.58e-04	0	43	0	815792128	19	4653
2026-01-02 22:27:20.51	118.06	10.74	-29.6	-31.5	12.5	1.33e-04	0	43	0	821035008	19	4475
2026-01-02 22:27:23.52	118.53	10.59	-29.4	-31.0	12.8	1.11e-04	0	43	0	827326464	19	4322
2026-01-02 22:27:26.53	118.99	10.44	-29.7	-31.7	12.2	1.39e-04	0	43	0	832569344	19	4567
2026-01-02 22:27:29.54	119.44	10.29	-29.8	-32.0	12.0	3.81e-04	0	43	0	837812224	19	4660
2026-01-02 22:27:32.55	119.89	10.14	-29.7	-31.7	12.3	2.86e-04	0	43	0	844103680	19	4563
2026-01-02 22:27:35.56	120.34	9.99	-29.4	-31.1	12.6	6.79e-05	0	43	0	849346560	19	4351
2026-01-02 22:27:38.58	120.78	9.84	-29.2	-30.4	13.1	2.59e-05	0	43	0	855638016	19	4136
2026-01-02 22:27:41.59	121.22	9.69	-29.3	-30.8	12.8	8.54e-05	0	43	0	860880896	19	4268
2026-01-02 22:27:44.61	121.65	9.53	-29.5	-31.2	12.5	1.10e-04	0	43	0	866123776	19	4410
2026-01-02 22:27:47.62	122.08	9.38	-29.5	-31.4	12.4	1.37e-04	0	43	0	872415232	19	4451
2026-01-02 22:27:50.63	122.50	9.23	-29.8	-32.1	11.9	2.41e-04	0	43	0	877658112	19	4721
2026-01-02 22:27:53.65	122.92	9.07	-29.9	-32.6	11.6	5.24e-04	0	43	0	883949568	19	4891
2026-01-02 22:27:56.66	123.34	8.92	-29.7	-31.8	12.1	3.82e-04	0	43	0	889192448	19	4618
2026-01-02 22:27:59.67	123.75	8.77	-29.6	-31.5	12.2	1.57e-04	0	43	0	894435328	19	4518
2026-01-02 22:28:02.67	124.15	8.61	-29.6	-31.6	12.2	2.26e-04	0	43	0	900726784	19	4551
2026-01-02 22:28:05.69	124.56	8.46	-29.8	-32.3	11.7	5.19e-04	0	43	0	905969664	19	4790
2026-01-02 22:28:08.70	124.95	8.30	-30.1	-32.8	10.9	2.26e-03	0	43	0	911212544	20	4890
2026-01-02 22:28:11.72	125.35	8.15	-29.9	-32.3	11.2	9.72e-04	0	43	0	917504000	20	4720
2026-01-02 22:28:14.74	125.74	7.99	-29.8	-32.0	11.4	1.30e-03	0	43	0	922746880	20	4637
2026-01-02 22:28:17.76	126.13	7.83	-30.0	-32.7	10.9	1.74e-03	0	43	0	929038336	20	4880
2026-01-02 22:28:20.77	126.51	7.68	-30.1	-32.9	10.6	3.24e-03	0	43	0	934281216	20	4985
2026-01-02 22:28:23.79	126.89	7.52	-30.2	-33.3	10.4	2.97e-03	0	43	0	939524096	20	5122
2026-01-02 22:28:26.81	127.27	7.36	-30.2	-33.3	10.3	5.13e-03	0	43	0	945815552	20	5142
2026-01-02 22:28:29.83	127.64	7.21	-30.3	-33.7	10.0	9.82e-03	0	43	0	951058432	20	5339
2026-01-02 22:28:32.84	128.01	7.05	-32.4	-44.8	3.8	1.07e+00	0	43	104	956301312	24	15089

#Closed at: 2026-01-02 22:28:34
#Recorded file [956 MB]: D:/data/31010_260103_012002.dat