passes_logs/2026/01/02/R2M6_AANII_01/R2M6_AANII_01__20260102_115159_AQUA_rec.log

#Pass ID: 20260102_115159_AQUA
#Satellite: AQUA
#Configuration: AQUA
#almurnet v.1.7.20240730
#Start time: 2026-01-02 11:51:58

#Version: 2.2.20231116
#Station: R2M6_AANII_01
#Location: 30.233357 lon 59.946436 lat
#TLE: 1 27424U 02022A   25365.92641127  .00002078  00000+0  42628-3 0  9999
#TLE: 2 27424  98.4058 327.1196 0001962  94.7781 340.6230 14.61783896258835

#Time	Az	El	Level	Level2	SNR	BER	BlckErr	Temp	State	Recorded	gain1	gain2
2026-01-02 11:51:58.98	155.03	6.98	-30.3	-35.7	5.2	7.08e-01	0	41	0	0	22	6733
2026-01-02 11:52:01.99	155.01	7.22	-30.6	-35.7	15.1	6.07e-01	0	41	0	1572864	22	6514
2026-01-02 11:52:04.99	154.98	7.47	-30.3	-34.9	15.7	6.06e-01	0	41	0	7340032	22	6139
2026-01-02 11:52:07.99	154.96	7.73	-29.8	-34.2	16.4	6.08e-01	0	41	0	13107200	21	5970
2026-01-02 11:52:11.00	154.94	7.98	-30.2	-35.5	15.5	6.09e-01	0	41	0	18350080	21	6604
2026-01-02 11:52:14.02	154.91	8.24	-29.7	-33.6	16.9	6.07e-01	0	41	0	24117248	21	5632
2026-01-02 11:52:17.03	154.88	8.51	-29.6	-33.1	17.4	6.03e-01	0	41	0	29884416	21	5386
2026-01-02 11:52:20.03	154.86	8.77	-29.5	-32.7	17.7	6.06e-01	0	41	0	35651584	21	5219
2026-01-02 11:52:23.05	154.83	9.04	-29.6	-32.8	17.7	6.07e-01	0	42	0	40894464	21	5206
2026-01-02 11:52:26.06	154.80	9.31	-29.6	-32.9	17.6	6.05e-01	0	42	0	46661632	21	5281
2026-01-02 11:52:29.06	154.77	9.58	-29.6	-32.8	17.7	6.04e-01	0	42	0	52428800	21	5226
2026-01-02 11:52:32.06	154.74	9.86	-29.4	-32.5	18.0	6.05e-01	0	42	0	58195968	21	5120
2026-01-02 11:52:35.06	154.71	10.14	-29.5	-32.5	18.0	6.05e-01	0	42	0	63438848	21	5128
2026-01-02 11:52:38.07	154.68	10.43	-29.6	-32.9	17.8	6.06e-01	0	42	0	69206016	21	5237
2026-01-02 11:52:41.07	154.65	10.72	-29.7	-33.0	17.7	6.06e-01	0	42	0	74973184	21	5294
2026-01-02 11:52:44.07	154.61	11.01	-29.7	-33.0	17.8	6.05e-01	0	42	0	80216064	21	5264
2026-01-02 11:52:47.08	154.58	11.30	-29.5	-32.4	18.2	6.08e-01	0	42	0	85983232	21	5030
2026-01-02 11:52:50.09	154.55	11.61	-30.0	-33.7	17.4	6.07e-01	0	42	0	91750400	21	5503
2026-01-02 11:52:53.10	154.51	11.91	-30.5	-35.2	16.7	6.06e-01	0	42	0	97517568	21	6218
2026-01-02 11:52:56.11	154.47	12.22	-29.5	-32.4	18.4	6.06e-01	0	42	0	103284736	21	4972
2026-01-02 11:52:59.11	154.43	12.53	-29.3	-32.2	18.8	6.06e-01	0	42	0	108527616	20	5005
2026-01-02 11:53:02.11	154.39	12.85	-29.3	-32.1	18.9	6.07e-01	0	42	0	114294784	20	4986
2026-01-02 11:53:05.13	154.35	13.17	-29.3	-32.2	18.8	6.07e-01	0	42	0	120061952	20	5038
2026-01-02 11:53:08.14	154.31	13.50	-29.3	-32.3	18.7	6.04e-01	0	42	0	125829120	20	5077
2026-01-02 11:53:11.15	154.27	13.84	-29.2	-32.0	18.9	6.07e-01	0	42	0	131072000	20	4973
2026-01-02 11:53:14.16	154.23	14.17	-29.4	-32.5	18.6	6.07e-01	0	42	0	136839168	20	5157
2026-01-02 11:53:17.16	154.18	14.52	-29.2	-31.8	19.2	6.09e-01	0	42	0	142606336	20	4863
2026-01-02 11:53:20.17	154.13	14.86	-29.1	-31.6	19.4	6.08e-01	0	42	0	148373504	20	4800
2026-01-02 11:53:23.19	154.08	15.22	-29.2	-31.8	19.2	6.04e-01	0	42	0	153616384	20	4876
2026-01-02 11:53:26.20	154.04	15.58	-29.3	-32.0	19.1	6.06e-01	0	42	0	159383552	20	4937
2026-01-02 11:53:29.21	153.98	15.95	-29.5	-32.7	18.7	6.05e-01	0	43	0	165150720	20	5197
2026-01-02 11:53:32.22	153.93	16.32	-29.4	-32.5	18.9	6.07e-01	0	43	0	170917888	20	5107
2026-01-02 11:53:35.23	153.88	16.70	-29.3	-32.2	19.1	6.07e-01	0	43	0	176160768	20	5011
2026-01-02 11:53:38.23	153.82	17.08	-29.3	-32.0	19.2	6.04e-01	0	43	0	181927936	20	4935
2026-01-02 11:53:41.25	153.76	17.47	-29.3	-32.1	19.2	6.05e-01	0	43	0	187695104	20	4937
2026-01-02 11:53:44.25	153.70	17.87	-29.4	-32.2	19.2	6.06e-01	0	43	0	193462272	20	4985
2026-01-02 11:53:47.26	153.64	18.28	-29.4	-32.1	19.3	6.07e-01	0	43	0	198705152	20	4943
2026-01-02 11:53:50.26	153.58	18.69	-29.3	-31.9	19.5	6.06e-01	0	43	0	204472320	20	4844
2026-01-02 11:53:53.28	153.51	19.11	-29.5	-32.3	19.2	6.06e-01	0	43	0	210239488	20	4991
2026-01-02 11:53:56.27	153.44	19.54	-29.6	-32.7	19.0	6.07e-01	0	43	0	216006656	20	5128
2026-01-02 11:53:59.28	153.37	19.97	-29.8	-33.2	18.8	6.09e-01	0	43	0	221249536	20	5301
2026-01-02 11:54:02.29	153.30	20.42	-29.6	-32.6	19.1	6.08e-01	0	43	0	227016704	20	5099
2026-01-02 11:54:05.29	153.22	20.87	-29.6	-32.7	19.1	6.07e-01	0	43	0	232783872	20	5128
2026-01-02 11:54:08.28	153.15	21.33	-29.7	-32.8	19.0	6.08e-01	0	43	0	238551040	20	5191
2026-01-02 11:54:11.29	153.06	21.81	-29.6	-32.4	19.3	6.07e-01	0	43	0	243793920	20	5010
2026-01-02 11:54:14.31	152.98	22.29	-29.5	-32.2	19.5	6.06e-01	0	43	0	249561088	20	4924
2026-01-02 11:54:17.31	152.89	22.78	-29.4	-32.0	19.6	6.05e-01	0	43	0	255328256	20	4867
2026-01-02 11:54:20.32	152.80	23.28	-29.5	-32.2	19.5	6.07e-01	0	43	0	261095424	20	4914
2026-01-02 11:54:23.33	152.71	23.80	-29.5	-32.2	19.5	6.06e-01	0	43	0	266862592	20	4928
2026-01-02 11:54:26.33	152.61	24.32	-29.5	-32.2	19.6	6.06e-01	0	43	0	272105472	20	4917
2026-01-02 11:54:29.35	152.51	24.86	-29.7	-32.7	19.3	6.08e-01	0	43	0	277872640	20	5082
2026-01-02 11:54:32.37	152.40	25.41	-29.9	-33.2	19.0	6.05e-01	0	43	0	283639808	20	5255
2026-01-02 11:54:35.37	152.29	25.97	-29.9	-33.2	19.0	6.06e-01	0	43	0	289406976	20	5280
2026-01-02 11:54:38.37	152.18	26.54	-29.7	-32.6	19.4	6.04e-01	0	43	0	294649856	20	5051
2026-01-02 11:54:41.37	152.06	27.13	-29.6	-32.3	19.6	6.03e-01	0	43	0	300417024	20	4929
2026-01-02 11:54:44.37	151.94	27.72	-29.3	-31.6	20.1	6.07e-01	0	43	0	306184192	20	4688
2026-01-02 11:54:47.37	151.81	28.34	-29.1	-31.2	20.3	6.06e-01	0	43	0	311427072	20	4553
2026-01-02 11:54:50.38	151.67	28.97	-29.3	-31.7	20.1	6.08e-01	0	43	0	317194240	20	4716
2026-01-02 11:54:53.39	151.53	29.61	-29.2	-31.3	20.3	6.05e-01	0	43	0	322961408	20	4592
2026-01-02 11:54:56.39	151.38	30.27	-29.1	-31.2	20.4	6.09e-01	0	43	0	328728576	20	4551
2026-01-02 11:54:59.39	151.23	30.95	-29.3	-31.5	20.2	6.06e-01	0	43	0	334495744	20	4664
2026-01-02 11:55:02.39	151.07	31.64	-29.2	-31.3	20.3	6.05e-01	0	43	0	339738624	20	4585
2026-01-02 11:55:05.24	150.91	32.31	-29.2	-31.4	20.2	6.06e-01	0	43	0	345505792	20	4609
2026-01-02 11:55:08.40	150.72	33.08	-29.3	-31.5	20.2	6.07e-01	0	43	0	351272960	20	4646
2026-01-02 11:55:11.25	150.55	33.79	-29.6	-32.3	19.8	6.07e-01	0	43	0	356515840	20	4925
2026-01-02 11:55:14.40	150.34	34.59	-29.6	-32.5	19.7	6.07e-01	0	43	0	362807296	20	4994
2026-01-02 11:55:17.28	150.14	35.34	-29.7	-32.7	19.5	6.07e-01	0	43	0	368050176	20	5078
2026-01-02 11:55:20.44	149.91	36.19	-30.2	-33.4	18.9	6.06e-01	0	43	0	373817344	21	5194
2026-01-02 11:55:23.30	149.70	36.98	-30.2	-33.3	18.9	6.06e-01	0	43	0	379584512	21	5149
2026-01-02 11:55:26.44	149.44	37.87	-30.5	-34.2	18.4	6.06e-01	0	43	0	385351680	21	5501
2026-01-02 11:55:29.30	149.20	38.70	-30.4	-34.0	18.5	6.06e-01	0	43	0	390594560	21	5442
2026-01-02 11:55:32.45	148.92	39.65	-30.6	-34.0	18.2	6.08e-01	0	43	0	396361728	22	5314
2026-01-02 11:55:35.32	148.64	40.53	-30.4	-33.4	18.7	6.06e-01	0	43	0	402128896	22	5072
2026-01-02 11:55:38.48	148.32	41.52	-30.4	-33.3	18.7	6.08e-01	0	43	0	407896064	22	5033
2026-01-02 11:55:41.34	148.01	42.45	-30.4	-33.3	18.7	6.07e-01	0	43	0	413138944	22	5027
2026-01-02 11:55:44.48	147.65	43.49	-29.8	-32.2	19.7	6.07e-01	0	43	0	418906112	21	4753
2026-01-02 11:55:47.34	147.30	44.46	-29.9	-32.4	19.5	6.05e-01	0	43	0	424673280	21	4837
2026-01-02 11:55:50.49	146.88	45.57	-30.1	-33.1	19.2	6.05e-01	0	43	0	430440448	21	5061
2026-01-02 11:55:53.36	146.48	46.60	-29.7	-32.1	19.8	6.04e-01	0	43	0	435683328	21	4719
2026-01-02 11:55:56.52	146.00	47.77	-29.9	-32.4	19.6	6.06e-01	0	43	0	441450496	21	4835
2026-01-02 11:55:59.38	145.53	48.85	-29.8	-32.2	19.7	6.08e-01	0	43	0	447217664	21	4750
2026-01-02 11:56:02.53	144.97	50.07	-30.2	-33.3	19.1	6.07e-01	0	43	0	452984832	21	5140
2026-01-02 11:56:05.39	144.42	51.21	-30.0	-32.8	19.4	6.05e-01	0	43	0	458227712	21	4966
2026-01-02 11:56:08.56	143.76	52.50	-29.8	-32.4	19.6	6.07e-01	0	43	0	463994880	21	4823
2026-01-02 11:56:11.43	143.11	53.69	-29.4	-31.6	20.4	6.06e-01	0	43	0	469762048	20	4684
2026-01-02 11:56:14.57	142.33	55.03	-29.3	-31.4	20.6	6.04e-01	0	43	0	475529216	20	4605
2026-01-02 11:56:17.43	141.55	56.28	-29.6	-32.3	20.0	6.07e-01	0	43	0	480772096	20	4908
2026-01-02 11:56:20.58	140.61	57.68	-30.0	-32.7	19.6	6.05e-01	0	43	0	486539264	21	4904
2026-01-02 11:56:23.45	139.65	58.97	-30.3	-33.5	19.0	6.05e-01	0	43	0	492306432	21	5239
2026-01-02 11:56:26.60	138.49	60.42	-30.4	-33.4	18.9	6.07e-01	0	43	0	498073600	22	5051
2026-01-02 11:56:29.47	137.31	61.76	-30.7	-34.0	18.5	6.06e-01	0	43	0	503316480	22	5277
2026-01-02 11:56:32.62	135.85	63.25	-30.8	-34.3	18.3	6.07e-01	0	43	0	509607936	22	5392
2026-01-02 11:56:35.48	134.35	64.62	-31.3	-35.3	17.4	6.05e-01	0	43	0	514850816	23	5686
2026-01-02 11:56:38.62	132.48	66.13	-31.9	-36.5	16.3	6.07e-01	0	43	0	520617984	24	6141
2026-01-02 11:56:41.48	130.54	67.50	-32.2	-37.0	15.6	6.08e-01	0	43	0	525860864	25	6267
2026-01-02 11:56:44.64	128.06	69.02	-32.3	-37.3	15.4	6.08e-01	0	43	0	531628032	25	6421
2026-01-02 11:56:47.52	125.44	70.38	-31.7	-35.4	16.7	6.05e-01	0	43	0	537395200	25	5509
2026-01-02 11:56:50.66	122.11	71.84	-31.9	-36.0	16.4	6.05e-01	0	43	0	543162368	25	5764
2026-01-02 11:56:53.52	118.55	73.13	-31.9	-35.9	16.4	6.05e-01	0	43	0	548405248	25	5733
2026-01-02 11:56:56.68	113.90	74.48	-32.0	-36.4	16.1	6.05e-01	0	43	0	554696704	25	5964
2026-01-02 11:56:59.54	108.93	75.62	-31.7	-35.9	16.8	6.04e-01	0	43	0	559939584	24	5847
2026-01-02 11:57:02.70	102.46	76.74	-31.9	-36.5	16.4	6.05e-01	0	43	0	565706752	24	6123
2026-01-02 11:57:05.56	95.64	77.59	-31.5	-35.1	17.4	6.07e-01	0	43	0	570949632	24	5468
2026-01-02 11:57:08.71	87.07	78.31	-32.0	-36.3	16.1	6.05e-01	0	43	0	576716800	25	5925
2026-01-02 11:57:11.58	78.47	78.72	-31.2	-34.4	17.8	6.05e-01	0	43	0	582483968	24	5181
2026-01-02 11:57:14.75	68.48	78.86	-31.3	-34.6	17.7	6.07e-01	0	43	0	588251136	24	5267
2026-01-02 11:57:17.62	59.45	78.70	-31.2	-34.3	17.8	6.06e-01	0	43	0	593494016	24	5138
2026-01-02 11:57:20.78	50.06	78.22	-31.1	-34.2	18.0	6.05e-01	0	43	0	599785472	24	5092
2026-01-02 11:57:23.64	42.39	77.54	-31.1	-34.1	18.0	6.07e-01	0	43	0	605028352	24	5068
2026-01-02 11:57:26.79	34.99	76.58	-31.3	-35.3	17.4	6.05e-01	0	43	0	610795520	23	5667
2026-01-02 11:57:29.65	29.24	75.56	-31.3	-35.2	17.5	6.05e-01	0	43	0	616038400	23	5622
2026-01-02 11:57:32.81	23.84	74.29	-31.6	-35.7	16.8	6.07e-01	0	43	0	622329856	24	5761
2026-01-02 11:57:35.68	19.70	73.06	-32.0	-37.0	15.9	6.07e-01	0	44	0	627572736	24	6380
2026-01-02 11:57:38.84	15.83	71.63	-32.3	-37.7	15.0	6.08e-01	0	43	0	633339904	25	6650
2026-01-02 11:57:41.70	12.85	70.30	-33.3	-40.8	11.9	6.13e-01	0	43	0	638582784	27	8530
2026-01-02 11:57:44.85	10.03	68.81	-33.6	-42.4	9.7	6.27e-01	0	43	0	644874240	28	9934
2026-01-02 11:57:47.72	7.82	67.44	-33.2	-40.1	11.8	6.12e-01	0	43	0	650117120	28	7981
2026-01-02 11:57:50.88	5.70	65.92	-32.9	-38.9	12.6	6.10e-01	0	43	0	655884288	28	7143
2026-01-02 11:57:53.75	4.02	64.55	-32.3	-37.2	14.9	6.05e-01	0	43	0	661651456	26	6301
2026-01-02 11:57:56.90	2.40	63.05	-31.2	-34.4	17.5	6.06e-01	0	43	0	667418624	24	5247
2026-01-02 11:57:59.76	1.09	61.70	-30.4	-32.7	18.9	6.06e-01	0	43	0	672661504	23	4706
2026-01-02 11:58:02.91	359.81	60.24	-30.7	-34.2	18.3	6.08e-01	0	43	0	678428672	22	5381
2026-01-02 11:58:05.78	358.77	58.92	-30.5	-33.6	18.7	6.06e-01	0	43	0	684195840	22	5132
2026-01-02 11:58:08.93	357.73	57.50	-30.0	-32.2	19.4	6.07e-01	0	43	0	689963008	22	4635
2026-01-02 11:58:11.79	356.88	56.24	-29.1	-31.0	20.7	6.04e-01	0	43	0	695205888	20	4493
2026-01-02 11:58:14.94	356.04	54.88	-29.0	-30.8	20.9	6.06e-01	0	43	0	700973056	20	4409
2026-01-02 11:58:17.81	355.33	53.66	-28.7	-30.5	21.4	6.06e-01	0	43	0	706740224	19	4423
2026-01-02 11:58:20.96	354.63	52.35	-28.9	-31.0	21.1	6.08e-01	0	43	0	712507392	19	4576
2026-01-02 11:58:23.82	354.04	51.20	-28.9	-31.0	21.1	6.05e-01	0	43	0	717750272	19	4577
2026-01-02 11:58:26.97	353.44	49.95	-29.5	-32.0	20.1	6.04e-01	0	43	0	723517440	20	4813
2026-01-02 11:58:29.83	352.94	48.85	-29.1	-30.9	20.7	6.07e-01	0	43	0	729284608	20	4438
2026-01-02 11:58:32.97	352.43	47.67	-29.8	-32.7	19.7	6.04e-01	0	43	0	735051776	20	5038
2026-01-02 11:58:35.83	352.00	46.62	-29.6	-32.4	19.8	5.98e-01	0	43	0	740294656	20	4941
2026-01-02 11:58:38.99	351.56	45.49	-29.3	-31.6	20.3	6.02e-01	0	43	0	746061824	20	4661
2026-01-02 11:58:41.87	351.18	44.49	-29.3	-31.6	20.3	6.00e-01	0	43	0	751828992	20	4658
2026-01-02 11:58:45.02	350.80	43.42	-29.8	-32.8	19.6	5.99e-01	0	43	0	757596160	20	5078
2026-01-02 11:58:47.89	350.47	42.47	-29.9	-33.2	19.4	6.00e-01	0	43	0	762839040	20	5208
2026-01-02 11:58:51.04	350.13	41.46	-29.9	-33.1	19.4	6.02e-01	0	44	0	769130496	20	5173
2026-01-02 11:58:53.90	349.84	40.56	-30.3	-33.7	18.7	6.01e-01	0	43	0	774373376	21	5293
2026-01-02 11:58:57.07	349.54	39.59	-30.3	-33.5	18.8	6.02e-01	0	43	0	780140544	21	5242
2026-01-02 11:58:59.94	349.29	38.74	-30.4	-33.9	18.6	6.00e-01	0	43	0	785383424	21	5374
2026-01-02 11:59:03.08	349.02	37.84	-30.4	-34.0	18.5	6.02e-01	0	43	0	791674880	21	5437
2026-01-02 11:59:05.95	348.79	37.03	-31.0	-35.2	17.4	6.01e-01	0	43	0	796917760	22	5825
2026-01-02 11:59:09.10	348.55	36.16	-30.6	-33.9	18.2	6.00e-01	0	43	0	802684928	22	5283
2026-01-02 11:59:11.97	348.35	35.40	-30.0	-32.2	19.3	5.98e-01	0	43	0	807927808	22	4662
2026-01-02 11:59:15.14	348.13	34.57	-29.4	-31.2	20.1	6.02e-01	0	43	0	814219264	21	4462
2026-01-02 11:59:18.00	347.95	33.85	-29.4	-31.8	20.0	6.01e-01	0	43	0	819462144	20	4750
2026-01-02 11:59:21.15	347.76	33.07	-29.2	-31.3	20.3	6.01e-01	0	43	0	825229312	20	4585
2026-01-02 11:59:24.00	347.59	32.38	-29.0	-30.7	20.6	6.00e-01	0	43	0	830472192	20	4416
2026-01-02 11:59:27.14	347.42	31.64	-28.8	-30.8	21.0	6.03e-01	0	43	0	836763648	19	4544
2026-01-02 11:59:30.01	347.26	30.99	-28.7	-30.6	21.1	6.01e-01	0	43	0	842006528	19	4463
2026-01-02 11:59:33.17	347.11	30.28	-28.9	-31.1	20.7	6.02e-01	0	43	0	847773696	19	4639
2026-01-02 11:59:36.03	346.97	29.66	-28.9	-31.2	20.6	6.00e-01	0	43	0	853016576	19	4655
2026-01-02 11:59:39.18	346.82	28.99	-29.1	-31.6	20.5	6.02e-01	0	43	0	859308032	19	4781
2026-01-02 11:59:42.05	346.69	28.39	-29.1	-31.6	20.5	6.01e-01	0	43	0	864550912	19	4774
2026-01-02 11:59:45.20	346.56	27.75	-29.6	-32.8	19.8	6.00e-01	0	43	0	870318080	19	5215
2026-01-02 11:59:48.06	346.45	27.18	-29.4	-31.9	19.9	5.98e-01	0	43	0	875560960	20	4800
2026-01-02 11:59:51.21	346.32	26.57	-29.5	-32.1	19.7	6.01e-01	0	43	0	881852416	20	4877
2026-01-02 11:59:54.07	346.22	26.03	-29.3	-31.7	19.9	6.02e-01	0	43	0	887095296	20	4735
2026-01-02 11:59:57.23	346.10	25.45	-29.5	-32.0	19.7	6.01e-01	0	43	0	892862464	20	4844
2026-01-02 12:00:00.09	346.00	24.93	-29.4	-32.0	19.7	6.00e-01	0	43	0	898105344	20	4833
2026-01-02 12:00:03.23	345.90	24.37	-29.5	-32.2	19.6	6.01e-01	0	43	0	904396800	20	4899
2026-01-02 12:00:06.11	345.81	23.87	-29.6	-32.4	19.4	6.00e-01	0	43	0	909639680	20	4990
2026-01-02 12:00:09.25	345.71	23.34	-29.9	-33.2	19.0	6.00e-01	0	43	0	915406848	20	5270
2026-01-02 12:00:12.12	345.63	22.86	-29.8	-33.0	19.1	6.01e-01	0	43	0	920649728	20	5208
2026-01-02 12:00:15.27	345.54	22.35	-29.8	-32.9	19.1	6.00e-01	0	43	0	926941184	20	5181
2026-01-02 12:00:18.14	345.46	21.89	-29.6	-32.5	19.4	5.98e-01	0	43	0	932184064	20	5008
2026-01-02 12:00:21.29	345.38	21.40	-29.5	-32.1	19.6	6.01e-01	0	44	0	937951232	20	4884
2026-01-02 12:00:24.15	345.31	20.96	-29.4	-31.9	19.7	6.01e-01	0	43	0	943194112	20	4828
2026-01-02 12:00:27.30	345.23	20.49	-29.4	-32.0	19.6	6.00e-01	0	43	0	949485568	20	4852
2026-01-02 12:00:30.16	345.16	20.07	-29.3	-31.8	19.7	5.99e-01	0	43	0	954728448	20	4774
2026-01-02 12:00:33.31	345.09	19.61	-29.4	-32.0	19.6	6.00e-01	0	43	0	960495616	20	4845
2026-01-02 12:00:36.18	345.03	19.21	-29.5	-32.2	19.4	6.03e-01	0	43	0	966262784	20	4912
2026-01-02 12:00:39.33	344.96	18.77	-29.5	-32.3	19.3	6.00e-01	0	43	0	972029952	20	4975
2026-01-02 12:00:42.20	344.90	18.38	-29.5	-32.3	19.3	6.01e-01	0	43	0	977272832	20	4954
2026-01-02 12:00:45.35	344.84	17.95	-29.8	-33.2	18.8	6.00e-01	0	43	0	983040000	20	5291
2026-01-02 12:00:48.21	344.78	17.58	-29.9	-33.3	18.7	6.03e-01	0	43	0	988282880	20	5346
2026-01-02 12:00:51.37	344.72	17.17	-29.8	-33.0	18.9	6.03e-01	0	43	0	994574336	20	5240
2026-01-02 12:00:54.24	344.67	16.80	-29.6	-32.7	19.0	6.01e-01	0	43	0	999817216	20	5110
2026-01-02 12:00:57.41	344.62	16.41	-29.7	-32.8	19.0	5.99e-01	0	43	0	1005584384	20	5152
2026-01-02 12:01:00.27	344.57	16.05	-29.6	-32.5	19.1	6.00e-01	0	43	0	1011351552	20	5052
2026-01-02 12:01:03.42	344.52	15.67	-29.4	-32.1	19.3	5.99e-01	0	43	0	1017118720	20	4910
2026-01-02 12:01:06.29	344.47	15.33	-29.4	-32.1	19.3	6.02e-01	0	43	0	1022361600	20	4912
2026-01-02 12:01:09.44	344.42	14.96	-29.4	-32.0	19.3	6.02e-01	0	43	0	1028128768	20	4875
2026-01-02 12:01:12.32	344.38	14.63	-29.5	-32.4	19.1	6.00e-01	0	43	0	1033895936	20	5005
2026-01-02 12:01:15.48	344.34	14.27	-29.8	-33.1	18.6	6.00e-01	0	44	0	1039663104	20	5279
2026-01-02 12:01:18.34	344.30	13.95	-29.4	-32.0	19.3	6.00e-01	0	43	0	1044905984	20	4882
2026-01-02 12:01:21.49	344.25	13.61	-29.4	-32.2	19.1	6.02e-01	0	43	0	1051197440	20	4969
2026-01-02 12:01:24.35	344.22	13.30	-29.4	-32.1	19.2	5.99e-01	0	43	0	1056440320	20	4913
2026-01-02 12:01:27.50	344.18	12.96	-29.4	-32.2	19.1	6.01e-01	0	43	0	1062207488	20	4956
2026-01-02 12:01:30.37	344.14	12.66	-29.4	-32.0	19.2	5.99e-01	0	43	0	1067450368	20	4905
2026-01-02 12:01:33.52	344.10	12.33	-29.4	-32.0	19.1	6.00e-01	0	43	0	1073741824	20	4906
2026-01-02 12:01:36.38	344.07	12.04	-29.4	-32.3	19.0	6.01e-01	0	43	0	1078984704	20	4983
2026-01-02 12:01:39.53	344.04	11.72	-29.4	-32.2	19.0	6.01e-01	0	43	0	1084751872	20	4971
2026-01-02 12:01:42.40	344.00	11.43	-29.4	-32.3	18.9	6.02e-01	0	43	0	1089994752	20	4999
2026-01-02 12:01:45.57	343.97	11.12	-29.6	-32.6	18.7	6.04e-01	0	43	0	1096286208	20	5110
2026-01-02 12:01:48.44	343.94	10.84	-29.5	-32.3	18.8	6.01e-01	0	44	0	1101529088	20	5021
2026-01-02 12:01:51.60	343.91	10.54	-29.7	-33.0	18.4	6.01e-01	0	44	0	1107296256	20	5263
2026-01-02 12:01:54.47	343.88	10.27	-29.7	-33.0	18.4	6.00e-01	0	43	0	1113063424	20	5276
2026-01-02 12:01:57.62	343.85	9.98	-29.8	-33.4	18.2	6.00e-01	0	43	0	1118830592	20	5453
2026-01-02 12:02:00.50	343.83	9.71	-30.0	-33.8	17.9	5.99e-01	0	43	0	1124073472	20	5590
2026-01-02 12:02:03.64	343.80	9.43	-29.9	-33.7	17.9	5.99e-01	0	43	0	1129840640	20	5553
2026-01-02 12:02:06.51	343.77	9.17	-29.9	-33.2	17.9	6.00e-01	0	43	0	1135083520	21	5272
2026-01-02 12:02:09.65	343.75	8.89	-29.8	-32.9	18.1	6.00e-01	0	44	0	1141374976	21	5152
2026-01-02 12:02:12.52	343.73	8.64	-29.8	-33.0	18.1	6.01e-01	0	43	0	1146617856	21	5170
2026-01-02 12:02:15.67	343.70	8.36	-30.1	-33.6	17.6	6.01e-01	0	43	0	1152385024	21	5430
2026-01-02 12:02:18.55	343.68	8.12	-30.1	-33.7	17.5	6.02e-01	0	43	0	1158152192	21	5464
2026-01-02 12:02:21.70	343.66	7.85	-30.2	-34.2	17.2	5.99e-01	0	43	0	1163919360	21	5682
2026-01-02 12:02:24.55	343.64	7.61	-30.0	-33.6	17.5	6.04e-01	0	43	0	1169162240	21	5440
2026-01-02 12:02:27.69	343.61	7.35	-30.3	-34.4	16.9	5.99e-01	0	44	0	1174929408	21	5805
2026-01-02 12:02:30.57	343.59	7.12	-33.0	-46.6	4.2	7.34e-01	0	43	104	1180172288	27	17196

#Closed at: 2026-01-02 12:02:33
#Recorded file [1180 MB]: D:/data/31010_260102_145200.dat