passes_logs/2026/01/02/R2M6_AANII_01/R2M6_AANII_01__20260102_101108_SUOMI_NPP_rec.log

#Pass ID: 20260102_101108_SUOMI NPP
#Satellite: SUOMI NPP
#Configuration: NPP
#almurnet v.1.7.20240730
#Start time: 2026-01-02 10:11:09

#Version: 2.2.20231116
#Station: R2M6_AANII_01
#Location: 30.233357 lon 59.946436 lat
#TLE: 1 37849U 11061A   26001.07732418  .00000182  00000+0  10735-3 0  9990
#TLE: 2 37849  98.7795 303.2470 0002580  87.2016 272.9455 14.19520779734739

#Time	Az	El	Level	Level2	SNR	BER	BlckErr	Temp	State	Recorded	gain1	gain2
2026-01-02 10:11:09.58	153.84	7.07	-30.2	-34.2	5.2	1.27e+00	0	41	0	0	21	5747
2026-01-02 10:11:12.58	153.82	7.30	-30.6	-34.7	8.1	7.21e-02	0	41	0	1048576	22	5760
2026-01-02 10:11:15.59	153.80	7.54	-30.1	-33.1	9.8	1.59e-02	0	41	0	7340032	21	5088
2026-01-02 10:11:18.60	153.78	7.78	-30.1	-33.1	9.9	1.25e-02	0	41	0	12582912	21	5056
2026-01-02 10:11:21.61	153.76	8.02	-30.1	-33.0	10.0	8.35e-03	0	41	0	17825792	21	5005
2026-01-02 10:11:24.61	153.74	8.26	-30.1	-32.8	10.2	4.97e-03	0	41	0	24117248	21	4900
2026-01-02 10:11:27.61	153.71	8.51	-30.0	-32.5	10.4	5.76e-03	0	41	0	29360128	21	4797
2026-01-02 10:11:30.61	153.69	8.75	-29.8	-32.2	11.1	1.30e-03	0	42	0	35651584	20	4749
2026-01-02 10:11:33.62	153.67	9.01	-29.7	-32.1	11.1	1.33e-03	0	42	0	40894464	20	4737
2026-01-02 10:11:36.63	153.64	9.26	-29.7	-32.0	11.2	1.61e-03	0	42	0	46137344	20	4715
2026-01-02 10:11:39.63	153.62	9.51	-29.3	-31.2	11.7	8.58e-04	0	42	0	52428800	20	4474
2026-01-02 10:11:42.64	153.60	9.77	-29.4	-31.5	11.5	7.61e-04	0	42	0	57671680	20	4589
2026-01-02 10:11:45.64	153.57	10.03	-29.6	-31.8	11.5	7.20e-04	0	42	0	62914560	20	4614
2026-01-02 10:11:48.65	153.54	10.30	-29.7	-31.7	11.6	5.82e-04	0	42	0	69206016	20	4550
2026-01-02 10:11:51.66	153.52	10.57	-29.8	-31.8	11.7	4.90e-04	0	42	0	74448896	20	4536
2026-01-02 10:11:54.66	153.49	10.84	-29.8	-31.8	11.7	4.42e-04	0	42	0	80740352	20	4523
2026-01-02 10:11:57.67	153.46	11.11	-29.9	-32.0	11.6	5.74e-04	0	42	0	85983232	20	4591
2026-01-02 10:12:00.67	153.43	11.38	-29.8	-31.8	11.7	4.61e-04	0	42	0	91226112	20	4537
2026-01-02 10:12:03.67	153.40	11.66	-29.8	-31.9	11.7	5.39e-04	0	42	0	97517568	20	4565
2026-01-02 10:12:06.68	153.37	11.95	-29.8	-31.9	11.7	5.12e-04	0	42	0	102760448	20	4559
2026-01-02 10:12:09.68	153.34	12.23	-29.7	-31.5	12.0	3.91e-04	0	42	0	108003328	20	4452
2026-01-02 10:12:12.68	153.31	12.52	-29.6	-31.3	12.2	2.68e-04	0	42	0	114294784	20	4379
2026-01-02 10:12:15.69	153.28	12.81	-29.7	-31.3	12.2	1.86e-04	0	42	0	119537664	20	4366
2026-01-02 10:12:18.69	153.25	13.11	-29.8	-31.5	12.1	2.05e-04	0	42	0	125829120	20	4421
2026-01-02 10:12:21.69	153.21	13.41	-29.8	-31.6	12.0	3.25e-04	0	42	0	131072000	20	4470
2026-01-02 10:12:24.69	153.18	13.71	-29.7	-31.5	12.1	1.97e-04	0	42	0	136314880	20	4422
2026-01-02 10:12:27.68	153.14	14.01	-29.6	-31.2	12.4	1.45e-04	0	43	0	142606336	20	4322
2026-01-02 10:12:30.70	153.10	14.33	-29.6	-31.2	12.4	1.42e-04	0	43	0	147849216	20	4328
2026-01-02 10:12:33.70	153.07	14.64	-29.8	-31.7	12.1	2.29e-04	0	43	0	153092096	20	4462
2026-01-02 10:12:36.71	153.03	14.96	-29.8	-31.5	12.3	1.14e-04	0	43	0	159383552	20	4387
2026-01-02 10:12:39.72	152.99	15.28	-29.7	-31.3	12.5	1.46e-04	0	43	0	164626432	20	4323
2026-01-02 10:12:42.74	152.95	15.61	-29.5	-30.7	12.9	5.03e-05	0	43	0	170917888	20	4132
2026-01-02 10:12:45.73	152.90	15.94	-29.5	-30.5	13.0	3.20e-05	0	43	0	176160768	20	4081
2026-01-02 10:12:48.75	152.86	16.28	-29.4	-30.4	13.1	3.66e-05	0	43	0	181403648	20	4025
2026-01-02 10:12:51.75	152.82	16.62	-29.3	-30.5	13.5	8.30e-06	0	43	0	187695104	19	4139
2026-01-02 10:12:54.76	152.77	16.97	-29.3	-30.5	13.5	9.90e-06	0	43	0	192937984	19	4121
2026-01-02 10:12:57.77	152.72	17.32	-29.4	-30.7	13.5	9.90e-06	0	43	0	198180864	19	4176
2026-01-02 10:13:00.77	152.68	17.68	-29.4	-30.8	13.4	1.60e-05	0	43	0	204472320	19	4194
2026-01-02 10:13:03.78	152.63	18.04	-29.5	-30.8	13.5	1.44e-05	0	43	0	209715200	19	4213
2026-01-02 10:13:06.78	152.57	18.41	-29.5	-30.9	13.5	5.30e-06	0	43	0	214958080	19	4226
2026-01-02 10:13:09.78	152.52	18.78	-29.3	-30.4	13.8	4.50e-06	0	43	0	221249536	19	4067
2026-01-02 10:13:12.79	152.47	19.16	-29.5	-30.9	13.5	3.00e-06	0	43	0	226492416	19	4234
2026-01-02 10:13:15.80	152.41	19.54	-29.4	-30.5	13.8	3.80e-06	0	43	0	232783872	19	4112
2026-01-02 10:13:18.81	152.35	19.93	-29.7	-31.4	13.2	1.06e-05	0	43	0	238026752	19	4360
2026-01-02 10:13:21.82	152.30	20.33	-29.7	-31.4	13.3	3.12e-05	0	43	0	243269632	19	4368
2026-01-02 10:13:24.83	152.23	20.73	-29.4	-30.6	13.8	6.80e-06	0	43	0	249561088	19	4137
2026-01-02 10:13:27.84	152.17	21.14	-29.4	-30.5	13.9	2.20e-06	0	43	0	254803968	19	4085
2026-01-02 10:13:30.85	152.11	21.56	-29.3	-30.4	14.0	7.00e-07	0	43	0	261095424	19	4048
2026-01-02 10:13:33.85	152.04	21.98	-29.0	-29.4	14.6	0.00e+00	0	43	0	266338304	19	3783
2026-01-02 10:13:36.86	151.97	22.41	-28.9	-29.2	14.8	0.00e+00	0	43	0	271581184	19	3719
2026-01-02 10:13:39.87	151.90	22.85	-28.8	-29.0	14.9	0.00e+00	0	43	0	277872640	19	3682
2026-01-02 10:13:42.89	151.83	23.30	-28.7	-29.3	15.1	6.10e-06	0	43	0	283115520	18	3821
2026-01-02 10:13:45.91	151.75	23.75	-28.9	-29.6	14.9	0.00e+00	0	43	0	289406976	18	3914
2026-01-02 10:13:48.93	151.67	24.21	-28.7	-29.2	15.2	0.00e+00	0	43	0	294649856	18	3800
2026-01-02 10:13:51.94	151.59	24.68	-28.6	-28.9	15.3	0.00e+00	0	43	0	299892736	18	3736
2026-01-02 10:13:54.95	151.51	25.16	-28.9	-29.7	14.9	0.00e+00	0	43	0	306184192	18	3943
2026-01-02 10:13:57.96	151.42	25.65	-29.0	-29.8	14.9	0.00e+00	0	43	0	311427072	18	3965
2026-01-02 10:14:00.96	151.33	26.14	-28.6	-29.0	15.3	1.50e-06	0	43	0	316669952	18	3747
2026-01-02 10:14:03.98	151.24	26.65	-29.2	-30.3	14.6	7.00e-07	0	43	0	322961408	18	4098
2026-01-02 10:14:06.99	151.14	27.16	-29.3	-30.2	14.3	2.20e-06	0	43	0	328204288	19	3984
2026-01-02 10:14:10.00	151.04	27.69	-29.5	-30.7	14.1	7.60e-06	0	43	0	334495744	19	4111
2026-01-02 10:14:13.01	150.94	28.22	-29.8	-30.8	13.5	2.05e-05	0	43	0	339738624	20	4071
2026-01-02 10:14:16.03	150.83	28.77	-29.3	-29.7	14.3	3.00e-06	0	43	0	344981504	20	3760
2026-01-02 10:14:19.04	150.72	29.32	-29.8	-31.4	13.7	3.80e-06	0	43	0	351272960	19	4327
2026-01-02 10:14:22.06	150.61	29.89	-30.6	-32.6	12.1	7.78e-05	0	43	0	356515840	21	4552
2026-01-02 10:14:25.06	150.49	30.46	-30.7	-32.9	11.9	4.42e-04	0	43	0	362807296	21	4651
2026-01-02 10:14:28.05	150.36	31.05	-30.8	-33.1	11.8	5.40e-04	0	43	0	368050176	21	4729
2026-01-02 10:14:31.05	150.23	31.65	-30.7	-33.0	12.0	3.26e-04	0	43	0	373293056	21	4674
2026-01-02 10:14:34.07	150.10	32.26	-31.3	-34.4	10.6	3.37e-03	0	43	0	379584512	22	5124
2026-01-02 10:14:37.09	149.96	32.89	-31.0	-33.4	11.4	1.37e-03	0	43	0	384827392	22	4726
2026-01-02 10:14:40.09	149.81	33.53	-30.9	-33.0	11.6	7.69e-04	0	44	0	390070272	22	4586
2026-01-02 10:14:43.09	149.66	34.18	-31.5	-34.8	10.3	2.82e-03	0	43	0	396361728	22	5309
2026-01-02 10:14:46.10	149.50	34.84	-31.3	-33.7	10.7	5.32e-03	0	43	0	401604608	23	4776
2026-01-02 10:14:49.10	149.33	35.52	-30.4	-31.5	12.7	3.49e-04	0	43	0	407896064	22	4090
2026-01-02 10:14:52.13	149.16	36.22	-30.1	-31.2	13.2	3.89e-05	0	43	0	413138944	21	4099
2026-01-02 10:14:55.14	148.98	36.93	-30.3	-31.8	12.9	3.58e-05	0	43	0	418381824	21	4253
2026-01-02 10:14:58.14	148.79	37.65	-29.6	-30.5	14.0	2.20e-06	0	43	0	424673280	20	3956
2026-01-02 10:15:01.15	148.59	38.39	-29.5	-30.5	14.3	1.50e-06	0	43	0	429916160	19	4042
2026-01-02 10:15:04.16	148.38	39.15	-30.1	-31.6	13.3	5.30e-06	0	43	0	435159040	20	4303
2026-01-02 10:15:07.18	148.16	39.93	-30.4	-32.1	12.7	5.95e-05	0	43	0	441450496	21	4357
2026-01-02 10:15:10.20	147.92	40.72	-31.0	-33.4	11.5	3.19e-04	0	43	0	446693376	22	4711
2026-01-02 10:15:13.21	147.68	41.53	-31.2	-33.9	11.2	9.15e-04	0	43	0	452984832	22	4887
2026-01-02 10:15:16.22	147.42	42.35	-31.3	-33.8	10.8	1.90e-03	0	43	0	458227712	23	4783
2026-01-02 10:15:19.22	147.15	43.19	-31.8	-35.3	9.8	5.64e-03	0	43	0	463470592	23	5422
2026-01-02 10:15:22.24	146.87	44.06	-31.6	-34.1	10.3	1.30e-02	0	43	0	469762048	24	4819
2026-01-02 10:15:25.25	146.56	44.94	-31.5	-33.7	10.7	3.52e-03	0	43	0	475004928	24	4645
2026-01-02 10:15:28.26	146.24	45.83	-30.7	-32.1	12.4	2.46e-04	0	43	0	481296384	22	4266
2026-01-02 10:15:31.27	145.90	46.75	-30.5	-32.2	12.7	1.06e-04	0	43	0	486539264	21	4379
2026-01-02 10:15:34.27	145.54	47.68	-31.1	-33.4	11.5	8.69e-04	0	43	0	491782144	22	4718
2026-01-02 10:15:37.27	145.16	48.64	-30.5	-31.8	12.7	1.97e-04	0	43	0	498073600	22	4152
2026-01-02 10:15:40.28	144.75	49.61	-30.0	-31.3	13.7	1.50e-06	0	43	0	503316480	20	4178
2026-01-02 10:15:43.30	144.31	50.61	-29.3	-29.6	14.7	1.50e-06	0	43	0	508559360	20	3708
2026-01-02 10:15:46.31	143.84	51.63	-29.1	-29.4	15.2	0.00e+00	0	43	0	514850816	19	3733
2026-01-02 10:15:49.31	143.34	52.66	-28.9	-29.5	15.4	0.00e+00	0	43	0	520093696	18	3863
2026-01-02 10:15:52.32	142.79	53.72	-29.1	-30.0	15.2	0.00e+00	0	43	0	526385152	18	3979
2026-01-02 10:15:55.33	142.21	54.79	-28.7	-29.0	15.8	0.00e+00	0	43	0	531628032	18	3710
2026-01-02 10:15:58.33	141.58	55.88	-29.5	-30.6	14.6	0.00e+00	0	43	0	536870912	19	4070
2026-01-02 10:16:01.34	140.90	56.99	-29.4	-30.2	14.8	0.00e+00	0	43	0	543162368	19	3946
2026-01-02 10:16:04.35	140.16	58.12	-30.1	-31.5	13.6	6.10e-06	0	43	0	548405248	20	4238
2026-01-02 10:16:07.36	139.35	59.27	-29.8	-30.7	14.1	6.10e-06	0	43	0	553648128	20	3997
2026-01-02 10:16:10.37	138.47	60.43	-29.0	-29.1	15.4	0.00e+00	0	43	0	559939584	19	3649
2026-01-02 10:16:13.38	137.50	61.61	-29.6	-30.8	14.4	0.00e+00	0	43	0	565182464	19	4127
2026-01-02 10:16:16.39	136.43	62.80	-30.1	-31.5	13.7	3.80e-06	0	43	0	571473920	20	4230
2026-01-02 10:16:19.40	135.25	64.00	-29.8	-30.2	14.1	3.00e-06	0	43	0	576716800	21	3766
2026-01-02 10:16:22.42	133.94	65.21	-29.1	-29.4	15.3	0.00e+00	0	43	0	581959680	19	3723
2026-01-02 10:16:25.44	132.47	66.43	-29.6	-30.6	14.6	7.00e-07	0	43	0	588251136	19	4049
2026-01-02 10:16:28.45	130.83	67.65	-29.4	-30.3	14.8	0.00e+00	0	43	0	593494016	19	3959
2026-01-02 10:16:31.46	128.98	68.87	-29.7	-30.8	14.5	0.00e+00	0	43	0	599785472	19	4109
2026-01-02 10:16:34.47	126.89	70.08	-30.7	-32.5	12.6	1.91e-04	0	43	0	605028352	21	4470
2026-01-02 10:16:37.48	124.50	71.27	-29.5	-29.8	14.8	0.00e+00	0	43	0	610271232	20	3765
2026-01-02 10:16:40.47	121.80	72.44	-29.6	-30.7	14.5	0.00e+00	0	43	0	616562688	19	4081
2026-01-02 10:16:43.48	118.66	73.58	-30.5	-32.0	13.1	2.28e-05	0	43	0	621805568	21	4295
2026-01-02 10:16:46.47	115.07	74.67	-29.0	-29.2	15.5	0.00e+00	0	43	0	627048448	19	3661
2026-01-02 10:16:49.48	110.90	75.71	-30.5	-32.1	13.0	3.28e-05	0	43	0	633339904	21	4309
2026-01-02 10:16:52.49	106.06	76.67	-30.4	-31.8	13.0	2.89e-05	0	43	0	638582784	21	4232
2026-01-02 10:16:55.50	100.50	77.53	-31.7	-34.8	10.6	1.34e-03	0	43	0	644874240	23	5102
2026-01-02 10:16:58.50	94.18	78.26	-32.8	-38.2	7.1	3.56e-02	0	43	0	650117120	25	6647
2026-01-02 10:17:01.52	87.05	78.84	-33.1	-39.2	6.0	2.61e-01	0	44	0	655360000	26	7268
2026-01-02 10:17:04.53	79.28	79.23	-32.3	-35.6	9.2	9.19e-03	0	44	0	661651456	25	5301
2026-01-02 10:17:07.53	71.11	79.41	-32.0	-34.5	9.9	1.13e-02	0	43	0	666894336	25	4818
2026-01-02 10:17:10.54	62.79	79.38	-31.8	-33.9	10.4	3.21e-02	0	43	0	672137216	25	4573
2026-01-02 10:17:13.55	54.69	79.13	-31.2	-33.5	11.8	4.43e-04	0	43	0	678428672	22	4688
2026-01-02 10:17:16.57	47.08	78.68	-31.6	-34.3	10.9	2.75e-03	0	44	0	683671552	23	4918
2026-01-02 10:17:19.56	40.24	78.06	-32.4	-36.6	8.7	3.77e-02	0	43	0	689963008	24	5865
2026-01-02 10:17:22.58	34.12	77.29	-32.3	-35.8	8.9	3.61e-02	0	44	0	695205888	25	5382
2026-01-02 10:17:25.58	28.80	76.40	-33.2	-39.7	5.7	3.22e-01	0	43	0	700448768	26	7575
2026-01-02 10:17:28.58	24.19	75.42	-32.7	-37.1	7.6	1.35e-01	0	43	0	706740224	26	5952
2026-01-02 10:17:31.59	20.18	74.36	-32.1	-34.9	9.6	4.02e-02	0	43	0	711983104	25	5003
2026-01-02 10:17:34.60	16.72	73.25	-29.8	-30.3	14.1	4.57e-05	0	44	0	717225984	21	3786
2026-01-02 10:17:37.61	13.72	72.10	-30.0	-31.1	13.9	7.00e-07	0	43	0	723517440	20	4122
2026-01-02 10:17:40.62	11.11	70.92	-29.7	-30.4	14.3	2.20e-06	0	43	0	728760320	20	3911
2026-01-02 10:17:43.63	8.82	69.72	-30.6	-32.0	12.8	8.23e-05	0	44	0	735051776	22	4209
2026-01-02 10:17:46.63	6.81	68.52	-31.3	-34.1	11.4	2.84e-04	0	43	0	740294656	22	4952
2026-01-02 10:17:49.64	5.03	67.30	-30.0	-30.8	13.7	8.54e-05	0	43	0	745537536	21	3950
2026-01-02 10:17:52.64	3.45	66.09	-30.1	-31.7	13.6	2.20e-06	0	43	0	751828992	20	4293
2026-01-02 10:17:55.66	2.03	64.88	-30.1	-31.0	13.5	5.41e-05	0	44	0	757071872	21	4004
2026-01-02 10:17:58.67	0.76	63.67	-30.7	-32.7	12.5	5.87e-05	0	43	0	762314752	21	4559
2026-01-02 10:18:01.68	359.62	62.48	-30.8	-33.0	12.1	1.69e-04	0	44	0	768606208	21	4648
2026-01-02 10:18:04.69	358.58	61.29	-30.0	-31.4	13.8	1.50e-06	0	43	0	773849088	20	4209
2026-01-02 10:18:07.70	357.64	60.12	-29.3	-29.9	15.0	7.00e-07	0	43	0	780140544	19	3869
2026-01-02 10:18:10.71	356.78	58.97	-31.1	-33.4	11.7	2.86e-04	0	43	0	785383424	22	4683
2026-01-02 10:18:13.70	356.00	57.84	-29.8	-30.9	14.0	3.80e-06	0	43	0	790626304	20	4050
2026-01-02 10:18:16.70	355.28	56.72	-31.1	-33.4	11.6	1.16e-03	0	44	0	796917760	22	4704
2026-01-02 10:18:19.72	354.61	55.61	-30.5	-31.8	12.7	2.83e-04	0	44	0	802160640	22	4165
2026-01-02 10:18:22.72	354.00	54.53	-29.9	-31.6	13.8	3.80e-06	0	44	0	807403520	19	4356
2026-01-02 10:18:25.72	353.43	53.47	-29.7	-31.0	14.4	0.00e+00	0	43	0	813694976	19	4166
2026-01-02 10:18:28.72	352.90	52.43	-29.5	-30.1	14.4	1.50e-06	0	44	0	818937856	20	3846
2026-01-02 10:18:31.73	352.41	51.40	-31.4	-33.8	10.9	4.36e-03	0	43	0	825229312	23	4766
2026-01-02 10:18:34.75	351.95	50.39	-30.3	-31.7	13.0	5.56e-05	0	43	0	830472192	21	4224
2026-01-02 10:18:37.75	351.52	49.40	-30.4	-31.9	12.8	9.38e-05	0	43	0	835715072	21	4282
2026-01-02 10:18:40.75	351.12	48.44	-31.5	-34.7	10.6	4.46e-04	0	44	0	842006528	22	5199
2026-01-02 10:18:43.77	350.74	47.49	-30.2	-31.3	13.2	1.94e-04	0	43	0	847249408	21	4112
2026-01-02 10:18:46.78	350.39	46.56	-31.1	-33.4	11.5	3.64e-04	0	43	0	852492288	22	4725
2026-01-02 10:18:49.79	350.06	45.65	-29.8	-30.7	14.0	2.20e-06	0	43	0	858783744	20	3998
2026-01-02 10:18:52.80	349.74	44.76	-31.8	-35.4	9.6	5.50e-03	0	43	0	864026624	23	5457
2026-01-02 10:18:55.80	349.44	43.89	-32.8	-38.8	6.3	2.31e-01	0	43	0	870318080	25	7171
2026-01-02 10:18:58.81	349.16	43.04	-32.3	-35.9	7.9	1.90e-01	0	43	0	875560960	26	5432
2026-01-02 10:19:01.82	348.90	42.20	-31.0	-33.2	11.6	5.60e-04	0	43	0	880803840	22	4648
2026-01-02 10:19:04.83	348.65	41.39	-31.3	-34.2	10.8	1.95e-03	0	43	0	887095296	22	5047
2026-01-02 10:19:07.84	348.41	40.59	-32.5	-37.7	7.5	3.29e-02	0	43	0	892338176	24	6562
2026-01-02 10:19:10.84	348.18	39.81	-31.1	-33.0	11.3	5.80e-03	0	44	0	898629632	23	4488
2026-01-02 10:19:13.85	347.96	39.04	-30.5	-32.2	12.6	2.44e-05	0	43	0	903872512	21	4405
2026-01-02 10:19:16.85	347.76	38.29	-31.7	-35.1	9.8	2.85e-03	0	43	0	909115392	23	5330
2026-01-02 10:19:19.86	347.56	37.56	-31.9	-35.3	9.2	5.21e-02	0	44	0	915406848	24	5316
2026-01-02 10:19:22.86	347.38	36.84	-31.4	-33.6	10.5	4.31e-03	0	44	0	920649728	24	4631
2026-01-02 10:19:25.85	347.20	36.14	-32.1	-36.3	8.5	3.01e-02	0	44	0	925892608	24	5812
2026-01-02 10:19:28.86	347.03	35.46	-31.8	-35.1	9.3	4.69e-02	0	43	0	932184064	24	5268
2026-01-02 10:19:31.87	346.86	34.78	-30.3	-31.8	12.9	7.78e-05	0	43	0	937426944	21	4256
2026-01-02 10:19:34.88	346.71	34.12	-30.3	-32.2	12.8	2.05e-05	0	44	0	942669824	20	4506
2026-01-02 10:19:37.89	346.56	33.47	-31.7	-35.3	9.6	4.09e-03	0	43	0	948961280	23	5419
2026-01-02 10:19:40.89	346.41	32.84	-32.0	-35.9	8.7	5.22e-02	0	44	0	954204160	24	5613
2026-01-02 10:19:43.90	346.28	32.22	-31.6	-34.3	9.9	7.10e-03	0	43	0	960495616	24	4909
2026-01-02 10:19:46.90	346.15	31.62	-31.2	-33.5	10.9	3.20e-03	0	43	0	965738496	23	4672
2026-01-02 10:19:49.92	346.02	31.02	-31.3	-33.7	10.6	3.65e-03	0	43	0	970981376	23	4775
2026-01-02 10:19:52.93	345.90	30.43	-31.0	-32.9	11.2	8.43e-04	0	43	0	977272832	23	4495
2026-01-02 10:19:55.93	345.78	29.86	-31.1	-33.3	11.0	3.87e-03	0	44	0	982515712	23	4605
2026-01-02 10:19:58.94	345.67	29.30	-30.7	-32.3	12.1	3.71e-04	0	43	0	988807168	22	4354
2026-01-02 10:20:01.94	345.56	28.75	-31.3	-34.5	10.4	3.21e-03	0	43	0	994050048	22	5198
2026-01-02 10:20:04.95	345.45	28.21	-31.3	-33.9	10.3	6.91e-03	0	44	0	999292928	23	4848
2026-01-02 10:20:07.95	345.35	27.68	-31.0	-32.8	11.2	1.10e-03	0	43	0	1005584384	23	4460
2026-01-02 10:20:10.94	345.26	27.17	-30.6	-32.2	12.0	2.07e-04	0	44	0	1010827264	22	4323
2026-01-02 10:20:13.96	345.16	26.65	-29.2	-29.9	14.6	0.00e+00	0	44	0	1016070144	19	3884
2026-01-02 10:20:16.97	345.07	26.15	-29.2	-29.8	14.5	2.20e-06	0	44	0	1022361600	19	3881
2026-01-02 10:20:19.98	344.98	25.66	-29.7	-31.1	13.8	2.20e-06	0	44	0	1027604480	19	4246
2026-01-02 10:20:22.99	344.90	25.18	-30.6	-32.9	11.8	2.55e-04	0	43	0	1033895936	21	4675
2026-01-02 10:20:26.01	344.82	24.70	-30.6	-32.7	11.9	3.46e-04	0	43	0	1039138816	21	4588
2026-01-02 10:20:29.02	344.74	24.24	-30.1	-31.4	12.9	7.09e-05	0	44	0	1044381696	21	4184
2026-01-02 10:20:32.02	344.66	23.78	-30.1	-31.2	12.9	4.57e-05	0	43	0	1050673152	21	4117
2026-01-02 10:20:35.02	344.59	23.33	-30.2	-31.7	12.6	5.11e-05	0	43	0	1055916032	21	4257
2026-01-02 10:20:38.04	344.52	22.89	-30.5	-32.6	12.0	2.37e-04	0	44	0	1061158912	21	4556
2026-01-02 10:20:41.04	344.45	22.45	-31.0	-34.0	10.9	1.78e-03	0	43	0	1067450368	21	5112
2026-01-02 10:20:44.06	344.38	22.03	-30.2	-31.5	12.6	8.39e-05	0	43	0	1072693248	21	4217
2026-01-02 10:20:47.08	344.32	21.60	-29.6	-30.5	13.6	3.80e-06	0	44	0	1078984704	20	3987
2026-01-02 10:20:50.08	344.26	21.19	-29.6	-30.6	13.6	1.50e-06	0	43	0	1084227584	20	4031
2026-01-02 10:20:53.09	344.20	20.78	-29.8	-31.6	13.3	7.60e-06	0	43	0	1089470464	19	4428
2026-01-02 10:20:56.10	344.14	20.38	-29.5	-30.6	13.9	4.50e-06	0	43	0	1095761920	19	4116
2026-01-02 10:20:59.11	344.08	19.99	-29.6	-30.9	13.7	9.10e-06	0	44	0	1101004800	19	4205
2026-01-02 10:21:02.13	344.03	19.60	-29.8	-31.5	13.3	1.44e-05	0	43	0	1106247680	19	4402
2026-01-02 10:21:05.14	343.97	19.22	-29.8	-31.2	13.1	3.66e-05	0	43	0	1112539136	20	4221
2026-01-02 10:21:08.15	343.92	18.84	-29.9	-31.5	12.9	4.50e-05	0	44	0	1117782016	20	4307
2026-01-02 10:21:11.17	343.87	18.47	-30.4	-32.9	11.8	3.17e-04	0	43	0	1124073472	20	4786
2026-01-02 10:21:14.18	343.82	18.10	-30.7	-33.1	11.4	8.83e-04	0	43	0	1129316352	21	4775
2026-01-02 10:21:17.18	343.77	17.74	-30.8	-33.7	11.0	2.32e-03	0	44	0	1134559232	21	4995
2026-01-02 10:21:20.20	343.73	17.39	-31.0	-33.8	10.5	3.86e-03	0	44	0	1140850688	22	4962
2026-01-02 10:21:23.20	343.68	17.04	-30.7	-32.9	11.1	1.75e-03	0	44	0	1146093568	22	4611
2026-01-02 10:21:26.21	343.64	16.70	-30.5	-32.3	11.6	6.46e-04	0	43	0	1152385024	22	4410
2026-01-02 10:21:29.22	343.60	16.36	-30.3	-32.2	11.9	3.07e-04	0	43	0	1157627904	21	4485
2026-01-02 10:21:32.23	343.56	16.02	-30.1	-31.7	12.3	1.78e-04	0	43	0	1162870784	21	4290
2026-01-02 10:21:35.24	343.52	15.69	-30.1	-31.6	12.3	1.65e-04	0	43	0	1169162240	21	4275
2026-01-02 10:21:38.25	343.48	15.36	-30.2	-32.0	12.0	2.97e-04	0	43	0	1174405120	21	4405
2026-01-02 10:21:41.26	343.44	15.04	-30.6	-33.1	11.2	1.01e-03	0	43	0	1179648000	21	4811
2026-01-02 10:21:44.27	343.41	14.72	-30.6	-33.1	11.2	1.12e-03	0	43	0	1185939456	21	4799
2026-01-02 10:21:47.28	343.37	14.41	-30.7	-33.6	10.9	1.94e-03	0	43	0	1191182336	21	4981
2026-01-02 10:21:50.28	343.34	14.10	-30.6	-33.0	11.1	1.74e-03	0	43	0	1197473792	21	4777
2026-01-02 10:21:53.29	343.30	13.79	-30.6	-33.2	11.0	2.34e-03	0	43	0	1202716672	21	4865
2026-01-02 10:21:56.30	343.27	13.49	-30.5	-32.8	11.3	1.11e-03	0	44	0	1207959552	21	4721
2026-01-02 10:21:59.29	343.24	13.20	-30.5	-32.7	11.3	1.05e-03	0	43	0	1214251008	21	4685
2026-01-02 10:22:02.30	343.21	12.90	-30.4	-32.6	11.5	9.70e-04	0	44	0	1219493888	21	4626
2026-01-02 10:22:05.31	343.18	12.61	-30.3	-32.3	11.7	5.26e-04	0	44	0	1224736768	21	4522
2026-01-02 10:22:08.33	343.15	12.32	-30.2	-32.1	11.7	5.39e-04	0	43	0	1231028224	21	4455
2026-01-02 10:22:11.34	343.12	12.04	-30.2	-32.0	11.8	6.58e-04	0	43	0	1236271104	21	4423
2026-01-02 10:22:14.35	343.09	11.76	-30.2	-32.1	11.7	4.91e-04	0	44	0	1242562560	21	4458
2026-01-02 10:22:17.37	343.07	11.48	-30.2	-32.2	11.6	4.71e-04	0	44	0	1247805440	21	4496
2026-01-02 10:22:20.39	343.04	11.20	-30.1	-31.9	11.8	6.03e-04	0	43	0	1253048320	21	4405
2026-01-02 10:22:23.41	343.01	10.93	-30.1	-31.8	11.8	5.53e-04	0	44	0	1259339776	21	4367
2026-01-02 10:22:26.41	342.99	10.66	-30.1	-31.6	12.0	5.11e-04	0	44	0	1264582656	21	4322
2026-01-02 10:22:29.41	342.97	10.40	-30.0	-31.6	12.0	3.93e-04	0	43	0	1270874112	21	4303
2026-01-02 10:22:32.41	342.94	10.13	-30.0	-31.6	12.0	3.57e-04	0	43	0	1276116992	21	4301
2026-01-02 10:22:35.41	342.92	9.87	-30.0	-31.6	11.9	3.87e-04	0	44	0	1281359872	21	4323
2026-01-02 10:22:38.42	342.90	9.62	-30.1	-31.8	11.8	3.58e-04	0	44	0	1287651328	21	4393
2026-01-02 10:22:41.43	342.88	9.36	-30.1	-31.9	11.7	5.34e-04	0	44	0	1292894208	21	4423
2026-01-02 10:22:44.44	342.86	9.11	-30.2	-32.2	11.5	1.39e-03	0	44	0	1298137088	21	4519
2026-01-02 10:22:47.45	342.84	8.86	-30.1	-31.9	11.6	5.97e-04	0	43	0	1304428544	21	4436
2026-01-02 10:22:50.45	342.82	8.61	-30.1	-32.0	11.5	8.15e-04	0	44	0	1309671424	21	4461
2026-01-02 10:22:53.47	342.80	8.37	-30.1	-32.0	11.4	9.08e-04	0	43	0	1315962880	21	4481
2026-01-02 10:22:56.47	342.78	8.12	-30.1	-32.0	11.5	9.47e-04	0	44	0	1321205760	21	4478
2026-01-02 10:22:59.48	342.76	7.88	-30.2	-32.1	11.4	9.58e-04	0	44	0	1326448640	21	4505
2026-01-02 10:23:02.49	342.74	7.65	-30.2	-32.3	11.2	1.27e-03	0	44	0	1332740096	21	4588
2026-01-02 10:23:05.48	342.73	7.41	-30.3	-32.6	11.0	1.97e-03	0	44	0	1337982976	21	4696
2026-01-02 10:23:08.48	342.71	7.18	-30.3	-32.8	10.8	2.25e-03	0	44	0	1343225856	21	4768

#Closed at: 2026-01-02 10:23:11
#Recorded file [1346 MB]: D:/data/31010_260102_131111.dat