passes_logs/2026/01/02/R2M6_AANII_01/R2M6_AANII_01__20260102_111302_FENGYUN_3D_rec.log

#Pass ID: 20260102_111302_FENGYUN 3D
#Satellite: FENGYUN 3D
#Configuration: FENGYUN 3D
#almurnet v.1.7.20240730
#Start time: 2026-01-02 11:13:02

#Version: 2.2.20231116
#Station: R2M6_AANII_01
#Location: 30.233357 lon 59.946436 lat
#TLE: 1 43010U 17072A   26001.33100487  .00000602  00000+0  30664-3 0  9999
#TLE: 2 43010  98.9910 332.9374 0001848 133.1047 227.0283 14.19692078421319

#Time	Az	El	Level	Level2	SNR	BER	BlckErr	Temp	State	Recorded	gain1	gain2
2026-01-02 11:13:02.76	125.55	7.01	-29.7	-33.0	5.3	7.93e-01	0	41	0	0	20	5224
2026-01-02 11:13:05.77	125.39	7.23	-29.6	-32.6	9.4	1.20e-02	0	41	0	5242880	20	5071
2026-01-02 11:13:08.79	125.22	7.46	-29.4	-32.3	10.1	5.40e-03	0	41	0	22020096	19	5052
2026-01-02 11:13:11.81	125.05	7.68	-29.5	-32.7	9.8	8.97e-03	0	41	0	39845888	19	5188
2026-01-02 11:13:14.83	124.88	7.91	-28.1	-30.0	12.3	2.04e-04	0	41	0	56623104	17	4464
2026-01-02 11:13:17.84	124.71	8.14	-27.0	-28.3	13.7	1.02e-05	0	41	0	73400320	15	4192
2026-01-02 11:13:20.84	124.53	8.37	-27.1	-28.6	13.6	6.80e-06	0	42	0	90177536	15	4279
2026-01-02 11:13:23.86	124.35	8.60	-27.0	-28.3	13.8	2.20e-06	0	41	0	106954752	15	4196
2026-01-02 11:13:26.86	124.17	8.83	-27.1	-28.5	13.7	0.00e+00	0	42	0	123731968	15	4253
2026-01-02 11:13:29.87	123.98	9.07	-26.7	-28.1	14.3	0.00e+00	0	42	0	140509184	14	4240
2026-01-02 11:13:32.87	123.79	9.30	-26.6	-28.0	14.4	1.10e-06	0	42	0	158334976	14	4200
2026-01-02 11:13:35.89	123.60	9.54	-26.5	-27.7	14.6	0.00e+00	0	42	0	175112192	14	4120
2026-01-02 11:13:38.89	123.41	9.78	-26.7	-28.0	14.4	0.00e+00	0	42	0	191889408	14	4218
2026-01-02 11:13:41.90	123.21	10.03	-26.5	-27.6	14.6	0.00e+00	0	42	0	208666624	14	4091
2026-01-02 11:13:44.91	123.00	10.27	-26.6	-27.8	14.5	1.10e-06	0	42	0	225443840	14	4161
2026-01-02 11:13:47.92	122.80	10.52	-26.4	-27.5	14.7	1.10e-06	0	42	0	242221056	14	4068
2026-01-02 11:13:50.92	122.59	10.77	-26.2	-27.5	15.0	0.00e+00	0	42	0	258998272	13	4178
2026-01-02 11:13:53.93	122.38	11.02	-26.1	-27.2	15.2	0.00e+00	0	42	0	275775488	13	4103
2026-01-02 11:13:56.94	122.16	11.27	-26.1	-27.2	15.2	0.00e+00	0	42	0	293601280	13	4085
2026-01-02 11:13:59.95	121.94	11.53	-25.9	-26.9	15.4	0.00e+00	0	42	0	310378496	13	4014
2026-01-02 11:14:02.97	121.71	11.79	-25.9	-26.8	15.5	0.00e+00	0	43	0	327155712	13	3979
2026-01-02 11:14:05.97	121.48	12.05	-26.0	-27.0	15.4	0.00e+00	0	42	0	343932928	13	4052
2026-01-02 11:14:08.99	121.25	12.31	-26.2	-27.5	15.1	0.00e+00	0	43	0	360710144	13	4181
2026-01-02 11:14:12.01	121.01	12.58	-26.1	-27.3	15.2	0.00e+00	0	43	0	377487360	13	4128
2026-01-02 11:14:15.03	120.77	12.85	-26.3	-27.7	15.0	0.00e+00	0	43	0	395313152	13	4217
2026-01-02 11:14:18.04	120.52	13.12	-26.0	-27.1	15.3	0.00e+00	0	43	0	412090368	13	4085
2026-01-02 11:14:21.05	120.27	13.39	-25.8	-26.6	15.6	0.00e+00	0	43	0	428867584	13	3950
2026-01-02 11:14:24.06	120.01	13.67	-25.9	-26.8	15.5	0.00e+00	0	43	0	445644800	13	3998
2026-01-02 11:14:27.06	119.75	13.94	-25.8	-26.6	15.7	0.00e+00	0	43	0	462422016	13	3942
2026-01-02 11:14:30.07	119.48	14.22	-25.9	-26.8	15.6	0.00e+00	0	43	0	479199232	13	3984
2026-01-02 11:14:33.08	119.21	14.51	-25.9	-26.8	15.6	0.00e+00	0	43	0	495976448	13	3979
2026-01-02 11:14:36.08	118.93	14.79	-25.7	-26.8	15.9	0.00e+00	0	43	0	513802240	12	4104
2026-01-02 11:14:39.09	118.65	15.08	-25.5	-26.5	16.0	0.00e+00	0	43	0	530579456	12	4018
2026-01-02 11:14:42.10	118.36	15.37	-25.5	-26.4	16.1	0.00e+00	0	43	0	547356672	12	3992
2026-01-02 11:14:45.10	118.07	15.66	-25.4	-26.2	16.2	0.00e+00	0	43	0	564133888	12	3936
2026-01-02 11:14:48.12	117.77	15.96	-25.5	-26.4	16.1	0.00e+00	0	43	0	580911104	12	3987
2026-01-02 11:14:51.13	117.46	16.26	-25.6	-26.6	16.0	0.00e+00	0	43	0	597688320	12	4053
2026-01-02 11:14:54.12	117.15	16.56	-25.4	-26.2	16.2	0.00e+00	0	43	0	614465536	12	3946
2026-01-02 11:14:57.13	116.83	16.86	-25.7	-26.8	15.9	0.00e+00	0	43	0	631242752	12	4088
2026-01-02 11:15:00.14	116.50	17.17	-25.3	-26.4	16.5	0.00e+00	0	43	0	649068544	11	4112
2026-01-02 11:15:03.15	116.17	17.48	-25.1	-26.0	16.8	0.00e+00	0	43	0	665845760	11	3986
2026-01-02 11:15:06.17	115.83	17.80	-25.1	-25.9	16.8	0.00e+00	0	43	0	682622976	11	3977
2026-01-02 11:15:09.17	115.48	18.11	-25.0	-25.8	16.9	0.00e+00	0	43	0	699400192	11	3938
2026-01-02 11:15:12.18	115.13	18.43	-25.1	-25.9	16.9	0.00e+00	0	43	0	716177408	11	3972
2026-01-02 11:15:15.18	114.76	18.75	-24.8	-25.4	17.1	0.00e+00	0	43	0	732954624	11	3856
2026-01-02 11:15:18.19	114.39	19.08	-24.6	-25.4	17.4	0.00e+00	0	43	0	749731840	10	3951
2026-01-02 11:15:21.21	114.01	19.41	-24.6	-25.5	17.4	0.00e+00	0	43	0	766509056	10	3969
2026-01-02 11:15:24.22	113.62	19.74	-24.5	-25.3	17.5	0.00e+00	0	43	0	784334848	10	3915
2026-01-02 11:15:27.23	113.23	20.08	-24.5	-25.2	17.5	0.00e+00	0	43	0	801112064	10	3906
2026-01-02 11:15:30.24	112.82	20.41	-24.6	-25.4	17.5	0.00e+00	0	43	0	817889280	10	3957
2026-01-02 11:15:33.24	112.41	20.75	-24.4	-25.0	17.7	0.00e+00	0	43	0	834666496	10	3848
2026-01-02 11:15:36.26	111.98	21.10	-24.0	-24.7	18.1	0.00e+00	0	43	0	851443712	9	3891
2026-01-02 11:15:39.28	111.55	21.45	-23.9	-24.5	18.2	0.00e+00	0	43	0	869269504	9	3839
2026-01-02 11:15:42.30	111.10	21.80	-23.9	-24.4	18.3	0.00e+00	0	43	0	886046720	9	3807
2026-01-02 11:15:45.31	110.65	22.15	-23.9	-24.9	18.3	0.00e+00	0	43	0	902823936	8	4036
2026-01-02 11:15:48.32	110.19	22.51	-23.6	-24.2	18.6	0.00e+00	0	43	0	919601152	8	3883
2026-01-02 11:15:51.32	109.71	22.86	-23.6	-24.4	18.6	0.00e+00	0	43	0	936378368	8	3914
2026-01-02 11:15:54.34	109.22	23.23	-23.7	-24.4	18.5	0.00e+00	0	43	0	953155584	8	3934
2026-01-02 11:15:57.35	108.73	23.59	-23.9	-24.8	18.3	0.00e+00	0	43	0	969932800	8	4023
2026-01-02 11:16:00.35	108.22	23.96	-23.8	-24.8	18.3	0.00e+00	0	43	0	987758592	8	4017
2026-01-02 11:16:03.37	107.69	24.33	-23.5	-24.1	18.7	0.00e+00	0	43	0	1004535808	8	3861
2026-01-02 11:16:06.38	107.16	24.70	-23.5	-24.0	18.8	0.00e+00	0	43	0	1021313024	8	3828
2026-01-02 11:16:09.39	106.61	25.08	-23.4	-24.0	18.8	0.00e+00	0	43	0	1038090240	8	3822
2026-01-02 11:16:12.41	106.05	25.45	-23.3	-23.7	19.0	0.00e+00	0	43	0	1054867456	8	3755
2026-01-02 11:16:15.41	105.47	25.83	-23.2	-23.9	19.1	0.00e+00	0	43	0	1072693248	7	3921
2026-01-02 11:16:18.41	104.88	26.21	-23.2	-24.0	19.0	0.00e+00	0	43	0	1089470464	7	3938
2026-01-02 11:16:21.41	104.28	26.60	-23.3	-24.1	19.0	0.00e+00	0	43	0	1106247680	7	3957
2026-01-02 11:16:24.43	103.66	26.98	-23.3	-24.2	18.9	0.00e+00	0	43	0	1123024896	7	3997
2026-01-02 11:16:27.44	103.03	27.37	-23.2	-23.9	19.1	0.00e+00	0	43	0	1139802112	7	3906
2026-01-02 11:16:30.44	102.38	27.76	-23.2	-24.0	19.1	0.00e+00	0	43	0	1156579328	7	3933
2026-01-02 11:16:33.45	101.71	28.15	-23.3	-24.2	19.0	0.00e+00	0	43	0	1173356544	7	3984
2026-01-02 11:16:36.44	101.04	28.53	-23.4	-24.4	18.9	0.00e+00	0	43	0	1190133760	7	4024
2026-01-02 11:16:39.45	100.34	28.93	-23.2	-23.9	19.1	0.00e+00	0	43	0	1206910976	7	3918
2026-01-02 11:16:42.46	99.62	29.32	-23.0	-23.4	19.4	0.00e+00	0	43	0	1224736768	7	3799
2026-01-02 11:16:45.46	98.89	29.71	-23.0	-23.6	19.3	0.00e+00	0	43	0	1241513984	7	3838
2026-01-02 11:16:48.49	98.13	30.10	-23.1	-23.6	19.3	0.00e+00	0	43	0	1258291200	7	3849
2026-01-02 11:16:51.50	97.36	30.50	-22.9	-23.4	19.4	0.00e+00	0	43	0	1275068416	7	3796
2026-01-02 11:16:54.51	96.57	30.89	-23.0	-23.6	19.3	0.00e+00	0	43	0	1291845632	7	3835
2026-01-02 11:16:57.52	95.76	31.28	-23.1	-23.8	19.3	0.00e+00	0	43	0	1308622848	7	3880
2026-01-02 11:17:00.53	94.93	31.67	-23.2	-23.9	19.2	0.00e+00	0	43	0	1325400064	7	3918
2026-01-02 11:17:03.55	94.08	32.06	-23.3	-24.1	19.1	0.00e+00	0	43	0	1343225856	7	3959
2026-01-02 11:17:06.56	93.20	32.44	-23.2	-23.9	19.3	0.00e+00	0	43	0	1360003072	7	3896
2026-01-02 11:17:09.57	92.31	32.82	-22.7	-23.4	19.7	0.00e+00	0	43	0	1376780288	6	3904
2026-01-02 11:17:12.58	91.40	33.20	-22.5	-22.9	20.0	0.00e+00	0	43	0	1393557504	6	3770
2026-01-02 11:17:15.59	90.47	33.58	-22.5	-23.0	19.9	0.00e+00	0	43	0	1410334720	6	3814
2026-01-02 11:17:18.62	89.50	33.95	-22.6	-23.1	19.9	0.00e+00	0	43	0	1428160512	6	3834
2026-01-02 11:17:21.62	88.53	34.31	-22.5	-23.0	20.0	0.00e+00	0	43	0	1444937728	6	3800
2026-01-02 11:17:24.63	87.53	34.67	-22.9	-23.7	19.6	0.00e+00	0	43	0	1461714944	6	3977
2026-01-02 11:17:27.64	86.50	35.03	-23.0	-23.9	19.4	0.00e+00	0	44	0	1478492160	6	4020
2026-01-02 11:17:30.64	85.46	35.37	-22.6	-23.3	19.8	0.00e+00	0	43	0	1495269376	6	3865
2026-01-02 11:17:33.66	84.39	35.71	-22.8	-23.6	19.7	0.00e+00	0	44	0	1512046592	6	3934
2026-01-02 11:17:36.68	83.30	36.05	-22.5	-22.9	20.0	0.00e+00	0	44	0	1528823808	6	3777
2026-01-02 11:17:39.69	82.19	36.37	-22.7	-23.4	19.7	0.00e+00	0	43	0	1545601024	6	3905
2026-01-02 11:17:42.70	81.05	36.68	-22.4	-22.9	20.0	0.00e+00	0	43	0	1563426816	6	3772
2026-01-02 11:17:45.70	79.90	36.98	-22.9	-23.8	19.6	0.00e+00	0	43	0	1580204032	6	3986
2026-01-02 11:17:48.72	78.72	37.28	-22.5	-22.9	20.0	0.00e+00	0	44	0	1596981248	6	3779
2026-01-02 11:17:51.72	77.53	37.56	-22.7	-23.4	19.7	0.00e+00	0	43	0	1613758464	6	3909
2026-01-02 11:17:54.73	76.31	37.83	-22.6	-23.1	19.9	0.00e+00	0	43	0	1630535680	6	3819
2026-01-02 11:17:57.74	75.07	38.08	-23.0	-24.1	19.4	0.00e+00	0	43	0	1647312896	6	4063
2026-01-02 11:18:00.75	73.82	38.32	-22.8	-23.5	19.7	0.00e+00	0	44	0	1664090112	6	3924
2026-01-02 11:18:03.76	72.54	38.55	-23.3	-24.6	19.2	0.00e+00	0	43	0	1681915904	6	4193
2026-01-02 11:18:06.76	71.25	38.76	-22.9	-23.7	19.6	0.00e+00	0	43	0	1698693120	6	3966
2026-01-02 11:18:09.78	69.94	38.96	-23.0	-24.1	19.5	0.00e+00	0	44	0	1715470336	6	4054
2026-01-02 11:18:12.79	68.62	39.14	-22.8	-23.6	19.7	0.00e+00	0	43	0	1732247552	6	3937
2026-01-02 11:18:15.79	67.28	39.31	-22.3	-22.6	20.2	0.00e+00	0	43	0	1749024768	6	3718
2026-01-02 11:18:18.79	65.94	39.45	-23.0	-23.9	19.7	0.00e+00	0	43	0	1765801984	6	3997
2026-01-02 11:18:21.81	64.57	39.58	-23.2	-24.4	19.5	0.00e+00	0	43	0	1782579200	6	4122
2026-01-02 11:18:24.82	63.20	39.69	-22.5	-22.9	20.2	0.00e+00	0	43	0	1800404992	6	3775
2026-01-02 11:18:27.83	61.82	39.79	-22.8	-23.5	19.9	0.00e+00	0	43	0	1817182208	6	3910
2026-01-02 11:18:30.84	60.43	39.86	-23.1	-24.1	19.6	0.00e+00	0	43	0	1833959424	6	4054
2026-01-02 11:18:33.85	59.04	39.91	-22.4	-22.7	20.4	0.00e+00	0	43	0	1850736640	6	3708
2026-01-02 11:18:36.84	57.65	39.95	-22.5	-22.8	20.3	0.00e+00	0	44	0	1867513856	6	3754
2026-01-02 11:18:39.85	56.25	39.97	-22.7	-23.2	20.1	0.00e+00	0	44	0	1884291072	6	3839
2026-01-02 11:18:42.85	54.85	39.96	-22.9	-23.6	19.9	0.00e+00	0	44	0	1901068288	6	3920
2026-01-02 11:18:45.85	53.46	39.94	-22.8	-23.5	19.9	0.00e+00	0	44	0	1917845504	6	3915
2026-01-02 11:18:48.86	52.06	39.90	-22.6	-23.1	20.1	0.00e+00	0	43	0	1935671296	6	3820
2026-01-02 11:18:51.87	50.67	39.84	-22.7	-23.2	20.1	0.00e+00	0	43	0	1952448512	6	3844
2026-01-02 11:18:54.88	49.29	39.76	-22.4	-22.6	20.4	0.00e+00	0	44	0	1969225728	6	3707
2026-01-02 11:18:57.89	47.91	39.66	-22.2	-22.9	20.5	0.00e+00	0	44	0	1986002944	5	3860
2026-01-02 11:19:00.90	46.54	39.54	-22.3	-22.9	20.5	0.00e+00	0	44	0	2002780160	5	3865
2026-01-02 11:19:03.91	45.18	39.41	-22.4	-23.2	20.3	0.00e+00	0	43	0	2019557376	5	3935
2026-01-02 11:19:06.94	43.83	39.25	-22.7	-23.8	20.0	0.00e+00	0	43	0	2037383168	5	4077
2026-01-02 11:19:09.94	42.50	39.08	-22.5	-23.4	20.2	0.00e+00	0	43	0	2054160384	5	3996
2026-01-02 11:19:12.95	41.18	38.90	-22.5	-23.3	20.2	0.00e+00	0	43	0	2070937600	5	3960
2026-01-02 11:19:15.96	39.88	38.70	-22.9	-23.7	19.8	0.00e+00	0	43	0	2087714816	6	3944
2026-01-02 11:19:18.97	38.60	38.48	-23.0	-23.9	19.7	0.00e+00	0	43	0	2104492032	6	3999
2026-01-02 11:19:21.98	37.33	38.25	-22.2	-22.8	20.5	0.00e+00	0	44	0	2121269248	5	3843
2026-01-02 11:19:24.99	36.08	38.00	-22.1	-22.5	20.6	0.00e+00	0	44	0	2138046464	5	3771
2026-01-02 11:19:27.99	34.86	37.74	-22.1	-22.6	20.6	0.00e+00	0	43	0	2154823680	5	3800
2026-01-02 11:19:30.99	33.65	37.47	-22.1	-22.6	20.5	0.00e+00	0	43	0	2172649472	5	3809
2026-01-02 11:19:34.00	32.47	37.19	-22.6	-23.6	20.0	0.00e+00	0	44	0	2189426688	5	4036
2026-01-02 11:19:37.02	31.29	36.89	-22.4	-23.2	20.2	0.00e+00	0	44	0	2206203904	5	3941
2026-01-02 11:19:40.03	30.15	36.58	-22.2	-22.8	20.4	0.00e+00	0	43	0	2222981120	5	3850
2026-01-02 11:19:43.03	29.03	36.27	-22.1	-22.6	20.5	0.00e+00	0	44	0	2239758336	5	3810
2026-01-02 11:19:46.04	27.93	35.94	-22.2	-22.7	20.5	0.00e+00	0	43	0	2256535552	5	3833
2026-01-02 11:19:49.07	26.84	35.61	-22.3	-22.9	20.4	0.00e+00	0	44	0	2274361344	5	3872
2026-01-02 11:19:52.08	25.78	35.27	-22.4	-23.2	20.3	0.00e+00	0	44	0	2291138560	5	3931
2026-01-02 11:19:55.09	24.75	34.92	-22.0	-22.4	20.6	0.00e+00	0	43	0	2307915776	5	3753
2026-01-02 11:19:58.09	23.74	34.56	-22.1	-22.5	20.5	0.00e+00	0	43	0	2324692992	5	3786
2026-01-02 11:20:01.10	22.75	34.20	-22.1	-22.6	20.5	0.00e+00	0	44	0	2341470208	5	3807
2026-01-02 11:20:04.10	21.79	33.84	-22.2	-22.7	20.4	0.00e+00	0	43	0	2358247424	5	3820
2026-01-02 11:20:07.10	20.84	33.47	-22.2	-22.7	20.4	0.00e+00	0	44	0	2375024640	5	3820
2026-01-02 11:20:10.12	19.92	33.09	-22.5	-23.4	20.1	0.00e+00	0	43	0	2392850432	5	3989
2026-01-02 11:20:13.13	19.01	32.71	-22.6	-23.6	19.9	0.00e+00	0	44	0	2409627648	5	4043
2026-01-02 11:20:16.13	18.13	32.33	-22.4	-23.2	20.1	0.00e+00	0	44	0	2426404864	5	3948
2026-01-02 11:20:19.14	17.27	31.95	-22.7	-23.8	19.8	0.00e+00	0	43	0	2443182080	5	4090
2026-01-02 11:20:22.16	16.43	31.56	-22.4	-23.3	20.1	0.00e+00	0	44	0	2459959296	5	3961
2026-01-02 11:20:25.16	15.61	31.18	-22.8	-24.1	19.7	0.00e+00	0	44	0	2476736512	5	4151
2026-01-02 11:20:28.16	14.81	30.79	-22.6	-23.7	19.9	0.00e+00	0	44	0	2493513728	5	4058
2026-01-02 11:20:31.16	14.03	30.40	-23.1	-24.1	19.4	0.00e+00	0	44	0	2510290944	6	4041
2026-01-02 11:20:34.18	13.27	30.01	-22.9	-23.8	19.5	0.00e+00	0	43	0	2528116736	6	3984
2026-01-02 11:20:37.19	12.52	29.62	-22.9	-23.8	19.6	0.00e+00	0	44	0	2544893952	6	3973
2026-01-02 11:20:40.20	11.80	29.22	-22.8	-23.6	19.6	0.00e+00	0	44	0	2561671168	6	3925
2026-01-02 11:20:43.21	11.09	28.83	-22.7	-23.4	19.7	0.00e+00	0	44	0	2578448384	6	3881
2026-01-02 11:20:46.22	10.40	28.44	-22.7	-23.2	19.8	0.00e+00	0	43	0	2595225600	6	3840
2026-01-02 11:20:49.23	9.72	28.06	-22.8	-23.4	19.7	0.00e+00	0	44	0	2612002816	6	3891
2026-01-02 11:20:52.24	9.06	27.67	-23.0	-23.9	19.5	0.00e+00	0	43	0	2628780032	6	3994
2026-01-02 11:20:55.23	8.42	27.28	-22.8	-23.6	19.6	0.00e+00	0	44	0	2645557248	6	3925
2026-01-02 11:20:58.24	7.80	26.90	-22.9	-23.7	19.5	0.00e+00	0	44	0	2663383040	6	3964
2026-01-02 11:21:01.25	7.19	26.51	-23.0	-23.8	19.5	0.00e+00	0	44	0	2680160256	6	3988
2026-01-02 11:21:04.27	6.59	26.13	-23.0	-23.9	19.4	0.00e+00	0	44	0	2696937472	6	4009
2026-01-02 11:21:07.28	6.01	25.75	-23.1	-24.2	19.3	0.00e+00	0	44	0	2713714688	6	4075
2026-01-02 11:21:10.29	5.44	25.37	-23.2	-24.4	19.2	0.00e+00	0	44	0	2730491904	6	4116
2026-01-02 11:21:13.31	4.88	25.00	-23.1	-24.2	19.3	0.00e+00	0	44	0	2747269120	6	4075
2026-01-02 11:21:16.32	4.34	24.63	-23.1	-24.2	19.3	0.00e+00	0	44	0	2765094912	6	4076
2026-01-02 11:21:19.32	3.81	24.26	-23.1	-24.2	19.2	0.00e+00	0	43	0	2781872128	6	4066
2026-01-02 11:21:22.32	3.30	23.89	-23.1	-24.1	19.3	0.00e+00	0	43	0	2798649344	6	4064
2026-01-02 11:21:25.33	2.79	23.53	-23.0	-24.0	19.3	0.00e+00	0	44	0	2815426560	6	4036
2026-01-02 11:21:28.34	2.30	23.16	-23.2	-24.3	19.2	0.00e+00	0	44	0	2832203776	6	4098
2026-01-02 11:21:31.35	1.82	22.80	-23.4	-24.7	18.9	0.00e+00	0	43	0	2848980992	6	4207
2026-01-02 11:21:34.37	1.35	22.45	-23.4	-24.8	18.9	0.00e+00	0	43	0	2865758208	6	4215
2026-01-02 11:21:37.38	0.89	22.09	-23.7	-25.0	18.5	0.00e+00	0	44	0	2883584000	7	4155
2026-01-02 11:21:40.39	0.44	21.74	-23.5	-24.4	18.8	0.00e+00	0	44	0	2900361216	7	4029
2026-01-02 11:21:43.40	0.00	21.39	-23.5	-24.5	18.8	0.00e+00	0	44	0	2917138432	7	4028
2026-01-02 11:21:46.42	359.57	21.05	-23.6	-24.7	18.7	0.00e+00	0	43	0	2933915648	7	4080
2026-01-02 11:21:49.44	359.15	20.71	-23.8	-25.1	18.5	0.00e+00	0	44	0	2950692864	7	4182
2026-01-02 11:21:52.45	358.75	20.37	-23.9	-25.4	18.3	0.00e+00	0	44	0	2967470080	7	4277
2026-01-02 11:21:55.46	358.35	20.03	-24.2	-25.6	17.9	0.00e+00	0	43	0	2985295872	8	4200
2026-01-02 11:21:58.46	357.96	19.70	-23.8	-24.6	18.5	0.00e+00	0	44	0	3002073088	8	3950
2026-01-02 11:22:01.47	357.57	19.37	-23.9	-24.9	18.3	0.00e+00	0	43	0	3018850304	8	4015
2026-01-02 11:22:04.48	357.20	19.04	-24.0	-25.1	18.1	0.00e+00	0	43	0	3035627520	8	4088
2026-01-02 11:22:07.49	356.83	18.72	-24.7	-26.2	17.3	0.00e+00	0	43	0	3052404736	9	4240
2026-01-02 11:22:10.49	356.48	18.40	-24.9	-26.5	17.1	0.00e+00	0	44	0	3069181952	9	4330
2026-01-02 11:22:13.50	356.12	18.08	-24.6	-25.8	17.5	0.00e+00	0	44	0	3085959168	9	4134
2026-01-02 11:22:16.51	355.78	17.77	-24.8	-26.2	17.3	0.00e+00	0	44	0	3103784960	9	4239
2026-01-02 11:22:19.53	355.44	17.45	-24.8	-26.3	17.2	0.00e+00	0	44	0	3120562176	9	4261
2026-01-02 11:22:22.53	355.12	17.15	-24.8	-26.3	17.2	0.00e+00	0	44	0	3137339392	9	4271
2026-01-02 11:22:25.55	354.79	16.84	-24.9	-26.5	17.1	0.00e+00	0	43	0	3154116608	9	4332
2026-01-02 11:22:28.56	354.48	16.54	-25.0	-26.3	16.9	0.00e+00	0	43	0	3170893824	10	4156
2026-01-02 11:22:31.57	354.17	16.24	-25.0	-26.3	16.9	0.00e+00	0	44	0	3187671040	10	4156
2026-01-02 11:22:34.58	353.87	15.94	-25.2	-26.7	16.6	0.00e+00	0	44	0	3204448256	10	4275
2026-01-02 11:22:37.59	353.57	15.64	-25.1	-26.4	16.8	0.00e+00	0	44	0	3222274048	10	4187
2026-01-02 11:22:40.59	353.28	15.35	-25.2	-26.7	16.6	0.00e+00	0	44	0	3239051264	10	4280
2026-01-02 11:22:43.60	353.00	15.06	-25.3	-26.9	16.5	0.00e+00	0	44	0	3255828480	10	4315
2026-01-02 11:22:46.61	352.72	14.78	-25.4	-27.1	16.4	0.00e+00	0	44	0	3272605696	10	4373
2026-01-02 11:22:49.62	352.44	14.49	-25.3	-26.8	16.5	0.00e+00	0	43	0	3289382912	10	4292
2026-01-02 11:22:52.63	352.18	14.21	-25.5	-26.9	16.2	0.00e+00	0	43	0	3306160128	11	4197
2026-01-02 11:22:55.64	351.91	13.93	-25.8	-27.5	15.9	0.00e+00	0	44	0	3322937344	11	4359
2026-01-02 11:22:58.64	351.66	13.66	-25.7	-27.2	16.0	1.10e-06	0	44	0	3339714560	11	4292
2026-01-02 11:23:01.64	351.41	13.39	-25.8	-26.9	15.8	0.00e+00	0	44	0	3357540352	12	4100
2026-01-02 11:23:04.63	351.16	13.12	-25.7	-26.8	15.8	0.00e+00	0	43	0	3374317568	12	4092
2026-01-02 11:23:07.64	350.92	12.85	-25.8	-27.0	15.7	0.00e+00	0	44	0	3391094784	12	4121
2026-01-02 11:23:10.65	350.68	12.58	-25.5	-26.3	16.1	0.00e+00	0	44	0	3407872000	12	3963
2026-01-02 11:23:13.66	350.44	12.32	-25.8	-27.0	15.7	0.00e+00	0	44	0	3424649216	12	4130
2026-01-02 11:23:16.67	350.21	12.06	-25.8	-27.1	15.6	0.00e+00	0	44	0	3441426432	12	4152
2026-01-02 11:23:19.69	349.99	11.80	-25.8	-27.0	15.7	0.00e+00	0	43	0	3458203648	12	4136
2026-01-02 11:23:22.69	349.76	11.54	-26.0	-27.3	15.4	0.00e+00	0	43	0	3474980864	12	4229
2026-01-02 11:23:25.71	349.55	11.28	-26.1	-27.6	15.3	0.00e+00	0	44	0	3492806656	12	4300
2026-01-02 11:23:28.71	349.33	11.03	-26.4	-28.4	14.8	0.00e+00	0	43	0	3509583872	12	4524
2026-01-02 11:23:31.71	349.12	10.78	-26.4	-27.8	14.9	0.00e+00	0	43	0	3526361088	13	4251
2026-01-02 11:23:34.73	348.92	10.53	-26.9	-28.5	14.2	1.10e-06	0	44	0	3543138304	14	4341
2026-01-02 11:23:37.73	348.72	10.29	-26.1	-27.2	15.2	0.00e+00	0	44	0	3559915520	13	4084
2026-01-02 11:23:40.76	348.52	10.04	-26.2	-27.4	15.1	0.00e+00	0	43	0	3576692736	13	4133
2026-01-02 11:23:43.77	348.32	9.80	-26.2	-27.4	15.0	0.00e+00	0	43	0	3594518528	13	4146
2026-01-02 11:23:46.79	348.13	9.56	-26.4	-27.9	14.7	0.00e+00	0	43	0	3611295744	13	4288
2026-01-02 11:23:49.80	347.94	9.32	-26.5	-28.0	14.6	0.00e+00	0	43	0	3628072960	13	4312
2026-01-02 11:23:52.81	347.75	9.09	-26.4	-27.9	14.7	0.00e+00	0	43	0	3644850176	13	4273
2026-01-02 11:23:55.82	347.57	8.85	-26.4	-27.8	14.7	0.00e+00	0	43	0	3661627392	13	4259
2026-01-02 11:23:58.83	347.39	8.62	-26.3	-27.6	14.8	0.00e+00	0	44	0	3678404608	13	4195
2026-01-02 11:24:01.84	347.22	8.39	-26.4	-27.9	14.6	0.00e+00	0	43	0	3695181824	13	4267
2026-01-02 11:24:04.85	347.04	8.16	-26.5	-28.1	14.4	1.10e-06	0	44	0	3713007616	13	4350
2026-01-02 11:24:07.85	346.87	7.93	-26.6	-28.3	14.3	0.00e+00	0	43	0	3729784832	13	4403
2026-01-02 11:24:10.86	346.70	7.71	-26.6	-28.4	14.3	0.00e+00	0	44	0	3746562048	13	4415
2026-01-02 11:24:13.88	346.54	7.49	-26.6	-28.4	14.2	1.10e-06	0	43	0	3763339264	13	4429
2026-01-02 11:24:16.90	346.38	7.26	-26.8	-28.8	14.0	0.00e+00	0	44	0	3780116480	13	4534
2026-01-02 11:24:19.90	346.22	7.04	-32.2	-39.5	4.0	6.14e-01	0	44	104	3794796544	25	8346

#Closed at: 2026-01-02 11:24:22
#Recorded file [3794 MB]: D:/data/31010_260102_141304.dat