passes_logs/2026/01/02/R2M6_AANII_01/R2M6_AANII_01__20260102_003911_NOAA_20_JPSS-1_rec.log

#Pass ID: 20260102_003911_NOAA 20 (JPSS-1)
#Satellite: NOAA 20 (JPSS-1)
#Configuration: NOAA 20
#almurnet v.1.7.20240730
#Start time: 2026-01-02 00:48:17

#Version: 2.2.20231116
#Station: R2M6_AANII_01
#Location: 30.233357 lon 59.946436 lat
#TLE: 1 43013U 17073A   26001.30344297  .00000183  00000+0  10758-3 0  9995
#TLE: 2 43013  98.7621 302.3885 0001938  59.1624 300.9742 14.19532032420790

#Time	Az	El	Level	Level2	SNR	BER	BlckErr	Temp	State	Recorded	gain1	gain2
2026-01-02 00:48:17.38	215.51	26.08	-33.6	-53.3	3.8	7.46e-01	0	43	0	0	27	34812
2026-01-02 00:48:18.37	215.46	25.92	-33.6	-47.8	3.8	1.49e+00	0	43	104	0	27	18408
2026-01-02 00:48:19.37	215.40	25.76	-33.6	-47.8	3.8	1.49e+00	0	43	104	0	27	18484
2026-01-02 00:48:20.37	215.34	25.60	-33.6	-47.9	3.8	1.49e+00	0	43	104	0	27	18516
2026-01-02 00:48:21.36	215.29	25.44	-33.7	-47.9	3.8	1.49e+00	0	43	104	0	27	18554
2026-01-02 00:48:22.36	215.23	25.28	-33.7	-48.0	3.8	1.49e+00	0	43	104	0	27	18594
2026-01-02 00:48:23.36	215.18	25.12	-33.7	-48.0	3.8	1.49e+00	0	43	104	0	27	18619
2026-01-02 00:48:24.36	215.13	24.96	-33.7	-48.0	3.8	1.49e+00	0	43	104	0	27	18642
2026-01-02 00:48:25.36	215.07	24.81	-33.7	-48.0	3.8	1.49e+00	0	43	104	0	27	18612
2026-01-02 00:48:26.36	215.02	24.65	-33.7	-48.0	3.8	1.49e+00	0	43	104	0	27	18625
2026-01-02 00:48:27.36	214.97	24.50	-33.7	-47.9	3.8	1.49e+00	0	43	104	0	27	18585
2026-01-02 00:48:28.36	214.92	24.34	-33.7	-47.9	3.8	1.49e+00	0	43	104	0	27	18562
2026-01-02 00:48:29.35	214.87	24.19	-33.7	-47.9	3.8	1.49e+00	0	43	104	0	27	18529
2026-01-02 00:48:30.36	214.82	24.04	-33.7	-47.9	3.8	1.49e+00	0	43	104	0	27	18526
2026-01-02 00:48:31.35	214.77	23.89	-33.7	-47.9	3.8	1.49e+00	0	43	104	0	27	18562
2026-01-02 00:48:32.35	214.72	23.74	-33.7	-47.9	3.8	1.49e+00	0	43	104	0	27	18535
2026-01-02 00:48:33.35	214.67	23.59	-33.7	-47.9	3.8	1.49e+00	0	43	104	0	27	18544
2026-01-02 00:48:34.35	214.62	23.44	-33.7	-47.9	3.8	1.49e+00	0	43	104	0	27	18605
2026-01-02 00:48:35.34	214.58	23.29	-33.6	-47.8	3.8	1.49e+00	0	43	104	0	27	18422
2026-01-02 00:48:36.35	214.53	23.14	-33.6	-47.8	3.8	1.49e+00	0	43	104	0	27	18414
2026-01-02 00:48:37.35	214.48	23.00	-33.5	-47.7	3.8	1.49e+00	0	43	104	0	27	18339
2026-01-02 00:48:38.35	214.43	22.85	-33.5	-47.6	3.8	1.49e+00	0	43	104	0	27	18197
2026-01-02 00:48:39.34	214.39	22.71	-33.5	-48.0	3.8	1.49e+00	0	43	104	0	26	19257
2026-01-02 00:48:40.34	214.34	22.57	-33.4	-47.9	3.8	1.49e+00	0	43	104	0	26	19100
2026-01-02 00:48:41.33	214.30	22.42	-33.4	-47.9	3.8	1.49e+00	0	43	104	0	26	19106
2026-01-02 00:48:42.33	214.25	22.28	-33.4	-47.8	3.8	1.49e+00	0	43	104	0	26	19002
2026-01-02 00:48:43.33	214.21	22.14	-33.3	-47.7	3.8	1.49e+00	0	43	104	0	26	18881
2026-01-02 00:48:44.33	214.17	22.00	-33.2	-47.6	3.8	1.49e+00	0	43	104	0	26	18891
2026-01-02 00:48:45.33	214.12	21.86	-33.2	-47.5	3.8	1.49e+00	0	43	104	0	26	18683
2026-01-02 00:48:46.33	214.08	21.72	-32.9	-44.3	3.9	1.49e+00	0	43	104	0	26	13480
2026-01-02 00:48:47.33	214.04	21.58	-32.9	-47.3	3.8	1.49e+00	0	43	104	0	25	18881
2026-01-02 00:48:48.33	214.00	21.44	-32.9	-47.4	3.8	1.49e+00	0	43	104	0	25	19078
2026-01-02 00:48:49.32	213.96	21.31	-32.9	-47.5	3.8	1.49e+00	0	43	104	0	25	19257
2026-01-02 00:48:50.33	213.91	21.17	-32.9	-47.5	3.8	1.49e+00	0	43	104	0	25	19222
2026-01-02 00:48:51.33	213.87	21.04	-32.9	-47.5	3.8	1.49e+00	0	43	104	0	25	19236
2026-01-02 00:48:52.31	213.83	20.90	-32.9	-47.5	3.8	1.49e+00	0	43	104	0	25	19163
2026-01-02 00:48:53.32	213.79	20.77	-32.9	-47.4	3.8	1.49e+00	0	43	104	0	25	19073
2026-01-02 00:48:54.31	213.75	20.64	-32.9	-47.4	3.8	1.49e+00	0	43	104	0	25	19110
2026-01-02 00:48:55.31	213.71	20.50	-32.9	-47.4	3.8	1.49e+00	0	43	104	0	25	19107
2026-01-02 00:48:56.30	213.68	20.37	-32.9	-47.5	3.8	1.49e+00	0	43	104	0	25	19174
2026-01-02 00:48:57.30	213.64	20.24	-32.9	-47.5	3.8	1.49e+00	0	43	104	0	25	19211
2026-01-02 00:48:58.30	213.60	20.11	-32.9	-47.3	3.8	1.49e+00	0	43	104	0	25	18857
2026-01-02 00:48:59.30	213.56	19.98	-32.9	-47.0	3.8	1.49e+00	0	43	104	0	25	18275
2026-01-02 00:49:00.29	213.52	19.85	-32.9	-46.4	3.8	1.49e+00	0	43	104	0	25	17013
2026-01-02 00:49:01.29	213.49	19.72	-32.8	-45.4	3.8	1.49e+00	0	43	104	0	25	15334
2026-01-02 00:49:02.28	213.45	19.60	-32.8	-44.4	4.0	1.48e+00	0	43	104	0	25	13701
2026-01-02 00:49:03.28	213.41	19.47	-32.7	-43.5	4.2	1.40e+00	0	43	0	0	25	12563
2026-01-02 00:49:04.28	213.38	19.34	-32.6	-42.6	4.5	1.25e+00	0	43	0	1048576	25	11355
2026-01-02 00:49:05.28	213.34	19.22	-32.5	-41.8	4.8	8.82e-01	0	43	0	2097152	25	10524
2026-01-02 00:49:06.29	213.30	19.09	-32.5	-41.4	5.1	7.13e-01	0	43	0	4194304	25	10050
2026-01-02 00:49:07.29	213.27	18.96	-32.3	-41.0	5.5	5.64e-01	0	43	0	6291456	24	9730
2026-01-02 00:49:08.29	213.23	18.84	-32.2	-40.1	6.0	4.06e-01	0	43	0	8388608	24	8956
2026-01-02 00:49:09.29	213.20	18.72	-32.0	-39.1	6.8	2.11e-01	0	43	0	10485760	24	8085
2026-01-02 00:49:10.29	213.17	18.59	-31.8	-38.2	7.8	1.07e-01	0	43	0	11534336	23	7542
2026-01-02 00:49:11.27	213.13	18.47	-31.5	-36.8	8.8	5.06e-02	0	43	0	13631488	23	6693
2026-01-02 00:49:12.27	213.10	18.35	-31.1	-35.4	10.0	1.61e-02	0	43	0	15728640	23	5901
2026-01-02 00:49:13.26	213.06	18.23	-31.2	-36.3	9.7	8.77e-03	0	43	0	17825792	22	6460
2026-01-02 00:49:14.25	213.03	18.11	-31.3	-36.9	9.1	2.31e-02	0	43	0	19922944	22	6849
2026-01-02 00:49:15.24	213.00	17.99	-31.0	-35.7	10.1	1.24e-02	0	43	0	20971520	22	6195
2026-01-02 00:49:16.25	212.97	17.87	-30.7	-35.2	10.8	6.37e-03	0	43	0	23068672	21	6038
2026-01-02 00:49:17.25	212.93	17.75	-30.5	-34.4	11.4	1.20e-03	0	43	0	25165824	21	5644
2026-01-02 00:49:18.25	212.90	17.63	-30.2	-33.5	12.0	5.19e-04	0	43	0	27262976	21	5291
2026-01-02 00:49:19.25	212.87	17.51	-30.0	-33.5	12.4	1.76e-03	0	43	0	28311552	20	5369
2026-01-02 00:49:20.25	212.84	17.40	-29.9	-33.3	12.5	1.23e-04	0	43	0	30408704	20	5275
2026-01-02 00:49:21.25	212.81	17.28	-29.8	-32.9	12.8	9.15e-05	0	43	0	32505856	20	5154
2026-01-02 00:49:22.26	212.78	17.16	-29.8	-33.4	12.9	1.64e-03	0	43	0	34603008	19	5424
2026-01-02 00:49:23.26	212.74	17.05	-29.9	-33.6	12.7	1.57e-03	0	43	0	36700160	19	5527
2026-01-02 00:49:24.25	212.71	16.93	-29.9	-33.5	12.7	5.72e-05	0	43	0	37748736	19	5482
2026-01-02 00:49:25.25	212.68	16.82	-29.8	-33.4	12.8	1.53e-03	0	43	0	39845888	19	5431
2026-01-02 00:49:26.24	212.65	16.71	-29.8	-33.5	12.8	1.55e-03	0	43	0	41943040	19	5476
2026-01-02 00:49:27.24	212.62	16.59	-29.8	-33.4	12.8	6.40e-05	0	43	0	44040192	19	5427
2026-01-02 00:49:28.24	212.60	16.48	-29.9	-33.6	12.7	6.48e-05	0	43	0	46137344	19	5528
2026-01-02 00:49:29.23	212.57	16.37	-29.9	-33.7	12.6	1.70e-03	0	43	0	47185920	19	5563
2026-01-02 00:49:30.23	212.54	16.25	-29.9	-33.6	12.7	9.15e-05	0	43	0	49283072	19	5530
2026-01-02 00:49:31.22	212.51	16.14	-29.9	-33.3	12.4	1.25e-04	0	43	0	51380224	20	5305
2026-01-02 00:49:32.22	212.48	16.03	-30.0	-33.8	12.5	1.19e-04	0	43	0	53477376	19	5629
2026-01-02 00:49:33.22	212.45	15.92	-30.0	-33.9	12.5	1.25e-04	0	43	0	54525952	19	5651
2026-01-02 00:49:34.21	212.42	15.81	-30.1	-33.7	12.2	2.43e-04	0	43	0	56623104	20	5474
2026-01-02 00:49:35.21	212.40	15.70	-30.0	-33.5	12.3	2.05e-04	0	43	0	58720256	20	5383
2026-01-02 00:49:36.21	212.37	15.59	-30.1	-33.8	12.0	2.50e-04	0	43	0	60817408	20	5524
2026-01-02 00:49:37.21	212.34	15.49	-30.0	-33.4	12.3	1.61e-03	0	43	0	62914560	20	5367
2026-01-02 00:49:38.21	212.31	15.38	-29.9	-33.3	12.4	1.79e-04	0	43	0	63963136	20	5302
2026-01-02 00:49:39.20	212.29	15.27	-29.9	-33.3	12.4	1.18e-04	0	43	0	66060288	20	5308
2026-01-02 00:49:40.20	212.26	15.16	-30.0	-33.5	12.3	1.85e-03	0	43	0	68157440	20	5389
2026-01-02 00:49:41.19	212.23	15.06	-30.0	-33.5	12.2	1.93e-04	0	43	0	70254592	20	5389
2026-01-02 00:49:42.19	212.21	14.95	-29.9	-33.2	12.4	1.45e-04	0	43	0	72351744	20	5280
2026-01-02 00:49:43.18	212.18	14.85	-29.9	-33.4	12.3	1.71e-03	0	43	0	73400320	20	5349
2026-01-02 00:49:44.18	212.16	14.74	-30.0	-33.5	12.2	1.75e-03	0	43	0	75497472	20	5410
2026-01-02 00:49:45.17	212.13	14.64	-30.0	-33.5	12.2	2.08e-04	0	43	0	77594624	20	5386
2026-01-02 00:49:46.18	212.10	14.53	-29.9	-33.3	12.3	1.95e-04	0	43	0	79691776	20	5337
2026-01-02 00:49:47.18	212.08	14.43	-30.0	-34.0	12.3	1.94e-03	0	43	0	80740352	19	5700
2026-01-02 00:49:48.18	212.05	14.32	-29.9	-33.5	12.2	2.33e-04	0	43	0	82837504	20	5408
2026-01-02 00:49:49.17	212.03	14.22	-30.0	-33.6	12.1	2.36e-04	0	43	0	84934656	20	5446
2026-01-02 00:49:50.17	212.00	14.12	-30.0	-33.6	12.1	2.59e-04	0	43	0	87031808	20	5447
2026-01-02 00:49:51.18	211.98	14.02	-30.0	-33.6	12.1	3.12e-04	0	43	0	89128960	20	5462
2026-01-02 00:49:52.17	211.96	13.91	-30.0	-33.6	12.1	2.83e-04	0	43	0	90177536	20	5466
2026-01-02 00:49:53.17	211.93	13.81	-30.0	-33.6	12.1	2.48e-04	0	43	0	92274688	20	5447
2026-01-02 00:49:54.18	211.91	13.71	-30.1	-33.8	11.9	3.78e-04	0	43	0	94371840	20	5565
2026-01-02 00:49:55.19	211.88	13.61	-30.0	-33.8	11.9	4.38e-04	0	43	0	96468992	20	5545
2026-01-02 00:49:56.19	211.86	13.51	-30.1	-34.1	11.7	5.32e-04	0	43	0	98566144	20	5672
2026-01-02 00:49:57.19	211.84	13.41	-30.1	-34.0	11.8	5.36e-04	0	43	0	99614720	20	5626
2026-01-02 00:49:58.19	211.81	13.31	-30.2	-34.3	11.5	2.33e-03	0	44	0	101711872	20	5755
2026-01-02 00:49:59.19	211.79	13.21	-30.2	-34.3	11.5	6.23e-04	0	43	0	103809024	20	5779
2026-01-02 00:50:00.19	211.77	13.11	-30.3	-34.6	11.3	1.19e-03	0	43	0	105906176	20	5914
2026-01-02 00:50:01.20	211.74	13.01	-30.2	-34.4	11.5	2.02e-03	0	43	0	108003328	20	5796
2026-01-02 00:50:02.20	211.72	12.91	-30.2	-34.3	11.5	8.06e-04	0	43	0	109051904	20	5765
2026-01-02 00:50:03.21	211.70	12.82	-30.2	-34.3	11.5	9.16e-04	0	43	0	111149056	20	5763
2026-01-02 00:50:04.20	211.68	12.72	-30.2	-34.3	11.5	7.39e-04	0	43	0	113246208	20	5756
2026-01-02 00:50:05.21	211.65	12.62	-30.2	-34.4	11.4	7.88e-04	0	43	0	115343360	20	5794
2026-01-02 00:50:06.21	211.63	12.53	-30.3	-34.5	11.3	1.33e-03	0	43	0	116391936	20	5885
2026-01-02 00:50:07.21	211.61	12.43	-30.2	-34.4	11.4	9.86e-04	0	43	0	118489088	20	5827
2026-01-02 00:50:08.21	211.59	12.33	-30.2	-34.4	11.4	1.03e-03	0	43	0	120586240	20	5837
2026-01-02 00:50:09.21	211.57	12.24	-30.3	-34.7	11.2	1.13e-03	0	43	0	122683392	20	5955
2026-01-02 00:50:10.21	211.55	12.14	-30.3	-34.7	11.1	1.44e-03	0	43	0	124780544	20	5956
2026-01-02 00:50:11.21	211.52	12.05	-30.3	-34.6	11.2	1.30e-03	0	43	0	125829120	20	5922
2026-01-02 00:50:12.22	211.50	11.95	-30.2	-34.5	11.3	1.16e-03	0	43	0	127926272	20	5862
2026-01-02 00:50:13.23	211.48	11.86	-30.3	-34.5	11.3	1.12e-03	0	43	0	130023424	20	5893
2026-01-02 00:50:14.23	211.46	11.77	-30.3	-34.8	11.0	1.69e-03	0	43	0	132120576	20	6043
2026-01-02 00:50:15.23	211.44	11.67	-30.3	-34.5	11.2	1.36e-03	0	43	0	134217728	20	5895
2026-01-02 00:50:16.24	211.42	11.58	-30.2	-34.5	11.3	1.21e-03	0	43	0	135266304	20	5877
2026-01-02 00:50:17.23	211.40	11.49	-30.2	-34.3	11.4	1.29e-03	0	43	0	137363456	20	5814
2026-01-02 00:50:18.24	211.38	11.40	-30.2	-34.4	11.3	1.07e-03	0	43	0	139460608	20	5857
2026-01-02 00:50:19.24	211.36	11.30	-30.2	-34.6	11.1	1.62e-03	0	43	0	141557760	20	5914
2026-01-02 00:50:20.25	211.34	11.21	-30.3	-34.7	11.1	1.39e-03	0	43	0	143654912	20	5985
2026-01-02 00:50:21.25	211.32	11.12	-30.3	-34.6	11.1	1.44e-03	0	43	0	144703488	20	5920
2026-01-02 00:50:22.25	211.30	11.03	-30.4	-35.0	10.8	2.14e-03	0	43	0	146800640	20	6109
2026-01-02 00:50:23.25	211.28	10.94	-30.2	-34.6	11.2	1.74e-03	0	43	0	148897792	20	5915
2026-01-02 00:50:24.24	211.26	10.85	-30.2	-34.5	11.2	1.37e-03	0	43	0	150994944	20	5873
2026-01-02 00:50:25.24	211.24	10.76	-30.2	-34.5	11.2	1.52e-03	0	43	0	153092096	20	5912
2026-01-02 00:50:26.24	211.22	10.67	-29.7	-34.0	11.1	1.40e-03	0	43	0	154140672	20	5922
2026-01-02 00:50:27.24	211.20	10.58	-30.2	-34.5	11.0	1.47e-03	0	43	0	156237824	20	5915
2026-01-02 00:50:28.25	211.19	10.49	-30.4	-35.0	10.8	1.79e-03	0	43	0	158334976	20	6107
2026-01-02 00:50:29.25	211.17	10.40	-30.4	-35.1	10.6	3.04e-03	0	43	0	160432128	20	6182
2026-01-02 00:50:30.26	211.15	10.31	-30.3	-34.8	10.8	2.26e-03	0	43	0	161480704	20	6045
2026-01-02 00:50:31.25	211.13	10.23	-30.2	-34.5	11.1	1.61e-03	0	43	0	163577856	20	5895
2026-01-02 00:50:32.25	211.11	10.14	-30.2	-34.5	11.2	1.64e-03	0	43	0	165675008	20	5899
2026-01-02 00:50:33.26	211.09	10.05	-30.3	-34.6	11.0	2.00e-03	0	43	0	167772160	20	5963
2026-01-02 00:50:34.26	211.08	9.97	-30.2	-34.6	11.0	1.60e-03	0	43	0	169869312	20	5956
2026-01-02 00:50:35.26	211.06	9.88	-30.2	-34.6	11.1	2.08e-03	0	43	0	170917888	20	5958
2026-01-02 00:50:36.27	211.04	9.79	-30.2	-34.6	11.1	1.77e-03	0	43	0	173015040	20	5931
2026-01-02 00:50:37.27	211.02	9.71	-30.2	-34.5	11.1	1.94e-03	0	43	0	175112192	20	5882
2026-01-02 00:50:38.28	211.00	9.62	-30.2	-34.6	11.0	1.37e-03	0	43	0	177209344	20	5967
2026-01-02 00:50:39.27	210.99	9.53	-30.3	-34.8	10.9	2.18e-03	0	43	0	179306496	20	6047
2026-01-02 00:50:40.27	210.97	9.45	-30.2	-34.6	11.0	2.20e-03	0	43	0	180355072	20	5935
2026-01-02 00:50:41.28	210.95	9.36	-30.2	-34.7	11.0	1.64e-03	0	43	0	182452224	20	5987
2026-01-02 00:50:42.27	210.94	9.28	-30.4	-35.1	10.6	2.71e-03	0	43	0	184549376	20	6175
2026-01-02 00:50:43.27	210.92	9.20	-30.3	-34.7	10.9	2.85e-03	0	44	0	186646528	20	6023
2026-01-02 00:50:44.27	210.90	9.11	-30.2	-34.6	11.0	1.63e-03	0	43	0	187695104	20	5960
2026-01-02 00:50:45.28	210.89	9.03	-30.2	-34.5	11.0	1.90e-03	0	43	0	189792256	20	5924
2026-01-02 00:50:46.28	210.87	8.94	-30.2	-34.5	11.0	1.97e-03	0	43	0	191889408	20	5914
2026-01-02 00:50:47.28	210.85	8.86	-30.3	-34.7	10.9	2.09e-03	0	43	0	193986560	20	6025
2026-01-02 00:50:48.29	210.84	8.78	-30.2	-34.7	10.9	2.16e-03	0	43	0	196083712	20	6012
2026-01-02 00:50:49.29	210.82	8.69	-30.2	-34.6	11.0	2.08e-03	0	43	0	198180864	20	5947
2026-01-02 00:50:50.30	210.80	8.61	-30.3	-34.9	10.6	3.24e-03	0	43	0	199229440	20	6141
2026-01-02 00:50:51.30	210.79	8.53	-30.1	-34.3	11.2	2.08e-03	0	43	0	201326592	20	5816
2026-01-02 00:50:52.30	210.77	8.45	-30.2	-34.7	10.8	1.95e-03	0	43	0	203423744	20	6009
2026-01-02 00:50:53.30	210.76	8.37	-30.2	-34.6	10.9	2.36e-03	0	43	0	205520896	20	5953
2026-01-02 00:50:54.30	210.74	8.28	-30.2	-34.7	10.8	3.32e-03	0	43	0	206569472	20	6004
2026-01-02 00:50:55.30	210.72	8.20	-30.2	-34.7	10.8	2.33e-03	0	43	0	208666624	20	6039
2026-01-02 00:50:56.30	210.71	8.12	-30.2	-34.7	10.8	2.49e-03	0	43	0	210763776	20	6042
2026-01-02 00:50:57.31	210.69	8.04	-30.3	-35.0	10.6	4.69e-03	0	43	0	212860928	20	6154
2026-01-02 00:50:58.32	210.68	7.96	-30.3	-35.0	10.5	3.65e-03	0	43	0	214958080	20	6198
2026-01-02 00:50:59.32	210.66	7.88	-30.3	-34.9	10.6	3.54e-03	0	43	0	216006656	20	6144
2026-01-02 00:51:00.33	210.65	7.80	-30.3	-35.2	10.4	5.70e-03	0	44	0	218103808	20	6272
2026-01-02 00:51:01.32	210.63	7.72	-30.4	-35.3	10.2	7.91e-03	0	43	0	220200960	20	6374
2026-01-02 00:51:02.33	210.62	7.64	-30.4	-35.3	10.3	4.93e-03	0	43	0	222298112	20	6322
2026-01-02 00:51:03.33	210.60	7.56	-30.4	-35.6	10.0	9.60e-03	0	43	0	224395264	20	6485
2026-01-02 00:51:04.33	210.59	7.48	-30.3	-35.2	10.3	7.09e-03	0	43	0	225443840	20	6298
2026-01-02 00:51:05.34	210.57	7.40	-30.4	-35.4	10.2	5.59e-03	0	43	0	227540992	20	6422
2026-01-02 00:51:06.34	210.56	7.33	-30.4	-35.6	10.0	6.48e-03	0	43	0	229638144	20	6521
2026-01-02 00:51:07.35	210.54	7.25	-30.4	-35.6	10.0	1.07e-02	0	43	0	231735296	20	6515
2026-01-02 00:51:08.35	210.53	7.17	-30.4	-35.5	10.0	7.64e-03	0	43	0	233832448	20	6463
2026-01-02 00:51:09.35	210.51	7.09	-31.8	-40.4	6.0	6.57e-03	0	43	0	234881024	23	9711
2026-01-02 00:51:10.36	210.50	7.01	-32.6	-46.8	3.8	1.49e+00	0	43	104	234881024	25	18471
2026-01-02 00:51:11.36	210.49	6.94	-32.9	-47.4	3.8	1.49e+00	0	43	104	234881024	25	19047
2026-01-02 00:51:12.36	210.47	6.86	-33.1	-47.3	3.8	1.49e+00	0	43	104	234881024	26	18454

#Closed at: 2026-01-02 00:51:12
#Recorded file [234 MB]: D:/data/31010_260102_034903.dat