passes_logs/2026/01/02/R2M6_AANII_01/R2M6_AANII_01__20260102_235934_SUOMI_NPP_rec.log

#Pass ID: 20260102_235934_SUOMI NPP
#Satellite: SUOMI NPP
#Configuration: NPP
#almurnet v.1.7.20240730
#Start time: 2026-01-02 23:59:36

#Version: 2.2.20231116
#Station: R2M6_AANII_01
#Location: 30.233357 lon 59.946436 lat
#TLE: 1 37849U 11061A   26001.07732418  .00000182  00000+0  10735-3 0  9990
#TLE: 2 37849  98.7795 303.2470 0002580  87.2016 272.9455 14.19520779734739

#Time	Az	El	Level	Level2	SNR	BER	BlckErr	Temp	State	Recorded	gain1	gain2
2026-01-02 23:59:36.21	20.58	7.14	-31.4	-38.0	4.5	1.39e+00	0	41	0	0	22	7696
2026-01-02 23:59:39.22	20.66	7.37	-31.6	-38.6	5.3	5.25e-01	0	41	0	1048576	23	8009
2026-01-02 23:59:42.24	20.75	7.60	-31.5	-37.7	5.9	3.65e-01	0	41	0	7340032	23	7309
2026-01-02 23:59:45.26	20.83	7.83	-31.1	-35.6	7.7	1.24e-01	0	41	0	12582912	22	6107
2026-01-02 23:59:48.28	20.92	8.07	-30.6	-34.2	9.2	2.40e-02	0	41	0	18874368	21	5488
2026-01-02 23:59:51.29	21.01	8.31	-30.4	-34.0	9.7	8.35e-03	0	41	0	24117248	20	5474
2026-01-02 23:59:54.31	21.10	8.55	-30.2	-33.5	10.2	8.90e-03	0	41	0	29360128	20	5216
2026-01-02 23:59:57.33	21.19	8.80	-30.3	-33.7	10.0	1.06e-02	0	41	0	35651584	20	5303
2026-01-03 00:00:00.34	21.28	9.04	-30.2	-33.3	10.4	7.61e-03	0	42	0	40894464	20	5119
2026-01-03 00:00:03.35	21.37	9.29	-30.1	-33.0	10.6	5.74e-03	0	41	0	46137344	20	5026
2026-01-03 00:00:06.36	21.46	9.54	-30.2	-33.3	10.4	8.17e-03	0	42	0	52428800	20	5138
2026-01-03 00:00:09.38	21.56	9.79	-29.6	-31.9	11.9	2.87e-03	0	42	0	57671680	19	4641
2026-01-03 00:00:12.40	21.66	10.05	-29.4	-31.7	12.4	2.45e-03	0	42	0	63963136	18	4671
2026-01-03 00:00:15.40	21.76	10.31	-29.5	-31.2	12.4	2.22e-03	0	42	0	69206016	19	4415
2026-01-03 00:00:18.42	21.86	10.57	-29.3	-31.4	12.7	2.48e-03	0	42	0	74448896	18	4561
2026-01-03 00:00:21.44	21.96	10.83	-29.5	-31.8	12.5	2.41e-03	0	42	0	80740352	18	4685
2026-01-03 00:00:24.46	22.06	11.10	-29.4	-31.4	12.7	2.22e-03	0	42	0	85983232	18	4567
2026-01-03 00:00:27.48	22.17	11.37	-29.5	-31.4	12.4	2.44e-03	0	42	0	92274688	19	4448
2026-01-03 00:00:30.50	22.28	11.64	-29.3	-31.3	12.8	8.62e-05	0	42	0	97517568	18	4529
2026-01-03 00:00:33.51	22.38	11.92	-29.3	-31.2	12.9	4.04e-05	0	42	0	102760448	18	4475
2026-01-03 00:00:36.52	22.49	12.20	-29.2	-30.9	13.1	2.97e-05	0	42	0	109051904	18	4384
2026-01-03 00:00:39.54	22.61	12.48	-29.1	-30.7	13.2	2.89e-05	0	42	0	114294784	18	4321
2026-01-03 00:00:42.55	22.72	12.76	-29.3	-31.0	13.1	1.70e-03	0	42	0	120586240	18	4424
2026-01-03 00:00:45.57	22.84	13.05	-29.9	-32.3	11.9	2.46e-04	0	42	0	125829120	19	4761
2026-01-03 00:00:48.59	22.96	13.34	-29.8	-32.2	12.0	3.29e-04	0	42	0	131072000	19	4729
2026-01-03 00:00:51.61	23.08	13.64	-30.0	-32.2	11.6	3.52e-04	0	42	0	137363456	20	4633
2026-01-03 00:00:54.63	23.20	13.94	-29.8	-31.7	11.9	6.38e-04	0	42	0	142606336	20	4474
2026-01-03 00:00:57.65	23.32	14.24	-29.4	-31.3	13.0	3.12e-05	0	43	0	148897792	18	4505
2026-01-03 00:01:00.66	23.45	14.55	-29.3	-31.2	13.0	3.12e-05	0	42	0	154140672	18	4476
2026-01-03 00:01:03.68	23.58	14.86	-29.5	-31.3	12.7	1.33e-04	0	42	0	159383552	19	4407
2026-01-03 00:01:06.70	23.71	15.17	-29.3	-30.6	13.1	2.89e-05	0	42	0	165675008	19	4186
2026-01-03 00:01:09.72	23.85	15.49	-29.2	-30.8	13.4	2.21e-05	0	43	0	170917888	18	4337
2026-01-03 00:01:12.74	23.99	15.81	-29.0	-30.3	13.7	2.20e-06	0	43	0	177209344	18	4178
2026-01-03 00:01:15.74	24.13	16.14	-29.0	-30.2	13.8	3.00e-06	0	43	0	182452224	18	4155
2026-01-03 00:01:18.76	24.27	16.47	-29.0	-30.2	13.8	6.80e-06	0	43	0	187695104	18	4134
2026-01-03 00:01:21.78	24.41	16.80	-28.8	-30.3	14.0	3.00e-06	0	43	0	193986560	17	4265
2026-01-03 00:01:24.80	24.56	17.14	-28.8	-30.3	14.1	7.00e-07	0	43	0	199229440	17	4273
2026-01-03 00:01:27.81	24.71	17.49	-29.2	-30.9	13.4	1.14e-05	0	42	0	205520896	18	4352
2026-01-03 00:01:30.83	24.87	17.84	-29.2	-30.7	13.6	7.60e-06	0	43	0	210763776	18	4289
2026-01-03 00:01:33.84	25.03	18.19	-29.3	-31.1	13.3	2.21e-05	0	42	0	216006656	18	4417
2026-01-03 00:01:36.85	25.19	18.55	-29.0	-30.4	13.8	6.80e-06	0	43	0	222298112	18	4185
2026-01-03 00:01:39.87	25.36	18.91	-29.0	-30.3	13.8	3.00e-06	0	43	0	227540992	18	4163
2026-01-03 00:01:42.87	25.52	19.28	-29.0	-30.3	13.9	3.80e-06	0	43	0	232783872	18	4153
2026-01-03 00:01:45.89	25.70	19.65	-29.2	-30.7	13.6	2.20e-06	0	43	0	239075328	18	4300
2026-01-03 00:01:48.92	25.87	20.03	-29.2	-30.8	13.5	7.60e-06	0	43	0	244318208	18	4329
2026-01-03 00:01:51.93	26.05	20.42	-29.3	-30.9	13.5	1.60e-05	0	43	0	250609664	18	4340
2026-01-03 00:01:54.95	26.24	20.81	-29.3	-30.5	13.4	1.29e-05	0	43	0	255852544	19	4136
2026-01-03 00:01:57.96	26.43	21.21	-29.2	-30.2	13.6	1.06e-05	0	43	0	261095424	19	4044
2026-01-03 00:02:00.99	26.63	21.61	-29.1	-30.4	13.9	3.00e-06	0	43	0	267386880	18	4187
2026-01-03 00:02:04.00	26.82	22.02	-28.7	-29.8	14.5	0.00e+00	0	43	0	272629760	17	4115
2026-01-03 00:02:07.02	27.03	22.44	-28.4	-29.2	14.9	0.00e+00	0	43	0	278921216	17	3938
2026-01-03 00:02:10.03	27.24	22.86	-28.4	-29.0	15.0	0.00e+00	0	43	0	284164096	17	3888
2026-01-03 00:02:13.05	27.45	23.29	-28.1	-28.8	15.4	0.00e+00	0	43	0	289406976	16	3927
2026-01-03 00:02:16.07	27.67	23.72	-28.1	-29.0	15.4	0.00e+00	0	43	0	295698432	16	3958
2026-01-03 00:02:19.08	27.90	24.17	-28.1	-28.8	15.5	0.00e+00	0	43	0	300941312	16	3917
2026-01-03 00:02:22.10	28.13	24.62	-28.0	-28.7	15.6	0.00e+00	0	43	0	307232768	16	3892
2026-01-03 00:02:25.12	28.37	25.08	-27.9	-28.4	15.8	0.00e+00	0	43	0	312475648	16	3803
2026-01-03 00:02:28.14	28.62	25.54	-28.1	-28.9	15.4	0.00e+00	0	43	0	317718528	16	3951
2026-01-03 00:02:31.15	28.87	26.01	-28.2	-29.2	15.3	0.00e+00	0	43	0	324009984	16	4021
2026-01-03 00:02:34.15	29.13	26.49	-28.5	-29.4	14.9	0.00e+00	0	43	0	329252864	17	3981
2026-01-03 00:02:37.17	29.40	26.98	-28.2	-28.7	15.3	9.23e-05	0	43	0	335544320	17	3787
2026-01-03 00:02:40.19	29.67	27.48	-28.3	-28.9	15.2	2.20e-06	0	43	0	340787200	17	3840
2026-01-03 00:02:43.21	29.96	27.99	-28.3	-29.3	15.3	0.00e+00	0	43	0	346030080	16	4052
2026-01-03 00:02:46.22	30.25	28.50	-28.4	-29.0	15.2	0.00e+00	0	43	0	352321536	17	3862
2026-01-03 00:02:49.24	30.55	29.03	-28.5	-29.3	15.0	0.00e+00	0	43	0	357564416	17	3964
2026-01-03 00:02:52.25	30.87	29.56	-28.8	-30.0	14.6	7.00e-07	0	43	0	362807296	17	4146
2026-01-03 00:02:55.28	31.19	30.10	-29.3	-31.0	13.8	1.50e-06	0	43	0	369098752	18	4336
2026-01-03 00:02:58.29	31.52	30.65	-29.5	-30.9	13.5	3.96e-05	0	43	0	374341632	19	4218
2026-01-03 00:03:01.30	31.86	31.21	-29.7	-31.3	13.2	5.79e-05	0	43	0	380633088	19	4364
2026-01-03 00:03:04.31	32.22	31.78	-30.3	-32.3	11.8	6.19e-04	0	43	0	385875968	21	4510
2026-01-03 00:03:07.33	32.59	32.37	-30.8	-33.7	10.9	3.28e-03	0	43	0	391118848	21	5021
2026-01-03 00:03:10.34	32.97	32.96	-30.6	-33.0	11.3	2.31e-03	0	43	0	397410304	21	4743
2026-01-03 00:03:13.36	33.37	33.56	-30.3	-32.7	11.9	6.66e-04	0	43	0	402653184	20	4748
2026-01-03 00:03:16.38	33.78	34.17	-30.0	-31.6	12.6	5.71e-04	0	43	0	408944640	20	4359
2026-01-03 00:03:19.39	34.20	34.80	-29.8	-31.1	13.0	7.85e-05	0	43	0	414187520	20	4191
2026-01-03 00:03:22.40	34.64	35.43	-29.8	-31.5	13.2	2.67e-05	0	43	0	419430400	19	4398
2026-01-03 00:03:25.41	35.10	36.08	-30.2	-32.3	12.3	7.55e-05	0	43	0	425721856	20	4594
2026-01-03 00:03:28.43	35.57	36.73	-30.6	-33.0	11.4	8.00e-04	0	43	0	430964736	21	4764
2026-01-03 00:03:31.45	36.07	37.40	-30.5	-32.6	11.7	8.47e-04	0	43	0	437256192	21	4603
2026-01-03 00:03:34.47	36.59	38.08	-30.5	-32.8	11.6	3.75e-04	0	43	0	442499072	21	4662
2026-01-03 00:03:37.49	37.13	38.78	-31.2	-34.2	10.1	6.08e-03	0	43	0	447741952	22	5133
2026-01-03 00:03:40.51	37.69	39.48	-31.1	-34.0	10.5	5.51e-03	0	43	0	454033408	22	5041
2026-01-03 00:03:43.53	38.27	40.19	-31.0	-33.6	10.7	3.15e-03	0	43	0	459276288	22	4860
2026-01-03 00:03:46.54	38.88	40.92	-30.4	-31.8	12.0	2.72e-04	0	43	0	465567744	22	4245
2026-01-03 00:03:49.56	39.52	41.66	-30.2	-31.8	12.2	3.39e-04	0	43	0	470810624	21	4337
2026-01-03 00:03:52.58	40.19	42.41	-30.8	-33.1	11.1	2.77e-03	0	43	0	476053504	22	4664
2026-01-03 00:03:55.60	40.90	43.17	-29.9	-31.0	12.9	1.11e-04	0	43	0	482344960	21	4066
2026-01-03 00:03:58.61	41.63	43.93	-30.1	-32.0	12.6	4.65e-05	0	43	0	487587840	20	4461
2026-01-03 00:04:01.64	42.40	44.72	-30.0	-31.7	12.7	8.62e-05	0	43	0	493879296	20	4381
2026-01-03 00:04:04.65	43.21	45.51	-29.9	-31.3	13.1	3.28e-05	0	43	0	499122176	20	4252
2026-01-03 00:04:07.66	44.05	46.30	-29.4	-30.1	13.8	1.14e-05	0	43	0	504365056	20	3899
2026-01-03 00:04:10.67	44.95	47.11	-29.2	-30.0	14.4	0.00e+00	0	43	0	510656512	19	3931
2026-01-03 00:04:13.69	45.89	47.93	-29.1	-29.7	14.5	1.50e-06	0	43	0	515899392	19	3869
2026-01-03 00:04:16.72	46.88	48.75	-29.6	-30.9	13.7	1.37e-05	0	43	0	522190848	19	4210
2026-01-03 00:04:19.74	47.93	49.58	-29.4	-30.4	14.1	7.85e-05	0	43	0	527433728	19	4044
2026-01-03 00:04:22.75	49.03	50.42	-30.0	-31.8	12.8	3.28e-05	0	43	0	532676608	20	4388
2026-01-03 00:04:25.76	50.19	51.25	-29.0	-29.5	14.6	2.29e-04	0	43	0	538968064	19	3803
2026-01-03 00:04:28.76	51.41	52.09	-28.7	-29.8	15.2	1.97e-04	0	43	0	544210944	17	4057
2026-01-03 00:04:31.78	52.72	52.93	-29.3	-30.7	14.3	4.93e-04	0	43	0	550502400	18	4213
2026-01-03 00:04:34.80	54.10	53.77	-28.2	-29.0	15.9	8.69e-04	0	43	0	555745280	16	3935
2026-01-03 00:04:37.82	55.56	54.61	-29.4	-30.9	14.1	7.00e-07	0	43	0	560988160	18	4300
2026-01-03 00:04:40.83	57.10	55.44	-28.1	-28.1	16.1	3.35e-05	0	43	0	567279616	17	3626
2026-01-03 00:04:43.85	58.74	56.26	-27.7	-27.8	16.6	1.17e-04	0	43	0	572522496	16	3625
2026-01-03 00:04:46.86	60.48	57.07	-28.2	-28.8	16.0	1.39e-04	0	43	0	578813952	16	3898
2026-01-03 00:04:49.88	62.32	57.86	-29.0	-30.0	14.8	1.44e-05	0	43	0	584056832	18	4002
2026-01-03 00:04:52.88	64.26	58.64	-29.3	-30.2	14.4	1.07e-04	0	43	0	589299712	19	3976
2026-01-03 00:04:55.90	66.33	59.39	-29.8	-31.5	13.5	8.30e-06	0	43	0	595591168	19	4366
2026-01-03 00:04:58.92	68.52	60.12	-30.1	-31.9	12.8	9.84e-05	0	43	0	600834048	20	4412
2026-01-03 00:05:01.93	70.83	60.82	-30.0	-31.6	13.1	5.30e-06	0	43	0	606076928	20	4296
2026-01-03 00:05:04.95	73.27	61.48	-29.9	-30.9	13.3	9.61e-05	0	43	0	612368384	21	4001
2026-01-03 00:05:07.97	75.84	62.10	-28.9	-29.6	15.1	0.00e+00	0	43	0	617611264	18	3897
2026-01-03 00:05:10.99	78.54	62.68	-28.9	-29.5	15.2	0.00e+00	0	43	0	623902720	18	3871
2026-01-03 00:05:14.01	81.37	63.20	-28.9	-29.6	15.0	0.00e+00	0	43	0	629145600	18	3915
2026-01-03 00:05:17.02	84.31	63.67	-29.5	-30.6	14.2	0.00e+00	0	43	0	634388480	19	4089
2026-01-03 00:05:20.04	87.37	64.08	-29.6	-30.4	13.9	5.30e-06	0	43	0	640679936	20	3954
2026-01-03 00:05:23.05	90.52	64.42	-29.6	-30.9	13.9	7.00e-07	0	43	0	645922816	19	4193
2026-01-03 00:05:26.06	93.75	64.69	-29.9	-31.1	13.4	2.13e-05	0	43	0	652214272	20	4146
2026-01-03 00:05:29.08	97.07	64.89	-29.3	-30.2	14.4	7.00e-07	0	43	0	657457152	19	3973
2026-01-03 00:05:32.10	100.43	65.02	-28.1	-28.7	16.2	0.00e+00	0	43	0	662700032	16	3848
2026-01-03 00:05:35.11	103.81	65.06	-27.8	-27.5	16.5	0.00e+00	0	43	0	668991488	17	3476
2026-01-03 00:05:38.13	107.20	65.03	-29.4	-30.4	14.4	0.00e+00	0	43	0	674234368	19	4022
2026-01-03 00:05:41.15	110.57	64.93	-28.9	-29.7	15.1	0.00e+00	0	43	0	680525824	18	3922
2026-01-03 00:05:44.17	113.90	64.74	-27.6	-28.0	16.8	0.00e+00	0	43	0	685768704	15	3769
2026-01-03 00:05:47.19	117.16	64.48	-28.8	-30.0	15.1	7.00e-07	0	43	0	691011584	17	4094
2026-01-03 00:05:50.21	120.34	64.16	-29.2	-30.3	14.7	0.00e+00	0	43	0	697303040	18	4082
2026-01-03 00:05:53.22	123.42	63.76	-28.9	-29.6	15.1	7.00e-07	0	43	0	702545920	18	3886
2026-01-03 00:05:56.24	126.39	63.31	-29.4	-30.9	14.4	0.00e+00	0	43	0	708837376	18	4259
2026-01-03 00:05:59.26	129.25	62.79	-29.2	-29.9	14.6	2.20e-06	0	43	0	714080256	19	3885
2026-01-03 00:06:02.28	131.98	62.23	-28.7	-29.0	15.4	1.50e-06	0	43	0	719323136	18	3749
2026-01-03 00:06:05.30	134.58	61.61	-28.5	-29.2	15.6	0.00e+00	0	43	0	725614592	17	3896
2026-01-03 00:06:08.31	137.05	60.96	-28.0	-28.9	16.2	0.00e+00	0	43	0	730857472	15	4024
2026-01-03 00:06:11.33	139.39	60.27	-26.8	-26.1	17.7	0.00e+00	0	43	0	737148928	15	3345
2026-01-03 00:06:14.35	141.61	59.54	-26.2	-26.3	18.4	0.00e+00	0	43	0	742391808	12	3650
2026-01-03 00:06:17.36	143.70	58.79	-26.7	-26.4	17.8	0.00e+00	0	43	0	747634688	14	3496
2026-01-03 00:06:20.38	145.68	58.02	-26.9	-27.5	17.5	0.00e+00	0	43	0	753926144	13	3854
2026-01-03 00:06:23.40	147.55	57.22	-26.3	-26.0	17.9	0.00e+00	0	43	0	759169024	13	3506
2026-01-03 00:06:26.41	149.31	56.41	-26.8	-26.6	16.8	9.61e-05	0	43	0	765460480	14	3543
2026-01-03 00:06:29.42	150.97	55.59	-26.5	-26.5	17.9	0.00e+00	0	43	0	770703360	13	3618
2026-01-03 00:06:32.44	152.54	54.76	-27.4	-28.1	16.9	0.00e+00	0	43	0	775946240	14	3895
2026-01-03 00:06:35.45	154.02	53.92	-27.6	-28.1	16.5	0.00e+00	0	43	0	782237696	15	3814
2026-01-03 00:06:38.46	155.41	53.08	-30.0	-31.6	13.1	1.50e-06	0	43	0	787480576	20	4327
2026-01-03 00:06:41.48	156.73	52.24	-28.9	-29.8	14.9	0.00e+00	0	43	0	792723456	18	3954
2026-01-03 00:06:44.50	157.98	51.39	-30.0	-31.5	13.1	1.52e-04	0	43	0	799014912	20	4297
2026-01-03 00:06:47.51	159.15	50.55	-30.3	-32.5	12.3	2.85e-04	0	43	0	804257792	20	4632
2026-01-03 00:06:50.53	160.27	49.71	-30.7	-33.1	11.7	3.60e-04	0	43	0	810549248	21	4750
2026-01-03 00:06:53.54	161.33	48.88	-30.7	-32.6	11.7	1.15e-03	0	43	0	815792128	22	4483
2026-01-03 00:06:56.56	162.33	48.05	-30.9	-33.9	11.1	1.08e-03	0	43	0	821035008	21	5049
2026-01-03 00:06:59.58	163.28	47.23	-29.5	-30.8	13.9	1.22e-05	0	43	0	827326464	19	4174
2026-01-03 00:07:02.60	164.19	46.42	-31.0	-33.8	10.7	1.35e-03	0	43	0	832569344	22	4974
2026-01-03 00:07:05.61	165.04	45.62	-30.4	-32.4	12.1	1.45e-03	0	43	0	838860800	21	4510
2026-01-03 00:07:08.64	165.86	44.82	-30.7	-33.2	11.5	6.32e-04	0	43	0	844103680	21	4806
2026-01-03 00:07:11.67	166.64	44.03	-32.7	-40.2	5.0	5.08e-01	0	43	0	849346560	25	8471
2026-01-03 00:07:14.69	167.39	43.25	-30.7	-32.5	11.6	4.30e-03	0	43	0	855638016	22	4471
2026-01-03 00:07:17.70	168.09	42.49	-30.9	-33.4	11.0	3.68e-03	0	43	0	860880896	22	4778
2026-01-03 00:07:20.72	168.77	41.74	-30.0	-31.3	12.7	5.88e-04	0	43	0	867172352	21	4168
2026-01-03 00:07:23.74	169.41	40.99	-27.8	-27.9	16.4	0.00e+00	0	43	0	872415232	16	3660
2026-01-03 00:07:26.76	170.03	40.26	-30.3	-32.5	12.3	8.62e-05	0	43	0	877658112	20	4646
2026-01-03 00:07:29.78	170.62	39.54	-31.2	-33.9	10.3	8.17e-03	0	43	0	883949568	23	4895
2026-01-03 00:07:32.80	171.19	38.83	-29.6	-30.4	13.6	3.72e-04	0	43	0	889192448	20	3976
2026-01-03 00:07:35.81	171.73	38.14	-29.7	-30.7	13.5	4.57e-05	0	43	0	895483904	20	4054
2026-01-03 00:07:38.83	172.25	37.45	-31.3	-34.6	10.1	3.68e-03	0	43	0	900726784	22	5272
2026-01-03 00:07:41.85	172.75	36.78	-30.8	-32.9	11.3	6.12e-03	0	43	0	905969664	22	4603
2026-01-03 00:07:44.86	173.23	36.12	-28.9	-29.1	14.8	3.80e-06	0	43	0	912261120	19	3710
2026-01-03 00:07:47.88	173.69	35.46	-28.6	-28.9	15.2	0.00e+00	0	43	0	917504000	18	3726
2026-01-03 00:07:50.89	174.13	34.83	-28.8	-30.0	14.3	2.21e-05	0	43	0	923795456	17	4125
2026-01-03 00:07:53.91	174.56	34.20	-30.1	-31.9	12.6	1.46e-04	0	43	0	929038336	20	4452
2026-01-03 00:07:56.93	174.97	33.58	-30.8	-33.6	11.0	2.38e-03	0	43	0	934281216	21	4968
2026-01-03 00:07:59.94	175.37	32.97	-31.0	-33.9	10.5	8.21e-03	0	43	0	940572672	22	5012
2026-01-03 00:08:02.96	175.75	32.38	-30.2	-31.8	12.3	6.13e-04	0	43	0	945815552	21	4336
2026-01-03 00:08:05.98	176.12	31.79	-29.8	-31.1	13.1	3.63e-04	0	43	0	952107008	20	4196
2026-01-03 00:08:09.00	176.48	31.21	-30.3	-32.7	12.1	4.36e-04	0	43	0	957349888	20	4721
2026-01-03 00:08:12.02	176.83	30.65	-30.5	-32.6	11.7	1.49e-03	0	43	0	962592768	21	4609
2026-01-03 00:08:15.04	177.16	30.09	-30.4	-32.4	11.8	1.14e-03	0	43	0	968884224	21	4538
2026-01-03 00:08:18.06	177.49	29.54	-30.2	-32.4	12.2	1.19e-03	0	43	0	974127104	20	4622
2026-01-03 00:08:21.07	177.80	29.01	-30.0	-31.8	12.6	2.97e-04	0	43	0	980418560	20	4431
2026-01-03 00:08:24.08	178.10	28.48	-29.9	-32.0	12.9	6.28e-04	0	43	0	985661440	19	4562
2026-01-03 00:08:27.09	178.39	27.96	-28.8	-30.1	14.6	1.62e-03	0	43	0	990904320	17	4156
2026-01-03 00:08:30.12	178.68	27.45	-28.6	-29.5	15.0	7.00e-07	0	43	0	997195776	17	3993
2026-01-03 00:08:33.13	178.96	26.95	-28.3	-28.8	15.4	0.00e+00	0	43	0	1002438656	17	3817
2026-01-03 00:08:36.15	179.22	26.46	-28.4	-29.0	15.3	2.40e-03	0	43	0	1007681536	17	3862
2026-01-03 00:08:39.17	179.48	25.97	-28.3	-29.4	15.3	2.66e-03	0	43	0	1013972992	16	4078
2026-01-03 00:08:42.17	179.74	25.50	-28.5	-29.3	15.1	2.15e-03	0	43	0	1019215872	17	3956
2026-01-03 00:08:45.19	179.98	25.03	-29.3	-30.9	13.8	1.94e-03	0	43	0	1025507328	18	4311
2026-01-03 00:08:48.21	180.22	24.57	-29.0	-30.1	14.3	6.10e-06	0	43	0	1030750208	18	4091
2026-01-03 00:08:51.22	180.45	24.11	-28.8	-29.7	14.5	0.00e+00	0	43	0	1035993088	18	3953
2026-01-03 00:08:54.25	180.68	23.67	-28.6	-29.6	14.8	0.00e+00	0	43	0	1042284544	17	4030
2026-01-03 00:08:57.27	180.90	23.23	-28.6	-29.6	14.8	0.00e+00	0	43	0	1047527424	17	4049
2026-01-03 00:09:00.27	181.11	22.80	-28.5	-29.4	14.9	7.00e-07	0	43	0	1053818880	17	3984
2026-01-03 00:09:03.29	181.32	22.37	-28.3	-29.0	15.2	0.00e+00	0	43	0	1059061760	17	3873
2026-01-03 00:09:06.30	181.53	21.95	-27.7	-28.5	15.9	0.00e+00	0	43	0	1064304640	15	3932
2026-01-03 00:09:09.32	181.73	21.54	-28.4	-29.5	15.0	0.00e+00	0	43	0	1070596096	16	4120
2026-01-03 00:09:12.34	181.92	21.13	-28.8	-30.1	14.4	0.00e+00	0	43	0	1075838976	17	4195
2026-01-03 00:09:15.35	182.11	20.74	-29.1	-30.5	13.9	5.30e-06	0	43	0	1082130432	18	4221
2026-01-03 00:09:18.37	182.29	20.34	-29.2	-30.8	13.7	3.80e-06	0	43	0	1087373312	18	4295
2026-01-03 00:09:21.39	182.47	19.95	-28.7	-29.9	14.5	0.00e+00	0	43	0	1092616192	17	4128
2026-01-03 00:09:24.41	182.65	19.57	-28.2	-29.2	15.3	0.00e+00	0	43	0	1098907648	16	4015
2026-01-03 00:09:27.42	182.82	19.20	-27.9	-28.9	15.5	0.00e+00	0	43	0	1104150528	15	4066
2026-01-03 00:09:30.44	182.99	18.82	-27.7	-28.6	15.7	1.50e-06	0	43	0	1110441984	15	3977
2026-01-03 00:09:33.44	183.15	18.46	-28.2	-29.2	15.2	0.00e+00	0	43	0	1115684864	16	4036
2026-01-03 00:09:36.44	183.31	18.10	-28.3	-29.4	15.1	0.00e+00	0	43	0	1120927744	16	4077
2026-01-03 00:09:39.46	183.47	17.74	-28.3	-29.4	15.0	0.00e+00	0	43	0	1127219200	16	4098
2026-01-03 00:09:42.48	183.62	17.39	-28.2	-29.3	15.1	4.50e-06	0	43	0	1132462080	16	4057
2026-01-03 00:09:45.49	183.77	17.05	-28.2	-29.2	15.1	2.20e-06	0	43	0	1137704960	16	4039
2026-01-03 00:09:48.51	183.92	16.71	-28.2	-29.2	15.1	3.80e-06	0	43	0	1143996416	16	4045
2026-01-03 00:09:51.53	184.07	16.37	-28.6	-29.8	14.7	4.50e-06	0	43	0	1149239296	17	4113
2026-01-03 00:09:54.55	184.21	16.04	-28.6	-29.7	14.5	3.80e-06	0	43	0	1155530752	17	4073
2026-01-03 00:09:57.56	184.35	15.71	-29.1	-30.4	13.8	6.80e-06	0	43	0	1160773632	18	4186
2026-01-03 00:10:00.58	184.48	15.39	-29.3	-31.1	13.4	1.37e-05	0	43	0	1166016512	18	4406
2026-01-03 00:10:03.59	184.61	15.07	-29.6	-31.4	12.8	6.56e-05	0	43	0	1172307968	19	4419
2026-01-03 00:10:06.60	184.74	14.75	-29.8	-31.9	12.5	1.37e-04	0	43	0	1177550848	19	4585
2026-01-03 00:10:09.62	184.87	14.44	-29.9	-31.8	12.1	2.21e-04	0	43	0	1183842304	20	4497
2026-01-03 00:10:12.63	185.00	14.13	-30.2	-32.8	11.3	9.04e-04	0	43	0	1189085184	20	4856
2026-01-03 00:10:15.64	185.12	13.83	-30.2	-32.8	11.3	1.12e-03	0	43	0	1194328064	20	4837
2026-01-03 00:10:18.66	185.24	13.53	-30.4	-33.5	10.8	2.19e-03	0	43	0	1200619520	20	5109
2026-01-03 00:10:21.68	185.36	13.23	-30.4	-33.6	10.8	2.54e-03	0	43	0	1205862400	20	5150
2026-01-03 00:10:24.69	185.48	12.94	-30.5	-33.3	10.6	4.43e-03	0	43	0	1212153856	21	4945
2026-01-03 00:10:27.71	185.59	12.65	-30.4	-33.3	10.9	2.31e-03	0	43	0	1217396736	20	5059
2026-01-03 00:10:30.73	185.70	12.36	-30.4	-33.3	10.9	2.15e-03	0	43	0	1222639616	20	5060
2026-01-03 00:10:33.76	185.81	12.08	-30.2	-32.7	11.3	9.84e-04	0	43	0	1228931072	20	4832
2026-01-03 00:10:36.77	185.92	11.80	-30.0	-32.1	11.8	6.90e-04	0	43	0	1234173952	20	4602
2026-01-03 00:10:39.77	186.03	11.52	-29.9	-32.0	11.8	3.36e-04	0	43	0	1240465408	20	4551
2026-01-03 00:10:42.78	186.13	11.25	-29.7	-31.7	12.4	1.94e-04	0	43	0	1245708288	19	4549
2026-01-03 00:10:45.79	186.23	10.98	-29.6	-31.5	12.5	1.11e-04	0	44	0	1250951168	19	4487
2026-01-03 00:10:48.82	186.34	10.71	-29.3	-31.2	13.1	3.73e-05	0	43	0	1257242624	18	4456
2026-01-03 00:10:51.84	186.44	10.44	-29.6	-31.3	12.6	1.66e-04	0	43	0	1262485504	19	4426
2026-01-03 00:10:54.86	186.53	10.18	-29.4	-31.4	12.9	3.46e-04	0	43	0	1268776960	18	4533
2026-01-03 00:10:57.89	186.63	9.92	-29.4	-31.3	12.9	4.32e-04	0	43	0	1274019840	18	4521
2026-01-03 00:11:00.90	186.73	9.66	-29.7	-31.8	12.3	8.70e-04	0	43	0	1279262720	19	4589
2026-01-03 00:11:03.92	186.82	9.41	-29.2	-31.1	13.0	9.01e-04	0	43	0	1285554176	18	4436
2026-01-03 00:11:06.94	186.91	9.15	-29.2	-31.0	13.0	1.22e-03	0	43	0	1290797056	18	4426
2026-01-03 00:11:09.95	187.00	8.90	-29.3	-31.1	12.9	3.73e-05	0	44	0	1296039936	18	4446
2026-01-03 00:11:12.97	187.09	8.66	-29.2	-31.1	12.9	1.27e-03	0	43	0	1302331392	18	4451
2026-01-03 00:11:15.99	187.18	8.41	-29.2	-30.9	13.0	1.12e-03	0	43	0	1307574272	18	4382
2026-01-03 00:11:19.00	187.27	8.17	-29.3	-31.4	12.7	1.24e-03	0	43	0	1313865728	18	4550
2026-01-03 00:11:22.00	187.35	7.93	-29.5	-31.2	12.4	1.37e-03	0	43	0	1319108608	19	4418
2026-01-03 00:11:25.03	187.44	7.69	-29.5	-31.4	12.3	1.50e-03	0	43	0	1324351488	19	4478
2026-01-03 00:11:28.05	187.52	7.46	-29.7	-32.0	11.8	3.68e-04	0	43	0	1330642944	19	4691
2026-01-03 00:11:31.06	187.60	7.22	-29.9	-32.6	11.3	9.08e-04	0	43	0	1335885824	19	4940
2026-01-03 00:11:34.09	187.68	6.99	-32.5	-45.0	3.8	1.49e+00	0	43	104	1339031552	25	15111

#Closed at: 2026-01-03 00:11:34
#Recorded file [1339 MB]: D:/data/31010_260103_025938.dat