passes_logs/2026/01/02/R2M6_AANII_01/R2M6_AANII_01__20260102_125250_FENGYUN_3D_rec.log

#Pass ID: 20260102_125250_FENGYUN 3D
#Satellite: FENGYUN 3D
#Configuration: FENGYUN 3D
#almurnet v.1.7.20240730
#Start time: 2026-01-02 12:52:51

#Version: 2.2.20231116
#Station: R2M6_AANII_01
#Location: 30.233357 lon 59.946436 lat
#TLE: 1 43010U 17072A   26001.96529979  .00000409  00000+0  21503-3 0  9996
#TLE: 2 43010  98.9910 333.5811 0001886 133.0441 227.0893 14.19692048421405

#Time	Az	El	Level	Level2	SNR	BER	BlckErr	Temp	State	Recorded	gain1	gain2
2026-01-02 12:52:51.83	177.08	7.08	-27.1	-29.3	5.8	7.70e-01	0	41	0	0	14	4604
2026-01-02 12:52:54.84	177.19	7.31	-27.7	-29.5	12.7	1.99e-04	0	41	0	5242880	16	4440
2026-01-02 12:52:57.83	177.30	7.54	-26.4	-27.5	14.3	3.40e-06	0	41	0	22020096	14	4092
2026-01-02 12:53:00.84	177.41	7.77	-26.5	-27.8	14.1	2.20e-06	0	41	0	38797312	14	4166
2026-01-02 12:53:03.86	177.52	8.01	-26.4	-27.6	14.3	3.40e-06	0	41	0	55574528	14	4117
2026-01-02 12:53:06.87	177.64	8.25	-26.2	-27.6	14.6	2.20e-06	0	41	0	73400320	13	4210
2026-01-02 12:53:09.88	177.75	8.49	-26.1	-27.3	14.7	0.00e+00	0	42	0	90177536	13	4144
2026-01-02 12:53:12.88	177.87	8.73	-25.9	-26.8	15.1	0.00e+00	0	42	0	106954752	13	4016
2026-01-02 12:53:15.89	177.99	8.97	-25.8	-27.0	15.2	1.10e-06	0	42	0	123731968	12	4177
2026-01-02 12:53:18.91	178.12	9.22	-26.1	-27.7	14.8	0.00e+00	0	42	0	140509184	12	4364
2026-01-02 12:53:21.93	178.24	9.47	-26.0	-27.7	14.9	0.00e+00	0	42	0	157286400	12	4341
2026-01-02 12:53:24.94	178.37	9.72	-25.7	-26.9	15.4	0.00e+00	0	42	0	175112192	12	4144
2026-01-02 12:53:27.96	178.50	9.98	-25.6	-26.7	15.5	0.00e+00	0	42	0	191889408	12	4084
2026-01-02 12:53:30.97	178.63	10.23	-25.6	-26.6	15.5	0.00e+00	0	42	0	208666624	12	4063
2026-01-02 12:53:33.98	178.76	10.49	-25.6	-26.6	15.6	0.00e+00	0	42	0	225443840	12	4058
2026-01-02 12:53:36.98	178.89	10.75	-25.7	-26.9	15.4	0.00e+00	0	42	0	242221056	12	4137
2026-01-02 12:53:39.99	179.03	11.02	-25.9	-27.3	15.2	0.00e+00	0	42	0	258998272	12	4227
2026-01-02 12:53:43.00	179.17	11.28	-25.6	-26.7	15.6	0.00e+00	0	42	0	275775488	12	4078
2026-01-02 12:53:46.01	179.31	11.55	-25.7	-26.8	15.5	0.00e+00	0	42	0	293601280	12	4108
2026-01-02 12:53:49.02	179.46	11.83	-25.6	-26.8	15.5	0.00e+00	0	42	0	310378496	12	4100
2026-01-02 12:53:52.03	179.60	12.10	-25.7	-26.8	15.5	0.00e+00	0	42	0	327155712	12	4102
2026-01-02 12:53:55.03	179.75	12.38	-25.6	-26.6	15.6	0.00e+00	0	42	0	343932928	12	4063
2026-01-02 12:53:58.04	179.90	12.66	-25.6	-26.6	15.7	0.00e+00	0	43	0	360710144	12	4056
2026-01-02 12:54:01.04	180.06	12.94	-25.3	-26.1	16.0	0.00e+00	0	43	0	377487360	12	3924
2026-01-02 12:54:04.05	180.22	13.23	-25.3	-26.4	16.1	0.00e+00	0	43	0	394264576	11	4104
2026-01-02 12:54:07.06	180.38	13.52	-25.1	-26.0	16.4	0.00e+00	0	43	0	411041792	11	4006
2026-01-02 12:54:10.07	180.54	13.82	-25.0	-25.8	16.5	0.00e+00	0	43	0	428867584	11	3960
2026-01-02 12:54:13.08	180.71	14.12	-24.9	-25.7	16.6	0.00e+00	0	43	0	445644800	11	3929
2026-01-02 12:54:16.09	180.88	14.42	-24.9	-25.6	16.7	0.00e+00	0	43	0	462422016	11	3898
2026-01-02 12:54:19.10	181.05	14.72	-24.9	-25.6	16.6	0.00e+00	0	43	0	479199232	11	3897
2026-01-02 12:54:22.11	181.23	15.03	-24.8	-25.4	16.7	0.00e+00	0	43	0	495976448	11	3863
2026-01-02 12:54:25.13	181.41	15.35	-24.8	-25.8	16.8	0.00e+00	0	43	0	512753664	10	4061
2026-01-02 12:54:28.15	181.59	15.66	-24.7	-25.6	16.9	0.00e+00	0	43	0	530579456	10	4016
2026-01-02 12:54:31.15	181.78	15.98	-24.5	-25.3	17.1	0.00e+00	0	43	0	547356672	10	3945
2026-01-02 12:54:34.15	181.97	16.31	-24.6	-25.4	17.1	0.00e+00	0	43	0	564133888	10	3953
2026-01-02 12:54:37.16	182.16	16.63	-24.3	-25.3	17.4	0.00e+00	0	43	0	580911104	9	4043
2026-01-02 12:54:40.17	182.36	16.97	-24.1	-24.9	17.6	0.00e+00	0	43	0	597688320	9	3938
2026-01-02 12:54:43.19	182.57	17.30	-24.2	-25.1	17.5	0.00e+00	0	43	0	614465536	9	3987
2026-01-02 12:54:46.20	182.78	17.65	-24.1	-24.8	17.7	0.00e+00	0	43	0	631242752	9	3922
2026-01-02 12:54:49.21	182.99	17.99	-24.0	-24.7	17.8	0.00e+00	0	43	0	649068544	9	3886
2026-01-02 12:54:52.22	183.21	18.34	-23.8	-24.6	18.1	0.00e+00	0	43	0	665845760	8	3973
2026-01-02 12:54:55.23	183.43	18.70	-24.0	-25.1	17.8	0.00e+00	0	43	0	682622976	8	4103
2026-01-02 12:54:58.23	183.65	19.05	-24.0	-25.2	17.8	0.00e+00	0	43	0	699400192	8	4133
2026-01-02 12:55:01.23	183.88	19.42	-24.0	-25.1	17.9	0.00e+00	0	43	0	716177408	8	4092
2026-01-02 12:55:04.25	184.12	19.79	-23.8	-24.8	18.0	0.00e+00	0	43	0	732954624	8	4030
2026-01-02 12:55:07.26	184.37	20.16	-23.8	-24.7	18.1	0.00e+00	0	43	0	749731840	8	4009
2026-01-02 12:55:10.26	184.61	20.54	-23.6	-24.4	18.2	0.00e+00	0	43	0	766509056	8	3926
2026-01-02 12:55:13.28	184.87	20.93	-23.8	-24.7	18.1	0.00e+00	0	43	0	784334848	8	3992
2026-01-02 12:55:16.29	185.13	21.32	-23.8	-24.7	18.1	0.00e+00	0	43	0	801112064	8	3994
2026-01-02 12:55:19.31	185.40	21.72	-23.6	-24.3	18.4	0.00e+00	0	43	0	817889280	8	3893
2026-01-02 12:55:22.33	185.67	22.12	-23.4	-24.0	18.5	0.00e+00	0	43	0	834666496	8	3829
2026-01-02 12:55:25.34	185.96	22.53	-23.2	-23.9	18.8	0.00e+00	0	43	0	851443712	7	3909
2026-01-02 12:55:28.34	186.24	22.94	-23.0	-23.5	19.0	0.00e+00	0	43	0	869269504	7	3822
2026-01-02 12:55:31.37	186.54	23.36	-23.2	-23.9	18.8	0.00e+00	0	43	0	886046720	7	3911
2026-01-02 12:55:34.38	186.84	23.79	-23.1	-23.8	18.9	0.00e+00	0	43	0	902823936	7	3891
2026-01-02 12:55:37.40	187.16	24.22	-22.9	-23.4	19.1	0.00e+00	0	43	0	919601152	7	3786
2026-01-02 12:55:40.40	187.48	24.66	-22.9	-23.2	19.2	0.00e+00	0	43	0	936378368	7	3758
2026-01-02 12:55:43.41	187.80	25.10	-22.9	-23.3	19.1	0.00e+00	0	43	0	953155584	7	3778
2026-01-02 12:55:46.42	188.14	25.55	-23.1	-23.7	19.0	0.00e+00	0	43	0	969932800	7	3859
2026-01-02 12:55:49.44	188.49	26.01	-22.9	-23.2	19.2	0.00e+00	0	43	0	987758592	7	3756
2026-01-02 12:55:52.46	188.85	26.48	-22.8	-23.5	19.3	0.00e+00	0	43	0	1004535808	6	3929
2026-01-02 12:55:55.46	189.22	26.95	-22.8	-23.6	19.2	0.00e+00	0	43	0	1021313024	6	3956
2026-01-02 12:55:58.47	189.59	27.43	-22.9	-23.9	19.1	0.00e+00	0	43	0	1038090240	6	4025
2026-01-02 12:56:01.47	189.98	27.91	-22.8	-23.6	19.3	0.00e+00	0	43	0	1054867456	6	3947
2026-01-02 12:56:04.49	190.39	28.41	-22.9	-23.8	19.2	0.00e+00	0	43	0	1072693248	6	3986
2026-01-02 12:56:07.49	190.80	28.91	-22.9	-23.8	19.2	0.00e+00	0	43	0	1089470464	6	4001
2026-01-02 12:56:10.49	191.22	29.41	-22.8	-23.5	19.3	0.00e+00	0	43	0	1106247680	6	3927
2026-01-02 12:56:13.50	191.66	29.93	-22.8	-23.7	19.3	0.00e+00	0	43	0	1123024896	6	3978
2026-01-02 12:56:16.52	192.12	30.45	-22.8	-23.5	19.3	0.00e+00	0	43	0	1139802112	6	3937
2026-01-02 12:56:19.52	192.58	30.98	-22.7	-23.4	19.4	0.00e+00	0	43	0	1156579328	6	3903
2026-01-02 12:56:22.54	193.07	31.52	-22.8	-23.6	19.3	0.00e+00	0	43	0	1173356544	6	3956
2026-01-02 12:56:25.55	193.57	32.07	-22.6	-23.3	19.5	0.00e+00	0	43	0	1190133760	6	3867
2026-01-02 12:56:28.57	194.09	32.63	-22.8	-23.6	19.4	0.00e+00	0	43	0	1207959552	6	3942
2026-01-02 12:56:31.59	194.62	33.19	-22.5	-22.9	19.7	0.00e+00	0	43	0	1224736768	6	3782
2026-01-02 12:56:34.58	195.17	33.76	-22.5	-23.1	19.6	0.00e+00	0	43	0	1241513984	6	3829
2026-01-02 12:56:37.60	195.75	34.34	-22.4	-22.7	19.8	0.00e+00	0	43	0	1258291200	6	3744
2026-01-02 12:56:40.63	196.34	34.93	-22.4	-22.7	19.8	3.40e-06	0	43	0	1275068416	6	3742
2026-01-02 12:56:43.65	196.96	35.52	-22.4	-22.8	19.7	0.00e+00	0	43	0	1292894208	6	3769
2026-01-02 12:56:46.66	197.60	36.12	-22.2	-22.8	20.0	0.00e+00	0	43	0	1309671424	5	3876
2026-01-02 12:56:49.66	198.25	36.73	-22.2	-22.9	19.9	0.00e+00	0	43	0	1326448640	5	3890
2026-01-02 12:56:52.66	198.94	37.34	-22.1	-22.6	20.1	0.00e+00	0	43	0	1343225856	5	3832
2026-01-02 12:56:55.68	199.65	37.96	-22.0	-22.4	20.2	0.00e+00	0	43	0	1360003072	5	3779
2026-01-02 12:56:58.69	200.39	38.59	-22.3	-23.1	19.9	0.00e+00	0	43	0	1376780288	5	3939
2026-01-02 12:57:01.69	201.15	39.23	-22.5	-23.5	19.7	0.00e+00	0	43	0	1393557504	5	4027
2026-01-02 12:57:04.69	201.94	39.86	-22.5	-23.6	19.7	0.00e+00	0	43	0	1410334720	5	4041
2026-01-02 12:57:07.69	202.77	40.51	-22.4	-23.3	19.8	0.00e+00	0	43	0	1428160512	5	3981
2026-01-02 12:57:10.69	203.63	41.16	-22.5	-23.4	19.8	0.00e+00	0	43	0	1444937728	5	4000
2026-01-02 12:57:13.70	204.52	41.81	-22.5	-23.5	19.7	0.00e+00	0	43	0	1461714944	5	4036
2026-01-02 12:57:16.69	205.45	42.47	-22.5	-23.5	19.7	0.00e+00	0	43	0	1478492160	5	4029
2026-01-02 12:57:19.70	206.42	43.13	-22.5	-23.6	19.7	0.00e+00	0	43	0	1495269376	5	4046
2026-01-02 12:57:22.70	207.43	43.79	-22.4	-23.2	19.9	0.00e+00	0	43	0	1512046592	5	3954
2026-01-02 12:57:25.70	208.47	44.46	-22.9	-24.4	19.3	0.00e+00	0	43	0	1528823808	5	4262
2026-01-02 12:57:28.71	209.57	45.13	-22.6	-23.2	19.7	0.00e+00	0	43	0	1545601024	6	3850
2026-01-02 12:57:31.72	210.72	45.79	-22.8	-23.6	19.5	0.00e+00	0	43	0	1562378240	6	3945
2026-01-02 12:57:34.73	211.91	46.46	-23.0	-24.0	19.3	0.00e+00	0	43	0	1579155456	6	4045
2026-01-02 12:57:37.74	213.15	47.12	-23.0	-23.9	19.5	0.00e+00	0	43	0	1596981248	6	4009
2026-01-02 12:57:40.75	214.45	47.77	-22.7	-23.3	19.8	0.00e+00	0	43	0	1613758464	6	3864
2026-01-02 12:57:43.77	215.80	48.43	-23.5	-24.5	19.0	0.00e+00	0	43	0	1630535680	7	4046
2026-01-02 12:57:46.79	217.22	49.07	-23.0	-23.5	19.5	0.00e+00	0	44	0	1647312896	7	3789
2026-01-02 12:57:49.80	218.69	49.70	-23.1	-23.7	19.4	0.00e+00	0	43	0	1664090112	7	3838
2026-01-02 12:57:52.80	220.21	50.32	-23.0	-23.5	19.5	0.00e+00	0	43	0	1680867328	7	3786
2026-01-02 12:57:55.81	221.80	50.93	-23.0	-23.6	19.5	0.00e+00	0	43	0	1698693120	7	3820
2026-01-02 12:57:58.82	223.46	51.52	-23.2	-23.8	19.4	0.00e+00	0	43	0	1715470336	7	3878
2026-01-02 12:58:01.82	225.17	52.09	-23.3	-24.0	19.3	0.00e+00	0	43	0	1732247552	7	3927
2026-01-02 12:58:04.83	226.96	52.64	-23.1	-23.6	19.5	0.00e+00	0	43	0	1749024768	7	3826
2026-01-02 12:58:07.85	228.82	53.17	-23.3	-24.2	19.2	0.00e+00	0	44	0	1765801984	7	3950
2026-01-02 12:58:10.87	230.74	53.68	-23.4	-24.3	19.1	0.00e+00	0	43	0	1782579200	7	3995
2026-01-02 12:58:13.88	232.72	54.15	-23.3	-24.1	19.3	0.00e+00	0	43	0	1799356416	7	3939
2026-01-02 12:58:16.89	234.77	54.59	-23.4	-24.3	19.1	0.00e+00	0	43	0	1817182208	7	3999
2026-01-02 12:58:19.89	236.87	55.00	-23.5	-24.4	19.1	0.00e+00	0	43	0	1833959424	7	4020
2026-01-02 12:58:22.91	239.05	55.38	-23.6	-24.6	19.0	0.00e+00	0	43	0	1850736640	7	4062
2026-01-02 12:58:25.92	241.27	55.71	-23.4	-24.2	19.2	0.00e+00	0	43	0	1867513856	7	3964
2026-01-02 12:58:28.92	243.54	56.00	-23.4	-24.2	19.2	0.00e+00	0	43	0	1884291072	7	3971
2026-01-02 12:58:31.92	245.84	56.26	-23.4	-24.4	19.1	0.00e+00	0	43	0	1901068288	7	4001
2026-01-02 12:58:34.92	248.19	56.46	-23.6	-24.6	19.0	0.00e+00	0	43	0	1917845504	7	4058
2026-01-02 12:58:37.94	250.58	56.62	-24.1	-25.3	18.4	0.00e+00	0	44	0	1935671296	8	4131
2026-01-02 12:58:40.96	253.00	56.74	-24.4	-25.9	18.1	0.00e+00	0	44	0	1952448512	8	4282
2026-01-02 12:58:43.96	255.42	56.80	-24.1	-24.7	18.5	0.00e+00	0	43	0	1969225728	9	3875
2026-01-02 12:58:46.97	257.85	56.82	-24.0	-24.6	18.6	0.00e+00	0	44	0	1986002944	9	3836
2026-01-02 12:58:49.97	260.27	56.79	-24.0	-25.1	18.5	0.00e+00	0	43	0	2002780160	8	4082
2026-01-02 12:58:52.99	262.70	56.71	-23.6	-24.3	19.0	0.00e+00	0	43	0	2019557376	8	3872
2026-01-02 12:58:55.99	265.09	56.58	-23.4	-23.7	19.3	0.00e+00	0	44	0	2037383168	8	3745
2026-01-02 12:58:58.99	267.46	56.40	-23.4	-23.8	19.2	0.00e+00	0	43	0	2054160384	8	3755
2026-01-02 12:59:02.00	269.80	56.18	-24.2	-25.4	18.4	0.00e+00	0	43	0	2070937600	8	4147
2026-01-02 12:59:05.00	272.10	55.92	-23.4	-23.9	19.2	0.00e+00	0	43	0	2087714816	8	3776
2026-01-02 12:59:08.01	274.35	55.61	-23.4	-23.7	19.3	0.00e+00	0	44	0	2104492032	8	3739
2026-01-02 12:59:11.02	276.56	55.27	-24.0	-25.0	18.6	0.00e+00	0	44	0	2121269248	8	4052
2026-01-02 12:59:14.02	278.70	54.88	-23.7	-24.5	18.9	0.00e+00	0	44	0	2138046464	8	3923
2026-01-02 12:59:17.02	280.78	54.46	-23.6	-24.2	19.0	0.00e+00	0	43	0	2154823680	8	3859
2026-01-02 12:59:20.03	282.80	54.01	-23.4	-23.8	19.2	0.00e+00	0	43	0	2171600896	8	3769
2026-01-02 12:59:23.05	284.77	53.53	-23.4	-24.3	19.2	0.00e+00	0	43	0	2189426688	7	3991
2026-01-02 12:59:26.07	286.67	53.02	-23.2	-23.8	19.4	0.00e+00	0	43	0	2206203904	7	3869
2026-01-02 12:59:29.09	288.51	52.48	-23.3	-24.0	19.3	0.00e+00	0	44	0	2222981120	7	3910
2026-01-02 12:59:32.10	290.27	51.93	-23.3	-24.1	19.3	0.00e+00	0	43	0	2239758336	7	3942
2026-01-02 12:59:35.10	291.96	51.35	-23.0	-23.4	19.6	0.00e+00	0	44	0	2256535552	7	3786
2026-01-02 12:59:38.11	293.59	50.76	-23.4	-24.2	19.3	0.00e+00	0	44	0	2273312768	7	3958
2026-01-02 12:59:41.13	295.17	50.15	-23.1	-23.7	19.5	0.00e+00	0	44	0	2290089984	7	3831
2026-01-02 12:59:44.14	296.68	49.52	-23.3	-24.0	19.4	0.00e+00	0	43	0	2307915776	7	3908
2026-01-02 12:59:47.16	298.13	48.89	-22.9	-23.3	19.7	0.00e+00	0	44	0	2324692992	7	3756
2026-01-02 12:59:50.16	299.51	48.25	-22.7	-23.4	19.9	0.00e+00	0	44	0	2341470208	6	3882
2026-01-02 12:59:53.17	300.84	47.60	-23.0	-24.0	19.6	0.00e+00	0	44	0	2358247424	6	4024
2026-01-02 12:59:56.17	302.12	46.95	-23.1	-24.2	19.5	0.00e+00	0	43	0	2375024640	6	4074
2026-01-02 12:59:59.18	303.34	46.29	-23.1	-24.1	19.5	0.00e+00	0	44	0	2391801856	6	4035
2026-01-02 13:00:02.20	304.52	45.62	-23.2	-23.8	19.4	0.00e+00	0	43	0	2409627648	7	3867
2026-01-02 13:00:05.20	305.65	44.96	-23.4	-24.3	19.1	0.00e+00	0	44	0	2426404864	7	3993
2026-01-02 13:00:08.22	306.73	44.29	-23.0	-23.4	19.6	0.00e+00	0	44	0	2443182080	7	3787
2026-01-02 13:00:11.23	307.77	43.63	-22.9	-23.2	19.7	0.00e+00	0	44	0	2459959296	7	3730
2026-01-02 13:00:14.24	308.77	42.97	-23.2	-24.4	19.3	0.00e+00	0	44	0	2476736512	6	4136
2026-01-02 13:00:17.25	309.72	42.31	-22.8	-23.4	19.8	0.00e+00	0	44	0	2493513728	6	3886
2026-01-02 13:00:20.28	310.65	41.65	-23.1	-24.2	19.4	0.00e+00	0	43	0	2510290944	6	4071
2026-01-02 13:00:23.29	311.53	41.00	-22.8	-23.5	19.7	0.00e+00	0	44	0	2528116736	6	3915
2026-01-02 13:00:26.30	312.38	40.35	-23.0	-24.0	19.5	0.00e+00	0	43	0	2544893952	6	4025
2026-01-02 13:00:29.31	313.20	39.71	-23.0	-23.9	19.5	0.00e+00	0	44	0	2561671168	6	4007
2026-01-02 13:00:32.32	313.98	39.07	-23.1	-24.2	19.4	0.00e+00	0	44	0	2578448384	6	4064
2026-01-02 13:00:35.34	314.74	38.44	-22.8	-23.5	19.8	0.00e+00	0	44	0	2595225600	6	3901
2026-01-02 13:00:38.35	315.47	37.82	-22.5	-22.9	20.0	0.00e+00	0	44	0	2613051392	6	3772
2026-01-02 13:00:41.35	316.17	37.20	-22.5	-22.9	20.1	0.00e+00	0	44	0	2629828608	6	3760
2026-01-02 13:00:44.37	316.85	36.59	-22.2	-22.9	20.3	0.00e+00	0	43	0	2646605824	5	3870
2026-01-02 13:00:47.39	317.50	35.99	-22.3	-22.9	20.2	0.00e+00	0	44	0	2663383040	5	3887
2026-01-02 13:00:50.39	318.12	35.39	-22.5	-23.3	20.0	0.00e+00	0	44	0	2680160256	5	3979
2026-01-02 13:00:53.40	318.73	34.80	-22.5	-23.4	20.0	0.00e+00	0	44	0	2696937472	5	3984
2026-01-02 13:00:56.41	319.32	34.22	-22.6	-23.6	19.9	0.00e+00	0	43	0	2713714688	5	4037
2026-01-02 13:00:59.42	319.88	33.65	-22.4	-23.2	20.1	0.00e+00	0	43	0	2730491904	5	3953
2026-01-02 13:01:02.41	320.43	33.09	-22.6	-23.5	19.9	0.00e+00	0	43	0	2748317696	5	4020
2026-01-02 13:01:05.42	320.95	32.53	-22.7	-23.9	19.7	0.00e+00	0	43	0	2765094912	5	4112
2026-01-02 13:01:08.42	321.46	31.99	-23.0	-24.0	19.5	0.00e+00	0	44	0	2781872128	6	4033
2026-01-02 13:01:11.44	321.96	31.44	-23.4	-24.7	19.1	0.00e+00	0	44	0	2798649344	6	4213
2026-01-02 13:01:14.45	322.44	30.91	-23.1	-24.1	19.4	0.00e+00	0	44	0	2815426560	6	4047
2026-01-02 13:01:17.45	322.90	30.38	-22.9	-23.8	19.5	0.00e+00	0	44	0	2832203776	6	3966
2026-01-02 13:01:20.46	323.35	29.87	-22.9	-23.7	19.6	0.00e+00	0	44	0	2848980992	6	3957
2026-01-02 13:01:23.47	323.79	29.35	-23.2	-24.3	19.2	0.00e+00	0	43	0	2865758208	6	4108
2026-01-02 13:01:26.50	324.21	28.85	-23.2	-24.4	19.2	0.00e+00	0	44	0	2883584000	6	4143
2026-01-02 13:01:29.50	324.62	28.35	-23.2	-24.3	19.2	0.00e+00	0	43	0	2900361216	6	4101
2026-01-02 13:01:32.52	325.02	27.86	-23.1	-23.6	19.3	0.00e+00	0	44	0	2917138432	7	3829
2026-01-02 13:01:35.53	325.41	27.38	-22.9	-23.2	19.5	0.00e+00	0	44	0	2933915648	7	3730
2026-01-02 13:01:38.53	325.78	26.91	-22.8	-23.1	19.5	0.00e+00	0	43	0	2950692864	7	3724
2026-01-02 13:01:41.55	326.15	26.44	-22.8	-23.1	19.5	0.00e+00	0	44	0	2968518656	7	3722
2026-01-02 13:01:44.56	326.50	25.98	-22.9	-23.3	19.4	0.00e+00	0	44	0	2985295872	7	3762
2026-01-02 13:01:47.57	326.85	25.52	-23.4	-24.2	19.0	0.00e+00	0	44	0	3002073088	7	3968
2026-01-02 13:01:50.58	327.19	25.08	-23.3	-24.0	19.1	0.00e+00	0	43	0	3018850304	7	3918
2026-01-02 13:01:53.58	327.51	24.64	-23.5	-24.4	18.9	0.00e+00	0	43	0	3035627520	7	4020
2026-01-02 13:01:56.60	327.83	24.20	-23.6	-24.7	18.7	0.00e+00	0	44	0	3052404736	7	4090
2026-01-02 13:01:59.61	328.14	23.77	-23.6	-24.8	18.7	0.00e+00	0	44	0	3069181952	7	4122
2026-01-02 13:02:02.63	328.44	23.35	-23.6	-24.7	18.7	0.00e+00	0	44	0	3087007744	7	4105
2026-01-02 13:02:05.64	328.74	22.94	-23.6	-24.7	18.7	0.00e+00	0	44	0	3103784960	7	4100
2026-01-02 13:02:08.64	329.03	22.53	-23.5	-24.6	18.7	0.00e+00	0	43	0	3120562176	7	4066
2026-01-02 13:02:11.65	329.31	22.12	-23.7	-25.0	18.5	0.00e+00	0	44	0	3137339392	7	4169
2026-01-02 13:02:14.65	329.58	21.73	-23.9	-24.8	18.4	0.00e+00	0	44	0	3154116608	8	4005
2026-01-02 13:02:17.65	329.84	21.33	-24.1	-25.2	18.1	0.00e+00	0	44	0	3170893824	8	4110
2026-01-02 13:02:20.66	330.10	20.95	-23.9	-24.9	18.3	0.00e+00	0	44	0	3187671040	8	4025
2026-01-02 13:02:23.67	330.36	20.57	-23.9	-24.9	18.3	0.00e+00	0	44	0	3204448256	8	4022
2026-01-02 13:02:26.67	330.61	20.19	-24.1	-25.3	18.1	0.00e+00	0	44	0	3222274048	8	4133
2026-01-02 13:02:29.68	330.85	19.82	-24.4	-25.5	17.7	0.00e+00	0	44	0	3239051264	9	4073
2026-01-02 13:02:32.69	331.09	19.45	-24.4	-25.4	17.7	0.00e+00	0	44	0	3255828480	9	4043
2026-01-02 13:02:35.70	331.32	19.09	-24.5	-25.7	17.6	0.00e+00	0	44	0	3272605696	9	4113
2026-01-02 13:02:38.71	331.55	18.73	-24.4	-25.4	17.7	0.00e+00	0	43	0	3289382912	9	4031
2026-01-02 13:02:41.71	331.77	18.38	-24.5	-25.6	17.6	0.00e+00	0	44	0	3306160128	9	4103
2026-01-02 13:02:44.72	331.99	18.04	-24.6	-25.8	17.4	0.00e+00	0	44	0	3322937344	9	4156
2026-01-02 13:02:47.72	332.20	17.69	-24.6	-25.9	17.4	0.00e+00	0	44	0	3339714560	9	4174
2026-01-02 13:02:50.73	332.41	17.36	-24.9	-26.5	17.1	0.00e+00	0	44	0	3357540352	9	4326
2026-01-02 13:02:53.74	332.61	17.02	-25.4	-27.0	16.5	0.00e+00	0	44	0	3374317568	10	4355
2026-01-02 13:02:56.74	332.81	16.69	-25.3	-26.5	16.5	0.00e+00	0	44	0	3391094784	11	4102
2026-01-02 13:02:59.75	333.01	16.37	-25.4	-26.7	16.4	0.00e+00	0	44	0	3407872000	11	4164
2026-01-02 13:03:02.77	333.20	16.04	-25.5	-26.9	16.3	0.00e+00	0	44	0	3424649216	11	4215
2026-01-02 13:03:05.78	333.39	15.73	-25.8	-27.5	15.9	0.00e+00	0	44	0	3441426432	11	4371
2026-01-02 13:03:08.80	333.57	15.41	-25.7	-27.3	16.0	0.00e+00	0	44	0	3459252224	11	4312
2026-01-02 13:03:11.81	333.75	15.10	-25.8	-27.4	16.0	0.00e+00	0	44	0	3476029440	11	4354
2026-01-02 13:03:14.82	333.93	14.79	-26.0	-27.3	15.6	0.00e+00	0	44	0	3492806656	12	4224
2026-01-02 13:03:17.83	334.10	14.49	-26.2	-28.0	15.3	0.00e+00	0	44	0	3509583872	12	4400
2026-01-02 13:03:20.84	334.28	14.19	-26.5	-28.1	14.9	0.00e+00	0	43	0	3526361088	13	4316
2026-01-02 13:03:23.84	334.44	13.90	-26.3	-27.6	15.2	1.10e-06	0	44	0	3543138304	13	4172
2026-01-02 13:03:26.85	334.61	13.60	-26.3	-27.5	15.2	0.00e+00	0	44	0	3559915520	13	4171
2026-01-02 13:03:29.86	334.77	13.31	-25.9	-26.7	15.6	0.00e+00	0	44	0	3577741312	13	3951
2026-01-02 13:03:32.86	334.93	13.03	-26.1	-27.1	15.4	0.00e+00	0	44	0	3594518528	13	4061
2026-01-02 13:03:35.88	335.09	12.75	-25.9	-26.8	15.5	0.00e+00	0	44	0	3611295744	13	3977
2026-01-02 13:03:38.90	335.24	12.46	-25.8	-26.5	15.7	0.00e+00	0	44	0	3628072960	13	3905
2026-01-02 13:03:41.91	335.39	12.19	-25.9	-26.6	15.6	0.00e+00	0	44	0	3644850176	13	3928
2026-01-02 13:03:44.93	335.54	11.91	-25.9	-26.8	15.5	0.00e+00	0	44	0	3661627392	13	3988
2026-01-02 13:03:47.94	335.69	11.64	-26.0	-27.0	15.4	0.00e+00	0	44	0	3679453184	13	4020
2026-01-02 13:03:50.96	335.83	11.37	-26.0	-26.9	15.4	0.00e+00	0	44	0	3696230400	13	4011
2026-01-02 13:03:53.97	335.97	11.11	-26.3	-27.6	15.0	0.00e+00	0	44	0	3713007616	13	4188
2026-01-02 13:03:56.99	336.11	10.84	-26.2	-27.4	15.1	0.00e+00	0	44	0	3729784832	13	4139
2026-01-02 13:04:00.01	336.25	10.58	-26.4	-27.8	14.9	0.00e+00	0	44	0	3746562048	13	4229
2026-01-02 13:04:03.01	336.38	10.33	-26.3	-27.7	14.9	0.00e+00	0	44	0	3763339264	13	4211
2026-01-02 13:04:06.02	336.51	10.07	-26.3	-27.7	14.9	1.10e-06	0	44	0	3780116480	13	4222
2026-01-02 13:04:09.02	336.64	9.82	-26.5	-28.1	14.7	1.10e-06	0	44	0	3797942272	13	4323
2026-01-02 13:04:12.02	336.77	9.57	-26.7	-28.6	14.3	2.20e-06	0	44	0	3814719488	13	4458
2026-01-02 13:04:15.02	336.90	9.33	-27.1	-28.9	13.9	6.80e-06	0	44	0	3831496704	14	4446
2026-01-02 13:04:18.04	337.02	9.08	-26.7	-28.1	14.3	3.40e-06	0	44	0	3848273920	14	4219
2026-01-02 13:04:21.04	337.14	8.84	-26.7	-28.1	14.3	2.20e-06	0	44	0	3865051136	14	4231
2026-01-02 13:04:24.05	337.27	8.60	-26.9	-28.5	14.0	2.20e-06	0	44	0	3881828352	14	4336
2026-01-02 13:04:27.06	337.38	8.36	-26.8	-28.2	14.1	2.20e-06	0	44	0	3898605568	14	4248
2026-01-02 13:04:30.08	337.50	8.12	-26.8	-28.3	14.1	3.40e-06	0	44	0	3915382784	14	4271
2026-01-02 13:04:33.10	337.62	7.89	-26.9	-28.6	13.9	6.80e-06	0	44	0	3933208576	14	4376
2026-01-02 13:04:36.10	337.73	7.66	-27.0	-28.8	13.7	9.10e-06	0	43	0	3949985792	14	4432
2026-01-02 13:04:39.11	337.85	7.43	-27.0	-28.8	13.7	1.14e-05	0	44	0	3966763008	14	4422
2026-01-02 13:04:42.12	337.96	7.20	-27.0	-28.9	13.7	1.83e-05	0	44	0	3983540224	14	4458
2026-01-02 13:04:45.15	338.07	6.97	-33.1	-44.3	3.8	8.47e-01	0	44	104	3990880256	26	13030

#Closed at: 2026-01-02 13:04:47
#Recorded file [3990 MB]: D:/data/31010_260102_155253.dat