passes_logs/2026/01/02/R2M6_AANII_01/R2M6_AANII_01__20260102_030715_FENGYUN_3E_rec.log

#Pass ID: 20260102_030715_FENGYUN 3E
#Satellite: FENGYUN 3E
#Configuration: FENGYUN 3E
#almurnet v.1.7.20240730
#Start time: 2026-01-02 03:12:00

#Version: 2.2.20231116
#Station: R2M6_AANII_01
#Location: 30.233357 lon 59.946436 lat
#TLE: 1 49008U 21062A   26001.26445318  .00000475  00000+0  24453-3 0  9990
#TLE: 2 49008  98.7480   6.5551 0001357 167.8415 192.2795 14.19884467232890

#Time	Az	El	Level	Level2	SNR	BER	BlckErr	Temp	State	Recorded	gain1	gain2
2026-01-02 03:12:00.33	80.21	26.05	-33.1	-44.3	3.8	8.47e-01	0	43	0	0	26	13049
2026-01-02 03:12:02.32	80.81	26.10	-33.6	-43.1	3.8	8.45e-01	0	44	104	0	27	10746
2026-01-02 03:12:04.33	81.41	26.15	-33.7	-43.3	3.8	8.46e-01	0	44	104	0	27	10804
2026-01-02 03:12:06.33	82.02	26.20	-33.7	-43.2	3.8	8.46e-01	0	43	104	0	27	10785
2026-01-02 03:12:08.33	82.62	26.24	-33.7	-43.2	3.8	8.46e-01	0	44	104	0	27	10774
2026-01-02 03:12:10.31	83.22	26.28	-33.7	-43.2	3.8	8.44e-01	0	44	104	0	27	10761
2026-01-02 03:12:12.30	83.83	26.32	-33.6	-43.1	3.8	8.46e-01	0	43	104	0	27	10726
2026-01-02 03:12:14.29	84.43	26.35	-33.6	-43.1	3.8	8.46e-01	0	44	104	0	27	10736
2026-01-02 03:12:16.28	85.04	26.38	-33.6	-43.1	3.8	8.47e-01	0	44	104	0	27	10693
2026-01-02 03:12:18.27	85.65	26.41	-33.6	-43.1	3.8	8.46e-01	0	44	104	0	27	10718
2026-01-02 03:12:20.28	86.27	26.43	-33.5	-43.0	3.8	8.47e-01	0	43	104	0	27	10649
2026-01-02 03:12:22.27	86.88	26.45	-33.6	-43.1	3.8	8.47e-01	0	44	104	0	27	10734
2026-01-02 03:12:24.26	87.49	26.47	-33.6	-43.1	3.8	8.47e-01	0	44	104	0	27	10711
2026-01-02 03:12:26.26	88.10	26.48	-33.5	-42.9	3.8	8.45e-01	0	44	104	0	27	10568
2026-01-02 03:12:28.26	88.72	26.49	-33.3	-42.5	3.8	8.46e-01	0	44	104	0	27	10356
2026-01-02 03:12:30.25	89.33	26.49	-33.3	-42.3	3.8	8.47e-01	0	44	104	0	27	10215
2026-01-02 03:12:32.24	89.94	26.50	-33.3	-42.3	3.8	8.46e-01	0	44	104	0	27	10202
2026-01-02 03:12:34.23	90.56	26.50	-33.2	-42.0	3.8	8.46e-01	0	44	104	0	27	9919
2026-01-02 03:12:36.22	91.17	26.49	-33.2	-41.8	3.8	8.45e-01	0	44	104	0	27	9726
2026-01-02 03:12:38.22	91.79	26.48	-33.2	-41.4	3.8	8.46e-01	0	44	104	0	27	9333
2026-01-02 03:12:40.21	92.40	26.47	-33.2	-41.7	3.8	8.47e-01	0	44	104	0	27	9632
2026-01-02 03:12:42.20	93.01	26.46	-33.2	-41.8	3.8	8.45e-01	0	44	104	0	27	9667
2026-01-02 03:12:44.20	93.62	26.44	-33.2	-41.6	3.8	8.45e-01	0	44	104	0	27	9460
2026-01-02 03:12:46.18	94.23	26.42	-33.0	-40.6	3.8	8.45e-01	0	44	104	0	27	8597
2026-01-02 03:12:48.16	94.84	26.39	-32.9	-40.0	3.8	8.44e-01	0	44	104	0	27	8120
2026-01-02 03:12:50.16	95.45	26.36	-31.7	-35.4	4.5	8.13e-01	0	44	104	0	24	5518
2026-01-02 03:12:52.15	96.06	26.33	-27.2	-27.8	13.3	1.01e-04	0	44	0	5242880	15	3862
2026-01-02 03:12:54.15	96.67	26.30	-25.1	-25.1	16.0	0.00e+00	0	44	0	18874368	11	3628
2026-01-02 03:12:56.14	97.27	26.26	-25.7	-26.4	15.3	0.00e+00	0	44	0	33554432	11	3930
2026-01-02 03:12:58.14	97.88	26.22	-25.6	-26.2	15.4	0.00e+00	0	44	0	48234496	11	3868
2026-01-02 03:13:00.14	98.48	26.17	-25.0	-25.0	16.0	0.00e+00	0	44	0	62914560	11	3601
2026-01-02 03:13:02.11	99.08	26.12	-25.0	-25.0	16.1	0.00e+00	0	44	0	76546048	11	3593
2026-01-02 03:13:04.10	99.68	26.07	-25.2	-25.4	15.8	0.00e+00	0	44	0	91226112	11	3696
2026-01-02 03:13:06.11	100.28	26.02	-25.3	-25.5	15.7	0.00e+00	0	44	0	105906176	11	3719
2026-01-02 03:13:08.11	100.88	25.96	-23.9	-23.5	17.3	0.00e+00	0	44	0	119537664	9	3471
2026-01-02 03:13:10.11	101.47	25.90	-23.0	-22.8	18.2	0.00e+00	0	44	0	134217728	7	3497
2026-01-02 03:13:12.11	102.06	25.83	-22.7	-22.6	18.5	0.00e+00	0	44	0	148897792	6	3555
2026-01-02 03:13:14.09	102.65	25.77	-22.8	-22.8	18.4	0.00e+00	0	44	0	163577856	6	3609
2026-01-02 03:13:16.08	103.23	25.70	-22.9	-23.1	18.3	0.00e+00	0	44	0	178257920	6	3670
2026-01-02 03:13:18.08	103.82	25.63	-23.1	-23.5	18.1	0.00e+00	0	44	0	191889408	6	3756
2026-01-02 03:13:20.07	104.40	25.55	-22.8	-22.8	18.4	0.00e+00	0	44	0	206569472	6	3605
2026-01-02 03:13:22.06	104.98	25.47	-22.8	-22.8	18.4	0.00e+00	0	44	0	221249536	6	3610
2026-01-02 03:13:24.06	105.56	25.39	-22.9	-23.0	18.3	0.00e+00	0	44	0	234881024	6	3649
2026-01-02 03:13:26.05	106.13	25.31	-22.6	-22.4	18.6	0.00e+00	0	44	0	249561088	6	3513
2026-01-02 03:13:28.05	106.70	25.22	-22.9	-23.0	18.3	0.00e+00	0	44	0	264241152	6	3649
2026-01-02 03:13:30.05	107.27	25.13	-23.1	-23.5	18.1	0.00e+00	0	43	0	278921216	6	3753
2026-01-02 03:13:32.03	107.83	25.04	-23.2	-23.6	18.0	0.00e+00	0	44	0	292552704	6	3781
2026-01-02 03:13:34.02	108.39	24.94	-23.2	-23.7	17.9	0.00e+00	0	44	0	307232768	6	3810
2026-01-02 03:13:36.01	108.94	24.85	-23.0	-23.2	18.2	0.00e+00	0	44	0	321912832	6	3687
2026-01-02 03:13:37.99	109.49	24.75	-22.9	-23.1	18.0	0.00e+00	0	44	0	335544320	6	3670
2026-01-02 03:13:39.99	110.04	24.65	-22.8	-22.8	18.4	0.00e+00	0	44	0	350224384	6	3603
2026-01-02 03:13:41.98	110.59	24.54	-22.8	-22.9	18.3	0.00e+00	0	44	0	364904448	6	3622
2026-01-02 03:13:43.99	111.14	24.44	-22.9	-23.0	18.2	0.00e+00	0	44	0	379584512	6	3655
2026-01-02 03:13:45.99	111.68	24.33	-23.3	-23.8	17.8	0.00e+00	0	44	0	393216000	6	3834
2026-01-02 03:13:47.98	112.21	24.22	-23.1	-23.6	18.0	0.00e+00	0	44	0	407896064	6	3776
2026-01-02 03:13:49.98	112.75	24.10	-23.2	-23.6	17.9	0.00e+00	0	43	0	422576128	6	3793
2026-01-02 03:13:51.96	113.27	23.99	-23.2	-23.8	17.8	0.00e+00	0	44	0	436207616	6	3821
2026-01-02 03:13:53.95	113.79	23.87	-23.3	-23.9	17.7	0.00e+00	0	44	0	450887680	6	3854
2026-01-02 03:13:55.94	114.31	23.75	-23.2	-23.8	17.8	0.00e+00	0	44	0	465567744	6	3824
2026-01-02 03:13:57.93	114.83	23.63	-23.2	-23.7	17.8	0.00e+00	0	44	0	480247808	6	3804
2026-01-02 03:13:59.94	115.35	23.51	-23.1	-23.4	18.0	2.91e-04	0	44	0	493879296	6	3748
2026-01-02 03:14:01.92	115.85	23.39	-23.4	-24.0	17.7	0.00e+00	0	44	0	508559360	6	3871
2026-01-02 03:14:03.92	116.36	23.26	-23.4	-24.1	17.6	0.00e+00	0	44	0	523239424	6	3894
2026-01-02 03:14:05.91	116.86	23.13	-23.7	-24.3	17.2	0.00e+00	0	44	0	536870912	7	3841
2026-01-02 03:14:07.90	117.36	23.01	-23.7	-24.1	17.3	0.00e+00	0	44	0	551550976	7	3804
2026-01-02 03:14:09.89	117.85	22.88	-23.5	-23.8	17.4	0.00e+00	0	44	0	566231040	7	3735
2026-01-02 03:14:11.88	118.34	22.74	-23.5	-23.7	17.5	0.00e+00	0	44	0	580911104	7	3714
2026-01-02 03:14:13.87	118.82	22.61	-23.5	-23.8	17.5	0.00e+00	0	44	0	594542592	7	3722
2026-01-02 03:14:15.87	119.31	22.48	-23.5	-23.9	17.5	0.00e+00	0	44	0	609222656	7	3744
2026-01-02 03:14:17.87	119.78	22.34	-23.6	-23.9	17.4	3.77e-05	0	44	0	623902720	7	3755
2026-01-02 03:14:19.87	120.26	22.20	-23.8	-24.4	17.2	0.00e+00	0	44	0	637534208	7	3864
2026-01-02 03:14:21.84	120.72	22.07	-23.7	-24.3	17.3	0.00e+00	0	44	0	652214272	7	3841
2026-01-02 03:14:23.83	121.19	21.93	-23.4	-23.7	17.6	0.00e+00	0	44	0	666894336	7	3690
2026-01-02 03:14:25.83	121.65	21.79	-23.6	-23.9	17.5	0.00e+00	0	44	0	681574400	7	3745
2026-01-02 03:14:27.82	122.10	21.64	-23.6	-24.0	17.4	0.00e+00	0	44	0	695205888	7	3763
2026-01-02 03:14:29.81	122.56	21.50	-23.7	-24.2	17.3	0.00e+00	0	44	0	709885952	7	3814
2026-01-02 03:14:31.80	123.00	21.36	-23.7	-24.2	17.3	0.00e+00	0	44	0	724566016	7	3826
2026-01-02 03:14:33.80	123.45	21.21	-23.7	-24.1	17.3	0.00e+00	0	44	0	738197504	7	3803
2026-01-02 03:14:35.81	123.89	21.07	-23.4	-23.7	17.5	0.00e+00	0	44	0	752877568	7	3707
2026-01-02 03:14:37.81	124.33	20.92	-23.5	-23.8	17.4	0.00e+00	0	44	0	767557632	7	3732
2026-01-02 03:14:39.80	124.76	20.77	-23.5	-23.8	17.5	0.00e+00	0	44	0	782237696	7	3718
2026-01-02 03:14:41.78	125.19	20.63	-23.7	-24.3	17.2	0.00e+00	0	44	0	796917760	7	3837
2026-01-02 03:14:43.77	125.61	20.48	-23.5	-23.9	17.4	2.20e-06	0	44	0	810549248	7	3742
2026-01-02 03:14:45.76	126.03	20.33	-23.6	-24.1	17.3	0.00e+00	0	44	0	825229312	7	3793
2026-01-02 03:14:47.76	126.45	20.18	-23.8	-24.5	17.1	0.00e+00	0	44	0	838860800	7	3885
2026-01-02 03:14:49.76	126.86	20.03	-23.9	-24.7	17.0	0.00e+00	0	44	0	853540864	7	3941
2026-01-02 03:14:51.76	127.27	19.88	-24.1	-24.6	16.8	0.00e+00	0	44	0	868220928	8	3804
2026-01-02 03:14:53.74	127.68	19.73	-24.0	-24.5	16.8	2.63e-05	0	44	0	882900992	8	3784
2026-01-02 03:14:55.73	128.08	19.57	-24.0	-24.5	16.8	0.00e+00	0	44	0	897581056	8	3781
2026-01-02 03:14:57.72	128.47	19.42	-24.0	-24.5	16.8	0.00e+00	0	44	0	911212544	8	3782
2026-01-02 03:14:59.70	128.86	19.27	-23.9	-24.2	17.0	0.00e+00	0	44	0	925892608	8	3721
2026-01-02 03:15:01.69	129.25	19.12	-24.0	-24.3	16.9	7.43e-05	0	44	0	940572672	8	3748
2026-01-02 03:15:03.68	129.64	18.96	-24.0	-24.4	16.9	0.00e+00	0	44	0	954204160	8	3760
2026-01-02 03:15:05.68	130.02	18.81	-24.4	-25.2	16.4	0.00e+00	0	44	0	968884224	8	3959
2026-01-02 03:15:07.69	130.40	18.65	-24.9	-25.8	15.8	0.00e+00	0	44	0	983564288	9	3999
2026-01-02 03:15:09.68	130.77	18.50	-24.6	-25.1	16.1	0.00e+00	0	44	0	998244352	9	3831
2026-01-02 03:15:11.67	131.14	18.35	-24.4	-24.8	16.3	2.46e-04	0	44	0	1011875840	9	3762
2026-01-02 03:15:13.66	131.51	18.19	-24.2	-24.3	16.6	0.00e+00	0	44	0	1026555904	9	3628
2026-01-02 03:15:15.66	131.88	18.04	-24.0	-24.3	16.8	0.00e+00	0	44	0	1041235968	8	3749
2026-01-02 03:15:17.65	132.23	17.88	-23.9	-24.2	16.9	2.85e-04	0	44	0	1054867456	8	3719
2026-01-02 03:15:19.64	132.59	17.73	-23.9	-24.3	16.8	1.46e-04	0	44	0	1069547520	8	3735
2026-01-02 03:15:21.64	132.94	17.57	-24.1	-24.5	16.7	0.00e+00	0	44	0	1084227584	8	3787
2026-01-02 03:15:23.64	133.29	17.42	-24.2	-24.8	16.5	2.86e-04	0	44	0	1098907648	8	3873
2026-01-02 03:15:25.63	133.64	17.26	-24.5	-25.5	16.1	3.02e-04	0	44	0	1112539136	8	4044
2026-01-02 03:15:27.63	133.98	17.11	-24.9	-25.9	15.7	0.00e+00	0	44	0	1127219200	9	4015
2026-01-02 03:15:29.63	134.32	16.95	-24.9	-25.8	15.7	6.52e-05	0	44	0	1141899264	9	4002
2026-01-02 03:15:31.61	134.66	16.80	-24.8	-25.7	15.8	4.00e-05	0	44	0	1155530752	9	3965
2026-01-02 03:15:33.61	134.99	16.64	-24.9	-25.8	15.7	0.00e+00	0	44	0	1170210816	9	4010
2026-01-02 03:15:35.61	135.32	16.49	-24.7	-25.4	15.9	5.60e-05	0	44	0	1184890880	9	3900
2026-01-02 03:15:37.61	135.65	16.33	-24.5	-24.9	16.1	1.89e-04	0	44	0	1199570944	9	3794
2026-01-02 03:15:39.61	135.97	16.18	-24.2	-24.4	16.4	0.00e+00	0	44	0	1213202432	9	3675
2026-01-02 03:15:41.61	136.29	16.02	-24.4	-24.7	16.2	2.31e-04	0	44	0	1227882496	9	3738
2026-01-02 03:15:43.60	136.61	15.87	-24.5	-25.1	16.0	5.37e-05	0	44	0	1242562560	9	3822
2026-01-02 03:15:45.60	136.92	15.71	-24.6	-25.2	15.9	0.00e+00	0	44	0	1257242624	9	3860
2026-01-02 03:15:47.59	137.23	15.56	-24.8	-25.7	15.7	3.03e-04	0	44	0	1270874112	9	3981
2026-01-02 03:15:49.59	137.54	15.40	-25.0	-26.1	15.4	6.04e-04	0	44	0	1285554176	9	4066
2026-01-02 03:15:51.58	137.84	15.25	-25.1	-25.7	15.3	0.00e+00	0	44	0	1300234240	10	3884
2026-01-02 03:15:53.58	138.14	15.10	-25.1	-25.9	15.2	8.12e-05	0	44	0	1314914304	10	3917
2026-01-02 03:15:55.58	138.44	14.94	-25.0	-25.6	15.4	2.17e-05	0	44	0	1329594368	10	3854
2026-01-02 03:15:57.58	138.74	14.79	-24.8	-25.1	15.6	0.00e+00	0	44	0	1343225856	10	3738
2026-01-02 03:15:59.57	139.03	14.64	-24.7	-24.8	15.8	0.00e+00	0	44	0	1357905920	10	3664
2026-01-02 03:16:01.56	139.31	14.48	-24.7	-25.5	15.7	9.20e-04	0	44	0	1372585984	9	3934
2026-01-02 03:16:03.56	139.60	14.33	-24.7	-25.4	15.7	0.00e+00	0	44	0	1386217472	9	3912
2026-01-02 03:16:05.56	139.89	14.18	-24.8	-25.6	15.6	1.01e-03	0	44	0	1400897536	9	3955
2026-01-02 03:16:07.54	140.16	14.03	-25.0	-26.1	15.3	4.70e-04	0	44	0	1415577600	9	4074
2026-01-02 03:16:09.53	140.44	13.88	-24.9	-25.4	15.4	0.00e+00	0	44	0	1430257664	10	3808
2026-01-02 03:16:11.53	140.72	13.73	-25.0	-25.6	15.2	0.00e+00	0	44	0	1443889152	10	3865
2026-01-02 03:16:13.53	140.99	13.58	-25.0	-25.6	15.2	2.84e-04	0	44	0	1458569216	10	3874
2026-01-02 03:16:15.53	141.26	13.43	-25.1	-25.9	15.0	0.00e+00	0	44	0	1473249280	10	3928
2026-01-02 03:16:17.52	141.53	13.28	-25.2	-26.0	15.0	0.00e+00	0	44	0	1486880768	10	3953
2026-01-02 03:16:19.52	141.79	13.13	-25.1	-25.8	15.0	1.10e-06	0	44	0	1501560832	10	3909
2026-01-02 03:16:21.51	142.05	12.98	-25.1	-25.9	15.0	0.00e+00	0	44	0	1516240896	10	3929
2026-01-02 03:16:23.49	142.31	12.83	-25.2	-26.2	14.8	7.69e-04	0	44	0	1530920960	10	4021
2026-01-02 03:16:25.48	142.57	12.68	-25.2	-26.2	14.7	0.00e+00	0	44	0	1544552448	10	4021
2026-01-02 03:16:27.48	142.82	12.53	-25.3	-26.4	14.7	0.00e+00	0	44	0	1559232512	10	4054
2026-01-02 03:16:29.48	143.08	12.39	-25.5	-26.2	14.5	1.10e-06	0	44	0	1573912576	11	3904
2026-01-02 03:16:31.47	143.32	12.24	-25.3	-26.2	14.8	7.40e-04	0	44	0	1587544064	10	4017
2026-01-02 03:16:33.46	143.57	12.09	-25.3	-26.4	14.7	0.00e+00	0	44	0	1602224128	10	4046
2026-01-02 03:16:35.45	143.82	11.95	-25.6	-26.8	14.4	1.10e-06	0	44	0	1616904192	10	4175
2026-01-02 03:16:37.44	144.06	11.80	-25.5	-26.1	14.5	0.00e+00	0	44	0	1631584256	11	3893
2026-01-02 03:16:39.43	144.30	11.66	-25.6	-26.4	14.3	1.10e-06	0	44	0	1645215744	11	3960
2026-01-02 03:16:41.42	144.53	11.51	-25.9	-27.1	13.9	5.70e-06	0	44	0	1659895808	11	4153
2026-01-02 03:16:43.42	144.77	11.37	-26.0	-27.3	13.8	9.10e-06	0	44	0	1674575872	11	4191
2026-01-02 03:16:45.41	145.00	11.22	-25.7	-26.2	14.1	4.50e-06	0	44	0	1688207360	12	3810
2026-01-02 03:16:47.41	145.23	11.08	-25.7	-26.7	14.1	1.34e-03	0	44	0	1702887424	11	4038
2026-01-02 03:16:49.42	145.47	10.94	-25.7	-26.7	14.2	1.26e-03	0	44	0	1717567488	11	4029
2026-01-02 03:16:51.39	145.69	10.79	-25.6	-26.4	14.3	1.10e-06	0	44	0	1732247552	11	3965
2026-01-02 03:16:53.38	145.91	10.65	-25.8	-26.9	14.0	1.10e-06	0	44	0	1745879040	11	4081
2026-01-02 03:16:55.37	146.14	10.51	-26.0	-27.3	13.8	5.70e-06	0	44	0	1760559104	11	4195
2026-01-02 03:16:57.36	146.36	10.37	-26.1	-27.5	13.6	9.15e-05	0	44	0	1775239168	11	4260
2026-01-02 03:16:59.36	146.58	10.23	-26.1	-27.1	13.5	1.83e-05	0	44	0	1788870656	12	4056
2026-01-02 03:17:01.35	146.79	10.09	-26.0	-27.3	13.7	5.70e-06	0	44	0	1803550720	11	4207
2026-01-02 03:17:03.36	147.01	9.95	-26.0	-26.9	13.6	1.60e-05	0	44	0	1818230784	12	4002
2026-01-02 03:17:05.35	147.22	9.81	-25.9	-26.7	13.7	1.37e-05	0	44	0	1832910848	12	3958
2026-01-02 03:17:07.35	147.43	9.67	-25.9	-27.1	13.9	1.10e-06	0	44	0	1847590912	11	4141
2026-01-02 03:17:09.35	147.64	9.53	-25.6	-26.5	14.1	4.50e-06	0	44	0	1861222400	11	4000
2026-01-02 03:17:11.33	147.85	9.39	-25.6	-26.6	14.1	5.70e-06	0	44	0	1875902464	11	4018
2026-01-02 03:17:13.32	148.05	9.25	-25.7	-26.7	14.1	3.40e-06	0	44	0	1889533952	11	4035
2026-01-02 03:17:15.30	148.25	9.12	-25.8	-27.1	13.8	0.00e+00	0	44	0	1904214016	11	4159
2026-01-02 03:17:17.30	148.45	8.98	-26.0	-27.1	13.3	1.94e-05	0	44	0	1918894080	12	4071
2026-01-02 03:17:19.30	148.65	8.84	-26.0	-27.7	13.3	1.48e-05	0	44	0	1933574144	11	4350
2026-01-02 03:17:21.29	148.85	8.71	-26.1	-27.6	12.9	7.43e-05	0	44	0	1948254208	12	4261
2026-01-02 03:17:23.29	149.05	8.57	-26.2	-27.8	12.7	7.20e-05	0	44	0	1961885696	12	4342
2026-01-02 03:17:25.30	149.24	8.43	-26.3	-27.9	12.7	6.98e-05	0	44	0	1976565760	12	4345
2026-01-02 03:17:27.29	149.43	8.30	-26.3	-28.0	12.7	1.03e-04	0	44	0	1991245824	12	4360
2026-01-02 03:17:29.28	149.62	8.17	-26.3	-27.9	12.7	1.18e-04	0	44	0	2005925888	12	4324
2026-01-02 03:17:31.27	149.81	8.03	-26.2	-27.6	13.0	3.77e-05	0	44	0	2019557376	12	4203
2026-01-02 03:17:33.26	150.00	7.90	-26.3	-27.6	12.9	5.03e-05	0	44	0	2034237440	12	4210
2026-01-02 03:17:35.25	150.19	7.77	-26.4	-27.9	12.7	8.92e-05	0	44	0	2048917504	12	4279
2026-01-02 03:17:37.26	150.37	7.63	-26.4	-27.9	12.7	7.43e-05	0	44	0	2062548992	12	4283
2026-01-02 03:17:39.26	150.55	7.50	-26.3	-27.8	12.8	4.57e-05	0	44	0	2077229056	12	4263
2026-01-02 03:17:41.27	150.74	7.37	-26.4	-28.0	12.6	1.35e-04	0	44	0	2091909120	12	4335
2026-01-02 03:17:43.28	150.92	7.24	-26.4	-28.1	12.5	1.17e-04	0	44	0	2106589184	12	4358
2026-01-02 03:17:45.28	151.10	7.10	-29.6	-33.0	8.2	2.50e-03	0	44	0	2121269248	18	5375
2026-01-02 03:17:47.28	151.27	6.97	-32.9	-42.7	3.8	8.45e-01	0	44	104	2121269248	25	11137
2026-01-02 03:17:49.29	151.45	6.84	-33.3	-43.1	3.8	8.45e-01	0	44	104	2121269248	26	11020

#Closed at: 2026-01-02 03:17:49
#Recorded file [2121 MB]: D:/data/31010_260102_061251.dat