passes_logs/2026/01/02/R2M6_AANII_01/R2M6_AANII_01__20260102_103156_NOAA_20_JPSS-1_rec.log

#Pass ID: 20260102_103156_NOAA 20 (JPSS-1)
#Satellite: NOAA 20 (JPSS-1)
#Configuration: NOAA 20
#almurnet v.1.7.20240730
#Start time: 2026-01-02 10:31:58

#Version: 2.2.20231116
#Station: R2M6_AANII_01
#Location: 30.233357 lon 59.946436 lat
#TLE: 1 43013U 17073A   26001.30344297  .00000183  00000+0  10758-3 0  9995
#TLE: 2 43013  98.7621 302.3885 0001938  59.1624 300.9742 14.19532032420790

#Time	Az	El	Level	Level2	SNR	BER	BlckErr	Temp	State	Recorded	gain1	gain2
2026-01-02 10:31:58.09	166.85	7.10	-31.4	-37.2	4.9	1.31e+00	0	41	0	0	24	7088
2026-01-02 10:32:01.09	166.90	7.33	-31.2	-36.6	8.3	5.46e-02	0	41	0	1048576	23	6778
2026-01-02 10:32:04.11	166.96	7.57	-31.1	-36.3	8.6	4.23e-02	0	41	0	7340032	23	6549
2026-01-02 10:32:07.13	167.01	7.81	-30.6	-34.8	10.1	1.11e-02	0	41	0	12582912	22	5858
2026-01-02 10:32:10.14	167.06	8.05	-30.2	-34.0	11.0	2.17e-03	0	41	0	17825792	21	5594
2026-01-02 10:32:13.15	167.12	8.29	-30.3	-34.4	10.8	3.27e-03	0	41	0	24117248	21	5781
2026-01-02 10:32:16.16	167.17	8.54	-30.4	-34.7	10.6	3.13e-03	0	42	0	29360128	21	5903
2026-01-02 10:32:19.18	167.22	8.79	-30.3	-34.4	10.9	2.44e-03	0	42	0	35651584	21	5766
2026-01-02 10:32:22.18	167.28	9.04	-30.2	-34.0	11.2	1.35e-03	0	42	0	40894464	21	5597
2026-01-02 10:32:25.18	167.34	9.29	-30.2	-34.0	11.2	1.59e-03	0	42	0	46137344	21	5577
2026-01-02 10:32:28.19	167.39	9.55	-30.0	-33.2	11.7	5.47e-04	0	42	0	52428800	21	5247
2026-01-02 10:32:31.20	167.45	9.80	-29.9	-32.9	12.1	3.08e-04	0	42	0	57671680	21	5094
2026-01-02 10:32:34.21	167.51	10.06	-29.9	-33.0	12.0	3.08e-04	0	42	0	63963136	21	5133
2026-01-02 10:32:37.22	167.57	10.33	-30.0	-33.2	11.9	4.81e-04	0	42	0	69206016	21	5194
2026-01-02 10:32:40.22	167.63	10.59	-29.9	-33.0	12.1	2.98e-04	0	42	0	74448896	21	5129
2026-01-02 10:32:43.22	167.70	10.86	-29.8	-32.7	12.3	1.73e-04	0	42	0	80740352	21	5018
2026-01-02 10:32:46.23	167.76	11.13	-30.2	-33.7	11.6	5.60e-04	0	42	0	85983232	21	5419
2026-01-02 10:32:49.24	167.82	11.41	-30.0	-33.2	12.0	2.82e-04	0	42	0	91226112	21	5205
2026-01-02 10:32:52.25	167.89	11.69	-30.0	-33.2	12.0	4.26e-04	0	42	0	97517568	21	5213
2026-01-02 10:32:55.27	167.96	11.97	-30.0	-33.1	12.0	2.97e-04	0	42	0	102760448	21	5196
2026-01-02 10:32:58.28	168.02	12.26	-29.9	-33.0	12.1	2.21e-04	0	42	0	109051904	21	5143
2026-01-02 10:33:01.30	168.09	12.54	-29.5	-32.3	13.0	6.94e-05	0	42	0	114294784	20	4992
2026-01-02 10:33:04.30	168.16	12.84	-29.3	-32.4	13.3	1.22e-05	0	43	0	119537664	19	5101
2026-01-02 10:33:07.30	168.23	13.13	-29.3	-32.4	13.3	1.52e-05	0	43	0	125829120	19	5124
2026-01-02 10:33:10.32	168.30	13.43	-29.4	-32.3	13.4	1.90e-05	0	43	0	131072000	19	5075
2026-01-02 10:33:13.33	168.38	13.73	-29.5	-32.6	13.3	1.83e-05	0	43	0	136314880	19	5164
2026-01-02 10:33:16.34	168.45	14.04	-29.5	-32.8	13.2	1.67e-05	0	43	0	142606336	19	5213
2026-01-02 10:33:19.35	168.53	14.35	-29.4	-32.3	13.6	1.67e-05	0	43	0	147849216	19	5024
2026-01-02 10:33:22.35	168.61	14.66	-29.5	-32.5	13.4	1.83e-05	0	43	0	154140672	19	5110
2026-01-02 10:33:25.37	168.69	14.98	-29.5	-32.6	13.4	9.90e-06	0	43	0	159383552	19	5146
2026-01-02 10:33:28.38	168.77	15.30	-29.5	-32.4	13.5	1.14e-05	0	43	0	164626432	19	5069
2026-01-02 10:33:31.39	168.85	15.63	-29.5	-32.4	13.6	9.10e-06	0	43	0	170917888	19	5051
2026-01-02 10:33:34.39	168.93	15.96	-29.5	-32.5	13.6	5.30e-06	0	43	0	176160768	19	5076
2026-01-02 10:33:37.40	169.02	16.30	-29.4	-32.3	13.7	8.30e-06	0	43	0	182452224	19	4992
2026-01-02 10:33:40.41	169.10	16.64	-29.5	-32.5	13.6	1.06e-05	0	43	0	187695104	19	5051
2026-01-02 10:33:43.42	169.19	16.98	-29.5	-32.3	13.7	9.90e-06	0	43	0	192937984	19	4995
2026-01-02 10:33:46.43	169.28	17.33	-29.4	-32.2	13.9	6.10e-06	0	43	0	199229440	19	4942
2026-01-02 10:33:49.45	169.38	17.69	-29.5	-32.4	13.7	7.60e-06	0	43	0	204472320	19	5010
2026-01-02 10:33:52.46	169.47	18.05	-29.4	-32.2	13.8	2.20e-06	0	43	0	209715200	19	4959
2026-01-02 10:33:55.46	169.57	18.41	-29.6	-32.8	13.5	1.29e-05	0	43	0	216006656	19	5164
2026-01-02 10:33:58.48	169.67	18.78	-29.8	-33.2	13.2	1.29e-05	0	43	0	221249536	19	5333
2026-01-02 10:34:01.50	169.77	19.16	-29.8	-33.2	13.3	1.44e-05	0	43	0	227540992	19	5310
2026-01-02 10:34:04.51	169.87	19.54	-29.9	-33.1	12.9	3.96e-05	0	43	0	232783872	20	5198
2026-01-02 10:34:07.52	169.98	19.93	-29.9	-33.0	13.0	4.50e-05	0	43	0	238026752	20	5153
2026-01-02 10:34:10.52	170.08	20.32	-29.7	-32.4	13.4	1.98e-05	0	43	0	244318208	20	4926
2026-01-02 10:34:13.53	170.20	20.72	-29.7	-32.4	13.4	1.37e-05	0	43	0	249561088	20	4922
2026-01-02 10:34:16.54	170.31	21.13	-29.7	-32.5	13.3	1.29e-05	0	43	0	254803968	20	4954
2026-01-02 10:34:19.55	170.43	21.54	-29.9	-32.9	13.1	3.05e-05	0	43	0	261095424	20	5088
2026-01-02 10:34:22.55	170.54	21.96	-29.9	-33.0	13.1	4.42e-05	0	43	0	266338304	20	5127
2026-01-02 10:34:25.57	170.67	22.39	-29.9	-33.1	13.0	3.20e-05	0	43	0	272629760	20	5165
2026-01-02 10:34:28.58	170.79	22.82	-29.9	-33.0	13.1	2.13e-05	0	43	0	277872640	20	5119
2026-01-02 10:34:31.59	170.92	23.27	-30.0	-33.2	13.0	2.74e-05	0	43	0	283115520	20	5198
2026-01-02 10:34:34.61	171.05	23.72	-30.1	-33.3	12.9	5.95e-05	0	43	0	289406976	20	5257
2026-01-02 10:34:37.62	171.19	24.17	-30.0	-33.2	13.0	5.18e-05	0	43	0	294649856	20	5186
2026-01-02 10:34:40.62	171.33	24.64	-29.9	-32.9	13.2	1.98e-05	0	43	0	300941312	20	5085
2026-01-02 10:34:43.63	171.47	25.11	-29.7	-32.4	13.6	7.60e-06	0	43	0	306184192	20	4883
2026-01-02 10:34:46.63	171.62	25.59	-29.8	-32.5	13.5	4.50e-06	0	43	0	311427072	20	4928
2026-01-02 10:34:49.64	171.77	26.08	-29.9	-32.8	13.3	1.60e-05	0	43	0	317718528	20	5049
2026-01-02 10:34:52.66	171.92	26.58	-29.8	-32.7	13.4	1.98e-05	0	43	0	322961408	20	5006
2026-01-02 10:34:55.68	172.08	27.09	-29.8	-32.5	13.5	1.29e-05	0	43	0	329252864	20	4944
2026-01-02 10:34:58.68	172.25	27.61	-29.9	-32.8	13.3	1.90e-05	0	43	0	334495744	20	5036
2026-01-02 10:35:01.69	172.42	28.13	-30.1	-33.4	13.0	3.12e-05	0	43	0	339738624	20	5270
2026-01-02 10:35:04.70	172.60	28.67	-30.5	-34.2	12.1	2.11e-04	0	43	0	346030080	21	5472
2026-01-02 10:35:07.71	172.78	29.22	-30.5	-34.0	12.2	2.16e-04	0	43	0	351272960	21	5415
2026-01-02 10:35:10.72	172.97	29.78	-30.7	-34.6	11.8	4.07e-04	0	43	0	356515840	21	5637
2026-01-02 10:35:13.71	173.16	30.34	-30.8	-34.9	11.6	4.78e-04	0	43	0	362807296	21	5808
2026-01-02 10:35:16.72	173.36	30.92	-30.7	-34.7	11.8	5.11e-04	0	43	0	368050176	21	5676
2026-01-02 10:35:19.74	173.57	31.51	-30.8	-35.0	11.6	6.64e-04	0	43	0	374341632	21	5834
2026-01-02 10:35:22.74	173.78	32.12	-30.9	-35.2	11.4	1.18e-03	0	43	0	379584512	21	5936
2026-01-02 10:35:25.75	174.00	32.73	-30.8	-35.0	11.5	6.55e-04	0	43	0	384827392	21	5844
2026-01-02 10:35:28.75	174.23	33.36	-30.8	-35.0	11.6	8.33e-04	0	43	0	391118848	21	5817
2026-01-02 10:35:31.77	174.47	34.00	-30.1	-32.8	13.2	3.50e-05	0	43	0	396361728	21	4910
2026-01-02 10:35:34.77	174.72	34.65	-29.9	-32.3	13.4	2.51e-05	0	43	0	401604608	21	4748
2026-01-02 10:35:37.79	174.98	35.32	-29.6	-31.9	14.0	3.80e-06	0	43	0	407896064	20	4707
2026-01-02 10:35:40.80	175.25	36.00	-29.2	-31.3	14.8	0.00e+00	0	43	0	413138944	19	4595
2026-01-02 10:35:43.81	175.53	36.69	-29.4	-31.9	14.4	0.00e+00	0	43	0	419430400	19	4820
2026-01-02 10:35:46.82	175.82	37.40	-29.7	-32.7	14.0	2.20e-06	0	43	0	424673280	19	5083
2026-01-02 10:35:49.82	176.12	38.12	-29.9	-33.3	13.6	5.30e-06	0	43	0	429916160	19	5291
2026-01-02 10:35:52.83	176.44	38.86	-30.2	-33.5	13.1	2.51e-05	0	43	0	436207616	20	5285
2026-01-02 10:35:55.84	176.78	39.61	-30.5	-34.0	12.4	1.30e-04	0	43	0	441450496	21	5372
2026-01-02 10:35:58.85	177.12	40.38	-30.6	-34.2	12.2	2.11e-04	0	43	0	447741952	21	5474
2026-01-02 10:36:01.86	177.49	41.17	-30.6	-34.1	12.3	1.62e-04	0	43	0	452984832	21	5398
2026-01-02 10:36:04.86	177.87	41.97	-30.7	-34.4	12.1	2.03e-04	0	43	0	458227712	21	5527
2026-01-02 10:36:07.85	178.27	42.78	-30.5	-34.0	12.4	1.07e-04	0	43	0	464519168	21	5364
2026-01-02 10:36:10.86	178.69	43.61	-30.5	-34.0	12.4	8.01e-05	0	43	0	469762048	21	5353
2026-01-02 10:36:13.88	179.13	44.46	-30.6	-34.2	12.3	1.08e-04	0	43	0	475004928	21	5460
2026-01-02 10:36:16.89	179.60	45.33	-30.6	-34.2	12.3	2.22e-04	0	43	0	481296384	21	5441
2026-01-02 10:36:19.90	180.09	46.22	-30.4	-33.7	12.7	1.24e-04	0	43	0	486539264	21	5231
2026-01-02 10:36:22.90	180.61	47.11	-30.5	-33.8	12.6	8.08e-05	0	43	0	492830720	21	5274
2026-01-02 10:36:25.92	181.17	48.03	-30.8	-34.8	11.9	3.11e-04	0	43	0	498073600	21	5702
2026-01-02 10:36:28.92	181.75	48.97	-30.6	-34.1	12.4	1.56e-04	0	43	0	503316480	21	5407
2026-01-02 10:36:31.93	182.37	49.92	-29.8	-32.0	13.8	1.29e-05	0	43	0	509607936	21	4625
2026-01-02 10:36:34.94	183.03	50.89	-29.0	-30.9	15.1	0.00e+00	0	44	0	514850816	19	4477
2026-01-02 10:36:37.95	183.74	51.87	-29.0	-30.9	15.2	0.00e+00	0	43	0	520093696	19	4478
2026-01-02 10:36:40.96	184.49	52.87	-27.9	-29.2	16.7	0.00e+00	0	43	0	526385152	17	4189
2026-01-02 10:36:43.98	185.30	53.89	-27.9	-29.2	16.8	0.00e+00	0	43	0	531628032	17	4179
2026-01-02 10:36:46.99	186.16	54.92	-27.5	-28.8	17.3	0.00e+00	0	43	0	537919488	16	4169
2026-01-02 10:36:49.99	187.08	55.96	-27.7	-29.3	17.1	0.00e+00	0	43	0	543162368	16	4293
2026-01-02 10:36:52.99	188.08	57.01	-28.9	-31.6	15.5	0.00e+00	0	43	0	548405248	17	4912
2026-01-02 10:36:55.98	189.15	58.07	-28.4	-30.3	16.3	0.00e+00	0	44	0	554696704	17	4474
2026-01-02 10:36:58.98	190.31	59.15	-28.4	-30.2	16.3	0.00e+00	0	43	0	559939584	17	4469
2026-01-02 10:37:01.99	191.58	60.23	-27.8	-29.0	17.1	0.00e+00	0	44	0	565182464	17	4109
2026-01-02 10:37:05.01	192.96	61.32	-27.1	-28.4	17.8	0.00e+00	0	43	0	571473920	15	4158
2026-01-02 10:37:08.01	194.46	62.41	-27.1	-28.2	17.9	0.00e+00	0	43	0	576716800	15	4124
2026-01-02 10:37:11.02	196.10	63.50	-27.3	-28.8	17.6	0.00e+00	0	43	0	583008256	15	4276
2026-01-02 10:37:14.02	197.89	64.58	-27.6	-29.5	17.3	0.00e+00	0	44	0	588251136	15	4465
2026-01-02 10:37:17.03	199.87	65.66	-28.9	-31.5	15.7	0.00e+00	0	43	0	593494016	17	4851
2026-01-02 10:37:20.04	202.05	66.73	-30.8	-34.7	12.3	1.90e-04	0	43	0	599785472	21	5602
2026-01-02 10:37:23.04	204.44	67.77	-30.5	-33.6	13.1	2.21e-05	0	43	0	605028352	21	5153
2026-01-02 10:37:26.05	207.10	68.78	-30.6	-34.1	12.8	1.26e-04	0	43	0	610271232	21	5342
2026-01-02 10:37:29.06	210.04	69.76	-30.0	-32.3	13.9	1.50e-06	0	43	0	616562688	21	4684
2026-01-02 10:37:32.07	213.29	70.70	-29.8	-32.2	14.3	0.00e+00	0	43	0	621805568	20	4758
2026-01-02 10:37:35.08	216.89	71.58	-31.0	-34.5	12.1	1.12e-04	0	43	0	628097024	22	5422
2026-01-02 10:37:38.09	220.85	72.39	-30.4	-32.8	13.3	1.44e-05	0	43	0	633339904	22	4736
2026-01-02 10:37:41.09	225.17	73.12	-31.0	-34.4	12.2	1.85e-04	0	43	0	638582784	22	5369
2026-01-02 10:37:44.10	229.90	73.75	-30.3	-32.6	13.4	1.06e-05	0	43	0	644874240	22	4666
2026-01-02 10:37:47.10	234.97	74.28	-30.6	-34.0	12.8	3.81e-05	0	43	0	650117120	21	5330
2026-01-02 10:37:50.12	240.39	74.68	-30.4	-33.3	13.3	6.10e-06	0	43	0	655360000	21	5049
2026-01-02 10:37:53.12	246.03	74.94	-29.8	-32.4	14.3	7.00e-07	0	43	0	661651456	20	4806
2026-01-02 10:37:56.14	251.85	75.06	-30.1	-33.1	13.8	6.80e-06	0	43	0	666894336	20	5087
2026-01-02 10:37:59.13	257.65	75.03	-30.3	-33.5	13.5	9.90e-06	0	44	0	673185792	20	5225
2026-01-02 10:38:02.14	263.41	74.85	-30.5	-33.5	13.3	1.37e-05	0	44	0	678428672	21	5113
2026-01-02 10:38:05.15	268.98	74.53	-31.1	-34.9	11.9	1.20e-04	0	43	0	683671552	22	5569
2026-01-02 10:38:08.16	274.26	74.08	-32.0	-36.7	9.8	1.38e-02	0	43	0	689963008	24	6232
2026-01-02 10:38:11.17	279.20	73.52	-31.4	-35.2	11.4	8.23e-04	0	43	0	695205888	23	5576
2026-01-02 10:38:14.18	283.77	72.84	-31.6	-35.3	10.9	8.59e-03	0	44	0	700448768	24	5559
2026-01-02 10:38:17.19	287.96	72.08	-30.6	-33.5	12.8	7.09e-05	0	43	0	706740224	22	5004
2026-01-02 10:38:20.20	291.77	71.24	-30.6	-33.3	13.1	2.28e-05	0	43	0	711983104	22	4943
2026-01-02 10:38:23.20	295.21	70.34	-30.1	-32.5	13.8	1.22e-05	0	43	0	718274560	21	4770
2026-01-02 10:38:26.21	298.33	69.39	-30.5	-33.8	12.9	6.25e-05	0	43	0	723517440	21	5238
2026-01-02 10:38:29.22	301.15	68.39	-30.6	-34.1	12.7	4.80e-05	0	43	0	728760320	21	5359
2026-01-02 10:38:32.22	303.69	67.37	-30.5	-33.8	13.0	5.26e-05	0	43	0	735051776	21	5231
2026-01-02 10:38:35.22	305.99	66.32	-30.4	-32.9	13.2	8.77e-05	0	43	0	740294656	22	4787
2026-01-02 10:38:38.22	308.08	65.26	-29.6	-31.8	14.5	1.50e-06	0	43	0	745537536	20	4635
2026-01-02 10:38:41.24	309.99	64.18	-27.4	-28.5	17.7	0.00e+00	0	43	0	751828992	16	4066
2026-01-02 10:38:44.26	311.73	63.09	-27.1	-28.8	17.8	1.50e-06	0	44	0	757071872	14	4387
2026-01-02 10:38:47.26	313.31	62.00	-25.7	-26.8	19.4	0.00e+00	0	43	0	763363328	12	4069
2026-01-02 10:38:50.26	314.75	60.92	-27.8	-29.9	17.0	0.00e+00	0	43	0	768606208	15	4587
2026-01-02 10:38:53.27	316.08	59.83	-27.7	-29.7	17.0	0.00e+00	0	43	0	773849088	15	4538
2026-01-02 10:38:56.28	317.31	58.76	-31.3	-35.8	11.0	1.47e-03	0	43	0	780140544	22	6028
2026-01-02 10:38:59.28	318.43	57.69	-29.4	-31.6	14.9	0.00e+00	0	43	0	785383424	19	4663
2026-01-02 10:39:02.30	319.48	56.63	-30.8	-34.6	12.2	3.13e-04	0	43	0	791674880	21	5598
2026-01-02 10:39:05.31	320.45	55.58	-28.3	-29.6	16.4	0.00e+00	0	43	0	796917760	18	4172
2026-01-02 10:39:08.31	321.35	54.55	-28.8	-30.8	15.7	0.00e+00	0	43	0	802160640	18	4530
2026-01-02 10:39:11.32	322.19	53.53	-26.6	-27.8	18.3	0.00e+00	0	43	0	808452096	14	4107
2026-01-02 10:39:14.32	322.97	52.53	-27.6	-29.4	17.2	0.00e+00	0	43	0	813694976	15	4457
2026-01-02 10:39:17.34	323.70	51.53	-29.0	-31.4	15.3	0.00e+00	0	43	0	818937856	18	4727
2026-01-02 10:39:20.34	324.39	50.56	-29.3	-31.9	15.0	0.00e+00	0	43	0	825229312	18	4882
2026-01-02 10:39:23.35	325.03	49.60	-31.9	-37.3	9.4	3.18e-03	0	43	0	830472192	23	6726
2026-01-02 10:39:26.36	325.64	48.66	-31.1	-34.7	11.3	3.56e-03	0	43	0	836763648	23	5437
2026-01-02 10:39:29.37	326.21	47.74	-30.6	-33.7	12.5	1.50e-04	0	43	0	842006528	22	5108
2026-01-02 10:39:32.38	326.75	46.83	-31.3	-35.8	11.0	9.58e-04	0	43	0	847249408	22	6025
2026-01-02 10:39:35.39	327.26	45.94	-30.6	-33.7	12.4	3.30e-04	0	43	0	853540864	22	5147
2026-01-02 10:39:38.40	327.74	45.07	-30.3	-33.1	13.1	5.11e-05	0	43	0	858783744	21	5011
2026-01-02 10:39:41.40	328.20	44.21	-30.2	-33.0	13.2	6.10e-06	0	43	0	864026624	21	4956
2026-01-02 10:39:44.41	328.64	43.37	-30.0	-32.4	13.5	8.30e-06	0	43	0	870318080	21	4768
2026-01-02 10:39:47.42	329.05	42.55	-29.4	-31.4	14.6	0.00e+00	0	43	0	875560960	20	4526
2026-01-02 10:39:50.44	329.44	41.74	-29.5	-31.7	14.3	1.50e-06	0	44	0	881852416	20	4616
2026-01-02 10:39:53.46	329.82	40.94	-31.4	-36.3	10.6	1.58e-03	0	44	0	887095296	22	6290
2026-01-02 10:39:56.47	330.18	40.17	-30.6	-33.7	12.3	4.61e-04	0	43	0	892338176	22	5127
2026-01-02 10:39:59.47	330.52	39.41	-29.4	-31.4	14.5	1.50e-06	0	43	0	898629632	20	4519
2026-01-02 10:40:02.47	330.85	38.67	-30.4	-34.1	12.8	4.27e-05	0	43	0	903872512	20	5496
2026-01-02 10:40:05.49	331.16	37.94	-31.0	-34.9	11.5	9.11e-04	0	43	0	909115392	22	5653
2026-01-02 10:40:08.51	331.46	37.22	-30.6	-33.8	12.3	2.78e-04	0	43	0	915406848	22	5168
2026-01-02 10:40:11.52	331.75	36.52	-30.0	-32.4	13.5	1.29e-05	0	43	0	920649728	21	4751
2026-01-02 10:40:14.53	332.03	35.83	-29.6	-31.9	14.1	3.00e-06	0	43	0	926941184	20	4710
2026-01-02 10:40:17.55	332.29	35.16	-30.0	-33.0	13.4	1.06e-05	0	44	0	932184064	20	5082
2026-01-02 10:40:20.55	332.55	34.50	-30.4	-34.1	12.7	6.02e-05	0	43	0	937426944	20	5514
2026-01-02 10:40:23.56	332.79	33.86	-30.5	-34.1	12.3	1.58e-04	0	43	0	943718400	21	5408
2026-01-02 10:40:26.57	333.03	33.23	-30.6	-34.3	12.1	2.37e-04	0	43	0	948961280	21	5519
2026-01-02 10:40:29.57	333.26	32.61	-30.5	-33.9	12.4	1.38e-04	0	43	0	955252736	21	5364
2026-01-02 10:40:32.56	333.48	32.00	-30.4	-33.6	12.6	7.40e-05	0	43	0	960495616	21	5231
2026-01-02 10:40:35.56	333.69	31.41	-30.5	-33.9	12.4	9.91e-05	0	43	0	965738496	21	5347
2026-01-02 10:40:38.56	333.89	30.83	-30.3	-33.9	12.2	2.47e-04	0	43	0	972029952	21	5454
2026-01-02 10:40:41.56	334.09	30.26	-30.4	-33.8	12.5	1.40e-04	0	44	0	977272832	21	5302
2026-01-02 10:40:44.57	334.29	29.69	-30.5	-34.0	12.3	1.69e-04	0	43	0	982515712	21	5380
2026-01-02 10:40:47.57	334.47	29.14	-30.3	-33.4	12.7	1.11e-04	0	43	0	988807168	21	5144
2026-01-02 10:40:50.58	334.65	28.60	-30.1	-32.8	13.1	1.03e-04	0	43	0	994050048	21	4937
2026-01-02 10:40:53.58	334.83	28.07	-30.2	-33.1	13.0	9.90e-06	0	43	0	999292928	21	5025
2026-01-02 10:40:56.59	335.00	27.55	-29.4	-31.5	14.2	4.50e-06	0	43	0	1005584384	20	4570
2026-01-02 10:40:59.60	335.16	27.04	-29.3	-31.8	14.4	7.00e-07	0	43	0	1010827264	19	4777
2026-01-02 10:41:02.62	335.32	26.53	-29.1	-31.3	14.7	0.00e+00	0	44	0	1017118720	19	4601
2026-01-02 10:41:05.61	335.48	26.04	-29.3	-31.7	14.5	0.00e+00	0	43	0	1022361600	19	4756
2026-01-02 10:41:08.61	335.63	25.56	-29.4	-31.9	14.3	0.00e+00	0	43	0	1027604480	19	4806
2026-01-02 10:41:11.63	335.77	25.08	-29.3	-31.8	14.4	0.00e+00	0	43	0	1033895936	19	4784
2026-01-02 10:41:14.64	335.92	24.61	-29.1	-31.3	14.7	0.00e+00	0	43	0	1039138816	19	4621
2026-01-02 10:41:17.65	336.06	24.15	-29.0	-31.0	14.9	7.00e-07	0	43	0	1045430272	19	4522
2026-01-02 10:41:20.66	336.19	23.70	-28.6	-30.4	15.5	0.00e+00	0	43	0	1050673152	18	4441
2026-01-02 10:41:23.66	336.32	23.26	-28.4	-30.0	15.7	0.00e+00	0	43	0	1055916032	18	4318
2026-01-02 10:41:26.66	336.45	22.82	-28.4	-30.0	15.7	0.00e+00	0	43	0	1062207488	18	4330
2026-01-02 10:41:29.67	336.58	22.39	-28.6	-30.4	15.5	0.00e+00	0	44	0	1067450368	18	4440
2026-01-02 10:41:32.67	336.70	21.97	-28.6	-30.5	15.4	0.00e+00	0	43	0	1072693248	18	4489
2026-01-02 10:41:35.69	336.82	21.55	-28.7	-30.6	15.3	0.00e+00	0	43	0	1078984704	18	4512
2026-01-02 10:41:38.69	336.94	21.15	-28.7	-30.7	15.3	0.00e+00	0	43	0	1084227584	18	4524
2026-01-02 10:41:41.69	337.05	20.74	-28.7	-30.8	15.2	0.00e+00	0	43	0	1089470464	18	4551
2026-01-02 10:41:44.70	337.16	20.35	-28.7	-30.7	15.2	0.00e+00	0	43	0	1095761920	18	4535
2026-01-02 10:41:47.71	337.27	19.96	-28.8	-30.9	15.1	0.00e+00	0	43	0	1101004800	18	4609
2026-01-02 10:41:50.73	337.38	19.57	-28.8	-30.9	15.1	7.00e-07	0	43	0	1107296256	18	4607
2026-01-02 10:41:53.73	337.48	19.19	-29.0	-31.5	14.7	7.00e-07	0	43	0	1112539136	18	4790
2026-01-02 10:41:56.72	337.58	18.82	-29.1	-31.7	14.5	2.20e-06	0	43	0	1117782016	18	4891
2026-01-02 10:41:59.72	337.68	18.46	-29.1	-31.8	14.5	0.00e+00	0	43	0	1124073472	18	4912
2026-01-02 10:42:02.73	337.78	18.09	-29.2	-32.2	14.2	1.50e-06	0	43	0	1129316352	18	5045
2026-01-02 10:42:05.75	337.88	17.74	-29.5	-32.4	13.7	6.80e-06	0	43	0	1135607808	19	5005
2026-01-02 10:42:08.75	337.97	17.38	-29.8	-33.3	13.1	1.44e-05	0	43	0	1140850688	19	5372
2026-01-02 10:42:11.74	338.06	17.04	-29.5	-32.3	13.8	1.14e-05	0	44	0	1146093568	19	4977
2026-01-02 10:42:14.75	338.15	16.70	-29.6	-32.6	13.6	8.30e-06	0	43	0	1152385024	19	5092
2026-01-02 10:42:17.75	338.24	16.36	-29.6	-32.2	13.4	1.98e-05	0	43	0	1157627904	20	4859
2026-01-02 10:42:20.77	338.33	16.03	-29.5	-31.9	13.6	1.14e-05	0	43	0	1162870784	20	4765
2026-01-02 10:42:23.77	338.41	15.70	-29.5	-31.8	13.7	6.80e-06	0	44	0	1169162240	20	4726
2026-01-02 10:42:26.76	338.50	15.38	-29.4	-31.7	13.7	5.30e-06	0	43	0	1174405120	20	4673
2026-01-02 10:42:29.76	338.58	15.06	-29.4	-31.6	13.7	1.06e-05	0	43	0	1180696576	20	4667
2026-01-02 10:42:32.77	338.66	14.74	-29.5	-31.9	13.5	3.80e-06	0	44	0	1185939456	20	4754
2026-01-02 10:42:35.78	338.74	14.43	-29.4	-31.6	13.7	7.60e-06	0	43	0	1191182336	20	4650
2026-01-02 10:42:38.79	338.82	14.12	-29.4	-31.8	13.6	4.50e-06	0	43	0	1197473792	20	4739
2026-01-02 10:42:41.81	338.90	13.82	-29.6	-32.2	13.3	2.21e-05	0	43	0	1202716672	20	4868
2026-01-02 10:42:44.82	338.97	13.52	-29.3	-31.6	13.7	6.10e-06	0	43	0	1207959552	20	4651
2026-01-02 10:42:47.83	339.04	13.22	-29.5	-32.0	13.4	1.60e-05	0	43	0	1214251008	20	4819
2026-01-02 10:42:50.84	339.12	12.93	-29.6	-32.2	13.3	2.05e-05	0	43	0	1219493888	20	4858
2026-01-02 10:42:53.86	339.19	12.64	-29.7	-32.7	12.9	5.11e-05	0	43	0	1225785344	20	5076
2026-01-02 10:42:56.87	339.26	12.35	-29.7	-32.5	13.0	3.35e-05	0	43	0	1231028224	20	5002
2026-01-02 10:42:59.88	339.33	12.07	-29.8	-32.8	12.8	6.79e-05	0	43	0	1236271104	20	5087
2026-01-02 10:43:02.88	339.40	11.79	-29.8	-33.0	12.6	8.16e-05	0	43	0	1242562560	20	5178
2026-01-02 10:43:05.89	339.47	11.51	-30.1	-33.8	12.1	3.23e-04	0	43	0	1247805440	20	5523
2026-01-02 10:43:08.90	339.53	11.24	-30.1	-33.9	12.0	3.62e-04	0	44	0	1254096896	20	5565
2026-01-02 10:43:11.91	339.60	10.97	-30.3	-34.5	11.5	6.93e-04	0	43	0	1259339776	20	5846
2026-01-02 10:43:14.92	339.66	10.70	-29.9	-33.1	12.5	1.34e-04	0	43	0	1264582656	20	5245
2026-01-02 10:43:17.93	339.73	10.44	-29.6	-32.4	12.9	5.64e-05	0	43	0	1270874112	20	4985
2026-01-02 10:43:20.93	339.79	10.18	-29.5	-32.1	13.1	3.20e-05	0	43	0	1276116992	20	4872
2026-01-02 10:43:23.93	339.85	9.92	-29.5	-32.3	13.0	3.43e-05	0	43	0	1281359872	20	4928
2026-01-02 10:43:26.93	339.91	9.66	-29.4	-32.0	13.1	2.97e-05	0	43	0	1287651328	20	4829
2026-01-02 10:43:29.95	339.97	9.41	-29.6	-32.3	12.9	6.63e-05	0	43	0	1292894208	20	4952
2026-01-02 10:43:32.96	340.03	9.16	-29.5	-32.3	12.9	3.58e-05	0	43	0	1299185664	20	4947
2026-01-02 10:43:35.96	340.09	8.91	-29.5	-32.2	12.9	4.42e-05	0	43	0	1304428544	20	4931
2026-01-02 10:43:38.97	340.15	8.66	-29.7	-32.7	12.6	1.02e-04	0	43	0	1309671424	20	5107
2026-01-02 10:43:41.98	340.20	8.42	-29.8	-33.1	12.3	2.01e-04	0	43	0	1315962880	20	5253
2026-01-02 10:43:45.00	340.26	8.17	-29.6	-32.6	12.6	8.01e-05	0	43	0	1321205760	20	5052
2026-01-02 10:43:48.02	340.32	7.93	-29.8	-33.1	12.3	1.69e-04	0	43	0	1326448640	20	5263
2026-01-02 10:43:51.02	340.37	7.70	-30.0	-33.9	11.7	3.78e-04	0	43	0	1332740096	20	5595
2026-01-02 10:43:54.02	340.42	7.46	-29.7	-33.0	12.3	2.00e-04	0	43	0	1337982976	20	5241
2026-01-02 10:43:57.03	340.48	7.23	-29.8	-33.2	12.0	2.51e-04	0	43	0	1344274432	20	5340
2026-01-02 10:44:00.04	340.53	7.00	-32.7	-47.0	3.8	1.16e+00	0	43	104	1348468736	25	18633

#Closed at: 2026-01-02 10:44:02
#Recorded file [1348 MB]: D:/data/31010_260102_133159.dat