passes_logs/2026/01/02/R2M6_AANII_01/R2M6_AANII_01__20260102_011949_FENGYUN_3D_rec.log

#Pass ID: 20260102_011949_FENGYUN 3D
#Satellite: FENGYUN 3D
#Configuration: FENGYUN 3D
#almurnet v.1.7.20240730
#Start time: 2026-01-02 01:19:50

#Version: 2.2.20231116
#Station: R2M6_AANII_01
#Location: 30.233357 lon 59.946436 lat
#TLE: 1 43010U 17072A   26001.33100487  .00000602  00000+0  30664-3 0  9999
#TLE: 2 43010  98.9910 332.9374 0001848 133.1047 227.0283 14.19692078421319

#Time	Az	El	Level	Level2	SNR	BER	BlckErr	Temp	State	Recorded	gain1	gain2
2026-01-02 01:19:50.81	25.55	7.11	-29.1	-32.2	5.4	7.82e-01	0	41	0	0	18	5167
2026-01-02 01:19:53.83	25.75	7.33	-30.2	-34.5	7.7	6.23e-02	0	41	0	5242880	20	5933
2026-01-02 01:19:56.84	25.95	7.54	-29.4	-32.5	9.6	1.66e-02	0	41	0	22020096	19	5129
2026-01-02 01:19:59.85	26.15	7.76	-28.2	-30.8	11.7	5.50e-04	0	41	0	38797312	16	4841
2026-01-02 01:20:02.86	26.35	7.98	-27.1	-28.6	13.2	1.94e-05	0	41	0	55574528	15	4299
2026-01-02 01:20:05.87	26.56	8.20	-27.2	-29.5	13.0	1.14e-05	0	41	0	73400320	14	4659
2026-01-02 01:20:08.88	26.76	8.42	-26.2	-27.6	14.4	0.00e+00	0	41	0	90177536	13	4209
2026-01-02 01:20:11.88	26.98	8.64	-26.2	-28.1	14.4	0.00e+00	0	41	0	106954752	12	4475
2026-01-02 01:20:14.88	27.19	8.87	-26.0	-27.5	14.8	1.10e-06	0	41	0	123731968	12	4301
2026-01-02 01:20:17.90	27.41	9.10	-25.9	-27.4	14.9	0.00e+00	0	41	0	140509184	12	4269
2026-01-02 01:20:20.90	27.63	9.32	-25.8	-27.2	15.0	0.00e+00	0	41	0	157286400	12	4203
2026-01-02 01:20:23.91	27.85	9.55	-25.8	-27.7	15.1	0.00e+00	0	42	0	174063616	11	4447
2026-01-02 01:20:26.92	28.08	9.79	-25.7	-27.5	15.3	0.00e+00	0	42	0	191889408	11	4387
2026-01-02 01:20:29.93	28.31	10.02	-25.8	-27.5	15.2	0.00e+00	0	42	0	208666624	11	4406
2026-01-02 01:20:32.94	28.55	10.26	-26.0	-28.0	15.0	0.00e+00	0	42	0	225443840	11	4534
2026-01-02 01:20:35.94	28.79	10.49	-25.7	-27.4	15.4	0.00e+00	0	42	0	242221056	11	4366
2026-01-02 01:20:38.95	29.03	10.73	-25.1	-26.8	15.1	0.00e+00	0	42	0	258998272	11	4364
2026-01-02 01:20:41.97	29.27	10.98	-25.7	-27.3	15.5	0.00e+00	0	42	0	275775488	11	4349
2026-01-02 01:20:44.96	29.52	11.22	-25.6	-27.1	15.6	1.21e-04	0	42	0	293601280	11	4286
2026-01-02 01:20:47.97	29.78	11.46	-25.3	-27.1	15.9	0.00e+00	0	42	0	310378496	10	4390
2026-01-02 01:20:50.96	30.03	11.71	-25.5	-26.9	15.7	0.00e+00	0	42	0	327155712	11	4242
2026-01-02 01:20:53.98	30.30	11.96	-25.3	-27.1	15.9	2.05e-04	0	42	0	343932928	10	4394
2026-01-02 01:20:56.98	30.56	12.21	-25.2	-26.8	16.0	2.61e-04	0	42	0	360710144	10	4315
2026-01-02 01:20:59.99	30.83	12.47	-25.0	-26.2	16.3	0.00e+00	0	42	0	377487360	10	4161
2026-01-02 01:21:03.01	31.11	12.72	-24.9	-26.1	16.5	0.00e+00	0	42	0	394264576	10	4120
2026-01-02 01:21:06.02	31.39	12.98	-25.2	-26.8	16.1	3.22e-04	0	42	0	411041792	10	4306
2026-01-02 01:21:09.03	31.67	13.24	-24.9	-26.5	16.5	3.57e-04	0	42	0	428867584	9	4354
2026-01-02 01:21:12.04	31.96	13.50	-24.8	-26.3	16.6	1.62e-04	0	42	0	445644800	9	4287
2026-01-02 01:21:15.05	32.26	13.77	-25.0	-26.3	16.4	1.14e-04	0	43	0	462422016	10	4174
2026-01-02 01:21:18.06	32.55	14.03	-25.1	-26.1	16.3	1.58e-04	0	42	0	479199232	11	4012
2026-01-02 01:21:21.08	32.86	14.30	-25.2	-26.8	16.2	0.00e+00	0	42	0	495976448	10	4319
2026-01-02 01:21:24.09	33.17	14.58	-25.8	-27.5	15.5	3.34e-04	0	42	0	512753664	11	4396
2026-01-02 01:21:27.10	33.49	14.85	-24.8	-25.9	16.7	3.60e-04	0	42	0	529530880	10	4086
2026-01-02 01:21:30.12	33.81	15.13	-24.9	-26.6	16.6	0.00e+00	0	43	0	547356672	9	4364
2026-01-02 01:21:33.13	34.13	15.41	-24.6	-25.8	17.0	0.00e+00	0	42	0	564133888	9	4170
2026-01-02 01:21:36.15	34.47	15.69	-24.7	-26.1	16.8	2.18e-04	0	42	0	580911104	9	4253
2026-01-02 01:21:39.16	34.81	15.97	-24.7	-26.1	16.9	0.00e+00	0	43	0	597688320	9	4238
2026-01-02 01:21:42.16	35.15	16.26	-24.6	-25.8	17.0	0.00e+00	0	43	0	614465536	9	4166
2026-01-02 01:21:45.17	35.50	16.54	-24.5	-25.7	17.1	0.00e+00	0	43	0	631242752	9	4123
2026-01-02 01:21:48.17	35.86	16.83	-24.5	-25.6	17.2	0.00e+00	0	43	0	649068544	9	4115
2026-01-02 01:21:51.18	36.22	17.13	-24.5	-25.7	17.1	0.00e+00	0	43	0	665845760	9	4138
2026-01-02 01:21:54.19	36.60	17.42	-24.3	-25.3	17.4	0.00e+00	0	43	0	682622976	9	4025
2026-01-02 01:21:57.19	36.97	17.72	-24.2	-25.1	17.5	0.00e+00	0	43	0	699400192	9	3979
2026-01-02 01:22:00.18	37.36	18.02	-24.4	-25.5	17.3	0.00e+00	0	42	0	716177408	9	4090
2026-01-02 01:22:03.18	37.75	18.32	-24.2	-25.0	17.6	0.00e+00	0	43	0	732954624	9	3957
2026-01-02 01:22:06.18	38.15	18.62	-24.4	-25.5	17.3	0.00e+00	0	43	0	749731840	9	4073
2026-01-02 01:22:09.19	38.56	18.93	-23.9	-24.6	17.6	0.00e+00	0	43	0	766509056	9	3931
2026-01-02 01:22:12.21	38.98	19.24	-23.3	-24.2	17.7	0.00e+00	0	43	0	783286272	8	4008
2026-01-02 01:22:15.21	39.40	19.56	-23.8	-24.6	18.1	0.00e+00	0	43	0	800063488	8	3976
2026-01-02 01:22:18.23	39.83	19.87	-23.6	-24.2	18.3	0.00e+00	0	43	0	817889280	8	3879
2026-01-02 01:22:21.23	40.28	20.19	-23.6	-24.2	18.3	0.00e+00	0	43	0	834666496	8	3867
2026-01-02 01:22:24.25	40.73	20.51	-23.8	-24.6	18.1	0.00e+00	0	43	0	851443712	8	3972
2026-01-02 01:22:27.26	41.19	20.83	-23.7	-24.5	18.2	0.00e+00	0	43	0	868220928	8	3932
2026-01-02 01:22:30.27	41.66	21.16	-23.6	-24.3	18.4	0.00e+00	0	43	0	884998144	8	3886
2026-01-02 01:22:33.28	42.14	21.49	-23.6	-24.2	18.4	0.00e+00	0	43	0	902823936	8	3876
2026-01-02 01:22:36.28	42.63	21.81	-23.2	-23.9	18.8	0.00e+00	0	43	0	919601152	7	3913
2026-01-02 01:22:39.29	43.13	22.15	-23.4	-24.4	18.5	0.00e+00	0	43	0	936378368	7	4028
2026-01-02 01:22:42.30	43.64	22.48	-23.2	-24.0	18.7	0.00e+00	0	42	0	953155584	7	3932
2026-01-02 01:22:45.30	44.16	22.81	-23.2	-23.9	18.8	0.00e+00	0	43	0	969932800	7	3902
2026-01-02 01:22:48.30	44.69	23.15	-23.1	-23.8	17.6	0.00e+00	0	43	0	986710016	7	3923
2026-01-02 01:22:51.30	45.24	23.49	-23.4	-24.3	18.0	0.00e+00	0	43	0	1003487232	7	4008
2026-01-02 01:22:54.31	45.79	23.83	-23.3	-24.2	18.7	5.70e-04	0	43	0	1020264448	7	3962
2026-01-02 01:22:57.31	46.36	24.17	-22.9	-23.7	19.2	0.00e+00	0	43	0	1037041664	6	3970
2026-01-02 01:23:00.32	46.94	24.52	-23.1	-24.1	19.0	0.00e+00	0	43	0	1054867456	6	4060
2026-01-02 01:23:03.32	47.53	24.87	-22.9	-23.7	19.2	6.75e-05	0	43	0	1071644672	6	3970
2026-01-02 01:23:06.32	48.13	25.21	-22.8	-23.6	19.3	3.40e-06	0	43	0	1088421888	6	3939
2026-01-02 01:23:09.34	48.75	25.56	-22.6	-23.2	19.5	0.00e+00	0	43	0	1105199104	6	3838
2026-01-02 01:23:12.35	49.39	25.91	-22.5	-22.9	19.6	2.27e-04	0	43	0	1121976320	6	3778
2026-01-02 01:23:15.35	50.03	26.26	-22.7	-23.2	19.5	2.88e-04	0	43	0	1138753536	6	3851
2026-01-02 01:23:18.36	50.69	26.62	-22.7	-23.3	19.5	3.08e-04	0	43	0	1155530752	6	3862
2026-01-02 01:23:21.37	51.37	26.97	-22.6	-23.5	19.6	3.47e-04	0	43	0	1173356544	5	4034
2026-01-02 01:23:24.39	52.06	27.32	-22.6	-23.6	19.5	3.89e-05	0	43	0	1190133760	5	4055
2026-01-02 01:23:27.39	52.76	27.68	-22.5	-23.4	19.7	1.22e-04	0	43	0	1206910976	5	3988
2026-01-02 01:23:30.40	53.48	28.03	-22.3	-23.1	19.9	0.00e+00	0	43	0	1223688192	5	3917
2026-01-02 01:23:33.41	54.22	28.38	-22.4	-23.1	19.8	0.00e+00	0	43	0	1240465408	5	3935
2026-01-02 01:23:36.43	54.97	28.74	-22.2	-22.8	20.0	5.70e-06	0	43	0	1257242624	5	3866
2026-01-02 01:23:39.44	55.74	29.09	-22.0	-22.4	20.2	0.00e+00	0	43	0	1274019840	5	3763
2026-01-02 01:23:42.46	56.53	29.44	-22.4	-23.3	19.8	0.00e+00	0	43	0	1290797056	5	3970
2026-01-02 01:23:45.47	57.33	29.79	-22.2	-22.7	20.1	0.00e+00	0	43	0	1308622848	5	3841
2026-01-02 01:23:48.48	58.15	30.14	-22.1	-22.6	20.1	0.00e+00	0	43	0	1325400064	5	3812
2026-01-02 01:23:51.48	58.99	30.48	-22.1	-22.7	20.1	0.00e+00	0	43	0	1342177280	5	3820
2026-01-02 01:23:54.49	59.84	30.82	-22.0	-22.9	20.2	3.11e-04	0	43	0	1358954496	4	3984
2026-01-02 01:23:57.50	60.72	31.16	-22.2	-23.2	20.1	0.00e+00	0	43	0	1375731712	4	4071
2026-01-02 01:24:00.51	61.61	31.50	-22.1	-23.1	20.1	0.00e+00	0	43	0	1393557504	4	4043
2026-01-02 01:24:03.53	62.52	31.83	-22.2	-23.3	20.0	0.00e+00	0	43	0	1410334720	4	4080
2026-01-02 01:24:06.54	63.45	32.16	-22.5	-23.9	19.7	0.00e+00	0	43	0	1427111936	4	4237
2026-01-02 01:24:09.54	64.39	32.48	-22.3	-23.0	19.9	0.00e+00	0	43	0	1443889152	5	3911
2026-01-02 01:24:12.55	65.36	32.80	-22.4	-23.1	19.9	0.00e+00	0	43	0	1460666368	5	3934
2026-01-02 01:24:15.57	66.35	33.11	-22.1	-22.5	20.2	0.00e+00	0	43	0	1477443584	5	3791
2026-01-02 01:24:18.57	67.35	33.42	-22.2	-22.8	20.1	0.00e+00	0	43	0	1494220800	5	3848
2026-01-02 01:24:21.59	68.37	33.72	-22.0	-22.3	20.3	0.00e+00	0	43	0	1510998016	5	3735
2026-01-02 01:24:24.60	69.41	34.01	-21.8	-22.5	20.5	0.00e+00	0	43	0	1528823808	4	3894
2026-01-02 01:24:27.61	70.47	34.30	-22.0	-22.9	20.0	0.00e+00	0	43	0	1545601024	4	4013
2026-01-02 01:24:30.62	71.55	34.57	-21.8	-22.6	20.2	0.00e+00	0	43	0	1562378240	4	3923
2026-01-02 01:24:33.63	72.64	34.84	-21.8	-22.5	20.3	0.00e+00	0	43	0	1579155456	4	3901
2026-01-02 01:24:36.64	73.75	35.10	-22.0	-22.9	20.1	0.00e+00	0	43	0	1595932672	4	4001
2026-01-02 01:24:39.65	74.88	35.35	-22.1	-23.2	19.9	0.00e+00	0	43	0	1612709888	4	4082
2026-01-02 01:24:42.65	76.02	35.58	-22.2	-23.4	19.8	0.00e+00	0	43	0	1629487104	4	4127
2026-01-02 01:24:45.65	77.18	35.81	-22.0	-23.0	20.1	0.00e+00	0	43	0	1646264320	4	4016
2026-01-02 01:24:48.66	78.36	36.02	-22.0	-23.0	20.0	0.00e+00	0	43	0	1664090112	4	4030
2026-01-02 01:24:51.68	79.56	36.23	-21.7	-22.3	20.3	0.00e+00	0	43	0	1680867328	4	3874
2026-01-02 01:24:54.68	80.76	36.42	-21.6	-22.2	20.4	0.00e+00	0	43	0	1697644544	4	3842
2026-01-02 01:24:57.69	81.98	36.59	-21.9	-22.7	20.2	0.00e+00	0	43	0	1714421760	4	3953
2026-01-02 01:25:00.69	83.21	36.76	-21.7	-22.3	20.3	0.00e+00	0	43	0	1731198976	4	3871
2026-01-02 01:25:03.70	84.46	36.91	-21.4	-21.8	20.6	0.00e+00	0	43	0	1747976192	4	3745
2026-01-02 01:25:06.69	85.71	37.04	-21.7	-22.4	20.3	0.00e+00	0	43	0	1764753408	4	3893
2026-01-02 01:25:09.71	86.98	37.16	-21.5	-21.8	20.6	0.00e+00	0	43	0	1782579200	4	3753
2026-01-02 01:25:12.72	88.26	37.27	-21.6	-22.2	20.4	0.00e+00	0	43	0	1799356416	4	3832
2026-01-02 01:25:15.73	89.54	37.36	-21.9	-22.8	20.1	0.00e+00	0	43	0	1816133632	4	3975
2026-01-02 01:25:18.75	90.83	37.43	-21.4	-21.8	20.6	0.00e+00	0	43	0	1832910848	4	3740
2026-01-02 01:25:21.75	92.12	37.49	-21.5	-21.9	20.6	0.00e+00	0	43	0	1849688064	4	3761
2026-01-02 01:25:24.76	93.42	37.53	-21.4	-21.8	20.6	0.00e+00	0	43	0	1867513856	4	3741
2026-01-02 01:25:27.77	94.72	37.56	-21.4	-21.8	20.6	0.00e+00	0	43	0	1884291072	4	3746
2026-01-02 01:25:30.78	96.03	37.57	-21.7	-22.3	20.3	0.00e+00	0	43	0	1901068288	4	3873
2026-01-02 01:25:33.78	97.33	37.56	-21.7	-22.4	20.3	0.00e+00	0	43	0	1917845504	4	3881
2026-01-02 01:25:36.79	98.63	37.54	-21.6	-22.0	20.5	0.00e+00	0	43	0	1934622720	4	3803
2026-01-02 01:25:39.80	99.93	37.50	-21.5	-21.9	20.6	0.00e+00	0	43	0	1951399936	4	3762
2026-01-02 01:25:42.81	101.23	37.45	-21.7	-22.4	20.3	0.00e+00	0	43	0	1968177152	4	3878
2026-01-02 01:25:45.84	102.53	37.37	-21.6	-22.1	20.4	0.00e+00	0	43	0	1984954368	4	3830
2026-01-02 01:25:48.85	103.81	37.29	-21.4	-21.8	20.6	0.00e+00	0	43	0	2002780160	4	3752
2026-01-02 01:25:51.86	105.09	37.19	-21.6	-22.1	20.4	0.00e+00	0	43	0	2019557376	4	3825
2026-01-02 01:25:54.87	106.36	37.07	-21.8	-22.5	20.2	0.00e+00	0	43	0	2036334592	4	3922
2026-01-02 01:25:57.89	107.63	36.93	-21.7	-22.3	20.3	0.00e+00	0	43	0	2053111808	4	3865
2026-01-02 01:26:00.88	108.87	36.79	-21.8	-22.5	20.2	0.00e+00	0	43	0	2069889024	4	3916
2026-01-02 01:26:03.89	110.11	36.63	-21.7	-22.4	20.2	0.00e+00	0	43	0	2086666240	4	3892
2026-01-02 01:26:06.90	111.34	36.45	-21.7	-22.4	20.3	0.00e+00	0	43	0	2103443456	4	3885
2026-01-02 01:26:09.90	112.54	36.26	-21.8	-22.5	20.2	0.00e+00	0	43	0	2120220672	4	3903
2026-01-02 01:26:12.91	113.74	36.06	-21.7	-22.3	20.4	0.00e+00	0	43	0	2138046464	4	3853
2026-01-02 01:26:15.92	114.93	35.85	-21.7	-22.2	20.3	0.00e+00	0	43	0	2154823680	4	3849
2026-01-02 01:26:18.94	116.10	35.62	-21.9	-22.7	20.1	0.00e+00	0	43	0	2171600896	4	3969
2026-01-02 01:26:21.96	117.26	35.38	-22.0	-22.9	20.0	0.00e+00	0	43	0	2188378112	4	3996
2026-01-02 01:26:24.97	118.39	35.14	-22.1	-23.2	19.8	0.00e+00	0	43	0	2205155328	4	4072
2026-01-02 01:26:27.98	119.51	34.88	-22.2	-23.3	19.8	0.00e+00	0	43	0	2222981120	4	4098
2026-01-02 01:26:30.99	120.61	34.61	-22.2	-22.8	19.8	0.00e+00	0	43	0	2239758336	5	3880
2026-01-02 01:26:33.99	121.69	34.34	-22.4	-23.4	19.5	0.00e+00	0	43	0	2256535552	5	4010
2026-01-02 01:26:37.00	122.76	34.05	-22.2	-22.8	19.8	0.00e+00	0	43	0	2273312768	5	3860
2026-01-02 01:26:40.02	123.81	33.76	-22.3	-23.0	19.7	0.00e+00	0	43	0	2290089984	5	3924
2026-01-02 01:26:43.03	124.83	33.46	-22.2	-22.9	19.7	0.00e+00	0	43	0	2306867200	5	3893
2026-01-02 01:26:46.03	125.84	33.15	-22.2	-22.9	19.7	0.00e+00	0	43	0	2323644416	5	3895
2026-01-02 01:26:49.04	126.83	32.84	-22.3	-23.1	19.6	0.00e+00	0	43	0	2340421632	5	3945
2026-01-02 01:26:52.05	127.80	32.52	-22.1	-22.7	19.8	0.00e+00	0	43	0	2358247424	5	3857
2026-01-02 01:26:55.06	128.76	32.20	-22.5	-23.5	19.4	0.00e+00	0	43	0	2375024640	5	4038
2026-01-02 01:26:58.07	129.69	31.87	-22.3	-23.1	19.6	0.00e+00	0	43	0	2391801856	5	3939
2026-01-02 01:27:01.08	130.61	31.53	-22.6	-23.7	19.3	0.00e+00	0	43	0	2408579072	5	4082
2026-01-02 01:27:04.08	131.50	31.20	-22.5	-23.5	19.4	0.00e+00	0	43	0	2425356288	5	4037
2026-01-02 01:27:07.10	132.38	30.86	-22.7	-23.9	19.1	5.70e-06	0	43	0	2442133504	5	4152
2026-01-02 01:27:10.11	133.25	30.51	-22.4	-23.3	19.4	0.00e+00	0	43	0	2459959296	5	3988
2026-01-02 01:27:13.12	134.09	30.17	-22.4	-23.3	19.5	0.00e+00	0	43	0	2476736512	5	3990
2026-01-02 01:27:16.12	134.91	29.82	-22.2	-22.8	19.7	4.65e-04	0	43	0	2493513728	5	3874
2026-01-02 01:27:19.12	135.72	29.47	-22.4	-23.3	19.5	7.49e-04	0	43	0	2510290944	5	3998
2026-01-02 01:27:22.13	136.51	29.12	-22.4	-23.3	19.4	0.00e+00	0	43	0	2527068160	5	4005
2026-01-02 01:27:25.13	137.28	28.76	-22.5	-23.4	19.3	0.00e+00	0	43	0	2543845376	5	4025
2026-01-02 01:27:28.14	138.04	28.41	-23.0	-24.5	18.8	3.94e-04	0	43	0	2560622592	5	4309
2026-01-02 01:27:31.16	138.78	28.05	-22.7	-24.0	19.1	3.51e-04	0	43	0	2578448384	5	4165
2026-01-02 01:27:34.18	139.51	27.69	-22.6	-23.7	19.2	0.00e+00	0	43	0	2595225600	5	4099
2026-01-02 01:27:37.19	140.22	27.34	-22.9	-24.3	18.9	6.86e-04	0	43	0	2612002816	5	4243
2026-01-02 01:27:40.20	140.92	26.98	-22.6	-23.8	19.1	6.92e-04	0	43	0	2628780032	5	4135
2026-01-02 01:27:43.21	141.60	26.63	-22.4	-23.3	19.4	0.00e+00	0	43	0	2645557248	5	3999
2026-01-02 01:27:46.23	142.26	26.27	-22.5	-23.6	19.2	0.00e+00	0	43	0	2662334464	5	4074
2026-01-02 01:27:49.22	142.91	25.92	-22.6	-23.8	19.1	5.77e-04	0	43	0	2679111680	5	4122
2026-01-02 01:27:52.23	143.55	25.56	-22.6	-23.7	19.1	0.00e+00	0	43	0	2695888896	5	4106
2026-01-02 01:27:55.24	144.17	25.21	-22.7	-23.9	19.0	0.00e+00	0	43	0	2713714688	5	4160
2026-01-02 01:27:58.25	144.78	24.86	-22.9	-24.3	18.8	0.00e+00	0	43	0	2730491904	5	4252
2026-01-02 01:28:01.25	145.38	24.51	-23.1	-24.3	18.6	1.08e-03	0	43	0	2747269120	6	4131
2026-01-02 01:28:04.26	145.96	24.16	-23.1	-24.3	18.6	0.00e+00	0	43	0	2764046336	6	4129
2026-01-02 01:28:07.26	146.53	23.82	-23.0	-24.1	18.6	0.00e+00	0	43	0	2780823552	6	4101
2026-01-02 01:28:10.28	147.09	23.47	-23.0	-24.2	18.5	0.00e+00	0	43	0	2797600768	6	4122
2026-01-02 01:28:13.29	147.64	23.13	-23.1	-24.3	18.5	0.00e+00	0	43	0	2814377984	6	4147
2026-01-02 01:28:16.31	148.18	22.79	-22.9	-24.0	18.6	0.00e+00	0	43	0	2832203776	6	4048
2026-01-02 01:28:19.32	148.70	22.45	-23.0	-24.2	18.5	1.10e-06	0	43	0	2848980992	6	4097
2026-01-02 01:28:22.32	149.21	22.11	-23.2	-24.5	18.3	0.00e+00	0	44	0	2865758208	6	4188
2026-01-02 01:28:25.32	149.71	21.78	-23.4	-25.0	18.1	0.00e+00	0	43	0	2882535424	6	4300
2026-01-02 01:28:28.32	150.21	21.45	-23.4	-25.0	18.1	0.00e+00	0	43	0	2899312640	6	4326
2026-01-02 01:28:31.33	150.69	21.12	-23.7	-25.1	17.8	0.00e+00	0	43	0	2916089856	7	4212
2026-01-02 01:28:34.34	151.16	20.79	-23.9	-25.5	17.5	0.00e+00	0	43	0	2932867072	7	4324
2026-01-02 01:28:37.35	151.62	20.47	-24.0	-25.2	17.5	0.00e+00	0	43	0	2949644288	8	4134
2026-01-02 01:28:40.35	152.08	20.14	-23.9	-25.1	17.5	0.00e+00	0	43	0	2967470080	8	4117
2026-01-02 01:28:43.36	152.52	19.82	-23.9	-25.1	17.5	2.20e-06	0	43	0	2984247296	8	4105
2026-01-02 01:28:46.37	152.96	19.51	-24.0	-25.3	17.3	0.00e+00	0	43	0	3001024512	8	4172
2026-01-02 01:28:49.38	153.38	19.19	-24.0	-25.2	17.4	2.20e-06	0	43	0	3017801728	8	4125
2026-01-02 01:28:52.40	153.80	18.88	-24.2	-25.7	17.1	4.50e-06	0	43	0	3034578944	8	4265
2026-01-02 01:28:55.39	154.21	18.57	-24.3	-25.8	17.0	1.10e-06	0	43	0	3051356160	8	4306
2026-01-02 01:28:58.40	154.61	18.26	-24.3	-25.9	17.0	1.10e-06	0	43	0	3068133376	8	4319
2026-01-02 01:29:01.40	155.01	17.95	-24.3	-25.8	17.0	8.00e-06	0	44	0	3084910592	8	4305
2026-01-02 01:29:04.41	155.39	17.65	-24.4	-26.0	16.9	1.14e-05	0	43	0	3102736384	8	4364
2026-01-02 01:29:07.43	155.77	17.35	-24.4	-26.2	16.8	1.09e-03	0	44	0	3119513600	8	4407
2026-01-02 01:29:10.44	156.15	17.05	-24.4	-25.7	16.8	8.00e-06	0	43	0	3136290816	9	4155
2026-01-02 01:29:13.44	156.51	16.76	-24.5	-25.8	16.7	8.00e-06	0	43	0	3153068032	9	4189
2026-01-02 01:29:16.45	156.87	16.46	-24.3	-25.8	17.0	1.05e-03	0	43	0	3169845248	8	4303
2026-01-02 01:29:19.46	157.22	16.17	-24.5	-25.8	16.7	1.19e-03	0	43	0	3187671040	9	4177
2026-01-02 01:29:22.47	157.57	15.89	-24.6	-26.0	16.6	0.00e+00	0	43	0	3204448256	9	4241
2026-01-02 01:29:25.49	157.91	15.60	-24.7	-26.2	16.5	1.05e-03	0	43	0	3221225472	9	4281
2026-01-02 01:29:28.49	158.24	15.32	-24.8	-26.5	16.4	1.09e-03	0	43	0	3238002688	9	4369
2026-01-02 01:29:31.49	158.56	15.04	-25.0	-26.5	16.1	1.09e-03	0	43	0	3254779904	10	4258
2026-01-02 01:29:34.51	158.89	14.76	-25.2	-26.8	15.9	1.01e-03	0	44	0	3271557120	10	4339
2026-01-02 01:29:37.52	159.20	14.48	-25.3	-27.0	15.8	1.13e-03	0	43	0	3288334336	10	4398
2026-01-02 01:29:40.52	159.51	14.21	-25.8	-27.2	15.0	1.19e-03	0	43	0	3305111552	12	4239
2026-01-02 01:29:43.54	159.82	13.94	-25.2	-26.9	15.8	0.00e+00	0	43	0	3322937344	10	4371
2026-01-02 01:29:46.54	160.11	13.67	-25.2	-26.9	15.7	1.26e-03	0	43	0	3339714560	10	4384
2026-01-02 01:29:49.54	160.41	13.40	-25.3	-27.0	15.7	1.37e-03	0	43	0	3356491776	10	4403
2026-01-02 01:29:52.56	160.70	13.14	-25.4	-27.3	15.5	0.00e+00	0	43	0	3373268992	10	4479
2026-01-02 01:29:55.58	160.98	12.87	-25.3	-27.0	15.7	0.00e+00	0	44	0	3390046208	10	4413
2026-01-02 01:29:58.58	161.26	12.61	-25.4	-27.2	15.5	1.32e-03	0	43	0	3406823424	10	4467
2026-01-02 01:30:01.60	161.54	12.35	-25.4	-27.2	15.5	0.00e+00	0	43	0	3423600640	10	4466
2026-01-02 01:30:04.60	161.81	12.10	-25.4	-27.3	15.5	0.00e+00	0	43	0	3440377856	10	4477
2026-01-02 01:30:07.61	162.07	11.85	-25.4	-27.3	15.4	0.00e+00	0	43	0	3458203648	10	4504
2026-01-02 01:30:10.62	162.33	11.59	-25.7	-27.5	15.0	0.00e+00	0	43	0	3474980864	11	4451
2026-01-02 01:30:13.63	162.59	11.34	-25.7	-27.6	15.0	0.00e+00	0	43	0	3491758080	11	4467
2026-01-02 01:30:16.63	162.84	11.10	-25.8	-27.9	14.8	0.00e+00	0	43	0	3508535296	11	4563
2026-01-02 01:30:19.63	163.09	10.85	-25.8	-27.4	14.7	0.00e+00	0	43	0	3525312512	12	4311
2026-01-02 01:30:22.64	163.33	10.61	-25.8	-27.9	14.7	0.00e+00	0	43	0	3542089728	11	4576
2026-01-02 01:30:25.65	163.58	10.37	-25.7	-27.6	14.9	0.00e+00	0	43	0	3558866944	11	4481
2026-01-02 01:30:28.66	163.81	10.13	-25.8	-27.8	14.8	0.00e+00	0	43	0	3575644160	11	4532
2026-01-02 01:30:31.67	164.05	9.89	-25.7	-27.7	14.8	1.10e-06	0	43	0	3593469952	11	4485
2026-01-02 01:30:34.66	164.27	9.66	-25.9	-28.0	14.6	0.00e+00	0	43	0	3610247168	11	4584
2026-01-02 01:30:37.66	164.50	9.42	-26.2	-28.1	14.2	0.00e+00	0	43	0	3627024384	12	4511
2026-01-02 01:30:40.68	164.72	9.19	-26.0	-27.7	14.4	0.00e+00	0	43	0	3643801600	12	4392
2026-01-02 01:30:43.69	164.94	8.96	-26.2	-28.1	14.2	2.20e-06	0	44	0	3660578816	12	4506
2026-01-02 01:30:46.70	165.16	8.73	-26.2	-28.2	14.1	2.20e-06	0	43	0	3677356032	12	4550
2026-01-02 01:30:49.69	165.37	8.50	-26.0	-27.7	14.4	0.00e+00	0	43	0	3694133248	12	4384
2026-01-02 01:30:52.69	165.58	8.28	-26.2	-28.1	14.1	1.10e-06	0	44	0	3710910464	12	4503
2026-01-02 01:30:55.70	165.79	8.06	-26.2	-28.2	14.0	1.10e-06	0	43	0	3728736256	12	4540
2026-01-02 01:30:58.71	165.99	7.83	-26.1	-28.0	14.1	1.10e-06	0	43	0	3745513472	12	4470
2026-01-02 01:31:01.72	166.19	7.61	-26.2	-28.1	14.1	0.00e+00	0	43	0	3762290688	12	4503
2026-01-02 01:31:04.72	166.39	7.40	-26.3	-28.4	13.8	2.20e-06	0	43	0	3779067904	12	4603
2026-01-02 01:31:07.73	166.59	7.18	-26.6	-28.7	13.4	1.14e-05	0	43	0	3795845120	13	4553

#Closed at: 2026-01-02 01:31:10
#Recorded file [3805 MB]: D:/data/31010_260102_041952.dat