passes_logs/2026/01/02/R2M6_AANII_01/R2M6_AANII_01__20260102_094147_NOAA_21_JPSS-2_rec.log

#Pass ID: 20260102_094147_NOAA 21 (JPSS-2)
#Satellite: NOAA 21 (JPSS-2)
#Configuration: NOAA 21
#almurnet v.1.7.20240730
#Start time: 2026-01-02 09:43:49

#Version: 2.2.20231116
#Station: R2M6_AANII_01
#Location: 30.233357 lon 59.946436 lat
#TLE: 1 54234U 22150A   26001.26806856  .00000185  00000+0  10843-3 0  9990
#TLE: 2 54234  98.7484 302.3349 0001277 353.3887   6.7272 14.19530660162860

#Time	Az	El	Level	Level2	SNR	BER	BlckErr	Temp	State	Recorded	gain1	gain2
2026-01-02 09:43:49.15	135.61	18.54	-33.3	-44.6	3.8	8.47e-01	0	43	0	0	26	13201
2026-01-02 09:43:52.13	135.41	18.90	-33.7	-45.3	3.8	1.49e+00	0	43	104	0	28	13664
2026-01-02 09:43:55.10	135.21	19.26	-33.8	-45.4	3.8	1.49e+00	0	43	104	0	28	13707
2026-01-02 09:43:58.10	135.00	19.63	-33.8	-45.3	3.8	1.49e+00	0	43	104	0	28	13675
2026-01-02 09:44:01.11	134.78	20.00	-33.7	-45.3	3.8	1.49e+00	0	43	104	0	28	13685
2026-01-02 09:44:04.10	134.56	20.38	-33.7	-45.3	3.8	1.49e+00	0	43	104	0	28	13661
2026-01-02 09:44:07.09	134.33	20.77	-33.8	-45.5	3.8	1.49e+00	0	43	104	0	28	13759
2026-01-02 09:44:10.07	134.10	21.15	-33.8	-45.5	3.8	1.49e+00	0	43	104	0	28	13769
2026-01-02 09:44:13.06	133.86	21.55	-33.8	-45.4	3.8	1.49e+00	0	43	104	0	28	13734
2026-01-02 09:44:16.04	133.61	21.95	-33.6	-45.1	3.8	1.49e+00	0	43	104	0	28	13545
2026-01-02 09:44:19.04	133.36	22.35	-33.5	-44.7	3.8	1.49e+00	0	43	104	0	28	13087
2026-01-02 09:44:22.04	133.10	22.77	-33.3	-43.6	3.8	1.49e+00	0	43	104	0	27	11824
2026-01-02 09:44:25.02	132.83	23.18	-33.1	-42.2	3.9	1.49e+00	0	43	104	0	27	10266
2026-01-02 09:44:28.01	132.56	23.61	-32.7	-40.4	4.0	1.34e+00	0	43	104	0	26	8730
2026-01-02 09:44:31.01	132.27	24.04	-32.5	-38.3	5.5	4.54e-01	0	44	0	4194304	26	7083
2026-01-02 09:44:34.00	131.98	24.48	-33.0	-41.5	4.3	1.45e+00	0	43	104	9437184	26	9563
2026-01-02 09:44:37.02	131.68	24.93	-31.2	-34.9	8.7	6.35e-02	0	44	0	2097152	23	5506
2026-01-02 09:44:40.00	131.37	25.37	-28.3	-29.6	13.9	2.20e-06	0	44	0	11534336	18	4166
2026-01-02 09:44:42.99	131.06	25.83	-28.3	-30.1	13.9	2.20e-06	0	43	0	19922944	17	4436
2026-01-02 09:44:45.98	130.73	26.30	-28.3	-30.0	13.9	2.20e-06	0	43	0	29360128	17	4381
2026-01-02 09:44:48.97	130.39	26.77	-27.9	-29.0	14.6	7.00e-07	0	43	0	38797312	17	4114
2026-01-02 09:44:51.96	130.05	27.24	-27.4	-28.5	15.2	0.00e+00	0	43	0	48234496	16	4064
2026-01-02 09:44:54.97	129.69	27.73	-26.7	-27.9	15.9	0.00e+00	0	43	0	57671680	14	4123
2026-01-02 09:44:57.94	129.32	28.22	-26.8	-28.1	15.8	0.00e+00	0	44	0	67108864	14	4167
2026-01-02 09:45:00.95	128.94	28.73	-27.1	-28.9	15.4	0.00e+00	0	43	0	76546048	14	4397
2026-01-02 09:45:03.93	128.54	29.23	-27.4	-29.5	15.1	0.00e+00	0	43	0	85983232	14	4560
2026-01-02 09:45:06.92	128.14	29.75	-27.2	-29.0	15.3	0.00e+00	0	43	0	95420416	14	4424
2026-01-02 09:45:09.92	127.72	30.27	-27.1	-28.7	15.5	0.00e+00	0	43	0	104857600	14	4349
2026-01-02 09:45:12.93	127.28	30.81	-26.9	-28.4	15.6	0.00e+00	0	43	0	114294784	14	4258
2026-01-02 09:45:15.91	126.83	31.34	-27.0	-28.6	15.6	0.00e+00	0	43	0	123731968	14	4303
2026-01-02 09:45:18.89	126.37	31.89	-27.1	-28.7	15.6	0.00e+00	0	43	0	132120576	14	4337
2026-01-02 09:45:21.87	125.89	32.44	-26.7	-27.8	16.1	0.00e+00	0	43	0	141557760	14	4083
2026-01-02 09:45:24.86	125.39	33.01	-26.5	-27.3	16.4	0.00e+00	0	43	0	150994944	14	3955
2026-01-02 09:45:27.87	124.87	33.58	-26.6	-27.7	16.1	0.00e+00	0	43	0	160432128	14	4057
2026-01-02 09:45:30.87	124.34	34.16	-27.2	-29.0	15.5	0.00e+00	0	43	0	169869312	14	4416
2026-01-02 09:45:33.86	123.78	34.75	-27.5	-29.2	15.1	0.00e+00	0	44	0	179306496	15	4360
2026-01-02 09:45:36.85	123.21	35.34	-27.6	-29.3	15.0	0.00e+00	0	43	0	188743680	15	4385
2026-01-02 09:45:39.82	122.61	35.94	-27.8	-29.9	14.7	0.00e+00	0	43	0	198180864	15	4561
2026-01-02 09:45:42.82	121.99	36.55	-28.3	-30.5	14.3	0.00e+00	0	43	0	207618048	16	4618
2026-01-02 09:45:45.81	121.35	37.17	-28.5	-30.8	14.0	2.20e-06	0	43	0	217055232	16	4732
2026-01-02 09:45:48.80	120.68	37.80	-28.3	-30.4	14.3	7.00e-07	0	43	0	225443840	16	4580
2026-01-02 09:45:51.79	119.98	38.43	-28.6	-30.7	13.8	7.00e-07	0	44	0	234881024	17	4578
2026-01-02 09:45:54.77	119.26	39.07	-28.4	-30.3	14.1	4.50e-06	0	43	0	244318208	17	4446
2026-01-02 09:45:57.77	118.51	39.71	-28.4	-30.2	14.2	7.00e-07	0	43	0	253755392	17	4417
2026-01-02 09:46:00.78	117.72	40.37	-28.6	-30.6	13.9	9.10e-06	0	43	0	263192576	17	4556
2026-01-02 09:46:03.76	116.91	41.03	-28.7	-30.8	13.8	5.30e-06	0	43	0	272629760	17	4614
2026-01-02 09:46:06.74	116.06	41.69	-28.7	-30.9	13.8	1.50e-06	0	43	0	282066944	17	4621
2026-01-02 09:46:09.74	115.17	42.35	-29.3	-31.8	12.9	5.26e-05	0	43	0	291504128	18	4814
2026-01-02 09:46:12.73	114.24	43.03	-29.3	-31.4	12.9	4.88e-05	0	43	0	300941312	19	4570
2026-01-02 09:46:15.71	113.28	43.70	-29.0	-30.7	13.3	1.44e-05	0	44	0	310378496	19	4338
2026-01-02 09:46:18.70	112.28	44.37	-29.7	-32.4	12.3	1.01e-04	0	43	0	319815680	19	4914
2026-01-02 09:46:21.69	111.23	45.05	-30.0	-32.5	11.9	4.56e-04	0	43	0	328204288	20	4850
2026-01-02 09:46:24.67	110.13	45.73	-29.7	-31.9	12.3	2.16e-04	0	43	0	337641472	20	4618
2026-01-02 09:46:27.65	108.99	46.40	-29.9	-32.3	12.0	4.94e-04	0	43	0	347078656	20	4750
2026-01-02 09:46:30.63	107.80	47.07	-29.9	-32.3	12.0	3.95e-04	0	43	0	356515840	20	4774
2026-01-02 09:46:33.61	106.56	47.74	-29.6	-31.5	12.5	1.75e-04	0	43	0	365953024	20	4513
2026-01-02 09:46:36.60	105.26	48.41	-28.6	-30.1	14.1	6.10e-06	0	43	0	375390208	18	4280
2026-01-02 09:46:39.61	103.89	49.07	-28.7	-30.3	13.9	6.10e-06	0	43	0	384827392	18	4354
2026-01-02 09:46:42.60	102.47	49.72	-28.5	-29.8	14.3	5.30e-06	0	43	0	394264576	18	4187
2026-01-02 09:46:45.56	101.01	50.36	-29.0	-31.0	13.6	7.60e-06	0	44	0	403701760	18	4544
2026-01-02 09:46:48.56	99.46	50.99	-29.1	-31.3	13.3	1.37e-05	0	44	0	413138944	18	4641
2026-01-02 09:46:51.55	97.85	51.60	-28.4	-29.7	14.3	7.00e-07	0	43	0	421527552	18	4179
2026-01-02 09:46:54.54	96.17	52.19	-28.4	-30.0	14.4	7.00e-07	0	43	0	430964736	17	4371
2026-01-02 09:46:57.53	94.43	52.77	-27.8	-28.7	15.2	0.00e+00	0	43	0	440401920	17	4007
2026-01-02 09:47:00.49	92.63	53.32	-27.8	-29.2	15.2	0.00e+00	0	43	0	449839104	16	4233
2026-01-02 09:47:03.48	90.75	53.85	-28.0	-29.7	14.9	0.00e+00	0	43	0	459276288	16	4376
2026-01-02 09:47:06.47	88.80	54.35	-27.9	-29.4	15.1	0.00e+00	0	44	0	468713472	16	4299
2026-01-02 09:47:09.45	86.79	54.82	-27.9	-29.5	15.0	7.00e-07	0	44	0	478150656	16	4335
2026-01-02 09:47:12.45	84.70	55.26	-27.8	-29.2	15.2	0.00e+00	0	43	0	487587840	16	4232
2026-01-02 09:47:15.43	82.56	55.67	-27.1	-28.3	15.8	0.00e+00	0	43	0	497025024	15	4106
2026-01-02 09:47:18.43	80.35	56.04	-27.5	-29.2	15.3	1.50e-06	0	44	0	506462208	15	4350
2026-01-02 09:47:21.42	78.09	56.36	-27.3	-28.5	15.6	0.00e+00	0	43	0	515899392	15	4173
2026-01-02 09:47:24.41	75.78	56.65	-27.1	-28.2	15.8	0.00e+00	0	43	0	524288000	15	4070
2026-01-02 09:47:27.40	73.42	56.88	-26.8	-27.9	16.2	2.20e-06	0	43	0	533725184	14	4110
2026-01-02 09:47:30.39	71.03	57.08	-27.4	-29.3	15.5	2.20e-06	0	43	0	543162368	14	4497
2026-01-02 09:47:33.38	68.60	57.22	-27.4	-29.0	15.4	0.00e+00	0	43	0	552599552	15	4290
2026-01-02 09:47:36.38	66.15	57.31	-26.9	-27.8	16.1	0.00e+00	0	43	0	562036736	15	3984
2026-01-02 09:47:39.40	63.67	57.36	-26.6	-27.5	16.5	1.50e-06	0	43	0	571473920	14	4013
2026-01-02 09:47:42.41	61.20	57.35	-26.9	-28.3	16.1	2.20e-06	0	43	0	580911104	14	4214
2026-01-02 09:47:45.42	58.73	57.30	-27.1	-28.7	15.9	0.00e+00	0	43	0	590348288	14	4320
2026-01-02 09:47:48.42	56.28	57.19	-27.0	-28.5	16.0	0.00e+00	0	43	0	599785472	14	4264
2026-01-02 09:47:51.42	53.86	57.03	-26.9	-28.2	16.2	0.00e+00	0	43	0	609222656	14	4174
2026-01-02 09:47:54.43	51.46	56.83	-26.6	-27.4	16.6	0.00e+00	0	43	0	618659840	14	3980
2026-01-02 09:47:57.43	49.11	56.57	-26.8	-27.9	16.3	0.00e+00	0	43	0	628097024	14	4110
2026-01-02 09:48:00.43	46.80	56.28	-27.0	-28.5	16.0	0.00e+00	0	43	0	637534208	14	4255
2026-01-02 09:48:03.43	44.55	55.94	-27.5	-29.2	15.3	7.00e-07	0	43	0	646971392	15	4338
2026-01-02 09:48:06.44	42.35	55.56	-27.6	-29.3	15.1	0.00e+00	0	43	0	656408576	15	4397
2026-01-02 09:48:09.46	40.20	55.14	-27.3	-28.6	15.6	0.00e+00	0	43	0	665845760	15	4193
2026-01-02 09:48:12.48	38.12	54.69	-27.6	-29.3	15.2	0.00e+00	0	43	0	675282944	15	4374
2026-01-02 09:48:15.48	36.12	54.21	-27.9	-29.0	14.8	7.00e-07	0	43	0	684720128	17	4084
2026-01-02 09:48:18.49	34.18	53.69	-27.6	-28.9	15.3	0.00e+00	0	43	0	694157312	16	4154
2026-01-02 09:48:21.50	32.31	53.15	-28.6	-30.7	14.0	1.50e-06	0	43	0	703594496	17	4561
2026-01-02 09:48:24.51	30.52	52.59	-27.9	-28.9	15.0	0.00e+00	0	43	0	713031680	17	4050
2026-01-02 09:48:27.52	28.79	52.01	-28.5	-30.8	14.2	0.00e+00	0	43	0	722468864	16	4702
2026-01-02 09:48:30.53	27.13	51.40	-29.7	-32.2	12.4	1.88e-04	0	43	0	730857472	19	4832
2026-01-02 09:48:33.55	25.53	50.78	-27.9	-29.6	14.9	0.00e+00	0	44	0	741343232	16	4341
2026-01-02 09:48:36.55	24.00	50.15	-30.2	-33.1	11.4	1.21e-03	0	43	0	750780416	20	5070
2026-01-02 09:48:39.56	22.54	49.50	-29.6	-31.6	12.4	1.49e-04	0	43	0	759169024	20	4543
2026-01-02 09:48:42.57	21.14	48.84	-29.4	-31.6	12.8	4.65e-05	0	44	0	768606208	19	4625
2026-01-02 09:48:45.58	19.79	48.18	-31.1	-34.7	9.6	1.52e-02	0	44	0	778043392	22	5485
2026-01-02 09:48:48.60	18.50	47.51	-28.4	-29.6	14.3	7.00e-07	0	44	0	787480576	18	4145
2026-01-02 09:48:51.60	17.28	46.84	-29.6	-32.1	12.4	4.80e-05	0	43	0	796917760	19	4794
2026-01-02 09:48:54.61	16.10	46.16	-30.8	-34.5	10.1	7.03e-03	0	43	0	806354944	21	5496
2026-01-02 09:48:57.62	14.97	45.48	-29.9	-31.8	11.9	4.04e-04	0	43	0	815792128	21	4502
2026-01-02 09:49:00.62	13.89	44.80	-30.5	-33.5	10.8	2.16e-03	0	43	0	825229312	21	5074
2026-01-02 09:49:03.63	12.86	44.12	-31.1	-34.6	9.7	1.05e-02	0	43	0	834666496	22	5432
2026-01-02 09:49:06.64	11.86	43.45	-30.9	-34.3	9.9	9.48e-03	0	43	0	844103680	22	5293
2026-01-02 09:49:09.65	10.91	42.77	-30.6	-33.2	10.6	3.23e-03	0	43	0	853540864	22	4891
2026-01-02 09:49:12.65	10.01	42.10	-31.0	-34.4	9.8	8.21e-03	0	43	0	862978048	22	5366
2026-01-02 09:49:15.66	9.13	41.44	-29.4	-31.2	12.5	1.97e-04	0	43	0	872415232	20	4403
2026-01-02 09:49:18.68	8.29	40.77	-29.0	-30.6	13.3	2.05e-05	0	43	0	881852416	19	4324
2026-01-02 09:49:21.69	7.49	40.12	-29.2	-31.0	13.0	4.42e-05	0	43	0	891289600	19	4464
2026-01-02 09:49:24.70	6.72	39.47	-29.6	-32.2	12.3	2.09e-04	0	43	0	900726784	19	4849
2026-01-02 09:49:27.72	5.97	38.82	-29.0	-30.6	13.2	3.89e-05	0	43	0	910163968	19	4335
2026-01-02 09:49:30.73	5.26	38.18	-29.0	-31.0	13.3	6.10e-06	0	43	0	919601152	18	4570
2026-01-02 09:49:33.74	4.58	37.55	-29.4	-32.1	12.6	6.86e-05	0	43	0	929038336	18	4920
2026-01-02 09:49:36.76	3.91	36.93	-28.9	-31.0	13.3	2.67e-05	0	43	0	938475520	18	4561
2026-01-02 09:49:39.77	3.28	36.31	-29.0	-31.1	13.2	2.74e-05	0	43	0	947912704	18	4605
2026-01-02 09:49:42.77	2.67	35.71	-29.2	-31.1	12.9	7.24e-05	0	44	0	957349888	19	4513
2026-01-02 09:49:45.78	2.09	35.11	-28.2	-29.7	14.3	7.00e-07	0	44	0	966787072	17	4297
2026-01-02 09:49:48.80	1.52	34.51	-27.0	-28.1	15.6	0.00e+00	0	43	0	976224256	15	4055
2026-01-02 09:49:51.81	0.97	33.93	-27.2	-28.4	15.4	0.00e+00	0	43	0	985661440	15	4152
2026-01-02 09:49:54.82	0.45	33.35	-27.2	-28.4	15.4	0.00e+00	0	43	0	995098624	15	4139
2026-01-02 09:49:57.83	359.94	32.78	-27.2	-28.6	15.3	0.00e+00	0	43	0	1004535808	15	4202
2026-01-02 09:50:00.83	359.45	32.23	-27.1	-28.2	15.5	0.00e+00	0	43	0	1013972992	15	4095
2026-01-02 09:50:03.84	358.98	31.67	-27.2	-28.6	15.3	0.00e+00	0	43	0	1023410176	15	4197
2026-01-02 09:50:06.86	358.52	31.13	-27.1	-28.2	15.5	0.00e+00	0	43	0	1032847360	15	4106
2026-01-02 09:50:09.87	358.08	30.59	-26.9	-27.9	15.7	0.00e+00	0	43	0	1042284544	15	4012
2026-01-02 09:50:12.88	357.65	30.06	-26.8	-27.6	15.8	0.00e+00	0	43	0	1050673152	15	3954
2026-01-02 09:50:15.88	357.24	29.55	-27.0	-28.1	15.5	0.00e+00	0	43	0	1060110336	15	4070
2026-01-02 09:50:18.90	356.84	29.03	-27.2	-28.5	15.3	0.00e+00	0	43	0	1070596096	15	4171
2026-01-02 09:50:21.91	356.45	28.53	-27.4	-29.0	15.0	0.00e+00	0	43	0	1078984704	15	4317
2026-01-02 09:50:24.93	356.08	28.03	-27.3	-28.7	15.2	0.00e+00	0	43	0	1088421888	15	4233
2026-01-02 09:50:27.94	355.72	27.54	-27.5	-29.1	14.9	0.00e+00	0	43	0	1097859072	15	4355
2026-01-02 09:50:30.95	355.36	27.06	-27.6	-29.4	14.7	0.00e+00	0	43	0	1107296256	15	4455
2026-01-02 09:50:33.96	355.02	26.58	-26.7	-27.9	15.8	0.00e+00	0	43	0	1116733440	14	4135
2026-01-02 09:50:36.98	354.69	26.11	-26.8	-28.2	15.7	0.00e+00	0	43	0	1126170624	14	4206
2026-01-02 09:50:39.98	354.37	25.65	-26.1	-27.1	16.5	0.00e+00	0	43	0	1135607808	13	4036
2026-01-02 09:50:42.99	354.06	25.20	-26.1	-27.0	16.6	0.00e+00	0	43	0	1145044992	13	4005
2026-01-02 09:50:46.01	353.76	24.75	-26.5	-27.9	16.1	0.00e+00	0	44	0	1154482176	13	4242
2026-01-02 09:50:49.01	353.47	24.31	-27.0	-28.5	15.5	0.00e+00	0	43	0	1163919360	14	4284
2026-01-02 09:50:52.01	353.18	23.88	-26.8	-28.2	15.6	0.00e+00	0	43	0	1173356544	14	4216
2026-01-02 09:50:55.01	352.91	23.45	-26.9	-28.2	15.6	0.00e+00	0	43	0	1182793728	14	4227
2026-01-02 09:50:58.02	352.64	23.03	-26.9	-28.4	15.4	0.00e+00	0	44	0	1192230912	14	4271
2026-01-02 09:51:01.03	352.37	22.62	-26.9	-28.3	15.5	0.00e+00	0	43	0	1201668096	14	4235
2026-01-02 09:51:04.05	352.12	22.21	-27.0	-28.5	15.4	0.00e+00	0	43	0	1211105280	14	4298
2026-01-02 09:51:07.06	351.87	21.80	-27.0	-28.5	15.4	0.00e+00	0	43	0	1220542464	14	4305
2026-01-02 09:51:10.07	351.63	21.40	-27.1	-28.8	15.2	0.00e+00	0	43	0	1229979648	14	4380
2026-01-02 09:51:13.08	351.39	21.01	-27.2	-28.7	14.9	0.00e+00	0	43	0	1239416832	15	4248
2026-01-02 09:51:16.09	351.16	20.63	-27.0	-28.0	15.3	0.00e+00	0	43	0	1248854016	15	4076
2026-01-02 09:51:19.09	350.94	20.25	-27.0	-28.0	15.3	0.00e+00	0	43	0	1258291200	15	4068
2026-01-02 09:51:22.10	350.72	19.87	-26.8	-28.1	15.6	0.00e+00	0	43	0	1267728384	14	4194
2026-01-02 09:51:25.11	350.51	19.50	-27.0	-28.7	15.2	0.00e+00	0	43	0	1277165568	14	4377
2026-01-02 09:51:28.13	350.31	19.13	-27.3	-29.2	14.9	0.00e+00	0	43	0	1286602752	14	4511
2026-01-02 09:51:31.15	350.10	18.77	-27.1	-28.9	15.0	0.00e+00	0	43	0	1296039936	14	4436
2026-01-02 09:51:34.17	349.91	18.41	-27.0	-28.6	15.2	0.00e+00	0	43	0	1305477120	14	4345
2026-01-02 09:51:37.18	349.72	18.06	-27.1	-28.8	15.1	0.00e+00	0	43	0	1314914304	14	4400
2026-01-02 09:51:40.19	349.53	17.72	-27.2	-29.1	14.9	0.00e+00	0	43	0	1324351488	14	4481
2026-01-02 09:51:43.20	349.35	17.37	-27.2	-29.1	14.9	0.00e+00	0	43	0	1333788672	14	4496
2026-01-02 09:51:46.21	349.17	17.04	-27.5	-29.7	14.5	0.00e+00	0	43	0	1343225856	14	4674
2026-01-02 09:51:49.23	348.99	16.70	-27.4	-29.7	14.5	0.00e+00	0	44	0	1352663040	14	4650
2026-01-02 09:51:52.25	348.82	16.37	-27.9	-30.2	13.9	7.00e-07	0	43	0	1362100224	15	4709
2026-01-02 09:51:55.26	348.66	16.05	-28.1	-30.3	13.7	6.10e-06	0	43	0	1371537408	16	4599
2026-01-02 09:51:58.27	348.49	15.73	-28.2	-30.5	13.6	1.06e-05	0	43	0	1380974592	16	4678
2026-01-02 09:52:01.27	348.34	15.41	-28.1	-30.3	13.7	7.60e-06	0	43	0	1390411776	16	4610
2026-01-02 09:52:04.30	348.18	15.09	-27.8	-29.4	14.2	7.00e-07	0	43	0	1398800384	16	4359
2026-01-02 09:52:07.30	348.03	14.79	-27.7	-29.2	14.3	1.50e-06	0	43	0	1409286144	16	4301
2026-01-02 09:52:10.31	347.88	14.48	-27.8	-29.6	14.0	4.50e-06	0	43	0	1418723328	16	4394
2026-01-02 09:52:13.30	347.74	14.18	-27.7	-29.4	14.2	3.80e-06	0	43	0	1427111936	16	4339
2026-01-02 09:52:16.31	347.59	13.88	-27.7	-29.4	14.1	7.00e-07	0	43	0	1436549120	16	4341
2026-01-02 09:52:19.32	347.46	13.59	-27.8	-29.6	13.9	7.60e-06	0	43	0	1445986304	16	4419
2026-01-02 09:52:22.33	347.32	13.29	-28.0	-30.1	13.6	4.50e-06	0	43	0	1455423488	16	4551
2026-01-02 09:52:25.35	347.19	13.00	-27.8	-29.4	14.0	5.30e-06	0	43	0	1464860672	16	4359
2026-01-02 09:52:28.36	347.06	12.72	-27.9	-29.7	13.8	5.30e-06	0	43	0	1474297856	16	4457
2026-01-02 09:52:31.37	346.93	12.44	-27.7	-29.3	14.0	2.20e-06	0	43	0	1483735040	16	4338
2026-01-02 09:52:34.38	346.80	12.16	-27.7	-29.4	14.0	1.50e-06	0	43	0	1493172224	16	4345
2026-01-02 09:52:37.39	346.68	11.88	-27.8	-29.5	14.0	3.80e-06	0	44	0	1502609408	16	4378
2026-01-02 09:52:40.40	346.56	11.61	-27.7	-29.2	14.1	2.20e-06	0	43	0	1512046592	16	4318
2026-01-02 09:52:43.42	346.44	11.34	-27.7	-29.4	14.0	3.80e-06	0	43	0	1521483776	16	4347
2026-01-02 09:52:46.42	346.33	11.07	-27.8	-29.5	13.8	3.00e-06	0	43	0	1530920960	16	4405
2026-01-02 09:52:49.43	346.22	10.81	-27.7	-29.4	13.9	6.10e-06	0	44	0	1540358144	16	4374
2026-01-02 09:52:52.43	346.11	10.54	-28.0	-30.0	13.5	9.90e-06	0	43	0	1549795328	16	4539
2026-01-02 09:52:55.45	346.00	10.28	-27.9	-29.8	13.7	5.30e-06	0	43	0	1559232512	16	4469
2026-01-02 09:52:58.46	345.89	10.03	-28.0	-30.0	13.5	8.30e-06	0	43	0	1568669696	16	4538
2026-01-02 09:53:01.46	345.79	9.77	-28.1	-30.3	13.3	2.89e-05	0	43	0	1578106880	16	4631
2026-01-02 09:53:04.46	345.69	9.52	-28.0	-30.2	13.3	1.83e-05	0	43	0	1587544064	16	4602
2026-01-02 09:53:07.47	345.59	9.27	-28.3	-30.8	12.9	4.57e-05	0	43	0	1596981248	16	4816
2026-01-02 09:53:10.48	345.49	9.03	-28.2	-30.6	13.0	3.50e-05	0	43	0	1606418432	16	4734
2026-01-02 09:53:13.49	345.39	8.78	-28.3	-30.8	12.9	4.27e-05	0	43	0	1615855616	16	4800
2026-01-02 09:53:16.49	345.30	8.54	-28.3	-30.9	12.8	6.40e-05	0	44	0	1625292800	16	4851
2026-01-02 09:53:19.50	345.20	8.30	-28.3	-31.0	12.8	6.79e-05	0	43	0	1634729984	16	4873
2026-01-02 09:53:22.50	345.11	8.06	-28.5	-30.9	12.5	1.30e-04	0	43	0	1644167168	17	4750
2026-01-02 09:53:25.50	345.02	7.83	-28.7	-31.3	12.0	3.15e-04	0	43	0	1653604352	17	4887
2026-01-02 09:53:28.52	344.93	7.59	-28.9	-31.9	11.6	7.28e-04	0	43	0	1663041536	17	5102
2026-01-02 09:53:31.53	344.85	7.36	-28.7	-30.9	12.0	4.35e-04	0	43	0	1672478720	18	4633
2026-01-02 09:53:34.55	344.76	7.13	-28.7	-31.0	12.0	3.98e-04	0	43	0	1681915904	18	4657
2026-01-02 09:53:37.57	344.68	6.90	-33.1	-44.9	3.8	1.49e+00	0	43	104	1686110208	26	14086

#Closed at: 2026-01-02 09:53:39
#Recorded file [1686 MB]: D:/data/31010_260102_124436.dat