passes_logs/2026/01/02/R2M6_AANII_01/R2M6_AANII_01__20260102_035405_AQUA_rec.log

#Pass ID: 20260102_035405_AQUA
#Satellite: AQUA
#Configuration: AQUA
#almurnet v.1.7.20240730
#Start time: 2026-01-02 03:54:05

#Version: 2.2.20231116
#Station: R2M6_AANII_01
#Location: 30.233357 lon 59.946436 lat
#TLE: 1 27424U 02022A   25365.92641127  .00002078  00000+0  42628-3 0  9999
#TLE: 2 27424  98.4058 327.1196 0001962  94.7781 340.6230 14.61783896258835

#Time	Az	El	Level	Level2	SNR	BER	BlckErr	Temp	State	Recorded	gain1	gain2
2026-01-02 03:54:05.40	4.93	6.98	-32.4	-50.5	3.8	7.45e-01	0	41	0	0	25	28814
2026-01-02 03:54:07.41	4.70	7.10	-31.9	-48.3	3.8	7.43e-01	0	41	104	0	24	23755
2026-01-02 03:54:09.41	4.47	7.23	-32.0	-48.9	3.8	7.48e-01	0	41	104	0	24	25045
2026-01-02 03:54:11.42	4.23	7.36	-32.3	-49.5	3.8	7.45e-01	0	41	104	0	25	26002
2026-01-02 03:54:13.43	3.99	7.49	-32.2	-48.9	3.8	7.47e-01	0	41	104	0	25	24637
2026-01-02 03:54:15.43	3.75	7.62	-31.9	-48.1	3.8	7.44e-01	0	41	104	0	24	23117
2026-01-02 03:54:17.44	3.51	7.75	-31.3	-46.0	3.8	7.44e-01	0	41	104	0	23	19521
2026-01-02 03:54:19.44	3.27	7.87	-31.5	-46.5	3.8	7.46e-01	0	41	104	0	23	20407
2026-01-02 03:54:21.46	3.02	8.00	-31.5	-46.7	3.8	7.48e-01	0	41	104	0	23	20718
2026-01-02 03:54:23.46	2.77	8.13	-31.3	-46.0	3.8	7.48e-01	0	41	104	0	23	19496
2026-01-02 03:54:25.48	2.52	8.26	-31.3	-46.1	3.8	7.45e-01	0	41	104	0	23	19674
2026-01-02 03:54:27.49	2.26	8.39	-31.7	-47.1	3.8	7.43e-01	0	41	104	0	24	21130
2026-01-02 03:54:29.50	2.00	8.52	-32.0	-48.3	3.8	7.43e-01	0	41	104	0	24	23500
2026-01-02 03:54:31.51	1.74	8.65	-32.2	-48.9	3.8	7.49e-01	0	41	104	0	25	24490
2026-01-02 03:54:33.51	1.48	8.79	-32.2	-48.8	3.8	7.44e-01	0	41	104	0	25	24317
2026-01-02 03:54:35.53	1.21	8.92	-32.2	-48.8	3.8	7.43e-01	0	41	104	0	25	24257
2026-01-02 03:54:37.53	0.95	9.05	-32.3	-49.1	3.8	7.44e-01	0	41	104	0	25	25053
2026-01-02 03:54:39.54	0.68	9.18	-32.5	-50.1	3.8	7.48e-01	0	42	104	0	25	27507
2026-01-02 03:54:41.54	0.40	9.31	-32.6	-50.4	3.8	7.48e-01	0	41	104	0	26	27851
2026-01-02 03:54:43.55	0.13	9.44	-32.5	-50.4	3.8	7.44e-01	0	42	104	0	25	28019
2026-01-02 03:54:45.56	359.85	9.57	-32.5	-50.3	3.8	7.44e-01	0	42	104	0	25	27725
2026-01-02 03:54:47.57	359.57	9.71	-32.5	-50.0	3.8	7.42e-01	0	42	104	0	25	26983
2026-01-02 03:54:49.58	359.28	9.84	-32.5	-49.7	3.8	7.46e-01	0	42	104	0	25	26246
2026-01-02 03:54:51.58	358.99	9.97	-32.4	-49.2	3.8	7.47e-01	0	42	104	0	25	24947
2026-01-02 03:54:53.59	358.70	10.10	-32.1	-48.1	3.8	7.44e-01	0	42	104	0	25	22538
2026-01-02 03:54:55.59	358.41	10.23	-31.7	-46.6	3.8	7.45e-01	0	42	104	0	24	20045
2026-01-02 03:54:57.60	358.12	10.37	-31.6	-46.4	3.8	7.43e-01	0	42	104	0	24	19646
2026-01-02 03:54:59.61	357.82	10.50	-31.9	-47.3	3.8	7.46e-01	0	42	104	0	24	21288
2026-01-02 03:55:01.61	357.51	10.63	-32.2	-48.0	3.8	7.44e-01	0	42	104	0	25	22208
2026-01-02 03:55:03.61	357.21	10.76	-31.8	-47.0	3.8	7.44e-01	0	42	104	0	24	20701
2026-01-02 03:55:05.63	356.90	10.90	-31.3	-45.5	3.8	7.46e-01	0	42	104	0	23	18518
2026-01-02 03:55:07.64	356.59	11.03	-31.9	-47.3	3.8	7.45e-01	0	42	104	0	24	21197
2026-01-02 03:55:09.65	356.27	11.16	-32.3	-48.7	3.8	7.47e-01	0	42	104	0	25	23606
2026-01-02 03:55:11.67	355.95	11.30	-31.8	-46.5	3.8	7.42e-01	0	42	104	0	25	19585
2026-01-02 03:55:13.67	355.63	11.43	-30.2	-44.6	3.8	7.47e-01	0	42	104	0	23	18938
2026-01-02 03:55:15.67	355.31	11.56	-31.7	-46.1	3.8	7.48e-01	0	42	104	0	23	18877
2026-01-02 03:55:17.67	354.99	11.70	-31.8	-47.1	3.8	7.47e-01	0	42	104	0	24	20733
2026-01-02 03:55:19.68	354.65	11.83	-32.2	-48.0	3.8	7.42e-01	0	42	104	0	25	22312
2026-01-02 03:55:21.68	354.32	11.96	-32.3	-48.7	3.8	7.47e-01	0	42	104	0	25	23780
2026-01-02 03:55:23.70	353.98	12.09	-32.4	-48.9	3.8	7.44e-01	0	42	104	0	25	24044
2026-01-02 03:55:25.71	353.64	12.23	-32.4	-49.2	3.8	7.45e-01	0	42	104	0	25	24803
2026-01-02 03:55:27.72	353.30	12.36	-32.6	-49.6	3.8	7.45e-01	0	42	104	0	26	25383
2026-01-02 03:55:29.73	352.95	12.49	-32.8	-50.5	3.8	7.47e-01	0	42	104	0	26	27720
2026-01-02 03:55:31.72	352.60	12.62	-32.7	-50.0	3.8	7.44e-01	0	42	104	0	26	26346
2026-01-02 03:55:33.73	352.25	12.75	-32.5	-49.2	3.8	7.45e-01	0	42	104	0	25	24848
2026-01-02 03:55:35.73	351.89	12.88	-32.4	-49.0	3.8	7.44e-01	0	43	104	0	25	24361
2026-01-02 03:55:37.74	351.53	13.02	-32.3	-48.5	3.8	7.47e-01	0	42	104	0	25	23153
2026-01-02 03:55:39.75	351.16	13.15	-32.2	-48.2	3.8	7.47e-01	0	42	104	0	25	22490
2026-01-02 03:55:41.77	350.79	13.28	-31.9	-46.7	3.8	7.45e-01	0	43	104	0	25	19752
2026-01-02 03:55:43.77	350.42	13.41	-31.2	-45.3	3.8	7.45e-01	0	42	104	0	23	18234
2026-01-02 03:55:45.79	350.05	13.54	-30.6	-43.7	3.8	7.46e-01	0	42	104	0	22	16418
2026-01-02 03:55:47.80	349.67	13.67	-30.7	-44.0	3.8	7.45e-01	0	42	104	0	22	16735
2026-01-02 03:55:49.80	349.29	13.80	-31.0	-45.1	3.8	7.44e-01	0	42	104	0	22	18189
2026-01-02 03:55:51.81	348.90	13.92	-31.5	-46.3	3.8	7.44e-01	0	43	104	0	23	19587
2026-01-02 03:55:53.82	348.51	14.05	-31.2	-45.3	3.8	7.44e-01	0	43	104	0	23	18165
2026-01-02 03:55:55.83	348.11	14.18	-31.7	-46.4	3.8	7.48e-01	0	43	104	0	24	19419
2026-01-02 03:55:57.83	347.72	14.31	-32.3	-48.4	3.8	7.43e-01	0	43	104	0	25	22853
2026-01-02 03:55:59.84	347.32	14.43	-32.7	-49.6	3.8	7.43e-01	0	42	104	0	26	25047
2026-01-02 03:56:01.84	346.91	14.56	-32.3	-41.0	4.8	7.11e-01	0	42	104	0	25	9740
2026-01-02 03:56:03.84	346.51	14.68	-32.2	-39.3	12.1	6.04e-01	0	43	0	1048576	25	8178
2026-01-02 03:56:05.84	346.10	14.81	-31.8	-37.9	13.5	6.04e-01	0	43	0	4718592	24	7277
2026-01-02 03:56:07.85	345.68	14.93	-31.6	-37.3	14.1	6.01e-01	0	43	0	8388608	24	6922
2026-01-02 03:56:09.86	345.26	15.05	-31.8	-38.0	13.6	6.03e-01	0	43	0	12058624	24	7347
2026-01-02 03:56:11.88	344.83	15.18	-31.1	-35.2	15.6	5.99e-01	0	43	0	16252928	24	5783
2026-01-02 03:56:13.89	344.41	15.30	-30.3	-34.3	17.2	6.04e-01	0	43	0	19922944	21	5722
2026-01-02 03:56:15.88	343.98	15.42	-30.0	-33.8	17.9	6.00e-01	0	43	0	23592960	20	5590
2026-01-02 03:56:17.90	343.54	15.54	-29.4	-32.2	18.9	6.00e-01	0	43	0	27262976	20	4966
2026-01-02 03:56:19.91	343.10	15.65	-29.5	-32.6	18.8	6.00e-01	0	43	0	30932992	20	5111
2026-01-02 03:56:21.91	342.66	15.77	-29.5	-32.8	19.0	6.01e-01	0	43	0	35127296	19	5299
2026-01-02 03:56:23.92	342.22	15.89	-29.4	-32.7	19.1	6.01e-01	0	43	0	38797312	19	5256
2026-01-02 03:56:25.93	341.77	16.00	-29.5	-33.0	18.9	5.99e-01	0	43	0	42467328	19	5374
2026-01-02 03:56:27.94	341.31	16.12	-29.6	-33.1	18.8	6.02e-01	0	43	0	46137344	19	5417
2026-01-02 03:56:29.95	340.85	16.23	-29.9	-33.5	18.2	6.02e-01	0	43	0	49807360	20	5449
2026-01-02 03:56:31.96	340.39	16.34	-29.4	-32.3	19.0	6.03e-01	0	43	0	53477376	20	4997
2026-01-02 03:56:33.95	339.93	16.45	-29.5	-32.8	19.0	6.02e-01	0	43	0	57671680	19	5304
2026-01-02 03:56:35.96	339.46	16.56	-29.4	-32.2	19.1	5.99e-01	0	43	0	61341696	20	4956
2026-01-02 03:56:37.97	338.99	16.67	-29.4	-32.6	19.1	6.00e-01	0	43	0	65011712	19	5230
2026-01-02 03:56:39.97	338.52	16.78	-29.4	-32.7	19.1	5.99e-01	0	43	0	68681728	19	5247
2026-01-02 03:56:41.97	338.04	16.88	-29.7	-33.0	18.6	6.01e-01	0	43	0	72351744	20	5244
2026-01-02 03:56:43.98	337.56	16.99	-29.8	-33.2	18.4	6.02e-01	0	43	0	76021760	20	5358
2026-01-02 03:56:45.99	337.07	17.09	-29.6	-32.7	18.7	6.00e-01	0	43	0	80216064	20	5165
2026-01-02 03:56:48.00	336.58	17.19	-29.6	-32.6	18.9	6.02e-01	0	43	0	83886080	20	5112
2026-01-02 03:56:50.01	336.09	17.29	-29.6	-32.7	18.7	6.01e-01	0	43	0	87556096	20	5161
2026-01-02 03:56:52.01	335.59	17.38	-29.5	-32.9	19.0	6.00e-01	0	43	0	91226112	19	5322
2026-01-02 03:56:54.01	335.09	17.48	-29.6	-32.8	18.7	6.01e-01	0	43	0	94896128	20	5187
2026-01-02 03:56:56.01	334.59	17.57	-29.5	-32.9	19.1	6.01e-01	0	43	0	99090432	19	5301
2026-01-02 03:56:58.02	334.08	17.67	-29.5	-32.8	19.1	6.01e-01	0	43	0	102760448	19	5291
2026-01-02 03:57:00.03	333.57	17.76	-29.5	-32.9	19.0	6.00e-01	0	43	0	106430464	19	5303
2026-01-02 03:57:02.03	333.06	17.84	-29.5	-32.9	19.1	6.02e-01	0	43	0	110100480	19	5321
2026-01-02 03:57:04.04	332.54	17.93	-29.8	-33.2	18.5	5.99e-01	0	43	0	113770496	20	5320
2026-01-02 03:57:06.04	332.03	18.01	-29.4	-32.2	19.0	6.01e-01	0	43	0	117440512	20	4977
2026-01-02 03:57:08.05	331.50	18.10	-29.6	-33.1	19.0	6.01e-01	0	43	0	121634816	19	5383
2026-01-02 03:57:10.06	330.98	18.18	-29.7	-33.4	18.5	6.00e-01	0	43	0	125304832	19	5526
2026-01-02 03:57:12.06	330.45	18.26	-29.6	-33.0	17.2	6.07e-01	0	43	0	128974848	19	5358
2026-01-02 03:57:14.06	329.92	18.33	-29.5	-32.4	19.0	6.02e-01	0	43	0	132644864	20	5032
2026-01-02 03:57:16.07	329.38	18.41	-29.6	-32.6	16.7	5.98e-01	0	43	0	136314880	20	5088
2026-01-02 03:57:18.08	328.85	18.48	-29.5	-32.9	17.5	5.99e-01	0	43	0	139984896	19	5305
2026-01-02 03:57:20.08	328.31	18.55	-29.6	-33.0	19.0	5.98e-01	0	43	0	144179200	19	5353
2026-01-02 03:57:22.09	327.76	18.61	-29.5	-32.8	19.2	6.02e-01	0	43	0	147849216	19	5274
2026-01-02 03:57:24.09	327.22	18.68	-29.6	-33.0	19.0	6.00e-01	0	43	0	151519232	19	5349
2026-01-02 03:57:26.09	326.68	18.74	-29.7	-32.9	18.7	5.99e-01	0	43	0	155189248	20	5221
2026-01-02 03:57:28.09	326.13	18.80	-29.6	-32.7	18.8	6.01e-01	0	43	0	158859264	20	5141
2026-01-02 03:57:30.10	325.57	18.86	-29.9	-33.4	18.4	5.99e-01	0	43	0	162529280	20	5413
2026-01-02 03:57:32.10	325.02	18.91	-29.8	-33.2	18.5	6.02e-01	0	43	0	166723584	20	5339
2026-01-02 03:57:34.11	324.46	18.96	-29.8	-33.2	18.5	6.00e-01	0	43	0	170393600	20	5338
2026-01-02 03:57:36.11	323.91	19.01	-30.2	-33.8	17.7	6.01e-01	0	43	0	174063616	21	5461
2026-01-02 03:57:38.12	323.35	19.06	-29.8	-32.6	18.6	6.01e-01	0	43	0	177733632	21	4997
2026-01-02 03:57:40.13	322.78	19.11	-29.6	-32.7	18.8	6.00e-01	0	43	0	181403648	20	5141
2026-01-02 03:57:42.14	322.22	19.15	-29.6	-32.7	18.8	6.00e-01	0	43	0	185073664	20	5141
2026-01-02 03:57:44.15	321.65	19.19	-29.6	-32.8	18.7	6.00e-01	0	43	0	189267968	20	5161
2026-01-02 03:57:46.15	321.09	19.22	-29.5	-32.4	19.0	6.06e-01	0	43	0	192937984	20	5036
2026-01-02 03:57:48.16	320.52	19.26	-29.5	-32.5	19.0	6.03e-01	0	43	0	196608000	20	5068
2026-01-02 03:57:50.17	319.95	19.29	-29.6	-32.6	18.9	5.98e-01	0	43	0	200278016	20	5099
2026-01-02 03:57:52.18	319.38	19.32	-29.7	-33.0	18.6	6.03e-01	0	43	0	203948032	20	5261
2026-01-02 03:57:54.19	318.80	19.34	-29.9	-33.5	18.4	6.03e-01	0	43	0	208142336	20	5439
2026-01-02 03:57:56.20	318.23	19.36	-29.7	-33.0	18.6	6.03e-01	0	43	0	211812352	20	5258
2026-01-02 03:57:58.20	317.66	19.38	-30.0	-33.7	18.2	5.99e-01	0	43	0	215482368	20	5521
2026-01-02 03:58:00.21	317.08	19.40	-29.5	-32.5	18.9	6.02e-01	0	43	0	219152384	20	5067
2026-01-02 03:58:02.22	316.51	19.41	-29.3	-32.0	19.2	6.01e-01	0	43	0	222822400	20	4879
2026-01-02 03:58:04.23	315.93	19.43	-29.5	-32.8	19.2	6.01e-01	0	43	0	226492416	19	5266
2026-01-02 03:58:06.24	315.35	19.43	-29.8	-33.1	18.6	5.99e-01	0	43	0	230686720	20	5302
2026-01-02 03:58:08.25	314.77	19.44	-30.2	-33.8	17.9	6.01e-01	0	43	0	234356736	21	5452
2026-01-02 03:58:10.26	314.20	19.44	-29.9	-33.7	18.1	6.00e-01	0	43	0	238026752	20	5517
2026-01-02 03:58:12.26	313.62	19.44	-30.2	-33.7	17.9	5.99e-01	0	43	0	241696768	21	5401
2026-01-02 03:58:14.27	313.04	19.44	-29.5	-32.5	19.0	5.99e-01	0	43	0	245366784	20	5043
2026-01-02 03:58:16.27	312.47	19.43	-29.7	-32.9	18.7	6.03e-01	0	43	0	249561088	20	5221
2026-01-02 03:58:18.27	311.89	19.42	-29.8	-33.1	18.6	6.01e-01	0	43	0	253231104	20	5296
2026-01-02 03:58:20.27	311.32	19.41	-29.8	-33.2	18.6	6.02e-01	0	43	0	256901120	20	5343
2026-01-02 03:58:22.27	310.75	19.40	-30.0	-33.9	18.1	6.00e-01	0	43	0	260571136	20	5614
2026-01-02 03:58:24.28	310.17	19.38	-29.8	-33.2	18.5	6.00e-01	0	43	0	264241152	20	5316
2026-01-02 03:58:26.29	309.60	19.36	-30.2	-33.9	17.7	6.00e-01	0	43	0	267911168	21	5512
2026-01-02 03:58:28.29	309.03	19.33	-29.9	-33.4	18.3	6.02e-01	0	43	0	271581184	20	5410
2026-01-02 03:58:30.29	308.46	19.31	-29.5	-32.5	18.9	6.02e-01	0	43	0	275775488	20	5062
2026-01-02 03:58:32.29	307.89	19.28	-30.2	-33.8	17.9	6.00e-01	0	43	0	279445504	21	5455
2026-01-02 03:58:34.28	307.32	19.25	-29.9	-33.5	18.3	6.00e-01	0	43	0	283115520	20	5446
2026-01-02 03:58:36.28	306.75	19.21	-29.4	-32.6	19.3	5.99e-01	0	43	0	286785536	19	5196
2026-01-02 03:58:38.28	306.19	19.18	-29.6	-32.6	18.9	6.01e-01	0	43	0	290455552	20	5110
2026-01-02 03:58:40.29	305.62	19.14	-29.5	-32.7	19.2	6.01e-01	0	43	0	294649856	19	5248
2026-01-02 03:58:42.30	305.06	19.09	-29.1	-31.8	19.8	5.99e-01	0	43	0	298319872	19	4913
2026-01-02 03:58:44.31	304.49	19.05	-29.2	-31.6	19.5	6.00e-01	0	43	0	301989888	20	4759
2026-01-02 03:58:46.31	303.94	19.00	-29.1	-31.4	19.6	6.04e-01	0	43	0	305659904	20	4672
2026-01-02 03:58:48.31	303.38	18.95	-29.1	-31.3	19.5	6.02e-01	0	43	0	309329920	20	4662
2026-01-02 03:58:50.31	302.82	18.90	-29.3	-31.9	19.0	6.02e-01	0	43	0	312999936	20	4859
2026-01-02 03:58:52.32	302.27	18.84	-29.5	-32.5	18.8	6.01e-01	0	43	0	316669952	20	5079
2026-01-02 03:58:54.33	301.72	18.78	-29.5	-32.9	19.1	6.01e-01	0	43	0	320864256	19	5313
2026-01-02 03:58:56.33	301.17	18.72	-29.2	-32.1	19.6	6.01e-01	0	43	0	324534272	19	5005
2026-01-02 03:58:58.34	300.62	18.66	-29.1	-31.8	19.7	6.02e-01	0	43	0	328204288	19	4920
2026-01-02 03:59:00.35	300.07	18.59	-29.0	-31.5	19.9	6.01e-01	0	43	0	331874304	19	4814
2026-01-02 03:59:02.35	299.53	18.52	-29.2	-32.1	19.5	6.01e-01	0	43	0	335544320	19	5035
2026-01-02 03:59:04.35	298.99	18.45	-29.8	-33.4	18.4	6.01e-01	0	43	0	339738624	20	5406
2026-01-02 03:59:06.37	298.45	18.38	-29.7	-33.0	18.6	5.99e-01	0	43	0	343408640	20	5269
2026-01-02 03:59:08.37	297.92	18.31	-29.5	-32.9	19.0	6.02e-01	0	43	0	347078656	19	5319
2026-01-02 03:59:10.38	297.39	18.23	-29.6	-33.1	18.8	5.98e-01	0	43	0	350748672	19	5418
2026-01-02 03:59:12.38	296.86	18.15	-29.7	-32.9	18.6	6.00e-01	0	43	0	354418688	20	5224
2026-01-02 03:59:14.39	296.33	18.07	-29.5	-32.5	18.9	6.02e-01	0	43	0	358088704	20	5053
2026-01-02 03:59:16.39	295.81	17.99	-29.3	-32.0	19.2	6.01e-01	0	43	0	362283008	20	4886
2026-01-02 03:59:18.40	295.29	17.90	-28.5	-31.7	18.7	5.99e-01	0	43	0	365953024	20	5201
2026-01-02 03:59:20.41	294.77	17.81	-29.8	-33.8	17.8	6.01e-01	0	43	0	369623040	19	5692
2026-01-02 03:59:22.41	294.26	17.73	-29.4	-32.6	19.0	6.01e-01	0	43	0	373293056	19	5207
2026-01-02 03:59:24.41	293.75	17.63	-29.6	-32.7	16.6	6.11e-01	0	43	0	376963072	20	5148
2026-01-02 03:59:26.42	293.24	17.54	-29.2	-32.1	17.3	6.03e-01	0	43	0	380633088	19	5008
2026-01-02 03:59:28.43	292.74	17.45	-29.2	-32.0	19.4	5.99e-01	0	43	0	384827392	19	5006
2026-01-02 03:59:30.44	292.24	17.35	-29.7	-33.1	18.3	6.01e-01	0	43	0	388497408	20	5295
2026-01-02 03:59:32.43	291.74	17.25	-29.2	-32.1	19.4	6.02e-01	0	43	0	392167424	19	5025
2026-01-02 03:59:34.44	291.25	17.15	-29.2	-32.1	19.5	5.99e-01	0	43	0	395837440	19	5025
2026-01-02 03:59:36.44	290.76	17.05	-29.5	-33.0	18.9	6.00e-01	0	43	0	399507456	19	5358
2026-01-02 03:59:38.45	290.27	16.95	-29.5	-33.1	18.8	6.02e-01	0	43	0	403177472	19	5402
2026-01-02 03:59:40.44	289.79	16.85	-29.0	-32.0	19.8	6.01e-01	0	43	0	407371776	18	5107
2026-01-02 03:59:42.45	289.31	16.74	-29.6	-32.7	18.6	6.02e-01	0	43	0	411041792	20	5170
2026-01-02 03:59:44.45	288.84	16.63	-29.6	-32.7	18.7	6.01e-01	0	43	0	414711808	20	5159
2026-01-02 03:59:46.46	288.37	16.52	-29.3	-32.5	19.1	5.98e-01	0	43	0	418381824	19	5157
2026-01-02 03:59:48.46	287.90	16.41	-29.8	-33.5	18.1	6.02e-01	0	43	0	422051840	20	5467
2026-01-02 03:59:50.47	287.43	16.30	-29.5	-32.9	18.9	6.01e-01	0	43	0	425721856	19	5328
2026-01-02 03:59:52.47	286.97	16.19	-30.2	-34.0	17.4	5.99e-01	0	43	0	429916160	21	5559
2026-01-02 03:59:54.49	286.51	16.08	-29.6	-32.7	18.6	6.02e-01	0	43	0	433586176	20	5166
2026-01-02 03:59:56.48	286.06	15.96	-29.4	-32.4	18.7	6.00e-01	0	43	0	437256192	20	5040
2026-01-02 03:59:58.49	285.61	15.85	-29.6	-32.8	18.5	5.99e-01	0	43	0	440926208	20	5222
2026-01-02 04:00:00.49	285.17	15.73	-29.7	-33.1	18.2	6.02e-01	0	43	0	444596224	20	5345
2026-01-02 04:00:02.49	284.73	15.61	-29.5	-33.0	18.8	6.00e-01	0	43	0	448266240	19	5379
2026-01-02 04:00:04.51	284.28	15.49	-29.7	-33.1	18.3	6.00e-01	0	43	0	452460544	20	5335
2026-01-02 04:00:06.52	283.85	15.37	-29.5	-32.9	18.8	5.99e-01	0	43	0	456130560	19	5360
2026-01-02 04:00:08.53	283.42	15.25	-29.7	-33.0	18.4	6.03e-01	0	43	0	459800576	20	5292
2026-01-02 04:00:10.54	282.99	15.13	-29.4	-32.2	18.9	6.03e-01	0	43	0	463470592	20	4986
2026-01-02 04:00:12.53	282.57	15.01	-29.5	-32.6	18.6	6.02e-01	0	43	0	467140608	20	5120
2026-01-02 04:00:14.53	282.15	14.88	-29.3	-32.5	19.0	6.01e-01	0	43	0	470810624	19	5189
2026-01-02 04:00:16.54	281.73	14.76	-29.4	-32.7	19.0	6.01e-01	0	43	0	475004928	19	5262
2026-01-02 04:00:18.54	281.32	14.63	-29.2	-32.1	19.3	6.02e-01	0	43	0	478674944	19	5051
2026-01-02 04:00:20.55	280.91	14.51	-29.3	-32.5	19.0	6.02e-01	0	43	0	482344960	19	5218
2026-01-02 04:00:22.56	280.50	14.38	-29.2	-32.1	19.3	6.00e-01	0	43	0	486014976	19	5062
2026-01-02 04:00:24.56	280.10	14.26	-29.5	-32.9	18.7	6.01e-01	0	43	0	489684992	19	5375
2026-01-02 04:00:26.57	279.71	14.13	-29.4	-32.9	18.7	6.00e-01	0	43	0	493355008	19	5349
2026-01-02 04:00:28.58	279.31	14.00	-29.6	-33.3	18.5	6.01e-01	0	43	0	497549312	19	5518
2026-01-02 04:00:30.58	278.92	13.87	-29.7	-33.3	18.1	6.01e-01	0	43	0	501219328	20	5418
2026-01-02 04:00:32.58	278.54	13.74	-29.4	-32.7	18.9	6.00e-01	0	43	0	504889344	19	5280
2026-01-02 04:00:34.58	278.15	13.61	-29.6	-33.0	18.3	6.01e-01	0	43	0	508559360	20	5295
2026-01-02 04:00:36.58	277.78	13.48	-29.7	-33.2	18.1	6.03e-01	0	43	0	512229376	20	5392
2026-01-02 04:00:38.59	277.40	13.35	-29.4	-32.7	18.8	5.98e-01	0	43	0	515899392	19	5290
2026-01-02 04:00:40.60	277.03	13.22	-29.5	-33.0	18.6	6.02e-01	0	43	0	520093696	19	5404
2026-01-02 04:00:42.61	276.66	13.09	-29.4	-32.9	18.6	6.00e-01	0	43	0	523763712	19	5374
2026-01-02 04:00:44.61	276.29	12.96	-29.2	-32.3	19.0	6.01e-01	0	43	0	527433728	19	5140
2026-01-02 04:00:46.61	275.93	12.83	-29.2	-32.4	19.0	6.01e-01	0	43	0	531103744	19	5170
2026-01-02 04:00:48.60	275.58	12.70	-29.4	-32.8	18.7	6.01e-01	0	43	0	534773760	19	5338
2026-01-02 04:00:50.60	275.22	12.57	-29.3	-32.7	18.8	6.01e-01	0	43	0	538443776	19	5277
2026-01-02 04:00:52.61	274.87	12.44	-29.5	-33.1	18.5	5.97e-01	0	43	0	542638080	19	5445
2026-01-02 04:00:54.62	274.52	12.30	-29.4	-32.9	18.6	5.99e-01	0	43	0	546308096	19	5362
2026-01-02 04:00:56.63	274.18	12.17	-29.4	-32.9	18.6	6.02e-01	0	43	0	549978112	19	5363
2026-01-02 04:00:58.64	273.83	12.04	-29.5	-33.1	18.5	6.02e-01	0	43	0	553648128	19	5430
2026-01-02 04:01:00.65	273.49	11.90	-29.7	-33.3	17.9	6.02e-01	0	43	0	557318144	20	5441
2026-01-02 04:01:02.66	273.16	11.77	-29.4	-32.5	18.5	6.01e-01	0	43	0	561512448	20	5118
2026-01-02 04:01:04.65	272.83	11.64	-29.6	-33.3	18.4	6.02e-01	0	43	0	565182464	19	5536
2026-01-02 04:01:06.65	272.50	11.51	-29.4	-33.0	18.5	6.00e-01	0	43	0	568852480	19	5412
2026-01-02 04:01:08.65	272.18	11.37	-29.4	-32.9	18.5	6.00e-01	0	43	0	572522496	19	5390
2026-01-02 04:01:10.66	271.86	11.24	-29.3	-32.7	18.7	5.99e-01	0	43	0	576192512	19	5297
2026-01-02 04:01:12.66	271.54	11.11	-29.6	-33.3	18.3	6.00e-01	0	43	0	579862528	19	5542
2026-01-02 04:01:14.67	271.22	10.97	-29.5	-33.2	18.4	6.02e-01	0	43	0	584056832	19	5495
2026-01-02 04:01:16.67	270.91	10.84	-29.5	-33.2	18.3	6.01e-01	0	43	0	587726848	19	5512
2026-01-02 04:01:18.67	270.60	10.71	-29.4	-33.0	18.4	5.99e-01	0	43	0	591396864	19	5428
2026-01-02 04:01:20.68	270.30	10.57	-29.7	-33.3	17.9	6.01e-01	0	43	0	595066880	20	5453
2026-01-02 04:01:22.69	269.99	10.44	-29.5	-32.7	18.3	5.98e-01	0	43	0	598736896	20	5193
2026-01-02 04:01:24.69	269.69	10.31	-29.6	-33.0	17.8	6.01e-01	0	43	0	602406912	20	5324
2026-01-02 04:01:26.69	269.40	10.17	-29.7	-33.5	16.2	6.00e-01	0	43	0	606601216	20	5518
2026-01-02 04:01:28.69	269.10	10.04	-29.5	-32.9	16.8	6.01e-01	0	43	0	610271232	20	5288
2026-01-02 04:01:30.71	268.81	9.91	-29.6	-33.1	17.7	6.03e-01	0	43	0	613941248	20	5383
2026-01-02 04:01:32.71	268.52	9.78	-29.7	-33.3	17.7	6.01e-01	0	43	0	617611264	20	5456
2026-01-02 04:01:34.72	268.24	9.64	-29.5	-33.4	18.1	6.02e-01	0	43	0	621281280	19	5585
2026-01-02 04:01:36.72	267.96	9.51	-29.7	-33.3	17.8	6.00e-01	0	43	0	624951296	20	5481
2026-01-02 04:01:38.73	267.68	9.38	-29.6	-33.2	17.8	6.03e-01	0	43	0	629145600	20	5432
2026-01-02 04:01:40.74	267.40	9.25	-29.8	-33.6	17.5	6.03e-01	0	43	0	632815616	20	5597
2026-01-02 04:01:42.75	267.12	9.11	-29.7	-33.5	17.6	5.99e-01	0	43	0	636485632	20	5556
2026-01-02 04:01:44.75	266.85	8.98	-29.5	-33.0	18.0	6.02e-01	0	43	0	640155648	20	5333
2026-01-02 04:01:46.76	266.58	8.85	-29.6	-33.1	17.8	6.01e-01	0	43	0	643825664	20	5414
2026-01-02 04:01:48.76	266.32	8.72	-29.7	-33.6	17.5	6.00e-01	0	43	0	647495680	20	5589
2026-01-02 04:01:50.77	266.05	8.59	-29.8	-33.8	17.3	6.00e-01	0	43	0	651689984	20	5707
2026-01-02 04:01:52.77	265.79	8.46	-29.6	-33.3	17.6	6.01e-01	0	43	0	655360000	20	5474
2026-01-02 04:01:54.77	265.53	8.33	-29.6	-33.3	17.7	6.02e-01	0	43	0	659030016	20	5466
2026-01-02 04:01:56.78	265.28	8.20	-29.7	-33.4	17.6	5.99e-01	0	43	0	662700032	20	5545
2026-01-02 04:01:58.78	265.03	8.07	-29.9	-34.1	17.1	5.99e-01	0	43	0	666370048	20	5814
2026-01-02 04:02:00.79	264.77	7.94	-29.7	-33.4	17.6	6.00e-01	0	43	0	670564352	20	5520
2026-01-02 04:02:02.80	264.52	7.81	-29.6	-33.2	17.6	6.01e-01	0	43	0	674234368	20	5453
2026-01-02 04:02:04.80	264.28	7.68	-29.7	-33.4	17.5	6.02e-01	0	43	0	677904384	20	5560
2026-01-02 04:02:06.80	264.04	7.55	-29.6	-33.4	17.5	6.01e-01	0	43	0	681574400	20	5531
2026-01-02 04:02:08.80	263.80	7.42	-29.7	-33.7	17.3	6.00e-01	0	43	0	685244416	20	5661
2026-01-02 04:02:10.80	263.56	7.29	-29.6	-33.4	17.5	6.03e-01	0	43	0	688914432	20	5526
2026-01-02 04:02:12.80	263.32	7.17	-29.7	-33.7	17.3	5.99e-01	0	43	0	692584448	20	5672
2026-01-02 04:02:14.81	263.09	7.04	-32.7	-49.4	3.9	7.44e-01	0	43	104	695730176	26	24617

#Closed at: 2026-01-02 04:02:15
#Recorded file [695 MB]: D:/data/31010_260102_065603.dat