passes_logs/2026/01/02/R2M6_AANII_01/R2M6_AANII_01__20260102_003855_AQUA_rec.log

#Pass ID: 20260102_003855_AQUA
#Satellite: AQUA
#Configuration: AQUA
#almurnet v.1.7.20240730
#Start time: 2026-01-02 00:38:57

#Version: 2.2.20231116
#Station: R2M6_AANII_01
#Location: 30.233357 lon 59.946436 lat
#TLE: 1 27424U 02022A   25365.92641127  .00002078  00000+0  42628-3 0  9999
#TLE: 2 27424  98.4058 327.1196 0001962  94.7781 340.6230 14.61783896258835

#Time	Az	El	Level	Level2	SNR	BER	BlckErr	Temp	State	Recorded	gain1	gain2
2026-01-02 00:38:57.22	30.33	7.12	-31.3	-39.5	4.9	7.16e-01	0	41	0	0	23	9209
2026-01-02 00:39:00.22	30.63	7.32	-31.8	-41.4	9.4	6.26e-01	0	41	0	1572864	24	10801
2026-01-02 00:39:03.23	30.93	7.53	-31.8	-41.1	9.8	6.26e-01	0	41	0	7340032	24	10462
2026-01-02 00:39:06.25	31.24	7.74	-29.5	-40.6	9.8	6.22e-01	0	41	0	13107200	20	12886
2026-01-02 00:39:09.26	31.56	7.96	-31.6	-39.5	11.2	6.16e-01	0	41	0	18350080	24	8920
2026-01-02 00:39:12.27	31.87	8.17	-31.6	-39.6	11.1	6.17e-01	0	41	0	24117248	24	9079
2026-01-02 00:39:15.27	32.20	8.38	-31.1	-37.0	13.7	6.05e-01	0	41	0	29884416	23	7141
2026-01-02 00:39:18.28	32.52	8.60	-30.5	-35.3	15.5	6.03e-01	0	41	0	35651584	22	6236
2026-01-02 00:39:21.29	32.86	8.82	-30.4	-35.2	16.0	6.03e-01	0	41	0	41418752	21	6320
2026-01-02 00:39:24.29	33.19	9.03	-29.7	-33.6	17.4	6.02e-01	0	41	0	46661632	20	5620
2026-01-02 00:39:27.29	33.54	9.25	-29.5	-33.4	18.1	6.03e-01	0	42	0	52428800	19	5615
2026-01-02 00:39:30.30	33.89	9.47	-29.5	-33.2	18.2	6.03e-01	0	42	0	58195968	19	5538
2026-01-02 00:39:33.30	34.24	9.70	-29.5	-33.3	18.2	6.04e-01	0	42	0	63438848	19	5566
2026-01-02 00:39:36.30	34.60	9.92	-29.4	-33.2	18.1	6.02e-01	0	42	0	69206016	19	5556
2026-01-02 00:39:39.31	34.96	10.14	-29.3	-32.9	18.5	6.04e-01	0	42	0	74973184	19	5418
2026-01-02 00:39:42.32	35.33	10.37	-29.4	-33.0	18.4	6.02e-01	0	42	0	80740352	19	5455
2026-01-02 00:39:45.32	35.71	10.60	-29.4	-33.0	18.4	6.03e-01	0	42	0	86507520	19	5467
2026-01-02 00:39:48.33	36.10	10.83	-29.3	-32.8	18.6	6.04e-01	0	42	0	91750400	19	5343
2026-01-02 00:39:51.33	36.48	11.06	-29.5	-33.2	18.4	6.03e-01	0	42	0	97517568	19	5505
2026-01-02 00:39:54.35	36.88	11.29	-29.5	-33.2	18.3	6.03e-01	0	42	0	103284736	19	5523
2026-01-02 00:39:57.36	37.29	11.52	-29.5	-33.1	18.4	6.01e-01	0	42	0	108527616	19	5461
2026-01-02 00:40:00.37	37.70	11.76	-29.5	-32.8	18.2	6.03e-01	0	42	0	114294784	20	5267
2026-01-02 00:40:03.37	38.11	11.99	-29.4	-32.6	18.3	6.04e-01	0	42	0	120061952	20	5175
2026-01-02 00:40:06.39	38.54	12.23	-29.4	-32.4	18.6	6.02e-01	0	42	0	125829120	20	5091
2026-01-02 00:40:09.40	38.97	12.47	-29.2	-32.5	18.8	6.02e-01	0	42	0	131596288	19	5229
2026-01-02 00:40:12.41	39.41	12.71	-29.1	-32.1	19.1	6.01e-01	0	42	0	136839168	19	5091
2026-01-02 00:40:15.42	39.85	12.95	-29.1	-32.2	19.1	6.02e-01	0	42	0	142606336	19	5129
2026-01-02 00:40:18.42	40.31	13.19	-29.2	-32.3	19.0	6.02e-01	0	42	0	148373504	19	5180
2026-01-02 00:40:21.43	40.77	13.43	-29.1	-32.0	19.1	6.01e-01	0	42	0	154140672	19	5041
2026-01-02 00:40:24.44	41.24	13.68	-28.9	-31.6	19.3	6.02e-01	0	42	0	159383552	19	4902
2026-01-02 00:40:27.44	41.71	13.92	-29.0	-31.8	19.1	6.04e-01	0	42	0	165150720	19	4962
2026-01-02 00:40:30.44	42.20	14.17	-28.9	-32.1	19.5	6.01e-01	0	42	0	170917888	18	5168
2026-01-02 00:40:33.45	42.69	14.42	-28.9	-32.1	19.5	6.03e-01	0	42	0	176685056	18	5188
2026-01-02 00:40:36.46	43.20	14.66	-28.9	-32.1	19.6	6.04e-01	0	42	0	181927936	18	5164
2026-01-02 00:40:39.47	43.71	14.91	-28.9	-31.9	19.7	6.04e-01	0	43	0	187695104	18	5100
2026-01-02 00:40:42.47	44.23	15.16	-28.9	-32.0	19.6	6.03e-01	0	43	0	193462272	18	5146
2026-01-02 00:40:45.48	44.76	15.41	-29.0	-32.3	19.4	6.03e-01	0	43	0	199229440	18	5244
2026-01-02 00:40:48.49	45.30	15.66	-28.8	-31.7	19.8	6.02e-01	0	43	0	204472320	18	5037
2026-01-02 00:40:51.50	45.85	15.92	-28.8	-31.8	19.9	6.03e-01	0	43	0	210239488	18	5051
2026-01-02 00:40:54.51	46.40	16.17	-29.0	-32.2	19.6	6.03e-01	0	42	0	216006656	18	5183
2026-01-02 00:40:57.52	46.97	16.42	-28.9	-31.9	19.7	6.01e-01	0	43	0	221773824	18	5108
2026-01-02 00:41:00.53	47.55	16.67	-28.9	-32.0	19.7	6.04e-01	0	43	0	227016704	18	5118
2026-01-02 00:41:03.54	48.14	16.93	-29.0	-32.1	19.7	6.04e-01	0	42	0	232783872	18	5143
2026-01-02 00:41:06.54	48.74	17.18	-28.8	-31.6	20.0	6.02e-01	0	43	0	238551040	18	4985
2026-01-02 00:41:09.54	49.35	17.43	-28.8	-31.7	19.9	6.01e-01	0	43	0	244318208	18	5005
2026-01-02 00:41:12.53	49.96	17.68	-28.8	-31.7	19.9	6.04e-01	0	43	0	249561088	18	5021
2026-01-02 00:41:15.55	50.59	17.94	-28.7	-31.5	20.0	6.01e-01	0	43	0	255328256	18	4933
2026-01-02 00:41:18.57	51.24	18.19	-28.8	-31.5	20.0	6.01e-01	0	43	0	261095424	18	4959
2026-01-02 00:41:21.59	51.90	18.45	-28.9	-31.8	19.9	6.05e-01	0	43	0	266862592	18	5049
2026-01-02 00:41:24.59	52.56	18.70	-28.9	-31.8	19.9	6.03e-01	0	43	0	272629760	18	5055
2026-01-02 00:41:27.59	53.23	18.95	-29.0	-32.0	19.8	6.02e-01	0	43	0	277872640	18	5132
2026-01-02 00:41:30.60	53.92	19.20	-29.3	-32.3	19.3	6.03e-01	0	43	0	283639808	19	5109
2026-01-02 00:41:33.62	54.62	19.45	-29.1	-31.8	19.7	5.99e-01	0	43	0	289406976	19	4921
2026-01-02 00:41:36.62	55.33	19.69	-29.2	-32.0	19.7	6.05e-01	0	43	0	295174144	19	4986
2026-01-02 00:41:39.64	56.06	19.94	-29.0	-31.4	20.0	6.00e-01	0	43	0	300417024	19	4797
2026-01-02 00:41:42.65	56.79	20.18	-29.1	-31.9	19.7	6.02e-01	0	43	0	306184192	19	4942
2026-01-02 00:41:45.66	57.54	20.42	-28.9	-31.9	20.0	6.02e-01	0	43	0	311951360	18	5073
2026-01-02 00:41:48.67	58.30	20.66	-29.0	-32.1	19.9	6.04e-01	0	43	0	317718528	18	5145
2026-01-02 00:41:51.68	59.07	20.90	-29.1	-31.9	19.7	6.03e-01	0	43	0	322961408	19	4936
2026-01-02 00:41:54.69	59.86	21.14	-29.3	-32.4	19.5	6.04e-01	0	43	0	328728576	19	5114
2026-01-02 00:41:57.69	60.65	21.37	-29.2	-32.2	19.6	6.01e-01	0	43	0	334495744	19	5044
2026-01-02 00:42:00.70	61.46	21.60	-29.4	-32.5	19.4	6.03e-01	0	43	0	340262912	19	5161
2026-01-02 00:42:03.71	62.28	21.82	-29.2	-32.0	19.7	6.03e-01	0	43	0	345505792	19	4971
2026-01-02 00:42:06.73	63.12	22.04	-29.2	-32.0	19.7	6.02e-01	0	43	0	351272960	19	4974
2026-01-02 00:42:09.74	63.97	22.26	-29.2	-32.1	19.7	6.02e-01	0	43	0	357040128	19	5015
2026-01-02 00:42:12.75	64.83	22.48	-29.1	-31.9	19.8	6.03e-01	0	43	0	362807296	19	4948
2026-01-02 00:42:15.76	65.70	22.69	-29.4	-32.4	19.5	6.03e-01	0	43	0	368050176	19	5137
2026-01-02 00:42:18.77	66.58	22.89	-29.4	-32.2	19.2	6.03e-01	0	43	0	373817344	20	4956
2026-01-02 00:42:21.77	67.47	23.09	-29.2	-32.0	19.7	6.03e-01	0	43	0	379584512	19	4962
2026-01-02 00:42:24.77	68.37	23.28	-29.4	-32.6	18.7	6.03e-01	0	43	0	385351680	19	5194
2026-01-02 00:42:27.77	69.29	23.47	-29.2	-32.0	19.5	6.01e-01	0	43	0	390594560	19	4977
2026-01-02 00:42:30.76	70.21	23.65	-29.3	-32.2	19.2	6.03e-01	0	43	0	396361728	19	5048
2026-01-02 00:42:33.76	71.15	23.83	-29.4	-32.5	19.0	6.03e-01	0	43	0	402128896	19	5154
2026-01-02 00:42:36.77	72.10	24.00	-29.5	-32.8	19.3	6.05e-01	0	43	0	407896064	19	5259
2026-01-02 00:42:39.77	73.06	24.16	-29.4	-32.1	19.3	6.03e-01	0	43	0	413138944	20	4897
2026-01-02 00:42:42.78	74.03	24.32	-29.3	-32.3	19.6	6.01e-01	0	43	0	418906112	19	5080
2026-01-02 00:42:45.78	75.01	24.47	-29.3	-32.2	19.6	6.04e-01	0	43	0	424673280	19	5055
2026-01-02 00:42:48.80	76.01	24.61	-29.3	-32.3	19.6	6.02e-01	0	43	0	430440448	19	5073
2026-01-02 00:42:51.80	77.00	24.74	-29.2	-32.1	19.7	6.01e-01	0	43	0	435683328	19	5016
2026-01-02 00:42:54.82	78.02	24.87	-29.3	-32.4	19.5	6.03e-01	0	43	0	441450496	19	5115
2026-01-02 00:42:57.82	79.03	24.98	-29.4	-32.0	19.4	6.00e-01	0	43	0	447217664	20	4883
2026-01-02 00:43:00.82	80.05	25.09	-29.3	-32.2	19.7	6.02e-01	0	43	0	452984832	19	5025
2026-01-02 00:43:03.83	81.08	25.19	-29.2	-31.9	19.8	6.02e-01	0	43	0	458227712	19	4944
2026-01-02 00:43:06.83	82.12	25.28	-29.2	-32.1	19.7	6.02e-01	0	43	0	463994880	19	5019
2026-01-02 00:43:09.83	83.16	25.36	-29.2	-32.1	19.6	6.04e-01	0	43	0	469762048	19	5031
2026-01-02 00:43:12.83	84.20	25.43	-29.3	-32.2	19.7	6.03e-01	0	43	0	475529216	19	5033
2026-01-02 00:43:15.84	85.26	25.50	-29.3	-32.3	19.6	6.03e-01	0	43	0	480772096	19	5091
2026-01-02 00:43:18.84	86.31	25.55	-29.2	-32.1	19.7	6.02e-01	0	43	0	486539264	19	5015
2026-01-02 00:43:21.84	87.37	25.59	-29.4	-32.4	19.5	6.02e-01	0	43	0	492306432	19	5127
2026-01-02 00:43:24.85	88.43	25.62	-29.2	-32.1	19.7	6.03e-01	0	43	0	498073600	19	5001
2026-01-02 00:43:27.85	89.49	25.65	-29.4	-32.6	19.5	6.04e-01	0	43	0	503316480	19	5191
2026-01-02 00:43:30.86	90.56	25.66	-29.1	-31.7	20.0	6.03e-01	0	43	0	509083648	19	4874
2026-01-02 00:43:33.86	91.63	25.66	-29.2	-32.0	19.8	6.02e-01	0	43	0	514850816	19	4985
2026-01-02 00:43:36.85	92.69	25.66	-29.4	-32.5	19.6	6.02e-01	0	43	0	520093696	19	5135
2026-01-02 00:43:39.87	93.76	25.64	-29.2	-32.0	19.8	6.07e-01	0	43	0	525860864	19	4957
2026-01-02 00:43:42.88	94.82	25.61	-29.2	-31.9	19.9	6.01e-01	0	43	0	531628032	19	4941
2026-01-02 00:43:45.89	95.89	25.57	-29.2	-32.1	19.8	6.02e-01	0	43	0	537395200	19	4994
2026-01-02 00:43:48.89	96.94	25.53	-29.2	-32.1	19.8	6.03e-01	0	43	0	543162368	19	5025
2026-01-02 00:43:51.91	98.01	25.47	-29.2	-32.0	19.8	6.03e-01	0	43	0	548405248	19	4980
2026-01-02 00:43:54.91	99.06	25.40	-29.2	-32.1	19.7	6.04e-01	0	43	0	554172416	19	5023
2026-01-02 00:43:57.92	100.10	25.33	-29.2	-32.2	19.7	6.03e-01	0	43	0	559939584	19	5032
2026-01-02 00:44:00.93	101.15	25.24	-29.5	-32.8	19.2	6.03e-01	0	43	0	565706752	19	5291
2026-01-02 00:44:03.95	102.19	25.15	-29.1	-31.8	19.9	6.04e-01	0	43	0	570949632	19	4907
2026-01-02 00:44:06.96	103.22	25.04	-29.1	-31.8	19.9	6.04e-01	0	43	0	576716800	19	4922
2026-01-02 00:44:09.97	104.24	24.93	-29.0	-31.7	20.0	6.05e-01	0	43	0	582483968	19	4868
2026-01-02 00:44:12.97	105.25	24.81	-29.0	-31.5	20.1	6.06e-01	0	43	0	588251136	19	4801
2026-01-02 00:44:15.99	106.26	24.68	-29.1	-31.8	19.8	6.03e-01	0	43	0	593494016	19	4934
2026-01-02 00:44:19.00	107.26	24.54	-29.4	-32.5	19.4	6.03e-01	0	43	0	599261184	19	5178
2026-01-02 00:44:22.01	108.25	24.40	-29.4	-32.6	19.4	6.03e-01	0	43	0	605028352	19	5197
2026-01-02 00:44:25.02	109.23	24.24	-29.5	-32.9	19.1	6.04e-01	0	43	0	610795520	19	5330
2026-01-02 00:44:28.03	110.20	24.08	-29.2	-32.1	19.7	6.02e-01	0	43	0	616562688	19	5048
2026-01-02 00:44:31.02	111.16	23.92	-29.4	-32.6	19.3	6.01e-01	0	43	0	621805568	19	5231
2026-01-02 00:44:34.03	112.11	23.74	-29.1	-31.9	19.7	6.03e-01	0	43	0	627572736	19	4956
2026-01-02 00:44:37.04	113.05	23.56	-29.1	-31.8	19.8	6.05e-01	0	43	0	633339904	19	4917
2026-01-02 00:44:40.05	113.97	23.38	-29.1	-31.9	19.7	6.03e-01	0	43	0	638582784	19	4976
2026-01-02 00:44:43.06	114.89	23.18	-29.2	-32.1	19.6	6.03e-01	0	43	0	644349952	19	5035
2026-01-02 00:44:46.07	115.79	22.99	-29.3	-32.4	19.4	6.03e-01	0	43	0	650117120	19	5142
2026-01-02 00:44:49.06	116.68	22.78	-29.5	-32.8	19.1	6.04e-01	0	43	0	655884288	19	5310
2026-01-02 00:44:52.07	117.56	22.58	-29.8	-33.2	18.4	6.02e-01	0	43	0	661651456	20	5352
2026-01-02 00:44:55.09	118.43	22.36	-29.2	-32.1	19.5	6.03e-01	0	43	0	666894336	19	5045
2026-01-02 00:44:58.10	119.29	22.15	-29.3	-32.4	19.5	6.04e-01	0	43	0	672661504	19	5134
2026-01-02 00:45:01.11	120.13	21.92	-29.3	-32.3	19.4	6.03e-01	0	43	0	678428672	19	5086
2026-01-02 00:45:04.11	120.96	21.70	-29.3	-32.5	19.4	6.04e-01	0	43	0	683671552	19	5165
2026-01-02 00:45:07.11	121.78	21.47	-29.0	-31.6	19.9	6.03e-01	0	43	0	689438720	19	4847
2026-01-02 00:45:10.12	122.59	21.24	-28.9	-31.4	19.9	6.04e-01	0	43	0	695205888	19	4796
2026-01-02 00:45:13.13	123.38	21.01	-29.2	-32.1	19.6	6.02e-01	0	43	0	700973056	19	5016
2026-01-02 00:45:16.14	124.16	20.77	-28.9	-31.4	20.0	6.02e-01	0	43	0	706740224	19	4807
2026-01-02 00:45:19.14	124.93	20.53	-29.0	-31.6	19.8	6.02e-01	0	43	0	711983104	19	4850
2026-01-02 00:45:22.14	125.69	20.29	-28.9	-31.5	19.9	6.04e-01	0	43	0	717750272	19	4823
2026-01-02 00:45:25.15	126.43	20.04	-29.1	-32.0	19.6	6.04e-01	0	43	0	723517440	19	4987
2026-01-02 00:45:28.16	127.16	19.79	-28.9	-31.3	20.0	6.02e-01	0	43	0	728760320	19	4769
2026-01-02 00:45:31.18	127.89	19.55	-29.0	-32.0	19.8	6.04e-01	0	43	0	734527488	18	5119
2026-01-02 00:45:34.18	128.59	19.30	-28.9	-31.9	19.8	6.00e-01	0	43	0	740294656	18	5103
2026-01-02 00:45:37.19	129.29	19.05	-28.9	-31.9	19.8	6.02e-01	0	43	0	746061824	18	5099
2026-01-02 00:45:40.19	129.97	18.79	-28.8	-31.8	19.9	6.02e-01	0	43	0	751828992	18	5054
2026-01-02 00:45:43.19	130.65	18.54	-28.7	-31.6	20.0	6.02e-01	0	43	0	757071872	18	4980
2026-01-02 00:45:46.20	131.31	18.29	-28.9	-31.9	19.8	6.01e-01	0	43	0	762839040	18	5110
2026-01-02 00:45:49.20	131.96	18.03	-28.8	-31.8	19.8	6.02e-01	0	43	0	768606208	18	5071
2026-01-02 00:45:52.20	132.60	17.78	-28.8	-31.7	19.9	6.03e-01	0	43	0	774373376	18	5039
2026-01-02 00:45:55.21	133.22	17.52	-28.9	-32.1	19.6	6.05e-01	0	43	0	779616256	18	5185
2026-01-02 00:45:58.22	133.84	17.27	-28.9	-32.1	19.5	6.01e-01	0	43	0	785383424	18	5192
2026-01-02 00:46:01.23	134.45	17.01	-28.9	-32.0	19.6	6.01e-01	0	43	0	791150592	18	5151
2026-01-02 00:46:04.25	135.05	16.76	-28.9	-32.0	19.6	6.04e-01	0	43	0	796917760	18	5152
2026-01-02 00:46:07.25	135.63	16.50	-29.0	-32.2	19.5	6.02e-01	0	43	0	802160640	18	5218
2026-01-02 00:46:10.26	136.21	16.25	-29.1	-32.0	19.2	6.03e-01	0	43	0	807927808	19	5074
2026-01-02 00:46:13.24	136.77	16.00	-28.9	-31.8	19.3	6.04e-01	0	43	0	813694976	19	4980
2026-01-02 00:46:16.25	137.32	15.74	-28.8	-31.3	19.6	6.04e-01	0	43	0	819462144	19	4819
2026-01-02 00:46:19.26	137.87	15.49	-28.8	-31.8	19.6	6.03e-01	0	43	0	824705024	18	5106
2026-01-02 00:46:22.26	138.41	15.24	-28.9	-32.2	19.4	6.02e-01	0	43	0	830472192	18	5221
2026-01-02 00:46:25.27	138.93	14.98	-29.0	-32.4	19.2	6.02e-01	0	43	0	836239360	18	5326
2026-01-02 00:46:28.27	139.45	14.73	-29.1	-32.3	18.9	6.02e-01	0	43	0	842006528	19	5192
2026-01-02 00:46:31.28	139.96	14.48	-29.0	-32.0	19.0	6.03e-01	0	43	0	847249408	19	5101
2026-01-02 00:46:34.29	140.46	14.23	-28.9	-32.5	18.9	6.04e-01	0	43	0	853016576	18	5415
2026-01-02 00:46:37.31	140.95	13.98	-29.3	-32.9	18.3	6.02e-01	0	43	0	858783744	19	5497
2026-01-02 00:46:40.33	141.44	13.73	-29.0	-32.1	18.8	6.03e-01	0	43	0	864550912	19	5168
2026-01-02 00:46:43.34	141.92	13.49	-29.1	-32.4	18.6	6.02e-01	0	43	0	869793792	19	5294
2026-01-02 00:46:46.34	142.38	13.24	-28.9	-32.4	18.8	6.02e-01	0	43	0	875560960	18	5444
2026-01-02 00:46:49.36	142.84	13.00	-28.9	-32.6	18.7	6.03e-01	0	43	0	881328128	18	5508
2026-01-02 00:46:52.37	143.29	12.75	-28.9	-32.4	17.7	6.01e-01	0	43	0	887095296	18	5389
2026-01-02 00:46:55.39	143.74	12.51	-28.9	-32.5	18.7	6.00e-01	0	43	0	892862464	18	5433
2026-01-02 00:46:58.40	144.17	12.27	-29.0	-32.6	18.7	6.02e-01	0	43	0	898105344	18	5464
2026-01-02 00:47:01.41	144.60	12.03	-28.9	-32.5	18.8	6.03e-01	0	43	0	903872512	18	5418
2026-01-02 00:47:04.41	145.02	11.79	-28.9	-32.5	18.7	6.02e-01	0	43	0	909639680	18	5435
2026-01-02 00:47:07.41	145.43	11.55	-28.9	-32.4	18.8	6.00e-01	0	43	0	914882560	18	5371
2026-01-02 00:47:10.42	145.84	11.32	-29.0	-32.8	18.5	6.03e-01	0	43	0	920649728	18	5541
2026-01-02 00:47:13.43	146.24	11.08	-29.0	-32.8	18.5	6.02e-01	0	43	0	926416896	18	5538
2026-01-02 00:47:16.44	146.64	10.85	-29.2	-33.0	18.0	6.03e-01	0	43	0	932184064	19	5536
2026-01-02 00:47:19.45	147.03	10.62	-29.2	-33.2	17.8	6.04e-01	0	43	0	937951232	19	5675
2026-01-02 00:47:22.47	147.41	10.39	-28.9	-32.5	18.5	6.02e-01	0	43	0	943194112	18	5487
2026-01-02 00:47:25.47	147.78	10.16	-29.0	-32.8	18.4	6.03e-01	0	43	0	948961280	18	5567
2026-01-02 00:47:28.47	148.15	9.93	-29.2	-33.0	18.0	6.03e-01	0	43	0	954728448	19	5534
2026-01-02 00:47:31.48	148.51	9.70	-29.2	-32.9	18.1	6.03e-01	0	43	0	960495616	19	5497
2026-01-02 00:47:34.48	148.87	9.48	-29.3	-33.3	17.6	6.01e-01	0	43	0	965738496	19	5738
2026-01-02 00:47:37.48	149.22	9.26	-29.1	-33.0	17.9	6.03e-01	0	43	0	971505664	19	5624
2026-01-02 00:47:40.48	149.56	9.03	-29.3	-33.3	17.6	6.05e-01	0	43	0	977272832	19	5738
2026-01-02 00:47:43.50	149.91	8.81	-29.4	-33.7	17.4	6.03e-01	0	43	0	983040000	19	5909
2026-01-02 00:47:46.52	150.24	8.59	-29.4	-33.5	17.4	6.02e-01	0	43	0	988282880	19	5812
2026-01-02 00:47:49.53	150.57	8.37	-29.3	-33.9	16.9	6.04e-01	0	43	0	994050048	19	6122
2026-01-02 00:47:52.53	150.90	8.16	-29.1	-33.9	16.8	6.06e-01	0	43	0	999817216	19	6207
2026-01-02 00:47:55.55	151.22	7.94	-29.3	-34.5	16.3	6.00e-01	0	43	0	1005584384	19	6487
2026-01-02 00:47:58.56	151.53	7.73	-29.1	-33.7	16.9	6.04e-01	0	43	0	1010827264	19	6124
2026-01-02 00:48:01.58	151.84	7.51	-29.4	-34.2	16.6	6.03e-01	0	43	0	1016594432	19	6255
2026-01-02 00:48:04.59	152.15	7.30	-29.5	-34.0	16.8	6.04e-01	0	43	0	1022361600	19	6091
2026-01-02 00:48:07.60	152.45	7.09	-32.1	-51.0	3.6	7.47e-01	0	43	104	1027604480	25	32065

#Closed at: 2026-01-02 00:48:10
#Recorded file [1027 MB]: D:/data/31010_260102_033859.dat