passes_logs/2026/01/02/R2M6_AANII_01/R2M6_AANII_01__20260102_044040_FENGYUN_3D_rec.log

#Pass ID: 20260102_044040_FENGYUN 3D
#Satellite: FENGYUN 3D
#Configuration: FENGYUN 3D
#almurnet v.1.7.20240730
#Start time: 2026-01-02 04:40:40

#Version: 2.2.20231116
#Station: R2M6_AANII_01
#Location: 30.233357 lon 59.946436 lat
#TLE: 1 43010U 17072A   26001.33100487  .00000602  00000+0  30664-3 0  9999
#TLE: 2 43010  98.9910 332.9374 0001848 133.1047 227.0283 14.19692078421319

#Time	Az	El	Level	Level2	SNR	BER	BlckErr	Temp	State	Recorded	gain1	gain2
2026-01-02 04:40:40.53	10.00	7.00	-30.8	-36.1	4.7	8.18e-01	0	40	0	0	21	6656
2026-01-02 04:40:43.54	9.69	7.18	-30.0	-33.7	8.4	4.57e-02	0	41	0	5242880	20	5546
2026-01-02 04:40:46.54	9.37	7.35	-30.3	-34.6	7.8	7.01e-02	0	41	0	22020096	20	5946
2026-01-02 04:40:49.55	9.05	7.53	-30.0	-33.9	8.3	5.13e-02	0	41	0	38797312	20	5589
2026-01-02 04:40:52.55	8.72	7.71	-28.4	-30.8	11.5	3.25e-03	0	41	0	55574528	17	4738
2026-01-02 04:40:55.56	8.39	7.89	-27.3	-29.6	13.0	2.13e-03	0	41	0	72351744	14	4690
2026-01-02 04:40:58.57	8.06	8.07	-27.0	-28.8	13.5	4.50e-06	0	41	0	90177536	14	4460
2026-01-02 04:41:01.56	7.72	8.25	-26.7	-28.7	13.9	3.40e-06	0	41	0	106954752	13	4517
2026-01-02 04:41:04.56	7.38	8.43	-26.7	-28.7	13.9	1.82e-03	0	41	0	123731968	13	4508
2026-01-02 04:41:07.56	7.04	8.61	-26.5	-28.2	14.1	1.65e-03	0	41	0	140509184	13	4384
2026-01-02 04:41:10.58	6.69	8.79	-26.4	-28.4	14.4	1.10e-06	0	41	0	157286400	12	4548
2026-01-02 04:41:13.59	6.33	8.97	-26.4	-28.6	14.3	1.10e-06	0	42	0	174063616	12	4595
2026-01-02 04:41:16.60	5.97	9.15	-26.3	-28.2	14.6	0.00e+00	0	41	0	190840832	12	4477
2026-01-02 04:41:19.59	5.61	9.33	-26.2	-28.1	14.6	0.00e+00	0	42	0	208666624	12	4458
2026-01-02 04:41:22.61	5.24	9.52	-26.3	-28.3	14.5	0.00e+00	0	42	0	225443840	12	4514
2026-01-02 04:41:25.62	4.86	9.70	-26.3	-28.2	14.6	0.00e+00	0	42	0	242221056	12	4495
2026-01-02 04:41:28.63	4.48	9.88	-26.4	-28.4	14.4	0.00e+00	0	42	0	258998272	12	4548
2026-01-02 04:41:31.65	4.10	10.06	-26.3	-28.3	14.6	0.00e+00	0	42	0	275775488	12	4501
2026-01-02 04:41:34.65	3.71	10.24	-26.2	-28.0	14.7	0.00e+00	0	42	0	292552704	12	4444
2026-01-02 04:41:37.66	3.31	10.43	-26.6	-28.4	14.2	0.00e+00	0	42	0	309329920	13	4438
2026-01-02 04:41:40.68	2.91	10.61	-25.9	-27.3	15.1	0.00e+00	0	42	0	326107136	12	4234
2026-01-02 04:41:43.70	2.51	10.79	-26.1	-27.8	14.8	0.00e+00	0	42	0	343932928	12	4380
2026-01-02 04:41:46.71	2.10	10.97	-26.3	-28.2	14.7	0.00e+00	0	42	0	360710144	12	4477
2026-01-02 04:41:49.73	1.68	11.16	-26.4	-28.4	14.6	0.00e+00	0	42	0	377487360	12	4535
2026-01-02 04:41:52.74	1.26	11.34	-25.9	-27.8	15.1	1.10e-06	0	42	0	394264576	11	4490
2026-01-02 04:41:55.74	0.84	11.52	-25.8	-27.6	13.2	0.00e+00	0	42	0	411041792	11	4417
2026-01-02 04:41:58.76	0.40	11.70	-25.8	-27.6	15.4	0.00e+00	0	43	0	428867584	11	4417
2026-01-02 04:42:01.78	359.97	11.88	-25.9	-27.7	15.3	1.71e-03	0	43	0	445644800	11	4456
2026-01-02 04:42:04.79	359.52	12.06	-25.8	-27.6	15.4	0.00e+00	0	42	0	462422016	11	4430
2026-01-02 04:42:07.81	359.08	12.24	-25.7	-27.3	15.6	0.00e+00	0	43	0	479199232	11	4330
2026-01-02 04:42:10.82	358.62	12.42	-25.8	-27.5	15.5	1.59e-03	0	42	0	495976448	11	4380
2026-01-02 04:42:13.82	358.16	12.60	-25.8	-27.5	15.5	1.44e-03	0	42	0	512753664	11	4383
2026-01-02 04:42:16.84	357.70	12.78	-25.7	-27.3	15.6	0.00e+00	0	42	0	530579456	11	4326
2026-01-02 04:42:19.84	357.23	12.96	-25.6	-27.1	15.7	1.60e-03	0	42	0	547356672	11	4280
2026-01-02 04:42:22.84	356.75	13.14	-25.4	-26.7	16.0	1.39e-03	0	43	0	564133888	11	4163
2026-01-02 04:42:25.84	356.27	13.31	-25.3	-27.0	16.1	1.23e-03	0	43	0	580911104	10	4368
2026-01-02 04:42:28.85	355.79	13.49	-25.4	-26.6	16.1	8.35e-04	0	42	0	597688320	11	4142
2026-01-02 04:42:31.86	355.29	13.67	-25.3	-27.0	16.1	1.13e-03	0	43	0	614465536	10	4349
2026-01-02 04:42:34.87	354.79	13.84	-25.1	-26.5	16.4	1.05e-03	0	43	0	631242752	10	4238
2026-01-02 04:42:37.87	354.29	14.01	-25.1	-26.4	16.4	1.13e-03	0	43	0	648019968	10	4206
2026-01-02 04:42:40.87	353.78	14.19	-25.2	-26.8	16.3	0.00e+00	0	42	0	664797184	10	4309
2026-01-02 04:42:43.88	353.26	14.36	-25.5	-26.8	16.0	8.40e-04	0	43	0	681574400	11	4193
2026-01-02 04:42:46.90	352.73	14.53	-25.5	-26.8	16.0	0.00e+00	0	43	0	699400192	11	4206
2026-01-02 04:42:49.92	352.20	14.70	-25.2	-26.7	16.3	0.00e+00	0	43	0	716177408	10	4277
2026-01-02 04:42:52.94	351.66	14.87	-24.9	-26.0	16.7	0.00e+00	0	43	0	732954624	10	4091
2026-01-02 04:42:55.94	351.12	15.03	-24.7	-26.2	16.8	0.00e+00	0	43	0	749731840	9	4262
2026-01-02 04:42:58.95	350.57	15.20	-25.0	-26.7	16.6	0.00e+00	0	43	0	766509056	9	4397
2026-01-02 04:43:01.96	350.02	15.36	-24.9	-26.6	16.7	0.00e+00	0	43	0	784334848	9	4368
2026-01-02 04:43:04.97	349.45	15.52	-24.8	-26.3	16.8	0.00e+00	0	43	0	801112064	9	4285
2026-01-02 04:43:07.97	348.89	15.68	-25.3	-26.9	16.3	0.00e+00	0	43	0	817889280	10	4332
2026-01-02 04:43:10.99	348.31	15.84	-24.7	-26.1	17.0	0.00e+00	0	43	0	834666496	9	4224
2026-01-02 04:43:13.98	347.74	15.99	-25.1	-26.4	16.6	0.00e+00	0	43	0	851443712	10	4196
2026-01-02 04:43:16.99	347.15	16.15	-24.9	-26.2	16.7	0.00e+00	0	43	0	868220928	10	4136
2026-01-02 04:43:20.00	346.56	16.30	-24.8	-25.9	16.8	0.00e+00	0	43	0	884998144	10	4075
2026-01-02 04:43:23.02	345.96	16.45	-24.9	-26.5	16.7	0.00e+00	0	43	0	901775360	9	4344
2026-01-02 04:43:26.02	345.36	16.60	-24.7	-26.1	16.9	0.00e+00	0	43	0	919601152	9	4243
2026-01-02 04:43:29.03	344.75	16.74	-24.6	-25.9	17.1	0.00e+00	0	43	0	936378368	9	4170
2026-01-02 04:43:32.02	344.13	16.88	-24.4	-25.5	17.3	0.00e+00	0	43	0	953155584	9	4068
2026-01-02 04:43:35.03	343.51	17.02	-24.2	-25.1	17.5	0.00e+00	0	43	0	969932800	9	3982
2026-01-02 04:43:38.03	342.89	17.16	-24.3	-25.8	17.4	0.00e+00	0	43	0	986710016	8	4257
2026-01-02 04:43:41.02	342.26	17.29	-24.4	-25.5	17.3	0.00e+00	0	43	0	1003487232	9	4086
2026-01-02 04:43:44.02	341.62	17.42	-24.2	-25.6	17.5	0.00e+00	0	43	0	1020264448	8	4201
2026-01-02 04:43:47.03	340.97	17.55	-24.2	-25.5	17.3	0.00e+00	0	43	0	1037041664	8	4193
2026-01-02 04:43:50.03	340.32	17.68	-24.2	-25.6	17.5	0.00e+00	0	43	0	1053818880	8	4212
2026-01-02 04:43:53.04	339.67	17.80	-24.1	-25.3	17.7	6.40e-05	0	43	0	1071644672	8	4129
2026-01-02 04:43:56.04	339.01	17.92	-24.0	-25.1	17.8	0.00e+00	0	43	0	1088421888	8	4087
2026-01-02 04:43:59.05	338.34	18.03	-24.2	-25.5	17.6	0.00e+00	0	43	0	1105199104	8	4181
2026-01-02 04:44:02.06	337.67	18.15	-24.1	-25.4	17.6	6.80e-06	0	43	0	1121976320	8	4162
2026-01-02 04:44:05.08	336.99	18.25	-23.9	-24.8	18.0	0.00e+00	0	43	0	1138753536	8	4008
2026-01-02 04:44:08.08	336.31	18.36	-24.1	-25.3	17.7	0.00e+00	0	43	0	1155530752	8	4140
2026-01-02 04:44:11.09	335.63	18.46	-24.0	-25.2	17.8	0.00e+00	0	43	0	1173356544	8	4115
2026-01-02 04:44:14.11	334.93	18.56	-24.3	-25.7	17.5	0.00e+00	0	43	0	1190133760	8	4229
2026-01-02 04:44:17.13	334.24	18.65	-24.0	-25.0	17.8	0.00e+00	0	43	0	1206910976	8	4069
2026-01-02 04:44:20.14	333.54	18.74	-23.9	-24.8	18.0	0.00e+00	0	43	0	1223688192	8	4012
2026-01-02 04:44:23.15	332.83	18.82	-23.6	-24.3	18.2	0.00e+00	0	43	0	1240465408	8	3890
2026-01-02 04:44:26.16	332.13	18.90	-23.7	-25.0	18.1	0.00e+00	0	43	0	1257242624	7	4176
2026-01-02 04:44:29.18	331.41	18.98	-23.5	-24.6	18.3	0.00e+00	0	43	0	1274019840	7	4065
2026-01-02 04:44:32.19	330.70	19.05	-23.6	-24.7	18.3	0.00e+00	0	43	0	1291845632	7	4105
2026-01-02 04:44:35.21	329.98	19.12	-23.8	-25.2	18.0	0.00e+00	0	43	0	1308622848	7	4236
2026-01-02 04:44:38.21	329.26	19.18	-23.7	-24.4	18.2	0.00e+00	0	43	0	1325400064	8	3908
2026-01-02 04:44:41.21	328.54	19.24	-23.5	-24.5	18.4	0.00e+00	0	43	0	1342177280	7	4048
2026-01-02 04:44:44.23	327.81	19.29	-23.7	-24.9	18.2	0.00e+00	0	43	0	1358954496	7	4144
2026-01-02 04:44:47.23	327.08	19.34	-23.7	-24.4	18.2	0.00e+00	0	43	0	1375731712	8	3910
2026-01-02 04:44:50.24	326.35	19.39	-23.4	-24.4	18.4	0.00e+00	0	43	0	1393557504	7	4026
2026-01-02 04:44:53.25	325.62	19.43	-23.6	-24.7	18.3	0.00e+00	0	43	0	1410334720	7	4085
2026-01-02 04:44:56.25	324.88	19.46	-23.6	-24.7	18.3	0.00e+00	0	43	0	1427111936	7	4097
2026-01-02 04:44:59.26	324.15	19.49	-23.5	-24.5	18.4	0.00e+00	0	43	0	1443889152	7	4042
2026-01-02 04:45:02.25	323.41	19.51	-24.2	-25.6	17.6	0.00e+00	0	43	0	1460666368	8	4214
2026-01-02 04:45:05.26	322.67	19.53	-24.1	-25.3	17.7	0.00e+00	0	43	0	1477443584	8	4145
2026-01-02 04:45:08.27	321.93	19.55	-23.5	-24.6	18.4	0.00e+00	0	43	0	1494220800	7	4063
2026-01-02 04:45:11.28	321.19	19.56	-23.8	-25.2	18.0	0.00e+00	0	43	0	1510998016	7	4220
2026-01-02 04:45:14.28	320.45	19.56	-23.4	-24.3	18.5	0.00e+00	0	43	0	1527775232	7	4000
2026-01-02 04:45:17.30	319.71	19.56	-23.3	-24.2	18.6	0.00e+00	0	43	0	1545601024	7	3971
2026-01-02 04:45:20.31	318.97	19.56	-23.3	-24.7	18.5	0.00e+00	0	43	0	1562378240	6	4200
2026-01-02 04:45:23.33	318.22	19.55	-23.5	-24.6	18.4	0.00e+00	0	43	0	1579155456	7	4074
2026-01-02 04:45:26.35	317.48	19.53	-23.5	-24.5	18.4	0.00e+00	0	43	0	1595932672	7	4061
2026-01-02 04:45:29.35	316.74	19.51	-22.8	-23.6	17.3	0.00e+00	0	43	0	1612709888	7	3937
2026-01-02 04:45:32.35	316.01	19.48	-23.3	-24.6	18.1	7.03e-04	0	43	0	1629487104	6	4176
2026-01-02 04:45:35.37	315.27	19.45	-23.2	-24.4	18.7	0.00e+00	0	43	0	1646264320	6	4128
2026-01-02 04:45:38.38	314.53	19.42	-23.4	-24.8	18.5	0.00e+00	0	43	0	1664090112	6	4230
2026-01-02 04:45:41.39	313.80	19.38	-23.4	-24.8	18.5	1.21e-03	0	43	0	1680867328	6	4247
2026-01-02 04:45:44.39	313.07	19.33	-23.6	-24.6	18.3	1.24e-03	0	43	0	1697644544	7	4083
2026-01-02 04:45:47.39	312.34	19.28	-23.9	-25.0	17.9	0.00e+00	0	43	0	1714421760	8	4060
2026-01-02 04:45:50.40	311.61	19.23	-24.0	-25.1	17.8	1.47e-03	0	43	0	1731198976	8	4094
2026-01-02 04:45:53.42	310.89	19.17	-23.4	-24.3	18.5	1.40e-03	0	43	0	1747976192	7	3999
2026-01-02 04:45:56.43	310.17	19.11	-23.3	-24.2	18.5	1.34e-03	0	43	0	1764753408	7	3975
2026-01-02 04:45:59.44	309.45	19.04	-23.7	-24.9	18.1	1.16e-03	0	43	0	1782579200	7	4160
2026-01-02 04:46:02.45	308.73	18.97	-23.5	-24.4	18.4	1.11e-03	0	43	0	1799356416	7	4034
2026-01-02 04:46:05.46	308.02	18.89	-23.6	-24.8	18.2	1.44e-03	0	43	0	1816133632	7	4116
2026-01-02 04:46:08.48	307.31	18.81	-23.8	-25.2	18.0	0.00e+00	0	43	0	1832910848	7	4225
2026-01-02 04:46:11.49	306.61	18.72	-23.8	-24.7	18.0	1.06e-03	0	43	0	1849688064	8	3979
2026-01-02 04:46:14.49	305.91	18.63	-23.8	-24.6	18.0	8.66e-04	0	43	0	1866465280	8	3972
2026-01-02 04:46:17.50	305.21	18.54	-23.5	-24.5	18.3	0.00e+00	0	43	0	1884291072	7	4039
2026-01-02 04:46:20.51	304.52	18.44	-23.5	-24.6	18.3	0.00e+00	0	43	0	1901068288	7	4081
2026-01-02 04:46:23.53	303.83	18.34	-23.4	-24.3	18.4	0.00e+00	0	43	0	1917845504	7	4005
2026-01-02 04:46:26.54	303.15	18.23	-23.6	-24.7	18.2	0.00e+00	0	43	0	1934622720	7	4097
2026-01-02 04:46:29.53	302.48	18.13	-23.8	-25.2	18.0	0.00e+00	0	43	0	1951399936	7	4215
2026-01-02 04:46:32.53	301.81	18.01	-23.8	-25.2	18.0	0.00e+00	0	43	0	1968177152	7	4218
2026-01-02 04:46:35.54	301.14	17.90	-23.8	-25.2	17.9	0.00e+00	0	43	0	1984954368	7	4224
2026-01-02 04:46:38.55	300.48	17.78	-23.6	-24.8	18.2	0.00e+00	0	43	0	2001731584	7	4116
2026-01-02 04:46:41.55	299.82	17.65	-23.7	-25.1	18.0	0.00e+00	0	43	0	2019557376	7	4200
2026-01-02 04:46:44.57	299.17	17.53	-23.8	-25.2	17.9	0.00e+00	0	43	0	2036334592	7	4231
2026-01-02 04:46:47.58	298.52	17.40	-23.8	-25.1	18.0	0.00e+00	0	43	0	2053111808	7	4212
2026-01-02 04:46:50.58	297.88	17.27	-23.8	-25.1	17.9	0.00e+00	0	43	0	2069889024	7	4199
2026-01-02 04:46:53.58	297.25	17.13	-24.1	-25.4	17.6	0.00e+00	0	43	0	2086666240	8	4154
2026-01-02 04:46:56.60	296.62	16.99	-24.3	-25.7	17.4	0.00e+00	0	43	0	2103443456	8	4235
2026-01-02 04:46:59.61	296.00	16.85	-24.2	-25.5	17.5	0.00e+00	0	43	0	2120220672	8	4183
2026-01-02 04:47:02.61	295.38	16.71	-24.3	-25.7	17.4	0.00e+00	0	43	0	2138046464	8	4248
2026-01-02 04:47:05.62	294.77	16.56	-24.2	-25.5	17.5	0.00e+00	0	43	0	2154823680	8	4198
2026-01-02 04:47:08.64	294.16	16.42	-24.1	-25.4	17.6	0.00e+00	0	43	0	2171600896	8	4162
2026-01-02 04:47:11.65	293.56	16.26	-24.4	-25.9	17.3	0.00e+00	0	43	0	2188378112	8	4291
2026-01-02 04:47:14.66	292.97	16.11	-24.5	-25.7	17.1	0.00e+00	0	43	0	2205155328	9	4145
2026-01-02 04:47:17.67	292.38	15.96	-23.8	-24.6	14.6	0.00e+00	0	43	0	2221932544	9	3961
2026-01-02 04:47:20.68	291.80	15.80	-24.4	-26.0	16.9	0.00e+00	0	43	0	2238709760	8	4312
2026-01-02 04:47:23.69	291.23	15.64	-24.7	-26.1	16.9	0.00e+00	0	43	0	2256535552	9	4228
2026-01-02 04:47:26.70	290.66	15.48	-24.5	-25.7	17.1	0.00e+00	0	43	0	2273312768	9	4127
2026-01-02 04:47:29.71	290.10	15.32	-24.6	-25.9	16.9	0.00e+00	0	43	0	2290089984	9	4194
2026-01-02 04:47:32.72	289.54	15.15	-24.5	-25.8	17.0	1.63e-03	0	43	0	2306867200	9	4149
2026-01-02 04:47:35.72	288.99	14.99	-24.6	-26.0	16.9	0.00e+00	0	43	0	2323644416	9	4203
2026-01-02 04:47:38.73	288.45	14.82	-24.8	-26.3	16.7	1.41e-03	0	43	0	2340421632	9	4285
2026-01-02 04:47:41.73	287.91	14.65	-24.8	-26.3	16.7	1.23e-03	0	43	0	2357198848	9	4277
2026-01-02 04:47:44.74	287.38	14.48	-25.0	-26.4	16.4	1.42e-03	0	43	0	2375024640	10	4194
2026-01-02 04:47:47.75	286.85	14.31	-24.6	-25.9	16.9	4.76e-04	0	43	0	2391801856	9	4189
2026-01-02 04:47:50.75	286.34	14.14	-24.7	-26.0	16.8	1.83e-03	0	43	0	2408579072	9	4216
2026-01-02 04:47:53.75	285.82	13.97	-24.9	-26.6	16.4	1.77e-03	0	43	0	2425356288	9	4382
2026-01-02 04:47:56.75	285.32	13.79	-24.9	-26.5	16.5	1.69e-03	0	43	0	2442133504	9	4347
2026-01-02 04:47:59.75	284.82	13.62	-24.7	-26.1	16.8	1.10e-06	0	43	0	2458910720	9	4230
2026-01-02 04:48:02.77	284.32	13.44	-24.9	-26.5	16.5	1.79e-03	0	43	0	2475687936	9	4357
2026-01-02 04:48:05.77	283.83	13.27	-24.8	-26.3	16.6	1.54e-03	0	43	0	2492465152	9	4293
2026-01-02 04:48:08.79	283.35	13.09	-25.0	-26.8	16.3	0.00e+00	0	43	0	2510290944	9	4415
2026-01-02 04:48:11.81	282.87	12.91	-25.2	-26.8	16.0	0.00e+00	0	43	0	2527068160	10	4327
2026-01-02 04:48:14.82	282.40	12.73	-25.3	-27.0	15.9	1.54e-03	0	43	0	2543845376	10	4374
2026-01-02 04:48:17.83	281.93	12.55	-25.3	-26.9	16.0	0.00e+00	0	43	0	2560622592	10	4331
2026-01-02 04:48:20.85	281.47	12.37	-25.4	-27.1	15.8	0.00e+00	0	43	0	2577399808	10	4409
2026-01-02 04:48:23.87	281.01	12.19	-25.2	-26.8	16.0	0.00e+00	0	43	0	2594177024	10	4322
2026-01-02 04:48:26.87	280.57	12.01	-25.4	-27.2	15.8	0.00e+00	0	43	0	2610954240	10	4416
2026-01-02 04:48:29.87	280.12	11.83	-25.4	-27.2	15.8	0.00e+00	0	43	0	2628780032	10	4435
2026-01-02 04:48:32.89	279.68	11.64	-25.4	-27.2	15.8	0.00e+00	0	43	0	2645557248	10	4433
2026-01-02 04:48:35.89	279.25	11.46	-25.4	-26.8	15.7	0.00e+00	0	43	0	2662334464	11	4196
2026-01-02 04:48:38.91	278.82	11.28	-25.6	-27.1	15.5	0.00e+00	0	43	0	2679111680	11	4278
2026-01-02 04:48:41.92	278.40	11.10	-25.5	-27.0	15.6	0.00e+00	0	43	0	2695888896	11	4259
2026-01-02 04:48:44.93	277.99	10.91	-25.6	-27.1	15.5	0.00e+00	0	43	0	2712666112	11	4277
2026-01-02 04:48:47.94	277.58	10.73	-25.7	-27.4	15.3	0.00e+00	0	43	0	2730491904	11	4382
2026-01-02 04:48:50.95	277.17	10.55	-25.7	-27.3	15.4	0.00e+00	0	43	0	2747269120	11	4340
2026-01-02 04:48:53.96	276.77	10.37	-25.6	-27.2	15.4	0.00e+00	0	43	0	2764046336	11	4317
2026-01-02 04:48:56.97	276.37	10.18	-25.8	-27.5	15.2	0.00e+00	0	43	0	2780823552	11	4409
2026-01-02 04:48:59.98	275.98	10.00	-26.0	-27.6	14.8	0.00e+00	0	43	0	2797600768	12	4324
2026-01-02 04:49:03.00	275.59	9.82	-25.9	-27.3	15.0	0.00e+00	0	43	0	2814377984	12	4246
2026-01-02 04:49:06.00	275.21	9.64	-25.9	-27.8	14.8	0.00e+00	0	43	0	2831155200	11	4498
2026-01-02 04:49:09.01	274.84	9.45	-26.1	-27.7	14.7	0.00e+00	0	43	0	2848980992	12	4357
2026-01-02 04:49:12.02	274.47	9.27	-26.0	-27.6	14.8	0.00e+00	0	43	0	2865758208	12	4316
2026-01-02 04:49:15.04	274.10	9.09	-26.0	-27.7	14.7	0.00e+00	0	43	0	2882535424	12	4353
2026-01-02 04:49:18.05	273.74	8.91	-26.1	-27.8	14.6	0.00e+00	0	43	0	2899312640	12	4377
2026-01-02 04:49:21.07	273.38	8.72	-26.2	-28.0	14.5	7.08e-04	0	43	0	2916089856	12	4427
2026-01-02 04:49:24.07	273.03	8.54	-26.3	-28.2	14.4	2.96e-04	0	44	0	2932867072	12	4483
2026-01-02 04:49:27.08	272.68	8.36	-26.4	-28.5	14.1	4.34e-04	0	43	0	2950692864	12	4599
2026-01-02 04:49:30.09	272.33	8.18	-26.3	-28.3	14.3	4.32e-04	0	43	0	2967470080	12	4529
2026-01-02 04:49:33.10	271.99	8.00	-26.4	-28.4	14.2	7.49e-04	0	43	0	2984247296	12	4572
2026-01-02 04:49:36.10	271.66	7.82	-26.2	-28.0	14.4	7.53e-04	0	43	0	3001024512	12	4447
2026-01-02 04:49:39.10	271.33	7.64	-26.3	-28.3	14.2	3.56e-04	0	43	0	3017801728	12	4535
2026-01-02 04:49:42.12	271.00	7.46	-26.5	-28.7	13.9	2.20e-06	0	43	0	3034578944	12	4655
2026-01-02 04:49:45.13	270.68	7.28	-26.7	-28.8	13.5	6.40e-05	0	43	0	3051356160	13	4578
2026-01-02 04:49:48.14	270.36	7.11	-26.9	-29.2	13.4	4.50e-06	0	43	0	3069181952	13	4681

#Closed at: 2026-01-02 04:49:50
#Recorded file [3070 MB]: D:/data/31010_260102_074042.dat