passes_logs/2026/01/02/R2M6_AANII_01/R2M6_AANII_01__20260102_021609_AQUA_rec.log

#Pass ID: 20260102_021609_AQUA
#Satellite: AQUA
#Configuration: AQUA
#almurnet v.1.7.20240730
#Start time: 2026-01-02 02:16:09

#Version: 2.2.20231116
#Station: R2M6_AANII_01
#Location: 30.233357 lon 59.946436 lat
#TLE: 1 27424U 02022A   25365.92641127  .00002078  00000+0  42628-3 0  9999
#TLE: 2 27424  98.4058 327.1196 0001962  94.7781 340.6230 14.61783896258835

#Time	Az	El	Level	Level2	SNR	BER	BlckErr	Temp	State	Recorded	gain1	gain2
2026-01-02 02:16:09.59	15.48	6.99	-31.4	-47.2	3.8	7.44e-01	0	41	0	0	23	22097
2026-01-02 02:16:12.60	15.43	7.23	-31.7	-47.7	3.8	7.46e-01	0	41	104	0	24	22695
2026-01-02 02:16:15.61	15.38	7.48	-31.3	-46.3	3.8	7.48e-01	0	41	104	0	23	20274
2026-01-02 02:16:18.62	15.33	7.73	-30.8	-44.9	3.8	7.44e-01	0	41	104	0	22	18430
2026-01-02 02:16:21.62	15.28	7.98	-30.1	-43.3	3.8	7.43e-01	0	41	104	0	21	16537
2026-01-02 02:16:24.64	15.23	8.24	-30.0	-43.6	3.8	7.45e-01	0	41	104	0	20	17213
2026-01-02 02:16:27.66	15.18	8.50	-30.6	-44.9	3.8	7.46e-01	0	41	104	0	21	18715
2026-01-02 02:16:30.68	15.12	8.76	-31.1	-46.0	3.8	7.46e-01	0	41	104	0	22	20122
2026-01-02 02:16:33.68	15.06	9.02	-31.5	-47.0	3.8	7.46e-01	0	41	104	0	23	21445
2026-01-02 02:16:36.69	15.01	9.29	-31.9	-48.4	3.8	7.45e-01	0	42	104	0	24	23905
2026-01-02 02:16:39.70	14.95	9.56	-32.2	-49.2	3.8	7.44e-01	0	42	104	0	25	25491
2026-01-02 02:16:42.71	14.89	9.84	-32.3	-49.8	3.8	7.45e-01	0	42	104	0	25	27021
2026-01-02 02:16:45.73	14.83	10.11	-32.3	-49.8	3.8	7.46e-01	0	42	104	0	25	26966
2026-01-02 02:16:48.74	14.76	10.40	-32.3	-49.3	3.8	7.47e-01	0	42	104	0	25	25508
2026-01-02 02:16:51.75	14.70	10.68	-32.2	-49.0	3.8	7.43e-01	0	42	104	0	25	24785
2026-01-02 02:16:54.75	14.63	10.97	-32.2	-49.0	3.8	7.43e-01	0	42	104	0	25	24708
2026-01-02 02:16:57.75	14.57	11.26	-31.9	-47.9	3.8	7.45e-01	0	42	104	0	24	22616
2026-01-02 02:17:00.76	14.50	11.55	-31.5	-46.4	3.8	7.43e-01	0	42	104	0	23	20217
2026-01-02 02:17:03.76	14.43	11.85	-30.8	-44.6	3.8	7.46e-01	0	42	104	0	22	17656
2026-01-02 02:17:06.77	14.35	12.16	-30.3	-43.8	3.8	7.43e-01	0	42	104	0	21	16988
2026-01-02 02:17:09.78	14.28	12.47	-29.7	-42.4	3.8	7.46e-01	0	42	104	0	20	15651
2026-01-02 02:17:12.79	14.20	12.78	-29.5	-42.4	3.8	7.44e-01	0	42	104	0	19	15896
2026-01-02 02:17:15.79	14.12	13.09	-30.1	-43.2	3.8	7.43e-01	0	42	104	0	21	16287
2026-01-02 02:17:18.81	14.04	13.42	-31.0	-45.4	3.8	7.44e-01	0	42	104	0	22	18902
2026-01-02 02:17:21.81	13.96	13.74	-31.4	-46.3	3.8	7.45e-01	0	42	104	0	23	19828
2026-01-02 02:17:24.82	13.87	14.07	-31.9	-47.5	3.8	7.43e-01	0	42	104	0	24	21634
2026-01-02 02:17:27.84	13.78	14.41	-32.3	-48.9	3.8	7.42e-01	0	43	104	0	25	24285
2026-01-02 02:17:30.85	13.69	14.75	-32.3	-48.5	3.8	7.47e-01	0	42	104	0	25	23395
2026-01-02 02:17:33.87	13.60	15.10	-32.3	-48.6	3.8	7.47e-01	0	42	104	0	25	23582
2026-01-02 02:17:36.88	13.50	15.45	-32.3	-48.8	3.8	7.42e-01	0	43	104	0	25	23910
2026-01-02 02:17:39.89	13.40	15.81	-32.3	-48.5	3.8	7.43e-01	0	43	104	0	25	23306
2026-01-02 02:17:42.90	13.30	16.18	-32.2	-48.3	3.8	7.45e-01	0	43	104	0	25	22772
2026-01-02 02:17:45.91	13.19	16.55	-32.0	-47.1	3.8	7.44e-01	0	43	104	0	25	20564
2026-01-02 02:17:48.93	13.09	16.92	-31.4	-45.6	3.8	7.44e-01	0	42	104	0	24	18328
2026-01-02 02:17:51.94	12.97	17.30	-30.6	-43.9	3.8	7.45e-01	0	43	104	0	22	16642
2026-01-02 02:17:54.94	12.86	17.69	-30.7	-44.1	3.8	7.44e-01	0	43	104	0	22	16826
2026-01-02 02:17:57.95	12.74	18.09	-30.5	-43.6	3.8	7.42e-01	0	43	104	0	22	16245
2026-01-02 02:18:00.96	12.62	18.49	-29.8	-42.7	3.8	7.45e-01	0	43	104	0	20	15869
2026-01-02 02:18:03.98	12.49	18.90	-29.7	-42.4	3.8	7.45e-01	0	43	104	0	20	15476
2026-01-02 02:18:06.98	12.37	19.32	-30.9	-44.7	3.8	7.45e-01	0	43	104	0	22	17679
2026-01-02 02:18:10.00	12.23	19.74	-31.8	-46.7	3.8	7.42e-01	0	43	104	0	24	19939
2026-01-02 02:18:13.01	12.09	20.18	-32.1	-47.3	3.8	7.43e-01	0	43	104	0	25	20653
2026-01-02 02:18:16.02	11.95	20.62	-32.4	-40.3	11.3	6.13e-01	0	43	0	0	25	8928
2026-01-02 02:18:19.01	11.80	21.07	-32.2	-39.1	12.3	6.07e-01	0	43	0	5242880	25	8007
2026-01-02 02:18:22.02	11.65	21.52	-31.4	-36.1	15.1	6.05e-01	0	43	0	11010048	24	6241
2026-01-02 02:18:25.03	11.49	21.99	-31.2	-36.1	15.5	6.02e-01	0	43	0	16777216	23	6329
2026-01-02 02:18:28.04	11.33	22.47	-30.5	-34.7	16.0	6.08e-01	0	43	0	22544384	21	5837
2026-01-02 02:18:31.04	11.16	22.95	-29.7	-33.5	18.0	6.05e-01	0	43	0	27787264	20	5537
2026-01-02 02:18:34.05	10.99	23.45	-29.7	-32.9	18.6	6.03e-01	0	43	0	33554432	20	5234
2026-01-02 02:18:37.05	10.81	23.95	-28.9	-31.9	19.8	6.04e-01	0	43	0	39321600	18	5058
2026-01-02 02:18:40.05	10.62	24.47	-29.1	-31.9	19.7	6.02e-01	0	43	0	45088768	19	4951
2026-01-02 02:18:43.06	10.43	25.00	-29.2	-32.1	19.6	6.02e-01	0	43	0	50331648	19	5037
2026-01-02 02:18:46.06	10.22	25.53	-29.4	-32.7	19.2	6.03e-01	0	43	0	56098816	19	5223
2026-01-02 02:18:49.08	10.01	26.09	-29.3	-32.3	19.4	6.01e-01	0	43	0	61865984	19	5075
2026-01-02 02:18:52.07	9.80	26.65	-29.2	-32.1	19.5	6.03e-01	0	43	0	67633152	19	5012
2026-01-02 02:18:55.07	9.57	27.22	-28.9	-31.8	20.1	6.00e-01	0	43	0	72876032	18	5011
2026-01-02 02:18:58.07	9.33	27.81	-28.9	-31.8	20.1	6.03e-01	0	43	0	78643200	18	5021
2026-01-02 02:19:01.07	9.09	28.41	-28.8	-31.6	20.3	6.04e-01	0	43	0	84410368	18	4948
2026-01-02 02:19:04.08	8.83	29.02	-28.7	-31.4	20.4	6.03e-01	0	43	0	90177536	18	4874
2026-01-02 02:19:07.09	8.57	29.65	-28.8	-31.4	20.4	6.03e-01	0	43	0	95420416	18	4892
2026-01-02 02:19:10.09	8.29	30.29	-28.6	-30.9	20.6	6.03e-01	0	43	0	101187584	18	4721
2026-01-02 02:19:13.09	8.00	30.95	-29.0	-31.9	20.1	6.04e-01	0	43	0	106954752	18	5057
2026-01-02 02:19:16.10	7.69	31.62	-29.1	-31.7	19.9	6.01e-01	0	43	0	112721920	19	4872
2026-01-02 02:19:19.12	7.38	32.32	-29.2	-32.1	19.7	6.03e-01	0	43	0	117964800	19	5011
2026-01-02 02:19:22.12	7.04	33.02	-29.0	-32.1	20.1	6.04e-01	0	43	0	123731968	18	5111
2026-01-02 02:19:25.14	6.69	33.75	-28.9	-31.8	20.3	6.04e-01	0	43	0	129499136	18	5012
2026-01-02 02:19:28.14	6.33	34.49	-29.1	-31.6	20.0	6.03e-01	0	43	0	135266304	19	4839
2026-01-02 02:19:31.14	5.95	35.24	-29.3	-32.1	19.8	6.04e-01	0	43	0	140509184	19	5002
2026-01-02 02:19:34.14	5.54	36.02	-29.5	-32.7	19.5	6.02e-01	0	43	0	146276352	19	5207
2026-01-02 02:19:37.16	5.12	36.82	-29.8	-33.1	18.9	6.03e-01	0	43	0	152043520	20	5243
2026-01-02 02:19:40.16	4.67	37.63	-30.0	-33.5	18.6	6.04e-01	0	43	0	157810688	20	5413
2026-01-02 02:19:43.16	4.20	38.46	-30.4	-34.2	17.8	6.01e-01	0	43	0	163053568	21	5587
2026-01-02 02:19:46.17	3.71	39.32	-30.1	-33.5	18.4	6.05e-01	0	43	0	168820736	21	5276
2026-01-02 02:19:49.17	3.18	40.19	-31.0	-35.6	16.7	6.05e-01	0	43	0	174587904	22	6071
2026-01-02 02:19:52.18	2.63	41.08	-30.7	-34.5	17.4	6.02e-01	0	43	0	180355072	22	5587
2026-01-02 02:19:55.19	2.04	42.00	-30.7	-34.7	17.3	6.04e-01	0	43	0	185597952	22	5655
2026-01-02 02:19:58.19	1.41	42.93	-30.3	-33.3	18.1	6.02e-01	0	43	0	191365120	22	5109
2026-01-02 02:20:01.19	0.75	43.89	-29.7	-32.8	19.1	6.05e-01	0	43	0	197132288	20	5119
2026-01-02 02:20:04.20	0.04	44.87	-29.5	-32.2	19.5	6.04e-01	0	43	0	202899456	20	4927
2026-01-02 02:20:07.21	359.29	45.86	-29.8	-33.0	19.0	6.02e-01	0	43	0	208142336	20	5200
2026-01-02 02:20:10.23	358.48	46.89	-29.7	-32.8	19.2	6.03e-01	0	43	0	213909504	20	5129
2026-01-02 02:20:13.23	357.62	47.92	-30.0	-33.6	18.7	6.02e-01	0	43	0	219676672	20	5438
2026-01-02 02:20:16.24	356.70	48.98	-29.7	-32.8	19.2	6.04e-01	0	43	0	225443840	20	5121
2026-01-02 02:20:19.24	355.71	50.06	-29.9	-32.7	18.9	6.03e-01	0	43	0	230686720	21	4994
2026-01-02 02:20:22.25	354.64	51.15	-30.0	-33.4	18.7	6.05e-01	0	43	0	236453888	20	5372
2026-01-02 02:20:25.25	353.50	52.26	-30.1	-33.7	18.6	6.02e-01	0	43	0	242221056	20	5467
2026-01-02 02:20:28.27	352.25	53.39	-29.5	-32.6	19.6	6.02e-01	0	43	0	247988224	19	5176
2026-01-02 02:20:31.28	350.90	54.52	-29.2	-31.9	20.1	6.04e-01	0	43	0	253231104	19	4895
2026-01-02 02:20:34.30	349.44	55.67	-29.3	-32.0	20.0	6.05e-01	0	43	0	258998272	19	4948
2026-01-02 02:20:37.30	347.86	56.82	-29.7	-32.6	19.3	6.01e-01	0	43	0	264765440	20	5061
2026-01-02 02:20:40.32	346.13	57.97	-29.5	-32.7	18.8	6.03e-01	0	43	0	270532608	19	5169
2026-01-02 02:20:43.33	344.25	59.12	-29.8	-32.8	17.8	6.06e-01	0	43	0	275775488	20	5137
2026-01-02 02:20:46.33	342.20	60.26	-29.9	-33.3	17.2	6.02e-01	0	43	0	281542656	20	5322
2026-01-02 02:20:49.33	339.96	61.38	-30.2	-33.7	18.3	6.02e-01	0	43	0	287309824	21	5356
2026-01-02 02:20:52.33	337.51	62.48	-30.0	-33.5	18.8	6.04e-01	0	43	0	293076992	20	5371
2026-01-02 02:20:55.35	334.81	63.56	-30.5	-34.4	18.0	6.03e-01	0	43	0	298844160	21	5620
2026-01-02 02:20:58.36	331.86	64.59	-30.7	-34.5	17.6	6.02e-01	0	43	0	304087040	22	5583
2026-01-02 02:21:01.37	328.63	65.57	-31.4	-36.0	16.2	6.02e-01	0	43	0	309854208	23	6117
2026-01-02 02:21:04.38	325.12	66.48	-31.4	-36.1	16.2	6.01e-01	0	43	0	315621376	23	6175
2026-01-02 02:21:07.39	321.30	67.32	-31.4	-36.0	16.3	6.02e-01	0	43	0	321388544	23	6119
2026-01-02 02:21:10.39	317.20	68.06	-31.4	-36.1	16.2	6.03e-01	0	43	0	326631424	23	6171
2026-01-02 02:21:13.40	312.79	68.70	-31.3	-35.3	16.4	6.03e-01	0	43	0	332398592	24	5667
2026-01-02 02:21:16.41	308.11	69.21	-31.3	-35.6	16.5	6.01e-01	0	43	0	338165760	23	5921
2026-01-02 02:21:19.41	303.22	69.60	-31.4	-35.6	16.2	6.03e-01	0	43	0	343932928	24	5820
2026-01-02 02:21:22.41	298.17	69.84	-31.2	-35.4	16.6	6.03e-01	0	43	0	349175808	23	5839
2026-01-02 02:21:25.42	293.00	69.93	-31.6	-36.3	15.8	6.04e-01	0	43	0	354942976	24	6134
2026-01-02 02:21:28.44	287.82	69.87	-32.0	-37.4	15.0	6.04e-01	0	43	0	360710144	24	6754
2026-01-02 02:21:31.45	282.72	69.66	-31.6	-36.0	16.0	6.03e-01	0	43	0	366477312	24	6004
2026-01-02 02:21:34.46	277.78	69.30	-31.2	-35.5	16.6	6.05e-01	0	43	0	371720192	23	5857
2026-01-02 02:21:37.47	273.05	68.80	-31.7	-36.5	15.7	6.02e-01	0	43	0	377487360	24	6258
2026-01-02 02:21:40.47	268.60	68.19	-31.9	-37.2	15.0	6.04e-01	0	43	0	383254528	24	6648
2026-01-02 02:21:43.49	264.40	67.46	-31.8	-36.9	15.3	6.05e-01	0	43	0	389021696	24	6455
2026-01-02 02:21:46.50	260.53	66.64	-31.7	-36.4	15.7	6.03e-01	0	43	0	394264576	24	6206
2026-01-02 02:21:49.51	256.95	65.73	-31.6	-36.3	15.7	6.03e-01	0	43	0	400031744	24	6155
2026-01-02 02:21:52.52	253.68	64.76	-32.0	-37.6	14.8	6.03e-01	0	43	0	405798912	24	6883
2026-01-02 02:21:55.52	250.68	63.74	-31.3	-35.9	16.4	6.04e-01	0	43	0	411566080	23	6057
2026-01-02 02:21:58.52	247.95	62.68	-30.9	-35.1	17.3	6.01e-01	0	43	0	416808960	22	5792
2026-01-02 02:22:01.53	245.44	61.58	-30.4	-33.5	18.1	6.03e-01	0	43	0	422576128	22	5167
2026-01-02 02:22:04.54	243.15	60.45	-30.4	-34.2	18.1	6.03e-01	0	43	0	428343296	21	5565
2026-01-02 02:22:07.55	241.06	59.31	-29.8	-33.1	19.1	6.04e-01	0	43	0	434110464	20	5211
2026-01-02 02:22:10.57	239.14	58.16	-30.0	-33.4	18.8	6.04e-01	0	43	0	439877632	20	5358
2026-01-02 02:22:13.57	237.39	57.01	-29.5	-32.8	19.6	6.02e-01	0	43	0	445120512	19	5216
2026-01-02 02:22:16.57	235.79	55.86	-29.3	-31.6	19.9	6.03e-01	0	43	0	450887680	20	4701
2026-01-02 02:22:19.58	234.30	54.71	-29.0	-31.9	20.4	6.03e-01	0	43	0	456654848	18	5023
2026-01-02 02:22:22.60	232.93	53.56	-29.6	-32.4	19.3	6.04e-01	0	43	0	462422016	20	5008
2026-01-02 02:22:25.59	231.68	52.44	-28.5	-31.3	21.0	6.03e-01	0	43	0	467664896	17	4935
2026-01-02 02:22:28.59	230.51	51.32	-29.3	-32.3	19.8	6.03e-01	0	43	0	473432064	19	5054
2026-01-02 02:22:31.59	229.43	50.23	-29.1	-31.8	20.1	6.04e-01	0	43	0	479199232	19	4875
2026-01-02 02:22:34.60	228.42	49.14	-29.7	-32.9	19.1	6.02e-01	0	43	0	484966400	20	5174
2026-01-02 02:22:37.61	227.48	48.08	-28.9	-31.2	20.4	6.02e-01	0	43	0	490209280	19	4705
2026-01-02 02:22:40.63	226.61	47.02	-29.0	-32.1	20.2	6.03e-01	0	43	0	495976448	18	5108
2026-01-02 02:22:43.63	225.79	46.00	-29.0	-32.1	20.2	6.05e-01	0	43	0	501743616	18	5093
2026-01-02 02:22:46.65	225.02	44.99	-28.6	-31.1	20.8	6.05e-01	0	43	0	507510784	18	4756
2026-01-02 02:22:49.65	224.31	44.01	-29.0	-32.0	20.2	6.01e-01	0	43	0	512753664	18	5103
2026-01-02 02:22:52.66	223.63	43.04	-29.1	-31.8	20.0	6.03e-01	0	43	0	518520832	19	4905
2026-01-02 02:22:55.68	223.00	42.10	-29.4	-32.4	19.7	6.02e-01	0	43	0	524288000	19	5104
2026-01-02 02:22:58.68	222.40	41.18	-29.4	-32.1	19.5	6.01e-01	0	43	0	530055168	20	4882
2026-01-02 02:23:01.70	221.84	40.27	-29.5	-32.3	19.4	6.03e-01	0	43	0	535298048	20	4957
2026-01-02 02:23:04.70	221.31	39.39	-29.8	-33.2	18.8	6.03e-01	0	43	0	541065216	20	5298
2026-01-02 02:23:07.70	220.81	38.53	-29.8	-33.1	18.8	6.02e-01	0	43	0	546832384	20	5255
2026-01-02 02:23:10.71	220.33	37.69	-29.9	-33.4	18.6	6.02e-01	0	43	0	552599552	20	5393
2026-01-02 02:23:13.73	219.87	36.87	-29.8	-33.0	18.9	6.02e-01	0	43	0	557842432	20	5213
2026-01-02 02:23:16.74	219.44	36.07	-29.8	-33.3	18.7	6.04e-01	0	43	0	563609600	20	5335
2026-01-02 02:23:19.75	219.04	35.28	-29.3	-32.4	19.6	6.05e-01	0	43	0	569376768	19	5118
2026-01-02 02:23:22.76	218.65	34.52	-29.0	-31.6	20.0	6.04e-01	0	43	0	575143936	19	4838
2026-01-02 02:23:25.76	218.28	33.77	-28.9	-31.8	20.3	6.05e-01	0	43	0	580386816	18	5020
2026-01-02 02:23:28.77	217.93	33.04	-28.6	-31.1	20.6	6.03e-01	0	43	0	586153984	18	4781
2026-01-02 02:23:31.77	217.59	32.33	-28.4	-31.2	20.8	6.02e-01	0	43	0	591921152	17	4919
2026-01-02 02:23:34.79	217.27	31.64	-28.5	-31.3	20.7	6.02e-01	0	43	0	597688320	17	4959
2026-01-02 02:23:37.80	216.96	30.96	-28.7	-31.2	20.5	6.04e-01	0	43	0	603455488	18	4828
2026-01-02 02:23:40.80	216.67	30.30	-28.6	-31.1	20.6	6.04e-01	0	43	0	608698368	18	4790
2026-01-02 02:23:43.81	216.38	29.65	-28.5	-30.8	20.8	6.02e-01	0	43	0	614465536	18	4683
2026-01-02 02:23:46.82	216.11	29.01	-28.6	-31.2	20.5	6.02e-01	0	43	0	620232704	18	4809
2026-01-02 02:23:49.82	215.86	28.39	-29.1	-32.3	19.9	6.03e-01	0	43	0	625475584	18	5201
2026-01-02 02:23:52.82	215.61	27.79	-28.7	-31.3	20.4	6.02e-01	0	43	0	631242752	18	4855
2026-01-02 02:23:55.83	215.37	27.20	-29.1	-32.3	19.8	6.02e-01	0	43	0	637009920	18	5211
2026-01-02 02:23:58.84	215.14	26.62	-29.1	-32.0	19.8	6.03e-01	0	43	0	642777088	19	4975
2026-01-02 02:24:01.85	214.92	26.05	-29.2	-32.1	19.6	6.03e-01	0	43	0	648544256	19	5017
2026-01-02 02:24:04.86	214.70	25.50	-29.2	-32.2	19.6	6.04e-01	0	43	0	653787136	19	5049
2026-01-02 02:24:07.87	214.50	24.95	-29.2	-32.0	19.6	6.03e-01	0	43	0	659554304	19	5003
2026-01-02 02:24:10.89	214.30	24.42	-29.1	-31.9	19.7	6.05e-01	0	43	0	665321472	19	4950
2026-01-02 02:24:13.90	214.11	23.90	-29.0	-32.2	19.8	6.00e-01	0	43	0	671088640	18	5181
2026-01-02 02:24:16.91	213.93	23.39	-29.3	-32.5	19.3	6.02e-01	0	43	0	676331520	19	5178
2026-01-02 02:24:19.92	213.75	22.89	-29.3	-32.4	19.3	6.01e-01	0	43	0	682098688	19	5136
2026-01-02 02:24:22.94	213.58	22.40	-29.2	-32.1	19.5	6.03e-01	0	43	0	687865856	19	5030
2026-01-02 02:24:25.94	213.41	21.92	-29.0	-31.5	19.8	6.01e-01	0	43	0	693633024	19	4833
2026-01-02 02:24:28.95	213.25	21.45	-29.0	-32.1	19.8	6.01e-01	0	43	0	698875904	18	5144
2026-01-02 02:24:31.95	213.10	20.99	-29.0	-32.2	19.7	6.03e-01	0	43	0	704643072	18	5187
2026-01-02 02:24:34.96	212.95	20.54	-29.5	-32.9	18.9	6.04e-01	0	43	0	710410240	19	5360
2026-01-02 02:24:37.97	212.80	20.10	-29.3	-32.5	19.2	6.02e-01	0	43	0	716177408	19	5205
2026-01-02 02:24:40.98	212.66	19.66	-29.3	-32.5	19.1	6.02e-01	0	43	0	721420288	19	5211
2026-01-02 02:24:43.99	212.53	19.24	-28.0	-31.0	19.4	6.03e-01	0	43	0	727187456	19	5106
2026-01-02 02:24:47.00	212.40	18.82	-29.1	-32.3	17.6	6.10e-01	0	43	0	732954624	18	5255
2026-01-02 02:24:50.01	212.27	18.40	-29.2	-32.3	17.6	6.02e-01	0	43	0	738721792	19	5130
2026-01-02 02:24:53.02	212.14	18.00	-29.1	-32.4	18.4	6.02e-01	0	43	0	743964672	18	5276
2026-01-02 02:24:56.02	212.02	17.60	-29.2	-32.2	18.0	6.04e-01	0	43	0	749731840	19	5114
2026-01-02 02:24:59.03	211.91	17.21	-29.2	-32.2	19.1	6.04e-01	0	43	0	755499008	19	5117
2026-01-02 02:25:02.02	211.79	16.83	-29.3	-32.6	19.0	6.02e-01	0	43	0	761266176	19	5269
2026-01-02 02:25:05.03	211.68	16.45	-29.0	-32.2	19.5	6.02e-01	0	43	0	767033344	18	5238
2026-01-02 02:25:08.05	211.58	16.08	-29.0	-32.4	19.3	6.04e-01	0	43	0	772276224	18	5303
2026-01-02 02:25:11.04	211.47	15.72	-29.0	-32.4	19.3	6.04e-01	0	43	0	778043392	18	5318
2026-01-02 02:25:14.05	211.37	15.36	-29.0	-32.4	19.3	6.03e-01	0	43	0	783810560	18	5294
2026-01-02 02:25:17.05	211.27	15.00	-29.1	-32.2	19.1	6.04e-01	0	43	0	789053440	19	5124
2026-01-02 02:25:20.07	211.18	14.65	-29.0	-32.2	19.4	6.02e-01	0	43	0	794820608	18	5230
2026-01-02 02:25:23.07	211.08	14.31	-28.9	-32.2	19.4	6.06e-01	0	43	0	800587776	18	5220
2026-01-02 02:25:26.09	210.99	13.97	-28.9	-32.2	19.3	6.04e-01	0	43	0	806354944	18	5219
2026-01-02 02:25:29.08	210.90	13.64	-29.0	-32.3	19.3	6.01e-01	0	43	0	812122112	18	5272
2026-01-02 02:25:32.09	210.82	13.31	-29.0	-32.3	19.2	6.04e-01	0	43	0	817364992	18	5282
2026-01-02 02:25:35.11	210.73	12.99	-29.0	-32.5	19.1	6.03e-01	0	43	0	823132160	18	5355
2026-01-02 02:25:38.12	210.65	12.67	-29.0	-32.5	19.1	6.04e-01	0	43	0	828899328	18	5340
2026-01-02 02:25:41.13	210.57	12.36	-29.3	-32.6	18.7	6.03e-01	0	43	0	834666496	19	5292
2026-01-02 02:25:44.15	210.49	12.05	-29.0	-32.4	19.1	6.04e-01	0	43	0	839909376	18	5324
2026-01-02 02:25:47.16	210.42	11.74	-29.0	-32.4	19.0	6.01e-01	0	43	0	845676544	18	5341
2026-01-02 02:25:50.16	210.34	11.44	-29.2	-32.5	18.7	6.02e-01	0	43	0	851443712	19	5235
2026-01-02 02:25:53.17	210.27	11.14	-29.5	-33.2	18.2	6.02e-01	0	43	0	857210880	19	5528
2026-01-02 02:25:56.18	210.20	10.85	-29.4	-32.9	18.3	6.04e-01	0	43	0	862453760	19	5415
2026-01-02 02:25:59.19	210.13	10.56	-29.8	-33.7	17.4	6.03e-01	0	43	0	868220928	20	5639
2026-01-02 02:26:02.18	210.07	10.28	-29.3	-32.8	18.4	6.04e-01	0	43	0	873988096	19	5386
2026-01-02 02:26:05.19	210.00	9.99	-29.2	-32.5	18.6	6.01e-01	0	43	0	879755264	19	5277
2026-01-02 02:26:08.19	209.94	9.72	-29.4	-33.2	18.1	6.03e-01	0	43	0	884998144	19	5535
2026-01-02 02:26:11.19	209.87	9.44	-29.3	-32.9	18.2	6.02e-01	0	43	0	890765312	19	5449
2026-01-02 02:26:14.19	209.81	9.17	-29.5	-33.4	17.9	6.02e-01	0	43	0	896532480	19	5630
2026-01-02 02:26:17.19	209.75	8.90	-29.5	-32.9	17.7	6.03e-01	0	43	0	902299648	20	5363
2026-01-02 02:26:20.19	209.70	8.64	-29.7	-33.7	17.2	6.03e-01	0	43	0	907542528	20	5695
2026-01-02 02:26:23.19	209.64	8.38	-29.4	-33.2	18.0	6.02e-01	0	43	0	913309696	19	5567
2026-01-02 02:26:26.18	209.58	8.12	-29.5	-33.5	17.7	6.04e-01	0	43	0	919076864	19	5698
2026-01-02 02:26:29.19	209.53	7.86	-29.5	-33.6	17.7	6.04e-01	0	43	0	924319744	19	5734
2026-01-02 02:26:32.20	209.48	7.61	-29.6	-33.4	17.3	6.02e-01	0	43	0	930086912	20	5585
2026-01-02 02:26:35.21	209.42	7.36	-29.6	-33.4	17.3	6.02e-01	0	43	0	935854080	20	5595
2026-01-02 02:26:38.21	209.37	7.11	-30.7	-36.1	15.8	6.02e-01	0	43	0	941621248	22	6694

#Closed at: 2026-01-02 02:26:41
#Recorded file [941 MB]: D:/data/31010_260102_051815.dat