passes_logs/2026/01/02/R2M6_AANII_01/R2M6_AANII_01__20260102_233004_NOAA_21_JPSS-2_rec.log

#Pass ID: 20260102_233004_NOAA 21 (JPSS-2)
#Satellite: NOAA 21 (JPSS-2)
#Configuration: NOAA 21
#almurnet v.1.7.20240730
#Start time: 2026-01-02 23:30:04

#Version: 2.2.20231116
#Station: R2M6_AANII_01
#Location: 30.233357 lon 59.946436 lat
#TLE: 1 54234U 22150A   26002.25486487  .00000200  00000+0  11573-3 0  9993
#TLE: 2 54234  98.7485 303.3096 0001220 350.9074   9.2080 14.19531212163006

#Time	Az	El	Level	Level2	SNR	BER	BlckErr	Temp	State	Recorded	gain1	gain2
2026-01-02 23:30:04.05	23.16	7.00	-30.0	-34.9	4.6	1.40e+00	0	40	0	0	20	6325
2026-01-02 23:30:07.06	23.31	7.22	-30.4	-35.3	7.8	8.79e-02	0	41	0	3145728	20	6339
2026-01-02 23:30:10.08	23.46	7.44	-30.5	-35.3	7.5	1.22e-01	0	41	0	12582912	21	6225
2026-01-02 23:30:13.10	23.62	7.66	-30.9	-36.8	6.5	2.07e-01	0	41	0	22020096	21	7088
2026-01-02 23:30:16.12	23.78	7.89	-30.0	-34.1	8.7	4.67e-02	0	41	0	31457280	20	5754
2026-01-02 23:30:19.14	23.94	8.12	-29.8	-33.7	9.5	1.39e-02	0	41	0	40894464	19	5632
2026-01-02 23:30:22.16	24.11	8.35	-29.7	-33.1	9.5	1.51e-02	0	41	0	50331648	20	5297
2026-01-02 23:30:25.18	24.27	8.58	-28.8	-31.4	11.5	1.24e-03	0	41	0	59768832	18	4834
2026-01-02 23:30:28.20	24.44	8.81	-28.5	-31.0	12.1	2.91e-04	0	41	0	69206016	17	4820
2026-01-02 23:30:31.22	24.61	9.05	-28.6	-31.3	11.9	4.69e-04	0	41	0	78643200	17	4914
2026-01-02 23:30:34.24	24.79	9.29	-27.9	-30.0	13.0	4.88e-05	0	42	0	88080384	16	4588
2026-01-02 23:30:37.25	24.96	9.53	-27.8	-30.4	12.9	4.42e-05	0	42	0	97517568	15	4860
2026-01-02 23:30:40.28	25.14	9.77	-27.7	-30.0	13.2	2.21e-05	0	42	0	106954752	15	4708
2026-01-02 23:30:43.29	25.33	10.02	-27.8	-30.2	13.0	3.66e-05	0	42	0	116391936	15	4788
2026-01-02 23:30:46.31	25.51	10.26	-27.6	-29.7	13.4	1.98e-05	0	42	0	125829120	15	4619
2026-01-02 23:30:49.33	25.70	10.51	-27.4	-29.3	13.6	9.10e-06	0	42	0	135266304	15	4486
2026-01-02 23:30:52.34	25.89	10.76	-27.2	-28.7	14.0	4.50e-06	0	42	0	143654912	15	4318
2026-01-02 23:30:55.36	26.08	11.01	-27.1	-28.5	14.1	2.20e-06	0	42	0	154140672	15	4256
2026-01-02 23:30:58.38	26.28	11.27	-27.0	-28.3	14.3	3.28e-05	0	42	0	163577856	15	4186
2026-01-02 23:31:01.41	26.48	11.53	-26.9	-28.2	14.4	7.00e-07	0	42	0	173015040	15	4166
2026-01-02 23:31:04.43	26.69	11.79	-27.0	-28.7	14.3	3.90e-04	0	42	0	182452224	14	4423
2026-01-02 23:31:07.45	26.89	12.05	-27.0	-28.9	14.3	1.50e-06	0	42	0	190840832	14	4473
2026-01-02 23:31:10.47	27.10	12.32	-26.7	-28.2	14.7	4.39e-04	0	42	0	201326592	14	4272
2026-01-02 23:31:13.49	27.32	12.59	-26.9	-28.6	14.5	4.08e-04	0	42	0	210763776	14	4383
2026-01-02 23:31:16.49	27.54	12.86	-26.9	-28.6	14.5	2.29e-04	0	42	0	219152384	14	4379
2026-01-02 23:31:19.51	27.76	13.13	-27.1	-29.2	14.2	7.01e-05	0	43	0	229638144	14	4549
2026-01-02 23:31:22.54	27.98	13.41	-26.7	-28.0	14.8	7.00e-07	0	42	0	238026752	14	4218
2026-01-02 23:31:25.56	28.21	13.69	-26.6	-27.9	15.0	1.50e-06	0	43	0	248512512	14	4170
2026-01-02 23:31:28.57	28.45	13.97	-26.5	-27.7	15.1	0.00e+00	0	42	0	257949696	14	4128
2026-01-02 23:31:31.59	28.69	14.26	-26.7	-28.2	14.8	7.00e-07	0	42	0	266338304	14	4268
2026-01-02 23:31:34.60	28.93	14.54	-26.7	-28.2	14.8	7.00e-07	0	42	0	276824064	14	4248
2026-01-02 23:31:37.62	29.17	14.83	-26.7	-28.7	14.8	0.00e+00	0	43	0	285212672	13	4517
2026-01-02 23:31:40.63	29.43	15.13	-27.2	-29.3	14.2	3.00e-06	0	43	0	294649856	14	4572
2026-01-02 23:31:43.64	29.68	15.42	-26.6	-28.4	15.0	7.00e-07	0	43	0	304087040	13	4421
2026-01-02 23:31:46.65	29.94	15.72	-26.7	-28.5	14.9	0.00e+00	0	43	0	313524224	13	4463
2026-01-02 23:31:49.67	30.21	16.03	-26.8	-28.7	14.8	0.00e+00	0	43	0	322961408	13	4511
2026-01-02 23:31:52.69	30.48	16.33	-27.2	-29.2	14.3	7.00e-07	0	42	0	332398592	14	4558
2026-01-02 23:31:55.71	30.76	16.64	-27.0	-28.8	14.5	1.50e-06	0	43	0	341835776	14	4427
2026-01-02 23:31:58.73	31.04	16.96	-27.1	-28.9	14.5	7.00e-07	0	43	0	351272960	14	4450
2026-01-02 23:32:01.74	31.33	17.27	-27.1	-29.0	14.5	0.00e+00	0	43	0	360710144	14	4486
2026-01-02 23:32:04.76	31.62	17.60	-27.1	-29.0	14.5	7.00e-07	0	43	0	370147328	14	4475
2026-01-02 23:32:07.78	31.92	17.92	-27.1	-29.0	14.5	0.00e+00	0	43	0	379584512	14	4481
2026-01-02 23:32:10.80	32.23	18.25	-27.2	-29.2	14.4	0.00e+00	0	43	0	389021696	14	4529
2026-01-02 23:32:13.82	32.54	18.58	-27.2	-29.1	14.4	0.00e+00	0	43	0	398458880	14	4520
2026-01-02 23:32:16.84	32.86	18.91	-27.0	-28.8	14.6	1.50e-06	0	43	0	407896064	14	4432
2026-01-02 23:32:19.86	33.19	19.25	-26.8	-28.3	14.9	0.00e+00	0	43	0	417333248	14	4283
2026-01-02 23:32:22.87	33.52	19.59	-26.6	-27.8	15.2	0.00e+00	0	43	0	426770432	14	4131
2026-01-02 23:32:25.89	33.86	19.94	-26.7	-28.0	15.1	0.00e+00	0	43	0	436207616	14	4182
2026-01-02 23:32:28.91	34.21	20.29	-26.6	-27.8	15.3	0.00e+00	0	43	0	445644800	14	4132
2026-01-02 23:32:31.93	34.56	20.65	-26.4	-28.0	15.4	0.00e+00	0	43	0	455081984	13	4288
2026-01-02 23:32:34.95	34.93	21.00	-25.9	-27.2	16.1	0.00e+00	0	43	0	464519168	12	4187
2026-01-02 23:32:37.97	35.30	21.37	-25.8	-27.4	16.3	0.00e+00	0	43	0	473956352	11	4356
2026-01-02 23:32:40.99	35.68	21.73	-25.9	-27.8	16.2	0.00e+00	0	43	0	483393536	11	4459
2026-01-02 23:32:44.01	36.07	22.10	-26.1	-27.6	15.9	0.00e+00	0	43	0	492830720	12	4300
2026-01-02 23:32:47.02	36.46	22.48	-25.8	-27.4	16.4	0.00e+00	0	43	0	502267904	11	4351
2026-01-02 23:32:50.04	36.87	22.86	-25.7	-27.3	16.4	0.00e+00	0	43	0	511705088	11	4329
2026-01-02 23:32:53.06	37.29	23.24	-25.6	-27.0	16.6	7.00e-07	0	43	0	521142272	11	4247
2026-01-02 23:32:56.08	37.72	23.63	-25.6	-27.0	16.7	1.50e-06	0	43	0	530579456	11	4232
2026-01-02 23:32:59.10	38.16	24.02	-25.6	-27.1	16.6	7.00e-07	0	43	0	540016640	11	4275
2026-01-02 23:33:02.12	38.61	24.42	-25.7	-27.3	16.5	0.00e+00	0	43	0	549453824	11	4335
2026-01-02 23:33:05.13	39.06	24.81	-25.9	-27.6	16.4	0.00e+00	0	43	0	558891008	11	4412
2026-01-02 23:33:08.15	39.54	25.22	-26.0	-27.5	16.1	0.00e+00	0	43	0	568328192	12	4260
2026-01-02 23:33:11.15	40.02	25.63	-26.2	-27.9	15.9	0.00e+00	0	43	0	577765376	12	4372
2026-01-02 23:33:14.16	40.51	26.04	-26.2	-27.8	15.9	0.00e+00	0	43	0	587202560	12	4355
2026-01-02 23:33:17.18	41.02	26.45	-26.2	-27.9	15.9	0.00e+00	0	43	0	596639744	12	4364
2026-01-02 23:33:20.20	41.54	26.88	-26.2	-27.8	16.0	0.00e+00	0	43	0	606076928	12	4342
2026-01-02 23:33:23.21	42.07	27.30	-26.3	-27.5	15.9	0.00e+00	0	43	0	615514112	13	4156
2026-01-02 23:33:26.23	42.62	27.73	-26.3	-27.7	15.8	0.00e+00	0	43	0	624951296	13	4204
2026-01-02 23:33:29.24	43.19	28.16	-26.5	-28.0	15.6	0.00e+00	0	43	0	634388480	13	4284
2026-01-02 23:33:32.26	43.77	28.60	-26.4	-27.8	15.8	0.00e+00	0	43	0	643825664	13	4231
2026-01-02 23:33:35.28	44.36	29.04	-26.4	-27.8	15.7	0.00e+00	0	43	0	653262848	13	4235
2026-01-02 23:33:38.29	44.97	29.48	-26.2	-27.5	15.9	0.00e+00	0	43	0	662700032	13	4144
2026-01-02 23:33:41.31	45.60	29.93	-26.3	-28.0	15.9	0.00e+00	0	43	0	672137216	12	4394
2026-01-02 23:33:44.32	46.24	30.38	-26.3	-28.0	15.9	1.04e-04	0	43	0	681574400	12	4399
2026-01-02 23:33:47.31	46.90	30.83	-26.6	-28.2	15.6	0.00e+00	0	43	0	691011584	13	4329
2026-01-02 23:33:50.33	47.58	31.29	-26.9	-29.0	15.1	6.40e-05	0	43	0	700448768	13	4584
2026-01-02 23:33:53.34	48.28	31.75	-27.3	-29.4	14.6	0.00e+00	0	43	0	709885952	14	4584
2026-01-02 23:33:56.36	49.00	32.21	-27.2	-29.2	14.7	1.67e-05	0	43	0	719323136	14	4532
2026-01-02 23:33:59.37	49.74	32.68	-27.3	-29.0	14.6	0.00e+00	0	43	0	728760320	15	4336
2026-01-02 23:34:02.38	50.50	33.14	-27.3	-28.9	14.6	1.34e-04	0	43	0	738197504	15	4323
2026-01-02 23:34:05.41	51.29	33.61	-27.3	-28.7	14.8	3.40e-04	0	43	0	747634688	15	4261
2026-01-02 23:34:08.42	52.09	34.08	-27.3	-29.4	14.6	0.00e+00	0	43	0	757071872	14	4590
2026-01-02 23:34:11.43	52.92	34.55	-27.2	-29.2	14.8	5.11e-04	0	43	0	766509056	14	4508
2026-01-02 23:34:14.45	53.77	35.02	-27.3	-29.4	14.7	0.00e+00	0	43	0	775946240	14	4587
2026-01-02 23:34:17.47	54.65	35.50	-27.7	-29.8	14.1	2.20e-06	0	43	0	785383424	15	4570
2026-01-02 23:34:20.48	55.55	35.96	-27.7	-29.8	14.2	7.00e-07	0	43	0	794820608	15	4583
2026-01-02 23:34:23.49	56.48	36.43	-27.7	-29.7	14.2	2.20e-06	0	43	0	804257792	15	4552
2026-01-02 23:34:26.49	57.43	36.90	-28.2	-30.4	13.7	1.31e-03	0	43	0	813694976	16	4643
2026-01-02 23:34:29.50	58.41	37.36	-28.2	-30.5	13.7	1.29e-05	0	43	0	823132160	16	4655
2026-01-02 23:34:32.51	59.42	37.82	-27.9	-29.6	14.2	2.20e-06	0	43	0	832569344	16	4391
2026-01-02 23:34:35.54	60.47	38.29	-27.7	-29.3	14.4	1.50e-06	0	43	0	842006528	16	4308
2026-01-02 23:34:38.56	61.54	38.74	-27.9	-29.7	14.2	3.80e-06	0	43	0	851443712	16	4405
2026-01-02 23:34:41.58	62.64	39.19	-27.8	-29.5	14.3	2.20e-06	0	43	0	860880896	16	4365
2026-01-02 23:34:44.61	63.77	39.63	-28.0	-29.9	14.1	1.50e-06	0	43	0	870318080	16	4467
2026-01-02 23:34:47.62	64.93	40.07	-28.1	-30.1	14.0	3.80e-06	0	43	0	879755264	16	4546
2026-01-02 23:34:50.63	66.12	40.50	-28.6	-30.8	13.3	1.67e-05	0	43	0	889192448	17	4664
2026-01-02 23:34:53.64	67.34	40.92	-28.7	-31.1	13.0	3.20e-05	0	43	0	898629632	17	4745
2026-01-02 23:34:56.65	68.59	41.32	-28.7	-30.5	13.2	2.05e-05	0	43	0	908066816	18	4435
2026-01-02 23:34:59.67	69.88	41.72	-28.8	-30.7	13.1	2.36e-05	0	43	0	917504000	18	4511
2026-01-02 23:35:02.68	71.19	42.11	-28.9	-30.9	12.9	4.50e-05	0	43	0	926941184	18	4576
2026-01-02 23:35:05.70	72.54	42.48	-29.4	-32.3	12.1	2.10e-04	0	43	0	936378368	18	5036
2026-01-02 23:35:08.72	73.92	42.84	-29.1	-31.5	12.5	1.26e-04	0	43	0	945815552	18	4772
2026-01-02 23:35:11.74	75.33	43.19	-29.1	-31.6	12.5	7.09e-05	0	43	0	955252736	18	4788
2026-01-02 23:35:14.76	76.77	43.52	-29.0	-31.4	12.7	7.62e-05	0	43	0	964689920	18	4721
2026-01-02 23:35:17.78	78.24	43.83	-29.6	-32.4	11.7	6.99e-04	0	43	0	974127104	19	4968
2026-01-02 23:35:20.80	79.73	44.12	-29.7	-32.7	11.5	8.20e-04	0	43	0	983564288	19	5064
2026-01-02 23:35:23.81	81.25	44.39	-30.0	-33.0	10.9	2.74e-03	0	43	0	993001472	20	5071
2026-01-02 23:35:26.83	82.80	44.65	-30.1	-33.3	10.7	3.08e-03	0	43	0	1002438656	20	5214
2026-01-02 23:35:29.86	84.38	44.88	-29.2	-31.4	12.3	2.19e-04	0	43	0	1011875840	19	4610
2026-01-02 23:35:32.87	85.97	45.09	-29.1	-31.0	12.6	1.19e-04	0	43	0	1021313024	19	4502
2026-01-02 23:35:35.89	87.58	45.27	-29.2	-31.4	12.4	2.41e-04	0	43	0	1030750208	19	4610
2026-01-02 23:35:38.91	89.21	45.43	-28.9	-31.0	13.0	2.60e-04	0	43	0	1040187392	18	4592
2026-01-02 23:35:41.93	90.86	45.57	-29.0	-31.2	12.8	1.40e-04	0	43	0	1049624576	18	4673
2026-01-02 23:35:44.95	92.52	45.68	-29.3	-32.0	12.3	1.40e-03	0	43	0	1059061760	18	4942
2026-01-02 23:35:47.96	94.19	45.77	-28.9	-30.9	12.9	3.15e-04	0	43	0	1068498944	18	4577
2026-01-02 23:35:50.96	95.85	45.82	-28.6	-30.4	13.3	1.83e-05	0	43	0	1077936128	18	4415
2026-01-02 23:35:53.98	97.54	45.86	-28.5	-30.6	13.4	1.39e-04	0	43	0	1086324736	17	4591
2026-01-02 23:35:56.99	99.22	45.86	-28.7	-31.1	13.2	2.36e-05	0	43	0	1095761920	17	4759
2026-01-02 23:36:00.01	100.90	45.84	-28.7	-31.1	13.1	7.32e-05	0	43	0	1106247680	17	4751
2026-01-02 23:36:03.02	102.58	45.80	-28.8	-31.4	13.0	3.05e-05	0	43	0	1114636288	17	4851
2026-01-02 23:36:06.04	104.25	45.72	-28.8	-31.3	13.1	2.21e-05	0	43	0	1124073472	17	4796
2026-01-02 23:36:09.05	105.91	45.62	-28.5	-30.6	13.5	8.30e-06	0	43	0	1133510656	17	4573
2026-01-02 23:36:12.07	107.57	45.50	-28.6	-30.7	13.4	8.30e-06	0	43	0	1142947840	17	4613
2026-01-02 23:36:15.08	109.20	45.35	-28.3	-30.0	13.8	6.80e-06	0	43	0	1152385024	17	4403
2026-01-02 23:36:18.10	110.83	45.17	-28.8	-31.4	12.9	3.35e-05	0	43	0	1161822208	17	4844
2026-01-02 23:36:21.11	112.43	44.98	-28.5	-30.6	13.5	1.06e-05	0	43	0	1171259392	17	4592
2026-01-02 23:36:24.12	114.01	44.76	-28.9	-31.5	12.9	4.50e-05	0	43	0	1180696576	17	4867
2026-01-02 23:36:27.14	115.57	44.51	-28.5	-30.6	13.4	1.29e-05	0	43	0	1190133760	17	4583
2026-01-02 23:36:30.16	117.11	44.25	-28.3	-30.0	13.8	7.00e-07	0	43	0	1199570944	17	4389
2026-01-02 23:36:33.17	118.61	43.96	-29.1	-31.5	12.7	9.30e-05	0	43	0	1209008128	18	4753
2026-01-02 23:36:36.19	120.10	43.66	-28.7	-30.5	13.2	2.05e-05	0	43	0	1218445312	18	4435
2026-01-02 23:36:39.20	121.55	43.34	-28.9	-30.9	13.0	2.21e-05	0	43	0	1227882496	18	4577
2026-01-02 23:36:42.22	122.98	43.00	-29.2	-31.8	12.5	1.05e-04	0	43	0	1237319680	18	4846
2026-01-02 23:36:45.23	124.37	42.65	-28.4	-29.9	13.6	7.60e-06	0	43	0	1246756864	18	4255
2026-01-02 23:36:48.25	125.74	42.28	-29.0	-31.2	12.7	5.56e-05	0	43	0	1256194048	18	4683
2026-01-02 23:36:51.27	127.07	41.90	-28.5	-30.1	13.4	1.98e-05	0	43	0	1265631232	18	4320
2026-01-02 23:36:54.28	128.37	41.50	-28.1	-29.7	13.9	3.00e-06	0	43	0	1275068416	17	4312
2026-01-02 23:36:57.30	129.65	41.10	-28.3	-30.0	13.7	1.22e-05	0	43	0	1284505600	17	4404
2026-01-02 23:37:00.31	130.88	40.68	-28.2	-29.8	13.9	1.50e-06	0	43	0	1293942784	17	4334
2026-01-02 23:37:03.32	132.09	40.25	-28.5	-30.7	13.3	1.83e-05	0	43	0	1303379968	17	4635
2026-01-02 23:37:06.34	133.27	39.82	-28.9	-31.7	12.7	7.85e-05	0	43	0	1312817152	17	4951
2026-01-02 23:37:09.36	134.42	39.38	-28.9	-31.6	12.8	4.42e-05	0	43	0	1322254336	17	4921
2026-01-02 23:37:12.39	135.54	38.93	-28.4	-29.9	13.5	1.90e-05	0	43	0	1331691520	18	4269
2026-01-02 23:37:15.40	136.62	38.47	-28.1	-29.6	13.9	4.50e-06	0	43	0	1341128704	17	4285
2026-01-02 23:37:18.41	137.67	38.01	-28.0	-29.4	14.1	6.10e-06	0	43	0	1350565888	17	4235
2026-01-02 23:37:21.43	138.70	37.55	-27.7	-29.2	14.5	7.00e-07	0	43	0	1360003072	16	4290
2026-01-02 23:37:24.44	139.70	37.09	-27.6	-28.9	14.5	2.20e-06	0	43	0	1369440256	16	4187
2026-01-02 23:37:27.46	140.67	36.62	-27.3	-28.8	14.8	0.00e+00	0	43	0	1378877440	15	4268
2026-01-02 23:37:30.48	141.62	36.14	-27.0	-28.7	15.1	0.00e+00	0	43	0	1388314624	14	4355
2026-01-02 23:37:33.49	142.53	35.67	-27.0	-28.6	15.1	0.00e+00	0	43	0	1397751808	14	4345
2026-01-02 23:37:36.49	143.42	35.20	-27.4	-29.6	14.6	7.00e-07	0	43	0	1407188992	14	4627
2026-01-02 23:37:39.52	144.29	34.72	-27.2	-29.1	14.9	0.00e+00	0	43	0	1416626176	14	4480
2026-01-02 23:37:42.53	145.13	34.25	-26.9	-29.0	15.1	7.00e-07	0	43	0	1426063360	13	4570
2026-01-02 23:37:45.55	145.95	33.78	-27.3	-29.4	14.7	0.00e+00	0	43	0	1435500544	14	4558
2026-01-02 23:37:48.57	146.75	33.31	-27.3	-29.3	14.7	0.00e+00	0	43	0	1444937728	14	4541
2026-01-02 23:37:51.59	147.52	32.84	-27.3	-29.3	14.7	7.00e-07	0	43	0	1454374912	14	4539
2026-01-02 23:37:54.60	148.27	32.37	-26.9	-28.5	15.2	0.00e+00	0	43	0	1463812096	14	4328
2026-01-02 23:37:57.62	149.00	31.90	-26.8	-28.1	15.4	0.00e+00	0	43	0	1473249280	14	4206
2026-01-02 23:38:00.63	149.71	31.44	-26.8	-28.7	15.3	0.00e+00	0	43	0	1482686464	13	4477
2026-01-02 23:38:03.63	150.40	30.98	-26.5	-28.0	15.7	0.00e+00	0	43	0	1492123648	13	4277
2026-01-02 23:38:06.65	151.07	30.52	-26.6	-28.3	15.5	0.00e+00	0	43	0	1501560832	13	4370
2026-01-02 23:38:09.67	151.73	30.06	-26.4	-27.8	15.8	0.00e+00	0	43	0	1510998016	13	4213
2026-01-02 23:38:12.68	152.36	29.61	-26.5	-28.0	15.7	0.00e+00	0	43	0	1520435200	13	4295
2026-01-02 23:38:15.70	152.98	29.16	-26.5	-27.9	15.7	0.00e+00	0	43	0	1529872384	13	4268
2026-01-02 23:38:18.72	153.58	28.72	-26.4	-28.4	15.0	0.00e+00	0	43	0	1539309568	12	4524
2026-01-02 23:38:21.74	154.17	28.28	-26.3	-27.7	15.6	0.00e+00	0	43	0	1548746752	13	4202
2026-01-02 23:38:24.76	154.74	27.84	-26.4	-28.3	15.7	2.86e-03	0	43	0	1558183936	12	4481
2026-01-02 23:38:27.79	155.30	27.40	-26.1	-27.7	16.0	0.00e+00	0	43	0	1567621120	12	4326
2026-01-02 23:38:30.80	155.84	26.97	-26.2	-27.8	16.0	3.28e-03	0	43	0	1577058304	12	4338
2026-01-02 23:38:33.81	156.37	26.55	-26.5	-28.0	15.6	3.37e-03	0	43	0	1586495488	13	4288
2026-01-02 23:38:36.83	156.88	26.13	-26.3	-28.2	15.8	7.00e-07	0	43	0	1595932672	12	4458
2026-01-02 23:38:39.85	157.38	25.71	-26.1	-27.7	16.0	3.02e-03	0	43	0	1605369856	12	4318
2026-01-02 23:38:42.87	157.87	25.30	-25.9	-27.2	16.3	0.00e+00	0	43	0	1614807040	12	4185
2026-01-02 23:38:45.89	158.35	24.89	-26.4	-28.2	15.7	3.64e-03	0	43	0	1624244224	12	4470
2026-01-02 23:38:48.90	158.81	24.49	-26.0	-27.4	16.2	3.32e-03	0	43	0	1633681408	12	4244
2026-01-02 23:38:51.92	159.27	24.09	-26.2	-28.0	15.8	3.74e-03	0	43	0	1643118592	12	4393
2026-01-02 23:38:54.94	159.71	23.69	-26.3	-28.2	15.7	0.00e+00	0	43	0	1652555776	12	4450
2026-01-02 23:38:57.95	160.14	23.30	-26.9	-28.9	15.0	0.00e+00	0	43	0	1661992960	13	4558
2026-01-02 23:39:00.96	160.56	22.91	-26.4	-28.3	15.6	0.00e+00	0	43	0	1671430144	12	4492
2026-01-02 23:39:03.96	160.97	22.53	-26.7	-28.6	15.2	0.00e+00	0	43	0	1680867328	13	4458
2026-01-02 23:39:06.98	161.37	22.15	-26.8	-28.8	15.1	0.00e+00	0	43	0	1690304512	13	4516
2026-01-02 23:39:10.00	161.76	21.78	-27.2	-29.1	14.6	0.00e+00	0	43	0	1699741696	14	4514
2026-01-02 23:39:13.01	162.15	21.41	-27.5	-29.4	14.1	1.50e-06	0	43	0	1709178880	15	4493
2026-01-02 23:39:16.02	162.52	21.05	-26.7	-28.6	15.1	0.00e+00	0	43	0	1718616064	13	4483
2026-01-02 23:39:19.04	162.89	20.68	-26.5	-28.2	15.4	0.00e+00	0	43	0	1728053248	13	4350
2026-01-02 23:39:22.06	163.25	20.32	-26.8	-28.7	15.0	0.00e+00	0	43	0	1737490432	13	4514
2026-01-02 23:39:25.08	163.60	19.97	-26.3	-28.3	15.6	0.00e+00	0	43	0	1746927616	12	4490
2026-01-02 23:39:28.09	163.94	19.62	-26.2	-27.9	15.7	0.00e+00	0	43	0	1756364800	12	4398
2026-01-02 23:39:31.11	164.27	19.28	-26.0	-27.6	15.9	0.00e+00	0	43	0	1765801984	12	4292
2026-01-02 23:39:34.14	164.60	18.93	-26.1	-27.6	15.9	0.00e+00	0	43	0	1775239168	12	4301
2026-01-02 23:39:37.15	164.92	18.59	-26.4	-28.4	15.5	0.00e+00	0	43	0	1784676352	12	4520
2026-01-02 23:39:40.17	165.24	18.26	-26.9	-29.1	14.8	0.00e+00	0	43	0	1794113536	13	4610
2026-01-02 23:39:43.18	165.54	17.93	-27.2	-29.1	14.5	7.00e-07	0	43	0	1803550720	14	4513
2026-01-02 23:39:46.20	165.85	17.60	-27.4	-29.8	14.1	1.50e-06	0	43	0	1812987904	14	4710
2026-01-02 23:39:49.22	166.14	17.28	-27.5	-29.5	13.9	3.51e-03	0	43	0	1822425088	15	4528
2026-01-02 23:39:52.23	166.43	16.96	-27.5	-29.5	13.9	3.80e-06	0	43	0	1831862272	15	4534
2026-01-02 23:39:55.26	166.71	16.64	-27.4	-29.8	14.1	3.84e-03	0	43	0	1841299456	14	4718
2026-01-02 23:39:58.27	166.99	16.33	-27.3	-29.1	14.2	1.50e-06	0	43	0	1850736640	15	4394
2026-01-02 23:40:01.29	167.26	16.02	-26.7	-28.6	15.0	3.92e-03	0	43	0	1859125248	13	4478
2026-01-02 23:40:04.30	167.53	15.71	-26.8	-28.8	14.8	3.62e-03	0	43	0	1869611008	13	4538
2026-01-02 23:40:07.32	167.79	15.41	-26.9	-29.1	14.6	3.40e-03	0	43	0	1879048192	13	4619
2026-01-02 23:40:10.34	168.05	15.11	-26.6	-28.5	15.0	3.84e-03	0	43	0	1887436800	13	4457
2026-01-02 23:40:13.36	168.30	14.81	-26.8	-29.0	14.7	3.74e-03	0	43	0	1897922560	13	4598
2026-01-02 23:40:16.38	168.55	14.52	-26.8	-29.0	14.7	3.38e-03	0	43	0	1906311168	13	4602
2026-01-02 23:40:19.40	168.79	14.23	-26.9	-29.1	14.6	0.00e+00	0	43	0	1915748352	13	4636
2026-01-02 23:40:22.41	169.03	13.94	-27.0	-28.8	14.5	4.34e-03	0	43	0	1926234112	14	4445
2026-01-02 23:40:25.44	169.27	13.65	-27.1	-29.0	14.4	7.00e-07	0	43	0	1934622720	14	4510
2026-01-02 23:40:28.46	169.49	13.37	-27.1	-29.1	14.3	7.00e-07	0	43	0	1945108480	14	4520
2026-01-02 23:40:31.46	169.72	13.09	-27.2	-29.3	14.2	7.00e-07	0	43	0	1953497088	14	4573
2026-01-02 23:40:34.48	169.94	12.82	-27.2	-29.4	14.1	1.50e-06	0	43	0	1962934272	14	4610
2026-01-02 23:40:37.50	170.16	12.54	-27.2	-29.4	14.1	4.50e-06	0	43	0	1972371456	14	4610
2026-01-02 23:40:40.52	170.37	12.27	-27.3	-29.5	14.0	0.00e+00	0	43	0	1981808640	14	4668
2026-01-02 23:40:43.53	170.58	12.00	-27.3	-29.5	14.0	2.21e-05	0	43	0	1991245824	14	4647
2026-01-02 23:40:46.55	170.79	11.74	-27.4	-29.8	13.8	6.10e-06	0	43	0	2000683008	14	4752
2026-01-02 23:40:49.56	170.99	11.48	-27.4	-29.9	13.8	2.59e-05	0	43	0	2010120192	14	4773
2026-01-02 23:40:52.58	171.19	11.22	-27.5	-29.6	13.6	2.20e-06	0	43	0	2019557376	15	4577
2026-01-02 23:40:55.60	171.39	10.96	-27.6	-29.8	13.5	2.51e-05	0	43	0	2028994560	15	4643
2026-01-02 23:40:58.62	171.58	10.70	-27.7	-29.9	13.4	3.28e-05	0	43	0	2038431744	15	4676
2026-01-02 23:41:01.64	171.77	10.45	-27.6	-29.9	13.4	4.19e-05	0	43	0	2047868928	15	4654
2026-01-02 23:41:04.66	171.96	10.20	-27.7	-30.1	13.2	2.82e-05	0	43	0	2057306112	15	4734
2026-01-02 23:41:07.67	172.14	9.95	-27.7	-30.0	13.3	2.13e-05	0	43	0	2066743296	15	4707
2026-01-02 23:41:10.68	172.32	9.70	-27.7	-30.1	13.2	4.80e-05	0	43	0	2076180480	15	4731
2026-01-02 23:41:13.70	172.50	9.46	-27.9	-30.5	13.0	3.89e-05	0	43	0	2085617664	15	4854
2026-01-02 23:41:16.71	172.68	9.22	-28.3	-30.9	12.6	5.72e-05	0	43	0	2095054848	16	4865
2026-01-02 23:41:19.72	172.85	8.98	-27.8	-30.2	13.1	3.73e-05	0	43	0	2104492032	15	4758
2026-01-02 23:41:22.74	173.02	8.74	-28.0	-30.8	12.6	4.57e-05	0	43	0	2113929216	15	4962
2026-01-02 23:41:25.75	173.19	8.50	-27.7	-30.1	13.1	2.97e-05	0	43	0	2123366400	15	4742
2026-01-02 23:41:28.78	173.35	8.27	-27.8	-30.2	13.0	3.43e-05	0	43	0	2132803584	15	4779
2026-01-02 23:41:31.78	173.51	8.04	-27.9	-30.5	12.9	1.76e-04	0	43	0	2142240768	15	4866
2026-01-02 23:41:34.80	173.67	7.81	-27.9	-30.6	12.7	7.32e-05	0	43	0	2151677952	15	4928
2026-01-02 23:41:37.83	173.83	7.58	-28.1	-30.6	12.6	1.42e-04	0	43	0	2161115136	16	4797
2026-01-02 23:41:40.84	173.99	7.35	-28.1	-30.5	12.6	8.39e-05	0	43	0	2170552320	16	4769
2026-01-02 23:41:43.85	174.14	7.13	-28.1	-30.6	12.5	1.19e-04	0	43	0	2179989504	16	4795
2026-01-02 23:41:46.87	174.29	6.91	-32.7	-44.8	3.8	1.49e+00	0	43	104	2182086656	25	14508

#Closed at: 2026-01-02 23:41:47
#Recorded file [2182 MB]: D:/data/31010_260103_023005.dat