passes_logs/2026/01/02/R2M6_AANII_01/R2M6_AANII_01__20260102_015854_SUOMI_NPP_rec.log

#Pass ID: 20260102_015854_SUOMI NPP
#Satellite: SUOMI NPP
#Configuration: NPP
#almurnet v.1.7.20240730
#Start time: 2026-01-02 01:58:56

#Version: 2.2.20231116
#Station: R2M6_AANII_01
#Location: 30.233357 lon 59.946436 lat
#TLE: 1 37849U 11061A   26001.07732418  .00000182  00000+0  10735-3 0  9990
#TLE: 2 37849  98.7795 303.2470 0002580  87.2016 272.9455 14.19520779734739

#Time	Az	El	Level	Level2	SNR	BER	BlckErr	Temp	State	Recorded	gain1	gain2
2026-01-02 01:58:56.35	11.44	7.12	-31.5	-38.1	4.5	1.37e+00	0	41	0	0	22	7777
2026-01-02 01:58:59.36	11.21	7.33	-31.6	-38.3	5.5	4.86e-01	0	41	0	1048576	23	7752
2026-01-02 01:59:02.37	10.97	7.54	-31.6	-37.9	5.7	4.25e-01	0	41	0	7340032	23	7500
2026-01-02 01:59:05.38	10.74	7.74	-31.1	-36.0	7.5	1.12e-01	0	41	0	12582912	22	6281
2026-01-02 01:59:08.38	10.50	7.95	-30.4	-34.1	9.6	1.61e-02	0	41	0	17825792	20	5522
2026-01-02 01:59:11.39	10.26	8.16	-30.5	-33.9	9.5	1.64e-02	0	41	0	24117248	21	5333
2026-01-02 01:59:14.41	10.01	8.38	-30.6	-34.2	9.2	1.53e-02	0	41	0	29360128	21	5459
2026-01-02 01:59:17.42	9.76	8.59	-30.5	-33.9	9.5	2.44e-02	0	41	0	35651584	21	5328
2026-01-02 01:59:20.42	9.50	8.81	-30.1	-32.9	10.7	5.98e-03	0	41	0	40894464	20	4975
2026-01-02 01:59:23.43	9.25	9.02	-30.5	-34.1	9.8	1.14e-02	0	42	0	46137344	20	5491
2026-01-02 01:59:26.45	8.98	9.24	-30.3	-33.6	10.2	7.93e-03	0	42	0	52428800	20	5250
2026-01-02 01:59:29.44	8.72	9.46	-30.3	-33.4	10.5	7.48e-03	0	42	0	57671680	20	5152
2026-01-02 01:59:32.44	8.45	9.68	-30.1	-32.8	10.9	6.46e-03	0	42	0	62914560	20	4907
2026-01-02 01:59:35.46	8.17	9.90	-30.0	-32.8	11.4	3.83e-03	0	42	0	69206016	19	4972
2026-01-02 01:59:38.46	7.89	10.12	-30.0	-32.6	11.0	4.39e-03	0	42	0	74448896	20	4831
2026-01-02 01:59:41.47	7.61	10.34	-29.9	-32.2	11.3	4.99e-03	0	42	0	80740352	20	4682
2026-01-02 01:59:44.48	7.32	10.57	-30.1	-32.6	11.1	4.80e-03	0	42	0	85983232	20	4838
2026-01-02 01:59:47.47	7.03	10.80	-29.8	-32.0	11.6	1.04e-03	0	42	0	91226112	20	4592
2026-01-02 01:59:50.49	6.73	11.02	-29.7	-32.1	12.0	3.19e-04	0	42	0	97517568	19	4698
2026-01-02 01:59:53.50	6.42	11.25	-29.8	-32.2	11.9	4.59e-04	0	42	0	102760448	19	4740
2026-01-02 01:59:56.51	6.12	11.48	-29.9	-32.5	11.7	3.35e-03	0	42	0	109051904	19	4864
2026-01-02 01:59:59.51	5.80	11.72	-30.1	-32.6	11.2	4.30e-03	0	43	0	114294784	20	4825
2026-01-02 02:00:02.51	5.49	11.95	-29.7	-32.0	12.1	3.52e-03	0	42	0	119537664	19	4671
2026-01-02 02:00:05.52	5.16	12.18	-29.8	-32.0	12.0	4.49e-04	0	42	0	125829120	19	4681
2026-01-02 02:00:08.53	4.83	12.42	-29.7	-31.7	12.3	2.39e-04	0	42	0	131072000	19	4563
2026-01-02 02:00:11.53	4.50	12.66	-29.8	-32.3	12.0	3.09e-04	0	42	0	136314880	19	4763
2026-01-02 02:00:14.55	4.16	12.90	-30.0	-32.6	11.7	4.52e-04	0	42	0	142606336	19	4886
2026-01-02 02:00:17.55	3.81	13.13	-30.0	-32.4	11.5	1.14e-03	0	43	0	147849216	20	4734
2026-01-02 02:00:20.57	3.46	13.38	-29.9	-32.2	11.6	3.72e-03	0	43	0	154140672	20	4658
2026-01-02 02:00:23.57	3.11	13.62	-29.8	-31.8	11.8	5.68e-04	0	42	0	159383552	20	4516
2026-01-02 02:00:26.57	2.74	13.86	-29.9	-31.9	11.8	5.31e-04	0	43	0	164626432	20	4567
2026-01-02 02:00:29.57	2.37	14.11	-30.1	-32.5	11.4	7.29e-04	0	43	0	170917888	20	4777
2026-01-02 02:00:32.57	2.00	14.35	-30.0	-32.1	11.7	8.83e-04	0	43	0	176160768	20	4622
2026-01-02 02:00:35.58	1.62	14.60	-30.0	-32.2	11.7	6.41e-04	0	43	0	181403648	20	4646
2026-01-02 02:00:38.58	1.23	14.85	-30.1	-32.6	11.4	1.20e-03	0	43	0	187695104	20	4772
2026-01-02 02:00:41.60	0.83	15.10	-30.0	-32.1	11.8	4.00e-04	0	43	0	192937984	20	4597
2026-01-02 02:00:44.62	0.43	15.35	-30.3	-33.2	10.9	1.66e-03	0	43	0	199229440	20	4990
2026-01-02 02:00:47.62	0.02	15.60	-30.3	-32.7	11.1	2.17e-03	0	43	0	204472320	21	4706
2026-01-02 02:00:50.63	359.60	15.86	-30.4	-33.5	10.9	1.36e-03	0	43	0	209715200	20	5118
2026-01-02 02:00:53.62	359.18	16.11	-30.5	-33.2	10.7	1.08e-03	0	43	0	216006656	21	4897
2026-01-02 02:00:56.64	358.75	16.37	-30.5	-33.2	10.7	3.26e-03	0	43	0	221249536	21	4930
2026-01-02 02:00:59.65	358.31	16.62	-30.2	-32.6	11.5	9.49e-04	0	43	0	226492416	20	4772
2026-01-02 02:01:02.66	357.86	16.88	-29.9	-31.9	12.0	9.45e-04	0	43	0	232783872	20	4532
2026-01-02 02:01:05.67	357.40	17.14	-29.7	-31.8	12.5	4.45e-04	0	43	0	238026752	19	4565
2026-01-02 02:01:08.68	356.94	17.40	-29.8	-32.0	12.4	4.94e-04	0	43	0	244318208	19	4638
2026-01-02 02:01:11.68	356.47	17.66	-29.7	-31.1	12.6	3.26e-04	0	43	0	249561088	20	4252
2026-01-02 02:01:14.69	355.99	17.92	-29.6	-31.3	13.0	4.88e-05	0	43	0	254803968	19	4370
2026-01-02 02:01:17.70	355.50	18.18	-29.6	-31.4	12.9	4.27e-05	0	43	0	261095424	19	4429
2026-01-02 02:01:20.71	355.00	18.44	-29.9	-31.6	12.3	4.52e-04	0	43	0	266338304	20	4411
2026-01-02 02:01:23.71	354.50	18.70	-29.9	-31.7	12.3	5.39e-04	0	43	0	271581184	20	4442
2026-01-02 02:01:26.72	353.98	18.97	-29.4	-31.4	13.2	4.09e-04	0	43	0	277872640	18	4523
2026-01-02 02:01:29.73	353.46	19.23	-29.4	-31.3	13.2	3.17e-04	0	43	0	283115520	18	4478
2026-01-02 02:01:32.74	352.93	19.49	-29.5	-31.0	13.1	2.74e-04	0	43	0	289406976	19	4298
2026-01-02 02:01:35.74	352.39	19.75	-28.9	-30.0	14.1	2.20e-06	0	43	0	294649856	18	4076
2026-01-02 02:01:38.75	351.83	20.02	-29.0	-30.4	13.9	1.40e-04	0	43	0	299892736	18	4190
2026-01-02 02:01:41.77	351.27	20.28	-29.6	-31.2	13.0	4.80e-05	0	43	0	306184192	19	4370
2026-01-02 02:01:44.77	350.70	20.54	-30.0	-31.9	12.2	3.21e-04	0	43	0	311427072	20	4514
2026-01-02 02:01:47.77	350.12	20.81	-29.8	-31.5	12.5	2.91e-04	0	43	0	317718528	20	4363
2026-01-02 02:01:50.79	349.53	21.07	-29.8	-31.8	12.7	2.95e-04	0	43	0	322961408	19	4532
2026-01-02 02:01:53.80	348.92	21.33	-29.7	-31.5	12.9	2.50e-04	0	43	0	328204288	19	4463
2026-01-02 02:01:56.79	348.31	21.59	-29.8	-32.0	12.4	9.53e-05	0	43	0	334495744	19	4616
2026-01-02 02:01:59.80	347.69	21.85	-29.8	-32.0	12.5	6.79e-05	0	43	0	339738624	19	4603
2026-01-02 02:02:02.81	347.06	22.11	-30.0	-31.9	12.2	2.23e-04	0	43	0	344981504	20	4503
2026-01-02 02:02:05.82	346.41	22.37	-30.1	-32.2	12.1	4.55e-04	0	43	0	351272960	20	4596
2026-01-02 02:02:08.83	345.75	22.63	-29.9	-32.0	12.6	6.79e-05	0	43	0	356515840	19	4602
2026-01-02 02:02:11.84	345.09	22.88	-30.2	-32.5	11.8	2.45e-04	0	43	0	362807296	20	4682
2026-01-02 02:02:14.84	344.41	23.13	-30.0	-32.3	12.5	7.32e-05	0	43	0	368050176	19	4699
2026-01-02 02:02:17.85	343.72	23.38	-29.1	-30.0	14.0	7.60e-06	0	43	0	373293056	19	3976
2026-01-02 02:02:20.86	343.02	23.63	-28.7	-30.0	14.6	0.00e+00	0	43	0	379584512	17	4150
2026-01-02 02:02:23.87	342.31	23.88	-29.2	-30.6	13.9	0.00e+00	0	43	0	384827392	18	4259
2026-01-02 02:02:26.88	341.59	24.13	-29.6	-31.4	13.1	2.89e-05	0	43	0	390070272	19	4406
2026-01-02 02:02:29.89	340.85	24.37	-29.4	-30.6	13.5	3.50e-05	0	43	0	396361728	19	4152
2026-01-02 02:02:32.91	340.10	24.61	-29.9	-31.6	12.5	6.10e-05	0	43	0	401604608	20	4402
2026-01-02 02:02:35.91	339.35	24.84	-30.1	-32.3	12.2	4.73e-05	0	43	0	407896064	20	4634
2026-01-02 02:02:38.91	338.58	25.07	-30.3	-32.6	11.7	3.57e-04	0	43	0	413138944	20	4740
2026-01-02 02:02:41.92	337.80	25.30	-30.3	-32.7	11.8	3.26e-04	0	43	0	418381824	20	4777
2026-01-02 02:02:44.91	337.01	25.52	-30.6	-33.1	11.3	1.54e-03	0	43	0	424673280	21	4840
2026-01-02 02:02:47.91	336.21	25.74	-29.1	-29.9	13.9	6.10e-06	0	43	0	429916160	19	3957
2026-01-02 02:02:50.92	335.40	25.96	-29.2	-30.7	13.8	1.50e-06	0	43	0	435159040	18	4280
2026-01-02 02:02:53.92	334.58	26.17	-29.6	-31.3	13.2	2.59e-05	0	43	0	441450496	19	4358
2026-01-02 02:02:56.92	333.74	26.37	-28.7	-29.4	14.7	2.20e-06	0	43	0	446693376	18	3897
2026-01-02 02:02:59.93	332.89	26.57	-29.0	-30.6	13.4	1.50e-06	0	43	0	452984832	17	4345
2026-01-02 02:03:02.95	332.03	26.77	-29.3	-30.8	13.3	4.50e-06	0	43	0	458227712	18	4309
2026-01-02 02:03:05.96	331.16	26.96	-29.2	-30.6	14.0	9.10e-06	0	43	0	463470592	18	4262
2026-01-02 02:03:08.96	330.29	27.14	-29.2	-30.8	13.8	3.00e-06	0	43	0	469762048	18	4306
2026-01-02 02:03:11.97	329.40	27.32	-29.0	-30.2	14.2	2.24e-03	0	43	0	475004928	18	4135
2026-01-02 02:03:14.98	328.50	27.49	-28.8	-30.3	14.4	4.08e-04	0	43	0	480247808	17	4243
2026-01-02 02:03:17.98	327.59	27.65	-29.4	-30.7	13.6	2.24e-03	0	43	0	486539264	19	4185
2026-01-02 02:03:20.99	326.68	27.81	-28.9	-30.0	14.4	7.00e-07	0	43	0	491782144	18	4046
2026-01-02 02:03:24.00	325.75	27.95	-28.8	-30.1	14.5	0.00e+00	0	43	0	498073600	17	4191
2026-01-02 02:03:27.01	324.81	28.10	-29.3	-30.9	13.8	2.20e-06	0	43	0	503316480	18	4327
2026-01-02 02:03:30.03	323.87	28.23	-29.2	-30.7	13.8	2.84e-03	0	43	0	508559360	18	4290
2026-01-02 02:03:33.03	322.92	28.35	-28.6	-29.6	14.9	2.58e-03	0	43	0	514850816	17	4035
2026-01-02 02:03:36.04	321.96	28.47	-29.2	-30.7	13.9	2.98e-03	0	43	0	520093696	18	4251
2026-01-02 02:03:39.04	321.00	28.58	-29.2	-30.6	14.1	2.81e-03	0	43	0	525336576	18	4222
2026-01-02 02:03:42.05	320.03	28.68	-29.8	-31.9	12.8	3.07e-03	0	43	0	531628032	19	4552
2026-01-02 02:03:45.06	319.05	28.77	-30.6	-33.1	11.1	4.40e-03	0	43	0	536870912	21	4853
2026-01-02 02:03:48.08	318.06	28.85	-30.2	-32.6	11.9	3.43e-03	0	43	0	543162368	20	4749
2026-01-02 02:03:51.07	317.08	28.92	-30.4	-33.1	11.5	3.20e-03	0	44	0	548405248	20	4923
2026-01-02 02:03:54.07	316.09	28.98	-30.1	-32.1	12.2	2.39e-03	0	43	0	553648128	20	4547
2026-01-02 02:03:57.09	315.10	29.04	-30.2	-32.6	12.0	1.96e-03	0	43	0	559939584	20	4719
2026-01-02 02:04:00.09	314.10	29.08	-30.3	-33.0	11.6	1.43e-03	0	43	0	565182464	20	4890
2026-01-02 02:04:03.10	313.10	29.12	-30.5	-33.1	11.2	1.62e-03	0	43	0	571473920	21	4839
2026-01-02 02:04:06.11	312.10	29.14	-30.8	-33.9	10.5	3.10e-03	0	43	0	576716800	21	5179
2026-01-02 02:04:09.12	311.09	29.15	-30.3	-32.3	11.6	9.93e-04	0	43	0	581959680	21	4558
2026-01-02 02:04:12.13	310.09	29.16	-29.2	-30.1	14.0	2.75e-03	0	43	0	588251136	19	3990
2026-01-02 02:04:15.13	309.08	29.15	-29.9	-32.0	12.8	2.45e-03	0	43	0	593494016	19	4600
2026-01-02 02:04:18.15	308.08	29.14	-30.3	-32.7	11.9	2.96e-03	0	43	0	598736896	20	4753
2026-01-02 02:04:21.16	307.07	29.11	-30.3	-32.8	11.9	2.95e-03	0	43	0	605028352	20	4771
2026-01-02 02:04:24.17	306.07	29.08	-30.3	-32.5	12.1	3.93e-04	0	44	0	610271232	20	4680
2026-01-02 02:04:27.18	305.07	29.03	-30.0	-31.9	12.4	1.17e-04	0	43	0	616562688	20	4464
2026-01-02 02:04:30.18	304.08	28.98	-30.4	-32.6	11.6	8.53e-04	0	43	0	621805568	21	4630
2026-01-02 02:04:33.19	303.09	28.92	-29.7	-31.4	13.2	4.73e-05	0	43	0	627048448	19	4389
2026-01-02 02:04:36.19	302.10	28.84	-29.8	-31.8	12.9	2.41e-03	0	43	0	633339904	19	4521
2026-01-02 02:04:39.20	301.12	28.76	-29.2	-30.7	13.9	2.35e-03	0	43	0	638582784	18	4280
2026-01-02 02:04:42.21	300.14	28.67	-29.6	-31.1	13.3	9.90e-06	0	44	0	643825664	19	4310
2026-01-02 02:04:45.21	299.17	28.57	-29.5	-30.8	13.5	1.50e-06	0	43	0	650117120	19	4203
2026-01-02 02:04:48.22	298.21	28.46	-28.7	-29.4	14.7	7.00e-07	0	43	0	655360000	18	3897
2026-01-02 02:04:51.24	297.24	28.34	-29.3	-31.0	13.8	7.00e-07	0	43	0	661651456	18	4357
2026-01-02 02:04:54.25	296.29	28.22	-29.5	-31.0	13.5	8.30e-06	0	43	0	666894336	19	4246
2026-01-02 02:04:57.27	295.34	28.08	-30.2	-32.3	12.2	1.95e-04	0	43	0	672137216	20	4601
2026-01-02 02:05:00.28	294.41	27.94	-30.1	-32.1	12.3	2.15e-04	0	43	0	678428672	20	4548
2026-01-02 02:05:03.29	293.48	27.79	-29.6	-31.1	12.5	2.27e-03	0	43	0	683671552	19	4285
2026-01-02 02:05:06.29	292.56	27.64	-30.0	-31.7	12.3	3.05e-05	0	43	0	688914432	20	4384
2026-01-02 02:05:09.30	291.65	27.47	-29.4	-30.7	13.7	2.05e-05	0	43	0	695205888	19	4135
2026-01-02 02:05:12.32	290.75	27.30	-29.7	-31.3	13.3	1.44e-05	0	43	0	700448768	19	4339
2026-01-02 02:05:15.33	289.86	27.12	-30.0	-32.2	12.8	5.72e-05	0	43	0	706740224	19	4627
2026-01-02 02:05:18.34	288.98	26.94	-30.1	-32.1	12.3	1.65e-04	0	44	0	711983104	20	4526
2026-01-02 02:05:21.36	288.11	26.75	-30.5	-32.8	11.5	3.66e-03	0	43	0	717225984	21	4668
2026-01-02 02:05:24.37	287.25	26.55	-30.6	-32.9	11.5	3.28e-03	0	43	0	723517440	21	4718
2026-01-02 02:05:27.39	286.40	26.35	-30.5	-32.7	11.6	3.51e-03	0	44	0	728760320	21	4650
2026-01-02 02:05:30.40	285.56	26.14	-30.3	-32.6	12.0	2.82e-03	0	43	0	735051776	20	4679
2026-01-02 02:05:33.40	284.73	25.93	-30.0	-31.9	12.5	1.14e-04	0	43	0	740294656	20	4461
2026-01-02 02:05:36.41	283.92	25.72	-29.8	-31.3	12.8	1.95e-04	0	43	0	745537536	20	4263
2026-01-02 02:05:39.41	283.12	25.50	-28.8	-29.5	14.8	2.59e-04	0	43	0	751828992	18	3887
2026-01-02 02:05:42.42	282.32	25.27	-29.6	-31.2	13.4	1.21e-03	0	43	0	757071872	19	4317
2026-01-02 02:05:45.43	281.54	25.04	-29.9	-31.9	12.9	3.31e-04	0	43	0	762314752	19	4532
2026-01-02 02:05:48.44	280.77	24.81	-30.0	-31.8	12.5	2.23e-04	0	44	0	768606208	20	4434
2026-01-02 02:05:51.44	280.01	24.57	-30.1	-32.1	12.3	1.16e-03	0	44	0	773849088	20	4538
2026-01-02 02:05:54.43	279.27	24.33	-29.9	-31.5	12.6	2.16e-03	0	43	0	780140544	20	4353
2026-01-02 02:05:57.44	278.54	24.09	-30.0	-31.8	12.4	2.74e-03	0	43	0	785383424	20	4441
2026-01-02 02:06:00.44	277.81	23.85	-29.3	-30.9	13.8	2.85e-03	0	43	0	790626304	18	4308
2026-01-02 02:06:03.44	277.10	23.60	-28.9	-30.3	14.4	2.46e-03	0	43	0	796917760	17	4243
2026-01-02 02:06:06.45	276.40	23.35	-28.7	-29.8	14.7	2.63e-03	0	43	0	802160640	17	4101
2026-01-02 02:06:09.46	275.71	23.10	-28.5	-29.4	15.0	2.12e-03	0	43	0	807403520	17	3987
2026-01-02 02:06:12.46	275.03	22.84	-28.3	-29.4	15.3	2.09e-03	0	43	0	813694976	16	4075
2026-01-02 02:06:15.46	274.37	22.59	-28.1	-28.8	15.4	3.00e-06	0	43	0	818937856	16	3901
2026-01-02 02:06:18.47	273.71	22.33	-27.6	-28.3	16.0	3.80e-06	0	43	0	825229312	15	3875
2026-01-02 02:06:21.48	273.06	22.07	-28.5	-29.8	15.0	6.10e-06	0	43	0	830472192	16	4187
2026-01-02 02:06:24.49	272.42	21.81	-29.0	-30.2	14.1	2.50e-03	0	44	0	835715072	18	4130
2026-01-02 02:06:27.50	271.80	21.55	-29.2	-30.7	13.8	2.26e-03	0	43	0	842006528	18	4279
2026-01-02 02:06:30.52	271.18	21.29	-28.7	-29.8	14.6	1.99e-03	0	43	0	847249408	17	4091
2026-01-02 02:06:33.53	270.58	21.02	-29.0	-30.5	14.2	2.20e-06	0	43	0	852492288	17	4311
2026-01-02 02:06:36.53	269.99	20.76	-28.5	-29.4	14.8	7.00e-07	0	43	0	858783744	17	3983
2026-01-02 02:06:39.53	269.40	20.50	-27.2	-27.2	16.5	1.50e-06	0	43	0	864026624	15	3619
2026-01-02 02:06:42.54	268.83	20.23	-27.5	-28.0	16.1	0.00e+00	0	43	0	870318080	15	3801
2026-01-02 02:06:45.55	268.27	19.97	-28.2	-29.0	15.4	0.00e+00	0	43	0	875560960	16	3965
2026-01-02 02:06:48.56	267.71	19.70	-28.3	-29.4	15.1	0.00e+00	0	43	0	880803840	16	4065
2026-01-02 02:06:51.57	267.17	19.44	-28.0	-28.7	15.5	9.10e-06	0	43	0	887095296	16	3894
2026-01-02 02:06:54.58	266.63	19.18	-28.4	-29.5	15.1	6.80e-06	0	43	0	892338176	16	4110
2026-01-02 02:06:57.57	266.11	18.91	-28.6	-29.6	14.7	4.50e-06	0	43	0	897581056	17	4035
2026-01-02 02:07:00.58	265.59	18.65	-28.7	-29.9	14.5	0.00e+00	0	43	0	903872512	17	4121
2026-01-02 02:07:03.59	265.09	18.39	-28.6	-29.7	14.6	0.00e+00	0	44	0	909115392	17	4081
2026-01-02 02:07:06.59	264.59	18.12	-28.0	-28.7	15.5	0.00e+00	0	43	0	915406848	16	3896
2026-01-02 02:07:09.59	264.10	17.86	-28.2	-29.1	15.2	0.00e+00	0	43	0	920649728	16	4014
2026-01-02 02:07:12.60	263.62	17.60	-29.0	-30.6	14.1	9.90e-06	0	43	0	925892608	17	4359
2026-01-02 02:07:15.60	263.15	17.34	-29.2	-30.7	13.7	1.67e-05	0	43	0	932184064	18	4275
2026-01-02 02:07:18.60	262.68	17.08	-28.7	-30.0	14.3	2.20e-06	0	43	0	937426944	17	4178
2026-01-02 02:07:21.61	262.23	16.82	-28.7	-29.9	14.4	7.00e-07	0	43	0	942669824	17	4139
2026-01-02 02:07:24.62	261.78	16.56	-29.0	-30.2	13.9	3.80e-06	0	43	0	948961280	18	4135
2026-01-02 02:07:27.63	261.34	16.31	-29.0	-30.3	13.8	3.00e-06	0	43	0	954204160	18	4181
2026-01-02 02:07:30.64	260.90	16.05	-29.6	-31.2	12.9	2.05e-05	0	43	0	960495616	19	4364
2026-01-02 02:07:33.64	260.48	15.80	-29.6	-31.3	12.9	9.53e-05	0	44	0	965738496	19	4374
2026-01-02 02:07:36.65	260.06	15.54	-28.9	-30.0	14.0	1.50e-06	0	43	0	970981376	18	4079
2026-01-02 02:07:39.66	259.64	15.29	-28.9	-30.5	14.0	7.00e-07	0	43	0	977272832	17	4323
2026-01-02 02:07:42.68	259.24	15.04	-29.3	-31.0	13.3	1.29e-05	0	43	0	982515712	18	4378
2026-01-02 02:07:45.67	258.84	14.79	-29.2	-30.9	13.4	2.21e-05	0	43	0	987758592	18	4357
2026-01-02 02:07:48.68	258.45	14.54	-29.0	-30.7	13.7	2.20e-06	0	43	0	994050048	17	4392
2026-01-02 02:07:51.69	258.07	14.29	-28.7	-29.9	14.2	1.52e-03	0	43	0	999292928	17	4163
2026-01-02 02:07:54.70	257.69	14.04	-28.7	-30.1	14.1	7.95e-04	0	44	0	1005584384	17	4207
2026-01-02 02:07:57.71	257.32	13.79	-28.9	-30.4	13.9	5.29e-04	0	43	0	1010827264	17	4311
2026-01-02 02:08:00.73	256.95	13.55	-29.1	-30.4	13.6	4.34e-04	0	43	0	1016070144	18	4221
2026-01-02 02:08:03.74	256.59	13.31	-29.6	-31.4	12.6	5.25e-04	0	44	0	1022361600	19	4436
2026-01-02 02:08:06.75	256.24	13.06	-29.8	-32.0	12.2	8.76e-04	0	44	0	1027604480	19	4629
2026-01-02 02:08:09.76	255.89	12.82	-29.7	-31.7	12.4	6.90e-04	0	43	0	1033895936	19	4558
2026-01-02 02:08:12.77	255.55	12.58	-29.4	-31.5	12.9	5.18e-04	0	43	0	1039138816	18	4564
2026-01-02 02:08:15.79	255.21	12.34	-29.7	-31.7	12.3	4.43e-04	0	43	0	1044381696	19	4553
2026-01-02 02:08:18.79	254.88	12.11	-29.9	-32.4	11.8	5.26e-04	0	43	0	1050673152	19	4813
2026-01-02 02:08:21.79	254.55	11.87	-30.1	-32.6	11.2	1.85e-03	0	43	0	1055916032	20	4799
2026-01-02 02:08:24.79	254.23	11.64	-29.9	-32.1	11.6	1.31e-03	0	44	0	1061158912	20	4603
2026-01-02 02:08:27.80	253.92	11.41	-29.8	-32.0	12.0	2.66e-04	0	44	0	1067450368	19	4677
2026-01-02 02:08:30.81	253.61	11.18	-29.1	-30.7	13.3	3.12e-05	0	43	0	1072693248	18	4311
2026-01-02 02:08:33.83	253.30	10.95	-29.2	-31.0	13.0	1.32e-03	0	44	0	1078984704	18	4409
2026-01-02 02:08:36.84	253.00	10.72	-29.5	-31.4	12.3	1.74e-03	0	44	0	1084227584	19	4470
2026-01-02 02:08:39.85	252.71	10.49	-29.9	-32.5	11.6	2.64e-03	0	44	0	1089470464	19	4873
2026-01-02 02:08:42.86	252.42	10.26	-30.1	-32.7	10.9	4.27e-03	0	44	0	1095761920	20	4858
2026-01-02 02:08:45.86	252.13	10.04	-30.3	-33.3	10.5	3.93e-03	0	44	0	1101004800	20	5103
2026-01-02 02:08:48.85	251.85	9.82	-30.3	-33.4	10.5	4.14e-03	0	43	0	1106247680	20	5142
2026-01-02 02:08:51.86	251.57	9.60	-30.3	-33.3	10.5	3.47e-03	0	44	0	1112539136	20	5098
2026-01-02 02:08:54.87	251.30	9.38	-30.2	-33.0	10.6	3.26e-03	0	43	0	1117782016	20	4988
2026-01-02 02:08:57.87	251.03	9.16	-30.2	-33.3	10.4	4.62e-03	0	43	0	1124073472	20	5099
2026-01-02 02:09:00.87	250.77	8.94	-30.2	-33.2	10.4	5.15e-03	0	44	0	1129316352	20	5090
2026-01-02 02:09:03.89	250.51	8.72	-30.6	-34.3	9.3	9.85e-03	0	44	0	1134559232	21	5468
2026-01-02 02:09:06.90	250.25	8.51	-30.5	-33.8	9.6	1.20e-02	0	43	0	1140850688	21	5269
2026-01-02 02:09:09.90	250.00	8.29	-30.6	-34.0	9.4	1.59e-02	0	43	0	1146093568	21	5362
2026-01-02 02:09:12.92	249.75	8.08	-30.4	-33.4	9.8	1.50e-02	0	44	0	1151336448	21	5101
2026-01-02 02:09:15.92	249.50	7.87	-30.1	-32.9	10.6	2.82e-03	0	44	0	1157627904	20	4971
2026-01-02 02:09:18.94	249.26	7.66	-30.0	-32.5	10.8	2.25e-03	0	43	0	1162870784	20	4836
2026-01-02 02:09:21.96	249.02	7.45	-29.9	-32.2	11.0	1.54e-03	0	43	0	1169162240	20	4715
2026-01-02 02:09:24.97	248.78	7.24	-29.8	-32.5	11.2	1.03e-03	0	44	0	1174405120	19	4900
2026-01-02 02:09:27.98	248.55	7.03	-32.1	-44.3	3.8	9.08e-01	0	44	104	1178599424	24	14699

#Closed at: 2026-01-02 02:09:30
#Recorded file [1178 MB]: D:/data/31010_260102_045858.dat