passes_logs/2026/01/02/R2M6_AANII_01/R2M6_AANII_01__20260102_133047_AQUA_rec.log

#Pass ID: 20260102_133047_AQUA
#Satellite: AQUA
#Configuration: AQUA
#almurnet v.1.7.20240730
#Start time: 2026-01-02 13:30:47

#Version: 2.2.20231116
#Station: R2M6_AANII_01
#Location: 30.233357 lon 59.946436 lat
#TLE: 1 27424U 02022A   25365.92641127  .00002078  00000+0  42628-3 0  9999
#TLE: 2 27424  98.4058 327.1196 0001962  94.7781 340.6230 14.61783896258835

#Time	Az	El	Level	Level2	SNR	BER	BlckErr	Temp	State	Recorded	gain1	gain2
2026-01-02 13:30:47.62	212.70	7.03	-30.4	-35.5	5.2	7.11e-01	0	41	0	0	22	6478
2026-01-02 13:30:50.62	213.03	7.23	-30.9	-36.2	14.5	6.08e-01	0	41	0	1572864	23	6614
2026-01-02 13:30:53.63	213.36	7.43	-30.5	-34.6	15.7	6.08e-01	0	41	0	7340032	23	5757
2026-01-02 13:30:56.64	213.70	7.63	-30.4	-34.0	16.3	6.06e-01	0	41	0	13107200	23	5462
2026-01-02 13:30:59.64	214.04	7.84	-30.0	-33.2	17.2	6.05e-01	0	41	0	18350080	22	5236
2026-01-02 13:31:02.64	214.39	8.04	-29.8	-33.3	17.4	6.03e-01	0	41	0	24117248	21	5385
2026-01-02 13:31:05.65	214.74	8.25	-30.0	-34.0	17.1	6.06e-01	0	41	0	29884416	21	5654
2026-01-02 13:31:08.67	215.10	8.46	-29.7	-32.9	17.8	6.06e-01	0	41	0	35651584	21	5217
2026-01-02 13:31:11.68	215.46	8.67	-29.7	-32.9	17.9	6.06e-01	0	41	0	41418752	21	5178
2026-01-02 13:31:14.69	215.83	8.88	-29.9	-33.3	17.5	6.06e-01	0	41	0	46661632	21	5363
2026-01-02 13:31:17.70	216.21	9.09	-29.7	-32.9	17.8	6.07e-01	0	42	0	52428800	21	5202
2026-01-02 13:31:20.70	216.59	9.30	-29.8	-33.2	17.7	6.06e-01	0	42	0	58195968	21	5291
2026-01-02 13:31:23.71	216.97	9.51	-29.7	-32.9	17.9	6.08e-01	0	42	0	63438848	21	5173
2026-01-02 13:31:26.73	217.37	9.72	-29.7	-32.8	17.9	6.06e-01	0	42	0	69206016	21	5134
2026-01-02 13:31:29.75	217.77	9.94	-29.7	-32.6	18.1	6.07e-01	0	42	0	74973184	21	5069
2026-01-02 13:31:32.75	218.17	10.15	-29.5	-32.2	18.4	6.06e-01	0	42	0	80740352	21	4918
2026-01-02 13:31:35.76	218.58	10.37	-29.5	-32.3	18.4	6.09e-01	0	42	0	86507520	21	4934
2026-01-02 13:31:38.77	219.00	10.58	-29.6	-32.5	18.3	6.07e-01	0	42	0	91750400	21	5017
2026-01-02 13:31:41.79	219.42	10.80	-29.5	-32.1	18.5	6.06e-01	0	42	0	97517568	21	4868
2026-01-02 13:31:44.79	219.85	11.02	-29.4	-32.4	18.7	6.08e-01	0	42	0	103284736	20	5062
2026-01-02 13:31:47.81	220.29	11.24	-29.6	-32.7	18.5	6.09e-01	0	42	0	109051904	20	5198
2026-01-02 13:31:50.80	220.73	11.46	-29.5	-32.6	18.6	6.07e-01	0	42	0	114294784	20	5152
2026-01-02 13:31:53.80	221.18	11.68	-29.6	-32.9	18.4	6.06e-01	0	42	0	120061952	20	5267
2026-01-02 13:31:56.81	221.64	11.90	-29.7	-33.1	18.3	6.06e-01	0	42	0	125829120	20	5332
2026-01-02 13:31:59.82	222.11	12.12	-29.7	-33.0	18.3	6.06e-01	0	42	0	131596288	20	5307
2026-01-02 13:32:02.83	222.58	12.35	-29.3	-31.9	19.0	6.08e-01	0	42	0	136839168	20	4898
2026-01-02 13:32:05.84	223.06	12.57	-29.4	-32.3	18.9	6.07e-01	0	42	0	142606336	20	5031
2026-01-02 13:32:08.84	223.55	12.79	-29.3	-32.1	19.0	6.06e-01	0	42	0	148373504	20	4961
2026-01-02 13:32:11.85	224.04	13.02	-29.4	-32.4	18.9	6.08e-01	0	42	0	154140672	20	5046
2026-01-02 13:32:14.86	224.54	13.24	-29.4	-32.3	18.9	6.07e-01	0	42	0	159383552	20	5016
2026-01-02 13:32:17.87	225.06	13.47	-29.4	-32.4	18.9	6.07e-01	0	43	0	165150720	20	5049
2026-01-02 13:32:20.87	225.57	13.69	-29.2	-31.8	19.2	6.07e-01	0	42	0	170917888	20	4846
2026-01-02 13:32:23.87	226.10	13.92	-29.4	-32.2	19.0	6.06e-01	0	42	0	176685056	20	4988
2026-01-02 13:32:26.88	226.64	14.14	-29.3	-32.1	19.1	6.06e-01	0	42	0	181927936	20	4932
2026-01-02 13:32:29.89	227.18	14.37	-29.3	-32.0	19.1	6.06e-01	0	43	0	187695104	20	4919
2026-01-02 13:32:32.91	227.74	14.60	-29.3	-32.0	19.1	6.05e-01	0	43	0	193462272	20	4905
2026-01-02 13:32:35.92	228.30	14.82	-29.1	-31.5	19.5	6.04e-01	0	43	0	199229440	20	4741
2026-01-02 13:32:38.93	228.87	15.05	-29.1	-31.5	19.5	6.06e-01	0	43	0	204996608	20	4713
2026-01-02 13:32:41.93	229.45	15.27	-29.1	-31.3	19.6	6.06e-01	0	43	0	210239488	20	4661
2026-01-02 13:32:44.95	230.04	15.50	-29.1	-31.4	19.6	6.07e-01	0	43	0	216006656	20	4696
2026-01-02 13:32:47.96	230.64	15.72	-29.0	-31.2	19.7	6.07e-01	0	43	0	221773824	20	4621
2026-01-02 13:32:50.98	231.25	15.95	-29.3	-31.8	19.4	6.07e-01	0	43	0	227540992	20	4823
2026-01-02 13:32:53.99	231.87	16.17	-29.4	-32.2	19.1	6.04e-01	0	43	0	232783872	20	4962
2026-01-02 13:32:56.99	232.50	16.39	-29.3	-31.9	19.4	6.09e-01	0	43	0	238551040	20	4849
2026-01-02 13:33:00.00	233.13	16.61	-29.0	-31.1	19.8	6.05e-01	0	43	0	244318208	20	4588
2026-01-02 13:33:03.01	233.78	16.84	-29.2	-31.6	19.6	6.07e-01	0	43	0	250085376	20	4760
2026-01-02 13:33:06.02	234.44	17.05	-29.2	-31.5	19.6	6.07e-01	0	43	0	255328256	20	4722
2026-01-02 13:33:09.03	235.10	17.27	-29.1	-31.4	19.7	6.08e-01	0	43	0	261095424	20	4681
2026-01-02 13:33:12.03	235.78	17.49	-29.2	-31.7	19.6	6.08e-01	0	43	0	266862592	20	4762
2026-01-02 13:33:15.05	236.47	17.70	-29.6	-32.8	19.0	6.07e-01	0	43	0	272629760	20	5156
2026-01-02 13:33:18.06	237.17	17.92	-29.2	-31.6	19.6	6.08e-01	0	43	0	277872640	20	4750
2026-01-02 13:33:21.07	237.87	18.13	-29.2	-31.5	19.7	6.04e-01	0	43	0	283639808	20	4708
2026-01-02 13:33:24.08	238.59	18.34	-29.4	-32.1	19.4	6.07e-01	0	43	0	289406976	20	4891
2026-01-02 13:33:27.08	239.31	18.54	-29.2	-31.5	19.7	6.08e-01	0	43	0	295174144	20	4709
2026-01-02 13:33:30.10	240.06	18.75	-29.1	-31.4	19.8	6.07e-01	0	43	0	300941312	20	4653
2026-01-02 13:33:33.10	240.80	18.95	-29.1	-31.3	19.8	6.06e-01	0	43	0	306184192	20	4631
2026-01-02 13:33:36.11	241.56	19.15	-29.1	-31.3	19.9	6.07e-01	0	43	0	311951360	20	4619
2026-01-02 13:33:39.13	242.33	19.34	-29.3	-31.8	19.6	6.07e-01	0	43	0	317718528	20	4783
2026-01-02 13:33:42.14	243.11	19.53	-29.3	-31.7	19.6	6.06e-01	0	43	0	323485696	20	4776
2026-01-02 13:33:45.15	243.90	19.72	-29.4	-32.1	19.3	6.05e-01	0	43	0	328728576	20	4906
2026-01-02 13:33:48.15	244.69	19.91	-29.3	-31.8	19.6	6.07e-01	0	43	0	334495744	20	4787
2026-01-02 13:33:51.17	245.50	20.09	-29.2	-31.6	19.7	6.08e-01	0	43	0	340262912	20	4718
2026-01-02 13:33:54.18	246.32	20.27	-29.2	-31.5	19.7	6.07e-01	0	43	0	346030080	20	4702
2026-01-02 13:33:57.19	247.15	20.44	-29.3	-31.6	19.7	6.05e-01	0	43	0	351272960	20	4740
2026-01-02 13:34:00.20	247.99	20.61	-29.4	-31.9	19.5	6.05e-01	0	43	0	357040128	20	4842
2026-01-02 13:34:03.20	248.83	20.77	-29.6	-32.6	19.1	6.08e-01	0	43	0	362807296	20	5076
2026-01-02 13:34:06.22	249.69	20.93	-29.6	-32.6	19.1	6.07e-01	0	43	0	368574464	20	5080
2026-01-02 13:34:09.23	250.55	21.08	-29.8	-33.1	18.8	6.03e-01	0	43	0	374341632	20	5245
2026-01-02 13:34:12.24	251.43	21.23	-29.8	-32.6	18.8	6.08e-01	0	43	0	379584512	21	4955
2026-01-02 13:34:15.25	252.31	21.37	-29.6	-32.0	19.2	6.08e-01	0	43	0	385351680	21	4762
2026-01-02 13:34:18.26	253.20	21.51	-29.7	-32.4	19.0	6.07e-01	0	43	0	391118848	21	4893
2026-01-02 13:34:21.27	254.09	21.64	-29.5	-31.9	19.3	6.05e-01	0	43	0	396361728	21	4705
2026-01-02 13:34:24.28	255.00	21.77	-29.4	-32.0	19.5	6.07e-01	0	43	0	402128896	20	4854
2026-01-02 13:34:27.30	255.92	21.88	-29.5	-32.3	19.3	6.07e-01	0	43	0	407896064	20	4977
2026-01-02 13:34:30.32	256.84	22.00	-29.4	-31.9	19.6	6.06e-01	0	43	0	413663232	20	4819
2026-01-02 13:34:33.34	257.77	22.10	-29.3	-31.7	19.7	6.04e-01	0	43	0	419430400	20	4756
2026-01-02 13:34:36.34	258.70	22.20	-29.3	-31.8	19.7	6.05e-01	0	43	0	424673280	20	4799
2026-01-02 13:34:39.35	259.63	22.29	-29.4	-32.0	19.6	6.04e-01	0	43	0	430440448	20	4865
2026-01-02 13:34:42.34	260.57	22.37	-29.4	-32.0	19.6	6.04e-01	0	43	0	436207616	20	4861
2026-01-02 13:34:45.35	261.52	22.45	-29.4	-32.1	19.5	6.05e-01	0	43	0	441974784	20	4872
2026-01-02 13:34:48.34	262.46	22.52	-29.4	-32.1	19.5	6.07e-01	0	43	0	447217664	20	4888
2026-01-02 13:34:51.34	263.42	22.58	-29.5	-32.2	19.5	6.07e-01	0	43	0	452984832	20	4924
2026-01-02 13:34:54.35	264.38	22.63	-29.5	-32.1	19.5	6.06e-01	0	43	0	458752000	20	4893
2026-01-02 13:34:57.36	265.34	22.68	-29.5	-32.1	19.5	6.06e-01	0	43	0	464519168	20	4889
2026-01-02 13:35:00.37	266.31	22.71	-29.5	-32.1	19.5	6.07e-01	0	43	0	469762048	20	4885
2026-01-02 13:35:03.38	267.28	22.74	-29.6	-32.4	19.3	6.06e-01	0	43	0	475529216	20	5003
2026-01-02 13:35:06.38	268.24	22.76	-29.9	-33.4	18.7	6.07e-01	0	43	0	481296384	20	5356
2026-01-02 13:35:09.39	269.21	22.78	-29.6	-31.9	19.3	6.05e-01	0	43	0	487063552	21	4698
2026-01-02 13:35:12.41	270.19	22.78	-29.5	-31.6	19.5	6.06e-01	0	43	0	492306432	21	4599
2026-01-02 13:35:15.42	271.16	22.78	-29.5	-31.8	19.4	6.08e-01	0	43	0	498073600	21	4683
2026-01-02 13:35:18.43	272.13	22.77	-29.8	-32.5	19.0	6.06e-01	0	43	0	503840768	21	4905
2026-01-02 13:35:21.44	273.10	22.75	-29.7	-32.2	19.2	6.05e-01	0	43	0	509607936	21	4821
2026-01-02 13:35:24.46	274.07	22.72	-29.6	-32.0	19.3	6.06e-01	0	43	0	514850816	21	4761
2026-01-02 13:35:27.46	275.03	22.69	-29.6	-31.9	19.4	6.07e-01	0	43	0	520617984	21	4715
2026-01-02 13:35:30.47	275.99	22.65	-29.7	-32.3	19.0	6.04e-01	0	43	0	526385152	21	4867
2026-01-02 13:35:33.49	276.96	22.59	-30.0	-33.0	18.6	6.07e-01	0	43	0	532152320	21	5106
2026-01-02 13:35:36.51	277.92	22.54	-29.8	-32.6	18.9	6.07e-01	0	43	0	537919488	21	4951
2026-01-02 13:35:39.52	278.87	22.47	-30.0	-33.1	18.6	6.02e-01	0	43	0	543162368	21	5122
2026-01-02 13:35:42.52	279.81	22.40	-29.6	-32.0	19.3	6.06e-01	0	44	0	548929536	21	4726
2026-01-02 13:35:45.53	280.76	22.32	-29.8	-32.4	19.0	6.05e-01	0	43	0	554696704	21	4888
2026-01-02 13:35:48.52	281.69	22.23	-29.6	-32.1	19.2	6.07e-01	0	43	0	560463872	21	4761
2026-01-02 13:35:51.54	282.62	22.13	-29.7	-32.2	19.1	6.06e-01	0	43	0	565706752	21	4804
2026-01-02 13:35:54.55	283.55	22.03	-30.0	-33.0	18.6	6.04e-01	0	43	0	571473920	21	5083
2026-01-02 13:35:57.55	284.47	21.92	-29.6	-32.0	19.3	6.06e-01	0	43	0	577241088	21	4750
2026-01-02 13:36:00.55	285.37	21.81	-29.8	-32.5	19.1	6.05e-01	0	43	0	583008256	21	4923
2026-01-02 13:36:03.56	286.28	21.69	-29.5	-31.7	19.5	6.08e-01	0	43	0	588251136	21	4638
2026-01-02 13:36:06.58	287.18	21.56	-29.6	-32.0	19.3	6.05e-01	0	43	0	594018304	21	4741
2026-01-02 13:36:09.60	288.07	21.42	-29.4	-31.6	19.6	6.06e-01	0	43	0	599785472	21	4595
2026-01-02 13:36:12.61	288.95	21.28	-29.8	-32.6	18.9	6.06e-01	0	43	0	605552640	21	4947
2026-01-02 13:36:15.62	289.83	21.14	-29.8	-32.5	19.0	6.06e-01	0	43	0	610795520	21	4910
2026-01-02 13:36:18.62	290.69	20.99	-29.6	-32.1	19.1	6.05e-01	0	43	0	616562688	21	4772
2026-01-02 13:36:21.63	291.54	20.83	-29.9	-32.7	18.8	6.07e-01	0	43	0	622329856	21	5002
2026-01-02 13:36:24.65	292.39	20.67	-30.0	-33.2	18.5	6.07e-01	0	43	0	628097024	21	5177
2026-01-02 13:36:27.65	293.23	20.50	-29.5	-31.6	19.5	6.06e-01	0	43	0	633339904	21	4618
2026-01-02 13:36:30.66	294.06	20.33	-29.7	-32.7	19.1	6.07e-01	0	43	0	639107072	20	5094
2026-01-02 13:36:33.67	294.87	20.16	-29.4	-31.9	19.5	6.05e-01	0	43	0	644874240	20	4834
2026-01-02 13:36:36.68	295.68	19.98	-29.5	-32.1	19.4	6.07e-01	0	43	0	650641408	20	4910
2026-01-02 13:36:39.71	296.49	19.80	-29.4	-32.1	19.5	6.06e-01	0	43	0	656408576	20	4886
2026-01-02 13:36:42.71	297.27	19.61	-29.4	-32.0	19.5	6.06e-01	0	43	0	661651456	20	4871
2026-01-02 13:36:45.73	298.05	19.42	-29.4	-32.0	19.5	6.08e-01	0	43	0	667418624	20	4871
2026-01-02 13:36:48.73	298.82	19.23	-29.4	-32.1	19.4	6.06e-01	0	43	0	673185792	20	4881
2026-01-02 13:36:51.74	299.58	19.03	-29.5	-32.3	19.3	6.08e-01	0	43	0	678952960	20	4977
2026-01-02 13:36:54.75	300.32	18.83	-29.7	-32.8	18.9	6.07e-01	0	43	0	684195840	20	5146
2026-01-02 13:36:57.75	301.06	18.63	-29.8	-33.0	18.9	6.06e-01	0	43	0	689963008	20	5231
2026-01-02 13:37:00.76	301.79	18.43	-29.9	-33.3	18.7	6.07e-01	0	43	0	695730176	20	5323
2026-01-02 13:37:03.77	302.51	18.22	-30.4	-34.3	17.9	6.07e-01	0	43	0	701497344	21	5642
2026-01-02 13:37:06.78	303.21	18.01	-29.7	-32.4	18.9	6.08e-01	0	43	0	706740224	21	4891
2026-01-02 13:37:09.79	303.91	17.80	-29.5	-31.9	19.2	6.03e-01	0	43	0	712507392	21	4717
2026-01-02 13:37:12.79	304.60	17.59	-29.5	-31.8	19.2	6.05e-01	0	43	0	718274560	21	4693
2026-01-02 13:37:15.80	305.27	17.38	-29.3	-31.7	19.6	6.04e-01	0	43	0	724041728	20	4779
2026-01-02 13:37:18.82	305.94	17.16	-29.4	-32.1	19.3	6.04e-01	0	43	0	729808896	20	4912
2026-01-02 13:37:21.82	306.60	16.94	-29.3	-31.8	19.5	6.04e-01	0	43	0	735051776	20	4809
2026-01-02 13:37:24.83	307.25	16.73	-29.5	-32.4	19.2	6.04e-01	0	43	0	740818944	20	5003
2026-01-02 13:37:27.84	307.88	16.51	-29.5	-32.4	19.2	6.05e-01	0	43	0	746586112	20	5019
2026-01-02 13:37:30.85	308.51	16.29	-29.9	-33.5	18.4	6.04e-01	0	43	0	751828992	20	5433
2026-01-02 13:37:33.85	309.13	16.06	-29.7	-32.8	18.8	6.04e-01	0	43	0	757596160	20	5175
2026-01-02 13:37:36.86	309.74	15.84	-29.8	-32.5	18.6	6.02e-01	0	43	0	763363328	21	4963
2026-01-02 13:37:39.87	310.34	15.62	-29.7	-32.3	18.9	6.02e-01	0	43	0	769130496	21	4874
2026-01-02 13:37:42.87	310.93	15.40	-29.3	-31.8	19.4	6.04e-01	0	43	0	774897664	20	4801
2026-01-02 13:37:45.89	311.51	15.17	-29.3	-32.0	19.3	6.03e-01	0	43	0	780140544	20	4879
2026-01-02 13:37:48.91	312.08	14.95	-29.4	-32.3	19.1	6.04e-01	0	43	0	785907712	20	4978
2026-01-02 13:37:51.91	312.64	14.73	-29.6	-32.7	18.8	6.04e-01	0	43	0	791674880	20	5119
2026-01-02 13:37:54.92	313.20	14.50	-29.4	-32.2	19.1	6.03e-01	0	43	0	796917760	20	4971
2026-01-02 13:37:57.92	313.74	14.28	-29.4	-32.1	19.1	6.03e-01	0	43	0	802684928	20	4921
2026-01-02 13:38:00.93	314.28	14.06	-29.4	-32.1	19.2	6.03e-01	0	43	0	808452096	20	4922
2026-01-02 13:38:03.94	314.81	13.83	-29.4	-32.0	19.2	6.04e-01	0	43	0	814219264	20	4902
2026-01-02 13:38:06.96	315.33	13.61	-29.3	-31.9	19.2	6.04e-01	0	43	0	819986432	20	4850
2026-01-02 13:38:09.97	315.85	13.38	-29.4	-32.2	19.0	6.03e-01	0	43	0	825229312	20	4971
2026-01-02 13:38:12.97	316.35	13.16	-29.6	-32.6	18.8	6.03e-01	0	43	0	830996480	20	5117
2026-01-02 13:38:15.98	316.85	12.94	-30.1	-34.0	17.9	6.04e-01	0	43	0	836763648	20	5674
2026-01-02 13:38:18.99	317.34	12.72	-29.8	-33.3	18.3	6.03e-01	0	43	0	842530816	20	5381
2026-01-02 13:38:22.01	317.82	12.49	-29.6	-32.8	18.6	6.04e-01	0	43	0	847773696	20	5202
2026-01-02 13:38:25.03	318.29	12.27	-29.7	-33.0	18.5	6.04e-01	0	43	0	853540864	20	5255
2026-01-02 13:38:28.03	318.76	12.05	-29.5	-32.3	18.9	6.03e-01	0	43	0	859308032	20	5018
2026-01-02 13:38:31.03	319.22	11.83	-29.5	-32.6	18.8	6.04e-01	0	43	0	865075200	20	5115
2026-01-02 13:38:34.03	319.67	11.62	-29.6	-32.7	18.7	6.02e-01	0	43	0	870842368	20	5147
2026-01-02 13:38:37.04	320.11	11.40	-29.6	-32.8	18.5	6.05e-01	0	43	0	876085248	20	5212
2026-01-02 13:38:40.04	320.55	11.18	-29.7	-33.1	18.4	6.03e-01	0	43	0	881852416	20	5327
2026-01-02 13:38:43.05	320.98	10.96	-29.7	-33.0	18.4	6.01e-01	0	43	0	887619584	20	5294
2026-01-02 13:38:46.06	321.41	10.75	-29.8	-33.3	18.2	6.07e-01	0	43	0	892862464	20	5396
2026-01-02 13:38:49.06	321.82	10.53	-29.7	-33.1	18.2	6.01e-01	0	43	0	898629632	20	5331
2026-01-02 13:38:52.07	322.24	10.32	-29.7	-33.0	18.3	6.03e-01	0	43	0	904396800	20	5296
2026-01-02 13:38:55.09	322.64	10.10	-29.8	-33.3	18.2	6.05e-01	0	43	0	910163968	20	5391
2026-01-02 13:38:58.08	323.04	9.89	-29.7	-33.2	18.2	6.05e-01	0	43	0	915931136	20	5366
2026-01-02 13:39:01.08	323.43	9.68	-29.8	-33.5	18.0	6.05e-01	0	43	0	921174016	20	5485
2026-01-02 13:39:04.07	323.82	9.47	-29.8	-33.5	18.0	6.04e-01	0	43	0	926941184	20	5480
2026-01-02 13:39:07.08	324.20	9.26	-30.0	-33.9	17.7	6.02e-01	0	43	0	932708352	20	5663
2026-01-02 13:39:10.09	324.58	9.05	-29.9	-33.9	17.7	6.04e-01	0	43	0	937951232	20	5648
2026-01-02 13:39:13.12	324.95	8.84	-30.2	-34.1	17.2	6.03e-01	0	43	0	943718400	21	5664
2026-01-02 13:39:16.13	325.32	8.64	-30.0	-33.6	17.5	6.04e-01	0	43	0	949485568	21	5447
2026-01-02 13:39:19.13	325.68	8.43	-30.1	-33.8	17.3	6.02e-01	0	43	0	955252736	21	5522
2026-01-02 13:39:22.14	326.03	8.23	-29.9	-33.4	17.6	6.03e-01	0	43	0	961019904	21	5347
2026-01-02 13:39:25.16	326.38	8.02	-30.3	-34.6	16.8	6.04e-01	0	43	0	966262784	21	5889
2026-01-02 13:39:28.16	326.73	7.82	-30.2	-34.1	17.1	6.05e-01	0	43	0	972029952	21	5671
2026-01-02 13:39:31.18	327.07	7.62	-30.1	-33.9	17.2	6.05e-01	0	43	0	977797120	21	5585
2026-01-02 13:39:34.18	327.40	7.42	-30.3	-34.5	16.7	6.03e-01	0	43	0	983564288	21	5841
2026-01-02 13:39:37.18	327.73	7.22	-30.2	-34.3	16.9	6.03e-01	0	43	0	988807168	21	5755
2026-01-02 13:39:40.19	328.06	7.02	-33.2	-52.4	3.8	7.46e-01	0	43	104	993001472	27	32640

#Closed at: 2026-01-02 13:39:42
#Recorded file [993 MB]: D:/data/31010_260102_163049.dat