passes_logs/2026/01/02/R2M6_AANII_01/R2M6_AANII_01__20260102_162203_FENGYUN_3E_rec.log

#Pass ID: 20260102_162203_FENGYUN 3E
#Satellite: FENGYUN 3E
#Configuration: FENGYUN 3E
#almurnet v.1.7.20240730
#Start time: 2026-01-02 16:22:04

#Version: 2.2.20231116
#Station: R2M6_AANII_01
#Location: 30.233357 lon 59.946436 lat
#TLE: 1 49008U 21062A   26001.96913326  .00000001  00000+0  21174-4 0  9999
#TLE: 2 49008  98.7479   7.2511 0001416 166.5636 193.5578 14.19883387232993

#Time	Az	El	Level	Level2	SNR	BER	BlckErr	Temp	State	Recorded	gain1	gain2
2026-01-02 16:22:04.85	218.86	7.07	-27.5	-28.9	5.6	7.43e-01	0	41	0	0	15	4223
2026-01-02 16:22:07.88	219.18	7.25	-28.6	-30.5	10.0	1.05e-02	0	41	0	7340032	17	4498
2026-01-02 16:22:10.87	219.49	7.43	-27.7	-28.7	11.5	9.81e-04	0	41	0	28311552	16	4059
2026-01-02 16:22:13.87	219.81	7.61	-27.4	-28.2	11.9	5.95e-04	0	42	0	50331648	16	3914
2026-01-02 16:22:16.88	220.14	7.79	-26.7	-27.6	12.7	8.01e-05	0	42	0	72351744	14	3959
2026-01-02 16:22:19.89	220.47	7.98	-26.4	-26.8	13.1	4.69e-05	0	42	0	93323264	14	3774
2026-01-02 16:22:22.90	220.80	8.16	-26.1	-26.7	13.5	8.00e-06	0	42	0	115343360	13	3821
2026-01-02 16:22:25.92	221.14	8.35	-25.9	-26.5	14.0	0.00e+00	0	42	0	137363456	12	3874
2026-01-02 16:22:28.91	221.48	8.53	-26.0	-26.9	13.8	1.25e-05	0	42	0	159383552	12	3984
2026-01-02 16:22:31.91	221.82	8.72	-26.3	-27.5	13.4	1.71e-05	0	42	0	180355072	12	4138
2026-01-02 16:22:34.91	222.17	8.90	-26.4	-27.7	13.3	2.28e-05	0	42	0	202375168	12	4206
2026-01-02 16:22:37.92	222.52	9.09	-26.9	-27.8	12.7	1.19e-04	0	42	0	224395264	14	4016
2026-01-02 16:22:40.93	222.88	9.27	-26.3	-26.9	13.5	9.10e-06	0	42	0	245366784	13	3890
2026-01-02 16:22:43.93	223.24	9.46	-26.0	-26.4	13.8	4.50e-06	0	42	0	267386880	13	3762
2026-01-02 16:22:46.94	223.61	9.65	-26.1	-26.7	13.7	3.40e-06	0	42	0	289406976	13	3816
2026-01-02 16:22:49.93	223.98	9.83	-25.8	-26.3	14.2	6.80e-06	0	42	0	310378496	12	3825
2026-01-02 16:22:52.95	224.35	10.02	-25.4	-26.0	14.7	2.20e-06	0	42	0	332398592	11	3856
2026-01-02 16:22:55.96	224.73	10.21	-25.7	-26.6	14.4	2.20e-06	0	43	0	354418688	11	3993
2026-01-02 16:22:58.97	225.12	10.40	-25.8	-26.8	14.3	1.10e-06	0	43	0	376438784	11	4055
2026-01-02 16:23:01.99	225.51	10.59	-25.7	-26.6	14.4	3.40e-06	0	43	0	397410304	11	3991
2026-01-02 16:23:04.99	225.91	10.78	-25.6	-26.4	14.6	0.00e+00	0	42	0	419430400	11	3949
2026-01-02 16:23:07.99	226.30	10.97	-25.5	-26.3	14.6	0.00e+00	0	43	0	440401920	11	3909
2026-01-02 16:23:11.01	226.71	11.16	-25.6	-26.3	14.6	0.00e+00	0	43	0	462422016	11	3930
2026-01-02 16:23:14.02	227.12	11.35	-25.7	-26.6	14.5	1.10e-06	0	43	0	484442112	11	3998
2026-01-02 16:23:17.03	227.54	11.54	-25.6	-26.4	14.6	0.00e+00	0	43	0	506462208	11	3937
2026-01-02 16:23:20.04	227.96	11.73	-25.3	-25.7	15.0	0.00e+00	0	43	0	527433728	11	3778
2026-01-02 16:23:23.04	228.38	11.92	-25.3	-25.7	15.0	0.00e+00	0	43	0	549453824	11	3769
2026-01-02 16:23:26.05	228.81	12.11	-25.3	-25.6	15.1	0.00e+00	0	43	0	571473920	11	3757
2026-01-02 16:23:29.06	229.25	12.30	-25.3	-25.7	15.0	0.00e+00	0	43	0	593494016	11	3786
2026-01-02 16:23:32.08	229.70	12.49	-25.3	-25.7	15.1	0.00e+00	0	43	0	614465536	11	3759
2026-01-02 16:23:35.09	230.14	12.68	-24.9	-25.4	15.5	1.10e-06	0	43	0	636485632	10	3798
2026-01-02 16:23:38.09	230.60	12.87	-25.0	-25.6	15.4	1.10e-06	0	43	0	658505728	10	3835
2026-01-02 16:23:41.11	231.06	13.07	-25.2	-26.0	15.2	0.00e+00	0	43	0	680525824	10	3941
2026-01-02 16:23:44.12	231.52	13.26	-25.3	-26.3	15.0	0.00e+00	0	43	0	701497344	10	4023
2026-01-02 16:23:47.12	231.99	13.45	-25.1	-25.8	15.4	0.00e+00	0	43	0	723517440	10	3890
2026-01-02 16:23:50.14	232.47	13.64	-25.0	-25.5	15.5	0.00e+00	0	43	0	745537536	10	3822
2026-01-02 16:23:53.15	232.95	13.82	-24.9	-25.4	15.5	0.00e+00	0	43	0	766509056	10	3801
2026-01-02 16:23:56.17	233.44	14.01	-25.1	-25.9	15.3	0.00e+00	0	43	0	788529152	10	3910
2026-01-02 16:23:59.17	233.94	14.20	-24.8	-25.1	15.7	0.00e+00	0	43	0	810549248	10	3716
2026-01-02 16:24:02.17	234.44	14.39	-24.7	-24.9	15.8	0.00e+00	0	43	0	832569344	10	3691
2026-01-02 16:24:05.19	234.94	14.58	-24.6	-24.7	16.0	0.00e+00	0	43	0	853540864	10	3631
2026-01-02 16:24:08.20	235.46	14.76	-24.5	-24.4	16.2	0.00e+00	0	43	0	875560960	10	3579
2026-01-02 16:24:11.20	235.98	14.95	-24.4	-24.3	16.2	0.00e+00	0	43	0	897581056	10	3539
2026-01-02 16:24:14.22	236.50	15.13	-24.3	-24.6	16.3	0.00e+00	0	43	0	919601152	9	3723
2026-01-02 16:24:17.24	237.04	15.32	-24.3	-24.6	16.3	0.00e+00	0	43	0	940572672	9	3709
2026-01-02 16:24:20.24	237.58	15.50	-24.1	-24.1	16.6	0.00e+00	0	43	0	962592768	9	3606
2026-01-02 16:24:23.26	238.12	15.69	-24.2	-24.3	16.5	0.00e+00	0	43	0	984612864	9	3640
2026-01-02 16:24:26.27	238.67	15.87	-24.3	-24.5	16.4	0.00e+00	0	43	0	1006632960	9	3682
2026-01-02 16:24:29.28	239.23	16.05	-24.2	-24.2	16.6	0.00e+00	0	44	0	1027604480	9	3626
2026-01-02 16:24:32.28	239.80	16.22	-24.3	-24.5	16.4	0.00e+00	0	43	0	1049624576	9	3680
2026-01-02 16:24:35.28	240.36	16.40	-24.2	-24.3	16.5	0.00e+00	0	43	0	1070596096	9	3628
2026-01-02 16:24:38.29	240.94	16.58	-24.3	-24.6	16.4	0.00e+00	0	43	0	1092616192	9	3701
2026-01-02 16:24:41.29	241.52	16.75	-24.4	-24.8	16.3	0.00e+00	0	44	0	1114636288	9	3755
2026-01-02 16:24:44.32	242.12	16.92	-24.6	-25.1	16.1	0.00e+00	0	43	0	1136656384	9	3824
2026-01-02 16:24:47.33	242.72	17.10	-23.9	-23.6	16.9	0.00e+00	0	43	0	1157627904	9	3486
2026-01-02 16:24:50.34	243.32	17.26	-23.9	-24.2	16.9	0.00e+00	0	43	0	1179648000	8	3714
2026-01-02 16:24:53.35	243.93	17.43	-23.7	-23.7	17.1	0.00e+00	0	43	0	1201668096	8	3614
2026-01-02 16:24:56.35	244.55	17.60	-23.7	-23.7	17.2	0.00e+00	0	43	0	1222639616	8	3595
2026-01-02 16:24:59.37	245.17	17.76	-23.8	-23.9	17.1	0.00e+00	0	44	0	1244659712	8	3639
2026-01-02 16:25:02.36	245.80	17.92	-23.8	-24.1	17.0	0.00e+00	0	44	0	1266679808	8	3687
2026-01-02 16:25:05.37	246.44	18.08	-23.8	-24.0	17.0	0.00e+00	0	43	0	1288699904	8	3675
2026-01-02 16:25:08.38	247.08	18.23	-23.8	-23.9	17.1	0.00e+00	0	43	0	1309671424	8	3642
2026-01-02 16:25:11.39	247.73	18.39	-24.0	-24.3	16.9	0.00e+00	0	43	0	1331691520	8	3748
2026-01-02 16:25:14.39	248.38	18.54	-23.9	-24.2	16.9	0.00e+00	0	43	0	1353711616	8	3720
2026-01-02 16:25:17.39	249.04	18.69	-23.7	-23.7	17.2	0.00e+00	0	44	0	1374683136	8	3597
2026-01-02 16:25:20.39	249.71	18.83	-23.6	-23.5	17.3	0.00e+00	0	44	0	1396703232	8	3568
2026-01-02 16:25:23.40	250.38	18.97	-23.6	-23.5	17.3	0.00e+00	0	44	0	1418723328	8	3552
2026-01-02 16:25:26.42	251.07	19.11	-23.5	-23.8	17.4	0.00e+00	0	44	0	1440743424	7	3717
2026-01-02 16:25:29.44	251.75	19.25	-23.5	-23.7	17.5	0.00e+00	0	43	0	1461714944	7	3709
2026-01-02 16:25:32.45	252.45	19.38	-23.7	-24.3	17.2	0.00e+00	0	44	0	1483735040	7	3839
2026-01-02 16:25:35.45	253.14	19.51	-23.7	-24.2	17.2	0.00e+00	0	44	0	1505755136	7	3819
2026-01-02 16:25:38.46	253.85	19.63	-23.7	-24.3	17.2	0.00e+00	0	44	0	1527775232	7	3843
2026-01-02 16:25:41.48	254.56	19.76	-24.1	-24.5	16.8	0.00e+00	0	44	0	1548746752	8	3797
2026-01-02 16:25:44.50	255.28	19.88	-24.2	-24.8	16.7	0.00e+00	0	44	0	1570766848	8	3853
2026-01-02 16:25:47.51	256.00	19.99	-23.8	-23.8	17.2	0.00e+00	0	44	0	1592786944	8	3636
2026-01-02 16:25:50.52	256.72	20.10	-23.7	-23.7	17.2	0.00e+00	0	44	0	1614807040	8	3618
2026-01-02 16:25:53.52	257.45	20.21	-23.6	-23.4	17.4	0.00e+00	0	44	0	1635778560	8	3547
2026-01-02 16:25:56.52	258.18	20.31	-23.5	-23.3	17.5	0.00e+00	0	44	0	1657798656	8	3511
2026-01-02 16:25:59.53	258.92	20.40	-23.2	-23.2	17.8	0.00e+00	0	44	0	1678770176	7	3593
2026-01-02 16:26:02.55	259.67	20.50	-23.3	-23.5	17.6	0.00e+00	0	44	0	1700790272	7	3652
2026-01-02 16:26:05.56	260.42	20.59	-23.5	-23.7	17.5	0.00e+00	0	44	0	1722810368	7	3710
2026-01-02 16:26:08.55	261.17	20.67	-23.4	-23.6	17.6	0.00e+00	0	44	0	1744830464	7	3675
2026-01-02 16:26:11.57	261.92	20.75	-23.3	-23.3	17.7	0.00e+00	0	44	0	1765801984	7	3617
2026-01-02 16:26:14.57	262.68	20.82	-23.4	-23.7	17.5	0.00e+00	0	44	0	1787822080	7	3700
2026-01-02 16:26:17.58	263.44	20.89	-23.5	-23.8	17.5	0.00e+00	0	44	0	1809842176	7	3726
2026-01-02 16:26:20.58	264.21	20.96	-23.3	-23.3	17.7	0.00e+00	0	44	0	1830813696	7	3618
2026-01-02 16:26:23.60	264.98	21.02	-23.1	-23.1	17.9	0.00e+00	0	44	0	1852833792	7	3563
2026-01-02 16:26:26.59	265.75	21.07	-23.3	-23.4	17.7	0.00e+00	0	44	0	1874853888	7	3640
2026-01-02 16:26:29.60	266.52	21.12	-23.7	-24.2	17.3	0.00e+00	0	44	0	1895825408	7	3823
2026-01-02 16:26:32.61	267.30	21.17	-23.6	-23.9	17.4	0.00e+00	0	44	0	1917845504	7	3750
2026-01-02 16:26:35.62	268.08	21.21	-23.5	-23.8	17.5	0.00e+00	0	44	0	1939865600	7	3718
2026-01-02 16:26:38.62	268.86	21.24	-23.5	-23.7	17.5	0.00e+00	0	44	0	1961885696	7	3696
2026-01-02 16:26:41.61	269.64	21.27	-23.6	-24.0	17.4	0.00e+00	0	44	0	1982857216	7	3771
2026-01-02 16:26:44.62	270.42	21.29	-23.5	-23.9	17.5	0.00e+00	0	44	0	2004877312	7	3744
2026-01-02 16:26:47.63	271.20	21.31	-23.6	-24.0	17.4	0.00e+00	0	44	0	2026897408	7	3782
2026-01-02 16:26:50.65	271.99	21.32	-23.3	-23.3	17.8	0.00e+00	0	44	0	2048917504	7	3604
2026-01-02 16:26:53.64	272.77	21.33	-23.4	-23.6	17.6	0.00e+00	0	44	0	2069889024	7	3678
2026-01-02 16:26:56.65	273.56	21.33	-23.3	-23.5	17.7	1.10e-06	0	44	0	2091909120	7	3651
2026-01-02 16:26:59.64	274.34	21.33	-23.4	-23.6	17.6	0.00e+00	0	44	0	2112880640	7	3682
2026-01-02 16:27:02.65	275.13	21.32	-23.8	-24.5	17.1	0.00e+00	0	44	0	2134900736	7	3893
2026-01-02 16:27:05.66	275.91	21.31	-23.9	-24.6	17.1	0.00e+00	0	44	0	2156920832	7	3919
2026-01-02 16:27:08.67	276.69	21.29	-24.9	-25.8	15.9	0.00e+00	0	44	0	2178940928	9	3999
2026-01-02 16:27:11.69	277.48	21.26	-24.5	-24.9	16.4	0.00e+00	0	44	0	2199912448	9	3770
2026-01-02 16:27:14.69	278.26	21.23	-24.0	-23.8	17.0	0.00e+00	0	44	0	2221932544	9	3521
2026-01-02 16:27:17.69	279.04	21.20	-23.6	-23.6	17.4	0.00e+00	0	44	0	2242904064	8	3579
2026-01-02 16:27:20.70	279.81	21.16	-23.8	-23.9	17.2	0.00e+00	0	44	0	2264924160	8	3655
2026-01-02 16:27:23.71	280.59	21.11	-23.6	-23.5	17.5	0.00e+00	0	44	0	2286944256	8	3551
2026-01-02 16:27:26.73	281.37	21.06	-23.6	-23.4	17.5	0.00e+00	0	44	0	2308964352	8	3539
2026-01-02 16:27:29.75	282.14	21.01	-23.7	-24.2	17.3	0.00e+00	0	44	0	2330984448	7	3825
2026-01-02 16:27:32.75	282.90	20.94	-23.7	-24.2	17.3	0.00e+00	0	44	0	2351955968	7	3807
2026-01-02 16:27:35.75	283.67	20.88	-23.6	-23.9	17.4	0.00e+00	0	44	0	2373976064	7	3756
2026-01-02 16:27:38.75	284.43	20.81	-23.7	-24.2	17.3	0.00e+00	0	44	0	2394947584	7	3818
2026-01-02 16:27:41.76	285.18	20.73	-23.7	-24.3	17.3	0.00e+00	0	44	0	2416967680	7	3830
2026-01-02 16:27:44.77	285.94	20.65	-23.7	-24.3	17.2	0.00e+00	0	44	0	2438987776	7	3842
2026-01-02 16:27:47.78	286.69	20.57	-23.8	-23.9	17.2	0.00e+00	0	44	0	2461007872	8	3647
2026-01-02 16:27:50.79	287.43	20.48	-24.1	-24.5	16.9	0.00e+00	0	44	0	2481979392	8	3782
2026-01-02 16:27:53.80	288.17	20.38	-23.9	-24.0	17.1	0.00e+00	0	44	0	2503999488	8	3678
2026-01-02 16:27:56.82	288.91	20.29	-23.8	-23.8	17.2	0.00e+00	0	44	0	2526019584	8	3626
2026-01-02 16:27:59.84	289.65	20.18	-24.0	-24.4	16.9	0.00e+00	0	44	0	2548039680	8	3761
2026-01-02 16:28:02.84	290.37	20.08	-24.3	-25.0	16.6	0.00e+00	0	44	0	2569011200	8	3909
2026-01-02 16:28:05.86	291.10	19.97	-24.0	-24.4	16.9	0.00e+00	0	44	0	2591031296	8	3759
2026-01-02 16:28:08.87	291.81	19.85	-24.2	-24.7	16.7	0.00e+00	0	44	0	2613051392	8	3837
2026-01-02 16:28:11.88	292.53	19.73	-24.1	-24.5	16.9	0.00e+00	0	44	0	2635071488	8	3779
2026-01-02 16:28:14.90	293.23	19.61	-23.8	-24.0	17.2	0.00e+00	0	44	0	2657091584	8	3662
2026-01-02 16:28:17.91	293.93	19.49	-24.1	-24.5	16.9	0.00e+00	0	44	0	2678063104	8	3787
2026-01-02 16:28:20.92	294.63	19.36	-23.9	-24.2	17.0	0.00e+00	0	44	0	2700083200	8	3705
2026-01-02 16:28:23.93	295.32	19.22	-23.9	-24.1	17.0	0.00e+00	0	44	0	2722103296	8	3696
2026-01-02 16:28:26.93	296.00	19.09	-24.2	-24.8	16.7	0.00e+00	0	44	0	2743074816	8	3853
2026-01-02 16:28:29.94	296.68	18.95	-24.3	-25.0	16.5	0.00e+00	0	44	0	2765094912	8	3912
2026-01-02 16:28:32.96	297.35	18.81	-24.3	-25.1	16.5	0.00e+00	0	44	0	2787115008	8	3919
2026-01-02 16:28:35.97	298.01	18.66	-24.3	-25.0	16.5	0.00e+00	0	44	0	2809135104	8	3911
2026-01-02 16:28:38.98	298.67	18.51	-24.2	-24.7	16.7	0.00e+00	0	44	0	2830106624	8	3835
2026-01-02 16:28:42.00	299.33	18.36	-24.1	-24.5	16.8	0.00e+00	0	44	0	2852126720	8	3790
2026-01-02 16:28:45.00	299.97	18.21	-24.2	-24.7	16.7	0.00e+00	0	44	0	2874146816	8	3831
2026-01-02 16:28:48.02	300.61	18.05	-24.3	-25.1	16.5	0.00e+00	0	44	0	2895118336	8	3918
2026-01-02 16:28:51.03	301.24	17.90	-24.5	-25.4	16.3	0.00e+00	0	44	0	2917138432	8	3996
2026-01-02 16:28:54.03	301.87	17.74	-24.6	-25.2	16.2	0.00e+00	0	44	0	2939158528	9	3846
2026-01-02 16:28:57.03	302.48	17.58	-24.4	-24.8	16.4	0.00e+00	0	44	0	2960130048	9	3748
2026-01-02 16:29:00.03	303.10	17.41	-24.3	-24.5	16.5	0.00e+00	0	44	0	2982150144	9	3678
2026-01-02 16:29:03.03	303.70	17.25	-24.5	-24.8	16.3	0.00e+00	0	44	0	3004170240	9	3765
2026-01-02 16:29:06.04	304.30	17.08	-24.3	-24.5	16.5	0.00e+00	0	44	0	3025141760	9	3679
2026-01-02 16:29:09.04	304.89	16.91	-24.1	-24.1	16.7	0.00e+00	0	44	0	3047161856	9	3601
2026-01-02 16:29:12.05	305.48	16.74	-24.2	-24.3	16.6	0.00e+00	0	44	0	3069181952	9	3644
2026-01-02 16:29:15.06	306.06	16.56	-24.5	-24.9	16.3	0.00e+00	0	44	0	3091202048	9	3767
2026-01-02 16:29:18.07	306.63	16.39	-24.6	-25.2	16.1	0.00e+00	0	44	0	3112173568	9	3856
2026-01-02 16:29:21.09	307.20	16.21	-24.7	-25.3	16.0	0.00e+00	0	44	0	3134193664	9	3877
2026-01-02 16:29:24.09	307.76	16.03	-24.8	-25.6	15.9	0.00e+00	0	44	0	3156213760	9	3942
2026-01-02 16:29:27.09	308.32	15.86	-24.8	-25.6	15.9	0.00e+00	0	44	0	3177185280	9	3944
2026-01-02 16:29:30.11	308.87	15.68	-25.0	-26.0	15.6	0.00e+00	0	44	0	3199205376	9	4042
2026-01-02 16:29:33.12	309.41	15.49	-24.9	-25.8	15.8	0.00e+00	0	44	0	3221225472	9	3987
2026-01-02 16:29:36.13	309.94	15.31	-25.1	-25.7	15.5	0.00e+00	0	44	0	3243245568	10	3874
2026-01-02 16:29:39.14	310.47	15.13	-25.2	-25.9	15.4	0.00e+00	0	44	0	3264217088	10	3922
2026-01-02 16:29:42.16	311.00	14.95	-25.1	-25.7	15.5	0.00e+00	0	44	0	3286237184	10	3877
2026-01-02 16:29:45.17	311.51	14.76	-25.3	-26.2	15.2	0.00e+00	0	44	0	3308257280	10	3996
2026-01-02 16:29:48.18	312.02	14.58	-25.5	-26.6	15.0	0.00e+00	0	44	0	3330277376	10	4095
2026-01-02 16:29:51.20	312.53	14.39	-25.5	-26.6	15.0	0.00e+00	0	44	0	3352297472	10	4083
2026-01-02 16:29:54.22	313.03	14.20	-25.0	-25.0	15.6	0.00e+00	0	44	0	3373268992	11	3596
2026-01-02 16:29:57.22	313.52	14.02	-24.9	-25.2	15.7	0.00e+00	0	44	0	3395289088	10	3754
2026-01-02 16:30:00.24	314.01	13.83	-25.1	-25.7	15.5	0.00e+00	0	44	0	3417309184	10	3860
2026-01-02 16:30:03.24	314.48	13.64	-25.3	-26.2	15.2	0.00e+00	0	44	0	3438280704	10	3999
2026-01-02 16:30:06.25	314.96	13.45	-25.5	-26.5	15.0	0.00e+00	0	44	0	3460300800	10	4073
2026-01-02 16:30:09.26	315.43	13.27	-25.5	-26.6	15.0	0.00e+00	0	44	0	3482320896	10	4086
2026-01-02 16:30:12.28	315.89	13.08	-25.2	-26.0	15.3	0.00e+00	0	44	0	3503292416	10	3942
2026-01-02 16:30:15.30	316.35	12.89	-25.1	-25.7	15.4	1.10e-06	0	44	0	3525312512	10	3871
2026-01-02 16:30:18.31	316.80	12.70	-25.1	-25.8	15.4	0.00e+00	0	44	0	3547332608	10	3885
2026-01-02 16:30:21.31	317.24	12.51	-25.1	-25.8	15.4	0.00e+00	0	44	0	3569352704	10	3897
2026-01-02 16:30:24.33	317.69	12.32	-25.3	-26.1	15.1	0.00e+00	0	44	0	3590324224	10	3978
2026-01-02 16:30:27.34	318.12	12.13	-25.5	-26.2	14.9	0.00e+00	0	44	0	3612344320	11	3881
2026-01-02 16:30:30.35	318.55	11.94	-25.7	-26.7	14.6	0.00e+00	0	44	0	3634364416	11	4003
2026-01-02 16:30:33.35	318.97	11.75	-26.1	-27.4	14.2	1.10e-06	0	44	0	3656384512	11	4185
2026-01-02 16:30:36.37	319.39	11.56	-26.0	-26.9	14.1	4.50e-06	0	44	0	3677356032	12	3949
2026-01-02 16:30:39.37	319.80	11.38	-26.0	-26.7	14.2	3.40e-06	0	44	0	3699376128	12	3907
2026-01-02 16:30:42.38	320.21	11.19	-26.1	-26.9	14.0	1.10e-06	0	44	0	3721396224	12	3968
2026-01-02 16:30:45.39	320.62	11.00	-25.6	-25.9	14.6	0.00e+00	0	44	0	3742367744	12	3709
2026-01-02 16:30:48.40	321.02	10.81	-25.6	-26.0	14.6	1.10e-06	0	44	0	3764387840	12	3751
2026-01-02 16:30:51.42	321.41	10.62	-25.7	-26.2	14.5	0.00e+00	0	44	0	3786407936	12	3787
2026-01-02 16:30:54.41	321.80	10.44	-25.9	-26.6	14.2	4.50e-06	0	44	0	3808428032	12	3890
2026-01-02 16:30:57.43	322.18	10.25	-26.0	-26.7	14.1	3.40e-06	0	44	0	3829399552	12	3931
2026-01-02 16:31:00.43	322.56	10.06	-26.1	-27.0	14.0	1.10e-06	0	44	0	3851419648	12	3984
2026-01-02 16:31:03.44	322.93	9.88	-26.1	-27.1	13.9	1.10e-06	0	44	0	3873439744	12	4019
2026-01-02 16:31:06.44	323.30	9.69	-26.2	-27.3	13.7	8.00e-06	0	44	0	3894411264	12	4072
2026-01-02 16:31:09.45	323.67	9.51	-26.1	-26.9	13.9	4.50e-06	0	44	0	3916431360	12	3983
2026-01-02 16:31:12.47	324.03	9.32	-26.1	-27.0	13.9	1.10e-06	0	44	0	3938451456	12	4001
2026-01-02 16:31:15.48	324.39	9.13	-26.2	-27.3	13.7	8.00e-06	0	44	0	3960471552	12	4071
2026-01-02 16:31:18.50	324.74	8.95	-26.1	-27.0	13.9	3.40e-06	0	44	0	3982491648	12	4000
2026-01-02 16:31:21.51	325.09	8.77	-26.5	-27.9	13.3	1.48e-05	0	44	0	4003463168	12	4236
2026-01-02 16:31:24.53	325.44	8.58	-26.2	-27.3	13.7	8.00e-06	0	44	0	4025483264	12	4078
2026-01-02 16:31:27.54	325.78	8.40	-26.3	-27.6	13.5	1.48e-05	0	44	0	4046454784	12	4148
2026-01-02 16:31:30.56	326.11	8.22	-26.3	-27.6	13.5	8.00e-06	0	44	0	4068474880	12	4153
2026-01-02 16:31:33.58	326.45	8.03	-26.5	-28.1	13.1	2.86e-05	0	44	0	4090494976	12	4287
2026-01-02 16:31:36.59	326.77	7.85	-26.8	-28.2	12.8	9.26e-05	0	44	0	4112515072	13	4213
2026-01-02 16:31:39.60	327.10	7.67	-26.5	-27.5	13.1	2.63e-05	0	44	0	4134535168	13	4034
2026-01-02 16:31:42.61	327.42	7.49	-26.6	-27.6	13.0	3.43e-05	0	44	0	4155506688	13	4073
2026-01-02 16:31:45.61	327.73	7.31	-26.7	-27.9	12.9	4.80e-05	0	44	0	4177526784	13	4125
2026-01-02 16:31:48.62	328.05	7.13	-26.9	-28.5	12.6	1.09e-04	0	44	0	4199546880	13	4295

#Closed at: 2026-01-02 16:31:51
#Recorded file [4204 MB]: D:/data/31010_260102_192206.dat