passes_logs/2026/01/02/R2M6_AANII_01/R2M6_AANII_01__20260102_112231_NOAA_21_JPSS-2_rec.log

#Pass ID: 20260102_112231_NOAA 21 (JPSS-2)
#Satellite: NOAA 21 (JPSS-2)
#Configuration: NOAA 21
#almurnet v.1.7.20240730
#Start time: 2026-01-02 11:24:29

#Version: 2.2.20231116
#Station: R2M6_AANII_01
#Location: 30.233357 lon 59.946436 lat
#TLE: 1 54234U 22150A   26001.26806856  .00000185  00000+0  10843-3 0  9990
#TLE: 2 54234  98.7484 302.3349 0001277 353.3887   6.7272 14.19530660162860

#Time	Az	El	Level	Level2	SNR	BER	BlckErr	Temp	State	Recorded	gain1	gain2
2026-01-02 11:24:29.15	204.33	16.86	-33.4	-44.9	3.8	8.46e-01	0	43	0	0	26	13485
2026-01-02 11:24:32.14	204.69	17.16	-33.8	-45.5	3.8	1.49e+00	0	43	104	0	28	13825
2026-01-02 11:24:35.14	205.07	17.45	-33.9	-45.6	3.8	1.49e+00	0	43	104	0	28	13850
2026-01-02 11:24:38.13	205.45	17.75	-33.9	-45.7	3.8	1.49e+00	0	44	104	0	28	13970
2026-01-02 11:24:41.10	205.84	18.05	-33.9	-45.6	3.8	1.49e+00	0	44	104	0	28	13852
2026-01-02 11:24:44.09	206.23	18.36	-33.9	-45.6	3.8	1.49e+00	0	44	104	0	28	13854
2026-01-02 11:24:47.09	206.64	18.66	-33.8	-45.6	3.8	1.49e+00	0	44	104	0	28	13893
2026-01-02 11:24:50.09	207.05	18.97	-33.8	-45.4	3.8	1.49e+00	0	43	104	0	28	13713
2026-01-02 11:24:53.09	207.47	19.28	-33.6	-45.2	3.8	1.49e+00	0	44	104	0	28	13554
2026-01-02 11:24:56.08	207.90	19.60	-33.5	-44.9	3.8	1.49e+00	0	44	104	0	28	13352
2026-01-02 11:24:59.07	208.33	19.91	-33.4	-44.5	3.8	1.49e+00	0	43	104	0	28	12916
2026-01-02 11:25:02.05	208.78	20.23	-33.3	-44.5	3.8	1.49e+00	0	44	104	0	27	13076
2026-01-02 11:25:05.16	209.25	20.56	-33.3	-44.9	3.8	1.49e+00	0	44	104	0	27	13717
2026-01-02 11:25:07.99	209.69	20.87	-33.3	-44.8	3.8	1.49e+00	0	44	104	0	27	13540
2026-01-02 11:25:11.12	210.18	21.21	-33.1	-43.1	3.8	1.49e+00	0	44	104	0	27	11393
2026-01-02 11:25:13.97	210.64	21.52	-33.2	-43.6	3.8	1.49e+00	0	44	104	0	27	11995
2026-01-02 11:25:17.09	211.16	21.86	-31.4	-35.3	8.0	1.15e-01	0	44	0	1048576	24	5619
2026-01-02 11:25:19.92	211.63	22.18	-28.3	-29.5	13.8	1.22e-05	0	44	0	9437184	18	4156
2026-01-02 11:25:23.07	212.18	22.53	-27.9	-29.5	14.4	9.10e-06	0	44	0	18874368	16	4365
2026-01-02 11:25:25.91	212.67	22.85	-27.9	-29.6	14.4	0.00e+00	0	44	0	28311552	16	4377
2026-01-02 11:25:29.03	213.23	23.20	-27.1	-28.4	15.2	0.00e+00	0	44	0	37748736	15	4178
2026-01-02 11:25:31.89	213.76	23.52	-27.0	-28.0	15.5	0.00e+00	0	44	0	47185920	15	4064
2026-01-02 11:25:35.02	214.34	23.88	-26.4	-27.2	16.2	0.00e+00	0	44	0	56623104	14	3958
2026-01-02 11:25:37.86	214.88	24.21	-26.3	-27.6	16.3	0.00e+00	0	44	0	66060288	13	4156
2026-01-02 11:25:40.99	215.49	24.57	-26.2	-27.2	16.4	0.00e+00	0	43	0	75497472	13	4065
2026-01-02 11:25:43.85	216.06	24.90	-26.4	-27.7	16.2	0.00e+00	0	44	0	83886080	13	4174
2026-01-02 11:25:47.00	216.71	25.26	-26.6	-28.1	16.0	0.00e+00	0	44	0	94371840	13	4303
2026-01-02 11:25:49.83	217.29	25.59	-26.7	-28.4	15.9	3.00e-06	0	44	0	102760448	13	4376
2026-01-02 11:25:52.96	217.96	25.96	-26.6	-28.1	16.0	2.20e-06	0	43	0	113246208	13	4292
2026-01-02 11:25:55.79	218.57	26.29	-26.8	-28.5	15.8	0.00e+00	0	44	0	121634816	13	4415
2026-01-02 11:25:58.92	219.27	26.66	-26.4	-27.8	16.2	0.00e+00	0	44	0	131072000	13	4198
2026-01-02 11:26:01.76	219.91	26.99	-26.6	-28.3	15.9	0.00e+00	0	44	0	140509184	13	4337
2026-01-02 11:26:04.88	220.63	27.36	-26.8	-28.6	15.8	2.20e-06	0	44	0	149946368	13	4442
2026-01-02 11:26:07.72	221.31	27.69	-26.9	-28.8	15.7	0.00e+00	0	43	0	159383552	13	4503
2026-01-02 11:26:10.84	222.06	28.06	-27.4	-29.5	15.0	1.50e-06	0	44	0	168820736	14	4587
2026-01-02 11:26:13.70	222.77	28.39	-27.5	-29.2	14.9	6.80e-06	0	44	0	177209344	15	4377
2026-01-02 11:26:16.82	223.55	28.76	-26.9	-27.9	15.6	3.00e-06	0	44	0	187695104	15	4034
2026-01-02 11:26:19.66	224.29	29.09	-26.9	-27.7	15.8	0.00e+00	0	44	0	196083712	15	3983
2026-01-02 11:26:22.80	225.11	29.45	-26.5	-27.4	16.2	0.00e+00	0	44	0	205520896	14	4011
2026-01-02 11:26:25.65	225.88	29.78	-26.5	-27.5	16.1	0.00e+00	0	44	0	214958080	14	4031
2026-01-02 11:26:28.77	226.73	30.14	-26.7	-27.9	15.9	0.00e+00	0	44	0	224395264	14	4119
2026-01-02 11:26:31.61	227.53	30.47	-26.6	-27.6	16.1	0.00e+00	0	44	0	233832448	14	4052
2026-01-02 11:26:34.74	228.43	30.82	-26.6	-27.6	16.1	0.00e+00	0	43	0	243269632	14	4055
2026-01-02 11:26:37.58	229.25	31.14	-26.7	-27.9	16.0	0.00e+00	0	44	0	252706816	14	4135
2026-01-02 11:26:40.71	230.19	31.49	-27.0	-28.5	15.6	2.20e-06	0	44	0	262144000	14	4282
2026-01-02 11:26:43.55	231.05	31.80	-26.9	-28.4	15.7	4.50e-06	0	44	0	270532608	14	4261
2026-01-02 11:26:46.68	232.02	32.14	-27.1	-28.7	15.5	6.10e-06	0	44	0	281018368	14	4357
2026-01-02 11:26:49.51	232.91	32.44	-27.3	-29.3	15.2	0.00e+00	0	43	0	289406976	14	4516
2026-01-02 11:26:52.61	233.91	32.77	-27.6	-29.4	14.8	6.80e-06	0	44	0	298844160	15	4422
2026-01-02 11:26:55.47	234.85	33.06	-27.7	-29.6	14.8	0.00e+00	0	44	0	308281344	15	4481
2026-01-02 11:26:58.60	235.90	33.38	-27.7	-29.6	14.8	6.80e-06	0	44	0	317718528	15	4490
2026-01-02 11:27:01.45	236.87	33.66	-27.9	-30.1	14.5	7.00e-07	0	44	0	327155712	15	4642
2026-01-02 11:27:04.59	237.96	33.96	-28.1	-30.0	14.4	4.50e-06	0	44	0	336592896	16	4490
2026-01-02 11:27:07.43	238.96	34.23	-28.0	-29.8	14.5	3.00e-06	0	44	0	346030080	16	4437
2026-01-02 11:27:10.55	240.07	34.51	-28.1	-30.0	14.5	3.80e-06	0	44	0	355467264	16	4471
2026-01-02 11:27:13.38	241.10	34.76	-28.0	-29.8	14.5	3.80e-06	0	44	0	363855872	16	4432
2026-01-02 11:27:16.52	242.26	35.03	-28.1	-30.0	14.5	0.00e+00	0	44	0	374341632	16	4477
2026-01-02 11:27:19.36	243.33	35.26	-28.0	-29.8	14.6	7.00e-07	0	44	0	382730240	16	4408
2026-01-02 11:27:22.49	244.52	35.50	-28.0	-29.9	14.5	3.00e-06	0	43	0	392167424	16	4444
2026-01-02 11:27:25.32	245.61	35.71	-28.0	-29.8	14.6	4.50e-06	0	43	0	401604608	16	4415
2026-01-02 11:27:28.44	246.83	35.93	-28.1	-30.0	14.5	8.30e-06	0	44	0	411041792	16	4467
2026-01-02 11:27:31.28	247.96	36.12	-28.2	-30.2	14.4	1.06e-05	0	44	0	420478976	16	4544
2026-01-02 11:27:34.40	249.21	36.31	-28.2	-30.1	14.4	2.20e-06	0	44	0	429916160	16	4520
2026-01-02 11:27:37.25	250.36	36.48	-28.3	-30.4	14.2	9.10e-06	0	44	0	438304768	16	4597
2026-01-02 11:27:40.38	251.64	36.65	-28.3	-30.6	14.2	1.50e-06	0	44	0	448790528	16	4656
2026-01-02 11:27:43.22	252.81	36.79	-28.4	-30.6	14.1	2.20e-06	0	44	0	457179136	16	4677
2026-01-02 11:27:46.36	254.12	36.93	-28.4	-30.6	14.2	6.80e-06	0	44	0	466616320	16	4655
2026-01-02 11:27:49.21	255.31	37.04	-28.9	-31.4	13.4	1.90e-05	0	43	0	476053504	17	4791
2026-01-02 11:27:52.34	256.63	37.15	-28.6	-30.6	13.8	1.37e-05	0	44	0	485490688	17	4547
2026-01-02 11:27:55.19	257.84	37.23	-28.4	-30.3	14.0	1.22e-05	0	44	0	494927872	17	4462
2026-01-02 11:27:58.31	259.17	37.31	-28.2	-29.7	14.4	4.50e-06	0	44	0	504365056	17	4283
2026-01-02 11:28:01.16	260.39	37.36	-28.4	-30.1	14.2	8.30e-06	0	43	0	513802240	17	4403
2026-01-02 11:28:04.28	261.73	37.40	-28.2	-29.8	14.3	1.50e-06	0	44	0	523239424	17	4309
2026-01-02 11:28:07.12	262.95	37.43	-28.2	-29.8	14.3	6.10e-06	0	43	0	531628032	17	4318
2026-01-02 11:28:10.25	264.30	37.44	-28.0	-29.2	14.6	3.00e-06	0	43	0	542113792	17	4145
2026-01-02 11:28:13.10	265.53	37.43	-28.2	-29.8	14.3	1.06e-05	0	44	0	550502400	17	4319
2026-01-02 11:28:16.23	266.87	37.41	-28.2	-29.7	14.4	9.10e-06	0	43	0	560988160	17	4281
2026-01-02 11:28:19.06	268.09	37.37	-28.4	-30.1	14.2	9.90e-06	0	43	0	569376768	17	4386
2026-01-02 11:28:22.19	269.43	37.32	-28.6	-30.6	13.9	1.50e-06	0	43	0	578813952	17	4534
2026-01-02 11:28:25.03	270.64	37.25	-28.8	-31.1	13.6	9.10e-06	0	43	0	588251136	17	4689
2026-01-02 11:28:28.18	271.97	37.16	-28.6	-30.6	13.8	5.30e-06	0	44	0	597688320	17	4547
2026-01-02 11:28:31.02	273.17	37.07	-28.7	-30.9	13.6	2.28e-05	0	44	0	607125504	17	4654
2026-01-02 11:28:34.15	274.48	36.95	-28.5	-30.3	14.0	2.20e-06	0	43	0	616562688	17	4464
2026-01-02 11:28:36.99	275.67	36.82	-28.5	-30.4	14.0	3.80e-06	0	44	0	624951296	17	4492
2026-01-02 11:28:40.12	276.96	36.67	-28.4	-30.3	14.0	5.30e-06	0	44	0	635437056	17	4464
2026-01-02 11:28:42.98	278.13	36.52	-28.7	-30.8	13.7	6.10e-06	0	44	0	643825664	17	4617
2026-01-02 11:28:46.10	279.39	36.35	-28.3	-29.9	14.3	0.00e+00	0	43	0	654311424	17	4341
2026-01-02 11:28:48.94	280.53	36.17	-28.7	-31.0	13.7	3.80e-06	0	44	0	662700032	17	4670
2026-01-02 11:28:52.08	281.77	35.97	-28.5	-30.5	13.9	3.80e-06	0	43	0	672137216	17	4518
2026-01-02 11:28:54.93	282.88	35.77	-28.9	-31.5	13.4	1.29e-05	0	43	0	681574400	17	4828
2026-01-02 11:28:58.06	284.09	35.54	-28.8	-30.7	13.5	1.22e-05	0	44	0	691011584	18	4485
2026-01-02 11:29:00.89	285.17	35.32	-28.7	-30.4	13.7	6.10e-06	0	44	0	700448768	18	4363
2026-01-02 11:29:04.02	286.34	35.07	-28.4	-29.7	14.1	7.00e-07	0	44	0	709885952	18	4180
2026-01-02 11:29:06.86	287.39	34.83	-27.8	-29.2	14.9	0.00e+00	0	43	0	718274560	16	4249
2026-01-02 11:29:10.00	288.54	34.56	-28.4	-30.6	14.2	1.50e-06	0	44	0	728760320	16	4660
2026-01-02 11:29:12.84	289.55	34.30	-27.8	-28.9	14.9	2.20e-06	0	44	0	737148928	17	4058
2026-01-02 11:29:15.99	290.66	34.01	-27.8	-28.9	14.8	0.00e+00	0	43	0	747634688	17	4070
2026-01-02 11:29:18.84	291.65	33.74	-27.8	-29.3	14.9	0.00e+00	0	44	0	756023296	16	4271
2026-01-02 11:29:21.98	292.72	33.43	-27.8	-29.2	14.9	0.00e+00	0	43	0	766509056	16	4253
2026-01-02 11:29:24.82	293.67	33.15	-27.8	-29.3	14.9	0.00e+00	0	43	0	774897664	16	4281
2026-01-02 11:29:27.95	294.70	32.83	-27.9	-29.5	14.8	0.00e+00	0	44	0	784334848	16	4327
2026-01-02 11:29:30.79	295.61	32.53	-27.6	-28.9	15.0	0.00e+00	0	44	0	793772032	16	4181
2026-01-02 11:29:33.94	296.61	32.20	-27.3	-28.3	15.4	0.00e+00	0	44	0	803209216	16	4001
2026-01-02 11:29:36.79	297.49	31.89	-27.2	-28.6	15.4	0.00e+00	0	44	0	812646400	15	4193
2026-01-02 11:29:39.92	298.44	31.55	-27.1	-28.3	15.5	0.00e+00	0	44	0	822083584	15	4124
2026-01-02 11:29:42.77	299.29	31.24	-27.1	-28.3	15.5	0.00e+00	0	44	0	831520768	15	4112
2026-01-02 11:29:45.90	300.20	30.89	-26.8	-27.7	15.9	0.00e+00	0	44	0	840957952	15	3962
2026-01-02 11:29:48.75	301.02	30.57	-27.2	-28.5	15.4	0.00e+00	0	43	0	849346560	15	4176
2026-01-02 11:29:51.88	301.90	30.22	-27.1	-28.2	15.5	0.00e+00	0	44	0	859832320	15	4106
2026-01-02 11:29:54.75	302.68	29.89	-26.9	-27.7	15.8	0.00e+00	0	44	0	868220928	15	3977
2026-01-02 11:29:57.89	303.53	29.53	-26.7	-27.9	16.0	0.00e+00	0	44	0	878706688	14	4114
2026-01-02 11:30:00.73	304.27	29.20	-26.8	-28.1	15.9	0.00e+00	0	44	0	887095296	14	4182
2026-01-02 11:30:03.89	305.09	28.84	-26.5	-27.4	16.3	0.00e+00	0	44	0	896532480	14	3994
2026-01-02 11:30:06.76	305.81	28.50	-26.8	-28.0	16.0	0.00e+00	0	43	0	905969664	14	4142
2026-01-02 11:30:09.91	306.59	28.14	-27.0	-28.4	15.7	0.00e+00	0	44	0	915406848	14	4258
2026-01-02 11:30:12.78	307.28	27.80	-26.8	-28.1	15.9	0.00e+00	0	44	0	924844032	14	4180
2026-01-02 11:30:15.92	308.03	27.43	-26.4	-27.2	16.4	0.00e+00	0	44	0	934281216	14	3945
2026-01-02 11:30:18.79	308.69	27.10	-26.5	-27.4	16.2	0.00e+00	0	44	0	943718400	14	3994
2026-01-02 11:30:21.94	309.40	26.73	-26.3	-27.5	16.4	0.00e+00	0	43	0	953155584	13	4126
2026-01-02 11:30:24.80	310.04	26.40	-26.7	-28.3	16.0	0.00e+00	0	44	0	962592768	13	4337
2026-01-02 11:30:27.94	310.72	26.03	-26.8	-28.5	15.8	0.00e+00	0	44	0	972029952	13	4410
2026-01-02 11:30:30.80	311.32	25.70	-27.1	-28.7	15.5	0.00e+00	0	44	0	981467136	14	4353
2026-01-02 11:30:33.95	311.98	25.34	-26.8	-28.1	15.8	0.00e+00	0	43	0	990904320	14	4172
2026-01-02 11:30:36.81	312.56	25.01	-26.6	-27.6	16.0	0.00e+00	0	44	0	999292928	14	4054
2026-01-02 11:30:39.98	313.19	24.65	-26.7	-27.7	16.0	0.00e+00	0	44	0	1009778688	14	4083
2026-01-02 11:30:42.85	313.75	24.32	-26.4	-27.2	16.3	0.00e+00	0	43	0	1019215872	14	3951
2026-01-02 11:30:45.99	314.35	23.96	-26.5	-27.5	16.1	0.00e+00	0	43	0	1028653056	14	4015
2026-01-02 11:30:48.86	314.89	23.64	-26.5	-27.4	16.1	0.00e+00	0	43	0	1037041664	14	4006
2026-01-02 11:30:52.02	315.46	23.28	-26.7	-27.9	15.8	0.00e+00	0	44	0	1047527424	14	4131
2026-01-02 11:30:54.90	315.98	22.96	-26.6	-27.5	16.0	0.00e+00	0	43	0	1055916032	14	4037
2026-01-02 11:30:58.04	316.53	22.61	-26.6	-27.7	16.0	0.00e+00	0	43	0	1066401792	14	4073
2026-01-02 11:31:00.91	317.02	22.29	-26.9	-28.3	15.7	0.00e+00	0	44	0	1074790400	14	4226
2026-01-02 11:31:04.06	317.55	21.94	-27.2	-29.1	15.2	0.00e+00	0	44	0	1085276160	14	4467
2026-01-02 11:31:06.92	318.02	21.63	-27.4	-29.5	14.9	0.00e+00	0	44	0	1093664768	14	4582
2026-01-02 11:31:10.08	318.53	21.29	-27.4	-28.9	15.0	0.00e+00	0	44	0	1104150528	15	4307
2026-01-02 11:31:12.96	318.99	20.98	-27.2	-28.5	15.2	0.00e+00	0	44	0	1112539136	15	4184
2026-01-02 11:31:16.11	319.47	20.64	-26.9	-27.9	15.5	0.00e+00	0	44	0	1123024896	15	4026
2026-01-02 11:31:18.97	319.91	20.33	-27.1	-28.2	15.4	0.00e+00	0	44	0	1131413504	15	4099
2026-01-02 11:31:22.12	320.38	20.00	-26.9	-27.9	15.5	0.00e+00	0	44	0	1140850688	15	4041
2026-01-02 11:31:24.98	320.79	19.70	-26.9	-27.8	15.6	0.00e+00	0	43	0	1150287872	15	4002
2026-01-02 11:31:28.13	321.24	19.38	-27.2	-28.6	15.1	0.00e+00	0	43	0	1160773632	15	4217
2026-01-02 11:31:30.99	321.64	19.08	-27.2	-28.5	15.1	0.00e+00	0	44	0	1169162240	15	4195
2026-01-02 11:31:34.15	322.08	18.76	-27.6	-29.5	14.6	0.00e+00	0	44	0	1178599424	15	4479
2026-01-02 11:31:37.03	322.46	18.47	-27.8	-30.0	14.3	7.00e-07	0	44	0	1188036608	15	4631
2026-01-02 11:31:40.17	322.88	18.15	-27.3	-28.8	15.0	0.00e+00	0	43	0	1197473792	15	4257
2026-01-02 11:31:43.04	323.25	17.86	-27.1	-28.3	15.2	0.00e+00	0	43	0	1206910976	15	4133
2026-01-02 11:31:46.18	323.65	17.55	-26.9	-27.8	15.5	0.00e+00	0	44	0	1216348160	15	4010
2026-01-02 11:31:49.06	324.01	17.27	-27.0	-28.0	15.3	0.00e+00	0	44	0	1225785344	15	4065
2026-01-02 11:31:52.22	324.40	16.96	-27.2	-28.6	15.0	0.00e+00	0	44	0	1235222528	15	4208
2026-01-02 11:31:55.09	324.74	16.68	-27.4	-29.1	14.7	0.00e+00	0	44	0	1244659712	15	4366
2026-01-02 11:31:58.23	325.11	16.38	-27.7	-29.7	14.4	0.00e+00	0	44	0	1254096896	15	4545
2026-01-02 11:32:01.11	325.45	16.11	-27.7	-29.8	14.3	1.50e-06	0	44	0	1263534080	15	4549
2026-01-02 11:32:04.27	325.81	15.81	-27.5	-29.1	14.7	0.00e+00	0	43	0	1272971264	15	4376
2026-01-02 11:32:07.12	326.12	15.54	-27.8	-30.1	14.1	1.50e-06	0	43	0	1282408448	15	4652
2026-01-02 11:32:10.27	326.47	15.25	-28.0	-29.3	14.2	3.00e-06	0	44	0	1291845632	17	4207
2026-01-02 11:32:13.14	326.78	14.99	-28.3	-30.1	13.7	8.30e-06	0	44	0	1301282816	17	4427
2026-01-02 11:32:16.29	327.11	14.70	-27.9	-29.3	14.2	0.00e+00	0	44	0	1310720000	17	4188
2026-01-02 11:32:19.17	327.41	14.44	-27.9	-29.8	14.1	4.50e-06	0	44	0	1319108608	16	4444
2026-01-02 11:32:22.32	327.73	14.16	-27.9	-29.8	14.1	3.00e-06	0	44	0	1329594368	16	4450
2026-01-02 11:32:25.18	328.02	13.91	-28.0	-29.8	14.0	3.00e-06	0	44	0	1339031552	16	4461
2026-01-02 11:32:28.33	328.33	13.63	-27.9	-29.7	14.1	3.80e-06	0	44	0	1348468736	16	4435
2026-01-02 11:32:31.20	328.61	13.38	-27.8	-29.6	14.2	7.00e-07	0	44	0	1356857344	16	4388
2026-01-02 11:32:34.35	328.91	13.10	-28.0	-29.9	14.0	4.50e-06	0	44	0	1367343104	16	4489
2026-01-02 11:32:37.22	329.18	12.86	-28.0	-29.9	13.9	3.00e-06	0	44	0	1375731712	16	4495
2026-01-02 11:32:40.37	329.47	12.59	-27.8	-29.4	14.2	0.00e+00	0	44	0	1386217472	16	4338
2026-01-02 11:32:43.23	329.73	12.35	-27.7	-29.2	14.3	3.80e-06	0	44	0	1394606080	16	4300
2026-01-02 11:32:46.38	330.01	12.08	-27.8	-29.4	14.2	4.50e-06	0	44	0	1405091840	16	4353
2026-01-02 11:32:49.25	330.27	11.85	-27.8	-29.4	14.2	3.80e-06	0	43	0	1413480448	16	4345
2026-01-02 11:32:52.39	330.54	11.59	-27.8	-29.6	14.0	3.00e-06	0	44	0	1423966208	16	4424
2026-01-02 11:32:55.27	330.78	11.35	-28.0	-30.1	13.8	6.80e-06	0	44	0	1432354816	16	4554
2026-01-02 11:32:58.42	331.05	11.10	-28.2	-30.5	13.5	7.60e-06	0	44	0	1441792000	16	4689
2026-01-02 11:33:01.28	331.28	10.87	-28.1	-30.2	13.6	9.90e-06	0	44	0	1451229184	16	4587
2026-01-02 11:33:04.43	331.54	10.61	-28.2	-30.4	13.4	1.22e-05	0	44	0	1460666368	16	4680
2026-01-02 11:33:07.29	331.77	10.39	-28.3	-30.8	13.2	3.35e-05	0	44	0	1470103552	16	4796
2026-01-02 11:33:10.45	332.02	10.14	-28.1	-30.4	13.4	1.37e-05	0	44	0	1479540736	16	4683
2026-01-02 11:33:13.32	332.24	9.92	-28.2	-30.7	13.2	2.51e-05	0	43	0	1488977920	16	4777
2026-01-02 11:33:16.47	332.48	9.67	-28.1	-30.5	13.3	2.05e-05	0	44	0	1498415104	16	4717
2026-01-02 11:33:19.33	332.70	9.45	-28.1	-30.3	13.4	9.90e-06	0	44	0	1507852288	16	4650
2026-01-02 11:33:22.49	332.93	9.21	-28.2	-30.5	13.2	2.44e-05	0	44	0	1517289472	16	4736
2026-01-02 11:33:25.37	333.14	8.99	-28.4	-31.1	12.9	5.11e-05	0	44	0	1526726656	16	4915
2026-01-02 11:33:28.53	333.37	8.76	-28.3	-30.5	12.9	6.02e-05	0	44	0	1536163840	17	4625
2026-01-02 11:33:31.39	333.58	8.55	-28.4	-30.8	12.6	9.07e-05	0	44	0	1545601024	17	4756
2026-01-02 11:33:34.54	333.80	8.31	-28.3	-30.7	12.7	7.85e-05	0	44	0	1555038208	17	4719
2026-01-02 11:33:37.41	333.99	8.10	-28.5	-31.2	12.3	1.30e-04	0	44	0	1564475392	17	4904
2026-01-02 11:33:40.56	334.21	7.87	-28.6	-31.4	12.2	2.27e-04	0	44	0	1573912576	17	4965
2026-01-02 11:33:43.44	334.40	7.66	-28.8	-31.8	11.9	3.52e-04	0	44	0	1583349760	17	5107
2026-01-02 11:33:46.59	334.61	7.44	-29.1	-32.0	11.5	8.65e-04	0	44	0	1592786944	18	5015
2026-01-02 11:33:49.46	334.80	7.23	-29.1	-32.0	11.5	7.57e-04	0	44	0	1602224128	18	5018
2026-01-02 11:33:52.60	335.00	7.01	-31.4	-40.4	3.8	1.49e+00	0	44	104	1608515584	24	10062

#Closed at: 2026-01-02 11:33:55
#Recorded file [1608 MB]: D:/data/31010_260102_142516.dat