passes_logs/2026/01/02/R2M6_AANII_01/R2M6_AANII_01__20260102_130053_FENGYUN_3E_rec.log

#Pass ID: 20260102_130053_FENGYUN 3E
#Satellite: FENGYUN 3E
#Configuration: FENGYUN 3E
#almurnet v.1.7.20240730
#Start time: 2026-01-02 13:04:54

#Version: 2.2.20231116
#Station: R2M6_AANII_01
#Location: 30.233357 lon 59.946436 lat
#TLE: 1 49008U 21062A   26001.96913326  .00000001  00000+0  21174-4 0  9999
#TLE: 2 49008  98.7479   7.2511 0001416 166.5636 193.5578 14.19883387232993

#Time	Az	El	Level	Level2	SNR	BER	BlckErr	Temp	State	Recorded	gain1	gain2
2026-01-02 13:04:54.18	73.47	26.18	-33.5	-44.5	3.8	8.47e-01	0	43	0	0	27	12848
2026-01-02 13:04:56.17	72.91	26.31	-33.8	-42.9	3.8	8.44e-01	0	44	104	0	28	10277
2026-01-02 13:04:58.18	72.34	26.45	-33.9	-43.1	3.8	8.46e-01	0	44	104	0	28	10421
2026-01-02 13:05:00.17	71.78	26.57	-33.9	-43.0	3.8	8.45e-01	0	44	104	0	28	10320
2026-01-02 13:05:02.17	71.20	26.70	-33.8	-43.1	3.8	8.46e-01	0	44	104	0	28	10394
2026-01-02 13:05:04.16	70.63	26.82	-33.9	-43.1	3.8	8.46e-01	0	44	104	0	28	10396
2026-01-02 13:05:06.15	70.05	26.94	-33.9	-43.1	3.8	8.46e-01	0	44	104	0	28	10404
2026-01-02 13:05:08.14	69.46	27.06	-33.9	-43.1	3.8	8.47e-01	0	44	104	0	28	10401
2026-01-02 13:05:10.12	68.88	27.17	-33.9	-43.0	3.8	8.45e-01	0	44	104	0	28	10363
2026-01-02 13:05:12.11	68.29	27.28	-33.8	-43.0	3.8	8.46e-01	0	44	104	0	28	10356
2026-01-02 13:05:14.11	67.69	27.39	-33.8	-43.0	3.8	8.46e-01	0	44	104	0	28	10345
2026-01-02 13:05:16.09	67.09	27.50	-33.9	-43.1	3.8	8.46e-01	0	44	104	0	28	10420
2026-01-02 13:05:18.08	66.49	27.60	-33.8	-43.0	3.8	8.46e-01	0	44	104	0	28	10284
2026-01-02 13:05:20.07	65.88	27.70	-33.8	-42.9	3.8	8.46e-01	0	44	104	0	28	10342
2026-01-02 13:05:22.06	65.27	27.80	-33.7	-42.8	3.8	8.46e-01	0	44	104	0	28	10196
2026-01-02 13:05:24.04	64.65	27.89	-33.7	-42.8	3.8	8.46e-01	0	44	104	0	28	10197
2026-01-02 13:05:26.03	64.03	27.98	-33.8	-43.1	3.8	8.47e-01	0	44	104	0	28	10426
2026-01-02 13:05:28.03	63.41	28.06	-33.8	-42.9	3.8	8.46e-01	0	44	104	0	28	10277
2026-01-02 13:05:30.02	62.78	28.14	-33.6	-42.6	3.8	8.46e-01	0	44	104	0	28	10038
2026-01-02 13:05:32.01	62.15	28.22	-33.5	-41.8	3.8	8.45e-01	0	44	104	0	27	9399
2026-01-02 13:05:34.01	61.52	28.30	-33.5	-41.5	3.8	8.46e-01	0	44	104	0	27	9063
2026-01-02 13:05:36.01	60.88	28.37	-33.5	-42.2	3.8	8.45e-01	0	44	104	0	27	9707
2026-01-02 13:05:38.00	60.24	28.44	-33.6	-42.8	3.8	8.47e-01	0	44	104	0	27	10326
2026-01-02 13:05:39.99	59.60	28.50	-33.6	-42.5	3.8	8.46e-01	0	44	104	0	27	10016
2026-01-02 13:05:41.98	58.96	28.56	-33.6	-42.8	3.8	8.46e-01	0	44	104	0	27	10415
2026-01-02 13:05:43.97	58.32	28.62	-33.6	-42.5	3.8	8.46e-01	0	44	104	0	27	10044
2026-01-02 13:05:45.97	57.67	28.67	-31.7	-34.9	4.7	7.85e-01	0	44	104	0	24	5197
2026-01-02 13:05:47.98	57.01	28.72	-26.7	-27.1	14.3	0.00e+00	0	44	0	7340032	14	3783
2026-01-02 13:05:49.96	56.36	28.76	-27.3	-28.6	13.5	0.00e+00	0	44	0	22020096	14	4146
2026-01-02 13:05:51.98	55.70	28.80	-26.2	-26.4	15.0	0.00e+00	0	44	0	36700160	13	3715
2026-01-02 13:05:53.98	55.04	28.84	-25.8	-26.2	15.4	0.00e+00	0	44	0	50331648	12	3769
2026-01-02 13:05:55.97	54.39	28.87	-26.7	-27.6	14.4	1.10e-06	0	44	0	65011712	13	4011
2026-01-02 13:05:57.96	53.73	28.90	-25.5	-25.9	15.9	0.00e+00	0	44	0	79691776	11	3792
2026-01-02 13:05:59.95	53.07	28.92	-25.3	-26.1	16.2	0.00e+00	0	44	0	93323264	10	3929
2026-01-02 13:06:01.94	52.42	28.94	-24.9	-25.2	16.6	0.00e+00	0	44	0	108003328	10	3733
2026-01-02 13:06:03.93	51.76	28.95	-24.3	-24.5	17.2	0.00e+00	0	44	0	122683392	9	3660
2026-01-02 13:06:05.93	51.09	28.96	-24.5	-24.8	17.1	0.00e+00	0	44	0	137363456	9	3741
2026-01-02 13:06:07.93	50.43	28.97	-25.3	-26.0	16.2	0.00e+00	0	44	0	150994944	10	3918
2026-01-02 13:06:09.93	49.77	28.97	-24.3	-24.4	17.3	0.00e+00	0	44	0	165675008	9	3652
2026-01-02 13:06:11.92	49.11	28.97	-23.6	-23.6	18.0	0.00e+00	0	44	0	180355072	8	3564
2026-01-02 13:06:13.91	48.45	28.96	-24.1	-24.4	17.5	0.00e+00	0	44	0	193986560	8	3748
2026-01-02 13:06:15.91	47.78	28.95	-23.5	-23.2	18.2	0.00e+00	0	44	0	208666624	8	3486
2026-01-02 13:06:17.89	47.13	28.94	-23.6	-23.5	18.0	0.00e+00	0	44	0	223346688	8	3552
2026-01-02 13:06:19.88	46.47	28.92	-23.5	-23.3	18.1	0.00e+00	0	44	0	238026752	8	3509
2026-01-02 13:06:21.87	45.81	28.89	-23.2	-23.2	18.4	0.00e+00	0	44	0	251658240	7	3577
2026-01-02 13:06:23.86	45.16	28.87	-23.2	-23.1	18.4	0.00e+00	0	44	0	266338304	7	3556
2026-01-02 13:06:25.86	44.50	28.83	-23.1	-22.9	18.5	0.00e+00	0	44	0	281018368	7	3520
2026-01-02 13:06:27.87	43.84	28.80	-23.4	-23.5	18.2	0.00e+00	0	44	0	294649856	7	3655
2026-01-02 13:06:29.86	43.19	28.76	-23.5	-23.7	18.1	0.00e+00	0	44	0	309329920	7	3684
2026-01-02 13:06:31.85	42.54	28.71	-23.5	-23.7	18.1	0.00e+00	0	44	0	324009984	7	3690
2026-01-02 13:06:33.85	41.88	28.66	-23.9	-24.5	17.7	0.00e+00	0	44	0	338690048	7	3875
2026-01-02 13:06:35.83	41.24	28.61	-23.1	-22.9	18.4	0.00e+00	0	44	0	352321536	7	3525
2026-01-02 13:06:37.83	40.59	28.56	-23.0	-22.8	18.5	0.00e+00	0	44	0	367001600	7	3495
2026-01-02 13:06:39.82	39.95	28.50	-23.1	-22.8	18.5	0.00e+00	0	44	0	381681664	7	3503
2026-01-02 13:06:41.80	39.32	28.43	-23.1	-22.9	18.5	0.00e+00	0	44	0	395313152	7	3516
2026-01-02 13:06:43.81	38.67	28.36	-23.1	-23.0	18.5	0.00e+00	0	44	0	409993216	7	3538
2026-01-02 13:06:45.80	38.04	28.29	-23.1	-22.9	18.5	0.00e+00	0	44	0	424673280	7	3526
2026-01-02 13:06:47.78	37.41	28.22	-23.2	-23.2	18.3	0.00e+00	0	44	0	439353344	7	3581
2026-01-02 13:06:49.77	36.79	28.14	-23.2	-23.1	18.4	0.00e+00	0	44	0	452984832	7	3556
2026-01-02 13:06:51.75	36.16	28.06	-23.2	-23.1	18.3	0.00e+00	0	44	0	467664896	7	3570
2026-01-02 13:06:53.75	35.54	27.97	-23.3	-23.4	18.2	0.00e+00	0	44	0	482344960	7	3625
2026-01-02 13:06:55.74	34.92	27.88	-23.0	-22.8	18.5	0.00e+00	0	44	0	495976448	7	3496
2026-01-02 13:06:57.74	34.30	27.79	-22.9	-22.9	18.7	0.00e+00	0	44	0	510656512	6	3617
2026-01-02 13:06:59.74	33.69	27.69	-22.8	-22.8	18.7	0.00e+00	0	44	0	525336576	6	3604
2026-01-02 13:07:01.73	33.08	27.59	-22.9	-23.1	18.6	0.00e+00	0	44	0	540016640	6	3658
2026-01-02 13:07:03.72	32.48	27.49	-23.0	-23.2	18.5	0.00e+00	0	44	0	553648128	6	3696
2026-01-02 13:07:05.71	31.88	27.38	-23.0	-23.2	18.5	0.00e+00	0	44	0	568328192	6	3690
2026-01-02 13:07:07.71	31.29	27.28	-23.1	-23.4	18.4	0.00e+00	0	44	0	583008256	6	3740
2026-01-02 13:07:09.70	30.69	27.16	-23.1	-23.3	18.4	0.00e+00	0	44	0	597688320	6	3719
2026-01-02 13:07:11.69	30.11	27.05	-22.9	-22.9	18.6	0.00e+00	0	44	0	611319808	6	3630
2026-01-02 13:07:13.69	29.52	26.93	-23.0	-23.1	18.5	0.00e+00	0	44	0	625999872	6	3671
2026-01-02 13:07:15.69	28.94	26.81	-22.8	-22.9	18.7	0.00e+00	0	44	0	640679936	6	3611
2026-01-02 13:07:17.70	28.36	26.69	-23.0	-23.2	18.5	0.00e+00	0	44	0	655360000	6	3685
2026-01-02 13:07:19.68	27.80	26.56	-23.1	-23.4	18.3	0.00e+00	0	44	0	668991488	6	3721
2026-01-02 13:07:21.68	27.23	26.43	-23.0	-23.2	18.4	0.00e+00	0	44	0	683671552	6	3695
2026-01-02 13:07:23.66	26.67	26.31	-23.0	-23.2	18.5	0.00e+00	0	44	0	698351616	6	3678
2026-01-02 13:07:25.64	26.12	26.17	-22.8	-22.8	18.6	0.00e+00	0	44	0	711983104	6	3602
2026-01-02 13:07:27.63	25.57	26.04	-23.1	-23.4	18.3	0.00e+00	0	44	0	726663168	6	3734
2026-01-02 13:07:29.61	25.03	25.90	-23.2	-23.7	18.2	0.00e+00	0	44	0	741343232	6	3797
2026-01-02 13:07:31.61	24.49	25.76	-23.3	-23.8	18.1	0.00e+00	0	44	0	754974720	6	3829
2026-01-02 13:07:33.62	23.94	25.62	-23.5	-23.7	18.0	0.00e+00	0	44	0	769654784	7	3687
2026-01-02 13:07:35.62	23.41	25.48	-23.1	-23.0	18.3	0.00e+00	0	44	0	784334848	7	3542
2026-01-02 13:07:37.61	22.88	25.33	-23.0	-22.8	18.4	0.00e+00	0	44	0	799014912	7	3502
2026-01-02 13:07:39.60	22.36	25.18	-23.2	-23.1	18.3	0.00e+00	0	44	0	812646400	7	3561
2026-01-02 13:07:41.59	21.85	25.04	-23.2	-23.1	18.2	0.00e+00	0	44	0	827326464	7	3573
2026-01-02 13:07:43.58	21.34	24.89	-23.0	-22.8	18.4	0.00e+00	0	44	0	842006528	7	3492
2026-01-02 13:07:45.58	20.83	24.73	-23.1	-22.9	18.3	0.00e+00	0	44	0	856686592	7	3529
2026-01-02 13:07:47.57	20.33	24.58	-23.3	-23.3	18.2	0.00e+00	0	44	0	870318080	7	3603
2026-01-02 13:07:49.57	19.83	24.42	-23.3	-23.4	18.1	0.00e+00	0	44	0	884998144	7	3624
2026-01-02 13:07:51.55	19.34	24.27	-23.2	-23.1	18.2	0.00e+00	0	44	0	899678208	7	3578
2026-01-02 13:07:53.54	18.85	24.11	-23.2	-23.1	18.2	0.00e+00	0	44	0	913309696	7	3554
2026-01-02 13:07:55.53	18.37	23.95	-23.1	-23.0	18.3	0.00e+00	0	44	0	927989760	7	3541
2026-01-02 13:07:57.52	17.89	23.79	-23.3	-23.4	18.1	0.00e+00	0	44	0	942669824	7	3632
2026-01-02 13:07:59.51	17.42	23.63	-23.3	-23.3	18.1	0.00e+00	0	44	0	956301312	7	3597
2026-01-02 13:08:01.51	16.95	23.47	-23.4	-23.5	18.0	0.00e+00	0	44	0	970981376	7	3648
2026-01-02 13:08:03.51	16.49	23.30	-23.4	-23.5	18.0	0.00e+00	0	44	0	985661440	7	3646
2026-01-02 13:08:05.52	16.03	23.14	-23.4	-23.7	17.9	0.00e+00	0	44	0	1000341504	7	3687
2026-01-02 13:08:07.50	15.58	22.97	-23.2	-23.2	18.1	0.00e+00	0	44	0	1013972992	7	3590
2026-01-02 13:08:09.49	15.13	22.81	-23.1	-22.8	18.3	0.00e+00	0	44	0	1028653056	7	3504
2026-01-02 13:08:11.48	14.69	22.64	-23.1	-22.9	18.3	0.00e+00	0	44	0	1043333120	7	3521
2026-01-02 13:08:13.48	14.25	22.47	-23.4	-23.6	17.9	0.00e+00	0	44	0	1058013184	7	3678
2026-01-02 13:08:15.47	13.81	22.31	-23.4	-23.6	17.9	0.00e+00	0	44	0	1071644672	7	3670
2026-01-02 13:08:17.47	13.38	22.14	-23.6	-24.0	17.7	0.00e+00	0	44	0	1086324736	7	3756
2026-01-02 13:08:19.45	12.96	21.97	-23.6	-23.9	17.8	0.00e+00	0	44	0	1101004800	7	3736
2026-01-02 13:08:21.44	12.54	21.80	-23.5	-23.9	17.8	0.00e+00	0	44	0	1114636288	7	3733
2026-01-02 13:08:23.45	12.12	21.62	-23.5	-23.9	17.8	0.00e+00	0	44	0	1129316352	7	3734
2026-01-02 13:08:25.44	11.71	21.45	-23.5	-23.8	17.8	0.00e+00	0	44	0	1143996416	7	3720
2026-01-02 13:08:27.43	11.31	21.28	-23.6	-24.0	17.7	0.00e+00	0	44	0	1158676480	7	3753
2026-01-02 13:08:29.42	10.91	21.11	-23.6	-24.1	17.6	0.00e+00	0	44	0	1172307968	7	3784
2026-01-02 13:08:31.41	10.51	20.94	-23.6	-24.0	17.7	0.00e+00	0	44	0	1186988032	7	3762
2026-01-02 13:08:33.40	10.12	20.77	-23.6	-23.9	17.7	0.00e+00	0	44	0	1201668096	7	3742
2026-01-02 13:08:35.38	9.74	20.60	-23.9	-24.6	17.4	0.00e+00	0	44	0	1215299584	7	3894
2026-01-02 13:08:37.39	9.35	20.42	-23.9	-24.7	17.3	0.00e+00	0	44	0	1229979648	7	3920
2026-01-02 13:08:39.38	8.97	20.25	-24.5	-25.3	16.7	0.00e+00	0	44	0	1244659712	8	3971
2026-01-02 13:08:41.38	8.60	20.08	-24.0	-24.4	17.2	0.00e+00	0	44	0	1259339776	8	3750
2026-01-02 13:08:43.37	8.23	19.90	-24.2	-24.7	17.0	0.00e+00	0	44	0	1272971264	8	3820
2026-01-02 13:08:45.36	7.86	19.73	-24.2	-24.3	16.9	0.00e+00	0	44	0	1287651328	9	3643
2026-01-02 13:08:47.35	7.50	19.56	-24.2	-24.3	17.0	0.00e+00	0	44	0	1302331392	9	3628
2026-01-02 13:08:49.34	7.14	19.38	-24.3	-24.4	16.9	0.00e+00	0	44	0	1317011456	9	3648
2026-01-02 13:08:51.33	6.79	19.21	-24.3	-24.4	16.9	0.00e+00	0	44	0	1330642944	9	3653
2026-01-02 13:08:53.33	6.44	19.04	-24.2	-24.3	17.0	0.00e+00	0	44	0	1345323008	9	3639
2026-01-02 13:08:55.32	6.09	18.86	-24.1	-24.0	17.2	0.00e+00	0	44	0	1358954496	9	3559
2026-01-02 13:08:57.31	5.75	18.69	-24.1	-24.0	17.1	0.00e+00	0	44	0	1373634560	9	3561
2026-01-02 13:08:59.30	5.42	18.52	-23.9	-24.1	17.3	0.00e+00	0	44	0	1388314624	8	3686
2026-01-02 13:09:01.30	5.08	18.35	-24.0	-24.2	17.2	0.00e+00	0	44	0	1402994688	8	3718
2026-01-02 13:09:03.29	4.75	18.17	-24.0	-24.4	17.1	0.00e+00	0	44	0	1417674752	8	3750
2026-01-02 13:09:05.29	4.42	18.00	-24.2	-24.7	17.0	0.00e+00	0	44	0	1431306240	8	3821
2026-01-02 13:09:07.28	4.10	17.83	-24.3	-25.0	16.8	0.00e+00	0	44	0	1445986304	8	3907
2026-01-02 13:09:09.28	3.78	17.66	-24.3	-25.1	16.8	0.00e+00	0	44	0	1460666368	8	3912
2026-01-02 13:09:11.29	3.47	17.49	-24.6	-25.5	16.6	0.00e+00	0	44	0	1475346432	8	4017
2026-01-02 13:09:13.29	3.15	17.31	-24.6	-25.1	16.5	0.00e+00	0	44	0	1488977920	9	3806
2026-01-02 13:09:15.27	2.85	17.14	-24.7	-25.4	16.3	0.00e+00	0	44	0	1503657984	9	3885
2026-01-02 13:09:17.27	2.54	16.97	-24.7	-25.3	16.3	0.00e+00	0	44	0	1518338048	9	3866
2026-01-02 13:09:19.27	2.24	16.80	-24.7	-25.4	16.3	0.00e+00	0	44	0	1531969536	9	3886
2026-01-02 13:09:21.26	1.94	16.63	-24.8	-25.5	16.3	0.00e+00	0	44	0	1546649600	9	3903
2026-01-02 13:09:23.24	1.65	16.47	-24.8	-25.6	16.2	0.00e+00	0	44	0	1561329664	9	3923
2026-01-02 13:09:25.24	1.36	16.30	-24.8	-25.6	16.2	0.00e+00	0	44	0	1576009728	9	3925
2026-01-02 13:09:27.23	1.07	16.13	-25.2	-25.8	15.8	0.00e+00	0	44	0	1589641216	10	3890
2026-01-02 13:09:29.23	0.79	15.96	-25.1	-25.8	15.8	0.00e+00	0	44	0	1604321280	10	3880
2026-01-02 13:09:31.23	0.51	15.79	-25.2	-25.8	15.8	0.00e+00	0	44	0	1619001344	10	3882
2026-01-02 13:09:33.23	0.23	15.62	-25.3	-26.1	15.6	0.00e+00	0	44	0	1633681408	10	3943
2026-01-02 13:09:35.22	359.95	15.46	-25.2	-26.0	15.7	0.00e+00	0	44	0	1647312896	10	3921
2026-01-02 13:09:37.21	359.68	15.29	-25.1	-25.7	15.8	0.00e+00	0	44	0	1661992960	10	3862
2026-01-02 13:09:39.20	359.42	15.13	-25.3	-26.2	15.5	0.00e+00	0	44	0	1676673024	10	3991
2026-01-02 13:09:41.19	359.15	14.96	-25.0	-25.5	15.9	0.00e+00	0	44	0	1690304512	10	3807
2026-01-02 13:09:43.18	358.89	14.80	-25.2	-25.8	15.7	0.00e+00	0	44	0	1704984576	10	3889
2026-01-02 13:09:45.18	358.63	14.63	-25.1	-25.7	15.8	0.00e+00	0	44	0	1719664640	10	3865
2026-01-02 13:09:47.18	358.37	14.47	-25.2	-26.0	15.6	0.00e+00	0	44	0	1734344704	10	3928
2026-01-02 13:09:49.17	358.12	14.31	-25.2	-26.0	15.6	0.00e+00	0	44	0	1747976192	10	3926
2026-01-02 13:09:51.16	357.87	14.14	-25.4	-26.4	15.3	0.00e+00	0	44	0	1762656256	10	4039
2026-01-02 13:09:53.15	357.62	13.98	-25.4	-26.4	15.3	0.00e+00	0	44	0	1777336320	10	4046
2026-01-02 13:09:55.14	357.38	13.82	-25.5	-26.5	15.3	0.00e+00	0	44	0	1790967808	10	4056
2026-01-02 13:09:57.14	357.13	13.66	-25.5	-26.6	15.3	0.00e+00	0	44	0	1805647872	10	4077
2026-01-02 13:09:59.13	356.90	13.50	-25.4	-26.3	15.3	0.00e+00	0	44	0	1820327936	10	4014
2026-01-02 13:10:01.11	356.66	13.34	-25.4	-26.4	15.3	0.00e+00	0	44	0	1833959424	10	4041
2026-01-02 13:10:03.12	356.42	13.18	-25.4	-25.9	15.3	0.00e+00	0	44	0	1848639488	11	3797
2026-01-02 13:10:05.12	356.19	13.02	-25.3	-25.7	15.4	0.00e+00	0	44	0	1863319552	11	3753
2026-01-02 13:10:07.12	355.96	12.86	-25.5	-26.1	15.2	0.00e+00	0	44	0	1877999616	11	3858
2026-01-02 13:10:09.11	355.74	12.70	-25.7	-26.6	14.9	0.00e+00	0	44	0	1892679680	11	3986
2026-01-02 13:10:11.10	355.51	12.55	-25.7	-26.6	14.9	0.00e+00	0	44	0	1906311168	11	3973
2026-01-02 13:10:13.09	355.29	12.39	-25.9	-27.0	14.6	0.00e+00	0	44	0	1920991232	11	4074
2026-01-02 13:10:15.09	355.07	12.23	-25.9	-26.9	14.7	0.00e+00	0	44	0	1935671296	11	4052
2026-01-02 13:10:17.10	354.85	12.08	-25.8	-26.7	14.7	1.10e-06	0	44	0	1950351360	11	4015
2026-01-02 13:10:19.10	354.64	11.92	-25.6	-26.3	15.0	0.00e+00	0	44	0	1963982848	11	3916
2026-01-02 13:10:21.09	354.42	11.77	-25.8	-26.7	14.8	0.00e+00	0	44	0	1978662912	11	3994
2026-01-02 13:10:23.11	354.21	11.61	-26.0	-27.3	14.4	0.00e+00	0	44	0	1993342976	11	4146
2026-01-02 13:10:25.11	354.00	11.46	-26.1	-26.9	14.3	1.10e-06	0	44	0	2008023040	12	3963
2026-01-02 13:10:27.09	353.80	11.31	-26.2	-27.2	14.1	3.40e-06	0	44	0	2021654528	12	4040
2026-01-02 13:10:29.09	353.60	11.16	-26.3	-27.3	14.0	1.10e-06	0	44	0	2036334592	12	4075
2026-01-02 13:10:31.08	353.40	11.00	-26.3	-27.3	14.0	1.10e-06	0	44	0	2051014656	12	4052
2026-01-02 13:10:33.09	353.19	10.85	-26.4	-27.5	13.9	3.40e-06	0	44	0	2065694720	12	4129
2026-01-02 13:10:35.11	353.00	10.70	-26.3	-27.4	14.0	0.00e+00	0	44	0	2080374784	12	4078
2026-01-02 13:10:37.11	352.80	10.55	-26.2	-27.1	14.1	0.00e+00	0	44	0	2094006272	12	4009
2026-01-02 13:10:39.11	352.61	10.40	-26.2	-27.1	14.1	2.20e-06	0	44	0	2108686336	12	4002
2026-01-02 13:10:41.12	352.41	10.25	-26.0	-26.8	14.3	0.00e+00	0	44	0	2123366400	12	3926
2026-01-02 13:10:43.12	352.23	10.10	-26.1	-27.1	14.1	2.20e-06	0	44	0	2138046464	12	4003
2026-01-02 13:10:45.12	352.04	9.95	-26.1	-26.9	14.1	0.00e+00	0	44	0	2151677952	12	3965
2026-01-02 13:10:47.13	351.85	9.81	-26.1	-27.1	14.1	1.10e-06	0	44	0	2166358016	12	4000
2026-01-02 13:10:49.13	351.67	9.66	-26.2	-27.1	14.0	1.10e-06	0	44	0	2181038080	12	4026
2026-01-02 13:10:51.14	351.49	9.51	-26.3	-27.3	13.9	2.20e-06	0	44	0	2195718144	12	4074
2026-01-02 13:10:53.15	351.31	9.37	-26.3	-27.3	13.9	3.40e-06	0	44	0	2210398208	12	4077
2026-01-02 13:10:55.17	351.13	9.22	-26.4	-27.6	13.7	4.50e-06	0	44	0	2225078272	12	4135
2026-01-02 13:10:57.17	350.95	9.08	-26.3	-27.4	13.8	2.20e-06	0	44	0	2238709760	12	4104
2026-01-02 13:10:59.18	350.78	8.93	-26.4	-27.7	13.6	2.20e-06	0	44	0	2253389824	12	4178
2026-01-02 13:11:01.18	350.60	8.79	-26.5	-27.9	13.5	3.40e-06	0	44	0	2268069888	12	4236
2026-01-02 13:11:03.19	350.43	8.65	-26.5	-27.9	13.5	5.70e-06	0	44	0	2282749952	12	4242
2026-01-02 13:11:05.20	350.26	8.50	-26.9	-28.3	13.0	4.00e-05	0	44	0	2297430016	13	4220
2026-01-02 13:11:07.22	350.09	8.36	-26.8	-28.1	13.1	2.51e-05	0	44	0	2311061504	13	4174
2026-01-02 13:11:09.23	349.93	8.22	-26.6	-27.6	13.3	1.60e-05	0	44	0	2326790144	13	4046
2026-01-02 13:11:11.24	349.76	8.08	-26.6	-27.7	13.3	1.94e-05	0	44	0	2340421632	13	4058
2026-01-02 13:11:13.24	349.60	7.94	-26.4	-27.2	13.5	9.10e-06	0	44	0	2355101696	13	3945
2026-01-02 13:11:15.26	349.44	7.80	-26.4	-27.1	13.5	5.70e-06	0	44	0	2369781760	13	3917
2026-01-02 13:11:17.26	349.28	7.66	-26.3	-27.0	13.6	6.80e-06	0	44	0	2384461824	13	3896
2026-01-02 13:11:19.27	349.12	7.52	-26.5	-27.4	13.3	1.71e-05	0	44	0	2398093312	13	3994
2026-01-02 13:11:21.27	348.97	7.38	-26.4	-27.2	13.5	6.80e-06	0	44	0	2412773376	13	3948
2026-01-02 13:11:23.29	348.81	7.24	-26.5	-27.5	13.3	1.94e-05	0	44	0	2427453440	13	4025
2026-01-02 13:11:25.30	348.66	7.11	-28.5	-30.6	10.9	7.55e-05	0	44	0	2442133504	16	4588
2026-01-02 13:11:27.30	348.51	6.97	-33.1	-42.6	3.8	8.46e-01	0	44	104	2443182080	26	10673

#Closed at: 2026-01-02 13:11:28
#Recorded file [2443 MB]: D:/data/31010_260102_160546.dat