passes_logs/2026/01/02/R2M6_AANII_01/R2M6_AANII_01__20260102_062753_FENGYUN_3E_rec.log

#Pass ID: 20260102_062753_FENGYUN 3E
#Satellite: FENGYUN 3E
#Configuration: FENGYUN 3E
#almurnet v.1.7.20240730
#Start time: 2026-01-02 06:27:55

#Version: 2.2.20231116
#Station: R2M6_AANII_01
#Location: 30.233357 lon 59.946436 lat
#TLE: 1 49008U 21062A   26001.26445318  .00000475  00000+0  24453-3 0  9990
#TLE: 2 49008  98.7480   6.5551 0001357 167.8415 192.2795 14.19884467232890

#Time	Az	El	Level	Level2	SNR	BER	BlckErr	Temp	State	Recorded	gain1	gain2
2026-01-02 06:27:55.43	10.40	7.12	-29.9	-33.3	5.0	7.92e-01	0	41	0	0	19	5298
2026-01-02 06:27:58.44	10.13	7.32	-29.9	-33.2	7.7	8.91e-02	0	41	0	7340032	19	5239
2026-01-02 06:28:01.44	9.86	7.51	-29.4	-32.2	8.8	3.55e-02	0	41	0	28311552	18	4949
2026-01-02 06:28:04.46	9.59	7.71	-29.5	-31.7	8.8	3.57e-02	0	41	0	50331648	19	4685
2026-01-02 06:28:07.47	9.31	7.91	-27.6	-29.1	11.6	8.63e-04	0	41	0	72351744	15	4264
2026-01-02 06:28:10.46	9.03	8.11	-26.5	-27.5	13.2	2.66e-04	0	41	0	93323264	13	4033
2026-01-02 06:28:13.47	8.74	8.31	-26.1	-27.1	13.7	2.37e-04	0	41	0	115343360	12	4038
2026-01-02 06:28:16.47	8.46	8.51	-26.9	-28.4	12.7	3.72e-04	0	42	0	137363456	13	4269
2026-01-02 06:28:19.49	8.16	8.71	-26.8	-28.1	12.9	4.46e-05	0	42	0	159383552	13	4199
2026-01-02 06:28:22.49	7.86	8.91	-26.1	-27.0	13.8	2.20e-06	0	42	0	180355072	12	4005
2026-01-02 06:28:25.50	7.56	9.12	-26.0	-26.9	13.9	2.52e-04	0	42	0	202375168	12	3967
2026-01-02 06:28:28.50	7.26	9.32	-25.9	-27.0	14.2	2.21e-04	0	42	0	224395264	11	4090
2026-01-02 06:28:31.52	6.94	9.53	-25.8	-26.8	14.4	0.00e+00	0	42	0	245366784	11	4038
2026-01-02 06:28:34.53	6.63	9.73	-25.7	-26.6	14.5	2.20e-06	0	42	0	267386880	11	3983
2026-01-02 06:28:37.54	6.31	9.94	-25.8	-26.8	14.4	0.00e+00	0	42	0	289406976	11	4033
2026-01-02 06:28:40.55	5.98	10.15	-25.9	-27.1	14.2	0.00e+00	0	42	0	311427072	11	4110
2026-01-02 06:28:43.54	5.65	10.36	-25.8	-26.8	14.4	1.10e-06	0	42	0	332398592	11	4056
2026-01-02 06:28:46.55	5.32	10.57	-26.0	-27.3	14.2	0.00e+00	0	42	0	354418688	11	4160
2026-01-02 06:28:49.55	4.98	10.78	-26.1	-27.0	14.0	3.40e-06	0	42	0	376438784	12	3989
2026-01-02 06:28:52.58	4.63	10.99	-26.2	-27.3	13.8	5.70e-06	0	42	0	397410304	12	4082
2026-01-02 06:28:55.58	4.28	11.20	-26.0	-26.9	14.1	2.20e-06	0	42	0	419430400	12	3955
2026-01-02 06:28:58.59	3.93	11.41	-26.1	-27.4	14.1	0.00e+00	0	42	0	441450496	11	4207
2026-01-02 06:29:01.59	3.57	11.63	-25.4	-26.5	14.9	0.00e+00	0	43	0	462422016	10	4064
2026-01-02 06:29:04.59	3.20	11.84	-25.5	-26.5	14.9	0.00e+00	0	43	0	484442112	10	4081
2026-01-02 06:29:07.60	2.83	12.05	-25.4	-26.4	15.0	0.00e+00	0	43	0	506462208	10	4051
2026-01-02 06:29:10.62	2.45	12.27	-25.3	-26.2	15.1	0.00e+00	0	43	0	527433728	10	3993
2026-01-02 06:29:13.62	2.07	12.49	-25.4	-26.5	15.0	0.00e+00	0	43	0	549453824	10	4071
2026-01-02 06:29:16.63	1.68	12.70	-25.6	-26.4	14.8	0.00e+00	0	42	0	571473920	11	3932
2026-01-02 06:29:19.64	1.29	12.92	-25.5	-26.2	14.9	0.00e+00	0	43	0	593494016	11	3880
2026-01-02 06:29:22.64	0.89	13.14	-25.5	-26.6	15.0	0.00e+00	0	43	0	614465536	10	4082
2026-01-02 06:29:25.65	0.48	13.36	-25.4	-26.4	15.1	0.00e+00	0	43	0	636485632	10	4045
2026-01-02 06:29:28.66	0.07	13.58	-25.2	-25.5	15.3	0.00e+00	0	43	0	658505728	11	3724
2026-01-02 06:29:31.66	359.65	13.79	-25.0	-26.0	15.6	0.00e+00	0	43	0	679477248	9	4035
2026-01-02 06:29:34.68	359.22	14.01	-25.2	-25.9	15.4	0.00e+00	0	43	0	701497344	10	3909
2026-01-02 06:29:37.68	358.79	14.23	-25.0	-25.6	15.6	0.00e+00	0	43	0	723517440	10	3829
2026-01-02 06:29:40.69	358.35	14.46	-25.0	-26.0	15.6	0.00e+00	0	43	0	745537536	9	4047
2026-01-02 06:29:43.71	357.90	14.68	-24.4	-25.5	14.7	0.00e+00	0	43	0	766509056	9	4096
2026-01-02 06:29:46.70	357.45	14.90	-25.0	-25.9	15.5	0.00e+00	0	43	0	788529152	9	4032
2026-01-02 06:29:49.72	356.99	15.12	-24.9	-25.8	15.7	0.00e+00	0	43	0	810549248	9	4000
2026-01-02 06:29:52.73	356.53	15.34	-25.0	-25.9	15.7	0.00e+00	0	43	0	831520768	9	4030
2026-01-02 06:29:55.74	356.05	15.56	-24.8	-25.6	15.9	1.46e-03	0	43	0	853540864	9	3944
2026-01-02 06:29:58.75	355.57	15.78	-24.9	-25.9	15.7	1.46e-03	0	43	0	875560960	9	4006
2026-01-02 06:30:01.76	355.08	16.00	-24.5	-24.9	16.3	0.00e+00	0	43	0	897581056	9	3773
2026-01-02 06:30:04.77	354.59	16.23	-24.5	-24.9	16.3	0.00e+00	0	43	0	918552576	9	3778
2026-01-02 06:30:07.78	354.08	16.45	-24.1	-24.7	16.6	1.08e-03	0	43	0	940572672	8	3823
2026-01-02 06:30:10.79	353.57	16.67	-24.1	-24.5	16.7	1.01e-03	0	43	0	962592768	8	3784
2026-01-02 06:30:13.81	353.05	16.89	-24.2	-24.7	16.6	8.75e-04	0	43	0	984612864	8	3840
2026-01-02 06:30:16.81	352.53	17.11	-24.1	-24.5	16.8	0.00e+00	0	43	0	1005584384	8	3771
2026-01-02 06:30:19.82	351.99	17.33	-24.1	-24.7	16.7	0.00e+00	0	43	0	1027604480	8	3825
2026-01-02 06:30:22.83	351.45	17.55	-24.3	-25.0	16.5	0.00e+00	0	43	0	1048576000	8	3904
2026-01-02 06:30:25.84	350.90	17.76	-24.3	-25.1	16.5	1.01e-03	0	43	0	1070596096	8	3922
2026-01-02 06:30:28.83	350.34	17.98	-24.4	-25.2	16.4	1.26e-03	0	43	0	1092616192	8	3948
2026-01-02 06:30:31.83	349.78	18.20	-24.6	-25.2	16.2	0.00e+00	0	43	0	1113587712	9	3841
2026-01-02 06:30:34.82	349.21	18.41	-24.3	-24.5	16.5	0.00e+00	0	43	0	1135607808	9	3690
2026-01-02 06:30:37.82	348.63	18.62	-23.9	-24.7	16.9	0.00e+00	0	43	0	1157627904	7	3941
2026-01-02 06:30:40.81	348.04	18.83	-23.9	-24.7	17.0	0.00e+00	0	43	0	1178599424	7	3946
2026-01-02 06:30:43.81	347.44	19.04	-24.1	-25.0	16.8	0.00e+00	0	43	0	1200619520	7	4013
2026-01-02 06:30:46.82	346.83	19.25	-24.3	-24.9	16.6	0.00e+00	0	43	0	1222639616	8	3884
2026-01-02 06:30:49.83	346.21	19.46	-24.1	-24.5	16.9	0.00e+00	0	43	0	1243611136	8	3773
2026-01-02 06:30:52.84	345.59	19.67	-23.9	-24.2	17.0	0.00e+00	0	43	0	1265631232	8	3718
2026-01-02 06:30:55.83	344.96	19.87	-24.0	-24.3	17.0	0.00e+00	0	43	0	1287651328	8	3744
2026-01-02 06:30:58.82	344.32	20.07	-23.9	-24.7	17.0	0.00e+00	0	43	0	1308622848	7	3925
2026-01-02 06:31:01.83	343.67	20.27	-24.4	-24.8	16.5	0.00e+00	0	43	0	1330642944	9	3743
2026-01-02 06:31:04.83	343.01	20.47	-24.0	-24.3	17.0	0.00e+00	0	43	0	1352663040	8	3746
2026-01-02 06:31:07.84	342.34	20.66	-23.9	-24.6	17.1	0.00e+00	0	43	0	1374683136	7	3905
2026-01-02 06:31:10.85	341.67	20.86	-23.8	-24.4	17.2	0.00e+00	0	43	0	1395654656	7	3862
2026-01-02 06:31:13.83	340.99	21.04	-23.7	-24.1	17.3	0.00e+00	0	43	0	1417674752	7	3803
2026-01-02 06:31:16.82	340.30	21.23	-23.5	-23.7	17.5	0.00e+00	0	43	0	1438646272	7	3703
2026-01-02 06:31:19.81	339.60	21.41	-23.3	-23.8	17.7	0.00e+00	0	43	0	1460666368	6	3835
2026-01-02 06:31:22.82	338.89	21.59	-23.5	-23.8	17.5	0.00e+00	0	43	0	1482686464	7	3724
2026-01-02 06:31:25.83	338.17	21.77	-23.4	-24.2	17.6	0.00e+00	0	43	0	1503657984	6	3918
2026-01-02 06:31:28.81	337.45	21.94	-23.6	-24.0	17.4	0.00e+00	0	43	0	1525678080	7	3767
2026-01-02 06:31:31.83	336.71	22.11	-23.6	-24.0	17.4	0.00e+00	0	43	0	1546649600	7	3772
2026-01-02 06:31:34.83	335.97	22.27	-23.5	-23.8	17.5	0.00e+00	0	43	0	1568669696	7	3736
2026-01-02 06:31:37.85	335.22	22.44	-23.4	-23.5	17.7	0.00e+00	0	43	0	1590689792	7	3661
2026-01-02 06:31:40.86	334.46	22.59	-23.3	-23.8	17.8	0.00e+00	0	44	0	1612709888	6	3833
2026-01-02 06:31:43.87	333.69	22.75	-23.8	-24.5	17.1	0.00e+00	0	43	0	1633681408	7	3895
2026-01-02 06:31:46.87	332.92	22.89	-23.1	-23.5	17.9	0.00e+00	0	43	0	1655701504	6	3751
2026-01-02 06:31:49.86	332.14	23.03	-23.3	-23.8	17.8	0.00e+00	0	43	0	1677721600	6	3822
2026-01-02 06:31:52.87	331.35	23.17	-23.3	-23.8	17.8	0.00e+00	0	43	0	1698693120	6	3825
2026-01-02 06:31:55.89	330.55	23.30	-23.2	-23.6	17.9	0.00e+00	0	43	0	1720713216	6	3776
2026-01-02 06:31:58.89	329.75	23.43	-23.6	-24.0	17.4	0.00e+00	0	43	0	1742733312	7	3775
2026-01-02 06:32:01.89	328.95	23.55	-23.2	-23.6	17.9	0.00e+00	0	43	0	1764753408	6	3795
2026-01-02 06:32:04.90	328.13	23.67	-23.4	-24.1	17.6	0.00e+00	0	43	0	1785724928	6	3901
2026-01-02 06:32:07.91	327.31	23.78	-22.8	-23.3	15.1	0.00e+00	0	43	0	1807745024	6	3850
2026-01-02 06:32:10.92	326.48	23.88	-23.2	-23.6	17.9	0.00e+00	0	43	0	1829765120	6	3782
2026-01-02 06:32:13.93	325.65	23.98	-23.2	-23.7	17.9	0.00e+00	0	43	0	1850736640	6	3814
2026-01-02 06:32:16.94	324.81	24.07	-23.0	-23.3	18.1	6.53e-04	0	43	0	1872756736	6	3707
2026-01-02 06:32:19.95	323.97	24.16	-23.2	-23.6	17.9	0.00e+00	0	43	0	1894776832	6	3782
2026-01-02 06:32:22.97	323.12	24.24	-23.4	-24.0	17.7	0.00e+00	0	43	0	1916796928	6	3874
2026-01-02 06:32:25.98	322.27	24.31	-23.0	-23.3	18.1	8.06e-04	0	43	0	1937768448	6	3716
2026-01-02 06:32:28.99	321.41	24.37	-23.0	-23.3	18.1	1.53e-03	0	43	0	1959788544	6	3718
2026-01-02 06:32:31.99	320.55	24.43	-23.0	-23.7	18.1	1.56e-03	0	44	0	1981808640	5	3916
2026-01-02 06:32:35.00	319.69	24.48	-23.3	-23.8	17.8	1.48e-03	0	43	0	2003828736	6	3832
2026-01-02 06:32:38.01	318.83	24.53	-23.1	-23.5	18.0	7.59e-04	0	43	0	2024800256	6	3768
2026-01-02 06:32:41.02	317.96	24.57	-23.0	-23.2	18.1	1.82e-03	0	44	0	2046820352	6	3696
2026-01-02 06:32:44.04	317.09	24.60	-22.8	-23.3	18.4	1.79e-03	0	44	0	2068840448	5	3807
2026-01-02 06:32:47.05	316.22	24.62	-23.2	-23.7	17.9	0.00e+00	0	43	0	2090860544	6	3804
2026-01-02 06:32:50.07	315.34	24.64	-23.6	-24.4	17.5	0.00e+00	0	43	0	2111832064	6	3967
2026-01-02 06:32:53.07	314.47	24.64	-23.5	-24.3	17.6	0.00e+00	0	44	0	2133852160	6	3947
2026-01-02 06:32:56.08	313.60	24.65	-23.7	-24.2	17.4	0.00e+00	0	44	0	2154823680	7	3818
2026-01-02 06:32:59.09	312.73	24.64	-23.3	-23.9	17.8	0.00e+00	0	43	0	2176843776	6	3847
2026-01-02 06:33:02.10	311.86	24.63	-23.3	-23.9	17.8	0.00e+00	0	43	0	2198863872	6	3843
2026-01-02 06:33:05.11	310.99	24.61	-23.3	-23.9	17.8	0.00e+00	0	43	0	2220883968	6	3855
2026-01-02 06:33:08.12	310.12	24.58	-23.2	-23.7	17.9	0.00e+00	0	43	0	2241855488	6	3800
2026-01-02 06:33:11.12	309.25	24.55	-23.0	-23.2	18.2	0.00e+00	0	44	0	2263875584	6	3694
2026-01-02 06:33:14.13	308.38	24.51	-23.1	-23.4	18.1	0.00e+00	0	43	0	2285895680	6	3735
2026-01-02 06:33:17.13	307.52	24.46	-22.8	-23.3	18.3	0.00e+00	0	44	0	2306867200	5	3825
2026-01-02 06:33:20.15	306.66	24.40	-22.8	-23.3	18.4	0.00e+00	0	44	0	2328887296	5	3808
2026-01-02 06:33:23.16	305.80	24.34	-22.8	-23.3	18.4	0.00e+00	0	43	0	2350907392	5	3815
2026-01-02 06:33:26.17	304.95	24.27	-22.9	-23.4	18.3	0.00e+00	0	43	0	2372927488	5	3851
2026-01-02 06:33:29.17	304.10	24.20	-23.1	-23.9	18.0	0.00e+00	0	43	0	2393899008	5	3958
2026-01-02 06:33:32.19	303.25	24.11	-23.0	-23.8	18.1	0.00e+00	0	43	0	2415919104	5	3929
2026-01-02 06:33:35.19	302.41	24.03	-23.1	-23.4	18.1	0.00e+00	0	44	0	2437939200	6	3734
2026-01-02 06:33:38.18	301.58	23.93	-23.2	-23.8	17.9	0.00e+00	0	43	0	2459959296	6	3816
2026-01-02 06:33:41.18	300.75	23.83	-23.6	-23.9	17.5	0.00e+00	0	43	0	2480930816	7	3753
2026-01-02 06:33:44.18	299.93	23.72	-23.3	-23.9	17.8	0.00e+00	0	44	0	2502950912	6	3842
2026-01-02 06:33:47.19	299.11	23.61	-23.1	-23.5	18.0	0.00e+00	0	44	0	2524971008	6	3767
2026-01-02 06:33:50.19	298.29	23.49	-22.9	-23.0	18.2	0.00e+00	0	43	0	2545942528	6	3662
2026-01-02 06:33:53.20	297.49	23.37	-23.0	-23.2	18.1	0.00e+00	0	44	0	2567962624	6	3694
2026-01-02 06:33:56.22	296.68	23.24	-23.0	-23.1	18.2	0.00e+00	0	44	0	2589982720	6	3675
2026-01-02 06:33:59.23	295.89	23.10	-22.9	-23.1	18.2	0.00e+00	0	43	0	2610954240	6	3675
2026-01-02 06:34:02.24	295.10	22.96	-22.9	-23.5	18.0	0.00e+00	0	44	0	2632974336	5	3861
2026-01-02 06:34:05.26	294.32	22.82	-23.3	-23.8	17.8	0.00e+00	0	43	0	2654994432	6	3822
2026-01-02 06:34:08.27	293.54	22.67	-23.2	-23.6	17.9	0.00e+00	0	43	0	2677014528	6	3776
2026-01-02 06:34:11.30	292.77	22.51	-22.9	-23.0	18.1	0.00e+00	0	43	0	2699034624	6	3656
2026-01-02 06:34:14.31	292.01	22.35	-23.0	-23.3	18.1	0.00e+00	0	43	0	2720006144	6	3709
2026-01-02 06:34:17.32	291.26	22.19	-23.4	-24.1	17.6	0.00e+00	0	43	0	2742026240	6	3908
2026-01-02 06:34:20.34	290.52	22.02	-23.3	-23.8	17.8	0.00e+00	0	43	0	2764046336	6	3827
2026-01-02 06:34:23.35	289.78	21.85	-23.1	-23.5	17.9	0.00e+00	0	43	0	2785017856	6	3762
2026-01-02 06:34:26.36	289.06	21.67	-22.9	-22.9	18.2	0.00e+00	0	43	0	2807037952	6	3632
2026-01-02 06:34:29.37	288.34	21.49	-23.0	-23.2	18.1	0.00e+00	0	43	0	2829058048	6	3693
2026-01-02 06:34:32.39	287.63	21.31	-23.1	-23.5	17.9	0.00e+00	0	43	0	2851078144	6	3762
2026-01-02 06:34:35.39	286.93	21.12	-23.2	-23.7	17.7	0.00e+00	0	43	0	2872049664	6	3819
2026-01-02 06:34:38.41	286.24	20.93	-23.1	-23.5	17.9	0.00e+00	0	43	0	2894069760	6	3767
2026-01-02 06:34:41.43	285.55	20.74	-23.1	-23.4	17.9	0.00e+00	0	43	0	2916089856	6	3734
2026-01-02 06:34:44.42	284.88	20.55	-23.1	-23.5	17.9	0.00e+00	0	43	0	2937061376	6	3753
2026-01-02 06:34:47.43	284.21	20.35	-23.3	-23.9	17.7	0.00e+00	0	44	0	2959081472	6	3844
2026-01-02 06:34:50.44	283.56	20.15	-23.4	-24.2	17.5	0.00e+00	0	43	0	2981101568	6	3920
2026-01-02 06:34:53.45	282.91	19.95	-23.5	-24.2	17.5	0.00e+00	0	44	0	3003121664	6	3929
2026-01-02 06:34:56.48	282.26	19.74	-23.4	-23.6	17.5	0.00e+00	0	44	0	3024093184	7	3692
2026-01-02 06:34:59.50	281.63	19.54	-23.3	-23.4	17.6	0.00e+00	0	43	0	3046113280	7	3632
2026-01-02 06:35:02.50	281.01	19.33	-23.5	-23.7	17.4	0.00e+00	0	43	0	3068133376	7	3714
2026-01-02 06:35:05.51	280.39	19.12	-23.5	-23.9	17.4	0.00e+00	0	44	0	3090153472	7	3740
2026-01-02 06:35:08.52	279.79	18.91	-23.8	-24.4	17.0	0.00e+00	0	44	0	3111124992	7	3877
2026-01-02 06:35:11.53	279.19	18.70	-23.7	-24.3	17.1	0.00e+00	0	43	0	3133145088	7	3834
2026-01-02 06:35:14.55	278.60	18.48	-23.7	-24.2	17.2	0.00e+00	0	44	0	3155165184	7	3819
2026-01-02 06:35:17.57	278.01	18.27	-23.8	-24.5	17.0	0.00e+00	0	44	0	3177185280	7	3901
2026-01-02 06:35:20.57	277.44	18.05	-24.4	-25.2	16.4	0.00e+00	0	43	0	3198156800	8	3949
2026-01-02 06:35:23.59	276.88	17.83	-24.7	-25.3	16.1	0.00e+00	0	44	0	3220176896	9	3870
2026-01-02 06:35:26.60	276.32	17.61	-25.0	-26.0	15.7	0.00e+00	0	44	0	3242196992	9	4051
2026-01-02 06:35:29.61	275.77	17.39	-24.1	-24.1	16.7	0.00e+00	0	43	0	3264217088	9	3592
2026-01-02 06:35:32.63	275.23	17.17	-24.0	-24.3	16.8	0.00e+00	0	43	0	3285188608	8	3749
2026-01-02 06:35:35.64	274.70	16.95	-24.2	-24.9	16.5	0.00e+00	0	44	0	3307208704	8	3877
2026-01-02 06:35:38.65	274.17	16.73	-24.4	-25.2	16.3	0.00e+00	0	44	0	3329228800	8	3940
2026-01-02 06:35:41.66	273.65	16.51	-24.6	-25.6	16.1	0.00e+00	0	44	0	3351248896	8	4052
2026-01-02 06:35:44.67	273.14	16.29	-24.8	-25.5	15.9	0.00e+00	0	44	0	3372220416	9	3919
2026-01-02 06:35:47.69	272.64	16.06	-24.7	-25.4	15.9	0.00e+00	0	44	0	3394240512	9	3893
2026-01-02 06:35:50.70	272.15	15.84	-24.5	-24.8	16.2	1.40e-03	0	43	0	3416260608	9	3765
2026-01-02 06:35:53.71	271.66	15.62	-24.5	-25.4	16.2	0.00e+00	0	43	0	3437232128	8	4002
2026-01-02 06:35:56.73	271.18	15.40	-24.6	-25.1	16.1	0.00e+00	0	43	0	3459252224	9	3823
2026-01-02 06:35:59.73	270.71	15.17	-24.8	-25.6	15.8	0.00e+00	0	44	0	3481272320	9	3936
2026-01-02 06:36:02.75	270.24	14.95	-24.8	-25.5	15.8	2.06e-03	0	43	0	3503292416	9	3934
2026-01-02 06:36:05.76	269.78	14.73	-24.8	-25.6	15.8	2.39e-03	0	44	0	3524263936	9	3935
2026-01-02 06:36:08.78	269.33	14.51	-25.0	-26.0	15.5	2.19e-03	0	44	0	3546284032	9	4049
2026-01-02 06:36:11.79	268.88	14.28	-25.2	-25.9	15.3	0.00e+00	0	43	0	3568304128	10	3929
2026-01-02 06:36:14.80	268.45	14.06	-25.1	-25.7	15.4	2.19e-03	0	43	0	3590324224	10	3881
2026-01-02 06:36:17.81	268.02	13.84	-25.1	-25.9	15.3	2.13e-03	0	43	0	3611295744	10	3906
2026-01-02 06:36:20.83	267.59	13.62	-25.1	-26.2	15.4	1.93e-03	0	44	0	3633315840	9	4087
2026-01-02 06:36:23.84	267.17	13.40	-25.0	-26.0	15.5	0.00e+00	0	44	0	3655335936	9	4038
2026-01-02 06:36:26.86	266.76	13.18	-25.3	-26.2	15.1	0.00e+00	0	43	0	3677356032	10	3990
2026-01-02 06:36:29.87	266.35	12.96	-25.2	-26.0	15.2	0.00e+00	0	44	0	3698327552	10	3937
2026-01-02 06:36:32.87	265.95	12.74	-25.4	-26.4	15.0	0.00e+00	0	43	0	3720347648	10	4039
2026-01-02 06:36:35.88	265.56	12.52	-25.7	-26.5	14.6	1.10e-06	0	44	0	3742367744	11	3975
2026-01-02 06:36:38.89	265.17	12.31	-25.9	-26.9	14.4	0.00e+00	0	44	0	3764387840	11	4077
2026-01-02 06:36:41.90	264.79	12.09	-25.8	-26.8	14.5	0.00e+00	0	44	0	3785359360	11	4035
2026-01-02 06:36:44.91	264.41	11.87	-25.6	-26.4	14.7	0.00e+00	0	44	0	3807379456	11	3929
2026-01-02 06:36:47.91	264.04	11.66	-25.6	-26.3	14.7	1.10e-06	0	44	0	3829399552	11	3916
2026-01-02 06:36:50.92	263.68	11.44	-25.8	-26.8	14.4	1.10e-06	0	44	0	3850371072	11	4041
2026-01-02 06:36:53.93	263.32	11.23	-26.2	-27.3	13.7	3.40e-06	0	44	0	3872391168	12	4075
2026-01-02 06:36:56.95	262.96	11.02	-26.1	-27.0	13.9	2.20e-06	0	44	0	3894411264	12	3991
2026-01-02 06:36:59.95	262.61	10.81	-26.8	-28.1	12.9	1.48e-05	0	44	0	3916431360	13	4194
2026-01-02 06:37:02.96	262.27	10.59	-25.8	-26.8	14.3	1.10e-06	0	44	0	3937402880	11	4054
2026-01-02 06:37:05.98	261.93	10.38	-25.9	-27.0	14.2	2.20e-06	0	44	0	3959422976	11	4104
2026-01-02 06:37:08.99	261.59	10.17	-25.5	-26.2	14.6	1.10e-06	0	44	0	3981443072	11	3906
2026-01-02 06:37:12.01	261.26	9.96	-25.6	-26.4	14.6	0.00e+00	0	44	0	4002414592	11	3940
2026-01-02 06:37:15.02	260.93	9.75	-25.5	-26.7	14.6	0.00e+00	0	44	0	4024434688	10	4118
2026-01-02 06:37:18.04	260.61	9.55	-25.6	-26.4	14.5	0.00e+00	0	44	0	4046454784	11	3945
2026-01-02 06:37:21.05	260.30	9.34	-25.7	-26.6	14.3	0.00e+00	0	44	0	4068474880	11	4007
2026-01-02 06:37:24.05	259.99	9.13	-25.8	-26.9	14.2	3.40e-06	0	44	0	4089446400	11	4075
2026-01-02 06:37:27.07	259.68	8.93	-25.8	-26.7	13.5	5.70e-06	0	44	0	4111466496	12	3992
2026-01-02 06:37:30.09	259.38	8.72	-26.0	-27.3	13.8	4.76e-03	0	44	0	4133486592	11	4193
2026-01-02 06:37:33.10	259.08	8.52	-26.1	-27.2	13.5	9.36e-04	0	43	0	4155506688	12	4062
2026-01-02 06:37:36.11	258.78	8.32	-26.4	-27.7	13.2	1.60e-05	0	44	0	4176478208	12	4189
2026-01-02 06:37:39.13	258.49	8.12	-26.3	-27.5	13.3	2.17e-05	0	44	0	4198498304	12	4153
2026-01-02 06:37:42.14	258.21	7.92	-26.2	-27.3	13.4	4.52e-03	0	43	0	4220518400	12	4081
2026-01-02 06:37:45.16	257.93	7.72	-26.0	-27.4	13.7	3.07e-03	0	44	0	4242538496	11	4214
2026-01-02 06:37:48.17	257.65	7.52	-26.1	-27.1	13.5	1.98e-03	0	44	0	4263510016	12	4030
2026-01-02 06:37:51.18	257.37	7.32	-26.0	-26.9	13.6	2.42e-03	0	43	0	4285530112	12	3992
2026-01-02 06:37:54.18	257.11	7.13	-26.2	-27.3	13.4	3.74e-03	0	44	0	4307550208	12	4099

#Closed at: 2026-01-02 06:37:56
#Recorded file [4315 MB]: D:/data/31010_260102_092757.dat