passes_logs/2026/01/02/R2M6_AANII_01/R2M6_AANII_01__20260102_001821_SUOMI_NPP_rec.log

#Pass ID: 20260102_001821_SUOMI NPP
#Satellite: SUOMI NPP
#Configuration: NPP
#almurnet v.1.7.20240730
#Start time: 2026-01-02 00:18:22

#Version: 2.2.20231116
#Station: R2M6_AANII_01
#Location: 30.233357 lon 59.946436 lat
#TLE: 1 37849U 11061A   26001.07732418  .00000182  00000+0  10735-3 0  9990
#TLE: 2 37849  98.7795 303.2470 0002580  87.2016 272.9455 14.19520779734739

#Time	Az	El	Level	Level2	SNR	BER	BlckErr	Temp	State	Recorded	gain1	gain2
2026-01-02 00:18:22.14	18.75	7.07	-31.3	-37.3	4.7	1.37e+00	0	41	0	0	22	7155
2026-01-02 00:18:25.14	18.78	7.31	-31.3	-36.9	6.8	1.94e-01	0	41	0	1048576	22	6833
2026-01-02 00:18:28.14	18.81	7.54	-31.2	-36.4	7.2	1.55e-01	0	41	0	7340032	22	6549
2026-01-02 00:18:31.15	18.84	7.78	-30.6	-34.3	9.2	3.13e-02	0	41	0	12582912	21	5480
2026-01-02 00:18:34.17	18.87	8.02	-30.1	-32.8	10.7	3.86e-03	0	41	0	17825792	20	4928
2026-01-02 00:18:37.18	18.90	8.26	-29.9	-32.6	11.2	1.22e-03	0	41	0	24117248	19	4941
2026-01-02 00:18:40.18	18.93	8.50	-29.8	-32.5	11.4	1.06e-03	0	41	0	29360128	19	4882
2026-01-02 00:18:43.19	18.97	8.75	-29.9	-32.5	11.4	1.98e-03	0	41	0	35651584	19	4895
2026-01-02 00:18:46.20	19.00	9.00	-29.1	-31.9	11.1	2.04e-03	0	41	0	40894464	19	4986
2026-01-02 00:18:49.21	19.03	9.25	-30.0	-32.5	10.4	2.95e-03	0	42	0	46137344	20	4806
2026-01-02 00:18:52.23	19.06	9.50	-29.8	-32.2	11.3	4.11e-03	0	42	0	52428800	19	4750
2026-01-02 00:18:55.23	19.10	9.76	-29.8	-32.4	11.7	5.17e-04	0	42	0	57671680	19	4812
2026-01-02 00:18:58.23	19.13	10.01	-29.8	-32.4	11.6	5.68e-04	0	42	0	62914560	19	4838
2026-01-02 00:19:01.23	19.16	10.27	-29.9	-32.6	11.5	6.81e-04	0	42	0	69206016	19	4915
2026-01-02 00:19:04.23	19.20	10.54	-30.0	-32.6	11.1	2.55e-03	0	42	0	74448896	20	4806
2026-01-02 00:19:07.22	19.23	10.80	-30.0	-32.7	11.5	1.89e-03	0	42	0	80740352	19	4946
2026-01-02 00:19:10.24	19.27	11.07	-30.0	-32.3	11.3	4.58e-03	0	42	0	85983232	20	4696
2026-01-02 00:19:13.24	19.30	11.35	-29.5	-31.4	12.4	3.73e-03	0	42	0	91226112	19	4467
2026-01-02 00:19:16.24	19.34	11.62	-29.4	-31.5	12.7	5.95e-05	0	42	0	97517568	18	4593
2026-01-02 00:19:19.25	19.37	11.90	-29.2	-30.9	13.2	2.44e-05	0	42	0	102760448	18	4378
2026-01-02 00:19:22.26	19.41	12.18	-29.1	-30.7	13.2	2.51e-05	0	42	0	108003328	18	4324
2026-01-02 00:19:25.28	19.45	12.47	-29.1	-30.6	13.3	5.77e-04	0	42	0	114294784	18	4277
2026-01-02 00:19:28.30	19.48	12.76	-29.0	-30.5	13.4	2.76e-03	0	42	0	119537664	18	4255
2026-01-02 00:19:31.30	19.52	13.05	-29.2	-30.8	13.2	2.98e-03	0	42	0	125829120	18	4335
2026-01-02 00:19:34.30	19.56	13.35	-28.9	-30.5	13.7	2.78e-03	0	42	0	131072000	17	4359
2026-01-02 00:19:37.31	19.60	13.65	-28.8	-30.4	13.8	2.55e-03	0	42	0	136314880	17	4311
2026-01-02 00:19:40.32	19.64	13.95	-28.8	-30.2	13.9	2.85e-03	0	42	0	142606336	17	4248
2026-01-02 00:19:43.32	19.68	14.26	-28.8	-30.4	13.9	3.80e-06	0	42	0	147849216	17	4297
2026-01-02 00:19:46.32	19.72	14.57	-28.8	-30.3	13.9	2.52e-03	0	42	0	153092096	17	4273
2026-01-02 00:19:49.32	19.76	14.89	-28.6	-29.8	14.3	2.78e-03	0	42	0	159383552	17	4127
2026-01-02 00:19:52.33	19.80	15.20	-28.7	-29.9	14.2	2.68e-03	0	43	0	164626432	17	4150
2026-01-02 00:19:55.33	19.84	15.53	-28.7	-30.1	14.1	2.49e-03	0	43	0	170917888	17	4214
2026-01-02 00:19:58.34	19.89	15.86	-28.6	-29.7	14.4	2.78e-03	0	43	0	176160768	17	4095
2026-01-02 00:20:01.34	19.93	16.19	-28.6	-29.7	14.4	2.89e-03	0	43	0	181403648	17	4106
2026-01-02 00:20:04.35	19.98	16.53	-28.6	-29.8	14.4	7.88e-04	0	43	0	187695104	17	4112
2026-01-02 00:20:07.37	20.02	16.87	-28.7	-29.9	14.3	1.75e-04	0	43	0	192937984	17	4145
2026-01-02 00:20:10.38	20.07	17.22	-29.0	-30.6	13.8	3.05e-03	0	43	0	198180864	17	4363
2026-01-02 00:20:13.39	20.11	17.57	-29.2	-30.8	13.5	2.85e-03	0	43	0	204472320	18	4323
2026-01-02 00:20:16.38	20.16	17.92	-29.2	-30.8	13.5	3.05e-03	0	43	0	209715200	18	4322
2026-01-02 00:20:19.38	20.21	18.29	-29.4	-31.3	13.2	3.00e-03	0	43	0	216006656	18	4480
2026-01-02 00:20:22.39	20.26	18.65	-29.3	-31.1	13.3	1.08e-03	0	43	0	221249536	18	4405
2026-01-02 00:20:25.40	20.31	19.03	-29.3	-31.1	13.4	7.94e-04	0	43	0	226492416	18	4405
2026-01-02 00:20:28.41	20.36	19.41	-29.4	-31.2	13.3	2.36e-05	0	43	0	232783872	18	4447
2026-01-02 00:20:31.44	20.41	19.79	-29.6	-31.4	12.9	6.40e-05	0	43	0	238026752	19	4417
2026-01-02 00:20:34.44	20.47	20.18	-30.1	-32.4	11.7	3.64e-03	0	43	0	243269632	20	4678
2026-01-02 00:20:37.46	20.52	20.58	-30.0	-32.1	11.9	3.69e-03	0	43	0	249561088	20	4567
2026-01-02 00:20:40.47	20.58	20.99	-30.1	-32.3	11.8	1.16e-03	0	43	0	254803968	20	4626
2026-01-02 00:20:43.47	20.63	21.40	-30.0	-32.1	11.9	1.39e-03	0	43	0	261095424	20	4588
2026-01-02 00:20:46.49	20.69	21.81	-30.2	-32.6	11.7	1.35e-03	0	43	0	266338304	20	4727
2026-01-02 00:20:49.50	20.75	22.24	-30.0	-32.1	12.0	1.33e-03	0	43	0	271581184	20	4554
2026-01-02 00:20:52.51	20.81	22.67	-30.0	-32.0	12.1	2.65e-04	0	43	0	277872640	20	4523
2026-01-02 00:20:55.51	20.87	23.11	-30.2	-32.7	11.7	3.76e-04	0	43	0	283115520	20	4768
2026-01-02 00:20:58.52	20.94	23.55	-30.3	-32.7	11.6	7.19e-04	0	43	0	289406976	20	4785
2026-01-02 00:21:01.53	21.00	24.01	-30.0	-31.8	12.2	8.73e-04	0	43	0	294649856	20	4469
2026-01-02 00:21:04.54	21.07	24.47	-29.9	-31.7	12.4	6.93e-04	0	43	0	299892736	20	4401
2026-01-02 00:21:07.55	21.13	24.94	-29.8	-31.8	12.6	5.48e-04	0	43	0	306184192	19	4546
2026-01-02 00:21:10.55	21.20	25.42	-29.8	-31.8	12.8	6.48e-05	0	43	0	311427072	19	4519
2026-01-02 00:21:13.56	21.27	25.91	-29.6	-31.3	13.1	2.28e-05	0	43	0	317718528	19	4381
2026-01-02 00:21:16.56	21.35	26.40	-29.4	-31.1	13.5	8.30e-06	0	43	0	322961408	18	4386
2026-01-02 00:21:19.57	21.42	26.91	-29.3	-30.9	13.7	1.60e-05	0	43	0	328204288	18	4318
2026-01-02 00:21:22.58	21.50	27.43	-29.3	-30.8	13.7	2.07e-03	0	43	0	334495744	18	4293
2026-01-02 00:21:25.59	21.58	27.95	-29.4	-31.1	13.6	2.18e-04	0	43	0	339738624	18	4405
2026-01-02 00:21:28.59	21.66	28.49	-29.3	-30.9	13.7	1.25e-04	0	43	0	344981504	18	4313
2026-01-02 00:21:31.59	21.74	29.03	-29.3	-31.0	13.6	9.10e-06	0	43	0	351272960	18	4354
2026-01-02 00:21:34.60	21.83	29.59	-29.5	-30.9	13.4	1.75e-05	0	43	0	356515840	19	4233
2026-01-02 00:21:37.61	21.92	30.16	-29.6	-31.1	13.3	2.21e-03	0	43	0	362807296	19	4294
2026-01-02 00:21:40.62	22.01	30.74	-29.7	-31.5	13.1	2.03e-03	0	43	0	368050176	19	4421
2026-01-02 00:21:43.63	22.10	31.33	-30.3	-32.7	11.7	2.67e-03	0	43	0	373293056	20	4764
2026-01-02 00:21:46.63	22.20	31.93	-31.0	-33.9	10.3	8.26e-03	0	43	0	379584512	22	5032
2026-01-02 00:21:49.64	22.30	32.55	-31.4	-35.3	9.1	2.29e-02	0	43	0	384827392	22	5651
2026-01-02 00:21:52.66	22.41	33.18	-31.0	-33.9	10.4	1.20e-02	0	43	0	390070272	22	5031
2026-01-02 00:21:55.67	22.52	33.83	-31.3	-35.0	9.5	1.38e-02	0	43	0	396361728	22	5500
2026-01-02 00:21:58.67	22.63	34.48	-30.5	-32.7	11.5	3.23e-03	0	43	0	401604608	21	4654
2026-01-02 00:22:01.67	22.74	35.15	-30.1	-32.2	12.3	1.99e-03	0	43	0	407896064	20	4552
2026-01-02 00:22:04.68	22.86	35.83	-29.4	-31.0	13.8	1.60e-03	0	43	0	413138944	18	4325
2026-01-02 00:22:07.70	22.99	36.54	-29.2	-30.5	14.1	1.39e-03	0	43	0	418381824	18	4185
2026-01-02 00:22:10.72	23.12	37.25	-28.7	-29.8	14.9	1.29e-03	0	43	0	424673280	17	4063
2026-01-02 00:22:13.74	23.26	37.99	-28.9	-30.2	14.6	7.00e-07	0	43	0	429916160	17	4195
2026-01-02 00:22:16.74	23.40	38.73	-28.9	-29.7	14.7	7.00e-07	0	43	0	435159040	18	3951
2026-01-02 00:22:19.75	23.55	39.50	-28.6	-28.9	15.1	0.00e+00	0	43	0	441450496	18	3749
2026-01-02 00:22:22.75	23.70	40.28	-28.7	-29.8	14.9	6.25e-05	0	43	0	446693376	17	4065
2026-01-02 00:22:25.76	23.86	41.08	-29.3	-30.6	14.1	3.28e-05	0	43	0	452984832	18	4219
2026-01-02 00:22:28.78	24.03	41.90	-29.7	-31.3	13.3	5.41e-05	0	43	0	458227712	19	4320
2026-01-02 00:22:31.78	24.21	42.73	-29.6	-31.0	13.6	3.80e-06	0	43	0	463470592	19	4223
2026-01-02 00:22:34.79	24.40	43.58	-29.0	-29.5	14.6	0.00e+00	0	43	0	469762048	19	3800
2026-01-02 00:22:37.78	24.59	44.45	-29.4	-30.4	13.9	6.80e-06	0	43	0	475004928	19	4061
2026-01-02 00:22:40.78	24.80	45.34	-30.2	-32.3	12.4	7.55e-05	0	43	0	480247808	20	4555
2026-01-02 00:22:43.80	25.02	46.25	-31.3	-34.9	9.9	7.67e-03	0	43	0	486539264	22	5405
2026-01-02 00:22:46.80	25.25	47.18	-31.2	-34.0	9.9	1.01e-02	0	43	0	491782144	23	4933
2026-01-02 00:22:49.81	25.49	48.14	-30.8	-33.0	11.2	2.55e-03	0	43	0	498073600	22	4627
2026-01-02 00:22:52.82	25.75	49.11	-29.8	-31.1	13.3	5.95e-05	0	43	0	503316480	20	4177
2026-01-02 00:22:55.83	26.02	50.11	-29.1	-30.2	14.5	0.00e+00	0	43	0	508559360	18	4092
2026-01-02 00:22:58.82	26.32	51.12	-28.5	-29.1	15.4	0.00e+00	0	43	0	514850816	17	3876
2026-01-02 00:23:01.84	26.63	52.16	-28.6	-29.4	15.3	0.00e+00	0	43	0	520093696	17	3962
2026-01-02 00:23:04.83	26.96	53.21	-28.4	-29.4	15.5	0.00e+00	0	43	0	525336576	16	4035
2026-01-02 00:23:07.84	27.32	54.30	-28.4	-28.9	15.6	0.00e+00	0	43	0	531628032	17	3823
2026-01-02 00:23:10.84	27.71	55.40	-27.0	-26.7	17.3	0.00e+00	0	43	0	536870912	15	3479
2026-01-02 00:23:13.85	28.13	56.53	-26.5	-26.5	17.8	0.00e+00	0	43	0	543162368	13	3616
2026-01-02 00:23:16.86	28.58	57.67	-27.9	-28.7	16.3	0.00e+00	0	43	0	548405248	15	3963
2026-01-02 00:23:19.87	29.08	58.85	-27.3	-27.4	16.6	0.00e+00	0	43	0	553648128	15	3645
2026-01-02 00:23:22.87	29.61	60.03	-27.9	-28.8	16.1	0.00e+00	0	43	0	559939584	15	3983
2026-01-02 00:23:25.87	30.20	61.24	-27.8	-28.0	16.5	2.20e-06	0	43	0	565182464	16	3678
2026-01-02 00:23:28.88	30.85	62.47	-27.1	-26.8	17.2	7.00e-07	0	43	0	570425344	15	3502
2026-01-02 00:23:31.88	31.57	63.72	-27.7	-28.3	16.4	3.80e-06	0	43	0	576716800	15	3870
2026-01-02 00:23:34.90	32.37	64.99	-29.5	-30.7	14.1	7.60e-06	0	43	0	581959680	19	4114
2026-01-02 00:23:37.92	33.27	66.28	-28.6	-28.8	15.5	0.00e+00	0	43	0	588251136	18	3705
2026-01-02 00:23:40.92	34.27	67.58	-29.4	-30.4	14.2	5.30e-06	0	43	0	593494016	19	4050
2026-01-02 00:23:43.93	35.41	68.90	-30.7	-33.2	11.6	4.52e-04	0	43	0	598736896	21	4773
2026-01-02 00:23:46.93	36.72	70.22	-30.3	-31.7	12.7	2.06e-04	0	43	0	605028352	21	4258
2026-01-02 00:23:49.95	38.23	71.55	-29.9	-31.2	13.4	3.43e-05	0	43	0	610271232	20	4197
2026-01-02 00:23:52.96	39.98	72.89	-30.4	-32.6	12.5	4.80e-05	0	43	0	616562688	20	4636
2026-01-02 00:23:55.96	42.04	74.22	-30.7	-33.1	11.8	1.59e-04	0	43	0	621805568	21	4751
2026-01-02 00:23:58.97	44.50	75.54	-31.2	-33.7	10.7	6.46e-03	0	43	0	627048448	23	4755
2026-01-02 00:24:01.97	47.46	76.84	-31.5	-34.5	10.1	1.39e-03	0	43	0	633339904	23	5119
2026-01-02 00:24:04.99	51.11	78.13	-31.7	-34.8	9.6	3.05e-02	0	43	0	638582784	24	5138
2026-01-02 00:24:07.99	55.61	79.35	-30.8	-32.7	11.8	1.14e-03	0	43	0	643825664	22	4482
2026-01-02 00:24:11.01	61.30	80.51	-31.7	-35.3	9.6	1.46e-02	0	43	0	650117120	23	5396
2026-01-02 00:24:14.01	68.45	81.55	-29.4	-29.9	14.4	6.80e-06	0	43	0	655360000	20	3799
2026-01-02 00:24:17.02	77.49	82.43	-29.3	-30.5	14.8	0.00e+00	0	43	0	661651456	18	4141
2026-01-02 00:24:20.02	88.55	83.09	-28.3	-28.2	16.1	0.00e+00	0	43	0	666894336	18	3527
2026-01-02 00:24:23.03	101.38	83.44	-28.3	-28.7	16.1	0.00e+00	0	43	0	672137216	17	3745
2026-01-02 00:24:26.04	114.93	83.44	-28.2	-28.2	16.3	0.00e+00	0	43	0	678428672	17	3632
2026-01-02 00:24:29.03	127.70	83.09	-29.9	-31.7	13.7	0.00e+00	0	43	0	683671552	19	4404
2026-01-02 00:24:32.03	138.79	82.45	-31.1	-33.7	11.2	1.89e-04	0	43	0	688914432	22	4856
2026-01-02 00:24:35.04	147.87	81.57	-32.1	-36.0	8.8	1.15e-02	0	43	0	695205888	24	5660
2026-01-02 00:24:38.05	155.08	80.52	-32.6	-38.3	6.5	1.63e-01	0	43	0	700448768	25	6905
2026-01-02 00:24:41.06	160.77	79.37	-32.6	-37.9	6.8	1.14e-01	0	43	0	706740224	25	6653
2026-01-02 00:24:44.07	165.30	78.14	-31.1	-32.9	11.4	1.56e-03	0	43	0	711983104	23	4476
2026-01-02 00:24:47.06	168.93	76.87	-33.1	-40.9	4.8	8.07e-01	0	43	0	717225984	26	8840
2026-01-02 00:24:50.07	171.91	75.56	-32.8	-38.8	5.8	6.95e-01	0	43	0	721420288	26	7156
2026-01-02 00:24:53.10	174.40	74.23	-31.9	-36.0	9.0	1.59e-02	0	43	0	726663168	23	5783
2026-01-02 00:24:56.10	176.46	72.90	-32.1	-35.8	8.3	1.13e-01	0	43	0	732954624	25	5498
2026-01-02 00:24:59.11	178.22	71.56	-32.8	-39.7	5.6	2.42e-01	0	43	0	738197504	25	7919
2026-01-02 00:25:02.07	179.71	70.25	-31.6	-34.3	9.8	4.49e-02	0	43	0	743440384	24	4933
2026-01-02 00:25:05.08	181.02	68.92	-31.2	-33.5	10.7	2.86e-03	0	43	0	749731840	23	4723
2026-01-02 00:25:08.09	182.17	67.60	-30.7	-33.0	11.9	1.99e-04	0	43	0	754974720	21	4706
2026-01-02 00:25:11.11	183.18	66.29	-30.5	-32.3	12.5	8.23e-05	0	43	0	760217600	21	4441
2026-01-02 00:25:14.13	184.08	65.00	-29.6	-30.4	13.8	7.60e-06	0	43	0	766509056	20	3949
2026-01-02 00:25:17.13	184.88	63.73	-31.4	-34.4	9.9	2.46e-03	0	43	0	771751936	23	5051
2026-01-02 00:25:20.13	185.60	62.48	-30.9	-33.2	11.3	3.77e-03	0	43	0	776994816	22	4672
2026-01-02 00:25:23.14	186.25	61.24	-31.9	-36.3	8.7	1.15e-02	0	43	0	783286272	23	5954
2026-01-02 00:25:26.15	186.84	60.03	-31.6	-35.0	9.7	1.34e-02	0	43	0	788529152	23	5315
2026-01-02 00:25:29.15	187.38	58.83	-31.7	-35.5	9.2	6.68e-03	0	43	0	794820608	23	5564
2026-01-02 00:25:32.16	187.87	57.66	-29.8	-30.5	13.3	1.04e-03	0	43	0	800063488	21	3913
2026-01-02 00:25:35.16	188.33	56.51	-29.7	-31.3	13.6	3.31e-04	0	43	0	805306368	19	4322
2026-01-02 00:25:38.18	188.75	55.38	-30.0	-31.5	13.0	4.25e-04	0	43	0	811597824	20	4298
2026-01-02 00:25:41.19	189.14	54.27	-29.5	-30.6	14.1	2.33e-04	0	43	0	816840704	19	4085
2026-01-02 00:25:44.20	189.50	53.18	-30.2	-32.1	12.6	5.61e-04	0	43	0	823132160	20	4491
2026-01-02 00:25:47.20	189.83	52.12	-30.5	-33.0	12.1	3.35e-05	0	43	0	828375040	20	4804
2026-01-02 00:25:50.21	190.14	51.08	-31.1	-34.0	10.6	4.33e-03	0	43	0	833617920	22	4999
2026-01-02 00:25:53.20	190.44	50.06	-29.3	-30.2	14.1	8.22e-04	0	43	0	839909376	19	3988
2026-01-02 00:25:56.20	190.71	49.07	-29.5	-31.1	14.0	4.66e-04	0	43	0	845152256	18	4368
2026-01-02 00:25:59.22	190.97	48.08	-31.6	-35.3	9.2	3.14e-02	0	43	0	850395136	23	5506
2026-01-02 00:26:02.22	191.21	47.13	-28.4	-28.9	15.5	9.08e-04	0	43	0	856686592	17	3819
2026-01-02 00:26:05.24	191.44	46.19	-29.9	-31.8	13.3	1.38e-03	0	43	0	861929472	19	4485
2026-01-02 00:26:08.26	191.66	45.27	-30.0	-31.8	12.7	1.29e-03	0	43	0	868220928	20	4418
2026-01-02 00:26:11.26	191.87	44.38	-29.4	-30.6	13.9	9.61e-04	0	43	0	873463808	19	4123
2026-01-02 00:26:14.27	192.06	43.50	-28.4	-29.0	15.4	1.04e-03	0	43	0	878706688	17	3858
2026-01-02 00:26:17.27	192.25	42.65	-29.7	-31.2	13.5	1.29e-03	0	43	0	884998144	19	4292
2026-01-02 00:26:20.29	192.42	41.81	-31.1	-34.0	10.5	5.73e-03	0	43	0	890241024	22	5032
2026-01-02 00:26:23.29	192.59	40.99	-30.0	-31.8	12.7	1.84e-03	0	43	0	895483904	20	4402
2026-01-02 00:26:26.28	192.75	40.20	-30.3	-32.5	12.3	2.41e-03	0	43	0	901775360	20	4636
2026-01-02 00:26:29.29	192.91	39.41	-30.7	-33.2	11.3	1.09e-03	0	43	0	907018240	21	4828
2026-01-02 00:26:32.30	193.05	38.64	-32.3	-38.0	6.6	2.01e-01	0	43	0	913309696	24	6971
2026-01-02 00:26:35.30	193.19	37.90	-32.0	-36.8	7.4	2.62e-01	0	43	0	918552576	24	6256
2026-01-02 00:26:38.31	193.33	37.16	-31.0	-33.8	10.5	1.01e-02	0	43	0	923795456	22	4958
2026-01-02 00:26:41.32	193.46	36.44	-31.2	-34.4	10.1	7.84e-03	0	43	0	930086912	22	5190
2026-01-02 00:26:44.33	193.58	35.74	-31.3	-34.8	9.8	1.01e-02	0	43	0	935329792	22	5400
2026-01-02 00:26:47.33	193.70	35.06	-31.6	-35.4	9.0	3.24e-02	0	43	0	940572672	23	5560
2026-01-02 00:26:50.34	193.82	34.38	-32.4	-38.9	6.0	1.34e-01	0	43	0	946864128	24	7591
2026-01-02 00:26:53.35	193.93	33.72	-32.3	-38.1	6.5	3.49e-01	0	43	0	952107008	24	7051
2026-01-02 00:26:56.36	194.03	33.08	-32.0	-36.7	7.5	1.16e-01	0	43	0	958398464	24	6163
2026-01-02 00:26:59.36	194.14	32.45	-31.7	-35.7	8.7	4.88e-02	0	43	0	963641344	23	5710
2026-01-02 00:27:02.35	194.24	31.83	-30.6	-32.9	11.5	1.37e-03	0	43	0	968884224	21	4708
2026-01-02 00:27:05.35	194.33	31.23	-29.8	-31.3	12.9	5.87e-05	0	43	0	975175680	20	4250
2026-01-02 00:27:08.37	194.43	30.63	-30.2	-32.3	12.3	1.56e-04	0	43	0	980418560	20	4579
2026-01-02 00:27:11.37	194.52	30.05	-31.4	-35.1	9.5	8.72e-03	0	43	0	985661440	22	5512
2026-01-02 00:27:14.38	194.61	29.48	-32.2	-38.1	6.5	1.90e-01	0	43	0	991952896	24	7075
2026-01-02 00:27:17.38	194.69	28.92	-32.1	-37.5	6.8	1.93e-01	0	43	0	997195776	24	6674
2026-01-02 00:27:20.38	194.77	28.38	-31.3	-34.9	9.5	1.74e-02	0	43	0	1002438656	22	5448
2026-01-02 00:27:23.39	194.85	27.84	-30.6	-33.0	11.3	1.15e-03	0	43	0	1008730112	21	4767
2026-01-02 00:27:26.40	194.93	27.31	-30.0	-32.1	12.2	1.79e-04	0	43	0	1013972992	20	4564
2026-01-02 00:27:29.41	195.01	26.79	-29.5	-32.3	11.9	2.46e-04	0	43	0	1020264448	19	4944
2026-01-02 00:27:32.42	195.08	26.28	-29.4	-31.1	12.0	1.29e-05	0	43	0	1025507328	18	4378
2026-01-02 00:27:35.43	195.15	25.78	-29.4	-31.1	13.6	9.90e-06	0	43	0	1030750208	18	4369
2026-01-02 00:27:38.43	195.22	25.30	-28.4	-29.5	15.2	0.00e+00	0	43	0	1037041664	16	4101
2026-01-02 00:27:41.44	195.29	24.81	-28.4	-29.6	15.2	0.00e+00	0	44	0	1042284544	16	4128
2026-01-02 00:27:44.46	195.35	24.34	-28.5	-29.4	15.0	2.24e-03	0	43	0	1048576000	17	3969
2026-01-02 00:27:47.47	195.42	23.88	-28.8	-30.1	14.5	1.96e-03	0	43	0	1053818880	17	4170
2026-01-02 00:27:50.48	195.48	23.42	-28.5	-29.2	15.1	0.00e+00	0	43	0	1059061760	17	3921
2026-01-02 00:27:53.48	195.54	22.97	-28.2	-29.1	15.4	0.00e+00	0	43	0	1065353216	16	4002
2026-01-02 00:27:56.48	195.60	22.54	-27.6	-28.3	16.0	0.00e+00	0	43	0	1070596096	15	3885
2026-01-02 00:27:59.50	195.66	22.10	-27.3	-28.0	16.4	0.00e+00	0	43	0	1075838976	14	3900
2026-01-02 00:28:02.51	195.72	21.68	-27.6	-28.2	16.0	2.13e-03	0	43	0	1082130432	15	3861
2026-01-02 00:28:05.53	195.77	21.26	-27.9	-29.0	15.5	1.93e-03	0	43	0	1087373312	15	4073
2026-01-02 00:28:08.54	195.83	20.84	-28.7	-29.9	14.6	2.20e-03	0	43	0	1093664768	17	4132
2026-01-02 00:28:11.55	195.88	20.44	-29.2	-30.7	13.8	1.96e-03	0	43	0	1098907648	18	4277
2026-01-02 00:28:14.54	195.94	20.04	-29.6	-31.3	13.0	1.71e-03	0	43	0	1104150528	19	4379
2026-01-02 00:28:17.54	195.99	19.65	-29.9	-31.6	12.4	1.32e-04	0	43	0	1110441984	20	4378
2026-01-02 00:28:20.55	196.04	19.26	-29.9	-32.1	12.5	1.62e-03	0	43	0	1115684864	19	4656
2026-01-02 00:28:23.55	196.09	18.89	-29.9	-31.5	12.4	1.43e-03	0	43	0	1120927744	20	4367
2026-01-02 00:28:26.56	196.13	18.51	-29.7	-31.5	12.9	6.45e-04	0	43	0	1127219200	19	4436
2026-01-02 00:28:29.57	196.18	18.14	-29.6	-31.3	13.0	2.40e-04	0	43	0	1132462080	19	4379
2026-01-02 00:28:32.58	196.23	17.78	-29.7	-31.4	12.9	7.32e-05	0	43	0	1138753536	19	4418
2026-01-02 00:28:35.58	196.27	17.42	-29.8	-31.8	12.6	9.76e-05	0	43	0	1143996416	19	4544
2026-01-02 00:28:38.58	196.32	17.07	-29.7	-31.6	12.7	8.46e-05	0	43	0	1149239296	19	4488
2026-01-02 00:28:41.57	196.36	16.72	-29.9	-32.2	12.3	5.97e-04	0	43	0	1155530752	19	4681
2026-01-02 00:28:44.58	196.41	16.38	-30.0	-32.1	12.0	1.17e-03	0	43	0	1160773632	20	4573
2026-01-02 00:28:47.60	196.45	16.04	-30.0	-32.0	12.0	1.49e-03	0	43	0	1166016512	20	4541
2026-01-02 00:28:50.61	196.49	15.70	-30.0	-32.1	11.9	1.92e-03	0	43	0	1172307968	20	4588
2026-01-02 00:28:53.63	196.53	15.37	-30.1	-32.3	11.8	2.23e-03	0	43	0	1177550848	20	4633
2026-01-02 00:28:56.63	196.57	15.05	-30.3	-33.0	11.2	9.03e-04	0	43	0	1183842304	20	4916
2026-01-02 00:28:59.63	196.61	14.73	-30.4	-33.5	10.9	1.99e-03	0	43	0	1189085184	20	5097
2026-01-02 00:29:02.64	196.65	14.41	-30.5	-33.0	10.8	2.59e-03	0	44	0	1194328064	21	4842
2026-01-02 00:29:05.65	196.69	14.10	-30.6	-33.4	10.5	3.22e-03	0	43	0	1200619520	21	4997
2026-01-02 00:29:08.66	196.73	13.79	-30.8	-34.2	9.9	7.49e-03	0	43	0	1205862400	21	5323
2026-01-02 00:29:11.66	196.76	13.49	-30.5	-33.3	10.5	6.32e-03	0	43	0	1211105280	21	4956
2026-01-02 00:29:14.67	196.80	13.19	-30.1	-32.6	11.5	7.35e-04	0	43	0	1217396736	20	4767
2026-01-02 00:29:17.68	196.84	12.89	-30.2	-32.9	11.2	1.39e-03	0	43	0	1222639616	20	4905
2026-01-02 00:29:20.69	196.87	12.60	-30.0	-32.1	11.7	5.40e-04	0	43	0	1228931072	20	4607
2026-01-02 00:29:23.70	196.91	12.31	-29.8	-32.1	12.2	3.13e-04	0	44	0	1234173952	19	4668
2026-01-02 00:29:26.73	196.94	12.02	-29.7	-31.9	12.3	2.20e-04	0	43	0	1239416832	19	4608
2026-01-02 00:29:29.73	196.97	11.74	-29.6	-31.4	12.6	7.09e-05	0	43	0	1245708288	19	4431
2026-01-02 00:29:32.74	197.01	11.46	-29.6	-31.5	12.5	8.85e-05	0	43	0	1250951168	19	4469
2026-01-02 00:29:35.75	197.04	11.18	-29.7	-31.7	12.3	1.13e-04	0	43	0	1257242624	19	4564
2026-01-02 00:29:38.77	197.07	10.90	-29.8	-32.0	12.1	1.82e-04	0	43	0	1262485504	19	4651
2026-01-02 00:29:41.78	197.11	10.63	-29.6	-31.5	12.5	1.01e-04	0	43	0	1267728384	19	4470
2026-01-02 00:29:44.78	197.14	10.37	-29.5	-31.4	12.5	1.07e-04	0	43	0	1274019840	19	4445
2026-01-02 00:29:47.79	197.17	10.10	-29.7	-31.8	12.3	1.84e-04	0	44	0	1279262720	19	4580
2026-01-02 00:29:50.79	197.20	9.84	-29.4	-31.0	12.7	6.48e-05	0	43	0	1284505600	19	4329
2026-01-02 00:29:53.80	197.23	9.58	-29.3	-31.2	13.0	9.53e-05	0	43	0	1290797056	18	4467
2026-01-02 00:29:56.82	197.26	9.32	-29.4	-31.6	12.6	1.79e-04	0	44	0	1296039936	18	4615
2026-01-02 00:29:59.82	197.29	9.07	-29.4	-31.6	12.6	2.05e-04	0	43	0	1302331392	18	4627
2026-01-02 00:30:02.83	197.32	8.82	-29.4	-31.5	12.7	8.77e-05	0	44	0	1307574272	18	4582
2026-01-02 00:30:05.83	197.35	8.57	-29.4	-31.6	12.5	1.29e-04	0	43	0	1312817152	18	4627
2026-01-02 00:30:08.84	197.38	8.32	-29.5	-31.4	12.3	1.51e-04	0	43	0	1319108608	19	4463
2026-01-02 00:30:11.85	197.41	8.08	-29.5	-31.4	12.3	2.39e-04	0	43	0	1324351488	19	4486
2026-01-02 00:30:14.87	197.43	7.84	-29.5	-31.3	12.3	3.29e-04	0	43	0	1329594368	19	4450
2026-01-02 00:30:17.87	197.46	7.60	-29.5	-31.8	12.3	2.77e-04	0	43	0	1335885824	18	4702
2026-01-02 00:30:20.87	197.49	7.36	-29.5	-31.5	12.2	4.82e-04	0	43	0	1341128704	19	4497
2026-01-02 00:30:23.87	197.52	7.13	-29.6	-31.6	12.0	4.09e-04	0	43	0	1347420160	19	4562
2026-01-02 00:30:26.88	197.54	6.89	-32.8	-45.3	3.8	1.49e+00	0	43	104	1347420160	25	15264

#Closed at: 2026-01-02 00:30:26
#Recorded file [1347 MB]: D:/data/31010_260102_031824.dat