passes_logs/2026/01/02/R2M6_AANII_01/R2M6_AANII_01__20260102_083231_SUOMI_NPP_rec.log

#Pass ID: 20260102_083231_SUOMI NPP
#Satellite: SUOMI NPP
#Configuration: NPP
#almurnet v.1.7.20240730
#Start time: 2026-01-02 08:32:32

#Version: 2.2.20231116
#Station: R2M6_AANII_01
#Location: 30.233357 lon 59.946436 lat
#TLE: 1 37849U 11061A   26001.07732418  .00000182  00000+0  10735-3 0  9990
#TLE: 2 37849  98.7795 303.2470 0002580  87.2016 272.9455 14.19520779734739

#Time	Az	El	Level	Level2	SNR	BER	BlckErr	Temp	State	Recorded	gain1	gain2
2026-01-02 08:32:32.89	102.91	7.08	-31.7	-38.2	4.3	1.40e+00	0	41	0	0	24	7618
2026-01-02 08:32:35.88	102.64	7.27	-31.5	-36.7	6.4	2.60e-01	0	41	0	1048576	24	6514
2026-01-02 08:32:38.90	102.37	7.47	-31.4	-35.7	7.1	2.09e-01	0	41	0	7340032	24	5932
2026-01-02 08:32:41.91	102.09	7.67	-30.8	-33.7	9.2	2.60e-02	0	41	0	12582912	23	5001
2026-01-02 08:32:44.92	101.81	7.87	-30.9	-34.6	8.8	2.45e-02	0	41	0	17825792	22	5520
2026-01-02 08:32:47.92	101.53	8.07	-30.9	-34.7	8.8	2.93e-02	0	41	0	24117248	22	5532
2026-01-02 08:32:50.93	101.24	8.27	-30.7	-34.0	9.2	1.88e-02	0	42	0	29360128	22	5246
2026-01-02 08:32:53.93	100.95	8.47	-30.7	-34.0	9.1	2.60e-02	0	42	0	35651584	22	5246
2026-01-02 08:32:56.95	100.65	8.67	-30.4	-33.0	10.0	7.65e-03	0	42	0	40894464	22	4829
2026-01-02 08:32:59.95	100.35	8.87	-30.7	-34.0	9.1	1.93e-02	0	42	0	46137344	22	5257
2026-01-02 08:33:02.95	100.05	9.08	-31.0	-34.9	8.5	4.35e-02	0	42	0	52428800	22	5673
2026-01-02 08:33:05.96	99.74	9.28	-31.1	-35.4	8.2	3.76e-02	0	42	0	57671680	22	5933
2026-01-02 08:33:08.97	99.42	9.49	-30.5	-32.9	10.2	8.98e-03	0	42	0	62914560	22	4765
2026-01-02 08:33:11.95	99.11	9.69	-30.7	-33.5	9.9	5.04e-03	0	42	0	69206016	22	4972
2026-01-02 08:33:14.97	98.78	9.90	-30.7	-33.6	9.7	1.64e-02	0	42	0	74448896	22	5040
2026-01-02 08:33:17.98	98.45	10.11	-30.5	-32.9	10.3	4.56e-03	0	42	0	80740352	22	4739
2026-01-02 08:33:20.98	98.12	10.32	-30.7	-33.7	9.7	1.10e-02	0	42	0	85983232	22	5085
2026-01-02 08:33:23.99	97.78	10.53	-30.7	-33.6	9.7	1.11e-02	0	42	0	91226112	22	5041
2026-01-02 08:33:27.00	97.44	10.74	-30.8	-33.9	9.5	1.25e-02	0	42	0	97517568	22	5162
2026-01-02 08:33:30.01	97.09	10.96	-31.1	-35.2	8.6	3.84e-02	0	42	0	102760448	22	5736
2026-01-02 08:33:33.02	96.74	11.17	-31.1	-35.2	8.6	2.42e-02	0	42	0	108003328	22	5731
2026-01-02 08:33:36.03	96.38	11.38	-31.2	-35.4	8.5	5.95e-02	0	42	0	114294784	22	5847
2026-01-02 08:33:39.04	96.02	11.60	-30.4	-32.3	11.0	4.45e-03	0	42	0	119537664	22	4480
2026-01-02 08:33:42.05	95.65	11.81	-30.1	-31.7	11.9	3.34e-04	0	42	0	125829120	21	4352
2026-01-02 08:33:45.06	95.27	12.03	-30.1	-31.7	11.9	3.44e-04	0	42	0	131072000	21	4353
2026-01-02 08:33:48.07	94.89	12.24	-30.1	-31.7	12.0	3.44e-04	0	43	0	136314880	21	4337
2026-01-02 08:33:51.08	94.51	12.46	-29.9	-31.2	12.4	1.47e-04	0	43	0	142606336	21	4159
2026-01-02 08:33:54.09	94.12	12.68	-29.9	-31.0	12.5	1.40e-04	0	43	0	147849216	21	4122
2026-01-02 08:33:57.10	93.72	12.90	-30.0	-31.3	12.4	1.89e-04	0	43	0	154140672	21	4207
2026-01-02 08:34:00.10	93.32	13.12	-29.9	-31.1	12.5	1.38e-04	0	43	0	159383552	21	4123
2026-01-02 08:34:03.11	92.91	13.34	-30.1	-31.7	12.1	2.84e-04	0	43	0	164626432	21	4327
2026-01-02 08:34:06.12	92.49	13.56	-30.2	-31.9	12.0	2.72e-04	0	43	0	170917888	21	4386
2026-01-02 08:34:09.13	92.07	13.78	-30.0	-31.4	12.3	1.40e-04	0	43	0	176160768	21	4235
2026-01-02 08:34:12.14	91.64	14.00	-30.1	-31.6	12.3	1.96e-04	0	43	0	181403648	21	4285
2026-01-02 08:34:15.15	91.20	14.22	-30.2	-32.1	11.8	4.36e-04	0	43	0	187695104	21	4508
2026-01-02 08:34:18.16	90.76	14.44	-30.2	-32.1	11.8	3.78e-04	0	43	0	192937984	21	4495
2026-01-02 08:34:21.17	90.31	14.66	-30.4	-32.7	11.4	8.08e-04	0	43	0	199229440	21	4723
2026-01-02 08:34:24.19	89.85	14.88	-30.2	-32.0	12.0	5.47e-04	0	43	0	204472320	21	4447
2026-01-02 08:34:27.19	89.39	15.11	-30.1	-31.9	12.1	2.29e-04	0	43	0	209715200	21	4403
2026-01-02 08:34:30.18	88.92	15.33	-30.4	-32.6	11.6	4.50e-04	0	43	0	216006656	21	4671
2026-01-02 08:34:33.17	88.45	15.55	-30.4	-32.6	11.5	8.32e-04	0	43	0	221249536	21	4666
2026-01-02 08:34:36.19	87.96	15.77	-30.4	-32.7	11.5	8.68e-04	0	43	0	226492416	21	4713
2026-01-02 08:34:39.19	87.47	15.99	-30.5	-32.9	11.4	9.59e-04	0	43	0	232783872	21	4758
2026-01-02 08:34:42.19	86.98	16.21	-30.2	-32.0	12.1	3.49e-04	0	43	0	238026752	21	4433
2026-01-02 08:34:45.20	86.47	16.44	-30.1	-31.8	12.2	2.50e-04	0	43	0	244318208	21	4381
2026-01-02 08:34:48.20	85.96	16.66	-30.4	-32.8	11.5	7.38e-04	0	43	0	249561088	21	4717
2026-01-02 08:34:51.20	85.44	16.88	-30.2	-32.0	12.1	2.37e-04	0	43	0	254803968	21	4442
2026-01-02 08:34:54.21	84.91	17.10	-30.4	-32.6	11.7	5.52e-04	0	43	0	261095424	21	4656
2026-01-02 08:34:57.22	84.37	17.32	-30.6	-33.1	11.4	8.07e-04	0	43	0	266338304	21	4811
2026-01-02 08:35:00.23	83.83	17.54	-30.8	-33.8	10.8	2.50e-03	0	43	0	271581184	21	5105
2026-01-02 08:35:03.23	83.27	17.76	-30.7	-33.6	11.0	1.91e-03	0	43	0	277872640	21	5012
2026-01-02 08:35:06.22	82.72	17.97	-30.5	-32.3	11.7	6.53e-04	0	43	0	283115520	22	4420
2026-01-02 08:35:09.24	82.14	18.19	-30.3	-32.2	12.0	2.39e-04	0	43	0	289406976	21	4500
2026-01-02 08:35:12.25	81.57	18.41	-30.3	-32.3	12.0	2.94e-04	0	43	0	294649856	21	4534
2026-01-02 08:35:15.26	80.98	18.62	-30.0	-31.3	12.6	6.02e-05	0	43	0	299892736	21	4213
2026-01-02 08:35:18.27	80.39	18.84	-29.7	-31.0	13.2	2.59e-05	0	43	0	306184192	20	4203
2026-01-02 08:35:21.29	79.78	19.05	-29.7	-31.1	13.2	2.28e-05	0	43	0	311427072	20	4220
2026-01-02 08:35:24.31	79.17	19.26	-29.1	-30.0	14.3	7.00e-07	0	43	0	317718528	19	3974
2026-01-02 08:35:27.32	78.55	19.47	-29.2	-30.2	14.2	2.20e-06	0	43	0	322961408	19	4027
2026-01-02 08:35:30.33	77.92	19.68	-29.3	-30.3	14.1	1.50e-06	0	43	0	328204288	19	4066
2026-01-02 08:35:33.34	77.28	19.88	-29.3	-30.5	14.0	3.00e-06	0	43	0	334495744	19	4112
2026-01-02 08:35:36.35	76.63	20.08	-29.1	-30.0	14.3	7.00e-07	0	43	0	339738624	19	3967
2026-01-02 08:35:39.36	75.98	20.28	-29.5	-30.8	13.8	1.50e-06	0	43	0	344981504	19	4203
2026-01-02 08:35:42.36	75.32	20.48	-29.5	-30.9	13.7	3.00e-06	0	43	0	351272960	19	4235
2026-01-02 08:35:45.37	74.65	20.68	-29.3	-30.2	14.2	1.50e-06	0	43	0	356515840	19	4032
2026-01-02 08:35:48.37	73.97	20.87	-28.9	-29.3	14.8	0.00e+00	0	43	0	362807296	19	3761
2026-01-02 08:35:51.37	73.28	21.06	-28.7	-29.4	15.0	0.00e+00	0	43	0	368050176	18	3876
2026-01-02 08:35:54.39	72.58	21.25	-28.7	-29.3	15.2	0.00e+00	0	43	0	373293056	18	3841
2026-01-02 08:35:57.41	71.87	21.43	-28.6	-29.0	15.3	7.00e-07	0	43	0	379584512	18	3759
2026-01-02 08:36:00.41	71.16	21.61	-28.8	-29.4	15.1	0.00e+00	0	43	0	384827392	18	3872
2026-01-02 08:36:03.42	70.44	21.79	-28.8	-29.5	15.1	0.00e+00	0	43	0	390070272	18	3892
2026-01-02 08:36:06.43	69.71	21.96	-28.5	-28.9	15.4	0.00e+00	0	43	0	396361728	18	3741
2026-01-02 08:36:09.43	68.97	22.13	-28.7	-29.3	15.2	0.00e+00	0	43	0	401604608	18	3839
2026-01-02 08:36:12.43	68.23	22.29	-28.7	-29.3	15.2	0.00e+00	0	43	0	407896064	18	3842
2026-01-02 08:36:15.44	67.47	22.46	-28.9	-29.8	14.9	0.00e+00	0	43	0	413138944	18	3978
2026-01-02 08:36:18.45	66.71	22.61	-28.9	-29.7	15.0	0.00e+00	0	43	0	418381824	18	3956
2026-01-02 08:36:21.46	65.94	22.76	-28.8	-29.5	15.0	0.00e+00	0	43	0	424673280	18	3887
2026-01-02 08:36:24.46	65.16	22.91	-28.8	-29.5	15.1	0.00e+00	0	43	0	429916160	18	3891
2026-01-02 08:36:27.45	64.39	23.05	-28.5	-28.7	15.6	0.00e+00	0	43	0	435159040	18	3693
2026-01-02 08:36:30.45	63.60	23.19	-28.5	-28.7	15.6	0.00e+00	0	43	0	441450496	18	3679
2026-01-02 08:36:33.45	62.80	23.32	-28.3	-28.8	15.8	7.00e-07	0	43	0	446693376	17	3789
2026-01-02 08:36:36.47	61.99	23.45	-28.8	-29.9	15.2	0.00e+00	0	43	0	452984832	17	4091
2026-01-02 08:36:39.47	61.18	23.57	-29.3	-30.7	14.4	3.00e-06	0	43	0	458227712	18	4224
2026-01-02 08:36:42.48	60.36	23.69	-30.0	-31.6	13.1	2.59e-05	0	43	0	463470592	20	4348
2026-01-02 08:36:45.49	59.54	23.80	-30.1	-31.8	12.9	6.71e-05	0	43	0	469762048	20	4394
2026-01-02 08:36:48.50	58.71	23.90	-29.6	-30.7	13.7	8.30e-06	0	43	0	475004928	20	4056
2026-01-02 08:36:51.51	57.87	24.00	-29.6	-30.7	13.7	1.06e-05	0	43	0	480247808	20	4057
2026-01-02 08:36:54.52	57.03	24.09	-29.3	-29.8	14.2	0.00e+00	0	43	0	486539264	20	3802
2026-01-02 08:36:57.54	56.19	24.17	-29.6	-31.1	13.8	7.00e-07	0	43	0	491782144	19	4273
2026-01-02 08:37:00.53	55.34	24.25	-29.8	-31.5	13.5	9.10e-06	0	43	0	498073600	19	4410
2026-01-02 08:37:03.54	54.49	24.32	-29.9	-31.9	13.2	1.29e-05	0	43	0	503316480	19	4539
2026-01-02 08:37:06.54	53.64	24.39	-30.2	-32.3	12.6	6.40e-05	0	43	0	508559360	20	4585
2026-01-02 08:37:09.57	52.77	24.45	-30.0	-31.8	13.0	4.57e-05	0	43	0	514850816	20	4409
2026-01-02 08:37:12.58	51.91	24.50	-30.2	-32.3	12.6	6.17e-05	0	43	0	520093696	20	4580
2026-01-02 08:37:15.58	51.04	24.54	-30.2	-32.4	12.6	6.63e-05	0	44	0	525336576	20	4610
2026-01-02 08:37:18.58	50.18	24.58	-30.2	-31.7	12.6	7.85e-05	0	43	0	531628032	21	4291
2026-01-02 08:37:21.60	49.31	24.61	-29.6	-30.6	13.8	3.80e-06	0	43	0	536870912	20	4026
2026-01-02 08:37:24.61	48.44	24.63	-29.3	-30.3	14.3	1.50e-06	0	43	0	543162368	19	4046
2026-01-02 08:37:27.63	47.56	24.65	-29.8	-31.6	13.5	1.22e-05	0	43	0	548405248	19	4440
2026-01-02 08:37:30.61	46.70	24.65	-30.1	-31.9	12.8	4.57e-05	0	43	0	553648128	20	4465
2026-01-02 08:37:33.62	45.82	24.66	-30.0	-31.6	13.1	4.04e-05	0	43	0	559939584	20	4356
2026-01-02 08:37:36.63	44.95	24.65	-29.5	-30.5	13.8	5.30e-06	0	43	0	565182464	20	4012
2026-01-02 08:37:39.64	44.08	24.64	-29.4	-30.2	13.9	6.10e-06	0	43	0	571473920	20	3916
2026-01-02 08:37:42.66	43.20	24.62	-29.5	-30.4	13.9	5.30e-06	0	43	0	576716800	20	3960
2026-01-02 08:37:45.66	42.34	24.59	-29.6	-30.9	13.9	3.00e-06	0	43	0	581959680	19	4194
2026-01-02 08:37:48.67	41.47	24.55	-29.3	-30.2	14.4	1.50e-06	0	43	0	588251136	19	3987
2026-01-02 08:37:51.68	40.60	24.51	-28.6	-28.8	15.5	0.00e+00	0	43	0	593494016	18	3698
2026-01-02 08:37:54.69	39.74	24.46	-28.4	-28.5	15.7	0.00e+00	0	43	0	598736896	18	3616
2026-01-02 08:37:57.70	38.88	24.41	-27.8	-28.1	16.5	0.00e+00	0	43	0	605028352	16	3702
2026-01-02 08:38:00.71	38.02	24.34	-28.2	-28.9	16.0	0.00e+00	0	43	0	610271232	16	3910
2026-01-02 08:38:03.72	37.17	24.27	-28.4	-29.4	15.7	0.00e+00	0	43	0	616562688	16	4040
2026-01-02 08:38:06.72	36.32	24.20	-28.5	-29.3	15.5	0.00e+00	0	43	0	621805568	17	3924
2026-01-02 08:38:09.74	35.47	24.12	-28.8	-29.8	15.2	0.00e+00	0	43	0	627048448	17	4046
2026-01-02 08:38:12.75	34.63	24.03	-28.8	-29.8	15.2	0.00e+00	0	43	0	633339904	17	4066
2026-01-02 08:38:15.76	33.80	23.93	-29.4	-31.1	14.1	7.00e-07	0	43	0	638582784	18	4341
2026-01-02 08:38:18.77	32.97	23.83	-29.3	-30.2	14.4	0.00e+00	0	43	0	643825664	19	3973
2026-01-02 08:38:21.79	32.14	23.72	-29.4	-30.5	14.2	3.00e-06	0	43	0	650117120	19	4070
2026-01-02 08:38:24.80	31.32	23.61	-29.8	-31.5	13.6	9.10e-06	0	44	0	655360000	19	4384
2026-01-02 08:38:27.80	30.51	23.49	-29.6	-30.9	13.9	6.80e-06	0	44	0	661651456	19	4197
2026-01-02 08:38:30.82	29.70	23.36	-30.0	-31.5	13.0	2.74e-05	0	43	0	666894336	20	4314
2026-01-02 08:38:33.82	28.91	23.23	-29.8	-31.2	13.2	2.89e-05	0	43	0	672137216	20	4229
2026-01-02 08:38:36.84	28.11	23.10	-29.7	-31.0	13.4	1.22e-05	0	43	0	678428672	20	4144
2026-01-02 08:38:39.84	27.33	22.96	-29.8	-31.1	13.3	1.22e-05	0	43	0	683671552	20	4189
2026-01-02 08:38:42.85	26.55	22.81	-29.9	-31.6	12.9	7.62e-05	0	43	0	689963008	20	4352
2026-01-02 08:38:45.86	25.78	22.66	-29.6	-30.7	13.5	1.44e-05	0	43	0	695205888	20	4070
2026-01-02 08:38:48.87	25.02	22.51	-29.6	-30.6	13.6	1.22e-05	0	43	0	700448768	20	4066
2026-01-02 08:38:51.88	24.26	22.35	-30.0	-31.9	12.7	2.51e-05	0	43	0	706740224	20	4442
2026-01-02 08:38:54.89	23.51	22.18	-30.2	-32.3	12.4	1.98e-04	0	43	0	711983104	20	4609
2026-01-02 08:38:57.90	22.77	22.02	-29.8	-31.1	13.2	2.74e-05	0	43	0	717225984	20	4212
2026-01-02 08:39:00.89	22.05	21.85	-29.9	-31.6	12.9	3.58e-05	0	43	0	723517440	20	4372
2026-01-02 08:39:03.90	21.33	21.67	-30.5	-32.7	11.8	8.47e-04	0	43	0	728760320	21	4646
2026-01-02 08:39:06.91	20.61	21.49	-30.1	-31.7	12.4	1.26e-04	0	43	0	735051776	21	4320
2026-01-02 08:39:09.92	19.90	21.31	-29.7	-31.0	13.3	1.90e-05	0	43	0	740294656	20	4155
2026-01-02 08:39:12.92	19.21	21.12	-29.8	-31.1	13.2	2.67e-05	0	43	0	745537536	20	4182
2026-01-02 08:39:15.93	18.52	20.94	-29.7	-31.0	13.2	2.97e-05	0	43	0	751828992	20	4179
2026-01-02 08:39:18.95	17.84	20.74	-29.1	-29.9	14.3	1.50e-06	0	43	0	757071872	19	3916
2026-01-02 08:39:21.96	17.17	20.55	-29.1	-29.7	14.5	1.50e-06	0	43	0	762314752	19	3873
2026-01-02 08:39:24.97	16.50	20.35	-28.9	-29.2	14.8	0.00e+00	0	43	0	768606208	19	3751
2026-01-02 08:39:27.97	15.85	20.15	-29.3	-30.9	14.0	3.00e-06	0	44	0	773849088	18	4327
2026-01-02 08:39:30.96	15.21	19.95	-29.8	-31.5	13.2	1.98e-05	0	43	0	780140544	19	4427
2026-01-02 08:39:33.97	14.57	19.75	-29.6	-31.2	13.4	2.51e-05	0	43	0	785383424	19	4336
2026-01-02 08:39:36.98	13.94	19.54	-29.5	-31.0	13.5	1.29e-05	0	43	0	790626304	19	4262
2026-01-02 08:39:39.99	13.32	19.34	-29.1	-29.9	14.2	2.20e-06	0	43	0	796917760	19	3930
2026-01-02 08:39:43.00	12.71	19.13	-29.0	-29.5	14.5	0.00e+00	0	43	0	802160640	19	3837
2026-01-02 08:39:46.00	12.11	18.92	-29.3	-30.5	13.9	0.00e+00	0	43	0	807403520	19	4100
2026-01-02 08:39:49.01	11.51	18.70	-29.7	-31.5	13.3	1.90e-05	0	43	0	813694976	19	4411
2026-01-02 08:39:52.01	10.93	18.49	-29.1	-29.9	14.2	7.00e-07	0	43	0	818937856	19	3944
2026-01-02 08:39:55.03	10.35	18.28	-29.6	-31.1	13.5	1.06e-05	0	44	0	825229312	19	4307
2026-01-02 08:39:58.05	9.78	18.06	-29.4	-30.5	13.9	7.60e-06	0	44	0	830472192	19	4105
2026-01-02 08:40:01.05	9.22	17.84	-29.0	-29.6	14.4	7.00e-07	0	43	0	835715072	19	3843
2026-01-02 08:40:04.07	8.66	17.62	-29.0	-29.5	14.5	3.00e-06	0	43	0	842006528	19	3818
2026-01-02 08:40:07.07	8.12	17.41	-29.0	-29.5	14.5	7.00e-07	0	43	0	847249408	19	3823
2026-01-02 08:40:10.07	7.58	17.19	-29.4	-30.5	13.8	2.20e-06	0	43	0	852492288	19	4116
2026-01-02 08:40:13.08	7.05	16.97	-29.0	-29.6	14.4	0.00e+00	0	43	0	858783744	19	3845
2026-01-02 08:40:16.08	6.53	16.75	-28.7	-29.1	15.0	0.00e+00	0	43	0	864026624	18	3809
2026-01-02 08:40:19.09	6.02	16.53	-29.0	-30.1	14.5	7.00e-07	0	44	0	870318080	18	4064
2026-01-02 08:40:22.09	5.51	16.31	-29.0	-30.2	14.4	0.00e+00	0	43	0	875560960	18	4099
2026-01-02 08:40:25.10	5.01	16.09	-29.2	-30.7	14.1	7.00e-07	0	43	0	880803840	18	4243
2026-01-02 08:40:28.12	4.52	15.86	-29.0	-30.0	14.4	0.00e+00	0	43	0	887095296	18	4052
2026-01-02 08:40:31.13	4.04	15.64	-28.8	-29.7	14.6	0.00e+00	0	43	0	892338176	18	3954
2026-01-02 08:40:34.14	3.56	15.42	-29.4	-31.2	13.7	1.50e-06	0	43	0	898629632	18	4422
2026-01-02 08:40:37.13	3.10	15.20	-30.1	-32.1	12.3	1.10e-04	0	44	0	903872512	20	4526
2026-01-02 08:40:40.14	2.63	14.98	-29.7	-30.9	13.1	2.74e-05	0	43	0	909115392	20	4137
2026-01-02 08:40:43.14	2.18	14.76	-29.5	-30.5	13.4	1.83e-05	0	43	0	915406848	20	4025
2026-01-02 08:40:46.15	1.73	14.54	-29.3	-30.0	13.7	3.00e-06	0	44	0	920649728	20	3870
2026-01-02 08:40:49.16	1.29	14.32	-29.5	-30.9	13.5	1.29e-05	0	43	0	925892608	19	4213
2026-01-02 08:40:52.16	0.85	14.10	-29.8	-31.8	12.9	4.11e-05	0	43	0	932184064	19	4505
2026-01-02 08:40:55.17	0.43	13.87	-29.9	-31.5	12.7	8.08e-05	0	43	0	937426944	20	4331
2026-01-02 08:40:58.17	0.01	13.66	-29.5	-30.5	13.3	4.73e-05	0	44	0	942669824	20	4029
2026-01-02 08:41:01.17	359.59	13.44	-29.1	-29.8	14.1	7.00e-07	0	44	0	948961280	19	3913
2026-01-02 08:41:04.17	359.18	13.22	-28.8	-29.3	14.4	2.20e-06	0	43	0	954204160	19	3771
2026-01-02 08:41:07.18	358.78	13.00	-29.1	-30.0	14.0	7.00e-07	0	43	0	960495616	19	3968
2026-01-02 08:41:10.19	358.38	12.78	-29.2	-30.3	13.7	6.80e-06	0	43	0	965738496	19	4060
2026-01-02 08:41:13.20	357.99	12.56	-29.2	-30.2	13.8	4.50e-06	0	43	0	970981376	19	4031
2026-01-02 08:41:16.20	357.61	12.35	-29.4	-30.8	13.4	4.50e-06	0	44	0	977272832	19	4224
2026-01-02 08:41:19.21	357.23	12.13	-29.8	-31.8	12.7	6.56e-05	0	43	0	982515712	19	4551
2026-01-02 08:41:22.21	356.85	11.92	-29.7	-31.6	12.8	4.95e-05	0	43	0	987758592	19	4486
2026-01-02 08:41:25.22	356.49	11.70	-29.8	-31.9	12.6	7.70e-05	0	43	0	994050048	19	4591
2026-01-02 08:41:28.23	356.12	11.49	-30.0	-32.0	12.1	1.76e-04	0	43	0	999292928	20	4556
2026-01-02 08:41:31.25	355.76	11.28	-30.1	-32.3	11.8	5.44e-04	0	43	0	1005584384	20	4660
2026-01-02 08:41:34.27	355.41	11.06	-29.9	-31.7	12.3	1.63e-04	0	43	0	1010827264	20	4442
2026-01-02 08:41:37.28	355.06	10.85	-29.7	-31.0	12.7	8.62e-05	0	43	0	1016070144	20	4220
2026-01-02 08:41:40.29	354.72	10.64	-29.8	-31.4	12.5	1.35e-04	0	43	0	1022361600	20	4345
2026-01-02 08:41:43.28	354.39	10.43	-30.2	-32.6	11.7	4.69e-04	0	44	0	1027604480	20	4770
2026-01-02 08:41:46.28	354.06	10.22	-30.4	-32.9	11.0	1.82e-03	0	44	0	1032847360	21	4779
2026-01-02 08:41:49.30	353.73	10.01	-30.6	-33.4	10.6	3.41e-03	0	43	0	1039138816	21	4986
2026-01-02 08:41:52.31	353.41	9.81	-30.4	-32.7	11.1	3.25e-03	0	43	0	1044381696	21	4719
2026-01-02 08:41:55.31	353.09	9.60	-30.0	-31.6	11.9	4.01e-04	0	43	0	1050673152	21	4324
2026-01-02 08:41:58.31	352.78	9.39	-30.0	-31.7	11.8	4.18e-04	0	44	0	1055916032	21	4368
2026-01-02 08:42:01.31	352.47	9.19	-30.1	-32.0	11.5	7.39e-04	0	43	0	1061158912	21	4479
2026-01-02 08:42:04.33	352.16	8.99	-30.4	-32.8	10.9	2.17e-03	0	43	0	1067450368	21	4773
2026-01-02 08:42:07.32	351.87	8.78	-30.5	-33.3	10.5	3.78e-03	0	43	0	1072693248	21	4965
2026-01-02 08:42:10.33	351.57	8.58	-30.7	-34.0	10.0	6.86e-03	0	43	0	1077936128	21	5248
2026-01-02 08:42:13.34	351.28	8.38	-30.7	-33.9	10.0	9.17e-03	0	43	0	1084227584	21	5227
2026-01-02 08:42:16.35	350.99	8.18	-30.5	-33.4	10.4	6.47e-03	0	43	0	1089470464	21	5022
2026-01-02 08:42:19.35	350.71	7.98	-30.5	-33.3	10.4	4.84e-03	0	44	0	1095761920	21	4991
2026-01-02 08:42:22.35	350.43	7.78	-30.5	-33.3	10.4	4.64e-03	0	44	0	1101004800	21	4982
2026-01-02 08:42:25.36	350.16	7.58	-30.5	-33.5	10.2	6.14e-03	0	43	0	1106247680	21	5083
2026-01-02 08:42:28.37	349.89	7.39	-30.7	-34.2	9.6	1.15e-02	0	43	0	1112539136	21	5402
2026-01-02 08:42:31.36	349.62	7.19	-30.9	-34.8	9.2	2.32e-02	0	43	0	1117782016	21	5650
2026-01-02 08:42:34.36	349.36	7.00	-32.8	-45.2	3.8	1.49e+00	0	43	104	1121976320	25	15001

#Closed at: 2026-01-02 08:42:37
#Recorded file [1121 MB]: D:/data/31010_260102_113234.dat