passes_logs/2026/01/02/R2M6_AANII_01/R2M6_AANII_01__20260102_121429_NOAA_20_JPSS-1_rec.log

#Pass ID: 20260102_121429_NOAA 20 (JPSS-1)
#Satellite: NOAA 20 (JPSS-1)
#Configuration: NOAA 20
#almurnet v.1.7.20240730
#Start time: 2026-01-02 12:14:30

#Version: 2.2.20231116
#Station: R2M6_AANII_01
#Location: 30.233357 lon 59.946436 lat
#TLE: 1 43013U 17073A   26001.30344297  .00000183  00000+0  10758-3 0  9995
#TLE: 2 43013  98.7621 302.3885 0001938  59.1624 300.9742 14.19532032420790

#Time	Az	El	Level	Level2	SNR	BER	BlckErr	Temp	State	Recorded	gain1	gain2
2026-01-02 12:14:30.43	224.76	7.06	-30.9	-35.8	5.2	1.16e+00	0	41	0	0	23	6277
2026-01-02 12:14:33.44	225.10	7.23	-31.3	-37.2	7.9	8.21e-02	0	41	0	1048576	23	7123
2026-01-02 12:14:36.45	225.44	7.40	-30.9	-35.4	9.3	2.41e-02	0	41	0	7340032	23	6060
2026-01-02 12:14:39.44	225.79	7.57	-30.9	-35.5	9.3	1.36e-02	0	41	0	12582912	23	6103
2026-01-02 12:14:42.44	226.13	7.74	-30.6	-34.8	10.2	7.85e-03	0	41	0	17825792	22	5847
2026-01-02 12:14:45.45	226.49	7.92	-30.5	-34.3	10.7	2.69e-03	0	41	0	24117248	22	5601
2026-01-02 12:14:48.47	226.85	8.09	-30.5	-34.3	10.7	2.60e-03	0	41	0	29360128	22	5593
2026-01-02 12:14:51.49	227.21	8.26	-30.3	-33.5	11.3	1.37e-03	0	42	0	35651584	22	5241
2026-01-02 12:14:54.49	227.58	8.43	-30.3	-34.2	11.1	1.29e-03	0	42	0	40894464	21	5641
2026-01-02 12:14:57.50	227.95	8.60	-30.3	-34.1	11.3	1.08e-03	0	42	0	46137344	21	5562
2026-01-02 12:15:00.50	228.32	8.78	-30.2	-33.9	11.4	9.68e-04	0	42	0	52428800	21	5514
2026-01-02 12:15:03.52	228.70	8.95	-30.0	-33.3	11.9	4.07e-04	0	42	0	57671680	21	5235
2026-01-02 12:15:06.53	229.08	9.12	-30.0	-33.2	12.0	4.24e-04	0	42	0	63963136	21	5192
2026-01-02 12:15:09.54	229.47	9.30	-30.0	-33.1	12.0	2.82e-04	0	42	0	69206016	21	5163
2026-01-02 12:15:12.54	229.86	9.47	-30.0	-33.2	12.0	3.07e-04	0	42	0	74448896	21	5180
2026-01-02 12:15:15.54	230.26	9.64	-29.9	-33.0	12.2	3.24e-04	0	42	0	80740352	21	5094
2026-01-02 12:15:18.55	230.66	9.81	-30.0	-33.0	12.2	2.38e-04	0	42	0	85983232	21	5092
2026-01-02 12:15:21.55	231.06	9.99	-30.1	-33.4	11.9	4.96e-04	0	42	0	91226112	21	5246
2026-01-02 12:15:24.57	231.48	10.16	-30.2	-33.6	11.8	4.73e-04	0	42	0	97517568	21	5334
2026-01-02 12:15:27.57	231.89	10.33	-30.2	-33.8	11.6	4.84e-04	0	42	0	102760448	21	5445
2026-01-02 12:15:30.58	232.31	10.50	-30.0	-33.2	12.0	2.92e-04	0	42	0	108003328	21	5191
2026-01-02 12:15:33.58	232.73	10.68	-30.0	-33.1	12.2	2.33e-04	0	42	0	114294784	21	5139
2026-01-02 12:15:36.60	233.16	10.85	-30.0	-33.1	12.2	2.04e-04	0	42	0	119537664	21	5136
2026-01-02 12:15:39.61	233.60	11.02	-30.1	-33.2	12.1	2.01e-04	0	42	0	125829120	21	5173
2026-01-02 12:15:42.63	234.04	11.19	-30.1	-33.2	12.1	3.39e-04	0	43	0	131072000	21	5176
2026-01-02 12:15:45.65	234.49	11.37	-29.9	-32.8	12.5	1.62e-04	0	43	0	136314880	21	4992
2026-01-02 12:15:48.66	234.94	11.54	-30.0	-33.1	12.2	1.66e-04	0	43	0	142606336	21	5133
2026-01-02 12:15:51.67	235.39	11.71	-29.9	-32.6	12.6	1.01e-04	0	43	0	147849216	21	4944
2026-01-02 12:15:54.68	235.85	11.88	-29.9	-32.8	12.5	1.50e-04	0	43	0	154140672	21	5006
2026-01-02 12:15:57.69	236.32	12.05	-29.9	-32.7	12.6	1.10e-04	0	43	0	159383552	21	4958
2026-01-02 12:16:00.69	236.78	12.22	-30.0	-32.8	12.4	1.81e-04	0	43	0	164626432	21	5013
2026-01-02 12:16:03.70	237.26	12.39	-30.1	-33.1	12.3	1.61e-04	0	43	0	170917888	21	5130
2026-01-02 12:16:06.71	237.74	12.55	-30.1	-33.4	12.1	2.11e-04	0	43	0	176160768	21	5218
2026-01-02 12:16:09.74	238.23	12.72	-29.8	-32.3	12.8	6.63e-05	0	43	0	182452224	21	4823
2026-01-02 12:16:12.75	238.72	12.89	-29.7	-32.5	13.1	3.50e-05	0	43	0	187695104	20	4971
2026-01-02 12:16:15.75	239.22	13.05	-29.7	-32.6	13.0	3.73e-05	0	43	0	192937984	20	5035
2026-01-02 12:16:18.76	239.72	13.22	-29.6	-32.3	13.2	2.82e-05	0	43	0	199229440	20	4920
2026-01-02 12:16:21.76	240.23	13.38	-29.6	-32.1	13.3	8.30e-06	0	43	0	204472320	20	4849
2026-01-02 12:16:24.77	240.74	13.55	-29.6	-32.2	13.3	2.05e-05	0	43	0	209715200	20	4881
2026-01-02 12:16:27.78	241.26	13.71	-29.5	-31.9	13.5	1.06e-05	0	43	0	216006656	20	4779
2026-01-02 12:16:30.79	241.78	13.87	-29.4	-31.8	13.6	1.83e-05	0	43	0	221249536	20	4718
2026-01-02 12:16:33.79	242.31	14.03	-29.4	-32.1	13.8	4.50e-06	0	43	0	227540992	19	4907
2026-01-02 12:16:36.79	242.84	14.19	-29.4	-32.0	13.9	1.50e-06	0	43	0	232783872	19	4898
2026-01-02 12:16:39.80	243.38	14.34	-29.4	-32.1	13.9	5.30e-06	0	43	0	238026752	19	4911
2026-01-02 12:16:42.82	243.93	14.50	-29.4	-32.2	13.9	3.00e-06	0	43	0	244318208	19	4946
2026-01-02 12:16:45.83	244.49	14.65	-29.3	-32.0	13.9	5.30e-06	0	43	0	249561088	19	4864
2026-01-02 12:16:48.83	245.04	14.81	-29.4	-32.3	13.8	3.00e-06	0	43	0	254803968	19	4980
2026-01-02 12:16:51.85	245.61	14.96	-29.6	-32.6	13.5	9.10e-06	0	43	0	261095424	19	5108
2026-01-02 12:16:54.86	246.17	15.11	-29.5	-32.5	13.6	9.90e-06	0	43	0	266338304	19	5059
2026-01-02 12:16:57.86	246.75	15.26	-29.7	-32.8	13.4	1.14e-05	0	43	0	272629760	19	5173
2026-01-02 12:17:00.87	247.33	15.40	-29.9	-33.6	12.9	3.50e-05	0	43	0	277872640	19	5478
2026-01-02 12:17:03.87	247.91	15.55	-29.8	-33.3	13.1	3.35e-05	0	43	0	283115520	19	5379
2026-01-02 12:17:06.87	248.50	15.69	-30.2	-34.0	12.2	1.91e-04	0	43	0	289406976	20	5566
2026-01-02 12:17:09.88	249.09	15.83	-29.9	-33.0	12.9	5.41e-05	0	43	0	294649856	20	5155
2026-01-02 12:17:12.89	249.70	15.97	-30.0	-33.3	12.7	7.93e-05	0	43	0	300941312	20	5262
2026-01-02 12:17:15.90	250.30	16.10	-30.1	-33.6	12.6	9.23e-05	0	43	0	306184192	20	5373
2026-01-02 12:17:18.90	250.91	16.23	-30.3	-34.0	12.3	1.90e-04	0	43	0	311427072	20	5555
2026-01-02 12:17:21.91	251.53	16.37	-30.3	-34.2	12.1	3.20e-04	0	43	0	317718528	20	5641
2026-01-02 12:17:24.92	252.15	16.49	-30.6	-34.6	11.5	5.71e-04	0	43	0	322961408	21	5697
2026-01-02 12:17:27.93	252.78	16.62	-30.6	-34.7	11.4	1.21e-03	0	43	0	328204288	21	5765
2026-01-02 12:17:30.94	253.41	16.74	-30.4	-33.8	12.1	2.92e-04	0	43	0	334495744	21	5359
2026-01-02 12:17:33.95	254.05	16.86	-30.3	-33.6	12.2	1.98e-04	0	43	0	339738624	21	5278
2026-01-02 12:17:36.96	254.69	16.98	-30.3	-33.7	12.1	2.01e-04	0	43	0	346030080	21	5332
2026-01-02 12:17:39.97	255.34	17.10	-30.1	-33.0	12.7	7.93e-05	0	43	0	351272960	21	5029
2026-01-02 12:17:42.97	255.99	17.21	-30.1	-33.0	12.7	9.23e-05	0	43	0	356515840	21	5033
2026-01-02 12:17:45.99	256.65	17.32	-30.1	-33.1	12.6	9.23e-05	0	43	0	362807296	21	5067
2026-01-02 12:17:48.99	257.31	17.42	-30.1	-32.9	12.7	4.88e-05	0	43	0	368050176	21	4996
2026-01-02 12:17:51.99	257.97	17.53	-29.8	-32.6	13.3	1.29e-05	0	43	0	373293056	20	5003
2026-01-02 12:17:55.00	258.64	17.63	-29.9	-33.0	13.0	4.95e-05	0	43	0	379584512	20	5149
2026-01-02 12:17:58.02	259.32	17.72	-30.0	-33.2	12.9	4.42e-05	0	43	0	384827392	20	5206
2026-01-02 12:18:01.02	259.99	17.81	-30.2	-33.9	12.4	1.16e-04	0	43	0	391118848	20	5489
2026-01-02 12:18:04.03	260.68	17.90	-29.9	-32.9	13.2	2.28e-05	0	43	0	396361728	20	5093
2026-01-02 12:18:07.05	261.36	17.99	-29.9	-32.9	13.1	2.89e-05	0	43	0	401604608	20	5108
2026-01-02 12:18:10.07	262.06	18.07	-30.0	-33.2	12.9	3.35e-05	0	43	0	407896064	20	5214
2026-01-02 12:18:13.07	262.75	18.15	-30.1	-33.4	12.8	5.11e-05	0	43	0	413138944	20	5295
2026-01-02 12:18:16.09	263.45	18.22	-29.8	-32.7	13.3	2.28e-05	0	43	0	419430400	20	5008
2026-01-02 12:18:19.08	264.14	18.29	-29.9	-32.8	13.2	3.35e-05	0	43	0	424673280	20	5069
2026-01-02 12:18:22.10	264.85	18.36	-29.9	-32.8	13.2	2.59e-05	0	43	0	429916160	20	5066
2026-01-02 12:18:25.12	265.55	18.42	-29.8	-32.8	13.2	1.60e-05	0	43	0	436207616	20	5056
2026-01-02 12:18:28.14	266.26	18.48	-29.9	-33.0	13.1	2.89e-05	0	43	0	441450496	20	5146
2026-01-02 12:18:31.14	266.97	18.53	-29.8	-32.7	13.3	1.60e-05	0	43	0	446693376	20	5017
2026-01-02 12:18:34.15	267.69	18.58	-29.6	-32.2	13.6	6.80e-06	0	43	0	452984832	20	4830
2026-01-02 12:18:37.16	268.40	18.62	-29.7	-32.3	13.6	9.90e-06	0	43	0	458227712	20	4876
2026-01-02 12:18:40.18	269.12	18.66	-29.9	-33.0	13.1	3.66e-05	0	43	0	464519168	20	5145
2026-01-02 12:18:43.17	269.83	18.70	-30.0	-33.1	13.0	4.80e-05	0	43	0	469762048	20	5172
2026-01-02 12:18:46.17	270.55	18.73	-29.9	-32.9	13.2	3.20e-05	0	43	0	475004928	20	5091
2026-01-02 12:18:49.18	271.27	18.76	-30.0	-33.2	12.9	3.05e-05	0	43	0	481296384	20	5200
2026-01-02 12:18:52.18	271.99	18.78	-30.3	-34.0	12.4	1.12e-04	0	43	0	486539264	20	5522
2026-01-02 12:18:55.19	272.72	18.80	-30.5	-34.6	12.0	2.62e-04	0	43	0	491782144	20	5768
2026-01-02 12:18:58.20	273.44	18.82	-30.4	-34.0	12.1	3.11e-04	0	43	0	498073600	21	5426
2026-01-02 12:19:01.21	274.17	18.83	-30.3	-33.5	12.4	1.52e-04	0	43	0	503316480	21	5215
2026-01-02 12:19:04.21	274.89	18.83	-30.6	-34.6	11.6	3.58e-04	0	43	0	509607936	21	5677
2026-01-02 12:19:07.22	275.61	18.84	-31.2	-35.9	10.3	4.43e-03	0	43	0	514850816	22	6196
2026-01-02 12:19:10.22	276.34	18.83	-30.6	-33.9	11.8	5.94e-04	0	43	0	520093696	22	5293
2026-01-02 12:19:13.23	277.06	18.82	-30.4	-33.2	12.3	2.44e-04	0	43	0	526385152	22	4986
2026-01-02 12:19:16.24	277.79	18.81	-30.1	-33.0	12.7	9.00e-05	0	43	0	531628032	21	5020
2026-01-02 12:19:19.24	278.51	18.80	-30.1	-33.0	12.8	6.63e-05	0	43	0	536870912	21	5011
2026-01-02 12:19:22.23	279.23	18.77	-30.3	-33.6	12.4	1.40e-04	0	43	0	543162368	21	5252
2026-01-02 12:19:25.23	279.95	18.75	-30.2	-33.3	12.6	6.25e-05	0	43	0	548405248	21	5139
2026-01-02 12:19:28.23	280.66	18.72	-30.1	-32.9	12.8	8.69e-05	0	44	0	553648128	21	4996
2026-01-02 12:19:31.23	281.38	18.69	-30.2	-33.1	12.7	5.49e-05	0	43	0	559939584	21	5073
2026-01-02 12:19:34.23	282.09	18.65	-30.3	-33.6	12.3	1.75e-04	0	43	0	565182464	21	5278
2026-01-02 12:19:37.24	282.81	18.61	-30.4	-33.8	12.2	2.20e-04	0	44	0	571473920	21	5333
2026-01-02 12:19:40.25	283.52	18.56	-30.4	-33.9	12.2	1.46e-04	0	43	0	576716800	21	5374
2026-01-02 12:19:43.26	284.23	18.51	-29.9	-32.4	13.2	3.50e-05	0	43	0	581959680	21	4793
2026-01-02 12:19:46.27	284.94	18.45	-29.7	-32.2	13.6	8.30e-06	0	43	0	588251136	20	4838
2026-01-02 12:19:49.27	285.65	18.39	-29.8	-32.5	13.4	9.10e-06	0	43	0	593494016	20	4949
2026-01-02 12:19:52.29	286.35	18.33	-29.9	-32.9	13.2	2.36e-05	0	43	0	599785472	20	5104
2026-01-02 12:19:55.29	287.05	18.26	-29.9	-32.9	13.1	2.67e-05	0	43	0	605028352	20	5105
2026-01-02 12:19:58.28	287.74	18.19	-30.0	-33.1	13.1	3.89e-05	0	43	0	610271232	20	5160
2026-01-02 12:20:01.29	288.43	18.12	-30.0	-33.1	13.0	3.05e-05	0	43	0	616562688	20	5173
2026-01-02 12:20:04.30	289.12	18.04	-29.8	-32.6	13.3	1.60e-05	0	43	0	621805568	20	4990
2026-01-02 12:20:07.32	289.81	17.96	-29.5	-31.9	13.8	6.80e-06	0	43	0	627048448	20	4732
2026-01-02 12:20:10.32	290.49	17.87	-29.4	-31.6	14.0	3.80e-06	0	43	0	633339904	20	4625
2026-01-02 12:20:13.33	291.17	17.78	-29.6	-32.1	13.6	1.50e-06	0	43	0	638582784	20	4809
2026-01-02 12:20:16.32	291.84	17.69	-29.5	-31.8	13.9	2.20e-06	0	43	0	643825664	20	4688
2026-01-02 12:20:19.33	292.51	17.59	-29.4	-31.7	13.9	3.00e-06	0	43	0	650117120	20	4659
2026-01-02 12:20:22.34	293.18	17.49	-29.6	-32.1	13.7	7.60e-06	0	43	0	655360000	20	4806
2026-01-02 12:20:25.34	293.84	17.39	-29.3	-31.8	14.3	0.00e+00	0	43	0	661651456	19	4780
2026-01-02 12:20:28.35	294.49	17.28	-29.5	-32.3	14.0	2.20e-06	0	43	0	666894336	19	4950
2026-01-02 12:20:31.36	295.15	17.17	-29.4	-32.1	14.0	1.50e-06	0	43	0	672137216	19	4911
2026-01-02 12:20:34.37	295.79	17.06	-29.9	-33.3	13.3	1.52e-05	0	43	0	678428672	19	5346
2026-01-02 12:20:37.39	296.44	16.94	-30.0	-33.2	13.0	9.61e-05	0	43	0	683671552	20	5204
2026-01-02 12:20:40.40	297.08	16.83	-29.1	-31.3	14.6	0.00e+00	0	43	0	689963008	19	4617
2026-01-02 12:20:43.42	297.71	16.70	-29.1	-31.3	14.6	0.00e+00	0	43	0	695205888	19	4623
2026-01-02 12:20:46.42	298.34	16.58	-29.6	-32.5	13.8	1.50e-06	0	43	0	700448768	19	5049
2026-01-02 12:20:49.44	298.96	16.45	-29.2	-31.6	14.3	1.50e-06	0	43	0	706740224	19	4732
2026-01-02 12:20:52.45	299.58	16.33	-29.4	-32.0	14.1	7.00e-07	0	43	0	711983104	19	4864
2026-01-02 12:20:55.47	300.20	16.19	-29.3	-31.8	14.2	0.00e+00	0	43	0	717225984	19	4810
2026-01-02 12:20:58.49	300.81	16.06	-29.3	-31.9	14.1	2.20e-06	0	43	0	723517440	19	4816
2026-01-02 12:21:01.50	301.41	15.92	-29.4	-31.9	14.1	1.50e-06	0	43	0	728760320	19	4832
2026-01-02 12:21:04.51	302.01	15.79	-29.6	-32.6	13.7	2.20e-06	0	43	0	735051776	19	5089
2026-01-02 12:21:07.52	302.60	15.65	-30.0	-33.2	12.9	4.50e-05	0	43	0	740294656	20	5211
2026-01-02 12:21:10.53	303.18	15.50	-30.1	-33.5	12.6	9.07e-05	0	43	0	745537536	20	5352
2026-01-02 12:21:13.53	303.76	15.36	-30.2	-33.7	12.6	1.23e-04	0	43	0	751828992	20	5422
2026-01-02 12:21:16.54	304.34	15.22	-30.0	-33.3	12.8	1.04e-04	0	43	0	757071872	20	5272
2026-01-02 12:21:19.55	304.90	15.07	-29.9	-33.0	13.0	3.73e-05	0	43	0	763363328	20	5146
2026-01-02 12:21:22.56	305.47	14.92	-30.0	-33.3	12.8	4.80e-05	0	44	0	768606208	20	5255
2026-01-02 12:21:25.57	306.03	14.77	-30.2	-33.8	12.4	1.41e-04	0	43	0	773849088	20	5473
2026-01-02 12:21:28.58	306.58	14.62	-30.4	-34.4	12.0	2.59e-04	0	43	0	780140544	20	5719
2026-01-02 12:21:31.59	307.13	14.46	-30.5	-34.2	11.7	5.18e-04	0	44	0	785383424	21	5537
2026-01-02 12:21:34.59	307.67	14.31	-30.6	-34.6	11.5	9.04e-04	0	43	0	790626304	21	5726
2026-01-02 12:21:37.60	308.20	14.15	-30.5	-34.2	11.7	8.74e-04	0	44	0	796917760	21	5533
2026-01-02 12:21:40.61	308.73	13.99	-30.2	-33.4	12.3	2.26e-04	0	43	0	802160640	21	5188
2026-01-02 12:21:43.64	309.26	13.83	-30.3	-33.6	12.1	2.12e-04	0	43	0	808452096	21	5292
2026-01-02 12:21:46.66	309.78	13.67	-29.9	-32.6	12.9	7.09e-05	0	43	0	813694976	21	4890
2026-01-02 12:21:49.67	310.30	13.51	-29.9	-32.6	12.8	5.18e-05	0	44	0	818937856	21	4899
2026-01-02 12:21:52.68	310.81	13.35	-30.1	-33.7	12.4	1.30e-04	0	44	0	825229312	20	5438
2026-01-02 12:21:55.69	311.31	13.19	-30.0	-33.5	12.6	1.33e-04	0	43	0	830472192	20	5344
2026-01-02 12:21:58.69	311.81	13.02	-30.3	-34.1	12.1	2.20e-04	0	43	0	836763648	20	5600
2026-01-02 12:22:01.70	312.30	12.86	-30.7	-34.9	11.2	1.35e-03	0	43	0	842006528	21	5866
2026-01-02 12:22:04.71	312.79	12.69	-30.8	-35.2	10.9	1.80e-03	0	43	0	847249408	21	6001
2026-01-02 12:22:07.71	313.27	12.53	-29.8	-32.2	13.0	1.07e-04	0	43	0	853540864	21	4768
2026-01-02 12:22:10.71	313.74	12.36	-29.9	-33.0	12.9	2.44e-05	0	44	0	858783744	20	5153
2026-01-02 12:22:13.71	314.21	12.19	-29.7	-32.4	13.2	2.13e-05	0	43	0	864026624	20	4918
2026-01-02 12:22:16.71	314.68	12.03	-29.7	-32.6	13.1	2.67e-05	0	44	0	870318080	20	5003
2026-01-02 12:22:19.72	315.14	11.86	-29.8	-32.7	13.0	3.35e-05	0	43	0	875560960	20	5062
2026-01-02 12:22:22.72	315.59	11.69	-29.9	-33.2	12.6	6.33e-05	0	44	0	880803840	20	5245
2026-01-02 12:22:25.73	316.04	11.52	-30.1	-33.7	12.3	2.10e-04	0	43	0	887095296	20	5442
2026-01-02 12:22:28.74	316.49	11.35	-30.2	-33.9	12.2	2.43e-04	0	43	0	892338176	20	5515
2026-01-02 12:22:31.74	316.93	11.18	-30.5	-34.8	11.5	4.33e-04	0	43	0	898629632	20	5944
2026-01-02 12:22:34.75	317.37	11.01	-29.8	-32.4	12.8	9.07e-05	0	44	0	903872512	21	4830
2026-01-02 12:22:37.76	317.80	10.84	-30.0	-33.3	12.5	8.31e-05	0	44	0	909115392	20	5291
2026-01-02 12:22:40.76	318.22	10.67	-30.2	-34.1	12.0	3.85e-04	0	44	0	915406848	20	5619
2026-01-02 12:22:43.77	318.64	10.50	-30.3	-34.2	11.9	3.97e-04	0	43	0	920649728	20	5678
2026-01-02 12:22:46.78	319.06	10.33	-30.3	-34.4	11.7	5.19e-04	0	43	0	925892608	20	5785
2026-01-02 12:22:49.79	319.47	10.16	-30.8	-35.6	10.5	2.35e-03	0	43	0	932184064	21	6230
2026-01-02 12:22:52.80	319.88	9.99	-30.7	-35.2	10.7	2.79e-03	0	43	0	937426944	21	6044
2026-01-02 12:22:55.81	320.28	9.82	-30.8	-35.5	10.5	3.05e-03	0	43	0	943718400	21	6205
2026-01-02 12:22:58.82	320.68	9.65	-30.2	-33.8	11.6	1.22e-03	0	44	0	948961280	21	5420
2026-01-02 12:23:01.84	321.08	9.47	-30.0	-33.1	12.1	1.36e-03	0	44	0	954204160	21	5126
2026-01-02 12:23:04.84	321.47	9.30	-30.1	-33.2	12.1	2.95e-04	0	44	0	960495616	21	5176
2026-01-02 12:23:07.86	321.85	9.13	-30.3	-34.1	11.5	6.88e-04	0	43	0	965738496	21	5541
2026-01-02 12:23:10.86	322.23	8.96	-30.2	-33.6	11.7	8.34e-04	0	43	0	972029952	21	5368
2026-01-02 12:23:13.87	322.61	8.79	-30.3	-33.8	11.6	5.61e-04	0	43	0	977272832	21	5436
2026-01-02 12:23:16.88	322.98	8.62	-30.3	-34.1	11.3	2.77e-03	0	43	0	982515712	21	5572
2026-01-02 12:23:19.88	323.35	8.45	-30.4	-34.4	11.0	2.16e-03	0	44	0	988807168	21	5743
2026-01-02 12:23:22.89	323.71	8.28	-30.5	-35.2	10.3	1.01e-02	0	43	0	994050048	21	6148
2026-01-02 12:23:25.90	324.07	8.11	-30.4	-35.0	10.3	1.81e-02	0	43	0	999292928	21	6117
2026-01-02 12:23:28.91	324.43	7.94	-30.9	-36.2	9.8	6.94e-03	0	43	0	1005584384	21	6587
2026-01-02 12:23:31.91	324.78	7.77	-30.5	-35.3	9.6	1.61e-02	0	43	0	1010827264	22	6290
2026-01-02 12:23:34.92	325.13	7.60	-30.6	-35.6	9.4	1.90e-02	0	43	0	1017118720	22	6404
2026-01-02 12:23:37.92	325.47	7.43	-30.7	-35.3	9.8	1.33e-02	0	44	0	1022361600	22	6134
2026-01-02 12:23:40.93	325.81	7.26	-30.5	-34.3	10.6	1.02e-02	0	44	0	1027604480	22	5608
2026-01-02 12:23:43.95	326.15	7.09	-30.9	-35.4	10.0	6.66e-03	0	44	0	1033895936	22	6069

#Closed at: 2026-01-02 12:23:46
#Recorded file [1034 MB]: D:/data/31010_260102_151432.dat