passes_logs/2026/01/02/R2M6_AANII_01/R2M6_AANII_01__20260102_085240_NOAA_20_JPSS-1_rec.log

#Pass ID: 20260102_085240_NOAA 20 (JPSS-1)
#Satellite: NOAA 20 (JPSS-1)
#Configuration: NOAA 20
#almurnet v.1.7.20240730
#Start time: 2026-01-02 08:52:39

#Version: 2.2.20231116
#Station: R2M6_AANII_01
#Location: 30.233357 lon 59.946436 lat
#TLE: 1 43013U 17073A   26001.30344297  .00000183  00000+0  10758-3 0  9995
#TLE: 2 43013  98.7621 302.3885 0001938  59.1624 300.9742 14.19532032420790

#Time	Az	El	Level	Level2	SNR	BER	BlckErr	Temp	State	Recorded	gain1	gain2
2026-01-02 08:52:39.85	115.74	6.96	-31.8	-39.4	4.4	1.39e+00	0	41	0	0	25	8621
2026-01-02 08:52:42.86	115.53	7.17	-31.5	-37.9	7.0	1.80e-01	0	41	0	1048576	24	7500
2026-01-02 08:52:45.86	115.31	7.39	-31.6	-38.1	6.8	1.75e-01	0	41	0	7340032	24	7610
2026-01-02 08:52:48.86	115.10	7.60	-31.3	-36.7	8.0	8.62e-02	0	41	0	12582912	24	6658
2026-01-02 08:52:51.87	114.88	7.81	-30.8	-35.0	9.8	1.42e-02	0	41	0	17825792	23	5806
2026-01-02 08:52:54.87	114.65	8.03	-30.6	-34.7	10.4	4.39e-03	0	41	0	24117248	22	5766
2026-01-02 08:52:57.87	114.42	8.25	-30.6	-34.5	10.7	3.40e-03	0	41	0	29360128	22	5637
2026-01-02 08:53:00.88	114.19	8.47	-30.5	-34.3	10.8	2.68e-03	0	41	0	35651584	22	5569
2026-01-02 08:53:03.89	113.96	8.69	-30.5	-34.1	11.0	1.77e-03	0	41	0	40894464	22	5469
2026-01-02 08:53:06.89	113.72	8.91	-30.4	-33.8	11.3	1.28e-03	0	41	0	46137344	22	5322
2026-01-02 08:53:09.90	113.48	9.13	-30.5	-34.0	11.1	1.41e-03	0	42	0	52428800	22	5418
2026-01-02 08:53:12.91	113.23	9.36	-30.5	-34.0	11.2	1.48e-03	0	42	0	57671680	22	5412
2026-01-02 08:53:15.92	112.98	9.58	-30.4	-33.9	11.3	1.29e-03	0	42	0	62914560	22	5349
2026-01-02 08:53:18.93	112.72	9.81	-30.4	-33.9	11.3	1.16e-03	0	42	0	69206016	22	5345
2026-01-02 08:53:21.93	112.46	10.04	-30.2	-33.7	11.8	5.32e-04	0	42	0	74448896	21	5374
2026-01-02 08:53:24.93	112.20	10.27	-30.2	-33.5	11.9	3.45e-04	0	42	0	80740352	21	5302
2026-01-02 08:53:27.94	111.93	10.50	-30.3	-34.0	11.7	6.15e-04	0	42	0	85983232	21	5478
2026-01-02 08:53:30.96	111.66	10.74	-30.1	-33.4	12.1	2.99e-04	0	42	0	91226112	21	5230
2026-01-02 08:53:33.97	111.39	10.98	-30.1	-33.1	12.3	1.77e-04	0	42	0	97517568	21	5113
2026-01-02 08:53:36.96	111.11	11.21	-30.2	-33.5	12.1	3.00e-04	0	42	0	102760448	21	5271
2026-01-02 08:53:39.98	110.82	11.45	-30.2	-33.5	12.0	3.45e-04	0	42	0	108003328	21	5283
2026-01-02 08:53:42.98	110.53	11.69	-30.3	-33.7	11.9	2.94e-04	0	42	0	114294784	21	5342
2026-01-02 08:53:45.98	110.23	11.93	-30.3	-33.9	11.8	8.19e-04	0	42	0	119537664	21	5419
2026-01-02 08:53:49.01	109.93	12.18	-30.3	-33.7	12.0	3.35e-04	0	42	0	125829120	21	5342
2026-01-02 08:53:52.00	109.63	12.42	-30.3	-33.8	12.0	3.28e-04	0	42	0	131072000	21	5375
2026-01-02 08:53:55.01	109.32	12.67	-30.2	-33.5	12.2	2.49e-04	0	43	0	136314880	21	5237
2026-01-02 08:53:58.02	109.00	12.92	-30.3	-33.6	12.1	3.00e-04	0	42	0	142606336	21	5277
2026-01-02 08:54:01.03	108.68	13.17	-30.4	-34.0	11.8	4.78e-04	0	42	0	147849216	21	5475
2026-01-02 08:54:04.05	108.35	13.43	-30.5	-34.2	11.7	4.39e-04	0	42	0	153092096	21	5558
2026-01-02 08:54:07.06	108.02	13.68	-30.3	-33.7	12.1	2.78e-04	0	42	0	159383552	21	5313
2026-01-02 08:54:10.08	107.67	13.94	-30.4	-34.0	12.0	2.62e-04	0	42	0	164626432	21	5427
2026-01-02 08:54:13.08	107.33	14.19	-30.4	-33.9	12.0	4.03e-04	0	42	0	170917888	21	5392
2026-01-02 08:54:16.09	106.98	14.45	-30.5	-34.4	11.7	5.95e-04	0	43	0	176160768	21	5602
2026-01-02 08:54:19.10	106.62	14.71	-30.6	-34.5	11.6	6.34e-04	0	43	0	181403648	21	5637
2026-01-02 08:54:22.11	106.26	14.98	-30.4	-34.0	11.9	5.03e-04	0	42	0	187695104	21	5456
2026-01-02 08:54:25.12	105.89	15.24	-30.5	-34.4	11.7	6.02e-04	0	43	0	192937984	21	5606
2026-01-02 08:54:28.13	105.51	15.51	-30.2	-33.3	12.5	1.31e-04	0	43	0	199229440	21	5164
2026-01-02 08:54:31.13	105.12	15.77	-30.2	-33.2	12.6	9.68e-05	0	43	0	204472320	21	5115
2026-01-02 08:54:34.14	104.73	16.04	-30.3	-33.5	12.4	1.63e-04	0	43	0	209715200	21	5232
2026-01-02 08:54:37.15	104.33	16.31	-30.2	-33.4	12.5	1.38e-04	0	43	0	216006656	21	5193
2026-01-02 08:54:40.16	103.93	16.59	-30.1	-33.0	12.8	8.46e-05	0	43	0	221249536	21	5020
2026-01-02 08:54:43.17	103.51	16.86	-30.0	-32.7	13.0	4.65e-05	0	43	0	226492416	21	4913
2026-01-02 08:54:46.17	103.09	17.14	-30.0	-32.6	13.1	2.89e-05	0	43	0	232783872	21	4886
2026-01-02 08:54:49.17	102.66	17.41	-30.0	-32.7	13.0	2.74e-05	0	43	0	238026752	21	4911
2026-01-02 08:54:52.18	102.22	17.69	-30.0	-32.7	13.1	4.34e-05	0	43	0	244318208	21	4891
2026-01-02 08:54:55.20	101.78	17.97	-29.9	-32.5	13.2	1.60e-05	0	43	0	249561088	21	4818
2026-01-02 08:54:58.20	101.32	18.25	-29.8	-32.3	13.3	1.52e-05	0	43	0	254803968	21	4756
2026-01-02 08:55:01.22	100.86	18.53	-29.8	-32.2	13.4	1.67e-05	0	43	0	261095424	21	4729
2026-01-02 08:55:04.00	100.42	18.80	-29.9	-32.4	13.3	1.75e-05	0	43	0	266338304	21	4790
2026-01-02 08:55:07.30	99.90	19.11	-29.8	-32.7	13.5	1.29e-05	0	43	0	272629760	20	4986
2026-01-02 08:55:10.02	99.45	19.37	-29.8	-32.6	13.5	6.80e-06	0	43	0	277872640	20	4956
2026-01-02 08:55:13.32	98.91	19.68	-29.8	-32.7	13.5	1.44e-05	0	43	0	284164096	20	4980
2026-01-02 08:55:16.06	98.44	19.94	-29.9	-33.0	13.3	1.75e-05	0	43	0	289406976	20	5092
2026-01-02 08:55:19.36	97.87	20.26	-30.3	-33.8	12.7	4.42e-05	0	43	0	295698432	20	5442
2026-01-02 08:55:22.09	97.39	20.52	-30.2	-33.6	13.0	2.89e-05	0	43	0	300941312	20	5321
2026-01-02 08:55:25.40	96.80	20.84	-30.2	-33.7	12.8	5.87e-05	0	43	0	306184192	20	5389
2026-01-02 08:55:28.11	96.31	21.10	-30.4	-34.2	12.6	1.16e-04	0	43	0	311427072	20	5563
2026-01-02 08:55:31.42	95.69	21.43	-30.4	-34.3	12.5	1.09e-04	0	43	0	317718528	20	5628
2026-01-02 08:55:34.14	95.18	21.69	-30.2	-33.8	12.9	5.49e-05	0	43	0	322961408	20	5398
2026-01-02 08:55:37.43	94.54	22.01	-30.0	-33.1	13.4	1.75e-05	0	43	0	329252864	20	5117
2026-01-02 08:55:40.15	94.00	22.27	-30.0	-33.0	13.4	1.22e-05	0	43	0	334495744	20	5093
2026-01-02 08:55:43.45	93.34	22.59	-30.1	-33.3	13.2	1.83e-05	0	43	0	340787200	20	5215
2026-01-02 08:55:46.18	92.78	22.86	-30.3	-33.8	12.9	6.10e-05	0	43	0	346030080	20	5386
2026-01-02 08:55:49.47	92.10	23.18	-29.9	-32.9	13.5	1.44e-05	0	43	0	352321536	20	5040
2026-01-02 08:55:52.19	91.52	23.44	-29.6	-32.1	14.0	4.50e-06	0	43	0	356515840	20	4755
2026-01-02 08:55:55.49	90.81	23.76	-29.5	-31.6	14.4	1.50e-06	0	43	0	362807296	20	4602
2026-01-02 08:55:58.21	90.21	24.02	-29.6	-32.0	14.1	7.00e-07	0	43	0	368050176	20	4727
2026-01-02 08:56:01.53	89.46	24.34	-29.5	-31.6	14.4	7.00e-07	0	43	0	374341632	20	4595
2026-01-02 08:56:04.25	88.84	24.60	-29.4	-31.5	14.4	1.50e-06	0	43	0	379584512	20	4575
2026-01-02 08:56:07.55	88.07	24.91	-29.3	-31.5	14.9	7.00e-07	0	43	0	385875968	19	4653
2026-01-02 08:56:10.29	87.42	25.17	-29.4	-31.9	14.6	0.00e+00	0	43	0	391118848	19	4776
2026-01-02 08:56:13.59	86.62	25.48	-29.5	-32.0	14.5	0.00e+00	0	43	0	397410304	19	4826
2026-01-02 08:56:16.31	85.95	25.73	-29.8	-33.0	13.9	3.00e-06	0	43	0	401604608	19	5165
2026-01-02 08:56:19.62	85.12	26.04	-30.1	-33.3	13.3	1.37e-05	0	43	0	407896064	20	5193
2026-01-02 08:56:22.37	84.42	26.29	-30.3	-33.9	12.9	5.41e-05	0	43	0	413138944	20	5436
2026-01-02 08:56:25.68	83.56	26.59	-29.9	-32.6	13.8	6.10e-06	0	43	0	419430400	20	4930
2026-01-02 08:56:28.40	82.84	26.83	-30.1	-33.4	13.3	1.44e-05	0	43	0	424673280	20	5211
2026-01-02 08:56:31.69	81.96	27.12	-30.2	-33.6	13.2	2.51e-05	0	43	0	430964736	20	5308
2026-01-02 08:56:34.42	81.22	27.36	-30.6	-34.1	12.5	1.02e-04	0	43	0	436207616	21	5397
2026-01-02 08:56:37.72	80.30	27.64	-30.6	-34.2	12.4	1.50e-04	0	43	0	442499072	21	5451
2026-01-02 08:56:40.45	79.53	27.87	-30.7	-34.4	12.3	1.52e-04	0	43	0	447741952	21	5513
2026-01-02 08:56:43.74	78.59	28.14	-30.8	-34.8	12.1	7.55e-05	0	43	0	454033408	21	5657
2026-01-02 08:56:46.46	77.80	28.36	-30.6	-34.1	12.5	9.30e-05	0	43	0	458227712	21	5395
2026-01-02 08:56:49.77	76.82	28.62	-30.7	-34.3	12.4	7.78e-05	0	43	0	464519168	21	5480
2026-01-02 08:56:52.49	76.01	28.83	-30.3	-33.3	13.1	3.89e-05	0	43	0	469762048	21	5079
2026-01-02 08:56:55.80	75.00	29.08	-30.6	-33.9	12.7	5.56e-05	0	43	0	476053504	21	5319
2026-01-02 08:56:58.51	74.17	29.27	-30.4	-33.4	13.0	2.89e-05	0	43	0	481296384	21	5112
2026-01-02 08:57:01.84	73.13	29.51	-30.5	-33.8	12.8	5.03e-05	0	43	0	487587840	21	5241
2026-01-02 08:57:04.56	72.27	29.69	-30.6	-34.0	12.6	7.47e-05	0	43	0	492830720	21	5347
2026-01-02 08:57:07.86	71.21	29.91	-30.5	-33.8	12.8	5.64e-05	0	43	0	499122176	21	5246
2026-01-02 08:57:10.57	70.33	30.08	-30.6	-34.0	12.6	6.63e-05	0	43	0	504365056	21	5340
2026-01-02 08:57:13.87	69.25	30.27	-30.9	-35.0	12.0	2.54e-04	0	43	0	509607936	21	5756
2026-01-02 08:57:16.61	68.34	30.43	-31.2	-35.3	11.5	7.92e-04	0	43	0	514850816	22	5782
2026-01-02 08:57:19.90	67.24	30.61	-30.8	-34.2	12.2	2.34e-04	0	43	0	521142272	22	5302
2026-01-02 08:57:22.61	66.33	30.75	-30.8	-34.3	12.1	3.55e-04	0	43	0	526385152	22	5342
2026-01-02 08:57:25.91	65.20	30.91	-30.9	-34.3	12.1	1.73e-04	0	43	0	532676608	22	5363
2026-01-02 08:57:28.64	64.26	31.03	-30.7	-33.7	12.5	1.27e-04	0	43	0	537919488	22	5127
2026-01-02 08:57:31.94	63.12	31.16	-30.4	-32.9	13.1	3.50e-05	0	43	0	544210944	22	4823
2026-01-02 08:57:34.66	62.17	31.27	-30.5	-33.2	13.0	6.17e-05	0	43	0	549453824	22	4920
2026-01-02 08:57:37.96	61.00	31.38	-30.7	-33.9	12.4	1.43e-04	0	43	0	554696704	22	5199
2026-01-02 08:57:40.70	60.03	31.47	-30.9	-34.5	12.0	3.26e-04	0	43	0	559939584	22	5425
2026-01-02 08:57:44.02	58.85	31.56	-30.9	-34.4	12.1	2.29e-04	0	43	0	566231040	22	5372
2026-01-02 08:57:46.74	57.88	31.62	-31.2	-35.2	11.5	6.90e-04	0	43	0	571473920	22	5740
2026-01-02 08:57:50.05	56.69	31.68	-31.2	-35.2	11.5	9.19e-04	0	43	0	577765376	22	5745
2026-01-02 08:57:52.76	55.72	31.73	-31.3	-35.6	11.3	1.06e-03	0	43	0	583008256	22	5921
2026-01-02 08:57:56.06	54.53	31.77	-31.3	-35.6	11.3	1.60e-03	0	43	0	589299712	22	5905
2026-01-02 08:57:58.79	53.54	31.79	-31.2	-35.4	11.4	9.28e-04	0	43	0	594542592	22	5838
2026-01-02 08:58:02.08	52.35	31.80	-31.0	-34.8	11.9	5.29e-04	0	43	0	600834048	22	5538
2026-01-02 08:58:04.83	51.35	31.80	-30.8	-34.0	12.4	1.56e-04	0	43	0	606076928	22	5207
2026-01-02 08:58:08.12	50.16	31.79	-30.9	-34.5	12.0	3.26e-04	0	43	0	611319808	22	5418
2026-01-02 08:58:10.85	49.17	31.77	-31.1	-34.9	11.8	5.99e-04	0	43	0	616562688	22	5576
2026-01-02 08:58:14.14	47.98	31.73	-31.0	-34.8	11.8	5.03e-04	0	43	0	622854144	22	5544
2026-01-02 08:58:16.86	47.00	31.69	-31.1	-34.9	11.7	6.23e-04	0	43	0	628097024	22	5596
2026-01-02 08:58:20.16	45.82	31.63	-31.0	-34.6	11.9	5.99e-04	0	44	0	634388480	22	5458
2026-01-02 08:58:22.88	44.85	31.57	-30.9	-34.4	12.1	4.03e-04	0	43	0	639631360	22	5369
2026-01-02 08:58:26.18	43.67	31.48	-31.0	-34.8	11.8	7.09e-04	0	43	0	645922816	22	5562
2026-01-02 08:58:28.91	42.71	31.40	-30.8	-34.2	12.3	1.68e-04	0	43	0	651165696	22	5290
2026-01-02 08:58:32.21	41.55	31.29	-31.2	-35.3	11.4	1.07e-03	0	43	0	656408576	22	5800
2026-01-02 08:58:34.93	40.60	31.19	-30.9	-34.3	12.2	2.24e-04	0	43	0	661651456	22	5345
2026-01-02 08:58:38.22	39.45	31.05	-30.9	-34.5	12.0	3.34e-04	0	43	0	667942912	22	5412
2026-01-02 08:58:40.94	38.52	30.93	-31.2	-35.4	11.4	1.02e-03	0	43	0	673185792	22	5835
2026-01-02 08:58:44.23	37.39	30.78	-31.1	-35.0	11.6	9.63e-04	0	43	0	679477248	22	5667
2026-01-02 08:58:46.95	36.48	30.64	-31.1	-35.1	11.6	5.61e-04	0	43	0	684720128	22	5711
2026-01-02 08:58:50.25	35.37	30.47	-31.5	-35.9	10.6	2.46e-03	0	43	0	691011584	23	5973
2026-01-02 08:58:52.97	34.47	30.31	-31.6	-36.2	10.3	4.64e-03	0	43	0	696254464	23	6123
2026-01-02 08:58:56.29	33.38	30.11	-31.7	-36.6	10.0	8.66e-03	0	43	0	702545920	23	6345
2026-01-02 08:58:59.01	32.50	29.95	-31.9	-36.8	9.5	1.72e-02	0	43	0	706740224	24	6321
2026-01-02 08:59:02.32	31.44	29.73	-31.5	-35.3	10.6	3.92e-03	0	43	0	713031680	24	5603
2026-01-02 08:59:05.05	30.58	29.55	-31.5	-35.5	10.5	4.01e-03	0	43	0	718274560	24	5682
2026-01-02 08:59:08.36	29.54	29.32	-31.2	-34.8	11.3	1.68e-03	0	43	0	724566016	23	5489
2026-01-02 08:59:11.11	28.70	29.12	-30.7	-34.0	12.2	1.72e-04	0	43	0	729808896	22	5229
2026-01-02 08:59:14.40	27.70	28.88	-30.9	-34.4	12.0	4.31e-04	0	43	0	736100352	22	5397
2026-01-02 08:59:17.15	26.88	28.67	-30.8	-34.1	12.1	2.49e-04	0	43	0	741343232	22	5292
2026-01-02 08:59:20.45	25.90	28.41	-30.9	-34.5	11.9	3.17e-04	0	43	0	747634688	22	5435
2026-01-02 08:59:23.18	25.11	28.19	-30.9	-34.5	11.9	4.53e-04	0	43	0	752877568	22	5460
2026-01-02 08:59:26.48	24.16	27.92	-31.1	-35.1	11.4	7.51e-04	0	43	0	759169024	22	5733
2026-01-02 08:59:29.19	23.40	27.70	-30.6	-33.6	12.4	2.63e-04	0	43	0	763363328	22	5109
2026-01-02 08:59:32.51	22.48	27.41	-30.3	-33.2	13.0	3.58e-05	0	43	0	769654784	21	5060
2026-01-02 08:59:35.23	21.74	27.18	-30.5	-34.0	12.5	1.21e-04	0	43	0	774897664	21	5340
2026-01-02 08:59:38.54	20.85	26.89	-30.4	-33.5	12.8	5.72e-05	0	43	0	781189120	21	5151
2026-01-02 08:59:41.28	20.13	26.65	-30.3	-33.4	12.9	4.11e-05	0	43	0	786432000	21	5110
2026-01-02 08:59:44.58	19.27	26.35	-30.0	-32.5	13.5	1.22e-05	0	43	0	792723456	21	4784
2026-01-02 08:59:47.30	18.58	26.10	-29.8	-32.3	13.9	4.50e-06	0	43	0	797966336	20	4843
2026-01-02 08:59:50.60	17.76	25.80	-29.6	-31.8	14.2	0.00e+00	0	43	0	804257792	20	4672
2026-01-02 08:59:53.32	17.09	25.55	-29.3	-31.5	14.8	0.00e+00	0	43	0	808452096	19	4650
2026-01-02 08:59:56.60	16.29	25.24	-29.0	-30.7	15.2	0.00e+00	0	43	0	814743552	19	4418
2026-01-02 08:59:59.34	15.64	24.99	-29.0	-30.8	15.2	0.00e+00	0	43	0	819986432	19	4425
2026-01-02 09:00:02.63	14.88	24.67	-28.8	-30.8	15.5	0.00e+00	0	43	0	826277888	18	4528
2026-01-02 09:00:05.37	14.25	24.41	-28.9	-31.1	15.3	0.00e+00	0	43	0	831520768	18	4633
2026-01-02 09:00:08.67	13.51	24.10	-28.4	-29.8	16.1	0.00e+00	0	43	0	837812224	18	4238
2026-01-02 09:00:11.41	12.91	23.84	-28.4	-29.8	16.1	0.00e+00	0	43	0	843055104	18	4253
2026-01-02 09:00:14.70	12.20	23.52	-28.2	-29.8	16.3	0.00e+00	0	43	0	849346560	17	4347
2026-01-02 09:00:17.44	11.61	23.26	-28.2	-29.9	16.3	0.00e+00	0	43	0	854589440	17	4383
2026-01-02 09:00:20.74	10.93	22.94	-28.3	-30.0	16.2	0.00e+00	0	43	0	860880896	17	4423
2026-01-02 09:00:23.48	10.37	22.67	-28.4	-30.3	16.0	0.00e+00	0	44	0	865075200	17	4513
2026-01-02 09:00:26.79	9.70	22.35	-28.8	-31.3	15.4	0.00e+00	0	43	0	871366656	17	4831
2026-01-02 09:00:29.51	9.17	22.09	-28.8	-31.5	15.2	0.00e+00	0	43	0	876609536	17	4885
2026-01-02 09:00:32.80	8.54	21.77	-28.7	-31.1	15.5	0.00e+00	0	43	0	882900992	17	4770
2026-01-02 09:00:35.51	8.02	21.51	-28.9	-31.7	15.1	0.00e+00	0	43	0	888143872	17	4973
2026-01-02 09:00:38.81	7.41	21.19	-29.0	-31.3	15.1	0.00e+00	0	43	0	894435328	18	4719
2026-01-02 09:00:41.53	6.91	20.93	-29.0	-31.5	14.9	0.00e+00	0	43	0	899678208	18	4790
2026-01-02 09:00:44.83	6.32	20.61	-29.1	-31.7	14.8	0.00e+00	0	43	0	905969664	18	4830
2026-01-02 09:00:47.56	5.85	20.35	-29.2	-31.8	14.7	0.00e+00	0	43	0	910163968	18	4882
2026-01-02 09:00:50.85	5.28	20.04	-29.2	-31.9	14.6	1.50e-06	0	43	0	916455424	18	4919
2026-01-02 09:00:53.57	4.82	19.78	-29.2	-31.9	14.7	1.50e-06	0	43	0	921698304	18	4914
2026-01-02 09:00:56.86	4.28	19.46	-29.3	-32.3	14.4	0.00e+00	0	44	0	927989760	18	5062
2026-01-02 09:00:59.58	3.83	19.21	-29.6	-32.5	13.9	2.20e-06	0	43	0	933232640	19	5020
2026-01-02 09:01:02.89	3.31	18.89	-29.9	-33.4	13.4	9.10e-06	0	43	0	939524096	19	5363
2026-01-02 09:01:05.61	2.88	18.64	-30.1	-33.5	12.8	4.95e-05	0	43	0	944766976	20	5322
2026-01-02 09:01:08.90	2.38	18.33	-30.1	-33.3	12.9	6.40e-05	0	43	0	951058432	20	5243
2026-01-02 09:01:11.60	1.97	18.08	-30.0	-33.3	13.0	4.57e-05	0	43	0	955252736	20	5224
2026-01-02 09:01:14.90	1.48	17.77	-30.1	-33.3	13.0	4.04e-05	0	43	0	961544192	20	5259
2026-01-02 09:01:17.63	1.09	17.52	-30.1	-33.6	12.8	4.65e-05	0	43	0	966787072	20	5364
2026-01-02 09:01:20.92	0.62	17.22	-30.3	-33.9	12.5	1.28e-04	0	43	0	973078528	20	5483
2026-01-02 09:01:23.64	0.24	16.97	-30.2	-33.6	12.6	1.07e-04	0	43	0	978321408	20	5378
2026-01-02 09:01:26.93	359.79	16.67	-30.1	-33.5	12.7	7.93e-05	0	43	0	984612864	20	5328
2026-01-02 09:01:29.67	359.42	16.43	-30.2	-33.8	12.6	1.07e-04	0	43	0	989855744	20	5429
2026-01-02 09:01:32.97	358.98	16.13	-30.4	-34.3	12.1	1.67e-04	0	43	0	996147200	20	5680
2026-01-02 09:01:35.69	358.63	15.89	-30.3	-34.2	12.2	2.78e-04	0	43	0	1001390080	20	5606
2026-01-02 09:01:39.00	358.21	15.60	-30.2	-33.8	12.5	1.22e-04	0	43	0	1006632960	20	5437
2026-01-02 09:01:41.72	357.87	15.36	-30.3	-34.0	12.3	1.70e-04	0	43	0	1011875840	20	5541
2026-01-02 09:01:45.01	357.46	15.07	-30.2	-33.8	12.5	1.43e-04	0	43	0	1018167296	20	5444
2026-01-02 09:01:47.74	357.13	14.83	-30.2	-33.8	12.5	1.49e-04	0	43	0	1023410176	20	5441
2026-01-02 09:01:51.03	356.74	14.55	-30.2	-33.8	12.4	1.34e-04	0	43	0	1029701632	20	5465
2026-01-02 09:01:53.75	356.43	14.31	-30.1	-33.6	12.5	9.76e-05	0	43	0	1034944512	20	5382
2026-01-02 09:01:57.05	356.05	14.03	-30.2	-33.9	12.3	1.75e-04	0	43	0	1041235968	20	5498
2026-01-02 09:01:59.77	355.75	13.80	-30.2	-34.1	12.2	2.03e-04	0	43	0	1046478848	20	5582
2026-01-02 09:02:03.06	355.38	13.52	-30.3	-34.3	12.0	3.44e-04	0	43	0	1051721728	20	5691
2026-01-02 09:02:05.79	355.09	13.29	-30.4	-34.0	11.8	4.23e-04	0	43	0	1056964608	21	5459
2026-01-02 09:02:09.10	354.73	13.02	-30.4	-34.0	11.8	4.32e-04	0	43	0	1063256064	21	5446
2026-01-02 09:02:11.84	354.45	12.79	-30.4	-34.0	11.8	4.25e-04	0	43	0	1068498944	21	5447
2026-01-02 09:02:15.14	354.11	12.52	-30.3	-33.7	11.9	4.75e-04	0	43	0	1074790400	21	5342
2026-01-02 09:02:17.86	353.83	12.30	-30.4	-34.0	11.7	2.94e-04	0	43	0	1080033280	21	5484
2026-01-02 09:02:21.15	353.51	12.03	-30.2	-33.5	12.1	2.94e-04	0	43	0	1086324736	21	5255
2026-01-02 09:02:23.88	353.24	11.81	-30.2	-33.5	12.0	2.85e-04	0	43	0	1091567616	21	5266
2026-01-02 09:02:27.17	352.93	11.55	-30.3	-33.8	11.8	5.61e-04	0	43	0	1097859072	21	5403
2026-01-02 09:02:29.90	352.67	11.33	-30.3	-33.8	11.8	5.35e-04	0	43	0	1102053376	21	5410
2026-01-02 09:02:33.18	352.36	11.08	-30.5	-34.3	11.4	9.80e-04	0	43	0	1108344832	21	5628
2026-01-02 09:02:35.90	352.12	10.86	-30.5	-34.6	11.2	1.31e-03	0	43	0	1113587712	21	5745
2026-01-02 09:02:39.19	351.82	10.61	-30.6	-35.0	10.9	1.84e-03	0	43	0	1119879168	21	5933
2026-01-02 09:02:41.91	351.58	10.40	-30.7	-35.2	10.7	2.25e-03	0	44	0	1125122048	21	6036
2026-01-02 09:02:45.21	351.29	10.14	-30.6	-34.9	11.0	2.22e-03	0	43	0	1131413504	21	5882
2026-01-02 09:02:47.92	351.06	9.94	-30.6	-34.9	10.9	2.34e-03	0	43	0	1136656384	21	5890
2026-01-02 09:02:51.22	350.79	9.69	-30.6	-34.9	10.9	2.30e-03	0	43	0	1142947840	21	5923
2026-01-02 09:02:53.95	350.56	9.48	-30.7	-35.2	10.6	3.13e-03	0	43	0	1147142144	21	6046
2026-01-02 09:02:57.25	350.29	9.24	-30.7	-35.2	10.5	4.03e-03	0	43	0	1153433600	21	6074
2026-01-02 09:02:59.98	350.07	9.03	-30.7	-35.3	10.5	4.39e-03	0	43	0	1158676480	21	6129
2026-01-02 09:03:03.28	349.81	8.79	-30.8	-35.7	10.2	6.40e-03	0	43	0	1164967936	21	6321
2026-01-02 09:03:06.01	349.60	8.59	-30.8	-35.8	10.1	8.75e-03	0	43	0	1170210816	21	6374
2026-01-02 09:03:09.32	349.35	8.35	-30.9	-36.2	9.7	1.30e-02	0	43	0	1176502272	21	6644
2026-01-02 09:03:12.04	349.14	8.15	-30.9	-36.2	9.7	1.20e-02	0	43	0	1181745152	21	6600
2026-01-02 09:03:15.34	348.90	7.92	-31.0	-36.6	9.3	1.67e-02	0	43	0	1188036608	21	6853
2026-01-02 09:03:18.05	348.70	7.72	-31.1	-36.3	9.2	2.21e-02	0	43	0	1193279488	22	6597
2026-01-02 09:03:21.35	348.47	7.49	-31.1	-36.6	8.9	3.31e-02	0	43	0	1198522368	22	6785
2026-01-02 09:03:24.07	348.27	7.30	-31.0	-36.4	9.1	2.80e-02	0	44	0	1203765248	22	6633
2026-01-02 09:03:27.37	348.05	7.07	-32.6	-46.1	3.8	2.38e-02	0	43	104	1210056704	25	17017

#Closed at: 2026-01-02 09:03:29
#Recorded file [1210 MB]: D:/data/31010_260102_115241.dat