passes_logs/2026/01/02/R2M6_AANII_01/R2M6_AANII_01__20260102_044718_FENGYUN_3E_rec.log

#Pass ID: 20260102_044718_FENGYUN 3E
#Satellite: FENGYUN 3E
#Configuration: FENGYUN 3E
#almurnet v.1.7.20240730
#Start time: 2026-01-02 04:49:57

#Version: 2.2.20231116
#Station: R2M6_AANII_01
#Location: 30.233357 lon 59.946436 lat
#TLE: 1 49008U 21062A   26001.26445318  .00000475  00000+0  24453-3 0  9990
#TLE: 2 49008  98.7480   6.5551 0001357 167.8415 192.2795 14.19884467232890

#Time	Az	El	Level	Level2	SNR	BER	BlckErr	Temp	State	Recorded	gain1	gain2
2026-01-02 04:49:57.69	15.27	23.85	-33.0	-44.1	3.8	8.44e-01	0	43	0	0	26	12900
2026-01-02 04:50:00.66	15.19	24.30	-33.0	-42.3	3.8	8.46e-01	0	44	104	0	27	10614
2026-01-02 04:50:03.65	15.11	24.77	-33.7	-43.1	3.8	8.46e-01	0	44	104	0	27	10724
2026-01-02 04:50:06.63	15.03	25.24	-33.7	-43.2	3.8	8.47e-01	0	44	104	0	27	10772
2026-01-02 04:50:09.63	14.95	25.72	-33.6	-43.4	3.8	8.45e-01	0	43	104	0	26	11163
2026-01-02 04:50:12.62	14.86	26.21	-33.6	-43.1	3.8	8.45e-01	0	44	104	0	27	10714
2026-01-02 04:50:15.60	14.77	26.71	-33.7	-43.1	3.8	8.48e-01	0	43	104	0	27	10719
2026-01-02 04:50:18.58	14.68	27.21	-33.7	-43.2	3.8	8.46e-01	0	43	104	0	27	10776
2026-01-02 04:50:21.58	14.58	27.73	-33.6	-43.0	3.8	8.46e-01	0	44	104	0	27	10680
2026-01-02 04:50:24.59	14.48	28.26	-33.6	-43.0	3.8	8.46e-01	0	44	104	0	27	10650
2026-01-02 04:50:27.58	14.38	28.80	-33.1	-40.8	3.8	8.47e-01	0	44	104	0	26	8759
2026-01-02 04:50:30.58	14.27	29.35	-33.3	-42.2	3.8	8.46e-01	0	44	104	0	26	10072
2026-01-02 04:50:33.57	14.16	29.91	-33.4	-43.0	3.8	8.46e-01	0	44	104	0	26	10900
2026-01-02 04:50:36.57	14.04	30.48	-33.4	-43.1	3.8	8.46e-01	0	44	104	0	26	10955
2026-01-02 04:50:39.58	13.92	31.06	-32.9	-40.3	3.9	8.44e-01	0	44	104	0	25	8413
2026-01-02 04:50:42.56	13.79	31.65	-31.8	-36.0	6.0	5.58e-01	0	44	0	2097152	23	5854
2026-01-02 04:50:45.53	13.66	32.26	-27.6	-28.2	13.1	2.93e-04	0	44	0	23068672	16	3858
2026-01-02 04:50:48.52	13.53	32.87	-24.6	-25.1	16.6	6.72e-04	0	44	0	45088768	9	3818
2026-01-02 04:50:51.52	13.38	33.50	-26.3	-27.3	14.6	6.09e-04	0	44	0	66060288	12	4037
2026-01-02 04:50:54.52	13.23	34.15	-26.5	-27.3	14.3	3.29e-04	0	44	0	88080384	13	3924
2026-01-02 04:50:57.51	13.08	34.81	-25.1	-25.1	16.1	4.50e-06	0	44	0	109051904	11	3623
2026-01-02 04:51:00.50	12.92	35.48	-24.1	-24.5	17.2	2.69e-04	0	44	0	131072000	8	3775
2026-01-02 04:51:03.49	12.75	36.16	-23.4	-23.1	17.9	3.11e-04	0	44	0	153092096	8	3477
2026-01-02 04:51:06.47	12.57	36.86	-22.7	-22.6	18.7	2.62e-04	0	44	0	174063616	6	3550
2026-01-02 04:51:09.46	12.39	37.57	-22.5	-22.6	18.9	4.52e-04	0	44	0	196083712	5	3664
2026-01-02 04:51:12.46	12.19	38.30	-22.4	-22.4	19.0	3.41e-04	0	44	0	217055232	5	3625
2026-01-02 04:51:15.44	11.99	39.05	-22.6	-22.8	18.8	3.71e-04	0	44	0	239075328	5	3711
2026-01-02 04:51:18.42	11.77	39.80	-22.9	-23.5	18.4	1.68e-04	0	44	0	260046848	5	3864
2026-01-02 04:51:21.42	11.55	40.58	-22.9	-23.4	18.5	0.00e+00	0	44	0	282066944	5	3847
2026-01-02 04:51:24.41	11.31	41.38	-23.2	-23.7	18.1	0.00e+00	0	44	0	304087040	6	3805
2026-01-02 04:51:27.41	11.06	42.19	-22.8	-22.8	18.6	0.00e+00	0	44	0	325058560	6	3609
2026-01-02 04:51:30.41	10.80	43.02	-22.9	-23.1	18.5	0.00e+00	0	44	0	347078656	6	3659
2026-01-02 04:51:33.40	10.52	43.87	-23.5	-24.3	17.8	0.00e+00	0	44	0	369098752	6	3956
2026-01-02 04:51:36.39	10.22	44.74	-23.9	-24.5	17.5	0.00e+00	0	44	0	390070272	7	3884
2026-01-02 04:51:39.39	9.91	45.62	-23.5	-23.8	17.8	0.00e+00	0	44	0	412090368	7	3727
2026-01-02 04:51:42.39	9.58	46.53	-23.4	-23.6	18.0	0.00e+00	0	44	0	434110464	7	3667
2026-01-02 04:51:45.39	9.23	47.45	-23.4	-23.6	18.0	0.00e+00	0	44	0	455081984	7	3675
2026-01-02 04:51:48.37	8.86	48.39	-23.9	-24.5	17.5	0.00e+00	0	44	0	477102080	7	3876
2026-01-02 04:51:51.36	8.46	49.35	-24.3	-24.9	17.1	0.00e+00	0	44	0	498073600	8	3865
2026-01-02 04:51:54.36	8.03	50.33	-24.5	-24.9	16.8	0.00e+00	0	44	0	520093696	9	3773
2026-01-02 04:51:57.34	7.58	51.33	-25.1	-25.6	16.2	0.00e+00	0	44	0	541065216	10	3832
2026-01-02 04:52:00.34	7.10	52.35	-24.7	-25.2	16.6	0.00e+00	0	44	0	563085312	9	3842
2026-01-02 04:52:03.33	6.57	53.39	-24.9	-25.2	16.5	3.01e-04	0	44	0	584056832	10	3725
2026-01-02 04:52:06.31	6.01	54.44	-24.1	-24.1	17.3	3.65e-04	0	44	0	606076928	9	3587
2026-01-02 04:52:09.31	5.41	55.52	-24.3	-24.9	17.1	0.00e+00	0	44	0	628097024	8	3871
2026-01-02 04:52:12.31	4.75	56.62	-24.6	-25.0	16.8	0.00e+00	0	44	0	649068544	9	3795
2026-01-02 04:52:15.29	4.04	57.73	-24.4	-24.8	17.0	0.00e+00	0	44	0	671088640	9	3738
2026-01-02 04:52:18.29	3.26	58.86	-24.4	-24.6	17.0	0.00e+00	0	44	0	693108736	9	3704
2026-01-02 04:52:21.27	2.42	60.00	-24.1	-24.0	17.3	0.00e+00	0	44	0	714080256	9	3571
2026-01-02 04:52:24.26	1.50	61.16	-23.7	-24.1	17.8	1.23e-03	0	44	0	736100352	7	3776
2026-01-02 04:52:27.25	0.48	62.34	-23.6	-24.0	17.8	0.00e+00	0	44	0	757071872	7	3773
2026-01-02 04:52:30.24	359.36	63.52	-22.8	-22.9	18.7	0.00e+00	0	44	0	779091968	6	3611
2026-01-02 04:52:33.24	358.12	64.73	-22.9	-23.0	18.6	0.00e+00	0	44	0	801112064	6	3640
2026-01-02 04:52:36.23	356.73	65.93	-22.4	-22.5	18.9	0.00e+00	0	44	0	822083584	5	3625
2026-01-02 04:52:39.21	355.19	67.13	-23.4	-23.5	18.1	0.00e+00	0	44	0	844103680	7	3652
2026-01-02 04:52:42.21	353.45	68.34	-22.9	-23.0	18.6	0.00e+00	0	44	0	865075200	6	3649
2026-01-02 04:52:45.21	351.49	69.55	-23.3	-23.8	18.2	0.00e+00	0	44	0	887095296	6	3815
2026-01-02 04:52:48.19	349.27	70.74	-23.0	-23.2	18.5	0.00e+00	0	44	0	909115392	6	3691
2026-01-02 04:52:51.21	346.70	71.93	-23.0	-23.2	18.4	0.00e+00	0	44	0	930086912	6	3683
2026-01-02 04:52:54.20	343.79	73.08	-22.6	-22.9	18.8	0.00e+00	0	44	0	952107008	5	3725
2026-01-02 04:52:57.18	340.45	74.18	-22.3	-22.4	19.1	0.00e+00	0	44	0	973078528	5	3607
2026-01-02 04:53:00.17	336.57	75.24	-22.1	-21.9	19.4	0.00e+00	0	44	0	995098624	5	3507
2026-01-02 04:53:03.17	332.08	76.24	-21.8	-21.8	19.7	0.00e+00	0	44	0	1016070144	4	3584
2026-01-02 04:53:06.16	326.91	77.15	-21.6	-21.4	19.8	0.00e+00	0	44	0	1038090240	4	3498
2026-01-02 04:53:09.15	320.98	77.94	-21.4	-20.9	20.1	0.00e+00	0	44	0	1060110336	4	3401
2026-01-02 04:53:12.13	314.31	78.59	-21.3	-21.3	20.3	0.00e+00	0	44	0	1081081856	3	3569
2026-01-02 04:53:15.12	306.89	79.08	-21.2	-20.9	20.4	0.00e+00	0	44	0	1103101952	3	3497
2026-01-02 04:53:18.11	298.92	79.37	-21.7	-21.9	20.0	0.00e+00	0	44	0	1124073472	3	3717
2026-01-02 04:53:21.11	290.62	79.45	-21.6	-21.8	20.0	0.00e+00	0	44	0	1146093568	3	3680
2026-01-02 04:53:24.11	282.38	79.31	-20.9	-20.9	20.7	0.00e+00	0	44	0	1168113664	2	3600
2026-01-02 04:53:27.10	274.53	78.96	-21.3	-21.2	20.3	0.00e+00	0	44	0	1189085184	3	3552
2026-01-02 04:53:30.10	267.27	78.43	-21.0	-21.1	20.6	0.00e+00	0	44	0	1211105280	2	3643
2026-01-02 04:53:33.09	260.78	77.73	-21.0	-21.1	20.6	0.00e+00	0	44	0	1233125376	2	3631
2026-01-02 04:53:36.08	255.07	76.90	-21.9	-22.5	19.6	0.00e+00	0	44	0	1254096896	3	3843
2026-01-02 04:53:39.08	250.09	75.96	-22.2	-22.5	19.2	0.00e+00	0	44	0	1276116992	4	3737
2026-01-02 04:53:42.08	245.77	74.95	-22.3	-22.7	19.2	0.00e+00	0	44	0	1297088512	4	3775
2026-01-02 04:53:45.07	242.05	73.87	-22.9	-23.4	18.6	0.00e+00	0	44	0	1319108608	5	3840
2026-01-02 04:53:48.06	238.83	72.74	-23.1	-23.8	17.6	0.00e+00	0	44	0	1341128704	5	3943
2026-01-02 04:53:51.05	236.02	71.58	-23.0	-23.2	18.3	0.00e+00	0	44	0	1362100224	6	3683
2026-01-02 04:53:54.04	233.58	70.40	-23.0	-23.7	18.5	0.00e+00	0	44	0	1384120320	5	3904
2026-01-02 04:53:57.02	231.44	69.20	-22.5	-22.6	18.9	0.00e+00	0	44	0	1405091840	5	3656
2026-01-02 04:54:00.00	229.54	68.00	-22.5	-22.6	18.9	0.00e+00	0	44	0	1427111936	5	3654
2026-01-02 04:54:02.99	227.86	66.79	-22.7	-23.1	18.7	0.00e+00	0	44	0	1449132032	5	3776
2026-01-02 04:54:05.98	226.36	65.58	-22.5	-22.6	19.0	0.00e+00	0	44	0	1470103552	5	3648
2026-01-02 04:54:08.98	225.01	64.37	-22.6	-22.9	18.8	0.00e+00	0	44	0	1491075072	5	3719
2026-01-02 04:54:11.97	223.81	63.17	-22.6	-22.9	18.8	0.00e+00	0	44	0	1513095168	5	3728
2026-01-02 04:54:14.98	222.71	61.98	-23.5	-24.2	17.9	0.00e+00	0	44	0	1535115264	6	3918
2026-01-02 04:54:17.97	221.72	60.80	-23.4	-24.1	18.0	0.00e+00	0	44	0	1556086784	6	3887
2026-01-02 04:54:20.98	220.81	59.64	-24.1	-24.4	17.2	0.00e+00	0	44	0	1578106880	8	3762
2026-01-02 04:54:23.99	219.98	58.48	-24.3	-25.0	17.0	0.00e+00	0	44	0	1600126976	8	3898
2026-01-02 04:54:27.00	219.22	57.35	-23.6	-24.0	17.7	0.00e+00	0	44	0	1622147072	7	3778
2026-01-02 04:54:30.02	218.52	56.23	-23.6	-24.0	17.7	0.00e+00	0	44	0	1643118592	7	3768
2026-01-02 04:54:33.02	217.88	55.13	-23.8	-24.4	17.5	0.00e+00	0	44	0	1665138688	7	3858
2026-01-02 04:54:36.02	217.28	54.05	-23.9	-24.7	17.4	0.00e+00	0	44	0	1687158784	7	3923
2026-01-02 04:54:39.03	216.73	52.99	-24.2	-24.8	17.0	0.00e+00	0	44	0	1708130304	8	3840
2026-01-02 04:54:42.04	216.22	51.95	-23.6	-23.9	15.3	0.00e+00	0	44	0	1730150400	7	3747
2026-01-02 04:54:45.05	215.74	50.93	-23.5	-23.7	17.9	3.92e-04	0	44	0	1752170496	7	3692
2026-01-02 04:54:48.06	215.29	49.92	-24.0	-24.8	17.3	0.00e+00	0	44	0	1774190592	7	3963
2026-01-02 04:54:51.07	214.87	48.94	-23.8	-24.5	17.4	0.00e+00	0	44	0	1795162112	7	3881
2026-01-02 04:54:54.07	214.48	47.98	-23.5	-23.8	17.7	0.00e+00	0	44	0	1817182208	7	3731
2026-01-02 04:54:57.08	214.11	47.04	-23.1	-23.4	18.2	9.38e-04	0	44	0	1839202304	6	3732
2026-01-02 04:55:00.09	213.77	46.11	-23.2	-23.6	18.1	8.23e-04	0	44	0	1861222400	6	3784
2026-01-02 04:55:03.09	213.44	45.21	-23.2	-23.7	17.8	7.48e-04	0	44	0	1882193920	6	3793
2026-01-02 04:55:06.10	213.13	44.33	-22.7	-22.5	18.6	1.91e-04	0	44	0	1904214016	6	3540
2026-01-02 04:55:09.11	212.84	43.46	-22.9	-23.5	18.4	3.54e-04	0	44	0	1926234112	5	3869
2026-01-02 04:55:12.12	212.57	42.61	-22.6	-22.8	18.7	7.37e-04	0	44	0	1947205632	5	3704
2026-01-02 04:55:15.13	212.31	41.78	-22.3	-22.3	19.0	7.37e-04	0	44	0	1969225728	5	3582
2026-01-02 04:55:18.13	212.06	40.97	-22.5	-22.8	18.7	0.00e+00	0	44	0	1991245824	5	3695
2026-01-02 04:55:21.16	211.83	40.17	-22.6	-22.9	18.6	0.00e+00	0	44	0	2012217344	5	3733
2026-01-02 04:55:24.17	211.60	39.39	-22.8	-23.2	18.5	0.00e+00	0	44	0	2034237440	5	3803
2026-01-02 04:55:27.18	211.39	38.63	-22.8	-23.4	18.4	0.00e+00	0	44	0	2056257536	5	3834
2026-01-02 04:55:30.19	211.19	37.88	-22.9	-23.5	18.3	0.00e+00	0	44	0	2078277632	5	3865
2026-01-02 04:55:33.20	210.99	37.15	-22.6	-22.9	18.6	0.00e+00	0	44	0	2099249152	5	3733
2026-01-02 04:55:36.23	210.81	36.43	-22.5	-22.6	18.7	0.00e+00	0	44	0	2121269248	5	3664
2026-01-02 04:55:39.25	210.63	35.73	-22.6	-22.8	18.6	0.00e+00	0	44	0	2143289344	5	3707
2026-01-02 04:55:42.26	210.46	35.04	-22.8	-23.3	18.4	0.00e+00	0	44	0	2165309440	5	3829
2026-01-02 04:55:45.27	210.30	34.37	-22.7	-23.1	18.5	0.00e+00	0	44	0	2186280960	5	3774
2026-01-02 04:55:48.27	210.15	33.72	-22.2	-22.1	19.0	0.00e+00	0	44	0	2208301056	5	3566
2026-01-02 04:55:51.27	210.00	33.08	-22.0	-22.2	19.1	0.00e+00	0	44	0	2230321152	4	3686
2026-01-02 04:55:54.29	209.86	32.45	-21.9	-22.0	19.1	0.00e+00	0	44	0	2252341248	4	3625
2026-01-02 04:55:57.30	209.72	31.83	-22.1	-22.4	19.0	0.00e+00	0	44	0	2273312768	4	3726
2026-01-02 04:56:00.30	209.59	31.23	-22.5	-23.2	18.6	0.00e+00	0	44	0	2295332864	4	3903
2026-01-02 04:56:03.31	209.47	30.63	-22.5	-23.2	18.6	0.00e+00	0	44	0	2317352960	4	3903
2026-01-02 04:56:06.32	209.34	30.05	-22.6	-23.0	18.4	0.00e+00	0	44	0	2338324480	5	3756
2026-01-02 04:56:09.33	209.23	29.48	-22.3	-22.3	18.8	0.00e+00	0	44	0	2360344576	5	3587
2026-01-02 04:56:12.34	209.12	28.92	-22.3	-22.4	18.8	0.00e+00	0	44	0	2382364672	5	3612
2026-01-02 04:56:15.34	209.01	28.38	-22.4	-23.0	18.6	0.00e+00	0	44	0	2404384768	4	3865
2026-01-02 04:56:18.35	208.90	27.84	-22.7	-23.1	18.4	0.00e+00	0	44	0	2425356288	5	3771
2026-01-02 04:56:21.36	208.80	27.31	-22.8	-23.3	18.3	0.00e+00	0	44	0	2447376384	5	3814
2026-01-02 04:56:24.37	208.71	26.80	-22.8	-23.4	18.2	0.00e+00	0	44	0	2469396480	5	3853
2026-01-02 04:56:27.38	208.61	26.29	-22.9	-23.5	18.2	0.00e+00	0	44	0	2491416576	5	3859
2026-01-02 04:56:30.38	208.52	25.79	-22.8	-23.3	18.3	0.00e+00	0	44	0	2512388096	5	3821
2026-01-02 04:56:33.39	208.44	25.30	-22.6	-22.8	18.5	0.00e+00	0	44	0	2534408192	5	3714
2026-01-02 04:56:36.40	208.35	24.82	-22.6	-22.9	18.4	0.00e+00	0	44	0	2556428288	5	3729
2026-01-02 04:56:39.41	208.27	24.35	-22.7	-23.1	18.4	0.00e+00	0	44	0	2577399808	5	3768
2026-01-02 04:56:42.42	208.19	23.89	-22.9	-23.5	18.0	0.00e+00	0	44	0	2599419904	5	3878
2026-01-02 04:56:45.44	208.11	23.43	-23.4	-24.2	17.4	0.00e+00	0	44	0	2621440000	6	3928
2026-01-02 04:56:48.46	208.04	22.98	-23.2	-23.7	17.8	0.00e+00	0	44	0	2642411520	6	3806
2026-01-02 04:56:51.47	207.97	22.54	-23.1	-23.4	17.9	0.00e+00	0	44	0	2664431616	6	3738
2026-01-02 04:56:54.48	207.90	22.11	-23.0	-23.4	17.9	0.00e+00	0	44	0	2686451712	6	3732
2026-01-02 04:56:57.48	207.83	21.68	-23.0	-23.3	17.9	0.00e+00	0	44	0	2708471808	6	3729
2026-01-02 04:57:00.50	207.77	21.26	-23.0	-23.3	17.9	0.00e+00	0	44	0	2729443328	6	3728
2026-01-02 04:57:03.51	207.70	20.85	-23.2	-23.7	17.6	0.00e+00	0	44	0	2751463424	6	3818
2026-01-02 04:57:06.52	207.64	20.44	-23.2	-23.7	17.7	0.00e+00	0	44	0	2773483520	6	3809
2026-01-02 04:57:09.53	207.58	20.05	-23.2	-23.7	17.6	0.00e+00	0	44	0	2794455040	6	3818
2026-01-02 04:57:12.53	207.52	19.65	-23.3	-24.0	17.5	0.00e+00	0	44	0	2816475136	6	3872
2026-01-02 04:57:15.54	207.47	19.27	-23.6	-23.9	17.2	0.00e+00	0	44	0	2838495232	7	3765
2026-01-02 04:57:18.54	207.41	18.89	-23.6	-24.2	17.1	0.00e+00	0	44	0	2860515328	7	3816
2026-01-02 04:57:21.54	207.36	18.51	-23.7	-24.2	17.1	0.00e+00	0	44	0	2881486848	7	3825
2026-01-02 04:57:24.55	207.31	18.14	-23.9	-24.6	16.8	0.00e+00	0	44	0	2903506944	7	3912
2026-01-02 04:57:27.55	207.26	17.78	-24.0	-24.9	16.7	0.00e+00	0	44	0	2925527040	7	3980
2026-01-02 04:57:30.57	207.21	17.42	-24.5	-25.5	16.1	0.00e+00	0	44	0	2946498560	8	4026
2026-01-02 04:57:33.57	207.16	17.07	-24.1	-24.7	16.5	0.00e+00	0	44	0	2968518656	8	3826
2026-01-02 04:57:36.58	207.12	16.72	-24.2	-24.8	16.5	0.00e+00	0	44	0	2990538752	8	3864
2026-01-02 04:57:39.59	207.07	16.38	-24.3	-24.9	16.4	0.00e+00	0	44	0	3012558848	8	3895
2026-01-02 04:57:42.59	207.03	16.04	-24.3	-25.1	16.3	0.00e+00	0	44	0	3033530368	8	3926
2026-01-02 04:57:45.60	206.99	15.71	-24.4	-25.3	16.2	0.00e+00	0	44	0	3055550464	8	3983
2026-01-02 04:57:48.61	206.95	15.38	-24.7	-25.5	15.8	0.00e+00	0	44	0	3077570560	9	3917
2026-01-02 04:57:51.63	206.91	15.05	-24.7	-25.4	15.8	0.00e+00	0	44	0	3099590656	9	3901
2026-01-02 04:57:54.64	206.87	14.73	-24.8	-25.6	15.7	0.00e+00	0	44	0	3120562176	9	3948
2026-01-02 04:57:57.65	206.83	14.41	-24.5	-25.1	16.0	0.00e+00	0	44	0	3142582272	9	3824
2026-01-02 04:58:00.65	206.79	14.10	-24.6	-25.2	15.8	0.00e+00	0	44	0	3164602368	9	3853
2026-01-02 04:58:03.66	206.76	13.79	-24.5	-25.0	15.9	0.00e+00	0	44	0	3185573888	9	3818
2026-01-02 04:58:06.68	206.72	13.49	-24.6	-25.2	15.8	0.00e+00	0	44	0	3207593984	9	3856
2026-01-02 04:58:09.70	206.69	13.18	-24.8	-25.6	15.6	0.00e+00	0	44	0	3229614080	9	3946
2026-01-02 04:58:12.72	206.65	12.88	-24.8	-25.7	15.5	5.70e-06	0	44	0	3250585600	9	3979
2026-01-02 04:58:15.72	206.62	12.59	-24.9	-25.8	15.4	4.50e-06	0	44	0	3272605696	9	4010
2026-01-02 04:58:18.73	206.59	12.30	-25.0	-26.1	15.3	5.70e-06	0	44	0	3294625792	9	4088
2026-01-02 04:58:21.74	206.56	12.01	-25.7	-26.6	14.4	1.41e-03	0	44	0	3316645888	11	3997
2026-01-02 04:58:24.75	206.53	11.73	-25.2	-26.1	15.0	4.50e-06	0	44	0	3337617408	10	3970
2026-01-02 04:58:27.76	206.50	11.45	-25.3	-26.3	14.8	5.70e-06	0	44	0	3359637504	10	4040
2026-01-02 04:58:30.76	206.47	11.17	-25.5	-26.2	14.7	6.80e-06	0	44	0	3381657600	11	3892
2026-01-02 04:58:33.75	206.44	10.90	-25.7	-26.6	14.4	6.80e-06	0	44	0	3402629120	11	3987
2026-01-02 04:58:36.77	206.41	10.63	-25.5	-26.7	14.6	1.40e-03	0	44	0	3424649216	10	4129
2026-01-02 04:58:39.77	206.39	10.36	-25.6	-26.5	14.4	1.50e-03	0	44	0	3446669312	11	3969
2026-01-02 04:58:42.78	206.36	10.10	-25.5	-26.3	14.5	1.36e-03	0	44	0	3468689408	11	3913
2026-01-02 04:58:45.79	206.33	9.83	-25.6	-26.4	14.4	1.22e-03	0	44	0	3489660928	11	3952
2026-01-02 04:58:48.79	206.31	9.58	-25.9	-27.0	14.1	1.47e-03	0	44	0	3511681024	11	4096
2026-01-02 04:58:51.80	206.28	9.32	-25.7	-26.7	14.3	1.40e-03	0	44	0	3533701120	11	4016
2026-01-02 04:58:54.81	206.26	9.06	-25.9	-27.1	14.0	1.58e-03	0	44	0	3554672640	11	4119
2026-01-02 04:58:57.81	206.24	8.81	-25.8	-26.8	14.1	1.64e-03	0	44	0	3576692736	11	4052
2026-01-02 04:59:00.83	206.22	8.56	-26.0	-27.4	13.8	3.40e-06	0	44	0	3598712832	11	4205
2026-01-02 04:59:03.84	206.19	8.32	-25.9	-27.1	13.9	0.00e+00	0	44	0	3620732928	11	4137
2026-01-02 04:59:06.85	206.17	8.07	-26.2	-27.3	13.4	5.70e-06	0	44	0	3641704448	12	4087
2026-01-02 04:59:09.86	206.15	7.83	-26.6	-28.2	12.9	1.77e-03	0	44	0	3663724544	12	4335
2026-01-02 04:59:12.88	206.13	7.59	-26.3	-27.6	13.2	2.05e-05	0	44	0	3685744640	12	4157
2026-01-02 04:59:15.89	206.11	7.35	-26.1	-27.0	13.5	9.10e-06	0	44	0	3707764736	12	4024
2026-01-02 04:59:18.90	206.09	7.12	-26.2	-27.4	13.3	8.00e-06	0	44	0	3728736256	12	4117

#Closed at: 2026-01-02 04:59:20
#Recorded file [3731 MB]: D:/data/31010_260102_075041.dat