passes_logs/2026/01/02/R2M6_AANII_01/R2M6_AANII_01__20260102_080347_NOAA_21_JPSS-2_rec.log

#Pass ID: 20260102_080347_NOAA 21 (JPSS-2)
#Satellite: NOAA 21 (JPSS-2)
#Configuration: NOAA 21
#almurnet v.1.7.20240730
#Start time: 2026-01-02 08:03:48

#Version: 2.2.20231116
#Station: R2M6_AANII_01
#Location: 30.233357 lon 59.946436 lat
#TLE: 1 54234U 22150A   26001.26806856  .00000185  00000+0  10843-3 0  9990
#TLE: 2 54234  98.7484 302.3349 0001277 353.3887   6.7272 14.19530660162860

#Time	Az	El	Level	Level2	SNR	BER	BlckErr	Temp	State	Recorded	gain1	gain2
2026-01-02 08:03:48.67	90.02	7.09	-31.7	-39.7	4.0	1.47e+00	0	40	0	0	24	9037
2026-01-02 08:03:51.68	89.70	7.26	-31.1	-36.2	6.4	2.50e-01	0	41	0	3145728	23	6471
2026-01-02 08:03:54.69	89.38	7.44	-30.9	-35.3	7.0	1.57e-01	0	41	0	12582912	23	6022
2026-01-02 08:03:57.71	89.05	7.62	-30.3	-33.8	8.6	5.80e-02	0	41	0	22020096	22	5344
2026-01-02 08:04:00.71	88.72	7.80	-29.4	-31.8	10.7	4.09e-03	0	41	0	30408704	20	4763
2026-01-02 08:04:03.72	88.39	7.98	-28.7	-30.8	12.1	2.86e-04	0	41	0	40894464	18	4627
2026-01-02 08:04:06.74	88.05	8.16	-28.7	-30.9	12.1	2.47e-04	0	41	0	49283072	18	4640
2026-01-02 08:04:09.75	87.70	8.34	-28.7	-31.0	12.1	2.25e-04	0	41	0	58720256	18	4665
2026-01-02 08:04:12.77	87.35	8.52	-28.6	-30.6	12.4	1.30e-04	0	42	0	69206016	18	4535
2026-01-02 08:04:15.78	87.00	8.70	-28.4	-30.0	12.8	5.49e-05	0	42	0	77594624	18	4356
2026-01-02 08:04:18.78	86.64	8.88	-28.1	-29.8	13.2	2.36e-05	0	42	0	87031808	17	4405
2026-01-02 08:04:21.79	86.28	9.06	-27.8	-29.2	13.6	9.10e-06	0	42	0	96468992	17	4225
2026-01-02 08:04:24.81	85.91	9.24	-28.1	-29.8	13.3	1.83e-05	0	42	0	105906176	17	4374
2026-01-02 08:04:27.81	85.54	9.43	-27.9	-29.3	13.6	7.60e-06	0	42	0	115343360	17	4238
2026-01-02 08:04:30.80	85.17	9.61	-27.8	-29.1	13.8	6.80e-06	0	42	0	124780544	17	4170
2026-01-02 08:04:33.79	84.79	9.79	-28.0	-30.0	13.5	7.60e-06	0	42	0	134217728	16	4556
2026-01-02 08:04:36.80	84.40	9.97	-27.6	-29.1	14.0	3.00e-06	0	42	0	143654912	16	4288
2026-01-02 08:04:39.81	84.01	10.15	-27.7	-29.3	13.9	2.20e-06	0	42	0	153092096	16	4351
2026-01-02 08:04:42.81	83.62	10.33	-27.6	-29.2	14.0	1.50e-06	0	42	0	162529280	16	4324
2026-01-02 08:04:45.81	83.22	10.51	-27.6	-29.2	14.0	2.20e-06	0	42	0	171966464	16	4307
2026-01-02 08:04:48.82	82.81	10.69	-27.5	-28.8	14.3	7.00e-07	0	42	0	181403648	16	4181
2026-01-02 08:04:51.82	82.40	10.87	-27.4	-28.6	14.4	7.00e-07	0	42	0	190840832	16	4147
2026-01-02 08:04:54.85	81.98	11.06	-27.7	-29.3	14.0	7.00e-07	0	42	0	200278016	16	4351
2026-01-02 08:04:57.86	81.56	11.24	-28.2	-30.5	13.3	2.21e-05	0	42	0	209715200	16	4710
2026-01-02 08:05:00.87	81.14	11.42	-28.3	-30.8	13.2	6.10e-06	0	42	0	219152384	16	4806
2026-01-02 08:05:03.87	80.71	11.60	-28.2	-30.5	13.4	1.75e-05	0	42	0	228589568	16	4706
2026-01-02 08:05:06.88	80.27	11.78	-27.5	-28.9	14.3	1.50e-06	0	43	0	238026752	16	4221
2026-01-02 08:05:09.90	79.82	11.96	-28.0	-30.0	13.7	5.30e-06	0	43	0	247463936	16	4531
2026-01-02 08:05:12.92	79.37	12.14	-27.6	-29.1	14.3	3.00e-06	0	43	0	256901120	16	4278
2026-01-02 08:05:15.93	78.92	12.32	-27.9	-29.7	13.9	1.50e-06	0	42	0	266338304	16	4452
2026-01-02 08:05:18.94	78.46	12.50	-27.4	-28.5	14.6	0.00e+00	0	43	0	275775488	16	4111
2026-01-02 08:05:21.96	77.99	12.68	-27.4	-28.7	14.5	7.00e-07	0	43	0	285212672	16	4152
2026-01-02 08:05:24.97	77.52	12.86	-27.5	-28.7	14.5	1.50e-06	0	43	0	294649856	16	4168
2026-01-02 08:05:27.98	77.04	13.04	-27.4	-28.5	14.6	0.00e+00	0	43	0	304087040	16	4117
2026-01-02 08:05:31.00	76.56	13.21	-27.4	-28.6	14.6	0.00e+00	0	43	0	313524224	16	4140
2026-01-02 08:05:34.01	76.07	13.39	-27.5	-28.8	14.5	0.00e+00	0	42	0	322961408	16	4198
2026-01-02 08:05:37.02	75.58	13.56	-27.5	-28.8	14.4	1.50e-06	0	43	0	332398592	16	4189
2026-01-02 08:05:40.04	75.08	13.74	-27.5	-28.9	14.5	1.50e-06	0	43	0	341835776	16	4205
2026-01-02 08:05:43.05	74.57	13.91	-27.6	-29.0	14.4	7.00e-07	0	43	0	350224384	16	4226
2026-01-02 08:05:46.07	74.05	14.09	-27.6	-29.0	14.4	0.00e+00	0	43	0	360710144	16	4224
2026-01-02 08:05:49.07	73.54	14.26	-27.4	-28.6	14.7	7.00e-07	0	43	0	370147328	16	4133
2026-01-02 08:05:52.08	73.01	14.43	-27.5	-28.7	14.6	7.00e-07	0	43	0	378535936	16	4159
2026-01-02 08:05:55.08	72.48	14.59	-27.5	-28.8	14.5	0.00e+00	0	43	0	387973120	16	4172
2026-01-02 08:05:58.09	71.95	14.76	-27.7	-29.3	14.2	7.00e-07	0	43	0	397410304	16	4320
2026-01-02 08:06:01.09	71.41	14.93	-27.8	-29.4	14.2	3.00e-06	0	43	0	406847488	16	4359
2026-01-02 08:06:04.09	70.86	15.09	-28.0	-29.9	14.0	3.80e-06	0	43	0	416284672	16	4485
2026-01-02 08:06:07.11	70.30	15.25	-27.8	-29.6	14.2	1.50e-06	0	43	0	425721856	16	4397
2026-01-02 08:06:10.11	69.74	15.41	-28.0	-29.9	13.9	0.00e+00	0	43	0	435159040	16	4497
2026-01-02 08:06:13.11	69.18	15.57	-28.0	-29.9	14.0	3.00e-06	0	43	0	444596224	16	4476
2026-01-02 08:06:16.11	68.61	15.73	-27.5	-28.9	14.6	7.00e-07	0	43	0	454033408	16	4187
2026-01-02 08:06:19.12	68.03	15.89	-27.3	-28.3	14.9	0.00e+00	0	43	0	463470592	16	4029
2026-01-02 08:06:22.14	67.44	16.04	-27.2	-28.5	14.9	0.00e+00	0	43	0	472907776	15	4215
2026-01-02 08:06:25.15	66.85	16.19	-27.2	-28.6	14.9	0.00e+00	0	43	0	482344960	15	4223
2026-01-02 08:06:28.17	66.25	16.34	-27.4	-29.0	14.6	1.50e-06	0	43	0	491782144	15	4347
2026-01-02 08:06:31.18	65.65	16.49	-27.5	-29.3	14.5	1.50e-06	0	43	0	501219328	15	4428
2026-01-02 08:06:34.19	65.04	16.63	-27.4	-29.1	14.6	0.00e+00	0	43	0	510656512	15	4362
2026-01-02 08:06:37.21	64.42	16.78	-27.4	-29.2	14.6	0.00e+00	0	43	0	520093696	15	4388
2026-01-02 08:06:40.23	63.80	16.92	-26.8	-28.1	15.4	0.00e+00	0	43	0	529530880	14	4203
2026-01-02 08:06:43.24	63.17	17.05	-26.8	-28.1	15.4	3.80e-06	0	43	0	538968064	14	4201
2026-01-02 08:06:46.25	62.54	17.19	-26.8	-28.2	15.4	0.00e+00	0	43	0	548405248	14	4231
2026-01-02 08:06:49.26	61.90	17.32	-26.6	-27.8	15.6	0.00e+00	0	43	0	557842432	14	4109
2026-01-02 08:06:52.28	61.26	17.45	-26.9	-28.4	15.3	0.00e+00	0	43	0	567279616	14	4284
2026-01-02 08:06:55.30	60.60	17.57	-27.0	-28.7	15.1	0.00e+00	0	43	0	576716800	14	4362
2026-01-02 08:06:58.31	59.95	17.69	-26.7	-28.1	15.5	0.00e+00	0	43	0	586153984	14	4186
2026-01-02 08:07:01.33	59.29	17.81	-26.7	-27.9	15.6	0.00e+00	0	43	0	595591168	14	4141
2026-01-02 08:07:04.33	58.63	17.93	-26.7	-27.9	15.6	0.00e+00	0	43	0	605028352	14	4147
2026-01-02 08:07:07.34	57.96	18.04	-26.4	-27.3	15.9	0.00e+00	0	43	0	614465536	14	3997
2026-01-02 08:07:10.34	57.28	18.15	-26.5	-27.5	15.9	0.00e+00	0	43	0	623902720	14	4025
2026-01-02 08:07:13.34	56.61	18.25	-26.4	-27.3	15.9	0.00e+00	0	43	0	633339904	14	3997
2026-01-02 08:07:16.34	55.92	18.35	-26.5	-27.5	15.8	0.00e+00	0	43	0	642777088	14	4050
2026-01-02 08:07:19.34	55.24	18.45	-26.6	-27.7	15.7	0.00e+00	0	43	0	651165696	14	4096
2026-01-02 08:07:22.35	54.55	18.54	-26.5	-27.5	15.9	0.00e+00	0	43	0	660602880	14	4027
2026-01-02 08:07:25.36	53.85	18.63	-26.8	-28.1	15.5	0.00e+00	0	43	0	670040064	14	4198
2026-01-02 08:07:28.36	53.15	18.71	-27.1	-28.9	15.1	0.00e+00	0	43	0	679477248	14	4407
2026-01-02 08:07:31.38	52.44	18.79	-27.1	-28.8	15.2	0.00e+00	0	43	0	688914432	14	4379
2026-01-02 08:07:34.38	51.74	18.87	-27.1	-28.9	15.1	0.00e+00	0	43	0	698351616	14	4403
2026-01-02 08:07:37.38	51.03	18.94	-27.0	-28.6	15.3	0.00e+00	0	43	0	707788800	14	4332
2026-01-02 08:07:40.40	50.31	19.01	-27.0	-28.6	15.2	7.00e-07	0	43	0	717225984	14	4344
2026-01-02 08:07:43.42	49.59	19.07	-27.1	-28.9	15.1	7.00e-07	0	43	0	726663168	14	4406
2026-01-02 08:07:46.43	48.87	19.13	-27.1	-28.8	15.2	0.00e+00	0	43	0	736100352	14	4380
2026-01-02 08:07:49.44	48.15	19.18	-27.1	-28.8	15.2	0.00e+00	0	43	0	745537536	14	4382
2026-01-02 08:07:52.44	47.42	19.23	-27.2	-29.0	15.1	0.00e+00	0	43	0	754974720	14	4430
2026-01-02 08:07:55.46	46.69	19.28	-27.3	-28.9	14.9	0.00e+00	0	43	0	764411904	15	4293
2026-01-02 08:07:58.45	45.97	19.32	-27.0	-28.2	15.3	0.00e+00	0	43	0	773849088	15	4105
2026-01-02 08:08:01.47	45.23	19.35	-27.1	-28.3	15.2	0.00e+00	0	43	0	783286272	15	4142
2026-01-02 08:08:04.48	44.50	19.38	-27.0	-28.2	15.2	0.00e+00	0	43	0	792723456	15	4103
2026-01-02 08:08:07.49	43.77	19.41	-26.9	-27.8	15.5	0.00e+00	0	43	0	802160640	15	4014
2026-01-02 08:08:10.51	43.03	19.43	-26.9	-28.0	15.4	0.00e+00	0	43	0	811597824	15	4056
2026-01-02 08:08:13.51	42.29	19.44	-26.9	-28.0	15.4	0.00e+00	0	43	0	821035008	15	4063
2026-01-02 08:08:16.53	41.55	19.45	-26.8	-27.6	15.6	0.00e+00	0	43	0	830472192	15	3954
2026-01-02 08:08:19.55	40.81	19.46	-26.8	-28.1	15.6	0.00e+00	0	43	0	839909376	14	4183
2026-01-02 08:08:22.55	40.08	19.46	-26.8	-28.2	15.5	0.00e+00	0	43	0	849346560	14	4228
2026-01-02 08:08:25.56	39.34	19.46	-26.8	-28.2	15.5	0.00e+00	0	43	0	858783744	14	4233
2026-01-02 08:08:28.56	38.61	19.45	-26.9	-28.3	15.5	0.00e+00	0	43	0	868220928	14	4245
2026-01-02 08:08:31.57	37.87	19.43	-26.8	-28.2	15.5	0.00e+00	0	43	0	877658112	14	4222
2026-01-02 08:08:34.59	37.13	19.41	-27.0	-28.6	15.3	0.00e+00	0	43	0	887095296	14	4329
2026-01-02 08:08:37.60	36.40	19.39	-26.7	-28.0	15.6	0.00e+00	0	43	0	896532480	14	4176
2026-01-02 08:08:40.60	35.67	19.36	-26.7	-27.9	15.7	0.00e+00	0	43	0	905969664	14	4145
2026-01-02 08:08:43.60	34.94	19.32	-26.7	-28.0	15.6	0.00e+00	0	43	0	915406848	14	4161
2026-01-02 08:08:46.62	34.21	19.29	-26.6	-28.0	15.5	0.00e+00	0	43	0	924844032	14	4223
2026-01-02 08:08:49.64	33.48	19.24	-26.8	-29.1	14.9	0.00e+00	0	43	0	934281216	13	4723
2026-01-02 08:08:52.66	32.75	19.19	-27.1	-28.9	14.9	0.00e+00	0	43	0	943718400	14	4462
2026-01-02 08:08:55.67	32.03	19.14	-27.1	-28.3	15.2	0.00e+00	0	43	0	953155584	15	4137
2026-01-02 08:08:58.68	31.30	19.08	-27.1	-28.5	15.0	7.00e-07	0	43	0	962592768	15	4190
2026-01-02 08:09:01.69	30.59	19.02	-26.8	-27.6	15.5	0.00e+00	0	43	0	972029952	15	3973
2026-01-02 08:09:04.70	29.87	18.95	-26.5	-27.6	15.8	0.00e+00	0	43	0	980418560	14	4060
2026-01-02 08:09:07.71	29.16	18.88	-26.6	-27.8	15.7	0.00e+00	0	43	0	989855744	14	4118
2026-01-02 08:09:10.72	28.45	18.81	-26.7	-27.9	15.6	0.00e+00	0	43	0	999292928	14	4138
2026-01-02 08:09:13.73	27.75	18.73	-26.7	-27.9	15.6	0.00e+00	0	43	0	1008730112	14	4141
2026-01-02 08:09:16.75	27.05	18.64	-26.9	-28.4	15.3	0.00e+00	0	43	0	1018167296	14	4266
2026-01-02 08:09:19.75	26.35	18.56	-26.8	-28.2	15.4	0.00e+00	0	43	0	1027604480	14	4221
2026-01-02 08:09:22.77	25.66	18.46	-26.9	-28.4	15.3	0.00e+00	0	43	0	1037041664	14	4271
2026-01-02 08:09:25.79	24.97	18.37	-26.9	-28.4	15.3	0.00e+00	0	43	0	1046478848	14	4291
2026-01-02 08:09:28.80	24.29	18.27	-27.0	-28.6	15.2	0.00e+00	0	43	0	1055916032	14	4340
2026-01-02 08:09:31.81	23.61	18.16	-27.0	-28.7	15.1	0.00e+00	0	43	0	1065353216	14	4364
2026-01-02 08:09:34.81	22.94	18.06	-26.7	-27.9	15.5	0.00e+00	0	43	0	1074790400	14	4140
2026-01-02 08:09:37.83	22.27	17.95	-26.8	-28.1	15.4	0.00e+00	0	43	0	1084227584	14	4208
2026-01-02 08:09:40.85	21.60	17.83	-26.8	-28.2	15.3	0.00e+00	0	43	0	1093664768	14	4227
2026-01-02 08:09:43.86	20.94	17.71	-27.1	-28.8	15.0	0.00e+00	0	43	0	1103101952	14	4395
2026-01-02 08:09:46.86	20.29	17.59	-26.7	-28.1	15.4	0.00e+00	0	43	0	1112539136	14	4185
2026-01-02 08:09:49.88	19.64	17.47	-26.6	-27.7	15.6	0.00e+00	0	43	0	1121976320	14	4087
2026-01-02 08:09:52.89	19.00	17.34	-26.7	-28.0	15.4	0.00e+00	0	43	0	1131413504	14	4176
2026-01-02 08:09:55.91	18.36	17.21	-26.8	-28.2	15.4	0.00e+00	0	43	0	1140850688	14	4225
2026-01-02 08:09:58.92	17.73	17.08	-27.0	-28.6	15.1	0.00e+00	0	43	0	1150287872	14	4341
2026-01-02 08:10:01.92	17.11	16.94	-27.0	-28.7	15.1	0.00e+00	0	43	0	1159725056	14	4352
2026-01-02 08:10:04.93	16.49	16.80	-26.8	-28.2	15.3	0.00e+00	0	43	0	1169162240	14	4227
2026-01-02 08:10:07.93	15.87	16.66	-26.8	-28.3	15.3	0.00e+00	0	43	0	1178599424	14	4245
2026-01-02 08:10:10.94	15.27	16.52	-26.8	-28.3	15.2	0.00e+00	0	43	0	1188036608	14	4247
2026-01-02 08:10:13.94	14.67	16.37	-27.2	-29.2	14.7	7.00e-07	0	43	0	1197473792	14	4508
2026-01-02 08:10:16.95	14.07	16.22	-26.9	-28.4	15.2	0.00e+00	0	44	0	1206910976	14	4293
2026-01-02 08:10:19.95	13.48	16.07	-26.9	-28.5	15.1	0.00e+00	0	43	0	1216348160	14	4310
2026-01-02 08:10:22.96	12.90	15.92	-27.0	-28.5	15.1	0.00e+00	0	43	0	1225785344	14	4326
2026-01-02 08:10:25.97	12.32	15.77	-27.0	-28.6	15.0	0.00e+00	0	43	0	1235222528	14	4331
2026-01-02 08:10:28.99	11.75	15.61	-27.0	-28.6	15.0	0.00e+00	0	43	0	1244659712	14	4355
2026-01-02 08:10:32.01	11.18	15.45	-27.1	-29.0	14.8	0.00e+00	0	43	0	1254096896	14	4450
2026-01-02 08:10:35.02	10.62	15.29	-27.1	-29.0	14.8	0.00e+00	0	43	0	1263534080	14	4447
2026-01-02 08:10:38.03	10.07	15.13	-27.2	-29.1	14.7	0.00e+00	0	43	0	1272971264	14	4489
2026-01-02 08:10:41.05	9.52	14.96	-27.4	-29.6	14.3	2.20e-06	0	43	0	1282408448	14	4646
2026-01-02 08:10:44.06	8.97	14.80	-27.8	-30.2	13.8	2.20e-06	0	43	0	1291845632	15	4705
2026-01-02 08:10:47.09	8.44	14.63	-27.9	-29.7	14.0	1.50e-06	0	43	0	1301282816	16	4429
2026-01-02 08:10:50.10	7.91	14.46	-27.4	-28.5	14.7	0.00e+00	0	43	0	1310720000	16	4096
2026-01-02 08:10:53.11	7.38	14.29	-27.9	-29.6	13.9	1.50e-06	0	43	0	1320157184	16	4423
2026-01-02 08:10:56.11	6.87	14.12	-27.6	-29.0	14.3	2.20e-06	0	43	0	1328545792	16	4229
2026-01-02 08:10:59.12	6.36	13.95	-27.5	-28.9	14.4	1.50e-06	0	43	0	1337982976	16	4209
2026-01-02 08:11:02.13	5.85	13.78	-27.0	-28.2	14.8	7.00e-07	0	43	0	1347420160	15	4143
2026-01-02 08:11:05.14	5.35	13.61	-27.1	-28.5	14.7	0.00e+00	0	43	0	1356857344	15	4220
2026-01-02 08:11:08.16	4.86	13.43	-27.3	-28.9	14.4	1.50e-06	0	43	0	1366294528	15	4335
2026-01-02 08:11:11.15	4.38	13.26	-27.6	-29.5	14.1	1.50e-06	0	43	0	1375731712	15	4511
2026-01-02 08:11:14.15	3.90	13.08	-27.3	-28.9	14.4	7.00e-07	0	43	0	1385168896	15	4344
2026-01-02 08:11:17.16	3.42	12.91	-27.2	-28.6	14.5	7.00e-07	0	43	0	1394606080	15	4248
2026-01-02 08:11:20.17	2.95	12.73	-27.1	-28.5	14.7	1.50e-06	0	43	0	1404043264	15	4204
2026-01-02 08:11:23.19	2.49	12.55	-27.4	-29.0	14.3	2.20e-06	0	43	0	1413480448	15	4370
2026-01-02 08:11:26.19	2.03	12.37	-27.4	-29.2	14.2	3.80e-06	0	43	0	1422917632	15	4409
2026-01-02 08:11:29.20	1.58	12.19	-27.5	-29.5	14.0	7.00e-07	0	43	0	1432354816	15	4514
2026-01-02 08:11:32.21	1.13	12.01	-27.7	-29.8	13.9	2.20e-06	0	43	0	1441792000	15	4599
2026-01-02 08:11:35.22	0.69	11.84	-27.8	-30.0	13.6	8.30e-06	0	43	0	1451229184	15	4682
2026-01-02 08:11:38.24	0.25	11.65	-27.9	-30.3	13.4	1.52e-05	0	43	0	1460666368	15	4776
2026-01-02 08:11:41.23	359.82	11.48	-27.9	-30.5	13.4	1.44e-05	0	44	0	1470103552	15	4809
2026-01-02 08:11:44.23	359.40	11.30	-27.9	-29.7	13.7	3.00e-06	0	43	0	1479540736	16	4456
2026-01-02 08:11:47.24	358.98	11.11	-28.3	-30.7	13.1	2.82e-05	0	44	0	1488977920	16	4771
2026-01-02 08:11:50.25	358.57	10.93	-28.2	-30.5	13.3	2.44e-05	0	43	0	1498415104	16	4689
2026-01-02 08:11:53.27	358.16	10.75	-28.1	-30.2	13.4	1.29e-05	0	43	0	1507852288	16	4611
2026-01-02 08:11:56.28	357.75	10.57	-27.7	-29.3	13.9	4.50e-06	0	43	0	1517289472	16	4340
2026-01-02 08:11:59.28	357.35	10.39	-27.8	-29.6	13.8	4.50e-06	0	43	0	1526726656	16	4426
2026-01-02 08:12:02.29	356.96	10.21	-28.1	-30.3	13.4	1.37e-05	0	43	0	1536163840	16	4631
2026-01-02 08:12:05.29	356.57	10.03	-28.3	-30.7	13.1	2.59e-05	0	43	0	1545601024	16	4779
2026-01-02 08:12:08.30	356.19	9.85	-28.3	-30.8	13.0	3.81e-05	0	43	0	1555038208	16	4819
2026-01-02 08:12:11.31	355.81	9.67	-28.4	-31.0	12.9	4.42e-05	0	43	0	1564475392	16	4870
2026-01-02 08:12:14.31	355.44	9.49	-28.3	-30.9	12.9	3.96e-05	0	43	0	1572864000	16	4850
2026-01-02 08:12:17.31	355.07	9.31	-28.4	-31.0	12.8	5.95e-05	0	43	0	1582301184	16	4874
2026-01-02 08:12:20.32	354.70	9.13	-28.6	-31.2	12.4	1.24e-04	0	43	0	1592786944	17	4826
2026-01-02 08:12:23.32	354.34	8.95	-28.6	-31.2	12.3	1.83e-04	0	43	0	1601175552	17	4845
2026-01-02 08:12:26.33	353.99	8.77	-28.9	-31.3	12.0	3.28e-04	0	43	0	1610612736	18	4748
2026-01-02 08:12:29.34	353.64	8.59	-28.5	-30.3	12.6	9.68e-05	0	43	0	1620049920	18	4448
2026-01-02 08:12:32.36	353.29	8.40	-28.5	-30.4	12.5	1.08e-04	0	43	0	1629487104	18	4481
2026-01-02 08:12:35.35	352.95	8.23	-28.8	-31.0	12.1	2.68e-04	0	44	0	1638924288	18	4669
2026-01-02 08:12:38.37	352.61	8.05	-28.6	-30.6	12.4	1.40e-04	0	44	0	1648361472	18	4529
2026-01-02 08:12:41.38	352.27	7.87	-28.8	-31.2	12.0	3.11e-04	0	44	0	1657798656	18	4735
2026-01-02 08:12:44.40	351.94	7.69	-28.8	-31.1	12.0	3.33e-04	0	43	0	1667235840	18	4689
2026-01-02 08:12:47.41	351.62	7.51	-28.7	-31.0	12.0	3.07e-04	0	43	0	1676673024	18	4665
2026-01-02 08:12:50.41	351.30	7.33	-28.7	-31.0	12.0	1.87e-04	0	43	0	1686110208	18	4665
2026-01-02 08:12:53.40	350.98	7.16	-28.7	-30.9	12.1	2.85e-04	0	44	0	1695547392	18	4631
2026-01-02 08:12:56.42	350.67	6.98	-32.8	-44.5	3.8	1.49e+00	0	43	104	1701838848	25	13915

#Closed at: 2026-01-02 08:12:58
#Recorded file [1701 MB]: D:/data/31010_260102_110350.dat