passes_logs/2026/01/02/R2M6_AANII_01/R2M6_AANII_01__20260102_093543_FENGYUN_3D_rec.log

#Pass ID: 20260102_093543_FENGYUN 3D
#Satellite: FENGYUN 3D
#Configuration: FENGYUN 3D
#almurnet v.1.7.20240730
#Start time: 2026-01-02 09:35:44

#Version: 2.2.20231116
#Station: R2M6_AANII_01
#Location: 30.233357 lon 59.946436 lat
#TLE: 1 43010U 17072A   26001.33100487  .00000602  00000+0  30664-3 0  9999
#TLE: 2 43010  98.9910 332.9374 0001848 133.1047 227.0283 14.19692078421319

#Time	Az	El	Level	Level2	SNR	BER	BlckErr	Temp	State	Recorded	gain1	gain2
2026-01-02 09:35:44.30	74.76	7.05	-30.7	-35.3	4.8	8.06e-01	0	41	0	0	22	6067
2026-01-02 09:35:46.31	74.52	7.16	-29.6	-32.5	9.3	1.82e-02	0	41	0	0	20	5033
2026-01-02 09:35:48.31	74.27	7.26	-29.7	-32.7	9.2	1.59e-02	0	41	0	10485760	20	5126
2026-01-02 09:35:50.31	74.02	7.36	-29.4	-31.8	9.8	1.23e-02	0	41	0	22020096	20	4782
2026-01-02 09:35:52.31	73.77	7.46	-28.4	-30.3	11.6	6.66e-04	0	41	0	33554432	18	4480
2026-01-02 09:35:54.31	73.52	7.56	-27.8	-29.2	12.6	9.61e-05	0	41	0	45088768	17	4247
2026-01-02 09:35:56.31	73.27	7.67	-27.0	-28.4	13.6	9.10e-06	0	41	0	55574528	15	4244
2026-01-02 09:35:58.33	73.01	7.77	-26.7	-28.3	14.0	3.40e-06	0	41	0	67108864	14	4309
2026-01-02 09:36:00.34	72.75	7.87	-26.9	-28.6	13.8	3.40e-06	0	41	0	78643200	14	4405
2026-01-02 09:36:02.34	72.50	7.97	-26.9	-28.8	13.7	2.20e-06	0	41	0	90177536	14	4449
2026-01-02 09:36:04.35	72.23	8.08	-26.9	-28.6	13.8	3.40e-06	0	41	0	100663296	14	4400
2026-01-02 09:36:06.36	71.97	8.18	-26.8	-28.4	13.9	2.20e-06	0	42	0	112197632	14	4347
2026-01-02 09:36:08.37	71.70	8.28	-26.7	-28.3	14.0	0.00e+00	0	42	0	123731968	14	4310
2026-01-02 09:36:10.38	71.44	8.38	-27.0	-28.8	13.7	6.80e-06	0	42	0	135266304	14	4447
2026-01-02 09:36:12.38	71.17	8.48	-26.7	-28.2	14.1	1.10e-06	0	42	0	146800640	14	4267
2026-01-02 09:36:14.38	70.90	8.58	-26.5	-27.7	14.4	0.00e+00	0	42	0	157286400	14	4131
2026-01-02 09:36:16.38	70.63	8.68	-26.5	-27.7	14.4	0.00e+00	0	42	0	168820736	14	4134
2026-01-02 09:36:18.40	70.35	8.78	-26.6	-28.0	14.2	1.10e-06	0	42	0	180355072	14	4219
2026-01-02 09:36:20.39	70.08	8.88	-26.5	-27.8	14.3	0.00e+00	0	42	0	190840832	14	4175
2026-01-02 09:36:22.40	69.80	8.98	-26.5	-27.6	14.5	0.00e+00	0	42	0	202375168	14	4109
2026-01-02 09:36:24.41	69.52	9.08	-26.4	-27.5	14.6	0.00e+00	0	42	0	213909504	14	4076
2026-01-02 09:36:26.42	69.24	9.18	-26.4	-27.4	14.6	0.00e+00	0	42	0	225443840	14	4056
2026-01-02 09:36:28.41	68.95	9.28	-26.6	-27.9	14.3	2.20e-06	0	42	0	236978176	14	4179
2026-01-02 09:36:30.42	68.67	9.38	-26.5	-27.7	14.5	0.00e+00	0	42	0	247463936	14	4126
2026-01-02 09:36:32.42	68.38	9.48	-26.7	-28.1	14.3	0.00e+00	0	42	0	258998272	14	4230
2026-01-02 09:36:34.43	68.09	9.58	-26.6	-27.9	14.3	0.00e+00	0	42	0	270532608	14	4191
2026-01-02 09:36:36.43	67.80	9.67	-26.3	-27.3	14.7	0.00e+00	0	42	0	282066944	14	4025
2026-01-02 09:36:38.44	67.51	9.77	-26.3	-27.3	14.7	0.00e+00	0	42	0	292552704	14	4026
2026-01-02 09:36:40.44	67.21	9.87	-26.6	-27.9	14.4	2.20e-06	0	42	0	304087040	14	4184
2026-01-02 09:36:42.44	66.91	9.97	-26.4	-27.4	14.7	0.00e+00	0	42	0	315621376	14	4065
2026-01-02 09:36:44.45	66.61	10.06	-26.2	-27.4	14.9	0.00e+00	0	42	0	327155712	13	4160
2026-01-02 09:36:46.46	66.31	10.16	-26.1	-27.4	14.9	0.00e+00	0	42	0	337641472	13	4155
2026-01-02 09:36:48.47	66.01	10.25	-26.4	-27.9	14.7	0.00e+00	0	42	0	349175808	13	4293
2026-01-02 09:36:50.48	65.70	10.35	-26.4	-28.0	14.6	0.00e+00	0	42	0	360710144	13	4320
2026-01-02 09:36:52.48	65.39	10.44	-26.2	-27.6	14.9	0.00e+00	0	42	0	372244480	13	4204
2026-01-02 09:36:54.49	65.08	10.54	-26.5	-28.2	14.5	0.00e+00	0	42	0	382730240	13	4384
2026-01-02 09:36:56.50	64.77	10.63	-26.2	-27.5	14.9	0.00e+00	0	43	0	394264576	13	4185
2026-01-02 09:36:58.51	64.45	10.73	-25.9	-26.8	15.3	0.00e+00	0	43	0	405798912	13	4015
2026-01-02 09:37:00.52	64.14	10.82	-25.8	-26.6	15.4	0.00e+00	0	43	0	417333248	13	3948
2026-01-02 09:37:02.53	63.82	10.91	-25.9	-27.3	15.3	0.00e+00	0	43	0	428867584	12	4225
2026-01-02 09:37:04.54	63.50	11.01	-25.9	-27.3	15.3	0.00e+00	0	43	0	439353344	12	4239
2026-01-02 09:37:06.55	63.18	11.10	-25.9	-27.3	15.4	0.00e+00	0	43	0	450887680	12	4220
2026-01-02 09:37:08.55	62.85	11.19	-26.0	-27.5	15.3	0.00e+00	0	43	0	462422016	12	4262
2026-01-02 09:37:10.56	62.53	11.28	-25.9	-27.3	15.4	0.00e+00	0	43	0	473956352	12	4230
2026-01-02 09:37:12.56	62.20	11.37	-26.0	-27.5	15.3	0.00e+00	0	43	0	484442112	12	4262
2026-01-02 09:37:14.56	61.87	11.46	-26.1	-27.7	15.2	0.00e+00	0	43	0	495976448	12	4333
2026-01-02 09:37:16.56	61.54	11.55	-25.8	-27.0	15.6	0.00e+00	0	43	0	507510784	12	4130
2026-01-02 09:37:18.56	61.20	11.63	-25.7	-26.8	15.7	0.00e+00	0	43	0	519045120	12	4095
2026-01-02 09:37:20.56	60.87	11.72	-25.7	-26.8	15.7	0.00e+00	0	43	0	529530880	12	4080
2026-01-02 09:37:22.57	60.53	11.81	-25.7	-26.8	15.7	0.00e+00	0	43	0	541065216	12	4094
2026-01-02 09:37:24.59	60.19	11.89	-25.7	-26.9	15.7	0.00e+00	0	43	0	552599552	12	4107
2026-01-02 09:37:26.59	59.84	11.98	-25.9	-27.2	15.5	0.00e+00	0	43	0	564133888	12	4195
2026-01-02 09:37:28.59	59.50	12.06	-25.9	-27.2	15.5	0.00e+00	0	43	0	574619648	12	4181
2026-01-02 09:37:30.59	59.16	12.15	-25.9	-27.3	15.5	0.00e+00	0	43	0	586153984	12	4211
2026-01-02 09:37:32.59	58.81	12.23	-26.0	-27.4	15.4	0.00e+00	0	43	0	597688320	12	4238
2026-01-02 09:37:34.61	58.46	12.31	-26.0	-27.4	15.4	0.00e+00	0	43	0	609222656	12	4243
2026-01-02 09:37:36.62	58.10	12.39	-25.8	-26.9	15.7	0.00e+00	0	43	0	619708416	12	4117
2026-01-02 09:37:38.62	57.75	12.47	-25.7	-26.8	15.7	0.00e+00	0	43	0	631242752	12	4100
2026-01-02 09:37:40.63	57.39	12.55	-25.4	-26.3	16.1	0.00e+00	0	43	0	642777088	12	3948
2026-01-02 09:37:42.65	57.03	12.63	-25.5	-26.4	16.0	0.00e+00	0	43	0	654311424	12	3989
2026-01-02 09:37:44.65	56.67	12.71	-25.5	-26.5	16.0	0.00e+00	0	43	0	665845760	12	4004
2026-01-02 09:37:46.65	56.31	12.79	-25.4	-26.1	16.2	0.00e+00	0	43	0	676331520	12	3910
2026-01-02 09:37:48.65	55.95	12.87	-25.1	-26.0	16.5	0.00e+00	0	43	0	687865856	11	3988
2026-01-02 09:37:50.66	55.58	12.94	-25.3	-26.3	16.4	0.00e+00	0	43	0	699400192	11	4074
2026-01-02 09:37:52.67	55.21	13.02	-25.5	-26.9	16.1	0.00e+00	0	43	0	710934528	11	4221
2026-01-02 09:37:54.68	54.84	13.09	-25.8	-27.4	15.8	0.00e+00	0	43	0	721420288	11	4366
2026-01-02 09:37:56.69	54.47	13.16	-25.6	-27.0	16.1	0.00e+00	0	43	0	732954624	11	4240
2026-01-02 09:37:58.69	54.10	13.23	-25.5	-26.8	16.2	0.00e+00	0	43	0	744488960	11	4187
2026-01-02 09:38:00.69	53.72	13.31	-25.2	-26.1	16.5	0.00e+00	0	43	0	754974720	11	4016
2026-01-02 09:38:02.69	53.35	13.37	-25.4	-26.7	16.2	0.00e+00	0	43	0	766509056	11	4166
2026-01-02 09:38:04.69	52.97	13.44	-25.5	-26.9	16.1	0.00e+00	0	43	0	778043392	11	4226
2026-01-02 09:38:06.70	52.59	13.51	-25.4	-26.5	16.3	0.00e+00	0	43	0	789577728	11	4117
2026-01-02 09:38:08.71	52.21	13.58	-25.3	-26.4	16.4	0.00e+00	0	43	0	801112064	11	4076
2026-01-02 09:38:10.71	51.82	13.64	-25.3	-26.3	16.5	0.00e+00	0	43	0	811597824	11	4070
2026-01-02 09:38:12.72	51.44	13.71	-25.4	-26.6	16.3	0.00e+00	0	43	0	823132160	11	4126
2026-01-02 09:38:14.73	51.05	13.77	-25.3	-26.3	16.5	0.00e+00	0	43	0	834666496	11	4063
2026-01-02 09:38:16.75	50.66	13.83	-25.2	-26.2	16.5	0.00e+00	0	43	0	846200832	11	4047
2026-01-02 09:38:18.75	50.27	13.89	-25.2	-26.3	16.5	0.00e+00	0	43	0	857735168	11	4051
2026-01-02 09:38:20.76	49.87	13.95	-25.2	-26.2	16.6	0.00e+00	0	43	0	868220928	11	4026
2026-01-02 09:38:22.76	49.48	14.01	-25.1	-26.0	16.7	0.00e+00	0	43	0	879755264	11	3991
2026-01-02 09:38:24.76	49.09	14.07	-25.2	-26.1	16.6	0.00e+00	0	43	0	891289600	11	4017
2026-01-02 09:38:26.77	48.69	14.13	-25.0	-25.7	16.8	0.00e+00	0	43	0	901775360	11	3895
2026-01-02 09:38:28.78	48.29	14.18	-25.0	-25.7	16.8	0.00e+00	0	43	0	913309696	11	3902
2026-01-02 09:38:30.78	47.89	14.24	-25.0	-25.8	16.8	0.00e+00	0	43	0	924844032	11	3945
2026-01-02 09:38:32.78	47.49	14.29	-25.3	-26.4	16.5	0.00e+00	0	43	0	936378368	11	4077
2026-01-02 09:38:34.79	47.09	14.34	-25.2	-26.2	16.5	0.00e+00	0	43	0	946864128	11	4046
2026-01-02 09:38:36.80	46.68	14.39	-25.0	-25.7	16.8	0.00e+00	0	43	0	958398464	11	3905
2026-01-02 09:38:38.80	46.28	14.44	-25.2	-26.1	16.6	0.00e+00	0	43	0	969932800	11	4014
2026-01-02 09:38:40.80	45.87	14.48	-24.9	-25.4	16.9	0.00e+00	0	43	0	981467136	11	3849
2026-01-02 09:38:42.81	45.46	14.53	-24.9	-25.5	16.9	0.00e+00	0	43	0	993001472	11	3858
2026-01-02 09:38:44.82	45.05	14.57	-25.1	-25.9	16.7	0.00e+00	0	43	0	1003487232	11	3965
2026-01-02 09:38:46.82	44.64	14.62	-24.9	-25.5	16.9	0.00e+00	0	43	0	1015021568	11	3856
2026-01-02 09:38:48.83	44.23	14.66	-25.1	-25.8	16.7	0.00e+00	0	43	0	1026555904	11	3946
2026-01-02 09:38:50.84	43.82	14.70	-25.2	-26.1	16.6	0.00e+00	0	43	0	1038090240	11	4002
2026-01-02 09:38:52.83	43.41	14.74	-25.0	-25.8	16.8	0.00e+00	0	43	0	1048576000	11	3935
2026-01-02 09:38:54.84	42.99	14.77	-24.8	-25.4	17.0	0.00e+00	0	43	0	1060110336	11	3834
2026-01-02 09:38:56.84	42.58	14.81	-24.7	-25.6	17.2	0.00e+00	0	43	0	1071644672	10	3985
2026-01-02 09:38:58.85	42.16	14.84	-24.8	-25.9	17.0	0.00e+00	0	43	0	1083179008	10	4058
2026-01-02 09:39:00.86	41.74	14.88	-24.8	-25.8	17.0	0.00e+00	0	43	0	1093664768	10	4038
2026-01-02 09:39:02.87	41.32	14.91	-24.7	-25.5	17.2	0.00e+00	0	43	0	1105199104	10	3965
2026-01-02 09:39:04.88	40.90	14.94	-24.8	-25.8	17.0	0.00e+00	0	43	0	1116733440	10	4051
2026-01-02 09:39:06.89	40.48	14.97	-25.0	-26.3	16.8	0.00e+00	0	43	0	1128267776	10	4169
2026-01-02 09:39:08.89	40.06	14.99	-25.0	-26.2	16.8	0.00e+00	0	43	0	1138753536	10	4152
2026-01-02 09:39:10.89	39.64	15.02	-24.9	-26.1	16.8	0.00e+00	0	43	0	1150287872	10	4117
2026-01-02 09:39:12.89	39.21	15.04	-24.7	-25.6	17.1	0.00e+00	0	43	0	1161822208	10	3977
2026-01-02 09:39:14.89	38.79	15.07	-25.1	-26.4	16.7	0.00e+00	0	43	0	1173356544	10	4206
2026-01-02 09:39:16.91	38.36	15.09	-25.0	-26.2	16.8	0.00e+00	0	43	0	1184890880	10	4143
2026-01-02 09:39:18.91	37.94	15.11	-24.9	-25.9	17.0	0.00e+00	0	43	0	1195376640	10	4067
2026-01-02 09:39:20.92	37.52	15.12	-24.9	-26.1	16.9	0.00e+00	0	43	0	1206910976	10	4115
2026-01-02 09:39:22.93	37.09	15.14	-25.2	-26.8	16.5	0.00e+00	0	44	0	1218445312	10	4292
2026-01-02 09:39:24.93	36.66	15.15	-25.4	-26.5	16.4	0.00e+00	0	43	0	1228931072	11	4121
2026-01-02 09:39:26.94	36.24	15.17	-24.9	-25.6	16.9	0.00e+00	0	43	0	1240465408	11	3876
2026-01-02 09:39:28.95	35.81	15.18	-24.9	-25.5	16.9	0.00e+00	0	43	0	1251999744	11	3861
2026-01-02 09:39:30.96	35.38	15.19	-24.7	-25.6	17.2	0.00e+00	0	43	0	1263534080	10	3986
2026-01-02 09:39:32.96	34.96	15.19	-24.8	-25.9	17.0	0.00e+00	0	43	0	1275068416	10	4060
2026-01-02 09:39:34.97	34.53	15.20	-24.9	-26.1	16.9	0.00e+00	0	43	0	1285554176	10	4103
2026-01-02 09:39:36.98	34.10	15.21	-25.0	-26.1	16.9	0.00e+00	0	43	0	1297088512	10	4129
2026-01-02 09:39:38.99	33.67	15.21	-24.9	-26.0	16.9	1.10e-06	0	43	0	1308622848	10	4100
2026-01-02 09:39:40.99	33.24	15.21	-24.7	-25.6	17.1	0.00e+00	0	43	0	1320157184	10	3987
2026-01-02 09:39:42.99	32.82	15.21	-24.6	-25.4	17.3	0.00e+00	0	43	0	1330642944	10	3933
2026-01-02 09:39:45.00	32.39	15.21	-24.8	-25.8	17.0	0.00e+00	0	43	0	1342177280	10	4049
2026-01-02 09:39:47.00	31.96	15.21	-24.9	-25.9	17.0	0.00e+00	0	43	0	1353711616	10	4068
2026-01-02 09:39:49.01	31.53	15.20	-24.8	-25.7	17.1	0.00e+00	0	43	0	1365245952	10	4021
2026-01-02 09:39:51.02	31.11	15.20	-25.2	-26.7	16.6	0.00e+00	0	43	0	1375731712	10	4275
2026-01-02 09:39:53.04	30.67	15.19	-24.7	-25.5	17.2	0.00e+00	0	43	0	1387266048	10	3978
2026-01-02 09:39:55.06	30.24	15.18	-24.7	-25.5	17.2	0.00e+00	0	43	0	1398800384	10	3965
2026-01-02 09:39:57.06	29.82	15.17	-24.8	-25.9	17.0	0.00e+00	0	43	0	1410334720	10	4057
2026-01-02 09:39:59.06	29.39	15.15	-25.0	-26.3	16.8	0.00e+00	0	43	0	1421869056	10	4163
2026-01-02 09:40:01.06	28.97	15.14	-25.0	-26.3	16.8	0.00e+00	0	43	0	1432354816	10	4164
2026-01-02 09:40:03.07	28.54	15.12	-24.8	-25.7	17.0	0.00e+00	0	43	0	1443889152	10	4026
2026-01-02 09:40:05.07	28.12	15.11	-24.9	-26.0	16.9	0.00e+00	0	43	0	1455423488	10	4087
2026-01-02 09:40:07.08	27.69	15.09	-24.8	-25.8	17.0	0.00e+00	0	43	0	1466957824	10	4045
2026-01-02 09:40:09.08	27.27	15.07	-24.8	-25.7	17.1	0.00e+00	0	44	0	1477443584	10	4029
2026-01-02 09:40:11.09	26.85	15.04	-24.9	-26.0	17.0	0.00e+00	0	43	0	1488977920	10	4097
2026-01-02 09:40:13.09	26.43	15.02	-24.7	-25.6	17.2	0.00e+00	0	43	0	1500512256	10	3978
2026-01-02 09:40:15.09	26.01	14.99	-24.6	-25.4	17.2	0.00e+00	0	43	0	1510998016	10	3952
2026-01-02 09:40:17.09	25.59	14.97	-24.6	-25.5	17.2	0.00e+00	0	43	0	1522532352	10	3957
2026-01-02 09:40:19.10	25.17	14.94	-25.0	-26.3	16.8	0.00e+00	0	44	0	1534066688	10	4179
2026-01-02 09:40:21.10	24.75	14.91	-24.6	-25.4	17.2	0.00e+00	0	43	0	1545601024	10	3942
2026-01-02 09:40:23.10	24.33	14.88	-24.9	-26.0	16.9	0.00e+00	0	43	0	1557135360	10	4083
2026-01-02 09:40:25.11	23.91	14.85	-25.2	-26.7	16.5	0.00e+00	0	43	0	1567621120	10	4281
2026-01-02 09:40:27.13	23.49	14.81	-25.2	-26.8	16.5	0.00e+00	0	43	0	1579155456	10	4292
2026-01-02 09:40:29.14	23.08	14.78	-25.0	-26.3	16.7	0.00e+00	0	43	0	1590689792	10	4170
2026-01-02 09:40:31.15	22.66	14.74	-25.1	-26.5	16.6	0.00e+00	0	43	0	1602224128	10	4218
2026-01-02 09:40:33.15	22.25	14.70	-25.3	-26.9	16.4	0.00e+00	0	43	0	1613758464	10	4313
2026-01-02 09:40:35.15	21.84	14.66	-25.1	-25.9	16.7	0.00e+00	0	43	0	1624244224	11	3954
2026-01-02 09:40:37.16	21.42	14.62	-24.6	-25.5	17.2	0.00e+00	0	44	0	1635778560	10	3957
2026-01-02 09:40:39.17	21.01	14.58	-24.8	-25.9	17.0	0.00e+00	0	43	0	1647312896	10	4059
2026-01-02 09:40:41.17	20.61	14.53	-25.0	-26.3	16.7	0.00e+00	0	43	0	1657798656	10	4159
2026-01-02 09:40:43.18	20.20	14.49	-24.8	-25.9	16.9	0.00e+00	0	43	0	1669332992	10	4057
2026-01-02 09:40:45.18	19.79	14.44	-24.8	-25.9	16.9	0.00e+00	0	43	0	1680867328	10	4067
2026-01-02 09:40:47.19	19.39	14.39	-25.1	-26.4	16.6	0.00e+00	0	43	0	1692401664	10	4203
2026-01-02 09:40:49.19	18.98	14.34	-25.0	-26.3	16.6	0.00e+00	0	43	0	1702887424	10	4175
2026-01-02 09:40:51.19	18.58	14.29	-25.1	-26.4	16.7	0.00e+00	0	43	0	1714421760	10	4189
2026-01-02 09:40:53.19	18.18	14.24	-25.3	-26.9	16.4	0.00e+00	0	43	0	1725956096	10	4332
2026-01-02 09:40:55.20	17.78	14.18	-25.5	-26.8	16.2	0.00e+00	0	43	0	1737490432	11	4195
2026-01-02 09:40:57.21	17.38	14.13	-25.5	-26.8	16.1	0.00e+00	0	44	0	1749024768	11	4199
2026-01-02 09:40:59.21	16.99	14.07	-25.1	-25.9	16.7	0.00e+00	0	43	0	1759510528	11	3958
2026-01-02 09:41:01.22	16.59	14.02	-25.2	-26.2	16.5	0.00e+00	0	43	0	1771044864	11	4036
2026-01-02 09:41:03.23	16.20	13.96	-25.2	-26.1	16.5	0.00e+00	0	43	0	1782579200	11	4020
2026-01-02 09:41:05.24	15.81	13.90	-25.2	-26.2	16.4	0.00e+00	0	43	0	1793064960	11	4037
2026-01-02 09:41:07.25	15.42	13.84	-25.1	-25.9	16.7	0.00e+00	0	44	0	1804599296	11	3964
2026-01-02 09:41:09.24	15.03	13.77	-25.1	-26.0	16.6	0.00e+00	0	43	0	1816133632	11	3993
2026-01-02 09:41:11.24	14.64	13.71	-25.4	-26.5	16.3	0.00e+00	0	43	0	1827667968	11	4113
2026-01-02 09:41:13.26	14.26	13.65	-25.2	-26.1	16.5	0.00e+00	0	43	0	1839202304	11	4017
2026-01-02 09:41:15.26	13.87	13.58	-25.3	-26.3	16.4	0.00e+00	0	43	0	1849688064	11	4059
2026-01-02 09:41:17.27	13.49	13.52	-25.3	-26.5	16.3	0.00e+00	0	43	0	1861222400	11	4099
2026-01-02 09:41:19.26	13.12	13.45	-25.3	-26.5	16.3	0.00e+00	0	43	0	1872756736	11	4114
2026-01-02 09:41:21.27	12.74	13.38	-25.4	-26.5	16.2	0.00e+00	0	43	0	1884291072	11	4115
2026-01-02 09:41:23.28	12.36	13.31	-25.4	-26.5	16.3	0.00e+00	0	43	0	1894776832	11	4114
2026-01-02 09:41:25.28	11.99	13.24	-25.4	-26.7	16.2	0.00e+00	0	43	0	1906311168	11	4150
2026-01-02 09:41:27.28	11.61	13.17	-25.2	-26.3	16.4	0.00e+00	0	43	0	1917845504	11	4050
2026-01-02 09:41:29.29	11.24	13.09	-25.2	-26.3	16.4	0.00e+00	0	43	0	1929379840	11	4049
2026-01-02 09:41:31.30	10.87	13.02	-25.2	-26.3	16.4	0.00e+00	0	44	0	1940914176	11	4059
2026-01-02 09:41:33.32	10.50	12.95	-25.4	-26.6	16.2	0.00e+00	0	43	0	1951399936	11	4124
2026-01-02 09:41:35.32	10.14	12.87	-25.3	-26.4	16.3	0.00e+00	0	43	0	1962934272	11	4092
2026-01-02 09:41:37.34	9.77	12.79	-25.3	-26.5	16.3	0.00e+00	0	43	0	1974468608	11	4114
2026-01-02 09:41:39.35	9.41	12.72	-25.4	-26.6	16.2	0.00e+00	0	43	0	1984954368	11	4137
2026-01-02 09:41:41.35	9.05	12.64	-25.2	-26.3	16.3	0.00e+00	0	44	0	1996488704	11	4065
2026-01-02 09:41:43.35	8.70	12.56	-25.5	-26.8	16.1	0.00e+00	0	44	0	2008023040	11	4178
2026-01-02 09:41:45.35	8.34	12.48	-25.4	-26.7	16.1	0.00e+00	0	43	0	2019557376	11	4164
2026-01-02 09:41:47.36	7.99	12.40	-25.3	-26.3	16.3	0.00e+00	0	43	0	2031091712	11	4068
2026-01-02 09:41:49.37	7.64	12.32	-25.5	-26.9	16.0	0.00e+00	0	44	0	2041577472	11	4207
2026-01-02 09:41:51.38	7.29	12.24	-25.6	-27.0	16.0	0.00e+00	0	43	0	2053111808	11	4230
2026-01-02 09:41:53.39	6.94	12.15	-25.8	-27.5	15.7	0.00e+00	0	43	0	2064646144	11	4373
2026-01-02 09:41:55.39	6.59	12.07	-25.8	-27.6	15.6	0.00e+00	0	43	0	2076180480	11	4417
2026-01-02 09:41:57.40	6.25	11.98	-25.6	-27.2	15.9	0.00e+00	0	43	0	2087714816	11	4292
2026-01-02 09:41:59.40	5.91	11.90	-25.5	-26.9	16.0	0.00e+00	0	44	0	2098200576	11	4213
2026-01-02 09:42:01.41	5.57	11.81	-25.6	-27.1	15.8	0.00e+00	0	43	0	2109734912	11	4283
2026-01-02 09:42:03.42	5.23	11.73	-25.8	-27.6	15.5	0.00e+00	0	43	0	2121269248	11	4402
2026-01-02 09:42:05.43	4.89	11.64	-25.8	-27.5	15.6	0.00e+00	0	43	0	2131755008	11	4387
2026-01-02 09:42:07.44	4.56	11.55	-25.8	-27.6	15.6	0.00e+00	0	43	0	2143289344	11	4420
2026-01-02 09:42:09.44	4.23	11.46	-25.9	-27.2	15.4	0.00e+00	0	43	0	2154823680	12	4202
2026-01-02 09:42:11.46	3.90	11.37	-25.8	-27.0	15.5	0.00e+00	0	43	0	2166358016	12	4148
2026-01-02 09:42:13.45	3.57	11.28	-25.8	-27.0	15.5	0.00e+00	0	43	0	2177892352	12	4132
2026-01-02 09:42:15.44	3.25	11.19	-25.9	-27.2	15.4	0.00e+00	0	43	0	2188378112	12	4196
2026-01-02 09:42:17.45	2.93	11.10	-26.0	-27.5	15.2	0.00e+00	0	43	0	2199912448	12	4273
2026-01-02 09:42:19.45	2.61	11.01	-26.0	-27.5	15.3	0.00e+00	0	43	0	2211446784	12	4268
2026-01-02 09:42:21.46	2.29	10.92	-25.9	-27.4	15.3	0.00e+00	0	43	0	2222981120	12	4238
2026-01-02 09:42:23.47	1.97	10.83	-25.7	-26.7	15.7	0.00e+00	0	43	0	2233466880	12	4070
2026-01-02 09:42:25.47	1.65	10.74	-25.6	-26.6	15.7	0.00e+00	0	44	0	2245001216	12	4032
2026-01-02 09:42:27.48	1.34	10.64	-25.8	-27.0	15.5	0.00e+00	0	43	0	2256535552	12	4143
2026-01-02 09:42:29.47	1.03	10.55	-25.9	-27.2	15.4	0.00e+00	0	44	0	2267021312	12	4210
2026-01-02 09:42:31.48	0.72	10.45	-25.8	-27.0	15.5	1.10e-06	0	44	0	2278555648	12	4131
2026-01-02 09:42:33.49	0.41	10.36	-25.7	-26.9	15.5	0.00e+00	0	43	0	2290089984	12	4118
2026-01-02 09:42:35.50	0.11	10.26	-25.9	-27.2	15.4	0.00e+00	0	43	0	2301624320	12	4182
2026-01-02 09:42:37.50	359.81	10.17	-26.0	-27.5	15.2	0.00e+00	0	43	0	2313158656	12	4269
2026-01-02 09:42:39.52	359.50	10.07	-26.2	-27.9	14.9	0.00e+00	0	43	0	2323644416	12	4387
2026-01-02 09:42:41.53	359.21	9.98	-26.4	-28.3	14.7	0.00e+00	0	44	0	2335178752	12	4502
2026-01-02 09:42:43.53	358.91	9.88	-26.3	-28.2	14.8	0.00e+00	0	44	0	2346713088	12	4464
2026-01-02 09:42:45.54	358.61	9.78	-26.3	-28.2	14.7	0.00e+00	0	43	0	2358247424	12	4489
2026-01-02 09:42:47.55	358.32	9.68	-26.4	-28.3	14.7	0.00e+00	0	43	0	2368733184	12	4515
2026-01-02 09:42:49.55	358.03	9.59	-26.3	-28.2	14.7	0.00e+00	0	43	0	2380267520	12	4484
2026-01-02 09:42:51.55	357.74	9.49	-26.5	-28.7	14.5	0.00e+00	0	44	0	2391801856	12	4615
2026-01-02 09:42:53.55	357.46	9.39	-26.6	-28.3	14.3	0.00e+00	0	43	0	2403336192	13	4392
2026-01-02 09:42:55.56	357.17	9.29	-26.3	-27.8	14.7	0.00e+00	0	44	0	2413821952	13	4250
2026-01-02 09:42:57.57	356.89	9.19	-26.4	-28.0	14.6	0.00e+00	0	43	0	2425356288	13	4312
2026-01-02 09:42:59.58	356.61	9.09	-26.2	-27.6	14.8	0.00e+00	0	43	0	2436890624	13	4193
2026-01-02 09:43:01.59	356.33	8.99	-26.3	-27.7	14.7	0.00e+00	0	44	0	2448424960	13	4235
2026-01-02 09:43:03.59	356.05	8.89	-26.5	-28.2	14.4	0.00e+00	0	43	0	2458910720	13	4358
2026-01-02 09:43:05.58	355.78	8.79	-26.4	-27.9	14.6	0.00e+00	0	43	0	2470445056	13	4276
2026-01-02 09:43:07.60	355.50	8.69	-26.5	-28.1	14.5	1.10e-06	0	44	0	2481979392	13	4335
2026-01-02 09:43:09.60	355.23	8.59	-26.6	-28.4	14.3	1.10e-06	0	43	0	2493513728	13	4417
2026-01-02 09:43:11.62	354.96	8.49	-26.5	-28.3	14.4	1.10e-06	0	43	0	2505048064	13	4392
2026-01-02 09:43:13.62	354.69	8.39	-26.5	-28.3	14.3	0.00e+00	0	43	0	2515533824	13	4395
2026-01-02 09:43:15.64	354.43	8.29	-26.5	-28.2	14.3	0.00e+00	0	44	0	2527068160	13	4353
2026-01-02 09:43:17.64	354.16	8.19	-26.5	-28.2	14.3	0.00e+00	0	44	0	2538602496	13	4376
2026-01-02 09:43:19.64	353.90	8.09	-26.6	-28.4	14.2	3.40e-06	0	44	0	2549088256	13	4426
2026-01-02 09:43:21.65	353.64	7.99	-26.7	-28.7	14.0	1.10e-06	0	44	0	2560622592	13	4515
2026-01-02 09:43:23.65	353.39	7.88	-26.5	-28.3	14.2	0.00e+00	0	43	0	2572156928	13	4392
2026-01-02 09:43:25.64	353.13	7.78	-26.9	-29.1	13.8	3.40e-06	0	44	0	2583691264	13	4627
2026-01-02 09:43:27.65	352.88	7.68	-26.8	-29.0	13.8	4.50e-06	0	44	0	2595225600	13	4600
2026-01-02 09:43:29.65	352.62	7.58	-26.6	-28.3	14.2	2.20e-06	0	44	0	2605711360	13	4405
2026-01-02 09:43:31.66	352.37	7.48	-26.7	-28.7	14.0	3.40e-06	0	43	0	2617245696	13	4507
2026-01-02 09:43:33.67	352.12	7.37	-26.6	-28.4	14.1	0.00e+00	0	44	0	2628780032	13	4433
2026-01-02 09:43:35.67	351.88	7.27	-26.5	-28.3	14.2	1.10e-06	0	44	0	2640314368	13	4401
2026-01-02 09:43:37.67	351.63	7.17	-26.7	-28.7	14.0	1.10e-06	0	44	0	2650800128	13	4528
2026-01-02 09:43:39.67	351.39	7.07	-32.6	-43.7	3.8	7.96e-01	0	44	104	2660237312	25	12867
2026-01-02 09:43:41.67	351.15	6.97	-33.1	-44.3	3.8	8.44e-01	0	44	104	2660237312	26	13059

#Closed at: 2026-01-02 09:43:42
#Recorded file [2660 MB]: D:/data/31010_260102_123546.dat