passes_logs/2026/01/02/R2M6_AANII_01/R2M6_AANII_01__20260102_143954_FENGYUN_3E_rec.log

#Pass ID: 20260102_143954_FENGYUN 3E
#Satellite: FENGYUN 3E
#Configuration: FENGYUN 3E
#almurnet v.1.7.20240730
#Start time: 2026-01-02 14:39:55

#Version: 2.2.20231116
#Station: R2M6_AANII_01
#Location: 30.233357 lon 59.946436 lat
#TLE: 1 49008U 21062A   26001.96913326  .00000001  00000+0  21174-4 0  9999
#TLE: 2 49008  98.7479   7.2511 0001416 166.5636 193.5578 14.19883387232993

#Time	Az	El	Level	Level2	SNR	BER	BlckErr	Temp	State	Recorded	gain1	gain2
2026-01-02 14:39:55.04	162.21	7.05	-29.4	-32.4	5.0	7.95e-01	0	41	0	0	19	5065
2026-01-02 14:39:58.05	162.23	7.29	-28.5	-30.4	9.6	1.53e-02	0	41	0	7340032	18	4474
2026-01-02 14:40:01.06	162.26	7.52	-28.2	-30.2	10.0	7.25e-03	0	41	0	28311552	17	4508
2026-01-02 14:40:04.07	162.28	7.76	-27.0	-28.3	11.6	8.72e-04	0	41	0	50331648	15	4177
2026-01-02 14:40:07.08	162.31	8.00	-25.7	-26.9	13.3	2.86e-05	0	42	0	72351744	12	4111
2026-01-02 14:40:10.09	162.34	8.25	-25.8	-27.0	13.3	2.86e-05	0	42	0	93323264	12	4133
2026-01-02 14:40:13.10	162.36	8.49	-26.0	-27.4	13.0	3.54e-05	0	42	0	115343360	12	4232
2026-01-02 14:40:16.12	162.39	8.74	-25.6	-26.6	13.5	6.80e-06	0	42	0	137363456	12	4034
2026-01-02 14:40:19.12	162.42	8.99	-25.9	-27.2	13.1	3.20e-05	0	42	0	159383552	12	4198
2026-01-02 14:40:22.12	162.45	9.25	-25.4	-26.7	13.8	4.50e-06	0	42	0	180355072	11	4179
2026-01-02 14:40:25.13	162.47	9.50	-25.0	-25.7	14.4	2.20e-06	0	42	0	202375168	11	3909
2026-01-02 14:40:28.13	162.50	9.76	-25.2	-26.2	14.1	2.20e-06	0	42	0	224395264	11	4038
2026-01-02 14:40:31.13	162.53	10.02	-25.1	-26.0	14.2	1.10e-06	0	42	0	245366784	11	3991
2026-01-02 14:40:34.15	162.56	10.28	-24.9	-25.6	14.5	1.10e-06	0	42	0	267386880	11	3877
2026-01-02 14:40:37.16	162.59	10.55	-24.8	-25.9	14.6	0.00e+00	0	43	0	289406976	10	4075
2026-01-02 14:40:40.16	162.62	10.82	-24.9	-26.1	14.5	0.00e+00	0	42	0	311427072	10	4119
2026-01-02 14:40:43.18	162.65	11.09	-24.8	-25.9	14.6	0.00e+00	0	42	0	332398592	10	4061
2026-01-02 14:40:46.19	162.68	11.37	-25.0	-26.3	14.4	0.00e+00	0	42	0	354418688	10	4173
2026-01-02 14:40:49.20	162.71	11.65	-25.1	-26.5	14.3	0.00e+00	0	43	0	376438784	10	4234
2026-01-02 14:40:52.21	162.74	11.93	-24.9	-26.1	14.6	0.00e+00	0	43	0	398458880	10	4109
2026-01-02 14:40:55.21	162.77	12.22	-25.0	-26.3	14.5	0.00e+00	0	43	0	419430400	10	4149
2026-01-02 14:40:58.22	162.81	12.51	-24.9	-25.9	14.7	0.00e+00	0	43	0	441450496	10	4059
2026-01-02 14:41:01.22	162.84	12.80	-25.2	-26.5	14.4	1.10e-06	0	43	0	462422016	10	4215
2026-01-02 14:41:04.24	162.87	13.09	-24.9	-26.0	14.7	2.20e-06	0	43	0	484442112	10	4074
2026-01-02 14:41:07.24	162.91	13.39	-24.2	-24.9	15.5	0.00e+00	0	43	0	506462208	9	3907
2026-01-02 14:41:10.24	162.94	13.70	-24.0	-24.6	15.7	0.00e+00	0	43	0	528482304	9	3833
2026-01-02 14:41:13.24	162.97	14.00	-24.2	-25.0	15.5	0.00e+00	0	43	0	549453824	9	3944
2026-01-02 14:41:16.25	163.01	14.31	-24.1	-24.7	15.7	0.00e+00	0	43	0	571473920	9	3863
2026-01-02 14:41:19.26	163.05	14.63	-24.0	-24.4	15.8	0.00e+00	0	43	0	593494016	9	3796
2026-01-02 14:41:22.28	163.08	14.95	-23.9	-24.7	15.9	0.00e+00	0	43	0	614465536	8	3972
2026-01-02 14:41:25.29	163.12	15.27	-23.9	-24.8	15.9	0.00e+00	0	43	0	636485632	8	4000
2026-01-02 14:41:28.31	163.16	15.60	-23.9	-24.9	15.9	0.00e+00	0	43	0	658505728	8	4014
2026-01-02 14:41:31.32	163.20	15.93	-23.8	-24.6	16.0	0.00e+00	0	43	0	680525824	8	3955
2026-01-02 14:41:34.32	163.23	16.27	-23.8	-24.6	16.0	0.00e+00	0	43	0	701497344	8	3935
2026-01-02 14:41:37.33	163.27	16.61	-23.6	-24.2	16.2	0.00e+00	0	43	0	723517440	8	3851
2026-01-02 14:41:40.34	163.31	16.96	-23.8	-24.5	16.2	0.00e+00	0	43	0	745537536	8	3915
2026-01-02 14:41:43.36	163.36	17.31	-23.7	-24.4	16.2	0.00e+00	0	44	0	767557632	8	3884
2026-01-02 14:41:46.37	163.40	17.67	-24.0	-25.0	15.9	0.00e+00	0	43	0	788529152	8	4034
2026-01-02 14:41:49.38	163.44	18.03	-23.4	-23.8	16.4	0.00e+00	0	43	0	810549248	8	3753
2026-01-02 14:41:52.40	163.48	18.40	-23.4	-24.3	16.5	0.00e+00	0	43	0	832569344	7	3972
2026-01-02 14:41:55.41	163.53	18.77	-23.3	-24.1	16.6	0.00e+00	0	43	0	854589440	7	3915
2026-01-02 14:41:58.42	163.57	19.15	-23.4	-24.1	16.6	0.00e+00	0	43	0	875560960	7	3926
2026-01-02 14:42:01.43	163.62	19.54	-23.0	-23.3	17.0	0.00e+00	0	43	0	897581056	7	3724
2026-01-02 14:42:04.43	163.66	19.93	-22.9	-23.5	17.1	0.00e+00	0	43	0	919601152	6	3891
2026-01-02 14:42:07.44	163.71	20.32	-23.0	-23.8	17.1	0.00e+00	0	43	0	940572672	6	3939
2026-01-02 14:42:10.45	163.76	20.73	-23.3	-24.5	16.8	0.00e+00	0	43	0	962592768	6	4109
2026-01-02 14:42:13.46	163.81	21.14	-23.4	-24.6	16.7	0.00e+00	0	43	0	984612864	6	4150
2026-01-02 14:42:16.47	163.86	21.55	-23.5	-24.8	16.6	0.00e+00	0	44	0	1006632960	6	4205
2026-01-02 14:42:19.47	163.91	21.98	-23.2	-23.8	16.8	0.00e+00	0	44	0	1027604480	7	3853
2026-01-02 14:42:22.48	163.97	22.41	-22.8	-23.4	17.2	0.00e+00	0	43	0	1049624576	6	3859
2026-01-02 14:42:25.48	164.02	22.84	-22.8	-23.5	17.2	0.00e+00	0	43	0	1070596096	6	3897
2026-01-02 14:42:28.50	164.08	23.29	-22.3	-22.9	17.6	0.00e+00	0	44	0	1092616192	5	3866
2026-01-02 14:42:31.51	164.13	23.74	-22.8	-23.9	17.2	0.00e+00	0	44	0	1114636288	5	4112
2026-01-02 14:42:34.52	164.19	24.21	-22.7	-23.9	17.2	0.00e+00	0	43	0	1136656384	5	4104
2026-01-02 14:42:37.53	164.25	24.68	-22.5	-23.5	17.4	0.00e+00	0	43	0	1157627904	5	4022
2026-01-02 14:42:40.54	164.31	25.15	-22.4	-23.3	17.5	0.00e+00	0	44	0	1179648000	5	3964
2026-01-02 14:42:43.55	164.38	25.64	-22.5	-23.4	17.4	0.00e+00	0	43	0	1201668096	5	3985
2026-01-02 14:42:46.56	164.44	26.14	-22.2	-22.8	17.7	0.00e+00	0	44	0	1223688192	5	3840
2026-01-02 14:42:49.57	164.51	26.64	-22.1	-22.6	17.9	0.00e+00	0	44	0	1244659712	5	3794
2026-01-02 14:42:52.58	164.58	27.16	-21.9	-22.6	18.1	0.00e+00	0	44	0	1266679808	4	3912
2026-01-02 14:42:55.59	164.65	27.68	-21.9	-22.7	18.2	0.00e+00	0	44	0	1288699904	4	3909
2026-01-02 14:42:58.60	164.72	28.22	-21.9	-22.6	18.2	0.00e+00	0	44	0	1310720000	4	3899
2026-01-02 14:43:01.60	164.79	28.76	-22.2	-23.2	18.0	0.00e+00	0	44	0	1331691520	4	4029
2026-01-02 14:43:04.62	164.87	29.32	-23.0	-23.7	18.1	0.00e+00	0	44	0	1353711616	5	3925
2026-01-02 14:43:07.63	164.95	29.89	-23.0	-23.2	18.2	0.00e+00	0	44	0	1375731712	6	3699
2026-01-02 14:43:10.63	165.03	30.47	-22.9	-23.1	18.3	0.00e+00	0	44	0	1396703232	6	3668
2026-01-02 14:43:13.64	165.12	31.06	-23.0	-23.2	18.1	0.00e+00	0	43	0	1418723328	6	3706
2026-01-02 14:43:16.64	165.20	31.66	-22.8	-22.8	18.4	0.00e+00	0	44	0	1440743424	6	3601
2026-01-02 14:43:19.65	165.29	32.27	-22.3	-22.4	18.9	0.00e+00	0	44	0	1462763520	5	3610
2026-01-02 14:43:22.65	165.39	32.90	-22.6	-22.9	18.6	0.00e+00	0	44	0	1483735040	5	3739
2026-01-02 14:43:25.65	165.48	33.54	-22.5	-22.7	18.7	0.00e+00	0	44	0	1505755136	5	3680
2026-01-02 14:43:28.65	165.58	34.19	-22.6	-23.0	18.6	0.00e+00	0	44	0	1527775232	5	3750
2026-01-02 14:43:31.64	165.68	34.86	-22.6	-22.9	18.7	0.00e+00	0	44	0	1548746752	5	3728
2026-01-02 14:43:34.64	165.79	35.54	-22.6	-23.0	18.7	0.00e+00	0	44	0	1570766848	5	3744
2026-01-02 14:43:37.65	165.90	36.24	-22.4	-22.5	18.9	0.00e+00	0	44	0	1592786944	5	3639
2026-01-02 14:43:40.65	166.02	36.95	-22.4	-22.4	18.9	0.00e+00	0	44	0	1613758464	5	3625
2026-01-02 14:43:43.65	166.14	37.68	-22.8	-23.3	18.5	0.00e+00	0	44	0	1635778560	5	3816
2026-01-02 14:43:46.66	166.26	38.42	-23.4	-23.7	17.8	0.00e+00	0	44	0	1657798656	7	3702
2026-01-02 14:43:49.66	166.39	39.18	-23.4	-23.5	17.9	0.00e+00	0	44	0	1678770176	7	3658
2026-01-02 14:43:52.67	166.53	39.96	-23.0	-22.8	18.3	0.00e+00	0	44	0	1700790272	7	3517
2026-01-02 14:43:55.68	166.68	40.76	-22.9	-23.0	18.4	0.00e+00	0	44	0	1721761792	6	3649
2026-01-02 14:43:58.68	166.83	41.57	-22.9	-23.0	18.4	0.00e+00	0	44	0	1743781888	6	3658
2026-01-02 14:44:01.68	166.98	42.40	-22.7	-22.7	18.6	0.00e+00	0	44	0	1765801984	6	3580
2026-01-02 14:44:04.69	167.15	43.25	-23.0	-23.2	18.4	0.00e+00	0	44	0	1786773504	6	3701
2026-01-02 14:44:07.71	167.32	44.13	-23.2	-23.6	18.2	0.00e+00	0	44	0	1808793600	6	3782
2026-01-02 14:44:10.72	167.51	45.02	-23.2	-23.6	18.2	0.00e+00	0	44	0	1830813696	6	3771
2026-01-02 14:44:13.72	167.70	45.92	-23.5	-24.2	17.8	0.00e+00	0	44	0	1852833792	6	3930
2026-01-02 14:44:16.73	167.90	46.85	-23.6	-24.0	17.7	0.00e+00	0	44	0	1873805312	7	3774
2026-01-02 14:44:19.74	168.12	47.81	-23.6	-23.9	17.7	0.00e+00	0	44	0	1895825408	7	3755
2026-01-02 14:44:22.74	168.35	48.78	-24.0	-24.8	17.3	0.00e+00	0	44	0	1917845504	7	3943
2026-01-02 14:44:25.74	168.59	49.77	-24.3	-25.1	17.0	0.00e+00	0	44	0	1938817024	8	3909
2026-01-02 14:44:28.74	168.85	50.78	-24.1	-24.0	17.3	0.00e+00	0	44	0	1960837120	9	3562
2026-01-02 14:44:31.75	169.13	51.82	-24.5	-24.9	16.8	4.50e-06	0	44	0	1982857216	9	3758
2026-01-02 14:44:34.76	169.42	52.88	-24.4	-24.8	16.9	0.00e+00	0	44	0	2004877312	9	3741
2026-01-02 14:44:37.75	169.74	53.95	-24.3	-24.4	17.0	0.00e+00	0	44	0	2025848832	9	3655
2026-01-02 14:44:40.77	170.08	55.06	-24.8	-25.1	16.5	0.00e+00	0	44	0	2047868928	10	3710
2026-01-02 14:44:43.77	170.45	56.19	-24.5	-24.8	16.9	2.20e-06	0	44	0	2069889024	9	3757
2026-01-02 14:44:46.79	170.85	57.34	-24.6	-25.0	16.8	4.50e-06	0	44	0	2090860544	9	3792
2026-01-02 14:44:49.79	171.28	58.51	-23.9	-24.2	17.5	5.70e-06	0	44	0	2112880640	8	3701
2026-01-02 14:44:52.80	171.76	59.70	-24.8	-25.6	16.4	0.00e+00	0	44	0	2134900736	9	3937
2026-01-02 14:44:55.80	172.28	60.91	-23.7	-23.7	17.8	0.00e+00	0	44	0	2156920832	8	3597
2026-01-02 14:44:58.81	172.85	62.15	-23.5	-23.3	17.9	0.00e+00	0	44	0	2177892352	8	3514
2026-01-02 14:45:01.82	173.48	63.40	-23.4	-23.5	18.1	0.00e+00	0	44	0	2199912448	7	3653
2026-01-02 14:45:04.82	174.18	64.67	-22.9	-22.5	18.6	0.00e+00	0	44	0	2221932544	7	3428
2026-01-02 14:45:07.83	174.96	65.97	-23.3	-24.0	18.1	0.00e+00	0	44	0	2242904064	6	3864
2026-01-02 14:45:10.83	175.84	67.27	-22.7	-22.5	18.9	0.00e+00	0	44	0	2264924160	6	3538
2026-01-02 14:45:13.85	176.84	68.60	-22.5	-22.6	18.9	0.00e+00	0	44	0	2286944256	5	3660
2026-01-02 14:45:16.85	177.98	69.93	-22.6	-22.8	19.0	0.00e+00	0	44	0	2307915776	5	3704
2026-01-02 14:45:19.86	179.29	71.28	-22.9	-23.0	18.6	0.00e+00	0	44	0	2329935872	6	3632
2026-01-02 14:45:22.86	180.82	72.63	-23.1	-23.5	18.3	0.00e+00	0	44	0	2351955968	6	3751
2026-01-02 14:45:25.88	182.63	73.99	-22.6	-22.4	18.8	0.00e+00	0	44	0	2372927488	6	3523
2026-01-02 14:45:28.90	184.79	75.35	-22.4	-22.5	19.2	0.00e+00	0	44	0	2394947584	5	3633
2026-01-02 14:45:31.91	187.39	76.70	-22.4	-22.6	19.1	0.00e+00	0	44	0	2416967680	5	3647
2026-01-02 14:45:34.92	190.59	78.02	-21.1	-20.7	20.5	0.00e+00	0	44	0	2438987776	3	3456
2026-01-02 14:45:37.93	194.60	79.31	-21.5	-21.6	20.1	0.00e+00	0	44	0	2459959296	3	3650
2026-01-02 14:45:40.93	199.67	80.54	-21.2	-21.0	20.4	0.00e+00	0	44	0	2481979392	3	3516
2026-01-02 14:45:43.93	206.21	81.68	-21.6	-21.7	20.1	0.00e+00	0	44	0	2503999488	3	3670
2026-01-02 14:45:46.94	214.74	82.68	-21.1	-20.8	20.6	0.00e+00	0	44	0	2524971008	3	3469
2026-01-02 14:45:49.95	225.69	83.49	-21.5	-21.5	20.2	0.00e+00	0	44	0	2546991104	3	3623
2026-01-02 14:45:52.95	239.05	84.00	-21.8	-22.2	19.9	0.00e+00	0	44	0	2569011200	3	3777
2026-01-02 14:45:55.95	253.92	84.14	-22.1	-22.3	19.4	0.00e+00	0	44	0	2591031296	4	3693
2026-01-02 14:45:58.94	268.46	83.88	-22.0	-22.2	19.5	0.00e+00	0	44	0	2612002816	4	3663
2026-01-02 14:46:01.95	281.19	83.28	-22.5	-22.7	19.1	0.00e+00	0	44	0	2634022912	5	3669
2026-01-02 14:46:04.96	291.39	82.41	-22.1	-21.9	19.5	0.00e+00	0	44	0	2656043008	5	3504
2026-01-02 14:46:07.97	299.28	81.35	-21.7	-21.5	19.9	0.00e+00	0	44	0	2677014528	4	3515
2026-01-02 14:46:10.98	305.36	80.18	-21.4	-21.0	20.1	0.00e+00	0	44	0	2699034624	4	3414
2026-01-02 14:46:13.99	310.09	78.93	-21.3	-21.3	20.3	0.00e+00	0	44	0	2721054720	3	3569
2026-01-02 14:46:17.01	313.84	77.62	-21.1	-20.9	20.4	0.00e+00	0	44	0	2743074816	3	3481
2026-01-02 14:46:20.01	316.83	76.30	-22.0	-22.7	19.5	0.00e+00	0	44	0	2764046336	3	3888
2026-01-02 14:46:23.01	319.28	74.96	-22.5	-22.7	19.0	0.00e+00	0	44	0	2786066432	5	3673
2026-01-02 14:46:26.02	321.32	73.60	-22.7	-23.2	18.3	0.00e+00	0	44	0	2808086528	5	3796
2026-01-02 14:46:29.03	323.03	72.25	-23.3	-23.8	18.2	0.00e+00	0	44	0	2829058048	6	3817
2026-01-02 14:46:32.04	324.50	70.90	-23.4	-24.1	18.0	0.00e+00	0	44	0	2851078144	6	3891
2026-01-02 14:46:35.06	325.76	69.55	-23.3	-23.8	18.1	0.00e+00	0	44	0	2873098240	6	3816
2026-01-02 14:46:38.07	326.86	68.22	-22.6	-22.3	18.9	0.00e+00	0	44	0	2894069760	6	3489
2026-01-02 14:46:41.09	327.82	66.90	-22.5	-22.2	19.0	0.00e+00	0	44	0	2916089856	6	3459
2026-01-02 14:46:44.09	328.67	65.60	-22.7	-23.1	18.7	0.00e+00	0	44	0	2938109952	5	3766
2026-01-02 14:46:47.10	329.43	64.32	-23.1	-23.4	18.3	0.00e+00	0	44	0	2960130048	6	3727
2026-01-02 14:46:50.12	330.11	63.05	-23.0	-23.2	18.4	0.00e+00	0	44	0	2981101568	6	3686
2026-01-02 14:46:53.14	330.72	61.80	-23.9	-24.7	17.5	0.00e+00	0	44	0	3003121664	7	3922
2026-01-02 14:46:56.15	331.28	60.57	-24.4	-25.2	16.9	0.00e+00	0	44	0	3025141760	8	3947
2026-01-02 14:46:59.16	331.78	59.37	-24.9	-25.7	16.4	0.00e+00	0	44	0	3047161856	9	3942
2026-01-02 14:47:02.16	332.24	58.19	-24.7	-24.7	16.6	0.00e+00	0	44	0	3068133376	10	3627
2026-01-02 14:47:05.17	332.66	57.03	-24.5	-25.0	16.8	0.00e+00	0	44	0	3090153472	9	3786
2026-01-02 14:47:08.16	333.05	55.89	-23.9	-24.2	17.4	0.00e+00	0	44	0	3112173568	8	3701
2026-01-02 14:47:11.18	333.41	54.77	-24.4	-25.1	16.9	0.00e+00	0	44	0	3133145088	8	3911
2026-01-02 14:47:14.19	333.75	53.68	-24.3	-25.0	17.0	0.00e+00	0	44	0	3155165184	8	3891
2026-01-02 14:47:17.19	334.06	52.61	-24.4	-25.2	16.9	0.00e+00	0	44	0	3177185280	8	3948
2026-01-02 14:47:20.20	334.35	51.56	-25.5	-26.0	15.5	0.00e+00	0	44	0	3199205376	11	3803
2026-01-02 14:47:23.22	334.62	50.53	-24.9	-24.8	16.3	0.00e+00	0	44	0	3220176896	11	3538
2026-01-02 14:47:26.24	334.88	49.52	-25.0	-25.5	16.2	0.00e+00	0	44	0	3242196992	10	3793
2026-01-02 14:47:29.24	335.12	48.54	-23.8	-23.9	17.5	0.00e+00	0	44	0	3264217088	8	3630
2026-01-02 14:47:32.25	335.35	47.57	-23.7	-23.7	17.6	0.00e+00	0	44	0	3286237184	8	3594
2026-01-02 14:47:35.26	335.56	46.63	-23.5	-23.3	17.8	0.00e+00	0	44	0	3307208704	8	3508
2026-01-02 14:47:38.26	335.76	45.71	-23.6	-23.4	17.7	0.00e+00	0	44	0	3329228800	8	3529
2026-01-02 14:47:41.27	335.95	44.81	-23.2	-23.0	17.6	0.00e+00	0	44	0	3351248896	7	3555
2026-01-02 14:47:44.29	336.13	43.93	-22.8	-22.8	18.5	0.00e+00	0	44	0	3372220416	6	3596
2026-01-02 14:47:47.31	336.30	43.06	-23.0	-23.1	18.3	0.00e+00	0	44	0	3394240512	6	3674
2026-01-02 14:47:50.31	336.47	42.22	-23.2	-23.7	18.1	1.10e-06	0	44	0	3416260608	6	3807
2026-01-02 14:47:53.32	336.62	41.40	-23.1	-23.5	18.1	0.00e+00	0	44	0	3437232128	6	3761
2026-01-02 14:47:56.33	336.77	40.59	-23.4	-23.5	17.9	0.00e+00	0	44	0	3459252224	7	3643
2026-01-02 14:47:59.34	336.91	39.80	-23.5	-23.8	17.7	0.00e+00	0	44	0	3481272320	7	3715
2026-01-02 14:48:02.35	337.05	39.03	-23.5	-23.7	17.7	0.00e+00	0	44	0	3503292416	7	3706
2026-01-02 14:48:05.37	337.18	38.28	-23.1	-22.9	18.1	0.00e+00	0	44	0	3524263936	7	3528
2026-01-02 14:48:08.37	337.31	37.54	-22.6	-22.4	18.7	0.00e+00	0	44	0	3546284032	6	3504
2026-01-02 14:48:11.38	337.43	36.82	-22.5	-22.1	18.8	0.00e+00	0	44	0	3568304128	6	3447
2026-01-02 14:48:14.38	337.54	36.11	-22.3	-22.4	18.9	0.00e+00	0	44	0	3589275648	5	3610
2026-01-02 14:48:17.40	337.65	35.42	-22.5	-22.7	18.7	0.00e+00	0	44	0	3611295744	5	3684
2026-01-02 14:48:20.41	337.76	34.74	-22.6	-22.9	18.6	0.00e+00	0	44	0	3633315840	5	3741
2026-01-02 14:48:23.42	337.86	34.08	-22.8	-22.8	18.4	0.00e+00	0	44	0	3655335936	6	3591
2026-01-02 14:48:26.43	337.96	33.43	-22.5	-22.2	18.7	0.00e+00	0	44	0	3676307456	6	3474
2026-01-02 14:48:29.43	338.06	32.80	-22.7	-22.7	18.4	0.00e+00	0	44	0	3698327552	6	3575
2026-01-02 14:48:32.45	338.15	32.18	-22.6	-22.4	18.5	0.00e+00	0	44	0	3720347648	6	3520
2026-01-02 14:48:35.45	338.24	31.57	-22.8	-22.8	18.4	0.00e+00	0	44	0	3742367744	6	3593
2026-01-02 14:48:38.47	338.33	30.97	-22.9	-22.9	18.3	0.00e+00	0	44	0	3763339264	6	3634
2026-01-02 14:48:41.48	338.42	30.38	-22.9	-23.0	18.3	0.00e+00	0	44	0	3785359360	6	3660
2026-01-02 14:48:44.49	338.50	29.81	-23.5	-24.2	17.6	0.00e+00	0	44	0	3807379456	6	3937
2026-01-02 14:48:47.49	338.58	29.25	-23.2	-23.1	17.9	0.00e+00	0	44	0	3829399552	7	3583
2026-01-02 14:48:50.51	338.65	28.70	-23.4	-23.6	17.7	0.00e+00	0	44	0	3850371072	7	3678
2026-01-02 14:48:53.53	338.73	28.16	-23.4	-23.7	17.4	0.00e+00	0	44	0	3872391168	7	3693
2026-01-02 14:48:56.54	338.80	27.63	-23.5	-23.7	17.6	0.00e+00	0	44	0	3894411264	7	3710
2026-01-02 14:48:59.54	338.87	27.11	-23.2	-23.2	17.8	0.00e+00	0	44	0	3915382784	7	3602
2026-01-02 14:49:02.54	338.94	26.60	-23.3	-23.3	17.8	0.00e+00	0	44	0	3937402880	7	3623
2026-01-02 14:49:05.55	339.01	26.10	-23.4	-23.5	17.7	0.00e+00	0	44	0	3959422976	7	3658
2026-01-02 14:49:08.57	339.08	25.61	-23.3	-23.3	17.8	0.00e+00	0	44	0	3981443072	7	3607
2026-01-02 14:49:11.56	339.14	25.13	-23.2	-23.2	17.8	0.00e+00	0	44	0	4002414592	7	3586
2026-01-02 14:49:14.57	339.20	24.65	-22.9	-22.6	18.1	0.00e+00	0	44	0	4024434688	7	3463
2026-01-02 14:49:17.57	339.26	24.19	-22.8	-22.8	18.2	0.00e+00	0	44	0	4045406208	6	3608
2026-01-02 14:49:20.57	339.32	23.73	-22.9	-22.9	18.1	0.00e+00	0	44	0	4067426304	6	3636
2026-01-02 14:49:23.59	339.38	23.28	-22.9	-23.0	18.2	0.00e+00	0	44	0	4089446400	6	3644
2026-01-02 14:49:26.60	339.44	22.84	-23.2	-23.6	17.9	0.00e+00	0	44	0	4111466496	6	3774
2026-01-02 14:49:29.61	339.49	22.40	-23.5	-23.9	17.5	0.00e+00	0	44	0	4132438016	7	3737
2026-01-02 14:49:32.62	339.55	21.98	-23.8	-24.4	17.2	0.00e+00	0	44	0	4154458112	7	3861
2026-01-02 14:49:35.62	339.60	21.56	-23.4	-23.5	17.6	0.00e+00	0	44	0	4176478208	7	3655
2026-01-02 14:49:38.63	339.65	21.15	-24.1	-24.5	16.8	0.00e+00	0	44	0	4197449728	8	3784
2026-01-02 14:49:41.64	339.71	20.74	-23.5	-23.4	17.4	0.00e+00	0	44	0	4219469824	8	3534
2026-01-02 14:49:44.66	339.76	20.34	-23.6	-23.4	17.4	0.00e+00	0	44	0	4241489920	8	3547
2026-01-02 14:49:47.66	339.81	19.95	-23.6	-23.6	17.3	0.00e+00	0	44	0	4263510016	8	3577
2026-01-02 14:49:50.67	339.85	19.56	-23.9	-24.1	17.0	0.00e+00	0	44	0	4284481536	8	3689
2026-01-02 14:49:53.67	339.90	19.18	-23.9	-24.1	17.0	0.00e+00	0	44	0	4306501632	8	3702
2026-01-02 14:49:56.67	339.95	18.80	-24.0	-24.4	16.8	0.00e+00	0	44	0	4328521728	8	3763
2026-01-02 14:49:59.69	339.99	18.43	-24.1	-24.7	16.7	0.00e+00	0	44	0	4349493248	8	3823
2026-01-02 14:50:02.70	340.04	18.07	-24.4	-25.1	16.4	0.00e+00	0	44	0	4371513344	8	3938
2026-01-02 14:50:05.71	340.08	17.71	-24.4	-25.3	16.3	0.00e+00	0	44	0	4393533440	8	3967
2026-01-02 14:50:08.72	340.13	17.35	-24.5	-25.0	16.2	0.00e+00	0	44	0	4415553536	9	3788
2026-01-02 14:50:11.72	340.17	17.01	-24.5	-24.8	16.3	0.00e+00	0	44	0	4436525056	9	3759
2026-01-02 14:50:14.75	340.21	16.66	-24.5	-25.0	16.2	0.00e+00	0	44	0	4458545152	9	3812
2026-01-02 14:50:17.76	340.25	16.32	-24.5	-25.0	16.2	0.00e+00	0	44	0	4480565248	9	3792
2026-01-02 14:50:20.78	340.29	15.98	-24.6	-25.2	16.1	0.00e+00	0	44	0	4502585344	9	3837
2026-01-02 14:50:23.77	340.33	15.66	-24.8	-25.2	15.8	0.00e+00	0	44	0	4523556864	10	3738
2026-01-02 14:50:26.78	340.37	15.33	-24.8	-25.1	15.8	0.00e+00	0	44	0	4545576960	10	3727
2026-01-02 14:50:29.79	340.41	15.01	-25.0	-25.5	15.6	0.00e+00	0	44	0	4567597056	10	3805
2026-01-02 14:50:32.80	340.45	14.69	-24.8	-25.2	15.7	0.00e+00	0	44	0	4589617152	10	3749
2026-01-02 14:50:35.81	340.49	14.38	-25.3	-26.3	15.1	0.00e+00	0	44	0	4610588672	10	4009
2026-01-02 14:50:38.81	340.53	14.07	-25.0	-25.5	15.6	0.00e+00	0	44	0	4632608768	10	3812
2026-01-02 14:50:41.82	340.56	13.76	-25.0	-25.5	15.5	0.00e+00	0	44	0	4653580288	10	3822
2026-01-02 14:50:44.84	340.60	13.46	-25.1	-25.7	15.4	0.00e+00	0	44	0	4675600384	10	3874
2026-01-02 14:50:47.86	340.64	13.16	-25.1	-25.9	15.3	0.00e+00	0	44	0	4697620480	10	3910
2026-01-02 14:50:50.87	340.67	12.87	-25.3	-26.3	15.1	0.00e+00	0	44	0	4719640576	10	4017
2026-01-02 14:50:53.88	340.71	12.58	-25.7	-26.6	14.6	2.20e-06	0	44	0	4740612096	11	3985
2026-01-02 14:50:56.89	340.74	12.29	-25.6	-26.4	14.7	0.00e+00	0	44	0	4762632192	11	3929
2026-01-02 14:50:59.90	340.78	12.01	-25.7	-26.5	14.6	1.10e-06	0	44	0	4784652288	11	3978
2026-01-02 14:51:02.91	340.81	11.73	-25.7	-26.7	14.5	1.10e-06	0	44	0	4806672384	11	4013
2026-01-02 14:51:05.92	340.84	11.45	-25.6	-26.4	14.7	0.00e+00	0	44	0	4827643904	11	3937
2026-01-02 14:51:08.93	340.88	11.17	-25.6	-26.3	14.7	0.00e+00	0	44	0	4849664000	11	3920
2026-01-02 14:51:11.93	340.91	10.90	-25.7	-26.6	14.5	1.10e-06	0	44	0	4871684096	11	3988
2026-01-02 14:51:14.93	340.94	10.64	-25.9	-27.0	14.3	0.00e+00	0	44	0	4892655616	11	4095
2026-01-02 14:51:17.94	340.97	10.37	-26.0	-27.2	14.2	1.10e-06	0	44	0	4914675712	11	4147
2026-01-02 14:51:20.95	341.01	10.11	-25.9	-26.6	14.1	2.20e-06	0	44	0	4936695808	12	3884
2026-01-02 14:51:23.96	341.04	9.85	-25.8	-26.4	14.2	1.10e-06	0	44	0	4958715904	12	3853
2026-01-02 14:51:26.97	341.07	9.59	-26.0	-26.8	14.0	3.40e-06	0	44	0	4979687424	12	3955
2026-01-02 14:51:29.97	341.10	9.34	-25.9	-26.5	14.1	5.70e-06	0	44	0	5001707520	12	3881
2026-01-02 14:51:32.97	341.13	9.09	-26.4	-27.6	13.5	9.10e-06	0	44	0	5023727616	12	4160
2026-01-02 14:51:35.99	341.16	8.84	-26.4	-27.7	13.4	2.05e-05	0	44	0	5044699136	12	4192
2026-01-02 14:51:39.01	341.19	8.59	-26.2	-27.2	13.6	3.40e-06	0	44	0	5066719232	12	4054
2026-01-02 14:51:42.02	341.22	8.34	-26.1	-27.1	13.7	1.37e-05	0	44	0	5088739328	12	4029
2026-01-02 14:51:45.03	341.25	8.10	-26.4	-27.7	13.3	1.83e-05	0	44	0	5110759424	12	4179
2026-01-02 14:51:48.04	341.28	7.86	-26.5	-27.5	13.1	4.92e-05	0	44	0	5131730944	13	4043
2026-01-02 14:51:51.04	341.31	7.63	-26.8	-28.2	12.7	6.86e-05	0	44	0	5153751040	13	4223
2026-01-02 14:51:54.05	341.33	7.39	-26.4	-27.2	13.2	2.86e-05	0	44	0	5175771136	13	3964
2026-01-02 14:51:57.07	341.36	7.16	-26.4	-27.3	13.2	3.66e-05	0	44	0	5196742656	13	3970

#Closed at: 2026-01-02 14:51:59
#Recorded file [5206 MB]: D:/data/31010_260102_173956.dat