passes_logs/2026/01/02/R2M6_AANII_01/R2M6_AANII_01__20260102_224024_NOAA_20_JPSS-1_rec.log

#Pass ID: 20260102_224024_NOAA 20 (JPSS-1)
#Satellite: NOAA 20 (JPSS-1)
#Configuration: NOAA 20
#almurnet v.1.7.20240730
#Start time: 2026-01-02 22:40:25

#Version: 2.2.20231116
#Station: R2M6_AANII_01
#Location: 30.233357 lon 59.946436 lat
#TLE: 1 43013U 17073A   26002.21975278  .00000202  00000+0  11669-3 0  9999
#TLE: 2 43013  98.7622 303.2950 0001915  57.9213 302.2149 14.19532512420923

#Time	Az	El	Level	Level2	SNR	BER	BlckErr	Temp	State	Recorded	gain1	gain2
2026-01-02 22:40:25.30	30.68	7.04	-31.1	-37.3	4.9	1.23e+00	0	41	0	0	23	7376
2026-01-02 22:40:28.30	30.97	7.22	-31.5	-39.3	6.0	3.74e-01	0	41	0	1048576	23	8848
2026-01-02 22:40:31.31	31.27	7.41	-31.2	-37.4	7.5	1.39e-01	0	41	0	7340032	23	7319
2026-01-02 22:40:34.32	31.57	7.59	-31.1	-37.0	8.2	7.19e-02	0	41	0	12582912	22	7141
2026-01-02 22:40:37.33	31.88	7.78	-30.6	-35.5	9.9	1.18e-02	0	41	0	17825792	21	6372
2026-01-02 22:40:40.35	32.19	7.97	-30.6	-35.5	9.9	6.37e-03	0	41	0	24117248	21	6341
2026-01-02 22:40:43.37	32.50	8.16	-30.2	-34.3	10.7	3.80e-03	0	41	0	29360128	21	5731
2026-01-02 22:40:46.38	32.82	8.35	-30.0	-33.3	11.5	8.25e-04	0	41	0	35651584	21	5306
2026-01-02 22:40:49.40	33.14	8.54	-30.0	-33.4	11.5	7.27e-04	0	41	0	40894464	21	5320
2026-01-02 22:40:52.42	33.47	8.73	-30.0	-33.5	11.4	9.99e-04	0	42	0	46137344	21	5373
2026-01-02 22:40:55.43	33.80	8.92	-30.0	-33.3	11.6	6.04e-04	0	41	0	52428800	21	5269
2026-01-02 22:40:58.44	34.13	9.11	-29.9	-33.0	11.9	5.26e-04	0	42	0	57671680	21	5147
2026-01-02 22:41:01.46	34.47	9.31	-29.8	-33.3	12.0	2.33e-04	0	42	0	63963136	20	5369
2026-01-02 22:41:04.46	34.81	9.50	-30.0	-33.8	11.7	5.23e-04	0	42	0	69206016	20	5574
2026-01-02 22:41:07.48	35.16	9.69	-29.9	-33.3	12.1	2.94e-04	0	42	0	74448896	20	5377
2026-01-02 22:41:10.49	35.51	9.89	-29.9	-33.4	12.0	4.16e-04	0	42	0	80740352	20	5392
2026-01-02 22:41:13.51	35.86	10.09	-29.7	-33.0	12.3	1.69e-04	0	42	0	85983232	20	5231
2026-01-02 22:41:16.51	36.22	10.28	-29.8	-33.2	12.2	2.70e-04	0	42	0	92274688	20	5334
2026-01-02 22:41:19.53	36.59	10.48	-29.8	-33.1	12.3	1.71e-04	0	42	0	97517568	20	5276
2026-01-02 22:41:22.54	36.96	10.67	-29.7	-33.0	12.4	1.52e-04	0	42	0	102760448	20	5212
2026-01-02 22:41:25.56	37.33	10.87	-29.6	-32.7	12.6	9.84e-05	0	42	0	109051904	20	5088
2026-01-02 22:41:28.58	37.71	11.07	-29.6	-32.6	12.7	7.47e-05	0	42	0	114294784	20	5081
2026-01-02 22:41:31.60	38.10	11.27	-29.6	-32.7	12.6	7.24e-05	0	42	0	119537664	20	5097
2026-01-02 22:41:34.61	38.49	11.47	-29.5	-32.4	12.9	5.56e-05	0	42	0	125829120	20	4985
2026-01-02 22:41:37.62	38.88	11.67	-29.5	-32.3	12.9	4.27e-05	0	42	0	131072000	20	4943
2026-01-02 22:41:40.63	39.28	11.87	-29.5	-32.3	12.9	7.09e-05	0	42	0	137363456	20	4969
2026-01-02 22:41:43.64	39.69	12.07	-29.5	-32.3	12.9	4.27e-05	0	42	0	142606336	20	4935
2026-01-02 22:41:46.67	40.10	12.27	-29.6	-32.4	12.9	1.01e-04	0	42	0	147849216	20	4977
2026-01-02 22:41:49.69	40.52	12.48	-29.7	-33.0	12.9	2.50e-04	0	42	0	154140672	19	5319
2026-01-02 22:41:52.70	40.94	12.68	-29.6	-32.9	13.0	3.89e-05	0	42	0	159383552	19	5260
2026-01-02 22:41:55.71	41.37	12.88	-29.5	-32.5	13.3	2.74e-05	0	42	0	165675008	19	5112
2026-01-02 22:41:58.72	41.80	13.08	-29.5	-32.7	13.1	3.12e-05	0	42	0	170917888	19	5162
2026-01-02 22:42:01.75	42.24	13.28	-29.5	-32.7	13.2	2.82e-05	0	42	0	176160768	19	5159
2026-01-02 22:42:04.76	42.68	13.49	-29.6	-32.9	13.1	4.27e-05	0	42	0	182452224	19	5266
2026-01-02 22:42:07.78	43.13	13.69	-29.7	-33.0	13.0	5.26e-05	0	42	0	187695104	19	5300
2026-01-02 22:42:10.79	43.59	13.89	-29.8	-33.4	12.7	3.43e-05	0	43	0	193986560	19	5437
2026-01-02 22:42:13.79	44.05	14.09	-29.5	-32.6	13.3	1.75e-05	0	43	0	199229440	19	5131
2026-01-02 22:42:16.81	44.52	14.30	-29.7	-33.2	13.0	2.59e-05	0	43	0	204472320	19	5356
2026-01-02 22:42:19.82	45.00	14.50	-29.5	-32.5	13.4	1.52e-05	0	43	0	210763776	19	5101
2026-01-02 22:42:22.83	45.48	14.70	-29.6	-32.8	13.2	1.37e-05	0	43	0	216006656	19	5191
2026-01-02 22:42:25.85	45.97	14.91	-29.8	-33.2	13.0	4.19e-05	0	43	0	222298112	19	5368
2026-01-02 22:42:28.86	46.46	15.11	-29.9	-33.5	12.8	6.86e-05	0	43	0	227540992	19	5485
2026-01-02 22:42:31.87	46.96	15.31	-29.7	-33.0	13.1	3.89e-05	0	43	0	232783872	19	5262
2026-01-02 22:42:34.88	47.47	15.51	-29.6	-32.8	13.3	1.60e-05	0	43	0	239075328	19	5203
2026-01-02 22:42:37.89	47.98	15.71	-29.7	-33.0	13.2	1.67e-05	0	43	0	244318208	19	5262
2026-01-02 22:42:40.90	48.50	15.91	-29.6	-32.6	13.5	1.44e-05	0	43	0	249561088	19	5100
2026-01-02 22:42:43.92	49.03	16.11	-29.4	-32.1	13.8	2.20e-06	0	43	0	255852544	19	4940
2026-01-02 22:42:46.93	49.56	16.31	-29.2	-31.7	14.1	7.00e-07	0	43	0	261095424	19	4791
2026-01-02 22:42:49.95	50.11	16.51	-29.1	-31.9	14.3	2.68e-04	0	43	0	267386880	18	4964
2026-01-02 22:42:52.96	50.66	16.71	-28.9	-31.4	14.6	3.07e-04	0	43	0	272629760	18	4799
2026-01-02 22:42:55.99	51.21	16.91	-29.0	-32.0	14.5	3.54e-04	0	43	0	277872640	17	5116
2026-01-02 22:42:59.01	51.78	17.11	-28.8	-31.6	14.8	8.29e-04	0	43	0	284164096	17	4961
2026-01-02 22:43:02.03	52.35	17.30	-28.8	-31.7	14.8	0.00e+00	0	43	0	289406976	17	4989
2026-01-02 22:43:05.04	52.93	17.49	-28.9	-31.8	14.7	0.00e+00	0	43	0	295698432	17	5043
2026-01-02 22:43:08.06	53.51	17.69	-28.8	-31.7	14.7	3.71e-04	0	43	0	300941312	17	4992
2026-01-02 22:43:11.08	54.11	17.88	-29.1	-31.8	14.4	3.14e-04	0	43	0	306184192	18	4922
2026-01-02 22:43:14.10	54.71	18.07	-29.1	-31.9	14.3	5.49e-05	0	43	0	312475648	18	4969
2026-01-02 22:43:17.10	55.31	18.26	-29.4	-32.5	14.0	9.38e-05	0	43	0	317718528	18	5179
2026-01-02 22:43:20.11	55.92	18.44	-29.4	-32.6	13.9	1.32e-04	0	43	0	324009984	18	5216
2026-01-02 22:43:23.13	56.55	18.63	-29.7	-32.9	13.4	7.09e-05	0	43	0	329252864	19	5203
2026-01-02 22:43:26.15	57.18	18.81	-29.7	-32.9	13.4	1.29e-05	0	43	0	334495744	19	5215
2026-01-02 22:43:29.17	57.81	18.99	-30.1	-33.4	12.7	5.64e-05	0	43	0	340787200	20	5318
2026-01-02 22:43:32.19	58.46	19.17	-30.4	-34.5	11.9	7.29e-04	0	43	0	346030080	20	5756
2026-01-02 22:43:35.19	59.11	19.35	-30.2	-33.8	12.4	4.18e-04	0	43	0	351272960	20	5461
2026-01-02 22:43:38.21	59.77	19.52	-30.3	-34.1	12.3	1.80e-04	0	43	0	357564416	20	5579
2026-01-02 22:43:41.22	60.43	19.69	-30.2	-34.0	12.3	2.45e-04	0	43	0	362807296	20	5542
2026-01-02 22:43:44.23	61.10	19.86	-30.4	-34.3	12.0	3.07e-04	0	43	0	369098752	20	5695
2026-01-02 22:43:47.25	61.79	20.03	-30.6	-34.6	11.5	6.30e-04	0	43	0	374341632	21	5690
2026-01-02 22:43:50.27	62.48	20.19	-30.3	-33.6	12.2	2.96e-04	0	43	0	380633088	21	5283
2026-01-02 22:43:53.29	63.17	20.35	-30.0	-33.3	12.8	4.42e-05	0	43	0	385875968	20	5244
2026-01-02 22:43:56.31	63.87	20.51	-29.8	-33.1	13.4	1.44e-05	0	43	0	391118848	19	5281
2026-01-02 22:43:59.32	64.58	20.66	-30.1	-33.5	12.6	8.01e-05	0	43	0	397410304	20	5364
2026-01-02 22:44:02.34	65.30	20.81	-30.2	-33.8	12.5	1.19e-04	0	43	0	402653184	20	5455
2026-01-02 22:44:05.35	66.02	20.96	-30.1	-33.4	12.6	9.53e-05	0	43	0	407896064	20	5319
2026-01-02 22:44:08.35	66.75	21.10	-29.7	-32.5	13.3	3.43e-05	0	43	0	414187520	20	4966
2026-01-02 22:44:11.37	67.48	21.24	-29.7	-32.9	13.4	1.90e-05	0	43	0	419430400	19	5219
2026-01-02 22:44:14.38	68.23	21.37	-30.0	-33.3	12.8	5.03e-05	0	43	0	425721856	20	5247
2026-01-02 22:44:17.40	68.98	21.50	-29.8	-32.6	13.3	2.28e-05	0	43	0	430964736	20	5000
2026-01-02 22:44:20.42	69.73	21.63	-29.6	-32.5	13.7	5.30e-06	0	43	0	436207616	19	5041
2026-01-02 22:44:23.43	70.49	21.75	-29.7	-32.7	13.5	1.06e-05	0	43	0	442499072	19	5141
2026-01-02 22:44:26.45	71.26	21.87	-29.2	-31.6	14.3	1.50e-06	0	43	0	447741952	19	4726
2026-01-02 22:44:29.46	72.03	21.98	-29.3	-31.7	14.2	1.50e-06	0	43	0	454033408	19	4779
2026-01-02 22:44:32.47	72.81	22.09	-29.4	-32.0	14.1	7.00e-07	0	43	0	459276288	19	4873
2026-01-02 22:44:35.48	73.59	22.19	-29.5	-32.3	13.9	6.80e-06	0	43	0	464519168	19	4972
2026-01-02 22:44:38.50	74.38	22.29	-29.6	-32.5	13.7	4.50e-06	0	43	0	470810624	19	5059
2026-01-02 22:44:41.51	75.17	22.39	-29.7	-32.9	13.5	8.30e-06	0	43	0	476053504	19	5180
2026-01-02 22:44:44.53	75.97	22.47	-29.8	-33.3	13.3	1.90e-05	0	43	0	482344960	19	5334
2026-01-02 22:44:47.55	76.77	22.56	-30.0	-33.4	12.8	5.11e-05	0	43	0	487587840	20	5273
2026-01-02 22:44:50.56	77.58	22.63	-29.8	-32.5	13.3	1.06e-05	0	43	0	492830720	20	4961
2026-01-02 22:44:53.58	78.39	22.70	-29.9	-33.4	13.2	1.52e-05	0	43	0	499122176	19	5373
2026-01-02 22:44:56.60	79.20	22.77	-29.4	-32.1	14.1	1.50e-06	0	43	0	504365056	19	4887
2026-01-02 22:44:59.61	80.02	22.83	-29.4	-32.1	14.1	1.50e-06	0	43	0	510656512	19	4892
2026-01-02 22:45:02.61	80.84	22.88	-29.6	-32.6	13.7	5.30e-06	0	43	0	515899392	19	5068
2026-01-02 22:45:05.63	81.66	22.93	-29.6	-32.6	13.7	4.50e-06	0	43	0	521142272	19	5089
2026-01-02 22:45:08.64	82.48	22.97	-29.3	-31.7	14.2	3.80e-06	0	43	0	527433728	19	4781
2026-01-02 22:45:11.66	83.31	23.01	-29.4	-32.2	14.0	5.30e-06	0	43	0	532676608	19	4930
2026-01-02 22:45:14.68	84.14	23.04	-29.6	-32.7	13.6	5.30e-06	0	43	0	537919488	19	5132
2026-01-02 22:45:17.69	84.97	23.07	-29.6	-32.7	13.7	4.50e-06	0	43	0	544210944	19	5116
2026-01-02 22:45:20.70	85.80	23.08	-29.7	-32.9	13.4	1.98e-05	0	43	0	549453824	19	5216
2026-01-02 22:45:23.73	86.64	23.10	-29.5	-32.5	13.8	3.80e-06	0	43	0	555745280	19	5031
2026-01-02 22:45:26.73	87.47	23.10	-29.9	-33.4	13.2	1.52e-05	0	43	0	560988160	19	5376
2026-01-02 22:45:29.75	88.30	23.10	-30.1	-33.6	12.6	4.65e-05	0	43	0	566231040	20	5386
2026-01-02 22:45:32.77	89.13	23.10	-30.0	-33.2	12.9	3.12e-05	0	43	0	572522496	20	5210
2026-01-02 22:45:35.78	89.97	23.08	-29.6	-32.1	13.6	1.14e-05	0	43	0	577765376	20	4813
2026-01-02 22:45:38.80	90.80	23.06	-29.4	-32.0	14.1	5.30e-06	0	43	0	584056832	19	4880
2026-01-02 22:45:41.83	91.63	23.04	-29.6	-32.5	13.8	7.00e-07	0	43	0	589299712	19	5059
2026-01-02 22:45:44.84	92.46	23.01	-29.8	-33.2	13.4	1.22e-05	0	43	0	594542592	19	5309
2026-01-02 22:45:47.85	93.29	22.97	-29.9	-33.3	13.3	1.83e-05	0	43	0	600834048	19	5349
2026-01-02 22:45:50.87	94.11	22.93	-29.6	-32.6	13.8	5.30e-06	0	43	0	606076928	19	5064
2026-01-02 22:45:53.90	94.94	22.88	-29.3	-31.8	14.2	2.20e-06	0	43	0	612368384	19	4802
2026-01-02 22:45:56.90	95.76	22.82	-29.7	-32.9	13.6	8.30e-06	0	43	0	617611264	19	5199
2026-01-02 22:45:59.92	96.58	22.76	-29.5	-32.2	14.0	5.30e-06	0	43	0	622854144	19	4939
2026-01-02 22:46:02.94	97.39	22.70	-29.2	-31.5	14.4	3.80e-06	0	43	0	629145600	19	4687
2026-01-02 22:46:05.94	98.20	22.63	-29.3	-31.8	14.2	1.50e-06	0	43	0	634388480	19	4801
2026-01-02 22:46:08.96	99.01	22.55	-29.2	-31.5	14.4	1.90e-05	0	43	0	640679936	19	4701
2026-01-02 22:46:11.98	99.81	22.46	-28.9	-30.8	14.9	0.00e+00	0	43	0	645922816	19	4463
2026-01-02 22:46:14.99	100.61	22.38	-29.1	-31.2	14.6	7.00e-07	0	43	0	651165696	19	4597
2026-01-02 22:46:18.01	101.41	22.28	-28.9	-30.7	14.9	1.50e-06	0	43	0	657457152	19	4438
2026-01-02 22:46:21.03	102.20	22.18	-29.1	-31.2	14.6	0.00e+00	0	43	0	662700032	19	4592
2026-01-02 22:46:24.05	102.98	22.08	-28.8	-30.9	15.1	0.00e+00	0	43	0	668991488	18	4608
2026-01-02 22:46:27.07	103.76	21.97	-28.6	-30.6	15.3	0.00e+00	0	43	0	674234368	18	4520
2026-01-02 22:46:30.08	104.54	21.86	-28.3	-29.8	15.7	0.00e+00	0	43	0	679477248	18	4269
2026-01-02 22:46:33.10	105.31	21.74	-28.1	-30.4	15.9	0.00e+00	0	43	0	685768704	16	4669
2026-01-02 22:46:36.11	106.07	21.61	-28.3	-30.9	15.7	2.20e-04	0	43	0	691011584	16	4824
2026-01-02 22:46:39.14	106.83	21.49	-28.6	-31.0	15.3	2.42e-04	0	43	0	696254464	17	4749
2026-01-02 22:46:42.16	107.58	21.35	-28.8	-31.5	15.0	0.00e+00	0	43	0	702545920	17	4910
2026-01-02 22:46:45.18	108.33	21.22	-29.1	-31.7	14.5	1.50e-06	0	43	0	707788800	18	4896
2026-01-02 22:46:48.20	109.06	21.08	-28.9	-31.2	14.9	0.00e+00	0	43	0	714080256	18	4707
2026-01-02 22:46:51.21	109.79	20.93	-28.6	-30.5	15.3	0.00e+00	0	43	0	719323136	18	4481
2026-01-02 22:46:54.23	110.52	20.79	-28.6	-31.0	15.2	0.00e+00	0	43	0	724566016	17	4759
2026-01-02 22:46:57.25	111.24	20.63	-29.1	-31.8	14.4	1.50e-06	0	43	0	730857472	18	4906
2026-01-02 22:47:00.27	111.95	20.48	-30.0	-33.7	12.7	4.73e-05	0	43	0	736100352	19	5526
2026-01-02 22:47:03.29	112.66	20.32	-30.2	-34.0	12.2	2.47e-04	0	43	0	742391808	20	5578
2026-01-02 22:47:06.30	113.35	20.16	-29.8	-32.9	13.0	3.12e-05	0	43	0	747634688	20	5124
2026-01-02 22:47:09.31	114.04	20.00	-29.7	-33.0	13.3	3.05e-05	0	43	0	752877568	19	5263
2026-01-02 22:47:12.33	114.72	19.83	-29.1	-31.9	14.3	0.00e+00	0	43	0	759169024	18	4958
2026-01-02 22:47:15.35	115.40	19.66	-29.4	-32.5	13.9	3.80e-06	0	43	0	764411904	18	5201
2026-01-02 22:47:18.37	116.07	19.48	-29.7	-33.1	13.1	2.44e-05	0	43	0	770703360	19	5325
2026-01-02 22:47:21.39	116.73	19.31	-29.9	-33.5	12.9	4.73e-05	0	43	0	775946240	19	5488
2026-01-02 22:47:24.40	117.38	19.13	-29.8	-33.4	13.0	7.09e-05	0	43	0	781189120	19	5421
2026-01-02 22:47:27.43	118.03	18.95	-29.2	-31.6	14.1	1.50e-06	0	43	0	787480576	19	4773
2026-01-02 22:47:30.43	118.66	18.77	-29.2	-31.7	14.1	3.80e-06	0	43	0	792723456	19	4803
2026-01-02 22:47:33.46	119.30	18.58	-29.3	-32.0	13.9	4.42e-05	0	43	0	799014912	19	4907
2026-01-02 22:47:36.46	119.92	18.40	-29.2	-31.7	14.0	1.06e-05	0	43	0	804257792	19	4802
2026-01-02 22:47:39.47	120.53	18.21	-29.4	-32.4	13.6	8.30e-06	0	43	0	809500672	19	5032
2026-01-02 22:47:42.49	121.14	18.02	-29.5	-32.6	13.4	1.29e-05	0	43	0	815792128	19	5131
2026-01-02 22:47:45.50	121.74	17.83	-29.6	-32.9	13.2	1.98e-05	0	43	0	821035008	19	5257
2026-01-02 22:47:48.52	122.34	17.63	-29.9	-33.5	12.8	7.55e-05	0	43	0	827326464	19	5468
2026-01-02 22:47:51.54	122.92	17.44	-29.2	-31.8	14.0	3.80e-06	0	43	0	832569344	19	4826
2026-01-02 22:47:54.55	123.50	17.24	-29.1	-31.4	14.2	7.00e-07	0	43	0	837812224	19	4708
2026-01-02 22:47:57.56	124.07	17.05	-29.8	-33.4	12.9	2.97e-05	0	43	0	844103680	19	5442
2026-01-02 22:48:00.58	124.64	16.85	-29.6	-32.7	13.3	3.50e-05	0	43	0	849346560	19	5166
2026-01-02 22:48:03.60	125.20	16.65	-29.5	-32.4	13.5	9.90e-06	0	43	0	854589440	19	5059
2026-01-02 22:48:06.61	125.74	16.45	-29.9	-33.8	12.5	8.31e-05	0	43	0	860880896	19	5608
2026-01-02 22:48:09.63	126.29	16.25	-29.8	-33.0	12.6	1.13e-04	0	43	0	866123776	20	5206
2026-01-02 22:48:12.65	126.83	16.05	-29.8	-33.0	12.6	1.34e-04	0	43	0	872415232	20	5219
2026-01-02 22:48:15.65	127.35	15.85	-29.8	-33.0	12.6	4.80e-05	0	43	0	877658112	20	5211
2026-01-02 22:48:18.67	127.87	15.64	-29.7	-32.7	12.8	7.78e-05	0	43	0	882900992	20	5109
2026-01-02 22:48:21.69	128.39	15.44	-29.3	-32.3	13.4	1.90e-05	0	43	0	889192448	19	5092
2026-01-02 22:48:24.71	128.90	15.24	-29.5	-32.7	13.1	2.05e-05	0	43	0	894435328	19	5211
2026-01-02 22:48:27.73	129.40	15.03	-30.0	-34.0	12.3	1.38e-04	0	43	0	900726784	19	5703
2026-01-02 22:48:30.75	129.90	14.83	-29.7	-32.6	12.8	5.56e-05	0	43	0	905969664	20	5040
2026-01-02 22:48:33.77	130.39	14.62	-29.7	-33.1	12.8	6.56e-05	0	43	0	911212544	19	5377
2026-01-02 22:48:36.78	130.87	14.42	-29.8	-33.5	12.5	9.53e-05	0	43	0	917504000	19	5527
2026-01-02 22:48:39.79	131.34	14.21	-29.9	-33.3	12.2	2.40e-04	0	43	0	922746880	20	5354
2026-01-02 22:48:42.81	131.82	14.01	-30.0	-34.1	12.1	2.43e-04	0	43	0	929038336	19	5772
2026-01-02 22:48:45.82	132.28	13.80	-29.7	-33.5	12.4	8.23e-05	0	43	0	934281216	19	5575
2026-01-02 22:48:48.84	132.74	13.60	-29.9	-33.9	12.2	2.35e-04	0	43	0	939524096	19	5705
2026-01-02 22:48:51.86	133.19	13.39	-29.9	-33.4	12.1	3.25e-04	0	43	0	945815552	20	5386
2026-01-02 22:48:54.87	133.63	13.19	-29.5	-32.5	12.6	1.32e-04	0	43	0	951058432	20	5056
2026-01-02 22:48:57.88	134.07	12.99	-29.7	-33.5	12.3	1.29e-04	0	43	0	957349888	19	5583
2026-01-02 22:49:00.89	134.50	12.78	-30.0	-34.3	11.7	4.93e-04	0	43	0	962592768	19	5943
2026-01-02 22:49:03.91	134.93	12.58	-30.0	-34.0	11.5	7.49e-04	0	43	0	967835648	20	5714
2026-01-02 22:49:06.92	135.35	12.37	-30.1	-34.3	11.3	1.03e-03	0	43	0	974127104	20	5812
2026-01-02 22:49:09.93	135.77	12.17	-30.1	-34.2	11.4	7.01e-04	0	43	0	979369984	20	5779
2026-01-02 22:49:12.95	136.18	11.97	-29.7	-33.2	12.0	3.66e-04	0	43	0	984612864	20	5367
2026-01-02 22:49:15.95	136.58	11.77	-29.7	-33.7	12.1	4.85e-04	0	43	0	990904320	19	5689
2026-01-02 22:49:18.97	136.98	11.56	-29.6	-33.2	12.3	1.67e-04	0	43	0	996147200	19	5499
2026-01-02 22:49:21.98	137.38	11.36	-29.8	-33.8	12.0	3.45e-04	0	43	0	1002438656	19	5718
2026-01-02 22:49:24.99	137.77	11.16	-30.0	-34.4	11.5	6.89e-04	0	43	0	1007681536	19	5975
2026-01-02 22:49:28.00	138.15	10.96	-30.1	-34.3	11.1	1.53e-03	0	43	0	1012924416	20	5866
2026-01-02 22:49:31.02	138.53	10.76	-30.0	-34.0	11.3	1.07e-03	0	43	0	1019215872	20	5729
2026-01-02 22:49:34.03	138.90	10.56	-29.9	-33.6	11.6	7.23e-04	0	43	0	1024458752	20	5559
2026-01-02 22:49:37.03	139.27	10.36	-29.9	-33.9	11.4	1.28e-03	0	43	0	1030750208	20	5680
2026-01-02 22:49:40.05	139.64	10.16	-30.1	-34.6	10.7	1.73e-03	0	43	0	1035993088	20	6048
2026-01-02 22:49:43.07	140.00	9.97	-30.1	-34.6	10.8	3.05e-03	0	43	0	1041235968	20	6015
2026-01-02 22:49:46.09	140.35	9.77	-30.2	-34.8	10.6	3.79e-03	0	43	0	1047527424	20	6126
2026-01-02 22:49:49.10	140.70	9.57	-30.3	-35.3	10.1	7.82e-03	0	43	0	1052770304	20	6424
2026-01-02 22:49:52.12	141.05	9.38	-29.9	-35.2	9.8	1.04e-02	0	43	0	1059061760	20	6598
2026-01-02 22:49:55.14	141.39	9.18	-30.5	-35.9	9.4	1.16e-02	0	43	0	1064304640	20	6759
2026-01-02 22:49:58.15	141.73	8.99	-30.4	-35.8	9.6	1.30e-02	0	43	0	1069547520	20	6692
2026-01-02 22:50:01.17	142.06	8.79	-30.4	-35.9	9.4	1.51e-02	0	43	0	1075838976	20	6764
2026-01-02 22:50:04.18	142.39	8.60	-30.4	-36.1	9.1	2.15e-02	0	43	0	1081081856	20	6969
2026-01-02 22:50:07.21	142.72	8.40	-30.2	-35.5	9.5	1.46e-02	0	43	0	1087373312	20	6629
2026-01-02 22:50:10.23	143.04	8.21	-30.2	-35.4	9.6	1.42e-02	0	43	0	1092616192	20	6542
2026-01-02 22:50:13.24	143.35	8.02	-30.1	-34.9	9.9	7.94e-03	0	43	0	1097859072	20	6289
2026-01-02 22:50:16.25	143.66	7.83	-30.2	-35.4	9.5	9.70e-03	0	43	0	1104150528	20	6554
2026-01-02 22:50:19.27	143.97	7.64	-30.2	-35.3	9.5	1.47e-02	0	43	0	1109393408	20	6513
2026-01-02 22:50:22.29	144.28	7.45	-30.2	-35.5	9.4	1.85e-02	0	43	0	1114636288	20	6636
2026-01-02 22:50:25.31	144.58	7.26	-30.2	-35.6	9.3	1.70e-02	0	43	0	1120927744	20	6699
2026-01-02 22:50:28.31	144.88	7.08	-31.7	-42.8	4.6	1.67e-02	0	43	0	1126170624	23	12877

#Closed at: 2026-01-02 22:50:29
#Recorded file [1126 MB]: D:/data/31010_260103_014027.dat