passes_logs/2026/01/02/R2M6_AANII_01/R2M6_AANII_01__20260102_030003_FENGYUN_3D_rec.log

#Pass ID: 20260102_030003_FENGYUN 3D
#Satellite: FENGYUN 3D
#Configuration: FENGYUN 3D
#almurnet v.1.7.20240730
#Start time: 2026-01-02 03:00:03

#Version: 2.2.20231116
#Station: R2M6_AANII_01
#Location: 30.233357 lon 59.946436 lat
#TLE: 1 43010U 17072A   26001.33100487  .00000602  00000+0  30664-3 0  9999
#TLE: 2 43010  98.9910 332.9374 0001848 133.1047 227.0283 14.19692078421319

#Time	Az	El	Level	Level2	SNR	BER	BlckErr	Temp	State	Recorded	gain1	gain2
2026-01-02 03:00:03.82	15.78	7.03	-29.7	-33.4	5.2	7.97e-01	0	41	0	0	19	5531
2026-01-02 03:00:06.82	15.69	7.26	-30.5	-35.0	7.1	1.54e-01	0	41	0	5242880	21	6057
2026-01-02 03:00:09.83	15.61	7.49	-30.0	-33.9	8.2	6.51e-02	0	41	0	22020096	20	5589
2026-01-02 03:00:12.83	15.52	7.73	-29.5	-32.7	9.5	2.17e-02	0	41	0	38797312	19	5207
2026-01-02 03:00:15.84	15.43	7.96	-28.5	-30.9	11.4	1.23e-03	0	41	0	55574528	17	4770
2026-01-02 03:00:18.85	15.34	8.20	-26.9	-28.7	13.5	3.89e-05	0	41	0	72351744	14	4417
2026-01-02 03:00:21.86	15.25	8.44	-26.7	-28.7	13.8	5.70e-06	0	41	0	90177536	13	4527
2026-01-02 03:00:24.87	15.15	8.68	-26.6	-28.5	14.0	8.00e-06	0	41	0	106954752	13	4465
2026-01-02 03:00:27.88	15.06	8.92	-26.5	-28.2	14.1	3.40e-06	0	41	0	123731968	13	4392
2026-01-02 03:00:30.88	14.96	9.17	-26.3	-28.4	14.4	1.10e-06	0	42	0	140509184	12	4547
2026-01-02 03:00:33.88	14.86	9.42	-26.3	-28.3	14.4	4.50e-06	0	41	0	157286400	12	4522
2026-01-02 03:00:36.88	14.76	9.67	-26.2	-28.1	14.6	1.10e-06	0	42	0	174063616	12	4457
2026-01-02 03:00:39.90	14.65	9.92	-26.1	-27.7	14.8	0.00e+00	0	42	0	190840832	12	4355
2026-01-02 03:00:42.91	14.55	10.18	-25.8	-27.1	15.2	0.00e+00	0	42	0	208666624	12	4185
2026-01-02 03:00:45.91	14.44	10.43	-26.0	-27.5	15.0	0.00e+00	0	42	0	225443840	12	4290
2026-01-02 03:00:48.93	14.33	10.70	-25.4	-26.8	14.1	0.00e+00	0	42	0	242221056	12	4236
2026-01-02 03:00:51.93	14.22	10.96	-26.0	-28.0	14.5	0.00e+00	0	42	0	258998272	11	4527
2026-01-02 03:00:54.95	14.10	11.23	-26.0	-27.5	15.0	0.00e+00	0	42	0	275775488	12	4282
2026-01-02 03:00:57.96	13.98	11.50	-26.9	-29.2	13.8	3.40e-06	0	42	0	292552704	13	4656
2026-01-02 03:01:00.98	13.86	11.77	-26.7	-28.5	14.2	5.70e-06	0	42	0	310378496	13	4463
2026-01-02 03:01:03.98	13.74	12.04	-26.8	-28.8	14.0	3.40e-06	0	42	0	327155712	13	4542
2026-01-02 03:01:06.98	13.62	12.32	-25.9	-27.8	15.3	1.90e-03	0	42	0	343932928	11	4470
2026-01-02 03:01:10.00	13.49	12.60	-25.8	-27.5	15.4	2.09e-03	0	42	0	360710144	11	4388
2026-01-02 03:01:12.99	13.36	12.89	-25.6	-27.2	15.6	2.52e-04	0	42	0	377487360	11	4312
2026-01-02 03:01:16.00	13.23	13.17	-25.6	-27.2	15.6	0.00e+00	0	42	0	394264576	11	4299
2026-01-02 03:01:19.02	13.09	13.47	-25.6	-27.0	15.7	2.02e-03	0	42	0	411041792	11	4260
2026-01-02 03:01:22.02	12.96	13.76	-25.5	-26.9	15.8	1.87e-03	0	42	0	428867584	11	4212
2026-01-02 03:01:25.02	12.81	14.05	-25.5	-27.0	15.8	0.00e+00	0	42	0	445644800	11	4256
2026-01-02 03:01:28.04	12.67	14.36	-25.5	-27.0	15.9	2.00e-03	0	42	0	462422016	11	4241
2026-01-02 03:01:31.05	12.52	14.66	-25.5	-26.9	15.9	1.83e-03	0	43	0	479199232	11	4218
2026-01-02 03:01:34.07	12.37	14.97	-25.2	-26.6	16.3	1.66e-03	0	42	0	495976448	10	4255
2026-01-02 03:01:37.07	12.22	15.28	-25.0	-26.3	16.5	0.00e+00	0	43	0	512753664	10	4179
2026-01-02 03:01:40.07	12.06	15.60	-24.8	-25.8	16.8	1.65e-03	0	43	0	529530880	10	4045
2026-01-02 03:01:43.08	11.90	15.92	-25.0	-26.2	16.5	1.56e-03	0	43	0	546308096	10	4162
2026-01-02 03:01:46.09	11.73	16.24	-24.7	-26.0	16.9	0.00e+00	0	42	0	564133888	9	4213
2026-01-02 03:01:49.09	11.56	16.57	-24.4	-25.6	17.2	0.00e+00	0	42	0	580911104	9	4092
2026-01-02 03:01:52.11	11.39	16.90	-24.6	-25.9	17.0	1.44e-03	0	43	0	597688320	9	4180
2026-01-02 03:01:55.11	11.21	17.24	-24.5	-26.1	17.2	0.00e+00	0	43	0	614465536	8	4347
2026-01-02 03:01:58.11	11.03	17.58	-24.3	-25.3	17.3	0.00e+00	0	43	0	631242752	9	4041
2026-01-02 03:02:01.11	10.84	17.92	-24.3	-25.7	17.5	0.00e+00	0	43	0	648019968	8	4232
2026-01-02 03:02:04.13	10.65	18.27	-24.2	-25.6	17.5	0.00e+00	0	43	0	664797184	8	4212
2026-01-02 03:02:07.14	10.46	18.62	-24.2	-25.5	17.6	0.00e+00	0	43	0	681574400	8	4178
2026-01-02 03:02:10.15	10.26	18.98	-24.2	-25.6	17.5	0.00e+00	0	43	0	699400192	8	4218
2026-01-02 03:02:13.15	10.05	19.35	-24.0	-25.1	17.8	0.00e+00	0	43	0	716177408	8	4098
2026-01-02 03:02:16.15	9.84	19.72	-23.9	-24.9	17.9	0.00e+00	0	43	0	732954624	8	4042
2026-01-02 03:02:19.16	9.63	20.09	-23.9	-25.0	17.9	0.00e+00	0	43	0	749731840	8	4059
2026-01-02 03:02:22.17	9.40	20.47	-24.0	-25.0	17.9	0.00e+00	0	43	0	766509056	8	4066
2026-01-02 03:02:25.17	9.18	20.85	-23.9	-24.8	18.0	0.00e+00	0	43	0	783286272	8	4024
2026-01-02 03:02:28.18	8.94	21.24	-23.8	-24.7	18.1	0.00e+00	0	43	0	800063488	8	3983
2026-01-02 03:02:31.18	8.70	21.64	-23.6	-24.7	18.3	0.00e+00	0	43	0	816840704	7	4100
2026-01-02 03:02:34.20	8.46	22.04	-23.6	-24.7	18.3	0.00e+00	0	43	0	834666496	7	4104
2026-01-02 03:02:37.20	8.20	22.45	-23.6	-24.7	18.3	0.00e+00	0	43	0	851443712	7	4101
2026-01-02 03:02:40.22	7.94	22.86	-23.4	-24.4	18.5	0.00e+00	0	43	0	868220928	7	4022
2026-01-02 03:02:43.22	7.68	23.28	-23.4	-24.3	18.5	0.00e+00	0	43	0	884998144	7	4011
2026-01-02 03:02:46.23	7.40	23.71	-23.5	-24.5	18.5	0.00e+00	0	43	0	901775360	7	4054
2026-01-02 03:02:49.23	7.12	24.14	-23.3	-24.0	18.7	0.00e+00	0	43	0	918552576	7	3939
2026-01-02 03:02:52.24	6.83	24.57	-23.2	-24.4	18.8	0.00e+00	0	43	0	935329792	6	4127
2026-01-02 03:02:55.26	6.52	25.02	-23.6	-24.7	18.4	0.00e+00	0	43	0	953155584	7	4101
2026-01-02 03:02:58.26	6.22	25.47	-23.7	-24.9	18.3	0.00e+00	0	43	0	969932800	7	4146
2026-01-02 03:03:01.27	5.90	25.93	-23.7	-24.9	18.3	0.00e+00	0	43	0	986710016	7	4159
2026-01-02 03:03:04.27	5.57	26.39	-23.5	-24.0	18.5	0.00e+00	0	43	0	1003487232	8	3819
2026-01-02 03:03:07.27	5.23	26.87	-22.6	-23.2	19.4	0.00e+00	0	43	0	1020264448	6	3853
2026-01-02 03:03:10.27	4.88	27.34	-22.7	-23.8	19.4	0.00e+00	0	43	0	1037041664	5	4092
2026-01-02 03:03:13.28	4.52	27.83	-22.8	-24.1	19.2	0.00e+00	0	43	0	1053818880	5	4169
2026-01-02 03:03:16.30	4.15	28.33	-22.7	-23.9	19.3	0.00e+00	0	43	0	1070596096	5	4122
2026-01-02 03:03:19.31	3.77	28.83	-22.7	-23.8	19.4	2.20e-06	0	43	0	1088421888	5	4108
2026-01-02 03:03:22.33	3.37	29.34	-22.5	-23.3	19.6	0.00e+00	0	43	0	1105199104	5	3983
2026-01-02 03:03:25.34	2.96	29.86	-22.7	-23.9	19.4	0.00e+00	0	43	0	1121976320	5	4113
2026-01-02 03:03:28.36	2.53	30.39	-22.9	-24.3	19.1	0.00e+00	0	43	0	1138753536	5	4226
2026-01-02 03:03:31.37	2.10	30.92	-23.2	-24.3	18.9	0.00e+00	0	43	0	1155530752	6	4118
2026-01-02 03:03:34.39	1.64	31.46	-22.3	-23.0	19.9	0.00e+00	0	43	0	1173356544	5	3898
2026-01-02 03:03:37.41	1.17	32.01	-22.2	-23.4	19.9	6.80e-06	0	43	0	1190133760	4	4107
2026-01-02 03:03:40.41	0.69	32.57	-22.7	-23.8	19.5	0.00e+00	0	43	0	1206910976	5	4088
2026-01-02 03:03:43.43	0.18	33.14	-22.6	-23.6	19.6	0.00e+00	0	43	0	1223688192	5	4045
2026-01-02 03:03:46.45	359.66	33.71	-22.5	-23.3	19.7	0.00e+00	0	43	0	1240465408	5	3982
2026-01-02 03:03:49.46	359.12	34.29	-22.2	-22.8	20.0	1.10e-06	0	43	0	1257242624	5	3871
2026-01-02 03:03:52.45	358.56	34.88	-22.1	-23.1	20.1	0.00e+00	0	43	0	1274019840	4	4044
2026-01-02 03:03:55.47	357.97	35.48	-22.2	-23.3	20.0	0.00e+00	0	43	0	1290797056	4	4097
2026-01-02 03:03:58.48	357.37	36.08	-22.1	-23.0	20.1	0.00e+00	0	43	0	1308622848	4	4018
2026-01-02 03:04:01.50	356.74	36.70	-22.0	-22.8	20.3	0.00e+00	0	43	0	1325400064	4	3966
2026-01-02 03:04:04.51	356.09	37.32	-22.3	-23.5	19.9	0.00e+00	0	43	0	1342177280	4	4133
2026-01-02 03:04:07.54	355.40	37.95	-22.3	-23.6	19.9	0.00e+00	0	43	0	1358954496	4	4150
2026-01-02 03:04:10.55	354.70	38.59	-22.5	-23.8	19.8	0.00e+00	0	43	0	1375731712	4	4211
2026-01-02 03:04:13.55	353.97	39.23	-22.9	-23.8	19.3	0.00e+00	0	43	0	1393557504	6	3978
2026-01-02 03:04:16.56	353.20	39.88	-23.1	-24.1	19.2	0.00e+00	0	43	0	1410334720	6	4060
2026-01-02 03:04:19.58	352.40	40.53	-23.0	-24.0	19.2	0.00e+00	0	43	0	1427111936	6	4023
2026-01-02 03:04:22.59	351.57	41.19	-22.5	-23.4	19.8	0.00e+00	0	43	0	1443889152	5	3993
2026-01-02 03:04:25.59	350.71	41.86	-22.6	-23.7	19.7	0.00e+00	0	43	0	1460666368	5	4058
2026-01-02 03:04:28.60	349.81	42.52	-22.9	-24.2	19.4	0.00e+00	0	43	0	1477443584	5	4188
2026-01-02 03:04:31.61	348.86	43.20	-22.9	-24.3	19.3	0.00e+00	0	43	0	1494220800	5	4229
2026-01-02 03:04:34.62	347.88	43.87	-22.9	-23.8	19.3	0.00e+00	0	43	0	1510998016	6	3995
2026-01-02 03:04:37.63	346.86	44.55	-22.8	-23.5	19.5	0.00e+00	0	43	0	1528823808	6	3916
2026-01-02 03:04:40.64	345.79	45.23	-22.9	-23.8	19.3	0.00e+00	0	43	0	1545601024	6	3977
2026-01-02 03:04:43.64	344.67	45.91	-23.1	-23.6	19.2	0.00e+00	0	43	0	1562378240	7	3838
2026-01-02 03:04:46.65	343.51	46.59	-23.0	-23.5	19.2	0.00e+00	0	43	0	1579155456	7	3810
2026-01-02 03:04:49.65	342.29	47.26	-23.2	-24.5	19.0	0.00e+00	0	43	0	1595932672	6	4142
2026-01-02 03:04:52.66	341.02	47.93	-23.1	-23.8	19.1	0.00e+00	0	43	0	1612709888	7	3869
2026-01-02 03:04:55.66	339.69	48.59	-23.2	-24.4	15.2	0.00e+00	0	43	0	1629487104	6	4115
2026-01-02 03:04:58.66	338.31	49.25	-23.2	-24.3	19.1	0.00e+00	0	43	0	1646264320	6	4109
2026-01-02 03:05:01.67	336.86	49.90	-23.7	-24.9	18.6	0.00e+00	0	43	0	1664090112	7	4138
2026-01-02 03:05:04.67	335.36	50.53	-23.6	-24.7	18.7	0.00e+00	0	43	0	1680867328	7	4091
2026-01-02 03:05:07.68	333.78	51.16	-23.6	-24.6	18.7	1.05e-04	0	43	0	1697644544	7	4070
2026-01-02 03:05:10.69	332.14	51.76	-23.5	-24.5	18.8	0.00e+00	0	43	0	1714421760	7	4032
2026-01-02 03:05:13.71	330.42	52.36	-23.9	-25.4	18.4	6.77e-04	0	43	0	1731198976	7	4267
2026-01-02 03:05:16.71	328.64	52.92	-23.4	-24.3	18.9	7.98e-04	0	43	0	1747976192	7	3996
2026-01-02 03:05:19.72	326.79	53.47	-23.5	-24.6	18.8	1.04e-03	0	43	0	1765801984	7	4053
2026-01-02 03:05:22.73	324.87	53.99	-22.9	-23.8	19.4	1.05e-03	0	43	0	1782579200	6	3982
2026-01-02 03:05:25.75	322.88	54.48	-23.2	-24.3	19.2	7.63e-04	0	43	0	1799356416	6	4107
2026-01-02 03:05:28.76	320.82	54.94	-23.3	-24.5	19.1	7.24e-04	0	43	0	1816133632	6	4155
2026-01-02 03:05:31.77	318.70	55.37	-22.8	-23.5	19.6	0.00e+00	0	43	0	1832910848	6	3897
2026-01-02 03:05:34.78	316.52	55.76	-22.9	-23.6	19.5	5.96e-04	0	43	0	1849688064	6	3942
2026-01-02 03:05:37.81	314.26	56.11	-23.9	-25.4	18.4	6.90e-04	0	43	0	1866465280	7	4263
2026-01-02 03:05:40.82	311.96	56.41	-23.8	-24.6	18.6	0.00e+00	0	43	0	1884291072	8	3948
2026-01-02 03:05:43.84	309.61	56.68	-23.6	-24.6	18.8	0.00e+00	0	43	0	1901068288	7	4066
2026-01-02 03:05:46.85	307.22	56.89	-24.0	-25.6	18.3	6.75e-04	0	43	0	1917845504	7	4308
2026-01-02 03:05:49.85	304.81	57.06	-23.3	-24.1	19.1	0.00e+00	0	43	0	1934622720	7	3940
2026-01-02 03:05:52.86	302.36	57.18	-22.9	-23.8	19.4	0.00e+00	0	43	0	1951399936	6	3987
2026-01-02 03:05:55.88	299.89	57.25	-23.3	-24.6	19.1	0.00e+00	0	43	0	1969225728	6	4172
2026-01-02 03:05:58.89	297.41	57.27	-23.2	-24.4	19.2	0.00e+00	0	43	0	1986002944	6	4123
2026-01-02 03:06:01.90	294.94	57.23	-23.0	-24.0	19.4	0.00e+00	0	43	0	2002780160	6	4025
2026-01-02 03:06:04.90	292.49	57.15	-22.9	-23.7	19.5	0.00e+00	0	43	0	2019557376	6	3962
2026-01-02 03:06:07.92	290.04	57.02	-22.9	-23.8	19.5	0.00e+00	0	43	0	2036334592	6	3973
2026-01-02 03:06:10.94	287.62	56.83	-22.8	-24.0	19.6	0.00e+00	0	43	0	2053111808	5	4127
2026-01-02 03:06:13.95	285.24	56.60	-23.0	-23.9	19.4	0.00e+00	0	43	0	2069889024	6	4000
2026-01-02 03:06:16.96	282.91	56.32	-22.8	-23.5	19.6	0.00e+00	0	43	0	2087714816	6	3903
2026-01-02 03:06:19.96	280.63	56.01	-22.6	-23.7	19.8	0.00e+00	0	43	0	2104492032	5	4059
2026-01-02 03:06:22.98	278.39	55.64	-22.6	-23.6	19.8	0.00e+00	0	43	0	2121269248	5	4048
2026-01-02 03:06:25.98	276.23	55.24	-22.5	-23.5	19.8	0.00e+00	0	43	0	2138046464	5	4016
2026-01-02 03:06:29.00	274.12	54.81	-22.6	-23.5	19.8	0.00e+00	0	43	0	2154823680	5	4025
2026-01-02 03:06:32.00	272.09	54.34	-22.5	-23.5	19.8	0.00e+00	0	43	0	2171600896	5	4013
2026-01-02 03:06:35.01	270.11	53.84	-22.7	-23.9	19.6	0.00e+00	0	43	0	2188378112	5	4121
2026-01-02 03:06:38.01	268.22	53.31	-22.9	-24.3	19.4	0.00e+00	0	43	0	2205155328	5	4224
2026-01-02 03:06:41.01	266.39	52.76	-22.6	-23.2	19.7	0.00e+00	0	43	0	2222981120	6	3843
2026-01-02 03:06:44.01	264.63	52.18	-22.6	-23.6	19.8	0.00e+00	0	43	0	2239758336	5	4050
2026-01-02 03:06:47.03	262.93	51.58	-22.8	-23.5	19.4	0.00e+00	0	43	0	2256535552	6	3916
2026-01-02 03:06:50.03	261.31	50.97	-22.8	-23.4	19.6	0.00e+00	0	43	0	2273312768	6	3893
2026-01-02 03:06:53.04	259.75	50.34	-22.7	-23.4	19.6	9.52e-04	0	43	0	2290089984	6	3884
2026-01-02 03:06:56.05	258.25	49.70	-22.5	-23.5	19.8	0.00e+00	0	43	0	2306867200	5	4018
2026-01-02 03:06:59.06	256.81	49.04	-22.8	-23.9	19.5	0.00e+00	0	43	0	2323644416	5	4121
2026-01-02 03:07:02.07	255.44	48.38	-22.7	-23.9	19.6	8.70e-04	0	43	0	2340421632	5	4118
2026-01-02 03:07:05.08	254.12	47.71	-22.1	-22.6	20.2	5.53e-04	0	43	0	2358247424	5	3809
2026-01-02 03:07:08.10	252.86	47.04	-22.0	-23.0	20.1	0.00e+00	0	43	0	2375024640	4	4010
2026-01-02 03:07:11.10	251.66	46.36	-22.3	-23.6	19.8	6.71e-04	0	43	0	2391801856	4	4159
2026-01-02 03:07:14.11	250.50	45.68	-22.5	-23.3	19.8	6.71e-04	0	43	0	2408579072	5	3975
2026-01-02 03:07:17.12	249.40	45.00	-22.2	-22.8	20.1	1.11e-03	0	43	0	2425356288	5	3867
2026-01-02 03:07:20.13	248.34	44.32	-21.7	-22.7	20.7	1.45e-03	0	43	0	2443182080	3	4048
2026-01-02 03:07:23.14	247.32	43.64	-22.2	-23.3	20.1	1.62e-03	0	43	0	2459959296	4	4083
2026-01-02 03:07:26.15	246.35	42.96	-22.2	-23.3	20.1	1.94e-03	0	43	0	2476736512	4	4078
2026-01-02 03:07:29.16	245.42	42.28	-21.8	-22.5	20.4	0.00e+00	0	43	0	2493513728	4	3895
2026-01-02 03:07:32.18	244.52	41.61	-22.0	-22.8	20.3	1.03e-03	0	43	0	2510290944	4	3967
2026-01-02 03:07:35.18	243.67	40.95	-21.8	-22.5	20.4	1.20e-03	0	43	0	2527068160	4	3904
2026-01-02 03:07:38.21	242.84	40.28	-22.0	-22.9	20.2	0.00e+00	0	43	0	2543845376	4	3982
2026-01-02 03:07:41.21	242.05	39.63	-22.0	-22.8	20.3	0.00e+00	0	43	0	2560622592	4	3971
2026-01-02 03:07:44.22	241.30	38.98	-21.7	-22.2	20.6	3.32e-04	0	43	0	2578448384	4	3816
2026-01-02 03:07:47.22	240.57	38.34	-22.0	-22.8	20.3	2.20e-06	0	43	0	2595225600	4	3960
2026-01-02 03:07:50.23	239.87	37.70	-22.0	-22.8	20.3	0.00e+00	0	43	0	2612002816	4	3967
2026-01-02 03:07:53.23	239.20	37.07	-22.1	-23.2	20.0	0.00e+00	0	43	0	2628780032	4	4065
2026-01-02 03:07:56.24	238.55	36.45	-22.1	-23.1	20.1	1.10e-06	0	43	0	2645557248	4	4038
2026-01-02 03:07:59.25	237.93	35.84	-22.0	-22.8	20.2	0.00e+00	0	43	0	2662334464	4	3965
2026-01-02 03:08:02.25	237.33	35.24	-22.1	-23.1	20.1	0.00e+00	0	43	0	2679111680	4	4030
2026-01-02 03:08:05.25	236.75	34.64	-22.7	-23.8	19.5	0.00e+00	0	43	0	2695888896	5	4102
2026-01-02 03:08:08.26	236.20	34.05	-22.2	-22.9	20.0	4.50e-06	0	43	0	2713714688	5	3876
2026-01-02 03:08:11.28	235.66	33.47	-22.1	-22.5	20.1	2.20e-06	0	43	0	2730491904	5	3786
2026-01-02 03:08:14.29	235.14	32.89	-22.1	-23.1	20.0	0.00e+00	0	43	0	2747269120	4	4049
2026-01-02 03:08:17.31	234.64	32.33	-22.2	-23.3	20.0	0.00e+00	0	43	0	2764046336	4	4077
2026-01-02 03:08:20.32	234.15	31.77	-22.3	-23.5	19.9	4.50e-06	0	43	0	2780823552	4	4128
2026-01-02 03:08:23.33	233.69	31.22	-22.3	-23.5	19.8	0.00e+00	0	43	0	2798649344	4	4142
2026-01-02 03:08:26.34	233.24	30.68	-22.1	-23.2	20.0	0.00e+00	0	43	0	2815426560	4	4053
2026-01-02 03:08:29.34	232.80	30.15	-22.3	-23.5	19.8	2.20e-06	0	43	0	2832203776	4	4148
2026-01-02 03:08:32.35	232.38	29.62	-22.5	-23.8	19.6	0.00e+00	0	43	0	2848980992	4	4221
2026-01-02 03:08:35.35	231.97	29.11	-22.7	-23.8	19.4	0.00e+00	0	43	0	2865758208	5	4103
2026-01-02 03:08:38.37	231.58	28.59	-22.5	-23.5	19.5	0.00e+00	0	43	0	2882535424	5	4039
2026-01-02 03:08:41.38	231.20	28.09	-22.6	-23.6	19.5	0.00e+00	0	43	0	2899312640	5	4046
2026-01-02 03:08:44.40	230.82	27.60	-22.5	-23.4	19.6	0.00e+00	0	43	0	2916089856	5	4011
2026-01-02 03:08:47.40	230.47	27.11	-22.5	-23.4	19.6	0.00e+00	0	43	0	2933915648	5	3995
2026-01-02 03:08:50.40	230.12	26.63	-22.6	-23.6	19.5	0.00e+00	0	43	0	2950692864	5	4048
2026-01-02 03:08:53.40	229.78	26.16	-22.5	-23.5	18.8	0.00e+00	0	43	0	2967470080	5	4018
2026-01-02 03:08:56.41	229.46	25.70	-22.4	-23.2	19.6	0.00e+00	0	43	0	2984247296	5	3961
2026-01-02 03:08:59.42	229.14	25.24	-22.4	-23.2	19.6	0.00e+00	0	43	0	3001024512	5	3956
2026-01-02 03:09:02.42	228.83	24.79	-22.5	-23.4	19.5	0.00e+00	0	43	0	3017801728	5	4008
2026-01-02 03:09:05.44	228.53	24.34	-22.6	-23.7	19.4	0.00e+00	0	43	0	3034578944	5	4081
2026-01-02 03:09:08.45	228.24	23.90	-22.8	-24.1	19.1	0.00e+00	0	43	0	3052404736	5	4178
2026-01-02 03:09:11.46	227.95	23.47	-23.0	-24.5	18.9	2.78e-04	0	43	0	3069181952	5	4275
2026-01-02 03:09:14.48	227.68	23.04	-23.1	-23.8	18.8	2.17e-04	0	43	0	3085959168	7	3874
2026-01-02 03:09:17.48	227.41	22.63	-23.2	-24.3	18.8	9.95e-05	0	43	0	3102736384	6	4128
2026-01-02 03:09:20.47	227.15	22.22	-23.2	-24.5	18.7	0.00e+00	0	43	0	3119513600	6	4157
2026-01-02 03:09:23.47	226.90	21.81	-23.3	-24.7	18.5	0.00e+00	0	43	0	3136290816	6	4207
2026-01-02 03:09:26.48	226.65	21.41	-23.2	-24.4	18.7	0.00e+00	0	43	0	3153068032	6	4139
2026-01-02 03:09:29.49	226.41	21.01	-23.2	-24.3	18.7	0.00e+00	0	43	0	3169845248	6	4115
2026-01-02 03:09:32.49	226.18	20.62	-23.3	-24.5	18.6	2.74e-05	0	43	0	3187671040	6	4173
2026-01-02 03:09:35.50	225.95	20.24	-23.3	-24.7	18.5	1.82e-04	0	43	0	3204448256	6	4225
2026-01-02 03:09:38.51	225.73	19.86	-23.6	-24.8	18.2	0.00e+00	0	43	0	3221225472	7	4133
2026-01-02 03:09:41.52	225.51	19.49	-23.4	-24.8	18.4	2.44e-04	0	43	0	3238002688	6	4247
2026-01-02 03:09:44.51	225.30	19.12	-23.8	-25.2	18.0	3.12e-04	0	43	0	3254779904	7	4213
2026-01-02 03:09:47.53	225.10	18.75	-23.7	-24.9	18.1	0.00e+00	0	43	0	3271557120	7	4158
2026-01-02 03:09:50.53	224.90	18.40	-23.9	-25.3	17.9	0.00e+00	0	43	0	3288334336	7	4267
2026-01-02 03:09:53.54	224.70	18.04	-24.3	-25.9	17.3	3.55e-04	0	43	0	3305111552	8	4295
2026-01-02 03:09:56.55	224.51	17.69	-24.5	-25.7	17.1	0.00e+00	0	43	0	3322937344	9	4139
2026-01-02 03:09:59.55	224.32	17.35	-24.5	-26.2	17.1	0.00e+00	0	43	0	3339714560	8	4387
2026-01-02 03:10:02.55	224.14	17.01	-24.8	-26.3	16.8	0.00e+00	0	43	0	3356491776	9	4291
2026-01-02 03:10:05.56	223.96	16.67	-24.3	-25.3	17.3	2.07e-04	0	43	0	3373268992	9	4039
2026-01-02 03:10:08.57	223.79	16.34	-24.4	-25.5	17.2	0.00e+00	0	44	0	3390046208	9	4081
2026-01-02 03:10:11.59	223.61	16.01	-24.4	-26.0	17.2	0.00e+00	0	43	0	3406823424	8	4318
2026-01-02 03:10:14.58	223.45	15.69	-24.4	-26.0	17.1	0.00e+00	0	43	0	3423600640	8	4325
2026-01-02 03:10:17.59	223.29	15.37	-24.8	-26.4	16.7	0.00e+00	0	43	0	3440377856	9	4315
2026-01-02 03:10:20.59	223.13	15.06	-24.7	-26.2	16.7	0.00e+00	0	43	0	3458203648	9	4282
2026-01-02 03:10:23.59	222.97	14.75	-24.7	-26.2	16.7	0.00e+00	0	43	0	3474980864	9	4262
2026-01-02 03:10:26.60	222.82	14.44	-24.8	-26.4	16.6	0.00e+00	0	43	0	3491758080	9	4316
2026-01-02 03:10:29.61	222.67	14.13	-24.9	-26.5	16.5	0.00e+00	0	43	0	3508535296	9	4347
2026-01-02 03:10:32.61	222.53	13.83	-25.0	-26.7	16.4	0.00e+00	0	43	0	3525312512	9	4401
2026-01-02 03:10:35.62	222.38	13.53	-25.2	-26.7	16.1	0.00e+00	0	43	0	3542089728	10	4294
2026-01-02 03:10:38.64	222.24	13.24	-25.0	-26.4	16.3	0.00e+00	0	43	0	3558866944	10	4202
2026-01-02 03:10:41.65	222.11	12.95	-25.1	-26.6	16.2	0.00e+00	0	44	0	3575644160	10	4246
2026-01-02 03:10:44.66	221.97	12.66	-25.1	-26.6	16.2	0.00e+00	0	43	0	3593469952	10	4257
2026-01-02 03:10:47.67	221.84	12.38	-25.3	-26.9	15.9	0.00e+00	0	43	0	3610247168	10	4353
2026-01-02 03:10:50.68	221.71	12.10	-25.3	-26.9	15.9	0.00e+00	0	43	0	3627024384	10	4355
2026-01-02 03:10:53.70	221.58	11.82	-25.5	-26.9	15.6	0.00e+00	0	43	0	3643801600	11	4236
2026-01-02 03:10:56.72	221.46	11.54	-25.4	-26.8	15.7	0.00e+00	0	43	0	3660578816	11	4207
2026-01-02 03:10:59.73	221.34	11.27	-25.5	-26.9	15.6	0.00e+00	0	43	0	3678404608	11	4231
2026-01-02 03:11:02.74	221.22	11.00	-25.5	-27.0	15.5	0.00e+00	0	43	0	3695181824	11	4274
2026-01-02 03:11:05.75	221.10	10.73	-25.7	-27.3	15.4	0.00e+00	0	43	0	3711959040	11	4346
2026-01-02 03:11:08.76	220.99	10.47	-25.8	-27.2	13.0	0.00e+00	0	43	0	3728736256	12	4208
2026-01-02 03:11:11.76	220.88	10.21	-25.7	-27.5	15.1	0.00e+00	0	43	0	3745513472	11	4401
2026-01-02 03:11:14.77	220.77	9.95	-25.9	-27.8	15.0	0.00e+00	0	43	0	3762290688	11	4500
2026-01-02 03:11:17.78	220.66	9.69	-26.0	-28.0	14.9	9.15e-04	0	43	0	3779067904	11	4557
2026-01-02 03:11:20.78	220.55	9.44	-26.2	-28.0	14.6	9.70e-04	0	43	0	3795845120	12	4427
2026-01-02 03:11:23.79	220.45	9.19	-26.0	-27.5	14.8	0.00e+00	0	43	0	3813670912	12	4303
2026-01-02 03:11:26.80	220.35	8.94	-26.1	-27.9	14.5	3.40e-06	0	44	0	3830448128	12	4428
2026-01-02 03:11:29.82	220.25	8.70	-26.2	-28.0	14.4	9.69e-04	0	44	0	3847225344	12	4442
2026-01-02 03:11:32.82	220.15	8.45	-26.1	-27.9	14.5	9.90e-04	0	43	0	3864002560	12	4415
2026-01-02 03:11:35.82	220.05	8.21	-26.1	-27.9	14.5	2.20e-06	0	43	0	3880779776	12	4417
2026-01-02 03:11:38.83	219.96	7.97	-26.1	-27.9	14.5	9.70e-04	0	43	0	3897556992	12	4403
2026-01-02 03:11:41.84	219.86	7.74	-26.2	-28.0	14.3	9.74e-04	0	44	0	3914334208	12	4455
2026-01-02 03:11:44.86	219.77	7.50	-26.3	-28.4	14.2	8.66e-04	0	43	0	3931111424	12	4551
2026-01-02 03:11:47.86	219.68	7.27	-26.3	-28.4	14.1	1.02e-03	0	43	0	3948937216	12	4570
2026-01-02 03:11:50.88	219.59	7.04	-32.3	-42.5	3.8	6.85e-01	0	43	104	3963617280	24	11722

#Closed at: 2026-01-02 03:11:53
#Recorded file [3963 MB]: D:/data/31010_260102_060005.dat