passes_logs/2026/01/02/R2M6_AANII_01/R2M6_AANII_01__20260102_021948_NOAA_20_JPSS-1_rec.log

#Pass ID: 20260102_021948_NOAA 20 (JPSS-1)
#Satellite: NOAA 20 (JPSS-1)
#Configuration: NOAA 20
#almurnet v.1.7.20240730
#Start time: 2026-01-02 02:26:48

#Version: 2.2.20231116
#Station: R2M6_AANII_01
#Location: 30.233357 lon 59.946436 lat
#TLE: 1 43013U 17073A   26001.30344297  .00000183  00000+0  10758-3 0  9995
#TLE: 2 43013  98.7621 302.3885 0001938  59.1624 300.9742 14.19532032420790

#Time	Az	El	Level	Level2	SNR	BER	BlckErr	Temp	State	Recorded	gain1	gain2
2026-01-02 02:26:48.03	284.83	18.08	-33.4	-52.9	3.8	7.48e-01	0	43	0	0	27	33925
2026-01-02 02:26:49.02	284.63	18.02	-33.6	-47.7	3.8	1.49e+00	0	43	104	0	27	18281
2026-01-02 02:26:50.01	284.43	17.96	-33.6	-47.7	3.8	1.49e+00	0	43	104	0	27	18360
2026-01-02 02:26:51.01	284.23	17.90	-33.6	-47.8	3.8	1.49e+00	0	43	104	0	27	18477
2026-01-02 02:26:52.01	284.03	17.83	-33.6	-47.8	3.8	1.49e+00	0	43	104	0	27	18473
2026-01-02 02:26:53.01	283.83	17.77	-33.6	-47.8	3.8	1.49e+00	0	43	104	0	27	18426
2026-01-02 02:26:54.00	283.64	17.71	-33.6	-47.8	3.8	1.49e+00	0	43	104	0	27	18391
2026-01-02 02:26:55.00	283.44	17.64	-33.6	-47.8	3.8	1.49e+00	0	43	104	0	27	18390
2026-01-02 02:26:56.00	283.25	17.58	-33.6	-47.8	3.8	1.49e+00	0	43	104	0	27	18415
2026-01-02 02:26:56.99	283.06	17.52	-33.6	-47.8	3.8	1.49e+00	0	43	104	0	27	18392
2026-01-02 02:26:57.99	282.86	17.45	-33.6	-47.8	3.8	1.49e+00	0	43	104	0	27	18370
2026-01-02 02:26:58.98	282.67	17.39	-33.6	-47.8	3.8	1.49e+00	0	43	104	0	27	18411
2026-01-02 02:26:59.98	282.48	17.32	-33.6	-47.7	3.8	1.49e+00	0	43	104	0	27	18376
2026-01-02 02:27:00.98	282.29	17.26	-33.6	-47.7	3.8	1.49e+00	0	43	104	0	27	18363
2026-01-02 02:27:01.98	282.10	17.19	-33.6	-47.8	3.8	1.49e+00	0	43	104	0	27	18403
2026-01-02 02:27:02.98	281.91	17.13	-33.6	-47.8	3.8	1.49e+00	0	43	104	0	27	18462
2026-01-02 02:27:03.98	281.72	17.06	-33.7	-47.9	3.8	1.49e+00	0	43	104	0	27	18552
2026-01-02 02:27:04.99	281.53	17.00	-33.6	-47.9	3.8	1.49e+00	0	43	104	0	27	18518
2026-01-02 02:27:05.99	281.34	16.93	-33.6	-47.8	3.8	1.49e+00	0	43	104	0	27	18392
2026-01-02 02:27:06.99	281.16	16.87	-33.6	-47.8	3.8	1.49e+00	0	43	104	0	27	18410
2026-01-02 02:27:08.00	280.97	16.80	-33.6	-47.7	3.8	1.49e+00	0	43	104	0	27	18356
2026-01-02 02:27:09.00	280.79	16.73	-33.5	-47.6	3.8	1.49e+00	0	43	104	0	27	18259
2026-01-02 02:27:10.00	280.60	16.67	-33.5	-47.6	3.8	1.49e+00	0	43	104	0	27	18213
2026-01-02 02:27:11.00	280.42	16.60	-33.5	-47.5	3.8	1.49e+00	0	43	104	0	27	18153
2026-01-02 02:27:11.99	280.24	16.54	-33.5	-48.0	3.8	1.49e+00	0	43	104	0	26	19201
2026-01-02 02:27:12.99	280.06	16.47	-33.4	-47.9	3.8	1.49e+00	0	43	104	0	26	19108
2026-01-02 02:27:13.99	279.88	16.40	-33.4	-47.8	3.8	1.49e+00	0	43	104	0	26	18963
2026-01-02 02:27:14.99	279.70	16.34	-33.3	-47.6	3.8	1.49e+00	0	43	104	0	26	18707
2026-01-02 02:27:15.98	279.52	16.27	-33.2	-47.5	3.8	1.49e+00	0	43	104	0	26	18674
2026-01-02 02:27:16.97	279.35	16.20	-33.1	-46.9	3.8	1.49e+00	0	43	104	0	26	17704
2026-01-02 02:27:17.97	279.17	16.14	-32.9	-46.6	3.8	1.49e+00	0	43	104	0	26	17272
2026-01-02 02:27:18.96	279.00	16.07	-32.8	-46.6	3.8	1.49e+00	0	43	104	0	25	17638
2026-01-02 02:27:19.97	278.82	16.00	-32.8	-46.8	3.8	1.49e+00	0	43	104	0	25	18018
2026-01-02 02:27:20.97	278.64	15.94	-32.8	-46.9	3.8	1.49e+00	0	43	104	0	25	18235
2026-01-02 02:27:21.97	278.47	15.87	-32.8	-47.0	3.8	1.49e+00	0	43	104	0	25	18471
2026-01-02 02:27:22.96	278.30	15.80	-32.8	-47.1	3.8	1.49e+00	0	43	104	0	25	18669
2026-01-02 02:27:23.96	278.13	15.74	-32.8	-47.1	3.8	1.49e+00	0	43	104	0	25	18738
2026-01-02 02:27:24.95	277.96	15.67	-32.8	-47.1	3.8	1.49e+00	0	43	104	0	25	18647
2026-01-02 02:27:25.94	277.79	15.60	-32.8	-47.1	3.8	1.49e+00	0	43	104	0	25	18604
2026-01-02 02:27:26.94	277.62	15.53	-32.8	-46.9	3.8	1.49e+00	0	43	104	0	25	18270
2026-01-02 02:27:27.94	277.45	15.47	-32.7	-46.5	3.8	1.49e+00	0	43	104	0	25	17580
2026-01-02 02:27:28.93	277.28	15.40	-32.7	-46.1	3.8	1.49e+00	0	43	104	0	25	16862
2026-01-02 02:27:29.92	277.11	15.33	-32.7	-45.7	3.8	1.49e+00	0	43	104	0	25	15992
2026-01-02 02:27:30.93	276.95	15.26	-32.7	-44.9	3.8	1.49e+00	0	43	104	0	25	14780
2026-01-02 02:27:31.93	276.78	15.20	-32.6	-43.7	3.9	1.48e+00	0	43	104	0	25	12908
2026-01-02 02:27:32.92	276.62	15.13	-32.5	-42.9	4.0	1.47e+00	0	43	104	0	25	11980
2026-01-02 02:27:33.93	276.45	15.06	-32.4	-42.3	4.0	1.13e+00	0	43	104	0	25	11190
2026-01-02 02:27:34.92	276.29	14.99	-32.3	-41.8	4.9	1.43e+00	0	43	104	0	24	10735
2026-01-02 02:27:35.91	276.13	14.92	-32.3	-41.4	5.1	7.42e-01	0	43	0	0	24	10339
2026-01-02 02:27:36.92	275.96	14.86	-32.2	-41.1	5.3	6.08e-01	0	43	0	2097152	24	9980
2026-01-02 02:27:37.92	275.80	14.79	-32.2	-40.5	5.6	5.17e-01	0	43	0	4194304	24	9372
2026-01-02 02:27:38.92	275.64	14.72	-31.9	-39.0	6.5	3.20e-01	0	43	0	5242880	24	8143
2026-01-02 02:27:39.92	275.48	14.65	-31.6	-37.8	7.8	1.47e-01	0	43	0	7340032	23	7359
2026-01-02 02:27:40.90	275.32	14.58	-31.2	-36.3	9.0	3.68e-02	0	43	0	9437184	23	6447
2026-01-02 02:27:41.91	275.16	14.52	-30.8	-35.3	10.2	1.21e-02	0	43	0	11534336	22	6004
2026-01-02 02:27:42.91	275.00	14.45	-30.8	-35.6	10.3	6.01e-03	0	43	0	12582912	21	6303
2026-01-02 02:27:43.91	274.85	14.38	-30.9	-36.1	9.9	6.86e-03	0	43	0	14680064	21	6528
2026-01-02 02:27:44.91	274.69	14.31	-30.7	-35.3	10.5	5.60e-03	0	43	0	16777216	21	6129
2026-01-02 02:27:45.90	274.54	14.24	-30.5	-34.6	11.0	2.81e-03	0	43	0	18874368	21	5769
2026-01-02 02:27:46.89	274.38	14.17	-30.3	-34.5	11.5	4.51e-03	0	43	0	20971520	20	5818
2026-01-02 02:27:47.89	274.23	14.11	-30.4	-34.9	11.2	1.04e-03	0	43	0	22020096	20	6054
2026-01-02 02:27:48.88	274.08	14.04	-30.7	-35.3	10.5	3.02e-03	0	43	0	24117248	21	6108
2026-01-02 02:27:49.89	273.92	13.97	-30.5	-34.8	10.9	5.20e-03	0	43	0	26214400	21	5846
2026-01-02 02:27:50.89	273.77	13.90	-30.3	-34.0	11.5	1.04e-03	0	43	0	28311552	21	5515
2026-01-02 02:27:51.89	273.62	13.83	-30.0	-33.5	12.2	3.44e-04	0	43	0	30408704	20	5391
2026-01-02 02:27:52.89	273.47	13.76	-29.7	-33.2	12.8	8.62e-05	0	43	0	31457280	19	5388
2026-01-02 02:27:53.89	273.32	13.70	-29.5	-32.7	13.1	2.90e-03	0	43	0	33554432	19	5168
2026-01-02 02:27:54.89	273.17	13.63	-29.2	-31.9	13.7	1.22e-05	0	43	0	35651584	19	4886
2026-01-02 02:27:55.89	273.02	13.56	-29.1	-32.1	13.8	3.80e-06	0	43	0	37748736	18	5061
2026-01-02 02:27:56.88	272.87	13.49	-29.2	-32.4	13.7	4.50e-06	0	43	0	38797312	18	5160
2026-01-02 02:27:57.88	272.73	13.42	-29.1	-32.1	13.8	6.80e-06	0	43	0	40894464	18	5081
2026-01-02 02:27:58.87	272.58	13.35	-29.1	-32.0	13.9	4.50e-06	0	43	0	42991616	18	5024
2026-01-02 02:27:59.87	272.43	13.29	-29.1	-32.1	13.8	3.00e-06	0	43	0	45088768	18	5073
2026-01-02 02:28:00.87	272.29	13.22	-29.2	-32.2	13.7	9.00e-05	0	43	0	47185920	18	5113
2026-01-02 02:28:01.86	272.15	13.15	-29.1	-32.0	13.8	1.14e-05	0	43	0	48234496	18	5049
2026-01-02 02:28:02.85	272.00	13.08	-29.1	-32.0	13.9	2.20e-06	0	43	0	50331648	18	5040
2026-01-02 02:28:03.85	271.86	13.01	-29.1	-32.0	13.9	4.50e-06	0	43	0	52428800	18	5040
2026-01-02 02:28:04.84	271.72	12.95	-29.2	-32.3	13.7	7.60e-06	0	43	0	54525952	18	5142
2026-01-02 02:28:05.83	271.58	12.88	-29.1	-32.1	13.8	5.30e-06	0	43	0	55574528	18	5061
2026-01-02 02:28:06.82	271.44	12.81	-29.2	-32.2	13.8	5.30e-06	0	43	0	57671680	18	5097
2026-01-02 02:28:07.81	271.30	12.74	-29.1	-32.1	13.8	3.39e-04	0	43	0	59768832	18	5059
2026-01-02 02:28:08.81	271.16	12.67	-29.3	-32.5	13.5	9.10e-06	0	43	0	61865984	18	5234
2026-01-02 02:28:09.82	271.02	12.60	-29.2	-32.3	13.7	9.10e-06	0	43	0	63963136	18	5145
2026-01-02 02:28:10.82	270.88	12.54	-29.2	-32.3	13.6	9.10e-06	0	43	0	65011712	18	5168
2026-01-02 02:28:11.82	270.74	12.47	-29.3	-32.7	13.4	2.37e-03	0	43	0	67108864	18	5284
2026-01-02 02:28:12.82	270.61	12.40	-29.3	-32.5	13.5	9.90e-06	0	43	0	69206016	18	5240
2026-01-02 02:28:13.83	270.47	12.33	-29.1	-32.2	13.7	6.80e-06	0	43	0	71303168	18	5098
2026-01-02 02:28:14.83	270.33	12.26	-29.1	-32.0	13.8	4.50e-06	0	43	0	73400320	18	5049
2026-01-02 02:28:15.83	270.20	12.19	-29.2	-32.3	13.7	7.60e-06	0	43	0	74448896	18	5131
2026-01-02 02:28:16.84	270.06	12.13	-29.3	-32.6	13.4	7.60e-06	0	43	0	76546048	18	5269
2026-01-02 02:28:17.84	269.93	12.06	-29.3	-32.6	13.4	1.29e-05	0	43	0	78643200	18	5287
2026-01-02 02:28:18.83	269.79	11.99	-29.4	-33.0	13.2	1.44e-05	0	43	0	80740352	18	5430
2026-01-02 02:28:19.84	269.66	11.92	-29.4	-32.9	13.2	2.51e-05	0	43	0	82837504	18	5369
2026-01-02 02:28:20.84	269.53	11.85	-29.5	-32.8	12.9	2.67e-05	0	43	0	83886080	19	5240
2026-01-02 02:28:21.84	269.40	11.79	-29.8	-33.6	12.4	5.95e-05	0	43	0	85983232	19	5565
2026-01-02 02:28:22.85	269.26	11.72	-29.7	-33.2	12.6	1.11e-04	0	43	0	88080384	19	5403
2026-01-02 02:28:23.85	269.13	11.65	-29.7	-33.4	12.4	1.02e-04	0	43	0	90177536	19	5497
2026-01-02 02:28:24.86	269.00	11.58	-29.6	-33.1	12.7	9.76e-05	0	43	0	91226112	19	5356
2026-01-02 02:28:25.86	268.87	11.51	-29.4	-32.5	13.0	4.42e-05	0	43	0	93323264	19	5152
2026-01-02 02:28:26.86	268.74	11.45	-29.2	-32.4	13.4	2.21e-05	0	44	0	95420416	18	5214
2026-01-02 02:28:27.86	268.62	11.38	-29.2	-32.4	13.4	1.37e-05	0	43	0	97517568	18	5198
2026-01-02 02:28:28.86	268.49	11.31	-29.3	-32.8	13.2	6.10e-06	0	43	0	99614720	18	5350
2026-01-02 02:28:29.86	268.36	11.24	-29.2	-32.5	13.4	2.05e-05	0	43	0	100663296	18	5245
2026-01-02 02:28:30.87	268.24	11.17	-29.1	-32.2	13.5	7.60e-06	0	43	0	102760448	18	5138
2026-01-02 02:28:31.87	268.11	11.11	-29.1	-32.2	13.6	6.10e-06	0	43	0	104857600	18	5113
2026-01-02 02:28:32.87	267.98	11.04	-29.2	-32.4	13.4	8.30e-06	0	43	0	106954752	18	5209
2026-01-02 02:28:33.87	267.86	10.97	-29.2	-32.3	13.5	8.30e-06	0	43	0	109051904	18	5166
2026-01-02 02:28:34.88	267.74	10.90	-29.2	-32.5	13.3	1.75e-05	0	43	0	110100480	18	5254
2026-01-02 02:28:35.88	267.61	10.84	-29.2	-32.5	12.6	1.06e-05	0	43	0	112197632	18	5261
2026-01-02 02:28:36.89	267.49	10.77	-29.4	-32.9	11.1	2.28e-05	0	43	0	114294784	18	5416
2026-01-02 02:28:37.89	267.37	10.70	-29.3	-32.8	11.2	2.51e-05	0	43	0	116391936	18	5376
2026-01-02 02:28:38.89	267.24	10.63	-29.3	-32.6	12.6	2.36e-05	0	43	0	118489088	18	5274
2026-01-02 02:28:39.89	267.12	10.57	-29.3	-32.6	12.0	3.05e-05	0	43	0	119537664	18	5297
2026-01-02 02:28:40.89	267.00	10.50	-29.3	-32.8	12.4	3.66e-05	0	43	0	121634816	18	5370
2026-01-02 02:28:41.89	266.88	10.43	-29.4	-33.0	12.9	4.04e-05	0	43	0	123731968	18	5439
2026-01-02 02:28:42.89	266.76	10.37	-29.3	-32.8	12.8	3.89e-05	0	43	0	125829120	18	5363
2026-01-02 02:28:43.89	266.65	10.30	-29.3	-32.8	12.9	4.95e-05	0	43	0	127926272	18	5400
2026-01-02 02:28:44.90	266.53	10.23	-29.4	-33.0	12.9	4.57e-05	0	43	0	128974848	18	5456
2026-01-02 02:28:45.90	266.41	10.17	-29.4	-33.1	12.8	4.92e-03	0	43	0	131072000	18	5508
2026-01-02 02:28:46.90	266.29	10.10	-29.5	-33.3	12.7	1.01e-04	0	43	0	133169152	18	5584
2026-01-02 02:28:47.91	266.17	10.03	-29.6	-33.0	12.6	9.00e-05	0	43	0	135266304	19	5348
2026-01-02 02:28:48.92	266.06	9.96	-29.5	-32.8	12.7	9.84e-05	0	43	0	136314880	19	5278
2026-01-02 02:28:49.92	265.94	9.90	-29.6	-33.0	12.5	3.04e-03	0	43	0	138412032	19	5358
2026-01-02 02:28:50.93	265.83	9.83	-29.7	-33.3	12.3	1.55e-04	0	43	0	140509184	19	5465
2026-01-02 02:28:51.93	265.71	9.76	-29.6	-33.0	12.5	2.13e-04	0	43	0	142606336	19	5353
2026-01-02 02:28:52.93	265.60	9.70	-29.6	-33.1	12.5	2.38e-03	0	43	0	144703488	19	5386
2026-01-02 02:28:53.94	265.48	9.63	-29.7	-33.3	12.3	1.29e-04	0	43	0	146800640	19	5486
2026-01-02 02:28:54.94	265.37	9.57	-29.6	-33.0	12.5	1.57e-04	0	43	0	147849216	19	5347
2026-01-02 02:28:55.94	265.26	9.50	-29.6	-33.1	12.5	1.46e-03	0	43	0	149946368	19	5386
2026-01-02 02:28:56.94	265.15	9.43	-29.5	-33.0	12.5	1.14e-04	0	43	0	152043520	19	5341
2026-01-02 02:28:57.94	265.04	9.37	-29.6	-33.2	12.3	1.07e-04	0	43	0	154140672	19	5453
2026-01-02 02:28:58.94	264.92	9.30	-29.6	-33.0	12.4	1.58e-04	0	43	0	155189248	19	5383
2026-01-02 02:28:59.95	264.81	9.24	-29.7	-33.5	12.1	9.13e-04	0	43	0	157286400	19	5560
2026-01-02 02:29:00.95	264.70	9.17	-29.7	-33.5	12.1	3.54e-04	0	43	0	159383552	19	5558
2026-01-02 02:29:01.95	264.59	9.10	-29.7	-33.6	12.0	2.84e-04	0	43	0	161480704	19	5599
2026-01-02 02:29:02.96	264.48	9.04	-29.9	-34.1	11.7	2.48e-03	0	43	0	163577856	19	5828
2026-01-02 02:29:03.96	264.38	8.97	-29.9	-34.0	11.6	5.28e-03	0	43	0	164626432	19	5824
2026-01-02 02:29:04.96	264.27	8.91	-29.9	-34.2	11.5	6.35e-04	0	43	0	166723584	19	5902
2026-01-02 02:29:05.96	264.16	8.84	-30.0	-33.9	11.3	9.72e-04	0	43	0	168820736	20	5685
2026-01-02 02:29:06.96	264.06	8.78	-30.1	-34.4	10.9	7.71e-03	0	43	0	170917888	20	5899
2026-01-02 02:29:07.96	263.95	8.71	-30.0	-34.0	11.2	7.12e-03	0	43	0	173015040	20	5714
2026-01-02 02:29:08.95	263.84	8.65	-29.9	-34.3	11.4	1.15e-03	0	43	0	174063616	19	5958
2026-01-02 02:29:09.96	263.74	8.58	-30.0	-33.9	11.2	5.95e-03	0	43	0	176160768	20	5690
2026-01-02 02:29:10.97	263.63	8.52	-30.1	-34.4	10.9	6.17e-03	0	43	0	178257920	20	5887
2026-01-02 02:29:11.96	263.53	8.45	-30.0	-34.1	11.1	1.85e-03	0	43	0	180355072	20	5770
2026-01-02 02:29:12.96	263.43	8.39	-29.9	-34.2	11.5	1.27e-03	0	43	0	181403648	19	5880
2026-01-02 02:29:13.96	263.32	8.32	-29.9	-33.9	11.2	4.53e-03	0	43	0	183500800	20	5660
2026-01-02 02:29:14.96	263.22	8.26	-30.0	-34.4	11.4	2.45e-03	0	43	0	185597952	19	5987
2026-01-02 02:29:15.97	263.12	8.19	-29.9	-34.2	11.5	7.99e-04	0	43	0	187695104	19	5896
2026-01-02 02:29:16.97	263.01	8.13	-30.0	-34.0	11.1	1.84e-03	0	43	0	189792256	20	5724
2026-01-02 02:29:17.97	262.91	8.06	-30.1	-34.5	10.8	2.34e-03	0	43	0	190840832	20	5943
2026-01-02 02:29:18.97	262.81	8.00	-30.0	-34.3	10.9	2.33e-03	0	43	0	192937984	20	5847
2026-01-02 02:29:19.98	262.71	7.93	-30.2	-34.7	10.6	1.98e-03	0	43	0	195035136	20	6053
2026-01-02 02:29:20.98	262.61	7.87	-30.1	-34.4	10.8	3.22e-03	0	43	0	197132288	20	5918
2026-01-02 02:29:21.99	262.51	7.81	-30.0	-34.2	11.0	4.74e-03	0	43	0	199229440	20	5818
2026-01-02 02:29:22.99	262.41	7.74	-30.0	-34.1	11.1	1.57e-03	0	43	0	200278016	20	5756
2026-01-02 02:29:24.00	262.31	7.68	-30.1	-34.4	10.8	2.29e-03	0	43	0	202375168	20	5933
2026-01-02 02:29:24.99	262.21	7.61	-30.1	-34.5	10.8	6.51e-03	0	43	0	204472320	20	5975
2026-01-02 02:29:26.00	262.11	7.55	-30.2	-34.7	10.5	7.25e-03	0	43	0	206569472	20	6092
2026-01-02 02:29:26.99	262.02	7.49	-30.1	-34.7	10.6	4.87e-03	0	43	0	208666624	20	6053
2026-01-02 02:29:28.00	261.92	7.42	-30.2	-34.9	10.4	7.54e-03	0	43	0	209715200	20	6198
2026-01-02 02:29:29.00	261.82	7.36	-30.2	-34.8	10.5	7.23e-03	0	43	0	211812352	20	6121
2026-01-02 02:29:30.00	261.73	7.29	-30.2	-34.8	10.5	3.83e-03	0	43	0	213909504	20	6104
2026-01-02 02:29:31.01	261.63	7.23	-30.1	-34.5	10.7	6.39e-03	0	43	0	216006656	20	5993
2026-01-02 02:29:32.01	261.53	7.17	-30.2	-34.8	10.4	5.30e-03	0	43	0	218103808	20	6148
2026-01-02 02:29:33.01	261.44	7.10	-30.2	-34.7	10.5	4.31e-03	0	43	0	219152384	20	6076
2026-01-02 02:29:34.02	261.34	7.04	-32.4	-46.6	3.8	1.49e+00	0	43	104	220200960	24	18498
2026-01-02 02:29:35.02	261.25	6.98	-32.7	-47.0	3.8	1.49e+00	0	43	104	220200960	25	18684
2026-01-02 02:29:36.03	261.16	6.91	-33.0	-47.5	3.8	1.49e+00	0	43	104	220200960	25	19259
2026-01-02 02:29:37.03	261.06	6.85	-33.2	-47.4	3.8	1.49e+00	0	43	104	220200960	26	18608

#Closed at: 2026-01-02 02:29:37
#Recorded file [220 MB]: D:/data/31010_260102_052735.dat