passes_logs/2026/01/02/R2M6_AANII_01/R2M6_AANII_01__20260102_012916_NOAA_21_JPSS-2_rec.log

#Pass ID: 20260102_012916_NOAA 21 (JPSS-2)
#Satellite: NOAA 21 (JPSS-2)
#Configuration: NOAA 21
#almurnet v.1.7.20240730
#Start time: 2026-01-02 01:31:17

#Version: 2.2.20231116
#Station: R2M6_AANII_01
#Location: 30.233357 lon 59.946436 lat
#TLE: 1 54234U 22150A   26001.26806856  .00000185  00000+0  10843-3 0  9990
#TLE: 2 54234  98.7484 302.3349 0001277 353.3887   6.7272 14.19530660162860

#Time	Az	El	Level	Level2	SNR	BER	BlckErr	Temp	State	Recorded	gain1	gain2
2026-01-02 01:31:17.29	3.38	17.23	-32.3	-43.7	3.8	8.46e-01	0	43	0	0	24	13399
2026-01-02 01:31:20.28	3.03	17.53	-33.7	-45.7	3.8	1.49e+00	0	43	104	0	27	14337
2026-01-02 01:31:23.26	2.68	17.83	-33.7	-45.8	3.8	1.49e+00	0	43	104	0	27	14450
2026-01-02 01:31:26.25	2.32	18.14	-33.7	-45.8	3.8	1.49e+00	0	43	104	0	27	14476
2026-01-02 01:31:29.24	1.95	18.45	-33.7	-45.7	3.8	1.49e+00	0	43	104	0	27	14408
2026-01-02 01:31:32.22	1.57	18.76	-33.7	-45.7	3.8	1.49e+00	0	43	104	0	27	14395
2026-01-02 01:31:35.21	1.19	19.08	-33.7	-45.7	3.8	1.49e+00	0	43	104	0	27	14319
2026-01-02 01:31:38.20	0.79	19.39	-33.7	-45.8	3.8	1.49e+00	0	43	104	0	27	14415
2026-01-02 01:31:41.18	0.40	19.71	-33.7	-45.8	3.8	1.49e+00	0	43	104	0	27	14421
2026-01-02 01:31:44.17	359.99	20.04	-33.6	-45.6	3.8	1.49e+00	0	43	104	0	27	14233
2026-01-02 01:31:47.16	359.57	20.36	-33.6	-45.5	3.8	1.49e+00	0	43	104	0	27	14199
2026-01-02 01:31:50.15	359.14	20.69	-33.3	-44.6	3.8	1.49e+00	0	43	104	0	26	13324
2026-01-02 01:31:53.15	358.70	21.02	-33.2	-45.3	3.8	1.49e+00	0	43	104	0	26	14509
2026-01-02 01:31:56.14	358.25	21.35	-33.2	-44.9	3.8	1.49e+00	0	43	104	0	26	13806
2026-01-02 01:31:59.13	357.79	21.69	-33.1	-44.3	3.8	1.49e+00	0	44	104	0	26	13033
2026-01-02 01:32:02.12	357.33	22.03	-33.0	-43.3	3.8	1.49e+00	0	43	104	0	26	11804
2026-01-02 01:32:05.12	356.85	22.37	-33.2	-45.2	3.8	1.49e+00	0	43	104	0	26	14377
2026-01-02 01:32:08.12	356.36	22.71	-31.8	-37.0	6.6	3.60e-01	0	43	104	0	24	6523
2026-01-02 01:32:11.12	355.85	23.06	-29.6	-32.5	11.5	8.86e-04	0	43	0	8388608	19	5002
2026-01-02 01:32:14.11	355.34	23.40	-29.6	-32.5	11.6	8.32e-04	0	43	0	17825792	19	5002
2026-01-02 01:32:17.09	354.82	23.75	-29.8	-32.9	11.3	1.64e-03	0	43	0	27262976	19	5144
2026-01-02 01:32:20.07	354.29	24.10	-29.9	-32.8	11.0	2.77e-03	0	43	0	36700160	20	5018
2026-01-02 01:32:23.06	353.74	24.46	-28.4	-29.8	13.5	1.88e-04	0	43	0	46137344	18	4246
2026-01-02 01:32:26.06	353.18	24.81	-26.9	-27.8	15.4	0.00e+00	0	43	0	55574528	15	4003
2026-01-02 01:32:29.04	352.61	25.17	-26.9	-28.9	15.4	7.00e-07	0	43	0	63963136	13	4519
2026-01-02 01:32:32.02	352.02	25.53	-27.2	-29.0	15.1	0.00e+00	0	43	0	73400320	14	4437
2026-01-02 01:32:35.01	351.42	25.89	-27.5	-29.4	14.6	7.00e-07	0	43	0	82837504	15	4440
2026-01-02 01:32:38.00	350.81	26.25	-26.4	-27.2	16.1	0.00e+00	0	43	0	92274688	14	3947
2026-01-02 01:32:41.00	350.17	26.61	-26.4	-28.3	15.9	0.00e+00	0	44	0	101711872	12	4473
2026-01-02 01:32:44.00	349.53	26.97	-26.5	-28.0	15.9	0.00e+00	0	43	0	111149056	13	4286
2026-01-02 01:32:47.00	348.87	27.34	-26.5	-27.9	15.9	0.00e+00	0	43	0	120586240	13	4251
2026-01-02 01:32:50.01	348.19	27.71	-26.8	-28.7	15.5	8.68e-04	0	43	0	130023424	13	4468
2026-01-02 01:32:52.99	347.50	28.07	-27.2	-29.0	15.2	0.00e+00	0	43	0	139460608	14	4452
2026-01-02 01:32:55.98	346.79	28.44	-26.9	-28.5	15.4	6.30e-04	0	43	0	148897792	14	4294
2026-01-02 01:32:58.98	346.07	28.80	-27.0	-28.5	15.4	1.66e-03	0	44	0	158334976	14	4297
2026-01-02 01:33:01.97	345.33	29.17	-27.1	-28.8	15.2	0.00e+00	0	43	0	167772160	14	4397
2026-01-02 01:33:04.96	344.57	29.53	-26.8	-28.7	15.5	8.44e-04	0	43	0	176160768	13	4478
2026-01-02 01:33:07.95	343.80	29.89	-27.0	-28.6	15.3	0.00e+00	0	43	0	185597952	14	4338
2026-01-02 01:33:10.92	343.01	30.25	-26.9	-28.8	15.5	1.25e-03	0	43	0	195035136	13	4498
2026-01-02 01:33:13.92	342.20	30.61	-26.8	-28.6	15.6	1.10e-03	0	43	0	204472320	13	4451
2026-01-02 01:33:16.90	341.37	30.96	-27.1	-28.8	15.2	8.12e-04	0	43	0	213909504	14	4392
2026-01-02 01:33:19.89	340.53	31.32	-27.2	-29.0	15.1	6.71e-04	0	43	0	223346688	14	4445
2026-01-02 01:33:22.87	339.67	31.67	-27.2	-29.2	15.0	7.00e-07	0	43	0	232783872	14	4496
2026-01-02 01:33:25.86	338.78	32.02	-26.9	-28.5	15.4	2.20e-04	0	43	0	242221056	14	4289
2026-01-02 01:33:28.86	337.87	32.36	-26.8	-28.6	15.6	9.68e-05	0	43	0	251658240	13	4444
2026-01-02 01:33:31.85	336.95	32.70	-26.9	-28.4	15.5	3.36e-04	0	43	0	261095424	14	4275
2026-01-02 01:33:34.84	336.01	33.04	-26.9	-28.9	15.5	6.45e-04	0	43	0	270532608	13	4510
2026-01-02 01:33:37.83	335.04	33.37	-27.2	-29.1	15.1	5.61e-04	0	43	0	278921216	14	4466
2026-01-02 01:33:40.83	334.06	33.69	-27.2	-29.0	15.2	2.74e-04	0	44	0	288358400	14	4422
2026-01-02 01:33:43.83	333.05	34.01	-27.5	-29.7	14.8	6.13e-04	0	44	0	297795584	14	4645
2026-01-02 01:33:46.82	332.03	34.32	-27.7	-29.6	14.5	1.10e-04	0	43	0	307232768	15	4509
2026-01-02 01:33:49.81	330.99	34.62	-27.3	-29.3	15.0	0.00e+00	0	43	0	316669952	14	4521
2026-01-02 01:33:52.79	329.93	34.91	-28.9	-31.0	13.0	9.53e-04	0	43	0	326107136	18	4586
2026-01-02 01:33:55.78	328.85	35.20	-28.2	-30.3	14.0	1.12e-03	0	44	0	335544320	16	4578
2026-01-02 01:33:58.76	327.76	35.48	-28.4	-30.9	13.7	3.80e-06	0	43	0	344981504	16	4773
2026-01-02 01:34:01.75	326.64	35.74	-27.1	-28.8	15.3	5.26e-04	0	43	0	354418688	14	4379
2026-01-02 01:34:04.73	325.51	36.00	-27.5	-29.3	14.7	0.00e+00	0	43	0	363855872	15	4414
2026-01-02 01:34:07.73	324.35	36.24	-27.7	-29.8	14.4	1.57e-03	0	44	0	372244480	15	4550
2026-01-02 01:34:10.71	323.18	36.47	-28.3	-30.5	13.9	8.07e-04	0	43	0	381681664	16	4640
2026-01-02 01:34:13.68	322.00	36.69	-28.3	-30.6	13.8	5.30e-06	0	43	0	391118848	16	4701
2026-01-02 01:34:16.67	320.80	36.90	-27.9	-30.2	14.2	6.54e-04	0	43	0	400556032	15	4675
2026-01-02 01:34:19.66	319.58	37.10	-28.1	-30.0	14.2	7.00e-07	0	43	0	409993216	16	4496
2026-01-02 01:34:22.65	318.35	37.28	-28.1	-30.0	14.1	4.68e-04	0	43	0	419430400	16	4505
2026-01-02 01:34:25.65	317.10	37.44	-28.0	-29.9	14.2	2.20e-06	0	44	0	428867584	16	4480
2026-01-02 01:34:28.63	315.84	37.60	-28.1	-30.2	14.0	7.00e-07	0	44	0	438304768	16	4549
2026-01-02 01:34:31.62	314.57	37.73	-28.4	-30.4	13.7	6.80e-06	0	44	0	447741952	17	4511
2026-01-02 01:34:34.61	313.30	37.85	-28.2	-30.3	14.0	3.80e-06	0	43	0	457179136	16	4586
2026-01-02 01:34:37.61	312.00	37.96	-28.2	-30.3	14.0	3.89e-04	0	43	0	466616320	16	4583
2026-01-02 01:34:40.59	310.71	38.05	-28.5	-30.9	13.7	4.50e-06	0	43	0	476053504	16	4785
2026-01-02 01:34:43.58	309.41	38.12	-28.4	-30.9	13.1	2.21e-05	0	43	0	484442112	17	4828
2026-01-02 01:34:46.56	308.10	38.17	-29.0	-31.2	12.3	5.03e-05	0	43	0	493879296	18	4682
2026-01-02 01:34:49.56	306.79	38.21	-27.5	-29.8	13.1	2.82e-05	0	43	0	503316480	17	4670
2026-01-02 01:34:52.54	305.48	38.23	-27.8	-28.9	14.6	1.50e-06	0	43	0	512753664	17	4069
2026-01-02 01:34:55.55	304.15	38.24	-27.7	-29.7	14.1	1.50e-06	0	43	0	522190848	15	4535
2026-01-02 01:34:58.53	302.84	38.22	-28.4	-30.3	13.8	1.29e-05	0	43	0	531628032	17	4467
2026-01-02 01:35:01.50	301.54	38.19	-28.1	-30.0	14.2	3.80e-06	0	43	0	541065216	16	4479
2026-01-02 01:35:04.49	300.23	38.14	-28.2	-30.3	14.0	5.30e-06	0	43	0	550502400	16	4582
2026-01-02 01:35:07.47	298.92	38.08	-28.3	-30.5	13.9	3.80e-06	0	43	0	559939584	16	4639
2026-01-02 01:35:10.47	297.62	38.00	-27.8	-29.9	14.4	1.50e-06	0	44	0	569376768	15	4586
2026-01-02 01:35:13.46	296.33	37.90	-28.3	-30.5	13.9	2.20e-06	0	44	0	577765376	16	4666
2026-01-02 01:35:16.44	295.04	37.79	-28.1	-30.1	14.1	3.00e-06	0	43	0	587202560	16	4541
2026-01-02 01:35:19.44	293.77	37.66	-27.7	-29.7	14.4	7.00e-07	0	43	0	596639744	15	4527
2026-01-02 01:35:22.43	292.50	37.51	-27.8	-29.8	14.4	0.00e+00	0	44	0	606076928	15	4561
2026-01-02 01:35:25.42	291.25	37.35	-27.8	-30.0	14.3	7.00e-07	0	43	0	615514112	15	4633
2026-01-02 01:35:28.40	290.01	37.17	-27.8	-29.9	14.3	7.00e-07	0	43	0	624951296	15	4602
2026-01-02 01:35:31.38	288.79	36.99	-27.8	-29.8	14.4	0.00e+00	0	43	0	634388480	15	4573
2026-01-02 01:35:34.38	287.57	36.78	-27.7	-29.8	14.4	7.00e-07	0	43	0	643825664	15	4552
2026-01-02 01:35:37.37	286.38	36.57	-27.7	-29.6	14.5	1.50e-06	0	43	0	653262848	15	4498
2026-01-02 01:35:40.36	285.20	36.34	-27.9	-30.2	14.1	7.00e-07	0	43	0	662700032	15	4700
2026-01-02 01:35:43.35	284.03	36.10	-28.3	-30.6	13.8	5.30e-06	0	43	0	672137216	16	4687
2026-01-02 01:35:46.35	282.88	35.84	-27.8	-29.4	14.4	2.20e-06	0	43	0	680525824	16	4345
2026-01-02 01:35:49.34	281.76	35.58	-27.7	-29.7	14.3	0.00e+00	0	43	0	689963008	15	4526
2026-01-02 01:35:52.34	280.64	35.31	-27.0	-28.2	15.2	7.00e-07	0	43	0	699400192	15	4095
2026-01-02 01:35:55.31	279.56	35.03	-27.6	-29.6	14.5	0.00e+00	0	43	0	708837376	15	4501
2026-01-02 01:35:58.30	278.49	34.74	-28.2	-30.4	13.8	7.00e-07	0	43	0	718274560	16	4635
2026-01-02 01:36:01.29	277.44	34.44	-27.4	-28.4	15.0	0.00e+00	0	44	0	727711744	16	4049
2026-01-02 01:36:04.28	276.40	34.13	-27.8	-29.9	14.2	7.00e-07	0	43	0	737148928	15	4607
2026-01-02 01:36:07.27	275.39	33.81	-28.1	-30.1	14.0	5.30e-06	0	44	0	746586112	16	4536
2026-01-02 01:36:10.27	274.39	33.49	-27.8	-29.9	14.2	2.20e-06	0	43	0	756023296	15	4589
2026-01-02 01:36:13.26	273.42	33.16	-27.8	-30.0	14.1	7.00e-07	0	44	0	765460480	15	4633
2026-01-02 01:36:16.25	272.47	32.83	-27.2	-29.1	14.3	0.00e+00	0	43	0	774897664	14	4477
2026-01-02 01:36:19.26	271.53	32.49	-27.4	-29.5	14.3	7.00e-07	0	44	0	784334848	14	4603
2026-01-02 01:36:22.24	270.62	32.14	-28.2	-30.5	13.7	4.50e-06	0	43	0	792723456	16	4660
2026-01-02 01:36:25.24	269.72	31.80	-25.8	-27.2	15.4	0.00e+00	0	43	0	802160640	14	4196
2026-01-02 01:36:28.23	268.84	31.44	-26.3	-28.0	14.8	1.90e-03	0	43	0	811597824	12	4394
2026-01-02 01:36:31.22	267.98	31.09	-27.1	-28.8	15.1	0.00e+00	0	43	0	821035008	14	4392
2026-01-02 01:36:34.22	267.14	30.73	-27.3	-29.2	14.8	7.00e-07	0	43	0	830472192	14	4519
2026-01-02 01:36:37.21	266.32	30.37	-27.3	-29.3	14.8	0.00e+00	0	43	0	839909376	14	4536
2026-01-02 01:36:40.22	265.51	30.01	-26.7	-28.5	15.5	0.00e+00	0	44	0	849346560	13	4422
2026-01-02 01:36:43.21	264.73	29.65	-26.4	-27.7	15.9	3.27e-03	0	43	0	858783744	13	4204
2026-01-02 01:36:46.22	263.96	29.28	-26.3	-28.0	16.0	0.00e+00	0	43	0	868220928	12	4403
2026-01-02 01:36:49.23	263.21	28.91	-26.9	-28.8	15.3	1.25e-03	0	43	0	877658112	13	4520
2026-01-02 01:36:52.23	262.47	28.54	-26.5	-28.0	15.8	6.79e-05	0	43	0	887095296	13	4272
2026-01-02 01:36:55.24	261.75	28.18	-26.1	-27.6	16.2	1.95e-03	0	43	0	896532480	12	4284
2026-01-02 01:36:58.25	261.05	27.81	-26.8	-28.7	15.4	3.41e-04	0	43	0	905969664	13	4485
2026-01-02 01:37:01.25	260.36	27.44	-26.3	-27.6	16.0	0.00e+00	0	43	0	915406848	13	4168
2026-01-02 01:37:04.26	259.69	27.07	-26.1	-27.6	16.2	2.86e-03	0	43	0	924844032	12	4291
2026-01-02 01:37:07.27	259.04	26.70	-26.2	-27.8	16.1	0.00e+00	0	43	0	934281216	12	4340
2026-01-02 01:37:10.29	258.39	26.34	-26.9	-29.0	15.1	3.76e-03	0	43	0	943718400	13	4577
2026-01-02 01:37:13.29	257.77	25.97	-26.3	-27.6	15.9	0.00e+00	0	43	0	953155584	13	4172
2026-01-02 01:37:16.30	257.16	25.61	-25.8	-27.5	16.6	3.80e-03	0	43	0	962592768	11	4362
2026-01-02 01:37:19.32	256.56	25.24	-26.7	-28.4	15.4	2.44e-03	0	43	0	972029952	13	4402
2026-01-02 01:37:22.33	255.97	24.88	-26.7	-28.5	15.4	0.00e+00	0	43	0	980418560	13	4419
2026-01-02 01:37:25.35	255.40	24.52	-26.2	-27.9	16.0	0.00e+00	0	43	0	990904320	12	4374
2026-01-02 01:37:28.35	254.84	24.17	-26.1	-27.7	16.1	0.00e+00	0	43	0	999292928	12	4303
2026-01-02 01:37:31.35	254.30	23.81	-25.8	-27.1	16.4	0.00e+00	0	43	0	1008730112	12	4137
2026-01-02 01:37:34.36	253.77	23.46	-26.0	-27.9	16.3	7.00e-07	0	43	0	1018167296	11	4464
2026-01-02 01:37:37.36	253.25	23.11	-26.5	-27.9	15.7	2.20e-06	0	43	0	1027604480	13	4269
2026-01-02 01:37:40.37	252.74	22.76	-26.4	-27.9	15.6	0.00e+00	0	43	0	1037041664	13	4265
2026-01-02 01:37:43.39	252.24	22.41	-26.3	-28.0	15.9	2.20e-06	0	43	0	1046478848	12	4399
2026-01-02 01:37:46.40	251.75	22.06	-26.3	-28.1	15.8	0.00e+00	0	43	0	1055916032	12	4433
2026-01-02 01:37:49.42	251.28	21.72	-26.3	-27.7	15.7	4.50e-06	0	43	0	1065353216	13	4198
2026-01-02 01:37:52.43	250.81	21.38	-26.2	-28.0	15.8	0.00e+00	0	43	0	1074790400	12	4389
2026-01-02 01:37:55.44	250.36	21.05	-26.5	-28.5	15.5	0.00e+00	0	43	0	1084227584	12	4554
2026-01-02 01:37:58.46	249.91	20.71	-26.6	-28.3	15.4	0.00e+00	0	43	0	1093664768	13	4367
2026-01-02 01:38:01.47	249.47	20.38	-26.7	-28.5	15.2	0.00e+00	0	43	0	1103101952	13	4433
2026-01-02 01:38:04.47	249.05	20.05	-26.6	-28.2	15.4	0.00e+00	0	43	0	1112539136	13	4357
2026-01-02 01:38:07.48	248.63	19.72	-26.6	-28.2	15.4	0.00e+00	0	43	0	1121976320	13	4354
2026-01-02 01:38:10.49	248.22	19.40	-26.0	-27.4	16.1	0.00e+00	0	43	0	1131413504	12	4245
2026-01-02 01:38:13.50	247.82	19.08	-26.0	-27.4	16.0	0.00e+00	0	43	0	1140850688	12	4230
2026-01-02 01:38:16.52	247.43	18.76	-26.1	-27.6	15.9	0.00e+00	0	43	0	1150287872	12	4295
2026-01-02 01:38:19.52	247.05	18.44	-26.3	-28.1	15.6	0.00e+00	0	43	0	1159725056	12	4446
2026-01-02 01:38:22.54	246.67	18.13	-26.3	-28.0	15.6	2.58e-04	0	43	0	1169162240	12	4415
2026-01-02 01:38:25.55	246.31	17.82	-26.1	-27.7	15.8	0.00e+00	0	43	0	1178599424	12	4315
2026-01-02 01:38:28.56	245.95	17.51	-26.1	-27.7	15.8	2.71e-03	0	43	0	1188036608	12	4324
2026-01-02 01:38:31.58	245.59	17.20	-26.4	-28.3	15.5	0.00e+00	0	43	0	1197473792	12	4506
2026-01-02 01:38:34.58	245.25	16.90	-26.5	-28.1	15.3	4.07e-03	0	43	0	1206910976	13	4327
2026-01-02 01:38:37.60	244.91	16.60	-26.6	-28.3	15.2	3.78e-03	0	43	0	1216348160	13	4391
2026-01-02 01:38:40.60	244.58	16.31	-26.8	-28.8	14.9	3.89e-03	0	43	0	1225785344	13	4536
2026-01-02 01:38:43.60	244.26	16.01	-26.8	-28.9	14.8	2.01e-03	0	43	0	1235222528	13	4550
2026-01-02 01:38:46.61	243.94	15.72	-26.9	-29.1	14.7	6.23e-03	0	43	0	1244659712	13	4606
2026-01-02 01:38:49.63	243.62	15.43	-26.9	-29.0	14.8	6.70e-03	0	43	0	1254096896	13	4579
2026-01-02 01:38:52.64	243.32	15.14	-26.8	-28.8	14.8	5.79e-03	0	43	0	1263534080	13	4528
2026-01-02 01:38:55.65	243.02	14.86	-26.8	-28.8	14.8	7.43e-03	0	43	0	1272971264	13	4526
2026-01-02 01:38:58.66	242.72	14.58	-26.9	-29.1	14.6	4.96e-03	0	43	0	1282408448	13	4638
2026-01-02 01:39:01.68	242.43	14.30	-27.0	-28.8	14.5	5.66e-03	0	43	0	1291845632	14	4432
2026-01-02 01:39:04.70	242.15	14.02	-27.1	-29.0	14.4	7.00e-07	0	43	0	1301282816	14	4479
2026-01-02 01:39:07.72	241.87	13.74	-27.2	-29.2	14.2	9.00e-04	0	43	0	1310720000	14	4550
2026-01-02 01:39:10.73	241.60	13.47	-27.0	-28.8	14.4	3.26e-03	0	43	0	1319108608	14	4442
2026-01-02 01:39:13.73	241.33	13.20	-26.8	-28.8	14.7	6.42e-04	0	43	0	1328545792	13	4550
2026-01-02 01:39:16.74	241.07	12.93	-26.7	-28.6	14.8	3.88e-03	0	43	0	1337982976	13	4482
2026-01-02 01:39:19.74	240.81	12.67	-26.8	-28.8	14.7	6.23e-04	0	43	0	1347420160	13	4525
2026-01-02 01:39:22.74	240.56	12.41	-26.8	-28.8	14.7	5.03e-04	0	43	0	1356857344	13	4535
2026-01-02 01:39:25.74	240.31	12.15	-27.0	-28.8	14.4	3.58e-04	0	43	0	1366294528	14	4440
2026-01-02 01:39:28.75	240.07	11.89	-27.2	-29.3	14.0	2.89e-04	0	43	0	1375731712	14	4600
2026-01-02 01:39:31.75	239.83	11.63	-27.4	-29.7	13.8	1.50e-06	0	43	0	1385168896	14	4715
2026-01-02 01:39:34.76	239.60	11.38	-27.3	-29.5	13.9	2.39e-04	0	43	0	1394606080	14	4661
2026-01-02 01:39:37.76	239.36	11.13	-27.4	-29.9	13.7	3.00e-06	0	43	0	1404043264	14	4762
2026-01-02 01:39:40.76	239.14	10.88	-27.6	-29.8	13.4	2.65e-04	0	43	0	1413480448	15	4627
2026-01-02 01:39:43.76	238.92	10.63	-27.7	-29.9	13.3	1.90e-05	0	43	0	1422917632	15	4674
2026-01-02 01:39:46.78	238.70	10.39	-27.5	-29.6	13.4	2.72e-04	0	43	0	1432354816	15	4584
2026-01-02 01:39:49.79	238.48	10.14	-27.5	-29.5	13.5	6.10e-06	0	43	0	1441792000	15	4540
2026-01-02 01:39:52.81	238.27	9.90	-27.3	-29.7	13.7	2.20e-04	0	43	0	1451229184	14	4700
2026-01-02 01:39:55.81	238.06	9.66	-27.4	-29.7	13.6	2.31e-04	0	43	0	1460666368	14	4725
2026-01-02 01:39:58.81	237.86	9.43	-27.5	-29.6	13.4	1.14e-05	0	43	0	1470103552	15	4565
2026-01-02 01:40:01.82	237.65	9.19	-27.6	-29.9	13.2	2.75e-04	0	43	0	1479540736	15	4682
2026-01-02 01:40:04.83	237.46	8.96	-27.5	-29.7	13.3	1.52e-05	0	43	0	1488977920	15	4608
2026-01-02 01:40:07.84	237.26	8.72	-27.6	-29.9	13.2	4.50e-04	0	43	0	1498415104	15	4669
2026-01-02 01:40:10.86	237.07	8.49	-27.8	-30.4	12.8	6.02e-05	0	43	0	1507852288	15	4840
2026-01-02 01:40:13.87	236.88	8.26	-28.2	-30.8	12.4	7.29e-04	0	43	0	1517289472	16	4838
2026-01-02 01:40:16.88	236.69	8.04	-27.9	-30.7	12.6	8.62e-05	0	43	0	1526726656	15	4949
2026-01-02 01:40:19.89	236.51	7.81	-28.1	-30.6	12.5	5.61e-04	0	43	0	1536163840	16	4806
2026-01-02 01:40:22.90	236.33	7.59	-28.3	-31.1	12.1	2.90e-04	0	43	0	1545601024	16	4963
2026-01-02 01:40:25.90	236.16	7.37	-28.5	-31.1	11.8	8.64e-04	0	43	0	1555038208	17	4863
2026-01-02 01:40:28.92	235.98	7.15	-28.2	-30.9	12.2	1.81e-04	0	43	0	1564475392	16	4886

#Closed at: 2026-01-02 01:40:31
#Recorded file [1565 MB]: D:/data/31010_260102_043208.dat