passes_logs/2026/01/19/R3.2S_Murmansk/R3.2S_Murmansk__20260119_131859_SUOMI_NPP_rec.log

#Pass ID: 20260119_131859_SUOMI NPP
#Satellite: SUOMI NPP
#Configuration: NPP
#almurnet v.1.7.20251203
#Start time: 2026-01-19 13:19:01

#Version: 2.2.20231116
#Station: R3.2S_Murmansk
#Location: 33.079688 lon 68.888172 lat
#TLE: 1 37849U 11061A   26018.91022273  .00000066  00000+0  52264-4 0  9997
#TLE: 2 37849  98.7816 320.9252 0002364  56.8129 303.3273 14.19526186737260

#Time	Az	El	Level	Level2	SNR	BER	BlckErr	Temp	State	Recorded	gain1	gain2
2026-01-19 13:19:01.41	250.19	2.10	-52.6	-67.5	3.8	1.49e+00	0	35	0	0	77	19385
2026-01-19 13:19:04.43	250.51	2.22	-52.5	-67.5	3.8	1.49e+00	0	35	104	0	75	21599
2026-01-19 13:19:07.45	250.83	2.35	-52.5	-67.5	3.8	1.49e+00	0	36	104	0	75	21603
2026-01-19 13:19:10.48	251.16	2.47	-52.5	-67.5	3.8	1.49e+00	0	36	104	0	75	21661
2026-01-19 13:19:13.50	251.49	2.60	-52.5	-67.5	3.8	1.49e+00	0	36	104	0	75	21624
2026-01-19 13:19:16.52	251.81	2.72	-52.5	-67.5	3.8	1.49e+00	0	36	104	0	75	21545
2026-01-19 13:19:19.55	252.15	2.85	-52.5	-67.5	3.8	1.49e+00	0	36	104	0	75	21547
2026-01-19 13:19:22.58	252.48	2.97	-52.5	-67.5	3.8	1.49e+00	0	36	104	0	75	21607
2026-01-19 13:19:25.61	252.82	3.09	-52.5	-67.5	3.8	1.49e+00	0	36	104	0	75	21555
2026-01-19 13:19:28.63	253.16	3.22	-52.5	-67.3	3.8	1.49e+00	0	36	104	0	75	21226
2026-01-19 13:19:31.65	253.51	3.34	-52.5	-67.4	3.8	1.49e+00	0	36	104	0	75	21474
2026-01-19 13:19:34.68	253.85	3.46	-52.5	-67.4	3.8	1.49e+00	0	36	104	0	75	21490
2026-01-19 13:19:37.70	254.20	3.59	-52.5	-67.5	3.8	1.49e+00	0	36	104	0	75	21532
2026-01-19 13:19:40.72	254.55	3.71	-52.5	-67.4	3.8	1.49e+00	0	36	104	0	75	21411
2026-01-19 13:19:43.75	254.91	3.83	-52.5	-67.4	3.8	1.49e+00	0	36	104	0	75	21263
2026-01-19 13:19:46.77	255.26	3.95	-52.5	-67.5	3.8	1.49e+00	0	36	104	0	75	21563
2026-01-19 13:19:49.80	255.63	4.08	-52.5	-67.4	3.8	1.49e+00	0	36	104	0	75	21437
2026-01-19 13:19:52.82	255.99	4.20	-52.5	-67.2	3.8	1.49e+00	0	36	104	0	75	20871
2026-01-19 13:19:55.84	256.35	4.32	-52.5	-67.4	3.8	1.49e+00	0	36	104	0	75	21272
2026-01-19 13:19:58.87	256.72	4.44	-52.5	-67.2	3.8	1.49e+00	0	36	104	0	75	20828
2026-01-19 13:20:01.89	257.09	4.56	-52.5	-66.6	3.8	1.49e+00	0	36	104	0	75	19477
2026-01-19 13:20:04.92	257.47	4.68	-52.1	-61.4	5.2	6.41e-01	0	36	0	2097152	75	10778
2026-01-19 13:20:07.94	257.85	4.80	-51.4	-57.6	8.6	8.17e-02	0	37	0	7340032	74	7292
2026-01-19 13:20:10.96	258.23	4.92	-49.6	-53.0	13.4	9.15e-05	0	36	0	12582912	71	5137
2026-01-19 13:20:13.99	258.61	5.03	-48.6	-51.3	15.2	0.00e+00	0	37	0	18874368	69	4730
2026-01-19 13:20:17.01	259.00	5.15	-51.8	-59.0	7.5	8.16e-05	0	37	0	24117248	74	8609
2026-01-19 13:20:20.03	259.39	5.27	-48.6	-51.3	15.2	5.30e-06	0	37	0	30408704	69	4717
2026-01-19 13:20:23.06	259.78	5.38	-48.4	-50.9	15.5	0.00e+00	0	37	0	35651584	68	4790
2026-01-19 13:20:26.08	260.18	5.50	-48.3	-50.7	15.7	0.00e+00	0	37	0	40894464	68	4685
2026-01-19 13:20:29.10	260.57	5.61	-48.2	-50.7	15.8	0.00e+00	0	37	0	47185920	68	4661
2026-01-19 13:20:32.13	260.98	5.73	-47.8	-50.0	16.4	0.00e+00	0	37	0	52428800	67	4569
2026-01-19 13:20:35.15	261.38	5.84	-47.7	-49.9	16.4	0.00e+00	0	37	0	58720256	67	4539
2026-01-19 13:20:38.18	261.79	5.96	-47.6	-49.8	16.6	0.00e+00	0	37	0	63963136	67	4461
2026-01-19 13:20:41.20	262.20	6.07	-48.1	-50.5	16.0	0.00e+00	0	37	0	69206016	67	4827
2026-01-19 13:20:44.23	262.61	6.18	-48.0	-50.3	16.1	0.00e+00	0	37	0	75497472	67	4757
2026-01-19 13:20:47.25	263.03	6.29	-48.3	-50.8	15.6	0.00e+00	0	37	0	80740352	67	5007
2026-01-19 13:20:50.28	263.45	6.40	-48.1	-50.4	16.0	0.00e+00	0	37	0	87031808	67	4805
2026-01-19 13:20:53.30	263.87	6.51	-48.2	-50.6	15.9	0.00e+00	0	37	0	92274688	67	4880
2026-01-19 13:20:56.32	264.30	6.62	-48.2	-50.6	15.8	0.00e+00	0	37	0	97517568	67	4886
2026-01-19 13:20:59.35	264.73	6.73	-48.0	-50.3	16.2	0.00e+00	0	37	0	103809024	67	4724
2026-01-19 13:21:02.37	265.16	6.83	-47.8	-50.0	16.4	0.00e+00	0	37	0	109051904	67	4595
2026-01-19 13:21:05.40	265.59	6.94	-48.2	-50.6	15.8	0.00e+00	0	37	0	115343360	67	4921
2026-01-19 13:21:08.42	266.03	7.04	-48.6	-51.2	15.3	0.00e+00	0	37	0	120586240	67	5236
2026-01-19 13:21:11.45	266.47	7.15	-48.4	-50.9	15.5	0.00e+00	0	37	0	125829120	67	5054
2026-01-19 13:21:14.47	266.92	7.25	-47.9	-50.2	16.0	0.00e+00	0	37	0	132120576	67	4700
2026-01-19 13:21:17.49	267.36	7.35	-48.0	-50.5	15.6	0.00e+00	0	37	0	137363456	67	4857
2026-01-19 13:21:20.51	267.81	7.45	-49.3	-52.9	13.1	8.30e-06	0	37	0	143654912	69	5677
2026-01-19 13:21:23.54	268.27	7.55	-50.2	-55.2	10.6	1.54e-03	0	37	0	148897792	70	6964
2026-01-19 13:21:26.56	268.72	7.65	-50.6	-56.8	8.6	3.05e-02	0	37	0	154140672	71	7933
2026-01-19 13:21:29.59	269.18	7.75	-50.7	-57.6	7.6	1.03e-01	0	37	0	160432128	72	8232
2026-01-19 13:21:32.61	269.64	7.84	-50.7	-56.7	9.0	3.65e-02	0	37	0	165675008	72	7378
2026-01-19 13:21:35.63	270.11	7.94	-50.0	-54.2	11.7	2.16e-03	0	37	0	171966464	72	5583
2026-01-19 13:21:38.65	270.57	8.03	-49.4	-52.6	13.7	1.06e-05	0	37	0	177209344	70	5185
2026-01-19 13:21:41.68	271.05	8.12	-48.7	-51.4	15.2	0.00e+00	0	37	0	182452224	69	4781
2026-01-19 13:21:44.70	271.52	8.21	-48.2	-50.6	16.1	0.00e+00	0	37	0	188743680	68	4601
2026-01-19 13:21:47.72	271.99	8.30	-48.3	-50.6	16.1	0.00e+00	0	37	0	193986560	68	4634
2026-01-19 13:21:50.75	272.47	8.39	-48.3	-50.6	16.2	0.00e+00	0	37	0	200278016	68	4624
2026-01-19 13:21:53.78	272.96	8.48	-48.6	-51.1	15.7	0.00e+00	0	37	0	205520896	68	4886
2026-01-19 13:21:56.80	273.44	8.56	-48.5	-50.9	15.8	0.00e+00	0	37	0	210763776	68	4802
2026-01-19 13:21:59.82	273.93	8.65	-47.9	-50.0	16.7	0.00e+00	0	37	0	217055232	67	4559
2026-01-19 13:22:02.84	274.42	8.73	-47.9	-50.0	16.7	0.00e+00	0	37	0	222298112	67	4586
2026-01-19 13:22:05.86	274.91	8.81	-48.3	-50.6	16.1	0.00e+00	0	37	0	228589568	67	4890
2026-01-19 13:22:08.89	275.40	8.89	-48.7	-51.2	15.6	0.00e+00	0	37	0	233832448	67	5250
2026-01-19 13:22:11.91	275.90	8.97	-48.8	-51.2	15.7	0.00e+00	0	37	0	239075328	68	4966
2026-01-19 13:22:14.93	276.40	9.04	-48.6	-51.1	15.8	0.00e+00	0	37	0	245366784	68	4887
2026-01-19 13:22:17.96	276.90	9.12	-48.5	-50.8	16.0	0.00e+00	0	37	0	250609664	68	4726
2026-01-19 13:22:20.98	277.41	9.19	-48.3	-50.6	16.3	0.00e+00	0	37	0	256901120	68	4599
2026-01-19 13:22:24.01	277.92	9.26	-48.2	-50.4	16.5	0.00e+00	0	37	0	262144000	68	4530
2026-01-19 13:22:27.03	278.42	9.33	-48.7	-51.1	15.8	0.00e+00	0	37	0	268435456	68	4907
2026-01-19 13:22:30.05	278.94	9.40	-49.3	-52.2	14.7	0.00e+00	0	37	0	273678336	69	5231
2026-01-19 13:22:33.08	279.45	9.46	-49.4	-52.3	14.6	7.00e-07	0	37	0	278921216	69	5326
2026-01-19 13:22:36.10	279.97	9.53	-48.7	-51.2	15.7	0.00e+00	0	37	0	285212672	69	4654
2026-01-19 13:22:39.13	280.49	9.59	-48.4	-50.6	16.3	0.00e+00	0	37	0	290455552	68	4628
2026-01-19 13:22:42.15	281.01	9.65	-48.5	-50.8	16.1	0.00e+00	0	37	0	296747008	68	4743
2026-01-19 13:22:45.17	281.53	9.70	-48.2	-50.4	16.6	0.00e+00	0	37	0	301989888	68	4508
2026-01-19 13:22:48.19	282.05	9.76	-48.0	-50.0	16.8	0.00e+00	0	37	0	307232768	67	4596
2026-01-19 13:22:51.22	282.58	9.81	-48.2	-50.4	16.5	0.00e+00	0	37	0	313524224	67	4788
2026-01-19 13:22:54.24	283.11	9.87	-48.9	-51.3	15.7	0.00e+00	0	37	0	318767104	68	5030
2026-01-19 13:22:57.26	283.64	9.92	-48.2	-50.3	16.7	0.00e+00	0	37	0	325058560	68	4475
2026-01-19 13:23:00.29	284.17	9.96	-48.3	-50.5	16.5	0.00e+00	0	37	0	330301440	68	4574
2026-01-19 13:23:03.31	284.70	10.01	-48.9	-51.5	15.6	0.00e+00	0	37	0	335544320	68	5110
2026-01-19 13:23:06.33	285.24	10.05	-48.5	-50.8	16.3	0.00e+00	0	37	0	341835776	68	4706
2026-01-19 13:23:09.36	285.77	10.10	-48.2	-50.2	16.8	0.00e+00	0	37	0	347078656	68	4440
2026-01-19 13:23:12.38	286.31	10.13	-48.5	-50.7	16.4	0.00e+00	0	37	0	353370112	68	4664
2026-01-19 13:23:15.41	286.85	10.17	-48.7	-51.1	16.1	0.00e+00	0	37	0	358612992	68	4880
2026-01-19 13:23:18.43	287.39	10.21	-48.7	-51.0	16.2	0.00e+00	0	37	0	364904448	68	4815
2026-01-19 13:23:21.45	287.93	10.24	-49.6	-52.4	14.8	0.00e+00	0	37	0	370147328	69	5372
2026-01-19 13:23:24.48	288.48	10.27	-50.1	-53.4	13.8	6.10e-06	0	37	0	375390208	71	5362
2026-01-19 13:23:27.50	289.02	10.30	-49.8	-52.7	14.5	1.50e-06	0	37	0	381681664	71	4959
2026-01-19 13:23:30.52	289.56	10.33	-49.5	-52.2	14.9	0.00e+00	0	37	0	386924544	70	4983
2026-01-19 13:23:33.55	290.11	10.35	-49.6	-52.4	14.8	0.00e+00	0	37	0	393216000	70	5056
2026-01-19 13:23:36.57	290.65	10.37	-49.4	-52.0	15.2	0.00e+00	0	37	0	398458880	70	4860
2026-01-19 13:23:39.59	291.20	10.39	-49.2	-51.7	15.6	0.00e+00	0	37	0	403701760	70	4686
2026-01-19 13:23:42.62	291.75	10.41	-49.2	-51.8	15.5	0.00e+00	0	37	0	409993216	70	4728
2026-01-19 13:23:45.64	292.30	10.42	-49.0	-51.5	15.7	0.00e+00	0	37	0	415236096	70	4582
2026-01-19 13:23:48.67	292.85	10.44	-48.7	-51.0	16.2	0.00e+00	0	37	0	421527552	69	4580
2026-01-19 13:23:51.69	293.40	10.45	-48.8	-51.2	16.1	0.00e+00	0	37	0	426770432	69	4660
2026-01-19 13:23:54.71	293.95	10.45	-48.7	-51.0	16.2	0.00e+00	0	37	0	432013312	69	4581
2026-01-19 13:23:57.73	294.49	10.46	-48.5	-50.7	16.5	0.00e+00	0	37	0	438304768	69	4433
2026-01-19 13:24:00.76	295.05	10.46	-48.6	-50.8	16.4	0.00e+00	0	37	0	443547648	68	4722
2026-01-19 13:24:03.78	295.59	10.46	-48.6	-50.8	16.4	0.00e+00	0	37	0	449839104	68	4734
2026-01-19 13:24:06.81	296.15	10.46	-48.4	-50.6	16.6	0.00e+00	0	37	0	455081984	68	4604
2026-01-19 13:24:09.83	296.69	10.46	-47.8	-49.8	17.3	0.00e+00	0	37	0	460324864	67	4444
2026-01-19 13:24:12.85	297.24	10.45	-47.9	-49.9	17.2	0.00e+00	0	37	0	466616320	67	4516
2026-01-19 13:24:15.87	297.79	10.45	-47.8	-49.8	17.3	0.00e+00	0	37	0	471859200	67	4470
2026-01-19 13:24:18.89	298.34	10.44	-47.4	-49.2	17.8	0.00e+00	0	37	0	478150656	66	4425
2026-01-19 13:24:21.92	298.89	10.42	-47.9	-49.8	17.3	0.00e+00	0	37	0	483393536	66	4750
2026-01-19 13:24:24.95	299.44	10.41	-48.0	-50.1	17.0	0.00e+00	0	37	0	488636416	66	4893
2026-01-19 13:24:27.97	299.99	10.39	-47.9	-49.9	17.2	0.00e+00	0	37	0	494927872	66	4793
2026-01-19 13:24:30.99	300.53	10.37	-47.8	-49.8	17.3	0.00e+00	0	37	0	500170752	66	4739
2026-01-19 13:24:34.01	301.08	10.35	-48.1	-50.2	16.9	0.00e+00	0	37	0	506462208	66	4931
2026-01-19 13:24:37.04	301.62	10.32	-47.8	-49.8	17.2	0.00e+00	0	37	0	511705088	66	4729
2026-01-19 13:24:40.06	302.17	10.30	-47.5	-49.3	17.6	0.00e+00	0	37	0	516947968	66	4487
2026-01-19 13:24:43.08	302.71	10.27	-47.5	-49.4	17.6	0.00e+00	0	37	0	523239424	66	4524
2026-01-19 13:24:46.10	303.25	10.24	-47.5	-49.4	17.5	0.00e+00	0	37	0	528482304	66	4544
2026-01-19 13:24:49.13	303.79	10.21	-47.3	-49.0	17.9	0.00e+00	0	37	0	534773760	66	4337
2026-01-19 13:24:52.15	304.33	10.17	-46.8	-48.4	18.5	0.00e+00	0	37	0	540016640	65	4287
2026-01-19 13:24:55.18	304.87	10.13	-46.8	-48.4	18.5	0.00e+00	0	37	0	545259520	65	4278
2026-01-19 13:24:58.20	305.41	10.09	-47.1	-48.8	18.1	0.00e+00	0	37	0	551550976	65	4478
2026-01-19 13:25:01.22	305.94	10.05	-47.1	-48.8	18.1	0.00e+00	0	37	0	556793856	65	4472
2026-01-19 13:25:04.25	306.48	10.01	-46.9	-48.5	18.3	0.00e+00	0	37	0	563085312	65	4332
2026-01-19 13:25:07.27	307.01	9.96	-47.1	-48.9	18.1	0.00e+00	0	37	0	568328192	65	4494
2026-01-19 13:25:10.30	307.54	9.92	-47.1	-48.9	17.9	0.00e+00	0	37	0	573571072	65	4523
2026-01-19 13:25:13.32	308.07	9.87	-47.1	-48.8	18.1	0.00e+00	0	37	0	579862528	65	4465
2026-01-19 13:25:16.35	308.59	9.81	-47.2	-48.9	17.9	0.00e+00	0	37	0	585105408	65	4538
2026-01-19 13:25:19.37	309.12	9.76	-47.5	-49.4	17.5	0.00e+00	0	37	0	591396864	65	4796
2026-01-19 13:25:22.39	309.64	9.70	-47.8	-49.8	17.1	0.00e+00	0	37	0	596639744	66	4718
2026-01-19 13:25:25.42	310.16	9.65	-47.7	-49.7	17.2	0.00e+00	0	37	0	602931200	66	4657
2026-01-19 13:25:28.44	310.68	9.59	-47.4	-49.2	17.6	0.00e+00	0	37	0	608174080	66	4426
2026-01-19 13:25:31.46	311.20	9.52	-46.9	-48.7	18.2	0.00e+00	0	37	0	613416960	65	4394
2026-01-19 13:25:34.49	311.72	9.46	-46.4	-48.0	18.8	0.00e+00	0	37	0	619708416	64	4313
2026-01-19 13:25:37.51	312.23	9.40	-46.1	-47.6	19.3	0.00e+00	0	37	0	624951296	63	4345
2026-01-19 13:25:40.54	312.74	9.33	-46.3	-47.8	19.1	0.00e+00	0	37	0	631242752	63	4452
2026-01-19 13:25:43.56	313.25	9.26	-46.6	-48.3	18.5	0.00e+00	0	37	0	636485632	64	4448
2026-01-19 13:25:46.58	313.75	9.19	-46.7	-48.4	18.3	0.00e+00	0	37	0	641728512	64	4540
2026-01-19 13:25:49.60	314.25	9.12	-46.8	-48.5	18.3	0.00e+00	0	37	0	648019968	64	4554
2026-01-19 13:25:52.63	314.76	9.04	-46.5	-48.2	18.5	0.00e+00	0	37	0	653262848	64	4398
2026-01-19 13:25:55.65	315.25	8.97	-46.7	-48.4	18.3	0.00e+00	0	37	0	659554304	64	4518
2026-01-19 13:25:58.67	315.75	8.89	-46.9	-48.6	18.2	0.00e+00	0	37	0	664797184	64	4615
2026-01-19 13:26:01.70	316.24	8.81	-46.7	-48.3	18.4	0.00e+00	0	37	0	670040064	64	4489
2026-01-19 13:26:04.72	316.73	8.73	-46.1	-47.6	19.0	0.00e+00	0	37	0	676331520	64	4124
2026-01-19 13:26:07.75	317.22	8.65	-46.3	-47.9	18.7	0.00e+00	0	37	0	681574400	64	4268
2026-01-19 13:26:10.77	317.71	8.57	-46.8	-48.5	18.2	0.00e+00	0	37	0	687865856	64	4565
2026-01-19 13:26:13.79	318.19	8.48	-46.9	-48.7	18.0	0.00e+00	0	37	0	693108736	64	4671
2026-01-19 13:26:16.82	318.67	8.40	-47.3	-49.2	17.5	0.00e+00	0	37	0	699400192	65	4675
2026-01-19 13:26:19.84	319.15	8.31	-47.0	-48.8	17.9	0.00e+00	0	37	0	704643072	65	4473
2026-01-19 13:26:22.86	319.62	8.22	-47.2	-49.1	17.5	0.00e+00	0	37	0	709885952	65	4618
2026-01-19 13:26:25.89	320.09	8.13	-47.9	-50.1	16.6	0.00e+00	0	37	0	716177408	66	4879
2026-01-19 13:26:28.91	320.56	8.04	-48.2	-50.5	16.2	0.00e+00	0	37	0	721420288	67	4843
2026-01-19 13:26:31.93	321.03	7.94	-48.1	-50.3	16.4	0.00e+00	0	37	0	727711744	67	4710
2026-01-19 13:26:34.95	321.49	7.85	-48.1	-50.3	16.3	0.00e+00	0	37	0	732954624	67	4749
2026-01-19 13:26:37.97	321.95	7.76	-48.5	-50.9	15.8	0.00e+00	0	37	0	738197504	67	5075
2026-01-19 13:26:40.99	322.41	7.66	-48.2	-50.5	16.1	0.00e+00	0	37	0	744488960	67	4826
2026-01-19 13:26:44.01	322.86	7.56	-48.2	-50.4	16.2	0.00e+00	0	37	0	749731840	67	4812
2026-01-19 13:26:47.03	323.31	7.46	-48.4	-50.8	15.8	0.00e+00	0	37	0	756023296	67	5013
2026-01-19 13:26:50.06	323.76	7.36	-48.6	-51.1	15.5	0.00e+00	0	37	0	761266176	67	5176
2026-01-19 13:26:53.08	324.20	7.26	-48.4	-50.9	15.7	0.00e+00	0	37	0	766509056	67	5056
2026-01-19 13:26:56.10	324.65	7.16	-49.2	-52.0	14.7	0.00e+00	0	37	0	772800512	69	5131
2026-01-19 13:26:59.12	325.08	7.06	-49.6	-52.9	13.8	4.50e-06	0	37	0	778043392	69	5672
2026-01-19 13:27:02.12	325.52	6.95	-49.7	-53.1	13.6	1.52e-05	0	37	0	784334848	70	5487
2026-01-19 13:27:05.14	325.95	6.85	-49.6	-52.7	13.9	3.80e-06	0	37	0	789577728	70	5269
2026-01-19 13:27:08.17	326.38	6.74	-49.2	-52.0	14.6	7.00e-07	0	37	0	794820608	70	4864
2026-01-19 13:27:11.19	326.81	6.64	-49.2	-52.0	14.7	0.00e+00	0	37	0	801112064	70	4857
2026-01-19 13:27:14.22	327.23	6.53	-49.3	-52.3	14.3	1.50e-06	0	37	0	806354944	69	5331
2026-01-19 13:27:17.24	327.65	6.42	-49.3	-52.4	14.2	3.80e-06	0	37	0	812646400	69	5345
2026-01-19 13:27:20.26	328.07	6.31	-49.5	-52.7	13.9	6.10e-06	0	37	0	817889280	69	5572
2026-01-19 13:27:23.28	328.49	6.20	-49.6	-52.9	13.7	3.00e-06	0	37	0	823132160	69	5672
2026-01-19 13:27:26.30	328.90	6.09	-49.4	-52.6	13.9	2.20e-06	0	37	0	829423616	69	5480
2026-01-19 13:27:29.33	329.31	5.98	-49.0	-51.7	14.8	0.00e+00	0	37	0	834666496	69	4982
2026-01-19 13:27:32.35	329.71	5.87	-48.9	-51.7	14.8	0.00e+00	0	37	0	840957952	69	4959
2026-01-19 13:27:35.37	330.12	5.75	-49.1	-52.1	14.4	0.00e+00	0	37	0	846200832	69	5171
2026-01-19 13:27:38.40	330.52	5.64	-48.9	-51.7	14.8	0.00e+00	0	37	0	851443712	69	4976
2026-01-19 13:27:41.42	330.91	5.53	-48.8	-51.6	14.9	0.00e+00	0	37	0	857735168	69	4901
2026-01-19 13:27:44.44	331.31	5.41	-48.6	-51.2	15.3	0.00e+00	0	37	0	862978048	68	4933
2026-01-19 13:27:47.46	331.70	5.30	-48.5	-51.0	15.3	0.00e+00	0	37	0	869269504	68	4860
2026-01-19 13:27:50.49	332.09	5.18	-48.3	-50.7	15.6	0.00e+00	0	37	0	874512384	68	4701
2026-01-19 13:27:53.51	332.47	5.06	-48.7	-51.4	14.9	0.00e+00	0	37	0	879755264	68	5090
2026-01-19 13:27:56.54	332.85	4.95	-52.8	-67.8	3.8	1.39e+00	0	37	104	884998144	76	21236
2026-01-19 13:27:59.57	333.23	4.83	-53.5	-68.5	3.8	1.49e+00	0	37	104	884998144	77	21583
2026-01-19 13:28:02.59	333.61	4.71	-53.8	-68.8	3.8	1.49e+00	0	37	104	884998144	78	21179
2026-01-19 13:28:05.62	333.99	4.59	-54.1	-69.0	3.8	1.49e+00	0	37	104	884998144	78	21728
2026-01-19 13:28:08.65	334.36	4.47	-54.2	-69.2	3.8	1.49e+00	0	37	104	884998144	78	22059
2026-01-19 13:28:11.67	334.72	4.35	-54.2	-69.2	3.8	1.49e+00	0	37	104	884998144	79	20998
2026-01-19 13:28:14.70	335.09	4.23	-54.3	-69.3	3.8	1.49e+00	0	37	104	884998144	79	21035
2026-01-19 13:28:17.72	335.45	4.11	-54.2	-69.3	3.8	1.49e+00	0	37	104	884998144	79	21021
2026-01-19 13:28:20.75	335.81	3.99	-54.2	-69.2	3.8	1.49e+00	0	37	104	884998144	79	20877
2026-01-19 13:28:23.77	336.17	3.87	-54.2	-69.2	3.8	1.49e+00	0	37	104	884998144	79	20881
2026-01-19 13:28:26.79	336.52	3.75	-54.2	-69.1	3.8	1.49e+00	0	37	104	884998144	79	20744
2026-01-19 13:28:29.82	336.87	3.63	-54.1	-69.2	3.8	1.49e+00	0	37	104	884998144	79	20783
2026-01-19 13:28:32.84	337.22	3.51	-54.1	-69.1	3.8	1.49e+00	0	37	104	884998144	79	20775
2026-01-19 13:28:35.86	337.56	3.39	-54.1	-69.1	3.8	1.49e+00	0	37	104	884998144	79	20678
2026-01-19 13:28:38.89	337.91	3.26	-54.1	-69.1	3.8	1.49e+00	0	37	104	884998144	79	20631
2026-01-19 13:28:41.91	338.25	3.14	-54.1	-69.1	3.8	1.49e+00	0	37	104	884998144	79	20641
2026-01-19 13:28:44.93	338.58	3.02	-54.1	-69.1	3.8	1.49e+00	0	37	104	884998144	79	20589
2026-01-19 13:28:47.96	338.92	2.90	-54.1	-69.1	3.8	1.49e+00	0	37	104	884998144	79	20605
2026-01-19 13:28:50.98	339.25	2.77	-54.1	-69.1	3.8	1.49e+00	0	37	104	884998144	79	20574
2026-01-19 13:28:54.01	339.58	2.65	-54.1	-69.1	3.8	1.49e+00	0	37	104	884998144	79	20552
2026-01-19 13:28:57.03	339.91	2.53	-54.1	-69.1	3.8	1.49e+00	0	37	104	884998144	79	20590
2026-01-19 13:29:00.05	340.23	2.40	-54.0	-69.1	3.8	1.49e+00	0	37	104	884998144	79	20566
2026-01-19 13:29:03.06	340.55	2.28	-54.0	-69.1	3.8	1.49e+00	0	37	104	884998144	79	20569
2026-01-19 13:29:06.09	340.87	2.15	-54.1	-69.1	3.8	1.49e+00	0	37	104	884998144	79	20555
2026-01-19 13:29:09.11	341.19	2.03	-54.0	-69.0	3.8	1.49e+00	0	37	104	884998144	79	20517

#Closed at: 2026-01-19 13:29:12
#Recorded file [884 MB]: D:/lorett/data/31041_260119_161901.dat