passes_logs/2026/01/19/R3.2S_Murmansk/R3.2S_Murmansk__20260119_083414_NOAA_20_JPSS-1_rec.log

#Pass ID: 20260119_083414_NOAA 20 (JPSS-1)
#Satellite: NOAA 20 (JPSS-1)
#Configuration: NOAA 20
#almurnet v.1.7.20251203
#Start time: 2026-01-19 08:34:14

#Version: 2.2.20231116
#Station: R3.2S_Murmansk
#Location: 33.079688 lon 68.888172 lat
#TLE: 1 43013U 17073A   26018.92475364  .00000071  00000+0  54435-4 0  9998
#TLE: 2 43013  98.7641 319.8227 0001354  33.6678 326.4584 14.19536868423299

#Time	Az	El	Level	Level2	SNR	BER	BlckErr	Temp	State	Recorded	gain1	gain2
2026-01-19 08:34:14.65	129.22	2.03	-52.2	-67.1	3.8	1.49e+00	0	36	0	0	75	20766
2026-01-19 08:34:18.68	129.13	2.28	-52.1	-67.1	3.8	1.49e+00	0	36	104	0	74	21937
2026-01-19 08:34:22.71	129.04	2.54	-52.1	-67.1	3.8	1.49e+00	0	36	104	0	74	21814
2026-01-19 08:34:26.74	128.95	2.80	-52.1	-67.1	3.8	1.49e+00	0	36	104	0	74	21793
2026-01-19 08:34:30.77	128.86	3.07	-52.1	-67.0	3.8	1.49e+00	0	36	104	0	74	21588
2026-01-19 08:34:34.81	128.77	3.34	-52.1	-67.0	3.8	1.49e+00	0	36	104	0	74	21588
2026-01-19 08:34:38.84	128.67	3.60	-52.1	-65.9	3.8	1.49e+00	0	36	104	0	74	19152
2026-01-19 08:34:42.87	128.57	3.88	-52.0	-64.2	4.0	1.45e+00	0	36	0	0	74	15641
2026-01-19 08:34:46.90	128.48	4.15	-51.9	-62.9	4.4	1.32e+00	153	37	0	3145728	74	13440
2026-01-19 08:34:50.94	128.37	4.43	-51.4	-59.2	6.6	2.68e-01	0	37	0	10485760	74	8776
2026-01-19 08:34:54.97	128.27	4.71	-50.0	-54.1	11.9	7.40e-04	0	37	0	17825792	71	5851
2026-01-19 08:34:59.00	128.16	4.99	-48.3	-51.0	15.1	0.00e+00	0	37	0	26214400	68	4838
2026-01-19 08:35:03.04	128.06	5.28	-50.7	-56.4	9.6	8.44e-04	0	37	0	33554432	72	7198
2026-01-19 08:35:07.07	127.95	5.57	-47.4	-49.6	16.5	0.00e+00	0	37	0	40894464	66	4622
2026-01-19 08:35:11.10	127.83	5.86	-47.2	-49.3	17.0	0.00e+00	0	37	0	48234496	66	4458
2026-01-19 08:35:15.13	127.72	6.15	-47.2	-49.3	17.0	0.00e+00	0	37	0	55574528	66	4459
2026-01-19 08:35:19.16	127.60	6.45	-47.2	-49.2	17.1	0.00e+00	0	37	0	63963136	66	4423
2026-01-19 08:35:23.20	127.48	6.75	-47.1	-49.1	17.4	0.00e+00	0	37	0	71303168	66	4351
2026-01-19 08:35:27.22	127.35	7.06	-47.0	-48.9	17.5	0.00e+00	0	37	0	78643200	65	4535
2026-01-19 08:35:31.26	127.23	7.36	-46.9	-48.8	17.7	0.00e+00	0	37	0	85983232	65	4472
2026-01-19 08:35:35.29	127.10	7.68	-47.1	-49.0	17.6	0.00e+00	0	37	0	94371840	65	4553
2026-01-19 08:35:39.32	126.96	7.99	-46.9	-48.7	17.9	0.00e+00	0	37	0	101711872	65	4404
2026-01-19 08:35:43.35	126.83	8.31	-46.9	-48.7	18.0	0.00e+00	0	37	0	109051904	65	4395
2026-01-19 08:35:47.38	126.69	8.64	-46.8	-48.6	18.0	0.00e+00	0	37	0	116391936	65	4381
2026-01-19 08:35:51.41	126.55	8.96	-46.7	-48.5	18.2	0.00e+00	0	37	0	123731968	65	4299
2026-01-19 08:35:55.44	126.40	9.29	-46.6	-48.3	18.4	0.00e+00	0	37	0	132120576	65	4196
2026-01-19 08:35:59.48	126.25	9.63	-46.6	-48.3	18.5	0.00e+00	0	37	0	139460608	64	4454
2026-01-19 08:36:03.51	126.10	9.97	-46.4	-48.0	18.7	0.00e+00	0	37	0	146800640	64	4326
2026-01-19 08:36:07.54	125.94	10.32	-46.5	-48.1	18.6	0.00e+00	0	37	0	154140672	64	4359
2026-01-19 08:36:11.57	125.78	10.67	-46.4	-48.0	18.8	0.00e+00	0	37	0	161480704	64	4311
2026-01-19 08:36:15.59	125.61	11.02	-46.3	-47.9	18.9	0.00e+00	0	37	0	169869312	64	4251
2026-01-19 08:36:19.63	125.44	11.38	-46.2	-47.8	19.0	0.00e+00	0	37	0	177209344	64	4223
2026-01-19 08:36:23.66	125.26	11.74	-46.3	-47.8	19.0	0.00e+00	0	37	0	184549376	64	4218
2026-01-19 08:36:27.69	125.08	12.11	-46.3	-47.8	19.0	0.00e+00	0	37	0	191889408	64	4231
2026-01-19 08:36:31.72	124.90	12.49	-46.3	-47.8	19.0	0.00e+00	0	37	0	199229440	64	4242
2026-01-19 08:36:35.75	124.71	12.87	-46.2	-47.8	19.1	0.00e+00	0	37	0	207618048	64	4194
2026-01-19 08:36:39.78	124.51	13.25	-46.2	-47.7	19.2	0.00e+00	0	37	0	214958080	64	4193
2026-01-19 08:36:43.81	124.31	13.65	-46.1	-47.6	19.4	0.00e+00	0	37	0	222298112	64	4101
2026-01-19 08:36:47.84	124.11	14.04	-46.2	-47.7	19.3	0.00e+00	0	37	0	229638144	64	4162
2026-01-19 08:36:51.87	123.89	14.45	-46.0	-47.5	19.5	0.00e+00	0	37	0	238026752	64	4062
2026-01-19 08:36:55.90	123.68	14.86	-46.0	-47.5	19.5	0.00e+00	0	37	0	245366784	64	4074
2026-01-19 08:36:59.93	123.45	15.27	-46.1	-47.5	19.6	0.00e+00	0	38	0	252706816	63	4317
2026-01-19 08:37:03.96	123.22	15.70	-46.0	-47.4	19.7	0.00e+00	0	38	0	260046848	63	4278
2026-01-19 08:37:07.99	122.98	16.13	-46.0	-47.5	19.7	0.00e+00	0	38	0	267386880	63	4303
2026-01-19 08:37:12.02	122.73	16.57	-46.0	-47.4	19.7	0.00e+00	0	38	0	274726912	63	4274
2026-01-19 08:37:16.05	122.48	17.01	-46.1	-47.5	19.7	0.00e+00	0	37	0	283115520	63	4310
2026-01-19 08:37:20.08	122.22	17.46	-46.1	-47.5	19.7	0.00e+00	0	37	0	290455552	63	4337
2026-01-19 08:37:24.12	121.94	17.93	-46.1	-47.6	19.6	0.00e+00	0	37	0	297795584	63	4359
2026-01-19 08:37:28.15	121.67	18.39	-46.0	-47.4	19.8	0.00e+00	0	37	0	305135616	63	4274
2026-01-19 08:37:32.18	121.38	18.87	-46.0	-47.4	19.8	0.00e+00	0	37	0	313524224	63	4263
2026-01-19 08:37:36.21	121.08	19.36	-46.0	-47.4	19.8	0.00e+00	0	37	0	320864256	63	4276
2026-01-19 08:37:40.24	120.77	19.85	-46.1	-47.5	19.7	0.00e+00	0	38	0	328204288	63	4338
2026-01-19 08:37:44.27	120.45	20.35	-46.2	-47.6	19.7	0.00e+00	0	37	0	335544320	63	4374
2026-01-19 08:37:48.30	120.12	20.87	-46.2	-47.6	19.7	0.00e+00	0	38	0	342884352	63	4379
2026-01-19 08:37:52.34	119.78	21.39	-46.3	-47.8	19.6	0.00e+00	0	37	0	351272960	63	4457
2026-01-19 08:37:56.37	119.42	21.92	-46.6	-48.1	19.2	0.00e+00	0	38	0	358612992	63	4649
2026-01-19 08:38:00.40	119.06	22.46	-46.8	-48.3	19.1	0.00e+00	0	37	0	365953024	64	4476
2026-01-19 08:38:04.43	118.67	23.02	-46.9	-48.5	18.8	0.00e+00	0	37	0	373293056	64	4567
2026-01-19 08:38:08.46	118.28	23.58	-47.1	-48.8	18.6	0.00e+00	0	38	0	380633088	64	4715
2026-01-19 08:38:12.50	117.87	24.16	-47.4	-49.2	18.2	0.00e+00	0	38	0	389021696	65	4658
2026-01-19 08:38:16.53	117.44	24.74	-47.5	-49.3	18.1	0.00e+00	0	38	0	396361728	65	4727
2026-01-19 08:38:20.56	117.00	25.34	-47.4	-49.2	18.2	0.00e+00	0	37	0	403701760	65	4670
2026-01-19 08:38:24.59	116.54	25.94	-47.8	-49.6	17.7	0.00e+00	0	37	0	411041792	66	4626
2026-01-19 08:38:28.63	116.06	26.57	-48.0	-49.9	17.5	0.00e+00	0	38	0	418381824	66	4787
2026-01-19 08:38:32.66	115.56	27.20	-48.2	-50.1	17.3	0.00e+00	0	38	0	426770432	66	4917
2026-01-19 08:38:36.69	115.04	27.84	-48.3	-50.3	17.2	0.00e+00	0	38	0	434110464	67	4712
2026-01-19 08:38:40.72	114.50	28.50	-48.5	-50.6	16.8	0.00e+00	0	38	0	441450496	67	4907
2026-01-19 08:38:44.75	113.93	29.17	-48.3	-50.3	17.2	0.00e+00	0	38	0	448790528	67	4718
2026-01-19 08:38:48.78	113.34	29.85	-47.9	-49.7	17.7	0.00e+00	0	37	0	457179136	67	4434
2026-01-19 08:38:52.82	112.73	30.55	-47.8	-49.7	17.8	0.00e+00	0	37	0	464519168	67	4418
2026-01-19 08:38:56.85	112.08	31.26	-48.1	-50.0	17.4	0.00e+00	0	37	0	471859200	67	4595
2026-01-19 08:39:00.88	111.41	31.98	-48.2	-50.2	17.3	0.00e+00	0	37	0	479199232	67	4692
2026-01-19 08:39:04.91	110.71	32.71	-48.5	-50.6	16.9	0.00e+00	0	37	0	486539264	67	4916
2026-01-19 08:39:08.94	109.97	33.46	-48.7	-50.8	16.8	0.00e+00	0	38	0	493879296	68	4740
2026-01-19 08:39:12.97	109.19	34.22	-49.4	-51.9	15.7	0.00e+00	0	37	0	502267904	69	5054
2026-01-19 08:39:17.00	108.38	34.99	-49.4	-51.9	15.7	0.00e+00	0	38	0	509607936	69	5056
2026-01-19 08:39:21.03	107.53	35.78	-49.4	-51.9	15.8	0.00e+00	0	37	0	516947968	69	5042
2026-01-19 08:39:25.06	106.64	36.58	-49.1	-51.4	16.2	0.00e+00	0	38	0	524288000	69	4793
2026-01-19 08:39:29.10	105.69	37.39	-48.8	-51.0	16.6	0.00e+00	0	38	0	532676608	69	4572
2026-01-19 08:39:33.13	104.71	38.20	-48.6	-50.6	17.0	0.00e+00	0	38	0	540016640	68	4624
2026-01-19 08:39:37.17	103.66	39.03	-49.0	-51.2	16.4	0.00e+00	0	38	0	547356672	68	4972
2026-01-19 08:39:41.20	102.57	39.87	-49.4	-51.9	15.8	0.00e+00	0	38	0	554696704	69	5050
2026-01-19 08:39:45.23	101.41	40.72	-49.2	-51.6	16.0	0.00e+00	0	38	0	562036736	69	4887
2026-01-19 08:39:49.26	100.19	41.57	-48.8	-51.0	16.7	0.00e+00	0	38	0	570425344	69	4575
2026-01-19 08:39:53.29	98.91	42.42	-48.6	-50.6	17.1	0.00e+00	0	38	0	577765376	69	4383
2026-01-19 08:39:57.32	97.56	43.28	-48.6	-50.7	17.0	0.00e+00	0	38	0	585105408	68	4689
2026-01-19 08:40:01.35	96.13	44.14	-49.1	-51.3	16.4	0.00e+00	0	38	0	592445440	69	4751
2026-01-19 08:40:05.38	94.62	44.99	-48.9	-51.1	16.6	0.00e+00	0	38	0	600834048	69	4630
2026-01-19 08:40:09.41	93.02	45.84	-49.0	-51.2	16.5	0.00e+00	0	38	0	608174080	69	4658
2026-01-19 08:40:13.44	91.34	46.68	-49.4	-51.9	15.8	0.00e+00	0	38	0	615514112	69	5065
2026-01-19 08:40:17.47	89.57	47.51	-48.7	-50.8	16.9	0.00e+00	0	38	0	622854144	69	4452
2026-01-19 08:40:21.50	87.70	48.32	-48.5	-50.6	17.2	0.00e+00	0	38	0	630194176	68	4599
2026-01-19 08:40:25.53	85.73	49.12	-47.8	-49.5	18.1	0.00e+00	0	38	0	637534208	67	4333
2026-01-19 08:40:29.56	83.66	49.89	-46.9	-48.5	19.0	0.00e+00	0	38	0	645922816	65	4310
2026-01-19 08:40:33.59	81.48	50.62	-46.4	-47.8	19.8	0.00e+00	0	38	0	653262848	64	4223
2026-01-19 08:40:37.62	79.19	51.33	-46.9	-48.5	19.1	0.00e+00	0	37	0	660602880	64	4549
2026-01-19 08:40:41.66	76.79	51.99	-46.8	-48.3	19.4	0.00e+00	0	38	0	667942912	64	4443
2026-01-19 08:40:45.68	74.30	52.61	-47.3	-48.9	18.7	0.00e+00	0	38	0	676331520	65	4521
2026-01-19 08:40:49.71	71.70	53.17	-46.6	-48.1	19.6	0.00e+00	0	38	0	683671552	65	4109
2026-01-19 08:40:53.75	68.99	53.68	-46.0	-47.3	20.5	0.00e+00	0	38	0	691011584	63	4196
2026-01-19 08:40:57.78	66.20	54.13	-45.5	-46.7	21.0	0.00e+00	0	38	0	698351616	62	4191
2026-01-19 08:41:01.81	63.33	54.51	-44.7	-45.8	21.8	0.00e+00	0	37	0	705691648	61	3995
2026-01-19 08:41:05.84	60.39	54.81	-44.1	-45.2	22.4	0.00e+00	0	38	0	714080256	60	3920
2026-01-19 08:41:09.87	57.39	55.04	-44.2	-45.2	22.7	0.00e+00	0	38	0	721420288	59	4191
2026-01-19 08:41:13.90	54.35	55.19	-44.4	-45.4	22.5	0.00e+00	0	38	0	728760320	59	4274
2026-01-19 08:41:17.93	51.29	55.27	-44.6	-45.7	21.9	0.00e+00	0	38	0	736100352	60	4176
2026-01-19 08:41:21.96	48.22	55.26	-45.0	-46.1	21.6	0.00e+00	0	38	0	743440384	60	4372
2026-01-19 08:41:25.99	45.16	55.16	-44.5	-45.6	22.1	0.00e+00	0	38	0	751828992	60	4114
2026-01-19 08:41:30.02	42.13	54.99	-44.3	-45.3	22.6	0.00e+00	0	38	0	759169024	59	4227
2026-01-19 08:41:34.05	39.15	54.74	-43.8	-44.8	23.1	0.00e+00	0	38	0	766509056	59	3964
2026-01-19 08:41:38.08	36.23	54.42	-43.6	-44.6	23.2	0.00e+00	0	38	0	773849088	59	3882
2026-01-19 08:41:42.11	33.37	54.03	-44.4	-45.4	22.5	0.00e+00	0	38	0	781189120	59	4272
2026-01-19 08:41:46.14	30.61	53.57	-45.2	-46.4	21.3	0.00e+00	0	38	0	789577728	61	4250
2026-01-19 08:41:50.17	27.93	53.05	-45.8	-47.1	20.7	0.00e+00	0	38	0	796917760	62	4347
2026-01-19 08:41:54.20	25.36	52.47	-45.8	-47.0	20.7	0.00e+00	0	38	0	804257792	62	4329
2026-01-19 08:41:58.23	22.89	51.84	-45.8	-47.1	20.7	0.00e+00	0	38	0	811597824	62	4346
2026-01-19 08:42:02.26	20.52	51.17	-46.2	-47.5	20.3	0.00e+00	0	38	0	819986432	63	4331
2026-01-19 08:42:06.29	18.26	50.46	-46.9	-48.4	19.4	0.00e+00	0	38	0	827326464	64	4521
2026-01-19 08:42:10.32	16.11	49.71	-47.5	-49.1	18.7	0.00e+00	0	38	0	834666496	65	4619
2026-01-19 08:42:14.35	14.07	48.94	-49.3	-51.6	16.3	0.00e+00	0	38	0	842006528	69	4899
2026-01-19 08:42:18.38	12.12	48.15	-49.9	-52.6	15.3	0.00e+00	0	38	0	849346560	70	5200
2026-01-19 08:42:22.41	10.28	47.33	-50.7	-54.0	13.9	0.00e+00	0	38	0	856686592	71	5728
2026-01-19 08:42:26.44	8.53	46.50	-48.9	-51.0	16.8	0.00e+00	0	38	0	865075200	69	4591
2026-01-19 08:42:30.47	6.87	45.66	-49.5	-51.9	16.0	0.00e+00	0	38	0	872415232	69	5058
2026-01-19 08:42:34.50	5.30	44.81	-48.5	-50.5	17.4	0.00e+00	0	38	0	879755264	68	4578
2026-01-19 08:42:38.53	3.82	43.96	-48.8	-50.9	17.0	0.00e+00	0	38	0	887095296	68	4790
2026-01-19 08:42:42.56	2.41	43.10	-48.4	-50.3	17.5	0.00e+00	0	38	0	895483904	68	4489
2026-01-19 08:42:46.59	1.07	42.25	-49.1	-51.3	16.6	0.00e+00	0	38	0	902823936	68	4999
2026-01-19 08:42:50.63	359.81	41.39	-49.4	-51.8	16.0	0.00e+00	0	38	0	910163968	69	5020
2026-01-19 08:42:54.66	358.61	40.55	-49.3	-51.7	16.2	0.00e+00	0	38	0	917504000	69	4931
2026-01-19 08:42:58.69	357.47	39.71	-49.1	-51.3	16.4	0.00e+00	0	38	0	924844032	69	4754
2026-01-19 08:43:02.72	356.39	38.87	-48.9	-51.1	16.8	0.00e+00	0	38	0	933232640	69	4604
2026-01-19 08:43:06.75	355.36	38.05	-48.9	-51.1	16.7	0.00e+00	0	38	0	940572672	69	4599
2026-01-19 08:43:10.78	354.39	37.24	-49.0	-51.2	16.6	0.00e+00	0	38	0	947912704	69	4671
2026-01-19 08:43:14.81	353.46	36.43	-48.7	-50.8	16.9	0.00e+00	0	38	0	955252736	69	4464
2026-01-19 08:43:18.84	352.58	35.64	-48.4	-50.3	17.5	0.00e+00	0	38	0	962592768	68	4458
2026-01-19 08:43:22.87	351.74	34.86	-48.7	-50.7	16.9	0.00e+00	0	38	0	970981376	68	4690
2026-01-19 08:43:26.90	350.94	34.09	-49.2	-51.5	16.2	0.00e+00	0	38	0	978321408	69	4838
2026-01-19 08:43:30.93	350.17	33.34	-48.8	-50.9	16.8	0.00e+00	0	38	0	985661440	69	4505
2026-01-19 08:43:34.96	349.44	32.60	-49.0	-51.2	16.6	0.00e+00	0	38	0	993001472	69	4700
2026-01-19 08:43:38.99	348.75	31.87	-49.2	-51.5	16.2	0.00e+00	0	38	0	1000341504	69	4855
2026-01-19 08:43:43.02	348.08	31.15	-49.7	-52.4	15.4	0.00e+00	0	38	0	1008730112	69	5341
2026-01-19 08:43:47.05	347.45	30.45	-49.2	-51.5	16.2	0.00e+00	0	38	0	1016070144	70	4572
2026-01-19 08:43:51.09	346.84	29.76	-48.9	-51.1	16.6	0.00e+00	0	38	0	1023410176	69	4638
2026-01-19 08:43:55.12	346.26	29.08	-48.8	-51.0	16.7	0.00e+00	0	38	0	1030750208	69	4562
2026-01-19 08:43:59.14	345.70	28.42	-48.5	-50.6	17.1	0.00e+00	0	38	0	1039138816	69	4357
2026-01-19 08:44:03.18	345.17	27.76	-48.4	-50.4	17.3	0.00e+00	0	38	0	1046478848	68	4509
2026-01-19 08:44:07.21	344.65	27.12	-48.2	-50.1	17.5	0.00e+00	0	38	0	1053818880	68	4374
2026-01-19 08:44:11.24	344.16	26.49	-47.7	-49.5	18.0	0.00e+00	0	38	0	1061158912	67	4319
2026-01-19 08:44:15.27	343.69	25.88	-47.6	-49.3	18.2	0.00e+00	0	38	0	1068498944	67	4232
2026-01-19 08:44:19.30	343.23	25.28	-47.4	-49.2	18.3	0.00e+00	0	38	0	1076887552	66	4394
2026-01-19 08:44:23.33	342.80	24.68	-47.3	-48.9	18.5	0.00e+00	0	38	0	1084227584	66	4283
2026-01-19 08:44:27.37	342.37	24.10	-47.1	-48.8	18.7	0.00e+00	0	38	0	1091567616	66	4210
2026-01-19 08:44:31.40	341.97	23.53	-47.6	-49.4	18.0	0.00e+00	0	38	0	1098907648	66	4521
2026-01-19 08:44:35.43	341.58	22.97	-47.6	-49.5	18.0	0.00e+00	0	38	0	1106247680	66	4546
2026-01-19 08:44:39.46	341.20	22.42	-47.5	-49.3	18.1	0.00e+00	0	38	0	1114636288	66	4485
2026-01-19 08:44:43.49	340.84	21.89	-47.3	-48.9	18.4	0.00e+00	0	38	0	1121976320	66	4291
2026-01-19 08:44:47.53	340.49	21.36	-47.3	-49.0	18.3	0.00e+00	0	38	0	1129316352	66	4327
2026-01-19 08:44:51.56	340.15	20.84	-47.0	-48.6	18.7	0.00e+00	0	38	0	1136656384	65	4385
2026-01-19 08:44:55.59	339.83	20.33	-46.9	-48.5	18.8	0.00e+00	0	38	0	1143996416	65	4308
2026-01-19 08:44:59.62	339.51	19.83	-46.8	-48.4	18.9	0.00e+00	0	38	0	1152385024	65	4284
2026-01-19 08:45:03.65	339.21	19.34	-46.9	-48.5	18.8	0.00e+00	0	38	0	1159725056	65	4324
2026-01-19 08:45:07.68	338.91	18.86	-47.0	-48.6	18.7	0.00e+00	0	38	0	1167065088	65	4376
2026-01-19 08:45:11.72	338.63	18.38	-47.1	-48.7	18.6	0.00e+00	0	38	0	1174405120	65	4426
2026-01-19 08:45:15.75	338.35	17.91	-47.0	-48.7	18.5	0.00e+00	0	38	0	1182793728	65	4417
2026-01-19 08:45:19.78	338.08	17.46	-47.1	-48.8	18.4	0.00e+00	0	38	0	1190133760	65	4487
2026-01-19 08:45:23.81	337.83	17.01	-47.2	-48.9	18.3	0.00e+00	0	38	0	1197473792	65	4510
2026-01-19 08:45:27.84	337.57	16.56	-47.2	-48.9	18.3	0.00e+00	0	38	0	1204813824	65	4510
2026-01-19 08:45:31.88	337.33	16.13	-47.2	-49.0	18.2	0.00e+00	0	38	0	1212153856	65	4557
2026-01-19 08:45:35.92	337.09	15.70	-47.3	-49.1	18.1	0.00e+00	0	38	0	1220542464	65	4639
2026-01-19 08:45:39.95	336.87	15.28	-47.3	-49.1	18.1	0.00e+00	0	38	0	1227882496	65	4624
2026-01-19 08:45:43.98	336.64	14.86	-47.4	-49.2	18.0	0.00e+00	0	38	0	1235222528	65	4675
2026-01-19 08:45:48.01	336.43	14.46	-47.4	-49.2	17.9	0.00e+00	0	38	0	1242562560	65	4696
2026-01-19 08:45:52.04	336.22	14.05	-47.5	-49.4	17.8	0.00e+00	0	38	0	1249902592	65	4773
2026-01-19 08:45:56.07	336.02	13.66	-47.8	-49.7	17.4	0.00e+00	0	38	0	1258291200	66	4691
2026-01-19 08:46:00.10	335.82	13.27	-47.9	-49.9	17.2	0.00e+00	0	38	0	1265631232	66	4762
2026-01-19 08:46:04.13	335.63	12.88	-47.9	-50.0	17.1	0.00e+00	0	38	0	1272971264	66	4825
2026-01-19 08:46:08.16	335.44	12.51	-48.0	-50.1	17.0	0.00e+00	0	38	0	1280311296	66	4887
2026-01-19 08:46:12.20	335.26	12.13	-47.8	-49.8	17.2	0.00e+00	0	38	0	1287651328	66	4724
2026-01-19 08:46:16.23	335.08	11.77	-47.8	-49.8	17.2	0.00e+00	0	38	0	1296039936	66	4748
2026-01-19 08:46:20.26	334.91	11.40	-47.8	-49.9	17.1	0.00e+00	0	38	0	1303379968	66	4766
2026-01-19 08:46:24.29	334.74	11.05	-47.9	-50.0	16.9	0.00e+00	0	38	0	1310720000	66	4839
2026-01-19 08:46:28.32	334.58	10.69	-48.1	-50.3	16.6	0.00e+00	0	38	0	1318060032	66	5011
2026-01-19 08:46:32.35	334.42	10.35	-48.3	-50.6	16.3	0.00e+00	0	38	0	1326448640	67	4898
2026-01-19 08:46:36.38	334.27	10.00	-48.4	-50.7	16.1	0.00e+00	0	38	0	1333788672	67	4972
2026-01-19 08:46:40.41	334.12	9.66	-48.6	-51.0	15.9	0.00e+00	0	38	0	1341128704	67	5107
2026-01-19 08:46:44.45	333.97	9.33	-48.7	-51.2	15.7	0.00e+00	0	38	0	1348468736	67	5225
2026-01-19 08:46:48.48	333.82	9.00	-48.8	-51.4	15.5	0.00e+00	0	38	0	1355808768	68	5064
2026-01-19 08:46:52.51	333.68	8.67	-49.0	-51.7	15.2	0.00e+00	0	38	0	1363148800	68	5232
2026-01-19 08:46:56.54	333.55	8.35	-48.9	-51.5	15.3	0.00e+00	0	38	0	1371537408	68	5152
2026-01-19 08:47:00.57	333.42	8.03	-48.9	-51.5	15.3	0.00e+00	0	38	0	1378877440	68	5136
2026-01-19 08:47:04.60	333.29	7.72	-49.0	-51.7	15.1	0.00e+00	0	38	0	1386217472	68	5225
2026-01-19 08:47:08.63	333.16	7.41	-49.0	-51.7	15.0	0.00e+00	0	38	0	1393557504	68	5258
2026-01-19 08:47:12.66	333.04	7.10	-49.0	-51.8	15.0	0.00e+00	0	38	0	1401946112	68	5296
2026-01-19 08:47:16.69	332.92	6.80	-49.1	-51.9	14.8	0.00e+00	0	38	0	1409286144	69	5067
2026-01-19 08:47:20.73	332.80	6.50	-49.0	-51.8	14.9	0.00e+00	0	38	0	1416626176	69	4995
2026-01-19 08:47:24.75	332.68	6.20	-48.9	-51.6	14.9	0.00e+00	0	38	0	1423966208	69	4920
2026-01-19 08:47:28.78	332.57	5.91	-49.1	-52.0	14.5	0.00e+00	0	38	0	1431306240	69	5138
2026-01-19 08:47:32.82	332.46	5.62	-49.1	-52.1	14.4	0.00e+00	0	38	0	1439694848	69	5185
2026-01-19 08:47:36.85	332.35	5.33	-49.1	-52.1	14.4	2.20e-06	0	38	0	1447034880	69	5165
2026-01-19 08:47:40.88	332.25	5.04	-49.2	-52.3	14.1	7.00e-07	0	38	0	1454374912	69	5305
2026-01-19 08:47:44.91	332.14	4.76	-53.3	-68.3	3.8	1.49e+00	0	38	104	1456472064	77	21158
2026-01-19 08:47:48.94	332.04	4.48	-53.8	-68.8	3.8	1.49e+00	0	38	104	1456472064	78	21143
2026-01-19 08:47:52.97	331.95	4.21	-54.0	-69.0	3.8	1.49e+00	0	38	104	1456472064	78	21724
2026-01-19 08:47:57.01	331.85	3.93	-54.1	-69.2	3.8	1.49e+00	0	38	104	1456472064	78	22012
2026-01-19 08:48:01.04	331.76	3.66	-54.1	-69.2	3.8	1.49e+00	0	38	104	1456472064	78	22073
2026-01-19 08:48:05.07	331.66	3.40	-54.1	-69.1	3.8	1.49e+00	0	38	104	1456472064	78	21933
2026-01-19 08:48:09.10	331.57	3.13	-54.1	-69.1	3.8	1.49e+00	0	38	104	1456472064	78	21841
2026-01-19 08:48:13.13	331.48	2.87	-54.1	-69.1	3.8	1.49e+00	0	38	104	1456472064	78	21756
2026-01-19 08:48:17.16	331.40	2.61	-54.0	-69.0	3.8	1.49e+00	0	38	104	1456472064	78	21753
2026-01-19 08:48:21.20	331.31	2.35	-54.0	-69.0	3.8	1.49e+00	0	38	104	1456472064	78	21713
2026-01-19 08:48:25.23	331.23	2.09	-54.0	-69.0	3.8	1.49e+00	0	38	104	1456472064	78	21703

#Closed at: 2026-01-19 08:48:28
#Recorded file [1456 MB]: D:/lorett/data/31041_260119_113414.dat