passes_logs/2026/01/19/R3.2S_Murmansk/R3.2S_Murmansk__20260119_143627_AQUA_rec.log

#Pass ID: 20260119_143627_AQUA
#Satellite: AQUA
#Configuration: AQUA
#almurnet v.1.7.20251203
#Start time: 2026-01-19 14:36:27

#Version: 2.2.20231116
#Station: R3.2S_Murmansk
#Location: 33.079688 lon 68.888172 lat
#TLE: 1 27424U 02022A   26019.27629806  .00001032  00000+0  21655-3 0  9990
#TLE: 2 27424  98.4090 345.7756 0001997  73.0764  31.8912 14.61830109261513

#Time	Az	El	Level	Level2	SNR	BER	BlckErr	Temp	State	Recorded	gain1	gain2
2026-01-19 14:36:27.25	243.85	2.00	-53.8	-65.7	3.8	8.46e-01	0	33	0	0	78	14852
2026-01-19 14:36:30.28	244.19	2.13	-54.2	-71.9	3.8	7.44e-01	0	34	104	0	78	30376
2026-01-19 14:36:33.30	244.54	2.27	-54.2	-72.0	3.8	7.44e-01	0	35	104	0	78	30501
2026-01-19 14:36:36.33	244.89	2.40	-54.2	-72.0	3.8	7.44e-01	0	35	104	0	78	30584
2026-01-19 14:36:39.35	245.25	2.54	-54.2	-72.0	3.8	7.43e-01	0	35	104	0	78	30471
2026-01-19 14:36:42.38	245.61	2.67	-54.2	-72.0	3.8	7.42e-01	0	35	104	0	78	30473
2026-01-19 14:36:45.40	245.97	2.81	-54.2	-71.9	3.8	7.49e-01	0	35	104	0	78	30177
2026-01-19 14:36:48.42	246.34	2.94	-54.2	-71.9	3.8	7.46e-01	0	35	104	0	78	30328
2026-01-19 14:36:51.45	246.71	3.07	-54.2	-71.8	3.8	7.43e-01	0	35	104	0	78	29870
2026-01-19 14:36:54.47	247.08	3.21	-54.2	-71.9	3.8	7.50e-01	0	35	104	0	78	30092
2026-01-19 14:36:57.49	247.46	3.34	-54.2	-71.8	3.8	7.48e-01	0	36	104	0	78	29708
2026-01-19 14:37:00.52	247.84	3.47	-54.2	-71.6	3.8	7.48e-01	0	36	104	0	78	29102
2026-01-19 14:37:03.55	248.22	3.61	-54.2	-71.4	3.8	7.49e-01	0	36	104	0	78	28490
2026-01-19 14:37:06.58	248.61	3.74	-54.2	-71.9	3.8	7.46e-01	0	36	104	0	78	30098
2026-01-19 14:37:09.60	249.00	3.87	-54.2	-71.6	3.8	7.45e-01	0	36	104	0	78	29035
2026-01-19 14:37:12.62	249.40	4.01	-54.2	-71.9	3.8	7.46e-01	0	36	104	0	78	30195
2026-01-19 14:37:15.65	249.80	4.14	-54.2	-72.0	3.8	7.47e-01	0	36	104	0	78	30393
2026-01-19 14:37:18.67	250.20	4.27	-54.2	-71.5	3.8	7.44e-01	0	36	104	0	78	28986
2026-01-19 14:37:21.69	250.60	4.40	-54.1	-71.2	3.8	7.45e-01	0	36	104	0	78	28026
2026-01-19 14:37:24.72	251.02	4.53	-54.2	-71.8	3.8	7.48e-01	0	36	104	0	78	29873
2026-01-19 14:37:27.74	251.43	4.66	-53.6	-62.8	7.8	6.47e-01	184	36	0	0	78	10546
2026-01-19 14:37:30.77	251.85	4.79	-52.5	-57.9	12.9	6.12e-01	0	36	0	5767168	77	6411
2026-01-19 14:37:33.79	252.27	4.92	-49.8	-52.5	18.6	6.04e-01	0	37	0	11534336	71	4830
2026-01-19 14:37:36.81	252.69	5.05	-50.3	-53.2	17.9	6.08e-01	0	37	0	17301504	71	5271
2026-01-19 14:37:39.84	253.13	5.18	-49.3	-51.7	19.4	6.07e-01	0	37	0	22544384	70	4684
2026-01-19 14:37:42.86	253.56	5.30	-47.8	-49.7	21.4	6.07e-01	0	36	0	28311552	67	4409
2026-01-19 14:37:45.89	254.00	5.43	-47.6	-49.3	21.8	6.09e-01	0	37	0	34078720	66	4492
2026-01-19 14:37:48.91	254.44	5.56	-47.5	-49.3	21.8	6.06e-01	0	37	0	39845888	66	4442
2026-01-19 14:37:51.93	254.88	5.68	-47.5	-49.3	21.8	6.05e-01	0	37	0	45613056	66	4476
2026-01-19 14:37:54.96	255.34	5.81	-47.6	-49.4	21.7	6.06e-01	0	37	0	51380224	66	4519
2026-01-19 14:37:57.98	255.79	5.93	-47.6	-49.4	21.7	6.06e-01	0	37	0	56623104	66	4524
2026-01-19 14:38:01.01	256.25	6.06	-47.5	-49.2	21.9	6.09e-01	0	37	0	62390272	66	4425
2026-01-19 14:38:04.03	256.71	6.18	-47.5	-49.3	21.9	6.05e-01	0	37	0	68157440	66	4452
2026-01-19 14:38:07.05	257.17	6.30	-47.3	-49.0	22.2	6.07e-01	0	37	0	73924608	66	4315
2026-01-19 14:38:10.08	257.65	6.42	-47.3	-49.0	22.2	6.08e-01	0	37	0	79691776	66	4340
2026-01-19 14:38:13.10	258.12	6.54	-47.2	-48.9	22.3	6.08e-01	0	37	0	84934656	66	4283
2026-01-19 14:38:16.12	258.60	6.66	-47.5	-49.3	21.9	6.06e-01	0	37	0	90701824	66	4462
2026-01-19 14:38:19.14	259.08	6.78	-47.2	-48.9	22.3	6.04e-01	0	37	0	96468992	66	4281
2026-01-19 14:38:22.17	259.57	6.90	-47.1	-48.8	22.4	6.07e-01	0	37	0	102236160	66	4213
2026-01-19 14:38:25.19	260.06	7.01	-47.4	-49.1	22.2	6.07e-01	0	37	0	108003328	66	4378
2026-01-19 14:38:28.21	260.55	7.13	-47.0	-48.7	22.6	6.05e-01	0	37	0	113246208	66	4147
2026-01-19 14:38:31.24	261.05	7.24	-47.2	-48.9	22.4	6.08e-01	0	37	0	119013376	65	4516
2026-01-19 14:38:34.26	261.55	7.35	-47.0	-48.6	22.7	6.04e-01	0	37	0	124780544	65	4370
2026-01-19 14:38:37.28	262.06	7.47	-46.9	-48.5	22.7	6.05e-01	0	37	0	130547712	65	4298
2026-01-19 14:38:40.30	262.57	7.58	-47.1	-48.8	22.5	6.06e-01	0	37	0	136314880	65	4458
2026-01-19 14:38:43.32	263.09	7.68	-47.1	-48.7	22.6	6.06e-01	0	37	0	141557760	65	4419
2026-01-19 14:38:46.35	263.61	7.79	-47.0	-48.6	22.7	6.04e-01	0	37	0	147324928	65	4391
2026-01-19 14:38:49.37	264.13	7.90	-47.1	-48.7	22.7	6.05e-01	0	37	0	153092096	65	4407
2026-01-19 14:38:52.39	264.66	8.00	-47.0	-48.6	22.7	6.08e-01	0	37	0	158859264	65	4388
2026-01-19 14:38:55.42	265.19	8.11	-46.8	-48.4	22.9	6.06e-01	0	37	0	164626432	65	4261
2026-01-19 14:38:58.44	265.72	8.21	-46.7	-48.2	23.1	6.07e-01	0	37	0	169869312	65	4166
2026-01-19 14:39:01.47	266.26	8.31	-46.7	-48.3	22.9	6.05e-01	0	37	0	175636480	65	4202
2026-01-19 14:39:04.49	266.81	8.41	-46.9	-48.5	22.5	6.05e-01	0	37	0	181403648	65	4322
2026-01-19 14:39:07.51	267.35	8.50	-48.5	-50.8	20.1	6.07e-01	0	37	0	187170816	67	5002
2026-01-19 14:39:10.54	267.90	8.60	-49.7	-52.7	17.7	6.06e-01	0	37	0	192937984	69	5554
2026-01-19 14:39:13.56	268.46	8.69	-50.7	-55.1	15.0	6.06e-01	0	37	0	198705152	71	6532
2026-01-19 14:39:16.59	269.02	8.78	-51.7	-58.1	11.5	6.14e-01	0	37	0	203948032	74	7742
2026-01-19 14:39:19.61	269.58	8.87	-49.8	-53.2	16.8	6.06e-01	0	37	0	209715200	71	5238
2026-01-19 14:39:22.63	270.14	8.96	-49.3	-52.0	18.4	6.05e-01	0	37	0	215482368	70	4851
2026-01-19 14:39:25.65	270.71	9.04	-47.9	-49.8	21.3	6.08e-01	0	37	0	221249536	67	4449
2026-01-19 14:39:28.68	271.28	9.13	-46.9	-48.5	22.8	6.07e-01	0	37	0	227016704	65	4320
2026-01-19 14:39:31.70	271.86	9.21	-46.9	-48.4	22.9	6.06e-01	0	37	0	232259584	65	4287
2026-01-19 14:39:34.72	272.43	9.29	-46.5	-48.0	23.4	6.05e-01	0	37	0	238026752	64	4307
2026-01-19 14:39:37.75	273.02	9.36	-46.5	-48.0	23.4	6.07e-01	0	37	0	243793920	64	4320
2026-01-19 14:39:40.77	273.60	9.44	-46.4	-47.9	23.5	6.06e-01	0	37	0	249561088	64	4258
2026-01-19 14:39:43.80	274.19	9.51	-46.7	-48.2	23.2	6.06e-01	0	37	0	255328256	64	4409
2026-01-19 14:39:46.82	274.78	9.58	-46.4	-47.9	23.5	6.05e-01	0	37	0	260571136	64	4258
2026-01-19 14:39:49.84	275.37	9.65	-46.6	-48.1	23.3	6.04e-01	0	37	0	266338304	64	4347
2026-01-19 14:39:52.87	275.97	9.72	-46.4	-47.9	23.5	6.05e-01	0	37	0	272105472	64	4280
2026-01-19 14:39:55.89	276.57	9.78	-46.3	-47.8	23.6	6.05e-01	0	37	0	277872640	64	4217
2026-01-19 14:39:58.91	277.17	9.84	-46.4	-47.9	23.5	6.06e-01	0	37	0	283639808	64	4253
2026-01-19 14:40:01.94	277.78	9.90	-46.4	-47.9	23.6	6.07e-01	0	37	0	288882688	64	4251
2026-01-19 14:40:04.96	278.39	9.95	-46.4	-47.9	23.5	6.04e-01	0	37	0	295174144	64	4270
2026-01-19 14:40:07.98	278.99	10.01	-46.3	-47.7	23.7	6.05e-01	0	37	0	300417024	64	4193
2026-01-19 14:40:11.01	279.61	10.06	-46.5	-47.9	23.5	6.05e-01	0	37	0	306184192	64	4281
2026-01-19 14:40:14.03	280.22	10.11	-46.4	-47.9	23.6	6.09e-01	0	37	0	311951360	64	4269
2026-01-19 14:40:17.06	280.84	10.15	-46.5	-48.0	23.5	6.05e-01	0	37	0	317718528	64	4308
2026-01-19 14:40:20.08	281.46	10.20	-46.4	-47.9	23.6	6.05e-01	0	37	0	323485696	64	4252
2026-01-19 14:40:23.11	282.08	10.24	-46.6	-48.1	23.5	6.06e-01	0	37	0	328728576	64	4348
2026-01-19 14:40:26.13	282.70	10.27	-46.5	-48.0	23.6	6.05e-01	0	37	0	334495744	64	4305
2026-01-19 14:40:29.15	283.32	10.31	-46.6	-48.1	23.4	6.09e-01	0	37	0	340262912	64	4365
2026-01-19 14:40:32.18	283.95	10.34	-46.5	-47.9	23.6	6.08e-01	0	37	0	346030080	64	4273
2026-01-19 14:40:35.20	284.57	10.37	-46.7	-48.2	23.4	6.05e-01	0	37	0	351797248	64	4414
2026-01-19 14:40:38.23	285.20	10.39	-46.6	-48.1	23.6	6.04e-01	0	37	0	357040128	64	4346
2026-01-19 14:40:41.25	285.83	10.42	-46.6	-48.1	23.5	6.05e-01	0	37	0	362807296	64	4372
2026-01-19 14:40:44.27	286.45	10.44	-46.8	-48.3	23.4	6.06e-01	0	37	0	368574464	64	4467
2026-01-19 14:40:47.30	287.09	10.46	-46.5	-48.0	23.6	6.06e-01	0	37	0	374341632	64	4306
2026-01-19 14:40:50.32	287.72	10.47	-46.6	-48.1	23.6	6.08e-01	0	37	0	380108800	64	4345
2026-01-19 14:40:53.34	288.35	10.48	-46.6	-48.1	23.6	6.05e-01	0	37	0	385351680	64	4358
2026-01-19 14:40:56.37	288.98	10.49	-46.6	-48.0	23.7	6.09e-01	0	37	0	391118848	64	4336
2026-01-19 14:40:59.40	289.61	10.50	-46.6	-48.0	23.7	6.05e-01	0	37	0	396886016	64	4322
2026-01-19 14:41:02.43	290.25	10.50	-46.6	-48.0	23.7	6.06e-01	0	37	0	402653184	64	4321
2026-01-19 14:41:05.45	290.88	10.50	-46.7	-48.1	23.6	6.05e-01	0	37	0	408420352	64	4385
2026-01-19 14:41:08.47	291.51	10.50	-46.8	-48.3	23.4	6.08e-01	0	37	0	414187520	64	4467
2026-01-19 14:41:11.49	292.14	10.49	-46.8	-48.3	23.4	6.03e-01	0	37	0	419430400	64	4457
2026-01-19 14:41:14.52	292.77	10.48	-46.8	-48.3	23.5	6.02e-01	0	37	0	425197568	64	4447
2026-01-19 14:41:17.54	293.40	10.47	-46.7	-48.1	23.6	6.03e-01	0	37	0	430964736	64	4391
2026-01-19 14:41:20.56	294.03	10.46	-46.8	-48.2	23.5	6.02e-01	0	37	0	436731904	64	4438
2026-01-19 14:41:23.59	294.66	10.44	-46.8	-48.3	23.5	6.02e-01	0	37	0	442499072	64	4472
2026-01-19 14:41:26.61	295.29	10.42	-46.7	-48.1	23.6	5.99e-01	0	37	0	447741952	64	4386
2026-01-19 14:41:29.63	295.92	10.40	-46.6	-48.1	23.7	6.04e-01	0	37	0	453509120	64	4348
2026-01-19 14:41:32.66	296.54	10.37	-46.7	-48.2	23.6	6.02e-01	0	37	0	459276288	64	4400
2026-01-19 14:41:35.68	297.17	10.34	-46.6	-48.1	23.7	6.03e-01	0	37	0	465043456	64	4343
2026-01-19 14:41:38.71	297.79	10.31	-46.8	-48.2	23.6	6.02e-01	0	37	0	470810624	64	4427
2026-01-19 14:41:41.73	298.42	10.28	-46.6	-48.0	23.7	6.01e-01	0	37	0	476053504	64	4336
2026-01-19 14:41:44.75	299.04	10.24	-46.6	-48.1	23.7	6.03e-01	0	37	0	481820672	64	4344
2026-01-19 14:41:47.76	299.65	10.20	-46.6	-48.1	23.6	6.01e-01	0	37	0	487587840	64	4359
2026-01-19 14:41:50.78	300.27	10.16	-46.7	-48.1	23.6	5.99e-01	0	37	0	493355008	64	4370
2026-01-19 14:41:53.81	300.88	10.11	-46.6	-48.1	23.7	6.00e-01	0	37	0	499122176	64	4349
2026-01-19 14:41:56.83	301.50	10.06	-46.5	-48.0	23.7	6.01e-01	0	37	0	504365056	64	4306
2026-01-19 14:41:59.86	302.11	10.01	-46.7	-48.2	23.5	6.03e-01	0	37	0	510132224	64	4405
2026-01-19 14:42:02.88	302.72	9.96	-46.6	-48.0	23.6	6.03e-01	0	37	0	515899392	64	4338
2026-01-19 14:42:05.91	303.32	9.90	-46.6	-48.1	23.6	6.02e-01	0	37	0	521666560	64	4359
2026-01-19 14:42:08.93	303.93	9.85	-46.6	-48.1	23.5	6.00e-01	0	37	0	527433728	64	4357
2026-01-19 14:42:11.95	304.53	9.79	-46.6	-48.0	23.6	5.99e-01	0	37	0	533200896	64	4328
2026-01-19 14:42:14.97	305.12	9.72	-46.5	-48.0	23.6	6.01e-01	0	37	0	538443776	64	4312
2026-01-19 14:42:18.00	305.72	9.66	-46.6	-48.1	23.5	6.03e-01	0	37	0	544210944	64	4386
2026-01-19 14:42:21.02	306.31	9.59	-46.5	-48.0	23.6	6.03e-01	0	37	0	549978112	64	4308
2026-01-19 14:42:24.05	306.90	9.52	-46.6	-48.1	23.5	6.03e-01	0	37	0	555745280	64	4347
2026-01-19 14:42:27.07	307.49	9.45	-46.5	-48.0	23.6	6.02e-01	0	37	0	561512448	64	4316
2026-01-19 14:42:30.09	308.07	9.37	-46.7	-48.2	23.4	6.03e-01	0	37	0	566755328	64	4419
2026-01-19 14:42:33.12	308.65	9.30	-46.5	-48.0	23.6	6.01e-01	0	37	0	572522496	64	4300
2026-01-19 14:42:36.14	309.23	9.22	-46.5	-48.0	23.5	5.98e-01	0	37	0	578289664	64	4323
2026-01-19 14:42:39.17	309.81	9.14	-46.7	-48.2	23.3	6.04e-01	0	37	0	584056832	64	4430
2026-01-19 14:42:42.19	310.38	9.05	-46.6	-48.1	23.4	6.00e-01	0	37	0	589824000	64	4360
2026-01-19 14:42:45.21	310.94	8.97	-46.5	-48.0	23.4	6.04e-01	0	37	0	595066880	64	4323
2026-01-19 14:42:48.24	311.51	8.88	-46.5	-48.0	23.5	6.04e-01	0	37	0	600834048	64	4330
2026-01-19 14:42:51.26	312.06	8.79	-46.7	-48.2	23.2	6.07e-01	0	37	0	606601216	64	4436
2026-01-19 14:42:54.28	312.62	8.70	-46.7	-48.3	23.2	6.02e-01	0	37	0	612368384	64	4445
2026-01-19 14:42:57.31	313.17	8.61	-46.7	-48.2	23.2	6.00e-01	0	37	0	618135552	64	4416
2026-01-19 14:43:00.33	313.72	8.52	-46.6	-48.1	23.4	6.02e-01	0	37	0	623378432	64	4350
2026-01-19 14:43:03.35	314.27	8.42	-46.7	-48.2	23.2	6.00e-01	0	37	0	629669888	64	4440
2026-01-19 14:43:06.37	314.81	8.32	-46.7	-48.2	23.2	6.00e-01	0	37	0	634912768	64	4437
2026-01-19 14:43:09.39	315.34	8.22	-46.8	-48.3	23.0	6.00e-01	0	37	0	640679936	64	4491
2026-01-19 14:43:12.41	315.88	8.12	-46.7	-48.3	23.1	6.02e-01	0	37	0	646447104	64	4453
2026-01-19 14:43:15.44	316.41	8.02	-46.5	-48.0	23.3	6.01e-01	0	37	0	651689984	64	4313
2026-01-19 14:43:18.46	316.93	7.92	-46.8	-48.3	23.0	6.03e-01	0	37	0	657981440	64	4492
2026-01-19 14:43:21.49	317.45	7.81	-46.8	-48.4	22.9	6.00e-01	0	37	0	663224320	64	4505
2026-01-19 14:43:24.51	317.97	7.71	-47.0	-48.6	22.7	6.01e-01	0	37	0	668991488	64	4628
2026-01-19 14:43:27.53	318.48	7.60	-46.8	-48.3	22.9	6.03e-01	0	37	0	674758656	64	4493
2026-01-19 14:43:30.55	318.99	7.49	-46.8	-48.4	22.9	6.03e-01	0	37	0	680525824	64	4515
2026-01-19 14:43:33.58	319.50	7.38	-46.9	-48.5	22.8	6.01e-01	0	37	0	686292992	64	4578
2026-01-19 14:43:36.60	320.00	7.27	-47.0	-48.6	22.6	6.02e-01	0	37	0	691535872	64	4638
2026-01-19 14:43:39.62	320.50	7.15	-46.9	-48.6	22.7	6.02e-01	0	37	0	697303040	64	4605
2026-01-19 14:43:42.65	320.99	7.04	-46.9	-48.5	22.7	6.00e-01	0	37	0	703070208	64	4558
2026-01-19 14:43:45.67	321.48	6.92	-46.8	-48.4	22.8	6.01e-01	0	37	0	708837376	64	4532
2026-01-19 14:43:48.69	321.96	6.81	-47.1	-48.7	22.5	6.01e-01	0	37	0	714604544	64	4678
2026-01-19 14:43:51.71	322.45	6.69	-47.1	-48.7	22.5	6.01e-01	0	37	0	719847424	64	4698
2026-01-19 14:43:54.73	322.92	6.57	-47.1	-48.7	22.5	6.03e-01	0	37	0	725614592	65	4415
2026-01-19 14:43:57.76	323.40	6.45	-46.8	-48.4	22.8	6.03e-01	0	37	0	731381760	65	4252
2026-01-19 14:44:00.78	323.86	6.33	-47.1	-48.7	22.5	6.02e-01	0	37	0	737148928	65	4417
2026-01-19 14:44:03.81	324.33	6.21	-47.2	-48.9	22.3	6.03e-01	0	37	0	742916096	65	4506
2026-01-19 14:44:06.83	324.79	6.09	-47.4	-49.2	22.0	6.00e-01	0	37	0	748158976	65	4660
2026-01-19 14:44:09.85	325.25	5.97	-47.3	-49.0	22.2	6.04e-01	0	37	0	753926144	65	4571
2026-01-19 14:44:12.87	325.70	5.85	-47.2	-48.9	22.2	5.99e-01	0	37	0	759693312	65	4511
2026-01-19 14:44:15.90	326.15	5.72	-47.3	-49.1	22.0	6.00e-01	0	37	0	765460480	65	4620
2026-01-19 14:44:18.93	326.59	5.60	-47.4	-49.2	21.9	6.03e-01	0	37	0	771227648	65	4669
2026-01-19 14:44:21.95	327.03	5.47	-47.3	-49.1	22.0	6.02e-01	0	38	0	776994816	65	4606
2026-01-19 14:44:24.97	327.47	5.35	-47.6	-49.4	21.7	5.98e-01	0	37	0	782237696	65	4780
2026-01-19 14:44:28.00	327.90	5.22	-47.5	-49.3	21.7	6.00e-01	0	37	0	788004864	65	4715
2026-01-19 14:44:31.02	328.33	5.09	-47.4	-49.2	21.8	6.05e-01	0	37	0	793772032	65	4696
2026-01-19 14:44:34.04	328.75	4.96	-53.3	-60.8	11.2	6.16e-01	0	37	0	799539200	77	8905
2026-01-19 14:44:37.07	329.18	4.84	-55.0	-72.8	3.8	7.46e-01	0	37	104	799539200	80	29828
2026-01-19 14:44:40.09	329.59	4.71	-55.3	-73.1	3.8	7.47e-01	0	37	104	799539200	81	29266
2026-01-19 14:44:43.11	330.00	4.58	-55.5	-73.4	3.8	7.45e-01	0	37	104	799539200	81	30072
2026-01-19 14:44:46.14	330.41	4.45	-55.7	-73.5	3.8	7.47e-01	0	37	104	799539200	81	30513
2026-01-19 14:44:49.16	330.82	4.32	-55.7	-73.5	3.8	7.45e-01	0	38	104	799539200	81	30690
2026-01-19 14:44:52.19	331.22	4.19	-55.7	-73.6	3.8	7.42e-01	0	37	104	799539200	82	29034
2026-01-19 14:44:55.21	331.62	4.06	-55.7	-73.5	3.8	7.42e-01	0	38	104	799539200	82	28942
2026-01-19 14:44:58.23	332.01	3.93	-55.6	-73.5	3.8	7.47e-01	0	38	104	799539200	82	28754
2026-01-19 14:45:01.25	332.40	3.79	-55.6	-73.4	3.8	7.45e-01	0	37	104	799539200	82	28667
2026-01-19 14:45:04.28	332.79	3.66	-55.6	-73.4	3.8	7.43e-01	0	37	104	799539200	82	28593
2026-01-19 14:45:07.30	333.17	3.53	-55.6	-73.4	3.8	7.43e-01	0	38	104	799539200	82	28497
2026-01-19 14:45:10.33	333.55	3.40	-55.6	-73.4	3.8	7.42e-01	0	37	104	799539200	82	28572
2026-01-19 14:45:13.35	333.93	3.27	-55.6	-73.4	3.8	7.44e-01	0	37	104	799539200	82	28504
2026-01-19 14:45:16.37	334.30	3.13	-55.6	-73.4	3.8	7.45e-01	0	38	104	799539200	82	28515
2026-01-19 14:45:19.40	334.67	3.00	-55.6	-73.4	3.8	7.44e-01	0	38	104	799539200	82	28420
2026-01-19 14:45:22.43	335.04	2.87	-55.5	-73.4	3.8	7.45e-01	0	38	104	799539200	82	28497
2026-01-19 14:45:25.45	335.40	2.73	-55.5	-73.4	3.8	7.41e-01	0	37	104	799539200	82	28364
2026-01-19 14:45:28.47	335.76	2.60	-55.5	-73.4	3.8	7.44e-01	0	38	104	799539200	82	28414
2026-01-19 14:45:31.49	336.11	2.47	-55.5	-73.4	3.8	7.47e-01	0	38	104	799539200	82	28384
2026-01-19 14:45:34.52	336.46	2.33	-55.5	-73.4	3.8	7.44e-01	0	38	104	799539200	82	28407
2026-01-19 14:45:37.55	336.81	2.20	-55.5	-73.4	3.8	7.45e-01	0	38	104	799539200	82	28383
2026-01-19 14:45:40.57	337.16	2.07	-55.5	-73.3	3.8	7.44e-01	0	37	104	799539200	82	28296
2026-01-19 14:45:43.59	337.50	1.93	-55.5	-73.3	3.8	7.48e-01	0	38	104	799539200	82	28291

#Closed at: 2026-01-19 14:45:43
#Recorded file [799 MB]: D:/lorett/data/31041_260119_173627.dat