passes_logs/2026/01/19/R3.2S_Murmansk/R3.2S_Murmansk__20260119_115627_NOAA_20_JPSS-1_rec.log

#Pass ID: 20260119_115627_NOAA 20 (JPSS-1)
#Satellite: NOAA 20 (JPSS-1)
#Configuration: NOAA 20
#almurnet v.1.7.20251203
#Start time: 2026-01-19 11:56:28

#Version: 2.2.20231116
#Station: R3.2S_Murmansk
#Location: 33.079688 lon 68.888172 lat
#TLE: 1 43013U 17073A   26018.92475364  .00000071  00000+0  54435-4 0  9998
#TLE: 2 43013  98.7641 319.8227 0001354  33.6678 326.4584 14.19536868423299

#Time	Az	El	Level	Level2	SNR	BER	BlckErr	Temp	State	Recorded	gain1	gain2
2026-01-19 11:56:28.30	212.89	2.07	-52.5	-67.5	3.8	1.49e+00	0	36	0	0	77	19278
2026-01-19 11:56:32.32	213.18	2.29	-52.5	-67.5	3.8	1.49e+00	0	36	104	0	75	21530
2026-01-19 11:56:36.36	213.48	2.51	-52.5	-67.4	3.8	1.49e+00	0	36	104	0	75	21370
2026-01-19 11:56:40.39	213.78	2.74	-52.5	-67.3	3.8	1.49e+00	0	36	104	0	75	21119
2026-01-19 11:56:44.43	214.08	2.96	-52.5	-67.4	3.8	1.49e+00	0	36	104	0	75	21290
2026-01-19 11:56:48.46	214.38	3.19	-52.5	-67.4	3.8	1.49e+00	0	36	104	0	75	21280
2026-01-19 11:56:52.49	214.70	3.42	-52.5	-67.3	3.8	1.49e+00	0	36	104	0	75	21041
2026-01-19 11:56:56.52	215.01	3.65	-52.5	-67.4	3.8	1.49e+00	0	36	104	0	75	21424
2026-01-19 11:57:00.56	215.33	3.88	-52.5	-67.2	3.8	1.49e+00	0	36	104	0	75	20973
2026-01-19 11:57:04.59	215.66	4.11	-52.5	-67.3	3.8	1.49e+00	0	36	104	0	75	21169
2026-01-19 11:57:08.63	215.99	4.35	-52.2	-63.3	4.4	1.39e+00	137	37	0	0	75	13319
2026-01-19 11:57:12.66	216.33	4.58	-51.6	-58.9	7.3	1.65e-01	0	37	0	7340032	75	8027
2026-01-19 11:57:16.69	216.67	4.82	-50.0	-53.9	12.4	2.30e-04	0	37	0	14680064	72	5356
2026-01-19 11:57:20.72	217.01	5.06	-48.9	-51.7	14.8	0.00e+00	0	37	0	22020096	69	4981
2026-01-19 11:57:24.75	217.36	5.29	-50.2	-54.1	12.8	4.03e-04	0	37	0	29360128	70	6174
2026-01-19 11:57:28.78	217.72	5.53	-48.7	-51.3	15.2	0.00e+00	0	37	0	37748736	69	4739
2026-01-19 11:57:32.81	218.08	5.78	-48.4	-50.8	15.8	0.00e+00	0	37	0	45088768	68	4737
2026-01-19 11:57:36.84	218.45	6.02	-48.1	-50.4	16.2	0.00e+00	0	37	0	52428800	68	4535
2026-01-19 11:57:40.87	218.82	6.26	-48.1	-50.4	16.2	0.00e+00	0	37	0	59768832	67	4766
2026-01-19 11:57:44.90	219.20	6.51	-47.9	-50.1	16.5	0.00e+00	0	37	0	68157440	67	4615
2026-01-19 11:57:48.94	219.59	6.75	-48.0	-50.2	16.4	0.00e+00	0	37	0	75497472	67	4676
2026-01-19 11:57:52.97	219.98	7.00	-47.9	-50.1	16.6	0.00e+00	0	37	0	82837504	67	4614
2026-01-19 11:57:57.01	220.38	7.25	-48.1	-50.3	16.4	0.00e+00	0	37	0	90177536	67	4738
2026-01-19 11:58:01.04	220.79	7.50	-47.9	-50.1	16.7	0.00e+00	0	37	0	97517568	67	4599
2026-01-19 11:58:05.07	221.20	7.75	-47.7	-49.7	17.1	0.00e+00	0	37	0	105906176	67	4412
2026-01-19 11:58:09.10	221.62	8.01	-47.4	-49.3	17.5	0.00e+00	0	37	0	113246208	66	4475
2026-01-19 11:58:13.13	222.05	8.26	-47.5	-49.5	17.3	0.00e+00	0	37	0	120586240	66	4566
2026-01-19 11:58:17.16	222.48	8.52	-47.6	-49.6	17.2	0.00e+00	0	37	0	127926272	66	4603
2026-01-19 11:58:21.19	222.92	8.77	-47.6	-49.6	17.2	0.00e+00	0	37	0	135266304	66	4628
2026-01-19 11:58:25.22	223.37	9.03	-47.7	-49.7	17.2	0.00e+00	0	37	0	143654912	66	4675
2026-01-19 11:58:29.25	223.83	9.29	-47.6	-49.6	17.3	0.00e+00	0	37	0	150994944	66	4628
2026-01-19 11:58:33.28	224.29	9.55	-47.6	-49.6	17.3	0.00e+00	0	37	0	158334976	66	4612
2026-01-19 11:58:37.31	224.76	9.81	-47.5	-49.4	17.5	0.00e+00	0	37	0	165675008	66	4519
2026-01-19 11:58:41.34	225.24	10.07	-47.4	-49.3	17.6	0.00e+00	0	37	0	173015040	66	4482
2026-01-19 11:58:45.37	225.73	10.34	-47.3	-49.1	17.8	0.00e+00	0	37	0	181403648	66	4357
2026-01-19 11:58:49.41	226.23	10.60	-47.2	-49.1	17.9	0.00e+00	0	37	0	188743680	66	4343
2026-01-19 11:58:53.44	226.74	10.87	-46.9	-48.6	18.3	0.00e+00	0	37	0	196083712	65	4387
2026-01-19 11:58:57.46	227.25	11.13	-46.9	-48.6	18.4	0.00e+00	0	37	0	203423744	65	4365
2026-01-19 11:59:01.50	227.77	11.40	-46.9	-48.6	18.4	0.00e+00	0	37	0	211812352	65	4379
2026-01-19 11:59:05.53	228.31	11.67	-47.0	-48.7	18.3	0.00e+00	0	37	0	219152384	65	4421
2026-01-19 11:59:09.56	228.85	11.93	-46.9	-48.7	18.3	0.00e+00	0	37	0	226492416	65	4393
2026-01-19 11:59:13.59	229.40	12.20	-46.8	-48.5	18.5	0.00e+00	0	37	0	233832448	65	4320
2026-01-19 11:59:17.62	229.96	12.47	-46.8	-48.5	18.5	0.00e+00	0	37	0	241172480	65	4323
2026-01-19 11:59:21.65	230.53	12.74	-46.7	-48.3	18.7	0.00e+00	0	37	0	249561088	65	4230
2026-01-19 11:59:25.68	231.12	13.01	-46.7	-48.3	18.8	0.00e+00	0	37	0	256901120	65	4219
2026-01-19 11:59:29.72	231.71	13.28	-46.7	-48.3	18.7	0.00e+00	0	37	0	264241152	65	4235
2026-01-19 11:59:33.75	232.31	13.56	-46.7	-48.3	18.8	0.00e+00	0	37	0	271581184	65	4229
2026-01-19 11:59:37.78	232.93	13.83	-46.7	-48.3	18.8	0.00e+00	0	37	0	278921216	65	4230
2026-01-19 11:59:41.81	233.55	14.10	-46.7	-48.3	18.8	0.00e+00	0	37	0	287309824	65	4220
2026-01-19 11:59:45.84	234.19	14.37	-46.6	-48.1	19.0	0.00e+00	0	37	0	294649856	65	4139
2026-01-19 11:59:49.87	234.83	14.64	-46.7	-48.3	18.8	0.00e+00	0	37	0	301989888	65	4223
2026-01-19 11:59:53.91	235.49	14.91	-46.7	-48.3	18.8	0.00e+00	0	38	0	309329920	65	4235
2026-01-19 11:59:57.93	236.16	15.18	-46.8	-48.4	18.8	0.00e+00	0	37	0	316669952	65	4258
2026-01-19 12:00:01.96	236.84	15.45	-46.7	-48.3	18.8	0.00e+00	0	37	0	325058560	65	4229
2026-01-19 12:00:05.99	237.54	15.72	-46.8	-48.4	18.8	0.00e+00	0	38	0	332398592	65	4263
2026-01-19 12:00:10.02	238.24	15.98	-46.6	-48.2	19.0	0.00e+00	0	37	0	339738624	65	4162
2026-01-19 12:00:14.05	238.96	16.25	-46.7	-48.3	18.9	0.00e+00	0	38	0	347078656	65	4219
2026-01-19 12:00:18.08	239.69	16.51	-46.4	-47.9	19.3	0.00e+00	0	37	0	354418688	64	4252
2026-01-19 12:00:22.11	240.44	16.77	-46.4	-47.9	19.3	0.00e+00	0	38	0	362807296	64	4253
2026-01-19 12:00:26.14	241.19	17.04	-46.4	-48.0	19.2	0.00e+00	0	37	0	370147328	64	4297
2026-01-19 12:00:30.17	241.96	17.29	-46.1	-47.5	19.5	0.00e+00	0	38	0	377487360	64	4094
2026-01-19 12:00:34.21	242.74	17.55	-46.1	-47.5	19.8	0.00e+00	0	37	0	384827392	63	4294
2026-01-19 12:00:38.24	243.54	17.81	-45.9	-47.3	20.0	0.00e+00	0	37	0	393216000	63	4225
2026-01-19 12:00:42.27	244.34	18.06	-45.8	-47.1	20.2	0.00e+00	0	38	0	400556032	63	4139
2026-01-19 12:00:46.30	245.16	18.30	-46.0	-47.4	20.0	0.00e+00	0	37	0	407896064	63	4266
2026-01-19 12:00:50.33	246.00	18.55	-46.1	-47.5	19.8	0.00e+00	0	37	0	415236096	63	4311
2026-01-19 12:00:54.36	246.84	18.79	-46.2	-47.6	19.7	0.00e+00	0	37	0	422576128	63	4364
2026-01-19 12:00:58.39	247.70	19.03	-46.7	-48.2	19.1	0.00e+00	0	38	0	429916160	64	4426
2026-01-19 12:01:02.42	248.57	19.26	-47.1	-48.7	18.6	0.00e+00	0	38	0	438304768	64	4699
2026-01-19 12:01:06.45	249.46	19.49	-46.9	-48.6	18.7	0.00e+00	0	38	0	445644800	64	4599
2026-01-19 12:01:10.48	250.36	19.71	-47.6	-49.4	18.0	0.00e+00	0	37	0	452984832	65	4774
2026-01-19 12:01:14.51	251.27	19.93	-48.1	-50.1	17.3	0.00e+00	0	37	0	460324864	66	4906
2026-01-19 12:01:18.54	252.19	20.15	-47.9	-49.8	17.6	0.00e+00	0	38	0	468713472	66	4716
2026-01-19 12:01:22.57	253.13	20.36	-47.7	-49.6	17.8	0.00e+00	0	38	0	476053504	66	4615
2026-01-19 12:01:26.60	254.07	20.56	-47.7	-49.5	17.8	0.00e+00	0	38	0	483393536	66	4596
2026-01-19 12:01:30.63	255.03	20.75	-47.5	-49.3	18.0	0.00e+00	0	38	0	490733568	66	4459
2026-01-19 12:01:34.66	256.01	20.94	-46.8	-48.3	19.0	0.00e+00	0	38	0	498073600	65	4241
2026-01-19 12:01:38.68	256.99	21.13	-47.1	-48.8	18.5	0.00e+00	0	38	0	506462208	65	4484
2026-01-19 12:01:42.71	257.98	21.30	-47.4	-49.1	18.2	0.00e+00	0	38	0	513802240	65	4636
2026-01-19 12:01:46.74	258.98	21.47	-47.3	-49.0	18.4	0.00e+00	0	38	0	521142272	65	4565
2026-01-19 12:01:50.77	260.00	21.63	-47.2	-48.9	18.5	0.00e+00	0	38	0	528482304	65	4511
2026-01-19 12:01:54.80	261.02	21.78	-47.2	-48.9	18.4	0.00e+00	0	38	0	535822336	65	4541
2026-01-19 12:01:58.83	262.06	21.92	-46.9	-48.5	18.9	0.00e+00	0	38	0	544210944	65	4310
2026-01-19 12:02:02.86	263.10	22.06	-46.7	-48.2	19.1	0.00e+00	0	38	0	551550976	65	4183
2026-01-19 12:02:06.89	264.15	22.18	-46.6	-48.1	19.2	0.00e+00	0	38	0	558891008	65	4138
2026-01-19 12:02:10.93	265.22	22.30	-46.6	-48.1	19.2	0.00e+00	0	38	0	566231040	65	4126
2026-01-19 12:02:14.96	266.29	22.41	-46.9	-48.5	18.9	0.00e+00	0	38	0	573571072	65	4305
2026-01-19 12:02:18.99	267.36	22.50	-47.2	-48.8	18.5	0.00e+00	0	37	0	581959680	65	4490
2026-01-19 12:02:23.02	268.44	22.59	-47.2	-48.9	18.5	0.00e+00	0	37	0	589299712	65	4518
2026-01-19 12:02:27.06	269.53	22.67	-47.3	-49.0	18.4	0.00e+00	0	38	0	596639744	65	4578
2026-01-19 12:02:31.09	270.62	22.74	-47.1	-48.7	18.6	0.00e+00	0	38	0	603979776	65	4435
2026-01-19 12:02:35.12	271.71	22.79	-46.8	-48.3	19.0	0.00e+00	0	38	0	612368384	65	4242
2026-01-19 12:02:39.15	272.81	22.84	-46.9	-48.5	18.9	0.00e+00	0	38	0	619708416	65	4329
2026-01-19 12:02:43.18	273.91	22.87	-47.1	-48.7	18.8	0.00e+00	0	38	0	627048448	65	4402
2026-01-19 12:02:47.21	275.02	22.90	-46.6	-48.1	19.3	0.00e+00	0	38	0	634388480	65	4106
2026-01-19 12:02:51.24	276.12	22.91	-46.8	-48.3	19.1	0.00e+00	0	38	0	641728512	65	4206
2026-01-19 12:02:55.28	277.23	22.91	-47.0	-48.6	18.8	0.00e+00	0	37	0	649068544	65	4381
2026-01-19 12:02:59.31	278.33	22.91	-46.8	-48.4	19.1	0.00e+00	0	38	0	657457152	65	4243
2026-01-19 12:03:03.34	279.43	22.89	-46.8	-48.3	19.2	0.00e+00	0	38	0	664797184	65	4209
2026-01-19 12:03:07.38	280.54	22.86	-47.4	-49.1	18.4	0.00e+00	0	37	0	672137216	65	4646
2026-01-19 12:03:11.41	281.64	22.82	-47.4	-49.1	18.4	0.00e+00	0	37	0	679477248	65	4601
2026-01-19 12:03:15.44	282.73	22.77	-47.1	-48.7	18.8	0.00e+00	0	38	0	687865856	65	4404
2026-01-19 12:03:19.47	283.83	22.71	-46.9	-48.4	19.0	0.00e+00	0	38	0	695205888	65	4277
2026-01-19 12:03:23.50	284.91	22.64	-47.4	-49.1	18.5	0.00e+00	0	38	0	702545920	65	4605
2026-01-19 12:03:27.54	286.00	22.55	-47.2	-48.8	18.8	0.00e+00	0	38	0	709885952	65	4454
2026-01-19 12:03:31.57	287.07	22.46	-46.9	-48.5	19.0	0.00e+00	0	37	0	717225984	65	4310
2026-01-19 12:03:35.60	288.14	22.36	-46.8	-48.3	19.2	0.00e+00	0	37	0	725614592	65	4234
2026-01-19 12:03:39.63	289.21	22.25	-47.0	-48.6	19.0	0.00e+00	0	38	0	732954624	65	4360
2026-01-19 12:03:43.66	290.26	22.13	-46.9	-48.4	19.1	0.00e+00	0	38	0	740294656	65	4289
2026-01-19 12:03:47.69	291.31	22.00	-46.9	-48.4	19.1	0.00e+00	0	38	0	747634688	65	4274
2026-01-19 12:03:51.72	292.34	21.86	-46.6	-48.1	19.5	0.00e+00	0	38	0	756023296	65	4109
2026-01-19 12:03:55.75	293.37	21.72	-45.9	-47.2	20.4	0.00e+00	0	38	0	763363328	63	4148
2026-01-19 12:03:59.79	294.39	21.56	-45.7	-46.9	20.7	0.00e+00	0	38	0	770703360	63	4050
2026-01-19 12:04:03.81	295.40	21.40	-46.1	-47.5	20.1	0.00e+00	0	38	0	778043392	63	4297
2026-01-19 12:04:07.85	296.40	21.23	-45.9	-47.3	20.4	0.00e+00	0	37	0	785383424	63	4196
2026-01-19 12:04:11.88	297.38	21.05	-45.5	-46.8	20.8	0.00e+00	0	38	0	792723456	62	4201
2026-01-19 12:04:15.91	298.36	20.87	-45.1	-46.3	21.3	0.00e+00	0	38	0	801112064	62	3989
2026-01-19 12:04:19.94	299.32	20.67	-45.3	-46.5	21.1	0.00e+00	0	38	0	808452096	62	4052
2026-01-19 12:04:23.97	300.27	20.48	-45.8	-47.1	20.5	0.00e+00	0	38	0	815792128	62	4363
2026-01-19 12:04:28.00	301.21	20.27	-46.2	-47.6	20.1	0.00e+00	0	38	0	823132160	63	4358
2026-01-19 12:04:32.03	302.14	20.06	-45.9	-47.2	20.4	0.00e+00	0	37	0	831520768	63	4160
2026-01-19 12:04:36.06	303.05	19.85	-45.6	-46.8	20.8	0.00e+00	0	38	0	838860800	63	3988
2026-01-19 12:04:40.09	303.96	19.63	-46.2	-47.5	20.1	0.00e+00	0	38	0	846200832	63	4334
2026-01-19 12:04:44.13	304.85	19.40	-46.9	-48.5	19.0	0.00e+00	0	38	0	853540864	64	4566
2026-01-19 12:04:48.16	305.72	19.17	-47.2	-48.8	18.7	0.00e+00	0	38	0	860880896	65	4488
2026-01-19 12:04:52.19	306.59	18.94	-47.1	-48.7	18.9	0.00e+00	0	38	0	869269504	65	4392
2026-01-19 12:04:56.22	307.44	18.70	-46.5	-47.9	19.6	0.00e+00	0	38	0	876609536	64	4289
2026-01-19 12:05:00.25	308.27	18.46	-46.8	-48.4	19.1	0.00e+00	0	38	0	883949568	64	4498
2026-01-19 12:05:04.28	309.10	18.21	-47.1	-48.8	18.7	0.00e+00	0	38	0	891289600	64	4709
2026-01-19 12:05:08.31	309.91	17.97	-47.0	-48.6	18.9	0.00e+00	0	38	0	898629632	65	4376
2026-01-19 12:05:12.35	310.71	17.72	-46.4	-47.9	19.6	0.00e+00	0	38	0	907018240	64	4266
2026-01-19 12:05:16.38	311.50	17.46	-46.5	-48.0	19.5	0.00e+00	0	38	0	914358272	64	4315
2026-01-19 12:05:20.41	312.27	17.21	-46.5	-47.9	19.5	0.00e+00	0	38	0	921698304	64	4277
2026-01-19 12:05:24.44	313.03	16.95	-46.8	-48.4	19.1	0.00e+00	0	38	0	929038336	64	4501
2026-01-19 12:05:28.47	313.78	16.69	-47.1	-48.7	18.7	0.00e+00	0	38	0	936378368	64	4696
2026-01-19 12:05:32.51	314.51	16.43	-46.8	-48.3	19.1	0.00e+00	0	38	0	944766976	64	4481
2026-01-19 12:05:36.54	315.24	16.16	-46.9	-48.5	18.9	0.00e+00	0	38	0	952107008	64	4553
2026-01-19 12:05:40.57	315.95	15.90	-46.4	-47.9	19.5	0.00e+00	0	38	0	959447040	64	4245
2026-01-19 12:05:44.60	316.64	15.63	-46.9	-48.6	18.8	0.00e+00	0	38	0	966787072	64	4599
2026-01-19 12:05:48.63	317.33	15.37	-46.9	-48.5	18.8	0.00e+00	0	38	0	975175680	64	4580
2026-01-19 12:05:52.66	318.00	15.10	-46.6	-48.1	19.2	0.00e+00	0	38	0	982515712	64	4373
2026-01-19 12:05:56.69	318.67	14.83	-47.0	-48.7	18.6	0.00e+00	0	37	0	989855744	64	4678
2026-01-19 12:06:00.73	319.32	14.56	-46.5	-48.0	19.2	0.00e+00	0	37	0	997195776	64	4326
2026-01-19 12:06:04.76	319.96	14.30	-46.6	-48.1	19.2	0.00e+00	0	38	0	1004535808	64	4351
2026-01-19 12:06:08.79	320.59	14.03	-47.1	-48.8	18.4	0.00e+00	0	38	0	1011875840	64	4740
2026-01-19 12:06:12.82	321.21	13.76	-47.0	-48.6	18.6	0.00e+00	0	38	0	1020264448	64	4621
2026-01-19 12:06:16.86	321.82	13.49	-47.0	-48.6	18.6	0.00e+00	0	37	0	1027604480	64	4637
2026-01-19 12:06:20.89	322.41	13.22	-47.3	-49.0	18.2	0.00e+00	0	37	0	1034944512	65	4574
2026-01-19 12:06:24.92	323.00	12.95	-46.7	-48.3	18.8	0.00e+00	0	38	0	1042284544	65	4227
2026-01-19 12:06:28.95	323.57	12.68	-47.0	-48.6	18.5	0.00e+00	0	38	0	1050673152	65	4381
2026-01-19 12:06:32.98	324.14	12.42	-47.5	-49.4	17.8	0.00e+00	0	38	0	1058013184	65	4765
2026-01-19 12:06:37.02	324.70	12.15	-47.3	-49.1	18.0	0.00e+00	0	38	0	1065353216	65	4626
2026-01-19 12:06:41.05	325.24	11.88	-47.1	-48.8	18.3	0.00e+00	0	38	0	1072693248	65	4482
2026-01-19 12:06:45.08	325.78	11.61	-47.4	-49.2	17.9	0.00e+00	0	38	0	1080033280	65	4704
2026-01-19 12:06:49.11	326.31	11.35	-47.3	-49.0	18.0	0.00e+00	0	38	0	1088421888	65	4595
2026-01-19 12:06:53.14	326.83	11.09	-47.3	-49.1	17.9	0.00e+00	0	38	0	1095761920	65	4641
2026-01-19 12:06:57.17	327.34	10.82	-47.9	-49.9	17.1	0.00e+00	0	38	0	1103101952	66	4800
2026-01-19 12:07:01.21	327.84	10.56	-48.0	-50.1	16.9	0.00e+00	0	37	0	1110441984	66	4884
2026-01-19 12:07:05.24	328.33	10.30	-47.5	-49.4	17.6	0.00e+00	0	38	0	1118830592	66	4536
2026-01-19 12:07:09.27	328.82	10.04	-47.2	-49.0	17.9	0.00e+00	0	37	0	1126170624	66	4336
2026-01-19 12:07:13.30	329.29	9.78	-47.5	-49.4	17.6	0.00e+00	0	38	0	1133510656	66	4520
2026-01-19 12:07:17.33	329.76	9.52	-47.6	-49.6	17.4	0.00e+00	0	38	0	1140850688	66	4602
2026-01-19 12:07:21.36	330.22	9.26	-47.8	-49.8	17.1	0.00e+00	0	38	0	1148190720	66	4724
2026-01-19 12:07:25.39	330.67	9.00	-48.0	-50.2	16.7	0.00e+00	0	37	0	1156579328	66	4950
2026-01-19 12:07:29.43	331.12	8.75	-48.4	-50.7	16.2	0.00e+00	0	38	0	1163919360	67	4963
2026-01-19 12:07:33.46	331.56	8.49	-48.2	-50.4	16.4	0.00e+00	0	38	0	1171259392	67	4800
2026-01-19 12:07:37.48	331.99	8.24	-48.0	-50.1	16.7	0.00e+00	0	38	0	1178599424	67	4636
2026-01-19 12:07:41.52	332.41	7.99	-48.1	-50.3	16.5	0.00e+00	0	38	0	1185939456	67	4728
2026-01-19 12:07:45.55	332.83	7.74	-48.7	-51.2	15.6	0.00e+00	0	37	0	1194328064	67	5234
2026-01-19 12:07:49.58	333.24	7.49	-48.8	-51.4	15.5	0.00e+00	0	38	0	1201668096	68	5065
2026-01-19 12:07:53.61	333.64	7.24	-48.9	-51.6	15.2	0.00e+00	0	38	0	1209008128	68	5194
2026-01-19 12:07:57.64	334.04	7.00	-49.1	-51.8	15.0	0.00e+00	0	38	0	1216348160	68	5325
2026-01-19 12:08:01.68	334.43	6.75	-49.1	-51.9	14.9	0.00e+00	0	38	0	1223688192	68	5345
2026-01-19 12:08:05.71	334.81	6.51	-49.1	-51.9	14.7	0.00e+00	0	38	0	1232076800	68	5392
2026-01-19 12:08:09.74	335.19	6.26	-49.1	-52.1	14.6	0.00e+00	0	38	0	1239416832	68	5466
2026-01-19 12:08:13.77	335.56	6.02	-49.2	-52.1	14.5	7.00e-07	0	38	0	1246756864	69	5204
2026-01-19 12:08:17.81	335.93	5.78	-49.0	-51.9	14.6	0.00e+00	0	38	0	1254096896	69	5074
2026-01-19 12:08:21.84	336.29	5.54	-48.8	-51.6	15.0	0.00e+00	0	38	0	1261436928	69	4889
2026-01-19 12:08:25.87	336.65	5.30	-49.0	-51.9	14.7	0.00e+00	0	38	0	1269825536	69	5083
2026-01-19 12:08:29.90	337.00	5.07	-48.9	-51.7	14.9	7.00e-07	0	38	0	1277165568	69	4933
2026-01-19 12:08:33.94	337.34	4.83	-53.3	-68.3	3.8	1.49e+00	0	38	104	1281359872	77	21172
2026-01-19 12:08:37.97	337.68	4.60	-53.8	-68.8	3.8	1.49e+00	0	38	104	1281359872	78	21180
2026-01-19 12:08:42.00	338.02	4.37	-54.1	-69.1	3.8	1.49e+00	0	38	104	1281359872	78	21918
2026-01-19 12:08:46.03	338.34	4.13	-54.2	-69.2	3.8	1.49e+00	0	38	104	1281359872	78	22123
2026-01-19 12:08:50.06	338.67	3.90	-54.2	-69.3	3.8	1.49e+00	0	38	104	1281359872	79	21022
2026-01-19 12:08:54.10	338.99	3.67	-54.2	-69.2	3.8	1.49e+00	0	38	104	1281359872	79	20917
2026-01-19 12:08:58.13	339.31	3.45	-54.2	-69.1	3.8	1.49e+00	0	38	104	1281359872	79	20770
2026-01-19 12:09:02.16	339.62	3.22	-54.1	-69.2	3.8	1.49e+00	0	38	104	1281359872	79	20792
2026-01-19 12:09:06.19	339.92	3.00	-54.1	-69.1	3.8	1.49e+00	0	38	104	1281359872	79	20714
2026-01-19 12:09:10.22	340.23	2.77	-54.1	-69.1	3.8	1.49e+00	0	38	104	1281359872	79	20738
2026-01-19 12:09:14.26	340.52	2.55	-54.1	-69.1	3.8	1.49e+00	0	38	104	1281359872	79	20680
2026-01-19 12:09:18.29	340.82	2.33	-54.1	-69.1	3.8	1.49e+00	0	38	104	1281359872	79	20667
2026-01-19 12:09:22.32	341.11	2.11	-54.1	-69.1	3.8	1.49e+00	0	38	104	1281359872	79	20615

#Closed at: 2026-01-19 12:09:24
#Recorded file [1281 MB]: D:/lorett/data/31041_260119_145628.dat