passes_logs/2026/01/19/R3.2S_Murmansk/R3.2S_Murmansk__20260119_045213_AQUA_rec.log

#Pass ID: 20260119_045213_AQUA
#Satellite: AQUA
#Configuration: AQUA
#almurnet v.1.7.20251203
#Start time: 2026-01-19 04:52:14

#Version: 2.2.20231116
#Station: R3.2S_Murmansk
#Location: 33.079688 lon 68.888172 lat
#TLE: 1 27424U 02022A   26018.67315038  .00000896  00000+0  18931-3 0  9992
#TLE: 2 27424  98.4088 345.1622 0002002  73.7601  98.9671 14.61828261261423

#Time	Az	El	Level	Level2	SNR	BER	BlckErr	Temp	State	Recorded	gain1	gain2
2026-01-19 04:52:14.54	35.71	2.09	-49.6	-67.4	3.8	7.44e-01	0	35	0	0	69	30196
2026-01-19 04:52:17.56	35.52	2.27	-49.6	-67.4	3.8	7.46e-01	0	35	104	0	69	30264
2026-01-19 04:52:20.58	35.32	2.46	-49.6	-67.4	3.8	7.46e-01	0	35	104	0	69	30135
2026-01-19 04:52:23.60	35.12	2.64	-49.6	-67.4	3.8	7.45e-01	0	35	104	0	69	30149
2026-01-19 04:52:26.63	34.92	2.83	-49.6	-67.4	3.8	7.46e-01	0	35	104	0	69	30168
2026-01-19 04:52:29.65	34.72	3.02	-49.6	-67.4	3.8	7.43e-01	0	35	104	0	69	30195
2026-01-19 04:52:32.68	34.51	3.21	-49.6	-67.4	3.8	7.44e-01	0	35	104	0	69	30200
2026-01-19 04:52:35.70	34.30	3.39	-49.6	-67.4	3.8	7.42e-01	0	35	104	0	69	30189
2026-01-19 04:52:38.72	34.09	3.59	-49.6	-67.4	3.8	7.47e-01	0	35	104	0	69	30183
2026-01-19 04:52:41.75	33.88	3.78	-49.6	-67.4	3.8	7.45e-01	0	35	104	0	69	30168
2026-01-19 04:52:44.77	33.66	3.97	-49.6	-67.4	3.8	7.45e-01	0	36	104	0	69	30163
2026-01-19 04:52:47.80	33.43	4.17	-49.6	-67.4	3.8	7.47e-01	0	36	104	0	69	30217
2026-01-19 04:52:50.82	33.21	4.36	-49.6	-67.4	3.8	7.45e-01	0	36	104	0	69	30239
2026-01-19 04:52:53.85	32.98	4.56	-49.6	-67.4	3.8	7.43e-01	0	36	104	0	69	30188
2026-01-19 04:52:56.87	32.74	4.76	-49.6	-67.4	3.8	7.47e-01	0	36	104	0	69	30260
2026-01-19 04:52:59.89	32.51	4.95	-49.6	-67.4	3.8	7.45e-01	0	36	104	0	69	30181
2026-01-19 04:53:02.91	32.27	5.15	-49.6	-67.4	3.8	7.44e-01	0	36	104	0	69	30186
2026-01-19 04:53:05.94	32.02	5.36	-49.6	-67.4	3.8	7.43e-01	0	36	104	0	69	30204
2026-01-19 04:53:08.96	31.77	5.56	-49.6	-67.4	3.8	7.44e-01	0	36	104	0	69	30200
2026-01-19 04:53:11.98	31.52	5.76	-49.6	-67.4	3.8	7.44e-01	0	36	104	0	69	30250
2026-01-19 04:53:15.01	31.27	5.97	-49.6	-67.4	3.8	7.46e-01	0	36	104	0	69	30278
2026-01-19 04:53:18.03	31.01	6.17	-49.6	-67.4	3.8	7.47e-01	0	36	104	0	69	30250
2026-01-19 04:53:21.06	30.74	6.38	-49.6	-67.4	3.8	7.43e-01	0	36	104	0	69	30249
2026-01-19 04:53:24.08	30.47	6.59	-49.6	-67.4	3.8	7.46e-01	0	36	104	0	69	30219
2026-01-19 04:53:27.10	30.20	6.80	-49.6	-67.4	3.8	7.45e-01	0	36	104	0	69	30183
2026-01-19 04:53:30.13	29.92	7.01	-49.6	-67.4	3.8	7.42e-01	0	36	104	0	69	30175
2026-01-19 04:53:33.15	29.64	7.23	-49.6	-67.4	3.8	7.42e-01	0	36	104	0	69	30216
2026-01-19 04:53:36.17	29.35	7.44	-49.6	-67.4	3.8	7.47e-01	0	36	104	0	69	30225
2026-01-19 04:53:39.20	29.06	7.66	-49.6	-67.4	3.8	7.41e-01	0	36	104	0	69	30220
2026-01-19 04:53:42.23	28.76	7.87	-49.6	-67.4	3.8	7.44e-01	0	36	104	0	69	30217
2026-01-19 04:53:45.25	28.46	8.09	-49.6	-67.4	3.8	7.44e-01	0	36	104	0	69	30223
2026-01-19 04:53:48.28	28.15	8.31	-49.6	-67.4	3.8	7.46e-01	0	36	104	0	69	30165
2026-01-19 04:53:51.30	27.84	8.53	-49.6	-67.4	3.8	7.42e-01	0	36	104	0	69	30202
2026-01-19 04:53:54.33	27.52	8.76	-49.6	-67.4	3.8	7.44e-01	0	36	104	0	69	30176
2026-01-19 04:53:57.35	27.20	8.98	-49.6	-67.4	3.8	7.48e-01	0	36	104	0	69	30216
2026-01-19 04:54:00.38	26.87	9.21	-49.6	-67.4	3.8	7.45e-01	0	36	104	0	69	30251
2026-01-19 04:54:03.40	26.53	9.43	-49.6	-67.4	3.8	7.47e-01	0	37	104	0	69	30273
2026-01-19 04:54:06.42	26.19	9.66	-49.6	-67.4	3.8	7.46e-01	0	36	104	0	69	30286
2026-01-19 04:54:09.45	25.85	9.89	-49.6	-67.4	3.8	7.46e-01	0	36	104	0	69	30180
2026-01-19 04:54:12.47	25.49	10.12	-49.6	-67.4	3.8	7.43e-01	0	36	104	0	69	30257
2026-01-19 04:54:15.50	25.13	10.36	-49.6	-67.4	3.8	7.46e-01	0	36	104	0	69	30231
2026-01-19 04:54:18.52	24.77	10.59	-49.6	-67.4	3.8	7.46e-01	0	37	104	0	69	30227
2026-01-19 04:54:21.54	24.40	10.82	-49.6	-67.4	3.8	7.45e-01	0	36	104	0	69	30234
2026-01-19 04:54:24.57	24.02	11.06	-49.6	-67.4	3.8	7.46e-01	0	36	104	0	69	30201
2026-01-19 04:54:27.60	23.63	11.30	-49.6	-67.4	3.8	7.44e-01	0	36	104	0	69	30228
2026-01-19 04:54:30.62	23.24	11.54	-49.6	-67.4	3.8	7.47e-01	0	37	104	0	69	30250
2026-01-19 04:54:33.64	22.84	11.78	-49.6	-67.4	3.8	7.46e-01	0	37	104	0	69	30273
2026-01-19 04:54:36.67	22.43	12.02	-49.6	-67.4	3.8	7.44e-01	0	36	104	0	69	30265
2026-01-19 04:54:39.69	22.02	12.26	-49.6	-67.4	3.8	7.45e-01	0	36	104	0	69	30298
2026-01-19 04:54:42.72	21.59	12.51	-49.6	-67.4	3.8	7.48e-01	0	36	104	0	69	30218
2026-01-19 04:54:45.74	21.16	12.75	-49.6	-67.4	3.8	7.42e-01	0	37	104	0	69	30273
2026-01-19 04:54:48.77	20.73	13.00	-49.6	-67.4	3.8	7.47e-01	0	37	104	0	69	30197
2026-01-19 04:54:51.80	20.28	13.25	-49.6	-67.4	3.8	7.42e-01	0	37	104	0	69	30223
2026-01-19 04:54:54.82	19.83	13.50	-49.6	-67.4	3.8	7.44e-01	0	36	104	0	69	30258
2026-01-19 04:54:57.84	19.36	13.75	-49.6	-67.4	3.8	7.44e-01	0	37	104	0	69	30256
2026-01-19 04:55:00.87	18.89	14.00	-49.6	-67.4	3.8	7.43e-01	0	37	104	0	69	30250
2026-01-19 04:55:03.89	18.41	14.25	-49.6	-67.4	3.8	7.47e-01	0	37	104	0	69	30259
2026-01-19 04:55:06.92	17.92	14.51	-49.6	-67.4	3.8	7.45e-01	0	37	104	0	69	30221
2026-01-19 04:55:09.94	17.42	14.76	-49.6	-67.4	3.8	7.45e-01	0	37	104	0	69	30235
2026-01-19 04:55:12.97	16.91	15.02	-49.6	-67.4	3.8	7.44e-01	0	36	104	0	69	30206
2026-01-19 04:55:15.99	16.40	15.27	-49.6	-67.4	3.8	7.46e-01	0	37	104	0	69	30223
2026-01-19 04:55:19.02	15.87	15.53	-49.6	-67.4	3.8	7.43e-01	0	36	104	0	69	30247
2026-01-19 04:55:22.04	15.33	15.79	-49.6	-67.4	3.8	7.45e-01	0	37	104	0	69	30219
2026-01-19 04:55:25.06	14.79	16.04	-49.6	-67.4	3.8	7.46e-01	0	37	104	0	69	30249
2026-01-19 04:55:28.08	14.23	16.30	-49.6	-67.4	3.8	7.43e-01	0	37	104	0	69	30238
2026-01-19 04:55:31.11	13.66	16.56	-49.6	-67.4	3.8	7.48e-01	0	37	104	0	69	30283
2026-01-19 04:55:34.13	13.08	16.82	-49.6	-67.4	3.8	7.44e-01	0	37	104	0	69	30231
2026-01-19 04:55:37.16	12.49	17.08	-49.6	-67.4	3.8	7.48e-01	0	37	104	0	69	30243
2026-01-19 04:55:40.18	11.89	17.33	-49.6	-67.4	3.8	7.43e-01	0	37	104	0	69	30242
2026-01-19 04:55:43.20	11.28	17.59	-49.6	-67.4	3.8	7.45e-01	0	37	104	0	69	30252
2026-01-19 04:55:46.23	10.66	17.85	-49.6	-67.4	3.8	7.45e-01	0	37	104	0	69	30285
2026-01-19 04:55:49.25	10.02	18.11	-49.6	-67.4	3.8	7.49e-01	0	37	104	0	69	30233
2026-01-19 04:55:52.28	9.38	18.36	-49.6	-67.4	3.8	7.50e-01	0	37	104	0	69	30285
2026-01-19 04:55:55.30	8.72	18.62	-49.6	-67.4	3.8	7.42e-01	0	37	104	0	69	30238
2026-01-19 04:55:58.32	8.05	18.88	-49.6	-67.4	3.8	7.45e-01	0	37	104	0	69	30226
2026-01-19 04:56:01.34	7.37	19.13	-49.6	-67.4	3.8	7.44e-01	0	36	104	0	69	30212
2026-01-19 04:56:04.37	6.67	19.38	-49.6	-67.4	3.8	7.45e-01	0	37	104	0	69	30264
2026-01-19 04:56:07.39	5.97	19.63	-49.6	-67.4	3.8	7.44e-01	0	37	104	0	69	30255
2026-01-19 04:56:10.41	5.25	19.88	-49.6	-67.4	3.8	7.44e-01	0	37	104	0	69	30269
2026-01-19 04:56:13.44	4.52	20.13	-49.6	-67.4	3.8	7.45e-01	0	37	104	0	69	30256
2026-01-19 04:56:16.46	3.77	20.38	-49.6	-67.4	3.8	7.48e-01	0	37	104	0	69	30246
2026-01-19 04:56:19.49	3.02	20.62	-49.6	-67.4	3.8	7.42e-01	0	37	104	0	69	30286
2026-01-19 04:56:22.51	2.25	20.86	-49.6	-67.4	3.8	7.44e-01	0	37	104	0	69	30284
2026-01-19 04:56:25.53	1.47	21.10	-49.6	-67.4	3.8	7.45e-01	0	37	104	0	69	30285
2026-01-19 04:56:28.56	0.67	21.33	-49.6	-67.4	3.8	7.48e-01	0	37	104	0	69	30216
2026-01-19 04:56:31.58	359.86	21.56	-49.6	-67.4	3.8	7.46e-01	0	37	104	0	69	30247
2026-01-19 04:56:34.60	359.04	21.79	-49.6	-67.4	3.8	7.45e-01	0	37	104	0	69	30274
2026-01-19 04:56:37.63	358.21	22.02	-49.6	-67.4	3.8	7.46e-01	0	37	104	0	69	30224
2026-01-19 04:56:40.65	357.36	22.23	-49.6	-67.4	3.8	7.49e-01	0	37	104	0	69	30344
2026-01-19 04:56:43.67	356.50	22.45	-49.6	-67.4	3.8	7.43e-01	0	37	104	0	69	30257
2026-01-19 04:56:46.70	355.63	22.66	-49.6	-67.4	3.8	7.44e-01	0	37	104	0	69	30288
2026-01-19 04:56:49.72	354.75	22.86	-49.6	-67.4	3.8	7.46e-01	0	37	104	0	69	30297
2026-01-19 04:56:52.75	353.85	23.06	-49.6	-67.4	3.8	7.45e-01	0	37	104	0	69	30246
2026-01-19 04:56:55.77	352.94	23.26	-49.6	-67.4	3.8	7.43e-01	0	37	104	0	69	30280
2026-01-19 04:56:58.79	352.02	23.44	-49.6	-67.4	3.8	7.44e-01	0	37	104	0	69	30270
2026-01-19 04:57:01.81	351.09	23.63	-49.6	-67.4	3.8	7.43e-01	0	37	104	0	69	30232
2026-01-19 04:57:04.84	350.15	23.80	-49.6	-67.4	3.8	7.47e-01	0	37	104	0	69	30294
2026-01-19 04:57:07.86	349.20	23.97	-49.6	-67.4	3.8	7.47e-01	0	37	104	0	69	30280
2026-01-19 04:57:10.89	348.23	24.13	-49.6	-67.4	3.8	7.48e-01	0	37	104	0	69	30267
2026-01-19 04:57:13.91	347.26	24.28	-49.6	-67.4	3.8	7.49e-01	0	37	104	0	69	30278
2026-01-19 04:57:16.94	346.27	24.43	-49.6	-67.4	3.8	7.48e-01	0	37	104	0	69	30217
2026-01-19 04:57:19.96	345.28	24.56	-49.6	-67.4	3.8	7.45e-01	0	37	104	0	69	30224
2026-01-19 04:57:22.98	344.28	24.69	-49.6	-67.4	3.8	7.44e-01	0	37	104	0	69	30244
2026-01-19 04:57:26.01	343.27	24.81	-49.6	-67.4	3.8	7.48e-01	0	37	104	0	69	30293
2026-01-19 04:57:29.03	342.25	24.92	-49.6	-67.4	3.8	7.48e-01	0	37	104	0	69	30285
2026-01-19 04:57:32.06	341.22	25.02	-49.6	-67.4	3.8	7.45e-01	0	37	104	0	69	30302
2026-01-19 04:57:35.08	340.19	25.12	-49.6	-67.4	3.8	7.44e-01	0	37	104	0	69	30293
2026-01-19 04:57:38.11	339.15	25.20	-49.6	-67.4	3.8	7.47e-01	0	37	104	0	69	30259
2026-01-19 04:57:41.13	338.11	25.27	-49.6	-67.4	3.8	7.46e-01	0	37	104	0	69	30243
2026-01-19 04:57:44.15	337.06	25.34	-49.6	-67.4	3.8	7.45e-01	0	37	104	0	69	30182
2026-01-19 04:57:47.18	336.00	25.39	-49.6	-67.4	3.8	7.49e-01	0	37	104	0	69	30278
2026-01-19 04:57:50.20	334.95	25.43	-49.6	-67.4	3.8	7.48e-01	0	37	104	0	69	30246
2026-01-19 04:57:53.22	333.89	25.46	-49.6	-67.4	3.8	7.44e-01	0	37	104	0	69	30296
2026-01-19 04:57:56.24	332.83	25.49	-49.6	-67.4	3.8	7.43e-01	0	37	104	0	69	30286
2026-01-19 04:57:59.27	331.77	25.50	-49.6	-67.4	3.8	7.49e-01	0	37	104	0	69	30243
2026-01-19 04:58:02.29	330.71	25.50	-49.6	-67.4	3.8	7.46e-01	0	37	104	0	69	30246
2026-01-19 04:58:05.31	329.64	25.49	-49.6	-67.4	3.8	7.47e-01	0	37	104	0	69	30331
2026-01-19 04:58:08.34	328.58	25.47	-49.6	-67.4	3.8	7.46e-01	0	37	104	0	69	30218
2026-01-19 04:58:11.36	327.52	25.44	-49.6	-67.4	3.8	7.43e-01	0	37	104	0	69	30218
2026-01-19 04:58:14.38	326.47	25.40	-49.6	-67.4	3.8	7.47e-01	0	37	104	0	69	30369
2026-01-19 04:58:17.41	325.41	25.35	-49.6	-67.4	3.8	7.46e-01	0	37	104	0	69	30301
2026-01-19 04:58:20.43	324.36	25.29	-49.6	-67.4	3.8	7.43e-01	0	37	104	0	69	30289
2026-01-19 04:58:23.45	323.32	25.22	-49.6	-67.4	3.8	7.45e-01	0	37	104	0	69	30280
2026-01-19 04:58:26.48	322.27	25.14	-49.6	-67.4	3.8	7.45e-01	0	37	104	0	69	30354
2026-01-19 04:58:29.50	321.24	25.05	-49.6	-67.4	3.8	7.45e-01	0	37	104	0	69	30271
2026-01-19 04:58:32.52	320.21	24.95	-49.6	-67.4	3.8	7.49e-01	0	37	104	0	69	30266
2026-01-19 04:58:35.55	319.19	24.84	-49.6	-67.4	3.8	7.44e-01	0	37	104	0	69	30280
2026-01-19 04:58:38.58	318.17	24.73	-49.6	-67.4	3.8	7.46e-01	0	37	104	0	69	30248
2026-01-19 04:58:41.60	317.17	24.60	-49.6	-67.4	3.8	7.45e-01	0	37	104	0	69	30208
2026-01-19 04:58:44.62	316.17	24.47	-49.6	-67.4	3.8	7.42e-01	0	37	104	0	69	30281
2026-01-19 04:58:47.65	315.18	24.32	-49.6	-67.4	3.8	7.41e-01	0	37	104	0	69	30286
2026-01-19 04:58:50.68	314.20	24.17	-49.6	-67.4	3.8	7.45e-01	0	37	104	0	69	30233
2026-01-19 04:58:53.70	313.24	24.01	-49.6	-67.4	3.8	7.45e-01	0	37	104	0	69	30225
2026-01-19 04:58:56.72	312.28	23.85	-49.6	-67.4	3.8	7.47e-01	0	37	104	0	69	30268
2026-01-19 04:58:59.75	311.33	23.68	-49.6	-67.4	3.8	7.45e-01	0	37	104	0	69	30246
2026-01-19 04:59:02.77	310.40	23.50	-49.6	-67.4	3.8	7.46e-01	0	37	104	0	69	30244
2026-01-19 04:59:05.80	309.47	23.31	-49.6	-67.4	3.8	7.47e-01	0	37	104	0	69	30261
2026-01-19 04:59:08.82	308.56	23.12	-49.6	-67.4	3.8	7.48e-01	0	37	104	0	69	30302
2026-01-19 04:59:11.84	307.66	22.92	-49.6	-67.4	3.8	7.46e-01	0	37	104	0	69	30251
2026-01-19 04:59:14.87	306.77	22.72	-49.6	-67.4	3.8	7.44e-01	0	37	104	0	69	30225
2026-01-19 04:59:17.89	305.89	22.51	-49.6	-67.4	3.8	7.44e-01	0	37	104	0	69	30333
2026-01-19 04:59:20.92	305.03	22.29	-49.6	-67.4	3.8	7.44e-01	0	37	104	0	69	30229
2026-01-19 04:59:23.94	304.18	22.07	-49.6	-67.4	3.8	7.44e-01	0	37	104	0	69	30272
2026-01-19 04:59:26.96	303.34	21.85	-49.6	-67.4	3.8	7.48e-01	0	37	104	0	69	30286
2026-01-19 04:59:29.99	302.51	21.63	-49.6	-67.4	3.8	7.45e-01	0	37	104	0	69	30297
2026-01-19 04:59:33.01	301.70	21.39	-49.6	-67.4	3.8	7.44e-01	0	37	104	0	69	30240
2026-01-19 04:59:36.04	300.90	21.16	-49.6	-67.4	3.8	7.44e-01	0	37	104	0	69	30316
2026-01-19 04:59:39.06	300.11	20.92	-49.6	-67.4	3.8	7.45e-01	0	37	104	0	69	30254
2026-01-19 04:59:42.09	299.34	20.68	-49.6	-67.4	3.8	7.43e-01	0	37	104	0	69	30293
2026-01-19 04:59:45.11	298.57	20.44	-49.6	-67.4	3.8	7.48e-01	0	37	104	0	69	30366
2026-01-19 04:59:48.13	297.83	20.19	-49.6	-67.4	3.8	7.46e-01	0	37	104	0	69	30291
2026-01-19 04:59:51.16	297.09	19.95	-49.6	-67.4	3.8	7.44e-01	0	37	104	0	69	30283
2026-01-19 04:59:54.18	296.37	19.70	-49.6	-67.4	3.8	7.47e-01	0	37	104	0	69	30261
2026-01-19 04:59:57.20	295.66	19.45	-49.6	-67.4	3.8	7.50e-01	0	37	104	0	69	30357
2026-01-19 05:00:00.23	294.95	19.19	-49.6	-67.4	3.8	7.44e-01	0	37	104	0	69	30305
2026-01-19 05:00:03.25	294.27	18.94	-49.6	-67.4	3.8	7.44e-01	0	37	104	0	69	30302
2026-01-19 05:00:06.28	293.59	18.68	-49.6	-67.4	3.8	7.37e-01	0	37	104	0	69	30296
2026-01-19 05:00:09.30	292.93	18.43	-49.6	-67.4	3.8	7.45e-01	0	37	104	0	69	30245
2026-01-19 05:00:12.32	292.28	18.17	-49.6	-67.4	3.8	7.44e-01	0	37	104	0	69	30262
2026-01-19 05:00:15.35	291.64	17.91	-49.6	-67.4	3.8	7.44e-01	0	37	104	0	69	30286
2026-01-19 05:00:18.37	291.01	17.65	-49.6	-67.4	3.8	7.47e-01	0	37	104	0	69	30271
2026-01-19 05:00:21.40	290.40	17.39	-49.6	-67.4	3.8	7.45e-01	0	37	104	0	69	30192
2026-01-19 05:00:24.42	289.79	17.14	-49.6	-67.4	3.8	7.48e-01	0	37	104	0	69	30283
2026-01-19 05:00:27.44	289.20	16.88	-49.6	-67.4	3.8	7.46e-01	0	37	104	0	69	30280
2026-01-19 05:00:30.47	288.62	16.62	-49.6	-67.4	3.8	7.46e-01	0	37	104	0	69	30259
2026-01-19 05:00:33.49	288.04	16.36	-49.6	-67.4	3.8	7.45e-01	0	37	104	0	69	30292
2026-01-19 05:00:36.52	287.48	16.10	-49.6	-67.4	3.8	7.46e-01	0	37	104	0	69	30318
2026-01-19 05:00:39.54	286.93	15.84	-49.6	-67.4	3.8	7.44e-01	0	37	104	0	69	30268
2026-01-19 05:00:42.57	286.39	15.58	-49.6	-67.4	3.8	7.45e-01	0	37	104	0	69	30209
2026-01-19 05:00:45.59	285.86	15.33	-49.6	-67.4	3.8	7.43e-01	0	37	104	0	69	30341
2026-01-19 05:00:48.61	285.34	15.07	-49.6	-67.4	3.8	7.49e-01	0	37	104	0	69	30251
2026-01-19 05:00:51.64	284.82	14.82	-49.6	-67.4	3.8	7.47e-01	0	37	104	0	69	30308
2026-01-19 05:00:54.66	284.32	14.56	-49.6	-67.4	3.8	7.46e-01	0	37	104	0	69	30238
2026-01-19 05:00:57.68	283.83	14.31	-49.6	-67.4	3.8	7.45e-01	0	37	104	0	69	30284
2026-01-19 05:01:00.70	283.35	14.05	-49.6	-67.4	3.8	7.49e-01	0	37	104	0	69	30268
2026-01-19 05:01:03.73	282.87	13.80	-49.6	-67.4	3.8	7.47e-01	0	37	104	0	69	30248
2026-01-19 05:01:06.76	282.40	13.55	-49.6	-67.4	3.8	7.44e-01	0	37	104	0	69	30265
2026-01-19 05:01:09.78	281.94	13.30	-49.6	-67.4	3.8	7.46e-01	0	37	104	0	69	30267
2026-01-19 05:01:12.80	281.50	13.05	-49.6	-67.4	3.8	7.47e-01	0	37	104	0	69	30312
2026-01-19 05:01:15.83	281.05	12.80	-49.6	-67.4	3.8	7.41e-01	0	37	104	0	69	30236
2026-01-19 05:01:18.85	280.62	12.56	-49.6	-67.4	3.8	7.46e-01	0	37	104	0	69	30228
2026-01-19 05:01:21.87	280.19	12.31	-49.6	-67.4	3.8	7.39e-01	0	37	104	0	69	30254
2026-01-19 05:01:24.90	279.78	12.07	-49.6	-67.4	3.8	7.42e-01	0	37	104	0	69	30289
2026-01-19 05:01:27.92	279.37	11.83	-49.6	-67.4	3.8	7.45e-01	0	37	104	0	69	30207
2026-01-19 05:01:30.95	278.96	11.58	-49.6	-67.4	3.8	7.47e-01	0	37	104	0	69	30243
2026-01-19 05:01:33.97	278.57	11.34	-49.6	-67.4	3.8	7.46e-01	0	37	104	0	69	30284
2026-01-19 05:01:37.00	278.18	11.10	-49.6	-67.4	3.8	7.44e-01	0	37	104	0	69	30271
2026-01-19 05:01:40.02	277.80	10.87	-49.6	-67.4	3.8	7.46e-01	0	37	104	0	69	30248
2026-01-19 05:01:43.04	277.42	10.63	-49.6	-67.4	3.8	7.44e-01	0	37	104	0	69	30260
2026-01-19 05:01:46.07	277.05	10.40	-49.6	-67.4	3.8	7.47e-01	0	37	104	0	69	30310
2026-01-19 05:01:49.09	276.69	10.16	-49.6	-67.4	3.8	7.46e-01	0	37	104	0	69	30253
2026-01-19 05:01:52.11	276.33	9.93	-49.6	-67.4	3.8	7.45e-01	0	37	104	0	69	30291
2026-01-19 05:01:55.14	275.98	9.70	-49.6	-67.4	3.8	7.44e-01	0	37	104	0	69	30292
2026-01-19 05:01:58.16	275.64	9.47	-49.6	-67.4	3.8	7.48e-01	0	37	104	0	69	30252
2026-01-19 05:02:01.18	275.30	9.25	-49.6	-67.4	3.8	7.48e-01	0	37	104	0	69	30270
2026-01-19 05:02:04.20	274.97	9.02	-49.6	-67.4	3.8	7.45e-01	0	37	104	0	69	30189
2026-01-19 05:02:07.23	274.64	8.79	-49.6	-67.4	3.8	7.47e-01	0	37	104	0	69	30284
2026-01-19 05:02:10.25	274.32	8.57	-49.6	-67.4	3.8	7.48e-01	0	37	104	0	69	30211
2026-01-19 05:02:13.28	274.01	8.35	-49.6	-67.4	3.8	7.47e-01	0	37	104	0	69	30293
2026-01-19 05:02:16.30	273.70	8.13	-49.6	-67.4	3.8	7.42e-01	0	37	104	0	69	30283
2026-01-19 05:02:19.32	273.39	7.91	-49.6	-67.4	3.8	7.45e-01	0	37	104	0	69	30338
2026-01-19 05:02:22.34	273.09	7.69	-49.6	-67.4	3.8	7.45e-01	0	37	104	0	69	30241
2026-01-19 05:02:25.37	272.80	7.47	-49.6	-67.4	3.8	7.43e-01	0	37	104	0	69	30303
2026-01-19 05:02:28.39	272.51	7.26	-49.6	-67.4	3.8	7.43e-01	0	37	104	0	69	30265
2026-01-19 05:02:31.42	272.22	7.05	-49.6	-67.4	3.8	7.45e-01	0	37	104	0	69	30300
2026-01-19 05:02:34.44	271.94	6.83	-49.6	-67.4	3.8	7.45e-01	0	37	104	0	69	30247
2026-01-19 05:02:37.46	271.67	6.62	-49.6	-67.4	3.8	7.46e-01	0	37	104	0	69	30218
2026-01-19 05:02:40.48	271.40	6.41	-49.6	-67.4	3.8	7.43e-01	0	37	104	0	69	30204
2026-01-19 05:02:43.51	271.13	6.20	-49.6	-67.4	3.8	7.46e-01	0	37	104	0	69	30213
2026-01-19 05:02:46.54	270.87	6.00	-49.6	-67.4	3.8	7.44e-01	0	37	104	0	69	30259
2026-01-19 05:02:49.56	270.61	5.79	-49.6	-67.4	3.8	7.46e-01	0	37	104	0	69	30258
2026-01-19 05:02:52.58	270.35	5.59	-49.6	-67.4	3.8	7.44e-01	0	37	104	0	69	30335
2026-01-19 05:02:55.61	270.10	5.38	-49.6	-67.4	3.8	7.45e-01	0	37	104	0	69	30248
2026-01-19 05:02:58.63	269.86	5.18	-49.6	-67.4	3.8	7.45e-01	0	37	104	0	69	30238
2026-01-19 05:03:01.65	269.61	4.98	-49.6	-67.4	3.8	7.46e-01	0	37	104	0	69	30267
2026-01-19 05:03:04.68	269.37	4.78	-49.6	-67.4	3.8	7.44e-01	0	37	104	0	69	30301
2026-01-19 05:03:07.70	269.14	4.58	-49.6	-67.4	3.8	7.46e-01	0	37	104	0	69	30230
2026-01-19 05:03:10.72	268.91	4.38	-49.6	-67.4	3.8	7.42e-01	0	37	104	0	69	30236
2026-01-19 05:03:13.75	268.68	4.19	-49.6	-67.4	3.8	7.47e-01	0	37	104	0	69	30252
2026-01-19 05:03:16.78	268.45	3.99	-49.6	-67.4	3.8	7.47e-01	0	37	104	0	69	30206
2026-01-19 05:03:19.80	268.23	3.80	-49.6	-67.4	3.8	7.46e-01	0	37	104	0	69	30242
2026-01-19 05:03:22.82	268.01	3.61	-49.6	-67.4	3.8	7.46e-01	0	37	104	0	69	30230
2026-01-19 05:03:25.85	267.80	3.41	-49.6	-67.4	3.8	7.46e-01	0	37	104	0	69	30186
2026-01-19 05:03:28.88	267.58	3.22	-49.6	-67.4	3.8	7.49e-01	0	37	104	0	69	30243
2026-01-19 05:03:31.90	267.38	3.03	-49.6	-67.4	3.8	7.45e-01	0	37	104	0	69	30224
2026-01-19 05:03:34.92	267.17	2.85	-49.6	-67.4	3.8	7.43e-01	0	36	104	0	69	30295
2026-01-19 05:03:37.95	266.97	2.66	-49.6	-67.4	3.8	7.47e-01	0	37	104	0	69	30235
2026-01-19 05:03:40.97	266.77	2.47	-49.6	-67.4	3.8	7.45e-01	0	37	104	0	69	30186
2026-01-19 05:03:44.00	266.57	2.29	-49.6	-67.4	3.8	7.44e-01	0	37	104	0	69	30267
2026-01-19 05:03:47.02	266.38	2.10	-49.6	-67.4	3.8	7.48e-01	0	37	104	0	69	30253

#Closed at: 2026-01-19 05:03:49
#Recorded file [0 MB]: D:/lorett/data/31041_260119_075214.dat