passes_logs/2026/01/19/R3.2S_Murmansk/R3.2S_Murmansk__20260119_041516_FENGYUN_3D_rec.log

#Pass ID: 20260119_041516_FENGYUN 3D
#Satellite: FENGYUN 3D
#Configuration: FENGYUN 3D
#almurnet v.1.7.20251203
#Start time: 2026-01-19 04:15:18

#Version: 2.2.20231116
#Station: R3.2S_Murmansk
#Location: 33.079688 lon 68.888172 lat
#TLE: 1 43010U 17072A   26018.59788810  .00000129  00000+0  82801-4 0  9992
#TLE: 2 43010  98.9937 350.4692 0002400 102.4643 257.6801 14.19696801423766

#Time	Az	El	Level	Level2	SNR	BER	BlckErr	Temp	State	Recorded	gain1	gain2
2026-01-19 04:15:18.31	32.35	2.09	-47.9	-59.8	3.8	8.47e-01	0	35	0	0	66	14894
2026-01-19 04:15:22.33	32.23	2.34	-47.9	-59.7	3.8	8.46e-01	0	35	104	0	66	14841
2026-01-19 04:15:26.36	32.10	2.60	-47.9	-59.7	3.8	8.47e-01	0	35	104	0	66	14861
2026-01-19 04:15:30.40	31.97	2.85	-47.9	-59.8	3.8	8.46e-01	0	35	104	0	66	14911
2026-01-19 04:15:34.43	31.83	3.11	-47.9	-59.7	3.8	8.46e-01	0	35	104	0	66	14861
2026-01-19 04:15:38.46	31.70	3.38	-47.9	-59.8	3.8	8.45e-01	0	36	104	0	66	14884
2026-01-19 04:15:42.49	31.56	3.64	-47.9	-59.8	3.8	8.46e-01	0	36	104	0	66	14890
2026-01-19 04:15:46.52	31.41	3.90	-47.9	-59.7	3.8	8.46e-01	0	36	104	0	66	14867
2026-01-19 04:15:50.55	31.27	4.17	-47.9	-59.7	3.8	8.46e-01	0	36	104	0	66	14857
2026-01-19 04:15:54.59	31.12	4.44	-47.9	-59.7	3.8	8.45e-01	0	36	104	0	66	14851
2026-01-19 04:15:58.62	30.97	4.72	-47.9	-59.7	3.8	8.46e-01	0	36	104	0	66	14843
2026-01-19 04:16:02.65	30.82	4.99	-47.9	-59.7	3.8	8.46e-01	0	36	104	0	66	14815
2026-01-19 04:16:06.68	30.66	5.27	-47.9	-59.7	3.8	8.46e-01	0	36	104	0	66	14821
2026-01-19 04:16:10.71	30.50	5.55	-47.9	-59.7	3.8	8.46e-01	0	36	104	0	66	14841
2026-01-19 04:16:14.74	30.33	5.84	-47.9	-59.7	3.8	8.47e-01	0	36	104	0	66	14843
2026-01-19 04:16:18.77	30.16	6.13	-47.9	-59.7	3.8	8.46e-01	0	36	104	0	66	14828
2026-01-19 04:16:22.80	29.99	6.42	-47.9	-59.7	3.8	8.46e-01	0	36	104	0	66	14815
2026-01-19 04:16:26.84	29.82	6.71	-47.9	-59.8	3.8	8.45e-01	0	36	104	0	66	14907
2026-01-19 04:16:30.87	29.64	7.01	-47.9	-59.7	3.8	8.47e-01	0	36	104	0	66	14861
2026-01-19 04:16:34.90	29.45	7.31	-47.9	-59.8	3.8	8.46e-01	0	36	104	0	66	14907
2026-01-19 04:16:38.94	29.27	7.61	-47.9	-59.8	3.8	8.46e-01	0	36	104	0	66	14894
2026-01-19 04:16:42.96	29.08	7.91	-47.9	-59.7	3.8	8.47e-01	0	36	104	0	66	14852
2026-01-19 04:16:47.00	28.88	8.22	-47.9	-59.7	3.8	8.45e-01	0	36	104	0	66	14841
2026-01-19 04:16:51.03	28.68	8.54	-47.9	-59.7	3.8	8.47e-01	0	36	104	0	66	14846
2026-01-19 04:16:55.06	28.47	8.85	-47.9	-59.7	3.8	8.46e-01	0	36	104	0	66	14869
2026-01-19 04:16:59.09	28.26	9.17	-47.9	-59.7	3.8	8.45e-01	0	36	104	0	66	14821
2026-01-19 04:17:03.12	28.05	9.50	-47.9	-59.7	3.8	8.46e-01	0	37	104	0	66	14838
2026-01-19 04:17:07.15	27.83	9.82	-47.9	-59.7	3.8	8.47e-01	0	36	104	0	66	14874
2026-01-19 04:17:11.19	27.60	10.16	-47.9	-59.8	3.8	8.46e-01	0	36	104	0	66	14911
2026-01-19 04:17:15.22	27.37	10.49	-47.9	-59.7	3.8	8.46e-01	0	37	104	0	66	14843
2026-01-19 04:17:19.25	27.13	10.83	-47.9	-59.8	3.8	8.46e-01	0	37	104	0	66	14885
2026-01-19 04:17:23.28	26.89	11.18	-47.9	-59.7	3.8	8.46e-01	0	37	104	0	66	14872
2026-01-19 04:17:27.31	26.64	11.52	-47.9	-59.7	3.8	8.46e-01	0	37	104	0	66	14838
2026-01-19 04:17:31.34	26.38	11.88	-47.9	-59.7	3.8	8.46e-01	0	37	104	0	66	14870
2026-01-19 04:17:35.38	26.12	12.23	-47.9	-59.7	3.8	8.47e-01	0	37	104	0	66	14874
2026-01-19 04:17:39.41	25.85	12.60	-47.9	-59.8	3.8	8.46e-01	0	37	104	0	66	14880
2026-01-19 04:17:43.44	25.57	12.96	-47.9	-59.7	3.8	8.46e-01	0	37	104	0	66	14801
2026-01-19 04:17:47.47	25.29	13.33	-47.9	-59.8	3.8	8.47e-01	0	37	104	0	66	14921
2026-01-19 04:17:51.50	24.99	13.71	-47.9	-59.8	3.8	8.47e-01	0	37	104	0	66	14880
2026-01-19 04:17:55.53	24.69	14.09	-47.9	-59.7	3.8	8.47e-01	0	37	104	0	66	14861
2026-01-19 04:17:59.56	24.39	14.48	-47.9	-59.7	3.8	8.46e-01	0	37	104	0	66	14856
2026-01-19 04:18:03.60	24.07	14.87	-47.9	-59.8	3.8	8.45e-01	0	37	104	0	66	14885
2026-01-19 04:18:07.62	23.74	15.27	-47.9	-59.7	3.8	8.46e-01	0	37	104	0	66	14877
2026-01-19 04:18:11.66	23.41	15.67	-47.9	-59.7	3.8	8.46e-01	0	37	104	0	66	14854
2026-01-19 04:18:15.69	23.06	16.08	-47.9	-59.8	3.8	8.47e-01	0	37	104	0	66	14943
2026-01-19 04:18:19.72	22.71	16.50	-47.9	-59.8	3.8	8.46e-01	0	37	104	0	66	14914
2026-01-19 04:18:23.75	22.34	16.92	-47.9	-59.8	3.8	8.47e-01	0	37	104	0	66	14915
2026-01-19 04:18:27.78	21.97	17.34	-47.9	-59.8	3.8	8.45e-01	0	37	104	0	66	14933
2026-01-19 04:18:31.81	21.58	17.78	-47.9	-59.8	3.8	8.45e-01	0	37	104	0	66	14902
2026-01-19 04:18:35.84	21.18	18.21	-47.9	-59.7	3.8	8.47e-01	0	37	104	0	66	14818
2026-01-19 04:18:39.88	20.77	18.66	-47.9	-59.7	3.8	8.46e-01	0	37	104	0	66	14812
2026-01-19 04:18:43.91	20.35	19.11	-47.9	-59.7	3.8	8.47e-01	0	37	104	0	66	14836
2026-01-19 04:18:47.94	19.91	19.57	-47.9	-59.7	3.8	8.46e-01	0	37	104	0	66	14834
2026-01-19 04:18:51.97	19.46	20.04	-47.9	-59.7	3.8	8.47e-01	0	37	104	0	66	14860
2026-01-19 04:18:56.01	18.99	20.51	-47.9	-59.7	3.8	8.46e-01	0	37	104	0	66	14846
2026-01-19 04:19:00.04	18.51	20.99	-47.9	-59.7	3.8	8.46e-01	0	37	104	0	66	14836
2026-01-19 04:19:04.08	18.01	21.48	-47.9	-59.7	3.8	8.46e-01	0	37	104	0	66	14852
2026-01-19 04:19:08.10	17.50	21.97	-47.9	-59.7	3.8	8.46e-01	0	37	104	0	66	14859
2026-01-19 04:19:12.14	16.97	22.47	-47.9	-59.8	3.8	8.46e-01	0	37	104	0	66	14895
2026-01-19 04:19:16.17	16.42	22.98	-47.9	-59.8	3.8	8.46e-01	0	37	104	0	66	14883
2026-01-19 04:19:20.20	15.86	23.49	-47.9	-59.8	3.8	8.47e-01	0	37	104	0	66	14883
2026-01-19 04:19:24.24	15.27	24.02	-47.9	-59.7	3.8	8.48e-01	0	37	104	0	66	14841
2026-01-19 04:19:28.27	14.66	24.55	-47.9	-59.7	3.8	8.47e-01	0	37	104	0	66	14859
2026-01-19 04:19:32.30	14.04	25.08	-47.9	-59.7	3.8	8.46e-01	0	37	104	0	66	14852
2026-01-19 04:19:36.33	13.39	25.63	-47.9	-59.8	3.8	8.46e-01	0	37	104	0	66	14910
2026-01-19 04:19:40.36	12.71	26.18	-47.9	-59.8	3.8	8.45e-01	0	37	104	0	66	14890
2026-01-19 04:19:44.40	12.01	26.74	-47.9	-59.7	3.8	8.45e-01	0	37	104	0	66	14868
2026-01-19 04:19:48.42	11.29	27.30	-47.9	-59.7	3.8	8.47e-01	0	37	104	0	66	14870
2026-01-19 04:19:52.45	10.54	27.87	-47.9	-59.7	3.8	8.45e-01	0	37	104	0	66	14861
2026-01-19 04:19:56.48	9.76	28.45	-47.9	-59.7	3.8	8.45e-01	0	37	104	0	66	14875
2026-01-19 04:20:00.52	8.96	29.03	-47.9	-59.8	3.8	8.47e-01	0	37	104	0	66	14893
2026-01-19 04:20:04.55	8.12	29.62	-47.9	-59.8	3.8	8.46e-01	0	37	104	0	66	14883
2026-01-19 04:20:08.58	7.25	30.21	-47.9	-59.7	3.8	8.46e-01	0	37	104	0	66	14842
2026-01-19 04:20:12.61	6.35	30.81	-47.9	-59.8	3.8	8.46e-01	0	37	104	0	66	14907
2026-01-19 04:20:16.64	5.41	31.41	-47.9	-59.7	3.8	8.46e-01	0	37	104	0	66	14866
2026-01-19 04:20:20.68	4.43	32.02	-47.9	-59.7	3.8	8.47e-01	0	37	104	0	66	14871
2026-01-19 04:20:24.71	3.42	32.62	-47.9	-59.8	3.8	8.46e-01	0	37	104	0	66	14890
2026-01-19 04:20:28.74	2.37	33.23	-47.9	-59.8	3.8	8.44e-01	0	37	104	0	66	14906
2026-01-19 04:20:32.78	1.28	33.85	-47.9	-59.8	3.8	8.47e-01	0	37	104	0	66	14919
2026-01-19 04:20:36.81	0.15	34.46	-47.9	-59.8	3.8	8.47e-01	0	37	104	0	66	14904
2026-01-19 04:20:40.84	358.97	35.06	-47.9	-59.8	3.8	8.46e-01	0	37	104	0	66	14904
2026-01-19 04:20:44.87	357.75	35.67	-47.9	-59.8	3.8	8.46e-01	0	37	104	0	66	14902
2026-01-19 04:20:48.90	356.48	36.27	-47.9	-59.7	3.8	8.46e-01	0	37	104	0	66	14855
2026-01-19 04:20:52.94	355.16	36.87	-47.9	-59.8	3.8	8.47e-01	0	37	104	0	66	14921
2026-01-19 04:20:56.97	353.80	37.46	-47.9	-59.8	3.8	8.46e-01	0	37	104	0	66	14901
2026-01-19 04:21:01.00	352.38	38.04	-47.9	-59.7	3.8	8.45e-01	0	37	104	0	66	14863
2026-01-19 04:21:05.03	350.91	38.61	-47.9	-59.7	3.8	8.46e-01	0	37	104	0	66	14878
2026-01-19 04:21:09.07	349.39	39.17	-47.9	-59.7	3.8	8.46e-01	0	37	104	0	66	14845
2026-01-19 04:21:13.10	347.82	39.71	-47.9	-59.7	3.8	8.47e-01	0	37	104	0	66	14851
2026-01-19 04:21:17.13	346.19	40.23	-47.9	-59.7	3.8	8.45e-01	0	37	104	0	66	14841
2026-01-19 04:21:21.16	344.51	40.73	-47.9	-59.8	3.8	8.45e-01	0	37	104	0	66	14897
2026-01-19 04:21:25.19	342.78	41.22	-47.9	-59.8	3.8	8.46e-01	0	37	104	0	66	14940
2026-01-19 04:21:29.23	341.00	41.67	-47.9	-59.7	3.8	8.44e-01	0	37	104	0	66	14830
2026-01-19 04:21:33.26	339.17	42.11	-47.9	-59.8	3.8	8.47e-01	0	37	104	0	66	14906
2026-01-19 04:21:37.29	337.29	42.51	-47.9	-59.7	3.8	8.45e-01	0	37	104	0	66	14873
2026-01-19 04:21:41.32	335.36	42.88	-47.9	-59.8	3.8	8.46e-01	0	37	104	0	66	14893
2026-01-19 04:21:45.35	333.39	43.21	-47.9	-59.8	3.8	8.45e-01	0	37	104	0	66	14894
2026-01-19 04:21:49.38	331.38	43.51	-47.9	-59.7	3.8	8.46e-01	0	37	104	0	66	14876
2026-01-19 04:21:53.41	329.34	43.77	-47.9	-59.8	3.8	8.47e-01	0	37	104	0	66	14884
2026-01-19 04:21:57.45	327.26	43.99	-47.9	-59.8	3.8	8.46e-01	0	37	104	0	66	14895
2026-01-19 04:22:01.45	325.17	44.17	-47.9	-59.8	3.8	8.47e-01	0	37	104	0	66	14899
2026-01-19 04:22:05.49	323.04	44.31	-47.9	-59.7	3.8	8.46e-01	0	37	104	0	66	14876
2026-01-19 04:22:09.52	320.90	44.40	-47.9	-59.8	3.8	8.45e-01	0	37	104	0	66	14891
2026-01-19 04:22:13.56	318.75	44.45	-47.9	-59.7	3.8	8.47e-01	0	37	104	0	66	14879
2026-01-19 04:22:17.58	316.60	44.45	-47.9	-59.7	3.8	8.46e-01	0	37	104	0	66	14865
2026-01-19 04:22:21.61	314.45	44.41	-47.9	-59.7	3.8	8.46e-01	0	37	104	0	66	14850
2026-01-19 04:22:25.64	312.31	44.32	-47.9	-59.8	3.8	8.46e-01	0	37	104	0	66	14906
2026-01-19 04:22:29.67	310.18	44.19	-47.9	-59.8	3.8	8.45e-01	0	37	104	0	66	14911
2026-01-19 04:22:33.70	308.08	44.02	-47.9	-59.7	3.8	8.46e-01	0	37	104	0	66	14877
2026-01-19 04:22:37.74	305.99	43.80	-47.9	-59.7	3.8	8.46e-01	0	37	104	0	66	14847
2026-01-19 04:22:41.77	303.94	43.55	-47.9	-59.8	3.8	8.45e-01	0	37	104	0	66	14885
2026-01-19 04:22:45.80	301.93	43.25	-47.9	-59.8	3.8	8.46e-01	0	37	104	0	66	14926
2026-01-19 04:22:49.83	299.95	42.92	-47.9	-59.7	3.8	8.47e-01	0	37	104	0	66	14872
2026-01-19 04:22:53.86	298.02	42.55	-47.9	-59.7	3.8	8.47e-01	0	37	104	0	66	14867
2026-01-19 04:22:57.89	296.13	42.15	-47.9	-59.7	3.8	8.46e-01	0	37	104	0	66	14831
2026-01-19 04:23:01.92	294.29	41.73	-47.9	-59.7	3.8	8.46e-01	0	37	104	0	66	14873
2026-01-19 04:23:05.96	292.49	41.27	-47.9	-59.7	3.8	8.45e-01	0	37	104	0	66	14873
2026-01-19 04:23:09.99	290.75	40.79	-47.9	-59.7	3.8	8.46e-01	0	37	104	0	66	14876
2026-01-19 04:23:14.02	289.07	40.29	-47.9	-59.7	3.8	8.47e-01	0	37	104	0	66	14845
2026-01-19 04:23:18.05	287.43	39.77	-47.9	-59.7	3.8	8.46e-01	0	37	104	0	66	14875
2026-01-19 04:23:22.08	285.85	39.23	-47.9	-59.8	3.8	8.46e-01	0	37	104	0	66	14889
2026-01-19 04:23:26.12	284.32	38.67	-47.9	-59.7	3.8	8.47e-01	0	37	104	0	66	14876
2026-01-19 04:23:30.15	282.85	38.10	-47.9	-59.8	3.8	8.46e-01	0	37	104	0	66	14915
2026-01-19 04:23:34.18	281.42	37.52	-47.9	-59.8	3.8	8.46e-01	0	37	104	0	66	14927
2026-01-19 04:23:38.21	280.05	36.93	-47.9	-59.7	3.8	8.47e-01	0	37	104	0	66	14850
2026-01-19 04:23:42.24	278.72	36.33	-47.9	-59.7	3.8	8.47e-01	0	37	104	0	66	14864
2026-01-19 04:23:46.27	277.44	35.73	-47.9	-59.8	3.8	8.46e-01	0	37	104	0	66	14898
2026-01-19 04:23:50.30	276.21	35.12	-47.9	-59.8	3.8	8.45e-01	0	37	104	0	66	14912
2026-01-19 04:23:54.34	275.03	34.51	-47.9	-59.8	3.8	8.46e-01	0	37	104	0	66	14922
2026-01-19 04:23:58.37	273.89	33.90	-47.9	-59.8	3.8	8.46e-01	0	37	104	0	66	14891
2026-01-19 04:24:02.39	272.79	33.29	-47.9	-59.7	3.8	8.45e-01	0	37	104	0	66	14863
2026-01-19 04:24:06.42	271.73	32.68	-47.9	-59.8	3.8	8.46e-01	0	37	104	0	66	14908
2026-01-19 04:24:10.46	270.71	32.07	-47.9	-59.8	3.8	8.46e-01	0	37	104	0	66	14913
2026-01-19 04:24:14.49	269.73	31.46	-47.9	-59.8	3.8	8.46e-01	0	37	104	0	66	14880
2026-01-19 04:24:18.52	268.79	30.86	-47.9	-59.8	3.8	8.47e-01	0	37	104	0	66	14895
2026-01-19 04:24:22.55	267.88	30.26	-47.9	-59.8	3.8	8.46e-01	0	37	104	0	66	14897
2026-01-19 04:24:26.59	267.00	29.66	-47.9	-59.7	3.8	8.46e-01	0	37	104	0	66	14875
2026-01-19 04:24:30.62	266.16	29.07	-47.9	-59.8	3.8	8.47e-01	0	37	104	0	66	14906
2026-01-19 04:24:34.65	265.35	28.49	-47.9	-59.8	3.8	8.47e-01	0	37	104	0	66	14912
2026-01-19 04:24:38.68	264.56	27.91	-47.9	-59.8	3.8	8.46e-01	0	37	104	0	66	14905
2026-01-19 04:24:42.71	263.81	27.33	-47.9	-59.8	3.8	8.46e-01	0	37	104	0	66	14884
2026-01-19 04:24:46.74	263.08	26.77	-47.9	-59.8	3.8	8.45e-01	0	37	104	0	66	14914
2026-01-19 04:24:50.78	262.37	26.21	-47.9	-59.7	3.8	8.46e-01	0	37	104	0	66	14870
2026-01-19 04:24:54.81	261.70	25.65	-47.9	-59.8	3.8	8.45e-01	0	37	104	0	66	14891
2026-01-19 04:24:58.84	261.04	25.11	-47.9	-59.7	3.8	8.46e-01	0	37	104	0	66	14858
2026-01-19 04:25:02.87	260.41	24.57	-47.9	-59.8	3.8	8.46e-01	0	37	104	0	66	14914
2026-01-19 04:25:06.90	259.80	24.04	-47.9	-59.8	3.8	8.46e-01	0	37	104	0	66	14939
2026-01-19 04:25:10.93	259.21	23.51	-47.9	-59.8	3.8	8.47e-01	0	37	104	0	66	14901
2026-01-19 04:25:14.97	258.64	23.00	-47.9	-59.8	3.8	8.45e-01	0	37	104	0	66	14918
2026-01-19 04:25:19.00	258.08	22.49	-47.9	-59.8	3.8	8.46e-01	0	37	104	0	66	14886
2026-01-19 04:25:23.03	257.55	21.98	-47.9	-59.8	3.8	8.46e-01	0	37	104	0	66	14886
2026-01-19 04:25:27.06	257.03	21.49	-47.9	-59.8	3.8	8.46e-01	0	37	104	0	66	14915
2026-01-19 04:25:31.10	256.53	21.00	-47.9	-59.8	3.8	8.47e-01	0	37	104	0	66	14914
2026-01-19 04:25:35.13	256.05	20.52	-47.9	-59.8	3.8	8.46e-01	0	37	104	0	66	14889
2026-01-19 04:25:39.16	255.58	20.04	-47.9	-59.8	3.8	8.46e-01	0	37	104	0	66	14885
2026-01-19 04:25:43.19	255.12	19.57	-47.9	-59.7	3.8	8.46e-01	0	37	104	0	66	14861
2026-01-19 04:25:47.23	254.68	19.11	-47.9	-59.8	3.8	8.46e-01	0	37	104	0	66	14911
2026-01-19 04:25:51.26	254.26	18.66	-47.9	-59.8	3.8	8.47e-01	0	37	104	0	66	14902
2026-01-19 04:25:55.29	253.84	18.21	-47.9	-59.8	3.8	8.45e-01	0	37	104	0	66	14934
2026-01-19 04:25:59.32	253.44	17.77	-47.9	-59.7	3.8	8.46e-01	0	37	104	0	66	14872
2026-01-19 04:26:03.35	253.05	17.34	-47.9	-59.8	3.8	8.46e-01	0	37	104	0	66	14900
2026-01-19 04:26:07.38	252.67	16.91	-47.9	-59.8	3.8	8.47e-01	0	37	104	0	66	14914
2026-01-19 04:26:11.41	252.30	16.49	-47.9	-59.8	3.8	8.46e-01	0	37	104	0	66	14899
2026-01-19 04:26:15.45	251.94	16.07	-47.9	-59.8	3.8	8.46e-01	0	37	104	0	66	14901
2026-01-19 04:26:19.48	251.60	15.66	-47.9	-59.8	3.8	8.46e-01	0	37	104	0	66	14881
2026-01-19 04:26:23.51	251.26	15.25	-47.9	-59.7	3.8	8.47e-01	0	37	104	0	66	14869
2026-01-19 04:26:27.55	250.93	14.85	-47.9	-59.8	3.8	8.46e-01	0	37	104	0	66	14882
2026-01-19 04:26:31.59	250.61	14.46	-47.9	-59.8	3.8	8.46e-01	0	37	104	0	66	14889
2026-01-19 04:26:35.62	250.30	14.07	-47.9	-59.8	3.8	8.46e-01	0	37	104	0	66	14894
2026-01-19 04:26:39.65	250.00	13.69	-47.9	-59.8	3.8	8.46e-01	0	37	104	0	66	14911
2026-01-19 04:26:43.68	249.70	13.31	-47.9	-59.8	3.8	8.46e-01	0	37	104	0	66	14936
2026-01-19 04:26:47.72	249.41	12.94	-47.9	-59.7	3.8	8.45e-01	0	37	104	0	66	14863
2026-01-19 04:26:51.75	249.13	12.57	-47.9	-59.8	3.8	8.46e-01	0	37	104	0	66	14903
2026-01-19 04:26:55.78	248.86	12.20	-47.9	-59.8	3.8	8.45e-01	0	37	104	0	66	14917
2026-01-19 04:26:59.81	248.60	11.85	-47.9	-59.7	3.8	8.46e-01	0	37	104	0	66	14876
2026-01-19 04:27:03.84	248.34	11.49	-47.9	-59.7	3.8	8.45e-01	0	37	104	0	66	14873
2026-01-19 04:27:07.87	248.08	11.14	-47.9	-59.8	3.8	8.46e-01	0	37	104	0	66	14914
2026-01-19 04:27:11.90	247.84	10.80	-47.9	-59.8	3.8	8.47e-01	0	37	104	0	66	14884
2026-01-19 04:27:15.93	247.60	10.46	-47.9	-59.8	3.8	8.47e-01	0	37	104	0	66	14897
2026-01-19 04:27:19.96	247.36	10.12	-47.9	-59.7	3.8	8.45e-01	0	37	104	0	66	14878
2026-01-19 04:27:23.99	247.13	9.79	-47.9	-59.7	3.8	8.47e-01	0	37	104	0	66	14879
2026-01-19 04:27:28.02	246.91	9.46	-47.9	-59.7	3.8	8.47e-01	0	37	104	0	66	14862
2026-01-19 04:27:32.06	246.69	9.13	-47.9	-59.7	3.8	8.46e-01	0	37	104	0	66	14852
2026-01-19 04:27:36.09	246.48	8.81	-47.9	-59.8	3.8	8.46e-01	0	37	104	0	66	14881
2026-01-19 04:27:40.12	246.27	8.50	-47.9	-59.7	3.8	8.47e-01	0	37	104	0	66	14869
2026-01-19 04:27:44.15	246.07	8.18	-47.9	-59.7	3.8	8.46e-01	0	37	104	0	66	14849
2026-01-19 04:27:48.18	245.87	7.87	-47.9	-59.7	3.8	8.47e-01	0	37	104	0	66	14856
2026-01-19 04:27:52.21	245.67	7.57	-47.9	-59.8	3.8	8.46e-01	0	37	104	0	66	14914
2026-01-19 04:27:56.24	245.48	7.26	-47.9	-59.8	3.8	8.47e-01	0	37	104	0	66	14924
2026-01-19 04:28:00.27	245.30	6.96	-47.9	-59.8	3.8	8.46e-01	0	37	104	0	66	14886
2026-01-19 04:28:04.30	245.12	6.67	-47.9	-59.8	3.8	8.46e-01	0	37	104	0	66	14893
2026-01-19 04:28:08.33	244.94	6.37	-47.9	-59.7	3.8	8.46e-01	0	37	104	0	66	14856
2026-01-19 04:28:12.37	244.76	6.08	-47.9	-59.7	3.8	8.45e-01	0	37	104	0	66	14829
2026-01-19 04:28:16.40	244.59	5.79	-47.9	-59.7	3.8	8.46e-01	0	37	104	0	66	14870
2026-01-19 04:28:20.44	244.42	5.51	-47.9	-59.8	3.8	8.47e-01	0	37	104	0	66	14909
2026-01-19 04:28:24.46	244.26	5.22	-47.9	-59.8	3.8	8.46e-01	0	37	104	0	66	14894
2026-01-19 04:28:28.50	244.10	4.94	-47.9	-59.8	3.8	8.47e-01	0	37	104	0	66	14885
2026-01-19 04:28:32.53	243.94	4.67	-47.9	-59.8	3.8	8.47e-01	0	37	104	0	66	14896
2026-01-19 04:28:36.56	243.79	4.39	-47.9	-59.8	3.8	8.46e-01	0	37	104	0	66	14886
2026-01-19 04:28:40.59	243.64	4.12	-47.9	-59.8	3.8	8.47e-01	0	37	104	0	66	14887
2026-01-19 04:28:44.62	243.49	3.85	-47.9	-59.8	3.8	8.46e-01	0	37	104	0	66	14894
2026-01-19 04:28:48.66	243.35	3.59	-47.9	-59.7	3.8	8.46e-01	0	37	104	0	66	14873
2026-01-19 04:28:52.70	243.20	3.32	-47.9	-59.7	3.8	8.46e-01	0	37	104	0	66	14845
2026-01-19 04:28:56.73	243.07	3.06	-47.9	-59.8	3.8	8.47e-01	0	37	104	0	66	14891
2026-01-19 04:29:00.76	242.93	2.80	-47.9	-59.7	3.8	8.45e-01	0	37	104	0	66	14868
2026-01-19 04:29:04.80	242.79	2.54	-47.9	-59.8	3.8	8.45e-01	0	37	104	0	66	14887
2026-01-19 04:29:08.82	242.66	2.29	-47.9	-59.8	3.8	8.46e-01	0	37	104	0	66	14899
2026-01-19 04:29:12.85	242.53	2.03	-47.9	-59.8	3.8	8.46e-01	0	37	104	0	66	14880

#Closed at: 2026-01-19 04:29:14
#Recorded file [0 MB]: D:/lorett/data/31041_260119_071518.dat