passes_logs/2026/01/19/R3.2S_Murmansk/R3.2S_Murmansk__20260119_121052_JILIN-01_KUANFU_02B_5_rec.log

#Pass ID: 20260119_121052_JILIN-01 KUANFU 02B 5
#Satellite: JILIN-01 KUANFU 02B 5
#Configuration: 01B_900M
#almurnet v.1.7.20251203
#Start time: 2026-01-19 12:10:53

#Version: 2.2.20231116
#Station: R3.2S_Murmansk
#Location: 33.079688 lon 68.888172 lat
#TLE: 1 61193U 24169E   26018.96157998  .00004469  00000+0  28079-3 0  9994
#TLE: 2 61193  97.5744 110.7813 0013795 121.3515 238.9066 15.09689719 73326

#Time	Az	El	Level	Level2	SNR	BER	BlckErr	Temp	State	Recorded	gain1	gain2
2026-01-19 12:10:53.46	24.42	2.10	-52.6	-54.8	6.2	0.00e+00	0	40	0	0	75	19963
2026-01-19 12:10:56.49	24.23	2.29	-52.7	-54.8	6.2	0.00e+00	0	39	104	0	76	18929
2026-01-19 12:10:59.51	24.05	2.49	-52.7	-54.8	6.2	0.00e+00	0	39	104	0	76	18958
2026-01-19 12:11:02.53	23.85	2.69	-52.7	-54.8	6.2	0.00e+00	0	40	104	0	76	18900
2026-01-19 12:11:05.56	23.66	2.90	-52.7	-54.8	6.2	0.00e+00	0	39	104	0	76	18960
2026-01-19 12:11:08.58	23.46	3.10	-52.7	-54.8	6.2	0.00e+00	0	40	104	0	76	18916
2026-01-19 12:11:11.61	23.25	3.30	-52.7	-54.8	6.2	0.00e+00	0	40	104	0	76	18921
2026-01-19 12:11:14.63	23.05	3.51	-52.7	-54.8	6.2	0.00e+00	0	40	104	0	76	18931
2026-01-19 12:11:17.66	22.84	3.72	-52.7	-54.8	6.2	0.00e+00	0	40	104	0	76	18997
2026-01-19 12:11:20.68	22.62	3.93	-52.7	-54.8	6.2	0.00e+00	0	40	104	0	76	18920
2026-01-19 12:11:23.71	22.40	4.14	-52.7	-54.8	6.2	0.00e+00	0	40	104	0	76	18890
2026-01-19 12:11:26.73	22.18	4.36	-52.7	-54.8	6.2	0.00e+00	0	40	104	0	76	18958
2026-01-19 12:11:29.75	21.95	4.57	-52.7	-54.8	6.2	0.00e+00	0	40	104	0	76	18972
2026-01-19 12:11:32.77	21.72	4.79	-52.7	-54.8	6.2	0.00e+00	0	40	104	0	76	18940
2026-01-19 12:11:35.80	21.48	5.01	-52.7	-54.8	6.2	0.00e+00	0	40	104	0	76	18944
2026-01-19 12:11:38.82	21.24	5.23	-52.7	-54.8	6.2	0.00e+00	0	40	104	0	76	18924
2026-01-19 12:11:41.84	21.00	5.46	-52.9	-55.0	6.2	0.00e+00	0	40	104	0	76	19360
2026-01-19 12:11:44.86	20.74	5.68	-52.8	-54.9	6.2	0.00e+00	0	40	104	0	76	19138
2026-01-19 12:11:47.88	20.49	5.91	-52.9	-55.0	6.2	0.00e+00	0	40	104	0	76	19412
2026-01-19 12:11:50.91	20.23	6.14	-52.8	-54.9	6.2	0.00e+00	0	40	104	0	76	19226
2026-01-19 12:11:53.93	19.96	6.37	-53.0	-55.1	6.2	0.00e+00	0	40	104	0	76	19614
2026-01-19 12:11:56.96	19.69	6.61	-52.9	-55.0	6.2	0.00e+00	0	40	104	0	76	19440
2026-01-19 12:11:59.99	19.41	6.84	-53.0	-55.1	6.2	0.00e+00	0	40	104	0	76	19675
2026-01-19 12:12:03.01	19.13	7.08	-52.9	-55.1	6.2	0.00e+00	0	40	104	0	76	19497
2026-01-19 12:12:06.03	18.84	7.32	-53.1	-55.2	6.2	0.00e+00	0	40	104	0	76	19862
2026-01-19 12:12:09.06	18.54	7.57	-53.0	-55.2	6.2	0.00e+00	0	40	104	0	76	19714
2026-01-19 12:12:12.08	18.24	7.81	-53.1	-55.2	6.2	0.00e+00	0	40	104	0	76	19900
2026-01-19 12:12:15.10	17.93	8.06	-53.1	-55.2	6.2	0.00e+00	0	40	104	0	76	19830
2026-01-19 12:12:18.13	17.61	8.31	-53.2	-55.3	6.2	0.00e+00	0	40	104	0	76	20110
2026-01-19 12:12:21.15	17.29	8.56	-53.1	-55.2	6.2	0.00e+00	0	40	104	0	76	19924
2026-01-19 12:12:24.17	16.96	8.82	-53.2	-55.3	6.2	0.00e+00	0	40	104	0	76	20094
2026-01-19 12:12:27.20	16.62	9.08	-53.2	-55.3	6.2	0.00e+00	0	40	104	0	77	18981
2026-01-19 12:12:30.22	16.28	9.34	-53.3	-55.4	6.2	0.00e+00	0	40	104	0	77	19201
2026-01-19 12:12:33.24	15.93	9.60	-53.2	-55.4	6.2	0.00e+00	0	40	104	0	77	19075
2026-01-19 12:12:36.27	15.57	9.87	-53.3	-55.4	6.2	0.00e+00	0	40	104	0	77	19239
2026-01-19 12:12:39.29	15.20	10.14	-53.3	-55.4	6.2	0.00e+00	0	40	104	0	77	19140
2026-01-19 12:12:42.32	14.82	10.41	-53.3	-55.5	6.2	0.00e+00	0	40	104	0	77	19344
2026-01-19 12:12:45.34	14.43	10.69	-53.3	-55.5	6.2	0.00e+00	0	40	104	0	77	19280
2026-01-19 12:12:48.36	14.04	10.96	-53.4	-55.5	6.2	0.00e+00	0	40	104	0	77	19348
2026-01-19 12:12:51.38	13.63	11.24	-53.4	-55.5	6.2	0.00e+00	0	40	104	0	77	19367
2026-01-19 12:12:54.41	13.22	11.53	-53.4	-55.6	6.2	0.00e+00	0	40	104	0	77	19487
2026-01-19 12:12:57.43	12.79	11.81	-53.4	-55.5	6.2	0.00e+00	0	41	104	0	77	19455
2026-01-19 12:13:00.46	12.36	12.11	-53.4	-55.6	6.2	0.00e+00	0	40	104	0	77	19531
2026-01-19 12:13:03.48	11.91	12.40	-53.4	-55.6	6.2	0.00e+00	0	40	104	0	77	19612
2026-01-19 12:13:06.51	11.46	12.69	-53.5	-55.6	6.2	0.00e+00	0	40	104	0	77	19598
2026-01-19 12:13:09.53	10.99	12.99	-53.5	-55.6	6.2	0.00e+00	0	40	104	0	77	19622
2026-01-19 12:13:12.56	10.51	13.29	-53.5	-55.6	6.2	0.00e+00	0	40	104	0	77	19608
2026-01-19 12:13:15.59	10.02	13.60	-53.5	-55.6	6.2	0.00e+00	0	40	104	0	77	19697
2026-01-19 12:13:18.61	9.52	13.91	-53.5	-55.6	6.2	0.00e+00	0	41	104	0	77	19702
2026-01-19 12:13:21.63	9.00	14.22	-53.5	-55.7	6.2	0.00e+00	0	40	104	0	77	19773
2026-01-19 12:13:24.65	8.47	14.53	-53.5	-55.7	6.2	0.00e+00	0	40	104	0	77	19735
2026-01-19 12:13:27.68	7.93	14.85	-53.6	-55.7	6.2	0.00e+00	0	41	104	0	77	19824
2026-01-19 12:13:30.70	7.37	15.16	-53.6	-55.7	6.2	0.00e+00	0	40	104	0	77	19847
2026-01-19 12:13:33.72	6.80	15.49	-53.6	-55.7	6.2	0.00e+00	0	40	104	0	77	19873
2026-01-19 12:13:36.74	6.22	15.81	-53.6	-55.8	6.2	0.00e+00	0	40	104	0	77	19942
2026-01-19 12:13:39.77	5.61	16.14	-53.6	-55.8	6.2	0.00e+00	0	40	104	0	77	19952
2026-01-19 12:13:42.79	5.00	16.47	-53.6	-55.8	6.2	0.00e+00	0	41	104	0	77	20009
2026-01-19 12:13:45.82	4.36	16.80	-53.6	-55.8	6.2	0.00e+00	0	40	104	0	77	20068
2026-01-19 12:13:48.84	3.72	17.14	-53.6	-55.8	6.2	0.00e+00	0	40	104	0	77	20049
2026-01-19 12:13:51.86	3.05	17.47	-53.7	-55.8	6.2	0.00e+00	0	40	104	0	77	20074
2026-01-19 12:13:54.89	2.36	17.82	-53.7	-55.8	6.2	0.00e+00	0	41	104	0	77	20046
2026-01-19 12:13:57.91	1.66	18.16	-53.6	-55.8	6.2	0.00e+00	0	40	104	0	77	20107
2026-01-19 12:14:00.94	0.94	18.50	-53.7	-55.8	6.2	0.00e+00	0	40	104	0	77	20137
2026-01-19 12:14:03.96	0.20	18.85	-53.7	-55.9	6.2	0.00e+00	0	40	104	0	77	20197
2026-01-19 12:14:06.98	359.44	19.19	-53.7	-55.9	6.2	0.00e+00	0	41	104	0	78	19142
2026-01-19 12:14:10.00	358.66	19.54	-53.7	-55.9	6.2	0.00e+00	0	41	104	0	78	19098
2026-01-19 12:14:13.02	357.86	19.89	-53.7	-55.9	6.2	0.00e+00	0	41	104	0	78	19213
2026-01-19 12:14:16.05	357.04	20.24	-53.8	-55.9	6.2	0.00e+00	0	41	104	0	78	19204
2026-01-19 12:14:19.07	356.20	20.59	-53.8	-55.9	6.2	0.00e+00	0	40	104	0	78	19192
2026-01-19 12:14:22.09	355.33	20.94	-53.6	-55.9	6.2	0.00e+00	0	40	104	0	78	19141
2026-01-19 12:14:25.12	354.44	21.29	-53.8	-55.9	6.2	0.00e+00	0	40	104	0	78	19253
2026-01-19 12:14:28.14	353.53	21.63	-53.8	-56.0	6.2	0.00e+00	0	41	104	0	78	19268
2026-01-19 12:14:31.17	352.60	21.98	-53.8	-56.0	6.2	0.00e+00	0	40	104	0	78	19280
2026-01-19 12:14:34.19	351.64	22.32	-53.7	-56.0	6.2	0.00e+00	0	41	104	0	78	19260
2026-01-19 12:14:37.21	350.66	22.67	-53.8	-56.0	6.2	0.00e+00	0	40	104	0	78	19404
2026-01-19 12:14:40.24	349.65	23.01	-53.8	-56.0	6.2	0.00e+00	0	41	104	0	78	19382
2026-01-19 12:14:43.26	348.62	23.34	-53.9	-56.0	6.2	0.00e+00	0	40	104	0	78	19380
2026-01-19 12:14:46.29	347.56	23.67	-53.7	-56.0	6.2	0.00e+00	0	41	104	0	78	19314
2026-01-19 12:14:49.31	346.48	24.00	-53.9	-56.0	6.2	0.00e+00	0	41	104	0	78	19460
2026-01-19 12:14:52.33	345.37	24.32	-53.9	-56.1	6.2	0.00e+00	0	40	104	0	78	19503
2026-01-19 12:14:55.36	344.24	24.64	-53.9	-56.1	6.2	0.00e+00	0	40	104	0	78	19514
2026-01-19 12:14:58.38	343.08	24.94	-53.9	-56.0	6.2	0.00e+00	0	40	104	0	78	19469
2026-01-19 12:15:01.40	341.90	25.24	-53.9	-56.1	6.2	0.00e+00	0	41	104	0	78	19491
2026-01-19 12:15:04.43	340.69	25.54	-53.9	-56.1	6.2	0.00e+00	0	41	104	0	78	19575
2026-01-19 12:15:07.45	339.46	25.82	-54.0	-56.1	6.2	0.00e+00	0	40	104	0	78	19574
2026-01-19 12:15:10.47	338.20	26.09	-54.0	-56.1	6.2	0.00e+00	0	41	104	0	78	19623
2026-01-19 12:15:13.50	336.92	26.35	-54.0	-56.1	6.2	0.00e+00	0	40	104	0	78	19616
2026-01-19 12:15:16.52	335.62	26.60	-54.0	-56.1	6.2	0.00e+00	0	40	104	0	78	19686
2026-01-19 12:15:19.54	334.30	26.83	-54.0	-56.2	6.2	0.00e+00	0	41	104	0	78	19721
2026-01-19 12:15:22.57	332.95	27.06	-54.0	-56.2	6.2	0.00e+00	0	40	104	0	78	19758
2026-01-19 12:15:25.59	331.58	27.27	-54.0	-56.2	6.2	0.00e+00	0	41	104	0	78	19845
2026-01-19 12:15:28.61	330.20	27.46	-54.0	-56.2	6.2	0.00e+00	0	40	104	0	78	19820
2026-01-19 12:15:31.64	328.79	27.63	-54.1	-56.2	6.2	0.00e+00	0	40	104	0	78	19887
2026-01-19 12:15:34.67	327.37	27.80	-54.1	-56.2	6.2	0.00e+00	0	40	104	0	78	19906
2026-01-19 12:15:37.69	325.94	27.94	-54.0	-56.2	6.2	0.00e+00	0	41	104	0	78	19822
2026-01-19 12:15:40.71	324.49	28.06	-54.1	-56.3	6.2	0.00e+00	0	40	104	0	78	19944
2026-01-19 12:15:43.73	323.04	28.17	-54.1	-56.3	6.2	0.00e+00	0	40	104	0	78	19955
2026-01-19 12:15:46.75	321.57	28.26	-54.1	-56.3	6.2	0.00e+00	0	40	104	0	78	19981
2026-01-19 12:15:49.78	320.09	28.32	-54.1	-56.3	6.2	0.00e+00	0	40	104	0	78	19968
2026-01-19 12:15:52.80	318.61	28.37	-54.1	-56.3	6.2	0.00e+00	0	40	104	0	78	19994
2026-01-19 12:15:55.83	317.12	28.40	-54.2	-56.3	6.2	0.00e+00	0	40	104	0	78	20092
2026-01-19 12:15:58.85	315.63	28.41	-54.2	-56.3	6.2	0.00e+00	0	40	104	0	78	20007
2026-01-19 12:16:01.87	314.15	28.40	-54.1	-56.3	6.2	0.00e+00	0	40	104	0	78	20019
2026-01-19 12:16:04.90	312.66	28.37	-54.2	-56.3	6.2	0.00e+00	0	40	104	0	78	20018
2026-01-19 12:16:07.92	311.18	28.31	-54.2	-56.3	6.2	0.00e+00	0	40	104	0	78	20085
2026-01-19 12:16:10.95	309.70	28.24	-54.2	-56.3	6.2	0.00e+00	0	40	104	0	78	20044
2026-01-19 12:16:13.97	308.23	28.15	-54.2	-56.3	6.2	0.00e+00	0	40	104	0	78	20138
2026-01-19 12:16:16.99	306.77	28.04	-54.2	-56.3	6.2	0.00e+00	0	40	104	0	78	20128
2026-01-19 12:16:20.01	305.33	27.92	-54.2	-56.4	6.2	0.00e+00	0	40	104	0	79	19068
2026-01-19 12:16:23.04	303.89	27.77	-54.2	-56.4	6.2	0.00e+00	0	40	104	0	79	19111
2026-01-19 12:16:26.06	302.47	27.61	-54.2	-56.3	6.2	0.00e+00	0	40	104	0	79	19032
2026-01-19 12:16:29.09	301.07	27.43	-54.2	-56.4	6.2	0.00e+00	0	41	104	0	79	19107
2026-01-19 12:16:32.11	299.69	27.23	-54.2	-56.4	6.2	0.00e+00	0	41	104	0	79	19059
2026-01-19 12:16:35.14	298.32	27.02	-54.2	-56.4	6.2	0.00e+00	0	40	104	0	79	19132
2026-01-19 12:16:38.16	296.97	26.79	-54.2	-56.4	6.2	0.00e+00	0	40	104	0	79	19066
2026-01-19 12:16:41.18	295.65	26.56	-54.2	-56.4	6.2	0.00e+00	0	40	104	0	79	19086
2026-01-19 12:16:44.21	294.35	26.30	-54.2	-56.4	6.2	0.00e+00	0	40	104	0	79	19064
2026-01-19 12:16:47.23	293.07	26.04	-54.2	-56.4	6.2	0.00e+00	0	40	104	0	79	19046
2026-01-19 12:16:50.26	291.81	25.76	-54.2	-56.4	6.2	0.00e+00	0	40	104	0	79	19074
2026-01-19 12:16:53.28	290.58	25.48	-54.2	-56.4	6.2	0.00e+00	0	40	104	0	79	19104
2026-01-19 12:16:56.31	289.37	25.19	-54.1	-56.3	6.2	0.00e+00	0	40	104	0	79	18966
2026-01-19 12:16:59.33	288.19	24.88	-54.2	-56.3	6.2	0.00e+00	0	41	104	0	79	18982
2026-01-19 12:17:02.36	287.03	24.57	-54.1	-56.3	6.2	0.00e+00	0	40	104	0	79	18945
2026-01-19 12:17:05.38	285.90	24.26	-54.2	-56.3	6.2	0.00e+00	0	41	104	0	79	18950
2026-01-19 12:17:08.40	284.79	23.93	-54.1	-56.3	6.2	0.00e+00	0	40	104	0	79	18893
2026-01-19 12:17:11.43	283.71	23.60	-54.1	-56.3	6.2	0.00e+00	0	40	104	0	79	18860
2026-01-19 12:17:14.45	282.65	23.27	-54.1	-56.3	6.2	0.00e+00	0	41	104	0	79	18856
2026-01-19 12:17:17.47	281.62	22.93	-54.1	-56.3	6.2	0.00e+00	0	40	104	0	79	18854
2026-01-19 12:17:20.50	280.61	22.59	-54.1	-56.2	6.2	0.00e+00	0	41	104	0	79	18741
2026-01-19 12:17:23.52	279.63	22.24	-54.1	-56.2	6.2	0.00e+00	0	40	104	0	79	18757
2026-01-19 12:17:26.55	278.67	21.90	-54.0	-56.2	6.2	0.00e+00	0	40	104	0	79	18794
2026-01-19 12:17:29.57	277.74	21.55	-54.1	-56.2	6.2	0.00e+00	0	40	104	0	79	18716
2026-01-19 12:17:32.59	276.83	21.20	-54.0	-56.2	6.2	0.00e+00	0	40	104	0	79	18643
2026-01-19 12:17:35.62	275.94	20.85	-54.0	-56.2	6.2	0.00e+00	0	40	104	0	79	18633
2026-01-19 12:17:38.64	275.07	20.50	-54.0	-56.2	6.2	0.00e+00	0	40	104	0	79	18603
2026-01-19 12:17:41.66	274.23	20.15	-54.0	-56.1	6.2	0.00e+00	0	40	104	0	79	18599
2026-01-19 12:17:44.68	273.41	19.80	-54.0	-56.1	6.2	0.00e+00	0	40	104	0	79	18561
2026-01-19 12:17:47.71	272.61	19.44	-53.9	-56.1	6.2	0.00e+00	0	41	104	0	79	18470
2026-01-19 12:17:50.73	271.83	19.10	-54.0	-56.1	6.2	0.00e+00	0	40	104	0	79	18461
2026-01-19 12:17:53.76	271.07	18.75	-54.0	-56.1	6.2	0.00e+00	0	40	104	0	79	18544
2026-01-19 12:17:56.78	270.33	18.40	-53.9	-56.1	6.2	0.00e+00	0	40	104	0	79	18439
2026-01-19 12:17:59.80	269.61	18.06	-53.9	-56.1	6.2	0.00e+00	0	41	104	0	79	18407
2026-01-19 12:18:02.83	268.90	17.71	-53.9	-56.1	6.2	0.00e+00	0	41	104	0	79	18405
2026-01-19 12:18:05.85	268.22	17.37	-53.9	-56.1	6.2	0.00e+00	0	41	104	0	79	18408
2026-01-19 12:18:08.88	267.55	17.03	-53.9	-56.0	6.2	0.00e+00	0	40	104	0	79	18337
2026-01-19 12:18:11.90	266.90	16.69	-53.8	-56.0	6.2	0.00e+00	0	40	104	0	79	18234
2026-01-19 12:18:14.92	266.27	16.36	-53.9	-56.0	6.2	0.00e+00	0	40	104	0	79	18314
2026-01-19 12:18:17.95	265.65	16.03	-53.9	-56.0	6.2	0.00e+00	0	41	104	0	79	18338
2026-01-19 12:18:20.97	265.05	15.70	-53.8	-56.0	6.2	0.00e+00	0	40	104	0	79	18252
2026-01-19 12:18:23.99	264.46	15.37	-53.7	-55.9	6.2	0.00e+00	0	41	104	0	79	18113
2026-01-19 12:18:27.02	263.89	15.05	-53.8	-55.9	6.2	0.00e+00	0	41	104	0	79	18139
2026-01-19 12:18:30.04	263.34	14.73	-53.8	-55.9	6.2	0.00e+00	0	40	104	0	79	18120
2026-01-19 12:18:33.06	262.79	14.41	-53.8	-55.9	6.2	0.00e+00	0	40	104	0	79	18051
2026-01-19 12:18:36.09	262.26	14.10	-53.7	-55.9	6.2	0.00e+00	0	40	104	0	79	17976
2026-01-19 12:18:39.11	261.75	13.79	-53.7	-55.8	6.2	0.00e+00	0	40	104	0	79	17968
2026-01-19 12:18:42.14	261.24	13.48	-53.7	-55.9	6.2	0.00e+00	0	40	104	0	79	18050
2026-01-19 12:18:45.16	260.75	13.17	-53.7	-55.9	6.2	0.00e+00	0	40	104	0	79	17993
2026-01-19 12:18:48.19	260.27	12.87	-53.6	-55.8	6.2	0.00e+00	0	40	104	0	79	17867
2026-01-19 12:18:51.21	259.80	12.57	-53.6	-55.8	6.2	0.00e+00	0	40	104	0	79	17802
2026-01-19 12:18:54.23	259.35	12.27	-53.6	-55.8	6.2	0.00e+00	0	40	104	0	79	17866
2026-01-19 12:18:57.25	258.90	11.98	-53.6	-55.8	6.2	0.00e+00	0	40	104	0	79	17833
2026-01-19 12:19:00.28	258.47	11.69	-53.5	-55.7	6.2	0.00e+00	0	40	104	0	79	17760
2026-01-19 12:19:03.30	258.04	11.40	-53.6	-55.7	6.2	0.00e+00	0	40	104	0	79	17727
2026-01-19 12:19:06.33	257.63	11.12	-53.6	-55.7	6.2	0.00e+00	0	40	104	0	79	17671
2026-01-19 12:19:09.35	257.22	10.84	-53.6	-55.7	6.2	0.00e+00	0	40	104	0	79	17682
2026-01-19 12:19:12.37	256.82	10.56	-53.5	-55.7	6.2	0.00e+00	0	40	104	0	78	18611
2026-01-19 12:19:15.39	256.44	10.28	-53.5	-55.6	6.2	0.00e+00	0	40	104	0	78	18502
2026-01-19 12:19:18.42	256.06	10.01	-53.5	-55.6	6.2	0.00e+00	0	40	104	0	78	18533
2026-01-19 12:19:21.44	255.69	9.74	-53.5	-55.6	6.2	0.00e+00	0	40	104	0	78	18601
2026-01-19 12:19:24.47	255.33	9.47	-53.4	-55.6	6.2	0.00e+00	0	40	104	0	78	18481
2026-01-19 12:19:27.49	254.98	9.21	-53.3	-55.5	6.2	0.00e+00	0	40	104	0	78	18356
2026-01-19 12:19:30.52	254.63	8.95	-53.3	-55.5	6.2	0.00e+00	0	40	104	0	78	18346
2026-01-19 12:19:33.54	254.29	8.69	-53.4	-55.5	6.2	0.00e+00	0	40	104	0	78	18358
2026-01-19 12:19:36.56	253.96	8.43	-53.3	-55.5	6.2	0.00e+00	0	40	104	0	78	18255
2026-01-19 12:19:39.59	253.64	8.18	-53.2	-55.4	6.2	0.00e+00	0	40	104	0	78	18100
2026-01-19 12:19:42.61	253.32	7.93	-53.2	-55.4	6.2	0.00e+00	0	40	104	0	78	18056
2026-01-19 12:19:45.64	253.01	7.68	-53.3	-55.4	6.2	0.00e+00	0	40	104	0	78	18164
2026-01-19 12:19:48.66	252.71	7.43	-53.2	-55.4	6.2	0.00e+00	0	40	104	0	78	18040
2026-01-19 12:19:51.68	252.41	7.19	-53.1	-55.3	6.2	0.00e+00	0	40	104	0	78	17840
2026-01-19 12:19:54.71	252.12	6.95	-53.1	-55.3	6.2	0.00e+00	0	40	104	0	78	17786
2026-01-19 12:19:57.73	251.83	6.71	-53.2	-55.3	6.2	0.00e+00	0	40	104	0	78	17956
2026-01-19 12:20:00.75	251.56	6.47	-53.1	-55.3	6.2	0.00e+00	0	40	104	0	78	17789
2026-01-19 12:20:03.78	251.28	6.23	-53.0	-55.2	6.2	0.00e+00	0	40	104	0	78	17641
2026-01-19 12:20:06.80	251.01	6.00	-52.9	-55.1	6.2	0.00e+00	0	40	104	0	77	18483
2026-01-19 12:20:09.82	250.75	5.77	-53.0	-55.2	6.2	0.00e+00	0	40	104	0	77	18675
2026-01-19 12:20:12.85	250.49	5.54	-53.0	-55.1	6.2	0.00e+00	0	40	104	0	77	18484
2026-01-19 12:20:15.87	250.24	5.32	-52.8	-55.0	6.2	0.00e+00	0	40	104	0	77	18213
2026-01-19 12:20:18.90	249.99	5.09	-52.7	-54.9	6.2	0.00e+00	0	40	104	0	77	18039
2026-01-19 12:20:21.92	249.75	4.87	-53.4	-55.5	6.2	0.00e+00	0	40	104	0	77	19388
2026-01-19 12:20:24.95	249.51	4.65	-54.0	-56.1	6.2	0.00e+00	0	40	104	0	78	19582
2026-01-19 12:20:27.96	249.28	4.43	-54.3	-56.4	6.2	0.00e+00	0	40	104	0	79	19158
2026-01-19 12:20:30.99	249.05	4.22	-54.4	-56.5	6.2	0.00e+00	0	40	104	0	79	19401
2026-01-19 12:20:34.01	248.83	4.00	-54.5	-56.6	6.2	0.00e+00	0	40	104	0	79	19648
2026-01-19 12:20:37.04	248.61	3.79	-54.5	-56.7	6.2	0.00e+00	0	40	104	0	79	19784
2026-01-19 12:20:40.06	248.39	3.58	-54.6	-56.7	6.2	0.00e+00	0	40	104	0	79	19817
2026-01-19 12:20:43.08	248.18	3.37	-54.6	-56.7	6.2	0.00e+00	0	40	104	0	79	19895
2026-01-19 12:20:46.11	247.97	3.16	-54.5	-56.7	6.2	0.00e+00	0	40	104	0	79	19801
2026-01-19 12:20:49.13	247.77	2.96	-54.5	-56.6	6.2	0.00e+00	0	40	104	0	79	19704
2026-01-19 12:20:52.15	247.57	2.75	-54.5	-56.6	6.2	0.00e+00	0	40	104	0	79	19671
2026-01-19 12:20:55.18	247.37	2.55	-54.5	-56.7	6.2	0.00e+00	0	40	104	0	79	19742
2026-01-19 12:20:58.20	247.17	2.35	-54.5	-56.6	6.2	0.00e+00	0	40	104	0	79	19674
2026-01-19 12:21:01.23	246.98	2.15	-54.5	-56.6	6.2	0.00e+00	0	40	104	0	79	19623

#Closed at: 2026-01-19 12:21:04
#Recorded file [0 MB]: D:/lorett/data/31041_260119_151053.dat