passes_logs/2026/01/19/R3.2S_Murmansk/R3.2S_Murmansk__20260119_091206_KANOPUS-V_5_rec.log

#Pass ID: 20260119_091206_KANOPUS-V 5
#Satellite: KANOPUS-V 5
#Configuration: KANOPUS-V_8320
#almurnet v.1.7.20251203
#Start time: 2026-01-19 09:12:07

#Version: 2.2.20231116
#Station: R3.2S_Murmansk
#Location: 33.079688 lon 68.888172 lat
#TLE: 1 43876U 18111A   26018.98023380  .00003393  00000+0  14531-3 0  9994
#TLE: 2 43876  97.3687 287.4223 0001779  87.4977 272.6464 15.23461071392076

#Time	Az	El	Level	Level2	SNR	BER	BlckErr	Temp	State	Recorded	gain1	gain2
2026-01-19 09:12:07.93	200.70	2.08	-53.5	-62.3	3.8	7.47e-01	0	36	0	0	78	10012
2026-01-19 09:12:10.94	200.94	2.27	-53.4	-62.3	3.8	7.46e-01	0	36	104	0	77	10589
2026-01-19 09:12:13.96	201.19	2.47	-53.4	-62.3	3.8	7.44e-01	0	36	104	0	77	10579
2026-01-19 09:12:16.99	201.44	2.66	-53.4	-62.3	3.8	7.45e-01	0	37	104	0	77	10573
2026-01-19 09:12:20.01	201.69	2.86	-53.4	-62.3	3.8	7.45e-01	0	37	104	0	77	10582
2026-01-19 09:12:23.04	201.95	3.06	-53.4	-62.3	3.8	7.46e-01	0	37	104	0	77	10568
2026-01-19 09:12:26.06	202.21	3.26	-53.4	-62.3	3.8	7.46e-01	0	37	104	0	77	10539
2026-01-19 09:12:29.08	202.48	3.47	-53.4	-62.3	3.8	7.45e-01	0	37	104	0	77	10564
2026-01-19 09:12:32.10	202.75	3.67	-53.4	-62.3	3.8	7.45e-01	0	37	104	0	77	10534
2026-01-19 09:12:35.12	203.02	3.88	-53.4	-62.3	3.8	7.45e-01	0	37	104	0	77	10558
2026-01-19 09:12:38.15	203.30	4.09	-53.4	-62.3	3.8	7.45e-01	0	37	104	0	77	10570
2026-01-19 09:12:41.17	203.59	4.30	-52.9	-60.2	3.9	7.40e-01	0	37	104	0	77	8338
2026-01-19 09:12:44.19	203.88	4.51	-51.4	-56.0	5.5	6.93e-01	0	37	0	0	74	6071
2026-01-19 09:12:47.22	204.17	4.72	-49.1	-52.0	9.0	6.34e-01	0	37	0	6291456	70	4864
2026-01-19 09:12:50.24	204.47	4.94	-46.1	-48.4	12.5	6.12e-01	0	37	0	52428800	64	4534
2026-01-19 09:12:53.27	204.78	5.15	-51.0	-55.1	6.2	6.78e-01	0	37	0	98566144	74	5511
2026-01-19 09:12:56.29	205.09	5.37	-46.7	-49.1	12.0	6.14e-01	0	37	0	144703488	65	4620
2026-01-19 09:12:59.31	205.41	5.59	-46.1	-48.3	12.7	6.11e-01	0	37	0	190840832	62	5033
2026-01-19 09:13:02.34	205.74	5.81	-46.0	-48.5	12.7	5.76e-01	0	37	0	239075328	62	5112
2026-01-19 09:13:05.37	206.07	6.04	-45.8	-48.2	13.0	5.76e-01	0	37	0	285212672	62	4942
2026-01-19 09:13:08.39	206.40	6.26	-45.6	-48.0	13.2	5.76e-01	0	37	0	331350016	62	4831
2026-01-19 09:13:11.42	206.74	6.49	-45.8	-48.2	13.1	5.77e-01	0	37	0	377487360	62	4933
2026-01-19 09:13:14.45	207.09	6.72	-45.6	-48.0	13.3	5.76e-01	0	37	0	425721856	62	4836
2026-01-19 09:13:17.47	207.45	6.96	-45.4	-47.7	13.5	5.75e-01	0	37	0	471859200	62	4691
2026-01-19 09:13:20.49	207.81	7.19	-45.6	-48.0	13.3	5.76e-01	0	38	0	517996544	62	4839
2026-01-19 09:13:23.51	208.18	7.43	-45.6	-48.0	13.3	5.76e-01	0	38	0	564133888	62	4849
2026-01-19 09:13:26.54	208.56	7.67	-45.6	-48.0	13.4	5.75e-01	0	38	0	610271232	62	4840
2026-01-19 09:13:29.57	208.95	7.91	-45.5	-47.8	13.6	5.76e-01	0	38	0	656408576	62	4752
2026-01-19 09:13:32.59	209.34	8.15	-45.5	-47.8	13.6	5.75e-01	0	38	0	702545920	62	4757
2026-01-19 09:13:35.61	209.74	8.39	-45.3	-47.6	13.6	6.07e-01	0	38	0	748683264	62	4631
2026-01-19 09:13:38.64	210.15	8.64	-45.3	-47.6	13.7	6.03e-01	0	38	0	796917760	62	4614
2026-01-19 09:13:41.66	210.57	8.89	-45.3	-47.5	13.8	5.97e-01	0	38	0	843055104	62	4576
2026-01-19 09:13:44.68	210.99	9.14	-45.1	-47.2	14.1	6.06e-01	0	38	0	889192448	62	4432
2026-01-19 09:13:47.71	211.43	9.40	-45.4	-47.5	13.8	6.00e-01	0	38	0	935329792	62	4588
2026-01-19 09:13:50.73	211.87	9.65	-45.3	-47.4	14.0	6.06e-01	0	38	0	981467136	62	4523
2026-01-19 09:13:53.76	212.33	9.91	-45.4	-47.5	13.9	6.06e-01	0	38	0	1027604480	62	4580
2026-01-19 09:13:56.79	212.79	10.17	-45.3	-47.4	14.1	6.04e-01	0	38	0	1073741824	62	4498
2026-01-19 09:13:59.81	213.27	10.44	-45.4	-47.4	14.0	6.04e-01	0	38	0	1119879168	62	4514
2026-01-19 09:14:02.83	213.75	10.70	-45.4	-47.4	14.0	6.04e-01	0	38	0	1168113664	62	4537
2026-01-19 09:14:05.85	214.24	10.97	-45.5	-47.5	14.0	6.05e-01	0	38	0	1214251008	62	4565
2026-01-19 09:14:08.88	214.75	11.24	-45.3	-47.4	14.2	5.89e-01	0	38	0	1260388352	62	4498
2026-01-19 09:14:11.90	215.27	11.51	-45.4	-47.5	14.0	6.04e-01	0	38	0	1306525696	62	4563
2026-01-19 09:14:14.93	215.80	11.79	-45.4	-47.4	14.1	5.98e-01	0	38	0	1352663040	62	4518
2026-01-19 09:14:17.95	216.33	12.06	-45.4	-47.3	14.2	6.03e-01	0	38	0	1400897536	62	4486
2026-01-19 09:14:20.97	216.89	12.34	-45.3	-47.2	14.3	6.05e-01	0	38	0	1447034880	62	4410
2026-01-19 09:14:24.00	217.45	12.62	-45.5	-47.5	14.0	6.04e-01	0	38	0	1493172224	62	4570
2026-01-19 09:14:27.02	218.03	12.91	-45.5	-47.5	14.1	5.96e-01	0	38	0	1539309568	62	4552
2026-01-19 09:14:30.05	218.62	13.19	-45.5	-47.5	14.1	6.03e-01	0	38	0	1585446912	62	4558
2026-01-19 09:14:33.07	219.23	13.48	-45.5	-47.5	14.1	5.97e-01	0	38	0	1631584256	62	4557
2026-01-19 09:14:36.09	219.84	13.77	-45.6	-47.5	14.1	5.99e-01	0	38	0	1677721600	62	4587
2026-01-19 09:14:39.12	220.48	14.06	-45.5	-47.4	14.2	5.94e-01	0	38	0	1723858944	62	4539
2026-01-19 09:14:42.14	221.12	14.35	-45.3	-47.2	14.3	6.04e-01	0	38	0	1772093440	62	4428
2026-01-19 09:14:45.16	221.79	14.64	-45.3	-47.2	14.4	5.95e-01	0	38	0	1818230784	62	4412
2026-01-19 09:14:48.19	222.47	14.94	-45.3	-47.3	14.3	5.95e-01	0	38	0	1864368128	62	4482
2026-01-19 09:14:51.21	223.16	15.24	-45.5	-47.6	14.0	6.06e-01	0	38	0	1910505472	62	4610
2026-01-19 09:14:54.23	223.87	15.54	-45.4	-47.5	14.1	5.92e-01	0	38	0	1958739968	62	4586
2026-01-19 09:14:57.26	224.60	15.84	-45.3	-47.3	14.3	5.95e-01	0	38	0	2004877312	62	4482
2026-01-19 09:15:00.28	225.34	16.14	-45.1	-47.1	14.5	5.95e-01	0	38	0	2051014656	62	4369
2026-01-19 09:15:03.30	226.10	16.44	-45.1	-47.1	14.6	5.92e-01	0	38	0	2097152000	62	4382
2026-01-19 09:15:06.33	226.88	16.74	-44.9	-47.0	14.6	5.95e-01	0	39	0	2141192192	61	4558
2026-01-19 09:15:09.35	227.67	17.04	-45.0	-47.2	14.4	6.02e-01	0	38	0	2189426688	61	4675
2026-01-19 09:15:12.38	228.49	17.34	-44.9	-47.0	14.5	6.06e-01	0	38	0	2235564032	61	4593
2026-01-19 09:15:15.40	229.32	17.64	-44.9	-47.1	14.5	6.05e-01	0	38	0	2281701376	61	4639
2026-01-19 09:15:18.42	230.18	17.94	-45.0	-47.2	14.4	6.05e-01	0	38	0	2327838720	61	4672
2026-01-19 09:15:21.44	231.05	18.24	-44.6	-46.8	14.8	6.06e-01	0	38	0	2376073216	61	4463
2026-01-19 09:15:24.47	231.94	18.54	-44.4	-46.7	14.8	6.00e-01	0	39	0	2422210560	60	4692
2026-01-19 09:15:27.49	232.85	18.84	-44.1	-46.3	15.2	6.06e-01	0	38	0	2468347904	60	4460
2026-01-19 09:15:30.52	233.79	19.13	-44.0	-46.2	15.3	6.01e-01	0	38	0	2514485248	60	4417
2026-01-19 09:15:33.54	234.74	19.42	-44.1	-46.4	15.2	5.97e-01	0	38	0	2560622592	60	4505
2026-01-19 09:15:36.56	235.71	19.71	-44.0	-46.3	15.2	5.98e-01	0	38	0	2606759936	60	4487
2026-01-19 09:15:39.59	236.71	20.00	-44.0	-46.4	15.1	5.91e-01	0	38	0	2652897280	59	4797
2026-01-19 09:15:42.61	237.72	20.28	-43.7	-46.1	15.4	5.98e-01	0	38	0	2699034624	59	4627
2026-01-19 09:15:45.63	238.76	20.56	-43.7	-46.0	15.5	6.00e-01	0	38	0	2747269120	59	4562
2026-01-19 09:15:48.66	239.82	20.83	-43.5	-45.8	15.6	6.04e-01	0	38	0	2793406464	59	4459
2026-01-19 09:15:51.68	240.90	21.10	-43.3	-45.6	15.7	6.01e-01	0	38	0	2839543808	58	4647
2026-01-19 09:15:54.71	242.00	21.36	-43.4	-45.9	15.5	6.04e-01	0	38	0	2885681152	58	4795
2026-01-19 09:15:57.73	243.12	21.62	-43.1	-45.3	16.1	5.95e-01	0	38	0	2933915648	58	4462
2026-01-19 09:16:00.75	244.26	21.87	-42.9	-45.1	16.2	6.04e-01	0	38	0	2980052992	57	4633
2026-01-19 09:16:03.78	245.42	22.11	-42.9	-45.4	15.9	6.03e-01	0	38	0	3026190336	57	4783
2026-01-19 09:16:06.80	246.60	22.34	-43.0	-45.5	15.8	6.00e-01	0	38	0	3072327680	57	4854
2026-01-19 09:16:09.83	247.80	22.57	-42.9	-45.4	15.9	5.98e-01	0	39	0	3118465024	57	4814
2026-01-19 09:16:12.85	249.02	22.78	-42.6	-44.9	16.4	5.75e-01	0	38	0	3164602368	57	4499
2026-01-19 09:16:15.87	250.26	22.98	-42.5	-45.1	16.3	5.75e-01	0	38	0	3210739712	57	4599
2026-01-19 09:16:18.90	251.51	23.18	-42.6	-45.2	16.2	5.75e-01	0	38	0	3256877056	56	4927
2026-01-19 09:16:21.92	252.78	23.36	-42.9	-45.3	16.0	5.75e-01	0	38	0	3303014400	56	5034
2026-01-19 09:16:24.95	254.07	23.53	-42.7	-45.4	16.0	5.75e-01	0	39	0	3351248896	56	5057
2026-01-19 09:16:27.97	255.37	23.69	-42.8	-45.4	15.9	5.74e-01	0	39	0	3397386240	56	5090
2026-01-19 09:16:31.00	256.69	23.83	-42.5	-44.8	16.5	5.74e-01	0	38	0	3443523584	56	4745
2026-01-19 09:16:34.02	258.02	23.96	-42.4	-44.8	16.5	5.74e-01	0	38	0	3489660928	56	4738
2026-01-19 09:16:37.04	259.36	24.08	-42.3	-44.7	16.5	5.99e-01	0	38	0	3537895424	56	4692
2026-01-19 09:16:40.07	260.71	24.18	-42.5	-44.9	16.3	5.98e-01	0	38	0	3584032768	56	4814
2026-01-19 09:16:43.09	262.07	24.27	-42.5	-45.0	16.2	5.98e-01	0	38	0	3628072960	56	4870
2026-01-19 09:16:46.12	263.44	24.34	-42.6	-45.2	16.1	5.97e-01	0	39	0	3674210304	56	4950
2026-01-19 09:16:49.14	264.81	24.40	-42.7	-45.1	16.2	5.97e-01	0	38	0	3722444800	56	4902
2026-01-19 09:16:52.16	266.18	24.44	-42.5	-44.9	16.4	5.99e-01	0	39	0	3768582144	56	4776
2026-01-19 09:16:55.18	267.56	24.47	-42.5	-44.8	16.4	5.97e-01	0	39	0	3814719488	56	4751
2026-01-19 09:16:58.21	268.95	24.48	-42.5	-45.1	16.2	5.98e-01	0	38	0	3860856832	56	4899
2026-01-19 09:17:01.23	270.33	24.47	-42.7	-45.1	16.3	5.99e-01	0	38	0	3909091328	56	4892
2026-01-19 09:17:04.26	271.71	24.45	-42.6	-44.9	16.4	6.00e-01	0	39	0	3955228672	56	4813
2026-01-19 09:17:07.27	273.08	24.41	-42.4	-44.9	16.4	5.99e-01	0	39	0	4001366016	56	4798
2026-01-19 09:17:10.30	274.46	24.36	-42.3	-44.6	16.6	6.00e-01	0	38	0	4047503360	56	4640
2026-01-19 09:17:13.32	275.83	24.29	-42.4	-44.8	16.5	5.98e-01	0	38	0	4093640704	56	4725
2026-01-19 09:17:16.35	277.19	24.21	-42.5	-44.9	16.4	6.01e-01	0	38	0	4139778048	56	4809
2026-01-19 09:17:19.37	278.54	24.11	-42.5	-44.7	16.6	5.98e-01	0	38	0	4185915392	56	4659
2026-01-19 09:17:22.40	279.88	24.00	-42.4	-44.7	16.6	5.97e-01	0	39	0	4232052736	56	4690
2026-01-19 09:17:25.42	281.21	23.87	-42.4	-44.7	16.6	5.98e-01	0	39	0	4278190080	56	4691
2026-01-19 09:17:28.45	282.53	23.73	-42.6	-45.0	16.4	6.01e-01	0	39	0	4326424576	56	4819
2026-01-19 09:17:31.47	283.83	23.58	-42.7	-45.1	16.3	5.97e-01	0	39	0	4372561920	56	4896
2026-01-19 09:17:34.49	285.12	23.41	-42.5	-44.8	16.5	5.98e-01	0	39	0	4418699264	56	4721
2026-01-19 09:17:37.52	286.39	23.23	-42.6	-44.9	16.5	6.01e-01	0	39	0	4464836608	56	4773
2026-01-19 09:17:40.54	287.65	23.04	-42.6	-45.0	16.4	5.99e-01	0	39	0	4513071104	56	4844
2026-01-19 09:17:43.56	288.89	22.84	-42.8	-45.2	16.3	6.01e-01	0	39	0	4559208448	56	4949
2026-01-19 09:17:46.58	290.11	22.63	-42.9	-45.2	16.3	6.00e-01	0	39	0	4605345792	56	4931
2026-01-19 09:17:49.61	291.31	22.41	-42.9	-45.2	16.3	6.01e-01	0	39	0	4651483136	56	4955
2026-01-19 09:17:52.63	292.49	22.18	-42.9	-45.2	16.3	6.00e-01	0	39	0	4697620480	56	4975
2026-01-19 09:17:55.65	293.65	21.95	-43.2	-45.5	16.1	6.01e-01	0	39	0	4743757824	56	5112
2026-01-19 09:17:58.68	294.80	21.70	-42.8	-45.0	16.4	6.02e-01	0	38	0	4789895168	56	4851
2026-01-19 09:18:01.71	295.92	21.45	-43.2	-45.5	16.1	6.00e-01	0	39	0	4836032512	56	5118
2026-01-19 09:18:04.73	297.02	21.19	-43.6	-45.8	15.8	5.96e-01	0	39	0	4884267008	57	5006
2026-01-19 09:18:07.75	298.10	20.93	-43.6	-45.9	15.8	6.00e-01	0	39	0	4930404352	57	5044
2026-01-19 09:18:10.78	299.16	20.65	-43.5	-45.7	15.9	5.99e-01	0	38	0	4976541696	57	4978
2026-01-19 09:18:13.80	300.20	20.38	-43.8	-46.0	15.7	6.01e-01	0	39	0	5022679040	58	4861
2026-01-19 09:18:16.82	301.22	20.10	-43.9	-46.0	15.7	6.01e-01	0	39	0	5068816384	58	4850
2026-01-19 09:18:19.85	302.22	19.82	-43.9	-46.0	15.7	5.98e-01	0	39	0	5114953728	58	4856
2026-01-19 09:18:22.87	303.19	19.53	-43.9	-46.1	15.6	5.98e-01	0	39	0	5161091072	58	4899
2026-01-19 09:18:25.90	304.15	19.24	-44.3	-46.5	15.3	6.00e-01	0	39	0	5207228416	59	4815
2026-01-19 09:18:28.92	305.08	18.95	-44.5	-46.7	15.1	6.00e-01	0	38	0	5253365760	59	4962
2026-01-19 09:18:31.94	306.00	18.65	-44.7	-46.8	15.0	5.99e-01	0	39	0	5301600256	59	5004
2026-01-19 09:18:34.97	306.89	18.36	-44.7	-46.8	15.1	5.97e-01	0	39	0	5347737600	60	4752
2026-01-19 09:18:37.99	307.77	18.06	-44.9	-47.1	14.8	5.99e-01	0	38	0	5393874944	60	4903
2026-01-19 09:18:41.02	308.62	17.76	-44.8	-47.0	14.8	6.01e-01	0	39	0	5440012288	60	4855
2026-01-19 09:18:44.04	309.46	17.46	-44.9	-47.1	14.8	6.01e-01	0	39	0	5488246784	60	4877
2026-01-19 09:18:47.06	310.27	17.16	-45.0	-47.3	14.6	6.01e-01	0	39	0	5534384128	60	5000
2026-01-19 09:18:50.08	311.07	16.86	-45.6	-47.9	14.1	6.00e-01	0	39	0	5580521472	61	5058
2026-01-19 09:18:53.10	311.85	16.56	-45.8	-48.0	13.9	5.99e-01	0	39	0	5626658816	62	4868
2026-01-19 09:18:56.12	312.61	16.27	-45.5	-47.7	14.2	6.01e-01	0	38	0	5672796160	62	4655
2026-01-19 09:18:59.15	313.36	15.97	-45.6	-47.8	14.1	6.04e-01	0	39	0	5718933504	62	4733
2026-01-19 09:19:02.17	314.09	15.67	-45.3	-47.6	14.4	5.75e-01	0	38	0	5765070848	62	4605
2026-01-19 09:19:05.18	314.80	15.37	-45.4	-47.5	14.4	5.75e-01	0	39	0	5811208192	62	4570
2026-01-19 09:19:08.21	315.50	15.08	-45.5	-47.6	14.4	5.75e-01	0	39	0	5857345536	62	4602
2026-01-19 09:19:11.23	316.18	14.79	-45.5	-47.6	14.3	5.75e-01	0	39	0	5903482880	62	4606
2026-01-19 09:19:14.24	316.84	14.49	-54.4	-63.4	3.8	7.45e-01	0	39	104	5945425920	79	10672
2026-01-19 09:19:17.26	317.49	14.20	-54.4	-63.3	3.8	7.46e-01	0	38	104	5945425920	79	10563
2026-01-19 09:19:20.29	318.12	13.91	-54.4	-63.2	3.8	7.45e-01	0	38	104	5945425920	79	10499
2026-01-19 09:19:23.32	318.74	13.63	-54.3	-63.2	3.8	7.45e-01	0	39	104	5945425920	79	10458
2026-01-19 09:19:26.34	319.35	13.34	-54.3	-63.2	3.8	7.46e-01	0	39	104	5945425920	79	10455
2026-01-19 09:19:29.36	319.94	13.06	-54.3	-63.1	3.8	7.45e-01	0	39	104	5945425920	79	10383
2026-01-19 09:19:32.38	320.52	12.77	-54.2	-63.1	3.8	7.46e-01	0	39	104	5945425920	79	10366
2026-01-19 09:19:35.41	321.09	12.49	-54.2	-63.1	3.8	7.46e-01	0	39	104	5945425920	79	10339
2026-01-19 09:19:38.43	321.64	12.22	-54.2	-63.1	3.8	7.46e-01	0	38	104	5945425920	79	10295
2026-01-19 09:19:41.44	322.18	11.94	-54.2	-63.0	3.8	7.46e-01	0	39	104	5945425920	79	10285
2026-01-19 09:19:44.46	322.71	11.67	-54.1	-63.0	3.8	7.46e-01	0	39	104	5945425920	79	10196
2026-01-19 09:19:47.49	323.23	11.40	-54.1	-63.0	3.8	7.44e-01	0	38	104	5945425920	79	10212
2026-01-19 09:19:50.51	323.74	11.13	-54.1	-63.0	3.8	7.46e-01	0	39	104	5945425920	79	10192
2026-01-19 09:19:53.53	324.24	10.86	-54.1	-62.9	3.8	7.45e-01	0	38	104	5945425920	79	10140
2026-01-19 09:19:56.55	324.72	10.60	-54.0	-62.9	3.8	7.46e-01	0	38	104	5945425920	79	10078
2026-01-19 09:19:59.58	325.20	10.34	-54.0	-62.9	3.8	7.45e-01	0	38	104	5945425920	79	10126
2026-01-19 09:20:02.60	325.66	10.08	-54.0	-62.8	3.8	7.45e-01	0	39	104	5945425920	79	10050
2026-01-19 09:20:05.62	326.12	9.82	-54.0	-62.8	3.8	7.46e-01	0	39	104	5945425920	79	10050
2026-01-19 09:20:08.64	326.57	9.56	-53.9	-62.7	3.8	7.47e-01	0	38	104	5945425920	79	9894
2026-01-19 09:20:11.66	327.00	9.31	-53.9	-62.7	3.8	7.42e-01	0	38	104	5945425920	79	9936
2026-01-19 09:20:14.69	327.43	9.06	-53.9	-62.7	3.8	7.45e-01	0	38	104	5945425920	79	9880
2026-01-19 09:20:17.71	327.85	8.81	-53.9	-62.7	3.8	7.46e-01	0	38	104	5945425920	79	9936
2026-01-19 09:20:20.74	328.26	8.56	-53.8	-62.7	3.8	7.44e-01	0	39	104	5945425920	79	9840
2026-01-19 09:20:23.76	328.67	8.32	-53.8	-62.7	3.8	7.44e-01	0	39	104	5945425920	79	9863
2026-01-19 09:20:26.78	329.06	8.08	-53.8	-62.6	3.8	7.46e-01	0	39	104	5945425920	79	9781
2026-01-19 09:20:29.80	329.45	7.84	-53.8	-62.7	3.8	7.46e-01	0	39	104	5945425920	79	9837
2026-01-19 09:20:32.83	329.83	7.60	-53.7	-62.5	3.8	7.44e-01	0	38	104	5945425920	79	9655
2026-01-19 09:20:35.85	330.20	7.37	-53.7	-62.6	3.8	7.43e-01	0	38	104	5945425920	79	9735
2026-01-19 09:20:38.88	330.57	7.13	-53.6	-62.4	3.8	7.46e-01	0	39	104	5945425920	79	9586
2026-01-19 09:20:41.90	330.92	6.90	-53.7	-62.5	3.8	7.44e-01	0	38	104	5945425920	79	9667
2026-01-19 09:20:44.93	331.28	6.67	-53.5	-62.4	3.8	7.47e-01	0	38	104	5945425920	79	9504
2026-01-19 09:20:47.95	331.62	6.44	-53.6	-62.4	3.8	7.44e-01	0	38	104	5945425920	79	9573
2026-01-19 09:20:50.97	331.96	6.22	-53.5	-62.3	3.8	7.45e-01	0	39	104	5945425920	78	10003
2026-01-19 09:20:53.99	332.29	5.99	-53.5	-62.3	3.8	7.45e-01	0	38	104	5945425920	78	10031
2026-01-19 09:20:57.02	332.62	5.77	-53.3	-62.2	3.8	7.46e-01	0	38	104	5945425920	78	9855
2026-01-19 09:21:00.04	332.94	5.55	-53.4	-62.3	3.8	7.44e-01	0	39	104	5945425920	78	9948
2026-01-19 09:21:03.07	333.25	5.33	-53.2	-62.0	3.8	7.46e-01	0	38	104	5945425920	78	9695
2026-01-19 09:21:06.09	333.56	5.12	-53.3	-62.2	3.8	7.46e-01	0	39	104	5945425920	78	9873
2026-01-19 09:21:09.11	333.86	4.90	-53.9	-62.7	3.8	7.45e-01	0	38	104	5945425920	78	10490
2026-01-19 09:21:12.14	334.16	4.69	-54.5	-63.3	3.8	7.46e-01	0	38	104	5945425920	79	10579
2026-01-19 09:21:15.16	334.45	4.48	-54.7	-63.5	3.8	7.44e-01	0	39	104	5945425920	80	10267
2026-01-19 09:21:18.18	334.74	4.27	-54.9	-63.8	3.8	7.48e-01	0	39	104	5945425920	80	10539
2026-01-19 09:21:21.21	335.02	4.06	-55.0	-63.8	3.8	7.45e-01	0	39	104	5945425920	80	10644
2026-01-19 09:21:24.23	335.30	3.86	-55.0	-63.9	3.8	7.45e-01	0	38	104	5945425920	80	10766
2026-01-19 09:21:27.25	335.57	3.65	-55.1	-63.9	3.8	7.44e-01	0	39	104	5945425920	80	10737
2026-01-19 09:21:30.28	335.84	3.45	-55.0	-63.9	3.8	7.47e-01	0	39	104	5945425920	80	10711
2026-01-19 09:21:33.30	336.11	3.25	-55.0	-63.9	3.8	7.45e-01	0	39	104	5945425920	80	10659
2026-01-19 09:21:36.33	336.37	3.05	-55.0	-63.8	3.8	7.46e-01	0	39	104	5945425920	80	10653
2026-01-19 09:21:39.34	336.62	2.85	-55.0	-63.8	3.8	7.45e-01	0	39	104	5945425920	80	10607
2026-01-19 09:21:42.37	336.87	2.66	-54.9	-63.7	3.8	7.45e-01	0	39	104	5945425920	80	10468
2026-01-19 09:21:45.39	337.12	2.46	-54.9	-63.7	3.8	7.44e-01	0	38	104	5945425920	80	10507
2026-01-19 09:21:48.42	337.36	2.27	-54.9	-63.8	3.8	7.46e-01	0	39	104	5945425920	80	10624
2026-01-19 09:21:51.45	337.60	2.07	-54.9	-63.8	3.8	7.45e-01	0	39	104	5945425920	80	10621
2026-01-19 09:21:54.47	337.84	1.88	-54.8	-63.7	3.8	7.45e-01	0	39	104	5945425920	80	10472

#Closed at: 2026-01-19 09:21:54
#Recorded file [5945 MB]: D:/lorett/data/31041_260119_121207.dat