passes_logs/2026/01/19/R3.2S_Murmansk/R3.2S_Murmansk__20260119_093056_TY-42_rec.log

#Pass ID: 20260119_093056_TY-42
#Satellite: TY-42
#Configuration: TY-42_900M
#almurnet v.1.7.20251203
#Start time: 2026-01-19 09:30:58

#Version: 2.2.20231116
#Station: R3.2S_Murmansk
#Location: 33.079688 lon 68.888172 lat
#TLE: 1 64048U 25103A   26019.20939815  .00008010  00000-0  38191-3 0 09992
#TLE: 2 64048 097.4121 094.5476 0001781 091.9332 054.9025 15.19169097 37459

#Time	Az	El	Level	Level2	SNR	BER	BlckErr	Temp	State	Recorded	gain1	gain2
2026-01-19 09:30:58.15	20.88	2.15	-52.7	-54.9	6.2	0.00e+00	0	44	0	0	77	18008
2026-01-19 09:31:01.16	20.88	2.36	-52.7	-54.9	6.2	0.00e+00	0	45	104	0	77	17973
2026-01-19 09:31:04.19	20.88	2.58	-52.7	-54.9	6.2	0.00e+00	0	45	104	0	77	18051
2026-01-19 09:31:07.21	20.88	2.79	-52.7	-54.9	6.2	0.00e+00	0	45	104	0	77	18043
2026-01-19 09:31:10.23	20.87	3.01	-52.7	-54.9	6.2	0.00e+00	0	45	104	0	77	18033
2026-01-19 09:31:13.26	20.87	3.23	-52.7	-54.9	6.2	0.00e+00	0	45	104	0	77	18070
2026-01-19 09:31:16.28	20.86	3.46	-52.7	-54.9	6.2	0.00e+00	0	45	104	0	77	18005
2026-01-19 09:31:19.30	20.86	3.68	-52.7	-54.9	6.2	0.00e+00	0	45	104	0	77	18079
2026-01-19 09:31:22.33	20.85	3.91	-52.7	-54.9	6.2	0.00e+00	0	46	104	0	77	17977
2026-01-19 09:31:25.35	20.85	4.14	-52.7	-54.8	6.2	0.00e+00	0	46	104	0	77	17945
2026-01-19 09:31:28.38	20.84	4.38	-52.7	-54.8	6.2	0.00e+00	0	46	104	0	77	17767
2026-01-19 09:31:31.40	20.84	4.61	-52.6	-54.7	6.2	0.00e+00	0	46	104	0	77	17737
2026-01-19 09:31:34.42	20.83	4.85	-52.6	-54.7	6.2	0.00e+00	0	46	104	0	77	17587
2026-01-19 09:31:37.45	20.82	5.10	-52.7	-54.8	6.2	0.00e+00	0	46	104	0	77	17852
2026-01-19 09:31:40.47	20.82	5.34	-52.7	-54.8	6.2	0.00e+00	0	46	104	0	77	17861
2026-01-19 09:31:43.50	20.81	5.59	-52.7	-54.8	6.2	0.00e+00	0	47	104	0	77	17941
2026-01-19 09:31:46.52	20.80	5.84	-51.1	-52.5	6.4	0.00e+00	0	47	104	0	73	17232
2026-01-19 09:31:49.55	20.79	6.09	-48.4	-49.0	7.6	0.00e+00	0	47	104	0	68	15323
2026-01-19 09:31:52.57	20.78	6.35	-40.9	-40.9	12.0	0.00e+00	260	49	0	8388608	53	14332
2026-01-19 09:31:55.59	20.77	6.61	-40.4	-40.4	12.4	1.11e-01	0	49	0	352321536	52	14334
2026-01-19 09:31:58.62	20.76	6.88	-39.7	-39.6	13.0	8.78e-02	0	49	0	687865856	51	13903
2026-01-19 09:32:01.64	20.75	7.15	-39.4	-39.4	13.2	8.78e-02	0	49	0	1023410176	50	14284
2026-01-19 09:32:04.67	20.74	7.42	-39.1	-39.0	13.3	4.52e-02	0	49	0	1375731712	49	14550
2026-01-19 09:32:07.69	20.73	7.69	-38.6	-38.5	13.6	4.42e-02	0	50	0	1711276032	48	14521
2026-01-19 09:32:10.71	20.72	7.97	-38.4	-38.3	13.7	3.91e-02	0	49	0	2046820352	48	14209
2026-01-19 09:32:13.74	20.71	8.26	-38.3	-38.2	13.8	3.69e-02	0	50	0	2382364672	48	13996
2026-01-19 09:32:16.76	20.69	8.55	-38.2	-38.1	13.9	3.36e-02	0	50	0	2734686208	48	13851
2026-01-19 09:32:19.78	20.68	8.84	-37.3	-37.2	13.4	3.14e-02	0	50	0	3070230528	46	14096
2026-01-19 09:32:22.81	20.66	9.14	-37.2	-37.1	13.5	4.37e-02	0	50	0	3405774848	45	14670
2026-01-19 09:32:25.83	20.65	9.44	-37.2	-37.1	13.5	4.47e-02	0	50	0	3749707776	45	14758
2026-01-19 09:32:28.85	20.63	9.75	-36.9	-36.8	13.7	4.30e-02	0	50	0	4085252096	45	14160
2026-01-19 09:32:31.88	20.61	10.06	-36.8	-36.8	13.7	3.48e-02	0	51	0	4429185024	45	14125
2026-01-19 09:32:34.90	20.60	10.38	-36.4	-36.3	13.9	3.11e-02	0	51	0	4773117952	44	14225
2026-01-19 09:32:37.92	20.58	10.70	-36.6	-36.6	13.8	3.23e-02	0	51	0	5108662272	44	14621
2026-01-19 09:32:40.94	20.56	11.03	-36.3	-36.2	14.0	2.88e-02	0	51	0	5444206592	44	14066
2026-01-19 09:32:43.97	20.54	11.37	-36.2	-36.1	14.1	2.58e-02	0	51	0	5796528128	44	13836
2026-01-19 09:32:46.99	20.52	11.71	-36.0	-35.9	14.2	2.33e-02	0	51	0	6132072448	43	14347
2026-01-19 09:32:50.02	20.49	12.06	-36.0	-35.9	14.2	2.05e-02	0	51	0	6467616768	43	14316
2026-01-19 09:32:53.04	20.47	12.41	-35.6	-35.5	14.4	2.02e-02	0	51	0	6803161088	43	13706
2026-01-19 09:32:56.07	20.45	12.77	-35.6	-35.5	14.5	1.75e-02	0	51	0	7155482624	43	13662
2026-01-19 09:32:59.09	20.42	13.14	-35.3	-35.2	14.5	1.56e-02	0	52	0	7491026944	42	14098
2026-01-19 09:33:02.11	20.39	13.51	-35.3	-35.2	14.5	1.56e-02	0	51	0	7826571264	42	14062
2026-01-19 09:33:05.14	20.37	13.90	-35.1	-35.0	14.6	1.29e-02	0	51	0	8170504192	42	13783
2026-01-19 09:33:08.16	20.34	14.29	-35.1	-35.0	14.6	1.25e-02	0	51	0	8514437120	42	13761
2026-01-19 09:33:11.18	20.31	14.69	-34.8	-34.7	14.8	1.04e-02	0	51	0	8858370048	41	14088
2026-01-19 09:33:14.21	20.27	15.10	-34.8	-34.7	14.8	9.18e-03	0	52	0	9193914368	41	14022
2026-01-19 09:33:17.23	20.24	15.51	-34.6	-34.5	14.9	8.52e-03	0	52	0	9529458688	41	13645
2026-01-19 09:33:20.25	20.21	15.94	-34.2	-34.2	15.0	7.79e-03	0	52	0	9865003008	40	13955
2026-01-19 09:33:23.28	20.17	16.38	-34.2	-34.1	15.0	6.23e-03	0	52	0	10217324544	40	13866
2026-01-19 09:33:26.30	20.13	16.82	-34.0	-33.9	15.1	5.98e-03	0	52	0	10552868864	40	13572
2026-01-19 09:33:29.33	20.09	17.28	-33.7	-33.6	15.2	5.22e-03	0	52	0	10888413184	39	13935
2026-01-19 09:33:32.35	20.05	17.75	-33.5	-33.4	15.3	3.60e-03	0	52	0	11223957504	39	13584
2026-01-19 09:33:35.37	20.01	18.23	-33.1	-33.0	15.4	2.76e-03	0	52	0	11576279040	38	13721
2026-01-19 09:33:38.40	19.96	18.72	-33.5	-33.4	15.3	2.36e-03	0	52	0	11911823360	38	14341
2026-01-19 09:33:41.42	19.91	19.23	-32.9	-32.8	15.5	2.34e-03	0	52	0	12255756288	37	14151
2026-01-19 09:33:44.44	19.86	19.74	-32.7	-32.6	15.5	1.74e-03	0	52	0	12591300608	37	13938
2026-01-19 09:33:47.47	19.81	20.28	-32.7	-32.6	15.5	1.45e-03	0	52	0	12935233536	37	13886
2026-01-19 09:33:50.50	19.75	20.82	-32.4	-32.3	15.6	1.24e-03	0	52	0	13279166464	36	14187
2026-01-19 09:33:53.52	19.69	21.38	-32.1	-32.0	15.7	1.19e-03	0	52	0	13614710784	36	13747
2026-01-19 09:33:56.54	19.63	21.96	-29.4	-29.3	15.4	7.96e-04	0	52	0	13950255104	30	14268
2026-01-19 09:33:59.57	19.57	22.56	-29.3	-29.2	15.4	2.00e-03	0	52	0	14302576640	30	14060
2026-01-19 09:34:02.59	19.50	23.17	-29.0	-28.9	15.5	2.13e-03	0	52	0	14638120960	30	13501
2026-01-19 09:34:05.61	19.43	23.80	-28.7	-28.6	15.6	1.86e-03	0	52	0	14973665280	29	13834
2026-01-19 09:34:08.64	19.35	24.45	-28.6	-28.5	15.6	1.15e-03	0	52	0	15309209600	29	13656
2026-01-19 09:34:11.66	19.27	25.12	-28.3	-28.2	15.7	9.87e-04	0	52	0	15661531136	28	14065
2026-01-19 09:34:14.68	19.19	25.81	-28.0	-27.9	15.8	8.34e-04	0	52	0	15997075456	28	13559
2026-01-19 09:34:17.71	19.10	26.52	-28.1	-28.0	15.8	8.34e-04	0	52	0	16332619776	27	14450
2026-01-19 09:34:20.73	19.00	27.26	-27.6	-27.5	15.9	3.53e-04	0	52	0	16676552704	27	13742
2026-01-19 09:34:23.76	18.90	28.02	-27.4	-27.3	16.0	3.53e-04	0	52	0	17020485632	26	14114
2026-01-19 09:34:26.78	18.79	28.81	-26.8	-26.7	16.1	1.95e-04	0	52	0	17356029952	25	14033
2026-01-19 09:34:29.81	18.68	29.62	-26.7	-26.6	16.2	1.00e-04	0	52	0	17699962880	25	13934
2026-01-19 09:34:32.83	18.56	30.46	-26.1	-26.0	16.3	5.72e-05	0	52	0	18035507200	24	13637
2026-01-19 09:34:35.85	18.43	31.34	-25.9	-25.8	16.3	4.29e-05	0	52	0	18371051520	23	14247
2026-01-19 09:34:38.87	18.30	32.24	-25.7	-25.6	16.4	2.38e-05	0	52	0	18723373056	23	13822
2026-01-19 09:34:41.90	18.15	33.18	-25.3	-25.2	16.5	1.43e-05	0	52	0	19058917376	22	14032
2026-01-19 09:34:44.92	17.99	34.15	-24.8	-24.7	16.6	9.50e-06	0	52	0	19394461696	21	14061
2026-01-19 09:34:47.95	17.83	35.16	-24.4	-24.3	16.7	4.70e-06	0	52	0	19730006016	20	14167
2026-01-19 09:34:50.97	17.65	36.20	-24.1	-24.0	16.7	9.50e-06	0	52	0	20082327552	19	14456
2026-01-19 09:34:54.00	17.45	37.29	-23.8	-23.7	16.8	0.00e+00	0	52	0	20417871872	19	14049
2026-01-19 09:34:57.02	17.24	38.42	-23.5	-23.4	16.9	0.00e+00	0	52	0	20753416192	18	14343
2026-01-19 09:35:00.04	17.02	39.59	-23.1	-23.0	17.0	0.00e+00	0	52	0	21097349120	18	13707
2026-01-19 09:35:03.06	16.77	40.81	-22.7	-22.6	17.0	0.00e+00	0	52	0	21441282048	17	13800
2026-01-19 09:35:06.09	16.51	42.08	-22.4	-22.3	17.1	0.00e+00	0	52	0	21776826368	16	14152
2026-01-19 09:35:09.11	16.22	43.40	-22.0	-21.9	17.1	0.00e+00	0	52	0	22120759296	16	13536
2026-01-19 09:35:12.13	15.90	44.76	-21.6	-21.5	17.2	0.00e+00	0	52	0	22456303616	15	13771
2026-01-19 09:35:15.14	15.55	46.18	-21.3	-21.1	17.3	0.00e+00	0	52	0	22791847936	14	13929
2026-01-19 09:35:18.17	15.17	47.67	-21.1	-20.9	17.3	0.00e+00	0	52	0	23144169472	14	13588
2026-01-19 09:35:21.19	14.74	49.20	-20.6	-20.5	17.4	0.00e+00	0	52	0	23479713792	13	13636
2026-01-19 09:35:24.21	14.27	50.80	-20.3	-20.1	17.4	0.00e+00	0	52	0	23815258112	12	13943
2026-01-19 09:35:27.24	13.73	52.46	-20.1	-19.9	17.5	0.00e+00	0	52	0	24150802432	12	13610
2026-01-19 09:35:30.26	13.13	54.17	-19.9	-19.8	17.5	0.00e+00	0	52	0	24503123968	11	14122
2026-01-19 09:35:33.28	12.45	55.95	-19.6	-19.4	17.6	0.00e+00	0	52	0	24838668288	11	13589
2026-01-19 09:35:36.30	11.67	57.79	-19.2	-19.1	17.7	0.00e+00	0	52	0	25174212608	10	13877
2026-01-19 09:35:39.33	10.77	59.70	-19.0	-18.9	17.7	0.00e+00	0	52	0	25518145536	10	13520
2026-01-19 09:35:42.36	9.72	61.66	-18.8	-18.6	17.8	0.00e+00	0	52	0	25862078464	9	13918
2026-01-19 09:35:45.38	8.49	63.67	-18.7	-18.6	17.8	0.00e+00	0	52	0	26206011392	9	13861
2026-01-19 09:35:48.40	7.02	65.73	-18.5	-18.4	17.8	0.00e+00	0	52	0	26541555712	9	13509
2026-01-19 09:35:51.42	5.23	67.84	-18.5	-18.4	17.8	0.00e+00	0	52	0	26877100032	9	13492
2026-01-19 09:35:54.44	3.02	69.97	-18.6	-18.5	17.8	0.00e+00	0	52	0	27212644352	9	13652
2026-01-19 09:35:57.46	0.23	72.12	-18.3	-18.1	17.8	0.00e+00	0	52	0	27564965888	8	13896
2026-01-19 09:36:00.48	356.63	74.26	-18.1	-18.0	17.8	0.00e+00	0	52	0	27900510208	8	13698
2026-01-19 09:36:03.50	351.84	76.37	-18.2	-18.1	17.8	0.00e+00	0	52	0	28236054528	8	13811
2026-01-19 09:36:06.52	345.27	78.38	-18.3	-18.1	17.8	0.00e+00	0	52	0	28579987456	8	13913
2026-01-19 09:36:09.55	336.00	80.20	-18.3	-18.1	17.8	0.00e+00	0	52	0	28915531776	8	13891
2026-01-19 09:36:12.57	322.96	81.68	-18.3	-18.2	17.8	0.00e+00	0	52	0	29259464704	8	13976
2026-01-19 09:36:15.59	305.57	82.57	-18.2	-18.0	17.9	0.00e+00	0	52	0	29603397632	8	13671
2026-01-19 09:36:18.62	285.65	82.66	-18.3	-18.1	17.9	0.00e+00	0	52	0	29938941952	8	13875
2026-01-19 09:36:21.64	267.50	81.91	-18.3	-18.1	17.9	0.00e+00	0	52	0	30274486272	8	13916
2026-01-19 09:36:24.66	253.59	80.53	-18.2	-18.0	18.0	0.00e+00	0	52	0	30626807808	8	13770
2026-01-19 09:36:27.69	243.65	78.76	-18.2	-18.1	17.9	0.00e+00	0	52	0	30962352128	8	13820
2026-01-19 09:36:30.70	236.65	76.78	-18.4	-18.3	17.8	0.00e+00	0	52	0	31297896448	8	14166
2026-01-19 09:36:33.73	231.54	74.68	-18.4	-18.3	17.8	0.00e+00	0	52	0	31633440768	8	14166
2026-01-19 09:36:36.75	227.73	72.54	-18.4	-18.3	17.7	0.00e+00	0	52	0	31977373696	8	14198
2026-01-19 09:36:39.77	224.81	70.38	-18.4	-18.2	17.7	0.00e+00	0	52	0	32321306624	8	14098
2026-01-19 09:36:42.80	222.49	68.24	-18.4	-18.2	17.7	0.00e+00	0	52	0	32656850944	8	14109
2026-01-19 09:36:45.82	220.63	66.12	-18.6	-18.4	17.7	0.00e+00	0	52	0	33000783872	8	14395
2026-01-19 09:36:48.84	219.10	64.05	-18.8	-18.6	17.7	0.00e+00	0	52	0	33336328192	8	14744
2026-01-19 09:36:51.86	217.82	62.02	-18.9	-18.7	17.8	0.00e+00	0	52	0	33680261120	8	14895
2026-01-19 09:36:54.89	216.74	60.04	-19.1	-19.0	17.8	0.00e+00	0	52	0	34024194048	8	15379
2026-01-19 09:36:57.91	215.81	58.13	-19.3	-19.2	17.8	0.00e+00	0	52	0	34359738368	9	14831
2026-01-19 09:37:00.94	215.01	56.27	-19.5	-19.4	17.8	0.00e+00	0	52	0	34695282688	9	15132
2026-01-19 09:37:03.96	214.31	54.47	-19.9	-19.7	17.8	0.00e+00	0	52	0	35047604224	10	14897
2026-01-19 09:37:06.98	213.70	52.74	-20.0	-19.9	17.6	0.00e+00	0	52	0	35383148544	10	15155
2026-01-19 09:37:10.01	213.15	51.06	-20.4	-20.3	17.6	0.00e+00	0	52	0	35718692864	11	14963
2026-01-19 09:37:13.04	212.66	49.45	-20.6	-20.5	17.6	0.00e+00	0	52	0	36054237184	12	14484
2026-01-19 09:37:16.06	212.23	47.90	-20.9	-20.8	17.4	0.00e+00	0	52	0	36406558720	12	15017
2026-01-19 09:37:19.08	211.84	46.40	-21.2	-21.0	17.4	0.00e+00	0	52	0	36742103040	12	15472
2026-01-19 09:37:22.11	211.48	44.96	-21.5	-21.4	17.4	0.00e+00	0	52	0	37077647360	13	15211
2026-01-19 09:37:25.13	211.16	43.58	-21.8	-21.7	17.3	0.00e+00	0	52	0	37421580288	14	14779
2026-01-19 09:37:28.14	210.86	42.25	-22.1	-21.9	17.2	0.00e+00	0	52	0	37757124608	14	15270
2026-01-19 09:37:31.17	210.59	40.97	-22.5	-22.4	17.2	0.00e+00	0	52	0	38101057536	15	15215
2026-01-19 09:37:34.19	210.34	39.74	-23.0	-22.8	17.2	0.00e+00	0	52	0	38444990464	16	15111
2026-01-19 09:37:37.22	210.11	38.55	-23.3	-23.1	17.1	0.00e+00	0	52	0	38780534784	17	14747
2026-01-19 09:37:40.24	209.90	37.42	-23.6	-23.4	17.1	0.00e+00	0	52	0	39116079104	17	15268
2026-01-19 09:37:43.26	209.70	36.32	-23.9	-23.8	17.1	0.00e+00	0	52	0	39468400640	18	15057
2026-01-19 09:37:46.29	209.52	35.26	-24.4	-24.3	17.0	0.00e+00	0	52	0	39803944960	19	15060
2026-01-19 09:37:49.31	209.35	34.24	-24.6	-24.5	16.9	0.00e+00	0	52	0	40139489280	19	15407
2026-01-19 09:37:52.34	209.19	33.26	-24.8	-24.7	16.9	0.00e+00	0	52	0	40475033600	20	14800
2026-01-19 09:37:55.36	209.04	32.32	-25.1	-25.0	16.8	4.70e-06	0	53	0	40827355136	20	15353
2026-01-19 09:37:58.39	208.90	31.40	-25.4	-25.2	16.8	0.00e+00	0	52	0	41162899456	21	14939
2026-01-19 09:38:01.41	208.77	30.52	-25.8	-25.7	16.7	9.50e-06	0	52	0	41498443776	22	14829
2026-01-19 09:38:04.43	208.65	29.67	-26.1	-26.0	16.6	2.38e-05	0	52	0	41842376704	22	15434
2026-01-19 09:38:07.46	208.54	28.85	-26.4	-26.3	16.6	2.38e-05	0	52	0	42186309632	23	14994
2026-01-19 09:38:10.48	208.43	28.06	-26.6	-26.5	16.5	5.24e-05	0	52	0	42521853952	23	15426
2026-01-19 09:38:13.51	208.32	27.29	-26.9	-26.8	16.5	6.19e-05	0	52	0	42865786880	24	15006
2026-01-19 09:38:16.53	208.23	26.55	-27.3	-27.1	16.4	6.67e-05	0	52	0	43201331200	25	14751
2026-01-19 09:38:19.55	208.14	25.83	-27.5	-27.4	16.3	8.58e-05	0	52	0	43536875520	25	15160
2026-01-19 09:38:22.57	208.05	25.13	-27.9	-27.7	16.2	1.29e-04	0	52	0	43889197056	26	14926
2026-01-19 09:38:25.60	207.97	24.46	-28.2	-28.1	16.2	2.05e-04	0	53	0	44224741376	27	14674
2026-01-19 09:38:28.62	207.89	23.80	-28.4	-28.3	16.1	2.38e-04	0	53	0	44560285696	27	15009
2026-01-19 09:38:31.65	207.82	23.17	-28.7	-28.6	16.0	3.62e-04	0	53	0	44895830016	27	15587
2026-01-19 09:38:34.67	207.75	22.55	-28.9	-28.8	15.9	7.34e-04	0	52	0	45248151552	28	14956
2026-01-19 09:38:37.69	207.68	21.95	-29.3	-29.2	15.8	7.06e-04	0	52	0	45583695872	29	14923
2026-01-19 09:38:40.71	207.62	21.37	-29.3	-29.2	15.8	9.54e-04	0	53	0	45919240192	29	14888
2026-01-19 09:38:43.73	207.56	20.81	-29.6	-29.5	15.7	1.24e-03	0	53	0	46263173120	29	15337
2026-01-19 09:38:46.75	207.50	20.26	-29.7	-29.6	15.6	1.60e-03	0	53	0	46598717440	29	15514
2026-01-19 09:38:49.77	207.45	19.72	-30.0	-29.9	15.5	1.88e-03	0	53	0	46942650368	30	15173
2026-01-19 09:38:52.79	207.39	19.20	-30.1	-30.0	15.5	1.96e-03	0	53	0	47286583296	31	14553
2026-01-19 09:38:55.81	207.34	18.69	-30.3	-30.2	15.4	3.09e-03	0	53	0	47622127616	31	14892
2026-01-19 09:38:58.84	207.30	18.20	-30.7	-30.6	15.3	3.99e-03	0	53	0	47957671936	31	15524
2026-01-19 09:39:01.87	207.25	17.71	-30.8	-30.7	15.2	4.32e-03	0	53	0	48309993472	32	14830
2026-01-19 09:39:04.89	207.21	17.24	-30.9	-30.8	15.1	5.31e-03	0	53	0	48645537792	32	15096
2026-01-19 09:39:07.91	207.17	16.78	-31.2	-31.1	15.0	6.21e-03	0	53	0	48981082112	32	15526
2026-01-19 09:39:10.94	207.13	16.33	-31.5	-31.4	14.9	6.97e-03	0	53	0	49316626432	33	15185
2026-01-19 09:39:13.96	207.09	15.89	-31.6	-31.5	14.8	8.58e-03	0	53	0	49668947968	33	15431
2026-01-19 09:39:16.99	207.05	15.46	-31.7	-31.6	14.8	1.03e-02	0	53	0	50004492288	34	14706
2026-01-19 09:39:20.00	207.02	15.05	-32.0	-31.9	14.6	1.02e-02	0	53	0	50340036608	34	15177
2026-01-19 09:39:23.03	206.98	14.63	-32.0	-31.9	14.6	1.14e-02	0	53	0	50683969536	34	15171
2026-01-19 09:39:26.05	206.95	14.23	-32.1	-32.0	14.5	1.19e-02	0	53	0	51019513856	34	15450
2026-01-19 09:39:29.08	206.92	13.84	-32.3	-32.2	14.5	1.39e-02	0	53	0	51371835392	35	14821
2026-01-19 09:39:32.10	206.89	13.45	-32.4	-32.3	14.4	1.52e-02	0	53	0	51707379712	35	15113
2026-01-19 09:39:35.12	206.86	13.08	-32.6	-32.5	14.3	1.75e-02	0	53	0	52042924032	35	15444
2026-01-19 09:39:38.15	206.84	12.71	-35.2	-35.1	14.8	1.80e-02	0	53	0	52378468352	40	15538
2026-01-19 09:39:41.17	206.81	12.34	-35.2	-35.1	14.8	1.11e-02	0	53	0	52730789888	41	14653
2026-01-19 09:39:44.19	206.79	11.99	-35.3	-35.2	14.8	8.44e-03	0	53	0	53066334208	41	14817
2026-01-19 09:39:47.22	206.76	11.64	-35.3	-35.3	14.7	1.04e-02	0	53	0	53401878528	41	14948
2026-01-19 09:39:50.24	206.74	11.30	-35.6	-35.5	14.6	1.07e-02	0	53	0	53737422848	41	15384
2026-01-19 09:39:53.27	206.72	10.96	-35.7	-35.6	14.6	1.20e-02	0	53	0	54089744384	41	15536
2026-01-19 09:39:56.29	206.70	10.63	-36.2	-36.1	14.3	1.22e-02	0	53	0	54425288704	42	15550
2026-01-19 09:39:59.31	206.68	10.30	-36.1	-36.0	14.3	1.56e-02	0	53	0	54769221632	42	15386
2026-01-19 09:40:02.34	206.66	9.98	-36.2	-36.1	14.3	1.82e-02	0	53	0	55104765952	43	14750
2026-01-19 09:40:05.36	206.64	9.67	-36.2	-36.1	14.3	1.83e-02	0	53	0	55448698880	43	14741
2026-01-19 09:40:08.39	206.62	9.36	-36.3	-36.2	14.2	2.01e-02	0	53	0	55792631808	43	14880
2026-01-19 09:40:11.41	206.60	9.06	-36.6	-36.5	14.0	2.27e-02	0	53	0	56128176128	44	14586
2026-01-19 09:40:14.43	206.59	8.76	-36.5	-36.5	14.1	2.40e-02	0	53	0	56463720448	44	14446
2026-01-19 09:40:17.46	206.57	8.46	-36.7	-36.6	14.0	2.71e-02	0	53	0	56816041984	44	14692
2026-01-19 09:40:20.48	206.56	8.17	-37.0	-37.0	13.8	2.61e-02	0	53	0	57151586304	44	15340
2026-01-19 09:40:23.51	206.54	7.89	-37.1	-37.1	13.7	2.95e-02	0	53	0	57487130624	44	15508
2026-01-19 09:40:26.53	206.53	7.61	-37.3	-37.3	13.6	3.18e-02	0	53	0	57822674944	45	14961
2026-01-19 09:40:29.55	206.52	7.33	-37.3	-37.2	13.6	3.27e-02	0	53	0	58166607872	45	14870
2026-01-19 09:40:32.57	206.50	7.06	-37.5	-37.5	13.4	3.44e-02	0	53	0	58510540800	45	15305
2026-01-19 09:40:35.60	206.49	6.79	-53.2	-55.4	6.2	3.88e-02	0	52	104	58703478784	76	20205
2026-01-19 09:40:38.62	206.48	6.52	-53.1	-55.3	6.2	3.88e-02	0	52	104	58703478784	76	20026
2026-01-19 09:40:41.65	206.47	6.26	-53.1	-55.2	6.2	1.07e-02	0	51	104	58703478784	76	19923
2026-01-19 09:40:44.67	206.46	6.00	-53.1	-55.2	6.2	1.07e-02	0	51	104	58703478784	76	19918
2026-01-19 09:40:47.69	206.45	5.74	-52.9	-55.0	6.2	1.07e-02	0	51	104	58703478784	76	19451
2026-01-19 09:40:50.72	206.44	5.49	-52.9	-55.1	6.2	1.07e-02	0	51	104	58703478784	76	19480
2026-01-19 09:40:53.74	206.43	5.24	-52.9	-55.0	6.2	0.00e+00	0	51	104	58703478784	76	19420
2026-01-19 09:40:56.76	206.42	5.00	-52.9	-55.0	6.2	0.00e+00	0	51	104	58703478784	76	19382
2026-01-19 09:40:59.79	206.41	4.75	-53.9	-56.1	6.2	0.00e+00	0	51	104	58703478784	78	19483
2026-01-19 09:41:02.81	206.40	4.51	-54.2	-56.3	6.2	0.00e+00	0	51	104	58703478784	78	19955
2026-01-19 09:41:05.84	206.39	4.28	-54.3	-56.4	6.2	0.00e+00	0	51	104	58703478784	79	19221
2026-01-19 09:41:08.86	206.39	4.04	-54.3	-56.4	6.2	0.00e+00	0	51	104	58703478784	79	19072
2026-01-19 09:41:11.89	206.38	3.81	-54.6	-56.7	6.2	0.00e+00	0	50	104	58703478784	79	19845
2026-01-19 09:41:14.91	206.37	3.58	-54.6	-56.7	6.2	0.00e+00	0	50	104	58703478784	79	19891
2026-01-19 09:41:17.93	206.37	3.35	-54.6	-56.8	6.2	0.00e+00	0	50	104	58703478784	79	19975
2026-01-19 09:41:20.96	206.36	3.13	-54.6	-56.7	6.2	0.00e+00	0	50	104	58703478784	79	19847
2026-01-19 09:41:23.98	206.35	2.91	-54.6	-56.7	6.2	0.00e+00	0	50	104	58703478784	79	19828
2026-01-19 09:41:27.00	206.35	2.69	-54.6	-56.7	6.2	0.00e+00	0	50	104	58703478784	79	19824
2026-01-19 09:41:30.03	206.34	2.47	-54.6	-56.7	6.2	0.00e+00	0	50	104	58703478784	79	19791
2026-01-19 09:41:33.05	206.34	2.26	-54.5	-56.7	6.2	0.00e+00	0	50	104	58703478784	79	19768
2026-01-19 09:41:36.08	206.33	2.04	-54.5	-56.7	6.2	0.00e+00	0	50	104	58703478784	79	19773

#Closed at: 2026-01-19 09:41:38
#Recorded file [58703 MB]: D:/lorett/data/31041_260119_123057.dat