passes_logs/2026/01/19/R3.2S_Murmansk/R3.2S_Murmansk__20260119_081351_SUOMI_NPP_rec.log

#Pass ID: 20260119_081351_SUOMI NPP
#Satellite: SUOMI NPP
#Configuration: NPP
#almurnet v.1.7.20251203
#Start time: 2026-01-19 08:13:51

#Version: 2.2.20231116
#Station: R3.2S_Murmansk
#Location: 33.079688 lon 68.888172 lat
#TLE: 1 37849U 11061A   26018.91022273  .00000066  00000+0  52264-4 0  9997
#TLE: 2 37849  98.7816 320.9252 0002364  56.8129 303.3273 14.19526186737260

#Time	Az	El	Level	Level2	SNR	BER	BlckErr	Temp	State	Recorded	gain1	gain2
2026-01-19 08:13:51.52	119.82	2.03	-52.1	-67.1	3.8	1.49e+00	0	35	0	0	76	19445
2026-01-19 08:13:55.56	119.69	2.29	-52.1	-67.1	3.8	1.49e+00	0	35	104	0	74	21781
2026-01-19 08:13:59.59	119.57	2.54	-52.1	-67.0	3.8	1.49e+00	0	35	104	0	74	21747
2026-01-19 08:14:03.62	119.44	2.80	-52.1	-67.0	3.8	1.49e+00	0	36	104	0	74	21714
2026-01-19 08:14:07.65	119.31	3.06	-52.1	-67.0	3.8	1.49e+00	0	36	104	0	74	21527
2026-01-19 08:14:11.68	119.18	3.32	-52.1	-67.0	3.8	1.49e+00	0	36	104	0	74	21580
2026-01-19 08:14:15.71	119.04	3.59	-52.1	-66.8	3.8	1.49e+00	0	36	104	0	74	21082
2026-01-19 08:14:19.74	118.90	3.85	-52.0	-65.3	3.8	1.49e+00	0	36	104	0	74	17684
2026-01-19 08:14:23.78	118.76	4.12	-51.8	-62.7	4.4	1.25e+00	123	36	0	1048576	74	13207
2026-01-19 08:14:27.81	118.62	4.40	-51.7	-61.8	4.8	9.18e-01	0	36	0	8388608	74	11914
2026-01-19 08:14:31.84	118.47	4.67	-50.9	-57.2	8.5	9.75e-02	0	36	0	16777216	73	7410
2026-01-19 08:14:35.87	118.32	4.95	-49.6	-53.6	12.3	2.53e-04	0	36	0	24117248	71	5483
2026-01-19 08:14:39.90	118.17	5.23	-51.6	-60.6	6.0	1.56e-02	0	36	0	31457280	73	10940
2026-01-19 08:14:43.93	118.01	5.51	-47.7	-50.0	16.0	0.00e+00	0	36	0	38797312	67	4560
2026-01-19 08:14:47.96	117.85	5.80	-48.2	-50.8	15.3	0.00e+00	0	36	0	46137344	67	5018
2026-01-19 08:14:51.99	117.69	6.09	-48.0	-50.4	15.7	0.00e+00	0	36	0	54525952	67	4809
2026-01-19 08:14:56.03	117.52	6.38	-47.8	-50.0	16.2	0.00e+00	0	36	0	61865984	66	4867
2026-01-19 08:15:00.06	117.35	6.68	-47.7	-50.0	16.3	0.00e+00	0	36	0	69206016	66	4844
2026-01-19 08:15:04.08	117.18	6.97	-47.9	-50.2	16.2	0.00e+00	0	36	0	76546048	66	4950
2026-01-19 08:15:08.11	117.00	7.27	-47.5	-49.5	16.8	0.00e+00	0	36	0	83886080	66	4595
2026-01-19 08:15:12.15	116.82	7.58	-47.3	-49.3	17.1	0.00e+00	0	36	0	92274688	66	4480
2026-01-19 08:15:16.18	116.63	7.89	-47.7	-49.8	16.7	0.00e+00	0	36	0	99614720	66	4737
2026-01-19 08:15:20.21	116.44	8.20	-47.5	-49.6	16.9	0.00e+00	0	37	0	106954752	66	4642
2026-01-19 08:15:24.24	116.25	8.52	-47.3	-49.3	17.3	0.00e+00	0	36	0	114294784	66	4457
2026-01-19 08:15:28.28	116.05	8.83	-47.3	-49.3	17.3	0.00e+00	0	36	0	121634816	66	4457
2026-01-19 08:15:32.31	115.84	9.16	-47.3	-49.3	17.4	0.00e+00	0	37	0	130023424	66	4447
2026-01-19 08:15:36.34	115.63	9.48	-47.4	-49.4	17.3	0.00e+00	0	37	0	137363456	66	4508
2026-01-19 08:15:40.37	115.42	9.81	-47.2	-49.0	17.6	0.00e+00	0	37	0	144703488	65	4595
2026-01-19 08:15:44.40	115.20	10.15	-47.3	-49.2	17.6	0.00e+00	0	37	0	152043520	65	4654
2026-01-19 08:15:48.43	114.97	10.49	-47.0	-48.7	18.0	0.00e+00	0	37	0	160432128	65	4438
2026-01-19 08:15:52.46	114.74	10.83	-46.8	-48.6	18.1	0.00e+00	0	37	0	167772160	65	4341
2026-01-19 08:15:56.50	114.51	11.18	-46.7	-48.5	18.1	0.00e+00	0	37	0	175112192	65	4340
2026-01-19 08:16:00.53	114.27	11.53	-46.8	-48.6	18.1	0.00e+00	0	37	0	182452224	65	4376
2026-01-19 08:16:04.56	114.02	11.89	-46.7	-48.5	18.2	0.00e+00	0	37	0	189792256	65	4336
2026-01-19 08:16:08.59	113.76	12.25	-46.6	-48.4	18.3	0.00e+00	0	37	0	198180864	65	4264
2026-01-19 08:16:12.62	113.50	12.61	-46.9	-48.8	18.0	0.00e+00	0	37	0	205520896	65	4443
2026-01-19 08:16:16.66	113.23	12.98	-46.8	-48.6	18.2	0.00e+00	0	37	0	212860928	65	4345
2026-01-19 08:16:20.69	112.96	13.36	-46.6	-48.4	18.4	0.00e+00	0	37	0	220200960	65	4246
2026-01-19 08:16:24.72	112.67	13.74	-46.8	-48.6	18.2	0.00e+00	0	37	0	227540992	64	4606
2026-01-19 08:16:28.75	112.38	14.13	-46.2	-47.9	18.9	0.00e+00	0	37	0	235929600	64	4258
2026-01-19 08:16:32.78	112.09	14.52	-46.3	-48.0	18.8	0.00e+00	0	37	0	243269632	64	4310
2026-01-19 08:16:36.82	111.78	14.91	-46.3	-48.0	18.8	0.00e+00	0	37	0	250609664	64	4294
2026-01-19 08:16:40.85	111.46	15.32	-46.6	-48.3	18.6	0.00e+00	0	37	0	257949696	64	4465
2026-01-19 08:16:44.88	111.14	15.73	-46.9	-48.7	18.2	0.00e+00	0	37	0	265289728	64	4661
2026-01-19 08:16:48.91	110.80	16.14	-46.5	-48.2	18.6	0.00e+00	0	37	0	273678336	64	4436
2026-01-19 08:16:52.94	110.46	16.56	-46.3	-48.0	18.9	0.00e+00	0	37	0	281018368	64	4312
2026-01-19 08:16:56.97	110.10	16.99	-46.3	-48.0	18.9	0.00e+00	0	37	0	288358400	64	4308
2026-01-19 08:17:01.00	109.74	17.42	-46.9	-48.8	18.2	0.00e+00	0	37	0	295698432	64	4707
2026-01-19 08:17:05.03	109.36	17.86	-47.0	-48.9	17.9	0.00e+00	0	37	0	304087040	65	4495
2026-01-19 08:17:09.07	108.98	18.31	-47.1	-49.0	17.9	0.00e+00	0	37	0	311427072	65	4561
2026-01-19 08:17:13.10	108.58	18.76	-46.9	-48.6	18.3	0.00e+00	0	37	0	318767104	65	4382
2026-01-19 08:17:17.13	108.17	19.22	-47.2	-49.1	17.9	0.00e+00	0	37	0	326107136	65	4612
2026-01-19 08:17:21.16	107.74	19.69	-46.8	-48.5	18.4	0.00e+00	0	37	0	333447168	65	4336
2026-01-19 08:17:25.19	107.30	20.16	-47.2	-49.0	17.9	0.00e+00	0	37	0	340787200	65	4594
2026-01-19 08:17:29.22	106.85	20.64	-46.8	-48.6	18.4	0.00e+00	0	37	0	349175808	65	4344
2026-01-19 08:17:33.25	106.38	21.13	-46.8	-48.5	18.5	0.00e+00	0	37	0	356515840	65	4292
2026-01-19 08:17:37.28	105.90	21.63	-47.0	-48.8	18.2	0.00e+00	0	37	0	363855872	65	4460
2026-01-19 08:17:41.31	105.40	22.13	-47.2	-49.1	17.9	0.00e+00	0	37	0	371195904	65	4617
2026-01-19 08:17:45.35	104.88	22.64	-47.3	-49.2	17.8	0.00e+00	0	37	0	379584512	65	4658
2026-01-19 08:17:49.38	104.35	23.16	-46.6	-48.3	18.6	0.00e+00	0	37	0	386924544	65	4224
2026-01-19 08:17:53.41	103.80	23.69	-47.2	-49.1	18.0	0.00e+00	0	37	0	394264576	65	4600
2026-01-19 08:17:57.45	103.22	24.23	-47.1	-49.0	18.1	0.00e+00	0	37	0	401604608	65	4551
2026-01-19 08:18:01.48	102.63	24.77	-47.3	-49.2	17.8	0.00e+00	0	37	0	408944640	65	4686
2026-01-19 08:18:05.51	102.02	25.32	-46.6	-48.3	18.7	0.00e+00	0	37	0	417333248	64	4446
2026-01-19 08:18:09.54	101.38	25.88	-47.1	-49.0	18.0	0.00e+00	0	37	0	424673280	65	4574
2026-01-19 08:18:13.57	100.72	26.44	-47.1	-49.0	18.0	0.00e+00	0	37	0	432013312	65	4549
2026-01-19 08:18:17.61	100.04	27.02	-47.2	-49.1	17.9	0.00e+00	0	37	0	439353344	65	4644
2026-01-19 08:18:21.64	99.33	27.60	-47.0	-48.8	18.2	0.00e+00	0	37	0	447741952	65	4491
2026-01-19 08:18:25.67	98.59	28.19	-47.6	-49.6	17.5	0.00e+00	0	37	0	455081984	66	4637
2026-01-19 08:18:29.70	97.83	28.78	-47.9	-50.2	17.0	0.00e+00	0	37	0	462422016	66	4933
2026-01-19 08:18:33.73	97.04	29.38	-47.8	-49.9	17.2	0.00e+00	0	37	0	469762048	67	4539
2026-01-19 08:18:37.76	96.21	29.99	-48.3	-50.6	16.6	0.00e+00	0	37	0	477102080	67	4892
2026-01-19 08:18:41.80	95.35	30.61	-48.5	-50.9	16.3	0.00e+00	0	37	0	484442112	67	5056
2026-01-19 08:18:45.83	94.46	31.23	-48.2	-50.4	16.8	0.00e+00	0	37	0	492830720	68	4508
2026-01-19 08:18:49.86	93.54	31.85	-48.5	-50.9	16.5	0.00e+00	0	37	0	500170752	68	4787
2026-01-19 08:18:53.89	92.58	32.48	-49.1	-51.8	15.5	0.00e+00	0	37	0	507510784	69	4992
2026-01-19 08:18:57.92	91.58	33.12	-48.6	-51.0	16.3	0.00e+00	0	37	0	514850816	68	4818
2026-01-19 08:19:01.95	90.53	33.75	-49.2	-52.0	15.3	0.00e+00	0	37	0	523239424	69	5119
2026-01-19 08:19:05.99	89.45	34.39	-49.5	-52.3	15.1	0.00e+00	0	37	0	530579456	69	5316
2026-01-19 08:19:10.02	88.32	35.03	-47.9	-49.9	17.3	0.00e+00	0	37	0	537919488	67	4506
2026-01-19 08:19:14.05	87.15	35.67	-47.0	-48.7	18.4	0.00e+00	0	37	0	545259520	65	4441
2026-01-19 08:19:18.08	85.93	36.30	-47.8	-49.8	17.4	0.00e+00	0	37	0	552599552	66	4756
2026-01-19 08:19:22.11	84.66	36.94	-48.6	-51.1	16.2	0.00e+00	0	37	0	560988160	68	4920
2026-01-19 08:19:26.14	83.35	37.57	-49.0	-51.7	15.6	0.00e+00	0	37	0	568328192	68	5256
2026-01-19 08:19:30.17	81.98	38.19	-48.0	-50.1	17.1	0.00e+00	0	37	0	575668224	67	4628
2026-01-19 08:19:34.21	80.55	38.81	-49.5	-52.6	14.7	0.00e+00	0	37	0	583008256	69	5484
2026-01-19 08:19:38.24	79.07	39.41	-47.5	-49.4	17.8	0.00e+00	0	37	0	590348288	67	4273
2026-01-19 08:19:42.27	77.54	40.00	-48.3	-50.6	16.7	0.00e+00	0	37	0	598736896	67	4894
2026-01-19 08:19:46.30	75.95	40.58	-46.7	-48.3	18.8	0.00e+00	0	37	0	606076928	65	4220
2026-01-19 08:19:50.33	74.30	41.14	-47.7	-49.7	17.6	0.00e+00	0	37	0	613416960	65	4967
2026-01-19 08:19:54.37	72.59	41.68	-46.7	-48.4	18.8	0.00e+00	0	37	0	620756992	65	4265
2026-01-19 08:19:58.40	70.83	42.20	-46.9	-48.7	18.5	0.00e+00	0	37	0	628097024	65	4417
2026-01-19 08:20:02.43	69.01	42.70	-46.0	-47.6	19.6	0.00e+00	0	37	0	636485632	63	4374
2026-01-19 08:20:06.46	67.13	43.16	-46.3	-47.9	19.3	0.00e+00	0	37	0	643825664	63	4513
2026-01-19 08:20:10.49	65.21	43.60	-47.2	-49.2	17.9	0.00e+00	0	37	0	651165696	65	4659
2026-01-19 08:20:14.52	63.23	44.00	-48.1	-50.5	16.8	0.00e+00	0	37	0	658505728	67	4826
2026-01-19 08:20:18.55	61.20	44.37	-46.4	-48.0	19.1	0.00e+00	0	37	0	666894336	64	4313
2026-01-19 08:20:22.58	59.13	44.70	-46.9	-48.6	18.6	0.00e+00	0	37	0	674234368	65	4388
2026-01-19 08:20:26.61	57.01	44.99	-48.3	-50.7	16.6	0.00e+00	0	37	0	681574400	67	4939
2026-01-19 08:20:30.64	54.86	45.24	-47.5	-49.5	17.7	0.00e+00	0	37	0	688914432	67	4324
2026-01-19 08:20:34.67	52.68	45.44	-46.6	-48.3	18.9	0.00e+00	0	37	0	696254464	65	4217
2026-01-19 08:20:38.70	50.48	45.60	-48.6	-51.3	16.1	0.00e+00	0	37	0	704643072	68	4984
2026-01-19 08:20:42.74	48.25	45.71	-47.9	-50.2	17.1	0.00e+00	0	37	0	711983104	67	4667
2026-01-19 08:20:46.77	46.01	45.77	-47.7	-49.9	17.4	0.00e+00	0	37	0	719323136	67	4512
2026-01-19 08:20:50.80	43.77	45.79	-46.5	-48.2	18.9	0.00e+00	0	37	0	726663168	65	4151
2026-01-19 08:20:54.83	41.53	45.75	-47.3	-49.3	17.8	0.00e+00	0	37	0	734003200	65	4752
2026-01-19 08:20:58.87	39.29	45.67	-47.4	-49.4	17.7	0.00e+00	0	37	0	742391808	66	4542
2026-01-19 08:21:02.90	37.07	45.54	-47.5	-49.6	17.5	0.00e+00	0	37	0	749731840	65	4893
2026-01-19 08:21:06.93	34.88	45.36	-48.1	-50.5	16.7	0.00e+00	0	37	0	757071872	67	4844
2026-01-19 08:21:10.96	32.71	45.14	-47.2	-49.1	18.1	0.00e+00	0	37	0	764411904	65	4640
2026-01-19 08:21:14.99	30.58	44.87	-46.7	-48.5	18.7	0.00e+00	0	37	0	771751936	65	4292
2026-01-19 08:21:19.02	28.48	44.57	-47.6	-49.8	17.3	0.00e+00	0	37	0	780140544	65	5018
2026-01-19 08:21:23.05	26.43	44.22	-47.8	-50.0	17.1	0.00e+00	0	37	0	787480576	66	4823
2026-01-19 08:21:27.09	24.42	43.84	-47.1	-48.9	18.3	0.00e+00	0	37	0	794820608	66	4249
2026-01-19 08:21:31.12	22.47	43.42	-46.6	-48.4	18.8	0.00e+00	0	37	0	802160640	64	4495
2026-01-19 08:21:35.15	20.56	42.97	-46.4	-48.0	19.2	0.00e+00	0	37	0	810549248	64	4317
2026-01-19 08:21:39.18	18.72	42.49	-46.1	-47.7	19.4	0.00e+00	0	37	0	817889280	64	4176
2026-01-19 08:21:43.21	16.92	41.99	-45.0	-46.3	20.8	0.00e+00	0	37	0	825229312	62	3962
2026-01-19 08:21:47.24	15.19	41.46	-44.1	-45.3	22.0	0.00e+00	0	37	0	832569344	59	4201
2026-01-19 08:21:51.27	13.51	40.91	-44.4	-45.5	21.4	0.00e+00	0	37	0	839909376	60	4098
2026-01-19 08:21:55.31	11.89	40.34	-44.9	-46.2	20.9	0.00e+00	0	37	0	847249408	60	4410
2026-01-19 08:21:59.34	10.32	39.76	-46.5	-48.1	19.1	0.00e+00	0	37	0	855638016	64	4388
2026-01-19 08:22:03.37	8.82	39.16	-46.2	-47.7	19.7	0.00e+00	0	37	0	862978048	63	4395
2026-01-19 08:22:07.40	7.37	38.56	-46.7	-48.4	18.9	0.00e+00	0	37	0	870318080	64	4533
2026-01-19 08:22:11.43	5.97	37.94	-46.8	-48.5	18.5	0.00e+00	0	37	0	877658112	64	4548
2026-01-19 08:22:15.47	4.62	37.32	-46.1	-47.5	19.7	0.00e+00	0	37	0	886046720	64	4079
2026-01-19 08:22:19.50	3.33	36.69	-47.5	-49.4	17.9	0.00e+00	0	37	0	893386752	65	4784
2026-01-19 08:22:23.53	2.08	36.05	-47.8	-49.8	17.5	0.00e+00	0	37	0	900726784	67	4444
2026-01-19 08:22:27.56	0.89	35.42	-49.1	-51.6	15.9	0.00e+00	0	37	0	908066816	68	5195
2026-01-19 08:22:31.59	359.74	34.78	-49.9	-53.0	14.2	7.00e-07	0	37	0	915406848	70	5454
2026-01-19 08:22:35.62	358.63	34.14	-49.4	-52.1	15.4	0.00e+00	0	37	0	923795456	69	5197
2026-01-19 08:22:39.65	357.57	33.51	-50.5	-54.1	13.4	0.00e+00	0	37	0	931135488	71	5801
2026-01-19 08:22:43.68	356.55	32.87	-49.4	-52.1	15.4	0.00e+00	0	37	0	938475520	70	4881
2026-01-19 08:22:47.71	355.57	32.24	-48.8	-51.1	16.3	0.00e+00	0	37	0	945815552	69	4641
2026-01-19 08:22:51.74	354.62	31.62	-48.4	-50.7	16.6	0.00e+00	0	37	0	953155584	67	4947
2026-01-19 08:22:55.77	353.71	31.00	-49.2	-51.8	15.7	0.00e+00	0	37	0	961544192	70	4745
2026-01-19 08:22:59.81	352.84	30.38	-48.9	-51.3	16.1	0.00e+00	0	37	0	968884224	69	4716
2026-01-19 08:23:03.84	352.00	29.77	-47.7	-49.5	17.7	0.00e+00	0	37	0	976224256	67	4337
2026-01-19 08:23:07.87	351.19	29.17	-48.1	-50.2	17.0	0.00e+00	0	37	0	983564288	67	4667
2026-01-19 08:23:11.90	350.41	28.57	-47.6	-49.5	17.6	0.00e+00	0	37	0	990904320	67	4325
2026-01-19 08:23:15.94	349.66	27.98	-46.8	-48.4	18.7	0.00e+00	0	37	0	999292928	64	4516
2026-01-19 08:23:19.97	348.94	27.39	-49.1	-51.8	15.5	0.00e+00	0	37	0	1006632960	68	5303
2026-01-19 08:23:24.00	348.24	26.82	-48.3	-50.5	16.7	0.00e+00	0	37	0	1013972992	68	4594
2026-01-19 08:23:28.03	347.57	26.25	-47.2	-49.0	18.1	0.00e+00	0	37	0	1021313024	65	4568
2026-01-19 08:23:32.07	346.92	25.69	-48.0	-50.1	17.1	0.00e+00	0	37	0	1029701632	66	4906
2026-01-19 08:23:36.10	346.30	25.13	-47.7	-49.7	17.4	0.00e+00	0	37	0	1037041664	66	4672
2026-01-19 08:23:40.13	345.70	24.59	-48.5	-50.9	16.3	0.00e+00	0	37	0	1044381696	67	5084
2026-01-19 08:23:44.16	345.12	24.05	-48.7	-51.1	16.2	0.00e+00	0	37	0	1051721728	69	4613
2026-01-19 08:23:48.20	344.55	23.52	-47.4	-49.3	17.9	0.00e+00	0	37	0	1059061760	66	4452
2026-01-19 08:23:52.23	344.01	23.00	-47.4	-49.3	17.9	0.00e+00	0	37	0	1067450368	66	4444
2026-01-19 08:23:56.27	343.48	22.48	-47.4	-49.4	17.8	0.00e+00	0	37	0	1074790400	66	4498
2026-01-19 08:24:00.30	342.98	21.98	-47.2	-49.0	18.1	0.00e+00	0	37	0	1082130432	66	4335
2026-01-19 08:24:04.33	342.49	21.48	-46.7	-48.3	18.7	0.00e+00	0	37	0	1089470464	65	4236
2026-01-19 08:24:08.37	342.01	20.98	-47.3	-49.2	17.9	0.00e+00	0	37	0	1096810496	65	4662
2026-01-19 08:24:12.40	341.55	20.50	-48.9	-51.4	15.8	0.00e+00	0	37	0	1105199104	68	5077
2026-01-19 08:24:16.43	341.11	20.02	-48.5	-50.8	16.3	0.00e+00	0	37	0	1112539136	68	4757
2026-01-19 08:24:20.46	340.68	19.55	-47.9	-50.0	17.1	0.00e+00	0	37	0	1119879168	67	4558
2026-01-19 08:24:24.49	340.26	19.09	-47.7	-49.7	17.3	0.00e+00	0	37	0	1127219200	67	4406
2026-01-19 08:24:28.53	339.86	18.63	-47.7	-49.7	17.4	0.00e+00	0	37	0	1135607808	66	4678
2026-01-19 08:24:32.56	339.46	18.19	-47.6	-49.5	17.5	0.00e+00	0	37	0	1142947840	66	4587
2026-01-19 08:24:36.59	339.08	17.74	-47.3	-49.1	17.8	0.00e+00	0	37	0	1150287872	66	4391
2026-01-19 08:24:40.62	338.71	17.31	-47.2	-49.0	17.9	0.00e+00	0	37	0	1157627904	66	4336
2026-01-19 08:24:44.66	338.35	16.88	-47.5	-49.4	17.5	0.00e+00	0	37	0	1164967936	66	4543
2026-01-19 08:24:48.69	338.01	16.45	-47.8	-49.8	17.1	0.00e+00	0	37	0	1173356544	66	4737
2026-01-19 08:24:52.72	337.67	16.04	-47.7	-49.7	17.3	0.00e+00	0	37	0	1180696576	66	4658
2026-01-19 08:24:56.75	337.34	15.63	-47.3	-49.2	17.7	0.00e+00	0	37	0	1188036608	66	4402
2026-01-19 08:25:00.77	337.02	15.22	-47.3	-49.1	17.7	0.00e+00	0	37	0	1195376640	66	4387
2026-01-19 08:25:04.80	336.71	14.82	-47.3	-49.2	17.7	0.00e+00	0	37	0	1202716672	66	4405
2026-01-19 08:25:08.83	336.41	14.43	-47.8	-49.8	17.1	0.00e+00	0	37	0	1211105280	66	4758
2026-01-19 08:25:12.87	336.12	14.04	-48.1	-50.4	16.5	0.00e+00	0	37	0	1218445312	66	5058
2026-01-19 08:25:16.89	335.83	13.66	-48.2	-50.4	16.5	0.00e+00	0	37	0	1225785344	66	5076
2026-01-19 08:25:20.93	335.55	13.28	-48.1	-50.3	16.5	0.00e+00	0	37	0	1233125376	67	4752
2026-01-19 08:25:24.96	335.28	12.91	-48.5	-50.8	16.1	0.00e+00	0	37	0	1240465408	67	5029
2026-01-19 08:25:28.99	335.02	12.54	-48.2	-50.5	16.3	0.00e+00	0	37	0	1248854016	67	4861
2026-01-19 08:25:33.02	334.76	12.18	-48.5	-50.9	15.9	0.00e+00	0	37	0	1256194048	67	5100
2026-01-19 08:25:37.05	334.51	11.82	-48.2	-50.6	16.2	0.00e+00	0	37	0	1263534080	67	4890
2026-01-19 08:25:41.09	334.27	11.46	-48.2	-50.5	16.3	0.00e+00	0	37	0	1270874112	67	4856
2026-01-19 08:25:45.12	334.03	11.12	-48.1	-50.4	16.4	0.00e+00	0	37	0	1278214144	67	4773
2026-01-19 08:25:49.15	333.80	10.77	-47.8	-49.9	16.8	0.00e+00	0	37	0	1286602752	67	4521
2026-01-19 08:25:53.19	333.58	10.43	-47.8	-49.9	16.8	0.00e+00	0	37	0	1293942784	67	4526
2026-01-19 08:25:57.22	333.36	10.09	-47.7	-49.8	16.9	0.00e+00	0	37	0	1301282816	67	4462
2026-01-19 08:26:01.25	333.14	9.76	-48.0	-50.2	16.4	0.00e+00	0	37	0	1308622848	67	4692
2026-01-19 08:26:05.28	332.93	9.43	-48.2	-50.6	16.0	0.00e+00	0	37	0	1315962880	67	4915
2026-01-19 08:26:09.31	332.73	9.11	-48.4	-51.0	15.6	0.00e+00	0	37	0	1324351488	67	5116
2026-01-19 08:26:13.34	332.53	8.79	-49.1	-51.9	14.8	7.00e-07	0	37	0	1331691520	68	5393
2026-01-19 08:26:17.38	332.33	8.47	-49.2	-52.3	14.4	0.00e+00	0	37	0	1339031552	69	5280
2026-01-19 08:26:21.41	332.14	8.16	-49.1	-52.1	14.5	7.00e-07	0	37	0	1346371584	69	5191
2026-01-19 08:26:25.44	331.95	7.85	-49.1	-52.1	14.6	0.00e+00	0	37	0	1354760192	69	5176
2026-01-19 08:26:29.47	331.77	7.54	-49.1	-52.1	14.4	0.00e+00	0	37	0	1362100224	69	5213
2026-01-19 08:26:33.50	331.59	7.24	-48.8	-51.6	14.9	7.00e-07	0	37	0	1369440256	69	4922
2026-01-19 08:26:37.53	331.42	6.94	-48.7	-51.4	15.1	0.00e+00	0	37	0	1376780288	69	4793
2026-01-19 08:26:41.57	331.25	6.64	-48.8	-51.7	14.7	0.00e+00	0	37	0	1384120320	68	5233
2026-01-19 08:26:45.60	331.08	6.35	-48.7	-51.5	14.9	0.00e+00	0	37	0	1392508928	68	5117
2026-01-19 08:26:49.63	330.92	6.06	-48.6	-51.3	15.1	0.00e+00	0	37	0	1399848960	68	5016
2026-01-19 08:26:53.66	330.76	5.77	-48.6	-51.3	15.0	0.00e+00	0	37	0	1407188992	68	5023
2026-01-19 08:26:57.69	330.60	5.49	-48.5	-51.1	15.2	0.00e+00	0	37	0	1414529024	68	4920
2026-01-19 08:27:01.72	330.45	5.21	-48.7	-51.5	14.8	0.00e+00	0	37	0	1421869056	68	5126
2026-01-19 08:27:05.75	330.30	4.93	-52.9	-67.9	3.8	1.49e+00	0	37	104	1428160512	76	21330
2026-01-19 08:27:09.78	330.16	4.65	-53.5	-68.5	3.8	1.49e+00	0	37	104	1428160512	77	21635
2026-01-19 08:27:13.81	330.01	4.38	-53.9	-68.9	3.8	1.49e+00	0	37	104	1428160512	78	21304
2026-01-19 08:27:17.85	329.87	4.11	-54.1	-69.1	3.8	1.49e+00	0	38	104	1428160512	78	21823
2026-01-19 08:27:21.87	329.73	3.84	-54.1	-69.1	3.8	1.49e+00	0	37	104	1428160512	78	21860
2026-01-19 08:27:25.91	329.60	3.57	-54.1	-69.1	3.8	1.49e+00	0	37	104	1428160512	78	21924
2026-01-19 08:27:29.94	329.47	3.31	-54.0	-69.0	3.8	1.49e+00	0	37	104	1428160512	78	21682
2026-01-19 08:27:33.97	329.34	3.05	-54.0	-69.0	3.8	1.49e+00	0	37	104	1428160512	78	21659
2026-01-19 08:27:38.01	329.21	2.79	-54.0	-69.0	3.8	1.49e+00	0	37	104	1428160512	78	21559
2026-01-19 08:27:42.04	329.09	2.53	-53.9	-69.0	3.8	1.49e+00	0	38	104	1428160512	78	21516
2026-01-19 08:27:46.07	328.97	2.28	-53.9	-69.0	3.8	1.49e+00	0	38	104	1428160512	78	21599
2026-01-19 08:27:50.10	328.85	2.03	-53.9	-68.9	3.8	1.49e+00	0	37	104	1428160512	78	21448

#Closed at: 2026-01-19 08:27:50
#Recorded file [1428 MB]: D:/lorett/data/31041_260119_111351.dat