passes_logs/2026/01/19/R3.2S_Murmansk/R3.2S_Murmansk__20260119_230739_NOAA_21_JPSS-2_rec.log

#Pass ID: 20260119_230739_NOAA 21 (JPSS-2)
#Satellite: NOAA 21 (JPSS-2)
#Configuration: NOAA-21
#almurnet v.1.7.20251203
#Start time: 2026-01-19 23:07:38

#Version: 2.2.20231116
#Station: R3.2S_Murmansk
#Location: 33.079688 lon 68.888172 lat
#TLE: 1 54234U 22150A   26019.31231101  .00000073  00000+0  55355-4 0  9994
#TLE: 2 54234  98.7504 320.1599 0000604 258.3686 101.7423 14.19535697165426

#Time	Az	El	Level	Level2	SNR	BER	BlckErr	Temp	State	Recorded	gain1	gain2
2026-01-19 23:07:38.54	19.97	1.97	-52.2	-64.9	3.8	1.49e+00	0	37	0	0	76	15077
2026-01-19 23:07:42.42	20.16	2.20	-52.1	-64.8	3.8	1.49e+00	0	37	104	0	74	16844
2026-01-19 23:07:46.30	20.34	2.43	-52.1	-64.6	3.8	1.49e+00	0	37	104	0	74	16352
2026-01-19 23:07:50.19	20.53	2.67	-52.0	-63.8	3.8	1.49e+00	0	37	104	0	74	14966
2026-01-19 23:07:54.06	20.72	2.91	-52.0	-64.0	3.8	1.49e+00	0	38	104	0	74	15255
2026-01-19 23:07:57.95	20.92	3.15	-52.0	-63.9	3.8	1.49e+00	0	38	104	0	74	15121
2026-01-19 23:08:01.83	21.12	3.39	-51.9	-62.3	4.0	1.48e+00	0	38	104	0	74	12603
2026-01-19 23:08:05.70	21.32	3.63	-51.9	-62.5	3.9	1.48e+00	0	38	104	0	74	12923
2026-01-19 23:08:09.59	21.52	3.88	-51.8	-61.6	4.1	1.47e+00	0	38	104	0	74	11676
2026-01-19 23:08:13.47	21.73	4.12	-51.3	-58.2	5.6	4.65e-01	0	38	0	5242880	74	7894
2026-01-19 23:08:17.34	21.94	4.37	-50.5	-55.5	8.0	7.07e-02	0	38	0	16777216	73	6099
2026-01-19 23:08:21.22	22.15	4.62	-50.6	-55.7	7.8	7.01e-02	0	38	0	29360128	72	6640
2026-01-19 23:08:25.10	22.37	4.88	-51.0	-57.1	6.5	2.23e-01	0	38	0	40894464	72	7763
2026-01-19 23:08:28.99	22.59	5.13	-50.7	-55.9	7.7	2.98e-01	0	38	0	50331648	73	6403
2026-01-19 23:08:32.87	22.81	5.39	-46.4	-48.1	15.9	0.00e+00	0	38	0	57671680	64	4355
2026-01-19 23:08:36.75	23.04	5.65	-46.5	-48.2	15.8	0.00e+00	0	38	0	69206016	64	4410
2026-01-19 23:08:40.63	23.27	5.91	-46.1	-47.6	16.5	0.00e+00	0	38	0	80740352	63	4390
2026-01-19 23:08:44.51	23.51	6.18	-45.8	-47.3	16.9	0.00e+00	0	38	0	93323264	63	4205
2026-01-19 23:08:48.39	23.75	6.44	-45.7	-47.1	17.1	0.00e+00	0	38	0	105906176	63	4100
2026-01-19 23:08:52.27	23.99	6.71	-46.1	-47.6	16.6	0.00e+00	0	38	0	117440512	62	4631
2026-01-19 23:08:56.15	24.24	6.99	-45.7	-47.1	17.2	0.00e+00	0	38	0	130023424	62	4354
2026-01-19 23:09:00.04	24.49	7.26	-45.6	-46.9	17.3	0.00e+00	0	38	0	141557760	62	4279
2026-01-19 23:09:03.92	24.75	7.54	-45.3	-46.6	17.6	0.00e+00	0	38	0	154140672	62	4122
2026-01-19 23:09:07.80	25.01	7.82	-45.2	-46.5	17.7	0.00e+00	0	38	0	166723584	62	4087
2026-01-19 23:09:11.66	25.27	8.10	-45.3	-46.6	17.7	0.00e+00	0	38	0	178257920	62	4110
2026-01-19 23:09:15.54	25.54	8.38	-45.1	-46.4	17.9	0.00e+00	0	38	0	190840832	62	4032
2026-01-19 23:09:19.42	25.82	8.67	-45.4	-46.7	17.7	0.00e+00	0	38	0	202375168	62	4152
2026-01-19 23:09:23.30	26.10	8.96	-45.3	-46.6	17.8	0.00e+00	0	38	0	214958080	62	4139
2026-01-19 23:09:27.18	26.38	9.25	-45.4	-46.7	17.7	0.00e+00	0	38	0	226492416	62	4174
2026-01-19 23:09:31.07	26.68	9.55	-45.2	-46.5	18.0	0.00e+00	0	39	0	239075328	62	4066
2026-01-19 23:09:34.96	26.97	9.85	-45.3	-46.6	17.9	0.00e+00	0	38	0	251658240	61	4361
2026-01-19 23:09:38.83	27.27	10.15	-44.9	-46.1	18.3	0.00e+00	0	38	0	263192576	61	4134
2026-01-19 23:09:42.71	27.58	10.45	-44.9	-46.1	18.4	0.00e+00	0	39	0	275775488	61	4111
2026-01-19 23:09:46.59	27.90	10.76	-44.7	-45.9	18.6	0.00e+00	0	39	0	287309824	61	4017
2026-01-19 23:09:50.46	28.22	11.07	-44.6	-45.8	18.7	0.00e+00	0	38	0	299892736	60	4201
2026-01-19 23:09:54.34	28.55	11.38	-44.6	-45.8	18.7	0.00e+00	0	39	0	311427072	60	4209
2026-01-19 23:09:58.21	28.88	11.70	-44.6	-45.7	18.8	0.00e+00	0	38	0	324009984	60	4172
2026-01-19 23:10:02.09	29.22	12.02	-44.4	-45.6	19.0	0.00e+00	0	38	0	335544320	60	4099
2026-01-19 23:10:05.98	29.57	12.35	-44.5	-45.6	19.0	0.00e+00	0	39	0	348127232	60	4124
2026-01-19 23:10:09.85	29.92	12.67	-44.4	-45.4	19.1	0.00e+00	0	39	0	360710144	60	4046
2026-01-19 23:10:13.73	30.29	13.00	-44.5	-45.6	19.0	0.00e+00	0	39	0	372244480	60	4121
2026-01-19 23:10:17.60	30.66	13.34	-44.2	-45.3	19.3	0.00e+00	0	39	0	384827392	60	3971
2026-01-19 23:10:21.48	31.03	13.68	-44.1	-45.2	19.4	0.00e+00	0	39	0	396361728	60	3918
2026-01-19 23:10:25.36	31.42	14.02	-44.1	-45.1	19.5	0.00e+00	0	39	0	408944640	60	3896
2026-01-19 23:10:29.23	31.82	14.36	-44.4	-45.5	19.4	0.00e+00	0	38	0	420478976	59	4324
2026-01-19 23:10:33.11	32.22	14.71	-44.5	-45.7	19.3	0.00e+00	0	39	0	433061888	59	4393
2026-01-19 23:10:36.99	32.64	15.06	-44.5	-45.6	19.0	0.00e+00	0	39	0	444596224	60	4120
2026-01-19 23:10:40.87	33.06	15.42	-44.3	-45.4	19.3	0.00e+00	0	39	0	457179136	60	4009
2026-01-19 23:10:44.74	33.49	15.78	-44.2	-45.2	19.4	0.00e+00	0	39	0	469762048	60	3954
2026-01-19 23:10:48.62	33.94	16.15	-44.4	-45.5	19.2	0.00e+00	0	39	0	481296384	60	4072
2026-01-19 23:10:52.50	34.39	16.51	-44.5	-45.6	19.1	0.00e+00	0	39	0	493879296	60	4121
2026-01-19 23:10:56.38	34.85	16.89	-44.6	-45.7	19.0	0.00e+00	0	39	0	505413632	60	4191
2026-01-19 23:11:00.25	35.33	17.26	-44.3	-45.4	19.3	0.00e+00	0	39	0	517996544	60	4011
2026-01-19 23:11:04.12	35.82	17.64	-44.3	-45.4	19.3	0.00e+00	0	39	0	529530880	60	4037
2026-01-19 23:11:08.00	36.32	18.03	-44.4	-45.5	19.2	0.00e+00	0	39	0	542113792	60	4082
2026-01-19 23:11:11.87	36.83	18.41	-44.1	-45.2	19.6	0.00e+00	0	38	0	553648128	60	3929
2026-01-19 23:11:15.75	37.35	18.81	-44.0	-45.1	19.7	0.00e+00	0	38	0	566231040	60	3871
2026-01-19 23:11:19.63	37.89	19.20	-44.4	-45.4	19.7	0.00e+00	0	39	0	577765376	59	4275
2026-01-19 23:11:23.51	38.44	19.60	-44.3	-45.3	19.8	0.00e+00	0	39	0	590348288	59	4234
2026-01-19 23:11:27.38	39.01	20.01	-44.1	-45.1	20.0	0.00e+00	0	38	0	602931200	59	4115
2026-01-19 23:11:31.27	39.59	20.41	-44.0	-45.0	20.2	0.00e+00	0	38	0	614465536	59	4056
2026-01-19 23:11:35.14	40.18	20.83	-44.1	-45.1	20.0	0.00e+00	0	38	0	627048448	59	4141
2026-01-19 23:11:39.01	40.79	21.24	-43.7	-44.7	20.3	0.00e+00	0	39	0	638582784	59	3933
2026-01-19 23:11:42.88	41.42	21.66	-43.3	-44.3	20.8	0.00e+00	0	39	0	651165696	58	3964
2026-01-19 23:11:46.75	42.06	22.08	-43.6	-44.5	20.6	0.00e+00	0	39	0	662700032	58	4085
2026-01-19 23:11:50.64	42.73	22.51	-43.7	-44.7	20.4	0.00e+00	0	38	0	675282944	58	4171
2026-01-19 23:11:54.51	43.40	22.94	-43.1	-44.0	21.0	0.00e+00	0	39	0	686817280	58	3848
2026-01-19 23:11:58.39	44.10	23.37	-43.4	-44.3	20.7	0.00e+00	0	39	0	699400192	58	3997
2026-01-19 23:12:02.27	44.82	23.80	-43.3	-44.2	20.9	0.00e+00	0	39	0	711983104	58	3923
2026-01-19 23:12:06.16	45.56	24.24	-43.0	-43.8	21.2	0.00e+00	0	39	0	723517440	57	4002
2026-01-19 23:12:10.04	46.32	24.69	-43.4	-44.3	20.8	0.00e+00	0	39	0	736100352	57	4218
2026-01-19 23:12:13.92	47.09	25.13	-43.3	-44.2	20.9	0.00e+00	0	39	0	747634688	57	4191
2026-01-19 23:12:17.80	47.89	25.57	-43.3	-44.2	20.9	0.00e+00	0	39	0	760217600	57	4193
2026-01-19 23:12:21.68	48.72	26.02	-44.2	-45.2	20.1	0.00e+00	0	39	0	771751936	58	4406
2026-01-19 23:12:25.57	49.56	26.47	-44.2	-45.2	20.0	0.00e+00	0	38	0	784334848	59	4163
2026-01-19 23:12:29.45	50.43	26.92	-44.1	-45.1	20.1	0.00e+00	0	39	0	796917760	59	4126
2026-01-19 23:12:33.33	51.33	27.37	-44.2	-45.2	20.0	0.00e+00	0	39	0	808452096	59	4176
2026-01-19 23:12:37.22	52.25	27.82	-43.7	-44.7	20.5	0.00e+00	0	39	0	821035008	59	3930
2026-01-19 23:12:41.09	53.19	28.26	-44.3	-45.3	20.0	0.00e+00	0	39	0	832569344	59	4228
2026-01-19 23:12:44.97	54.16	28.71	-44.0	-44.9	20.3	0.00e+00	0	38	0	845152256	59	4040
2026-01-19 23:12:48.85	55.16	29.16	-44.0	-45.0	20.3	0.00e+00	0	39	0	856686592	59	4080
2026-01-19 23:12:52.74	56.18	29.60	-44.0	-45.0	20.3	0.00e+00	0	39	0	869269504	59	4058
2026-01-19 23:12:56.62	57.24	30.04	-44.0	-45.0	20.3	0.00e+00	0	38	0	880803840	59	4055
2026-01-19 23:13:00.51	58.32	30.48	-44.3	-45.3	20.0	0.00e+00	0	39	0	893386752	59	4231
2026-01-19 23:13:04.38	59.43	30.91	-43.9	-44.9	20.4	0.00e+00	0	39	0	905969664	59	4033
2026-01-19 23:13:08.27	60.57	31.34	-43.9	-44.9	20.5	0.00e+00	0	39	0	917504000	59	4009
2026-01-19 23:13:12.15	61.74	31.76	-44.4	-45.4	20.0	0.00e+00	0	39	0	930086912	59	4249
2026-01-19 23:13:16.03	62.94	32.17	-44.6	-45.6	19.8	0.00e+00	0	39	0	941621248	59	4358
2026-01-19 23:13:19.91	64.17	32.57	-44.5	-45.5	19.6	0.00e+00	0	39	0	954204160	60	4082
2026-01-19 23:13:23.79	65.43	32.97	-44.6	-45.7	19.5	0.00e+00	0	39	0	965738496	60	4156
2026-01-19 23:13:27.68	66.72	33.35	-45.0	-46.1	19.1	0.00e+00	0	39	0	978321408	60	4352
2026-01-19 23:13:31.56	68.04	33.73	-44.8	-45.9	19.3	0.00e+00	0	39	0	990904320	60	4262
2026-01-19 23:13:35.44	69.39	34.09	-44.8	-45.8	19.3	0.00e+00	0	39	0	1002438656	60	4242
2026-01-19 23:13:39.32	70.77	34.43	-44.2	-45.2	19.9	0.00e+00	0	39	0	1015021568	60	3928
2026-01-19 23:13:43.21	72.18	34.77	-44.7	-45.7	19.4	0.00e+00	0	38	0	1026555904	60	4186
2026-01-19 23:13:47.09	73.61	35.08	-44.8	-45.9	19.3	0.00e+00	0	39	0	1039138816	60	4251
2026-01-19 23:13:50.97	75.07	35.38	-44.8	-45.9	19.3	0.00e+00	0	38	0	1051721728	60	4252
2026-01-19 23:13:54.85	76.56	35.66	-44.7	-45.8	19.4	0.00e+00	0	39	0	1063256064	60	4205
2026-01-19 23:13:58.74	78.08	35.92	-44.7	-45.7	19.4	0.00e+00	0	39	0	1074790400	60	4171
2026-01-19 23:14:02.62	79.62	36.17	-44.6	-45.7	19.5	0.00e+00	0	39	0	1087373312	60	4147
2026-01-19 23:14:06.50	81.17	36.39	-44.8	-45.8	19.3	0.00e+00	0	39	0	1099956224	60	4236
2026-01-19 23:14:10.38	82.75	36.58	-45.5	-46.7	18.5	0.00e+00	0	38	0	1111490560	61	4421
2026-01-19 23:14:14.27	84.35	36.76	-45.0	-46.1	19.0	0.00e+00	0	39	0	1124073472	61	4106
2026-01-19 23:14:18.15	85.96	36.91	-44.9	-46.0	19.2	0.00e+00	0	39	0	1136656384	61	4067
2026-01-19 23:14:22.04	87.59	37.04	-45.0	-46.0	19.2	0.00e+00	0	38	0	1148190720	61	4097
2026-01-19 23:14:25.92	89.23	37.14	-45.0	-46.0	19.1	0.00e+00	0	39	0	1160773632	61	4096
2026-01-19 23:14:29.81	90.88	37.22	-44.8	-45.9	19.2	0.00e+00	0	39	0	1172307968	61	4014
2026-01-19 23:14:33.69	92.54	37.27	-44.9	-46.0	19.2	0.00e+00	0	39	0	1184890880	61	4061
2026-01-19 23:14:37.58	94.20	37.29	-44.8	-45.9	19.3	0.00e+00	0	39	0	1196425216	61	4027
2026-01-19 23:14:41.46	95.85	37.29	-45.0	-46.1	19.1	0.00e+00	0	39	0	1209008128	61	4128
2026-01-19 23:14:45.34	97.51	37.26	-45.2	-46.3	18.8	0.00e+00	0	39	0	1221591040	61	4216
2026-01-19 23:14:49.23	99.17	37.20	-45.1	-46.2	18.9	0.00e+00	0	39	0	1233125376	61	4169
2026-01-19 23:14:53.11	100.81	37.12	-45.2	-46.3	18.9	0.00e+00	0	39	0	1245708288	61	4224
2026-01-19 23:14:56.99	102.45	37.01	-45.3	-46.4	18.7	0.00e+00	0	39	0	1257242624	61	4270
2026-01-19 23:15:00.87	104.07	36.88	-45.4	-46.6	18.6	0.00e+00	0	39	0	1269825536	61	4359
2026-01-19 23:15:04.76	105.69	36.72	-45.4	-46.6	18.6	0.00e+00	0	39	0	1281359872	61	4381
2026-01-19 23:15:08.64	107.28	36.54	-45.7	-46.9	18.3	0.00e+00	0	39	0	1293942784	61	4543
2026-01-19 23:15:12.52	108.86	36.34	-45.2	-46.3	18.8	0.00e+00	0	39	0	1305477120	62	4003
2026-01-19 23:15:16.42	110.42	36.11	-45.2	-46.3	18.9	0.00e+00	0	39	0	1318060032	62	3974
2026-01-19 23:15:20.30	111.95	35.86	-45.1	-46.2	18.9	0.00e+00	0	39	0	1330642944	62	3951
2026-01-19 23:15:24.18	113.46	35.60	-44.5	-45.6	19.6	0.00e+00	0	39	0	1342177280	60	4104
2026-01-19 23:15:28.06	114.95	35.31	-44.2	-45.2	19.9	0.00e+00	0	39	0	1354760192	60	3919
2026-01-19 23:15:31.95	116.41	35.01	-44.2	-45.2	19.9	0.00e+00	0	39	0	1367343104	60	3924
2026-01-19 23:15:35.84	117.85	34.68	-44.2	-45.2	19.9	0.00e+00	0	39	0	1378877440	60	3919
2026-01-19 23:15:39.73	119.26	34.35	-44.1	-45.1	19.9	0.00e+00	0	39	0	1390411776	60	3906
2026-01-19 23:15:43.61	120.63	33.99	-44.3	-45.3	20.0	0.00e+00	0	39	0	1402994688	59	4227
2026-01-19 23:15:47.50	121.98	33.63	-44.3	-45.3	19.9	0.00e+00	0	39	0	1415577600	59	4202
2026-01-19 23:15:51.38	123.29	33.25	-44.1	-45.0	20.2	0.00e+00	0	39	0	1427111936	59	4087
2026-01-19 23:15:55.26	124.58	32.86	-44.3	-45.3	20.0	0.00e+00	0	39	0	1439694848	59	4208
2026-01-19 23:15:59.13	125.83	32.46	-44.1	-45.0	20.2	0.00e+00	0	39	0	1451229184	59	4091
2026-01-19 23:16:03.01	127.06	32.06	-44.1	-45.1	20.2	0.00e+00	0	39	0	1463812096	59	4129
2026-01-19 23:16:06.89	128.25	31.64	-44.1	-45.0	20.3	0.00e+00	0	39	0	1476395008	59	4089
2026-01-19 23:16:10.77	129.42	31.22	-43.7	-44.6	20.7	0.00e+00	0	39	0	1487929344	59	3890
2026-01-19 23:16:14.66	130.56	30.79	-43.6	-44.5	20.7	0.00e+00	0	38	0	1500512256	58	4078
2026-01-19 23:16:18.55	131.67	30.35	-43.7	-44.7	20.5	0.00e+00	0	39	0	1512046592	58	4164
2026-01-19 23:16:22.43	132.74	29.91	-43.9	-44.9	20.3	0.00e+00	0	39	0	1524629504	58	4251
2026-01-19 23:16:26.31	133.79	29.47	-44.6	-45.7	19.6	0.00e+00	0	39	0	1536163840	59	4395
2026-01-19 23:16:30.20	134.82	29.02	-44.4	-45.4	19.9	0.00e+00	0	39	0	1548746752	59	4252
2026-01-19 23:16:34.09	135.81	28.57	-44.0	-45.0	20.2	0.00e+00	0	39	0	1561329664	59	4062
2026-01-19 23:16:37.98	136.78	28.12	-43.8	-44.7	20.4	0.00e+00	0	39	0	1572864000	59	3956
2026-01-19 23:16:41.85	137.72	27.67	-43.9	-44.8	20.4	0.00e+00	0	39	0	1585446912	59	3995
2026-01-19 23:16:45.73	138.63	27.22	-44.1	-45.1	20.1	0.00e+00	0	39	0	1596981248	59	4115
2026-01-19 23:16:49.62	139.52	26.77	-43.8	-44.7	20.4	0.00e+00	0	39	0	1609564160	59	3952
2026-01-19 23:16:53.51	140.39	26.31	-43.3	-44.2	20.9	0.00e+00	0	39	0	1621098496	58	3950
2026-01-19 23:16:57.40	141.24	25.86	-43.3	-44.2	20.9	0.00e+00	0	38	0	1633681408	58	3932
2026-01-19 23:17:01.28	142.06	25.41	-43.2	-44.1	21.0	0.00e+00	0	39	0	1646264320	58	3874
2026-01-19 23:17:05.18	142.86	24.96	-43.4	-44.3	20.8	0.00e+00	0	39	0	1657798656	58	3985
2026-01-19 23:17:09.07	143.63	24.52	-43.2	-44.1	21.0	0.00e+00	0	39	0	1670381568	58	3891
2026-01-19 23:17:13.01	144.40	24.07	-43.2	-44.1	20.9	0.00e+00	0	39	0	1682964480	58	3901
2026-01-19 23:17:16.99	145.15	23.62	-43.5	-44.5	20.6	0.00e+00	0	39	0	1694498816	58	4071
2026-01-19 23:17:21.03	145.89	23.16	-43.6	-44.5	20.5	0.00e+00	0	39	0	1707081728	58	4086
2026-01-19 23:17:25.04	146.61	22.71	-43.6	-44.6	20.5	0.00e+00	0	39	0	1719664640	58	4113
2026-01-19 23:17:29.05	147.30	22.27	-43.7	-44.7	20.4	0.00e+00	0	39	0	1733296128	58	4148
2026-01-19 23:17:33.05	147.98	21.83	-44.1	-45.1	19.9	0.00e+00	0	39	0	1744830464	58	4372
2026-01-19 23:17:37.07	148.64	21.39	-43.9	-44.9	20.1	0.00e+00	0	39	0	1757413376	58	4278
2026-01-19 23:17:41.07	149.28	20.95	-44.2	-45.2	19.8	0.00e+00	0	39	0	1769996288	58	4411
2026-01-19 23:17:45.08	149.90	20.52	-44.0	-45.0	20.0	0.00e+00	0	39	0	1782579200	59	4077
2026-01-19 23:17:49.08	150.51	20.10	-43.7	-44.7	20.3	0.00e+00	0	39	0	1795162112	59	3924
2026-01-19 23:17:53.09	151.10	19.68	-43.5	-44.5	20.4	0.00e+00	0	39	0	1807745024	59	3848
2026-01-19 23:17:57.10	151.68	19.26	-43.5	-44.5	20.4	0.00e+00	0	39	0	1820327936	58	4076
2026-01-19 23:18:01.10	152.24	18.85	-43.7	-44.7	20.2	0.00e+00	0	39	0	1832910848	58	4168
2026-01-19 23:18:05.12	152.79	18.44	-43.8	-44.8	20.1	0.00e+00	0	39	0	1845493760	58	4239
2026-01-19 23:18:09.14	153.32	18.03	-43.8	-44.8	20.1	0.00e+00	0	39	0	1858076672	58	4223
2026-01-19 23:18:13.14	153.84	17.63	-43.8	-44.8	20.1	0.00e+00	0	39	0	1870659584	58	4195
2026-01-19 23:18:17.15	154.35	17.24	-44.0	-45.0	19.9	0.00e+00	0	39	0	1883242496	58	4305
2026-01-19 23:18:21.15	154.84	16.84	-43.9	-44.9	20.0	0.00e+00	0	38	0	1895825408	58	4271
2026-01-19 23:18:25.14	155.32	16.46	-44.1	-45.1	19.8	0.00e+00	0	39	0	1908408320	58	4361
2026-01-19 23:18:29.14	155.79	16.08	-44.3	-45.4	19.5	0.00e+00	0	39	0	1920991232	59	4245
2026-01-19 23:18:33.13	156.24	15.70	-44.4	-45.5	19.4	0.00e+00	0	39	0	1932525568	59	4298
2026-01-19 23:18:37.14	156.69	15.32	-44.5	-45.6	19.3	0.00e+00	0	39	0	1945108480	59	4363
2026-01-19 23:18:41.14	157.13	14.95	-44.4	-45.5	19.4	0.00e+00	0	39	0	1957691392	59	4333
2026-01-19 23:18:45.13	157.55	14.59	-44.6	-45.7	19.2	0.00e+00	0	39	0	1970274304	59	4394
2026-01-19 23:18:49.13	157.97	14.23	-44.4	-45.5	19.1	0.00e+00	0	39	0	1982857216	60	4093
2026-01-19 23:18:53.13	158.37	13.87	-44.4	-45.6	19.0	0.00e+00	0	39	0	1995440128	60	4101
2026-01-19 23:18:57.12	158.77	13.52	-44.5	-45.6	18.9	0.00e+00	0	39	0	2008023040	60	4108
2026-01-19 23:19:01.12	159.16	13.17	-44.5	-45.6	18.9	0.00e+00	0	39	0	2020605952	60	4133
2026-01-19 23:19:05.13	159.54	12.82	-44.4	-45.5	19.0	0.00e+00	0	39	0	2033188864	60	4056
2026-01-19 23:19:09.12	159.91	12.48	-44.4	-45.5	19.0	0.00e+00	0	39	0	2045771776	60	4082
2026-01-19 23:19:13.12	160.27	12.14	-44.4	-45.6	18.9	0.00e+00	0	39	0	2057306112	60	4105
2026-01-19 23:19:17.11	160.63	11.81	-44.5	-45.6	18.8	0.00e+00	0	39	0	2069889024	60	4143
2026-01-19 23:19:21.11	160.98	11.47	-44.6	-45.7	18.7	0.00e+00	0	39	0	2082471936	60	4186
2026-01-19 23:19:25.11	161.32	11.15	-44.8	-46.0	18.4	0.00e+00	0	39	0	2095054848	60	4339
2026-01-19 23:19:29.10	161.65	10.82	-45.2	-46.5	17.9	0.00e+00	0	39	0	2107637760	61	4313
2026-01-19 23:19:33.10	161.98	10.50	-45.2	-46.5	17.9	0.00e+00	0	39	0	2120220672	61	4321
2026-01-19 23:19:37.10	162.30	10.18	-45.2	-46.5	17.8	0.00e+00	0	39	0	2132803584	61	4314
2026-01-19 23:19:41.11	162.61	9.87	-45.0	-46.3	18.0	0.00e+00	0	39	0	2145386496	61	4217
2026-01-19 23:19:45.11	162.92	9.56	-45.2	-46.5	17.7	0.00e+00	0	39	0	2157969408	61	4335
2026-01-19 23:19:49.10	163.22	9.25	-45.1	-46.4	17.9	0.00e+00	0	39	0	2170552320	61	4261
2026-01-19 23:19:53.09	163.51	8.95	-45.2	-46.5	17.8	0.00e+00	0	38	0	2183135232	61	4294
2026-01-19 23:19:57.09	163.80	8.65	-45.2	-46.5	17.7	0.00e+00	0	39	0	2195718144	61	4304
2026-01-19 23:20:01.08	164.09	8.35	-45.3	-46.7	17.5	0.00e+00	0	39	0	2208301056	61	4408
2026-01-19 23:20:05.08	164.36	8.05	-45.4	-46.8	17.4	0.00e+00	0	39	0	2219835392	61	4470
2026-01-19 23:20:09.08	164.64	7.76	-45.5	-46.9	17.3	0.00e+00	0	39	0	2232418304	61	4529
2026-01-19 23:20:13.08	164.91	7.47	-45.8	-47.2	16.9	0.00e+00	0	39	0	2245001216	62	4431
2026-01-19 23:20:17.07	165.17	7.18	-45.7	-47.2	16.9	0.00e+00	0	39	0	2257584128	62	4402
2026-01-19 23:20:21.07	165.43	6.90	-45.9	-47.4	16.6	0.00e+00	0	39	0	2270167040	62	4530
2026-01-19 23:20:25.07	165.68	6.62	-46.1	-47.7	16.4	0.00e+00	0	39	0	2282749952	62	4674
2026-01-19 23:20:29.06	165.93	6.34	-46.1	-47.7	16.2	0.00e+00	0	39	0	2295332864	62	4678
2026-01-19 23:20:33.07	166.17	6.06	-46.4	-48.1	15.8	0.00e+00	0	39	0	2307915776	63	4606
2026-01-19 23:20:37.09	166.42	5.79	-46.6	-48.4	15.3	0.00e+00	0	39	0	2320498688	64	4543
2026-01-19 23:20:41.09	166.65	5.51	-46.5	-48.2	15.6	0.00e+00	0	39	0	2333081600	63	4682
2026-01-19 23:20:45.10	166.89	5.24	-46.2	-47.9	15.9	0.00e+00	0	39	0	2345664512	63	4509
2026-01-19 23:20:49.11	167.11	4.98	-52.4	-64.9	3.8	1.22e+00	0	39	104	2357198848	75	16021
2026-01-19 23:20:53.12	167.34	4.71	-53.4	-66.1	3.8	1.49e+00	0	39	104	2357198848	77	16501
2026-01-19 23:20:57.13	167.56	4.45	-53.7	-66.5	3.8	1.49e+00	0	39	104	2357198848	77	17176
2026-01-19 23:21:01.13	167.78	4.19	-53.9	-66.7	3.8	1.49e+00	0	39	104	2357198848	78	16630
2026-01-19 23:21:05.13	167.99	3.93	-54.1	-66.8	3.8	1.49e+00	0	39	104	2357198848	78	16824
2026-01-19 23:21:09.14	168.20	3.67	-54.1	-66.9	3.8	1.49e+00	0	39	104	2357198848	78	16902
2026-01-19 23:21:13.14	168.41	3.42	-54.1	-66.8	3.8	1.49e+00	0	39	104	2357198848	78	16847
2026-01-19 23:21:17.10	168.61	3.17	-54.0	-66.8	3.8	1.49e+00	0	39	104	2357198848	78	16823
2026-01-19 23:21:20.99	168.81	2.93	-54.0	-66.8	3.8	1.49e+00	0	39	104	2357198848	78	16838
2026-01-19 23:21:24.86	169.00	2.69	-54.0	-66.8	3.8	1.49e+00	0	39	104	2357198848	78	16730
2026-01-19 23:21:28.73	169.18	2.45	-54.0	-66.8	3.8	1.49e+00	0	39	104	2357198848	78	16739
2026-01-19 23:21:32.60	169.37	2.21	-54.0	-66.7	3.8	1.49e+00	0	39	104	2357198848	78	16661
2026-01-19 23:21:36.47	169.55	1.98	-54.0	-66.7	3.8	1.49e+00	0	39	104	2357198848	78	16672

#Closed at: 2026-01-19 23:21:37
#Recorded file [2357 MB]: D:/lorett/data/31041_260120_020738.dat