passes_logs/2026/01/19/R3.2S_Murmansk/R3.2S_Murmansk__20260119_221731_NOAA_20_JPSS-1_rec.log

#Pass ID: 20260119_221731_NOAA 20 (JPSS-1)
#Satellite: NOAA 20 (JPSS-1)
#Configuration: NOAA 20
#almurnet v.1.7.20251203
#Start time: 2026-01-19 22:17:32

#Version: 2.2.20231116
#Station: R3.2S_Murmansk
#Location: 33.079688 lon 68.888172 lat
#TLE: 1 43013U 17073A   26019.27717929  .00000087  00000+0  62288-4 0  9995
#TLE: 2 43013  98.7641 320.1715 0001339  33.1986 326.9274 14.19537047423343

#Time	Az	El	Level	Level2	SNR	BER	BlckErr	Temp	State	Recorded	gain1	gain2
2026-01-19 22:17:32.32	18.79	2.03	-52.0	-67.0	3.8	1.49e+00	0	36	0	0	76	19187
2026-01-19 22:17:36.34	19.07	2.25	-52.0	-66.9	3.8	1.49e+00	0	37	104	0	74	21470
2026-01-19 22:17:40.37	19.37	2.47	-52.0	-66.8	3.8	1.49e+00	0	37	104	0	74	21222
2026-01-19 22:17:44.40	19.66	2.69	-52.0	-66.9	3.8	1.49e+00	0	37	104	0	74	21319
2026-01-19 22:17:48.43	19.96	2.91	-52.0	-66.9	3.8	1.49e+00	0	37	104	0	74	21389
2026-01-19 22:17:52.46	20.27	3.14	-52.0	-66.9	3.8	1.49e+00	0	37	104	0	74	21450
2026-01-19 22:17:56.49	20.58	3.37	-52.0	-66.8	3.8	1.49e+00	0	37	104	0	74	21230
2026-01-19 22:18:00.53	20.90	3.59	-52.0	-66.8	3.8	1.49e+00	0	37	104	0	74	21097
2026-01-19 22:18:04.56	21.21	3.82	-52.0	-67.0	3.8	1.49e+00	0	37	104	0	74	21513
2026-01-19 22:18:08.59	21.54	4.05	-52.0	-66.4	3.8	1.49e+00	0	37	104	0	74	20091
2026-01-19 22:18:12.62	21.87	4.28	-52.0	-66.6	3.8	1.49e+00	0	37	104	0	74	20633
2026-01-19 22:18:16.66	22.20	4.51	-51.9	-65.3	3.8	1.49e+00	0	37	104	0	74	17732
2026-01-19 22:18:20.69	22.54	4.75	-51.7	-62.0	4.7	8.94e-01	0	38	0	2097152	74	12175
2026-01-19 22:18:24.72	22.88	4.98	-51.5	-60.8	5.4	5.64e-01	0	37	0	9437184	74	10624
2026-01-19 22:18:28.75	23.23	5.22	-50.9	-56.7	8.8	1.42e+00	0	38	0	14680064	73	7012
2026-01-19 22:18:32.78	23.59	5.45	-49.6	-53.1	13.1	5.26e-05	0	38	0	22020096	71	5210
2026-01-19 22:18:36.81	23.95	5.69	-48.9	-51.8	14.5	0.00e+00	0	38	0	29360128	69	5034
2026-01-19 22:18:40.84	24.31	5.93	-48.4	-51.0	15.4	0.00e+00	0	38	0	37748736	68	4840
2026-01-19 22:18:44.87	24.68	6.17	-48.2	-50.6	15.9	0.00e+00	0	38	0	45088768	68	4611
2026-01-19 22:18:48.91	25.06	6.42	-48.4	-50.9	15.7	0.00e+00	0	38	0	52428800	68	4760
2026-01-19 22:18:52.93	25.44	6.66	-48.4	-50.8	15.8	0.00e+00	0	38	0	59768832	68	4728
2026-01-19 22:18:56.97	25.83	6.90	-48.4	-50.9	15.8	0.00e+00	0	38	0	67108864	68	4763
2026-01-19 22:19:01.00	26.23	7.15	-48.5	-51.1	15.6	0.00e+00	0	38	0	75497472	68	4876
2026-01-19 22:19:05.03	26.63	7.40	-48.0	-50.8	15.8	0.00e+00	0	38	0	82837504	67	4994
2026-01-19 22:19:09.07	27.04	7.65	-48.1	-50.4	16.1	0.00e+00	0	38	0	90177536	67	4814
2026-01-19 22:19:13.10	27.45	7.89	-48.1	-50.4	16.2	0.00e+00	0	38	0	97517568	67	4789
2026-01-19 22:19:17.13	27.88	8.15	-48.1	-50.4	16.4	0.00e+00	0	38	0	104857600	67	4765
2026-01-19 22:19:21.16	28.31	8.40	-47.9	-50.1	16.7	0.00e+00	0	38	0	113246208	67	4601
2026-01-19 22:19:25.20	28.74	8.65	-47.8	-50.0	16.7	0.00e+00	0	38	0	120586240	67	4557
2026-01-19 22:19:29.23	29.19	8.91	-47.6	-49.6	17.1	0.00e+00	0	38	0	127926272	67	4377
2026-01-19 22:19:33.26	29.64	9.16	-47.6	-49.6	17.1	0.00e+00	0	38	0	135266304	67	4369
2026-01-19 22:19:37.29	30.09	9.42	-47.5	-49.4	17.3	0.00e+00	0	38	0	142606336	66	4536
2026-01-19 22:19:41.32	30.56	9.68	-47.4	-49.3	17.6	0.00e+00	0	38	0	150994944	66	4450
2026-01-19 22:19:45.35	31.03	9.93	-47.3	-49.2	17.6	0.00e+00	0	38	0	158334976	66	4401
2026-01-19 22:19:49.38	31.52	10.19	-47.5	-49.5	17.4	0.00e+00	0	38	0	165675008	66	4547
2026-01-19 22:19:53.42	32.01	10.46	-47.8	-49.8	17.1	0.00e+00	0	38	0	173015040	66	4737
2026-01-19 22:19:57.44	32.51	10.72	-47.5	-49.4	17.5	0.00e+00	0	38	0	181403648	66	4505
2026-01-19 22:20:01.47	33.01	10.98	-47.3	-49.2	17.7	0.00e+00	0	38	0	188743680	66	4396
2026-01-19 22:20:05.50	33.53	11.24	-47.2	-49.0	17.9	0.00e+00	0	38	0	196083712	66	4303
2026-01-19 22:20:09.53	34.05	11.51	-47.1	-48.9	18.0	0.00e+00	0	38	0	203423744	66	4274
2026-01-19 22:20:13.56	34.59	11.77	-47.2	-49.1	17.9	0.00e+00	0	38	0	210763776	66	4342
2026-01-19 22:20:17.59	35.13	12.04	-47.0	-48.7	18.2	0.00e+00	0	38	0	218103808	65	4413
2026-01-19 22:20:21.62	35.69	12.30	-47.0	-48.7	18.2	0.00e+00	0	38	0	226492416	65	4423
2026-01-19 22:20:25.65	36.25	12.57	-47.3	-49.1	17.8	0.00e+00	0	38	0	233832448	65	4647
2026-01-19 22:20:29.68	36.82	12.84	-47.1	-48.8	18.2	0.00e+00	0	38	0	241172480	65	4473
2026-01-19 22:20:33.71	37.41	13.11	-46.8	-48.5	18.5	0.00e+00	0	38	0	248512512	65	4318
2026-01-19 22:20:37.74	38.00	13.37	-47.0	-48.7	18.3	0.00e+00	0	38	0	256901120	65	4422
2026-01-19 22:20:41.77	38.60	13.64	-47.1	-48.9	18.1	0.00e+00	0	38	0	264241152	65	4510
2026-01-19 22:20:45.80	39.22	13.91	-46.9	-48.6	18.4	0.00e+00	0	38	0	271581184	65	4370
2026-01-19 22:20:49.83	39.84	14.18	-47.0	-48.8	18.3	0.00e+00	0	38	0	278921216	65	4445
2026-01-19 22:20:53.87	40.48	14.45	-47.0	-48.7	18.4	0.00e+00	0	38	0	286261248	65	4394
2026-01-19 22:20:57.90	41.13	14.71	-47.0	-48.7	18.4	0.00e+00	0	38	0	294649856	65	4422
2026-01-19 22:21:01.93	41.79	14.98	-47.0	-48.7	18.3	0.00e+00	0	39	0	301989888	65	4438
2026-01-19 22:21:05.96	42.46	15.25	-46.8	-48.5	18.6	0.00e+00	0	39	0	309329920	65	4310
2026-01-19 22:21:09.99	43.14	15.51	-46.9	-48.6	18.5	0.00e+00	0	39	0	316669952	65	4357
2026-01-19 22:21:14.02	43.84	15.78	-46.6	-48.2	18.8	0.00e+00	0	39	0	325058560	65	4179
2026-01-19 22:21:18.05	44.54	16.04	-46.4	-48.0	19.1	0.00e+00	0	39	0	332398592	64	4302
2026-01-19 22:21:22.08	45.26	16.30	-46.3	-47.8	19.3	0.00e+00	0	39	0	339738624	64	4230
2026-01-19 22:21:26.11	45.99	16.57	-46.1	-47.5	19.7	0.00e+00	0	39	0	347078656	63	4309
2026-01-19 22:21:30.15	46.74	16.83	-45.9	-47.3	19.9	0.00e+00	0	39	0	354418688	63	4236
2026-01-19 22:21:34.18	47.49	17.08	-46.1	-47.5	19.6	0.00e+00	0	39	0	361758720	63	4336
2026-01-19 22:21:38.22	48.26	17.34	-46.0	-47.5	19.7	0.00e+00	0	39	0	370147328	63	4292
2026-01-19 22:21:42.24	49.04	17.59	-45.9	-47.3	19.9	0.00e+00	0	39	0	377487360	63	4232
2026-01-19 22:21:46.27	49.83	17.84	-46.1	-47.6	19.7	0.00e+00	0	39	0	384827392	63	4346
2026-01-19 22:21:50.30	50.64	18.09	-46.5	-48.1	19.2	0.00e+00	0	39	0	392167424	63	4601
2026-01-19 22:21:54.33	51.46	18.33	-46.5	-48.0	19.2	0.00e+00	0	39	0	400556032	63	4586
2026-01-19 22:21:58.36	52.29	18.58	-46.8	-48.4	18.7	0.00e+00	0	39	0	407896064	64	4533
2026-01-19 22:22:02.39	53.14	18.81	-47.1	-48.8	18.4	0.00e+00	0	39	0	415236096	64	4745
2026-01-19 22:22:06.43	54.00	19.05	-47.2	-48.9	18.3	0.00e+00	0	39	0	422576128	64	4778
2026-01-19 22:22:10.46	54.87	19.28	-47.9	-49.8	17.4	0.00e+00	0	39	0	429916160	66	4739
2026-01-19 22:22:14.49	55.75	19.50	-47.9	-49.9	17.4	0.00e+00	0	39	0	438304768	66	4783
2026-01-19 22:22:18.52	56.65	19.72	-47.7	-49.5	17.8	0.00e+00	0	39	0	445644800	66	4580
2026-01-19 22:22:22.55	57.56	19.94	-48.1	-50.2	17.1	0.00e+00	0	39	0	452984832	66	4949
2026-01-19 22:22:26.61	58.49	20.15	-47.6	-49.5	17.8	0.00e+00	0	39	0	460324864	67	4303
2026-01-19 22:22:30.64	59.42	20.36	-46.9	-48.5	18.6	0.00e+00	0	39	0	467664896	65	4340
2026-01-19 22:22:34.67	60.37	20.55	-47.7	-49.5	17.7	0.00e+00	0	39	0	476053504	65	4867
2026-01-19 22:22:38.70	61.32	20.75	-47.4	-49.1	18.1	0.00e+00	0	39	0	483393536	66	4377
2026-01-19 22:22:42.73	62.29	20.93	-47.3	-49.0	18.2	0.00e+00	0	39	0	490733568	66	4325
2026-01-19 22:22:46.77	63.28	21.11	-47.4	-49.2	18.1	0.00e+00	0	39	0	498073600	66	4406
2026-01-19 22:22:50.80	64.27	21.28	-47.4	-49.2	18.2	0.00e+00	0	39	0	505413632	66	4400
2026-01-19 22:22:54.83	65.27	21.45	-47.2	-48.9	18.4	0.00e+00	0	39	0	513802240	66	4253
2026-01-19 22:22:58.86	66.28	21.60	-46.7	-48.3	19.0	0.00e+00	0	39	0	521142272	65	4194
2026-01-19 22:23:02.89	67.31	21.75	-46.5	-48.0	19.2	0.00e+00	0	39	0	528482304	64	4298
2026-01-19 22:23:06.92	68.34	21.89	-46.7	-48.2	19.0	0.00e+00	0	39	0	535822336	64	4435
2026-01-19 22:23:10.96	69.38	22.02	-46.6	-48.1	19.2	0.00e+00	0	39	0	544210944	64	4361
2026-01-19 22:23:14.99	70.43	22.15	-46.9	-48.5	18.8	0.00e+00	0	39	0	551550976	64	4563
2026-01-19 22:23:19.03	71.49	22.26	-47.3	-49.0	18.3	0.00e+00	0	39	0	558891008	65	4574
2026-01-19 22:23:23.06	72.55	22.36	-47.2	-48.9	18.3	0.00e+00	0	39	0	566231040	65	4514
2026-01-19 22:23:27.09	73.63	22.46	-47.3	-49.1	18.2	0.00e+00	0	39	0	573571072	65	4606
2026-01-19 22:23:31.13	74.71	22.54	-47.0	-48.6	18.7	0.00e+00	0	39	0	581959680	65	4368
2026-01-19 22:23:35.15	75.79	22.61	-46.6	-48.2	19.2	0.00e+00	0	39	0	589299712	65	4146
2026-01-19 22:23:39.19	76.88	22.68	-47.1	-48.7	18.6	0.00e+00	0	39	0	596639744	65	4424
2026-01-19 22:23:43.22	77.97	22.73	-47.0	-48.6	18.7	0.00e+00	0	39	0	603979776	65	4369
2026-01-19 22:23:47.25	79.06	22.77	-46.4	-47.9	19.3	0.00e+00	0	39	0	611319808	64	4275
2026-01-19 22:23:51.28	80.16	22.81	-46.9	-48.5	18.7	0.00e+00	0	39	0	619708416	64	4597
2026-01-19 22:23:55.31	81.26	22.83	-46.8	-48.5	18.8	0.00e+00	0	39	0	627048448	64	4546
2026-01-19 22:23:59.34	82.36	22.84	-46.8	-48.4	18.8	0.00e+00	0	39	0	634388480	64	4519
2026-01-19 22:24:03.37	83.46	22.84	-47.3	-49.0	18.3	0.00e+00	0	39	0	641728512	65	4550
2026-01-19 22:24:07.40	84.56	22.83	-47.3	-49.1	18.2	0.00e+00	0	39	0	649068544	65	4616
2026-01-19 22:24:11.44	85.67	22.81	-47.1	-48.8	18.5	0.00e+00	0	39	0	657457152	65	4451
2026-01-19 22:24:15.47	86.76	22.78	-46.5	-48.1	19.1	0.00e+00	0	39	0	664797184	65	4103
2026-01-19 22:24:19.50	87.86	22.73	-47.1	-48.7	18.6	0.00e+00	0	39	0	672137216	65	4429
2026-01-19 22:24:23.53	88.95	22.68	-46.9	-48.5	18.7	0.00e+00	0	39	0	679477248	65	4333
2026-01-19 22:24:27.56	90.04	22.62	-47.1	-48.8	18.4	0.00e+00	0	39	0	687865856	65	4448
2026-01-19 22:24:31.59	91.13	22.54	-46.7	-48.3	19.0	0.00e+00	0	39	0	695205888	65	4215
2026-01-19 22:24:35.62	92.20	22.46	-46.9	-48.6	18.7	0.00e+00	0	39	0	702545920	65	4360
2026-01-19 22:24:39.65	93.28	22.37	-46.5	-48.0	19.2	0.00e+00	0	39	0	709885952	64	4319
2026-01-19 22:24:43.68	94.34	22.26	-47.0	-48.6	18.6	0.00e+00	0	39	0	717225984	64	4650
2026-01-19 22:24:47.72	95.41	22.15	-46.6	-48.2	19.0	0.00e+00	0	39	0	724566016	64	4399
2026-01-19 22:24:51.75	96.46	22.03	-45.8	-47.2	20.0	0.00e+00	0	39	0	732954624	63	4173
2026-01-19 22:24:55.78	97.50	21.90	-45.6	-46.9	20.4	0.00e+00	0	39	0	740294656	62	4256
2026-01-19 22:24:59.82	98.54	21.76	-45.9	-47.3	19.9	0.00e+00	0	39	0	747634688	62	4458
2026-01-19 22:25:03.85	99.56	21.61	-45.6	-46.9	20.3	0.00e+00	0	39	0	754974720	62	4284
2026-01-19 22:25:07.87	100.57	21.45	-45.1	-46.3	20.9	0.00e+00	0	39	0	763363328	62	3989
2026-01-19 22:25:11.91	101.58	21.29	-45.0	-46.2	20.9	0.00e+00	0	39	0	770703360	61	4191
2026-01-19 22:25:15.94	102.58	21.12	-45.3	-46.6	20.6	0.00e+00	0	39	0	778043392	61	4378
2026-01-19 22:25:19.97	103.56	20.94	-46.0	-47.3	19.9	0.00e+00	0	39	0	785383424	62	4492
2026-01-19 22:25:24.01	104.54	20.75	-46.3	-47.7	19.6	0.00e+00	0	39	0	792723456	63	4434
2026-01-19 22:25:28.03	105.49	20.56	-45.4	-46.7	20.5	0.00e+00	0	39	0	801112064	62	4173
2026-01-19 22:25:32.07	106.45	20.36	-45.3	-46.6	20.6	0.00e+00	0	39	0	808452096	62	4099
2026-01-19 22:25:36.10	107.38	20.15	-46.4	-47.9	19.4	0.00e+00	0	39	0	815792128	63	4523
2026-01-19 22:25:40.13	108.31	19.94	-46.8	-48.3	18.8	0.00e+00	0	39	0	823132160	64	4489
2026-01-19 22:25:44.17	109.22	19.73	-46.9	-48.5	18.7	0.00e+00	0	39	0	831520768	64	4563
2026-01-19 22:25:48.20	110.12	19.50	-46.4	-48.0	19.2	0.00e+00	0	39	0	838860800	64	4296
2026-01-19 22:25:52.23	111.01	19.28	-46.3	-47.7	19.4	0.00e+00	0	39	0	846200832	64	4186
2026-01-19 22:25:56.26	111.88	19.05	-46.9	-48.6	18.6	0.00e+00	0	39	0	853540864	64	4604
2026-01-19 22:26:00.30	112.75	18.81	-47.0	-48.7	18.4	0.00e+00	0	39	0	860880896	64	4693
2026-01-19 22:26:04.33	113.59	18.57	-46.3	-47.8	19.4	0.00e+00	0	39	0	869269504	64	4210
2026-01-19 22:26:08.36	114.43	18.33	-46.6	-48.2	19.0	0.00e+00	0	39	0	876609536	64	4426
2026-01-19 22:26:12.39	115.25	18.08	-46.5	-48.1	19.1	0.00e+00	0	39	0	883949568	64	4357
2026-01-19 22:26:16.43	116.06	17.83	-46.6	-48.1	19.0	0.00e+00	0	39	0	891289600	64	4379
2026-01-19 22:26:20.45	116.86	17.58	-47.0	-48.7	18.4	0.00e+00	0	39	0	898629632	64	4684
2026-01-19 22:26:24.48	117.64	17.33	-47.1	-48.8	18.3	0.00e+00	0	39	0	907018240	64	4737
2026-01-19 22:26:28.52	118.42	17.07	-46.8	-48.4	18.7	0.00e+00	0	39	0	914358272	65	4260
2026-01-19 22:26:32.54	119.17	16.81	-46.4	-47.9	19.3	0.00e+00	0	39	0	921698304	64	4248
2026-01-19 22:26:36.57	119.92	16.55	-47.4	-49.2	18.0	0.00e+00	0	39	0	929038336	65	4670
2026-01-19 22:26:40.61	120.65	16.29	-46.7	-48.4	18.7	0.00e+00	0	39	0	936378368	65	4248
2026-01-19 22:26:44.64	121.37	16.03	-46.8	-48.4	18.6	0.00e+00	0	39	0	944766976	65	4283
2026-01-19 22:26:48.68	122.08	15.76	-46.6	-48.2	18.7	0.00e+00	0	39	0	952107008	65	4185
2026-01-19 22:26:52.71	122.78	15.49	-46.3	-47.9	19.1	0.00e+00	0	39	0	959447040	64	4243
2026-01-19 22:26:56.75	123.47	15.22	-47.1	-48.9	18.1	0.00e+00	0	39	0	966787072	64	4769
2026-01-19 22:27:00.78	124.14	14.96	-46.7	-48.3	18.7	0.00e+00	0	39	0	974127104	64	4466
2026-01-19 22:27:04.81	124.80	14.69	-46.8	-48.5	18.5	0.00e+00	0	39	0	982515712	64	4548
2026-01-19 22:27:08.84	125.45	14.42	-47.1	-48.8	18.1	0.00e+00	0	39	0	989855744	65	4487
2026-01-19 22:27:12.87	126.09	14.15	-46.7	-48.3	18.5	0.00e+00	0	39	0	997195776	65	4238
2026-01-19 22:27:16.91	126.72	13.88	-47.0	-48.8	18.1	0.00e+00	0	39	0	1004535808	65	4468
2026-01-19 22:27:20.94	127.34	13.61	-47.2	-49.0	17.9	0.00e+00	0	39	0	1012924416	65	4574
2026-01-19 22:27:24.97	127.94	13.34	-46.8	-48.5	18.3	0.00e+00	0	39	0	1020264448	65	4325
2026-01-19 22:27:29.00	128.54	13.07	-47.3	-49.1	17.7	0.00e+00	0	39	0	1027604480	65	4642
2026-01-19 22:27:33.04	129.12	12.80	-47.3	-49.2	17.6	0.00e+00	0	39	0	1034944512	65	4682
2026-01-19 22:27:37.07	129.70	12.53	-46.9	-48.7	18.1	0.00e+00	0	39	0	1042284544	65	4407
2026-01-19 22:27:41.10	130.26	12.26	-47.4	-49.4	17.4	0.00e+00	0	39	0	1050673152	65	4768
2026-01-19 22:27:45.13	130.82	11.99	-47.7	-49.7	17.1	0.00e+00	0	39	0	1058013184	66	4697
2026-01-19 22:27:49.16	131.36	11.72	-47.2	-49.1	17.6	0.00e+00	0	39	0	1065353216	66	4374
2026-01-19 22:27:53.19	131.90	11.46	-47.0	-48.8	18.0	0.00e+00	0	39	0	1072693248	65	4445
2026-01-19 22:27:57.22	132.42	11.19	-47.1	-49.0	17.7	0.00e+00	0	39	0	1081081856	65	4576
2026-01-19 22:28:01.25	132.94	10.93	-47.3	-49.2	17.4	0.00e+00	0	39	0	1088421888	65	4683
2026-01-19 22:28:05.28	133.45	10.66	-47.6	-49.7	17.0	0.00e+00	0	39	0	1095761920	65	4931
2026-01-19 22:28:09.31	133.95	10.40	-47.9	-50.1	16.6	0.00e+00	0	39	0	1103101952	66	4876
2026-01-19 22:28:13.34	134.44	10.13	-47.8	-49.9	16.7	0.00e+00	0	39	0	1110441984	66	4808
2026-01-19 22:28:17.37	134.92	9.87	-47.6	-49.7	16.9	0.00e+00	0	39	0	1117782016	66	4675
2026-01-19 22:28:21.40	135.40	9.61	-47.8	-50.0	16.6	0.00e+00	0	39	0	1126170624	66	4861
2026-01-19 22:28:25.43	135.86	9.35	-48.0	-50.2	16.3	0.00e+00	0	39	0	1133510656	66	4978
2026-01-19 22:28:29.46	136.32	9.09	-48.3	-50.7	15.9	0.00e+00	0	39	0	1140850688	67	4942
2026-01-19 22:28:33.50	136.77	8.84	-48.5	-51.1	15.3	0.00e+00	0	39	0	1148190720	67	5208
2026-01-19 22:28:37.53	137.22	8.58	-48.8	-51.5	15.1	0.00e+00	0	39	0	1156579328	68	5103
2026-01-19 22:28:41.56	137.65	8.33	-48.8	-51.6	15.0	0.00e+00	0	39	0	1163919360	68	5171
2026-01-19 22:28:45.59	138.08	8.07	-48.6	-51.2	15.3	0.00e+00	0	39	0	1171259392	68	4963
2026-01-19 22:28:49.63	138.50	7.82	-48.8	-51.5	14.9	0.00e+00	0	39	0	1178599424	68	5138
2026-01-19 22:28:53.66	138.92	7.57	-48.3	-50.8	15.7	0.00e+00	0	39	0	1185939456	68	4707
2026-01-19 22:28:57.69	139.33	7.32	-48.1	-50.6	15.9	0.00e+00	0	39	0	1194328064	68	4604
2026-01-19 22:29:01.72	139.73	7.07	-48.2	-50.7	15.6	0.00e+00	0	39	0	1201668096	68	4688
2026-01-19 22:29:05.75	140.12	6.82	-48.4	-50.9	15.4	0.00e+00	0	39	0	1209008128	68	4811
2026-01-19 22:29:09.78	140.51	6.57	-48.5	-51.2	15.1	0.00e+00	0	39	0	1216348160	68	4946
2026-01-19 22:29:13.81	140.89	6.33	-48.4	-51.0	15.2	0.00e+00	0	39	0	1223688192	68	4859
2026-01-19 22:29:17.84	141.27	6.09	-47.9	-50.4	15.7	0.00e+00	0	39	0	1232076800	67	4794
2026-01-19 22:29:21.87	141.64	5.84	-47.9	-50.4	15.7	0.00e+00	0	39	0	1239416832	67	4777
2026-01-19 22:29:25.91	142.00	5.60	-47.9	-50.4	15.7	0.00e+00	0	39	0	1246756864	66	5065
2026-01-19 22:29:29.94	142.36	5.36	-48.0	-50.6	15.3	0.00e+00	0	39	0	1254096896	67	4921
2026-01-19 22:29:33.97	142.72	5.12	-48.0	-50.6	15.2	0.00e+00	0	39	0	1261436928	67	4881
2026-01-19 22:29:38.00	143.06	4.88	-52.7	-67.6	3.8	1.49e+00	0	39	104	1267728384	75	21970
2026-01-19 22:29:42.03	143.41	4.65	-53.4	-68.4	3.8	1.49e+00	0	39	104	1267728384	77	21319
2026-01-19 22:29:46.06	143.74	4.41	-53.7	-68.7	3.8	1.49e+00	0	39	104	1267728384	77	22068
2026-01-19 22:29:50.09	144.08	4.18	-53.9	-68.9	3.8	1.49e+00	0	39	104	1267728384	78	21335
2026-01-19 22:29:54.12	144.40	3.95	-54.1	-69.0	3.8	1.49e+00	0	39	104	1267728384	78	21640
2026-01-19 22:29:58.15	144.73	3.72	-54.1	-69.1	3.8	1.49e+00	0	39	104	1267728384	78	21888
2026-01-19 22:30:02.18	145.04	3.49	-54.1	-69.1	3.8	1.49e+00	0	39	104	1267728384	78	21788
2026-01-19 22:30:06.22	145.36	3.26	-54.0	-69.0	3.8	1.49e+00	0	39	104	1267728384	78	21700
2026-01-19 22:30:10.25	145.66	3.03	-54.0	-69.0	3.8	1.49e+00	0	39	104	1267728384	78	21608
2026-01-19 22:30:14.28	145.97	2.80	-54.0	-69.0	3.8	1.49e+00	0	39	104	1267728384	78	21569
2026-01-19 22:30:18.31	146.27	2.58	-54.0	-68.9	3.8	1.49e+00	0	39	104	1267728384	78	21500
2026-01-19 22:30:22.34	146.56	2.36	-54.0	-69.0	3.8	1.49e+00	0	39	104	1267728384	78	21521
2026-01-19 22:30:26.37	146.85	2.13	-54.0	-68.9	3.8	1.49e+00	0	39	104	1267728384	78	21473
2026-01-19 22:30:30.40	147.14	1.91	-53.9	-68.9	3.8	1.49e+00	0	39	104	1267728384	78	21388

#Closed at: 2026-01-19 22:30:31
#Recorded file [1267 MB]: D:/lorett/data/31041_260120_011732.dat