passes_logs/2026/01/19/R3.2S_Murmansk/R3.2S_Murmansk__20260119_125602_AQUA_rec.log

#Pass ID: 20260119_125602_AQUA
#Satellite: AQUA
#Configuration: AQUA
#almurnet v.1.7.20251203
#Start time: 2026-01-19 12:56:04

#Version: 2.2.20231116
#Station: R3.2S_Murmansk
#Location: 33.079688 lon 68.888172 lat
#TLE: 1 27424U 02022A   26018.92652823  .00000914  00000+0  19290-3 0  9996
#TLE: 2 27424  98.4089 345.4199 0001997  73.4625 351.8991 14.61828815261466

#Time	Az	El	Level	Level2	SNR	BER	BlckErr	Temp	State	Recorded	gain1	gain2
2026-01-19 12:56:04.53	195.31	2.14	-54.0	-71.6	3.8	7.43e-01	0	36	0	0	79	27509
2026-01-19 12:56:07.55	195.49	2.33	-54.0	-71.4	3.8	7.43e-01	0	36	104	0	78	28586
2026-01-19 12:56:10.58	195.67	2.51	-54.0	-71.1	3.8	7.47e-01	0	36	104	0	78	27601
2026-01-19 12:56:13.60	195.85	2.70	-53.9	-71.4	3.8	7.48e-01	0	36	104	0	78	28512
2026-01-19 12:56:16.63	196.04	2.90	-54.0	-71.2	3.8	7.45e-01	0	36	104	0	78	27847
2026-01-19 12:56:19.65	196.23	3.09	-53.9	-71.0	3.8	7.46e-01	0	36	104	0	78	27195
2026-01-19 12:56:22.68	196.42	3.28	-54.0	-71.4	3.8	7.43e-01	0	36	104	0	78	28514
2026-01-19 12:56:25.70	196.62	3.48	-53.9	-71.4	3.8	7.47e-01	0	36	104	0	78	28370
2026-01-19 12:56:28.73	196.82	3.67	-53.9	-71.5	3.8	7.42e-01	0	36	104	0	78	28848
2026-01-19 12:56:31.75	197.02	3.87	-53.7	-65.0	5.7	6.93e-01	160	37	0	0	78	13621
2026-01-19 12:56:34.77	197.22	4.07	-52.8	-59.5	11.0	6.16e-01	0	36	0	5242880	77	7669
2026-01-19 12:56:37.79	197.43	4.27	-51.9	-56.8	14.0	6.07e-01	0	37	0	11010048	75	6279
2026-01-19 12:56:40.82	197.64	4.47	-50.4	-53.6	17.1	6.07e-01	0	36	0	16777216	72	5210
2026-01-19 12:56:43.84	197.85	4.68	-48.4	-50.5	20.2	6.07e-01	0	37	0	22544384	68	4595
2026-01-19 12:56:46.87	198.06	4.88	-48.0	-50.0	20.8	6.07e-01	0	37	0	27787264	67	4591
2026-01-19 12:56:49.89	198.28	5.09	-48.2	-50.2	20.8	6.05e-01	0	37	0	33554432	67	4687
2026-01-19 12:56:52.92	198.51	5.29	-50.4	-53.7	17.2	6.06e-01	0	37	0	39321600	72	5226
2026-01-19 12:56:55.94	198.73	5.50	-47.8	-49.6	21.4	6.07e-01	0	37	0	45088768	67	4376
2026-01-19 12:56:58.96	198.96	5.71	-47.8	-49.6	21.4	6.08e-01	0	37	0	50855936	67	4378
2026-01-19 12:57:01.98	199.19	5.93	-47.6	-49.4	21.6	6.08e-01	0	37	0	56098816	67	4283
2026-01-19 12:57:05.01	199.43	6.14	-47.5	-49.3	21.8	6.07e-01	0	37	0	61865984	66	4479
2026-01-19 12:57:08.03	199.66	6.36	-47.8	-49.6	21.6	6.07e-01	0	37	0	67633152	66	4616
2026-01-19 12:57:11.05	199.91	6.57	-53.8	-69.4	3.7	7.45e-01	0	37	104	73400320	78	22707
2026-01-19 12:57:14.08	200.15	6.79	-53.9	-69.8	3.8	7.46e-01	0	37	104	73400320	78	23740
2026-01-19 12:57:17.10	200.40	7.01	-53.7	-65.7	5.4	7.03e-01	8	37	0	73400320	78	14751
2026-01-19 12:57:20.13	200.66	7.23	-53.7	-64.7	6.0	6.87e-01	183	37	0	76021760	78	13179
2026-01-19 12:57:23.15	200.92	7.46	-53.7	-63.7	7.0	6.65e-01	182	37	0	81264640	78	11740
2026-01-19 12:57:26.18	201.18	7.68	-53.9	-70.3	3.8	7.46e-01	0	37	104	84410368	78	25040
2026-01-19 12:57:29.20	201.45	7.91	-53.6	-62.7	8.0	6.48e-01	149	37	0	87556096	78	10498
2026-01-19 12:57:32.22	201.72	8.14	-53.3	-60.6	10.3	6.21e-01	0	37	0	92798976	78	8242
2026-01-19 12:57:35.25	201.99	8.37	-53.3	-60.2	10.7	6.19e-01	0	37	0	98566144	78	7871
2026-01-19 12:57:38.27	202.27	8.60	-52.4	-57.4	13.7	6.08e-01	0	37	0	104333312	76	6353
2026-01-19 12:57:41.30	202.56	8.84	-51.2	-54.6	16.6	6.06e-01	0	37	0	110100480	74	5208
2026-01-19 12:57:44.32	202.85	9.07	-50.5	-53.4	17.8	6.07e-01	0	37	0	115867648	73	4808
2026-01-19 12:57:47.34	203.14	9.31	-48.2	-50.1	21.2	6.06e-01	0	37	0	121634816	68	4386
2026-01-19 12:57:50.37	203.44	9.55	-47.3	-48.9	22.5	6.08e-01	0	37	0	126877696	66	4272
2026-01-19 12:57:53.39	203.75	9.80	-46.9	-48.4	23.0	6.06e-01	0	37	0	132644864	65	4283
2026-01-19 12:57:56.41	204.06	10.04	-47.2	-48.8	22.7	6.08e-01	0	37	0	138412032	65	4449
2026-01-19 12:57:59.44	204.37	10.29	-47.0	-48.6	22.9	6.05e-01	0	37	0	144179200	65	4362
2026-01-19 12:58:02.46	204.69	10.54	-47.1	-48.7	22.8	6.06e-01	0	37	0	149946368	65	4407
2026-01-19 12:58:05.49	205.02	10.79	-46.9	-48.5	23.0	6.06e-01	0	37	0	155189248	65	4313
2026-01-19 12:58:08.51	205.35	11.04	-46.8	-48.4	23.2	6.08e-01	0	37	0	160956416	65	4254
2026-01-19 12:58:11.53	205.69	11.29	-46.7	-48.2	23.3	6.08e-01	0	37	0	166723584	65	4176
2026-01-19 12:58:14.55	206.04	11.55	-46.7	-48.1	23.4	6.06e-01	0	37	0	172490752	65	4144
2026-01-19 12:58:17.58	206.39	11.81	-46.8	-48.3	23.3	6.04e-01	0	37	0	178257920	65	4212
2026-01-19 12:58:20.60	206.74	12.07	-46.6	-48.1	23.4	6.03e-01	0	37	0	183500800	65	4140
2026-01-19 12:58:23.62	207.11	12.33	-46.5	-48.0	23.6	6.06e-01	0	37	0	189267968	65	4083
2026-01-19 12:58:26.65	207.48	12.60	-46.4	-47.9	23.7	6.05e-01	0	37	0	195035136	64	4255
2026-01-19 12:58:29.67	207.86	12.87	-46.4	-47.8	23.8	6.07e-01	0	37	0	200802304	64	4228
2026-01-19 12:58:32.69	208.24	13.14	-46.4	-47.8	23.7	6.05e-01	0	37	0	206569472	64	4240
2026-01-19 12:58:35.72	208.64	13.41	-46.2	-47.6	24.0	6.05e-01	0	37	0	211812352	64	4111
2026-01-19 12:58:38.74	209.04	13.68	-46.2	-47.6	24.0	6.06e-01	0	37	0	218103808	64	4117
2026-01-19 12:58:41.76	209.44	13.96	-46.2	-47.6	24.0	6.06e-01	0	37	0	223346688	64	4117
2026-01-19 12:58:44.79	209.86	14.24	-46.4	-47.8	23.8	6.04e-01	0	37	0	229113856	64	4221
2026-01-19 12:58:47.81	210.28	14.52	-46.1	-47.5	24.1	6.05e-01	0	37	0	234881024	64	4081
2026-01-19 12:58:50.84	210.72	14.80	-46.2	-47.6	24.2	6.06e-01	0	37	0	240648192	63	4351
2026-01-19 12:58:53.86	211.16	15.09	-46.0	-47.3	24.3	6.07e-01	0	37	0	246415360	63	4242
2026-01-19 12:58:56.89	211.61	15.38	-46.1	-47.5	24.3	6.04e-01	0	37	0	251658240	63	4311
2026-01-19 12:58:59.91	212.07	15.67	-46.1	-47.5	24.3	6.04e-01	0	37	0	257425408	63	4294
2026-01-19 12:59:02.93	212.54	15.96	-46.1	-47.5	24.3	6.08e-01	0	37	0	263192576	63	4298
2026-01-19 12:59:05.95	213.01	16.25	-45.9	-47.3	24.5	6.06e-01	0	37	0	268959744	63	4196
2026-01-19 12:59:08.98	213.50	16.55	-46.1	-47.4	24.3	6.04e-01	0	37	0	274726912	63	4287
2026-01-19 12:59:12.00	214.00	16.85	-45.8	-47.1	24.7	6.08e-01	0	37	0	279969792	63	4117
2026-01-19 12:59:15.03	214.51	17.15	-46.0	-47.4	24.4	6.06e-01	0	37	0	285736960	63	4259
2026-01-19 12:59:18.05	215.03	17.45	-45.9	-47.3	24.5	6.04e-01	0	37	0	291504128	63	4201
2026-01-19 12:59:21.07	215.56	17.76	-45.9	-47.2	24.6	6.06e-01	0	37	0	297271296	63	4187
2026-01-19 12:59:24.09	216.10	18.06	-45.7	-47.0	24.8	6.06e-01	0	37	0	303038464	63	4079
2026-01-19 12:59:27.12	216.65	18.37	-45.7	-47.0	24.8	6.03e-01	0	37	0	308281344	63	4071
2026-01-19 12:59:30.14	217.21	18.68	-45.7	-47.0	24.8	6.07e-01	0	37	0	314048512	63	4091
2026-01-19 12:59:33.17	217.79	19.00	-45.6	-46.9	24.9	6.07e-01	0	37	0	319815680	63	4027
2026-01-19 12:59:36.19	218.38	19.31	-45.7	-47.0	24.8	6.04e-01	0	37	0	325582848	63	4082
2026-01-19 12:59:39.21	218.98	19.62	-45.7	-46.9	24.9	6.06e-01	0	37	0	331350016	63	4044
2026-01-19 12:59:42.24	219.59	19.94	-45.7	-47.0	24.9	6.06e-01	0	37	0	337117184	63	4063
2026-01-19 12:59:45.26	220.22	20.26	-45.6	-46.8	25.0	6.05e-01	0	37	0	342360064	63	3993
2026-01-19 12:59:48.29	220.86	20.58	-45.9	-47.2	24.7	6.04e-01	0	37	0	348127232	63	4163
2026-01-19 12:59:51.31	221.51	20.90	-45.7	-47.0	24.9	6.05e-01	0	37	0	353894400	63	4057
2026-01-19 12:59:54.33	222.18	21.22	-45.7	-47.0	24.9	6.05e-01	0	37	0	359661568	63	4076
2026-01-19 12:59:57.36	222.86	21.54	-45.8	-47.2	24.7	6.06e-01	0	37	0	365428736	63	4151
2026-01-19 13:00:00.38	223.56	21.86	-45.8	-47.1	24.8	6.07e-01	0	37	0	370671616	63	4108
2026-01-19 13:00:03.40	224.27	22.18	-45.7	-47.0	24.9	6.07e-01	0	37	0	376438784	63	4092
2026-01-19 13:00:06.43	225.00	22.50	-45.9	-47.2	24.8	6.06e-01	0	37	0	382205952	63	4155
2026-01-19 13:00:09.45	225.74	22.82	-45.8	-47.1	24.8	6.07e-01	0	37	0	387973120	63	4128
2026-01-19 13:00:12.47	226.50	23.15	-45.8	-47.2	24.8	6.05e-01	0	37	0	393740288	63	4149
2026-01-19 13:00:15.49	227.27	23.47	-46.0	-47.3	24.7	6.06e-01	0	37	0	398983168	63	4218
2026-01-19 13:00:18.52	228.07	23.79	-45.9	-47.2	24.7	6.07e-01	0	37	0	404750336	63	4193
2026-01-19 13:00:21.54	228.87	24.10	-46.0	-47.4	24.6	6.07e-01	0	37	0	410517504	63	4250
2026-01-19 13:00:24.56	229.70	24.42	-46.2	-47.6	24.4	6.05e-01	0	37	0	416284672	63	4355
2026-01-19 13:00:27.59	230.54	24.73	-46.1	-47.4	24.6	6.07e-01	0	37	0	422051840	63	4270
2026-01-19 13:00:30.61	231.40	25.05	-46.0	-47.4	24.6	6.06e-01	0	37	0	427294720	63	4245
2026-01-19 13:00:33.63	232.27	25.36	-46.0	-47.3	24.7	6.06e-01	0	37	0	433061888	63	4198
2026-01-19 13:00:36.66	233.17	25.66	-46.1	-47.4	24.6	6.05e-01	0	37	0	438829056	63	4263
2026-01-19 13:00:39.68	234.08	25.97	-46.3	-47.6	24.4	6.04e-01	0	37	0	444596224	63	4368
2026-01-19 13:00:42.71	235.01	26.27	-46.2	-47.5	24.5	6.05e-01	0	37	0	450363392	63	4328
2026-01-19 13:00:45.73	235.96	26.56	-46.2	-47.5	24.5	6.04e-01	0	37	0	455606272	63	4310
2026-01-19 13:00:48.75	236.92	26.85	-46.2	-47.5	24.5	6.07e-01	0	37	0	461373440	63	4309
2026-01-19 13:00:51.78	237.90	27.14	-46.1	-47.4	24.5	6.08e-01	0	37	0	467140608	63	4279
2026-01-19 13:00:54.80	238.90	27.42	-46.0	-47.3	24.6	6.06e-01	0	37	0	472907776	63	4240
2026-01-19 13:00:57.82	239.92	27.69	-46.0	-47.3	24.8	6.06e-01	0	37	0	478674944	63	4199
2026-01-19 13:01:00.85	240.96	27.96	-46.1	-47.4	24.6	6.06e-01	0	37	0	484442112	63	4285
2026-01-19 13:01:03.87	242.01	28.22	-45.9	-47.2	24.8	6.07e-01	0	37	0	489684992	63	4172
2026-01-19 13:01:06.90	243.09	28.47	-45.9	-47.1	24.8	6.07e-01	0	37	0	495452160	63	4142
2026-01-19 13:01:09.92	244.17	28.71	-45.9	-47.2	24.8	6.07e-01	0	37	0	501219328	63	4146
2026-01-19 13:01:12.95	245.28	28.95	-45.9	-47.2	24.8	6.05e-01	0	37	0	506986496	63	4188
2026-01-19 13:01:15.97	246.40	29.18	-46.1	-47.4	24.6	6.03e-01	0	37	0	512753664	63	4269
2026-01-19 13:01:18.99	247.54	29.39	-46.4	-47.7	24.3	6.05e-01	0	37	0	517996544	63	4440
2026-01-19 13:01:22.02	248.69	29.60	-46.3	-47.6	24.4	6.05e-01	0	37	0	523763712	63	4382
2026-01-19 13:01:25.04	249.85	29.79	-46.4	-47.8	24.3	6.04e-01	0	37	0	529530880	63	4478
2026-01-19 13:01:28.07	251.04	29.98	-45.7	-47.0	25.0	6.03e-01	0	37	0	535298048	63	4072
2026-01-19 13:01:31.09	252.23	30.15	-45.7	-47.0	25.0	6.05e-01	0	37	0	541065216	63	4077
2026-01-19 13:01:34.12	253.44	30.31	-45.7	-47.0	25.1	6.08e-01	0	37	0	546308096	63	4082
2026-01-19 13:01:37.14	254.65	30.46	-45.5	-46.8	25.2	6.08e-01	0	37	0	552599552	63	3966
2026-01-19 13:01:40.17	255.89	30.59	-45.5	-46.8	25.2	6.06e-01	0	37	0	557842432	63	3976
2026-01-19 13:01:43.19	257.12	30.71	-45.3	-46.5	25.4	6.04e-01	0	37	0	563609600	62	4097
2026-01-19 13:01:46.21	258.37	30.82	-45.2	-46.4	25.5	6.06e-01	0	37	0	569376768	62	4049
2026-01-19 13:01:49.24	259.63	30.91	-45.3	-46.5	25.5	6.05e-01	0	37	0	575143936	62	4085
2026-01-19 13:01:52.26	260.89	30.99	-45.2	-46.4	25.6	6.06e-01	0	37	0	580911104	62	4040
2026-01-19 13:01:55.29	262.16	31.06	-45.2	-46.4	25.6	6.05e-01	0	37	0	586153984	62	4015
2026-01-19 13:01:58.31	263.43	31.11	-45.2	-46.4	25.6	6.04e-01	0	37	0	591921152	62	4029
2026-01-19 13:02:01.33	264.70	31.14	-45.2	-46.4	25.6	6.03e-01	0	37	0	597688320	62	4032
2026-01-19 13:02:04.36	265.98	31.16	-45.2	-46.4	25.6	6.07e-01	0	37	0	603455488	62	4049
2026-01-19 13:02:07.38	267.26	31.17	-45.0	-46.1	25.9	6.07e-01	0	37	0	609222656	61	4142
2026-01-19 13:02:10.41	268.54	31.16	-45.0	-46.2	25.8	6.05e-01	0	37	0	614465536	61	4167
2026-01-19 13:02:13.43	269.81	31.13	-44.9	-46.0	26.0	6.05e-01	0	37	0	620232704	61	4087
2026-01-19 13:02:16.45	271.08	31.09	-44.9	-46.1	25.9	6.03e-01	0	37	0	625999872	61	4111
2026-01-19 13:02:19.47	272.35	31.03	-45.0	-46.2	25.9	6.04e-01	0	37	0	631767040	61	4157
2026-01-19 13:02:22.50	273.62	30.96	-45.0	-46.1	25.9	6.08e-01	0	37	0	637534208	61	4144
2026-01-19 13:02:25.52	274.88	30.88	-44.9	-46.1	25.9	6.05e-01	0	37	0	642777088	61	4111
2026-01-19 13:02:28.54	276.12	30.78	-45.2	-46.5	25.6	6.06e-01	0	37	0	648544256	61	4293
2026-01-19 13:02:31.57	277.37	30.67	-44.9	-46.1	25.9	6.07e-01	0	37	0	654311424	61	4130
2026-01-19 13:02:34.59	278.60	30.54	-44.9	-46.1	26.0	6.05e-01	0	37	0	660078592	61	4105
2026-01-19 13:02:37.61	279.82	30.40	-44.9	-46.1	25.9	6.03e-01	0	37	0	665845760	61	4138
2026-01-19 13:02:40.64	281.04	30.25	-45.0	-46.2	25.9	6.04e-01	0	37	0	671612928	61	4169
2026-01-19 13:02:43.66	282.23	30.09	-45.0	-46.2	25.9	6.02e-01	0	37	0	676855808	61	4148
2026-01-19 13:02:46.68	283.42	29.91	-44.9	-46.0	26.1	6.04e-01	0	37	0	682622976	61	4095
2026-01-19 13:02:49.71	284.60	29.72	-44.9	-46.1	25.9	6.02e-01	0	37	0	688390144	61	4106
2026-01-19 13:02:52.73	285.75	29.53	-45.1	-46.3	25.8	6.01e-01	0	37	0	694157312	61	4207
2026-01-19 13:02:55.76	286.90	29.32	-44.9	-46.1	25.9	6.03e-01	0	37	0	699924480	61	4116
2026-01-19 13:02:58.78	288.02	29.10	-45.1	-46.3	25.8	6.03e-01	0	37	0	705167360	61	4195
2026-01-19 13:03:01.81	289.14	28.87	-44.9	-46.1	26.0	6.02e-01	0	37	0	710934528	61	4139
2026-01-19 13:03:04.83	290.23	28.63	-45.0	-46.2	25.9	6.03e-01	0	37	0	716701696	61	4180
2026-01-19 13:03:07.85	291.31	28.38	-45.0	-46.1	26.0	6.02e-01	0	37	0	722468864	61	4134
2026-01-19 13:03:10.88	292.38	28.13	-45.1	-46.3	25.6	6.04e-01	0	37	0	728236032	61	4235
2026-01-19 13:03:13.90	293.42	27.87	-45.2	-46.4	25.7	6.00e-01	0	37	0	733478912	61	4287
2026-01-19 13:03:16.93	294.45	27.60	-45.3	-46.5	25.6	6.03e-01	0	37	0	739246080	61	4315
2026-01-19 13:03:19.95	295.46	27.32	-45.3	-46.5	25.6	6.00e-01	0	37	0	745013248	61	4297
2026-01-19 13:03:22.97	296.45	27.04	-45.2	-46.4	25.7	6.03e-01	0	37	0	750780416	61	4268
2026-01-19 13:03:25.99	297.42	26.76	-45.5	-46.7	25.4	6.03e-01	0	37	0	756547584	61	4440
2026-01-19 13:03:29.01	298.37	26.47	-45.2	-46.4	25.7	6.05e-01	0	37	0	761790464	61	4251
2026-01-19 13:03:32.04	299.31	26.17	-45.5	-46.7	25.4	6.05e-01	0	37	0	767557632	61	4427
2026-01-19 13:03:35.06	300.23	25.87	-45.5	-46.7	25.5	6.03e-01	0	37	0	773324800	61	4411
2026-01-19 13:03:38.08	301.13	25.57	-45.4	-46.6	25.5	6.01e-01	0	37	0	779091968	61	4362
2026-01-19 13:03:41.11	302.02	25.26	-45.6	-46.9	25.3	6.01e-01	0	37	0	784859136	61	4510
2026-01-19 13:03:44.13	302.88	24.96	-45.7	-47.0	25.3	6.05e-01	0	37	0	790626304	62	4293
2026-01-19 13:03:47.16	303.73	24.64	-45.5	-46.8	25.3	6.02e-01	0	37	0	795869184	62	4213
2026-01-19 13:03:50.18	304.57	24.33	-45.5	-46.8	25.4	6.03e-01	0	37	0	801636352	62	4198
2026-01-19 13:03:53.21	305.38	24.01	-45.6	-46.9	25.3	6.03e-01	0	37	0	807403520	62	4268
2026-01-19 13:03:56.23	306.18	23.70	-45.5	-46.7	25.5	6.04e-01	0	37	0	813170688	62	4160
2026-01-19 13:03:59.25	306.96	23.38	-45.6	-46.9	25.2	6.02e-01	0	37	0	818937856	62	4264
2026-01-19 13:04:02.27	307.73	23.06	-45.6	-46.8	25.3	6.02e-01	0	37	0	824180736	62	4228
2026-01-19 13:04:05.30	308.48	22.74	-45.5	-46.7	25.4	6.03e-01	0	37	0	829947904	62	4186
2026-01-19 13:04:08.32	309.21	22.42	-45.4	-46.6	25.5	6.04e-01	0	37	0	835715072	62	4103
2026-01-19 13:04:11.35	309.93	22.10	-45.5	-46.8	25.3	6.02e-01	0	37	0	841482240	62	4205
2026-01-19 13:04:14.37	310.64	21.78	-45.5	-46.7	25.3	6.01e-01	0	37	0	847249408	62	4193
2026-01-19 13:04:17.40	311.33	21.46	-45.4	-46.6	25.4	6.02e-01	0	37	0	852492288	62	4144
2026-01-19 13:04:20.42	312.00	21.14	-45.4	-46.6	25.4	6.01e-01	0	37	0	858259456	62	4128
2026-01-19 13:04:23.45	312.66	20.82	-45.5	-46.8	25.3	6.04e-01	0	37	0	864026624	62	4194
2026-01-19 13:04:26.47	313.31	20.51	-45.4	-46.7	25.4	6.02e-01	0	37	0	869793792	62	4150
2026-01-19 13:04:29.49	313.94	20.19	-45.4	-46.6	25.4	6.01e-01	0	37	0	875560960	62	4125
2026-01-19 13:04:32.52	314.56	19.88	-45.3	-46.5	25.5	6.02e-01	0	37	0	880803840	62	4080
2026-01-19 13:04:35.54	315.17	19.56	-45.3	-46.5	25.5	6.01e-01	0	37	0	887095296	62	4068
2026-01-19 13:04:38.57	315.77	19.25	-45.3	-46.5	25.4	6.01e-01	0	37	0	892338176	62	4096
2026-01-19 13:04:41.59	316.35	18.94	-45.3	-46.5	25.4	6.03e-01	0	37	0	898105344	62	4091
2026-01-19 13:04:44.61	316.92	18.63	-45.3	-46.6	25.4	5.99e-01	0	37	0	903872512	62	4107
2026-01-19 13:04:47.64	317.48	18.32	-45.2	-46.5	25.5	6.05e-01	0	37	0	909639680	62	4061
2026-01-19 13:04:50.66	318.02	18.02	-45.2	-46.4	25.5	6.03e-01	0	37	0	915406848	62	4042
2026-01-19 13:04:53.69	318.56	17.71	-45.3	-46.6	25.4	6.00e-01	0	37	0	920649728	62	4105
2026-01-19 13:04:56.71	319.08	17.41	-45.3	-46.5	25.3	6.04e-01	0	37	0	926416896	62	4097
2026-01-19 13:04:59.73	319.60	17.11	-45.3	-46.5	25.3	6.02e-01	0	37	0	932184064	62	4097
2026-01-19 13:05:02.75	320.10	16.81	-45.1	-46.3	25.5	6.02e-01	0	37	0	937951232	62	3995
2026-01-19 13:05:05.78	320.59	16.51	-45.1	-46.4	25.5	6.02e-01	0	37	0	943718400	62	4014
2026-01-19 13:05:08.80	321.08	16.22	-45.3	-46.5	25.3	6.00e-01	0	37	0	948961280	62	4092
2026-01-19 13:05:11.83	321.55	15.93	-45.3	-46.6	25.2	6.00e-01	0	37	0	954728448	62	4112
2026-01-19 13:05:14.85	322.01	15.64	-45.2	-46.5	25.2	6.02e-01	0	37	0	960495616	62	4067
2026-01-19 13:05:17.87	322.47	15.35	-45.1	-46.4	25.4	6.02e-01	0	37	0	966262784	62	4020
2026-01-19 13:05:20.89	322.92	15.07	-45.3	-46.6	25.2	6.04e-01	0	37	0	972029952	62	4107
2026-01-19 13:05:23.92	323.35	14.78	-45.4	-46.7	25.1	6.03e-01	0	37	0	977272832	62	4169
2026-01-19 13:05:26.94	323.78	14.50	-45.5	-46.7	25.0	6.01e-01	0	37	0	983040000	62	4189
2026-01-19 13:05:29.97	324.20	14.22	-45.4	-46.6	25.1	6.02e-01	0	37	0	988807168	62	4134
2026-01-19 13:05:32.99	324.62	13.95	-45.4	-46.7	25.0	6.03e-01	0	37	0	994574336	62	4152
2026-01-19 13:05:36.01	325.02	13.67	-45.3	-46.6	25.0	6.02e-01	0	37	0	1000341504	62	4125
2026-01-19 13:05:39.03	325.42	13.40	-45.4	-46.6	24.9	6.03e-01	0	37	0	1006108672	62	4132
2026-01-19 13:05:42.06	325.81	13.13	-45.6	-46.9	24.8	6.04e-01	0	37	0	1011351552	62	4243
2026-01-19 13:05:45.08	326.19	12.86	-45.6	-46.9	24.7	6.02e-01	0	37	0	1017118720	62	4290
2026-01-19 13:05:48.11	326.57	12.60	-45.7	-47.0	24.6	6.02e-01	0	37	0	1022885888	62	4330
2026-01-19 13:05:51.13	326.94	12.33	-45.6	-46.9	24.7	6.03e-01	0	37	0	1028653056	62	4287
2026-01-19 13:05:54.15	327.30	12.07	-45.5	-46.8	24.7	6.02e-01	0	37	0	1034420224	62	4235
2026-01-19 13:05:57.18	327.65	11.81	-45.7	-47.0	24.6	6.03e-01	0	37	0	1039663104	62	4304
2026-01-19 13:06:00.20	328.00	11.56	-45.6	-46.9	24.6	6.02e-01	0	37	0	1045430272	62	4280
2026-01-19 13:06:03.22	328.34	11.30	-45.7	-47.0	24.6	6.04e-01	0	37	0	1051197440	62	4325
2026-01-19 13:06:06.25	328.68	11.05	-45.7	-47.1	24.5	6.01e-01	0	37	0	1056964608	62	4345
2026-01-19 13:06:09.27	329.01	10.80	-45.9	-47.3	24.3	6.02e-01	0	37	0	1062731776	62	4444
2026-01-19 13:06:12.30	329.34	10.55	-45.9	-47.2	24.3	6.03e-01	0	37	0	1067974656	62	4438
2026-01-19 13:06:15.32	329.66	10.31	-45.9	-47.3	24.2	6.01e-01	0	37	0	1073741824	62	4458
2026-01-19 13:06:18.34	329.97	10.06	-46.0	-47.4	24.1	6.03e-01	0	37	0	1079508992	62	4524
2026-01-19 13:06:21.37	330.28	9.82	-46.1	-47.5	24.0	6.04e-01	0	37	0	1085276160	63	4340
2026-01-19 13:06:24.38	330.58	9.58	-46.3	-47.8	23.7	6.03e-01	0	37	0	1091043328	63	4450
2026-01-19 13:06:27.41	330.88	9.34	-46.3	-47.7	23.8	6.00e-01	0	37	0	1096286208	63	4426
2026-01-19 13:06:30.44	331.18	9.10	-46.3	-47.7	23.7	6.01e-01	0	37	0	1102053376	63	4440
2026-01-19 13:06:33.46	331.46	8.87	-46.2	-47.7	23.8	6.02e-01	0	37	0	1107820544	63	4403
2026-01-19 13:06:36.49	331.75	8.64	-46.3	-47.7	23.7	6.03e-01	0	37	0	1113587712	63	4440
2026-01-19 13:06:39.51	332.03	8.40	-46.3	-47.7	23.6	6.01e-01	0	37	0	1119354880	63	4441
2026-01-19 13:06:42.53	332.30	8.18	-46.4	-47.9	23.5	6.02e-01	0	37	0	1125122048	63	4522
2026-01-19 13:06:45.56	332.57	7.95	-46.7	-48.2	23.1	6.01e-01	0	37	0	1130364928	64	4425
2026-01-19 13:06:48.58	332.84	7.72	-46.5	-48.1	23.2	6.03e-01	0	37	0	1136132096	64	4350
2026-01-19 13:06:51.61	333.10	7.50	-46.5	-48.0	23.2	6.00e-01	0	37	0	1141899264	64	4324
2026-01-19 13:06:54.63	333.36	7.28	-46.5	-48.0	23.1	6.03e-01	0	37	0	1147666432	64	4326
2026-01-19 13:06:57.65	333.61	7.06	-46.7	-48.3	22.9	6.02e-01	0	37	0	1153433600	64	4479
2026-01-19 13:07:00.67	333.86	6.84	-46.8	-48.4	22.7	6.02e-01	0	37	0	1158676480	64	4538
2026-01-19 13:07:03.70	334.11	6.62	-47.1	-48.7	22.4	6.03e-01	0	37	0	1164443648	64	4699
2026-01-19 13:07:06.72	334.35	6.41	-47.3	-49.0	22.1	6.02e-01	0	37	0	1170210816	65	4589
2026-01-19 13:07:09.74	334.59	6.19	-47.0	-48.6	22.5	6.02e-01	0	37	0	1175977984	65	4379
2026-01-19 13:07:12.77	334.83	5.98	-47.1	-48.8	22.2	6.03e-01	0	37	0	1181745152	65	4490
2026-01-19 13:07:15.79	335.06	5.77	-47.1	-48.9	22.1	6.02e-01	0	37	0	1186988032	65	4508
2026-01-19 13:07:18.82	335.29	5.56	-47.4	-49.2	21.8	6.00e-01	0	37	0	1192755200	65	4654
2026-01-19 13:07:21.84	335.51	5.35	-47.3	-49.1	21.9	6.01e-01	0	37	0	1198522368	65	4604
2026-01-19 13:07:24.86	335.73	5.15	-47.4	-49.2	21.7	6.03e-01	0	37	0	1204289536	65	4658
2026-01-19 13:07:27.88	335.95	4.94	-53.3	-59.2	12.7	6.06e-01	0	37	0	1210056704	76	7842
2026-01-19 13:07:30.91	336.17	4.74	-54.9	-72.8	3.8	7.45e-01	0	37	104	1210580992	80	29704
2026-01-19 13:07:33.93	336.38	4.54	-55.3	-73.1	3.8	7.43e-01	0	37	104	1210580992	81	29139
2026-01-19 13:07:36.95	336.59	4.34	-55.6	-73.4	3.8	7.44e-01	0	37	104	1210580992	81	30178
2026-01-19 13:07:39.98	336.80	4.14	-55.7	-73.5	3.8	7.45e-01	0	37	104	1210580992	81	30472
2026-01-19 13:07:43.00	337.00	3.94	-55.7	-73.6	3.8	7.48e-01	0	37	104	1210580992	82	29056
2026-01-19 13:07:46.03	337.20	3.75	-55.8	-73.6	3.8	7.46e-01	0	37	104	1210580992	82	29254
2026-01-19 13:07:49.05	337.40	3.55	-55.8	-73.6	3.8	7.46e-01	0	37	104	1210580992	82	29293
2026-01-19 13:07:52.08	337.60	3.36	-55.7	-73.5	3.8	7.46e-01	0	37	104	1210580992	82	28947
2026-01-19 13:07:55.10	337.79	3.16	-55.7	-73.6	3.8	7.48e-01	0	37	104	1210580992	82	29034
2026-01-19 13:07:58.13	337.98	2.97	-55.7	-73.5	3.8	7.47e-01	0	37	104	1210580992	82	28965
2026-01-19 13:08:01.15	338.17	2.78	-55.7	-73.5	3.8	7.48e-01	0	37	104	1210580992	82	28846
2026-01-19 13:08:04.17	338.35	2.59	-55.6	-73.5	3.8	7.44e-01	0	37	104	1210580992	82	28715
2026-01-19 13:08:07.20	338.54	2.41	-55.6	-73.5	3.8	7.44e-01	0	37	104	1210580992	82	28705
2026-01-19 13:08:10.22	338.72	2.22	-55.6	-73.4	3.8	7.49e-01	0	37	104	1210580992	82	28635
2026-01-19 13:08:13.25	338.90	2.04	-55.6	-73.4	3.8	7.45e-01	0	37	104	1210580992	82	28675

#Closed at: 2026-01-19 13:08:15
#Recorded file [1210 MB]: D:/lorett/data/31041_260119_155604.dat