passes_logs/2026/01/19/R3.2S_Murmansk/R3.2S_Murmansk__20260119_031456_AQUA_rec.log

#Pass ID: 20260119_031456_AQUA
#Satellite: AQUA
#Configuration: AQUA
#almurnet v.1.7.20251203
#Start time: 2026-01-19 03:14:58

#Version: 2.2.20231116
#Station: R3.2S_Murmansk
#Location: 33.079688 lon 68.888172 lat
#TLE: 1 27424U 02022A   26018.67315038  .00000896  00000+0  18931-3 0  9992
#TLE: 2 27424  98.4088 345.1622 0002002  73.7601  98.9671 14.61828261261423

#Time	Az	El	Level	Level2	SNR	BER	BlckErr	Temp	State	Recorded	gain1	gain2
2026-01-19 03:14:58.02	26.56	2.08	-49.7	-67.5	3.8	7.42e-01	0	35	0	0	69	30471
2026-01-19 03:15:01.03	26.48	2.28	-49.6	-67.5	3.8	7.47e-01	0	35	104	0	69	30533
2026-01-19 03:15:04.06	26.41	2.48	-49.6	-67.5	3.8	7.42e-01	0	35	104	0	69	30472
2026-01-19 03:15:07.08	26.33	2.68	-49.7	-67.5	3.8	7.48e-01	0	35	104	0	69	30507
2026-01-19 03:15:10.11	26.25	2.88	-49.7	-67.5	3.8	7.47e-01	0	35	104	0	69	30498
2026-01-19 03:15:13.14	26.17	3.09	-49.6	-67.5	3.8	7.44e-01	0	35	104	0	69	30527
2026-01-19 03:15:16.16	26.09	3.29	-49.6	-67.5	3.8	7.43e-01	0	35	104	0	69	30498
2026-01-19 03:15:19.18	26.01	3.50	-49.7	-67.5	3.8	7.45e-01	0	35	104	0	69	30553
2026-01-19 03:15:22.20	25.92	3.71	-49.6	-67.5	3.8	7.46e-01	0	36	104	0	69	30478
2026-01-19 03:15:25.23	25.84	3.92	-49.6	-67.4	3.8	7.45e-01	0	35	104	0	69	30332
2026-01-19 03:15:28.26	25.75	4.14	-49.6	-67.4	3.8	7.42e-01	0	36	104	0	69	30290
2026-01-19 03:15:31.28	25.66	4.35	-49.6	-67.5	3.8	7.46e-01	0	36	104	0	69	30449
2026-01-19 03:15:34.31	25.57	4.57	-49.6	-67.5	3.8	7.46e-01	0	36	104	0	69	30481
2026-01-19 03:15:37.33	25.47	4.79	-49.7	-67.5	3.8	7.46e-01	0	36	104	0	69	30415
2026-01-19 03:15:40.36	25.38	5.01	-49.7	-67.5	3.8	7.46e-01	0	36	104	0	69	30508
2026-01-19 03:15:43.38	25.28	5.23	-49.6	-67.5	3.8	7.46e-01	0	36	104	0	69	30504
2026-01-19 03:15:46.40	25.19	5.46	-49.7	-67.5	3.8	7.44e-01	0	36	104	0	69	30500
2026-01-19 03:15:49.43	25.09	5.68	-49.6	-67.5	3.8	7.46e-01	0	36	104	0	69	30443
2026-01-19 03:15:52.45	24.98	5.91	-49.7	-67.5	3.8	7.46e-01	0	36	104	0	69	30442
2026-01-19 03:15:55.47	24.88	6.14	-49.6	-67.5	3.8	7.46e-01	0	36	104	0	69	30597
2026-01-19 03:15:58.50	24.77	6.38	-49.7	-67.5	3.8	7.43e-01	0	36	104	0	69	30513
2026-01-19 03:16:01.52	24.67	6.61	-49.7	-67.5	3.8	7.47e-01	0	36	104	0	69	30467
2026-01-19 03:16:04.55	24.55	6.85	-49.7	-67.5	3.8	7.48e-01	0	36	104	0	69	30408
2026-01-19 03:16:07.57	24.44	7.09	-49.7	-67.5	3.8	7.46e-01	0	36	104	0	69	30475
2026-01-19 03:16:10.60	24.33	7.34	-49.6	-67.5	3.8	7.41e-01	0	36	104	0	69	30483
2026-01-19 03:16:13.62	24.21	7.58	-49.6	-67.5	3.8	7.46e-01	0	36	104	0	69	30496
2026-01-19 03:16:16.64	24.09	7.83	-49.7	-67.5	3.8	7.47e-01	0	36	104	0	69	30505
2026-01-19 03:16:19.66	23.97	8.08	-49.7	-67.5	3.8	7.46e-01	0	36	104	0	69	30462
2026-01-19 03:16:22.69	23.85	8.33	-49.7	-67.5	3.8	7.45e-01	0	36	104	0	69	30440
2026-01-19 03:16:25.71	23.72	8.59	-49.7	-67.5	3.8	7.46e-01	0	36	104	0	69	30503
2026-01-19 03:16:28.74	23.59	8.85	-49.7	-67.5	3.8	7.44e-01	0	36	104	0	69	30537
2026-01-19 03:16:31.76	23.46	9.11	-49.7	-67.5	3.8	7.48e-01	0	36	104	0	69	30548
2026-01-19 03:16:34.78	23.32	9.37	-49.7	-67.5	3.8	7.47e-01	0	36	104	0	69	30510
2026-01-19 03:16:37.81	23.18	9.64	-49.7	-67.5	3.8	7.48e-01	0	36	104	0	69	30593
2026-01-19 03:16:40.83	23.04	9.91	-49.7	-67.5	3.8	7.42e-01	0	36	104	0	69	30577
2026-01-19 03:16:43.86	22.90	10.18	-49.7	-67.5	3.8	7.43e-01	0	36	104	0	69	30614
2026-01-19 03:16:46.88	22.75	10.46	-49.7	-67.5	3.8	7.44e-01	0	36	104	0	69	30494
2026-01-19 03:16:49.90	22.60	10.74	-49.7	-67.5	3.8	7.48e-01	0	37	104	0	69	30544
2026-01-19 03:16:52.93	22.44	11.03	-49.7	-67.5	3.8	7.49e-01	0	36	104	0	69	30513
2026-01-19 03:16:55.95	22.29	11.31	-49.7	-67.5	3.8	7.45e-01	0	36	104	0	69	30581
2026-01-19 03:16:58.98	22.12	11.60	-49.7	-67.5	3.8	7.48e-01	0	36	104	0	69	30522
2026-01-19 03:17:02.00	21.96	11.90	-49.7	-67.5	3.8	7.46e-01	0	37	104	0	69	30594
2026-01-19 03:17:05.03	21.79	12.20	-49.7	-67.5	3.8	7.43e-01	0	37	104	0	69	30519
2026-01-19 03:17:08.05	21.62	12.50	-49.7	-67.5	3.8	7.46e-01	0	37	104	0	69	30562
2026-01-19 03:17:11.08	21.44	12.80	-49.7	-67.5	3.8	7.45e-01	0	37	104	0	69	30589
2026-01-19 03:17:14.10	21.26	13.11	-49.7	-67.5	3.8	7.43e-01	0	36	104	0	69	30559
2026-01-19 03:17:17.12	21.07	13.43	-49.7	-67.5	3.8	7.48e-01	0	37	104	0	69	30635
2026-01-19 03:17:20.15	20.88	13.75	-49.7	-67.5	3.8	7.45e-01	0	36	104	0	69	30558
2026-01-19 03:17:23.18	20.68	14.07	-49.7	-67.5	3.8	7.45e-01	0	37	104	0	69	30594
2026-01-19 03:17:26.20	20.48	14.39	-49.7	-67.5	3.8	7.47e-01	0	36	104	0	69	30589
2026-01-19 03:17:29.22	20.28	14.73	-49.7	-67.5	3.8	7.48e-01	0	37	104	0	69	30571
2026-01-19 03:17:32.25	20.07	15.06	-49.7	-67.5	3.8	7.45e-01	0	37	104	0	69	30561
2026-01-19 03:17:35.27	19.85	15.40	-49.7	-67.5	3.8	7.47e-01	0	37	104	0	69	30617
2026-01-19 03:17:38.30	19.63	15.75	-49.7	-67.5	3.8	7.47e-01	0	37	104	0	69	30634
2026-01-19 03:17:41.32	19.40	16.10	-49.7	-67.5	3.8	7.45e-01	0	36	104	0	69	30590
2026-01-19 03:17:44.34	19.17	16.46	-49.7	-67.5	3.8	7.46e-01	0	37	104	0	69	30530
2026-01-19 03:17:47.37	18.93	16.82	-49.7	-67.5	3.8	7.43e-01	0	37	104	0	69	30624
2026-01-19 03:17:50.39	18.68	17.19	-49.7	-67.5	3.8	7.41e-01	0	37	104	0	69	30643
2026-01-19 03:17:53.42	18.43	17.56	-49.7	-67.5	3.8	7.44e-01	0	37	104	0	69	30632
2026-01-19 03:17:56.44	18.17	17.94	-49.7	-67.5	3.8	7.47e-01	0	37	104	0	69	30605
2026-01-19 03:17:59.46	17.90	18.32	-49.7	-67.5	3.8	7.45e-01	0	37	104	0	69	30585
2026-01-19 03:18:02.48	17.62	18.71	-49.7	-67.5	3.8	7.45e-01	0	37	104	0	69	30527
2026-01-19 03:18:05.51	17.34	19.11	-49.7	-67.5	3.8	7.47e-01	0	37	104	0	69	30541
2026-01-19 03:18:08.53	17.05	19.51	-49.7	-67.5	3.8	7.42e-01	0	37	104	0	69	30500
2026-01-19 03:18:11.56	16.75	19.92	-49.7	-67.5	3.8	7.43e-01	0	37	104	0	69	30540
2026-01-19 03:18:14.59	16.44	20.34	-49.7	-67.5	3.8	7.48e-01	0	37	104	0	69	30565
2026-01-19 03:18:17.61	16.12	20.76	-49.7	-67.5	3.8	7.42e-01	0	36	104	0	69	30590
2026-01-19 03:18:20.64	15.79	21.19	-49.7	-67.5	3.8	7.45e-01	0	37	104	0	69	30571
2026-01-19 03:18:23.66	15.45	21.62	-49.7	-67.5	3.8	7.47e-01	0	37	104	0	69	30638
2026-01-19 03:18:26.69	15.10	22.07	-49.7	-67.5	3.8	7.44e-01	0	37	104	0	69	30601
2026-01-19 03:18:29.71	14.74	22.52	-49.7	-67.5	3.8	7.45e-01	0	37	104	0	69	30591
2026-01-19 03:18:32.74	14.37	22.98	-49.7	-67.5	3.8	7.47e-01	0	37	104	0	69	30606
2026-01-19 03:18:35.76	13.99	23.45	-49.7	-67.5	3.8	7.46e-01	0	37	104	0	69	30578
2026-01-19 03:18:38.79	13.59	23.92	-49.7	-67.5	3.8	7.45e-01	0	37	104	0	69	30652
2026-01-19 03:18:41.81	13.18	24.40	-49.7	-67.5	3.8	7.46e-01	0	37	104	0	69	30642
2026-01-19 03:18:44.83	12.76	24.89	-49.7	-67.5	3.8	7.45e-01	0	37	104	0	69	30661
2026-01-19 03:18:47.86	12.32	25.39	-49.7	-67.5	3.8	7.41e-01	0	37	104	0	69	30576
2026-01-19 03:18:50.88	11.87	25.90	-49.7	-67.5	3.8	7.44e-01	0	37	104	0	69	30534
2026-01-19 03:18:53.91	11.40	26.42	-49.7	-67.5	3.8	7.47e-01	0	37	104	0	69	30601
2026-01-19 03:18:56.93	10.91	26.94	-49.7	-67.5	3.8	7.42e-01	0	37	104	0	69	30622
2026-01-19 03:18:59.95	10.41	27.48	-49.7	-67.5	3.8	7.43e-01	0	37	104	0	69	30634
2026-01-19 03:19:02.97	9.89	28.02	-49.7	-67.5	3.8	7.45e-01	0	37	104	0	69	30597
2026-01-19 03:19:06.00	9.35	28.57	-49.7	-67.5	3.8	7.49e-01	0	37	104	0	69	30626
2026-01-19 03:19:09.02	8.79	29.13	-49.7	-67.5	3.8	7.47e-01	0	37	104	0	69	30585
2026-01-19 03:19:12.05	8.21	29.70	-49.7	-67.5	3.8	7.42e-01	0	37	104	0	69	30573
2026-01-19 03:19:15.07	7.61	30.28	-49.7	-67.5	3.8	7.43e-01	0	37	104	0	69	30526
2026-01-19 03:19:18.10	6.98	30.87	-49.7	-67.5	3.8	7.46e-01	0	37	104	0	69	30661
2026-01-19 03:19:21.12	6.33	31.46	-49.7	-67.5	3.8	7.47e-01	0	37	104	0	69	30689
2026-01-19 03:19:24.14	5.65	32.07	-49.7	-67.5	3.8	7.46e-01	0	37	104	0	69	30616
2026-01-19 03:19:27.17	4.95	32.68	-49.7	-67.5	3.8	7.45e-01	0	37	104	0	69	30650
2026-01-19 03:19:30.19	4.21	33.30	-49.7	-67.5	3.8	7.42e-01	0	37	104	0	69	30643
2026-01-19 03:19:33.21	3.45	33.93	-49.7	-67.5	3.8	7.46e-01	0	37	104	0	69	30619
2026-01-19 03:19:36.24	2.66	34.57	-49.7	-67.5	3.8	7.45e-01	0	37	104	0	69	30542
2026-01-19 03:19:39.26	1.83	35.22	-49.7	-67.5	3.8	7.47e-01	0	37	104	0	69	30613
2026-01-19 03:19:42.28	0.97	35.87	-49.7	-67.5	3.8	7.44e-01	0	37	104	0	69	30597
2026-01-19 03:19:45.31	0.07	36.53	-49.7	-67.5	3.8	7.44e-01	0	37	104	0	69	30605
2026-01-19 03:19:48.33	359.13	37.20	-49.7	-67.5	3.8	7.44e-01	0	37	104	0	69	30686
2026-01-19 03:19:51.36	358.15	37.87	-49.7	-67.5	3.8	7.45e-01	0	37	104	0	69	30608
2026-01-19 03:19:54.38	357.13	38.55	-49.7	-67.5	3.8	7.46e-01	0	37	104	0	69	30647
2026-01-19 03:19:57.40	356.07	39.23	-49.7	-67.5	3.8	7.46e-01	0	37	104	0	69	30629
2026-01-19 03:20:00.42	354.96	39.91	-49.7	-67.5	3.8	7.42e-01	0	37	104	0	69	30647
2026-01-19 03:20:03.45	353.79	40.59	-49.7	-67.5	3.8	7.43e-01	0	37	104	0	69	30641
2026-01-19 03:20:06.47	352.58	41.27	-49.7	-67.5	3.8	7.44e-01	0	37	104	0	69	30611
2026-01-19 03:20:09.49	351.31	41.96	-49.7	-67.5	3.8	7.44e-01	0	37	104	0	69	30601
2026-01-19 03:20:12.52	349.99	42.64	-49.7	-67.5	3.8	7.46e-01	0	37	104	0	69	30665
2026-01-19 03:20:15.54	348.61	43.31	-49.7	-67.5	3.8	7.46e-01	0	37	104	0	69	30660
2026-01-19 03:20:18.56	347.17	43.98	-49.7	-67.5	3.8	7.47e-01	0	37	104	0	69	30629
2026-01-19 03:20:21.59	345.66	44.64	-49.7	-67.5	3.8	7.44e-01	0	37	104	0	69	30700
2026-01-19 03:20:24.61	344.09	45.28	-49.7	-67.5	3.8	7.44e-01	0	37	104	0	69	30655
2026-01-19 03:20:27.64	342.45	45.92	-49.7	-67.5	3.8	7.45e-01	0	37	104	0	69	30649
2026-01-19 03:20:30.66	340.75	46.53	-49.7	-67.5	3.8	7.46e-01	0	37	104	0	69	30591
2026-01-19 03:20:33.69	338.98	47.13	-49.7	-67.5	3.8	7.46e-01	0	37	104	0	69	30567
2026-01-19 03:20:36.71	337.14	47.70	-49.7	-67.5	3.8	7.45e-01	0	37	104	0	69	30547
2026-01-19 03:20:39.74	335.23	48.25	-49.7	-67.5	3.8	7.46e-01	0	37	104	0	69	30612
2026-01-19 03:20:42.76	333.25	48.77	-49.7	-67.5	3.8	7.47e-01	0	37	104	0	69	30637
2026-01-19 03:20:45.79	331.20	49.26	-49.7	-67.5	3.8	7.46e-01	0	37	104	0	69	30623
2026-01-19 03:20:48.81	329.10	49.72	-49.7	-67.5	3.8	7.46e-01	0	37	104	0	69	30679
2026-01-19 03:20:51.84	326.92	50.14	-49.7	-67.5	3.8	7.46e-01	0	37	104	0	69	30641
2026-01-19 03:20:54.86	324.69	50.51	-49.7	-67.5	3.8	7.47e-01	0	37	104	0	69	30643
2026-01-19 03:20:57.88	322.41	50.84	-49.7	-67.5	3.8	7.43e-01	0	37	104	0	69	30619
2026-01-19 03:21:00.90	320.08	51.13	-49.7	-67.5	3.8	7.46e-01	0	37	104	0	69	30662
2026-01-19 03:21:03.92	317.71	51.36	-49.7	-67.5	3.8	7.50e-01	0	37	104	0	69	30630
2026-01-19 03:21:06.95	315.30	51.55	-49.7	-67.5	3.8	7.42e-01	0	37	104	0	69	30655
2026-01-19 03:21:09.97	312.86	51.68	-49.7	-67.5	3.8	7.46e-01	0	37	104	0	69	30605
2026-01-19 03:21:12.98	310.42	51.76	-49.7	-67.5	3.8	7.43e-01	0	37	104	0	69	30645
2026-01-19 03:21:16.01	307.96	51.78	-49.7	-67.5	3.8	7.45e-01	0	37	104	0	69	30573
2026-01-19 03:21:19.03	305.50	51.75	-49.7	-67.5	3.8	7.44e-01	0	37	104	0	69	30648
2026-01-19 03:21:22.06	303.04	51.67	-49.7	-67.5	3.8	7.45e-01	0	37	104	0	69	30604
2026-01-19 03:21:25.08	300.61	51.53	-49.7	-67.5	3.8	7.45e-01	0	37	104	0	69	30652
2026-01-19 03:21:28.10	298.21	51.34	-49.7	-67.5	3.8	7.45e-01	0	37	104	0	69	30563
2026-01-19 03:21:31.13	295.83	51.10	-49.7	-67.5	3.8	7.48e-01	0	37	104	0	69	30608
2026-01-19 03:21:34.15	293.51	50.81	-49.7	-67.5	3.8	7.45e-01	0	37	104	0	69	30608
2026-01-19 03:21:37.17	291.23	50.47	-49.7	-67.5	3.8	7.45e-01	0	37	104	0	69	30587
2026-01-19 03:21:40.20	289.00	50.09	-49.7	-67.5	3.8	7.45e-01	0	37	104	0	69	30557
2026-01-19 03:21:43.22	286.83	49.67	-49.7	-67.5	3.8	7.46e-01	0	37	104	0	69	30614
2026-01-19 03:21:46.25	284.72	49.21	-49.7	-67.5	3.8	7.45e-01	0	37	104	0	69	30615
2026-01-19 03:21:49.27	282.68	48.72	-49.7	-67.5	3.8	7.46e-01	0	37	104	0	69	30574
2026-01-19 03:21:52.30	280.71	48.19	-49.7	-67.5	3.8	7.47e-01	0	37	104	0	69	30660
2026-01-19 03:21:55.32	278.80	47.64	-49.7	-67.5	3.8	7.48e-01	0	37	104	0	69	30596
2026-01-19 03:21:58.34	276.97	47.06	-49.7	-67.5	3.8	7.45e-01	0	37	104	0	69	30570
2026-01-19 03:22:01.37	275.20	46.46	-49.7	-67.5	3.8	7.48e-01	0	37	104	0	69	30592
2026-01-19 03:22:04.39	273.50	45.84	-49.7	-67.5	3.8	7.47e-01	0	37	104	0	69	30615
2026-01-19 03:22:07.42	271.87	45.21	-49.7	-67.5	3.8	7.46e-01	0	37	104	0	69	30629
2026-01-19 03:22:10.44	270.31	44.56	-49.7	-67.5	3.8	7.44e-01	0	37	104	0	69	30556
2026-01-19 03:22:13.47	268.80	43.90	-49.7	-67.5	3.8	7.47e-01	0	37	104	0	69	30630
2026-01-19 03:22:16.50	267.36	43.23	-49.7	-67.5	3.8	7.43e-01	0	37	104	0	69	30577
2026-01-19 03:22:19.52	265.99	42.55	-49.7	-67.5	3.8	7.46e-01	0	37	104	0	69	30544
2026-01-19 03:22:22.54	264.67	41.87	-49.7	-67.5	3.8	7.45e-01	0	37	104	0	69	30643
2026-01-19 03:22:25.57	263.40	41.18	-49.7	-67.5	3.8	7.43e-01	0	37	104	0	69	30648
2026-01-19 03:22:28.60	262.19	40.50	-49.7	-67.5	3.8	7.48e-01	0	37	104	0	69	30569
2026-01-19 03:22:31.62	261.03	39.81	-49.7	-67.5	3.8	7.45e-01	0	37	104	0	69	30584
2026-01-19 03:22:34.65	259.92	39.13	-49.7	-67.5	3.8	7.46e-01	0	37	104	0	69	30548
2026-01-19 03:22:37.67	258.86	38.45	-49.7	-67.5	3.8	7.48e-01	0	37	104	0	69	30614
2026-01-19 03:22:40.69	257.84	37.77	-49.7	-67.5	3.8	7.43e-01	0	37	104	0	69	30552
2026-01-19 03:22:43.72	256.86	37.10	-49.7	-67.5	3.8	7.41e-01	0	37	104	0	69	30577
2026-01-19 03:22:46.74	255.93	36.43	-49.7	-67.5	3.8	7.46e-01	0	37	104	0	69	30561
2026-01-19 03:22:49.77	255.03	35.77	-49.7	-67.5	3.8	7.46e-01	0	37	104	0	69	30529
2026-01-19 03:22:52.80	254.17	35.11	-49.7	-67.5	3.8	7.43e-01	0	37	104	0	69	30531
2026-01-19 03:22:55.82	253.35	34.46	-49.7	-67.5	3.8	7.43e-01	0	37	104	0	69	30596
2026-01-19 03:22:58.84	252.55	33.83	-49.7	-67.5	3.8	7.47e-01	0	37	104	0	69	30526
2026-01-19 03:23:01.87	251.79	33.19	-49.7	-67.5	3.8	7.47e-01	0	37	104	0	69	30611
2026-01-19 03:23:04.89	251.06	32.57	-49.7	-67.5	3.8	7.46e-01	0	37	104	0	69	30577
2026-01-19 03:23:07.92	250.36	31.95	-49.7	-67.5	3.8	7.46e-01	0	37	104	0	69	30517
2026-01-19 03:23:10.94	249.68	31.35	-49.7	-67.5	3.8	7.46e-01	0	37	104	0	69	30554
2026-01-19 03:23:13.96	249.03	30.75	-49.7	-67.5	3.8	7.48e-01	0	37	104	0	69	30570
2026-01-19 03:23:16.98	248.41	30.17	-49.7	-67.5	3.8	7.44e-01	0	37	104	0	69	30607
2026-01-19 03:23:20.01	247.81	29.59	-49.7	-67.5	3.8	7.46e-01	0	37	104	0	69	30630
2026-01-19 03:23:23.03	247.23	29.02	-49.7	-67.5	3.8	7.46e-01	0	37	104	0	69	30558
2026-01-19 03:23:26.05	246.67	28.46	-49.7	-67.5	3.8	7.47e-01	0	37	104	0	69	30561
2026-01-19 03:23:29.08	246.13	27.90	-49.7	-67.5	3.8	7.46e-01	0	37	104	0	69	30582
2026-01-19 03:23:32.10	245.61	27.36	-49.7	-67.5	3.8	7.45e-01	0	37	104	0	69	30625
2026-01-19 03:23:35.13	245.10	26.83	-49.7	-67.5	3.8	7.45e-01	0	37	104	0	69	30557
2026-01-19 03:23:38.15	244.62	26.30	-49.7	-67.5	3.8	7.43e-01	0	37	104	0	69	30603
2026-01-19 03:23:41.18	244.15	25.78	-49.7	-67.5	3.8	7.44e-01	0	37	104	0	69	30540
2026-01-19 03:23:44.20	243.70	25.28	-49.7	-67.5	3.8	7.43e-01	0	37	104	0	69	30592
2026-01-19 03:23:47.23	243.26	24.78	-49.7	-67.5	3.8	7.45e-01	0	37	104	0	69	30465
2026-01-19 03:23:50.25	242.84	24.29	-49.7	-67.5	3.8	7.47e-01	0	37	104	0	69	30549
2026-01-19 03:23:53.27	242.43	23.80	-49.7	-67.5	3.8	7.47e-01	0	37	104	0	69	30649
2026-01-19 03:23:56.30	242.03	23.33	-49.7	-67.5	3.8	7.47e-01	0	37	104	0	69	30579
2026-01-19 03:23:59.32	241.65	22.86	-49.7	-67.5	3.8	7.43e-01	0	37	104	0	69	30575
2026-01-19 03:24:02.35	241.28	22.40	-49.7	-67.5	3.8	7.48e-01	0	37	104	0	69	30531
2026-01-19 03:24:05.37	240.92	21.95	-49.7	-67.5	3.8	7.43e-01	0	37	104	0	69	30577
2026-01-19 03:24:08.39	240.57	21.51	-49.7	-67.5	3.8	7.45e-01	0	37	104	0	69	30571
2026-01-19 03:24:11.41	240.23	21.07	-49.7	-67.5	3.8	7.43e-01	0	37	104	0	69	30602
2026-01-19 03:24:14.44	239.90	20.64	-49.7	-67.5	3.8	7.49e-01	0	37	104	0	69	30619
2026-01-19 03:24:17.46	239.58	20.22	-49.7	-67.5	3.8	7.47e-01	0	37	104	0	69	30587
2026-01-19 03:24:20.49	239.27	19.80	-49.7	-67.5	3.8	7.44e-01	0	37	104	0	69	30543
2026-01-19 03:24:23.51	238.97	19.39	-49.7	-67.5	3.8	7.44e-01	0	37	104	0	69	30550
2026-01-19 03:24:26.53	238.68	18.99	-49.7	-67.5	3.8	7.45e-01	0	37	104	0	69	30552
2026-01-19 03:24:29.56	238.40	18.59	-49.7	-67.5	3.8	7.46e-01	0	37	104	0	69	30544
2026-01-19 03:24:32.59	238.12	18.20	-49.7	-67.5	3.8	7.46e-01	0	37	104	0	69	30598
2026-01-19 03:24:35.61	237.85	17.82	-49.7	-67.5	3.8	7.46e-01	0	37	104	0	69	30541
2026-01-19 03:24:38.64	237.59	17.44	-49.7	-67.5	3.8	7.45e-01	0	37	104	0	69	30514
2026-01-19 03:24:41.66	237.34	17.06	-49.7	-67.5	3.8	7.46e-01	0	37	104	0	69	30532
2026-01-19 03:24:44.69	237.09	16.70	-49.7	-67.5	3.8	7.46e-01	0	37	104	0	69	30535
2026-01-19 03:24:47.71	236.85	16.34	-49.7	-67.5	3.8	7.45e-01	0	37	104	0	69	30552
2026-01-19 03:24:50.73	236.62	15.98	-49.7	-67.5	3.8	7.47e-01	0	37	104	0	69	30597
2026-01-19 03:24:53.76	236.39	15.63	-49.7	-67.5	3.8	7.47e-01	0	37	104	0	69	30536
2026-01-19 03:24:56.78	236.16	15.28	-49.7	-67.5	3.8	7.46e-01	0	37	104	0	69	30594
2026-01-19 03:24:59.80	235.95	14.94	-49.7	-67.5	3.8	7.38e-01	0	37	104	0	69	30559
2026-01-19 03:25:02.83	235.74	14.60	-49.7	-67.5	3.8	7.45e-01	0	37	104	0	69	30622
2026-01-19 03:25:05.85	235.53	14.27	-49.7	-67.5	3.8	7.48e-01	0	37	104	0	69	30599
2026-01-19 03:25:08.87	235.33	13.95	-49.7	-67.5	3.8	7.44e-01	0	37	104	0	69	30601
2026-01-19 03:25:11.90	235.13	13.62	-49.7	-67.5	3.8	7.45e-01	0	37	104	0	69	30518
2026-01-19 03:25:14.92	234.94	13.31	-49.7	-67.5	3.8	7.38e-01	0	37	104	0	69	30608
2026-01-19 03:25:17.95	234.75	12.99	-49.7	-67.5	3.8	7.49e-01	0	37	104	0	69	30628
2026-01-19 03:25:20.97	234.57	12.68	-49.7	-67.5	3.8	7.49e-01	0	37	104	0	69	30642
2026-01-19 03:25:24.00	234.39	12.37	-49.7	-67.5	3.8	7.45e-01	0	37	104	0	69	30588
2026-01-19 03:25:27.02	234.22	12.07	-49.7	-67.5	3.8	7.46e-01	0	37	104	0	69	30580
2026-01-19 03:25:30.04	234.05	11.78	-49.7	-67.5	3.8	7.49e-01	0	37	104	0	69	30633
2026-01-19 03:25:33.06	233.88	11.48	-49.7	-67.5	3.8	7.44e-01	0	37	104	0	69	30583
2026-01-19 03:25:36.09	233.72	11.19	-49.7	-67.5	3.8	7.41e-01	0	37	104	0	69	30516
2026-01-19 03:25:39.11	233.56	10.90	-49.7	-67.5	3.8	7.47e-01	0	37	104	0	69	30603
2026-01-19 03:25:42.13	233.41	10.62	-49.7	-67.5	3.8	7.46e-01	0	37	104	0	69	30569
2026-01-19 03:25:45.16	233.25	10.34	-49.7	-67.5	3.8	7.48e-01	0	37	104	0	69	30564
2026-01-19 03:25:48.18	233.10	10.06	-49.7	-67.5	3.8	7.45e-01	0	37	104	0	69	30584
2026-01-19 03:25:51.20	232.96	9.79	-49.7	-67.5	3.8	7.45e-01	0	37	104	0	69	30542
2026-01-19 03:25:54.23	232.82	9.52	-49.7	-67.5	3.8	7.47e-01	0	37	104	0	69	30546
2026-01-19 03:25:57.26	232.68	9.25	-49.7	-67.5	3.8	7.45e-01	0	37	104	0	69	30552
2026-01-19 03:26:00.28	232.54	8.99	-49.7	-67.5	3.8	7.48e-01	0	37	104	0	69	30542
2026-01-19 03:26:03.30	232.41	8.72	-49.7	-67.5	3.8	7.48e-01	0	37	104	0	69	30610
2026-01-19 03:26:06.33	232.27	8.46	-49.7	-67.5	3.8	7.45e-01	0	37	104	0	69	30596
2026-01-19 03:26:09.35	232.15	8.21	-49.7	-67.5	3.8	7.45e-01	0	37	104	0	69	30570
2026-01-19 03:26:12.38	232.02	7.96	-49.7	-67.5	3.8	7.45e-01	0	37	104	0	69	30574
2026-01-19 03:26:15.40	231.90	7.71	-49.7	-67.5	3.8	7.44e-01	0	37	104	0	69	30562
2026-01-19 03:26:18.42	231.78	7.46	-49.7	-67.5	3.8	7.46e-01	0	37	104	0	69	30558
2026-01-19 03:26:21.45	231.66	7.21	-49.7	-67.5	3.8	7.46e-01	0	37	104	0	69	30617
2026-01-19 03:26:24.47	231.54	6.97	-49.7	-67.5	3.8	7.45e-01	0	37	104	0	69	30582
2026-01-19 03:26:27.50	231.43	6.73	-49.7	-67.5	3.8	7.45e-01	0	37	104	0	69	30552
2026-01-19 03:26:30.52	231.32	6.49	-49.7	-67.5	3.8	7.45e-01	0	37	104	0	69	30590
2026-01-19 03:26:33.55	231.21	6.25	-49.7	-67.5	3.8	7.47e-01	0	37	104	0	69	30619
2026-01-19 03:26:36.57	231.10	6.02	-49.7	-67.5	3.8	7.46e-01	0	37	104	0	69	30574
2026-01-19 03:26:39.59	230.99	5.79	-49.7	-67.5	3.8	7.46e-01	0	37	104	0	69	30565
2026-01-19 03:26:42.62	230.89	5.56	-49.7	-67.5	3.8	7.45e-01	0	37	104	0	69	30549
2026-01-19 03:26:45.64	230.79	5.33	-49.7	-67.5	3.8	7.47e-01	0	37	104	0	69	30565
2026-01-19 03:26:48.67	230.69	5.11	-49.7	-67.5	3.8	7.45e-01	0	37	104	0	69	30625
2026-01-19 03:26:51.69	230.59	4.88	-49.7	-67.5	3.8	7.47e-01	0	37	104	0	69	30614
2026-01-19 03:26:54.72	230.49	4.66	-49.7	-67.5	3.8	7.46e-01	0	37	104	0	69	30584
2026-01-19 03:26:57.74	230.40	4.44	-49.7	-67.5	3.8	7.44e-01	0	37	104	0	69	30596
2026-01-19 03:27:00.76	230.31	4.23	-49.7	-67.5	3.8	7.47e-01	0	37	104	0	69	30650
2026-01-19 03:27:03.79	230.22	4.01	-49.7	-67.5	3.8	7.45e-01	0	37	104	0	69	30641
2026-01-19 03:27:06.81	230.13	3.80	-49.7	-67.5	3.8	7.44e-01	0	37	104	0	69	30586
2026-01-19 03:27:09.84	230.04	3.59	-49.7	-67.5	3.8	7.43e-01	0	37	104	0	69	30581
2026-01-19 03:27:12.86	229.95	3.38	-49.7	-67.5	3.8	7.45e-01	0	37	104	0	69	30549
2026-01-19 03:27:15.88	229.87	3.17	-49.7	-67.5	3.8	7.48e-01	0	37	104	0	69	30624
2026-01-19 03:27:18.91	229.78	2.96	-49.7	-67.5	3.8	7.43e-01	0	37	104	0	69	30588
2026-01-19 03:27:21.93	229.70	2.76	-49.7	-67.5	3.8	7.45e-01	0	37	104	0	69	30632
2026-01-19 03:27:24.96	229.62	2.55	-49.7	-67.5	3.8	7.44e-01	0	37	104	0	69	30588
2026-01-19 03:27:27.98	229.54	2.35	-49.7	-67.5	3.8	7.46e-01	0	37	104	0	69	30562
2026-01-19 03:27:31.00	229.46	2.15	-49.7	-67.5	3.8	7.45e-01	0	37	104	0	69	30530

#Closed at: 2026-01-19 03:27:33
#Recorded file [0 MB]: D:/lorett/data/31041_260119_061457.dat