passes_logs/2026/01/19/R3.2S_Murmansk/R3.2S_Murmansk__20260119_103618_JILIN-01_KUANFU_02B_5_rec.log

#Pass ID: 20260119_103618_JILIN-01 KUANFU 02B 5
#Satellite: JILIN-01 KUANFU 02B 5
#Configuration: 01B_900M
#almurnet v.1.7.20251203
#Start time: 2026-01-19 10:36:18

#Version: 2.2.20231116
#Station: R3.2S_Murmansk
#Location: 33.079688 lon 68.888172 lat
#TLE: 1 61193U 24169E   26018.96157998  .00004469  00000+0  28079-3 0  9994
#TLE: 2 61193  97.5744 110.7813 0013795 121.3515 238.9066 15.09689719 73326

#Time	Az	El	Level	Level2	SNR	BER	BlckErr	Temp	State	Recorded	gain1	gain2
2026-01-19 10:36:18.05	21.34	1.96	-52.7	-54.8	6.3	0.00e+00	0	38	0	0	77	17889
2026-01-19 10:36:21.08	21.34	2.16	-52.7	-54.8	6.2	0.00e+00	0	38	104	0	76	18886
2026-01-19 10:36:24.11	21.34	2.38	-52.7	-54.8	6.2	0.00e+00	0	38	104	0	76	18951
2026-01-19 10:36:27.13	21.35	2.59	-52.7	-54.8	6.2	0.00e+00	0	38	104	0	76	18936
2026-01-19 10:36:30.15	21.35	2.80	-52.6	-54.8	6.2	0.00e+00	0	38	104	0	76	18865
2026-01-19 10:36:33.18	21.35	3.02	-52.6	-54.8	6.2	0.00e+00	0	38	104	0	76	18940
2026-01-19 10:36:36.20	21.35	3.24	-52.6	-54.8	6.2	0.00e+00	0	39	104	0	76	18844
2026-01-19 10:36:39.23	21.36	3.46	-52.6	-54.8	6.2	0.00e+00	0	39	104	0	76	18834
2026-01-19 10:36:42.25	21.36	3.69	-52.6	-54.8	6.2	0.00e+00	0	39	104	0	76	18882
2026-01-19 10:36:45.27	21.36	3.91	-52.6	-54.8	6.2	0.00e+00	0	39	104	0	76	18868
2026-01-19 10:36:48.30	21.36	4.14	-52.6	-54.8	6.2	0.00e+00	0	39	104	0	76	18835
2026-01-19 10:36:51.33	21.36	4.37	-52.6	-54.8	6.2	0.00e+00	0	39	104	0	76	18882
2026-01-19 10:36:54.35	21.36	4.61	-52.6	-54.8	6.2	0.00e+00	0	39	104	0	76	18856
2026-01-19 10:36:57.38	21.36	4.84	-52.6	-54.8	6.2	0.00e+00	0	39	104	0	76	18835
2026-01-19 10:37:00.40	21.36	5.08	-52.6	-54.8	6.2	0.00e+00	0	39	104	0	76	18884
2026-01-19 10:37:03.42	21.36	5.33	-52.7	-54.9	6.2	0.00e+00	0	39	104	0	76	19108
2026-01-19 10:37:06.45	21.36	5.57	-52.7	-54.9	6.2	0.00e+00	0	39	104	0	76	19081
2026-01-19 10:37:09.47	21.36	5.82	-52.7	-54.8	6.2	0.00e+00	0	39	104	0	76	19030
2026-01-19 10:37:12.50	21.36	6.07	-52.8	-54.9	6.2	0.00e+00	0	39	104	0	76	19246
2026-01-19 10:37:15.52	21.36	6.32	-52.9	-55.0	6.2	0.00e+00	0	39	104	0	76	19430
2026-01-19 10:37:18.55	21.36	6.58	-52.9	-55.0	6.2	0.00e+00	0	39	104	0	76	19352
2026-01-19 10:37:21.57	21.36	6.84	-52.9	-55.0	6.2	0.00e+00	0	39	104	0	76	19412
2026-01-19 10:37:24.59	21.36	7.11	-52.9	-55.1	6.2	0.00e+00	0	39	104	0	76	19542
2026-01-19 10:37:27.61	21.35	7.38	-53.0	-55.2	6.2	0.00e+00	0	40	104	0	76	19742
2026-01-19 10:37:30.64	21.35	7.65	-53.0	-55.2	6.2	0.00e+00	0	39	104	0	76	19705
2026-01-19 10:37:33.66	21.35	7.92	-53.0	-55.2	6.2	0.00e+00	0	40	104	0	76	19743
2026-01-19 10:37:36.68	21.35	8.20	-53.0	-55.2	6.2	0.00e+00	0	40	104	0	76	19754
2026-01-19 10:37:39.71	21.34	8.49	-53.1	-55.3	6.2	0.00e+00	0	40	104	0	76	20040
2026-01-19 10:37:42.73	21.34	8.78	-53.1	-55.3	6.2	0.00e+00	0	40	104	0	76	19962
2026-01-19 10:37:45.75	21.33	9.07	-53.2	-55.3	6.2	0.00e+00	0	40	104	0	76	20033
2026-01-19 10:37:48.78	21.33	9.36	-53.1	-55.3	6.2	0.00e+00	0	40	104	0	76	20003
2026-01-19 10:37:51.80	21.32	9.67	-53.2	-55.4	6.2	0.00e+00	0	40	104	0	77	19153
2026-01-19 10:37:54.83	21.32	9.97	-53.2	-55.3	6.2	0.00e+00	0	40	104	0	77	19030
2026-01-19 10:37:57.85	21.31	10.28	-53.3	-55.4	6.2	0.00e+00	0	40	104	0	77	19117
2026-01-19 10:38:00.88	21.30	10.60	-53.2	-55.4	6.2	0.00e+00	0	40	104	0	77	19089
2026-01-19 10:38:03.90	21.30	10.92	-53.3	-55.5	6.2	0.00e+00	0	40	104	0	77	19326
2026-01-19 10:38:06.92	21.29	11.25	-53.3	-55.4	6.2	0.00e+00	0	40	104	0	77	19199
2026-01-19 10:38:09.95	21.28	11.58	-53.3	-55.5	6.2	0.00e+00	0	40	104	0	77	19286
2026-01-19 10:38:12.98	21.27	11.92	-53.3	-55.5	6.2	0.00e+00	0	40	104	0	77	19272
2026-01-19 10:38:16.00	21.26	12.27	-53.3	-55.5	6.2	0.00e+00	0	40	104	0	77	19449
2026-01-19 10:38:19.02	21.25	12.62	-53.4	-55.5	6.2	0.00e+00	0	40	104	0	77	19438
2026-01-19 10:38:22.05	21.24	12.98	-53.4	-55.6	6.2	0.00e+00	0	40	104	0	77	19508
2026-01-19 10:38:25.07	21.23	13.34	-53.4	-55.6	6.2	0.00e+00	0	40	104	0	77	19504
2026-01-19 10:38:28.09	21.22	13.71	-53.4	-55.6	6.2	0.00e+00	0	40	104	0	77	19586
2026-01-19 10:38:31.12	21.20	14.09	-53.5	-55.6	6.2	0.00e+00	0	40	104	0	77	19614
2026-01-19 10:38:34.15	21.19	14.48	-53.5	-55.6	6.2	0.00e+00	0	40	104	0	77	19642
2026-01-19 10:38:37.17	21.18	14.88	-53.5	-55.6	6.2	0.00e+00	0	40	104	0	77	19629
2026-01-19 10:38:40.19	21.16	15.28	-53.4	-55.6	6.2	0.00e+00	0	40	104	0	77	19704
2026-01-19 10:38:43.22	21.14	15.69	-53.5	-55.7	6.2	0.00e+00	0	40	104	0	77	19809
2026-01-19 10:38:46.24	21.13	16.11	-53.5	-55.7	6.2	0.00e+00	0	40	104	0	77	19758
2026-01-19 10:38:49.27	21.11	16.54	-53.6	-55.7	6.2	0.00e+00	0	40	104	0	77	19769
2026-01-19 10:38:52.29	21.09	16.98	-53.5	-55.7	6.2	0.00e+00	0	40	104	0	77	19814
2026-01-19 10:38:55.31	21.07	17.43	-53.6	-55.7	6.2	0.00e+00	0	40	104	0	77	19862
2026-01-19 10:38:58.34	21.05	17.90	-53.6	-55.7	6.2	0.00e+00	0	40	104	0	77	19905
2026-01-19 10:39:01.36	21.02	18.37	-53.6	-55.7	6.2	0.00e+00	0	40	104	0	77	19913
2026-01-19 10:39:04.38	21.00	18.85	-53.6	-55.7	6.2	0.00e+00	0	40	104	0	77	19924
2026-01-19 10:39:07.41	20.97	19.35	-53.6	-55.8	6.2	0.00e+00	0	40	104	0	77	19989
2026-01-19 10:39:10.43	20.95	19.86	-53.6	-55.8	6.2	0.00e+00	0	40	104	0	77	19959
2026-01-19 10:39:13.45	20.92	20.38	-53.7	-55.8	6.2	0.00e+00	0	40	104	0	77	19994
2026-01-19 10:39:16.48	20.89	20.91	-53.6	-55.8	6.2	0.00e+00	0	40	104	0	77	20101
2026-01-19 10:39:19.51	20.86	21.46	-53.6	-55.8	6.2	0.00e+00	0	40	104	0	77	20124
2026-01-19 10:39:22.53	20.82	22.03	-53.6	-55.8	6.2	0.00e+00	0	40	104	0	77	20099
2026-01-19 10:39:25.56	20.79	22.61	-53.7	-55.9	6.2	0.00e+00	0	40	104	0	78	19151
2026-01-19 10:39:28.58	20.75	23.21	-53.7	-55.9	6.2	0.00e+00	0	40	104	0	78	19187
2026-01-19 10:39:31.60	20.71	23.82	-53.7	-55.9	6.2	0.00e+00	0	40	104	0	78	19091
2026-01-19 10:39:34.63	20.67	24.45	-53.7	-55.9	6.2	0.00e+00	0	40	104	0	78	19188
2026-01-19 10:39:37.65	20.62	25.10	-53.8	-55.9	6.2	0.00e+00	0	40	104	0	78	19231
2026-01-19 10:39:40.68	20.57	25.77	-53.8	-56.0	6.2	0.00e+00	0	40	104	0	78	19292
2026-01-19 10:39:43.70	20.52	26.46	-53.7	-56.0	6.2	0.00e+00	0	40	104	0	78	19277
2026-01-19 10:39:46.72	20.47	27.18	-53.8	-56.0	6.2	0.00e+00	0	40	104	0	78	19353
2026-01-19 10:39:49.75	20.41	27.91	-53.9	-56.0	6.2	0.00e+00	0	40	104	0	78	19381
2026-01-19 10:39:52.77	20.35	28.67	-53.9	-56.0	6.2	0.00e+00	0	40	104	0	78	19471
2026-01-19 10:39:55.79	20.29	29.46	-53.6	-56.0	6.2	0.00e+00	0	40	104	0	78	19321
2026-01-19 10:39:58.82	20.22	30.27	-53.9	-56.1	6.2	0.00e+00	0	40	104	0	78	19539
2026-01-19 10:40:01.84	20.15	31.11	-53.9	-56.1	6.2	0.00e+00	0	40	104	0	78	19519
2026-01-19 10:40:04.87	20.07	31.98	-53.9	-56.1	6.2	0.00e+00	0	40	104	0	78	19583
2026-01-19 10:40:07.89	19.99	32.88	-53.6	-56.0	6.2	0.00e+00	0	40	104	0	78	19387
2026-01-19 10:40:10.91	19.90	33.81	-53.9	-56.1	6.2	0.00e+00	0	40	104	0	78	19614
2026-01-19 10:40:13.93	19.80	34.77	-54.0	-56.1	6.2	0.00e+00	0	40	104	0	78	19650
2026-01-19 10:40:16.96	19.70	35.77	-54.0	-56.2	6.2	0.00e+00	0	40	104	0	78	19723
2026-01-19 10:40:19.98	19.59	36.80	-53.8	-56.1	6.2	0.00e+00	0	40	104	0	78	19587
2026-01-19 10:40:23.01	19.47	37.88	-54.0	-56.2	6.2	0.00e+00	0	40	104	0	78	19804
2026-01-19 10:40:26.03	19.34	39.00	-54.1	-56.2	6.2	0.00e+00	0	40	104	0	78	19846
2026-01-19 10:40:29.06	19.20	40.16	-54.1	-56.3	6.2	0.00e+00	0	40	104	0	78	19954
2026-01-19 10:40:32.08	19.05	41.36	-53.8	-56.2	6.2	0.00e+00	0	40	104	0	78	19829
2026-01-19 10:40:35.10	18.88	42.60	-54.1	-56.3	6.2	0.00e+00	0	40	104	0	78	20059
2026-01-19 10:40:38.13	18.70	43.90	-54.2	-56.3	6.2	0.00e+00	0	40	104	0	78	20065
2026-01-19 10:40:41.15	18.51	45.24	-54.2	-56.3	6.2	0.00e+00	0	41	104	0	78	20078
2026-01-19 10:40:44.17	18.29	46.64	-53.8	-56.2	6.2	0.00e+00	0	40	104	0	78	19848
2026-01-19 10:40:47.20	18.05	48.09	-54.2	-56.4	6.2	0.00e+00	0	40	104	0	78	20196
2026-01-19 10:40:50.22	17.79	49.60	-54.2	-56.4	6.2	0.00e+00	0	40	104	0	79	19129
2026-01-19 10:40:53.24	17.49	51.16	-54.3	-56.4	6.2	0.00e+00	0	40	104	0	79	19124
2026-01-19 10:40:56.26	17.16	52.78	-54.0	-56.3	6.2	0.00e+00	0	41	104	0	79	18982
2026-01-19 10:40:59.29	16.79	54.46	-54.2	-56.4	6.2	0.00e+00	0	41	104	0	79	19193
2026-01-19 10:41:02.31	16.37	56.20	-54.3	-56.5	6.2	0.00e+00	0	41	104	0	79	19304
2026-01-19 10:41:05.33	15.89	58.00	-54.3	-56.4	6.2	0.00e+00	0	41	104	0	79	19252
2026-01-19 10:41:08.36	15.33	59.87	-54.1	-56.4	6.2	0.00e+00	0	41	104	0	79	19137
2026-01-19 10:41:11.38	14.69	61.78	-54.2	-56.5	6.2	0.00e+00	0	41	104	0	79	19343
2026-01-19 10:41:14.41	13.93	63.77	-54.3	-56.5	6.2	0.00e+00	0	41	104	0	79	19368
2026-01-19 10:41:17.43	13.02	65.80	-54.3	-56.5	6.2	0.00e+00	0	41	104	0	79	19267
2026-01-19 10:41:20.46	11.92	67.88	-54.3	-56.5	6.2	0.00e+00	0	41	104	0	79	19422
2026-01-19 10:41:23.49	10.56	70.02	-54.2	-56.5	6.2	0.00e+00	0	41	104	0	79	19310
2026-01-19 10:41:26.51	8.85	72.18	-54.3	-56.5	6.2	0.00e+00	0	41	104	0	79	19425
2026-01-19 10:41:29.54	6.61	74.38	-54.4	-56.5	6.2	0.00e+00	0	40	104	0	79	19457
2026-01-19 10:41:32.56	3.61	76.59	-54.4	-56.5	6.2	0.00e+00	0	41	104	0	79	19472
2026-01-19 10:41:35.58	359.38	78.77	-54.3	-56.6	6.2	0.00e+00	0	41	104	0	79	19518
2026-01-19 10:41:38.60	353.07	80.90	-54.4	-56.6	6.2	0.00e+00	0	41	104	0	79	19504
2026-01-19 10:41:41.63	342.99	82.88	-54.5	-56.6	6.2	0.00e+00	0	41	104	0	79	19559
2026-01-19 10:41:44.65	326.14	84.49	-54.4	-56.6	6.2	0.00e+00	0	41	104	0	79	19505
2026-01-19 10:41:47.67	299.85	85.33	-54.4	-56.6	6.2	0.00e+00	0	41	104	0	79	19593
2026-01-19 10:41:50.69	270.88	84.96	-54.4	-56.6	6.2	0.00e+00	0	41	104	0	79	19678
2026-01-19 10:41:53.72	250.12	83.60	-54.4	-56.6	6.2	0.00e+00	0	41	104	0	79	19583
2026-01-19 10:41:56.74	237.73	81.74	-54.4	-56.6	6.2	0.00e+00	0	41	104	0	79	19583
2026-01-19 10:41:59.76	230.15	79.66	-54.3	-56.6	6.2	0.00e+00	0	41	104	0	79	19512
2026-01-19 10:42:02.78	225.20	77.49	-54.4	-56.6	6.2	0.00e+00	0	41	104	0	79	19642
2026-01-19 10:42:05.81	221.76	75.27	-54.5	-56.6	6.2	0.00e+00	0	41	104	0	79	19579
2026-01-19 10:42:08.83	219.25	73.07	-54.4	-56.6	6.2	0.00e+00	0	41	104	0	79	19538
2026-01-19 10:42:11.86	217.34	70.88	-54.1	-56.5	6.2	0.00e+00	0	41	104	0	79	19330
2026-01-19 10:42:14.88	215.85	68.74	-54.3	-56.6	6.2	0.00e+00	0	40	104	0	79	19527
2026-01-19 10:42:17.91	214.66	66.62	-54.4	-56.5	6.2	0.00e+00	0	41	104	0	79	19461
2026-01-19 10:42:20.93	213.68	64.57	-54.4	-56.5	6.2	0.00e+00	0	41	104	0	79	19427
2026-01-19 10:42:23.95	212.86	62.56	-54.1	-56.4	6.2	0.00e+00	0	41	104	0	79	19202
2026-01-19 10:42:26.97	212.17	60.62	-54.3	-56.5	6.2	0.00e+00	0	41	104	0	79	19467
2026-01-19 10:42:30.00	211.58	58.72	-54.3	-56.5	6.2	0.00e+00	0	41	104	0	79	19407
2026-01-19 10:42:33.02	211.07	56.89	-54.3	-56.5	6.2	0.00e+00	0	41	104	0	79	19293
2026-01-19 10:42:36.04	210.63	55.12	-54.0	-56.4	6.2	0.00e+00	0	41	104	0	79	19081
2026-01-19 10:42:39.07	210.24	53.41	-54.2	-56.4	6.2	0.00e+00	0	40	104	0	79	19209
2026-01-19 10:42:42.09	209.89	51.76	-54.2	-56.4	6.2	0.00e+00	0	41	104	0	79	19215
2026-01-19 10:42:45.11	209.58	50.17	-54.2	-56.4	6.2	0.00e+00	0	41	104	0	79	19180
2026-01-19 10:42:48.14	209.30	48.63	-53.9	-56.3	6.2	0.00e+00	0	41	104	0	79	18834
2026-01-19 10:42:51.16	209.05	47.16	-54.1	-56.4	6.2	0.00e+00	0	41	104	0	79	19100
2026-01-19 10:42:54.19	208.83	45.73	-54.1	-56.3	6.2	0.00e+00	0	41	104	0	79	19031
2026-01-19 10:42:57.21	208.62	44.36	-54.2	-56.3	6.2	0.00e+00	0	41	104	0	79	19024
2026-01-19 10:43:00.22	208.44	43.05	-53.8	-56.2	6.2	0.00e+00	0	41	104	0	79	18756
2026-01-19 10:43:03.25	208.26	41.77	-54.0	-56.3	6.2	0.00e+00	0	41	104	0	79	18881
2026-01-19 10:43:06.27	208.11	40.55	-54.0	-56.2	6.2	0.00e+00	0	41	104	0	79	18795
2026-01-19 10:43:09.29	207.96	39.37	-54.1	-56.3	6.2	0.00e+00	0	41	104	0	79	18925
2026-01-19 10:43:12.31	207.83	38.24	-53.7	-56.1	6.2	0.00e+00	0	41	104	0	79	18538
2026-01-19 10:43:15.33	207.70	37.14	-54.0	-56.2	6.2	0.00e+00	0	41	104	0	79	18802
2026-01-19 10:43:18.36	207.59	36.09	-53.9	-56.2	6.2	0.00e+00	0	41	104	0	79	18665
2026-01-19 10:43:21.38	207.48	35.07	-54.1	-56.2	6.2	0.00e+00	0	41	104	0	79	18747
2026-01-19 10:43:24.41	207.38	34.09	-53.8	-56.1	6.2	0.00e+00	0	41	104	0	79	18545
2026-01-19 10:43:27.44	207.29	33.14	-53.9	-56.2	6.2	0.00e+00	0	41	104	0	79	18657
2026-01-19 10:43:30.46	207.21	32.22	-53.8	-56.1	6.2	0.00e+00	0	41	104	0	79	18515
2026-01-19 10:43:33.48	207.12	31.34	-54.0	-56.2	6.2	0.00e+00	0	41	104	0	79	18619
2026-01-19 10:43:36.51	207.05	30.49	-53.8	-56.1	6.2	0.00e+00	0	41	104	0	79	18455
2026-01-19 10:43:39.53	206.98	29.66	-53.8	-56.1	6.2	0.00e+00	0	41	104	0	79	18437
2026-01-19 10:43:42.55	206.91	28.87	-53.8	-56.1	6.2	0.00e+00	0	41	104	0	79	18416
2026-01-19 10:43:45.58	206.85	28.09	-53.9	-56.1	6.2	0.00e+00	0	41	104	0	79	18481
2026-01-19 10:43:48.60	206.79	27.35	-53.8	-56.1	6.2	0.00e+00	0	40	104	0	79	18452
2026-01-19 10:43:51.62	206.73	26.62	-53.8	-56.0	6.2	0.00e+00	0	41	104	0	79	18316
2026-01-19 10:43:54.64	206.68	25.92	-53.7	-56.0	6.2	0.00e+00	0	41	104	0	79	18256
2026-01-19 10:43:57.67	206.63	25.24	-53.8	-56.0	6.2	0.00e+00	0	41	104	0	79	18295
2026-01-19 10:44:00.70	206.59	24.58	-53.8	-56.0	6.2	0.00e+00	0	41	104	0	79	18276
2026-01-19 10:44:03.72	206.54	23.94	-53.7	-56.0	6.2	0.00e+00	0	41	104	0	79	18221
2026-01-19 10:44:06.74	206.50	23.31	-53.8	-56.0	6.2	0.00e+00	0	41	104	0	79	18277
2026-01-19 10:44:09.77	206.46	22.71	-53.8	-56.0	6.2	0.00e+00	0	41	104	0	79	18188
2026-01-19 10:44:12.79	206.42	22.12	-53.8	-56.0	6.2	0.00e+00	0	41	104	0	79	18236
2026-01-19 10:44:15.82	206.39	21.55	-53.7	-55.9	6.2	0.00e+00	0	41	104	0	79	18123
2026-01-19 10:44:18.84	206.35	20.99	-53.7	-55.9	6.2	0.00e+00	0	41	104	0	79	18158
2026-01-19 10:44:21.86	206.32	20.45	-53.7	-55.9	6.2	0.00e+00	0	41	104	0	79	18034
2026-01-19 10:44:24.89	206.29	19.92	-53.8	-55.9	6.2	0.00e+00	0	41	104	0	79	18018
2026-01-19 10:44:27.91	206.26	19.40	-53.7	-55.8	6.2	0.00e+00	0	41	104	0	79	17921
2026-01-19 10:44:30.93	206.24	18.90	-53.7	-55.8	6.2	0.00e+00	0	41	104	0	79	17968
2026-01-19 10:44:33.96	206.21	18.41	-53.7	-55.8	6.2	0.00e+00	0	41	104	0	79	17968
2026-01-19 10:44:36.98	206.19	17.93	-53.7	-55.9	6.2	0.00e+00	0	41	104	0	79	18029
2026-01-19 10:44:40.01	206.16	17.47	-53.6	-55.8	6.2	0.00e+00	0	40	104	0	79	17866
2026-01-19 10:44:43.03	206.14	17.01	-53.6	-55.8	6.2	0.00e+00	0	41	104	0	79	17864
2026-01-19 10:44:46.05	206.12	16.57	-53.6	-55.8	6.2	0.00e+00	0	41	104	0	79	17845
2026-01-19 10:44:49.07	206.10	16.13	-53.6	-55.8	6.2	0.00e+00	0	41	104	0	79	17871
2026-01-19 10:44:52.09	206.08	15.71	-53.6	-55.7	6.2	0.00e+00	0	41	104	0	79	17758
2026-01-19 10:44:55.12	206.06	15.29	-53.6	-55.7	6.2	0.00e+00	0	41	104	0	79	17737
2026-01-19 10:44:58.14	206.04	14.88	-53.6	-55.7	6.2	0.00e+00	0	41	104	0	79	17718
2026-01-19 10:45:01.16	206.03	14.48	-53.6	-55.7	6.2	0.00e+00	0	41	104	0	79	17693
2026-01-19 10:45:04.19	206.01	14.09	-53.5	-55.7	6.2	0.00e+00	0	41	104	0	79	17592
2026-01-19 10:45:07.21	206.00	13.71	-53.5	-55.6	6.2	0.00e+00	0	41	104	0	78	18599
2026-01-19 10:45:10.23	205.98	13.33	-53.5	-55.6	6.2	0.00e+00	0	41	104	0	78	18569
2026-01-19 10:45:13.26	205.97	12.96	-53.5	-55.6	6.2	0.00e+00	0	41	104	0	78	18531
2026-01-19 10:45:16.28	205.96	12.60	-53.4	-55.6	6.2	0.00e+00	0	41	104	0	78	18480
2026-01-19 10:45:19.31	205.95	12.24	-53.4	-55.6	6.2	0.00e+00	0	40	104	0	78	18435
2026-01-19 10:45:22.33	205.94	11.90	-53.4	-55.5	6.2	0.00e+00	0	41	104	0	78	18370
2026-01-19 10:45:25.36	205.93	11.55	-53.4	-55.5	6.2	0.00e+00	0	41	104	0	78	18355
2026-01-19 10:45:28.38	205.92	11.22	-53.3	-55.5	6.2	0.00e+00	0	41	104	0	78	18286
2026-01-19 10:45:31.40	205.91	10.89	-53.3	-55.5	6.2	0.00e+00	0	41	104	0	78	18231
2026-01-19 10:45:34.43	205.90	10.56	-53.3	-55.5	6.2	0.00e+00	0	41	104	0	78	18191
2026-01-19 10:45:37.45	205.89	10.24	-53.3	-55.5	6.2	0.00e+00	0	41	104	0	78	18225
2026-01-19 10:45:40.47	205.88	9.93	-53.2	-55.4	6.2	0.00e+00	0	41	104	0	78	18107
2026-01-19 10:45:43.50	205.87	9.62	-53.2	-55.4	6.2	0.00e+00	0	41	104	0	78	18005
2026-01-19 10:45:46.52	205.87	9.32	-53.2	-55.3	6.2	0.00e+00	0	40	104	0	78	17971
2026-01-19 10:45:49.55	205.86	9.02	-53.2	-55.3	6.2	0.00e+00	0	41	104	0	78	17945
2026-01-19 10:45:52.57	205.85	8.72	-53.2	-55.4	6.2	0.00e+00	0	40	104	0	78	17987
2026-01-19 10:45:55.60	205.85	8.43	-53.1	-55.3	6.2	0.00e+00	0	41	104	0	78	17811
2026-01-19 10:45:58.62	205.84	8.15	-53.1	-55.3	6.2	0.00e+00	0	40	104	0	78	17796
2026-01-19 10:46:01.64	205.84	7.86	-53.1	-55.2	6.2	0.00e+00	0	40	104	0	78	17759
2026-01-19 10:46:04.67	205.83	7.59	-53.1	-55.3	6.2	0.00e+00	0	41	104	0	78	17869
2026-01-19 10:46:07.69	205.83	7.31	-53.0	-55.2	6.2	0.00e+00	0	41	104	0	78	17565
2026-01-19 10:46:10.71	205.82	7.04	-53.0	-55.2	6.2	0.00e+00	0	41	104	0	78	17593
2026-01-19 10:46:13.74	205.82	6.78	-53.0	-55.1	6.2	0.00e+00	0	41	104	0	77	18504
2026-01-19 10:46:16.76	205.82	6.51	-53.0	-55.1	6.2	0.00e+00	0	41	104	0	77	18574
2026-01-19 10:46:19.78	205.81	6.25	-52.8	-55.0	6.2	0.00e+00	0	41	104	0	77	18209
2026-01-19 10:46:22.81	205.81	6.00	-52.8	-55.0	6.2	0.00e+00	0	41	104	0	77	18281
2026-01-19 10:46:25.83	205.81	5.74	-52.8	-55.0	6.2	0.00e+00	0	41	104	0	77	18205
2026-01-19 10:46:28.85	205.81	5.50	-52.9	-55.0	6.2	0.00e+00	0	41	104	0	77	18240
2026-01-19 10:46:31.88	205.81	5.25	-52.6	-54.8	6.2	0.00e+00	0	41	104	0	77	17813
2026-01-19 10:46:34.91	205.80	5.00	-52.9	-55.0	6.2	0.00e+00	0	41	104	0	77	18384
2026-01-19 10:46:37.93	205.80	4.76	-53.7	-55.9	6.2	0.00e+00	0	41	104	0	77	20219
2026-01-19 10:46:40.95	205.80	4.52	-54.0	-56.1	6.2	0.00e+00	0	41	104	0	78	19691
2026-01-19 10:46:43.98	205.80	4.29	-54.2	-56.3	6.2	0.00e+00	0	41	104	0	78	20142
2026-01-19 10:46:47.00	205.80	4.06	-54.4	-56.5	6.2	0.00e+00	0	41	104	0	79	19382
2026-01-19 10:46:50.02	205.80	3.83	-54.4	-56.6	6.2	0.00e+00	0	41	104	0	79	19601
2026-01-19 10:46:53.05	205.80	3.60	-54.5	-56.6	6.2	0.00e+00	0	41	104	0	79	19621
2026-01-19 10:46:56.07	205.80	3.37	-54.6	-56.7	6.2	0.00e+00	0	41	104	0	79	19784
2026-01-19 10:46:59.10	205.80	3.15	-54.5	-56.6	6.2	0.00e+00	0	41	104	0	79	19678
2026-01-19 10:47:02.12	205.80	2.93	-54.5	-56.6	6.2	0.00e+00	0	41	104	0	79	19692
2026-01-19 10:47:05.15	205.80	2.71	-54.5	-56.6	6.2	0.00e+00	0	41	104	0	79	19597
2026-01-19 10:47:08.17	205.80	2.49	-54.5	-56.6	6.2	0.00e+00	0	41	104	0	79	19564
2026-01-19 10:47:11.19	205.80	2.28	-54.4	-56.6	6.2	0.00e+00	0	41	104	0	79	19574
2026-01-19 10:47:14.22	205.80	2.07	-54.4	-56.5	6.2	0.00e+00	0	41	104	0	79	19469

#Closed at: 2026-01-19 10:47:17
#Recorded file [0 MB]: D:/lorett/data/31041_260119_133617.dat