passes_logs/2026/01/19/R3.2S_Murmansk/R3.2S_Murmansk__20260119_105207_FENGYUN_3D_rec.log

#Pass ID: 20260119_105207_FENGYUN 3D
#Satellite: FENGYUN 3D
#Configuration: FENGYUN 3D
#almurnet v.1.7.20251203
#Start time: 2026-01-19 10:52:07

#Version: 2.2.20231116
#Station: R3.2S_Murmansk
#Location: 33.079688 lon 68.888172 lat
#TLE: 1 43010U 17072A   26018.95027258  .00000058  00000+0  49274-4 0  9992
#TLE: 2 43010  98.9939 350.8271 0002416 102.0826 258.0620 14.19696908423819

#Time	Az	El	Level	Level2	SNR	BER	BlckErr	Temp	State	Recorded	gain1	gain2
2026-01-19 10:52:07.66	134.98	1.99	-51.9	-63.8	3.8	8.48e-01	0	36	0	0	75	14188
2026-01-19 10:52:11.69	134.92	2.25	-51.9	-63.8	3.8	8.46e-01	0	36	104	0	74	14967
2026-01-19 10:52:15.72	134.86	2.51	-51.9	-63.8	3.8	8.45e-01	0	36	104	0	74	14960
2026-01-19 10:52:19.76	134.80	2.78	-51.9	-63.8	3.8	8.45e-01	0	37	104	0	74	14976
2026-01-19 10:52:23.79	134.74	3.04	-51.9	-63.8	3.8	8.46e-01	0	37	104	0	74	14932
2026-01-19 10:52:27.82	134.67	3.31	-51.9	-63.8	3.8	8.47e-01	0	37	104	0	74	14894
2026-01-19 10:52:31.85	134.61	3.58	-51.9	-63.8	3.8	8.47e-01	0	37	104	0	74	14888
2026-01-19 10:52:35.89	134.54	3.85	-51.8	-63.5	3.8	8.46e-01	0	37	104	0	74	14418
2026-01-19 10:52:39.91	134.47	4.13	-51.7	-62.5	3.8	8.46e-01	0	37	104	0	74	12902
2026-01-19 10:52:43.95	134.40	4.41	-50.6	-56.1	6.5	2.36e-01	0	37	0	4194304	73	6504
2026-01-19 10:52:47.98	134.33	4.69	-46.1	-47.8	15.0	0.00e+00	0	37	0	27262976	63	4465
2026-01-19 10:52:52.01	134.26	4.98	-44.0	-45.3	17.5	0.00e+00	0	37	0	49283072	60	3979
2026-01-19 10:52:56.04	134.18	5.26	-47.7	-50.1	12.7	0.00e+00	0	37	0	72351744	65	5186
2026-01-19 10:53:00.07	134.11	5.55	-44.0	-45.2	18.1	0.00e+00	0	38	0	95420416	59	4187
2026-01-19 10:53:04.11	134.03	5.85	-44.3	-45.6	17.9	0.00e+00	0	37	0	117440512	59	4354
2026-01-19 10:53:08.14	133.95	6.15	-44.1	-45.3	18.2	0.00e+00	0	37	0	140509184	59	4215
2026-01-19 10:53:12.17	133.86	6.45	-44.2	-45.5	18.1	0.00e+00	0	37	0	163577856	59	4302
2026-01-19 10:53:16.20	133.78	6.75	-43.9	-45.1	18.6	0.00e+00	0	37	0	185597952	59	4108
2026-01-19 10:53:20.23	133.69	7.06	-44.0	-45.1	18.5	0.00e+00	0	38	0	208666624	59	4141
2026-01-19 10:53:24.27	133.61	7.37	-43.9	-45.1	18.6	0.00e+00	0	38	0	231735296	59	4125
2026-01-19 10:53:28.30	133.51	7.69	-43.8	-45.0	18.8	0.00e+00	0	38	0	253755392	59	4060
2026-01-19 10:53:32.33	133.42	8.01	-43.7	-44.8	19.0	0.00e+00	0	38	0	276824064	59	3983
2026-01-19 10:53:36.36	133.33	8.33	-43.9	-45.1	18.7	0.00e+00	0	38	0	299892736	59	4114
2026-01-19 10:53:40.39	133.23	8.66	-43.7	-44.9	19.0	0.00e+00	0	38	0	321912832	59	4008
2026-01-19 10:53:44.42	133.13	8.99	-43.3	-44.3	19.5	0.00e+00	0	38	0	344981504	58	4001
2026-01-19 10:53:48.45	133.03	9.33	-43.5	-44.6	19.3	0.00e+00	0	38	0	367001600	58	4139
2026-01-19 10:53:52.48	132.92	9.67	-43.0	-44.1	19.9	0.00e+00	0	38	0	390070272	58	3873
2026-01-19 10:53:56.51	132.81	10.01	-43.0	-44.1	19.9	0.00e+00	0	38	0	412090368	57	4100
2026-01-19 10:54:00.55	132.70	10.36	-43.1	-44.1	19.9	0.00e+00	0	38	0	435159040	57	4127
2026-01-19 10:54:04.58	132.59	10.72	-42.9	-43.9	20.0	0.00e+00	0	38	0	458227712	57	4047
2026-01-19 10:54:08.61	132.47	11.08	-43.0	-44.0	20.0	0.00e+00	0	38	0	480247808	57	4067
2026-01-19 10:54:12.65	132.35	11.44	-42.9	-43.9	20.1	0.00e+00	0	38	0	503316480	57	4029
2026-01-19 10:54:16.68	132.22	11.81	-42.8	-43.8	20.2	0.00e+00	0	38	0	526385152	57	3975
2026-01-19 10:54:20.71	132.09	12.19	-42.7	-43.7	20.4	0.00e+00	0	38	0	548405248	57	3926
2026-01-19 10:54:24.74	131.96	12.57	-42.8	-43.8	20.3	0.00e+00	0	38	0	571473920	57	3984
2026-01-19 10:54:28.77	131.83	12.96	-42.4	-43.4	20.6	0.00e+00	0	38	0	594542592	56	4039
2026-01-19 10:54:32.80	131.69	13.35	-42.5	-43.4	20.6	0.00e+00	0	38	0	616562688	56	4040
2026-01-19 10:54:36.83	131.55	13.75	-42.2	-43.2	20.9	0.00e+00	0	38	0	639631360	56	3922
2026-01-19 10:54:40.87	131.40	14.16	-42.0	-43.0	21.1	0.00e+00	0	38	0	662700032	56	3835
2026-01-19 10:54:44.90	131.24	14.57	-41.8	-42.7	21.3	0.00e+00	0	38	0	684720128	55	3928
2026-01-19 10:54:48.93	131.09	14.99	-41.7	-42.6	21.4	0.00e+00	0	38	0	707788800	55	3893
2026-01-19 10:54:52.96	130.93	15.42	-41.6	-42.5	21.5	0.00e+00	0	38	0	730857472	54	4091
2026-01-19 10:54:56.99	130.76	15.85	-41.1	-41.9	22.0	0.00e+00	0	38	0	752877568	54	3816
2026-01-19 10:55:01.02	130.59	16.30	-41.1	-42.0	22.0	0.00e+00	0	38	0	774897664	54	3839
2026-01-19 10:55:05.06	130.41	16.75	-41.1	-41.9	22.1	0.00e+00	0	38	0	797966336	54	3812
2026-01-19 10:55:09.09	130.22	17.21	-41.0	-41.8	22.2	0.00e+00	0	38	0	821035008	53	3994
2026-01-19 10:55:13.12	130.03	17.67	-41.1	-41.9	22.1	0.00e+00	0	38	0	843055104	53	4035
2026-01-19 10:55:17.16	129.84	18.15	-40.9	-41.8	22.2	0.00e+00	0	38	0	866123776	53	3980
2026-01-19 10:55:21.19	129.63	18.63	-40.8	-41.6	22.4	0.00e+00	0	38	0	889192448	53	3907
2026-01-19 10:55:25.22	129.42	19.13	-40.9	-41.7	22.3	0.00e+00	0	38	0	911212544	53	3950
2026-01-19 10:55:29.25	129.21	19.63	-40.9	-41.7	22.3	0.00e+00	0	38	0	934281216	53	3948
2026-01-19 10:55:33.28	128.98	20.14	-40.8	-41.7	22.4	0.00e+00	0	38	0	957349888	53	3921
2026-01-19 10:55:37.31	128.75	20.66	-40.7	-41.6	22.5	0.00e+00	0	38	0	979369984	53	3869
2026-01-19 10:55:41.34	128.51	21.20	-40.4	-41.2	22.7	0.00e+00	0	38	0	1002438656	52	3955
2026-01-19 10:55:45.38	128.25	21.74	-40.1	-40.9	23.1	0.00e+00	0	38	0	1025507328	52	3810
2026-01-19 10:55:49.41	127.99	22.30	-40.1	-40.9	23.1	0.00e+00	0	38	0	1047527424	52	3791
2026-01-19 10:55:53.44	127.72	22.87	-39.9	-40.7	23.4	0.00e+00	0	38	0	1070596096	51	3920
2026-01-19 10:55:57.48	127.44	23.45	-39.8	-40.6	23.5	0.00e+00	0	38	0	1093664768	51	3903
2026-01-19 10:56:01.51	127.15	24.04	-39.8	-40.6	23.5	0.00e+00	0	38	0	1115684864	51	3869
2026-01-19 10:56:05.55	126.84	24.65	-39.8	-40.6	23.5	0.00e+00	0	38	0	1137704960	51	3875
2026-01-19 10:56:09.58	126.53	25.27	-39.5	-40.3	23.8	0.00e+00	0	38	0	1160773632	51	3754
2026-01-19 10:56:13.61	126.20	25.90	-39.4	-40.2	23.9	0.00e+00	0	38	0	1183842304	50	3923
2026-01-19 10:56:17.64	125.85	26.54	-39.6	-40.4	23.7	0.00e+00	0	38	0	1205862400	50	4010
2026-01-19 10:56:21.67	125.49	27.21	-39.7	-40.4	23.7	0.00e+00	0	38	0	1228931072	50	4046
2026-01-19 10:56:25.70	125.12	27.88	-39.3	-40.1	24.0	0.00e+00	0	38	0	1251999744	50	3892
2026-01-19 10:56:29.73	124.72	28.57	-39.3	-40.1	24.0	0.00e+00	0	38	0	1274019840	50	3897
2026-01-19 10:56:33.76	124.31	29.28	-39.5	-40.3	23.8	0.00e+00	0	38	0	1297088512	50	3993
2026-01-19 10:56:37.79	123.89	30.00	-39.6	-40.3	23.8	0.00e+00	0	38	0	1320157184	50	3999
2026-01-19 10:56:41.83	123.43	30.74	-39.2	-39.9	24.5	0.00e+00	0	38	0	1342177280	50	3790
2026-01-19 10:56:45.86	122.96	31.50	-39.2	-40.0	24.5	0.00e+00	0	38	0	1365245952	50	3830
2026-01-19 10:56:49.90	122.47	32.28	-39.3	-40.0	24.4	0.00e+00	0	38	0	1388314624	50	3854
2026-01-19 10:56:53.93	121.95	33.07	-38.9	-39.6	24.8	0.00e+00	0	38	0	1410334720	49	3902
2026-01-19 10:56:57.97	121.40	33.88	-39.0	-39.8	24.6	0.00e+00	0	38	0	1433403392	49	3966
2026-01-19 10:57:02.00	120.82	34.71	-39.3	-40.0	24.4	0.00e+00	0	38	0	1456472064	49	4079
2026-01-19 10:57:06.03	120.21	35.56	-39.1	-39.8	24.6	0.00e+00	0	38	0	1478492160	49	3974
2026-01-19 10:57:10.06	119.57	36.43	-38.9	-39.7	24.8	0.00e+00	0	38	0	1501560832	49	3917
2026-01-19 10:57:14.09	118.89	37.32	-38.9	-39.6	24.8	0.00e+00	0	38	0	1523580928	49	3893
2026-01-19 10:57:18.12	118.18	38.22	-39.2	-39.9	24.5	0.00e+00	0	38	0	1546649600	49	4034
2026-01-19 10:57:22.15	117.42	39.15	-39.1	-39.8	24.7	0.00e+00	0	38	0	1568669696	49	3973
2026-01-19 10:57:26.18	116.62	40.09	-39.1	-39.9	24.6	0.00e+00	0	38	0	1591738368	49	4014
2026-01-19 10:57:30.22	115.76	41.06	-39.5	-40.2	24.3	0.00e+00	0	38	0	1614807040	49	4166
2026-01-19 10:57:34.26	114.85	42.04	-39.6	-40.3	24.2	0.00e+00	0	38	0	1637875712	49	4221
2026-01-19 10:57:38.29	113.89	43.04	-39.3	-40.0	24.5	0.00e+00	0	38	0	1659895808	49	4096
2026-01-19 10:57:42.33	112.86	44.06	-39.6	-40.4	24.1	0.00e+00	0	38	0	1682964480	49	4259
2026-01-19 10:57:46.36	111.76	45.10	-39.8	-40.6	24.0	0.00e+00	0	38	0	1706033152	50	4115
2026-01-19 10:57:50.39	110.59	46.14	-39.5	-40.3	24.3	0.00e+00	0	38	0	1728053248	50	3960
2026-01-19 10:57:54.43	109.33	47.20	-40.1	-40.8	23.8	0.00e+00	0	38	0	1751121920	50	4232
2026-01-19 10:57:58.46	107.98	48.28	-40.1	-40.9	23.8	0.00e+00	0	38	0	1774190592	51	4009
2026-01-19 10:58:02.49	106.54	49.35	-40.2	-40.9	23.7	0.00e+00	0	38	0	1796210688	51	4050
2026-01-19 10:58:06.52	104.99	50.44	-40.6	-41.3	23.3	0.00e+00	0	38	0	1819279360	51	4240
2026-01-19 10:58:10.55	103.33	51.52	-40.4	-41.2	23.5	0.00e+00	0	38	0	1841299456	51	4156
2026-01-19 10:58:14.59	101.53	52.61	-40.7	-41.5	23.2	0.00e+00	0	38	0	1864368128	52	4055
2026-01-19 10:58:18.62	99.60	53.68	-40.1	-40.9	23.7	0.00e+00	0	38	0	1886388224	52	3789
2026-01-19 10:58:22.65	97.53	54.74	-40.1	-40.9	23.8	0.00e+00	0	38	0	1909456896	51	4014
2026-01-19 10:58:26.69	95.28	55.78	-40.0	-40.8	23.9	0.00e+00	0	38	0	1932525568	51	3964
2026-01-19 10:58:30.72	92.88	56.80	-40.2	-41.0	23.7	0.00e+00	0	38	0	1954545664	51	4066
2026-01-19 10:58:34.75	90.29	57.78	-39.9	-40.6	24.1	0.00e+00	0	38	0	1977614336	51	3891
2026-01-19 10:58:38.78	87.51	58.71	-39.9	-40.6	24.1	0.00e+00	0	38	0	2000683008	51	3887
2026-01-19 10:58:42.81	84.53	59.59	-39.6	-40.3	24.4	0.00e+00	0	38	0	2022703104	51	3763
2026-01-19 10:58:46.84	81.34	60.41	-40.1	-40.8	23.9	0.00e+00	0	38	0	2045771776	51	3995
2026-01-19 10:58:50.87	77.96	61.15	-39.8	-40.5	24.2	0.00e+00	0	38	0	2068840448	51	3841
2026-01-19 10:58:54.91	74.37	61.81	-39.2	-39.9	24.8	0.00e+00	0	38	0	2090860544	50	3808
2026-01-19 10:58:58.94	70.61	62.37	-39.4	-40.2	24.5	0.00e+00	0	38	0	2113929216	50	3917
2026-01-19 10:59:02.97	66.69	62.83	-39.2	-39.9	24.8	0.00e+00	0	38	0	2136997888	50	3805
2026-01-19 10:59:07.00	62.64	63.17	-38.9	-39.7	25.0	0.00e+00	0	38	0	2159017984	49	3914
2026-01-19 10:59:11.03	58.49	63.39	-38.7	-39.4	25.2	0.00e+00	0	38	0	2182086656	49	3820
2026-01-19 10:59:15.06	54.28	63.48	-38.9	-39.6	25.0	0.00e+00	0	38	0	2205155328	49	3903
2026-01-19 10:59:19.10	50.05	63.44	-38.8	-39.5	25.2	0.00e+00	0	38	0	2227175424	48	4061
2026-01-19 10:59:23.13	45.87	63.28	-38.6	-39.3	25.3	0.00e+00	0	38	0	2249195520	48	3969
2026-01-19 10:59:27.17	41.76	62.99	-38.8	-39.6	25.1	0.00e+00	0	38	0	2272264192	48	4100
2026-01-19 10:59:31.20	37.78	62.59	-39.2	-39.9	24.8	0.00e+00	0	38	0	2295332864	48	4269
2026-01-19 10:59:35.23	33.94	62.08	-39.3	-40.0	24.7	0.00e+00	0	38	0	2317352960	49	4088
2026-01-19 10:59:39.26	30.28	61.46	-39.1	-39.8	24.9	0.00e+00	0	38	0	2340421632	49	3976
2026-01-19 10:59:43.29	26.82	60.76	-39.1	-39.8	24.9	0.00e+00	0	38	0	2363490304	49	3959
2026-01-19 10:59:47.33	23.54	59.97	-39.5	-40.2	24.5	0.00e+00	0	38	0	2385510400	49	4160
2026-01-19 10:59:51.36	20.47	59.12	-39.4	-40.1	24.6	0.00e+00	0	38	0	2408579072	49	4137
2026-01-19 10:59:55.39	17.60	58.21	-39.6	-40.3	24.4	0.00e+00	0	38	0	2431647744	50	4002
2026-01-19 10:59:59.43	14.93	57.24	-39.7	-40.5	24.3	0.00e+00	0	38	0	2453667840	50	4059
2026-01-19 11:00:03.45	12.45	56.25	-39.7	-40.4	24.3	0.00e+00	0	38	0	2476736512	50	4048
2026-01-19 11:00:07.49	10.13	55.22	-39.8	-40.5	24.3	0.00e+00	0	38	0	2499805184	50	4061
2026-01-19 11:00:11.52	7.99	54.17	-39.8	-40.5	24.3	0.00e+00	0	38	0	2521825280	50	4086
2026-01-19 11:00:15.55	6.00	53.10	-39.9	-40.7	24.2	0.00e+00	0	38	0	2544893952	50	4149
2026-01-19 11:00:19.58	4.15	52.02	-40.0	-40.8	24.1	0.00e+00	0	38	0	2567962624	50	4196
2026-01-19 11:00:23.61	2.43	50.94	-39.7	-40.4	24.4	0.00e+00	0	38	0	2589982720	50	4044
2026-01-19 11:00:27.64	0.83	49.86	-39.8	-40.5	24.3	0.00e+00	0	38	0	2612002816	50	4070
2026-01-19 11:00:31.68	359.34	48.78	-39.6	-40.4	24.4	0.00e+00	0	38	0	2635071488	50	4017
2026-01-19 11:00:35.71	357.96	47.71	-39.3	-40.0	24.8	0.00e+00	0	38	0	2658140160	50	3833
2026-01-19 11:00:39.74	356.67	46.65	-38.8	-39.4	25.2	0.00e+00	0	38	0	2680160256	49	3820
2026-01-19 11:00:43.77	355.46	45.60	-39.1	-39.8	24.9	0.00e+00	0	38	0	2703228928	49	3969
2026-01-19 11:00:47.81	354.33	44.56	-39.1	-39.8	24.8	0.00e+00	0	38	0	2726297600	49	4002
2026-01-19 11:00:51.83	353.27	43.54	-38.9	-39.6	25.0	0.00e+00	0	38	0	2748317696	49	3898
2026-01-19 11:00:55.87	352.28	42.53	-39.1	-39.7	24.9	0.00e+00	0	38	0	2771386368	49	3955
2026-01-19 11:00:59.89	351.35	41.54	-38.9	-39.7	25.0	0.00e+00	0	38	0	2794455040	49	3915
2026-01-19 11:01:03.92	350.47	40.57	-38.8	-39.6	25.1	0.00e+00	0	38	0	2816475136	49	3869
2026-01-19 11:01:07.96	349.65	39.62	-38.5	-39.2	25.3	0.00e+00	0	38	0	2839543808	49	3726
2026-01-19 11:01:11.99	348.87	38.69	-38.7	-39.4	25.2	0.00e+00	0	38	0	2862612480	49	3796
2026-01-19 11:01:16.02	348.14	37.78	-38.4	-39.1	25.4	0.00e+00	0	38	0	2884632576	48	3899
2026-01-19 11:01:20.05	347.44	36.88	-38.6	-39.3	25.3	0.00e+00	0	38	0	2907701248	48	3976
2026-01-19 11:01:24.09	346.79	36.01	-38.5	-39.2	25.3	0.00e+00	0	38	0	2930769920	48	3942
2026-01-19 11:01:28.12	346.17	35.15	-38.7	-39.4	25.1	0.00e+00	0	38	0	2952790016	48	4049
2026-01-19 11:01:32.15	345.58	34.31	-38.6	-39.3	25.2	0.00e+00	0	38	0	2974810112	48	3978
2026-01-19 11:01:36.18	345.02	33.50	-38.7	-39.4	25.1	0.00e+00	0	38	0	2997878784	48	4006
2026-01-19 11:01:40.21	344.49	32.70	-38.8	-39.5	25.0	0.00e+00	0	38	0	3020947456	48	4068
2026-01-19 11:01:44.25	343.98	31.91	-39.1	-39.8	24.7	0.00e+00	0	38	0	3042967552	48	4214
2026-01-19 11:01:48.28	343.50	31.15	-39.1	-39.8	24.7	0.00e+00	0	38	0	3066036224	48	4205
2026-01-19 11:01:52.32	343.04	30.40	-39.1	-39.8	24.7	0.00e+00	0	38	0	3089104896	48	4204
2026-01-19 11:01:56.35	342.60	29.67	-39.1	-39.8	24.7	0.00e+00	0	38	0	3111124992	48	4234
2026-01-19 11:02:00.38	342.18	28.96	-39.2	-39.9	24.6	0.00e+00	0	38	0	3134193664	49	4027
2026-01-19 11:02:04.42	341.78	28.26	-39.4	-40.2	24.3	0.00e+00	0	38	0	3157262336	49	4160
2026-01-19 11:02:08.45	341.40	27.58	-39.3	-40.0	24.4	0.00e+00	0	38	0	3179282432	49	4095
2026-01-19 11:02:12.48	341.04	26.92	-39.2	-39.9	24.6	0.00e+00	0	38	0	3202351104	49	4007
2026-01-19 11:02:16.51	340.69	26.26	-39.2	-39.9	24.5	0.00e+00	0	38	0	3225419776	49	4032
2026-01-19 11:02:20.55	340.35	25.63	-39.3	-40.1	24.4	0.00e+00	0	38	0	3247439872	49	4114
2026-01-19 11:02:24.58	340.03	25.00	-39.5	-40.2	24.2	0.00e+00	0	38	0	3270508544	49	4190
2026-01-19 11:02:28.62	339.72	24.39	-39.5	-40.3	24.2	0.00e+00	0	38	0	3293577216	49	4205
2026-01-19 11:02:32.65	339.43	23.79	-39.6	-40.3	24.1	0.00e+00	0	38	0	3315597312	49	4217
2026-01-19 11:02:36.69	339.14	23.21	-39.7	-40.4	24.0	0.00e+00	0	38	0	3338665984	49	4262
2026-01-19 11:02:40.72	338.87	22.64	-39.9	-40.6	23.8	0.00e+00	0	38	0	3360686080	50	4130
2026-01-19 11:02:44.76	338.60	22.08	-40.0	-40.8	23.6	0.00e+00	0	38	0	3383754752	50	4222
2026-01-19 11:02:48.79	338.35	21.53	-39.9	-40.6	23.8	0.00e+00	0	38	0	3406823424	50	4143
2026-01-19 11:02:52.83	338.10	20.99	-39.9	-40.6	23.8	0.00e+00	0	38	0	3428843520	50	4130
2026-01-19 11:02:56.86	337.87	20.46	-39.9	-40.6	23.8	0.00e+00	0	38	0	3451912192	50	4128
2026-01-19 11:03:00.89	337.64	19.94	-40.0	-40.8	23.6	0.00e+00	0	38	0	3474980864	50	4198
2026-01-19 11:03:04.93	337.42	19.44	-40.3	-41.1	23.3	0.00e+00	0	38	0	3497000960	51	4113
2026-01-19 11:03:08.96	337.21	18.94	-40.5	-41.3	23.1	0.00e+00	0	37	0	3520069632	51	4231
2026-01-19 11:03:12.99	337.00	18.45	-40.6	-41.5	22.9	0.00e+00	0	38	0	3543138304	52	4052
2026-01-19 11:03:17.02	336.81	17.97	-40.7	-41.5	22.8	0.00e+00	0	38	0	3565158400	52	4082
2026-01-19 11:03:21.05	336.62	17.50	-40.9	-41.7	22.6	0.00e+00	0	38	0	3588227072	52	4149
2026-01-19 11:03:25.08	336.43	17.04	-40.8	-41.6	22.7	0.00e+00	0	38	0	3611295744	52	4122
2026-01-19 11:03:29.12	336.25	16.59	-40.9	-41.7	22.5	0.00e+00	0	38	0	3633315840	52	4193
2026-01-19 11:03:33.15	336.08	16.14	-41.1	-41.9	22.3	0.00e+00	0	38	0	3656384512	52	4274
2026-01-19 11:03:37.18	335.91	15.71	-41.2	-42.1	22.2	0.00e+00	0	38	0	3679453184	53	4111
2026-01-19 11:03:41.21	335.75	15.28	-41.3	-42.2	22.1	0.00e+00	0	38	0	3701473280	53	4165
2026-01-19 11:03:45.24	335.59	14.86	-41.5	-42.3	22.0	0.00e+00	0	37	0	3723493376	53	4227
2026-01-19 11:03:49.27	335.44	14.44	-41.6	-42.5	21.8	0.00e+00	0	38	0	3746562048	53	4295
2026-01-19 11:03:53.30	335.29	14.03	-41.6	-42.4	21.8	0.00e+00	0	38	0	3769630720	53	4290
2026-01-19 11:03:57.33	335.15	13.63	-41.8	-42.7	21.5	0.00e+00	0	38	0	3791650816	54	4162
2026-01-19 11:04:01.36	335.01	13.23	-41.9	-42.8	21.5	0.00e+00	0	38	0	3814719488	54	4204
2026-01-19 11:04:05.39	334.87	12.84	-41.9	-42.8	21.4	0.00e+00	0	38	0	3837788160	54	4222
2026-01-19 11:04:09.42	334.74	12.46	-41.9	-42.8	21.3	0.00e+00	0	38	0	3859808256	54	4234
2026-01-19 11:04:13.45	334.62	12.08	-41.9	-42.8	21.4	0.00e+00	0	38	0	3882876928	54	4209
2026-01-19 11:04:17.48	334.49	11.71	-41.9	-42.8	21.3	0.00e+00	0	38	0	3905945600	54	4218
2026-01-19 11:04:21.51	334.37	11.34	-42.0	-42.9	21.2	0.00e+00	0	38	0	3927965696	54	4251
2026-01-19 11:04:25.55	334.25	10.98	-42.0	-42.9	21.2	0.00e+00	0	38	0	3951034368	54	4252
2026-01-19 11:04:29.58	334.14	10.62	-42.2	-43.1	21.0	0.00e+00	0	38	0	3974103040	54	4362
2026-01-19 11:04:33.61	334.03	10.27	-42.3	-43.2	20.9	0.00e+00	0	38	0	3996123136	55	4156
2026-01-19 11:04:37.63	333.92	9.93	-42.3	-43.2	20.8	0.00e+00	0	38	0	4019191808	55	4185
2026-01-19 11:04:41.67	333.82	9.58	-42.6	-43.5	20.5	0.00e+00	0	38	0	4042260480	55	4336
2026-01-19 11:04:45.70	333.72	9.25	-42.6	-43.5	20.5	0.00e+00	0	38	0	4064280576	55	4338
2026-01-19 11:04:49.73	333.62	8.91	-42.8	-43.8	20.3	0.00e+00	0	38	0	4086300672	56	4204
2026-01-19 11:04:53.76	333.52	8.58	-43.0	-43.9	20.1	0.00e+00	0	38	0	4109369344	56	4284
2026-01-19 11:04:57.79	333.43	8.26	-43.2	-44.2	19.9	0.00e+00	0	38	0	4132438016	56	4405
2026-01-19 11:05:01.82	333.33	7.94	-43.2	-44.2	19.8	0.00e+00	0	38	0	4154458112	57	4169
2026-01-19 11:05:05.85	333.24	7.62	-43.3	-44.3	19.7	0.00e+00	0	38	0	4177526784	57	4218
2026-01-19 11:05:09.89	333.16	7.31	-43.5	-44.5	19.4	0.00e+00	0	38	0	4200595456	57	4334
2026-01-19 11:05:13.92	333.07	7.00	-43.6	-44.6	19.3	0.00e+00	0	38	0	4222615552	57	4369
2026-01-19 11:05:17.95	332.99	6.69	-43.4	-44.4	19.5	0.00e+00	0	38	0	4245684224	58	4035
2026-01-19 11:05:21.98	332.91	6.39	-43.8	-44.9	19.0	0.00e+00	0	38	0	4268752896	58	4278
2026-01-19 11:05:26.01	332.83	6.09	-43.8	-44.9	19.0	0.00e+00	0	38	0	4290772992	58	4260
2026-01-19 11:05:30.05	332.75	5.80	-43.8	-44.9	18.9	0.00e+00	0	38	0	4313841664	58	4271
2026-01-19 11:05:34.08	332.68	5.50	-43.9	-45.1	18.7	0.00e+00	0	38	0	4336910336	59	4114
2026-01-19 11:05:38.11	332.61	5.22	-44.4	-45.6	18.1	0.00e+00	0	38	0	4358930432	59	4363
2026-01-19 11:05:42.15	332.54	4.93	-52.3	-61.2	4.2	1.91e-02	0	38	0	4380950528	75	10506
2026-01-19 11:05:46.18	332.47	4.65	-53.5	-65.5	3.8	8.47e-01	0	38	104	4380950528	77	15271
2026-01-19 11:05:50.21	332.40	4.37	-53.9	-65.9	3.8	8.47e-01	0	38	104	4380950528	78	15101
2026-01-19 11:05:54.24	332.33	4.09	-54.1	-66.1	3.8	8.47e-01	0	38	104	4380950528	78	15442
2026-01-19 11:05:58.27	332.27	3.82	-54.2	-66.1	3.8	8.46e-01	0	38	104	4380950528	78	15574
2026-01-19 11:06:02.31	332.20	3.54	-54.2	-66.1	3.8	8.45e-01	0	38	104	4380950528	78	15560
2026-01-19 11:06:06.34	332.14	3.27	-54.1	-66.1	3.8	8.46e-01	0	38	104	4380950528	78	15489
2026-01-19 11:06:10.36	332.08	3.01	-54.1	-66.1	3.8	8.46e-01	0	38	104	4380950528	78	15472
2026-01-19 11:06:14.40	332.02	2.74	-54.1	-66.1	3.8	8.46e-01	0	38	104	4380950528	78	15452
2026-01-19 11:06:18.43	331.96	2.48	-54.1	-66.0	3.8	8.45e-01	0	38	104	4380950528	78	15354
2026-01-19 11:06:22.46	331.91	2.22	-54.1	-66.0	3.8	8.45e-01	0	38	104	4380950528	78	15349
2026-01-19 11:06:26.49	331.85	1.97	-54.0	-66.0	3.8	8.46e-01	0	38	104	4380950528	78	15315

#Closed at: 2026-01-19 11:06:28
#Recorded file [4380 MB]: D:/lorett/data/31041_260119_135207.dat