passes_logs/2026/01/19/R3.2S_Murmansk/R3.2S_Murmansk__20260119_065510_NOAA_20_JPSS-1_rec.log

#Pass ID: 20260119_065510_NOAA 20 (JPSS-1)
#Satellite: NOAA 20 (JPSS-1)
#Configuration: NOAA 20
#almurnet v.1.7.20251203
#Start time: 2026-01-19 06:55:13

#Version: 2.2.20231116
#Station: R3.2S_Murmansk
#Location: 33.079688 lon 68.888172 lat
#TLE: 1 43013U 17073A   26018.92475364  .00000071  00000+0  54435-4 0  9998
#TLE: 2 43013  98.7641 319.8227 0001354  33.6678 326.4584 14.19536868423299

#Time	Az	El	Level	Level2	SNR	BER	BlckErr	Temp	State	Recorded	gain1	gain2
2026-01-19 06:55:13.00	93.18	2.13	-52.1	-67.0	3.8	1.49e+00	0	35	0	0	76	19264
2026-01-19 06:55:17.03	92.97	2.37	-52.1	-67.0	3.8	1.49e+00	0	35	104	0	74	21643
2026-01-19 06:55:21.07	92.75	2.61	-52.0	-67.0	3.8	1.49e+00	0	36	104	0	74	21598
2026-01-19 06:55:25.10	92.54	2.86	-52.0	-67.0	3.8	1.49e+00	0	36	104	0	74	21574
2026-01-19 06:55:29.13	92.31	3.10	-52.0	-66.9	3.8	1.49e+00	0	36	104	0	74	21487
2026-01-19 06:55:33.17	92.08	3.35	-52.0	-66.8	3.8	1.49e+00	0	36	104	0	74	21242
2026-01-19 06:55:37.20	91.85	3.60	-52.0	-67.0	3.8	1.49e+00	0	36	104	0	74	21595
2026-01-19 06:55:41.23	91.62	3.85	-52.0	-66.3	3.8	1.49e+00	0	36	104	0	74	19918
2026-01-19 06:55:45.26	91.38	4.11	-51.9	-64.0	3.9	1.47e+00	0	36	104	0	74	15389
2026-01-19 06:55:49.29	91.13	4.36	-51.7	-61.8	4.8	7.19e-01	0	36	0	4194304	74	11927
2026-01-19 06:55:53.32	90.88	4.62	-51.0	-57.5	8.3	7.84e-02	0	36	0	11534336	73	7670
2026-01-19 06:55:57.36	90.63	4.88	-51.3	-59.1	6.7	2.07e-01	0	36	0	18874368	73	9255
2026-01-19 06:56:01.39	90.37	5.14	-50.4	-55.3	10.7	1.34e-03	0	37	0	26214400	72	6301
2026-01-19 06:56:05.42	90.10	5.40	-51.3	-58.1	7.5	9.60e-01	0	36	0	31457280	74	7737
2026-01-19 06:56:09.45	89.84	5.67	-49.7	-53.3	13.0	2.28e-05	0	36	0	38797312	71	5314
2026-01-19 06:56:13.49	89.56	5.94	-48.9	-51.8	14.6	4.50e-06	0	37	0	46137344	69	5019
2026-01-19 06:56:17.52	89.28	6.21	-48.8	-51.5	14.9	0.00e+00	0	37	0	54525952	69	4870
2026-01-19 06:56:21.55	89.00	6.48	-48.7	-51.3	15.2	7.00e-07	0	37	0	61865984	69	4733
2026-01-19 06:56:25.58	88.71	6.75	-48.7	-51.3	15.3	0.00e+00	0	37	0	69206016	69	4731
2026-01-19 06:56:29.62	88.41	7.03	-48.7	-51.3	15.4	0.00e+00	0	37	0	76546048	68	5003
2026-01-19 06:56:33.65	88.11	7.30	-48.5	-51.1	15.5	0.00e+00	0	37	0	83886080	68	4890
2026-01-19 06:56:37.68	87.80	7.58	-48.4	-50.9	15.8	0.00e+00	0	37	0	92274688	68	4773
2026-01-19 06:56:41.71	87.49	7.87	-48.3	-50.7	16.1	0.00e+00	0	37	0	99614720	68	4659
2026-01-19 06:56:45.74	87.17	8.15	-48.4	-50.8	15.9	0.00e+00	0	37	0	106954752	68	4728
2026-01-19 06:56:49.77	86.84	8.44	-48.2	-50.5	16.2	0.00e+00	0	37	0	114294784	68	4576
2026-01-19 06:56:53.81	86.50	8.73	-48.2	-50.4	16.4	0.00e+00	0	37	0	121634816	68	4528
2026-01-19 06:56:57.84	86.16	9.02	-48.3	-50.6	16.2	0.00e+00	0	37	0	130023424	68	4614
2026-01-19 06:57:01.88	85.81	9.32	-48.0	-50.1	16.6	0.00e+00	0	37	0	137363456	67	4644
2026-01-19 06:57:05.91	85.46	9.61	-47.8	-49.9	16.9	0.00e+00	0	37	0	144703488	67	4512
2026-01-19 06:57:09.95	85.09	9.91	-47.9	-50.0	16.7	0.00e+00	0	37	0	152043520	67	4589
2026-01-19 06:57:13.98	84.72	10.21	-47.7	-49.8	17.0	0.00e+00	0	37	0	159383552	67	4464
2026-01-19 06:57:18.01	84.34	10.52	-48.1	-50.4	16.4	0.00e+00	0	37	0	167772160	67	4775
2026-01-19 06:57:22.04	83.96	10.83	-48.1	-50.3	16.5	0.00e+00	0	37	0	175112192	67	4730
2026-01-19 06:57:26.07	83.56	11.13	-47.9	-50.1	16.8	0.00e+00	0	37	0	182452224	67	4611
2026-01-19 06:57:30.10	83.16	11.45	-48.0	-50.1	16.8	0.00e+00	0	37	0	189792256	67	4617
2026-01-19 06:57:34.14	82.74	11.76	-48.0	-50.1	16.8	0.00e+00	0	37	0	198180864	67	4626
2026-01-19 06:57:38.17	82.32	12.08	-48.1	-50.3	16.7	0.00e+00	0	37	0	205520896	67	4710
2026-01-19 06:57:42.21	81.88	12.40	-48.1	-50.3	16.7	0.00e+00	0	37	0	212860928	67	4717
2026-01-19 06:57:46.23	81.44	12.72	-48.0	-50.2	16.8	0.00e+00	0	37	0	220200960	67	4656
2026-01-19 06:57:50.27	80.99	13.04	-47.7	-49.7	17.2	0.00e+00	0	37	0	227540992	67	4412
2026-01-19 06:57:54.30	80.53	13.37	-47.8	-49.8	17.1	0.00e+00	0	37	0	235929600	67	4492
2026-01-19 06:57:58.33	80.06	13.70	-47.6	-49.5	17.4	0.00e+00	0	37	0	243269632	67	4325
2026-01-19 06:58:02.37	79.57	14.03	-47.7	-49.6	17.4	0.00e+00	0	37	0	250609664	67	4365
2026-01-19 06:58:06.40	79.08	14.37	-47.5	-49.4	17.6	0.00e+00	0	37	0	257949696	67	4270
2026-01-19 06:58:10.43	78.57	14.70	-47.6	-49.6	17.5	0.00e+00	0	37	0	265289728	67	4341
2026-01-19 06:58:14.47	78.05	15.04	-47.6	-49.6	17.5	0.00e+00	0	37	0	273678336	67	4351
2026-01-19 06:58:18.50	77.52	15.38	-47.5	-49.4	17.7	0.00e+00	0	37	0	281018368	66	4512
2026-01-19 06:58:22.54	76.97	15.73	-47.5	-49.3	17.8	0.00e+00	0	37	0	288358400	66	4480
2026-01-19 06:58:26.57	76.42	16.07	-47.2	-49.0	18.1	0.00e+00	0	37	0	295698432	66	4305
2026-01-19 06:58:30.60	75.85	16.42	-47.1	-48.8	18.3	0.00e+00	0	37	0	304087040	66	4218
2026-01-19 06:58:34.64	75.26	16.77	-47.0	-48.8	18.3	0.00e+00	0	37	0	311427072	65	4444
2026-01-19 06:58:38.67	74.67	17.12	-46.8	-48.4	18.6	0.00e+00	0	37	0	318767104	65	4283
2026-01-19 06:58:42.70	74.05	17.48	-47.0	-48.7	18.4	0.00e+00	0	37	0	326107136	65	4402
2026-01-19 06:58:46.73	73.43	17.83	-46.8	-48.4	18.7	0.00e+00	0	37	0	333447168	65	4290
2026-01-19 06:58:50.76	72.79	18.19	-46.8	-48.4	18.8	0.00e+00	0	37	0	341835776	65	4250
2026-01-19 06:58:54.79	72.13	18.55	-46.8	-48.4	18.7	0.00e+00	0	37	0	349175808	65	4271
2026-01-19 06:58:58.82	71.46	18.91	-46.9	-48.5	18.6	0.00e+00	0	37	0	356515840	65	4332
2026-01-19 06:59:02.86	70.76	19.27	-47.1	-48.7	18.4	0.00e+00	0	37	0	363855872	65	4439
2026-01-19 06:59:06.89	70.06	19.63	-47.4	-49.2	18.0	0.00e+00	0	37	0	371195904	65	4668
2026-01-19 06:59:10.92	69.34	19.99	-47.3	-49.0	18.2	0.00e+00	0	37	0	379584512	65	4581
2026-01-19 06:59:14.95	68.60	20.35	-47.2	-49.0	18.3	0.00e+00	0	37	0	386924544	65	4553
2026-01-19 06:59:18.99	67.84	20.71	-47.1	-48.7	18.5	0.00e+00	0	37	0	394264576	65	4440
2026-01-19 06:59:23.02	67.06	21.07	-47.0	-48.6	18.6	0.00e+00	0	37	0	401604608	65	4382
2026-01-19 06:59:27.05	66.26	21.43	-47.0	-48.6	18.6	0.00e+00	0	37	0	408944640	65	4369
2026-01-19 06:59:31.08	65.45	21.79	-47.0	-48.6	18.6	0.00e+00	0	37	0	417333248	65	4382
2026-01-19 06:59:35.11	64.62	22.15	-46.8	-48.4	18.8	0.00e+00	0	37	0	424673280	65	4268
2026-01-19 06:59:39.14	63.76	22.51	-46.6	-48.1	19.1	0.00e+00	0	37	0	432013312	64	4366
2026-01-19 06:59:43.17	62.89	22.86	-46.1	-47.6	19.7	0.00e+00	0	37	0	439353344	64	4103
2026-01-19 06:59:47.21	62.00	23.21	-46.1	-47.6	19.8	0.00e+00	0	37	0	447741952	63	4341
2026-01-19 06:59:51.24	61.08	23.56	-46.2	-47.6	19.7	0.00e+00	0	37	0	455081984	63	4389
2026-01-19 06:59:55.27	60.15	23.91	-46.2	-47.6	19.8	0.00e+00	0	37	0	462422016	63	4354
2026-01-19 06:59:59.29	59.20	24.25	-46.1	-47.5	19.9	0.00e+00	0	37	0	469762048	63	4311
2026-01-19 07:00:03.33	58.22	24.59	-46.3	-47.7	19.7	0.00e+00	0	37	0	477102080	63	4405
2026-01-19 07:00:07.36	57.22	24.92	-46.5	-48.1	19.4	0.00e+00	0	37	0	484442112	63	4600
2026-01-19 07:00:11.39	56.20	25.25	-46.3	-47.7	19.7	0.00e+00	0	37	0	492830720	63	4438
2026-01-19 07:00:15.42	55.16	25.57	-46.4	-47.9	19.5	0.00e+00	0	37	0	500170752	63	4527
2026-01-19 07:00:19.46	54.10	25.88	-46.4	-47.8	19.6	0.00e+00	0	37	0	507510784	63	4478
2026-01-19 07:00:23.49	53.02	26.19	-46.8	-48.3	19.0	0.00e+00	0	37	0	514850816	64	4490
2026-01-19 07:00:27.52	51.91	26.48	-46.5	-48.0	19.4	0.00e+00	0	37	0	523239424	64	4302
2026-01-19 07:00:31.55	50.79	26.77	-46.3	-47.8	19.5	0.00e+00	0	37	0	530579456	64	4199
2026-01-19 07:00:35.58	49.65	27.05	-46.2	-47.6	19.7	0.00e+00	0	37	0	537919488	64	4112
2026-01-19 07:00:39.61	48.48	27.32	-46.4	-47.9	19.5	0.00e+00	0	37	0	545259520	64	4277
2026-01-19 07:00:43.64	47.30	27.58	-46.5	-48.0	19.2	0.00e+00	0	37	0	552599552	64	4332
2026-01-19 07:00:47.68	46.10	27.83	-46.8	-48.4	18.9	0.00e+00	0	37	0	560988160	64	4520
2026-01-19 07:00:51.71	44.87	28.06	-46.8	-48.3	19.1	0.00e+00	0	37	0	568328192	64	4482
2026-01-19 07:00:55.74	43.64	28.28	-47.0	-48.6	18.8	0.00e+00	0	37	0	575668224	64	4607
2026-01-19 07:00:59.77	42.38	28.49	-47.2	-48.9	18.5	0.00e+00	0	37	0	583008256	65	4517
2026-01-19 07:01:03.80	41.11	28.69	-47.2	-48.9	18.4	0.00e+00	0	37	0	591396864	65	4533
2026-01-19 07:01:07.84	39.82	28.87	-47.5	-49.2	18.1	0.00e+00	0	37	0	598736896	65	4703
2026-01-19 07:01:11.87	38.52	29.03	-47.5	-49.2	18.2	0.00e+00	0	37	0	606076928	65	4705
2026-01-19 07:01:15.91	37.21	29.18	-47.3	-49.0	18.4	0.00e+00	0	37	0	613416960	65	4556
2026-01-19 07:01:19.94	35.88	29.31	-47.7	-49.6	17.9	0.00e+00	0	37	0	620756992	65	4882
2026-01-19 07:01:23.97	34.55	29.43	-47.8	-49.6	17.8	0.00e+00	0	37	0	628097024	66	4636
2026-01-19 07:01:28.00	33.20	29.53	-48.2	-50.2	17.2	0.00e+00	0	37	0	636485632	66	4927
2026-01-19 07:01:32.03	31.85	29.61	-48.3	-50.3	17.2	0.00e+00	0	37	0	643825664	67	4715
2026-01-19 07:01:36.06	30.50	29.67	-48.2	-50.1	17.3	0.00e+00	0	37	0	651165696	67	4634
2026-01-19 07:01:40.09	29.14	29.72	-48.2	-50.1	17.3	0.00e+00	0	37	0	658505728	67	4633
2026-01-19 07:01:44.12	27.77	29.74	-48.3	-50.3	17.1	0.00e+00	0	37	0	666894336	67	4730
2026-01-19 07:01:48.15	26.41	29.75	-48.3	-50.3	17.2	0.00e+00	0	37	0	674234368	67	4726
2026-01-19 07:01:52.19	25.04	29.74	-48.0	-49.9	17.5	0.00e+00	0	37	0	681574400	67	4526
2026-01-19 07:01:56.22	23.67	29.72	-47.6	-49.3	18.1	0.00e+00	0	37	0	688914432	67	4238
2026-01-19 07:02:00.25	22.31	29.67	-47.6	-49.3	18.1	0.00e+00	0	37	0	696254464	67	4231
2026-01-19 07:02:04.28	20.96	29.61	-47.3	-49.0	18.5	0.00e+00	0	37	0	704643072	66	4301
2026-01-19 07:02:08.31	19.61	29.52	-47.4	-49.1	18.3	0.00e+00	0	37	0	711983104	66	4379
2026-01-19 07:02:12.34	18.26	29.42	-47.0	-48.7	18.8	0.00e+00	0	37	0	719323136	66	4146
2026-01-19 07:02:16.37	16.93	29.31	-47.0	-48.6	18.8	0.00e+00	0	37	0	726663168	66	4131
2026-01-19 07:02:20.40	15.61	29.18	-47.4	-49.1	18.3	0.00e+00	0	37	0	734003200	66	4373
2026-01-19 07:02:24.44	14.29	29.03	-46.8	-48.3	19.1	0.00e+00	0	37	0	742391808	65	4234
2026-01-19 07:02:28.47	13.00	28.86	-47.2	-48.8	18.6	0.00e+00	0	37	0	749731840	65	4488
2026-01-19 07:02:32.50	11.71	28.68	-47.6	-49.4	18.0	0.00e+00	0	37	0	757071872	65	4812
2026-01-19 07:02:36.53	10.44	28.49	-47.9	-49.8	17.7	0.00e+00	0	37	0	764411904	66	4737
2026-01-19 07:02:40.56	9.19	28.28	-47.9	-49.7	17.7	0.00e+00	0	37	0	771751936	66	4703
2026-01-19 07:02:44.60	7.95	28.05	-47.9	-49.8	17.5	0.00e+00	0	37	0	780140544	66	4753
2026-01-19 07:02:48.63	6.73	27.82	-48.2	-50.1	17.4	0.00e+00	0	37	0	787480576	66	4919
2026-01-19 07:02:52.66	5.53	27.57	-48.2	-50.2	17.2	0.00e+00	0	37	0	794820608	67	4677
2026-01-19 07:02:56.69	4.35	27.31	-47.9	-49.8	17.6	0.00e+00	0	37	0	802160640	67	4492
2026-01-19 07:03:00.73	3.19	27.04	-47.8	-49.6	17.8	0.00e+00	0	37	0	810549248	67	4374
2026-01-19 07:03:04.76	2.05	26.76	-47.8	-49.7	17.7	0.00e+00	0	37	0	817889280	67	4417
2026-01-19 07:03:08.79	0.93	26.47	-47.5	-49.2	18.2	0.00e+00	0	37	0	825229312	66	4418
2026-01-19 07:03:12.83	359.82	26.18	-47.3	-49.0	18.4	0.00e+00	0	37	0	832569344	66	4297
2026-01-19 07:03:16.86	358.75	25.87	-47.1	-48.8	18.6	0.00e+00	0	37	0	839909376	66	4210
2026-01-19 07:03:20.89	357.69	25.56	-47.0	-48.6	18.7	0.00e+00	0	37	0	847249408	66	4116
2026-01-19 07:03:24.93	356.65	25.24	-46.9	-48.5	18.6	0.00e+00	0	37	0	855638016	65	4297
2026-01-19 07:03:28.96	355.63	24.91	-46.6	-48.2	19.2	0.00e+00	0	37	0	862978048	65	4147
2026-01-19 07:03:32.99	354.64	24.58	-46.2	-47.6	19.7	0.00e+00	0	37	0	870318080	64	4138
2026-01-19 07:03:37.02	353.67	24.24	-46.2	-47.7	19.6	0.00e+00	0	37	0	877658112	64	4162
2026-01-19 07:03:41.05	352.71	23.90	-45.9	-47.3	20.1	0.00e+00	0	37	0	886046720	63	4204
2026-01-19 07:03:45.09	351.78	23.56	-45.7	-47.0	20.4	0.00e+00	0	37	0	893386752	63	4063
2026-01-19 07:03:49.12	350.87	23.21	-45.3	-46.5	20.8	0.00e+00	0	37	0	900726784	62	4083
2026-01-19 07:03:53.15	349.98	22.86	-45.2	-46.4	20.9	0.00e+00	0	37	0	908066816	62	4035
2026-01-19 07:03:57.18	349.11	22.50	-45.0	-46.2	21.1	0.00e+00	0	37	0	915406848	62	3946
2026-01-19 07:04:01.21	348.26	22.15	-44.5	-45.7	21.5	0.00e+00	0	37	0	923795456	61	3921
2026-01-19 07:04:05.25	347.43	21.79	-44.7	-45.9	21.3	0.00e+00	0	37	0	931135488	61	4030
2026-01-19 07:04:09.28	346.62	21.43	-44.6	-45.7	21.5	0.00e+00	0	37	0	938475520	61	3946
2026-01-19 07:04:13.31	345.82	21.07	-44.8	-46.0	21.3	0.00e+00	0	37	0	945815552	61	4068
2026-01-19 07:04:17.34	345.05	20.71	-44.9	-46.0	21.2	0.00e+00	0	37	0	954204160	61	4095
2026-01-19 07:04:21.37	344.29	20.35	-44.9	-46.1	21.1	0.00e+00	0	37	0	961544192	61	4124
2026-01-19 07:04:25.40	343.56	19.99	-45.3	-46.5	20.7	0.00e+00	0	37	0	968884224	61	4331
2026-01-19 07:04:29.43	342.84	19.63	-45.1	-46.4	20.8	0.00e+00	0	37	0	976224256	61	4257
2026-01-19 07:04:33.47	342.13	19.27	-45.5	-46.8	20.4	0.00e+00	0	37	0	983564288	61	4489
2026-01-19 07:04:37.50	341.45	18.91	-46.0	-47.4	19.9	0.00e+00	0	37	0	991952896	62	4512
2026-01-19 07:04:41.53	340.77	18.55	-46.1	-47.5	19.7	0.00e+00	0	37	0	999292928	62	4578
2026-01-19 07:04:45.56	340.12	18.19	-46.2	-47.6	19.7	0.00e+00	0	37	0	1006632960	62	4644
2026-01-19 07:04:49.59	339.48	17.84	-46.3	-47.7	19.5	0.00e+00	0	37	0	1013972992	63	4429
2026-01-19 07:04:53.62	338.86	17.48	-46.3	-47.7	19.5	0.00e+00	0	37	0	1021313024	63	4434
2026-01-19 07:04:57.66	338.25	17.13	-46.4	-47.9	19.3	0.00e+00	0	37	0	1029701632	63	4517
2026-01-19 07:05:01.69	337.65	16.78	-46.5	-48.0	19.2	0.00e+00	0	37	0	1037041664	63	4570
2026-01-19 07:05:05.72	337.07	16.43	-46.3	-47.8	19.4	0.00e+00	0	37	0	1044381696	63	4474
2026-01-19 07:05:09.75	336.50	16.08	-46.6	-48.2	19.0	0.00e+00	0	37	0	1051721728	63	4674
2026-01-19 07:05:13.78	335.95	15.74	-46.8	-48.5	18.6	0.00e+00	0	37	0	1059061760	64	4552
2026-01-19 07:05:17.81	335.41	15.40	-46.9	-48.6	18.5	0.00e+00	0	37	0	1067450368	64	4619
2026-01-19 07:05:21.85	334.88	15.06	-46.8	-48.5	18.6	0.00e+00	0	37	0	1074790400	64	4567
2026-01-19 07:05:25.88	334.36	14.72	-47.0	-48.7	18.3	0.00e+00	0	37	0	1082130432	64	4700
2026-01-19 07:05:29.91	333.86	14.38	-47.1	-48.8	18.2	0.00e+00	0	37	0	1089470464	64	4727
2026-01-19 07:05:33.95	333.36	14.05	-47.2	-49.0	18.0	0.00e+00	0	37	0	1097859072	65	4561
2026-01-19 07:05:37.98	332.88	13.72	-47.2	-49.0	18.1	0.00e+00	0	37	0	1105199104	65	4562
2026-01-19 07:05:42.01	332.41	13.39	-47.3	-49.1	17.9	0.00e+00	0	37	0	1112539136	65	4606
2026-01-19 07:05:46.05	331.95	13.06	-47.3	-49.1	17.9	0.00e+00	0	37	0	1119879168	65	4612
2026-01-19 07:05:50.07	331.50	12.74	-47.4	-49.2	17.7	0.00e+00	0	37	0	1127219200	65	4696
2026-01-19 07:05:54.10	331.06	12.42	-47.6	-49.5	17.4	0.00e+00	0	37	0	1135607808	65	4855
2026-01-19 07:05:58.14	330.63	12.10	-47.7	-49.6	17.3	0.00e+00	0	37	0	1142947840	66	4640
2026-01-19 07:06:02.17	330.21	11.78	-47.7	-49.7	17.3	0.00e+00	0	37	0	1150287872	66	4660
2026-01-19 07:06:06.20	329.80	11.47	-47.8	-49.8	17.1	0.00e+00	0	37	0	1157627904	66	4722
2026-01-19 07:06:10.23	329.40	11.16	-47.8	-49.9	17.0	0.00e+00	0	37	0	1164967936	66	4779
2026-01-19 07:06:14.26	329.00	10.85	-48.2	-50.4	16.4	0.00e+00	0	37	0	1173356544	66	5073
2026-01-19 07:06:18.29	328.62	10.54	-48.3	-50.5	16.3	0.00e+00	0	37	0	1180696576	67	4866
2026-01-19 07:06:22.33	328.24	10.24	-48.2	-50.4	16.4	0.00e+00	0	37	0	1188036608	67	4814
2026-01-19 07:06:26.36	327.87	9.94	-47.9	-50.0	16.9	0.00e+00	0	37	0	1195376640	67	4552
2026-01-19 07:06:30.39	327.51	9.64	-48.0	-50.1	16.7	0.00e+00	0	37	0	1202716672	67	4632
2026-01-19 07:06:34.43	327.15	9.34	-48.0	-50.1	16.7	0.00e+00	0	37	0	1211105280	67	4634
2026-01-19 07:06:38.46	326.81	9.05	-48.1	-50.3	16.4	0.00e+00	0	37	0	1218445312	67	4744
2026-01-19 07:06:42.49	326.47	8.76	-48.3	-50.6	16.1	0.00e+00	0	37	0	1225785344	67	4926
2026-01-19 07:06:46.52	326.14	8.47	-48.4	-50.7	16.0	0.00e+00	0	37	0	1233125376	67	4973
2026-01-19 07:06:50.55	325.81	8.18	-48.5	-50.9	15.7	0.00e+00	0	37	0	1240465408	67	5100
2026-01-19 07:06:54.58	325.49	7.90	-48.5	-51.1	15.6	0.00e+00	0	37	0	1248854016	67	5175
2026-01-19 07:06:58.61	325.18	7.62	-48.8	-51.4	15.3	0.00e+00	0	37	0	1256194048	68	5047
2026-01-19 07:07:02.65	324.87	7.34	-48.9	-51.6	15.1	0.00e+00	0	37	0	1263534080	68	5198
2026-01-19 07:07:06.68	324.57	7.06	-48.7	-51.3	15.4	0.00e+00	0	37	0	1270874112	68	4991
2026-01-19 07:07:10.71	324.28	6.78	-48.7	-51.3	15.3	0.00e+00	0	37	0	1279262720	68	5004
2026-01-19 07:07:14.74	323.99	6.51	-49.0	-51.8	14.8	7.00e-07	0	37	0	1286602752	68	5322
2026-01-19 07:07:18.78	323.71	6.24	-49.0	-51.8	14.7	0.00e+00	0	37	0	1293942784	68	5311
2026-01-19 07:07:22.81	323.43	5.97	-49.0	-51.8	14.6	0.00e+00	0	37	0	1301282816	69	5034
2026-01-19 07:07:26.85	323.16	5.70	-49.1	-52.1	14.3	7.00e-07	0	37	0	1308622848	69	5199
2026-01-19 07:07:30.88	322.89	5.44	-49.3	-52.6	13.8	6.80e-06	0	37	0	1317011456	69	5482
2026-01-19 07:07:34.91	322.63	5.18	-49.2	-52.4	13.9	9.90e-06	0	37	0	1324351488	69	5392
2026-01-19 07:07:38.94	322.37	4.92	-52.9	-67.9	3.8	1.49e+00	0	37	104	1329594368	76	21272
2026-01-19 07:07:42.97	322.12	4.66	-53.5	-68.5	3.8	1.49e+00	0	37	104	1329594368	77	21654
2026-01-19 07:07:47.00	321.87	4.40	-53.9	-68.9	3.8	1.49e+00	0	37	104	1329594368	78	21413
2026-01-19 07:07:51.03	321.63	4.15	-54.1	-69.1	3.8	1.49e+00	0	37	104	1329594368	78	21908
2026-01-19 07:07:55.07	321.39	3.89	-54.2	-69.2	3.8	1.49e+00	0	37	104	1329594368	78	22052
2026-01-19 07:07:59.09	321.16	3.64	-54.1	-69.1	3.8	1.49e+00	0	37	104	1329594368	78	21923
2026-01-19 07:08:03.13	320.93	3.39	-54.1	-69.1	3.8	1.49e+00	0	38	104	1329594368	78	21762
2026-01-19 07:08:07.16	320.70	3.15	-54.0	-69.0	3.8	1.49e+00	0	38	104	1329594368	78	21737
2026-01-19 07:08:11.19	320.48	2.90	-54.0	-69.0	3.8	1.49e+00	0	37	104	1329594368	78	21728
2026-01-19 07:08:15.23	320.26	2.65	-54.0	-69.0	3.8	1.49e+00	0	38	104	1329594368	78	21623
2026-01-19 07:08:19.26	320.05	2.41	-54.0	-69.0	3.8	1.49e+00	0	37	104	1329594368	78	21587
2026-01-19 07:08:23.30	319.84	2.17	-54.0	-69.0	3.8	1.49e+00	0	37	104	1329594368	78	21527
2026-01-19 07:08:27.33	319.63	1.93	-53.9	-69.0	3.8	1.49e+00	0	37	104	1329594368	78	21530

#Closed at: 2026-01-19 07:08:27
#Recorded file [1329 MB]: D:/lorett/data/31041_260119_095512.dat