passes_logs/2026/01/19/R3.2S_Murmansk/R3.2S_Murmansk__20260119_015716_NOAA_20_JPSS-1_rec.log

#Pass ID: 20260119_015716_NOAA 20 (JPSS-1)
#Satellite: NOAA 20 (JPSS-1)
#Configuration: NOAA 20
#almurnet v.1.7.20251203
#Start time: 2026-01-19 01:57:16

#Version: 2.2.20231116
#Station: R3.2S_Murmansk
#Location: 33.079688 lon 68.888172 lat
#TLE: 1 43013U 17073A   26018.57232797  .00000065  00000+0  51758-4 0  9998
#TLE: 2 43013  98.7640 319.4740 0001368  34.2083 325.9181 14.19536753423241

#Time	Az	El	Level	Level2	SNR	BER	BlckErr	Temp	State	Recorded	gain1	gain2
2026-01-19 01:57:16.82	30.46	2.03	-48.1	-62.9	3.8	1.49e+00	0	35	0	0	66	21499
2026-01-19 01:57:20.86	30.35	2.29	-48.1	-63.0	3.8	1.49e+00	0	35	104	0	66	21523
2026-01-19 01:57:24.89	30.24	2.54	-48.1	-63.0	3.8	1.49e+00	0	35	104	0	66	21526
2026-01-19 01:57:28.92	30.12	2.80	-48.1	-62.9	3.8	1.49e+00	0	35	104	0	66	21422
2026-01-19 01:57:32.96	30.01	3.06	-48.1	-62.9	3.8	1.49e+00	0	35	104	0	66	21496
2026-01-19 01:57:36.99	29.89	3.32	-48.1	-62.9	3.8	1.49e+00	0	35	104	0	66	21459
2026-01-19 01:57:41.02	29.77	3.59	-48.1	-63.0	3.8	1.49e+00	0	36	104	0	66	21511
2026-01-19 01:57:45.05	29.64	3.86	-48.1	-62.9	3.8	1.49e+00	0	35	104	0	66	21496
2026-01-19 01:57:49.08	29.51	4.13	-48.1	-62.9	3.8	1.49e+00	0	35	104	0	66	21419
2026-01-19 01:57:53.11	29.38	4.40	-48.1	-62.9	3.8	1.49e+00	0	36	104	0	66	21483
2026-01-19 01:57:57.14	29.25	4.67	-48.1	-62.9	3.8	1.49e+00	0	36	104	0	66	21407
2026-01-19 01:58:01.18	29.12	4.95	-48.1	-62.9	3.8	1.49e+00	0	36	104	0	66	21415
2026-01-19 01:58:05.21	28.98	5.23	-48.1	-62.9	3.8	1.49e+00	0	36	104	0	66	21457
2026-01-19 01:58:09.24	28.84	5.51	-48.1	-62.9	3.8	1.49e+00	0	36	104	0	66	21503
2026-01-19 01:58:13.27	28.69	5.80	-48.1	-62.9	3.8	1.49e+00	0	36	104	0	66	21475
2026-01-19 01:58:17.30	28.55	6.09	-48.1	-62.9	3.8	1.49e+00	0	36	104	0	66	21476
2026-01-19 01:58:21.34	28.39	6.38	-48.1	-62.9	3.8	1.49e+00	0	36	104	0	66	21406
2026-01-19 01:58:25.36	28.24	6.68	-48.1	-62.9	3.8	1.49e+00	0	36	104	0	66	21393
2026-01-19 01:58:29.40	28.08	6.98	-48.1	-63.0	3.8	1.49e+00	0	36	104	0	66	21526
2026-01-19 01:58:33.43	27.92	7.28	-48.1	-62.9	3.8	1.49e+00	0	36	104	0	66	21494
2026-01-19 01:58:37.46	27.76	7.58	-48.1	-63.0	3.8	1.49e+00	0	36	104	0	66	21510
2026-01-19 01:58:41.50	27.59	7.89	-48.1	-63.0	3.8	1.49e+00	0	36	104	0	66	21559
2026-01-19 01:58:45.53	27.41	8.20	-48.1	-62.9	3.8	1.49e+00	0	36	104	0	66	21478
2026-01-19 01:58:49.56	27.24	8.52	-48.1	-62.9	3.8	1.49e+00	0	36	104	0	66	21493
2026-01-19 01:58:53.59	27.06	8.84	-48.1	-62.9	3.8	1.49e+00	0	36	104	0	66	21433
2026-01-19 01:58:57.63	26.87	9.16	-48.1	-62.9	3.8	1.49e+00	0	36	104	0	66	21407
2026-01-19 01:59:01.66	26.68	9.49	-48.1	-63.0	3.8	1.49e+00	0	36	104	0	66	21526
2026-01-19 01:59:05.70	26.48	9.82	-48.1	-63.0	3.8	1.49e+00	0	36	104	0	66	21580
2026-01-19 01:59:09.73	26.28	10.16	-48.1	-62.9	3.8	1.49e+00	0	36	104	0	66	21418
2026-01-19 01:59:13.76	26.08	10.49	-48.1	-62.9	3.8	1.49e+00	0	36	104	0	66	21480
2026-01-19 01:59:17.79	25.87	10.84	-48.1	-62.9	3.8	1.49e+00	0	36	104	0	66	21491
2026-01-19 01:59:21.82	25.65	11.19	-48.1	-62.9	3.8	1.49e+00	0	36	104	0	66	21487
2026-01-19 01:59:25.85	25.43	11.54	-48.1	-62.9	3.8	1.49e+00	0	36	104	0	66	21487
2026-01-19 01:59:29.88	25.21	11.90	-48.1	-62.9	3.8	1.49e+00	0	36	104	0	66	21490
2026-01-19 01:59:33.91	24.97	12.26	-48.1	-63.0	3.8	1.49e+00	0	37	104	0	66	21552
2026-01-19 01:59:37.95	24.73	12.63	-48.1	-63.0	3.8	1.49e+00	0	36	104	0	66	21535
2026-01-19 01:59:41.98	24.49	13.00	-48.1	-63.0	3.8	1.49e+00	0	36	104	0	66	21509
2026-01-19 01:59:46.01	24.24	13.38	-48.1	-63.0	3.8	1.49e+00	0	37	104	0	66	21527
2026-01-19 01:59:50.04	23.98	13.76	-48.1	-63.0	3.8	1.49e+00	0	36	104	0	66	21519
2026-01-19 01:59:54.07	23.71	14.15	-48.1	-63.0	3.8	1.49e+00	0	37	104	0	66	21532
2026-01-19 01:59:58.10	23.44	14.54	-48.1	-63.0	3.8	1.49e+00	0	36	104	0	66	21552
2026-01-19 02:00:02.13	23.15	14.94	-48.1	-62.9	3.8	1.49e+00	0	36	104	0	66	21482
2026-01-19 02:00:06.17	22.86	15.35	-48.1	-63.0	3.8	1.49e+00	0	36	104	0	66	21521
2026-01-19 02:00:10.20	22.57	15.76	-48.1	-62.9	3.8	1.49e+00	0	37	104	0	66	21471
2026-01-19 02:00:14.23	22.26	16.17	-48.1	-62.9	3.8	1.49e+00	0	37	104	0	66	21479
2026-01-19 02:00:18.26	21.94	16.60	-48.1	-62.9	3.8	1.49e+00	0	36	104	0	66	21458
2026-01-19 02:00:22.30	21.62	17.03	-48.1	-63.0	3.8	1.49e+00	0	37	104	0	66	21549
2026-01-19 02:00:26.33	21.28	17.47	-48.1	-62.9	3.8	1.49e+00	0	37	104	0	66	21438
2026-01-19 02:00:30.36	20.93	17.91	-48.1	-63.0	3.8	1.49e+00	0	37	104	0	66	21537
2026-01-19 02:00:34.39	20.58	18.36	-48.1	-62.9	3.8	1.49e+00	0	37	104	0	66	21494
2026-01-19 02:00:38.42	20.21	18.82	-48.1	-62.9	3.8	1.49e+00	0	37	104	0	66	21502
2026-01-19 02:00:42.46	19.83	19.28	-48.1	-63.0	3.8	1.49e+00	0	37	104	0	66	21562
2026-01-19 02:00:46.49	19.43	19.76	-48.1	-63.0	3.8	1.49e+00	0	36	104	0	66	21584
2026-01-19 02:00:50.52	19.03	20.24	-48.1	-63.0	3.8	1.49e+00	0	36	104	0	66	21548
2026-01-19 02:00:54.56	18.61	20.73	-48.1	-63.0	3.8	1.49e+00	0	37	104	0	66	21521
2026-01-19 02:00:58.59	18.18	21.22	-48.1	-63.0	3.8	1.49e+00	0	37	104	0	66	21548
2026-01-19 02:01:02.62	17.73	21.73	-48.1	-62.9	3.8	1.49e+00	0	37	104	0	66	21505
2026-01-19 02:01:06.66	17.27	22.24	-48.1	-62.9	3.8	1.49e+00	0	37	104	0	66	21478
2026-01-19 02:01:10.69	16.79	22.76	-48.1	-63.0	3.8	1.49e+00	0	36	104	0	66	21551
2026-01-19 02:01:14.72	16.29	23.29	-48.1	-63.0	3.8	1.49e+00	0	37	104	0	66	21544
2026-01-19 02:01:18.75	15.78	23.83	-48.1	-63.0	3.8	1.49e+00	0	37	104	0	66	21594
2026-01-19 02:01:22.79	15.24	24.37	-48.1	-63.0	3.8	1.49e+00	0	36	104	0	66	21586
2026-01-19 02:01:26.82	14.69	24.93	-48.1	-63.0	3.8	1.49e+00	0	37	104	0	66	21592
2026-01-19 02:01:30.85	14.12	25.49	-48.1	-63.0	3.8	1.49e+00	0	37	104	0	66	21549
2026-01-19 02:01:34.88	13.53	26.06	-48.1	-63.0	3.8	1.49e+00	0	37	104	0	66	21528
2026-01-19 02:01:38.91	12.91	26.65	-48.1	-63.0	3.8	1.49e+00	0	37	104	0	66	21572
2026-01-19 02:01:42.94	12.27	27.24	-48.1	-63.0	3.8	1.49e+00	0	37	104	0	66	21528
2026-01-19 02:01:46.98	11.61	27.84	-48.1	-63.0	3.8	1.49e+00	0	37	104	0	66	21593
2026-01-19 02:01:51.01	10.92	28.44	-48.1	-63.0	3.8	1.49e+00	0	37	104	0	66	21544
2026-01-19 02:01:55.04	10.20	29.06	-48.1	-63.0	3.8	1.49e+00	0	37	104	0	66	21543
2026-01-19 02:01:59.07	9.45	29.68	-48.1	-63.0	3.8	1.49e+00	0	37	104	0	66	21617
2026-01-19 02:02:03.10	8.68	30.32	-48.1	-63.0	3.8	1.49e+00	0	37	104	0	66	21571
2026-01-19 02:02:07.13	7.87	30.96	-48.1	-63.0	3.8	1.49e+00	0	37	104	0	66	21538
2026-01-19 02:02:11.16	7.03	31.60	-48.1	-63.0	3.8	1.49e+00	0	37	104	0	66	21567
2026-01-19 02:02:15.20	6.15	32.26	-48.1	-63.0	3.8	1.49e+00	0	37	104	0	66	21545
2026-01-19 02:02:19.23	5.23	32.92	-48.1	-63.0	3.8	1.49e+00	0	37	104	0	66	21565
2026-01-19 02:02:23.27	4.28	33.59	-48.1	-63.0	3.8	1.49e+00	0	37	104	0	66	21550
2026-01-19 02:02:27.29	3.29	34.26	-48.1	-62.9	3.8	1.49e+00	0	37	104	0	66	21500
2026-01-19 02:02:31.32	2.25	34.94	-48.1	-63.0	3.8	1.49e+00	0	37	104	0	66	21533
2026-01-19 02:02:35.36	1.17	35.62	-48.1	-63.0	3.8	1.49e+00	0	37	104	0	66	21544
2026-01-19 02:02:39.39	0.04	36.30	-48.1	-63.0	3.8	1.49e+00	0	37	104	0	66	21595
2026-01-19 02:02:43.42	358.87	36.98	-48.1	-63.0	3.8	1.49e+00	0	36	104	0	66	21587
2026-01-19 02:02:47.45	357.64	37.67	-48.1	-62.9	3.8	1.49e+00	0	37	104	0	66	21490
2026-01-19 02:02:51.48	356.36	38.35	-48.1	-63.0	3.8	1.49e+00	0	37	104	0	66	21591
2026-01-19 02:02:55.51	355.03	39.03	-48.1	-63.0	3.8	1.49e+00	0	37	104	0	66	21583
2026-01-19 02:02:59.54	353.64	39.70	-48.1	-63.0	3.8	1.49e+00	0	37	104	0	66	21585
2026-01-19 02:03:03.58	352.18	40.37	-48.1	-63.0	3.8	1.49e+00	0	37	104	0	66	21554
2026-01-19 02:03:07.61	350.67	41.02	-48.1	-63.0	3.8	1.49e+00	0	37	104	0	66	21521
2026-01-19 02:03:11.64	349.09	41.67	-48.1	-63.0	3.8	1.49e+00	0	37	104	0	66	21564
2026-01-19 02:03:15.68	347.45	42.30	-48.1	-63.0	3.8	1.49e+00	0	37	104	0	66	21581
2026-01-19 02:03:19.71	345.75	42.91	-48.1	-63.0	3.8	1.49e+00	0	37	104	0	66	21517
2026-01-19 02:03:23.74	343.98	43.50	-48.1	-63.0	3.8	1.49e+00	0	37	104	0	66	21573
2026-01-19 02:03:27.78	342.14	44.07	-48.1	-63.0	3.8	1.49e+00	0	37	104	0	66	21545
2026-01-19 02:03:31.80	340.24	44.62	-48.1	-63.0	3.8	1.49e+00	0	37	104	0	66	21551
2026-01-19 02:03:35.84	338.27	45.13	-48.1	-63.0	3.8	1.49e+00	0	37	104	0	66	21599
2026-01-19 02:03:39.87	336.25	45.61	-48.1	-63.0	3.8	1.49e+00	0	37	104	0	66	21515
2026-01-19 02:03:43.90	334.16	46.06	-48.1	-63.0	3.8	1.49e+00	0	37	104	0	66	21647
2026-01-19 02:03:47.93	332.01	46.46	-48.1	-63.0	3.8	1.49e+00	0	37	104	0	66	21586
2026-01-19 02:03:51.96	329.81	46.83	-48.1	-63.0	3.8	1.49e+00	0	37	104	0	66	21600
2026-01-19 02:03:55.99	327.56	47.15	-48.1	-63.0	3.8	1.49e+00	0	37	104	0	66	21577
2026-01-19 02:04:00.02	325.27	47.42	-48.1	-63.0	3.8	1.49e+00	0	37	104	0	66	21608
2026-01-19 02:04:04.06	322.93	47.64	-48.1	-63.0	3.8	1.49e+00	0	37	104	0	66	21584
2026-01-19 02:04:08.09	320.57	47.81	-48.1	-63.0	3.8	1.49e+00	0	37	104	0	66	21555
2026-01-19 02:04:12.12	318.19	47.93	-48.1	-63.0	3.8	1.49e+00	0	37	104	0	66	21618
2026-01-19 02:04:16.15	315.79	48.00	-48.1	-63.0	3.8	1.49e+00	0	37	104	0	66	21580
2026-01-19 02:04:20.18	313.39	48.01	-48.1	-63.0	3.8	1.49e+00	0	37	104	0	66	21534
2026-01-19 02:04:24.21	310.99	47.96	-48.1	-63.0	3.8	1.49e+00	0	37	104	0	66	21537
2026-01-19 02:04:28.24	308.60	47.86	-48.1	-63.0	3.8	1.49e+00	0	37	104	0	66	21565
2026-01-19 02:04:32.27	306.23	47.71	-48.1	-63.0	3.8	1.49e+00	0	37	104	0	66	21585
2026-01-19 02:04:36.31	303.88	47.50	-48.1	-63.0	3.8	1.49e+00	0	37	104	0	66	21538
2026-01-19 02:04:40.34	301.57	47.25	-48.1	-63.0	3.8	1.49e+00	0	37	104	0	66	21578
2026-01-19 02:04:44.38	299.30	46.94	-48.1	-63.0	3.8	1.49e+00	0	37	104	0	66	21635
2026-01-19 02:04:48.41	297.08	46.59	-48.1	-63.0	3.8	1.49e+00	0	37	104	0	66	21590
2026-01-19 02:04:52.44	294.91	46.20	-48.1	-63.0	3.8	1.49e+00	0	37	104	0	66	21569
2026-01-19 02:04:56.47	292.80	45.77	-48.1	-63.0	3.8	1.49e+00	0	37	104	0	66	21591
2026-01-19 02:05:00.50	290.75	45.30	-48.1	-63.0	3.8	1.49e+00	0	37	104	0	66	21584
2026-01-19 02:05:04.54	288.76	44.79	-48.1	-63.0	3.8	1.49e+00	0	37	104	0	66	21573
2026-01-19 02:05:08.56	286.84	44.26	-48.1	-63.0	3.8	1.49e+00	0	37	104	0	66	21570
2026-01-19 02:05:12.59	284.98	43.70	-48.1	-63.0	3.8	1.49e+00	0	37	104	0	66	21605
2026-01-19 02:05:16.63	283.18	43.11	-48.1	-63.0	3.8	1.49e+00	0	37	104	0	66	21577
2026-01-19 02:05:20.66	281.45	42.51	-48.1	-63.0	3.8	1.49e+00	0	37	104	0	66	21639
2026-01-19 02:05:24.69	279.79	41.88	-48.1	-63.0	3.8	1.49e+00	0	37	104	0	66	21602
2026-01-19 02:05:28.72	278.19	41.24	-48.1	-63.0	3.8	1.49e+00	0	37	104	0	66	21600
2026-01-19 02:05:32.76	276.65	40.58	-48.1	-63.0	3.8	1.49e+00	0	37	104	0	66	21575
2026-01-19 02:05:36.79	275.17	39.92	-48.1	-63.0	3.8	1.49e+00	0	37	104	0	66	21675
2026-01-19 02:05:40.82	273.76	39.25	-48.1	-63.0	3.8	1.49e+00	0	37	104	0	66	21553
2026-01-19 02:05:44.85	272.40	38.57	-48.1	-63.0	3.8	1.49e+00	0	37	104	0	66	21577
2026-01-19 02:05:48.88	271.10	37.89	-48.1	-63.0	3.8	1.49e+00	0	37	104	0	66	21552
2026-01-19 02:05:52.91	269.86	37.20	-48.1	-63.0	3.8	1.49e+00	0	37	104	0	66	21590
2026-01-19 02:05:56.94	268.66	36.52	-48.1	-63.0	3.8	1.49e+00	0	37	104	0	66	21558
2026-01-19 02:06:00.97	267.52	35.83	-48.1	-63.0	3.8	1.49e+00	0	37	104	0	66	21550
2026-01-19 02:06:05.01	266.42	35.15	-48.1	-63.0	3.8	1.49e+00	0	37	104	0	66	21552
2026-01-19 02:06:09.04	265.36	34.47	-48.1	-63.0	3.8	1.49e+00	0	37	104	0	66	21611
2026-01-19 02:06:13.08	264.35	33.79	-48.1	-63.0	3.8	1.49e+00	0	37	104	0	66	21561
2026-01-19 02:06:17.11	263.38	33.12	-48.1	-63.0	3.8	1.49e+00	0	37	104	0	66	21621
2026-01-19 02:06:21.14	262.45	32.46	-48.1	-63.0	3.8	1.49e+00	0	37	104	0	66	21578
2026-01-19 02:06:25.18	261.56	31.80	-48.1	-63.0	3.8	1.49e+00	0	37	104	0	66	21535
2026-01-19 02:06:29.20	260.71	31.15	-48.1	-63.0	3.8	1.49e+00	0	37	104	0	66	21603
2026-01-19 02:06:33.24	259.88	30.50	-48.1	-63.0	3.8	1.49e+00	0	37	104	0	66	21548
2026-01-19 02:06:37.27	259.09	29.86	-48.1	-63.0	3.8	1.49e+00	0	37	104	0	66	21583
2026-01-19 02:06:41.31	258.33	29.23	-48.1	-63.0	3.8	1.49e+00	0	37	104	0	66	21591
2026-01-19 02:06:45.34	257.60	28.61	-48.1	-63.0	3.8	1.49e+00	0	37	104	0	66	21569
2026-01-19 02:06:49.37	256.90	28.00	-48.1	-63.0	3.8	1.49e+00	0	37	104	0	66	21565
2026-01-19 02:06:53.40	256.23	27.40	-48.1	-63.0	3.8	1.49e+00	0	37	104	0	66	21578
2026-01-19 02:06:57.43	255.58	26.81	-48.1	-63.0	3.8	1.49e+00	0	37	104	0	66	21578
2026-01-19 02:07:01.47	254.95	26.22	-48.1	-63.0	3.8	1.49e+00	0	37	104	0	66	21629
2026-01-19 02:07:05.50	254.35	25.64	-48.1	-63.0	3.8	1.49e+00	0	37	104	0	66	21596
2026-01-19 02:07:09.53	253.77	25.07	-48.1	-63.0	3.8	1.49e+00	0	37	104	0	66	21576
2026-01-19 02:07:13.56	253.21	24.51	-48.1	-63.0	3.8	1.49e+00	0	37	104	0	66	21544
2026-01-19 02:07:17.60	252.67	23.96	-48.1	-63.0	3.8	1.49e+00	0	37	104	0	66	21615
2026-01-19 02:07:21.63	252.15	23.42	-48.1	-63.0	3.8	1.49e+00	0	37	104	0	66	21527
2026-01-19 02:07:25.66	251.64	22.89	-48.1	-63.0	3.8	1.49e+00	0	37	104	0	66	21579
2026-01-19 02:07:29.69	251.16	22.36	-48.1	-63.0	3.8	1.49e+00	0	37	104	0	66	21539
2026-01-19 02:07:33.72	250.69	21.85	-48.1	-63.0	3.8	1.49e+00	0	37	104	0	66	21560
2026-01-19 02:07:37.75	250.23	21.34	-48.1	-63.0	3.8	1.49e+00	0	37	104	0	66	21633
2026-01-19 02:07:41.78	249.79	20.84	-48.1	-63.0	3.8	1.49e+00	0	37	104	0	66	21598
2026-01-19 02:07:45.82	249.37	20.35	-48.1	-63.0	3.8	1.49e+00	0	37	104	0	66	21536
2026-01-19 02:07:49.85	248.95	19.86	-48.1	-63.0	3.8	1.49e+00	0	37	104	0	66	21561
2026-01-19 02:07:53.88	248.56	19.39	-48.1	-63.0	3.8	1.49e+00	0	37	104	0	66	21600
2026-01-19 02:07:57.91	248.17	18.92	-48.1	-63.0	3.8	1.49e+00	0	37	104	0	66	21556
2026-01-19 02:08:01.94	247.80	18.46	-48.1	-63.0	3.8	1.49e+00	0	37	104	0	66	21562
2026-01-19 02:08:05.98	247.43	18.00	-48.1	-63.0	3.8	1.49e+00	0	37	104	0	66	21589
2026-01-19 02:08:10.01	247.08	17.56	-48.1	-63.0	3.8	1.49e+00	0	37	104	0	66	21546
2026-01-19 02:08:14.04	246.74	17.12	-48.1	-63.0	3.8	1.49e+00	0	37	104	0	66	21585
2026-01-19 02:08:18.08	246.41	16.68	-48.1	-63.0	3.8	1.49e+00	0	37	104	0	66	21537
2026-01-19 02:08:22.11	246.09	16.25	-48.1	-63.0	3.8	1.49e+00	0	37	104	0	66	21554
2026-01-19 02:08:26.14	245.77	15.83	-48.1	-63.0	3.8	1.49e+00	0	37	104	0	66	21555
2026-01-19 02:08:30.17	245.47	15.42	-48.1	-63.0	3.8	1.49e+00	0	37	104	0	66	21560
2026-01-19 02:08:34.20	245.18	15.01	-48.1	-63.0	3.8	1.49e+00	0	37	104	0	66	21596
2026-01-19 02:08:38.23	244.89	14.61	-48.1	-63.0	3.8	1.49e+00	0	37	104	0	66	21621
2026-01-19 02:08:42.26	244.61	14.21	-48.1	-63.0	3.8	1.49e+00	0	37	104	0	66	21598
2026-01-19 02:08:46.29	244.34	13.82	-48.1	-63.0	3.8	1.49e+00	0	37	104	0	66	21590
2026-01-19 02:08:50.33	244.08	13.44	-48.1	-63.0	3.8	1.49e+00	0	37	104	0	66	21529
2026-01-19 02:08:54.36	243.82	13.06	-48.1	-63.0	3.8	1.49e+00	0	37	104	0	66	21536
2026-01-19 02:08:58.39	243.57	12.68	-48.1	-63.0	3.8	1.49e+00	0	37	104	0	66	21578
2026-01-19 02:09:02.42	243.33	12.31	-48.1	-63.0	3.8	1.49e+00	0	37	104	0	66	21622
2026-01-19 02:09:06.45	243.09	11.95	-48.1	-63.0	3.8	1.49e+00	0	37	104	0	66	21580
2026-01-19 02:09:10.49	242.86	11.59	-48.1	-63.0	3.8	1.49e+00	0	37	104	0	66	21572
2026-01-19 02:09:14.52	242.63	11.23	-48.1	-63.0	3.8	1.49e+00	0	37	104	0	66	21625
2026-01-19 02:09:18.55	242.42	10.88	-48.1	-63.0	3.8	1.49e+00	0	37	104	0	66	21578
2026-01-19 02:09:22.59	242.20	10.54	-48.1	-63.0	3.8	1.49e+00	0	37	104	0	66	21598
2026-01-19 02:09:26.62	241.99	10.20	-48.1	-63.0	3.8	1.49e+00	0	37	104	0	66	21566
2026-01-19 02:09:30.65	241.79	9.86	-48.1	-63.0	3.8	1.49e+00	0	37	104	0	66	21572
2026-01-19 02:09:34.68	241.59	9.53	-48.1	-63.0	3.8	1.49e+00	0	37	104	0	66	21611
2026-01-19 02:09:38.71	241.40	9.20	-48.1	-63.0	3.8	1.49e+00	0	37	104	0	66	21553
2026-01-19 02:09:42.74	241.21	8.87	-48.1	-63.0	3.8	1.49e+00	0	37	104	0	66	21562
2026-01-19 02:09:46.77	241.02	8.55	-48.1	-63.0	3.8	1.49e+00	0	37	104	0	66	21564
2026-01-19 02:09:50.80	240.84	8.23	-48.1	-63.0	3.8	1.49e+00	0	37	104	0	66	21604
2026-01-19 02:09:54.83	240.66	7.92	-48.1	-63.0	3.8	1.49e+00	0	37	104	0	66	21528
2026-01-19 02:09:58.86	240.49	7.61	-48.1	-63.0	3.8	1.49e+00	0	37	104	0	66	21573
2026-01-19 02:10:02.90	240.32	7.30	-48.1	-63.0	3.8	1.49e+00	0	37	104	0	66	21574
2026-01-19 02:10:06.93	240.16	7.00	-48.1	-63.0	3.8	1.49e+00	0	37	104	0	66	21584
2026-01-19 02:10:10.96	240.00	6.70	-48.1	-63.0	3.8	1.49e+00	0	37	104	0	66	21524
2026-01-19 02:10:14.99	239.84	6.40	-48.1	-63.0	3.8	1.49e+00	0	37	104	0	66	21548
2026-01-19 02:10:19.02	239.69	6.11	-48.1	-63.0	3.8	1.49e+00	0	37	104	0	66	21576
2026-01-19 02:10:23.06	239.53	5.82	-48.1	-63.0	3.8	1.49e+00	0	37	104	0	66	21543
2026-01-19 02:10:27.09	239.39	5.53	-48.1	-63.0	3.8	1.49e+00	0	37	104	0	66	21573
2026-01-19 02:10:31.12	239.24	5.25	-48.1	-63.0	3.8	1.49e+00	0	37	104	0	66	21636
2026-01-19 02:10:35.15	239.10	4.97	-48.1	-63.0	3.8	1.49e+00	0	37	104	0	66	21595
2026-01-19 02:10:39.19	238.96	4.69	-48.1	-62.9	3.8	1.49e+00	0	37	104	0	66	21505
2026-01-19 02:10:43.22	238.82	4.41	-48.1	-63.0	3.8	1.49e+00	0	37	104	0	66	21582
2026-01-19 02:10:47.26	238.69	4.14	-48.1	-63.0	3.8	1.49e+00	0	37	104	0	66	21566
2026-01-19 02:10:51.29	238.56	3.87	-48.1	-63.0	3.8	1.49e+00	0	37	104	0	66	21591
2026-01-19 02:10:55.32	238.43	3.60	-48.1	-63.0	3.8	1.49e+00	0	37	104	0	66	21579
2026-01-19 02:10:59.35	238.31	3.33	-48.1	-63.0	3.8	1.49e+00	0	37	104	0	66	21545
2026-01-19 02:11:03.39	238.19	3.07	-48.1	-63.0	3.8	1.49e+00	0	37	104	0	66	21569
2026-01-19 02:11:07.42	238.06	2.81	-48.1	-63.0	3.8	1.49e+00	0	37	104	0	66	21553
2026-01-19 02:11:11.45	237.95	2.55	-48.1	-63.0	3.8	1.49e+00	0	37	104	0	66	21552
2026-01-19 02:11:15.48	237.83	2.29	-48.1	-63.0	3.8	1.49e+00	0	37	104	0	66	21588
2026-01-19 02:11:19.51	237.72	2.04	-48.1	-63.0	3.8	1.49e+00	0	37	104	0	66	21533

#Closed at: 2026-01-19 02:11:22
#Recorded file [0 MB]: D:/lorett/data/31041_260119_045716.dat