passes_logs/2026/01/19/R3.2S_Murmansk/R3.2S_Murmansk__20260119_111744_AQUA_rec.log

#Pass ID: 20260119_111744_AQUA
#Satellite: AQUA
#Configuration: AQUA
#almurnet v.1.7.20251203
#Start time: 2026-01-19 11:17:44

#Version: 2.2.20231116
#Station: R3.2S_Murmansk
#Location: 33.079688 lon 68.888172 lat
#TLE: 1 27424U 02022A   26018.92652823  .00000914  00000+0  19290-3 0  9996
#TLE: 2 27424  98.4089 345.4199 0001997  73.4625 351.8991 14.61828815261466

#Time	Az	El	Level	Level2	SNR	BER	BlckErr	Temp	State	Recorded	gain1	gain2
2026-01-19 11:17:44.54	152.44	2.03	-53.8	-71.6	3.8	7.47e-01	0	35	0	0	79	27577
2026-01-19 11:17:48.57	152.45	2.30	-53.8	-71.3	3.8	7.46e-01	0	35	104	0	78	28170
2026-01-19 11:17:52.61	152.46	2.57	-53.8	-70.5	3.8	7.46e-01	0	36	104	0	78	25660
2026-01-19 11:17:56.64	152.46	2.85	-53.7	-70.0	3.8	7.45e-01	0	36	104	0	78	24329
2026-01-19 11:18:00.67	152.47	3.13	-53.7	-70.3	3.8	7.45e-01	0	36	104	0	78	25055
2026-01-19 11:18:04.70	152.48	3.41	-53.8	-70.8	3.8	7.45e-01	0	36	104	0	78	26558
2026-01-19 11:18:08.74	152.49	3.70	-53.4	-63.8	6.5	6.72e-01	184	36	0	2097152	78	11920
2026-01-19 11:18:12.77	152.50	3.98	-52.9	-60.4	10.0	6.25e-01	0	36	0	9437184	77	8537
2026-01-19 11:18:16.80	152.51	4.28	-52.0	-57.2	13.4	6.10e-01	0	36	0	17301504	75	6645
2026-01-19 11:18:20.84	152.51	4.57	-50.2	-53.4	17.3	6.05e-01	0	36	0	24641536	71	5346
2026-01-19 11:18:24.87	152.52	4.87	-47.9	-49.9	21.0	6.06e-01	0	36	0	32505856	67	4503
2026-01-19 11:18:28.90	152.53	5.18	-48.0	-50.0	20.9	6.06e-01	0	37	0	39845888	67	4566
2026-01-19 11:18:32.93	152.54	5.48	-47.5	-49.4	21.4	6.05e-01	0	37	0	47710208	67	4255
2026-01-19 11:18:36.96	152.54	5.79	-47.3	-49.1	21.7	6.06e-01	0	37	0	55050240	66	4376
2026-01-19 11:18:41.00	152.55	6.11	-47.1	-48.8	22.0	6.05e-01	0	37	0	62390272	65	4469
2026-01-19 11:18:45.02	152.56	6.43	-46.9	-48.6	22.3	6.05e-01	0	37	0	69730304	65	4369
2026-01-19 11:18:49.05	152.56	6.75	-46.7	-48.4	22.6	6.07e-01	0	37	0	77594624	65	4243
2026-01-19 11:18:53.09	152.57	7.08	-46.8	-48.5	22.5	6.05e-01	0	37	0	84934656	65	4298
2026-01-19 11:18:57.12	152.58	7.42	-46.9	-48.6	22.4	6.06e-01	0	37	0	92798976	65	4345
2026-01-19 11:19:01.15	152.58	7.76	-46.8	-48.4	22.6	6.08e-01	0	37	0	100139008	65	4286
2026-01-19 11:19:05.19	152.59	8.10	-46.4	-48.0	23.2	6.05e-01	0	37	0	108003328	64	4300
2026-01-19 11:19:09.22	152.60	8.45	-46.4	-48.0	23.1	6.05e-01	0	37	0	115343360	64	4304
2026-01-19 11:19:13.25	152.60	8.80	-46.1	-47.6	23.6	6.04e-01	0	37	0	123207680	64	4107
2026-01-19 11:19:17.28	152.61	9.16	-46.0	-47.5	23.7	6.07e-01	0	37	0	130547712	64	4068
2026-01-19 11:19:21.31	152.61	9.53	-46.3	-47.8	23.5	6.06e-01	0	37	0	137887744	64	4203
2026-01-19 11:19:25.34	152.62	9.90	-46.3	-47.7	23.6	6.06e-01	0	37	0	145752064	64	4180
2026-01-19 11:19:29.37	152.62	10.28	-46.2	-47.7	23.7	6.05e-01	0	37	0	153092096	63	4400
2026-01-19 11:19:33.41	152.63	10.67	-46.0	-47.4	24.0	6.06e-01	0	37	0	160956416	63	4286
2026-01-19 11:19:37.44	152.63	11.06	-46.1	-47.5	23.8	6.06e-01	0	37	0	168296448	63	4340
2026-01-19 11:19:41.47	152.64	11.46	-45.8	-47.1	24.3	6.06e-01	0	37	0	176160768	63	4128
2026-01-19 11:19:45.50	152.64	11.87	-45.8	-47.2	24.2	6.05e-01	0	37	0	183500800	63	4180
2026-01-19 11:19:49.53	152.64	12.28	-45.6	-46.9	24.5	6.05e-01	0	37	0	190840832	63	4047
2026-01-19 11:19:53.56	152.65	12.70	-45.7	-47.0	24.4	6.06e-01	0	37	0	198705152	63	4075
2026-01-19 11:19:57.59	152.65	13.13	-45.6	-47.0	24.5	6.06e-01	0	37	0	206045184	63	4052
2026-01-19 11:20:01.62	152.65	13.57	-45.5	-46.9	24.6	6.09e-01	0	37	0	213385216	62	4250
2026-01-19 11:20:05.65	152.65	14.02	-45.5	-46.8	24.7	6.08e-01	0	37	0	221249536	62	4214
2026-01-19 11:20:09.68	152.65	14.48	-45.5	-46.8	24.7	6.05e-01	0	37	0	228589568	62	4199
2026-01-19 11:20:13.72	152.66	14.95	-45.5	-46.8	24.7	6.07e-01	0	37	0	236453888	62	4221
2026-01-19 11:20:17.75	152.66	15.42	-45.4	-46.6	24.9	6.06e-01	0	37	0	243793920	62	4145
2026-01-19 11:20:21.78	152.66	15.91	-45.4	-46.7	24.9	6.06e-01	0	37	0	251658240	62	4156
2026-01-19 11:20:25.81	152.66	16.41	-45.1	-46.4	25.2	6.06e-01	0	37	0	258998272	62	4011
2026-01-19 11:20:29.84	152.66	16.92	-45.1	-46.3	25.2	6.06e-01	0	37	0	266862592	62	3999
2026-01-19 11:20:33.88	152.65	17.44	-45.3	-46.6	25.0	6.05e-01	0	37	0	274202624	62	4113
2026-01-19 11:20:37.91	152.65	17.98	-45.4	-46.7	24.9	6.06e-01	0	37	0	281542656	62	4189
2026-01-19 11:20:41.94	152.65	18.53	-45.4	-46.7	24.9	6.03e-01	0	37	0	289406976	62	4181
2026-01-19 11:20:45.97	152.65	19.09	-45.4	-46.7	24.9	6.07e-01	0	37	0	296747008	62	4174
2026-01-19 11:20:50.00	152.64	19.66	-45.4	-46.6	25.0	6.05e-01	0	37	0	304611328	62	4135
2026-01-19 11:20:54.03	152.64	20.26	-45.6	-46.9	24.8	6.08e-01	0	37	0	311951360	62	4260
2026-01-19 11:20:58.06	152.63	20.86	-45.7	-47.0	24.7	6.04e-01	0	37	0	319291392	62	4313
2026-01-19 11:21:02.09	152.62	21.49	-45.8	-47.1	24.6	6.06e-01	0	37	0	327155712	62	4373
2026-01-19 11:21:06.13	152.62	22.13	-45.7	-47.0	24.7	6.05e-01	0	37	0	334495744	62	4328
2026-01-19 11:21:10.16	152.61	22.79	-45.7	-47.0	24.8	6.05e-01	0	37	0	342360064	62	4304
2026-01-19 11:21:14.19	152.60	23.46	-45.7	-47.0	24.7	6.07e-01	0	37	0	349700096	62	4324
2026-01-19 11:21:18.22	152.59	24.16	-45.7	-47.0	24.8	6.08e-01	0	37	0	357040128	62	4301
2026-01-19 11:21:22.26	152.58	24.88	-45.7	-47.0	24.8	6.06e-01	0	37	0	364904448	62	4325
2026-01-19 11:21:26.29	152.56	25.62	-45.4	-46.7	25.1	6.06e-01	0	37	0	372244480	62	4168
2026-01-19 11:21:30.32	152.55	26.39	-45.5	-46.8	25.0	6.05e-01	0	37	0	380108800	62	4198
2026-01-19 11:21:34.35	152.53	27.17	-45.3	-46.6	25.2	6.05e-01	0	37	0	387448832	62	4128
2026-01-19 11:21:38.38	152.52	27.98	-45.2	-46.5	25.4	6.09e-01	0	37	0	395313152	62	4052
2026-01-19 11:21:42.41	152.50	28.82	-45.0	-46.2	25.6	6.06e-01	0	37	0	402653184	61	4158
2026-01-19 11:21:46.45	152.48	29.69	-45.4	-46.7	25.2	6.07e-01	0	37	0	410517504	61	4411
2026-01-19 11:21:50.48	152.45	30.59	-45.1	-46.3	25.5	6.05e-01	0	37	0	417857536	61	4225
2026-01-19 11:21:54.51	152.43	31.51	-45.2	-46.4	25.5	6.05e-01	0	37	0	425197568	61	4258
2026-01-19 11:21:58.54	152.40	32.47	-45.0	-46.2	25.6	6.05e-01	0	37	0	433061888	61	4187
2026-01-19 11:22:02.57	152.37	33.47	-45.5	-46.7	25.2	6.06e-01	0	37	0	440401920	61	4434
2026-01-19 11:22:06.60	152.33	34.49	-45.7	-47.0	25.0	6.06e-01	0	37	0	447741952	62	4308
2026-01-19 11:22:10.63	152.30	35.56	-46.3	-47.7	24.3	6.07e-01	0	37	0	455606272	63	4405
2026-01-19 11:22:14.66	152.26	36.66	-46.6	-48.0	24.0	6.07e-01	0	37	0	462946304	63	4592
2026-01-19 11:22:18.69	152.21	37.81	-47.2	-48.7	23.3	6.06e-01	0	37	0	470810624	64	4686
2026-01-19 11:22:22.73	152.16	39.00	-47.1	-48.6	23.4	6.08e-01	0	37	0	478150656	65	4387
2026-01-19 11:22:26.76	152.11	40.23	-46.7	-48.1	23.8	6.06e-01	0	37	0	486014976	65	4142
2026-01-19 11:22:30.79	152.05	41.51	-46.7	-48.1	23.9	6.05e-01	0	38	0	493355008	65	4140
2026-01-19 11:22:34.82	151.98	42.84	-46.6	-48.0	24.0	6.07e-01	0	37	0	500695040	65	4061
2026-01-19 11:22:38.85	151.91	44.22	-46.0	-47.3	24.8	6.04e-01	0	38	0	508559360	63	4226
2026-01-19 11:22:42.89	151.82	45.66	-46.0	-47.3	24.8	6.04e-01	0	37	0	515899392	63	4210
2026-01-19 11:22:46.92	151.73	47.15	-46.1	-47.4	24.6	6.06e-01	0	37	0	523763712	63	4256
2026-01-19 11:22:50.95	151.63	48.70	-45.4	-46.6	25.4	6.04e-01	0	37	0	531103744	62	4143
2026-01-19 11:22:54.98	151.51	50.30	-45.4	-46.7	25.4	6.05e-01	0	37	0	538968064	62	4150
2026-01-19 11:22:59.02	151.38	51.97	-44.6	-45.8	26.2	6.05e-01	0	37	0	546308096	61	3977
2026-01-19 11:23:03.05	151.24	53.70	-44.5	-45.6	26.3	6.05e-01	0	38	0	554172416	60	4138
2026-01-19 11:23:07.09	151.07	55.49	-44.9	-46.1	25.9	6.05e-01	0	38	0	561512448	60	4348
2026-01-19 11:23:11.12	150.87	57.34	-45.5	-46.7	25.4	6.05e-01	0	37	0	568852480	61	4415
2026-01-19 11:23:15.15	150.64	59.26	-45.9	-47.2	24.9	6.05e-01	0	38	0	576716800	63	4157
2026-01-19 11:23:19.18	150.38	61.24	-46.7	-48.1	24.1	6.06e-01	0	38	0	584056832	63	4605
2026-01-19 11:23:23.21	150.06	63.28	-47.6	-49.2	23.0	6.07e-01	0	37	0	591396864	65	4675
2026-01-19 11:23:27.25	149.68	65.39	-48.7	-50.5	21.7	6.07e-01	0	37	0	599261184	68	4552
2026-01-19 11:23:31.28	149.22	67.56	-49.1	-50.9	21.3	6.08e-01	0	37	0	606601216	69	4541
2026-01-19 11:23:35.31	148.64	69.78	-49.3	-51.3	21.0	6.06e-01	0	38	0	614465536	70	4448
2026-01-19 11:23:39.34	147.90	72.05	-49.2	-51.1	21.1	6.08e-01	0	37	0	621805568	70	4370
2026-01-19 11:23:43.37	146.92	74.37	-49.0	-50.8	21.3	6.04e-01	0	37	0	629669888	69	4493
2026-01-19 11:23:47.41	145.57	76.73	-48.6	-50.4	21.8	6.05e-01	0	37	0	637009920	68	4512
2026-01-19 11:23:51.44	143.62	79.12	-47.2	-48.7	23.6	6.08e-01	0	38	0	644874240	66	4152
2026-01-19 11:23:55.47	140.52	81.51	-46.1	-47.4	24.7	6.06e-01	0	37	0	652214272	64	4027
2026-01-19 11:23:59.50	134.94	83.89	-46.6	-48.0	24.2	6.06e-01	0	37	0	659554304	64	4320
2026-01-19 11:24:03.53	122.46	86.16	-45.9	-47.2	25.0	6.04e-01	0	37	0	667418624	63	4158
2026-01-19 11:24:07.56	84.73	87.84	-45.2	-46.5	25.8	6.02e-01	0	37	0	674758656	62	4054
2026-01-19 11:24:11.60	23.34	87.31	-45.5	-46.7	25.5	6.02e-01	0	37	0	682622976	62	4188
2026-01-19 11:24:15.63	359.74	85.28	-46.5	-47.8	24.5	6.04e-01	0	37	0	689963008	64	4220
2026-01-19 11:24:19.66	351.01	82.95	-46.2	-47.5	24.7	6.04e-01	0	37	0	697303040	64	4081
2026-01-19 11:24:23.69	346.69	80.56	-46.1	-47.3	24.9	6.02e-01	0	37	0	705167360	64	3996
2026-01-19 11:24:27.72	344.14	78.16	-47.6	-49.0	23.4	6.04e-01	0	37	0	712507392	65	4592
2026-01-19 11:24:31.75	342.47	75.79	-49.2	-51.1	21.5	6.03e-01	0	37	0	720371712	69	4601
2026-01-19 11:24:35.79	341.29	73.44	-49.1	-50.9	21.5	6.03e-01	0	37	0	727711744	69	4537
2026-01-19 11:24:39.81	340.43	71.15	-49.1	-50.9	21.5	6.05e-01	0	38	0	735051776	68	4801
2026-01-19 11:24:43.84	339.76	68.90	-50.2	-52.4	20.1	6.03e-01	0	38	0	742916096	70	5059
2026-01-19 11:24:47.88	339.23	66.70	-49.4	-51.3	21.1	6.01e-01	0	38	0	750256128	70	4481
2026-01-19 11:24:51.91	338.80	64.57	-48.3	-50.0	22.4	6.05e-01	0	37	0	758120448	68	4312
2026-01-19 11:24:55.94	338.45	62.49	-47.0	-48.3	24.0	6.03e-01	0	37	0	765460480	66	4002
2026-01-19 11:24:59.97	338.16	60.48	-46.2	-47.5	24.8	6.02e-01	0	37	0	773324800	64	4056
2026-01-19 11:25:04.00	337.91	58.53	-46.9	-48.3	24.1	6.03e-01	0	37	0	780664832	64	4471
2026-01-19 11:25:08.03	337.69	56.64	-46.2	-47.5	24.7	6.03e-01	0	37	0	788004864	64	4096
2026-01-19 11:25:12.06	337.51	54.82	-44.6	-45.7	26.5	6.02e-01	0	37	0	795869184	61	3926
2026-01-19 11:25:16.10	337.35	53.05	-44.8	-45.9	26.2	6.04e-01	0	37	0	803209216	60	4282
2026-01-19 11:25:20.12	337.21	51.36	-45.4	-46.6	25.7	6.04e-01	0	38	0	810549248	61	4367
2026-01-19 11:25:24.16	337.08	49.72	-46.4	-47.7	24.6	6.04e-01	0	37	0	818413568	63	4436
2026-01-19 11:25:28.19	336.97	48.14	-45.8	-47.1	25.2	6.03e-01	0	38	0	825753600	63	4124
2026-01-19 11:25:32.22	336.88	46.62	-45.9	-47.1	25.2	6.01e-01	0	38	0	833617920	63	4140
2026-01-19 11:25:36.25	336.79	45.16	-45.8	-47.1	25.2	6.04e-01	0	37	0	840957952	63	4125
2026-01-19 11:25:40.28	336.71	43.75	-45.8	-47.1	25.2	6.03e-01	0	37	0	848822272	63	4109
2026-01-19 11:25:44.31	336.64	42.39	-46.0	-47.2	25.0	6.02e-01	0	38	0	856162304	63	4191
2026-01-19 11:25:48.34	336.58	41.09	-46.8	-48.2	24.0	6.03e-01	0	37	0	864026624	64	4428
2026-01-19 11:25:52.37	336.52	39.83	-47.0	-48.4	23.8	6.05e-01	0	37	0	871366656	64	4535
2026-01-19 11:25:56.40	336.47	38.61	-46.7	-48.1	24.1	6.03e-01	0	37	0	878706688	64	4347
2026-01-19 11:26:00.43	336.42	37.45	-46.9	-48.3	23.9	6.03e-01	0	38	0	886571008	64	4463
2026-01-19 11:26:04.46	336.38	36.32	-46.1	-47.4	24.7	6.02e-01	0	37	0	893911040	64	4020
2026-01-19 11:26:08.49	336.34	35.23	-45.9	-47.2	25.0	6.06e-01	0	37	0	901775360	63	4159
2026-01-19 11:26:12.53	336.31	34.18	-45.7	-46.9	25.2	6.03e-01	0	37	0	909115392	63	4048
2026-01-19 11:26:16.56	336.28	33.17	-45.0	-46.2	25.8	6.05e-01	0	37	0	916979712	62	3940
2026-01-19 11:26:20.59	336.25	32.19	-44.7	-45.8	26.2	6.04e-01	0	37	0	924319744	61	3987
2026-01-19 11:26:24.62	336.22	31.25	-44.9	-46.0	26.0	6.02e-01	0	37	0	931659776	61	4096
2026-01-19 11:26:28.66	336.20	30.34	-44.9	-46.2	25.8	6.05e-01	0	37	0	939524096	61	4149
2026-01-19 11:26:32.69	336.18	29.45	-45.0	-46.2	25.8	6.03e-01	0	38	0	946864128	61	4176
2026-01-19 11:26:36.72	336.16	28.60	-44.9	-46.0	25.9	6.01e-01	0	37	0	954204160	61	4085
2026-01-19 11:26:40.75	336.14	27.77	-44.9	-46.1	25.8	6.03e-01	0	37	0	962068480	61	4099
2026-01-19 11:26:44.78	336.12	26.97	-45.3	-46.5	25.4	6.03e-01	0	37	0	969408512	61	4327
2026-01-19 11:26:48.80	336.11	26.20	-45.5	-46.8	25.2	6.02e-01	0	38	0	977272832	61	4466
2026-01-19 11:26:52.84	336.10	25.45	-45.7	-47.0	25.0	6.03e-01	0	38	0	984612864	61	4579
2026-01-19 11:26:56.86	336.09	24.72	-45.9	-47.2	24.8	6.02e-01	0	38	0	992477184	62	4417
2026-01-19 11:27:00.87	336.08	24.01	-46.0	-47.3	24.6	6.02e-01	0	38	0	999817216	62	4486
2026-01-19 11:27:04.90	336.07	23.32	-45.8	-47.2	24.7	6.03e-01	0	37	0	1007157248	62	4392
2026-01-19 11:27:08.93	336.06	22.66	-45.8	-47.2	24.7	6.04e-01	0	37	0	1015021568	62	4395
2026-01-19 11:27:12.96	336.05	22.01	-45.6	-46.9	25.0	6.03e-01	0	37	0	1022361600	62	4271
2026-01-19 11:27:16.99	336.05	21.37	-45.7	-46.9	24.9	6.04e-01	0	37	0	1030225920	62	4288
2026-01-19 11:27:21.02	336.04	20.76	-45.7	-46.9	24.9	6.02e-01	0	37	0	1037565952	62	4290
2026-01-19 11:27:25.05	336.04	20.16	-45.6	-46.9	25.0	6.02e-01	0	38	0	1045430272	62	4262
2026-01-19 11:27:29.08	336.04	19.57	-45.6	-46.9	24.9	6.02e-01	0	37	0	1052770304	62	4274
2026-01-19 11:27:33.11	336.03	19.00	-45.5	-46.8	25.0	6.04e-01	0	37	0	1060110336	62	4229
2026-01-19 11:27:37.14	336.03	18.45	-45.6	-46.9	24.9	6.04e-01	0	37	0	1067974656	62	4259
2026-01-19 11:27:41.18	336.03	17.90	-45.7	-47.1	24.7	6.05e-01	0	38	0	1075314688	62	4341
2026-01-19 11:27:45.21	336.03	17.37	-45.6	-46.9	24.8	6.04e-01	0	37	0	1082654720	62	4283
2026-01-19 11:27:49.24	336.03	16.86	-45.7	-47.0	24.7	6.03e-01	0	37	0	1090519040	62	4312
2026-01-19 11:27:53.27	336.03	16.35	-45.7	-47.0	24.7	6.06e-01	0	37	0	1097859072	62	4327
2026-01-19 11:27:57.31	336.03	15.86	-45.6	-46.9	24.7	6.03e-01	0	37	0	1105723392	62	4264
2026-01-19 11:28:01.34	336.04	15.37	-45.6	-46.9	24.7	6.03e-01	0	37	0	1113063424	62	4275
2026-01-19 11:28:05.36	336.04	14.90	-45.4	-46.7	24.7	6.04e-01	0	37	0	1120927744	62	4183
2026-01-19 11:28:09.40	336.04	14.44	-45.4	-46.7	24.9	6.03e-01	0	37	0	1128267776	62	4165
2026-01-19 11:28:13.43	336.05	13.99	-45.5	-46.8	24.9	6.04e-01	0	37	0	1135607808	62	4201
2026-01-19 11:28:17.46	336.05	13.54	-45.5	-46.8	24.8	6.04e-01	0	37	0	1143472128	62	4218
2026-01-19 11:28:21.49	336.05	13.11	-45.5	-46.8	24.7	6.02e-01	0	37	0	1150812160	62	4242
2026-01-19 11:28:25.53	336.06	12.68	-45.5	-46.8	24.8	6.03e-01	0	37	0	1158676480	62	4195
2026-01-19 11:28:29.55	336.06	12.26	-45.6	-47.0	24.6	6.03e-01	0	37	0	1166016512	62	4300
2026-01-19 11:28:33.58	336.07	11.85	-45.6	-46.9	24.6	6.04e-01	0	37	0	1173356544	62	4262
2026-01-19 11:28:37.61	336.08	11.45	-45.7	-47.1	24.4	6.05e-01	0	37	0	1181220864	62	4358
2026-01-19 11:28:41.65	336.08	11.05	-45.6	-46.9	24.5	6.05e-01	0	37	0	1188560896	62	4282
2026-01-19 11:28:45.68	336.09	10.66	-45.8	-47.1	24.3	6.05e-01	0	37	0	1196425216	62	4378
2026-01-19 11:28:49.71	336.10	10.28	-45.7	-47.1	24.3	6.02e-01	0	38	0	1203765248	62	4363
2026-01-19 11:28:53.75	336.10	9.90	-45.9	-47.3	24.1	6.03e-01	0	37	0	1211629568	62	4442
2026-01-19 11:28:57.78	336.11	9.54	-45.9	-47.3	24.1	6.06e-01	0	37	0	1218969600	62	4483
2026-01-19 11:29:01.80	336.12	9.17	-46.1	-47.5	23.9	6.04e-01	0	37	0	1226309632	62	4555
2026-01-19 11:29:05.84	336.13	8.81	-46.1	-47.5	23.8	6.02e-01	0	37	0	1234173952	62	4592
2026-01-19 11:29:09.87	336.13	8.46	-46.3	-47.7	23.6	6.04e-01	0	37	0	1241513984	63	4424
2026-01-19 11:29:13.90	336.14	8.12	-46.3	-47.7	23.6	6.05e-01	0	38	0	1249378304	63	4425
2026-01-19 11:29:17.93	336.15	7.77	-46.5	-48.0	23.3	6.05e-01	0	38	0	1256718336	63	4561
2026-01-19 11:29:21.96	336.16	7.44	-46.5	-48.0	23.2	6.05e-01	0	38	0	1264582656	63	4596
2026-01-19 11:29:25.99	336.17	7.11	-46.6	-48.2	22.9	6.05e-01	0	37	0	1271922688	64	4413
2026-01-19 11:29:30.02	336.18	6.78	-47.0	-48.6	22.6	6.05e-01	0	37	0	1279262720	64	4619
2026-01-19 11:29:34.05	336.19	6.46	-47.0	-48.7	22.4	6.03e-01	0	37	0	1287127040	64	4669
2026-01-19 11:29:38.09	336.20	6.14	-46.9	-48.6	22.4	6.04e-01	0	38	0	1294467072	64	4628
2026-01-19 11:29:42.12	336.21	5.83	-47.0	-48.6	22.4	6.03e-01	0	37	0	1301807104	65	4382
2026-01-19 11:29:46.15	336.22	5.52	-47.4	-49.2	21.8	6.04e-01	0	38	0	1309671424	65	4677
2026-01-19 11:29:50.18	336.23	5.21	-47.4	-49.2	21.8	6.03e-01	0	37	0	1317011456	65	4655
2026-01-19 11:29:54.21	336.24	4.91	-54.1	-68.1	5.0	7.19e-01	0	38	0	1324351488	78	19469
2026-01-19 11:29:58.24	336.25	4.61	-55.0	-72.9	3.8	7.42e-01	0	37	104	1324351488	80	30041
2026-01-19 11:30:02.27	336.26	4.32	-55.4	-73.3	3.8	7.47e-01	0	38	104	1324351488	81	29701
2026-01-19 11:30:06.30	336.27	4.03	-55.6	-73.4	3.8	7.46e-01	0	38	104	1324351488	81	30220
2026-01-19 11:30:10.34	336.28	3.74	-55.7	-73.5	3.8	7.47e-01	0	38	104	1324351488	81	30494
2026-01-19 11:30:14.37	336.29	3.46	-55.7	-73.5	3.8	7.42e-01	0	38	104	1324351488	81	30596
2026-01-19 11:30:18.40	336.30	3.18	-55.6	-73.4	3.8	7.45e-01	0	38	104	1324351488	81	30339
2026-01-19 11:30:22.43	336.32	2.90	-55.6	-73.4	3.8	7.45e-01	0	38	104	1324351488	81	30281
2026-01-19 11:30:26.46	336.33	2.62	-55.6	-73.4	3.8	7.48e-01	0	38	104	1324351488	81	30074
2026-01-19 11:30:30.49	336.34	2.35	-55.5	-73.3	3.8	7.43e-01	0	37	104	1324351488	81	30030
2026-01-19 11:30:34.53	336.35	2.08	-55.5	-73.3	3.8	7.44e-01	0	38	104	1324351488	81	29931

#Closed at: 2026-01-19 11:30:37
#Recorded file [1324 MB]: D:/lorett/data/31041_260119_141744.dat