passes_logs/2026/01/19/R3.2S_Murmansk/R3.2S_Murmansk__20260119_073736_KANOPUS-V_5_rec.log

#Pass ID: 20260119_073736_KANOPUS-V 5
#Satellite: KANOPUS-V 5
#Configuration: KANOPUS-V_8320
#almurnet v.1.7.20251203
#Start time: 2026-01-19 07:37:37

#Version: 2.2.20231116
#Station: R3.2S_Murmansk
#Location: 33.079688 lon 68.888172 lat
#TLE: 1 43876U 18111A   26018.98023380  .00003393  00000+0  14531-3 0  9994
#TLE: 2 43876  97.3687 287.4223 0001779  87.4977 272.6464 15.23461071392076

#Time	Az	El	Level	Level2	SNR	BER	BlckErr	Temp	State	Recorded	gain1	gain2
2026-01-19 07:37:37.26	155.35	2.05	-53.1	-61.9	3.8	7.45e-01	0	36	0	0	78	9604
2026-01-19 07:37:40.29	155.36	2.27	-53.1	-61.9	3.8	7.45e-01	0	36	104	0	77	10170
2026-01-19 07:37:43.31	155.36	2.48	-53.1	-61.9	3.8	7.45e-01	0	36	104	0	77	10162
2026-01-19 07:37:46.33	155.36	2.70	-53.1	-61.9	3.8	7.44e-01	0	36	104	0	77	10129
2026-01-19 07:37:49.36	155.37	2.92	-53.1	-61.9	3.8	7.46e-01	0	36	104	0	77	10064
2026-01-19 07:37:52.38	155.37	3.14	-53.1	-61.9	3.8	7.44e-01	0	36	104	0	77	10068
2026-01-19 07:37:55.41	155.37	3.37	-53.1	-61.9	3.8	7.44e-01	0	36	104	0	77	10096
2026-01-19 07:37:58.43	155.37	3.60	-53.1	-61.9	3.8	7.46e-01	0	36	104	0	77	10080
2026-01-19 07:38:01.45	155.38	3.83	-52.8	-60.8	3.8	7.44e-01	0	37	104	0	77	8904
2026-01-19 07:38:04.48	155.38	4.06	-52.4	-59.5	3.8	7.43e-01	0	37	104	0	76	8149
2026-01-19 07:38:07.51	155.38	4.30	-51.9	-57.9	4.0	7.40e-01	0	37	104	0	75	7125
2026-01-19 07:38:10.53	155.38	4.54	-50.7	-55.2	5.9	6.67e-01	0	36	0	37748736	73	5889
2026-01-19 07:38:13.55	155.38	4.78	-49.3	-52.7	8.1	6.01e-01	0	36	0	83886080	70	5254
2026-01-19 07:38:16.58	155.38	5.02	-47.7	-50.6	10.1	6.08e-01	0	37	0	132120576	67	4904
2026-01-19 07:38:19.61	155.38	5.27	-47.8	-50.8	10.1	6.11e-01	0	37	0	178257920	66	5291
2026-01-19 07:38:22.63	155.38	5.52	-46.7	-49.3	11.4	5.98e-01	0	37	0	224395264	65	4756
2026-01-19 07:38:25.65	155.38	5.78	-46.4	-49.0	11.7	6.09e-01	0	37	0	270532608	64	4826
2026-01-19 07:38:28.68	155.39	6.04	-46.3	-48.8	12.0	6.09e-01	0	37	0	316669952	64	4710
2026-01-19 07:38:31.70	155.39	6.30	-46.2	-48.7	12.2	6.09e-01	0	37	0	362807296	63	4935
2026-01-19 07:38:34.73	155.39	6.56	-46.2	-48.6	12.2	6.06e-01	0	37	0	408944640	63	4911
2026-01-19 07:38:37.75	155.38	6.83	-45.9	-48.3	12.7	6.02e-01	0	37	0	455081984	63	4710
2026-01-19 07:38:40.77	155.38	7.10	-45.9	-48.3	12.7	6.04e-01	0	37	0	503316480	63	4726
2026-01-19 07:38:43.80	155.38	7.38	-45.8	-48.2	12.8	6.02e-01	0	37	0	549453824	63	4661
2026-01-19 07:38:46.82	155.38	7.66	-45.5	-47.8	13.1	6.02e-01	0	37	0	595591168	62	4745
2026-01-19 07:38:49.85	155.38	7.94	-45.4	-47.7	13.3	6.01e-01	0	37	0	641728512	62	4675
2026-01-19 07:38:52.87	155.38	8.23	-45.3	-47.5	13.5	6.03e-01	0	37	0	689963008	62	4590
2026-01-19 07:38:55.90	155.38	8.53	-45.3	-47.5	13.5	6.01e-01	0	37	0	736100352	62	4598
2026-01-19 07:38:58.93	155.37	8.83	-44.9	-47.2	13.9	6.02e-01	0	37	0	782237696	61	4653
2026-01-19 07:39:01.95	155.37	9.13	-45.0	-47.2	13.8	6.00e-01	0	37	0	828375040	61	4682
2026-01-19 07:39:04.97	155.37	9.44	-44.9	-47.2	13.9	6.00e-01	0	37	0	874512384	61	4667
2026-01-19 07:39:07.99	155.36	9.75	-44.6	-46.9	14.2	5.99e-01	0	37	0	920649728	60	4768
2026-01-19 07:39:11.02	155.36	10.07	-44.4	-46.6	14.4	6.02e-01	0	37	0	966787072	60	4651
2026-01-19 07:39:14.04	155.36	10.39	-44.4	-46.6	14.4	6.01e-01	0	37	0	1012924416	60	4635
2026-01-19 07:39:17.07	155.35	10.72	-44.3	-46.6	14.5	6.06e-01	0	37	0	1061158912	60	4601
2026-01-19 07:39:20.09	155.35	11.06	-44.2	-46.4	14.6	5.99e-01	0	37	0	1107296256	60	4543
2026-01-19 07:39:23.12	155.34	11.40	-44.0	-46.2	14.8	6.00e-01	0	37	0	1153433600	59	4683
2026-01-19 07:39:26.14	155.33	11.75	-44.0	-46.2	14.8	6.00e-01	0	37	0	1199570944	59	4670
2026-01-19 07:39:29.17	155.33	12.11	-44.0	-46.1	14.9	5.99e-01	0	37	0	1247805440	59	4648
2026-01-19 07:39:32.19	155.32	12.47	-44.0	-46.1	14.9	6.03e-01	0	37	0	1293942784	59	4651
2026-01-19 07:39:35.22	155.31	12.84	-44.1	-46.2	14.8	5.97e-01	0	37	0	1337982976	59	4700
2026-01-19 07:39:38.24	155.31	13.22	-43.9	-46.1	15.0	5.99e-01	0	37	0	1384120320	59	4602
2026-01-19 07:39:41.26	155.30	13.60	-43.7	-45.8	15.3	6.00e-01	0	37	0	1432354816	59	4452
2026-01-19 07:39:44.29	155.29	14.00	-43.5	-45.6	15.5	5.99e-01	0	38	0	1478492160	59	4348
2026-01-19 07:39:47.32	155.28	14.40	-43.3	-45.3	15.7	6.03e-01	0	37	0	1524629504	58	4481
2026-01-19 07:39:50.34	155.27	14.81	-43.1	-45.1	15.9	5.99e-01	0	37	0	1570766848	58	4347
2026-01-19 07:39:53.37	155.25	15.23	-42.8	-44.8	16.1	5.99e-01	0	37	0	1619001344	57	4470
2026-01-19 07:39:56.39	155.24	15.66	-42.8	-44.8	16.1	5.99e-01	0	37	0	1665138688	57	4476
2026-01-19 07:39:59.41	155.23	16.10	-42.6	-44.5	16.4	5.98e-01	0	37	0	1711276032	57	4338
2026-01-19 07:40:02.44	155.22	16.55	-42.4	-44.3	16.6	6.00e-01	0	37	0	1757413376	56	4466
2026-01-19 07:40:05.46	155.20	17.01	-42.2	-44.1	16.8	5.97e-01	0	37	0	1803550720	56	4351
2026-01-19 07:40:08.49	155.18	17.49	-42.2	-44.1	16.8	5.97e-01	0	38	0	1849688064	56	4345
2026-01-19 07:40:11.51	155.17	17.97	-42.1	-43.9	17.0	5.98e-01	0	38	0	1895825408	55	4535
2026-01-19 07:40:14.53	155.15	18.47	-42.1	-43.9	17.0	5.98e-01	0	37	0	1941962752	55	4533
2026-01-19 07:40:17.56	155.13	18.98	-42.1	-43.8	17.1	6.03e-01	0	38	0	1988100096	55	4493
2026-01-19 07:40:20.58	155.11	19.51	-41.9	-43.8	17.2	5.98e-01	0	38	0	2036334592	55	4452
2026-01-19 07:40:23.61	155.09	20.05	-41.8	-43.7	17.2	5.99e-01	0	38	0	2082471936	55	4421
2026-01-19 07:40:26.63	155.07	20.60	-41.7	-43.6	17.3	5.99e-01	0	38	0	2128609280	55	4369
2026-01-19 07:40:29.66	155.04	21.17	-41.6	-43.5	17.4	5.99e-01	0	38	0	2174746624	55	4310
2026-01-19 07:40:32.68	155.02	21.76	-41.4	-43.3	17.6	6.03e-01	0	38	0	2222981120	54	4477
2026-01-19 07:40:35.71	154.99	22.36	-41.2	-43.1	17.7	6.01e-01	0	38	0	2269118464	54	4362
2026-01-19 07:40:38.73	154.96	22.99	-41.3	-43.2	17.7	6.00e-01	0	38	0	2315255808	54	4393
2026-01-19 07:40:41.76	154.93	23.63	-41.4	-43.2	17.6	5.99e-01	0	38	0	2361393152	54	4429
2026-01-19 07:40:44.79	154.90	24.29	-41.6	-43.5	17.4	6.00e-01	0	38	0	2407530496	54	4557
2026-01-19 07:40:47.80	154.86	24.97	-41.8	-43.7	17.3	6.03e-01	0	38	0	2453667840	54	4665
2026-01-19 07:40:50.83	154.82	25.68	-41.7	-43.5	17.4	5.99e-01	0	38	0	2499805184	54	4592
2026-01-19 07:40:53.85	154.78	26.41	-41.6	-43.4	17.5	6.01e-01	0	38	0	2545942528	54	4507
2026-01-19 07:40:56.88	154.74	27.17	-41.2	-43.0	17.8	5.98e-01	0	38	0	2594177024	54	4321
2026-01-19 07:40:59.90	154.70	27.95	-41.5	-43.3	17.6	5.99e-01	0	38	0	2640314368	54	4465
2026-01-19 07:41:02.93	154.65	28.76	-41.4	-43.2	17.7	6.03e-01	0	38	0	2686451712	54	4397
2026-01-19 07:41:05.95	154.59	29.59	-41.4	-43.3	17.6	5.99e-01	0	38	0	2732589056	54	4472
2026-01-19 07:41:08.97	154.54	30.46	-41.6	-43.6	17.4	5.99e-01	0	38	0	2780823552	54	4619
2026-01-19 07:41:11.99	154.48	31.36	-41.7	-43.8	17.3	6.00e-01	0	38	0	2824863744	54	4736
2026-01-19 07:41:15.02	154.41	32.29	-41.7	-43.9	17.2	6.00e-01	0	38	0	2871001088	54	4801
2026-01-19 07:41:18.04	154.34	33.26	-41.5	-43.7	17.4	6.03e-01	0	38	0	2917138432	54	4662
2026-01-19 07:41:21.07	154.27	34.27	-41.3	-43.5	17.5	6.00e-01	0	38	0	2965372928	54	4550
2026-01-19 07:41:24.09	154.19	35.31	-40.8	-43.1	17.8	6.00e-01	0	38	0	3011510272	53	4618
2026-01-19 07:41:27.12	154.10	36.40	-40.4	-42.5	18.2	5.94e-01	0	38	0	3057647616	52	4570
2026-01-19 07:41:30.14	154.01	37.53	-40.1	-42.4	18.3	6.00e-01	0	38	0	3103784960	52	4522
2026-01-19 07:41:33.17	153.90	38.71	-40.0	-42.4	18.3	5.91e-01	0	38	0	3152019456	52	4525
2026-01-19 07:41:36.19	153.79	39.93	-39.6	-42.1	18.6	5.89e-01	0	38	0	3198156800	51	4621
2026-01-19 07:41:39.21	153.67	41.20	-39.2	-41.6	18.9	5.89e-01	0	38	0	3244294144	50	4625
2026-01-19 07:41:42.24	153.53	42.53	-38.7	-41.0	19.3	5.88e-01	0	38	0	3290431488	49	4554
2026-01-19 07:41:45.26	153.39	43.91	-38.5	-40.9	19.3	5.89e-01	0	38	0	3336568832	49	4512
2026-01-19 07:41:48.29	153.22	45.36	-38.5	-40.9	19.3	5.89e-01	0	38	0	3382706176	49	4539
2026-01-19 07:41:51.31	153.04	46.86	-38.4	-40.8	19.4	5.89e-01	0	38	0	3428843520	48	4732
2026-01-19 07:41:54.33	152.84	48.42	-38.5	-40.8	19.4	5.89e-01	0	38	0	3474980864	48	4709
2026-01-19 07:41:57.36	152.62	50.05	-38.8	-41.0	19.3	5.88e-01	0	38	0	3521118208	48	4836
2026-01-19 07:42:00.38	152.37	51.74	-38.8	-41.1	19.2	5.89e-01	0	38	0	3569352704	48	4899
2026-01-19 07:42:03.41	152.08	53.50	-39.6	-41.9	18.7	5.89e-01	0	38	0	3615490048	49	5082
2026-01-19 07:42:06.43	151.76	55.33	-39.7	-42.0	18.7	5.89e-01	0	38	0	3661627392	49	5118
2026-01-19 07:42:09.45	151.38	57.23	-40.2	-42.5	18.4	5.88e-01	0	38	0	3707764736	51	4847
2026-01-19 07:42:12.47	150.95	59.20	-40.2	-42.6	18.3	5.88e-01	0	38	0	3755999232	51	4883
2026-01-19 07:42:15.50	150.44	61.25	-40.1	-42.3	18.5	5.89e-01	0	38	0	3802136576	51	4746
2026-01-19 07:42:18.52	149.83	63.35	-39.6	-41.8	18.9	5.89e-01	0	38	0	3848273920	50	4729
2026-01-19 07:42:21.55	149.10	65.53	-38.9	-41.0	19.3	5.88e-01	0	38	0	3894411264	49	4573
2026-01-19 07:42:24.57	148.21	67.77	-39.0	-41.2	19.1	5.89e-01	0	38	0	3940548608	49	4694
2026-01-19 07:42:27.59	147.09	70.06	-39.2	-41.9	18.7	5.90e-01	0	38	0	3986685952	49	5100
2026-01-19 07:42:30.61	145.65	72.41	-38.9	-41.8	18.8	5.89e-01	0	38	0	4032823296	49	5000
2026-01-19 07:42:33.63	143.72	74.79	-38.0	-40.9	19.3	5.89e-01	0	38	0	4078960640	48	4780
2026-01-19 07:42:36.66	141.02	77.21	-37.0	-39.6	19.0	5.88e-01	0	38	0	4125097984	45	4874
2026-01-19 07:42:39.68	137.02	79.62	-36.1	-38.7	19.6	5.88e-01	0	38	0	4173332480	44	4653
2026-01-19 07:42:42.71	130.55	81.99	-35.8	-38.6	19.7	5.89e-01	0	38	0	4219469824	43	4888
2026-01-19 07:42:45.73	118.90	84.19	-35.1	-37.7	20.1	5.88e-01	0	38	0	4265607168	42	4700
2026-01-19 07:42:48.75	95.53	85.90	-34.8	-37.7	20.0	5.88e-01	0	38	0	4311744512	41	4968
2026-01-19 07:42:51.77	56.58	86.32	-35.1	-38.0	20.0	5.88e-01	0	38	0	4357881856	41	5120
2026-01-19 07:42:54.80	24.74	85.10	-35.0	-37.8	20.0	5.89e-01	0	38	0	4404019200	41	5001
2026-01-19 07:42:57.83	8.55	83.06	-35.4	-38.3	19.8	5.89e-01	0	38	0	4450156544	41	5304
2026-01-19 07:43:00.86	0.12	80.75	-36.2	-38.9	19.7	5.89e-01	0	38	0	4496293888	43	5055
2026-01-19 07:43:03.88	355.17	78.36	-36.6	-39.1	19.5	5.89e-01	0	38	0	4544528384	44	4901
2026-01-19 07:43:06.91	351.94	75.94	-37.1	-39.6	19.2	5.89e-01	0	38	0	4590665728	45	4897
2026-01-19 07:43:09.93	349.70	73.55	-37.5	-40.0	18.9	5.88e-01	0	38	0	4636803072	45	5112
2026-01-19 07:43:12.96	348.05	71.18	-37.8	-40.2	18.8	5.89e-01	0	38	0	4682940416	46	4937
2026-01-19 07:43:15.98	346.79	68.86	-38.1	-40.2	18.8	5.89e-01	0	38	0	4731174912	46	4977
2026-01-19 07:43:19.01	345.80	66.60	-39.9	-42.3	18.7	5.88e-01	0	38	0	4777312256	50	5013
2026-01-19 07:43:22.03	345.00	64.40	-40.0	-42.2	18.7	5.89e-01	0	38	0	4823449600	50	4973
2026-01-19 07:43:25.06	344.34	62.25	-40.5	-42.9	18.3	5.89e-01	0	38	0	4869586944	51	5067
2026-01-19 07:43:28.08	343.79	60.19	-40.7	-43.3	17.9	5.88e-01	0	38	0	4915724288	52	4991
2026-01-19 07:43:31.10	343.32	58.19	-40.3	-42.6	18.5	5.89e-01	0	38	0	4961861632	52	4602
2026-01-19 07:43:34.13	342.92	56.26	-40.3	-42.7	18.4	5.89e-01	0	38	0	5007998976	52	4654
2026-01-19 07:43:37.16	342.57	54.39	-40.2	-42.4	18.6	5.89e-01	0	38	0	5054136320	52	4521
2026-01-19 07:43:40.18	342.27	52.61	-39.9	-42.0	18.8	6.01e-01	0	38	0	5102370816	51	4596
2026-01-19 07:43:43.21	342.00	50.88	-39.5	-41.7	19.0	6.01e-01	0	38	0	5148508160	50	4698
2026-01-19 07:43:46.23	341.77	49.23	-38.8	-40.7	19.6	5.99e-01	0	38	0	5194645504	49	4429
2026-01-19 07:43:49.25	341.56	47.64	-38.7	-40.8	19.5	6.04e-01	0	38	0	5240782848	49	4482
2026-01-19 07:43:52.28	341.37	46.11	-39.1	-41.5	19.1	5.99e-01	0	38	0	5289017344	49	4820
2026-01-19 07:43:55.30	341.20	44.65	-39.1	-41.5	19.1	5.97e-01	0	38	0	5335154688	49	4829
2026-01-19 07:43:58.32	341.04	43.25	-39.0	-41.2	19.3	6.02e-01	0	38	0	5379194880	49	4683
2026-01-19 07:44:01.35	340.90	41.90	-39.1	-41.3	19.2	5.99e-01	0	38	0	5425332224	49	4746
2026-01-19 07:44:04.37	340.78	40.60	-39.8	-42.1	18.7	5.96e-01	0	38	0	5473566720	50	4908
2026-01-19 07:44:07.39	340.66	39.36	-40.1	-42.5	18.4	5.97e-01	0	38	0	5519704064	50	5140
2026-01-19 07:44:10.42	340.55	38.16	-40.4	-42.7	18.2	6.03e-01	0	38	0	5565841408	51	4968
2026-01-19 07:44:13.45	340.46	37.01	-40.6	-42.7	18.2	5.99e-01	0	38	0	5611978752	51	4979
2026-01-19 07:44:16.47	340.37	35.91	-40.7	-42.7	18.3	6.03e-01	0	38	0	5660213248	52	4674
2026-01-19 07:44:19.49	340.28	34.85	-41.1	-43.1	17.9	6.05e-01	0	38	0	5706350592	52	4875
2026-01-19 07:44:22.52	340.21	33.82	-41.4	-43.5	17.7	5.98e-01	0	38	0	5752487936	53	4833
2026-01-19 07:44:25.54	340.13	32.84	-41.8	-43.9	17.3	6.03e-01	0	38	0	5798625280	54	4780
2026-01-19 07:44:28.57	340.07	31.89	-41.9	-44.1	17.3	5.96e-01	0	38	0	5844762624	54	4871
2026-01-19 07:44:31.59	340.01	30.98	-42.0	-44.2	17.2	6.01e-01	0	38	0	5890899968	54	4932
2026-01-19 07:44:34.61	339.95	30.10	-41.9	-44.0	17.2	6.00e-01	0	38	0	5937037312	54	4859
2026-01-19 07:44:37.64	339.90	29.25	-41.9	-44.0	17.3	5.99e-01	0	38	0	5983174656	54	4824
2026-01-19 07:44:40.66	339.85	28.43	-42.0	-44.0	17.3	5.97e-01	0	38	0	6029312000	54	4829
2026-01-19 07:44:43.69	339.80	27.64	-42.0	-43.9	17.3	6.01e-01	0	38	0	6077546496	54	4772
2026-01-19 07:44:46.71	339.76	26.87	-42.0	-43.8	17.3	5.95e-01	0	38	0	6123683840	54	4759
2026-01-19 07:44:49.73	339.72	26.14	-41.8	-43.7	17.4	5.98e-01	0	38	0	6169821184	54	4702
2026-01-19 07:44:52.76	339.68	25.42	-41.8	-43.8	17.4	5.98e-01	0	38	0	6215958528	54	4707
2026-01-19 07:44:55.79	339.64	24.72	-41.7	-43.7	17.4	5.97e-01	0	38	0	6264193024	54	4669
2026-01-19 07:44:58.81	339.61	24.05	-41.8	-43.7	17.4	5.95e-01	0	38	0	6310330368	54	4682
2026-01-19 07:45:01.83	339.58	23.40	-41.8	-43.8	17.4	5.89e-01	0	38	0	6356467712	54	4706
2026-01-19 07:45:04.86	339.55	22.77	-41.8	-43.8	17.3	5.89e-01	0	38	0	6402605056	54	4753
2026-01-19 07:45:07.88	339.52	22.16	-42.0	-44.0	17.2	5.88e-01	0	38	0	6448742400	54	4837
2026-01-19 07:45:10.90	339.50	21.57	-42.1	-44.1	17.1	5.89e-01	0	38	0	6494879744	54	4888
2026-01-19 07:45:13.93	339.47	20.99	-42.1	-44.1	17.1	5.90e-01	0	38	0	6541017088	54	4901
2026-01-19 07:45:16.95	339.45	20.43	-54.3	-63.3	3.8	7.45e-01	0	38	104	6585057280	79	10542
2026-01-19 07:45:19.98	339.43	19.88	-54.3	-63.2	3.8	7.46e-01	0	38	104	6585057280	79	10413
2026-01-19 07:45:23.00	339.41	19.35	-54.2	-63.1	3.8	7.44e-01	0	38	104	6585057280	79	10314
2026-01-19 07:45:26.03	339.39	18.84	-54.2	-63.1	3.8	7.45e-01	0	38	104	6585057280	79	10316
2026-01-19 07:45:29.05	339.37	18.33	-54.2	-63.1	3.8	7.46e-01	0	38	104	6585057280	79	10354
2026-01-19 07:45:32.08	339.36	17.84	-54.2	-63.0	3.8	7.46e-01	0	38	104	6585057280	79	10239
2026-01-19 07:45:35.11	339.34	17.36	-54.2	-63.0	3.8	7.47e-01	0	38	104	6585057280	79	10211
2026-01-19 07:45:38.13	339.33	16.90	-54.1	-63.0	3.8	7.45e-01	0	38	104	6585057280	79	10177
2026-01-19 07:45:41.16	339.31	16.44	-54.1	-63.0	3.8	7.46e-01	0	38	104	6585057280	79	10229
2026-01-19 07:45:44.18	339.30	16.00	-54.1	-62.9	3.8	7.45e-01	0	38	104	6585057280	79	10145
2026-01-19 07:45:47.21	339.29	15.56	-54.1	-62.9	3.8	7.46e-01	0	38	104	6585057280	79	10140
2026-01-19 07:45:50.23	339.28	15.14	-54.0	-62.9	3.8	7.44e-01	0	38	104	6585057280	79	10101
2026-01-19 07:45:53.26	339.27	14.72	-54.1	-62.9	3.8	7.46e-01	0	38	104	6585057280	79	10114
2026-01-19 07:45:56.28	339.26	14.32	-54.0	-62.9	3.8	7.45e-01	0	38	104	6585057280	79	10061
2026-01-19 07:45:59.31	339.25	13.92	-54.0	-62.8	3.8	7.46e-01	0	38	104	6585057280	79	10051
2026-01-19 07:46:02.33	339.24	13.53	-54.0	-62.8	3.8	7.45e-01	0	38	104	6585057280	79	9997
2026-01-19 07:46:05.35	339.24	13.15	-54.0	-62.8	3.8	7.45e-01	0	38	104	6585057280	79	10028
2026-01-19 07:46:08.37	339.23	12.78	-53.9	-62.7	3.8	7.45e-01	0	38	104	6585057280	79	9923
2026-01-19 07:46:11.39	339.22	12.41	-53.9	-62.7	3.8	7.47e-01	0	38	104	6585057280	79	9915
2026-01-19 07:46:14.42	339.22	12.05	-53.9	-62.7	3.8	7.46e-01	0	38	104	6585057280	79	9904
2026-01-19 07:46:17.44	339.21	11.70	-53.9	-62.7	3.8	7.46e-01	0	38	104	6585057280	79	9901
2026-01-19 07:46:20.46	339.21	11.36	-53.8	-62.7	3.8	7.46e-01	0	38	104	6585057280	79	9841
2026-01-19 07:46:23.49	339.20	11.02	-53.8	-62.6	3.8	7.44e-01	0	38	104	6585057280	79	9815
2026-01-19 07:46:26.51	339.20	10.69	-53.8	-62.6	3.8	7.45e-01	0	38	104	6585057280	79	9769
2026-01-19 07:46:29.54	339.20	10.36	-53.8	-62.6	3.8	7.45e-01	0	38	104	6585057280	79	9743
2026-01-19 07:46:32.56	339.19	10.04	-53.7	-62.6	3.8	7.45e-01	0	38	104	6585057280	79	9764
2026-01-19 07:46:35.58	339.19	9.73	-53.6	-62.5	3.8	7.47e-01	0	38	104	6585057280	79	9619
2026-01-19 07:46:38.61	339.19	9.41	-53.7	-62.5	3.8	7.46e-01	0	38	104	6585057280	79	9666
2026-01-19 07:46:41.63	339.19	9.11	-53.6	-62.5	3.8	7.45e-01	0	38	104	6585057280	79	9643
2026-01-19 07:46:44.66	339.19	8.81	-53.6	-62.5	3.8	7.44e-01	0	38	104	6585057280	79	9637
2026-01-19 07:46:47.68	339.19	8.51	-53.5	-62.4	3.8	7.46e-01	0	38	104	6585057280	79	9512
2026-01-19 07:46:50.71	339.19	8.22	-53.5	-62.4	3.8	7.44e-01	0	38	104	6585057280	79	9531
2026-01-19 07:46:53.73	339.19	7.94	-53.5	-62.3	3.8	7.44e-01	0	38	104	6585057280	78	10056
2026-01-19 07:46:56.75	339.19	7.66	-53.5	-62.3	3.8	7.46e-01	0	38	104	6585057280	78	10057
2026-01-19 07:46:59.77	339.19	7.38	-53.4	-62.2	3.8	7.45e-01	0	38	104	6585057280	78	9892
2026-01-19 07:47:02.80	339.19	7.10	-53.4	-62.2	3.8	7.47e-01	0	38	104	6585057280	78	9928
2026-01-19 07:47:05.82	339.19	6.83	-53.4	-62.2	3.8	7.46e-01	0	38	104	6585057280	78	9906
2026-01-19 07:47:08.85	339.19	6.57	-53.4	-62.2	3.8	7.45e-01	0	38	104	6585057280	78	9930
2026-01-19 07:47:11.87	339.19	6.31	-53.2	-62.0	3.8	7.46e-01	0	38	104	6585057280	78	9681
2026-01-19 07:47:14.89	339.19	6.05	-53.2	-62.1	3.8	7.45e-01	0	38	104	6585057280	78	9722
2026-01-19 07:47:17.92	339.20	5.79	-53.2	-62.0	3.8	7.47e-01	0	38	104	6585057280	78	9696
2026-01-19 07:47:20.94	339.20	5.54	-53.2	-62.1	3.8	7.46e-01	0	38	104	6585057280	78	9752
2026-01-19 07:47:23.97	339.20	5.29	-52.9	-61.8	3.8	7.45e-01	0	38	104	6585057280	77	9969
2026-01-19 07:47:26.99	339.20	5.04	-53.0	-61.9	3.8	7.47e-01	0	38	104	6585057280	77	10078
2026-01-19 07:47:30.02	339.21	4.80	-53.9	-62.8	3.8	7.46e-01	0	38	104	6585057280	78	10550
2026-01-19 07:47:33.04	339.21	4.56	-54.4	-63.2	3.8	7.46e-01	0	38	104	6585057280	79	10477
2026-01-19 07:47:36.07	339.21	4.32	-54.7	-63.5	3.8	7.47e-01	0	38	104	6585057280	79	10855
2026-01-19 07:47:39.09	339.22	4.09	-54.7	-63.6	3.8	7.45e-01	0	38	104	6585057280	80	10372
2026-01-19 07:47:42.11	339.22	3.86	-54.8	-63.7	3.8	7.46e-01	0	38	104	6585057280	80	10458
2026-01-19 07:47:45.14	339.22	3.63	-54.9	-63.8	3.8	7.45e-01	0	38	104	6585057280	80	10545
2026-01-19 07:47:48.16	339.23	3.40	-54.9	-63.7	3.8	7.46e-01	0	38	104	6585057280	80	10522
2026-01-19 07:47:51.18	339.23	3.18	-54.9	-63.7	3.8	7.46e-01	0	38	104	6585057280	80	10529
2026-01-19 07:47:54.21	339.24	2.96	-54.8	-63.7	3.8	7.44e-01	0	38	104	6585057280	80	10494
2026-01-19 07:47:57.23	339.24	2.74	-54.8	-63.6	3.8	7.45e-01	0	38	104	6585057280	80	10403
2026-01-19 07:48:00.25	339.25	2.52	-54.8	-63.7	3.8	7.45e-01	0	38	104	6585057280	80	10429
2026-01-19 07:48:03.28	339.25	2.30	-54.8	-63.6	3.8	7.46e-01	0	38	104	6585057280	80	10402
2026-01-19 07:48:06.30	339.26	2.09	-54.8	-63.6	3.8	7.46e-01	0	38	104	6585057280	80	10357

#Closed at: 2026-01-19 07:48:09
#Recorded file [6585 MB]: D:/lorett/data/31041_260119_103737.dat