passes_logs/2026/01/19/R3.2S_Murmansk/R3.2S_Murmansk__20260119_001654_NOAA_20_JPSS-1_rec.log

#Pass ID: 20260119_001654_NOAA 20 (JPSS-1)
#Satellite: NOAA 20 (JPSS-1)
#Configuration: NOAA 20
#almurnet v.1.7.20251203
#Start time: 2026-01-19 00:16:55

#Version: 2.2.20231116
#Station: R3.2S_Murmansk
#Location: 33.079688 lon 68.888172 lat
#TLE: 1 43013U 17073A   26018.57232797  .00000065  00000+0  51758-4 0  9998
#TLE: 2 43013  98.7640 319.4740 0001368  34.2083 325.9181 14.19536753423241

#Time	Az	El	Level	Level2	SNR	BER	BlckErr	Temp	State	Recorded	gain1	gain2
2026-01-19 00:16:55.64	23.09	2.04	-51.8	-66.7	3.8	1.49e+00	0	35	0	0	74	21005
2026-01-19 00:16:59.67	23.15	2.30	-51.8	-65.9	3.8	1.49e+00	0	35	104	0	74	18984
2026-01-19 00:17:03.70	23.21	2.56	-51.8	-65.3	3.8	1.49e+00	0	35	104	0	74	17887
2026-01-19 00:17:07.73	23.27	2.82	-51.7	-63.9	4.0	1.47e+00	0	35	104	0	73	16080
2026-01-19 00:17:11.77	23.33	3.09	-51.4	-60.8	5.2	6.53e-01	0	35	0	3145728	73	11284
2026-01-19 00:17:15.80	23.39	3.35	-50.4	-56.1	9.3	5.65e-02	0	35	0	10485760	72	6946
2026-01-19 00:17:19.83	23.46	3.62	-49.6	-53.7	12.0	6.07e-04	0	35	0	18874368	70	5873
2026-01-19 00:17:23.87	23.52	3.90	-48.5	-51.5	14.3	2.20e-06	0	36	0	26214400	68	5119
2026-01-19 00:17:27.90	23.59	4.17	-48.8	-52.1	13.7	1.50e-06	0	35	0	33554432	68	5478
2026-01-19 00:17:31.93	23.65	4.45	-49.8	-54.3	11.4	2.72e-04	0	36	0	40894464	70	6308
2026-01-19 00:17:35.96	23.72	4.73	-50.8	-57.3	8.2	3.56e-02	0	36	0	48234496	72	7957
2026-01-19 00:17:39.99	23.79	5.01	-51.3	-59.9	5.8	3.86e-01	0	36	0	56623104	73	10142
2026-01-19 00:17:44.02	23.86	5.30	-51.6	-60.8	5.4	1.13e+00	0	36	104	60817408	73	11216
2026-01-19 00:17:48.05	23.93	5.59	-48.5	-51.2	15.1	1.50e-06	0	36	0	68157440	69	4683
2026-01-19 00:17:52.09	24.00	5.88	-48.1	-50.5	15.7	0.00e+00	0	36	0	75497472	67	4855
2026-01-19 00:17:56.12	24.07	6.18	-47.8	-50.1	16.1	0.00e+00	0	36	0	82837504	67	4641
2026-01-19 00:18:00.15	24.14	6.48	-47.8	-50.1	16.3	0.00e+00	0	36	0	90177536	67	4605
2026-01-19 00:18:04.18	24.22	6.78	-47.7	-50.0	16.4	0.00e+00	0	36	0	98566144	67	4547
2026-01-19 00:18:08.21	24.29	7.09	-47.6	-49.7	16.7	0.00e+00	0	36	0	105906176	66	4673
2026-01-19 00:18:12.24	24.37	7.40	-47.4	-49.5	17.0	0.00e+00	0	36	0	113246208	66	4576
2026-01-19 00:18:16.26	24.45	7.71	-47.2	-49.2	17.3	0.00e+00	0	36	0	120586240	66	4421
2026-01-19 00:18:20.29	24.53	8.03	-47.3	-49.3	17.3	0.00e+00	0	36	0	127926272	66	4469
2026-01-19 00:18:24.33	24.61	8.35	-47.2	-49.1	17.4	0.00e+00	0	36	0	135266304	66	4381
2026-01-19 00:18:28.36	24.69	8.68	-47.2	-49.1	17.5	0.00e+00	0	36	0	143654912	66	4380
2026-01-19 00:18:32.39	24.78	9.01	-47.0	-48.9	17.8	0.00e+00	0	36	0	150994944	65	4512
2026-01-19 00:18:36.42	24.86	9.34	-46.9	-48.7	18.0	0.00e+00	0	36	0	158334976	65	4412
2026-01-19 00:18:40.45	24.95	9.68	-46.8	-48.5	18.2	0.00e+00	0	36	0	165675008	64	4573
2026-01-19 00:18:44.49	25.04	10.03	-46.8	-48.5	18.2	0.00e+00	0	36	0	174063616	64	4594
2026-01-19 00:18:48.52	25.13	10.38	-46.6	-48.2	18.5	0.00e+00	0	36	0	181403648	64	4438
2026-01-19 00:18:52.55	25.22	10.73	-46.4	-48.0	18.8	0.00e+00	0	36	0	188743680	64	4315
2026-01-19 00:18:56.58	25.31	11.09	-46.5	-48.1	18.7	0.00e+00	0	36	0	196083712	64	4376
2026-01-19 00:19:00.58	25.41	11.45	-46.4	-47.9	19.0	0.00e+00	0	36	0	203423744	63	4543
2026-01-19 00:19:04.61	25.51	11.82	-46.5	-48.1	18.8	0.00e+00	0	36	0	211812352	63	4640
2026-01-19 00:19:08.64	25.61	12.19	-46.4	-48.0	18.9	0.00e+00	0	36	0	219152384	63	4574
2026-01-19 00:19:12.68	25.71	12.58	-46.3	-47.9	19.1	0.00e+00	0	36	0	226492416	63	4502
2026-01-19 00:19:16.71	25.81	12.96	-46.3	-47.8	19.1	0.00e+00	0	36	0	233832448	63	4468
2026-01-19 00:19:20.74	25.92	13.36	-46.3	-47.8	19.2	0.00e+00	0	36	0	241172480	63	4463
2026-01-19 00:19:24.77	26.03	13.76	-46.2	-47.7	19.3	0.00e+00	0	36	0	249561088	63	4427
2026-01-19 00:19:28.80	26.14	14.16	-46.3	-47.8	19.1	0.00e+00	0	36	0	256901120	63	4482
2026-01-19 00:19:32.82	26.25	14.58	-46.3	-47.8	19.2	0.00e+00	0	36	0	264241152	63	4466
2026-01-19 00:19:36.85	26.37	15.00	-46.5	-48.1	19.0	0.00e+00	0	36	0	271581184	63	4611
2026-01-19 00:19:40.88	26.49	15.42	-46.5	-48.1	19.0	0.00e+00	0	36	0	278921216	63	4609
2026-01-19 00:19:44.92	26.61	15.86	-46.7	-48.3	18.8	0.00e+00	0	36	0	287309824	63	4706
2026-01-19 00:19:48.94	26.73	16.30	-46.7	-48.3	18.7	0.00e+00	0	36	0	294649856	64	4492
2026-01-19 00:19:52.97	26.86	16.75	-46.7	-48.4	18.6	0.00e+00	0	36	0	301989888	64	4508
2026-01-19 00:19:57.01	27.00	17.21	-47.0	-48.7	18.4	0.00e+00	0	36	0	309329920	64	4652
2026-01-19 00:20:01.04	27.13	17.68	-47.0	-48.7	18.3	0.00e+00	0	36	0	317718528	64	4702
2026-01-19 00:20:05.07	27.27	18.16	-47.1	-48.9	18.2	0.00e+00	0	36	0	325058560	64	4761
2026-01-19 00:20:09.11	27.41	18.65	-47.2	-49.0	18.1	0.00e+00	0	36	0	332398592	65	4556
2026-01-19 00:20:13.13	27.56	19.14	-47.3	-49.0	18.0	0.00e+00	0	36	0	339738624	65	4593
2026-01-19 00:20:17.17	27.71	19.65	-47.3	-49.0	18.1	0.00e+00	0	36	0	347078656	65	4581
2026-01-19 00:20:21.20	27.87	20.16	-47.3	-49.1	18.1	0.00e+00	0	36	0	355467264	65	4620
2026-01-19 00:20:25.23	28.03	20.69	-47.2	-48.9	18.3	0.00e+00	0	36	0	362807296	65	4515
2026-01-19 00:20:29.26	28.20	21.23	-47.1	-48.8	18.3	0.00e+00	0	36	0	370147328	65	4482
2026-01-19 00:20:33.29	28.37	21.78	-47.0	-48.6	18.6	0.00e+00	0	36	0	377487360	65	4374
2026-01-19 00:20:37.32	28.55	22.34	-47.0	-48.7	18.5	0.00e+00	0	37	0	384827392	65	4404
2026-01-19 00:20:41.35	28.73	22.92	-46.9	-48.5	18.7	0.00e+00	0	36	0	393216000	65	4306
2026-01-19 00:20:45.37	28.92	23.50	-46.7	-48.3	19.0	0.00e+00	0	36	0	400556032	65	4198
2026-01-19 00:20:49.41	29.11	24.10	-46.6	-48.2	19.1	0.00e+00	0	36	0	407896064	65	4149
2026-01-19 00:20:53.44	29.32	24.72	-46.6	-48.1	19.1	0.00e+00	0	36	0	415236096	64	4379
2026-01-19 00:20:57.47	29.53	25.35	-46.5	-48.1	19.2	0.00e+00	0	37	0	422576128	64	4344
2026-01-19 00:21:01.49	29.74	25.99	-46.9	-48.5	18.8	0.00e+00	0	36	0	430964736	64	4586
2026-01-19 00:21:05.52	29.97	26.65	-47.3	-49.1	18.3	0.00e+00	0	36	0	438304768	65	4602
2026-01-19 00:21:09.55	30.21	27.32	-47.6	-49.4	18.0	0.00e+00	0	36	0	445644800	65	4791
2026-01-19 00:21:13.58	30.45	28.01	-47.4	-49.2	18.1	0.00e+00	0	36	0	452984832	65	4671
2026-01-19 00:21:17.61	30.71	28.72	-47.4	-49.1	18.2	0.00e+00	0	37	0	460324864	65	4631
2026-01-19 00:21:21.64	30.97	29.45	-47.6	-49.4	17.9	0.00e+00	0	36	0	468713472	65	4810
2026-01-19 00:21:25.67	31.25	30.20	-47.9	-49.9	17.5	0.00e+00	0	36	0	476053504	66	4767
2026-01-19 00:21:29.70	31.54	30.96	-48.3	-50.3	17.1	0.00e+00	0	36	0	483393536	67	4750
2026-01-19 00:21:33.74	31.85	31.75	-48.4	-50.5	16.9	0.00e+00	0	36	0	490733568	67	4843
2026-01-19 00:21:37.77	32.16	32.55	-48.1	-50.0	17.3	0.00e+00	0	36	0	498073600	67	4598
2026-01-19 00:21:41.80	32.50	33.38	-47.7	-49.4	18.0	0.00e+00	0	36	0	506462208	67	4288
2026-01-19 00:21:45.83	32.85	34.23	-47.8	-49.7	17.8	0.00e+00	0	36	0	513802240	67	4398
2026-01-19 00:21:49.86	33.22	35.10	-48.1	-50.0	17.5	0.00e+00	0	37	0	521142272	67	4567
2026-01-19 00:21:53.90	33.60	36.00	-47.7	-49.5	18.0	0.00e+00	0	36	0	528482304	66	4588
2026-01-19 00:21:57.93	34.01	36.92	-47.6	-49.3	18.1	0.00e+00	0	36	0	535822336	66	4491
2026-01-19 00:22:01.96	34.45	37.86	-47.8	-49.6	18.0	0.00e+00	0	36	0	544210944	66	4607
2026-01-19 00:22:06.00	34.90	38.83	-48.4	-50.4	17.1	0.00e+00	0	36	0	551550976	67	4797
2026-01-19 00:22:10.03	35.39	39.83	-49.4	-51.9	15.8	0.00e+00	0	37	0	558891008	69	5045
2026-01-19 00:22:14.06	35.90	40.85	-49.2	-51.6	16.1	0.00e+00	0	36	0	566231040	69	4883
2026-01-19 00:22:18.09	36.45	41.90	-49.1	-51.4	16.3	0.00e+00	0	37	0	574619648	69	4792
2026-01-19 00:22:22.12	37.03	42.98	-49.4	-51.9	15.8	0.00e+00	0	36	0	581959680	69	5043
2026-01-19 00:22:26.15	37.66	44.09	-48.8	-50.9	16.8	0.00e+00	0	36	0	589299712	69	4532
2026-01-19 00:22:30.18	38.33	45.22	-49.0	-51.3	16.4	0.00e+00	0	36	0	596639744	69	4722
2026-01-19 00:22:34.22	39.04	46.39	-49.8	-52.5	15.3	0.00e+00	0	36	0	603979776	70	5103
2026-01-19 00:22:38.24	39.81	47.58	-48.4	-50.4	17.4	0.00e+00	0	36	0	612368384	68	4498
2026-01-19 00:22:42.28	40.65	48.81	-48.4	-50.4	17.3	0.00e+00	0	36	0	619708416	68	4518
2026-01-19 00:22:46.31	41.55	50.06	-48.1	-50.0	17.8	0.00e+00	0	37	0	627048448	68	4302
2026-01-19 00:22:50.34	42.52	51.33	-46.1	-47.4	20.1	0.00e+00	0	37	0	634388480	64	4050
2026-01-19 00:22:54.37	43.59	52.64	-45.7	-46.9	20.7	0.00e+00	0	36	0	641728512	63	4042
2026-01-19 00:22:58.40	44.75	53.96	-44.5	-45.6	21.9	0.00e+00	0	36	0	650117120	61	3892
2026-01-19 00:23:02.44	46.02	55.32	-45.1	-46.2	21.4	0.00e+00	0	37	0	657457152	60	4427
2026-01-19 00:23:06.47	47.42	56.69	-45.7	-47.0	20.7	0.00e+00	0	36	0	664797184	62	4318
2026-01-19 00:23:10.50	48.97	58.07	-45.7	-46.9	20.8	0.00e+00	0	36	0	672137216	62	4282
2026-01-19 00:23:14.54	50.69	59.47	-45.4	-46.7	21.0	0.00e+00	0	36	0	680525824	62	4146
2026-01-19 00:23:18.57	52.60	60.88	-44.2	-45.3	22.6	0.00e+00	0	36	0	687865856	59	4197
2026-01-19 00:23:22.59	54.72	62.28	-44.3	-45.3	22.5	0.00e+00	0	36	0	695205888	59	4238
2026-01-19 00:23:26.63	57.11	63.68	-44.4	-45.5	22.4	0.00e+00	0	36	0	702545920	59	4309
2026-01-19 00:23:30.66	59.80	65.06	-46.7	-48.2	19.4	0.00e+00	0	36	0	709885952	64	4420
2026-01-19 00:23:34.69	62.83	66.40	-46.9	-48.4	19.2	0.00e+00	0	36	0	718274560	65	4271
2026-01-19 00:23:38.72	66.26	67.71	-47.5	-49.2	18.6	0.00e+00	0	36	0	725614592	65	4656
2026-01-19 00:23:42.75	70.15	68.94	-47.4	-49.1	18.6	0.00e+00	0	36	0	732954624	65	4621
2026-01-19 00:23:46.78	74.53	70.10	-47.7	-49.4	18.3	0.00e+00	0	36	0	740294656	65	4794
2026-01-19 00:23:50.82	79.48	71.15	-48.0	-49.8	17.8	0.00e+00	0	36	0	747634688	67	4477
2026-01-19 00:23:54.85	84.99	72.05	-46.8	-48.3	19.3	0.00e+00	0	36	0	756023296	65	4215
2026-01-19 00:23:58.87	91.04	72.79	-48.1	-50.0	17.7	0.00e+00	0	36	0	763363328	67	4575
2026-01-19 00:24:02.91	97.61	73.34	-46.5	-48.0	19.7	0.00e+00	0	36	0	770703360	64	4310
2026-01-19 00:24:06.94	104.55	73.67	-46.7	-48.2	19.4	0.00e+00	0	36	0	778043392	64	4429
2026-01-19 00:24:10.97	111.67	73.76	-46.3	-47.7	20.0	0.00e+00	0	36	0	785383424	63	4414
2026-01-19 00:24:15.00	118.77	73.61	-47.6	-49.3	18.3	0.00e+00	0	36	0	793772032	65	4753
2026-01-19 00:24:19.03	125.63	73.24	-48.8	-50.9	17.0	0.00e+00	0	36	0	801112064	68	4769
2026-01-19 00:24:23.06	132.10	72.65	-48.2	-50.1	17.5	0.00e+00	0	36	0	808452096	67	4648
2026-01-19 00:24:27.09	138.05	71.86	-47.7	-49.5	18.2	0.00e+00	0	36	0	815792128	67	4308
2026-01-19 00:24:31.13	143.44	70.92	-47.9	-49.7	18.0	0.00e+00	0	36	0	823132160	66	4694
2026-01-19 00:24:35.16	148.25	69.85	-48.2	-50.1	17.7	0.00e+00	0	36	0	831520768	68	4360
2026-01-19 00:24:39.19	152.53	68.67	-47.7	-49.4	18.3	0.00e+00	0	36	0	838860800	67	4258
2026-01-19 00:24:43.22	156.31	67.42	-48.6	-50.6	17.3	0.00e+00	0	37	0	846200832	68	4609
2026-01-19 00:24:47.25	159.65	66.10	-46.9	-48.4	19.1	0.00e+00	0	36	0	853540864	65	4286
2026-01-19 00:24:51.29	162.61	64.74	-45.4	-46.6	21.0	0.00e+00	0	36	0	860880896	62	4112
2026-01-19 00:24:55.32	165.23	63.35	-43.6	-44.6	23.1	0.00e+00	0	36	0	869269504	58	4142
2026-01-19 00:24:59.35	167.56	61.95	-42.9	-43.8	23.8	0.00e+00	0	37	0	876609536	56	4205
2026-01-19 00:25:03.38	169.63	60.54	-43.9	-44.9	22.8	0.00e+00	0	36	0	883949568	59	4043
2026-01-19 00:25:07.41	171.50	59.14	-48.4	-50.5	17.2	0.00e+00	0	36	0	891289600	67	4828
2026-01-19 00:25:11.45	173.17	57.74	-46.2	-47.5	20.2	0.00e+00	0	36	0	899678208	63	4314
2026-01-19 00:25:15.48	174.69	56.35	-46.1	-47.4	20.1	0.00e+00	0	37	0	907018240	64	4031
2026-01-19 00:25:19.51	176.06	54.98	-45.7	-47.0	20.6	0.00e+00	0	36	0	914358272	62	4340
2026-01-19 00:25:23.54	177.30	53.63	-43.1	-44.0	23.5	0.00e+00	0	36	0	921698304	58	3861
2026-01-19 00:25:27.58	178.45	52.30	-44.8	-45.9	21.7	0.00e+00	0	36	0	929038336	60	4269
2026-01-19 00:25:31.61	179.49	51.00	-45.4	-46.6	20.9	0.00e+00	0	36	0	937426944	61	4390
2026-01-19 00:25:35.63	180.44	49.73	-49.3	-51.7	15.9	0.00e+00	0	36	0	944766976	70	4697
2026-01-19 00:25:39.67	181.33	48.48	-48.3	-50.2	17.5	0.00e+00	0	36	0	952107008	68	4421
2026-01-19 00:25:43.70	182.15	47.26	-49.2	-51.6	16.1	0.00e+00	0	37	0	959447040	69	4900
2026-01-19 00:25:47.73	182.91	46.07	-47.0	-48.5	19.0	0.00e+00	0	37	0	967835648	66	4066
2026-01-19 00:25:51.76	183.61	44.91	-47.9	-49.8	17.6	0.00e+00	0	36	0	975175680	66	4758
2026-01-19 00:25:55.79	184.27	43.78	-46.3	-47.7	19.7	0.00e+00	0	36	0	982515712	64	4185
2026-01-19 00:25:59.82	184.88	42.68	-44.7	-45.8	21.6	0.00e+00	0	36	0	989855744	61	3992
2026-01-19 00:26:03.85	185.46	41.60	-48.6	-50.9	16.6	0.00e+00	0	36	0	997195776	67	5051
2026-01-19 00:26:07.89	186.00	40.55	-45.6	-46.8	20.6	0.00e+00	0	36	0	1004535808	63	3970
2026-01-19 00:26:11.91	186.50	39.53	-46.2	-47.6	19.8	0.00e+00	0	36	0	1012924416	63	4384
2026-01-19 00:26:15.95	186.98	38.54	-48.0	-50.0	17.5	0.00e+00	0	36	0	1020264448	66	4816
2026-01-19 00:26:19.98	187.43	37.57	-46.4	-47.9	19.5	0.00e+00	0	36	0	1027604480	64	4245
2026-01-19 00:26:24.01	187.86	36.63	-46.6	-48.1	19.4	0.00e+00	0	36	0	1034944512	63	4607
2026-01-19 00:26:28.04	188.26	35.72	-47.4	-49.2	18.2	0.00e+00	0	36	0	1043333120	65	4669
2026-01-19 00:26:32.07	188.64	34.82	-47.7	-49.6	17.8	0.00e+00	0	36	0	1050673152	66	4632
2026-01-19 00:26:36.10	189.01	33.95	-47.2	-48.9	18.5	0.00e+00	0	36	0	1058013184	66	4263
2026-01-19 00:26:40.13	189.35	33.11	-47.4	-49.1	18.2	0.00e+00	0	37	0	1065353216	66	4376
2026-01-19 00:26:44.17	189.68	32.28	-47.8	-49.7	17.6	0.00e+00	0	36	0	1072693248	66	4659
2026-01-19 00:26:48.20	190.00	31.48	-48.2	-50.3	17.0	0.00e+00	0	36	0	1081081856	67	4724
2026-01-19 00:26:52.23	190.29	30.70	-48.2	-50.3	17.1	0.00e+00	0	36	0	1088421888	67	4725
2026-01-19 00:26:56.27	190.58	29.93	-47.4	-49.1	18.2	0.00e+00	0	36	0	1095761920	66	4374
2026-01-19 00:27:00.30	190.86	29.19	-46.5	-47.9	19.3	0.00e+00	0	37	0	1103101952	64	4286
2026-01-19 00:27:04.33	191.12	28.46	-46.1	-47.6	19.7	0.00e+00	0	36	0	1110441984	64	4101
2026-01-19 00:27:08.36	191.37	27.76	-46.0	-47.4	19.8	0.00e+00	0	36	0	1118830592	64	4023
2026-01-19 00:27:12.39	191.61	27.07	-46.2	-47.7	19.6	0.00e+00	0	37	0	1126170624	63	4397
2026-01-19 00:27:16.43	191.84	26.39	-46.3	-47.7	19.6	0.00e+00	0	37	0	1133510656	63	4419
2026-01-19 00:27:20.46	192.07	25.74	-46.2	-47.7	19.6	0.00e+00	0	36	0	1140850688	63	4405
2026-01-19 00:27:24.49	192.28	25.09	-45.8	-47.1	20.1	0.00e+00	0	36	0	1148190720	63	4139
2026-01-19 00:27:28.52	192.49	24.47	-45.5	-46.9	20.4	0.00e+00	0	37	0	1156579328	63	4010
2026-01-19 00:27:32.55	192.69	23.85	-45.7	-47.0	20.2	0.00e+00	0	37	0	1163919360	62	4330
2026-01-19 00:27:36.58	192.88	23.26	-45.4	-46.7	20.5	0.00e+00	0	36	0	1171259392	62	4179
2026-01-19 00:27:40.61	193.07	22.67	-45.2	-46.5	20.7	0.00e+00	0	37	0	1178599424	61	4297
2026-01-19 00:27:44.64	193.25	22.10	-45.1	-46.3	20.8	0.00e+00	0	36	0	1186988032	61	4213
2026-01-19 00:27:48.68	193.42	21.54	-45.1	-46.4	20.7	0.00e+00	0	36	0	1194328064	61	4253
2026-01-19 00:27:52.71	193.59	20.99	-45.3	-46.6	20.5	0.00e+00	0	36	0	1201668096	61	4346
2026-01-19 00:27:56.74	193.75	20.45	-45.5	-46.8	20.3	0.00e+00	0	36	0	1209008128	61	4457
2026-01-19 00:28:00.77	193.91	19.92	-45.6	-46.9	20.2	0.00e+00	0	36	0	1216348160	61	4533
2026-01-19 00:28:04.80	194.07	19.41	-45.8	-47.2	20.0	0.00e+00	0	36	0	1223688192	62	4394
2026-01-19 00:28:08.84	194.22	18.90	-45.8	-47.1	19.9	0.00e+00	0	37	0	1232076800	62	4378
2026-01-19 00:28:12.87	194.36	18.41	-45.8	-47.2	19.9	0.00e+00	0	36	0	1239416832	62	4403
2026-01-19 00:28:16.90	194.50	17.92	-45.9	-47.3	19.8	0.00e+00	0	36	0	1246756864	62	4456
2026-01-19 00:28:20.93	194.64	17.45	-45.9	-47.3	19.8	0.00e+00	0	37	0	1254096896	62	4465
2026-01-19 00:28:24.96	194.77	16.98	-46.1	-47.6	19.5	0.00e+00	0	37	0	1262485504	62	4609
2026-01-19 00:28:29.00	194.90	16.52	-46.2	-47.7	19.4	0.00e+00	0	37	0	1269825536	63	4394
2026-01-19 00:28:33.03	195.03	16.07	-46.3	-47.8	19.2	0.00e+00	0	37	0	1277165568	63	4489
2026-01-19 00:28:37.06	195.15	15.63	-46.4	-47.9	19.1	0.00e+00	0	37	0	1284505600	63	4531
2026-01-19 00:28:41.09	195.27	15.19	-46.4	-47.9	19.1	0.00e+00	0	37	0	1291845632	63	4534
2026-01-19 00:28:45.13	195.38	14.77	-46.4	-48.0	19.0	0.00e+00	0	36	0	1300234240	63	4561
2026-01-19 00:28:49.16	195.50	14.35	-46.4	-48.0	19.0	0.00e+00	0	37	0	1307574272	63	4554
2026-01-19 00:28:53.19	195.61	13.94	-46.3	-47.9	19.0	0.00e+00	0	36	0	1314914304	63	4523
2026-01-19 00:28:57.22	195.72	13.53	-46.4	-48.0	18.9	0.00e+00	0	36	0	1322254336	63	4582
2026-01-19 00:29:01.25	195.82	13.13	-46.3	-47.9	19.0	0.00e+00	0	36	0	1330642944	63	4528
2026-01-19 00:29:05.28	195.93	12.74	-46.3	-47.9	19.0	0.00e+00	0	36	0	1337982976	63	4521
2026-01-19 00:29:09.32	196.03	12.35	-46.5	-48.2	18.7	0.00e+00	0	36	0	1345323008	63	4653
2026-01-19 00:29:13.35	196.13	11.97	-46.6	-48.2	18.6	0.00e+00	0	36	0	1352663040	63	4691
2026-01-19 00:29:17.38	196.22	11.60	-46.7	-48.4	18.4	0.00e+00	0	37	0	1360003072	64	4500
2026-01-19 00:29:21.41	196.32	11.23	-46.7	-48.4	18.3	0.00e+00	0	37	0	1367343104	64	4512
2026-01-19 00:29:25.45	196.41	10.86	-46.8	-48.6	18.1	0.00e+00	0	36	0	1375731712	64	4611
2026-01-19 00:29:29.47	196.50	10.50	-46.9	-48.7	17.9	0.00e+00	0	36	0	1383071744	64	4688
2026-01-19 00:29:33.50	196.59	10.15	-47.0	-48.8	17.8	0.00e+00	0	37	0	1390411776	64	4755
2026-01-19 00:29:37.54	196.68	9.80	-47.1	-49.0	17.6	0.00e+00	0	37	0	1397751808	64	4829
2026-01-19 00:29:41.57	196.76	9.46	-47.1	-49.0	17.5	0.00e+00	0	36	0	1406140416	64	4862
2026-01-19 00:29:45.60	196.85	9.12	-47.1	-49.1	17.4	0.00e+00	0	37	0	1413480448	64	4899
2026-01-19 00:29:49.63	196.93	8.79	-47.1	-49.1	17.4	0.00e+00	0	36	0	1420820480	64	4876
2026-01-19 00:29:53.66	197.01	8.46	-47.1	-49.1	17.4	0.00e+00	0	37	0	1428160512	65	4612
2026-01-19 00:29:57.69	197.09	8.13	-47.0	-48.9	17.5	0.00e+00	0	36	0	1435500544	65	4500
2026-01-19 00:30:01.72	197.17	7.81	-47.1	-49.0	17.3	0.00e+00	0	37	0	1443889152	64	4870
2026-01-19 00:30:05.75	197.24	7.49	-47.1	-49.1	17.3	0.00e+00	0	37	0	1451229184	65	4613
2026-01-19 00:30:09.78	197.32	7.18	-47.3	-49.3	17.0	0.00e+00	0	36	0	1458569216	65	4756
2026-01-19 00:30:13.81	197.39	6.87	-47.1	-49.1	17.1	0.00e+00	0	37	0	1465909248	65	4648
2026-01-19 00:30:17.85	197.47	6.56	-47.2	-49.3	17.0	0.00e+00	0	37	0	1473249280	65	4731
2026-01-19 00:30:21.87	197.54	6.26	-47.1	-49.2	17.1	0.00e+00	0	37	0	1481637888	65	4663
2026-01-19 00:30:25.91	197.61	5.96	-47.3	-49.4	16.7	0.00e+00	0	37	0	1488977920	65	4808
2026-01-19 00:30:29.93	197.68	5.66	-47.4	-49.5	16.6	0.00e+00	0	36	0	1496317952	65	4870
2026-01-19 00:30:33.96	197.74	5.37	-47.2	-49.3	16.7	0.00e+00	0	37	0	1503657984	65	4748
2026-01-19 00:30:37.99	197.81	5.08	-47.6	-50.0	16.1	0.00e+00	0	36	0	1510998016	65	5108
2026-01-19 00:30:42.02	197.88	4.79	-53.1	-68.0	3.8	1.49e+00	0	37	104	1515192320	76	21727
2026-01-19 00:30:46.05	197.94	4.51	-53.5	-68.5	3.8	1.49e+00	0	37	104	1515192320	77	21691
2026-01-19 00:30:50.08	198.01	4.23	-53.8	-68.8	3.8	1.49e+00	0	37	104	1515192320	78	21045
2026-01-19 00:30:54.11	198.07	3.95	-53.8	-68.8	3.8	1.49e+00	0	37	104	1515192320	78	21053
2026-01-19 00:30:58.15	198.13	3.68	-53.9	-68.8	3.8	1.49e+00	0	37	104	1515192320	78	21230
2026-01-19 00:31:02.18	198.19	3.41	-53.9	-69.0	3.8	1.49e+00	0	37	104	1515192320	78	21539
2026-01-19 00:31:06.21	198.25	3.14	-54.0	-69.0	3.8	1.49e+00	0	37	104	1515192320	78	21633
2026-01-19 00:31:10.25	198.31	2.87	-54.0	-69.0	3.8	1.49e+00	0	37	104	1515192320	78	21607
2026-01-19 00:31:14.28	198.37	2.61	-54.0	-69.0	3.8	1.49e+00	0	37	104	1515192320	78	21646
2026-01-19 00:31:18.31	198.43	2.34	-53.9	-68.9	3.8	1.49e+00	0	37	104	1515192320	78	21417
2026-01-19 00:31:22.34	198.48	2.08	-53.9	-68.9	3.8	1.49e+00	0	37	104	1515192320	78	21411

#Closed at: 2026-01-19 00:31:25
#Recorded file [1515 MB]: D:/lorett/data/31041_260119_031655.dat