passes_logs/2026/01/19/R3.2S_Murmansk/R3.2S_Murmansk__20260119_225509_FENGYUN_3D_rec.log

#Pass ID: 20260119_225509_FENGYUN 3D
#Satellite: FENGYUN 3D
#Configuration: FENGYUN 3D
#almurnet v.1.7.20251203
#Start time: 2026-01-19 22:55:10

#Version: 2.2.20231116
#Station: R3.2S_Murmansk
#Location: 33.079688 lon 68.888172 lat
#TLE: 1 43010U 17072A   26019.30265705  .00000224  00000+0  12791-3 0  9991
#TLE: 2 43010  98.9940 351.1850 0002428 100.8496 259.2953 14.19697535423864

#Time	Az	El	Level	Level2	SNR	BER	BlckErr	Temp	State	Recorded	gain1	gain2
2026-01-19 22:55:10.58	20.00	2.04	-51.6	-63.5	3.8	8.47e-01	0	37	0	0	75	13693
2026-01-19 22:55:13.60	20.33	2.15	-51.6	-63.5	3.8	8.46e-01	0	37	104	0	73	15335
2026-01-19 22:55:16.62	20.67	2.27	-51.6	-63.5	3.8	8.46e-01	0	37	104	0	73	15347
2026-01-19 22:55:19.65	21.01	2.38	-51.6	-63.5	3.8	8.46e-01	0	37	104	0	73	15314
2026-01-19 22:55:22.67	21.35	2.49	-51.6	-63.5	3.8	8.47e-01	0	37	104	0	73	15335
2026-01-19 22:55:25.69	21.69	2.61	-51.6	-63.5	3.8	8.45e-01	0	37	104	0	73	15320
2026-01-19 22:55:28.72	22.04	2.72	-51.6	-63.5	3.8	8.45e-01	0	37	104	0	73	15254
2026-01-19 22:55:31.74	22.39	2.83	-51.6	-63.5	3.8	8.45e-01	0	37	104	0	73	15234
2026-01-19 22:55:34.76	22.74	2.94	-51.6	-63.5	3.8	8.47e-01	0	37	104	0	73	15281
2026-01-19 22:55:37.78	23.09	3.05	-51.6	-63.4	3.8	8.46e-01	0	37	104	0	73	15156
2026-01-19 22:55:40.81	23.45	3.16	-51.6	-63.4	3.8	8.46e-01	0	38	104	0	73	15225
2026-01-19 22:55:43.83	23.81	3.27	-51.6	-63.5	3.8	8.45e-01	0	38	104	0	73	15286
2026-01-19 22:55:46.86	24.17	3.38	-51.6	-63.5	3.8	8.46e-01	0	38	104	0	73	15288
2026-01-19 22:55:49.88	24.53	3.49	-51.6	-63.5	3.8	8.46e-01	0	38	104	0	73	15311
2026-01-19 22:55:52.91	24.90	3.60	-51.6	-63.4	3.8	8.47e-01	0	38	104	0	73	15174
2026-01-19 22:55:55.93	25.27	3.71	-51.6	-63.5	3.8	8.46e-01	0	38	104	0	73	15326
2026-01-19 22:55:58.95	25.64	3.82	-51.6	-63.5	3.8	8.47e-01	0	38	104	0	73	15334
2026-01-19 22:56:01.98	26.01	3.93	-51.6	-63.5	3.8	8.46e-01	0	38	104	0	73	15260
2026-01-19 22:56:05.00	26.39	4.03	-51.6	-63.4	3.8	8.47e-01	0	38	104	0	73	15148
2026-01-19 22:56:08.02	26.77	4.14	-51.6	-63.5	3.8	8.45e-01	0	38	104	0	73	15343
2026-01-19 22:56:11.05	27.15	4.25	-51.6	-63.3	3.8	8.46e-01	0	38	104	0	73	15011
2026-01-19 22:56:14.07	27.54	4.35	-51.6	-63.4	3.8	8.47e-01	0	38	104	0	73	15213
2026-01-19 22:56:17.09	27.93	4.46	-51.6	-63.5	3.8	8.45e-01	0	38	104	0	73	15289
2026-01-19 22:56:20.11	28.32	4.56	-51.6	-63.4	3.8	8.46e-01	0	38	104	0	73	15164
2026-01-19 22:56:23.13	28.71	4.66	-51.6	-62.8	3.8	8.47e-01	0	38	104	0	73	14047
2026-01-19 22:56:26.16	29.11	4.77	-51.6	-63.0	3.8	8.46e-01	0	38	104	0	73	14393
2026-01-19 22:56:29.18	29.50	4.87	-51.1	-59.1	4.5	8.30e-01	0	38	0	0	73	9222
2026-01-19 22:56:32.21	29.91	4.97	-49.3	-53.1	9.2	4.37e-02	0	38	0	10485760	70	5520
2026-01-19 22:56:35.23	30.31	5.07	-48.6	-51.5	11.2	1.21e-03	0	38	0	27262976	68	5133
2026-01-19 22:56:38.25	30.72	5.17	-45.4	-46.8	16.2	0.00e+00	0	38	0	40894464	62	4240
2026-01-19 22:56:41.28	31.13	5.27	-44.4	-45.7	17.3	0.00e+00	0	38	0	57671680	60	4182
2026-01-19 22:56:44.30	31.54	5.36	-44.3	-45.5	17.6	0.00e+00	0	38	0	75497472	60	4096
2026-01-19 22:56:47.33	31.95	5.46	-44.1	-45.4	17.8	0.00e+00	0	38	0	92274688	60	4017
2026-01-19 22:56:50.35	32.37	5.56	-44.3	-45.5	17.8	0.00e+00	0	38	0	109051904	60	4081
2026-01-19 22:56:53.37	32.79	5.65	-44.2	-45.4	18.2	0.00e+00	0	38	0	125829120	59	4257
2026-01-19 22:56:56.40	33.21	5.75	-44.2	-45.4	18.2	0.00e+00	0	38	0	143654912	59	4268
2026-01-19 22:56:59.42	33.64	5.84	-44.6	-45.9	17.7	0.00e+00	0	38	0	160432128	59	4506
2026-01-19 22:57:02.44	34.06	5.93	-44.4	-45.7	18.0	0.00e+00	0	38	0	177209344	59	4395
2026-01-19 22:57:05.47	34.50	6.02	-44.1	-45.2	18.4	0.00e+00	0	38	0	193986560	59	4189
2026-01-19 22:57:08.49	34.93	6.11	-43.9	-45.1	18.6	0.00e+00	0	38	0	211812352	59	4101
2026-01-19 22:57:11.51	35.36	6.20	-43.9	-45.0	18.7	0.00e+00	0	38	0	228589568	59	4078
2026-01-19 22:57:14.53	35.80	6.29	-43.5	-44.5	19.2	0.00e+00	0	38	0	245366784	58	4097
2026-01-19 22:57:17.55	36.24	6.38	-44.0	-45.1	18.6	0.00e+00	0	39	0	262144000	58	4380
2026-01-19 22:57:20.58	36.68	6.46	-43.8	-44.9	18.9	0.00e+00	0	38	0	278921216	58	4261
2026-01-19 22:57:23.60	37.13	6.55	-44.1	-45.2	18.5	0.00e+00	0	39	0	296747008	59	4191
2026-01-19 22:57:26.62	37.58	6.63	-44.2	-45.4	18.4	0.00e+00	0	38	0	313524224	59	4262
2026-01-19 22:57:29.65	38.03	6.72	-44.0	-45.2	18.6	0.00e+00	0	38	0	330301440	59	4170
2026-01-19 22:57:32.67	38.48	6.80	-43.8	-44.9	19.0	0.00e+00	0	39	0	347078656	59	4011
2026-01-19 22:57:35.69	38.94	6.88	-44.1	-45.3	18.6	0.00e+00	0	39	0	364904448	59	4195
2026-01-19 22:57:38.72	39.40	6.96	-43.7	-44.8	19.1	0.00e+00	0	38	0	381681664	59	3960
2026-01-19 22:57:41.74	39.86	7.03	-43.9	-45.0	18.8	0.00e+00	0	38	0	398458880	59	4069
2026-01-19 22:57:44.77	40.32	7.11	-43.9	-45.1	18.8	0.00e+00	0	38	0	415236096	59	4105
2026-01-19 22:57:47.79	40.78	7.18	-43.6	-44.7	19.1	0.00e+00	0	39	0	433061888	59	3953
2026-01-19 22:57:50.81	41.25	7.26	-43.9	-45.0	18.9	0.00e+00	0	39	0	449839104	59	4073
2026-01-19 22:57:53.83	41.72	7.33	-43.7	-44.8	19.1	0.00e+00	0	39	0	466616320	59	3977
2026-01-19 22:57:56.86	42.19	7.40	-43.6	-44.7	19.2	0.00e+00	0	39	0	483393536	59	3933
2026-01-19 22:57:59.88	42.67	7.47	-43.9	-45.0	18.9	0.00e+00	0	39	0	500170752	59	4063
2026-01-19 22:58:02.90	43.14	7.54	-43.8	-44.9	19.0	0.00e+00	0	38	0	517996544	59	4050
2026-01-19 22:58:05.92	43.62	7.60	-43.6	-44.7	19.3	0.00e+00	0	38	0	534773760	59	3918
2026-01-19 22:58:08.95	44.10	7.67	-43.6	-44.7	19.2	0.00e+00	0	39	0	551550976	59	3944
2026-01-19 22:58:11.97	44.58	7.73	-43.5	-44.6	19.3	0.00e+00	0	39	0	568328192	58	4126
2026-01-19 22:58:15.00	45.07	7.79	-43.5	-44.5	19.4	0.00e+00	0	39	0	586153984	58	4092
2026-01-19 22:58:18.02	45.55	7.85	-43.5	-44.6	19.4	0.00e+00	0	38	0	602931200	58	4100
2026-01-19 22:58:21.04	46.04	7.91	-43.5	-44.5	19.4	0.00e+00	0	39	0	619708416	58	4087
2026-01-19 22:58:24.06	46.53	7.97	-43.5	-44.6	19.4	0.00e+00	0	39	0	636485632	58	4115
2026-01-19 22:58:27.09	47.02	8.02	-43.3	-44.3	19.7	0.00e+00	0	39	0	653262848	58	3988
2026-01-19 22:58:30.10	47.52	8.07	-43.3	-44.3	19.7	0.00e+00	0	39	0	671088640	58	3984
2026-01-19 22:58:33.13	48.01	8.13	-43.4	-44.5	19.5	0.00e+00	0	39	0	687865856	58	4052
2026-01-19 22:58:36.15	48.51	8.18	-43.6	-44.7	19.3	0.00e+00	0	39	0	704643072	58	4168
2026-01-19 22:58:39.17	49.01	8.22	-43.8	-44.9	19.1	0.00e+00	0	39	0	721420288	58	4245
2026-01-19 22:58:42.20	49.51	8.27	-43.4	-44.4	19.6	0.00e+00	0	38	0	738197504	58	4025
2026-01-19 22:58:45.22	50.01	8.32	-43.4	-44.4	19.6	0.00e+00	0	39	0	756023296	58	4047
2026-01-19 22:58:48.24	50.51	8.36	-43.5	-44.5	19.4	0.00e+00	0	39	0	772800512	58	4098
2026-01-19 22:58:51.26	51.02	8.40	-43.5	-44.5	19.4	0.00e+00	0	39	0	789577728	58	4088
2026-01-19 22:58:54.29	51.53	8.44	-43.4	-44.4	19.6	0.00e+00	0	39	0	806354944	58	4018
2026-01-19 22:58:57.31	52.03	8.48	-43.3	-44.3	19.6	0.00e+00	0	39	0	823132160	58	3996
2026-01-19 22:59:00.34	52.54	8.51	-43.2	-44.2	19.8	0.00e+00	0	39	0	840957952	58	3930
2026-01-19 22:59:03.36	53.05	8.54	-43.3	-44.3	19.7	0.00e+00	0	38	0	857735168	58	3979
2026-01-19 22:59:06.38	53.56	8.58	-43.2	-44.3	19.7	0.00e+00	0	39	0	874512384	58	3959
2026-01-19 22:59:09.40	54.08	8.61	-43.4	-44.5	19.5	0.00e+00	0	39	0	891289600	58	4061
2026-01-19 22:59:12.42	54.59	8.63	-43.4	-44.4	19.5	0.00e+00	0	39	0	908066816	58	4049
2026-01-19 22:59:15.44	55.10	8.66	-43.2	-44.2	19.8	0.00e+00	0	38	0	925892608	58	3923
2026-01-19 22:59:18.46	55.62	8.68	-43.6	-44.6	19.4	0.00e+00	0	39	0	942669824	58	4138
2026-01-19 22:59:21.47	56.13	8.70	-43.5	-44.6	19.4	0.00e+00	0	39	0	959447040	58	4107
2026-01-19 22:59:24.50	56.65	8.72	-43.4	-44.4	19.6	0.00e+00	0	39	0	976224256	58	4025
2026-01-19 22:59:27.53	57.17	8.74	-43.3	-44.4	19.6	0.00e+00	0	39	0	993001472	58	4007
2026-01-19 22:59:30.55	57.68	8.76	-43.1	-44.1	19.9	0.00e+00	0	39	0	1010827264	58	3890
2026-01-19 22:59:33.58	58.20	8.77	-42.9	-43.9	20.1	0.00e+00	0	39	0	1027604480	57	4025
2026-01-19 22:59:36.60	58.72	8.78	-43.1	-44.1	19.9	0.00e+00	0	39	0	1044381696	57	4106
2026-01-19 22:59:39.63	59.24	8.79	-43.1	-44.1	19.8	0.00e+00	0	39	0	1061158912	57	4139
2026-01-19 22:59:42.65	59.76	8.80	-43.2	-44.2	19.7	0.00e+00	0	39	0	1077936128	57	4181
2026-01-19 22:59:45.67	60.28	8.81	-43.3	-44.3	19.6	0.00e+00	0	39	0	1095761920	57	4207
2026-01-19 22:59:48.69	60.80	8.81	-43.3	-44.3	19.6	0.00e+00	0	39	0	1112539136	57	4220
2026-01-19 22:59:51.72	61.32	8.81	-43.3	-44.4	19.6	0.00e+00	0	39	0	1129316352	57	4260
2026-01-19 22:59:54.74	61.84	8.81	-43.3	-44.4	19.6	0.00e+00	0	39	0	1146093568	57	4265
2026-01-19 22:59:57.77	62.36	8.81	-43.4	-44.5	19.5	0.00e+00	0	39	0	1162870784	57	4298
2026-01-19 23:00:00.79	62.88	8.81	-43.5	-44.5	19.4	0.00e+00	0	39	0	1180696576	57	4325
2026-01-19 23:00:03.82	63.40	8.80	-43.4	-44.5	19.4	0.00e+00	0	39	0	1197473792	57	4309
2026-01-19 23:00:06.84	63.92	8.79	-43.3	-44.4	19.6	0.00e+00	0	39	0	1214251008	57	4249
2026-01-19 23:00:09.86	64.44	8.78	-43.4	-44.4	19.5	0.00e+00	0	39	0	1231028224	57	4286
2026-01-19 23:00:12.88	64.96	8.77	-43.4	-44.5	19.4	0.00e+00	0	39	0	1248854016	57	4320
2026-01-19 23:00:15.91	65.48	8.76	-43.7	-44.8	19.1	0.00e+00	0	39	0	1265631232	57	4458
2026-01-19 23:00:18.93	66.00	8.74	-43.7	-44.8	19.1	0.00e+00	0	39	0	1282408448	58	4217
2026-01-19 23:00:21.96	66.51	8.72	-43.4	-44.4	19.5	0.00e+00	0	39	0	1299185664	58	4051
2026-01-19 23:00:24.98	67.03	8.70	-43.3	-44.3	19.6	0.00e+00	0	39	0	1315962880	58	3974
2026-01-19 23:00:28.00	67.55	8.68	-43.3	-44.4	19.6	0.00e+00	0	39	0	1333788672	58	4015
2026-01-19 23:00:31.03	68.06	8.65	-43.4	-44.4	19.5	0.00e+00	0	39	0	1350565888	58	4034
2026-01-19 23:00:34.05	68.58	8.63	-43.2	-44.3	19.6	0.00e+00	0	39	0	1367343104	58	3969
2026-01-19 23:00:37.08	69.09	8.60	-43.2	-44.2	19.7	0.00e+00	0	39	0	1384120320	58	3934
2026-01-19 23:00:40.10	69.60	8.57	-43.3	-44.4	19.5	0.00e+00	0	39	0	1401946112	57	4260
2026-01-19 23:00:43.12	70.11	8.54	-43.4	-44.5	19.4	0.00e+00	0	39	0	1418723328	57	4324
2026-01-19 23:00:46.15	70.63	8.50	-43.2	-44.3	19.6	0.00e+00	0	39	0	1435500544	57	4209
2026-01-19 23:00:49.17	71.13	8.47	-43.3	-44.3	19.5	0.00e+00	0	39	0	1452277760	57	4234
2026-01-19 23:00:52.19	71.64	8.43	-43.4	-44.5	19.4	0.00e+00	0	39	0	1470103552	57	4319
2026-01-19 23:00:55.22	72.15	8.39	-43.3	-44.3	19.6	0.00e+00	0	39	0	1486880768	57	4226
2026-01-19 23:00:58.24	72.66	8.35	-43.5	-44.5	19.3	0.00e+00	0	39	0	1503657984	57	4316
2026-01-19 23:01:01.26	73.16	8.30	-43.6	-44.7	19.2	0.00e+00	0	39	0	1520435200	57	4416
2026-01-19 23:01:04.23	73.65	8.26	-43.3	-44.4	19.3	0.00e+00	0	39	0	1537212416	57	4283
2026-01-19 23:01:07.15	74.14	8.21	-43.4	-44.5	19.3	0.00e+00	0	39	0	1553989632	57	4293
2026-01-19 23:01:10.07	74.62	8.17	-43.8	-44.9	18.8	0.00e+00	0	39	0	1569718272	58	4285
2026-01-19 23:01:12.98	75.10	8.12	-43.4	-44.5	19.2	0.00e+00	0	39	0	1586495488	58	4077
2026-01-19 23:01:15.89	75.58	8.07	-43.5	-44.7	19.1	0.00e+00	0	39	0	1603272704	58	4153
2026-01-19 23:01:18.80	76.05	8.02	-43.8	-44.9	18.9	0.00e+00	0	39	0	1620049920	58	4279
2026-01-19 23:01:21.71	76.53	7.96	-43.5	-44.6	19.1	0.00e+00	0	39	0	1635778560	58	4124
2026-01-19 23:01:24.62	77.00	7.91	-43.5	-44.6	19.1	0.00e+00	0	39	0	1652555776	58	4141
2026-01-19 23:01:27.53	77.47	7.85	-43.8	-44.9	18.8	0.00e+00	0	39	0	1668284416	58	4274
2026-01-19 23:01:30.43	77.94	7.80	-43.9	-45.1	18.7	0.00e+00	0	39	0	1685061632	58	4353
2026-01-19 23:01:33.34	78.41	7.74	-43.8	-45.0	18.7	0.00e+00	0	39	0	1700790272	58	4327
2026-01-19 23:01:36.25	78.87	7.68	-43.8	-45.0	18.7	0.00e+00	0	39	0	1717567488	58	4301
2026-01-19 23:01:39.16	79.34	7.61	-44.0	-45.2	18.5	0.00e+00	0	39	0	1733296128	58	4408
2026-01-19 23:01:42.06	79.80	7.55	-44.0	-45.2	18.5	0.00e+00	0	39	0	1750073344	58	4440
2026-01-19 23:01:44.97	80.26	7.49	-44.2	-45.4	18.3	0.00e+00	0	39	0	1766850560	58	4513
2026-01-19 23:01:47.88	80.72	7.42	-44.1	-45.4	18.3	0.00e+00	0	39	0	1782579200	59	4249
2026-01-19 23:01:50.78	81.17	7.35	-44.1	-45.3	18.4	0.00e+00	0	39	0	1799356416	59	4233
2026-01-19 23:01:53.70	81.63	7.28	-44.2	-45.4	18.3	0.00e+00	0	39	0	1816133632	59	4273
2026-01-19 23:01:56.61	82.08	7.21	-43.9	-45.0	18.6	0.00e+00	0	39	0	1831862272	59	4089
2026-01-19 23:01:59.51	82.53	7.14	-44.4	-45.7	18.0	0.00e+00	0	39	0	1848639488	59	4395
2026-01-19 23:02:02.42	82.97	7.07	-43.9	-45.2	18.5	0.00e+00	0	39	0	1864368128	59	4149
2026-01-19 23:02:05.33	83.42	6.99	-44.1	-45.3	18.3	0.00e+00	0	39	0	1881145344	59	4195
2026-01-19 23:02:08.24	83.86	6.92	-44.1	-45.4	18.2	0.00e+00	0	39	0	1897922560	59	4254
2026-01-19 23:02:11.15	84.30	6.84	-44.3	-45.6	18.0	0.00e+00	0	39	0	1913651200	59	4363
2026-01-19 23:02:14.06	84.74	6.76	-44.3	-45.5	18.0	0.00e+00	0	39	0	1930428416	59	4338
2026-01-19 23:02:16.97	85.18	6.68	-44.3	-45.6	17.9	0.00e+00	0	39	0	1946157056	59	4370
2026-01-19 23:02:19.89	85.62	6.60	-44.2	-45.4	18.1	0.00e+00	0	39	0	1962934272	59	4258
2026-01-19 23:02:22.79	86.05	6.52	-44.3	-45.6	17.9	0.00e+00	0	39	0	1979711488	59	4360
2026-01-19 23:02:25.70	86.48	6.44	-43.7	-44.9	18.6	0.00e+00	0	39	0	1995440128	59	4035
2026-01-19 23:02:28.61	86.90	6.36	-44.2	-45.5	18.0	0.00e+00	0	39	0	2012217344	59	4307
2026-01-19 23:02:31.52	87.33	6.27	-44.2	-45.5	18.0	0.00e+00	0	39	0	2027945984	59	4301
2026-01-19 23:02:34.43	87.75	6.19	-44.6	-45.9	17.7	0.00e+00	0	39	0	2044723200	59	4509
2026-01-19 23:02:37.34	88.17	6.10	-44.4	-45.7	17.8	0.00e+00	0	39	0	2061500416	59	4408
2026-01-19 23:02:40.25	88.59	6.01	-44.6	-46.0	17.5	0.00e+00	0	39	0	2077229056	59	4546
2026-01-19 23:02:43.15	89.00	5.92	-44.1	-45.4	17.7	0.00e+00	0	39	0	2094006272	60	4038
2026-01-19 23:02:46.06	89.42	5.83	-44.2	-45.5	17.9	0.00e+00	0	39	0	2109734912	59	4309
2026-01-19 23:02:48.97	89.83	5.74	-44.6	-46.0	17.4	0.00e+00	0	39	0	2126512128	59	4552
2026-01-19 23:02:51.87	90.23	5.65	-44.4	-45.7	17.7	0.00e+00	0	39	0	2142240768	59	4394
2026-01-19 23:02:54.78	90.64	5.56	-44.4	-45.6	17.7	0.00e+00	0	39	0	2159017984	59	4385
2026-01-19 23:02:57.69	91.04	5.47	-44.5	-45.9	17.5	0.00e+00	0	39	0	2175795200	59	4496
2026-01-19 23:03:00.59	91.44	5.37	-44.3	-45.7	17.2	0.00e+00	0	39	0	2192572416	60	4154
2026-01-19 23:03:03.50	91.84	5.28	-44.6	-46.0	16.9	0.00e+00	0	39	0	2208301056	60	4324
2026-01-19 23:03:06.41	92.24	5.18	-44.5	-45.9	16.9	0.00e+00	0	39	0	2225078272	60	4267
2026-01-19 23:03:09.31	92.63	5.09	-44.3	-45.6	17.2	0.00e+00	0	39	0	2240806912	60	4135
2026-01-19 23:03:12.22	93.02	4.99	-52.3	-64.3	3.8	8.45e-01	0	39	104	2254438400	75	14920
2026-01-19 23:03:15.13	93.41	4.89	-53.1	-65.1	3.8	8.47e-01	0	39	104	2254438400	76	15416
2026-01-19 23:03:18.04	93.80	4.80	-53.5	-65.4	3.8	8.46e-01	0	39	104	2254438400	77	15142
2026-01-19 23:03:20.96	94.18	4.70	-53.8	-65.7	3.8	8.45e-01	0	39	104	2254438400	78	14831
2026-01-19 23:03:23.86	94.56	4.60	-53.9	-65.9	3.8	8.47e-01	0	39	104	2254438400	78	15067
2026-01-19 23:03:26.77	94.94	4.50	-54.0	-66.0	3.8	8.45e-01	0	39	104	2254438400	78	15259
2026-01-19 23:03:29.68	95.31	4.40	-54.1	-66.1	3.8	8.46e-01	0	39	104	2254438400	78	15501
2026-01-19 23:03:32.60	95.69	4.29	-54.2	-66.1	3.8	8.46e-01	0	39	104	2254438400	78	15553
2026-01-19 23:03:35.51	96.06	4.19	-54.2	-66.2	3.8	8.47e-01	0	39	104	2254438400	78	15585
2026-01-19 23:03:38.41	96.43	4.09	-54.1	-66.1	3.8	8.46e-01	0	39	104	2254438400	78	15512
2026-01-19 23:03:41.32	96.79	3.99	-54.1	-66.1	3.8	8.46e-01	0	39	104	2254438400	78	15505
2026-01-19 23:03:44.22	97.16	3.88	-54.1	-66.1	3.8	8.46e-01	0	39	104	2254438400	78	15488
2026-01-19 23:03:47.13	97.52	3.78	-54.1	-66.0	3.8	8.47e-01	0	39	104	2254438400	78	15375
2026-01-19 23:03:50.05	97.88	3.67	-54.0	-66.0	3.8	8.47e-01	0	39	104	2254438400	78	15319
2026-01-19 23:03:52.96	98.23	3.57	-54.0	-66.0	3.8	8.45e-01	0	39	104	2254438400	78	15318
2026-01-19 23:03:55.86	98.59	3.46	-54.0	-66.0	3.8	8.47e-01	0	39	104	2254438400	78	15259
2026-01-19 23:03:58.77	98.94	3.36	-54.0	-66.0	3.8	8.46e-01	0	39	104	2254438400	78	15304
2026-01-19 23:04:01.68	99.29	3.25	-54.0	-66.0	3.8	8.47e-01	0	39	104	2254438400	78	15238
2026-01-19 23:04:04.60	99.63	3.14	-54.0	-65.9	3.8	8.47e-01	0	39	104	2254438400	78	15180
2026-01-19 23:04:07.50	99.98	3.03	-54.0	-66.0	3.8	8.47e-01	0	39	104	2254438400	78	15232
2026-01-19 23:04:10.41	100.32	2.93	-54.0	-65.9	3.8	8.46e-01	0	39	104	2254438400	78	15209
2026-01-19 23:04:13.33	100.66	2.82	-54.0	-65.9	3.8	8.46e-01	0	39	104	2254438400	78	15211
2026-01-19 23:04:16.24	101.00	2.71	-54.0	-65.9	3.8	8.46e-01	0	39	104	2254438400	78	15214
2026-01-19 23:04:19.14	101.33	2.60	-54.0	-65.9	3.8	8.45e-01	0	39	104	2254438400	78	15207
2026-01-19 23:04:22.06	101.66	2.49	-54.0	-65.9	3.8	8.46e-01	0	39	104	2254438400	78	15178
2026-01-19 23:04:24.96	101.99	2.38	-54.0	-65.9	3.8	8.47e-01	0	39	104	2254438400	78	15147
2026-01-19 23:04:27.87	102.32	2.27	-54.0	-65.9	3.8	8.45e-01	0	39	104	2254438400	78	15143
2026-01-19 23:04:30.78	102.65	2.16	-53.9	-65.9	3.8	8.47e-01	0	39	104	2254438400	78	15177
2026-01-19 23:04:33.69	102.97	2.05	-53.9	-65.9	3.8	8.46e-01	0	39	104	2254438400	78	15120

#Closed at: 2026-01-19 23:04:36
#Recorded file [2254 MB]: D:/lorett/data/31041_260120_015510.dat