passes_logs/2026/01/19/R3.2S_Murmansk/R3.2S_Murmansk__20260119_095342_SUOMI_NPP_rec.log

#Pass ID: 20260119_095342_SUOMI NPP
#Satellite: SUOMI NPP
#Configuration: NPP
#almurnet v.1.7.20251203
#Start time: 2026-01-19 09:53:42

#Version: 2.2.20231116
#Station: R3.2S_Murmansk
#Location: 33.079688 lon 68.888172 lat
#TLE: 1 37849U 11061A   26018.91022273  .00000066  00000+0  52264-4 0  9997
#TLE: 2 37849  98.7816 320.9252 0002364  56.8129 303.3273 14.19526186737260

#Time	Az	El	Level	Level2	SNR	BER	BlckErr	Temp	State	Recorded	gain1	gain2
2026-01-19 09:53:42.32	158.81	2.01	-52.4	-67.4	3.8	1.49e+00	0	36	0	0	76	20134
2026-01-19 09:53:46.21	158.86	2.26	-52.4	-67.4	3.8	1.49e+00	0	36	104	0	75	21279
2026-01-19 09:53:50.10	158.90	2.51	-52.4	-67.3	3.8	1.49e+00	0	36	104	0	75	21122
2026-01-19 09:53:53.99	158.94	2.77	-52.4	-67.2	3.8	1.49e+00	0	36	104	0	75	20961
2026-01-19 09:53:57.88	158.99	3.02	-52.4	-67.3	3.8	1.49e+00	0	37	104	0	75	21094
2026-01-19 09:54:01.76	159.03	3.28	-52.4	-67.2	3.8	1.49e+00	0	37	104	0	75	20958
2026-01-19 09:54:05.65	159.08	3.55	-52.3	-65.6	3.8	1.49e+00	0	37	104	0	75	17301
2026-01-19 09:54:09.52	159.13	3.81	-52.1	-63.1	4.4	1.37e+00	161	37	0	0	75	13087
2026-01-19 09:54:13.40	159.17	4.08	-51.9	-61.2	5.3	6.21e-01	0	37	0	7340032	75	10481
2026-01-19 09:54:17.29	159.22	4.35	-51.5	-58.5	7.5	1.24e-01	0	37	0	14680064	74	8146
2026-01-19 09:54:21.17	159.27	4.62	-50.5	-55.3	10.8	3.04e-03	0	37	0	20971520	72	6306
2026-01-19 09:54:25.06	159.32	4.89	-50.0	-53.9	12.3	1.98e-04	0	37	0	28311552	71	5712
2026-01-19 09:54:28.94	159.37	5.17	-51.1	-56.7	9.6	4.09e-03	0	37	0	35651584	72	7452
2026-01-19 09:54:32.82	159.42	5.45	-49.8	-53.5	12.8	1.49e-03	0	37	0	42991616	71	5403
2026-01-19 09:54:36.71	159.47	5.73	-49.7	-53.2	13.1	6.71e-05	0	37	0	50331648	71	5274
2026-01-19 09:54:40.59	159.52	6.02	-49.4	-52.5	14.0	9.10e-06	0	37	0	57671680	70	5136
2026-01-19 09:54:44.48	159.57	6.31	-49.5	-52.7	13.8	3.80e-06	0	37	0	65011712	70	5277
2026-01-19 09:54:48.37	159.63	6.61	-49.5	-52.7	13.9	3.00e-06	0	37	0	72351744	70	5262
2026-01-19 09:54:52.25	159.68	6.90	-49.4	-52.5	14.2	2.20e-06	0	37	0	79691776	70	5107
2026-01-19 09:54:56.14	159.74	7.20	-49.1	-51.9	14.8	0.00e+00	0	37	0	87031808	70	4778
2026-01-19 09:55:00.03	159.79	7.51	-49.0	-51.8	14.9	0.00e+00	0	38	0	94371840	70	4731
2026-01-19 09:55:03.92	159.85	7.81	-48.9	-51.5	15.2	0.00e+00	0	37	0	101711872	69	4842
2026-01-19 09:55:07.80	159.91	8.13	-48.9	-51.6	15.2	0.00e+00	0	37	0	109051904	69	4883
2026-01-19 09:55:11.68	159.96	8.44	-48.7	-51.2	15.6	0.00e+00	0	38	0	116391936	69	4680
2026-01-19 09:55:15.55	160.02	8.76	-48.7	-51.2	15.6	0.00e+00	0	38	0	123731968	69	4673
2026-01-19 09:55:19.43	160.08	9.08	-48.5	-50.9	15.9	0.00e+00	0	38	0	131072000	69	4524
2026-01-19 09:55:23.32	160.15	9.41	-48.4	-50.7	16.1	0.00e+00	0	38	0	138412032	68	4696
2026-01-19 09:55:27.20	160.21	9.74	-48.3	-50.6	16.3	0.00e+00	0	38	0	145752064	68	4600
2026-01-19 09:55:31.08	160.27	10.08	-48.2	-50.4	16.6	0.00e+00	0	38	0	152043520	68	4504
2026-01-19 09:55:34.97	160.34	10.42	-48.0	-50.1	16.7	0.00e+00	0	38	0	159383552	67	4631
2026-01-19 09:55:38.86	160.40	10.76	-47.7	-49.8	17.1	0.00e+00	0	38	0	166723584	67	4444
2026-01-19 09:55:42.73	160.47	11.11	-47.8	-49.8	17.1	0.00e+00	0	38	0	174063616	67	4473
2026-01-19 09:55:46.63	160.54	11.47	-47.8	-49.9	17.0	0.00e+00	0	38	0	181403648	66	4777
2026-01-19 09:55:50.52	160.61	11.83	-47.4	-49.3	17.6	0.00e+00	0	38	0	188743680	66	4479
2026-01-19 09:55:54.41	160.68	12.20	-47.3	-49.2	17.7	0.00e+00	0	38	0	196083712	66	4422
2026-01-19 09:55:58.30	160.76	12.57	-47.0	-48.8	18.1	0.00e+00	0	38	0	203423744	65	4454
2026-01-19 09:56:02.19	160.83	12.95	-46.9	-48.6	18.4	0.00e+00	0	38	0	210763776	65	4343
2026-01-19 09:56:06.08	160.91	13.33	-46.6	-48.3	18.6	0.00e+00	0	38	0	218103808	65	4199
2026-01-19 09:56:09.96	160.99	13.72	-46.4	-48.0	18.9	0.00e+00	0	38	0	225443840	64	4294
2026-01-19 09:56:13.84	161.07	14.12	-46.3	-47.9	19.0	0.00e+00	0	38	0	232783872	64	4253
2026-01-19 09:56:17.73	161.15	14.52	-46.2	-47.7	19.2	0.00e+00	0	38	0	240123904	64	4175
2026-01-19 09:56:21.62	161.23	14.93	-46.3	-47.8	19.1	0.00e+00	0	38	0	247463936	64	4228
2026-01-19 09:56:25.50	161.32	15.34	-46.2	-47.7	19.3	0.00e+00	0	38	0	254803968	64	4154
2026-01-19 09:56:29.39	161.40	15.77	-46.1	-47.6	19.3	0.00e+00	0	38	0	262144000	64	4116
2026-01-19 09:56:33.27	161.49	16.20	-46.2	-47.6	19.4	0.00e+00	0	38	0	269484032	63	4375
2026-01-19 09:56:37.15	161.58	16.64	-46.2	-47.7	19.4	0.00e+00	0	38	0	276824064	63	4419
2026-01-19 09:56:41.04	161.68	17.08	-46.1	-47.5	19.6	0.00e+00	0	38	0	284164096	63	4315
2026-01-19 09:56:44.94	161.77	17.54	-46.2	-47.7	19.4	0.00e+00	0	38	0	291504128	63	4422
2026-01-19 09:56:48.82	161.87	18.00	-46.4	-47.9	19.2	0.00e+00	0	38	0	298844160	63	4511
2026-01-19 09:56:52.71	161.97	18.48	-46.4	-48.0	19.1	0.00e+00	0	38	0	305135616	64	4301
2026-01-19 09:56:56.59	162.08	18.96	-46.8	-48.5	18.7	0.00e+00	0	38	0	312475648	64	4549
2026-01-19 09:57:00.48	162.19	19.45	-46.9	-48.5	18.6	0.00e+00	0	38	0	319815680	64	4575
2026-01-19 09:57:04.36	162.30	19.95	-47.1	-48.9	18.3	0.00e+00	0	38	0	327155712	64	4761
2026-01-19 09:57:08.24	162.41	20.46	-47.4	-49.2	18.0	0.00e+00	0	38	0	334495744	65	4679
2026-01-19 09:57:12.13	162.53	20.98	-47.9	-49.9	17.4	0.00e+00	0	38	0	341835776	66	4773
2026-01-19 09:57:16.01	162.65	21.51	-48.0	-50.0	17.2	0.00e+00	0	38	0	349175808	66	4837
2026-01-19 09:57:19.90	162.77	22.06	-47.8	-49.7	17.5	0.00e+00	0	38	0	356515840	66	4669
2026-01-19 09:57:23.77	162.90	22.61	-47.8	-49.8	17.5	0.00e+00	0	38	0	363855872	66	4712
2026-01-19 09:57:27.66	163.03	23.18	-48.2	-50.2	17.0	0.00e+00	0	38	0	371195904	67	4702
2026-01-19 09:57:31.55	163.17	23.76	-48.2	-50.2	17.1	0.00e+00	0	38	0	378535936	67	4663
2026-01-19 09:57:35.43	163.31	24.35	-47.9	-49.8	17.5	0.00e+00	0	38	0	385875968	67	4474
2026-01-19 09:57:39.32	163.46	24.96	-47.7	-49.5	17.7	0.00e+00	0	38	0	393216000	67	4320
2026-01-19 09:57:43.21	163.61	25.58	-47.4	-49.1	18.1	0.00e+00	0	38	0	400556032	66	4351
2026-01-19 09:57:47.10	163.76	26.22	-47.2	-48.8	18.4	0.00e+00	0	38	0	407896064	66	4233
2026-01-19 09:57:50.99	163.93	26.87	-47.3	-49.1	18.2	0.00e+00	0	38	0	415236096	65	4602
2026-01-19 09:57:54.88	164.10	27.54	-47.2	-48.9	18.3	0.00e+00	0	38	0	422576128	65	4526
2026-01-19 09:57:58.76	164.27	28.22	-47.3	-49.1	18.2	0.00e+00	0	38	0	429916160	65	4606
2026-01-19 09:58:02.66	164.46	28.92	-47.2	-48.9	18.4	0.00e+00	0	38	0	437256192	65	4526
2026-01-19 09:58:06.54	164.65	29.64	-47.5	-49.2	18.1	0.00e+00	0	38	0	444596224	65	4695
2026-01-19 09:58:10.42	164.84	30.37	-48.0	-49.9	17.5	0.00e+00	0	38	0	451936256	66	4765
2026-01-19 09:58:14.32	165.05	31.13	-48.3	-50.3	17.0	0.00e+00	0	38	0	458227712	67	4737
2026-01-19 09:58:18.19	165.27	31.90	-49.6	-52.3	15.2	0.00e+00	0	38	0	465567744	70	4996
2026-01-19 09:58:22.08	165.49	32.70	-49.9	-52.8	14.8	0.00e+00	0	38	0	472907776	71	4989
2026-01-19 09:58:25.97	165.73	33.52	-49.9	-52.8	14.8	1.50e-06	0	38	0	480247808	71	5035
2026-01-19 09:58:29.87	165.98	34.36	-48.5	-50.6	17.0	0.00e+00	0	38	0	487587840	68	4600
2026-01-19 09:58:33.76	166.24	35.22	-46.9	-48.4	18.9	0.00e+00	0	38	0	494927872	65	4285
2026-01-19 09:58:37.65	166.52	36.10	-46.1	-47.4	19.8	0.00e+00	0	38	0	502267904	64	4036
2026-01-19 09:58:41.53	166.81	37.01	-46.0	-47.3	20.1	0.00e+00	0	38	0	509607936	63	4214
2026-01-19 09:58:45.43	167.11	37.95	-46.6	-48.0	19.3	0.00e+00	0	38	0	516947968	64	4338
2026-01-19 09:58:49.33	167.44	38.91	-46.3	-47.7	19.7	0.00e+00	0	38	0	524288000	64	4147
2026-01-19 09:58:53.22	167.78	39.90	-47.2	-48.8	18.6	0.00e+00	0	38	0	531628032	65	4467
2026-01-19 09:58:57.10	168.14	40.91	-48.0	-49.9	17.6	0.00e+00	0	38	0	538968064	66	4775
2026-01-19 09:59:01.01	168.53	41.96	-46.7	-48.1	19.2	0.00e+00	0	38	0	546308096	65	4118
2026-01-19 09:59:04.89	168.94	43.03	-46.3	-47.7	19.7	0.00e+00	0	38	0	553648128	63	4425
2026-01-19 09:59:08.77	169.37	44.13	-46.7	-48.2	19.3	0.00e+00	0	38	0	560988160	63	4677
2026-01-19 09:59:12.67	169.84	45.26	-48.3	-50.4	17.3	0.00e+00	0	38	0	568328192	67	4764
2026-01-19 09:59:16.56	170.35	46.42	-49.3	-51.8	15.8	0.00e+00	0	38	0	575668224	69	5002
2026-01-19 09:59:20.44	170.89	47.61	-48.7	-50.8	16.8	0.00e+00	0	38	0	583008256	69	4476
2026-01-19 09:59:24.33	171.47	48.83	-46.9	-48.4	19.0	0.00e+00	0	38	0	590348288	65	4254
2026-01-19 09:59:28.22	172.10	50.09	-45.4	-46.6	20.7	0.00e+00	0	38	0	597688320	62	4121
2026-01-19 09:59:32.11	172.78	51.38	-45.1	-46.2	21.1	0.00e+00	0	38	0	603979776	61	4186
2026-01-19 09:59:36.00	173.53	52.70	-45.1	-46.3	21.1	0.00e+00	0	38	0	611319808	61	4240
2026-01-19 09:59:39.88	174.34	54.04	-44.2	-45.3	22.0	0.00e+00	0	38	0	618659840	60	3962
2026-01-19 09:59:43.76	175.23	55.42	-44.4	-45.6	21.6	0.00e+00	0	38	0	625999872	60	4125
2026-01-19 09:59:47.64	176.21	56.82	-43.3	-44.3	23.0	0.00e+00	0	38	0	633339904	58	3975
2026-01-19 09:59:51.53	177.30	58.26	-44.1	-45.1	22.4	0.00e+00	0	38	0	640679936	58	4371
2026-01-19 09:59:55.42	178.51	59.72	-44.7	-45.8	21.4	0.00e+00	0	38	0	648019968	60	4226
2026-01-19 09:59:59.30	179.87	61.19	-44.0	-45.1	22.2	0.00e+00	0	38	0	655360000	60	3880
2026-01-19 10:00:03.18	181.39	62.69	-44.4	-45.5	21.8	0.00e+00	0	38	0	662700032	60	4070
2026-01-19 10:00:07.07	183.11	64.20	-44.7	-45.8	21.8	0.00e+00	0	38	0	670040064	59	4472
2026-01-19 10:00:10.95	185.08	65.72	-45.3	-46.5	20.9	0.00e+00	0	38	0	677380096	61	4338
2026-01-19 10:00:14.83	187.33	67.24	-45.7	-47.0	20.5	0.00e+00	0	38	0	684720128	62	4305
2026-01-19 10:00:18.73	189.94	68.75	-47.8	-49.5	18.1	0.00e+00	0	38	0	692060160	66	4598
2026-01-19 10:00:22.61	192.97	70.24	-49.6	-52.0	15.8	0.00e+00	0	38	0	699400192	70	4858
2026-01-19 10:00:26.49	196.52	71.69	-47.9	-49.7	18.1	0.00e+00	0	38	0	706740224	67	4407
2026-01-19 10:00:30.38	200.70	73.08	-47.3	-48.8	18.8	0.00e+00	0	38	0	714080256	66	4238
2026-01-19 10:00:34.26	205.64	74.38	-48.4	-50.4	17.3	0.00e+00	0	38	0	721420288	69	4256
2026-01-19 10:00:38.14	211.47	75.57	-46.8	-48.2	19.4	0.00e+00	0	38	0	728760320	64	4434
2026-01-19 10:00:42.02	218.29	76.60	-49.4	-51.8	15.9	0.00e+00	0	38	0	735051776	70	4758
2026-01-19 10:00:45.91	226.18	77.42	-47.1	-48.6	19.1	0.00e+00	0	38	0	742391808	66	4108
2026-01-19 10:00:49.79	234.98	77.98	-50.6	-53.6	14.4	1.50e-06	0	38	0	749731840	71	5526
2026-01-19 10:00:53.67	244.41	78.24	-50.5	-53.5	14.5	0.00e+00	0	38	0	757071872	71	5459
2026-01-19 10:00:57.57	254.07	78.19	-49.2	-51.3	16.5	0.00e+00	0	38	0	764411904	70	4491
2026-01-19 10:01:01.45	263.33	77.81	-50.9	-54.3	13.5	0.00e+00	0	38	0	771751936	72	5641
2026-01-19 10:01:05.33	271.82	77.16	-49.4	-51.7	16.3	0.00e+00	0	38	0	779091968	70	4659
2026-01-19 10:01:09.22	279.34	76.26	-50.0	-52.7	15.2	1.50e-06	0	38	0	786432000	72	4686
2026-01-19 10:01:13.11	285.82	75.17	-49.3	-51.5	16.5	0.00e+00	0	38	0	793772032	69	4863
2026-01-19 10:01:17.00	291.33	73.94	-47.0	-48.5	19.1	0.00e+00	0	38	0	801112064	65	4317
2026-01-19 10:01:20.88	295.98	72.60	-47.9	-49.6	18.2	0.00e+00	0	38	0	808452096	66	4640
2026-01-19 10:01:24.77	299.92	71.19	-49.9	-52.5	15.5	0.00e+00	0	38	0	815792128	71	4844
2026-01-19 10:01:28.65	303.27	69.73	-47.6	-49.1	18.6	0.00e+00	0	38	0	823132160	67	4128
2026-01-19 10:01:32.54	306.15	68.23	-47.2	-48.8	19.0	0.00e+00	0	38	0	830472192	65	4457
2026-01-19 10:01:36.42	308.62	66.72	-47.5	-49.1	18.7	0.00e+00	0	38	0	837812224	65	4649
2026-01-19 10:01:40.30	310.76	65.21	-44.5	-45.6	21.9	0.00e+00	0	38	0	845152256	60	4125
2026-01-19 10:01:44.19	312.64	63.69	-44.0	-45.0	22.7	0.00e+00	0	38	0	852492288	58	4305
2026-01-19 10:01:48.07	314.28	62.19	-44.5	-45.6	21.9	0.00e+00	0	38	0	859832320	60	4120
2026-01-19 10:01:51.94	315.74	60.70	-46.4	-47.8	19.9	0.00e+00	0	38	0	867172352	64	4210
2026-01-19 10:01:55.82	317.04	59.24	-47.2	-48.8	18.9	0.00e+00	0	38	0	874512384	65	4462
2026-01-19 10:01:59.71	318.20	57.79	-46.0	-47.2	20.5	0.00e+00	0	38	0	880803840	62	4435
2026-01-19 10:02:03.60	319.25	56.37	-44.2	-45.3	22.2	0.00e+00	0	38	0	888143872	60	3964
2026-01-19 10:02:07.48	320.20	54.98	-45.6	-46.8	20.8	0.00e+00	0	38	0	895483904	61	4491
2026-01-19 10:02:11.37	321.07	53.61	-45.2	-46.3	21.3	0.00e+00	0	38	0	902823936	62	3987
2026-01-19 10:02:15.25	321.85	52.28	-47.7	-49.5	18.4	0.00e+00	0	38	0	910163968	66	4583
2026-01-19 10:02:19.14	322.58	50.98	-46.7	-48.1	19.5	0.00e+00	0	38	0	917504000	65	4125
2026-01-19 10:02:23.03	323.24	49.70	-49.8	-52.3	15.6	0.00e+00	0	38	0	924844032	70	5038
2026-01-19 10:02:26.91	323.85	48.47	-50.5	-53.5	14.3	1.50e-06	0	38	0	932184064	72	5147
2026-01-19 10:02:30.80	324.42	47.26	-47.9	-49.7	18.1	0.00e+00	0	38	0	939524096	67	4399
2026-01-19 10:02:34.67	324.95	46.08	-49.5	-51.8	16.1	0.00e+00	0	38	0	946864128	70	4737
2026-01-19 10:02:38.56	325.44	44.94	-47.4	-49.0	18.7	0.00e+00	0	38	0	954204160	66	4307
2026-01-19 10:02:42.45	325.90	43.82	-46.8	-48.2	19.5	0.00e+00	0	38	0	961544192	64	4429
2026-01-19 10:02:46.33	326.33	42.74	-49.5	-52.0	16.0	0.00e+00	0	38	0	968884224	69	5106
2026-01-19 10:02:50.21	326.73	41.68	-46.2	-47.6	20.0	0.00e+00	0	38	0	976224256	64	4110
2026-01-19 10:02:54.09	327.10	40.65	-45.1	-46.2	21.3	0.00e+00	0	38	0	983564288	61	4149
2026-01-19 10:02:57.98	327.46	39.65	-47.2	-48.9	18.8	0.00e+00	0	38	0	990904320	65	4505
2026-01-19 10:03:01.86	327.80	38.68	-48.0	-49.8	18.0	0.00e+00	0	38	0	998244352	67	4463
2026-01-19 10:03:05.75	328.11	37.73	-45.5	-46.6	20.8	0.00e+00	0	38	0	1005584384	63	3910
2026-01-19 10:03:09.65	328.42	36.80	-46.5	-47.9	19.7	0.00e+00	0	38	0	1012924416	63	4522
2026-01-19 10:03:13.52	328.70	35.91	-48.1	-50.0	17.7	0.00e+00	0	38	0	1019215872	67	4590
2026-01-19 10:03:17.40	328.97	35.04	-46.6	-48.0	19.5	0.00e+00	0	38	0	1026555904	65	4096
2026-01-19 10:03:21.29	329.23	34.18	-46.5	-47.9	19.6	0.00e+00	0	38	0	1033895936	64	4284
2026-01-19 10:03:25.16	329.47	33.36	-48.5	-50.5	17.2	0.00e+00	0	38	0	1041235968	67	4834
2026-01-19 10:03:29.04	329.71	32.55	-48.4	-50.4	17.3	0.00e+00	0	38	0	1048576000	68	4520
2026-01-19 10:03:32.93	329.93	31.77	-48.7	-50.9	17.0	0.00e+00	0	38	0	1055916032	68	4768
2026-01-19 10:03:36.81	330.15	31.00	-49.5	-52.0	15.7	0.00e+00	0	38	0	1063256064	69	5140
2026-01-19 10:03:40.69	330.35	30.25	-49.2	-51.5	16.2	0.00e+00	0	38	0	1070596096	70	4596
2026-01-19 10:03:44.58	330.55	29.52	-47.6	-49.3	18.2	0.00e+00	0	38	0	1077936128	66	4472
2026-01-19 10:03:48.47	330.74	28.81	-47.4	-49.0	18.5	0.00e+00	0	38	0	1085276160	66	4322
2026-01-19 10:03:52.36	330.92	28.12	-48.1	-50.0	17.5	0.00e+00	0	38	0	1092616192	67	4593
2026-01-19 10:03:56.24	331.10	27.44	-47.7	-49.5	18.0	0.00e+00	0	38	0	1099956224	67	4308
2026-01-19 10:04:00.12	331.26	26.79	-46.8	-48.3	19.1	0.00e+00	0	38	0	1107296256	65	4222
2026-01-19 10:04:04.10	331.43	26.13	-45.7	-47.0	20.4	0.00e+00	0	38	0	1114636288	63	4057
2026-01-19 10:04:08.03	331.59	25.49	-44.3	-45.4	21.7	0.00e+00	0	38	0	1121976320	60	4028
2026-01-19 10:04:11.92	331.74	24.87	-44.3	-45.3	21.8	0.00e+00	0	38	0	1129316352	60	3994
2026-01-19 10:04:15.81	331.89	24.27	-44.5	-45.6	21.6	0.00e+00	0	38	0	1136656384	60	4099
2026-01-19 10:04:19.70	332.03	23.68	-44.8	-45.9	21.3	0.00e+00	0	38	0	1143996416	60	4259
2026-01-19 10:04:23.58	332.16	23.11	-45.3	-46.5	20.7	0.00e+00	0	38	0	1151336448	61	4311
2026-01-19 10:04:27.46	332.30	22.55	-46.0	-47.4	20.0	0.00e+00	0	38	0	1158676480	62	4502
2026-01-19 10:04:31.35	332.42	22.00	-46.5	-47.9	19.4	0.00e+00	0	38	0	1166016512	63	4526
2026-01-19 10:04:35.24	332.55	21.46	-46.2	-47.6	19.7	0.00e+00	0	38	0	1173356544	63	4363
2026-01-19 10:04:39.12	332.67	20.93	-46.1	-47.5	19.8	0.00e+00	0	38	0	1180696576	63	4294
2026-01-19 10:04:43.00	332.79	20.42	-45.9	-47.3	19.9	0.00e+00	0	38	0	1186988032	63	4238
2026-01-19 10:04:46.89	332.90	19.91	-46.1	-47.5	19.8	0.00e+00	0	38	0	1194328064	63	4317
2026-01-19 10:04:50.78	333.01	19.41	-46.0	-47.4	19.8	0.00e+00	0	38	0	1201668096	63	4280
2026-01-19 10:04:54.67	333.12	18.93	-45.6	-46.9	20.3	0.00e+00	0	38	0	1209008128	63	4018
2026-01-19 10:04:58.56	333.22	18.45	-45.1	-46.3	20.8	0.00e+00	0	38	0	1216348160	62	3993
2026-01-19 10:05:02.44	333.33	17.98	-45.1	-46.3	20.8	0.00e+00	0	38	0	1223688192	62	3966
2026-01-19 10:05:06.33	333.43	17.52	-45.5	-46.8	20.3	0.00e+00	0	38	0	1231028224	62	4236
2026-01-19 10:05:10.21	333.52	17.07	-45.9	-47.2	19.9	0.00e+00	0	38	0	1238368256	62	4440
2026-01-19 10:05:14.10	333.62	16.63	-46.3	-47.8	19.4	0.00e+00	0	38	0	1245708288	63	4465
2026-01-19 10:05:17.98	333.71	16.19	-46.4	-47.9	19.3	0.00e+00	0	38	0	1253048320	63	4523
2026-01-19 10:05:21.87	333.80	15.77	-46.6	-48.2	19.0	0.00e+00	0	38	0	1260388352	63	4652
2026-01-19 10:05:25.75	333.89	15.35	-46.3	-47.8	19.2	0.00e+00	0	38	0	1267728384	64	4231
2026-01-19 10:05:29.65	333.98	14.93	-46.3	-47.8	19.2	0.00e+00	0	38	0	1275068416	64	4235
2026-01-19 10:05:33.52	334.06	14.53	-46.4	-48.0	19.1	0.00e+00	0	38	0	1282408448	64	4299
2026-01-19 10:05:37.40	334.15	14.13	-46.5	-48.0	19.0	0.00e+00	0	38	0	1289748480	64	4334
2026-01-19 10:05:41.30	334.23	13.74	-46.6	-48.1	18.9	0.00e+00	0	38	0	1297088512	64	4387
2026-01-19 10:05:45.18	334.31	13.35	-46.6	-48.1	18.8	0.00e+00	0	38	0	1304428544	64	4386
2026-01-19 10:05:49.07	334.38	12.97	-46.5	-48.1	18.9	0.00e+00	0	38	0	1311768576	64	4359
2026-01-19 10:05:52.97	334.46	12.59	-46.7	-48.4	18.6	0.00e+00	0	38	0	1319108608	64	4504
2026-01-19 10:05:56.86	334.54	12.22	-46.8	-48.5	18.4	0.00e+00	0	38	0	1325400064	64	4556
2026-01-19 10:06:00.74	334.61	11.86	-46.8	-48.4	18.5	0.00e+00	0	38	0	1332740096	64	4529
2026-01-19 10:06:04.63	334.68	11.50	-47.1	-48.9	18.0	0.00e+00	0	38	0	1340080128	64	4771
2026-01-19 10:06:08.52	334.75	11.15	-47.0	-48.7	18.1	0.00e+00	0	38	0	1347420160	64	4680
2026-01-19 10:06:12.40	334.82	10.80	-47.2	-49.0	17.8	0.00e+00	0	38	0	1354760192	64	4837
2026-01-19 10:06:16.30	334.89	10.45	-47.1	-48.9	18.0	0.00e+00	0	38	0	1362100224	65	4499
2026-01-19 10:06:20.19	334.96	10.12	-47.1	-49.0	17.8	0.00e+00	0	38	0	1369440256	65	4562
2026-01-19 10:06:24.07	335.02	9.78	-46.9	-48.7	18.1	0.00e+00	0	38	0	1376780288	65	4403
2026-01-19 10:06:27.96	335.09	9.45	-47.1	-48.9	17.8	0.00e+00	0	38	0	1384120320	65	4534
2026-01-19 10:06:31.85	335.15	9.13	-47.1	-49.0	17.8	0.00e+00	0	38	0	1391460352	65	4555
2026-01-19 10:06:35.73	335.22	8.81	-46.7	-48.5	18.2	0.00e+00	0	38	0	1398800384	65	4302
2026-01-19 10:06:39.63	335.28	8.49	-46.9	-48.7	17.9	0.00e+00	0	38	0	1406140416	65	4439
2026-01-19 10:06:43.51	335.34	8.17	-47.1	-48.9	17.7	0.00e+00	0	38	0	1413480448	65	4523
2026-01-19 10:06:47.40	335.40	7.86	-46.8	-48.5	18.1	0.00e+00	0	38	0	1420820480	65	4317
2026-01-19 10:06:51.30	335.46	7.56	-46.7	-48.5	18.1	0.00e+00	0	38	0	1428160512	65	4295
2026-01-19 10:06:55.19	335.52	7.26	-46.8	-48.6	17.9	0.00e+00	0	38	0	1435500544	65	4377
2026-01-19 10:06:59.08	335.57	6.96	-46.8	-48.6	17.9	0.00e+00	0	38	0	1442840576	65	4343
2026-01-19 10:07:02.97	335.63	6.66	-47.2	-49.1	17.4	0.00e+00	0	38	0	1450180608	65	4645
2026-01-19 10:07:06.87	335.69	6.37	-46.8	-48.6	17.9	0.00e+00	0	38	0	1457520640	65	4350
2026-01-19 10:07:10.76	335.74	6.08	-46.9	-48.7	17.7	0.00e+00	0	38	0	1464860672	65	4405
2026-01-19 10:07:14.65	335.80	5.79	-47.3	-49.3	17.1	0.00e+00	0	38	0	1472200704	65	4722
2026-01-19 10:07:18.53	335.85	5.51	-47.0	-48.9	17.4	0.00e+00	0	38	0	1479540736	65	4538
2026-01-19 10:07:22.43	335.90	5.23	-47.6	-49.8	16.5	0.00e+00	0	38	0	1486880768	66	4719
2026-01-19 10:07:26.32	335.96	4.96	-52.8	-66.6	3.8	4.07e-01	0	38	104	1493172224	76	18420
2026-01-19 10:07:30.20	336.01	4.68	-53.6	-68.6	3.8	1.49e+00	0	38	104	1493172224	77	21898
2026-01-19 10:07:34.09	336.06	4.41	-54.1	-69.0	3.8	1.49e+00	0	38	104	1493172224	78	21748
2026-01-19 10:07:37.98	336.11	4.14	-54.2	-69.2	3.8	1.49e+00	0	38	104	1493172224	78	22124
2026-01-19 10:07:41.87	336.16	3.88	-54.3	-69.3	3.8	1.49e+00	0	38	104	1493172224	79	21090
2026-01-19 10:07:45.77	336.21	3.61	-54.3	-69.3	3.8	1.49e+00	0	38	104	1493172224	79	21104
2026-01-19 10:07:49.65	336.26	3.35	-54.2	-69.3	3.8	1.49e+00	0	38	104	1493172224	79	21048
2026-01-19 10:07:53.55	336.30	3.10	-54.2	-69.2	3.8	1.49e+00	0	38	104	1493172224	79	20928
2026-01-19 10:07:57.45	336.35	2.84	-54.2	-69.2	3.8	1.49e+00	0	38	104	1493172224	79	20828
2026-01-19 10:08:01.37	336.40	2.58	-54.2	-69.2	3.8	1.49e+00	0	38	104	1493172224	79	20879
2026-01-19 10:08:05.28	336.45	2.33	-54.1	-69.2	3.8	1.49e+00	0	38	104	1493172224	79	20822
2026-01-19 10:08:09.18	336.49	2.08	-54.1	-69.1	3.8	1.49e+00	0	38	104	1493172224	79	20757

#Closed at: 2026-01-19 10:08:11
#Recorded file [1493 MB]: D:/lorett/data/31041_260119_125342.dat