passes_logs/2026/01/19/R3.2S_Murmansk/R3.2S_Murmansk__20260119_013639_SUOMI_NPP_rec.log

#Pass ID: 20260119_013639_SUOMI NPP
#Satellite: SUOMI NPP
#Configuration: NPP
#almurnet v.1.7.20251203
#Start time: 2026-01-19 01:36:41

#Version: 2.2.20231116
#Station: R3.2S_Murmansk
#Location: 33.079688 lon 68.888172 lat
#TLE: 1 37849U 11061A   26018.62828014  .00000065  00000+0  51921-4 0  9990
#TLE: 2 37849  98.7815 320.6456 0002372  57.2989 302.8415 14.19526102737226

#Time	Az	El	Level	Level2	SNR	BER	BlckErr	Temp	State	Recorded	gain1	gain2
2026-01-19 01:36:41.46	28.23	2.10	-51.6	-66.6	3.8	1.49e+00	0	37	0	0	75	19414
2026-01-19 01:36:45.48	28.16	2.36	-51.6	-66.4	3.8	1.49e+00	0	37	104	0	73	21483
2026-01-19 01:36:49.52	28.09	2.62	-51.6	-66.0	3.8	1.49e+00	0	37	104	0	73	20334
2026-01-19 01:36:53.56	28.01	2.88	-51.5	-65.7	3.8	1.49e+00	0	36	104	0	73	19756
2026-01-19 01:36:57.59	27.94	3.14	-51.6	-66.4	3.8	1.49e+00	0	36	104	0	73	21475
2026-01-19 01:37:01.62	27.86	3.41	-51.3	-62.1	4.5	1.37e+00	114	37	0	0	73	13042
2026-01-19 01:37:05.65	27.78	3.68	-50.6	-57.4	7.7	1.49e-01	0	37	0	7340032	73	7612
2026-01-19 01:37:09.68	27.70	3.95	-49.5	-53.8	11.6	9.26e-04	0	37	0	15728640	71	5622
2026-01-19 01:37:13.71	27.61	4.22	-49.1	-53.1	12.4	1.38e-04	0	37	0	23068672	70	5488
2026-01-19 01:37:17.74	27.53	4.50	-49.3	-53.5	11.9	4.60e-04	0	37	0	30408704	69	6124
2026-01-19 01:37:21.77	27.44	4.78	-50.4	-56.5	8.7	2.07e-02	0	37	0	37748736	71	7704
2026-01-19 01:37:25.80	27.35	5.06	-50.6	-56.3	10.8	2.35e-02	0	37	0	45088768	71	7491
2026-01-19 01:37:29.83	27.26	5.35	-48.2	-63.1	3.8	1.49e+00	0	37	104	46137344	68	19431
2026-01-19 01:37:33.87	27.16	5.64	-48.2	-63.1	3.8	1.49e+00	0	37	104	46137344	68	19445
2026-01-19 01:37:37.90	27.07	5.93	-48.2	-63.1	3.8	1.49e+00	0	37	104	46137344	68	19405
2026-01-19 01:37:41.93	26.97	6.23	-48.2	-63.1	3.8	1.49e+00	0	37	104	46137344	68	19460
2026-01-19 01:37:45.96	26.87	6.53	-48.2	-63.1	3.8	1.49e+00	0	37	104	46137344	68	19465
2026-01-19 01:37:49.99	26.76	6.83	-48.2	-63.1	3.8	1.49e+00	0	37	104	46137344	68	19498
2026-01-19 01:37:54.03	26.66	7.13	-48.2	-63.1	3.8	1.49e+00	0	37	104	46137344	68	19499
2026-01-19 01:37:58.06	26.55	7.44	-48.2	-63.1	3.8	1.49e+00	0	37	104	46137344	68	19437
2026-01-19 01:38:02.09	26.44	7.76	-48.2	-63.1	3.8	1.49e+00	0	37	104	46137344	68	19439
2026-01-19 01:38:06.12	26.32	8.07	-48.2	-63.1	3.8	1.49e+00	0	37	104	46137344	68	19489
2026-01-19 01:38:10.15	26.20	8.39	-48.2	-63.1	3.8	1.49e+00	0	36	104	46137344	68	19427
2026-01-19 01:38:14.18	26.08	8.72	-48.2	-63.1	3.8	1.49e+00	0	37	104	46137344	68	19478
2026-01-19 01:38:18.21	25.96	9.04	-48.2	-63.1	3.8	1.49e+00	0	37	104	46137344	68	19448
2026-01-19 01:38:22.24	25.84	9.38	-48.2	-63.1	3.8	1.49e+00	0	37	104	46137344	68	19445
2026-01-19 01:38:26.27	25.71	9.71	-48.2	-63.1	3.8	1.49e+00	0	37	104	46137344	68	19442
2026-01-19 01:38:30.31	25.57	10.06	-48.2	-63.1	3.8	1.49e+00	0	37	104	46137344	68	19461
2026-01-19 01:38:34.34	25.44	10.40	-48.2	-63.1	3.8	1.49e+00	0	37	104	46137344	68	19417
2026-01-19 01:38:38.37	25.30	10.75	-48.2	-63.1	3.8	1.49e+00	0	37	104	46137344	68	19422
2026-01-19 01:38:42.40	25.15	11.11	-48.2	-63.1	3.8	1.49e+00	0	37	104	46137344	68	19476
2026-01-19 01:38:46.43	25.00	11.47	-48.2	-63.1	3.8	1.49e+00	0	37	104	46137344	68	19487
2026-01-19 01:38:50.46	24.85	11.84	-48.2	-63.1	3.8	1.49e+00	0	37	104	46137344	68	19508
2026-01-19 01:38:54.50	24.69	12.21	-48.2	-63.1	3.8	1.49e+00	0	37	104	46137344	68	19445
2026-01-19 01:38:58.53	24.53	12.58	-48.2	-63.1	3.8	1.49e+00	0	37	104	46137344	68	19447
2026-01-19 01:39:02.56	24.37	12.97	-48.2	-63.1	3.8	1.49e+00	0	37	104	46137344	68	19422
2026-01-19 01:39:06.59	24.20	13.35	-48.2	-63.1	3.8	1.49e+00	0	37	104	46137344	68	19487
2026-01-19 01:39:10.63	24.02	13.75	-48.2	-63.1	3.8	1.49e+00	0	37	104	46137344	68	19459
2026-01-19 01:39:14.66	23.84	14.15	-48.2	-63.1	3.8	1.49e+00	0	37	104	46137344	68	19470
2026-01-19 01:39:18.69	23.65	14.56	-48.2	-63.1	3.8	1.49e+00	0	37	104	46137344	68	19480
2026-01-19 01:39:22.72	23.46	14.97	-48.2	-63.1	3.8	1.49e+00	0	37	104	46137344	68	19434
2026-01-19 01:39:26.76	23.26	15.39	-48.2	-63.1	3.8	1.49e+00	0	37	104	46137344	68	19473
2026-01-19 01:39:30.79	23.06	15.82	-48.2	-63.1	3.8	1.49e+00	0	37	104	46137344	68	19509
2026-01-19 01:39:34.82	22.85	16.25	-48.2	-63.1	3.8	1.49e+00	0	37	104	46137344	68	19439
2026-01-19 01:39:38.86	22.63	16.69	-48.2	-63.1	3.8	1.49e+00	0	37	104	46137344	68	19454
2026-01-19 01:39:42.89	22.41	17.14	-48.2	-63.1	3.8	1.49e+00	0	37	104	46137344	68	19434
2026-01-19 01:39:46.92	22.18	17.60	-48.2	-63.1	3.8	1.49e+00	0	37	104	46137344	68	19451
2026-01-19 01:39:50.96	21.94	18.07	-48.2	-63.1	3.8	1.49e+00	0	37	104	46137344	68	19468
2026-01-19 01:39:54.99	21.69	18.54	-48.2	-63.1	3.8	1.49e+00	0	37	104	46137344	68	19400
2026-01-19 01:39:59.02	21.44	19.02	-48.2	-63.0	3.8	1.49e+00	0	37	104	46137344	68	19385
2026-01-19 01:40:03.05	21.17	19.51	-48.2	-63.1	3.8	1.49e+00	0	37	104	46137344	68	19442
2026-01-19 01:40:07.08	20.90	20.01	-48.2	-63.1	3.8	1.49e+00	0	37	104	46137344	68	19442
2026-01-19 01:40:11.11	20.62	20.52	-48.2	-63.1	3.8	1.49e+00	0	37	104	46137344	68	19409
2026-01-19 01:40:15.15	20.32	21.05	-48.2	-63.0	3.8	1.49e+00	0	37	104	46137344	68	19387
2026-01-19 01:40:19.18	20.02	21.58	-48.2	-63.1	3.8	1.49e+00	0	37	104	46137344	68	19486
2026-01-19 01:40:23.21	19.70	22.12	-48.2	-63.1	3.8	1.49e+00	0	37	104	46137344	68	19454
2026-01-19 01:40:27.24	19.38	22.67	-48.2	-63.1	3.8	1.49e+00	0	37	104	46137344	68	19534
2026-01-19 01:40:31.27	19.04	23.23	-48.2	-63.1	3.8	1.49e+00	0	37	104	46137344	68	19431
2026-01-19 01:40:35.31	18.69	23.80	-48.2	-63.1	3.8	1.49e+00	0	37	104	46137344	68	19437
2026-01-19 01:40:39.34	18.32	24.39	-48.2	-63.1	3.8	1.49e+00	0	37	104	46137344	68	19466
2026-01-19 01:40:43.37	17.94	24.98	-48.2	-63.1	3.8	1.49e+00	0	37	104	46137344	68	19486
2026-01-19 01:40:47.40	17.54	25.59	-48.2	-63.1	3.8	1.49e+00	0	37	104	46137344	68	19446
2026-01-19 01:40:51.43	17.13	26.21	-48.2	-63.1	3.8	1.49e+00	0	37	104	46137344	68	19438
2026-01-19 01:40:55.46	16.70	26.85	-48.2	-63.1	3.8	1.49e+00	0	37	104	46137344	68	19445
2026-01-19 01:40:59.50	16.25	27.50	-48.2	-63.1	3.8	1.49e+00	0	37	104	46137344	68	19479
2026-01-19 01:41:03.53	15.79	28.16	-48.2	-63.1	3.8	1.49e+00	0	37	104	46137344	68	19408
2026-01-19 01:41:07.56	15.30	28.84	-48.2	-63.1	3.8	1.49e+00	0	37	104	46137344	68	19466
2026-01-19 01:41:11.60	14.79	29.53	-48.2	-63.1	3.8	1.49e+00	0	37	104	46137344	68	19508
2026-01-19 01:41:15.63	14.25	30.23	-48.2	-63.1	3.8	1.49e+00	0	37	104	46137344	68	19494
2026-01-19 01:41:19.66	13.70	30.95	-48.2	-63.1	3.8	1.49e+00	0	37	104	46137344	68	19440
2026-01-19 01:41:23.70	13.11	31.68	-48.2	-63.1	3.8	1.49e+00	0	37	104	46137344	68	19473
2026-01-19 01:41:27.73	12.50	32.43	-48.2	-63.1	3.8	1.49e+00	0	37	104	46137344	68	19508
2026-01-19 01:41:31.76	11.86	33.19	-48.2	-63.1	3.8	1.49e+00	0	37	104	46137344	68	19487
2026-01-19 01:41:35.80	11.18	33.98	-48.2	-63.1	3.8	1.49e+00	0	37	104	46137344	68	19495
2026-01-19 01:41:39.83	10.48	34.77	-48.2	-63.1	3.8	1.49e+00	0	37	104	46137344	68	19516
2026-01-19 01:41:43.86	9.73	35.58	-48.2	-63.1	3.8	1.49e+00	0	37	104	46137344	68	19499
2026-01-19 01:41:47.89	8.95	36.40	-48.2	-63.1	3.8	1.49e+00	0	37	104	46137344	68	19503
2026-01-19 01:41:51.92	8.13	37.24	-48.2	-63.1	3.8	1.49e+00	0	37	104	46137344	68	19520
2026-01-19 01:41:55.96	7.26	38.10	-48.2	-63.1	3.8	1.49e+00	0	37	104	46137344	68	19521
2026-01-19 01:41:59.99	6.34	38.96	-48.2	-63.1	3.8	1.49e+00	0	37	104	46137344	68	19515
2026-01-19 01:42:04.02	5.37	39.84	-48.2	-63.1	3.8	1.49e+00	0	37	104	46137344	68	19478
2026-01-19 01:42:08.05	4.35	40.74	-48.2	-63.1	3.8	1.49e+00	0	37	104	46137344	68	19481
2026-01-19 01:42:12.08	3.27	41.64	-48.2	-63.1	3.8	1.49e+00	0	37	104	46137344	68	19472
2026-01-19 01:42:16.11	2.12	42.56	-48.2	-63.1	3.8	1.49e+00	0	37	104	46137344	68	19494
2026-01-19 01:42:20.14	0.91	43.48	-48.2	-63.1	3.8	1.49e+00	0	36	104	46137344	68	19460
2026-01-19 01:42:24.18	359.61	44.41	-48.2	-63.1	3.8	1.49e+00	0	37	104	46137344	68	19490
2026-01-19 01:42:28.21	358.25	45.35	-48.2	-63.1	3.8	1.49e+00	0	37	104	46137344	68	19482
2026-01-19 01:42:32.24	356.80	46.29	-48.2	-63.1	3.8	1.49e+00	0	37	104	46137344	68	19477
2026-01-19 01:42:36.26	355.26	47.22	-48.2	-63.1	3.8	1.49e+00	0	37	104	46137344	68	19447
2026-01-19 01:42:40.29	353.62	48.16	-48.2	-63.1	3.8	1.49e+00	0	37	104	46137344	68	19443
2026-01-19 01:42:44.32	351.89	49.08	-48.2	-63.1	3.8	1.49e+00	0	37	104	46137344	68	19494
2026-01-19 01:42:48.36	350.03	50.00	-48.2	-63.1	3.8	1.49e+00	0	37	104	46137344	68	19506
2026-01-19 01:42:52.39	348.07	50.90	-48.2	-63.1	3.8	1.49e+00	0	37	104	46137344	68	19514
2026-01-19 01:42:56.42	345.99	51.78	-48.2	-63.1	3.8	1.49e+00	0	37	104	46137344	68	19483
2026-01-19 01:43:00.45	343.78	52.64	-48.2	-63.1	3.8	1.49e+00	0	37	104	46137344	68	19458
2026-01-19 01:43:04.49	341.43	53.46	-48.2	-63.1	3.8	1.49e+00	0	37	104	46137344	68	19481
2026-01-19 01:43:08.52	338.96	54.24	-48.2	-63.1	3.8	1.49e+00	0	37	104	46137344	68	19462
2026-01-19 01:43:12.55	336.35	54.98	-48.2	-63.1	3.8	1.49e+00	0	37	104	46137344	68	19513
2026-01-19 01:43:16.58	333.61	55.66	-48.2	-63.1	3.8	1.49e+00	0	37	104	46137344	68	19517
2026-01-19 01:43:20.61	330.74	56.28	-48.2	-63.1	3.8	1.49e+00	0	37	104	46137344	68	19501
2026-01-19 01:43:24.64	327.73	56.84	-48.2	-63.1	3.8	1.49e+00	0	37	104	46137344	68	19468
2026-01-19 01:43:28.67	324.62	57.32	-48.2	-63.1	3.8	1.49e+00	0	37	104	46137344	68	19460
2026-01-19 01:43:32.70	321.40	57.73	-48.2	-63.1	3.8	1.49e+00	0	37	104	46137344	68	19420
2026-01-19 01:43:36.74	318.08	58.04	-48.2	-63.1	3.8	1.49e+00	0	37	104	46137344	68	19509
2026-01-19 01:43:40.77	314.71	58.27	-48.2	-63.1	3.8	1.49e+00	0	37	104	46137344	68	19465
2026-01-19 01:43:44.80	311.29	58.40	-48.2	-63.1	3.8	1.49e+00	0	37	104	46137344	68	19458
2026-01-19 01:43:48.83	307.84	58.43	-48.2	-63.1	3.8	1.49e+00	0	37	104	46137344	68	19485
2026-01-19 01:43:52.87	304.40	58.37	-48.2	-63.1	3.8	1.49e+00	0	37	104	46137344	68	19471
2026-01-19 01:43:56.90	300.98	58.21	-48.2	-63.1	3.8	1.49e+00	0	37	104	46137344	68	19469
2026-01-19 01:44:00.93	297.62	57.96	-48.2	-63.1	3.8	1.49e+00	0	37	104	46137344	68	19468
2026-01-19 01:44:04.97	294.33	57.62	-48.2	-63.1	3.8	1.49e+00	0	37	104	46137344	68	19460
2026-01-19 01:44:09.00	291.13	57.20	-48.2	-63.1	3.8	1.49e+00	0	37	104	46137344	68	19486
2026-01-19 01:44:13.02	288.05	56.69	-48.2	-63.1	3.8	1.49e+00	0	37	104	46137344	68	19465
2026-01-19 01:44:17.06	285.08	56.12	-48.2	-63.1	3.8	1.49e+00	0	37	104	46137344	68	19407
2026-01-19 01:44:21.09	282.24	55.48	-48.2	-63.1	3.8	1.49e+00	0	37	104	46137344	68	19516
2026-01-19 01:44:25.12	279.53	54.78	-48.2	-63.1	3.8	1.49e+00	0	37	104	46137344	68	19410
2026-01-19 01:44:29.16	276.95	54.02	-48.2	-63.1	3.8	1.49e+00	0	37	104	46137344	68	19417
2026-01-19 01:44:33.19	274.51	53.23	-48.2	-63.1	3.8	1.49e+00	0	37	104	46137344	68	19471
2026-01-19 01:44:37.22	272.21	52.40	-48.2	-63.1	3.8	1.49e+00	0	37	104	46137344	68	19419
2026-01-19 01:44:41.25	270.03	51.53	-48.2	-63.1	3.8	1.49e+00	0	37	104	46137344	68	19466
2026-01-19 01:44:45.29	267.97	50.64	-48.2	-63.1	3.8	1.49e+00	0	37	104	46137344	68	19471
2026-01-19 01:44:49.32	266.04	49.74	-48.2	-63.1	3.8	1.49e+00	0	37	104	46137344	68	19457
2026-01-19 01:44:53.35	264.22	48.81	-48.2	-63.1	3.8	1.49e+00	0	37	104	46137344	68	19457
2026-01-19 01:44:57.38	262.51	47.88	-48.2	-63.1	3.8	1.49e+00	0	37	104	46137344	68	19504
2026-01-19 01:45:01.42	260.90	46.94	-48.2	-63.1	3.8	1.49e+00	0	37	104	46137344	68	19482
2026-01-19 01:45:05.45	259.38	46.00	-48.2	-63.1	3.8	1.49e+00	0	37	104	46137344	68	19470
2026-01-19 01:45:09.48	257.95	45.06	-48.2	-63.1	3.8	1.49e+00	0	37	104	46137344	68	19483
2026-01-19 01:45:13.51	256.61	44.13	-48.2	-63.1	3.8	1.49e+00	0	37	104	46137344	68	19465
2026-01-19 01:45:17.55	255.33	43.19	-48.2	-63.1	3.8	1.49e+00	0	37	104	46137344	68	19446
2026-01-19 01:45:21.58	254.14	42.27	-48.2	-63.1	3.8	1.49e+00	0	37	104	46137344	68	19451
2026-01-19 01:45:25.61	253.01	41.36	-48.2	-63.1	3.8	1.49e+00	0	37	104	46137344	68	19451
2026-01-19 01:45:29.64	251.94	40.45	-48.2	-63.1	3.8	1.49e+00	0	37	104	46137344	68	19452
2026-01-19 01:45:33.67	250.93	39.56	-48.2	-63.1	3.8	1.49e+00	0	37	104	46137344	68	19473
2026-01-19 01:45:37.70	249.98	38.68	-48.2	-63.1	3.8	1.49e+00	0	37	104	46137344	68	19447
2026-01-19 01:45:41.74	249.07	37.81	-48.2	-63.1	3.8	1.49e+00	0	37	104	46137344	68	19482
2026-01-19 01:45:45.76	248.22	36.97	-48.2	-63.1	3.8	1.49e+00	0	37	104	46137344	68	19434
2026-01-19 01:45:49.80	247.40	36.13	-48.2	-63.1	3.8	1.49e+00	0	37	104	46137344	68	19497
2026-01-19 01:45:53.83	246.63	35.31	-48.2	-63.1	3.8	1.49e+00	0	37	104	46137344	68	19454
2026-01-19 01:45:57.86	245.89	34.50	-48.2	-63.1	3.8	1.49e+00	0	37	104	46137344	68	19515
2026-01-19 01:46:01.89	245.19	33.71	-48.2	-63.1	3.8	1.49e+00	0	37	104	46137344	68	19493
2026-01-19 01:46:05.93	244.53	32.93	-48.2	-63.1	3.8	1.49e+00	0	37	104	46137344	68	19462
2026-01-19 01:46:09.96	243.89	32.17	-48.2	-63.1	3.8	1.49e+00	0	37	104	46137344	68	19432
2026-01-19 01:46:13.99	243.29	31.42	-48.2	-63.1	3.8	1.49e+00	0	37	104	46137344	68	19441
2026-01-19 01:46:18.02	242.71	30.69	-48.2	-63.1	3.8	1.49e+00	0	37	104	46137344	68	19470
2026-01-19 01:46:22.06	242.16	29.98	-48.2	-63.1	3.8	1.49e+00	0	37	104	46137344	68	19443
2026-01-19 01:46:26.08	241.63	29.28	-48.2	-63.1	3.8	1.49e+00	0	37	104	46137344	68	19468
2026-01-19 01:46:30.12	241.13	28.59	-48.2	-63.1	3.8	1.49e+00	0	37	104	46137344	68	19452
2026-01-19 01:46:34.16	240.64	27.91	-48.2	-63.1	3.8	1.49e+00	0	37	104	46137344	68	19475
2026-01-19 01:46:38.19	240.18	27.25	-48.2	-63.1	3.8	1.49e+00	0	37	104	46137344	68	19480
2026-01-19 01:46:42.22	239.73	26.61	-48.2	-63.1	3.8	1.49e+00	0	37	104	46137344	68	19421
2026-01-19 01:46:46.25	239.31	25.98	-48.2	-63.1	3.8	1.49e+00	0	37	104	46137344	68	19455
2026-01-19 01:46:50.29	238.90	25.36	-48.2	-63.1	3.8	1.49e+00	0	37	104	46137344	68	19465
2026-01-19 01:46:54.32	238.51	24.75	-48.2	-63.1	3.8	1.49e+00	0	37	104	46137344	68	19449
2026-01-19 01:46:58.36	238.13	24.15	-48.2	-63.1	3.8	1.49e+00	0	37	104	46137344	68	19399
2026-01-19 01:47:02.39	237.76	23.57	-48.2	-63.1	3.8	1.49e+00	0	37	104	46137344	68	19460
2026-01-19 01:47:06.42	237.41	23.00	-48.2	-63.1	3.8	1.49e+00	0	37	104	46137344	68	19426
2026-01-19 01:47:10.45	237.08	22.44	-48.2	-63.1	3.8	1.49e+00	0	37	104	46137344	68	19492
2026-01-19 01:47:14.48	236.75	21.89	-48.2	-63.1	3.8	1.49e+00	0	37	104	46137344	68	19452
2026-01-19 01:47:18.51	236.44	21.35	-48.2	-63.1	3.8	1.49e+00	0	37	104	46137344	68	19447
2026-01-19 01:47:22.54	236.14	20.83	-48.2	-63.1	3.8	1.49e+00	0	37	104	46137344	68	19461
2026-01-19 01:47:26.57	235.84	20.31	-48.2	-63.1	3.8	1.49e+00	0	37	104	46137344	68	19449
2026-01-19 01:47:30.60	235.56	19.80	-48.2	-63.1	3.8	1.49e+00	0	37	104	46137344	68	19477
2026-01-19 01:47:34.64	235.29	19.30	-48.2	-63.1	3.8	1.49e+00	0	37	104	46137344	68	19463
2026-01-19 01:47:38.66	235.03	18.81	-48.2	-63.1	3.8	1.49e+00	0	37	104	46137344	68	19496
2026-01-19 01:47:42.70	234.77	18.33	-48.2	-63.1	3.8	1.49e+00	0	37	104	46137344	68	19434
2026-01-19 01:47:46.73	234.53	17.86	-48.2	-63.1	3.8	1.49e+00	0	37	104	46137344	68	19442
2026-01-19 01:47:50.76	234.29	17.39	-48.2	-63.1	3.8	1.49e+00	0	37	104	46137344	68	19457
2026-01-19 01:47:54.79	234.06	16.94	-48.2	-63.1	3.8	1.49e+00	0	37	104	46137344	68	19411
2026-01-19 01:47:58.82	233.83	16.49	-48.2	-63.1	3.8	1.49e+00	0	37	104	46137344	68	19456
2026-01-19 01:48:02.85	233.62	16.05	-48.2	-63.1	3.8	1.49e+00	0	37	104	46137344	68	19436
2026-01-19 01:48:06.89	233.41	15.62	-48.2	-63.1	3.8	1.49e+00	0	37	104	46137344	68	19416
2026-01-19 01:48:10.92	233.20	15.19	-48.2	-63.1	3.8	1.49e+00	0	37	104	46137344	68	19398
2026-01-19 01:48:14.95	233.00	14.77	-48.2	-63.1	3.8	1.49e+00	0	37	104	46137344	68	19450
2026-01-19 01:48:18.98	232.81	14.36	-48.2	-63.1	3.8	1.49e+00	0	37	104	46137344	68	19432
2026-01-19 01:48:23.01	232.63	13.95	-48.2	-63.0	3.8	1.49e+00	0	37	104	46137344	68	19365
2026-01-19 01:48:27.04	232.44	13.55	-48.2	-63.1	3.8	1.49e+00	0	37	104	46137344	68	19429
2026-01-19 01:48:31.07	232.27	13.16	-48.2	-63.1	3.8	1.49e+00	0	37	104	46137344	68	19427
2026-01-19 01:48:35.10	232.10	12.77	-48.2	-63.1	3.8	1.49e+00	0	37	104	46137344	68	19439
2026-01-19 01:48:39.14	231.93	12.39	-48.2	-63.1	3.8	1.49e+00	0	37	104	46137344	68	19449
2026-01-19 01:48:43.16	231.77	12.02	-48.2	-63.1	3.8	1.49e+00	0	37	104	46137344	68	19460
2026-01-19 01:48:47.19	231.61	11.65	-48.2	-63.1	3.8	1.49e+00	0	37	104	46137344	68	19412
2026-01-19 01:48:51.23	231.46	11.28	-48.2	-63.1	3.8	1.49e+00	0	37	104	46137344	68	19421
2026-01-19 01:48:55.26	231.31	10.92	-48.2	-63.1	3.8	1.49e+00	0	37	104	46137344	68	19434
2026-01-19 01:48:59.29	231.16	10.57	-48.2	-63.1	3.8	1.49e+00	0	37	104	46137344	68	19445
2026-01-19 01:49:03.32	231.02	10.22	-48.2	-63.1	3.8	1.49e+00	0	37	104	46137344	68	19430
2026-01-19 01:49:07.35	230.88	9.87	-48.2	-63.1	3.8	1.49e+00	0	37	104	46137344	68	19448
2026-01-19 01:49:11.39	230.75	9.53	-48.2	-63.0	3.8	1.49e+00	0	37	104	46137344	68	19361
2026-01-19 01:49:15.42	230.62	9.19	-48.2	-63.1	3.8	1.49e+00	0	37	104	46137344	68	19445
2026-01-19 01:49:19.45	230.49	8.86	-48.2	-63.1	3.8	1.49e+00	0	36	104	46137344	68	19456
2026-01-19 01:49:23.48	230.37	8.54	-48.2	-63.1	3.8	1.49e+00	0	37	104	46137344	68	19439
2026-01-19 01:49:27.51	230.25	8.21	-48.2	-63.1	3.8	1.49e+00	0	37	104	46137344	68	19413
2026-01-19 01:49:31.54	230.13	7.89	-48.2	-63.1	3.8	1.49e+00	0	37	104	46137344	68	19442
2026-01-19 01:49:35.58	230.01	7.58	-48.2	-63.1	3.8	1.49e+00	0	37	104	46137344	68	19451
2026-01-19 01:49:39.61	229.90	7.26	-48.2	-63.1	3.8	1.49e+00	0	37	104	46137344	68	19404
2026-01-19 01:49:43.64	229.79	6.96	-48.2	-63.1	3.8	1.49e+00	0	37	104	46137344	68	19433
2026-01-19 01:49:47.67	229.68	6.65	-48.2	-63.1	3.8	1.49e+00	0	37	104	46137344	68	19430
2026-01-19 01:49:51.71	229.57	6.35	-48.2	-63.0	3.8	1.49e+00	0	37	104	46137344	68	19340
2026-01-19 01:49:55.74	229.47	6.05	-48.2	-63.1	3.8	1.49e+00	0	37	104	46137344	68	19424
2026-01-19 01:49:59.77	229.37	5.76	-48.2	-63.1	3.8	1.49e+00	0	37	104	46137344	68	19460
2026-01-19 01:50:03.80	229.27	5.46	-48.2	-63.1	3.8	1.49e+00	0	37	104	46137344	68	19459
2026-01-19 01:50:07.84	229.18	5.18	-48.2	-63.1	3.8	1.49e+00	0	37	104	46137344	68	19393
2026-01-19 01:50:11.87	229.08	4.89	-48.2	-63.0	3.8	1.49e+00	0	37	104	46137344	68	19356
2026-01-19 01:50:15.90	228.99	4.61	-48.2	-63.1	3.8	1.49e+00	0	37	104	46137344	68	19487
2026-01-19 01:50:19.93	228.90	4.33	-48.2	-63.0	3.8	1.49e+00	0	37	104	46137344	68	19387
2026-01-19 01:50:23.96	228.81	4.05	-48.2	-63.0	3.8	1.49e+00	0	37	104	46137344	68	19388
2026-01-19 01:50:27.99	228.73	3.78	-48.2	-63.1	3.8	1.49e+00	0	37	104	46137344	68	19420
2026-01-19 01:50:32.03	228.64	3.50	-48.2	-63.0	3.8	1.49e+00	0	37	104	46137344	68	19385
2026-01-19 01:50:36.06	228.56	3.24	-48.2	-63.1	3.8	1.49e+00	0	37	104	46137344	68	19416
2026-01-19 01:50:40.09	228.48	2.97	-48.2	-63.0	3.8	1.49e+00	0	37	104	46137344	68	19385
2026-01-19 01:50:44.13	228.40	2.71	-48.2	-63.1	3.8	1.49e+00	0	37	104	46137344	68	19423
2026-01-19 01:50:48.16	228.32	2.44	-48.2	-63.1	3.8	1.49e+00	0	37	104	46137344	68	19424
2026-01-19 01:50:52.19	228.25	2.19	-48.2	-63.1	3.8	1.49e+00	0	37	104	46137344	68	19392

#Closed at: 2026-01-19 01:50:56
#Recorded file [46 MB]: D:/lorett/data/31041_260119_043641.dat