passes_logs/2026/01/19/R3.2S_Murmansk/R3.2S_Murmansk__20260119_113512_SUOMI_NPP_rec.log

#Pass ID: 20260119_113512_SUOMI NPP
#Satellite: SUOMI NPP
#Configuration: NPP
#almurnet v.1.7.20251203
#Start time: 2026-01-19 11:35:13

#Version: 2.2.20231116
#Station: R3.2S_Murmansk
#Location: 33.079688 lon 68.888172 lat
#TLE: 1 37849U 11061A   26018.91022273  .00000066  00000+0  52264-4 0  9997
#TLE: 2 37849  98.7816 320.9252 0002364  56.8129 303.3273 14.19526186737260

#Time	Az	El	Level	Level2	SNR	BER	BlckErr	Temp	State	Recorded	gain1	gain2
2026-01-19 11:35:13.58	201.50	2.06	-52.5	-67.5	3.8	1.49e+00	0	36	0	0	77	19291
2026-01-19 11:35:17.62	201.75	2.30	-52.5	-67.4	3.8	1.49e+00	0	36	104	0	75	21267
2026-01-19 11:35:21.65	201.99	2.54	-52.5	-67.4	3.8	1.49e+00	0	36	104	0	75	21428
2026-01-19 11:35:25.68	202.24	2.77	-52.5	-67.4	3.8	1.49e+00	0	36	104	0	75	21354
2026-01-19 11:35:29.71	202.49	3.01	-52.5	-67.4	3.8	1.49e+00	0	36	104	0	75	21349
2026-01-19 11:35:33.75	202.75	3.26	-52.5	-67.3	3.8	1.49e+00	0	36	104	0	75	21199
2026-01-19 11:35:37.78	203.01	3.50	-52.5	-67.5	3.8	1.49e+00	0	36	104	0	75	21526
2026-01-19 11:35:41.81	203.27	3.74	-52.5	-67.3	3.8	1.49e+00	0	36	104	0	75	21189
2026-01-19 11:35:45.84	203.54	3.99	-52.5	-67.4	3.8	1.49e+00	0	37	104	0	75	21278
2026-01-19 11:35:49.88	203.81	4.24	-52.3	-64.1	4.2	1.49e+00	0	37	104	0	75	14585
2026-01-19 11:35:53.91	204.09	4.49	-51.9	-60.2	6.1	4.43e-01	0	37	0	5242880	75	9335
2026-01-19 11:35:57.94	204.37	4.74	-50.8	-55.8	10.4	8.27e-03	0	37	0	12582912	73	6290
2026-01-19 11:36:01.97	204.66	5.00	-49.2	-52.2	14.2	1.50e-06	0	37	0	19922944	70	4970
2026-01-19 11:36:06.01	204.95	5.25	-51.5	-57.8	8.6	9.23e-05	0	37	0	27262976	73	7932
2026-01-19 11:36:10.04	205.25	5.51	-49.5	-52.9	13.6	9.10e-06	0	37	0	35651584	70	5349
2026-01-19 11:36:14.08	205.55	5.77	-49.4	-52.5	14.0	3.00e-06	0	37	0	42991616	70	5134
2026-01-19 11:36:18.11	205.86	6.03	-49.3	-52.4	14.1	3.00e-06	0	37	0	50331648	70	5075
2026-01-19 11:36:22.13	206.17	6.29	-49.0	-51.8	14.8	1.50e-06	0	37	0	57671680	70	4722
2026-01-19 11:36:26.16	206.48	6.56	-48.4	-50.9	15.8	0.00e+00	0	37	0	65011712	68	4773
2026-01-19 11:36:30.20	206.81	6.83	-48.5	-50.9	15.7	0.00e+00	0	37	0	73400320	68	4810
2026-01-19 11:36:34.23	207.14	7.10	-47.9	-50.1	16.4	0.00e+00	0	37	0	80740352	67	4645
2026-01-19 11:36:38.26	207.47	7.37	-47.6	-49.6	17.0	0.00e+00	0	37	0	88080384	67	4377
2026-01-19 11:36:42.29	207.81	7.64	-47.4	-49.4	17.2	0.00e+00	0	37	0	95420416	66	4536
2026-01-19 11:36:46.33	208.16	7.92	-47.4	-49.4	17.2	0.00e+00	0	37	0	102760448	66	4517
2026-01-19 11:36:50.36	208.51	8.20	-47.1	-48.9	17.7	0.00e+00	0	37	0	111149056	66	4275
2026-01-19 11:36:54.39	208.87	8.48	-47.1	-48.9	17.8	0.00e+00	0	37	0	118489088	66	4266
2026-01-19 11:36:58.43	209.24	8.76	-47.1	-48.9	17.8	0.00e+00	0	37	0	125829120	65	4499
2026-01-19 11:37:02.46	209.61	9.05	-46.8	-48.5	18.2	0.00e+00	0	37	0	133169152	65	4303
2026-01-19 11:37:06.49	209.99	9.33	-46.9	-48.7	18.0	0.00e+00	0	37	0	141557760	65	4425
2026-01-19 11:37:10.52	210.37	9.62	-47.1	-48.9	17.8	0.00e+00	0	37	0	148897792	65	4527
2026-01-19 11:37:14.55	210.77	9.91	-47.1	-48.9	17.9	0.00e+00	0	37	0	156237824	65	4535
2026-01-19 11:37:18.58	211.17	10.21	-46.6	-48.3	18.5	0.00e+00	0	37	0	163577856	65	4206
2026-01-19 11:37:22.61	211.58	10.50	-46.4	-48.0	18.8	0.00e+00	0	37	0	170917888	64	4306
2026-01-19 11:37:26.65	212.00	10.80	-46.4	-48.0	18.8	0.00e+00	0	38	0	178257920	64	4324
2026-01-19 11:37:30.68	212.42	11.10	-46.3	-47.9	18.9	0.00e+00	0	38	0	186646528	64	4262
2026-01-19 11:37:34.71	212.86	11.41	-46.7	-48.4	18.4	0.00e+00	0	37	0	193986560	64	4533
2026-01-19 11:37:38.74	213.30	11.71	-46.8	-48.5	18.4	0.00e+00	0	37	0	201326592	64	4565
2026-01-19 11:37:42.78	213.76	12.02	-46.8	-48.4	18.4	0.00e+00	0	37	0	208666624	64	4538
2026-01-19 11:37:46.81	214.22	12.33	-46.5	-48.0	18.8	0.00e+00	0	37	0	217055232	64	4332
2026-01-19 11:37:50.84	214.69	12.64	-46.4	-47.9	19.0	0.00e+00	0	37	0	224395264	64	4266
2026-01-19 11:37:54.87	215.17	12.96	-46.4	-47.9	19.0	0.00e+00	0	37	0	231735296	64	4268
2026-01-19 11:37:58.90	215.66	13.27	-46.8	-48.5	18.5	0.00e+00	0	37	0	239075328	64	4576
2026-01-19 11:38:02.93	216.16	13.59	-47.0	-48.7	18.2	0.00e+00	0	37	0	246415360	64	4699
2026-01-19 11:38:06.97	216.67	13.91	-47.1	-48.8	18.2	0.00e+00	0	37	0	254803968	64	4734
2026-01-19 11:38:11.00	217.19	14.24	-46.9	-48.6	18.4	0.00e+00	0	37	0	262144000	64	4610
2026-01-19 11:38:15.03	217.73	14.56	-47.4	-49.2	17.9	0.00e+00	0	37	0	269484032	65	4680
2026-01-19 11:38:19.06	218.27	14.89	-47.2	-49.0	18.0	0.00e+00	0	37	0	276824064	65	4578
2026-01-19 11:38:23.09	218.83	15.22	-47.1	-48.8	18.2	0.00e+00	0	37	0	285212672	65	4468
2026-01-19 11:38:27.12	219.40	15.55	-46.3	-47.7	19.2	0.00e+00	0	37	0	292552704	64	4191
2026-01-19 11:38:31.16	219.98	15.89	-46.2	-47.6	19.3	0.00e+00	0	37	0	299892736	64	4145
2026-01-19 11:38:35.19	220.57	16.22	-46.5	-48.0	19.0	0.00e+00	0	37	0	307232768	64	4325
2026-01-19 11:38:39.22	221.18	16.56	-46.5	-48.1	18.9	0.00e+00	0	37	0	314572800	64	4349
2026-01-19 11:38:43.25	221.80	16.90	-46.5	-48.0	19.1	0.00e+00	0	37	0	321912832	64	4313
2026-01-19 11:38:47.28	222.43	17.24	-46.7	-48.3	18.8	0.00e+00	0	37	0	330301440	64	4447
2026-01-19 11:38:51.31	223.08	17.58	-46.3	-47.8	19.2	0.00e+00	0	37	0	337641472	64	4195
2026-01-19 11:38:55.35	223.74	17.92	-46.1	-47.5	19.5	0.00e+00	0	37	0	344981504	64	4078
2026-01-19 11:38:59.38	224.42	18.27	-45.7	-47.1	20.0	0.00e+00	0	37	0	352321536	63	4114
2026-01-19 11:39:03.40	225.11	18.61	-45.5	-46.8	20.2	0.00e+00	0	37	0	360710144	63	4001
2026-01-19 11:39:07.44	225.82	18.96	-45.4	-46.7	20.3	0.00e+00	0	37	0	368050176	62	4192
2026-01-19 11:39:11.47	226.54	19.30	-45.7	-47.0	20.0	0.00e+00	0	38	0	375390208	62	4340
2026-01-19 11:39:15.50	227.28	19.65	-46.0	-47.4	19.7	0.00e+00	0	37	0	382730240	62	4521
2026-01-19 11:39:19.53	228.03	19.99	-45.6	-47.0	20.1	0.00e+00	0	37	0	390070272	62	4297
2026-01-19 11:39:23.56	228.80	20.34	-45.7	-47.0	20.1	0.00e+00	0	37	0	398458880	62	4318
2026-01-19 11:39:27.59	229.59	20.69	-45.6	-47.0	20.1	0.00e+00	0	37	0	405798912	62	4303
2026-01-19 11:39:31.62	230.40	21.03	-45.6	-46.9	20.2	0.00e+00	0	38	0	413138944	62	4269
2026-01-19 11:39:35.66	231.22	21.38	-45.0	-46.2	20.8	0.00e+00	0	37	0	420478976	61	4170
2026-01-19 11:39:39.69	232.07	21.72	-44.4	-45.6	21.4	0.00e+00	0	38	0	427819008	60	4107
2026-01-19 11:39:43.72	232.93	22.06	-44.7	-45.8	21.2	0.00e+00	0	37	0	436207616	60	4241
2026-01-19 11:39:47.75	233.80	22.40	-45.3	-46.6	20.4	0.00e+00	0	37	0	443547648	61	4366
2026-01-19 11:39:51.78	234.70	22.73	-45.3	-46.5	20.6	0.00e+00	0	38	0	450887680	61	4328
2026-01-19 11:39:55.81	235.62	23.07	-45.6	-46.9	20.2	0.00e+00	0	37	0	458227712	61	4502
2026-01-19 11:39:59.85	236.56	23.40	-45.6	-46.9	20.3	0.00e+00	0	38	0	465567744	62	4263
2026-01-19 11:40:03.88	237.51	23.72	-45.9	-47.2	20.0	0.00e+00	0	37	0	473956352	62	4421
2026-01-19 11:40:07.91	238.49	24.05	-46.1	-47.5	19.7	0.00e+00	0	37	0	481296384	63	4299
2026-01-19 11:40:11.94	239.48	24.36	-46.1	-47.5	19.7	0.00e+00	0	38	0	488636416	63	4317
2026-01-19 11:40:15.97	240.49	24.68	-46.0	-47.3	19.9	0.00e+00	0	38	0	495976448	63	4242
2026-01-19 11:40:20.00	241.53	24.98	-46.0	-47.4	19.8	0.00e+00	0	38	0	504365056	63	4271
2026-01-19 11:40:24.03	242.58	25.28	-46.0	-47.4	19.8	0.00e+00	0	38	0	511705088	63	4266
2026-01-19 11:40:28.06	243.65	25.58	-45.9	-47.2	20.0	0.00e+00	0	38	0	519045120	63	4170
2026-01-19 11:40:32.09	244.74	25.86	-46.3	-47.7	19.6	0.00e+00	0	38	0	526385152	63	4413
2026-01-19 11:40:36.12	245.85	26.14	-46.1	-47.5	19.8	0.00e+00	0	37	0	533725184	63	4305
2026-01-19 11:40:40.15	246.98	26.41	-46.9	-48.6	18.7	0.00e+00	0	38	0	541065216	64	4623
2026-01-19 11:40:44.18	248.13	26.67	-46.0	-47.4	19.8	0.00e+00	0	37	0	549453824	64	4031
2026-01-19 11:40:48.21	249.30	26.92	-46.6	-48.2	19.2	0.00e+00	0	38	0	556793856	63	4660
2026-01-19 11:40:52.24	250.48	27.16	-47.1	-48.7	18.6	0.00e+00	0	37	0	564133888	64	4697
2026-01-19 11:40:56.27	251.68	27.39	-46.3	-47.7	19.5	0.00e+00	0	37	0	571473920	64	4187
2026-01-19 11:41:00.31	252.90	27.60	-46.2	-47.6	19.7	0.00e+00	0	37	0	579862528	63	4342
2026-01-19 11:41:04.34	254.13	27.81	-47.0	-48.6	18.6	0.00e+00	0	37	0	587202560	64	4647
2026-01-19 11:41:08.37	255.38	28.00	-46.6	-48.1	19.1	0.00e+00	0	38	0	594542592	64	4383
2026-01-19 11:41:12.40	256.64	28.18	-48.5	-50.6	16.7	0.00e+00	0	38	0	601882624	67	4913
2026-01-19 11:41:16.43	257.92	28.34	-48.5	-50.6	16.8	0.00e+00	0	38	0	609222656	67	4884
2026-01-19 11:41:20.46	259.20	28.50	-48.8	-51.0	16.5	0.00e+00	0	38	0	617611264	69	4592
2026-01-19 11:41:24.49	260.50	28.63	-49.1	-51.5	16.0	0.00e+00	0	37	0	624951296	69	4823
2026-01-19 11:41:28.51	261.81	28.75	-47.9	-49.8	17.6	0.00e+00	0	38	0	632291328	67	4460
2026-01-19 11:41:32.55	263.13	28.86	-47.9	-49.8	17.5	0.00e+00	0	38	0	639631360	67	4460
2026-01-19 11:41:36.58	264.46	28.95	-48.0	-49.9	17.4	0.00e+00	0	38	0	646971392	66	4812
2026-01-19 11:41:40.60	265.78	29.02	-46.8	-48.3	18.9	0.00e+00	0	38	0	655360000	65	4233
2026-01-19 11:41:44.63	267.12	29.07	-46.9	-48.5	18.8	0.00e+00	0	38	0	662700032	65	4313
2026-01-19 11:41:48.66	268.46	29.11	-47.0	-48.6	18.7	0.00e+00	0	38	0	670040064	65	4382
2026-01-19 11:41:52.69	269.81	29.14	-47.3	-49.0	18.4	0.00e+00	0	38	0	677380096	65	4583
2026-01-19 11:41:56.72	271.15	29.14	-47.4	-49.1	18.3	0.00e+00	0	38	0	684720128	65	4644
2026-01-19 11:42:00.74	272.49	29.13	-46.8	-48.3	19.0	0.00e+00	0	37	0	693108736	65	4240
2026-01-19 11:42:04.78	273.84	29.11	-48.3	-50.3	17.1	0.00e+00	0	38	0	700448768	67	4737
2026-01-19 11:42:08.81	275.18	29.06	-48.6	-50.8	16.7	0.00e+00	0	38	0	707788800	67	4990
2026-01-19 11:42:12.84	276.51	29.00	-47.2	-48.8	18.7	0.00e+00	0	38	0	715128832	66	4196
2026-01-19 11:42:16.88	277.84	28.92	-48.4	-50.4	17.1	0.00e+00	0	38	0	723517440	67	4782
2026-01-19 11:42:20.91	279.17	28.83	-48.9	-51.2	16.5	0.00e+00	0	38	0	730857472	68	4937
2026-01-19 11:42:24.95	280.48	28.72	-48.4	-50.5	17.1	0.00e+00	0	38	0	738197504	68	4546
2026-01-19 11:42:28.97	281.78	28.60	-50.6	-54.0	13.7	0.00e+00	0	38	0	745537536	71	5724
2026-01-19 11:42:33.01	283.08	28.46	-49.6	-52.2	15.4	0.00e+00	0	38	0	752877568	71	4689
2026-01-19 11:42:37.04	284.36	28.30	-48.6	-50.6	16.9	0.00e+00	0	38	0	761266176	69	4371
2026-01-19 11:42:41.07	285.63	28.14	-48.4	-50.4	17.1	0.00e+00	0	38	0	768606208	67	4782
2026-01-19 11:42:45.10	286.89	27.95	-47.8	-49.5	17.9	0.00e+00	0	38	0	775946240	67	4339
2026-01-19 11:42:49.13	288.13	27.76	-47.9	-49.7	17.8	0.00e+00	0	38	0	783286272	67	4410
2026-01-19 11:42:53.16	289.36	27.55	-47.4	-49.0	18.5	0.00e+00	0	38	0	790626304	66	4318
2026-01-19 11:42:57.19	290.57	27.33	-48.2	-50.1	17.3	0.00e+00	0	38	0	799014912	67	4636
2026-01-19 11:43:01.22	291.76	27.10	-46.8	-48.4	19.1	0.00e+00	0	38	0	806354944	65	4244
2026-01-19 11:43:05.25	292.94	26.86	-46.9	-48.5	19.0	0.00e+00	0	38	0	813694976	65	4299
2026-01-19 11:43:09.28	294.09	26.61	-46.7	-48.2	19.3	0.00e+00	0	37	0	821035008	65	4157
2026-01-19 11:43:13.31	295.23	26.35	-46.3	-47.8	19.6	0.00e+00	0	37	0	828375040	64	4197
2026-01-19 11:43:17.35	296.36	26.08	-46.7	-48.2	19.3	0.00e+00	0	37	0	836763648	64	4399
2026-01-19 11:43:21.37	297.46	25.80	-46.7	-48.2	19.2	0.00e+00	0	38	0	844103680	64	4431
2026-01-19 11:43:25.41	298.54	25.51	-46.4	-47.8	19.6	0.00e+00	0	38	0	851443712	64	4200
2026-01-19 11:43:29.44	299.61	25.22	-46.2	-47.5	20.0	0.00e+00	0	38	0	858783744	63	4322
2026-01-19 11:43:33.47	300.65	24.92	-47.1	-48.7	18.8	0.00e+00	0	37	0	866123776	64	4676
2026-01-19 11:43:37.51	301.68	24.61	-46.0	-47.3	20.1	0.00e+00	0	38	0	874512384	63	4238
2026-01-19 11:43:41.54	302.68	24.30	-45.8	-47.1	20.3	0.00e+00	0	38	0	881852416	63	4124
2026-01-19 11:43:45.57	303.67	23.98	-45.6	-46.8	20.5	0.00e+00	0	37	0	889192448	62	4240
2026-01-19 11:43:49.60	304.64	23.66	-46.3	-47.6	19.8	0.00e+00	0	38	0	896532480	63	4386
2026-01-19 11:43:53.63	305.58	23.34	-45.5	-46.8	20.6	0.00e+00	0	38	0	903872512	62	4200
2026-01-19 11:43:57.67	306.51	23.01	-46.3	-47.7	19.7	0.00e+00	0	38	0	912261120	63	4439
2026-01-19 11:44:01.70	307.42	22.68	-45.9	-47.2	20.2	0.00e+00	0	38	0	919601152	63	4177
2026-01-19 11:44:05.73	308.31	22.34	-46.8	-48.4	19.1	0.00e+00	0	38	0	926941184	64	4494
2026-01-19 11:44:09.76	309.18	22.00	-46.0	-47.3	20.1	0.00e+00	0	37	0	934281216	63	4233
2026-01-19 11:44:13.79	310.04	21.66	-46.1	-47.4	20.0	0.00e+00	0	38	0	942669824	63	4291
2026-01-19 11:44:17.83	310.87	21.32	-46.5	-47.9	19.6	0.00e+00	0	37	0	950009856	63	4515
2026-01-19 11:44:21.86	311.69	20.98	-46.8	-48.3	19.1	0.00e+00	0	38	0	957349888	64	4472
2026-01-19 11:44:25.88	312.49	20.64	-46.6	-48.1	19.2	0.00e+00	0	38	0	964689920	65	4121
2026-01-19 11:44:29.91	313.27	20.29	-45.6	-46.9	20.4	0.00e+00	0	38	0	972029952	62	4268
2026-01-19 11:44:33.94	314.03	19.95	-47.2	-48.8	18.6	0.00e+00	0	37	0	980418560	64	4732
2026-01-19 11:44:37.97	314.78	19.61	-46.6	-48.1	19.2	0.00e+00	0	38	0	987758592	65	4105
2026-01-19 11:44:42.01	315.52	19.26	-46.7	-48.2	19.1	0.00e+00	0	38	0	995098624	64	4418
2026-01-19 11:44:46.04	316.23	18.92	-45.8	-47.1	20.2	0.00e+00	0	38	0	1002438656	63	4137
2026-01-19 11:44:50.07	316.93	18.58	-45.6	-46.8	20.4	0.00e+00	0	38	0	1009778688	63	4002
2026-01-19 11:44:54.10	317.62	18.23	-46.1	-47.5	19.8	0.00e+00	0	38	0	1018167296	63	4304
2026-01-19 11:44:58.13	318.29	17.89	-46.3	-47.7	19.6	0.00e+00	0	37	0	1025507328	63	4403
2026-01-19 11:45:02.16	318.95	17.55	-47.0	-48.7	18.5	0.00e+00	0	38	0	1032847360	64	4681
2026-01-19 11:45:06.19	319.59	17.21	-46.8	-48.4	18.8	0.00e+00	0	38	0	1040187392	65	4269
2026-01-19 11:45:10.22	320.22	16.88	-46.0	-47.4	19.8	0.00e+00	0	38	0	1047527424	63	4243
2026-01-19 11:45:14.26	320.83	16.54	-45.9	-47.2	19.9	0.00e+00	0	38	0	1055916032	63	4178
2026-01-19 11:45:18.29	321.44	16.21	-45.6	-46.8	20.3	0.00e+00	0	37	0	1063256064	62	4242
2026-01-19 11:45:22.32	322.03	15.87	-45.6	-46.9	20.2	0.00e+00	0	38	0	1070596096	62	4276
2026-01-19 11:45:26.35	322.60	15.54	-46.5	-47.9	19.3	0.00e+00	0	38	0	1077936128	63	4543
2026-01-19 11:45:30.38	323.17	15.21	-46.6	-48.2	18.9	0.00e+00	0	37	0	1086324736	64	4411
2026-01-19 11:45:34.41	323.72	14.89	-46.5	-48.0	19.0	0.00e+00	0	37	0	1093664768	64	4307
2026-01-19 11:45:38.45	324.26	14.56	-46.2	-47.6	19.4	0.00e+00	0	37	0	1101004800	64	4132
2026-01-19 11:45:42.48	324.79	14.24	-46.3	-47.8	19.3	0.00e+00	0	38	0	1108344832	63	4460
2026-01-19 11:45:46.51	325.31	13.92	-46.1	-47.6	19.5	0.00e+00	0	38	0	1115684864	63	4355
2026-01-19 11:45:50.54	325.82	13.60	-46.0	-47.4	19.7	0.00e+00	0	37	0	1124073472	63	4257
2026-01-19 11:45:54.57	326.32	13.28	-46.1	-47.5	19.5	0.00e+00	0	38	0	1131413504	63	4312
2026-01-19 11:45:58.61	326.81	12.97	-46.5	-48.1	18.9	0.00e+00	0	37	0	1138753536	63	4612
2026-01-19 11:46:02.64	327.28	12.66	-46.6	-48.2	18.7	0.00e+00	0	37	0	1146093568	64	4437
2026-01-19 11:46:06.67	327.75	12.35	-46.8	-48.4	18.5	0.00e+00	0	37	0	1153433600	64	4532
2026-01-19 11:46:10.71	328.21	12.04	-46.9	-48.6	18.3	0.00e+00	0	38	0	1161822208	64	4627
2026-01-19 11:46:14.73	328.66	11.73	-47.2	-49.0	17.9	0.00e+00	0	38	0	1169162240	65	4557
2026-01-19 11:46:18.76	329.10	11.43	-47.0	-48.8	18.1	0.00e+00	0	38	0	1176502272	65	4459
2026-01-19 11:46:22.80	329.54	11.13	-46.8	-48.4	18.4	0.00e+00	0	37	0	1183842304	65	4282
2026-01-19 11:46:26.83	329.96	10.83	-46.5	-48.1	18.7	0.00e+00	0	38	0	1191182336	64	4363
2026-01-19 11:46:30.86	330.38	10.54	-47.2	-49.1	17.8	0.00e+00	0	37	0	1199570944	65	4619
2026-01-19 11:46:34.90	330.79	10.24	-47.7	-49.7	17.2	0.00e+00	0	38	0	1206910976	66	4663
2026-01-19 11:46:38.93	331.19	9.95	-47.9	-50.0	16.8	0.00e+00	0	38	0	1214251008	66	4870
2026-01-19 11:46:42.96	331.58	9.66	-47.3	-49.2	17.6	0.00e+00	0	38	0	1221591040	66	4403
2026-01-19 11:46:46.99	331.97	9.37	-47.4	-49.3	17.5	0.00e+00	0	38	0	1229979648	66	4460
2026-01-19 11:46:51.03	332.35	9.09	-47.5	-49.5	17.2	0.00e+00	0	37	0	1237319680	66	4565
2026-01-19 11:46:55.06	332.72	8.81	-48.4	-50.8	16.0	0.00e+00	0	37	0	1244659712	67	5012
2026-01-19 11:46:59.09	333.08	8.53	-48.3	-50.7	16.0	0.00e+00	0	38	0	1251999744	67	4968
2026-01-19 11:47:03.12	333.44	8.25	-48.2	-50.5	16.2	0.00e+00	0	38	0	1259339776	67	4840
2026-01-19 11:47:07.15	333.79	7.97	-47.9	-50.1	16.5	0.00e+00	0	38	0	1266679808	67	4631
2026-01-19 11:47:11.19	334.14	7.70	-47.6	-49.7	16.9	0.00e+00	0	37	0	1275068416	66	4652
2026-01-19 11:47:15.22	334.48	7.43	-47.1	-48.9	17.6	0.00e+00	0	38	0	1282408448	66	4287
2026-01-19 11:47:19.25	334.81	7.16	-47.2	-49.1	17.4	0.00e+00	0	38	0	1289748480	66	4367
2026-01-19 11:47:23.28	335.14	6.89	-47.2	-49.2	17.3	0.00e+00	0	37	0	1297088512	66	4402
2026-01-19 11:47:27.31	335.46	6.63	-47.3	-49.3	17.2	0.00e+00	0	37	0	1305477120	66	4456
2026-01-19 11:47:31.35	335.78	6.36	-47.3	-49.3	17.1	0.00e+00	0	38	0	1312817152	66	4471
2026-01-19 11:47:35.38	336.09	6.10	-47.5	-49.5	16.9	0.00e+00	0	38	0	1320157184	66	4590
2026-01-19 11:47:39.41	336.40	5.84	-47.5	-49.6	16.8	0.00e+00	0	38	0	1327497216	66	4618
2026-01-19 11:47:43.44	336.70	5.58	-47.9	-50.2	16.2	0.00e+00	0	38	0	1334837248	66	4927
2026-01-19 11:47:47.47	337.00	5.33	-48.0	-50.4	15.8	0.00e+00	0	38	0	1343225856	66	5060
2026-01-19 11:47:51.50	337.29	5.07	-48.4	-51.0	15.3	0.00e+00	0	37	0	1350565888	67	5137
2026-01-19 11:47:55.53	337.58	4.82	-53.4	-68.4	3.8	1.49e+00	0	37	104	1352663040	77	21319
2026-01-19 11:47:59.57	337.86	4.57	-53.8	-68.8	3.8	1.49e+00	0	37	104	1352663040	78	21182
2026-01-19 11:48:03.60	338.14	4.32	-54.1	-69.1	3.8	1.49e+00	0	38	104	1352663040	78	21869
2026-01-19 11:48:07.63	338.42	4.08	-54.2	-69.2	3.8	1.49e+00	0	38	104	1352663040	78	22196
2026-01-19 11:48:11.66	338.69	3.83	-54.3	-69.3	3.8	1.49e+00	0	38	104	1352663040	79	21071
2026-01-19 11:48:15.69	338.95	3.59	-54.2	-69.2	3.8	1.49e+00	0	38	104	1352663040	79	20884
2026-01-19 11:48:19.72	339.21	3.35	-54.1	-69.1	3.8	1.49e+00	0	38	104	1352663040	79	20763
2026-01-19 11:48:23.76	339.47	3.11	-54.1	-69.1	3.8	1.49e+00	0	38	104	1352663040	79	20684
2026-01-19 11:48:27.79	339.73	2.87	-54.1	-69.1	3.8	1.49e+00	0	38	104	1352663040	79	20620
2026-01-19 11:48:31.82	339.98	2.63	-54.1	-69.1	3.8	1.49e+00	0	38	104	1352663040	79	20601
2026-01-19 11:48:35.85	340.22	2.40	-54.1	-69.1	3.8	1.49e+00	0	38	104	1352663040	79	20622
2026-01-19 11:48:39.89	340.47	2.17	-54.1	-69.1	3.8	1.49e+00	0	38	104	1352663040	79	20610

#Closed at: 2026-01-19 11:48:42
#Recorded file [1352 MB]: D:/lorett/data/31041_260119_143513.dat