passes_logs/2026/01/19/R3.2S_Murmansk/R3.2S_Murmansk__20260119_051625_NOAA_20_JPSS-1_rec.log

#Pass ID: 20260119_051625_NOAA 20 (JPSS-1)
#Satellite: NOAA 20 (JPSS-1)
#Configuration: NOAA 20
#almurnet v.1.7.20251203
#Start time: 2026-01-19 05:16:26

#Version: 2.2.20231116
#Station: R3.2S_Murmansk
#Location: 33.079688 lon 68.888172 lat
#TLE: 1 43013U 17073A   26018.57232797  .00000065  00000+0  51758-4 0  9998
#TLE: 2 43013  98.7640 319.4740 0001368  34.2083 325.9181 14.19536753423241

#Time	Az	El	Level	Level2	SNR	BER	BlckErr	Temp	State	Recorded	gain1	gain2
2026-01-19 05:16:26.39	63.71	2.08	-52.0	-67.0	3.8	1.49e+00	0	35	0	0	76	19187
2026-01-19 05:16:29.41	63.51	2.25	-52.0	-66.9	3.8	1.49e+00	0	35	104	0	74	21388
2026-01-19 05:16:32.43	63.32	2.42	-52.0	-66.9	3.8	1.49e+00	0	35	104	0	74	21369
2026-01-19 05:16:35.46	63.12	2.60	-52.0	-66.9	3.8	1.49e+00	0	35	104	0	74	21434
2026-01-19 05:16:38.48	62.91	2.77	-52.0	-66.9	3.8	1.49e+00	0	35	104	0	74	21478
2026-01-19 05:16:41.50	62.71	2.95	-52.0	-66.9	3.8	1.49e+00	0	35	104	0	74	21405
2026-01-19 05:16:44.52	62.50	3.12	-52.0	-66.9	3.8	1.49e+00	0	35	104	0	74	21418
2026-01-19 05:16:47.55	62.29	3.30	-52.0	-66.9	3.8	1.49e+00	0	35	104	0	74	21401
2026-01-19 05:16:50.57	62.08	3.47	-52.0	-66.8	3.8	1.49e+00	0	36	104	0	74	21180
2026-01-19 05:16:53.60	61.86	3.65	-52.0	-66.8	3.8	1.49e+00	0	35	104	0	74	21069
2026-01-19 05:16:56.63	61.65	3.83	-52.0	-66.9	3.8	1.49e+00	0	36	104	0	74	21420
2026-01-19 05:16:59.65	61.43	4.01	-51.9	-66.6	3.8	1.49e+00	0	36	104	0	74	20595
2026-01-19 05:17:02.67	61.20	4.19	-51.8	-64.7	3.8	1.49e+00	0	36	104	0	74	16531
2026-01-19 05:17:05.69	60.98	4.37	-51.7	-62.6	4.4	1.33e+00	93	36	0	0	74	12997
2026-01-19 05:17:08.72	60.75	4.55	-51.5	-60.7	5.4	6.00e-01	0	36	0	6291456	74	10520
2026-01-19 05:17:11.74	60.51	4.73	-51.5	-60.6	5.5	4.48e-01	0	36	0	11534336	74	10365
2026-01-19 05:17:14.76	60.28	4.92	-51.6	-61.3	5.1	6.27e-01	0	36	0	16777216	74	11173
2026-01-19 05:17:17.79	60.04	5.10	-52.5	-66.0	3.8	1.29e-01	30	36	0	23068672	75	18236
2026-01-19 05:17:20.81	59.80	5.29	-50.9	-56.5	9.2	7.87e-01	0	36	104	24117248	73	6817
2026-01-19 05:17:23.83	59.55	5.47	-50.5	-55.3	10.7	3.32e-03	0	36	0	28311552	73	5989
2026-01-19 05:17:26.86	59.30	5.66	-49.8	-53.5	12.8	2.17e-04	0	36	0	33554432	71	5423
2026-01-19 05:17:29.88	59.05	5.85	-49.5	-53.0	13.4	9.10e-06	0	36	0	39845888	70	5421
2026-01-19 05:17:32.91	58.80	6.03	-49.0	-52.0	14.5	3.80e-06	0	36	0	45088768	70	4836
2026-01-19 05:17:35.93	58.54	6.22	-49.0	-51.9	14.6	7.00e-07	0	36	0	51380224	69	5079
2026-01-19 05:17:38.96	58.27	6.41	-48.9	-51.7	14.8	0.00e+00	0	36	0	56623104	69	4965
2026-01-19 05:17:41.98	58.01	6.60	-49.0	-51.9	14.7	0.00e+00	0	36	0	61865984	69	5070
2026-01-19 05:17:45.01	57.74	6.79	-48.9	-51.7	14.8	7.00e-07	0	36	0	68157440	69	4982
2026-01-19 05:17:48.03	57.47	6.99	-48.9	-51.7	14.9	0.00e+00	0	36	0	73400320	69	4939
2026-01-19 05:17:51.06	57.19	7.18	-49.0	-51.8	14.8	0.00e+00	0	36	0	79691776	69	5000
2026-01-19 05:17:54.08	56.91	7.37	-49.0	-51.8	14.9	0.00e+00	0	36	0	84934656	69	5004
2026-01-19 05:17:57.10	56.63	7.57	-48.9	-51.6	15.1	0.00e+00	0	36	0	91226112	69	4894
2026-01-19 05:18:00.12	56.34	7.76	-48.7	-51.3	15.4	0.00e+00	0	36	0	96468992	69	4733
2026-01-19 05:18:03.15	56.04	7.96	-48.8	-51.5	15.3	0.00e+00	0	36	0	101711872	69	4817
2026-01-19 05:18:06.17	55.75	8.15	-48.6	-51.1	15.7	0.00e+00	0	36	0	108003328	69	4614
2026-01-19 05:18:09.19	55.45	8.35	-48.4	-50.8	16.0	0.00e+00	0	36	0	113246208	68	4720
2026-01-19 05:18:12.22	55.14	8.55	-48.5	-50.9	15.9	0.00e+00	0	36	0	119537664	68	4784
2026-01-19 05:18:15.24	54.83	8.75	-48.3	-50.6	16.2	0.00e+00	0	36	0	124780544	68	4639
2026-01-19 05:18:18.26	54.52	8.95	-48.4	-50.8	16.0	0.00e+00	0	36	0	130023424	68	4736
2026-01-19 05:18:21.29	54.20	9.15	-48.4	-50.8	16.0	0.00e+00	0	36	0	136314880	68	4726
2026-01-19 05:18:24.31	53.88	9.35	-48.5	-50.9	16.0	0.00e+00	0	36	0	141557760	68	4778
2026-01-19 05:18:27.33	53.55	9.55	-48.5	-50.9	16.0	0.00e+00	0	36	0	147849216	68	4789
2026-01-19 05:18:30.36	53.22	9.76	-48.6	-51.0	15.8	0.00e+00	0	36	0	153092096	68	4863
2026-01-19 05:18:33.38	52.88	9.96	-48.6	-51.0	15.9	0.00e+00	0	36	0	158334976	68	4850
2026-01-19 05:18:36.40	52.54	10.16	-48.5	-50.9	16.0	0.00e+00	0	36	0	164626432	68	4804
2026-01-19 05:18:39.43	52.19	10.37	-48.5	-50.8	16.1	0.00e+00	0	37	0	169869312	68	4755
2026-01-19 05:18:42.45	51.84	10.57	-48.4	-50.7	16.2	0.00e+00	0	36	0	176160768	68	4701
2026-01-19 05:18:45.47	51.49	10.78	-48.3	-50.6	16.4	0.00e+00	0	36	0	181403648	68	4605
2026-01-19 05:18:48.50	51.12	10.99	-48.4	-50.6	16.4	0.00e+00	0	36	0	187695104	68	4645
2026-01-19 05:18:51.52	50.76	11.19	-48.2	-50.4	16.6	0.00e+00	0	37	0	192937984	68	4506
2026-01-19 05:18:54.54	50.39	11.40	-48.2	-50.4	16.7	0.00e+00	0	36	0	198180864	68	4522
2026-01-19 05:18:57.57	50.01	11.61	-48.1	-50.2	16.8	0.00e+00	0	36	0	204472320	68	4414
2026-01-19 05:19:00.59	49.62	11.82	-47.9	-50.0	17.0	0.00e+00	0	36	0	209715200	67	4569
2026-01-19 05:19:03.62	49.23	12.03	-47.8	-49.9	17.1	0.00e+00	0	36	0	216006656	67	4495
2026-01-19 05:19:06.64	48.84	12.24	-47.9	-49.9	17.1	0.00e+00	0	37	0	221249536	67	4523
2026-01-19 05:19:09.66	48.44	12.45	-47.9	-49.9	17.1	0.00e+00	0	36	0	226492416	67	4511
2026-01-19 05:19:12.69	48.03	12.66	-47.6	-49.5	17.5	0.00e+00	0	37	0	232783872	67	4336
2026-01-19 05:19:15.71	47.62	12.87	-47.6	-49.4	17.6	0.00e+00	0	36	0	238026752	67	4290
2026-01-19 05:19:18.73	47.20	13.08	-47.4	-49.2	17.8	0.00e+00	0	37	0	244318208	66	4441
2026-01-19 05:19:21.76	46.78	13.29	-47.3	-49.1	17.9	0.00e+00	0	36	0	249561088	66	4364
2026-01-19 05:19:24.78	46.35	13.51	-47.4	-49.2	17.8	0.00e+00	0	36	0	254803968	66	4419
2026-01-19 05:19:27.80	45.91	13.72	-47.3	-49.1	17.9	0.00e+00	0	36	0	261095424	66	4371
2026-01-19 05:19:30.83	45.46	13.93	-47.5	-49.3	17.8	0.00e+00	0	37	0	266338304	66	4475
2026-01-19 05:19:33.85	45.01	14.14	-47.6	-49.5	17.6	0.00e+00	0	36	0	272629760	66	4594
2026-01-19 05:19:36.87	44.56	14.36	-47.6	-49.5	17.5	0.00e+00	0	37	0	277872640	66	4598
2026-01-19 05:19:39.90	44.09	14.57	-47.6	-49.5	17.6	0.00e+00	0	37	0	283115520	66	4592
2026-01-19 05:19:42.92	43.62	14.78	-47.7	-49.7	17.4	0.00e+00	0	36	0	289406976	66	4658
2026-01-19 05:19:45.94	43.15	14.99	-47.8	-49.8	17.3	0.00e+00	0	37	0	294649856	66	4748
2026-01-19 05:19:48.97	42.66	15.20	-48.0	-50.0	17.1	0.00e+00	0	37	0	300941312	66	4845
2026-01-19 05:19:51.99	42.17	15.42	-48.0	-50.1	17.0	0.00e+00	0	36	0	306184192	66	4887
2026-01-19 05:19:55.01	41.67	15.63	-48.0	-50.1	17.0	0.00e+00	0	37	0	311427072	66	4888
2026-01-19 05:19:58.04	41.17	15.84	-47.9	-49.9	17.3	0.00e+00	0	37	0	317718528	66	4769
2026-01-19 05:20:01.06	40.65	16.05	-48.0	-50.0	17.2	0.00e+00	0	36	0	322961408	66	4834
2026-01-19 05:20:04.09	40.13	16.26	-48.1	-50.2	17.0	0.00e+00	0	36	0	329252864	66	4935
2026-01-19 05:20:07.11	39.61	16.47	-48.1	-50.1	17.1	0.00e+00	0	37	0	334495744	66	4891
2026-01-19 05:20:10.14	39.07	16.68	-48.1	-50.2	17.0	0.00e+00	0	37	0	339738624	66	4971
2026-01-19 05:20:13.16	38.53	16.88	-48.0	-50.1	17.1	0.00e+00	0	36	0	346030080	66	4884
2026-01-19 05:20:16.18	37.98	17.09	-48.1	-50.2	17.0	0.00e+00	0	36	0	351272960	66	4950
2026-01-19 05:20:19.21	37.42	17.30	-47.8	-49.8	17.4	0.00e+00	0	37	0	357564416	66	4732
2026-01-19 05:20:22.23	36.85	17.50	-47.7	-49.5	17.6	0.00e+00	0	37	0	362807296	66	4598
2026-01-19 05:20:25.25	36.28	17.70	-47.5	-49.3	17.9	0.00e+00	0	36	0	368050176	66	4448
2026-01-19 05:20:28.28	35.70	17.91	-47.1	-48.8	18.4	0.00e+00	0	37	0	374341632	66	4229
2026-01-19 05:20:31.30	35.11	18.11	-46.8	-48.4	18.8	0.00e+00	0	36	0	379584512	65	4276
2026-01-19 05:20:34.32	34.51	18.31	-46.3	-47.8	19.4	0.00e+00	0	37	0	385875968	64	4215
2026-01-19 05:20:37.35	33.91	18.50	-46.2	-47.6	19.5	0.00e+00	0	37	0	391118848	64	4142
2026-01-19 05:20:40.37	33.29	18.70	-46.2	-47.6	19.5	0.00e+00	0	37	0	396361728	64	4143
2026-01-19 05:20:43.39	32.67	18.89	-46.0	-47.5	19.8	0.00e+00	0	36	0	402653184	63	4298
2026-01-19 05:20:46.41	32.05	19.08	-45.9	-47.3	20.0	0.00e+00	0	37	0	407896064	63	4223
2026-01-19 05:20:49.43	31.41	19.27	-46.0	-47.3	19.9	0.00e+00	0	37	0	414187520	63	4234
2026-01-19 05:20:52.45	30.77	19.46	-45.9	-47.2	20.0	0.00e+00	0	37	0	419430400	63	4191
2026-01-19 05:20:55.47	30.11	19.64	-45.7	-47.1	20.2	0.00e+00	0	37	0	424673280	63	4104
2026-01-19 05:20:58.50	29.45	19.82	-45.8	-47.1	20.2	0.00e+00	0	37	0	430964736	63	4132
2026-01-19 05:21:01.52	28.78	20.00	-45.7	-47.1	20.2	0.00e+00	0	37	0	436207616	63	4102
2026-01-19 05:21:04.54	28.11	20.18	-45.7	-47.1	20.2	0.00e+00	0	37	0	442499072	63	4105
2026-01-19 05:21:07.57	27.42	20.35	-45.9	-47.3	20.0	0.00e+00	0	37	0	447741952	63	4194
2026-01-19 05:21:10.59	26.73	20.52	-45.9	-47.3	20.0	0.00e+00	0	37	0	454033408	63	4205
2026-01-19 05:21:13.61	26.03	20.69	-46.1	-47.5	19.9	0.00e+00	0	36	0	459276288	63	4297
2026-01-19 05:21:16.63	25.32	20.85	-45.9	-47.2	20.1	0.00e+00	0	36	0	464519168	63	4164
2026-01-19 05:21:19.66	24.61	21.01	-45.7	-47.0	20.3	0.00e+00	0	36	0	470810624	63	4091
2026-01-19 05:21:22.68	23.89	21.17	-45.5	-46.8	20.5	0.00e+00	0	36	0	476053504	63	3989
2026-01-19 05:21:25.70	23.16	21.32	-45.2	-46.4	20.9	0.00e+00	0	36	0	482344960	62	4021
2026-01-19 05:21:28.73	22.42	21.46	-45.2	-46.5	20.8	0.00e+00	0	37	0	487587840	62	4053
2026-01-19 05:21:31.75	21.68	21.61	-45.3	-46.6	20.7	0.00e+00	0	36	0	492830720	62	4124
2026-01-19 05:21:34.78	20.92	21.75	-45.1	-46.3	21.0	0.00e+00	0	37	0	499122176	62	3994
2026-01-19 05:21:37.80	20.17	21.88	-45.4	-46.7	20.6	0.00e+00	0	37	0	504365056	62	4160
2026-01-19 05:21:40.82	19.40	22.01	-45.1	-46.3	21.0	0.00e+00	0	36	0	510656512	62	3992
2026-01-19 05:21:43.84	18.63	22.13	-45.4	-46.6	20.7	0.00e+00	0	36	0	515899392	62	4126
2026-01-19 05:21:46.87	17.86	22.25	-45.6	-46.9	20.4	0.00e+00	0	37	0	521142272	62	4264
2026-01-19 05:21:49.89	17.08	22.37	-45.6	-46.8	20.5	0.00e+00	0	36	0	527433728	62	4229
2026-01-19 05:21:52.92	16.29	22.48	-45.7	-47.0	20.4	0.00e+00	0	36	0	532676608	62	4306
2026-01-19 05:21:55.94	15.49	22.58	-46.1	-47.5	19.9	0.00e+00	0	37	0	538968064	62	4550
2026-01-19 05:21:58.96	14.70	22.68	-46.4	-47.8	19.5	0.00e+00	0	37	0	544210944	63	4487
2026-01-19 05:22:01.98	13.89	22.77	-46.4	-47.8	19.6	0.00e+00	0	37	0	549453824	63	4480
2026-01-19 05:22:05.01	13.08	22.86	-46.6	-48.2	19.2	0.00e+00	0	37	0	555745280	64	4399
2026-01-19 05:22:08.03	12.27	22.94	-46.8	-48.3	19.0	0.00e+00	0	37	0	560988160	64	4464
2026-01-19 05:22:11.05	11.46	23.01	-46.8	-48.4	18.9	0.00e+00	0	37	0	567279616	64	4523
2026-01-19 05:22:14.08	10.63	23.08	-47.2	-48.9	18.4	0.00e+00	0	36	0	572522496	64	4803
2026-01-19 05:22:17.10	9.81	23.15	-47.4	-49.1	18.2	0.00e+00	0	36	0	578813952	65	4646
2026-01-19 05:22:20.12	8.98	23.20	-47.1	-48.8	18.6	0.00e+00	0	37	0	584056832	65	4446
2026-01-19 05:22:23.15	8.15	23.25	-47.2	-48.9	18.4	0.00e+00	0	37	0	589299712	65	4517
2026-01-19 05:22:26.17	7.32	23.29	-47.0	-48.6	18.8	0.00e+00	0	37	0	595591168	65	4348
2026-01-19 05:22:29.19	6.49	23.33	-47.2	-48.9	18.5	0.00e+00	0	37	0	600834048	65	4511
2026-01-19 05:22:32.22	5.65	23.36	-47.1	-48.7	18.6	0.00e+00	0	36	0	607125504	65	4410
2026-01-19 05:22:35.24	4.81	23.39	-47.0	-48.7	18.6	0.00e+00	0	37	0	612368384	65	4405
2026-01-19 05:22:38.26	3.98	23.40	-47.1	-48.8	18.5	0.00e+00	0	37	0	617611264	65	4470
2026-01-19 05:22:41.29	3.13	23.41	-46.8	-48.4	18.9	0.00e+00	0	36	0	623902720	65	4287
2026-01-19 05:22:44.31	2.29	23.42	-46.8	-48.4	18.9	0.00e+00	0	36	0	629145600	65	4269
2026-01-19 05:22:47.34	1.45	23.41	-46.7	-48.2	19.1	0.00e+00	0	37	0	635437056	65	4165
2026-01-19 05:22:50.36	0.61	23.40	-46.3	-47.7	19.6	0.00e+00	0	37	0	640679936	64	4180
2026-01-19 05:22:53.38	359.78	23.39	-46.2	-47.6	19.7	0.00e+00	0	37	0	645922816	64	4128
2026-01-19 05:22:56.41	358.94	23.37	-46.0	-47.3	20.0	0.00e+00	0	37	0	652214272	63	4241
2026-01-19 05:22:59.43	358.10	23.34	-45.9	-47.2	20.2	0.00e+00	0	37	0	657457152	63	4168
2026-01-19 05:23:02.44	357.27	23.30	-45.6	-46.9	20.5	0.00e+00	0	37	0	663748608	63	4010
2026-01-19 05:23:05.46	356.44	23.26	-45.2	-46.4	21.0	0.00e+00	0	37	0	668991488	62	4025
2026-01-19 05:23:08.49	355.61	23.21	-45.0	-46.2	21.1	0.00e+00	0	37	0	674234368	61	4185
2026-01-19 05:23:11.51	354.78	23.16	-45.0	-46.2	21.2	0.00e+00	0	36	0	680525824	61	4146
2026-01-19 05:23:14.54	353.95	23.09	-44.9	-46.1	21.2	0.00e+00	0	37	0	685768704	61	4109
2026-01-19 05:23:17.56	353.13	23.03	-44.7	-45.9	21.4	0.00e+00	0	37	0	692060160	61	4020
2026-01-19 05:23:20.58	352.32	22.95	-44.8	-45.9	21.4	0.00e+00	0	37	0	697303040	61	4040
2026-01-19 05:23:23.60	351.51	22.87	-45.0	-46.1	21.1	0.00e+00	0	37	0	702545920	61	4140
2026-01-19 05:23:26.63	350.69	22.79	-44.9	-46.1	21.1	0.00e+00	0	37	0	708837376	61	4138
2026-01-19 05:23:29.65	349.89	22.70	-45.1	-46.3	20.9	0.00e+00	0	36	0	714080256	61	4241
2026-01-19 05:23:32.68	349.09	22.60	-45.4	-46.6	20.7	0.00e+00	0	37	0	720371712	61	4373
2026-01-19 05:23:35.70	348.30	22.50	-45.6	-46.9	20.5	0.00e+00	0	36	0	725614592	61	4498
2026-01-19 05:23:38.72	347.51	22.39	-45.9	-47.3	20.1	0.00e+00	0	37	0	730857472	62	4446
2026-01-19 05:23:41.75	346.73	22.27	-46.0	-47.4	20.0	0.00e+00	0	37	0	737148928	62	4527
2026-01-19 05:23:44.77	345.95	22.16	-46.1	-47.5	19.8	0.00e+00	0	37	0	742391808	62	4597
2026-01-19 05:23:47.79	345.18	22.03	-46.4	-47.9	19.5	0.00e+00	0	37	0	748683264	63	4495
2026-01-19 05:23:50.82	344.41	21.90	-46.6	-48.1	19.3	0.00e+00	0	37	0	753926144	63	4616
2026-01-19 05:23:53.84	343.66	21.77	-46.5	-48.0	19.4	0.00e+00	0	37	0	759169024	63	4559
2026-01-19 05:23:56.86	342.90	21.63	-46.7	-48.2	19.1	0.00e+00	0	37	0	765460480	63	4705
2026-01-19 05:23:59.89	342.16	21.49	-46.8	-48.3	19.0	0.00e+00	0	37	0	770703360	64	4482
2026-01-19 05:24:02.91	341.42	21.34	-46.8	-48.4	18.9	0.00e+00	0	36	0	776994816	64	4509
2026-01-19 05:24:05.93	340.69	21.19	-47.0	-48.6	18.7	0.00e+00	0	36	0	782237696	64	4616
2026-01-19 05:24:08.96	339.97	21.04	-46.6	-48.2	19.1	0.00e+00	0	37	0	787480576	64	4408
2026-01-19 05:24:11.98	339.25	20.88	-46.9	-48.5	18.7	0.00e+00	0	37	0	793772032	64	4578
2026-01-19 05:24:15.01	338.54	20.72	-46.9	-48.5	18.7	0.00e+00	0	37	0	799014912	64	4597
2026-01-19 05:24:18.03	337.84	20.55	-46.8	-48.3	18.9	0.00e+00	0	37	0	805306368	64	4493
2026-01-19 05:24:21.06	337.15	20.38	-46.6	-48.2	19.1	0.00e+00	0	37	0	810549248	64	4411
2026-01-19 05:24:24.09	336.46	20.21	-46.8	-48.4	18.9	0.00e+00	0	37	0	816840704	64	4496
2026-01-19 05:24:27.11	335.78	20.03	-46.6	-48.2	19.0	0.00e+00	0	37	0	822083584	64	4414
2026-01-19 05:24:30.13	335.11	19.86	-46.5	-48.0	19.2	0.00e+00	0	37	0	827326464	64	4317
2026-01-19 05:24:33.15	334.45	19.67	-46.3	-47.8	19.4	0.00e+00	0	37	0	833617920	64	4222
2026-01-19 05:24:36.18	333.80	19.49	-46.3	-47.8	19.4	0.00e+00	0	37	0	838860800	64	4220
2026-01-19 05:24:39.20	333.15	19.30	-46.4	-47.9	19.3	0.00e+00	0	37	0	845152256	64	4276
2026-01-19 05:24:42.22	332.52	19.12	-46.4	-47.9	19.3	0.00e+00	0	37	0	850395136	64	4255
2026-01-19 05:24:45.25	331.88	18.92	-46.5	-48.0	19.2	0.00e+00	0	37	0	855638016	64	4318
2026-01-19 05:24:48.27	331.26	18.73	-46.4	-48.0	19.2	0.00e+00	0	37	0	861929472	64	4295
2026-01-19 05:24:51.29	330.65	18.54	-46.5	-48.1	19.1	0.00e+00	0	37	0	867172352	64	4360
2026-01-19 05:24:54.32	330.04	18.34	-46.5	-48.0	19.2	0.00e+00	0	36	0	873463808	64	4328
2026-01-19 05:24:57.34	329.44	18.14	-46.6	-48.1	19.1	0.00e+00	0	36	0	878706688	64	4385
2026-01-19 05:25:00.35	328.86	17.94	-46.6	-48.2	19.0	0.00e+00	0	37	0	883949568	64	4425
2026-01-19 05:25:03.38	328.27	17.74	-46.6	-48.1	19.1	0.00e+00	0	37	0	890241024	64	4383
2026-01-19 05:25:06.40	327.70	17.54	-46.6	-48.1	19.0	0.00e+00	0	37	0	895483904	64	4382
2026-01-19 05:25:09.42	327.13	17.33	-46.6	-48.2	19.0	0.00e+00	0	37	0	901775360	64	4408
2026-01-19 05:25:12.44	326.57	17.13	-46.5	-48.1	19.1	0.00e+00	0	37	0	907018240	64	4358
2026-01-19 05:25:15.47	326.02	16.92	-46.5	-48.0	19.1	0.00e+00	0	37	0	912261120	64	4316
2026-01-19 05:25:18.49	325.48	16.71	-46.3	-47.8	19.3	0.00e+00	0	37	0	918552576	64	4230
2026-01-19 05:25:21.52	324.94	16.51	-46.1	-47.5	19.6	0.00e+00	0	37	0	923795456	64	4098
2026-01-19 05:25:24.54	324.41	16.30	-46.0	-47.4	19.7	0.00e+00	0	37	0	930086912	63	4289
2026-01-19 05:25:27.57	323.89	16.09	-46.3	-47.8	19.4	0.00e+00	0	37	0	935329792	63	4477
2026-01-19 05:25:30.59	323.38	15.88	-46.3	-47.8	19.4	0.00e+00	0	37	0	941621248	63	4464
2026-01-19 05:25:33.61	322.87	15.67	-46.1	-47.5	19.7	0.00e+00	0	37	0	946864128	63	4323
2026-01-19 05:25:36.64	322.37	15.45	-45.8	-47.2	19.9	0.00e+00	0	36	0	952107008	63	4183
2026-01-19 05:25:39.66	321.88	15.24	-45.7	-47.1	20.1	0.00e+00	0	37	0	958398464	63	4107
2026-01-19 05:25:42.68	321.40	15.03	-45.9	-47.3	19.9	0.00e+00	0	36	0	963641344	63	4213
2026-01-19 05:25:45.70	320.92	14.82	-45.8	-47.2	19.9	0.00e+00	0	36	0	969932800	63	4181
2026-01-19 05:25:48.73	320.45	14.61	-45.7	-47.1	20.0	0.00e+00	0	37	0	975175680	63	4125
2026-01-19 05:25:51.75	319.98	14.39	-45.7	-47.1	20.0	0.00e+00	0	37	0	980418560	63	4132
2026-01-19 05:25:54.78	319.52	14.18	-45.9	-47.3	19.8	0.00e+00	0	37	0	986710016	63	4241
2026-01-19 05:25:57.80	319.07	13.97	-45.8	-47.2	19.9	0.00e+00	0	37	0	991952896	63	4165
2026-01-19 05:26:00.82	318.63	13.76	-46.0	-47.4	19.7	0.00e+00	0	37	0	998244352	63	4279
2026-01-19 05:26:03.85	318.19	13.55	-46.2	-47.6	19.5	0.00e+00	0	37	0	1003487232	63	4379
2026-01-19 05:26:06.87	317.76	13.33	-46.4	-47.9	19.1	0.00e+00	0	37	0	1008730112	63	4535
2026-01-19 05:26:09.90	317.33	13.12	-46.5	-48.1	19.0	0.00e+00	0	37	0	1015021568	63	4624
2026-01-19 05:26:12.92	316.91	12.91	-46.4	-47.9	19.1	0.00e+00	0	37	0	1020264448	63	4544
2026-01-19 05:26:15.94	316.50	12.70	-46.3	-47.9	19.2	0.00e+00	0	37	0	1026555904	63	4499
2026-01-19 05:26:18.97	316.09	12.49	-46.5	-48.0	19.0	0.00e+00	0	37	0	1031798784	63	4583
2026-01-19 05:26:21.99	315.69	12.28	-46.6	-48.2	18.8	0.00e+00	0	37	0	1037041664	63	4697
2026-01-19 05:26:25.01	315.30	12.07	-46.7	-48.3	18.6	0.00e+00	0	37	0	1043333120	64	4482
2026-01-19 05:26:28.04	314.91	11.86	-46.7	-48.4	18.5	0.00e+00	0	37	0	1048576000	64	4518
2026-01-19 05:26:31.06	314.52	11.65	-46.8	-48.5	18.4	0.00e+00	0	37	0	1054867456	64	4556
2026-01-19 05:26:34.08	314.14	11.44	-46.9	-48.6	18.3	0.00e+00	0	37	0	1060110336	64	4640
2026-01-19 05:26:37.10	313.77	11.23	-47.1	-48.8	18.1	0.00e+00	0	37	0	1065353216	64	4755
2026-01-19 05:26:40.13	313.40	11.03	-46.8	-48.5	18.4	0.00e+00	0	37	0	1071644672	64	4546
2026-01-19 05:26:43.15	313.04	10.82	-47.0	-48.7	18.1	0.00e+00	0	37	0	1076887552	64	4697
2026-01-19 05:26:46.18	312.68	10.61	-47.2	-49.0	17.8	0.00e+00	0	37	0	1083179008	64	4851
2026-01-19 05:26:49.20	312.33	10.41	-47.2	-49.1	17.7	0.00e+00	0	37	0	1088421888	65	4623
2026-01-19 05:26:52.22	311.98	10.20	-47.5	-49.4	17.4	0.00e+00	0	36	0	1093664768	65	4778
2026-01-19 05:26:55.25	311.64	10.00	-47.8	-49.9	16.9	0.00e+00	0	37	0	1099956224	66	4799
2026-01-19 05:26:58.27	311.30	9.80	-47.4	-49.3	17.5	0.00e+00	0	36	0	1105199104	66	4474
2026-01-19 05:27:01.29	310.97	9.59	-47.1	-48.9	17.9	0.00e+00	0	37	0	1111490560	66	4271
2026-01-19 05:27:04.32	310.64	9.39	-47.6	-49.5	17.3	0.00e+00	0	37	0	1116733440	66	4594
2026-01-19 05:27:07.34	310.32	9.19	-47.9	-50.0	16.8	0.00e+00	0	37	0	1121976320	66	4847
2026-01-19 05:27:10.36	310.00	8.99	-48.2	-50.5	16.3	0.00e+00	0	37	0	1128267776	66	5110
2026-01-19 05:27:13.39	309.69	8.79	-47.9	-50.1	16.7	0.00e+00	0	37	0	1133510656	67	4610
2026-01-19 05:27:16.41	309.38	8.59	-47.9	-50.0	16.7	0.00e+00	0	37	0	1139802112	67	4582
2026-01-19 05:27:19.43	309.07	8.39	-48.0	-50.2	16.5	0.00e+00	0	37	0	1145044992	67	4664
2026-01-19 05:27:22.46	308.77	8.19	-48.2	-50.5	16.2	0.00e+00	0	37	0	1150287872	67	4823
2026-01-19 05:27:25.48	308.48	8.00	-48.4	-50.8	15.9	0.00e+00	0	37	0	1156579328	67	5011
2026-01-19 05:27:28.50	308.18	7.80	-48.2	-50.6	16.1	0.00e+00	0	37	0	1161822208	67	4875
2026-01-19 05:27:31.53	307.89	7.61	-48.4	-50.8	15.8	0.00e+00	0	37	0	1168113664	67	5003
2026-01-19 05:27:34.55	307.61	7.41	-47.9	-50.0	16.6	0.00e+00	0	37	0	1173356544	67	4589
2026-01-19 05:27:37.58	307.33	7.22	-47.9	-50.1	16.5	0.00e+00	0	37	0	1178599424	67	4647
2026-01-19 05:27:40.60	307.05	7.03	-48.4	-50.8	15.8	0.00e+00	0	37	0	1184890880	68	4754
2026-01-19 05:27:43.62	306.78	6.83	-48.6	-51.1	15.5	0.00e+00	0	37	0	1190133760	68	4909
2026-01-19 05:27:46.64	306.51	6.64	-48.9	-51.6	15.0	0.00e+00	0	37	0	1196425216	68	5209
2026-01-19 05:27:49.67	306.24	6.45	-49.1	-52.0	14.6	0.00e+00	0	37	0	1201668096	68	5430
2026-01-19 05:27:52.69	305.98	6.26	-49.0	-51.9	14.7	0.00e+00	0	37	0	1207959552	68	5372
2026-01-19 05:27:55.71	305.72	6.07	-48.5	-51.1	15.4	0.00e+00	0	37	0	1213202432	68	4905
2026-01-19 05:27:58.74	305.46	5.89	-48.7	-51.4	15.1	7.00e-07	0	37	0	1218445312	69	4791
2026-01-19 05:28:01.76	305.21	5.70	-48.9	-51.8	14.7	0.00e+00	0	37	0	1224736768	69	5012
2026-01-19 05:28:04.78	304.96	5.51	-48.9	-51.8	14.7	7.00e-07	0	37	0	1229979648	69	5000
2026-01-19 05:28:07.80	304.72	5.33	-49.1	-52.1	14.3	0.00e+00	0	37	0	1236271104	69	5189
2026-01-19 05:28:10.83	304.48	5.14	-49.5	-52.9	13.5	1.50e-06	0	37	0	1241513984	69	5701
2026-01-19 05:28:13.86	304.24	4.96	-52.2	-62.8	4.8	2.20e-06	0	37	0	1246756864	74	13274
2026-01-19 05:28:16.88	304.00	4.78	-53.2	-68.2	3.8	1.49e+00	0	37	104	1246756864	76	22058
2026-01-19 05:28:19.91	303.77	4.59	-53.6	-68.6	3.8	1.49e+00	0	37	104	1246756864	77	21912
2026-01-19 05:28:22.93	303.54	4.41	-53.9	-68.9	3.8	1.49e+00	0	37	104	1246756864	78	21387
2026-01-19 05:28:25.96	303.31	4.23	-54.1	-69.1	3.8	1.49e+00	0	37	104	1246756864	78	21816
2026-01-19 05:28:28.98	303.09	4.05	-54.2	-69.2	3.8	1.49e+00	0	37	104	1246756864	78	22146
2026-01-19 05:28:32.00	302.87	3.87	-54.3	-69.3	3.8	1.49e+00	0	37	104	1246756864	79	21071
2026-01-19 05:28:35.02	302.65	3.69	-54.3	-69.3	3.8	1.49e+00	0	37	104	1246756864	79	21240
2026-01-19 05:28:38.05	302.43	3.51	-54.3	-69.3	3.8	1.49e+00	0	37	104	1246756864	79	21110
2026-01-19 05:28:41.07	302.22	3.34	-54.2	-69.2	3.8	1.49e+00	0	37	104	1246756864	79	20946
2026-01-19 05:28:44.09	302.01	3.16	-54.1	-69.1	3.8	1.49e+00	0	37	104	1246756864	79	20704
2026-01-19 05:28:47.12	301.80	2.99	-54.1	-69.1	3.8	1.49e+00	0	37	104	1246756864	79	20668
2026-01-19 05:28:50.14	301.60	2.81	-54.1	-69.1	3.8	1.49e+00	0	37	104	1246756864	79	20631
2026-01-19 05:28:53.16	301.39	2.64	-54.1	-69.1	3.8	1.49e+00	0	37	104	1246756864	79	20641
2026-01-19 05:28:56.19	301.19	2.46	-54.1	-69.1	3.8	1.49e+00	0	37	104	1246756864	79	20659
2026-01-19 05:28:59.21	301.00	2.29	-54.1	-69.1	3.8	1.49e+00	0	37	104	1246756864	79	20579
2026-01-19 05:29:02.24	300.80	2.12	-54.0	-69.1	3.8	1.49e+00	0	37	104	1246756864	79	20632

#Closed at: 2026-01-19 05:29:04
#Recorded file [1246 MB]: D:/lorett/data/31041_260119_081626.dat