passes_logs/2026/01/19/R3.2S_Murmansk/R3.2S_Murmansk__20260119_033710_NOAA_20_JPSS-1_rec.log

#Pass ID: 20260119_033710_NOAA 20 (JPSS-1)
#Satellite: NOAA 20 (JPSS-1)
#Configuration: NOAA 20
#almurnet v.1.7.20251203
#Start time: 2026-01-19 03:37:12

#Version: 2.2.20231116
#Station: R3.2S_Murmansk
#Location: 33.079688 lon 68.888172 lat
#TLE: 1 43013U 17073A   26018.57232797  .00000065  00000+0  51758-4 0  9998
#TLE: 2 43013  98.7640 319.4740 0001368  34.2083 325.9181 14.19536753423241

#Time	Az	El	Level	Level2	SNR	BER	BlckErr	Temp	State	Recorded	gain1	gain2
2026-01-19 03:37:12.70	43.04	2.12	-48.0	-62.8	3.8	1.49e+00	0	35	0	0	66	21233
2026-01-19 03:37:15.72	42.87	2.30	-48.0	-62.8	3.8	1.49e+00	0	35	104	0	66	21215
2026-01-19 03:37:18.74	42.70	2.48	-48.0	-62.8	3.8	1.49e+00	0	35	104	0	66	21180
2026-01-19 03:37:21.77	42.53	2.66	-48.0	-62.8	3.8	1.49e+00	0	35	104	0	66	21234
2026-01-19 03:37:24.79	42.35	2.84	-48.0	-62.8	3.8	1.49e+00	0	36	104	0	66	21179
2026-01-19 03:37:27.81	42.18	3.02	-47.9	-62.8	3.8	1.49e+00	0	36	104	0	66	21226
2026-01-19 03:37:30.84	42.00	3.20	-47.9	-62.8	3.8	1.49e+00	0	36	104	0	66	21219
2026-01-19 03:37:33.86	41.81	3.38	-48.0	-62.8	3.8	1.49e+00	0	36	104	0	66	21232
2026-01-19 03:37:36.88	41.63	3.57	-48.0	-62.8	3.8	1.49e+00	0	36	104	0	66	21221
2026-01-19 03:37:39.91	41.44	3.75	-47.9	-62.8	3.8	1.49e+00	0	36	104	0	66	21183
2026-01-19 03:37:42.93	41.25	3.94	-48.0	-62.8	3.8	1.49e+00	0	36	104	0	66	21174
2026-01-19 03:37:45.96	41.06	4.13	-48.0	-62.8	3.8	1.49e+00	0	36	104	0	66	21190
2026-01-19 03:37:48.98	40.86	4.31	-48.0	-62.8	3.8	1.49e+00	0	36	104	0	66	21244
2026-01-19 03:37:52.00	40.67	4.50	-48.0	-62.8	3.8	1.49e+00	0	36	104	0	66	21211
2026-01-19 03:37:55.03	40.47	4.69	-48.0	-62.8	3.8	1.49e+00	0	36	104	0	66	21205
2026-01-19 03:37:58.06	40.26	4.88	-48.0	-62.8	3.8	1.49e+00	0	36	104	0	66	21152
2026-01-19 03:38:01.08	40.06	5.08	-48.0	-62.8	3.8	1.49e+00	0	36	104	0	66	21225
2026-01-19 03:38:04.10	39.85	5.27	-47.9	-62.8	3.8	1.49e+00	0	36	104	0	66	21209
2026-01-19 03:38:07.13	39.64	5.46	-48.0	-62.8	3.8	1.49e+00	0	36	104	0	66	21177
2026-01-19 03:38:10.15	39.42	5.66	-48.0	-62.8	3.8	1.49e+00	0	36	104	0	66	21215
2026-01-19 03:38:13.18	39.20	5.86	-48.0	-62.8	3.8	1.49e+00	0	36	104	0	66	21199
2026-01-19 03:38:16.20	38.98	6.05	-48.0	-62.8	3.8	1.49e+00	0	36	104	0	66	21226
2026-01-19 03:38:19.22	38.76	6.25	-48.0	-62.8	3.8	1.49e+00	0	36	104	0	66	21245
2026-01-19 03:38:22.25	38.53	6.45	-48.0	-62.8	3.8	1.49e+00	0	36	104	0	66	21226
2026-01-19 03:38:25.27	38.30	6.65	-48.0	-62.8	3.8	1.49e+00	0	36	104	0	66	21227
2026-01-19 03:38:28.30	38.07	6.85	-48.0	-62.8	3.8	1.49e+00	0	37	104	0	66	21235
2026-01-19 03:38:31.32	37.83	7.06	-48.0	-62.8	3.8	1.49e+00	0	37	104	0	66	21212
2026-01-19 03:38:34.34	37.59	7.26	-48.0	-62.8	3.8	1.49e+00	0	37	104	0	66	21230
2026-01-19 03:38:37.36	37.35	7.46	-48.0	-62.8	3.8	1.49e+00	0	36	104	0	66	21124
2026-01-19 03:38:40.39	37.10	7.67	-48.0	-62.8	3.8	1.49e+00	0	37	104	0	66	21255
2026-01-19 03:38:43.41	36.85	7.88	-48.0	-62.8	3.8	1.49e+00	0	37	104	0	66	21200
2026-01-19 03:38:46.44	36.59	8.09	-48.0	-62.8	3.8	1.49e+00	0	37	104	0	66	21221
2026-01-19 03:38:49.46	36.33	8.30	-48.0	-62.8	3.8	1.49e+00	0	37	104	0	66	21226
2026-01-19 03:38:52.48	36.07	8.51	-48.0	-62.8	3.8	1.49e+00	0	37	104	0	66	21145
2026-01-19 03:38:55.51	35.80	8.72	-48.0	-62.8	3.8	1.49e+00	0	37	104	0	66	21249
2026-01-19 03:38:58.53	35.53	8.93	-48.0	-62.8	3.8	1.49e+00	0	37	104	0	66	21193
2026-01-19 03:39:01.56	35.25	9.15	-48.0	-62.9	3.8	1.49e+00	0	37	104	0	66	21274
2026-01-19 03:39:04.58	34.97	9.36	-48.0	-62.8	3.8	1.49e+00	0	37	104	0	66	21209
2026-01-19 03:39:07.61	34.69	9.58	-48.0	-62.8	3.8	1.49e+00	0	37	104	0	66	21247
2026-01-19 03:39:10.64	34.40	9.80	-48.0	-62.8	3.8	1.49e+00	0	37	104	0	66	21221
2026-01-19 03:39:13.66	34.11	10.01	-48.0	-62.8	3.8	1.49e+00	0	37	104	0	66	21220
2026-01-19 03:39:16.68	33.81	10.23	-48.0	-62.8	3.8	1.49e+00	0	37	104	0	66	21242
2026-01-19 03:39:19.71	33.51	10.46	-48.0	-62.9	3.8	1.49e+00	0	37	104	0	66	21301
2026-01-19 03:39:22.73	33.20	10.68	-48.0	-62.9	3.8	1.49e+00	0	37	104	0	66	21261
2026-01-19 03:39:25.76	32.89	10.90	-48.0	-62.8	3.8	1.49e+00	0	37	104	0	66	21228
2026-01-19 03:39:28.78	32.57	11.13	-48.0	-62.8	3.8	1.49e+00	0	37	104	0	66	21258
2026-01-19 03:39:31.80	32.25	11.35	-48.0	-62.8	3.8	1.49e+00	0	37	104	0	66	21239
2026-01-19 03:39:34.83	31.92	11.58	-48.0	-62.8	3.8	1.49e+00	0	37	104	0	66	21210
2026-01-19 03:39:37.85	31.59	11.81	-48.0	-62.8	3.8	1.49e+00	0	37	104	0	66	21233
2026-01-19 03:39:40.87	31.25	12.04	-48.0	-62.8	3.8	1.49e+00	0	37	104	0	66	21247
2026-01-19 03:39:43.90	30.91	12.27	-48.0	-62.8	3.8	1.49e+00	0	37	104	0	66	21252
2026-01-19 03:39:46.92	30.56	12.50	-48.0	-62.8	3.8	1.49e+00	0	37	104	0	66	21257
2026-01-19 03:39:49.95	30.20	12.74	-48.0	-62.8	3.8	1.49e+00	0	37	104	0	66	21200
2026-01-19 03:39:52.97	29.84	12.97	-48.0	-62.9	3.8	1.49e+00	0	37	104	0	66	21277
2026-01-19 03:39:56.00	29.48	13.20	-48.0	-62.8	3.8	1.49e+00	0	37	104	0	66	21188
2026-01-19 03:39:59.02	29.11	13.44	-48.0	-62.8	3.8	1.49e+00	0	37	104	0	66	21249
2026-01-19 03:40:02.05	28.73	13.68	-48.0	-62.9	3.8	1.49e+00	0	37	104	0	66	21290
2026-01-19 03:40:05.07	28.34	13.92	-48.0	-62.9	3.8	1.49e+00	0	37	104	0	66	21266
2026-01-19 03:40:08.09	27.95	14.16	-48.0	-62.8	3.8	1.49e+00	0	37	104	0	66	21216
2026-01-19 03:40:11.11	27.55	14.40	-48.0	-62.8	3.8	1.49e+00	0	37	104	0	66	21226
2026-01-19 03:40:14.14	27.15	14.64	-48.0	-62.8	3.8	1.49e+00	0	37	104	0	66	21225
2026-01-19 03:40:17.16	26.74	14.88	-48.0	-62.8	3.8	1.49e+00	0	37	104	0	66	21171
2026-01-19 03:40:20.19	26.32	15.12	-48.0	-62.8	3.8	1.49e+00	0	37	104	0	66	21213
2026-01-19 03:40:23.21	25.89	15.37	-48.0	-62.9	3.8	1.49e+00	0	37	104	0	66	21269
2026-01-19 03:40:26.24	25.46	15.61	-48.0	-62.9	3.8	1.49e+00	0	37	104	0	66	21272
2026-01-19 03:40:29.26	25.02	15.86	-48.0	-62.8	3.8	1.49e+00	0	37	104	0	66	21240
2026-01-19 03:40:32.28	24.58	16.10	-48.0	-62.8	3.8	1.49e+00	0	37	104	0	66	21211
2026-01-19 03:40:35.30	24.12	16.35	-48.0	-62.8	3.8	1.49e+00	0	37	104	0	66	21256
2026-01-19 03:40:38.33	23.66	16.60	-48.0	-62.8	3.8	1.49e+00	0	37	104	0	66	21230
2026-01-19 03:40:41.35	23.19	16.85	-48.0	-62.9	3.8	1.49e+00	0	37	104	0	66	21267
2026-01-19 03:40:44.38	22.71	17.09	-48.0	-62.8	3.8	1.49e+00	0	37	104	0	66	21202
2026-01-19 03:40:47.40	22.22	17.34	-48.0	-62.8	3.8	1.49e+00	0	37	104	0	66	21260
2026-01-19 03:40:50.43	21.73	17.59	-48.0	-62.9	3.8	1.49e+00	0	37	104	0	66	21261
2026-01-19 03:40:53.45	21.23	17.84	-48.0	-62.8	3.8	1.49e+00	0	37	104	0	66	21209
2026-01-19 03:40:56.48	20.71	18.09	-48.0	-62.8	3.8	1.49e+00	0	37	104	0	66	21222
2026-01-19 03:40:59.50	20.19	18.34	-48.0	-62.9	3.8	1.49e+00	0	37	104	0	66	21279
2026-01-19 03:41:02.52	19.67	18.59	-48.0	-62.8	3.8	1.49e+00	0	37	104	0	66	21201
2026-01-19 03:41:05.55	19.13	18.84	-48.0	-62.8	3.8	1.49e+00	0	37	104	0	66	21241
2026-01-19 03:41:08.57	18.58	19.09	-48.0	-62.9	3.8	1.49e+00	0	37	104	0	66	21273
2026-01-19 03:41:11.59	18.03	19.34	-48.0	-62.9	3.8	1.49e+00	0	37	104	0	66	21269
2026-01-19 03:41:14.62	17.46	19.59	-48.0	-62.8	3.8	1.49e+00	0	37	104	0	66	21255
2026-01-19 03:41:17.64	16.89	19.84	-48.0	-62.9	3.8	1.49e+00	0	37	104	0	66	21303
2026-01-19 03:41:20.67	16.30	20.09	-48.0	-62.8	3.8	1.49e+00	0	37	104	0	66	21245
2026-01-19 03:41:23.69	15.71	20.33	-48.0	-62.9	3.8	1.49e+00	0	37	104	0	66	21266
2026-01-19 03:41:26.72	15.10	20.58	-48.0	-62.8	3.8	1.49e+00	0	37	104	0	66	21255
2026-01-19 03:41:29.74	14.49	20.82	-48.0	-62.8	3.8	1.49e+00	0	37	104	0	66	21256
2026-01-19 03:41:32.76	13.87	21.07	-48.0	-62.9	3.8	1.49e+00	0	37	104	0	66	21278
2026-01-19 03:41:35.79	13.23	21.31	-48.0	-62.8	3.8	1.49e+00	0	37	104	0	66	21202
2026-01-19 03:41:38.81	12.59	21.55	-48.0	-62.9	3.8	1.49e+00	0	37	104	0	66	21273
2026-01-19 03:41:41.84	11.94	21.79	-48.0	-62.8	3.8	1.49e+00	0	37	104	0	66	21244
2026-01-19 03:41:44.86	11.27	22.03	-48.0	-62.9	3.8	1.49e+00	0	37	104	0	66	21281
2026-01-19 03:41:47.88	10.60	22.26	-48.0	-62.9	3.8	1.49e+00	0	37	104	0	66	21299
2026-01-19 03:41:50.91	9.91	22.50	-48.0	-62.8	3.8	1.49e+00	0	37	104	0	66	21254
2026-01-19 03:41:53.93	9.22	22.73	-48.0	-62.9	3.8	1.49e+00	0	37	104	0	66	21283
2026-01-19 03:41:56.95	8.51	22.96	-48.0	-62.9	3.8	1.49e+00	0	37	104	0	66	21298
2026-01-19 03:41:59.98	7.80	23.18	-48.0	-62.9	3.8	1.49e+00	0	37	104	0	66	21292
2026-01-19 03:42:03.00	7.07	23.41	-48.0	-62.9	3.8	1.49e+00	0	37	104	0	66	21270
2026-01-19 03:42:06.02	6.33	23.63	-48.0	-62.8	3.8	1.49e+00	0	37	104	0	66	21253
2026-01-19 03:42:09.05	5.59	23.84	-48.0	-62.9	3.8	1.49e+00	0	37	104	0	66	21292
2026-01-19 03:42:12.07	4.83	24.05	-48.0	-62.9	3.8	1.49e+00	0	37	104	0	66	21281
2026-01-19 03:42:15.10	4.06	24.26	-48.0	-62.9	3.8	1.49e+00	0	37	104	0	66	21353
2026-01-19 03:42:18.12	3.28	24.47	-48.0	-62.9	3.8	1.49e+00	0	37	104	0	66	21304
2026-01-19 03:42:21.14	2.49	24.67	-48.0	-62.9	3.8	1.49e+00	0	37	104	0	66	21274
2026-01-19 03:42:24.17	1.69	24.86	-48.0	-62.9	3.8	1.49e+00	0	37	104	0	66	21263
2026-01-19 03:42:27.19	0.89	25.06	-48.0	-62.9	3.8	1.49e+00	0	37	104	0	66	21289
2026-01-19 03:42:30.21	0.07	25.24	-48.0	-62.8	3.8	1.49e+00	0	37	104	0	66	21260
2026-01-19 03:42:33.24	359.24	25.42	-48.0	-62.9	3.8	1.49e+00	0	37	104	0	66	21261
2026-01-19 03:42:36.26	358.40	25.60	-48.0	-62.9	3.8	1.49e+00	0	37	104	0	66	21324
2026-01-19 03:42:39.28	357.56	25.77	-48.0	-62.9	3.8	1.49e+00	0	37	104	0	66	21277
2026-01-19 03:42:42.31	356.70	25.93	-48.0	-62.8	3.8	1.49e+00	0	37	104	0	66	21259
2026-01-19 03:42:45.33	355.84	26.09	-48.0	-62.9	3.8	1.49e+00	0	37	104	0	66	21313
2026-01-19 03:42:48.36	354.96	26.24	-48.0	-62.9	3.8	1.49e+00	0	37	104	0	66	21264
2026-01-19 03:42:51.38	354.08	26.39	-48.0	-62.9	3.8	1.49e+00	0	37	104	0	66	21294
2026-01-19 03:42:54.40	353.19	26.52	-48.0	-62.9	3.8	1.49e+00	0	37	104	0	66	21266
2026-01-19 03:42:57.43	352.29	26.65	-48.0	-62.8	3.8	1.49e+00	0	37	104	0	66	21245
2026-01-19 03:43:00.45	351.39	26.78	-48.0	-62.9	3.8	1.49e+00	0	37	104	0	66	21268
2026-01-19 03:43:03.48	350.48	26.89	-48.0	-62.9	3.8	1.49e+00	0	37	104	0	66	21316
2026-01-19 03:43:06.50	349.56	27.00	-48.0	-62.9	3.8	1.49e+00	0	37	104	0	66	21271
2026-01-19 03:43:09.52	348.64	27.10	-48.0	-62.9	3.8	1.49e+00	0	37	104	0	66	21313
2026-01-19 03:43:12.55	347.71	27.20	-48.0	-62.9	3.8	1.49e+00	0	37	104	0	66	21286
2026-01-19 03:43:15.57	346.77	27.28	-48.0	-62.9	3.8	1.49e+00	0	37	104	0	66	21314
2026-01-19 03:43:18.59	345.83	27.36	-48.0	-62.8	3.8	1.49e+00	0	37	104	0	66	21217
2026-01-19 03:43:21.62	344.89	27.43	-48.0	-62.9	3.8	1.49e+00	0	37	104	0	66	21277
2026-01-19 03:43:24.64	343.94	27.49	-48.0	-62.8	3.8	1.49e+00	0	37	104	0	66	21253
2026-01-19 03:43:27.66	342.99	27.54	-48.0	-62.9	3.8	1.49e+00	0	37	104	0	66	21286
2026-01-19 03:43:30.69	342.03	27.58	-48.0	-62.9	3.8	1.49e+00	0	37	104	0	66	21319
2026-01-19 03:43:33.71	341.08	27.61	-48.0	-62.9	3.8	1.49e+00	0	37	104	0	66	21267
2026-01-19 03:43:36.74	340.12	27.64	-48.0	-62.9	3.8	1.49e+00	0	37	104	0	66	21280
2026-01-19 03:43:39.76	339.16	27.65	-48.0	-62.9	3.8	1.49e+00	0	37	104	0	66	21313
2026-01-19 03:43:42.79	338.20	27.66	-48.0	-62.9	3.8	1.49e+00	0	37	104	0	66	21325
2026-01-19 03:43:45.81	337.24	27.66	-48.0	-62.9	3.8	1.49e+00	0	37	104	0	66	21278
2026-01-19 03:43:48.84	336.28	27.65	-48.0	-62.9	3.8	1.49e+00	0	37	104	0	66	21313
2026-01-19 03:43:51.86	335.32	27.63	-48.0	-62.9	3.8	1.49e+00	0	37	104	0	66	21307
2026-01-19 03:43:54.88	334.37	27.60	-48.0	-62.9	3.8	1.49e+00	0	37	104	0	66	21287
2026-01-19 03:43:57.91	333.41	27.56	-48.0	-62.9	3.8	1.49e+00	0	37	104	0	66	21336
2026-01-19 03:44:00.93	332.46	27.51	-48.0	-62.8	3.8	1.49e+00	0	37	104	0	66	21256
2026-01-19 03:44:03.96	331.51	27.46	-48.0	-62.9	3.8	1.49e+00	0	37	104	0	66	21272
2026-01-19 03:44:06.98	330.56	27.39	-48.0	-62.9	3.8	1.49e+00	0	37	104	0	66	21289
2026-01-19 03:44:10.00	329.62	27.32	-48.0	-62.8	3.8	1.49e+00	0	37	104	0	66	21251
2026-01-19 03:44:13.03	328.68	27.24	-48.0	-62.9	3.8	1.49e+00	0	37	104	0	66	21298
2026-01-19 03:44:16.05	327.75	27.15	-48.0	-62.9	3.8	1.49e+00	0	37	104	0	66	21326
2026-01-19 03:44:19.08	326.82	27.05	-48.0	-62.9	3.8	1.49e+00	0	37	104	0	66	21322
2026-01-19 03:44:22.10	325.90	26.95	-48.0	-62.9	3.8	1.49e+00	0	37	104	0	66	21292
2026-01-19 03:44:25.12	324.98	26.84	-48.0	-62.9	3.8	1.49e+00	0	37	104	0	66	21294
2026-01-19 03:44:28.15	324.07	26.72	-48.0	-62.9	3.8	1.49e+00	0	37	104	0	66	21324
2026-01-19 03:44:31.17	323.17	26.59	-48.0	-62.9	3.8	1.49e+00	0	37	104	0	66	21338
2026-01-19 03:44:34.19	322.28	26.46	-48.0	-62.8	3.8	1.49e+00	0	37	104	0	66	21235
2026-01-19 03:44:37.22	321.39	26.31	-48.0	-62.9	3.8	1.49e+00	0	37	104	0	66	21314
2026-01-19 03:44:40.24	320.52	26.17	-48.0	-62.9	3.8	1.49e+00	0	37	104	0	66	21320
2026-01-19 03:44:43.27	319.65	26.01	-48.0	-62.9	3.8	1.49e+00	0	37	104	0	66	21287
2026-01-19 03:44:46.29	318.79	25.85	-48.0	-62.9	3.8	1.49e+00	0	37	104	0	66	21294
2026-01-19 03:44:49.32	317.93	25.68	-48.0	-62.9	3.8	1.49e+00	0	37	104	0	66	21284
2026-01-19 03:44:52.34	317.09	25.51	-48.0	-62.9	3.8	1.49e+00	0	37	104	0	66	21311
2026-01-19 03:44:55.36	316.26	25.33	-48.0	-62.9	3.8	1.49e+00	0	37	104	0	66	21316
2026-01-19 03:44:58.39	315.43	25.15	-48.0	-62.9	3.8	1.49e+00	0	37	104	0	66	21301
2026-01-19 03:45:01.41	314.62	24.96	-48.0	-62.9	3.8	1.49e+00	0	37	104	0	66	21301
2026-01-19 03:45:04.44	313.81	24.77	-48.0	-62.9	3.8	1.49e+00	0	37	104	0	66	21292
2026-01-19 03:45:07.46	313.02	24.57	-48.0	-62.9	3.8	1.49e+00	0	37	104	0	66	21337
2026-01-19 03:45:10.49	312.23	24.36	-48.0	-62.9	3.8	1.49e+00	0	37	104	0	66	21277
2026-01-19 03:45:13.52	311.46	24.16	-48.0	-62.9	3.8	1.49e+00	0	37	104	0	66	21326
2026-01-19 03:45:16.54	310.69	23.95	-48.0	-62.9	3.8	1.49e+00	0	37	104	0	66	21267
2026-01-19 03:45:19.56	309.94	23.73	-48.0	-62.9	3.8	1.49e+00	0	37	104	0	66	21273
2026-01-19 03:45:22.59	309.20	23.51	-48.0	-62.9	3.8	1.49e+00	0	37	104	0	66	21296
2026-01-19 03:45:25.61	308.47	23.29	-48.0	-62.9	3.8	1.49e+00	0	37	104	0	66	21328
2026-01-19 03:45:28.64	307.74	23.07	-48.0	-62.9	3.8	1.49e+00	0	37	104	0	66	21312
2026-01-19 03:45:31.67	307.03	22.84	-48.0	-62.9	3.8	1.49e+00	0	37	104	0	66	21286
2026-01-19 03:45:34.69	306.33	22.61	-48.0	-62.9	3.8	1.49e+00	0	37	104	0	66	21339
2026-01-19 03:45:37.72	305.64	22.38	-48.0	-62.8	3.8	1.49e+00	0	37	104	0	66	21240
2026-01-19 03:45:40.74	304.96	22.14	-48.0	-62.8	3.8	1.49e+00	0	37	104	0	66	21259
2026-01-19 03:45:43.76	304.29	21.91	-48.0	-62.9	3.8	1.49e+00	0	37	104	0	66	21284
2026-01-19 03:45:46.79	303.63	21.67	-48.0	-62.9	3.8	1.49e+00	0	37	104	0	66	21273
2026-01-19 03:45:49.81	302.98	21.43	-48.0	-62.9	3.8	1.49e+00	0	37	104	0	66	21343
2026-01-19 03:45:52.84	302.34	21.18	-48.0	-62.9	3.8	1.49e+00	0	37	104	0	66	21307
2026-01-19 03:45:55.86	301.71	20.94	-48.0	-62.8	3.8	1.49e+00	0	37	104	0	66	21240
2026-01-19 03:45:58.89	301.09	20.69	-48.0	-62.9	3.8	1.49e+00	0	37	104	0	66	21283
2026-01-19 03:46:01.91	300.48	20.45	-48.0	-62.9	3.8	1.49e+00	0	37	104	0	66	21306
2026-01-19 03:46:04.94	299.88	20.20	-48.0	-62.9	3.8	1.49e+00	0	37	104	0	66	21299
2026-01-19 03:46:07.97	299.29	19.95	-48.0	-62.9	3.8	1.49e+00	0	37	104	0	66	21271
2026-01-19 03:46:11.00	298.71	19.70	-48.0	-62.9	3.8	1.49e+00	0	37	104	0	66	21321
2026-01-19 03:46:14.02	298.14	19.46	-48.0	-62.9	3.8	1.49e+00	0	37	104	0	66	21312
2026-01-19 03:46:17.04	297.58	19.21	-48.0	-62.9	3.8	1.49e+00	0	37	104	0	66	21329
2026-01-19 03:46:20.06	297.03	18.96	-48.0	-62.9	3.8	1.49e+00	0	37	104	0	66	21339
2026-01-19 03:46:23.09	296.48	18.71	-48.0	-62.9	3.8	1.49e+00	0	37	104	0	66	21360
2026-01-19 03:46:26.11	295.95	18.46	-48.0	-62.9	3.8	1.49e+00	0	37	104	0	66	21306
2026-01-19 03:46:29.14	295.42	18.21	-48.0	-62.8	3.8	1.49e+00	0	37	104	0	66	21254
2026-01-19 03:46:32.16	294.91	17.96	-48.0	-62.9	3.8	1.49e+00	0	37	104	0	66	21315
2026-01-19 03:46:35.19	294.40	17.71	-48.0	-62.9	3.8	1.49e+00	0	37	104	0	66	21351
2026-01-19 03:46:38.21	293.90	17.46	-48.0	-62.9	3.8	1.49e+00	0	37	104	0	66	21312
2026-01-19 03:46:41.24	293.41	17.21	-48.0	-62.9	3.8	1.49e+00	0	37	104	0	66	21332
2026-01-19 03:46:44.26	292.92	16.96	-48.0	-62.9	3.8	1.49e+00	0	37	104	0	66	21280
2026-01-19 03:46:47.28	292.45	16.71	-48.0	-62.9	3.8	1.49e+00	0	37	104	0	66	21329
2026-01-19 03:46:50.31	291.98	16.46	-48.0	-62.8	3.8	1.49e+00	0	37	104	0	66	21254
2026-01-19 03:46:53.34	291.52	16.21	-48.0	-62.9	3.8	1.49e+00	0	37	104	0	66	21346
2026-01-19 03:46:56.36	291.07	15.97	-48.0	-62.9	3.8	1.49e+00	0	37	104	0	66	21294
2026-01-19 03:46:59.38	290.63	15.72	-48.0	-62.9	3.8	1.49e+00	0	37	104	0	66	21273
2026-01-19 03:47:02.41	290.19	15.47	-48.0	-62.9	3.8	1.49e+00	0	37	104	0	66	21327
2026-01-19 03:47:05.43	289.76	15.23	-48.0	-62.9	3.8	1.49e+00	0	37	104	0	66	21274
2026-01-19 03:47:08.45	289.34	14.99	-48.0	-62.9	3.8	1.49e+00	0	37	104	0	66	21322
2026-01-19 03:47:11.47	288.92	14.74	-48.0	-62.9	3.8	1.49e+00	0	37	104	0	66	21283
2026-01-19 03:47:14.50	288.52	14.50	-48.0	-62.9	3.8	1.49e+00	0	37	104	0	66	21291
2026-01-19 03:47:17.52	288.11	14.26	-48.0	-62.9	3.8	1.49e+00	0	37	104	0	66	21303
2026-01-19 03:47:20.55	287.72	14.02	-48.0	-62.9	3.8	1.49e+00	0	37	104	0	66	21323
2026-01-19 03:47:23.57	287.33	13.78	-48.0	-62.9	3.8	1.49e+00	0	37	104	0	66	21309
2026-01-19 03:47:26.60	286.95	13.54	-48.0	-62.9	3.8	1.49e+00	0	37	104	0	66	21271
2026-01-19 03:47:29.62	286.57	13.31	-48.0	-62.9	3.8	1.49e+00	0	37	104	0	66	21289
2026-01-19 03:47:32.64	286.20	13.07	-48.0	-62.9	3.8	1.49e+00	0	37	104	0	66	21332
2026-01-19 03:47:35.67	285.84	12.83	-48.0	-62.9	3.8	1.49e+00	0	37	104	0	66	21298
2026-01-19 03:47:38.69	285.48	12.60	-48.0	-62.9	3.8	1.49e+00	0	37	104	0	66	21342
2026-01-19 03:47:41.72	285.12	12.37	-48.0	-62.9	3.8	1.49e+00	0	37	104	0	66	21320
2026-01-19 03:47:44.74	284.78	12.14	-48.0	-62.9	3.8	1.49e+00	0	37	104	0	66	21280
2026-01-19 03:47:47.76	284.44	11.91	-48.0	-62.9	3.8	1.49e+00	0	37	104	0	66	21280
2026-01-19 03:47:50.79	284.10	11.68	-48.0	-62.9	3.8	1.49e+00	0	37	104	0	66	21283
2026-01-19 03:47:53.81	283.77	11.45	-48.0	-62.9	3.8	1.49e+00	0	37	104	0	66	21325
2026-01-19 03:47:56.84	283.44	11.22	-48.0	-62.8	3.8	1.49e+00	0	37	104	0	66	21257
2026-01-19 03:47:59.86	283.12	11.00	-48.0	-62.8	3.8	1.49e+00	0	37	104	0	66	21256
2026-01-19 03:48:02.88	282.81	10.77	-48.0	-62.9	3.8	1.49e+00	0	37	104	0	66	21295
2026-01-19 03:48:05.91	282.50	10.55	-48.0	-62.9	3.8	1.49e+00	0	37	104	0	66	21294
2026-01-19 03:48:08.93	282.19	10.33	-48.0	-62.9	3.8	1.49e+00	0	37	104	0	66	21325
2026-01-19 03:48:11.96	281.89	10.10	-48.0	-62.9	3.8	1.49e+00	0	37	104	0	66	21332
2026-01-19 03:48:14.99	281.60	9.88	-48.0	-62.9	3.8	1.49e+00	0	37	104	0	66	21264
2026-01-19 03:48:18.02	281.30	9.67	-48.0	-62.9	3.8	1.49e+00	0	37	104	0	66	21262
2026-01-19 03:48:21.04	281.02	9.45	-48.0	-62.8	3.8	1.49e+00	0	37	104	0	66	21230
2026-01-19 03:48:24.06	280.73	9.23	-48.0	-62.9	3.8	1.49e+00	0	37	104	0	66	21271
2026-01-19 03:48:27.08	280.46	9.02	-48.0	-62.8	3.8	1.49e+00	0	37	104	0	66	21244
2026-01-19 03:48:30.11	280.18	8.80	-48.0	-62.9	3.8	1.49e+00	0	37	104	0	66	21273
2026-01-19 03:48:33.13	279.91	8.59	-48.0	-62.9	3.8	1.49e+00	0	37	104	0	66	21292
2026-01-19 03:48:36.16	279.65	8.38	-48.0	-62.9	3.8	1.49e+00	0	37	104	0	66	21312
2026-01-19 03:48:39.18	279.38	8.17	-48.0	-62.9	3.8	1.49e+00	0	37	104	0	66	21286
2026-01-19 03:48:42.20	279.13	7.96	-48.0	-62.9	3.8	1.49e+00	0	37	104	0	66	21271
2026-01-19 03:48:45.22	278.87	7.75	-48.0	-62.9	3.8	1.49e+00	0	37	104	0	66	21346
2026-01-19 03:48:48.25	278.62	7.55	-48.0	-62.9	3.8	1.49e+00	0	37	104	0	66	21261
2026-01-19 03:48:51.27	278.37	7.34	-48.0	-62.8	3.8	1.49e+00	0	38	104	0	66	21238
2026-01-19 03:48:54.30	278.13	7.13	-48.0	-62.9	3.8	1.49e+00	0	37	104	0	66	21311
2026-01-19 03:48:57.32	277.89	6.93	-48.0	-62.8	3.8	1.49e+00	0	37	104	0	66	21238
2026-01-19 03:49:00.34	277.65	6.73	-48.0	-62.9	3.8	1.49e+00	0	37	104	0	66	21320
2026-01-19 03:49:03.37	277.42	6.53	-48.0	-62.8	3.8	1.49e+00	0	37	104	0	66	21228
2026-01-19 03:49:06.39	277.19	6.33	-48.0	-62.9	3.8	1.49e+00	0	37	104	0	66	21287
2026-01-19 03:49:09.42	276.96	6.13	-48.0	-62.9	3.8	1.49e+00	0	37	104	0	66	21284
2026-01-19 03:49:12.44	276.74	5.93	-48.0	-62.9	3.8	1.49e+00	0	37	104	0	66	21326
2026-01-19 03:49:15.47	276.52	5.73	-48.0	-62.9	3.8	1.49e+00	0	37	104	0	66	21328
2026-01-19 03:49:18.49	276.30	5.54	-48.0	-62.9	3.8	1.49e+00	0	38	104	0	66	21266
2026-01-19 03:49:21.52	276.09	5.34	-48.0	-62.9	3.8	1.49e+00	0	38	104	0	66	21298
2026-01-19 03:49:24.54	275.88	5.15	-48.0	-62.9	3.8	1.49e+00	0	38	104	0	66	21266
2026-01-19 03:49:27.57	275.67	4.96	-48.0	-62.8	3.8	1.49e+00	0	38	104	0	66	21257
2026-01-19 03:49:30.59	275.46	4.77	-48.0	-62.8	3.8	1.49e+00	0	38	104	0	66	21252
2026-01-19 03:49:33.62	275.26	4.57	-48.0	-62.8	3.8	1.49e+00	0	38	104	0	66	21253
2026-01-19 03:49:36.64	275.06	4.38	-48.0	-62.9	3.8	1.49e+00	0	37	104	0	66	21294
2026-01-19 03:49:39.66	274.86	4.20	-48.0	-62.9	3.8	1.49e+00	0	37	104	0	66	21282
2026-01-19 03:49:42.69	274.67	4.01	-48.0	-62.8	3.8	1.49e+00	0	38	104	0	66	21240
2026-01-19 03:49:45.71	274.48	3.82	-48.0	-62.8	3.8	1.49e+00	0	38	104	0	66	21243
2026-01-19 03:49:48.74	274.29	3.64	-48.0	-62.9	3.8	1.49e+00	0	38	104	0	66	21269
2026-01-19 03:49:51.76	274.10	3.45	-48.0	-62.8	3.8	1.49e+00	0	38	104	0	66	21192
2026-01-19 03:49:54.78	273.92	3.27	-48.0	-62.8	3.8	1.49e+00	0	38	104	0	66	21233
2026-01-19 03:49:57.81	273.73	3.08	-48.0	-62.9	3.8	1.49e+00	0	38	104	0	66	21272
2026-01-19 03:50:00.83	273.55	2.90	-48.0	-62.9	3.8	1.49e+00	0	37	104	0	66	21316
2026-01-19 03:50:03.86	273.38	2.72	-48.0	-62.9	3.8	1.49e+00	0	38	104	0	66	21271
2026-01-19 03:50:06.88	273.20	2.54	-48.0	-62.9	3.8	1.49e+00	0	38	104	0	66	21356
2026-01-19 03:50:09.90	273.03	2.36	-48.0	-62.8	3.8	1.49e+00	0	38	104	0	66	21253
2026-01-19 03:50:12.93	272.86	2.18	-48.0	-62.8	3.8	1.49e+00	0	38	104	0	66	21252
2026-01-19 03:50:15.95	272.69	2.01	-48.0	-62.9	3.8	1.49e+00	0	38	104	0	66	21282

#Closed at: 2026-01-19 03:50:18
#Recorded file [0 MB]: D:/lorett/data/31041_260119_063712.dat