passes_logs/2026/01/19/R3.2S_Murmansk/R3.2S_Murmansk__20260119_023500_FENGYUN_3D_rec.log

#Pass ID: 20260119_023500_FENGYUN 3D
#Satellite: FENGYUN 3D
#Configuration: FENGYUN 3D
#almurnet v.1.7.20251203
#Start time: 2026-01-19 02:35:01

#Version: 2.2.20231116
#Station: R3.2S_Murmansk
#Location: 33.079688 lon 68.888172 lat
#TLE: 1 43010U 17072A   26018.59788810  .00000129  00000+0  82801-4 0  9992
#TLE: 2 43010  98.9937 350.4692 0002400 102.4643 257.6801 14.19696801423766

#Time	Az	El	Level	Level2	SNR	BER	BlckErr	Temp	State	Recorded	gain1	gain2
2026-01-19 02:35:01.20	24.42	2.07	-48.0	-59.9	3.8	8.45e-01	0	35	0	0	66	15100
2026-01-19 02:35:05.22	24.46	2.32	-48.0	-59.9	3.8	8.46e-01	0	35	104	0	66	15110
2026-01-19 02:35:09.26	24.49	2.58	-48.0	-59.9	3.8	8.46e-01	0	35	104	0	66	15132
2026-01-19 02:35:13.29	24.53	2.85	-48.0	-59.9	3.8	8.47e-01	0	35	104	0	66	15106
2026-01-19 02:35:17.32	24.57	3.11	-48.0	-59.9	3.8	8.47e-01	0	35	104	0	66	15059
2026-01-19 02:35:21.35	24.61	3.38	-48.0	-59.9	3.8	8.46e-01	0	35	104	0	66	15088
2026-01-19 02:35:25.38	24.65	3.65	-48.0	-59.8	3.8	8.46e-01	0	36	104	0	66	15043
2026-01-19 02:35:29.42	24.69	3.93	-48.0	-59.8	3.8	8.47e-01	0	36	104	0	66	15025
2026-01-19 02:35:33.45	24.74	4.20	-48.0	-59.9	3.8	8.45e-01	0	36	104	0	66	15111
2026-01-19 02:35:37.48	24.78	4.48	-48.0	-59.9	3.8	8.45e-01	0	36	104	0	66	15108
2026-01-19 02:35:41.51	24.82	4.76	-48.0	-59.9	3.8	8.47e-01	0	36	104	0	66	15116
2026-01-19 02:35:45.54	24.86	5.05	-48.0	-59.9	3.8	8.47e-01	0	36	104	0	66	15086
2026-01-19 02:35:49.58	24.90	5.34	-48.0	-59.8	3.8	8.46e-01	0	36	104	0	66	15034
2026-01-19 02:35:53.61	24.95	5.63	-48.0	-59.8	3.8	8.48e-01	0	36	104	0	66	14921
2026-01-19 02:35:57.64	24.99	5.92	-48.0	-59.8	3.8	8.46e-01	0	36	104	0	66	15030
2026-01-19 02:36:01.68	25.04	6.22	-48.0	-59.8	3.8	8.46e-01	0	36	104	0	66	15039
2026-01-19 02:36:05.71	25.08	6.52	-48.0	-59.8	3.8	8.46e-01	0	36	104	0	66	15023
2026-01-19 02:36:09.74	25.13	6.83	-48.0	-59.8	3.8	8.46e-01	0	36	104	0	66	15019
2026-01-19 02:36:13.77	25.17	7.14	-48.0	-59.8	3.8	8.47e-01	0	36	104	0	66	14993
2026-01-19 02:36:17.80	25.22	7.45	-48.0	-59.8	3.8	8.46e-01	0	36	104	0	66	14990
2026-01-19 02:36:21.83	25.27	7.77	-48.0	-59.9	3.8	8.46e-01	0	36	104	0	66	15128
2026-01-19 02:36:25.86	25.32	8.09	-48.0	-59.9	3.8	8.45e-01	0	36	104	0	66	15125
2026-01-19 02:36:29.90	25.37	8.41	-48.0	-59.9	3.8	8.46e-01	0	36	104	0	66	15094
2026-01-19 02:36:33.93	25.42	8.74	-48.0	-59.9	3.8	8.46e-01	0	36	104	0	66	15082
2026-01-19 02:36:37.96	25.47	9.08	-48.0	-59.9	3.8	8.46e-01	0	36	104	0	66	15172
2026-01-19 02:36:41.99	25.52	9.41	-48.0	-59.9	3.8	8.46e-01	0	36	104	0	66	15084
2026-01-19 02:36:46.02	25.57	9.76	-48.0	-59.9	3.8	8.46e-01	0	36	104	0	66	15159
2026-01-19 02:36:50.06	25.62	10.10	-48.0	-59.9	3.8	8.46e-01	0	36	104	0	66	15057
2026-01-19 02:36:54.09	25.68	10.46	-48.0	-59.9	3.8	8.46e-01	0	36	104	0	66	15081
2026-01-19 02:36:58.12	25.73	10.81	-48.0	-59.9	3.8	8.47e-01	0	36	104	0	66	15109
2026-01-19 02:37:02.16	25.78	11.18	-48.0	-59.9	3.8	8.46e-01	0	36	104	0	66	15087
2026-01-19 02:37:06.19	25.84	11.54	-48.1	-59.9	3.8	8.47e-01	0	36	104	0	66	15105
2026-01-19 02:37:10.22	25.90	11.92	-48.0	-59.9	3.8	8.45e-01	0	36	104	0	66	15145
2026-01-19 02:37:14.25	25.96	12.30	-48.0	-59.9	3.8	8.47e-01	0	36	104	0	66	15091
2026-01-19 02:37:18.28	26.02	12.68	-48.0	-59.9	3.8	8.46e-01	0	37	104	0	66	15079
2026-01-19 02:37:22.31	26.08	13.07	-48.0	-59.9	3.8	8.47e-01	0	36	104	0	66	15055
2026-01-19 02:37:26.35	26.14	13.47	-48.0	-59.9	3.8	8.47e-01	0	37	104	0	66	15077
2026-01-19 02:37:30.38	26.20	13.88	-48.0	-59.9	3.8	8.45e-01	0	37	104	0	66	15104
2026-01-19 02:37:34.41	26.26	14.29	-48.0	-59.9	3.8	8.45e-01	0	37	104	0	66	15187
2026-01-19 02:37:38.44	26.33	14.71	-48.0	-59.9	3.8	8.46e-01	0	37	104	0	66	15115
2026-01-19 02:37:42.47	26.40	15.13	-48.0	-59.9	3.8	8.47e-01	0	37	104	0	66	15080
2026-01-19 02:37:46.50	26.47	15.57	-48.0	-59.9	3.8	8.45e-01	0	37	104	0	66	15127
2026-01-19 02:37:50.54	26.54	16.01	-48.0	-59.9	3.8	8.46e-01	0	36	104	0	66	15126
2026-01-19 02:37:54.57	26.61	16.46	-48.0	-59.9	3.8	8.45e-01	0	36	104	0	66	15142
2026-01-19 02:37:58.60	26.68	16.92	-48.0	-59.9	3.8	8.46e-01	0	37	104	0	66	15092
2026-01-19 02:38:02.64	26.75	17.38	-48.0	-59.9	3.8	8.47e-01	0	37	104	0	66	15157
2026-01-19 02:38:06.67	26.83	17.86	-48.0	-59.9	3.8	8.46e-01	0	37	104	0	66	15087
2026-01-19 02:38:10.70	26.91	18.34	-48.0	-59.9	3.8	8.46e-01	0	37	104	0	66	15071
2026-01-19 02:38:14.73	26.99	18.84	-48.0	-59.9	3.8	8.45e-01	0	37	104	0	66	15082
2026-01-19 02:38:18.76	27.07	19.34	-48.1	-59.9	3.8	8.46e-01	0	37	104	0	66	15136
2026-01-19 02:38:22.80	27.16	19.86	-48.0	-59.9	3.8	8.46e-01	0	37	104	0	66	15118
2026-01-19 02:38:26.83	27.24	20.39	-48.0	-59.9	3.8	8.46e-01	0	37	104	0	66	15128
2026-01-19 02:38:30.86	27.33	20.93	-48.0	-59.9	3.8	8.46e-01	0	37	104	0	66	15087
2026-01-19 02:38:34.89	27.43	21.47	-48.0	-59.9	3.8	8.45e-01	0	37	104	0	66	15129
2026-01-19 02:38:38.92	27.52	22.04	-48.0	-59.9	3.8	8.47e-01	0	37	104	0	66	15141
2026-01-19 02:38:42.95	27.62	22.61	-48.0	-59.8	3.8	8.47e-01	0	37	104	0	66	15050
2026-01-19 02:38:46.99	27.72	23.20	-48.0	-59.9	3.8	8.46e-01	0	37	104	0	66	15084
2026-01-19 02:38:51.02	27.82	23.80	-48.0	-59.8	3.8	8.45e-01	0	37	104	0	66	15051
2026-01-19 02:38:55.05	27.93	24.42	-48.0	-59.9	3.8	8.46e-01	0	37	104	0	66	15106
2026-01-19 02:38:59.08	28.04	25.05	-48.0	-59.9	3.8	8.45e-01	0	37	104	0	66	15093
2026-01-19 02:39:03.11	28.16	25.69	-48.0	-59.9	3.8	8.45e-01	0	37	104	0	66	15083
2026-01-19 02:39:07.14	28.28	26.35	-48.0	-59.9	3.8	8.47e-01	0	37	104	0	66	15087
2026-01-19 02:39:11.18	28.40	27.03	-48.0	-59.9	3.8	8.46e-01	0	37	104	0	66	15101
2026-01-19 02:39:15.21	28.53	27.73	-48.0	-59.9	3.8	8.45e-01	0	37	104	0	66	15095
2026-01-19 02:39:19.24	28.66	28.44	-48.0	-59.9	3.8	8.46e-01	0	37	104	0	66	15112
2026-01-19 02:39:23.27	28.80	29.17	-48.0	-59.9	3.8	8.47e-01	0	37	104	0	66	15096
2026-01-19 02:39:27.31	28.94	29.93	-48.0	-59.9	3.8	8.46e-01	0	37	104	0	66	15129
2026-01-19 02:39:31.34	29.09	30.70	-48.0	-59.8	3.8	8.44e-01	0	37	104	0	66	15044
2026-01-19 02:39:35.37	29.25	31.49	-48.0	-59.9	3.8	8.46e-01	0	37	104	0	66	15130
2026-01-19 02:39:39.40	29.41	32.30	-48.0	-59.9	3.8	8.46e-01	0	37	104	0	66	15080
2026-01-19 02:39:43.44	29.59	33.14	-48.0	-59.9	3.8	8.46e-01	0	37	104	0	66	15116
2026-01-19 02:39:47.46	29.77	34.00	-48.0	-59.9	3.8	8.46e-01	0	37	104	0	66	15115
2026-01-19 02:39:51.50	29.96	34.89	-48.0	-59.9	3.8	8.45e-01	0	37	104	0	66	15096
2026-01-19 02:39:55.53	30.15	35.80	-48.0	-59.9	3.8	8.46e-01	0	37	104	0	66	15103
2026-01-19 02:39:59.56	30.36	36.74	-48.0	-59.9	3.8	8.46e-01	0	37	104	0	66	15132
2026-01-19 02:40:03.60	30.58	37.70	-48.0	-59.9	3.8	8.47e-01	0	37	104	0	66	15085
2026-01-19 02:40:07.62	30.82	38.69	-48.0	-59.9	3.8	8.45e-01	0	37	104	0	66	15117
2026-01-19 02:40:11.66	31.07	39.72	-48.0	-59.9	3.8	8.47e-01	0	37	104	0	66	15095
2026-01-19 02:40:15.69	31.33	40.77	-48.0	-59.9	3.8	8.45e-01	0	37	104	0	66	15082
2026-01-19 02:40:19.72	31.61	41.86	-48.0	-59.9	3.8	8.45e-01	0	37	104	0	66	15104
2026-01-19 02:40:23.75	31.91	42.97	-48.0	-59.9	3.8	8.46e-01	0	37	104	0	66	15100
2026-01-19 02:40:27.78	32.22	44.12	-48.0	-59.9	3.8	8.46e-01	0	37	104	0	66	15085
2026-01-19 02:40:31.81	32.57	45.31	-48.0	-59.9	3.8	8.45e-01	0	37	104	0	66	15084
2026-01-19 02:40:35.84	32.93	46.52	-48.0	-59.9	3.8	8.46e-01	0	37	104	0	66	15109
2026-01-19 02:40:39.88	33.33	47.78	-48.0	-59.9	3.8	8.46e-01	0	37	104	0	66	15097
2026-01-19 02:40:43.91	33.76	49.07	-48.1	-59.9	3.8	8.46e-01	0	37	104	0	66	15067
2026-01-19 02:40:47.94	34.22	50.40	-48.0	-59.9	3.8	8.46e-01	0	37	104	0	66	15147
2026-01-19 02:40:51.97	34.73	51.77	-48.0	-59.9	3.8	8.47e-01	0	37	104	0	66	15105
2026-01-19 02:40:56.00	35.28	53.17	-48.0	-59.9	3.8	8.45e-01	0	37	104	0	66	15083
2026-01-19 02:41:00.03	35.89	54.61	-48.0	-59.9	3.8	8.47e-01	0	37	104	0	66	15107
2026-01-19 02:41:04.06	36.57	56.09	-48.0	-59.9	3.8	8.45e-01	0	37	104	0	66	15071
2026-01-19 02:41:08.10	37.32	57.61	-48.0	-59.9	3.8	8.47e-01	0	37	104	0	66	15137
2026-01-19 02:41:12.12	38.15	59.15	-48.0	-59.9	3.8	8.46e-01	0	37	104	0	66	15084
2026-01-19 02:41:16.15	39.09	60.74	-48.0	-59.9	3.8	8.46e-01	0	37	104	0	66	15073
2026-01-19 02:41:20.19	40.16	62.36	-48.0	-59.9	3.8	8.46e-01	0	37	104	0	66	15117
2026-01-19 02:41:24.22	41.38	64.01	-48.0	-59.9	3.8	8.47e-01	0	37	104	0	66	15115
2026-01-19 02:41:28.25	42.78	65.68	-48.0	-59.9	3.8	8.47e-01	0	37	104	0	66	15071
2026-01-19 02:41:32.28	44.41	67.38	-48.0	-59.9	3.8	8.47e-01	0	37	104	0	66	15094
2026-01-19 02:41:36.31	46.33	69.09	-48.0	-59.9	3.8	8.47e-01	0	37	104	0	66	15091
2026-01-19 02:41:40.34	48.62	70.81	-48.0	-59.9	3.8	8.46e-01	0	37	104	0	66	15131
2026-01-19 02:41:44.38	51.40	72.52	-48.0	-59.9	3.8	8.46e-01	0	37	104	0	66	15130
2026-01-19 02:41:48.41	54.80	74.21	-48.0	-59.9	3.8	8.46e-01	0	37	104	0	66	15139
2026-01-19 02:41:52.45	59.05	75.86	-48.0	-59.8	3.8	8.46e-01	0	37	104	0	66	15030
2026-01-19 02:41:56.47	64.40	77.43	-48.0	-59.9	3.8	8.46e-01	0	37	104	0	66	15075
2026-01-19 02:42:00.50	71.27	78.88	-48.0	-59.9	3.8	8.46e-01	0	37	104	0	66	15104
2026-01-19 02:42:04.54	80.11	80.14	-48.0	-59.9	3.8	8.46e-01	0	37	104	0	66	15090
2026-01-19 02:42:08.57	91.21	81.12	-48.0	-59.9	3.8	8.46e-01	0	37	104	0	66	15107
2026-01-19 02:42:12.60	104.45	81.70	-48.0	-59.9	3.8	8.46e-01	0	37	104	0	66	15098
2026-01-19 02:42:16.63	118.80	81.79	-48.0	-59.9	3.8	8.46e-01	0	37	104	0	66	15123
2026-01-19 02:42:20.66	132.61	81.38	-48.0	-59.9	3.8	8.47e-01	0	37	104	0	66	15080
2026-01-19 02:42:24.70	144.58	80.54	-48.0	-59.9	3.8	8.45e-01	0	37	104	0	66	15077
2026-01-19 02:42:28.72	154.18	79.37	-48.0	-59.9	3.8	8.46e-01	0	37	104	0	66	15089
2026-01-19 02:42:32.76	161.74	77.98	-48.0	-59.8	3.8	8.47e-01	0	37	104	0	66	15042
2026-01-19 02:42:36.79	167.60	76.44	-48.0	-59.9	3.8	8.47e-01	0	37	104	0	66	15064
2026-01-19 02:42:40.82	172.22	74.81	-48.0	-59.8	3.8	8.46e-01	0	37	104	0	66	15042
2026-01-19 02:42:44.85	175.89	73.13	-48.0	-59.9	3.8	8.46e-01	0	37	104	0	66	15076
2026-01-19 02:42:48.88	178.88	71.43	-48.0	-59.9	3.8	8.47e-01	0	37	104	0	66	15077
2026-01-19 02:42:52.91	181.33	69.71	-48.0	-59.9	3.8	8.46e-01	0	37	104	0	66	15066
2026-01-19 02:42:56.94	183.37	67.99	-48.0	-59.9	3.8	8.47e-01	0	37	104	0	66	15094
2026-01-19 02:43:00.97	185.11	66.29	-48.0	-59.9	3.8	8.47e-01	0	37	104	0	66	15103
2026-01-19 02:43:05.00	186.59	64.60	-48.0	-59.9	3.8	8.47e-01	0	37	104	0	66	15086
2026-01-19 02:43:09.04	187.87	62.93	-48.0	-59.9	3.8	8.47e-01	0	37	104	0	66	15114
2026-01-19 02:43:13.07	188.99	61.30	-48.0	-59.9	3.8	8.46e-01	0	37	104	0	66	15056
2026-01-19 02:43:17.10	189.97	59.70	-48.0	-59.8	3.8	8.46e-01	0	37	104	0	66	15019
2026-01-19 02:43:21.13	190.84	58.13	-48.0	-59.9	3.8	8.46e-01	0	37	104	0	66	15091
2026-01-19 02:43:25.17	191.62	56.60	-48.0	-59.9	3.8	8.45e-01	0	37	104	0	66	15087
2026-01-19 02:43:29.20	192.32	55.10	-48.0	-59.9	3.8	8.47e-01	0	37	104	0	66	15088
2026-01-19 02:43:33.24	192.95	53.64	-48.0	-59.9	3.8	8.46e-01	0	37	104	0	66	15062
2026-01-19 02:43:37.27	193.53	52.22	-48.0	-59.9	3.8	8.47e-01	0	37	104	0	66	15075
2026-01-19 02:43:41.30	194.05	50.84	-48.0	-59.8	3.8	8.47e-01	0	37	104	0	66	15047
2026-01-19 02:43:45.34	194.53	49.49	-48.0	-59.9	3.8	8.47e-01	0	37	104	0	66	15066
2026-01-19 02:43:49.37	194.97	48.18	-48.0	-59.9	3.8	8.46e-01	0	37	104	0	66	15092
2026-01-19 02:43:53.40	195.38	46.91	-48.0	-59.9	3.8	8.46e-01	0	37	104	0	66	15065
2026-01-19 02:43:57.43	195.75	45.68	-48.0	-59.8	3.8	8.46e-01	0	37	104	0	66	15036
2026-01-19 02:44:01.46	196.10	44.48	-48.0	-59.8	3.8	8.45e-01	0	37	104	0	66	15012
2026-01-19 02:44:05.49	196.43	43.31	-48.0	-59.9	3.8	8.47e-01	0	37	104	0	66	15121
2026-01-19 02:44:09.53	196.73	42.18	-48.0	-59.8	3.8	8.47e-01	0	37	104	0	66	15035
2026-01-19 02:44:13.56	197.02	41.08	-48.0	-59.9	3.8	8.45e-01	0	37	104	0	66	15069
2026-01-19 02:44:17.59	197.29	40.01	-48.0	-59.9	3.8	8.46e-01	0	37	104	0	66	15085
2026-01-19 02:44:21.62	197.54	38.98	-48.0	-59.8	3.8	8.46e-01	0	37	104	0	66	15010
2026-01-19 02:44:25.66	197.78	37.97	-48.0	-59.8	3.8	8.46e-01	0	37	104	0	66	15035
2026-01-19 02:44:29.69	198.00	36.99	-48.0	-59.9	3.8	8.46e-01	0	37	104	0	66	15108
2026-01-19 02:44:33.72	198.21	36.04	-48.0	-59.9	3.8	8.45e-01	0	37	104	0	66	15116
2026-01-19 02:44:37.75	198.41	35.12	-48.0	-59.8	3.8	8.46e-01	0	37	104	0	66	15043
2026-01-19 02:44:41.78	198.60	34.22	-48.0	-59.9	3.8	8.46e-01	0	37	104	0	66	15060
2026-01-19 02:44:45.81	198.79	33.35	-48.0	-59.9	3.8	8.46e-01	0	37	104	0	66	15076
2026-01-19 02:44:49.85	198.96	32.50	-48.0	-59.9	3.8	8.47e-01	0	37	104	0	66	15077
2026-01-19 02:44:53.87	199.13	31.68	-48.0	-59.9	3.8	8.46e-01	0	37	104	0	66	15063
2026-01-19 02:44:57.91	199.28	30.88	-48.0	-59.8	3.8	8.46e-01	0	37	104	0	66	15020
2026-01-19 02:45:01.94	199.44	30.09	-48.0	-59.9	3.8	8.46e-01	0	37	104	0	66	15056
2026-01-19 02:45:05.97	199.58	29.33	-48.0	-59.9	3.8	8.46e-01	0	37	104	0	66	15084
2026-01-19 02:45:10.00	199.72	28.59	-48.0	-59.9	3.8	8.46e-01	0	37	104	0	66	15091
2026-01-19 02:45:14.04	199.85	27.87	-48.0	-59.8	3.8	8.47e-01	0	37	104	0	66	15037
2026-01-19 02:45:18.07	199.98	27.17	-48.0	-59.8	3.8	8.47e-01	0	37	104	0	66	15049
2026-01-19 02:45:22.10	200.11	26.48	-48.0	-59.8	3.8	8.46e-01	0	37	104	0	66	15049
2026-01-19 02:45:26.13	200.23	25.81	-48.0	-59.9	3.8	8.46e-01	0	37	104	0	66	15063
2026-01-19 02:45:30.16	200.34	25.16	-48.0	-59.8	3.8	8.46e-01	0	37	104	0	66	15019
2026-01-19 02:45:34.20	200.45	24.52	-48.0	-59.9	3.8	8.46e-01	0	37	104	0	66	15061
2026-01-19 02:45:38.23	200.56	23.90	-48.0	-59.9	3.8	8.47e-01	0	37	104	0	66	15068
2026-01-19 02:45:42.26	200.66	23.29	-48.0	-59.9	3.8	8.46e-01	0	37	104	0	66	15077
2026-01-19 02:45:46.29	200.76	22.70	-48.0	-59.9	3.8	8.44e-01	0	37	104	0	66	15060
2026-01-19 02:45:50.32	200.86	22.12	-48.0	-59.9	3.8	8.45e-01	0	37	104	0	66	15073
2026-01-19 02:45:54.35	200.95	21.55	-48.0	-59.8	3.8	8.46e-01	0	37	104	0	66	15037
2026-01-19 02:45:58.38	201.04	21.00	-48.0	-59.8	3.8	8.46e-01	0	37	104	0	66	15038
2026-01-19 02:46:02.41	201.13	20.45	-48.0	-59.9	3.8	8.45e-01	0	37	104	0	66	15073
2026-01-19 02:46:06.44	201.22	19.92	-48.0	-59.9	3.8	8.47e-01	0	37	104	0	66	15061
2026-01-19 02:46:10.47	201.30	19.40	-48.0	-59.8	3.8	8.45e-01	0	37	104	0	66	15028
2026-01-19 02:46:14.51	201.39	18.89	-48.0	-59.8	3.8	8.47e-01	0	37	104	0	66	15048
2026-01-19 02:46:18.54	201.46	18.39	-48.0	-59.9	3.8	8.46e-01	0	37	104	0	66	15052
2026-01-19 02:46:22.57	201.54	17.90	-48.0	-59.9	3.8	8.45e-01	0	37	104	0	66	15069
2026-01-19 02:46:26.60	201.62	17.42	-48.0	-59.8	3.8	8.46e-01	0	37	104	0	66	15040
2026-01-19 02:46:30.64	201.69	16.95	-48.0	-59.8	3.8	8.46e-01	0	37	104	0	66	15035
2026-01-19 02:46:34.67	201.76	16.49	-48.0	-59.8	3.8	8.48e-01	0	37	104	0	66	15048
2026-01-19 02:46:38.70	201.83	16.04	-48.0	-59.9	3.8	8.47e-01	0	37	104	0	66	15064
2026-01-19 02:46:42.73	201.90	15.59	-48.0	-59.9	3.8	8.46e-01	0	37	104	0	66	15071
2026-01-19 02:46:46.76	201.97	15.15	-48.0	-59.8	3.8	8.45e-01	0	37	104	0	66	15051
2026-01-19 02:46:50.79	202.03	14.72	-48.0	-59.9	3.8	8.46e-01	0	37	104	0	66	15052
2026-01-19 02:46:54.83	202.10	14.30	-48.0	-59.8	3.8	8.47e-01	0	37	104	0	66	15038
2026-01-19 02:46:58.86	202.16	13.89	-48.0	-59.9	3.8	8.46e-01	0	37	104	0	66	15079
2026-01-19 02:47:02.90	202.22	13.48	-48.0	-59.8	3.8	8.45e-01	0	37	104	0	66	15051
2026-01-19 02:47:06.93	202.28	13.08	-48.0	-59.9	3.8	8.46e-01	0	37	104	0	66	15095
2026-01-19 02:47:10.96	202.34	12.68	-48.0	-59.9	3.8	8.45e-01	0	37	104	0	66	15086
2026-01-19 02:47:15.00	202.40	12.29	-48.0	-59.9	3.8	8.47e-01	0	37	104	0	66	15059
2026-01-19 02:47:19.03	202.45	11.91	-48.0	-59.9	3.8	8.45e-01	0	37	104	0	66	15070
2026-01-19 02:47:23.06	202.51	11.53	-48.0	-59.8	3.8	8.46e-01	0	37	104	0	66	15023
2026-01-19 02:47:27.10	202.56	11.16	-48.0	-59.9	3.8	8.46e-01	0	37	104	0	66	15065
2026-01-19 02:47:31.13	202.61	10.80	-48.0	-59.8	3.8	8.46e-01	0	37	104	0	66	15026
2026-01-19 02:47:35.17	202.67	10.44	-48.0	-59.8	3.8	8.46e-01	0	37	104	0	66	15005
2026-01-19 02:47:39.20	202.72	10.08	-48.0	-59.8	3.8	8.46e-01	0	37	104	0	66	15037
2026-01-19 02:47:43.23	202.77	9.73	-48.0	-59.8	3.8	8.46e-01	0	37	104	0	66	15043
2026-01-19 02:47:47.26	202.82	9.39	-48.0	-59.9	3.8	8.47e-01	0	37	104	0	66	15053
2026-01-19 02:47:51.29	202.87	9.05	-48.0	-59.9	3.8	8.46e-01	0	37	104	0	66	15092
2026-01-19 02:47:55.32	202.91	8.71	-48.0	-59.8	3.8	8.46e-01	0	37	104	0	66	15041
2026-01-19 02:47:59.36	202.96	8.38	-48.0	-59.9	3.8	8.46e-01	0	37	104	0	66	15079
2026-01-19 02:48:03.38	203.01	8.06	-48.0	-59.9	3.8	8.46e-01	0	37	104	0	66	15056
2026-01-19 02:48:07.42	203.05	7.73	-48.0	-59.9	3.8	8.46e-01	0	37	104	0	66	15063
2026-01-19 02:48:11.45	203.10	7.41	-48.0	-59.9	3.8	8.47e-01	0	37	104	0	66	15053
2026-01-19 02:48:15.48	203.14	7.10	-48.0	-59.9	3.8	8.47e-01	0	37	104	0	66	15093
2026-01-19 02:48:19.51	203.19	6.79	-48.0	-59.9	3.8	8.46e-01	0	37	104	0	66	15065
2026-01-19 02:48:23.54	203.23	6.48	-48.0	-59.8	3.8	8.46e-01	0	37	104	0	66	15030
2026-01-19 02:48:27.58	203.27	6.18	-48.0	-59.8	3.8	8.47e-01	0	37	104	0	66	15047
2026-01-19 02:48:31.61	203.31	5.88	-48.0	-59.8	3.8	8.47e-01	0	37	104	0	66	15022
2026-01-19 02:48:35.64	203.36	5.58	-48.0	-59.8	3.8	8.47e-01	0	37	104	0	66	15042
2026-01-19 02:48:39.67	203.40	5.29	-48.0	-59.8	3.8	8.46e-01	0	37	104	0	66	15036
2026-01-19 02:48:43.70	203.44	5.00	-48.0	-59.8	3.8	8.46e-01	0	37	104	0	66	14981
2026-01-19 02:48:47.74	203.48	4.71	-48.0	-59.9	3.8	8.46e-01	0	37	104	0	66	15067
2026-01-19 02:48:51.77	203.52	4.43	-48.0	-59.9	3.8	8.46e-01	0	37	104	0	66	15057
2026-01-19 02:48:55.80	203.55	4.15	-48.0	-59.8	3.8	8.46e-01	0	37	104	0	66	15025
2026-01-19 02:48:59.83	203.59	3.87	-48.0	-59.8	3.8	8.46e-01	0	37	104	0	66	15041
2026-01-19 02:49:03.86	203.63	3.59	-48.0	-59.8	3.8	8.47e-01	0	37	104	0	66	15013
2026-01-19 02:49:07.89	203.67	3.32	-48.0	-59.8	3.8	8.46e-01	0	37	104	0	66	15042
2026-01-19 02:49:11.92	203.70	3.05	-48.0	-59.8	3.8	8.46e-01	0	37	104	0	66	15046
2026-01-19 02:49:15.95	203.74	2.78	-48.0	-59.8	3.8	8.47e-01	0	37	104	0	66	15036
2026-01-19 02:49:19.98	203.78	2.52	-48.0	-59.8	3.8	8.46e-01	0	37	104	0	66	15020
2026-01-19 02:49:24.01	203.81	2.26	-48.0	-59.8	3.8	8.45e-01	0	37	104	0	66	15007
2026-01-19 02:49:28.05	203.85	2.00	-48.0	-59.8	3.8	8.46e-01	0	37	104	0	66	14994

#Closed at: 2026-01-19 02:49:30
#Recorded file [0 MB]: D:/lorett/data/31041_260119_053501.dat