passes_logs/2026/01/19/R3.2S_Murmansk/R3.2S_Murmansk__20260119_124311_JILIN-01_KUANFU_02B_6_rec.log

#Pass ID: 20260119_124311_JILIN-01 KUANFU 02B 6
#Satellite: JILIN-01 KUANFU 02B 6
#Configuration: 01B_900M
#almurnet v.1.7.20251203
#Start time: 2026-01-19 12:47:00

#Version: 2.2.20231116
#Station: R3.2S_Murmansk
#Location: 33.079688 lon 68.888172 lat
#TLE: 1 61194U 24169F   26018.91798334  .00005236  00000+0  32787-3 0  9999
#TLE: 2 61194  97.5721 110.6766 0017916 144.1764 216.0670 15.09677582 73329

#Time	Az	El	Level	Level2	SNR	BER	BlckErr	Temp	State	Recorded	gain1	gain2
2026-01-19 12:47:00.32	347.32	19.36	-54.1	-66.1	3.8	8.45e-01	0	37	0	0	79	14614
2026-01-19 12:47:02.34	346.66	19.49	-54.4	-56.6	6.2	0.00e+00	0	38	104	0	80	18448
2026-01-19 12:47:04.35	345.99	19.63	-54.4	-56.6	6.2	0.00e+00	0	38	104	0	80	18404
2026-01-19 12:47:06.37	345.32	19.76	-54.4	-56.5	6.2	0.00e+00	0	38	104	0	80	18312
2026-01-19 12:47:08.39	344.63	19.88	-54.4	-56.5	6.2	0.00e+00	0	38	104	0	80	18251
2026-01-19 12:47:10.40	343.95	20.00	-54.4	-56.5	6.2	0.00e+00	0	39	104	0	80	18248
2026-01-19 12:47:12.42	343.25	20.12	-54.4	-56.5	6.2	0.00e+00	0	39	104	0	80	18266
2026-01-19 12:47:14.43	342.55	20.24	-54.4	-56.5	6.2	0.00e+00	0	38	104	0	80	18282
2026-01-19 12:47:16.45	341.85	20.35	-54.4	-56.5	6.2	0.00e+00	0	39	104	0	80	18260
2026-01-19 12:47:18.47	341.13	20.46	-54.4	-56.5	6.2	0.00e+00	0	39	104	0	80	18297
2026-01-19 12:47:20.49	340.41	20.57	-54.3	-56.5	6.2	0.00e+00	0	39	104	0	80	18190
2026-01-19 12:47:22.50	339.69	20.67	-54.4	-56.5	6.2	0.00e+00	0	39	104	0	80	18285
2026-01-19 12:47:24.52	338.96	20.77	-54.3	-56.5	6.2	0.00e+00	0	39	104	0	80	18225
2026-01-19 12:47:26.53	338.23	20.87	-54.3	-56.5	6.2	0.00e+00	0	39	104	0	80	18227
2026-01-19 12:47:28.55	337.49	20.96	-54.3	-56.5	6.2	0.00e+00	0	39	104	0	80	18242
2026-01-19 12:47:30.57	336.74	21.04	-54.3	-56.4	6.2	0.00e+00	0	39	104	0	80	18153
2026-01-19 12:47:32.59	335.99	21.12	-54.3	-56.5	6.2	0.00e+00	0	39	104	0	80	18203
2026-01-19 12:47:34.60	335.24	21.20	-54.3	-56.4	6.2	0.00e+00	0	39	104	0	80	18164
2026-01-19 12:47:36.62	334.49	21.27	-54.3	-56.4	6.2	0.00e+00	0	39	104	0	80	18099
2026-01-19 12:47:38.63	333.73	21.34	-54.3	-56.4	6.2	0.00e+00	0	39	104	0	80	18126
2026-01-19 12:47:40.65	332.96	21.40	-54.3	-56.4	6.2	0.00e+00	0	39	104	0	80	18161
2026-01-19 12:47:42.66	332.19	21.46	-54.3	-56.4	6.2	0.00e+00	0	39	104	0	80	18098
2026-01-19 12:47:44.68	331.42	21.52	-54.3	-56.4	6.2	0.00e+00	0	39	104	0	80	18145
2026-01-19 12:47:46.69	330.65	21.57	-54.5	-56.7	6.2	0.00e+00	0	39	104	0	80	18656
2026-01-19 12:47:48.71	329.87	21.61	-54.6	-56.7	6.2	0.00e+00	0	39	104	0	80	18790
2026-01-19 12:47:50.73	329.09	21.65	-54.7	-56.8	6.2	0.00e+00	0	39	104	0	80	18904
2026-01-19 12:47:52.74	328.31	21.68	-54.6	-56.7	6.2	0.00e+00	0	39	104	0	80	18800
2026-01-19 12:47:54.76	327.52	21.71	-54.6	-56.7	6.2	0.00e+00	0	39	104	0	80	18674
2026-01-19 12:47:56.78	326.74	21.74	-54.4	-56.6	6.2	0.00e+00	0	39	104	0	80	18478
2026-01-19 12:47:58.79	325.95	21.75	-54.3	-56.5	6.2	0.00e+00	0	39	104	0	80	18256
2026-01-19 12:48:00.81	325.16	21.77	-54.0	-56.0	6.2	0.00e+00	0	39	104	0	78	19408
2026-01-19 12:48:02.82	324.38	21.78	-54.3	-56.4	6.2	0.00e+00	0	39	104	0	79	19122
2026-01-19 12:48:04.84	323.59	21.78	-54.2	-56.3	6.2	0.00e+00	0	39	104	0	79	18973
2026-01-19 12:48:06.85	322.80	21.78	-54.1	-56.3	6.2	0.00e+00	0	39	104	0	79	18873
2026-01-19 12:48:08.87	322.01	21.77	-54.1	-56.3	6.2	0.00e+00	0	39	104	0	79	18893
2026-01-19 12:48:10.89	321.22	21.75	-54.1	-56.2	6.2	0.00e+00	0	40	104	0	79	18771
2026-01-19 12:48:12.91	320.43	21.74	-54.1	-56.2	6.2	0.00e+00	0	40	104	0	79	18817
2026-01-19 12:48:14.92	319.65	21.71	-54.1	-56.2	6.2	0.00e+00	0	40	104	0	79	18772
2026-01-19 12:48:16.94	318.86	21.68	-54.1	-56.2	6.2	0.00e+00	0	39	104	0	79	18703
2026-01-19 12:48:18.96	318.08	21.65	-54.1	-56.2	6.2	0.00e+00	0	40	104	0	79	18663
2026-01-19 12:48:20.97	317.30	21.61	-54.1	-56.2	6.2	0.00e+00	0	39	104	0	79	18731
2026-01-19 12:48:22.99	316.52	21.57	-54.1	-56.2	6.2	0.00e+00	0	40	104	0	79	18724
2026-01-19 12:48:25.01	315.74	21.52	-54.1	-56.2	6.2	0.00e+00	0	40	104	0	79	18734
2026-01-19 12:48:27.02	314.97	21.47	-54.1	-56.2	6.2	0.00e+00	0	40	104	0	79	18716
2026-01-19 12:48:29.04	314.20	21.41	-54.1	-56.2	6.2	0.00e+00	0	39	104	0	79	18735
2026-01-19 12:48:31.05	313.43	21.34	-54.1	-56.2	6.2	0.00e+00	0	40	104	0	79	18791
2026-01-19 12:48:33.07	312.67	21.28	-54.1	-56.2	6.2	0.00e+00	0	40	104	0	79	18776
2026-01-19 12:48:35.08	311.91	21.20	-54.1	-56.2	6.2	0.00e+00	0	40	104	0	79	18713
2026-01-19 12:48:37.10	311.15	21.13	-54.1	-56.2	6.2	0.00e+00	0	40	104	0	79	18768
2026-01-19 12:48:39.11	310.41	21.04	-54.1	-56.2	6.2	0.00e+00	0	40	104	0	79	18771
2026-01-19 12:48:41.13	309.66	20.96	-54.1	-56.2	6.2	0.00e+00	0	40	104	0	79	18726
2026-01-19 12:48:43.15	308.91	20.87	-54.1	-56.2	6.2	0.00e+00	0	40	104	0	79	18717
2026-01-19 12:48:45.16	308.18	20.77	-54.1	-56.2	6.2	0.00e+00	0	40	104	0	79	18694
2026-01-19 12:48:47.18	307.45	20.67	-54.1	-56.2	6.2	0.00e+00	0	39	104	0	79	18724
2026-01-19 12:48:49.19	306.72	20.57	-54.1	-56.2	6.2	0.00e+00	0	40	104	0	79	18680
2026-01-19 12:48:51.21	306.00	20.47	-54.1	-56.2	6.2	0.00e+00	0	40	104	0	79	18737
2026-01-19 12:48:53.23	305.28	20.36	-54.0	-56.2	6.2	0.00e+00	0	40	104	0	79	18645
2026-01-19 12:48:55.24	304.58	20.24	-54.1	-56.2	6.2	0.00e+00	0	40	104	0	79	18719
2026-01-19 12:48:57.26	303.87	20.13	-54.0	-56.2	6.2	0.00e+00	0	40	104	0	79	18680
2026-01-19 12:48:59.27	303.18	20.01	-54.1	-56.2	6.2	0.00e+00	0	40	104	0	79	18735
2026-01-19 12:49:01.29	302.48	19.88	-54.0	-56.2	6.2	0.00e+00	0	40	104	0	79	18671
2026-01-19 12:49:03.30	301.80	19.75	-54.0	-56.2	6.2	0.00e+00	0	40	104	0	79	18680
2026-01-19 12:49:05.32	301.12	19.62	-54.0	-56.1	6.2	0.00e+00	0	40	104	0	79	18601
2026-01-19 12:49:07.33	300.45	19.49	-54.0	-56.2	6.2	0.00e+00	0	40	104	0	79	18684
2026-01-19 12:49:09.35	299.78	19.36	-54.0	-56.2	6.2	0.00e+00	0	40	104	0	79	18643
2026-01-19 12:49:11.37	299.12	19.22	-54.0	-56.2	6.2	0.00e+00	0	40	104	0	79	18679
2026-01-19 12:49:13.38	298.47	19.08	-54.0	-56.2	6.2	0.00e+00	0	40	104	0	79	18642
2026-01-19 12:49:15.40	297.83	18.93	-54.1	-56.2	6.2	0.00e+00	0	40	104	0	79	18715
2026-01-19 12:49:17.42	297.19	18.79	-54.0	-56.2	6.2	0.00e+00	0	40	104	0	79	18686
2026-01-19 12:49:19.44	296.56	18.64	-54.1	-56.2	6.2	0.00e+00	0	40	104	0	79	18715
2026-01-19 12:49:21.45	295.93	18.49	-54.0	-56.2	6.2	0.00e+00	0	40	104	0	79	18725
2026-01-19 12:49:23.46	295.32	18.34	-54.1	-56.2	6.2	0.00e+00	0	40	104	0	79	18710
2026-01-19 12:49:25.48	294.71	18.19	-54.0	-56.2	6.2	0.00e+00	0	40	104	0	79	18731
2026-01-19 12:49:27.49	294.11	18.03	-54.1	-56.2	6.2	0.00e+00	0	40	104	0	79	18760
2026-01-19 12:49:29.51	293.51	17.87	-54.0	-56.2	6.2	0.00e+00	0	40	104	0	79	18622
2026-01-19 12:49:31.52	292.92	17.72	-54.0	-56.2	6.2	0.00e+00	0	40	104	0	79	18680
2026-01-19 12:49:33.54	292.34	17.55	-54.0	-56.2	6.2	0.00e+00	0	40	104	0	79	18658
2026-01-19 12:49:35.56	291.76	17.39	-54.1	-56.2	6.2	0.00e+00	0	40	104	0	79	18749
2026-01-19 12:49:37.57	291.20	17.23	-54.0	-56.2	6.2	0.00e+00	0	40	104	0	79	18646
2026-01-19 12:49:39.59	290.63	17.07	-54.1	-56.2	6.2	0.00e+00	0	40	104	0	79	18679
2026-01-19 12:49:41.60	290.08	16.90	-54.0	-56.2	6.2	0.00e+00	0	40	104	0	79	18627
2026-01-19 12:49:43.62	289.53	16.74	-54.0	-56.2	6.2	0.00e+00	0	40	104	0	79	18651
2026-01-19 12:49:45.64	288.99	16.57	-53.9	-56.1	6.2	0.00e+00	0	40	104	0	79	18563
2026-01-19 12:49:47.65	288.46	16.40	-54.0	-56.1	6.2	0.00e+00	0	40	104	0	79	18578
2026-01-19 12:49:49.67	287.93	16.23	-53.9	-56.1	6.2	0.00e+00	0	40	104	0	79	18547
2026-01-19 12:49:51.69	287.41	16.06	-54.0	-56.1	6.2	0.00e+00	0	40	104	0	79	18560
2026-01-19 12:49:53.70	286.90	15.89	-53.9	-56.0	6.2	0.00e+00	0	40	104	0	79	18335
2026-01-19 12:49:55.72	286.40	15.72	-54.0	-56.1	6.2	0.00e+00	0	40	104	0	79	18503
2026-01-19 12:49:57.74	285.90	15.55	-53.9	-56.0	6.2	0.00e+00	0	40	104	0	79	18350
2026-01-19 12:49:59.76	285.40	15.38	-53.9	-56.0	6.2	0.00e+00	0	40	104	0	79	18384
2026-01-19 12:50:01.77	284.92	15.21	-53.9	-56.0	6.2	0.00e+00	0	40	104	0	79	18303
2026-01-19 12:50:03.79	284.44	15.04	-53.9	-56.1	6.2	0.00e+00	0	40	104	0	79	18400
2026-01-19 12:50:05.81	283.96	14.86	-53.8	-56.0	6.2	0.00e+00	0	40	104	0	79	18265
2026-01-19 12:50:07.82	283.50	14.69	-53.9	-56.0	6.2	0.00e+00	0	40	104	0	79	18321
2026-01-19 12:50:09.84	283.04	14.52	-53.8	-56.0	6.2	0.00e+00	0	40	104	0	79	18260
2026-01-19 12:50:11.85	282.59	14.35	-53.9	-56.0	6.2	0.00e+00	0	40	104	0	79	18329
2026-01-19 12:50:13.87	282.14	14.17	-53.8	-56.0	6.2	0.00e+00	0	40	104	0	79	18263
2026-01-19 12:50:15.89	281.69	14.00	-53.9	-56.0	6.2	0.00e+00	0	40	104	0	79	18252
2026-01-19 12:50:17.90	281.26	13.83	-53.8	-56.0	6.2	0.00e+00	0	40	104	0	79	18182
2026-01-19 12:50:19.92	280.83	13.66	-53.8	-56.0	6.2	0.00e+00	0	40	104	0	79	18248
2026-01-19 12:50:21.93	280.41	13.49	-53.7	-55.9	6.2	0.00e+00	0	40	104	0	79	18113
2026-01-19 12:50:23.95	279.99	13.31	-53.8	-55.9	6.2	0.00e+00	0	40	104	0	79	18115
2026-01-19 12:50:25.97	279.57	13.14	-53.7	-55.9	6.2	0.00e+00	0	40	104	0	79	18046
2026-01-19 12:50:27.98	279.17	12.97	-53.8	-55.9	6.2	0.00e+00	0	40	104	0	79	18162
2026-01-19 12:50:30.00	278.77	12.80	-53.7	-55.9	6.2	0.00e+00	0	40	104	0	79	18067
2026-01-19 12:50:32.02	278.37	12.63	-53.8	-55.9	6.2	0.00e+00	0	40	104	0	79	18069
2026-01-19 12:50:34.04	277.98	12.46	-53.7	-55.8	6.2	0.00e+00	0	40	104	0	79	17955
2026-01-19 12:50:36.05	277.60	12.29	-53.7	-55.9	6.2	0.00e+00	0	40	104	0	79	18027
2026-01-19 12:50:38.07	277.22	12.12	-53.7	-55.8	6.2	0.00e+00	0	40	104	0	79	17926
2026-01-19 12:50:40.09	276.84	11.95	-53.7	-55.9	6.2	0.00e+00	0	40	104	0	79	17987
2026-01-19 12:50:42.11	276.47	11.78	-53.7	-55.8	6.2	0.00e+00	0	40	104	0	79	17913
2026-01-19 12:50:44.12	276.11	11.61	-53.7	-55.8	6.2	0.00e+00	0	40	104	0	79	17963
2026-01-19 12:50:46.14	275.75	11.44	-53.6	-55.8	6.2	0.00e+00	0	40	104	0	79	17852
2026-01-19 12:50:48.15	275.39	11.28	-53.7	-55.8	6.2	0.00e+00	0	40	104	0	79	17864
2026-01-19 12:50:50.17	275.04	11.11	-53.6	-55.8	6.2	0.00e+00	0	40	104	0	79	17771
2026-01-19 12:50:52.19	274.70	10.94	-53.6	-55.8	6.2	0.00e+00	0	40	104	0	79	17809
2026-01-19 12:50:54.21	274.36	10.78	-53.5	-55.7	6.2	0.00e+00	0	40	104	0	79	17665
2026-01-19 12:50:56.23	274.02	10.61	-53.6	-55.7	6.2	0.00e+00	0	40	104	0	79	17716
2026-01-19 12:50:58.24	273.69	10.45	-53.5	-55.7	6.2	0.00e+00	0	40	104	0	79	17624
2026-01-19 12:51:00.26	273.36	10.28	-53.6	-55.7	6.2	0.00e+00	0	40	104	0	79	17662
2026-01-19 12:51:02.27	273.04	10.12	-53.5	-55.6	6.2	0.00e+00	0	40	104	0	79	17493
2026-01-19 12:51:04.29	272.72	9.96	-53.5	-55.7	6.2	0.00e+00	0	40	104	0	79	17596
2026-01-19 12:51:06.31	272.41	9.80	-53.5	-55.6	6.2	0.00e+00	0	40	104	0	78	18533
2026-01-19 12:51:08.32	272.10	9.64	-53.5	-55.6	6.2	0.00e+00	0	40	104	0	78	18541
2026-01-19 12:51:10.34	271.80	9.47	-53.4	-55.6	6.2	0.00e+00	0	40	104	0	78	18469
2026-01-19 12:51:12.35	271.50	9.32	-53.4	-55.6	6.2	0.00e+00	0	40	104	0	78	18418
2026-01-19 12:51:14.37	271.20	9.16	-53.3	-55.4	6.2	0.00e+00	0	40	104	0	78	18151
2026-01-19 12:51:16.38	270.91	9.00	-53.2	-55.4	6.2	0.00e+00	0	40	104	0	78	18089
2026-01-19 12:51:18.40	270.62	8.84	-52.8	-54.9	6.2	0.00e+00	0	40	104	0	77	18151
2026-01-19 12:51:20.42	270.33	8.68	-52.4	-54.5	6.2	0.00e+00	0	40	104	0	76	18318
2026-01-19 12:51:22.43	270.05	8.53	-52.2	-54.3	6.2	0.00e+00	0	40	104	0	76	17839
2026-01-19 12:51:24.45	269.77	8.37	-51.9	-54.1	6.2	0.00e+00	0	40	104	0	75	18449
2026-01-19 12:51:26.47	269.50	8.22	-52.0	-54.1	6.2	0.00e+00	0	40	104	0	75	18570
2026-01-19 12:51:28.48	269.23	8.06	-51.9	-54.0	6.2	0.00e+00	0	40	104	0	75	18229
2026-01-19 12:51:30.50	268.96	7.91	-51.8	-54.0	6.2	0.00e+00	0	40	104	0	75	18263
2026-01-19 12:51:32.51	268.70	7.75	-51.8	-54.0	6.2	0.00e+00	0	40	104	0	75	18233
2026-01-19 12:51:34.53	268.44	7.60	-52.0	-54.2	6.2	0.00e+00	0	40	104	0	75	18738
2026-01-19 12:51:36.54	268.18	7.45	-52.3	-54.5	6.2	0.00e+00	0	40	104	0	75	19273
2026-01-19 12:51:38.56	267.93	7.30	-52.4	-54.6	6.2	0.00e+00	0	40	104	0	75	19508
2026-01-19 12:51:40.58	267.68	7.15	-52.6	-54.8	6.2	0.00e+00	0	40	104	0	75	20002
2026-01-19 12:51:42.59	267.43	7.00	-52.7	-54.8	6.2	0.00e+00	0	40	104	0	76	19009
2026-01-19 12:51:44.61	267.18	6.85	-52.8	-55.0	6.2	0.00e+00	0	40	104	0	76	19382
2026-01-19 12:51:46.62	266.94	6.70	-52.9	-55.0	6.2	0.00e+00	0	40	104	0	76	19336
2026-01-19 12:51:48.64	266.71	6.56	-52.9	-55.1	6.2	0.00e+00	0	40	104	0	76	19647
2026-01-19 12:51:50.66	266.47	6.41	-53.0	-55.1	6.2	0.00e+00	0	40	104	0	76	19685
2026-01-19 12:51:52.67	266.24	6.26	-53.0	-55.1	6.2	0.00e+00	0	40	104	0	76	19667
2026-01-19 12:51:54.69	266.01	6.12	-53.0	-55.2	6.2	0.00e+00	0	40	104	0	76	19742
2026-01-19 12:51:56.71	265.78	5.97	-53.0	-55.1	6.2	0.00e+00	0	40	104	0	76	19661
2026-01-19 12:51:58.72	265.56	5.83	-53.0	-55.2	6.2	0.00e+00	0	40	104	0	76	19779
2026-01-19 12:52:00.74	265.34	5.69	-52.9	-55.1	6.2	0.00e+00	0	40	104	0	76	19516
2026-01-19 12:52:02.75	265.12	5.54	-53.0	-55.1	6.2	0.00e+00	0	40	104	0	76	19630
2026-01-19 12:52:04.77	264.91	5.40	-52.9	-55.0	6.2	0.00e+00	0	40	104	0	76	19436
2026-01-19 12:52:06.78	264.69	5.26	-52.9	-55.1	6.2	0.00e+00	0	40	104	0	76	19574
2026-01-19 12:52:08.80	264.48	5.12	-52.8	-55.0	6.2	0.00e+00	0	40	104	0	76	19291
2026-01-19 12:52:10.81	264.28	4.98	-52.9	-55.1	6.2	0.00e+00	0	40	104	0	76	19488
2026-01-19 12:52:12.83	264.07	4.84	-53.6	-55.7	6.2	0.00e+00	0	40	104	0	77	19860
2026-01-19 12:52:14.85	263.87	4.70	-53.9	-56.1	6.2	0.00e+00	0	40	104	0	78	19490
2026-01-19 12:52:16.86	263.67	4.56	-54.1	-56.2	6.2	0.00e+00	0	40	104	0	78	19881
2026-01-19 12:52:18.88	263.47	4.43	-54.3	-56.4	6.2	0.00e+00	0	40	104	0	79	19136
2026-01-19 12:52:20.90	263.28	4.29	-54.4	-56.5	6.2	0.00e+00	0	40	104	0	79	19397
2026-01-19 12:52:22.91	263.08	4.15	-54.4	-56.6	6.2	0.00e+00	0	40	104	0	79	19488
2026-01-19 12:52:24.93	262.89	4.02	-54.5	-56.6	6.2	0.00e+00	0	40	104	0	79	19672
2026-01-19 12:52:26.95	262.70	3.88	-54.6	-56.7	6.2	0.00e+00	0	40	104	0	79	19896
2026-01-19 12:52:28.97	262.52	3.75	-54.6	-56.8	6.2	0.00e+00	0	40	104	0	79	19970
2026-01-19 12:52:30.98	262.33	3.62	-54.7	-56.8	6.2	0.00e+00	0	40	104	0	79	20056
2026-01-19 12:52:33.00	262.15	3.48	-54.6	-56.8	6.2	0.00e+00	0	40	104	0	79	19944
2026-01-19 12:52:35.01	261.97	3.35	-54.6	-56.7	6.2	0.00e+00	0	40	104	0	79	19830
2026-01-19 12:52:37.03	261.79	3.22	-54.5	-56.7	6.2	0.00e+00	0	40	104	0	79	19784
2026-01-19 12:52:39.05	261.62	3.09	-54.5	-56.7	6.2	0.00e+00	0	40	104	0	79	19728
2026-01-19 12:52:41.07	261.44	2.96	-54.5	-56.7	6.2	0.00e+00	0	40	104	0	79	19732
2026-01-19 12:52:43.09	261.27	2.83	-54.5	-56.7	6.2	0.00e+00	0	40	104	0	79	19767
2026-01-19 12:52:45.11	261.10	2.70	-54.5	-56.6	6.2	0.00e+00	0	40	104	0	79	19678
2026-01-19 12:52:47.12	260.93	2.57	-54.5	-56.6	6.2	0.00e+00	0	40	104	0	79	19616
2026-01-19 12:52:49.14	260.77	2.44	-54.5	-56.6	6.2	0.00e+00	0	40	104	0	79	19651
2026-01-19 12:52:51.16	260.60	2.31	-54.5	-56.6	6.2	0.00e+00	0	40	104	0	79	19596
2026-01-19 12:52:53.17	260.44	2.18	-54.5	-56.6	6.2	0.00e+00	0	40	104	0	79	19593
2026-01-19 12:52:55.19	260.28	2.06	-54.4	-56.6	6.2	0.00e+00	0	40	104	0	79	19595
2026-01-19 12:52:57.21	260.12	1.93	-54.4	-56.6	6.2	0.00e+00	0	40	104	0	79	19566

#Closed at: 2026-01-19 12:52:59
#Recorded file [0 MB]: D:/lorett/data/31041_260119_154700.dat