passes_logs/2026/01/19/R3.2S_Murmansk/R3.2S_Murmansk__20260119_212549_JL1KF02B04_rec.log

#Pass ID: 20260119_212549_JL1KF02B04
#Satellite: JL1KF02B04
#Configuration: 01B_900M
#almurnet v.1.7.20251203
#Start time: 2026-01-19 21:25:49

#Version: 2.2.20231116
#Station: R3.2S_Murmansk
#Location: 33.079688 lon 68.888172 lat
#TLE: 1 61189U 24169A   26019.28730990  .00004617  00000+0  29209-3 0  9995
#TLE: 2 61189  97.5741 110.9565 0007220 153.7673 206.3922 15.09476574 73361

#Time	Az	El	Level	Level2	SNR	BER	BlckErr	Temp	State	Recorded	gain1	gain2
2026-01-19 21:25:49.69	200.42	1.99	-53.0	-55.1	6.2	0.00e+00	0	39	0	0	77	18447
2026-01-19 21:25:52.72	200.65	2.19	-53.0	-55.1	6.2	0.00e+00	0	39	104	0	77	18465
2026-01-19 21:25:55.75	200.88	2.38	-52.9	-55.1	6.2	0.00e+00	0	39	104	0	77	18460
2026-01-19 21:25:58.77	201.12	2.57	-53.0	-55.1	6.2	0.00e+00	0	39	104	0	77	18526
2026-01-19 21:26:01.79	201.35	2.77	-53.0	-55.1	6.2	0.00e+00	0	39	104	0	77	18442
2026-01-19 21:26:04.82	201.59	2.96	-53.0	-55.1	6.2	0.00e+00	0	39	104	0	77	18458
2026-01-19 21:26:07.84	201.84	3.16	-53.0	-55.1	6.2	0.00e+00	0	39	104	0	77	18416
2026-01-19 21:26:10.87	202.09	3.36	-52.9	-55.1	6.2	0.00e+00	0	40	104	0	77	18408
2026-01-19 21:26:13.89	202.34	3.56	-52.9	-55.1	6.2	0.00e+00	0	39	104	0	77	18453
2026-01-19 21:26:16.91	202.60	3.76	-52.9	-55.1	6.2	0.00e+00	0	40	104	0	77	18427
2026-01-19 21:26:19.94	202.86	3.96	-52.9	-55.1	6.2	0.00e+00	0	39	104	0	77	18415
2026-01-19 21:26:22.96	203.12	4.17	-52.9	-55.1	6.2	0.00e+00	0	40	104	0	77	18445
2026-01-19 21:26:25.99	203.39	4.38	-52.9	-55.1	6.2	0.00e+00	0	40	104	0	77	18450
2026-01-19 21:26:29.01	203.67	4.58	-52.9	-55.1	6.2	0.00e+00	0	40	104	0	77	18393
2026-01-19 21:26:32.03	203.95	4.79	-52.9	-55.0	6.2	0.00e+00	0	40	104	0	77	18367
2026-01-19 21:26:35.06	204.23	5.01	-52.9	-55.1	6.2	0.00e+00	0	40	104	0	77	18450
2026-01-19 21:26:38.08	204.52	5.22	-52.9	-55.1	6.2	0.00e+00	0	40	104	0	77	18455
2026-01-19 21:26:41.10	204.81	5.43	-53.0	-55.2	6.2	0.00e+00	0	40	104	0	77	18657
2026-01-19 21:26:44.13	205.11	5.65	-53.1	-55.2	6.2	0.00e+00	0	40	104	0	77	18783
2026-01-19 21:26:47.15	205.42	5.87	-53.0	-55.1	6.2	0.00e+00	0	40	104	0	77	18447
2026-01-19 21:26:50.17	205.73	6.09	-53.0	-55.1	6.2	0.00e+00	0	40	104	0	77	18537
2026-01-19 21:26:53.20	206.04	6.31	-53.1	-55.3	6.2	0.00e+00	0	40	104	0	77	18845
2026-01-19 21:26:56.22	206.36	6.54	-53.2	-55.3	6.2	0.00e+00	0	40	104	0	77	18948
2026-01-19 21:26:59.24	206.69	6.76	-53.0	-55.2	6.2	0.00e+00	0	41	104	0	77	18696
2026-01-19 21:27:02.27	207.02	6.99	-53.1	-55.2	6.2	0.00e+00	0	41	104	0	77	18810
2026-01-19 21:27:05.29	207.36	7.22	-53.1	-55.3	6.2	0.00e+00	0	41	104	0	77	18941
2026-01-19 21:27:08.32	207.70	7.45	-53.2	-55.4	6.2	0.00e+00	0	40	104	0	77	19097
2026-01-19 21:27:11.34	208.05	7.68	-53.1	-55.3	6.2	0.00e+00	0	40	104	0	77	18910
2026-01-19 21:27:14.36	208.41	7.92	-53.2	-55.3	6.2	0.00e+00	0	41	104	0	77	18972
2026-01-19 21:27:17.39	208.78	8.16	-53.2	-55.4	6.2	0.00e+00	0	41	104	0	77	19114
2026-01-19 21:27:20.41	209.15	8.39	-53.3	-55.5	6.2	0.00e+00	0	41	104	0	77	19294
2026-01-19 21:27:23.43	209.53	8.64	-47.3	-47.7	6.6	0.00e+00	0	40	104	0	66	14830
2026-01-19 21:27:26.46	209.92	8.88	-47.1	-47.6	6.7	0.00e+00	0	40	104	0	65	15560
2026-01-19 21:27:29.48	210.31	9.12	-47.2	-47.7	6.7	0.00e+00	0	41	104	0	66	14833
2026-01-19 21:27:32.50	210.71	9.37	-48.3	-48.9	6.5	0.00e+00	0	41	104	0	68	15184
2026-01-19 21:27:35.53	211.12	9.62	-46.3	-46.6	7.2	0.00e+00	0	40	104	0	64	14749
2026-01-19 21:27:38.55	211.54	9.87	-34.3	-34.1	15.8	1.11e-04	0	41	104	0	40	13900
2026-01-19 21:27:41.58	211.97	10.13	-32.6	-32.4	18.0	0.00e+00	0	41	0	327155712	37	13507
2026-01-19 21:27:44.60	212.40	10.38	-32.1	-31.9	18.2	0.00e+00	0	41	0	679477248	36	13555
2026-01-19 21:27:47.62	212.84	10.64	-29.3	-29.1	17.8	0.00e+00	0	41	0	1015021568	30	13897
2026-01-19 21:27:50.65	213.30	10.90	-29.1	-28.9	17.8	1.90e-06	0	41	0	1350565888	30	13610
2026-01-19 21:27:53.68	213.76	11.17	-29.1	-28.9	17.9	0.00e+00	0	41	0	1686110208	29	14336
2026-01-19 21:27:56.70	214.23	11.43	-28.9	-28.8	17.9	1.90e-06	0	41	0	2038431744	29	14155
2026-01-19 21:27:59.72	214.72	11.70	-28.8	-28.6	17.9	0.00e+00	0	41	0	2373976064	29	13933
2026-01-19 21:28:02.75	215.21	11.97	-28.8	-28.6	17.9	0.00e+00	0	41	0	2709520384	29	13897
2026-01-19 21:28:05.77	215.71	12.24	-28.5	-28.3	18.1	0.00e+00	0	41	0	3045064704	29	13458
2026-01-19 21:28:08.79	216.22	12.51	-28.5	-28.3	18.1	0.00e+00	0	41	0	3397386240	28	14264
2026-01-19 21:28:11.82	216.75	12.78	-28.3	-28.2	18.2	0.00e+00	0	41	0	3732930560	28	13979
2026-01-19 21:28:14.85	217.29	13.06	-28.3	-28.2	18.2	0.00e+00	0	41	0	4076863488	28	13955
2026-01-19 21:28:17.87	217.83	13.34	-28.1	-28.0	18.3	0.00e+00	0	41	0	4412407808	28	13660
2026-01-19 21:28:20.89	218.39	13.62	-28.1	-27.9	18.3	0.00e+00	0	41	0	4756340736	27	14378
2026-01-19 21:28:23.92	218.97	13.90	-28.0	-27.8	18.3	0.00e+00	0	41	0	5100273664	27	14263
2026-01-19 21:28:26.95	219.55	14.19	-27.9	-27.7	18.3	0.00e+00	0	42	0	5435817984	27	14043
2026-01-19 21:28:29.97	220.15	14.47	-27.8	-27.7	18.4	0.00e+00	0	41	0	5771362304	27	13960
2026-01-19 21:28:32.99	220.76	14.76	-27.6	-27.4	18.5	0.00e+00	0	42	0	6123683840	27	13601
2026-01-19 21:28:36.02	221.38	15.05	-27.6	-27.4	18.4	0.00e+00	0	42	0	6459228160	27	13572
2026-01-19 21:28:39.05	222.02	15.34	-27.4	-27.2	18.5	0.00e+00	0	42	0	6794772480	26	14044
2026-01-19 21:28:42.07	222.67	15.64	-27.3	-27.2	18.3	0.00e+00	0	42	0	7130316800	26	13961
2026-01-19 21:28:45.09	223.34	15.93	-27.2	-27.1	18.3	0.00e+00	0	42	0	7482638336	26	13792
2026-01-19 21:28:48.12	224.02	16.22	-27.1	-26.9	18.3	0.00e+00	0	42	0	7818182656	26	13623
2026-01-19 21:28:51.14	224.72	16.52	-27.1	-26.9	18.2	0.00e+00	0	42	0	8153726976	26	13519
2026-01-19 21:28:54.16	225.43	16.81	-26.9	-26.7	18.2	0.00e+00	0	42	0	8497659904	25	13995
2026-01-19 21:28:57.19	226.16	17.11	-26.8	-26.6	18.2	0.00e+00	0	42	0	8833204224	25	13845
2026-01-19 21:29:00.21	226.90	17.41	-26.6	-26.5	18.2	0.00e+00	0	42	0	9177137152	25	13647
2026-01-19 21:29:03.23	227.66	17.70	-26.6	-26.4	18.2	0.00e+00	0	42	0	9521070080	25	13615
2026-01-19 21:29:06.26	228.44	18.00	-26.3	-26.2	18.1	0.00e+00	0	42	0	9856614400	24	13969
2026-01-19 21:29:09.28	229.23	18.30	-26.3	-26.1	18.1	0.00e+00	0	42	0	10192158720	24	13902
2026-01-19 21:29:12.31	230.05	18.59	-26.2	-26.0	18.1	0.00e+00	0	42	0	10544480256	24	13736
2026-01-19 21:29:15.33	230.88	18.89	-26.1	-25.9	18.2	0.00e+00	0	42	0	10880024576	24	13545
2026-01-19 21:29:18.35	231.72	19.18	-26.2	-26.1	18.1	0.00e+00	0	42	0	11215568896	24	13815
2026-01-19 21:29:21.37	232.59	19.48	-26.1	-25.9	17.9	0.00e+00	0	42	0	11551113216	23	14401
2026-01-19 21:29:24.40	233.47	19.77	-25.9	-25.7	17.8	0.00e+00	0	42	0	11903434752	23	14059
2026-01-19 21:29:27.42	234.38	20.06	-25.9	-25.7	18.1	0.00e+00	0	42	0	12238979072	23	14038
2026-01-19 21:29:30.45	235.30	20.34	-25.8	-25.6	18.0	0.00e+00	0	42	0	12574523392	23	13933
2026-01-19 21:29:33.47	236.24	20.63	-25.9	-25.7	17.9	0.00e+00	0	42	0	12918456320	23	14008
2026-01-19 21:29:36.49	237.20	20.91	-25.7	-25.6	17.8	0.00e+00	0	42	0	13262389248	23	13800
2026-01-19 21:29:39.52	238.18	21.18	-25.8	-25.6	17.9	0.00e+00	0	42	0	13597933568	23	13922
2026-01-19 21:29:42.54	239.18	21.45	-25.6	-25.4	17.8	0.00e+00	0	42	0	13941866496	23	13591
2026-01-19 21:29:45.57	240.20	21.72	-25.5	-25.3	17.7	0.00e+00	0	42	0	14277410816	22	14174
2026-01-19 21:29:48.59	241.23	21.98	-25.4	-25.2	17.3	0.00e+00	0	42	0	14629732352	22	14045
2026-01-19 21:29:51.61	242.29	22.24	-25.3	-25.1	17.1	1.90e-06	0	42	0	14965276672	22	13944
2026-01-19 21:29:54.64	243.36	22.49	-25.2	-25.0	17.1	0.00e+00	0	42	0	15300820992	22	13784
2026-01-19 21:29:57.66	244.46	22.73	-25.2	-25.0	16.8	0.00e+00	0	42	0	15636365312	22	13720
2026-01-19 21:30:00.68	245.57	22.97	-25.0	-24.8	16.6	1.90e-06	0	42	0	15971909632	22	13476
2026-01-19 21:30:03.71	246.70	23.20	-25.0	-24.8	16.5	0.00e+00	0	42	0	16324231168	21	14155
2026-01-19 21:30:06.74	247.85	23.42	-24.8	-24.7	16.5	1.90e-06	0	42	0	16659775488	21	13977
2026-01-19 21:30:09.76	249.01	23.63	-24.8	-24.6	16.6	0.00e+00	0	42	0	16995319808	21	13887
2026-01-19 21:30:12.78	250.19	23.83	-24.8	-24.6	16.5	1.90e-06	0	42	0	17339252736	21	13843
2026-01-19 21:30:15.81	251.39	24.02	-24.6	-24.4	16.5	0.00e+00	0	42	0	17683185664	21	13527
2026-01-19 21:30:18.82	252.60	24.20	-24.6	-24.5	16.4	0.00e+00	0	42	0	18027118592	21	13662
2026-01-19 21:30:21.85	253.83	24.37	-24.6	-24.4	16.7	0.00e+00	0	42	0	18362662912	21	13606
2026-01-19 21:30:24.87	255.07	24.53	-24.6	-24.4	16.7	0.00e+00	0	42	0	18698207232	21	13565
2026-01-19 21:30:27.90	256.33	24.67	-24.6	-24.4	17.0	0.00e+00	0	41	0	19050528768	21	13562
2026-01-19 21:30:30.93	257.60	24.81	-24.6	-24.4	17.0	0.00e+00	0	42	0	19386073088	21	13582
2026-01-19 21:30:33.95	258.88	24.93	-24.6	-24.4	17.1	0.00e+00	0	42	0	19721617408	21	13601
2026-01-19 21:30:36.98	260.17	25.03	-24.7	-24.6	17.2	0.00e+00	0	42	0	20057161728	21	13807
2026-01-19 21:30:40.00	261.46	25.13	-24.7	-24.5	17.1	0.00e+00	0	42	0	20409483264	21	13722
2026-01-19 21:30:43.03	262.77	25.21	-24.6	-24.4	17.4	0.00e+00	0	42	0	20745027584	21	13628
2026-01-19 21:30:46.05	264.08	25.27	-24.7	-24.5	17.8	0.00e+00	0	42	0	21080571904	21	13693
2026-01-19 21:30:49.07	265.39	25.32	-24.6	-24.5	17.9	0.00e+00	0	42	0	21424504832	21	13647
2026-01-19 21:30:52.10	266.71	25.36	-24.7	-24.6	18.2	0.00e+00	0	42	0	21768437760	21	13816
2026-01-19 21:30:55.12	268.03	25.38	-24.8	-24.7	18.5	0.00e+00	0	42	0	22103982080	21	13955
2026-01-19 21:30:58.14	269.36	25.38	-24.8	-24.6	18.6	0.00e+00	0	42	0	22447915008	21	13938
2026-01-19 21:31:01.17	270.68	25.38	-24.9	-24.7	18.9	0.00e+00	0	42	0	22783459328	21	13985
2026-01-19 21:31:04.19	272.00	25.35	-24.8	-24.6	19.0	0.00e+00	0	42	0	23127392256	21	13940
2026-01-19 21:31:07.21	273.32	25.31	-24.9	-24.7	19.1	0.00e+00	0	42	0	23471325184	21	14077
2026-01-19 21:31:10.24	274.64	25.26	-25.0	-24.8	19.3	0.00e+00	0	42	0	23806869504	21	14208
2026-01-19 21:31:13.27	275.95	25.19	-25.1	-24.9	19.4	0.00e+00	0	42	0	24142413824	21	14426
2026-01-19 21:31:16.29	277.25	25.11	-25.2	-25.0	19.5	0.00e+00	0	42	0	24494735360	21	14515
2026-01-19 21:31:19.31	278.54	25.02	-25.3	-25.1	19.6	0.00e+00	0	42	0	24830279680	21	14629
2026-01-19 21:31:22.34	279.83	24.91	-25.2	-25.0	19.5	0.00e+00	0	42	0	25165824000	21	14607
2026-01-19 21:31:25.36	281.10	24.78	-25.3	-25.1	19.5	0.00e+00	0	42	0	25501368320	21	14660
2026-01-19 21:31:28.39	282.37	24.65	-25.3	-25.1	19.6	0.00e+00	0	42	0	25836912640	21	14643
2026-01-19 21:31:31.41	283.62	24.50	-25.4	-25.2	19.7	0.00e+00	0	42	0	26189234176	21	14835
2026-01-19 21:31:34.43	284.85	24.34	-25.4	-25.2	19.7	0.00e+00	0	42	0	26524778496	21	14859
2026-01-19 21:31:37.45	286.08	24.17	-25.3	-25.1	19.7	0.00e+00	0	42	0	26868711424	21	14731
2026-01-19 21:31:40.47	287.28	23.99	-25.4	-25.2	19.6	0.00e+00	0	42	0	27204255744	21	14901
2026-01-19 21:31:43.50	288.48	23.79	-25.5	-25.3	19.6	0.00e+00	0	42	0	27548188672	21	15015
2026-01-19 21:31:46.52	289.66	23.59	-25.5	-25.3	19.5	0.00e+00	0	42	0	27892121600	21	15025
2026-01-19 21:31:49.55	290.82	23.38	-25.5	-25.3	19.3	0.00e+00	0	42	0	28227665920	21	15096
2026-01-19 21:31:52.57	291.96	23.16	-25.6	-25.4	19.3	0.00e+00	0	42	0	28563210240	21	15187
2026-01-19 21:31:55.60	293.09	22.93	-25.7	-25.5	19.3	0.00e+00	0	42	0	28915531776	22	14501
2026-01-19 21:31:58.62	294.19	22.69	-25.9	-25.7	19.3	0.00e+00	0	42	0	29251076096	22	14826
2026-01-19 21:32:01.64	295.28	22.45	-25.9	-25.7	19.3	0.00e+00	0	42	0	29586620416	22	14896
2026-01-19 21:32:04.67	296.35	22.20	-25.9	-25.7	19.4	0.00e+00	0	42	0	29922164736	22	14895
2026-01-19 21:32:07.69	297.40	21.94	-25.9	-25.7	19.6	0.00e+00	0	42	0	30274486272	22	14940
2026-01-19 21:32:10.72	298.44	21.68	-26.1	-25.9	19.6	0.00e+00	0	42	0	30610030592	22	15188
2026-01-19 21:32:13.75	299.45	21.41	-26.1	-25.9	19.6	0.00e+00	0	42	0	30945574912	22	15195
2026-01-19 21:32:16.77	300.44	21.14	-26.2	-26.0	19.6	0.00e+00	0	42	0	31289507840	22	15447
2026-01-19 21:32:19.79	301.41	20.87	-26.3	-26.1	19.6	0.00e+00	0	42	0	31633440768	23	14762
2026-01-19 21:32:22.82	302.37	20.59	-26.4	-26.2	19.5	0.00e+00	0	42	0	31968985088	23	14926
2026-01-19 21:32:25.84	303.31	20.30	-26.6	-26.4	19.4	0.00e+00	0	42	0	32312918016	23	15186
2026-01-19 21:32:28.87	304.22	20.02	-26.6	-26.4	19.1	0.00e+00	0	42	0	32648462336	23	15261
2026-01-19 21:32:31.89	305.12	19.73	-26.8	-26.6	19.0	0.00e+00	0	42	0	33000783872	24	14647
2026-01-19 21:32:34.91	306.00	19.44	-27.0	-26.8	19.0	0.00e+00	0	42	0	33336328192	24	15022
2026-01-19 21:32:37.94	306.86	19.15	-27.1	-26.9	19.0	0.00e+00	0	42	0	33671872512	24	15227
2026-01-19 21:32:40.96	307.71	18.85	-27.1	-26.9	18.7	0.00e+00	0	42	0	34007416832	24	15217
2026-01-19 21:32:43.99	308.53	18.56	-27.3	-27.1	18.7	0.00e+00	0	42	0	34342961152	25	14745
2026-01-19 21:32:47.01	309.34	18.26	-27.3	-27.1	18.6	0.00e+00	0	42	0	34695282688	25	14769
2026-01-19 21:32:50.03	310.13	17.97	-27.4	-27.3	18.4	0.00e+00	0	42	0	35030827008	25	14952
2026-01-19 21:32:53.05	310.90	17.67	-27.5	-27.3	18.5	0.00e+00	0	42	0	35366371328	25	15099
2026-01-19 21:32:56.08	311.66	17.38	-27.6	-27.5	18.3	0.00e+00	0	42	0	35710304256	25	15318
2026-01-19 21:32:59.11	312.40	17.08	-27.7	-27.5	18.2	0.00e+00	0	42	0	36054237184	25	15345
2026-01-19 21:33:02.13	313.12	16.78	-27.7	-27.5	18.0	0.00e+00	0	42	0	36398170112	25	15411
2026-01-19 21:33:05.15	313.83	16.49	-27.8	-27.7	17.8	0.00e+00	0	42	0	36733714432	26	14811
2026-01-19 21:33:08.18	314.52	16.19	-28.0	-27.9	17.6	0.00e+00	0	42	0	37069258752	26	15156
2026-01-19 21:33:11.20	315.20	15.90	-28.0	-27.9	17.7	0.00e+00	0	42	0	37421580288	26	15166
2026-01-19 21:33:14.23	315.87	15.61	-28.1	-28.0	17.8	0.00e+00	0	42	0	37757124608	27	14458
2026-01-19 21:33:17.25	316.51	15.32	-28.4	-28.2	17.7	0.00e+00	0	42	0	38092668928	27	14816
2026-01-19 21:33:20.28	317.15	15.03	-28.5	-28.3	17.5	0.00e+00	0	42	0	38428213248	27	15033
2026-01-19 21:33:23.30	317.77	14.74	-28.5	-28.4	17.5	0.00e+00	0	42	0	38780534784	27	15145
2026-01-19 21:33:26.33	318.38	14.45	-28.6	-28.4	17.4	0.00e+00	0	42	0	39116079104	27	15281
2026-01-19 21:33:29.35	318.97	14.17	-28.7	-28.5	17.5	0.00e+00	0	42	0	39451623424	28	14535
2026-01-19 21:33:32.38	319.55	13.89	-28.7	-28.5	17.5	3.80e-06	0	42	0	39795556352	28	14550
2026-01-19 21:33:35.40	320.12	13.61	-28.9	-28.7	17.6	0.00e+00	0	42	0	40139489280	28	14887
2026-01-19 21:33:38.43	320.68	13.33	-29.0	-28.8	17.4	0.00e+00	0	42	0	40475033600	28	15043
2026-01-19 21:33:41.45	321.22	13.05	-29.2	-29.0	17.4	3.80e-06	0	42	0	40818966528	29	14542
2026-01-19 21:33:44.48	321.76	12.77	-29.3	-29.1	17.3	1.90e-06	0	42	0	41154510848	29	14691
2026-01-19 21:33:47.49	322.28	12.50	-29.4	-29.2	17.0	9.50e-06	0	42	0	41498443776	29	14909
2026-01-19 21:33:50.52	322.79	12.23	-29.6	-29.4	16.8	9.50e-06	0	42	0	41842376704	29	15192
2026-01-19 21:33:53.54	323.29	11.96	-29.7	-29.5	16.7	1.71e-05	0	42	0	42177921024	30	14582
2026-01-19 21:33:56.57	323.78	11.69	-29.8	-29.6	16.7	7.60e-06	0	42	0	42513465344	30	14690
2026-01-19 21:33:59.59	324.26	11.43	-29.8	-29.6	16.7	7.60e-06	0	42	0	42865786880	30	14715
2026-01-19 21:34:02.60	324.73	11.16	-30.1	-29.9	16.7	1.14e-05	0	42	0	43201331200	31	14345
2026-01-19 21:34:05.62	325.19	10.90	-30.0	-29.9	18.1	0.00e+00	0	42	0	43536875520	31	14318
2026-01-19 21:34:08.64	325.64	10.64	-53.5	-55.8	6.2	0.00e+00	0	42	104	43612372992	77	19953
2026-01-19 21:34:11.66	326.09	10.39	-53.5	-55.7	6.2	0.00e+00	0	41	104	43612372992	77	19744
2026-01-19 21:34:14.69	326.52	10.13	-53.5	-55.7	6.2	0.00e+00	0	42	104	43612372992	77	19781
2026-01-19 21:34:17.71	326.95	9.88	-53.5	-55.6	6.2	0.00e+00	0	41	104	43612372992	77	19650
2026-01-19 21:34:20.74	327.36	9.63	-53.5	-55.6	6.2	0.00e+00	0	42	104	43612372992	77	19605
2026-01-19 21:34:23.75	327.77	9.38	-53.4	-55.6	6.2	0.00e+00	0	42	104	43612372992	77	19480
2026-01-19 21:34:26.78	328.17	9.14	-53.4	-55.5	6.2	0.00e+00	0	42	104	43612372992	77	19469
2026-01-19 21:34:29.80	328.57	8.89	-53.4	-55.5	6.2	0.00e+00	0	42	104	43612372992	77	19385
2026-01-19 21:34:32.83	328.95	8.65	-53.3	-55.5	6.2	0.00e+00	0	41	104	43612372992	77	19423
2026-01-19 21:34:35.85	329.33	8.41	-53.3	-55.4	6.2	0.00e+00	0	42	104	43612372992	77	19238
2026-01-19 21:34:38.87	329.70	8.17	-53.3	-55.4	6.2	0.00e+00	0	42	104	43612372992	77	19245
2026-01-19 21:34:41.90	330.07	7.93	-53.3	-55.4	6.2	0.00e+00	0	42	104	43612372992	77	19122
2026-01-19 21:34:44.93	330.42	7.70	-53.3	-55.4	6.2	0.00e+00	0	41	104	43612372992	77	19165
2026-01-19 21:34:47.95	330.77	7.47	-53.2	-55.3	6.2	0.00e+00	0	42	104	43612372992	77	18969
2026-01-19 21:34:50.97	331.12	7.24	-53.2	-55.3	6.2	0.00e+00	0	42	104	43612372992	77	19000
2026-01-19 21:34:54.00	331.46	7.01	-53.1	-55.2	6.2	0.00e+00	0	42	104	43612372992	77	18770
2026-01-19 21:34:57.02	331.79	6.78	-53.2	-55.3	6.2	0.00e+00	0	41	104	43612372992	77	19002
2026-01-19 21:35:00.04	332.12	6.56	-53.0	-55.2	6.2	0.00e+00	0	42	104	43612372992	77	18636
2026-01-19 21:35:03.07	332.44	6.34	-53.1	-55.2	6.2	0.00e+00	0	41	104	43612372992	77	18681
2026-01-19 21:35:06.09	332.75	6.11	-52.9	-55.1	6.2	0.00e+00	0	41	104	43612372992	77	18417
2026-01-19 21:35:09.11	333.06	5.90	-53.0	-55.2	6.2	0.00e+00	0	42	104	43612372992	77	18620
2026-01-19 21:35:12.14	333.37	5.68	-52.8	-54.9	6.2	0.00e+00	0	42	104	43612372992	77	18097
2026-01-19 21:35:15.16	333.66	5.46	-52.8	-55.0	6.2	0.00e+00	0	41	104	43612372992	77	18217
2026-01-19 21:35:18.19	333.96	5.25	-51.6	-53.8	6.2	0.00e+00	0	42	104	43612372992	75	17773
2026-01-19 21:35:21.21	334.25	5.04	-51.9	-54.0	6.2	0.00e+00	0	41	104	43612372992	74	19473
2026-01-19 21:35:24.23	334.53	4.83	-53.8	-55.9	6.2	0.00e+00	0	41	104	43612372992	78	19151
2026-01-19 21:35:27.26	334.81	4.62	-54.2	-56.3	6.2	0.00e+00	0	41	104	43612372992	78	19981
2026-01-19 21:35:30.28	335.09	4.41	-54.4	-56.6	6.2	0.00e+00	0	41	104	43612372992	79	19487
2026-01-19 21:35:33.30	335.36	4.20	-54.6	-56.7	6.2	0.00e+00	0	41	104	43612372992	79	19843
2026-01-19 21:35:36.33	335.62	4.00	-54.6	-56.8	6.2	0.00e+00	0	41	104	43612372992	79	20035
2026-01-19 21:35:39.35	335.88	3.80	-54.6	-56.8	6.2	0.00e+00	0	42	104	43612372992	79	20003
2026-01-19 21:35:42.38	336.14	3.60	-54.6	-56.7	6.2	0.00e+00	0	41	104	43612372992	79	19864
2026-01-19 21:35:45.40	336.40	3.40	-54.5	-56.6	6.2	0.00e+00	0	41	104	43612372992	79	19672
2026-01-19 21:35:48.43	336.65	3.20	-54.5	-56.6	6.2	0.00e+00	0	41	104	43612372992	79	19656
2026-01-19 21:35:51.45	336.89	3.00	-54.5	-56.6	6.2	0.00e+00	0	41	104	43612372992	79	19599
2026-01-19 21:35:54.48	337.13	2.81	-54.4	-56.6	6.2	0.00e+00	0	41	104	43612372992	79	19581
2026-01-19 21:35:57.50	337.37	2.61	-54.4	-56.6	6.2	0.00e+00	0	41	104	43612372992	79	19615
2026-01-19 21:36:00.52	337.61	2.42	-54.4	-56.6	6.2	0.00e+00	0	41	104	43612372992	79	19569
2026-01-19 21:36:03.54	337.84	2.23	-54.4	-56.5	6.2	0.00e+00	0	41	104	43612372992	79	19466
2026-01-19 21:36:06.57	338.06	2.04	-54.4	-56.5	6.2	0.00e+00	0	41	104	43612372992	79	19436

#Closed at: 2026-01-19 21:36:09
#Recorded file [43612 MB]: D:/lorett/data/31041_260120_002549.dat