passes_logs/2026/01/19/R3.2S_Murmansk/R3.2S_Murmansk__20260119_123233_FENGYUN_3D_rec.log

#Pass ID: 20260119_123233_FENGYUN 3D
#Satellite: FENGYUN 3D
#Configuration: FENGYUN 3D
#almurnet v.1.7.20251203
#Start time: 2026-01-19 12:32:35

#Version: 2.2.20231116
#Station: R3.2S_Murmansk
#Location: 33.079688 lon 68.888172 lat
#TLE: 1 43010U 17072A   26018.95027258  .00000058  00000+0  49274-4 0  9992
#TLE: 2 43010  98.9939 350.8271 0002416 102.0826 258.0620 14.19696908423819

#Time	Az	El	Level	Level2	SNR	BER	BlckErr	Temp	State	Recorded	gain1	gain2
2026-01-19 12:32:35.19	175.34	2.12	-52.4	-64.2	3.8	8.46e-01	0	36	0	0	76	13935
2026-01-19 12:32:39.21	175.47	2.37	-52.4	-64.3	3.8	8.46e-01	0	36	104	0	75	14885
2026-01-19 12:32:43.25	175.59	2.63	-52.3	-63.9	3.8	8.46e-01	0	36	104	0	75	14238
2026-01-19 12:32:47.27	175.72	2.89	-52.3	-63.9	3.8	8.46e-01	0	36	104	0	75	14315
2026-01-19 12:32:51.31	175.85	3.15	-52.3	-63.6	3.8	8.45e-01	0	36	104	0	75	13788
2026-01-19 12:32:55.34	175.99	3.41	-52.3	-63.9	3.8	8.46e-01	0	36	104	0	75	14366
2026-01-19 12:32:59.37	176.12	3.68	-52.2	-62.7	3.8	8.45e-01	0	36	104	0	75	12518
2026-01-19 12:33:03.41	176.26	3.95	-51.4	-57.6	5.8	6.69e-01	0	37	0	1048576	74	7303
2026-01-19 12:33:07.43	176.40	4.22	-49.9	-53.6	9.5	2.82e-02	0	36	0	23068672	71	5497
2026-01-19 12:33:11.47	176.54	4.49	-47.4	-49.5	13.7	5.49e-05	0	36	0	45088768	66	4588
2026-01-19 12:33:15.50	176.68	4.77	-45.5	-47.0	16.3	0.00e+00	0	36	0	68157440	63	4054
2026-01-19 12:33:19.53	176.83	5.05	-44.7	-46.1	17.3	0.00e+00	0	37	0	91226112	60	4347
2026-01-19 12:33:23.57	176.98	5.33	-44.4	-45.6	17.7	0.00e+00	0	37	0	113246208	60	4134
2026-01-19 12:33:27.60	177.13	5.62	-44.4	-45.7	17.7	0.00e+00	0	37	0	136314880	60	4152
2026-01-19 12:33:31.63	177.29	5.91	-44.5	-45.7	18.0	0.00e+00	0	37	0	159383552	59	4426
2026-01-19 12:33:35.66	177.45	6.20	-43.9	-45.0	18.7	0.00e+00	0	37	0	181403648	59	4080
2026-01-19 12:33:39.69	177.61	6.49	-43.9	-45.0	18.7	0.00e+00	0	37	0	204472320	59	4088
2026-01-19 12:33:43.73	177.77	6.79	-43.7	-44.8	19.0	0.00e+00	0	37	0	227540992	59	4000
2026-01-19 12:33:47.76	177.94	7.09	-43.5	-44.6	19.2	0.00e+00	0	37	0	249561088	58	4139
2026-01-19 12:33:51.79	178.11	7.40	-43.4	-44.5	19.4	0.00e+00	0	37	0	272629760	58	4084
2026-01-19 12:33:55.82	178.28	7.71	-43.5	-44.6	19.4	0.00e+00	0	37	0	295698432	58	4103
2026-01-19 12:33:59.85	178.46	8.02	-43.6	-44.7	19.3	0.00e+00	0	37	0	317718528	58	4153
2026-01-19 12:34:03.88	178.64	8.33	-43.5	-44.6	19.4	0.00e+00	0	37	0	340787200	58	4101
2026-01-19 12:34:07.91	178.82	8.65	-43.6	-44.7	19.3	0.00e+00	0	37	0	363855872	58	4188
2026-01-19 12:34:11.95	179.01	8.97	-43.4	-44.5	19.5	0.00e+00	0	37	0	385875968	58	4080
2026-01-19 12:34:15.98	179.20	9.30	-43.5	-44.5	19.5	0.00e+00	0	37	0	407896064	58	4095
2026-01-19 12:34:20.02	179.40	9.63	-43.2	-44.2	19.8	0.00e+00	0	37	0	430964736	58	3956
2026-01-19 12:34:24.05	179.60	9.97	-43.0	-44.0	20.0	0.00e+00	0	37	0	454033408	58	3864
2026-01-19 12:34:28.08	179.80	10.31	-42.8	-43.8	20.3	0.00e+00	0	37	0	476053504	57	3982
2026-01-19 12:34:32.11	180.01	10.65	-42.7	-43.7	20.4	0.00e+00	0	37	0	499122176	57	3920
2026-01-19 12:34:36.14	180.22	11.00	-42.6	-43.6	20.5	0.00e+00	0	37	0	522190848	57	3887
2026-01-19 12:34:40.18	180.44	11.35	-42.7	-43.6	20.5	0.00e+00	0	37	0	544210944	57	3905
2026-01-19 12:34:44.21	180.66	11.71	-42.7	-43.7	20.4	0.00e+00	0	37	0	567279616	57	3935
2026-01-19 12:34:48.24	180.89	12.08	-42.8	-43.8	20.4	0.00e+00	0	37	0	590348288	57	3981
2026-01-19 12:34:52.27	181.12	12.44	-42.6	-43.5	20.6	0.00e+00	0	37	0	612368384	57	3862
2026-01-19 12:34:56.31	181.36	12.82	-42.5	-43.5	20.7	0.00e+00	0	37	0	635437056	56	4071
2026-01-19 12:35:00.34	181.61	13.20	-42.3	-43.3	20.9	0.00e+00	0	37	0	658505728	56	3960
2026-01-19 12:35:04.37	181.86	13.58	-42.0	-43.0	21.2	0.00e+00	0	37	0	680525824	56	3829
2026-01-19 12:35:08.40	182.11	13.97	-42.0	-42.9	21.3	0.00e+00	0	37	0	703594496	56	3799
2026-01-19 12:35:12.43	182.38	14.37	-42.0	-42.9	21.2	0.00e+00	0	37	0	726663168	55	4050
2026-01-19 12:35:16.47	182.65	14.77	-41.7	-42.7	21.5	0.00e+00	0	37	0	748683264	55	3915
2026-01-19 12:35:20.50	182.93	15.18	-41.5	-42.4	21.6	0.00e+00	0	37	0	771751936	55	3810
2026-01-19 12:35:24.54	183.21	15.59	-41.4	-42.3	21.8	0.00e+00	0	37	0	793772032	54	3974
2026-01-19 12:35:28.57	183.50	16.01	-41.3	-42.2	21.9	0.00e+00	0	37	0	816840704	54	3915
2026-01-19 12:35:32.60	183.80	16.44	-41.3	-42.2	21.9	0.00e+00	0	37	0	839909376	54	3931
2026-01-19 12:35:36.63	184.11	16.88	-41.2	-42.1	22.1	0.00e+00	0	37	0	861929472	54	3870
2026-01-19 12:35:40.66	184.43	17.32	-41.0	-41.8	22.3	0.00e+00	0	37	0	884998144	53	3993
2026-01-19 12:35:44.70	184.75	17.77	-41.0	-41.9	22.3	0.00e+00	0	37	0	908066816	53	4018
2026-01-19 12:35:48.73	185.09	18.23	-40.9	-41.7	22.4	0.00e+00	0	37	0	930086912	53	3958
2026-01-19 12:35:52.77	185.43	18.69	-40.8	-41.6	22.5	0.00e+00	0	37	0	953155584	53	3897
2026-01-19 12:35:56.79	185.79	19.16	-40.6	-41.4	22.7	0.00e+00	0	37	0	976224256	53	3823
2026-01-19 12:36:00.83	186.15	19.64	-40.5	-41.3	22.8	0.00e+00	0	37	0	998244352	52	3984
2026-01-19 12:36:04.86	186.53	20.13	-40.6	-41.4	22.8	0.00e+00	0	37	0	1021313024	52	4018
2026-01-19 12:36:08.89	186.92	20.63	-40.2	-41.0	23.1	0.00e+00	0	37	0	1043333120	52	3850
2026-01-19 12:36:12.92	187.32	21.13	-40.0	-40.8	23.3	0.00e+00	0	37	0	1066401792	52	3749
2026-01-19 12:36:16.95	187.74	21.65	-39.9	-40.6	23.5	0.00e+00	0	37	0	1089470464	51	3913
2026-01-19 12:36:20.98	188.16	22.17	-40.0	-40.8	23.4	0.00e+00	0	37	0	1111490560	51	3976
2026-01-19 12:36:25.02	188.61	22.71	-40.1	-40.9	23.3	0.00e+00	0	37	0	1134559232	51	4044
2026-01-19 12:36:29.05	189.06	23.25	-40.0	-40.8	23.4	0.00e+00	0	37	0	1156579328	51	3986
2026-01-19 12:36:33.08	189.54	23.80	-40.0	-40.9	23.4	0.00e+00	0	37	0	1179648000	51	4007
2026-01-19 12:36:37.11	190.02	24.37	-39.7	-40.5	23.7	0.00e+00	0	37	0	1202716672	51	3838
2026-01-19 12:36:41.15	190.53	24.94	-39.6	-40.4	23.8	0.00e+00	0	37	0	1224736768	51	3796
2026-01-19 12:36:45.18	191.06	25.52	-39.5	-40.3	23.9	0.00e+00	0	37	0	1247805440	50	3975
2026-01-19 12:36:49.21	191.60	26.12	-39.5	-40.2	23.9	0.00e+00	0	37	0	1270874112	50	3955
2026-01-19 12:36:53.25	192.16	26.72	-39.6	-40.4	24.1	0.00e+00	0	37	0	1292894208	50	4014
2026-01-19 12:36:57.28	192.75	27.34	-39.5	-40.2	24.3	0.00e+00	0	37	0	1315962880	50	3931
2026-01-19 12:37:01.31	193.36	27.97	-39.3	-40.0	24.4	0.00e+00	0	37	0	1339031552	50	3864
2026-01-19 12:37:05.34	193.99	28.60	-39.3	-40.1	24.4	0.00e+00	0	37	0	1361051648	50	3871
2026-01-19 12:37:09.37	194.64	29.25	-39.4	-40.1	24.4	0.00e+00	0	37	0	1384120320	50	3883
2026-01-19 12:37:13.41	195.33	29.91	-39.1	-39.8	24.6	0.00e+00	0	38	0	1407188992	50	3764
2026-01-19 12:37:17.44	196.04	30.58	-39.5	-40.2	24.3	0.00e+00	0	37	0	1429209088	50	3932
2026-01-19 12:37:21.47	196.78	31.26	-39.6	-40.3	24.2	0.00e+00	0	37	0	1452277760	50	3975
2026-01-19 12:37:25.50	197.55	31.96	-39.4	-40.1	24.4	0.00e+00	0	37	0	1475346432	50	3884
2026-01-19 12:37:29.53	198.36	32.66	-39.3	-40.0	24.5	0.00e+00	0	37	0	1497366528	50	3859
2026-01-19 12:37:33.56	199.19	33.37	-38.9	-39.6	24.8	0.00e+00	0	37	0	1519386624	49	3895
2026-01-19 12:37:37.59	200.07	34.09	-39.1	-39.8	24.7	0.00e+00	0	37	0	1542455296	49	3968
2026-01-19 12:37:41.63	200.99	34.83	-38.6	-39.3	25.1	0.00e+00	0	37	0	1565523968	49	3761
2026-01-19 12:37:45.65	201.94	35.57	-38.6	-39.3	25.1	0.00e+00	0	37	0	1587544064	49	3753
2026-01-19 12:37:49.69	202.95	36.32	-39.0	-39.7	24.7	0.00e+00	0	37	0	1610612736	49	3949
2026-01-19 12:37:53.72	203.99	37.08	-38.8	-39.5	24.9	0.00e+00	0	37	0	1633681408	49	3852
2026-01-19 12:37:57.75	205.09	37.84	-38.7	-39.4	25.1	0.00e+00	0	37	0	1655701504	48	4025
2026-01-19 12:38:01.78	206.24	38.61	-39.1	-39.8	24.7	0.00e+00	0	37	0	1678770176	48	4217
2026-01-19 12:38:05.81	207.44	39.39	-38.9	-39.7	24.8	0.00e+00	0	37	0	1701838848	48	4149
2026-01-19 12:38:09.84	208.70	40.16	-38.9	-39.6	24.9	0.00e+00	0	37	0	1723858944	48	4126
2026-01-19 12:38:13.87	210.02	40.94	-39.0	-39.7	24.9	0.00e+00	0	37	0	1746927616	48	4147
2026-01-19 12:38:17.90	211.41	41.72	-38.8	-39.5	25.0	0.00e+00	0	37	0	1769996288	48	4097
2026-01-19 12:38:21.94	212.87	42.49	-39.0	-39.7	24.9	0.00e+00	0	37	0	1792016384	48	4151
2026-01-19 12:38:25.97	214.39	43.26	-39.3	-40.0	24.6	0.00e+00	0	37	0	1815085056	49	4073
2026-01-19 12:38:30.00	215.99	44.03	-39.1	-39.8	24.8	0.00e+00	0	37	0	1838153728	49	3991
2026-01-19 12:38:34.03	217.66	44.78	-39.4	-40.1	24.6	0.00e+00	0	37	0	1860173824	49	4113
2026-01-19 12:38:38.06	219.41	45.52	-39.3	-40.0	24.6	0.00e+00	0	37	0	1882193920	49	4065
2026-01-19 12:38:42.10	221.25	46.24	-39.4	-40.1	24.5	0.00e+00	0	37	0	1905262592	49	4135
2026-01-19 12:38:46.13	223.17	46.94	-39.3	-40.0	24.6	0.00e+00	0	37	0	1928331264	50	3865
2026-01-19 12:38:50.16	225.17	47.61	-39.6	-40.3	24.4	0.00e+00	0	37	0	1950351360	50	3977
2026-01-19 12:38:54.19	227.26	48.26	-39.3	-40.0	24.7	0.00e+00	0	37	0	1973420032	50	3829
2026-01-19 12:38:58.23	229.44	48.88	-39.1	-39.8	24.8	0.00e+00	0	37	0	1996488704	50	3753
2026-01-19 12:39:02.26	231.70	49.45	-39.5	-40.2	24.5	0.00e+00	0	37	0	2018508800	50	3929
2026-01-19 12:39:06.30	234.05	49.99	-39.4	-40.1	24.6	0.00e+00	0	38	0	2041577472	50	3881
2026-01-19 12:39:10.33	236.48	50.48	-39.6	-40.3	24.4	0.00e+00	0	37	0	2064646144	50	3966
2026-01-19 12:39:14.36	238.97	50.92	-39.6	-40.3	24.4	0.00e+00	0	37	0	2086666240	50	3983
2026-01-19 12:39:18.39	241.54	51.31	-39.5	-40.3	24.5	0.00e+00	0	37	0	2109734912	50	3961
2026-01-19 12:39:22.42	244.17	51.63	-39.7	-40.4	24.4	0.00e+00	0	37	0	2132803584	50	4022
2026-01-19 12:39:26.46	246.86	51.90	-39.9	-40.6	24.2	0.00e+00	0	37	0	2154823680	50	4135
2026-01-19 12:39:30.49	249.58	52.10	-39.6	-40.3	24.4	0.00e+00	0	37	0	2177892352	50	3988
2026-01-19 12:39:34.52	252.33	52.24	-39.9	-40.6	24.1	0.00e+00	0	37	0	2200961024	50	4144
2026-01-19 12:39:38.55	255.11	52.31	-39.7	-40.4	24.4	0.00e+00	0	37	0	2222981120	50	4025
2026-01-19 12:39:42.58	257.89	52.31	-40.1	-40.9	23.9	0.00e+00	0	37	0	2245001216	50	4254
2026-01-19 12:39:46.62	260.67	52.24	-40.1	-40.9	23.9	0.00e+00	0	38	0	2268069888	50	4260
2026-01-19 12:39:50.65	263.42	52.11	-39.9	-40.6	24.1	0.00e+00	0	37	0	2291138560	50	4136
2026-01-19 12:39:54.68	266.14	51.91	-40.0	-40.7	24.0	0.00e+00	0	37	0	2313158656	50	4179
2026-01-19 12:39:58.72	268.83	51.65	-40.0	-40.7	24.1	0.00e+00	0	37	0	2336227328	50	4161
2026-01-19 12:40:02.75	271.46	51.32	-40.2	-40.9	23.9	0.00e+00	0	37	0	2359296000	51	4043
2026-01-19 12:40:06.79	274.03	50.94	-39.9	-40.7	24.1	0.00e+00	0	37	0	2381316096	51	3918
2026-01-19 12:40:10.82	276.53	50.50	-39.7	-40.4	24.4	0.00e+00	0	37	0	2404384768	51	3785
2026-01-19 12:40:14.86	278.96	50.01	-39.8	-40.5	24.3	0.00e+00	0	37	0	2427453440	51	3849
2026-01-19 12:40:18.89	281.30	49.48	-39.8	-40.5	24.3	0.00e+00	0	37	0	2450522112	51	3834
2026-01-19 12:40:22.93	283.57	48.90	-39.5	-40.2	24.5	0.00e+00	0	37	0	2472542208	51	3734
2026-01-19 12:40:26.96	285.74	48.29	-39.6	-40.4	24.4	0.00e+00	0	37	0	2495610880	51	3793
2026-01-19 12:40:30.99	287.83	47.65	-39.5	-40.2	24.6	0.00e+00	0	37	0	2517630976	50	3945
2026-01-19 12:40:35.02	289.84	46.97	-39.5	-40.2	24.6	0.00e+00	0	37	0	2540699648	50	3935
2026-01-19 12:40:39.05	291.76	46.28	-39.5	-40.3	24.5	0.00e+00	0	37	0	2563768320	50	3963
2026-01-19 12:40:43.08	293.59	45.56	-39.8	-40.5	24.3	0.00e+00	0	37	0	2585788416	50	4084
2026-01-19 12:40:47.12	295.35	44.82	-40.0	-40.7	24.1	0.00e+00	0	37	0	2608857088	50	4185
2026-01-19 12:40:51.16	297.02	44.07	-39.6	-40.3	24.5	0.00e+00	0	37	0	2630877184	50	3985
2026-01-19 12:40:55.19	298.62	43.31	-39.8	-40.5	24.3	0.00e+00	0	37	0	2653945856	50	4072
2026-01-19 12:40:59.23	300.15	42.54	-39.4	-40.1	24.6	0.00e+00	0	37	0	2677014528	50	3895
2026-01-19 12:41:03.26	301.60	41.77	-39.7	-40.5	24.3	0.00e+00	0	37	0	2699034624	50	4067
2026-01-19 12:41:07.29	302.99	41.00	-39.2	-39.9	24.8	0.00e+00	0	37	0	2722103296	50	3809
2026-01-19 12:41:11.33	304.31	40.22	-39.2	-39.9	24.8	0.00e+00	0	37	0	2745171968	50	3813
2026-01-19 12:41:15.36	305.57	39.44	-39.2	-39.9	24.9	0.00e+00	0	37	0	2767192064	50	3781
2026-01-19 12:41:19.39	306.78	38.67	-39.1	-39.8	24.9	0.00e+00	0	37	0	2790260736	50	3773
2026-01-19 12:41:23.42	307.93	37.91	-39.1	-39.8	24.9	0.00e+00	0	37	0	2813329408	50	3774
2026-01-19 12:41:27.46	309.02	37.14	-39.1	-39.8	24.9	0.00e+00	0	37	0	2835349504	49	3974
2026-01-19 12:41:31.49	310.07	36.39	-39.2	-39.9	24.8	0.00e+00	0	37	0	2858418176	49	4032
2026-01-19 12:41:35.53	311.08	35.64	-38.8	-39.5	25.2	0.00e+00	0	37	0	2881486848	49	3847
2026-01-19 12:41:39.56	312.03	34.90	-39.2	-39.9	24.8	0.00e+00	0	37	0	2903506944	49	4025
2026-01-19 12:41:43.59	312.95	34.17	-39.2	-39.9	24.8	0.00e+00	0	37	0	2926575616	49	4019
2026-01-19 12:41:47.62	313.83	33.45	-39.3	-40.0	24.7	0.00e+00	0	37	0	2949644288	49	4073
2026-01-19 12:41:51.65	314.67	32.74	-39.4	-40.1	24.6	0.00e+00	0	37	0	2971664384	49	4110
2026-01-19 12:41:55.68	315.47	32.04	-39.3	-40.0	24.7	0.00e+00	0	37	0	2993684480	49	4060
2026-01-19 12:41:59.71	316.24	31.35	-39.6	-40.3	24.4	0.00e+00	0	37	0	3016753152	49	4207
2026-01-19 12:42:03.74	316.98	30.67	-39.9	-40.6	24.1	0.00e+00	0	37	0	3039821824	50	4139
2026-01-19 12:42:07.77	317.70	30.00	-39.7	-40.5	24.3	0.00e+00	0	37	0	3061841920	50	4053
2026-01-19 12:42:11.81	318.38	29.34	-39.4	-40.1	24.5	0.00e+00	0	37	0	3084910592	50	3911
2026-01-19 12:42:15.84	319.04	28.70	-39.4	-40.1	24.6	0.00e+00	0	37	0	3107979264	50	3898
2026-01-19 12:42:19.88	319.67	28.06	-39.6	-40.3	24.4	0.00e+00	0	37	0	3129999360	50	3977
2026-01-19 12:42:23.91	320.28	27.44	-39.5	-40.2	24.4	0.00e+00	0	37	0	3153068032	50	3949
2026-01-19 12:42:27.94	320.87	26.82	-39.5	-40.2	24.5	0.00e+00	0	37	0	3176136704	50	3935
2026-01-19 12:42:31.98	321.43	26.22	-39.5	-40.2	24.4	0.00e+00	0	37	0	3198156800	50	3938
2026-01-19 12:42:36.01	321.98	25.63	-39.6	-40.3	24.3	0.00e+00	0	37	0	3221225472	50	3990
2026-01-19 12:42:40.05	322.50	25.05	-39.5	-40.2	24.4	0.00e+00	0	37	0	3244294144	50	3928
2026-01-19 12:42:44.08	323.01	24.47	-39.7	-40.4	24.2	0.00e+00	0	37	0	3266314240	50	4027
2026-01-19 12:42:48.11	323.50	23.91	-40.1	-40.9	23.7	0.00e+00	0	37	0	3289382912	50	4264
2026-01-19 12:42:52.15	323.98	23.36	-40.3	-41.1	23.6	0.00e+00	0	37	0	3312451584	51	4107
2026-01-19 12:42:56.18	324.43	22.82	-40.1	-40.9	23.7	0.00e+00	0	37	0	3334471680	51	4005
2026-01-19 12:43:00.21	324.88	22.29	-40.2	-40.9	23.6	0.00e+00	0	37	0	3357540352	51	4047
2026-01-19 12:43:04.24	325.31	21.77	-40.3	-41.1	23.5	0.00e+00	0	37	0	3379560448	51	4099
2026-01-19 12:43:08.27	325.72	21.25	-40.6	-41.4	23.2	0.00e+00	0	37	0	3402629120	51	4278
2026-01-19 12:43:12.30	326.12	20.75	-40.6	-41.3	23.1	0.00e+00	0	37	0	3425697792	52	4004
2026-01-19 12:43:16.33	326.51	20.25	-40.6	-41.4	23.1	0.00e+00	0	37	0	3447717888	52	4019
2026-01-19 12:43:20.37	326.89	19.76	-40.6	-41.3	23.1	0.00e+00	0	37	0	3470786560	52	3997
2026-01-19 12:43:24.40	327.26	19.29	-40.7	-41.5	23.0	0.00e+00	0	37	0	3493855232	52	4054
2026-01-19 12:43:28.43	327.62	18.81	-40.9	-41.7	22.7	0.00e+00	0	37	0	3515875328	52	4177
2026-01-19 12:43:32.46	327.96	18.35	-41.0	-41.8	22.6	0.00e+00	0	37	0	3538944000	52	4227
2026-01-19 12:43:36.49	328.30	17.90	-41.2	-42.0	22.5	0.00e+00	0	37	0	3562012672	53	4060
2026-01-19 12:43:40.53	328.63	17.45	-41.2	-42.1	22.4	0.00e+00	0	37	0	3584032768	53	4102
2026-01-19 12:43:44.56	328.95	17.01	-41.3	-42.1	22.3	0.00e+00	0	37	0	3607101440	53	4127
2026-01-19 12:43:48.59	329.26	16.57	-41.6	-42.5	22.0	0.00e+00	0	37	0	3629121536	53	4294
2026-01-19 12:43:52.62	329.56	16.15	-41.6	-42.5	21.9	0.00e+00	0	37	0	3652190208	53	4307
2026-01-19 12:43:56.65	329.85	15.73	-41.9	-42.7	21.7	0.00e+00	0	37	0	3675258880	54	4179
2026-01-19 12:44:00.69	330.14	15.31	-41.9	-42.8	21.6	0.00e+00	0	37	0	3697278976	54	4206
2026-01-19 12:44:04.72	330.42	14.91	-42.0	-42.9	21.4	0.00e+00	0	37	0	3720347648	54	4249
2026-01-19 12:44:08.75	330.69	14.51	-42.2	-43.0	21.3	0.00e+00	0	37	0	3742367744	54	4334
2026-01-19 12:44:12.79	330.96	14.11	-42.1	-43.0	21.3	0.00e+00	0	37	0	3765436416	55	4095
2026-01-19 12:44:16.81	331.22	13.72	-42.3	-43.2	21.1	0.00e+00	0	37	0	3788505088	55	4176
2026-01-19 12:44:20.85	331.47	13.34	-42.3	-43.2	21.1	0.00e+00	0	37	0	3810525184	55	4175
2026-01-19 12:44:24.88	331.72	12.96	-42.4	-43.3	21.0	0.00e+00	0	37	0	3833593856	55	4219
2026-01-19 12:44:28.91	331.96	12.59	-42.5	-43.4	20.9	0.00e+00	0	37	0	3856662528	55	4280
2026-01-19 12:44:32.94	332.19	12.22	-42.6	-43.5	20.8	0.00e+00	0	37	0	3878682624	55	4328
2026-01-19 12:44:36.97	332.42	11.86	-42.7	-43.6	20.7	0.00e+00	0	37	0	3901751296	55	4363
2026-01-19 12:44:41.00	332.65	11.50	-42.8	-43.7	20.6	0.00e+00	0	37	0	3924819968	56	4172
2026-01-19 12:44:45.03	332.87	11.15	-42.7	-43.6	20.7	0.00e+00	0	38	0	3946840064	56	4142
2026-01-19 12:44:49.06	333.08	10.80	-42.9	-43.8	20.5	0.00e+00	0	37	0	3969908736	56	4231
2026-01-19 12:44:53.09	333.29	10.46	-42.8	-43.8	20.5	0.00e+00	0	37	0	3992977408	56	4206
2026-01-19 12:44:57.13	333.50	10.12	-42.9	-43.9	20.3	0.00e+00	0	37	0	4014997504	56	4263
2026-01-19 12:45:01.17	333.70	9.78	-43.0	-44.0	20.2	0.00e+00	0	37	0	4038066176	56	4329
2026-01-19 12:45:05.20	333.90	9.45	-43.3	-44.3	19.9	0.00e+00	0	37	0	4061134848	57	4221
2026-01-19 12:45:09.23	334.10	9.13	-43.2	-44.3	19.9	0.00e+00	0	37	0	4083154944	57	4195
2026-01-19 12:45:13.27	334.29	8.80	-43.3	-44.4	19.8	0.00e+00	0	37	0	4105175040	57	4244
2026-01-19 12:45:17.30	334.47	8.49	-43.3	-44.3	19.8	0.00e+00	0	37	0	4128243712	57	4236
2026-01-19 12:45:21.34	334.66	8.17	-43.4	-44.4	19.7	0.00e+00	0	37	0	4151312384	57	4281
2026-01-19 12:45:25.37	334.84	7.86	-43.8	-44.9	19.2	0.00e+00	0	37	0	4173332480	58	4257
2026-01-19 12:45:29.40	335.01	7.55	-43.8	-44.9	19.2	0.00e+00	0	37	0	4196401152	58	4249
2026-01-19 12:45:33.43	335.19	7.25	-43.7	-44.8	19.3	0.00e+00	0	37	0	4219469824	58	4215
2026-01-19 12:45:37.47	335.36	6.95	-43.8	-44.8	19.2	0.00e+00	0	37	0	4241489920	58	4232
2026-01-19 12:45:41.50	335.52	6.65	-43.8	-44.9	19.0	0.00e+00	0	37	0	4264558592	58	4286
2026-01-19 12:45:45.54	335.69	6.36	-44.0	-45.1	18.8	0.00e+00	0	37	0	4287627264	58	4379
2026-01-19 12:45:49.57	335.85	6.07	-44.3	-45.4	18.5	0.00e+00	0	37	0	4309647360	59	4291
2026-01-19 12:45:53.61	336.00	5.78	-44.0	-45.2	18.7	0.00e+00	0	37	0	4332716032	59	4152
2026-01-19 12:45:57.64	336.16	5.49	-44.1	-45.3	18.5	0.00e+00	0	37	0	4355784704	59	4200
2026-01-19 12:46:01.67	336.31	5.21	-44.5	-45.8	17.7	0.00e+00	0	37	0	4377804800	60	4198
2026-01-19 12:46:05.70	336.46	4.93	-53.0	-65.0	3.8	8.45e-01	0	37	104	4396679168	76	15228
2026-01-19 12:46:09.74	336.61	4.66	-53.2	-65.4	3.8	8.46e-01	0	37	104	4396679168	77	15068
2026-01-19 12:46:13.78	336.76	4.38	-54.0	-66.0	3.8	8.46e-01	0	37	104	4396679168	78	15312
2026-01-19 12:46:17.81	336.90	4.11	-54.2	-66.1	3.8	8.46e-01	0	37	104	4396679168	78	15564
2026-01-19 12:46:21.84	337.04	3.84	-54.2	-66.2	3.8	8.45e-01	0	38	104	4396679168	79	14866
2026-01-19 12:46:25.88	337.18	3.58	-54.2	-66.3	3.8	8.45e-01	0	38	104	4396679168	79	14885
2026-01-19 12:46:29.91	337.31	3.31	-54.2	-66.2	3.8	8.46e-01	0	37	104	4396679168	79	14786
2026-01-19 12:46:33.86	337.45	3.06	-54.2	-66.1	3.8	8.47e-01	0	38	104	4396679168	79	14680
2026-01-19 12:46:37.89	337.58	2.80	-54.1	-66.1	3.8	8.46e-01	0	37	104	4396679168	79	14625
2026-01-19 12:46:41.93	337.71	2.54	-54.1	-66.1	3.8	8.46e-01	0	37	104	4396679168	79	14629
2026-01-19 12:46:45.96	337.84	2.29	-54.1	-66.1	3.8	8.45e-01	0	38	104	4396679168	79	14613
2026-01-19 12:46:50.00	337.96	2.04	-54.1	-66.1	3.8	8.45e-01	0	38	104	4396679168	79	14588

#Closed at: 2026-01-19 12:46:53
#Recorded file [4396 MB]: D:/lorett/data/31041_260119_153235.dat