passes_logs/2026/01/19/R3.2S_Murmansk/R3.2S_Murmansk__20260119_010658_NOAA_21_JPSS-2_rec.log

#Pass ID: 20260119_010658_NOAA 21 (JPSS-2)
#Satellite: NOAA 21 (JPSS-2)
#Configuration: NOAA-21
#almurnet v.1.7.20251203
#Start time: 2026-01-19 01:07:00

#Version: 2.2.20231116
#Station: R3.2S_Murmansk
#Location: 33.079688 lon 68.888172 lat
#TLE: 1 54234U 22150A   26018.60745868  .00000048  00000+0  43754-4 0  9997
#TLE: 2 54234  98.7503 319.4636 0000607 264.0480  96.0627 14.19535445165329

#Time	Az	El	Level	Level2	SNR	BER	BlckErr	Temp	State	Recorded	gain1	gain2
2026-01-19 01:07:00.31	26.22	2.11	-51.6	-64.4	3.8	1.49e+00	0	35	0	0	75	15086
2026-01-19 01:07:04.34	26.19	2.37	-51.6	-64.3	3.8	1.49e+00	0	35	104	0	73	16862
2026-01-19 01:07:08.37	26.16	2.63	-51.6	-64.3	3.8	1.49e+00	0	35	104	0	73	16735
2026-01-19 01:07:12.40	26.13	2.90	-51.6	-64.3	3.8	1.49e+00	0	35	104	0	73	16884
2026-01-19 01:07:16.43	26.10	3.16	-51.6	-64.0	3.8	1.49e+00	0	35	104	0	73	16275
2026-01-19 01:07:20.46	26.06	3.43	-51.2	-60.3	4.3	1.46e+00	0	35	104	0	73	10601
2026-01-19 01:07:24.49	26.03	3.70	-49.6	-53.8	9.3	4.39e-02	0	35	0	8388608	71	5638
2026-01-19 01:07:28.52	25.99	3.98	-47.3	-49.6	13.6	5.30e-06	0	35	0	20971520	66	4600
2026-01-19 01:07:32.55	25.95	4.25	-47.2	-49.5	13.7	5.30e-06	0	35	0	33554432	65	4823
2026-01-19 01:07:36.58	25.91	4.53	-47.4	-49.8	13.4	1.90e-05	0	35	0	46137344	65	4989
2026-01-19 01:07:40.61	25.87	4.81	-49.3	-53.2	9.9	9.82e-03	0	36	0	58720256	69	5918
2026-01-19 01:07:44.65	25.83	5.10	-50.5	-56.3	6.9	2.00e-01	0	35	0	71303168	71	7476
2026-01-19 01:07:48.68	25.79	5.39	-48.1	-50.5	13.3	0.00e+00	0	36	0	79691776	66	5142
2026-01-19 01:07:52.71	25.75	5.68	-46.1	-47.7	16.2	0.00e+00	0	36	0	93323264	64	4160
2026-01-19 01:07:56.74	25.70	5.98	-46.0	-47.5	16.6	0.00e+00	0	36	0	105906176	63	4306
2026-01-19 01:08:00.77	25.66	6.27	-45.8	-47.2	16.9	0.00e+00	0	36	0	117440512	63	4178
2026-01-19 01:08:04.80	25.61	6.58	-45.9	-47.3	16.8	0.00e+00	0	36	0	131072000	63	4234
2026-01-19 01:08:08.83	25.56	6.88	-45.8	-47.3	16.9	0.00e+00	0	36	0	143654912	63	4214
2026-01-19 01:08:12.86	25.51	7.19	-45.5	-46.9	17.3	0.00e+00	0	36	0	156237824	62	4252
2026-01-19 01:08:16.90	25.46	7.50	-45.6	-47.0	17.3	0.00e+00	0	36	0	167772160	62	4304
2026-01-19 01:08:20.93	25.41	7.82	-45.2	-46.5	17.8	0.00e+00	0	36	0	181403648	62	4078
2026-01-19 01:08:24.96	25.36	8.14	-45.2	-46.4	17.9	0.00e+00	0	36	0	193986560	62	4045
2026-01-19 01:08:28.99	25.30	8.47	-45.0	-46.2	18.1	0.00e+00	0	36	0	206569472	61	4171
2026-01-19 01:08:33.02	25.24	8.79	-45.0	-46.2	18.1	0.00e+00	0	36	0	219152384	61	4166
2026-01-19 01:08:37.05	25.18	9.13	-44.9	-46.1	18.2	0.00e+00	0	36	0	231735296	61	4134
2026-01-19 01:08:41.08	25.12	9.47	-44.7	-45.8	18.6	0.00e+00	0	36	0	244318208	61	3997
2026-01-19 01:08:45.12	25.06	9.81	-44.6	-45.8	18.6	0.00e+00	0	36	0	256901120	61	3981
2026-01-19 01:08:49.15	24.99	10.16	-44.5	-45.6	18.8	0.00e+00	0	36	0	269484032	60	4133
2026-01-19 01:08:53.18	24.93	10.51	-44.3	-45.4	19.1	0.00e+00	0	36	0	282066944	60	4006
2026-01-19 01:08:57.22	24.86	10.86	-44.2	-45.2	19.2	0.00e+00	0	36	0	294649856	60	3957
2026-01-19 01:09:01.25	24.79	11.23	-44.2	-45.3	19.2	0.00e+00	0	36	0	307232768	60	3975
2026-01-19 01:09:05.29	24.72	11.59	-44.3	-45.4	19.4	0.00e+00	0	36	0	319815680	59	4247
2026-01-19 01:09:09.32	24.64	11.97	-44.4	-45.5	19.4	0.00e+00	0	36	0	332398592	59	4292
2026-01-19 01:09:13.35	24.56	12.35	-44.2	-45.2	19.6	0.00e+00	0	36	0	344981504	59	4168
2026-01-19 01:09:17.38	24.48	12.73	-44.2	-45.2	19.6	0.00e+00	0	36	0	357564416	59	4184
2026-01-19 01:09:21.42	24.40	13.12	-44.2	-45.2	19.6	0.00e+00	0	36	0	370147328	59	4183
2026-01-19 01:09:25.45	24.31	13.52	-44.1	-45.1	19.8	0.00e+00	0	36	0	382730240	59	4118
2026-01-19 01:09:29.48	24.23	13.92	-44.0	-45.0	19.8	0.00e+00	0	36	0	395313152	59	4096
2026-01-19 01:09:33.51	24.14	14.33	-44.0	-45.0	19.9	0.00e+00	0	36	0	407896064	59	4090
2026-01-19 01:09:37.54	24.04	14.75	-44.0	-45.1	19.9	0.00e+00	0	36	0	420478976	59	4099
2026-01-19 01:09:41.57	23.94	15.17	-44.0	-45.1	19.9	0.00e+00	0	36	0	433061888	59	4108
2026-01-19 01:09:45.60	23.84	15.61	-44.1	-45.1	19.8	0.00e+00	0	36	0	445644800	59	4142
2026-01-19 01:09:49.64	23.74	16.05	-44.1	-45.2	19.8	0.00e+00	0	36	0	458227712	59	4153
2026-01-19 01:09:53.67	23.63	16.49	-44.3	-45.4	19.6	0.00e+00	0	36	0	470810624	59	4257
2026-01-19 01:09:57.70	23.52	16.95	-44.4	-45.5	19.5	0.00e+00	0	36	0	483393536	59	4293
2026-01-19 01:10:01.73	23.40	17.41	-44.6	-45.7	19.3	0.00e+00	0	36	0	495976448	59	4400
2026-01-19 01:10:05.76	23.29	17.89	-44.5	-45.6	19.3	0.00e+00	0	36	0	508559360	59	4385
2026-01-19 01:10:09.79	23.16	18.37	-44.5	-45.6	19.3	0.00e+00	0	36	0	521142272	59	4352
2026-01-19 01:10:13.82	23.03	18.86	-44.4	-45.5	19.5	0.00e+00	0	36	0	533725184	59	4310
2026-01-19 01:10:17.85	22.90	19.36	-44.4	-45.5	19.5	0.00e+00	0	36	0	546308096	59	4306
2026-01-19 01:10:21.88	22.76	19.87	-44.5	-45.6	19.4	0.00e+00	0	36	0	558891008	59	4360
2026-01-19 01:10:25.91	22.62	20.39	-44.1	-45.1	20.0	0.00e+00	0	36	0	571473920	59	4109
2026-01-19 01:10:29.94	22.47	20.93	-43.8	-44.8	20.3	0.00e+00	0	36	0	584056832	59	3988
2026-01-19 01:10:33.97	22.31	21.47	-43.4	-44.3	20.7	0.00e+00	0	36	0	596639744	58	3985
2026-01-19 01:10:38.00	22.15	22.03	-43.1	-44.0	21.0	0.00e+00	0	36	0	609222656	58	3844
2026-01-19 01:10:42.03	21.98	22.59	-42.9	-43.8	21.2	0.00e+00	0	36	0	621805568	57	3993
2026-01-19 01:10:46.06	21.81	23.17	-42.8	-43.7	21.3	0.00e+00	0	36	0	634388480	57	3929
2026-01-19 01:10:50.09	21.63	23.77	-42.8	-43.7	21.3	0.00e+00	0	36	0	646971392	57	3940
2026-01-19 01:10:54.12	21.44	24.37	-42.8	-43.6	21.3	0.00e+00	0	36	0	659554304	57	3908
2026-01-19 01:10:58.16	21.24	25.00	-43.0	-43.9	21.2	0.00e+00	0	36	0	672137216	57	4010
2026-01-19 01:11:02.18	21.03	25.63	-43.5	-44.4	20.7	0.00e+00	0	36	0	684720128	57	4265
2026-01-19 01:11:06.21	20.82	26.28	-43.8	-44.8	20.4	0.00e+00	0	36	0	697303040	58	4207
2026-01-19 01:11:10.24	20.59	26.95	-44.2	-45.2	20.1	0.00e+00	0	36	0	709885952	58	4393
2026-01-19 01:11:14.28	20.36	27.63	-44.4	-45.4	19.9	0.00e+00	0	37	0	722468864	59	4275
2026-01-19 01:11:18.31	20.11	28.33	-44.6	-45.7	19.6	0.00e+00	0	36	0	735051776	59	4399
2026-01-19 01:11:22.34	19.85	29.05	-44.1	-45.1	19.9	0.00e+00	0	36	0	747634688	60	3885
2026-01-19 01:11:26.38	19.58	29.78	-44.1	-45.1	20.1	0.00e+00	0	36	0	760217600	59	4124
2026-01-19 01:11:30.41	19.29	30.54	-43.8	-44.8	20.4	0.00e+00	0	36	0	772800512	59	3976
2026-01-19 01:11:34.44	18.99	31.31	-43.8	-44.7	20.6	0.00e+00	0	36	0	785383424	59	3938
2026-01-19 01:11:38.47	18.68	32.10	-43.8	-44.8	20.6	0.00e+00	0	36	0	797966336	59	3982
2026-01-19 01:11:42.50	18.35	32.91	-44.2	-45.2	20.2	0.00e+00	0	36	0	810549248	59	4192
2026-01-19 01:11:46.53	18.00	33.75	-44.5	-45.5	19.9	0.00e+00	0	36	0	823132160	59	4330
2026-01-19 01:11:50.56	17.63	34.60	-44.4	-45.4	19.8	0.00e+00	0	36	0	835715072	60	4017
2026-01-19 01:11:54.59	17.24	35.48	-44.5	-45.5	19.7	0.00e+00	0	36	0	848297984	60	4066
2026-01-19 01:11:58.62	16.82	36.39	-44.7	-45.8	19.4	0.00e+00	0	36	0	860880896	60	4215
2026-01-19 01:12:02.65	16.39	37.31	-45.2	-46.3	18.9	0.00e+00	0	36	0	873463808	60	4451
2026-01-19 01:12:06.69	15.92	38.26	-44.8	-45.8	19.4	0.00e+00	0	36	0	886046720	60	4230
2026-01-19 01:12:10.71	15.43	39.24	-45.0	-46.1	19.2	0.00e+00	0	36	0	899678208	60	4342
2026-01-19 01:12:14.74	14.90	40.24	-45.4	-46.5	18.8	0.00e+00	0	36	0	911212544	61	4326
2026-01-19 01:12:18.78	14.34	41.27	-46.0	-47.2	18.2	0.00e+00	0	36	0	923795456	62	4426
2026-01-19 01:12:22.81	13.74	42.32	-46.5	-47.9	17.6	0.00e+00	0	37	0	937426944	63	4494
2026-01-19 01:12:26.84	13.10	43.40	-46.1	-47.4	18.0	0.00e+00	0	36	0	950009856	63	4254
2026-01-19 01:12:30.88	12.41	44.51	-46.2	-47.5	18.0	0.00e+00	0	37	0	961544192	63	4305
2026-01-19 01:12:34.90	11.67	45.64	-46.0	-47.3	18.1	0.00e+00	0	36	0	975175680	63	4194
2026-01-19 01:12:38.94	10.87	46.81	-45.2	-46.3	19.1	0.00e+00	0	36	0	987758592	62	3993
2026-01-19 01:12:42.97	10.01	47.99	-44.8	-45.8	19.5	0.00e+00	0	36	0	1000341504	61	3997
2026-01-19 01:12:47.00	9.08	49.21	-44.8	-45.9	19.5	0.00e+00	0	36	0	1012924416	61	4008
2026-01-19 01:12:51.04	8.07	50.45	-45.2	-46.3	19.1	0.00e+00	0	36	0	1025507328	61	4234
2026-01-19 01:12:55.07	6.98	51.71	-45.3	-46.4	19.0	0.00e+00	0	36	0	1038090240	61	4269
2026-01-19 01:12:59.10	5.78	52.99	-45.1	-46.2	19.1	0.00e+00	0	36	0	1050673152	61	4171
2026-01-19 01:13:03.13	4.47	54.30	-44.3	-45.2	20.2	0.00e+00	0	36	0	1063256064	59	4187
2026-01-19 01:13:07.16	3.04	55.62	-43.9	-44.9	20.6	0.00e+00	0	36	0	1075838976	59	4018
2026-01-19 01:13:11.19	1.46	56.95	-43.5	-44.4	20.9	0.00e+00	0	36	0	1088421888	58	4040
2026-01-19 01:13:15.23	359.71	58.29	-43.7	-44.6	20.9	0.00e+00	0	36	0	1101004800	58	4106
2026-01-19 01:13:19.26	357.78	59.64	-43.5	-44.4	21.1	0.00e+00	0	37	0	1113587712	58	4008
2026-01-19 01:13:23.29	355.64	60.98	-43.5	-44.4	21.2	0.00e+00	0	36	0	1126170624	58	4027
2026-01-19 01:13:27.32	353.26	62.30	-42.9	-43.8	21.7	0.00e+00	0	36	0	1138753536	57	3966
2026-01-19 01:13:31.36	350.60	63.61	-42.4	-43.2	22.1	0.00e+00	0	36	0	1151336448	56	3929
2026-01-19 01:13:35.39	347.63	64.89	-42.3	-43.2	22.2	0.00e+00	0	36	0	1163919360	56	3914
2026-01-19 01:13:39.42	344.31	66.11	-42.7	-43.5	21.9	0.00e+00	0	36	0	1176502272	56	4077
2026-01-19 01:13:43.45	340.61	67.27	-43.0	-43.8	21.7	0.00e+00	0	36	0	1189085184	57	3982
2026-01-19 01:13:47.48	336.48	68.35	-42.3	-43.1	22.3	0.00e+00	0	36	0	1201668096	56	3897
2026-01-19 01:13:51.51	331.90	69.32	-42.4	-43.2	22.2	0.00e+00	0	36	0	1214251008	56	3943
2026-01-19 01:13:55.54	326.87	70.17	-42.5	-43.3	21.9	0.00e+00	0	37	0	1226833920	56	3993
2026-01-19 01:13:59.58	321.38	70.86	-42.5	-43.3	22.1	0.00e+00	0	36	0	1239416832	56	3975
2026-01-19 01:14:03.61	315.52	71.39	-42.9	-43.7	21.5	0.00e+00	0	36	0	1251999744	57	3957
2026-01-19 01:14:07.64	309.37	71.72	-43.1	-44.0	21.4	0.00e+00	0	37	0	1264582656	56	4329
2026-01-19 01:14:11.68	303.05	71.84	-42.9	-43.7	21.7	0.00e+00	0	36	0	1277165568	56	4170
2026-01-19 01:14:15.71	296.72	71.75	-42.7	-43.5	21.8	0.00e+00	0	36	0	1289748480	56	4077
2026-01-19 01:14:19.74	290.53	71.46	-42.5	-43.3	21.9	0.00e+00	0	36	0	1302331392	56	3990
2026-01-19 01:14:23.78	284.60	70.97	-43.2	-44.0	21.5	0.00e+00	0	36	0	1314914304	56	4340
2026-01-19 01:14:27.81	279.05	70.30	-42.9	-43.7	21.8	0.00e+00	0	36	0	1327497216	57	3929
2026-01-19 01:14:31.84	273.93	69.48	-42.3	-43.1	22.0	0.00e+00	0	36	0	1340080128	56	3904
2026-01-19 01:14:35.88	269.26	68.52	-42.3	-43.1	22.3	0.00e+00	0	37	0	1352663040	56	3884
2026-01-19 01:14:39.91	265.05	67.46	-43.0	-43.8	21.3	0.00e+00	0	36	0	1365245952	58	3769
2026-01-19 01:14:43.94	261.27	66.31	-43.5	-44.5	21.1	0.00e+00	0	36	0	1377828864	58	4056
2026-01-19 01:14:47.98	257.88	65.09	-42.2	-43.0	22.2	0.00e+00	0	36	0	1390411776	56	3828
2026-01-19 01:14:52.01	254.85	63.82	-43.1	-43.9	21.3	0.00e+00	0	36	0	1402994688	58	3802
2026-01-19 01:14:56.04	252.14	62.52	-44.3	-45.3	20.3	0.00e+00	0	36	0	1415577600	59	4230
2026-01-19 01:15:00.08	249.71	61.19	-43.0	-43.8	21.6	0.00e+00	0	36	0	1428160512	57	3988
2026-01-19 01:15:04.11	247.53	59.85	-44.3	-45.2	20.2	0.00e+00	0	36	0	1440743424	60	3954
2026-01-19 01:15:08.14	245.56	58.50	-42.7	-43.5	21.9	0.00e+00	0	36	0	1453326336	57	3833
2026-01-19 01:15:12.17	243.79	57.16	-44.4	-45.3	20.0	0.00e+00	0	36	0	1465909248	59	4240
2026-01-19 01:15:16.20	242.18	55.82	-43.7	-44.6	20.9	0.00e+00	0	36	0	1478492160	59	3888
2026-01-19 01:15:20.24	240.72	54.49	-45.1	-46.2	19.2	0.00e+00	0	37	0	1491075072	60	4414
2026-01-19 01:15:24.26	239.39	53.18	-44.8	-45.9	19.2	0.00e+00	0	37	0	1503657984	61	4014
2026-01-19 01:15:28.30	238.17	51.89	-44.6	-45.6	20.0	0.00e+00	0	37	0	1516240896	59	4356
2026-01-19 01:15:32.32	237.06	50.63	-46.5	-47.9	17.7	0.00e+00	0	37	0	1528823808	63	4514
2026-01-19 01:15:36.36	236.03	49.38	-44.5	-45.5	19.6	0.00e+00	0	37	0	1541406720	61	3838
2026-01-19 01:15:40.38	235.09	48.16	-46.0	-47.2	18.3	0.00e+00	0	37	0	1553989632	62	4403
2026-01-19 01:15:44.42	234.22	46.96	-46.5	-47.8	17.5	0.00e+00	0	36	0	1566572544	63	4479
2026-01-19 01:15:48.45	233.41	45.79	-45.2	-46.3	18.8	0.00e+00	0	36	0	1579155456	62	3967
2026-01-19 01:15:52.48	232.66	44.65	-45.7	-46.9	18.5	0.00e+00	0	37	0	1591738368	61	4495
2026-01-19 01:15:56.52	231.96	43.53	-47.0	-48.4	17.0	0.00e+00	0	37	0	1604321280	65	4270
2026-01-19 01:16:00.55	231.31	42.45	-45.7	-46.8	18.6	0.00e+00	0	37	0	1616904192	63	4002
2026-01-19 01:16:04.58	230.71	41.38	-45.0	-46.1	19.2	0.00e+00	0	36	0	1629487104	62	3874
2026-01-19 01:16:08.62	230.14	40.35	-44.6	-45.6	19.6	0.00e+00	0	36	0	1643118592	60	4127
2026-01-19 01:16:12.65	229.60	39.34	-46.3	-47.7	17.6	0.00e+00	0	37	0	1654652928	63	4406
2026-01-19 01:16:16.68	229.10	38.36	-45.5	-46.6	18.7	0.00e+00	0	36	0	1667235840	62	4126
2026-01-19 01:16:20.71	228.63	37.40	-44.8	-45.9	19.4	0.00e+00	0	37	0	1680867328	61	4019
2026-01-19 01:16:24.74	228.19	36.47	-44.1	-45.1	20.1	0.00e+00	0	37	0	1693450240	60	3896
2026-01-19 01:16:28.78	227.77	35.56	-44.2	-45.2	20.0	0.00e+00	0	36	0	1704984576	60	3939
2026-01-19 01:16:32.81	227.37	34.67	-44.3	-45.3	20.2	0.00e+00	0	37	0	1718616064	59	4200
2026-01-19 01:16:36.84	227.00	33.81	-44.2	-45.1	20.2	0.00e+00	0	37	0	1731198976	59	4141
2026-01-19 01:16:40.87	226.65	32.97	-44.6	-45.6	19.8	0.00e+00	0	37	0	1743781888	59	4371
2026-01-19 01:16:44.91	226.31	32.15	-43.7	-44.7	20.7	0.00e+00	0	36	0	1756364800	59	3922
2026-01-19 01:16:48.94	225.99	31.35	-43.9	-44.9	20.6	0.00e+00	0	37	0	1768947712	59	4006
2026-01-19 01:16:52.97	225.69	30.57	-44.5	-45.5	19.9	0.00e+00	0	36	0	1781530624	59	4321
2026-01-19 01:16:57.00	225.40	29.82	-44.4	-45.4	20.0	0.00e+00	0	37	0	1794113536	59	4272
2026-01-19 01:17:01.03	225.12	29.08	-44.1	-45.1	20.3	0.00e+00	0	37	0	1806696448	59	4100
2026-01-19 01:17:05.06	224.86	28.36	-43.1	-44.0	21.1	0.00e+00	0	36	0	1819279360	58	3847
2026-01-19 01:17:09.10	224.61	27.65	-42.8	-43.6	21.5	0.00e+00	0	37	0	1831862272	57	3880
2026-01-19 01:17:13.13	224.37	26.96	-42.4	-43.1	21.9	0.00e+00	0	37	0	1844445184	56	3913
2026-01-19 01:17:17.16	224.14	26.29	-42.8	-43.6	21.5	0.00e+00	0	37	0	1857028096	56	4113
2026-01-19 01:17:21.19	223.92	25.64	-43.4	-44.3	20.9	0.00e+00	0	37	0	1869611008	57	4209
2026-01-19 01:17:25.22	223.71	25.00	-43.7	-44.6	20.6	0.00e+00	0	37	0	1882193920	58	4144
2026-01-19 01:17:29.26	223.51	24.37	-44.0	-45.0	20.3	0.00e+00	0	37	0	1894776832	58	4328
2026-01-19 01:17:33.29	223.32	23.76	-43.9	-44.8	20.4	0.00e+00	0	36	0	1907359744	58	4232
2026-01-19 01:17:37.32	223.14	23.17	-43.8	-44.8	20.5	0.00e+00	0	36	0	1919942656	58	4203
2026-01-19 01:17:41.35	222.96	22.58	-43.7	-44.7	20.6	0.00e+00	0	36	0	1932525568	58	4153
2026-01-19 01:17:45.38	222.79	22.01	-43.4	-44.4	20.8	0.00e+00	0	37	0	1945108480	58	4016
2026-01-19 01:17:49.41	222.62	21.45	-43.6	-44.6	20.6	0.00e+00	0	36	0	1957691392	58	4112
2026-01-19 01:17:53.45	222.47	20.90	-43.5	-44.5	20.6	0.00e+00	0	37	0	1970274304	58	4063
2026-01-19 01:17:57.48	222.31	20.37	-43.4	-44.4	20.7	0.00e+00	0	37	0	1982857216	58	4019
2026-01-19 01:18:01.51	222.17	19.84	-43.3	-44.2	20.8	0.00e+00	0	37	0	1995440128	58	3946
2026-01-19 01:18:05.54	222.03	19.33	-43.3	-44.2	20.8	0.00e+00	0	37	0	2008023040	58	3929
2026-01-19 01:18:09.58	221.89	18.82	-43.4	-44.3	20.7	0.00e+00	0	37	0	2020605952	58	3992
2026-01-19 01:18:13.60	221.76	18.33	-43.5	-44.5	20.5	0.00e+00	0	37	0	2033188864	58	4065
2026-01-19 01:18:17.64	221.63	17.85	-43.7	-44.7	20.4	0.00e+00	0	37	0	2045771776	58	4153
2026-01-19 01:18:21.67	221.51	17.37	-43.8	-44.8	20.2	0.00e+00	0	37	0	2058354688	58	4229
2026-01-19 01:18:25.70	221.39	16.90	-44.0	-45.0	20.1	0.00e+00	0	37	0	2070937600	58	4311
2026-01-19 01:18:29.73	221.28	16.45	-44.3	-45.3	19.8	0.00e+00	0	37	0	2083520512	59	4211
2026-01-19 01:18:33.76	221.17	16.00	-44.3	-45.4	19.7	0.00e+00	0	36	0	2096103424	59	4248
2026-01-19 01:18:37.79	221.06	15.56	-44.4	-45.4	19.7	0.00e+00	0	36	0	2108686336	59	4264
2026-01-19 01:18:41.83	220.96	15.12	-44.4	-45.5	19.6	0.00e+00	0	36	0	2121269248	59	4318
2026-01-19 01:18:45.85	220.86	14.70	-44.3	-45.4	19.4	0.00e+00	0	36	0	2133852160	60	4012
2026-01-19 01:18:49.89	220.76	14.28	-44.4	-45.5	19.2	0.00e+00	0	37	0	2146435072	60	4088
2026-01-19 01:18:53.92	220.67	13.86	-44.5	-45.6	19.2	0.00e+00	0	37	0	2159017984	60	4112
2026-01-19 01:18:57.95	220.58	13.46	-44.4	-45.5	19.2	0.00e+00	0	36	0	2171600896	60	4090
2026-01-19 01:19:01.97	220.49	13.06	-44.3	-45.4	19.3	0.00e+00	0	37	0	2184183808	60	4025
2026-01-19 01:19:06.00	220.41	12.67	-44.1	-45.2	19.5	0.00e+00	0	37	0	2196766720	60	3933
2026-01-19 01:19:10.03	220.32	12.28	-44.4	-45.4	19.3	0.00e+00	0	37	0	2209349632	60	4039
2026-01-19 01:19:14.06	220.24	11.90	-44.4	-45.5	19.2	0.00e+00	0	37	0	2221932544	60	4062
2026-01-19 01:19:18.09	220.17	11.53	-44.4	-45.4	19.2	0.00e+00	0	37	0	2234515456	60	4042
2026-01-19 01:19:22.12	220.09	11.16	-44.5	-45.6	19.0	0.00e+00	0	37	0	2247098368	60	4110
2026-01-19 01:19:26.15	220.02	10.80	-44.5	-45.6	18.9	0.00e+00	0	37	0	2259681280	60	4144
2026-01-19 01:19:30.19	219.95	10.44	-44.6	-45.7	18.9	0.00e+00	0	37	0	2272264192	60	4160
2026-01-19 01:19:34.22	219.88	10.08	-44.5	-45.7	18.9	0.00e+00	0	37	0	2284847104	60	4151
2026-01-19 01:19:38.25	219.81	9.73	-44.7	-45.9	18.6	0.00e+00	0	37	0	2297430016	60	4265
2026-01-19 01:19:42.28	219.74	9.39	-44.6	-45.7	18.7	0.00e+00	0	37	0	2310012928	60	4184
2026-01-19 01:19:46.31	219.68	9.05	-44.6	-45.8	18.6	0.00e+00	0	37	0	2322595840	60	4216
2026-01-19 01:19:50.34	219.62	8.72	-44.9	-46.1	18.3	0.00e+00	0	37	0	2335178752	60	4366
2026-01-19 01:19:54.37	219.56	8.39	-44.8	-46.0	18.4	0.00e+00	0	37	0	2347761664	60	4337
2026-01-19 01:19:58.40	219.50	8.06	-44.9	-46.2	18.2	0.00e+00	0	37	0	2360344576	61	4151
2026-01-19 01:20:02.43	219.44	7.74	-45.1	-46.3	18.1	0.00e+00	0	37	0	2372927488	61	4219
2026-01-19 01:20:06.46	219.39	7.42	-45.4	-46.7	17.6	0.00e+00	0	37	0	2385510400	61	4410
2026-01-19 01:20:10.50	219.33	7.11	-45.3	-46.6	17.7	0.00e+00	0	37	0	2398093312	61	4377
2026-01-19 01:20:14.53	219.28	6.80	-45.3	-46.6	17.6	0.00e+00	0	37	0	2410676224	62	4140
2026-01-19 01:20:18.56	219.23	6.49	-45.6	-46.9	17.3	0.00e+00	0	37	0	2423259136	62	4284
2026-01-19 01:20:22.59	219.18	6.19	-45.8	-47.2	17.0	0.00e+00	0	37	0	2435842048	62	4409
2026-01-19 01:20:26.63	219.13	5.89	-46.0	-47.5	16.7	0.00e+00	0	36	0	2448424960	62	4557
2026-01-19 01:20:30.65	219.08	5.59	-46.0	-47.5	16.6	0.00e+00	0	37	0	2461007872	62	4591
2026-01-19 01:20:34.68	219.04	5.30	-46.1	-47.6	16.4	0.00e+00	0	37	0	2473590784	63	4377
2026-01-19 01:20:38.72	218.99	5.01	-52.4	-63.2	3.9	1.27e-03	2	37	0	2486173696	75	13227
2026-01-19 01:20:42.75	218.95	4.72	-53.5	-66.3	3.8	1.49e+00	0	37	104	2486173696	77	16781
2026-01-19 01:20:46.78	218.91	4.44	-53.8	-66.6	3.8	1.49e+00	0	37	104	2486173696	78	16440
2026-01-19 01:20:50.81	218.86	4.16	-53.9	-66.8	3.8	1.49e+00	0	37	104	2486173696	78	16700
2026-01-19 01:20:54.84	218.82	3.88	-54.0	-66.8	3.8	1.49e+00	0	37	104	2486173696	78	16861
2026-01-19 01:20:58.87	218.78	3.61	-54.1	-66.9	3.8	1.49e+00	0	37	104	2486173696	78	16915
2026-01-19 01:21:02.90	218.75	3.34	-54.1	-66.9	3.8	1.49e+00	0	37	104	2486173696	78	16938
2026-01-19 01:21:06.93	218.71	3.07	-54.0	-66.8	3.8	1.49e+00	0	37	104	2486173696	78	16831
2026-01-19 01:21:10.96	218.67	2.80	-54.0	-66.8	3.8	1.49e+00	0	37	104	2486173696	78	16781
2026-01-19 01:21:14.99	218.64	2.53	-54.0	-66.8	3.8	1.49e+00	0	37	104	2486173696	78	16815
2026-01-19 01:21:19.02	218.60	2.27	-54.0	-66.8	3.8	1.49e+00	0	37	104	2486173696	78	16786
2026-01-19 01:21:23.06	218.57	2.01	-54.0	-66.8	3.8	1.49e+00	0	37	104	2486173696	78	16798

#Closed at: 2026-01-19 01:21:23
#Recorded file [2486 MB]: D:/lorett/data/31041_260119_040700.dat