passes_logs/2026/01/19/R3.2S_Murmansk/R3.2S_Murmansk__20260119_235804_NOAA_20_JPSS-1_rec.log

#Pass ID: 20260119_235804_NOAA 20 (JPSS-1)
#Satellite: NOAA 20 (JPSS-1)
#Configuration: NOAA 20
#almurnet v.1.7.20251203
#Start time: 2026-01-19 23:58:06

#Version: 2.2.20231116
#Station: R3.2S_Murmansk
#Location: 33.079688 lon 68.888172 lat
#TLE: 1 43013U 17073A   26019.27717929  .00000087  00000+0  62288-4 0  9995
#TLE: 2 43013  98.7641 320.1715 0001339  33.1986 326.9274 14.19537047423343

#Time	Az	El	Level	Level2	SNR	BER	BlckErr	Temp	State	Recorded	gain1	gain2
2026-01-19 23:58:06.85	22.15	2.12	-51.9	-64.6	3.8	1.48e+00	0	37	0	0	75	15503
2026-01-19 23:58:10.87	22.24	2.38	-51.8	-64.0	4.0	1.48e+00	0	37	0	0	74	15401
2026-01-19 23:58:14.91	22.34	2.63	-51.8	-63.4	4.2	1.40e+00	0	37	0	0	74	14247
2026-01-19 23:58:18.94	22.44	2.89	-51.6	-61.3	5.0	8.58e-01	0	37	0	5242880	74	11182
2026-01-19 23:58:22.97	22.54	3.16	-51.6	-61.2	5.1	6.73e-01	0	37	0	12582912	74	11124
2026-01-19 23:58:27.00	22.64	3.42	-51.3	-59.1	6.6	3.07e-01	0	37	0	19922944	74	8732
2026-01-19 23:58:31.03	22.74	3.69	-50.7	-56.5	9.1	4.74e-02	0	38	0	27262976	73	6877
2026-01-19 23:58:35.07	22.85	3.96	-49.7	-53.8	12.0	4.03e-04	0	38	0	35651584	71	5653
2026-01-19 23:58:39.10	22.96	4.23	-49.7	-53.9	12.0	2.55e-04	0	38	0	42991616	70	6008
2026-01-19 23:58:43.14	23.06	4.51	-50.3	-55.2	10.6	2.29e-03	0	38	0	50331648	71	6602
2026-01-19 23:58:47.17	23.17	4.79	-51.1	-58.1	7.5	5.91e-02	0	38	0	57671680	72	8746
2026-01-19 23:58:51.20	23.28	5.07	-51.4	-60.3	5.7	3.98e-01	0	38	0	66060288	73	10596
2026-01-19 23:58:55.23	23.40	5.35	-49.4	-52.6	13.7	1.50e-06	0	38	0	72351744	70	5203
2026-01-19 23:58:59.27	23.51	5.64	-48.6	-51.4	15.0	0.00e+00	0	38	0	79691776	69	4768
2026-01-19 23:59:03.30	23.63	5.93	-48.1	-50.5	16.0	0.00e+00	0	38	0	87031808	67	4823
2026-01-19 23:59:07.33	23.75	6.22	-48.0	-50.3	16.1	0.00e+00	0	38	0	94371840	67	4717
2026-01-19 23:59:11.36	23.87	6.52	-47.7	-49.9	16.5	0.00e+00	0	38	0	101711872	67	4536
2026-01-19 23:59:15.39	23.99	6.82	-47.9	-50.2	16.3	0.00e+00	0	38	0	109051904	67	4684
2026-01-19 23:59:19.42	24.12	7.12	-47.8	-50.0	16.5	0.00e+00	0	38	0	117440512	67	4558
2026-01-19 23:59:23.45	24.25	7.43	-47.6	-49.7	16.8	0.00e+00	0	38	0	124780544	67	4428
2026-01-19 23:59:27.49	24.38	7.74	-47.7	-49.8	16.8	0.00e+00	0	38	0	132120576	67	4460
2026-01-19 23:59:31.52	24.51	8.05	-47.4	-49.5	17.2	0.00e+00	0	38	0	139460608	66	4547
2026-01-19 23:59:35.55	24.64	8.37	-47.7	-49.8	16.9	0.00e+00	0	38	0	147849216	66	4721
2026-01-19 23:59:39.58	24.78	8.69	-47.4	-49.4	17.2	0.00e+00	0	38	0	155189248	66	4537
2026-01-19 23:59:43.61	24.92	9.02	-47.5	-49.5	17.2	0.00e+00	0	38	0	162529280	66	4548
2026-01-19 23:59:47.64	25.06	9.35	-47.4	-49.3	17.5	0.00e+00	0	38	0	169869312	66	4455
2026-01-19 23:59:51.68	25.21	9.69	-47.3	-49.2	17.6	0.00e+00	0	38	0	177209344	66	4408
2026-01-19 23:59:55.71	25.36	10.03	-47.3	-49.2	17.6	0.00e+00	0	38	0	184549376	66	4422
2026-01-19 23:59:59.74	25.51	10.37	-47.1	-48.9	17.9	0.00e+00	0	38	0	192937984	66	4283
2026-01-20 00:00:03.78	25.66	10.72	-47.0	-48.8	18.1	0.00e+00	0	38	0	200278016	66	4195
2026-01-20 00:00:07.80	25.82	11.07	-47.0	-48.7	18.1	0.00e+00	0	38	0	207618048	65	4421
2026-01-20 00:00:11.84	25.98	11.43	-47.1	-48.9	17.9	0.00e+00	0	38	0	214958080	65	4535
2026-01-20 00:00:15.87	26.15	11.79	-47.1	-48.9	18.0	0.00e+00	0	38	0	223346688	65	4511
2026-01-20 00:00:19.90	26.32	12.16	-46.9	-48.7	18.3	0.00e+00	0	38	0	230686720	65	4393
2026-01-20 00:00:23.93	26.49	12.54	-47.0	-48.7	18.2	0.00e+00	0	38	0	238026752	65	4424
2026-01-20 00:00:27.96	26.67	12.92	-47.0	-48.7	18.3	0.00e+00	0	38	0	245366784	65	4415
2026-01-20 00:00:31.99	26.85	13.30	-46.9	-48.6	18.3	0.00e+00	0	38	0	252706816	65	4382
2026-01-20 00:00:36.02	27.03	13.69	-47.0	-48.7	18.3	0.00e+00	0	38	0	261095424	65	4405
2026-01-20 00:00:40.06	27.22	14.09	-46.9	-48.6	18.4	0.00e+00	0	38	0	268435456	65	4378
2026-01-20 00:00:44.09	27.42	14.50	-46.8	-48.4	18.5	0.00e+00	0	38	0	275775488	65	4288
2026-01-20 00:00:48.12	27.62	14.91	-46.7	-48.4	18.6	0.00e+00	0	38	0	283115520	65	4257
2026-01-20 00:00:52.15	27.82	15.33	-46.9	-48.5	18.5	0.00e+00	0	38	0	290455552	65	4331
2026-01-20 00:00:56.18	28.03	15.75	-46.8	-48.4	18.6	0.00e+00	0	38	0	298844160	65	4283
2026-01-20 00:01:00.21	28.24	16.18	-46.8	-48.4	18.7	0.00e+00	0	38	0	306184192	65	4263
2026-01-20 00:01:04.24	28.47	16.62	-46.7	-48.3	18.8	0.00e+00	0	38	0	313524224	65	4231
2026-01-20 00:01:08.27	28.69	17.07	-46.7	-48.4	18.7	0.00e+00	0	38	0	320864256	65	4246
2026-01-20 00:01:12.31	28.93	17.52	-46.6	-48.2	18.9	0.00e+00	0	38	0	328204288	65	4185
2026-01-20 00:01:16.34	29.17	17.99	-46.7	-48.2	18.9	0.00e+00	0	39	0	336592896	65	4193
2026-01-20 00:01:20.37	29.41	18.46	-46.7	-48.2	18.9	0.00e+00	0	38	0	343932928	65	4187
2026-01-20 00:01:24.40	29.67	18.94	-46.5	-48.1	19.1	0.00e+00	0	38	0	351272960	65	4108
2026-01-20 00:01:28.43	29.93	19.43	-46.5	-48.0	19.2	0.00e+00	0	38	0	358612992	65	4068
2026-01-20 00:01:32.46	30.20	19.93	-46.4	-47.9	19.3	0.00e+00	0	38	0	367001600	64	4276
2026-01-20 00:01:36.50	30.48	20.44	-46.3	-47.7	19.5	0.00e+00	0	38	0	374341632	64	4193
2026-01-20 00:01:40.53	30.76	20.95	-46.0	-47.4	19.9	0.00e+00	0	38	0	381681664	63	4277
2026-01-20 00:01:44.55	31.06	21.48	-45.9	-47.2	20.1	0.00e+00	0	38	0	389021696	63	4184
2026-01-20 00:01:48.59	31.37	22.02	-45.6	-46.9	20.4	0.00e+00	0	38	0	396361728	63	4026
2026-01-20 00:01:52.62	31.68	22.57	-45.6	-47.0	20.3	0.00e+00	0	38	0	404750336	63	4055
2026-01-20 00:01:56.66	32.01	23.13	-45.4	-46.6	20.7	0.00e+00	0	39	0	412090368	62	4139
2026-01-20 00:02:00.69	32.35	23.71	-45.2	-46.4	20.8	0.00e+00	0	38	0	419430400	62	4050
2026-01-20 00:02:04.72	32.70	24.29	-45.3	-46.5	20.7	0.00e+00	0	38	0	426770432	62	4094
2026-01-20 00:02:08.75	33.06	24.89	-45.5	-46.8	20.6	0.00e+00	0	39	0	435159040	62	4199
2026-01-20 00:02:12.78	33.44	25.50	-45.4	-46.7	20.7	0.00e+00	0	38	0	442499072	62	4155
2026-01-20 00:02:16.81	33.83	26.12	-45.5	-46.8	20.6	0.00e+00	0	38	0	449839104	62	4202
2026-01-20 00:02:20.84	34.24	26.76	-45.6	-46.9	20.4	0.00e+00	0	38	0	457179136	62	4280
2026-01-20 00:02:24.88	34.66	27.41	-45.8	-47.2	20.2	0.00e+00	0	39	0	464519168	62	4406
2026-01-20 00:02:28.91	35.10	28.07	-46.1	-47.5	20.0	0.00e+00	0	38	0	471859200	62	4549
2026-01-20 00:02:32.94	35.56	28.75	-46.9	-48.4	19.0	0.00e+00	0	38	0	480247808	64	4541
2026-01-20 00:02:36.97	36.03	29.44	-47.6	-49.4	18.1	0.00e+00	0	38	0	487587840	65	4764
2026-01-20 00:02:41.00	36.53	30.15	-48.0	-49.9	17.5	0.00e+00	0	38	0	494927872	66	4802
2026-01-20 00:02:45.03	37.05	30.88	-48.9	-51.2	16.4	0.00e+00	0	38	0	502267904	68	4945
2026-01-20 00:02:49.07	37.59	31.62	-49.3	-51.8	15.7	0.00e+00	0	38	0	510656512	69	5025
2026-01-20 00:02:53.10	38.15	32.38	-49.3	-51.7	15.9	0.00e+00	0	39	0	517996544	69	4955
2026-01-20 00:02:57.13	38.75	33.15	-48.8	-51.0	16.6	0.00e+00	0	38	0	525336576	69	4559
2026-01-20 00:03:01.16	39.37	33.94	-48.5	-50.6	17.0	0.00e+00	0	39	0	532676608	68	4609
2026-01-20 00:03:05.19	40.02	34.75	-48.7	-50.8	16.8	0.00e+00	0	39	0	540016640	68	4749
2026-01-20 00:03:09.22	40.70	35.57	-48.6	-50.7	16.9	0.00e+00	0	39	0	548405248	68	4700
2026-01-20 00:03:13.25	41.42	36.41	-48.2	-50.1	17.5	0.00e+00	0	38	0	555745280	68	4385
2026-01-20 00:03:17.28	42.18	37.27	-47.7	-49.5	18.1	0.00e+00	0	39	0	563085312	67	4296
2026-01-20 00:03:21.32	42.97	38.15	-47.4	-49.1	18.5	0.00e+00	0	38	0	570425344	66	4348
2026-01-20 00:03:25.35	43.81	39.04	-47.5	-49.2	18.4	0.00e+00	0	39	0	577765376	66	4398
2026-01-20 00:03:29.38	44.70	39.95	-47.4	-49.0	18.5	0.00e+00	0	38	0	586153984	66	4337
2026-01-20 00:03:33.41	45.64	40.88	-46.2	-47.5	20.0	0.00e+00	0	38	0	593494016	64	4078
2026-01-20 00:03:37.45	46.63	41.82	-47.4	-49.0	18.6	0.00e+00	0	38	0	600834048	65	4584
2026-01-20 00:03:41.48	47.68	42.78	-47.2	-48.8	18.8	0.00e+00	0	39	0	608174080	65	4459
2026-01-20 00:03:45.51	48.80	43.75	-47.5	-49.2	18.4	0.00e+00	0	38	0	615514112	65	4696
2026-01-20 00:03:49.54	49.98	44.73	-47.9	-49.8	17.9	0.00e+00	0	39	0	623902720	66	4710
2026-01-20 00:03:53.57	51.24	45.72	-48.1	-50.0	17.6	0.00e+00	0	39	0	631242752	66	4856
2026-01-20 00:03:57.61	52.58	46.73	-49.2	-51.5	16.3	0.00e+00	0	39	0	638582784	69	4824
2026-01-20 00:04:01.64	54.01	47.74	-48.4	-50.3	17.5	0.00e+00	0	38	0	645922816	68	4448
2026-01-20 00:04:05.67	55.53	48.75	-49.7	-52.2	15.6	0.00e+00	0	38	0	654311424	69	5258
2026-01-20 00:04:09.70	57.15	49.76	-48.8	-50.9	16.9	0.00e+00	0	38	0	661651456	69	4513
2026-01-20 00:04:13.73	58.89	50.78	-48.7	-50.7	17.1	0.00e+00	0	38	0	668991488	68	4681
2026-01-20 00:04:17.76	60.74	51.78	-47.6	-49.4	18.3	0.00e+00	0	38	0	676331520	67	4248
2026-01-20 00:04:21.79	62.72	52.77	-47.2	-48.8	18.9	0.00e+00	0	39	0	683671552	66	4198
2026-01-20 00:04:25.83	64.85	53.75	-46.0	-47.3	20.4	0.00e+00	0	38	0	691011584	63	4215
2026-01-20 00:04:29.86	67.11	54.70	-46.5	-47.9	19.7	0.00e+00	0	38	0	699400192	64	4251
2026-01-20 00:04:33.89	69.53	55.63	-46.5	-48.0	19.6	0.00e+00	0	38	0	706740224	64	4299
2026-01-20 00:04:37.92	72.10	56.51	-47.5	-49.2	18.6	0.00e+00	0	38	0	714080256	65	4673
2026-01-20 00:04:41.95	74.84	57.35	-46.9	-48.5	19.2	0.00e+00	0	39	0	721420288	65	4292
2026-01-20 00:04:45.98	77.75	58.14	-47.4	-49.1	18.6	0.00e+00	0	38	0	729808896	65	4619
2026-01-20 00:04:50.01	80.83	58.86	-46.8	-48.3	19.3	0.00e+00	0	39	0	737148928	65	4218
2026-01-20 00:04:54.04	84.07	59.52	-47.4	-49.0	18.7	0.00e+00	0	39	0	744488960	66	4328
2026-01-20 00:04:58.07	87.47	60.09	-46.2	-47.5	20.0	0.00e+00	0	38	0	751828992	64	4097
2026-01-20 00:05:02.10	91.00	60.58	-47.4	-49.0	18.6	0.00e+00	0	39	0	759169024	65	4573
2026-01-20 00:05:06.14	94.68	60.97	-46.9	-48.4	19.3	0.00e+00	0	38	0	767557632	64	4537
2026-01-20 00:05:10.17	98.44	61.25	-46.8	-48.3	19.4	0.00e+00	0	39	0	774897664	65	4197
2026-01-20 00:05:14.20	102.27	61.43	-47.0	-48.5	19.1	0.00e+00	0	38	0	782237696	65	4329
2026-01-20 00:05:18.23	106.15	61.50	-46.2	-47.6	20.0	0.00e+00	0	39	0	789577728	64	4125
2026-01-20 00:05:22.26	110.02	61.45	-45.4	-46.7	21.0	0.00e+00	0	38	0	797966336	62	4146
2026-01-20 00:05:26.29	113.86	61.30	-45.4	-46.6	21.1	0.00e+00	0	39	0	805306368	61	4386
2026-01-20 00:05:30.33	117.65	61.03	-46.8	-48.4	19.3	0.00e+00	0	39	0	812646400	64	4494
2026-01-20 00:05:34.35	121.33	60.66	-46.8	-48.2	19.3	0.00e+00	0	38	0	819986432	65	4187
2026-01-20 00:05:38.39	124.91	60.19	-47.3	-48.9	18.8	0.00e+00	0	39	0	827326464	66	4278
2026-01-20 00:05:42.42	128.34	59.63	-47.7	-49.4	18.3	0.00e+00	0	39	0	834666496	66	4506
2026-01-20 00:05:46.45	131.61	59.00	-47.9	-49.6	18.0	0.00e+00	0	39	0	843055104	66	4636
2026-01-20 00:05:50.48	134.72	58.28	-48.5	-50.5	17.2	0.00e+00	0	39	0	850395136	67	4857
2026-01-20 00:05:54.51	137.67	57.51	-47.1	-48.6	18.9	0.00e+00	0	39	0	857735168	66	4141
2026-01-20 00:05:58.54	140.45	56.67	-46.5	-47.9	19.7	0.00e+00	0	39	0	865075200	64	4248
2026-01-20 00:06:02.57	143.06	55.79	-45.8	-47.0	20.6	0.00e+00	0	39	0	873463808	63	4078
2026-01-20 00:06:06.61	145.51	54.87	-44.7	-45.8	21.8	0.00e+00	0	39	0	880803840	61	3982
2026-01-20 00:06:10.64	147.81	53.92	-43.6	-44.6	23.1	0.00e+00	0	39	0	888143872	59	3903
2026-01-20 00:06:14.67	149.95	52.95	-43.9	-44.9	22.8	0.00e+00	0	39	0	895483904	59	4016
2026-01-20 00:06:18.70	151.96	51.96	-44.5	-45.5	22.3	0.00e+00	0	39	0	902823936	59	4340
2026-01-20 00:06:22.73	153.84	50.95	-46.2	-47.6	20.1	0.00e+00	0	39	0	911212544	62	4601
2026-01-20 00:06:26.77	155.61	49.94	-47.1	-48.6	19.0	0.00e+00	0	39	0	918552576	64	4634
2026-01-20 00:06:30.80	157.25	48.92	-48.3	-50.3	17.5	0.00e+00	0	38	0	925892608	68	4443
2026-01-20 00:06:34.83	158.79	47.90	-49.1	-51.4	16.4	0.00e+00	0	39	0	933232640	68	5050
2026-01-20 00:06:38.86	160.24	46.89	-50.0	-52.8	15.0	0.00e+00	0	39	0	940572672	71	4985
2026-01-20 00:06:42.89	161.60	45.88	-50.1	-53.0	14.6	3.80e-06	0	39	0	948961280	72	4829
2026-01-20 00:06:46.93	162.87	44.88	-50.5	-53.8	13.7	9.10e-06	0	39	0	956301312	72	5310
2026-01-20 00:06:50.95	164.07	43.89	-47.6	-49.4	18.2	0.00e+00	0	39	0	963641344	67	4244
2026-01-20 00:06:54.99	165.20	42.92	-47.2	-48.8	18.8	0.00e+00	0	39	0	970981376	66	4225
2026-01-20 00:06:59.02	166.26	41.95	-45.4	-46.7	20.9	0.00e+00	0	39	0	978321408	62	4147
2026-01-20 00:07:03.05	167.27	41.01	-47.3	-49.0	18.5	0.00e+00	0	39	0	986710016	66	4322
2026-01-20 00:07:07.08	168.21	40.07	-45.3	-46.5	21.0	0.00e+00	0	39	0	994050048	62	4075
2026-01-20 00:07:11.11	169.11	39.16	-47.6	-49.4	18.2	0.00e+00	0	38	0	1001390080	65	4778
2026-01-20 00:07:15.15	169.96	38.26	-46.1	-47.4	20.1	0.00e+00	0	39	0	1008730112	63	4278
2026-01-20 00:07:19.18	170.77	37.38	-46.1	-47.5	20.0	0.00e+00	0	39	0	1017118720	63	4302
2026-01-20 00:07:23.21	171.53	36.51	-47.2	-48.9	18.6	0.00e+00	0	39	0	1024458752	65	4529
2026-01-20 00:07:27.24	172.25	35.66	-46.2	-47.5	19.9	0.00e+00	0	38	0	1031798784	63	4340
2026-01-20 00:07:31.28	172.94	34.83	-47.0	-48.5	18.9	0.00e+00	0	39	0	1039138816	64	4592
2026-01-20 00:07:35.31	173.60	34.02	-47.2	-48.8	18.6	0.00e+00	0	39	0	1046478848	65	4490
2026-01-20 00:07:39.34	174.23	33.22	-46.7	-48.2	19.2	0.00e+00	0	39	0	1053818880	65	4171
2026-01-20 00:07:43.37	174.82	32.44	-47.4	-49.1	18.4	0.00e+00	0	39	0	1062207488	65	4602
2026-01-20 00:07:47.40	175.39	31.68	-47.9	-49.8	17.6	0.00e+00	0	39	0	1069547520	66	4750
2026-01-20 00:07:51.43	175.94	30.93	-48.4	-50.5	16.9	0.00e+00	0	39	0	1076887552	67	4851
2026-01-20 00:07:55.46	176.46	30.20	-48.2	-50.2	17.3	0.00e+00	0	39	0	1084227584	67	4658
2026-01-20 00:07:59.50	176.96	29.49	-47.7	-49.5	17.9	0.00e+00	0	39	0	1092616192	67	4297
2026-01-20 00:08:03.53	177.44	28.79	-47.5	-49.3	18.0	0.00e+00	0	39	0	1099956224	67	4217
2026-01-20 00:08:07.56	177.90	28.11	-47.6	-49.5	17.9	0.00e+00	0	39	0	1107296256	66	4557
2026-01-20 00:08:11.59	178.34	27.44	-47.7	-49.6	17.6	0.00e+00	0	39	0	1114636288	66	4629
2026-01-20 00:08:15.62	178.77	26.78	-47.0	-48.6	18.7	0.00e+00	0	39	0	1121976320	66	4141
2026-01-20 00:08:19.66	179.18	26.14	-46.2	-47.6	19.6	0.00e+00	0	39	0	1130364928	64	4131
2026-01-20 00:08:23.69	179.57	25.51	-46.4	-47.9	19.3	0.00e+00	0	39	0	1137704960	64	4280
2026-01-20 00:08:27.72	179.95	24.90	-46.9	-48.6	18.6	0.00e+00	0	39	0	1145044992	64	4627
2026-01-20 00:08:31.75	180.31	24.30	-46.5	-48.1	19.1	0.00e+00	0	39	0	1152385024	64	4361
2026-01-20 00:08:35.79	180.66	23.71	-45.9	-47.3	20.0	0.00e+00	0	39	0	1160773632	63	4218
2026-01-20 00:08:39.82	181.00	23.13	-45.3	-46.5	20.7	0.00e+00	0	39	0	1168113664	62	4090
2026-01-20 00:08:43.85	181.33	22.57	-45.3	-46.5	20.7	0.00e+00	0	39	0	1175453696	62	4088
2026-01-20 00:08:47.88	181.65	22.01	-45.5	-46.8	20.4	0.00e+00	0	38	0	1182793728	62	4224
2026-01-20 00:08:51.91	181.95	21.47	-45.9	-47.3	19.9	0.00e+00	0	39	0	1190133760	62	4467
2026-01-20 00:08:55.94	182.25	20.94	-45.9	-47.3	19.9	0.00e+00	0	39	0	1197473792	62	4488
2026-01-20 00:08:59.97	182.54	20.42	-45.6	-47.0	20.2	0.00e+00	0	39	0	1205862400	62	4297
2026-01-20 00:09:04.01	182.82	19.91	-45.4	-46.6	20.5	0.00e+00	0	39	0	1213202432	62	4139
2026-01-20 00:09:08.04	183.09	19.40	-45.2	-46.5	20.6	0.00e+00	0	38	0	1220542464	62	4072
2026-01-20 00:09:12.07	183.35	18.91	-45.4	-46.7	20.4	0.00e+00	0	39	0	1227882496	62	4184
2026-01-20 00:09:16.10	183.60	18.43	-45.6	-46.9	20.2	0.00e+00	0	39	0	1236271104	62	4274
2026-01-20 00:09:20.13	183.85	17.95	-45.9	-47.3	19.7	0.00e+00	0	39	0	1243611136	62	4486
2026-01-20 00:09:24.16	184.09	17.49	-46.1	-47.5	19.6	0.00e+00	0	39	0	1250951168	62	4577
2026-01-20 00:09:28.19	184.32	17.03	-46.1	-47.6	19.5	0.00e+00	0	39	0	1258291200	62	4620
2026-01-20 00:09:32.23	184.55	16.58	-46.2	-47.6	19.4	0.00e+00	0	39	0	1265631232	63	4389
2026-01-20 00:09:36.26	184.77	16.14	-46.4	-47.9	19.2	0.00e+00	0	39	0	1274019840	63	4530
2026-01-20 00:09:40.29	184.98	15.70	-46.6	-48.2	18.9	0.00e+00	0	39	0	1281359872	63	4695
2026-01-20 00:09:44.33	185.19	15.28	-46.6	-48.2	18.8	0.00e+00	0	39	0	1288699904	64	4400
2026-01-20 00:09:48.35	185.39	14.86	-46.8	-48.4	18.5	0.00e+00	0	39	0	1296039936	64	4543
2026-01-20 00:09:52.39	185.59	14.44	-47.0	-48.8	18.2	0.00e+00	0	38	0	1303379968	64	4727
2026-01-20 00:09:56.42	185.78	14.04	-47.0	-48.8	18.2	0.00e+00	0	39	0	1311768576	64	4713
2026-01-20 00:10:00.45	185.97	13.64	-47.2	-49.0	18.0	0.00e+00	0	39	0	1319108608	65	4550
2026-01-20 00:10:04.48	186.16	13.24	-47.1	-48.9	18.0	0.00e+00	0	39	0	1326448640	65	4538
2026-01-20 00:10:08.51	186.34	12.85	-47.2	-49.0	17.9	0.00e+00	0	39	0	1333788672	65	4583
2026-01-20 00:10:12.55	186.51	12.47	-47.3	-49.1	17.7	0.00e+00	0	39	0	1341128704	65	4647
2026-01-20 00:10:16.57	186.68	12.10	-47.2	-49.0	17.8	0.00e+00	0	39	0	1349517312	65	4581
2026-01-20 00:10:20.61	186.85	11.73	-47.1	-49.0	17.9	0.00e+00	0	39	0	1356857344	65	4559
2026-01-20 00:10:24.64	187.01	11.36	-47.0	-48.8	18.0	0.00e+00	0	39	0	1364197376	65	4473
2026-01-20 00:10:28.67	187.17	11.00	-47.0	-48.8	18.0	0.00e+00	0	39	0	1371537408	65	4447
2026-01-20 00:10:32.70	187.33	10.64	-47.0	-48.8	18.0	0.00e+00	0	39	0	1379926016	65	4447
2026-01-20 00:10:36.73	187.48	10.29	-46.9	-48.7	18.1	0.00e+00	0	39	0	1387266048	65	4397
2026-01-20 00:10:40.76	187.63	9.95	-46.8	-48.5	18.2	0.00e+00	0	39	0	1394606080	65	4309
2026-01-20 00:10:44.79	187.78	9.61	-46.8	-48.5	18.1	0.00e+00	0	39	0	1401946112	65	4309
2026-01-20 00:10:48.83	187.92	9.27	-46.7	-48.4	18.2	0.00e+00	0	39	0	1409286144	65	4291
2026-01-20 00:10:52.86	188.06	8.94	-46.9	-48.6	17.9	0.00e+00	0	39	0	1417674752	65	4386
2026-01-20 00:10:56.89	188.20	8.61	-46.9	-48.7	17.9	0.00e+00	0	39	0	1425014784	65	4412
2026-01-20 00:11:00.92	188.33	8.29	-46.9	-48.7	17.9	0.00e+00	0	39	0	1432354816	65	4411
2026-01-20 00:11:04.95	188.47	7.97	-47.0	-48.8	17.6	0.00e+00	0	39	0	1439694848	65	4483
2026-01-20 00:11:08.99	188.60	7.65	-47.0	-48.9	17.5	0.00e+00	0	39	0	1447034880	65	4528
2026-01-20 00:11:13.02	188.72	7.34	-47.3	-49.3	17.2	0.00e+00	0	39	0	1455423488	65	4731
2026-01-20 00:11:17.05	188.85	7.03	-47.4	-49.5	17.0	0.00e+00	0	39	0	1462763520	65	4821
2026-01-20 00:11:21.08	188.97	6.73	-47.4	-49.5	16.9	0.00e+00	0	39	0	1470103552	65	4818
2026-01-20 00:11:25.12	189.09	6.42	-47.4	-49.6	16.7	0.00e+00	0	39	0	1477443584	66	4605
2026-01-20 00:11:29.14	189.21	6.13	-47.5	-49.7	16.6	0.00e+00	0	39	0	1484783616	66	4694
2026-01-20 00:11:33.17	189.33	5.83	-47.7	-49.9	16.3	0.00e+00	0	39	0	1493172224	66	4809
2026-01-20 00:11:37.21	189.44	5.54	-47.9	-50.3	15.8	0.00e+00	0	39	0	1500512256	66	5040
2026-01-20 00:11:41.24	189.55	5.25	-48.1	-50.6	15.5	0.00e+00	0	39	0	1507852288	66	5198
2026-01-20 00:11:45.27	189.66	4.97	-52.7	-67.4	3.8	4.19e-01	0	39	104	1515192320	75	21368
2026-01-20 00:11:49.30	189.77	4.69	-53.5	-68.5	3.8	1.49e+00	0	39	104	1515192320	77	21541
2026-01-20 00:11:53.33	189.88	4.41	-53.8	-68.7	3.8	1.49e+00	0	39	104	1515192320	78	20948
2026-01-20 00:11:57.37	189.99	4.13	-53.9	-68.9	3.8	1.49e+00	0	39	104	1515192320	78	21342
2026-01-20 00:12:01.39	190.09	3.86	-54.0	-69.0	3.8	1.49e+00	0	39	104	1515192320	78	21662
2026-01-20 00:12:05.43	190.19	3.58	-54.1	-69.1	3.8	1.49e+00	0	39	104	1515192320	78	21765
2026-01-20 00:12:09.46	190.29	3.32	-54.0	-69.0	3.8	1.49e+00	0	39	104	1515192320	78	21714
2026-01-20 00:12:13.49	190.39	3.05	-54.0	-69.0	3.8	1.49e+00	0	39	104	1515192320	78	21623
2026-01-20 00:12:17.52	190.49	2.79	-54.0	-69.0	3.8	1.49e+00	0	39	104	1515192320	78	21553
2026-01-20 00:12:21.55	190.58	2.52	-54.0	-69.0	3.8	1.49e+00	0	39	104	1515192320	78	21567
2026-01-20 00:12:25.58	190.67	2.27	-54.0	-68.9	3.8	1.49e+00	0	39	104	1515192320	78	21477
2026-01-20 00:12:29.61	190.77	2.01	-53.9	-69.0	3.8	1.49e+00	0	39	104	1515192320	78	21526

#Closed at: 2026-01-20 00:12:30
#Recorded file [1515 MB]: D:/lorett/data/31041_260120_025806.dat