passes_logs/2026/01/19/R3.2S_Murmansk/R3.2S_Murmansk__20260119_215411_JL1KF02B06_rec.log

#Pass ID: 20260119_215411_JL1KF02B06
#Satellite: JL1KF02B06
#Configuration: 01B_900M
#almurnet v.1.7.20251203
#Start time: 2026-01-19 21:54:11

#Version: 2.2.20231116
#Station: R3.2S_Murmansk
#Location: 33.079688 lon 68.888172 lat
#TLE: 1 61192U 24169D   26019.30677107  .00005440  00000+0  34250-3 0  9999
#TLE: 2 61192  97.5638 110.4294 0007126  91.2813 268.9233 15.09574260 73372

#Time	Az	El	Level	Level2	SNR	BER	BlckErr	Temp	State	Recorded	gain1	gain2
2026-01-19 21:54:11.54	215.86	2.01	-53.0	-55.2	6.3	0.00e+00	0	39	0	0	78	17575
2026-01-19 21:54:14.55	216.16	2.18	-53.0	-55.2	6.2	0.00e+00	0	39	104	0	77	18649
2026-01-19 21:54:17.58	216.46	2.36	-53.0	-55.2	6.2	0.00e+00	0	39	104	0	77	18660
2026-01-19 21:54:20.60	216.77	2.54	-53.0	-55.2	6.2	0.00e+00	0	39	104	0	77	18617
2026-01-19 21:54:23.62	217.08	2.72	-53.0	-55.1	6.2	0.00e+00	0	39	104	0	77	18557
2026-01-19 21:54:26.65	217.40	2.90	-53.0	-55.1	6.2	0.00e+00	0	40	104	0	77	18577
2026-01-19 21:54:29.67	217.72	3.08	-53.0	-55.2	6.2	0.00e+00	0	39	104	0	77	18668
2026-01-19 21:54:32.69	218.04	3.26	-53.0	-55.1	6.2	0.00e+00	0	40	104	0	77	18554
2026-01-19 21:54:35.72	218.37	3.44	-53.0	-55.1	6.2	0.00e+00	0	40	104	0	77	18579
2026-01-19 21:54:38.74	218.71	3.62	-53.0	-55.1	6.2	0.00e+00	0	40	104	0	77	18575
2026-01-19 21:54:41.77	219.05	3.81	-53.0	-55.1	6.2	0.00e+00	0	40	104	0	77	18587
2026-01-19 21:54:44.79	219.39	3.99	-53.0	-55.1	6.2	0.00e+00	0	40	104	0	77	18574
2026-01-19 21:54:47.81	219.74	4.18	-53.0	-55.1	6.2	0.00e+00	0	40	104	0	77	18576
2026-01-19 21:54:50.83	220.10	4.36	-53.0	-55.1	6.2	0.00e+00	0	40	104	0	77	18543
2026-01-19 21:54:53.86	220.46	4.55	-53.0	-55.1	6.2	0.00e+00	0	40	104	0	77	18552
2026-01-19 21:54:56.88	220.83	4.74	-53.0	-55.1	6.2	0.00e+00	0	40	104	0	77	18543
2026-01-19 21:54:59.91	221.20	4.93	-52.9	-55.1	6.2	0.00e+00	0	40	104	0	77	18537
2026-01-19 21:55:02.93	221.58	5.12	-53.2	-55.3	6.2	0.00e+00	0	40	104	0	77	18948
2026-01-19 21:55:05.95	221.96	5.31	-53.0	-55.2	6.2	0.00e+00	0	40	104	0	77	18659
2026-01-19 21:55:08.98	222.35	5.50	-53.1	-55.3	6.2	0.00e+00	0	40	104	0	77	18851
2026-01-19 21:55:12.00	222.75	5.69	-52.9	-55.1	6.2	0.00e+00	0	40	104	0	77	18479
2026-01-19 21:55:15.02	223.15	5.88	-53.0	-55.1	6.2	0.00e+00	0	40	104	0	77	18595
2026-01-19 21:55:18.05	223.56	6.08	-53.1	-55.2	6.2	0.00e+00	0	40	104	0	77	18742
2026-01-19 21:55:21.07	223.97	6.27	-53.2	-55.3	6.2	0.00e+00	0	41	104	0	77	19008
2026-01-19 21:55:24.09	224.40	6.47	-53.0	-55.2	6.2	0.00e+00	0	41	104	0	77	18619
2026-01-19 21:55:27.12	224.83	6.67	-53.1	-55.3	6.2	0.00e+00	0	41	104	0	77	18837
2026-01-19 21:55:30.14	225.26	6.86	-53.1	-55.3	6.2	0.00e+00	0	40	104	0	77	18962
2026-01-19 21:55:33.17	225.70	7.06	-53.2	-55.4	6.2	0.00e+00	0	41	104	0	77	19115
2026-01-19 21:55:36.19	226.15	7.26	-53.1	-55.2	6.2	0.00e+00	0	41	104	0	77	18814
2026-01-19 21:55:39.21	226.61	7.46	-53.2	-55.3	6.2	0.00e+00	0	41	104	0	77	18965
2026-01-19 21:55:42.24	227.08	7.66	-53.2	-55.4	6.2	0.00e+00	0	41	104	0	77	19038
2026-01-19 21:55:45.25	227.55	7.86	-53.3	-55.4	6.2	0.00e+00	0	41	104	0	77	19237
2026-01-19 21:55:48.28	228.03	8.06	-53.2	-55.3	6.2	0.00e+00	0	41	104	0	77	18957
2026-01-19 21:55:51.31	228.51	8.26	-53.2	-55.4	6.2	0.00e+00	0	41	104	0	77	19071
2026-01-19 21:55:54.33	229.01	8.46	-53.2	-55.4	6.2	0.00e+00	0	41	104	0	77	19170
2026-01-19 21:55:57.35	229.51	8.67	-53.3	-55.5	6.2	0.00e+00	0	41	104	0	77	19266
2026-01-19 21:56:00.38	230.03	8.87	-52.2	-54.0	6.2	0.00e+00	0	41	104	0	76	17165
2026-01-19 21:56:03.40	230.55	9.07	-52.7	-54.6	6.2	0.00e+00	0	41	104	0	76	18413
2026-01-19 21:56:06.42	231.07	9.28	-52.4	-54.1	6.2	0.00e+00	0	41	104	0	76	17507
2026-01-19 21:56:09.44	231.61	9.48	-52.8	-54.8	6.2	0.00e+00	0	41	104	0	76	18850
2026-01-19 21:56:12.47	232.16	9.69	-52.2	-53.8	6.2	0.00e+00	0	41	104	0	76	16886
2026-01-19 21:56:15.49	232.71	9.89	-34.8	-34.7	15.7	9.15e-05	0	41	0	25165824	40	14914
2026-01-19 21:56:18.51	233.28	10.09	-29.4	-29.2	17.0	5.70e-06	0	41	0	360710144	30	14085
2026-01-19 21:56:21.54	233.85	10.30	-29.4	-29.2	16.9	1.52e-05	0	41	0	713031680	29	14852
2026-01-19 21:56:24.56	234.44	10.50	-29.1	-28.9	17.0	7.60e-06	0	41	0	1048576000	29	14385
2026-01-19 21:56:27.59	235.03	10.71	-29.3	-29.1	16.9	5.70e-06	0	41	0	1384120320	29	14769
2026-01-19 21:56:30.61	235.63	10.91	-29.0	-28.8	17.1	1.90e-06	0	41	0	1719664640	29	14206
2026-01-19 21:56:33.63	236.24	11.12	-28.9	-28.7	17.1	3.80e-06	0	41	0	2055208960	29	14073
2026-01-19 21:56:36.65	236.86	11.32	-28.9	-28.8	17.2	1.90e-06	0	41	0	2407530496	29	14219
2026-01-19 21:56:39.67	237.50	11.52	-28.7	-28.6	17.3	0.00e+00	0	42	0	2743074816	29	13818
2026-01-19 21:56:42.69	238.14	11.72	-28.7	-28.6	17.3	1.90e-06	0	41	0	3087007744	29	13820
2026-01-19 21:56:45.72	238.79	11.92	-28.5	-28.4	17.3	0.00e+00	0	42	0	3422552064	29	13534
2026-01-19 21:56:48.74	239.45	12.12	-28.5	-28.4	17.1	0.00e+00	0	41	0	3766484992	28	14313
2026-01-19 21:56:51.76	240.13	12.32	-28.4	-28.2	17.3	3.80e-06	0	41	0	4110417920	28	14062
2026-01-19 21:56:54.79	240.81	12.52	-28.6	-28.5	17.1	7.60e-06	0	41	0	4445962240	28	14475
2026-01-19 21:56:57.81	241.50	12.72	-28.3	-28.1	17.1	1.90e-06	0	41	0	4781506560	28	13858
2026-01-19 21:57:00.83	242.21	12.91	-28.1	-28.0	17.2	3.80e-06	0	42	0	5117050880	28	13642
2026-01-19 21:57:03.85	242.92	13.11	-28.3	-28.1	16.9	0.00e+00	0	42	0	5469372416	28	13856
2026-01-19 21:57:06.88	243.65	13.30	-28.0	-27.8	17.1	1.90e-06	0	42	0	5804916736	28	13469
2026-01-19 21:57:09.90	244.39	13.49	-28.4	-28.3	16.9	3.80e-06	0	42	0	6140461056	27	14973
2026-01-19 21:57:12.92	245.14	13.68	-28.1	-27.9	16.9	1.90e-06	0	42	0	6484393984	27	14346
2026-01-19 21:57:15.95	245.90	13.86	-28.1	-27.9	17.1	1.90e-06	0	42	0	6828326912	27	14383
2026-01-19 21:57:18.97	246.67	14.05	-28.0	-27.9	16.9	5.70e-06	0	42	0	7163871232	27	14314
2026-01-19 21:57:21.99	247.45	14.23	-28.0	-27.8	16.7	5.70e-06	0	42	0	7507804160	27	14259
2026-01-19 21:57:25.01	248.24	14.41	-27.9	-27.7	16.8	0.00e+00	0	42	0	7843348480	27	14078
2026-01-19 21:57:28.03	249.04	14.58	-27.9	-27.8	16.6	5.70e-06	0	42	0	8178892800	27	14189
2026-01-19 21:57:31.06	249.85	14.75	-27.9	-27.8	16.4	7.60e-06	0	42	0	8531214336	27	14157
2026-01-19 21:57:34.08	250.68	14.92	-27.6	-27.5	16.4	3.80e-06	0	42	0	8866758656	27	13658
2026-01-19 21:57:37.11	251.51	15.09	-27.5	-27.4	16.2	1.90e-06	0	42	0	9202302976	27	13514
2026-01-19 21:57:40.13	252.36	15.25	-27.5	-27.4	16.6	1.90e-06	0	42	0	9537847296	26	14318
2026-01-19 21:57:43.15	253.21	15.40	-27.5	-27.4	16.6	0.00e+00	0	42	0	9890168832	26	14286
2026-01-19 21:57:46.17	254.07	15.56	-27.6	-27.4	16.1	9.50e-06	0	42	0	10225713152	26	14417
2026-01-19 21:57:49.19	254.95	15.71	-27.4	-27.2	16.3	3.80e-06	0	42	0	10561257472	26	14048
2026-01-19 21:57:52.21	255.83	15.85	-27.6	-27.4	16.2	1.90e-06	0	42	0	10905190400	26	14353
2026-01-19 21:57:55.24	256.73	15.99	-27.5	-27.3	16.2	9.50e-06	0	42	0	11249123328	26	14195
2026-01-19 21:57:58.26	257.63	16.12	-27.5	-27.3	16.1	1.90e-06	0	42	0	11584667648	26	14226
2026-01-19 21:58:01.29	258.54	16.25	-27.3	-27.2	15.9	9.50e-06	0	42	0	11928600576	26	14026
2026-01-19 21:58:04.31	259.46	16.37	-27.4	-27.2	16.0	3.80e-06	0	42	0	12264144896	26	14103
2026-01-19 21:58:07.33	260.39	16.49	-27.4	-27.2	16.1	3.80e-06	0	42	0	12599689216	26	14022
2026-01-19 21:58:10.36	261.33	16.60	-27.4	-27.2	15.9	1.90e-06	0	42	0	12952010752	26	14024
2026-01-19 21:58:13.38	262.27	16.71	-27.4	-27.3	16.2	7.60e-06	0	42	0	13287555072	26	14117
2026-01-19 21:58:16.41	263.23	16.81	-27.3	-27.1	15.9	1.90e-06	0	42	0	13623099392	26	13856
2026-01-19 21:58:19.44	264.19	16.90	-27.2	-27.0	16.2	5.70e-06	0	42	0	13958643712	26	13750
2026-01-19 21:58:22.46	265.15	16.99	-27.2	-27.0	16.1	5.70e-06	0	42	0	14310965248	26	13704
2026-01-19 21:58:25.48	266.12	17.07	-27.3	-27.1	16.3	1.90e-06	0	42	0	14646509568	26	13846
2026-01-19 21:58:28.51	267.10	17.14	-27.2	-27.1	16.6	1.90e-06	0	42	0	14982053888	26	13843
2026-01-19 21:58:31.53	268.08	17.21	-27.3	-27.1	16.6	1.90e-06	0	42	0	15325986816	26	13841
2026-01-19 21:58:34.55	269.07	17.27	-27.3	-27.2	16.6	0.00e+00	0	42	0	15669919744	26	13967
2026-01-19 21:58:37.57	270.05	17.32	-27.4	-27.3	17.0	0.00e+00	0	42	0	16005464064	26	14115
2026-01-19 21:58:40.60	271.05	17.36	-27.2	-27.1	17.2	1.90e-06	0	42	0	16349396992	26	13825
2026-01-19 21:58:43.62	272.05	17.40	-27.3	-27.1	17.1	1.90e-06	0	42	0	16684941312	26	13895
2026-01-19 21:58:46.64	273.04	17.43	-27.3	-27.1	17.3	0.00e+00	0	42	0	17028874240	26	13947
2026-01-19 21:58:49.66	274.04	17.45	-27.4	-27.2	17.4	0.00e+00	0	42	0	17372807168	26	14072
2026-01-19 21:58:52.68	275.04	17.46	-27.4	-27.3	17.7	0.00e+00	0	42	0	17708351488	26	14153
2026-01-19 21:58:55.71	276.05	17.47	-27.5	-27.3	18.2	0.00e+00	0	42	0	18043895808	26	14231
2026-01-19 21:58:58.73	277.05	17.47	-27.6	-27.4	18.5	0.00e+00	0	42	0	18379440128	26	14337
2026-01-19 21:59:01.75	278.05	17.46	-27.5	-27.3	18.6	0.00e+00	0	42	0	18731761664	26	14175
2026-01-19 21:59:04.77	279.05	17.44	-27.5	-27.3	18.6	0.00e+00	0	42	0	19067305984	26	14231
2026-01-19 21:59:07.79	280.05	17.42	-27.6	-27.4	18.7	0.00e+00	0	42	0	19402850304	26	14384
2026-01-19 21:59:10.81	281.04	17.39	-27.6	-27.4	19.0	0.00e+00	0	42	0	19746783232	26	14405
2026-01-19 21:59:13.84	282.04	17.35	-27.6	-27.5	19.2	0.00e+00	0	42	0	20090716160	26	14463
2026-01-19 21:59:16.86	283.03	17.30	-27.6	-27.4	19.3	0.00e+00	0	42	0	20434649088	26	14369
2026-01-19 21:59:19.88	284.02	17.25	-27.8	-27.7	19.1	0.00e+00	0	42	0	20770193408	26	14792
2026-01-19 21:59:22.91	285.00	17.18	-27.8	-27.6	19.2	0.00e+00	0	42	0	21105737728	26	14682
2026-01-19 21:59:25.93	285.98	17.12	-27.9	-27.8	19.0	0.00e+00	0	42	0	21441282048	26	14987
2026-01-19 21:59:28.95	286.95	17.04	-28.0	-27.8	19.0	0.00e+00	0	42	0	21793603584	26	15045
2026-01-19 21:59:31.97	287.92	16.96	-28.0	-27.8	18.7	0.00e+00	0	42	0	22129147904	26	15055
2026-01-19 21:59:34.99	288.88	16.87	-27.9	-27.7	18.9	0.00e+00	0	42	0	22464692224	26	14927
2026-01-19 21:59:38.02	289.83	16.78	-28.2	-28.0	18.8	0.00e+00	0	42	0	22800236544	26	15360
2026-01-19 21:59:41.04	290.78	16.68	-28.2	-28.0	18.8	0.00e+00	0	42	0	23152558080	26	15409
2026-01-19 21:59:44.06	291.72	16.57	-28.1	-27.9	18.4	0.00e+00	0	42	0	23488102400	27	14438
2026-01-19 21:59:47.09	292.65	16.45	-28.4	-28.2	18.2	0.00e+00	0	42	0	23832035328	27	14910
2026-01-19 21:59:50.11	293.58	16.34	-28.4	-28.2	18.3	0.00e+00	0	42	0	24167579648	27	14943
2026-01-19 21:59:53.14	294.49	16.21	-28.4	-28.3	18.2	0.00e+00	0	42	0	24511512576	27	15002
2026-01-19 21:59:56.16	295.40	16.08	-28.5	-28.3	18.1	0.00e+00	0	42	0	24855445504	27	15080
2026-01-19 21:59:59.18	296.30	15.95	-28.5	-28.4	17.8	1.90e-06	0	42	0	25190989824	27	15156
2026-01-19 22:00:02.20	297.18	15.81	-28.6	-28.5	17.5	0.00e+00	0	42	0	25526534144	27	15323
2026-01-19 22:00:05.23	298.06	15.66	-28.5	-28.4	17.6	3.80e-06	0	42	0	25862078464	27	15166
2026-01-19 22:00:08.25	298.93	15.51	-28.7	-28.6	17.7	0.00e+00	0	42	0	26214400000	28	14642
2026-01-19 22:00:11.28	299.79	15.36	-28.8	-28.6	17.9	1.90e-06	0	42	0	26549944320	28	14745
2026-01-19 22:00:14.30	300.64	15.20	-28.5	-28.3	18.1	1.90e-06	0	42	0	26885488640	28	14217
2026-01-19 22:00:17.32	301.48	15.04	-28.5	-28.4	17.8	0.00e+00	0	42	0	27229421568	28	14340
2026-01-19 22:00:20.35	302.31	14.87	-29.0	-28.8	17.2	1.90e-06	0	42	0	27573354496	28	15012
2026-01-19 22:00:23.37	303.12	14.70	-28.6	-28.4	18.0	0.00e+00	0	42	0	27908898816	28	14377
2026-01-19 22:00:26.39	303.93	14.53	-28.7	-28.6	19.3	0.00e+00	0	42	0	28252831744	28	14645
2026-01-19 22:00:29.42	304.73	14.36	-53.9	-56.1	6.2	0.00e+00	0	42	104	28353495040	78	19699
2026-01-19 22:00:32.44	305.51	14.18	-54.0	-56.1	6.2	0.00e+00	0	42	104	28353495040	78	19655
2026-01-19 22:00:35.46	306.28	14.00	-54.0	-56.1	6.2	0.00e+00	0	42	104	28353495040	78	19624
2026-01-19 22:00:38.49	307.05	13.81	-53.9	-56.1	6.2	0.00e+00	0	42	104	28353495040	78	19525
2026-01-19 22:00:41.51	307.80	13.63	-53.9	-56.0	6.2	0.00e+00	0	42	104	28353495040	78	19465
2026-01-19 22:00:44.53	308.54	13.44	-53.9	-56.0	6.2	0.00e+00	0	42	104	28353495040	78	19425
2026-01-19 22:00:47.55	309.27	13.25	-53.8	-56.0	6.2	0.00e+00	0	42	104	28353495040	78	19440
2026-01-19 22:00:50.58	309.99	13.06	-53.8	-56.0	6.2	0.00e+00	0	42	104	28353495040	78	19332
2026-01-19 22:00:53.60	310.70	12.87	-53.8	-56.0	6.2	0.00e+00	0	42	104	28353495040	78	19261
2026-01-19 22:00:56.62	311.40	12.67	-53.8	-55.9	6.2	0.00e+00	0	42	104	28353495040	78	19180
2026-01-19 22:00:59.64	312.09	12.48	-53.7	-55.9	6.2	0.00e+00	0	42	104	28353495040	78	19115
2026-01-19 22:01:02.66	312.77	12.28	-53.7	-55.9	6.2	0.00e+00	0	42	104	28353495040	78	19131
2026-01-19 22:01:05.69	313.43	12.08	-53.7	-55.9	6.2	0.00e+00	0	42	104	28353495040	78	19070
2026-01-19 22:01:08.71	314.09	11.88	-53.7	-55.8	6.2	0.00e+00	0	42	104	28353495040	78	18997
2026-01-19 22:01:11.73	314.74	11.68	-53.6	-55.8	6.2	0.00e+00	0	42	104	28353495040	78	18939
2026-01-19 22:01:14.76	315.37	11.48	-53.7	-55.8	6.2	0.00e+00	0	42	104	28353495040	78	18884
2026-01-19 22:01:17.78	316.00	11.28	-53.6	-55.8	6.2	0.00e+00	0	42	104	28353495040	78	18898
2026-01-19 22:01:20.80	316.62	11.08	-53.6	-55.8	6.2	0.00e+00	0	42	104	28353495040	78	18843
2026-01-19 22:01:23.83	317.22	10.87	-53.6	-55.7	6.2	0.00e+00	0	42	104	28353495040	78	18771
2026-01-19 22:01:26.85	317.82	10.67	-53.6	-55.7	6.2	0.00e+00	0	42	104	28353495040	78	18693
2026-01-19 22:01:29.88	318.41	10.47	-53.5	-55.7	6.2	0.00e+00	0	42	104	28353495040	78	18739
2026-01-19 22:01:32.90	318.99	10.27	-53.5	-55.6	6.2	0.00e+00	0	42	104	28353495040	78	18565
2026-01-19 22:01:35.93	319.56	10.06	-53.5	-55.6	6.2	0.00e+00	0	42	104	28353495040	78	18528
2026-01-19 22:01:38.95	320.12	9.86	-53.5	-55.6	6.2	0.00e+00	0	42	104	28353495040	78	18526
2026-01-19 22:01:41.98	320.67	9.66	-53.5	-55.6	6.2	0.00e+00	0	42	104	28353495040	78	18556
2026-01-19 22:01:45.00	321.21	9.45	-53.3	-55.4	6.2	0.00e+00	0	42	104	28353495040	78	18150
2026-01-19 22:01:48.03	321.74	9.25	-53.4	-55.5	6.2	0.00e+00	0	42	104	28353495040	78	18370
2026-01-19 22:01:51.05	322.27	9.05	-53.3	-55.3	6.2	0.00e+00	0	42	104	28353495040	78	17955
2026-01-19 22:01:54.08	322.78	8.85	-53.2	-55.3	6.2	0.00e+00	0	42	104	28353495040	78	17836
2026-01-19 22:01:57.10	323.29	8.64	-52.7	-54.6	6.2	0.00e+00	0	42	104	28353495040	77	17460
2026-01-19 22:02:00.13	323.79	8.44	-52.0	-53.6	6.2	0.00e+00	0	42	104	28353495040	76	16490
2026-01-19 22:02:03.15	324.28	8.24	-38.8	-39.1	6.1	0.00e+00	0	42	104	28353495040	49	14742
2026-01-19 22:02:06.17	324.76	8.04	-45.2	-45.7	6.2	0.00e+00	0	42	104	28353495040	60	16690
2026-01-19 22:02:09.20	325.24	7.84	-52.9	-54.8	6.2	0.00e+00	0	42	104	28353495040	76	19030
2026-01-19 22:02:12.22	325.71	7.64	-53.2	-55.3	6.2	0.00e+00	0	42	104	28353495040	76	20124
2026-01-19 22:02:15.25	326.17	7.44	-53.1	-55.3	6.2	0.00e+00	0	42	104	28353495040	76	19959
2026-01-19 22:02:18.27	326.62	7.25	-53.2	-55.3	6.2	0.00e+00	0	42	104	28353495040	76	20091
2026-01-19 22:02:21.29	327.07	7.05	-53.1	-55.2	6.2	0.00e+00	0	42	104	28353495040	76	19741
2026-01-19 22:02:24.32	327.51	6.85	-53.1	-55.2	6.2	0.00e+00	0	41	104	28353495040	76	19879
2026-01-19 22:02:27.34	327.94	6.66	-53.0	-55.2	6.2	0.00e+00	0	42	104	28353495040	76	19743
2026-01-19 22:02:30.37	328.37	6.46	-53.1	-55.2	6.2	0.00e+00	0	42	104	28353495040	76	19813
2026-01-19 22:02:33.39	328.79	6.27	-53.0	-55.1	6.2	0.00e+00	0	42	104	28353495040	76	19606
2026-01-19 22:02:36.41	329.20	6.08	-52.9	-55.1	6.2	0.00e+00	0	42	104	28353495040	76	19532
2026-01-19 22:02:39.44	329.61	5.88	-52.9	-55.0	6.2	0.00e+00	0	42	104	28353495040	76	19451
2026-01-19 22:02:42.46	330.00	5.69	-52.9	-55.1	6.2	0.00e+00	0	42	104	28353495040	76	19521
2026-01-19 22:02:45.48	330.40	5.50	-52.9	-55.0	6.2	0.00e+00	0	41	104	28353495040	76	19391
2026-01-19 22:02:48.51	330.79	5.31	-52.8	-54.9	6.2	0.00e+00	0	42	104	28353495040	76	19085
2026-01-19 22:02:51.53	331.17	5.12	-52.8	-54.9	6.2	0.00e+00	0	42	104	28353495040	76	19169
2026-01-19 22:02:54.56	331.54	4.93	-53.1	-55.2	6.2	0.00e+00	0	42	104	28353495040	76	19906
2026-01-19 22:02:57.58	331.91	4.74	-53.9	-56.0	6.2	0.00e+00	0	42	104	28353495040	78	19312
2026-01-19 22:03:00.61	332.28	4.56	-54.2	-56.4	6.2	0.00e+00	0	42	104	28353495040	78	20197
2026-01-19 22:03:03.63	332.64	4.37	-54.5	-56.6	6.2	0.00e+00	0	41	104	28353495040	79	19670
2026-01-19 22:03:06.65	332.99	4.19	-54.6	-56.7	6.2	0.00e+00	0	42	104	28353495040	79	19858
2026-01-19 22:03:09.68	333.34	4.00	-54.6	-56.8	6.2	0.00e+00	0	42	104	28353495040	79	19969
2026-01-19 22:03:12.70	333.68	3.82	-54.6	-56.7	6.2	0.00e+00	0	42	104	28353495040	79	19832
2026-01-19 22:03:15.73	334.02	3.64	-54.6	-56.7	6.2	0.00e+00	0	42	104	28353495040	79	19861
2026-01-19 22:03:18.75	334.36	3.46	-54.5	-56.6	6.2	0.00e+00	0	41	104	28353495040	79	19640
2026-01-19 22:03:21.77	334.68	3.28	-54.5	-56.6	6.2	0.00e+00	0	42	104	28353495040	79	19627
2026-01-19 22:03:24.80	335.01	3.10	-54.5	-56.6	6.2	0.00e+00	0	42	104	28353495040	79	19501
2026-01-19 22:03:27.82	335.33	2.92	-54.4	-56.6	6.2	0.00e+00	0	42	104	28353495040	79	19533
2026-01-19 22:03:30.84	335.64	2.74	-54.4	-56.5	6.2	0.00e+00	0	42	104	28353495040	79	19465
2026-01-19 22:03:33.87	335.95	2.56	-54.4	-56.5	6.2	0.00e+00	0	42	104	28353495040	79	19444
2026-01-19 22:03:36.89	336.26	2.39	-54.4	-56.5	6.2	0.00e+00	0	42	104	28353495040	79	19402
2026-01-19 22:03:39.91	336.56	2.21	-54.4	-56.5	6.2	0.00e+00	0	42	104	28353495040	79	19396
2026-01-19 22:03:42.94	336.86	2.04	-54.4	-56.5	6.2	0.00e+00	0	42	104	28353495040	79	19419
2026-01-19 22:03:45.97	337.15	1.86	-54.4	-56.5	6.2	0.00e+00	0	42	104	28353495040	79	19353

#Closed at: 2026-01-19 22:03:46
#Recorded file [28353 MB]: D:/lorett/data/31041_260120_005411.dat