passes_logs/2026/01/19/R3.2S_Murmansk/R3.2S_Murmansk__20260119_060437_KANOPUS-V_5_rec.log

#Pass ID: 20260119_060437_KANOPUS-V 5
#Satellite: KANOPUS-V 5
#Configuration: KANOPUS-V_8320
#almurnet v.1.7.20251203
#Start time: 2026-01-19 06:04:36

#Version: 2.2.20231116
#Station: R3.2S_Murmansk
#Location: 33.079688 lon 68.888172 lat
#TLE: 1 43876U 18111A   26018.65182262  .00003158  00000+0  13545-3 0  9996
#TLE: 2 43876  97.3687 287.0998 0001777  87.4650 272.6790 15.23458333392021

#Time	Az	El	Level	Level2	SNR	BER	BlckErr	Temp	State	Recorded	gain1	gain2
2026-01-19 06:04:36.74	113.78	1.98	-53.1	-62.0	3.8	7.45e-01	0	36	0	0	78	9635
2026-01-19 06:04:39.77	113.58	2.18	-53.1	-61.9	3.8	7.46e-01	0	36	104	0	77	10141
2026-01-19 06:04:42.80	113.37	2.38	-53.1	-61.9	3.8	7.46e-01	0	36	104	0	77	10149
2026-01-19 06:04:45.82	113.17	2.59	-53.1	-61.9	3.8	7.46e-01	0	36	104	0	77	10074
2026-01-19 06:04:48.84	112.96	2.79	-53.1	-61.9	3.8	7.46e-01	0	36	104	0	77	10123
2026-01-19 06:04:51.86	112.74	3.00	-53.1	-61.9	3.8	7.46e-01	0	36	104	0	77	10104
2026-01-19 06:04:54.89	112.52	3.20	-53.1	-61.9	3.8	7.44e-01	0	36	104	0	77	10097
2026-01-19 06:04:57.92	112.30	3.41	-53.0	-61.8	3.8	7.45e-01	0	36	104	0	77	9954
2026-01-19 06:05:00.94	112.07	3.62	-53.0	-61.7	3.8	7.47e-01	0	36	104	0	77	9881
2026-01-19 06:05:03.96	111.84	3.84	-53.0	-61.8	3.8	7.44e-01	0	36	104	0	77	9956
2026-01-19 06:05:06.99	111.60	4.05	-53.1	-61.9	3.8	7.46e-01	0	36	104	0	77	10083
2026-01-19 06:05:10.01	111.36	4.27	-52.9	-61.5	3.8	7.46e-01	0	36	104	0	77	9619
2026-01-19 06:05:13.03	111.12	4.49	-52.5	-59.8	3.8	7.45e-01	0	36	104	0	77	7920
2026-01-19 06:05:16.06	110.86	4.71	-52.1	-58.4	4.1	7.35e-01	0	37	0	2097152	76	7162
2026-01-19 06:05:19.08	110.61	4.93	-52.2	-58.7	4.0	7.38e-01	0	37	0	18874368	76	7380
2026-01-19 06:05:22.10	110.35	5.16	-49.1	-52.3	8.5	6.34e-01	0	37	0	54525952	70	5021
2026-01-19 06:05:25.13	110.08	5.38	-48.1	-50.9	10.0	6.17e-01	0	37	0	88080384	67	5073
2026-01-19 06:05:28.15	109.81	5.61	-47.9	-50.7	10.4	6.12e-01	0	37	0	109051904	67	4927
2026-01-19 06:05:31.17	109.53	5.84	-48.0	-50.9	10.2	6.12e-01	0	37	0	155189248	66	5345
2026-01-19 06:05:34.20	109.25	6.08	-47.6	-50.3	10.7	6.07e-01	0	37	0	201326592	66	5033
2026-01-19 06:05:37.22	108.96	6.31	-47.1	-49.7	11.3	6.03e-01	0	37	0	247463936	66	4699
2026-01-19 06:05:40.25	108.66	6.55	-47.0	-49.5	11.5	6.06e-01	0	37	0	295698432	65	4865
2026-01-19 06:05:43.27	108.36	6.79	-46.7	-49.2	11.9	6.05e-01	0	37	0	341835776	64	4928
2026-01-19 06:05:46.29	108.05	7.03	-46.8	-49.3	11.8	6.04e-01	0	37	0	387973120	64	5012
2026-01-19 06:05:49.32	107.74	7.28	-46.4	-48.9	12.2	6.02e-01	0	37	0	434110464	64	4787
2026-01-19 06:05:52.34	107.41	7.53	-46.5	-49.0	12.2	6.03e-01	0	37	0	480247808	63	5125
2026-01-19 06:05:55.37	107.08	7.78	-46.0	-48.4	12.8	6.03e-01	0	37	0	528482304	63	4786
2026-01-19 06:05:58.39	106.75	8.03	-45.9	-48.3	12.9	6.00e-01	0	37	0	574619648	63	4725
2026-01-19 06:06:01.41	106.40	8.29	-46.1	-48.4	12.7	6.02e-01	0	37	0	620756992	63	4803
2026-01-19 06:06:04.44	106.05	8.54	-45.9	-48.2	13.0	5.99e-01	0	37	0	666894336	63	4695
2026-01-19 06:06:07.46	105.69	8.80	-45.6	-47.9	13.4	6.02e-01	0	37	0	713031680	63	4497
2026-01-19 06:06:10.49	105.32	9.07	-45.2	-47.4	13.8	6.01e-01	0	37	0	759169024	62	4506
2026-01-19 06:06:13.51	104.94	9.33	-45.3	-47.5	13.7	5.97e-01	0	37	0	805306368	62	4584
2026-01-19 06:06:16.53	104.55	9.60	-45.0	-47.2	14.0	5.99e-01	0	37	0	851443712	62	4394
2026-01-19 06:06:19.55	104.16	9.88	-45.0	-47.1	14.0	5.97e-01	0	37	0	899678208	61	4641
2026-01-19 06:06:22.58	103.75	10.15	-45.0	-47.1	14.0	6.03e-01	0	37	0	945815552	61	4609
2026-01-19 06:06:25.60	103.34	10.43	-44.9	-47.1	14.1	5.99e-01	0	37	0	991952896	61	4608
2026-01-19 06:06:28.62	102.91	10.71	-45.0	-47.1	14.1	6.03e-01	0	38	0	1038090240	61	4629
2026-01-19 06:06:31.65	102.48	10.99	-44.6	-46.6	14.5	6.04e-01	0	37	0	1084227584	60	4641
2026-01-19 06:06:34.67	102.03	11.28	-44.2	-46.2	14.8	6.01e-01	0	38	0	1130364928	60	4428
2026-01-19 06:06:37.69	101.58	11.57	-44.2	-46.2	14.9	6.01e-01	0	37	0	1176502272	60	4394
2026-01-19 06:06:40.72	101.11	11.86	-44.0	-45.9	15.2	5.96e-01	0	37	0	1222639616	60	4282
2026-01-19 06:06:43.73	100.63	12.16	-44.1	-46.1	15.0	5.98e-01	0	37	0	1268776960	59	4633
2026-01-19 06:06:46.76	100.14	12.46	-43.9	-46.0	15.0	6.00e-01	0	37	0	1317011456	59	4566
2026-01-19 06:06:49.79	99.63	12.76	-43.7	-45.8	15.2	5.97e-01	0	37	0	1363148800	59	4458
2026-01-19 06:06:52.81	99.11	13.06	-43.8	-46.0	15.1	5.98e-01	0	37	0	1409286144	59	4569
2026-01-19 06:06:55.83	98.58	13.37	-43.9	-46.0	15.0	6.00e-01	0	37	0	1455423488	59	4591
2026-01-19 06:06:58.86	98.04	13.68	-43.7	-45.7	15.3	5.89e-01	0	37	0	1503657984	59	4432
2026-01-19 06:07:01.88	97.48	14.00	-43.7	-45.7	15.4	5.87e-01	0	37	0	1549795328	58	4669
2026-01-19 06:07:04.90	96.90	14.31	-43.3	-45.2	15.8	5.86e-01	0	37	0	1595932672	58	4417
2026-01-19 06:07:07.93	96.31	14.63	-43.2	-45.2	15.9	5.86e-01	0	37	0	1642070016	58	4399
2026-01-19 06:07:10.95	95.71	14.96	-43.0	-45.0	16.0	5.86e-01	0	38	0	1688207360	58	4334
2026-01-19 06:07:13.98	95.09	15.28	-42.9	-44.9	16.0	5.87e-01	0	38	0	1734344704	57	4545
2026-01-19 06:07:17.00	94.45	15.61	-42.9	-45.0	16.1	5.87e-01	0	38	0	1780482048	57	4547
2026-01-19 06:07:20.02	93.80	15.94	-42.8	-44.7	16.2	5.87e-01	0	38	0	1826619392	57	4430
2026-01-19 06:07:23.05	93.13	16.27	-42.6	-44.6	16.3	5.86e-01	0	38	0	1874853888	57	4354
2026-01-19 06:07:26.07	92.44	16.61	-42.4	-44.3	16.6	5.86e-01	0	38	0	1920991232	56	4477
2026-01-19 06:07:29.09	91.73	16.95	-42.1	-44.0	16.7	6.02e-01	0	38	0	1967128576	56	4329
2026-01-19 06:07:32.12	91.00	17.29	-42.1	-43.9	17.0	6.02e-01	0	37	0	2013265920	55	4532
2026-01-19 06:07:35.15	90.26	17.63	-42.0	-43.9	17.0	6.04e-01	0	38	0	2061500416	55	4511
2026-01-19 06:07:38.17	89.49	17.97	-42.0	-44.0	16.9	6.03e-01	0	38	0	2107637760	55	4573
2026-01-19 06:07:41.20	88.70	18.32	-42.0	-43.9	17.0	6.02e-01	0	38	0	2153775104	55	4531
2026-01-19 06:07:44.22	87.89	18.66	-41.9	-43.8	17.1	6.03e-01	0	38	0	2199912448	55	4461
2026-01-19 06:07:47.24	87.07	19.01	-41.6	-43.5	17.4	6.04e-01	0	38	0	2243952640	55	4321
2026-01-19 06:07:50.27	86.21	19.36	-41.5	-43.5	17.3	6.05e-01	0	38	0	2292187136	54	4564
2026-01-19 06:07:53.29	85.34	19.70	-41.4	-43.3	17.5	6.02e-01	0	38	0	2338324480	54	4485
2026-01-19 06:07:56.31	84.44	20.05	-41.3	-43.2	17.5	6.03e-01	0	38	0	2384461824	54	4428
2026-01-19 06:07:59.34	83.52	20.40	-41.0	-43.0	17.8	6.02e-01	0	38	0	2430599168	54	4296
2026-01-19 06:08:02.36	82.57	20.74	-41.4	-43.4	17.4	6.01e-01	0	38	0	2478833664	54	4497
2026-01-19 06:08:05.38	81.60	21.08	-41.3	-43.1	17.7	6.03e-01	0	38	0	2524971008	54	4382
2026-01-19 06:08:08.40	80.61	21.42	-40.9	-42.9	17.7	6.03e-01	0	38	0	2571108352	53	4511
2026-01-19 06:08:11.42	79.59	21.76	-40.9	-42.9	17.7	6.03e-01	0	38	0	2617245696	53	4519
2026-01-19 06:08:14.45	78.54	22.10	-40.7	-42.7	17.9	6.01e-01	0	38	0	2663383040	53	4438
2026-01-19 06:08:17.47	77.47	22.43	-40.7	-42.7	17.9	6.02e-01	0	38	0	2709520384	53	4417
2026-01-19 06:08:20.50	76.37	22.76	-40.6	-42.6	18.0	6.02e-01	0	38	0	2755657728	53	4353
2026-01-19 06:08:23.52	75.24	23.08	-40.8	-42.9	17.8	6.02e-01	0	38	0	2801795072	53	4519
2026-01-19 06:08:26.54	74.10	23.39	-40.5	-42.6	18.1	6.03e-01	0	38	0	2847932416	53	4362
2026-01-19 06:08:29.57	72.92	23.70	-40.4	-42.4	18.2	6.05e-01	0	38	0	2896166912	52	4517
2026-01-19 06:08:32.59	71.72	24.00	-40.1	-42.1	18.3	6.03e-01	0	38	0	2942304256	52	4382
2026-01-19 06:08:35.62	70.49	24.29	-40.2	-42.2	18.3	6.03e-01	0	38	0	2988441600	52	4436
2026-01-19 06:08:38.64	69.23	24.57	-40.2	-42.2	18.2	6.03e-01	0	38	0	3034578944	52	4406
2026-01-19 06:08:41.67	67.95	24.85	-40.3	-42.4	18.2	6.03e-01	0	38	0	3082813440	52	4512
2026-01-19 06:08:44.69	66.65	25.11	-40.4	-42.5	18.1	6.04e-01	0	38	0	3128950784	52	4577
2026-01-19 06:08:47.72	65.32	25.36	-40.3	-42.4	18.2	6.04e-01	0	38	0	3175088128	52	4543
2026-01-19 06:08:50.74	63.97	25.59	-40.3	-42.4	18.1	6.03e-01	0	38	0	3221225472	52	4530
2026-01-19 06:08:53.76	62.61	25.81	-40.5	-42.5	18.1	6.02e-01	0	38	0	3267362816	52	4595
2026-01-19 06:08:56.79	61.21	26.02	-40.5	-42.8	18.0	6.02e-01	0	38	0	3313500160	52	4717
2026-01-19 06:08:59.81	59.80	26.21	-40.6	-42.8	17.9	6.02e-01	0	38	0	3359637504	52	4707
2026-01-19 06:09:02.83	58.37	26.39	-40.5	-42.8	17.9	6.03e-01	0	38	0	3405774848	52	4753
2026-01-19 06:09:05.86	56.92	26.55	-40.6	-42.9	17.8	6.02e-01	0	38	0	3454009344	52	4798
2026-01-19 06:09:08.88	55.47	26.69	-40.5	-42.8	18.0	6.03e-01	0	38	0	3500146688	52	4712
2026-01-19 06:09:11.90	53.99	26.81	-40.5	-42.8	17.9	6.02e-01	0	38	0	3546284032	52	4719
2026-01-19 06:09:14.93	52.50	26.92	-40.5	-42.8	17.9	6.02e-01	0	38	0	3592421376	52	4733
2026-01-19 06:09:17.95	51.01	27.00	-40.5	-42.8	17.9	6.06e-01	0	38	0	3640655872	52	4741
2026-01-19 06:09:20.98	49.50	27.07	-40.4	-42.7	18.0	6.04e-01	0	38	0	3684696064	52	4673
2026-01-19 06:09:24.00	47.99	27.11	-40.4	-42.8	17.9	6.03e-01	0	38	0	3730833408	52	4715
2026-01-19 06:09:27.02	46.48	27.14	-40.7	-43.1	17.7	6.03e-01	0	38	0	3776970752	52	4903
2026-01-19 06:09:30.05	44.97	27.14	-40.4	-42.8	18.0	6.02e-01	0	38	0	3825205248	52	4728
2026-01-19 06:09:33.07	43.45	27.13	-40.4	-42.8	17.9	6.01e-01	0	38	0	3871342592	52	4745
2026-01-19 06:09:36.10	41.94	27.09	-40.7	-43.1	17.7	6.01e-01	0	38	0	3917479936	52	4921
2026-01-19 06:09:39.12	40.44	27.04	-40.6	-43.1	17.8	6.02e-01	0	38	0	3963617280	52	4880
2026-01-19 06:09:42.14	38.94	26.96	-40.6	-43.1	17.7	6.02e-01	0	38	0	4009754624	52	4880
2026-01-19 06:09:45.16	37.45	26.87	-40.7	-43.0	17.8	6.02e-01	0	38	0	4057989120	52	4830
2026-01-19 06:09:48.19	35.97	26.75	-40.8	-43.4	17.5	6.01e-01	0	38	0	4104126464	52	5050
2026-01-19 06:09:51.21	34.50	26.62	-40.8	-43.3	17.5	6.00e-01	0	38	0	4150263808	52	5012
2026-01-19 06:09:54.24	33.05	26.47	-41.0	-43.5	17.4	6.00e-01	0	38	0	4196401152	52	5113
2026-01-19 06:09:57.26	31.61	26.30	-41.1	-43.7	17.2	6.01e-01	0	38	0	4242538496	52	5276
2026-01-19 06:10:00.28	30.20	26.12	-41.0	-43.6	17.3	6.01e-01	0	38	0	4288675840	52	5168
2026-01-19 06:10:03.30	28.80	25.92	-41.4	-44.0	17.1	6.01e-01	0	38	0	4334813184	53	5109
2026-01-19 06:10:06.33	27.42	25.71	-41.4	-43.8	17.1	6.02e-01	0	38	0	4380950528	53	5037
2026-01-19 06:10:09.35	26.06	25.48	-41.5	-43.9	17.1	6.02e-01	0	38	0	4429185024	53	5086
2026-01-19 06:10:12.38	24.72	25.24	-41.4	-43.9	17.1	6.02e-01	0	38	0	4475322368	53	5052
2026-01-19 06:10:15.40	23.41	24.98	-41.2	-43.7	17.2	5.99e-01	0	38	0	4521459712	53	4975
2026-01-19 06:10:18.43	22.12	24.72	-41.2	-43.7	17.2	6.02e-01	0	38	0	4567597056	53	4954
2026-01-19 06:10:21.45	20.86	24.44	-41.2	-43.7	17.2	6.01e-01	0	38	0	4615831552	53	4982
2026-01-19 06:10:24.47	19.62	24.15	-41.3	-43.8	17.2	6.00e-01	0	38	0	4661968896	53	5030
2026-01-19 06:10:27.50	18.41	23.86	-41.7	-44.3	16.8	6.01e-01	0	38	0	4708106240	53	5285
2026-01-19 06:10:30.52	17.22	23.56	-41.7	-44.2	16.9	6.01e-01	0	38	0	4754243584	54	4972
2026-01-19 06:10:33.54	16.06	23.25	-41.4	-43.9	17.1	6.01e-01	0	38	0	4798283776	54	4804
2026-01-19 06:10:36.57	14.93	22.93	-41.6	-44.2	16.9	6.01e-01	0	38	0	4846518272	54	4944
2026-01-19 06:10:39.60	13.82	22.61	-41.7	-44.2	16.9	6.00e-01	0	38	0	4892655616	54	4936
2026-01-19 06:10:42.62	12.74	22.28	-41.8	-44.2	16.9	6.01e-01	0	38	0	4938792960	54	4959
2026-01-19 06:10:45.64	11.68	21.95	-41.8	-44.2	16.8	6.01e-01	0	38	0	4984930304	54	4971
2026-01-19 06:10:48.67	10.65	21.61	-41.9	-44.4	16.7	6.02e-01	0	38	0	5033164800	54	5080
2026-01-19 06:10:51.69	9.64	21.27	-42.0	-44.5	16.7	6.01e-01	0	38	0	5079302144	54	5103
2026-01-19 06:10:54.72	8.66	20.93	-42.1	-44.5	16.6	5.99e-01	0	38	0	5125439488	54	5154
2026-01-19 06:10:57.74	7.71	20.59	-42.4	-44.8	16.4	6.00e-01	0	38	0	5171576832	55	5014
2026-01-19 06:11:00.76	6.78	20.24	-42.5	-44.9	16.3	6.02e-01	0	38	0	5217714176	55	5091
2026-01-19 06:11:03.78	5.87	19.90	-42.4	-44.8	16.3	6.02e-01	0	38	0	5263851520	55	5038
2026-01-19 06:11:06.81	4.99	19.55	-42.4	-44.8	16.3	6.02e-01	0	38	0	5309988864	55	5032
2026-01-19 06:11:09.83	4.13	19.21	-42.6	-45.1	16.1	6.01e-01	0	38	0	5356126208	55	5205
2026-01-19 06:11:12.86	3.29	18.86	-42.5	-44.9	16.2	6.00e-01	0	38	0	5404360704	56	4776
2026-01-19 06:11:15.88	2.47	18.52	-42.5	-44.8	16.2	6.01e-01	0	38	0	5450498048	56	4722
2026-01-19 06:11:18.90	1.68	18.17	-42.7	-45.1	16.0	6.02e-01	0	38	0	5496635392	56	4887
2026-01-19 06:11:21.93	0.90	17.83	-42.8	-45.2	15.9	6.01e-01	0	38	0	5542772736	56	4932
2026-01-19 06:11:24.95	0.15	17.49	-42.9	-45.2	15.8	5.98e-01	0	38	0	5591007232	56	4956
2026-01-19 06:11:27.97	359.42	17.15	-43.1	-45.4	15.7	6.01e-01	0	38	0	5637144576	56	5085
2026-01-19 06:11:30.99	358.70	16.81	-43.3	-45.7	15.5	6.00e-01	0	38	0	5683281920	57	4938
2026-01-19 06:11:34.02	358.00	16.48	-43.3	-45.7	15.4	6.01e-01	0	38	0	5729419264	57	4955
2026-01-19 06:11:37.04	357.33	16.15	-43.5	-45.9	15.2	6.04e-01	0	38	0	5775556608	57	5083
2026-01-19 06:11:40.06	356.67	15.81	-43.5	-45.9	15.3	5.87e-01	0	38	0	5821693952	57	5098
2026-01-19 06:11:43.09	356.02	15.49	-43.8	-46.3	15.0	5.86e-01	0	38	0	5867831296	58	4988
2026-01-19 06:11:46.11	355.40	15.16	-44.0	-46.5	14.8	5.87e-01	0	38	0	5913968640	58	5135
2026-01-19 06:11:49.13	354.79	14.84	-54.5	-63.5	3.7	7.46e-01	0	38	0	5960105984	64	25726
2026-01-19 06:11:52.16	354.19	14.52	-54.1	-62.9	3.8	7.46e-01	0	38	104	5960105984	78	10756
2026-01-19 06:11:55.18	353.62	14.20	-53.9	-62.8	3.8	7.45e-01	0	38	104	5960105984	78	10592
2026-01-19 06:11:58.20	353.05	13.89	-53.9	-62.8	3.8	7.46e-01	0	38	104	5960105984	78	10554
2026-01-19 06:12:01.23	352.50	13.57	-53.9	-62.8	3.8	7.45e-01	0	38	104	5960105984	78	10595
2026-01-19 06:12:04.25	351.97	13.27	-53.9	-62.7	3.8	7.47e-01	0	38	104	5960105984	78	10513
2026-01-19 06:12:07.27	351.45	12.96	-53.8	-62.7	3.8	7.45e-01	0	38	104	5960105984	78	10495
2026-01-19 06:12:10.30	350.94	12.66	-53.8	-62.7	3.8	7.46e-01	0	38	104	5960105984	78	10430
2026-01-19 06:12:13.32	350.44	12.36	-53.8	-62.7	3.8	7.44e-01	0	38	104	5960105984	78	10432
2026-01-19 06:12:16.34	349.96	12.06	-53.8	-62.7	3.8	7.44e-01	0	38	104	5960105984	78	10451
2026-01-19 06:12:19.37	349.48	11.77	-53.8	-62.6	3.8	7.43e-01	0	38	104	5960105984	78	10385
2026-01-19 06:12:22.39	349.02	11.48	-53.7	-62.6	3.8	7.47e-01	0	38	104	5960105984	78	10330
2026-01-19 06:12:25.41	348.57	11.19	-53.7	-62.6	3.8	7.45e-01	0	38	104	5960105984	78	10335
2026-01-19 06:12:28.43	348.14	10.91	-53.7	-62.6	3.8	7.44e-01	0	38	104	5960105984	78	10315
2026-01-19 06:12:31.46	347.71	10.63	-53.7	-62.6	3.8	7.46e-01	0	38	104	5960105984	78	10294
2026-01-19 06:12:34.48	347.29	10.35	-53.6	-62.5	3.8	7.45e-01	0	38	104	5960105984	78	10205
2026-01-19 06:12:37.51	346.88	10.07	-53.6	-62.5	3.8	7.45e-01	0	38	104	5960105984	78	10201
2026-01-19 06:12:40.53	346.48	9.80	-53.7	-62.5	3.8	7.46e-01	0	38	104	5960105984	78	10215
2026-01-19 06:12:43.56	346.09	9.53	-53.6	-62.4	3.8	7.47e-01	0	38	104	5960105984	78	10146
2026-01-19 06:12:46.58	345.71	9.26	-53.5	-62.4	3.8	7.44e-01	0	38	104	5960105984	78	10068
2026-01-19 06:12:49.60	345.34	9.00	-53.5	-62.3	3.8	7.47e-01	0	38	104	5960105984	78	10027
2026-01-19 06:12:52.63	344.98	8.74	-53.5	-62.4	3.8	7.45e-01	0	38	104	5960105984	78	10105
2026-01-19 06:12:55.65	344.62	8.48	-53.5	-62.3	3.8	7.46e-01	0	38	104	5960105984	78	10015
2026-01-19 06:12:58.68	344.27	8.22	-53.4	-62.2	3.8	7.46e-01	0	38	104	5960105984	78	9907
2026-01-19 06:13:01.70	343.94	7.97	-53.4	-62.2	3.8	7.46e-01	0	38	104	5960105984	78	9908
2026-01-19 06:13:04.72	343.60	7.72	-53.4	-62.3	3.8	7.44e-01	0	38	104	5960105984	78	9993
2026-01-19 06:13:07.75	343.28	7.47	-53.4	-62.2	3.8	7.46e-01	0	38	104	5960105984	78	9898
2026-01-19 06:13:10.77	342.96	7.22	-53.3	-62.1	3.8	7.45e-01	0	38	104	5960105984	78	9806
2026-01-19 06:13:13.80	342.65	6.98	-53.2	-62.1	3.8	7.45e-01	0	38	104	5960105984	78	9757
2026-01-19 06:13:16.82	342.35	6.74	-53.3	-62.2	3.8	7.46e-01	0	38	104	5960105984	78	9840
2026-01-19 06:13:19.84	342.05	6.50	-53.3	-62.1	3.8	7.44e-01	0	38	104	5960105984	78	9813
2026-01-19 06:13:22.86	341.76	6.26	-53.1	-62.0	3.8	7.45e-01	0	38	104	5960105984	78	9629
2026-01-19 06:13:25.89	341.48	6.03	-53.1	-61.9	3.8	7.44e-01	0	38	104	5960105984	78	9570
2026-01-19 06:13:28.91	341.20	5.80	-53.2	-62.0	3.8	7.45e-01	0	38	104	5960105984	78	9704
2026-01-19 06:13:31.94	340.92	5.57	-53.1	-62.0	3.8	7.44e-01	0	38	104	5960105984	78	9608
2026-01-19 06:13:34.96	340.66	5.34	-52.9	-61.8	3.8	7.44e-01	0	38	104	5960105984	77	9965
2026-01-19 06:13:37.98	340.39	5.12	-52.8	-61.7	3.8	7.46e-01	0	38	104	5960105984	77	9853
2026-01-19 06:13:41.00	340.14	4.89	-53.6	-62.4	3.8	7.45e-01	0	38	104	5960105984	77	10714
2026-01-19 06:13:44.03	339.88	4.67	-54.2	-63.0	3.8	7.46e-01	0	38	104	5960105984	78	10873
2026-01-19 06:13:47.05	339.64	4.45	-54.4	-63.4	3.8	7.46e-01	0	38	104	5960105984	79	10703
2026-01-19 06:13:50.07	339.40	4.24	-54.7	-63.5	3.8	7.46e-01	0	38	104	5960105984	80	10282
2026-01-19 06:13:53.10	339.16	4.02	-54.8	-63.7	3.8	7.46e-01	0	38	104	5960105984	80	10431
2026-01-19 06:13:56.12	338.93	3.81	-54.8	-63.7	3.8	7.44e-01	0	38	104	5960105984	80	10498
2026-01-19 06:13:59.14	338.70	3.60	-54.9	-63.8	3.8	7.46e-01	0	38	104	5960105984	80	10552
2026-01-19 06:14:02.17	338.48	3.39	-54.9	-63.8	3.8	7.45e-01	0	38	104	5960105984	80	10565
2026-01-19 06:14:05.19	338.26	3.18	-54.9	-63.7	3.8	7.46e-01	0	38	104	5960105984	80	10480
2026-01-19 06:14:08.22	338.04	2.97	-54.8	-63.7	3.8	7.46e-01	0	38	104	5960105984	80	10450
2026-01-19 06:14:11.24	337.83	2.77	-54.8	-63.7	3.8	7.46e-01	0	38	104	5960105984	80	10414
2026-01-19 06:14:14.26	337.62	2.56	-54.8	-63.6	3.8	7.46e-01	0	38	104	5960105984	80	10407
2026-01-19 06:14:17.29	337.42	2.36	-54.8	-63.7	3.8	7.45e-01	0	38	104	5960105984	80	10441
2026-01-19 06:14:20.31	337.22	2.16	-54.8	-63.7	3.8	7.46e-01	0	38	104	5960105984	80	10413
2026-01-19 06:14:23.34	337.02	1.96	-54.8	-63.7	3.8	7.45e-01	0	38	104	5960105984	80	10419

#Closed at: 2026-01-19 06:14:23
#Recorded file [5960 MB]: D:/lorett/data/31041_260119_090436.dat