passes_logs/2026/01/19/R3.2S_Murmansk/R3.2S_Murmansk__20260119_063457_SUOMI_NPP_rec.log

#Pass ID: 20260119_063457_SUOMI NPP
#Satellite: SUOMI NPP
#Configuration: NPP
#almurnet v.1.7.20251203
#Start time: 2026-01-19 06:34:58

#Version: 2.2.20231116
#Station: R3.2S_Murmansk
#Location: 33.079688 lon 68.888172 lat
#TLE: 1 37849U 11061A   26018.91022273  .00000066  00000+0  52264-4 0  9997
#TLE: 2 37849  98.7816 320.9252 0002364  56.8129 303.3273 14.19526186737260

#Time	Az	El	Level	Level2	SNR	BER	BlckErr	Temp	State	Recorded	gain1	gain2
2026-01-19 06:34:58.68	85.12	2.09	-52.0	-67.0	3.8	1.49e+00	0	35	0	0	76	19266
2026-01-19 06:35:02.70	84.89	2.33	-52.0	-66.9	3.8	1.49e+00	0	35	104	0	74	21490
2026-01-19 06:35:06.74	84.65	2.57	-52.0	-67.0	3.8	1.49e+00	0	35	104	0	74	21516
2026-01-19 06:35:10.77	84.41	2.81	-52.0	-66.9	3.8	1.49e+00	0	36	104	0	74	21415
2026-01-19 06:35:14.80	84.17	3.05	-52.0	-66.9	3.8	1.49e+00	0	36	104	0	74	21455
2026-01-19 06:35:18.83	83.92	3.29	-52.0	-66.9	3.8	1.49e+00	0	36	104	0	74	21269
2026-01-19 06:35:22.86	83.67	3.54	-52.0	-66.9	3.8	1.49e+00	0	36	104	0	74	21285
2026-01-19 06:35:26.89	83.41	3.78	-52.0	-66.9	3.8	1.49e+00	0	36	104	0	74	21333
2026-01-19 06:35:30.92	83.15	4.03	-51.9	-65.4	3.8	1.49e+00	0	36	104	0	74	18094
2026-01-19 06:35:34.95	82.88	4.28	-51.7	-62.6	4.4	1.31e+00	111	36	0	0	74	13042
2026-01-19 06:35:38.99	82.61	4.53	-51.5	-60.4	5.6	4.25e-01	0	36	0	8388608	74	10163
2026-01-19 06:35:43.02	82.34	4.78	-51.2	-58.9	6.8	1.94e-01	0	37	0	15728640	74	8502
2026-01-19 06:35:47.05	82.06	5.04	-51.7	-62.0	4.7	8.60e-01	0	36	0	23068672	74	12205
2026-01-19 06:35:51.08	81.77	5.29	-50.0	-54.1	11.9	6.96e-01	0	36	0	28311552	72	5507
2026-01-19 06:35:55.11	81.48	5.55	-50.3	-54.7	11.5	4.83e-04	0	36	0	33554432	71	6217
2026-01-19 06:35:59.15	81.18	5.81	-50.0	-53.9	12.4	1.02e-04	0	36	0	40894464	71	5668
2026-01-19 06:36:03.18	80.88	6.07	-49.5	-53.0	13.3	4.04e-05	0	37	0	48234496	71	5130
2026-01-19 06:36:07.21	80.57	6.34	-49.6	-53.2	13.2	7.60e-06	0	37	0	56623104	70	5533
2026-01-19 06:36:11.24	80.26	6.60	-48.7	-51.5	14.9	0.00e+00	0	37	0	63963136	69	4820
2026-01-19 06:36:15.27	79.94	6.87	-48.5	-51.2	15.2	0.00e+00	0	36	0	71303168	68	4956
2026-01-19 06:36:19.30	79.61	7.14	-48.5	-51.1	15.3	0.00e+00	0	37	0	78643200	68	4904
2026-01-19 06:36:23.33	79.28	7.41	-48.2	-50.7	15.7	0.00e+00	0	37	0	85983232	67	4976
2026-01-19 06:36:27.36	78.94	7.69	-48.4	-51.0	15.4	0.00e+00	0	37	0	94371840	67	5122
2026-01-19 06:36:31.40	78.59	7.96	-48.2	-50.7	15.8	0.00e+00	0	37	0	101711872	67	4961
2026-01-19 06:36:35.43	78.24	8.24	-48.3	-50.8	15.7	0.00e+00	0	37	0	109051904	67	5001
2026-01-19 06:36:39.46	77.88	8.52	-48.3	-50.8	15.7	0.00e+00	0	37	0	116391936	67	5005
2026-01-19 06:36:43.49	77.51	8.80	-47.9	-50.2	16.3	0.00e+00	0	37	0	124780544	67	4695
2026-01-19 06:36:47.52	77.14	9.08	-48.1	-50.6	16.0	0.00e+00	0	37	0	132120576	67	4879
2026-01-19 06:36:51.55	76.76	9.37	-48.2	-50.7	15.8	0.00e+00	0	37	0	139460608	67	4982
2026-01-19 06:36:55.58	76.37	9.65	-48.2	-50.7	15.9	0.00e+00	0	37	0	146800640	67	4942
2026-01-19 06:36:59.62	75.97	9.94	-48.2	-50.7	15.9	0.00e+00	0	37	0	154140672	67	4947
2026-01-19 06:37:03.65	75.56	10.24	-47.8	-50.0	16.6	0.00e+00	0	37	0	162529280	67	4572
2026-01-19 06:37:07.68	75.15	10.53	-47.7	-49.9	16.7	0.00e+00	0	37	0	169869312	67	4511
2026-01-19 06:37:11.72	74.72	10.82	-47.9	-50.3	16.3	0.00e+00	0	37	0	177209344	67	4728
2026-01-19 06:37:15.75	74.29	11.12	-47.7	-49.9	16.7	0.00e+00	0	37	0	184549376	67	4525
2026-01-19 06:37:19.78	73.85	11.42	-47.8	-50.0	16.7	0.00e+00	0	37	0	191889408	67	4580
2026-01-19 06:37:23.81	73.40	11.72	-47.7	-49.8	17.0	0.00e+00	0	37	0	200278016	67	4461
2026-01-19 06:37:27.84	72.94	12.03	-47.5	-49.6	17.1	0.00e+00	0	37	0	207618048	66	4624
2026-01-19 06:37:31.87	72.47	12.33	-47.7	-49.9	16.8	0.00e+00	0	37	0	214958080	66	4792
2026-01-19 06:37:35.91	71.99	12.64	-47.9	-50.1	16.6	0.00e+00	0	37	0	222298112	66	4921
2026-01-19 06:37:39.94	71.50	12.95	-48.0	-50.4	16.4	0.00e+00	0	37	0	229638144	66	5042
2026-01-19 06:37:43.97	71.00	13.26	-47.9	-50.1	16.7	0.00e+00	0	37	0	238026752	66	4885
2026-01-19 06:37:48.00	70.49	13.57	-47.5	-49.6	17.2	0.00e+00	0	37	0	245366784	66	4619
2026-01-19 06:37:52.03	69.96	13.88	-47.1	-49.0	17.7	0.00e+00	0	37	0	252706816	66	4326
2026-01-19 06:37:56.06	69.43	14.20	-46.7	-48.4	18.3	0.00e+00	0	37	0	260046848	65	4278
2026-01-19 06:38:00.09	68.88	14.52	-46.8	-48.6	18.2	0.00e+00	0	37	0	268435456	65	4368
2026-01-19 06:38:04.12	68.32	14.83	-46.9	-48.7	18.1	0.00e+00	0	37	0	275775488	65	4431
2026-01-19 06:38:08.15	67.75	15.15	-46.9	-48.7	18.1	0.00e+00	0	37	0	283115520	65	4408
2026-01-19 06:38:12.18	67.17	15.47	-46.6	-48.3	18.5	0.00e+00	0	37	0	290455552	65	4233
2026-01-19 06:38:16.21	66.57	15.80	-46.6	-48.3	18.5	0.00e+00	0	37	0	297795584	65	4215
2026-01-19 06:38:20.25	65.96	16.12	-46.8	-48.6	18.2	0.00e+00	0	37	0	306184192	64	4624
2026-01-19 06:38:24.28	65.34	16.44	-46.7	-48.5	18.3	0.00e+00	0	37	0	313524224	64	4595
2026-01-19 06:38:28.30	64.70	16.77	-46.9	-48.8	18.0	0.00e+00	0	37	0	320864256	64	4728
2026-01-19 06:38:32.34	64.05	17.09	-47.2	-49.1	17.8	0.00e+00	0	37	0	328204288	65	4624
2026-01-19 06:38:36.37	63.38	17.42	-47.5	-49.6	17.3	0.00e+00	0	37	0	335544320	65	4891
2026-01-19 06:38:40.40	62.70	17.75	-47.6	-49.6	17.4	0.00e+00	0	37	0	343932928	66	4646
2026-01-19 06:38:44.43	62.01	18.07	-47.5	-49.5	17.4	0.00e+00	0	37	0	351272960	66	4585
2026-01-19 06:38:48.46	61.30	18.40	-47.2	-49.1	17.8	0.00e+00	0	37	0	358612992	66	4378
2026-01-19 06:38:52.50	60.57	18.72	-47.0	-48.8	18.0	0.00e+00	0	37	0	365953024	65	4488
2026-01-19 06:38:56.53	59.83	19.05	-47.5	-49.6	17.4	0.00e+00	0	37	0	373293056	65	4900
2026-01-19 06:39:00.56	59.07	19.37	-47.2	-49.1	17.9	0.00e+00	0	37	0	381681664	65	4607
2026-01-19 06:39:04.60	58.29	19.70	-46.9	-48.7	18.2	0.00e+00	0	37	0	389021696	65	4414
2026-01-19 06:39:08.63	57.50	20.02	-46.8	-48.5	18.4	0.00e+00	0	37	0	396361728	64	4579
2026-01-19 06:39:12.66	56.69	20.34	-47.3	-49.3	17.8	0.00e+00	0	37	0	403701760	65	4715
2026-01-19 06:39:16.70	55.87	20.65	-46.8	-48.6	18.3	0.00e+00	0	37	0	412090368	65	4365
2026-01-19 06:39:20.73	55.02	20.97	-46.3	-47.8	19.1	0.00e+00	0	37	0	419430400	63	4478
2026-01-19 06:39:24.76	54.16	21.28	-45.9	-47.5	19.4	0.00e+00	0	37	0	426770432	63	4308
2026-01-19 06:39:28.79	53.29	21.59	-46.1	-47.7	19.2	0.00e+00	0	37	0	434110464	63	4433
2026-01-19 06:39:32.82	52.39	21.89	-45.8	-47.3	19.6	0.00e+00	0	37	0	441450496	63	4229
2026-01-19 06:39:36.86	51.47	22.20	-45.4	-46.8	20.1	0.00e+00	0	37	0	448790528	62	4214
2026-01-19 06:39:40.89	50.54	22.49	-45.6	-47.0	19.9	0.00e+00	0	37	0	457179136	62	4332
2026-01-19 06:39:44.92	49.59	22.78	-45.2	-46.5	20.3	0.00e+00	0	37	0	464519168	62	4090
2026-01-19 06:39:48.95	48.63	23.07	-45.1	-46.4	20.4	0.00e+00	0	37	0	471859200	61	4280
2026-01-19 06:39:52.98	47.64	23.35	-45.3	-46.6	20.3	0.00e+00	0	37	0	479199232	61	4386
2026-01-19 06:39:57.01	46.64	23.62	-45.3	-46.6	20.3	0.00e+00	0	37	0	487587840	61	4386
2026-01-19 06:40:01.04	45.62	23.89	-46.0	-47.5	19.5	0.00e+00	0	37	0	494927872	62	4561
2026-01-19 06:40:05.07	44.58	24.15	-45.9	-47.4	19.6	0.00e+00	0	37	0	502267904	62	4520
2026-01-19 06:40:09.10	43.53	24.40	-45.3	-46.7	20.3	0.00e+00	0	37	0	509607936	62	4149
2026-01-19 06:40:13.13	42.45	24.65	-45.5	-46.9	20.1	0.00e+00	0	37	0	516947968	62	4255
2026-01-19 06:40:17.17	41.36	24.88	-45.6	-47.0	20.1	0.00e+00	0	37	0	525336576	62	4301
2026-01-19 06:40:21.20	40.26	25.11	-45.1	-46.4	20.5	0.00e+00	0	37	0	532676608	62	4032
2026-01-19 06:40:25.24	39.14	25.32	-45.1	-46.4	20.6	0.00e+00	0	37	0	540016640	62	4034
2026-01-19 06:40:29.27	38.00	25.52	-45.6	-47.0	20.1	0.00e+00	0	37	0	547356672	62	4299
2026-01-19 06:40:33.30	36.85	25.72	-45.7	-47.1	20.0	0.00e+00	0	37	0	555745280	62	4349
2026-01-19 06:40:37.33	35.69	25.90	-46.6	-48.3	18.8	0.00e+00	0	37	0	563085312	64	4445
2026-01-19 06:40:41.37	34.51	26.07	-47.3	-49.1	18.0	0.00e+00	0	37	0	570425344	65	4624
2026-01-19 06:40:45.40	33.32	26.23	-47.2	-49.0	18.0	0.00e+00	0	37	0	577765376	66	4333
2026-01-19 06:40:49.43	32.12	26.37	-46.5	-48.1	18.9	0.00e+00	0	37	0	585105408	64	4346
2026-01-19 06:40:53.46	30.91	26.50	-47.4	-49.3	17.9	0.00e+00	0	37	0	592445440	65	4722
2026-01-19 06:40:57.49	29.69	26.62	-47.2	-49.0	18.0	0.00e+00	0	37	0	600834048	65	4571
2026-01-19 06:41:01.53	28.46	26.72	-47.1	-48.9	18.2	0.00e+00	0	37	0	608174080	65	4527
2026-01-19 06:41:05.56	27.22	26.81	-46.7	-48.4	18.6	0.00e+00	0	37	0	615514112	65	4270
2026-01-19 06:41:09.60	25.98	26.89	-46.6	-48.3	18.7	0.00e+00	0	37	0	622854144	64	4455
2026-01-19 06:41:13.63	24.73	26.95	-47.5	-49.5	17.6	0.00e+00	0	37	0	631242752	65	4816
2026-01-19 06:41:17.66	23.48	26.99	-47.6	-49.6	17.5	0.00e+00	0	37	0	638582784	66	4637
2026-01-19 06:41:21.69	22.23	27.02	-46.2	-47.8	19.3	0.00e+00	0	37	0	645922816	64	4205
2026-01-19 06:41:25.72	20.97	27.04	-46.8	-48.4	18.7	0.00e+00	0	37	0	653262848	64	4539
2026-01-19 06:41:29.75	19.71	27.03	-47.1	-48.9	18.1	0.00e+00	0	37	0	660602880	64	4814
2026-01-19 06:41:33.78	18.46	27.02	-46.5	-48.1	19.0	0.00e+00	0	37	0	668991488	64	4371
2026-01-19 06:41:37.81	17.20	26.99	-46.3	-47.8	19.4	0.00e+00	0	37	0	676331520	63	4476
2026-01-19 06:41:41.84	15.95	26.94	-46.4	-48.0	19.1	0.00e+00	0	37	0	683671552	63	4565
2026-01-19 06:41:45.87	14.71	26.88	-45.4	-46.7	20.3	0.00e+00	0	37	0	691011584	62	4191
2026-01-19 06:41:49.90	13.47	26.80	-45.2	-46.4	20.6	0.00e+00	0	37	0	698351616	61	4284
2026-01-19 06:41:53.93	12.23	26.71	-45.4	-46.7	20.3	0.00e+00	0	37	0	706740224	61	4400
2026-01-19 06:41:57.97	11.00	26.61	-45.9	-47.3	19.8	0.00e+00	0	37	0	714080256	62	4479
2026-01-19 06:42:02.00	9.78	26.49	-46.1	-47.5	19.6	0.00e+00	0	37	0	721420288	63	4337
2026-01-19 06:42:06.02	8.58	26.36	-46.4	-47.9	19.2	0.00e+00	0	37	0	728760320	63	4541
2026-01-19 06:42:10.05	7.38	26.21	-46.4	-48.0	19.2	0.00e+00	0	37	0	736100352	63	4551
2026-01-19 06:42:14.09	6.19	26.05	-46.0	-47.5	19.7	0.00e+00	0	37	0	744488960	63	4299
2026-01-19 06:42:18.12	5.02	25.88	-46.5	-48.1	19.1	0.00e+00	0	37	0	751828992	63	4613
2026-01-19 06:42:22.15	3.86	25.70	-46.7	-48.4	18.7	0.00e+00	0	37	0	759169024	64	4515
2026-01-19 06:42:26.18	2.71	25.50	-46.9	-48.6	18.5	0.00e+00	0	37	0	766509056	64	4646
2026-01-19 06:42:30.22	1.58	25.30	-47.4	-49.3	17.8	0.00e+00	0	37	0	774897664	66	4490
2026-01-19 06:42:34.25	0.46	25.08	-47.2	-49.0	18.1	0.00e+00	0	37	0	782237696	66	4333
2026-01-19 06:42:38.28	359.36	24.86	-47.2	-49.0	18.0	0.00e+00	0	37	0	789577728	66	4340
2026-01-19 06:42:42.32	358.27	24.62	-46.8	-48.5	18.6	0.00e+00	0	37	0	796917760	65	4334
2026-01-19 06:42:46.35	357.20	24.38	-46.8	-48.5	18.5	0.00e+00	0	37	0	804257792	64	4590
2026-01-19 06:42:50.38	356.15	24.13	-46.2	-47.8	19.1	0.00e+00	0	37	0	811597824	64	4229
2026-01-19 06:42:54.42	355.11	23.86	-47.0	-48.8	18.3	0.00e+00	0	37	0	819986432	64	4718
2026-01-19 06:42:58.45	354.10	23.60	-47.6	-49.7	17.4	0.00e+00	0	37	0	827326464	66	4660
2026-01-19 06:43:02.48	353.10	23.32	-46.7	-48.4	18.6	0.00e+00	0	37	0	834666496	65	4268
2026-01-19 06:43:06.51	352.11	23.04	-46.2	-47.8	19.2	0.00e+00	0	37	0	842006528	63	4463
2026-01-19 06:43:10.54	351.15	22.76	-47.0	-48.9	18.1	0.00e+00	0	37	0	850395136	64	4796
2026-01-19 06:43:14.58	350.20	22.46	-46.0	-47.6	19.3	0.00e+00	0	37	0	857735168	64	4111
2026-01-19 06:43:18.61	349.28	22.17	-45.5	-46.9	20.1	0.00e+00	0	37	0	865075200	62	4246
2026-01-19 06:43:22.64	348.37	21.87	-45.5	-46.8	20.1	0.00e+00	0	37	0	872415232	62	4241
2026-01-19 06:43:26.67	347.47	21.56	-45.5	-46.8	20.1	0.00e+00	0	37	0	879755264	62	4233
2026-01-19 06:43:30.70	346.60	21.25	-45.2	-46.5	20.3	0.00e+00	0	37	0	888143872	62	4069
2026-01-19 06:43:34.74	345.74	20.94	-45.8	-47.3	19.6	0.00e+00	0	37	0	895483904	62	4458
2026-01-19 06:43:38.77	344.90	20.63	-46.3	-47.9	19.0	0.00e+00	0	37	0	902823936	63	4519
2026-01-19 06:43:42.80	344.08	20.31	-45.6	-47.0	19.9	0.00e+00	0	37	0	910163968	63	4056
2026-01-19 06:43:46.83	343.27	19.99	-45.9	-47.4	19.6	0.00e+00	0	37	0	918552576	62	4514
2026-01-19 06:43:50.86	342.49	19.67	-44.8	-46.0	20.8	0.00e+00	0	37	0	925892608	61	4077
2026-01-19 06:43:54.89	341.72	19.35	-44.8	-46.1	20.8	0.00e+00	0	37	0	933232640	61	4104
2026-01-19 06:43:58.92	340.96	19.02	-44.9	-46.2	20.6	0.00e+00	0	37	0	940572672	61	4173
2026-01-19 06:44:02.95	340.22	18.70	-45.1	-46.4	20.5	0.00e+00	0	37	0	947912704	61	4261
2026-01-19 06:44:06.98	339.50	18.38	-45.0	-46.3	20.5	0.00e+00	0	37	0	955252736	61	4233
2026-01-19 06:44:11.01	338.79	18.05	-45.3	-46.7	20.2	0.00e+00	0	37	0	963641344	61	4400
2026-01-19 06:44:15.04	338.10	17.73	-45.5	-46.8	20.1	0.00e+00	0	37	0	970981376	61	4476
2026-01-19 06:44:19.07	337.42	17.40	-44.8	-46.0	20.8	0.00e+00	0	37	0	978321408	61	4075
2026-01-19 06:44:23.10	336.76	17.07	-45.0	-46.3	20.5	0.00e+00	0	37	0	985661440	61	4206
2026-01-19 06:44:27.13	336.11	16.75	-46.2	-47.8	19.2	0.00e+00	0	37	0	994050048	63	4443
2026-01-19 06:44:31.17	335.48	16.43	-45.8	-47.2	19.6	0.00e+00	0	37	0	1001390080	63	4189
2026-01-19 06:44:35.20	334.86	16.10	-45.6	-47.0	19.8	0.00e+00	0	37	0	1008730112	63	4089
2026-01-19 06:44:39.23	334.25	15.78	-46.0	-47.6	19.3	0.00e+00	0	37	0	1016070144	63	4344
2026-01-19 06:44:43.26	333.66	15.46	-46.9	-48.7	18.2	0.00e+00	0	37	0	1023410176	64	4676
2026-01-19 06:44:47.29	333.08	15.14	-46.6	-48.2	18.6	0.00e+00	0	37	0	1031798784	64	4431
2026-01-19 06:44:51.32	332.51	14.82	-45.8	-47.3	19.6	0.00e+00	0	37	0	1039138816	63	4205
2026-01-19 06:44:55.35	331.95	14.50	-46.3	-47.9	19.0	7.00e-07	0	37	0	1046478848	63	4508
2026-01-19 06:44:59.38	331.41	14.19	-46.3	-47.8	19.0	0.00e+00	0	37	0	1053818880	63	4483
2026-01-19 06:45:03.41	330.88	13.87	-46.0	-47.5	19.3	0.00e+00	0	37	0	1061158912	63	4323
2026-01-19 06:45:07.44	330.36	13.56	-46.1	-47.6	19.2	0.00e+00	0	37	0	1069547520	63	4383
2026-01-19 06:45:11.47	329.85	13.25	-46.1	-47.7	19.1	0.00e+00	0	37	0	1076887552	63	4408
2026-01-19 06:45:15.51	329.35	12.94	-46.4	-47.9	18.8	0.00e+00	0	37	0	1084227584	63	4543
2026-01-19 06:45:19.55	328.86	12.63	-46.6	-48.3	18.4	0.00e+00	0	37	0	1091567616	64	4461
2026-01-19 06:45:23.58	328.38	12.32	-46.5	-48.1	18.6	0.00e+00	0	37	0	1098907648	64	4373
2026-01-19 06:45:27.61	327.91	12.02	-46.3	-48.0	18.7	0.00e+00	0	37	0	1107296256	64	4297
2026-01-19 06:45:31.65	327.45	11.71	-47.1	-49.1	17.7	0.00e+00	0	37	0	1114636288	64	4875
2026-01-19 06:45:35.68	327.01	11.41	-47.7	-49.9	16.9	0.00e+00	0	37	0	1121976320	65	5042
2026-01-19 06:45:39.72	326.57	11.11	-46.8	-48.6	18.0	0.00e+00	0	37	0	1129316352	65	4386
2026-01-19 06:45:43.75	326.14	10.82	-46.3	-48.0	18.6	0.00e+00	0	37	0	1137704960	64	4308
2026-01-19 06:45:47.78	325.71	10.52	-46.7	-48.4	18.1	0.00e+00	0	37	0	1145044992	64	4541
2026-01-19 06:45:51.81	325.30	10.23	-47.5	-49.6	17.1	0.00e+00	0	37	0	1152385024	65	4880
2026-01-19 06:45:55.84	324.90	9.94	-48.0	-50.3	16.3	0.00e+00	0	37	0	1159725056	66	4986
2026-01-19 06:45:59.87	324.50	9.65	-47.9	-50.2	16.4	0.00e+00	0	37	0	1167065088	66	4941
2026-01-19 06:46:03.90	324.12	9.36	-47.8	-50.0	16.6	0.00e+00	0	37	0	1175453696	66	4834
2026-01-19 06:46:07.93	323.74	9.08	-47.7	-49.9	16.7	0.00e+00	0	37	0	1182793728	66	4783
2026-01-19 06:46:11.97	323.36	8.80	-48.0	-50.3	16.3	0.00e+00	0	37	0	1190133760	66	5014
2026-01-19 06:46:16.00	323.00	8.52	-48.9	-51.7	15.0	0.00e+00	0	37	0	1197473792	68	5220
2026-01-19 06:46:20.04	322.64	8.24	-48.9	-51.7	15.0	0.00e+00	0	37	0	1204813824	68	5221
2026-01-19 06:46:24.07	322.29	7.96	-48.6	-51.3	15.4	0.00e+00	0	37	0	1213202432	68	4989
2026-01-19 06:46:28.10	321.95	7.69	-47.7	-49.8	16.6	0.00e+00	0	37	0	1220542464	67	4490
2026-01-19 06:46:32.05	321.62	7.42	-47.3	-49.3	17.2	0.00e+00	0	37	0	1227882496	66	4460
2026-01-19 06:46:36.09	321.28	7.15	-47.2	-49.2	17.2	0.00e+00	0	37	0	1235222528	65	4691
2026-01-19 06:46:40.12	320.96	6.88	-47.8	-50.1	16.3	0.00e+00	0	37	0	1243611136	66	4919
2026-01-19 06:46:44.15	320.64	6.61	-48.1	-50.5	15.8	0.00e+00	0	37	0	1250951168	67	4866
2026-01-19 06:46:48.18	320.33	6.35	-48.7	-51.5	14.9	7.00e-07	0	37	0	1258291200	68	5151
2026-01-19 06:46:52.21	320.02	6.08	-49.3	-52.6	13.8	0.00e+00	0	37	0	1265631232	69	5511
2026-01-19 06:46:56.25	319.72	5.82	-49.5	-52.9	13.4	1.37e-05	0	37	0	1272971264	69	5705
2026-01-19 06:47:00.28	319.43	5.56	-49.3	-52.6	13.8	5.30e-06	0	37	0	1281359872	69	5485
2026-01-19 06:47:04.30	319.14	5.30	-49.1	-52.3	14.0	4.50e-06	0	37	0	1288699904	70	4990
2026-01-19 06:47:08.33	318.85	5.05	-49.5	-52.9	13.4	5.30e-06	0	37	0	1296039936	70	5401
2026-01-19 06:47:12.37	318.57	4.79	-53.2	-68.2	3.8	1.49e+00	0	37	104	1299185664	76	22017
2026-01-19 06:47:16.40	318.30	4.54	-53.7	-68.7	3.8	1.49e+00	0	37	104	1299185664	77	22125
2026-01-19 06:47:20.43	318.03	4.29	-54.0	-69.0	3.8	1.49e+00	0	37	104	1299185664	78	21603
2026-01-19 06:47:24.46	317.77	4.04	-54.1	-69.1	3.8	1.49e+00	0	37	104	1299185664	78	21954
2026-01-19 06:47:28.49	317.51	3.80	-54.2	-69.2	3.8	1.49e+00	0	37	104	1299185664	78	22110
2026-01-19 06:47:32.52	317.25	3.55	-54.1	-69.1	3.8	1.49e+00	0	37	104	1299185664	78	21915
2026-01-19 06:47:36.55	317.00	3.31	-54.1	-69.1	3.8	1.49e+00	0	37	104	1299185664	78	21825
2026-01-19 06:47:40.59	316.76	3.06	-54.0	-69.1	3.8	1.49e+00	0	37	104	1299185664	78	21761
2026-01-19 06:47:44.62	316.51	2.82	-54.0	-69.0	3.8	1.49e+00	0	37	104	1299185664	78	21674
2026-01-19 06:47:48.65	316.28	2.58	-54.0	-69.0	3.8	1.49e+00	0	37	104	1299185664	78	21653
2026-01-19 06:47:52.69	316.04	2.34	-54.0	-69.0	3.8	1.49e+00	0	37	104	1299185664	78	21595
2026-01-19 06:47:56.72	315.81	2.11	-54.0	-69.0	3.8	1.49e+00	0	37	104	1299185664	78	21643
2026-01-19 06:48:00.75	315.59	1.87	-54.0	-69.0	3.8	1.49e+00	0	37	104	1299185664	78	21571

#Closed at: 2026-01-19 06:48:01
#Recorded file [1299 MB]: D:/lorett/data/31041_260119_093458.dat