passes_logs/2026/01/19/R3.2S_Murmansk/R3.2S_Murmansk__20260119_201020_TY-39_rec.log

#Pass ID: 20260119_201020_TY-39
#Satellite: TY-39
#Configuration: TY-39
#almurnet v.1.7.20251203
#Start time: 2026-01-19 20:10:19

#Version: 2.2.20231116
#Station: R3.2S_Murmansk
#Location: 33.079688 lon 68.888172 lat
#TLE: 1 51832U 22019J   26018.97522574  .00002668  00000-0  12818-3 0  9996
#TLE: 2 51832  97.3645  85.5686 0009675  40.5117 319.6836 15.19653248215130

#Time	Az	El	Level	Level2	SNR	BER	BlckErr	Temp	State	Recorded	gain1	gain2
2026-01-19 20:10:19.69	213.48	1.98	-53.0	-55.1	3.7	0.00e+00	0	41	0	0	77	18497
2026-01-19 20:10:22.72	213.78	2.16	-53.0	-55.1	3.7	0.00e+00	0	41	104	0	77	18515
2026-01-19 20:10:25.75	214.08	2.34	-53.0	-55.1	3.7	0.00e+00	0	41	104	0	77	18476
2026-01-19 20:10:28.77	214.39	2.53	-53.0	-55.1	3.7	0.00e+00	0	41	104	0	77	18480
2026-01-19 20:10:31.79	214.70	2.71	-53.0	-55.1	3.6	0.00e+00	0	41	104	0	77	18458
2026-01-19 20:10:34.82	215.02	2.89	-53.0	-55.1	3.7	0.00e+00	0	41	104	0	77	18509
2026-01-19 20:10:37.84	215.34	3.08	-52.9	-55.1	3.7	0.00e+00	0	42	104	0	77	18439
2026-01-19 20:10:40.86	215.67	3.27	-53.0	-55.1	3.7	0.00e+00	0	42	104	0	77	18431
2026-01-19 20:10:43.88	216.00	3.45	-52.9	-55.1	3.7	0.00e+00	0	42	104	0	77	18469
2026-01-19 20:10:46.91	216.34	3.64	-52.9	-55.1	3.7	0.00e+00	0	42	104	0	77	18412
2026-01-19 20:10:49.93	216.68	3.83	-52.9	-55.1	3.7	0.00e+00	0	42	104	0	77	18509
2026-01-19 20:10:52.96	217.03	4.02	-53.0	-55.1	3.7	0.00e+00	0	42	104	0	77	18447
2026-01-19 20:10:55.98	217.39	4.21	-52.9	-55.1	3.7	0.00e+00	0	42	104	0	77	18480
2026-01-19 20:10:59.00	217.75	4.41	-52.9	-55.1	3.7	0.00e+00	0	42	104	0	77	18440
2026-01-19 20:11:02.02	218.11	4.60	-52.9	-55.1	3.7	0.00e+00	0	42	104	0	77	18446
2026-01-19 20:11:05.05	218.49	4.80	-52.9	-55.1	3.7	0.00e+00	0	42	104	0	77	18415
2026-01-19 20:11:08.07	218.86	4.99	-52.9	-55.1	3.7	0.00e+00	0	43	104	0	77	18474
2026-01-19 20:11:11.09	219.25	5.19	-52.9	-55.1	3.7	0.00e+00	0	43	104	0	77	18398
2026-01-19 20:11:14.12	219.64	5.39	-52.9	-55.1	3.7	0.00e+00	0	42	104	0	77	18442
2026-01-19 20:11:17.14	220.04	5.59	-53.0	-55.2	3.7	0.00e+00	0	43	104	0	77	18649
2026-01-19 20:11:20.17	220.44	5.79	-53.1	-55.2	3.7	0.00e+00	0	43	104	0	77	18812
2026-01-19 20:11:23.19	220.85	5.99	-52.9	-55.1	3.7	0.00e+00	0	42	104	0	77	18414
2026-01-19 20:11:26.21	221.27	6.19	-53.0	-55.1	3.7	0.00e+00	0	43	104	0	77	18586
2026-01-19 20:11:29.23	221.69	6.39	-53.1	-55.2	3.7	0.00e+00	0	43	104	0	77	18728
2026-01-19 20:11:32.26	222.13	6.60	-53.1	-55.3	3.7	0.00e+00	0	43	104	0	77	18935
2026-01-19 20:11:35.28	222.57	6.80	-39.9	-39.8	12.8	4.69e-03	0	44	0	159383552	51	14225
2026-01-19 20:11:38.30	223.01	7.01	-39.8	-39.7	12.9	4.16e-05	0	44	0	385875968	51	14088
2026-01-19 20:11:41.32	223.47	7.22	-40.2	-40.2	12.6	4.85e-05	0	44	0	612368384	51	14827
2026-01-19 20:11:44.35	223.93	7.42	-39.7	-39.6	13.0	6.90e-06	0	44	0	838860800	51	13942
2026-01-19 20:11:47.37	224.40	7.63	-39.7	-39.7	13.0	2.08e-05	0	44	0	1065353216	51	14022
2026-01-19 20:11:50.40	224.88	7.84	-39.8	-39.7	13.0	6.24e-05	0	44	0	1300234240	51	14047
2026-01-19 20:11:53.42	225.37	8.05	-39.7	-39.7	13.0	6.90e-06	0	44	0	1518338048	51	13969
2026-01-19 20:11:56.45	225.87	8.27	-39.3	-39.2	13.3	0.00e+00	0	44	0	1744830464	50	14010
2026-01-19 20:11:59.47	226.37	8.48	-39.1	-39.0	13.4	0.00e+00	0	44	0	1971322880	50	13781
2026-01-19 20:12:02.49	226.89	8.69	-38.9	-38.8	13.5	0.00e+00	0	45	0	2197815296	49	14240
2026-01-19 20:12:05.51	227.41	8.90	-39.2	-39.1	13.3	1.38e-05	0	45	0	2432696320	49	14706
2026-01-19 20:12:08.52	227.94	9.12	-39.0	-38.9	13.5	0.00e+00	0	45	0	2650800128	49	14361
2026-01-19 20:12:11.55	228.48	9.33	-38.8	-38.7	13.7	0.00e+00	0	45	0	2877292544	49	14060
2026-01-19 20:12:14.57	229.03	9.55	-38.7	-38.6	13.8	0.00e+00	0	45	0	3103784960	49	13854
2026-01-19 20:12:17.59	229.59	9.77	-38.6	-38.5	13.8	6.90e-06	0	45	0	3338665984	49	13773
2026-01-19 20:12:20.62	230.16	9.98	-38.6	-38.6	13.8	0.00e+00	0	45	0	3565158400	48	14615
2026-01-19 20:12:23.64	230.75	10.20	-38.6	-38.6	13.8	0.00e+00	0	45	0	3783262208	48	14621
2026-01-19 20:12:26.66	231.34	10.42	-38.3	-38.2	14.0	6.90e-06	0	45	0	4009754624	48	14030
2026-01-19 20:12:29.69	231.94	10.63	-38.3	-38.2	14.0	0.00e+00	0	45	0	4236247040	48	14018
2026-01-19 20:12:32.71	232.55	10.85	-38.1	-38.0	14.1	0.00e+00	0	45	0	4471128064	48	13755
2026-01-19 20:12:35.73	233.18	11.07	-37.3	-37.2	13.6	0.00e+00	0	45	0	4697620480	46	14033
2026-01-19 20:12:38.75	233.81	11.28	-37.3	-37.3	13.5	0.00e+00	0	45	0	4915724288	46	14118
2026-01-19 20:12:41.77	234.46	11.50	-37.4	-37.4	13.5	0.00e+00	0	45	0	5142216704	46	14306
2026-01-19 20:12:44.79	235.11	11.72	-37.2	-37.1	13.6	0.00e+00	0	45	0	5377097728	46	13924
2026-01-19 20:12:47.81	235.78	11.93	-36.9	-36.8	13.8	0.00e+00	0	45	0	5603590144	45	14191
2026-01-19 20:12:50.84	236.46	12.15	-37.0	-36.9	13.8	0.00e+00	0	45	0	5830082560	45	14314
2026-01-19 20:12:53.86	237.15	12.36	-36.9	-36.8	13.8	0.00e+00	0	45	0	6048186368	45	14206
2026-01-19 20:12:56.88	237.86	12.58	-36.9	-36.9	13.8	0.00e+00	0	45	0	6274678784	45	14275
2026-01-19 20:12:59.91	238.58	12.79	-36.7	-36.6	14.0	6.90e-06	0	45	0	6509559808	45	13930
2026-01-19 20:13:02.93	239.30	13.00	-36.7	-36.6	14.0	0.00e+00	0	45	0	6736052224	45	13929
2026-01-19 20:13:05.95	240.04	13.21	-36.6	-36.5	14.0	0.00e+00	0	46	0	6962544640	45	13772
2026-01-19 20:13:08.98	240.80	13.42	-36.4	-36.4	14.1	6.90e-06	0	46	0	7180648448	44	14313
2026-01-19 20:13:12.00	241.56	13.63	-36.5	-36.4	14.1	0.00e+00	0	45	0	7415529472	44	14369
2026-01-19 20:13:15.02	242.34	13.83	-36.4	-36.3	14.2	0.00e+00	0	46	0	7642021888	44	14158
2026-01-19 20:13:18.05	243.13	14.04	-36.4	-36.3	14.2	0.00e+00	0	45	0	7868514304	44	14220
2026-01-19 20:13:21.07	243.94	14.24	-36.2	-36.1	14.3	0.00e+00	0	45	0	8095006720	44	13882
2026-01-19 20:13:24.10	244.75	14.44	-36.2	-36.2	14.3	0.00e+00	0	46	0	8321499136	44	13976
2026-01-19 20:13:27.12	245.58	14.63	-36.1	-36.0	14.3	0.00e+00	0	46	0	8547991552	44	13789
2026-01-19 20:13:30.15	246.42	14.82	-36.1	-36.0	14.4	0.00e+00	0	46	0	8774483968	44	13693
2026-01-19 20:13:33.17	247.28	15.01	-36.1	-36.1	14.4	0.00e+00	0	46	0	9000976384	43	14632
2026-01-19 20:13:36.20	248.14	15.20	-36.1	-36.0	14.4	0.00e+00	0	46	0	9227468800	43	14485
2026-01-19 20:13:39.22	249.02	15.38	-36.0	-35.9	14.4	0.00e+00	0	46	0	9453961216	43	14437
2026-01-19 20:13:42.25	249.92	15.56	-36.0	-35.9	14.5	0.00e+00	0	46	0	9680453632	43	14297
2026-01-19 20:13:45.28	250.82	15.73	-35.9	-35.9	14.5	0.00e+00	0	46	0	9906946048	43	14275
2026-01-19 20:13:48.30	251.73	15.90	-36.1	-36.0	14.4	0.00e+00	0	46	0	10141827072	43	14505
2026-01-19 20:13:51.33	252.66	16.07	-35.9	-35.8	14.5	0.00e+00	0	46	0	10359930880	43	14222
2026-01-19 20:13:54.36	253.60	16.23	-36.0	-35.8	14.5	0.00e+00	0	46	0	10586423296	43	14273
2026-01-19 20:13:57.38	254.55	16.38	-35.8	-35.7	14.6	0.00e+00	0	46	0	10812915712	43	14102
2026-01-19 20:14:00.40	255.51	16.53	-35.8	-35.7	14.6	0.00e+00	0	46	0	11047796736	43	14010
2026-01-19 20:14:03.43	256.48	16.68	-35.7	-35.6	14.7	0.00e+00	0	46	0	11274289152	43	13818
2026-01-19 20:14:06.45	257.46	16.81	-35.7	-35.6	14.6	0.00e+00	0	46	0	11492392960	43	13819
2026-01-19 20:14:09.46	258.45	16.94	-35.7	-35.6	14.6	0.00e+00	0	46	0	11718885376	43	13888
2026-01-19 20:14:12.49	259.45	17.07	-35.6	-35.5	14.7	0.00e+00	0	46	0	11945377792	42	14598
2026-01-19 20:14:15.51	260.46	17.18	-35.9	-35.8	14.5	0.00e+00	0	46	0	12180258816	42	15004
2026-01-19 20:14:18.53	261.48	17.30	-35.6	-35.5	14.7	0.00e+00	0	46	0	12406751232	42	14522
2026-01-19 20:14:21.56	262.51	17.40	-35.6	-35.5	14.7	0.00e+00	0	46	0	12624855040	42	14481
2026-01-19 20:14:24.58	263.54	17.49	-35.7	-35.6	14.7	0.00e+00	0	46	0	12851347456	42	14711
2026-01-19 20:14:27.60	264.58	17.58	-35.5	-35.4	14.7	0.00e+00	0	46	0	13086228480	42	14330
2026-01-19 20:14:30.63	265.63	17.66	-35.6	-35.5	14.7	0.00e+00	0	46	0	13312720896	42	14485
2026-01-19 20:14:33.65	266.69	17.73	-35.3	-35.2	14.8	0.00e+00	0	46	0	13539213312	42	14053
2026-01-19 20:14:36.67	267.74	17.80	-35.4	-35.3	14.8	0.00e+00	0	46	0	13757317120	42	14225
2026-01-19 20:14:39.69	268.81	17.85	-35.4	-35.3	14.8	0.00e+00	0	46	0	13992198144	42	14245
2026-01-19 20:14:42.72	269.88	17.90	-35.3	-35.2	14.8	0.00e+00	0	46	0	14218690560	42	14109
2026-01-19 20:14:45.74	270.95	17.94	-35.3	-35.2	14.9	0.00e+00	0	46	0	14445182976	42	14003
2026-01-19 20:14:48.76	272.02	17.97	-35.4	-35.3	14.8	0.00e+00	0	46	0	14671675392	42	14133
2026-01-19 20:14:51.79	273.10	17.99	-35.3	-35.2	14.9	0.00e+00	0	46	0	14898167808	42	14054
2026-01-19 20:14:54.81	274.17	18.00	-35.4	-35.3	14.8	0.00e+00	0	46	0	15124660224	42	14209
2026-01-19 20:14:57.83	275.25	18.01	-35.4	-35.3	14.8	0.00e+00	0	46	0	15351152640	42	14177
2026-01-19 20:15:00.85	276.33	18.00	-35.5	-35.4	14.8	0.00e+00	0	46	0	15577645056	42	14297
2026-01-19 20:15:03.88	277.40	17.99	-35.5	-35.4	14.8	0.00e+00	0	46	0	15804137472	42	14287
2026-01-19 20:15:06.90	278.48	17.97	-35.4	-35.3	14.8	0.00e+00	0	46	0	16030629888	42	14265
2026-01-19 20:15:09.93	279.55	17.94	-35.4	-35.3	14.9	0.00e+00	0	46	0	16257122304	42	14195
2026-01-19 20:15:12.95	280.62	17.90	-35.5	-35.4	14.8	0.00e+00	0	46	0	16483614720	42	14404
2026-01-19 20:15:15.97	281.69	17.85	-35.5	-35.4	14.8	0.00e+00	0	46	0	16710107136	42	14419
2026-01-19 20:15:18.99	282.75	17.79	-35.5	-35.4	14.8	0.00e+00	0	46	0	16936599552	42	14323
2026-01-19 20:15:22.01	283.80	17.73	-35.6	-35.5	14.8	0.00e+00	0	46	0	17163091968	42	14513
2026-01-19 20:15:25.04	284.85	17.65	-35.7	-35.6	14.7	0.00e+00	0	46	0	17389584384	42	14760
2026-01-19 20:15:28.06	285.90	17.57	-35.6	-35.5	14.8	0.00e+00	0	46	0	17616076800	42	14553
2026-01-19 20:15:31.08	286.93	17.48	-35.7	-35.6	14.7	0.00e+00	0	46	0	17842569216	42	14659
2026-01-19 20:15:34.11	287.97	17.39	-35.7	-35.6	14.7	0.00e+00	0	46	0	18077450240	42	14732
2026-01-19 20:15:37.13	288.99	17.28	-35.7	-35.6	14.8	0.00e+00	0	46	0	18295554048	42	14680
2026-01-19 20:15:40.15	290.00	17.17	-35.8	-35.7	14.7	0.00e+00	0	46	0	18522046464	42	14882
2026-01-19 20:15:43.17	291.00	17.05	-35.8	-35.7	14.7	0.00e+00	0	46	0	18748538880	42	14893
2026-01-19 20:15:46.20	292.00	16.93	-35.9	-35.9	14.6	0.00e+00	0	46	0	18983419904	42	15148
2026-01-19 20:15:49.22	292.99	16.80	-35.9	-35.8	14.6	0.00e+00	0	46	0	19209912320	42	14997
2026-01-19 20:15:52.25	293.96	16.66	-36.0	-35.9	14.6	0.00e+00	0	46	0	19428016128	42	15269
2026-01-19 20:15:55.27	294.93	16.52	-36.1	-36.0	14.5	0.00e+00	0	46	0	19654508544	42	15430
2026-01-19 20:15:58.29	295.88	16.37	-36.1	-36.0	14.5	0.00e+00	0	46	0	19881000960	42	15362
2026-01-19 20:16:01.31	296.82	16.21	-36.3	-36.2	14.4	0.00e+00	0	46	0	20115881984	43	14827
2026-01-19 20:16:04.33	297.75	16.05	-36.3	-36.2	14.4	0.00e+00	0	46	0	20342374400	43	14808
2026-01-19 20:16:07.35	298.67	15.89	-36.2	-36.1	14.5	0.00e+00	0	46	0	20560478208	43	14743
2026-01-19 20:16:10.38	299.58	15.72	-36.4	-36.3	14.4	0.00e+00	0	46	0	20786970624	43	15105
2026-01-19 20:16:13.40	300.48	15.55	-36.3	-36.2	14.4	0.00e+00	0	46	0	21021851648	43	14880
2026-01-19 20:16:16.42	301.36	15.37	-36.4	-36.3	14.4	0.00e+00	0	46	0	21248344064	43	15095
2026-01-19 20:16:19.44	302.23	15.19	-36.6	-36.5	14.3	0.00e+00	0	46	0	21474836480	43	15352
2026-01-19 20:16:22.47	303.09	15.01	-54.0	-56.2	3.7	0.00e+00	0	46	104	21541945344	78	19783
2026-01-19 20:16:25.49	303.94	14.82	-54.0	-56.1	3.7	0.00e+00	0	45	104	21541945344	78	19694
2026-01-19 20:16:28.52	304.77	14.63	-54.0	-56.2	3.7	0.00e+00	0	45	104	21541945344	78	19767
2026-01-19 20:16:31.54	305.59	14.43	-54.0	-56.1	3.7	0.00e+00	0	45	104	21541945344	78	19549
2026-01-19 20:16:34.57	306.41	14.23	-54.0	-56.1	3.7	0.00e+00	0	45	104	21541945344	78	19590
2026-01-19 20:16:37.59	307.20	14.04	-54.0	-56.1	3.7	0.00e+00	0	45	104	21541945344	78	19622
2026-01-19 20:16:40.61	307.98	13.83	-54.0	-56.1	3.7	0.00e+00	0	45	104	21541945344	78	19523
2026-01-19 20:16:43.63	308.75	13.63	-53.9	-56.0	3.7	0.00e+00	0	45	104	21541945344	78	19452
2026-01-19 20:16:46.65	309.51	13.43	-53.9	-56.0	3.7	0.00e+00	0	45	104	21541945344	78	19440
2026-01-19 20:16:49.68	310.26	13.22	-53.9	-56.0	3.7	0.00e+00	0	45	104	21541945344	78	19405
2026-01-19 20:16:52.70	310.99	13.01	-53.9	-56.0	3.7	0.00e+00	0	45	104	21541945344	78	19357
2026-01-19 20:16:55.73	311.72	12.80	-53.8	-55.9	3.7	0.00e+00	0	45	104	21541945344	78	19195
2026-01-19 20:16:58.75	312.43	12.59	-53.8	-55.9	3.7	0.00e+00	0	45	104	21541945344	78	19143
2026-01-19 20:17:01.77	313.12	12.38	-53.8	-55.9	3.7	0.00e+00	0	45	104	21541945344	78	19100
2026-01-19 20:17:04.79	313.81	12.17	-53.8	-55.9	3.7	0.00e+00	0	45	104	21541945344	78	19157
2026-01-19 20:17:07.82	314.49	11.95	-53.7	-55.8	3.7	0.00e+00	0	45	104	21541945344	78	18968
2026-01-19 20:17:10.84	315.15	11.74	-53.7	-55.8	3.7	0.00e+00	0	45	104	21541945344	78	18844
2026-01-19 20:17:13.86	315.80	11.52	-53.7	-55.8	3.7	0.00e+00	0	45	104	21541945344	78	18923
2026-01-19 20:17:16.88	316.44	11.31	-53.7	-55.8	3.7	0.00e+00	0	45	104	21541945344	78	18922
2026-01-19 20:17:19.91	317.07	11.09	-53.5	-55.6	3.7	0.00e+00	0	45	104	21541945344	78	18556
2026-01-19 20:17:22.93	317.69	10.88	-53.5	-55.6	3.7	0.00e+00	0	45	104	21541945344	78	18574
2026-01-19 20:17:25.95	318.29	10.66	-53.6	-55.7	3.7	0.00e+00	0	45	104	21541945344	78	18722
2026-01-19 20:17:28.98	318.89	10.45	-53.6	-55.7	3.7	0.00e+00	0	45	104	21541945344	78	18768
2026-01-19 20:17:32.00	319.48	10.23	-53.5	-55.6	3.7	0.00e+00	0	45	104	21541945344	78	18555
2026-01-19 20:17:35.02	320.05	10.02	-53.4	-55.4	3.7	0.00e+00	0	44	104	21541945344	78	18162
2026-01-19 20:17:38.05	320.62	9.80	-53.5	-55.6	3.7	0.00e+00	0	45	104	21541945344	78	18479
2026-01-19 20:17:41.07	321.18	9.59	-53.5	-55.6	3.7	0.00e+00	0	45	104	21541945344	78	18591
2026-01-19 20:17:44.09	321.72	9.38	-53.4	-55.5	3.7	0.00e+00	0	45	104	21541945344	78	18279
2026-01-19 20:17:47.12	322.26	9.16	-53.2	-55.2	3.7	0.00e+00	0	45	104	21541945344	78	17764
2026-01-19 20:17:50.14	322.79	8.95	-53.4	-55.5	3.7	0.00e+00	0	45	104	21541945344	78	18296
2026-01-19 20:17:53.16	323.31	8.74	-53.4	-55.5	3.7	0.00e+00	0	45	104	21541945344	78	18329
2026-01-19 20:17:56.19	323.82	8.53	-53.3	-55.4	3.7	0.00e+00	0	44	104	21541945344	78	17990
2026-01-19 20:17:59.21	324.32	8.32	-53.1	-55.0	3.7	0.00e+00	0	44	104	21541945344	78	17329
2026-01-19 20:18:02.24	324.81	8.11	-53.3	-55.4	3.7	0.00e+00	0	45	104	21541945344	78	17999
2026-01-19 20:18:05.26	325.30	7.90	-52.4	-54.1	3.7	0.00e+00	0	44	104	21541945344	76	17476
2026-01-19 20:18:08.29	325.77	7.69	-53.0	-55.0	3.7	0.00e+00	0	44	104	21541945344	76	19334
2026-01-19 20:18:11.31	326.24	7.49	-52.7	-54.4	3.7	0.00e+00	0	44	104	21541945344	76	18099
2026-01-19 20:18:14.34	326.70	7.28	-52.4	-54.0	3.7	0.00e+00	0	44	104	21541945344	76	17199
2026-01-19 20:18:17.36	327.15	7.08	-53.1	-55.2	3.7	0.00e+00	0	44	104	21541945344	76	19769
2026-01-19 20:18:20.38	327.60	6.87	-52.3	-54.0	3.7	0.00e+00	0	44	104	21541945344	76	17186
2026-01-19 20:18:23.41	328.03	6.67	-52.3	-54.0	3.7	0.00e+00	0	44	104	21541945344	76	17174
2026-01-19 20:18:26.43	328.46	6.47	-52.6	-54.5	3.7	0.00e+00	0	44	104	21541945344	76	18220
2026-01-19 20:18:29.45	328.88	6.26	-52.0	-53.5	3.7	0.00e+00	0	45	104	21541945344	76	16276
2026-01-19 20:18:32.48	329.30	6.06	-52.9	-55.0	3.7	0.00e+00	0	45	104	21541945344	76	19309
2026-01-19 20:18:35.50	329.71	5.86	-51.9	-53.4	3.7	0.00e+00	0	44	104	21541945344	75	17046
2026-01-19 20:18:38.52	330.11	5.67	-51.9	-53.4	3.7	0.00e+00	0	44	104	21541945344	75	17020
2026-01-19 20:18:41.55	330.50	5.47	-52.7	-54.7	3.7	0.00e+00	0	44	104	21541945344	76	18709
2026-01-19 20:18:44.57	330.89	5.27	-51.6	-53.0	3.7	0.00e+00	0	44	104	21541945344	75	16270
2026-01-19 20:18:47.60	331.28	5.08	-51.8	-53.4	3.7	0.00e+00	0	44	104	21541945344	74	18142
2026-01-19 20:18:50.62	331.65	4.88	-53.6	-55.7	3.7	0.00e+00	0	44	104	21541945344	77	19880
2026-01-19 20:18:53.64	332.02	4.69	-54.0	-56.1	3.7	0.00e+00	0	44	104	21541945344	78	19684
2026-01-19 20:18:56.67	332.39	4.50	-54.3	-56.5	3.7	0.00e+00	0	44	104	21541945344	79	19263
2026-01-19 20:18:59.69	332.74	4.31	-54.5	-56.7	3.7	0.00e+00	0	44	104	21541945344	79	19717
2026-01-19 20:19:02.72	333.10	4.12	-54.6	-56.7	3.7	0.00e+00	0	44	104	21541945344	79	19918
2026-01-19 20:19:05.74	333.44	3.93	-54.6	-56.7	3.7	0.00e+00	0	44	104	21541945344	79	19916
2026-01-19 20:19:08.77	333.79	3.74	-54.5	-56.7	3.7	0.00e+00	0	44	104	21541945344	79	19768
2026-01-19 20:19:11.79	334.12	3.55	-54.5	-56.6	3.7	0.00e+00	0	44	104	21541945344	79	19635
2026-01-19 20:19:14.81	334.45	3.37	-54.4	-56.6	3.7	0.00e+00	0	44	104	21541945344	79	19496
2026-01-19 20:19:17.84	334.78	3.18	-54.4	-56.5	3.7	0.00e+00	0	44	104	21541945344	79	19475
2026-01-19 20:19:20.86	335.10	3.00	-54.4	-56.5	3.7	0.00e+00	0	44	104	21541945344	79	19478
2026-01-19 20:19:23.89	335.42	2.82	-54.4	-56.6	3.7	0.00e+00	0	44	104	21541945344	79	19502
2026-01-19 20:19:26.91	335.73	2.64	-54.4	-56.5	3.7	0.00e+00	0	44	104	21541945344	79	19419
2026-01-19 20:19:29.93	336.04	2.46	-54.4	-56.5	3.7	0.00e+00	0	44	104	21541945344	79	19372
2026-01-19 20:19:32.96	336.34	2.28	-54.3	-56.5	3.7	0.00e+00	0	45	104	21541945344	79	19272
2026-01-19 20:19:35.98	336.64	2.10	-54.3	-56.5	3.7	0.00e+00	0	44	104	21541945344	79	19329
2026-01-19 20:19:39.00	336.93	1.92	-54.3	-56.5	3.7	0.00e+00	0	44	104	21541945344	79	19307

#Closed at: 2026-01-19 20:19:39
#Recorded file [21541 MB]: D:/lorett/data/31041_260119_231019.dat