passes_logs/2026/01/16/R2.0S_Moscow/R2.0S_Moscow__20260116_012352_AQUA_rec.log

#Pass ID: 20260116_012352_AQUA
#Satellite: AQUA
#Configuration: AQUA
#almurnet v.1.7.20251203
#Start time: 2026-01-16 01:23:52

#Version: 2.2.20231116
#Station: R2.0S_Moscow
#Location: 37.707566 lon 55.798166 lat
#TLE: 1 27424U 02022A   26015.51279194  .00000651  00000+0  14022-3 0  9990
#TLE: 2 27424  98.4082 341.9487 0002034  77.6776  33.2672 14.61821775260965

#Time	Az	El	Level	Level2	SNR	BER	BlckErr	Temp	State	Recorded	gain1	gain2
2026-01-16 01:23:52.32	15.35	2.02	-43.7	-62.9	3.8	7.44e-01	0	51	0	0	59	32026
2026-01-16 01:23:56.36	15.36	2.29	-43.7	-62.9	3.8	7.47e-01	0	51	104	0	58	33897
2026-01-16 01:24:00.40	15.36	2.56	-43.7	-62.9	3.8	7.46e-01	0	51	104	0	58	33960
2026-01-16 01:24:04.44	15.37	2.83	-43.7	-62.9	3.8	7.43e-01	0	52	104	0	58	33794
2026-01-16 01:24:08.49	15.37	3.11	-43.7	-62.9	3.8	7.47e-01	0	52	104	0	58	33911
2026-01-16 01:24:12.53	15.37	3.39	-43.7	-62.9	3.8	7.45e-01	0	52	104	0	58	33902
2026-01-16 01:24:16.57	15.38	3.68	-43.7	-62.9	3.8	7.44e-01	0	53	104	0	58	33813
2026-01-16 01:24:20.61	15.38	3.96	-43.7	-62.9	3.8	7.46e-01	0	53	104	0	58	33810
2026-01-16 01:24:24.65	15.38	4.25	-43.7	-62.8	3.8	7.46e-01	0	53	104	0	58	33454
2026-01-16 01:24:28.69	15.39	4.55	-43.7	-62.7	3.8	7.45e-01	0	53	104	0	58	32996
2026-01-16 01:24:32.74	15.39	4.84	-43.7	-62.7	3.8	7.46e-01	0	54	104	0	58	33083
2026-01-16 01:24:36.78	15.39	5.15	-43.7	-62.8	3.8	7.47e-01	0	54	104	0	58	33558
2026-01-16 01:24:40.82	15.39	5.45	-43.7	-62.8	3.8	7.49e-01	0	54	104	0	58	33523
2026-01-16 01:24:44.86	15.39	5.76	-43.7	-62.7	3.8	7.46e-01	0	54	104	0	58	33156
2026-01-16 01:24:48.91	15.39	6.07	-43.7	-62.1	3.8	7.42e-01	0	54	104	0	58	31038
2026-01-16 01:24:52.95	15.39	6.39	-43.7	-62.0	3.8	7.45e-01	0	55	104	0	58	30653
2026-01-16 01:24:56.99	15.39	6.71	-43.6	-59.4	4.2	7.32e-01	0	55	104	0	58	22596
2026-01-16 01:25:01.03	15.39	7.04	-43.3	-53.6	7.9	6.46e-01	91	55	0	2621440	58	11666
2026-01-16 01:25:05.08	15.39	7.37	-42.0	-47.7	14.1	6.04e-01	0	55	0	10485760	56	6617
2026-01-16 01:25:09.12	15.39	7.71	-41.5	-46.6	15.1	6.03e-01	0	55	0	17825792	54	6567
2026-01-16 01:25:13.16	15.39	8.05	-42.0	-48.1	13.6	6.04e-01	0	55	0	25690112	54	7790
2026-01-16 01:25:17.20	15.39	8.40	-43.6	-53.2	8.6	6.36e-01	10	56	0	29360128	58	11062
2026-01-16 01:25:21.23	15.38	8.75	-41.7	-46.1	16.1	6.02e-01	0	56	0	37224448	55	5841
2026-01-16 01:25:25.28	15.38	9.10	-41.9	-46.4	16.0	6.04e-01	0	56	0	44564480	55	6015
2026-01-16 01:25:29.31	15.38	9.47	-41.8	-45.9	16.6	6.03e-01	0	56	0	51904512	55	5715
2026-01-16 01:25:33.35	15.37	9.84	-41.8	-45.9	16.7	6.02e-01	0	56	0	59768832	55	5682
2026-01-16 01:25:37.39	15.37	10.21	-41.8	-45.8	16.8	6.03e-01	0	56	0	67108864	55	5617
2026-01-16 01:25:41.43	15.36	10.59	-41.8	-45.8	17.0	6.03e-01	0	56	0	74973184	55	5599
2026-01-16 01:25:45.47	15.36	10.98	-41.8	-45.7	17.1	6.02e-01	0	57	0	82313216	55	5573
2026-01-16 01:25:49.50	15.35	11.38	-41.8	-45.7	17.2	6.04e-01	0	56	0	90177536	55	5532
2026-01-16 01:25:53.54	15.34	11.78	-41.8	-45.6	17.3	6.04e-01	0	57	0	97517568	55	5503
2026-01-16 01:25:57.58	15.33	12.19	-41.9	-45.7	17.3	6.04e-01	0	57	0	105381888	55	5541
2026-01-16 01:26:01.62	15.32	12.61	-41.8	-45.6	17.5	6.02e-01	0	57	0	112721920	55	5465
2026-01-16 01:26:05.66	15.31	13.03	-41.8	-45.4	17.6	6.04e-01	0	57	0	120061952	55	5385
2026-01-16 01:26:09.69	15.30	13.47	-41.8	-45.3	17.8	6.03e-01	0	57	0	127926272	55	5316
2026-01-16 01:26:13.73	15.29	13.91	-41.7	-45.0	18.2	6.01e-01	0	57	0	135266304	55	5144
2026-01-16 01:26:17.77	15.28	14.36	-41.5	-44.8	18.4	6.03e-01	0	57	0	143130624	55	5019
2026-01-16 01:26:21.81	15.27	14.83	-41.5	-44.8	18.5	6.05e-01	0	57	0	150470656	55	5004
2026-01-16 01:26:25.85	15.25	15.30	-41.6	-44.9	18.4	6.03e-01	0	57	0	158334976	55	5057
2026-01-16 01:26:29.89	15.24	15.78	-41.7	-45.0	18.4	6.03e-01	0	58	0	165675008	55	5115
2026-01-16 01:26:33.93	15.22	16.28	-41.7	-45.0	18.4	6.04e-01	0	58	0	173539328	55	5139
2026-01-16 01:26:37.97	15.20	16.78	-41.7	-45.0	18.5	6.02e-01	0	58	0	180879360	55	5104
2026-01-16 01:26:42.00	15.18	17.30	-41.6	-44.8	18.7	6.03e-01	0	58	0	188219392	55	4993
2026-01-16 01:26:46.04	15.16	17.83	-41.5	-44.5	19.0	6.03e-01	0	58	0	196083712	54	5132
2026-01-16 01:26:50.08	15.14	18.37	-41.6	-44.6	19.0	6.02e-01	0	58	0	203423744	54	5185
2026-01-16 01:26:54.12	15.12	18.92	-41.7	-44.8	18.8	6.02e-01	0	58	0	211288064	54	5315
2026-01-16 01:26:58.16	15.09	19.49	-41.7	-44.8	18.8	6.04e-01	0	58	0	218628096	54	5335
2026-01-16 01:27:02.19	15.07	20.07	-41.7	-44.8	18.9	6.04e-01	0	58	0	226492416	54	5326
2026-01-16 01:27:06.23	15.04	20.67	-41.8	-44.9	18.8	6.02e-01	0	58	0	233832448	54	5352
2026-01-16 01:27:10.26	15.01	21.29	-41.9	-45.0	18.7	6.03e-01	0	58	0	241172480	54	5430
2026-01-16 01:27:14.31	14.97	21.92	-42.0	-45.1	18.6	6.03e-01	0	58	0	249036800	54	5513
2026-01-16 01:27:18.34	14.94	22.57	-42.1	-45.3	18.5	6.03e-01	0	58	0	256376832	54	5632
2026-01-16 01:27:22.38	14.90	23.24	-42.0	-45.2	18.6	6.04e-01	0	58	0	264241152	54	5534
2026-01-16 01:27:26.41	14.87	23.93	-42.1	-45.3	18.5	6.02e-01	0	58	0	271581184	54	5616
2026-01-16 01:27:30.45	14.82	24.63	-42.0	-45.1	18.7	6.04e-01	0	58	0	279445504	54	5524
2026-01-16 01:27:34.49	14.78	25.36	-41.9	-45.0	18.9	6.01e-01	0	58	0	286785536	54	5422
2026-01-16 01:27:38.53	14.73	26.12	-41.9	-44.9	18.9	6.03e-01	0	59	0	294649856	54	5395
2026-01-16 01:27:42.57	14.68	26.89	-41.9	-44.9	19.0	6.00e-01	0	59	0	301989888	54	5370
2026-01-16 01:27:46.61	14.63	27.69	-41.7	-44.6	19.3	6.02e-01	0	59	0	309329920	54	5172
2026-01-16 01:27:50.65	14.57	28.52	-41.7	-44.6	19.3	6.02e-01	0	59	0	317194240	54	5188
2026-01-16 01:27:54.68	14.51	29.37	-41.7	-44.6	19.3	6.03e-01	0	58	0	324534272	54	5212
2026-01-16 01:27:58.72	14.44	30.25	-41.5	-44.2	19.7	6.03e-01	0	59	0	332398592	54	4978
2026-01-16 01:28:02.76	14.37	31.17	-41.7	-44.6	19.4	6.04e-01	0	59	0	339738624	54	5174
2026-01-16 01:28:06.80	14.30	32.11	-41.7	-44.6	19.4	6.01e-01	0	59	0	347602944	54	5184
2026-01-16 01:28:10.84	14.21	33.09	-41.9	-44.9	19.1	6.02e-01	0	59	0	354942976	54	5362
2026-01-16 01:28:14.87	14.13	34.10	-41.9	-44.9	19.1	6.03e-01	0	59	0	362283008	54	5386
2026-01-16 01:28:18.91	14.03	35.15	-42.3	-45.5	18.5	6.03e-01	0	59	0	370147328	55	5449
2026-01-16 01:28:22.95	13.93	36.23	-43.1	-46.7	17.4	6.04e-01	0	59	0	377487360	56	5919
2026-01-16 01:28:26.99	13.82	37.36	-43.2	-46.9	17.2	6.02e-01	0	59	0	385351680	57	5718
2026-01-16 01:28:31.02	13.70	38.53	-43.5	-47.5	16.7	6.03e-01	0	59	0	392691712	57	6069
2026-01-16 01:28:35.06	13.57	39.74	-43.4	-47.3	16.9	6.02e-01	0	59	0	400556032	57	5945
2026-01-16 01:28:39.10	13.42	41.00	-43.1	-46.7	17.5	6.02e-01	0	59	0	407896064	57	5589
2026-01-16 01:28:43.14	13.27	42.30	-42.7	-46.0	18.3	6.03e-01	0	59	0	415760384	57	5107
2026-01-16 01:28:47.18	13.10	43.66	-42.5	-45.6	18.6	6.04e-01	0	59	0	423100416	56	5204
2026-01-16 01:28:51.22	12.91	45.07	-42.4	-45.5	18.8	6.02e-01	0	59	0	430440448	56	5119
2026-01-16 01:28:55.26	12.70	46.54	-42.2	-45.2	19.1	6.03e-01	0	59	0	438304768	56	4941
2026-01-16 01:28:59.31	12.47	48.06	-42.2	-45.1	19.2	6.04e-01	0	59	0	445644800	56	4903
2026-01-16 01:29:03.34	12.21	49.63	-42.3	-45.3	19.1	6.02e-01	0	59	0	453509120	56	4988
2026-01-16 01:29:07.38	11.93	51.27	-41.8	-44.6	19.6	6.03e-01	0	59	0	460849152	55	4879
2026-01-16 01:29:11.42	11.60	52.97	-41.9	-44.7	19.5	6.03e-01	0	59	0	468713472	55	4952
2026-01-16 01:29:15.46	11.24	54.72	-41.8	-44.6	19.6	6.02e-01	0	59	0	476053504	54	5183
2026-01-16 01:29:19.49	10.82	56.54	-41.9	-44.8	19.4	6.03e-01	0	59	0	483917824	54	5312
2026-01-16 01:29:23.54	10.34	58.43	-42.6	-45.8	18.4	6.01e-01	0	59	0	491257856	55	5649
2026-01-16 01:29:27.57	9.79	60.37	-43.0	-46.4	17.9	6.02e-01	0	59	0	499122176	56	5715
2026-01-16 01:29:31.61	9.14	62.38	-43.3	-47.0	17.3	6.03e-01	0	59	0	506462208	57	5772
2026-01-16 01:29:35.65	8.36	64.44	-44.0	-48.4	15.9	6.02e-01	0	59	0	513802240	58	6402
2026-01-16 01:29:39.69	7.43	66.56	-44.3	-49.2	15.1	6.03e-01	0	59	0	521666560	59	6608
2026-01-16 01:29:43.72	6.29	68.73	-44.5	-50.2	13.7	6.05e-01	0	59	0	529006592	60	6977
2026-01-16 01:29:47.76	4.85	70.95	-44.5	-50.1	13.8	6.04e-01	0	59	0	536870912	60	6887
2026-01-16 01:29:51.80	2.99	73.20	-44.1	-48.9	15.0	6.06e-01	0	59	0	544210944	60	6024
2026-01-16 01:29:55.84	0.52	75.48	-44.0	-48.6	15.7	6.01e-01	0	59	0	552075264	59	6132
2026-01-16 01:29:59.88	357.08	77.76	-44.0	-48.5	15.7	6.03e-01	0	59	0	559415296	59	6092
2026-01-16 01:30:03.92	352.03	80.01	-43.0	-46.5	17.7	6.02e-01	0	60	0	566755328	58	5153
2026-01-16 01:30:07.95	344.07	82.16	-42.7	-46.0	18.2	6.02e-01	0	59	0	574619648	57	5141
2026-01-16 01:30:11.99	330.45	84.07	-43.0	-46.5	17.7	6.03e-01	0	59	0	581959680	57	5447
2026-01-16 01:30:16.03	306.77	85.38	-42.6	-45.9	18.3	6.03e-01	0	60	0	589824000	57	5064
2026-01-16 01:30:20.07	274.62	85.52	-41.9	-44.7	19.4	6.03e-01	0	60	0	597164032	55	4954
2026-01-16 01:30:24.11	248.72	84.38	-43.0	-46.5	17.7	6.04e-01	0	60	0	605028352	56	5771
2026-01-16 01:30:28.15	233.54	82.55	-42.6	-45.9	18.3	6.02e-01	0	59	0	612368384	57	5089
2026-01-16 01:30:32.19	224.76	80.42	-42.7	-46.1	18.1	6.02e-01	0	59	0	620232704	56	5507
2026-01-16 01:30:36.23	219.28	78.18	-43.6	-47.7	16.6	6.02e-01	0	59	0	627572736	57	6208
2026-01-16 01:30:40.26	215.61	75.90	-44.2	-48.9	15.3	6.04e-01	0	59	0	634912768	59	6380
2026-01-16 01:30:44.31	212.98	73.61	-44.3	-49.2	15.0	6.04e-01	0	59	0	642777088	59	6629
2026-01-16 01:30:48.35	211.03	71.35	-44.4	-49.4	14.9	6.02e-01	0	60	0	650117120	59	6759
2026-01-16 01:30:52.39	209.52	69.12	-44.8	-51.0	12.8	6.07e-01	0	60	0	657981440	60	7671
2026-01-16 01:30:56.42	208.33	66.94	-44.5	-50.2	13.6	6.06e-01	0	60	0	665321472	60	7030
2026-01-16 01:31:00.46	207.36	64.80	-44.1	-49.0	14.8	6.03e-01	0	60	0	673185792	60	6106
2026-01-16 01:31:04.50	206.56	62.72	-44.0	-48.6	15.7	6.03e-01	0	59	0	680525824	59	6134
2026-01-16 01:31:08.54	205.89	60.70	-43.3	-47.0	17.3	6.02e-01	0	60	0	688390144	58	5409
2026-01-16 01:31:12.58	205.31	58.74	-42.7	-46.0	18.2	6.04e-01	0	60	0	695730176	57	5124
2026-01-16 01:31:16.61	204.82	56.84	-42.1	-45.0	19.2	6.02e-01	0	60	0	703070208	56	4827
2026-01-16 01:31:20.65	204.39	55.00	-41.5	-44.1	20.0	6.04e-01	0	59	0	710934528	54	4916
2026-01-16 01:31:24.69	204.02	53.23	-41.3	-43.9	20.3	6.03e-01	0	59	0	718274560	54	4780
2026-01-16 01:31:28.73	203.69	51.51	-41.9	-44.7	19.4	6.04e-01	0	60	0	726138880	54	5248
2026-01-16 01:31:32.76	203.39	49.86	-42.3	-45.4	18.8	6.03e-01	0	60	0	733478912	55	5370
2026-01-16 01:31:36.81	203.13	48.27	-42.1	-45.1	19.0	6.06e-01	0	60	0	741343232	55	5171
2026-01-16 01:31:40.84	202.90	46.73	-42.2	-45.3	18.8	6.03e-01	0	59	0	748683264	55	5330
2026-01-16 01:31:44.88	202.68	45.26	-42.0	-44.9	19.2	6.03e-01	0	59	0	756547584	55	5089
2026-01-16 01:31:48.92	202.49	43.83	-42.0	-45.0	19.1	6.06e-01	0	59	0	763887616	55	5118
2026-01-16 01:31:52.96	202.32	42.46	-42.4	-45.6	18.5	6.04e-01	0	60	0	771227648	55	5507
2026-01-16 01:31:57.00	202.16	41.14	-42.7	-46.0	18.0	6.03e-01	0	60	0	779091968	55	5788
2026-01-16 01:32:01.03	202.01	39.87	-43.2	-46.9	17.3	6.02e-01	0	60	0	786432000	56	6026
2026-01-16 01:32:05.08	201.87	38.64	-43.1	-46.8	17.3	6.04e-01	0	59	0	794296320	56	5965
2026-01-16 01:32:09.12	201.75	37.46	-43.4	-47.4	16.6	6.05e-01	0	60	0	801636352	57	6039
2026-01-16 01:32:13.15	201.64	36.32	-42.8	-46.3	17.8	6.04e-01	0	60	0	809500672	57	5308
2026-01-16 01:32:17.19	201.53	35.23	-42.3	-45.3	18.8	6.03e-01	0	60	0	816840704	56	5022
2026-01-16 01:32:21.23	201.43	34.17	-42.1	-45.2	18.9	6.04e-01	0	59	0	824705024	56	4935
2026-01-16 01:32:25.27	201.34	33.15	-41.7	-44.6	19.4	6.02e-01	0	60	0	832045056	55	4901
2026-01-16 01:32:29.31	201.26	32.16	-41.5	-44.2	19.7	6.03e-01	0	60	0	839385088	55	4699
2026-01-16 01:32:33.35	201.18	31.21	-41.3	-43.9	20.1	6.03e-01	0	60	0	847249408	54	4777
2026-01-16 01:32:37.39	201.10	30.28	-41.2	-43.9	20.0	6.02e-01	0	60	0	854589440	54	4776
2026-01-16 01:32:41.43	201.04	29.39	-41.3	-43.9	20.0	6.03e-01	0	60	0	862453760	54	4809
2026-01-16 01:32:45.47	200.97	28.53	-41.5	-44.3	19.6	6.03e-01	0	60	0	869793792	54	5005
2026-01-16 01:32:49.51	200.91	27.70	-41.7	-44.6	19.4	6.03e-01	0	60	0	877658112	54	5181
2026-01-16 01:32:53.55	200.85	26.89	-41.8	-44.8	19.1	6.04e-01	0	60	0	884998144	54	5312
2026-01-16 01:32:57.59	200.80	26.11	-41.7	-44.5	19.4	6.05e-01	0	60	0	892862464	54	5142
2026-01-16 01:33:01.63	200.75	25.35	-41.9	-44.8	19.0	6.03e-01	0	60	0	900202496	54	5340
2026-01-16 01:33:05.66	200.70	24.62	-42.0	-45.2	18.7	6.04e-01	0	60	0	907542528	54	5532
2026-01-16 01:33:09.70	200.66	23.90	-42.0	-45.1	18.7	6.03e-01	0	60	0	915406848	54	5500
2026-01-16 01:33:13.74	200.62	23.21	-42.1	-45.2	18.6	6.05e-01	0	60	0	922746880	54	5562
2026-01-16 01:33:17.78	200.58	22.53	-42.2	-45.4	18.4	6.04e-01	0	60	0	930611200	54	5693
2026-01-16 01:33:21.82	200.54	21.88	-42.1	-45.3	18.4	6.06e-01	0	60	0	937951232	54	5655
2026-01-16 01:33:25.86	200.51	21.24	-42.1	-45.3	18.5	6.04e-01	0	60	0	945815552	54	5599
2026-01-16 01:33:29.90	200.47	20.62	-42.0	-45.1	18.7	6.01e-01	0	60	0	953155584	54	5496
2026-01-16 01:33:33.93	200.44	20.02	-41.8	-44.9	18.9	6.02e-01	0	60	0	961019904	54	5365
2026-01-16 01:33:37.97	200.41	19.43	-41.8	-44.9	18.9	6.02e-01	0	60	0	968359936	54	5361
2026-01-16 01:33:42.02	200.39	18.86	-41.9	-45.0	18.7	6.03e-01	0	60	0	975699968	54	5424
2026-01-16 01:33:46.05	200.36	18.30	-42.0	-45.2	18.5	6.03e-01	0	60	0	983564288	54	5572
2026-01-16 01:33:50.09	200.34	17.75	-42.0	-45.2	18.4	6.04e-01	0	60	0	990904320	54	5582
2026-01-16 01:33:54.13	200.31	17.22	-42.1	-45.3	18.3	6.04e-01	0	60	0	998768640	54	5655
2026-01-16 01:33:58.17	200.29	16.70	-42.0	-45.3	18.4	6.03e-01	0	60	0	1006108672	54	5628
2026-01-16 01:34:02.20	200.27	16.19	-42.0	-45.3	18.3	6.04e-01	0	60	0	1013972992	54	5637
2026-01-16 01:34:06.24	200.25	15.70	-42.1	-45.5	18.1	6.03e-01	0	60	0	1021313024	54	5746
2026-01-16 01:34:10.28	200.23	15.21	-42.0	-45.4	18.2	6.04e-01	0	60	0	1029177344	54	5660
2026-01-16 01:34:14.32	200.21	14.74	-42.0	-45.4	18.1	6.02e-01	0	60	0	1036517376	54	5661
2026-01-16 01:34:18.36	200.20	14.27	-42.0	-45.3	18.2	6.03e-01	0	60	0	1043857408	54	5626
2026-01-16 01:34:22.40	200.18	13.81	-41.9	-45.2	18.3	6.02e-01	0	60	0	1051721728	54	5561
2026-01-16 01:34:26.43	200.17	13.37	-41.8	-45.1	18.4	6.04e-01	0	60	0	1059061760	54	5502
2026-01-16 01:34:30.47	200.15	12.93	-41.8	-45.0	18.4	6.05e-01	0	60	0	1066926080	54	5447
2026-01-16 01:34:34.51	200.14	12.50	-41.8	-45.1	18.3	6.05e-01	0	60	0	1074266112	54	5505
2026-01-16 01:34:38.55	200.13	12.08	-41.8	-45.1	18.2	6.04e-01	0	60	0	1082130432	54	5515
2026-01-16 01:34:42.59	200.11	11.67	-41.8	-45.1	18.2	6.04e-01	0	60	0	1089470464	54	5523
2026-01-16 01:34:46.62	200.10	11.27	-41.9	-45.3	18.0	6.04e-01	0	60	0	1097334784	54	5611
2026-01-16 01:34:50.66	200.09	10.87	-41.9	-45.3	18.0	6.02e-01	0	60	0	1104674816	54	5628
2026-01-16 01:34:54.70	200.08	10.48	-42.0	-45.5	17.8	6.02e-01	0	60	0	1112014848	54	5740
2026-01-16 01:34:58.75	200.07	10.09	-42.0	-45.6	17.6	6.02e-01	0	60	0	1119879168	54	5812
2026-01-16 01:35:02.78	200.06	9.72	-42.1	-45.7	17.4	6.02e-01	0	60	0	1127219200	54	5894
2026-01-16 01:35:06.82	200.06	9.35	-42.1	-45.8	17.3	6.04e-01	0	60	0	1135083520	54	5977
2026-01-16 01:35:10.86	200.05	8.98	-42.1	-45.8	17.2	6.03e-01	0	60	0	1142423552	54	5977
2026-01-16 01:35:14.90	200.04	8.62	-42.1	-46.0	16.9	6.04e-01	0	60	0	1150287872	54	6081
2026-01-16 01:35:18.94	200.03	8.27	-42.1	-46.1	16.7	6.05e-01	0	60	0	1157627904	54	6142
2026-01-16 01:35:22.97	200.03	7.92	-45.1	-57.4	7.0	6.91e-01	92	60	0	1164967936	60	16009
2026-01-16 01:35:27.01	200.02	7.58	-46.3	-64.9	3.8	7.44e-01	0	60	104	1164967936	63	32050
2026-01-16 01:35:31.05	200.02	7.24	-46.5	-65.0	3.8	7.46e-01	0	60	104	1164967936	63	32536
2026-01-16 01:35:35.08	200.01	6.91	-46.4	-65.0	3.8	7.46e-01	0	60	104	1164967936	63	32365
2026-01-16 01:35:39.12	200.01	6.58	-46.4	-65.0	3.8	7.46e-01	0	60	104	1164967936	63	32252
2026-01-16 01:35:43.16	200.00	6.26	-46.4	-65.0	3.8	7.48e-01	0	60	104	1164967936	63	32240
2026-01-16 01:35:47.20	200.00	5.94	-46.4	-64.9	3.8	7.45e-01	0	60	104	1164967936	63	32151
2026-01-16 01:35:51.24	199.99	5.62	-46.3	-64.9	3.8	7.44e-01	0	60	104	1164967936	63	32124
2026-01-16 01:35:55.28	199.99	5.31	-46.3	-64.9	3.8	7.43e-01	0	60	104	1164967936	63	32093
2026-01-16 01:35:59.33	199.99	5.01	-46.3	-64.9	3.8	7.42e-01	0	60	104	1164967936	63	32081
2026-01-16 01:36:03.37	199.99	4.70	-46.3	-64.9	3.8	7.47e-01	0	60	104	1164967936	63	32021
2026-01-16 01:36:07.42	199.98	4.40	-46.3	-64.9	3.8	7.46e-01	0	60	104	1164967936	63	32090
2026-01-16 01:36:11.46	199.98	4.11	-46.3	-64.9	3.8	7.43e-01	0	60	104	1164967936	63	31993
2026-01-16 01:36:15.49	199.98	3.82	-46.3	-64.9	3.8	7.46e-01	0	60	104	1164967936	63	32037
2026-01-16 01:36:19.53	199.98	3.53	-46.3	-64.9	3.8	7.45e-01	0	60	104	1164967936	63	31968
2026-01-16 01:36:23.57	199.98	3.25	-46.3	-64.9	3.8	7.47e-01	0	60	104	1164967936	63	31943
2026-01-16 01:36:27.62	199.97	2.96	-46.3	-64.9	3.8	7.48e-01	0	60	104	1164967936	63	31868
2026-01-16 01:36:31.66	199.97	2.68	-46.3	-64.9	3.8	7.46e-01	0	60	104	1164967936	63	31847
2026-01-16 01:36:35.70	199.97	2.41	-46.3	-64.9	3.8	7.41e-01	0	60	104	1164967936	63	31877
2026-01-16 01:36:39.74	199.97	2.14	-46.3	-64.9	3.8	7.44e-01	0	60	104	1164967936	63	31861
2026-01-16 01:36:43.79	199.97	1.87	-46.3	-64.9	3.8	7.46e-01	0	61	104	1164967936	63	31849

#Closed at: 2026-01-16 01:36:43
#Recorded file [1164 MB]: D:/lorett/data/31039_260116_042352.dat