passes_logs/2026/01/16/R2.0S_Moscow/R2.0S_Moscow__20260116_105753_AQUA_rec.log

#Pass ID: 20260116_105753_AQUA
#Satellite: AQUA
#Configuration: AQUA
#almurnet v.1.7.20251203
#Start time: 2026-01-16 10:57:54

#Version: 2.2.20231116
#Station: R2.0S_Moscow
#Location: 37.707566 lon 55.798166 lat
#TLE: 1 27424U 02022A   26015.51279194  .00000651  00000+0  14022-3 0  9990
#TLE: 2 27424  98.4082 341.9487 0002034  77.6776  33.2672 14.61821775260965

#Time	Az	El	Level	Level2	SNR	BER	BlckErr	Temp	State	Recorded	gain1	gain2
2026-01-16 10:57:54.58	139.44	2.06	-31.6	-53.7	3.8	7.72e-01	0	52	0	0	37	39385
2026-01-16 10:57:57.60	139.33	2.26	-25.3	-45.3	3.5	7.70e-01	0	52	104	0	26	28069
2026-01-16 10:58:00.63	139.22	2.46	-27.4	-48.4	4.0	7.47e-01	0	52	104	0	28	36000
2026-01-16 10:58:03.66	139.11	2.66	-37.9	-55.0	3.8	7.45e-01	0	53	104	0	46	27142
2026-01-16 10:58:06.69	138.99	2.86	-38.4	-55.3	4.0	7.55e-01	0	53	104	0	44	31598
2026-01-16 10:58:09.72	138.88	3.06	-30.1	-51.5	4.0	7.46e-01	0	53	104	0	38	28699
2026-01-16 10:58:12.75	138.76	3.27	-28.6	-47.1	3.9	7.40e-01	0	53	104	0	28	30936
2026-01-16 10:58:15.78	138.64	3.48	-30.8	-47.0	3.6	7.71e-01	0	53	104	0	25	36221
2026-01-16 10:58:18.81	138.52	3.68	-32.1	-52.5	3.9	7.59e-01	0	54	104	0	42	25668
2026-01-16 10:58:21.84	138.39	3.90	-39.0	-57.5	3.7	7.53e-01	0	54	104	0	48	32506
2026-01-16 10:58:24.87	138.27	4.11	-35.1	-57.2	4.4	7.57e-01	0	54	104	0	43	41833
2026-01-16 10:58:27.90	138.14	4.32	-33.6	-47.4	3.5	7.52e-01	0	54	104	0	27	33757
2026-01-16 10:58:30.94	138.01	4.54	-28.6	-47.2	3.7	7.65e-01	0	54	104	0	26	35273
2026-01-16 10:58:33.97	137.88	4.75	-37.4	-51.9	3.5	7.65e-01	0	55	104	0	32	42652
2026-01-16 10:58:37.00	137.74	4.97	-25.7	-52.4	3.9	7.48e-01	0	55	104	0	40	28490
2026-01-16 10:58:40.03	137.60	5.19	-25.0	-45.1	3.7	7.69e-01	0	55	104	0	30	21975
2026-01-16 10:58:43.06	137.46	5.42	-32.6	-51.4	3.8	7.61e-01	0	55	104	0	32	40471
2026-01-16 10:58:46.10	137.32	5.64	-34.4	-54.9	4.1	7.70e-01	0	55	104	0	41	35957
2026-01-16 10:58:49.12	137.18	5.87	-32.4	-47.1	4.3	7.57e-01	0	55	104	0	33	23169
2026-01-16 10:58:52.16	137.03	6.10	-27.0	-45.3	4.0	7.61e-01	0	55	104	0	24	31678
2026-01-16 10:58:55.19	136.88	6.33	-25.1	-43.9	3.8	7.70e-01	0	55	104	0	23	28411
2026-01-16 10:58:58.22	136.73	6.56	-33.6	-48.4	3.8	7.52e-01	0	55	104	0	29	33921
2026-01-16 10:59:01.24	136.57	6.80	-38.5	-52.8	4.0	7.61e-01	0	56	104	0	40	29958
2026-01-16 10:59:04.27	136.41	7.04	-30.4	-52.5	4.2	7.59e-01	0	56	104	0	43	24353
2026-01-16 10:59:07.30	136.25	7.28	-23.1	-44.4	3.6	7.34e-01	0	56	104	0	21	33697
2026-01-16 10:59:10.33	136.09	7.52	-29.8	-49.7	3.9	7.46e-01	0	56	104	0	29	39252
2026-01-16 10:59:13.36	135.92	7.76	-36.9	-56.7	4.2	7.58e-01	0	56	104	0	39	49358
2026-01-16 10:59:16.39	135.75	8.01	-32.1	-55.2	3.9	7.47e-01	0	56	104	0	48	24814
2026-01-16 10:59:19.41	135.57	8.26	-20.7	-43.4	3.5	7.57e-01	0	56	104	0	12	50875
2026-01-16 10:59:22.44	135.40	8.51	-22.8	-40.0	3.5	7.56e-01	0	57	104	0	4	54283
2026-01-16 10:59:25.47	135.21	8.76	-16.5	-36.5	3.8	7.48e-01	0	57	104	0	6	32255
2026-01-16 10:59:28.50	135.03	9.02	-31.1	-45.5	3.4	7.62e-01	0	57	104	0	17	48409
2026-01-16 10:59:31.53	134.84	9.28	-13.5	-34.3	4.0	7.49e-01	0	57	104	0	0	35344
2026-01-16 10:59:34.55	134.65	9.54	-19.6	-42.0	3.5	7.60e-01	0	57	104	0	13	40974
2026-01-16 10:59:37.58	134.45	9.81	-12.9	-38.0	3.7	7.59e-01	0	57	104	0	1	51353
2026-01-16 10:59:40.61	134.25	10.08	-16.8	-35.4	3.8	7.54e-01	0	57	104	0	0	40391
2026-01-16 10:59:43.64	134.05	10.35	-15.0	-35.9	3.5	7.60e-01	0	58	104	0	3	36018
2026-01-16 10:59:46.67	133.84	10.62	-12.4	-36.3	3.5	7.60e-01	0	57	104	0	1	42137
2026-01-16 10:59:49.70	133.63	10.90	-19.0	-36.4	3.5	7.47e-01	0	57	104	0	3	38227
2026-01-16 10:59:52.73	133.41	11.18	-18.5	-39.0	3.7	7.39e-01	0	58	104	0	10	34297
2026-01-16 10:59:55.77	133.18	11.47	-16.4	-35.2	3.7	7.58e-01	0	58	104	0	1	37336
2026-01-16 10:59:58.79	132.96	11.75	-12.3	-34.9	3.8	7.55e-01	0	58	104	0	0	37856
2026-01-16 11:00:01.82	132.72	12.04	-17.0	-38.2	3.7	7.45e-01	0	58	104	0	3	46746
2026-01-16 11:00:04.85	132.49	12.34	-13.4	-36.9	4.1	7.43e-01	0	58	104	0	4	38029
2026-01-16 11:00:07.88	132.24	12.64	-16.6	-36.4	3.4	7.47e-01	0	58	104	0	3	38140
2026-01-16 11:00:10.90	132.00	12.94	-13.6	-34.1	3.9	7.59e-01	0	58	104	0	0	34820
2026-01-16 11:00:13.93	131.74	13.24	-20.1	-36.8	3.7	7.62e-01	0	58	104	0	5	35691
2026-01-16 11:00:16.96	131.48	13.55	-36.7	-52.6	4.0	7.39e-01	0	58	104	0	34	41056
2026-01-16 11:00:19.99	131.21	13.86	-20.5	-42.7	3.9	7.49e-01	0	58	104	0	13	44340
2026-01-16 11:00:23.02	130.94	14.18	-21.5	-41.5	4.0	7.60e-01	0	58	104	0	13	38635
2026-01-16 11:00:26.05	130.66	14.50	-24.4	-37.3	3.3	7.66e-01	0	59	104	0	1	47126
2026-01-16 11:00:29.07	130.38	14.82	-14.0	-34.8	3.2	7.44e-01	0	58	104	0	0	37385
2026-01-16 11:00:32.10	130.09	15.15	-34.5	-56.0	3.8	7.39e-01	0	59	104	0	51	22788
2026-01-16 11:00:35.13	129.79	15.48	-30.8	-45.6	6.3	6.72e-01	0	59	104	0	42	11562
2026-01-16 11:00:38.16	129.48	15.82	-37.7	-45.6	5.1	6.44e-01	13	58	104	2097152	36	16393
2026-01-16 11:00:41.19	129.16	16.16	-40.8	-46.6	14.5	6.09e-01	5	59	0	5767168	54	6505
2026-01-16 11:00:44.21	128.84	16.50	-42.1	-46.2	16.2	6.07e-01	0	59	0	11534336	55	5919
2026-01-16 11:00:47.24	128.51	16.86	-42.1	-45.6	17.1	6.06e-01	0	59	0	17301504	54	5823
2026-01-16 11:00:50.27	128.17	17.21	-41.7	-45.3	13.7	6.07e-01	0	59	0	23068672	54	5609
2026-01-16 11:00:53.30	127.82	17.57	-41.9	-45.3	17.6	6.08e-01	0	59	0	28835840	54	5617
2026-01-16 11:00:56.32	127.47	17.93	-41.8	-45.3	17.4	6.06e-01	0	59	0	34078720	54	5633
2026-01-16 11:00:59.35	127.10	18.30	-41.9	-45.5	17.2	6.07e-01	0	59	0	39845888	54	5742
2026-01-16 11:01:02.39	126.72	18.68	-41.0	-45.5	15.5	6.09e-01	4	59	0	45613056	54	5731
2026-01-16 11:01:05.42	126.33	19.06	-41.8	-45.3	17.7	6.05e-01	0	59	0	51380224	54	5632
2026-01-16 11:01:08.45	125.94	19.44	-41.7	-45.5	18.0	6.06e-01	0	59	0	57147392	54	5754
2026-01-16 11:01:11.48	125.53	19.83	-42.1	-45.4	18.1	6.07e-01	0	59	0	62914560	54	5695
2026-01-16 11:01:14.51	125.11	20.23	-42.2	-45.6	17.8	6.08e-01	0	59	0	68157440	55	5478
2026-01-16 11:01:17.54	124.68	20.63	-41.6	-45.4	16.7	6.07e-01	0	59	0	73924608	54	5673
2026-01-16 11:01:20.57	124.23	21.03	-41.9	-45.2	17.5	6.06e-01	0	59	0	79691776	54	5565
2026-01-16 11:01:23.60	123.78	21.44	-42.0	-45.3	18.4	6.06e-01	0	59	0	85458944	54	5603
2026-01-16 11:01:26.62	123.31	21.86	-42.2	-45.6	17.8	6.06e-01	0	59	0	91226112	55	5485
2026-01-16 11:01:29.65	122.83	22.28	-42.3	-45.7	18.0	6.08e-01	0	59	0	96993280	55	5568
2026-01-16 11:01:32.68	122.33	22.71	-42.2	-45.9	17.8	6.04e-01	0	59	0	102760448	55	5695
2026-01-16 11:01:35.71	121.82	23.14	-42.2	-45.6	18.2	6.07e-01	0	59	0	108003328	55	5471
2026-01-16 11:01:38.74	121.29	23.58	-42.2	-45.6	18.1	6.06e-01	0	60	0	113770496	55	5480
2026-01-16 11:01:41.77	120.74	24.02	-42.4	-45.7	18.1	6.07e-01	0	60	0	119537664	55	5569
2026-01-16 11:01:44.80	120.18	24.47	-42.3	-45.7	18.1	6.07e-01	0	60	0	125304832	55	5547
2026-01-16 11:01:47.83	119.61	24.93	-42.4	-45.7	18.1	6.05e-01	0	59	0	131072000	55	5578
2026-01-16 11:01:50.86	119.01	25.39	-42.3	-45.6	18.2	6.06e-01	0	60	0	136314880	55	5482
2026-01-16 11:01:53.88	118.40	25.85	-42.3	-45.6	18.3	6.06e-01	0	60	0	142082048	55	5468
2026-01-16 11:01:56.91	117.77	26.32	-42.1	-45.2	18.6	6.06e-01	0	60	0	147849216	55	5251
2026-01-16 11:01:59.94	117.11	26.80	-42.3	-45.5	18.3	6.07e-01	0	59	0	153616384	55	5448
2026-01-16 11:02:02.96	116.44	27.28	-42.2	-45.4	18.4	6.07e-01	0	59	0	159383552	55	5379
2026-01-16 11:02:05.99	115.75	27.76	-42.3	-45.5	18.3	6.06e-01	0	59	0	165150720	55	5449
2026-01-16 11:02:09.02	115.03	28.25	-41.8	-44.8	19.1	6.07e-01	0	60	0	170393600	55	5012
2026-01-16 11:02:12.05	114.29	28.75	-41.9	-44.9	19.0	6.06e-01	0	60	0	176160768	55	5063
2026-01-16 11:02:15.08	113.52	29.25	-41.9	-44.9	19.1	6.06e-01	0	60	0	181927936	55	5049
2026-01-16 11:02:18.11	112.73	29.75	-41.8	-44.7	19.2	6.05e-01	0	60	0	187695104	55	4945
2026-01-16 11:02:21.14	111.91	30.25	-41.8	-44.7	19.2	6.06e-01	0	60	0	193462272	55	4965
2026-01-16 11:02:24.17	111.07	30.76	-41.7	-44.6	19.3	6.06e-01	0	60	0	199229440	55	4915
2026-01-16 11:02:27.20	110.19	31.27	-41.7	-44.5	19.4	6.05e-01	0	60	0	204472320	55	4840
2026-01-16 11:02:30.23	109.29	31.79	-41.9	-44.8	19.1	6.07e-01	0	60	0	210239488	55	5010
2026-01-16 11:02:33.26	108.36	32.30	-41.8	-44.7	19.1	6.04e-01	0	60	0	216006656	55	4969
2026-01-16 11:02:36.28	107.40	32.82	-41.9	-44.9	19.1	6.05e-01	0	60	0	221773824	55	5044
2026-01-16 11:02:39.31	106.41	33.33	-42.1	-45.1	18.8	6.06e-01	0	60	0	227540992	55	5197
2026-01-16 11:02:42.34	105.38	33.85	-42.0	-44.9	19.0	6.06e-01	0	60	0	233308160	55	5098
2026-01-16 11:02:45.37	104.32	34.36	-42.2	-45.4	18.5	6.05e-01	0	60	0	238551040	55	5357
2026-01-16 11:02:48.39	103.23	34.87	-42.2	-45.3	18.6	6.07e-01	0	60	0	244318208	55	5320
2026-01-16 11:02:51.42	102.09	35.38	-42.5	-45.7	18.3	6.07e-01	0	60	0	250085376	55	5566
2026-01-16 11:02:54.45	100.92	35.88	-42.7	-46.1	17.9	6.06e-01	0	60	0	255852544	55	5826
2026-01-16 11:02:57.48	99.72	36.38	-42.7	-46.1	17.9	6.03e-01	0	60	0	261619712	56	5477
2026-01-16 11:03:00.51	98.47	36.87	-42.9	-46.5	17.6	6.04e-01	0	60	0	267386880	56	5730
2026-01-16 11:03:03.54	97.19	37.35	-43.1	-46.8	17.4	6.07e-01	0	60	0	272629760	56	5933
2026-01-16 11:03:06.57	95.87	37.83	-43.3	-47.2	16.9	6.04e-01	0	60	0	278396928	57	5881
2026-01-16 11:03:09.60	94.51	38.29	-42.9	-46.4	17.7	6.07e-01	0	60	0	284164096	57	5395
2026-01-16 11:03:12.63	93.10	38.74	-43.1	-46.7	17.3	6.07e-01	0	60	0	289931264	57	5561
2026-01-16 11:03:15.66	91.66	39.18	-43.1	-46.7	17.4	6.10e-01	0	60	0	295698432	57	5535
2026-01-16 11:03:18.68	90.19	39.60	-43.1	-46.6	17.5	6.06e-01	0	60	0	301465600	57	5517
2026-01-16 11:03:21.71	88.67	40.01	-43.1	-46.8	17.4	6.05e-01	0	60	0	306708480	57	5602
2026-01-16 11:03:24.74	87.11	40.39	-43.1	-46.8	17.4	6.08e-01	0	60	0	312475648	57	5596
2026-01-16 11:03:27.77	85.51	40.76	-43.1	-46.7	17.4	6.07e-01	0	60	0	318242816	57	5554
2026-01-16 11:03:30.80	83.88	41.11	-42.8	-46.1	18.0	6.08e-01	0	60	0	324009984	57	5197
2026-01-16 11:03:33.83	82.22	41.43	-42.9	-46.4	17.7	6.06e-01	0	60	0	329777152	57	5373
2026-01-16 11:03:36.86	80.52	41.73	-43.0	-46.5	17.6	6.05e-01	0	60	0	335544320	57	5444
2026-01-16 11:03:39.89	78.79	42.00	-42.8	-46.2	18.0	6.06e-01	0	60	0	340787200	57	5223
2026-01-16 11:03:42.92	77.03	42.24	-43.0	-46.5	17.7	6.07e-01	0	60	0	346554368	57	5427
2026-01-16 11:03:45.95	75.25	42.46	-42.9	-46.3	17.8	6.07e-01	0	60	0	352321536	57	5338
2026-01-16 11:03:48.98	73.44	42.64	-42.7	-46.0	18.2	6.07e-01	0	60	0	358088704	57	5118
2026-01-16 11:03:52.00	71.62	42.80	-42.7	-45.9	18.3	6.08e-01	0	60	0	363855872	57	5094
2026-01-16 11:03:55.03	69.78	42.92	-43.0	-46.4	17.9	6.06e-01	0	60	0	369098752	57	5392
2026-01-16 11:03:58.06	67.93	43.01	-43.0	-46.5	17.8	6.06e-01	0	60	0	374865920	57	5404
2026-01-16 11:04:01.09	66.06	43.07	-42.8	-46.0	18.2	6.06e-01	0	61	0	380633088	57	5145
2026-01-16 11:04:04.12	64.20	43.09	-42.9	-46.3	18.0	6.08e-01	0	60	0	386400256	57	5317
2026-01-16 11:04:07.15	62.33	43.08	-42.9	-46.3	18.0	6.06e-01	0	60	0	392167424	57	5313
2026-01-16 11:04:10.17	60.47	43.03	-42.6	-45.8	18.4	6.07e-01	0	60	0	397934592	57	5032
2026-01-16 11:04:13.20	58.62	42.96	-42.7	-45.9	18.4	6.07e-01	0	61	0	403701760	57	5066
2026-01-16 11:04:16.23	56.77	42.85	-42.8	-46.1	18.2	6.07e-01	0	60	0	408944640	57	5175
2026-01-16 11:04:19.26	54.94	42.70	-42.8	-46.2	18.1	6.04e-01	0	60	0	414711808	57	5222
2026-01-16 11:04:22.28	53.14	42.53	-42.9	-46.3	17.9	6.05e-01	0	61	0	420478976	57	5323
2026-01-16 11:04:25.31	51.35	42.33	-42.7	-45.9	18.4	6.06e-01	0	61	0	426246144	57	5068
2026-01-16 11:04:28.34	49.58	42.09	-42.5	-45.5	18.7	6.06e-01	0	61	0	432013312	57	4870
2026-01-16 11:04:31.36	47.85	41.83	-42.8	-46.1	18.2	6.05e-01	0	60	0	437256192	57	5161
2026-01-16 11:04:34.39	46.14	41.54	-43.1	-46.6	17.6	6.06e-01	0	61	0	443023360	57	5516
2026-01-16 11:04:37.42	44.47	41.23	-43.0	-46.5	17.8	6.07e-01	0	61	0	448790528	57	5442
2026-01-16 11:04:40.45	42.83	40.89	-42.8	-46.1	18.1	6.07e-01	0	61	0	454557696	57	5208
2026-01-16 11:04:43.48	41.22	40.53	-43.1	-46.6	17.6	6.07e-01	0	60	0	460324864	57	5487
2026-01-16 11:04:46.51	39.65	40.16	-43.3	-47.0	17.3	6.07e-01	0	60	0	466092032	57	5781
2026-01-16 11:04:49.53	38.13	39.76	-43.3	-56.2	3.8	7.42e-01	0	61	104	467140608	57	16564
2026-01-16 11:04:52.56	36.64	39.34	-43.4	-56.3	3.8	7.43e-01	0	61	104	467140608	58	15821
2026-01-16 11:04:55.58	35.19	38.91	-44.8	-59.6	3.8	7.46e-01	0	61	104	467140608	61	19537
2026-01-16 11:04:58.61	33.78	38.47	-43.9	-57.3	3.9	7.40e-01	0	61	104	467140608	59	16801
2026-01-16 11:05:01.63	32.41	38.01	-44.7	-59.1	3.7	7.42e-01	0	61	104	467140608	60	19511
2026-01-16 11:05:04.67	31.07	37.54	-44.7	-58.9	4.0	7.42e-01	0	61	104	467140608	59	20184
2026-01-16 11:05:07.69	29.79	37.07	-43.7	-57.2	3.7	7.47e-01	0	61	104	467140608	58	17608
2026-01-16 11:05:10.72	28.53	36.58	-44.7	-59.2	3.8	7.42e-01	0	61	104	467140608	60	19763
2026-01-16 11:05:13.75	27.31	36.09	-44.4	-58.7	3.9	7.45e-01	0	61	104	467140608	60	18643
2026-01-16 11:05:16.77	26.14	35.59	-44.0	-57.6	3.8	7.44e-01	0	61	104	467140608	58	18501
2026-01-16 11:05:19.80	25.00	35.08	-45.2	-60.8	3.8	7.46e-01	0	61	104	467140608	61	22468
2026-01-16 11:05:22.83	23.89	34.58	-43.4	-56.8	3.8	7.47e-01	0	61	104	467140608	58	16838
2026-01-16 11:05:25.85	22.83	34.07	-45.3	-61.1	3.8	7.45e-01	0	61	104	467140608	61	23233
2026-01-16 11:05:28.89	21.79	33.55	-45.8	-63.2	3.7	7.47e-01	0	61	104	467140608	62	27887
2026-01-16 11:05:31.91	20.79	33.04	-43.0	-56.0	3.8	7.43e-01	0	61	104	467140608	57	16245
2026-01-16 11:05:34.94	19.82	32.53	-45.0	-60.4	3.8	7.46e-01	0	61	104	467140608	60	22574
2026-01-16 11:05:37.97	18.88	32.02	-42.7	-55.5	3.8	7.47e-01	0	61	104	467140608	57	15245
2026-01-16 11:05:40.99	17.97	31.51	-44.9	-60.3	3.8	7.45e-01	0	61	104	467140608	60	22477
2026-01-16 11:05:44.02	17.09	31.00	-45.0	-60.8	3.8	7.44e-01	0	61	104	467140608	61	22425
2026-01-16 11:05:47.05	16.24	30.49	-42.8	-55.4	3.8	7.47e-01	0	61	104	467140608	57	15155
2026-01-16 11:05:50.08	15.42	29.99	-44.5	-59.1	3.8	7.43e-01	0	61	104	467140608	60	19535
2026-01-16 11:05:53.11	14.62	29.49	-45.5	-62.0	3.8	7.44e-01	0	61	104	467140608	61	25692
2026-01-16 11:05:56.14	13.85	28.99	-42.6	-55.3	3.8	7.44e-01	0	61	104	467140608	57	14976
2026-01-16 11:05:59.17	13.10	28.49	-44.8	-60.3	3.8	7.44e-01	0	61	104	467140608	60	22463
2026-01-16 11:06:02.20	12.37	28.00	-43.1	-56.2	3.8	7.46e-01	0	61	104	467140608	57	16693
2026-01-16 11:06:05.22	11.68	27.52	-44.1	-57.9	3.8	7.42e-01	0	61	104	467140608	59	18060
2026-01-16 11:06:08.25	11.00	27.04	-43.7	-57.5	3.7	7.41e-01	0	61	104	467140608	59	17096
2026-01-16 11:06:11.27	10.34	26.57	-42.8	-55.6	3.8	7.44e-01	0	61	104	467140608	57	15423
2026-01-16 11:06:14.30	9.70	26.10	-43.0	-56.2	3.9	7.44e-01	0	61	104	467140608	58	15746
2026-01-16 11:06:17.33	9.09	25.63	-45.3	-61.4	3.9	7.44e-01	0	61	104	467140608	61	23897
2026-01-16 11:06:20.36	8.49	25.17	-42.9	-55.8	3.8	7.48e-01	0	61	104	467140608	57	15807
2026-01-16 11:06:23.38	7.91	24.72	-44.0	-58.4	3.8	7.43e-01	0	61	104	467140608	60	18095
2026-01-16 11:06:26.41	7.34	24.27	-43.2	-56.6	3.8	7.42e-01	0	61	104	467140608	57	17334
2026-01-16 11:06:29.44	6.80	23.82	-44.3	-58.7	3.8	7.45e-01	0	61	104	467140608	59	19694
2026-01-16 11:06:32.47	6.27	23.39	-42.9	-56.0	3.9	7.45e-01	0	61	104	467140608	57	16286
2026-01-16 11:06:35.50	5.75	22.95	-43.1	-56.3	3.8	7.45e-01	0	61	104	467140608	58	15903
2026-01-16 11:06:38.52	5.25	22.53	-43.0	-56.2	3.8	7.44e-01	0	61	104	467140608	58	15668
2026-01-16 11:06:41.56	4.76	22.10	-44.1	-59.0	3.9	7.45e-01	0	61	104	467140608	60	19377
2026-01-16 11:06:44.59	4.29	21.69	-43.2	-56.6	3.8	7.46e-01	0	61	104	467140608	57	17390
2026-01-16 11:06:47.61	3.84	21.28	-43.8	-57.5	3.9	7.42e-01	0	61	104	467140608	59	17181
2026-01-16 11:06:50.64	3.39	20.87	-42.7	-55.7	3.8	7.44e-01	0	61	104	467140608	57	15651
2026-01-16 11:06:53.67	2.96	20.47	-43.1	-56.2	3.8	7.43e-01	0	61	104	467140608	57	16658
2026-01-16 11:06:56.69	2.54	20.08	-44.5	-60.5	3.8	7.48e-01	0	61	104	467140608	60	22823
2026-01-16 11:06:59.72	2.13	19.69	-42.8	-56.4	3.8	7.44e-01	0	61	104	467140608	57	16955
2026-01-16 11:07:02.74	1.73	19.30	-44.3	-58.2	3.8	7.51e-01	0	61	104	467140608	58	19770
2026-01-16 11:07:05.77	1.34	18.92	-43.6	-57.5	3.9	7.45e-01	0	61	104	467140608	59	17085
2026-01-16 11:07:08.80	0.96	18.55	-42.9	-56.5	3.8	7.47e-01	0	61	104	467140608	56	18133
2026-01-16 11:07:11.83	0.59	18.18	-43.1	-56.8	3.8	7.45e-01	0	61	104	467140608	57	17709
2026-01-16 11:07:14.86	0.23	17.82	-42.6	-55.9	3.8	7.44e-01	0	61	104	467140608	57	16028
2026-01-16 11:07:17.88	359.89	17.46	-43.4	-57.5	3.8	7.43e-01	0	61	104	467140608	57	19357
2026-01-16 11:07:20.91	359.55	17.10	-44.4	-60.2	3.8	7.46e-01	0	61	104	467140608	59	23547
2026-01-16 11:07:23.94	359.21	16.75	-42.5	-56.1	3.8	7.45e-01	0	61	104	467140608	56	17413
2026-01-16 11:07:26.96	358.89	16.41	-44.0	-60.7	3.8	7.43e-01	0	61	104	467140608	58	26319
2026-01-16 11:07:29.99	358.58	16.06	-41.9	-55.2	3.8	7.49e-01	0	61	104	467140608	55	16543
2026-01-16 11:07:33.02	358.27	15.73	-43.7	-61.1	3.8	7.43e-01	0	61	104	467140608	58	27687
2026-01-16 11:07:36.04	357.97	15.39	-43.0	-57.8	3.8	7.45e-01	0	61	104	467140608	57	19911
2026-01-16 11:07:39.07	357.68	15.07	-42.1	-56.4	3.8	7.47e-01	0	61	104	467140608	56	18078
2026-01-16 11:07:42.10	357.39	14.74	-41.9	-56.2	3.8	7.41e-01	0	61	104	467140608	54	19779
2026-01-16 11:07:45.13	357.11	14.42	-43.7	-61.5	3.7	7.40e-01	0	61	104	467140608	58	28925
2026-01-16 11:07:48.16	356.84	14.10	-41.2	-55.4	3.8	7.44e-01	0	61	104	467140608	54	18085
2026-01-16 11:07:51.19	356.57	13.79	-41.9	-58.9	3.8	7.43e-01	0	61	104	467140608	54	26775
2026-01-16 11:07:54.21	356.31	13.48	-41.3	-56.3	3.8	7.43e-01	0	61	104	467140608	54	19988
2026-01-16 11:07:57.24	356.06	13.18	-41.8	-60.0	3.8	7.43e-01	0	61	104	467140608	54	30521
2026-01-16 11:08:00.27	355.81	12.88	-41.4	-60.4	3.8	7.46e-01	0	61	104	467140608	54	31811
2026-01-16 11:08:03.30	355.57	12.58	-42.0	-60.2	3.8	7.46e-01	0	61	104	467140608	55	29525
2026-01-16 11:08:06.33	355.33	12.29	-41.4	-60.8	3.8	7.48e-01	0	61	104	467140608	54	33538
2026-01-16 11:08:09.35	355.10	12.00	-41.5	-60.9	3.8	7.44e-01	0	61	104	467140608	54	33734
2026-01-16 11:08:12.38	354.87	11.71	-41.5	-60.8	3.8	7.43e-01	0	61	104	467140608	54	33388
2026-01-16 11:08:15.41	354.65	11.42	-41.1	-60.5	3.8	7.40e-01	0	62	104	467140608	54	32435
2026-01-16 11:08:18.44	354.44	11.14	-41.3	-60.5	3.8	7.46e-01	0	61	104	467140608	54	32222
2026-01-16 11:08:21.46	354.22	10.87	-41.2	-60.5	3.8	7.46e-01	0	61	104	467140608	54	32277
2026-01-16 11:08:24.49	354.02	10.59	-41.3	-60.4	3.8	7.47e-01	0	62	104	467140608	54	32128
2026-01-16 11:08:27.52	353.81	10.32	-41.2	-60.4	3.8	7.45e-01	0	62	104	467140608	54	32163
2026-01-16 11:08:30.55	353.61	10.05	-41.2	-60.4	3.8	7.47e-01	0	61	104	467140608	53	33992
2026-01-16 11:08:33.58	353.42	9.78	-41.2	-60.4	3.8	7.46e-01	0	61	104	467140608	53	33888
2026-01-16 11:08:36.60	353.23	9.52	-41.3	-60.4	3.8	7.47e-01	0	62	104	467140608	53	33852
2026-01-16 11:08:39.63	353.04	9.26	-41.3	-60.4	3.8	7.44e-01	0	61	104	467140608	53	33942
2026-01-16 11:08:42.66	352.86	9.00	-41.3	-60.4	3.8	7.43e-01	0	61	104	467140608	53	34080
2026-01-16 11:08:45.69	352.68	8.75	-41.4	-60.6	3.8	7.46e-01	0	61	104	467140608	53	34793
2026-01-16 11:08:48.72	352.50	8.50	-41.4	-60.5	3.8	7.44e-01	0	62	104	467140608	53	34238
2026-01-16 11:08:51.74	352.33	8.25	-41.4	-60.6	3.8	7.48e-01	0	61	104	467140608	53	34814
2026-01-16 11:08:54.77	352.16	8.00	-41.0	-60.6	3.8	7.44e-01	0	62	104	467140608	53	34770
2026-01-16 11:08:57.80	351.99	7.76	-45.6	-64.3	3.8	7.43e-01	0	62	104	467140608	61	33582
2026-01-16 11:09:00.82	351.83	7.51	-46.3	-64.9	3.8	7.47e-01	0	61	104	467140608	63	32172
2026-01-16 11:09:03.86	351.67	7.27	-46.3	-65.0	3.8	7.50e-01	0	61	104	467140608	63	32478
2026-01-16 11:09:06.89	351.51	7.03	-46.4	-64.9	3.8	7.48e-01	0	61	104	467140608	63	31988
2026-01-16 11:09:09.92	351.36	6.80	-46.4	-65.0	3.8	7.45e-01	0	61	104	467140608	63	32370
2026-01-16 11:09:12.95	351.21	6.57	-46.3	-64.9	3.8	7.45e-01	0	62	104	467140608	63	32059
2026-01-16 11:09:15.99	351.06	6.33	-46.3	-64.9	3.8	7.40e-01	0	62	104	467140608	63	32139
2026-01-16 11:09:19.02	350.92	6.10	-46.3	-64.9	3.8	7.43e-01	0	62	104	467140608	63	32142
2026-01-16 11:09:22.05	350.77	5.88	-46.3	-64.9	3.8	7.46e-01	0	61	104	467140608	63	32072
2026-01-16 11:09:25.07	350.63	5.65	-46.3	-64.9	3.8	7.41e-01	0	62	104	467140608	63	32090
2026-01-16 11:09:28.11	350.50	5.43	-46.3	-64.9	3.8	7.43e-01	0	61	104	467140608	63	32017
2026-01-16 11:09:31.13	350.36	5.21	-46.3	-64.9	3.8	7.45e-01	0	62	104	467140608	63	32065
2026-01-16 11:09:34.16	350.23	4.99	-46.3	-64.9	3.8	7.44e-01	0	62	104	467140608	63	32009
2026-01-16 11:09:37.20	350.10	4.77	-46.3	-64.9	3.8	7.44e-01	0	61	104	467140608	63	32027
2026-01-16 11:09:40.23	349.97	4.56	-46.3	-64.9	3.8	7.42e-01	0	62	104	467140608	63	32052
2026-01-16 11:09:43.25	349.84	4.34	-46.3	-64.9	3.8	7.47e-01	0	61	104	467140608	63	32081
2026-01-16 11:09:46.28	349.72	4.13	-46.3	-64.9	3.8	7.45e-01	0	62	104	467140608	63	31989
2026-01-16 11:09:49.31	349.60	3.92	-46.1	-64.9	3.8	7.46e-01	0	62	104	467140608	63	31877
2026-01-16 11:09:52.34	349.48	3.71	-46.3	-64.9	3.8	7.44e-01	0	62	104	467140608	63	31954
2026-01-16 11:09:55.37	349.36	3.50	-46.3	-64.9	3.8	7.44e-01	0	62	104	467140608	63	32038
2026-01-16 11:09:58.40	349.25	3.30	-46.3	-64.9	3.8	7.45e-01	0	62	104	467140608	63	31992
2026-01-16 11:10:01.43	349.13	3.09	-46.3	-64.9	3.8	7.46e-01	0	62	104	467140608	63	31949
2026-01-16 11:10:04.46	349.02	2.89	-46.3	-64.9	3.8	7.44e-01	0	62	104	467140608	63	31867
2026-01-16 11:10:07.49	348.91	2.69	-46.1	-64.7	3.8	7.49e-01	0	62	104	467140608	62	33281
2026-01-16 11:10:10.52	348.81	2.49	-46.3	-64.9	3.8	7.48e-01	0	62	104	467140608	63	31971
2026-01-16 11:10:13.56	348.70	2.29	-46.3	-64.9	3.8	7.43e-01	0	62	104	467140608	63	31926
2026-01-16 11:10:16.59	348.59	2.10	-46.2	-64.9	3.8	7.47e-01	0	62	104	467140608	63	31954

#Closed at: 2026-01-16 11:10:19
#Recorded file [467 MB]: D:/lorett/data/31039_260116_135754.dat