passes_logs/2026/01/16/R2.0S_Moscow/R2.0S_Moscow__20260116_051957_FENGYUN_3E_rec.log

#Pass ID: 20260116_051957_FENGYUN 3E
#Satellite: FENGYUN 3E
#Configuration: FENGYUN 3E
#almurnet v.1.7.20251203
#Start time: 2026-01-16 05:19:58

#Version: 2.2.20231116
#Station: R2.0S_Moscow
#Location: 37.707566 lon 55.798166 lat
#TLE: 1 49008U 21062A   26015.49897766  .00000206  00000+0  11779-3 0  9997
#TLE: 2 49008  98.7486  20.6219 0002049 135.8566 224.2775 14.19885576234916

#Time	Az	El	Level	Level2	SNR	BER	BlckErr	Temp	State	Recorded	gain1	gain2
2026-01-16 05:19:58.25	10.98	2.06	-40.2	-51.1	3.8	8.46e-01	0	51	0	0	51	12287
2026-01-16 05:20:02.30	10.76	2.30	-40.2	-51.1	3.8	8.47e-01	0	52	104	0	51	12253
2026-01-16 05:20:06.34	10.54	2.54	-40.2	-51.1	3.8	8.44e-01	0	52	104	0	51	12253
2026-01-16 05:20:10.38	10.31	2.78	-40.2	-51.1	3.8	8.46e-01	0	52	104	0	51	12282
2026-01-16 05:20:14.42	10.08	3.02	-40.2	-51.1	3.8	8.45e-01	0	53	104	0	51	12285
2026-01-16 05:20:18.46	9.85	3.27	-40.2	-51.1	3.8	8.47e-01	0	53	104	0	51	12286
2026-01-16 05:20:22.50	9.61	3.51	-40.2	-51.1	3.8	8.46e-01	0	53	104	0	51	12273
2026-01-16 05:20:26.54	9.36	3.76	-40.2	-51.1	3.8	8.47e-01	0	53	104	0	51	12258
2026-01-16 05:20:30.59	9.12	4.01	-40.2	-51.1	3.8	8.46e-01	0	54	104	0	51	12297
2026-01-16 05:20:34.62	8.86	4.26	-40.2	-51.1	3.8	8.46e-01	0	54	104	0	51	12247
2026-01-16 05:20:38.66	8.61	4.52	-40.2	-51.1	3.8	8.46e-01	0	54	104	0	51	12289
2026-01-16 05:20:42.71	8.34	4.77	-40.2	-51.1	3.8	8.46e-01	0	54	104	0	51	12282
2026-01-16 05:20:46.74	8.08	5.03	-40.2	-51.1	3.8	8.46e-01	0	54	104	0	51	12259
2026-01-16 05:20:50.79	7.80	5.29	-40.2	-51.1	3.8	8.46e-01	0	55	104	0	51	12253
2026-01-16 05:20:54.82	7.53	5.55	-40.2	-51.1	3.8	8.47e-01	0	55	104	0	51	12265
2026-01-16 05:20:58.86	7.24	5.81	-40.2	-51.1	3.8	8.46e-01	0	55	104	0	51	12268
2026-01-16 05:21:02.90	6.95	6.08	-40.2	-51.0	3.8	8.47e-01	0	55	104	0	51	12220
2026-01-16 05:21:06.94	6.66	6.34	-40.2	-51.1	3.8	8.47e-01	0	56	104	0	51	12269
2026-01-16 05:21:10.98	6.36	6.61	-40.2	-51.0	3.8	8.46e-01	0	56	104	0	51	12227
2026-01-16 05:21:15.02	6.05	6.88	-40.2	-51.0	3.8	8.46e-01	0	56	104	0	51	12222
2026-01-16 05:21:19.06	5.74	7.15	-40.2	-51.1	3.8	8.46e-01	0	56	104	0	51	12252
2026-01-16 05:21:23.10	5.42	7.43	-40.2	-51.1	3.8	8.47e-01	0	56	104	0	51	12274
2026-01-16 05:21:27.14	5.10	7.71	-40.2	-51.1	3.8	8.46e-01	0	56	104	0	51	12261
2026-01-16 05:21:31.19	4.77	7.99	-40.2	-51.0	3.8	8.46e-01	0	56	104	0	51	12219
2026-01-16 05:21:35.22	4.43	8.27	-40.3	-51.2	3.8	8.45e-01	0	57	104	0	51	12441
2026-01-16 05:21:39.26	4.09	8.55	-40.3	-51.2	3.8	8.46e-01	0	57	104	0	51	12433
2026-01-16 05:21:43.30	3.74	8.84	-40.2	-51.1	3.8	8.47e-01	0	57	104	0	51	12373
2026-01-16 05:21:47.34	3.38	9.12	-40.3	-51.2	3.8	8.47e-01	0	57	104	0	51	12441
2026-01-16 05:21:51.38	3.01	9.41	-40.1	-51.1	3.8	8.45e-01	0	57	104	0	51	12333
2026-01-16 05:21:55.41	2.64	9.71	-40.3	-51.2	3.8	8.46e-01	0	57	104	0	51	12496
2026-01-16 05:21:59.45	2.26	10.00	-40.2	-51.2	3.8	8.46e-01	0	58	104	0	51	12484
2026-01-16 05:22:03.49	1.87	10.30	-40.4	-51.3	3.8	8.46e-01	0	58	104	0	51	12609
2026-01-16 05:22:07.53	1.47	10.60	-40.3	-51.3	3.8	8.47e-01	0	58	104	0	51	12532
2026-01-16 05:22:11.57	1.06	10.90	-40.5	-51.5	3.8	8.46e-01	0	58	104	0	51	12813
2026-01-16 05:22:15.61	0.64	11.20	-40.2	-51.3	3.8	8.46e-01	0	58	104	0	51	12558
2026-01-16 05:22:19.65	0.22	11.51	-40.1	-51.2	3.8	8.46e-01	0	58	104	0	51	12464
2026-01-16 05:22:23.69	359.78	11.82	-41.0	-51.9	3.8	8.47e-01	0	58	104	0	51	13493
2026-01-16 05:22:27.73	359.34	12.13	-40.4	-51.4	3.8	8.46e-01	0	58	104	0	51	12780
2026-01-16 05:22:31.77	358.89	12.44	-40.3	-51.1	3.8	8.46e-01	0	58	104	0	51	12342
2026-01-16 05:22:35.81	358.42	12.75	-42.1	-50.2	4.2	8.27e-01	0	58	0	0	53	9910
2026-01-16 05:22:39.85	357.95	13.07	-39.7	-43.3	8.7	4.23e-02	0	58	0	14680064	50	5322
2026-01-16 05:22:43.89	357.46	13.39	-38.2	-40.8	11.1	1.36e-03	0	58	0	42991616	47	4758
2026-01-16 05:22:47.93	356.97	13.71	-37.1	-39.2	12.8	9.04e-05	0	59	0	72351744	45	4441
2026-01-16 05:22:51.97	356.46	14.04	-37.6	-39.9	12.0	2.69e-04	0	59	0	101711872	44	5097
2026-01-16 05:22:56.01	355.94	14.36	-40.1	-44.9	6.5	2.09e-01	0	59	0	131072000	49	6780
2026-01-16 05:23:00.04	355.41	14.69	-41.1	-50.6	3.8	8.46e-01	0	59	104	137363456	51	11678
2026-01-16 05:23:04.08	354.87	15.02	-41.1	-51.9	3.8	8.45e-01	0	59	104	137363456	51	13483
2026-01-16 05:23:08.12	354.32	15.35	-40.6	-51.8	3.8	8.46e-01	0	59	104	137363456	52	12575
2026-01-16 05:23:12.15	353.75	15.68	-40.9	-51.9	3.8	8.46e-01	0	59	104	137363456	52	12774
2026-01-16 05:23:16.19	353.17	16.01	-40.8	-52.0	3.8	8.46e-01	0	59	104	137363456	51	13722
2026-01-16 05:23:20.22	352.58	16.35	-40.9	-52.0	3.8	8.46e-01	0	59	104	137363456	51	13720
2026-01-16 05:23:24.26	351.97	16.69	-40.6	-52.0	3.8	8.46e-01	0	59	104	137363456	51	13670
2026-01-16 05:23:28.30	351.35	17.02	-41.0	-52.0	3.8	8.46e-01	0	59	104	137363456	51	13670
2026-01-16 05:23:32.33	350.71	17.36	-40.9	-52.3	3.8	8.47e-01	0	59	104	137363456	51	14116
2026-01-16 05:23:36.37	350.06	17.70	-41.2	-52.0	3.8	8.46e-01	0	60	104	137363456	52	12928
2026-01-16 05:23:40.41	349.39	18.05	-41.1	-52.1	3.8	8.45e-01	0	59	104	137363456	52	13074
2026-01-16 05:23:44.44	348.71	18.39	-41.2	-52.2	3.8	8.47e-01	0	59	104	137363456	52	13194
2026-01-16 05:23:48.48	348.02	18.73	-41.3	-52.2	3.8	8.47e-01	0	59	104	137363456	52	13141
2026-01-16 05:23:52.52	347.30	19.07	-41.4	-52.4	3.8	8.46e-01	0	60	104	137363456	52	13542
2026-01-16 05:23:56.56	346.57	19.42	-41.6	-52.4	3.8	8.46e-01	0	60	104	137363456	52	13439
2026-01-16 05:24:00.60	345.82	19.76	-41.6	-52.3	3.8	8.46e-01	0	60	104	137363456	52	13388
2026-01-16 05:24:04.63	345.06	20.10	-41.3	-51.9	3.8	8.46e-01	0	60	104	137363456	52	12732
2026-01-16 05:24:08.67	344.28	20.44	-41.3	-48.9	4.0	8.46e-01	0	60	104	137363456	52	9058
2026-01-16 05:24:12.71	343.48	20.78	-41.4	-46.4	6.3	2.75e-01	0	60	0	142606336	53	6357
2026-01-16 05:24:16.75	342.66	21.12	-39.3	-42.1	10.7	5.49e-03	0	60	0	170917888	49	4915
2026-01-16 05:24:20.79	341.82	21.46	-36.8	-38.6	14.3	2.20e-06	0	60	0	200278016	44	4342
2026-01-16 05:24:24.83	340.97	21.79	-35.9	-37.4	15.5	0.00e+00	0	60	0	229638144	42	4280
2026-01-16 05:24:28.87	340.09	22.12	-36.5	-38.1	15.3	0.00e+00	0	60	0	258998272	43	4374
2026-01-16 05:24:32.91	339.20	22.45	-35.9	-37.2	16.9	0.00e+00	0	60	0	288358400	42	4187
2026-01-16 05:24:36.95	338.29	22.78	-35.8	-37.1	17.3	0.00e+00	0	60	0	316669952	42	4103
2026-01-16 05:24:40.99	337.35	23.10	-35.8	-37.1	17.4	0.00e+00	0	60	0	346030080	42	4133
2026-01-16 05:24:45.03	336.40	23.42	-36.0	-37.2	17.4	0.00e+00	0	60	0	375390208	42	4184
2026-01-16 05:24:49.06	335.43	23.73	-35.7	-36.9	17.8	0.00e+00	0	60	0	404750336	42	4051
2026-01-16 05:24:53.11	334.44	24.03	-35.5	-36.7	18.0	0.00e+00	0	60	0	434110464	42	3945
2026-01-16 05:24:57.15	333.43	24.34	-35.6	-36.8	18.0	0.00e+00	0	60	0	462422016	41	4199
2026-01-16 05:25:01.18	332.40	24.63	-35.6	-36.8	18.0	0.00e+00	0	60	0	491782144	41	4206
2026-01-16 05:25:05.22	331.35	24.92	-35.9	-37.1	17.7	0.00e+00	0	60	0	521142272	41	4382
2026-01-16 05:25:09.25	330.29	25.20	-35.7	-36.9	17.9	0.00e+00	0	60	0	550502400	41	4286
2026-01-16 05:25:13.29	329.20	25.47	-35.6	-36.8	18.1	0.00e+00	0	60	0	579862528	41	4215
2026-01-16 05:25:17.34	328.09	25.73	-35.6	-36.8	18.1	0.00e+00	0	60	0	608174080	41	4197
2026-01-16 05:25:21.38	326.96	25.99	-35.7	-36.9	18.0	0.00e+00	0	60	0	637534208	41	4247
2026-01-16 05:25:25.41	325.82	26.23	-35.6	-36.7	18.1	0.00e+00	0	60	0	666894336	41	4193
2026-01-16 05:25:29.45	324.66	26.46	-35.4	-36.6	18.3	0.00e+00	0	60	0	696254464	41	4122
2026-01-16 05:25:33.49	323.48	26.68	-35.6	-36.8	18.1	0.00e+00	0	60	0	725614592	41	4204
2026-01-16 05:25:37.53	322.29	26.89	-35.6	-36.8	18.1	0.00e+00	0	60	0	754974720	41	4201
2026-01-16 05:25:41.56	321.08	27.09	-35.7	-36.9	18.1	0.00e+00	0	61	0	783286272	41	4251
2026-01-16 05:25:45.60	319.85	27.27	-35.8	-37.0	17.9	0.00e+00	0	60	0	812646400	41	4305
2026-01-16 05:25:49.65	318.61	27.45	-35.5	-36.7	18.2	0.00e+00	0	60	0	842006528	41	4181
2026-01-16 05:25:53.68	317.36	27.60	-35.7	-36.9	18.0	0.00e+00	0	60	0	871366656	41	4269
2026-01-16 05:25:57.72	316.10	27.75	-35.8	-37.0	17.9	0.00e+00	0	60	0	900726784	41	4306
2026-01-16 05:26:01.76	314.83	27.87	-35.8	-37.0	17.9	0.00e+00	0	60	0	929038336	41	4296
2026-01-16 05:26:05.80	313.54	27.99	-35.6	-36.7	18.2	0.00e+00	0	60	0	958398464	41	4185
2026-01-16 05:26:09.84	312.25	28.08	-35.4	-36.5	18.4	0.00e+00	0	60	0	987758592	41	4095
2026-01-16 05:26:13.88	310.95	28.16	-35.3	-36.4	18.5	0.00e+00	0	61	0	1017118720	41	4026
2026-01-16 05:26:17.92	309.64	28.23	-35.4	-36.6	18.3	0.00e+00	0	60	0	1046478848	41	4122
2026-01-16 05:26:21.96	308.33	28.28	-35.6	-36.8	18.2	0.00e+00	0	61	0	1075838976	41	4196
2026-01-16 05:26:26.00	307.01	28.31	-35.5	-36.6	18.3	0.00e+00	0	60	0	1104150528	41	4140
2026-01-16 05:26:30.04	305.70	28.32	-35.5	-36.7	18.2	0.00e+00	0	60	0	1133510656	41	4182
2026-01-16 05:26:34.07	304.38	28.32	-35.4	-36.5	18.4	0.00e+00	0	60	0	1162870784	41	4082
2026-01-16 05:26:38.12	303.06	28.30	-35.3	-36.4	18.5	0.00e+00	0	61	0	1192230912	41	4030
2026-01-16 05:26:42.16	301.75	28.26	-35.4	-36.6	18.3	0.00e+00	0	60	0	1221591040	41	4115
2026-01-16 05:26:46.20	300.44	28.21	-35.4	-36.6	18.4	0.00e+00	0	60	0	1249902592	41	4099
2026-01-16 05:26:50.24	299.13	28.14	-35.5	-36.7	18.2	0.00e+00	0	61	0	1279262720	41	4176
2026-01-16 05:26:54.28	297.83	28.06	-35.3	-36.4	18.5	0.00e+00	0	61	0	1308622848	41	4039
2026-01-16 05:26:58.32	296.54	27.96	-35.3	-36.5	18.4	0.00e+00	0	60	0	1337982976	41	4076
2026-01-16 05:27:02.35	295.26	27.84	-35.3	-36.5	18.4	0.00e+00	0	61	0	1366294528	41	4075
2026-01-16 05:27:06.39	293.98	27.71	-35.3	-36.5	18.4	0.00e+00	0	61	0	1395654656	41	4062
2026-01-16 05:27:10.43	292.72	27.56	-35.4	-36.6	18.3	0.00e+00	0	60	0	1425014784	41	4123
2026-01-16 05:27:14.46	291.47	27.40	-35.3	-36.4	18.5	0.00e+00	0	60	0	1454374912	41	4030
2026-01-16 05:27:18.50	290.24	27.22	-35.3	-36.4	18.5	0.00e+00	0	61	0	1483735040	41	4041
2026-01-16 05:27:22.54	289.01	27.04	-35.4	-36.6	18.4	0.00e+00	0	61	0	1512046592	41	4111
2026-01-16 05:27:26.58	287.80	26.83	-35.4	-36.5	18.4	0.00e+00	0	60	0	1541406720	41	4088
2026-01-16 05:27:30.61	286.61	26.62	-35.5	-36.6	18.3	0.00e+00	0	61	0	1570766848	41	4137
2026-01-16 05:27:34.65	285.44	26.40	-35.5	-36.7	18.2	0.00e+00	0	60	0	1600126976	41	4181
2026-01-16 05:27:38.69	284.28	26.16	-35.5	-36.7	18.2	0.00e+00	0	61	0	1629487104	41	4147
2026-01-16 05:27:42.73	283.13	25.91	-35.7	-36.9	18.0	0.00e+00	0	61	0	1657798656	41	4284
2026-01-16 05:27:46.77	282.01	25.65	-35.6	-36.8	18.1	0.00e+00	0	61	0	1687158784	41	4206
2026-01-16 05:27:50.81	280.90	25.39	-35.6	-36.8	18.1	0.00e+00	0	61	0	1716518912	41	4196
2026-01-16 05:27:54.85	279.82	25.11	-35.3	-36.5	18.4	0.00e+00	0	61	0	1745879040	41	4066
2026-01-16 05:27:58.89	278.75	24.83	-35.3	-36.5	18.4	0.00e+00	0	61	0	1775239168	41	4071
2026-01-16 05:28:02.92	277.70	24.54	-35.6	-36.8	18.1	0.00e+00	0	61	0	1804599296	41	4208
2026-01-16 05:28:06.96	276.67	24.24	-35.6	-36.8	18.0	0.00e+00	0	61	0	1832910848	41	4212
2026-01-16 05:28:11.00	275.66	23.94	-35.5	-36.7	18.1	0.00e+00	0	61	0	1862270976	41	4187
2026-01-16 05:28:15.04	274.67	23.63	-35.5	-36.7	18.2	0.00e+00	0	61	0	1891631104	41	4159
2026-01-16 05:28:19.08	273.70	23.31	-35.7	-37.0	17.9	0.00e+00	0	61	0	1920991232	41	4302
2026-01-16 05:28:23.12	272.75	22.99	-35.7	-36.9	17.9	0.00e+00	0	61	0	1950351360	41	4282
2026-01-16 05:28:27.16	271.82	22.67	-35.6	-36.8	18.0	0.00e+00	0	61	0	1978662912	41	4213
2026-01-16 05:28:31.20	270.91	22.34	-35.7	-36.9	17.9	0.00e+00	0	61	0	2008023040	41	4264
2026-01-16 05:28:35.24	270.02	22.01	-36.0	-37.2	17.6	0.00e+00	0	61	0	2037383168	41	4420
2026-01-16 05:28:39.27	269.15	21.68	-35.9	-37.1	17.7	0.00e+00	0	61	0	2066743296	41	4360
2026-01-16 05:28:43.31	268.29	21.34	-35.7	-36.9	17.9	0.00e+00	0	61	0	2096103424	41	4275
2026-01-16 05:28:47.35	267.45	21.00	-35.9	-37.1	17.7	0.00e+00	0	61	0	2124414976	41	4365
2026-01-16 05:28:51.39	266.64	20.66	-36.0	-37.2	17.5	0.00e+00	0	61	0	2153775104	41	4441
2026-01-16 05:28:55.42	265.84	20.32	-36.2	-37.5	17.2	0.00e+00	0	61	0	2183135232	42	4330
2026-01-16 05:28:59.46	265.06	19.98	-36.0	-37.3	17.5	0.00e+00	0	61	0	2212495360	42	4197
2026-01-16 05:29:03.50	264.29	19.63	-36.0	-37.3	17.5	0.00e+00	0	61	0	2240806912	42	4207
2026-01-16 05:29:07.54	263.55	19.29	-36.4	-37.8	17.0	0.00e+00	0	61	0	2270167040	42	4447
2026-01-16 05:29:11.58	262.81	18.94	-36.6	-37.9	16.9	0.00e+00	0	61	0	2299527168	42	4525
2026-01-16 05:29:15.61	262.10	18.60	-36.5	-37.9	16.8	0.00e+00	0	61	0	2328887296	42	4518
2026-01-16 05:29:19.65	261.40	18.26	-36.4	-37.8	16.9	0.00e+00	0	61	0	2358247424	42	4454
2026-01-16 05:29:23.69	260.72	17.91	-36.5	-37.9	16.9	0.00e+00	0	61	0	2386558976	42	4495
2026-01-16 05:29:27.73	260.06	17.57	-36.6	-38.0	16.7	0.00e+00	0	61	0	2415919104	42	4549
2026-01-16 05:29:31.77	259.40	17.23	-36.7	-38.1	16.6	0.00e+00	0	61	0	2445279232	43	4346
2026-01-16 05:29:35.81	258.77	16.89	-36.9	-38.3	16.3	0.00e+00	0	61	0	2474639360	43	4493
2026-01-16 05:29:39.85	258.14	16.55	-37.1	-38.5	16.1	0.00e+00	0	61	0	2503999488	43	4596
2026-01-16 05:29:43.89	257.54	16.21	-37.4	-38.9	15.9	0.00e+00	0	61	0	2532311040	44	4541
2026-01-16 05:29:47.93	256.94	15.87	-37.5	-39.0	15.7	0.00e+00	0	61	0	2561671168	44	4593
2026-01-16 05:29:51.96	256.36	15.54	-37.6	-39.2	15.6	0.00e+00	0	61	0	2591031296	44	4660
2026-01-16 05:29:56.00	255.79	15.20	-37.6	-39.2	15.6	0.00e+00	0	61	0	2620391424	45	4403
2026-01-16 05:30:00.04	255.24	14.87	-37.4	-38.9	15.8	0.00e+00	0	61	0	2649751552	45	4280
2026-01-16 05:30:04.08	254.69	14.54	-37.8	-39.4	15.4	0.00e+00	0	61	0	2679111680	45	4496
2026-01-16 05:30:08.12	254.16	14.21	-37.8	-39.4	15.3	0.00e+00	0	61	0	2707423232	45	4530
2026-01-16 05:30:12.15	253.64	13.89	-37.6	-39.2	15.5	0.00e+00	0	61	0	2736783360	45	4416
2026-01-16 05:30:16.19	253.14	13.56	-37.6	-39.2	15.5	0.00e+00	0	61	0	2766143488	45	4407
2026-01-16 05:30:20.22	252.64	13.24	-37.8	-39.4	15.3	0.00e+00	0	61	0	2795503616	45	4502
2026-01-16 05:30:24.26	252.15	12.92	-38.0	-39.6	15.0	0.00e+00	0	61	0	2824863744	45	4641
2026-01-16 05:30:28.30	251.68	12.60	-38.2	-39.9	14.7	0.00e+00	0	61	0	2853175296	46	4538
2026-01-16 05:30:32.34	251.21	12.29	-38.3	-40.1	14.5	0.00e+00	0	61	0	2882535424	46	4608
2026-01-16 05:30:36.38	250.76	11.97	-38.3	-40.1	14.5	0.00e+00	0	61	0	2911895552	46	4617
2026-01-16 05:30:40.42	250.31	11.66	-38.3	-40.0	14.6	0.00e+00	0	61	0	2941255680	46	4591
2026-01-16 05:30:44.46	249.88	11.35	-38.2	-40.0	14.6	0.00e+00	0	61	0	2970615808	46	4546
2026-01-16 05:30:48.50	249.45	11.05	-38.1	-39.8	14.7	0.00e+00	0	61	0	2998927360	46	4474
2026-01-16 05:30:52.54	249.03	10.74	-38.1	-39.8	14.8	0.00e+00	0	61	0	3028287488	46	4444
2026-01-16 05:30:56.58	248.62	10.44	-38.1	-39.8	14.7	1.10e-06	0	61	0	3057647616	46	4454
2026-01-16 05:31:00.61	248.23	10.14	-38.3	-40.1	14.4	0.00e+00	0	61	0	3087007744	46	4623
2026-01-16 05:31:04.65	247.83	9.85	-38.7	-40.6	13.9	3.40e-06	0	61	0	3115319296	47	4615
2026-01-16 05:31:08.69	247.45	9.55	-38.9	-40.9	13.5	1.37e-05	0	61	0	3144679424	47	4783
2026-01-16 05:31:12.73	247.07	9.26	-39.0	-41.0	13.3	1.60e-05	0	61	0	3174039552	47	4867
2026-01-16 05:31:16.77	246.70	8.97	-39.0	-41.0	13.3	1.60e-05	0	61	0	3203399680	47	4866
2026-01-16 05:31:20.81	246.34	8.68	-39.0	-41.0	13.3	2.17e-05	0	61	0	3232759808	47	4819
2026-01-16 05:31:24.85	245.99	8.39	-38.9	-40.9	13.4	1.71e-05	0	61	0	3261071360	47	4762
2026-01-16 05:31:28.89	245.64	8.11	-38.9	-40.9	13.3	1.94e-05	0	61	0	3290431488	47	4813
2026-01-16 05:31:32.93	245.30	7.83	-45.2	-56.6	3.8	8.47e-01	0	61	104	3304062976	60	13795
2026-01-16 05:31:36.96	244.97	7.55	-45.6	-56.9	3.8	8.45e-01	0	61	104	3304062976	60	14324
2026-01-16 05:31:41.01	244.64	7.27	-45.6	-57.0	3.8	8.47e-01	0	61	104	3304062976	60	14476
2026-01-16 05:31:45.04	244.32	7.00	-45.6	-56.9	3.8	8.47e-01	0	61	104	3304062976	60	14363
2026-01-16 05:31:49.08	244.01	6.72	-45.3	-56.9	3.8	8.45e-01	0	61	104	3304062976	60	14245
2026-01-16 05:31:53.11	243.70	6.45	-45.5	-56.9	3.8	8.47e-01	0	61	104	3304062976	60	14212
2026-01-16 05:31:57.15	243.40	6.18	-45.5	-56.8	3.8	8.45e-01	0	62	104	3304062976	60	14204
2026-01-16 05:32:01.19	243.10	5.92	-45.5	-56.9	3.8	8.46e-01	0	61	104	3304062976	60	14316
2026-01-16 05:32:05.23	242.81	5.65	-45.5	-56.8	3.8	8.47e-01	0	61	104	3304062976	60	14172
2026-01-16 05:32:09.27	242.52	5.39	-45.5	-56.9	3.8	8.46e-01	0	61	104	3304062976	60	14232
2026-01-16 05:32:13.31	242.24	5.13	-45.5	-56.9	3.8	8.46e-01	0	61	104	3304062976	60	14229
2026-01-16 05:32:17.35	241.97	4.87	-45.5	-56.8	3.8	8.46e-01	0	61	104	3304062976	60	14161
2026-01-16 05:32:21.39	241.70	4.61	-45.5	-56.8	3.8	8.46e-01	0	61	104	3304062976	60	14175
2026-01-16 05:32:25.43	241.43	4.35	-45.5	-56.8	3.8	8.45e-01	0	61	104	3304062976	60	14167
2026-01-16 05:32:29.48	241.17	4.10	-45.5	-56.8	3.8	8.46e-01	0	61	104	3304062976	60	14159
2026-01-16 05:32:33.52	240.91	3.85	-45.5	-56.8	3.8	8.47e-01	0	61	104	3304062976	60	14067
2026-01-16 05:32:37.56	240.66	3.60	-45.5	-56.8	3.8	8.47e-01	0	61	104	3304062976	60	14105
2026-01-16 05:32:41.60	240.41	3.35	-45.4	-56.8	3.8	8.46e-01	0	61	104	3304062976	60	14154
2026-01-16 05:32:45.64	240.17	3.10	-45.4	-56.8	3.8	8.47e-01	0	61	104	3304062976	60	14101
2026-01-16 05:32:49.68	239.93	2.86	-45.5	-56.8	3.8	8.47e-01	0	61	104	3304062976	60	14070
2026-01-16 05:32:53.72	239.70	2.62	-45.5	-56.8	3.8	8.46e-01	0	61	104	3304062976	60	14149
2026-01-16 05:32:57.77	239.46	2.37	-45.4	-56.8	3.8	8.45e-01	0	62	104	3304062976	60	14084
2026-01-16 05:33:01.81	239.24	2.13	-45.4	-56.8	3.8	8.46e-01	0	61	104	3304062976	60	14146

#Closed at: 2026-01-16 05:33:04
#Recorded file [3304 MB]: D:/lorett/data/31039_260116_081958.dat