passes_logs/2026/01/16/R2.0S_Moscow/R2.0S_Moscow__20260116_092657_NOAA_20_JPSS-1_rec.log

#Pass ID: 20260116_092657_NOAA 20 (JPSS-1)
#Satellite: NOAA 20 (JPSS-1)
#Configuration: NOAA 20
#almurnet v.1.7.20251203
#Start time: 2026-01-16 09:26:57

#Version: 2.2.20231116
#Station: R2.0S_Moscow
#Location: 37.707566 lon 55.798166 lat
#TLE: 1 43013U 17073A   26015.47098083  .00000029  00000+0  34851-4 0  9997
#TLE: 2 43013  98.7636 316.4053 0001479  38.6686 321.4595 14.19536048422808

#Time	Az	El	Level	Level2	SNR	BER	BlckErr	Temp	State	Recorded	gain1	gain2
2026-01-16 09:26:57.80	146.85	2.03	-43.9	-58.5	3.8	1.49e+00	0	53	0	0	58	20375
2026-01-16 09:27:01.83	146.78	2.28	-43.9	-58.5	3.8	1.49e+00	0	53	104	0	58	20417
2026-01-16 09:27:05.88	146.70	2.55	-43.9	-58.5	3.8	1.49e+00	0	53	104	0	58	20331
2026-01-16 09:27:09.92	146.62	2.81	-43.7	-58.4	3.8	1.49e+00	0	54	104	0	58	20233
2026-01-16 09:27:13.96	146.54	3.08	-43.8	-58.5	3.8	1.49e+00	0	54	104	0	58	20331
2026-01-16 09:27:18.00	146.46	3.35	-43.8	-58.5	3.8	1.49e+00	0	54	104	0	58	20388
2026-01-16 09:27:22.04	146.38	3.62	-43.9	-58.5	3.8	1.49e+00	0	54	104	0	58	20328
2026-01-16 09:27:26.09	146.29	3.89	-43.9	-58.5	3.8	1.49e+00	0	55	104	0	58	20304
2026-01-16 09:27:30.13	146.21	4.17	-43.8	-58.4	3.8	1.49e+00	0	55	104	0	58	20149
2026-01-16 09:27:34.16	146.12	4.45	-43.5	-58.0	3.8	1.49e+00	0	55	104	0	58	19291
2026-01-16 09:27:38.20	146.03	4.73	-43.6	-57.3	3.8	1.49e+00	0	55	104	0	58	17776
2026-01-16 09:27:42.25	145.93	5.02	-43.5	-57.2	3.8	1.49e+00	0	56	104	0	58	17621
2026-01-16 09:27:46.28	145.84	5.30	-43.9	-58.3	3.8	1.49e+00	0	56	104	0	58	20003
2026-01-16 09:27:50.33	145.74	5.60	-43.8	-57.9	3.8	1.49e+00	0	56	104	0	58	18995
2026-01-16 09:27:54.37	145.64	5.89	-43.7	-56.6	3.8	1.49e+00	0	56	104	0	58	16373
2026-01-16 09:27:58.41	145.54	6.19	-43.5	-55.3	4.1	1.47e+00	0	56	0	0	57	14966
2026-01-16 09:28:02.45	145.44	6.49	-43.5	-54.6	4.3	1.34e+00	0	56	0	0	57	13847
2026-01-16 09:28:06.49	145.33	6.80	-43.6	-56.0	4.0	1.48e+00	0	57	104	0	57	16181
2026-01-16 09:28:10.54	145.22	7.10	-43.7	-58.3	3.8	1.49e+00	0	57	104	0	58	19966
2026-01-16 09:28:14.58	145.11	7.42	-43.4	-54.9	4.2	1.44e+00	0	57	0	0	58	13456
2026-01-16 09:28:18.62	145.00	7.73	-42.8	-50.0	7.1	1.91e-01	0	57	0	6291456	57	8160
2026-01-16 09:28:22.66	144.88	8.05	-42.1	-47.7	9.2	1.98e-02	0	57	0	14680064	55	6997
2026-01-16 09:28:26.70	144.77	8.38	-43.0	-52.2	5.5	5.71e-02	0	57	0	17825792	57	10491
2026-01-16 09:28:30.74	144.64	8.70	-41.9	-47.0	9.9	9.54e-03	0	58	0	20971520	54	6860
2026-01-16 09:28:34.78	144.52	9.04	-41.7	-46.5	10.6	4.40e-03	0	58	0	28311552	54	6457
2026-01-16 09:28:38.82	144.39	9.37	-41.7	-46.6	10.5	3.68e-03	0	58	0	36700160	54	6557
2026-01-16 09:28:42.86	144.26	9.71	-41.8	-46.5	10.8	3.84e-03	0	58	0	44040192	54	6478
2026-01-16 09:28:46.90	144.12	10.06	-41.8	-46.3	11.0	1.86e-03	0	58	0	51380224	54	6340
2026-01-16 09:28:50.94	143.99	10.41	-41.9	-46.6	10.9	2.62e-03	0	58	0	58720256	54	6515
2026-01-16 09:28:54.98	143.85	10.76	-41.9	-46.3	11.1	1.46e-03	0	58	0	67108864	54	6315
2026-01-16 09:28:59.01	143.70	11.12	-41.8	-46.1	11.4	1.10e-03	0	59	0	74448896	54	6135
2026-01-16 09:29:03.05	143.55	11.49	-41.8	-46.2	11.4	1.08e-03	0	59	0	81788928	54	6235
2026-01-16 09:29:07.09	143.40	11.86	-41.7	-45.8	11.8	1.10e-03	0	59	0	89128960	54	5964
2026-01-16 09:29:11.13	143.24	12.23	-41.6	-45.8	11.8	2.34e-03	0	59	0	96468992	53	6294
2026-01-16 09:29:15.17	143.08	12.62	-41.7	-45.9	11.6	1.08e-03	0	59	0	104857600	54	6011
2026-01-16 09:29:19.21	142.91	13.00	-41.8	-45.9	11.9	4.36e-04	0	59	0	112197632	54	6024
2026-01-16 09:29:23.25	142.74	13.40	-41.8	-45.8	12.0	3.97e-04	0	59	0	119537664	54	5979
2026-01-16 09:29:27.29	142.56	13.80	-41.7	-45.7	12.2	2.81e-04	0	59	0	126877696	54	5880
2026-01-16 09:29:31.33	142.38	14.20	-41.7	-45.6	12.3	1.92e-04	0	59	0	135266304	54	5843
2026-01-16 09:29:35.37	142.20	14.62	-41.8	-45.6	12.3	5.22e-04	0	59	0	142606336	54	5855
2026-01-16 09:29:39.41	142.00	15.04	-41.7	-45.4	12.6	1.53e-04	0	59	0	149946368	54	5711
2026-01-16 09:29:43.44	141.81	15.46	-41.7	-45.4	12.7	7.73e-04	0	59	0	157286400	54	5685
2026-01-16 09:29:47.48	141.60	15.90	-41.9	-45.8	12.3	1.75e-04	0	60	0	164626432	54	5960
2026-01-16 09:29:51.52	141.39	16.34	-41.8	-45.6	12.4	1.43e-04	0	59	0	173015040	54	5848
2026-01-16 09:29:55.56	141.18	16.79	-41.6	-45.3	12.8	5.29e-04	0	59	0	180355072	53	5980
2026-01-16 09:29:59.60	140.95	17.24	-41.9	-45.7	12.4	1.75e-04	0	60	0	187695104	54	5914
2026-01-16 09:30:03.64	140.72	17.71	-42.0	-45.9	12.2	2.30e-04	0	60	0	195035136	54	6017
2026-01-16 09:30:07.67	140.48	18.18	-41.8	-45.4	12.8	7.93e-05	0	59	0	203423744	54	5709
2026-01-16 09:30:11.71	140.24	18.66	-41.8	-45.5	12.7	5.03e-05	0	60	0	210763776	54	5769
2026-01-16 09:30:15.75	139.98	19.15	-41.8	-45.5	12.7	1.20e-04	0	60	0	218103808	54	5760
2026-01-16 09:30:19.79	139.72	19.65	-41.7	-45.2	13.1	4.27e-05	0	60	0	225443840	54	5574
2026-01-16 09:30:23.82	139.44	20.16	-41.8	-45.5	12.8	4.19e-05	0	60	0	232783872	54	5761
2026-01-16 09:30:27.86	139.16	20.68	-41.8	-45.4	12.9	5.26e-05	0	60	0	241172480	54	5722
2026-01-16 09:30:31.90	138.87	21.21	-41.7	-45.2	13.1	2.74e-05	0	60	0	248512512	54	5569
2026-01-16 09:30:35.94	138.57	21.75	-41.9	-45.5	12.8	3.43e-05	0	60	0	255852544	54	5759
2026-01-16 09:30:39.98	138.25	22.31	-41.8	-45.3	13.1	3.81e-05	0	60	0	263192576	54	5627
2026-01-16 09:30:44.02	137.92	22.87	-42.0	-45.8	12.6	7.01e-05	0	60	0	271581184	54	5924
2026-01-16 09:30:48.06	137.58	23.44	-42.1	-46.0	12.4	1.38e-04	0	60	0	278921216	54	6073
2026-01-16 09:30:52.09	137.23	24.03	-42.2	-46.0	12.4	1.51e-04	0	60	0	286261248	54	6098
2026-01-16 09:30:56.13	136.87	24.63	-42.5	-46.8	11.6	7.18e-04	0	60	0	293601280	55	6298
2026-01-16 09:31:00.17	136.49	25.24	-42.6	-46.8	11.6	6.54e-04	0	60	0	300941312	55	6306
2026-01-16 09:31:04.21	136.09	25.86	-43.1	-47.9	10.6	2.55e-03	0	60	0	309329920	56	6794
2026-01-16 09:31:08.24	135.68	26.50	-43.1	-47.9	10.6	2.97e-03	0	60	0	316669952	56	6762
2026-01-16 09:31:12.28	135.25	27.15	-43.4	-48.7	9.8	9.63e-03	0	60	0	324009984	57	7008
2026-01-16 09:31:16.32	134.80	27.81	-43.4	-48.6	10.0	8.21e-03	0	60	0	331350016	57	6883
2026-01-16 09:31:20.35	134.33	28.49	-43.6	-49.1	9.4	1.77e-02	0	60	0	339738624	57	7361
2026-01-16 09:31:24.39	133.84	29.18	-43.5	-48.7	9.8	1.04e-02	0	60	0	347078656	57	7031
2026-01-16 09:31:28.43	133.33	29.89	-43.5	-48.8	9.7	1.22e-02	0	60	0	354418688	57	7085
2026-01-16 09:31:32.47	132.80	30.61	-43.4	-48.4	10.1	6.77e-03	0	60	0	361758720	57	6787
2026-01-16 09:31:36.51	132.24	31.35	-43.3	-48.3	10.3	6.75e-03	0	60	0	369098752	57	6697
2026-01-16 09:31:40.54	131.65	32.10	-43.3	-48.3	10.3	4.52e-03	0	60	0	377487360	57	6679
2026-01-16 09:31:44.58	131.04	32.87	-43.3	-48.1	10.5	5.19e-03	0	61	0	384827392	57	6557
2026-01-16 09:31:48.62	130.39	33.66	-43.3	-48.2	10.4	3.79e-03	0	60	0	392167424	57	6646
2026-01-16 09:31:52.65	129.71	34.46	-43.4	-48.2	10.5	4.63e-03	0	60	0	399507456	57	6627
2026-01-16 09:31:56.69	129.00	35.28	-43.7	-49.3	9.3	1.58e-02	0	61	0	406847488	58	7090
2026-01-16 09:32:00.73	128.25	36.11	-43.8	-49.6	9.1	2.26e-02	0	61	0	415236096	58	7327
2026-01-16 09:32:04.77	127.45	36.96	-43.9	-49.6	9.0	2.53e-02	0	61	0	422576128	58	7369
2026-01-16 09:32:08.80	126.62	37.83	-43.9	-49.9	8.8	3.53e-02	0	61	0	429916160	58	7554
2026-01-16 09:32:12.85	125.74	38.71	-43.9	-49.6	9.0	2.11e-02	0	61	0	437256192	58	7321
2026-01-16 09:32:16.88	124.81	39.61	-44.0	-50.1	8.5	3.73e-02	0	61	0	445644800	58	7775
2026-01-16 09:32:20.92	123.82	40.52	-44.2	-50.6	8.0	6.38e-02	0	61	0	452984832	58	8205
2026-01-16 09:32:24.96	122.78	41.44	-44.1	-50.5	8.1	6.43e-02	0	61	0	460324864	59	7717
2026-01-16 09:32:29.00	121.67	42.38	-43.6	-48.8	9.9	1.02e-02	0	61	0	467664896	59	6296
2026-01-16 09:32:33.04	120.50	43.33	-43.4	-48.3	10.4	4.55e-03	0	61	0	475004928	58	6276
2026-01-16 09:32:37.07	119.26	44.28	-43.2	-47.7	11.0	2.09e-03	0	61	0	483393536	58	5907
2026-01-16 09:32:41.11	117.94	45.24	-43.5	-48.6	10.1	5.14e-03	0	61	0	490733568	58	6523
2026-01-16 09:32:45.15	116.53	46.21	-43.7	-49.1	9.6	8.89e-03	0	61	0	498073600	58	6957
2026-01-16 09:32:49.19	115.04	47.19	-43.5	-48.6	10.2	4.55e-03	0	61	0	505413632	58	6509
2026-01-16 09:32:53.22	113.45	48.15	-41.6	-48.3	10.1	1.46e-02	0	61	0	513802240	55	7508
2026-01-16 09:32:57.26	111.75	49.12	-40.9	-48.8	9.5	2.09e-02	0	61	0	521142272	53	8932
2026-01-16 09:33:01.30	109.94	50.08	-43.6	-48.8	9.9	1.03e-02	0	61	0	528482304	57	7106
2026-01-16 09:33:05.34	108.02	51.03	-43.2	-47.6	11.2	1.45e-03	0	61	0	535822336	57	6189
2026-01-16 09:33:09.37	105.98	51.95	-42.8	-46.9	12.0	3.30e-04	0	61	0	543162368	57	5672
2026-01-16 09:33:13.42	103.79	52.86	-42.1	-45.4	13.5	1.14e-05	0	61	0	551550976	56	5093
2026-01-16 09:33:17.45	101.48	53.73	-41.5	-44.5	14.3	7.00e-07	0	61	0	558891008	54	5150
2026-01-16 09:33:21.49	99.03	54.57	-41.9	-45.2	13.6	1.14e-05	0	61	0	566231040	54	5567
2026-01-16 09:33:25.53	96.42	55.37	-42.2	-45.7	13.1	2.21e-05	0	61	0	573571072	55	5591
2026-01-16 09:33:29.57	93.67	56.12	-42.8	-46.8	12.1	2.45e-04	0	61	0	581959680	56	5970
2026-01-16 09:33:33.60	90.78	56.80	-43.1	-47.3	11.6	4.53e-04	0	61	0	589299712	56	6305
2026-01-16 09:33:37.64	87.75	57.42	-43.5	-48.2	10.7	3.13e-03	0	61	0	596639744	57	6623
2026-01-16 09:33:41.68	84.58	57.97	-43.5	-48.4	10.5	3.92e-03	0	61	0	603979776	57	6729
2026-01-16 09:33:45.72	81.29	58.43	-43.3	-47.7	11.3	8.72e-04	0	61	0	611319808	57	6229
2026-01-16 09:33:49.76	77.89	58.81	-43.1	-47.2	11.7	4.81e-04	0	61	0	619708416	57	5896
2026-01-16 09:33:53.80	74.41	59.09	-42.7	-46.5	12.5	1.91e-04	0	61	0	627048448	57	5461
2026-01-16 09:33:57.84	70.86	59.28	-42.2	-45.6	13.4	1.06e-05	0	61	0	634388480	56	5169
2026-01-16 09:34:01.88	67.28	59.36	-42.0	-45.2	13.8	6.10e-06	0	61	0	641728512	56	4963
2026-01-16 09:34:05.92	63.69	59.34	-41.7	-44.7	14.0	7.00e-07	0	61	0	650117120	55	4977
2026-01-16 09:34:09.96	60.12	59.22	-41.4	-44.2	14.6	0.00e+00	0	61	0	657457152	54	4972
2026-01-16 09:34:14.00	56.60	59.00	-41.4	-44.3	14.4	0.00e+00	0	61	0	664797184	54	5041
2026-01-16 09:34:18.03	53.16	58.68	-41.8	-45.0	13.8	5.30e-06	0	61	0	672137216	54	5410
2026-01-16 09:34:22.07	49.80	58.27	-42.1	-45.4	13.3	2.13e-05	0	61	0	679477248	54	5715
2026-01-16 09:34:26.10	46.57	57.77	-42.4	-46.0	12.7	7.09e-05	0	61	0	687865856	55	5773
2026-01-16 09:34:30.14	43.45	57.20	-42.8	-46.9	11.9	5.03e-04	0	61	0	695205888	56	6039
2026-01-16 09:34:34.18	40.47	56.55	-42.6	-46.4	12.3	1.89e-04	0	61	0	702545920	56	5695
2026-01-16 09:34:38.22	37.64	55.85	-42.2	-45.6	13.2	4.73e-05	0	61	0	709885952	56	5193
2026-01-16 09:34:42.26	34.95	55.08	-41.9	-45.2	13.5	5.30e-06	0	61	0	718274560	55	5227
2026-01-16 09:34:46.29	32.41	54.27	-41.9	-45.1	13.4	1.14e-05	0	61	0	725614592	55	5209
2026-01-16 09:34:50.33	30.01	53.42	-42.1	-45.6	13.0	2.51e-05	0	61	0	732954624	55	5496
2026-01-16 09:34:54.37	27.75	52.54	-42.8	-46.7	12.0	5.35e-04	0	61	0	740294656	56	5899
2026-01-16 09:34:58.41	25.63	51.62	-43.2	-47.7	11.0	1.65e-03	0	61	0	747634688	57	6247
2026-01-16 09:35:02.44	23.64	50.69	-43.3	-48.0	10.6	2.82e-03	0	61	0	756023296	57	6475
2026-01-16 09:35:06.48	21.76	49.75	-43.8	-49.1	9.5	1.55e-02	0	61	0	763363328	58	6899
2026-01-16 09:35:10.52	20.00	48.79	-43.9	-49.6	8.9	2.53e-02	0	61	0	770703360	58	7362
2026-01-16 09:35:14.56	18.35	47.82	-44.2	-50.6	8.0	6.53e-02	0	61	0	778043392	58	8221
2026-01-16 09:35:18.60	16.80	46.85	-43.8	-49.4	9.2	1.72e-02	0	61	0	786432000	58	7141
2026-01-16 09:35:22.64	15.34	45.89	-43.6	-48.7	10.0	8.22e-03	0	61	0	793772032	58	6577
2026-01-16 09:35:26.68	13.97	44.92	-43.5	-48.5	10.1	5.92e-03	0	61	0	801112064	58	6483
2026-01-16 09:35:30.72	12.68	43.97	-43.1	-47.6	11.0	2.24e-03	0	61	0	808452096	57	6171
2026-01-16 09:35:34.76	11.47	43.02	-43.5	-48.7	9.8	5.98e-03	0	61	0	815792128	57	7001
2026-01-16 09:35:38.79	10.33	42.08	-43.5	-48.5	10.0	6.39e-03	0	61	0	824180736	57	6824
2026-01-16 09:35:42.83	9.25	41.15	-44.0	-50.1	8.4	3.62e-02	0	61	0	831520768	58	7731
2026-01-16 09:35:46.87	8.23	40.24	-44.1	-50.3	8.2	5.92e-02	0	61	0	838860800	58	7947
2026-01-16 09:35:50.91	7.27	39.33	-44.1	-50.4	8.1	4.13e-02	0	61	0	846200832	58	8004
2026-01-16 09:35:54.95	6.36	38.45	-44.2	-51.1	7.3	1.35e-01	0	61	0	854589440	59	8259
2026-01-16 09:35:58.99	5.50	37.58	-44.2	-50.9	7.4	1.07e-01	0	61	0	861929472	59	8082
2026-01-16 09:36:03.03	4.69	36.72	-44.2	-51.1	7.3	1.30e-01	0	61	0	869269504	59	8235
2026-01-16 09:36:07.07	3.91	35.88	-43.9	-49.9	8.5	5.43e-02	0	61	0	876609536	59	7170
2026-01-16 09:36:11.10	3.18	35.05	-43.9	-49.9	8.5	4.91e-02	0	61	0	883949568	59	7157
2026-01-16 09:36:15.14	2.48	34.25	-43.7	-49.3	9.1	2.46e-02	0	61	0	892338176	59	6678
2026-01-16 09:36:19.19	1.82	33.45	-43.6	-49.2	9.2	2.00e-02	0	61	0	899678208	59	6590
2026-01-16 09:36:23.22	1.19	32.68	-43.5	-48.8	9.6	1.62e-02	0	62	0	907018240	59	6314
2026-01-16 09:36:27.26	0.59	31.91	-43.4	-48.6	9.7	1.07e-02	0	61	0	914358272	58	6569
2026-01-16 09:36:31.30	0.01	31.17	-43.7	-49.7	8.6	3.41e-02	0	61	0	922746880	58	7397
2026-01-16 09:36:35.34	359.46	30.44	-43.6	-49.1	9.2	2.25e-02	0	61	0	930086912	58	6921
2026-01-16 09:36:39.38	358.94	29.72	-43.4	-48.8	9.5	1.26e-02	0	61	0	937426944	58	6667
2026-01-16 09:36:43.42	358.44	29.03	-43.6	-49.4	8.8	3.07e-02	0	61	0	944766976	58	7158
2026-01-16 09:36:47.46	357.96	28.34	-43.7	-49.7	8.5	3.96e-02	0	61	0	952107008	58	7387
2026-01-16 09:36:51.50	357.50	27.67	-43.6	-49.6	8.6	3.73e-02	0	61	0	960495616	58	7307
2026-01-16 09:36:55.53	357.07	27.02	-43.5	-49.2	8.9	3.05e-02	0	61	0	967835648	58	7029
2026-01-16 09:36:59.57	356.65	26.37	-43.4	-48.9	9.2	2.10e-02	0	61	0	975175680	58	6758
2026-01-16 09:37:03.61	356.24	25.74	-43.2	-48.5	9.5	1.39e-02	0	61	0	982515712	58	6488
2026-01-16 09:37:07.65	355.86	25.13	-43.3	-48.9	9.1	2.02e-02	0	62	0	990904320	58	6762
2026-01-16 09:37:11.69	355.48	24.52	-43.3	-49.1	8.8	3.13e-02	0	61	0	998244352	58	6932
2026-01-16 09:37:15.73	355.13	23.93	-43.1	-48.8	9.0	2.64e-02	0	61	0	1005584384	58	6681
2026-01-16 09:37:19.77	354.78	23.35	-42.8	-48.2	9.4	1.74e-02	0	62	0	1012924416	57	6621
2026-01-16 09:37:23.80	354.45	22.79	-42.6	-48.2	9.2	1.90e-02	0	61	0	1020264448	57	6590
2026-01-16 09:37:27.84	354.13	22.23	-42.4	-48.1	8.9	2.69e-02	0	62	0	1028653056	56	6951
2026-01-16 09:37:31.88	353.82	21.68	-41.7	-47.6	8.7	3.89e-02	0	61	0	1035993088	55	6929
2026-01-16 09:37:35.91	353.53	21.15	-41.7	-49.1	6.8	1.48e-01	0	61	0	1043333120	55	8238
2026-01-16 09:37:39.95	353.24	20.63	-41.7	-53.3	4.1	1.36e+00	0	61	0	1049624576	55	13363
2026-01-16 09:37:43.99	352.97	20.11	-41.5	-55.8	3.8	1.49e+00	0	62	104	1049624576	55	17851
2026-01-16 09:37:48.03	352.70	19.61	-40.9	-55.7	3.8	1.49e+00	0	62	104	1049624576	53	19694
2026-01-16 09:37:52.07	352.44	19.11	-40.7	-55.6	3.8	1.49e+00	0	62	104	1049624576	53	19492
2026-01-16 09:37:56.11	352.19	18.63	-40.7	-55.6	3.8	1.49e+00	0	62	104	1049624576	53	19580
2026-01-16 09:38:00.15	351.95	18.15	-41.0	-55.9	3.8	1.49e+00	0	61	104	1049624576	53	20135
2026-01-16 09:38:04.19	351.72	17.68	-40.9	-55.6	3.8	1.49e+00	0	62	104	1049624576	53	19499
2026-01-16 09:38:08.23	351.50	17.22	-40.8	-55.5	3.8	1.49e+00	0	62	104	1049624576	52	20489
2026-01-16 09:38:12.27	351.28	16.77	-40.5	-55.5	3.8	1.49e+00	0	62	104	1049624576	52	20359
2026-01-16 09:38:16.30	351.07	16.32	-40.4	-55.6	3.8	1.49e+00	0	62	104	1049624576	51	21962
2026-01-16 09:38:20.34	350.86	15.89	-40.3	-55.7	3.8	1.49e+00	0	62	104	1049624576	51	22010
2026-01-16 09:38:24.38	350.66	15.46	-39.6	-55.6	3.8	1.49e+00	0	61	104	1049624576	51	21960
2026-01-16 09:38:28.42	350.47	15.03	-40.5	-55.5	3.8	1.49e+00	0	62	104	1049624576	52	20485
2026-01-16 09:38:32.45	350.28	14.62	-40.9	-55.8	3.8	1.49e+00	0	61	104	1049624576	52	21051
2026-01-16 09:38:36.49	350.10	14.21	-41.0	-55.7	3.8	1.49e+00	0	62	104	1049624576	52	20817
2026-01-16 09:38:40.53	349.93	13.81	-40.6	-55.6	3.8	1.49e+00	0	62	104	1049624576	52	20625
2026-01-16 09:38:44.57	349.76	13.41	-40.8	-55.5	3.8	1.49e+00	0	62	104	1049624576	52	20367
2026-01-16 09:38:48.61	349.59	13.02	-41.0	-55.7	3.8	1.49e+00	0	62	104	1049624576	52	20824
2026-01-16 09:38:52.65	349.43	12.64	-40.9	-55.5	3.8	1.49e+00	0	62	104	1049624576	52	20489
2026-01-16 09:38:56.69	349.27	12.26	-41.1	-55.8	3.8	1.49e+00	0	62	104	1049624576	52	21168
2026-01-16 09:39:00.73	349.12	11.89	-40.9	-55.7	3.8	1.49e+00	0	62	104	1049624576	52	20817
2026-01-16 09:39:04.77	348.97	11.52	-41.1	-55.8	3.8	1.49e+00	0	62	104	1049624576	52	21032
2026-01-16 09:39:08.81	348.83	11.16	-41.0	-55.7	3.8	1.49e+00	0	62	104	1049624576	52	20809
2026-01-16 09:39:12.85	348.69	10.80	-41.0	-55.7	3.8	1.49e+00	0	62	104	1049624576	52	20900
2026-01-16 09:39:16.89	348.55	10.45	-41.1	-55.7	3.8	1.49e+00	0	62	104	1049624576	52	20912
2026-01-16 09:39:20.92	348.42	10.10	-41.1	-55.7	3.8	1.49e+00	0	61	104	1049624576	52	20817
2026-01-16 09:39:24.96	348.29	9.76	-41.1	-55.6	3.8	1.49e+00	0	61	104	1049624576	52	20707
2026-01-16 09:39:29.00	348.17	9.42	-41.1	-55.7	3.8	1.49e+00	0	62	104	1049624576	52	20883
2026-01-16 09:39:33.03	348.04	9.09	-41.0	-55.5	3.8	1.49e+00	0	62	104	1049624576	52	20511
2026-01-16 09:39:37.07	347.92	8.76	-41.1	-55.7	3.8	1.49e+00	0	62	104	1049624576	52	20939
2026-01-16 09:39:41.11	347.81	8.43	-41.0	-55.6	3.8	1.49e+00	0	62	104	1049624576	52	20619
2026-01-16 09:39:45.15	347.69	8.11	-41.0	-55.6	3.8	1.49e+00	0	62	104	1049624576	52	20704
2026-01-16 09:39:49.19	347.58	7.79	-42.2	-56.8	3.8	1.49e+00	0	62	104	1049624576	54	21046
2026-01-16 09:39:53.23	347.48	7.48	-45.2	-59.8	3.8	1.49e+00	0	62	104	1049624576	60	21168
2026-01-16 09:39:57.27	347.37	7.17	-45.2	-59.9	3.8	1.49e+00	0	62	104	1049624576	61	20093
2026-01-16 09:40:01.32	347.27	6.86	-45.3	-59.8	3.8	1.49e+00	0	62	104	1049624576	61	19924
2026-01-16 09:40:05.36	347.17	6.56	-45.2	-59.7	3.8	1.49e+00	0	62	104	1049624576	61	19768
2026-01-16 09:40:09.40	347.07	6.26	-45.2	-59.7	3.8	1.49e+00	0	62	104	1049624576	61	19786
2026-01-16 09:40:13.44	346.97	5.96	-44.4	-59.7	3.8	1.49e+00	0	62	104	1049624576	60	20943
2026-01-16 09:40:17.48	346.88	5.67	-45.2	-59.7	3.8	1.49e+00	0	62	104	1049624576	60	20937
2026-01-16 09:40:21.52	346.79	5.38	-45.1	-59.7	3.8	1.49e+00	0	62	104	1049624576	60	20939
2026-01-16 09:40:25.55	346.70	5.09	-45.1	-59.7	3.8	1.49e+00	0	62	104	1049624576	60	21001
2026-01-16 09:40:29.60	346.61	4.81	-45.2	-59.7	3.8	1.49e+00	0	62	104	1049624576	60	20851
2026-01-16 09:40:33.64	346.53	4.53	-45.2	-59.7	3.8	1.49e+00	0	62	104	1049624576	60	20877
2026-01-16 09:40:37.68	346.44	4.25	-45.2	-59.7	3.8	1.49e+00	0	62	104	1049624576	60	20830
2026-01-16 09:40:41.72	346.36	3.98	-45.2	-59.7	3.8	1.49e+00	0	62	104	1049624576	60	20850
2026-01-16 09:40:45.76	346.28	3.70	-45.2	-59.7	3.8	1.49e+00	0	62	104	1049624576	60	20856
2026-01-16 09:40:49.79	346.21	3.43	-45.1	-59.7	3.8	1.49e+00	0	61	104	1049624576	60	20876
2026-01-16 09:40:53.83	346.13	3.17	-45.1	-59.7	3.8	1.49e+00	0	62	104	1049624576	60	20896
2026-01-16 09:40:57.87	346.06	2.90	-45.2	-59.7	3.8	1.49e+00	0	62	104	1049624576	60	20912
2026-01-16 09:41:01.91	345.98	2.64	-45.1	-59.7	3.8	1.49e+00	0	62	104	1049624576	60	20812
2026-01-16 09:41:05.95	345.91	2.38	-45.2	-59.7	3.8	1.49e+00	0	62	104	1049624576	60	20824
2026-01-16 09:41:09.99	345.84	2.12	-45.1	-59.7	3.8	1.49e+00	0	62	104	1049624576	60	20846
2026-01-16 09:41:14.02	345.78	1.87	-45.1	-59.7	3.8	1.49e+00	0	62	104	1049624576	60	20829

#Closed at: 2026-01-16 09:41:14
#Recorded file [1049 MB]: D:/lorett/data/31039_260116_122657.dat