passes_logs/2026/01/16/R2.0S_Moscow/R2.0S_Moscow__20260116_235023_FENGYUN_3G_rec.log

#Pass ID: 20260116_235023_FENGYUN 3G
#Satellite: FENGYUN 3G
#Configuration: FENGYUN 3G
#almurnet v.1.7.20251203
#Start time: 2026-01-16 23:50:25

#Version: 2.2.20231116
#Station: R2.0S_Moscow
#Location: 37.707566 lon 55.798166 lat
#TLE: 1 56232U 23055A   26016.27117466  .00021245  00000+0  33355-3 0  9997
#TLE: 2 56232  49.9942  49.3739 0004180  33.4292 326.6938 15.53552571156398

#Time	Az	El	Level	Level2	SNR	BER	BlckErr	Temp	State	Recorded	gain1	gain2
2026-01-16 23:50:25.10	261.48	2.10	-44.2	-62.2	3.8	8.46e-01	0	51	0	0	60	28017
2026-01-16 23:50:28.12	261.25	2.30	-44.2	-62.0	3.8	8.46e-01	0	52	104	0	60	27271
2026-01-16 23:50:31.16	261.02	2.49	-44.2	-61.9	3.8	8.46e-01	0	52	104	0	60	26776
2026-01-16 23:50:34.19	260.79	2.69	-44.2	-61.8	3.8	8.47e-01	0	52	104	0	60	26477
2026-01-16 23:50:37.22	260.55	2.89	-44.2	-62.1	3.8	8.46e-01	0	52	104	0	60	27462
2026-01-16 23:50:40.25	260.31	3.10	-44.2	-62.2	3.8	8.45e-01	0	52	104	0	60	27953
2026-01-16 23:50:43.29	260.06	3.30	-44.2	-62.2	3.8	8.47e-01	0	53	104	0	60	27786
2026-01-16 23:50:46.32	259.80	3.51	-44.2	-62.0	3.8	8.46e-01	0	53	104	0	60	27358
2026-01-16 23:50:49.35	259.54	3.72	-44.2	-62.1	3.8	8.47e-01	0	53	104	0	60	27510
2026-01-16 23:50:52.39	259.28	3.93	-44.2	-61.9	3.8	8.46e-01	0	53	104	0	60	27055
2026-01-16 23:50:55.42	259.01	4.14	-44.2	-62.2	3.8	8.47e-01	0	53	104	0	60	27910
2026-01-16 23:50:58.45	258.73	4.35	-44.2	-62.3	3.8	8.45e-01	0	53	104	0	60	28029
2026-01-16 23:51:01.48	258.45	4.57	-44.2	-62.2	3.8	8.46e-01	0	54	104	0	60	27851
2026-01-16 23:51:04.52	258.16	4.79	-44.2	-61.9	3.8	8.47e-01	0	54	104	0	60	26918
2026-01-16 23:51:07.55	257.87	5.01	-44.2	-61.5	3.8	8.47e-01	0	54	104	0	60	25661
2026-01-16 23:51:10.58	257.56	5.23	-44.2	-61.4	3.8	8.46e-01	0	54	104	0	60	25372
2026-01-16 23:51:13.62	257.26	5.46	-44.2	-61.1	3.8	8.47e-01	0	54	104	0	60	24455
2026-01-16 23:51:16.65	256.94	5.69	-44.1	-60.3	3.8	8.47e-01	0	55	104	0	60	22437
2026-01-16 23:51:19.68	256.62	5.92	-44.1	-60.0	3.8	8.45e-01	0	55	104	0	60	21520
2026-01-16 23:51:22.72	256.29	6.15	-44.1	-59.3	3.9	8.43e-01	0	55	104	0	60	20037
2026-01-16 23:51:25.75	255.95	6.38	-44.0	-57.1	4.8	8.31e-01	0	55	0	0	60	15508
2026-01-16 23:51:28.78	255.61	6.62	-43.7	-53.3	7.7	4.29e-01	0	55	0	2097152	59	10537
2026-01-16 23:51:31.81	255.25	6.86	-43.4	-51.4	9.6	3.47e-02	0	55	0	5242880	58	9035
2026-01-16 23:51:34.84	254.89	7.10	-43.6	-52.6	8.4	1.59e-02	0	56	0	8912896	58	10302
2026-01-16 23:51:37.88	254.52	7.35	-44.3	-61.2	3.8	2.75e-01	0	56	104	10485760	59	26327
2026-01-16 23:51:40.91	254.14	7.60	-43.5	-52.1	8.8	3.82e-01	0	56	0	11010048	59	9260
2026-01-16 23:51:43.94	253.75	7.85	-42.0	-46.9	14.3	4.00e-05	0	56	0	14680064	56	6024
2026-01-16 23:51:46.97	253.35	8.10	-44.0	-53.8	8.1	1.10e-06	0	56	0	17825792	58	11826
2026-01-16 23:51:49.99	252.95	8.36	-42.1	-47.0	14.3	1.11e-01	0	56	0	21495808	54	6856
2026-01-16 23:51:53.02	252.53	8.62	-41.0	-44.9	16.3	2.00e-01	0	56	0	24117248	54	5357
2026-01-16 23:51:56.05	252.10	8.88	-41.0	-44.8	16.4	0.00e+00	0	56	0	27262976	54	5310
2026-01-16 23:51:59.08	251.66	9.15	-40.9	-44.7	16.6	0.00e+00	0	56	0	30932992	53	5542
2026-01-16 23:52:02.10	251.21	9.42	-40.9	-44.5	16.7	0.00e+00	0	56	0	34078720	53	5443
2026-01-16 23:52:05.13	250.75	9.69	-40.8	-44.4	16.9	0.00e+00	0	56	0	37748736	53	5373
2026-01-16 23:52:08.16	250.28	9.96	-40.9	-44.5	16.8	0.00e+00	0	56	0	40894464	53	5431
2026-01-16 23:52:11.19	249.79	10.24	-40.9	-44.4	16.8	0.00e+00	0	57	0	44564480	53	5390
2026-01-16 23:52:14.22	249.29	10.52	-40.6	-44.0	17.3	0.00e+00	0	57	0	47710208	53	5146
2026-01-16 23:52:17.24	248.78	10.80	-40.3	-43.5	17.8	0.00e+00	0	57	0	51380224	52	5141
2026-01-16 23:52:20.27	248.25	11.09	-40.6	-44.0	17.4	0.00e+00	0	57	0	54525952	52	5416
2026-01-16 23:52:23.30	247.71	11.38	-40.4	-43.6	17.8	0.00e+00	0	57	0	58195968	52	5192
2026-01-16 23:52:26.33	247.16	11.67	-40.2	-43.2	18.2	0.00e+00	0	57	0	61341696	52	4974
2026-01-16 23:52:29.36	246.59	11.97	-40.1	-43.0	18.6	0.00e+00	0	57	0	65011712	51	5108
2026-01-16 23:52:32.39	246.00	12.27	-40.1	-43.0	18.6	0.00e+00	0	57	0	68157440	51	5105
2026-01-16 23:52:35.41	245.40	12.57	-40.2	-43.2	18.4	0.00e+00	0	57	0	71827456	51	5268
2026-01-16 23:52:38.44	244.79	12.88	-40.0	-42.9	18.7	0.00e+00	0	57	0	74973184	51	5071
2026-01-16 23:52:41.47	244.15	13.19	-39.7	-42.3	19.2	0.00e+00	0	57	0	78643200	51	4756
2026-01-16 23:52:44.50	243.50	13.50	-39.5	-42.1	19.5	0.00e+00	0	58	0	81788928	50	4901
2026-01-16 23:52:47.53	242.83	13.82	-39.7	-42.4	19.3	0.00e+00	0	58	0	85458944	50	5062
2026-01-16 23:52:50.56	242.14	14.13	-39.8	-42.5	19.1	0.00e+00	0	57	0	88604672	50	5140
2026-01-16 23:52:53.59	241.43	14.45	-39.4	-41.9	19.8	0.00e+00	0	58	0	92274688	50	4789
2026-01-16 23:52:56.62	240.70	14.78	-39.4	-42.0	19.7	0.00e+00	0	57	0	95420416	50	4828
2026-01-16 23:52:59.65	239.95	15.10	-39.6	-42.3	19.5	0.00e+00	0	58	0	99090432	50	4999
2026-01-16 23:53:02.68	239.18	15.43	-39.4	-41.9	19.8	0.00e+00	0	58	0	102236160	50	4771
2026-01-16 23:53:05.71	238.38	15.76	-38.8	-41.2	20.6	0.00e+00	0	58	0	105906176	49	4653
2026-01-16 23:53:08.74	237.57	16.09	-39.2	-41.7	20.1	0.00e+00	0	58	0	109051904	49	4937
2026-01-16 23:53:11.77	236.73	16.42	-39.1	-41.4	20.3	0.00e+00	0	58	0	112721920	49	4808
2026-01-16 23:53:14.79	235.87	16.75	-39.1	-41.4	20.3	0.00e+00	0	58	0	115867648	49	4813
2026-01-16 23:53:17.82	234.98	17.09	-38.6	-40.9	20.9	0.00e+00	0	58	0	119537664	49	4506
2026-01-16 23:53:20.85	234.07	17.42	-38.8	-41.1	20.7	0.00e+00	0	58	0	122683392	49	4603
2026-01-16 23:53:23.88	233.13	17.76	-39.2	-41.6	20.2	0.00e+00	0	58	0	126353408	49	4918
2026-01-16 23:53:26.91	232.17	18.09	-38.8	-41.1	20.7	0.00e+00	0	58	0	129499136	49	4634
2026-01-16 23:53:29.93	231.18	18.43	-38.3	-40.5	21.3	0.00e+00	0	58	0	133169152	48	4562
2026-01-16 23:53:32.97	230.16	18.76	-38.6	-40.8	21.1	0.00e+00	0	58	0	136314880	48	4710
2026-01-16 23:53:35.99	229.12	19.09	-38.7	-40.9	21.0	0.00e+00	0	58	0	139984896	48	4781
2026-01-16 23:53:39.02	228.04	19.42	-38.5	-40.7	21.2	0.00e+00	0	58	0	143130624	48	4672
2026-01-16 23:53:42.04	226.95	19.74	-38.1	-40.2	21.7	0.00e+00	0	58	0	146800640	48	4393
2026-01-16 23:53:45.07	225.82	20.07	-38.0	-40.0	21.8	0.00e+00	0	58	0	149946368	47	4590
2026-01-16 23:53:48.10	224.66	20.38	-38.5	-40.6	21.3	0.00e+00	0	58	0	153616384	47	4926
2026-01-16 23:53:51.13	223.47	20.69	-38.2	-40.3	21.6	0.00e+00	0	58	0	156762112	47	4755
2026-01-16 23:53:54.16	222.25	21.00	-38.1	-40.2	21.7	0.00e+00	0	59	0	160432128	47	4658
2026-01-16 23:53:57.19	221.01	21.30	-37.8	-39.8	22.1	0.00e+00	0	59	0	163577856	47	4463
2026-01-16 23:54:00.22	219.73	21.59	-37.9	-39.9	21.9	0.00e+00	0	59	0	167247872	47	4543
2026-01-16 23:54:03.25	218.43	21.87	-37.8	-39.8	22.1	0.00e+00	0	59	0	170393600	47	4462
2026-01-16 23:54:06.28	217.10	22.14	-38.1	-40.1	21.9	0.00e+00	0	59	0	174063616	47	4621
2026-01-16 23:54:09.30	215.74	22.40	-37.9	-39.9	22.1	0.00e+00	0	59	0	177209344	47	4509
2026-01-16 23:54:12.33	214.36	22.65	-37.5	-39.4	22.5	0.00e+00	0	59	0	180879360	47	4279
2026-01-16 23:54:15.36	212.95	22.89	-37.6	-39.5	22.4	0.00e+00	0	59	0	184025088	46	4581
2026-01-16 23:54:18.39	211.51	23.11	-37.7	-39.6	22.3	0.00e+00	0	59	0	187695104	46	4632
2026-01-16 23:54:21.42	210.05	23.32	-37.4	-39.3	22.6	0.00e+00	0	58	0	190840832	46	4476
2026-01-16 23:54:24.45	208.57	23.52	-37.3	-39.2	22.7	0.00e+00	0	59	0	194510848	46	4425
2026-01-16 23:54:27.49	207.06	23.69	-37.2	-39.1	22.8	0.00e+00	0	59	0	197656576	46	4361
2026-01-16 23:54:30.51	205.55	23.85	-37.4	-39.3	22.7	0.00e+00	0	59	0	201326592	46	4445
2026-01-16 23:54:33.54	204.01	23.99	-37.3	-39.2	22.8	0.00e+00	0	59	0	204472320	46	4392
2026-01-16 23:54:36.57	202.46	24.12	-37.6	-39.6	22.4	0.00e+00	0	59	0	208142336	46	4608
2026-01-16 23:54:39.60	200.89	24.22	-37.5	-39.4	22.5	0.00e+00	0	59	0	211288064	46	4531
2026-01-16 23:54:42.63	199.31	24.30	-37.8	-39.8	22.1	0.00e+00	0	59	0	214958080	46	4759
2026-01-16 23:54:45.66	197.72	24.37	-38.1	-40.1	21.8	0.00e+00	0	59	0	218103808	46	4924
2026-01-16 23:54:48.69	196.13	24.41	-37.6	-39.5	22.4	0.00e+00	0	59	0	221773824	46	4586
2026-01-16 23:54:51.72	194.54	24.43	-37.3	-39.2	22.7	0.00e+00	0	59	0	224919552	46	4396
2026-01-16 23:54:54.75	192.94	24.43	-37.3	-39.2	22.7	0.00e+00	0	59	0	228589568	46	4409
2026-01-16 23:54:57.78	191.34	24.41	-37.6	-39.6	22.4	0.00e+00	0	59	0	231735296	46	4608
2026-01-16 23:55:00.80	189.75	24.37	-37.4	-39.3	22.6	0.00e+00	0	59	0	235405312	46	4465
2026-01-16 23:55:03.83	188.17	24.31	-37.4	-39.3	22.6	0.00e+00	0	59	0	238551040	46	4461
2026-01-16 23:55:06.86	186.59	24.22	-37.2	-39.1	22.8	0.00e+00	0	59	0	242221056	46	4350
2026-01-16 23:55:09.89	185.02	24.12	-37.3	-39.1	22.7	0.00e+00	0	59	0	245366784	46	4383
2026-01-16 23:55:12.92	183.47	24.00	-37.9	-40.0	21.9	0.00e+00	0	59	0	249036800	46	4843
2026-01-16 23:55:15.95	181.93	23.86	-37.4	-39.4	22.5	0.00e+00	0	59	0	252182528	46	4503
2026-01-16 23:55:18.97	180.41	23.70	-37.9	-39.9	22.0	0.00e+00	0	59	0	255852544	46	4789
2026-01-16 23:55:22.01	178.91	23.52	-37.4	-39.3	22.6	0.00e+00	0	59	0	258998272	46	4445
2026-01-16 23:55:25.03	177.43	23.33	-37.2	-39.1	22.8	0.00e+00	0	59	0	262668288	46	4353
2026-01-16 23:55:28.06	175.97	23.12	-37.4	-39.4	22.6	0.00e+00	0	59	0	265814016	46	4495
2026-01-16 23:55:31.09	174.53	22.90	-37.5	-39.4	22.5	0.00e+00	0	59	0	269484032	46	4535
2026-01-16 23:55:34.12	173.12	22.66	-37.2	-39.1	22.9	0.00e+00	0	59	0	272629760	46	4346
2026-01-16 23:55:37.15	171.73	22.41	-37.3	-39.2	22.7	0.00e+00	0	59	0	276299776	45	4688
2026-01-16 23:55:40.18	170.37	22.15	-37.6	-39.6	22.3	0.00e+00	0	59	0	279445504	45	4884
2026-01-16 23:55:43.20	169.05	21.88	-37.8	-39.8	22.2	0.00e+00	0	59	0	283115520	46	4710
2026-01-16 23:55:46.23	167.74	21.60	-38.1	-40.1	21.9	0.00e+00	0	59	0	286261248	47	4644
2026-01-16 23:55:49.25	166.47	21.31	-37.5	-39.5	22.5	0.00e+00	0	59	0	289931264	47	4296
2026-01-16 23:55:52.28	165.22	21.01	-38.3	-40.5	21.5	0.00e+00	0	59	0	293076992	47	4833
2026-01-16 23:55:55.31	164.00	20.70	-38.5	-40.6	21.5	0.00e+00	0	59	0	296747008	48	4612
2026-01-16 23:55:58.34	162.82	20.39	-37.9	-39.9	22.2	0.00e+00	0	59	0	299892736	47	4505
2026-01-16 23:56:01.37	161.65	20.08	-38.3	-40.4	21.6	0.00e+00	0	59	0	303562752	47	4782
2026-01-16 23:56:04.40	160.52	19.75	-38.8	-41.0	21.1	0.00e+00	0	60	0	306708480	48	4846
2026-01-16 23:56:07.43	159.42	19.43	-38.5	-40.7	21.4	0.00e+00	0	59	0	310378496	48	4674
2026-01-16 23:56:10.45	158.35	19.10	-38.6	-40.7	21.4	0.00e+00	0	59	0	313524224	48	4694
2026-01-16 23:56:13.48	157.30	18.77	-38.8	-41.0	21.1	0.00e+00	0	59	0	317194240	48	4846
2026-01-16 23:56:16.51	156.28	18.44	-38.4	-40.7	20.8	4.50e-04	0	59	0	320339968	48	4668
2026-01-16 23:56:19.54	155.29	18.10	-38.7	-41.0	20.6	1.73e-03	0	60	0	324009984	48	4823
2026-01-16 23:56:22.57	154.33	17.77	-38.5	-40.7	20.8	2.61e-03	0	59	0	327155712	48	4698
2026-01-16 23:56:25.60	153.39	17.43	-39.0	-41.4	20.3	1.44e-03	0	59	0	330825728	48	5053
2026-01-16 23:56:28.63	152.48	17.10	-38.9	-41.2	20.8	1.27e-04	0	59	0	333971456	48	4927
2026-01-16 23:56:31.66	151.59	16.76	-38.9	-41.3	20.7	1.10e-06	0	60	0	337641472	48	4993
2026-01-16 23:56:34.68	150.73	16.43	-38.9	-41.2	20.9	0.00e+00	0	59	0	340787200	48	4961
2026-01-16 23:56:37.71	149.89	16.10	-39.1	-41.5	20.6	0.00e+00	0	60	0	344457216	48	5156
2026-01-16 23:56:40.74	149.07	15.77	-39.4	-41.9	20.2	0.00e+00	0	60	0	347602944	49	5068
2026-01-16 23:56:43.77	148.27	15.44	-39.4	-41.9	20.1	0.00e+00	0	60	0	351272960	49	5063
2026-01-16 23:56:46.80	147.50	15.11	-39.4	-42.0	20.1	0.00e+00	0	59	0	354418688	49	5103
2026-01-16 23:56:49.83	146.75	14.79	-39.4	-41.9	20.1	0.00e+00	0	60	0	358088704	49	5063
2026-01-16 23:56:52.86	146.02	14.46	-39.7	-42.3	19.6	0.00e+00	0	60	0	361234432	49	5334
2026-01-16 23:56:55.89	145.31	14.14	-39.9	-42.6	19.3	0.00e+00	0	59	0	364904448	50	5206
2026-01-16 23:56:58.91	144.62	13.83	-39.7	-42.4	19.5	0.00e+00	0	60	0	368050176	50	5060
2026-01-16 23:57:01.94	143.95	13.51	-39.9	-42.6	19.2	0.00e+00	0	60	0	371720192	50	5218
2026-01-16 23:57:04.97	143.29	13.20	-39.9	-42.7	19.2	0.00e+00	0	59	0	374865920	50	5220
2026-01-16 23:57:08.00	142.66	12.89	-39.9	-42.8	19.0	0.00e+00	0	60	0	378535936	50	5282
2026-01-16 23:57:11.03	142.04	12.58	-40.1	-43.0	18.7	0.00e+00	0	59	0	381681664	50	5451
2026-01-16 23:57:14.06	141.44	12.28	-40.0	-42.9	18.7	0.00e+00	0	60	0	385351680	50	5398
2026-01-16 23:57:17.09	140.85	11.98	-40.3	-43.5	18.1	0.00e+00	0	60	0	388497408	51	5418
2026-01-16 23:57:20.11	140.28	11.68	-40.3	-43.5	17.9	0.00e+00	0	60	0	392167424	51	5448
2026-01-16 23:57:23.14	139.73	11.39	-40.3	-43.6	17.8	0.00e+00	0	60	0	395313152	51	5470
2026-01-16 23:57:26.17	139.18	11.10	-40.3	-43.7	17.4	5.95e-05	0	60	0	398983168	51	5575
2026-01-16 23:57:29.20	138.66	10.81	-39.9	-43.1	17.4	8.46e-05	0	60	0	402128896	50	5517
2026-01-16 23:57:32.23	138.14	10.53	-33.0	-48.7	10.7	6.08e-03	0	60	0	405798912	49	11112
2026-01-16 23:57:35.25	137.65	10.25	-36.8	-52.6	7.0	3.28e-01	0	60	0	408420352	55	12332
2026-01-16 23:57:38.28	137.16	9.97	-42.5	-57.8	4.1	8.19e-01	0	60	104	409468928	54	23744
2026-01-16 23:57:41.32	136.68	9.69	-42.5	-60.1	3.9	8.45e-01	0	60	104	409468928	55	29241
2026-01-16 23:57:44.35	136.22	9.42	-38.5	-57.8	3.3	8.45e-01	0	60	104	409468928	51	28082
2026-01-16 23:57:47.37	135.77	9.15	-41.5	-60.0	3.8	8.43e-01	0	60	104	409468928	54	30391
2026-01-16 23:57:50.41	135.33	8.89	-33.9	-54.8	4.5	8.36e-01	0	60	104	409468928	38	42036
2026-01-16 23:57:53.44	134.90	8.63	-29.1	-48.0	3.8	8.32e-01	0	60	104	409468928	28	34306
2026-01-16 23:57:56.47	134.48	8.37	-22.0	-43.2	4.0	8.13e-01	0	60	104	409468928	20	31182
2026-01-16 23:57:59.50	134.07	8.11	-30.6	-47.1	7.9	7.94e-01	0	60	0	409468928	26	34496
2026-01-16 23:58:02.54	133.67	7.85	-44.8	-63.1	3.9	8.07e-01	0	60	104	409468928	60	30782
2026-01-16 23:58:05.57	133.28	7.60	-45.5	-63.8	3.8	8.47e-01	0	60	104	409468928	61	31582
2026-01-16 23:58:08.60	132.90	7.35	-45.8	-64.0	3.8	8.46e-01	0	60	104	409468928	62	30590
2026-01-16 23:58:11.63	132.53	7.11	-45.8	-64.0	3.8	8.46e-01	0	60	104	409468928	62	30441
2026-01-16 23:58:14.66	132.17	6.87	-45.7	-63.8	3.8	8.45e-01	0	60	104	409468928	62	29728
2026-01-16 23:58:17.69	131.81	6.63	-45.5	-63.6	3.8	8.46e-01	0	60	104	409468928	62	29152
2026-01-16 23:58:20.73	131.47	6.39	-45.5	-63.6	3.8	8.47e-01	0	60	104	409468928	62	29134
2026-01-16 23:58:23.76	131.13	6.15	-45.5	-63.6	3.8	8.46e-01	0	60	104	409468928	62	29087
2026-01-16 23:58:26.79	130.80	5.92	-45.5	-63.6	3.8	8.46e-01	0	60	104	409468928	62	29092
2026-01-16 23:58:29.82	130.48	5.69	-45.5	-63.6	3.8	8.46e-01	0	60	104	409468928	62	29022
2026-01-16 23:58:32.85	130.16	5.46	-45.5	-63.5	3.8	8.44e-01	0	60	104	409468928	62	28940
2026-01-16 23:58:35.89	129.85	5.24	-45.5	-63.5	3.8	8.45e-01	0	60	104	409468928	62	28968
2026-01-16 23:58:38.92	129.55	5.01	-45.5	-63.5	3.8	8.47e-01	0	60	104	409468928	62	28951
2026-01-16 23:58:41.95	129.25	4.79	-45.5	-63.5	3.8	8.47e-01	0	60	104	409468928	62	28933
2026-01-16 23:58:44.99	128.96	4.57	-45.5	-63.6	3.8	8.45e-01	0	60	104	409468928	62	29043
2026-01-16 23:58:48.02	128.68	4.36	-45.5	-63.5	3.8	8.46e-01	0	60	104	409468928	62	28897
2026-01-16 23:58:51.05	128.40	4.14	-45.5	-63.5	3.8	8.45e-01	0	60	104	409468928	62	28994
2026-01-16 23:58:54.09	128.13	3.93	-45.5	-63.5	3.8	8.45e-01	0	60	104	409468928	62	28787
2026-01-16 23:58:57.12	127.86	3.72	-45.4	-63.5	3.8	8.47e-01	0	60	104	409468928	62	28880
2026-01-16 23:59:00.15	127.60	3.51	-45.4	-63.5	3.8	8.47e-01	0	60	104	409468928	62	28792
2026-01-16 23:59:03.18	127.35	3.30	-45.4	-63.5	3.8	8.47e-01	0	60	104	409468928	62	28878
2026-01-16 23:59:06.22	127.10	3.10	-45.4	-63.5	3.8	8.46e-01	0	60	104	409468928	62	28836
2026-01-16 23:59:09.25	126.86	2.90	-45.4	-63.5	3.8	8.47e-01	0	60	104	409468928	62	28762
2026-01-16 23:59:12.28	126.62	2.70	-45.4	-63.5	3.8	8.46e-01	0	60	104	409468928	62	28763
2026-01-16 23:59:15.31	126.38	2.50	-45.4	-63.5	3.8	8.46e-01	0	60	104	409468928	62	28872
2026-01-16 23:59:18.34	126.15	2.30	-45.4	-63.5	3.8	8.46e-01	0	60	104	409468928	62	28840
2026-01-16 23:59:21.38	125.92	2.10	-45.4	-63.5	3.8	8.45e-01	0	60	104	409468928	62	28750

#Closed at: 2026-01-16 23:59:23
#Recorded file [409 MB]: D:/lorett/data/31039_260117_025024.dat