passes_logs/2026/01/16/R2.0S_Moscow/R2.0S_Moscow__20260116_015447_FENGYUN_3D_rec.log

#Pass ID: 20260116_015447_FENGYUN 3D
#Satellite: FENGYUN 3D
#Configuration: FENGYUN 3D
#almurnet v.1.7.20251203
#Start time: 2026-01-16 01:54:48

#Version: 2.2.20231116
#Station: R2.0S_Moscow
#Location: 37.707566 lon 55.798166 lat
#TLE: 1 43010U 17072A   26015.49690188 -.00000192  00000+0 -69217-4 0  9996
#TLE: 2 43010  98.9932 347.3205 0002350 106.2275 253.9159 14.19694721423329

#Time	Az	El	Level	Level2	SNR	BER	BlckErr	Temp	State	Recorded	gain1	gain2
2026-01-16 01:54:48.30	15.90	2.08	-42.7	-54.5	3.8	8.46e-01	0	51	0	0	57	13598
2026-01-16 01:54:52.33	15.89	2.34	-42.7	-54.5	3.8	8.45e-01	0	51	104	0	57	13597
2026-01-16 01:54:56.36	15.87	2.60	-42.7	-54.4	3.8	8.47e-01	0	52	104	0	57	13557
2026-01-16 01:55:00.41	15.86	2.86	-42.7	-54.4	3.8	8.45e-01	0	52	104	0	57	13543
2026-01-16 01:55:04.45	15.85	3.13	-42.7	-54.4	3.8	8.46e-01	0	53	104	0	57	13521
2026-01-16 01:55:08.48	15.83	3.40	-42.7	-54.5	3.8	8.46e-01	0	53	104	0	57	13590
2026-01-16 01:55:12.52	15.82	3.67	-42.7	-54.5	3.8	8.46e-01	0	53	104	0	57	13576
2026-01-16 01:55:16.56	15.80	3.95	-42.7	-54.5	3.8	8.46e-01	0	53	104	0	57	13576
2026-01-16 01:55:20.61	15.78	4.22	-42.7	-54.4	3.8	8.46e-01	0	53	104	0	57	13540
2026-01-16 01:55:24.65	15.77	4.50	-42.7	-54.4	3.8	8.46e-01	0	54	104	0	57	13538
2026-01-16 01:55:28.69	15.75	4.79	-42.7	-54.4	3.8	8.45e-01	0	54	104	0	57	13508
2026-01-16 01:55:32.73	15.73	5.07	-42.7	-54.4	3.8	8.46e-01	0	54	104	0	57	13444
2026-01-16 01:55:36.77	15.71	5.36	-42.7	-54.4	3.8	8.47e-01	0	54	104	0	57	13501
2026-01-16 01:55:40.81	15.69	5.66	-42.7	-54.4	3.8	8.46e-01	0	55	104	0	57	13459
2026-01-16 01:55:44.86	15.67	5.95	-42.7	-54.4	3.8	8.45e-01	0	55	104	0	57	13464
2026-01-16 01:55:48.90	15.65	6.25	-42.6	-53.7	3.8	8.47e-01	0	55	104	0	57	12428
2026-01-16 01:55:52.94	15.63	6.56	-42.6	-53.5	3.8	8.46e-01	0	55	104	0	57	12203
2026-01-16 01:55:56.98	15.60	6.86	-42.3	-51.3	4.1	8.41e-01	0	56	0	0	56	10037
2026-01-16 01:56:01.02	15.58	7.17	-41.0	-46.3	6.8	2.62e-01	0	55	0	6291456	54	6296
2026-01-16 01:56:05.07	15.55	7.49	-39.0	-42.0	11.2	2.72e-03	0	56	0	28311552	50	4819
2026-01-16 01:56:09.11	15.53	7.81	-39.5	-42.9	10.2	4.70e-03	0	56	0	51380224	49	5687
2026-01-16 01:56:13.15	15.50	8.13	-40.6	-45.0	8.2	5.34e-02	0	56	0	74448896	51	6489
2026-01-16 01:56:17.19	15.47	8.46	-41.7	-50.9	3.9	6.81e-01	0	56	104	90177536	54	10708
2026-01-16 01:56:21.23	15.44	8.79	-39.2	-41.9	11.8	9.52e-04	0	56	0	110100480	50	4770
2026-01-16 01:56:25.28	15.41	9.12	-39.5	-42.4	11.4	1.25e-03	0	56	0	133169152	50	5087
2026-01-16 01:56:29.31	15.38	9.46	-39.3	-42.0	12.1	3.72e-04	0	56	0	155189248	50	4816
2026-01-16 01:56:33.35	15.35	9.81	-39.3	-41.8	12.2	2.89e-04	0	57	0	178257920	50	4754
2026-01-16 01:56:37.39	15.32	10.15	-39.2	-41.7	12.4	2.09e-04	0	57	0	201326592	50	4691
2026-01-16 01:56:41.43	15.28	10.51	-39.2	-41.6	12.5	1.60e-04	0	57	0	223346688	50	4647
2026-01-16 01:56:45.48	15.25	10.87	-39.2	-41.7	12.6	1.64e-04	0	57	0	246415360	50	4665
2026-01-16 01:56:49.52	15.21	11.23	-39.3	-41.7	12.6	1.67e-04	0	57	0	269484032	50	4694
2026-01-16 01:56:53.55	15.17	11.60	-39.2	-41.6	12.8	9.49e-05	0	57	0	292552704	50	4614
2026-01-16 01:56:57.59	15.13	11.98	-39.1	-41.5	12.9	9.26e-05	0	57	0	314572800	50	4592
2026-01-16 01:57:01.63	15.09	12.36	-39.1	-41.4	13.0	5.72e-05	0	57	0	337641472	50	4541
2026-01-16 01:57:05.67	15.04	12.75	-39.0	-41.3	13.2	4.34e-05	0	58	0	359661568	49	4726
2026-01-16 01:57:09.71	15.00	13.14	-39.0	-41.2	13.4	2.74e-05	0	57	0	382730240	49	4684
2026-01-16 01:57:13.75	14.95	13.54	-38.9	-41.2	13.5	1.37e-05	0	57	0	405798912	49	4655
2026-01-16 01:57:17.78	14.91	13.95	-38.8	-41.0	13.7	6.80e-06	0	58	0	427819008	49	4548
2026-01-16 01:57:21.82	14.86	14.36	-38.7	-40.8	14.0	4.50e-06	0	58	0	450887680	49	4444
2026-01-16 01:57:25.86	14.80	14.79	-38.5	-40.6	14.2	2.20e-06	0	58	0	473956352	49	4355
2026-01-16 01:57:29.91	14.75	15.22	-38.4	-40.4	14.5	0.00e+00	0	58	0	497025024	48	4504
2026-01-16 01:57:33.95	14.69	15.65	-38.2	-40.2	14.7	0.00e+00	0	58	0	519045120	48	4392
2026-01-16 01:57:37.99	14.64	16.10	-38.1	-40.0	14.9	0.00e+00	0	58	0	542113792	48	4320
2026-01-16 01:57:42.03	14.58	16.55	-37.9	-39.7	15.2	1.10e-06	0	58	0	564133888	47	4428
2026-01-16 01:57:46.07	14.51	17.01	-37.8	-39.6	15.3	0.00e+00	0	58	0	587202560	47	4355
2026-01-16 01:57:50.11	14.45	17.48	-37.7	-39.5	15.5	0.00e+00	0	58	0	610271232	47	4296
2026-01-16 01:57:54.15	14.38	17.96	-37.6	-39.3	15.7	0.00e+00	0	58	0	633339904	47	4228
2026-01-16 01:57:58.19	14.31	18.45	-37.6	-39.3	15.7	0.00e+00	0	59	0	655360000	47	4217
2026-01-16 01:58:02.22	14.24	18.95	-37.5	-39.2	15.9	0.00e+00	0	58	0	678428672	46	4405
2026-01-16 01:58:06.26	14.16	19.46	-37.4	-39.1	16.0	0.00e+00	0	59	0	701497344	46	4375
2026-01-16 01:58:10.30	14.08	19.98	-37.4	-39.1	16.0	0.00e+00	0	58	0	723517440	46	4344
2026-01-16 01:58:14.34	14.00	20.51	-37.4	-39.0	16.1	0.00e+00	0	59	0	746586112	46	4337
2026-01-16 01:58:18.38	13.91	21.05	-37.3	-38.9	16.3	0.00e+00	0	59	0	768606208	46	4263
2026-01-16 01:58:22.42	13.82	21.60	-37.1	-38.8	16.4	0.00e+00	0	59	0	791674880	46	4200
2026-01-16 01:58:26.46	13.73	22.17	-37.0	-38.6	16.6	0.00e+00	0	59	0	814743552	46	4112
2026-01-16 01:58:30.50	13.63	22.75	-36.8	-38.4	16.8	0.00e+00	0	59	0	836763648	45	4259
2026-01-16 01:58:34.53	13.53	23.34	-36.7	-38.3	16.9	0.00e+00	0	59	0	859832320	45	4204
2026-01-16 01:58:38.57	13.42	23.95	-36.7	-38.2	17.0	0.00e+00	0	59	0	882900992	45	4187
2026-01-16 01:58:42.61	13.31	24.57	-36.7	-38.2	17.0	0.00e+00	0	59	0	905969664	45	4172
2026-01-16 01:58:46.65	13.19	25.20	-36.7	-38.1	17.1	0.00e+00	0	59	0	927989760	45	4144
2026-01-16 01:58:50.69	13.07	25.85	-36.7	-38.2	17.1	0.00e+00	0	59	0	951058432	45	4173
2026-01-16 01:58:54.73	12.94	26.52	-36.6	-38.1	17.2	0.00e+00	0	59	0	973078528	45	4138
2026-01-16 01:58:58.77	12.81	27.20	-36.5	-37.9	17.4	0.00e+00	0	59	0	996147200	45	4049
2026-01-16 01:59:02.81	12.67	27.91	-36.4	-37.9	17.4	0.00e+00	0	59	0	1019215872	44	4268
2026-01-16 01:59:06.84	12.52	28.62	-36.5	-38.0	17.4	0.00e+00	0	59	0	1041235968	44	4302
2026-01-16 01:59:10.89	12.36	29.37	-36.6	-38.1	17.2	0.00e+00	0	59	0	1064304640	44	4391
2026-01-16 01:59:14.92	12.20	30.12	-36.6	-38.1	17.3	0.00e+00	0	59	0	1087373312	44	4349
2026-01-16 01:59:18.96	12.03	30.90	-36.5	-37.9	17.5	0.00e+00	0	59	0	1110441984	44	4282
2026-01-16 01:59:23.00	11.84	31.70	-36.2	-37.6	17.8	0.00e+00	0	59	0	1132462080	44	4106
2026-01-16 01:59:27.03	11.65	32.52	-36.0	-37.4	18.0	0.00e+00	0	59	0	1155530752	44	4031
2026-01-16 01:59:31.07	11.45	33.36	-36.0	-37.4	17.9	0.00e+00	0	59	0	1177550848	43	4257
2026-01-16 01:59:35.11	11.23	34.23	-35.9	-37.3	18.0	0.00e+00	0	59	0	1200619520	43	4216
2026-01-16 01:59:39.15	11.01	35.13	-35.7	-37.1	18.2	0.00e+00	0	60	0	1223688192	43	4126
2026-01-16 01:59:43.19	10.77	36.04	-36.1	-37.5	17.8	0.00e+00	0	59	0	1245708288	43	4314
2026-01-16 01:59:47.23	10.51	36.99	-35.7	-37.1	18.1	0.00e+00	0	60	0	1268776960	43	4129
2026-01-16 01:59:51.27	10.24	37.96	-36.1	-37.5	17.8	0.00e+00	0	60	0	1291845632	43	4323
2026-01-16 01:59:55.31	9.95	38.96	-36.1	-37.5	17.8	0.00e+00	0	59	0	1314914304	43	4304
2026-01-16 01:59:59.35	9.63	39.99	-36.2	-37.6	17.7	0.00e+00	0	60	0	1336934400	43	4366
2026-01-16 02:00:03.39	9.30	41.05	-36.7	-38.2	17.1	0.00e+00	0	60	0	1360003072	43	4679
2026-01-16 02:00:07.42	8.95	42.14	-36.5	-38.0	17.3	0.00e+00	0	60	0	1382023168	43	4571
2026-01-16 02:00:11.46	8.57	43.26	-36.5	-37.9	17.4	0.00e+00	0	60	0	1405091840	43	4523
2026-01-16 02:00:15.50	8.15	44.42	-36.4	-37.8	17.5	0.00e+00	0	60	0	1428160512	43	4483
2026-01-16 02:00:19.54	7.71	45.60	-36.7	-38.2	17.2	0.00e+00	0	60	0	1450180608	43	4668
2026-01-16 02:00:23.58	7.23	46.83	-36.5	-37.9	17.6	0.00e+00	0	60	0	1473249280	44	4265
2026-01-16 02:00:27.62	6.71	48.08	-36.1	-37.5	18.1	0.00e+00	0	60	0	1496317952	44	4052
2026-01-16 02:00:31.66	6.14	49.38	-36.3	-37.7	17.8	0.00e+00	0	60	0	1519386624	44	4174
2026-01-16 02:00:35.70	5.52	50.70	-37.4	-39.0	16.5	0.00e+00	0	60	0	1541406720	45	4557
2026-01-16 02:00:39.74	4.84	52.06	-37.8	-39.6	15.8	0.00e+00	0	60	0	1564475392	46	4616
2026-01-16 02:00:43.79	4.10	53.46	-37.9	-39.7	15.6	0.00e+00	0	60	0	1586495488	46	4680
2026-01-16 02:00:47.83	3.27	54.89	-37.6	-39.4	16.0	0.00e+00	0	60	0	1609564160	46	4512
2026-01-16 02:00:51.87	2.36	56.36	-37.2	-38.8	16.5	0.00e+00	0	60	0	1632632832	46	4238
2026-01-16 02:00:55.91	1.34	57.85	-36.6	-38.1	17.2	0.00e+00	0	60	0	1655701504	45	4143
2026-01-16 02:00:59.95	0.20	59.38	-36.7	-38.3	17.0	0.00e+00	0	60	0	1677721600	45	4197
2026-01-16 02:01:03.99	358.91	60.93	-36.3	-37.8	17.5	0.00e+00	0	60	0	1700790272	44	4204
2026-01-16 02:01:08.04	357.45	62.51	-36.0	-37.4	17.9	0.00e+00	0	60	0	1723858944	44	4037
2026-01-16 02:01:12.07	355.79	64.10	-36.0	-37.5	17.6	0.00e+00	0	60	0	1745879040	43	4311
2026-01-16 02:01:16.12	353.87	65.71	-36.2	-37.8	17.3	0.00e+00	0	60	0	1768947712	43	4459
2026-01-16 02:01:20.16	351.65	67.32	-35.2	-36.7	18.4	0.00e+00	0	60	0	1792016384	42	4146
2026-01-16 02:01:24.19	349.06	68.92	-35.1	-36.5	18.4	0.00e+00	0	60	0	1814036480	41	4330
2026-01-16 02:01:28.23	346.00	70.50	-34.9	-36.2	18.7	0.00e+00	0	60	0	1837105152	41	4180
2026-01-16 02:01:32.27	342.37	72.05	-35.0	-36.4	18.5	0.00e+00	0	60	0	1860173824	41	4267
2026-01-16 02:01:36.31	338.02	73.54	-35.0	-36.4	18.6	0.00e+00	0	60	0	1882193920	41	4243
2026-01-16 02:01:40.35	332.79	74.93	-34.6	-35.9	18.9	0.00e+00	0	60	0	1905262592	41	4049
2026-01-16 02:01:44.39	326.50	76.19	-33.9	-35.2	19.6	0.00e+00	0	60	0	1928331264	39	4156
2026-01-16 02:01:48.42	319.03	77.27	-33.6	-34.9	20.0	0.00e+00	0	60	0	1950351360	39	4020
2026-01-16 02:01:52.47	310.27	78.10	-33.4	-34.6	20.2	0.00e+00	0	60	0	1973420032	38	4129
2026-01-16 02:01:56.51	300.44	78.63	-33.8	-35.1	19.7	0.00e+00	0	60	0	1996488704	38	4359
2026-01-16 02:02:00.54	289.99	78.81	-33.6	-34.9	19.9	0.00e+00	0	60	0	2018508800	38	4250
2026-01-16 02:02:04.58	279.53	78.61	-33.5	-34.7	20.0	0.00e+00	0	60	0	2041577472	38	4179
2026-01-16 02:02:08.62	269.74	78.07	-33.5	-34.8	20.0	0.00e+00	0	60	0	2064646144	38	4202
2026-01-16 02:02:12.66	261.06	77.22	-33.6	-34.9	19.9	0.00e+00	0	60	0	2086666240	38	4274
2026-01-16 02:02:16.70	253.63	76.13	-34.0	-35.2	19.5	0.00e+00	0	60	0	2109734912	38	4441
2026-01-16 02:02:20.73	247.41	74.86	-34.2	-35.5	19.3	0.00e+00	0	60	0	2132803584	38	4577
2026-01-16 02:02:24.78	242.22	73.45	-34.7	-36.1	18.8	0.00e+00	0	60	0	2154823680	40	4345
2026-01-16 02:02:28.81	237.92	71.97	-34.8	-36.2	18.6	0.00e+00	0	60	0	2177892352	40	4412
2026-01-16 02:02:32.85	234.31	70.41	-35.1	-36.6	18.3	0.00e+00	0	60	0	2200961024	40	4614
2026-01-16 02:02:36.89	231.28	68.82	-35.3	-36.7	18.2	0.00e+00	0	60	0	2222981120	41	4432
2026-01-16 02:02:40.93	228.70	67.22	-35.5	-37.0	17.9	0.00e+00	0	60	0	2246049792	41	4592
2026-01-16 02:02:44.97	226.50	65.60	-35.6	-37.1	17.9	0.00e+00	0	60	0	2269118464	41	4623
2026-01-16 02:02:49.00	224.60	64.00	-35.1	-36.5	18.5	0.00e+00	0	60	0	2291138560	41	4311
2026-01-16 02:02:53.04	222.94	62.40	-35.3	-36.7	18.3	0.00e+00	0	60	0	2314207232	41	4407
2026-01-16 02:02:57.08	221.49	60.82	-35.4	-36.8	18.2	0.00e+00	0	60	0	2337275904	41	4477
2026-01-16 02:03:01.12	220.21	59.27	-36.0	-37.5	17.6	0.00e+00	0	60	0	2359296000	42	4566
2026-01-16 02:03:05.16	219.08	57.74	-36.2	-37.8	17.3	0.00e+00	0	60	0	2382364672	43	4449
2026-01-16 02:03:09.20	218.06	56.24	-36.5	-38.1	17.0	0.00e+00	0	60	0	2405433344	43	4622
2026-01-16 02:03:13.24	217.15	54.77	-37.0	-38.6	16.6	0.00e+00	0	60	0	2427453440	45	4372
2026-01-16 02:03:17.28	216.33	53.34	-36.6	-38.2	17.1	0.00e+00	0	60	0	2450522112	45	4149
2026-01-16 02:03:21.32	215.59	51.94	-36.7	-38.3	16.9	0.00e+00	0	60	0	2473590784	45	4217
2026-01-16 02:03:25.36	214.91	50.57	-36.2	-37.6	17.6	0.00e+00	0	60	0	2495610880	44	4140
2026-01-16 02:03:29.40	214.29	49.24	-36.3	-37.8	17.5	0.00e+00	0	60	0	2518679552	44	4204
2026-01-16 02:03:33.44	213.73	47.95	-35.8	-37.3	17.7	0.00e+00	0	60	0	2541748224	43	4226
2026-01-16 02:03:37.48	213.20	46.69	-35.6	-37.1	17.9	0.00e+00	0	60	0	2563768320	43	4116
2026-01-16 02:03:41.51	212.73	45.47	-35.9	-37.4	17.6	0.00e+00	0	60	0	2586836992	43	4263
2026-01-16 02:03:45.55	212.28	44.28	-35.8	-37.3	17.7	0.00e+00	0	60	0	2609905664	43	4201
2026-01-16 02:03:49.59	211.87	43.12	-35.9	-37.4	17.7	0.00e+00	0	60	0	2631925760	43	4254
2026-01-16 02:03:53.62	211.49	42.00	-36.0	-37.5	17.5	0.00e+00	0	60	0	2654994432	43	4315
2026-01-16 02:03:57.66	211.13	40.90	-35.5	-37.0	18.0	0.00e+00	0	60	0	2678063104	43	4069
2026-01-16 02:04:01.70	210.80	39.84	-35.2	-36.6	18.3	0.00e+00	0	60	0	2700083200	42	4130
2026-01-16 02:04:05.74	210.49	38.81	-35.2	-36.7	18.3	0.00e+00	0	60	0	2723151872	42	4152
2026-01-16 02:04:09.78	210.20	37.81	-35.1	-36.6	18.3	0.00e+00	0	60	0	2746220544	42	4106
2026-01-16 02:04:13.82	209.92	36.83	-35.2	-36.7	18.2	0.00e+00	0	60	0	2768240640	42	4157
2026-01-16 02:04:17.86	209.67	35.89	-35.3	-36.7	18.2	0.00e+00	0	60	0	2791309312	42	4179
2026-01-16 02:04:21.89	209.42	34.97	-35.2	-36.7	18.2	0.00e+00	0	61	0	2813329408	42	4168
2026-01-16 02:04:25.94	209.19	34.07	-35.4	-36.9	18.0	0.00e+00	0	60	0	2836398080	42	4244
2026-01-16 02:04:29.98	208.98	33.20	-35.4	-36.9	18.0	0.00e+00	0	60	0	2859466752	42	4265
2026-01-16 02:04:34.01	208.77	32.36	-35.7	-37.1	17.7	0.00e+00	0	60	0	2882535424	42	4390
2026-01-16 02:04:38.05	208.58	31.53	-36.0	-37.5	17.4	0.00e+00	0	60	0	2904555520	42	4590
2026-01-16 02:04:42.10	208.40	30.73	-36.0	-37.6	17.3	0.00e+00	0	60	0	2927624192	42	4622
2026-01-16 02:04:46.14	208.22	29.95	-35.9	-37.5	17.5	0.00e+00	0	60	0	2950692864	42	4549
2026-01-16 02:04:50.18	208.06	29.19	-35.8	-37.3	17.6	0.00e+00	0	60	0	2972712960	42	4449
2026-01-16 02:04:54.22	207.90	28.45	-35.7	-37.2	17.8	0.00e+00	0	60	0	2995781632	42	4396
2026-01-16 02:04:58.27	207.75	27.73	-35.7	-37.2	17.7	0.00e+00	0	60	0	3018850304	42	4399
2026-01-16 02:05:02.31	207.60	27.02	-35.8	-37.3	17.6	0.00e+00	0	60	0	3040870400	42	4486
2026-01-16 02:05:06.35	207.47	26.34	-35.9	-37.5	17.4	0.00e+00	0	60	0	3063939072	42	4572
2026-01-16 02:05:10.38	207.34	25.67	-35.9	-37.4	17.4	0.00e+00	0	60	0	3087007744	42	4543
2026-01-16 02:05:14.42	207.21	25.02	-35.9	-37.4	17.5	0.00e+00	0	60	0	3109027840	42	4517
2026-01-16 02:05:18.46	207.09	24.38	-36.0	-37.5	17.3	0.00e+00	0	60	0	3132096512	42	4586
2026-01-16 02:05:22.50	206.98	23.76	-36.2	-37.8	17.0	0.00e+00	0	60	0	3155165184	43	4473
2026-01-16 02:05:26.54	206.87	23.15	-36.5	-38.1	16.7	0.00e+00	0	60	0	3177185280	43	4646
2026-01-16 02:05:30.58	206.77	22.56	-36.6	-38.3	16.5	0.00e+00	0	60	0	3200253952	43	4744
2026-01-16 02:05:34.62	206.67	21.98	-36.6	-38.3	16.5	0.00e+00	0	61	0	3223322624	43	4757
2026-01-16 02:05:38.65	206.57	21.41	-36.6	-38.3	16.5	0.00e+00	0	60	0	3245342720	43	4713
2026-01-16 02:05:42.69	206.48	20.86	-36.6	-38.3	16.5	0.00e+00	0	60	0	3268411392	43	4707
2026-01-16 02:05:46.73	206.39	20.32	-36.6	-38.3	16.5	0.00e+00	0	60	0	3291480064	43	4736
2026-01-16 02:05:50.77	206.30	19.79	-36.7	-38.3	16.4	0.00e+00	0	60	0	3313500160	43	4753
2026-01-16 02:05:54.81	206.22	19.26	-36.9	-38.6	16.4	0.00e+00	0	60	0	3336568832	44	4630
2026-01-16 02:05:58.85	206.14	18.75	-37.0	-38.7	16.3	0.00e+00	0	60	0	3359637504	44	4674
2026-01-16 02:06:02.89	206.07	18.26	-37.1	-38.8	16.1	0.00e+00	0	60	0	3381657600	44	4729
2026-01-16 02:06:06.93	205.99	17.77	-37.1	-38.9	16.1	0.00e+00	0	60	0	3404726272	44	4762
2026-01-16 02:06:10.97	205.92	17.29	-37.2	-38.9	16.0	0.00e+00	0	60	0	3427794944	44	4791
2026-01-16 02:06:15.01	205.85	16.81	-37.3	-39.0	15.9	0.00e+00	0	61	0	3449815040	45	4587
2026-01-16 02:06:19.05	205.79	16.35	-37.4	-39.2	15.7	0.00e+00	0	61	0	3472883712	45	4672
2026-01-16 02:06:23.09	205.73	15.90	-37.6	-39.4	15.5	0.00e+00	0	60	0	3495952384	45	4797
2026-01-16 02:06:27.13	205.66	15.45	-37.7	-39.5	15.3	0.00e+00	0	60	0	3517972480	45	4858
2026-01-16 02:06:31.17	205.60	15.02	-37.8	-39.8	15.1	0.00e+00	0	60	0	3541041152	46	4722
2026-01-16 02:06:35.21	205.55	14.59	-37.9	-39.9	14.9	0.00e+00	0	60	0	3564109824	46	4791
2026-01-16 02:06:39.25	205.49	14.16	-38.1	-40.1	14.7	0.00e+00	0	60	0	3587178496	46	4903
2026-01-16 02:06:43.29	205.44	13.75	-38.2	-40.2	14.5	0.00e+00	0	60	0	3609198592	46	4983
2026-01-16 02:06:47.32	205.39	13.34	-38.3	-40.3	14.4	1.10e-06	0	60	0	3632267264	47	4758
2026-01-16 02:06:51.36	205.34	12.94	-38.4	-40.5	14.2	0.00e+00	0	60	0	3654287360	47	4848
2026-01-16 02:06:55.40	205.29	12.55	-38.5	-40.7	14.0	1.02e-05	0	60	0	3677356032	47	4934
2026-01-16 02:06:59.44	205.24	12.16	-38.7	-40.9	13.8	5.70e-06	0	60	0	3700424704	47	5057
2026-01-16 02:07:03.48	205.20	11.78	-38.7	-40.8	13.9	3.40e-06	0	60	0	3722444800	48	4741
2026-01-16 02:07:07.52	205.15	11.40	-38.7	-40.8	13.9	1.14e-05	0	61	0	3745513472	48	4747
2026-01-16 02:07:11.56	205.11	11.03	-38.9	-41.1	13.6	1.25e-05	0	60	0	3768582144	48	4908
2026-01-16 02:07:15.59	205.07	10.66	-38.9	-41.2	13.5	2.51e-05	0	60	0	3790602240	48	4948
2026-01-16 02:07:19.63	205.03	10.30	-39.0	-41.3	13.3	2.74e-05	0	61	0	3813670912	48	5034
2026-01-16 02:07:23.68	204.99	9.95	-39.1	-41.4	13.2	2.86e-05	0	60	0	3836739584	48	5068
2026-01-16 02:07:27.72	204.95	9.60	-39.2	-41.6	13.0	7.09e-05	0	61	0	3858759680	48	5171
2026-01-16 02:07:31.76	204.92	9.25	-39.2	-41.7	12.8	8.81e-05	0	60	0	3881828352	49	4939
2026-01-16 02:07:35.80	204.88	8.91	-39.3	-41.8	12.6	1.30e-04	0	60	0	3904897024	49	5000
2026-01-16 02:07:39.83	204.85	8.58	-39.2	-41.6	12.7	1.25e-04	0	60	0	3926917120	49	4895
2026-01-16 02:07:43.88	204.82	8.25	-39.4	-42.0	12.2	3.25e-04	0	61	0	3949985792	49	5140
2026-01-16 02:07:47.91	204.78	7.92	-44.7	-56.5	3.8	8.48e-01	0	61	104	3966763008	60	14386
2026-01-16 02:07:51.95	204.75	7.60	-45.3	-57.0	3.8	8.46e-01	0	60	104	3966763008	61	14424
2026-01-16 02:07:55.99	204.72	7.28	-45.3	-57.1	3.8	8.46e-01	0	61	104	3966763008	61	14593
2026-01-16 02:08:00.03	204.69	6.97	-45.3	-57.0	3.8	8.48e-01	0	60	104	3966763008	61	14445
2026-01-16 02:08:04.06	204.66	6.66	-45.3	-56.9	3.8	8.45e-01	0	61	104	3966763008	61	14359
2026-01-16 02:08:08.10	204.64	6.35	-45.3	-56.9	3.8	8.46e-01	0	61	104	3966763008	61	14318
2026-01-16 02:08:12.13	204.61	6.05	-45.3	-56.9	3.8	8.46e-01	0	61	104	3966763008	61	14328
2026-01-16 02:08:16.17	204.58	5.75	-45.3	-56.9	3.8	8.45e-01	0	60	104	3966763008	61	14262
2026-01-16 02:08:20.21	204.56	5.45	-45.2	-56.9	3.8	8.46e-01	0	61	104	3966763008	61	14281
2026-01-16 02:08:24.25	204.53	5.15	-45.2	-56.9	3.8	8.46e-01	0	61	104	3966763008	61	14223
2026-01-16 02:08:28.29	204.51	4.86	-45.2	-56.9	3.8	8.46e-01	0	60	104	3966763008	61	14287
2026-01-16 02:08:32.33	204.48	4.58	-45.2	-56.9	3.8	8.46e-01	0	61	104	3966763008	61	14288
2026-01-16 02:08:36.37	204.46	4.29	-45.2	-56.9	3.8	8.46e-01	0	61	104	3966763008	61	14251
2026-01-16 02:08:40.41	204.44	4.01	-45.2	-56.8	3.8	8.46e-01	0	61	104	3966763008	61	14204
2026-01-16 02:08:44.45	204.42	3.73	-45.2	-56.8	3.8	8.46e-01	0	60	104	3966763008	61	14191
2026-01-16 02:08:48.48	204.40	3.46	-45.2	-56.8	3.8	8.46e-01	0	60	104	3966763008	61	14199
2026-01-16 02:08:52.52	204.38	3.19	-45.2	-56.8	3.8	8.47e-01	0	61	104	3966763008	61	14174
2026-01-16 02:08:56.56	204.36	2.92	-45.2	-56.8	3.8	8.46e-01	0	60	104	3966763008	61	14186
2026-01-16 02:09:00.61	204.34	2.65	-45.2	-56.9	3.8	8.45e-01	0	60	104	3966763008	61	14269
2026-01-16 02:09:04.65	204.32	2.38	-45.2	-56.8	3.8	8.46e-01	0	61	104	3966763008	61	14150
2026-01-16 02:09:08.69	204.30	2.12	-45.2	-56.9	3.8	8.47e-01	0	61	104	3966763008	61	14210

#Closed at: 2026-01-16 02:09:12
#Recorded file [3966 MB]: D:/lorett/data/31039_260116_045448.dat