passes_logs/2026/01/16/R2.0S_Moscow/R2.0S_Moscow__20260116_074902_NOAA_20_JPSS-1_rec.log

#Pass ID: 20260116_074902_NOAA 20 (JPSS-1)
#Satellite: NOAA 20 (JPSS-1)
#Configuration: NOAA 20
#almurnet v.1.7.20251203
#Start time: 2026-01-16 07:49:04

#Version: 2.2.20231116
#Station: R2.0S_Moscow
#Location: 37.707566 lon 55.798166 lat
#TLE: 1 43013U 17073A   26015.47098083  .00000029  00000+0  34851-4 0  9997
#TLE: 2 43013  98.7636 316.4053 0001479  38.6686 321.4595 14.19536048422808

#Time	Az	El	Level	Level2	SNR	BER	BlckErr	Temp	State	Recorded	gain1	gain2
2026-01-16 07:49:04.00	98.25	2.09	-39.8	-54.9	3.8	1.49e+00	0	51	0	0	51	20220
2026-01-16 07:49:07.02	98.00	2.24	-39.4	-54.9	3.8	1.49e+00	0	51	104	0	51	20135
2026-01-16 07:49:10.05	97.75	2.40	-39.5	-54.7	3.8	1.49e+00	0	51	104	0	49	22051
2026-01-16 07:49:13.08	97.49	2.56	-40.0	-54.9	3.8	1.49e+00	0	52	104	0	50	21466
2026-01-16 07:49:16.11	97.23	2.71	-39.7	-54.3	3.8	1.49e+00	0	52	104	0	49	21181
2026-01-16 07:49:19.14	96.97	2.87	-40.0	-54.9	3.8	1.49e+00	0	52	104	0	51	20277
2026-01-16 07:49:22.17	96.70	3.03	-39.0	-54.7	3.8	1.49e+00	0	52	104	0	50	20978
2026-01-16 07:49:25.20	96.43	3.19	-39.7	-54.6	3.8	1.49e+00	0	53	104	0	49	21822
2026-01-16 07:49:28.23	96.16	3.35	-39.7	-54.9	3.8	1.49e+00	0	53	104	0	50	21308
2026-01-16 07:49:31.26	95.89	3.51	-40.3	-55.0	3.7	1.49e+00	0	53	104	0	51	20381
2026-01-16 07:49:34.29	95.61	3.67	-39.6	-54.8	3.8	1.49e+00	0	53	104	0	49	22273
2026-01-16 07:49:37.32	95.33	3.83	-40.1	-55.0	3.8	1.49e+00	0	53	104	0	50	21518
2026-01-16 07:49:40.34	95.05	3.99	-40.2	-55.0	3.8	1.49e+00	0	53	104	0	51	20349
2026-01-16 07:49:43.37	94.76	4.15	-39.8	-54.9	3.8	1.49e+00	0	54	104	0	51	20246
2026-01-16 07:49:46.39	94.47	4.31	-40.0	-54.9	3.8	1.49e+00	0	54	104	0	51	20293
2026-01-16 07:49:49.42	94.17	4.47	-40.0	-54.9	3.8	1.49e+00	0	54	104	0	50	21498
2026-01-16 07:49:52.45	93.88	4.63	-40.2	-55.0	3.8	1.49e+00	0	54	104	0	51	20427
2026-01-16 07:49:55.48	93.58	4.79	-40.2	-54.9	3.8	1.49e+00	0	54	104	0	51	20263
2026-01-16 07:49:58.51	93.27	4.95	-39.8	-54.9	3.8	1.49e+00	0	54	104	0	50	21380
2026-01-16 07:50:01.54	92.97	5.11	-40.2	-54.9	3.8	1.49e+00	0	55	104	0	51	20298
2026-01-16 07:50:04.56	92.66	5.27	-40.0	-54.9	3.8	1.49e+00	0	55	104	0	51	20217
2026-01-16 07:50:07.59	92.34	5.44	-40.2	-54.9	3.8	1.49e+00	0	55	104	0	50	21498
2026-01-16 07:50:10.62	92.02	5.60	-40.2	-55.0	3.8	1.49e+00	0	55	104	0	51	20352
2026-01-16 07:50:13.65	91.70	5.76	-40.2	-55.0	3.7	1.49e+00	0	55	104	0	51	20471
2026-01-16 07:50:16.68	91.38	5.92	-40.2	-55.0	3.8	1.49e+00	0	55	104	0	51	20326
2026-01-16 07:50:19.70	91.05	6.09	-40.2	-55.0	3.8	1.49e+00	0	55	104	0	51	20349
2026-01-16 07:50:22.74	90.71	6.25	-40.2	-55.0	3.8	1.49e+00	0	56	104	0	50	21515
2026-01-16 07:50:25.76	90.38	6.41	-39.5	-54.8	3.8	1.49e+00	0	56	104	0	50	21031
2026-01-16 07:50:28.79	90.04	6.57	-40.2	-55.0	3.8	1.49e+00	0	56	104	0	51	20507
2026-01-16 07:50:31.82	89.69	6.74	-39.1	-54.8	3.8	1.49e+00	0	56	104	0	50	21221
2026-01-16 07:50:34.85	89.35	6.90	-40.0	-54.9	3.9	1.49e+00	0	56	104	0	50	21378
2026-01-16 07:50:37.88	88.99	7.06	-39.8	-54.8	3.7	1.49e+00	0	56	104	0	50	21078
2026-01-16 07:50:40.91	88.64	7.23	-40.0	-55.0	3.8	1.49e+00	0	56	104	0	51	20438
2026-01-16 07:50:43.94	88.28	7.39	-39.6	-54.9	3.8	1.49e+00	0	56	104	0	50	21402
2026-01-16 07:50:46.97	87.91	7.55	-40.1	-54.9	3.8	1.49e+00	0	57	104	0	51	20287
2026-01-16 07:50:50.00	87.54	7.72	-40.1	-54.9	3.8	1.49e+00	0	56	104	0	51	20262
2026-01-16 07:50:53.03	87.17	7.88	-40.2	-55.0	3.8	1.49e+00	0	57	104	0	51	20433
2026-01-16 07:50:56.06	86.79	8.04	-39.9	-54.9	3.8	1.49e+00	0	57	104	0	50	21338
2026-01-16 07:50:59.09	86.41	8.21	-40.2	-55.0	3.8	1.49e+00	0	57	104	0	51	20362
2026-01-16 07:51:02.12	86.02	8.37	-40.3	-55.3	3.8	1.49e+00	0	57	104	0	51	21062
2026-01-16 07:51:05.15	85.63	8.53	-40.2	-55.0	3.8	1.49e+00	0	57	104	0	50	21656
2026-01-16 07:51:08.17	85.24	8.69	-40.2	-55.1	3.8	1.49e+00	0	57	104	0	51	20705
2026-01-16 07:51:11.20	84.84	8.86	-40.2	-54.9	3.8	1.49e+00	0	57	104	0	51	20225
2026-01-16 07:51:14.23	84.44	9.02	-40.3	-55.0	3.8	1.49e+00	0	57	104	0	51	20504
2026-01-16 07:51:17.25	84.03	9.18	-40.2	-55.0	3.8	1.49e+00	0	57	104	0	51	20315
2026-01-16 07:51:20.28	83.62	9.34	-40.3	-55.0	3.8	1.49e+00	0	57	104	0	51	20477
2026-01-16 07:51:23.31	83.20	9.50	-40.2	-55.0	3.8	1.49e+00	0	57	104	0	51	20314
2026-01-16 07:51:26.34	82.78	9.66	-40.4	-55.1	3.8	1.49e+00	0	57	104	0	51	20553
2026-01-16 07:51:29.37	82.35	9.82	-40.3	-55.0	3.8	1.49e+00	0	58	104	0	51	20425
2026-01-16 07:51:32.40	81.92	9.98	-40.4	-55.0	3.8	1.49e+00	0	58	104	0	51	20500
2026-01-16 07:51:35.43	81.48	10.14	-40.3	-55.0	3.8	1.49e+00	0	57	104	0	51	20502
2026-01-16 07:51:38.46	81.04	10.30	-40.4	-55.1	3.8	1.49e+00	0	58	104	0	51	20567
2026-01-16 07:51:41.49	80.59	10.45	-40.4	-55.1	3.8	1.49e+00	0	58	104	0	51	20639
2026-01-16 07:51:44.52	80.14	10.61	-40.4	-55.2	3.8	1.49e+00	0	58	104	0	51	20897
2026-01-16 07:51:47.55	79.69	10.77	-40.5	-55.3	3.8	1.49e+00	0	58	104	0	51	21062
2026-01-16 07:51:50.58	79.23	10.92	-40.6	-55.3	3.8	1.49e+00	0	58	104	0	51	21114
2026-01-16 07:51:53.61	78.76	11.08	-40.7	-55.4	3.8	1.49e+00	0	58	104	0	51	21274
2026-01-16 07:51:56.64	78.29	11.23	-40.7	-55.4	3.8	1.49e+00	0	58	104	0	52	20097
2026-01-16 07:51:59.66	77.82	11.38	-40.9	-55.6	3.8	1.49e+00	0	58	104	0	52	20609
2026-01-16 07:52:02.69	77.33	11.53	-40.7	-55.5	3.8	1.49e+00	0	58	104	0	52	20347
2026-01-16 07:52:05.72	76.85	11.68	-40.9	-55.5	3.8	1.49e+00	0	58	104	0	52	20510
2026-01-16 07:52:08.75	76.36	11.83	-41.0	-55.6	3.8	1.49e+00	0	58	104	0	52	20603
2026-01-16 07:52:11.79	75.86	11.98	-41.0	-55.6	3.8	1.49e+00	0	58	104	0	52	20771
2026-01-16 07:52:14.81	75.36	12.13	-41.0	-55.7	3.8	1.49e+00	0	58	104	0	52	20817
2026-01-16 07:52:17.84	74.86	12.27	-41.2	-55.8	3.8	1.49e+00	0	59	104	0	52	21191
2026-01-16 07:52:20.87	74.34	12.42	-41.2	-55.8	3.8	1.49e+00	0	58	104	0	53	19989
2026-01-16 07:52:23.90	73.83	12.56	-41.0	-55.7	3.8	1.49e+00	0	58	104	0	53	19766
2026-01-16 07:52:26.93	73.31	12.70	-41.2	-55.8	3.8	1.49e+00	0	59	104	0	53	19918
2026-01-16 07:52:29.96	72.78	12.84	-41.2	-55.8	3.8	1.49e+00	0	58	104	0	53	19959
2026-01-16 07:52:32.99	72.25	12.98	-41.0	-55.7	3.8	1.49e+00	0	58	104	0	53	19629
2026-01-16 07:52:36.02	71.71	13.12	-41.3	-56.0	3.8	1.49e+00	0	59	104	0	53	20364
2026-01-16 07:52:39.05	71.17	13.25	-41.2	-55.9	3.8	1.49e+00	0	59	104	0	53	20180
2026-01-16 07:52:42.07	70.63	13.39	-41.5	-56.1	3.8	1.49e+00	0	59	104	0	53	20578
2026-01-16 07:52:45.10	70.08	13.52	-41.1	-55.8	3.8	1.49e+00	0	59	104	0	53	19968
2026-01-16 07:52:48.13	69.52	13.65	-41.8	-55.8	3.8	1.49e+00	0	59	104	0	54	18900
2026-01-16 07:52:51.16	68.96	13.77	-41.7	-54.5	3.8	1.49e+00	0	59	104	0	54	16280
2026-01-16 07:52:54.19	68.39	13.90	-41.7	-52.9	4.2	1.41e+00	0	59	0	0	54	13505
2026-01-16 07:52:57.21	67.82	14.02	-41.7	-50.9	5.2	6.49e-01	0	59	0	4194304	54	10684
2026-01-16 07:53:00.24	67.25	14.14	-41.9	-50.6	5.6	4.53e-01	0	59	0	9437184	54	10321
2026-01-16 07:53:03.27	66.67	14.26	-41.7	-48.8	7.2	1.60e-01	0	59	0	15728640	54	8372
2026-01-16 07:53:06.30	66.08	14.38	-40.9	-45.8	10.4	6.26e-03	0	59	0	20971520	53	6302
2026-01-16 07:53:09.33	65.50	14.49	-40.8	-45.4	10.9	1.84e-03	0	59	0	26214400	53	6007
2026-01-16 07:53:12.36	64.90	14.60	-41.1	-45.8	10.7	3.85e-03	0	59	0	32505856	53	6342
2026-01-16 07:53:15.39	64.30	14.71	-41.2	-45.6	11.1	1.64e-03	0	59	0	37748736	53	6199
2026-01-16 07:53:18.42	63.70	14.82	-41.5	-46.0	11.0	2.25e-03	0	59	0	44040192	53	6470
2026-01-16 07:53:21.45	63.09	14.92	-41.5	-45.8	11.4	1.30e-03	0	59	0	49283072	53	6317
2026-01-16 07:53:24.47	62.49	15.02	-41.7	-46.1	11.2	1.04e-03	0	59	0	55574528	53	6515
2026-01-16 07:53:27.50	61.87	15.12	-41.7	-45.9	11.5	8.43e-04	0	59	0	60817408	54	6060
2026-01-16 07:53:30.53	61.25	15.21	-41.8	-46.0	11.5	7.09e-04	0	59	0	66060288	54	6088
2026-01-16 07:53:33.56	60.63	15.30	-41.7	-45.8	11.8	5.65e-04	0	60	0	72351744	54	5969
2026-01-16 07:53:36.58	60.01	15.39	-41.8	-45.9	11.7	5.32e-04	0	59	0	77594624	54	6047
2026-01-16 07:53:39.61	59.37	15.48	-41.7	-45.8	11.8	4.00e-04	0	59	0	83886080	54	5959
2026-01-16 07:53:42.65	58.74	15.56	-41.8	-46.0	11.6	6.32e-04	0	59	0	89128960	54	6117
2026-01-16 07:53:45.68	58.10	15.64	-42.0	-46.3	11.3	8.46e-04	0	60	0	94371840	54	6294
2026-01-16 07:53:48.70	57.46	15.71	-42.0	-46.4	11.3	1.28e-03	0	59	0	100663296	54	6380
2026-01-16 07:53:51.73	56.82	15.79	-42.1	-46.6	11.1	1.62e-03	0	59	0	105906176	54	6501
2026-01-16 07:53:54.76	56.17	15.85	-42.0	-46.3	11.4	1.11e-03	0	59	0	112197632	54	6328
2026-01-16 07:53:57.79	55.52	15.92	-42.0	-46.3	11.4	9.83e-04	0	59	0	117440512	54	6314
2026-01-16 07:54:00.82	54.87	15.98	-42.0	-46.2	11.5	7.48e-04	0	59	0	123731968	54	6236
2026-01-16 07:54:03.85	54.22	16.04	-41.9	-46.1	11.7	6.38e-04	0	59	0	128974848	54	6142
2026-01-16 07:54:06.87	53.56	16.09	-42.0	-46.3	11.4	7.80e-04	0	59	0	134217728	54	6321
2026-01-16 07:54:09.90	52.90	16.14	-42.3	-46.9	10.8	2.09e-03	0	59	0	140509184	55	6360
2026-01-16 07:54:12.93	52.24	16.19	-42.1	-46.4	11.3	1.00e-03	0	59	0	145752064	55	6056
2026-01-16 07:54:15.96	51.58	16.23	-42.2	-46.7	11.0	1.90e-03	0	60	0	152043520	55	6266
2026-01-16 07:54:18.99	50.91	16.27	-42.1	-46.5	11.2	1.22e-03	0	60	0	157286400	55	6127
2026-01-16 07:54:22.01	50.25	16.31	-42.2	-46.6	11.1	1.46e-03	0	60	0	162529280	55	6197
2026-01-16 07:54:25.04	49.58	16.34	-42.1	-46.4	11.4	1.10e-03	0	60	0	168820736	55	6024
2026-01-16 07:54:28.07	48.91	16.37	-42.2	-46.6	11.2	1.54e-03	0	60	0	174063616	55	6194
2026-01-16 07:54:31.10	48.24	16.39	-42.1	-46.5	11.3	1.48e-03	0	59	0	180355072	55	6123
2026-01-16 07:54:34.13	47.57	16.41	-42.1	-46.5	11.3	1.13e-03	0	60	0	185597952	55	6097
2026-01-16 07:54:37.16	46.89	16.42	-42.1	-46.5	11.3	1.04e-03	0	60	0	191889408	55	6069
2026-01-16 07:54:40.18	46.22	16.44	-42.2	-46.8	11.0	1.81e-03	0	60	0	197132288	55	6292
2026-01-16 07:54:43.21	45.55	16.44	-42.2	-46.6	11.2	1.32e-03	0	60	0	202375168	55	6188
2026-01-16 07:54:46.24	44.87	16.45	-42.1	-46.5	11.3	1.02e-03	0	60	0	208666624	55	6115
2026-01-16 07:54:49.27	44.20	16.45	-42.2	-46.7	11.0	2.06e-03	0	60	0	213909504	55	6265
2026-01-16 07:54:52.30	43.53	16.44	-42.1	-46.3	11.5	9.70e-04	0	60	0	220200960	55	5972
2026-01-16 07:54:55.32	42.86	16.43	-42.1	-46.5	11.3	9.28e-04	0	60	0	225443840	55	6074
2026-01-16 07:54:58.35	42.18	16.42	-42.2	-46.7	11.0	1.79e-03	0	60	0	230686720	55	6269
2026-01-16 07:55:01.38	41.51	16.41	-42.0	-46.1	11.7	6.82e-04	0	60	0	236978176	55	5848
2026-01-16 07:55:04.41	40.84	16.38	-42.0	-46.2	11.7	6.06e-04	0	60	0	242221056	55	5867
2026-01-16 07:55:07.43	40.17	16.36	-42.0	-46.2	11.6	5.77e-04	0	60	0	248512512	55	5902
2026-01-16 07:55:10.46	39.50	16.33	-42.0	-46.3	11.5	8.15e-04	0	60	0	253755392	55	5961
2026-01-16 07:55:13.49	38.84	16.30	-41.9	-46.0	11.8	5.51e-04	0	60	0	258998272	55	5755
2026-01-16 07:55:16.52	38.17	16.26	-41.8	-45.9	12.0	3.08e-04	0	60	0	265289728	55	5675
2026-01-16 07:55:19.55	37.51	16.22	-41.8	-45.8	12.1	2.64e-04	0	60	0	270532608	55	5602
2026-01-16 07:55:22.57	36.85	16.18	-41.8	-45.8	12.0	3.28e-04	0	60	0	276824064	55	5634
2026-01-16 07:55:25.60	36.18	16.13	-41.7	-45.6	12.2	2.01e-04	0	60	0	282066944	55	5524
2026-01-16 07:55:28.63	35.53	16.08	-41.8	-45.9	12.0	3.11e-04	0	60	0	288358400	55	5669
2026-01-16 07:55:31.66	34.87	16.03	-41.9	-46.1	11.8	4.58e-04	0	60	0	293601280	55	5803
2026-01-16 07:55:34.68	34.22	15.97	-41.9	-46.0	11.8	4.87e-04	0	60	0	298844160	55	5774
2026-01-16 07:55:37.71	33.57	15.90	-41.9	-46.1	11.8	5.31e-04	0	60	0	305135616	55	5811
2026-01-16 07:55:40.74	32.92	15.84	-42.0	-46.2	11.6	6.59e-04	0	60	0	310378496	55	5881
2026-01-16 07:55:43.77	32.28	15.77	-42.1	-46.5	11.3	9.44e-04	0	60	0	316669952	55	6083
2026-01-16 07:55:46.80	31.64	15.70	-42.1	-46.5	11.3	1.19e-03	0	60	0	321912832	55	6092
2026-01-16 07:55:49.83	31.00	15.62	-42.1	-46.6	11.1	1.41e-03	0	60	0	327155712	55	6188
2026-01-16 07:55:52.86	30.36	15.54	-42.2	-46.7	11.0	1.86e-03	0	60	0	333447168	55	6219
2026-01-16 07:55:55.89	29.73	15.46	-42.1	-46.5	11.3	1.21e-03	0	60	0	338690048	55	6063
2026-01-16 07:55:58.91	29.11	15.37	-42.0	-46.4	11.4	1.03e-03	0	60	0	344981504	55	6013
2026-01-16 07:56:01.94	28.48	15.28	-41.9	-46.2	11.6	6.84e-04	0	60	0	350224384	55	5863
2026-01-16 07:56:04.97	27.86	15.19	-41.8	-46.0	11.8	4.65e-04	0	60	0	356515840	55	5727
2026-01-16 07:56:08.00	27.25	15.10	-42.0	-46.2	11.6	6.78e-04	0	60	0	361758720	55	5875
2026-01-16 07:56:11.03	26.63	15.00	-42.0	-46.2	11.5	8.49e-04	0	60	0	367001600	55	5916
2026-01-16 07:56:14.06	26.03	14.90	-41.9	-46.1	11.7	6.53e-04	0	60	0	373293056	55	5794
2026-01-16 07:56:17.09	25.42	14.79	-41.9	-46.1	11.6	5.93e-04	0	60	0	378535936	55	5854
2026-01-16 07:56:20.12	24.82	14.69	-42.0	-46.2	11.5	9.15e-04	0	60	0	384827392	55	5913
2026-01-16 07:56:23.14	24.23	14.58	-42.0	-46.3	11.4	9.81e-04	0	60	0	390070272	55	5949
2026-01-16 07:56:26.17	23.64	14.47	-42.0	-46.3	11.4	1.16e-03	0	60	0	395313152	55	5986
2026-01-16 07:56:29.20	23.05	14.35	-42.0	-46.5	11.2	1.38e-03	0	60	0	401604608	55	6080
2026-01-16 07:56:32.23	22.47	14.24	-42.1	-46.6	11.0	1.87e-03	0	60	0	406847488	55	6196
2026-01-16 07:56:35.26	21.90	14.12	-42.1	-46.6	11.0	1.52e-03	0	60	0	413138944	55	6153
2026-01-16 07:56:38.28	21.33	14.00	-42.0	-46.5	11.2	1.50e-03	0	60	0	418381824	55	6092
2026-01-16 07:56:41.31	20.76	13.87	-42.2	-47.0	10.6	3.77e-03	0	60	0	424673280	55	6458
2026-01-16 07:56:44.34	20.20	13.75	-42.3	-47.2	10.4	4.85e-03	0	60	0	429916160	55	6599
2026-01-16 07:56:47.37	19.64	13.62	-42.3	-47.2	10.3	4.88e-03	0	60	0	435159040	55	6583
2026-01-16 07:56:50.40	19.09	13.49	-42.3	-47.2	10.3	5.16e-03	0	60	0	441450496	55	6610
2026-01-16 07:56:53.43	18.54	13.36	-42.4	-47.5	10.0	7.33e-03	0	60	0	446693376	55	6840
2026-01-16 07:56:56.46	18.00	13.23	-42.5	-47.9	9.5	1.35e-02	0	60	0	452984832	55	7173
2026-01-16 07:56:59.49	17.46	13.09	-42.5	-48.1	9.3	1.77e-02	0	60	0	458227712	55	7363
2026-01-16 07:57:02.52	16.93	12.96	-42.6	-48.4	8.9	2.84e-02	0	60	0	463470592	55	7612
2026-01-16 07:57:05.55	16.40	12.82	-42.5	-48.3	9.0	2.72e-02	0	60	0	469762048	55	7491
2026-01-16 07:57:08.58	15.88	12.68	-42.5	-48.1	9.2	2.05e-02	0	60	0	475004928	55	7308
2026-01-16 07:57:11.61	15.36	12.54	-42.6	-48.6	8.6	3.22e-02	0	60	0	481296384	55	7773
2026-01-16 07:57:14.64	14.85	12.39	-42.7	-48.9	8.3	5.17e-02	0	60	0	486539264	55	8025
2026-01-16 07:57:17.67	14.34	12.25	-42.6	-48.7	8.3	4.93e-02	0	60	0	492830720	55	7867
2026-01-16 07:57:20.69	13.84	12.10	-42.6	-48.9	8.1	5.74e-02	0	60	0	498073600	55	8035
2026-01-16 07:57:23.73	13.34	11.96	-42.6	-49.3	7.6	9.35e-02	0	60	0	503316480	55	8451
2026-01-16 07:57:26.76	12.85	11.81	-42.5	-49.2	7.6	9.93e-02	0	60	0	509607936	55	8349
2026-01-16 07:57:29.79	12.36	11.66	-42.3	-49.1	7.5	1.06e-01	0	60	0	514850816	55	8195
2026-01-16 07:57:32.82	11.88	11.51	-42.0	-48.9	7.4	1.12e-01	0	60	0	521142272	55	8001
2026-01-16 07:57:35.84	11.40	11.36	-41.9	-48.8	7.3	1.19e-01	0	60	0	526385152	55	7976
2026-01-16 07:57:38.87	10.93	11.21	-41.9	-50.4	5.7	3.75e-01	0	60	0	531628032	55	9568
2026-01-16 07:57:41.91	10.46	11.05	-41.8	-52.2	4.5	9.80e-01	14	60	0	537919488	55	11738
2026-01-16 07:57:44.94	10.00	10.90	-41.5	-54.1	3.8	1.47e+00	0	60	104	537919488	54	15541
2026-01-16 07:57:47.96	9.55	10.74	-41.3	-55.4	3.8	1.49e+00	0	60	104	537919488	54	18051
2026-01-16 07:57:50.99	9.10	10.59	-41.1	-55.5	3.8	1.49e+00	0	61	104	537919488	54	18184
2026-01-16 07:57:54.02	8.65	10.43	-41.0	-55.6	3.8	1.49e+00	0	60	104	537919488	53	19598
2026-01-16 07:57:57.05	8.21	10.27	-41.2	-55.6	3.8	1.49e+00	0	60	104	537919488	52	20726
2026-01-16 07:58:00.07	7.77	10.12	-40.5	-55.1	3.8	1.49e+00	0	60	104	537919488	52	19450
2026-01-16 07:58:03.10	7.34	9.96	-40.1	-54.7	3.8	1.49e+00	0	60	104	537919488	52	18523
2026-01-16 07:58:06.13	6.91	9.80	-40.7	-55.4	3.8	1.49e+00	0	60	104	537919488	52	20115
2026-01-16 07:58:09.15	6.49	9.64	-40.0	-54.6	3.8	1.49e+00	0	60	104	537919488	52	18443
2026-01-16 07:58:12.18	6.07	9.48	-40.1	-54.6	3.8	1.49e+00	0	60	104	537919488	51	19524
2026-01-16 07:58:15.21	5.66	9.32	-40.4	-55.1	3.8	1.49e+00	0	61	104	537919488	51	20680
2026-01-16 07:58:18.24	5.25	9.16	-40.0	-54.7	3.8	1.49e+00	0	61	104	537919488	51	19658
2026-01-16 07:58:21.26	4.84	9.00	-40.0	-54.7	3.8	1.49e+00	0	61	104	537919488	51	19756
2026-01-16 07:58:24.30	4.44	8.84	-40.0	-54.7	3.8	1.49e+00	0	61	104	537919488	51	19643
2026-01-16 07:58:27.32	4.05	8.68	-40.0	-54.7	3.8	1.49e+00	0	61	104	537919488	51	19706
2026-01-16 07:58:30.36	3.66	8.52	-40.1	-54.7	3.8	1.49e+00	0	61	104	537919488	51	19807
2026-01-16 07:58:33.39	3.27	8.35	-39.9	-54.7	3.8	1.49e+00	0	61	104	537919488	51	19713
2026-01-16 07:58:36.42	2.89	8.19	-39.9	-54.6	3.8	1.49e+00	0	60	104	537919488	51	19512
2026-01-16 07:58:39.45	2.51	8.03	-40.0	-54.8	3.8	1.49e+00	0	60	104	537919488	51	19866
2026-01-16 07:58:42.48	2.14	7.87	-45.1	-59.8	3.8	1.49e+00	0	61	104	537919488	60	21134
2026-01-16 07:58:45.51	1.77	7.70	-45.5	-60.2	3.8	1.49e+00	0	61	104	537919488	61	20788
2026-01-16 07:58:48.54	1.40	7.54	-45.5	-60.2	3.8	1.49e+00	0	61	104	537919488	61	20791
2026-01-16 07:58:51.57	1.04	7.38	-45.4	-60.0	3.8	1.49e+00	0	61	104	537919488	61	20431
2026-01-16 07:58:54.59	0.69	7.22	-45.3	-59.8	3.8	1.49e+00	0	61	104	537919488	61	20065
2026-01-16 07:58:57.62	0.34	7.05	-45.3	-59.8	3.8	1.49e+00	0	61	104	537919488	61	20030
2026-01-16 07:59:00.65	359.99	6.89	-45.3	-59.8	3.8	1.49e+00	0	61	104	537919488	61	19944
2026-01-16 07:59:03.68	359.64	6.73	-45.3	-59.8	3.8	1.49e+00	0	61	104	537919488	61	19946
2026-01-16 07:59:06.71	359.30	6.56	-45.3	-59.8	3.8	1.49e+00	0	61	104	537919488	61	19935
2026-01-16 07:59:09.74	358.97	6.40	-45.2	-59.8	3.8	1.49e+00	0	61	104	537919488	61	19936
2026-01-16 07:59:12.76	358.63	6.24	-45.2	-59.8	3.8	1.49e+00	0	61	104	537919488	61	19943
2026-01-16 07:59:15.79	358.31	6.08	-45.3	-59.7	3.8	1.49e+00	0	61	104	537919488	61	19832
2026-01-16 07:59:18.82	357.98	5.91	-45.3	-59.7	3.8	1.49e+00	0	61	104	537919488	61	19829
2026-01-16 07:59:21.85	357.66	5.75	-45.2	-59.7	3.8	1.49e+00	0	61	104	537919488	61	19793
2026-01-16 07:59:24.89	357.34	5.59	-45.2	-59.8	3.8	1.49e+00	0	61	104	537919488	61	19853
2026-01-16 07:59:27.92	357.03	5.43	-45.2	-59.7	3.8	1.49e+00	0	61	104	537919488	61	19829
2026-01-16 07:59:30.95	356.72	5.27	-45.3	-59.8	3.8	1.49e+00	0	61	104	537919488	61	19857
2026-01-16 07:59:33.98	356.41	5.11	-45.2	-59.8	3.8	1.49e+00	0	61	104	537919488	61	19859
2026-01-16 07:59:37.00	356.11	4.94	-45.2	-59.8	3.8	1.49e+00	0	61	104	537919488	61	19858
2026-01-16 07:59:40.04	355.81	4.78	-45.2	-59.7	3.8	1.49e+00	0	61	104	537919488	61	19790
2026-01-16 07:59:43.07	355.51	4.62	-45.2	-59.7	3.8	1.49e+00	0	61	104	537919488	61	19741
2026-01-16 07:59:46.10	355.22	4.46	-45.2	-59.8	3.8	1.49e+00	0	61	104	537919488	61	19844
2026-01-16 07:59:49.13	354.93	4.30	-45.2	-59.7	3.8	1.49e+00	0	61	104	537919488	61	19798
2026-01-16 07:59:52.16	354.64	4.14	-45.0	-59.7	3.8	1.49e+00	0	61	104	537919488	60	20967
2026-01-16 07:59:55.19	354.36	3.98	-45.2	-59.7	3.8	1.49e+00	0	61	104	537919488	61	19730
2026-01-16 07:59:58.22	354.08	3.82	-45.1	-59.7	3.8	1.49e+00	0	61	104	537919488	60	20933
2026-01-16 08:00:01.25	353.80	3.66	-45.2	-59.7	3.8	1.49e+00	0	61	104	537919488	61	19798
2026-01-16 08:00:04.28	353.52	3.50	-44.6	-59.7	3.8	1.49e+00	0	61	104	537919488	61	19745
2026-01-16 08:00:07.31	353.25	3.35	-45.2	-59.8	3.8	1.49e+00	0	61	104	537919488	60	21019
2026-01-16 08:00:10.34	352.99	3.19	-45.2	-59.7	3.8	1.49e+00	0	61	104	537919488	61	19704
2026-01-16 08:00:13.37	352.72	3.03	-45.2	-59.7	3.8	1.49e+00	0	61	104	537919488	61	19712
2026-01-16 08:00:16.40	352.46	2.87	-45.2	-59.7	3.8	1.49e+00	0	61	104	537919488	61	19761
2026-01-16 08:00:19.43	352.20	2.71	-45.2	-59.7	3.8	1.49e+00	0	61	104	537919488	61	19660
2026-01-16 08:00:22.47	351.94	2.56	-45.2	-59.7	3.8	1.49e+00	0	61	104	537919488	60	20934
2026-01-16 08:00:25.49	351.69	2.40	-45.2	-59.7	3.8	1.49e+00	0	61	104	537919488	60	20987
2026-01-16 08:00:28.53	351.44	2.24	-45.1	-59.7	3.8	1.49e+00	0	60	104	537919488	60	20894
2026-01-16 08:00:31.56	351.19	2.09	-44.3	-59.7	3.8	1.49e+00	0	61	104	537919488	60	20859

#Closed at: 2026-01-16 08:00:33
#Recorded file [537 MB]: D:/lorett/data/31039_260116_104903.dat