passes_logs/2026/01/16/R2.0S_Moscow/R2.0S_Moscow__20260116_222714_NOAA_21_JPSS-2_rec.log

#Pass ID: 20260116_222714_NOAA 21 (JPSS-2)
#Satellite: NOAA 21 (JPSS-2)
#Configuration: NOAA-21
#almurnet v.1.7.20251203
#Start time: 2026-01-16 22:27:14

#Version: 2.2.20231116
#Station: R2.0S_Moscow
#Location: 37.707566 lon 55.798166 lat
#TLE: 1 54234U 22150A   26016.21096038  .00000027  00000+0  33607-4 0  9993
#TLE: 2 54234  98.7500 317.0960 0000625 282.3388  77.7718 14.19534911164985

#Time	Az	El	Level	Level2	SNR	BER	BlckErr	Temp	State	Recorded	gain1	gain2
2026-01-16 22:27:14.70	22.99	2.03	-42.1	-55.3	3.8	1.49e+00	0	53	0	0	56	15880
2026-01-16 22:27:18.74	23.22	2.26	-42.0	-55.1	3.8	1.49e+00	0	53	104	0	54	17350
2026-01-16 22:27:22.78	23.46	2.50	-42.0	-55.1	3.8	1.49e+00	0	53	104	0	54	17389
2026-01-16 22:27:26.83	23.71	2.74	-42.0	-55.1	3.8	1.49e+00	0	54	104	0	54	17392
2026-01-16 22:27:30.87	23.96	2.98	-41.9	-55.1	3.8	1.49e+00	0	54	104	0	54	17398
2026-01-16 22:27:34.91	24.21	3.22	-41.9	-55.1	3.8	1.49e+00	0	54	104	0	54	17379
2026-01-16 22:27:38.96	24.47	3.46	-41.9	-55.1	3.8	1.49e+00	0	55	104	0	54	17375
2026-01-16 22:27:43.00	24.72	3.70	-41.9	-55.1	3.8	1.49e+00	0	55	104	0	54	17356
2026-01-16 22:27:47.05	24.99	3.95	-41.9	-55.1	3.8	1.49e+00	0	55	104	0	54	17340
2026-01-16 22:27:51.09	25.26	4.19	-41.9	-55.1	3.8	1.49e+00	0	55	104	0	54	17326
2026-01-16 22:27:55.13	25.53	4.44	-41.9	-55.1	3.8	1.49e+00	0	55	104	0	54	17339
2026-01-16 22:27:59.18	25.81	4.69	-41.9	-55.1	3.8	1.49e+00	0	56	104	0	54	17337
2026-01-16 22:28:03.22	26.09	4.95	-41.9	-55.1	3.8	1.49e+00	0	56	104	0	54	17352
2026-01-16 22:28:07.26	26.37	5.20	-41.9	-55.0	3.8	1.49e+00	0	56	104	0	54	17270
2026-01-16 22:28:11.31	26.66	5.46	-41.9	-55.0	3.8	1.49e+00	0	56	104	0	54	17236
2026-01-16 22:28:15.35	26.96	5.72	-41.9	-55.0	3.8	1.49e+00	0	56	104	0	54	17266
2026-01-16 22:28:19.39	27.26	5.98	-41.9	-55.0	3.8	1.49e+00	0	56	104	0	54	17118
2026-01-16 22:28:23.44	27.56	6.24	-41.9	-54.9	3.8	1.49e+00	0	57	104	0	54	16945
2026-01-16 22:28:27.48	27.87	6.50	-41.9	-54.8	3.8	1.49e+00	0	57	104	0	54	16715
2026-01-16 22:28:31.53	28.19	6.77	-41.7	-52.5	3.9	1.48e+00	0	57	104	0	54	12816
2026-01-16 22:28:35.57	28.51	7.04	-41.7	-52.7	4.0	1.49e+00	0	57	104	0	54	13126
2026-01-16 22:28:39.61	28.83	7.31	-41.8	-53.6	3.8	1.49e+00	0	57	104	0	54	14546
2026-01-16 22:28:43.66	29.17	7.58	-40.8	-47.1	6.7	2.35e-01	0	57	0	4194304	53	7294
2026-01-16 22:28:47.70	29.51	7.86	-40.4	-45.9	7.8	9.07e-02	0	57	0	16777216	52	6792
2026-01-16 22:28:51.74	29.85	8.14	-41.5	-48.0	6.2	1.32e-01	0	58	0	29360128	53	8120
2026-01-16 22:28:55.78	30.20	8.41	-40.5	-44.6	9.7	2.05e-02	0	58	0	37748736	53	5494
2026-01-16 22:28:59.82	30.56	8.70	-40.2	-44.1	10.2	6.12e-03	0	58	0	50331648	52	5501
2026-01-16 22:29:03.86	30.92	8.98	-40.2	-43.6	10.9	2.22e-03	0	58	0	62914560	52	5200
2026-01-16 22:29:07.90	31.29	9.27	-40.4	-43.9	10.8	2.91e-03	0	58	0	75497472	52	5343
2026-01-16 22:29:11.94	31.67	9.55	-40.3	-43.8	11.0	1.96e-03	0	58	0	88080384	52	5280
2026-01-16 22:29:15.98	32.05	9.85	-40.5	-43.8	11.0	1.59e-03	0	58	0	100663296	52	5339
2026-01-16 22:29:20.02	32.45	10.14	-40.4	-43.5	11.4	9.09e-04	0	58	0	113246208	52	5155
2026-01-16 22:29:24.06	32.85	10.43	-40.3	-43.3	11.8	5.75e-04	0	58	0	125829120	52	4988
2026-01-16 22:29:28.10	33.25	10.73	-40.4	-43.4	11.6	6.23e-04	0	58	0	138412032	52	5098
2026-01-16 22:29:32.13	33.67	11.03	-40.3	-43.3	11.9	3.23e-04	0	58	0	150994944	52	4992
2026-01-16 22:29:36.17	34.09	11.33	-40.3	-43.2	12.1	3.22e-04	0	58	0	163577856	52	4950
2026-01-16 22:29:40.21	34.52	11.64	-40.3	-43.1	12.3	2.21e-04	0	59	0	176160768	52	4924
2026-01-16 22:29:44.25	34.96	11.95	-40.3	-43.1	12.3	1.79e-04	0	59	0	188743680	52	4885
2026-01-16 22:29:48.29	35.41	12.26	-40.2	-43.0	12.4	1.77e-04	0	59	0	201326592	52	4845
2026-01-16 22:29:52.33	35.87	12.57	-40.2	-42.9	12.5	1.07e-04	0	59	0	213909504	52	4763
2026-01-16 22:29:56.37	36.34	12.88	-40.2	-42.9	12.5	1.21e-04	0	59	0	226492416	52	4777
2026-01-16 22:30:00.40	36.82	13.20	-40.1	-42.8	12.7	9.84e-05	0	59	0	239075328	52	4743
2026-01-16 22:30:04.44	37.31	13.52	-40.1	-42.8	12.7	9.07e-05	0	59	0	251658240	52	4739
2026-01-16 22:30:08.48	37.81	13.84	-40.4	-43.1	12.4	1.69e-04	0	59	0	264241152	52	4920
2026-01-16 22:30:12.52	38.31	14.16	-40.3	-43.0	12.6	1.03e-04	0	59	0	276824064	52	4841
2026-01-16 22:30:16.56	38.83	14.49	-40.4	-43.2	12.4	1.79e-04	0	59	0	289406976	52	4954
2026-01-16 22:30:20.60	39.37	14.82	-40.4	-43.2	12.5	1.24e-04	0	59	0	301989888	52	4937
2026-01-16 22:30:24.64	39.91	15.15	-40.5	-43.3	12.3	1.87e-04	0	59	0	314572800	52	5001
2026-01-16 22:30:28.68	40.46	15.48	-40.4	-43.2	12.4	1.53e-04	0	59	0	327155712	52	4959
2026-01-16 22:30:32.71	41.03	15.82	-40.4	-43.2	12.5	1.30e-04	0	59	0	340787200	52	4945
2026-01-16 22:30:36.75	41.61	16.15	-40.5	-43.2	12.5	1.27e-04	0	59	0	353370112	52	4943
2026-01-16 22:30:40.79	42.20	16.49	-40.6	-43.4	12.3	1.67e-04	0	59	0	365953024	52	5048
2026-01-16 22:30:44.83	42.80	16.83	-40.7	-43.5	12.2	2.13e-04	0	59	0	378535936	52	5110
2026-01-16 22:30:48.87	43.42	17.18	-40.6	-43.4	12.3	2.16e-04	0	60	0	391118848	52	5075
2026-01-16 22:30:52.90	44.05	17.52	-40.8	-43.6	12.1	2.97e-04	0	60	0	403701760	52	5212
2026-01-16 22:30:56.94	44.70	17.87	-40.9	-43.8	12.0	3.30e-04	0	59	0	416284672	52	5286
2026-01-16 22:31:00.98	45.36	18.21	-40.6	-43.4	12.4	1.62e-04	0	59	0	428867584	52	5056
2026-01-16 22:31:05.02	46.04	18.56	-40.4	-43.0	12.8	6.71e-05	0	60	0	441450496	52	4847
2026-01-16 22:31:09.06	46.73	18.91	-40.4	-42.9	12.9	4.80e-05	0	60	0	454033408	52	4799
2026-01-16 22:31:13.10	47.43	19.26	-40.3	-42.8	13.1	3.58e-05	0	59	0	466616320	52	4715
2026-01-16 22:31:17.13	48.16	19.61	-40.0	-42.4	13.4	1.29e-05	0	60	0	479199232	52	4528
2026-01-16 22:31:21.17	48.89	19.96	-40.2	-42.6	13.3	1.44e-05	0	60	0	491782144	51	4879
2026-01-16 22:31:25.21	49.65	20.32	-40.1	-42.5	13.4	1.37e-05	0	60	0	504365056	51	4848
2026-01-16 22:31:29.26	50.43	20.67	-39.9	-42.3	13.6	9.90e-06	0	60	0	516947968	51	4716
2026-01-16 22:31:33.30	51.22	21.02	-39.7	-42.0	13.9	3.00e-06	0	60	0	529530880	51	4557
2026-01-16 22:31:37.34	52.02	21.37	-39.5	-41.6	14.3	1.50e-06	0	60	0	542113792	50	4650
2026-01-16 22:31:41.38	52.85	21.72	-39.4	-41.6	14.4	7.00e-07	0	60	0	554696704	50	4602
2026-01-16 22:31:45.42	53.70	22.07	-39.4	-41.5	14.5	1.50e-06	0	60	0	567279616	50	4568
2026-01-16 22:31:49.46	54.56	22.42	-39.4	-41.5	14.5	0.00e+00	0	60	0	579862528	50	4553
2026-01-16 22:31:53.49	55.44	22.76	-39.3	-41.4	14.6	0.00e+00	0	60	0	592445440	50	4495
2026-01-16 22:31:57.53	56.34	23.10	-39.3	-41.3	14.7	0.00e+00	0	60	0	605028352	50	4493
2026-01-16 22:32:01.57	57.26	23.44	-39.5	-41.7	14.3	7.00e-07	0	60	0	617611264	50	4678
2026-01-16 22:32:05.61	58.21	23.78	-39.7	-41.9	14.1	7.00e-07	0	60	0	630194176	50	4804
2026-01-16 22:32:09.65	59.17	24.11	-39.7	-41.8	14.2	0.00e+00	0	60	0	642777088	50	4755
2026-01-16 22:32:13.69	60.15	24.44	-39.8	-42.1	14.0	5.30e-06	0	60	0	655360000	50	4873
2026-01-16 22:32:17.73	61.15	24.77	-39.8	-42.0	14.0	7.00e-07	0	60	0	667942912	50	4838
2026-01-16 22:32:21.77	62.17	25.09	-40.1	-42.4	13.6	5.30e-06	0	60	0	681574400	50	5072
2026-01-16 22:32:25.81	63.21	25.40	-40.3	-42.7	13.3	1.83e-05	0	60	0	694157312	51	4972
2026-01-16 22:32:29.84	64.28	25.71	-39.8	-42.0	13.9	4.50e-06	0	60	0	706740224	51	4598
2026-01-16 22:32:33.88	65.36	26.01	-39.9	-42.2	13.9	5.30e-06	0	60	0	719323136	51	4669
2026-01-16 22:32:37.92	66.46	26.30	-39.9	-42.1	14.0	4.50e-06	0	60	0	731906048	51	4624
2026-01-16 22:32:41.96	67.58	26.58	-39.8	-42.0	14.0	4.50e-06	0	60	0	744488960	51	4571
2026-01-16 22:32:46.00	68.73	26.86	-39.8	-42.0	14.1	3.80e-06	0	60	0	757071872	51	4579
2026-01-16 22:32:50.03	69.89	27.12	-39.8	-42.0	14.1	2.20e-06	0	60	0	769654784	51	4550
2026-01-16 22:32:54.07	71.07	27.38	-39.7	-41.9	14.2	2.20e-06	0	60	0	782237696	51	4508
2026-01-16 22:32:58.12	72.27	27.62	-39.9	-42.1	14.0	7.00e-07	0	60	0	794820608	51	4632
2026-01-16 22:33:02.15	73.49	27.86	-39.9	-42.1	14.0	2.20e-06	0	60	0	807403520	51	4634
2026-01-16 22:33:06.19	74.72	28.08	-40.0	-42.2	13.9	3.80e-06	0	60	0	819986432	51	4700
2026-01-16 22:33:10.22	75.97	28.29	-40.0	-42.3	13.8	2.20e-06	0	60	0	832569344	51	4732
2026-01-16 22:33:14.26	77.24	28.48	-40.1	-42.4	13.8	8.30e-06	0	60	0	845152256	51	4779
2026-01-16 22:33:18.30	78.52	28.67	-40.1	-42.3	13.8	7.00e-07	0	60	0	857735168	51	4745
2026-01-16 22:33:22.34	79.82	28.83	-40.0	-42.3	13.9	2.20e-06	0	60	0	870318080	51	4719
2026-01-16 22:33:26.37	81.12	28.99	-40.3	-42.7	13.5	5.30e-06	0	60	0	882900992	51	4930
2026-01-16 22:33:30.41	82.44	29.13	-40.1	-42.4	13.8	6.80e-06	0	60	0	895483904	51	4764
2026-01-16 22:33:34.45	83.77	29.25	-40.2	-42.5	13.7	5.30e-06	0	60	0	908066816	51	4840
2026-01-16 22:33:38.49	85.12	29.35	-40.0	-42.2	14.0	2.20e-06	0	60	0	920649728	51	4684
2026-01-16 22:33:42.53	86.47	29.44	-40.2	-42.5	13.8	7.60e-06	0	60	0	933232640	51	4825
2026-01-16 22:33:46.57	87.82	29.51	-40.1	-42.4	13.8	9.90e-06	0	61	0	945815552	51	4800
2026-01-16 22:33:50.61	89.18	29.57	-40.1	-42.3	13.9	4.50e-06	0	60	0	958398464	51	4748
2026-01-16 22:33:54.65	90.55	29.61	-39.9	-42.0	14.2	7.00e-07	0	60	0	970981376	51	4595
2026-01-16 22:33:58.69	91.92	29.63	-40.2	-42.6	13.7	4.50e-06	0	60	0	983564288	51	4885
2026-01-16 22:34:02.73	93.29	29.63	-40.2	-42.5	13.8	6.10e-06	0	60	0	996147200	51	4835
2026-01-16 22:34:06.76	94.65	29.62	-40.3	-42.6	13.6	7.60e-06	0	60	0	1008730112	51	4924
2026-01-16 22:34:10.80	96.02	29.58	-40.3	-42.6	13.6	6.10e-06	0	61	0	1022361600	51	4923
2026-01-16 22:34:14.85	97.39	29.53	-40.3	-42.6	13.7	5.30e-06	0	61	0	1033895936	51	4925
2026-01-16 22:34:18.89	98.75	29.47	-40.2	-42.6	13.7	2.20e-06	0	61	0	1047527424	51	4879
2026-01-16 22:34:22.93	100.10	29.38	-40.1	-42.3	14.0	2.20e-06	0	61	0	1060110336	51	4747
2026-01-16 22:34:26.97	101.45	29.28	-40.3	-42.6	13.7	5.30e-06	0	60	0	1072693248	51	4910
2026-01-16 22:34:31.01	102.78	29.17	-40.1	-42.4	13.9	4.50e-06	0	61	0	1085276160	51	4802
2026-01-16 22:34:35.04	104.11	29.03	-39.9	-42.0	14.3	0.00e+00	0	60	0	1097859072	51	4583
2026-01-16 22:34:39.08	105.42	28.88	-40.2	-42.5	13.7	3.80e-06	0	61	0	1110441984	51	4852
2026-01-16 22:34:43.12	106.73	28.72	-40.1	-42.4	13.9	3.80e-06	0	61	0	1123024896	51	4802
2026-01-16 22:34:47.16	108.02	28.54	-40.2	-42.4	13.9	3.00e-06	0	60	0	1135607808	51	4800
2026-01-16 22:34:51.20	109.29	28.35	-40.0	-42.2	14.1	7.00e-07	0	61	0	1148190720	51	4661
2026-01-16 22:34:55.24	110.55	28.14	-40.2	-42.5	13.9	6.10e-06	0	60	0	1160773632	51	4818
2026-01-16 22:34:59.27	111.79	27.92	-40.0	-42.2	14.1	2.20e-06	0	61	0	1173356544	51	4701
2026-01-16 22:35:03.31	113.02	27.69	-39.8	-42.0	14.4	7.00e-07	0	61	0	1185939456	51	4567
2026-01-16 22:35:07.36	114.23	27.45	-40.2	-42.4	13.9	5.30e-06	0	60	0	1198522368	51	4797
2026-01-16 22:35:11.40	115.42	27.20	-40.0	-42.2	14.1	3.80e-06	0	61	0	1211105280	51	4693
2026-01-16 22:35:15.43	116.59	26.93	-39.9	-42.1	14.2	0.00e+00	0	61	0	1223688192	51	4638
2026-01-16 22:35:19.48	117.75	26.66	-40.0	-42.3	14.0	1.50e-06	0	60	0	1236271104	51	4706
2026-01-16 22:35:23.52	118.88	26.37	-40.1	-42.4	13.9	3.00e-06	0	60	0	1248854016	51	4807
2026-01-16 22:35:27.56	120.00	26.08	-39.9	-42.1	14.2	7.00e-07	0	60	0	1261436928	51	4633
2026-01-16 22:35:31.59	121.09	25.78	-39.9	-42.1	14.2	7.00e-07	0	60	0	1274019840	51	4635
2026-01-16 22:35:35.63	122.16	25.48	-39.7	-41.9	14.4	7.00e-07	0	61	0	1286602752	51	4503
2026-01-16 22:35:39.66	123.21	25.16	-39.4	-41.4	14.9	7.00e-07	0	61	0	1299185664	50	4531
2026-01-16 22:35:43.71	124.25	24.84	-39.7	-41.8	14.4	0.00e+00	0	61	0	1311768576	50	4744
2026-01-16 22:35:47.74	125.26	24.52	-39.8	-42.0	14.3	7.00e-07	0	60	0	1324351488	50	4845
2026-01-16 22:35:51.78	126.25	24.19	-39.9	-42.2	14.1	3.80e-06	0	61	0	1336934400	50	4930
2026-01-16 22:35:55.82	127.22	23.85	-40.0	-42.2	14.0	3.00e-06	0	61	0	1349517312	50	4962
2026-01-16 22:35:59.86	128.17	23.52	-39.9	-42.1	14.2	1.50e-06	0	61	0	1363148800	50	4880
2026-01-16 22:36:03.90	129.10	23.17	-39.8	-41.9	14.3	4.50e-06	0	61	0	1375731712	50	4800
2026-01-16 22:36:07.95	130.02	22.83	-39.6	-41.7	14.6	3.00e-06	0	61	0	1388314624	50	4676
2026-01-16 22:36:11.98	130.91	22.48	-39.5	-41.6	14.6	0.00e+00	0	61	0	1400897536	50	4636
2026-01-16 22:36:16.02	131.78	22.13	-39.9	-42.2	14.0	3.00e-06	0	61	0	1413480448	50	4949
2026-01-16 22:36:20.05	132.63	21.78	-39.9	-42.2	14.0	3.00e-06	0	61	0	1426063360	50	4944
2026-01-16 22:36:24.09	133.47	21.43	-39.8	-42.0	14.2	1.50e-06	0	61	0	1438646272	50	4831
2026-01-16 22:36:28.13	134.29	21.07	-39.9	-42.1	14.1	2.20e-06	0	61	0	1451229184	50	4901
2026-01-16 22:36:32.17	135.08	20.72	-39.9	-42.1	14.0	3.00e-06	0	61	0	1463812096	50	4917
2026-01-16 22:36:36.21	135.87	20.37	-39.8	-42.0	14.1	2.20e-06	0	61	0	1476395008	50	4851
2026-01-16 22:36:40.25	136.63	20.01	-39.9	-42.2	13.9	4.50e-06	0	61	0	1488977920	50	4942
2026-01-16 22:36:44.29	137.38	19.66	-40.2	-42.6	13.5	1.06e-05	0	61	0	1501560832	50	5173
2026-01-16 22:36:48.33	138.11	19.30	-40.2	-42.6	13.5	6.80e-06	0	61	0	1514143744	51	4882
2026-01-16 22:36:52.37	138.82	18.95	-40.1	-42.5	13.5	5.30e-06	0	61	0	1526726656	51	4844
2026-01-16 22:36:56.42	139.52	18.59	-40.1	-42.5	13.5	8.30e-06	0	61	0	1539309568	51	4855
2026-01-16 22:37:00.46	140.20	18.24	-39.8	-42.1	14.0	4.50e-06	0	61	0	1551892480	51	4607
2026-01-16 22:37:04.50	140.87	17.89	-39.9	-42.2	13.8	9.10e-06	0	61	0	1564475392	51	4676
2026-01-16 22:37:08.54	141.52	17.54	-40.0	-42.4	13.6	4.11e-05	0	61	0	1577058304	51	4778
2026-01-16 22:37:12.58	142.16	17.19	-40.3	-42.8	13.2	2.44e-05	0	61	0	1589641216	51	5025
2026-01-16 22:37:16.62	142.78	16.85	-39.9	-42.3	13.7	2.20e-06	0	61	0	1602224128	51	4708
2026-01-16 22:37:20.66	143.39	16.50	-40.0	-42.4	13.6	1.06e-05	0	61	0	1614807040	51	4782
2026-01-16 22:37:24.70	143.99	16.16	-40.2	-42.6	13.2	2.13e-05	0	61	0	1627389952	51	4924
2026-01-16 22:37:28.74	144.57	15.82	-40.2	-42.9	13.0	5.87e-05	0	61	0	1639972864	51	5050
2026-01-16 22:37:32.78	145.14	15.48	-40.4	-43.0	12.9	5.41e-05	0	61	0	1652555776	51	5125
2026-01-16 22:37:36.82	145.70	15.14	-40.5	-43.1	12.7	6.79e-05	0	61	0	1665138688	51	5199
2026-01-16 22:37:40.85	146.25	14.81	-40.5	-43.2	12.6	7.78e-05	0	61	0	1678770176	51	5238
2026-01-16 22:37:44.89	146.78	14.48	-40.5	-43.1	12.6	8.01e-05	0	61	0	1690304512	51	5206
2026-01-16 22:37:48.93	147.31	14.15	-40.7	-43.6	12.1	2.60e-04	0	61	0	1703936000	52	5181
2026-01-16 22:37:52.97	147.82	13.82	-40.7	-43.6	12.1	2.75e-04	0	61	0	1716518912	52	5174
2026-01-16 22:37:57.01	148.32	13.49	-40.5	-43.3	12.4	1.91e-04	0	61	0	1729101824	52	5001
2026-01-16 22:38:01.05	148.81	13.17	-40.6	-43.4	12.2	1.91e-04	0	61	0	1741684736	52	5082
2026-01-16 22:38:05.09	149.29	12.85	-40.7	-43.6	12.0	4.16e-04	0	61	0	1754267648	52	5192
2026-01-16 22:38:09.14	149.76	12.53	-40.6	-43.5	12.0	3.49e-04	0	61	0	1766850560	52	5152
2026-01-16 22:38:13.18	150.22	12.22	-40.6	-43.5	12.0	3.41e-04	0	61	0	1779433472	52	5136
2026-01-16 22:38:17.22	150.68	11.90	-40.5	-43.4	12.0	2.99e-04	0	61	0	1792016384	52	5093
2026-01-16 22:38:21.26	151.12	11.59	-40.6	-43.5	11.9	3.23e-04	0	61	0	1804599296	52	5157
2026-01-16 22:38:25.30	151.55	11.28	-40.7	-43.7	11.7	5.18e-04	0	61	0	1817182208	52	5254
2026-01-16 22:38:29.34	151.98	10.98	-40.7	-43.8	11.6	7.58e-04	0	61	0	1829765120	52	5288
2026-01-16 22:38:33.38	152.39	10.67	-40.9	-44.1	11.2	1.22e-03	0	61	0	1842348032	52	5497
2026-01-16 22:38:37.42	152.80	10.37	-40.8	-43.9	11.4	9.92e-04	0	61	0	1854930944	52	5375
2026-01-16 22:38:41.45	153.20	10.08	-40.6	-43.7	11.5	9.95e-04	0	61	0	1867513856	52	5264
2026-01-16 22:38:45.49	153.59	9.78	-40.7	-43.8	11.4	8.88e-04	0	61	0	1880096768	52	5309
2026-01-16 22:38:49.53	153.98	9.49	-40.8	-44.0	11.1	1.34e-03	0	61	0	1892679680	52	5451
2026-01-16 22:38:53.58	154.36	9.19	-40.6	-43.8	11.2	1.45e-03	0	61	0	1905262592	52	5304
2026-01-16 22:38:57.61	154.73	8.90	-40.6	-43.8	11.1	1.41e-03	0	61	0	1917845504	52	5326
2026-01-16 22:39:01.65	155.09	8.62	-40.7	-44.1	10.8	2.99e-03	0	61	0	1930428416	52	5516
2026-01-16 22:39:05.69	155.45	8.33	-40.9	-44.4	10.4	4.13e-03	0	61	0	1943011328	52	5706
2026-01-16 22:39:09.73	155.80	8.05	-40.9	-44.5	10.3	5.06e-03	0	61	0	1955594240	52	5749
2026-01-16 22:39:13.77	156.14	7.77	-45.2	-57.8	3.8	1.49e+00	0	61	104	1958739968	60	16724
2026-01-16 22:39:17.81	156.48	7.49	-45.5	-58.1	3.8	1.49e+00	0	61	104	1958739968	61	16324
2026-01-16 22:39:21.85	156.81	7.22	-45.5	-57.8	3.8	1.49e+00	0	61	104	1958739968	61	15862
2026-01-16 22:39:25.89	157.14	6.94	-45.4	-57.7	3.8	1.49e+00	0	61	104	1958739968	61	15667
2026-01-16 22:39:29.94	157.46	6.67	-45.4	-57.6	3.8	1.49e+00	0	61	104	1958739968	61	15571
2026-01-16 22:39:33.98	157.77	6.40	-45.4	-57.7	3.8	1.49e+00	0	61	104	1958739968	61	15600
2026-01-16 22:39:38.02	158.08	6.14	-45.3	-57.6	3.8	1.49e+00	0	61	104	1958739968	61	15540
2026-01-16 22:39:42.07	158.38	5.87	-45.3	-57.6	3.8	1.49e+00	0	61	104	1958739968	61	15546
2026-01-16 22:39:46.11	158.68	5.61	-45.3	-57.6	3.8	1.49e+00	0	61	104	1958739968	61	15522
2026-01-16 22:39:50.16	158.97	5.35	-45.3	-57.6	3.8	1.49e+00	0	61	104	1958739968	61	15499
2026-01-16 22:39:54.20	159.26	5.09	-45.3	-57.6	3.8	1.49e+00	0	61	104	1958739968	61	15490
2026-01-16 22:39:58.24	159.55	4.83	-45.3	-57.6	3.8	1.49e+00	0	61	104	1958739968	61	15492
2026-01-16 22:40:02.29	159.82	4.57	-45.3	-57.6	3.8	1.49e+00	0	61	104	1958739968	61	15490
2026-01-16 22:40:06.33	160.10	4.32	-45.3	-57.5	3.8	1.49e+00	0	61	104	1958739968	61	15392
2026-01-16 22:40:10.38	160.37	4.07	-45.3	-57.6	3.8	1.49e+00	0	61	104	1958739968	61	15484
2026-01-16 22:40:14.42	160.63	3.82	-45.3	-57.6	3.8	1.49e+00	0	61	104	1958739968	61	15420
2026-01-16 22:40:18.46	160.89	3.57	-45.3	-57.6	3.8	1.49e+00	0	61	104	1958739968	61	15452
2026-01-16 22:40:22.50	161.15	3.32	-45.3	-57.5	3.8	1.49e+00	0	61	104	1958739968	61	15396
2026-01-16 22:40:26.54	161.40	3.08	-45.3	-57.5	3.8	1.49e+00	0	61	104	1958739968	61	15389
2026-01-16 22:40:30.59	161.65	2.84	-45.3	-57.6	3.8	1.49e+00	0	61	104	1958739968	61	15424
2026-01-16 22:40:34.63	161.90	2.60	-45.3	-57.6	3.8	1.49e+00	0	61	104	1958739968	61	15425
2026-01-16 22:40:38.67	162.14	2.36	-45.3	-57.6	3.8	1.49e+00	0	61	104	1958739968	61	15445
2026-01-16 22:40:42.72	162.38	2.12	-45.3	-57.5	3.8	1.49e+00	0	61	104	1958739968	61	15378
2026-01-16 22:40:46.76	162.61	1.88	-45.3	-57.6	3.8	1.49e+00	0	61	104	1958739968	61	15439

#Closed at: 2026-01-16 22:40:46
#Recorded file [1958 MB]: D:/lorett/data/31039_260117_012714.dat