passes_logs/2026/01/16/R2.0S_Moscow/R2.0S_Moscow__20260116_033928_FENGYUN_3E_rec.log

#Pass ID: 20260116_033928_FENGYUN 3E
#Satellite: FENGYUN 3E
#Configuration: FENGYUN 3E
#almurnet v.1.7.20251203
#Start time: 2026-01-16 03:39:29

#Version: 2.2.20231116
#Station: R2.0S_Moscow
#Location: 37.707566 lon 55.798166 lat
#TLE: 1 49008U 21062A   26015.49897766  .00000206  00000+0  11779-3 0  9997
#TLE: 2 49008  98.7486  20.6219 0002049 135.8566 224.2775 14.19885576234916

#Time	Az	El	Level	Level2	SNR	BER	BlckErr	Temp	State	Recorded	gain1	gain2
2026-01-16 03:39:29.23	17.53	2.08	-41.9	-53.3	3.8	8.46e-01	0	51	0	0	54	13291
2026-01-16 03:39:33.27	17.60	2.34	-41.9	-53.2	3.8	8.46e-01	0	52	104	0	54	13256
2026-01-16 03:39:37.31	17.67	2.60	-41.9	-53.2	3.8	8.47e-01	0	52	104	0	54	13245
2026-01-16 03:39:41.35	17.74	2.86	-41.9	-53.2	3.8	8.45e-01	0	52	104	0	54	13243
2026-01-16 03:39:45.38	17.81	3.12	-41.9	-53.2	3.8	8.46e-01	0	53	104	0	54	13257
2026-01-16 03:39:49.41	17.89	3.39	-41.8	-53.3	3.8	8.46e-01	0	53	104	0	54	13291
2026-01-16 03:39:53.45	17.96	3.66	-41.8	-53.2	3.8	8.46e-01	0	53	104	0	54	13216
2026-01-16 03:39:57.49	18.03	3.93	-41.8	-53.2	3.8	8.46e-01	0	53	104	0	54	13228
2026-01-16 03:40:01.52	18.11	4.21	-41.9	-53.2	3.8	8.46e-01	0	54	104	0	54	13218
2026-01-16 03:40:05.56	18.19	4.49	-41.9	-53.2	3.8	8.46e-01	0	54	104	0	54	13224
2026-01-16 03:40:09.59	18.27	4.77	-41.9	-53.2	3.8	8.45e-01	0	54	104	0	54	13201
2026-01-16 03:40:13.63	18.34	5.05	-41.8	-53.2	3.8	8.46e-01	0	54	104	0	54	13217
2026-01-16 03:40:17.67	18.42	5.34	-41.8	-53.3	3.8	8.46e-01	0	55	104	0	54	13274
2026-01-16 03:40:21.71	18.51	5.63	-41.9	-53.2	3.8	8.46e-01	0	55	104	0	54	13250
2026-01-16 03:40:25.75	18.59	5.92	-41.8	-53.2	3.8	8.46e-01	0	55	104	0	54	13193
2026-01-16 03:40:29.79	18.67	6.22	-41.8	-53.2	3.8	8.46e-01	0	55	104	0	54	13208
2026-01-16 03:40:33.84	18.76	6.52	-41.8	-53.1	3.8	8.46e-01	0	56	104	0	54	13061
2026-01-16 03:40:37.88	18.85	6.82	-41.8	-53.1	3.8	8.46e-01	0	56	104	0	54	13027
2026-01-16 03:40:41.92	18.93	7.13	-41.8	-52.9	3.8	8.45e-01	0	56	104	0	54	12743
2026-01-16 03:40:45.96	19.02	7.44	-41.8	-52.7	3.8	8.46e-01	0	56	104	0	54	12427
2026-01-16 03:40:49.99	19.12	7.75	-41.7	-51.6	3.8	8.45e-01	0	56	104	0	54	10932
2026-01-16 03:40:54.03	19.21	8.07	-41.0	-47.8	4.9	7.99e-01	0	56	0	0	53	7520
2026-01-16 03:40:58.07	19.30	8.39	-41.6	-46.4	6.9	1.27e-01	0	56	0	13631488	53	6365
2026-01-16 03:41:02.11	19.40	8.72	-38.4	-40.7	12.5	1.07e-04	0	57	0	40894464	47	4693
2026-01-16 03:41:06.14	19.50	9.05	-38.6	-41.0	12.3	2.20e-04	0	57	0	70254592	47	4822
2026-01-16 03:41:10.17	19.60	9.39	-38.3	-40.4	13.1	3.89e-05	0	57	0	99614720	47	4505
2026-01-16 03:41:14.20	19.70	9.72	-38.4	-40.5	13.2	2.86e-05	0	57	0	128974848	47	4551
2026-01-16 03:41:18.24	19.81	10.07	-38.3	-40.3	13.4	1.02e-05	0	57	0	158334976	47	4482
2026-01-16 03:41:22.28	19.91	10.42	-38.4	-40.4	13.5	9.10e-06	0	57	0	187695104	47	4534
2026-01-16 03:41:26.31	20.02	10.77	-38.5	-40.5	13.6	1.14e-05	0	57	0	216006656	47	4553
2026-01-16 03:41:30.36	20.13	11.13	-38.3	-40.2	13.9	3.40e-06	0	57	0	245366784	47	4407
2026-01-16 03:41:34.40	20.24	11.50	-38.3	-40.2	14.0	6.80e-06	0	58	0	274726912	47	4414
2026-01-16 03:41:38.43	20.36	11.87	-38.3	-40.1	14.2	4.50e-06	0	58	0	304087040	47	4356
2026-01-16 03:41:42.46	20.48	12.24	-38.2	-39.9	14.4	1.10e-06	0	58	0	332398592	47	4274
2026-01-16 03:41:46.50	20.60	12.62	-38.0	-39.7	14.7	0.00e+00	0	58	0	361758720	47	4162
2026-01-16 03:41:50.53	20.72	13.01	-38.1	-39.8	14.6	0.00e+00	0	58	0	391118848	46	4465
2026-01-16 03:41:54.56	20.85	13.40	-37.9	-39.6	14.9	0.00e+00	0	58	0	420478976	46	4363
2026-01-16 03:41:58.60	20.98	13.80	-37.9	-39.5	15.0	0.00e+00	0	58	0	448790528	46	4313
2026-01-16 03:42:02.63	21.11	14.21	-37.8	-39.4	15.1	0.00e+00	0	58	0	478150656	46	4267
2026-01-16 03:42:06.67	21.24	14.62	-37.7	-39.2	15.3	0.00e+00	0	58	0	507510784	46	4186
2026-01-16 03:42:10.70	21.38	15.04	-37.6	-39.2	15.4	0.00e+00	0	58	0	536870912	46	4186
2026-01-16 03:42:14.74	21.52	15.47	-37.4	-39.0	15.7	0.00e+00	0	59	0	566231040	45	4306
2026-01-16 03:42:18.77	21.67	15.91	-37.4	-38.9	15.7	0.00e+00	0	59	0	594542592	45	4290
2026-01-16 03:42:22.82	21.82	16.35	-37.3	-38.7	16.0	0.00e+00	0	58	0	623902720	45	4182
2026-01-16 03:42:26.86	21.97	16.80	-37.2	-38.7	16.0	0.00e+00	0	59	0	653262848	45	4180
2026-01-16 03:42:30.89	22.13	17.26	-37.1	-38.5	16.2	0.00e+00	0	58	0	682622976	45	4075
2026-01-16 03:42:34.92	22.29	17.73	-37.0	-38.4	16.4	0.00e+00	0	59	0	711983104	44	4274
2026-01-16 03:42:38.96	22.46	18.21	-36.8	-38.1	16.7	0.00e+00	0	59	0	740294656	44	4138
2026-01-16 03:42:43.01	22.63	18.70	-36.7	-38.0	16.8	0.00e+00	0	59	0	769654784	44	4086
2026-01-16 03:42:47.05	22.81	19.19	-36.5	-37.8	17.1	0.00e+00	0	59	0	799014912	44	3995
2026-01-16 03:42:51.08	22.99	19.70	-36.2	-37.5	17.2	0.00e+00	0	59	0	828375040	43	4084
2026-01-16 03:42:55.12	23.18	20.21	-36.2	-37.5	17.3	0.00e+00	0	59	0	857735168	43	4075
2026-01-16 03:42:59.16	23.38	20.74	-36.2	-37.4	17.3	0.00e+00	0	59	0	886046720	43	4042
2026-01-16 03:43:03.20	23.58	21.28	-36.3	-37.6	17.2	0.00e+00	0	59	0	915406848	43	4115
2026-01-16 03:43:07.24	23.78	21.83	-36.4	-37.7	17.2	0.00e+00	0	59	0	944766976	43	4150
2026-01-16 03:43:11.29	24.00	22.40	-36.5	-37.8	17.0	0.00e+00	0	59	0	974127104	43	4232
2026-01-16 03:43:15.33	24.22	22.97	-36.3	-37.5	17.3	0.00e+00	0	59	0	1003487232	43	4097
2026-01-16 03:43:19.36	24.45	23.56	-35.9	-37.2	17.7	0.00e+00	0	59	0	1031798784	42	4150
2026-01-16 03:43:23.41	24.68	24.16	-35.8	-37.0	17.9	0.00e+00	0	59	0	1061158912	42	4094
2026-01-16 03:43:27.45	24.93	24.77	-35.9	-37.1	17.8	0.00e+00	0	59	0	1090519040	42	4115
2026-01-16 03:43:31.49	25.19	25.40	-35.8	-37.0	17.9	0.00e+00	0	59	0	1119879168	42	4093
2026-01-16 03:43:35.53	25.45	26.04	-35.9	-37.1	17.8	0.00e+00	0	59	0	1149239296	42	4131
2026-01-16 03:43:39.57	25.73	26.70	-35.8	-37.0	17.9	0.00e+00	0	60	0	1178599424	42	4098
2026-01-16 03:43:43.61	26.01	27.38	-35.7	-36.8	18.1	0.00e+00	0	60	0	1206910976	41	4236
2026-01-16 03:43:47.65	26.31	28.07	-35.4	-36.5	18.4	0.00e+00	0	60	0	1236271104	41	4082
2026-01-16 03:43:51.69	26.62	28.78	-35.2	-36.4	18.6	0.00e+00	0	60	0	1265631232	41	4012
2026-01-16 03:43:55.73	26.95	29.50	-35.3	-36.4	18.6	0.00e+00	0	60	0	1294991360	41	4034
2026-01-16 03:43:59.77	27.29	30.25	-35.3	-36.4	18.6	0.00e+00	0	60	0	1323302912	41	4028
2026-01-16 03:44:03.80	27.64	31.01	-35.3	-36.5	18.5	0.00e+00	0	60	0	1352663040	41	4073
2026-01-16 03:44:07.84	28.01	31.79	-35.3	-36.5	18.6	0.00e+00	0	60	0	1382023168	40	4295
2026-01-16 03:44:11.88	28.40	32.59	-35.5	-36.7	18.4	0.00e+00	0	60	0	1411383296	40	4394
2026-01-16 03:44:15.92	28.81	33.41	-35.6	-36.7	18.3	0.00e+00	0	60	0	1440743424	40	4433
2026-01-16 03:44:19.96	29.23	34.26	-35.7	-36.8	18.2	0.00e+00	0	60	0	1470103552	41	4240
2026-01-16 03:44:24.00	29.68	35.13	-35.4	-36.5	18.6	0.00e+00	0	60	0	1498415104	41	4074
2026-01-16 03:44:28.04	30.16	36.01	-35.2	-36.3	18.7	0.00e+00	0	60	0	1527775232	41	4000
2026-01-16 03:44:32.08	30.66	36.93	-35.4	-36.6	18.5	0.00e+00	0	60	0	1557135360	41	4106
2026-01-16 03:44:36.12	31.19	37.86	-35.6	-36.8	18.4	0.00e+00	0	60	0	1586495488	41	4199
2026-01-16 03:44:40.16	31.75	38.82	-35.8	-37.0	18.1	0.00e+00	0	60	0	1615855616	41	4302
2026-01-16 03:44:44.20	32.34	39.81	-35.7	-36.9	18.2	0.00e+00	0	60	0	1644167168	41	4266
2026-01-16 03:44:48.24	32.97	40.82	-35.8	-37.0	18.1	0.00e+00	0	60	0	1673527296	41	4331
2026-01-16 03:44:52.28	33.64	41.85	-36.0	-37.2	18.0	0.00e+00	0	60	0	1702887424	42	4181
2026-01-16 03:44:56.32	34.35	42.91	-36.1	-37.2	17.9	0.00e+00	0	60	0	1732247552	41	4440
2026-01-16 03:45:00.37	35.12	44.00	-35.9	-37.1	18.0	0.00e+00	0	60	0	1761607680	41	4383
2026-01-16 03:45:04.40	35.93	45.11	-36.0	-37.2	18.1	0.00e+00	0	60	0	1790967808	42	4148
2026-01-16 03:45:08.44	36.80	46.25	-36.2	-37.4	17.9	0.00e+00	0	60	0	1819279360	42	4253
2026-01-16 03:45:12.48	37.74	47.41	-36.2	-37.4	17.7	0.00e+00	0	60	0	1848639488	42	4270
2026-01-16 03:45:16.52	38.75	48.59	-36.6	-37.9	17.3	0.00e+00	0	60	0	1877999616	43	4271
2026-01-16 03:45:20.55	39.84	49.80	-36.9	-38.2	17.1	0.00e+00	0	60	0	1907359744	43	4410
2026-01-16 03:45:24.59	41.02	51.03	-37.0	-38.3	17.1	0.00e+00	0	60	0	1936719872	44	4238
2026-01-16 03:45:28.63	42.30	52.28	-36.8	-38.1	17.1	0.00e+00	0	60	0	1965031424	43	4364
2026-01-16 03:45:32.67	43.70	53.55	-37.1	-38.5	16.8	0.00e+00	0	60	0	1994391552	43	4548
2026-01-16 03:45:36.71	45.22	54.83	-37.2	-38.5	16.9	0.00e+00	0	60	0	2023751680	44	4327
2026-01-16 03:45:40.75	46.88	56.12	-37.3	-38.6	16.8	0.00e+00	0	60	0	2053111808	44	4352
2026-01-16 03:45:44.79	48.71	57.41	-36.9	-38.2	17.2	0.00e+00	0	60	0	2082471936	44	4159
2026-01-16 03:45:48.83	50.71	58.71	-37.1	-38.4	17.1	0.00e+00	0	60	0	2111832064	44	4281
2026-01-16 03:45:52.87	52.93	60.00	-36.9	-38.2	17.2	0.00e+00	0	60	0	2140143616	44	4187
2026-01-16 03:45:56.91	55.37	61.27	-36.9	-38.2	17.2	0.00e+00	0	60	0	2169503744	44	4188
2026-01-16 03:46:00.95	58.07	62.52	-36.3	-37.5	17.7	0.00e+00	0	60	0	2198863872	43	4097
2026-01-16 03:46:04.99	61.05	63.73	-36.1	-37.3	18.0	0.00e+00	0	60	0	2228224000	42	4224
2026-01-16 03:46:09.03	64.36	64.90	-35.7	-36.8	18.4	0.00e+00	0	60	0	2257584128	42	4002
2026-01-16 03:46:13.07	68.01	65.99	-35.4	-36.5	18.6	0.00e+00	0	60	0	2285895680	41	4082
2026-01-16 03:46:17.11	72.04	67.01	-35.7	-36.9	18.4	0.00e+00	0	60	0	2315255808	41	4247
2026-01-16 03:46:21.15	76.45	67.92	-36.0	-37.2	18.0	0.00e+00	0	61	0	2344615936	41	4414
2026-01-16 03:46:25.19	81.25	68.71	-36.1	-37.3	17.9	0.00e+00	0	60	0	2373976064	42	4239
2026-01-16 03:46:29.24	86.42	69.36	-35.7	-36.8	18.4	0.00e+00	0	60	0	2403336192	42	3989
2026-01-16 03:46:33.27	91.88	69.85	-36.0	-37.2	18.0	0.00e+00	0	60	0	2432696320	42	4182
2026-01-16 03:46:37.32	97.61	70.16	-36.0	-37.2	18.0	0.00e+00	0	60	0	2461007872	42	4152
2026-01-16 03:46:41.36	103.46	70.28	-36.1	-37.3	17.9	0.00e+00	0	60	0	2490368000	42	4231
2026-01-16 03:46:45.40	109.32	70.21	-35.6	-36.7	18.4	0.00e+00	0	60	0	2519728128	42	3956
2026-01-16 03:46:49.44	115.08	69.95	-35.5	-36.6	18.6	0.00e+00	0	60	0	2549088256	41	4101
2026-01-16 03:46:53.48	120.64	69.51	-35.5	-36.6	18.5	0.00e+00	0	60	0	2578448384	41	4130
2026-01-16 03:46:57.52	125.90	68.91	-35.3	-36.5	18.7	0.00e+00	0	60	0	2606759936	41	4058
2026-01-16 03:47:01.56	130.80	68.15	-35.4	-36.5	18.6	0.00e+00	0	61	0	2636120064	41	4087
2026-01-16 03:47:05.60	135.33	67.27	-35.5	-36.6	18.5	0.00e+00	0	61	0	2665480192	41	4143
2026-01-16 03:47:09.64	139.46	66.28	-35.2	-36.3	18.8	0.00e+00	0	60	0	2694840320	41	3988
2026-01-16 03:47:13.68	143.22	65.20	-35.4	-36.5	18.5	0.00e+00	0	60	0	2724200448	41	4086
2026-01-16 03:47:17.72	146.63	64.05	-36.2	-37.4	17.8	0.00e+00	0	61	0	2753560576	41	4520
2026-01-16 03:47:21.76	149.71	62.85	-36.1	-37.3	17.9	0.00e+00	0	60	0	2781872128	42	4239
2026-01-16 03:47:25.80	152.49	61.60	-36.6	-37.9	17.3	0.00e+00	0	61	0	2811232256	43	4271
2026-01-16 03:47:29.84	155.00	60.33	-36.9	-38.2	17.0	0.00e+00	0	61	0	2840592384	43	4441
2026-01-16 03:47:33.88	157.27	59.04	-36.8	-38.1	17.2	0.00e+00	0	60	0	2869952512	43	4361
2026-01-16 03:47:37.92	159.34	57.74	-37.0	-38.3	16.9	0.00e+00	0	61	0	2898264064	43	4483
2026-01-16 03:47:41.97	161.21	56.44	-37.6	-39.0	16.5	0.00e+00	0	61	0	2927624192	44	4559
2026-01-16 03:47:46.01	162.92	55.14	-36.9	-38.2	17.3	0.00e+00	0	61	0	2956984320	44	4147
2026-01-16 03:47:50.04	164.48	53.85	-36.7	-38.0	17.4	0.00e+00	0	60	0	2986344448	44	4082
2026-01-16 03:47:54.08	165.91	52.58	-36.8	-38.1	17.4	0.00e+00	0	61	0	3015704576	44	4099
2026-01-16 03:47:58.12	167.22	51.32	-37.1	-38.4	17.0	0.00e+00	0	60	0	3044016128	44	4284
2026-01-16 03:48:02.16	168.43	50.08	-36.9	-38.2	17.2	0.00e+00	0	61	0	3073376256	44	4168
2026-01-16 03:48:06.19	169.54	48.86	-37.2	-38.6	16.8	0.00e+00	0	61	0	3102736384	44	4377
2026-01-16 03:48:10.23	170.57	47.66	-36.6	-37.8	17.6	0.00e+00	0	61	0	3132096512	44	3976
2026-01-16 03:48:14.27	171.53	46.49	-36.6	-37.9	17.4	0.00e+00	0	61	0	3161456640	43	4243
2026-01-16 03:48:18.32	172.42	45.34	-36.1	-37.3	17.9	0.00e+00	0	61	0	3189768192	43	3969
2026-01-16 03:48:22.35	173.25	44.22	-35.7	-36.8	18.3	0.00e+00	0	61	0	3219128320	42	4003
2026-01-16 03:48:26.39	174.03	43.12	-35.7	-36.8	18.4	0.00e+00	0	61	0	3248488448	42	3999
2026-01-16 03:48:30.43	174.75	42.04	-35.5	-36.7	18.6	0.00e+00	0	61	0	3277848576	42	3914
2026-01-16 03:48:34.47	175.43	41.00	-35.5	-36.6	18.4	0.00e+00	0	61	0	3307208704	41	4135
2026-01-16 03:48:38.51	176.07	39.98	-35.7	-36.9	18.2	0.00e+00	0	61	0	3335520256	41	4280
2026-01-16 03:48:42.55	176.67	38.98	-35.8	-37.0	18.1	0.00e+00	0	61	0	3364880384	41	4316
2026-01-16 03:48:46.59	177.24	38.01	-35.7	-36.9	18.3	0.00e+00	0	61	0	3394240512	41	4267
2026-01-16 03:48:50.63	177.78	37.06	-35.5	-36.7	18.4	0.00e+00	0	61	0	3423600640	41	4165
2026-01-16 03:48:54.67	178.28	36.14	-35.3	-36.5	18.6	0.00e+00	0	61	0	3452960768	41	4069
2026-01-16 03:48:58.72	178.77	35.24	-35.4	-36.5	18.6	0.00e+00	0	61	0	3482320896	41	4072
2026-01-16 03:49:02.76	179.22	34.36	-35.5	-36.7	18.4	0.00e+00	0	61	0	3510632448	41	4161
2026-01-16 03:49:06.80	179.65	33.51	-35.4	-36.5	18.5	0.00e+00	0	61	0	3539992576	41	4075
2026-01-16 03:49:10.83	180.06	32.68	-35.2	-36.3	18.7	0.00e+00	0	61	0	3569352704	41	3996
2026-01-16 03:49:14.87	180.46	31.87	-35.1	-36.2	18.8	0.00e+00	0	61	0	3598712832	41	3939
2026-01-16 03:49:18.91	180.83	31.08	-35.2	-36.3	18.7	0.00e+00	0	61	0	3628072960	41	3977
2026-01-16 03:49:22.96	181.19	30.31	-35.4	-36.5	18.5	0.00e+00	0	61	0	3656384512	41	4081
2026-01-16 03:49:26.99	181.53	29.55	-35.4	-36.5	18.5	0.00e+00	0	61	0	3685744640	41	4082
2026-01-16 03:49:31.03	181.85	28.82	-35.4	-36.5	18.5	0.00e+00	0	61	0	3715104768	41	4088
2026-01-16 03:49:35.07	182.17	28.11	-35.5	-36.7	18.3	0.00e+00	0	61	0	3744464896	41	4171
2026-01-16 03:49:39.11	182.47	27.41	-35.7	-36.9	18.0	0.00e+00	0	61	0	3773825024	41	4279
2026-01-16 03:49:43.15	182.75	26.73	-35.9	-37.1	17.8	0.00e+00	0	61	0	3803185152	41	4377
2026-01-16 03:49:47.19	183.03	26.06	-36.1	-37.3	17.6	0.00e+00	0	61	0	3831496704	41	4491
2026-01-16 03:49:51.22	183.29	25.41	-35.9	-37.1	17.8	0.00e+00	0	61	0	3860856832	41	4379
2026-01-16 03:49:55.26	183.55	24.78	-35.8	-37.0	17.9	0.00e+00	0	61	0	3890216960	41	4328
2026-01-16 03:49:59.30	183.80	24.16	-35.7	-36.9	18.0	0.00e+00	0	61	0	3919577088	41	4291
2026-01-16 03:50:03.34	184.03	23.55	-35.7	-36.9	18.0	0.00e+00	0	61	0	3948937216	41	4254
2026-01-16 03:50:07.38	184.26	22.96	-35.7	-36.9	18.0	0.00e+00	0	61	0	3977248768	41	4252
2026-01-16 03:50:11.41	184.48	22.38	-35.7	-36.9	18.0	0.00e+00	0	61	0	4006608896	41	4281
2026-01-16 03:50:15.46	184.70	21.81	-35.7	-36.9	17.9	0.00e+00	0	61	0	4035969024	41	4289
2026-01-16 03:50:19.50	184.90	21.25	-35.8	-37.1	17.8	0.00e+00	0	61	0	4065329152	41	4344
2026-01-16 03:50:23.54	185.10	20.71	-36.0	-37.2	17.6	0.00e+00	0	61	0	4094689280	41	4420
2026-01-16 03:50:27.58	185.30	20.18	-36.2	-37.4	17.4	0.00e+00	0	61	0	4124049408	41	4542
2026-01-16 03:50:31.62	185.48	19.65	-36.4	-37.7	17.1	0.00e+00	0	61	0	4152360960	42	4428
2026-01-16 03:50:35.66	185.66	19.14	-36.5	-37.8	17.0	0.00e+00	0	61	0	4181721088	42	4477
2026-01-16 03:50:39.70	185.84	18.64	-36.5	-37.9	16.9	0.00e+00	0	61	0	4211081216	42	4497
2026-01-16 03:50:43.74	186.01	18.15	-36.5	-37.8	16.9	0.00e+00	0	61	0	4240441344	42	4491
2026-01-16 03:50:47.78	186.18	17.67	-36.5	-37.8	16.9	0.00e+00	0	61	0	4269801472	42	4483
2026-01-16 03:50:51.82	186.34	17.19	-36.6	-37.9	16.9	0.00e+00	0	60	0	4298113024	42	4521
2026-01-16 03:50:55.85	186.49	16.73	-36.7	-38.0	16.7	0.00e+00	0	61	0	4327473152	42	4578
2026-01-16 03:50:59.90	186.64	16.27	-36.7	-38.1	16.6	0.00e+00	0	61	0	4356833280	43	4374
2026-01-16 03:51:03.94	186.79	15.83	-36.9	-38.3	16.4	0.00e+00	0	61	0	4386193408	43	4456
2026-01-16 03:51:07.98	186.94	15.39	-37.0	-38.4	16.2	0.00e+00	0	61	0	4415553536	43	4527
2026-01-16 03:51:12.01	187.08	14.96	-37.4	-38.9	15.9	0.00e+00	0	61	0	4443865088	44	4517
2026-01-16 03:51:16.05	187.21	14.53	-37.6	-39.1	15.8	0.00e+00	0	61	0	4473225216	44	4613
2026-01-16 03:51:20.09	187.34	14.12	-37.7	-39.2	15.6	0.00e+00	0	61	0	4502585344	45	4421
2026-01-16 03:51:24.14	187.47	13.71	-38.0	-39.6	15.2	0.00e+00	0	61	0	4531945472	45	4644
2026-01-16 03:51:28.17	187.60	13.30	-38.0	-39.6	15.1	0.00e+00	0	61	0	4561305600	45	4646
2026-01-16 03:51:32.21	187.72	12.91	-38.0	-39.7	15.1	0.00e+00	0	61	0	4589617152	45	4663
2026-01-16 03:51:36.25	187.84	12.51	-38.1	-39.7	15.0	0.00e+00	0	61	0	4618977280	45	4682
2026-01-16 03:51:40.29	187.96	12.13	-38.2	-39.9	14.8	0.00e+00	0	61	0	4648337408	46	4533
2026-01-16 03:51:44.33	188.08	11.75	-38.3	-40.0	14.7	0.00e+00	0	61	0	4677697536	46	4576
2026-01-16 03:51:48.37	188.19	11.38	-38.4	-40.2	14.5	1.10e-06	0	61	0	4706009088	46	4659
2026-01-16 03:51:52.41	188.30	11.01	-38.4	-40.2	14.4	0.00e+00	0	61	0	4735369216	46	4661
2026-01-16 03:51:56.45	188.41	10.65	-38.4	-40.2	14.4	2.20e-06	0	61	0	4764729344	46	4658
2026-01-16 03:52:00.49	188.51	10.29	-38.4	-40.2	14.3	0.00e+00	0	61	0	4794089472	46	4679
2026-01-16 03:52:04.54	188.61	9.94	-38.5	-40.3	14.2	2.20e-06	0	61	0	4823449600	46	4729
2026-01-16 03:52:08.58	188.71	9.59	-38.7	-40.5	14.0	4.50e-06	0	61	0	4852809728	46	4851
2026-01-16 03:52:12.61	188.81	9.25	-38.6	-40.5	13.9	6.80e-06	0	61	0	4881121280	47	4574
2026-01-16 03:52:16.65	188.91	8.91	-38.9	-40.8	13.6	1.02e-05	0	61	0	4910481408	47	4722
2026-01-16 03:52:20.69	189.00	8.58	-38.9	-40.8	13.5	1.25e-05	0	61	0	4939841536	47	4759
2026-01-16 03:52:24.73	189.10	8.25	-38.8	-40.7	13.5	1.25e-05	0	61	0	4969201664	47	4703
2026-01-16 03:52:28.77	189.19	7.93	-45.1	-56.1	3.8	8.46e-01	0	61	104	4992270336	59	13787
2026-01-16 03:52:32.81	189.28	7.61	-45.6	-56.9	3.8	8.46e-01	0	61	104	4992270336	60	14345
2026-01-16 03:52:36.84	189.36	7.29	-45.7	-57.1	3.8	8.47e-01	0	61	104	4992270336	61	13884
2026-01-16 03:52:40.88	189.45	6.98	-45.8	-57.1	3.8	8.47e-01	0	61	104	4992270336	61	13785
2026-01-16 03:52:44.92	189.53	6.67	-45.6	-57.0	3.8	8.45e-01	0	61	104	4992270336	61	13637
2026-01-16 03:52:48.95	189.62	6.37	-45.6	-56.9	3.8	8.46e-01	0	61	104	4992270336	61	13545
2026-01-16 03:52:53.00	189.70	6.06	-45.6	-56.9	3.8	8.46e-01	0	61	104	4992270336	61	13551
2026-01-16 03:52:57.04	189.78	5.76	-45.6	-56.9	3.8	8.46e-01	0	61	104	4992270336	61	13508
2026-01-16 03:53:01.08	189.86	5.47	-45.6	-57.0	3.8	8.47e-01	0	61	104	4992270336	61	13575
2026-01-16 03:53:05.12	189.93	5.18	-45.6	-56.9	3.8	8.46e-01	0	61	104	4992270336	61	13507
2026-01-16 03:53:09.15	190.01	4.89	-45.6	-56.9	3.8	8.46e-01	0	61	104	4992270336	61	13524
2026-01-16 03:53:13.20	190.08	4.60	-45.6	-56.9	3.8	8.46e-01	0	61	104	4992270336	61	13552
2026-01-16 03:53:17.24	190.16	4.32	-45.6	-56.9	3.8	8.45e-01	0	61	104	4992270336	61	13496
2026-01-16 03:53:21.27	190.23	4.04	-45.6	-56.9	3.8	8.46e-01	0	61	104	4992270336	61	13515
2026-01-16 03:53:25.31	190.30	3.77	-45.6	-56.9	3.8	8.45e-01	0	61	104	4992270336	61	13502
2026-01-16 03:53:29.35	190.37	3.49	-45.6	-56.9	3.8	8.47e-01	0	61	104	4992270336	61	13474
2026-01-16 03:53:33.39	190.44	3.22	-45.6	-56.9	3.8	8.46e-01	0	61	104	4992270336	61	13545
2026-01-16 03:53:37.43	190.51	2.95	-45.6	-56.9	3.8	8.45e-01	0	61	104	4992270336	61	13521
2026-01-16 03:53:41.47	190.57	2.69	-45.6	-56.9	3.8	8.46e-01	0	61	104	4992270336	61	13475
2026-01-16 03:53:45.51	190.64	2.42	-45.6	-56.9	3.8	8.45e-01	0	61	104	4992270336	61	13534
2026-01-16 03:53:49.55	190.70	2.16	-45.5	-56.8	3.8	8.45e-01	0	61	104	4992270336	61	13413

#Closed at: 2026-01-16 03:53:52
#Recorded file [4992 MB]: D:/lorett/data/31039_260116_063929.dat