passes_logs/2026/01/16/R2.0S_Moscow/R2.0S_Moscow__20260116_133013_FENGYUN_3E_rec.log

#Pass ID: 20260116_133013_FENGYUN 3E
#Satellite: FENGYUN 3E
#Configuration: FENGYUN 3E
#almurnet v.1.7.20251203
#Start time: 2026-01-16 13:30:13

#Version: 2.2.20231116
#Station: R2.0S_Moscow
#Location: 37.707566 lon 55.798166 lat
#TLE: 1 49008U 21062A   26015.99225297  .00000062  00000+0  49720-4 0  9994
#TLE: 2 49008  98.7486  21.1092 0002100 136.3389 223.7953 14.19885247234982

#Time	Az	El	Level	Level2	SNR	BER	BlckErr	Temp	State	Recorded	gain1	gain2
2026-01-16 13:30:13.35	140.30	2.00	-37.7	-50.0	4.1	8.44e-01	0	51	0	0	49	12185
2026-01-16 13:30:17.39	140.18	2.26	-37.8	-53.3	4.0	8.45e-01	0	52	104	0	53	14083
2026-01-16 13:30:21.43	140.07	2.51	-35.3	-51.4	4.2	8.45e-01	0	52	104	0	46	16895
2026-01-16 13:30:25.47	139.95	2.77	-37.3	-50.3	4.1	8.44e-01	0	53	104	0	50	11941
2026-01-16 13:30:29.50	139.83	3.04	-39.2	-50.9	4.2	8.44e-01	0	53	104	0	39	23892
2026-01-16 13:30:33.54	139.70	3.30	-36.8	-48.1	4.2	8.43e-01	0	53	104	0	39	17429
2026-01-16 13:30:37.58	139.58	3.57	-42.8	-53.1	3.9	8.42e-01	0	54	104	0	46	20675
2026-01-16 13:30:41.62	139.45	3.84	-39.3	-51.6	3.7	8.45e-01	0	54	104	0	52	12278
2026-01-16 13:30:45.66	139.32	4.11	-39.2	-53.2	3.6	8.42e-01	0	54	104	0	51	15608
2026-01-16 13:30:49.70	139.18	4.38	-31.1	-47.5	4.3	8.45e-01	0	54	104	0	35	20503
2026-01-16 13:30:53.74	139.05	4.66	-35.1	-49.9	4.0	8.45e-01	0	55	104	0	46	14219
2026-01-16 13:30:57.77	138.91	4.94	-41.2	-53.3	4.0	8.44e-01	0	55	104	0	51	15827
2026-01-16 13:31:01.81	138.76	5.22	-39.3	-53.1	3.9	8.45e-01	0	55	104	0	52	14676
2026-01-16 13:31:05.85	138.62	5.51	-30.7	-46.5	3.9	8.44e-01	0	55	104	0	33	20379
2026-01-16 13:31:09.89	138.47	5.80	-36.8	-51.7	3.8	8.42e-01	0	56	104	0	37	29503
2026-01-16 13:31:13.94	138.32	6.09	-31.4	-52.0	3.7	8.43e-01	0	56	104	0	36	32291
2026-01-16 13:31:17.98	138.16	6.39	-41.1	-53.0	3.7	8.44e-01	0	56	104	0	50	16187
2026-01-16 13:31:22.01	138.01	6.68	-36.4	-50.6	4.0	8.43e-01	0	56	0	0	41	20771
2026-01-16 13:31:26.05	137.84	6.98	-32.9	-48.0	3.6	8.44e-01	0	56	104	0	44	12832
2026-01-16 13:31:30.10	137.68	7.29	-40.7	-49.8	4.2	8.44e-01	0	57	104	0	44	15909
2026-01-16 13:31:34.14	137.51	7.60	-36.6	-50.7	4.2	8.44e-01	0	57	104	0	47	14745
2026-01-16 13:31:38.18	137.34	7.91	-33.6	-50.0	4.1	8.42e-01	0	57	104	0	39	21529
2026-01-16 13:31:42.22	137.16	8.23	-37.5	-49.1	4.2	8.43e-01	0	57	104	0	36	23188
2026-01-16 13:31:46.26	136.98	8.54	-33.5	-49.8	3.6	8.46e-01	0	57	104	0	37	23792
2026-01-16 13:31:50.29	136.79	8.87	-36.4	-49.4	3.9	8.44e-01	0	57	104	0	43	16118
2026-01-16 13:31:54.33	136.60	9.19	-37.5	-49.2	3.8	8.45e-01	0	58	104	0	42	16631
2026-01-16 13:31:58.38	136.41	9.53	-34.2	-49.3	3.9	8.44e-01	0	58	0	0	48	11854
2026-01-16 13:32:02.41	136.21	9.86	-38.5	-50.1	3.9	8.35e-01	0	58	104	0	37	24435
2026-01-16 13:32:06.45	136.01	10.20	-36.8	-47.0	3.3	8.41e-01	0	58	104	0	34	20313
2026-01-16 13:32:10.50	135.80	10.54	-39.3	-44.8	4.5	8.31e-01	0	58	104	0	39	11897
2026-01-16 13:32:14.53	135.58	10.89	-35.1	-42.2	6.0	6.41e-01	0	58	0	4194304	33	12455
2026-01-16 13:32:18.57	135.36	11.24	-31.2	-40.6	4.7	8.10e-01	0	58	104	4194304	28	13876
2026-01-16 13:32:22.62	135.14	11.60	-29.4	-39.1	4.7	8.27e-01	0	59	104	4194304	27	12336
2026-01-16 13:32:26.65	134.91	11.96	-24.9	-37.6	4.4	8.29e-01	0	58	104	4194304	22	13847
2026-01-16 13:32:30.69	134.67	12.33	-26.2	-38.2	4.3	8.24e-01	0	59	104	4194304	24	13222
2026-01-16 13:32:34.73	134.43	12.70	-32.0	-40.1	6.9	6.26e-01	0	59	0	5242880	31	10961
2026-01-16 13:32:38.77	134.18	13.08	-31.1	-39.8	6.9	4.33e-01	0	59	0	9437184	32	9973
2026-01-16 13:32:42.81	133.92	13.46	-21.5	-36.5	4.4	8.24e-01	0	59	104	15728640	16	17276
2026-01-16 13:32:46.85	133.66	13.85	-36.5	-41.3	6.3	6.82e-01	0	59	0	22020096	36	9472
2026-01-16 13:32:50.89	133.38	14.24	-30.4	-41.1	7.9	4.14e-01	0	59	0	36700160	37	8672
2026-01-16 13:32:54.93	133.11	14.64	-38.2	-41.1	10.3	2.18e-01	0	59	0	54525952	45	5505
2026-01-16 13:32:58.97	132.82	15.05	-30.8	-40.4	7.1	2.41e-01	0	59	0	74448896	42	6047
2026-01-16 13:33:03.01	132.52	15.46	-30.2	-40.0	6.7	3.66e-01	0	59	0	94371840	38	7230
2026-01-16 13:33:07.04	132.22	15.88	-35.7	-40.2	7.2	2.41e-01	0	59	0	117440512	38	7384
2026-01-16 13:33:11.08	131.91	16.30	-35.3	-39.7	10.9	1.84e-01	0	59	0	143654912	42	5575
2026-01-16 13:33:15.12	131.59	16.74	-33.9	-39.8	10.1	2.57e-02	0	59	0	171966464	39	6699
2026-01-16 13:33:19.17	131.26	17.17	-37.3	-39.6	14.4	7.97e-04	0	60	0	201326592	44	4910
2026-01-16 13:33:23.21	130.91	17.62	-36.7	-38.7	15.1	2.57e-04	0	59	0	230686720	43	4699
2026-01-16 13:33:27.24	130.56	18.07	-36.2	-38.4	15.8	8.92e-05	0	60	0	258998272	42	4794
2026-01-16 13:33:31.29	130.20	18.53	-36.5	-38.4	15.9	2.37e-04	0	60	0	288358400	42	4767
2026-01-16 13:33:35.32	129.83	19.00	-35.9	-37.7	16.5	6.29e-05	0	60	0	317718528	41	4690
2026-01-16 13:33:39.36	129.44	19.47	-35.6	-37.4	16.8	2.20e-06	0	60	0	347078656	40	4796
2026-01-16 13:33:43.41	129.04	19.95	-35.7	-37.6	16.7	1.37e-05	0	60	0	376438784	41	4601
2026-01-16 13:33:47.45	128.63	20.44	-35.7	-37.5	16.9	0.00e+00	0	60	0	405798912	41	4563
2026-01-16 13:33:51.49	128.20	20.94	-35.5	-37.1	17.3	0.00e+00	0	60	0	434110464	41	4388
2026-01-16 13:33:55.53	127.76	21.45	-35.3	-36.9	17.6	0.00e+00	0	60	0	463470592	41	4251
2026-01-16 13:33:59.57	127.31	21.96	-35.1	-36.7	17.8	0.00e+00	0	60	0	492830720	40	4418
2026-01-16 13:34:03.62	126.83	22.49	-35.1	-36.7	17.7	0.00e+00	0	60	0	522190848	40	4426
2026-01-16 13:34:07.66	126.35	23.02	-35.2	-36.9	17.6	0.00e+00	0	60	0	551550976	40	4529
2026-01-16 13:34:11.70	125.84	23.56	-35.4	-37.2	17.2	0.00e+00	0	60	0	579862528	40	4670
2026-01-16 13:34:15.74	125.32	24.11	-35.5	-37.3	17.1	0.00e+00	0	60	0	609222656	41	4483
2026-01-16 13:34:19.78	124.77	24.67	-35.6	-37.5	17.0	0.00e+00	0	60	0	638582784	41	4551
2026-01-16 13:34:23.82	124.21	25.24	-35.5	-37.3	17.1	0.00e+00	0	60	0	667942912	41	4493
2026-01-16 13:34:27.86	123.63	25.82	-35.4	-37.2	17.3	0.00e+00	0	60	0	697303040	41	4413
2026-01-16 13:34:31.89	123.02	26.40	-35.3	-37.0	17.5	0.00e+00	0	60	0	726663168	41	4315
2026-01-16 13:34:35.93	122.39	27.00	-35.0	-36.6	17.9	0.00e+00	0	60	0	754974720	40	4384
2026-01-16 13:34:39.97	121.74	27.60	-34.9	-36.5	18.1	0.00e+00	0	60	0	784334848	39	4583
2026-01-16 13:34:44.01	121.06	28.22	-34.7	-36.3	18.3	0.00e+00	0	61	0	813694976	39	4485
2026-01-16 13:34:48.05	120.36	28.84	-34.7	-36.3	18.3	0.00e+00	0	61	0	843055104	39	4460
2026-01-16 13:34:52.09	119.62	29.47	-34.7	-36.4	18.2	0.00e+00	0	60	0	872415232	39	4506
2026-01-16 13:34:56.13	118.86	30.11	-34.9	-36.5	18.1	0.00e+00	0	60	0	900726784	39	4588
2026-01-16 13:35:00.17	118.06	30.76	-35.0	-36.6	18.0	0.00e+00	0	60	0	930086912	40	4363
2026-01-16 13:35:04.21	117.23	31.42	-35.6	-37.4	17.2	0.00e+00	0	60	0	959447040	40	4784
2026-01-16 13:35:08.25	116.36	32.09	-35.6	-37.4	17.2	0.00e+00	0	61	0	988807168	41	4526
2026-01-16 13:35:12.29	115.46	32.76	-35.2	-36.9	17.7	0.00e+00	0	61	0	1018167296	40	4517
2026-01-16 13:35:16.33	114.52	33.44	-34.9	-36.5	18.0	0.00e+00	0	60	0	1046478848	40	4337
2026-01-16 13:35:20.37	113.54	34.12	-34.8	-36.4	18.2	0.00e+00	0	61	0	1075838976	40	4262
2026-01-16 13:35:24.41	112.52	34.81	-34.8	-36.4	18.2	0.00e+00	0	61	0	1105199104	40	4255
2026-01-16 13:35:28.45	111.45	35.51	-35.6	-36.8	18.4	0.00e+00	0	61	0	1134559232	40	4450
2026-01-16 13:35:32.49	110.34	36.21	-35.7	-36.9	18.3	0.00e+00	0	61	0	1162870784	41	4243
2026-01-16 13:35:36.53	109.17	36.91	-35.8	-37.0	18.1	0.00e+00	0	61	0	1192230912	41	4312
2026-01-16 13:35:40.56	107.96	37.61	-35.8	-37.0	18.2	0.00e+00	0	61	0	1221591040	41	4312
2026-01-16 13:35:44.60	106.69	38.31	-35.6	-36.7	18.4	0.00e+00	0	61	0	1250951168	41	4176
2026-01-16 13:35:48.64	105.37	39.01	-35.5	-36.6	18.5	0.00e+00	0	61	0	1280311296	41	4130
2026-01-16 13:35:52.68	103.99	39.70	-35.8	-37.0	18.3	0.00e+00	0	61	0	1308622848	41	4292
2026-01-16 13:35:56.72	102.54	40.39	-36.6	-37.9	17.4	0.00e+00	0	61	0	1337982976	42	4502
2026-01-16 13:36:00.76	101.04	41.07	-36.2	-37.4	17.8	0.00e+00	0	61	0	1367343104	43	4015
2026-01-16 13:36:04.80	99.47	41.74	-35.8	-36.9	18.3	0.00e+00	0	61	0	1396703232	42	4039
2026-01-16 13:36:08.83	97.83	42.39	-35.6	-36.7	18.5	0.00e+00	0	61	0	1426063360	41	4188
2026-01-16 13:36:12.87	96.13	43.03	-35.8	-36.9	18.3	0.00e+00	0	61	0	1454374912	41	4283
2026-01-16 13:36:16.91	94.36	43.65	-35.7	-36.8	18.4	0.00e+00	0	61	0	1483735040	41	4218
2026-01-16 13:36:20.95	92.52	44.25	-35.6	-36.7	18.6	0.00e+00	0	61	0	1513095168	41	4161
2026-01-16 13:36:24.99	90.61	44.82	-36.4	-37.6	17.7	0.00e+00	0	61	0	1542455296	42	4355
2026-01-16 13:36:29.03	88.63	45.36	-36.3	-37.5	17.7	0.00e+00	0	61	0	1571815424	42	4333
2026-01-16 13:36:33.07	86.58	45.88	-35.9	-37.1	18.2	0.00e+00	0	61	0	1601175552	42	4124
2026-01-16 13:36:37.12	84.47	46.35	-36.1	-37.3	18.0	0.00e+00	0	61	0	1629487104	42	4221
2026-01-16 13:36:41.16	82.29	46.79	-36.3	-37.5	17.8	0.00e+00	0	61	0	1658847232	42	4320
2026-01-16 13:36:45.20	80.06	47.18	-36.7	-38.0	17.3	0.00e+00	0	61	0	1688207360	42	4548
2026-01-16 13:36:49.24	77.78	47.53	-36.2	-37.3	18.0	0.00e+00	0	61	0	1717567488	43	3994
2026-01-16 13:36:53.28	75.45	47.83	-36.4	-37.6	17.8	0.00e+00	0	61	0	1746927616	42	4351
2026-01-16 13:36:57.32	73.07	48.08	-36.6	-37.8	17.5	0.00e+00	0	61	0	1775239168	43	4242
2026-01-16 13:37:01.36	70.66	48.27	-36.5	-37.7	17.7	0.00e+00	0	61	0	1804599296	43	4168
2026-01-16 13:37:05.40	68.23	48.41	-36.8	-38.1	17.3	0.00e+00	0	61	0	1833959424	43	4353
2026-01-16 13:37:09.44	65.78	48.50	-36.7	-37.9	17.4	0.00e+00	0	61	0	1863319552	43	4286
2026-01-16 13:37:13.48	63.32	48.53	-36.4	-37.6	17.8	0.00e+00	0	61	0	1892679680	43	4131
2026-01-16 13:37:17.53	60.85	48.50	-37.0	-38.3	17.2	0.00e+00	0	61	0	1922039808	43	4443
2026-01-16 13:37:21.57	58.40	48.41	-37.3	-38.6	17.0	0.00e+00	0	61	0	1950351360	44	4350
2026-01-16 13:37:25.60	55.97	48.27	-37.1	-38.5	17.1	0.00e+00	0	61	0	1979711488	44	4294
2026-01-16 13:37:29.65	53.56	48.07	-36.8	-38.0	17.5	0.00e+00	0	61	0	2009071616	44	4081
2026-01-16 13:37:33.69	51.19	47.82	-36.4	-37.7	17.7	0.00e+00	0	61	0	2038431744	43	4148
2026-01-16 13:37:37.73	48.86	47.52	-36.7	-37.9	17.5	0.00e+00	0	61	0	2067791872	43	4284
2026-01-16 13:37:41.77	46.58	47.17	-36.3	-37.5	17.8	0.00e+00	0	61	0	2096103424	43	4092
2026-01-16 13:37:45.81	44.35	46.78	-36.3	-37.5	17.8	0.00e+00	0	61	0	2125463552	43	4088
2026-01-16 13:37:49.85	42.19	46.34	-36.1	-37.3	18.0	0.00e+00	0	61	0	2154823680	43	3987
2026-01-16 13:37:53.89	40.08	45.87	-36.3	-37.5	17.9	0.00e+00	0	61	0	2184183808	43	4085
2026-01-16 13:37:57.93	38.04	45.36	-36.1	-37.3	18.1	0.00e+00	0	61	0	2213543936	43	3971
2026-01-16 13:38:01.96	36.07	44.82	-36.4	-37.6	17.7	0.00e+00	0	61	0	2242904064	43	4143
2026-01-16 13:38:06.01	34.16	44.24	-35.9	-37.0	18.3	0.00e+00	0	61	0	2271215616	42	4090
2026-01-16 13:38:10.05	32.33	43.65	-35.7	-36.8	18.5	0.00e+00	0	61	0	2300575744	42	3981
2026-01-16 13:38:14.09	30.56	43.03	-35.7	-36.9	18.4	0.00e+00	0	61	0	2329935872	42	4016
2026-01-16 13:38:18.13	28.86	42.39	-35.8	-36.9	18.4	0.00e+00	0	61	0	2359296000	42	4039
2026-01-16 13:38:22.17	27.23	41.74	-35.7	-36.8	18.5	0.00e+00	0	61	0	2388656128	42	3989
2026-01-16 13:38:26.21	25.67	41.07	-35.5	-36.7	18.6	0.00e+00	0	61	0	2418016256	41	4154
2026-01-16 13:38:30.25	24.17	40.39	-35.9	-37.1	18.2	0.00e+00	0	61	0	2446327808	41	4351
2026-01-16 13:38:34.28	22.73	39.71	-35.9	-37.1	18.0	0.00e+00	0	61	0	2475687936	41	4373
2026-01-16 13:38:38.33	21.35	39.02	-36.0	-37.2	18.0	0.00e+00	0	61	0	2505048064	41	4407
2026-01-16 13:38:42.37	20.03	38.32	-35.6	-36.8	18.4	0.00e+00	0	61	0	2534408192	41	4219
2026-01-16 13:38:46.41	18.77	37.62	-35.6	-36.7	18.5	0.00e+00	0	61	0	2563768320	41	4172
2026-01-16 13:38:50.45	17.56	36.92	-35.5	-36.6	18.6	0.00e+00	0	61	0	2592079872	41	4144
2026-01-16 13:38:54.49	16.40	36.23	-35.5	-36.6	18.6	0.00e+00	0	61	0	2621440000	41	4138
2026-01-16 13:38:58.53	15.29	35.53	-35.5	-36.7	18.5	0.00e+00	0	61	0	2650800128	41	4160
2026-01-16 13:39:02.57	14.23	34.84	-35.4	-36.5	18.7	0.00e+00	0	62	0	2680160256	41	4070
2026-01-16 13:39:06.60	13.21	34.15	-35.3	-36.4	18.8	0.00e+00	0	61	0	2709520384	41	4016
2026-01-16 13:39:10.64	12.23	33.47	-35.3	-36.4	18.8	0.00e+00	0	61	0	2737831936	40	4262
2026-01-16 13:39:14.69	11.30	32.79	-35.8	-37.0	18.1	0.00e+00	0	61	0	2767192064	41	4330
2026-01-16 13:39:18.72	10.40	32.12	-35.6	-36.8	18.3	0.00e+00	0	61	0	2796552192	41	4211
2026-01-16 13:39:22.76	9.54	31.46	-35.5	-36.6	18.5	0.00e+00	0	61	0	2825912320	41	4124
2026-01-16 13:39:26.80	8.72	30.80	-35.7	-36.8	18.2	0.00e+00	0	61	0	2855272448	41	4237
2026-01-16 13:39:30.84	7.92	30.16	-35.3	-36.4	18.7	0.00e+00	0	62	0	2883584000	41	4047
2026-01-16 13:39:34.88	7.16	29.52	-35.6	-36.7	18.4	0.00e+00	0	61	0	2912944128	41	4167
2026-01-16 13:39:38.92	6.43	28.89	-35.9	-37.1	17.9	0.00e+00	0	61	0	2942304256	41	4385
2026-01-16 13:39:42.96	5.73	28.27	-36.0	-37.2	17.9	0.00e+00	0	62	0	2971664384	41	4414
2026-01-16 13:39:46.99	5.06	27.66	-35.9	-37.1	17.9	0.00e+00	0	61	0	3001024512	41	4385
2026-01-16 13:39:51.03	4.41	27.06	-36.2	-37.4	17.6	0.00e+00	0	61	0	3029336064	41	4513
2026-01-16 13:39:55.07	3.78	26.46	-36.0	-37.2	17.8	0.00e+00	0	62	0	3058696192	42	4179
2026-01-16 13:39:59.11	3.18	25.88	-36.0	-37.2	17.8	0.00e+00	0	62	0	3088056320	42	4176
2026-01-16 13:40:03.14	2.60	25.30	-36.1	-37.4	17.5	0.00e+00	0	61	0	3117416448	42	4262
2026-01-16 13:40:07.18	2.04	24.74	-35.9	-37.2	17.7	0.00e+00	0	61	0	3145728000	42	4160
2026-01-16 13:40:11.22	1.50	24.18	-35.8	-37.0	17.9	0.00e+00	0	61	0	3175088128	42	4068
2026-01-16 13:40:15.26	0.98	23.63	-35.8	-37.0	17.9	0.00e+00	0	61	0	3204448256	42	4072
2026-01-16 13:40:19.30	0.48	23.10	-36.3	-37.5	17.3	0.00e+00	0	61	0	3233808384	42	4337
2026-01-16 13:40:23.34	359.99	22.57	-36.6	-37.9	16.9	0.00e+00	0	62	0	3263168512	42	4524
2026-01-16 13:40:27.38	359.53	22.04	-36.4	-37.8	17.0	0.00e+00	0	61	0	3292528640	42	4445
2026-01-16 13:40:31.42	359.07	21.53	-36.2	-37.5	17.1	0.00e+00	0	61	0	3320840192	42	4318
2026-01-16 13:40:35.46	358.64	21.03	-36.1	-37.4	17.0	0.00e+00	0	61	0	3350200320	42	4285
2026-01-16 13:40:39.50	358.22	20.53	-36.3	-37.7	16.6	0.00e+00	0	61	0	3379560448	42	4393
2026-01-16 13:40:43.54	357.81	20.04	-36.9	-38.4	15.5	0.00e+00	0	61	0	3408920576	43	4536
2026-01-16 13:40:47.57	357.41	19.56	-36.7	-38.3	15.5	0.00e+00	0	61	0	3438280704	43	4458
2026-01-16 13:40:51.61	357.03	19.09	-36.7	-38.3	15.2	0.00e+00	0	62	0	3466592256	43	4468
2026-01-16 13:40:55.66	356.66	18.62	-36.6	-38.3	14.7	0.00e+00	0	62	0	3495952384	43	4462
2026-01-16 13:40:59.70	356.30	18.17	-38.1	-40.4	12.2	1.27e-04	0	62	0	3525312512	45	5065
2026-01-16 13:41:03.74	355.95	17.72	-40.1	-44.0	8.0	5.34e-02	0	62	0	3554672640	49	6090
2026-01-16 13:41:07.78	355.61	17.27	-41.1	-48.0	4.7	7.92e-01	0	62	0	3575644160	51	8588
2026-01-16 13:41:11.82	355.28	16.84	-41.2	-51.0	3.8	8.45e-01	0	62	104	3575644160	52	11539
2026-01-16 13:41:15.86	354.96	16.41	-41.2	-52.1	3.8	8.45e-01	0	62	104	3575644160	52	13005
2026-01-16 13:41:19.90	354.66	15.98	-41.1	-51.9	3.8	8.46e-01	0	62	104	3575644160	52	12768
2026-01-16 13:41:23.94	354.36	15.56	-41.0	-51.9	3.8	8.48e-01	0	61	104	3575644160	52	12774
2026-01-16 13:41:27.97	354.07	15.16	-40.6	-52.0	3.8	8.45e-01	0	62	104	3575644160	52	12880
2026-01-16 13:41:32.01	353.78	14.75	-41.1	-52.0	3.8	8.46e-01	0	61	104	3575644160	52	12827
2026-01-16 13:41:36.05	353.51	14.35	-41.0	-52.0	3.8	8.46e-01	0	62	104	3575644160	52	12866
2026-01-16 13:41:40.09	353.24	13.96	-41.1	-52.0	3.8	8.47e-01	0	62	104	3575644160	52	12928
2026-01-16 13:41:44.13	352.98	13.57	-41.2	-52.1	3.8	8.46e-01	0	61	104	3575644160	52	13089
2026-01-16 13:41:48.17	352.73	13.19	-41.1	-51.9	3.8	8.46e-01	0	61	104	3575644160	52	12804
2026-01-16 13:41:52.20	352.48	12.81	-41.2	-52.1	3.8	8.47e-01	0	62	104	3575644160	52	13054
2026-01-16 13:41:56.24	352.24	12.44	-41.1	-52.0	3.8	8.46e-01	0	62	104	3575644160	52	12877
2026-01-16 13:42:00.28	352.01	12.08	-41.0	-51.9	3.8	8.46e-01	0	62	104	3575644160	52	12764
2026-01-16 13:42:04.31	351.78	11.72	-40.9	-51.9	3.8	8.46e-01	0	62	104	3575644160	52	12798
2026-01-16 13:42:08.35	351.56	11.36	-41.1	-52.0	3.8	8.46e-01	0	62	104	3575644160	52	12830
2026-01-16 13:42:12.39	351.35	11.01	-40.8	-51.8	3.8	8.45e-01	0	62	104	3575644160	52	12576
2026-01-16 13:42:16.43	351.14	10.66	-40.9	-51.9	3.8	8.46e-01	0	61	104	3575644160	52	12710
2026-01-16 13:42:20.47	350.93	10.32	-41.0	-51.9	3.8	8.47e-01	0	62	104	3575644160	52	12778
2026-01-16 13:42:24.51	350.73	9.98	-41.0	-52.0	3.8	8.46e-01	0	62	104	3575644160	52	12839
2026-01-16 13:42:28.54	350.54	9.65	-41.2	-52.1	3.8	8.47e-01	0	62	104	3575644160	52	13035
2026-01-16 13:42:32.58	350.35	9.32	-41.2	-52.2	3.8	8.47e-01	0	62	104	3575644160	52	13119
2026-01-16 13:42:36.62	350.16	8.99	-41.2	-52.1	3.8	8.45e-01	0	62	104	3575644160	52	13034
2026-01-16 13:42:40.66	349.98	8.67	-40.9	-51.9	3.8	8.47e-01	0	62	104	3575644160	52	12695
2026-01-16 13:42:44.70	349.80	8.35	-40.9	-51.9	3.8	8.46e-01	0	62	104	3575644160	52	12798
2026-01-16 13:42:48.73	349.63	8.04	-41.0	-51.9	3.8	8.47e-01	0	62	104	3575644160	52	12776
2026-01-16 13:42:52.78	349.46	7.72	-44.7	-55.7	3.8	8.46e-01	0	62	104	3575644160	58	14020
2026-01-16 13:42:56.82	349.29	7.42	-45.6	-56.9	3.8	8.46e-01	0	62	104	3575644160	60	14337
2026-01-16 13:43:00.86	349.13	7.11	-45.7	-57.0	3.8	8.46e-01	0	62	104	3575644160	60	14452
2026-01-16 13:43:04.90	348.98	6.81	-45.6	-57.0	3.8	8.47e-01	0	62	104	3575644160	60	14433
2026-01-16 13:43:08.94	348.82	6.51	-45.6	-56.9	3.8	8.47e-01	0	62	104	3575644160	60	14313
2026-01-16 13:43:12.98	348.67	6.22	-45.6	-56.9	3.8	8.46e-01	0	62	104	3575644160	60	14337
2026-01-16 13:43:17.03	348.52	5.93	-45.6	-57.0	3.8	8.46e-01	0	62	104	3575644160	60	14392
2026-01-16 13:43:21.07	348.38	5.64	-45.6	-56.9	3.8	8.46e-01	0	62	104	3575644160	60	14350
2026-01-16 13:43:25.11	348.24	5.35	-45.6	-56.9	3.8	8.46e-01	0	62	104	3575644160	60	14322
2026-01-16 13:43:29.15	348.10	5.07	-45.6	-56.9	3.8	8.45e-01	0	62	104	3575644160	60	14338
2026-01-16 13:43:33.19	347.97	4.79	-45.6	-56.9	3.8	8.45e-01	0	62	104	3575644160	60	14332
2026-01-16 13:43:37.22	347.84	4.52	-45.6	-56.9	3.8	8.46e-01	0	62	104	3575644160	60	14365
2026-01-16 13:43:41.26	347.71	4.24	-45.6	-56.9	3.8	8.44e-01	0	62	104	3575644160	60	14373
2026-01-16 13:43:45.30	347.58	3.97	-45.6	-56.9	3.8	8.47e-01	0	62	104	3575644160	60	14264
2026-01-16 13:43:49.34	347.46	3.70	-45.6	-56.9	3.8	8.46e-01	0	62	104	3575644160	60	14324
2026-01-16 13:43:53.38	347.33	3.44	-45.6	-56.9	3.8	8.47e-01	0	62	104	3575644160	60	14281
2026-01-16 13:43:57.42	347.22	3.17	-45.6	-56.9	3.8	8.46e-01	0	62	104	3575644160	60	14288
2026-01-16 13:44:01.46	347.10	2.91	-45.6	-56.9	3.8	8.46e-01	0	62	104	3575644160	60	14242
2026-01-16 13:44:05.49	346.99	2.65	-45.6	-56.9	3.8	8.46e-01	0	62	104	3575644160	60	14270
2026-01-16 13:44:09.53	346.87	2.39	-45.6	-56.9	3.8	8.46e-01	0	62	104	3575644160	60	14244
2026-01-16 13:44:13.57	346.76	2.14	-45.5	-56.9	3.8	8.46e-01	0	62	104	3575644160	60	14232

#Closed at: 2026-01-16 13:44:16
#Recorded file [3575 MB]: D:/lorett/data/31039_260116_163013.dat