passes_logs/2026/01/16/R2.0S_Moscow/R2.0S_Moscow__20260116_030142_AQUA_rec.log

#Pass ID: 20260116_030142_AQUA
#Satellite: AQUA
#Configuration: AQUA
#almurnet v.1.7.20251203
#Start time: 2026-01-16 03:01:44

#Version: 2.2.20231116
#Station: R2.0S_Moscow
#Location: 37.707566 lon 55.798166 lat
#TLE: 1 27424U 02022A   26015.51279194  .00000651  00000+0  14022-3 0  9990
#TLE: 2 27424  98.4082 341.9487 0002034  77.6776  33.2672 14.61821775260965

#Time	Az	El	Level	Level2	SNR	BER	BlckErr	Temp	State	Recorded	gain1	gain2
2026-01-16 03:01:44.35	6.18	2.13	-39.8	-60.0	3.8	7.45e-01	0	51	0	0	51	36397
2026-01-16 03:01:47.36	5.94	2.30	-39.7	-60.0	3.8	7.45e-01	0	51	104	0	50	38572
2026-01-16 03:01:50.39	5.69	2.47	-39.7	-60.0	3.8	7.43e-01	0	52	104	0	50	38548
2026-01-16 03:01:53.42	5.44	2.64	-39.7	-60.0	3.8	7.46e-01	0	52	104	0	50	38640
2026-01-16 03:01:56.46	5.18	2.82	-39.7	-60.0	3.8	7.45e-01	0	52	104	0	50	38561
2026-01-16 03:01:59.48	4.92	2.99	-39.7	-60.0	3.8	7.45e-01	0	52	104	0	50	38539
2026-01-16 03:02:02.51	4.66	3.17	-39.7	-60.0	3.8	7.46e-01	0	52	104	0	50	38550
2026-01-16 03:02:05.54	4.40	3.34	-39.8	-60.0	3.8	7.45e-01	0	52	104	0	50	38554
2026-01-16 03:02:08.56	4.13	3.52	-39.8	-60.0	3.8	7.47e-01	0	53	104	0	50	38433
2026-01-16 03:02:11.59	3.85	3.69	-39.8	-60.0	3.8	7.45e-01	0	53	104	0	50	38458
2026-01-16 03:02:14.62	3.58	3.87	-39.8	-60.0	3.8	7.42e-01	0	53	104	0	50	38524
2026-01-16 03:02:17.65	3.29	4.05	-39.7	-60.0	3.8	7.48e-01	0	53	104	0	50	38479
2026-01-16 03:02:20.68	3.01	4.23	-39.8	-60.0	3.8	7.44e-01	0	53	104	0	50	38459
2026-01-16 03:02:23.70	2.72	4.41	-39.7	-60.0	3.8	7.43e-01	0	54	104	0	50	38409
2026-01-16 03:02:26.73	2.43	4.59	-39.8	-60.0	3.8	7.46e-01	0	54	104	0	50	38440
2026-01-16 03:02:29.76	2.13	4.77	-39.7	-60.0	3.8	7.46e-01	0	54	104	0	50	38455
2026-01-16 03:02:32.79	1.83	4.95	-39.7	-60.0	3.8	7.50e-01	0	54	104	0	50	38488
2026-01-16 03:02:35.82	1.52	5.13	-39.8	-60.0	3.8	7.44e-01	0	54	104	0	50	38410
2026-01-16 03:02:38.85	1.21	5.32	-39.7	-60.0	3.8	7.44e-01	0	54	104	0	50	38464
2026-01-16 03:02:41.88	0.90	5.50	-39.8	-60.0	3.8	7.47e-01	0	54	104	0	50	38472
2026-01-16 03:02:44.91	0.58	5.68	-39.8	-60.0	3.8	7.42e-01	0	55	104	0	50	38408
2026-01-16 03:02:47.93	0.25	5.87	-39.7	-60.0	3.8	7.47e-01	0	55	104	0	50	38406
2026-01-16 03:02:50.97	359.92	6.06	-39.7	-60.0	3.8	7.42e-01	0	55	104	0	50	38399
2026-01-16 03:02:53.99	359.59	6.24	-39.7	-60.0	3.8	7.45e-01	0	55	104	0	50	38424
2026-01-16 03:02:57.02	359.25	6.43	-39.7	-60.0	3.8	7.42e-01	0	55	104	0	50	38334
2026-01-16 03:03:00.05	358.91	6.62	-39.7	-60.0	3.8	7.44e-01	0	55	104	0	50	38403
2026-01-16 03:03:03.07	358.56	6.80	-39.7	-60.0	3.8	7.49e-01	0	55	104	0	50	38371
2026-01-16 03:03:06.10	358.21	6.99	-39.7	-60.0	3.8	7.41e-01	0	56	104	0	50	38398
2026-01-16 03:03:09.13	357.85	7.18	-39.7	-60.0	3.8	7.45e-01	0	56	104	0	50	38472
2026-01-16 03:03:12.15	357.49	7.37	-39.7	-60.0	3.8	7.44e-01	0	56	104	0	50	38407
2026-01-16 03:03:15.18	357.12	7.56	-39.7	-60.0	3.8	7.47e-01	0	56	104	0	50	38345
2026-01-16 03:03:18.21	356.75	7.75	-39.8	-60.0	3.8	7.48e-01	0	56	104	0	50	38345
2026-01-16 03:03:21.24	356.37	7.94	-39.7	-60.0	3.8	7.42e-01	0	56	104	0	50	38385
2026-01-16 03:03:24.26	355.98	8.13	-39.9	-60.1	3.8	7.45e-01	0	56	104	0	50	39014
2026-01-16 03:03:27.29	355.59	8.33	-40.5	-60.3	3.8	7.44e-01	0	56	104	0	51	37502
2026-01-16 03:03:30.31	355.19	8.52	-39.9	-60.2	3.8	7.44e-01	0	57	104	0	51	36966
2026-01-16 03:03:33.34	354.79	8.71	-40.7	-60.2	3.8	7.47e-01	0	57	104	0	52	34934
2026-01-16 03:03:36.37	354.38	8.91	-40.5	-60.2	3.8	7.46e-01	0	57	104	0	52	35085
2026-01-16 03:03:39.40	353.97	9.10	-41.0	-60.3	3.8	7.46e-01	0	57	104	0	52	35382
2026-01-16 03:03:42.43	353.54	9.29	-41.2	-60.3	3.8	7.46e-01	0	57	104	0	52	35415
2026-01-16 03:03:45.45	353.12	9.49	-41.2	-60.5	3.8	7.43e-01	0	57	104	0	53	34247
2026-01-16 03:03:48.49	352.68	9.68	-41.2	-60.5	3.8	7.45e-01	0	57	104	0	53	34387
2026-01-16 03:03:51.52	352.24	9.88	-41.0	-60.6	3.8	7.44e-01	0	57	104	0	53	34870
2026-01-16 03:03:54.55	351.80	10.07	-40.9	-60.6	3.8	7.44e-01	0	57	104	0	53	34599
2026-01-16 03:03:57.57	351.34	10.27	-40.8	-60.5	3.8	7.44e-01	0	57	104	0	53	34179
2026-01-16 03:04:00.60	350.88	10.46	-41.4	-60.7	3.8	7.43e-01	0	57	104	0	53	35003
2026-01-16 03:04:03.63	350.42	10.66	-41.5	-60.7	3.8	7.44e-01	0	57	104	0	54	32999
2026-01-16 03:04:06.66	349.94	10.85	-41.4	-60.9	3.8	7.47e-01	0	57	104	0	54	33767
2026-01-16 03:04:09.69	349.46	11.05	-41.5	-60.8	3.8	7.47e-01	0	58	104	0	54	33636
2026-01-16 03:04:12.71	348.97	11.24	-41.7	-60.9	3.8	7.43e-01	0	57	104	0	54	33981
2026-01-16 03:04:15.74	348.48	11.43	-41.7	-61.1	3.8	7.44e-01	0	58	104	0	54	34571
2026-01-16 03:04:18.77	347.98	11.63	-41.8	-61.0	3.8	7.45e-01	0	58	104	0	54	34477
2026-01-16 03:04:21.80	347.47	11.82	-41.9	-61.1	3.8	7.44e-01	0	58	104	0	54	34706
2026-01-16 03:04:24.82	346.95	12.02	-41.9	-61.0	3.8	7.46e-01	0	58	104	0	54	34199
2026-01-16 03:04:27.85	346.42	12.21	-41.8	-61.0	3.8	7.44e-01	0	58	104	0	54	34188
2026-01-16 03:04:30.88	345.89	12.40	-41.4	-60.8	3.8	7.45e-01	0	58	104	0	54	33407
2026-01-16 03:04:33.91	345.35	12.59	-41.8	-60.9	3.8	7.46e-01	0	58	104	0	54	33812
2026-01-16 03:04:36.94	344.80	12.78	-41.7	-61.0	3.8	7.48e-01	0	58	104	0	54	34303
2026-01-16 03:04:39.97	344.25	12.97	-41.4	-60.9	3.8	7.48e-01	0	58	104	0	54	33879
2026-01-16 03:04:42.99	343.69	13.16	-41.3	-60.8	3.8	7.41e-01	0	58	104	0	54	33538
2026-01-16 03:04:46.02	343.11	13.35	-41.4	-60.7	3.8	7.43e-01	0	58	104	0	54	33101
2026-01-16 03:04:49.06	342.53	13.54	-41.4	-60.7	3.8	7.46e-01	0	58	104	0	54	33219
2026-01-16 03:04:52.09	341.95	13.72	-40.9	-60.6	3.8	7.40e-01	0	58	104	0	53	34507
2026-01-16 03:04:55.11	341.35	13.91	-41.8	-61.1	3.8	7.47e-01	0	58	104	0	54	34771
2026-01-16 03:04:58.14	340.75	14.09	-41.4	-60.7	3.8	7.45e-01	0	58	104	0	54	33045
2026-01-16 03:05:01.16	340.14	14.27	-41.4	-61.2	3.8	7.45e-01	0	58	104	0	54	35062
2026-01-16 03:05:04.19	339.52	14.45	-42.2	-60.9	3.8	7.46e-01	0	58	104	524288	56	30158
2026-01-16 03:05:07.22	338.89	14.63	-41.7	-47.9	13.6	6.05e-01	0	58	0	4718592	55	7149
2026-01-16 03:05:10.25	338.25	14.81	-41.2	-45.8	16.0	6.00e-01	0	58	0	9961472	54	5955
2026-01-16 03:05:13.28	337.61	14.98	-41.9	-46.4	15.9	5.98e-01	0	58	0	15728640	54	6407
2026-01-16 03:05:16.30	336.96	15.15	-41.8	-45.8	17.0	6.02e-01	0	58	0	21495808	54	5936
2026-01-16 03:05:19.33	336.30	15.32	-41.7	-45.3	17.5	6.01e-01	0	59	0	27262976	54	5651
2026-01-16 03:05:22.36	335.63	15.49	-41.7	-45.3	17.7	6.00e-01	0	59	0	33030144	54	5625
2026-01-16 03:05:25.39	334.95	15.65	-41.8	-45.3	17.9	6.02e-01	0	59	0	38273024	54	5601
2026-01-16 03:05:28.42	334.27	15.82	-41.8	-45.2	18.0	6.00e-01	0	59	0	44040192	54	5585
2026-01-16 03:05:31.45	333.57	15.98	-41.9	-45.4	17.8	6.01e-01	0	59	0	49807360	54	5704
2026-01-16 03:05:34.48	332.87	16.13	-41.9	-45.4	17.9	6.00e-01	0	58	0	55574528	54	5712
2026-01-16 03:05:37.51	332.16	16.29	-41.8	-45.2	18.1	6.03e-01	0	59	0	61341696	54	5572
2026-01-16 03:05:40.54	331.45	16.44	-42.0	-45.5	17.9	6.00e-01	0	59	0	67108864	54	5783
2026-01-16 03:05:43.57	330.72	16.58	-41.9	-45.4	18.0	6.01e-01	0	59	0	72876032	54	5667
2026-01-16 03:05:46.60	329.99	16.73	-42.0	-45.4	18.0	6.00e-01	0	59	0	78118912	54	5711
2026-01-16 03:05:49.62	329.25	16.87	-42.0	-45.4	18.0	6.02e-01	0	59	0	83886080	54	5715
2026-01-16 03:05:52.65	328.51	17.00	-42.0	-45.4	18.1	6.03e-01	0	59	0	89653248	54	5666
2026-01-16 03:05:55.68	327.75	17.13	-42.0	-45.4	18.1	5.99e-01	0	59	0	95420416	54	5721
2026-01-16 03:05:58.71	326.99	17.26	-42.0	-45.4	18.1	5.99e-01	0	59	0	101187584	54	5670
2026-01-16 03:06:01.74	326.22	17.39	-42.1	-45.5	18.0	6.01e-01	0	59	0	106430464	54	5768
2026-01-16 03:06:04.77	325.45	17.50	-42.1	-45.6	17.9	6.01e-01	0	59	0	112197632	54	5821
2026-01-16 03:06:07.80	324.67	17.62	-42.1	-45.6	18.0	5.99e-01	0	59	0	117964800	54	5800
2026-01-16 03:06:10.83	323.88	17.73	-42.1	-45.5	18.0	6.01e-01	0	59	0	123731968	54	5773
2026-01-16 03:06:13.86	323.08	17.83	-42.1	-45.6	18.0	6.01e-01	0	59	0	129499136	54	5825
2026-01-16 03:06:16.88	322.29	17.93	-42.1	-45.5	18.0	5.99e-01	0	59	0	135266304	54	5779
2026-01-16 03:06:19.92	321.48	18.03	-42.2	-45.7	17.9	6.01e-01	0	59	0	141033472	54	5861
2026-01-16 03:06:22.94	320.67	18.12	-42.1	-45.6	18.0	6.00e-01	0	59	0	146276352	55	5490
2026-01-16 03:06:25.97	319.86	18.20	-42.2	-45.6	18.0	6.03e-01	0	59	0	152043520	55	5526
2026-01-16 03:06:29.00	319.04	18.28	-42.3	-45.8	17.8	6.02e-01	0	59	0	157810688	55	5635
2026-01-16 03:06:32.03	318.21	18.36	-42.1	-45.5	18.1	6.01e-01	0	59	0	163577856	55	5459
2026-01-16 03:06:35.05	317.39	18.42	-42.2	-45.8	17.8	6.01e-01	0	59	0	169345024	55	5605
2026-01-16 03:06:38.09	316.55	18.49	-42.4	-46.1	17.6	6.01e-01	0	59	0	174587904	55	5790
2026-01-16 03:06:41.12	315.72	18.54	-42.2	-45.7	17.8	6.03e-01	0	59	0	180355072	55	5591
2026-01-16 03:06:44.15	314.88	18.59	-42.6	-46.4	17.2	6.01e-01	0	59	0	186122240	55	6019
2026-01-16 03:06:47.17	314.04	18.64	-42.0	-45.3	18.3	6.00e-01	0	59	0	191889408	55	5336
2026-01-16 03:06:50.20	313.19	18.68	-42.4	-46.0	17.6	6.03e-01	0	59	0	197656576	55	5768
2026-01-16 03:06:53.23	312.35	18.71	-42.3	-45.8	17.8	6.01e-01	0	59	0	203423744	55	5636
2026-01-16 03:06:56.25	311.50	18.73	-42.0	-45.4	18.2	6.00e-01	0	59	0	209190912	55	5381
2026-01-16 03:06:59.28	310.65	18.75	-42.5	-46.3	17.3	5.99e-01	0	59	0	214433792	55	5979
2026-01-16 03:07:02.31	309.80	18.77	-42.4	-46.0	17.6	6.01e-01	0	59	0	220200960	55	5761
2026-01-16 03:07:05.34	308.95	18.77	-42.1	-45.5	18.0	6.00e-01	0	59	0	225968128	55	5409
2026-01-16 03:07:08.37	308.09	18.78	-42.4	-46.1	17.5	6.03e-01	0	59	0	231735296	55	5816
2026-01-16 03:07:11.40	307.24	18.77	-42.3	-45.8	17.8	6.01e-01	0	59	0	237502464	55	5638
2026-01-16 03:07:14.42	306.39	18.76	-42.4	-46.0	17.6	6.00e-01	0	59	0	242745344	55	5769
2026-01-16 03:07:17.46	305.54	18.74	-42.5	-46.2	17.4	6.01e-01	0	59	0	248512512	55	5907
2026-01-16 03:07:20.49	304.69	18.72	-42.5	-46.2	17.4	5.99e-01	0	59	0	254279680	55	5892
2026-01-16 03:07:23.52	303.84	18.69	-42.3	-45.9	17.7	5.99e-01	0	60	0	260046848	55	5717
2026-01-16 03:07:26.55	303.00	18.65	-42.2	-45.8	17.8	5.99e-01	0	59	0	265814016	55	5611
2026-01-16 03:07:29.58	302.15	18.61	-42.4	-46.0	17.6	6.01e-01	0	60	0	271581184	55	5746
2026-01-16 03:07:32.61	301.31	18.56	-42.0	-45.4	18.1	6.02e-01	0	59	0	277348352	55	5379
2026-01-16 03:07:35.64	300.47	18.51	-42.1	-45.6	18.0	6.01e-01	0	59	0	282591232	55	5466
2026-01-16 03:07:38.67	299.64	18.45	-43.0	-47.1	16.5	6.00e-01	0	59	0	288358400	56	6182
2026-01-16 03:07:41.70	298.81	18.38	-42.5	-46.3	17.3	6.01e-01	0	59	0	294125568	56	5656
2026-01-16 03:07:44.73	297.98	18.31	-42.4	-46.0	17.6	6.00e-01	0	60	0	299892736	56	5446
2026-01-16 03:07:47.76	297.16	18.23	-42.7	-46.7	17.0	6.01e-01	0	60	0	305659904	56	5866
2026-01-16 03:07:50.79	296.34	18.15	-42.4	-46.0	17.7	6.00e-01	0	59	0	310902784	56	5421
2026-01-16 03:07:53.81	295.53	18.06	-42.9	-47.1	16.5	5.99e-01	0	60	0	316669952	56	6185
2026-01-16 03:07:56.84	294.72	17.97	-42.7	-46.7	17.0	6.01e-01	0	59	0	322437120	56	5856
2026-01-16 03:07:59.87	293.91	17.87	-42.8	-46.8	16.7	5.99e-01	0	60	0	328204288	56	5971
2026-01-16 03:08:02.90	293.12	17.77	-42.4	-46.0	17.5	6.02e-01	0	60	0	333971456	56	5445
2026-01-16 03:08:05.93	292.33	17.66	-42.5	-46.2	17.2	6.04e-01	0	60	0	339738624	56	5575
2026-01-16 03:08:08.96	291.54	17.54	-42.8	-46.9	16.6	6.01e-01	0	59	0	345505792	56	6058
2026-01-16 03:08:11.98	290.76	17.43	-42.4	-46.1	17.4	6.00e-01	0	59	0	350748672	56	5493
2026-01-16 03:08:15.01	289.99	17.30	-42.3	-45.9	17.7	6.00e-01	0	60	0	356515840	56	5384
2026-01-16 03:08:18.04	289.22	17.18	-42.3	-45.9	17.6	6.03e-01	0	60	0	362283008	56	5394
2026-01-16 03:08:21.07	288.46	17.05	-42.2	-45.7	17.8	5.99e-01	0	60	0	368050176	56	5266
2026-01-16 03:08:24.10	287.71	16.91	-42.0	-45.4	18.1	5.99e-01	0	60	0	373817344	56	5077
2026-01-16 03:08:27.13	286.97	16.77	-41.9	-45.2	18.2	6.00e-01	0	60	0	379060224	55	5229
2026-01-16 03:08:30.16	286.23	16.63	-41.9	-45.3	18.1	6.02e-01	0	60	0	384827392	55	5299
2026-01-16 03:08:33.19	285.50	16.48	-42.1	-45.6	17.7	5.99e-01	0	59	0	390594560	55	5522
2026-01-16 03:08:36.21	284.78	16.34	-42.4	-46.2	17.2	6.02e-01	0	60	0	396361728	55	5873
2026-01-16 03:08:39.24	284.07	16.18	-42.7	-46.8	16.7	5.99e-01	0	60	0	402128896	56	5926
2026-01-16 03:08:42.27	283.36	16.03	-42.7	-46.8	16.7	6.00e-01	0	60	0	407896064	56	5924
2026-01-16 03:08:45.30	282.66	15.87	-42.6	-46.5	17.0	6.02e-01	0	60	0	413138944	56	5730
2026-01-16 03:08:48.33	281.97	15.71	-42.6	-46.6	16.9	6.02e-01	0	60	0	418906112	56	5815
2026-01-16 03:08:51.36	281.29	15.54	-42.7	-46.9	16.5	6.00e-01	0	60	0	424673280	56	6006
2026-01-16 03:08:54.39	280.61	15.37	-42.8	-47.0	16.4	6.01e-01	0	60	0	430440448	56	6082
2026-01-16 03:08:57.42	279.94	15.20	-42.2	-45.8	17.7	6.00e-01	0	60	0	436207616	56	5287
2026-01-16 03:09:00.45	279.29	15.03	-42.2	-45.7	17.6	6.01e-01	0	60	0	441974784	56	5279
2026-01-16 03:09:03.48	278.64	14.86	-42.1	-45.7	17.7	5.99e-01	0	60	0	447217664	56	5275
2026-01-16 03:09:06.51	277.99	14.68	-42.1	-45.6	17.8	6.02e-01	0	60	0	452984832	56	5208
2026-01-16 03:09:09.53	277.36	14.50	-42.2	-45.9	17.4	6.00e-01	0	60	0	458752000	56	5401
2026-01-16 03:09:12.56	276.73	14.32	-42.1	-45.7	17.7	6.01e-01	0	60	0	464519168	56	5229
2026-01-16 03:09:15.59	276.12	14.14	-42.3	-46.0	17.3	6.00e-01	0	60	0	470286336	56	5425
2026-01-16 03:09:18.62	275.51	13.96	-42.1	-45.7	17.6	6.01e-01	0	60	0	476053504	56	5250
2026-01-16 03:09:21.65	274.91	13.77	-42.2	-45.9	17.5	6.01e-01	0	60	0	481296384	56	5349
2026-01-16 03:09:24.68	274.31	13.59	-42.1	-45.7	17.6	6.03e-01	0	60	0	487063552	56	5237
2026-01-16 03:09:27.71	273.73	13.40	-42.2	-46.0	17.3	6.03e-01	0	60	0	492830720	56	5436
2026-01-16 03:09:30.74	273.15	13.21	-42.1	-45.9	17.4	6.00e-01	0	60	0	498597888	56	5345
2026-01-16 03:09:33.77	272.58	13.02	-42.1	-45.8	17.5	5.98e-01	0	60	0	504365056	56	5290
2026-01-16 03:09:36.80	272.02	12.83	-42.3	-46.2	17.0	6.01e-01	0	60	0	510132224	56	5541
2026-01-16 03:09:39.83	271.46	12.64	-42.1	-45.7	17.5	5.99e-01	0	60	0	515375104	56	5270
2026-01-16 03:09:42.86	270.92	12.45	-42.2	-46.0	17.2	6.01e-01	0	60	0	521142272	56	5439
2026-01-16 03:09:45.89	270.38	12.26	-42.1	-45.9	17.3	6.01e-01	0	60	0	526909440	56	5341
2026-01-16 03:09:48.92	269.85	12.06	-42.1	-45.9	17.2	6.00e-01	0	60	0	532676608	56	5379
2026-01-16 03:09:51.95	269.32	11.87	-42.1	-45.9	17.2	6.02e-01	0	60	0	538443776	56	5358
2026-01-16 03:09:54.97	268.81	11.67	-42.2	-46.2	16.8	6.00e-01	0	60	0	544210944	56	5590
2026-01-16 03:09:58.00	268.30	11.48	-42.1	-46.0	17.1	6.02e-01	0	60	0	549453824	56	5425
2026-01-16 03:10:01.03	267.80	11.28	-42.3	-46.4	16.6	5.99e-01	0	60	0	555220992	56	5671
2026-01-16 03:10:04.06	267.31	11.09	-42.0	-45.9	17.1	5.99e-01	0	60	0	560988160	56	5346
2026-01-16 03:10:07.09	266.82	10.89	-41.9	-45.9	16.9	6.01e-01	0	60	0	566755328	55	5712
2026-01-16 03:10:10.12	266.34	10.70	-42.0	-46.0	16.7	6.02e-01	0	60	0	572522496	55	5788
2026-01-16 03:10:13.15	265.87	10.50	-41.8	-45.7	17.0	6.02e-01	0	60	0	577765376	55	5532
2026-01-16 03:10:16.18	265.40	10.31	-41.9	-45.9	16.8	6.01e-01	0	60	0	583532544	55	5681
2026-01-16 03:10:19.21	264.94	10.11	-42.0	-46.2	16.5	6.01e-01	0	60	0	589299712	55	5856
2026-01-16 03:10:22.23	264.49	9.91	-42.0	-46.1	16.6	5.99e-01	0	60	0	595066880	55	5837
2026-01-16 03:10:25.26	264.04	9.72	-42.0	-46.3	16.3	6.00e-01	0	60	0	600834048	55	5955
2026-01-16 03:10:28.30	263.60	9.52	-42.0	-46.3	16.3	6.01e-01	0	60	0	606601216	55	5954
2026-01-16 03:10:31.32	263.17	9.33	-42.1	-46.3	16.4	6.01e-01	0	60	0	612368384	55	5937
2026-01-16 03:10:34.35	262.74	9.13	-41.9	-46.1	16.6	6.01e-01	0	60	0	617611264	55	5807
2026-01-16 03:10:37.38	262.32	8.94	-42.2	-46.6	16.0	6.01e-01	0	60	0	623378432	55	6140
2026-01-16 03:10:40.41	261.91	8.74	-42.3	-46.8	16.0	6.02e-01	0	60	0	629145600	55	6308
2026-01-16 03:10:43.44	261.50	8.55	-42.3	-46.8	15.9	6.01e-01	0	60	0	634912768	55	6325
2026-01-16 03:10:46.47	261.10	8.36	-42.4	-46.9	15.9	6.00e-01	0	60	0	640679936	55	6376
2026-01-16 03:10:49.48	260.70	8.17	-42.3	-46.8	15.9	6.00e-01	0	60	0	645922816	55	6300
2026-01-16 03:10:52.51	260.31	7.97	-43.3	-49.0	15.1	6.01e-01	0	60	0	651689984	57	7230
2026-01-16 03:10:55.54	259.93	7.78	-46.0	-64.6	3.8	7.44e-01	0	60	104	652214272	62	32671
2026-01-16 03:10:58.56	259.55	7.59	-46.3	-64.9	3.8	7.47e-01	0	60	104	652214272	63	31997
2026-01-16 03:11:01.59	259.17	7.40	-46.3	-64.9	3.8	7.47e-01	0	60	104	652214272	63	32047
2026-01-16 03:11:04.61	258.81	7.21	-46.2	-64.9	3.8	7.43e-01	0	60	104	652214272	63	32009
2026-01-16 03:11:07.64	258.44	7.02	-46.3	-65.0	3.8	7.45e-01	0	60	104	652214272	63	32203
2026-01-16 03:11:10.67	258.08	6.83	-46.3	-64.9	3.8	7.48e-01	0	60	104	652214272	63	32040
2026-01-16 03:11:13.70	257.73	6.64	-46.3	-64.9	3.8	7.46e-01	0	60	104	652214272	63	31937
2026-01-16 03:11:16.72	257.38	6.45	-46.2	-64.8	3.8	7.44e-01	0	60	104	652214272	63	31804
2026-01-16 03:11:19.75	257.04	6.26	-46.2	-64.8	3.8	7.43e-01	0	60	104	652214272	63	31711
2026-01-16 03:11:22.78	256.70	6.08	-46.3	-64.8	3.8	7.45e-01	0	60	104	652214272	63	31761
2026-01-16 03:11:25.80	256.37	5.89	-46.2	-64.8	3.8	7.43e-01	0	60	104	652214272	63	31673
2026-01-16 03:11:28.83	256.04	5.70	-46.2	-64.8	3.8	7.46e-01	0	60	104	652214272	63	31721
2026-01-16 03:11:31.86	255.72	5.52	-46.2	-64.8	3.8	7.45e-01	0	60	104	652214272	63	31689
2026-01-16 03:11:34.89	255.40	5.33	-46.2	-64.8	3.8	7.44e-01	0	60	104	652214272	63	31645
2026-01-16 03:11:37.92	255.08	5.15	-46.2	-64.8	3.8	7.44e-01	0	60	104	652214272	63	31618
2026-01-16 03:11:40.95	254.77	4.97	-46.2	-64.8	3.8	7.45e-01	0	60	104	652214272	63	31652
2026-01-16 03:11:43.97	254.47	4.79	-46.2	-64.8	3.8	7.47e-01	0	60	104	652214272	63	31594
2026-01-16 03:11:47.00	254.16	4.60	-46.2	-64.8	3.8	7.48e-01	0	60	104	652214272	63	31602
2026-01-16 03:11:50.03	253.86	4.42	-46.2	-64.8	3.8	7.48e-01	0	60	104	652214272	63	31607
2026-01-16 03:11:53.06	253.57	4.24	-46.2	-64.8	3.8	7.43e-01	0	60	104	652214272	63	31572
2026-01-16 03:11:56.08	253.28	4.06	-46.2	-64.8	3.8	7.42e-01	0	60	104	652214272	63	31628
2026-01-16 03:11:59.11	253.00	3.88	-46.2	-64.8	3.8	7.44e-01	0	60	104	652214272	63	31552
2026-01-16 03:12:02.14	252.71	3.70	-46.2	-64.8	3.8	7.49e-01	0	60	104	652214272	63	31568
2026-01-16 03:12:05.17	252.43	3.53	-46.2	-64.8	3.8	7.45e-01	0	60	104	652214272	63	31563
2026-01-16 03:12:08.20	252.16	3.35	-46.2	-64.8	3.8	7.46e-01	0	60	104	652214272	63	31547
2026-01-16 03:12:11.23	251.89	3.17	-46.2	-64.8	3.8	7.43e-01	0	60	104	652214272	63	31526
2026-01-16 03:12:14.27	251.62	3.00	-46.2	-64.8	3.8	7.47e-01	0	60	104	652214272	63	31477
2026-01-16 03:12:17.30	251.36	2.82	-46.2	-64.8	3.8	7.44e-01	0	60	104	652214272	63	31580
2026-01-16 03:12:20.32	251.10	2.65	-46.2	-64.8	3.8	7.46e-01	0	60	104	652214272	63	31557
2026-01-16 03:12:23.35	250.84	2.48	-46.2	-64.8	3.8	7.46e-01	0	60	104	652214272	63	31478
2026-01-16 03:12:26.38	250.59	2.30	-46.2	-64.8	3.8	7.45e-01	0	60	104	652214272	63	31451
2026-01-16 03:12:29.41	250.34	2.13	-46.2	-64.8	3.8	7.49e-01	0	60	104	652214272	63	31489

#Closed at: 2026-01-16 03:12:31
#Recorded file [652 MB]: D:/lorett/data/31039_260116_060144.dat