passes_logs/2026/01/16/R2.0S_Moscow/R2.0S_Moscow__20260116_231725_NOAA_20_JPSS-1_rec.log

#Pass ID: 20260116_231725_NOAA 20 (JPSS-1)
#Satellite: NOAA 20 (JPSS-1)
#Configuration: NOAA 20
#almurnet v.1.7.20251203
#Start time: 2026-01-16 23:17:26

#Version: 2.2.20231116
#Station: R2.0S_Moscow
#Location: 37.707566 lon 55.798166 lat
#TLE: 1 43013U 17073A   26016.24631778  .00000038  00000+0  39093-4 0  9990
#TLE: 2 43013  98.7637 317.1726 0001455  37.6755 322.4523 14.19536243422915

#Time	Az	El	Level	Level2	SNR	BER	BlckErr	Temp	State	Recorded	gain1	gain2
2026-01-16 23:17:26.71	18.01	2.11	-41.5	-56.6	3.8	1.49e+00	0	52	0	0	55	19488
2026-01-16 23:17:30.74	18.10	2.36	-41.5	-56.6	3.8	1.49e+00	0	53	104	0	53	21846
2026-01-16 23:17:34.79	18.19	2.62	-41.5	-56.6	3.8	1.49e+00	0	53	104	0	53	21829
2026-01-16 23:17:38.83	18.27	2.88	-41.4	-56.5	3.8	1.49e+00	0	53	104	0	53	21728
2026-01-16 23:17:42.87	18.36	3.15	-41.4	-56.6	3.8	1.49e+00	0	54	104	0	53	21767
2026-01-16 23:17:46.92	18.45	3.41	-41.4	-56.6	3.8	1.49e+00	0	54	104	0	53	21776
2026-01-16 23:17:50.96	18.54	3.68	-41.5	-56.5	3.8	1.49e+00	0	54	104	0	53	21733
2026-01-16 23:17:55.01	18.64	3.96	-41.4	-56.6	3.8	1.49e+00	0	54	104	0	53	21767
2026-01-16 23:17:59.05	18.73	4.23	-41.4	-56.5	3.8	1.49e+00	0	54	104	0	53	21717
2026-01-16 23:18:03.09	18.83	4.51	-41.4	-56.5	3.8	1.49e+00	0	55	104	0	53	21725
2026-01-16 23:18:07.14	18.93	4.79	-41.4	-56.5	3.8	1.49e+00	0	55	104	0	53	21723
2026-01-16 23:18:11.18	19.02	5.07	-41.4	-56.5	3.8	1.49e+00	0	55	104	0	53	21708
2026-01-16 23:18:15.22	19.12	5.36	-41.4	-56.5	3.8	1.49e+00	0	55	104	0	53	21684
2026-01-16 23:18:19.27	19.23	5.64	-41.4	-56.5	3.8	1.49e+00	0	55	104	0	53	21667
2026-01-16 23:18:23.31	19.33	5.94	-41.4	-56.5	3.8	1.49e+00	0	55	104	0	53	21644
2026-01-16 23:18:27.36	19.44	6.23	-41.4	-56.5	3.8	1.49e+00	0	56	104	0	53	21708
2026-01-16 23:18:31.40	19.54	6.53	-41.4	-56.5	3.8	1.49e+00	0	56	104	0	53	21647
2026-01-16 23:18:35.44	19.65	6.83	-41.4	-56.5	3.8	1.49e+00	0	56	104	0	53	21652
2026-01-16 23:18:39.49	19.76	7.14	-41.4	-56.4	3.8	1.49e+00	0	56	104	0	53	21463
2026-01-16 23:18:43.53	19.88	7.45	-41.4	-56.3	3.8	1.49e+00	0	56	104	0	53	21129
2026-01-16 23:18:47.57	19.99	7.76	-41.4	-55.6	3.8	1.49e+00	0	57	104	0	53	19611
2026-01-16 23:18:51.62	20.11	8.08	-41.6	-54.3	4.0	1.48e+00	0	57	104	0	53	16802
2026-01-16 23:18:55.66	20.23	8.40	-41.6	-51.1	5.4	4.33e-01	0	57	0	2097152	55	10304
2026-01-16 23:18:59.70	20.35	8.72	-41.2	-46.7	9.4	1.77e-02	0	57	0	8388608	54	6636
2026-01-16 23:19:03.74	20.48	9.05	-41.6	-47.3	9.1	3.34e-02	0	57	0	15728640	54	7110
2026-01-16 23:19:07.77	20.60	9.38	-41.8	-47.3	9.4	1.63e-02	0	57	0	24117248	54	7082
2026-01-16 23:19:11.81	20.73	9.72	-41.6	-46.8	10.0	7.43e-03	0	58	0	31457280	54	6663
2026-01-16 23:19:15.85	20.86	10.06	-41.7	-46.7	10.3	4.87e-03	0	58	0	38797312	54	6576
2026-01-16 23:19:19.89	21.00	10.41	-41.7	-46.5	10.7	3.18e-03	0	58	0	46137344	54	6426
2026-01-16 23:19:23.93	21.13	10.76	-41.9	-46.6	10.6	3.24e-03	0	58	0	53477376	54	6526
2026-01-16 23:19:27.97	21.27	11.12	-41.9	-46.5	10.8	2.75e-03	0	58	0	61865984	54	6486
2026-01-16 23:19:32.00	21.42	11.48	-41.9	-46.4	10.9	1.96e-03	0	58	0	69206016	54	6420
2026-01-16 23:19:36.04	21.56	11.85	-41.9	-46.3	11.1	1.82e-03	0	58	0	76546048	54	6345
2026-01-16 23:19:40.08	21.71	12.22	-41.9	-46.3	11.2	1.58e-03	0	58	0	83886080	54	6327
2026-01-16 23:19:44.12	21.87	12.60	-41.8	-46.1	11.5	1.06e-03	0	58	0	92274688	54	6166
2026-01-16 23:19:48.16	22.02	12.98	-41.9	-46.3	11.3	1.05e-03	0	58	0	99614720	54	6307
2026-01-16 23:19:52.20	22.18	13.37	-41.9	-46.2	11.4	8.48e-04	0	59	0	106954752	54	6250
2026-01-16 23:19:56.23	22.35	13.77	-41.9	-46.0	11.6	6.08e-04	0	58	0	114294784	54	6131
2026-01-16 23:20:00.27	22.51	14.17	-41.9	-46.1	11.6	5.56e-04	0	58	0	121634816	54	6147
2026-01-16 23:20:04.31	22.69	14.58	-41.9	-46.1	11.7	5.81e-04	0	58	0	130023424	54	6157
2026-01-16 23:20:08.34	22.86	15.00	-41.9	-46.1	11.7	5.49e-04	0	59	0	137363456	54	6169
2026-01-16 23:20:12.38	23.04	15.42	-42.0	-46.2	11.6	5.11e-04	0	59	0	144703488	54	6232
2026-01-16 23:20:16.42	23.23	15.85	-41.9	-46.0	11.9	4.42e-04	0	59	0	152043520	54	6102
2026-01-16 23:20:20.46	23.42	16.29	-42.0	-46.1	11.8	4.32e-04	0	59	0	160432128	54	6182
2026-01-16 23:20:24.49	23.62	16.73	-42.0	-46.0	11.9	4.49e-04	0	59	0	167772160	54	6131
2026-01-16 23:20:28.54	23.82	17.19	-42.1	-46.3	11.7	5.56e-04	0	59	0	175112192	54	6280
2026-01-16 23:20:32.58	24.03	17.65	-42.2	-46.5	11.4	8.97e-04	0	59	0	182452224	55	6120
2026-01-16 23:20:36.61	24.24	18.12	-42.3	-46.5	11.4	8.25e-04	0	59	0	189792256	55	6128
2026-01-16 23:20:40.65	24.46	18.60	-42.3	-46.5	11.5	1.06e-03	0	59	0	198180864	55	6113
2026-01-16 23:20:44.69	24.68	19.09	-42.1	-46.3	11.8	5.32e-04	0	59	0	205520896	55	5932
2026-01-16 23:20:48.72	24.92	19.58	-42.2	-46.3	11.8	5.07e-04	0	59	0	212860928	55	5971
2026-01-16 23:20:52.76	25.16	20.09	-42.2	-46.3	11.8	5.44e-04	0	59	0	220200960	55	5951
2026-01-16 23:20:56.80	25.40	20.61	-42.2	-46.4	11.8	6.16e-04	0	60	0	228589568	55	6000
2026-01-16 23:21:00.84	25.66	21.14	-42.2	-46.2	11.9	4.01e-04	0	60	0	235929600	55	5922
2026-01-16 23:21:04.88	25.92	21.68	-42.0	-45.8	12.4	1.31e-04	0	59	0	243269632	55	5632
2026-01-16 23:21:08.91	26.19	22.22	-41.8	-45.4	12.9	5.41e-05	0	60	0	250609664	55	5349
2026-01-16 23:21:12.95	26.48	22.79	-41.7	-45.3	13.0	3.58e-05	0	60	0	257949696	55	5284
2026-01-16 23:21:16.98	26.77	23.36	-41.6	-45.0	13.2	2.13e-05	0	59	0	266338304	55	5152
2026-01-16 23:21:21.03	27.07	23.95	-41.5	-44.8	13.5	1.52e-05	0	59	0	273678336	54	5308
2026-01-16 23:21:25.06	27.38	24.54	-41.4	-44.6	13.7	5.30e-06	0	60	0	281018368	54	5188
2026-01-16 23:21:29.10	27.71	25.16	-41.3	-44.5	13.8	4.50e-06	0	60	0	288358400	54	5112
2026-01-16 23:21:33.14	28.04	25.78	-41.4	-44.6	13.8	6.80e-06	0	60	0	296747008	54	5173
2026-01-16 23:21:37.18	28.39	26.42	-41.4	-44.6	13.7	6.80e-06	0	60	0	304087040	54	5214
2026-01-16 23:21:41.22	28.76	27.08	-41.6	-44.9	13.4	1.22e-05	0	60	0	311427072	54	5394
2026-01-16 23:21:45.26	29.14	27.74	-41.8	-45.3	13.1	3.28e-05	0	60	0	318767104	54	5616
2026-01-16 23:21:49.29	29.53	28.43	-42.0	-45.7	12.7	9.07e-05	0	60	0	326107136	54	5907
2026-01-16 23:21:53.33	29.94	29.13	-42.1	-45.9	12.5	9.30e-05	0	60	0	334495744	54	6029
2026-01-16 23:21:57.37	30.37	29.85	-42.4	-46.5	11.8	4.53e-04	0	60	0	341835776	55	6120
2026-01-16 23:22:01.41	30.82	30.58	-42.9	-47.4	11.1	1.52e-03	0	60	0	349175808	56	6400
2026-01-16 23:22:05.45	31.29	31.33	-43.3	-48.3	10.2	4.91e-03	0	60	0	356515840	57	6685
2026-01-16 23:22:09.49	31.78	32.10	-43.4	-48.6	9.9	1.02e-02	0	60	0	364904448	57	6886
2026-01-16 23:22:13.52	32.29	32.88	-43.5	-48.9	9.5	1.43e-02	0	60	0	372244480	57	7191
2026-01-16 23:22:17.57	32.83	33.69	-43.6	-48.9	9.5	1.54e-02	0	60	0	379584512	57	7204
2026-01-16 23:22:21.60	33.39	34.51	-43.5	-48.7	9.8	9.50e-03	0	60	0	386924544	57	7005
2026-01-16 23:22:25.64	33.98	35.36	-43.5	-48.7	9.9	8.84e-03	0	60	0	394264576	57	6980
2026-01-16 23:22:29.68	34.61	36.22	-43.6	-48.9	9.7	1.10e-02	0	60	0	402653184	57	7147
2026-01-16 23:22:33.71	35.26	37.10	-43.4	-48.5	10.0	8.52e-03	0	60	0	409993216	57	6847
2026-01-16 23:22:37.75	35.96	38.00	-43.5	-48.5	10.0	7.05e-03	0	60	0	417333248	57	6876
2026-01-16 23:22:41.79	36.69	38.93	-43.4	-48.5	10.1	8.09e-03	0	60	0	424673280	57	6803
2026-01-16 23:22:45.83	37.47	39.87	-43.3	-48.1	10.5	3.57e-03	0	60	0	433061888	57	6521
2026-01-16 23:22:49.87	38.29	40.83	-43.1	-47.6	11.1	1.86e-03	0	60	0	440401920	57	6132
2026-01-16 23:22:53.91	39.16	41.82	-42.9	-47.1	11.6	5.65e-04	0	60	0	447741952	57	5796
2026-01-16 23:22:57.95	40.08	42.82	-43.0	-47.4	11.4	7.57e-04	0	60	0	455081984	57	6007
2026-01-16 23:23:01.99	41.07	43.84	-43.0	-47.3	11.4	9.22e-04	0	60	0	462422016	57	5952
2026-01-16 23:23:06.02	42.12	44.88	-43.1	-47.5	11.2	1.10e-03	0	60	0	470810624	57	6101
2026-01-16 23:23:10.06	43.23	45.93	-43.7	-49.1	9.5	1.01e-02	0	61	0	478150656	57	7355
2026-01-16 23:23:14.10	44.43	47.01	-43.4	-48.2	10.5	4.08e-03	0	60	0	485490688	58	6225
2026-01-16 23:23:18.14	45.71	48.09	-43.7	-49.0	9.7	1.04e-02	0	60	0	492830720	58	6818
2026-01-16 23:23:22.17	47.08	49.19	-43.2	-47.8	10.9	2.52e-03	0	60	0	501219328	58	5947
2026-01-16 23:23:26.21	48.56	50.29	-42.7	-46.7	12.1	3.13e-04	0	60	0	508559360	57	5533
2026-01-16 23:23:30.25	50.14	51.40	-41.8	-45.0	13.6	1.14e-05	0	60	0	515899392	55	5144
2026-01-16 23:23:34.29	51.85	52.52	-41.4	-44.3	14.4	7.00e-07	0	61	0	523239424	54	5004
2026-01-16 23:23:38.32	53.68	53.63	-41.0	-43.7	15.1	0.00e+00	0	61	0	530579456	53	4946
2026-01-16 23:23:42.36	55.67	54.73	-41.5	-44.5	14.2	1.50e-06	0	60	0	538968064	53	5435
2026-01-16 23:23:46.40	57.81	55.82	-41.9	-45.2	13.4	8.30e-06	0	60	0	546308096	54	5584
2026-01-16 23:23:50.44	60.12	56.90	-42.9	-47.0	11.8	3.54e-04	0	60	0	553648128	56	6077
2026-01-16 23:23:54.48	62.62	57.94	-43.2	-47.6	11.1	1.27e-03	0	61	0	560988160	56	6541
2026-01-16 23:23:58.52	65.32	58.95	-42.5	-46.2	12.5	1.43e-04	0	61	0	569376768	57	5265
2026-01-16 23:24:02.56	68.22	59.91	-42.2	-45.6	13.2	2.82e-05	0	60	0	576716800	56	5187
2026-01-16 23:24:06.60	71.34	60.82	-42.1	-45.5	13.1	1.14e-05	0	61	0	584056832	55	5455
2026-01-16 23:24:10.64	74.69	61.65	-41.9	-45.2	13.4	3.80e-06	0	61	0	591396864	55	5261
2026-01-16 23:24:14.67	78.25	62.41	-41.1	-43.8	14.9	0.00e+00	0	60	0	598736896	53	5003
2026-01-16 23:24:18.71	82.03	63.08	-41.0	-43.8	14.9	0.00e+00	0	61	0	607125504	54	4706
2026-01-16 23:24:22.75	86.01	63.64	-41.9	-45.3	13.4	8.30e-06	0	60	0	614465536	54	5621
2026-01-16 23:24:26.79	90.17	64.10	-42.3	-45.9	12.7	8.16e-05	0	61	0	621805568	55	5688
2026-01-16 23:24:30.82	94.46	64.43	-42.2	-45.8	12.7	1.35e-04	0	61	0	629145600	55	5644
2026-01-16 23:24:34.86	98.86	64.62	-42.2	-45.8	12.8	1.10e-04	0	60	0	637534208	55	5638
2026-01-16 23:24:38.90	103.32	64.69	-41.7	-45.0	13.6	3.00e-06	0	60	0	644874240	54	5407
2026-01-16 23:24:42.93	107.76	64.62	-41.7	-44.9	13.7	2.20e-06	0	61	0	652214272	54	5383
2026-01-16 23:24:46.97	112.16	64.41	-41.9	-45.2	13.4	6.80e-06	0	61	0	659554304	54	5562
2026-01-16 23:24:51.01	116.46	64.07	-42.1	-45.5	13.0	3.50e-05	0	60	0	666894336	54	5769
2026-01-16 23:24:55.05	120.61	63.62	-41.2	-44.1	14.5	1.50e-06	0	60	0	675282944	54	4880
2026-01-16 23:24:59.09	124.59	63.04	-40.8	-43.4	15.1	0.00e+00	0	61	0	682622976	53	4812
2026-01-16 23:25:03.12	128.35	62.37	-40.7	-43.3	15.3	0.00e+00	0	61	0	689963008	53	4738
2026-01-16 23:25:07.16	131.91	61.60	-40.3	-42.7	15.9	0.00e+00	0	61	0	697303040	52	4679
2026-01-16 23:25:11.20	135.25	60.76	-40.4	-42.9	15.7	0.00e+00	0	61	0	704643072	52	4790
2026-01-16 23:25:15.24	138.36	59.85	-41.7	-44.9	13.6	1.52e-05	0	60	0	713031680	54	5360
2026-01-16 23:25:19.28	141.25	58.88	-42.2	-45.7	12.8	7.55e-05	0	61	0	720371712	55	5572
2026-01-16 23:25:23.32	143.94	57.87	-41.8	-45.0	13.6	7.60e-06	0	61	0	727711744	55	5119
2026-01-16 23:25:27.36	146.43	56.82	-41.1	-43.8	14.7	0.00e+00	0	60	0	735051776	53	5039
2026-01-16 23:25:31.39	148.73	55.74	-40.8	-43.5	15.0	7.00e-07	0	61	0	743440384	53	4861
2026-01-16 23:25:35.43	150.87	54.65	-40.8	-43.5	15.0	0.00e+00	0	60	0	750780416	52	5120
2026-01-16 23:25:39.47	152.85	53.54	-40.5	-43.0	15.5	0.00e+00	0	61	0	758120448	52	4841
2026-01-16 23:25:43.51	154.68	52.42	-41.6	-44.8	13.6	9.10e-06	0	61	0	765460480	53	5626
2026-01-16 23:25:47.54	156.38	51.31	-42.1	-45.7	12.7	4.19e-05	0	60	0	772800512	54	5877
2026-01-16 23:25:51.58	157.96	50.19	-43.3	-48.0	10.5	4.29e-03	0	60	0	781189120	57	6456
2026-01-16 23:25:55.62	159.43	49.08	-43.8	-49.5	8.9	1.89e-02	0	61	0	788529152	58	7258
2026-01-16 23:25:59.65	160.80	47.98	-44.2	-51.0	7.5	7.97e-02	0	61	0	795869184	59	8095
2026-01-16 23:26:03.70	162.08	46.89	-43.5	-48.6	9.9	4.59e-03	0	61	0	803209216	58	6531
2026-01-16 23:26:07.73	163.27	45.82	-43.3	-48.1	10.2	1.09e-02	0	61	0	811597824	58	6180
2026-01-16 23:26:11.77	164.38	44.76	-42.6	-46.4	12.1	1.25e-04	0	61	0	818937856	56	5717
2026-01-16 23:26:15.81	165.43	43.71	-43.0	-47.5	10.8	8.10e-03	0	61	0	826277888	57	6094
2026-01-16 23:26:19.86	166.41	42.69	-41.1	-43.8	14.6	0.00e+00	0	61	0	833617920	54	4756
2026-01-16 23:26:23.89	167.33	41.68	-42.7	-46.8	11.6	1.18e-03	0	61	0	840957952	56	5985
2026-01-16 23:26:27.93	168.20	40.70	-41.7	-44.9	13.4	3.80e-06	0	61	0	849346560	55	5071
2026-01-16 23:26:31.97	169.02	39.73	-42.9	-47.4	11.0	1.16e-03	0	61	0	856686592	56	6357
2026-01-16 23:26:36.01	169.79	38.78	-41.4	-44.6	13.7	1.60e-05	0	61	0	864026624	54	5160
2026-01-16 23:26:40.04	170.52	37.86	-41.4	-44.5	13.8	3.80e-06	0	61	0	871366656	54	5124
2026-01-16 23:26:44.08	171.21	36.95	-42.6	-46.8	11.3	9.26e-04	0	61	0	879755264	55	6342
2026-01-16 23:26:48.12	171.87	36.07	-41.5	-44.7	13.5	6.10e-06	0	61	0	887095296	55	4943
2026-01-16 23:26:52.16	172.49	35.20	-41.6	-44.8	13.5	7.60e-06	0	61	0	894435328	54	5293
2026-01-16 23:26:56.20	173.08	34.36	-42.3	-46.3	11.9	3.66e-04	0	61	0	901775360	55	5932
2026-01-16 23:27:00.24	173.64	33.53	-42.5	-46.7	11.5	9.02e-04	0	61	0	909115392	55	6209
2026-01-16 23:27:04.28	174.17	32.72	-42.5	-46.7	11.4	8.41e-04	0	61	0	917504000	55	6229
2026-01-16 23:27:08.31	174.68	31.93	-42.2	-46.0	12.1	2.89e-04	0	61	0	924844032	55	5782
2026-01-16 23:27:12.36	175.17	31.16	-42.4	-46.5	11.6	5.34e-04	0	61	0	932184064	55	6062
2026-01-16 23:27:16.39	175.64	30.41	-42.6	-47.0	11.1	1.49e-03	0	61	0	939524096	55	6465
2026-01-16 23:27:20.43	176.08	29.67	-42.4	-46.5	11.5	8.22e-04	0	61	0	947912704	55	6124
2026-01-16 23:27:24.48	176.51	28.95	-42.2	-46.0	12.0	3.16e-04	0	61	0	955252736	55	5767
2026-01-16 23:27:28.51	176.92	28.25	-41.7	-45.2	12.9	6.17e-05	0	61	0	962592768	55	5223
2026-01-16 23:27:32.55	177.31	27.57	-42.0	-45.8	12.3	1.64e-04	0	61	0	969932800	55	5595
2026-01-16 23:27:36.59	177.68	26.90	-42.1	-46.0	12.1	3.62e-04	0	61	0	977272832	55	5749
2026-01-16 23:27:40.63	178.04	26.24	-41.9	-45.6	12.5	1.28e-04	0	61	0	985661440	55	5468
2026-01-16 23:27:44.67	178.39	25.60	-41.4	-44.6	13.5	1.06e-05	0	61	0	993001472	54	5190
2026-01-16 23:27:48.71	178.73	24.97	-41.3	-44.4	13.7	4.50e-06	0	61	0	1000341504	54	5080
2026-01-16 23:27:52.75	179.05	24.36	-41.4	-44.7	13.4	1.14e-05	0	61	0	1007681536	54	5230
2026-01-16 23:27:56.79	179.36	23.76	-41.6	-45.0	13.1	3.12e-05	0	61	0	1016070144	54	5432
2026-01-16 23:28:00.82	179.66	23.17	-41.3	-44.5	13.5	7.60e-06	0	61	0	1023410176	54	5151
2026-01-16 23:28:04.87	179.95	22.59	-41.4	-44.7	13.3	9.90e-06	0	61	0	1030750208	54	5272
2026-01-16 23:28:08.90	180.22	22.03	-41.2	-44.4	13.6	1.29e-05	0	61	0	1038090240	54	5087
2026-01-16 23:28:12.94	180.49	21.48	-41.3	-44.6	13.4	1.14e-05	0	61	0	1045430272	54	5177
2026-01-16 23:28:16.98	180.75	20.94	-41.5	-44.8	13.2	2.51e-05	0	61	0	1053818880	54	5332
2026-01-16 23:28:21.02	181.01	20.41	-41.3	-44.7	13.4	1.22e-05	0	61	0	1061158912	54	5222
2026-01-16 23:28:25.06	181.25	19.89	-41.3	-44.6	13.4	8.30e-06	0	61	0	1068498944	54	5190
2026-01-16 23:28:29.09	181.49	19.38	-41.3	-44.5	13.5	1.22e-05	0	61	0	1075838976	54	5144
2026-01-16 23:28:33.13	181.72	18.88	-41.3	-44.5	13.4	1.83e-05	0	61	0	1084227584	54	5153
2026-01-16 23:28:37.17	181.94	18.40	-41.4	-44.7	13.3	1.98e-05	0	61	0	1091567616	54	5252
2026-01-16 23:28:41.21	182.16	17.91	-41.6	-45.1	12.9	4.73e-05	0	61	0	1098907648	54	5502
2026-01-16 23:28:45.24	182.36	17.44	-41.8	-45.4	12.5	1.11e-04	0	61	0	1106247680	54	5722
2026-01-16 23:28:49.28	182.57	16.98	-41.9	-45.8	12.1	2.14e-04	0	61	0	1113587712	54	5949
2026-01-16 23:28:53.32	182.77	16.53	-42.0	-45.9	12.0	3.40e-04	0	61	0	1121976320	54	6038
2026-01-16 23:28:57.36	182.96	16.08	-42.1	-46.1	11.8	4.80e-04	0	61	0	1129316352	54	6179
2026-01-16 23:29:01.40	183.15	15.64	-42.0	-45.9	12.0	3.60e-04	0	61	0	1136656384	54	6038
2026-01-16 23:29:05.44	183.33	15.21	-42.0	-45.9	11.9	3.78e-04	0	61	0	1143996416	54	6039
2026-01-16 23:29:09.48	183.51	14.79	-42.1	-46.1	11.7	4.90e-04	0	61	0	1152385024	54	6183
2026-01-16 23:29:13.52	183.68	14.37	-42.0	-46.0	11.8	3.91e-04	0	61	0	1159725056	54	6116
2026-01-16 23:29:17.56	183.85	13.96	-42.0	-46.1	11.8	4.07e-04	0	61	0	1167065088	54	6155
2026-01-16 23:29:21.60	184.01	13.55	-42.1	-46.2	11.7	5.60e-04	0	61	0	1174405120	54	6207
2026-01-16 23:29:25.63	184.17	13.16	-42.1	-46.2	11.6	7.98e-04	0	61	0	1181745152	54	6267
2026-01-16 23:29:29.67	184.33	12.77	-42.1	-46.3	11.5	8.73e-04	0	61	0	1190133760	54	6323
2026-01-16 23:29:33.71	184.48	12.38	-42.1	-46.3	11.5	7.85e-04	0	61	0	1197473792	54	6303
2026-01-16 23:29:37.75	184.63	12.00	-42.1	-46.4	11.4	1.05e-03	0	61	0	1204813824	54	6374
2026-01-16 23:29:41.79	184.78	11.63	-42.0	-46.2	11.5	7.75e-04	0	61	0	1212153856	54	6244
2026-01-16 23:29:45.82	184.92	11.26	-42.0	-46.1	11.6	7.56e-04	0	61	0	1220542464	54	6190
2026-01-16 23:29:49.86	185.06	10.90	-41.9	-46.0	11.7	5.21e-04	0	61	0	1227882496	54	6082
2026-01-16 23:29:53.90	185.19	10.54	-41.9	-45.9	11.7	6.36e-04	0	61	0	1235222528	54	6056
2026-01-16 23:29:57.93	185.32	10.19	-41.9	-46.0	11.6	7.26e-04	0	61	0	1242562560	54	6113
2026-01-16 23:30:01.97	185.45	9.84	-41.8	-46.0	11.7	6.13e-04	0	61	0	1249902592	54	6067
2026-01-16 23:30:06.01	185.58	9.50	-41.9	-46.0	11.6	8.63e-04	0	61	0	1258291200	54	6109
2026-01-16 23:30:10.05	185.71	9.16	-41.9	-46.2	11.3	8.83e-04	0	61	0	1265631232	54	6216
2026-01-16 23:30:14.09	185.83	8.83	-41.9	-46.2	11.3	1.28e-03	0	61	0	1272971264	54	6205
2026-01-16 23:30:18.12	185.95	8.50	-42.0	-46.5	10.9	2.27e-03	0	61	0	1280311296	54	6458
2026-01-16 23:30:22.16	186.07	8.17	-42.1	-46.7	10.7	2.74e-03	0	61	0	1288699904	54	6601
2026-01-16 23:30:26.20	186.18	7.85	-44.8	-59.5	3.8	1.49e+00	0	61	104	1293942784	60	20312
2026-01-16 23:30:30.24	186.29	7.54	-45.3	-59.9	3.8	1.49e+00	0	61	104	1293942784	61	20210
2026-01-16 23:30:34.28	186.40	7.22	-45.4	-60.0	3.8	1.49e+00	0	61	104	1293942784	61	20380
2026-01-16 23:30:38.33	186.51	6.91	-45.4	-59.9	3.8	1.49e+00	0	61	104	1293942784	61	20256
2026-01-16 23:30:42.37	186.62	6.61	-45.3	-59.9	3.8	1.49e+00	0	61	104	1293942784	61	20107
2026-01-16 23:30:46.41	186.72	6.30	-45.3	-59.8	3.8	1.49e+00	0	61	104	1293942784	61	19932
2026-01-16 23:30:50.45	186.82	6.00	-45.3	-59.8	3.8	1.49e+00	0	61	104	1293942784	61	19923
2026-01-16 23:30:54.50	186.93	5.71	-45.3	-59.8	3.8	1.49e+00	0	61	104	1293942784	61	19889
2026-01-16 23:30:58.54	187.02	5.41	-45.3	-59.8	3.8	1.49e+00	0	61	104	1293942784	61	19909
2026-01-16 23:31:02.59	187.12	5.12	-45.3	-59.8	3.8	1.49e+00	0	61	104	1293942784	61	19868
2026-01-16 23:31:06.63	187.22	4.84	-45.3	-59.7	3.8	1.49e+00	0	61	104	1293942784	61	19840
2026-01-16 23:31:10.68	187.31	4.55	-45.3	-59.8	3.8	1.49e+00	0	61	104	1293942784	61	19927
2026-01-16 23:31:14.72	187.40	4.27	-45.3	-59.7	3.8	1.49e+00	0	61	104	1293942784	61	19834
2026-01-16 23:31:18.76	187.49	4.00	-45.2	-59.8	3.8	1.49e+00	0	61	104	1293942784	61	19891
2026-01-16 23:31:22.81	187.58	3.72	-45.2	-59.8	3.8	1.49e+00	0	61	104	1293942784	61	19893
2026-01-16 23:31:26.85	187.67	3.45	-45.2	-59.7	3.8	1.49e+00	0	61	104	1293942784	61	19786
2026-01-16 23:31:30.90	187.76	3.18	-45.2	-59.7	3.8	1.49e+00	0	61	104	1293942784	61	19736
2026-01-16 23:31:34.94	187.84	2.91	-45.2	-59.7	3.8	1.49e+00	0	61	104	1293942784	61	19791
2026-01-16 23:31:38.98	187.93	2.65	-45.2	-59.7	3.8	1.49e+00	0	61	104	1293942784	61	19787
2026-01-16 23:31:43.03	188.01	2.38	-45.2	-59.7	3.8	1.49e+00	0	61	104	1293942784	61	19758
2026-01-16 23:31:47.07	188.09	2.12	-45.2	-59.7	3.8	1.49e+00	0	61	104	1293942784	61	19807

#Closed at: 2026-01-16 23:31:50
#Recorded file [1293 MB]: D:/lorett/data/31039_260117_021726.dat