passes_logs/2026/01/16/R2.0S_Moscow/R2.0S_Moscow__20260116_203836_FENGYUN_3G_rec.log

#Pass ID: 20260116_203836_FENGYUN 3G
#Satellite: FENGYUN 3G
#Configuration: FENGYUN 3G
#almurnet v.1.7.20251203
#Start time: 2026-01-16 20:38:36

#Version: 2.2.20231116
#Station: R2.0S_Moscow
#Location: 37.707566 lon 55.798166 lat
#TLE: 1 56232U 23055A   26015.94957575  .00019432  00000+0  30595-3 0  9991
#TLE: 2 56232  49.9941  51.0332 0004204  31.6225 328.4995 15.53536505156346

#Time	Az	El	Level	Level2	SNR	BER	BlckErr	Temp	State	Recorded	gain1	gain2
2026-01-16 20:38:36.60	213.96	2.00	-44.0	-61.9	3.8	8.46e-01	0	51	0	0	59	28636
2026-01-16 20:38:38.62	213.75	2.12	-43.9	-61.9	3.8	8.46e-01	0	51	104	0	59	28587
2026-01-16 20:38:40.64	213.54	2.24	-43.9	-61.9	3.8	8.47e-01	0	51	104	0	59	28581
2026-01-16 20:38:42.66	213.32	2.36	-44.0	-61.9	3.8	8.46e-01	0	51	104	0	59	28599
2026-01-16 20:38:44.69	213.10	2.48	-43.9	-61.9	3.8	8.46e-01	0	52	104	0	59	28595
2026-01-16 20:38:46.71	212.88	2.60	-43.9	-61.9	3.8	8.46e-01	0	52	104	0	59	28653
2026-01-16 20:38:48.73	212.66	2.72	-43.9	-61.9	3.8	8.46e-01	0	52	104	0	59	28511
2026-01-16 20:38:50.75	212.43	2.85	-43.9	-62.0	3.8	8.47e-01	0	52	104	0	59	28695
2026-01-16 20:38:52.77	212.21	2.97	-43.9	-61.9	3.8	8.47e-01	0	52	104	0	59	28525
2026-01-16 20:38:54.79	211.98	3.09	-43.9	-61.9	3.8	8.47e-01	0	52	104	0	59	28661
2026-01-16 20:38:56.82	211.74	3.22	-43.9	-61.9	3.8	8.46e-01	0	52	104	0	59	28515
2026-01-16 20:38:58.84	211.50	3.34	-43.9	-61.9	3.8	8.46e-01	0	52	104	0	59	28534
2026-01-16 20:39:00.86	211.27	3.47	-43.9	-61.9	3.8	8.46e-01	0	53	104	0	59	28558
2026-01-16 20:39:02.88	211.02	3.59	-43.9	-61.9	3.8	8.46e-01	0	53	104	0	59	28465
2026-01-16 20:39:04.90	210.78	3.72	-43.9	-61.9	3.8	8.45e-01	0	53	104	0	59	28596
2026-01-16 20:39:06.92	210.53	3.85	-43.9	-61.9	3.8	8.46e-01	0	53	104	0	59	28517
2026-01-16 20:39:08.94	210.28	3.97	-43.9	-61.9	3.8	8.46e-01	0	53	104	0	59	28516
2026-01-16 20:39:10.97	210.02	4.10	-43.9	-61.9	3.8	8.46e-01	0	53	104	0	59	28488
2026-01-16 20:39:12.98	209.76	4.23	-43.9	-61.9	3.8	8.45e-01	0	53	104	0	59	28426
2026-01-16 20:39:15.00	209.50	4.36	-43.9	-61.9	3.8	8.46e-01	0	54	104	0	59	28439
2026-01-16 20:39:17.03	209.24	4.49	-43.9	-61.9	3.8	8.47e-01	0	54	104	0	59	28436
2026-01-16 20:39:19.05	208.97	4.62	-43.9	-61.9	3.8	8.47e-01	0	54	104	0	59	28367
2026-01-16 20:39:21.07	208.70	4.75	-43.9	-61.9	3.8	8.46e-01	0	54	104	0	59	28571
2026-01-16 20:39:23.09	208.42	4.88	-43.9	-61.9	3.8	8.45e-01	0	54	104	0	59	28376
2026-01-16 20:39:25.11	208.14	5.01	-43.9	-61.8	3.8	8.45e-01	0	54	104	0	59	28113
2026-01-16 20:39:27.14	207.86	5.14	-43.9	-61.7	3.8	8.46e-01	0	54	104	0	59	27716
2026-01-16 20:39:29.16	207.57	5.28	-43.9	-61.6	3.8	8.46e-01	0	54	104	0	59	27545
2026-01-16 20:39:31.18	207.28	5.41	-43.9	-61.7	3.8	8.47e-01	0	54	104	0	59	27937
2026-01-16 20:39:33.20	206.99	5.54	-43.9	-61.9	3.8	8.47e-01	0	55	104	0	59	28363
2026-01-16 20:39:35.22	206.69	5.68	-43.9	-61.8	3.8	8.46e-01	0	54	104	0	59	28258
2026-01-16 20:39:37.24	206.39	5.81	-43.9	-61.7	3.8	8.46e-01	0	55	104	0	59	27961
2026-01-16 20:39:39.27	206.08	5.95	-43.9	-61.4	3.8	8.46e-01	0	55	104	0	59	27072
2026-01-16 20:39:41.29	205.77	6.08	-43.9	-61.1	3.8	8.47e-01	0	55	104	0	59	26123
2026-01-16 20:39:43.31	205.46	6.22	-43.9	-61.0	3.8	8.46e-01	0	55	104	0	59	25663
2026-01-16 20:39:45.33	205.14	6.35	-43.9	-60.6	3.8	8.46e-01	0	55	104	0	59	24509
2026-01-16 20:39:47.35	204.82	6.49	-43.9	-60.0	3.8	8.45e-01	0	55	104	0	59	23027
2026-01-16 20:39:49.37	204.50	6.63	-43.9	-59.7	3.8	8.45e-01	0	55	104	0	59	22230
2026-01-16 20:39:51.40	204.16	6.77	-43.8	-59.2	4.0	8.44e-01	0	55	104	0	59	20950
2026-01-16 20:39:53.42	203.83	6.91	-43.8	-58.1	4.3	8.42e-01	0	55	0	0	59	18322
2026-01-16 20:39:55.44	203.49	7.04	-43.6	-54.7	6.0	7.21e-01	0	55	0	0	59	12491
2026-01-16 20:39:57.46	203.15	7.18	-43.2	-52.1	8.5	1.85e-01	0	56	0	2097152	58	9785
2026-01-16 20:39:59.48	202.80	7.32	-43.1	-51.4	9.3	4.26e-02	0	56	0	4718592	58	9048
2026-01-16 20:40:01.50	202.44	7.46	-43.3	-52.2	8.4	1.60e-02	0	56	0	6815744	58	9889
2026-01-16 20:40:03.52	202.09	7.60	-43.9	-59.2	4.0	1.22e-01	0	56	0	8388608	58	22082
2026-01-16 20:40:05.54	201.72	7.74	-43.6	-54.5	6.1	7.89e-01	0	56	0	8388608	58	12888
2026-01-16 20:40:07.56	201.36	7.88	-42.3	-48.2	12.5	5.61e-02	0	56	0	10485760	56	7010
2026-01-16 20:40:09.58	200.98	8.03	-41.4	-46.2	14.5	2.59e-04	0	56	0	12582912	54	6207
2026-01-16 20:40:11.60	200.61	8.17	-42.1	-47.6	13.6	1.10e-06	0	56	0	15204352	54	7333
2026-01-16 20:40:13.62	200.22	8.31	-41.4	-45.7	15.1	1.77e-03	0	56	0	17301504	54	5856
2026-01-16 20:40:15.64	199.83	8.45	-42.6	-49.2	10.3	3.09e-02	0	56	0	18874368	57	7447
2026-01-16 20:40:17.65	199.44	8.59	-41.1	-45.2	15.7	1.10e-06	0	56	0	21495808	54	5568
2026-01-16 20:40:19.67	199.05	8.74	-41.1	-45.1	15.9	0.00e+00	0	56	0	23592960	54	5504
2026-01-16 20:40:21.69	198.64	8.88	-40.9	-44.8	16.3	0.00e+00	0	57	0	25690112	53	5622
2026-01-16 20:40:23.71	198.23	9.02	-40.9	-44.6	16.5	0.00e+00	0	57	0	28311552	53	5517
2026-01-16 20:40:25.73	197.82	9.17	-40.7	-44.3	16.8	0.00e+00	0	57	0	30408704	53	5320
2026-01-16 20:40:27.75	197.40	9.31	-40.6	-44.2	17.0	0.00e+00	0	57	0	32505856	53	5227
2026-01-16 20:40:29.76	196.97	9.45	-40.6	-44.0	17.2	0.00e+00	0	57	0	34603008	53	5131
2026-01-16 20:40:31.78	196.54	9.59	-40.8	-44.4	16.8	0.00e+00	0	57	0	37224448	53	5359
2026-01-16 20:40:33.80	196.10	9.74	-41.0	-44.7	16.6	0.00e+00	0	57	0	39321600	53	5551
2026-01-16 20:40:35.82	195.66	9.88	-40.9	-44.6	16.6	0.00e+00	0	57	0	41418752	53	5523
2026-01-16 20:40:37.84	195.21	10.03	-40.8	-44.4	16.9	0.00e+00	0	57	0	44040192	53	5357
2026-01-16 20:40:39.86	194.76	10.17	-40.5	-43.8	17.4	0.00e+00	0	57	0	46137344	53	5037
2026-01-16 20:40:41.88	194.29	10.31	-40.3	-43.4	17.9	0.00e+00	0	57	0	48234496	52	5077
2026-01-16 20:40:43.89	193.83	10.45	-40.4	-43.7	17.7	0.00e+00	0	57	0	50855936	52	5232
2026-01-16 20:40:45.91	193.36	10.60	-40.4	-43.6	17.7	0.00e+00	0	57	0	52953088	52	5217
2026-01-16 20:40:47.92	192.88	10.74	-40.7	-44.2	17.2	0.00e+00	0	57	0	55050240	52	5533
2026-01-16 20:40:49.94	192.39	10.88	-40.7	-44.1	17.3	0.00e+00	0	57	0	57671680	52	5479
2026-01-16 20:40:51.96	191.90	11.02	-40.5	-43.7	17.7	0.00e+00	0	57	0	59768832	52	5262
2026-01-16 20:40:53.98	191.40	11.16	-40.2	-43.3	18.1	0.00e+00	0	57	0	61865984	52	5006
2026-01-16 20:40:56.00	190.90	11.31	-40.2	-43.3	18.1	0.00e+00	0	57	0	64487424	52	4994
2026-01-16 20:40:58.02	190.38	11.45	-40.1	-43.1	18.3	0.00e+00	0	57	0	66584576	52	4902
2026-01-16 20:41:00.03	189.87	11.59	-40.3	-43.3	18.0	0.00e+00	0	57	0	68681728	52	5027
2026-01-16 20:41:02.06	189.34	11.73	-40.3	-43.4	18.0	0.00e+00	0	57	0	71303168	52	5067
2026-01-16 20:41:04.07	188.81	11.86	-40.4	-43.6	17.8	0.00e+00	0	57	0	73400320	52	5177
2026-01-16 20:41:06.09	188.27	12.00	-40.4	-43.7	17.8	0.00e+00	0	57	0	75497472	52	5223
2026-01-16 20:41:08.11	187.73	12.14	-40.1	-43.2	18.3	0.00e+00	0	57	0	78118912	52	4929
2026-01-16 20:41:10.13	187.18	12.27	-40.1	-43.1	18.3	0.00e+00	0	57	0	80216064	52	4890
2026-01-16 20:41:12.15	186.62	12.41	-40.1	-43.0	18.5	0.00e+00	0	57	0	82313216	51	5137
2026-01-16 20:41:14.17	186.06	12.54	-40.2	-43.2	18.4	0.00e+00	0	58	0	84934656	51	5240
2026-01-16 20:41:16.19	185.48	12.68	-40.2	-43.2	18.3	0.00e+00	0	58	0	87031808	51	5262
2026-01-16 20:41:18.21	184.91	12.81	-40.6	-43.8	17.8	0.00e+00	0	58	0	89128960	51	5613
2026-01-16 20:41:20.23	184.32	12.94	-40.5	-43.7	17.8	0.00e+00	0	58	0	91750400	51	5563
2026-01-16 20:41:22.24	183.73	13.07	-40.5	-43.6	17.9	0.00e+00	0	58	0	93847552	51	5496
2026-01-16 20:41:24.26	183.13	13.20	-40.1	-43.1	18.5	0.00e+00	0	58	0	95944704	51	5165
2026-01-16 20:41:26.28	182.53	13.32	-39.7	-42.4	19.1	0.00e+00	0	58	0	98566144	51	4785
2026-01-16 20:41:28.30	181.92	13.45	-39.7	-42.4	19.1	0.00e+00	0	58	0	100663296	51	4792
2026-01-16 20:41:30.32	181.30	13.57	-39.7	-42.5	19.0	0.00e+00	0	58	0	102760448	51	4839
2026-01-16 20:41:32.33	180.68	13.69	-39.8	-42.7	18.8	0.00e+00	0	58	0	105381888	51	4928
2026-01-16 20:41:34.35	180.05	13.81	-39.8	-42.5	19.0	0.00e+00	0	58	0	107479040	51	4864
2026-01-16 20:41:36.37	179.41	13.93	-39.7	-42.5	19.0	0.00e+00	0	58	0	109576192	51	4847
2026-01-16 20:41:38.39	178.76	14.04	-39.8	-42.5	19.0	0.00e+00	0	58	0	112197632	51	4869
2026-01-16 20:41:40.41	178.11	14.16	-39.8	-42.6	19.0	0.00e+00	0	58	0	114294784	51	4900
2026-01-16 20:41:42.42	177.46	14.27	-40.0	-42.9	18.6	0.00e+00	0	58	0	116391936	51	5098
2026-01-16 20:41:44.44	176.79	14.37	-40.1	-43.0	18.5	0.00e+00	0	58	0	119013376	51	5149
2026-01-16 20:41:46.46	176.12	14.48	-40.0	-42.9	18.7	0.00e+00	0	58	0	121110528	51	5067
2026-01-16 20:41:48.48	175.45	14.58	-40.0	-42.8	18.8	0.00e+00	0	58	0	123207680	51	4997
2026-01-16 20:41:50.50	174.77	14.69	-39.9	-42.7	18.9	0.00e+00	0	58	0	125829120	51	4934
2026-01-16 20:41:52.52	174.08	14.78	-39.9	-42.6	19.0	0.00e+00	0	58	0	127926272	51	4921
2026-01-16 20:41:54.54	173.39	14.88	-39.9	-42.7	19.1	0.00e+00	0	58	0	130023424	51	4941
2026-01-16 20:41:56.55	172.69	14.97	-39.9	-42.6	19.1	0.00e+00	0	58	0	132644864	51	4917
2026-01-16 20:41:58.57	171.99	15.06	-39.9	-42.7	19.0	0.00e+00	0	58	0	134742016	51	4948
2026-01-16 20:42:00.59	171.28	15.15	-39.8	-42.4	19.3	0.00e+00	0	58	0	136839168	51	4804
2026-01-16 20:42:02.61	170.56	15.23	-39.5	-42.0	19.6	0.00e+00	0	58	0	139460608	51	4589
2026-01-16 20:42:04.63	169.84	15.31	-39.5	-42.0	19.7	0.00e+00	0	58	0	141557760	50	4844
2026-01-16 20:42:06.65	169.12	15.39	-39.6	-42.1	19.7	0.00e+00	0	58	0	143654912	50	4903
2026-01-16 20:42:08.67	168.39	15.46	-39.9	-42.5	19.3	0.00e+00	0	58	0	146276352	50	5139
2026-01-16 20:42:10.69	167.66	15.53	-39.9	-42.6	19.2	0.00e+00	0	58	0	148373504	50	5213
2026-01-16 20:42:12.71	166.92	15.60	-40.0	-42.8	19.1	0.00e+00	0	58	0	150470656	50	5280
2026-01-16 20:42:14.73	166.18	15.66	-39.9	-42.5	19.3	0.00e+00	0	58	0	153092096	50	5147
2026-01-16 20:42:16.75	165.43	15.72	-39.8	-42.4	19.5	0.00e+00	0	58	0	155189248	50	5098
2026-01-16 20:42:18.77	164.68	15.77	-39.6	-42.1	19.7	0.00e+00	0	58	0	157286400	50	4922
2026-01-16 20:42:20.79	163.93	15.83	-39.5	-42.0	19.8	0.00e+00	0	58	0	159907840	50	4858
2026-01-16 20:42:22.81	163.17	15.87	-39.6	-42.1	19.8	0.00e+00	0	59	0	162004992	50	4894
2026-01-16 20:42:24.82	162.42	15.92	-39.8	-42.4	19.5	0.00e+00	0	58	0	164102144	50	5087
2026-01-16 20:42:26.84	161.66	15.95	-39.9	-42.6	19.3	0.00e+00	0	58	0	166723584	50	5177
2026-01-16 20:42:28.86	160.90	15.99	-40.0	-42.8	19.2	0.00e+00	0	59	0	168820736	50	5280
2026-01-16 20:42:30.88	160.13	16.02	-40.0	-42.7	19.3	0.00e+00	0	58	0	170917888	50	5244
2026-01-16 20:42:32.90	159.36	16.05	-39.9	-42.6	19.4	0.00e+00	0	58	0	173539328	50	5182
2026-01-16 20:42:34.93	158.59	16.07	-39.5	-42.0	19.9	0.00e+00	0	59	0	175636480	50	4866
2026-01-16 20:42:36.94	157.83	16.09	-39.1	-41.5	20.4	0.00e+00	0	59	0	177733632	50	4574
2026-01-16 20:42:38.96	157.06	16.10	-39.0	-41.4	20.5	0.00e+00	0	59	0	180355072	49	4803
2026-01-16 20:42:40.98	156.28	16.11	-39.3	-41.8	20.2	0.00e+00	0	59	0	182452224	49	4992
2026-01-16 20:42:43.00	155.51	16.12	-39.5	-42.0	19.9	0.00e+00	0	59	0	184549376	49	5137
2026-01-16 20:42:45.02	154.74	16.12	-39.4	-42.0	19.9	0.00e+00	0	59	0	187170816	49	5127
2026-01-16 20:42:47.04	153.97	16.11	-39.3	-41.8	20.1	0.00e+00	0	59	0	189267968	49	5022
2026-01-16 20:42:49.06	153.20	16.11	-39.3	-41.9	20.0	0.00e+00	0	59	0	191365120	49	5070
2026-01-16 20:42:51.07	152.43	16.10	-39.5	-42.1	19.8	0.00e+00	0	59	0	193986560	49	5211
2026-01-16 20:42:53.09	151.66	16.08	-39.4	-42.0	19.9	0.00e+00	0	59	0	196083712	49	5108
2026-01-16 20:42:55.11	150.89	16.06	-39.4	-41.9	20.0	0.00e+00	0	59	0	198180864	49	5070
2026-01-16 20:42:57.13	150.12	16.03	-39.3	-41.8	20.1	0.00e+00	0	59	0	200802304	49	5014
2026-01-16 20:42:59.15	149.36	16.01	-39.3	-41.7	20.1	0.00e+00	0	59	0	202899456	49	4955
2026-01-16 20:43:01.17	148.60	15.97	-39.4	-41.9	19.9	0.00e+00	0	59	0	204996608	49	5096
2026-01-16 20:43:03.19	147.83	15.94	-39.7	-42.4	19.5	0.00e+00	0	59	0	207618048	49	5374
2026-01-16 20:43:05.21	147.08	15.89	-39.9	-42.6	19.5	0.00e+00	0	59	0	209715200	50	5186
2026-01-16 20:43:07.23	146.32	15.85	-39.7	-42.3	19.7	0.00e+00	0	59	0	211812352	50	5030
2026-01-16 20:43:09.24	145.57	15.80	-38.8	-42.0	19.9	1.48e-05	0	59	0	214433792	49	5159
2026-01-16 20:43:11.26	144.82	15.75	-39.4	-42.0	19.8	2.20e-06	0	59	0	216530944	49	5150
2026-01-16 20:43:13.28	144.08	15.69	-39.5	-42.1	19.8	8.00e-06	0	59	0	218628096	49	5218
2026-01-16 20:43:15.30	143.33	15.63	-39.7	-42.3	19.6	1.83e-05	0	59	0	221249536	49	5336
2026-01-16 20:43:17.32	142.60	15.57	-39.7	-42.4	19.6	0.00e+00	0	59	0	223346688	50	5049
2026-01-16 20:43:19.34	141.86	15.50	-39.4	-41.9	19.9	1.10e-06	0	59	0	225443840	49	5097
2026-01-16 20:43:21.36	141.13	15.43	-39.3	-41.8	20.1	0.00e+00	0	59	0	228065280	49	5014
2026-01-16 20:43:23.38	140.41	15.35	-39.8	-42.6	19.3	0.00e+00	0	59	0	230162432	50	5177
2026-01-16 20:43:25.39	139.69	15.27	-39.8	-42.5	19.4	0.00e+00	0	59	0	232259584	50	5111
2026-01-16 20:43:27.41	138.98	15.19	-39.3	-41.8	20.0	0.00e+00	0	59	0	234881024	50	4748
2026-01-16 20:43:29.43	138.27	15.11	-39.3	-41.8	19.3	3.77e-05	0	59	0	236978176	49	5010
2026-01-16 20:43:31.45	137.56	15.02	-40.1	-42.6	18.9	2.55e-04	0	59	0	239075328	49	5517
2026-01-16 20:43:33.47	136.86	14.93	-38.3	-42.8	9.9	1.82e-03	0	59	0	241696768	42	8374
2026-01-16 20:43:35.49	136.17	14.83	-39.3	-42.4	17.3	3.09e-02	0	59	0	243793920	49	5362
2026-01-16 20:43:37.51	135.48	14.74	-35.8	-41.7	15.6	5.17e-02	0	59	0	245891072	46	5859
2026-01-16 20:43:39.53	134.80	14.64	-39.0	-42.3	16.5	6.46e-02	0	59	0	247988224	48	5641
2026-01-16 20:43:41.55	134.12	14.54	-39.0	-42.3	15.4	6.18e-02	0	59	0	250085376	48	5651
2026-01-16 20:43:43.57	133.45	14.43	-37.8	-43.0	15.9	5.40e-02	0	59	0	252182528	49	5728
2026-01-16 20:43:45.59	132.79	14.32	-34.3	-42.5	15.3	4.20e-02	0	59	0	254279680	46	6421
2026-01-16 20:43:47.61	132.13	14.21	-38.8	-42.4	14.8	7.04e-02	0	59	0	256376832	47	6010
2026-01-16 20:43:49.63	131.48	14.10	-36.8	-41.6	13.8	7.25e-02	0	59	0	258473984	44	6541
2026-01-16 20:43:51.64	130.83	13.99	-34.8	-41.3	8.9	1.26e-01	0	59	0	260571136	41	7498
2026-01-16 20:43:53.66	130.19	13.87	-35.8	-42.3	10.7	1.24e-01	0	59	0	262668288	39	9479
2026-01-16 20:43:55.68	129.56	13.76	-34.2	-42.9	11.6	1.31e-01	0	59	0	264765440	41	9063
2026-01-16 20:43:57.70	128.94	13.64	-33.9	-42.5	10.5	1.92e-01	0	59	0	266862592	38	10217
2026-01-16 20:43:59.72	128.32	13.51	-33.4	-42.8	11.7	2.17e-01	0	59	0	268959744	39	9964
2026-01-16 20:44:01.74	127.71	13.39	-34.0	-42.1	11.2	1.80e-01	0	59	0	271056896	39	9251
2026-01-16 20:44:03.76	127.10	13.27	-33.2	-42.3	11.6	1.53e-01	0	59	0	272629760	43	7498
2026-01-16 20:44:05.78	126.50	13.14	-35.8	-42.9	11.8	1.71e-01	0	59	0	274726912	43	8061
2026-01-16 20:44:07.80	125.91	13.01	-36.2	-42.7	12.0	1.19e-01	0	59	0	276824064	42	8328
2026-01-16 20:44:09.81	125.32	12.88	-33.0	-42.1	12.9	9.81e-02	0	59	0	278921216	41	8201
2026-01-16 20:44:11.83	124.75	12.75	-34.1	-42.3	11.5	8.88e-02	0	59	0	281018368	39	9450
2026-01-16 20:44:13.85	124.17	12.62	-33.7	-42.4	9.5	6.43e-02	0	59	0	283639808	24	22699
2026-01-16 20:44:15.87	123.61	12.49	-22.6	-40.3	8.7	9.84e-02	0	60	0	285736960	16	28304
2026-01-16 20:44:17.89	123.05	12.35	-34.4	-41.9	11.3	1.78e-01	0	59	0	287834112	34	11981
2026-01-16 20:44:19.91	122.50	12.22	-31.6	-42.4	8.1	1.10e-01	0	59	0	289406976	31	15173
2026-01-16 20:44:21.93	121.95	12.08	-33.0	-43.2	7.7	2.65e-01	0	59	0	291504128	34	14020
2026-01-16 20:44:23.95	121.41	11.95	-30.6	-42.2	4.1	4.89e-01	0	59	104	292028416	33	13170
2026-01-16 20:44:25.97	120.88	11.81	-27.2	-40.5	8.5	4.82e-01	0	59	0	293076992	30	12910
2026-01-16 20:44:27.99	120.36	11.67	-28.0	-41.5	9.2	2.96e-01	0	59	0	294649856	30	14466
2026-01-16 20:44:30.01	119.84	11.53	-36.2	-42.9	6.9	1.23e-01	0	60	0	296747008	33	14297
2026-01-16 20:44:32.03	119.33	11.39	-23.3	-38.7	8.3	3.37e-01	0	60	104	297271296	24	14712
2026-01-16 20:44:34.04	118.82	11.25	-30.2	-42.6	8.9	4.69e-01	0	60	0	298319872	36	11595
2026-01-16 20:44:36.06	118.32	11.11	-29.4	-42.5	6.3	3.02e-01	0	59	0	299892736	28	18096
2026-01-16 20:44:38.08	117.83	10.97	-19.9	-38.1	4.3	6.43e-01	0	59	104	300417024	24	13842
2026-01-16 20:44:40.11	117.34	10.83	-29.3	-43.5	7.4	6.75e-01	0	60	0	300941312	32	16191
2026-01-16 20:44:42.13	116.86	10.69	-26.9	-41.2	4.3	4.74e-01	0	59	104	301465600	20	24792
2026-01-16 20:44:44.15	116.39	10.54	-18.5	-37.2	3.8	7.41e-01	0	59	104	301465600	12	24772
2026-01-16 20:44:46.17	115.92	10.40	-26.2	-42.9	4.4	7.56e-01	0	59	104	301465600	25	22570
2026-01-16 20:44:48.18	115.46	10.26	-25.6	-42.8	5.5	6.94e-01	0	59	0	301465600	24	23752
2026-01-16 20:44:50.20	115.00	10.12	-26.3	-44.8	4.2	8.06e-01	0	59	104	301465600	26	26760
2026-01-16 20:44:52.22	114.55	9.97	-19.1	-40.8	4.2	8.35e-01	0	59	104	301465600	13	35472
2026-01-16 20:44:54.24	114.11	9.83	-21.8	-41.1	3.8	8.28e-01	0	59	104	301465600	14	34768
2026-01-16 20:44:56.26	113.67	9.69	-25.6	-47.7	4.0	8.36e-01	0	59	104	301465600	24	41474
2026-01-16 20:44:58.28	113.24	9.55	-26.4	-47.0	4.5	8.38e-01	0	59	104	301465600	28	30594
2026-01-16 20:45:00.30	112.81	9.40	-29.3	-43.9	7.0	7.16e-01	0	59	0	301465600	30	19138
2026-01-16 20:45:02.32	112.39	9.26	-30.4	-44.1	6.1	5.24e-01	0	60	104	301989888	30	19553
2026-01-16 20:45:04.34	111.98	9.12	-29.1	-42.7	8.7	3.91e-01	0	60	0	303038464	34	13205
2026-01-16 20:45:06.36	111.57	8.98	-33.6	-43.5	10.5	2.32e-01	0	60	0	304611328	38	11449
2026-01-16 20:45:08.38	111.16	8.83	-32.5	-43.7	10.0	2.89e-01	0	60	104	306184192	39	11034
2026-01-16 20:45:10.40	110.77	8.69	-34.0	-44.9	9.3	1.29e-01	0	60	0	307757056	40	11981
2026-01-16 20:45:12.42	110.37	8.55	-34.3	-44.7	10.5	2.61e-01	0	59	0	309854208	41	11078
2026-01-16 20:45:14.43	109.99	8.41	-35.0	-45.9	5.1	3.57e-01	0	60	104	311427072	39	14285
2026-01-16 20:45:16.45	109.60	8.27	-34.5	-44.9	10.2	4.02e-01	0	60	0	312475648	42	10674
2026-01-16 20:45:18.47	109.23	8.13	-32.0	-45.1	11.1	1.46e-01	0	60	0	314572800	41	11617
2026-01-16 20:45:20.49	108.85	7.99	-39.6	-51.3	8.6	1.11e-01	0	60	0	317194240	46	17752
2026-01-16 20:45:22.52	108.48	7.85	-44.8	-63.0	3.8	5.91e-01	0	60	104	317194240	60	30511
2026-01-16 20:45:24.53	108.12	7.71	-45.3	-63.4	3.8	8.45e-01	0	60	104	317194240	61	30229
2026-01-16 20:45:26.56	107.76	7.57	-45.7	-63.8	3.8	8.47e-01	0	60	104	317194240	61	31642
2026-01-16 20:45:28.58	107.41	7.43	-45.8	-64.0	3.8	8.47e-01	0	60	104	317194240	62	30481
2026-01-16 20:45:30.60	107.06	7.29	-45.8	-64.0	3.8	8.46e-01	0	60	104	317194240	62	30530
2026-01-16 20:45:32.62	106.72	7.15	-45.7	-63.8	3.8	8.46e-01	0	60	104	317194240	62	30027
2026-01-16 20:45:34.64	106.38	7.01	-45.6	-63.7	3.8	8.46e-01	0	60	104	317194240	62	29446
2026-01-16 20:45:36.66	106.04	6.87	-45.5	-63.6	3.8	8.46e-01	0	60	104	317194240	62	29262
2026-01-16 20:45:38.68	105.71	6.73	-45.4	-63.5	3.8	8.45e-01	0	60	104	317194240	61	30451
2026-01-16 20:45:40.71	105.38	6.60	-45.4	-63.5	3.8	8.46e-01	0	60	104	317194240	61	30584
2026-01-16 20:45:42.73	105.06	6.46	-45.4	-63.5	3.8	8.46e-01	0	60	104	317194240	61	30463
2026-01-16 20:45:44.74	104.75	6.33	-45.4	-63.5	3.8	8.46e-01	0	60	104	317194240	61	30466
2026-01-16 20:45:46.76	104.43	6.19	-45.4	-63.5	3.8	8.46e-01	0	60	104	317194240	61	30447
2026-01-16 20:45:48.78	104.12	6.05	-45.4	-63.4	3.8	8.46e-01	0	60	104	317194240	61	30376
2026-01-16 20:45:50.80	103.82	5.92	-45.4	-63.5	3.8	8.46e-01	0	60	104	317194240	61	30463
2026-01-16 20:45:52.82	103.52	5.79	-45.4	-63.4	3.8	8.45e-01	0	60	104	317194240	61	30335
2026-01-16 20:45:54.84	103.22	5.65	-45.4	-63.4	3.8	8.46e-01	0	60	104	317194240	61	30328
2026-01-16 20:45:56.87	102.93	5.52	-45.4	-63.4	3.8	8.47e-01	0	60	104	317194240	61	30370
2026-01-16 20:45:58.89	102.64	5.39	-45.4	-63.4	3.8	8.47e-01	0	60	104	317194240	61	30328
2026-01-16 20:46:00.91	102.35	5.25	-45.2	-63.4	3.8	8.46e-01	0	60	104	317194240	61	30306
2026-01-16 20:46:02.93	102.07	5.12	-45.3	-63.4	3.8	8.46e-01	0	60	104	317194240	61	30350
2026-01-16 20:46:04.95	101.79	4.99	-45.4	-63.4	3.8	8.46e-01	0	60	104	317194240	61	30256
2026-01-16 20:46:06.97	101.51	4.86	-45.3	-63.4	3.8	8.47e-01	0	60	104	317194240	61	30284
2026-01-16 20:46:09.00	101.24	4.73	-45.3	-63.4	3.8	8.46e-01	0	60	104	317194240	61	30241
2026-01-16 20:46:11.02	100.97	4.60	-45.3	-63.4	3.8	8.48e-01	0	60	104	317194240	61	30226
2026-01-16 20:46:13.04	100.71	4.47	-45.3	-63.4	3.8	8.47e-01	0	60	104	317194240	61	30273
2026-01-16 20:46:15.06	100.45	4.34	-45.3	-63.4	3.8	8.47e-01	0	60	104	317194240	61	30328
2026-01-16 20:46:17.08	100.19	4.21	-45.3	-63.4	3.8	8.46e-01	0	60	104	317194240	61	30305
2026-01-16 20:46:19.10	99.93	4.09	-45.3	-63.4	3.8	8.46e-01	0	60	104	317194240	61	30251
2026-01-16 20:46:21.12	99.68	3.96	-45.3	-63.4	3.8	8.47e-01	0	60	104	317194240	61	30213
2026-01-16 20:46:23.15	99.43	3.83	-45.3	-63.4	3.8	8.46e-01	0	60	104	317194240	61	30324
2026-01-16 20:46:25.17	99.19	3.71	-45.3	-63.4	3.8	8.45e-01	0	60	104	317194240	61	30167
2026-01-16 20:46:27.19	98.95	3.58	-45.3	-63.4	3.8	8.46e-01	0	60	104	317194240	61	30277
2026-01-16 20:46:29.21	98.71	3.46	-45.3	-63.4	3.8	8.47e-01	0	60	104	317194240	61	30292
2026-01-16 20:46:31.23	98.47	3.33	-45.3	-63.4	3.8	8.46e-01	0	60	104	317194240	61	30197
2026-01-16 20:46:33.25	98.24	3.21	-45.3	-63.4	3.8	8.46e-01	0	60	104	317194240	61	30213
2026-01-16 20:46:35.28	98.01	3.08	-45.3	-63.4	3.8	8.47e-01	0	60	104	317194240	61	30228
2026-01-16 20:46:37.30	97.78	2.96	-45.3	-63.4	3.8	8.45e-01	0	60	104	317194240	61	30279
2026-01-16 20:46:39.32	97.55	2.84	-45.3	-63.4	3.8	8.45e-01	0	60	104	317194240	61	30135
2026-01-16 20:46:41.34	97.33	2.72	-45.3	-63.4	3.8	8.45e-01	0	60	104	317194240	61	30223
2026-01-16 20:46:43.36	97.11	2.59	-45.3	-63.4	3.8	8.46e-01	0	60	104	317194240	61	30245
2026-01-16 20:46:45.39	96.89	2.47	-45.1	-63.4	3.8	8.48e-01	0	60	104	317194240	61	30225
2026-01-16 20:46:47.41	96.68	2.35	-45.3	-63.4	3.8	8.45e-01	0	60	104	317194240	61	30158
2026-01-16 20:46:49.43	96.47	2.23	-45.2	-63.4	3.8	8.47e-01	0	60	104	317194240	61	30207
2026-01-16 20:46:51.45	96.26	2.11	-45.3	-63.4	3.8	8.46e-01	0	60	104	317194240	61	30154
2026-01-16 20:46:53.48	96.05	1.99	-45.3	-63.4	3.8	8.47e-01	0	60	104	317194240	61	30259
2026-01-16 20:46:55.50	95.85	1.87	-45.3	-63.4	3.8	8.46e-01	0	60	104	317194240	61	30177

#Closed at: 2026-01-16 20:46:56
#Recorded file [317 MB]: D:/lorett/data/31039_260116_233836.dat