passes_logs/2026/01/16/R2.0S_Moscow/R2.0S_Moscow__20260116_225648_SUOMI_NPP_rec.log

#Pass ID: 20260116_225648_SUOMI NPP
#Satellite: SUOMI NPP
#Configuration: NPP
#almurnet v.1.7.20251203
#Start time: 2026-01-16 22:56:50

#Version: 2.2.20231116
#Station: R2.0S_Moscow
#Location: 37.707566 lon 55.798166 lat
#TLE: 1 37849U 11061A   26016.23176763  .00000061  00000+0  49926-4 0  9990
#TLE: 2 37849  98.7812 318.2698 0002434  61.5135 298.6286 14.19525545736883

#Time	Az	El	Level	Level2	SNR	BER	BlckErr	Temp	State	Recorded	gain1	gain2
2026-01-16 22:56:50.14	20.39	2.10	-42.1	-57.0	3.8	1.49e+00	0	51	0	0	56	19309
2026-01-16 22:56:54.19	20.55	2.35	-41.9	-56.8	3.8	1.49e+00	0	52	104	0	55	19986
2026-01-16 22:56:58.23	20.72	2.60	-41.9	-56.8	3.8	1.49e+00	0	52	104	0	55	20021
2026-01-16 22:57:02.28	20.89	2.85	-41.9	-56.8	3.8	1.49e+00	0	52	104	0	55	20035
2026-01-16 22:57:06.32	21.06	3.11	-41.9	-56.8	3.8	1.49e+00	0	53	104	0	55	19978
2026-01-16 22:57:10.37	21.23	3.36	-41.9	-56.8	3.8	1.49e+00	0	53	104	0	55	19977
2026-01-16 22:57:14.41	21.41	3.62	-41.9	-56.8	3.8	1.49e+00	0	53	104	0	55	19971
2026-01-16 22:57:18.45	21.58	3.89	-41.9	-56.8	3.8	1.49e+00	0	53	104	0	55	19976
2026-01-16 22:57:22.50	21.77	4.15	-41.9	-56.8	3.8	1.49e+00	0	54	104	0	55	19882
2026-01-16 22:57:26.54	21.95	4.42	-41.9	-56.8	3.8	1.49e+00	0	54	104	0	55	19928
2026-01-16 22:57:30.58	22.14	4.68	-41.9	-56.8	3.8	1.49e+00	0	54	104	0	55	19929
2026-01-16 22:57:34.63	22.33	4.96	-41.9	-56.8	3.8	1.49e+00	0	54	104	0	55	19983
2026-01-16 22:57:38.67	22.52	5.23	-41.9	-56.8	3.8	1.49e+00	0	54	104	0	55	19906
2026-01-16 22:57:42.72	22.72	5.51	-41.9	-56.8	3.8	1.49e+00	0	55	104	0	55	19889
2026-01-16 22:57:46.76	22.92	5.78	-41.9	-56.8	3.8	1.49e+00	0	55	104	0	55	19919
2026-01-16 22:57:50.80	23.12	6.07	-41.9	-56.8	3.8	1.49e+00	0	55	104	0	55	19877
2026-01-16 22:57:54.85	23.33	6.35	-41.9	-56.8	3.8	1.49e+00	0	55	104	0	55	19877
2026-01-16 22:57:58.89	23.54	6.64	-41.9	-56.8	3.8	1.49e+00	0	55	104	0	55	19903
2026-01-16 22:58:02.94	23.76	6.93	-41.9	-56.8	3.8	1.49e+00	0	56	104	0	55	19879
2026-01-16 22:58:06.98	23.98	7.22	-41.9	-56.7	3.8	1.49e+00	0	56	104	0	55	19672
2026-01-16 22:58:11.02	24.20	7.52	-41.8	-55.8	3.8	1.49e+00	0	56	104	0	55	17802
2026-01-16 22:58:15.07	24.43	7.82	-41.6	-52.8	4.3	1.36e+00	0	56	0	0	55	12571
2026-01-16 22:58:19.11	24.66	8.12	-41.4	-48.4	7.5	1.19e-01	0	56	0	7340032	54	8039
2026-01-16 22:58:23.15	24.90	8.43	-42.3	-50.1	6.4	6.75e-01	0	56	0	10485760	55	9246
2026-01-16 22:58:27.19	25.14	8.74	-41.7	-47.9	8.3	6.53e-02	0	56	0	17825792	55	7195
2026-01-16 22:58:31.23	25.39	9.05	-41.8	-47.7	8.6	3.79e-02	0	57	0	25165824	55	7029
2026-01-16 22:58:35.26	25.64	9.36	-41.8	-47.6	9.0	2.72e-02	0	57	0	32505856	55	6944
2026-01-16 22:58:39.30	25.89	9.68	-41.8	-47.2	9.6	1.21e-02	0	57	0	40894464	55	6624
2026-01-16 22:58:43.34	26.15	10.01	-41.9	-46.9	10.1	1.03e-02	0	57	0	48234496	55	6388
2026-01-16 22:58:47.37	26.42	10.34	-41.9	-46.9	10.2	5.27e-03	0	57	0	55574528	55	6349
2026-01-16 22:58:51.41	26.69	10.67	-41.8	-46.5	10.6	3.07e-03	0	57	0	62914560	55	6129
2026-01-16 22:58:55.45	26.97	11.00	-41.8	-46.3	11.0	2.30e-03	0	57	0	71303168	55	5956
2026-01-16 22:58:59.49	27.26	11.34	-41.8	-46.2	11.1	2.05e-03	0	57	0	78643200	55	5923
2026-01-16 22:59:03.53	27.55	11.69	-41.9	-46.4	11.0	1.92e-03	0	57	0	85983232	55	6019
2026-01-16 22:59:07.57	27.84	12.03	-41.9	-46.4	11.0	1.71e-03	0	57	0	93323264	55	6027
2026-01-16 22:59:11.61	28.15	12.39	-42.0	-46.6	10.9	1.57e-03	0	58	0	100663296	55	6150
2026-01-16 22:59:15.65	28.46	12.74	-41.9	-46.3	11.2	1.23e-03	0	58	0	109051904	55	5975
2026-01-16 22:59:19.69	28.78	13.10	-41.9	-46.4	11.1	1.46e-03	0	58	0	116391936	55	6041
2026-01-16 22:59:23.73	29.10	13.47	-41.9	-46.4	11.2	1.33e-03	0	58	0	123731968	55	6031
2026-01-16 22:59:27.77	29.44	13.84	-42.0	-46.5	11.1	1.38e-03	0	58	0	131072000	55	6094
2026-01-16 22:59:31.80	29.78	14.22	-42.0	-46.3	11.4	1.16e-03	0	58	0	139460608	55	5986
2026-01-16 22:59:35.84	30.13	14.60	-41.8	-46.0	11.8	8.88e-04	0	58	0	146800640	55	5730
2026-01-16 22:59:39.88	30.49	14.98	-41.9	-46.1	11.7	5.65e-04	0	58	0	154140672	55	5798
2026-01-16 22:59:43.92	30.85	15.37	-41.9	-46.2	11.6	6.02e-04	0	58	0	161480704	55	5866
2026-01-16 22:59:47.96	31.23	15.77	-42.0	-46.3	11.4	9.09e-04	0	58	0	168820736	55	5990
2026-01-16 22:59:51.99	31.62	16.17	-41.9	-46.0	11.9	6.69e-04	0	58	0	177209344	55	5732
2026-01-16 22:59:56.03	32.01	16.58	-41.8	-45.8	12.0	4.29e-04	0	58	0	184549376	55	5630
2026-01-16 23:00:00.06	32.42	16.99	-41.9	-46.0	11.9	3.94e-04	0	59	0	191889408	55	5742
2026-01-16 23:00:04.10	32.84	17.41	-42.0	-46.1	11.8	6.77e-04	0	59	0	199229440	55	5836
2026-01-16 23:00:08.14	33.26	17.83	-42.3	-46.7	11.2	8.76e-04	0	59	0	207618048	55	6228
2026-01-16 23:00:12.18	33.71	18.27	-42.2	-46.6	11.3	1.14e-03	0	59	0	214958080	55	6169
2026-01-16 23:00:16.21	34.16	18.70	-42.3	-46.6	11.4	1.37e-03	0	59	0	222298112	55	6138
2026-01-16 23:00:20.26	34.63	19.14	-42.4	-46.8	11.2	1.75e-03	0	59	0	229638144	55	6279
2026-01-16 23:00:24.30	35.10	19.59	-42.5	-47.1	10.9	1.45e-03	0	59	0	236978176	55	6513
2026-01-16 23:00:28.33	35.60	20.05	-42.4	-46.9	11.0	1.75e-03	0	59	0	245366784	55	6399
2026-01-16 23:00:32.37	36.10	20.51	-42.5	-47.0	11.0	2.27e-03	0	59	0	252706816	55	6448
2026-01-16 23:00:36.41	36.63	20.98	-42.5	-47.0	10.9	1.52e-03	0	59	0	260046848	55	6471
2026-01-16 23:00:40.45	37.16	21.45	-42.5	-47.0	11.0	1.94e-03	0	59	0	267386880	55	6483
2026-01-16 23:00:44.49	37.72	21.93	-42.6	-47.3	10.7	2.19e-03	0	59	0	275775488	55	6705
2026-01-16 23:00:48.53	38.29	22.42	-42.5	-47.0	11.1	1.57e-03	0	59	0	283115520	55	6443
2026-01-16 23:00:52.58	38.88	22.92	-42.3	-46.4	11.7	6.01e-04	0	59	0	290455552	55	6002
2026-01-16 23:00:56.61	39.49	23.42	-41.7	-45.3	12.9	7.32e-05	0	59	0	297795584	55	5303
2026-01-16 23:01:00.65	40.12	23.93	-41.8	-45.4	12.8	5.56e-05	0	59	0	305135616	55	5370
2026-01-16 23:01:04.68	40.76	24.44	-42.2	-46.1	12.0	2.90e-04	0	59	0	313524224	55	5848
2026-01-16 23:01:08.72	41.43	24.96	-42.3	-46.4	11.8	6.78e-04	0	59	0	320864256	55	6044
2026-01-16 23:01:12.76	42.12	25.49	-42.2	-46.1	12.1	2.38e-04	0	59	0	328204288	55	5810
2026-01-16 23:01:16.79	42.83	26.02	-42.4	-46.5	11.7	5.35e-04	0	59	0	335544320	55	6079
2026-01-16 23:01:20.83	43.57	26.56	-43.0	-47.8	10.6	2.87e-03	0	59	0	343932928	56	6698
2026-01-16 23:01:24.87	44.33	27.10	-42.9	-47.4	11.0	1.87e-03	0	59	0	351272960	56	6350
2026-01-16 23:01:28.90	45.12	27.65	-43.0	-47.8	10.6	2.38e-03	0	59	0	358612992	56	6656
2026-01-16 23:01:32.94	45.94	28.21	-43.3	-48.4	9.9	8.08e-03	0	60	0	365953024	57	6784
2026-01-16 23:01:36.98	46.78	28.77	-43.2	-48.1	10.2	7.00e-03	0	59	0	373293056	57	6554
2026-01-16 23:01:41.02	47.65	29.34	-43.1	-48.0	10.4	4.42e-03	0	60	0	381681664	57	6439
2026-01-16 23:01:45.05	48.55	29.90	-43.1	-47.8	10.6	3.48e-03	0	60	0	389021696	57	6328
2026-01-16 23:01:49.09	49.49	30.48	-42.8	-47.0	11.4	1.15e-03	0	60	0	396361728	57	5771
2026-01-16 23:01:53.13	50.46	31.06	-42.8	-47.2	11.3	1.04e-03	0	59	0	403701760	57	5888
2026-01-16 23:01:57.17	51.46	31.63	-43.2	-48.0	10.4	3.33e-03	0	60	0	412090368	57	6450
2026-01-16 23:02:01.21	52.50	32.22	-43.1	-47.8	10.5	3.87e-03	0	60	0	419430400	57	6278
2026-01-16 23:02:05.25	53.58	32.80	-43.3	-48.3	10.1	6.10e-03	0	60	0	426770432	57	6681
2026-01-16 23:02:09.28	54.70	33.38	-43.9	-50.0	8.5	3.10e-02	0	60	0	434110464	58	7698
2026-01-16 23:02:13.32	55.85	33.96	-43.7	-49.2	9.2	2.60e-02	0	60	0	441450496	58	7004
2026-01-16 23:02:17.36	57.05	34.54	-43.7	-49.3	9.1	1.48e-02	0	60	0	449839104	58	7120
2026-01-16 23:02:21.40	58.29	35.11	-43.3	-48.2	10.2	1.10e-02	0	60	0	457179136	58	6229
2026-01-16 23:02:25.43	59.57	35.68	-44.0	-50.4	8.1	5.36e-02	0	60	0	464519168	58	8077
2026-01-16 23:02:29.47	60.90	36.25	-44.2	-50.9	7.6	1.22e-01	0	60	0	471859200	59	7999
2026-01-16 23:02:33.51	62.27	36.80	-43.9	-50.0	8.3	4.09e-02	0	60	0	480247808	59	7247
2026-01-16 23:02:37.55	63.69	37.35	-44.3	-51.4	7.2	1.39e-01	0	60	0	487587840	59	8488
2026-01-16 23:02:41.59	65.16	37.89	-43.6	-49.0	9.5	1.74e-02	0	60	0	494927872	59	6475
2026-01-16 23:02:45.63	66.68	38.41	-44.2	-50.8	7.7	6.81e-02	0	60	0	502267904	59	7938
2026-01-16 23:02:49.67	68.25	38.92	-43.4	-48.3	10.2	1.06e-02	0	60	0	509607936	58	6322
2026-01-16 23:02:53.71	69.86	39.41	-43.8	-49.6	9.0	1.77e-02	0	60	0	517996544	58	7305
2026-01-16 23:02:57.75	71.52	39.88	-43.6	-48.8	9.7	1.58e-02	0	60	0	525336576	59	6324
2026-01-16 23:03:01.78	73.23	40.34	-42.9	-47.2	11.4	8.19e-04	0	60	0	532676608	57	5903
2026-01-16 23:03:05.83	74.99	40.76	-43.3	-48.0	10.5	4.45e-03	0	60	0	540016640	57	6457
2026-01-16 23:03:09.86	76.79	41.17	-42.9	-47.1	11.5	8.86e-04	0	60	0	548405248	57	5836
2026-01-16 23:03:13.90	78.63	41.54	-44.0	-50.3	8.1	4.69e-02	0	60	0	555745280	58	7901
2026-01-16 23:03:17.94	80.52	41.89	-43.8	-49.2	9.4	2.72e-02	0	60	0	563085312	58	7024
2026-01-16 23:03:21.97	82.44	42.20	-43.7	-49.1	9.5	1.56e-02	0	60	0	570425344	58	6888
2026-01-16 23:03:26.01	84.40	42.48	-43.6	-48.9	9.6	1.40e-02	0	60	0	577765376	58	6791
2026-01-16 23:03:30.05	86.39	42.73	-43.5	-48.5	10.2	6.41e-03	0	60	0	586153984	58	6437
2026-01-16 23:03:34.09	88.41	42.93	-43.4	-48.3	10.4	7.59e-03	0	60	0	593494016	58	6284
2026-01-16 23:03:38.13	90.46	43.10	-43.8	-49.5	9.0	1.62e-02	0	60	0	600834048	58	7229
2026-01-16 23:03:42.17	92.53	43.23	-43.2	-47.7	10.9	1.85e-03	0	60	0	608174080	58	5893
2026-01-16 23:03:46.20	94.60	43.32	-43.0	-47.3	11.4	1.07e-03	0	60	0	616562688	57	5946
2026-01-16 23:03:50.24	96.69	43.37	-42.4	-46.2	12.6	1.16e-04	0	60	0	623902720	56	5534
2026-01-16 23:03:54.28	98.78	43.38	-43.2	-47.8	11.0	8.85e-04	0	60	0	631242752	56	6662
2026-01-16 23:03:58.31	100.86	43.34	-43.0	-47.4	11.3	7.67e-04	0	60	0	638582784	57	6003
2026-01-16 23:04:02.35	102.95	43.26	-43.0	-47.2	11.5	2.09e-03	0	60	0	645922816	57	5896
2026-01-16 23:04:06.39	105.02	43.15	-43.4	-48.1	10.5	6.03e-03	0	60	0	654311424	58	6181
2026-01-16 23:04:10.42	107.06	42.99	-44.7	-53.2	5.8	2.86e-01	0	60	0	661651456	59	10469
2026-01-16 23:04:14.46	109.10	42.79	-43.8	-49.5	9.1	3.11e-02	0	61	0	668991488	59	6820
2026-01-16 23:04:18.49	111.10	42.56	-43.8	-49.2	9.3	1.66e-02	0	60	0	676331520	59	6635
2026-01-16 23:04:22.54	113.07	42.29	-44.3	-51.2	7.4	1.31e-01	0	61	0	683671552	59	8358
2026-01-16 23:04:26.57	115.01	41.98	-43.8	-49.3	9.4	1.25e-02	0	61	0	692060160	59	6648
2026-01-16 23:04:30.61	116.91	41.65	-43.1	-47.5	11.2	4.40e-03	0	60	0	699400192	58	5746
2026-01-16 23:04:34.65	118.77	41.28	-43.1	-47.6	11.1	2.52e-03	0	61	0	706740224	57	6186
2026-01-16 23:04:38.68	120.59	40.88	-43.5	-48.5	10.2	4.12e-03	0	61	0	714080256	57	6847
2026-01-16 23:04:42.72	122.36	40.46	-42.7	-46.7	12.0	2.38e-04	0	61	0	722468864	57	5557
2026-01-16 23:04:46.76	124.09	40.01	-42.3	-45.8	13.0	5.49e-05	0	60	0	729808896	56	5327
2026-01-16 23:04:50.79	125.76	39.55	-43.1	-47.5	11.3	9.85e-04	0	60	0	737148928	56	6490
2026-01-16 23:04:54.83	127.40	39.06	-42.0	-45.4	13.4	1.75e-05	0	60	0	744488960	56	5067
2026-01-16 23:04:58.87	128.98	38.55	-42.6	-46.6	12.3	1.72e-04	0	61	0	751828992	56	5802
2026-01-16 23:05:02.91	130.52	38.03	-41.6	-44.8	13.9	6.10e-06	0	60	0	760217600	55	4989
2026-01-16 23:05:06.95	132.00	37.49	-41.1	-43.9	14.7	7.00e-07	0	61	0	767557632	54	4805
2026-01-16 23:05:10.99	133.44	36.95	-41.0	-43.8	14.9	7.00e-07	0	61	0	774897664	53	4990
2026-01-16 23:05:15.03	134.83	36.39	-41.1	-44.0	14.6	0.00e+00	0	60	0	782237696	53	5141
2026-01-16 23:05:19.06	136.18	35.83	-42.2	-45.8	12.7	1.18e-04	0	60	0	790626304	55	5631
2026-01-16 23:05:23.10	137.48	35.25	-42.0	-45.5	13.1	3.00e-06	0	61	0	797966336	54	5768
2026-01-16 23:05:27.14	138.73	34.68	-41.6	-44.8	13.8	6.10e-06	0	60	0	805306368	55	5009
2026-01-16 23:05:31.18	139.95	34.09	-43.5	-48.7	9.9	5.80e-03	0	60	0	812646400	57	7025
2026-01-16 23:05:35.22	141.12	33.51	-41.6	-44.8	13.8	6.80e-06	0	60	0	819986432	55	5015
2026-01-16 23:05:39.25	142.25	32.93	-43.7	-49.3	9.3	2.53e-02	0	61	0	828375040	58	7082
2026-01-16 23:05:43.29	143.34	32.34	-42.6	-46.5	12.2	8.39e-05	0	61	0	835715072	56	5728
2026-01-16 23:05:47.33	144.39	31.76	-43.9	-49.9	8.6	5.59e-02	0	60	0	843055104	58	7585
2026-01-16 23:05:51.37	145.41	31.17	-42.2	-45.8	12.9	4.65e-05	0	61	0	850395136	56	5301
2026-01-16 23:05:55.40	146.39	30.59	-43.2	-47.9	10.6	3.54e-03	0	61	0	858783744	57	6420
2026-01-16 23:05:59.44	147.33	30.02	-42.4	-46.3	12.3	1.11e-04	0	60	0	866123776	56	5597
2026-01-16 23:06:03.48	148.25	29.44	-43.1	-47.8	10.7	3.59e-03	0	61	0	873463808	57	6331
2026-01-16 23:06:07.52	149.13	28.87	-41.2	-44.2	14.3	7.00e-07	0	61	0	880803840	54	4967
2026-01-16 23:06:11.56	149.99	28.30	-42.6	-46.7	11.7	2.55e-04	0	61	0	888143872	55	6223
2026-01-16 23:06:15.60	150.81	27.74	-43.1	-47.9	10.5	8.11e-03	0	61	0	896532480	57	6409
2026-01-16 23:06:19.64	151.61	27.19	-42.7	-46.8	11.7	4.33e-04	0	61	0	903872512	57	5631
2026-01-16 23:06:23.67	152.38	26.64	-43.1	-47.8	10.6	2.34e-03	0	60	0	911212544	57	6287
2026-01-16 23:06:27.71	153.12	26.09	-41.8	-45.2	13.1	4.50e-05	0	61	0	918552576	55	5261
2026-01-16 23:06:31.75	153.84	25.55	-41.5	-44.7	13.7	5.30e-06	0	61	0	926941184	54	5246
2026-01-16 23:06:35.79	154.54	25.02	-43.1	-48.0	10.5	3.06e-03	0	60	0	934281216	56	6816
2026-01-16 23:06:39.83	155.22	24.50	-43.5	-48.9	9.5	1.79e-02	0	60	0	941621248	57	7189
2026-01-16 23:06:43.87	155.87	23.98	-42.9	-47.5	11.0	2.85e-03	0	60	0	948961280	57	6076
2026-01-16 23:06:47.91	156.50	23.46	-42.6	-46.8	11.7	3.50e-04	0	61	0	956301312	56	5967
2026-01-16 23:06:51.94	157.11	22.96	-43.5	-49.1	9.2	2.02e-02	0	61	0	964689920	57	7361
2026-01-16 23:06:55.98	157.71	22.46	-44.0	-50.7	7.7	7.98e-02	0	61	0	972029952	58	8299
2026-01-16 23:07:00.02	158.28	21.97	-43.2	-48.2	10.2	9.84e-03	0	61	0	979369984	58	6226
2026-01-16 23:07:04.06	158.84	21.48	-43.0	-47.8	10.6	2.34e-03	0	61	0	986710016	57	6289
2026-01-16 23:07:08.10	159.39	21.00	-42.5	-46.5	11.9	5.40e-04	0	61	0	995098624	56	5775
2026-01-16 23:07:12.14	159.91	20.53	-41.7	-45.1	13.1	1.83e-05	0	61	0	1002438656	55	5209
2026-01-16 23:07:16.18	160.42	20.06	-41.9	-45.6	12.6	7.32e-05	0	60	0	1009778688	55	5475
2026-01-16 23:07:20.21	160.92	19.60	-43.0	-47.8	10.4	2.27e-03	0	61	0	1017118720	56	6681
2026-01-16 23:07:24.25	161.40	19.15	-43.2	-48.5	9.7	1.21e-02	0	61	0	1024458752	57	6833
2026-01-16 23:07:28.29	161.87	18.70	-42.9	-47.8	10.4	3.85e-03	0	61	0	1032847360	57	6281
2026-01-16 23:07:32.33	162.32	18.26	-42.6	-46.8	11.4	1.48e-03	0	61	0	1040187392	57	5644
2026-01-16 23:07:36.37	162.77	17.83	-42.6	-47.0	11.2	1.09e-03	0	61	0	1047527424	56	6091
2026-01-16 23:07:40.41	163.20	17.40	-42.8	-47.6	10.6	3.80e-03	0	61	0	1054867456	56	6496
2026-01-16 23:07:44.44	163.62	16.98	-43.3	-48.8	9.3	1.76e-02	0	61	0	1063256064	57	7104
2026-01-16 23:07:48.48	164.02	16.56	-43.3	-49.0	9.0	2.32e-02	0	61	0	1070596096	57	7212
2026-01-16 23:07:52.53	164.42	16.15	-43.2	-48.6	9.4	1.35e-02	0	61	0	1077936128	57	6905
2026-01-16 23:07:56.56	164.81	15.74	-42.9	-47.8	10.1	7.84e-03	0	61	0	1085276160	57	6334
2026-01-16 23:08:00.60	165.19	15.34	-42.7	-47.5	10.5	3.24e-03	0	61	0	1092616192	57	6081
2026-01-16 23:08:04.64	165.55	14.95	-42.6	-47.1	10.7	2.15e-03	0	61	0	1101004800	57	5811
2026-01-16 23:08:08.68	165.91	14.56	-42.7	-47.6	10.3	5.15e-03	0	61	0	1108344832	56	6538
2026-01-16 23:08:12.71	166.26	14.17	-42.7	-47.4	10.4	4.48e-03	0	61	0	1115684864	56	6418
2026-01-16 23:08:16.75	166.60	13.79	-42.6	-47.3	10.6	2.96e-03	0	61	0	1123024896	56	6287
2026-01-16 23:08:20.79	166.93	13.42	-42.2	-46.5	11.3	1.49e-03	0	61	0	1130364928	56	5775
2026-01-16 23:08:24.83	167.26	13.05	-42.2	-46.4	11.4	7.92e-04	0	60	0	1138753536	56	5682
2026-01-16 23:08:28.86	167.58	12.69	-42.2	-46.6	11.1	1.39e-03	0	61	0	1146093568	56	5789
2026-01-16 23:08:32.90	167.89	12.33	-42.5	-47.3	10.4	4.11e-03	0	61	0	1153433600	56	6319
2026-01-16 23:08:36.94	168.19	11.97	-42.9	-48.5	9.1	2.04e-02	0	61	0	1160773632	56	7214
2026-01-16 23:08:40.97	168.49	11.62	-43.1	-49.1	8.4	3.69e-02	0	61	0	1169162240	56	7791
2026-01-16 23:08:45.02	168.78	11.27	-43.1	-49.3	8.2	6.41e-02	0	61	0	1176502272	56	7989
2026-01-16 23:08:49.05	169.06	10.93	-43.1	-49.2	8.2	5.99e-02	0	61	0	1183842304	56	7885
2026-01-16 23:08:53.09	169.33	10.59	-42.8	-48.5	8.9	3.82e-02	0	61	0	1191182336	56	7261
2026-01-16 23:08:57.13	169.61	10.26	-42.7	-48.2	9.1	2.17e-02	0	61	0	1198522368	56	7017
2026-01-16 23:09:01.17	169.87	9.93	-42.4	-47.5	9.9	1.09e-02	0	61	0	1206910976	56	6442
2026-01-16 23:09:05.21	170.13	9.60	-42.3	-47.2	10.2	6.52e-03	0	61	0	1214251008	56	6213
2026-01-16 23:09:09.24	170.38	9.28	-42.3	-47.2	10.0	6.29e-03	0	61	0	1221591040	56	6270
2026-01-16 23:09:13.29	170.63	8.96	-42.1	-46.8	10.4	3.98e-03	0	61	0	1228931072	56	5986
2026-01-16 23:09:17.32	170.88	8.65	-42.0	-46.8	10.2	5.94e-03	0	61	0	1237319680	56	5988
2026-01-16 23:09:21.37	171.12	8.33	-42.0	-47.1	9.9	8.69e-03	0	61	0	1244659712	56	6132
2026-01-16 23:09:25.40	171.35	8.03	-42.1	-47.7	9.0	1.75e-02	0	61	0	1251999744	55	7029
2026-01-16 23:09:29.45	171.58	7.72	-45.1	-59.7	3.8	1.49e+00	0	61	104	1253048320	60	20829
2026-01-16 23:09:33.49	171.80	7.42	-45.3	-59.8	3.8	1.49e+00	0	61	104	1253048320	61	20009
2026-01-16 23:09:37.52	172.02	7.12	-45.3	-59.8	3.8	1.49e+00	0	61	104	1253048320	61	20025
2026-01-16 23:09:41.57	172.24	6.82	-45.3	-59.8	3.8	1.49e+00	0	61	104	1253048320	61	20069
2026-01-16 23:09:45.61	172.45	6.53	-45.3	-59.8	3.8	1.49e+00	0	61	104	1253048320	61	19913
2026-01-16 23:09:49.65	172.66	6.24	-45.3	-59.8	3.8	1.49e+00	0	61	104	1253048320	61	19848
2026-01-16 23:09:53.70	172.87	5.95	-45.3	-59.8	3.8	1.49e+00	0	61	104	1253048320	61	19843
2026-01-16 23:09:57.74	173.07	5.67	-45.2	-59.8	3.8	1.49e+00	0	61	104	1253048320	61	19895
2026-01-16 23:10:01.78	173.26	5.39	-45.2	-59.7	3.8	1.49e+00	0	61	104	1253048320	61	19777
2026-01-16 23:10:05.83	173.46	5.11	-45.2	-59.7	3.8	1.49e+00	0	61	104	1253048320	61	19806
2026-01-16 23:10:09.87	173.65	4.83	-45.2	-59.7	3.8	1.49e+00	0	61	104	1253048320	61	19795
2026-01-16 23:10:13.92	173.84	4.56	-45.2	-59.7	3.8	1.49e+00	0	61	104	1253048320	61	19740
2026-01-16 23:10:17.96	174.02	4.29	-45.2	-59.7	3.8	1.49e+00	0	61	104	1253048320	61	19770
2026-01-16 23:10:22.00	174.20	4.02	-45.2	-59.7	3.8	1.49e+00	0	61	104	1253048320	61	19793
2026-01-16 23:10:26.05	174.38	3.76	-45.2	-59.7	3.8	1.49e+00	0	61	104	1253048320	61	19740
2026-01-16 23:10:30.09	174.55	3.49	-45.2	-59.7	3.8	1.49e+00	0	61	104	1253048320	61	19754
2026-01-16 23:10:34.14	174.72	3.23	-45.2	-59.7	3.8	1.49e+00	0	61	104	1253048320	61	19665
2026-01-16 23:10:38.18	174.89	2.97	-45.2	-59.7	3.8	1.49e+00	0	61	104	1253048320	61	19648
2026-01-16 23:10:42.22	175.06	2.72	-45.2	-59.7	3.8	1.49e+00	0	61	104	1253048320	61	19688
2026-01-16 23:10:46.27	175.22	2.46	-45.2	-59.7	3.8	1.49e+00	0	61	104	1253048320	61	19703
2026-01-16 23:10:50.30	175.38	2.21	-45.2	-59.7	3.8	1.49e+00	0	61	104	1253048320	61	19659
2026-01-16 23:10:54.35	175.54	1.96	-45.2	-59.7	3.8	1.49e+00	0	61	104	1253048320	61	19705

#Closed at: 2026-01-16 23:10:55
#Recorded file [1253 MB]: D:/lorett/data/31039_260117_015649.dat