passes_logs/2026/01/16/R2.0S_Moscow/R2.0S_Moscow__20260116_090638_SUOMI_NPP_rec.log

#Pass ID: 20260116_090638_SUOMI NPP
#Satellite: SUOMI NPP
#Configuration: NPP
#almurnet v.1.7.20251203
#Start time: 2026-01-16 09:06:40

#Version: 2.2.20231116
#Station: R2.0S_Moscow
#Location: 37.707566 lon 55.798166 lat
#TLE: 1 37849U 11061A   26015.52691075  .00000052  00000+0  45753-4 0  9993
#TLE: 2 37849  98.7811 317.5709 0002448  62.7632 297.3794 14.19525354736784

#Time	Az	El	Level	Level2	SNR	BER	BlckErr	Temp	State	Recorded	gain1	gain2
2026-01-16 09:06:40.79	134.77	2.13	-19.6	-33.6	3.8	1.50e+00	0	52	0	0	7	21786
2026-01-16 09:06:44.82	134.62	2.39	-16.9	-29.8	3.8	1.50e+00	0	52	104	0	4	16712
2026-01-16 09:06:48.86	134.47	2.64	-16.1	-29.5	3.9	1.50e+00	0	52	104	0	5	15268
2026-01-16 09:06:52.91	134.32	2.90	-19.7	-32.0	3.8	1.51e+00	0	53	104	0	9	16213
2026-01-16 09:06:56.95	134.16	3.16	-15.7	-27.9	3.6	1.50e+00	0	53	104	0	0	16931
2026-01-16 09:07:00.99	134.00	3.42	-17.2	-32.4	3.8	1.50e+00	0	53	104	0	5	21375
2026-01-16 09:07:05.04	133.84	3.69	-17.3	-31.5	3.6	1.51e+00	0	53	104	0	5	19370
2026-01-16 09:07:09.08	133.68	3.95	-17.2	-28.7	4.1	1.50e+00	0	54	104	0	0	18568
2026-01-16 09:07:13.12	133.51	4.22	-15.2	-26.7	4.0	1.50e+00	0	54	104	0	2	13158
2026-01-16 09:07:17.16	133.34	4.49	-17.2	-31.6	3.6	1.50e+00	0	54	104	0	11	13783
2026-01-16 09:07:21.20	133.16	4.77	-19.1	-31.7	3.7	1.50e+00	0	54	104	0	6	18559
2026-01-16 09:07:25.24	132.98	5.04	-20.3	-34.9	3.6	1.49e+00	0	54	104	0	9	22761
2026-01-16 09:07:29.29	132.80	5.32	-18.9	-34.1	3.3	1.50e+00	0	55	104	0	12	17467
2026-01-16 09:07:33.33	132.61	5.60	-15.0	-28.6	3.9	1.50e+00	0	55	104	0	2	16399
2026-01-16 09:07:37.37	132.42	5.89	-20.4	-32.1	3.5	1.49e+00	0	55	104	0	8	17469
2026-01-16 09:07:41.41	132.23	6.18	-20.5	-36.3	3.4	1.49e+00	0	56	0	0	15	18752
2026-01-16 09:07:45.45	132.03	6.47	-12.8	-25.6	3.7	1.50e+00	0	56	104	0	0	13082
2026-01-16 09:07:49.49	131.83	6.76	-19.9	-32.2	3.8	1.50e+00	0	56	104	0	5	20917
2026-01-16 09:07:53.53	131.62	7.06	-16.6	-30.6	3.6	1.50e+00	0	56	104	0	5	17394
2026-01-16 09:07:57.57	131.41	7.36	-16.8	-31.7	3.8	1.50e+00	0	56	104	0	1	24978
2026-01-16 09:08:01.61	131.19	7.66	-20.5	-33.1	3.5	1.50e+00	0	56	104	0	9	18370
2026-01-16 09:08:05.65	130.97	7.96	-19.9	-32.8	3.3	1.50e+00	0	57	104	0	5	22391
2026-01-16 09:08:09.69	130.75	8.27	-12.8	-26.5	3.9	1.51e+00	0	57	104	0	1	13705
2026-01-16 09:08:13.73	130.52	8.59	-15.1	-26.5	4.1	1.51e+00	0	57	104	0	3	12148
2026-01-16 09:08:17.78	130.28	8.90	-21.6	-33.0	3.9	1.50e+00	0	57	104	0	7	20396
2026-01-16 09:08:21.81	130.04	9.22	-17.0	-31.9	3.8	1.50e+00	0	57	104	0	5	20285
2026-01-16 09:08:25.85	129.79	9.54	-19.7	-32.3	3.8	1.51e+00	0	57	104	0	6	19958
2026-01-16 09:08:29.89	129.54	9.87	-19.8	-30.4	3.7	1.51e+00	0	57	104	0	9	13513
2026-01-16 09:08:33.93	129.28	10.20	-19.4	-30.3	3.6	1.50e+00	0	57	104	0	6	15834
2026-01-16 09:08:37.97	129.02	10.54	-16.8	-32.4	3.3	1.50e+00	0	57	104	0	10	16115
2026-01-16 09:08:42.01	128.75	10.87	-17.3	-31.6	3.8	1.50e+00	0	58	104	0	5	19614
2026-01-16 09:08:46.04	128.47	11.22	-16.1	-30.3	3.9	1.51e+00	0	58	104	0	4	17811
2026-01-16 09:08:50.08	128.18	11.56	-25.8	-43.0	3.7	1.50e+00	0	58	104	0	22	27173
2026-01-16 09:08:54.12	127.89	11.91	-24.3	-38.2	3.8	1.50e+00	0	58	104	0	15	23499
2026-01-16 09:08:58.16	127.59	12.27	-27.2	-42.1	4.4	1.48e+00	0	58	104	0	22	24463
2026-01-16 09:09:02.20	127.29	12.63	-25.8	-42.5	4.4	1.48e+00	0	58	104	0	25	21721
2026-01-16 09:09:06.25	126.97	12.99	-21.3	-40.5	3.6	1.50e+00	0	58	104	0	16	28867
2026-01-16 09:09:10.28	126.65	13.36	-24.2	-41.8	4.2	1.47e+00	0	58	104	0	28	16850
2026-01-16 09:09:14.33	126.32	13.74	-36.8	-49.5	5.1	1.46e+00	0	58	104	0	43	17143
2026-01-16 09:09:18.37	125.98	14.12	-35.7	-50.1	5.2	1.11e+00	0	58	0	0	46	15537
2026-01-16 09:09:22.41	125.63	14.50	-39.2	-50.2	4.2	1.42e+00	0	58	104	0	49	13235
2026-01-16 09:09:26.44	125.27	14.89	-37.9	-50.1	4.7	1.47e+00	0	59	104	0	45	16434
2026-01-16 09:09:30.48	124.91	15.28	-39.5	-50.8	3.9	8.57e-01	0	59	104	1048576	42	21232
2026-01-16 09:09:34.52	124.53	15.68	-38.6	-50.2	5.7	4.31e-01	0	59	0	6291456	53	10419
2026-01-16 09:09:38.56	124.14	16.08	-40.1	-49.7	6.4	6.70e-01	0	59	0	13631488	48	13200
2026-01-16 09:09:42.59	123.74	16.49	-42.2	-51.1	6.6	2.89e-01	0	59	0	20971520	57	9263
2026-01-16 09:09:46.63	123.33	16.91	-42.7	-50.6	6.3	2.65e-01	0	59	0	28311552	55	9754
2026-01-16 09:09:50.67	122.91	17.33	-43.0	-48.6	9.0	5.84e-02	0	59	0	35651584	56	7327
2026-01-16 09:09:54.70	122.48	17.75	-43.1	-48.9	9.1	1.24e-01	0	59	0	42991616	56	7617
2026-01-16 09:09:58.75	122.03	18.19	-42.3	-47.0	10.3	9.62e-03	0	59	0	51380224	55	6431
2026-01-16 09:10:02.79	121.57	18.62	-42.6	-47.6	8.3	1.11e-01	0	59	0	58720256	54	7325
2026-01-16 09:10:06.83	121.09	19.07	-41.6	-46.4	10.6	4.36e-02	0	59	0	66060288	54	6357
2026-01-16 09:10:10.86	120.60	19.52	-42.3	-47.3	10.6	3.07e-03	0	59	0	73400320	55	6723
2026-01-16 09:10:14.90	120.10	19.97	-42.5	-47.0	11.1	1.38e-03	0	59	0	80740352	55	6449
2026-01-16 09:10:18.94	119.58	20.43	-42.6	-47.2	10.9	3.02e-03	0	59	0	89128960	55	6606
2026-01-16 09:10:22.99	119.04	20.90	-42.4	-46.7	11.4	9.97e-04	0	59	0	96468992	55	6264
2026-01-16 09:10:27.02	118.49	21.37	-42.5	-46.9	11.2	1.88e-03	0	60	0	103809024	55	6418
2026-01-16 09:10:31.06	117.92	21.85	-42.6	-47.2	10.9	1.35e-03	0	60	0	111149056	55	6609
2026-01-16 09:10:35.10	117.33	22.34	-43.0	-48.0	10.2	4.38e-03	0	60	0	119537664	56	6867
2026-01-16 09:10:39.14	116.73	22.83	-43.0	-47.9	10.4	4.14e-03	0	60	0	126877696	56	6734
2026-01-16 09:10:43.17	116.10	23.33	-42.9	-47.8	10.6	3.35e-03	0	60	0	134217728	56	6650
2026-01-16 09:10:47.21	115.45	23.83	-42.8	-47.3	11.0	1.79e-03	0	60	0	141557760	56	6336
2026-01-16 09:10:51.24	114.79	24.34	-42.6	-46.8	11.5	5.61e-04	0	60	0	148897792	56	5984
2026-01-16 09:10:55.28	114.09	24.85	-42.4	-46.4	12.0	3.25e-04	0	60	0	157286400	56	5686
2026-01-16 09:10:59.32	113.38	25.37	-42.5	-46.7	11.7	5.16e-04	0	60	0	164626432	56	5898
2026-01-16 09:11:03.35	112.64	25.90	-42.7	-47.1	11.3	1.15e-03	0	60	0	171966464	56	6202
2026-01-16 09:11:07.39	111.88	26.43	-43.2	-48.3	10.1	7.06e-03	0	60	0	179306496	57	6665
2026-01-16 09:11:11.43	111.09	26.96	-43.3	-48.7	9.8	1.01e-02	0	60	0	187695104	57	7010
2026-01-16 09:11:15.47	110.27	27.50	-43.5	-49.0	9.3	1.85e-02	0	60	0	195035136	57	7255
2026-01-16 09:11:19.51	109.42	28.04	-43.9	-50.2	8.2	3.94e-02	0	60	0	202375168	58	7879
2026-01-16 09:11:23.54	108.55	28.59	-43.9	-50.4	8.0	7.42e-02	0	60	0	209715200	58	8027
2026-01-16 09:11:27.58	107.64	29.14	-43.7	-49.5	8.9	3.81e-02	0	60	0	217055232	58	7284
2026-01-16 09:11:31.62	106.70	29.69	-43.5	-48.9	9.4	2.01e-02	0	60	0	225443840	58	6761
2026-01-16 09:11:35.65	105.73	30.24	-43.2	-48.1	10.4	6.88e-03	0	60	0	232783872	58	6191
2026-01-16 09:11:39.69	104.73	30.80	-43.3	-48.5	10.0	5.72e-03	0	60	0	240123904	57	6839
2026-01-16 09:11:43.73	103.69	31.35	-43.7	-49.5	8.9	1.78e-02	0	60	0	247463936	57	7673
2026-01-16 09:11:47.78	102.61	31.91	-43.5	-48.9	9.6	1.80e-02	0	60	0	254803968	57	7138
2026-01-16 09:11:51.81	101.49	32.46	-43.4	-48.7	9.7	1.37e-02	0	60	0	263192576	57	7022
2026-01-16 09:11:55.85	100.34	33.01	-43.2	-48.0	10.6	4.60e-03	0	61	0	270532608	57	6438
2026-01-16 09:11:59.89	99.15	33.56	-43.3	-48.4	10.2	6.28e-03	0	60	0	277872640	57	6727
2026-01-16 09:12:03.93	97.91	34.10	-43.2	-48.1	10.4	4.20e-03	0	60	0	285212672	57	6502
2026-01-16 09:12:07.96	96.64	34.63	-43.6	-49.1	9.4	2.02e-02	0	61	0	293601280	58	6883
2026-01-16 09:12:12.00	95.32	35.16	-44.1	-50.8	7.7	1.03e-01	0	60	0	300941312	58	8457
2026-01-16 09:12:16.04	93.96	35.68	-44.2	-51.1	7.4	1.43e-01	0	61	0	308281344	59	8217
2026-01-16 09:12:20.08	92.56	36.19	-43.8	-50.7	7.7	1.05e-01	0	60	0	315621376	59	7856
2026-01-16 09:12:24.11	91.11	36.68	-43.3	-48.9	9.5	2.20e-02	0	60	0	322961408	58	6727
2026-01-16 09:12:28.15	89.62	37.16	-42.9	-48.0	10.5	4.07e-03	0	61	0	331350016	57	6431
2026-01-16 09:12:32.20	88.08	37.63	-42.9	-48.0	10.5	5.13e-03	0	60	0	338690048	57	6451
2026-01-16 09:12:36.23	86.50	38.07	-42.5	-46.9	11.6	6.85e-04	0	61	0	346030080	56	6042
2026-01-16 09:12:40.27	84.88	38.50	-42.4	-46.8	11.7	1.04e-03	0	60	0	353370112	56	5947
2026-01-16 09:12:44.31	83.21	38.91	-42.4	-46.9	11.8	3.94e-04	0	60	0	361758720	56	6001
2026-01-16 09:12:48.35	81.50	39.29	-42.4	-46.7	11.9	8.92e-04	0	61	0	369098752	56	5898
2026-01-16 09:12:52.38	79.76	39.64	-42.3	-46.5	11.9	3.48e-04	0	60	0	376438784	55	6131
2026-01-16 09:12:56.42	77.98	39.97	-41.6	-45.1	13.3	2.67e-05	0	60	0	383778816	55	5204
2026-01-16 09:13:00.45	76.17	40.27	-42.3	-46.5	11.9	6.93e-04	0	60	0	391118848	55	6113
2026-01-16 09:13:04.50	74.31	40.54	-42.5	-47.0	11.3	6.08e-04	0	61	0	399507456	55	6467
2026-01-16 09:13:08.53	72.44	40.77	-42.3	-46.5	12.0	2.68e-04	0	61	0	406847488	55	6100
2026-01-16 09:13:12.57	70.53	40.97	-42.4	-46.7	11.7	3.52e-04	0	61	0	414187520	55	6235
2026-01-16 09:13:16.61	68.61	41.14	-41.8	-45.4	13.2	5.30e-06	0	61	0	421527552	55	5361
2026-01-16 09:13:20.65	66.67	41.27	-42.7	-47.1	11.6	9.00e-04	0	61	0	429916160	56	6149
2026-01-16 09:13:24.69	64.71	41.36	-42.6	-46.8	11.8	4.35e-04	0	61	0	437256192	56	5988
2026-01-16 09:13:28.73	62.75	41.42	-42.9	-47.6	11.1	1.85e-03	0	61	0	444596224	56	6529
2026-01-16 09:13:32.76	60.78	41.43	-42.8	-47.6	11.0	2.82e-03	0	61	0	451936256	57	6166
2026-01-16 09:13:36.80	58.81	41.41	-43.7	-50.2	8.3	2.80e-02	0	61	0	459276288	57	8272
2026-01-16 09:13:40.84	56.85	41.35	-43.2	-48.5	10.0	7.60e-03	0	61	0	467664896	58	6489
2026-01-16 09:13:44.88	54.90	41.25	-43.9	-50.9	7.6	7.54e-02	0	61	0	475004928	58	8504
2026-01-16 09:13:48.92	52.96	41.12	-44.0	-51.7	6.5	1.18e-01	0	61	0	482344960	58	9353
2026-01-16 09:13:52.96	51.04	40.95	-43.9	-51.0	7.4	1.53e-01	0	61	0	489684992	58	8631
2026-01-16 09:13:57.00	49.14	40.74	-44.0	-51.7	6.9	1.04e-01	0	61	0	498073600	58	9343
2026-01-16 09:14:01.03	47.27	40.50	-43.5	-49.6	8.9	7.70e-02	0	61	0	505413632	58	7307
2026-01-16 09:14:05.07	45.43	40.23	-42.6	-47.1	11.5	1.86e-03	0	61	0	512753664	57	5813
2026-01-16 09:14:09.11	43.62	39.93	-42.1	-46.1	12.5	2.30e-04	0	61	0	520093696	56	5498
2026-01-16 09:14:13.15	41.84	39.60	-41.3	-44.7	13.8	9.90e-06	0	61	0	527433728	54	5225
2026-01-16 09:14:17.18	40.11	39.24	-41.5	-44.9	13.6	1.67e-05	0	61	0	535822336	54	5371
2026-01-16 09:14:21.22	38.41	38.86	-41.2	-44.4	14.1	0.00e+00	0	61	0	543162368	54	5064
2026-01-16 09:14:25.26	36.76	38.45	-41.9	-45.8	12.6	4.42e-05	0	61	0	550502400	54	5968
2026-01-16 09:14:29.30	35.15	38.02	-41.6	-45.2	13.3	3.89e-05	0	61	0	557842432	54	5548
2026-01-16 09:14:33.34	33.57	37.57	-42.0	-45.9	12.5	9.23e-05	0	61	0	566231040	54	6037
2026-01-16 09:14:37.37	32.05	37.11	-41.1	-44.1	14.4	7.00e-07	0	61	0	573571072	54	4896
2026-01-16 09:14:41.41	30.57	36.63	-42.1	-45.9	12.5	2.51e-05	0	61	0	580911104	54	6041
2026-01-16 09:14:45.45	29.13	36.13	-41.8	-45.3	13.1	6.86e-05	0	61	0	588251136	55	5286
2026-01-16 09:14:49.49	27.74	35.62	-42.1	-46.0	12.4	1.46e-04	0	61	0	595591168	55	5749
2026-01-16 09:14:53.53	26.39	35.11	-42.9	-47.5	11.1	2.01e-03	0	61	0	603979776	56	6440
2026-01-16 09:14:57.57	25.08	34.58	-43.3	-48.4	10.0	8.67e-03	0	61	0	611319808	57	6785
2026-01-16 09:15:01.61	23.81	34.05	-42.4	-46.3	12.2	7.12e-04	0	61	0	618659840	56	5614
2026-01-16 09:15:05.65	22.59	33.51	-43.2	-48.1	10.4	2.07e-03	0	61	0	625999872	56	6894
2026-01-16 09:15:09.68	21.41	32.96	-43.0	-47.9	10.6	4.07e-03	0	61	0	634388480	57	6354
2026-01-16 09:15:13.72	20.27	32.41	-43.7	-49.8	8.5	3.09e-02	0	61	0	641728512	57	7981
2026-01-16 09:15:17.76	19.16	31.86	-44.1	-51.3	7.0	3.63e-01	0	61	0	649068544	59	8459
2026-01-16 09:15:21.80	18.09	31.31	-43.7	-49.8	8.7	2.38e-02	0	61	0	656408576	58	7482
2026-01-16 09:15:25.83	17.06	30.76	-43.5	-49.1	9.3	2.11e-02	0	61	0	663748608	58	6906
2026-01-16 09:15:29.87	16.07	30.21	-43.3	-48.5	9.9	8.65e-03	0	61	0	672137216	58	6470
2026-01-16 09:15:33.91	15.10	29.66	-43.7	-49.8	8.4	3.82e-02	0	61	0	679477248	58	7532
2026-01-16 09:15:37.95	14.17	29.11	-43.0	-47.8	10.5	4.11e-03	0	61	0	686817280	58	5979
2026-01-16 09:15:41.99	13.28	28.56	-43.1	-48.0	10.3	4.82e-03	0	61	0	694157312	57	6481
2026-01-16 09:15:46.02	12.41	28.02	-42.8	-47.4	10.9	2.47e-03	0	61	0	701497344	57	6058
2026-01-16 09:15:50.06	11.57	27.48	-42.9	-47.6	10.8	3.55e-03	0	61	0	709885952	57	6151
2026-01-16 09:15:54.10	10.76	26.94	-43.1	-48.1	10.1	6.22e-03	0	61	0	717225984	57	6540
2026-01-16 09:15:58.14	9.98	26.41	-42.9	-47.7	10.6	4.59e-03	0	61	0	724566016	57	6270
2026-01-16 09:16:02.15	9.23	25.89	-42.6	-47.1	11.3	1.09e-03	0	61	0	731906048	57	5806
2026-01-16 09:16:06.19	8.49	25.37	-42.8	-47.4	10.9	1.10e-03	0	61	0	740294656	56	6389
2026-01-16 09:16:10.22	7.79	24.85	-42.9	-47.7	10.7	2.71e-03	0	61	0	747634688	56	6625
2026-01-16 09:16:14.26	7.10	24.34	-42.4	-46.6	11.7	5.51e-04	0	61	0	754974720	56	5804
2026-01-16 09:16:18.30	6.44	23.83	-42.3	-46.4	11.8	7.06e-04	0	61	0	762314752	56	5715
2026-01-16 09:16:22.34	5.80	23.33	-43.2	-48.6	9.5	1.80e-02	0	61	0	769654784	57	6884
2026-01-16 09:16:26.38	5.18	22.84	-43.1	-48.4	9.6	1.02e-02	0	61	0	778043392	57	6760
2026-01-16 09:16:30.42	4.58	22.35	-43.2	-48.9	9.2	1.98e-02	0	61	0	785383424	57	7122
2026-01-16 09:16:34.45	4.00	21.87	-42.9	-48.0	10.1	8.52e-03	0	61	0	792723456	57	6427
2026-01-16 09:16:38.49	3.43	21.39	-42.5	-47.0	11.1	2.47e-03	0	61	0	800063488	57	5748
2026-01-16 09:16:42.53	2.89	20.92	-42.2	-46.5	11.6	7.49e-04	0	61	0	808452096	56	5735
2026-01-16 09:16:46.57	2.36	20.46	-42.5	-47.0	11.0	1.67e-03	0	61	0	815792128	56	6109
2026-01-16 09:16:50.60	1.84	20.00	-42.7	-47.7	10.2	5.40e-03	0	61	0	823132160	56	6627
2026-01-16 09:16:54.64	1.35	19.55	-42.5	-47.3	10.6	3.85e-03	0	61	0	830472192	56	6293
2026-01-16 09:16:58.68	0.86	19.10	-42.5	-47.5	10.3	4.12e-03	0	61	0	837812224	56	6446
2026-01-16 09:17:02.72	0.39	18.66	-42.8	-48.4	9.2	1.67e-02	0	61	0	846200832	56	7196
2026-01-16 09:17:06.76	359.94	18.22	-42.8	-48.8	8.7	3.25e-02	0	61	0	853540864	56	7509
2026-01-16 09:17:10.80	359.50	17.79	-42.8	-49.0	8.5	4.11e-02	0	61	0	860880896	56	7632
2026-01-16 09:17:14.83	359.07	17.37	-42.5	-48.2	9.1	3.20e-02	0	61	0	868220928	56	7031
2026-01-16 09:17:18.87	358.65	16.95	-42.1	-47.4	9.7	1.13e-02	0	61	0	876609536	56	6364
2026-01-16 09:17:22.91	358.24	16.54	-41.8	-47.4	9.2	2.02e-02	0	61	0	883949568	55	6757
2026-01-16 09:17:26.95	357.85	16.13	-42.0	-48.5	7.8	7.23e-02	0	61	0	891289600	55	7674
2026-01-16 09:17:30.99	357.47	15.73	-41.6	-47.8	8.2	6.25e-02	0	61	0	898629632	55	7070
2026-01-16 09:17:35.02	357.09	15.33	-41.3	-47.1	8.8	3.24e-02	0	62	0	905969664	54	6925
2026-01-16 09:17:39.06	356.73	14.94	-41.2	-47.6	8.1	5.54e-02	0	61	0	914358272	54	7342
2026-01-16 09:17:43.10	356.38	14.56	-41.4	-49.8	5.9	2.75e-01	0	61	0	921698304	54	9417
2026-01-16 09:17:47.13	356.04	14.18	-41.3	-52.5	4.3	1.33e+00	0	61	0	927989760	54	12822
2026-01-16 09:17:51.17	355.70	13.80	-41.2	-54.6	3.8	1.49e+00	0	61	104	927989760	54	16317
2026-01-16 09:17:55.21	355.37	13.43	-40.9	-55.2	3.8	1.49e+00	0	61	104	927989760	53	18576
2026-01-16 09:17:59.25	355.06	13.06	-40.7	-55.5	3.8	1.49e+00	0	61	104	927989760	53	19379
2026-01-16 09:18:03.28	354.75	12.70	-40.6	-55.4	3.8	1.49e+00	0	62	104	927989760	53	18993
2026-01-16 09:18:07.33	354.45	12.34	-40.5	-55.3	3.8	1.49e+00	0	62	104	927989760	53	18941
2026-01-16 09:18:11.37	354.15	11.99	-40.4	-55.1	3.8	1.49e+00	0	61	104	927989760	52	19510
2026-01-16 09:18:15.40	353.87	11.64	-40.5	-55.2	3.8	1.49e+00	0	61	104	927989760	52	19769
2026-01-16 09:18:19.44	353.59	11.29	-40.1	-55.0	3.8	1.49e+00	0	61	104	927989760	52	19254
2026-01-16 09:18:23.48	353.31	10.95	-40.2	-55.1	3.8	1.49e+00	0	61	104	927989760	52	19398
2026-01-16 09:18:27.52	353.05	10.61	-40.3	-55.1	3.8	1.49e+00	0	61	104	927989760	52	19427
2026-01-16 09:18:31.55	352.79	10.28	-40.4	-55.1	3.8	1.49e+00	0	62	104	927989760	52	19582
2026-01-16 09:18:35.59	352.53	9.95	-40.4	-55.2	3.8	1.49e+00	0	61	104	927989760	52	19674
2026-01-16 09:18:39.63	352.29	9.63	-40.5	-55.3	3.8	1.49e+00	0	61	104	927989760	52	19861
2026-01-16 09:18:43.67	352.05	9.31	-40.4	-55.3	3.8	1.49e+00	0	62	104	927989760	52	19874
2026-01-16 09:18:47.70	351.81	8.99	-40.5	-55.2	3.8	1.49e+00	0	61	104	927989760	52	19627
2026-01-16 09:18:51.74	351.58	8.67	-40.5	-55.2	3.8	1.49e+00	0	62	104	927989760	52	19751
2026-01-16 09:18:55.78	351.35	8.36	-40.5	-55.1	3.8	1.49e+00	0	62	104	927989760	52	19602
2026-01-16 09:18:59.81	351.13	8.06	-40.5	-55.1	3.8	1.49e+00	0	61	104	927989760	52	19550
2026-01-16 09:19:03.85	350.92	7.75	-44.7	-59.4	3.8	1.49e+00	0	61	104	927989760	60	20081
2026-01-16 09:19:07.89	350.71	7.45	-45.3	-59.9	3.8	1.49e+00	0	62	104	927989760	61	20250
2026-01-16 09:19:11.93	350.50	7.15	-43.2	-59.4	3.9	1.49e+00	0	62	104	927989760	58	22548
2026-01-16 09:19:15.97	350.30	6.86	-45.2	-59.8	3.8	1.49e+00	0	61	104	927989760	61	19938
2026-01-16 09:19:20.01	350.10	6.56	-45.3	-59.7	3.8	1.49e+00	0	62	104	927989760	61	19817
2026-01-16 09:19:24.05	349.91	6.28	-45.2	-59.7	3.8	1.49e+00	0	61	104	927989760	61	19805
2026-01-16 09:19:28.09	349.72	5.99	-45.2	-59.7	3.8	1.49e+00	0	62	104	927989760	61	19822
2026-01-16 09:19:32.13	349.53	5.71	-45.2	-59.7	3.8	1.49e+00	0	62	104	927989760	61	19804
2026-01-16 09:19:36.17	349.35	5.43	-45.2	-59.7	3.8	1.49e+00	0	61	104	927989760	61	19757
2026-01-16 09:19:40.20	349.17	5.15	-45.1	-59.7	3.8	1.49e+00	0	61	104	927989760	61	19774
2026-01-16 09:19:44.25	349.00	4.87	-45.2	-59.7	3.8	1.49e+00	0	61	104	927989760	61	19751
2026-01-16 09:19:48.29	348.83	4.60	-45.2	-59.7	3.8	1.49e+00	0	61	104	927989760	60	20952
2026-01-16 09:19:52.33	348.66	4.33	-45.1	-59.7	3.8	1.49e+00	0	61	104	927989760	60	20983
2026-01-16 09:19:56.36	348.50	4.06	-45.0	-59.7	3.8	1.49e+00	0	61	104	927989760	60	20912
2026-01-16 09:20:00.40	348.34	3.80	-45.1	-59.7	3.8	1.49e+00	0	62	104	927989760	60	20915
2026-01-16 09:20:04.43	348.18	3.53	-45.2	-59.7	3.8	1.49e+00	0	62	104	927989760	60	20884
2026-01-16 09:20:08.48	348.03	3.27	-45.2	-59.7	3.8	1.49e+00	0	62	104	927989760	60	20913
2026-01-16 09:20:12.52	347.88	3.01	-45.1	-59.7	3.8	1.49e+00	0	61	104	927989760	60	20896
2026-01-16 09:20:16.56	347.73	2.76	-45.2	-59.7	3.8	1.49e+00	0	61	104	927989760	60	20847
2026-01-16 09:20:20.59	347.58	2.50	-45.2	-59.7	3.8	1.49e+00	0	61	104	927989760	60	20819
2026-01-16 09:20:24.63	347.44	2.25	-45.2	-59.7	3.8	1.49e+00	0	61	104	927989760	60	20824
2026-01-16 09:20:28.67	347.30	2.00	-45.2	-59.6	3.8	1.49e+00	0	61	104	927989760	60	20754

#Closed at: 2026-01-16 09:20:28
#Recorded file [927 MB]: D:/lorett/data/31039_260116_120640.dat