passes_logs/2026/01/16/R2.0S_Moscow/R2.0S_Moscow__20260116_151040_FENGYUN_3E_rec.log

#Pass ID: 20260116_151040_FENGYUN 3E
#Satellite: FENGYUN 3E
#Configuration: FENGYUN 3E
#almurnet v.1.7.20251203
#Start time: 2026-01-16 15:10:40

#Version: 2.2.20231116
#Station: R2.0S_Moscow
#Location: 37.707566 lon 55.798166 lat
#TLE: 1 49008U 21062A   26015.99225297  .00000062  00000+0  49720-4 0  9994
#TLE: 2 49008  98.7486  21.1092 0002100 136.3389 223.7953 14.19885247234982

#Time	Az	El	Level	Level2	SNR	BER	BlckErr	Temp	State	Recorded	gain1	gain2
2026-01-16 15:10:40.59	189.59	2.01	-44.5	-55.5	3.8	8.47e-01	0	51	0	0	59	12909
2026-01-16 15:10:44.62	189.78	2.26	-44.5	-55.5	3.8	8.46e-01	0	52	104	0	59	12877
2026-01-16 15:10:48.66	189.97	2.50	-44.5	-55.5	3.8	8.45e-01	0	52	104	0	59	12927
2026-01-16 15:10:52.70	190.17	2.75	-44.5	-55.5	3.8	8.45e-01	0	52	104	0	59	12907
2026-01-16 15:10:56.75	190.37	3.01	-44.5	-55.5	3.8	8.46e-01	0	53	104	0	59	12905
2026-01-16 15:11:00.79	190.57	3.26	-44.5	-55.5	3.8	8.45e-01	0	53	104	0	59	12907
2026-01-16 15:11:04.83	190.77	3.51	-44.5	-55.5	3.8	8.47e-01	0	53	104	0	59	12917
2026-01-16 15:11:08.88	190.98	3.77	-44.5	-55.5	3.8	8.45e-01	0	54	104	0	59	12901
2026-01-16 15:11:12.92	191.19	4.03	-44.5	-55.5	3.8	8.47e-01	0	54	104	0	59	12958
2026-01-16 15:11:16.96	191.41	4.30	-44.5	-55.4	3.8	8.46e-01	0	54	104	0	59	12762
2026-01-16 15:11:21.01	191.63	4.56	-44.5	-55.4	3.8	8.46e-01	0	54	104	0	59	12753
2026-01-16 15:11:25.05	191.85	4.83	-44.4	-55.3	3.8	8.48e-01	0	55	104	0	59	12641
2026-01-16 15:11:29.10	192.08	5.10	-44.3	-54.6	3.8	8.48e-01	0	55	104	0	59	11623
2026-01-16 15:11:33.14	192.31	5.37	-44.2	-53.4	3.8	8.45e-01	0	55	104	0	59	10106
2026-01-16 15:11:37.18	192.55	5.64	-43.9	-52.0	4.2	8.38e-01	0	55	0	0	58	9121
2026-01-16 15:11:41.22	192.79	5.92	-43.4	-49.9	5.1	7.77e-01	0	55	0	0	57	7548
2026-01-16 15:11:45.27	193.03	6.20	-43.0	-48.6	5.8	4.77e-01	0	56	0	10485760	56	6937
2026-01-16 15:11:49.31	193.28	6.48	-43.0	-48.8	5.7	4.33e-01	0	56	0	38797312	56	7055
2026-01-16 15:11:53.36	193.53	6.77	-43.2	-49.4	5.3	7.16e-01	0	56	0	55574528	56	7620
2026-01-16 15:11:57.40	193.79	7.05	-42.3	-46.9	7.1	1.76e-01	0	56	0	77594624	55	6058
2026-01-16 15:12:01.44	194.05	7.34	-40.4	-43.5	10.6	4.35e-03	0	56	0	106954752	51	5143
2026-01-16 15:12:05.49	194.32	7.64	-39.1	-41.6	12.6	1.07e-04	0	57	0	136314880	49	4621
2026-01-16 15:12:09.53	194.59	7.93	-38.6	-41.0	13.1	2.97e-05	0	57	0	165675008	48	4597
2026-01-16 15:12:13.57	194.87	8.23	-39.4	-42.1	12.3	5.37e-05	0	57	0	187695104	48	5186
2026-01-16 15:12:17.61	195.16	8.53	-38.5	-40.9	13.4	2.20e-06	0	57	0	206569472	48	4525
2026-01-16 15:12:21.65	195.45	8.84	-38.2	-40.6	13.7	1.02e-05	0	57	0	235929600	47	4609
2026-01-16 15:12:25.69	195.74	9.15	-38.1	-40.4	13.8	4.50e-06	0	57	0	265289728	46	4814
2026-01-16 15:12:29.73	196.04	9.46	-38.1	-40.4	13.9	1.10e-06	0	58	0	293601280	46	4775
2026-01-16 15:12:33.77	196.35	9.77	-38.1	-40.4	14.0	0.00e+00	0	58	0	322961408	46	4763
2026-01-16 15:12:37.82	196.67	10.09	-37.9	-40.2	14.2	1.10e-06	0	58	0	352321536	46	4669
2026-01-16 15:12:41.86	196.99	10.41	-38.0	-40.2	14.2	0.00e+00	0	58	0	381681664	46	4688
2026-01-16 15:12:45.89	197.31	10.74	-37.9	-40.1	14.3	1.10e-06	0	58	0	411041792	46	4617
2026-01-16 15:12:49.93	197.65	11.06	-37.7	-39.9	14.6	0.00e+00	0	58	0	439353344	46	4494
2026-01-16 15:12:53.97	197.99	11.40	-37.7	-39.8	14.7	0.00e+00	0	58	0	468713472	45	4717
2026-01-16 15:12:58.01	198.34	11.73	-37.6	-39.7	14.9	0.00e+00	0	58	0	498073600	45	4657
2026-01-16 15:13:02.06	198.70	12.07	-37.5	-39.6	14.9	0.00e+00	0	58	0	527433728	45	4613
2026-01-16 15:13:06.10	199.06	12.41	-37.6	-39.7	14.9	0.00e+00	0	58	0	556793856	45	4654
2026-01-16 15:13:10.13	199.44	12.76	-37.5	-39.6	15.0	0.00e+00	0	58	0	586153984	45	4601
2026-01-16 15:13:14.18	199.82	13.11	-37.6	-39.6	15.0	0.00e+00	0	59	0	614465536	45	4628
2026-01-16 15:13:18.22	200.21	13.47	-37.5	-39.6	15.0	0.00e+00	0	59	0	643825664	45	4601
2026-01-16 15:13:22.25	200.61	13.82	-37.5	-39.4	15.1	0.00e+00	0	59	0	673185792	45	4544
2026-01-16 15:13:26.29	201.02	14.19	-37.4	-39.4	15.2	0.00e+00	0	59	0	702545920	45	4512
2026-01-16 15:13:30.33	201.44	14.55	-37.4	-39.3	15.3	0.00e+00	0	59	0	730857472	45	4488
2026-01-16 15:13:34.37	201.87	14.92	-37.1	-39.0	15.6	0.00e+00	0	59	0	760217600	45	4317
2026-01-16 15:13:38.41	202.31	15.30	-37.0	-38.9	15.8	0.00e+00	0	59	0	789577728	44	4509
2026-01-16 15:13:42.45	202.76	15.68	-36.9	-38.7	16.0	0.00e+00	0	59	0	818937856	44	4423
2026-01-16 15:13:46.49	203.23	16.06	-36.8	-38.6	16.1	0.00e+00	0	59	0	848297984	44	4365
2026-01-16 15:13:50.53	203.70	16.45	-36.8	-38.6	16.1	0.00e+00	0	59	0	876609536	44	4382
2026-01-16 15:13:54.57	204.19	16.84	-36.7	-38.5	16.3	0.00e+00	0	59	0	905969664	44	4323
2026-01-16 15:13:58.61	204.69	17.24	-36.5	-38.3	16.3	0.00e+00	0	59	0	935329792	43	4472
2026-01-16 15:14:02.65	205.20	17.64	-36.3	-38.1	16.5	0.00e+00	0	60	0	964689920	43	4372
2026-01-16 15:14:06.69	205.72	18.05	-36.3	-38.2	16.4	0.00e+00	0	59	0	994050048	43	4399
2026-01-16 15:14:10.73	206.26	18.46	-36.1	-37.9	16.7	0.00e+00	0	60	0	1023410176	43	4275
2026-01-16 15:14:14.77	206.82	18.87	-36.3	-38.1	16.5	0.00e+00	0	59	0	1051721728	43	4382
2026-01-16 15:14:18.81	207.38	19.29	-36.2	-38.0	16.5	0.00e+00	0	59	0	1081081856	43	4333
2026-01-16 15:14:22.85	207.97	19.71	-36.0	-37.8	16.8	0.00e+00	0	60	0	1110441984	42	4466
2026-01-16 15:14:26.89	208.57	20.14	-35.7	-37.4	17.2	0.00e+00	0	60	0	1139802112	42	4250
2026-01-16 15:14:30.93	209.18	20.57	-35.8	-37.5	17.1	0.00e+00	0	60	0	1169162240	42	4306
2026-01-16 15:14:34.97	209.82	21.01	-35.8	-37.6	17.0	0.00e+00	0	60	0	1197473792	42	4357
2026-01-16 15:14:39.02	210.47	21.45	-35.7	-37.5	17.1	0.00e+00	0	60	0	1226833920	42	4295
2026-01-16 15:14:43.06	211.14	21.89	-35.7	-37.5	17.1	0.00e+00	0	60	0	1256194048	42	4307
2026-01-16 15:14:47.09	211.83	22.34	-35.5	-37.2	17.4	0.00e+00	0	60	0	1285554176	42	4183
2026-01-16 15:14:51.13	212.54	22.79	-35.4	-37.1	17.5	0.00e+00	0	60	0	1314914304	41	4370
2026-01-16 15:14:55.17	213.26	23.24	-35.5	-37.2	17.4	0.00e+00	0	60	0	1344274432	41	4395
2026-01-16 15:14:59.21	214.01	23.70	-35.5	-37.2	17.4	0.00e+00	0	60	0	1372585984	41	4402
2026-01-16 15:15:03.25	214.79	24.16	-35.4	-37.0	17.6	0.00e+00	0	60	0	1401946112	41	4320
2026-01-16 15:15:07.29	215.58	24.63	-35.2	-36.8	17.8	0.00e+00	0	60	0	1431306240	41	4226
2026-01-16 15:15:11.33	216.40	25.09	-35.0	-36.6	18.0	0.00e+00	0	60	0	1460666368	41	4135
2026-01-16 15:15:15.37	217.24	25.56	-35.1	-36.7	17.9	0.00e+00	0	60	0	1490026496	40	4404
2026-01-16 15:15:19.40	218.10	26.03	-35.0	-36.6	18.1	0.00e+00	0	60	0	1518338048	40	4352
2026-01-16 15:15:23.45	219.00	26.50	-35.1	-36.7	17.9	0.00e+00	0	60	0	1547698176	40	4430
2026-01-16 15:15:27.49	219.91	26.98	-35.1	-36.8	17.8	0.00e+00	0	60	0	1577058304	40	4463
2026-01-16 15:15:31.53	220.86	27.45	-34.9	-36.5	18.1	0.00e+00	0	60	0	1606418432	40	4327
2026-01-16 15:15:35.56	221.83	27.92	-34.8	-36.5	18.1	0.00e+00	0	60	0	1635778560	40	4306
2026-01-16 15:15:39.60	222.83	28.39	-34.9	-36.6	18.0	0.00e+00	0	60	0	1665138688	40	4349
2026-01-16 15:15:43.64	223.86	28.86	-34.8	-36.3	18.3	0.00e+00	0	60	0	1693450240	40	4228
2026-01-16 15:15:47.68	224.92	29.33	-34.9	-36.5	18.2	0.00e+00	0	61	0	1722810368	40	4310
2026-01-16 15:15:51.72	226.01	29.79	-34.9	-36.6	18.1	0.00e+00	0	60	0	1752170496	40	4346
2026-01-16 15:15:55.76	227.13	30.25	-34.8	-36.4	18.2	0.00e+00	0	60	0	1781530624	40	4283
2026-01-16 15:15:59.80	228.28	30.71	-34.8	-36.5	18.1	0.00e+00	0	60	0	1810890752	40	4308
2026-01-16 15:16:03.84	229.47	31.16	-34.8	-36.5	18.1	0.00e+00	0	60	0	1839202304	40	4318
2026-01-16 15:16:07.88	230.69	31.60	-34.9	-36.5	18.0	0.00e+00	0	60	0	1868562432	40	4335
2026-01-16 15:16:11.92	231.94	32.03	-34.7	-36.3	18.3	0.00e+00	0	60	0	1897922560	40	4208
2026-01-16 15:16:15.96	233.22	32.46	-34.7	-36.3	18.4	0.00e+00	0	61	0	1927282688	40	4207
2026-01-16 15:16:20.00	234.54	32.87	-34.8	-36.5	18.1	0.00e+00	0	61	0	1956642816	40	4296
2026-01-16 15:16:24.04	235.89	33.28	-34.8	-36.5	18.1	0.00e+00	0	61	0	1986002944	40	4317
2026-01-16 15:16:28.08	237.27	33.67	-34.8	-36.4	18.2	0.00e+00	0	60	0	2014314496	40	4254
2026-01-16 15:16:32.12	238.69	34.05	-34.7	-36.3	18.3	0.00e+00	0	61	0	2043674624	40	4209
2026-01-16 15:16:36.16	240.13	34.41	-34.8	-36.5	18.2	0.00e+00	0	61	0	2073034752	40	4292
2026-01-16 15:16:40.20	241.61	34.76	-34.6	-36.2	18.5	0.00e+00	0	61	0	2102394880	40	4165
2026-01-16 15:16:44.24	243.12	35.09	-34.8	-36.4	18.3	0.00e+00	0	61	0	2131755008	40	4250
2026-01-16 15:16:48.29	244.66	35.40	-34.8	-36.4	18.3	0.00e+00	0	61	0	2160066560	40	4259
2026-01-16 15:16:52.33	246.23	35.69	-34.9	-36.5	18.1	0.00e+00	0	61	0	2189426688	40	4339
2026-01-16 15:16:56.37	247.82	35.95	-34.7	-36.3	18.4	0.00e+00	0	61	0	2218786816	40	4212
2026-01-16 15:17:00.39	249.43	36.20	-34.5	-36.1	18.6	0.00e+00	0	61	0	2248146944	40	4103
2026-01-16 15:17:04.43	251.07	36.42	-34.7	-36.3	18.5	0.00e+00	0	61	0	2276458496	39	4446
2026-01-16 15:17:08.47	252.73	36.62	-35.0	-36.6	18.1	0.00e+00	0	61	0	2305818624	39	4607
2026-01-16 15:17:12.51	254.41	36.79	-34.8	-36.3	18.4	0.00e+00	0	61	0	2335178752	39	4480
2026-01-16 15:17:16.55	256.10	36.93	-34.8	-36.4	18.5	0.00e+00	0	61	0	2364538880	39	4505
2026-01-16 15:17:20.59	257.81	37.05	-34.7	-36.2	18.6	0.00e+00	0	61	0	2393899008	39	4410
2026-01-16 15:17:24.63	259.53	37.14	-35.1	-36.2	19.0	0.00e+00	0	61	0	2422210560	40	4175
2026-01-16 15:17:28.68	261.26	37.20	-34.8	-35.9	19.2	0.00e+00	0	61	0	2451570688	40	4037
2026-01-16 15:17:32.72	262.99	37.23	-34.9	-36.0	19.1	0.00e+00	0	61	0	2480930816	40	4089
2026-01-16 15:17:36.76	264.73	37.23	-35.2	-36.4	18.8	0.00e+00	0	61	0	2510290944	40	4243
2026-01-16 15:17:40.80	266.46	37.21	-34.9	-36.0	19.2	0.00e+00	0	61	0	2539651072	40	4072
2026-01-16 15:17:44.84	268.19	37.15	-35.0	-36.1	19.1	0.00e+00	0	61	0	2569011200	40	4118
2026-01-16 15:17:48.88	269.90	37.07	-35.0	-36.1	19.1	0.00e+00	0	61	0	2597322752	40	4107
2026-01-16 15:17:52.92	271.61	36.96	-35.0	-36.0	19.1	0.00e+00	0	61	0	2626682880	40	4091
2026-01-16 15:17:56.95	273.31	36.82	-35.0	-36.2	19.0	0.00e+00	0	61	0	2656043008	40	4146
2026-01-16 15:18:00.99	274.99	36.65	-35.1	-36.2	18.9	0.00e+00	0	61	0	2685403136	40	4175
2026-01-16 15:18:05.03	276.65	36.46	-34.9	-35.9	19.2	0.00e+00	0	61	0	2714763264	40	4048
2026-01-16 15:18:09.07	278.29	36.25	-35.1	-36.2	19.0	0.00e+00	0	61	0	2743074816	40	4168
2026-01-16 15:18:13.11	279.91	36.01	-35.2	-36.3	18.8	0.00e+00	0	61	0	2772434944	40	4241
2026-01-16 15:18:17.15	281.51	35.75	-35.2	-36.4	18.8	0.00e+00	0	61	0	2801795072	40	4249
2026-01-16 15:18:21.19	283.07	35.46	-35.4	-36.5	18.7	0.00e+00	0	61	0	2831155200	40	4314
2026-01-16 15:18:25.23	284.61	35.16	-35.4	-36.5	18.7	0.00e+00	0	61	0	2860515328	40	4323
2026-01-16 15:18:29.28	286.13	34.83	-35.3	-36.4	18.7	0.00e+00	0	61	0	2888826880	40	4290
2026-01-16 15:18:33.32	287.61	34.49	-35.3	-36.4	18.7	0.00e+00	0	61	0	2918187008	40	4281
2026-01-16 15:18:37.36	289.06	34.13	-35.0	-36.1	19.0	0.00e+00	0	61	0	2947547136	40	4121
2026-01-16 15:18:41.40	290.48	33.76	-35.3	-36.4	18.7	0.00e+00	0	61	0	2976907264	40	4259
2026-01-16 15:18:45.44	291.86	33.37	-35.4	-36.5	18.6	0.00e+00	0	61	0	3006267392	40	4340
2026-01-16 15:18:49.48	293.21	32.97	-35.3	-36.4	18.7	0.00e+00	0	61	0	3035627520	40	4266
2026-01-16 15:18:53.52	294.53	32.56	-35.4	-36.6	18.6	0.00e+00	0	61	0	3063939072	40	4347
2026-01-16 15:18:57.56	295.82	32.14	-35.6	-36.7	18.2	0.00e+00	0	61	0	3093299200	40	4439
2026-01-16 15:19:01.59	297.07	31.71	-35.3	-36.4	18.7	0.00e+00	0	61	0	3122659328	40	4291
2026-01-16 15:19:05.64	298.30	31.27	-35.2	-36.3	18.8	0.00e+00	0	61	0	3152019456	40	4233
2026-01-16 15:19:09.68	299.48	30.83	-35.5	-36.7	18.4	0.00e+00	0	61	0	3181379584	40	4402
2026-01-16 15:19:13.71	300.64	30.37	-35.7	-36.9	18.2	0.00e+00	0	61	0	3209691136	41	4287
2026-01-16 15:19:17.75	301.76	29.92	-35.4	-36.6	18.5	0.00e+00	0	61	0	3239051264	41	4106
2026-01-16 15:19:21.79	302.86	29.46	-35.1	-36.2	18.8	0.00e+00	0	61	0	3268411392	41	3936
2026-01-16 15:19:25.83	303.92	28.99	-35.5	-36.7	18.4	0.00e+00	0	61	0	3297771520	41	4158
2026-01-16 15:19:29.87	304.95	28.53	-35.7	-36.9	18.1	0.00e+00	0	61	0	3327131648	41	4289
2026-01-16 15:19:33.91	305.96	28.06	-35.4	-36.5	18.5	0.00e+00	0	61	0	3356491776	41	4077
2026-01-16 15:19:37.95	306.93	27.59	-35.3	-36.5	18.6	0.00e+00	0	61	0	3384803328	41	4067
2026-01-16 15:19:41.98	307.88	27.12	-35.7	-36.8	18.2	0.00e+00	0	61	0	3414163456	41	4232
2026-01-16 15:19:46.02	308.80	26.66	-35.7	-36.9	18.1	0.00e+00	0	61	0	3443523584	41	4262
2026-01-16 15:19:50.06	309.69	26.19	-35.5	-36.6	18.4	0.00e+00	0	61	0	3472883712	41	4128
2026-01-16 15:19:54.10	310.56	25.72	-35.4	-36.6	18.4	0.00e+00	0	61	0	3502243840	41	4113
2026-01-16 15:19:58.13	311.41	25.26	-35.6	-36.8	18.2	0.00e+00	0	61	0	3530555392	41	4221
2026-01-16 15:20:02.17	312.23	24.79	-35.8	-37.0	18.0	0.00e+00	0	61	0	3559915520	41	4331
2026-01-16 15:20:06.21	313.02	24.33	-35.8	-37.0	18.0	0.00e+00	0	61	0	3589275648	41	4293
2026-01-16 15:20:10.25	313.80	23.87	-35.8	-37.0	18.0	0.00e+00	0	61	0	3618635776	41	4307
2026-01-16 15:20:14.29	314.55	23.42	-35.9	-37.2	17.7	0.00e+00	0	61	0	3647995904	41	4398
2026-01-16 15:20:18.33	315.28	22.96	-35.9	-37.1	17.8	0.00e+00	0	61	0	3676307456	41	4377
2026-01-16 15:20:22.37	316.00	22.52	-35.7	-36.9	18.0	0.00e+00	0	61	0	3705667584	41	4281
2026-01-16 15:20:26.41	316.69	22.07	-36.0	-37.3	17.7	0.00e+00	0	61	0	3735027712	41	4446
2026-01-16 15:20:30.45	317.36	21.63	-36.4	-37.8	17.2	0.00e+00	0	61	0	3764387840	42	4449
2026-01-16 15:20:34.49	318.02	21.19	-36.8	-38.1	16.8	0.00e+00	0	61	0	3793747968	43	4377
2026-01-16 15:20:38.53	318.65	20.76	-36.6	-38.0	16.9	0.00e+00	0	61	0	3822059520	43	4315
2026-01-16 15:20:42.57	319.27	20.33	-36.4	-37.7	17.1	0.00e+00	0	61	0	3851419648	43	4182
2026-01-16 15:20:46.61	319.88	19.90	-36.6	-37.9	16.9	0.00e+00	0	61	0	3880779776	43	4289
2026-01-16 15:20:50.65	320.46	19.48	-36.8	-38.1	16.7	0.00e+00	0	61	0	3910139904	43	4389
2026-01-16 15:20:54.70	321.04	19.06	-36.8	-38.2	16.6	0.00e+00	0	61	0	3939500032	43	4414
2026-01-16 15:20:58.74	321.59	18.65	-36.9	-38.3	16.5	0.00e+00	0	61	0	3968860160	43	4484
2026-01-16 15:21:02.78	322.14	18.24	-36.9	-38.3	16.5	0.00e+00	0	61	0	3997171712	43	4463
2026-01-16 15:21:06.82	322.67	17.84	-36.7	-38.1	16.7	0.00e+00	0	61	0	4026531840	43	4343
2026-01-16 15:21:10.86	323.18	17.44	-36.7	-38.0	16.7	0.00e+00	0	61	0	4055891968	43	4322
2026-01-16 15:21:14.91	323.69	17.04	-36.7	-38.1	16.7	0.00e+00	0	61	0	4085252096	43	4345
2026-01-16 15:21:18.95	324.18	16.65	-37.0	-38.4	16.3	0.00e+00	0	61	0	4114612224	43	4513
2026-01-16 15:21:22.99	324.65	16.27	-37.6	-39.0	15.8	0.00e+00	0	61	0	4143972352	44	4596
2026-01-16 15:21:27.03	325.12	15.88	-37.5	-39.0	15.9	0.00e+00	0	61	0	4172283904	44	4558
2026-01-16 15:21:31.07	325.58	15.51	-37.7	-39.2	15.7	0.00e+00	0	61	0	4201644032	45	4399
2026-01-16 15:21:35.11	326.02	15.13	-37.5	-39.0	15.8	0.00e+00	0	61	0	4231004160	45	4326
2026-01-16 15:21:39.15	326.45	14.76	-37.7	-39.2	15.6	0.00e+00	0	61	0	4260364288	45	4439
2026-01-16 15:21:43.19	326.88	14.40	-37.7	-39.3	15.5	0.00e+00	0	61	0	4289724416	45	4461
2026-01-16 15:21:47.22	327.29	14.04	-37.7	-39.3	15.5	0.00e+00	0	61	0	4318035968	45	4465
2026-01-16 15:21:51.26	327.69	13.68	-38.0	-39.6	15.1	0.00e+00	0	61	0	4347396096	45	4646
2026-01-16 15:21:55.30	328.09	13.33	-38.0	-39.6	15.1	0.00e+00	0	61	0	4376756224	45	4638
2026-01-16 15:21:59.34	328.48	12.98	-38.0	-39.7	15.0	0.00e+00	0	61	0	4406116352	45	4679
2026-01-16 15:22:03.38	328.85	12.63	-38.0	-39.6	15.0	0.00e+00	0	61	0	4434427904	45	4645
2026-01-16 15:22:07.41	329.22	12.29	-38.1	-39.8	14.9	1.10e-06	0	61	0	4463788032	45	4713
2026-01-16 15:22:11.46	329.59	11.95	-38.3	-40.0	14.6	0.00e+00	0	61	0	4493148160	46	4553
2026-01-16 15:22:15.50	329.94	11.62	-38.4	-40.1	14.4	1.10e-06	0	61	0	4522508288	46	4631
2026-01-16 15:22:19.54	330.29	11.29	-38.5	-40.3	14.2	0.00e+00	0	61	0	4551868416	46	4733
2026-01-16 15:22:23.58	330.62	10.96	-38.6	-40.5	14.0	3.40e-06	0	61	0	4580179968	46	4822
2026-01-16 15:22:27.62	330.96	10.64	-38.5	-40.4	14.1	4.50e-06	0	61	0	4609540096	46	4775
2026-01-16 15:22:31.66	331.28	10.32	-38.5	-40.4	14.0	3.40e-06	0	61	0	4638900224	47	4495
2026-01-16 15:22:35.70	331.60	10.00	-38.7	-40.6	13.7	4.50e-06	0	61	0	4668260352	47	4630
2026-01-16 15:22:39.74	331.91	9.69	-38.6	-40.5	13.8	4.50e-06	0	61	0	4697620480	47	4567
2026-01-16 15:22:43.78	332.22	9.38	-38.5	-40.4	13.8	2.20e-06	0	61	0	4726980608	47	4508
2026-01-16 15:22:47.83	332.52	9.07	-38.8	-40.8	13.3	1.48e-05	0	61	0	4755292160	47	4759
2026-01-16 15:22:51.87	332.81	8.77	-38.8	-40.8	13.2	1.02e-05	0	61	0	4784652288	47	4748
2026-01-16 15:22:55.91	333.10	8.47	-39.1	-41.2	12.8	5.14e-05	0	62	0	4814012416	47	4965
2026-01-16 15:22:59.95	333.38	8.17	-39.1	-41.3	12.7	6.29e-05	0	61	0	4843372544	48	4740
2026-01-16 15:23:03.99	333.66	7.88	-44.4	-56.0	3.8	8.46e-01	0	62	104	4862246912	59	13724
2026-01-16 15:23:08.04	333.94	7.58	-45.6	-57.0	3.8	8.47e-01	0	62	104	4862246912	60	14494
2026-01-16 15:23:12.08	334.20	7.30	-45.7	-57.1	3.8	8.46e-01	0	62	104	4862246912	61	13804
2026-01-16 15:23:16.12	334.47	7.01	-45.7	-57.1	3.8	8.45e-01	0	61	104	4862246912	61	13783
2026-01-16 15:23:20.16	334.72	6.73	-45.6	-57.0	3.8	8.45e-01	0	61	104	4862246912	60	14422
2026-01-16 15:23:24.20	334.98	6.45	-45.6	-57.0	3.8	8.47e-01	0	61	104	4862246912	60	14405
2026-01-16 15:23:28.24	335.23	6.17	-45.5	-57.0	3.8	8.47e-01	0	61	104	4862246912	60	14378
2026-01-16 15:23:32.28	335.47	5.89	-45.6	-57.0	3.8	8.46e-01	0	62	104	4862246912	60	14393
2026-01-16 15:23:36.33	335.71	5.62	-45.6	-57.0	3.8	8.46e-01	0	61	104	4862246912	60	14422
2026-01-16 15:23:40.37	335.95	5.35	-45.6	-57.0	3.8	8.46e-01	0	62	104	4862246912	60	14400
2026-01-16 15:23:44.42	336.18	5.08	-45.6	-56.9	3.8	8.47e-01	0	62	104	4862246912	60	14355
2026-01-16 15:23:48.46	336.41	4.81	-45.6	-56.9	3.8	8.46e-01	0	62	104	4862246912	60	14358
2026-01-16 15:23:52.51	336.63	4.55	-45.6	-57.0	3.8	8.46e-01	0	61	104	4862246912	60	14397
2026-01-16 15:23:56.55	336.85	4.29	-45.5	-56.9	3.8	8.45e-01	0	61	104	4862246912	60	14339
2026-01-16 15:24:00.59	337.07	4.03	-45.6	-56.9	3.8	8.46e-01	0	62	104	4862246912	60	14308
2026-01-16 15:24:04.64	337.29	3.77	-45.6	-57.0	3.8	8.47e-01	0	61	104	4862246912	60	14385
2026-01-16 15:24:08.68	337.50	3.52	-45.6	-56.9	3.8	8.46e-01	0	62	104	4862246912	60	14313
2026-01-16 15:24:12.73	337.70	3.26	-45.6	-56.9	3.8	8.47e-01	0	61	104	4862246912	60	14370
2026-01-16 15:24:16.77	337.91	3.01	-44.5	-56.4	3.8	8.46e-01	0	62	104	4862246912	59	14341
2026-01-16 15:24:20.82	338.11	2.76	-45.6	-56.9	3.8	8.46e-01	0	61	104	4862246912	60	14300
2026-01-16 15:24:24.86	338.31	2.52	-45.6	-56.9	3.8	8.46e-01	0	62	104	4862246912	60	14334
2026-01-16 15:24:28.90	338.50	2.27	-45.6	-56.9	3.8	8.47e-01	0	62	104	4862246912	60	14280
2026-01-16 15:24:32.95	338.70	2.03	-45.0	-56.9	3.8	8.46e-01	0	62	104	4862246912	60	14341

#Closed at: 2026-01-16 15:24:33
#Recorded file [4862 MB]: D:/lorett/data/31039_260116_181040.dat