passes_logs/2026/01/16/R2.0S_Moscow/R2.0S_Moscow__20260116_005601_SUOMI_NPP_rec.log

#Pass ID: 20260116_005601_SUOMI NPP
#Satellite: SUOMI NPP
#Configuration: NPP
#almurnet v.1.7.20251203
#Start time: 2026-01-16 00:56:03

#Version: 2.2.20231116
#Station: R2.0S_Moscow
#Location: 37.707566 lon 55.798166 lat
#TLE: 1 37849U 11061A   26015.52691075  .00000052  00000+0  45753-4 0  9993
#TLE: 2 37849  98.7811 317.5709 0002448  62.7632 297.3794 14.19525354736784

#Time	Az	El	Level	Level2	SNR	BER	BlckErr	Temp	State	Recorded	gain1	gain2
2026-01-16 00:56:03.31	11.65	2.12	-40.0	-54.7	3.8	1.49e+00	0	52	0	0	52	18569
2026-01-16 00:56:07.36	11.46	2.36	-40.0	-54.7	3.8	1.49e+00	0	53	104	0	52	18564
2026-01-16 00:56:11.40	11.26	2.61	-40.0	-54.7	3.8	1.49e+00	0	53	104	0	52	18563
2026-01-16 00:56:15.45	11.07	2.86	-40.0	-54.7	3.8	1.49e+00	0	53	104	0	52	18532
2026-01-16 00:56:19.49	10.87	3.11	-40.0	-54.7	3.8	1.49e+00	0	53	104	0	52	18580
2026-01-16 00:56:23.52	10.67	3.36	-40.0	-54.6	3.8	1.49e+00	0	54	104	0	52	18488
2026-01-16 00:56:27.56	10.46	3.61	-40.0	-54.7	3.8	1.49e+00	0	54	104	0	52	18537
2026-01-16 00:56:31.60	10.25	3.87	-40.0	-54.6	3.8	1.49e+00	0	54	104	0	52	18508
2026-01-16 00:56:35.63	10.03	4.13	-40.0	-54.7	3.8	1.49e+00	0	54	104	0	52	18571
2026-01-16 00:56:39.67	9.82	4.39	-40.0	-54.6	3.8	1.49e+00	0	55	104	0	52	18511
2026-01-16 00:56:43.71	9.59	4.65	-40.0	-54.7	3.8	1.49e+00	0	55	104	0	52	18525
2026-01-16 00:56:47.75	9.37	4.91	-40.0	-54.7	3.8	1.49e+00	0	55	104	0	52	18541
2026-01-16 00:56:51.79	9.13	5.18	-40.0	-54.6	3.8	1.49e+00	0	55	104	0	52	18454
2026-01-16 00:56:55.83	8.90	5.45	-40.0	-54.6	3.8	1.49e+00	0	55	104	0	52	18477
2026-01-16 00:56:59.87	8.66	5.72	-40.0	-54.7	3.8	1.49e+00	0	56	104	0	52	18558
2026-01-16 00:57:03.91	8.41	5.99	-40.0	-54.6	3.8	1.49e+00	0	56	104	0	52	18495
2026-01-16 00:57:07.94	8.16	6.27	-40.0	-54.6	3.8	1.49e+00	0	56	104	0	52	18517
2026-01-16 00:57:11.98	7.90	6.54	-40.1	-54.7	3.8	1.49e+00	0	56	104	0	51	19815
2026-01-16 00:57:16.02	7.64	6.83	-40.1	-54.7	3.8	1.49e+00	0	56	104	0	51	19768
2026-01-16 00:57:20.05	7.38	7.11	-40.1	-54.7	3.8	1.49e+00	0	56	104	0	51	19782
2026-01-16 00:57:24.09	7.10	7.39	-40.1	-54.7	3.8	1.49e+00	0	56	104	0	51	19739
2026-01-16 00:57:28.13	6.82	7.68	-40.1	-54.7	3.8	1.49e+00	0	56	104	0	51	19811
2026-01-16 00:57:32.17	6.54	7.97	-40.1	-54.7	3.8	1.49e+00	0	57	104	0	51	19803
2026-01-16 00:57:36.21	6.25	8.26	-40.1	-54.8	3.8	1.49e+00	0	57	104	0	51	19859
2026-01-16 00:57:40.24	5.96	8.56	-40.2	-54.8	3.8	1.49e+00	0	57	104	0	51	19970
2026-01-16 00:57:44.27	5.65	8.86	-40.1	-54.7	3.8	1.49e+00	0	57	104	0	51	19826
2026-01-16 00:57:48.31	5.34	9.16	-40.1	-54.8	3.8	1.49e+00	0	57	104	0	51	19934
2026-01-16 00:57:52.34	5.03	9.46	-40.1	-54.8	3.8	1.49e+00	0	57	104	0	51	19847
2026-01-16 00:57:56.38	4.71	9.77	-40.2	-54.9	3.8	1.49e+00	0	57	104	0	51	20143
2026-01-16 00:58:00.41	4.38	10.08	-40.2	-54.9	3.8	1.49e+00	0	57	104	0	51	20196
2026-01-16 00:58:04.45	4.04	10.39	-40.4	-55.1	3.8	1.49e+00	0	57	104	0	51	20631
2026-01-16 00:58:08.49	3.69	10.71	-40.0	-54.8	3.7	1.49e+00	0	58	104	0	51	19991
2026-01-16 00:58:12.53	3.34	11.02	-40.6	-55.6	3.8	1.49e+00	0	57	104	0	52	20647
2026-01-16 00:58:16.56	2.98	11.35	-40.2	-54.9	3.8	1.49e+00	0	57	104	0	52	18997
2026-01-16 00:58:20.60	2.61	11.67	-40.7	-55.7	3.8	1.49e+00	0	58	104	0	52	20782
2026-01-16 00:58:24.63	2.23	12.00	-40.3	-55.0	3.8	1.49e+00	0	58	104	0	52	19348
2026-01-16 00:58:28.67	1.84	12.33	-41.3	-55.8	3.8	1.49e+00	0	58	104	0	53	19867
2026-01-16 00:58:32.70	1.45	12.66	-40.4	-55.2	3.8	1.49e+00	0	58	104	0	52	19724
2026-01-16 00:58:36.74	1.04	13.00	-41.9	-55.2	3.9	1.49e+00	0	58	104	0	54	17664
2026-01-16 00:58:40.78	0.63	13.34	-41.3	-50.2	5.5	5.39e-01	0	58	0	2097152	53	10505
2026-01-16 00:58:44.81	0.20	13.68	-41.2	-47.7	8.0	9.02e-02	0	58	0	10485760	53	7853
2026-01-16 00:58:48.85	359.77	14.03	-40.8	-46.2	9.7	1.19e-02	0	58	0	17825792	53	6585
2026-01-16 00:58:52.89	359.32	14.38	-41.2	-46.6	9.5	1.37e-02	0	58	0	25165824	53	6894
2026-01-16 00:58:56.93	358.86	14.74	-41.4	-46.6	9.6	1.36e-02	0	58	0	32505856	53	6945
2026-01-16 00:59:00.97	358.39	15.09	-41.5	-46.6	9.7	1.16e-02	0	59	0	39845888	53	6952
2026-01-16 00:59:05.01	357.91	15.45	-41.3	-46.5	9.8	8.00e-03	0	59	0	48234496	53	6848
2026-01-16 00:59:09.04	357.42	15.82	-41.1	-46.4	9.7	9.78e-03	0	59	0	55574528	53	6733
2026-01-16 00:59:13.08	356.91	16.18	-41.1	-46.6	9.3	1.62e-02	0	59	0	62914560	53	6888
2026-01-16 00:59:17.12	356.39	16.55	-41.3	-48.2	7.4	9.15e-02	0	59	0	70254592	53	8327
2026-01-16 00:59:21.16	355.86	16.93	-41.3	-52.4	4.3	1.00e+00	0	59	0	77594624	53	13437
2026-01-16 00:59:25.20	355.31	17.30	-41.1	-55.7	3.8	1.49e+00	0	59	104	78643200	53	19622
2026-01-16 00:59:29.23	354.76	17.68	-41.0	-55.8	3.8	1.49e+00	0	59	104	78643200	53	19986
2026-01-16 00:59:33.26	354.18	18.06	-40.8	-55.5	3.8	1.49e+00	0	59	104	78643200	53	19284
2026-01-16 00:59:37.30	353.59	18.45	-41.0	-55.8	3.8	1.49e+00	0	59	104	78643200	53	20023
2026-01-16 00:59:41.34	352.99	18.84	-40.6	-55.6	3.8	1.49e+00	0	59	104	78643200	53	19443
2026-01-16 00:59:45.37	352.37	19.23	-40.7	-55.6	3.8	1.49e+00	0	59	104	78643200	53	19607
2026-01-16 00:59:49.41	351.73	19.62	-40.9	-55.7	3.8	1.49e+00	0	59	104	78643200	53	19815
2026-01-16 00:59:53.45	351.07	20.02	-41.3	-56.0	3.8	1.49e+00	0	59	104	78643200	53	20395
2026-01-16 00:59:57.49	350.40	20.42	-41.3	-55.5	3.8	1.49e+00	0	59	104	78643200	54	18287
2026-01-16 01:00:01.52	349.71	20.82	-42.0	-53.8	4.0	1.49e+00	0	59	104	78643200	54	15007
2026-01-16 01:00:05.57	349.00	21.22	-42.1	-51.1	5.2	6.29e-01	0	59	0	82837504	54	11023
2026-01-16 01:00:09.61	348.27	21.62	-42.0	-49.9	6.3	2.77e-01	0	59	0	90177536	54	9506
2026-01-16 01:00:13.64	347.53	22.03	-41.9	-48.8	7.3	1.35e-01	0	59	0	98566144	54	8407
2026-01-16 01:00:17.68	346.76	22.43	-41.9	-48.0	8.2	7.19e-02	0	59	0	105906176	54	7689
2026-01-16 01:00:21.72	345.97	22.84	-42.0	-47.9	8.7	2.99e-02	0	59	0	113246208	54	7560
2026-01-16 01:00:25.76	345.16	23.25	-42.2	-47.8	9.2	2.69e-02	0	59	0	120586240	55	7107
2026-01-16 01:00:29.79	344.33	23.65	-42.0	-46.7	10.6	6.60e-03	0	60	0	127926272	55	6220
2026-01-16 01:00:33.83	343.48	24.06	-42.1	-46.6	10.7	3.52e-03	0	59	0	136314880	55	6167
2026-01-16 01:00:37.87	342.60	24.47	-42.4	-47.3	10.2	6.61e-03	0	59	0	143654912	55	6712
2026-01-16 01:00:41.91	341.70	24.87	-42.4	-47.1	10.5	3.89e-03	0	60	0	150994944	55	6557
2026-01-16 01:00:45.95	340.78	25.28	-42.2	-46.6	11.2	1.56e-03	0	59	0	158334976	55	6151
2026-01-16 01:00:49.98	339.83	25.68	-42.7	-47.5	10.2	4.56e-03	0	59	0	166723584	55	6854
2026-01-16 01:00:54.02	338.86	26.07	-42.4	-46.7	11.2	1.70e-03	0	60	0	174063616	55	6270
2026-01-16 01:00:58.06	337.86	26.47	-43.1	-48.1	10.0	5.58e-03	0	60	0	181403648	56	6931
2026-01-16 01:01:02.10	336.84	26.86	-42.7	-47.1	11.1	2.78e-03	0	60	0	188743680	57	5808
2026-01-16 01:01:06.14	335.79	27.25	-42.1	-45.8	12.5	1.51e-04	0	60	0	196083712	56	5281
2026-01-16 01:01:10.18	334.72	27.63	-42.7	-46.9	11.3	1.08e-03	0	60	0	204472320	56	6057
2026-01-16 01:01:14.22	333.62	28.00	-42.4	-46.4	12.0	8.60e-04	0	60	0	211812352	56	5696
2026-01-16 01:01:18.25	332.50	28.37	-43.2	-48.2	10.0	6.84e-03	0	60	0	219152384	56	7032
2026-01-16 01:01:22.29	331.35	28.73	-43.4	-48.6	9.8	1.65e-02	0	60	0	226492416	57	6950
2026-01-16 01:01:26.33	330.17	29.08	-42.8	-47.2	11.1	1.51e-03	0	60	0	233832448	57	5879
2026-01-16 01:01:30.36	328.97	29.42	-43.5	-49.0	9.3	2.53e-02	0	60	0	242221056	57	7224
2026-01-16 01:01:34.40	327.74	29.75	-43.7	-49.4	8.9	3.22e-02	0	60	0	249561088	58	7141
2026-01-16 01:01:38.44	326.48	30.07	-44.2	-51.5	6.7	1.31e-01	0	60	0	256901120	59	8630
2026-01-16 01:01:42.47	325.21	30.37	-43.7	-49.6	8.7	5.85e-02	0	60	0	264241152	59	6886
2026-01-16 01:01:46.52	323.90	30.67	-43.6	-49.0	9.2	1.87e-02	0	60	0	272629760	58	6848
2026-01-16 01:01:50.55	322.58	30.95	-43.6	-49.3	8.9	4.03e-02	0	60	0	279969792	58	7052
2026-01-16 01:01:54.59	321.23	31.21	-43.4	-48.6	9.6	1.52e-02	0	60	0	287309824	58	6512
2026-01-16 01:01:58.62	319.86	31.46	-43.7	-49.4	8.8	2.73e-02	0	60	0	294649856	58	7192
2026-01-16 01:02:02.66	318.46	31.69	-43.1	-47.8	10.5	3.98e-03	0	60	0	301989888	58	5966
2026-01-16 01:02:06.71	317.05	31.91	-43.6	-49.2	9.1	1.71e-02	0	60	0	310378496	58	6975
2026-01-16 01:02:10.74	315.62	32.10	-43.0	-47.6	10.7	8.79e-03	0	60	0	317718528	58	5814
2026-01-16 01:02:14.78	314.17	32.28	-43.0	-47.7	10.6	2.67e-03	0	60	0	325058560	57	6212
2026-01-16 01:02:18.82	312.71	32.43	-43.1	-47.7	10.6	3.52e-03	0	60	0	332398592	57	6209
2026-01-16 01:02:22.86	311.24	32.57	-42.6	-46.5	11.8	6.74e-04	0	60	0	340787200	56	5783
2026-01-16 01:02:26.91	309.74	32.68	-42.6	-46.6	11.7	6.13e-04	0	60	0	348127232	56	5833
2026-01-16 01:02:30.95	308.25	32.78	-43.2	-48.1	10.1	9.72e-03	0	60	0	355467264	57	6549
2026-01-16 01:02:34.99	306.74	32.85	-43.1	-47.8	10.4	4.98e-03	0	60	0	362807296	57	6317
2026-01-16 01:02:39.03	305.23	32.90	-42.8	-46.9	11.3	1.52e-03	0	60	0	370147328	57	5719
2026-01-16 01:02:43.07	303.72	32.92	-42.8	-47.1	11.2	7.48e-04	0	60	0	378535936	56	6198
2026-01-16 01:02:47.10	302.21	32.93	-43.8	-49.6	8.6	3.23e-02	0	60	0	385875968	58	7343
2026-01-16 01:02:51.14	300.69	32.91	-43.5	-48.9	9.3	1.91e-02	0	60	0	393216000	58	6788
2026-01-16 01:02:55.18	299.18	32.86	-43.2	-47.9	10.3	7.25e-03	0	60	0	400556032	58	6051
2026-01-16 01:02:59.21	297.67	32.80	-43.0	-47.4	10.8	1.24e-03	0	60	0	408944640	57	6045
2026-01-16 01:03:03.25	296.17	32.71	-43.4	-48.5	9.6	1.31e-02	0	60	0	416284672	57	6855
2026-01-16 01:03:07.29	294.68	32.60	-43.4	-48.6	9.6	1.09e-02	0	60	0	423624704	57	6930
2026-01-16 01:03:11.33	293.20	32.47	-43.6	-49.2	8.9	2.56e-02	0	60	0	430964736	57	7451
2026-01-16 01:03:15.37	291.73	32.32	-43.2	-48.0	10.3	5.62e-03	0	60	0	438304768	57	6473
2026-01-16 01:03:19.41	290.28	32.15	-43.1	-47.9	10.5	4.88e-03	0	60	0	446693376	57	6357
2026-01-16 01:03:23.44	288.85	31.96	-42.9	-47.3	11.0	2.26e-03	0	60	0	454033408	57	5943
2026-01-16 01:03:27.48	287.43	31.75	-43.2	-48.0	10.2	7.39e-03	0	60	0	461373440	57	6450
2026-01-16 01:03:31.52	286.02	31.53	-43.0	-47.7	10.5	3.70e-03	0	60	0	468713472	57	6270
2026-01-16 01:03:35.56	284.64	31.28	-42.6	-46.7	11.6	1.80e-03	0	60	0	477102080	57	5553
2026-01-16 01:03:39.60	283.28	31.02	-42.8	-47.0	11.3	1.01e-03	0	60	0	484442112	56	6130
2026-01-16 01:03:43.64	281.95	30.75	-43.2	-47.9	10.3	4.34e-03	0	60	0	491782144	57	6416
2026-01-16 01:03:47.68	280.63	30.46	-43.6	-49.1	9.0	3.25e-02	0	60	0	499122176	57	7348
2026-01-16 01:03:51.72	279.34	30.15	-43.6	-49.1	9.1	1.82e-02	0	60	0	506462208	57	7311
2026-01-16 01:03:55.75	278.08	29.84	-43.4	-48.7	9.5	1.94e-02	0	60	0	514850816	57	6984
2026-01-16 01:03:59.79	276.84	29.51	-43.4	-48.6	9.6	1.44e-02	0	60	0	522190848	57	6932
2026-01-16 01:04:03.82	275.63	29.17	-43.1	-47.9	10.2	6.07e-03	0	60	0	529530880	57	6403
2026-01-16 01:04:07.86	274.44	28.82	-41.8	-45.3	12.9	1.40e-04	0	60	0	536870912	55	5296
2026-01-16 01:04:11.90	273.27	28.46	-42.3	-46.3	11.8	5.03e-04	0	60	0	545259520	55	5937
2026-01-16 01:04:15.94	272.14	28.10	-43.1	-47.9	10.2	5.50e-03	0	60	0	552599552	57	6420
2026-01-16 01:04:19.98	271.03	27.72	-42.1	-45.8	12.5	1.36e-04	0	60	0	559939584	56	5295
2026-01-16 01:04:24.01	269.94	27.34	-43.8	-49.9	8.2	4.33e-02	0	60	0	567279616	58	7562
2026-01-16 01:04:28.05	268.88	26.96	-43.3	-48.3	9.8	1.70e-02	0	60	0	574619648	58	6333
2026-01-16 01:04:32.09	267.85	26.57	-42.7	-47.0	11.2	1.37e-03	0	60	0	583008256	57	5736
2026-01-16 01:04:36.13	266.84	26.17	-42.0	-45.6	12.6	1.30e-04	0	60	0	590348288	56	5182
2026-01-16 01:04:40.16	265.86	25.77	-41.9	-45.6	12.5	1.01e-04	0	60	0	597688320	55	5467
2026-01-16 01:04:44.20	264.90	25.37	-41.9	-45.6	12.5	9.00e-05	0	60	0	605028352	55	5473
2026-01-16 01:04:48.24	263.97	24.97	-42.2	-46.2	11.8	3.87e-04	0	60	0	613416960	55	5899
2026-01-16 01:04:52.28	263.06	24.56	-42.2	-46.1	11.9	4.42e-04	0	60	0	620756992	55	5810
2026-01-16 01:04:56.31	262.17	24.15	-42.1	-46.0	12.0	2.71e-04	0	60	0	628097024	55	5758
2026-01-16 01:05:00.36	261.31	23.75	-41.3	-44.4	13.6	1.60e-05	0	60	0	635437056	54	5087
2026-01-16 01:05:04.39	260.47	23.34	-40.9	-43.7	14.3	0.00e+00	0	60	0	642777088	53	4982
2026-01-16 01:05:08.43	259.65	22.93	-41.8	-45.4	12.6	6.63e-05	0	60	0	651165696	54	5678
2026-01-16 01:05:12.47	258.85	22.52	-41.4	-44.6	13.4	2.21e-05	0	61	0	658505728	54	5192
2026-01-16 01:05:16.51	258.07	22.11	-41.7	-45.3	12.7	5.41e-05	0	60	0	665845760	54	5631
2026-01-16 01:05:20.55	257.31	21.70	-41.7	-45.2	12.8	6.02e-05	0	60	0	673185792	54	5562
2026-01-16 01:05:24.58	256.58	21.30	-41.6	-45.1	12.9	7.01e-05	0	60	0	681574400	54	5481
2026-01-16 01:05:28.63	255.86	20.89	-41.2	-44.4	13.6	1.06e-05	0	60	0	688914432	54	5093
2026-01-16 01:05:32.66	255.16	20.49	-41.7	-45.2	12.7	5.72e-05	0	60	0	696254464	54	5581
2026-01-16 01:05:36.70	254.48	20.09	-41.8	-45.4	12.5	1.42e-04	0	60	0	703594496	54	5700
2026-01-16 01:05:40.74	253.81	19.69	-41.2	-44.3	13.7	6.80e-06	0	60	0	710934528	54	5020
2026-01-16 01:05:44.78	253.17	19.30	-41.3	-44.5	13.5	9.90e-06	0	60	0	719323136	54	5130
2026-01-16 01:05:48.81	252.54	18.91	-42.0	-45.9	12.0	2.16e-04	0	60	0	726663168	54	6051
2026-01-16 01:05:52.85	251.92	18.52	-42.2	-46.3	11.6	5.08e-04	0	61	0	734003200	55	5946
2026-01-16 01:05:56.89	251.33	18.13	-41.8	-45.5	12.5	1.33e-04	0	60	0	741343232	55	5420
2026-01-16 01:06:00.93	250.74	17.74	-42.0	-45.9	12.0	2.30e-04	0	60	0	749731840	55	5688
2026-01-16 01:06:04.97	250.18	17.36	-42.2	-46.4	11.5	8.32e-04	0	60	0	757071872	55	6003
2026-01-16 01:06:09.01	249.62	16.98	-41.8	-45.6	12.2	2.81e-04	0	60	0	764411904	55	5492
2026-01-16 01:06:13.04	249.08	16.61	-41.6	-45.1	12.7	6.02e-05	0	61	0	771751936	55	5211
2026-01-16 01:06:17.08	248.56	16.24	-41.8	-45.6	12.3	1.12e-04	0	60	0	779091968	55	5474
2026-01-16 01:06:21.12	248.04	15.87	-42.0	-46.0	11.8	4.97e-04	0	60	0	787480576	55	5759
2026-01-16 01:06:25.16	247.54	15.50	-41.8	-45.6	12.1	2.88e-04	0	61	0	794820608	55	5515
2026-01-16 01:06:29.19	247.06	15.14	-41.8	-45.5	12.3	1.58e-04	0	60	0	802160640	55	5438
2026-01-16 01:06:33.23	246.58	14.78	-42.2	-46.4	11.3	9.46e-04	0	61	0	809500672	55	6039
2026-01-16 01:06:37.27	246.11	14.42	-42.9	-48.0	9.7	9.51e-03	0	61	0	817889280	56	6857
2026-01-16 01:06:41.31	245.66	14.07	-42.3	-46.5	11.4	1.52e-03	0	60	0	825229312	56	5748
2026-01-16 01:06:45.35	245.22	13.72	-41.5	-45.0	12.7	1.01e-04	0	60	0	832569344	55	5143
2026-01-16 01:06:49.38	244.79	13.37	-41.7	-45.5	12.2	2.16e-04	0	60	0	839909376	54	5780
2026-01-16 01:06:53.42	244.36	13.03	-42.5	-47.3	10.3	3.67e-03	0	61	0	847249408	55	6670
2026-01-16 01:06:57.45	243.95	12.69	-43.0	-48.5	9.2	1.86e-02	0	61	0	855638016	56	7228
2026-01-16 01:07:01.49	243.55	12.36	-42.9	-48.3	9.4	1.82e-02	0	60	0	862978048	56	7091
2026-01-16 01:07:05.54	243.15	12.02	-42.9	-48.1	9.5	1.49e-02	0	60	0	870318080	56	6936
2026-01-16 01:07:09.58	242.77	11.69	-42.9	-48.1	9.5	1.22e-02	0	60	0	877658112	56	6954
2026-01-16 01:07:13.61	242.39	11.37	-42.8	-47.8	9.8	1.04e-02	0	60	0	886046720	56	6717
2026-01-16 01:07:17.65	242.03	11.04	-42.8	-47.9	9.7	1.08e-02	0	60	0	893386752	56	6730
2026-01-16 01:07:21.69	241.67	10.72	-42.8	-48.1	9.5	1.27e-02	0	60	0	900726784	56	6934
2026-01-16 01:07:25.73	241.31	10.40	-42.5	-47.3	10.3	6.29e-03	0	61	0	908066816	56	6292
2026-01-16 01:07:29.77	240.97	10.09	-42.2	-46.7	11.0	1.97e-03	0	61	0	915406848	56	5867
2026-01-16 01:07:33.81	240.63	9.78	-42.1	-46.5	11.1	1.48e-03	0	61	0	923795456	56	5744
2026-01-16 01:07:37.84	240.31	9.47	-42.3	-47.0	10.6	3.25e-03	0	60	0	931135488	56	6081
2026-01-16 01:07:41.88	239.98	9.16	-42.7	-48.1	9.4	1.26e-02	0	60	0	938475520	56	6908
2026-01-16 01:07:45.92	239.67	8.86	-43.0	-49.1	8.4	4.24e-02	0	60	0	945815552	56	7756
2026-01-16 01:07:49.96	239.36	8.56	-43.1	-49.5	7.9	6.21e-02	0	60	0	953155584	56	8124
2026-01-16 01:07:54.00	239.06	8.26	-43.1	-49.5	7.9	8.13e-02	0	60	0	961544192	56	8103
2026-01-16 01:07:58.04	238.76	7.97	-44.6	-58.6	3.8	1.05e+00	0	61	104	967835648	59	19409
2026-01-16 01:08:02.08	238.47	7.68	-45.2	-59.7	3.8	1.49e+00	0	61	104	967835648	60	20976
2026-01-16 01:08:06.11	238.19	7.39	-45.4	-60.0	3.8	1.49e+00	0	60	104	967835648	61	20331
2026-01-16 01:08:10.14	237.91	7.10	-45.4	-59.9	3.8	1.49e+00	0	61	104	967835648	61	20113
2026-01-16 01:08:14.19	237.64	6.82	-45.3	-59.8	3.8	1.49e+00	0	61	104	967835648	61	19960
2026-01-16 01:08:18.22	237.37	6.54	-45.3	-59.8	3.8	1.49e+00	0	61	104	967835648	61	19847
2026-01-16 01:08:22.26	237.11	6.26	-45.3	-59.8	3.8	1.49e+00	0	61	104	967835648	61	19849
2026-01-16 01:08:26.30	236.85	5.98	-45.3	-59.8	3.8	1.49e+00	0	61	104	967835648	61	19865
2026-01-16 01:08:30.34	236.60	5.71	-45.3	-59.7	3.8	1.49e+00	0	61	104	967835648	61	19827
2026-01-16 01:08:34.37	236.35	5.44	-45.3	-59.8	3.8	1.49e+00	0	60	104	967835648	61	19889
2026-01-16 01:08:38.41	236.11	5.17	-45.3	-59.8	3.8	1.49e+00	0	61	104	967835648	61	19872
2026-01-16 01:08:42.45	235.87	4.90	-45.3	-59.7	3.8	1.49e+00	0	61	104	967835648	61	19801
2026-01-16 01:08:46.49	235.64	4.63	-45.2	-59.8	3.8	1.49e+00	0	61	104	967835648	61	19848
2026-01-16 01:08:50.53	235.41	4.37	-45.2	-59.7	3.8	1.49e+00	0	60	104	967835648	61	19830
2026-01-16 01:08:54.57	235.19	4.11	-45.2	-59.7	3.8	1.49e+00	0	61	104	967835648	61	19769
2026-01-16 01:08:58.61	234.97	3.85	-45.2	-59.7	3.8	1.49e+00	0	61	104	967835648	61	19805
2026-01-16 01:09:02.65	234.75	3.59	-45.2	-59.8	3.8	1.49e+00	0	60	104	967835648	61	19878
2026-01-16 01:09:06.69	234.54	3.34	-45.2	-59.7	3.8	1.49e+00	0	60	104	967835648	61	19802
2026-01-16 01:09:10.73	234.33	3.09	-45.2	-59.8	3.8	1.49e+00	0	61	104	967835648	61	19851
2026-01-16 01:09:14.77	234.12	2.83	-45.2	-59.7	3.8	1.49e+00	0	61	104	967835648	61	19740
2026-01-16 01:09:18.81	233.92	2.59	-45.2	-59.7	3.8	1.49e+00	0	60	104	967835648	61	19763
2026-01-16 01:09:22.85	233.73	2.34	-45.2	-59.7	3.8	1.49e+00	0	60	104	967835648	61	19774
2026-01-16 01:09:26.89	233.53	2.09	-45.2	-59.7	3.8	1.49e+00	0	61	104	967835648	61	19764

#Closed at: 2026-01-16 01:09:30
#Recorded file [967 MB]: D:/lorett/data/31039_260116_035603.dat