passes_logs/2026/01/16/R2.0S_Moscow/R2.0S_Moscow__20260116_001445_FENGYUN_3D_rec.log

#Pass ID: 20260116_001445_FENGYUN 3D
#Satellite: FENGYUN 3D
#Configuration: FENGYUN 3D
#almurnet v.1.7.20251203
#Start time: 2026-01-16 00:14:47

#Version: 2.2.20231116
#Station: R2.0S_Moscow
#Location: 37.707566 lon 55.798166 lat
#TLE: 1 43010U 17072A   26015.49690188 -.00000192  00000+0 -69217-4 0  9996
#TLE: 2 43010  98.9932 347.3205 0002350 106.2275 253.9159 14.19694721423329

#Time	Az	El	Level	Level2	SNR	BER	BlckErr	Temp	State	Recorded	gain1	gain2
2026-01-16 00:14:47.47	25.91	2.11	-41.6	-53.8	3.8	8.46e-01	0	51	0	0	55	14178
2026-01-16 00:14:51.50	26.20	2.33	-41.6	-53.8	3.8	8.46e-01	0	51	104	0	53	15876
2026-01-16 00:14:55.53	26.50	2.55	-41.6	-53.8	3.8	8.46e-01	0	52	104	0	53	15934
2026-01-16 00:14:59.57	26.80	2.78	-41.6	-53.8	3.8	8.46e-01	0	52	104	0	53	15922
2026-01-16 00:15:03.59	27.10	3.00	-41.6	-53.8	3.8	8.47e-01	0	52	104	0	53	15899
2026-01-16 00:15:07.63	27.41	3.22	-41.6	-53.8	3.8	8.46e-01	0	53	104	0	53	15859
2026-01-16 00:15:11.67	27.73	3.45	-41.6	-53.8	3.8	8.46e-01	0	53	104	0	53	15920
2026-01-16 00:15:15.71	28.05	3.68	-41.6	-53.8	3.8	8.47e-01	0	53	104	0	53	15935
2026-01-16 00:15:19.75	28.37	3.91	-41.6	-53.8	3.8	8.46e-01	0	53	104	0	53	15920
2026-01-16 00:15:23.79	28.70	4.14	-41.6	-53.8	3.8	8.46e-01	0	54	104	0	53	15808
2026-01-16 00:15:27.83	29.03	4.37	-41.6	-53.8	3.8	8.46e-01	0	54	104	0	53	15881
2026-01-16 00:15:31.88	29.37	4.60	-41.6	-53.8	3.8	8.46e-01	0	54	104	0	53	15872
2026-01-16 00:15:35.92	29.72	4.84	-41.6	-53.8	3.8	8.46e-01	0	54	104	0	53	15908
2026-01-16 00:15:39.96	30.06	5.07	-41.6	-53.8	3.8	8.47e-01	0	55	104	0	53	15835
2026-01-16 00:15:44.00	30.42	5.31	-41.6	-53.8	3.8	8.45e-01	0	55	104	0	53	15904
2026-01-16 00:15:48.04	30.78	5.54	-41.6	-53.8	3.8	8.46e-01	0	55	104	0	53	15906
2026-01-16 00:15:52.09	31.15	5.78	-41.6	-53.8	3.8	8.46e-01	0	55	104	0	53	15856
2026-01-16 00:15:56.13	31.52	6.02	-41.6	-53.8	3.8	8.47e-01	0	55	104	0	53	15881
2026-01-16 00:16:00.17	31.89	6.27	-41.6	-53.8	3.8	8.46e-01	0	55	104	0	53	15870
2026-01-16 00:16:04.21	32.28	6.51	-41.5	-53.7	3.8	8.45e-01	0	56	104	0	53	15673
2026-01-16 00:16:08.25	32.67	6.75	-41.6	-53.8	3.8	8.45e-01	0	56	104	0	53	15851
2026-01-16 00:16:12.28	33.06	7.00	-41.4	-52.6	3.8	8.46e-01	0	56	104	0	53	13852
2026-01-16 00:16:16.33	33.46	7.24	-41.2	-52.6	3.8	8.44e-01	0	56	104	0	53	13763
2026-01-16 00:16:20.37	33.87	7.49	-41.0	-50.2	4.2	8.43e-01	0	56	104	0	53	10451
2026-01-16 00:16:24.41	34.29	7.74	-40.4	-47.2	5.7	4.48e-01	0	57	0	6291456	52	7852
2026-01-16 00:16:28.45	34.71	7.99	-38.7	-42.5	10.1	8.48e-03	0	57	0	27262976	49	5425
2026-01-16 00:16:32.49	35.14	8.24	-40.2	-44.1	9.4	3.37e-02	0	57	0	42991616	52	5511
2026-01-16 00:16:36.53	35.58	8.49	-38.9	-41.9	11.7	7.75e-04	0	57	0	66060288	49	5056
2026-01-16 00:16:40.57	36.02	8.75	-39.3	-42.3	11.4	1.12e-03	0	57	0	89128960	49	5282
2026-01-16 00:16:44.61	36.47	9.00	-39.1	-41.8	12.0	3.39e-04	0	57	0	111149056	49	5032
2026-01-16 00:16:48.64	36.93	9.26	-39.0	-41.6	12.4	2.17e-04	0	57	0	134217728	49	4892
2026-01-16 00:16:52.68	37.40	9.51	-39.1	-41.7	12.4	1.85e-04	0	57	0	157286400	49	4954
2026-01-16 00:16:56.72	37.87	9.77	-39.2	-41.8	12.4	1.50e-04	0	57	0	180355072	49	4989
2026-01-16 00:17:00.75	38.35	10.03	-39.2	-41.7	12.7	1.45e-04	0	58	0	202375168	49	4928
2026-01-16 00:17:04.79	38.84	10.29	-38.8	-41.0	13.4	2.51e-05	0	58	0	225443840	49	4587
2026-01-16 00:17:08.83	39.34	10.55	-39.1	-41.4	13.1	4.00e-05	0	58	0	247463936	49	4779
2026-01-16 00:17:12.87	39.85	10.81	-39.2	-41.6	12.9	5.14e-05	0	58	0	270532608	49	4912
2026-01-16 00:17:16.92	40.37	11.07	-39.2	-41.6	13.0	5.37e-05	0	58	0	293601280	49	4885
2026-01-16 00:17:20.96	40.90	11.34	-39.2	-41.5	13.1	4.46e-05	0	58	0	315621376	49	4860
2026-01-16 00:17:25.00	41.43	11.60	-39.0	-41.2	13.5	1.94e-05	0	58	0	338690048	49	4704
2026-01-16 00:17:29.04	41.98	11.87	-38.8	-41.0	13.7	1.83e-05	0	58	0	361758720	49	4588
2026-01-16 00:17:33.08	42.53	12.13	-39.0	-41.2	13.6	1.25e-05	0	58	0	384827392	49	4677
2026-01-16 00:17:37.12	43.09	12.40	-38.7	-40.8	14.0	5.70e-06	0	58	0	406847488	49	4483
2026-01-16 00:17:41.17	43.67	12.66	-38.6	-40.6	14.2	3.40e-06	0	58	0	429916160	49	4385
2026-01-16 00:17:45.21	44.25	12.93	-38.5	-40.5	14.3	0.00e+00	0	58	0	451936256	48	4597
2026-01-16 00:17:49.25	44.85	13.20	-38.7	-40.8	14.1	4.50e-06	0	59	0	475004928	48	4727
2026-01-16 00:17:53.28	45.45	13.46	-38.3	-40.3	14.6	1.10e-06	0	59	0	498073600	48	4461
2026-01-16 00:17:57.32	46.07	13.73	-38.4	-40.3	14.6	1.10e-06	0	59	0	521142272	48	4481
2026-01-16 00:18:01.36	46.69	14.00	-38.6	-40.6	14.3	2.20e-06	0	59	0	543162368	48	4635
2026-01-16 00:18:05.40	47.33	14.26	-38.7	-40.7	14.3	2.20e-06	0	59	0	566231040	48	4686
2026-01-16 00:18:09.43	47.98	14.53	-38.6	-40.6	14.4	1.10e-06	0	59	0	589299712	48	4630
2026-01-16 00:18:13.47	48.64	14.79	-38.2	-40.1	14.9	0.00e+00	0	59	0	611319808	48	4360
2026-01-16 00:18:17.51	49.31	15.06	-38.3	-40.2	14.8	1.10e-06	0	58	0	634388480	48	4418
2026-01-16 00:18:21.55	49.99	15.32	-38.2	-40.1	14.9	0.00e+00	0	59	0	656408576	48	4379
2026-01-16 00:18:25.59	50.69	15.59	-38.2	-40.1	15.0	1.10e-06	0	59	0	679477248	48	4360
2026-01-16 00:18:29.63	51.40	15.85	-38.1	-40.0	15.1	0.00e+00	0	59	0	702545920	48	4293
2026-01-16 00:18:33.67	52.12	16.11	-37.9	-39.8	15.2	0.00e+00	0	59	0	724566016	47	4455
2026-01-16 00:18:37.70	52.85	16.37	-37.9	-39.8	15.2	0.00e+00	0	59	0	747634688	47	4450
2026-01-16 00:18:41.75	53.59	16.63	-37.9	-39.8	15.2	1.10e-06	0	59	0	770703360	47	4454
2026-01-16 00:18:45.79	54.35	16.88	-37.8	-39.7	15.3	0.00e+00	0	59	0	793772032	47	4393
2026-01-16 00:18:49.82	55.12	17.14	-37.6	-39.4	15.6	0.00e+00	0	59	0	815792128	47	4244
2026-01-16 00:18:53.86	55.90	17.39	-37.6	-39.4	15.6	0.00e+00	0	59	0	838860800	47	4263
2026-01-16 00:18:57.90	56.70	17.64	-37.7	-39.5	15.5	0.00e+00	0	59	0	860880896	47	4313
2026-01-16 00:19:01.94	57.50	17.88	-37.6	-39.3	15.7	0.00e+00	0	59	0	883949568	47	4240
2026-01-16 00:19:05.97	58.32	18.12	-37.6	-39.4	15.7	0.00e+00	0	59	0	907018240	47	4251
2026-01-16 00:19:10.01	59.16	18.36	-37.7	-39.4	15.6	0.00e+00	0	60	0	929038336	47	4290
2026-01-16 00:19:14.05	60.00	18.60	-37.4	-39.2	15.9	0.00e+00	0	59	0	952107008	46	4397
2026-01-16 00:19:18.08	60.86	18.83	-37.4	-39.1	15.9	0.00e+00	0	59	0	975175680	46	4357
2026-01-16 00:19:22.12	61.73	19.06	-37.2	-39.0	15.8	0.00e+00	0	59	0	998244352	46	4325
2026-01-16 00:19:26.17	62.62	19.28	-37.0	-38.7	16.0	0.00e+00	0	60	0	1020264448	46	4186
2026-01-16 00:19:30.20	63.52	19.50	-37.0	-38.7	16.0	0.00e+00	0	59	0	1043333120	45	4438
2026-01-16 00:19:34.24	64.43	19.71	-37.1	-38.9	15.8	0.00e+00	0	60	0	1065353216	45	4531
2026-01-16 00:19:38.29	65.35	19.92	-36.9	-38.7	16.0	0.00e+00	0	59	0	1088421888	45	4420
2026-01-16 00:19:42.32	66.28	20.12	-37.2	-39.0	15.7	0.00e+00	0	59	0	1111490560	45	4578
2026-01-16 00:19:46.36	67.23	20.32	-36.9	-38.7	15.9	0.00e+00	0	59	0	1133510656	45	4440
2026-01-16 00:19:50.39	68.19	20.51	-37.1	-39.0	15.6	0.00e+00	0	60	0	1156579328	45	4564
2026-01-16 00:19:54.43	69.16	20.69	-37.2	-39.1	15.4	0.00e+00	0	60	0	1179648000	45	4612
2026-01-16 00:19:58.46	70.14	20.87	-37.1	-39.0	15.4	0.00e+00	0	60	0	1201668096	45	4570
2026-01-16 00:20:02.50	71.13	21.04	-37.2	-39.1	15.1	0.00e+00	0	60	0	1224736768	45	4646
2026-01-16 00:20:06.54	72.13	21.20	-37.2	-39.2	15.1	0.00e+00	0	60	0	1247805440	45	4675
2026-01-16 00:20:10.59	73.15	21.35	-37.1	-39.0	15.4	0.00e+00	0	60	0	1269825536	45	4577
2026-01-16 00:20:14.62	74.17	21.50	-37.2	-39.1	15.2	0.00e+00	0	60	0	1292894208	45	4612
2026-01-16 00:20:18.66	75.20	21.64	-37.2	-39.1	15.2	0.00e+00	0	60	0	1315962880	45	4630
2026-01-16 00:20:22.70	76.24	21.76	-36.8	-38.7	15.7	0.00e+00	0	60	0	1337982976	45	4395
2026-01-16 00:20:26.74	77.29	21.88	-36.8	-38.7	15.7	0.00e+00	0	60	0	1361051648	45	4400
2026-01-16 00:20:30.78	78.35	21.99	-36.8	-38.6	15.9	0.00e+00	0	60	0	1384120320	45	4360
2026-01-16 00:20:34.81	79.41	22.10	-36.7	-38.5	16.0	0.00e+00	0	60	0	1406140416	45	4320
2026-01-16 00:20:38.85	80.49	22.19	-36.7	-38.5	16.0	0.00e+00	0	60	0	1429209088	45	4306
2026-01-16 00:20:42.89	81.56	22.27	-36.6	-38.4	16.1	0.00e+00	0	60	0	1452277760	45	4279
2026-01-16 00:20:46.93	82.65	22.34	-36.5	-38.3	16.2	0.00e+00	0	60	0	1474297856	44	4451
2026-01-16 00:20:50.97	83.73	22.40	-36.7	-38.5	16.0	0.00e+00	0	60	0	1497366528	44	4564
2026-01-16 00:20:55.01	84.82	22.45	-36.8	-38.6	15.9	0.00e+00	0	60	0	1520435200	44	4634
2026-01-16 00:20:59.05	85.92	22.49	-36.8	-38.6	15.9	0.00e+00	0	60	0	1542455296	44	4621
2026-01-16 00:21:03.09	87.02	22.52	-36.8	-38.7	15.8	0.00e+00	0	60	0	1565523968	44	4654
2026-01-16 00:21:07.13	88.11	22.54	-36.9	-38.7	15.9	0.00e+00	0	60	0	1588592640	44	4670
2026-01-16 00:21:11.17	89.21	22.55	-36.9	-38.8	15.9	0.00e+00	0	60	0	1611661312	44	4710
2026-01-16 00:21:15.22	90.32	22.55	-36.8	-38.5	16.1	0.00e+00	0	60	0	1633681408	44	4594
2026-01-16 00:21:19.25	91.41	22.53	-36.7	-38.4	16.3	0.00e+00	0	60	0	1656750080	44	4522
2026-01-16 00:21:23.29	92.51	22.51	-36.4	-38.1	16.6	0.00e+00	0	60	0	1678770176	44	4343
2026-01-16 00:21:27.33	93.61	22.48	-36.5	-38.2	16.6	0.00e+00	0	60	0	1701838848	44	4406
2026-01-16 00:21:31.37	94.70	22.43	-36.6	-38.3	16.6	0.00e+00	0	60	0	1724907520	44	4455
2026-01-16 00:21:35.41	95.79	22.38	-36.6	-38.3	16.6	0.00e+00	0	60	0	1746927616	44	4446
2026-01-16 00:21:39.46	96.88	22.31	-36.7	-38.4	16.5	0.00e+00	0	60	0	1769996288	44	4501
2026-01-16 00:21:43.50	97.97	22.23	-36.7	-38.5	16.4	0.00e+00	0	60	0	1793064960	44	4549
2026-01-16 00:21:47.54	99.04	22.15	-36.8	-38.5	16.4	0.00e+00	0	60	0	1816133632	44	4563
2026-01-16 00:21:51.57	100.11	22.05	-36.7	-38.4	16.5	0.00e+00	0	60	0	1838153728	44	4497
2026-01-16 00:21:55.61	101.17	21.95	-36.7	-38.5	16.4	0.00e+00	0	60	0	1861222400	44	4562
2026-01-16 00:21:59.64	102.23	21.83	-36.6	-38.3	16.6	0.00e+00	0	60	0	1883242496	44	4466
2026-01-16 00:22:03.68	103.28	21.71	-36.6	-38.3	16.6	0.00e+00	0	60	0	1906311168	44	4468
2026-01-16 00:22:07.73	104.32	21.58	-36.7	-38.4	16.4	0.00e+00	0	60	0	1929379840	44	4541
2026-01-16 00:22:11.77	105.35	21.43	-37.1	-38.9	16.0	0.00e+00	0	60	0	1951399936	44	4772
2026-01-16 00:22:15.80	106.37	21.29	-37.0	-38.8	16.2	0.00e+00	0	60	0	1974468608	44	4719
2026-01-16 00:22:19.84	107.38	21.13	-37.0	-38.7	16.2	0.00e+00	0	60	0	1997537280	44	4696
2026-01-16 00:22:23.88	108.39	20.96	-37.1	-38.9	16.0	0.00e+00	0	60	0	2020605952	44	4795
2026-01-16 00:22:27.92	109.38	20.79	-37.0	-38.8	16.1	0.00e+00	0	60	0	2042626048	44	4754
2026-01-16 00:22:31.96	110.36	20.61	-37.1	-38.8	16.1	0.00e+00	0	60	0	2065694720	44	4759
2026-01-16 00:22:36.00	111.33	20.42	-37.2	-39.1	15.8	0.00e+00	0	60	0	2087714816	45	4617
2026-01-16 00:22:40.04	112.28	20.23	-37.2	-39.0	15.9	0.00e+00	0	60	0	2110783488	45	4596
2026-01-16 00:22:44.08	113.23	20.03	-37.2	-39.1	15.8	0.00e+00	0	60	0	2133852160	45	4599
2026-01-16 00:22:48.12	114.16	19.82	-37.1	-39.0	15.9	0.00e+00	0	60	0	2155872256	45	4549
2026-01-16 00:22:52.16	115.08	19.61	-37.1	-38.8	16.1	0.00e+00	0	60	0	2178940928	45	4488
2026-01-16 00:22:56.19	115.99	19.39	-37.4	-39.4	15.5	0.00e+00	0	60	0	2202009600	45	4778
2026-01-16 00:23:00.23	116.89	19.17	-37.4	-39.2	15.6	0.00e+00	0	60	0	2225078272	45	4705
2026-01-16 00:23:04.27	117.77	18.94	-37.4	-39.2	15.6	0.00e+00	0	60	0	2247098368	45	4699
2026-01-16 00:23:08.31	118.64	18.71	-37.3	-39.1	15.7	0.00e+00	0	60	0	2270167040	45	4633
2026-01-16 00:23:12.35	119.50	18.48	-37.4	-39.4	15.4	0.00e+00	0	60	0	2292187136	45	4760
2026-01-16 00:23:16.39	120.34	18.24	-37.6	-39.6	15.3	3.20e-05	0	60	0	2315255808	45	4881
2026-01-16 00:23:20.43	121.17	17.99	-37.9	-39.9	14.9	2.05e-05	0	60	0	2338324480	46	4772
2026-01-16 00:23:24.46	121.99	17.75	-38.0	-40.1	14.7	4.92e-05	0	60	0	2360344576	46	4899
2026-01-16 00:23:28.51	122.80	17.50	-37.9	-39.9	14.9	1.60e-05	0	60	0	2383413248	46	4776
2026-01-16 00:23:32.55	123.59	17.25	-37.8	-39.8	14.9	2.20e-06	0	60	0	2406481920	46	4721
2026-01-16 00:23:36.59	124.37	16.99	-37.8	-39.8	15.0	1.10e-06	0	60	0	2429550592	46	4729
2026-01-16 00:23:40.63	125.14	16.73	-37.9	-40.0	14.8	0.00e+00	0	60	0	2451570688	46	4838
2026-01-16 00:23:44.66	125.89	16.48	-37.9	-40.0	14.8	1.71e-05	0	60	0	2474639360	46	4815
2026-01-16 00:23:48.71	126.63	16.21	-37.9	-40.1	14.4	2.20e-06	0	60	0	2496659456	46	4905
2026-01-16 00:23:52.75	127.36	15.95	-36.3	-40.6	11.1	5.20e-03	0	60	0	2519728128	44	5818
2026-01-16 00:23:56.79	128.08	15.69	-38.6	-40.9	13.7	8.03e-04	0	60	0	2542796800	47	5087
2026-01-16 00:24:00.82	128.78	15.42	-35.0	-40.3	9.5	2.13e-03	0	60	0	2565865472	44	5634
2026-01-16 00:24:04.86	129.48	15.16	-28.5	-38.1	7.4	8.62e-02	0	60	0	2587885568	39	5809
2026-01-16 00:24:08.91	130.16	14.89	-38.1	-40.5	12.9	4.20e-01	0	60	104	2602565632	45	5424
2026-01-16 00:24:12.95	130.83	14.62	-37.9	-40.6	11.5	1.53e-01	0	60	0	2623537152	44	5808
2026-01-16 00:24:16.99	131.49	14.35	-37.1	-40.4	10.9	1.81e-01	0	60	0	2644508672	44	5694
2026-01-16 00:24:21.03	132.13	14.08	-37.5	-40.6	9.5	2.85e-01	0	60	0	2665480192	42	6544
2026-01-16 00:24:25.06	132.76	13.82	-36.9	-40.6	11.5	2.14e-01	0	60	0	2679111680	45	5497
2026-01-16 00:24:29.10	133.39	13.55	-37.9	-40.7	12.1	1.44e-01	0	60	0	2701131776	46	5273
2026-01-16 00:24:33.14	134.00	13.28	-37.8	-40.9	12.3	9.34e-02	0	61	0	2722103296	47	5067
2026-01-16 00:24:37.18	134.60	13.01	-38.5	-41.0	12.4	1.24e-01	0	61	0	2744123392	46	5458
2026-01-16 00:24:41.21	135.19	12.74	-38.5	-41.1	12.1	1.72e-01	0	60	0	2762997760	47	5162
2026-01-16 00:24:45.25	135.77	12.47	-38.5	-41.2	12.3	4.38e-02	0	61	0	2785017856	47	5237
2026-01-16 00:24:49.29	136.35	12.20	-38.5	-41.4	11.8	4.11e-01	0	60	0	2803892224	47	5348
2026-01-16 00:24:53.33	136.91	11.93	-38.5	-41.3	12.0	7.75e-01	0	60	0	2823815168	45	5933
2026-01-16 00:24:57.37	137.46	11.67	-37.4	-41.2	12.3	2.45e-02	0	60	0	2845835264	46	5559
2026-01-16 00:25:01.41	138.00	11.40	-38.5	-41.2	12.3	4.90e-03	0	60	0	2867855360	47	5233
2026-01-16 00:25:05.46	138.53	11.13	-39.0	-41.7	12.3	1.44e-02	0	60	0	2889875456	48	5229
2026-01-16 00:25:09.50	139.05	10.87	-39.1	-41.7	12.2	3.51e-02	0	60	0	2910846976	48	5269
2026-01-16 00:25:13.54	139.57	10.60	-39.0	-41.6	12.4	3.58e-04	0	61	0	2932867072	48	5204
2026-01-16 00:25:17.58	140.07	10.34	-39.0	-41.6	12.5	3.02e-04	0	60	0	2955935744	48	5185
2026-01-16 00:25:21.63	140.57	10.07	-39.0	-41.6	12.5	1.74e-04	0	60	0	2979004416	48	5199
2026-01-16 00:25:25.67	141.06	9.81	-39.3	-41.9	12.2	1.62e-04	0	60	0	3001024512	49	5096
2026-01-16 00:25:29.71	141.54	9.55	-39.4	-42.1	12.1	2.92e-04	0	61	0	3024093184	49	5211
2026-01-16 00:25:33.75	142.01	9.29	-39.5	-42.3	11.9	5.69e-04	0	60	0	3047161856	49	5294
2026-01-16 00:25:37.79	142.47	9.03	-39.5	-42.4	11.7	7.57e-04	0	61	0	3069181952	49	5356
2026-01-16 00:25:41.83	142.92	8.77	-39.5	-42.3	11.7	8.23e-04	0	60	0	3092250624	49	5317
2026-01-16 00:25:45.86	143.37	8.52	-39.5	-42.4	11.6	1.05e-03	0	61	0	3115319296	49	5368
2026-01-16 00:25:49.91	143.81	8.26	-39.6	-42.6	11.3	1.50e-03	0	60	0	3137339392	49	5503
2026-01-16 00:25:53.95	144.24	8.01	-39.7	-42.8	11.2	1.66e-03	0	61	0	3160408064	50	5284
2026-01-16 00:25:57.99	144.67	7.75	-45.1	-57.0	3.8	8.46e-01	0	61	104	3163553792	60	15327
2026-01-16 00:26:02.02	145.09	7.50	-45.6	-57.4	3.8	8.47e-01	0	61	104	3163553792	61	15193
2026-01-16 00:26:06.06	145.50	7.25	-45.5	-57.2	3.8	8.45e-01	0	61	104	3163553792	61	14769
2026-01-16 00:26:10.10	145.90	7.00	-45.3	-57.0	3.8	8.46e-01	0	61	104	3163553792	61	14454
2026-01-16 00:26:14.14	146.30	6.75	-45.3	-57.0	3.8	8.47e-01	0	61	104	3163553792	61	14426
2026-01-16 00:26:18.18	146.69	6.51	-45.3	-56.9	3.8	8.47e-01	0	61	104	3163553792	61	14362
2026-01-16 00:26:22.22	147.08	6.26	-45.3	-56.9	3.8	8.46e-01	0	61	104	3163553792	61	14223
2026-01-16 00:26:26.26	147.45	6.02	-45.3	-56.9	3.8	8.47e-01	0	61	104	3163553792	61	14298
2026-01-16 00:26:30.30	147.83	5.77	-45.3	-56.9	3.8	8.47e-01	0	61	104	3163553792	61	14304
2026-01-16 00:26:34.34	148.19	5.53	-45.3	-56.8	3.8	8.46e-01	0	60	104	3163553792	61	14209
2026-01-16 00:26:38.38	148.56	5.29	-45.3	-56.9	3.8	8.47e-01	0	61	104	3163553792	61	14345
2026-01-16 00:26:42.41	148.91	5.05	-45.2	-56.9	3.8	8.46e-01	0	61	104	3163553792	61	14264
2026-01-16 00:26:46.45	149.26	4.81	-45.2	-56.9	3.8	8.47e-01	0	61	104	3163553792	61	14264
2026-01-16 00:26:50.49	149.60	4.58	-45.2	-56.8	3.8	8.46e-01	0	61	104	3163553792	61	14191
2026-01-16 00:26:54.53	149.94	4.34	-45.2	-56.9	3.8	8.46e-01	0	61	104	3163553792	61	14212
2026-01-16 00:26:58.58	150.28	4.11	-45.2	-56.9	3.8	8.45e-01	0	61	104	3163553792	61	14253
2026-01-16 00:27:02.61	150.61	3.87	-45.2	-56.9	3.8	8.45e-01	0	61	104	3163553792	61	14244
2026-01-16 00:27:06.65	150.93	3.64	-45.2	-56.9	3.8	8.47e-01	0	61	104	3163553792	61	14277
2026-01-16 00:27:10.69	151.25	3.41	-45.2	-56.9	3.8	8.47e-01	0	61	104	3163553792	61	14211
2026-01-16 00:27:14.74	151.56	3.18	-45.2	-56.9	3.8	8.46e-01	0	61	104	3163553792	61	14235
2026-01-16 00:27:18.78	151.87	2.95	-45.2	-56.9	3.8	8.47e-01	0	61	104	3163553792	61	14268
2026-01-16 00:27:22.81	152.18	2.73	-45.2	-56.9	3.8	8.46e-01	0	61	104	3163553792	61	14264
2026-01-16 00:27:26.86	152.48	2.50	-45.2	-56.8	3.8	8.45e-01	0	61	104	3163553792	61	14196
2026-01-16 00:27:30.90	152.78	2.28	-45.2	-56.8	3.8	8.45e-01	0	61	104	3163553792	61	14174
2026-01-16 00:27:34.93	153.07	2.05	-45.2	-56.9	3.8	8.47e-01	0	61	104	3163553792	61	14262

#Closed at: 2026-01-16 00:27:37
#Recorded file [3163 MB]: D:/lorett/data/31039_260116_031447.dat