passes_logs/2026/01/16/R2.0S_Moscow/R2.0S_Moscow__20260116_004211_FENGYUN_3G_rec.log

#Pass ID: 20260116_004211_FENGYUN 3G
#Satellite: FENGYUN 3G
#Configuration: FENGYUN 3G
#almurnet v.1.7.20251203
#Start time: 2026-01-16 00:42:11

#Version: 2.2.20231116
#Station: R2.0S_Moscow
#Location: 37.707566 lon 55.798166 lat
#TLE: 1 56232U 23055A   26015.17772624  .00018907  00000+0  29824-3 0  9995
#TLE: 2 56232  49.9942  55.0157 0004230  27.8148 332.3045 15.53505157156222

#Time	Az	El	Level	Level2	SNR	BER	BlckErr	Temp	State	Recorded	gain1	gain2
2026-01-16 00:42:11.29	263.55	1.96	-44.2	-62.3	3.8	8.47e-01	0	51	0	0	60	28204
2026-01-16 00:42:14.31	263.29	2.15	-44.2	-62.3	3.8	8.47e-01	0	51	104	0	60	28224
2026-01-16 00:42:17.34	263.03	2.34	-44.2	-62.3	3.8	8.46e-01	0	52	104	0	60	28141
2026-01-16 00:42:20.37	262.76	2.53	-44.2	-62.3	3.8	8.45e-01	0	52	104	0	60	28124
2026-01-16 00:42:23.41	262.48	2.73	-44.2	-62.3	3.8	8.46e-01	0	52	104	0	60	28033
2026-01-16 00:42:26.44	262.21	2.92	-44.2	-62.2	3.8	8.47e-01	0	52	104	0	60	27939
2026-01-16 00:42:29.47	261.92	3.12	-44.2	-62.2	3.8	8.46e-01	0	52	104	0	60	27874
2026-01-16 00:42:32.51	261.63	3.31	-44.2	-62.1	3.8	8.46e-01	0	53	104	0	60	27668
2026-01-16 00:42:35.54	261.33	3.51	-44.2	-62.1	3.8	8.46e-01	0	53	104	0	60	27441
2026-01-16 00:42:38.56	261.03	3.71	-44.2	-62.1	3.8	8.47e-01	0	53	104	0	60	27598
2026-01-16 00:42:41.59	260.73	3.92	-44.2	-62.2	3.8	8.46e-01	0	53	104	0	60	27931
2026-01-16 00:42:44.62	260.41	4.12	-44.2	-62.1	3.8	8.46e-01	0	53	104	0	60	27421
2026-01-16 00:42:47.65	260.09	4.33	-44.2	-61.5	3.8	8.46e-01	0	53	104	0	60	25845
2026-01-16 00:42:50.69	259.76	4.54	-44.2	-61.8	3.8	8.46e-01	0	53	104	0	60	26699
2026-01-16 00:42:53.72	259.43	4.75	-44.2	-61.9	3.8	8.45e-01	0	54	104	0	60	26890
2026-01-16 00:42:56.75	259.09	4.96	-44.2	-62.0	3.8	8.47e-01	0	54	104	0	60	27277
2026-01-16 00:42:59.79	258.74	5.17	-44.2	-61.4	3.8	8.45e-01	0	54	104	0	60	25316
2026-01-16 00:43:02.82	258.38	5.39	-44.2	-60.6	3.8	8.45e-01	0	54	104	0	60	23235
2026-01-16 00:43:05.85	258.02	5.60	-44.2	-60.4	3.9	8.46e-01	0	54	104	0	60	22561
2026-01-16 00:43:08.88	257.65	5.82	-44.2	-61.0	3.8	8.45e-01	0	54	104	0	60	24155
2026-01-16 00:43:11.90	257.27	6.04	-44.2	-60.7	3.8	8.46e-01	0	54	104	0	60	23428
2026-01-16 00:43:14.93	256.88	6.27	-44.2	-60.6	3.8	8.45e-01	0	55	104	0	60	23095
2026-01-16 00:43:17.96	256.49	6.49	-44.1	-59.5	4.0	8.45e-01	0	55	104	0	60	20505
2026-01-16 00:43:21.00	256.08	6.72	-44.0	-55.8	5.5	8.33e-01	0	55	0	0	59	14184
2026-01-16 00:43:24.03	255.67	6.95	-43.6	-52.3	8.7	2.39e-01	0	55	0	3145728	59	9433
2026-01-16 00:43:27.06	255.24	7.18	-43.5	-51.8	9.3	2.28e-02	0	55	0	6291456	58	9407
2026-01-16 00:43:30.10	254.81	7.41	-44.1	-57.5	4.7	3.82e-01	0	55	0	9437184	58	18142
2026-01-16 00:43:33.13	254.37	7.65	-43.8	-53.9	6.9	7.66e-01	0	56	0	9437184	59	11384
2026-01-16 00:43:36.16	253.91	7.88	-42.2	-47.3	13.9	3.99e-04	0	56	0	13107200	56	6307
2026-01-16 00:43:39.19	253.45	8.12	-41.7	-46.1	14.8	0.00e+00	0	56	0	16252928	55	5848
2026-01-16 00:43:42.22	252.98	8.36	-43.1	-49.6	11.1	3.97e-01	0	56	0	18874368	58	7366
2026-01-16 00:43:45.25	252.49	8.61	-41.8	-46.4	14.7	1.03e-02	0	56	0	22544384	55	6023
2026-01-16 00:43:48.28	251.99	8.85	-41.5	-45.6	15.5	0.00e+00	0	56	0	25690112	54	5855
2026-01-16 00:43:51.31	251.49	9.10	-41.1	-44.9	16.3	0.00e+00	0	56	0	29360128	54	5365
2026-01-16 00:43:54.34	250.97	9.35	-41.0	-44.6	16.6	0.00e+00	0	56	0	32505856	53	5515
2026-01-16 00:43:57.37	250.43	9.60	-41.0	-44.6	16.7	0.00e+00	0	56	0	36175872	53	5495
2026-01-16 00:44:00.40	249.89	9.85	-40.9	-44.5	16.8	0.00e+00	0	56	0	39321600	53	5448
2026-01-16 00:44:03.42	249.33	10.10	-40.9	-44.4	16.9	0.00e+00	0	57	0	42991616	53	5392
2026-01-16 00:44:06.45	248.76	10.36	-40.8	-44.3	17.0	0.00e+00	0	57	0	46137344	53	5340
2026-01-16 00:44:09.48	248.17	10.62	-40.6	-43.9	17.4	0.00e+00	0	57	0	49807360	53	5098
2026-01-16 00:44:12.51	247.58	10.88	-40.6	-43.8	17.5	0.00e+00	0	57	0	52953088	53	5037
2026-01-16 00:44:15.54	246.96	11.14	-40.6	-43.9	17.4	0.00e+00	0	57	0	56623104	53	5082
2026-01-16 00:44:18.57	246.33	11.41	-40.6	-43.9	17.5	0.00e+00	0	57	0	59768832	53	5095
2026-01-16 00:44:21.60	245.69	11.67	-40.4	-43.6	17.8	0.00e+00	0	57	0	63438848	52	5181
2026-01-16 00:44:24.62	245.03	11.94	-40.2	-43.2	18.2	0.00e+00	0	57	0	66584576	52	4955
2026-01-16 00:44:27.65	244.35	12.21	-40.6	-43.8	17.7	0.00e+00	0	57	0	70254592	52	5314
2026-01-16 00:44:30.68	243.66	12.47	-40.2	-43.2	18.3	0.00e+00	0	57	0	73400320	52	4942
2026-01-16 00:44:33.71	242.95	12.74	-39.9	-42.7	18.9	0.00e+00	0	57	0	77070336	51	4933
2026-01-16 00:44:36.74	242.22	13.02	-40.0	-42.8	18.8	0.00e+00	0	57	0	80216064	51	5000
2026-01-16 00:44:39.77	241.48	13.29	-40.2	-43.2	18.5	0.00e+00	0	58	0	83886080	51	5227
2026-01-16 00:44:42.79	240.72	13.56	-40.0	-42.8	18.8	0.00e+00	0	57	0	87031808	51	5008
2026-01-16 00:44:45.83	239.94	13.83	-39.6	-42.3	19.4	0.00e+00	0	57	0	90701824	51	4713
2026-01-16 00:44:48.85	239.14	14.10	-39.9	-42.7	18.9	0.00e+00	0	58	0	93847552	51	4968
2026-01-16 00:44:51.88	238.32	14.38	-40.0	-42.7	18.9	0.00e+00	0	58	0	97517568	51	4981
2026-01-16 00:44:54.91	237.48	14.65	-39.7	-42.3	19.4	0.00e+00	0	58	0	100663296	51	4740
2026-01-16 00:44:57.94	236.62	14.92	-39.3	-41.8	19.9	0.00e+00	0	58	0	104333312	50	4722
2026-01-16 00:45:00.97	235.74	15.19	-39.5	-42.0	19.7	0.00e+00	0	58	0	107479040	50	4835
2026-01-16 00:45:04.00	234.84	15.46	-39.8	-42.5	19.2	0.00e+00	0	58	0	111149056	50	5126
2026-01-16 00:45:07.02	233.93	15.73	-39.6	-42.2	19.6	0.00e+00	0	58	0	114294784	50	4930
2026-01-16 00:45:10.05	232.99	15.99	-39.5	-42.1	19.7	0.00e+00	0	58	0	117964800	50	4882
2026-01-16 00:45:13.08	232.02	16.26	-39.2	-41.6	20.2	0.00e+00	0	58	0	121110528	50	4633
2026-01-16 00:45:16.11	231.04	16.52	-39.5	-42.0	19.8	0.00e+00	0	58	0	124780544	50	4855
2026-01-16 00:45:19.14	230.04	16.77	-39.4	-41.9	19.9	0.00e+00	0	58	0	127926272	50	4811
2026-01-16 00:45:22.17	229.01	17.03	-39.2	-41.6	20.3	0.00e+00	0	58	0	131596288	50	4599
2026-01-16 00:45:25.20	227.96	17.28	-38.8	-41.0	20.7	0.00e+00	0	58	0	134742016	49	4597
2026-01-16 00:45:28.23	226.89	17.52	-38.6	-40.9	20.9	0.00e+00	0	58	0	138412032	49	4499
2026-01-16 00:45:31.25	225.80	17.76	-38.7	-41.0	20.8	0.00e+00	0	58	0	141557760	49	4569
2026-01-16 00:45:34.28	224.69	17.99	-39.2	-41.6	20.2	0.00e+00	0	58	0	145227776	49	4906
2026-01-16 00:45:37.31	223.56	18.22	-39.1	-41.5	20.3	0.00e+00	0	58	0	148373504	49	4850
2026-01-16 00:45:40.34	222.40	18.44	-39.0	-41.3	20.5	0.00e+00	0	58	0	152043520	49	4758
2026-01-16 00:45:43.37	221.23	18.65	-39.0	-41.3	20.6	0.00e+00	0	58	0	155189248	49	4722
2026-01-16 00:45:46.40	220.03	18.85	-38.9	-41.2	20.7	0.00e+00	0	58	0	158859264	49	4681
2026-01-16 00:45:49.42	218.82	19.05	-38.9	-41.2	20.7	0.00e+00	0	58	0	162004992	49	4680
2026-01-16 00:45:52.45	217.59	19.23	-38.9	-41.2	20.7	0.00e+00	0	58	0	165675008	49	4691
2026-01-16 00:45:55.48	216.34	19.41	-38.6	-40.8	21.1	0.00e+00	0	58	0	168820736	49	4457
2026-01-16 00:45:58.51	215.07	19.57	-38.7	-40.9	21.0	0.00e+00	0	58	0	172490752	49	4527
2026-01-16 00:46:01.53	213.79	19.73	-38.8	-41.1	20.8	0.00e+00	0	58	0	175636480	49	4619
2026-01-16 00:46:04.56	212.49	19.87	-39.0	-41.3	20.6	0.00e+00	0	59	0	179306496	49	4712
2026-01-16 00:46:07.59	211.18	20.00	-39.0	-41.3	20.7	0.00e+00	0	58	0	182452224	49	4710
2026-01-16 00:46:10.62	209.86	20.12	-38.8	-41.0	21.0	0.00e+00	0	59	0	186122240	49	4567
2026-01-16 00:46:13.65	208.52	20.22	-38.9	-41.1	20.8	0.00e+00	0	59	0	189267968	49	4638
2026-01-16 00:46:16.68	207.17	20.31	-38.9	-41.1	20.8	0.00e+00	0	59	0	192937984	49	4639
2026-01-16 00:46:19.71	205.81	20.39	-38.9	-41.1	20.8	0.00e+00	0	59	0	196083712	49	4631
2026-01-16 00:46:22.74	204.45	20.45	-39.0	-41.4	20.5	0.00e+00	0	59	0	199229440	49	4774
2026-01-16 00:46:25.76	203.08	20.50	-38.8	-41.1	20.8	0.00e+00	0	59	0	202899456	49	4606
2026-01-16 00:46:28.79	201.71	20.53	-38.3	-40.4	21.4	0.00e+00	0	59	0	206569472	48	4545
2026-01-16 00:46:31.82	200.33	20.55	-38.3	-40.4	21.5	0.00e+00	0	59	0	209715200	48	4513
2026-01-16 00:46:34.85	198.95	20.56	-38.0	-40.1	21.8	0.00e+00	0	59	0	213385216	48	4346
2026-01-16 00:46:37.88	197.57	20.55	-38.3	-40.4	21.5	0.00e+00	0	59	0	216530944	48	4515
2026-01-16 00:46:40.90	196.20	20.52	-38.4	-40.5	21.4	0.00e+00	0	59	0	220200960	48	4571
2026-01-16 00:46:43.93	194.83	20.48	-38.2	-40.3	21.6	0.00e+00	0	59	0	223346688	48	4479
2026-01-16 00:46:46.96	193.46	20.43	-38.2	-40.3	21.6	0.00e+00	0	59	0	227016704	48	4467
2026-01-16 00:46:49.99	192.10	20.36	-38.7	-40.9	21.0	0.00e+00	0	59	0	230162432	48	4777
2026-01-16 00:46:53.02	190.74	20.28	-38.8	-41.0	20.9	0.00e+00	0	59	0	233832448	48	4832
2026-01-16 00:46:56.05	189.40	20.18	-38.6	-40.8	21.0	0.00e+00	0	59	0	236978176	48	4750
2026-01-16 00:46:59.07	188.07	20.07	-39.0	-41.4	20.5	0.00e+00	0	59	0	240123904	48	5043
2026-01-16 00:47:02.11	186.75	19.95	-39.2	-41.6	20.2	0.00e+00	0	59	0	243793920	49	4906
2026-01-16 00:47:05.14	185.44	19.81	-38.4	-40.6	21.2	0.00e+00	0	59	0	246939648	48	4624
2026-01-16 00:47:08.16	184.15	19.67	-38.8	-41.1	20.8	0.00e+00	0	59	0	250609664	48	4872
2026-01-16 00:47:11.19	182.87	19.51	-38.4	-40.5	21.3	0.00e+00	0	59	0	254279680	48	4570
2026-01-16 00:47:14.22	181.61	19.34	-38.5	-40.7	21.1	0.00e+00	0	59	0	257425408	48	4668
2026-01-16 00:47:17.25	180.36	19.16	-38.3	-40.5	21.2	0.00e+00	0	59	0	261095424	48	4563
2026-01-16 00:47:20.28	179.14	18.97	-38.6	-40.8	20.9	0.00e+00	0	59	0	264241152	48	4746
2026-01-16 00:47:23.31	177.93	18.77	-38.7	-41.0	20.8	0.00e+00	0	59	0	267911168	48	4829
2026-01-16 00:47:26.33	176.75	18.57	-39.0	-41.3	20.5	0.00e+00	0	59	0	271056896	48	5020
2026-01-16 00:47:29.36	175.58	18.35	-38.9	-41.2	20.6	0.00e+00	0	59	0	274202624	48	4980
2026-01-16 00:47:32.39	174.43	18.13	-39.4	-41.8	20.3	0.00e+00	0	59	0	277872640	49	5001
2026-01-16 00:47:35.42	173.31	17.90	-38.6	-40.8	21.1	0.00e+00	0	59	0	281018368	49	4456
2026-01-16 00:47:38.45	172.20	17.66	-38.6	-40.8	21.0	0.00e+00	0	59	0	284688384	48	4752
2026-01-16 00:47:41.47	171.12	17.42	-39.1	-41.5	20.4	0.00e+00	0	59	0	287834112	48	5134
2026-01-16 00:47:44.50	170.06	17.18	-39.0	-41.2	20.6	0.00e+00	0	59	0	291504128	48	4979
2026-01-16 00:47:47.53	169.02	16.93	-39.2	-41.7	20.2	0.00e+00	0	59	0	294649856	49	4936
2026-01-16 00:47:50.56	168.00	16.67	-39.4	-41.9	20.0	0.00e+00	0	59	0	298319872	49	5100
2026-01-16 00:47:53.59	167.00	16.41	-39.5	-42.0	19.8	0.00e+00	0	59	0	301465600	49	5159
2026-01-16 00:47:56.62	166.03	16.15	-39.3	-41.7	20.1	0.00e+00	0	59	0	305135616	49	4948
2026-01-16 00:47:59.64	165.07	15.89	-39.5	-42.0	19.8	0.00e+00	0	59	0	308805632	49	5138
2026-01-16 00:48:02.67	164.14	15.62	-39.8	-42.5	19.4	0.00e+00	0	59	0	311951360	50	5134
2026-01-16 00:48:05.70	163.23	15.35	-39.8	-42.5	19.5	0.00e+00	0	59	0	315097088	50	5117
2026-01-16 00:48:08.73	162.34	15.08	-39.9	-42.5	19.4	0.00e+00	0	59	0	318767104	50	5150
2026-01-16 00:48:11.76	161.46	14.81	-39.9	-42.5	19.4	0.00e+00	0	59	0	321912832	50	5145
2026-01-16 00:48:14.79	160.61	14.54	-40.2	-43.0	18.9	0.00e+00	0	59	0	325582848	50	5454
2026-01-16 00:48:17.82	159.78	14.27	-40.0	-42.8	19.1	0.00e+00	0	59	0	328728576	51	5024
2026-01-16 00:48:20.85	158.97	13.99	-40.0	-42.7	19.2	0.00e+00	0	59	0	332398592	51	4974
2026-01-16 00:48:23.87	158.18	13.72	-40.3	-43.3	18.5	0.00e+00	0	59	0	335544320	51	5318
2026-01-16 00:48:26.90	157.40	13.45	-40.2	-43.2	18.7	0.00e+00	0	59	0	339214336	51	5235
2026-01-16 00:48:29.93	156.65	13.18	-40.2	-43.1	18.6	0.00e+00	0	59	0	342360064	51	5214
2026-01-16 00:48:32.96	155.91	12.90	-40.4	-43.4	18.4	0.00e+00	0	59	0	346030080	51	5375
2026-01-16 00:48:35.99	155.19	12.63	-40.4	-43.4	18.3	0.00e+00	0	59	0	349175808	51	5401
2026-01-16 00:48:39.02	154.48	12.36	-40.5	-43.7	18.0	0.00e+00	0	59	0	352845824	51	5553
2026-01-16 00:48:42.04	153.80	12.10	-40.6	-43.8	17.9	0.00e+00	0	59	0	355991552	51	5637
2026-01-16 00:48:45.07	153.13	11.83	-40.6	-43.9	17.7	0.00e+00	0	60	0	359661568	51	5707
2026-01-16 00:48:48.10	152.47	11.56	-40.6	-43.9	17.6	0.00e+00	0	60	0	362807296	52	5371
2026-01-16 00:48:51.13	151.83	11.30	-40.5	-43.8	17.7	0.00e+00	0	59	0	366477312	52	5315
2026-01-16 00:48:54.16	151.21	11.03	-40.3	-43.4	18.1	0.00e+00	0	59	0	369623040	52	5068
2026-01-16 00:48:57.19	150.60	10.77	-40.4	-43.6	17.8	0.00e+00	0	59	0	373293056	52	5190
2026-01-16 00:49:00.22	150.00	10.51	-40.5	-43.9	17.5	0.00e+00	0	59	0	376438784	52	5380
2026-01-16 00:49:03.25	149.42	10.25	-40.8	-44.4	17.0	0.00e+00	0	60	0	380108800	52	5666
2026-01-16 00:49:06.28	148.86	10.00	-40.9	-44.6	16.7	0.00e+00	0	60	0	383254528	52	5842
2026-01-16 00:49:09.31	148.30	9.74	-40.8	-44.5	16.8	0.00e+00	0	59	0	386924544	52	5727
2026-01-16 00:49:12.33	147.76	9.49	-40.8	-44.6	16.6	0.00e+00	0	59	0	390070272	52	5828
2026-01-16 00:49:15.36	147.23	9.24	-41.0	-45.1	16.1	0.00e+00	0	59	0	393740288	52	6138
2026-01-16 00:49:18.39	146.72	8.99	-40.9	-44.8	16.3	0.00e+00	0	60	0	396886016	52	5955
2026-01-16 00:49:21.42	146.21	8.75	-40.7	-44.6	16.5	0.00e+00	0	60	0	400556032	52	5806
2026-01-16 00:49:24.44	145.72	8.50	-40.8	-44.9	16.1	0.00e+00	0	60	0	403701760	52	6017
2026-01-16 00:49:27.47	145.24	8.26	-40.8	-44.9	16.1	0.00e+00	0	59	0	407371776	52	6001
2026-01-16 00:49:30.50	144.77	8.02	-42.5	-48.9	13.2	0.00e+00	0	60	0	410517504	55	8033
2026-01-16 00:49:33.53	144.31	7.78	-45.2	-63.4	3.8	8.47e-01	0	60	104	411041792	60	32132
2026-01-16 00:49:36.56	143.86	7.55	-45.7	-63.9	3.8	8.46e-01	0	59	104	411041792	61	31847
2026-01-16 00:49:39.59	143.42	7.31	-45.8	-64.0	3.8	8.46e-01	0	60	104	411041792	62	30492
2026-01-16 00:49:42.62	142.99	7.08	-45.7	-63.8	3.8	8.45e-01	0	60	104	411041792	62	29844
2026-01-16 00:49:45.65	142.57	6.85	-45.5	-63.6	3.8	8.47e-01	0	59	104	411041792	62	29143
2026-01-16 00:49:48.68	142.16	6.62	-45.5	-63.6	3.8	8.46e-01	0	60	104	411041792	62	29104
2026-01-16 00:49:51.71	141.76	6.39	-45.5	-63.6	3.8	8.46e-01	0	60	104	411041792	62	29021
2026-01-16 00:49:54.74	141.36	6.17	-45.5	-63.6	3.8	8.46e-01	0	60	104	411041792	62	29080
2026-01-16 00:49:57.77	140.98	5.95	-45.5	-63.5	3.8	8.46e-01	0	60	104	411041792	62	28993
2026-01-16 00:50:00.80	140.60	5.73	-45.5	-63.5	3.8	8.46e-01	0	60	104	411041792	62	28950
2026-01-16 00:50:03.83	140.23	5.51	-45.5	-63.5	3.8	8.46e-01	0	60	104	411041792	62	28912
2026-01-16 00:50:06.86	139.87	5.29	-45.5	-63.5	3.8	8.47e-01	0	60	104	411041792	62	28862
2026-01-16 00:50:09.89	139.52	5.08	-45.5	-63.5	3.8	8.46e-01	0	60	104	411041792	62	28931
2026-01-16 00:50:12.92	139.17	4.87	-45.5	-63.5	3.8	8.47e-01	0	60	104	411041792	62	28961
2026-01-16 00:50:15.95	138.83	4.66	-45.5	-63.5	3.8	8.47e-01	0	60	104	411041792	62	28909
2026-01-16 00:50:18.97	138.50	4.45	-45.5	-63.5	3.8	8.47e-01	0	60	104	411041792	62	28844
2026-01-16 00:50:22.00	138.17	4.24	-45.4	-63.5	3.8	8.46e-01	0	60	104	411041792	62	28845
2026-01-16 00:50:25.03	137.85	4.03	-45.4	-63.5	3.8	8.45e-01	0	60	104	411041792	62	28798
2026-01-16 00:50:28.06	137.54	3.83	-45.4	-63.5	3.8	8.46e-01	0	60	104	411041792	62	28836
2026-01-16 00:50:31.09	137.23	3.63	-45.4	-63.5	3.8	8.46e-01	0	60	104	411041792	62	28792
2026-01-16 00:50:34.12	136.93	3.43	-45.4	-63.5	3.8	8.46e-01	0	60	104	411041792	62	28832
2026-01-16 00:50:37.14	136.64	3.23	-45.4	-63.5	3.8	8.45e-01	0	60	104	411041792	62	28807
2026-01-16 00:50:40.18	136.35	3.03	-45.4	-63.5	3.8	8.46e-01	0	60	104	411041792	62	28790
2026-01-16 00:50:43.21	136.07	2.84	-45.4	-63.5	3.8	8.46e-01	0	60	104	411041792	62	28759
2026-01-16 00:50:46.24	135.79	2.64	-45.4	-63.5	3.8	8.47e-01	0	59	104	411041792	62	28712
2026-01-16 00:50:49.27	135.52	2.45	-45.4	-63.5	3.8	8.45e-01	0	60	104	411041792	62	28745
2026-01-16 00:50:52.30	135.25	2.26	-45.4	-63.5	3.8	8.47e-01	0	60	104	411041792	62	28733
2026-01-16 00:50:55.33	134.99	2.07	-45.4	-63.5	3.8	8.45e-01	0	60	104	411041792	62	28727

#Closed at: 2026-01-16 00:50:58
#Recorded file [411 MB]: D:/lorett/data/31039_260116_034211.dat