passes_logs/2026/01/16/R2.0S_Moscow/R2.0S_Moscow__20260116_114519_FENGYUN_3D_rec.log

#Pass ID: 20260116_114519_FENGYUN 3D
#Satellite: FENGYUN 3D
#Configuration: FENGYUN 3D
#almurnet v.1.7.20251203
#Start time: 2026-01-16 11:45:19

#Version: 2.2.20231116
#Station: R2.0S_Moscow
#Location: 37.707566 lon 55.798166 lat
#TLE: 1 43010U 17072A   26015.49690188 -.00000192  00000+0 -69217-4 0  9996
#TLE: 2 43010  98.9932 347.3205 0002350 106.2275 253.9159 14.19694721423329

#Time	Az	El	Level	Level2	SNR	BER	BlckErr	Temp	State	Recorded	gain1	gain2
2026-01-16 11:45:19.06	154.27	1.97	-44.0	-55.6	3.8	8.47e-01	0	51	0	0	59	13803
2026-01-16 11:45:23.09	154.24	2.23	-44.0	-55.6	3.8	8.45e-01	0	52	104	0	59	13820
2026-01-16 11:45:27.14	154.21	2.49	-44.0	-55.6	3.8	8.47e-01	0	52	104	0	59	13822
2026-01-16 11:45:31.18	154.18	2.76	-44.0	-55.6	3.8	8.47e-01	0	52	104	0	59	13783
2026-01-16 11:45:35.22	154.15	3.03	-44.0	-55.6	3.8	8.46e-01	0	53	104	0	59	13876
2026-01-16 11:45:39.26	154.13	3.30	-44.0	-55.6	3.8	8.47e-01	0	53	104	0	59	13844
2026-01-16 11:45:43.29	154.09	3.57	-44.0	-55.6	3.8	8.46e-01	0	53	104	0	59	13817
2026-01-16 11:45:47.33	154.06	3.85	-43.9	-55.6	3.8	8.46e-01	0	54	104	0	59	13799
2026-01-16 11:45:51.37	154.03	4.12	-43.9	-55.6	3.8	8.46e-01	0	54	104	0	59	13782
2026-01-16 11:45:55.40	154.00	4.41	-44.0	-55.6	3.8	8.46e-01	0	54	104	0	59	13772
2026-01-16 11:45:59.44	153.97	4.69	-44.0	-55.6	3.8	8.45e-01	0	54	104	0	59	13746
2026-01-16 11:46:03.48	153.93	4.98	-43.9	-55.5	3.8	8.46e-01	0	55	104	0	59	13644
2026-01-16 11:46:07.52	153.90	5.27	-43.9	-55.5	3.8	8.45e-01	0	55	104	0	59	13700
2026-01-16 11:46:11.56	153.86	5.56	-43.9	-55.3	3.8	8.44e-01	0	55	104	0	59	13309
2026-01-16 11:46:15.60	153.82	5.86	-43.8	-53.8	3.8	8.46e-01	0	55	104	0	59	11227
2026-01-16 11:46:19.65	153.78	6.16	-43.3	-50.9	4.6	8.22e-01	0	55	0	0	58	8487
2026-01-16 11:46:23.69	153.74	6.47	-43.4	-51.6	4.3	8.30e-01	0	56	0	0	58	9201
2026-01-16 11:46:27.74	153.70	6.78	-43.7	-53.6	3.8	8.45e-01	0	56	104	0	58	11634
2026-01-16 11:46:31.78	153.66	7.09	-43.9	-55.5	3.8	8.47e-01	0	56	104	0	58	14461
2026-01-16 11:46:35.82	153.62	7.40	-43.1	-50.1	5.0	8.02e-01	0	56	0	0	58	7741
2026-01-16 11:46:39.86	153.58	7.72	-41.3	-45.3	8.7	4.73e-02	0	57	0	18874368	54	5646
2026-01-16 11:46:43.91	153.53	8.05	-40.0	-43.1	11.0	2.27e-03	0	57	0	41943040	52	4912
2026-01-16 11:46:47.94	153.48	8.38	-43.0	-49.4	5.4	3.55e-01	0	57	0	48234496	56	8038
2026-01-16 11:46:51.99	153.44	8.71	-39.8	-42.6	11.7	1.09e-03	0	57	0	70254592	51	4904
2026-01-16 11:46:56.02	153.39	9.05	-39.7	-42.4	11.9	4.45e-04	0	57	0	93323264	51	4783
2026-01-16 11:47:00.06	153.34	9.39	-39.6	-42.2	12.3	2.82e-04	0	57	0	115343360	50	4962
2026-01-16 11:47:04.10	153.29	9.73	-39.3	-41.9	12.6	1.80e-04	0	57	0	138412032	50	4770
2026-01-16 11:47:08.14	153.23	10.08	-39.4	-41.9	12.7	1.05e-04	0	57	0	161480704	50	4772
2026-01-16 11:47:12.17	153.18	10.44	-39.0	-41.5	13.1	6.40e-05	0	58	0	183500800	50	4587
2026-01-16 11:47:16.21	153.12	10.80	-39.2	-41.6	13.1	5.72e-05	0	57	0	206569472	50	4644
2026-01-16 11:47:20.25	153.06	11.17	-39.1	-41.5	13.2	3.77e-05	0	57	0	228589568	49	4847
2026-01-16 11:47:24.29	153.01	11.54	-39.0	-41.4	13.4	2.05e-05	0	58	0	251658240	49	4769
2026-01-16 11:47:28.34	152.94	11.92	-39.0	-41.2	13.6	2.51e-05	0	58	0	274726912	49	4691
2026-01-16 11:47:32.38	152.88	12.30	-39.0	-41.3	13.6	1.48e-05	0	58	0	297795584	49	4723
2026-01-16 11:47:36.42	152.81	12.69	-38.9	-41.1	13.8	1.02e-05	0	58	0	319815680	49	4613
2026-01-16 11:47:40.46	152.75	13.09	-38.9	-41.2	13.7	9.10e-06	0	58	0	342884352	49	4673
2026-01-16 11:47:44.50	152.68	13.49	-38.8	-41.0	14.0	4.50e-06	0	58	0	365953024	49	4573
2026-01-16 11:47:48.54	152.61	13.90	-38.6	-40.7	14.3	0.00e+00	0	58	0	387973120	49	4440
2026-01-16 11:47:52.58	152.53	14.32	-38.6	-40.7	14.4	0.00e+00	0	59	0	411041792	49	4398
2026-01-16 11:47:56.62	152.45	14.74	-38.4	-40.5	14.6	0.00e+00	0	58	0	434110464	48	4576
2026-01-16 11:48:00.65	152.38	15.17	-38.3	-40.3	14.8	0.00e+00	0	59	0	456130560	48	4463
2026-01-16 11:48:04.69	152.29	15.61	-38.2	-40.2	15.0	0.00e+00	0	59	0	479199232	48	4402
2026-01-16 11:48:08.73	152.21	16.06	-38.1	-40.0	15.1	1.10e-06	0	59	0	502267904	48	4327
2026-01-16 11:48:12.77	152.12	16.51	-37.8	-39.8	15.3	0.00e+00	0	59	0	524288000	47	4445
2026-01-16 11:48:16.81	152.03	16.97	-37.6	-39.4	15.7	0.00e+00	0	59	0	547356672	47	4264
2026-01-16 11:48:20.84	151.94	17.45	-37.5	-39.4	15.7	0.00e+00	0	59	0	570425344	47	4246
2026-01-16 11:48:24.88	151.84	17.93	-37.4	-39.2	16.0	0.00e+00	0	59	0	592445440	46	4401
2026-01-16 11:48:28.92	151.74	18.42	-37.3	-39.0	16.1	0.00e+00	0	59	0	615514112	46	4330
2026-01-16 11:48:32.96	151.64	18.92	-37.3	-39.1	16.1	0.00e+00	0	59	0	638582784	46	4342
2026-01-16 11:48:37.00	151.53	19.43	-37.3	-39.1	16.1	0.00e+00	0	59	0	660602880	46	4378
2026-01-16 11:48:41.04	151.42	19.95	-37.4	-39.3	15.9	0.00e+00	0	59	0	683671552	46	4442
2026-01-16 11:48:45.07	151.30	20.49	-37.5	-39.4	15.8	0.00e+00	0	60	0	706740224	46	4509
2026-01-16 11:48:49.12	151.18	21.03	-37.5	-39.3	15.9	0.00e+00	0	60	0	728760320	46	4471
2026-01-16 11:48:53.15	151.05	21.59	-37.1	-38.8	16.4	0.00e+00	0	59	0	751828992	46	4240
2026-01-16 11:48:57.19	150.92	22.16	-36.9	-38.6	16.6	0.00e+00	0	59	0	774897664	45	4387
2026-01-16 11:49:01.23	150.78	22.74	-36.7	-38.3	16.9	0.00e+00	0	60	0	796917760	45	4234
2026-01-16 11:49:05.27	150.64	23.33	-36.7	-38.4	16.8	0.00e+00	0	60	0	819986432	45	4270
2026-01-16 11:49:09.31	150.49	23.94	-36.8	-38.5	16.8	0.00e+00	0	60	0	842006528	45	4302
2026-01-16 11:49:13.35	150.34	24.57	-36.7	-38.4	16.9	0.00e+00	0	60	0	865075200	45	4248
2026-01-16 11:49:17.38	150.18	25.20	-36.6	-38.3	17.0	0.00e+00	0	60	0	888143872	45	4203
2026-01-16 11:49:21.42	150.01	25.86	-36.5	-38.1	17.2	0.00e+00	0	60	0	911212544	45	4119
2026-01-16 11:49:25.46	149.83	26.53	-36.5	-38.1	17.2	0.00e+00	0	60	0	933232640	44	4363
2026-01-16 11:49:29.49	149.65	27.21	-36.6	-38.2	17.1	0.00e+00	0	60	0	956301312	44	4420
2026-01-16 11:49:33.54	149.46	27.92	-36.7	-38.3	17.0	0.00e+00	0	60	0	979369984	44	4468
2026-01-16 11:49:37.58	149.25	28.64	-36.7	-38.3	17.0	0.00e+00	0	60	0	1001390080	44	4492
2026-01-16 11:49:41.62	149.04	29.38	-36.6	-38.3	17.0	0.00e+00	0	60	0	1024458752	44	4449
2026-01-16 11:49:45.66	148.82	30.14	-36.5	-38.1	17.1	0.00e+00	0	60	0	1046478848	44	4377
2026-01-16 11:49:49.70	148.59	30.92	-36.4	-38.0	17.3	0.00e+00	0	60	0	1069547520	44	4303
2026-01-16 11:49:53.74	148.34	31.72	-36.2	-37.7	17.5	0.00e+00	0	60	0	1092616192	44	4191
2026-01-16 11:49:57.78	148.08	32.54	-35.7	-37.2	17.9	0.00e+00	0	60	0	1115684864	43	4166
2026-01-16 11:50:01.82	147.81	33.38	-35.8	-37.3	17.8	0.00e+00	0	60	0	1137704960	43	4230
2026-01-16 11:50:05.85	147.52	34.25	-35.8	-37.4	17.8	0.00e+00	0	60	0	1160773632	43	4246
2026-01-16 11:50:09.89	147.21	35.14	-35.6	-37.0	18.2	0.00e+00	0	60	0	1183842304	43	4093
2026-01-16 11:50:13.93	146.89	36.06	-35.7	-37.1	18.1	0.00e+00	0	60	0	1205862400	43	4140
2026-01-16 11:50:17.97	146.54	37.00	-36.0	-37.5	17.7	0.00e+00	0	60	0	1228931072	43	4327
2026-01-16 11:50:22.01	146.18	37.97	-35.9	-37.5	17.7	0.00e+00	0	60	0	1250951168	43	4298
2026-01-16 11:50:26.04	145.79	38.96	-36.0	-37.5	17.7	0.00e+00	0	60	0	1274019840	43	4323
2026-01-16 11:50:30.08	145.38	39.99	-35.8	-37.3	17.9	0.00e+00	0	60	0	1297088512	43	4234
2026-01-16 11:50:34.12	144.93	41.04	-36.1	-37.7	17.6	0.00e+00	0	60	0	1320157184	43	4408
2026-01-16 11:50:38.16	144.46	42.12	-36.4	-38.0	17.2	0.00e+00	0	60	0	1342177280	43	4579
2026-01-16 11:50:42.19	143.95	43.23	-36.5	-38.1	17.2	0.00e+00	0	60	0	1365245952	43	4604
2026-01-16 11:50:46.23	143.41	44.38	-36.2	-37.8	17.5	0.00e+00	0	60	0	1388314624	43	4469
2026-01-16 11:50:50.27	142.82	45.55	-36.2	-37.8	17.5	0.00e+00	0	61	0	1410334720	43	4452
2026-01-16 11:50:54.31	142.19	46.75	-36.2	-37.8	17.6	0.00e+00	0	61	0	1433403392	43	4446
2026-01-16 11:50:58.35	141.50	47.99	-36.3	-37.8	17.5	0.00e+00	0	60	0	1455423488	43	4461
2026-01-16 11:51:02.39	140.76	49.26	-36.9	-38.6	16.9	0.00e+00	0	61	0	1478492160	44	4607
2026-01-16 11:51:06.42	139.95	50.56	-37.3	-39.0	16.5	0.00e+00	0	61	0	1501560832	45	4567
2026-01-16 11:51:10.47	139.06	51.89	-37.3	-39.0	16.4	0.00e+00	0	61	0	1524629504	45	4581
2026-01-16 11:51:14.51	138.09	53.25	-37.4	-39.2	16.3	0.00e+00	0	61	0	1546649600	45	4659
2026-01-16 11:51:18.55	137.03	54.63	-37.2	-38.9	16.6	0.00e+00	0	61	0	1569718272	45	4518
2026-01-16 11:51:22.59	135.85	56.05	-36.9	-38.5	16.9	0.00e+00	0	61	0	1592786944	45	4330
2026-01-16 11:51:26.63	134.54	57.48	-36.9	-38.5	17.0	0.00e+00	0	60	0	1614807040	45	4310
2026-01-16 11:51:30.67	133.09	58.94	-37.0	-38.7	16.8	0.00e+00	0	60	0	1637875712	45	4408
2026-01-16 11:51:34.71	131.46	60.42	-37.0	-38.6	16.8	0.00e+00	0	61	0	1660944384	45	4381
2026-01-16 11:51:38.75	129.63	61.90	-36.6	-38.2	17.2	0.00e+00	0	61	0	1682964480	44	4432
2026-01-16 11:51:42.79	127.56	63.39	-36.3	-37.8	17.5	0.00e+00	0	61	0	1706033152	44	4235
2026-01-16 11:51:46.83	125.22	64.87	-36.0	-37.5	17.8	0.00e+00	0	61	0	1729101824	44	4085
2026-01-16 11:51:50.87	122.54	66.34	-35.5	-36.9	18.2	0.00e+00	0	61	0	1751121920	43	4049
2026-01-16 11:51:54.91	119.48	67.78	-35.5	-36.9	18.3	0.00e+00	0	61	0	1774190592	42	4272
2026-01-16 11:51:58.96	115.94	69.18	-35.4	-36.8	18.3	0.00e+00	0	61	0	1797259264	42	4231
2026-01-16 11:52:03.00	111.88	70.51	-35.5	-36.9	18.2	0.00e+00	0	61	0	1819279360	42	4272
2026-01-16 11:52:07.03	107.22	71.75	-36.2	-37.8	17.4	0.00e+00	0	61	0	1842348032	42	4716
2026-01-16 11:52:11.07	101.85	72.87	-35.6	-37.2	17.9	0.00e+00	0	61	0	1865416704	42	4396
2026-01-16 11:52:15.11	95.75	73.84	-35.7	-37.2	17.8	0.00e+00	0	61	0	1887436800	42	4429
2026-01-16 11:52:19.15	88.92	74.62	-35.0	-36.5	18.6	0.00e+00	0	61	0	1910505472	42	4057
2026-01-16 11:52:23.19	81.45	75.17	-34.8	-36.2	18.8	0.00e+00	0	61	0	1933574144	41	4151
2026-01-16 11:52:27.23	73.53	75.45	-34.6	-35.9	19.1	0.00e+00	0	61	0	1955594240	41	4038
2026-01-16 11:52:31.27	65.44	75.47	-34.4	-35.8	19.2	0.00e+00	0	61	0	1978662912	40	4195
2026-01-16 11:52:35.31	57.50	75.20	-34.4	-35.8	19.2	0.00e+00	0	61	0	2001731584	40	4195
2026-01-16 11:52:39.35	49.98	74.68	-34.9	-36.3	18.7	0.00e+00	0	61	0	2023751680	40	4473
2026-01-16 11:52:43.39	43.10	73.92	-34.7	-36.1	18.9	0.00e+00	0	61	0	2046820352	40	4354
2026-01-16 11:52:47.43	36.93	72.97	-34.8	-36.2	18.8	0.00e+00	0	61	0	2069889024	40	4393
2026-01-16 11:52:51.47	31.51	71.86	-35.2	-36.6	18.4	0.00e+00	0	61	0	2091909120	40	4628
2026-01-16 11:52:55.51	26.78	70.63	-35.0	-36.4	18.7	0.00e+00	0	61	0	2114977792	40	4517
2026-01-16 11:52:59.55	22.67	69.31	-35.0	-36.4	18.7	0.00e+00	0	61	0	2138046464	41	4256
2026-01-16 11:53:03.59	19.10	67.92	-35.4	-36.8	18.3	0.00e+00	0	61	0	2160066560	41	4466
2026-01-16 11:53:07.63	16.00	66.49	-35.0	-36.3	18.8	0.00e+00	0	61	0	2183135232	41	4203
2026-01-16 11:53:11.66	13.30	65.03	-35.3	-36.7	18.4	0.00e+00	0	61	0	2206203904	41	4431
2026-01-16 11:53:15.70	10.93	63.55	-35.3	-36.7	18.5	0.00e+00	0	61	0	2228224000	41	4414
2026-01-16 11:53:19.74	8.84	62.06	-35.6	-37.0	18.1	0.00e+00	0	61	0	2251292672	41	4583
2026-01-16 11:53:23.78	7.00	60.58	-36.0	-37.5	17.7	0.00e+00	0	61	0	2274361344	42	4584
2026-01-16 11:53:27.82	5.35	59.11	-36.4	-37.9	17.3	0.00e+00	0	61	0	2296381440	43	4539
2026-01-16 11:53:31.85	3.89	57.66	-36.5	-38.0	17.2	0.00e+00	0	61	0	2319450112	43	4556
2026-01-16 11:53:35.89	2.57	56.22	-36.9	-38.4	16.9	0.00e+00	0	61	0	2342518784	44	4535
2026-01-16 11:53:39.93	1.38	54.81	-37.6	-39.3	16.1	0.00e+00	0	61	0	2364538880	46	4452
2026-01-16 11:53:43.97	0.31	53.43	-37.0	-38.6	16.8	0.00e+00	0	61	0	2387607552	45	4342
2026-01-16 11:53:48.01	359.33	52.07	-36.7	-38.4	17.0	0.00e+00	0	61	0	2410676224	44	4497
2026-01-16 11:53:52.05	358.44	50.74	-36.6	-38.0	17.6	0.00e+00	0	61	0	2432696320	44	4320
2026-01-16 11:53:56.09	357.62	49.44	-36.6	-38.0	17.5	0.00e+00	0	61	0	2455764992	44	4322
2026-01-16 11:54:00.12	356.88	48.18	-36.3	-37.7	17.8	0.00e+00	0	61	0	2478833664	44	4181
2026-01-16 11:54:04.16	356.19	46.94	-36.2	-37.5	18.0	0.00e+00	0	61	0	2500853760	44	4077
2026-01-16 11:54:08.20	355.55	45.74	-36.4	-37.8	17.5	0.00e+00	0	61	0	2523922432	43	4492
2026-01-16 11:54:12.24	354.96	44.57	-36.1	-37.5	17.8	0.00e+00	0	61	0	2546991104	43	4322
2026-01-16 11:54:16.28	354.41	43.42	-36.2	-37.7	17.7	0.00e+00	0	61	0	2569011200	43	4400
2026-01-16 11:54:20.32	353.90	42.31	-36.0	-37.3	18.0	0.00e+00	0	61	0	2592079872	43	4213
2026-01-16 11:54:24.36	353.43	41.23	-35.7	-37.0	18.3	0.00e+00	0	61	0	2615148544	43	4089
2026-01-16 11:54:28.40	352.98	40.18	-35.3	-36.6	18.7	0.00e+00	0	61	0	2637168640	42	4134
2026-01-16 11:54:32.44	352.57	39.16	-35.5	-36.8	18.5	0.00e+00	0	61	0	2660237312	42	4221
2026-01-16 11:54:36.48	352.18	38.16	-35.7	-37.1	18.2	0.00e+00	0	61	0	2683305984	42	4342
2026-01-16 11:54:40.52	351.82	37.19	-35.7	-37.1	18.2	0.00e+00	0	61	0	2705326080	42	4349
2026-01-16 11:54:44.55	351.47	36.25	-35.8	-37.1	18.2	0.00e+00	0	61	0	2728394752	42	4377
2026-01-16 11:54:48.59	351.15	35.34	-36.0	-37.4	17.9	0.00e+00	0	61	0	2751463424	42	4524
2026-01-16 11:54:52.62	350.84	34.45	-36.0	-37.4	17.9	0.00e+00	0	61	0	2773483520	42	4519
2026-01-16 11:54:56.66	350.55	33.58	-36.0	-37.4	17.8	0.00e+00	0	61	0	2796552192	42	4542
2026-01-16 11:55:00.70	350.28	32.73	-36.1	-37.5	17.7	0.00e+00	0	61	0	2819620864	42	4578
2026-01-16 11:55:04.74	350.02	31.91	-36.2	-37.7	17.5	0.00e+00	0	61	0	2841640960	43	4392
2026-01-16 11:55:08.78	349.78	31.11	-36.3	-37.8	17.4	0.00e+00	0	61	0	2864709632	43	4463
2026-01-16 11:55:12.82	349.54	30.33	-36.2	-37.6	17.6	0.00e+00	0	61	0	2887778304	43	4362
2026-01-16 11:55:16.86	349.32	29.57	-36.0	-37.4	17.6	0.00e+00	0	61	0	2909798400	43	4287
2026-01-16 11:55:20.91	349.11	28.83	-36.1	-37.5	17.5	0.00e+00	0	61	0	2932867072	43	4333
2026-01-16 11:55:24.95	348.91	28.11	-36.3	-37.8	17.3	0.00e+00	0	61	0	2955935744	43	4444
2026-01-16 11:55:28.98	348.72	27.41	-36.3	-37.7	17.2	0.00e+00	0	61	0	2977955840	43	4439
2026-01-16 11:55:33.02	348.53	26.72	-36.2	-37.6	17.2	0.00e+00	0	61	0	3001024512	43	4390
2026-01-16 11:55:37.06	348.36	26.05	-36.2	-37.7	17.1	0.00e+00	0	61	0	3024093184	43	4410
2026-01-16 11:55:41.10	348.19	25.40	-36.2	-37.7	17.0	0.00e+00	0	61	0	3046113280	43	4417
2026-01-16 11:55:45.14	348.03	24.76	-36.3	-37.8	16.8	0.00e+00	0	61	0	3069181952	43	4484
2026-01-16 11:55:49.18	347.88	24.14	-36.4	-38.0	16.5	0.00e+00	0	61	0	3092250624	43	4552
2026-01-16 11:55:53.22	347.74	23.53	-36.3	-37.9	16.2	0.00e+00	0	61	0	3114270720	43	4542
2026-01-16 11:55:57.25	347.60	22.94	-36.3	-38.0	15.6	0.00e+00	0	61	0	3137339392	43	4582
2026-01-16 11:56:01.30	347.46	22.36	-36.3	-38.1	15.1	0.00e+00	0	61	0	3160408064	43	4626
2026-01-16 11:56:05.34	347.33	21.79	-37.3	-39.5	13.6	5.70e-06	0	61	0	3182428160	45	4820
2026-01-16 11:56:09.38	347.21	21.23	-40.2	-44.8	7.7	6.82e-02	0	61	0	3205496832	50	6658
2026-01-16 11:56:13.41	347.09	20.69	-41.2	-51.0	3.8	8.44e-01	0	62	104	3213885440	53	11510
2026-01-16 11:56:17.45	346.98	20.15	-41.3	-52.8	3.8	8.46e-01	0	61	104	3213885440	53	14146
2026-01-16 11:56:21.49	346.87	19.63	-41.4	-53.0	3.8	8.45e-01	0	61	104	3213885440	53	14483
2026-01-16 11:56:25.52	346.76	19.12	-41.3	-53.0	3.8	8.46e-01	0	61	104	3213885440	53	14511
2026-01-16 11:56:29.55	346.66	18.62	-40.9	-52.7	3.8	8.46e-01	0	61	104	3213885440	53	13925
2026-01-16 11:56:33.59	346.56	18.13	-40.9	-52.7	3.8	8.46e-01	0	61	104	3213885440	53	13901
2026-01-16 11:56:37.63	346.47	17.65	-41.4	-52.9	3.8	8.45e-01	0	62	104	3213885440	53	14366
2026-01-16 11:56:41.66	346.38	17.18	-41.2	-52.9	3.8	8.46e-01	0	61	104	3213885440	53	14266
2026-01-16 11:56:45.70	346.29	16.72	-41.1	-52.7	3.8	8.47e-01	0	62	104	3213885440	53	14039
2026-01-16 11:56:49.73	346.20	16.26	-41.0	-52.6	3.8	8.45e-01	0	62	104	3213885440	53	13794
2026-01-16 11:56:53.77	346.12	15.82	-41.2	-52.8	3.8	8.46e-01	0	62	104	3213885440	53	14174
2026-01-16 11:56:57.81	346.04	15.38	-41.0	-52.7	3.8	8.46e-01	0	62	104	3213885440	53	13940
2026-01-16 11:57:01.84	345.97	14.95	-41.0	-52.6	3.8	8.45e-01	0	62	104	3213885440	53	13840
2026-01-16 11:57:05.88	345.89	14.52	-40.8	-52.6	3.8	8.46e-01	0	62	104	3213885440	53	13860
2026-01-16 11:57:09.92	345.82	14.11	-40.9	-52.6	3.8	8.47e-01	0	61	104	3213885440	53	13832
2026-01-16 11:57:13.95	345.75	13.70	-40.8	-52.5	3.8	8.46e-01	0	61	104	3213885440	53	13692
2026-01-16 11:57:17.99	345.69	13.30	-40.7	-52.4	3.8	8.46e-01	0	61	104	3213885440	53	13523
2026-01-16 11:57:22.02	345.62	12.90	-40.9	-52.6	3.8	8.47e-01	0	61	104	3213885440	53	13838
2026-01-16 11:57:26.06	345.56	12.51	-40.8	-52.5	3.8	8.46e-01	0	62	104	3213885440	53	13579
2026-01-16 11:57:30.10	345.50	12.13	-40.6	-52.4	3.8	8.47e-01	0	62	104	3213885440	53	13484
2026-01-16 11:57:34.13	345.44	11.75	-40.7	-52.4	3.8	8.46e-01	0	62	104	3213885440	53	13500
2026-01-16 11:57:38.17	345.39	11.38	-40.9	-52.6	3.8	8.47e-01	0	62	104	3213885440	53	13765
2026-01-16 11:57:42.21	345.33	11.01	-40.6	-52.3	3.8	8.46e-01	0	62	104	3213885440	53	13302
2026-01-16 11:57:46.25	345.28	10.65	-40.8	-52.4	3.8	8.46e-01	0	62	104	3213885440	53	13464
2026-01-16 11:57:50.28	345.23	10.30	-40.8	-52.4	3.8	8.45e-01	0	62	104	3213885440	53	13519
2026-01-16 11:57:54.32	345.18	9.95	-40.7	-52.3	3.8	8.46e-01	0	62	104	3213885440	53	13375
2026-01-16 11:57:58.36	345.13	9.60	-40.8	-52.4	3.8	8.45e-01	0	62	104	3213885440	53	13526
2026-01-16 11:58:02.40	345.09	9.26	-40.9	-52.5	3.8	8.46e-01	0	62	104	3213885440	53	13645
2026-01-16 11:58:06.43	345.04	8.92	-40.6	-52.3	3.8	8.46e-01	0	62	104	3213885440	53	13280
2026-01-16 11:58:10.47	345.00	8.59	-40.7	-52.3	3.8	8.46e-01	0	62	104	3213885440	53	13309
2026-01-16 11:58:14.51	344.96	8.26	-40.6	-52.2	3.8	8.45e-01	0	62	104	3213885440	53	13209
2026-01-16 11:58:18.55	344.92	7.94	-40.9	-52.7	3.8	8.46e-01	0	61	104	3213885440	53	13980
2026-01-16 11:58:22.60	344.88	7.62	-45.1	-56.9	3.8	8.46e-01	0	62	104	3213885440	60	15064
2026-01-16 11:58:26.64	344.84	7.30	-45.3	-57.0	3.8	8.46e-01	0	62	104	3213885440	61	14444
2026-01-16 11:58:30.68	344.80	6.99	-45.3	-56.9	3.8	8.46e-01	0	62	104	3213885440	61	14343
2026-01-16 11:58:34.72	344.77	6.68	-45.2	-56.9	3.8	8.46e-01	0	61	104	3213885440	61	14221
2026-01-16 11:58:38.76	344.73	6.38	-45.2	-56.8	3.8	8.45e-01	0	62	104	3213885440	61	14183
2026-01-16 11:58:42.80	344.70	6.08	-45.2	-56.8	3.8	8.48e-01	0	62	104	3213885440	60	15017
2026-01-16 11:58:46.84	344.66	5.78	-45.2	-56.8	3.8	8.46e-01	0	62	104	3213885440	60	15032
2026-01-16 11:58:50.89	344.63	5.49	-45.1	-56.8	3.8	8.47e-01	0	62	104	3213885440	60	14943
2026-01-16 11:58:54.93	344.60	5.19	-45.2	-56.9	3.8	8.45e-01	0	62	104	3213885440	60	15063
2026-01-16 11:58:58.97	344.57	4.91	-45.1	-56.8	3.8	8.46e-01	0	62	104	3213885440	60	14988
2026-01-16 11:59:03.01	344.54	4.62	-45.2	-56.8	3.8	8.46e-01	0	62	104	3213885440	60	14980
2026-01-16 11:59:07.04	344.52	4.34	-45.1	-56.8	3.8	8.46e-01	0	62	104	3213885440	60	14996
2026-01-16 11:59:11.09	344.49	4.06	-45.2	-56.8	3.8	8.46e-01	0	62	104	3213885440	60	14916
2026-01-16 11:59:15.13	344.46	3.79	-45.2	-56.8	3.8	8.47e-01	0	62	104	3213885440	60	14978
2026-01-16 11:59:19.17	344.44	3.51	-45.2	-56.8	3.8	8.46e-01	0	62	104	3213885440	60	14969
2026-01-16 11:59:23.21	344.41	3.24	-45.1	-56.8	3.8	8.47e-01	0	62	104	3213885440	60	14935
2026-01-16 11:59:27.25	344.39	2.97	-45.1	-56.8	3.8	8.46e-01	0	62	104	3213885440	60	14895
2026-01-16 11:59:31.29	344.37	2.71	-45.2	-56.8	3.8	8.46e-01	0	62	104	3213885440	60	14907
2026-01-16 11:59:35.33	344.34	2.45	-45.1	-56.8	3.8	8.46e-01	0	62	104	3213885440	60	14914
2026-01-16 11:59:39.37	344.32	2.19	-45.1	-56.8	3.8	8.45e-01	0	62	104	3213885440	60	14926

#Closed at: 2026-01-16 11:59:42
#Recorded file [3213 MB]: D:/lorett/data/31039_260116_144518.dat