passes_logs/2026/01/16/R2.0S_Moscow/R2.0S_Moscow__20260116_221410_FENGYUN_3G_rec.log

#Pass ID: 20260116_221410_FENGYUN 3G
#Satellite: FENGYUN 3G
#Configuration: FENGYUN 3G
#almurnet v.1.7.20251203
#Start time: 2026-01-16 22:14:11

#Version: 2.2.20231116
#Station: R2.0S_Moscow
#Location: 37.707566 lon 55.798166 lat
#TLE: 1 56232U 23055A   26016.27117466  .00021245  00000+0  33355-3 0  9997
#TLE: 2 56232  49.9942  49.3739 0004180  33.4292 326.6938 15.53552571156398

#Time	Az	El	Level	Level2	SNR	BER	BlckErr	Temp	State	Recorded	gain1	gain2
2026-01-16 22:14:11.53	245.03	2.07	-44.3	-62.3	3.8	8.46e-01	0	51	0	0	60	28215
2026-01-16 22:14:14.55	244.84	2.27	-44.3	-62.3	3.8	8.45e-01	0	52	104	0	60	28230
2026-01-16 22:14:17.58	244.64	2.47	-44.3	-62.3	3.8	8.46e-01	0	52	104	0	60	28155
2026-01-16 22:14:20.61	244.44	2.67	-44.3	-62.2	3.8	8.46e-01	0	52	104	0	60	27980
2026-01-16 22:14:23.64	244.23	2.88	-44.2	-62.3	3.8	8.46e-01	0	52	104	0	60	28049
2026-01-16 22:14:26.68	244.02	3.09	-44.2	-62.3	3.8	8.46e-01	0	53	104	0	60	28044
2026-01-16 22:14:29.71	243.81	3.29	-44.2	-62.3	3.8	8.46e-01	0	53	104	0	60	28042
2026-01-16 22:14:32.74	243.59	3.51	-44.2	-62.3	3.8	8.45e-01	0	53	104	0	60	28084
2026-01-16 22:14:35.77	243.37	3.72	-44.2	-62.3	3.8	8.47e-01	0	53	104	0	60	28110
2026-01-16 22:14:38.80	243.14	3.94	-44.2	-62.3	3.8	8.46e-01	0	53	104	0	60	28213
2026-01-16 22:14:41.83	242.90	4.15	-44.2	-62.2	3.8	8.47e-01	0	53	104	0	60	28003
2026-01-16 22:14:44.87	242.66	4.38	-44.2	-62.1	3.8	8.46e-01	0	53	104	0	60	27664
2026-01-16 22:14:47.90	242.42	4.60	-44.2	-61.8	3.8	8.45e-01	0	54	104	0	60	26698
2026-01-16 22:14:50.93	242.17	4.82	-44.2	-61.6	3.8	8.45e-01	0	54	104	0	60	26054
2026-01-16 22:14:53.96	241.91	5.05	-44.2	-61.3	3.8	8.46e-01	0	54	104	0	60	25206
2026-01-16 22:14:57.00	241.65	5.28	-44.2	-59.9	3.9	8.46e-01	0	54	104	0	60	21438
2026-01-16 22:15:00.03	241.38	5.52	-44.2	-59.6	4.0	8.44e-01	0	54	0	0	60	20584
2026-01-16 22:15:03.06	241.11	5.75	-44.1	-59.3	4.1	8.44e-01	0	54	0	0	60	19928
2026-01-16 22:15:06.10	240.83	5.99	-44.1	-58.6	4.2	8.41e-01	0	54	0	0	60	18364
2026-01-16 22:15:09.13	240.54	6.23	-44.0	-55.7	5.6	8.01e-01	0	55	0	0	59	13983
2026-01-16 22:15:12.16	240.25	6.48	-43.6	-52.1	8.9	1.75e-01	0	55	0	3145728	59	9245
2026-01-16 22:15:15.19	239.95	6.72	-43.2	-50.3	10.8	1.35e-02	0	55	0	6815744	58	7925
2026-01-16 22:15:18.22	239.64	6.97	-43.4	-51.2	9.9	3.78e-03	0	55	0	9961472	58	8796
2026-01-16 22:15:21.25	239.32	7.23	-44.2	-58.5	4.3	7.88e-02	0	55	0	12582912	58	20341
2026-01-16 22:15:24.28	239.00	7.49	-43.9	-55.0	6.1	8.45e-01	0	55	0	12582912	59	12816
2026-01-16 22:15:27.31	238.67	7.75	-42.4	-47.9	13.2	5.90e-02	0	55	0	15728640	56	6740
2026-01-16 22:15:30.35	238.32	8.01	-41.5	-45.8	15.3	0.00e+00	0	55	0	19398656	54	5944
2026-01-16 22:15:33.38	237.97	8.28	-41.0	-44.7	16.4	3.18e-02	0	56	0	22544384	54	5251
2026-01-16 22:15:36.41	237.62	8.55	-42.8	-48.8	11.8	1.88e-03	0	56	0	25690112	57	7078
2026-01-16 22:15:39.43	237.25	8.82	-40.6	-44.0	17.2	0.00e+00	0	56	0	28835840	53	5133
2026-01-16 22:15:42.46	236.87	9.10	-40.6	-44.0	17.2	0.00e+00	0	56	0	32505856	53	5148
2026-01-16 22:15:45.49	236.48	9.38	-40.6	-44.0	17.3	0.00e+00	0	56	0	35651584	53	5116
2026-01-16 22:15:48.52	236.08	9.67	-40.5	-43.8	17.5	0.00e+00	0	56	0	39321600	52	5317
2026-01-16 22:15:51.55	235.67	9.95	-40.3	-43.5	17.8	0.00e+00	0	56	0	42467328	52	5134
2026-01-16 22:15:54.58	235.25	10.25	-40.3	-43.5	17.9	0.00e+00	0	56	0	46137344	52	5130
2026-01-16 22:15:57.61	234.82	10.55	-40.5	-43.7	17.6	0.00e+00	0	56	0	49283072	52	5265
2026-01-16 22:16:00.64	234.38	10.85	-40.5	-43.7	17.7	0.00e+00	0	57	0	52953088	52	5255
2026-01-16 22:16:03.66	233.92	11.15	-40.1	-43.1	18.2	0.00e+00	0	57	0	56098816	52	4905
2026-01-16 22:16:06.69	233.45	11.46	-40.0	-42.9	18.6	0.00e+00	0	57	0	59768832	51	5054
2026-01-16 22:16:09.72	232.97	11.78	-40.0	-42.9	18.6	0.00e+00	0	57	0	62914560	51	5048
2026-01-16 22:16:12.75	232.47	12.10	-40.1	-43.0	18.5	0.00e+00	0	57	0	66584576	51	5115
2026-01-16 22:16:15.78	231.96	12.42	-40.1	-43.0	18.6	0.00e+00	0	57	0	69730304	51	5121
2026-01-16 22:16:18.81	231.43	12.75	-39.9	-42.7	18.9	0.00e+00	0	57	0	73400320	51	4965
2026-01-16 22:16:21.83	230.89	13.08	-39.8	-42.5	19.1	0.00e+00	0	57	0	76546048	51	4861
2026-01-16 22:16:24.86	230.33	13.42	-39.8	-42.5	19.0	0.00e+00	0	57	0	80216064	51	4865
2026-01-16 22:16:27.89	229.75	13.76	-39.8	-42.5	19.2	0.00e+00	0	57	0	83361792	51	4856
2026-01-16 22:16:30.92	229.15	14.11	-39.5	-42.1	19.5	0.00e+00	0	57	0	87031808	51	4629
2026-01-16 22:16:33.94	228.54	14.46	-39.4	-41.9	19.8	0.00e+00	0	57	0	90177536	50	4807
2026-01-16 22:16:36.98	227.91	14.82	-39.4	-41.9	19.8	0.00e+00	0	57	0	93847552	50	4799
2026-01-16 22:16:40.00	227.26	15.18	-39.4	-42.0	19.7	0.00e+00	0	57	0	96993280	50	4828
2026-01-16 22:16:43.03	226.58	15.54	-39.2	-41.7	20.1	0.00e+00	0	57	0	100663296	50	4669
2026-01-16 22:16:46.06	225.89	15.91	-39.0	-41.3	20.4	0.00e+00	0	57	0	103809024	50	4491
2026-01-16 22:16:49.09	225.17	16.29	-38.8	-41.1	20.7	0.00e+00	0	57	0	107479040	49	4631
2026-01-16 22:16:52.12	224.43	16.67	-39.1	-41.6	20.3	0.00e+00	0	58	0	110624768	49	4871
2026-01-16 22:16:55.15	223.67	17.05	-38.9	-41.2	20.6	0.00e+00	0	57	0	114294784	49	4690
2026-01-16 22:16:58.18	222.88	17.44	-38.5	-40.6	21.1	0.00e+00	0	58	0	117440512	48	4617
2026-01-16 22:17:01.18	222.07	17.83	-38.6	-40.8	21.0	0.00e+00	0	57	0	121110528	48	4734
2026-01-16 22:17:04.21	221.23	18.22	-38.9	-41.2	20.6	0.00e+00	0	58	0	124256256	48	4964
2026-01-16 22:17:07.24	220.37	18.62	-38.6	-40.8	21.0	0.00e+00	0	58	0	127926272	48	4726
2026-01-16 22:17:10.27	219.47	19.02	-38.3	-40.4	21.5	0.00e+00	0	58	0	131072000	48	4517
2026-01-16 22:17:13.30	218.54	19.43	-38.5	-40.7	21.2	0.00e+00	0	58	0	134742016	48	4682
2026-01-16 22:17:16.32	217.59	19.84	-38.5	-40.7	21.2	0.00e+00	0	58	0	137887744	48	4659
2026-01-16 22:17:19.35	216.60	20.25	-38.1	-40.2	21.7	0.00e+00	0	58	0	141557760	48	4405
2026-01-16 22:17:22.38	215.58	20.66	-37.7	-39.7	22.2	0.00e+00	0	58	0	144703488	47	4403
2026-01-16 22:17:25.41	214.52	21.07	-37.9	-40.0	21.9	0.00e+00	0	58	0	147849216	47	4564
2026-01-16 22:17:28.43	213.44	21.48	-38.2	-40.3	21.5	0.00e+00	0	58	0	151519232	47	4749
2026-01-16 22:17:31.46	212.31	21.89	-37.7	-39.7	22.1	0.00e+00	0	58	0	154664960	47	4422
2026-01-16 22:17:34.49	211.16	22.30	-37.3	-39.3	22.5	0.00e+00	0	58	0	158334976	46	4450
2026-01-16 22:17:37.52	209.96	22.71	-37.4	-39.3	22.5	0.00e+00	0	58	0	161480704	46	4491
2026-01-16 22:17:40.55	208.73	23.11	-37.5	-39.4	22.4	0.00e+00	0	58	0	165150720	46	4532
2026-01-16 22:17:43.58	207.45	23.51	-37.5	-39.5	22.5	0.00e+00	0	58	0	168820736	46	4557
2026-01-16 22:17:46.61	206.14	23.90	-37.7	-39.7	22.3	0.00e+00	0	58	0	171966464	46	4655
2026-01-16 22:17:49.64	204.80	24.29	-37.4	-39.4	22.5	0.00e+00	0	58	0	175636480	46	4497
2026-01-16 22:17:52.67	203.41	24.67	-37.3	-39.1	22.8	0.00e+00	0	58	0	178782208	46	4390
2026-01-16 22:17:55.70	201.98	25.04	-37.4	-39.4	22.5	0.00e+00	0	58	0	182452224	46	4498
2026-01-16 22:17:58.72	200.52	25.40	-37.2	-39.0	22.9	0.00e+00	0	58	0	185597952	46	4325
2026-01-16 22:18:01.75	199.02	25.74	-37.0	-38.9	23.0	0.00e+00	0	58	0	188743680	45	4496
2026-01-16 22:18:04.78	197.48	26.08	-36.9	-38.7	23.2	0.00e+00	0	58	0	192413696	45	4400
2026-01-16 22:18:07.81	195.90	26.39	-36.7	-38.4	23.4	0.00e+00	0	59	0	195559424	45	4269
2026-01-16 22:18:10.84	194.29	26.69	-36.7	-38.4	23.4	0.00e+00	0	58	0	199229440	45	4291
2026-01-16 22:18:13.87	192.64	26.98	-36.6	-38.4	23.4	0.00e+00	0	58	0	202375168	44	4524
2026-01-16 22:18:16.89	190.97	27.24	-36.7	-38.5	23.4	0.00e+00	0	59	0	206045184	44	4560
2026-01-16 22:18:19.92	189.26	27.48	-36.2	-37.8	24.0	0.00e+00	0	58	0	209190912	44	4233
2026-01-16 22:18:22.95	187.52	27.69	-36.3	-38.0	23.8	0.00e+00	0	59	0	212860928	44	4334
2026-01-16 22:18:25.98	185.76	27.89	-36.4	-38.1	23.7	0.00e+00	0	59	0	216530944	44	4374
2026-01-16 22:18:29.01	183.98	28.05	-36.9	-38.8	23.1	0.00e+00	0	59	0	219676672	44	4712
2026-01-16 22:18:32.04	182.17	28.19	-36.9	-38.7	23.1	0.00e+00	0	59	0	223346688	44	4682
2026-01-16 22:18:35.06	180.36	28.31	-37.3	-39.2	22.7	0.00e+00	0	59	0	226492416	45	4664
2026-01-16 22:18:38.09	178.53	28.39	-36.9	-38.7	23.1	0.00e+00	0	59	0	229638144	45	4424
2026-01-16 22:18:41.12	176.69	28.44	-37.0	-38.9	23.1	0.00e+00	0	59	0	233308160	45	4494
2026-01-16 22:18:44.15	174.84	28.47	-37.2	-39.0	23.0	0.00e+00	0	59	0	236453888	45	4564
2026-01-16 22:18:47.18	172.99	28.46	-37.0	-38.8	23.1	0.00e+00	0	59	0	240123904	45	4486
2026-01-16 22:18:50.20	171.15	28.43	-36.9	-38.7	23.3	0.00e+00	0	59	0	243269632	45	4416
2026-01-16 22:18:53.23	169.31	28.37	-37.0	-38.8	23.1	0.00e+00	0	59	0	246939648	45	4474
2026-01-16 22:18:56.26	167.48	28.27	-37.1	-38.9	23.1	0.00e+00	0	59	0	250085376	45	4527
2026-01-16 22:18:59.29	165.67	28.15	-36.7	-38.5	23.5	0.00e+00	0	59	0	253755392	44	4584
2026-01-16 22:19:02.31	163.88	28.01	-37.0	-38.9	23.2	0.00e+00	0	59	0	256901120	44	4765
2026-01-16 22:19:05.34	162.10	27.83	-36.8	-38.6	23.4	0.00e+00	0	59	0	260571136	44	4604
2026-01-16 22:19:08.36	160.35	27.63	-36.5	-38.2	23.8	0.00e+00	0	59	0	263716864	44	4423
2026-01-16 22:19:11.40	158.62	27.41	-36.8	-38.6	23.4	0.00e+00	0	59	0	267386880	44	4629
2026-01-16 22:19:14.43	156.92	27.16	-36.7	-38.4	23.6	0.00e+00	0	59	0	270532608	44	4537
2026-01-16 22:19:17.46	155.25	26.90	-36.7	-38.5	23.5	0.00e+00	0	59	0	274202624	44	4584
2026-01-16 22:19:20.49	153.62	26.61	-36.3	-38.0	24.0	0.00e+00	0	59	0	277348352	44	4306
2026-01-16 22:19:23.52	152.02	26.30	-37.6	-39.5	22.6	0.00e+00	0	59	0	281018368	45	4862
2026-01-16 22:19:26.55	150.45	25.98	-37.3	-39.2	22.9	0.00e+00	0	59	0	284164096	46	4435
2026-01-16 22:19:29.57	148.93	25.65	-37.5	-39.5	22.6	0.00e+00	0	59	0	287834112	46	4565
2026-01-16 22:19:32.60	147.44	25.30	-37.7	-39.7	22.4	0.00e+00	0	59	0	290979840	46	4671
2026-01-16 22:19:35.63	145.99	24.94	-37.6	-39.5	22.6	0.00e+00	0	59	0	294649856	46	4580
2026-01-16 22:19:38.65	144.58	24.56	-37.7	-39.6	22.5	0.00e+00	0	59	0	297795584	46	4638
2026-01-16 22:19:41.68	143.21	24.18	-37.7	-39.7	22.5	0.00e+00	0	59	0	301465600	46	4688
2026-01-16 22:19:44.71	141.87	23.79	-37.3	-39.2	22.9	0.00e+00	0	59	0	304611328	46	4431
2026-01-16 22:19:47.74	140.58	23.40	-37.3	-39.1	23.0	0.00e+00	0	59	0	308281344	46	4384
2026-01-16 22:19:50.77	139.32	23.00	-37.8	-39.8	22.3	0.00e+00	0	59	0	311427072	46	4719
2026-01-16 22:19:53.80	138.10	22.60	-37.5	-39.4	22.7	0.00e+00	0	59	0	315097088	46	4523
2026-01-16 22:19:56.82	136.92	22.19	-37.8	-39.8	22.3	0.00e+00	0	59	0	318242816	46	4723
2026-01-16 22:19:59.85	135.77	21.78	-37.8	-39.8	22.3	0.00e+00	0	59	0	321912832	46	4734
2026-01-16 22:20:02.88	134.66	21.37	-38.0	-40.1	22.0	0.00e+00	0	59	0	325058560	46	4895
2026-01-16 22:20:05.91	133.58	20.96	-37.8	-39.8	22.3	0.00e+00	0	59	0	328728576	46	4744
2026-01-16 22:20:08.94	132.54	20.55	-38.3	-40.5	21.6	0.00e+00	0	59	0	331874304	47	4831
2026-01-16 22:20:11.97	131.53	20.14	-37.9	-40.0	22.0	0.00e+00	0	59	0	335544320	47	4559
2026-01-16 22:20:14.99	130.56	19.73	-38.1	-40.2	21.8	0.00e+00	0	59	0	338690048	47	4661
2026-01-16 22:20:18.02	129.61	19.33	-38.0	-40.1	21.9	0.00e+00	0	59	0	342360064	47	4608
2026-01-16 22:20:21.05	128.70	18.92	-38.4	-40.6	21.3	0.00e+00	0	59	0	345505792	47	4920
2026-01-16 22:20:24.08	127.81	18.52	-38.3	-40.5	21.4	0.00e+00	0	59	0	349175808	47	4852
2026-01-16 22:20:27.11	126.95	18.13	-38.4	-40.7	21.2	0.00e+00	0	59	0	352321536	47	4941
2026-01-16 22:20:30.14	126.12	17.73	-38.5	-40.8	21.1	0.00e+00	0	59	0	355991552	48	4723
2026-01-16 22:20:33.17	125.31	17.34	-38.8	-41.2	20.7	0.00e+00	0	59	0	359137280	48	4955
2026-01-16 22:20:36.20	124.53	16.96	-38.8	-41.2	20.6	2.20e-06	0	59	0	362807296	48	4959
2026-01-16 22:20:39.22	123.78	16.57	-38.7	-41.1	20.7	0.00e+00	0	59	0	365953024	48	4876
2026-01-16 22:20:42.25	123.05	16.20	-39.3	-41.8	20.0	0.00e+00	0	59	0	369623040	49	5026
2026-01-16 22:20:45.28	122.34	15.82	-39.1	-41.7	20.1	0.00e+00	0	59	0	372768768	49	4947
2026-01-16 22:20:48.31	121.65	15.46	-39.0	-41.5	20.2	0.00e+00	0	59	0	376438784	48	5137
2026-01-16 22:20:51.34	120.99	15.09	-39.1	-41.8	19.7	5.29e-04	0	59	0	379584512	49	5040
2026-01-16 22:20:54.37	120.34	14.73	-39.5	-42.4	19.0	9.10e-06	0	59	0	383254528	49	5360
2026-01-16 22:20:57.40	119.72	14.38	-39.5	-42.3	19.2	6.40e-05	0	59	0	386400256	49	5280
2026-01-16 22:21:00.43	119.11	14.03	-39.4	-42.2	19.1	3.20e-05	0	59	0	390070272	49	5253
2026-01-16 22:21:03.46	118.52	13.68	-39.7	-42.6	18.7	4.80e-05	0	59	0	393216000	50	5205
2026-01-16 22:21:06.48	117.95	13.35	-39.9	-43.1	16.0	5.14e-05	0	59	0	396886016	50	5495
2026-01-16 22:21:09.51	117.40	13.01	-39.6	-42.4	19.1	3.59e-04	0	60	0	400031744	50	5056
2026-01-16 22:21:12.54	116.86	12.68	-39.9	-42.9	18.6	2.20e-06	0	60	0	403701760	50	5355
2026-01-16 22:21:15.57	116.34	12.35	-39.5	-43.3	17.7	0.00e+00	0	59	0	406847488	51	5288
2026-01-16 22:21:18.60	115.83	12.03	-40.1	-43.5	17.4	1.71e-05	0	59	0	410517504	50	5773
2026-01-16 22:21:21.63	115.34	11.71	-39.6	-43.5	16.8	1.68e-04	0	60	0	413663232	49	6063
2026-01-16 22:21:24.65	114.86	11.40	-35.4	-43.2	15.9	8.98e-04	0	59	0	417333248	46	6971
2026-01-16 22:21:27.68	114.40	11.09	-39.2	-43.6	14.8	3.26e-03	0	59	0	420478976	48	6546
2026-01-16 22:21:30.72	113.94	10.79	-35.7	-42.9	12.0	1.45e-02	0	59	0	424148992	41	9013
2026-01-16 22:21:33.74	113.50	10.49	-35.6	-43.6	13.0	2.33e-02	0	60	0	427294720	44	8211
2026-01-16 22:21:36.77	113.08	10.19	-38.7	-46.9	10.6	3.22e-02	0	60	0	430964736	46	10726
2026-01-16 22:21:39.80	112.66	9.90	-38.6	-45.9	11.3	2.96e-02	0	60	0	434110464	47	8976
2026-01-16 22:21:42.83	112.26	9.61	-37.6	-46.7	10.5	6.63e-02	0	60	0	437780480	46	10510
2026-01-16 22:21:45.86	111.86	9.33	-38.0	-45.6	11.4	9.25e-02	0	60	0	440926208	46	9241
2026-01-16 22:21:48.89	111.48	9.05	-39.0	-44.5	13.9	1.67e-02	0	60	0	444596224	48	7264
2026-01-16 22:21:51.91	111.10	8.78	-36.6	-44.8	11.1	2.58e-02	0	60	0	447741952	46	8442
2026-01-16 22:21:54.94	110.74	8.50	-36.2	-45.3	10.0	1.24e-02	0	60	0	451411968	42	11179
2026-01-16 22:21:57.97	110.38	8.23	-39.5	-45.5	12.4	1.34e-02	0	60	0	454557696	47	8633
2026-01-16 22:22:01.00	110.04	7.97	-44.2	-61.7	3.8	5.35e-03	0	60	104	457703424	58	29374
2026-01-16 22:22:04.03	109.70	7.71	-45.1	-63.2	3.8	8.46e-01	0	60	104	457703424	60	31397
2026-01-16 22:22:07.06	109.37	7.45	-45.6	-63.8	3.8	8.47e-01	0	60	104	457703424	61	31630
2026-01-16 22:22:10.09	109.05	7.19	-45.8	-64.0	3.8	8.47e-01	0	60	104	457703424	62	30660
2026-01-16 22:22:13.12	108.74	6.94	-45.6	-63.8	3.8	8.46e-01	0	60	104	457703424	62	29787
2026-01-16 22:22:16.15	108.43	6.69	-45.6	-63.6	3.8	8.46e-01	0	60	104	457703424	62	29282
2026-01-16 22:22:19.18	108.13	6.44	-45.4	-63.5	3.8	8.46e-01	0	60	104	457703424	62	28759
2026-01-16 22:22:22.22	107.84	6.20	-45.4	-63.5	3.8	8.45e-01	0	60	104	457703424	62	28756
2026-01-16 22:22:25.25	107.56	5.96	-45.4	-63.5	3.8	8.46e-01	0	60	104	457703424	62	28761
2026-01-16 22:22:28.28	107.28	5.72	-45.4	-63.5	3.8	8.47e-01	0	60	104	457703424	62	28691
2026-01-16 22:22:31.32	107.01	5.49	-45.4	-63.4	3.8	8.46e-01	0	60	104	457703424	62	28665
2026-01-16 22:22:34.35	106.74	5.26	-45.4	-63.5	3.8	8.47e-01	0	60	104	457703424	62	28706
2026-01-16 22:22:37.38	106.48	5.03	-45.4	-63.4	3.8	8.46e-01	0	60	104	457703424	62	28633
2026-01-16 22:22:40.41	106.23	4.80	-45.4	-63.4	3.8	8.47e-01	0	60	104	457703424	62	28636
2026-01-16 22:22:43.45	105.98	4.57	-45.4	-63.4	3.8	8.45e-01	0	60	104	457703424	62	28559
2026-01-16 22:22:46.48	105.74	4.35	-45.3	-63.4	3.8	8.47e-01	0	60	104	457703424	62	28554
2026-01-16 22:22:49.51	105.50	4.13	-45.4	-63.4	3.8	8.46e-01	0	60	104	457703424	62	28528
2026-01-16 22:22:52.55	105.27	3.92	-45.3	-63.4	3.8	8.47e-01	0	60	104	457703424	62	28573
2026-01-16 22:22:55.58	105.04	3.70	-45.3	-63.4	3.8	8.46e-01	0	60	104	457703424	62	28573
2026-01-16 22:22:58.61	104.82	3.49	-45.3	-63.4	3.8	8.47e-01	0	60	104	457703424	62	28572
2026-01-16 22:23:01.65	104.60	3.28	-45.3	-63.4	3.8	8.46e-01	0	60	104	457703424	62	28568
2026-01-16 22:23:04.68	104.39	3.07	-45.3	-63.4	3.8	8.46e-01	0	60	104	457703424	62	28525
2026-01-16 22:23:07.71	104.18	2.86	-45.3	-63.4	3.8	8.46e-01	0	60	104	457703424	62	28491
2026-01-16 22:23:10.75	103.98	2.66	-45.3	-63.4	3.8	8.46e-01	0	60	104	457703424	62	28541
2026-01-16 22:23:13.78	103.78	2.45	-45.3	-63.4	3.8	8.47e-01	0	60	104	457703424	62	28497
2026-01-16 22:23:16.81	103.58	2.25	-45.3	-63.4	3.8	8.46e-01	0	60	104	457703424	62	28467
2026-01-16 22:23:19.85	103.39	2.05	-45.3	-63.4	3.8	8.48e-01	0	60	104	457703424	62	28443

#Closed at: 2026-01-16 22:23:22
#Recorded file [457 MB]: D:/lorett/data/31039_260117_011411.dat