passes_logs/2026/01/10/XPeterburg/XPeterburg__20260110_120905_AQUA_rec.log

#Pass ID: 20260110_120905_AQUA
#Satellite: AQUA
#Configuration: AQUA
#Start time: 2026-01-10 12:09:00

#Version: 1.5.20200625
#Station: XPeterburg
#Location: 30.318091 lon 59.932769 lat
#TLE: 1 27424U 02022A   25358.80455341  .00000926  00000+0  19561-3 0  9999
#TLE: 2 27424  98.4055 319.8810 0001809 102.1365 317.5475 14.61757572257795

#Time	Az	El	Level	Level2	SNR	BER	Gain	Gain2
2026-01-10 12:09:00.87	168.98	67.81	-34.5	-42.9	3.3	7660369	86	1567
2026-01-10 12:09:01.28	169.07	68.04	-34.6	-45.2	3.5	7577667	86	2017
2026-01-10 12:09:01.68	169.15	68.25	-34.6	-44.7	3.4	7627410	86	1910
2026-01-10 12:09:02.08	169.23	68.47	-34.7	-45.1	3.5	7572479	86	1975
2026-01-10 12:09:02.48	169.32	68.69	-34.7	-45.0	3.4	7623138	86	1944
2026-01-10 12:09:02.88	169.41	68.91	-34.7	-45.9	3.5	7555389	86	2158
2026-01-10 12:09:03.28	169.50	69.13	-34.8	-45.3	3.4	7637176	86	2012
2026-01-10 12:09:03.69	169.60	69.36	-34.7	-46.1	3.5	7554779	86	2208
2026-01-10 12:09:04.09	169.69	69.58	-34.7	-45.4	3.5	7620849	86	2038
2026-01-10 12:09:04.49	169.79	69.80	-34.7	-45.5	3.5	7603912	86	2082
2026-01-10 12:09:04.89	169.89	70.03	-34.8	-45.1	3.5	7620086	86	1951
2026-01-10 12:09:05.30	169.99	70.26	-34.8	-45.6	3.4	7547302	86	2084
2026-01-10 12:09:05.70	170.10	70.48	-34.7	-45.5	3.5	7596893	86	2052
2026-01-10 12:09:06.10	170.20	70.70	-34.8	-46.0	3.2	7556304	86	2178
2026-01-10 12:09:06.50	170.31	70.93	-34.8	-45.6	3.5	7581481	86	2074
2026-01-10 12:09:06.90	170.43	71.15	-34.9	-45.1	3.4	7642517	86	1944
2026-01-10 12:09:07.31	170.55	71.38	-34.8	-45.9	3.5	7604827	86	2126
2026-01-10 12:09:07.71	170.66	71.61	-34.9	-45.3	3.4	7635345	86	1969
2026-01-10 12:09:08.11	170.79	71.84	-35.3	-45.8	3.5	7564086	87	2013
2026-01-10 12:09:08.51	170.91	72.06	-35.2	-45.6	3.4	7568206	87	1973
2026-01-10 12:09:08.91	171.04	72.29	-35.2	-46.0	3.5	7565307	87	2077
2026-01-10 12:09:09.32	171.17	72.52	-35.2	-45.7	3.4	7628021	87	2009
2026-01-10 12:09:09.72	171.31	72.75	-35.2	-46.2	3.5	7568969	87	2134
2026-01-10 12:09:10.12	171.45	72.98	-35.2	-45.6	3.4	7634124	87	1978
2026-01-10 12:09:10.52	171.59	73.21	-35.2	-46.1	3.5	7520294	87	2103
2026-01-10 12:09:10.92	171.74	73.44	-35.2	-45.7	3.4	7601623	87	1996
2026-01-10 12:09:11.32	171.89	73.66	-35.2	-46.3	3.5	7579650	87	2141
2026-01-10 12:09:11.73	172.05	73.90	-35.2	-46.2	3.4	7639770	87	2109
2026-01-10 12:09:12.13	172.21	74.13	-35.2	-46.7	3.5	7608642	87	2225
2026-01-10 12:09:12.53	172.37	74.36	-35.2	-46.3	3.5	7635345	87	2137
2026-01-10 12:09:12.93	172.54	74.59	-35.2	-46.6	3.4	7576904	87	2225
2026-01-10 12:09:13.33	172.72	74.82	-35.2	-46.1	3.5	7596740	87	2108
2026-01-10 12:09:13.73	172.90	75.05	-35.2	-46.4	3.2	7565917	87	2171
2026-01-10 12:09:14.14	173.09	75.29	-35.2	-46.2	3.5	7594757	87	2106
2026-01-10 12:09:14.54	173.29	75.52	-35.3	-46.0	3.4	7644958	87	2052
2026-01-10 12:09:14.94	173.49	75.75	-35.3	-46.4	3.5	7632751	87	2153
2026-01-10 12:09:15.34	173.70	75.99	-35.3	-45.7	3.4	7629699	87	1978
2026-01-10 12:09:15.74	173.91	76.22	-35.3	-46.1	3.5	7604980	87	2068
2026-01-10 12:09:16.15	174.14	76.46	-35.4	-45.5	3.4	7643127	87	1920
2026-01-10 12:09:16.55	174.37	76.69	-35.4	-46.1	3.5	7546997	87	2042
2026-01-10 12:09:16.95	174.61	76.92	-35.4	-45.8	3.4	7623443	87	1970
2026-01-10 12:09:17.35	174.85	77.16	-35.4	-46.7	3.5	7569885	87	2179
2026-01-10 12:09:17.75	175.11	77.39	-35.4	-46.5	3.4	7604522	87	2123
2026-01-10 12:09:18.16	175.38	77.63	-35.4	-47.0	3.5	7561950	87	2277
2026-01-10 12:09:18.56	175.66	77.86	-35.4	-46.7	3.5	7604675	87	2184
2026-01-10 12:09:18.96	175.95	78.09	-35.4	-47.2	3.5	7570648	87	2311
2026-01-10 12:09:19.36	176.25	78.33	-35.5	-45.9	3.5	7605590	88	1995
2026-01-10 12:09:19.76	176.56	78.56	-35.4	-46.3	3.4	7572021	88	2078
2026-01-10 12:09:20.16	176.89	78.80	-35.4	-46.3	3.5	7615814	88	2077
2026-01-10 12:09:20.57	177.24	79.03	-35.5	-46.7	3.2	7578582	88	2170
2026-01-10 12:09:20.97	177.59	79.27	-35.4	-46.5	3.5	7626953	88	2148
2026-01-10 12:09:21.37	177.96	79.50	-35.5	-47.0	3.2	7595367	88	2255
2026-01-10 12:09:21.77	178.35	79.73	-35.5	-46.8	3.5	7597656	88	2187
2026-01-10 12:09:22.17	178.76	79.97	-35.4	-46.2	3.4	7631530	88	2070
2026-01-10 12:09:22.58	179.20	80.21	-35.4	-46.8	3.5	7598876	88	2208
2026-01-10 12:09:22.98	179.64	80.44	-35.4	-46.2	3.4	7603912	88	2065
2026-01-10 12:09:23.38	180.12	80.67	-35.4	-46.6	3.5	7592010	88	2176
2026-01-10 12:09:23.78	180.61	80.90	-35.4	-45.9	3.4	7615203	88	1998
2026-01-10 12:09:24.18	181.13	81.13	-35.3	-46.1	3.5	7559356	88	2066
2026-01-10 12:09:24.58	181.68	81.36	-35.4	-45.8	3.4	7626190	88	1979
2026-01-10 12:09:24.99	182.28	81.60	-35.4	-46.5	3.5	7599487	88	2159
2026-01-10 12:09:25.39	182.89	81.83	-35.4	-46.2	3.4	7611541	88	2075
2026-01-10 12:09:25.79	183.54	82.06	-35.4	-46.7	3.5	7577209	88	2197
2026-01-10 12:09:26.19	184.23	82.29	-35.4	-46.1	3.4	7636413	88	2043
2026-01-10 12:09:26.59	184.96	82.51	-35.4	-46.1	3.5	7600250	88	2062
2026-01-10 12:09:26.99	185.73	82.74	-35.4	-45.7	3.5	7602233	88	1958
2026-01-10 12:09:27.40	186.58	82.97	-35.5	-46.5	3.4	7559356	88	2124
2026-01-10 12:09:27.80	187.46	83.19	-35.5	-46.3	3.5	7602233	88	2074
2026-01-10 12:09:28.20	188.40	83.41	-35.5	-46.7	3.3	7584228	88	2178
2026-01-10 12:09:28.60	189.41	83.63	-35.5	-46.5	3.5	7620086	88	2120
2026-01-10 12:09:29.00	190.49	83.85	-35.5	-46.0	3.4	7658538	88	2011
2026-01-10 12:09:29.41	191.68	84.07	-35.5	-46.5	3.5	7578277	88	2119
2026-01-10 12:09:29.81	192.93	84.29	-35.5	-46.1	3.4	7629089	88	2015
2026-01-10 12:09:30.21	194.28	84.50	-35.5	-46.6	3.5	7563171	88	2139
2026-01-10 12:09:30.61	195.73	84.70	-35.5	-46.2	3.4	7606201	88	2034
2026-01-10 12:09:31.01	197.30	84.91	-35.5	-46.8	3.5	7602233	88	2184
2026-01-10 12:09:31.41	199.00	85.11	-35.5	-46.3	3.4	7634277	88	2065
2026-01-10 12:09:31.82	200.89	85.31	-35.5	-46.9	3.5	7592620	88	2216
2026-01-10 12:09:32.22	202.90	85.50	-35.5	-46.4	3.4	7598571	88	2087
2026-01-10 12:09:32.62	205.08	85.68	-35.5	-46.7	3.5	7588043	88	2166
2026-01-10 12:09:33.02	207.45	85.86	-35.5	-46.1	3.4	7632141	88	2016
2026-01-10 12:09:33.42	210.03	86.03	-35.5	-46.7	3.5	7578430	88	2151
2026-01-10 12:09:33.82	212.83	86.19	-35.6	-46.3	3.4	7616882	88	2062
2026-01-10 12:09:34.23	215.96	86.34	-35.6	-47.0	3.5	7597198	88	2230
2026-01-10 12:09:34.63	219.26	86.48	-35.6	-46.7	3.4	7599487	88	2148
2026-01-10 12:09:35.03	222.83	86.61	-35.6	-47.2	3.4	7561645	88	2265
2026-01-10 12:09:35.43	226.65	86.73	-35.6	-46.9	3.5	7610168	88	2184
2026-01-10 12:09:35.84	230.84	86.83	-35.6	-47.1	3.3	7578582	88	2247
2026-01-10 12:09:36.24	235.16	86.91	-35.6	-46.4	3.5	7600250	88	2080
2026-01-10 12:09:36.64	239.69	86.97	-35.6	-45.8	3.4	7576599	88	1918
2026-01-10 12:09:37.04	244.38	87.01	-35.6	-46.3	3.5	7568206	88	2054
2026-01-10 12:09:37.44	249.16	87.03	-35.6	-46.0	3.4	7637634	88	1961
2026-01-10 12:09:37.84	253.98	87.03	-35.6	-46.8	3.5	7583618	88	2151
2026-01-10 12:09:38.25	258.89	87.01	-35.7	-46.4	3.4	7612609	88	2066
2026-01-10 12:09:38.65	263.58	86.97	-35.7	-47.0	3.5	7557067	88	2214
2026-01-10 12:09:39.05	268.12	86.91	-35.6	-46.6	3.4	7612915	88	2099
2026-01-10 12:09:39.45	272.45	86.83	-35.6	-46.9	3.5	7588348	88	2206
2026-01-10 12:09:39.86	276.65	86.73	-35.6	-46.0	3.4	7628326	88	1983
2026-01-10 12:09:40.26	280.50	86.62	-35.6	-46.3	3.5	7596588	88	2066
2026-01-10 12:09:40.66	284.07	86.49	-35.5	-45.7	3.5	7623748	88	1935
2026-01-10 12:09:41.06	287.39	86.35	-35.6	-46.7	3.5	7569274	88	2157
2026-01-10 12:09:41.47	290.53	86.20	-35.6	-46.4	3.5	7607727	88	2088
2026-01-10 12:09:41.87	293.34	86.04	-35.5	-46.6	3.5	7588958	88	2144
2026-01-10 12:09:42.27	295.94	85.87	-35.5	-46.2	3.5	7588958	88	2040
2026-01-10 12:09:42.67	298.32	85.69	-35.5	-46.5	3.5	7591094	88	2107
2026-01-10 12:09:43.07	300.51	85.51	-35.5	-46.0	3.5	7593688	88	1982
2026-01-10 12:09:43.47	302.52	85.32	-35.5	-46.4	3.2	7581634	88	2092
2026-01-10 12:09:43.88	304.42	85.12	-35.5	-46.4	3.5	7606506	88	2101
2026-01-10 12:09:44.28	306.13	84.92	-35.6	-45.8	3.4	7646331	88	1939
2026-01-10 12:09:44.68	307.71	84.72	-35.7	-46.6	3.5	7642974	88	2098
2026-01-10 12:09:45.08	309.17	84.51	-35.6	-46.2	3.4	7635803	88	2021
2026-01-10 12:09:45.49	310.55	84.29	-35.6	-46.5	3.5	7592773	88	2096
2026-01-10 12:09:45.89	311.80	84.08	-35.6	-46.3	3.4	7582855	88	2049
2026-01-10 12:09:46.29	312.96	83.86	-35.6	-46.6	3.5	7571868	88	2126
2026-01-10 12:09:46.69	314.05	83.65	-35.6	-46.2	3.4	7571716	88	2046
2026-01-10 12:09:47.09	315.06	83.43	-35.5	-46.8	3.5	7536468	88	2186
2026-01-10 12:09:47.50	316.03	83.20	-35.5	-46.2	3.4	7638549	88	2055
2026-01-10 12:09:47.90	316.91	82.98	-35.5	-46.7	3.5	7554473	88	2163
2026-01-10 12:09:48.30	317.74	82.75	-35.5	-46.3	3.5	7591552	88	2061
2026-01-10 12:09:48.70	318.52	82.53	-35.5	-46.7	3.5	7567443	88	2161
2026-01-10 12:09:49.11	319.27	82.30	-35.5	-46.3	3.5	7646636	88	2067
2026-01-10 12:09:49.51	319.96	82.07	-35.5	-46.7	3.5	7558288	88	2173
2026-01-10 12:09:49.91	320.61	81.84	-35.5	-46.4	3.5	7589416	88	2085
2026-01-10 12:09:50.31	321.22	81.61	-35.5	-46.6	3.2	7583618	88	2130
2026-01-10 12:09:50.71	321.80	81.38	-35.6	-46.4	3.5	7570037	88	2083
2026-01-10 12:09:51.12	322.37	81.14	-35.6	-45.8	3.4	7625732	88	1950
2026-01-10 12:09:51.52	322.89	80.91	-35.5	-46.4	3.5	7604522	88	2090
2026-01-10 12:09:51.92	323.39	80.68	-35.5	-46.0	3.4	7662811	88	2000
2026-01-10 12:09:52.32	323.86	80.45	-35.5	-46.6	3.5	7580566	88	2144
2026-01-10 12:09:52.73	324.32	80.21	-35.5	-46.1	3.4	7628479	88	2028
2026-01-10 12:09:53.13	324.74	79.98	-35.5	-46.6	3.5	7602081	88	2160
2026-01-10 12:09:53.53	325.15	79.75	-35.4	-46.1	3.4	7615203	88	2041
2026-01-10 12:09:53.93	325.54	79.51	-35.4	-46.9	3.5	7555541	88	2251
2026-01-10 12:09:54.34	325.92	79.28	-35.4	-46.3	3.4	7638854	88	2118
2026-01-10 12:09:54.74	326.28	79.04	-35.4	-46.9	3.5	7579345	88	2256
2026-01-10 12:09:55.14	326.62	78.81	-35.3	-46.4	3.4	7621154	88	2129
2026-01-10 12:09:55.54	326.94	78.58	-35.4	-46.7	3.5	7549743	88	2204
2026-01-10 12:09:55.94	327.26	78.34	-35.4	-46.3	3.5	7594299	88	2098
2026-01-10 12:09:56.35	327.57	78.10	-35.4	-46.7	3.5	7523803	88	2199
2026-01-10 12:09:56.75	327.85	77.87	-35.4	-46.3	3.4	7612915	88	2086
2026-01-10 12:09:57.15	328.13	77.64	-35.5	-46.4	3.5	7569274	88	2109
2026-01-10 12:09:57.55	328.40	77.40	-35.5	-46.1	3.5	7602996	88	2032
2026-01-10 12:09:57.95	328.66	77.17	-35.4	-46.6	3.2	7575225	88	2162
2026-01-10 12:09:58.35	328.90	76.94	-35.4	-46.2	3.5	7601776	88	2062
2026-01-10 12:09:58.76	329.15	76.70	-35.4	-45.6	3.4	7657012	88	1946
2026-01-10 12:09:59.16	329.38	76.47	-35.4	-46.1	3.5	7597961	88	2055
2026-01-10 12:09:59.56	329.60	76.24	-35.4	-45.5	3.4	7633361	88	1924
2026-01-10 12:09:59.96	329.81	76.00	-35.3	-46.0	3.5	7567443	88	2048
2026-01-10 12:10:00.36	330.02	75.77	-35.4	-45.6	3.4	7638549	88	1940
2026-01-10 12:10:00.77	330.23	75.53	-35.4	-46.1	3.5	7564239	88	2058
2026-01-10 12:10:01.17	330.42	75.30	-35.4	-45.7	3.4	7605438	88	1946
2026-01-10 12:10:01.57	330.61	75.07	-35.4	-46.4	3.5	7582244	88	2102
2026-01-10 12:10:01.97	330.79	74.84	-35.5	-45.8	3.4	7641754	88	1961
2026-01-10 12:10:02.37	330.97	74.61	-35.4	-46.9	3.5	7566375	88	2238
2026-01-10 12:10:02.78	331.14	74.37	-35.3	-46.3	3.4	7613220	88	2113
2026-01-10 12:10:03.18	331.31	74.14	-35.3	-46.8	3.5	7552337	88	2255
2026-01-10 12:10:03.58	331.47	73.92	-35.2	-46.4	3.4	7600708	88	2148
2026-01-10 12:10:03.98	331.62	73.69	-35.2	-46.7	3.5	7615356	88	2250
2026-01-10 12:10:04.38	331.78	73.46	-35.1	-46.1	3.4	7627258	88	2108
2026-01-10 12:10:04.79	331.93	73.22	-35.1	-46.4	3.5	7564239	88	2216
2026-01-10 12:10:05.19	332.07	72.99	-35.0	-46.1	3.5	7592010	88	2133
2026-01-10 12:10:05.59	332.21	72.77	-35.0	-46.3	3.2	7567443	88	2205
2026-01-10 12:10:05.99	332.34	72.54	-35.0	-45.9	3.5	7601470	88	2104
2026-01-10 12:10:06.40	332.48	72.31	-35.0	-45.1	3.4	7649993	88	1919
2026-01-10 12:10:06.80	332.61	72.08	-35.0	-45.7	3.5	7576141	88	2060
2026-01-10 12:10:07.20	332.73	71.85	-35.0	-44.8	3.4	7639617	88	1850
2026-01-10 12:10:07.60	332.85	71.63	-35.0	-45.2	3.5	7564239	88	1933
2026-01-10 12:10:08.00	332.97	71.40	-35.0	-44.4	3.4	7619934	88	1775
2026-01-10 12:10:08.41	333.09	71.17	-35.0	-45.0	3.5	7580413	88	1907
2026-01-10 12:10:08.81	333.20	70.95	-35.0	-44.1	3.4	7637786	88	1701
2026-01-10 12:10:09.21	333.31	70.72	-35.0	-44.7	3.5	7581024	88	1820
2026-01-10 12:10:09.61	333.42	70.50	-35.1	-45.4	3.4	7588958	88	1952
2026-01-10 12:10:10.01	333.52	70.28	-35.1	-46.0	3.5	7570495	88	2094

#Closed at: 2026-01-10 12:10:10