passes_logs/2025/01/02/XPeterburg/XPeterburg__20250102_092920_FENGYUN_3F_rec.log

#Pass ID: 20250102_092920_FENGYUN 3F
#Satellite: FENGYUN 3F
#Configuration: FENGYUN 3F
#Start time: 2025-01-02 09:29:16

#Version: 1.5.20200625
#Station: XPeterburg
#Location: 30.318091 lon 59.932769 lat
#TLE: 1 57490U 23111A   24362.10123181  .00000257  00000+0  14143-3 0  9996
#TLE: 2 57490  98.7496  69.2589 0000397 146.4022 213.7180 14.19963369 72649

#Time	Az	El	Level	Level2	SNR	BER	Gain	Gain2
2025-01-02 09:29:16.35	331.61	68.84	-38.7	-40.7	3.3	8373321	95	6216
2025-01-02 09:29:16.55	331.40	68.90	-37.1	-59.6	2.8	6449054	46	65534
2025-01-02 09:29:16.75	331.18	68.95	-38.0	-51.0	3.5	8320175	73	21896
2025-01-02 09:29:16.96	330.96	69.01	-38.4	-41.0	3.3	8409553	93	6611
2025-01-02 09:29:17.16	330.75	69.07	-38.3	-40.7	3.3	8409553	93	6471
2025-01-02 09:29:17.36	330.53	69.13	-38.3	-42.0	3.6	8393634	93	7528
2025-01-02 09:29:17.56	330.31	69.18	-38.3	-41.4	3.6	8417587	94	7030
2025-01-02 09:29:17.76	330.10	69.24	-38.2	-40.1	3.4	8373619	94	6120
2025-01-02 09:29:17.96	329.88	69.29	-38.2	-39.7	3.3	8409187	94	5840
2025-01-02 09:29:18.16	329.66	69.35	-38.1	-41.0	3.6	8393760	94	6869
2025-01-02 09:29:18.36	329.43	69.40	-38.1	-41.0	3.6	8372108	94	6892
2025-01-02 09:29:18.56	329.21	69.46	-38.0	-39.8	3.4	8426719	94	6015
2025-01-02 09:29:18.76	328.99	69.51	-38.0	-39.1	3.3	8426719	94	5586
2025-01-02 09:29:18.97	328.75	69.57	-37.8	-38.6	3.3	8393016	94	5399
2025-01-02 09:29:19.17	328.52	69.62	-37.8	-40.3	3.6	8395271	93	6576
2025-01-02 09:29:19.37	328.29	69.68	-37.6	-39.1	3.5	8424121	93	5833
2025-01-02 09:29:19.57	328.06	69.73	-37.5	-38.2	3.4	8415252	93	5305
2025-01-02 09:29:19.77	327.83	69.78	-37.6	-38.3	3.4	8396816	93	5357
2025-01-02 09:29:19.97	327.60	69.84	-37.6	-39.8	3.6	8404918	93	6351
2025-01-02 09:29:20.17	327.37	69.89	-37.7	-39.4	3.6	8433620	93	6029
2025-01-02 09:29:20.37	327.13	69.94	-37.7	-38.8	3.5	8433620	93	5587
2025-01-02 09:29:20.57	326.90	69.99	-37.8	-38.9	3.4	8405685	93	5586
2025-01-02 09:29:20.77	326.66	70.05	-37.8	-40.2	3.6	8374877	93	6556
2025-01-02 09:29:20.97	326.42	70.10	-37.7	-40.0	3.7	8417369	93	6370
2025-01-02 09:29:21.18	326.17	70.15	-37.7	-38.8	3.5	8426856	93	5620
2025-01-02 09:29:21.38	325.92	70.20	-37.7	-38.6	3.5	8396049	93	5467
2025-01-02 09:29:21.58	325.68	70.25	-37.6	-39.8	3.6	8383266	93	6346
2025-01-02 09:29:21.78	325.44	70.30	-37.6	-39.9	3.6	8428447	93	6367
2025-01-02 09:29:21.98	325.19	70.35	-37.7	-38.8	3.6	8417495	93	5587
2025-01-02 09:29:22.18	324.94	70.40	-37.7	-38.5	3.5	8417495	93	5408
2025-01-02 09:29:22.38	324.70	70.45	-37.7	-38.5	3.5	8384445	93	5432
2025-01-02 09:29:22.58	324.45	70.50	-37.7	-40.1	3.6	8381217	93	6475
2025-01-02 09:29:22.78	324.20	70.55	-37.7	-39.2	3.6	8438919	93	5851
2025-01-02 09:29:22.99	323.93	70.60	-37.6	-38.4	3.5	8414302	93	5348
2025-01-02 09:29:23.19	323.68	70.65	-37.7	-38.6	3.5	8387626	93	5487
2025-01-02 09:29:23.39	323.42	70.69	-37.7	-39.9	3.6	8399791	93	6338
2025-01-02 09:29:23.59	323.17	70.74	-37.7	-39.3	3.7	8419338	93	5939
2025-01-02 09:29:23.79	322.91	70.79	-37.7	-38.7	3.5	8419338	93	5525
2025-01-02 09:29:23.99	322.65	70.84	-37.7	-38.6	3.5	8391174	93	5446
2025-01-02 09:29:24.19	322.39	70.88	-37.7	-39.9	3.6	8385395	93	6345
2025-01-02 09:29:24.39	322.13	70.93	-37.6	-39.5	3.8	8413089	93	6130
2025-01-02 09:29:24.60	321.85	70.98	-37.6	-38.4	3.6	8435611	93	5441
2025-01-02 09:29:24.80	321.59	71.02	-37.4	-37.8	3.6	8390567	93	5116
2025-01-02 09:29:25.00	321.32	71.07	-37.4	-37.5	3.6	8361557	93	5021
2025-01-02 09:29:25.20	321.05	71.11	-37.4	-37.6	3.7	8370803	93	5077
2025-01-02 09:29:25.40	320.78	71.15	-37.4	-37.5	3.7	8346942	93	5031
2025-01-02 09:29:25.60	320.51	71.20	-37.6	-39.5	3.7	8346942	93	6154
2025-01-02 09:29:25.80	320.24	71.24	-37.6	-39.8	3.6	8381263	93	6305
2025-01-02 09:29:26.00	319.97	71.28	-37.7	-39.1	3.6	8422096	93	5734
2025-01-02 09:29:26.20	319.70	71.33	-37.9	-39.0	3.4	8404861	93	5616
2025-01-02 09:29:26.40	319.42	71.37	-38.0	-40.8	3.6	8381607	93	6824
2025-01-02 09:29:26.60	319.14	71.41	-38.1	-41.2	3.6	8414691	93	7058
2025-01-02 09:29:26.81	318.85	71.45	-38.1	-40.2	3.4	8421604	93	6238
2025-01-02 09:29:27.01	318.57	71.49	-38.1	-39.9	3.3	8398372	93	6035
2025-01-02 09:29:27.21	318.29	71.53	-38.2	-40.1	3.3	8395053	93	6124
2025-01-02 09:29:27.41	318.01	71.57	-38.2	-41.5	3.6	8428424	93	7215
2025-01-02 09:29:27.61	317.73	71.61	-38.1	-40.6	3.4	8428424	93	6525
2025-01-02 09:29:27.81	317.44	71.65	-38.0	-39.7	3.3	8432647	93	5933
2025-01-02 09:29:28.01	317.16	71.69	-38.0	-39.5	3.3	8395030	93	5872
2025-01-02 09:29:28.21	316.87	71.73	-37.9	-40.6	3.6	8391357	93	6719
2025-01-02 09:29:28.41	316.58	71.77	-37.8	-39.8	3.6	8439983	93	6184
2025-01-02 09:29:28.61	316.29	71.81	-37.8	-38.9	3.5	8423320	93	5592
2025-01-02 09:29:28.82	315.99	71.85	-37.8	-38.9	3.5	8383769	93	5597
2025-01-02 09:29:29.02	315.69	71.88	-37.8	-40.3	3.6	8395465	93	6550
2025-01-02 09:29:29.22	315.40	71.92	-37.8	-39.9	3.7	8395465	93	6335
2025-01-02 09:29:29.42	315.11	71.95	-37.7	-38.8	3.6	8435165	93	5573
2025-01-02 09:29:29.62	314.81	71.99	-37.6	-38.2	3.6	8388061	93	5280
2025-01-02 09:29:29.82	314.51	72.02	-37.5	-39.4	3.7	8375907	93	6122
2025-01-02 09:29:30.02	314.21	72.06	-37.5	-39.5	3.6	8396392	93	6191
2025-01-02 09:29:30.22	313.91	72.09	-37.7	-38.9	3.6	8409130	93	5699
2025-01-02 09:29:30.42	313.61	72.13	-37.9	-39.1	3.5	8389457	93	5652
2025-01-02 09:29:30.62	313.31	72.16	-38.1	-39.8	3.4	8390625	93	6009
2025-01-02 09:29:30.83	312.99	72.19	-38.3	-41.9	3.6	8419063	93	7465
2025-01-02 09:29:31.03	312.69	72.23	-38.3	-41.2	3.4	8419063	93	6847
2025-01-02 09:29:31.23	312.38	72.26	-38.3	-40.5	3.3	8430496	93	6372
2025-01-02 09:29:31.43	312.08	72.29	-38.1	-40.0	3.3	8398899	93	6080
2025-01-02 09:29:31.63	311.77	72.32	-38.0	-41.0	3.6	8396232	93	6963
2025-01-02 09:29:31.83	311.46	72.35	-38.1	-40.7	3.6	8436264	93	6670
2025-01-02 09:29:32.03	311.15	72.38	-38.2	-40.2	3.4	8365596	93	6199
2025-01-02 09:29:32.23	310.84	72.41	-38.3	-40.4	3.3	8394779	93	6254
2025-01-02 09:29:32.43	310.53	72.44	-38.2	-41.3	3.6	8355846	94	7042
2025-01-02 09:29:32.63	310.21	72.47	-38.4	-42.0	3.6	8355846	94	7393
2025-01-02 09:29:32.83	309.90	72.49	-38.5	-41.1	3.4	8448303	94	6673
2025-01-02 09:29:33.04	309.57	72.52	-38.5	-41.1	3.3	8407768	94	6630
2025-01-02 09:29:33.24	309.25	72.55	-38.5	-41.0	3.3	8391918	94	6574
2025-01-02 09:29:33.44	308.93	72.58	-38.5	-42.4	3.6	8418468	94	7728
2025-01-02 09:29:33.64	308.62	72.60	-38.5	-41.6	3.4	8453750	94	7020
2025-01-02 09:29:33.84	308.30	72.63	-38.5	-41.0	3.3	8415470	94	6574
2025-01-02 09:29:34.04	307.98	72.65	-38.5	-41.0	3.3	8404632	94	6562
2025-01-02 09:29:34.24	307.65	72.68	-38.5	-42.4	3.6	8412963	94	7716
2025-01-02 09:29:34.44	307.33	72.70	-38.8	-42.1	3.5	8412963	95	7234
2025-01-02 09:29:34.64	307.01	72.72	-38.8	-41.3	3.3	8388656	95	6532
2025-01-02 09:29:34.84	306.68	72.75	-38.8	-41.0	3.3	8406063	95	6360
2025-01-02 09:29:35.04	306.36	72.77	-38.7	-42.3	3.6	8393749	95	7452
2025-01-02 09:29:35.25	306.02	72.79	-38.6	-42.0	3.6	8381618	95	7272
2025-01-02 09:29:35.45	305.69	72.81	-38.7	-41.0	3.4	8438541	95	6429
2025-01-02 09:29:35.65	305.36	72.83	-38.6	-40.7	3.3	8408809	95	6242
2025-01-02 09:29:35.85	305.03	72.85	-38.6	-42.1	3.6	8397399	95	7310
2025-01-02 09:29:36.05	304.70	72.87	-38.6	-41.9	3.6	8397399	95	7220
2025-01-02 09:29:36.25	304.37	72.89	-38.6	-40.6	3.4	8448326	95	6212
2025-01-02 09:29:36.45	304.04	72.91	-38.5	-40.2	3.3	8421535	95	5986
2025-01-02 09:29:36.65	303.71	72.93	-38.5	-41.6	3.6	8410205	95	7042
2025-01-02 09:29:36.85	303.38	72.95	-38.5	-41.5	3.6	8412002	95	6960
2025-01-02 09:29:37.06	303.03	72.96	-38.5	-40.3	3.4	8436824	95	6100
2025-01-02 09:29:37.26	302.69	72.98	-38.5	-39.9	3.3	8409702	95	5788
2025-01-02 09:29:37.46	302.36	72.99	-38.4	-39.6	3.3	8404140	95	5687
2025-01-02 09:29:37.66	302.02	73.01	-38.3	-41.0	3.6	8429603	95	6667
2025-01-02 09:29:37.86	301.69	73.02	-38.3	-39.9	3.5	8440406	95	5921
2025-01-02 09:29:38.06	301.35	73.04	-38.3	-39.4	3.3	8440406	95	5589
2025-01-02 09:29:38.26	301.02	73.05	-38.4	-39.6	3.3	8393966	95	5634
2025-01-02 09:29:38.46	300.68	73.06	-38.5	-41.3	3.6	8391494	95	6827
2025-01-02 09:29:38.66	300.34	73.08	-38.6	-41.1	3.5	8443176	95	6552
2025-01-02 09:29:38.86	300.00	73.09	-38.7	-40.6	3.3	8441642	95	6164
2025-01-02 09:29:39.06	299.66	73.10	-38.7	-40.8	3.3	8396118	95	6264
2025-01-02 09:29:39.26	299.32	73.11	-38.8	-42.4	3.6	8399791	95	7485
2025-01-02 09:29:39.47	298.97	73.12	-38.7	-42.0	3.6	8444824	95	7165
2025-01-02 09:29:39.67	298.63	73.13	-38.7	-40.9	3.4	8426239	95	6316
2025-01-02 09:29:39.87	298.28	73.14	-38.6	-40.4	3.3	8426239	95	6030
2025-01-02 09:29:40.07	297.94	73.15	-38.6	-41.7	3.6	8394481	95	7036
2025-01-02 09:29:40.27	297.60	73.16	-38.6	-41.6	3.6	8411613	95	6972
2025-01-02 09:29:40.47	297.26	73.16	-38.6	-40.7	3.4	8438953	95	6252
2025-01-02 09:29:40.67	296.92	73.17	-38.6	-40.2	3.3	8416831	95	5969
2025-01-02 09:29:40.87	296.58	73.18	-38.6	-40.4	3.3	8395626	95	6051
2025-01-02 09:29:41.07	296.23	73.18	-38.6	-41.9	3.6	8417083	95	7145
2025-01-02 09:29:41.28	295.87	73.19	-38.6	-41.2	3.5	8375278	95	6663
2025-01-02 09:29:41.48	295.53	73.19	-38.5	-40.4	3.3	8375278	95	6096
2025-01-02 09:29:41.68	295.19	73.19	-38.6	-40.4	3.3	8402835	95	6078
2025-01-02 09:29:41.88	294.84	73.20	-38.6	-41.7	3.6	8401977	95	7049
2025-01-02 09:29:42.08	294.50	73.20	-38.6	-41.5	3.5	8367691	95	6811
2025-01-02 09:29:42.28	294.16	73.20	-38.6	-40.5	3.3	8426250	95	6133
2025-01-02 09:29:42.48	293.81	73.20	-38.7	-40.7	3.3	8402103	95	6167
2025-01-02 09:29:42.68	293.47	73.20	-38.8	-42.4	3.6	8400375	95	7432
2025-01-02 09:29:42.88	293.13	73.20	-38.8	-42.4	3.6	8439571	95	7404
2025-01-02 09:29:43.08	292.78	73.20	-38.8	-41.4	3.4	8439571	95	6638
2025-01-02 09:29:43.29	292.42	73.20	-38.8	-40.9	3.3	8418720	95	6257
2025-01-02 09:29:43.49	292.08	73.20	-38.8	-40.9	3.3	8403430	95	6249
2025-01-02 09:29:43.69	291.73	73.20	-38.8	-42.3	3.6	8400386	95	7390
2025-01-02 09:29:43.89	291.39	73.20	-38.8	-41.6	3.4	8440509	95	6789
2025-01-02 09:29:44.09	291.05	73.19	-38.9	-41.1	3.3	8421936	95	6339
2025-01-02 09:29:44.29	290.70	73.19	-38.9	-41.1	3.3	8385944	95	6335
2025-01-02 09:29:44.49	290.36	73.19	-38.9	-42.6	3.6	8425884	95	7565
2025-01-02 09:29:44.69	290.02	73.18	-38.9	-42.1	3.5	8440555	95	7091
2025-01-02 09:29:44.89	289.68	73.18	-38.9	-41.2	3.3	8440555	95	6440
2025-01-02 09:29:45.09	289.33	73.17	-38.9	-41.2	3.3	8400592	95	6428
2025-01-02 09:29:45.29	288.99	73.16	-39.0	-42.8	3.6	8399768	95	7627
2025-01-02 09:29:45.50	288.63	73.15	-38.9	-42.6	3.6	8427921	95	7490
2025-01-02 09:29:45.70	288.29	73.15	-38.9	-41.6	3.4	8439571	95	6678
2025-01-02 09:29:45.90	287.95	73.14	-38.9	-41.4	3.3	8402481	95	6567
2025-01-02 09:29:46.10	287.61	73.13	-38.9	-42.8	3.6	8389125	95	7673
2025-01-02 09:29:46.30	287.27	73.12	-38.9	-42.8	3.6	8440795	95	7731
2025-01-02 09:29:46.50	286.93	73.11	-39.0	-41.6	3.4	8440795	96	6638
2025-01-02 09:29:46.70	286.59	73.10	-38.9	-40.8	3.3	8370620	96	6135
2025-01-02 09:29:46.90	286.25	73.09	-38.8	-42.5	3.6	8395992	95	7532
2025-01-02 09:29:47.10	285.91	73.08	-38.7	-42.1	3.6	8357002	95	7335
2025-01-02 09:29:47.30	285.57	73.06	-38.8	-41.4	3.4	8462333	95	6633
2025-01-02 09:29:47.51	285.22	73.05	-38.7	-40.7	3.3	8365413	95	6149
2025-01-02 09:29:47.71	284.88	73.04	-38.7	-40.8	3.3	8393371	95	6222
2025-01-02 09:29:47.91	284.55	73.02	-38.6	-42.0	3.6	8351795	95	7267
2025-01-02 09:29:48.11	284.21	73.01	-38.7	-41.7	3.5	8445304	95	6993
2025-01-02 09:29:48.31	283.88	72.99	-38.7	-41.0	3.3	8428539	95	6402
2025-01-02 09:29:48.51	283.54	72.98	-38.7	-41.0	3.3	8393096	95	6376
2025-01-02 09:29:48.71	283.21	72.96	-38.8	-42.5	3.6	8393096	95	7600
2025-01-02 09:29:48.91	282.87	72.94	-38.8	-42.6	3.6	8404975	95	7624
2025-01-02 09:29:49.11	282.54	72.93	-38.8	-41.6	3.4	8439525	95	6789
2025-01-02 09:29:49.32	282.19	72.91	-38.8	-41.2	3.3	8416088	95	6492
2025-01-02 09:29:49.52	281.86	72.89	-38.8	-41.1	3.3	8382717	95	6406
2025-01-02 09:29:49.72	281.53	72.87	-38.8	-42.5	3.6	8419258	95	7542
2025-01-02 09:29:49.92	281.20	72.85	-38.8	-41.6	3.4	8443084	95	6803
2025-01-02 09:29:50.12	280.87	72.83	-38.8	-41.1	3.3	8406177	95	6398
2025-01-02 09:29:50.32	280.55	72.81	-38.8	-41.0	3.3	8406177	95	6363
2025-01-02 09:29:50.52	280.22	72.79	-38.8	-42.5	3.6	8382007	95	7564
2025-01-02 09:29:50.72	279.89	72.77	-38.8	-42.0	3.5	8418754	95	7141
2025-01-02 09:29:50.92	279.57	72.74	-38.8	-41.2	3.3	8440097	95	6473
2025-01-02 09:29:51.13	279.23	72.72	-38.8	-41.1	3.3	8397754	95	6360
2025-01-02 09:29:51.33	278.90	72.70	-38.8	-42.6	3.6	8395923	95	7606
2025-01-02 09:29:51.53	278.58	72.67	-38.8	-42.3	3.6	8453865	95	7352
2025-01-02 09:29:51.73	278.26	72.65	-38.8	-41.5	3.4	8435302	95	6655
2025-01-02 09:29:51.93	277.94	72.62	-38.8	-41.2	3.3	8435302	95	6452
2025-01-02 09:29:52.13	277.62	72.60	-38.8	-42.6	3.6	8398956	95	7654
2025-01-02 09:29:52.33	277.30	72.57	-38.8	-42.7	3.6	8403419	95	7667
2025-01-02 09:29:52.53	276.98	72.55	-38.9	-41.2	3.4	8392856	96	6441
2025-01-02 09:29:52.73	276.67	72.52	-38.9	-40.8	3.3	8424934	96	6117
2025-01-02 09:29:52.93	276.35	72.49	-38.8	-40.7	3.3	8389926	96	6082
2025-01-02 09:29:53.14	276.02	72.46	-38.8	-42.5	3.6	8359176	95	7600
2025-01-02 09:29:53.34	275.71	72.43	-38.8	-41.8	3.5	8437168	95	6991
2025-01-02 09:29:53.54	275.40	72.40	-38.8	-41.1	3.3	8403957	95	6460
2025-01-02 09:29:53.74	275.09	72.37	-38.8	-41.1	3.3	8403957	95	6471
2025-01-02 09:29:53.94	274.78	72.34	-38.8	-42.7	3.6	8388725	95	7738
2025-01-02 09:29:54.14	274.47	72.31	-38.8	-42.4	3.6	8420127	95	7487
2025-01-02 09:29:54.34	274.16	72.28	-38.8	-41.4	3.4	8433986	95	6634
2025-01-02 09:29:54.54	273.85	72.25	-38.7	-41.1	3.3	8405502	95	6469
2025-01-02 09:29:54.74	273.55	72.22	-38.7	-42.5	3.6	8382671	95	7577
2025-01-02 09:29:54.94	273.24	72.19	-38.7	-42.5	3.6	8433345	95	7556
2025-01-02 09:29:55.15	272.92	72.15	-38.7	-41.3	3.4	8434696	95	6628
2025-01-02 09:29:55.35	272.62	72.12	-38.7	-40.9	3.3	8434696	95	6312
2025-01-02 09:29:55.55	272.32	72.09	-38.7	-40.9	3.3	8393280	95	6343
2025-01-02 09:29:55.75	272.02	72.05	-38.8	-42.4	3.6	8391860	95	7516
2025-01-02 09:29:55.95	271.72	72.02	-38.8	-41.7	3.4	8438232	95	6927
2025-01-02 09:29:56.15	271.43	71.98	-38.8	-41.0	3.3	8434055	95	6362
2025-01-02 09:29:56.35	271.13	71.95	-38.8	-41.0	3.3	8400981	95	6384
2025-01-02 09:29:56.55	270.84	71.91	-38.8	-42.4	3.6	8398200	95	7501
2025-01-02 09:29:56.75	270.54	71.87	-38.8	-41.6	3.4	8445659	95	6831
2025-01-02 09:29:56.95	270.25	71.84	-38.8	-41.0	3.3	8408786	95	6381
2025-01-02 09:29:57.16	269.94	71.80	-38.8	-41.1	3.3	8387832	95	6417
2025-01-02 09:29:57.36	269.65	71.76	-38.8	-42.5	3.6	8387832	95	7566
2025-01-02 09:29:57.56	269.37	71.72	-38.8	-41.9	3.5	8427154	95	7072
2025-01-02 09:29:57.76	269.08	71.68	-38.8	-41.1	3.3	8442592	95	6451
2025-01-02 09:29:57.96	268.79	71.65	-38.8	-41.2	3.3	8397274	95	6463
2025-01-02 09:29:58.16	268.51	71.61	-38.8	-42.5	3.6	8394550	95	7572
2025-01-02 09:29:58.36	268.23	71.57	-38.8	-42.0	3.6	8425083	96	7104
2025-01-02 09:29:58.56	267.94	71.53	-38.8	-40.8	3.4	8368927	96	6206
2025-01-02 09:29:58.76	267.66	71.49	-38.8	-41.1	3.3	8408912	95	6368
2025-01-02 09:29:58.96	267.38	71.44	-38.7	-42.4	3.6	8341472	95	7500
2025-01-02 09:29:59.17	267.09	71.40	-38.7	-42.3	3.6	8341472	95	7427
2025-01-02 09:29:59.37	266.82	71.36	-38.7	-41.4	3.4	8439056	95	6704
2025-01-02 09:29:59.57	266.54	71.32	-38.7	-40.9	3.3	8431732	95	6334
2025-01-02 09:29:59.77	266.27	71.27	-38.7	-41.0	3.3	8398097	95	6409
2025-01-02 09:29:59.97	265.99	71.23	-38.7	-42.5	3.6	8405982	95	7541
2025-01-02 09:30:00.17	265.72	71.19	-38.7	-41.8	3.4	8426158	95	6970
2025-01-02 09:30:00.37	265.45	71.14	-38.7	-41.0	3.3	8402824	95	6413
2025-01-02 09:30:00.57	265.18	71.10	-38.7	-41.0	3.3	8392684	95	6399
2025-01-02 09:30:00.77	264.92	71.06	-38.7	-42.4	3.6	8392684	95	7537
2025-01-02 09:30:00.98	264.64	71.01	-38.7	-41.8	3.5	8422691	95	7033
2025-01-02 09:30:01.18	264.37	70.96	-38.7	-41.0	3.3	8438209	95	6404
2025-01-02 09:30:01.38	264.11	70.92	-38.6	-40.9	3.3	8406715	95	6374
2025-01-02 09:30:01.58	263.85	70.87	-38.7	-42.4	3.6	8388565	95	7590
2025-01-02 09:30:01.78	263.59	70.82	-38.6	-42.2	3.6	8443347	95	7416
2025-01-02 09:30:01.98	263.33	70.78	-38.6	-41.2	3.4	8374603	95	6583
2025-01-02 09:30:02.18	263.07	70.73	-38.5	-40.5	3.3	8404460	95	6187
2025-01-02 09:30:02.38	262.81	70.68	-38.8	-42.5	3.6	8340019	95	7594
2025-01-02 09:30:02.58	262.56	70.64	-38.8	-42.7	3.6	8340019	95	7706
2025-01-02 09:30:02.78	262.31	70.59	-38.8	-41.6	3.4	8457138	95	6829
2025-01-02 09:30:02.99	262.04	70.54	-38.8	-41.2	3.3	8427108	95	6479
2025-01-02 09:30:03.19	261.79	70.49	-38.8	-41.1	3.3	8400959	95	6398
2025-01-02 09:30:03.39	261.54	70.44	-38.9	-42.8	3.6	8418548	95	7718
2025-01-02 09:30:03.59	261.29	70.39	-39.0	-42.0	3.4	8433940	95	6976
2025-01-02 09:30:03.79	261.05	70.34	-39.0	-41.5	3.3	8408168	95	6579
2025-01-02 09:30:03.99	260.80	70.29	-39.0	-41.4	3.3	8386940	95	6492
2025-01-02 09:30:04.19	260.56	70.24	-39.0	-42.8	3.6	8386940	95	7643
2025-01-02 09:30:04.39	260.31	70.19	-39.0	-42.3	3.5	8424076	95	7221
2025-01-02 09:30:04.59	260.07	70.14	-39.0	-41.6	3.3	8433917	95	6613
2025-01-02 09:30:04.79	259.83	70.09	-39.0	-41.7	3.3	8410125	95	6665

#Closed at: 2025-01-02 09:30:04