passes_logs/2025/01/02/XPeterburg/XPeterburg__20250102_192144_FENGYUN_3F_rec.log

#Pass ID: 20250102_192144_FENGYUN 3F
#Satellite: FENGYUN 3F
#Configuration: FENGYUN 3F
#Start time: 2025-01-02 19:21:39

#Version: 1.5.20200625
#Station: XPeterburg
#Location: 30.318091 lon 59.932769 lat
#TLE: 1 57490U 23111A   24362.10123181  .00000257  00000+0  14143-3 0  9996
#TLE: 2 57490  98.7496  69.2589 0000397 146.4022 213.7180 14.19963369 72649

#Time	Az	El	Level	Level2	SNR	BER	Gain	Gain2
2025-01-02 19:21:39.17	196.30	68.12	-39.3	-42.3	3.3	8378597	95	6931
2025-01-02 19:21:39.57	196.59	68.28	-38.6	-53.0	3.5	8201534	73	25750
2025-01-02 19:21:39.97	196.88	68.43	-39.2	-42.3	3.3	8414772	95	6987
2025-01-02 19:21:40.37	197.18	68.58	-39.2	-43.1	3.6	8353946	96	7682
2025-01-02 19:21:40.78	197.49	68.73	-39.2	-41.7	3.3	8410732	96	6543
2025-01-02 19:21:41.18	197.79	68.89	-39.2	-43.1	3.6	8445121	96	7694
2025-01-02 19:21:41.58	198.11	69.04	-39.2	-41.7	3.3	8428298	96	6530
2025-01-02 19:21:41.98	198.42	69.19	-39.2	-43.2	3.6	8406875	96	7762
2025-01-02 19:21:42.38	198.74	69.34	-39.2	-41.7	3.3	8413547	96	6560
2025-01-02 19:21:42.79	199.08	69.49	-39.2	-43.1	3.6	8406864	96	7695
2025-01-02 19:21:43.19	199.41	69.64	-39.2	-41.8	3.3	8417415	96	6595
2025-01-02 19:21:43.59	199.75	69.79	-39.2	-43.1	3.6	8398910	96	7700
2025-01-02 19:21:43.99	200.09	69.94	-39.2	-41.9	3.4	8434181	96	6700
2025-01-02 19:21:44.39	200.44	70.09	-39.2	-43.1	3.6	8386894	96	7708
2025-01-02 19:21:44.80	200.80	70.24	-39.2	-42.1	3.4	8425163	96	6845
2025-01-02 19:21:45.20	201.16	70.38	-39.2	-41.7	3.3	8395305	96	6562
2025-01-02 19:21:45.60	201.53	70.53	-39.3	-42.7	3.5	8428150	96	7242
2025-01-02 19:21:46.00	201.90	70.68	-39.3	-41.8	3.3	8399997	96	6580
2025-01-02 19:21:46.41	202.28	70.83	-39.4	-42.7	3.6	8399642	97	7206
2025-01-02 19:21:46.81	202.67	70.97	-39.4	-41.5	3.3	8410846	97	6310
2025-01-02 19:21:47.21	203.06	71.12	-39.2	-43.1	3.6	8360767	96	7719
2025-01-02 19:21:47.61	203.45	71.26	-39.2	-41.6	3.3	8409152	96	6503
2025-01-02 19:21:48.01	203.85	71.40	-39.2	-43.1	3.6	8429935	96	7644
2025-01-02 19:21:48.41	204.26	71.54	-39.2	-41.7	3.3	8406246	96	6549
2025-01-02 19:21:48.82	204.69	71.69	-39.2	-43.1	3.6	8405422	96	7691
2025-01-02 19:21:49.22	205.11	71.83	-39.2	-41.6	3.3	8428997	96	6500
2025-01-02 19:21:49.62	205.54	71.97	-39.2	-43.2	3.6	8398601	96	7748
2025-01-02 19:21:50.02	205.98	72.11	-39.2	-41.7	3.3	8424133	96	6568
2025-01-02 19:21:50.42	206.42	72.25	-39.2	-43.1	3.6	8391277	96	7683
2025-01-02 19:21:50.83	206.88	72.39	-39.2	-41.9	3.3	8444377	96	6725
2025-01-02 19:21:51.23	207.34	72.53	-39.2	-43.1	3.6	8400604	96	7689
2025-01-02 19:21:51.63	207.81	72.66	-39.2	-42.1	3.4	8441814	96	6855
2025-01-02 19:21:52.03	208.28	72.80	-39.2	-41.6	3.3	8401428	96	6501
2025-01-02 19:21:52.44	208.78	72.93	-39.2	-42.2	3.4	8442981	96	6960
2025-01-02 19:21:52.84	209.27	73.07	-39.2	-41.7	3.3	8390396	96	6562
2025-01-02 19:21:53.24	209.76	73.20	-39.2	-42.5	3.5	8444412	96	7207
2025-01-02 19:21:53.64	210.27	73.33	-39.2	-41.7	3.3	8402664	96	6563
2025-01-02 19:21:54.04	210.78	73.46	-39.2	-42.9	3.6	8423915	96	7514
2025-01-02 19:21:54.45	211.32	73.59	-39.2	-41.7	3.3	8409976	96	6542
2025-01-02 19:21:54.85	211.85	73.72	-39.2	-43.2	3.6	8430118	96	7744
2025-01-02 19:21:55.25	212.39	73.85	-39.2	-41.7	3.3	8398372	96	6553
2025-01-02 19:21:55.65	212.94	73.97	-39.2	-43.1	3.6	8393291	96	7729
2025-01-02 19:21:56.05	213.50	74.09	-39.2	-41.7	3.3	8430244	96	6544
2025-01-02 19:21:56.45	214.07	74.22	-39.2	-43.1	3.6	8409175	96	7738
2025-01-02 19:21:56.86	214.66	74.34	-39.2	-41.8	3.3	8412151	96	6586
2025-01-02 19:21:57.26	215.24	74.46	-39.2	-43.2	3.6	8397605	96	7768
2025-01-02 19:21:57.66	215.84	74.58	-39.2	-41.9	3.4	8450763	96	6681
2025-01-02 19:21:58.06	216.44	74.69	-39.2	-43.1	3.6	8391323	96	7738
2025-01-02 19:21:58.47	217.07	74.81	-39.2	-41.9	3.4	8428585	96	6676
2025-01-02 19:21:58.87	217.70	74.93	-39.2	-43.1	3.6	8379009	96	7725
2025-01-02 19:21:59.27	218.33	75.04	-39.2	-42.1	3.4	8444389	96	6830
2025-01-02 19:21:59.67	218.97	75.15	-39.2	-41.6	3.3	8394309	96	6501
2025-01-02 19:22:00.07	219.63	75.26	-39.2	-42.3	3.4	8447834	96	7016
2025-01-02 19:22:00.48	220.31	75.36	-39.2	-41.7	3.3	8398418	96	6544
2025-01-02 19:22:00.88	220.98	75.47	-39.3	-42.4	3.5	8404380	97	6997
2025-01-02 19:22:01.28	221.66	75.57	-39.3	-41.4	3.3	8397846	97	6229
2025-01-02 19:22:01.68	222.36	75.67	-39.2	-43.1	3.6	8364669	96	7643
2025-01-02 19:22:02.08	223.06	75.77	-39.2	-41.7	3.3	8394882	96	6565
2025-01-02 19:22:02.49	223.79	75.87	-39.2	-43.1	3.6	8443233	96	7678
2025-01-02 19:22:02.89	224.52	75.96	-39.2	-41.7	3.3	8414749	96	6530
2025-01-02 19:22:03.29	225.25	76.06	-39.2	-43.1	3.6	8403831	96	7721
2025-01-02 19:22:03.69	225.99	76.15	-39.2	-41.7	3.3	8407539	96	6524
2025-01-02 19:22:04.09	226.75	76.24	-39.2	-43.1	3.6	8408695	96	7699
2025-01-02 19:22:04.50	227.53	76.32	-39.2	-41.8	3.3	8442501	96	6615
2025-01-02 19:22:04.90	228.31	76.41	-39.2	-43.2	3.6	8395843	96	7735
2025-01-02 19:22:05.30	229.09	76.49	-39.2	-41.9	3.4	8439994	96	6698
2025-01-02 19:22:05.70	229.88	76.57	-39.2	-43.1	3.6	8401210	96	7697
2025-01-02 19:22:06.10	230.68	76.64	-39.2	-42.0	3.4	8440944	96	6804
2025-01-02 19:22:06.50	231.50	76.72	-39.2	-41.7	3.3	8392513	96	6515
2025-01-02 19:22:06.91	232.34	76.79	-39.2	-42.3	3.4	8441734	96	7012
2025-01-02 19:22:07.31	233.17	76.86	-39.2	-41.6	3.3	8395568	96	6508
2025-01-02 19:22:07.71	234.01	76.92	-39.2	-42.3	3.4	8434455	96	6987
2025-01-02 19:22:08.11	234.85	76.99	-39.2	-41.7	3.3	8405845	96	6542
2025-01-02 19:22:08.52	235.73	77.05	-39.2	-42.5	3.5	8435256	96	7226
2025-01-02 19:22:08.92	236.60	77.11	-39.2	-41.7	3.3	8411201	96	6523
2025-01-02 19:22:09.32	237.47	77.16	-39.2	-42.9	3.6	8447856	96	7548
2025-01-02 19:22:09.72	238.35	77.21	-39.2	-41.7	3.3	8426753	96	6569
2025-01-02 19:22:10.13	239.25	77.26	-39.2	-43.1	3.6	8406692	96	7669
2025-01-02 19:22:10.53	240.15	77.31	-39.2	-41.7	3.3	8411121	96	6526
2025-01-02 19:22:10.93	241.05	77.35	-39.2	-43.1	3.6	8424602	96	7702
2025-01-02 19:22:11.33	241.95	77.39	-39.2	-41.7	3.3	8389263	96	6527
2025-01-02 19:22:11.73	242.86	77.43	-39.2	-43.1	3.6	8377853	96	7706
2025-01-02 19:22:12.14	243.80	77.46	-39.2	-41.8	3.3	8430450	96	6603
2025-01-02 19:22:12.54	244.72	77.49	-39.2	-43.1	3.6	8385223	96	7719
2025-01-02 19:22:12.94	245.65	77.52	-39.2	-42.0	3.4	8423961	96	6738
2025-01-02 19:22:13.34	246.58	77.54	-39.2	-43.1	3.6	8382591	96	7646
2025-01-02 19:22:13.74	247.51	77.56	-39.2	-42.0	3.4	8445476	96	6800
2025-01-02 19:22:14.15	248.47	77.58	-39.2	-41.7	3.3	8389137	96	6527
2025-01-02 19:22:14.55	249.41	77.59	-39.2	-42.3	3.4	8436355	96	6983
2025-01-02 19:22:14.95	250.35	77.61	-39.2	-41.7	3.3	8402801	96	6548
2025-01-02 19:22:15.35	251.29	77.61	-39.4	-42.5	3.5	8440830	97	7041
2025-01-02 19:22:15.75	252.23	77.62	-39.4	-41.5	3.3	8399036	97	6263
2025-01-02 19:22:16.16	253.20	77.62	-39.2	-43.1	3.6	8456474	96	7657
2025-01-02 19:22:16.56	254.14	77.62	-39.2	-41.7	3.3	8424705	96	6553
2025-01-02 19:22:16.96	255.08	77.61	-39.2	-43.1	3.6	8405857	96	7730
2025-01-02 19:22:17.36	256.03	77.60	-39.2	-41.7	3.3	8404026	96	6551
2025-01-02 19:22:17.76	256.97	77.59	-39.2	-43.1	3.6	8433940	96	7707
2025-01-02 19:22:18.17	257.93	77.58	-39.2	-41.7	3.3	8403259	96	6529
2025-01-02 19:22:18.57	258.86	77.56	-39.2	-43.2	3.6	8397079	96	7766
2025-01-02 19:22:18.97	259.79	77.54	-39.2	-41.7	3.3	8433437	96	6534
2025-01-02 19:22:19.37	260.72	77.51	-39.2	-43.2	3.6	8387329	96	7735
2025-01-02 19:22:19.77	261.65	77.48	-39.2	-41.8	3.3	8406326	96	6586
2025-01-02 19:22:20.18	262.59	77.45	-39.2	-43.1	3.6	8409770	96	7696
2025-01-02 19:22:20.58	263.50	77.42	-39.2	-41.9	3.4	8452205	96	6725
2025-01-02 19:22:20.98	264.41	77.38	-39.2	-43.2	3.6	8388851	96	7733
2025-01-02 19:22:21.38	265.32	77.34	-39.2	-42.1	3.4	8438426	96	6815
2025-01-02 19:22:21.78	266.21	77.30	-39.2	-41.7	3.3	8396015	96	6549
2025-01-02 19:22:22.18	267.11	77.25	-39.2	-42.3	3.4	8442867	96	7006
2025-01-02 19:22:22.59	268.01	77.20	-39.2	-41.7	3.3	8394687	96	6543
2025-01-02 19:22:22.99	268.89	77.15	-39.2	-42.7	3.5	8443508	96	7328
2025-01-02 19:22:23.39	269.76	77.09	-39.2	-41.7	3.3	8395626	96	6518
2025-01-02 19:22:23.79	270.62	77.03	-39.2	-42.9	3.6	8417942	96	7552
2025-01-02 19:22:24.20	271.49	76.97	-39.2	-41.7	3.3	8408638	96	6540
2025-01-02 19:22:24.60	272.34	76.91	-39.2	-43.1	3.6	8410583	96	7727
2025-01-02 19:22:25.00	273.18	76.84	-39.2	-41.7	3.3	8397708	96	6525
2025-01-02 19:22:25.40	274.00	76.77	-39.2	-43.2	3.6	8387065	96	7725
2025-01-02 19:22:25.80	274.82	76.70	-39.2	-41.8	3.3	8427120	96	6585
2025-01-02 19:22:26.21	275.65	76.63	-39.2	-43.1	3.6	8392021	96	7712
2025-01-02 19:22:26.61	276.45	76.55	-39.2	-41.8	3.3	8425048	96	6625
2025-01-02 19:22:27.01	277.24	76.47	-39.2	-43.1	3.6	8392787	96	7725
2025-01-02 19:22:27.41	278.02	76.39	-39.2	-41.9	3.4	8451953	96	6695
2025-01-02 19:22:27.81	278.79	76.30	-39.3	-43.2	3.6	8394859	96	7770
2025-01-02 19:22:28.22	279.57	76.22	-39.2	-42.0	3.4	8439880	96	6723
2025-01-02 19:22:28.62	280.32	76.13	-39.2	-43.2	3.6	8393188	96	7769
2025-01-02 19:22:29.02	281.07	76.04	-39.2	-42.1	3.4	8435256	96	6842
2025-01-02 19:22:29.42	281.80	75.94	-39.2	-41.7	3.3	8394630	96	6572
2025-01-02 19:22:29.83	282.54	75.85	-39.3	-42.3	3.4	8448440	96	7002
2025-01-02 19:22:30.23	283.25	75.75	-39.2	-41.6	3.3	8384181	96	6484
2025-01-02 19:22:30.63	283.95	75.65	-39.2	-42.6	3.5	8443485	96	7218
2025-01-02 19:22:31.03	284.64	75.55	-39.2	-41.8	3.3	8398910	96	6579
2025-01-02 19:22:31.43	285.32	75.45	-39.2	-42.9	3.6	8428459	96	7529
2025-01-02 19:22:31.84	286.01	75.34	-39.2	-41.7	3.3	8399368	96	6553
2025-01-02 19:22:32.24	286.67	75.23	-39.3	-43.2	3.6	8446231	96	7768
2025-01-02 19:22:32.64	287.32	75.12	-39.2	-41.7	3.3	8426433	96	6549
2025-01-02 19:22:33.04	287.96	75.01	-39.2	-43.1	3.6	8409301	96	7709
2025-01-02 19:22:33.44	288.59	74.90	-39.2	-41.7	3.3	8412677	96	6516
2025-01-02 19:22:33.85	289.23	74.78	-39.2	-43.1	3.6	8412792	96	7697
2025-01-02 19:22:34.25	289.84	74.67	-39.2	-41.8	3.3	8449882	96	6642
2025-01-02 19:22:34.65	290.44	74.55	-39.2	-43.1	3.6	8388862	96	7697
2025-01-02 19:22:35.05	291.03	74.43	-39.2	-41.9	3.4	8434650	96	6697
2025-01-02 19:22:35.46	291.63	74.31	-39.2	-43.1	3.6	8387386	96	7677
2025-01-02 19:22:35.86	292.20	74.19	-39.2	-42.1	3.4	8428401	96	6846
2025-01-02 19:22:36.26	292.77	74.07	-39.2	-41.7	3.3	8400135	96	6543
2025-01-02 19:22:36.66	293.32	73.94	-39.2	-42.3	3.4	8451267	96	7022
2025-01-02 19:22:37.06	293.87	73.82	-39.2	-41.7	3.3	8390476	96	6516
2025-01-02 19:22:37.47	294.42	73.69	-39.2	-42.3	3.4	8434799	96	7019
2025-01-02 19:22:37.87	294.95	73.56	-39.2	-41.7	3.3	8422943	96	6540
2025-01-02 19:22:38.27	295.47	73.43	-39.3	-42.7	3.5	8430622	96	7323
2025-01-02 19:22:38.67	295.98	73.30	-39.2	-41.8	3.3	8398509	96	6573
2025-01-02 19:22:39.07	296.49	73.17	-39.2	-42.9	3.6	8451084	96	7519
2025-01-02 19:22:39.48	296.99	73.04	-39.2	-41.7	3.3	8391735	96	6565
2025-01-02 19:22:39.88	297.48	72.90	-39.2	-43.1	3.6	8398258	96	7660
2025-01-02 19:22:40.28	297.96	72.77	-39.2	-41.7	3.3	8416831	96	6542
2025-01-02 19:22:40.68	298.43	72.64	-39.2	-43.2	3.6	8411041	96	7772
2025-01-02 19:22:41.08	298.90	72.50	-39.2	-41.7	3.3	8405948	96	6534
2025-01-02 19:22:41.49	299.36	72.36	-39.2	-43.2	3.6	8388622	96	7783
2025-01-02 19:22:41.89	299.81	72.22	-39.3	-41.8	3.3	8442192	96	6621
2025-01-02 19:22:42.29	300.25	72.08	-39.2	-43.2	3.6	8393875	96	7777
2025-01-02 19:22:42.69	300.69	71.94	-39.2	-42.0	3.4	8428916	96	6729
2025-01-02 19:22:43.10	301.13	71.80	-39.2	-43.1	3.6	8394321	96	7668
2025-01-02 19:22:43.50	301.55	71.66	-39.2	-42.2	3.4	8434684	96	6910
2025-01-02 19:22:43.90	301.96	71.52	-39.2	-41.8	3.3	8388896	96	6574
2025-01-02 19:22:44.30	302.37	71.38	-39.3	-42.4	3.4	8447673	96	7027
2025-01-02 19:22:44.70	302.77	71.23	-39.3	-41.8	3.3	8412609	96	6579
2025-01-02 19:22:45.10	303.16	71.09	-39.2	-42.6	3.5	8441104	96	7267
2025-01-02 19:22:45.51	303.56	70.94	-39.2	-41.7	3.3	8404140	96	6502
2025-01-02 19:22:45.91	303.94	70.80	-39.2	-42.9	3.6	8430633	96	7575
2025-01-02 19:22:46.31	304.32	70.65	-39.2	-41.5	3.3	8360412	96	6448
2025-01-02 19:22:46.71	304.68	70.51	-39.3	-42.7	3.6	8349071	97	7300
2025-01-02 19:22:47.12	305.06	70.36	-39.3	-41.7	3.3	8415035	96	6507

#Closed at: 2025-01-02 19:22:47