passes_logs/2026/01/05/XPeterburg/XPeterburg__20260105_121337_AQUA_rec.log

#Pass ID: 20260105_121337_AQUA
#Satellite: AQUA
#Configuration: AQUA
#Start time: 2026-01-05 12:13:30

#Version: 1.5.20200625
#Station: XPeterburg
#Location: 30.318091 lon 59.932769 lat
#TLE: 1 27424U 02022A   25358.80455341  .00000926  00000+0  19561-3 0  9999
#TLE: 2 27424  98.4055 319.8810 0001809 102.1365 317.5475 14.61757572257795

#Time	Az	El	Level	Level2	SNR	BER	Gain	Gain2
2026-01-05 12:13:30.91	184.95	66.74	-33.0	-36.5	3.9	7544860	84	899
2026-01-05 12:13:31.31	185.18	66.95	-32.5	-36.6	7.9	6440887	82	955
2026-01-05 12:13:31.72	185.41	67.15	-32.4	-35.7	8.6	6447296	82	879
2026-01-05 12:13:32.12	185.65	67.35	-32.4	-35.6	8.6	6461486	82	867
2026-01-05 12:13:32.52	185.89	67.55	-32.5	-35.9	8.3	6521911	82	884
2026-01-05 12:13:32.92	186.13	67.75	-32.7	-36.7	7.7	6624908	82	949
2026-01-05 12:13:33.32	186.38	67.96	-33.0	-37.5	6.6	6821899	83	1001
2026-01-05 12:13:33.73	186.64	68.16	-33.3	-38.7	5.6	7047424	83	1114
2026-01-05 12:13:34.13	186.90	68.36	-33.5	-40.3	5.2	7092590	83	1302
2026-01-05 12:13:34.53	187.16	68.56	-33.6	-40.0	4.7	7242736	84	1241
2026-01-05 12:13:34.93	187.43	68.77	-33.8	-41.6	4.2	7316894	84	1470
2026-01-05 12:13:35.33	187.71	68.97	-33.9	-42.2	3.9	7512969	84	1543
2026-01-05 12:13:35.73	187.99	69.17	-34.0	-42.9	3.6	7527618	85	1655
2026-01-05 12:13:36.14	188.28	69.38	-34.1	-42.4	3.7	7571258	85	1557
2026-01-05 12:13:36.54	188.58	69.58	-34.1	-42.8	3.6	7557220	85	1638
2026-01-05 12:13:36.94	188.88	69.78	-34.0	-41.9	3.8	7470092	85	1484
2026-01-05 12:13:37.34	189.18	69.98	-34.0	-42.4	3.6	7510681	85	1574
2026-01-05 12:13:37.74	189.49	70.18	-34.0	-41.9	3.9	7468109	85	1490
2026-01-05 12:13:38.15	189.82	70.39	-34.0	-42.7	3.6	7520904	85	1616
2026-01-05 12:13:38.55	190.15	70.59	-34.0	-42.2	3.8	7483520	85	1540
2026-01-05 12:13:38.95	190.48	70.79	-34.1	-43.2	3.5	7562255	85	1702
2026-01-05 12:13:39.35	190.82	70.99	-34.1	-43.1	3.6	7518157	85	1674
2026-01-05 12:13:39.75	191.17	71.19	-34.1	-43.2	3.3	7554779	85	1708
2026-01-05 12:13:40.15	191.53	71.39	-34.1	-42.9	3.8	7529449	85	1651
2026-01-05 12:13:40.56	191.90	71.60	-34.1	-42.8	3.5	7629394	85	1625
2026-01-05 12:13:40.96	192.27	71.80	-34.2	-43.5	3.7	7559661	85	1744
2026-01-05 12:13:41.36	192.66	71.99	-34.2	-43.0	3.4	7592468	85	1651
2026-01-05 12:13:41.76	193.05	72.19	-34.2	-43.6	3.6	7495727	85	1756
2026-01-05 12:13:42.16	193.45	72.39	-34.2	-43.3	3.4	7643737	85	1688
2026-01-05 12:13:42.57	193.87	72.59	-34.2	-43.7	3.7	7483978	85	1770
2026-01-05 12:13:42.97	194.29	72.79	-34.3	-43.5	3.4	7635192	85	1719
2026-01-05 12:13:43.37	194.72	72.99	-34.3	-44.1	3.5	7558288	85	1843
2026-01-05 12:13:43.77	195.16	73.18	-34.3	-43.5	3.6	7612609	85	1731
2026-01-05 12:13:44.17	195.61	73.38	-34.3	-44.3	3.5	7524108	85	1874
2026-01-05 12:13:44.58	196.09	73.58	-34.3	-43.6	3.6	7529907	85	1729
2026-01-05 12:13:44.98	196.56	73.77	-34.4	-44.1	3.5	7568206	85	1835
2026-01-05 12:13:45.38	197.05	73.97	-34.4	-43.6	3.6	7538452	85	1725
2026-01-05 12:13:45.78	197.55	74.16	-34.4	-44.0	3.5	7550506	85	1810
2026-01-05 12:13:46.18	198.06	74.35	-34.4	-43.6	3.6	7522430	85	1731
2026-01-05 12:13:46.59	198.60	74.55	-34.4	-44.2	3.5	7581024	85	1831
2026-01-05 12:13:46.99	199.14	74.74	-34.5	-44.0	3.7	7610626	85	1790
2026-01-05 12:13:47.39	199.69	74.93	-34.4	-44.3	3.3	7529754	85	1856
2026-01-05 12:13:47.79	200.26	75.11	-34.4	-44.2	3.6	7552185	85	1830
2026-01-05 12:13:48.19	200.84	75.30	-34.5	-43.9	3.4	7630004	85	1769
2026-01-05 12:13:48.59	201.44	75.49	-34.4	-44.4	3.7	7514801	85	1879
2026-01-05 12:13:48.99	202.06	75.67	-34.4	-43.6	3.4	7632598	85	1721
2026-01-05 12:13:49.40	202.70	75.86	-34.3	-44.1	3.8	7480773	85	1832
2026-01-05 12:13:49.80	203.35	76.04	-34.3	-43.2	3.8	7487030	85	1655
2026-01-05 12:13:50.20	204.02	76.22	-34.3	-43.6	3.6	7425384	85	1742
2026-01-05 12:13:50.60	204.70	76.40	-34.3	-42.8	4.0	7424774	85	1599
2026-01-05 12:13:51.00	205.40	76.57	-34.3	-43.4	3.6	7533264	85	1696
2026-01-05 12:13:51.41	206.14	76.75	-34.3	-42.6	4.1	7427520	85	1551
2026-01-05 12:13:51.81	206.89	76.92	-34.3	-43.3	3.6	7518157	85	1686
2026-01-05 12:13:52.21	207.65	77.09	-34.3	-42.7	4.2	7402343	85	1579
2026-01-05 12:13:52.61	208.43	77.26	-34.3	-42.9	3.6	7511901	85	1610
2026-01-05 12:13:53.01	209.23	77.43	-34.2	-41.8	4.5	7277221	85	1437
2026-01-05 12:13:53.42	210.08	77.60	-34.2	-42.2	3.7	7505645	85	1497
2026-01-05 12:13:53.82	210.93	77.76	-34.1	-41.1	4.9	7188110	85	1335
2026-01-05 12:13:54.22	211.80	77.92	-34.1	-41.5	3.8	7471313	85	1403
2026-01-05 12:13:54.62	212.70	78.07	-34.1	-41.2	4.9	7163543	85	1345
2026-01-05 12:13:55.02	213.62	78.23	-34.1	-41.0	4.2	7446746	85	1332
2026-01-05 12:13:55.42	214.57	78.38	-34.1	-40.9	5.1	7122192	85	1304
2026-01-05 12:13:55.83	215.56	78.53	-34.1	-40.5	4.9	7170410	85	1254
2026-01-05 12:13:56.23	216.56	78.67	-34.1	-40.8	5.1	7097930	85	1298
2026-01-05 12:13:56.63	217.58	78.82	-34.0	-40.1	5.2	7089080	85	1206
2026-01-05 12:13:57.03	218.63	78.95	-34.0	-40.4	5.3	7005004	85	1249
2026-01-05 12:13:57.43	219.70	79.09	-33.9	-39.7	5.5	7025146	85	1155
2026-01-05 12:13:57.84	220.83	79.22	-33.9	-39.1	5.6	7028503	85	1090
2026-01-05 12:13:58.24	221.96	79.35	-33.9	-39.1	5.7	7052612	85	1089
2026-01-05 12:13:58.64	223.12	79.47	-33.9	-40.2	4.1	6970214	85	1233
2026-01-05 12:13:59.04	224.30	79.59	-34.0	-40.0	5.4	7052307	85	1196
2026-01-05 12:13:59.44	225.51	79.70	-34.1	-40.9	3.9	7462310	85	1306
2026-01-05 12:13:59.85	226.78	79.81	-34.0	-40.1	5.3	7059936	85	1200
2026-01-05 12:14:00.25	228.05	79.92	-34.0	-39.6	5.4	7086791	85	1141
2026-01-05 12:14:00.65	229.34	80.02	-34.0	-40.7	3.8	7410583	85	1285
2026-01-05 12:14:01.05	230.66	80.11	-34.0	-40.0	5.3	7047271	85	1198
2026-01-05 12:14:01.45	232.00	80.20	-34.0	-39.6	5.5	7048950	85	1132
2026-01-05 12:14:01.85	233.37	80.28	-34.0	-40.3	5.0	6995086	85	1228
2026-01-05 12:14:02.26	234.79	80.37	-34.1	-40.0	5.3	7103576	85	1183
2026-01-05 12:14:02.66	236.21	80.44	-34.1	-39.7	5.3	7098083	85	1148
2026-01-05 12:14:03.06	237.64	80.50	-34.1	-40.8	3.8	7453918	85	1293
2026-01-05 12:14:03.46	239.09	80.57	-34.1	-40.5	5.3	7063598	85	1243
2026-01-05 12:14:03.86	240.57	80.62	-34.0	-39.7	5.4	7093048	85	1145
2026-01-05 12:14:04.27	242.09	80.67	-34.1	-40.4	5.4	7068786	85	1238
2026-01-05 12:14:04.67	243.60	80.71	-34.1	-40.2	5.1	7149353	85	1205
2026-01-05 12:14:05.07	245.11	80.75	-34.1	-40.7	5.0	7060852	85	1275
2026-01-05 12:14:05.47	246.64	80.78	-34.1	-39.9	5.3	7051239	85	1171
2026-01-05 12:14:05.87	248.18	80.80	-34.1	-40.5	4.0	7382965	85	1254
2026-01-05 12:14:06.28	249.76	80.82	-34.1	-40.1	5.3	7069396	85	1190
2026-01-05 12:14:06.68	251.31	80.83	-34.1	-40.6	3.9	7470855	85	1262
2026-01-05 12:14:07.08	252.86	80.83	-34.1	-40.0	5.4	7054748	85	1176
2026-01-05 12:14:07.48	254.41	80.83	-34.1	-39.8	5.3	7082824	85	1145
2026-01-05 12:14:07.88	255.96	80.82	-34.1	-40.5	5.4	7069854	85	1246
2026-01-05 12:14:08.28	257.50	80.80	-34.2	-40.2	5.2	7087249	85	1204
2026-01-05 12:14:08.69	259.08	80.78	-34.2	-41.2	4.9	7144927	85	1334
2026-01-05 12:14:09.09	260.60	80.75	-34.3	-41.3	4.7	7258300	85	1335
2026-01-05 12:14:09.49	262.12	80.71	-34.4	-42.3	3.8	7415771	85	1481
2026-01-05 12:14:09.89	263.63	80.67	-34.3	-41.6	4.6	7271728	85	1372
2026-01-05 12:14:10.29	265.11	80.62	-34.3	-41.9	3.8	7491607	85	1431
2026-01-05 12:14:10.69	266.59	80.57	-34.3	-41.4	4.7	7250671	85	1344
2026-01-05 12:14:11.10	268.08	80.51	-34.4	-42.2	3.7	7527313	85	1478
2026-01-05 12:14:11.50	269.51	80.44	-34.4	-42.2	4.4	7312774	85	1461
2026-01-05 12:14:11.90	270.92	80.37	-34.5	-43.0	3.7	7515869	85	1594
2026-01-05 12:14:12.30	272.31	80.29	-34.4	-42.1	4.2	7357788	86	1443
2026-01-05 12:14:12.70	273.68	80.20	-34.4	-42.4	3.7	7514495	86	1504
2026-01-05 12:14:13.11	275.06	80.11	-34.4	-42.0	4.4	7331237	86	1429
2026-01-05 12:14:13.51	276.37	80.02	-34.5	-42.8	3.7	7526397	86	1565
2026-01-05 12:14:13.91	277.67	79.92	-34.5	-42.6	4.1	7358398	86	1518
2026-01-05 12:14:14.31	278.93	79.81	-34.5	-42.3	4.0	7483367	86	1472
2026-01-05 12:14:14.71	280.17	79.71	-34.6	-43.3	4.0	7444915	86	1632
2026-01-05 12:14:15.11	281.38	79.59	-34.6	-43.1	3.7	7520294	86	1590
2026-01-05 12:14:15.52	282.59	79.47	-34.6	-44.0	3.8	7477416	86	1764
2026-01-05 12:14:15.92	283.75	79.35	-34.6	-43.5	3.4	7578277	86	1661
2026-01-05 12:14:16.32	284.88	79.22	-34.6	-44.0	3.7	7499542	86	1769
2026-01-05 12:14:16.72	285.98	79.09	-34.6	-43.4	3.7	7571411	86	1640
2026-01-05 12:14:17.12	287.06	78.96	-34.6	-44.2	3.6	7524871	86	1805
2026-01-05 12:14:17.53	288.13	78.82	-34.6	-44.0	3.6	7609558	86	1755
2026-01-05 12:14:17.93	289.15	78.68	-34.7	-44.9	3.5	7570953	86	1943
2026-01-05 12:14:18.33	290.15	78.53	-34.7	-44.7	3.4	7617034	86	1896
2026-01-05 12:14:18.73	291.12	78.38	-34.7	-45.3	3.5	7566375	86	2021
2026-01-05 12:14:19.13	292.07	78.23	-34.7	-44.9	3.5	7615661	86	1941
2026-01-05 12:14:19.53	292.99	78.08	-34.7	-45.5	3.5	7520141	86	2073
2026-01-05 12:14:19.94	293.90	77.92	-34.7	-45.5	3.5	7605285	86	2057
2026-01-05 12:14:20.34	294.78	77.76	-34.7	-45.8	3.5	7549438	86	2147
2026-01-05 12:14:20.74	295.63	77.60	-34.8	-45.6	3.5	7601470	86	2081
2026-01-05 12:14:21.14	296.45	77.44	-34.7	-46.0	3.3	7608032	86	2182
2026-01-05 12:14:21.54	297.26	77.27	-34.7	-45.8	3.5	7576904	86	2138
2026-01-05 12:14:21.94	298.04	77.10	-34.8	-45.5	3.4	7645416	86	2050
2026-01-05 12:14:22.35	298.82	76.93	-34.8	-46.1	3.5	7570037	86	2209
2026-01-05 12:14:22.75	299.56	76.75	-34.8	-45.8	3.4	7666473	86	2122
2026-01-05 12:14:23.15	300.28	76.58	-34.8	-46.3	3.5	7613677	86	2255
2026-01-05 12:14:23.55	300.99	76.40	-34.8	-45.6	3.4	7636108	86	2079
2026-01-05 12:14:23.95	301.67	76.23	-34.8	-46.2	3.5	7557983	86	2219
2026-01-05 12:14:24.35	302.34	76.05	-34.8	-45.5	3.4	7653656	86	2058
2026-01-05 12:14:24.76	303.00	75.86	-34.8	-46.2	3.5	7582397	86	2207
2026-01-05 12:14:25.16	303.63	75.68	-34.8	-45.6	3.4	7648010	86	2080
2026-01-05 12:14:25.56	304.25	75.50	-34.8	-46.0	3.5	7546081	86	2168
2026-01-05 12:14:25.96	304.84	75.31	-34.8	-45.6	3.5	7623901	86	2080
2026-01-05 12:14:26.36	305.43	75.13	-34.7	-46.0	3.5	7563629	86	2182
2026-01-05 12:14:26.77	306.01	74.93	-34.7	-45.6	3.4	7593231	86	2084
2026-01-05 12:14:27.17	306.56	74.74	-34.7	-45.8	3.5	7550964	86	2163
2026-01-05 12:14:27.57	307.10	74.56	-34.6	-45.1	3.5	7603912	86	1995
2026-01-05 12:14:27.97	307.63	74.36	-34.6	-45.2	3.4	7600708	86	2014
2026-01-05 12:14:28.37	308.14	74.17	-34.6	-44.6	3.5	7568206	86	1889
2026-01-05 12:14:28.78	308.65	73.98	-34.6	-44.8	3.2	7555847	86	1941
2026-01-05 12:14:29.18	309.14	73.78	-34.5	-44.4	3.5	7581329	86	1872
2026-01-05 12:14:29.58	309.61	73.59	-34.5	-44.1	3.4	7631072	86	1810
2026-01-05 12:14:29.98	310.08	73.40	-34.5	-44.8	3.5	7553253	86	1941
2026-01-05 12:14:30.38	310.53	73.20	-34.5	-44.2	3.4	7623748	86	1824
2026-01-05 12:14:30.78	310.97	73.00	-34.5	-44.6	3.5	7596740	86	1908
2026-01-05 12:14:31.19	311.41	72.80	-34.5	-43.6	3.4	7639770	86	1706
2026-01-05 12:14:31.59	311.83	72.61	-34.4	-43.8	3.5	7554016	86	1756
2026-01-05 12:14:31.99	312.24	72.41	-34.4	-42.7	3.7	7537078	86	1556
2026-01-05 12:14:32.39	312.64	72.21	-34.3	-42.8	3.6	7536926	86	1595
2026-01-05 12:14:32.79	313.03	72.01	-34.2	-41.8	4.0	7427215	86	1443
2026-01-05 12:14:33.20	313.43	71.81	-34.1	-42.1	3.6	7525329	86	1501
2026-01-05 12:14:33.60	313.80	71.61	-34.1	-41.4	4.3	7342224	86	1388
2026-01-05 12:14:34.00	314.17	71.41	-34.1	-42.0	3.7	7519226	86	1495
2026-01-05 12:14:34.40	314.52	71.21	-34.0	-41.3	4.4	7298278	86	1380
2026-01-05 12:14:34.80	314.87	71.01	-34.0	-41.5	3.7	7487640	86	1419
2026-01-05 12:14:35.20	315.21	70.81	-33.9	-40.5	4.7	7205810	86	1285
2026-01-05 12:14:35.61	315.55	70.60	-33.8	-40.3	4.5	7484283	86	1267
2026-01-05 12:14:36.01	315.88	70.40	-33.8	-40.1	5.0	7161712	86	1228
2026-01-05 12:14:36.41	316.20	70.20	-34.4	-44.1	3.4	7606048	86	1819

#Closed at: 2026-01-05 12:14:36