passes_logs/2026/01/03/R4.6S_Anadyr/R4.6S_Anadyr__20260103_022434_FENGYUN_3D_rec.log

#Pass ID: 20260103_022434_FENGYUN 3D
#Satellite: FENGYUN 3D
#Configuration: FENGYUN 3D
#almurnet v.1.7.20251203
#Start time: 2026-01-03 02:24:35

#Version: 2.2.20231116
#Station: R4.6S_Anadyr
#Location: 177.4865 lon 64.73178 lat
#TLE: 1 43010U 17072A   26002.81102625  .00000200  00000+0  11640-3 0  9996
#TLE: 2 43010  98.9911 334.4394 0001899 131.0556 229.0784 14.19692049421526

#Time	Az	El	Level	Level2	SNR	BER	BlckErr	Temp	State	Recorded	gain1	gain2
2026-01-03 02:24:35.34	160.45	0.07	-50.0	-64.9	3.6	1.51e+00	0	36	0	0	60	63745
2026-01-03 02:24:39.37	160.49	0.31	-49.9	-62.0	3.6	8.45e-01	0	38	104	0	60	45703
2026-01-03 02:24:43.41	160.53	0.56	-49.8	-61.9	3.6	8.45e-01	0	38	104	0	60	45059
2026-01-03 02:24:47.45	160.57	0.80	-49.3	-61.4	3.6	8.46e-01	0	38	104	0	60	42456
2026-01-03 02:24:51.49	160.60	1.05	-48.3	-60.4	3.6	8.46e-01	0	38	104	0	60	38011
2026-01-03 02:24:55.53	160.64	1.30	-48.3	-60.3	3.6	8.45e-01	0	38	104	0	60	37288
2026-01-03 02:24:59.57	160.68	1.56	-48.2	-59.4	3.6	8.45e-01	0	38	104	0	60	33878
2026-01-03 02:25:03.61	160.72	1.81	-48.2	-59.6	3.6	8.46e-01	0	38	104	0	60	34692
2026-01-03 02:25:07.65	160.76	2.07	-48.3	-60.3	3.6	8.45e-01	0	38	104	0	60	37580
2026-01-03 02:25:11.69	160.80	2.33	-48.2	-60.2	3.6	8.45e-01	0	38	104	0	60	37019
2026-01-03 02:25:15.73	160.84	2.60	-48.1	-58.2	3.6	8.45e-01	0	38	104	0	60	29411
2026-01-03 02:25:19.77	160.88	2.86	-48.1	-58.9	3.6	8.46e-01	0	38	104	0	60	31803
2026-01-03 02:25:23.81	160.93	3.13	-45.7	-49.0	10.4	2.84e-02	0	38	0	8388608	60	10226
2026-01-03 02:25:27.85	160.97	3.40	-41.0	-42.3	17.1	0.00e+00	0	38	0	30408704	56	5924
2026-01-03 02:25:31.89	161.01	3.68	-40.7	-42.0	17.4	0.00e+00	0	38	0	53477376	52	7202
2026-01-03 02:25:35.93	161.06	3.95	-47.9	-56.7	3.6	3.23e-01	0	38	104	68157440	60	24772
2026-01-03 02:25:39.97	161.10	4.23	-37.3	-38.2	20.9	0.00e+00	0	38	0	77594624	48	5859
2026-01-03 02:25:44.01	161.15	4.51	-37.3	-38.1	21.4	0.00e+00	0	38	0	99614720	46	6499
2026-01-03 02:25:48.05	161.19	4.80	-37.5	-38.4	21.2	0.00e+00	0	38	0	122683392	46	6717
2026-01-03 02:25:52.09	161.24	5.09	-36.3	-37.1	22.5	0.00e+00	0	38	0	145752064	46	5802
2026-01-03 02:25:56.14	161.29	5.38	-36.9	-37.7	22.1	0.00e+00	0	38	0	167772160	46	6187
2026-01-03 02:26:00.17	161.33	5.67	-36.4	-37.2	22.5	0.00e+00	0	39	0	190840832	46	5830
2026-01-03 02:26:04.21	161.38	5.97	-36.3	-37.1	22.6	0.00e+00	0	38	0	213909504	46	5762
2026-01-03 02:26:08.25	161.43	6.27	-35.9	-36.7	23.0	0.00e+00	0	38	0	236978176	46	5512
2026-01-03 02:26:12.30	161.48	6.58	-36.2	-37.0	22.8	0.00e+00	0	39	0	258998272	44	6402
2026-01-03 02:26:16.34	161.53	6.89	-36.4	-37.2	22.9	0.00e+00	0	38	0	282066944	44	6556
2026-01-03 02:26:20.38	161.58	7.20	-36.2	-36.9	22.8	0.00e+00	0	38	0	304087040	44	6377
2026-01-03 02:26:24.42	161.64	7.52	-36.1	-36.9	22.7	0.00e+00	0	38	0	327155712	44	6361
2026-01-03 02:26:28.46	161.69	7.84	-36.4	-37.2	22.6	0.00e+00	0	38	0	350224384	44	6569
2026-01-03 02:26:32.50	161.74	8.16	-35.6	-36.3	23.5	0.00e+00	0	39	0	372244480	44	5945
2026-01-03 02:26:36.54	161.80	8.49	-35.3	-36.1	23.6	0.00e+00	0	39	0	395313152	44	5782
2026-01-03 02:26:40.58	161.85	8.82	-35.4	-36.1	23.5	0.00e+00	0	39	0	418381824	44	5828
2026-01-03 02:26:44.62	161.91	9.16	-35.5	-36.3	23.4	0.00e+00	0	39	0	441450496	44	5917
2026-01-03 02:26:48.66	161.97	9.50	-35.2	-35.9	23.9	0.00e+00	0	38	0	463470592	44	5658
2026-01-03 02:26:52.70	162.03	9.85	-35.3	-36.0	23.8	0.00e+00	0	39	0	486539264	44	5724
2026-01-03 02:26:56.75	162.09	10.20	-35.5	-36.2	23.6	0.00e+00	0	39	0	508559360	44	5893
2026-01-03 02:27:00.79	162.15	10.56	-34.9	-35.6	24.2	0.00e+00	0	39	0	531628032	44	5447
2026-01-03 02:27:04.83	162.21	10.92	-34.9	-35.7	24.2	0.00e+00	0	39	0	554696704	44	5517
2026-01-03 02:27:08.87	162.28	11.29	-34.9	-35.6	24.2	0.00e+00	0	39	0	577765376	42	6153
2026-01-03 02:27:12.91	162.34	11.66	-34.9	-35.6	24.4	0.00e+00	0	39	0	599785472	42	6122
2026-01-03 02:27:16.95	162.41	12.04	-35.0	-35.7	24.1	0.00e+00	0	39	0	622854144	42	6237
2026-01-03 02:27:20.99	162.48	12.43	-34.6	-35.3	24.5	0.00e+00	0	39	0	645922816	42	5950
2026-01-03 02:27:25.03	162.55	12.82	-34.6	-35.3	24.6	0.00e+00	0	39	0	667942912	42	5958
2026-01-03 02:27:29.07	162.62	13.21	-34.5	-35.2	24.7	0.00e+00	0	39	0	691011584	42	5831
2026-01-03 02:27:33.11	162.69	13.62	-34.3	-34.9	24.9	0.00e+00	0	39	0	714080256	42	5694
2026-01-03 02:27:37.15	162.76	14.03	-34.1	-34.8	25.1	0.00e+00	0	39	0	736100352	42	5626
2026-01-03 02:27:41.19	162.84	14.45	-34.0	-34.7	25.2	0.00e+00	0	39	0	759169024	42	5540
2026-01-03 02:27:45.23	162.92	14.87	-33.9	-34.6	25.3	0.00e+00	0	39	0	782237696	42	5447
2026-01-03 02:27:49.27	163.00	15.30	-33.8	-34.5	25.4	0.00e+00	0	39	0	804257792	40	6054
2026-01-03 02:27:53.31	163.08	15.74	-33.4	-34.1	25.8	0.00e+00	0	39	0	827326464	40	5781
2026-01-03 02:27:57.35	163.16	16.19	-33.2	-33.9	26.0	0.00e+00	0	39	0	850395136	40	5640
2026-01-03 02:28:01.39	163.25	16.65	-33.1	-33.8	26.1	0.00e+00	0	39	0	872415232	40	5569
2026-01-03 02:28:05.43	163.33	17.11	-32.9	-33.6	26.3	0.00e+00	0	39	0	895483904	40	5482
2026-01-03 02:28:09.47	163.43	17.59	-32.8	-33.4	26.4	0.00e+00	0	39	0	918552576	38	6021
2026-01-03 02:28:13.51	163.52	18.07	-32.8	-33.4	26.6	0.00e+00	0	39	0	940572672	38	6002
2026-01-03 02:28:17.55	163.61	18.57	-32.5	-33.1	26.7	0.00e+00	0	39	0	963641344	38	5817
2026-01-03 02:28:21.59	163.71	19.07	-32.4	-33.0	26.8	0.00e+00	0	39	0	986710016	38	5752
2026-01-03 02:28:25.63	163.81	19.58	-32.3	-33.0	27.0	0.00e+00	0	39	0	1008730112	38	5698
2026-01-03 02:28:29.67	163.92	20.11	-32.1	-32.7	27.1	0.00e+00	0	39	0	1031798784	38	5561
2026-01-03 02:28:33.71	164.02	20.64	-32.0	-32.6	27.2	0.00e+00	0	39	0	1054867456	38	5491
2026-01-03 02:28:37.76	164.13	21.19	-32.1	-32.7	27.2	0.00e+00	0	39	0	1077936128	38	5533
2026-01-03 02:28:41.80	164.25	21.75	-32.1	-32.7	27.1	0.00e+00	0	39	0	1099956224	38	5523
2026-01-03 02:28:45.84	164.36	22.32	-31.9	-32.5	27.3	0.00e+00	0	39	0	1123024896	38	5428
2026-01-03 02:28:49.88	164.48	22.91	-31.6	-32.2	27.6	0.00e+00	0	39	0	1145044992	36	5871
2026-01-03 02:28:53.92	164.61	23.51	-31.4	-32.0	27.7	0.00e+00	0	39	0	1168113664	36	5745
2026-01-03 02:28:57.96	164.74	24.12	-31.5	-32.1	27.6	0.00e+00	0	39	0	1191182336	36	5814
2026-01-03 02:29:02.00	164.87	24.75	-31.5	-32.2	27.6	0.00e+00	0	39	0	1214251008	36	5831
2026-01-03 02:29:06.05	165.01	25.39	-31.7	-32.3	27.5	0.00e+00	0	39	0	1236271104	36	5930
2026-01-03 02:29:10.08	165.16	26.05	-31.3	-31.9	27.9	0.00e+00	0	39	0	1259339776	36	5658
2026-01-03 02:29:14.12	165.31	26.72	-31.3	-31.9	27.9	0.00e+00	0	39	0	1282408448	36	5693
2026-01-03 02:29:18.16	165.46	27.41	-31.2	-31.8	27.9	0.00e+00	0	39	0	1304428544	36	5630
2026-01-03 02:29:22.21	165.63	28.12	-31.5	-32.1	27.7	0.00e+00	0	39	0	1327497216	36	5780
2026-01-03 02:29:26.24	165.80	28.85	-31.1	-31.7	28.0	0.00e+00	0	39	0	1349517312	36	5532
2026-01-03 02:29:30.29	165.97	29.60	-31.1	-31.7	28.0	0.00e+00	0	39	0	1372585984	36	5532
2026-01-03 02:29:34.32	166.16	30.36	-31.3	-31.9	28.0	0.00e+00	0	39	0	1395654656	36	5643
2026-01-03 02:29:38.36	166.35	31.15	-30.9	-31.5	28.2	0.00e+00	0	39	0	1418723328	36	5380
2026-01-03 02:29:42.40	166.55	31.96	-31.1	-31.7	28.1	0.00e+00	0	39	0	1440743424	36	5536
2026-01-03 02:29:46.44	166.76	32.79	-31.0	-31.6	28.1	0.00e+00	0	39	0	1463812096	36	5472
2026-01-03 02:29:50.48	166.98	33.65	-30.3	-30.9	28.6	0.00e+00	0	39	0	1486880768	34	5656
2026-01-03 02:29:54.53	167.22	34.53	-30.4	-31.0	28.5	0.00e+00	0	39	0	1508900864	34	5739
2026-01-03 02:29:58.57	167.46	35.43	-30.8	-31.5	28.2	0.00e+00	0	39	0	1531969536	34	6046
2026-01-03 02:30:02.61	167.72	36.36	-30.6	-31.2	28.4	0.00e+00	0	39	0	1555038208	34	5865
2026-01-03 02:30:06.65	167.99	37.32	-30.5	-31.1	28.4	0.00e+00	0	39	0	1577058304	34	5773
2026-01-03 02:30:10.69	168.28	38.30	-30.7	-31.3	28.3	0.00e+00	0	39	0	1600126976	34	5962
2026-01-03 02:30:14.73	168.59	39.31	-31.0	-31.6	28.1	0.00e+00	0	39	0	1623195648	34	6147
2026-01-03 02:30:18.78	168.91	40.36	-30.5	-31.2	28.5	0.00e+00	0	39	0	1645215744	34	5834
2026-01-03 02:30:22.82	169.26	41.43	-31.2	-31.8	28.0	0.00e+00	0	39	0	1668284416	34	6257
2026-01-03 02:30:26.86	169.63	42.53	-31.0	-31.7	28.1	0.00e+00	0	39	0	1691353088	34	6192
2026-01-03 02:30:30.91	170.02	43.67	-31.1	-31.7	28.1	0.00e+00	0	39	0	1714421760	34	6206
2026-01-03 02:30:34.95	170.44	44.84	-31.1	-31.7	28.1	0.00e+00	0	39	0	1736441856	34	6204
2026-01-03 02:30:38.99	170.90	46.04	-31.5	-32.2	27.7	0.00e+00	0	39	0	1759510528	34	6551
2026-01-03 02:30:43.03	171.39	47.28	-30.9	-31.5	28.2	0.00e+00	0	39	0	1781530624	34	6060
2026-01-03 02:30:47.07	171.92	48.55	-31.0	-31.6	28.1	0.00e+00	0	39	0	1804599296	34	6149
2026-01-03 02:30:51.11	172.49	49.86	-31.4	-32.0	27.8	0.00e+00	0	39	0	1827667968	34	6438
2026-01-03 02:30:55.15	173.11	51.20	-31.9	-32.6	27.3	0.00e+00	0	39	0	1849688064	36	6114
2026-01-03 02:30:59.19	173.79	52.58	-32.4	-33.1	27.0	0.00e+00	0	39	0	1872756736	38	5800
2026-01-03 02:31:03.23	174.54	54.00	-32.0	-32.7	27.3	0.00e+00	0	39	0	1895825408	38	5509
2026-01-03 02:31:07.27	175.37	55.44	-32.3	-32.9	27.1	0.00e+00	0	39	0	1918894080	38	5690
2026-01-03 02:31:11.31	176.28	56.93	-32.1	-32.8	27.3	0.00e+00	0	39	0	1940914176	38	5577
2026-01-03 02:31:15.35	177.30	58.44	-31.5	-32.1	27.8	0.00e+00	0	39	0	1963982848	36	5820
2026-01-03 02:31:19.39	178.44	59.98	-31.2	-31.8	27.9	0.00e+00	0	39	0	1986002944	36	5616
2026-01-03 02:31:23.43	179.72	61.56	-31.2	-31.9	25.9	0.00e+00	0	39	0	2009071616	34	6335
2026-01-03 02:31:27.48	181.18	63.15	-30.4	-31.1	23.8	0.00e+00	0	39	0	2032140288	34	5803
2026-01-03 02:31:31.52	182.85	64.77	-30.3	-30.9	27.2	0.00e+00	0	39	0	2055208960	34	5690
2026-01-03 02:31:35.55	184.76	66.39	-30.3	-31.0	24.3	0.00e+00	0	39	0	2077229056	34	5739
2026-01-03 02:31:39.59	186.99	68.02	-30.1	-30.7	23.3	2.24e-04	0	39	0	2100297728	34	5553
2026-01-03 02:31:43.63	189.61	69.65	-30.1	-30.8	28.7	0.00e+00	0	39	0	2123366400	34	5575
2026-01-03 02:31:47.67	192.72	71.26	-29.8	-30.4	29.0	0.00e+00	0	39	0	2145386496	32	5988
2026-01-03 02:31:51.72	196.44	72.83	-29.6	-30.2	29.1	0.00e+00	0	39	0	2168455168	32	5878
2026-01-03 02:31:55.75	200.92	74.34	-30.1	-30.7	28.7	0.00e+00	0	39	0	2191523840	32	6237
2026-01-03 02:31:59.79	206.36	75.76	-28.7	-29.3	29.6	0.00e+00	0	39	0	2213543936	30	5952
2026-01-03 02:32:03.84	213.00	77.04	-28.9	-29.5	29.5	0.00e+00	0	39	0	2236612608	30	6083
2026-01-03 02:32:07.88	220.99	78.12	-28.9	-29.5	29.6	0.00e+00	0	39	0	2259681280	30	6079
2026-01-03 02:32:11.92	230.40	78.94	-28.4	-28.9	30.0	0.00e+00	0	39	0	2281701376	30	5661
2026-01-03 02:32:15.96	241.01	79.43	-29.3	-29.9	29.2	0.00e+00	0	39	0	2304770048	30	6360
2026-01-03 02:32:20.00	252.25	79.54	-28.9	-29.6	29.6	0.00e+00	0	39	0	2327838720	30	6142
2026-01-03 02:32:24.04	263.30	79.26	-29.0	-29.6	29.5	0.00e+00	0	39	0	2349858816	30	6126
2026-01-03 02:32:28.08	273.43	78.61	-28.9	-29.5	29.4	0.00e+00	0	39	0	2372927488	30	6092
2026-01-03 02:32:32.13	282.23	77.67	-29.0	-29.5	29.6	0.00e+00	0	39	0	2395996160	30	6093
2026-01-03 02:32:36.16	289.58	76.49	-29.2	-29.7	29.2	0.00e+00	0	39	0	2418016256	30	6212
2026-01-03 02:32:40.20	295.66	75.15	-29.3	-29.9	29.3	0.00e+00	0	39	0	2441084928	30	6341
2026-01-03 02:32:44.24	300.65	73.69	-29.6	-30.2	29.1	0.00e+00	0	39	0	2464153600	30	6583
2026-01-03 02:32:48.28	304.77	72.15	-30.2	-30.8	28.6	0.00e+00	0	39	0	2486173696	32	6256
2026-01-03 02:32:52.32	308.20	70.57	-29.6	-30.2	29.1	0.00e+00	0	39	0	2509242368	32	5879
2026-01-03 02:32:56.36	311.08	68.95	-30.3	-30.9	28.6	0.00e+00	0	39	0	2532311040	32	6354
2026-01-03 02:33:00.40	313.52	67.32	-30.3	-30.9	28.6	0.00e+00	0	39	0	2555379712	32	6333
2026-01-03 02:33:04.44	315.60	65.70	-30.1	-30.7	28.7	0.00e+00	0	39	0	2577399808	32	6222
2026-01-03 02:33:08.48	317.40	64.08	-30.3	-30.8	28.4	0.00e+00	0	39	0	2600468480	32	6288
2026-01-03 02:33:12.53	318.98	62.47	-30.6	-31.3	28.3	0.00e+00	0	39	0	2622488576	32	6632
2026-01-03 02:33:16.57	320.35	60.89	-31.0	-31.5	28.1	0.00e+00	0	39	0	2645557248	34	6092
2026-01-03 02:33:20.61	321.57	59.33	-31.4	-32.1	27.7	0.00e+00	0	39	0	2668625920	34	6537
2026-01-03 02:33:24.65	322.65	57.80	-31.4	-32.1	27.8	0.00e+00	0	39	0	2691694592	34	6488
2026-01-03 02:33:28.69	323.62	56.31	-32.2	-33.0	27.1	0.00e+00	0	39	0	2713714688	36	6395
2026-01-03 02:33:32.74	324.50	54.84	-32.2	-32.8	26.9	0.00e+00	0	39	0	2736783360	36	6273
2026-01-03 02:33:36.78	325.29	53.41	-31.8	-32.4	27.5	0.00e+00	0	39	0	2759852032	36	5986
2026-01-03 02:33:40.82	326.00	52.02	-31.8	-32.4	27.5	0.00e+00	0	39	0	2781872128	36	5982
2026-01-03 02:33:44.86	326.66	50.66	-31.6	-32.1	27.7	0.00e+00	0	39	0	2804940800	36	5817
2026-01-03 02:33:48.90	327.26	49.34	-31.5	-32.1	27.7	0.00e+00	0	39	0	2826960896	36	5788
2026-01-03 02:33:52.94	327.82	48.05	-31.3	-31.9	27.9	0.00e+00	0	39	0	2850029568	36	5686
2026-01-03 02:33:56.98	328.33	46.79	-31.6	-32.2	27.8	0.00e+00	0	39	0	2873098240	36	5830
2026-01-03 02:34:01.02	328.80	45.58	-31.0	-31.7	28.2	0.00e+00	0	39	0	2896166912	36	5509
2026-01-03 02:34:05.06	329.24	44.39	-31.1	-31.8	28.1	0.00e+00	0	39	0	2918187008	36	5568
2026-01-03 02:34:09.10	329.65	43.24	-31.2	-31.9	28.0	0.00e+00	0	39	0	2941255680	36	5675
2026-01-03 02:34:13.14	330.03	42.12	-30.6	-31.2	28.3	0.00e+00	0	39	0	2964324352	34	5847
2026-01-03 02:34:17.19	330.39	41.03	-30.4	-31.0	28.5	0.00e+00	0	39	0	2986344448	34	5720
2026-01-03 02:34:21.23	330.73	39.98	-30.4	-31.1	28.5	0.00e+00	0	39	0	3009413120	34	5819
2026-01-03 02:34:25.27	331.05	38.95	-30.6	-31.2	28.4	0.00e+00	0	39	0	3032481792	34	5840
2026-01-03 02:34:29.31	331.35	37.95	-30.6	-31.1	28.4	0.00e+00	0	39	0	3054501888	34	5822
2026-01-03 02:34:33.35	331.63	36.98	-30.6	-31.1	28.4	0.00e+00	0	39	0	3077570560	34	5828
2026-01-03 02:34:37.39	331.90	36.04	-30.7	-31.4	28.3	0.00e+00	0	39	0	3100639232	34	6007
2026-01-03 02:34:41.43	332.15	35.13	-30.8	-31.5	28.3	0.00e+00	0	39	0	3122659328	34	6076
2026-01-03 02:34:45.47	332.39	34.24	-30.9	-31.4	28.2	0.00e+00	0	39	0	3145728000	34	6018
2026-01-03 02:34:49.51	332.62	33.37	-30.7	-31.3	28.4	0.00e+00	0	39	0	3168796672	34	5939
2026-01-03 02:34:53.55	332.84	32.53	-30.6	-31.3	28.3	0.00e+00	0	39	0	3191865344	34	5939
2026-01-03 02:34:57.59	333.05	31.71	-31.0	-31.7	28.0	0.00e+00	0	39	0	3213885440	34	6244
2026-01-03 02:35:01.63	333.25	30.91	-31.1	-31.8	27.9	0.00e+00	0	39	0	3236954112	34	6291
2026-01-03 02:35:05.67	333.44	30.14	-31.0	-31.6	28.0	0.00e+00	0	39	0	3258974208	34	6128
2026-01-03 02:35:09.71	333.62	29.38	-31.2	-31.7	28.0	0.00e+00	0	39	0	3282042880	34	6225
2026-01-03 02:35:13.74	333.79	28.65	-31.2	-31.8	27.9	0.00e+00	0	39	0	3305111552	34	6257
2026-01-03 02:35:17.78	333.96	27.93	-31.1	-31.7	27.9	0.00e+00	0	39	0	3327131648	34	6200
2026-01-03 02:35:21.81	334.12	27.23	-31.0	-31.6	27.8	0.00e+00	0	39	0	3350200320	34	6145
2026-01-03 02:35:25.85	334.28	26.55	-31.1	-31.7	27.9	0.00e+00	0	39	0	3373268992	34	6177
2026-01-03 02:35:29.89	334.43	25.88	-31.2	-31.7	27.9	0.00e+00	0	39	0	3396337664	34	6241
2026-01-03 02:35:33.94	334.57	25.23	-31.3	-31.8	27.8	0.00e+00	0	39	0	3418357760	34	6281
2026-01-03 02:35:37.97	334.71	24.60	-31.4	-31.9	27.8	0.00e+00	0	40	0	3441426432	34	6371
2026-01-03 02:35:42.02	334.84	23.98	-31.8	-32.4	27.4	0.00e+00	0	39	0	3463446528	36	5967
2026-01-03 02:35:46.06	334.97	23.37	-31.8	-32.4	27.3	0.00e+00	0	39	0	3486515200	36	6014
2026-01-03 02:35:50.10	335.10	22.78	-31.8	-32.4	27.3	0.00e+00	0	39	0	3509583872	36	5990
2026-01-03 02:35:54.13	335.22	22.21	-31.9	-32.5	27.2	0.00e+00	0	39	0	3532652544	36	6066
2026-01-03 02:35:58.18	335.34	21.64	-31.9	-32.7	27.2	0.00e+00	0	39	0	3554672640	36	6180
2026-01-03 02:36:02.22	335.45	21.09	-32.2	-32.7	27.0	0.00e+00	0	39	0	3577741312	36	6238
2026-01-03 02:36:06.26	335.56	20.54	-32.3	-33.0	26.9	0.00e+00	0	40	0	3600809984	36	6440
2026-01-03 02:36:10.30	335.67	20.02	-32.5	-33.2	26.8	0.00e+00	0	39	0	3622830080	36	6555
2026-01-03 02:36:14.34	335.78	19.50	-32.6	-33.3	26.6	0.00e+00	0	39	0	3645898752	36	6673
2026-01-03 02:36:18.39	335.88	18.99	-32.6	-33.1	26.7	0.00e+00	0	39	0	3668967424	36	6522
2026-01-03 02:36:22.43	335.98	18.49	-32.7	-33.2	26.6	0.00e+00	0	40	0	3690987520	36	6613
2026-01-03 02:36:26.47	336.07	18.00	-32.8	-33.3	26.5	0.00e+00	0	39	0	3714056192	38	5946
2026-01-03 02:36:30.51	336.17	17.52	-32.9	-33.5	26.4	0.00e+00	0	39	0	3737124864	38	6044
2026-01-03 02:36:34.55	336.26	17.05	-33.1	-33.7	26.2	0.00e+00	0	39	0	3759144960	38	6206
2026-01-03 02:36:38.59	336.35	16.59	-33.2	-33.9	26.1	0.00e+00	0	39	0	3782213632	38	6381
2026-01-03 02:36:42.63	336.44	16.14	-33.6	-34.3	25.8	0.00e+00	0	39	0	3805282304	38	6651
2026-01-03 02:36:46.67	336.52	15.70	-33.7	-34.5	25.6	0.00e+00	0	39	0	3827302400	38	6788
2026-01-03 02:36:50.71	336.60	15.26	-33.8	-34.5	25.4	0.00e+00	0	39	0	3850371072	40	6037
2026-01-03 02:36:54.75	336.68	14.83	-34.0	-34.7	25.3	0.00e+00	0	40	0	3873439744	40	6244
2026-01-03 02:36:58.79	336.76	14.41	-34.3	-34.9	25.0	0.00e+00	0	40	0	3895459840	40	6352
2026-01-03 02:37:02.83	336.84	14.00	-34.4	-35.1	24.9	0.00e+00	0	40	0	3918528512	40	6477
2026-01-03 02:37:06.87	336.92	13.59	-34.5	-35.3	24.8	0.00e+00	0	40	0	3941597184	40	6644
2026-01-03 02:37:10.91	336.99	13.19	-34.4	-35.1	24.8	0.00e+00	0	39	0	3963617280	40	6474
2026-01-03 02:37:14.96	337.07	12.80	-34.4	-35.2	24.8	0.00e+00	0	39	0	3986685952	40	6548
2026-01-03 02:37:18.99	337.14	12.41	-34.4	-35.0	24.8	0.00e+00	0	39	0	4009754624	40	6464
2026-01-03 02:37:23.03	337.21	12.03	-34.5	-35.1	24.7	0.00e+00	0	40	0	4031774720	40	6501
2026-01-03 02:37:27.08	337.28	11.65	-34.5	-35.1	24.7	0.00e+00	0	40	0	4054843392	40	6534
2026-01-03 02:37:31.12	337.34	11.28	-34.7	-35.3	24.6	0.00e+00	0	40	0	4077912064	40	6636
2026-01-03 02:37:35.15	337.41	10.92	-34.8	-35.5	24.4	0.00e+00	0	40	0	4099932160	42	6098
2026-01-03 02:37:39.20	337.48	10.56	-34.7	-35.4	24.4	0.00e+00	0	40	0	4123000832	42	5977
2026-01-03 02:37:43.24	337.54	10.20	-34.9	-35.7	24.3	0.00e+00	0	40	0	4146069504	42	6180
2026-01-03 02:37:47.28	337.60	9.86	-34.9	-35.7	24.2	0.00e+00	0	40	0	4168089600	42	6204
2026-01-03 02:37:51.31	337.66	9.51	-35.1	-35.8	24.0	0.00e+00	0	40	0	4191158272	42	6305
2026-01-03 02:37:55.35	337.72	9.17	-35.0	-35.7	24.2	0.00e+00	0	40	0	4214226944	42	6236
2026-01-03 02:37:59.40	337.78	8.84	-35.2	-35.8	23.9	0.00e+00	0	39	0	4236247040	42	6311
2026-01-03 02:38:03.43	337.84	8.51	-35.3	-36.0	23.7	0.00e+00	0	39	0	4259315712	42	6404
2026-01-03 02:38:07.48	337.90	8.18	-35.7	-36.4	23.4	0.00e+00	0	40	0	4282384384	42	6731
2026-01-03 02:38:11.52	337.96	7.86	-35.4	-36.2	23.6	0.00e+00	0	40	0	4304404480	42	6593
2026-01-03 02:38:15.56	338.02	7.54	-35.6	-36.4	23.4	0.00e+00	0	40	0	4327473152	44	6011
2026-01-03 02:38:19.60	338.07	7.23	-35.7	-36.3	23.3	0.00e+00	0	40	0	4350541824	44	5947
2026-01-03 02:38:23.64	338.13	6.92	-35.7	-36.6	23.1	0.00e+00	0	40	0	4373610496	44	6105
2026-01-03 02:38:27.68	338.18	6.61	-35.9	-36.7	23.0	0.00e+00	0	40	0	4395630592	44	6244
2026-01-03 02:38:31.72	338.23	6.31	-35.8	-36.6	23.0	0.00e+00	0	40	0	4418699264	44	6154
2026-01-03 02:38:35.76	338.28	6.01	-35.8	-36.5	22.9	0.00e+00	0	40	0	4440719360	44	6085
2026-01-03 02:38:39.81	338.34	5.71	-36.3	-37.2	22.3	0.00e+00	0	40	0	4463788032	44	6541
2026-01-03 02:38:43.84	338.39	5.42	-37.1	-38.0	21.1	0.00e+00	0	40	0	4486856704	46	6416
2026-01-03 02:38:47.88	338.44	5.13	-38.6	-39.6	18.8	0.00e+00	0	40	0	4508876800	48	6908
2026-01-03 02:38:51.92	338.49	4.84	-40.4	-41.9	15.8	0.00e+00	0	40	0	4531945472	52	7111
2026-01-03 02:38:55.96	338.54	4.56	-42.0	-44.3	12.7	2.51e-05	0	40	0	4555014144	56	7484
2026-01-03 02:39:00.01	338.59	4.28	-43.5	-47.2	8.8	1.59e-02	0	40	0	4578082816	58	9332
2026-01-03 02:39:04.05	338.63	4.00	-44.6	-50.7	4.7	7.53e-01	0	40	0	4594860032	60	12366
2026-01-03 02:39:08.09	338.68	3.73	-44.8	-54.8	3.7	8.43e-01	0	40	104	4594860032	60	19930
2026-01-03 02:39:12.13	338.73	3.45	-44.9	-56.6	3.6	8.45e-01	0	40	104	4594860032	60	24304
2026-01-03 02:39:16.17	338.77	3.18	-45.0	-57.1	3.6	8.46e-01	0	40	104	4594860032	60	25884
2026-01-03 02:39:20.21	338.82	2.92	-49.0	-61.2	3.6	8.46e-01	0	40	104	4594860032	60	41459
2026-01-03 02:39:24.24	338.87	2.65	-49.7	-61.9	3.6	8.43e-01	0	40	104	4594860032	60	44743
2026-01-03 02:39:28.28	338.91	2.39	-49.6	-61.9	3.6	8.46e-01	0	40	104	4594860032	60	44980
2026-01-03 02:39:32.33	338.96	2.13	-49.7	-61.8	3.6	8.45e-01	0	40	104	4594860032	60	44601
2026-01-03 02:39:36.36	339.00	1.88	-49.7	-61.9	3.6	8.45e-01	0	40	104	4594860032	60	44954
2026-01-03 02:39:40.40	339.04	1.62	-49.7	-61.9	3.6	8.45e-01	0	40	104	4594860032	60	44767
2026-01-03 02:39:44.44	339.09	1.37	-49.7	-61.9	3.6	8.45e-01	0	40	104	4594860032	60	44813
2026-01-03 02:39:48.48	339.13	1.12	-49.7	-61.9	3.6	8.45e-01	0	40	104	4594860032	60	44906
2026-01-03 02:39:52.53	339.17	0.87	-49.8	-62.0	3.6	8.45e-01	0	40	104	4594860032	60	45257
2026-01-03 02:39:56.56	339.21	0.62	-49.8	-61.9	3.6	8.45e-01	0	40	104	4594860032	60	44961
2026-01-03 02:40:00.60	339.26	0.38	-49.8	-61.9	3.6	8.45e-01	0	40	104	4594860032	60	44889
2026-01-03 02:40:04.64	339.30	0.14	-49.8	-61.9	3.6	8.44e-01	0	40	104	4594860032	60	45119
2026-01-03 02:40:08.68	339.34	-0.10	-49.7	-61.9	3.6	8.46e-01	0	40	104	4594860032	60	44915

#Closed at: 2026-01-03 02:40:09
#Recorded file [4594 MB]: D:/lorett/data/35029_260103_142435.dat