passes_logs/2026/01/03/R4.6S_Anadyr/R4.6S_Anadyr__20260103_162006_NOAA_21_JPSS-2_rec.log

#Pass ID: 20260103_162006_NOAA 21 (JPSS-2)
#Satellite: NOAA 21 (JPSS-2)
#Configuration: NOAA-21
#almurnet v.1.7.20251203
#Start time: 2026-01-03 16:20:07

#Version: 2.2.20231116
#Station: R4.6S_Anadyr
#Location: 177.4865 lon 64.73178 lat
#TLE: 1 54234U 22150A   26002.88923379  .00000185  00000+0  10883-3 0  9993
#TLE: 2 54234  98.7486 303.9362 0001189 349.0578  11.0572 14.19531433163092

#Time	Az	El	Level	Level2	SNR	BER	BlckErr	Temp	State	Recorded	gain1	gain2
2026-01-03 16:20:07.26	25.63	0.03	-50.5	-68.2	3.5	3.02e+01	0	37	0	0	60	99011
2026-01-03 16:20:11.29	25.48	0.26	-50.0	-63.0	3.5	1.52e+00	0	39	104	0	60	49436
2026-01-03 16:20:15.33	25.33	0.49	-49.6	-62.5	3.5	1.52e+00	0	39	104	0	60	46921
2026-01-03 16:20:19.37	25.17	0.73	-49.3	-62.1	3.5	1.52e+00	0	39	104	0	60	44924
2026-01-03 16:20:23.41	25.01	0.97	-48.5	-61.3	3.5	1.51e+00	0	39	104	0	60	40659
2026-01-03 16:20:27.45	24.85	1.20	-48.2	-61.0	3.5	1.52e+00	0	39	104	0	60	39308
2026-01-03 16:20:31.48	24.68	1.44	-48.2	-60.9	3.5	1.52e+00	0	39	104	0	60	39092
2026-01-03 16:20:35.52	24.51	1.68	-48.2	-61.0	3.5	1.52e+00	0	39	104	0	60	39510
2026-01-03 16:20:39.56	24.34	1.93	-48.2	-60.7	3.5	1.52e+00	0	39	104	0	60	38147
2026-01-03 16:20:43.60	24.17	2.17	-48.2	-60.9	3.5	1.52e+00	0	39	104	0	60	38973
2026-01-03 16:20:47.63	23.99	2.42	-48.2	-60.9	3.5	1.51e+00	0	39	104	0	60	38736
2026-01-03 16:20:51.67	23.81	2.67	-48.1	-60.1	3.5	1.52e+00	0	39	104	0	60	35549
2026-01-03 16:20:55.71	23.63	2.92	-48.2	-60.9	3.5	1.52e+00	0	39	104	0	60	38957
2026-01-03 16:20:59.75	23.44	3.17	-47.2	-53.3	6.2	2.83e-01	122	39	0	0	60	16155
2026-01-03 16:21:03.79	23.25	3.42	-44.6	-47.5	12.7	1.91e-04	123	40	0	13631488	60	8281
2026-01-03 16:21:07.83	23.05	3.68	-48.1	-60.7	3.5	9.51e-01	0	39	104	20971520	60	37961
2026-01-03 16:21:11.86	22.86	3.94	-43.0	-45.0	15.8	0.00e+00	123	40	0	27262976	58	7018
2026-01-03 16:21:15.90	22.65	4.20	-39.7	-41.0	19.2	0.00e+00	122	39	0	39845888	54	5539
2026-01-03 16:21:19.94	22.45	4.46	-39.8	-41.1	19.4	0.00e+00	123	40	0	52428800	52	6317
2026-01-03 16:21:23.98	22.24	4.73	-39.7	-41.0	19.5	0.00e+00	122	40	0	66060288	52	6209
2026-01-03 16:21:28.01	22.02	4.99	-39.7	-41.0	19.6	0.00e+00	122	40	0	77594624	52	6218
2026-01-03 16:21:32.05	21.80	5.26	-39.2	-40.4	20.0	0.00e+00	121	40	0	90177536	52	5820
2026-01-03 16:21:36.09	21.58	5.54	-38.9	-40.0	20.4	0.00e+00	120	40	0	103809024	50	6269
2026-01-03 16:21:40.13	21.35	5.81	-38.9	-40.1	20.5	0.00e+00	123	40	0	116391936	50	6307
2026-01-03 16:21:44.16	21.12	6.09	-38.4	-39.5	21.0	0.00e+00	122	40	0	128974848	50	5884
2026-01-03 16:21:48.20	20.88	6.36	-38.4	-39.5	21.0	0.00e+00	123	40	0	141557760	50	5899
2026-01-03 16:21:52.24	20.64	6.65	-38.3	-39.4	21.0	0.00e+00	123	40	0	154140672	50	5831
2026-01-03 16:21:56.28	20.39	6.93	-37.8	-38.9	21.5	0.00e+00	122	40	0	166723584	48	6167
2026-01-03 16:22:00.32	20.14	7.22	-37.9	-39.0	21.6	0.00e+00	123	40	0	179306496	48	6218
2026-01-03 16:22:04.36	19.88	7.51	-38.4	-39.5	21.1	0.00e+00	123	40	0	191889408	48	6593
2026-01-03 16:22:08.39	19.62	7.80	-37.4	-38.5	22.1	0.00e+00	122	40	0	204472320	48	5880
2026-01-03 16:22:12.43	19.35	8.09	-37.2	-38.2	22.2	0.00e+00	120	40	0	217055232	48	5720
2026-01-03 16:22:16.46	19.08	8.39	-37.3	-38.3	22.2	0.00e+00	122	40	0	229638144	48	5749
2026-01-03 16:22:20.49	18.80	8.69	-37.0	-38.0	22.4	0.00e+00	123	40	0	242221056	48	5584
2026-01-03 16:22:24.53	18.51	9.00	-37.0	-38.0	22.3	0.00e+00	123	40	0	254803968	48	5558
2026-01-03 16:22:28.56	18.22	9.30	-37.2	-38.2	22.2	0.00e+00	123	40	0	267386880	48	5721
2026-01-03 16:22:32.59	17.92	9.61	-36.8	-37.8	22.6	0.00e+00	122	40	0	279969792	48	5467
2026-01-03 16:22:36.63	17.61	9.92	-36.5	-37.4	23.0	0.00e+00	122	40	0	292552704	46	5845
2026-01-03 16:22:40.66	17.30	10.24	-36.8	-37.8	22.7	0.00e+00	123	40	0	305135616	46	6070
2026-01-03 16:22:44.70	16.98	10.56	-36.4	-37.4	22.9	0.00e+00	122	40	0	317718528	46	5832
2026-01-03 16:22:48.73	16.65	10.88	-36.3	-37.3	23.2	0.00e+00	123	40	0	330301440	46	5748
2026-01-03 16:22:52.76	16.32	11.20	-36.3	-37.3	23.2	0.00e+00	122	40	0	342884352	46	5747
2026-01-03 16:22:56.80	15.97	11.53	-36.2	-37.1	23.3	0.00e+00	123	40	0	355467264	46	5648
2026-01-03 16:23:00.84	15.62	11.86	-35.9	-36.8	23.6	0.00e+00	122	40	0	368050176	46	5465
2026-01-03 16:23:04.88	15.26	12.20	-35.7	-36.6	23.7	0.00e+00	120	40	0	380633088	44	5987
2026-01-03 16:23:08.92	14.89	12.54	-35.7	-36.6	23.8	0.00e+00	122	40	0	393216000	44	5949
2026-01-03 16:23:12.96	14.51	12.88	-35.9	-36.8	23.7	0.00e+00	123	40	0	405798912	44	6099
2026-01-03 16:23:17.00	14.13	13.23	-35.6	-36.6	23.8	0.00e+00	123	40	0	418381824	44	5927
2026-01-03 16:23:21.03	13.73	13.58	-35.5	-36.4	23.8	0.00e+00	122	40	0	430964736	44	5857
2026-01-03 16:23:25.07	13.32	13.93	-35.5	-36.4	23.9	0.00e+00	123	40	0	443547648	44	5855
2026-01-03 16:23:29.11	12.91	14.29	-35.7	-36.7	23.6	0.00e+00	123	40	0	456130560	44	6000
2026-01-03 16:23:33.15	12.48	14.65	-35.7	-36.6	23.8	0.00e+00	123	40	0	468713472	44	5981
2026-01-03 16:23:37.19	12.04	15.01	-35.7	-36.7	23.8	0.00e+00	123	40	0	481296384	44	6008
2026-01-03 16:23:41.22	11.59	15.38	-35.7	-36.6	23.8	0.00e+00	122	40	0	494927872	44	5976
2026-01-03 16:23:45.26	11.13	15.75	-36.0	-36.9	23.6	0.00e+00	122	40	0	506462208	44	6155
2026-01-03 16:23:49.29	10.66	16.13	-36.0	-36.9	23.6	0.00e+00	122	40	0	520093696	44	6197
2026-01-03 16:23:53.33	10.17	16.51	-35.9	-36.8	23.7	0.00e+00	122	40	0	532676608	44	6129
2026-01-03 16:23:57.37	9.67	16.89	-35.9	-36.9	23.7	0.00e+00	122	40	0	545259520	44	6157
2026-01-03 16:24:01.41	9.16	17.28	-36.0	-36.9	23.8	0.00e+00	123	40	0	557842432	44	6160
2026-01-03 16:24:05.45	8.64	17.67	-36.1	-37.0	23.5	0.00e+00	123	40	0	570425344	44	6277
2026-01-03 16:24:09.49	8.10	18.06	-36.3	-37.2	23.4	0.00e+00	122	40	0	583008256	44	6421
2026-01-03 16:24:13.52	7.54	18.46	-36.2	-37.2	23.5	0.00e+00	123	40	0	595591168	44	6352
2026-01-03 16:24:17.56	6.97	18.86	-36.1	-37.0	23.6	0.00e+00	123	40	0	608174080	44	6249
2026-01-03 16:24:21.60	6.39	19.27	-36.0	-36.9	23.6	0.00e+00	122	40	0	620756992	44	6194
2026-01-03 16:24:25.64	5.79	19.68	-35.9	-36.9	23.7	0.00e+00	120	40	0	633339904	44	6158
2026-01-03 16:24:29.67	5.17	20.09	-35.7	-36.6	23.8	0.00e+00	122	40	0	645922816	44	5979
2026-01-03 16:24:33.71	4.54	20.50	-35.3	-36.2	24.2	0.00e+00	123	40	0	658505728	44	5672
2026-01-03 16:24:37.75	3.88	20.92	-35.4	-36.3	24.2	0.00e+00	123	40	0	671088640	44	5741
2026-01-03 16:24:41.78	3.21	21.34	-34.9	-35.8	24.5	0.00e+00	123	40	0	683671552	44	5438
2026-01-03 16:24:45.82	2.52	21.76	-34.8	-35.7	24.6	0.00e+00	123	40	0	696254464	42	6032
2026-01-03 16:24:49.85	1.82	22.19	-34.6	-35.5	24.8	0.00e+00	122	40	0	708837376	42	5895
2026-01-03 16:24:53.89	1.09	22.62	-34.5	-35.4	24.9	0.00e+00	122	40	0	721420288	42	5837
2026-01-03 16:24:57.93	0.33	23.05	-34.6	-35.5	24.7	0.00e+00	122	40	0	734003200	42	5892
2026-01-03 16:25:01.97	359.56	23.48	-34.6	-35.5	24.8	0.00e+00	123	40	0	746586112	42	5884
2026-01-03 16:25:06.00	358.77	23.91	-35.2	-36.1	24.5	0.00e+00	122	40	0	759169024	42	6294
2026-01-03 16:25:10.04	357.95	24.35	-34.7	-35.6	24.7	0.00e+00	122	40	0	771751936	42	5952
2026-01-03 16:25:14.08	357.11	24.78	-35.2	-36.2	24.3	0.00e+00	123	40	0	784334848	42	6365
2026-01-03 16:25:18.12	356.25	25.22	-34.8	-35.7	24.7	0.00e+00	122	40	0	796917760	42	6019
2026-01-03 16:25:22.16	355.36	25.65	-35.1	-36.0	24.3	0.00e+00	122	40	0	809500672	42	6274
2026-01-03 16:25:26.19	354.45	26.08	-35.4	-36.3	24.2	0.00e+00	123	40	0	822083584	42	6497
2026-01-03 16:25:30.23	353.51	26.52	-35.1	-36.0	24.4	0.00e+00	123	40	0	834666496	42	6244
2026-01-03 16:25:34.27	352.55	26.95	-35.8	-36.7	23.9	0.00e+00	120	40	0	847249408	44	6042
2026-01-03 16:25:38.30	351.56	27.38	-35.7	-36.7	23.9	0.00e+00	122	40	0	859832320	44	6008
2026-01-03 16:25:42.34	350.54	27.80	-35.8	-36.7	23.9	0.00e+00	123	40	0	872415232	44	6042
2026-01-03 16:25:46.38	349.49	28.22	-35.4	-36.3	24.2	0.00e+00	123	40	0	886046720	44	5784
2026-01-03 16:25:50.42	348.42	28.64	-35.0	-35.9	24.6	0.00e+00	122	40	0	897581056	44	5492
2026-01-03 16:25:54.45	347.32	29.05	-35.2	-36.1	24.3	0.00e+00	122	40	0	911212544	44	5624
2026-01-03 16:25:58.49	346.19	29.46	-35.4	-36.3	24.2	0.00e+00	123	40	0	923795456	44	5765
2026-01-03 16:26:02.53	345.02	29.86	-35.5	-36.5	24.1	0.00e+00	122	40	0	936378368	44	5867
2026-01-03 16:26:06.57	343.83	30.25	-35.6	-36.5	23.9	0.00e+00	123	40	0	948961280	44	5914
2026-01-03 16:26:10.60	342.62	30.63	-35.4	-36.3	24.2	0.00e+00	123	40	0	961544192	44	5763
2026-01-03 16:26:14.64	341.37	31.00	-35.5	-36.4	24.1	0.00e+00	123	40	0	974127104	44	5856
2026-01-03 16:26:18.68	340.09	31.36	-35.5	-36.4	24.2	0.00e+00	123	40	0	986710016	44	5837
2026-01-03 16:26:22.72	338.79	31.70	-35.6	-36.5	24.1	0.00e+00	122	40	0	999292928	44	5869
2026-01-03 16:26:26.75	337.46	32.04	-35.5	-36.4	24.2	0.00e+00	123	40	0	1011875840	44	5840
2026-01-03 16:26:30.78	336.10	32.36	-36.1	-37.0	23.7	0.00e+00	123	40	0	1024458752	44	6225
2026-01-03 16:26:34.82	334.72	32.66	-36.4	-37.3	23.5	0.00e+00	123	40	0	1037041664	44	6450
2026-01-03 16:26:38.86	333.30	32.95	-36.4	-37.4	23.5	0.00e+00	122	40	0	1049624576	44	6513
2026-01-03 16:26:42.90	331.87	33.22	-36.4	-37.3	23.5	0.00e+00	123	40	0	1062207488	44	6461
2026-01-03 16:26:46.94	330.40	33.47	-36.5	-37.4	23.4	0.00e+00	122	40	0	1074790400	44	6566
2026-01-03 16:26:50.97	328.92	33.70	-36.2	-37.1	23.6	0.00e+00	123	40	0	1087373312	44	6297
2026-01-03 16:26:55.01	327.42	33.91	-36.5	-37.4	23.4	0.00e+00	123	40	0	1099956224	44	6545
2026-01-03 16:26:59.05	325.90	34.10	-36.3	-37.2	23.7	0.00e+00	122	40	0	1112539136	44	6377
2026-01-03 16:27:03.09	324.36	34.27	-36.3	-37.2	23.7	0.00e+00	123	40	0	1125122048	44	6414
2026-01-03 16:27:07.12	322.81	34.42	-36.3	-37.3	23.6	0.00e+00	123	40	0	1137704960	44	6449
2026-01-03 16:27:11.15	321.24	34.54	-36.6	-37.5	23.5	0.00e+00	123	40	0	1150287872	44	6649
2026-01-03 16:27:15.19	319.67	34.64	-36.7	-37.6	23.2	0.00e+00	123	40	0	1162870784	44	6717
2026-01-03 16:27:19.22	318.08	34.71	-36.8	-37.7	23.3	0.00e+00	120	40	0	1175453696	46	6033
2026-01-03 16:27:23.26	316.49	34.76	-36.5	-37.5	23.5	0.00e+00	123	40	0	1188036608	46	5870
2026-01-03 16:27:27.29	314.90	34.78	-37.1	-38.1	23.1	0.00e+00	123	40	0	1200619520	46	6334
2026-01-03 16:27:31.33	313.30	34.78	-37.2	-38.2	23.0	0.00e+00	123	40	0	1213202432	46	6368
2026-01-03 16:27:35.36	311.71	34.75	-36.8	-37.8	23.3	0.00e+00	122	40	0	1225785344	46	6084
2026-01-03 16:27:39.40	310.12	34.69	-36.8	-37.7	23.2	0.00e+00	123	40	0	1238368256	46	6050
2026-01-03 16:27:43.44	308.53	34.62	-37.0	-38.0	23.0	0.00e+00	120	40	0	1250951168	46	6270
2026-01-03 16:27:47.48	306.95	34.51	-36.9	-37.9	23.2	0.00e+00	123	40	0	1263534080	46	6146
2026-01-03 16:27:51.51	305.39	34.39	-37.0	-38.0	23.1	0.00e+00	122	40	0	1276116992	46	6211
2026-01-03 16:27:55.55	303.84	34.24	-36.8	-37.8	23.2	0.00e+00	122	40	0	1288699904	46	6093
2026-01-03 16:27:59.58	302.31	34.06	-36.9	-37.9	23.3	0.00e+00	123	40	0	1301282816	46	6142
2026-01-03 16:28:03.61	300.79	33.87	-36.6	-37.5	23.6	0.00e+00	123	40	0	1313865728	46	5910
2026-01-03 16:28:07.65	299.29	33.65	-36.8	-37.7	23.2	0.00e+00	123	40	0	1326448640	46	6061
2026-01-03 16:28:11.68	297.81	33.41	-36.5	-37.5	23.6	0.00e+00	120	40	0	1340080128	46	5891
2026-01-03 16:28:15.72	296.35	33.16	-36.9	-37.9	23.3	0.00e+00	120	40	0	1352663040	46	6171
2026-01-03 16:28:19.76	294.92	32.88	-36.0	-36.9	24.0	0.00e+00	123	40	0	1365245952	46	5510
2026-01-03 16:28:23.80	293.51	32.59	-35.9	-36.9	24.0	0.00e+00	122	40	0	1377828864	46	5469
2026-01-03 16:28:27.83	292.13	32.28	-35.7	-36.6	24.2	0.00e+00	120	40	0	1390411776	44	5948
2026-01-03 16:28:31.87	290.77	31.96	-35.9	-36.8	24.0	0.00e+00	120	40	0	1402994688	44	6070
2026-01-03 16:28:35.91	289.44	31.62	-35.4	-36.3	24.4	0.00e+00	120	40	0	1415577600	44	5756
2026-01-03 16:28:39.95	288.14	31.27	-35.5	-36.4	24.2	0.00e+00	122	40	0	1428160512	44	5836
2026-01-03 16:28:43.98	286.87	30.91	-35.7	-36.6	24.1	0.00e+00	123	40	0	1440743424	44	5970
2026-01-03 16:28:48.01	285.63	30.53	-35.6	-36.5	24.2	0.00e+00	123	40	0	1453326336	44	5891
2026-01-03 16:28:52.04	284.42	30.15	-35.5	-36.4	24.2	0.00e+00	123	40	0	1465909248	44	5835
2026-01-03 16:28:56.08	283.23	29.76	-35.4	-36.3	24.2	0.00e+00	123	40	0	1478492160	44	5755
2026-01-03 16:29:00.12	282.08	29.36	-35.8	-36.7	24.0	0.00e+00	123	40	0	1491075072	44	6045
2026-01-03 16:29:04.15	280.95	28.95	-35.1	-36.0	24.5	0.00e+00	122	40	0	1503657984	44	5548
2026-01-03 16:29:08.19	279.85	28.54	-35.9	-36.8	23.8	0.00e+00	122	40	0	1516240896	44	6129
2026-01-03 16:29:12.23	278.78	28.12	-35.5	-36.4	24.2	0.00e+00	123	40	0	1528823808	44	5855
2026-01-03 16:29:16.27	277.74	27.69	-35.3	-36.2	24.5	0.00e+00	123	40	0	1541406720	44	5682
2026-01-03 16:29:20.31	276.72	27.27	-35.4	-36.3	24.2	0.00e+00	122	40	0	1553989632	44	5774
2026-01-03 16:29:24.34	275.73	26.84	-35.2	-36.1	24.4	0.00e+00	122	40	0	1566572544	44	5641
2026-01-03 16:29:28.38	274.77	26.40	-34.9	-35.8	24.6	0.00e+00	123	40	0	1579155456	44	5440
2026-01-03 16:29:32.42	273.84	25.97	-34.8	-35.7	24.7	0.00e+00	123	40	0	1591738368	42	6010
2026-01-03 16:29:36.46	272.93	25.53	-35.5	-36.4	24.2	0.00e+00	123	40	0	1604321280	42	6511
2026-01-03 16:29:40.50	272.04	25.10	-34.9	-35.8	24.6	0.00e+00	122	40	0	1616904192	42	6122
2026-01-03 16:29:44.53	271.18	24.66	-34.6	-35.4	24.9	0.00e+00	123	40	0	1629487104	42	5854
2026-01-03 16:29:48.57	270.34	24.22	-34.6	-35.4	24.9	0.00e+00	122	40	0	1642070016	42	5849
2026-01-03 16:29:52.61	269.53	23.79	-34.6	-35.5	24.8	0.00e+00	123	40	0	1654652928	42	5887
2026-01-03 16:29:56.65	268.74	23.35	-35.1	-36.0	24.3	0.00e+00	123	40	0	1667235840	42	6226
2026-01-03 16:30:00.69	267.97	22.92	-35.3	-36.3	24.2	0.00e+00	120	40	0	1679818752	42	6426
2026-01-03 16:30:04.73	267.22	22.49	-35.8	-36.7	24.0	0.00e+00	123	40	0	1692401664	42	6788
2026-01-03 16:30:08.77	266.49	22.06	-35.5	-36.4	24.1	0.00e+00	122	40	0	1704984576	44	5824
2026-01-03 16:30:12.81	265.78	21.63	-35.3	-36.2	24.2	0.00e+00	123	40	0	1717567488	44	5711
2026-01-03 16:30:16.84	265.10	21.21	-35.0	-35.9	24.5	0.00e+00	123	40	0	1731198976	44	5476
2026-01-03 16:30:20.88	264.43	20.79	-35.3	-36.2	24.4	0.00e+00	123	40	0	1743781888	42	6356
2026-01-03 16:30:24.92	263.78	20.37	-34.8	-35.6	24.7	0.00e+00	123	40	0	1756364800	42	5975
2026-01-03 16:30:28.95	263.14	19.96	-34.8	-35.7	24.8	0.00e+00	122	40	0	1768947712	42	6001
2026-01-03 16:30:32.99	262.53	19.54	-34.9	-35.8	24.5	0.00e+00	120	40	0	1781530624	42	6125
2026-01-03 16:30:37.03	261.93	19.13	-35.5	-36.4	24.2	0.00e+00	120	40	0	1794113536	42	6527
2026-01-03 16:30:41.07	261.34	18.73	-35.5	-36.5	24.0	0.00e+00	120	40	0	1806696448	42	6576
2026-01-03 16:30:45.11	260.77	18.33	-35.3	-36.2	24.2	0.00e+00	123	40	0	1819279360	42	6379
2026-01-03 16:30:49.14	260.22	17.93	-35.6	-36.5	24.1	0.00e+00	122	40	0	1831862272	42	6642
2026-01-03 16:30:53.18	259.68	17.53	-35.8	-36.7	23.8	0.00e+00	120	40	0	1844445184	44	6035
2026-01-03 16:30:57.22	259.16	17.14	-35.6	-36.5	23.9	0.00e+00	122	40	0	1857028096	44	5902
2026-01-03 16:31:01.26	258.65	16.76	-35.4	-36.3	24.1	0.00e+00	123	40	0	1869611008	44	5755
2026-01-03 16:31:05.29	258.15	16.37	-35.5	-36.4	24.0	0.00e+00	122	40	0	1882193920	44	5843
2026-01-03 16:31:09.33	257.66	15.99	-35.9	-36.8	23.7	0.00e+00	122	40	0	1894776832	44	6097
2026-01-03 16:31:13.36	257.19	15.62	-35.9	-36.8	23.8	0.00e+00	123	40	0	1907359744	44	6086
2026-01-03 16:31:17.40	256.73	15.25	-35.8	-36.7	23.7	0.00e+00	122	40	0	1919942656	44	6024
2026-01-03 16:31:21.43	256.28	14.88	-36.1	-37.1	23.6	0.00e+00	123	40	0	1932525568	44	6303
2026-01-03 16:31:25.48	255.84	14.51	-36.2	-37.1	23.5	0.00e+00	123	40	0	1945108480	44	6337
2026-01-03 16:31:29.51	255.42	14.15	-36.4	-37.3	23.3	0.00e+00	123	40	0	1957691392	44	6492
2026-01-03 16:31:33.55	255.00	13.80	-36.5	-37.5	23.2	0.00e+00	122	40	0	1970274304	44	6589
2026-01-03 16:31:37.58	254.59	13.44	-36.9	-37.8	22.9	0.00e+00	123	40	0	1982857216	46	6131
2026-01-03 16:31:41.62	254.20	13.09	-36.7	-37.7	22.9	0.00e+00	122	40	0	1995440128	46	6024
2026-01-03 16:31:45.65	253.81	12.75	-36.7	-37.7	22.8	0.00e+00	123	40	0	2008023040	46	6042
2026-01-03 16:31:49.69	253.43	12.40	-36.4	-37.4	23.1	0.00e+00	122	40	0	2020605952	46	5811
2026-01-03 16:31:53.73	253.06	12.06	-36.7	-37.6	23.1	0.00e+00	123	40	0	2033188864	46	5978
2026-01-03 16:31:57.76	252.70	11.73	-36.7	-37.6	22.9	0.00e+00	123	40	0	2045771776	46	5982
2026-01-03 16:32:01.80	252.35	11.40	-37.3	-38.3	22.3	0.00e+00	122	40	0	2058354688	46	6490
2026-01-03 16:32:05.84	252.00	11.07	-37.5	-38.5	22.0	0.00e+00	122	40	0	2070937600	46	6631
2026-01-03 16:32:09.88	251.67	10.74	-37.4	-38.4	22.1	0.00e+00	123	40	0	2083520512	46	6557
2026-01-03 16:32:13.92	251.34	10.42	-37.2	-38.2	22.4	0.00e+00	123	40	0	2096103424	46	6416
2026-01-03 16:32:17.95	251.02	10.10	-36.6	-37.6	23.0	0.00e+00	123	40	0	2108686336	46	5946
2026-01-03 16:32:21.99	250.70	9.79	-36.7	-37.7	22.8	0.00e+00	123	40	0	2122317824	46	6032
2026-01-03 16:32:26.03	250.39	9.47	-37.2	-38.2	22.4	0.00e+00	120	40	0	2134900736	46	6402
2026-01-03 16:32:30.06	250.09	9.16	-37.3	-38.3	22.3	0.00e+00	122	40	0	2146435072	46	6442
2026-01-03 16:32:34.09	249.80	8.86	-37.5	-38.5	22.0	0.00e+00	120	40	0	2160066560	46	6647
2026-01-03 16:32:38.13	249.51	8.55	-37.6	-38.7	21.8	0.00e+00	123	40	0	2172649472	48	6014
2026-01-03 16:32:42.17	249.23	8.25	-37.6	-38.7	21.8	0.00e+00	123	40	0	2185232384	48	6014
2026-01-03 16:32:46.21	248.95	7.96	-37.8	-38.9	21.6	0.00e+00	123	40	0	2197815296	48	6145
2026-01-03 16:32:50.25	248.68	7.66	-37.9	-38.9	21.6	0.00e+00	123	40	0	2210398208	48	6194
2026-01-03 16:32:54.29	248.42	7.37	-37.8	-38.9	21.5	0.00e+00	122	40	0	2222981120	48	6154
2026-01-03 16:32:58.33	248.16	7.08	-38.0	-39.1	21.3	0.00e+00	122	40	0	2235564032	48	6302
2026-01-03 16:33:02.37	247.90	6.79	-38.2	-39.3	21.0	0.00e+00	122	40	0	2248146944	48	6474
2026-01-03 16:33:06.41	247.66	6.51	-38.7	-39.8	20.6	0.00e+00	123	40	0	2260729856	48	6879
2026-01-03 16:33:10.45	247.41	6.23	-39.3	-40.5	20.0	0.00e+00	123	40	0	2273312768	50	6601
2026-01-03 16:33:14.49	247.17	5.95	-39.1	-40.3	20.1	0.00e+00	123	40	0	2285895680	50	6486
2026-01-03 16:33:18.53	246.94	5.67	-39.8	-41.1	19.4	0.00e+00	123	40	0	2298478592	52	6283
2026-01-03 16:33:22.56	246.71	5.40	-39.8	-41.1	19.3	0.00e+00	122	40	0	2311061504	52	6288
2026-01-03 16:33:26.60	246.48	5.13	-40.1	-41.4	18.9	0.00e+00	123	40	0	2323644416	52	6560
2026-01-03 16:33:30.64	246.26	4.86	-40.4	-41.8	18.5	0.00e+00	123	40	0	2336227328	52	6877
2026-01-03 16:33:34.68	246.05	4.59	-40.9	-42.4	17.8	0.00e+00	123	40	0	2348810240	54	6573
2026-01-03 16:33:38.72	245.83	4.32	-41.4	-43.0	17.2	0.00e+00	123	40	0	2361393152	54	6986
2026-01-03 16:33:42.75	245.63	4.06	-41.8	-43.5	16.6	0.00e+00	122	40	0	2373976064	56	6621
2026-01-03 16:33:46.79	245.42	3.80	-42.7	-44.8	15.4	0.00e+00	120	40	0	2386558976	56	7645
2026-01-03 16:33:50.83	245.22	3.54	-42.8	-44.9	15.2	0.00e+00	123	40	0	2399141888	58	6913
2026-01-03 16:33:54.87	245.02	3.29	-43.0	-45.3	14.6	7.00e-07	123	40	0	2411724800	58	7212
2026-01-03 16:33:58.91	244.83	3.03	-43.4	-45.8	13.9	6.80e-06	122	40	0	2424307712	58	7687
2026-01-03 16:34:02.95	244.64	2.78	-49.4	-62.3	3.5	1.52e+00	0	40	104	2426404864	60	45670
2026-01-03 16:34:06.99	244.45	2.53	-49.6	-62.5	3.5	1.52e+00	0	40	104	2426404864	60	46600
2026-01-03 16:34:11.03	244.27	2.28	-49.4	-62.4	3.5	1.52e+00	0	40	104	2426404864	60	46278
2026-01-03 16:34:15.07	244.09	2.03	-49.5	-62.4	3.5	1.52e+00	0	40	104	2426404864	60	46096
2026-01-03 16:34:19.10	243.91	1.79	-49.6	-62.4	3.5	1.52e+00	0	40	104	2426404864	60	46453
2026-01-03 16:34:23.14	243.74	1.55	-49.6	-62.5	3.5	1.52e+00	0	40	104	2426404864	60	46736
2026-01-03 16:34:27.18	243.57	1.31	-49.7	-62.6	3.5	1.52e+00	0	40	104	2426404864	60	47102
2026-01-03 16:34:31.22	243.40	1.07	-49.9	-62.8	3.5	1.52e+00	0	40	104	2426404864	60	48325
2026-01-03 16:34:35.25	243.24	0.83	-49.7	-62.5	3.5	1.52e+00	0	40	104	2426404864	60	47040
2026-01-03 16:34:39.29	243.08	0.59	-49.8	-62.6	3.5	1.52e+00	0	40	104	2426404864	60	47525
2026-01-03 16:34:43.33	242.92	0.36	-49.7	-62.6	3.5	1.51e+00	0	40	104	2426404864	60	47346
2026-01-03 16:34:47.37	242.76	0.13	-49.9	-62.8	3.5	1.52e+00	0	41	104	2426404864	60	48464
2026-01-03 16:34:51.40	242.61	-0.11	-49.9	-62.7	3.5	1.52e+00	0	40	104	2426404864	60	48053

#Closed at: 2026-01-03 16:34:51
#Recorded file [2426 MB]: D:/lorett/data/35029_260104_042007.dat