passes_logs/2026/01/03/R4.6S_Anadyr/R4.6S_Anadyr__20260103_175044_FENGYUN_3D_rec.log

#Pass ID: 20260103_175044_FENGYUN 3D
#Satellite: FENGYUN 3D
#Configuration: FENGYUN 3D
#almurnet v.1.7.20251203
#Start time: 2026-01-03 17:50:48

#Version: 2.2.20231116
#Station: R4.6S_Anadyr
#Location: 177.4865 lon 64.73178 lat
#TLE: 1 43010U 17072A   26002.95198047  .00000207  00000+0  11963-3 0  9999
#TLE: 2 43010  98.9912 334.5826 0001910 130.7105 229.4237 14.19692231421540

#Time	Az	El	Level	Level2	SNR	BER	BlckErr	Temp	State	Recorded	gain1	gain2
2026-01-03 17:50:48.02	23.94	0.21	-51.2	-66.1	3.5	1.51e+00	0	38	0	0	60	73186
2026-01-03 17:50:52.06	23.84	0.45	-50.6	-62.7	3.6	8.44e-01	0	39	104	0	60	49530
2026-01-03 17:50:56.10	23.74	0.69	-50.1	-62.2	3.6	8.46e-01	0	39	104	0	60	46719
2026-01-03 17:51:00.14	23.64	0.93	-49.7	-61.8	3.6	8.46e-01	0	39	104	0	60	44395
2026-01-03 17:51:04.18	23.54	1.18	-49.0	-61.1	3.6	8.45e-01	0	39	104	0	60	40849
2026-01-03 17:51:08.21	23.43	1.42	-48.6	-60.7	3.6	8.46e-01	0	39	104	0	60	39383
2026-01-03 17:51:12.25	23.33	1.67	-48.6	-60.6	3.6	8.45e-01	0	39	104	0	60	38806
2026-01-03 17:51:16.29	23.22	1.92	-48.6	-60.2	3.6	8.45e-01	0	39	104	0	60	36889
2026-01-03 17:51:20.33	23.10	2.17	-48.6	-60.7	3.6	8.45e-01	0	39	104	0	60	39386
2026-01-03 17:51:24.37	22.99	2.43	-48.5	-60.3	3.6	8.46e-01	0	39	104	0	60	37609
2026-01-03 17:51:28.41	22.87	2.69	-48.4	-58.8	3.6	8.45e-01	0	39	104	0	60	31486
2026-01-03 17:51:32.45	22.76	2.95	-48.6	-60.3	3.6	8.47e-01	0	39	104	0	60	37567
2026-01-03 17:51:36.49	22.63	3.21	-46.6	-50.4	8.8	4.27e-02	0	39	0	5242880	60	11966
2026-01-03 17:51:40.53	22.51	3.47	-43.6	-45.5	14.3	3.40e-06	0	39	0	28311552	60	6807
2026-01-03 17:51:44.57	22.38	3.74	-43.6	-45.5	14.2	0.00e+00	0	39	0	51380224	58	7653
2026-01-03 17:51:48.61	22.26	4.01	-38.3	-39.3	19.6	0.00e+00	0	39	0	54525952	50	5904
2026-01-03 17:51:52.65	22.12	4.28	-37.3	-38.1	21.6	0.00e+00	0	39	0	65011712	48	5808
2026-01-03 17:51:56.68	21.99	4.55	-37.1	-38.0	21.9	0.00e+00	0	39	0	88080384	48	5699
2026-01-03 17:52:00.72	21.85	4.83	-36.7	-37.5	22.1	0.00e+00	0	39	0	110100480	46	6061
2026-01-03 17:52:04.76	21.71	5.11	-36.6	-37.3	22.6	0.00e+00	0	39	0	133169152	46	5955
2026-01-03 17:52:08.79	21.57	5.39	-36.6	-37.4	22.5	0.00e+00	0	39	0	156237824	46	5980
2026-01-03 17:52:12.83	21.42	5.67	-36.6	-37.4	22.5	0.00e+00	0	39	0	178257920	46	5988
2026-01-03 17:52:16.86	21.27	5.96	-36.6	-37.3	22.4	0.00e+00	0	39	0	201326592	46	5962
2026-01-03 17:52:20.90	21.12	6.25	-36.9	-37.7	22.4	0.00e+00	0	39	0	224395264	46	6193
2026-01-03 17:52:24.93	20.97	6.55	-36.6	-37.4	22.7	0.00e+00	0	39	0	246415360	46	5974
2026-01-03 17:52:28.97	20.81	6.84	-36.4	-37.1	23.1	0.00e+00	0	39	0	269484032	46	5805
2026-01-03 17:52:33.01	20.64	7.14	-36.5	-37.3	22.8	0.00e+00	0	39	0	292552704	46	5932
2026-01-03 17:52:37.05	20.48	7.45	-36.4	-37.2	23.0	0.00e+00	0	39	0	314572800	46	5844
2026-01-03 17:52:41.08	20.30	7.75	-36.5	-37.2	23.0	0.00e+00	0	39	0	337641472	46	5895
2026-01-03 17:52:45.12	20.13	8.06	-36.4	-37.2	23.1	0.00e+00	0	39	0	360710144	46	5848
2026-01-03 17:52:49.16	19.95	8.38	-36.2	-36.9	23.3	0.00e+00	0	39	0	382730240	46	5674
2026-01-03 17:52:53.20	19.77	8.70	-36.2	-36.9	23.4	0.00e+00	0	39	0	405798912	46	5683
2026-01-03 17:52:57.24	19.58	9.02	-36.5	-37.3	23.2	0.00e+00	0	39	0	428867584	46	5911
2026-01-03 17:53:01.27	19.39	9.34	-36.0	-36.7	23.7	0.00e+00	0	39	0	450887680	46	5523
2026-01-03 17:53:05.31	19.19	9.67	-36.0	-36.7	23.5	0.00e+00	0	39	0	473956352	46	5521
2026-01-03 17:53:09.35	18.99	10.00	-35.6	-36.3	24.0	0.00e+00	0	39	0	497025024	44	5922
2026-01-03 17:53:13.39	18.78	10.34	-35.5	-36.2	24.0	0.00e+00	0	39	0	519045120	44	5862
2026-01-03 17:53:17.42	18.57	10.68	-35.2	-35.8	24.4	0.00e+00	0	39	0	542113792	44	5626
2026-01-03 17:53:21.46	18.35	11.03	-35.2	-35.9	24.4	0.00e+00	0	39	0	565182464	44	5637
2026-01-03 17:53:25.49	18.13	11.38	-34.9	-35.6	24.5	0.00e+00	0	39	0	587202560	44	5473
2026-01-03 17:53:29.53	17.90	11.73	-35.2	-35.9	24.5	0.00e+00	0	39	0	610271232	44	5677
2026-01-03 17:53:33.57	17.66	12.09	-34.9	-35.6	24.7	0.00e+00	0	39	0	633339904	44	5459
2026-01-03 17:53:37.61	17.42	12.46	-35.1	-35.8	24.4	0.00e+00	0	39	0	655360000	44	5609
2026-01-03 17:53:41.65	17.17	12.83	-34.8	-35.5	24.8	0.00e+00	0	39	0	678428672	42	6055
2026-01-03 17:53:45.68	16.92	13.20	-34.7	-35.4	24.9	0.00e+00	0	39	0	701497344	42	6008
2026-01-03 17:53:49.72	16.65	13.58	-34.7	-35.3	25.0	0.00e+00	0	39	0	723517440	42	5939
2026-01-03 17:53:53.76	16.38	13.97	-34.6	-35.3	25.0	0.00e+00	0	39	0	746586112	42	5921
2026-01-03 17:53:57.80	16.11	14.36	-34.7	-35.4	24.8	0.00e+00	0	39	0	769654784	42	5985
2026-01-03 17:54:01.84	15.82	14.76	-34.4	-35.1	25.2	0.00e+00	0	39	0	791674880	42	5811
2026-01-03 17:54:05.87	15.53	15.16	-34.2	-34.9	25.3	0.00e+00	0	39	0	814743552	42	5670
2026-01-03 17:54:09.91	15.23	15.57	-34.0	-34.7	25.6	0.00e+00	0	39	0	837812224	42	5545
2026-01-03 17:54:13.96	14.92	15.98	-34.5	-35.2	25.4	0.00e+00	0	39	0	859832320	42	5847
2026-01-03 17:54:17.99	14.60	16.40	-34.1	-34.8	25.6	0.00e+00	0	39	0	882900992	42	5572
2026-01-03 17:54:22.03	14.27	16.83	-33.9	-34.6	25.8	0.00e+00	0	39	0	905969664	42	5445
2026-01-03 17:54:26.07	13.93	17.26	-33.4	-34.1	26.2	0.00e+00	0	39	0	927989760	40	5794
2026-01-03 17:54:30.10	13.58	17.70	-33.7	-34.4	26.1	0.00e+00	0	39	0	951058432	40	5969
2026-01-03 17:54:34.14	13.22	18.15	-33.6	-34.2	26.4	0.00e+00	0	39	0	974127104	40	5883
2026-01-03 17:54:38.18	12.85	18.61	-33.2	-33.8	26.4	0.00e+00	0	39	0	996147200	40	5614
2026-01-03 17:54:42.21	12.47	19.07	-33.3	-33.9	26.4	0.00e+00	0	39	0	1019215872	40	5649
2026-01-03 17:54:46.24	12.07	19.53	-33.3	-33.9	26.3	0.00e+00	0	39	0	1042284544	40	5690
2026-01-03 17:54:50.28	11.66	20.01	-33.2	-33.8	26.3	0.00e+00	0	39	0	1064304640	40	5607
2026-01-03 17:54:54.32	11.24	20.49	-32.7	-33.3	26.8	0.00e+00	0	39	0	1087373312	38	5962
2026-01-03 17:54:58.36	10.81	20.99	-32.4	-33.0	27.1	0.00e+00	0	39	0	1110441984	38	5751
2026-01-03 17:55:02.39	10.36	21.48	-32.4	-33.0	27.1	0.00e+00	0	39	0	1132462080	38	5752
2026-01-03 17:55:06.43	9.89	21.99	-33.0	-33.6	27.0	0.00e+00	0	39	0	1155530752	38	6149
2026-01-03 17:55:10.47	9.41	22.51	-32.4	-33.0	27.2	0.00e+00	0	39	0	1177550848	38	5724
2026-01-03 17:55:14.51	8.91	23.03	-32.4	-33.0	27.2	0.00e+00	0	39	0	1200619520	38	5738
2026-01-03 17:55:18.54	8.39	23.56	-32.4	-33.0	27.3	0.00e+00	0	39	0	1223688192	38	5742
2026-01-03 17:55:22.58	7.86	24.10	-32.3	-33.0	27.3	0.00e+00	0	39	0	1245708288	38	5697
2026-01-03 17:55:26.62	7.30	24.65	-32.1	-32.7	27.4	0.00e+00	0	39	0	1268776960	38	5539
2026-01-03 17:55:30.65	6.73	25.21	-32.1	-32.8	27.5	0.00e+00	0	39	0	1291845632	38	5579
2026-01-03 17:55:34.69	6.13	25.78	-31.7	-32.3	27.7	0.00e+00	0	39	0	1314914304	36	5938
2026-01-03 17:55:38.73	5.51	26.35	-31.8	-32.5	27.8	0.00e+00	0	39	0	1336934400	36	6037
2026-01-03 17:55:42.77	4.87	26.93	-31.4	-32.0	28.0	0.00e+00	0	39	0	1360003072	36	5719
2026-01-03 17:55:46.81	4.20	27.53	-31.6	-32.2	27.8	0.00e+00	0	39	0	1382023168	36	5874
2026-01-03 17:55:50.85	3.51	28.13	-31.7	-32.3	27.8	0.00e+00	0	39	0	1405091840	36	5954
2026-01-03 17:55:54.88	2.79	28.73	-31.3	-31.9	28.1	0.00e+00	0	39	0	1428160512	36	5664
2026-01-03 17:55:58.92	2.04	29.35	-31.3	-31.9	28.1	0.00e+00	0	39	0	1450180608	36	5652
2026-01-03 17:56:02.96	1.26	29.98	-31.5	-32.2	27.9	0.00e+00	0	39	0	1473249280	36	5848
2026-01-03 17:56:07.00	0.45	30.61	-31.3	-31.9	27.9	0.00e+00	0	39	0	1496317952	36	5676
2026-01-03 17:56:11.04	359.61	31.25	-31.2	-31.9	28.1	0.00e+00	0	39	0	1519386624	36	5640
2026-01-03 17:56:15.07	358.73	31.89	-31.2	-31.8	28.3	0.00e+00	0	39	0	1541406720	36	5608
2026-01-03 17:56:19.11	357.82	32.55	-31.3	-32.0	28.0	0.00e+00	0	39	0	1564475392	36	5702
2026-01-03 17:56:23.15	356.87	33.21	-31.2	-31.8	28.1	0.00e+00	0	39	0	1586495488	36	5614
2026-01-03 17:56:27.19	355.87	33.87	-31.1	-31.7	28.2	0.00e+00	0	39	0	1609564160	36	5562
2026-01-03 17:56:31.22	354.84	34.53	-31.5	-32.1	28.0	0.00e+00	0	39	0	1632632832	36	5819
2026-01-03 17:56:35.26	353.76	35.21	-31.4	-32.0	28.1	0.00e+00	0	39	0	1654652928	36	5740
2026-01-03 17:56:39.30	352.64	35.88	-31.4	-32.0	28.1	0.00e+00	0	39	0	1677721600	36	5751
2026-01-03 17:56:43.34	351.47	36.55	-31.6	-32.2	27.9	0.00e+00	0	39	0	1700790272	36	5878
2026-01-03 17:56:47.38	350.24	37.23	-31.5	-32.1	28.1	0.00e+00	0	39	0	1722810368	36	5808
2026-01-03 17:56:51.42	348.97	37.90	-31.3	-31.9	28.2	0.00e+00	0	39	0	1745879040	36	5663
2026-01-03 17:56:55.45	347.64	38.56	-31.2	-31.8	28.2	0.00e+00	0	39	0	1768947712	36	5575
2026-01-03 17:56:59.50	346.25	39.23	-31.6	-32.2	27.9	0.00e+00	0	39	0	1790967808	36	5852
2026-01-03 17:57:03.54	344.81	39.88	-31.7	-32.3	28.0	0.00e+00	0	39	0	1814036480	36	5940
2026-01-03 17:57:07.57	343.31	40.53	-32.3	-32.9	27.4	0.00e+00	0	39	0	1837105152	36	6386
2026-01-03 17:57:11.61	341.75	41.16	-31.9	-32.6	27.7	0.00e+00	0	39	0	1859125248	38	5455
2026-01-03 17:57:15.65	340.12	41.78	-31.3	-31.9	28.1	0.00e+00	0	39	0	1882193920	36	5660
2026-01-03 17:57:19.68	338.44	42.38	-31.7	-32.3	27.8	0.00e+00	0	39	0	1905262592	36	5959
2026-01-03 17:57:23.72	336.69	42.97	-31.6	-32.3	27.9	0.00e+00	0	39	0	1927282688	36	5902
2026-01-03 17:57:27.76	334.87	43.53	-31.8	-32.4	27.8	0.00e+00	0	39	0	1950351360	36	5976
2026-01-03 17:57:31.80	332.99	44.06	-31.5	-32.0	28.1	0.00e+00	0	39	0	1973420032	36	5755
2026-01-03 17:57:35.84	331.04	44.57	-31.9	-32.4	28.0	0.00e+00	0	39	0	1995440128	36	6031
2026-01-03 17:57:39.88	329.04	45.04	-32.0	-32.6	27.7	0.00e+00	0	39	0	2018508800	38	5483
2026-01-03 17:57:43.92	326.97	45.48	-31.7	-32.3	27.9	0.00e+00	0	39	0	2041577472	36	5955
2026-01-03 17:57:47.96	324.85	45.88	-31.9	-32.5	27.8	0.00e+00	0	39	0	2063597568	36	6048
2026-01-03 17:57:52.01	322.68	46.24	-32.1	-32.7	27.7	0.00e+00	0	39	0	2086666240	36	6210
2026-01-03 17:57:56.04	320.46	46.56	-32.5	-33.1	27.7	0.00e+00	0	39	0	2109734912	38	5791
2026-01-03 17:58:00.08	318.20	46.83	-32.5	-33.1	27.4	0.00e+00	0	39	0	2131755008	38	5799
2026-01-03 17:58:04.12	315.90	47.05	-33.6	-34.3	27.0	0.00e+00	0	39	0	2154823680	38	6628
2026-01-03 17:58:08.16	313.57	47.22	-33.1	-33.7	27.8	0.00e+00	0	39	0	2177892352	38	6240
2026-01-03 17:58:12.20	311.22	47.34	-32.8	-33.5	27.6	0.00e+00	0	39	0	2199912448	38	6049
2026-01-03 17:58:16.24	308.85	47.41	-32.0	-32.5	28.0	0.00e+00	0	39	0	2222981120	38	5428
2026-01-03 17:58:20.28	306.48	47.42	-32.1	-32.7	28.2	0.00e+00	0	39	0	2246049792	36	6202
2026-01-03 17:58:24.32	304.11	47.38	-32.4	-33.0	27.8	0.00e+00	0	39	0	2268069888	36	6449
2026-01-03 17:58:28.36	301.75	47.29	-32.2	-32.9	27.7	0.00e+00	0	39	0	2291138560	36	6336
2026-01-03 17:58:32.40	299.41	47.14	-32.1	-32.7	28.0	0.00e+00	0	39	0	2314207232	36	6234
2026-01-03 17:58:36.44	297.10	46.95	-32.3	-32.9	27.8	0.00e+00	0	39	0	2337275904	36	6388
2026-01-03 17:58:40.48	294.81	46.70	-32.2	-32.8	27.7	0.00e+00	0	39	0	2359296000	36	6281
2026-01-03 17:58:44.51	292.57	46.41	-31.7	-32.3	27.9	0.00e+00	0	39	0	2382364672	36	5910
2026-01-03 17:58:48.55	290.37	46.07	-31.4	-32.0	28.3	0.00e+00	0	39	0	2404384768	36	5717
2026-01-03 17:58:52.59	288.22	45.69	-31.5	-32.1	28.1	0.00e+00	0	39	0	2427453440	36	5804
2026-01-03 17:58:56.63	286.13	45.26	-31.2	-31.9	28.2	0.00e+00	0	39	0	2450522112	36	5672
2026-01-03 17:59:00.66	284.09	44.81	-32.0	-32.5	28.1	0.00e+00	0	39	0	2472542208	36	6065
2026-01-03 17:59:04.70	282.12	44.32	-31.7	-32.2	28.0	0.00e+00	0	39	0	2495610880	36	5891
2026-01-03 17:59:08.74	280.20	43.79	-31.5	-32.0	28.2	0.00e+00	0	39	0	2518679552	36	5733
2026-01-03 17:59:12.78	278.35	43.25	-31.4	-32.0	28.3	0.00e+00	0	39	0	2540699648	36	5751
2026-01-03 17:59:16.82	276.56	42.67	-31.6	-32.2	28.3	0.00e+00	0	39	0	2563768320	36	5837
2026-01-03 17:59:20.86	274.83	42.08	-31.1	-31.7	28.5	0.00e+00	0	39	0	2586836992	36	5517
2026-01-03 17:59:24.89	273.18	41.46	-31.2	-31.9	28.2	0.00e+00	0	39	0	2608857088	36	5661
2026-01-03 17:59:28.93	271.58	40.84	-31.4	-31.9	28.4	0.00e+00	0	39	0	2631925760	36	5677
2026-01-03 17:59:32.97	270.04	40.19	-31.3	-32.0	28.4	0.00e+00	0	39	0	2654994432	36	5709
2026-01-03 17:59:37.01	268.56	39.54	-31.7	-32.4	28.1	0.00e+00	0	39	0	2677014528	36	5983
2026-01-03 17:59:41.04	267.15	38.88	-31.3	-31.8	28.2	0.00e+00	0	39	0	2700083200	36	5606
2026-01-03 17:59:45.08	265.79	38.21	-31.5	-32.0	28.3	0.00e+00	0	39	0	2722103296	36	5731
2026-01-03 17:59:49.12	264.48	37.54	-31.1	-31.8	28.2	0.00e+00	0	39	0	2745171968	36	5592
2026-01-03 17:59:53.15	263.24	36.87	-31.2	-31.9	27.9	0.00e+00	0	39	0	2768240640	36	5670
2026-01-03 17:59:57.19	262.03	36.19	-31.0	-31.5	28.3	0.00e+00	0	39	0	2791309312	36	5439
2026-01-03 18:00:01.23	260.88	35.51	-31.0	-31.5	28.5	0.00e+00	0	39	0	2813329408	36	5399
2026-01-03 18:00:05.27	259.78	34.84	-30.9	-31.5	28.5	0.00e+00	0	39	0	2836398080	36	5439
2026-01-03 18:00:09.31	258.72	34.17	-31.0	-31.7	28.5	0.00e+00	0	39	0	2859466752	36	5548
2026-01-03 18:00:13.34	257.70	33.50	-31.1	-31.6	28.3	0.00e+00	0	39	0	2881486848	36	5483
2026-01-03 18:00:17.38	256.73	32.84	-30.9	-31.5	28.4	0.00e+00	0	39	0	2904555520	36	5436
2026-01-03 18:00:21.42	255.79	32.18	-31.5	-32.1	28.1	0.00e+00	0	39	0	2926575616	36	5788
2026-01-03 18:00:25.46	254.89	31.53	-31.3	-32.0	28.0	0.00e+00	0	39	0	2949644288	36	5736
2026-01-03 18:00:29.49	254.03	30.88	-31.3	-32.0	28.0	0.00e+00	0	39	0	2972712960	36	5722
2026-01-03 18:00:33.53	253.20	30.24	-31.2	-31.9	28.0	0.00e+00	0	39	0	2994733056	36	5634
2026-01-03 18:00:37.57	252.40	29.61	-31.7	-32.4	27.7	0.00e+00	0	39	0	3017801728	36	5974
2026-01-03 18:00:41.61	251.64	28.99	-31.3	-31.8	27.9	0.00e+00	0	39	0	3040870400	36	5579
2026-01-03 18:00:45.65	250.90	28.37	-31.5	-32.1	27.7	0.00e+00	0	39	0	3063939072	36	5782
2026-01-03 18:00:49.68	250.19	27.77	-31.9	-32.4	27.4	0.00e+00	0	39	0	3085959168	36	5994
2026-01-03 18:00:53.72	249.51	27.17	-32.1	-32.7	27.0	0.00e+00	0	39	0	3109027840	36	6178
2026-01-03 18:00:57.76	248.85	26.58	-31.7	-32.4	27.6	0.00e+00	0	39	0	3131047936	36	5989
2026-01-03 18:01:01.80	248.22	26.00	-32.0	-32.6	27.4	0.00e+00	0	39	0	3154116608	36	6115
2026-01-03 18:01:05.84	247.61	25.43	-32.0	-32.6	27.3	0.00e+00	0	39	0	3177185280	36	6105
2026-01-03 18:01:09.88	247.02	24.86	-31.6	-32.2	27.5	0.00e+00	0	39	0	3199205376	36	5833
2026-01-03 18:01:13.92	246.45	24.31	-31.6	-32.3	27.6	0.00e+00	0	39	0	3222274048	36	5899
2026-01-03 18:01:17.95	245.91	23.76	-32.1	-32.6	27.3	0.00e+00	0	39	0	3245342720	36	6143
2026-01-03 18:01:21.99	245.38	23.22	-32.1	-32.8	27.4	0.00e+00	0	39	0	3268411392	36	6290
2026-01-03 18:01:26.03	244.87	22.69	-32.0	-32.5	27.4	0.00e+00	0	39	0	3290431488	36	6051
2026-01-03 18:01:30.07	244.38	22.17	-32.2	-32.7	27.3	0.00e+00	0	39	0	3313500160	36	6238
2026-01-03 18:01:34.11	243.90	21.66	-32.3	-33.0	27.2	0.00e+00	0	39	0	3335520256	36	6412
2026-01-03 18:01:38.14	243.44	21.15	-32.2	-32.9	27.2	0.00e+00	0	39	0	3358588928	36	6375
2026-01-03 18:01:42.18	242.99	20.65	-32.4	-33.1	27.0	0.00e+00	0	39	0	3381657600	36	6528
2026-01-03 18:01:46.21	242.56	20.17	-32.5	-33.2	26.9	0.00e+00	0	39	0	3403677696	36	6574
2026-01-03 18:01:50.26	242.14	19.68	-32.5	-33.0	26.9	0.00e+00	0	39	0	3426746368	36	6459
2026-01-03 18:01:54.29	241.74	19.21	-32.9	-33.6	26.6	0.00e+00	0	39	0	3449815040	38	6134
2026-01-03 18:01:58.33	241.35	18.74	-32.7	-33.3	26.7	0.00e+00	0	39	0	3471835136	38	5900
2026-01-03 18:02:02.37	240.97	18.28	-32.9	-33.4	26.6	0.00e+00	0	39	0	3494903808	38	6027
2026-01-03 18:02:06.41	240.60	17.83	-33.1	-33.8	26.4	0.00e+00	0	39	0	3517972480	38	6304
2026-01-03 18:02:10.45	240.24	17.39	-33.2	-33.9	26.3	0.00e+00	0	39	0	3539992576	38	6356
2026-01-03 18:02:14.49	239.90	16.95	-33.4	-34.1	26.1	0.00e+00	0	39	0	3563061248	38	6512
2026-01-03 18:02:18.52	239.56	16.52	-33.6	-34.3	25.9	0.00e+00	0	39	0	3586129920	40	5907
2026-01-03 18:02:22.56	239.23	16.09	-33.7	-34.3	25.8	0.00e+00	0	39	0	3608150016	40	5944
2026-01-03 18:02:26.60	238.92	15.67	-33.7	-34.5	25.8	0.00e+00	0	39	0	3631218688	40	6046
2026-01-03 18:02:30.64	238.61	15.26	-33.9	-34.5	25.6	0.00e+00	0	39	0	3654287360	40	6076
2026-01-03 18:02:34.68	238.31	14.85	-34.2	-34.9	25.3	0.00e+00	0	39	0	3676307456	40	6350
2026-01-03 18:02:38.72	238.02	14.45	-34.6	-35.2	25.0	0.00e+00	0	39	0	3699376128	40	6556
2026-01-03 18:02:42.76	237.73	14.06	-34.8	-35.5	24.8	0.00e+00	0	39	0	3722444800	42	6093
2026-01-03 18:02:46.79	237.46	13.67	-34.9	-35.5	24.6	0.00e+00	0	39	0	3744464896	42	6092
2026-01-03 18:02:50.83	237.19	13.29	-35.4	-36.2	24.1	0.00e+00	0	39	0	3767533568	42	6597
2026-01-03 18:02:54.86	236.93	12.91	-35.8	-36.5	23.7	0.00e+00	0	39	0	3790602240	42	6784
2026-01-03 18:02:58.91	236.68	12.53	-36.3	-37.1	23.0	0.00e+00	0	39	0	3812622336	44	6529
2026-01-03 18:03:02.94	236.43	12.17	-36.8	-37.5	22.6	0.00e+00	0	39	0	3835691008	44	6807
2026-01-03 18:03:06.98	236.19	11.80	-37.2	-37.9	22.2	0.00e+00	0	39	0	3858759680	46	6367
2026-01-03 18:03:11.02	235.95	11.44	-37.7	-38.5	21.7	0.00e+00	0	39	0	3880779776	46	6788
2026-01-03 18:03:15.06	235.72	11.09	-38.1	-39.0	21.3	0.00e+00	0	39	0	3903848448	48	6402
2026-01-03 18:03:19.09	235.50	10.74	-38.3	-39.1	21.0	0.00e+00	0	39	0	3926917120	48	6524
2026-01-03 18:03:23.13	235.28	10.40	-38.9	-39.7	20.4	0.00e+00	0	39	0	3948937216	50	6195
2026-01-03 18:03:27.17	235.07	10.06	-39.1	-40.0	20.1	0.00e+00	0	39	0	3972005888	50	6402
2026-01-03 18:03:31.21	234.86	9.72	-39.6	-40.6	19.6	0.00e+00	0	39	0	3995074560	50	6874
2026-01-03 18:03:35.25	234.66	9.39	-40.0	-41.1	19.1	0.00e+00	0	39	0	4017094656	52	6518
2026-01-03 18:03:39.28	234.46	9.06	-40.8	-41.9	18.1	0.00e+00	0	39	0	4040163328	52	7143
2026-01-03 18:03:43.32	234.27	8.74	-41.2	-42.5	17.7	0.00e+00	0	39	0	4063232000	54	6798
2026-01-03 18:03:47.36	234.08	8.42	-41.9	-43.3	16.8	0.00e+00	0	39	0	4085252096	56	6679
2026-01-03 18:03:51.40	233.89	8.10	-42.3	-43.8	16.3	0.00e+00	0	39	0	4108320768	56	7082
2026-01-03 18:03:55.43	233.72	7.79	-42.9	-44.4	15.5	0.00e+00	0	39	0	4130340864	58	6756
2026-01-03 18:03:59.46	233.54	7.48	-43.4	-45.1	14.7	0.00e+00	0	39	0	4153409536	58	7327
2026-01-03 18:04:03.50	233.37	7.17	-44.0	-46.0	13.9	4.50e-06	0	39	0	4176478208	60	7195
2026-01-03 18:04:07.54	233.20	6.87	-44.5	-46.7	12.9	2.74e-05	0	39	0	4199546880	60	7860
2026-01-03 18:04:11.58	233.03	6.57	-44.9	-47.5	12.1	1.84e-04	0	39	0	4221566976	60	8538
2026-01-03 18:04:15.62	232.87	6.27	-45.3	-48.1	11.3	8.62e-04	0	39	0	4244635648	60	9134
2026-01-03 18:04:19.66	232.72	5.98	-45.8	-49.0	10.2	2.94e-03	0	39	0	4267704320	60	10222
2026-01-03 18:04:23.70	232.56	5.69	-46.0	-49.3	9.8	8.33e-03	0	39	0	4289724416	60	10513
2026-01-03 18:04:27.74	232.41	5.40	-46.3	-50.0	8.9	2.46e-02	0	39	0	4312793088	60	11473
2026-01-03 18:04:31.78	232.26	5.12	-46.5	-50.5	8.1	5.56e-02	0	39	0	4334813184	60	12177
2026-01-03 18:04:35.82	232.12	4.84	-46.6	-51.0	7.3	9.35e-02	0	39	0	4357881856	60	12839
2026-01-03 18:04:39.86	231.98	4.56	-46.8	-51.5	6.6	1.85e-01	0	39	0	4380950528	60	13662
2026-01-03 18:04:43.90	231.84	4.29	-46.7	-51.9	6.1	2.39e-01	0	39	0	4404019200	60	14178
2026-01-03 18:04:47.93	231.70	4.01	-46.8	-52.1	5.7	3.81e-01	0	39	0	4426039296	60	14623
2026-01-03 18:04:51.97	231.57	3.74	-46.8	-52.4	5.3	5.92e-01	0	39	0	4445962240	60	15154
2026-01-03 18:04:56.01	231.44	3.47	-46.8	-52.6	4.9	7.49e-01	0	39	0	4454350848	60	15427
2026-01-03 18:05:00.05	231.31	3.21	-46.8	-52.9	4.8	7.65e-01	0	39	0	4457496576	60	15912
2026-01-03 18:05:04.08	231.18	2.95	-48.3	-60.4	3.6	8.46e-01	0	39	104	4457496576	60	37990
2026-01-03 18:05:08.12	231.06	2.68	-49.9	-62.0	3.6	8.45e-01	0	39	104	4457496576	60	45726
2026-01-03 18:05:12.16	230.94	2.43	-50.0	-62.1	3.6	8.46e-01	0	39	104	4457496576	60	45897
2026-01-03 18:05:16.20	230.82	2.17	-49.9	-62.1	3.6	8.45e-01	0	39	104	4457496576	60	46101
2026-01-03 18:05:20.24	230.70	1.92	-50.0	-62.2	3.6	8.45e-01	0	39	104	4457496576	60	46320
2026-01-03 18:05:24.28	230.59	1.66	-50.2	-62.3	3.6	8.45e-01	0	39	104	4457496576	60	47241
2026-01-03 18:05:28.32	230.48	1.41	-50.5	-62.6	3.6	8.44e-01	0	39	104	4457496576	60	48801
2026-01-03 18:05:32.36	230.37	1.16	-50.4	-62.5	3.5	8.45e-01	0	39	104	4457496576	60	48361
2026-01-03 18:05:36.40	230.26	0.92	-50.3	-62.4	3.6	8.46e-01	0	39	104	4457496576	60	47717
2026-01-03 18:05:40.44	230.15	0.67	-50.4	-62.5	3.6	8.45e-01	0	39	104	4457496576	60	48388
2026-01-03 18:05:44.48	230.05	0.43	-50.5	-62.6	3.6	8.46e-01	0	39	104	4457496576	60	48880
2026-01-03 18:05:48.52	229.95	0.19	-50.5	-62.6	3.6	8.46e-01	0	39	104	4457496576	60	48893
2026-01-03 18:05:52.55	229.85	-0.05	-50.1	-62.2	3.6	8.45e-01	0	39	104	4457496576	60	46756

#Closed at: 2026-01-03 18:05:53
#Recorded file [4457 MB]: D:/lorett/data/35029_260104_055048.dat