passes_logs/2026/01/03/R4.6S_Anadyr/R4.6S_Anadyr__20260103_220257_TY-42_rec.log

#Pass ID: 20260103_220257_TY-42
#Satellite: TY-42
#Configuration: TY-42_900M
#almurnet v.1.7.20251203
#Start time: 2026-01-03 22:03:29

#Version: 2.2.20231116
#Station: R4.6S_Anadyr
#Location: 177.4865 lon 64.73178 lat
#TLE: 1 64048U 25103A   26003.64460648  .00008007  00000-0  38191-3 0 09992
#TLE: 2 64048 097.4106 079.2764 0001638 093.2825 303.9096 15.19157386 35096

#Time	Az	El	Level	Level2	SNR	BER	BlckErr	Temp	State	Recorded	gain1	gain2
2026-01-03 22:03:29.40	24.08	1.90	-51.2	-66.1	3.5	1.51e+00	0	37	0	0	60	72954
2026-01-03 22:03:32.43	24.35	2.08	-48.7	-51.2	6.1	0.00e+00	0	38	104	0	60	44313
2026-01-03 22:03:35.46	24.62	2.27	-49.4	-51.9	6.1	0.00e+00	0	39	104	0	60	47941
2026-01-03 22:03:38.49	24.89	2.45	-49.5	-51.9	6.1	0.00e+00	0	39	104	0	60	48212
2026-01-03 22:03:41.51	25.17	2.64	-48.9	-51.4	6.1	0.00e+00	0	39	104	0	60	45282
2026-01-03 22:03:44.54	25.46	2.83	-49.0	-51.4	6.1	0.00e+00	0	39	104	0	60	45723
2026-01-03 22:03:47.57	25.74	3.02	-49.4	-51.9	6.1	0.00e+00	0	39	104	0	60	47955
2026-01-03 22:03:50.60	26.04	3.21	-49.6	-52.1	6.1	0.00e+00	0	39	104	0	60	49344
2026-01-03 22:03:53.63	26.34	3.40	-49.7	-52.2	6.1	0.00e+00	0	39	104	0	60	49704
2026-01-03 22:03:56.65	26.64	3.59	-49.9	-52.3	6.1	0.00e+00	0	39	104	0	60	50506
2026-01-03 22:03:59.68	26.95	3.79	-35.9	-36.5	9.6	1.62e-02	0	40	0	117440512	36	32732
2026-01-03 22:04:02.71	27.26	3.98	-34.9	-35.2	13.3	0.00e+00	0	39	0	159383552	42	19938
2026-01-03 22:04:05.74	27.58	4.18	-40.5	-40.7	12.4	0.00e+00	5388	39	104	427819008	50	23589
2026-01-03 22:04:08.77	27.90	4.38	-36.3	-36.7	13.4	1.10e-01	0	40	0	637534208	48	16798
2026-01-03 22:04:11.79	28.23	4.58	-35.9	-36.3	13.1	5.66e-02	0	40	0	973078528	40	25248
2026-01-03 22:04:14.82	28.56	4.78	-34.2	-34.6	13.7	5.45e-02	0	40	0	1317011456	42	18482
2026-01-03 22:04:17.85	28.90	4.98	-32.7	-33.1	14.8	4.33e-02	0	40	0	1652555776	42	15623
2026-01-03 22:04:20.88	29.24	5.18	-33.7	-34.1	14.9	3.22e-02	0	40	0	1996488704	38	21919
2026-01-03 22:04:23.91	29.60	5.39	-35.3	-35.7	13.2	6.61e-02	0	40	0	2332033024	44	18829
2026-01-03 22:04:26.93	29.95	5.60	-31.6	-31.9	15.7	2.04e-02	0	40	0	2675965952	40	15279
2026-01-03 22:04:29.96	30.31	5.80	-33.3	-33.9	15.4	4.87e-03	0	40	0	3011510272	42	17042
2026-01-03 22:04:32.99	30.68	6.01	-32.0	-32.5	15.0	1.03e-02	0	40	0	3355443200	40	16241
2026-01-03 22:04:36.02	31.06	6.22	-31.5	-31.9	15.2	1.56e-02	0	41	0	3699376128	38	17077
2026-01-03 22:04:39.05	31.44	6.43	-33.5	-33.9	15.3	7.32e-03	0	41	0	4034920448	40	19128
2026-01-03 22:04:42.08	31.83	6.65	-34.2	-34.6	15.1	9.71e-03	0	41	0	4378853376	40	20910
2026-01-03 22:04:45.11	32.23	6.86	-32.1	-32.6	15.0	9.66e-03	0	41	0	4722786304	40	16537
2026-01-03 22:04:48.14	32.63	7.08	-33.4	-33.9	15.1	1.99e-02	0	41	0	5058330624	42	17113
2026-01-03 22:04:51.16	33.04	7.30	-38.2	-38.3	12.7	2.21e-02	2225	41	0	5402263552	54	14233
2026-01-03 22:04:54.19	33.46	7.52	-33.8	-34.3	15.2	5.81e-02	0	41	0	5637144576	40	19980
2026-01-03 22:04:57.22	33.89	7.74	-33.6	-34.1	15.4	5.48e-02	0	41	0	5981077504	46	13840
2026-01-03 22:05:00.25	34.32	7.96	-37.8	-38.1	11.5	3.08e-02	0	41	0	6316621824	54	13948
2026-01-03 22:05:03.28	34.76	8.18	-35.3	-35.7	14.7	2.40e-01	0	41	0	6660554752	42	20943
2026-01-03 22:05:06.31	35.21	8.41	-34.5	-34.9	14.7	4.63e-02	0	41	0	7004487680	44	17073
2026-01-03 22:05:09.33	35.67	8.63	-35.9	-36.2	13.8	4.62e-02	0	41	0	7340032000	42	22246
2026-01-03 22:05:12.36	36.13	8.86	-41.3	-41.7	9.2	1.79e-01	5403	41	0	7683964928	54	21058
2026-01-03 22:05:15.39	36.61	9.09	-33.8	-34.1	14.4	1.89e-01	0	41	0	8027897856	38	22148
2026-01-03 22:05:18.42	37.09	9.32	-33.6	-33.9	14.7	3.49e-02	0	41	0	8363442176	44	15323
2026-01-03 22:05:21.44	37.59	9.55	-33.6	-34.1	14.4	8.68e-02	0	41	0	8698986496	50	11048
2026-01-03 22:05:24.47	38.09	9.78	-43.9	-44.4	10.4	0.00e+00	756	41	104	9034530816	54	28584
2026-01-03 22:05:27.50	38.60	10.02	-43.0	-43.6	9.0	0.00e+00	5403	41	104	9210691584	58	20889
2026-01-03 22:05:30.52	39.12	10.25	-38.6	-38.9	11.2	0.00e+00	5514	41	104	9344909312	52	17036
2026-01-03 22:05:33.55	39.66	10.49	-40.0	-40.5	11.2	2.93e-01	3137	42	0	9655287808	50	23141
2026-01-03 22:05:36.57	40.20	10.72	-35.0	-35.4	14.8	4.99e-02	0	42	0	9999220736	42	20358
2026-01-03 22:05:39.60	40.75	10.96	-31.9	-32.3	14.9	6.95e-02	0	42	0	10334765056	40	16048
2026-01-03 22:05:42.63	41.32	11.20	-33.7	-34.2	14.0	2.50e-02	0	42	0	10678697984	42	17665
2026-01-03 22:05:45.66	41.89	11.44	-35.6	-35.9	13.6	2.99e-02	0	42	0	11014242304	40	24116
2026-01-03 22:05:48.68	42.48	11.68	-31.2	-31.6	15.7	2.12e-02	0	42	0	11358175232	36	18558
2026-01-03 22:05:51.71	43.08	11.92	-34.6	-35.1	12.8	2.51e-02	0	42	0	11693719552	42	19552
2026-01-03 22:05:54.74	43.69	12.16	-33.0	-33.5	14.9	4.37e-02	0	42	0	12037652480	42	16250
2026-01-03 22:05:57.76	44.31	12.41	-31.8	-32.1	15.0	4.86e-03	0	42	0	12373196800	38	17542
2026-01-03 22:06:00.79	44.94	12.65	-31.9	-32.5	15.4	5.93e-03	0	42	0	12717129728	34	23001
2026-01-03 22:06:03.82	45.59	12.89	-31.0	-31.5	15.7	2.07e-03	0	42	0	13061062656	36	18376
2026-01-03 22:06:06.85	46.25	13.14	-28.5	-29.0	15.9	5.12e-04	0	42	0	13396606976	34	15462
2026-01-03 22:06:09.88	46.92	13.38	-31.1	-31.5	15.5	1.36e-03	0	42	0	13740539904	36	18401
2026-01-03 22:06:12.90	47.60	13.63	-32.7	-33.1	14.0	1.28e-02	0	42	0	14076084224	40	17438
2026-01-03 22:06:15.93	48.30	13.87	-33.1	-33.5	14.3	1.30e-02	0	42	0	14420017152	40	18304
2026-01-03 22:06:18.95	49.01	14.11	-32.1	-32.6	15.1	9.42e-03	0	42	0	14763950080	38	18459
2026-01-03 22:06:21.97	49.73	14.36	-30.8	-31.3	16.0	1.16e-02	0	42	0	15107883008	36	17881
2026-01-03 22:06:25.01	50.48	14.60	-29.2	-29.6	16.4	3.50e-03	0	42	0	15443427328	32	18595
2026-01-03 22:06:28.03	51.23	14.84	-27.7	-28.2	16.4	4.31e-04	0	42	0	15787360256	30	17753
2026-01-03 22:06:31.06	52.00	15.08	-29.1	-29.6	15.3	5.56e-04	0	42	0	16122904576	32	18605
2026-01-03 22:06:34.08	52.78	15.32	-28.0	-28.5	16.8	9.64e-04	0	42	0	16466837504	30	18395
2026-01-03 22:06:37.10	53.57	15.56	-28.6	-29.2	16.4	4.36e-04	0	42	0	16802381824	32	17623
2026-01-03 22:06:40.13	54.38	15.79	-28.0	-28.4	16.4	7.62e-05	0	42	0	17146314752	30	18220
2026-01-03 22:06:43.16	55.21	16.03	-27.6	-28.0	16.8	2.34e-04	0	42	0	17481859072	32	15408
2026-01-03 22:06:46.18	56.05	16.26	-27.6	-28.1	16.6	3.00e-04	0	42	0	17825792000	30	17445
2026-01-03 22:06:49.21	56.91	16.49	-28.9	-29.4	16.0	4.14e-04	0	42	0	18161336320	28	22813
2026-01-03 22:06:52.24	57.78	16.72	-28.8	-29.3	15.6	1.45e-03	0	42	0	18505269248	34	15918
2026-01-03 22:06:55.27	58.66	16.94	-29.3	-29.9	14.8	4.17e-03	0	42	0	18849202176	36	15198
2026-01-03 22:06:58.29	59.56	17.16	-27.8	-28.3	16.7	5.91e-03	0	42	0	19184746496	34	14224
2026-01-03 22:07:01.32	60.48	17.38	-29.2	-29.8	15.6	1.16e-03	0	42	0	19528679424	36	15013
2026-01-03 22:07:04.35	61.41	17.59	-28.7	-29.2	15.3	1.68e-03	0	42	0	19864223744	30	19840
2026-01-03 22:07:07.38	62.36	17.80	-28.6	-29.0	16.2	2.17e-03	0	42	0	20208156672	30	19498
2026-01-03 22:07:10.40	63.32	18.00	-26.0	-26.6	16.6	1.31e-04	0	42	0	20552089600	28	16455
2026-01-03 22:07:13.42	64.30	18.20	-28.3	-28.7	16.2	4.90e-05	0	42	0	20887633920	30	18846
2026-01-03 22:07:16.46	65.29	18.39	-26.5	-27.0	16.8	1.14e-04	0	43	0	21231566848	26	19351
2026-01-03 22:07:19.48	66.29	18.58	-29.6	-30.0	15.9	1.52e-04	0	43	0	21575499776	34	17244
2026-01-03 22:07:22.51	67.31	18.76	-25.7	-26.1	17.1	1.85e-02	0	43	0	21911044096	30	13828
2026-01-03 22:07:25.54	68.35	18.94	-27.9	-28.4	16.5	1.14e-04	0	43	0	22254977024	32	16061
2026-01-03 22:07:28.56	69.39	19.10	-27.2	-27.7	16.2	1.32e-03	0	43	0	22590521344	32	14934
2026-01-03 22:07:31.59	70.45	19.26	-26.4	-26.9	16.2	1.38e-02	0	43	0	22934454272	28	17074
2026-01-03 22:07:34.62	71.52	19.42	-27.9	-28.4	16.1	6.76e-04	0	43	0	23278387200	34	14344
2026-01-03 22:07:37.65	72.61	19.56	-29.2	-29.7	14.9	2.66e-02	0	43	0	23613931520	36	14869
2026-01-03 22:07:40.67	73.70	19.70	-29.0	-29.4	15.2	1.85e-03	0	43	0	23957864448	38	12895
2026-01-03 22:07:43.69	74.80	19.83	-29.3	-29.8	16.4	1.20e-02	0	43	0	24293408768	32	18876
2026-01-03 22:07:46.71	75.92	19.95	-31.7	-32.3	15.3	7.68e-04	0	43	0	24628953088	32	25285
2026-01-03 22:07:49.74	77.04	20.06	-33.4	-33.7	15.4	5.83e-04	0	43	0	24972886016	38	21159
2026-01-03 22:07:52.77	78.18	20.16	-31.5	-32.2	15.1	3.35e-03	0	43	0	25316818944	36	19778
2026-01-03 22:07:55.80	79.32	20.25	-32.5	-33.1	15.4	5.22e-03	0	43	0	25652363264	38	19558
2026-01-03 22:07:58.83	80.47	20.34	-28.8	-29.3	16.7	6.21e-04	0	43	0	25996296192	32	17851
2026-01-03 22:08:01.86	81.63	20.41	-29.9	-30.4	16.0	1.98e-03	0	43	0	26340229120	32	20416
2026-01-03 22:08:04.89	82.79	20.47	-27.1	-27.6	16.3	3.87e-04	0	43	0	26684162048	32	14733
2026-01-03 22:08:07.91	83.96	20.52	-28.5	-28.9	16.6	1.63e-05	0	43	0	27019706368	38	12057
2026-01-03 22:08:10.94	85.13	20.56	-26.0	-26.4	16.5	3.32e-04	0	43	0	27363639296	28	16165
2026-01-03 22:08:13.97	86.31	20.59	-24.7	-25.2	16.7	0.00e+00	0	43	0	27707572224	26	15753
2026-01-03 22:08:16.99	87.48	20.61	-24.5	-24.9	16.8	0.00e+00	0	43	0	28043116544	24	17169
2026-01-03 22:08:20.03	88.66	20.61	-23.9	-24.4	16.9	0.00e+00	0	43	0	28387049472	24	16063
2026-01-03 22:08:23.05	89.84	20.61	-24.3	-24.7	16.9	0.00e+00	0	43	0	28722593792	24	16716
2026-01-03 22:08:26.08	91.02	20.59	-24.1	-24.6	17.0	0.00e+00	0	43	0	29066526720	24	16496
2026-01-03 22:08:29.10	92.19	20.57	-23.7	-24.2	17.0	0.00e+00	0	43	0	29402071040	24	15703
2026-01-03 22:08:32.12	93.36	20.53	-24.8	-25.4	16.9	0.00e+00	0	43	0	29746003968	24	18013
2026-01-03 22:08:35.15	94.53	20.49	-23.5	-23.9	17.1	0.00e+00	0	43	0	30081548288	22	17137
2026-01-03 22:08:38.17	95.70	20.43	-50.3	-52.8	6.1	0.00e+00	0	43	104	30098325504	60	53624
2026-01-03 22:08:41.21	96.86	20.36	-49.8	-52.3	6.1	0.00e+00	0	43	104	30098325504	60	50694
2026-01-03 22:08:44.23	98.01	20.28	-50.1	-52.6	6.1	0.00e+00	0	43	104	30098325504	60	52068
2026-01-03 22:08:47.26	99.16	20.19	-49.6	-52.2	6.1	0.00e+00	0	42	104	30098325504	60	49928
2026-01-03 22:08:50.28	100.30	20.09	-50.9	-53.3	6.1	0.00e+00	0	42	104	30098325504	60	56786
2026-01-03 22:08:53.31	101.43	19.98	-50.9	-53.4	6.1	0.00e+00	0	42	104	30098325504	60	57325
2026-01-03 22:08:56.34	102.55	19.87	-50.7	-53.2	6.1	0.00e+00	0	42	104	30098325504	60	55746
2026-01-03 22:08:59.37	103.67	19.74	-50.8	-53.3	6.1	0.00e+00	0	42	104	30098325504	60	56784
2026-01-03 22:09:02.40	104.77	19.60	-51.5	-54.0	6.1	0.00e+00	0	42	104	30098325504	60	61577
2026-01-03 22:09:05.42	105.86	19.46	-50.5	-53.0	6.1	0.00e+00	0	42	104	30098325504	60	54627
2026-01-03 22:09:08.45	106.94	19.31	-51.3	-53.8	6.1	0.00e+00	0	42	104	30098325504	60	59844
2026-01-03 22:09:11.48	108.00	19.15	-51.2	-53.7	6.1	0.00e+00	0	43	104	30098325504	60	58970
2026-01-03 22:09:14.51	109.06	18.98	-50.6	-53.1	6.1	0.00e+00	0	43	104	30098325504	60	55330
2026-01-03 22:09:17.54	110.10	18.81	-51.4	-53.9	6.1	0.00e+00	0	42	104	30098325504	60	60741
2026-01-03 22:09:20.56	111.12	18.63	-50.8	-53.3	6.0	0.00e+00	0	43	104	30098325504	60	56537
2026-01-03 22:09:23.59	112.14	18.44	-50.9	-53.4	6.1	0.00e+00	0	43	104	30098325504	60	57319
2026-01-03 22:09:26.62	113.14	18.25	-51.2	-53.6	6.1	0.00e+00	0	42	104	30098325504	60	58902
2026-01-03 22:09:29.65	114.13	18.05	-50.8	-53.2	6.1	0.00e+00	0	42	104	30098325504	60	56163
2026-01-03 22:09:32.68	115.10	17.85	-50.7	-53.1	6.1	0.00e+00	0	42	104	30098325504	60	55596
2026-01-03 22:09:35.70	116.05	17.64	-51.0	-53.5	6.1	0.00e+00	0	42	104	30098325504	60	57886
2026-01-03 22:09:38.73	116.99	17.43	-50.8	-53.3	6.1	0.00e+00	0	42	104	30098325504	60	56557
2026-01-03 22:09:41.76	117.92	17.21	-50.6	-53.1	6.1	0.00e+00	0	42	104	30098325504	60	55627
2026-01-03 22:09:44.79	118.83	16.99	-50.9	-53.4	6.1	0.00e+00	0	42	104	30098325504	60	57562
2026-01-03 22:09:47.82	119.72	16.76	-51.2	-53.7	6.1	0.00e+00	0	42	104	30098325504	60	59604
2026-01-03 22:09:50.84	120.60	16.54	-51.0	-53.5	6.1	0.00e+00	0	42	104	30098325504	60	57892
2026-01-03 22:09:53.87	121.47	16.31	-51.3	-53.8	6.1	0.00e+00	0	42	104	30098325504	60	60304
2026-01-03 22:09:56.89	122.32	16.07	-51.2	-53.6	6.1	0.00e+00	0	42	104	30098325504	60	58898
2026-01-03 22:09:59.92	123.15	15.84	-51.3	-53.8	6.1	0.00e+00	0	42	104	30098325504	60	59760
2026-01-03 22:10:02.95	123.97	15.60	-50.6	-53.1	6.1	0.00e+00	0	42	104	30098325504	60	55390
2026-01-03 22:10:05.98	124.78	15.36	-51.5	-53.9	6.1	0.00e+00	0	42	104	30098325504	60	60799
2026-01-03 22:10:09.01	125.57	15.12	-51.2	-53.6	6.1	0.00e+00	0	42	104	30098325504	60	58696
2026-01-03 22:10:12.03	126.34	14.88	-51.2	-53.6	6.1	0.00e+00	0	42	104	30098325504	60	58898
2026-01-03 22:10:15.06	127.10	14.64	-50.8	-53.3	6.1	0.00e+00	0	42	104	30098325504	60	56770
2026-01-03 22:10:18.09	127.85	14.39	-50.9	-53.3	6.1	0.00e+00	0	42	104	30098325504	60	56792
2026-01-03 22:10:21.12	128.59	14.15	-51.3	-53.8	6.1	0.00e+00	0	42	104	30098325504	60	59660
2026-01-03 22:10:24.15	129.31	13.90	-51.3	-53.7	6.1	0.00e+00	0	42	104	30098325504	60	59239
2026-01-03 22:10:27.18	130.01	13.65	-50.9	-53.5	6.1	0.00e+00	0	42	104	30098325504	60	58103
2026-01-03 22:10:30.20	130.70	13.41	-50.9	-53.4	6.1	0.00e+00	0	42	104	30098325504	60	57363
2026-01-03 22:10:33.23	131.38	13.16	-50.7	-53.1	6.1	0.00e+00	0	42	104	30098325504	60	55537
2026-01-03 22:10:36.26	132.05	12.92	-50.2	-52.7	6.1	0.00e+00	0	42	104	30098325504	60	52646
2026-01-03 22:10:39.29	132.70	12.67	-50.6	-53.0	6.1	0.00e+00	0	42	104	30098325504	60	54650
2026-01-03 22:10:42.32	133.34	12.42	-51.0	-53.5	6.1	0.00e+00	0	42	104	30098325504	60	57785
2026-01-03 22:10:45.35	133.97	12.18	-50.6	-53.1	6.1	0.00e+00	0	42	104	30098325504	60	55342
2026-01-03 22:10:48.37	134.58	11.94	-50.8	-53.2	6.1	0.00e+00	0	42	104	30098325504	60	56210
2026-01-03 22:10:51.40	135.19	11.69	-49.9	-52.4	6.1	0.00e+00	0	42	104	30098325504	60	51008
2026-01-03 22:10:54.43	135.78	11.45	-49.9	-52.4	6.1	0.00e+00	0	42	104	30098325504	60	50853
2026-01-03 22:10:57.45	136.36	11.21	-50.4	-52.8	6.1	0.00e+00	0	42	104	30098325504	60	53637
2026-01-03 22:11:00.48	136.93	10.97	-50.8	-53.3	6.1	0.00e+00	0	42	104	30098325504	60	56615
2026-01-03 22:11:03.51	137.49	10.72	-50.0	-52.5	6.1	0.00e+00	0	42	104	30098325504	60	51653
2026-01-03 22:11:06.53	138.04	10.49	-50.8	-53.3	6.1	0.00e+00	0	42	104	30098325504	60	56624
2026-01-03 22:11:09.55	138.57	10.25	-50.8	-53.3	6.1	0.00e+00	0	42	104	30098325504	60	56705
2026-01-03 22:11:12.58	139.10	10.01	-50.7	-53.2	6.1	0.00e+00	0	42	104	30098325504	60	56031
2026-01-03 22:11:15.61	139.62	9.77	-50.4	-52.8	6.1	0.00e+00	0	42	104	30098325504	60	53753
2026-01-03 22:11:18.64	140.13	9.54	-50.3	-52.7	6.1	0.00e+00	0	42	104	30098325504	60	53127
2026-01-03 22:11:21.67	140.62	9.31	-50.2	-52.7	6.1	0.00e+00	0	41	104	30098325504	60	52624
2026-01-03 22:11:24.70	141.11	9.07	-50.2	-52.7	6.1	0.00e+00	0	41	104	30098325504	60	52636
2026-01-03 22:11:27.72	141.59	8.84	-49.9	-52.4	6.1	0.00e+00	0	41	104	30098325504	60	50830
2026-01-03 22:11:30.75	142.06	8.61	-50.2	-52.6	6.1	0.00e+00	0	41	104	30098325504	60	52527
2026-01-03 22:11:33.78	142.52	8.39	-50.0	-52.5	6.1	0.00e+00	0	41	104	30098325504	60	51492
2026-01-03 22:11:36.81	142.98	8.16	-49.8	-52.2	6.1	0.00e+00	0	41	104	30098325504	60	50145
2026-01-03 22:11:39.84	143.42	7.93	-48.8	-51.3	6.1	0.00e+00	0	42	104	30098325504	60	45112
2026-01-03 22:11:42.87	143.86	7.71	-49.8	-52.3	6.1	0.00e+00	0	42	104	30098325504	60	50286
2026-01-03 22:11:45.89	144.29	7.49	-50.3	-52.8	6.1	0.00e+00	0	41	104	30098325504	60	53422
2026-01-03 22:11:48.92	144.71	7.27	-49.9	-52.4	6.1	0.00e+00	0	41	104	30098325504	60	51004
2026-01-03 22:11:51.94	145.12	7.05	-49.9	-52.4	6.1	0.00e+00	0	41	104	30098325504	60	50991
2026-01-03 22:11:54.97	145.53	6.83	-50.6	-53.1	6.1	0.00e+00	0	42	104	30098325504	60	55392
2026-01-03 22:11:58.00	145.93	6.61	-49.8	-52.3	6.1	0.00e+00	0	41	104	30098325504	60	50267
2026-01-03 22:12:01.03	146.32	6.40	-49.9	-52.3	6.0	0.00e+00	0	42	104	30098325504	60	50364
2026-01-03 22:12:04.06	146.70	6.18	-50.8	-53.2	6.1	0.00e+00	0	42	104	30098325504	60	56300
2026-01-03 22:12:07.09	147.08	5.97	-50.4	-52.9	6.1	0.00e+00	0	42	104	30098325504	60	53842
2026-01-03 22:12:10.11	147.45	5.76	-49.6	-52.1	6.1	0.00e+00	0	42	104	30098325504	60	49522
2026-01-03 22:12:13.14	147.82	5.55	-49.9	-52.3	6.1	0.00e+00	0	42	104	30098325504	60	50450
2026-01-03 22:12:16.17	148.18	5.34	-49.3	-51.8	6.1	0.00e+00	0	41	104	30098325504	60	47681
2026-01-03 22:12:19.20	148.53	5.13	-49.3	-51.8	6.1	0.00e+00	0	42	104	30098325504	60	47387
2026-01-03 22:12:22.22	148.87	4.93	-50.5	-53.0	6.1	0.00e+00	0	42	104	30098325504	60	54907
2026-01-03 22:12:25.24	149.21	4.72	-50.4	-52.9	6.1	0.00e+00	0	42	104	30098325504	60	54252
2026-01-03 22:12:28.27	149.55	4.52	-50.3	-52.8	6.1	0.00e+00	0	41	104	30098325504	60	53524
2026-01-03 22:12:31.30	149.88	4.32	-50.1	-52.6	6.1	0.00e+00	0	41	104	30098325504	60	51985
2026-01-03 22:12:34.32	150.20	4.12	-50.3	-52.8	6.1	0.00e+00	0	41	104	30098325504	60	53183
2026-01-03 22:12:37.35	150.52	3.92	-49.3	-51.8	6.1	0.00e+00	0	41	104	30098325504	60	47781
2026-01-03 22:12:40.37	150.83	3.72	-49.2	-51.7	6.1	0.00e+00	0	41	104	30098325504	60	47020
2026-01-03 22:12:43.40	151.14	3.53	-49.9	-52.4	6.1	0.00e+00	0	41	104	30098325504	60	50795
2026-01-03 22:12:46.43	151.45	3.33	-49.7	-52.2	6.1	0.00e+00	0	41	104	30098325504	60	49640
2026-01-03 22:12:49.46	151.74	3.14	-49.7	-52.2	6.1	0.00e+00	0	42	104	30098325504	60	49899
2026-01-03 22:12:52.49	152.04	2.95	-50.1	-52.5	6.1	0.00e+00	0	42	104	30098325504	60	51758
2026-01-03 22:12:55.52	152.33	2.76	-51.3	-53.8	6.1	0.00e+00	0	42	104	30098325504	60	59720
2026-01-03 22:12:58.55	152.61	2.57	-50.8	-53.2	6.1	0.00e+00	0	42	104	30098325504	60	56117
2026-01-03 22:13:01.57	152.89	2.38	-51.4	-53.8	6.1	0.00e+00	0	41	104	30098325504	60	60144
2026-01-03 22:13:04.60	153.17	2.19	-51.2	-53.7	6.1	0.00e+00	0	42	104	30098325504	60	59044
2026-01-03 22:13:07.63	153.44	2.00	-51.6	-54.0	6.1	0.00e+00	0	42	104	30098325504	60	61725
2026-01-03 22:13:10.66	153.71	1.82	-50.9	-53.4	6.1	0.00e+00	0	41	104	30098325504	60	57601
2026-01-03 22:13:13.69	153.97	1.63	-51.7	-54.0	6.1	0.00e+00	0	42	104	30098325504	60	61714
2026-01-03 22:13:16.72	154.23	1.45	-51.3	-53.8	6.1	0.00e+00	0	42	104	30098325504	60	59714
2026-01-03 22:13:19.74	154.49	1.27	-51.9	-54.4	6.0	0.00e+00	0	42	104	30098325504	60	64328
2026-01-03 22:13:22.77	154.74	1.09	-52.6	-55.1	6.1	0.00e+00	0	42	104	30098325504	60	69623
2026-01-03 22:13:25.80	154.99	0.91	-52.3	-54.7	6.1	0.00e+00	0	42	104	30098325504	60	66635
2026-01-03 22:13:28.83	155.23	0.73	-50.9	-53.4	6.1	0.00e+00	0	42	104	30098325504	60	57272
2026-01-03 22:13:31.86	155.47	0.55	-51.3	-53.7	6.1	0.00e+00	0	42	104	30098325504	60	59374
2026-01-03 22:13:34.89	155.71	0.38	-51.8	-54.2	6.1	0.00e+00	0	42	104	30098325504	60	63031
2026-01-03 22:13:37.91	155.95	0.20	-52.9	-55.2	6.1	0.00e+00	0	42	104	30098325504	60	70678
2026-01-03 22:13:40.94	156.18	0.03	-51.6	-54.1	6.1	0.00e+00	0	41	104	30098325504	60	61848

#Closed at: 2026-01-03 22:13:42
#Recorded file [30098 MB]: D:/lorett/data/35029_260104_100329.dat