passes_logs/2026/01/03/R4.6S_Anadyr/R4.6S_Anadyr__20260103_202804_NOAA_20_JPSS-1_rec.log

#Pass ID: 20260103_202804_NOAA 20 (JPSS-1)
#Satellite: NOAA 20 (JPSS-1)
#Configuration: NOAA 20
#almurnet v.1.7.20251203
#Start time: 2026-01-03 20:28:07

#Version: 2.2.20231116
#Station: R4.6S_Anadyr
#Location: 177.4865 lon 64.73178 lat
#TLE: 1 43013U 17073A   26003.41800368  .00000169  00000+0  10117-3 0  9998
#TLE: 2 43013  98.7624 304.4804 0001884  56.1176 304.0179 14.19532918421092

#Time	Az	El	Level	Level2	SNR	BER	BlckErr	Temp	State	Recorded	gain1	gain2
2026-01-03 20:28:07.03	70.61	0.10	-51.9	-66.8	3.5	1.51e+00	0	36	0	0	60	78925
2026-01-03 20:28:11.07	70.32	0.30	-50.5	-65.8	3.5	1.51e+00	0	37	104	0	60	70196
2026-01-03 20:28:15.11	70.02	0.51	-51.5	-66.7	3.6	1.51e+00	0	38	104	0	60	78098
2026-01-03 20:28:19.14	69.72	0.71	-52.1	-67.4	3.6	1.51e+00	0	38	104	0	60	84513
2026-01-03 20:28:23.18	69.42	0.91	-50.0	-65.2	3.6	1.51e+00	0	38	104	0	60	65570
2026-01-03 20:28:27.21	69.11	1.11	-48.6	-63.8	3.6	1.51e+00	0	38	104	0	60	55688
2026-01-03 20:28:31.25	68.79	1.32	-48.9	-64.1	3.6	1.51e+00	0	38	104	0	60	57843
2026-01-03 20:28:35.28	68.47	1.52	-48.7	-63.8	3.6	1.51e+00	0	38	104	0	60	56304
2026-01-03 20:28:39.32	68.15	1.73	-48.7	-63.9	3.6	1.51e+00	0	38	104	0	60	56423
2026-01-03 20:28:43.36	67.82	1.93	-48.9	-64.0	3.6	1.51e+00	0	38	104	0	60	57059
2026-01-03 20:28:47.39	67.49	2.14	-48.5	-63.5	3.6	1.51e+00	0	38	104	0	60	53773
2026-01-03 20:28:51.43	67.15	2.35	-48.5	-63.7	3.6	1.51e+00	0	38	104	0	60	55063
2026-01-03 20:28:55.46	66.81	2.56	-48.8	-64.0	3.6	1.51e+00	0	38	104	0	60	56998
2026-01-03 20:28:59.50	66.46	2.76	-48.6	-63.3	3.6	1.51e+00	0	38	104	0	60	52790
2026-01-03 20:29:03.54	66.11	2.97	-48.0	-56.7	5.7	6.83e-01	92	38	0	0	60	24844
2026-01-03 20:29:07.58	65.75	3.18	-47.6	-54.5	5.3	1.51e+00	0	38	104	5242880	60	19089
2026-01-03 20:29:11.62	65.39	3.39	-47.4	-52.5	9.7	4.52e-01	92	38	104	6291456	60	15309
2026-01-03 20:29:15.65	65.02	3.60	-47.0	-51.2	14.1	4.92e-04	92	38	0	13631488	60	13191
2026-01-03 20:29:19.68	64.65	3.81	-45.7	-48.2	14.4	3.86e-03	83	38	0	20971520	60	9269
2026-01-03 20:29:23.71	64.27	4.02	-47.0	-51.6	11.2	6.99e-04	0	38	0	28311552	60	13696
2026-01-03 20:29:27.75	63.88	4.24	-44.4	-46.6	16.5	0.00e+00	92	38	0	35651584	60	7765
2026-01-03 20:29:31.78	63.49	4.45	-44.4	-46.5	16.9	0.00e+00	91	38	0	42991616	60	7668
2026-01-03 20:29:35.81	63.09	4.66	-44.2	-46.3	17.1	0.00e+00	13	38	0	51380224	60	7433
2026-01-03 20:29:39.86	62.69	4.88	-44.9	-47.0	17.1	0.00e+00	79	38	0	58720256	60	8131
2026-01-03 20:29:43.89	62.28	5.09	-44.0	-45.9	17.8	0.00e+00	91	38	0	66060288	60	7149
2026-01-03 20:29:47.93	61.87	5.30	-44.2	-46.2	17.6	0.00e+00	90	38	0	73400320	60	7404
2026-01-03 20:29:51.97	61.44	5.52	-43.4	-45.2	18.2	0.00e+00	19	38	0	81788928	60	6573
2026-01-03 20:29:56.00	61.02	5.73	-43.5	-45.3	18.5	0.00e+00	90	38	0	89128960	60	6623
2026-01-03 20:30:00.04	60.58	5.95	-43.0	-44.7	18.7	0.00e+00	92	38	0	96468992	60	6204
2026-01-03 20:30:04.07	60.14	6.16	-43.3	-45.0	18.4	0.00e+00	92	38	0	103809024	60	6443
2026-01-03 20:30:08.11	59.69	6.37	-43.7	-45.3	18.6	0.00e+00	0	39	0	111149056	60	6677
2026-01-03 20:30:12.15	59.24	6.59	-43.6	-45.2	18.9	0.00e+00	92	38	0	119537664	60	6547
2026-01-03 20:30:16.19	58.77	6.81	-42.9	-44.4	19.3	0.00e+00	92	39	0	126877696	60	6028
2026-01-03 20:30:20.22	58.31	7.02	-43.0	-44.5	17.2	0.00e+00	21	39	0	134217728	60	6059
2026-01-03 20:30:24.26	57.83	7.24	-42.5	-43.9	19.7	0.00e+00	59	39	0	141557760	58	6353
2026-01-03 20:30:28.29	57.35	7.45	-44.4	-46.0	18.7	0.00e+00	90	39	0	149946368	60	7246
2026-01-03 20:30:32.32	56.86	7.66	-42.9	-44.4	19.5	0.00e+00	92	39	0	157286400	60	5979
2026-01-03 20:30:36.36	56.36	7.88	-43.4	-45.0	19.3	0.00e+00	19	39	0	164626432	60	6393
2026-01-03 20:30:40.40	55.85	8.09	-44.2	-45.8	19.1	0.00e+00	20	39	0	171966464	60	7022
2026-01-03 20:30:44.43	55.34	8.31	-43.9	-45.6	18.7	0.00e+00	90	39	0	179306496	60	6852
2026-01-03 20:30:48.46	54.82	8.52	-42.5	-43.9	19.9	0.00e+00	90	39	0	187695104	58	6353
2026-01-03 20:30:52.50	54.29	8.73	-42.4	-43.9	19.7	0.00e+00	2	39	0	195035136	58	6330
2026-01-03 20:30:56.53	53.75	8.95	-42.3	-43.8	19.6	0.00e+00	6	39	0	202375168	58	6268
2026-01-03 20:31:00.56	53.21	9.16	-42.5	-44.0	19.7	0.00e+00	92	39	0	209715200	58	6429
2026-01-03 20:31:04.59	52.66	9.37	-42.4	-43.9	19.6	0.00e+00	92	39	0	218103808	58	6348
2026-01-03 20:31:08.63	52.10	9.58	-42.4	-43.8	20.0	0.00e+00	67	39	0	225443840	58	6285
2026-01-03 20:31:12.67	51.53	9.79	-42.2	-43.6	20.0	0.00e+00	0	39	0	232783872	58	6172
2026-01-03 20:31:16.70	50.95	10.00	-42.3	-43.7	19.8	0.00e+00	92	39	0	240123904	58	6174
2026-01-03 20:31:20.74	50.36	10.20	-42.0	-43.4	20.1	0.00e+00	92	39	0	247463936	58	5992
2026-01-03 20:31:24.77	49.77	10.41	-42.0	-43.3	20.2	0.00e+00	0	39	0	255852544	58	5950
2026-01-03 20:31:28.81	49.17	10.61	-41.9	-43.2	20.1	0.00e+00	0	39	0	263192576	56	6581
2026-01-03 20:31:32.84	48.56	10.82	-41.7	-42.9	20.6	0.00e+00	92	39	0	270532608	56	6384
2026-01-03 20:31:36.88	47.94	11.02	-42.3	-43.7	20.2	0.00e+00	92	39	0	277872640	58	6198
2026-01-03 20:31:40.92	47.31	11.22	-41.5	-42.7	21.3	0.00e+00	0	39	0	285212672	56	6232
2026-01-03 20:31:44.95	46.67	11.42	-43.4	-45.0	19.5	0.00e+00	0	39	0	293601280	60	6428
2026-01-03 20:31:48.99	46.02	11.61	-40.6	-41.7	21.8	0.00e+00	92	39	0	300941312	54	6203
2026-01-03 20:31:53.03	45.37	11.81	-40.8	-41.9	21.9	0.00e+00	92	39	0	308281344	54	6379
2026-01-03 20:31:57.06	44.70	12.00	-40.8	-41.8	22.1	0.00e+00	0	39	0	315621376	54	6294
2026-01-03 20:32:01.09	44.03	12.19	-40.7	-41.7	22.4	0.00e+00	92	39	0	324009984	54	6207
2026-01-03 20:32:05.13	43.35	12.37	-40.3	-41.3	22.7	0.00e+00	92	39	0	331350016	54	5918
2026-01-03 20:32:09.17	42.66	12.56	-40.1	-41.0	22.9	0.00e+00	0	39	0	338690048	54	5754
2026-01-03 20:32:13.20	41.96	12.74	-39.9	-40.9	22.3	0.00e+00	58	39	0	346030080	52	6386
2026-01-03 20:32:17.24	41.25	12.92	-40.6	-41.5	22.2	0.00e+00	92	39	0	353370112	54	6081
2026-01-03 20:32:21.28	40.53	13.09	-41.2	-42.2	22.7	0.00e+00	0	39	0	361758720	54	6574
2026-01-03 20:32:25.32	39.81	13.27	-40.3	-41.3	22.6	0.00e+00	2	39	0	369098752	54	5929
2026-01-03 20:32:29.36	39.07	13.44	-40.2	-41.2	22.4	0.00e+00	21	39	0	376438784	54	5873
2026-01-03 20:32:33.39	38.33	13.60	-40.2	-41.2	22.5	0.00e+00	92	39	0	383778816	54	5883
2026-01-03 20:32:37.43	37.58	13.76	-40.2	-41.2	22.8	0.00e+00	65	39	0	391118848	54	5853
2026-01-03 20:32:41.47	36.82	13.92	-39.8	-40.8	22.9	0.00e+00	5	39	0	399507456	54	5576
2026-01-03 20:32:45.51	36.05	14.07	-39.9	-40.9	23.0	0.00e+00	0	39	0	406847488	52	6343
2026-01-03 20:32:49.54	35.28	14.22	-41.7	-42.9	21.8	0.00e+00	92	39	0	414187520	56	6356
2026-01-03 20:32:53.57	34.50	14.37	-40.3	-41.3	22.5	0.00e+00	21	39	0	421527552	52	6643
2026-01-03 20:32:57.61	33.71	14.51	-39.8	-40.7	23.1	0.00e+00	0	39	0	429916160	52	6240
2026-01-03 20:33:01.65	32.91	14.64	-39.4	-40.4	23.4	0.00e+00	63	39	0	437256192	52	5975
2026-01-03 20:33:05.68	32.11	14.78	-39.6	-40.6	23.4	0.00e+00	92	39	0	444596224	52	6114
2026-01-03 20:33:09.72	31.29	14.90	-39.8	-40.8	23.3	0.00e+00	0	39	0	451936256	52	6275
2026-01-03 20:33:13.76	30.47	15.02	-39.6	-40.5	23.3	0.00e+00	3	39	0	459276288	52	6101
2026-01-03 20:33:17.79	29.65	15.14	-41.0	-42.0	22.7	0.00e+00	0	39	0	467664896	54	6445
2026-01-03 20:33:21.83	28.82	15.25	-41.2	-42.2	21.6	0.00e+00	92	39	0	475004928	56	5881
2026-01-03 20:33:25.86	27.98	15.35	-40.1	-41.1	23.2	0.00e+00	0	39	0	482344960	54	5776
2026-01-03 20:33:29.89	27.14	15.45	-40.2	-41.2	22.9	0.00e+00	0	39	0	489684992	54	5848
2026-01-03 20:33:33.93	26.29	15.54	-41.2	-42.3	21.2	0.00e+00	0	39	0	498073600	56	5956
2026-01-03 20:33:37.97	25.44	15.63	-41.1	-42.2	22.3	0.00e+00	33	39	0	505413632	56	5846
2026-01-03 20:33:42.01	24.58	15.71	-40.9	-41.9	22.5	0.00e+00	58	39	0	512753664	54	6347
2026-01-03 20:33:46.05	23.71	15.78	-41.4	-42.6	14.8	0.00e+00	58	39	0	520093696	54	6866
2026-01-03 20:33:50.08	22.85	15.85	-41.0	-42.0	22.8	0.00e+00	2	39	0	527433728	54	6436
2026-01-03 20:33:54.12	21.98	15.91	-40.1	-41.1	22.9	0.00e+00	0	39	0	535822336	54	5791
2026-01-03 20:33:58.16	21.10	15.96	-40.7	-41.7	22.5	0.00e+00	0	39	0	543162368	54	6195
2026-01-03 20:34:02.19	20.22	16.01	-40.4	-41.4	22.8	0.00e+00	0	39	0	550502400	54	6017
2026-01-03 20:34:06.23	19.34	16.05	-40.6	-41.6	22.7	0.00e+00	92	39	0	557842432	54	6161
2026-01-03 20:34:10.26	18.46	16.09	-42.7	-44.0	20.4	0.00e+00	0	39	0	566231040	60	5758
2026-01-03 20:34:14.29	17.58	16.11	-42.6	-43.9	20.7	0.00e+00	0	39	0	573571072	56	7128
2026-01-03 20:34:18.33	16.69	16.13	-41.9	-43.0	20.6	0.00e+00	0	39	0	580911104	60	5122
2026-01-03 20:34:22.37	15.81	16.15	-42.3	-43.5	20.4	0.00e+00	92	39	0	588251136	58	6066
2026-01-03 20:34:26.41	14.92	16.15	-41.7	-42.8	21.5	0.00e+00	2	39	0	595591168	56	6283
2026-01-03 20:34:30.44	14.03	16.15	-41.2	-42.1	22.4	0.00e+00	60	39	0	603979776	54	6533
2026-01-03 20:34:34.48	13.15	16.14	-40.5	-41.5	22.6	0.00e+00	5	39	0	611319808	54	6091
2026-01-03 20:34:38.51	12.26	16.13	-40.6	-41.7	22.6	0.00e+00	90	39	0	618659840	54	6180
2026-01-03 20:34:42.55	11.38	16.11	-41.3	-42.3	21.9	0.00e+00	22	39	0	625999872	56	5958
2026-01-03 20:34:46.59	10.49	16.08	-41.1	-42.2	22.5	0.00e+00	21	39	0	633339904	56	5833
2026-01-03 20:34:50.62	9.61	16.04	-40.1	-41.1	22.7	0.00e+00	22	39	0	641728512	54	5787
2026-01-03 20:34:54.65	8.74	16.00	-40.7	-41.8	22.3	0.00e+00	91	39	0	649068544	54	6271
2026-01-03 20:34:58.68	7.86	15.95	-40.4	-41.4	22.5	0.00e+00	65	39	0	656408576	54	6024
2026-01-03 20:35:02.72	6.99	15.90	-40.4	-41.4	23.0	0.00e+00	0	39	0	663748608	54	5970
2026-01-03 20:35:06.76	6.12	15.84	-40.7	-41.7	23.0	0.00e+00	0	39	0	672137216	54	6185
2026-01-03 20:35:10.79	5.25	15.77	-39.8	-40.7	23.4	0.00e+00	90	39	0	679477248	54	5544
2026-01-03 20:35:14.76	4.40	15.69	-40.2	-41.2	23.0	0.00e+00	58	39	0	686817280	54	5864
2026-01-03 20:35:18.79	3.55	15.61	-40.0	-40.9	22.9	0.00e+00	60	39	0	694157312	52	6383
2026-01-03 20:35:22.82	2.70	15.53	-40.2	-41.2	22.9	0.00e+00	0	39	0	701497344	54	5885
2026-01-03 20:35:26.86	1.85	15.43	-40.5	-41.5	23.1	0.00e+00	92	39	0	709885952	54	6048
2026-01-03 20:35:30.90	1.01	15.33	-40.2	-41.2	22.8	7.00e-07	0	39	0	717225984	54	5880
2026-01-03 20:35:34.93	0.17	15.23	-43.0	-44.3	21.6	0.00e+00	17	39	0	724566016	56	7484
2026-01-03 20:35:38.97	359.34	15.12	-40.6	-41.6	22.4	0.00e+00	11	39	0	731906048	54	6118
2026-01-03 20:35:43.01	358.52	15.00	-40.9	-41.9	22.4	0.00e+00	92	39	0	739246080	54	6353
2026-01-03 20:35:47.05	357.70	14.88	-40.5	-41.6	22.2	0.00e+00	0	39	0	747634688	54	6113
2026-01-03 20:35:51.08	356.89	14.75	-41.1	-42.1	22.4	0.00e+00	0	39	0	754974720	56	5820
2026-01-03 20:35:55.12	356.09	14.62	-42.9	-44.1	21.2	0.00e+00	92	39	0	762314752	60	5788
2026-01-03 20:35:59.16	355.29	14.48	-42.3	-43.4	20.8	0.00e+00	28	39	0	769654784	56	6744
2026-01-03 20:36:03.19	354.51	14.34	-41.6	-42.7	21.0	0.00e+00	2	39	0	778043392	56	6236
2026-01-03 20:36:07.23	353.72	14.20	-42.2	-43.6	19.8	0.00e+00	0	39	0	785383424	58	6110
2026-01-03 20:36:11.27	352.95	14.05	-43.0	-44.3	20.4	0.00e+00	92	39	0	792723456	58	6645
2026-01-03 20:36:15.30	352.19	13.89	-44.5	-46.1	19.0	0.00e+00	0	39	0	800063488	60	7274
2026-01-03 20:36:19.34	351.43	13.74	-41.8	-42.9	21.2	0.00e+00	0	39	0	807403520	56	6356
2026-01-03 20:36:23.38	350.68	13.57	-42.8	-44.2	20.3	0.00e+00	6	39	0	815792128	58	6581
2026-01-03 20:36:27.41	349.94	13.41	-43.0	-44.3	20.0	0.00e+00	92	39	0	823132160	56	7478
2026-01-03 20:36:31.45	349.21	13.24	-42.9	-44.2	20.8	0.00e+00	2	39	0	830472192	56	7398
2026-01-03 20:36:35.48	348.49	13.07	-41.6	-42.8	21.2	0.00e+00	4	39	0	837812224	56	6289
2026-01-03 20:36:39.51	347.78	12.89	-42.2	-43.5	20.4	0.00e+00	3	39	0	845152256	56	6831
2026-01-03 20:36:43.54	347.07	12.71	-42.3	-43.5	21.4	0.00e+00	91	39	0	853540864	58	6055
2026-01-03 20:36:47.58	346.38	12.53	-43.1	-44.6	19.8	0.00e+00	66	39	0	860880896	58	6875
2026-01-03 20:36:51.62	345.69	12.34	-43.6	-45.0	19.9	0.00e+00	7	39	0	868220928	60	6451
2026-01-03 20:36:55.66	345.01	12.16	-43.0	-44.4	20.4	0.00e+00	1	39	0	875560960	60	6009
2026-01-03 20:36:59.69	344.34	11.97	-43.5	-44.9	20.1	0.00e+00	92	39	0	883949568	60	6359
2026-01-03 20:37:03.72	343.68	11.78	-43.2	-44.6	19.9	0.00e+00	21	39	0	891289600	60	6113
2026-01-03 20:37:07.75	343.03	11.58	-43.3	-44.7	20.0	0.00e+00	20	39	0	898629632	60	6226
2026-01-03 20:37:11.79	342.38	11.39	-42.9	-44.3	19.7	0.00e+00	68	39	0	905969664	60	5943
2026-01-03 20:37:15.83	341.75	11.19	-43.5	-45.0	19.5	0.00e+00	92	39	0	913309696	60	6408
2026-01-03 20:37:19.86	341.12	10.99	-44.3	-45.8	19.5	0.00e+00	0	39	0	921698304	60	7081
2026-01-03 20:37:23.90	340.50	10.79	-44.0	-45.5	19.3	0.00e+00	2	39	0	929038336	60	6822
2026-01-03 20:37:27.95	339.89	10.58	-44.1	-45.7	19.4	0.00e+00	20	39	0	936378368	60	6940
2026-01-03 20:37:31.98	339.29	10.38	-43.7	-45.2	19.6	0.00e+00	92	39	0	943718400	60	6542
2026-01-03 20:37:36.02	338.70	10.17	-42.5	-43.9	19.9	0.00e+00	62	39	0	952107008	58	6355
2026-01-03 20:37:40.05	338.12	9.97	-42.8	-44.2	20.0	0.00e+00	0	39	0	959447040	58	6592
2026-01-03 20:37:44.09	337.54	9.76	-44.9	-46.7	18.5	0.00e+00	92	39	0	966787072	60	7844
2026-01-03 20:37:48.13	336.98	9.55	-42.8	-44.1	20.6	0.00e+00	62	39	0	974127104	60	5808
2026-01-03 20:37:52.17	336.42	9.34	-41.8	-43.0	21.0	0.00e+00	62	39	0	981467136	56	6411
2026-01-03 20:37:56.21	335.87	9.13	-43.1	-44.4	20.7	0.00e+00	63	39	0	989855744	58	6753
2026-01-03 20:38:00.25	335.33	8.91	-43.6	-44.9	20.9	0.00e+00	92	39	0	997195776	60	6357
2026-01-03 20:38:04.28	334.79	8.70	-41.6	-42.8	21.0	0.00e+00	18	39	0	1004535808	56	6312
2026-01-03 20:38:08.32	334.27	8.49	-45.8	-47.5	18.5	0.00e+00	17	39	0	1011875840	60	8612
2026-01-03 20:38:12.36	333.75	8.28	-44.4	-46.1	18.3	0.00e+00	16	39	0	1020264448	60	7292
2026-01-03 20:38:16.40	333.24	8.06	-42.1	-43.4	20.4	0.00e+00	92	39	0	1027604480	58	6007
2026-01-03 20:38:20.43	332.73	7.85	-41.2	-42.3	21.6	0.00e+00	1	39	0	1034944512	56	5962
2026-01-03 20:38:24.47	332.24	7.63	-42.1	-43.3	20.9	0.00e+00	4	39	0	1042284544	58	5897
2026-01-03 20:38:28.51	331.75	7.42	-41.5	-42.7	21.5	0.00e+00	3	39	0	1049624576	56	6181
2026-01-03 20:38:32.55	331.27	7.20	-41.8	-43.0	20.9	0.00e+00	91	39	0	1058013184	56	6428
2026-01-03 20:38:36.59	330.79	6.99	-42.5	-43.7	20.8	0.00e+00	71	39	0	1065353216	58	6241
2026-01-03 20:38:40.63	330.33	6.77	-42.3	-43.6	20.5	0.00e+00	3	39	0	1072693248	58	6116
2026-01-03 20:38:44.66	329.87	6.56	-42.2	-43.4	20.9	0.00e+00	5	39	0	1080033280	58	5985
2026-01-03 20:38:48.70	329.42	6.35	-42.9	-44.1	20.8	0.00e+00	92	39	0	1087373312	58	6476
2026-01-03 20:38:52.74	328.97	6.13	-41.5	-42.7	20.9	0.00e+00	18	39	0	1095761920	56	6218
2026-01-03 20:38:56.78	328.53	5.92	-42.0	-43.3	20.5	0.00e+00	64	39	0	1103101952	56	6635
2026-01-03 20:39:00.81	328.10	5.70	-44.9	-46.4	18.6	0.00e+00	71	39	0	1110441984	60	7583
2026-01-03 20:39:04.86	327.67	5.49	-44.0	-45.5	19.3	0.00e+00	92	39	0	1117782016	60	6818
2026-01-03 20:39:08.90	327.25	5.27	-42.1	-43.5	19.8	0.00e+00	0	39	0	1126170624	58	6102
2026-01-03 20:39:12.93	326.84	5.06	-42.8	-44.3	19.6	0.00e+00	65	39	0	1133510656	58	6646
2026-01-03 20:39:16.97	326.43	4.85	-43.2	-44.8	18.9	0.00e+00	90	39	0	1140850688	60	6306
2026-01-03 20:39:21.01	326.03	4.63	-44.5	-46.2	18.2	0.00e+00	92	39	0	1148190720	60	7393
2026-01-03 20:39:25.04	325.64	4.42	-44.6	-46.3	18.4	0.00e+00	0	39	0	1155530752	60	7502
2026-01-03 20:39:29.08	325.25	4.21	-44.3	-46.0	18.3	0.00e+00	0	39	0	1163919360	60	7252
2026-01-03 20:39:33.12	324.87	4.00	-45.3	-47.1	18.0	0.00e+00	92	39	0	1171259392	60	8202
2026-01-03 20:39:37.15	324.49	3.79	-44.9	-46.8	17.6	0.00e+00	67	39	0	1178599424	60	7879
2026-01-03 20:39:41.19	324.12	3.58	-44.3	-46.2	17.8	0.00e+00	65	39	0	1185939456	60	7368
2026-01-03 20:39:45.23	323.75	3.37	-44.3	-46.4	16.8	0.00e+00	0	39	0	1194328064	60	7565
2026-01-03 20:39:49.27	323.39	3.16	-45.4	-47.6	16.9	0.00e+00	91	39	0	1201668096	60	8639
2026-01-03 20:39:53.30	323.04	2.95	-51.2	-66.4	3.6	1.50e+00	0	39	104	1206910976	60	75090
2026-01-03 20:39:57.34	322.68	2.74	-51.5	-66.7	3.6	1.51e+00	0	39	104	1206910976	60	78015
2026-01-03 20:40:01.38	322.34	2.53	-51.4	-66.7	3.6	1.51e+00	0	39	104	1206910976	60	77859
2026-01-03 20:40:05.42	322.00	2.32	-51.3	-66.7	3.6	1.51e+00	0	39	104	1206910976	60	77833
2026-01-03 20:40:09.46	321.66	2.12	-50.8	-66.0	3.6	1.51e+00	0	39	104	1206910976	60	72521
2026-01-03 20:40:13.50	321.33	1.91	-52.1	-67.4	3.6	1.51e+00	0	39	104	1206910976	60	84876
2026-01-03 20:40:17.53	321.01	1.70	-51.2	-66.5	3.6	1.51e+00	0	39	104	1206910976	60	76095
2026-01-03 20:40:21.57	320.69	1.50	-50.5	-65.7	3.6	1.51e+00	0	39	104	1206910976	60	69772
2026-01-03 20:40:25.61	320.37	1.29	-50.8	-66.1	3.6	1.51e+00	0	39	104	1206910976	60	72828
2026-01-03 20:40:29.65	320.06	1.09	-50.4	-65.6	3.6	1.51e+00	0	39	104	1206910976	60	68770
2026-01-03 20:40:33.69	319.75	0.89	-50.9	-66.1	3.6	1.51e+00	0	39	104	1206910976	60	73195
2026-01-03 20:40:37.72	319.45	0.68	-50.5	-65.7	3.6	1.51e+00	0	39	104	1206910976	60	69863
2026-01-03 20:40:41.76	319.15	0.48	-50.7	-65.9	3.6	1.51e+00	0	39	104	1206910976	60	71448
2026-01-03 20:40:45.80	318.85	0.28	-51.4	-66.6	3.6	1.51e+00	0	39	104	1206910976	60	77498
2026-01-03 20:40:49.83	318.56	0.08	-51.6	-66.8	3.6	1.51e+00	0	39	104	1206910976	60	79417

#Closed at: 2026-01-03 20:40:52
#Recorded file [1206 MB]: D:/lorett/data/35029_260104_082807.dat