passes_logs/2026/01/03/R4.6S_Anadyr/R4.6S_Anadyr__20260103_214554_SUOMI_NPP_rec.log

#Pass ID: 20260103_214554_SUOMI NPP
#Satellite: SUOMI NPP
#Configuration: NPP
#almurnet v.1.7.20251203
#Start time: 2026-01-03 21:45:55

#Version: 2.2.20231116
#Station: R4.6S_Anadyr
#Location: 177.4865 lon 64.73178 lat
#TLE: 1 37849U 11061A   26001.07732418  .00000182  00000+0  10735-3 0  9990
#TLE: 2 37849  98.7795 303.2470 0002580  87.2016 272.9455 14.19520779734739

#Time	Az	El	Level	Level2	SNR	BER	BlckErr	Temp	State	Recorded	gain1	gain2
2026-01-03 21:45:55.95	96.16	0.06	-51.7	-64.2	3.4	1.52e+00	0	36	0	0	60	57221
2026-01-03 21:45:59.98	95.93	0.28	-50.4	-65.7	3.6	1.51e+00	0	38	104	0	60	69296
2026-01-03 21:46:04.02	95.69	0.50	-51.5	-66.7	3.6	1.51e+00	0	38	104	0	60	77807
2026-01-03 21:46:08.06	95.46	0.72	-50.6	-65.8	3.6	1.51e+00	0	38	104	0	60	70727
2026-01-03 21:46:12.09	95.22	0.94	-49.3	-64.6	3.6	1.51e+00	0	38	104	0	60	61462
2026-01-03 21:46:16.13	94.97	1.16	-49.2	-64.2	3.6	1.51e+00	0	38	104	0	60	58624
2026-01-03 21:46:20.17	94.72	1.38	-49.0	-64.1	3.6	1.51e+00	0	38	104	0	60	57765
2026-01-03 21:46:24.21	94.47	1.61	-48.6	-63.5	3.6	1.51e+00	0	38	104	0	60	54118
2026-01-03 21:46:28.25	94.21	1.84	-48.8	-63.9	3.6	1.51e+00	0	38	104	0	60	56578
2026-01-03 21:46:32.29	93.95	2.07	-48.6	-63.5	3.6	1.51e+00	0	38	104	0	60	54056
2026-01-03 21:46:36.33	93.69	2.29	-48.8	-63.7	3.6	1.51e+00	0	38	104	0	60	55520
2026-01-03 21:46:40.36	93.42	2.52	-48.7	-63.9	3.6	1.51e+00	0	38	104	0	60	56551
2026-01-03 21:46:44.40	93.14	2.76	-48.8	-63.7	3.6	1.51e+00	0	38	104	0	60	55167
2026-01-03 21:46:48.44	92.87	2.99	-48.9	-63.7	3.6	1.51e+00	0	39	104	0	60	55393
2026-01-03 21:46:52.48	92.58	3.22	-48.1	-56.0	5.7	2.63e-01	92	38	0	1048576	60	22835
2026-01-03 21:46:56.51	92.30	3.46	-48.0	-54.9	5.4	2.88e-01	0	38	104	5242880	60	20018
2026-01-03 21:47:00.55	92.00	3.70	-44.6	-47.0	15.9	0.00e+00	0	39	0	8388608	60	8085
2026-01-03 21:47:04.59	91.70	3.93	-44.1	-46.2	16.2	7.00e-07	75	39	0	15728640	60	7347
2026-01-03 21:47:08.62	91.40	4.17	-43.2	-44.9	16.8	0.00e+00	90	39	0	24117248	60	6386
2026-01-03 21:47:12.66	91.09	4.41	-43.1	-44.9	17.8	0.00e+00	0	38	0	31457280	60	6378
2026-01-03 21:47:16.70	90.78	4.66	-43.8	-45.7	17.3	0.00e+00	49	39	0	38797312	60	6995
2026-01-03 21:47:20.73	90.46	4.90	-43.9	-45.9	16.6	0.00e+00	78	39	0	46137344	60	7111
2026-01-03 21:47:24.77	90.14	5.15	-44.3	-46.6	16.8	0.00e+00	92	39	0	53477376	60	7739
2026-01-03 21:47:28.81	89.81	5.39	-43.4	-45.3	17.7	0.00e+00	0	39	0	61865984	60	6687
2026-01-03 21:47:32.84	89.47	5.64	-44.0	-46.0	17.2	0.00e+00	92	39	0	69206016	60	7220
2026-01-03 21:47:36.88	89.13	5.89	-44.0	-45.8	17.7	0.00e+00	90	39	0	76546048	60	7088
2026-01-03 21:47:40.92	88.78	6.14	-43.1	-44.8	18.5	0.00e+00	0	39	0	83886080	60	6270
2026-01-03 21:47:44.96	88.43	6.39	-43.6	-45.2	18.7	0.00e+00	0	39	0	91226112	60	6596
2026-01-03 21:47:48.99	88.07	6.65	-43.5	-45.2	19.2	0.00e+00	92	39	0	99614720	60	6548
2026-01-03 21:47:53.03	87.70	6.90	-44.0	-45.6	18.8	0.00e+00	92	39	0	106954752	60	6910
2026-01-03 21:47:57.07	87.33	7.16	-42.7	-44.0	20.0	0.00e+00	0	39	0	114294784	58	6445
2026-01-03 21:48:01.10	86.95	7.42	-42.5	-43.8	20.3	0.00e+00	0	39	0	121634816	58	6279
2026-01-03 21:48:05.14	86.56	7.67	-42.7	-44.1	19.6	0.00e+00	48	39	0	130023424	58	6510
2026-01-03 21:48:09.18	86.16	7.94	-42.0	-43.2	20.3	0.00e+00	92	39	0	137363456	56	6615
2026-01-03 21:48:13.21	85.76	8.20	-42.3	-43.6	19.8	0.00e+00	0	39	0	144703488	56	6899
2026-01-03 21:48:17.25	85.35	8.46	-42.3	-43.7	19.7	0.00e+00	92	39	0	152043520	56	6988
2026-01-03 21:48:21.29	84.93	8.73	-42.3	-43.6	19.9	0.00e+00	92	39	0	159383552	56	6887
2026-01-03 21:48:25.33	84.51	8.99	-42.6	-44.1	19.6	0.00e+00	0	39	0	167772160	58	6480
2026-01-03 21:48:29.37	84.08	9.26	-42.8	-44.2	19.9	0.00e+00	0	39	0	175112192	58	6613
2026-01-03 21:48:33.41	83.63	9.53	-42.9	-44.3	19.6	0.00e+00	92	39	0	182452224	60	5912
2026-01-03 21:48:37.44	83.18	9.80	-44.0	-45.5	17.9	0.00e+00	91	39	0	189792256	60	6776
2026-01-03 21:48:41.48	82.73	10.07	-42.3	-43.7	20.3	0.00e+00	0	39	0	198180864	58	6187
2026-01-03 21:48:45.52	82.26	10.34	-41.8	-43.1	20.1	0.00e+00	0	39	0	205520896	56	6515
2026-01-03 21:48:49.56	81.78	10.61	-42.0	-43.3	20.4	0.00e+00	90	39	0	212860928	58	5903
2026-01-03 21:48:53.60	81.30	10.89	-42.5	-43.8	20.3	0.00e+00	90	39	0	220200960	58	6292
2026-01-03 21:48:57.63	80.80	11.16	-42.3	-43.5	20.7	0.00e+00	0	39	0	227540992	58	6078
2026-01-03 21:49:01.67	80.30	11.44	-42.4	-43.5	21.3	0.00e+00	92	39	0	235929600	58	6096
2026-01-03 21:49:05.71	79.78	11.72	-42.8	-44.2	20.1	0.00e+00	73	39	0	243269632	56	7360
2026-01-03 21:49:09.75	79.26	11.99	-42.0	-43.2	20.8	0.00e+00	92	39	0	250609664	56	6591
2026-01-03 21:49:13.78	78.72	12.27	-41.2	-42.3	21.2	0.00e+00	0	39	0	257949696	56	5960
2026-01-03 21:49:17.82	78.18	12.55	-41.7	-42.9	20.6	0.00e+00	92	39	0	266338304	56	6375
2026-01-03 21:49:21.86	77.62	12.83	-41.6	-42.9	20.8	0.00e+00	79	39	0	273678336	56	6328
2026-01-03 21:49:25.90	77.05	13.11	-42.3	-43.7	20.1	0.00e+00	0	39	0	281018368	58	6202
2026-01-03 21:49:29.93	76.48	13.39	-41.8	-43.0	21.0	0.00e+00	0	39	0	288358400	56	6452
2026-01-03 21:49:33.96	75.89	13.67	-42.0	-43.2	20.4	0.00e+00	48	39	0	295698432	58	5880
2026-01-03 21:49:38.00	75.29	13.95	-41.0	-42.1	21.5	0.00e+00	92	39	0	304087040	56	5782
2026-01-03 21:49:42.04	74.68	14.24	-43.0	-44.2	21.0	0.00e+00	0	39	0	311427072	58	6605
2026-01-03 21:49:46.08	74.05	14.52	-42.7	-44.0	20.5	0.00e+00	12	39	0	318767104	56	7197
2026-01-03 21:49:50.11	73.42	14.80	-42.5	-43.8	20.0	0.00e+00	69	39	0	326107136	58	6249
2026-01-03 21:49:54.15	72.77	15.08	-41.6	-42.8	20.7	0.00e+00	92	39	0	333447168	56	6302
2026-01-03 21:49:58.18	72.11	15.36	-43.7	-45.2	20.0	0.00e+00	21	39	0	341835776	60	6570
2026-01-03 21:50:02.22	71.44	15.64	-42.1	-43.4	20.7	0.00e+00	61	39	0	349175808	58	5983
2026-01-03 21:50:06.26	70.75	15.91	-41.5	-42.6	20.9	0.00e+00	90	39	0	356515840	58	5479
2026-01-03 21:50:10.30	70.05	16.19	-41.0	-42.1	21.2	0.00e+00	0	39	0	363855872	56	5800
2026-01-03 21:50:14.33	69.34	16.47	-42.3	-43.7	20.1	0.00e+00	0	39	0	372244480	58	6182
2026-01-03 21:50:18.37	68.61	16.74	-41.8	-43.0	20.6	0.00e+00	90	39	0	379584512	56	6438
2026-01-03 21:50:22.41	67.87	17.01	-49.2	-54.7	19.6	0.00e+00	92	39	0	386924544	60	19740
2026-01-03 21:50:26.45	67.12	17.29	-42.3	-43.5	18.5	0.00e+00	0	39	0	394264576	60	5396
2026-01-03 21:50:30.48	66.36	17.55	-45.1	-47.0	16.6	0.00e+00	0	39	0	401604608	60	8109
2026-01-03 21:50:34.52	65.57	17.82	-44.3	-45.9	20.1	0.00e+00	29	39	0	409993216	60	7140
2026-01-03 21:50:38.56	64.78	18.08	-41.3	-42.4	21.7	0.00e+00	73	39	0	417333248	54	6753
2026-01-03 21:50:42.59	63.97	18.34	-40.7	-41.8	21.4	0.00e+00	0	39	0	424673280	56	5591
2026-01-03 21:50:46.63	63.15	18.60	-40.3	-41.3	22.5	0.00e+00	92	39	0	432013312	54	5952
2026-01-03 21:50:50.67	62.31	18.85	-39.8	-40.8	22.4	0.00e+00	67	39	0	440401920	54	5570
2026-01-03 21:50:54.70	61.47	19.10	-40.4	-41.5	21.8	0.00e+00	0	39	0	447741952	54	6066
2026-01-03 21:50:58.74	60.60	19.35	-41.7	-43.1	22.0	0.00e+00	0	39	0	455081984	54	7292
2026-01-03 21:51:02.78	59.72	19.59	-39.8	-40.8	22.3	0.00e+00	92	39	0	462422016	54	5628
2026-01-03 21:51:06.82	58.83	19.82	-40.2	-41.3	21.9	0.00e+00	92	39	0	469762048	54	5900
2026-01-03 21:51:10.85	57.93	20.05	-42.7	-44.0	20.1	1.41e-01	0	39	0	478150656	60	5716
2026-01-03 21:51:14.89	57.01	20.28	-40.8	-41.9	22.0	0.00e+00	0	39	0	485490688	54	6327
2026-01-03 21:51:18.93	56.07	20.50	-40.3	-41.3	22.4	0.00e+00	14	39	0	492830720	52	6650
2026-01-03 21:51:22.97	55.13	20.71	-39.5	-40.4	23.2	0.00e+00	74	39	0	500170752	52	5997
2026-01-03 21:51:27.00	54.17	20.91	-40.5	-41.4	23.0	0.00e+00	0	39	0	507510784	52	6763
2026-01-03 21:51:31.04	53.20	21.11	-39.7	-40.7	22.7	0.00e+00	79	39	0	515899392	54	5540
2026-01-03 21:51:35.08	52.21	21.30	-39.1	-40.1	22.3	0.00e+00	88	39	0	523239424	52	5796
2026-01-03 21:51:39.11	51.22	21.49	-39.4	-40.4	22.7	0.00e+00	12	39	0	530579456	52	5986
2026-01-03 21:51:43.15	50.21	21.66	-41.1	-42.2	21.6	0.00e+00	0	39	0	537919488	54	6600
2026-01-03 21:51:47.19	49.19	21.83	-39.9	-40.9	22.5	0.00e+00	89	39	0	546308096	54	5639
2026-01-03 21:51:51.23	48.16	21.99	-39.7	-40.7	22.7	0.00e+00	90	39	0	553648128	52	6196
2026-01-03 21:51:55.27	47.11	22.14	-40.5	-41.6	21.4	0.00e+00	0	39	0	560988160	54	6151
2026-01-03 21:51:59.31	46.06	22.28	-41.9	-43.2	20.9	0.00e+00	0	39	0	568328192	56	6540
2026-01-03 21:52:03.34	45.01	22.41	-43.3	-44.7	20.3	0.00e+00	56	39	0	575668224	58	6957
2026-01-03 21:52:07.38	43.94	22.53	-43.5	-45.0	19.0	0.00e+00	91	40	0	584056832	60	6460
2026-01-03 21:52:11.41	42.86	22.64	-41.2	-42.3	21.5	0.00e+00	0	39	0	591396864	56	5928
2026-01-03 21:52:15.45	41.78	22.74	-42.1	-43.3	21.8	0.00e+00	0	40	0	598736896	56	6643
2026-01-03 21:52:19.49	40.69	22.83	-40.8	-41.9	21.7	0.00e+00	63	40	0	606076928	56	5646
2026-01-03 21:52:23.53	39.59	22.91	-42.6	-44.0	19.6	0.00e+00	0	39	0	614465536	58	6411
2026-01-03 21:52:27.56	38.49	22.97	-43.3	-44.8	19.9	0.00e+00	0	40	0	621805568	58	7045
2026-01-03 21:52:31.60	37.39	23.03	-43.6	-45.0	19.4	0.00e+00	14	40	0	629145600	60	6391
2026-01-03 21:52:35.64	36.28	23.07	-42.9	-44.3	20.2	0.00e+00	0	39	0	636485632	58	6675
2026-01-03 21:52:39.68	35.17	23.11	-41.3	-42.4	21.7	0.00e+00	0	39	0	643825664	56	5981
2026-01-03 21:52:43.71	34.05	23.13	-44.8	-46.5	20.2	0.00e+00	0	40	0	652214272	60	7602
2026-01-03 21:52:47.75	32.94	23.14	-43.1	-44.3	22.1	0.00e+00	92	40	0	659554304	60	5923
2026-01-03 21:52:51.79	31.82	23.14	-42.5	-43.6	21.7	0.00e+00	0	40	0	666894336	58	6146
2026-01-03 21:52:55.82	30.71	23.12	-41.4	-42.5	22.2	0.00e+00	0	40	0	674234368	56	6069
2026-01-03 21:52:59.86	29.60	23.10	-44.6	-46.2	18.3	0.00e+00	0	40	0	682622976	60	7340
2026-01-03 21:53:03.89	28.49	23.06	-41.5	-42.6	22.0	0.00e+00	91	40	0	689963008	56	6146
2026-01-03 21:53:07.93	27.38	23.01	-40.4	-41.4	22.6	0.00e+00	0	40	0	697303040	54	6019
2026-01-03 21:53:11.96	26.28	22.95	-41.8	-43.0	21.7	0.00e+00	0	40	0	704643072	56	6413
2026-01-03 21:53:16.00	25.18	22.88	-40.3	-41.3	22.4	0.00e+00	18	40	0	711983104	54	5952
2026-01-03 21:53:20.04	24.09	22.80	-41.6	-42.6	23.1	0.00e+00	0	40	0	720371712	56	6149
2026-01-03 21:53:24.08	23.00	22.70	-41.6	-42.7	21.9	0.00e+00	0	40	0	727711744	54	6994
2026-01-03 21:53:28.11	21.92	22.60	-39.7	-40.7	22.9	0.00e+00	0	40	0	735051776	52	6211
2026-01-03 21:53:32.15	20.85	22.49	-39.2	-40.1	23.3	0.00e+00	92	39	0	742391808	52	5807
2026-01-03 21:53:36.19	19.79	22.36	-41.3	-42.4	21.7	0.00e+00	0	40	0	750780416	54	6763
2026-01-03 21:53:40.23	18.73	22.23	-41.2	-42.3	22.4	0.00e+00	0	40	0	758120448	54	6661
2026-01-03 21:53:44.26	17.69	22.09	-41.9	-43.0	22.1	0.00e+00	0	40	0	765460480	56	6417
2026-01-03 21:53:48.30	16.65	21.93	-43.7	-45.2	20.0	0.00e+00	92	40	0	772800512	60	6569
2026-01-03 21:53:52.33	15.63	21.77	-45.3	-47.2	18.5	0.00e+00	0	40	0	780140544	60	8311
2026-01-03 21:53:56.36	14.62	21.60	-41.3	-42.4	21.6	0.00e+00	0	40	0	788529152	56	6011
2026-01-03 21:54:00.40	13.62	21.42	-40.8	-41.9	21.8	0.00e+00	10	40	0	795869184	56	5645
2026-01-03 21:54:04.44	12.62	21.24	-43.6	-44.9	20.4	0.00e+00	92	40	0	803209216	60	6360
2026-01-03 21:54:08.47	11.65	21.04	-42.2	-43.4	20.3	0.00e+00	0	40	0	810549248	56	6741
2026-01-03 21:54:12.52	10.68	20.84	-40.5	-41.4	23.0	0.00e+00	0	39	0	818937856	52	6723
2026-01-03 21:54:16.55	9.73	20.63	-42.4	-43.7	20.6	0.00e+00	8	40	0	826277888	60	5515
2026-01-03 21:54:20.58	8.79	20.42	-41.4	-42.6	21.5	0.00e+00	0	40	0	833617920	56	6155
2026-01-03 21:54:24.62	7.87	20.20	-43.0	-44.5	20.0	0.00e+00	0	40	0	840957952	58	6810
2026-01-03 21:54:28.66	6.95	19.97	-42.7	-44.1	20.3	0.00e+00	0	40	0	848297984	60	5795
2026-01-03 21:54:32.69	6.06	19.74	-40.7	-41.8	22.0	0.00e+00	92	39	0	856686592	56	5567
2026-01-03 21:54:36.73	5.17	19.50	-40.1	-41.1	22.8	0.00e+00	0	39	0	864026624	54	5780
2026-01-03 21:54:40.76	4.30	19.26	-39.4	-40.3	23.5	0.00e+00	0	40	0	871366656	52	5899
2026-01-03 21:54:44.80	3.44	19.02	-39.5	-40.4	23.8	0.00e+00	0	39	0	878706688	52	5968
2026-01-03 21:54:48.84	2.60	18.77	-38.7	-39.6	23.6	0.00e+00	91	39	0	886046720	50	6104
2026-01-03 21:54:52.87	1.77	18.51	-40.2	-41.2	22.1	0.00e+00	0	39	0	894435328	52	6601
2026-01-03 21:54:56.91	0.96	18.25	-41.8	-42.9	21.9	0.00e+00	0	39	0	901775360	58	5694
2026-01-03 21:55:00.94	0.16	17.99	-40.6	-41.6	22.5	0.00e+00	19	39	0	909115392	54	6144
2026-01-03 21:55:04.98	359.37	17.73	-39.9	-40.8	23.0	0.00e+00	38	39	0	916455424	52	6278
2026-01-03 21:55:09.02	358.60	17.46	-40.5	-41.5	22.8	0.00e+00	0	39	0	924844032	54	6051
2026-01-03 21:55:13.06	357.84	17.20	-41.5	-42.6	22.2	0.00e+00	0	39	0	932184064	56	6112
2026-01-03 21:55:17.09	357.09	16.93	-40.8	-41.9	22.5	0.00e+00	0	39	0	939524096	54	6320
2026-01-03 21:55:21.13	356.36	16.65	-41.1	-42.2	21.9	0.00e+00	0	39	0	946864128	54	6595
2026-01-03 21:55:25.16	355.65	16.38	-41.6	-42.7	21.9	0.00e+00	0	39	0	954204160	56	6196
2026-01-03 21:55:29.20	354.94	16.10	-40.2	-41.2	22.7	0.00e+00	23	39	0	962592768	54	5860
2026-01-03 21:55:33.24	354.25	15.83	-40.7	-41.6	22.7	0.00e+00	91	39	0	969932800	52	6913
2026-01-03 21:55:37.27	353.57	15.55	-41.2	-42.2	22.2	0.00e+00	0	39	0	977272832	60	4674
2026-01-03 21:55:41.31	352.90	15.27	-39.9	-40.9	23.3	0.00e+00	0	39	0	984612864	54	5641
2026-01-03 21:55:45.34	352.25	14.99	-40.3	-41.2	22.8	0.00e+00	0	39	0	991952896	54	5883
2026-01-03 21:55:49.38	351.61	14.71	-40.7	-41.8	22.0	0.00e+00	91	39	0	1000341504	54	6246
2026-01-03 21:55:53.41	350.98	14.43	-41.7	-42.8	22.4	0.00e+00	0	39	0	1007681536	56	6287
2026-01-03 21:55:57.45	350.36	14.15	-40.4	-41.3	22.2	0.00e+00	0	39	0	1015021568	54	5923
2026-01-03 21:56:01.48	349.76	13.87	-40.8	-41.9	22.3	0.00e+00	6	39	0	1022361600	56	5654
2026-01-03 21:56:05.52	349.16	13.59	-39.9	-40.9	22.3	0.00e+00	48	39	0	1030750208	54	5687
2026-01-03 21:56:09.55	348.58	13.31	-41.4	-42.6	21.6	0.00e+00	0	39	0	1038090240	58	5464
2026-01-03 21:56:13.58	348.01	13.03	-39.7	-40.7	22.8	0.00e+00	0	39	0	1045430272	54	5505
2026-01-03 21:56:17.62	347.45	12.75	-40.0	-41.0	22.6	0.00e+00	92	39	0	1052770304	52	6417
2026-01-03 21:56:21.65	346.90	12.47	-40.7	-41.9	21.7	0.00e+00	0	39	0	1060110336	54	6329
2026-01-03 21:56:25.69	346.36	12.19	-41.7	-42.9	21.4	0.00e+00	0	39	0	1068498944	56	6353
2026-01-03 21:56:29.73	345.84	11.92	-41.5	-42.6	22.1	0.00e+00	0	39	0	1075838976	56	6165
2026-01-03 21:56:33.76	345.32	11.64	-41.9	-42.9	22.1	0.00e+00	90	39	0	1083179008	56	6382
2026-01-03 21:56:37.80	344.81	11.36	-41.8	-42.9	21.8	0.00e+00	0	39	0	1090519040	56	6390
2026-01-03 21:56:41.84	344.31	11.09	-41.8	-43.0	20.6	0.00e+00	0	39	0	1097859072	56	6404
2026-01-03 21:56:45.87	343.82	10.81	-42.4	-43.6	21.3	0.00e+00	10	39	0	1106247680	60	5476
2026-01-03 21:56:49.91	343.34	10.54	-41.3	-42.5	21.2	0.00e+00	83	39	0	1113587712	56	6068
2026-01-03 21:56:53.95	342.87	10.27	-41.9	-43.1	21.1	0.00e+00	0	39	0	1120927744	56	6518
2026-01-03 21:56:57.98	342.41	10.00	-41.6	-42.9	20.7	0.00e+00	0	39	0	1128267776	56	6351
2026-01-03 21:57:02.01	341.96	9.73	-43.2	-44.5	20.2	0.00e+00	0	39	0	1136656384	60	6074
2026-01-03 21:57:06.05	341.51	9.46	-42.0	-43.2	20.9	0.00e+00	4	39	0	1143996416	58	5838
2026-01-03 21:57:10.09	341.08	9.19	-43.0	-44.2	21.4	0.00e+00	0	39	0	1151336448	58	6596
2026-01-03 21:57:14.13	340.65	8.93	-42.2	-43.4	20.8	0.00e+00	0	39	0	1158676480	58	5997
2026-01-03 21:57:18.16	340.23	8.66	-44.4	-45.8	20.0	0.00e+00	91	39	0	1166016512	60	7038
2026-01-03 21:57:22.19	339.82	8.40	-44.2	-45.6	19.6	1.50e-06	0	39	0	1174405120	60	6915
2026-01-03 21:57:26.23	339.41	8.14	-44.5	-46.2	17.2	0.00e+00	0	39	0	1181745152	60	7417
2026-01-03 21:57:30.27	339.01	7.88	-44.7	-46.2	19.6	0.00e+00	0	39	0	1189085184	60	7380
2026-01-03 21:57:34.30	338.62	7.62	-44.5	-46.1	18.7	0.00e+00	44	39	0	1196425216	60	7324
2026-01-03 21:57:38.34	338.24	7.36	-44.9	-46.6	18.7	0.00e+00	0	39	0	1204813824	60	7749
2026-01-03 21:57:42.38	337.87	7.10	-45.5	-47.5	17.3	0.00e+00	0	39	0	1212153856	60	8579
2026-01-03 21:57:46.42	337.50	6.85	-45.6	-47.7	17.1	0.00e+00	70	39	0	1219493888	60	8768
2026-01-03 21:57:50.45	337.13	6.59	-44.7	-46.5	17.2	0.00e+00	79	39	0	1226833920	60	7635
2026-01-03 21:57:54.49	336.78	6.34	-44.9	-46.8	17.6	0.00e+00	0	39	0	1234173952	60	7882
2026-01-03 21:57:58.53	336.43	6.09	-45.8	-48.1	17.7	7.00e-07	0	39	0	1242562560	60	9185
2026-01-03 21:58:02.56	336.09	5.84	-45.7	-48.2	16.0	0.00e+00	92	39	0	1249902592	60	9294
2026-01-03 21:58:06.60	335.75	5.59	-47.1	-51.3	8.9	1.88e-02	0	39	0	1257242624	60	13240
2026-01-03 21:58:10.64	335.42	5.34	-46.3	-51.9	9.2	8.53e-03	0	39	0	1264582656	60	14158
2026-01-03 21:58:14.68	335.09	5.10	-46.2	-53.5	6.1	2.87e-01	0	39	0	1272971264	60	17087
2026-01-03 21:58:18.71	334.77	4.85	-46.9	-57.1	3.6	1.07e+00	4	39	0	1279262720	60	25920
2026-01-03 21:58:22.75	334.46	4.61	-46.7	-60.1	3.6	1.50e+00	0	39	104	1279262720	60	36717
2026-01-03 21:58:26.79	334.15	4.37	-46.7	-59.4	3.7	1.51e+00	0	39	104	1279262720	60	33659
2026-01-03 21:58:30.82	333.85	4.13	-46.4	-60.4	3.6	1.51e+00	0	39	104	1279262720	60	37867
2026-01-03 21:58:34.86	333.55	3.89	-46.7	-60.8	3.6	1.51e+00	0	40	104	1279262720	60	39510
2026-01-03 21:58:38.90	333.25	3.65	-47.0	-62.1	3.6	1.51e+00	0	39	104	1279262720	60	46093
2026-01-03 21:58:42.93	332.97	3.42	-46.8	-60.8	3.6	1.51e+00	0	39	104	1279262720	60	39533
2026-01-03 21:58:46.96	332.68	3.18	-46.2	-61.1	3.6	1.51e+00	0	39	104	1279262720	60	41169
2026-01-03 21:58:51.00	332.40	2.95	-50.7	-65.9	3.7	1.51e+00	0	39	104	1279262720	60	71080
2026-01-03 21:58:55.04	332.13	2.72	-50.5	-65.7	3.6	1.51e+00	0	39	104	1279262720	60	69659
2026-01-03 21:58:59.08	331.86	2.48	-50.7	-65.9	3.6	1.51e+00	0	39	104	1279262720	60	71331
2026-01-03 21:59:03.11	331.59	2.26	-51.0	-66.3	3.6	1.51e+00	0	39	104	1279262720	60	74422
2026-01-03 21:59:07.15	331.33	2.03	-50.9	-66.2	3.6	1.51e+00	0	39	104	1279262720	60	73638
2026-01-03 21:59:11.19	331.08	1.80	-51.6	-66.8	3.6	1.51e+00	0	39	104	1279262720	60	79153
2026-01-03 21:59:15.23	330.82	1.57	-51.3	-66.5	3.6	1.51e+00	0	40	104	1279262720	60	76128
2026-01-03 21:59:19.26	330.57	1.35	-51.7	-66.9	3.6	1.51e+00	0	39	104	1279262720	60	80188
2026-01-03 21:59:23.30	330.33	1.13	-52.1	-67.4	3.5	1.51e+00	0	39	104	1279262720	60	84579
2026-01-03 21:59:27.33	330.09	0.90	-51.4	-66.6	3.6	1.51e+00	0	39	104	1279262720	60	77026
2026-01-03 21:59:31.37	329.85	0.68	-51.9	-67.1	3.6	1.51e+00	0	39	104	1279262720	60	81697
2026-01-03 21:59:35.41	329.62	0.46	-51.5	-66.7	3.6	1.51e+00	0	39	104	1279262720	60	78254
2026-01-03 21:59:39.44	329.39	0.24	-51.3	-66.5	3.6	1.51e+00	0	39	104	1279262720	60	76147
2026-01-03 21:59:43.48	329.16	0.03	-51.5	-66.7	3.6	1.51e+00	0	39	104	1279262720	60	77987

#Closed at: 2026-01-03 21:59:45
#Recorded file [1279 MB]: D:/lorett/data/35029_260104_094555.dat