passes_logs/2026/01/03/R4.6S_Anadyr/R4.6S_Anadyr__20260103_125920_NOAA_21_JPSS-2_rec.log

#Pass ID: 20260103_125920_NOAA 21 (JPSS-2)
#Satellite: NOAA 21 (JPSS-2)
#Configuration: NOAA-21
#almurnet v.1.7.20251203
#Start time: 2026-01-03 12:59:22

#Version: 2.2.20231116
#Station: R4.6S_Anadyr
#Location: 177.4865 lon 64.73178 lat
#TLE: 1 54234U 22150A   26002.88923379  .00000185  00000+0  10883-3 0  9993
#TLE: 2 54234  98.7486 303.9362 0001189 349.0578  11.0572 14.19531433163092

#Time	Az	El	Level	Level2	SNR	BER	BlckErr	Temp	State	Recorded	gain1	gain2
2026-01-03 12:59:22.06	18.76	0.11	-50.3	-65.2	3.5	1.51e+00	0	37	0	0	60	65904
2026-01-03 12:59:26.09	18.99	0.33	-50.7	-63.6	3.5	1.52e+00	0	38	104	0	60	53088
2026-01-03 12:59:30.13	19.22	0.55	-50.4	-63.3	3.5	1.51e+00	0	38	104	0	60	51140
2026-01-03 12:59:34.17	19.45	0.77	-49.9	-62.7	3.5	1.52e+00	0	39	104	0	60	47970
2026-01-03 12:59:38.21	19.69	0.99	-49.0	-61.9	3.5	1.52e+00	0	39	104	0	60	43625
2026-01-03 12:59:42.25	19.93	1.21	-48.6	-61.3	3.5	1.52e+00	0	39	104	0	60	40944
2026-01-03 12:59:46.29	20.17	1.44	-48.6	-61.5	3.5	1.52e+00	0	39	104	0	60	41519
2026-01-03 12:59:50.33	20.41	1.66	-48.7	-61.5	3.5	1.52e+00	0	39	104	0	60	41890
2026-01-03 12:59:54.36	20.66	1.89	-48.9	-61.6	3.5	1.52e+00	0	39	104	0	60	42158
2026-01-03 12:59:58.40	20.92	2.12	-48.9	-61.7	3.5	1.52e+00	0	39	104	0	60	42643
2026-01-03 13:00:02.44	21.17	2.35	-49.2	-62.0	3.4	1.51e+00	0	39	104	0	60	44103
2026-01-03 13:00:06.48	21.43	2.58	-48.9	-60.5	3.5	1.51e+00	0	39	104	0	60	37362
2026-01-03 13:00:10.52	21.70	2.81	-46.7	-51.3	10.0	1.43e+00	123	39	104	0	60	12830
2026-01-03 13:00:14.56	21.97	3.05	-42.7	-44.6	17.3	0.00e+00	123	39	0	10485760	58	6659
2026-01-03 13:00:18.60	22.24	3.28	-39.8	-41.0	19.8	0.00e+00	122	39	0	23068672	54	5575
2026-01-03 13:00:22.63	22.51	3.52	-44.4	-46.9	9.2	0.00e+00	121	39	0	35651584	58	8708
2026-01-03 13:00:26.67	22.79	3.76	-41.5	-43.0	18.3	0.00e+00	122	39	0	40894464	56	6248
2026-01-03 13:00:30.70	23.08	4.00	-42.0	-43.6	17.7	0.00e+00	122	39	0	53477376	56	6708
2026-01-03 13:00:34.74	23.37	4.24	-41.6	-43.1	18.2	0.00e+00	120	39	0	67108864	56	6336
2026-01-03 13:00:38.77	23.66	4.48	-41.3	-42.8	18.7	0.00e+00	123	39	0	78643200	56	6067
2026-01-03 13:00:42.81	23.96	4.73	-42.0	-43.6	17.7	0.00e+00	122	39	0	92274688	56	6681
2026-01-03 13:00:46.85	24.26	4.98	-40.7	-42.1	19.5	0.00e+00	123	39	0	104857600	54	6289
2026-01-03 13:00:50.88	24.57	5.23	-40.6	-41.9	19.7	0.00e+00	123	39	0	117440512	54	6184
2026-01-03 13:00:54.92	24.88	5.48	-40.4	-41.7	20.3	0.00e+00	122	39	0	130023424	54	6029
2026-01-03 13:00:58.96	25.20	5.73	-39.7	-40.8	20.6	0.00e+00	121	39	0	142606336	52	6127
2026-01-03 13:01:03.00	25.52	5.98	-39.4	-40.5	20.8	0.00e+00	120	39	0	155189248	52	5924
2026-01-03 13:01:07.04	25.85	6.24	-39.4	-40.5	20.8	0.00e+00	122	39	0	167772160	52	5906
2026-01-03 13:01:11.08	26.18	6.50	-39.1	-40.2	20.9	0.00e+00	120	39	0	180355072	52	5713
2026-01-03 13:01:15.12	26.52	6.76	-38.9	-40.0	21.2	0.00e+00	120	39	0	192937984	50	6247
2026-01-03 13:01:19.15	26.87	7.02	-38.8	-39.9	21.2	0.00e+00	120	39	0	205520896	50	6159
2026-01-03 13:01:23.19	27.22	7.28	-38.6	-39.6	21.4	0.00e+00	120	39	0	218103808	50	5993
2026-01-03 13:01:27.22	27.57	7.54	-38.6	-39.7	21.5	0.00e+00	123	39	0	230686720	50	6025
2026-01-03 13:01:31.26	27.94	7.81	-38.4	-39.5	21.6	0.00e+00	120	39	0	243269632	50	5866
2026-01-03 13:01:35.30	28.31	8.08	-38.2	-39.3	22.1	0.00e+00	122	39	0	255852544	50	5737
2026-01-03 13:01:39.34	28.68	8.35	-38.2	-39.3	22.0	0.00e+00	120	39	0	268435456	50	5731
2026-01-03 13:01:43.37	29.06	8.62	-38.2	-39.2	21.9	0.00e+00	120	39	0	281018368	50	5713
2026-01-03 13:01:47.41	29.45	8.90	-37.7	-38.7	22.2	0.00e+00	123	39	0	293601280	48	6006
2026-01-03 13:01:51.45	29.85	9.17	-37.6	-38.6	22.4	0.00e+00	120	39	0	306184192	48	5957
2026-01-03 13:01:55.49	30.25	9.45	-37.2	-38.2	22.7	0.00e+00	122	39	0	318767104	48	5688
2026-01-03 13:01:59.53	30.67	9.73	-37.2	-38.2	22.7	0.00e+00	120	39	0	331350016	48	5725
2026-01-03 13:02:03.56	31.08	10.01	-37.3	-38.3	22.8	0.00e+00	120	39	0	343932928	48	5733
2026-01-03 13:02:07.60	31.51	10.30	-37.0	-38.0	22.8	0.00e+00	123	39	0	356515840	48	5559
2026-01-03 13:02:11.64	31.95	10.58	-36.7	-37.7	23.0	0.00e+00	120	39	0	369098752	48	5374
2026-01-03 13:02:15.68	32.39	10.87	-36.8	-37.8	23.0	0.00e+00	123	39	0	381681664	46	6080
2026-01-03 13:02:19.72	32.84	11.16	-36.8	-37.7	23.2	0.00e+00	120	39	0	394264576	46	6042
2026-01-03 13:02:23.76	33.30	11.45	-36.7	-37.7	23.1	0.00e+00	122	39	0	406847488	46	6038
2026-01-03 13:02:27.80	33.77	11.74	-37.0	-38.0	22.8	0.00e+00	122	39	0	419430400	46	6230
2026-01-03 13:02:31.83	34.25	12.04	-36.6	-37.6	23.4	0.00e+00	123	39	0	433061888	46	5929
2026-01-03 13:02:35.87	34.73	12.34	-36.5	-37.5	23.4	0.00e+00	123	39	0	444596224	46	5875
2026-01-03 13:02:39.91	35.23	12.64	-37.2	-38.2	23.1	0.00e+00	122	39	0	458227712	46	6362
2026-01-03 13:02:43.95	35.74	12.94	-36.5	-37.4	23.6	0.00e+00	123	39	0	470810624	46	5824
2026-01-03 13:02:47.99	36.25	13.24	-36.4	-37.3	23.6	0.00e+00	123	39	0	483393536	46	5779
2026-01-03 13:02:52.03	36.78	13.54	-36.8	-37.7	23.5	0.00e+00	123	39	0	495976448	46	6033
2026-01-03 13:02:56.07	37.32	13.85	-36.4	-37.3	23.6	0.00e+00	122	39	0	508559360	46	5766
2026-01-03 13:03:00.11	37.87	14.16	-36.4	-37.3	23.8	0.00e+00	123	39	0	521142272	46	5784
2026-01-03 13:03:04.16	38.43	14.47	-36.5	-37.4	23.7	0.00e+00	122	39	0	533725184	46	5832
2026-01-03 13:03:08.19	39.00	14.78	-36.9	-37.8	23.6	0.00e+00	122	39	0	546308096	46	6100
2026-01-03 13:03:12.24	39.58	15.09	-36.7	-37.6	23.5	0.00e+00	122	39	0	558891008	46	5975
2026-01-03 13:03:16.27	40.17	15.40	-37.0	-37.9	23.3	0.00e+00	123	39	0	571473920	46	6190
2026-01-03 13:03:20.31	40.78	15.71	-37.1	-38.0	23.1	0.00e+00	123	39	0	584056832	46	6273
2026-01-03 13:03:24.35	41.40	16.03	-37.5	-38.4	23.3	0.00e+00	120	39	0	596639744	46	6567
2026-01-03 13:03:28.38	42.03	16.34	-37.2	-38.1	23.1	0.00e+00	120	39	0	609222656	48	5631
2026-01-03 13:03:32.42	42.67	16.66	-36.9	-37.8	23.4	0.00e+00	122	39	0	621805568	48	5465
2026-01-03 13:03:36.46	43.33	16.98	-37.0	-38.0	23.3	0.00e+00	123	39	0	634388480	48	5547
2026-01-03 13:03:40.50	44.00	17.30	-37.2	-38.1	23.2	0.00e+00	123	39	0	646971392	48	5651
2026-01-03 13:03:44.53	44.69	17.62	-37.0	-38.0	23.2	0.00e+00	120	39	0	659554304	48	5558
2026-01-03 13:03:48.57	45.39	17.93	-37.2	-38.2	23.0	0.00e+00	123	39	0	672137216	48	5676
2026-01-03 13:03:52.60	46.10	18.25	-36.9	-37.8	23.4	0.00e+00	123	39	0	684720128	48	5446
2026-01-03 13:03:56.64	46.83	18.57	-36.9	-37.8	23.4	0.00e+00	120	39	0	697303040	46	6118
2026-01-03 13:04:00.68	47.57	18.89	-36.8	-37.7	23.4	0.00e+00	120	39	0	709885952	46	6059
2026-01-03 13:04:04.73	48.33	19.21	-36.7	-37.6	23.5	0.00e+00	123	39	0	722468864	46	5990
2026-01-03 13:04:08.76	49.11	19.52	-36.6	-37.5	23.6	0.00e+00	122	39	0	735051776	46	5922
2026-01-03 13:04:12.80	49.90	19.84	-36.1	-37.0	24.0	0.00e+00	121	39	0	747634688	46	5553
2026-01-03 13:04:16.84	50.70	20.15	-35.9	-36.8	24.2	0.00e+00	120	39	0	760217600	46	5425
2026-01-03 13:04:20.88	51.52	20.46	-36.0	-36.9	24.1	0.00e+00	120	39	0	773849088	44	6158
2026-01-03 13:04:24.91	52.36	20.77	-35.8	-36.7	24.2	0.00e+00	122	39	0	785383424	44	6021
2026-01-03 13:04:28.94	53.22	21.08	-35.9	-36.8	24.1	0.00e+00	122	39	0	799014912	44	6078
2026-01-03 13:04:32.98	54.09	21.39	-36.3	-37.3	23.9	0.00e+00	120	40	0	811597824	44	6440
2026-01-03 13:04:37.02	54.98	21.69	-36.1	-37.0	24.1	0.00e+00	123	39	0	824180736	44	6248
2026-01-03 13:04:41.06	55.88	21.99	-35.5	-36.4	24.5	0.00e+00	120	39	0	836763648	44	5802
2026-01-03 13:04:45.10	56.81	22.28	-35.5	-36.5	24.2	0.00e+00	123	39	0	849346560	44	5861
2026-01-03 13:04:49.14	57.75	22.57	-35.4	-36.3	24.3	0.00e+00	123	39	0	861929472	44	5762
2026-01-03 13:04:53.18	58.71	22.86	-35.5	-36.4	24.4	0.00e+00	123	39	0	874512384	44	5801
2026-01-03 13:04:57.22	59.68	23.14	-35.4	-36.3	24.4	0.00e+00	123	39	0	887095296	44	5749
2026-01-03 13:05:01.26	60.67	23.42	-35.5	-36.4	24.4	0.00e+00	122	40	0	899678208	44	5798
2026-01-03 13:05:05.30	61.68	23.69	-35.4	-36.3	24.4	0.00e+00	120	39	0	912261120	44	5783
2026-01-03 13:05:09.33	62.71	23.95	-35.9	-36.8	24.1	0.00e+00	123	40	0	924844032	44	6101
2026-01-03 13:05:13.37	63.75	24.20	-35.9	-36.8	24.2	0.00e+00	120	40	0	937426944	44	6111
2026-01-03 13:05:17.42	64.81	24.45	-36.2	-37.1	23.9	0.00e+00	122	40	0	950009856	44	6344
2026-01-03 13:05:21.46	65.89	24.69	-35.9	-36.8	24.2	0.00e+00	123	39	0	962592768	44	6108
2026-01-03 13:05:25.49	66.98	24.93	-36.2	-37.1	23.9	0.00e+00	122	39	0	975175680	44	6311
2026-01-03 13:05:29.53	68.09	25.15	-35.9	-36.8	24.1	0.00e+00	123	40	0	987758592	44	6120
2026-01-03 13:05:33.57	69.21	25.36	-35.7	-36.6	24.3	0.00e+00	123	40	0	1000341504	44	5979
2026-01-03 13:05:37.61	70.35	25.57	-35.9	-36.8	24.1	0.00e+00	123	39	0	1012924416	44	6112
2026-01-03 13:05:41.64	71.50	25.76	-35.7	-36.6	24.3	0.00e+00	123	39	0	1025507328	44	5937
2026-01-03 13:05:45.67	72.66	25.94	-35.8	-36.7	24.0	0.00e+00	123	39	0	1038090240	44	6010
2026-01-03 13:05:49.72	73.84	26.11	-35.8	-36.7	24.0	0.00e+00	120	39	0	1050673152	44	6019
2026-01-03 13:05:53.75	75.03	26.27	-35.6	-36.5	24.3	0.00e+00	120	39	0	1063256064	44	5910
2026-01-03 13:05:57.79	76.23	26.42	-36.0	-36.9	24.2	0.00e+00	120	39	0	1075838976	44	6171
2026-01-03 13:06:01.83	77.45	26.56	-35.6	-36.5	24.4	0.00e+00	122	39	0	1088421888	44	5911
2026-01-03 13:06:05.87	78.67	26.68	-35.5	-36.4	24.5	0.00e+00	123	39	0	1101004800	44	5850
2026-01-03 13:06:09.91	79.90	26.79	-35.5	-36.4	24.5	0.00e+00	120	39	0	1113587712	44	5793
2026-01-03 13:06:13.95	81.14	26.88	-35.4	-36.3	24.6	0.00e+00	120	39	0	1126170624	44	5761
2026-01-03 13:06:17.98	82.39	26.96	-35.9	-36.8	24.1	0.00e+00	121	39	0	1139802112	44	6099
2026-01-03 13:06:22.02	83.64	27.03	-35.5	-36.4	24.4	0.00e+00	120	40	0	1151336448	44	5826
2026-01-03 13:06:26.06	84.89	27.08	-35.6	-36.5	24.4	0.00e+00	123	39	0	1164967936	44	5859
2026-01-03 13:06:30.10	86.16	27.12	-35.3	-36.2	24.6	0.00e+00	122	40	0	1177550848	44	5675
2026-01-03 13:06:34.14	87.42	27.15	-35.6	-36.5	24.4	0.00e+00	123	40	0	1190133760	44	5904
2026-01-03 13:06:38.17	88.68	27.16	-35.7	-36.6	24.4	0.00e+00	121	39	0	1202716672	44	5986
2026-01-03 13:06:42.21	89.95	27.15	-35.5	-36.4	24.5	0.00e+00	120	39	0	1215299584	44	5849
2026-01-03 13:06:46.26	91.21	27.13	-35.5	-36.4	24.4	0.00e+00	123	40	0	1227882496	44	5852
2026-01-03 13:06:50.30	92.48	27.10	-35.2	-36.1	24.6	0.00e+00	121	39	0	1240465408	44	5606
2026-01-03 13:06:54.34	93.73	27.05	-35.6	-36.5	24.3	0.00e+00	120	39	0	1253048320	44	5912
2026-01-03 13:06:58.36	94.98	26.98	-35.3	-36.2	24.4	0.00e+00	121	40	0	1265631232	44	5692
2026-01-03 13:07:02.40	96.23	26.91	-35.3	-36.2	24.7	0.00e+00	122	40	0	1278214144	44	5682
2026-01-03 13:07:06.44	97.47	26.81	-35.6	-36.5	24.3	0.00e+00	123	40	0	1290797056	44	5911
2026-01-03 13:07:10.49	98.71	26.71	-35.3	-36.2	24.5	0.00e+00	122	39	0	1303379968	44	5718
2026-01-03 13:07:14.53	99.94	26.59	-35.3	-36.2	24.6	0.00e+00	120	39	0	1315962880	44	5702
2026-01-03 13:07:18.57	101.16	26.46	-35.5	-36.4	24.4	0.00e+00	121	40	0	1328545792	44	5811
2026-01-03 13:07:22.60	102.36	26.31	-35.6	-36.5	24.4	0.00e+00	122	40	0	1341128704	44	5874
2026-01-03 13:07:26.63	103.56	26.16	-35.8	-36.7	24.2	0.00e+00	123	39	0	1353711616	44	6038
2026-01-03 13:07:30.67	104.74	25.99	-35.9	-36.8	24.2	0.00e+00	123	39	0	1366294528	44	6103
2026-01-03 13:07:34.71	105.91	25.81	-36.0	-36.9	24.1	0.00e+00	123	40	0	1378877440	44	6198
2026-01-03 13:07:38.75	107.07	25.61	-35.8	-36.7	24.0	0.00e+00	120	40	0	1391460352	44	6024
2026-01-03 13:07:42.78	108.21	25.41	-35.4	-36.3	24.5	0.00e+00	120	39	0	1404043264	44	5764
2026-01-03 13:07:46.82	109.34	25.20	-35.3	-36.2	24.6	0.00e+00	123	39	0	1416626176	44	5682
2026-01-03 13:07:50.86	110.46	24.98	-35.5	-36.4	24.5	0.00e+00	123	39	0	1429209088	44	5794
2026-01-03 13:07:54.89	111.55	24.75	-35.3	-36.2	24.4	0.00e+00	122	40	0	1441792000	44	5702
2026-01-03 13:07:58.93	112.64	24.51	-35.1	-35.9	24.8	0.00e+00	123	40	0	1454374912	44	5519
2026-01-03 13:08:02.97	113.71	24.26	-35.6	-36.4	24.5	0.00e+00	123	39	0	1466957824	44	5833
2026-01-03 13:08:07.00	114.75	24.00	-36.1	-37.0	24.0	0.00e+00	123	39	0	1479540736	44	6244
2026-01-03 13:08:11.04	115.79	23.74	-36.3	-37.2	23.8	0.00e+00	122	39	0	1492123648	46	5677
2026-01-03 13:08:15.08	116.81	23.47	-37.1	-38.0	23.7	0.00e+00	122	40	0	1505755136	46	6258
2026-01-03 13:08:19.12	117.81	23.20	-36.3	-37.2	24.1	0.00e+00	123	40	0	1517289472	46	5676
2026-01-03 13:08:23.16	118.79	22.92	-35.8	-36.7	24.3	0.00e+00	120	40	0	1529872384	44	6017
2026-01-03 13:08:27.20	119.75	22.63	-35.7	-36.6	24.4	0.00e+00	120	40	0	1543503872	44	5928
2026-01-03 13:08:31.24	120.70	22.34	-36.0	-36.9	24.2	0.00e+00	122	40	0	1556086784	44	6150
2026-01-03 13:08:35.28	121.63	22.04	-35.7	-36.6	24.4	0.00e+00	123	40	0	1568669696	44	5955
2026-01-03 13:08:39.31	122.55	21.74	-35.6	-36.5	24.4	0.00e+00	122	40	0	1581252608	44	5911
2026-01-03 13:08:43.36	123.44	21.44	-36.0	-36.9	24.0	0.00e+00	123	40	0	1593835520	44	6192
2026-01-03 13:08:47.40	124.32	21.13	-36.0	-36.9	24.5	0.00e+00	122	40	0	1606418432	44	6186
2026-01-03 13:08:51.44	125.19	20.82	-35.9	-36.8	24.2	0.00e+00	122	40	0	1619001344	44	6134
2026-01-03 13:08:55.48	126.03	20.51	-35.7	-36.6	24.4	0.00e+00	122	40	0	1631584256	44	5931
2026-01-03 13:08:59.52	126.86	20.20	-35.2	-36.1	24.5	0.00e+00	123	40	0	1644167168	44	5629
2026-01-03 13:09:03.55	127.67	19.88	-35.8	-36.7	24.2	0.00e+00	123	40	0	1656750080	44	6054
2026-01-03 13:09:07.60	128.47	19.56	-35.9	-36.8	24.1	0.00e+00	124	40	0	1669332992	44	6086
2026-01-03 13:09:11.64	129.25	19.24	-36.0	-36.9	24.1	0.00e+00	123	40	0	1681915904	44	6183
2026-01-03 13:09:15.67	130.02	18.93	-35.9	-36.8	24.0	0.00e+00	123	40	0	1694498816	44	6111
2026-01-03 13:09:19.71	130.77	18.61	-36.1	-37.0	23.9	0.00e+00	123	40	0	1707081728	44	6253
2026-01-03 13:09:23.75	131.50	18.28	-36.1	-37.0	24.2	0.00e+00	122	40	0	1719664640	46	5568
2026-01-03 13:09:27.79	132.22	17.96	-36.2	-37.2	23.8	0.00e+00	123	40	0	1732247552	46	5667
2026-01-03 13:09:31.83	132.93	17.64	-36.8	-37.7	23.6	0.00e+00	122	40	0	1744830464	46	6040
2026-01-03 13:09:35.87	133.62	17.32	-36.8	-37.7	23.5	0.00e+00	123	40	0	1757413376	46	6048
2026-01-03 13:09:39.91	134.29	17.00	-36.8	-37.8	23.5	0.00e+00	123	40	0	1769996288	46	6081
2026-01-03 13:09:43.94	134.95	16.68	-37.9	-38.9	22.6	0.00e+00	122	40	0	1782579200	48	6191
2026-01-03 13:09:47.97	135.60	16.36	-37.0	-38.0	23.0	0.00e+00	123	40	0	1795162112	48	5572
2026-01-03 13:09:52.01	136.24	16.04	-36.3	-37.3	23.9	0.00e+00	123	40	0	1807745024	46	5729
2026-01-03 13:09:56.05	136.86	15.73	-36.5	-37.4	23.7	0.00e+00	123	40	0	1820327936	46	5807
2026-01-03 13:10:00.08	137.47	15.41	-36.9	-37.8	23.6	0.00e+00	122	40	0	1832910848	46	6126
2026-01-03 13:10:04.12	138.07	15.09	-37.1	-38.1	23.3	0.00e+00	122	40	0	1845493760	46	6303
2026-01-03 13:10:08.16	138.66	14.78	-36.8	-37.7	23.3	0.00e+00	123	40	0	1858076672	46	6027
2026-01-03 13:10:12.20	139.23	14.47	-36.9	-37.9	23.0	0.00e+00	123	40	0	1870659584	46	6150
2026-01-03 13:10:16.23	139.79	14.16	-37.2	-38.1	23.1	0.00e+00	120	40	0	1884291072	46	6330
2026-01-03 13:10:20.27	140.34	13.85	-37.6	-38.6	22.4	0.00e+00	121	40	0	1895825408	46	6669
2026-01-03 13:10:24.31	140.88	13.54	-38.5	-39.5	21.8	0.00e+00	123	40	0	1909456896	48	6626
2026-01-03 13:10:28.35	141.41	13.23	-38.5	-39.6	21.3	0.00e+00	123	40	0	1922039808	50	5943
2026-01-03 13:10:32.39	141.93	12.92	-38.8	-40.0	21.1	0.00e+00	120	40	0	1934622720	50	6206
2026-01-03 13:10:36.43	142.44	12.62	-38.8	-39.9	21.5	0.00e+00	120	40	0	1947205632	50	6203
2026-01-03 13:10:40.46	142.94	12.32	-38.5	-39.5	21.6	0.00e+00	123	40	0	1959788544	50	5891
2026-01-03 13:10:44.50	143.43	12.02	-37.8	-38.9	22.0	0.00e+00	122	40	0	1972371456	50	5468
2026-01-03 13:10:48.54	143.91	11.72	-38.0	-39.0	22.0	0.00e+00	120	40	0	1984954368	50	5586
2026-01-03 13:10:52.58	144.38	11.43	-38.1	-39.2	22.0	0.00e+00	120	40	0	1997537280	50	5668
2026-01-03 13:10:56.62	144.84	11.13	-37.7	-38.7	22.3	0.00e+00	120	40	0	2010120192	48	6016
2026-01-03 13:11:00.66	145.30	10.84	-38.1	-39.1	22.2	0.00e+00	123	40	0	2022703104	48	6298
2026-01-03 13:11:04.69	145.74	10.55	-38.2	-39.2	22.2	0.00e+00	123	40	0	2035286016	50	5685
2026-01-03 13:11:08.72	146.17	10.26	-38.3	-39.4	22.2	0.00e+00	120	40	0	2047868928	50	5798
2026-01-03 13:11:12.77	146.60	9.97	-39.0	-40.1	21.6	0.00e+00	122	40	0	2060451840	50	6282
2026-01-03 13:11:16.80	147.02	9.69	-38.5	-39.5	21.6	0.00e+00	123	40	0	2073034752	50	5910
2026-01-03 13:11:20.84	147.43	9.41	-37.9	-38.9	22.2	0.00e+00	122	40	0	2085617664	50	5476
2026-01-03 13:11:24.88	147.84	9.13	-37.9	-39.0	22.1	0.00e+00	123	40	0	2098200576	50	5539
2026-01-03 13:11:28.91	148.24	8.85	-38.3	-39.4	21.7	0.00e+00	123	40	0	2110783488	50	5793
2026-01-03 13:11:32.95	148.63	8.57	-38.0	-39.0	22.1	0.00e+00	123	40	0	2123366400	50	5548
2026-01-03 13:11:36.99	149.01	8.30	-38.2	-39.2	21.8	0.00e+00	123	40	0	2135949312	50	5725
2026-01-03 13:11:41.03	149.39	8.02	-38.2	-39.3	21.7	0.00e+00	123	40	0	2148532224	50	5745
2026-01-03 13:11:45.07	149.76	7.75	-38.3	-39.4	21.6	0.00e+00	123	40	0	2161115136	50	5835
2026-01-03 13:11:49.10	150.12	7.48	-38.8	-39.9	21.1	0.00e+00	123	40	0	2173698048	50	6185
2026-01-03 13:11:53.14	150.48	7.22	-38.5	-39.6	21.5	0.00e+00	121	40	0	2186280960	50	5943
2026-01-03 13:11:57.18	150.83	6.95	-38.1	-39.2	21.7	0.00e+00	120	40	0	2198863872	50	5668
2026-01-03 13:12:01.21	151.17	6.69	-38.3	-39.4	21.6	0.00e+00	122	40	0	2211446784	50	5834
2026-01-03 13:12:05.25	151.51	6.43	-38.3	-39.4	21.4	0.00e+00	120	40	0	2224029696	50	5832
2026-01-03 13:12:09.29	151.84	6.17	-39.3	-40.5	20.5	0.00e+00	123	40	0	2236612608	50	6576
2026-01-03 13:12:13.32	152.17	5.91	-39.9	-41.2	19.9	0.00e+00	123	40	0	2249195520	52	6355
2026-01-03 13:12:17.36	152.49	5.65	-39.8	-41.0	20.0	0.00e+00	122	40	0	2261778432	52	6249
2026-01-03 13:12:21.40	152.81	5.40	-40.2	-41.5	19.3	0.00e+00	123	40	0	2275409920	52	6598
2026-01-03 13:12:25.43	153.12	5.15	-42.3	-44.0	16.7	0.00e+00	123	40	0	2287992832	56	7025
2026-01-03 13:12:29.47	153.43	4.90	-42.0	-43.7	16.7	0.00e+00	122	40	0	2300575744	56	6759
2026-01-03 13:12:33.51	153.73	4.65	-43.5	-45.7	13.1	5.56e-05	122	40	0	2313158656	60	6770
2026-01-03 13:12:37.55	154.02	4.40	-44.3	-47.0	13.4	1.36e-04	122	40	0	2325741568	60	7870
2026-01-03 13:12:41.59	154.32	4.15	-44.4	-47.3	12.6	1.80e-03	122	40	0	2338324480	60	8094
2026-01-03 13:12:45.62	154.60	3.91	-45.1	-48.6	11.1	3.24e-04	123	40	0	2350907392	60	9458
2026-01-03 13:12:49.66	154.89	3.67	-45.5	-49.2	10.9	1.25e-03	121	40	0	2363490304	60	10068
2026-01-03 13:12:53.70	155.17	3.43	-45.2	-48.4	11.3	5.23e-04	122	40	0	2376073216	60	9248
2026-01-03 13:12:57.74	155.44	3.19	-45.1	-48.2	12.5	6.80e-06	122	40	0	2388656128	60	9004
2026-01-03 13:13:01.77	155.71	2.95	-49.7	-62.6	3.5	1.52e+00	0	40	104	2397044736	60	47371
2026-01-03 13:13:05.81	155.98	2.71	-50.3	-63.1	3.5	1.52e+00	0	40	104	2397044736	60	50424
2026-01-03 13:13:09.85	156.24	2.48	-50.3	-63.2	3.5	1.52e+00	0	40	104	2397044736	60	50592
2026-01-03 13:13:13.89	156.50	2.24	-50.2	-63.1	3.5	1.52e+00	0	40	104	2397044736	60	49891
2026-01-03 13:13:17.93	156.75	2.01	-50.2	-63.1	3.5	1.52e+00	0	40	104	2397044736	60	50121
2026-01-03 13:13:21.97	157.00	1.78	-50.5	-63.3	3.5	1.52e+00	0	40	104	2397044736	60	51472
2026-01-03 13:13:26.01	157.25	1.55	-50.4	-63.3	3.5	1.52e+00	0	40	104	2397044736	60	51392
2026-01-03 13:13:30.05	157.49	1.32	-50.9	-63.7	3.5	1.52e+00	0	40	104	2397044736	60	53602
2026-01-03 13:13:34.09	157.73	1.10	-50.9	-63.7	3.5	1.52e+00	0	40	104	2397044736	60	53848
2026-01-03 13:13:38.13	157.97	0.87	-50.7	-63.6	3.5	1.52e+00	0	40	104	2397044736	60	53000
2026-01-03 13:13:42.16	158.20	0.65	-50.9	-63.7	3.5	1.52e+00	0	40	104	2397044736	60	53898
2026-01-03 13:13:46.20	158.43	0.43	-50.7	-63.5	3.5	1.52e+00	0	40	104	2397044736	60	52791
2026-01-03 13:13:50.23	158.66	0.21	-50.9	-63.7	3.5	1.52e+00	0	40	104	2397044736	60	53918
2026-01-03 13:13:54.27	158.88	-0.01	-50.9	-63.8	3.5	1.52e+00	0	40	104	2397044736	60	54175

#Closed at: 2026-01-03 13:13:55
#Recorded file [2397 MB]: D:/lorett/data/35029_260104_005922.dat