passes_logs/2026/01/03/R4.6S_Anadyr/R4.6S_Anadyr__20260103_012351_SUOMI_NPP_rec.log

#Pass ID: 20260103_012351_SUOMI NPP
#Satellite: SUOMI NPP
#Configuration: NPP
#almurnet v.1.7.20251203
#Start time: 2026-01-03 01:23:52

#Version: 2.2.20231116
#Station: R4.6S_Anadyr
#Location: 177.4865 lon 64.73178 lat
#TLE: 1 37849U 11061A   26001.07732418  .00000182  00000+0  10735-3 0  9990
#TLE: 2 37849  98.7795 303.2470 0002580  87.2016 272.9455 14.19520779734739

#Time	Az	El	Level	Level2	SNR	BER	BlckErr	Temp	State	Recorded	gain1	gain2
2026-01-03 01:23:52.70	184.47	0.09	-50.2	-62.7	3.4	1.52e+00	0	36	0	0	60	48045
2026-01-03 01:23:56.73	184.62	0.33	-50.2	-65.4	3.6	1.51e+00	0	38	104	0	60	67510
2026-01-03 01:24:00.77	184.77	0.56	-50.1	-65.4	3.6	1.51e+00	0	38	104	0	60	67333
2026-01-03 01:24:04.81	184.93	0.80	-49.8	-65.0	3.6	1.51e+00	0	38	104	0	60	64580
2026-01-03 01:24:08.85	185.08	1.04	-48.8	-63.9	3.6	1.51e+00	0	38	104	0	60	56788
2026-01-03 01:24:12.88	185.24	1.28	-48.8	-64.0	3.6	1.51e+00	0	38	104	0	60	57244
2026-01-03 01:24:16.92	185.40	1.52	-48.8	-64.0	3.6	1.51e+00	0	38	104	0	60	57382
2026-01-03 01:24:20.96	185.57	1.77	-48.8	-63.9	3.6	1.51e+00	0	38	104	0	60	56907
2026-01-03 01:24:25.01	185.73	2.02	-48.8	-63.9	3.6	1.51e+00	0	38	104	0	60	56793
2026-01-03 01:24:29.05	185.90	2.27	-48.8	-63.9	3.6	1.51e+00	0	38	104	0	60	56497
2026-01-03 01:24:33.08	186.07	2.52	-48.8	-63.8	3.6	1.51e+00	0	38	104	0	60	56260
2026-01-03 01:24:37.12	186.24	2.77	-48.7	-62.1	3.6	1.51e+00	0	38	104	0	60	46286
2026-01-03 01:24:41.16	186.42	3.02	-48.5	-59.7	4.3	1.49e+00	81	38	104	0	60	35071
2026-01-03 01:24:45.20	186.60	3.28	-45.5	-48.5	14.4	5.75e-04	92	38	0	6291456	60	9614
2026-01-03 01:24:49.24	186.78	3.54	-44.7	-47.2	15.6	0.00e+00	0	38	0	13631488	60	8324
2026-01-03 01:24:53.27	186.96	3.80	-48.6	-62.8	3.6	9.64e-01	0	38	104	20971520	60	49689
2026-01-03 01:24:57.31	187.15	4.07	-44.5	-46.8	16.5	0.00e+00	92	38	0	23068672	60	7915
2026-01-03 01:25:01.35	187.34	4.33	-43.9	-46.0	17.1	0.00e+00	92	38	0	31457280	60	7189
2026-01-03 01:25:05.40	187.54	4.60	-43.3	-45.1	18.0	0.00e+00	0	38	0	38797312	60	6467
2026-01-03 01:25:09.43	187.74	4.87	-42.4	-43.9	19.1	0.00e+00	0	38	0	46137344	58	6385
2026-01-03 01:25:13.48	187.94	5.15	-42.3	-43.9	19.1	0.00e+00	92	38	0	53477376	58	6319
2026-01-03 01:25:17.51	188.14	5.42	-42.4	-43.9	19.2	0.00e+00	92	38	0	61865984	58	6344
2026-01-03 01:25:21.56	188.35	5.70	-42.7	-44.3	19.0	0.00e+00	0	38	0	69206016	58	6671
2026-01-03 01:25:25.60	188.57	5.99	-42.6	-44.2	19.0	0.00e+00	92	38	0	76546048	58	6590
2026-01-03 01:25:29.63	188.78	6.27	-42.5	-44.0	19.1	0.00e+00	92	38	0	83886080	58	6424
2026-01-03 01:25:33.67	189.00	6.56	-42.5	-44.0	19.2	0.00e+00	0	38	0	91226112	58	6433
2026-01-03 01:25:37.71	189.23	6.85	-42.6	-44.2	19.1	0.00e+00	0	39	0	99614720	58	6565
2026-01-03 01:25:41.75	189.45	7.14	-42.5	-44.0	19.2	0.00e+00	51	39	0	106954752	58	6442
2026-01-03 01:25:45.80	189.69	7.44	-42.5	-44.0	19.4	0.00e+00	92	39	0	114294784	58	6400
2026-01-03 01:25:49.84	189.93	7.74	-42.2	-43.6	19.7	0.00e+00	0	39	0	121634816	58	6158
2026-01-03 01:25:53.88	190.17	8.04	-41.6	-42.9	20.4	0.00e+00	86	39	0	130023424	56	6346
2026-01-03 01:25:57.92	190.42	8.35	-41.4	-42.6	20.6	0.00e+00	92	39	0	137363456	56	6152
2026-01-03 01:26:01.96	190.67	8.66	-41.3	-42.6	20.7	0.00e+00	91	39	0	144703488	56	6120
2026-01-03 01:26:06.00	190.93	8.97	-41.2	-42.4	20.9	0.00e+00	0	39	0	152043520	56	6013
2026-01-03 01:26:10.04	191.19	9.28	-41.0	-42.2	21.0	0.00e+00	91	39	0	159383552	56	5875
2026-01-03 01:26:14.08	191.46	9.60	-41.1	-42.3	21.0	0.00e+00	51	39	0	167772160	56	5922
2026-01-03 01:26:18.12	191.73	9.93	-41.4	-42.6	20.8	0.00e+00	65	39	0	175112192	56	6128
2026-01-03 01:26:22.16	192.01	10.25	-41.2	-42.4	20.9	0.00e+00	0	39	0	182452224	56	5983
2026-01-03 01:26:26.20	192.29	10.59	-41.0	-42.2	21.1	0.00e+00	92	39	0	189792256	56	5859
2026-01-03 01:26:30.24	192.59	10.92	-40.6	-41.7	21.4	0.00e+00	92	39	0	198180864	54	6238
2026-01-03 01:26:34.28	192.88	11.26	-40.1	-41.2	21.8	0.00e+00	0	39	0	205520896	54	5861
2026-01-03 01:26:38.32	193.19	11.60	-39.9	-40.9	22.1	0.00e+00	0	39	0	212860928	54	5691
2026-01-03 01:26:42.36	193.50	11.95	-39.9	-40.9	22.2	0.00e+00	92	39	0	220200960	52	6346
2026-01-03 01:26:46.40	193.82	12.30	-39.6	-40.6	22.4	0.00e+00	90	39	0	227540992	52	6164
2026-01-03 01:26:50.44	194.15	12.66	-39.5	-40.5	22.6	0.00e+00	0	39	0	235929600	52	6055
2026-01-03 01:26:54.48	194.48	13.02	-39.4	-40.3	22.8	0.00e+00	82	39	0	243269632	52	5943
2026-01-03 01:26:58.52	194.82	13.38	-39.2	-40.2	22.9	0.00e+00	92	39	0	250609664	52	5852
2026-01-03 01:27:02.56	195.17	13.75	-39.3	-40.2	22.9	0.00e+00	0	39	0	257949696	52	5881
2026-01-03 01:27:06.60	195.53	14.12	-38.9	-39.8	23.1	0.00e+00	0	39	0	266338304	52	5627
2026-01-03 01:27:10.64	195.90	14.50	-39.1	-40.0	23.0	0.00e+00	90	39	0	273678336	52	5761
2026-01-03 01:27:14.68	196.27	14.89	-39.2	-40.2	22.9	0.00e+00	92	39	0	281018368	52	5855
2026-01-03 01:27:18.72	196.66	15.28	-39.3	-40.3	22.8	0.00e+00	0	39	0	288358400	52	5928
2026-01-03 01:27:22.76	197.05	15.67	-39.0	-40.2	22.7	0.00e+00	0	39	0	296747008	52	5882
2026-01-03 01:27:26.80	197.46	16.07	-39.5	-40.7	22.4	0.00e+00	66	39	0	304087040	52	6184
2026-01-03 01:27:30.84	197.87	16.47	-39.7	-40.7	22.5	0.00e+00	91	39	0	311427072	52	6208
2026-01-03 01:27:34.88	198.30	16.88	-39.6	-40.5	22.7	0.00e+00	0	39	0	318767104	52	6091
2026-01-03 01:27:38.92	198.74	17.30	-40.2	-41.2	22.2	0.00e+00	81	39	0	326107136	52	6562
2026-01-03 01:27:42.96	199.19	17.72	-40.0	-41.0	22.2	0.00e+00	92	39	0	334495744	52	6427
2026-01-03 01:27:46.99	199.65	18.14	-40.2	-41.3	22.1	0.00e+00	92	39	0	341835776	52	6623
2026-01-03 01:27:51.03	200.13	18.58	-40.2	-41.2	22.2	0.00e+00	0	39	0	349175808	52	6588
2026-01-03 01:27:55.07	200.62	19.01	-39.6	-40.6	22.6	0.00e+00	92	39	0	356515840	52	6108
2026-01-03 01:27:59.11	201.12	19.46	-39.6	-40.6	22.7	0.00e+00	90	39	0	363855872	52	6146
2026-01-03 01:28:03.14	201.63	19.91	-40.4	-41.5	22.1	0.00e+00	10	39	0	372244480	52	6779
2026-01-03 01:28:07.18	202.17	20.36	-40.2	-41.2	22.2	0.00e+00	0	39	0	379584512	52	6568
2026-01-03 01:28:11.22	202.71	20.82	-39.5	-40.4	22.7	0.00e+00	92	39	0	386924544	52	6018
2026-01-03 01:28:15.27	203.28	21.29	-40.2	-41.3	22.2	0.00e+00	92	39	0	394264576	52	6631
2026-01-03 01:28:19.31	203.86	21.76	-40.0	-41.0	22.4	0.00e+00	0	39	0	402653184	52	6454
2026-01-03 01:28:23.35	204.46	22.24	-39.9	-40.9	22.4	0.00e+00	0	39	0	409993216	52	6358
2026-01-03 01:28:27.39	205.07	22.73	-40.6	-41.6	21.8	0.00e+00	89	39	0	417333248	52	6919
2026-01-03 01:28:31.43	205.71	23.22	-40.3	-41.3	22.1	0.00e+00	90	39	0	424673280	54	5945
2026-01-03 01:28:35.47	206.36	23.72	-40.1	-41.1	22.3	0.00e+00	0	39	0	433061888	52	6511
2026-01-03 01:28:39.50	207.04	24.22	-40.2	-41.2	22.4	0.00e+00	92	39	0	440401920	52	6592
2026-01-03 01:28:43.55	207.74	24.73	-39.4	-40.3	23.0	0.00e+00	90	39	0	447741952	52	5916
2026-01-03 01:28:47.58	208.45	25.24	-39.6	-40.5	22.8	0.00e+00	0	39	0	455081984	52	6098
2026-01-03 01:28:51.62	209.20	25.76	-41.0	-42.1	21.5	0.00e+00	0	39	0	462422016	54	6503
2026-01-03 01:28:55.66	209.96	26.28	-40.1	-41.1	22.1	0.00e+00	92	39	0	470810624	54	5797
2026-01-03 01:28:59.70	210.75	26.81	-39.3	-40.2	23.1	0.00e+00	92	39	0	478150656	52	5840
2026-01-03 01:29:03.74	211.57	27.34	-40.2	-41.2	22.3	0.00e+00	0	39	0	485490688	52	6614
2026-01-03 01:29:07.78	212.42	27.88	-39.9	-40.9	22.6	0.00e+00	0	39	0	492830720	52	6338
2026-01-03 01:29:11.82	213.29	28.42	-40.3	-41.3	22.3	0.00e+00	91	39	0	501219328	52	6657
2026-01-03 01:29:15.86	214.19	28.97	-40.7	-41.8	21.7	0.00e+00	92	39	0	508559360	54	6255
2026-01-03 01:29:19.90	215.13	29.51	-41.5	-42.6	21.2	0.00e+00	0	39	0	515899392	54	6927
2026-01-03 01:29:23.94	216.09	30.06	-40.9	-41.9	21.7	0.00e+00	92	39	0	523239424	54	6385
2026-01-03 01:29:27.98	217.09	30.62	-40.8	-41.9	21.8	0.00e+00	91	39	0	530579456	54	6342
2026-01-03 01:29:32.02	218.12	31.17	-40.5	-41.5	22.1	0.00e+00	0	39	0	538968064	54	6065
2026-01-03 01:29:36.06	219.19	31.72	-41.4	-42.6	21.1	0.00e+00	0	39	0	546308096	54	6920
2026-01-03 01:29:40.09	220.29	32.27	-41.2	-42.4	21.3	0.00e+00	92	39	0	553648128	54	6696
2026-01-03 01:29:44.14	221.43	32.82	-41.4	-42.6	21.1	0.00e+00	92	39	0	560988160	54	6853
2026-01-03 01:29:48.18	222.61	33.37	-41.6	-42.8	20.9	0.00e+00	0	39	0	569376768	54	7013
2026-01-03 01:29:52.22	223.83	33.91	-43.4	-45.0	19.1	0.00e+00	0	39	0	576716800	58	7235
2026-01-03 01:29:56.25	225.08	34.45	-42.1	-43.4	20.5	0.00e+00	92	39	0	584056832	56	6755
2026-01-03 01:30:00.29	226.38	34.98	-41.4	-42.5	21.2	0.00e+00	92	39	0	591396864	56	6095
2026-01-03 01:30:04.33	227.72	35.50	-43.4	-45.1	19.0	0.00e+00	0	39	0	598736896	58	7281
2026-01-03 01:30:08.37	229.11	36.02	-43.9	-45.6	18.5	0.00e+00	91	39	0	607125504	60	6865
2026-01-03 01:30:12.40	230.53	36.52	-43.6	-45.2	19.0	0.00e+00	92	39	0	614465536	60	6583
2026-01-03 01:30:16.44	232.00	37.01	-44.6	-46.6	17.6	0.00e+00	0	39	0	621805568	60	7758
2026-01-03 01:30:20.48	233.52	37.49	-43.2	-44.7	19.7	0.00e+00	0	39	0	629145600	60	6228
2026-01-03 01:30:24.52	235.07	37.95	-43.4	-45.0	18.9	0.00e+00	90	39	0	636485632	58	7184
2026-01-03 01:30:28.56	236.67	38.39	-42.2	-43.5	20.3	0.00e+00	92	39	0	644874240	58	6068
2026-01-03 01:30:32.60	238.32	38.82	-42.8	-44.2	19.9	0.00e+00	0	39	0	652214272	56	7357
2026-01-03 01:30:36.64	240.00	39.22	-42.5	-43.8	19.9	0.00e+00	0	39	0	659554304	60	5623
2026-01-03 01:30:40.67	241.72	39.60	-41.3	-42.4	21.3	0.00e+00	65	39	0	666894336	54	6732
2026-01-03 01:30:44.72	243.49	39.95	-41.8	-43.0	20.9	0.00e+00	92	39	0	675282944	56	6430
2026-01-03 01:30:48.75	245.29	40.27	-40.5	-41.6	22.1	0.00e+00	0	39	0	682622976	54	6121
2026-01-03 01:30:52.79	247.12	40.57	-43.1	-44.6	19.6	0.00e+00	89	39	0	689963008	58	6885
2026-01-03 01:30:56.83	248.99	40.84	-42.1	-43.3	20.7	0.00e+00	76	39	0	697303040	58	5952
2026-01-03 01:31:00.86	250.88	41.07	-44.4	-46.3	17.9	0.00e+00	0	39	0	704643072	60	7452
2026-01-03 01:31:04.90	252.80	41.27	-43.8	-45.4	18.8	0.00e+00	0	39	0	713031680	60	6708
2026-01-03 01:31:08.94	254.74	41.44	-44.3	-46.0	18.2	0.00e+00	92	39	0	720371712	60	7235
2026-01-03 01:31:12.98	256.69	41.57	-45.0	-47.0	17.3	0.00e+00	92	39	0	727711744	60	8052
2026-01-03 01:31:17.02	258.67	41.66	-44.2	-45.9	18.4	0.00e+00	0	39	0	735051776	60	7135
2026-01-03 01:31:21.06	260.65	41.72	-47.1	-50.6	13.6	6.10e-06	0	39	0	743440384	60	12182
2026-01-03 01:31:25.10	262.63	41.74	-42.6	-43.9	20.0	0.00e+00	92	39	0	750780416	58	6371
2026-01-03 01:31:29.14	264.62	41.72	-43.7	-45.3	18.7	0.00e+00	92	39	0	758120448	60	6643
2026-01-03 01:31:33.18	266.60	41.66	-44.5	-46.3	18.0	0.00e+00	2	39	0	765460480	60	7479
2026-01-03 01:31:37.22	268.57	41.57	-44.1	-45.8	18.5	0.00e+00	92	39	0	772800512	60	7030
2026-01-03 01:31:41.26	270.52	41.43	-41.5	-42.6	21.2	0.00e+00	90	39	0	781189120	56	6141
2026-01-03 01:31:45.30	272.46	41.27	-43.4	-44.9	19.3	0.00e+00	8	39	0	788529152	58	7093
2026-01-03 01:31:49.34	274.38	41.07	-42.0	-43.2	21.0	0.00e+00	0	39	0	795869184	58	5865
2026-01-03 01:31:53.38	276.27	40.83	-43.6	-45.2	19.1	0.00e+00	92	39	0	803209216	58	7363
2026-01-03 01:31:57.42	278.13	40.57	-42.9	-44.3	20.0	0.00e+00	85	39	0	811597824	58	6647
2026-01-03 01:32:01.46	279.97	40.27	-42.0	-43.2	20.8	0.00e+00	0	39	0	818937856	56	6573
2026-01-03 01:32:05.50	281.76	39.94	-41.0	-42.1	21.8	0.00e+00	0	39	0	826277888	56	5780
2026-01-03 01:32:09.54	283.52	39.59	-40.0	-41.0	22.7	0.00e+00	90	39	0	833617920	54	5712
2026-01-03 01:32:13.58	285.24	39.21	-39.9	-40.8	22.8	0.00e+00	92	39	0	840957952	54	5623
2026-01-03 01:32:17.61	286.92	38.81	-39.6	-40.6	23.2	0.00e+00	0	39	0	849346560	52	6124
2026-01-03 01:32:21.65	288.56	38.39	-37.5	-38.3	24.5	0.00e+00	9	39	0	856686592	48	5926
2026-01-03 01:32:25.69	290.15	37.95	-36.8	-37.6	25.0	0.00e+00	91	39	0	864026624	48	5447
2026-01-03 01:32:29.73	291.71	37.49	-37.0	-37.8	25.0	0.00e+00	77	39	0	871366656	46	6248
2026-01-03 01:32:33.77	293.22	37.02	-36.2	-36.9	24.9	0.00e+00	0	39	0	879755264	46	5669
2026-01-03 01:32:37.81	294.68	36.53	-38.4	-39.2	23.9	0.00e+00	63	39	0	887095296	48	6609
2026-01-03 01:32:41.85	296.10	36.02	-37.0	-37.7	24.9	0.00e+00	88	39	0	894435328	46	6224
2026-01-03 01:32:45.89	297.48	35.51	-37.3	-38.1	24.7	0.00e+00	0	39	0	901775360	48	5792
2026-01-03 01:32:49.93	298.82	34.99	-39.7	-40.7	22.8	0.00e+00	0	39	0	909115392	52	6210
2026-01-03 01:32:53.97	300.12	34.46	-40.9	-41.9	21.8	0.00e+00	0	39	0	917504000	54	6358
2026-01-03 01:32:58.01	301.37	33.93	-40.9	-41.9	21.9	0.00e+00	92	39	0	924844032	56	5666
2026-01-03 01:33:02.05	302.58	33.38	-42.4	-43.7	20.3	0.00e+00	0	39	0	932184064	56	6970
2026-01-03 01:33:06.09	303.76	32.84	-41.8	-43.0	20.9	0.00e+00	0	39	0	939524096	56	6399
2026-01-03 01:33:10.13	304.89	32.29	-44.0	-45.6	18.5	0.00e+00	62	39	0	947912704	60	6893
2026-01-03 01:33:14.16	305.99	31.75	-42.6	-44.0	19.8	0.00e+00	0	39	0	955252736	56	7195
2026-01-03 01:33:18.20	307.05	31.20	-42.2	-43.6	20.6	0.00e+00	0	39	0	962592768	58	6105
2026-01-03 01:33:22.24	308.08	30.65	-40.6	-41.6	21.9	0.00e+00	91	39	0	969932800	52	6861
2026-01-03 01:33:26.28	309.08	30.10	-42.1	-43.4	20.6	0.00e+00	92	39	0	977272832	58	5987
2026-01-03 01:33:30.31	310.04	29.55	-42.2	-43.5	20.5	0.00e+00	0	39	0	985661440	56	6787
2026-01-03 01:33:34.35	310.97	29.01	-40.5	-41.6	22.1	0.00e+00	0	39	0	993001472	54	6128
2026-01-03 01:33:38.39	311.87	28.47	-39.4	-40.3	23.1	0.00e+00	92	39	0	1000341504	52	5898
2026-01-03 01:33:42.43	312.74	27.93	-40.7	-41.8	21.9	0.00e+00	86	39	0	1007681536	54	6300
2026-01-03 01:33:46.47	313.58	27.40	-37.6	-38.4	24.4	0.00e+00	0	39	0	1016070144	48	5999
2026-01-03 01:33:50.50	314.40	26.87	-39.0	-40.0	23.0	0.00e+00	0	39	0	1023410176	50	6407
2026-01-03 01:33:54.54	315.19	26.34	-38.5	-39.3	23.8	0.00e+00	0	39	0	1030750208	50	5959
2026-01-03 01:33:58.58	315.95	25.82	-37.5	-38.3	24.4	0.00e+00	18	39	0	1038090240	48	5924
2026-01-03 01:34:02.62	316.70	25.31	-38.3	-39.2	23.9	0.00e+00	0	39	0	1045430272	48	6574
2026-01-03 01:34:06.66	317.41	24.80	-36.8	-37.5	25.1	0.00e+00	89	39	0	1053818880	48	5423
2026-01-03 01:34:10.70	318.11	24.29	-37.3	-38.1	24.5	0.00e+00	85	39	0	1061158912	46	6490
2026-01-03 01:34:14.73	318.78	23.79	-38.0	-38.8	24.0	0.00e+00	0	39	0	1068498944	48	6314
2026-01-03 01:34:18.78	319.44	23.30	-38.3	-39.2	23.8	0.00e+00	0	39	0	1075838976	48	6555
2026-01-03 01:34:22.82	320.07	22.81	-38.4	-39.2	23.8	0.00e+00	92	39	0	1084227584	48	6602
2026-01-03 01:34:26.86	320.69	22.33	-37.8	-38.6	24.2	0.00e+00	92	39	0	1091567616	48	6132
2026-01-03 01:34:30.89	321.28	21.85	-38.5	-39.4	23.6	0.00e+00	0	39	0	1098907648	48	6696
2026-01-03 01:34:34.93	321.87	21.38	-38.4	-39.3	23.8	0.00e+00	0	39	0	1106247680	48	6625
2026-01-03 01:34:38.97	322.43	20.92	-38.5	-39.3	23.6	0.00e+00	90	39	0	1113587712	48	6683
2026-01-03 01:34:43.01	322.98	20.46	-39.7	-40.7	22.5	0.00e+00	0	39	0	1121976320	50	6975
2026-01-03 01:34:47.05	323.51	20.00	-40.7	-41.9	21.5	0.00e+00	0	39	0	1129316352	54	6345
2026-01-03 01:34:51.09	324.03	19.56	-39.5	-40.5	22.7	0.00e+00	0	39	0	1136656384	52	6091
2026-01-03 01:34:55.13	324.53	19.12	-39.2	-40.1	23.0	0.00e+00	70	39	0	1143996416	52	5799
2026-01-03 01:34:59.17	325.02	18.68	-40.1	-41.1	22.1	0.00e+00	0	39	0	1152385024	52	6507
2026-01-03 01:35:03.21	325.49	18.25	-40.0	-41.1	22.3	0.00e+00	0	39	0	1159725056	52	6483
2026-01-03 01:35:07.25	325.96	17.83	-39.9	-40.9	22.4	0.00e+00	38	39	0	1167065088	52	6377
2026-01-03 01:35:11.29	326.41	17.41	-39.4	-40.4	22.9	0.00e+00	0	39	0	1174405120	52	5966
2026-01-03 01:35:15.32	326.85	17.00	-39.8	-40.8	22.5	0.00e+00	0	39	0	1181745152	52	6269
2026-01-03 01:35:19.36	327.27	16.59	-39.5	-40.5	22.7	0.00e+00	0	39	0	1190133760	52	6066
2026-01-03 01:35:23.40	327.69	16.19	-39.5	-40.4	22.7	0.00e+00	85	39	0	1197473792	52	6033
2026-01-03 01:35:27.44	328.10	15.79	-39.2	-40.2	22.9	0.00e+00	0	39	0	1204813824	52	5843
2026-01-03 01:35:31.48	328.50	15.40	-39.6	-40.6	22.6	0.00e+00	0	39	0	1212153856	52	6128
2026-01-03 01:35:35.52	328.88	15.01	-40.2	-41.3	21.8	0.00e+00	0	39	0	1220542464	52	6666
2026-01-03 01:35:39.56	329.26	14.63	-40.8	-42.0	21.3	0.00e+00	81	39	0	1227882496	54	6428
2026-01-03 01:35:43.60	329.63	14.25	-40.7	-41.9	21.5	0.00e+00	0	39	0	1235222528	54	6348
2026-01-03 01:35:47.64	329.99	13.88	-40.6	-41.7	21.5	0.00e+00	0	39	0	1242562560	54	6224
2026-01-03 01:35:51.68	330.34	13.51	-40.1	-41.2	22.0	0.00e+00	86	39	0	1249902592	54	5867
2026-01-03 01:35:55.72	330.68	13.15	-40.0	-41.1	22.1	0.00e+00	0	39	0	1258291200	54	5772
2026-01-03 01:35:59.76	331.02	12.79	-40.0	-41.1	22.1	0.00e+00	0	39	0	1265631232	54	5782
2026-01-03 01:36:03.80	331.35	12.44	-39.8	-40.8	22.3	0.00e+00	0	39	0	1272971264	54	5616
2026-01-03 01:36:07.84	331.67	12.09	-39.7	-40.7	22.4	0.00e+00	84	39	0	1280311296	52	6222
2026-01-03 01:36:11.88	331.98	11.74	-39.8	-40.8	22.3	0.00e+00	0	39	0	1288699904	52	6311
2026-01-03 01:36:15.91	332.29	11.40	-40.0	-41.0	22.0	0.00e+00	0	39	0	1296039936	52	6418
2026-01-03 01:36:19.95	332.59	11.07	-40.4	-41.5	21.6	0.00e+00	0	39	0	1303379968	52	6814
2026-01-03 01:36:23.99	332.88	10.73	-40.6	-41.8	21.3	0.00e+00	76	39	0	1310720000	54	6265
2026-01-03 01:36:28.03	333.17	10.40	-41.1	-42.3	20.9	0.00e+00	0	39	0	1318060032	54	6671
2026-01-03 01:36:32.07	333.45	10.08	-41.3	-42.5	20.7	0.00e+00	0	39	0	1326448640	54	6800
2026-01-03 01:36:36.11	333.73	9.76	-41.4	-42.7	20.6	0.00e+00	4	39	0	1333788672	54	6953
2026-01-03 01:36:40.15	334.00	9.44	-41.4	-42.6	20.5	0.00e+00	92	39	0	1341128704	54	6902
2026-01-03 01:36:44.19	334.26	9.12	-41.3	-42.6	20.5	0.00e+00	33	39	0	1348468736	54	6880
2026-01-03 01:36:48.23	334.52	8.81	-41.6	-42.9	20.3	0.00e+00	0	39	0	1356857344	54	7143
2026-01-03 01:36:52.26	334.78	8.51	-41.5	-42.8	20.4	0.00e+00	81	39	0	1364197376	54	7065
2026-01-03 01:36:56.30	335.03	8.20	-41.6	-42.9	20.2	0.00e+00	0	39	0	1371537408	54	7155
2026-01-03 01:37:00.34	335.27	7.90	-42.0	-43.3	19.9	0.00e+00	0	39	0	1378877440	56	6689
2026-01-03 01:37:04.37	335.51	7.60	-42.0	-43.4	19.8	0.00e+00	0	39	0	1386217472	56	6744
2026-01-03 01:37:08.42	335.75	7.31	-42.2	-43.6	19.5	0.00e+00	87	39	0	1394606080	56	6876
2026-01-03 01:37:12.45	335.98	7.01	-42.5	-44.0	19.0	0.00e+00	0	39	0	1401946112	56	7250
2026-01-03 01:37:16.49	336.21	6.73	-42.7	-44.3	18.9	0.00e+00	0	39	0	1409286144	58	6688
2026-01-03 01:37:20.53	336.43	6.44	-42.9	-44.6	18.5	0.00e+00	73	39	0	1416626176	58	6899
2026-01-03 01:37:24.57	336.65	6.16	-42.8	-44.6	18.3	0.00e+00	72	39	0	1425014784	58	6907
2026-01-03 01:37:28.61	336.87	5.88	-43.2	-45.2	17.2	0.00e+00	0	39	0	1432354816	58	7360
2026-01-03 01:37:32.65	337.08	5.60	-43.6	-46.0	16.1	0.00e+00	0	39	0	1439694848	58	8107
2026-01-03 01:37:36.69	337.29	5.32	-44.2	-47.4	14.2	1.50e-06	68	39	0	1447034880	60	8478
2026-01-03 01:37:40.73	337.49	5.05	-44.5	-48.6	12.2	1.20e-04	0	39	0	1454374912	60	9729
2026-01-03 01:37:44.77	337.69	4.78	-44.9	-50.0	10.1	5.85e-03	0	39	0	1462763520	60	11484
2026-01-03 01:37:48.81	337.89	4.51	-45.3	-52.3	7.3	6.44e-02	0	39	0	1470103552	60	14822
2026-01-03 01:37:52.85	338.09	4.25	-45.5	-54.2	4.8	4.98e-01	81	39	0	1477443584	60	18538
2026-01-03 01:37:56.88	338.28	3.98	-45.4	-58.2	3.6	1.48e+00	0	39	104	1481637888	60	29363
2026-01-03 01:38:00.92	338.47	3.72	-45.2	-59.7	3.6	1.51e+00	0	39	104	1481637888	60	34885
2026-01-03 01:38:04.96	338.65	3.47	-45.3	-60.5	3.6	1.51e+00	0	39	104	1481637888	60	38504
2026-01-03 01:38:09.00	338.83	3.21	-45.4	-60.7	3.6	1.51e+00	0	39	104	1481637888	60	39054
2026-01-03 01:38:13.04	339.01	2.95	-46.4	-61.7	3.6	1.51e+00	0	39	104	1481637888	60	44159
2026-01-03 01:38:17.08	339.19	2.70	-50.1	-65.3	3.6	1.51e+00	0	39	104	1481637888	60	66216
2026-01-03 01:38:21.12	339.37	2.45	-50.3	-65.5	3.6	1.51e+00	0	39	104	1481637888	60	67784
2026-01-03 01:38:25.16	339.54	2.21	-50.1	-65.3	3.6	1.51e+00	0	39	104	1481637888	60	66805
2026-01-03 01:38:29.20	339.71	1.96	-50.1	-65.4	3.6	1.51e+00	0	39	104	1481637888	60	67212
2026-01-03 01:38:33.25	339.88	1.71	-50.1	-65.4	3.6	1.51e+00	0	39	104	1481637888	60	67121
2026-01-03 01:38:37.29	340.04	1.47	-50.2	-65.4	3.6	1.51e+00	0	39	104	1481637888	60	67234
2026-01-03 01:38:41.33	340.20	1.23	-50.2	-65.4	3.6	1.51e+00	0	39	104	1481637888	60	67449
2026-01-03 01:38:45.37	340.36	0.99	-50.2	-65.4	3.6	1.51e+00	0	39	104	1481637888	60	67132
2026-01-03 01:38:49.41	340.52	0.76	-50.2	-65.4	3.6	1.51e+00	0	39	104	1481637888	60	67236
2026-01-03 01:38:53.44	340.68	0.52	-50.1	-65.4	3.6	1.51e+00	0	39	104	1481637888	60	67135
2026-01-03 01:38:57.48	340.83	0.29	-50.1	-65.3	3.6	1.51e+00	0	39	104	1481637888	60	66650
2026-01-03 01:39:01.52	340.98	0.06	-50.2	-65.4	3.6	1.51e+00	0	39	104	1481637888	60	66930

#Closed at: 2026-01-03 01:39:02
#Recorded file [1481 MB]: D:/lorett/data/35029_260103_132352.dat