passes_logs/2026/01/03/R4.6S_Anadyr/R4.6S_Anadyr__20260103_091040_TY-42_rec.log

#Pass ID: 20260103_091040_TY-42
#Satellite: TY-42
#Configuration: TY-42_900M
#almurnet v.1.7.20251203
#Start time: 2026-01-03 09:11:13

#Version: 2.2.20231116
#Station: R4.6S_Anadyr
#Location: 177.4865 lon 64.73178 lat
#TLE: 1 64048U 25103A   26003.26844907  .00008006  00000-0  38191-3 0 09993
#TLE: 2 64048 097.4108 078.9075 0001627 094.5447 046.7649 15.19153010 35031

#Time	Az	El	Level	Level2	SNR	BER	BlckErr	Temp	State	Recorded	gain1	gain2
2026-01-03 09:11:13.24	152.84	2.17	-50.5	-62.1	3.5	8.45e-01	0	36	0	0	60	46062
2026-01-03 09:11:16.27	152.81	2.38	-49.0	-51.5	6.1	0.00e+00	0	38	104	0	60	45859
2026-01-03 09:11:19.29	152.78	2.60	-49.0	-51.5	6.1	0.00e+00	0	39	104	0	60	45824
2026-01-03 09:11:22.32	152.75	2.82	-48.9	-51.4	6.1	0.00e+00	0	39	104	0	60	45315
2026-01-03 09:11:25.35	152.72	3.04	-49.0	-51.4	6.1	0.00e+00	0	39	104	0	60	45692
2026-01-03 09:11:28.38	152.69	3.26	-49.0	-51.5	6.1	0.00e+00	0	39	104	0	60	45856
2026-01-03 09:11:31.41	152.65	3.49	-49.0	-51.5	6.1	0.00e+00	0	39	104	0	60	46167
2026-01-03 09:11:34.44	152.62	3.72	-49.1	-51.6	6.1	0.00e+00	0	39	104	0	60	46482
2026-01-03 09:11:37.47	152.58	3.95	-49.1	-51.6	6.1	0.00e+00	0	39	104	0	60	46790
2026-01-03 09:11:40.50	152.55	4.18	-49.0	-51.4	6.1	0.00e+00	0	39	104	0	60	45629
2026-01-03 09:11:43.52	152.51	4.42	-49.1	-51.6	6.1	0.00e+00	0	39	104	0	60	46299
2026-01-03 09:11:46.54	152.47	4.66	-49.2	-51.7	6.0	0.00e+00	0	39	104	0	60	47372
2026-01-03 09:11:49.57	152.43	4.90	-49.2	-51.7	6.1	0.00e+00	0	39	104	0	60	47007
2026-01-03 09:11:52.60	152.39	5.14	-49.2	-51.6	6.1	0.00e+00	0	40	104	0	60	46827
2026-01-03 09:11:55.63	152.35	5.39	-49.2	-51.6	6.1	0.00e+00	0	40	104	0	60	46801
2026-01-03 09:11:58.66	152.30	5.64	-40.0	-40.5	10.2	0.00e+00	0	40	104	0	60	12906
2026-01-03 09:12:01.69	152.26	5.90	-38.6	-39.0	10.8	1.31e-01	3799	40	0	243269632	52	17302
2026-01-03 09:12:04.72	152.21	6.16	-36.7	-37.1	12.6	0.00e+00	0	40	0	478150656	44	22136
2026-01-03 09:12:07.74	152.17	6.42	-38.4	-38.8	10.9	1.59e-01	5511	40	0	813694976	50	18869
2026-01-03 09:12:10.77	152.12	6.68	-34.7	-35.2	13.2	1.38e-01	0	40	0	1157627904	44	17715
2026-01-03 09:12:13.79	152.07	6.95	-34.0	-34.5	14.3	5.81e-02	0	40	0	1493172224	42	18291
2026-01-03 09:12:16.82	152.02	7.22	-34.8	-35.2	13.2	4.69e-02	0	40	0	1837105152	44	17740
2026-01-03 09:12:19.85	151.97	7.50	-35.6	-36.1	12.7	4.22e-02	0	41	0	2172649472	44	19567
2026-01-03 09:12:22.87	151.92	7.77	-35.0	-35.4	13.0	5.04e-02	0	41	0	2516582400	44	18104
2026-01-03 09:12:25.90	151.86	8.06	-37.7	-37.8	11.9	4.82e-02	5272	41	0	2852126720	60	9483
2026-01-03 09:12:28.92	151.80	8.35	-34.9	-35.4	13.6	8.00e-02	0	41	0	3187671040	42	20316
2026-01-03 09:12:31.95	151.75	8.64	-32.7	-33.2	14.5	3.52e-02	0	41	0	3531603968	40	17611
2026-01-03 09:12:34.98	151.69	8.94	-33.5	-34.0	14.1	1.30e-02	0	41	0	3875536896	38	21760
2026-01-03 09:12:38.01	151.63	9.24	-29.8	-30.3	15.6	1.51e-02	0	41	0	4211081216	36	15913
2026-01-03 09:12:41.04	151.56	9.54	-30.1	-30.6	15.6	1.86e-03	0	41	0	4555014144	34	18475
2026-01-03 09:12:44.07	151.50	9.86	-28.5	-29.0	16.0	9.97e-04	0	41	0	4898947072	32	17237
2026-01-03 09:12:47.10	151.43	10.17	-28.4	-28.9	16.0	2.51e-04	0	41	0	5234491392	32	17176
2026-01-03 09:12:50.12	151.36	10.49	-28.2	-28.6	16.1	2.51e-04	0	41	0	5578424320	32	16611
2026-01-03 09:12:53.15	151.29	10.82	-28.1	-28.6	16.1	4.74e-04	0	41	0	5913968640	32	16451
2026-01-03 09:12:56.18	151.21	11.16	-28.0	-28.5	16.1	2.18e-04	0	41	0	6257901568	32	16368
2026-01-03 09:12:59.21	151.14	11.50	-27.7	-28.2	16.2	8.17e-05	0	41	0	6601834496	30	17743
2026-01-03 09:13:02.24	151.06	11.84	-27.4	-27.9	16.2	7.08e-05	0	41	0	6937378816	30	17048
2026-01-03 09:13:05.27	150.98	12.20	-27.4	-27.8	16.3	6.53e-05	0	41	0	7281311744	30	16982
2026-01-03 09:13:08.29	150.89	12.55	-27.5	-28.0	16.3	4.90e-05	0	41	0	7616856064	30	17307
2026-01-03 09:13:11.32	150.81	12.92	-27.2	-27.7	16.3	1.63e-05	0	41	0	7960788992	30	16645
2026-01-03 09:13:14.35	150.72	13.29	-27.0	-27.5	16.4	5.40e-06	0	41	0	8296333312	30	16269
2026-01-03 09:13:17.38	150.63	13.68	-26.6	-27.1	16.4	1.63e-05	0	41	0	8640266240	28	17575
2026-01-03 09:13:20.40	150.53	14.06	-26.7	-27.2	16.4	1.08e-05	0	41	0	8984199168	28	17785
2026-01-03 09:13:23.43	150.43	14.46	-26.3	-26.8	16.4	3.26e-05	0	42	0	9319743488	28	16932
2026-01-03 09:13:26.46	150.33	14.87	-26.0	-26.5	16.5	2.72e-05	0	42	0	9663676416	28	16329
2026-01-03 09:13:29.49	150.22	15.28	-26.0	-26.5	16.5	0.00e+00	0	42	0	9999220736	28	16305
2026-01-03 09:13:32.52	150.11	15.71	-25.8	-26.3	16.5	1.63e-05	0	42	0	10343153664	28	15988
2026-01-03 09:13:35.55	150.00	16.14	-25.6	-26.1	16.6	1.08e-05	0	42	0	10687086592	26	17469
2026-01-03 09:13:38.57	149.88	16.58	-25.6	-26.1	16.6	5.40e-06	0	42	0	11031019520	26	17450
2026-01-03 09:13:41.60	149.75	17.04	-25.5	-26.0	16.6	5.40e-06	0	42	0	11366563840	26	17278
2026-01-03 09:13:44.63	149.63	17.50	-25.3	-25.8	16.6	5.40e-06	0	42	0	11710496768	26	16982
2026-01-03 09:13:47.66	149.49	17.98	-25.4	-25.9	16.6	1.08e-05	0	42	0	12054429696	26	17051
2026-01-03 09:13:50.69	149.35	18.46	-25.3	-25.7	16.6	1.08e-05	0	42	0	12389974016	26	16796
2026-01-03 09:13:53.71	149.21	18.96	-25.1	-25.6	16.7	0.00e+00	0	42	0	12733906944	26	16443
2026-01-03 09:13:56.74	149.06	19.48	-24.9	-25.4	16.6	0.00e+00	0	42	0	13069451264	24	18138
2026-01-03 09:13:59.76	148.90	20.00	-24.6	-25.1	16.7	0.00e+00	0	42	0	13413384192	24	17581
2026-01-03 09:14:02.79	148.74	20.54	-24.7	-25.2	16.7	0.00e+00	0	42	0	13748928512	24	17609
2026-01-03 09:14:05.82	148.57	21.10	-23.6	-24.1	16.7	0.00e+00	0	42	0	14092861440	22	17464
2026-01-03 09:14:08.85	148.39	21.67	-23.4	-23.9	16.8	0.00e+00	0	42	0	14428405760	22	17130
2026-01-03 09:14:11.87	148.21	22.25	-23.2	-23.7	16.8	0.00e+00	0	42	0	14772338688	22	16687
2026-01-03 09:14:14.90	148.01	22.85	-22.9	-23.4	16.9	0.00e+00	0	42	0	15107883008	22	16098
2026-01-03 09:14:17.92	147.81	23.47	-22.6	-23.1	16.9	0.00e+00	0	42	0	15451815936	20	17557
2026-01-03 09:14:20.95	147.59	24.11	-22.6	-23.1	16.9	0.00e+00	0	42	0	15787360256	20	17583
2026-01-03 09:14:23.98	147.37	24.77	-22.5	-23.0	17.0	0.00e+00	0	42	0	16131293184	20	17303
2026-01-03 09:14:27.00	147.14	25.45	-21.9	-22.4	17.1	0.00e+00	0	42	0	16475226112	20	16094
2026-01-03 09:14:30.03	146.89	26.14	-22.8	-23.4	17.1	0.00e+00	0	42	0	16819159040	18	20250
2026-01-03 09:14:33.06	146.63	26.87	-21.4	-21.9	17.2	0.00e+00	0	42	0	17154703360	18	17104
2026-01-03 09:14:36.09	146.35	27.61	-21.5	-22.0	17.3	0.00e+00	0	42	0	17498636288	18	17390
2026-01-03 09:14:39.11	146.06	28.38	-20.8	-21.3	17.3	0.00e+00	0	42	0	17842569216	16	17868
2026-01-03 09:14:42.14	145.76	29.17	-20.4	-20.9	17.4	0.00e+00	0	42	0	18178113536	16	17102
2026-01-03 09:14:45.17	145.44	29.99	-20.1	-20.6	17.5	0.00e+00	0	42	0	18522046464	16	16565
2026-01-03 09:14:48.19	145.09	30.83	-19.8	-20.3	17.4	0.00e+00	0	42	0	18857590784	16	15925
2026-01-03 09:14:51.22	144.73	31.71	-19.1	-19.6	17.5	0.00e+00	0	42	0	19201523712	14	16516
2026-01-03 09:14:54.25	144.35	32.62	-19.1	-19.6	17.6	0.00e+00	0	42	0	19537068032	14	16562
2026-01-03 09:14:57.27	143.94	33.55	-19.0	-19.5	17.6	0.00e+00	0	42	0	19881000960	12	18336
2026-01-03 09:15:00.30	143.50	34.52	-18.1	-18.6	17.6	0.00e+00	0	42	0	20224933888	12	16590
2026-01-03 09:15:03.33	143.03	35.53	-17.9	-18.4	17.7	0.00e+00	0	42	0	20560478208	12	16115
2026-01-03 09:15:06.36	142.53	36.57	-18.0	-18.4	17.7	0.00e+00	0	42	0	20904411136	12	16203
2026-01-03 09:15:09.39	142.00	37.65	-17.7	-18.2	17.8	0.00e+00	0	42	0	21239955456	10	17604
2026-01-03 09:15:12.41	141.42	38.76	-17.1	-17.5	17.8	0.00e+00	0	42	0	21583888384	10	16423
2026-01-03 09:15:15.43	140.80	39.91	-17.0	-17.5	17.8	0.00e+00	0	42	0	21919432704	10	16271
2026-01-03 09:15:18.46	140.13	41.10	-16.4	-16.8	17.8	0.00e+00	0	42	0	22263365632	8	16943
2026-01-03 09:15:21.48	139.41	42.34	-16.0	-16.4	17.8	0.00e+00	0	42	0	22607298560	8	16223
2026-01-03 09:15:24.52	138.62	43.62	-16.3	-16.7	17.8	0.00e+00	0	42	0	22942842880	8	16708
2026-01-03 09:15:27.54	137.77	44.94	-16.2	-16.6	17.8	0.00e+00	0	42	0	23286775808	8	16462
2026-01-03 09:15:30.57	136.83	46.30	-15.6	-16.0	17.9	0.00e+00	0	42	0	23630708736	6	17391
2026-01-03 09:15:33.60	135.81	47.71	-16.4	-16.8	17.8	0.00e+00	0	42	0	23966253056	6	19025
2026-01-03 09:15:36.63	134.68	49.16	-14.8	-15.2	17.9	0.00e+00	0	42	0	24310185984	6	15768
2026-01-03 09:15:39.66	133.43	50.65	-15.0	-15.4	17.9	0.00e+00	0	42	0	24654118912	6	16166
2026-01-03 09:15:42.69	132.05	52.18	-15.2	-15.6	18.0	0.00e+00	0	42	0	24989663232	4	18510
2026-01-03 09:15:45.71	130.51	53.73	-14.3	-14.6	18.0	0.00e+00	0	42	0	25333596160	4	16611
2026-01-03 09:15:48.74	128.79	55.33	-14.3	-14.7	18.0	0.00e+00	0	42	0	25669140480	4	16664
2026-01-03 09:15:51.76	126.87	56.94	-15.4	-15.8	18.0	0.00e+00	0	42	0	26013073408	4	18970
2026-01-03 09:15:54.79	124.69	58.57	-13.9	-14.3	18.1	0.00e+00	0	42	0	26348617728	4	15912
2026-01-03 09:15:57.82	122.22	60.21	-14.1	-14.5	18.1	0.00e+00	0	42	0	26692550656	4	16329
2026-01-03 09:16:00.84	119.41	61.84	-14.4	-14.8	18.1	0.00e+00	0	42	0	27028094976	2	19056
2026-01-03 09:16:03.87	116.20	63.44	-14.0	-14.4	18.1	0.00e+00	0	42	0	27372027904	2	18168
2026-01-03 09:16:06.90	112.51	65.00	-14.4	-14.8	18.1	0.00e+00	0	42	0	27707572224	2	18919
2026-01-03 09:16:09.93	108.29	66.48	-14.3	-14.7	18.1	0.00e+00	0	42	0	28051505152	2	18746
2026-01-03 09:16:12.96	103.46	67.86	-13.6	-14.0	18.1	0.00e+00	0	42	0	28395438080	2	17260
2026-01-03 09:16:15.98	97.97	69.09	-13.5	-13.9	18.1	0.00e+00	0	42	0	28730982400	2	17055
2026-01-03 09:16:19.01	91.78	70.14	-13.1	-13.5	18.1	0.00e+00	0	42	0	29074915328	2	16249
2026-01-03 09:16:22.04	84.93	70.96	-13.3	-13.7	18.1	0.00e+00	0	42	0	29418848256	2	16744
2026-01-03 09:16:25.06	77.57	71.50	-12.4	-12.8	18.2	0.00e+00	0	42	0	29754392576	46	18053
2026-01-03 09:16:28.08	69.86	71.74	-12.4	-12.7	18.2	0.00e+00	0	42	0	30098325504	46	17978
2026-01-03 09:16:31.11	62.05	71.67	-50.6	-53.0	6.1	0.00e+00	0	42	104	30232543232	60	54756
2026-01-03 09:16:34.14	54.46	71.28	-50.6	-53.1	6.1	0.00e+00	0	42	104	30232543232	60	55364
2026-01-03 09:16:37.17	47.31	70.60	-50.7	-53.2	6.0	0.00e+00	0	42	104	30232543232	60	55979
2026-01-03 09:16:40.19	40.79	69.67	-50.8	-53.2	6.1	0.00e+00	0	42	104	30232543232	60	55798
2026-01-03 09:16:43.22	34.94	68.53	-50.7	-53.1	6.1	0.00e+00	0	42	104	30232543232	60	55621
2026-01-03 09:16:46.25	29.77	67.22	-50.7	-53.2	6.1	0.00e+00	0	42	104	30232543232	60	55705
2026-01-03 09:16:49.28	25.24	65.79	-50.6	-53.1	6.1	0.00e+00	0	42	104	30232543232	60	55054
2026-01-03 09:16:52.31	21.28	64.27	-50.4	-52.9	6.1	0.00e+00	0	42	104	30232543232	60	53941
2026-01-03 09:16:55.34	17.84	62.69	-50.5	-52.9	6.1	0.00e+00	0	42	104	30232543232	60	54391
2026-01-03 09:16:58.37	14.83	61.07	-50.4	-52.9	6.1	0.00e+00	0	42	104	30232543232	60	54076
2026-01-03 09:17:01.38	12.20	59.45	-50.4	-52.9	6.1	0.00e+00	0	42	104	30232543232	60	53806
2026-01-03 09:17:04.40	9.89	57.82	-50.3	-52.8	6.1	0.00e+00	0	42	104	30232543232	60	53385
2026-01-03 09:17:07.43	7.83	56.20	-50.3	-52.8	6.1	0.00e+00	0	42	104	30232543232	60	53450
2026-01-03 09:17:10.46	6.01	54.60	-50.2	-52.7	6.1	0.00e+00	0	42	104	30232543232	60	52950
2026-01-03 09:17:13.49	4.38	53.03	-50.2	-52.7	6.1	0.00e+00	0	42	104	30232543232	60	52908
2026-01-03 09:17:16.52	2.92	51.48	-50.3	-52.7	6.1	0.00e+00	0	42	104	30232543232	60	53038
2026-01-03 09:17:19.54	1.61	49.98	-50.3	-52.8	6.1	0.00e+00	0	41	104	30232543232	60	53284
2026-01-03 09:17:22.57	0.42	48.52	-50.4	-52.9	6.1	0.00e+00	0	41	104	30232543232	60	53783
2026-01-03 09:17:25.60	359.34	47.09	-50.3	-52.8	6.1	0.00e+00	0	42	104	30232543232	60	53277
2026-01-03 09:17:28.63	358.36	45.71	-50.4	-52.9	6.1	0.00e+00	0	42	104	30232543232	60	54241
2026-01-03 09:17:31.65	357.47	44.37	-50.4	-52.9	6.1	0.00e+00	0	41	104	30232543232	60	54092
2026-01-03 09:17:34.68	356.65	43.08	-50.3	-52.7	6.1	0.00e+00	0	42	104	30232543232	60	52857
2026-01-03 09:17:37.71	355.89	41.82	-50.2	-52.7	6.1	0.00e+00	0	42	104	30232543232	60	53063
2026-01-03 09:17:40.74	355.20	40.61	-50.3	-52.8	6.1	0.00e+00	0	42	104	30232543232	60	53407
2026-01-03 09:17:43.76	354.55	39.44	-50.4	-52.8	6.1	0.00e+00	0	41	104	30232543232	60	53664
2026-01-03 09:17:46.79	353.96	38.31	-50.4	-52.9	6.1	0.00e+00	0	42	104	30232543232	60	54244
2026-01-03 09:17:49.82	353.40	37.21	-50.5	-52.9	6.1	0.00e+00	0	42	104	30232543232	60	53958
2026-01-03 09:17:52.85	352.88	36.16	-50.3	-52.8	6.1	0.00e+00	0	42	104	30232543232	60	53200
2026-01-03 09:17:55.88	352.40	35.14	-50.4	-52.9	6.1	0.00e+00	0	42	104	30232543232	60	53877
2026-01-03 09:17:58.90	351.95	34.16	-50.3	-52.7	6.1	0.00e+00	0	41	104	30232543232	60	53154
2026-01-03 09:18:01.93	351.53	33.20	-50.3	-52.8	6.1	0.00e+00	0	42	104	30232543232	60	53538
2026-01-03 09:18:04.95	351.13	32.29	-50.3	-52.7	6.1	0.00e+00	0	42	104	30232543232	60	53149
2026-01-03 09:18:07.98	350.76	31.40	-50.3	-52.8	6.1	0.00e+00	0	42	104	30232543232	60	53701
2026-01-03 09:18:11.01	350.40	30.54	-50.2	-52.6	6.1	0.00e+00	0	41	104	30232543232	60	52416
2026-01-03 09:18:14.03	350.07	29.71	-50.4	-52.8	6.1	0.00e+00	0	42	104	30232543232	60	53487
2026-01-03 09:18:17.06	349.76	28.90	-50.5	-53.0	6.1	0.00e+00	0	41	104	30232543232	60	54946
2026-01-03 09:18:20.09	349.46	28.12	-50.3	-52.8	6.1	0.00e+00	0	42	104	30232543232	60	53589
2026-01-03 09:18:23.12	349.18	27.37	-50.2	-52.7	6.0	0.00e+00	0	41	104	30232543232	60	52583
2026-01-03 09:18:26.15	348.91	26.64	-50.3	-52.7	6.1	0.00e+00	0	41	104	30232543232	60	52875
2026-01-03 09:18:29.18	348.66	25.93	-50.3	-52.8	6.1	0.00e+00	0	42	104	30232543232	60	53293
2026-01-03 09:18:32.20	348.42	25.24	-50.2	-52.7	6.1	0.00e+00	0	42	104	30232543232	60	52683
2026-01-03 09:18:35.23	348.19	24.58	-50.4	-52.8	6.1	0.00e+00	0	41	104	30232543232	60	53349
2026-01-03 09:18:38.26	347.97	23.93	-50.4	-53.0	6.1	0.00e+00	0	41	104	30232543232	60	54448
2026-01-03 09:18:41.29	347.77	23.30	-50.3	-52.8	6.1	0.00e+00	0	42	104	30232543232	60	53690
2026-01-03 09:18:44.32	347.57	22.69	-50.6	-53.0	6.1	0.00e+00	0	42	104	30232543232	60	54798
2026-01-03 09:18:47.35	347.38	22.10	-50.1	-52.6	6.1	0.00e+00	0	41	104	30232543232	60	52243
2026-01-03 09:18:50.37	347.20	21.52	-50.5	-53.0	6.1	0.00e+00	0	41	104	30232543232	60	54658
2026-01-03 09:18:53.40	347.03	20.96	-50.1	-52.6	6.1	0.00e+00	0	41	104	30232543232	60	52262
2026-01-03 09:18:56.42	346.86	20.41	-50.2	-52.7	6.1	0.00e+00	0	41	104	30232543232	60	52801
2026-01-03 09:18:59.45	346.70	19.88	-50.3	-52.8	6.1	0.00e+00	0	42	104	30232543232	60	53504
2026-01-03 09:19:02.47	346.55	19.37	-50.3	-52.8	6.1	0.00e+00	0	42	104	30232543232	60	53269
2026-01-03 09:19:05.50	346.40	18.86	-50.1	-52.6	6.1	0.00e+00	0	42	104	30232543232	60	52168
2026-01-03 09:19:08.53	346.26	18.37	-50.2	-52.7	6.1	0.00e+00	0	42	104	30232543232	60	52553
2026-01-03 09:19:11.56	346.13	17.89	-49.9	-52.4	6.1	0.00e+00	0	41	104	30232543232	60	51039
2026-01-03 09:19:14.59	346.00	17.42	-50.0	-52.5	6.1	0.00e+00	0	42	104	30232543232	60	51881
2026-01-03 09:19:17.61	345.87	16.96	-50.0	-52.4	6.1	0.00e+00	0	41	104	30232543232	60	51184
2026-01-03 09:19:20.64	345.75	16.51	-50.0	-52.4	6.1	0.00e+00	0	42	104	30232543232	60	51265
2026-01-03 09:19:23.67	345.64	16.07	-50.1	-52.6	6.1	0.00e+00	0	42	104	30232543232	60	52421
2026-01-03 09:19:26.70	345.53	15.65	-50.1	-52.5	6.1	0.00e+00	0	42	104	30232543232	60	51871
2026-01-03 09:19:29.73	345.42	15.23	-49.9	-52.4	6.1	0.00e+00	0	41	104	30232543232	60	50814
2026-01-03 09:19:32.76	345.32	14.82	-49.8	-52.3	6.1	0.00e+00	0	41	104	30232543232	60	50432
2026-01-03 09:19:35.78	345.22	14.42	-49.9	-52.4	6.1	0.00e+00	0	41	104	30232543232	60	50922
2026-01-03 09:19:38.81	345.12	14.03	-50.1	-52.5	6.1	0.00e+00	0	41	104	30232543232	60	51846
2026-01-03 09:19:41.84	345.03	13.64	-50.1	-52.6	6.1	0.00e+00	0	42	104	30232543232	60	52043
2026-01-03 09:19:44.87	344.94	13.26	-50.0	-52.5	6.1	0.00e+00	0	41	104	30232543232	60	51733
2026-01-03 09:19:47.90	344.85	12.89	-50.1	-52.5	6.1	0.00e+00	0	41	104	30232543232	60	51913
2026-01-03 09:19:50.92	344.77	12.53	-50.0	-52.4	6.1	0.00e+00	0	41	104	30232543232	60	51144
2026-01-03 09:19:53.95	344.69	12.18	-50.0	-52.5	6.1	0.00e+00	0	41	104	30232543232	60	51839
2026-01-03 09:19:56.98	344.61	11.83	-50.2	-52.7	6.1	0.00e+00	0	41	104	30232543232	60	52758
2026-01-03 09:20:00.00	344.53	11.49	-50.1	-52.6	6.1	0.00e+00	0	41	104	30232543232	60	52071
2026-01-03 09:20:03.03	344.46	11.15	-50.2	-52.6	6.1	0.00e+00	0	41	104	30232543232	60	52541
2026-01-03 09:20:06.06	344.39	10.82	-50.1	-52.6	6.1	0.00e+00	0	41	104	30232543232	60	52149
2026-01-03 09:20:09.08	344.32	10.50	-50.2	-52.6	6.1	0.00e+00	0	41	104	30232543232	60	52138
2026-01-03 09:20:12.11	344.25	10.18	-50.1	-52.6	6.1	0.00e+00	0	41	104	30232543232	60	52325
2026-01-03 09:20:15.14	344.19	9.86	-50.3	-52.7	6.1	0.00e+00	0	42	104	30232543232	60	52942
2026-01-03 09:20:18.16	344.13	9.55	-50.4	-52.9	6.1	0.00e+00	0	41	104	30232543232	60	54134
2026-01-03 09:20:21.19	344.06	9.25	-50.3	-52.7	6.1	0.00e+00	0	42	104	30232543232	60	53003
2026-01-03 09:20:24.22	344.01	8.95	-50.3	-52.7	6.1	0.00e+00	0	41	104	30232543232	60	53007
2026-01-03 09:20:27.24	343.95	8.66	-49.9	-52.4	6.1	0.00e+00	0	42	104	30232543232	60	51172
2026-01-03 09:20:30.27	343.89	8.37	-49.9	-52.4	6.1	0.00e+00	0	41	104	30232543232	60	51174
2026-01-03 09:20:33.29	343.84	8.08	-50.0	-52.5	6.1	0.00e+00	0	42	104	30232543232	60	51401
2026-01-03 09:20:36.32	343.79	7.80	-50.0	-52.5	6.1	0.00e+00	0	42	104	30232543232	60	51382
2026-01-03 09:20:39.34	343.74	7.52	-49.8	-52.2	6.1	0.00e+00	0	41	104	30232543232	60	49863
2026-01-03 09:20:42.37	343.69	7.25	-49.7	-52.2	6.1	0.00e+00	0	42	104	30232543232	60	49989
2026-01-03 09:20:45.39	343.64	6.98	-49.5	-52.0	6.1	0.00e+00	0	41	104	30232543232	60	48749
2026-01-03 09:20:48.42	343.59	6.72	-49.3	-51.8	6.1	0.00e+00	0	42	104	30232543232	60	47748
2026-01-03 09:20:51.45	343.55	6.45	-48.5	-51.0	6.1	0.00e+00	0	41	104	30232543232	60	43707
2026-01-03 09:20:54.47	343.50	6.20	-48.3	-50.7	6.1	0.00e+00	0	41	104	30232543232	60	42152
2026-01-03 09:20:57.50	343.46	5.94	-47.5	-50.0	6.1	0.00e+00	0	42	104	30232543232	60	38628
2026-01-03 09:21:00.53	343.42	5.69	-46.9	-49.4	6.1	0.00e+00	0	42	104	30232543232	60	36154
2026-01-03 09:21:03.55	343.38	5.44	-47.2	-49.7	6.1	0.00e+00	0	41	104	30232543232	60	37483
2026-01-03 09:21:06.58	343.34	5.19	-46.8	-49.2	6.1	0.00e+00	0	42	104	30232543232	60	35344
2026-01-03 09:21:09.61	343.30	4.95	-46.4	-48.9	6.1	0.00e+00	0	41	104	30232543232	60	33968
2026-01-03 09:21:12.63	343.27	4.71	-46.8	-49.3	6.1	0.00e+00	0	42	104	30232543232	60	35600
2026-01-03 09:21:15.65	343.23	4.47	-46.2	-48.6	6.1	0.00e+00	0	42	104	30232543232	60	33130
2026-01-03 09:21:18.67	343.19	4.24	-46.0	-48.4	6.1	0.00e+00	0	42	104	30232543232	60	32351
2026-01-03 09:21:21.70	343.16	4.01	-45.9	-48.4	6.1	0.00e+00	0	42	104	30232543232	60	32230
2026-01-03 09:21:24.72	343.13	3.78	-45.7	-48.2	6.1	0.00e+00	0	41	104	30232543232	60	31593
2026-01-03 09:21:27.75	343.10	3.55	-45.8	-48.3	6.1	0.00e+00	0	42	104	30232543232	60	31908
2026-01-03 09:21:30.78	343.06	3.33	-46.1	-48.5	6.1	0.00e+00	0	42	104	30232543232	60	32670
2026-01-03 09:21:33.80	343.03	3.10	-46.0	-48.5	6.1	0.00e+00	0	42	104	30232543232	60	32551
2026-01-03 09:21:36.83	343.00	2.88	-49.7	-52.2	6.1	0.00e+00	0	42	104	30232543232	60	49805
2026-01-03 09:21:39.86	342.97	2.67	-50.2	-52.7	6.1	0.00e+00	0	42	104	30232543232	60	52917
2026-01-03 09:21:42.89	342.95	2.45	-50.6	-53.1	6.1	0.00e+00	0	42	104	30232543232	60	55443
2026-01-03 09:21:45.92	342.92	2.24	-50.6	-53.0	6.1	0.00e+00	0	42	104	30232543232	60	54967
2026-01-03 09:21:48.95	342.89	2.03	-50.2	-52.7	6.1	0.00e+00	0	42	104	30232543232	60	53035
2026-01-03 09:21:51.98	342.87	1.82	-50.5	-53.0	6.1	0.00e+00	0	42	104	30232543232	60	54412
2026-01-03 09:21:55.01	342.84	1.61	-50.6	-53.1	6.1	0.00e+00	0	42	104	30232543232	60	55309
2026-01-03 09:21:58.04	342.82	1.40	-50.6	-53.0	6.1	0.00e+00	0	42	104	30232543232	60	54914
2026-01-03 09:22:01.07	342.79	1.20	-50.6	-53.1	6.1	0.00e+00	0	42	104	30232543232	60	55200
2026-01-03 09:22:04.10	342.77	1.00	-50.5	-53.0	6.1	0.00e+00	0	42	104	30232543232	60	54618
2026-01-03 09:22:07.13	342.75	0.80	-50.7	-53.2	6.1	0.00e+00	0	42	104	30232543232	60	56068
2026-01-03 09:22:10.15	342.72	0.60	-50.4	-52.9	6.0	0.00e+00	0	42	104	30232543232	60	54352
2026-01-03 09:22:13.18	342.70	0.40	-50.9	-53.4	6.1	0.00e+00	0	42	104	30232543232	60	57127
2026-01-03 09:22:16.21	342.68	0.21	-51.0	-53.4	6.1	0.00e+00	0	41	104	30232543232	60	57205
2026-01-03 09:22:19.24	342.66	0.02	-51.0	-53.5	6.1	0.00e+00	0	42	104	30232543232	60	58050
2026-01-03 09:22:22.27	342.64	-0.18	-50.9	-53.3	6.1	0.00e+00	0	42	104	30232543232	60	56615

#Closed at: 2026-01-03 09:22:22
#Recorded file [30232 MB]: D:/lorett/data/35029_260103_211113.dat