passes_logs/2026/01/03/R4.6S_Anadyr/R4.6S_Anadyr__20260103_030657_SUOMI_NPP_rec.log

#Pass ID: 20260103_030657_SUOMI NPP
#Satellite: SUOMI NPP
#Configuration: NPP
#almurnet v.1.7.20251203
#Start time: 2026-01-03 03:06:59

#Version: 2.2.20231116
#Station: R4.6S_Anadyr
#Location: 177.4865 lon 64.73178 lat
#TLE: 1 37849U 11061A   26001.07732418  .00000182  00000+0  10735-3 0  9990
#TLE: 2 37849  98.7795 303.2470 0002580  87.2016 272.9455 14.19520779734739

#Time	Az	El	Level	Level2	SNR	BER	BlckErr	Temp	State	Recorded	gain1	gain2
2026-01-03 03:06:59.20	231.93	0.07	-49.7	-61.4	3.5	8.45e-01	0	36	0	0	60	42613
2026-01-03 03:07:02.23	232.19	0.20	-50.0	-65.2	3.6	1.51e+00	0	38	104	0	60	66083
2026-01-03 03:07:05.25	232.46	0.34	-49.9	-65.2	3.6	1.51e+00	0	38	104	0	60	65913
2026-01-03 03:07:08.29	232.73	0.48	-49.8	-65.2	3.6	1.51e+00	0	38	104	0	60	65438
2026-01-03 03:07:11.31	232.99	0.61	-49.9	-65.1	3.6	1.51e+00	0	38	104	0	60	64882
2026-01-03 03:07:14.34	233.27	0.75	-49.0	-64.2	3.6	1.51e+00	0	38	104	0	60	58416
2026-01-03 03:07:17.37	233.54	0.88	-47.6	-62.8	3.6	1.51e+00	0	38	104	0	60	49971
2026-01-03 03:07:20.40	233.81	1.02	-47.6	-62.8	3.6	1.51e+00	0	38	104	0	60	49767
2026-01-03 03:07:23.43	234.09	1.16	-47.6	-62.8	3.6	1.51e+00	0	38	104	0	60	49615
2026-01-03 03:07:26.46	234.37	1.29	-47.6	-62.8	3.6	1.51e+00	0	38	104	0	60	49745
2026-01-03 03:07:29.50	234.66	1.43	-47.6	-62.8	3.6	1.51e+00	0	38	104	0	60	49702
2026-01-03 03:07:32.53	234.94	1.57	-47.6	-62.7	3.6	1.51e+00	0	38	104	0	60	49430
2026-01-03 03:07:35.56	235.23	1.70	-47.6	-62.8	3.6	1.51e+00	0	38	104	0	60	49899
2026-01-03 03:07:38.59	235.52	1.84	-47.5	-62.7	3.6	1.51e+00	0	38	104	0	60	49522
2026-01-03 03:07:41.62	235.82	1.98	-47.5	-62.7	3.6	1.51e+00	0	38	104	0	60	49360
2026-01-03 03:07:44.65	236.11	2.12	-47.5	-62.7	3.6	1.51e+00	0	38	104	0	60	49463
2026-01-03 03:07:47.68	236.41	2.25	-47.5	-62.7	3.6	1.51e+00	0	38	104	0	60	49339
2026-01-03 03:07:50.71	236.71	2.39	-47.5	-62.7	3.6	1.51e+00	0	38	104	0	60	49451
2026-01-03 03:07:53.74	237.02	2.53	-47.5	-62.7	3.6	1.51e+00	0	38	104	0	60	49405
2026-01-03 03:07:56.77	237.33	2.66	-47.5	-62.7	3.6	1.51e+00	0	38	104	0	60	49361
2026-01-03 03:07:59.80	237.64	2.80	-47.5	-62.7	3.6	1.51e+00	0	38	104	0	60	49191
2026-01-03 03:08:02.83	237.95	2.94	-47.5	-62.7	3.6	1.51e+00	0	38	104	0	60	49249
2026-01-03 03:08:05.86	238.26	3.08	-47.7	-62.2	3.6	1.51e+00	0	39	104	0	60	46763
2026-01-03 03:08:08.89	238.58	3.21	-47.4	-62.5	3.6	1.51e+00	0	38	104	0	60	48432
2026-01-03 03:08:11.92	238.90	3.35	-47.7	-61.7	3.6	1.51e+00	0	39	104	0	60	43921
2026-01-03 03:08:14.95	239.23	3.49	-47.7	-60.9	3.6	1.51e+00	0	39	104	0	60	40049
2026-01-03 03:08:17.99	239.55	3.63	-47.7	-62.1	3.6	1.51e+00	0	39	104	0	60	46151
2026-01-03 03:08:21.02	239.88	3.76	-47.7	-60.8	3.6	1.50e+00	0	39	104	0	60	39714
2026-01-03 03:08:24.05	240.22	3.90	-47.7	-59.1	3.8	1.41e+00	0	38	0	0	60	32515
2026-01-03 03:08:27.07	240.55	4.04	-47.5	-58.2	4.5	1.32e+00	66	39	104	0	60	29389
2026-01-03 03:08:30.10	240.89	4.17	-47.4	-55.2	5.8	3.29e-01	0	39	0	5242880	60	20699
2026-01-03 03:08:33.13	241.23	4.31	-47.2	-54.0	7.1	1.83e-01	7	39	0	10485760	60	18083
2026-01-03 03:08:36.16	241.58	4.45	-47.0	-53.0	8.5	5.71e-02	91	39	0	16777216	60	16209
2026-01-03 03:08:39.19	241.92	4.58	-46.8	-52.1	9.7	9.53e-03	90	39	0	22020096	60	14526
2026-01-03 03:08:42.22	242.27	4.72	-46.4	-50.9	11.2	2.22e-03	0	39	0	28311552	60	12689
2026-01-03 03:08:45.25	242.63	4.85	-46.4	-50.9	11.3	1.06e-03	90	39	0	33554432	60	12607
2026-01-03 03:08:48.28	242.99	4.99	-45.7	-49.1	13.2	2.44e-05	90	39	0	38797312	60	10355
2026-01-03 03:08:51.32	243.35	5.13	-45.5	-48.8	13.7	5.30e-06	0	39	0	45088768	60	9944
2026-01-03 03:08:54.35	243.71	5.26	-45.1	-48.1	14.5	1.50e-06	92	39	0	50331648	60	9182
2026-01-03 03:08:57.38	244.08	5.40	-44.7	-47.3	15.2	0.00e+00	92	39	0	56623104	60	8399
2026-01-03 03:09:00.41	244.45	5.53	-44.6	-47.1	15.4	0.00e+00	4	38	0	61865984	60	8232
2026-01-03 03:09:03.43	244.82	5.67	-44.0	-46.3	16.4	0.00e+00	0	39	0	67108864	60	7469
2026-01-03 03:09:06.46	245.20	5.80	-43.4	-45.4	17.3	0.00e+00	92	39	0	73400320	60	6760
2026-01-03 03:09:09.49	245.58	5.93	-43.1	-44.9	17.9	0.00e+00	90	39	0	78643200	60	6370
2026-01-03 03:09:12.52	245.96	6.07	-42.7	-44.5	18.2	0.00e+00	0	39	0	84934656	58	6795
2026-01-03 03:09:15.55	246.35	6.20	-42.2	-43.8	18.9	0.00e+00	92	39	0	90177536	58	6255
2026-01-03 03:09:18.58	246.74	6.33	-41.6	-43.0	19.7	0.00e+00	92	39	0	96468992	56	6434
2026-01-03 03:09:21.61	247.13	6.46	-41.4	-42.7	20.0	0.00e+00	0	39	0	101711872	56	6205
2026-01-03 03:09:24.64	247.53	6.60	-41.4	-42.7	20.1	0.00e+00	0	39	0	106954752	56	6224
2026-01-03 03:09:27.67	247.93	6.73	-41.0	-42.2	20.4	0.00e+00	62	39	0	113246208	56	5894
2026-01-03 03:09:30.71	248.34	6.86	-40.5	-41.7	20.9	0.00e+00	92	39	0	118489088	54	6234
2026-01-03 03:09:33.74	248.74	6.99	-40.3	-41.4	21.2	0.00e+00	0	39	0	124780544	54	6012
2026-01-03 03:09:36.77	249.16	7.12	-40.6	-41.8	20.8	0.00e+00	92	39	0	130023424	54	6263
2026-01-03 03:09:39.80	249.57	7.25	-40.6	-41.8	20.9	0.00e+00	92	39	0	135266304	54	6268
2026-01-03 03:09:42.83	249.99	7.38	-40.7	-42.0	20.8	0.00e+00	0	39	0	141557760	54	6404
2026-01-03 03:09:45.86	250.41	7.50	-40.6	-41.7	21.0	0.00e+00	92	39	0	146800640	54	6231
2026-01-03 03:09:48.89	250.84	7.63	-40.6	-41.8	21.1	0.00e+00	92	39	0	153092096	54	6286
2026-01-03 03:09:51.92	251.26	7.76	-40.7	-41.9	20.8	0.00e+00	10	39	0	158334976	54	6389
2026-01-03 03:09:54.95	251.70	7.88	-41.0	-42.2	20.6	0.00e+00	0	39	0	164626432	54	6577
2026-01-03 03:09:57.98	252.13	8.01	-40.8	-42.0	20.8	0.00e+00	75	39	0	169869312	54	6449
2026-01-03 03:10:01.01	252.57	8.13	-40.8	-42.0	20.8	0.00e+00	92	39	0	175112192	54	6427
2026-01-03 03:10:04.04	253.02	8.25	-40.6	-41.8	21.0	0.00e+00	0	39	0	181403648	54	6300
2026-01-03 03:10:07.07	253.46	8.38	-40.7	-41.9	20.9	0.00e+00	91	39	0	186646528	54	6387
2026-01-03 03:10:10.10	253.91	8.50	-40.8	-42.0	20.8	0.00e+00	91	39	0	192937984	54	6441
2026-01-03 03:10:13.13	254.37	8.62	-40.6	-41.8	21.1	0.00e+00	0	39	0	198180864	54	6290
2026-01-03 03:10:16.16	254.83	8.74	-40.8	-42.0	21.0	0.00e+00	15	39	0	203423744	54	6425
2026-01-03 03:10:19.19	255.29	8.86	-40.8	-42.1	20.9	0.00e+00	92	39	0	209715200	54	6467
2026-01-03 03:10:22.22	255.75	8.97	-40.7	-41.9	21.0	0.00e+00	9	39	0	214958080	54	6363
2026-01-03 03:10:25.25	256.22	9.09	-40.6	-41.7	21.2	0.00e+00	0	39	0	221249536	54	6220
2026-01-03 03:10:28.28	256.69	9.20	-41.1	-42.3	20.6	0.00e+00	90	39	0	226492416	54	6640
2026-01-03 03:10:31.31	257.17	9.32	-41.3	-42.6	20.4	0.00e+00	92	39	0	232783872	54	6870
2026-01-03 03:10:34.34	257.65	9.43	-42.2	-43.6	19.7	0.00e+00	0	39	0	238026752	56	6876
2026-01-03 03:10:37.37	258.13	9.54	-41.3	-42.6	20.4	0.00e+00	92	39	0	243269632	56	6124
2026-01-03 03:10:40.41	258.62	9.65	-41.2	-42.4	20.4	0.00e+00	92	39	0	249561088	56	6029
2026-01-03 03:10:43.44	259.11	9.76	-42.0	-43.5	19.7	0.00e+00	0	39	0	254803968	56	6775
2026-01-03 03:10:46.47	259.60	9.87	-42.2	-43.7	19.6	0.00e+00	20	39	0	261095424	56	6957
2026-01-03 03:10:49.50	260.10	9.97	-41.6	-42.9	20.2	0.00e+00	92	39	0	266338304	56	6370
2026-01-03 03:10:52.53	260.60	10.08	-41.6	-42.9	20.2	0.00e+00	92	39	0	272629760	56	6385
2026-01-03 03:10:55.56	261.10	10.18	-41.9	-43.2	20.0	0.00e+00	0	39	0	277872640	56	6610
2026-01-03 03:10:58.59	261.61	10.28	-41.9	-43.3	19.9	0.00e+00	90	39	0	283115520	56	6668
2026-01-03 03:11:01.62	262.12	10.38	-41.6	-42.9	20.3	0.00e+00	92	39	0	289406976	56	6370
2026-01-03 03:11:04.65	262.63	10.48	-41.4	-42.6	20.6	0.00e+00	0	39	0	294649856	56	6154
2026-01-03 03:11:07.67	263.15	10.58	-41.4	-42.6	20.6	0.00e+00	91	39	0	300941312	56	6148
2026-01-03 03:11:10.70	263.67	10.67	-41.5	-42.7	20.4	0.00e+00	90	39	0	306184192	56	6232
2026-01-03 03:11:13.73	264.19	10.77	-41.3	-42.5	20.5	0.00e+00	0	39	0	311427072	56	6068
2026-01-03 03:11:16.76	264.72	10.86	-41.9	-43.2	19.4	3.28e-05	0	39	0	317718528	60	5204
2026-01-03 03:11:19.79	265.25	10.95	-40.9	-42.1	21.1	0.00e+00	72	39	0	322961408	56	5806
2026-01-03 03:11:22.82	265.78	11.04	-40.8	-42.0	21.1	0.00e+00	92	39	0	329252864	54	6442
2026-01-03 03:11:25.86	266.32	11.12	-40.9	-42.1	21.0	0.00e+00	0	39	0	334495744	54	6528
2026-01-03 03:11:28.89	266.86	11.21	-41.1	-42.2	21.0	0.00e+00	92	39	0	340787200	54	6612
2026-01-03 03:11:31.92	267.40	11.29	-41.0	-42.2	20.8	0.00e+00	92	39	0	346030080	54	6580
2026-01-03 03:11:34.95	267.95	11.37	-41.2	-42.4	20.7	0.00e+00	0	39	0	351272960	54	6724
2026-01-03 03:11:37.98	268.50	11.45	-40.8	-42.0	21.1	0.00e+00	0	39	0	357564416	54	6418
2026-01-03 03:11:41.01	269.05	11.52	-40.5	-41.7	21.4	0.00e+00	42	39	0	362807296	54	6185
2026-01-03 03:11:44.04	269.60	11.60	-40.5	-41.7	21.4	0.00e+00	64	39	0	369098752	54	6188
2026-01-03 03:11:47.07	270.16	11.67	-41.3	-42.6	20.5	0.00e+00	0	39	0	374341632	54	6855
2026-01-03 03:11:50.10	270.72	11.74	-41.2	-42.5	20.6	0.00e+00	90	39	0	379584512	54	6771
2026-01-03 03:11:53.13	271.28	11.80	-40.3	-41.4	21.6	0.00e+00	92	39	0	385875968	54	5987
2026-01-03 03:11:56.16	271.84	11.87	-40.6	-41.7	21.3	0.00e+00	0	39	0	391118848	54	6234
2026-01-03 03:11:59.19	272.41	11.93	-40.8	-42.0	21.2	0.00e+00	92	39	0	397410304	54	6433
2026-01-03 03:12:02.22	272.97	11.99	-39.9	-41.0	21.9	0.00e+00	92	39	0	402653184	54	5705
2026-01-03 03:12:05.25	273.54	12.05	-39.9	-41.0	21.9	0.00e+00	0	39	0	408944640	52	6423
2026-01-03 03:12:08.29	274.12	12.10	-41.0	-42.2	21.0	0.00e+00	0	39	0	414187520	54	6553
2026-01-03 03:12:11.32	274.69	12.16	-40.6	-41.7	21.3	0.00e+00	85	39	0	419430400	54	6237
2026-01-03 03:12:14.35	275.27	12.21	-40.9	-42.0	21.0	0.00e+00	10	39	0	425721856	54	6464
2026-01-03 03:12:17.38	275.85	12.26	-42.4	-43.9	19.5	0.00e+00	0	39	0	430964736	56	7095
2026-01-03 03:12:20.41	276.43	12.30	-41.8	-43.2	20.1	0.00e+00	92	39	0	437256192	56	6551
2026-01-03 03:12:23.44	277.01	12.34	-41.0	-42.2	21.0	0.00e+00	92	39	0	442499072	56	5837
2026-01-03 03:12:26.46	277.59	12.38	-41.9	-43.2	20.1	0.00e+00	0	39	0	447741952	56	6575
2026-01-03 03:12:29.50	278.18	12.42	-41.7	-43.0	20.3	0.00e+00	92	39	0	454033408	56	6434
2026-01-03 03:12:32.53	278.76	12.46	-41.6	-42.8	20.4	0.00e+00	90	39	0	459276288	56	6305
2026-01-03 03:12:35.55	279.35	12.49	-42.3	-43.7	19.7	0.00e+00	0	39	0	465567744	56	6988
2026-01-03 03:12:38.58	279.94	12.52	-42.1	-43.5	20.0	0.00e+00	0	39	0	470810624	56	6792
2026-01-03 03:12:41.61	280.53	12.54	-41.2	-42.4	20.8	0.00e+00	76	39	0	477102080	56	6028
2026-01-03 03:12:44.64	281.12	12.57	-41.0	-42.2	20.9	0.00e+00	90	39	0	482344960	56	5854
2026-01-03 03:12:47.67	281.71	12.59	-40.9	-42.1	21.1	0.00e+00	0	39	0	487587840	56	5782
2026-01-03 03:12:50.70	282.30	12.61	-40.4	-41.5	21.5	0.00e+00	92	39	0	493879296	54	6086
2026-01-03 03:12:53.73	282.89	12.62	-40.0	-41.0	21.9	0.00e+00	90	39	0	499122176	54	5752
2026-01-03 03:12:56.76	283.49	12.64	-40.0	-41.0	21.9	0.00e+00	0	39	0	505413632	54	5758
2026-01-03 03:12:59.79	284.08	12.65	-39.8	-40.8	22.2	0.00e+00	0	39	0	510656512	52	6291
2026-01-03 03:13:02.82	284.67	12.65	-40.2	-41.2	21.8	0.00e+00	91	39	0	516947968	52	6609
2026-01-03 03:13:05.85	285.27	12.66	-40.2	-41.3	21.8	0.00e+00	12	39	0	522190848	52	6663
2026-01-03 03:13:08.88	285.86	12.66	-40.1	-41.1	21.9	0.00e+00	0	39	0	527433728	52	6527
2026-01-03 03:13:11.91	286.46	12.66	-40.1	-41.1	21.9	0.00e+00	92	39	0	533725184	52	6535
2026-01-03 03:13:14.94	287.05	12.66	-40.3	-41.4	21.7	0.00e+00	92	39	0	538968064	52	6708
2026-01-03 03:13:17.97	287.64	12.65	-40.1	-41.2	21.9	0.00e+00	0	39	0	545259520	52	6556
2026-01-03 03:13:21.00	288.24	12.64	-40.1	-41.2	21.8	0.00e+00	90	39	0	550502400	52	6569
2026-01-03 03:13:24.03	288.83	12.63	-40.3	-41.4	21.7	0.00e+00	14	39	0	555745280	52	6707
2026-01-03 03:13:27.06	289.42	12.61	-39.8	-40.8	22.1	0.00e+00	0	39	0	562036736	52	6307
2026-01-03 03:13:30.09	290.01	12.60	-40.1	-41.2	21.8	0.00e+00	0	39	0	567279616	52	6599
2026-01-03 03:13:33.12	290.61	12.58	-40.1	-41.2	21.9	0.00e+00	92	39	0	573571072	52	6565
2026-01-03 03:13:36.15	291.20	12.55	-39.3	-40.3	22.5	0.00e+00	5	39	0	578813952	52	5935
2026-01-03 03:13:39.18	291.79	12.53	-39.0	-40.0	22.8	0.00e+00	0	39	0	585105408	52	5733
2026-01-03 03:13:42.21	292.37	12.50	-39.2	-40.2	22.6	0.00e+00	92	39	0	590348288	52	5866
2026-01-03 03:13:45.24	292.96	12.47	-39.1	-40.1	22.8	0.00e+00	92	39	0	595591168	52	5795
2026-01-03 03:13:48.27	293.55	12.43	-39.4	-40.4	22.6	0.00e+00	20	39	0	601882624	52	5985
2026-01-03 03:13:51.30	294.13	12.40	-39.7	-40.7	22.3	0.00e+00	72	39	0	607125504	52	6198
2026-01-03 03:13:54.33	294.71	12.36	-39.7	-40.7	22.2	0.00e+00	11	39	0	613416960	52	6217
2026-01-03 03:13:57.36	295.29	12.32	-39.2	-40.1	22.6	0.00e+00	0	39	0	618659840	52	5822
2026-01-03 03:14:00.39	295.87	12.27	-39.4	-40.3	22.5	0.00e+00	0	39	0	623902720	52	5951
2026-01-03 03:14:03.42	296.45	12.23	-39.6	-40.6	22.3	0.00e+00	81	39	0	630194176	52	6168
2026-01-03 03:14:06.46	297.03	12.18	-39.3	-40.3	22.6	0.00e+00	6	39	0	635437056	52	5931
2026-01-03 03:14:09.49	297.60	12.13	-39.1	-40.1	22.7	0.00e+00	0	39	0	641728512	52	5763
2026-01-03 03:14:12.51	298.17	12.07	-39.3	-40.3	22.6	0.00e+00	69	39	0	646971392	52	5909
2026-01-03 03:14:15.54	298.74	12.02	-39.3	-40.3	22.6	0.00e+00	67	39	0	653262848	52	5909
2026-01-03 03:14:18.57	299.31	11.96	-39.3	-40.2	22.6	0.00e+00	0	39	0	658505728	52	5882
2026-01-03 03:14:21.60	299.88	11.90	-39.4	-40.4	22.6	0.00e+00	0	39	0	663748608	52	5983
2026-01-03 03:14:24.63	300.44	11.83	-39.4	-40.4	22.5	0.00e+00	66	39	0	670040064	52	6003
2026-01-03 03:14:27.66	301.00	11.77	-39.2	-40.2	22.6	0.00e+00	7	39	0	675282944	52	5862
2026-01-03 03:14:30.69	301.56	11.70	-38.8	-39.7	23.1	0.00e+00	0	39	0	681574400	52	5550
2026-01-03 03:14:33.72	302.11	11.63	-38.8	-39.7	23.0	0.00e+00	91	39	0	686817280	50	6221
2026-01-03 03:14:36.75	302.67	11.56	-38.7	-39.7	23.0	0.00e+00	85	39	0	692060160	50	6189
2026-01-03 03:14:39.78	303.22	11.48	-38.7	-39.6	23.1	0.00e+00	0	39	0	698351616	50	6144
2026-01-03 03:14:42.82	303.77	11.40	-38.6	-39.6	23.1	0.00e+00	0	39	0	703594496	50	6111
2026-01-03 03:14:45.85	304.31	11.33	-39.0	-40.0	22.8	0.00e+00	10	39	0	709885952	50	6399
2026-01-03 03:14:48.88	304.85	11.24	-38.9	-39.8	22.8	0.00e+00	0	39	0	715128832	50	6311
2026-01-03 03:14:51.91	305.39	11.16	-38.6	-39.5	23.2	0.00e+00	0	39	0	721420288	50	6090
2026-01-03 03:14:54.94	305.93	11.08	-38.6	-39.5	23.1	0.00e+00	76	39	0	726663168	50	6048
2026-01-03 03:14:57.97	306.46	10.99	-38.5	-39.5	23.2	0.00e+00	0	39	0	731906048	50	6043
2026-01-03 03:15:00.99	306.99	10.90	-38.7	-39.6	23.1	0.00e+00	0	39	0	738197504	50	6149
2026-01-03 03:15:04.02	307.51	10.81	-38.6	-39.5	23.2	0.00e+00	62	39	0	743440384	50	6103
2026-01-03 03:15:07.05	308.04	10.72	-38.7	-39.7	23.0	0.00e+00	67	39	0	749731840	50	6179
2026-01-03 03:15:10.08	308.56	10.63	-38.7	-39.7	22.8	0.00e+00	0	39	0	754974720	50	6202
2026-01-03 03:15:13.11	309.07	10.53	-38.9	-39.9	22.6	0.00e+00	0	39	0	760217600	50	6346
2026-01-03 03:15:16.14	309.59	10.43	-39.2	-40.2	22.4	0.00e+00	26	39	0	766509056	50	6595
2026-01-03 03:15:19.17	310.10	10.34	-39.4	-40.5	22.3	0.00e+00	9	39	0	771751936	50	6780
2026-01-03 03:15:22.20	310.60	10.24	-39.9	-41.0	21.8	0.00e+00	0	39	0	778043392	52	6442
2026-01-03 03:15:25.23	311.11	10.13	-40.3	-41.4	21.4	0.00e+00	90	39	0	783286272	52	6748
2026-01-03 03:15:28.26	311.61	10.03	-40.2	-41.3	21.5	0.00e+00	92	39	0	789577728	52	6691
2026-01-03 03:15:31.29	312.10	9.93	-40.3	-41.5	21.3	0.00e+00	0	39	0	794820608	52	6775
2026-01-03 03:15:34.32	312.60	9.82	-40.1	-41.2	21.6	0.00e+00	88	39	0	800063488	52	6544
2026-01-03 03:15:37.35	313.09	9.71	-40.5	-41.6	21.2	0.00e+00	73	39	0	806354944	54	6149
2026-01-03 03:15:40.38	313.57	9.60	-41.2	-42.5	20.4	0.00e+00	0	39	0	811597824	54	6776
2026-01-03 03:15:43.41	314.06	9.49	-41.4	-42.7	20.4	0.00e+00	0	39	0	817889280	54	6955
2026-01-03 03:15:46.44	314.53	9.38	-41.3	-42.6	20.2	0.00e+00	92	39	0	823132160	54	6901
2026-01-03 03:15:49.47	315.01	9.27	-41.7	-43.0	19.9	0.00e+00	0	39	0	829423616	54	7242
2026-01-03 03:15:52.50	315.48	9.16	-42.4	-43.9	19.2	0.00e+00	0	39	0	834666496	56	7123
2026-01-03 03:15:55.52	315.95	9.04	-41.7	-43.1	19.8	0.00e+00	78	39	0	839909376	56	6503
2026-01-03 03:15:58.55	316.41	8.93	-41.6	-42.9	20.1	0.00e+00	5	39	0	846200832	56	6347
2026-01-03 03:16:01.58	316.87	8.81	-41.7	-43.1	20.0	0.00e+00	0	39	0	851443712	56	6468
2026-01-03 03:16:04.61	317.33	8.69	-41.9	-43.3	19.7	0.00e+00	0	39	0	857735168	56	6646
2026-01-03 03:16:07.64	317.79	8.57	-41.7	-43.1	19.9	0.00e+00	92	39	0	862978048	56	6496
2026-01-03 03:16:10.67	318.24	8.45	-42.0	-43.5	19.4	0.00e+00	0	39	0	868220928	56	6794
2026-01-03 03:16:13.70	318.68	8.33	-42.2	-43.7	19.4	0.00e+00	0	39	0	874512384	56	6962
2026-01-03 03:16:16.73	319.13	8.21	-42.3	-43.9	19.1	0.00e+00	10	39	0	879755264	56	7113
2026-01-03 03:16:19.76	319.57	8.09	-42.0	-43.5	19.5	0.00e+00	7	39	0	886046720	56	6808
2026-01-03 03:16:22.79	320.00	7.96	-42.2	-43.6	19.5	0.00e+00	0	39	0	891289600	56	6920
2026-01-03 03:16:25.82	320.43	7.84	-42.5	-44.1	19.0	0.00e+00	0	39	0	897581056	56	7257
2026-01-03 03:16:28.85	320.86	7.71	-41.6	-42.9	20.0	0.00e+00	92	39	0	902823936	56	6363
2026-01-03 03:16:31.87	321.29	7.59	-41.0	-42.3	20.5	0.00e+00	0	39	0	908066816	56	5923
2026-01-03 03:16:34.90	321.71	7.46	-41.2	-42.5	20.3	0.00e+00	0	39	0	914358272	56	6036
2026-01-03 03:16:37.93	322.13	7.34	-41.8	-43.2	19.7	0.00e+00	54	39	0	919601152	56	6611
2026-01-03 03:16:40.96	322.54	7.21	-41.8	-43.2	19.7	0.00e+00	0	39	0	925892608	56	6592
2026-01-03 03:16:44.00	322.95	7.08	-42.1	-43.6	19.2	0.00e+00	0	39	0	931135488	56	6865
2026-01-03 03:16:47.03	323.36	6.95	-41.6	-43.0	19.8	0.00e+00	0	39	0	936378368	56	6459
2026-01-03 03:16:50.06	323.77	6.82	-41.2	-42.5	20.3	0.00e+00	0	39	0	942669824	56	6075
2026-01-03 03:16:53.09	324.17	6.69	-41.4	-42.7	20.0	0.00e+00	0	39	0	947912704	56	6220
2026-01-03 03:16:56.12	324.56	6.56	-41.3	-42.7	20.2	0.00e+00	0	39	0	954204160	56	6175
2026-01-03 03:16:59.15	324.96	6.43	-40.8	-42.1	20.6	0.00e+00	80	39	0	959447040	56	5787
2026-01-03 03:17:02.17	325.35	6.30	-40.6	-41.8	20.7	0.00e+00	0	39	0	965738496	54	6275
2026-01-03 03:17:05.20	325.74	6.17	-41.2	-42.5	20.2	0.00e+00	0	39	0	970981376	54	6790
2026-01-03 03:17:08.23	326.12	6.04	-41.1	-42.4	20.2	0.00e+00	91	39	0	976224256	54	6764
2026-01-03 03:17:11.26	326.50	5.90	-40.9	-42.2	20.4	0.00e+00	0	39	0	982515712	54	6548
2026-01-03 03:17:14.29	326.88	5.77	-40.3	-41.5	21.0	0.00e+00	0	39	0	987758592	54	6083
2026-01-03 03:17:17.33	327.25	5.64	-40.4	-41.7	20.7	0.00e+00	0	39	0	994050048	54	6182
2026-01-03 03:17:20.35	327.62	5.51	-40.8	-42.1	20.4	0.00e+00	91	39	0	999292928	54	6492
2026-01-03 03:17:23.38	327.99	5.37	-41.1	-42.4	20.2	0.00e+00	0	39	0	1004535808	54	6733
2026-01-03 03:17:26.41	328.35	5.24	-41.5	-42.9	19.7	0.00e+00	0	39	0	1010827264	54	7131
2026-01-03 03:17:29.44	328.71	5.10	-41.6	-43.0	19.6	0.00e+00	84	39	0	1016070144	54	7239
2026-01-03 03:17:32.47	329.07	4.97	-41.2	-42.6	19.9	0.00e+00	0	39	0	1022361600	54	6890
2026-01-03 03:17:35.51	329.43	4.84	-41.4	-42.8	19.7	0.00e+00	0	40	0	1027604480	54	7020
2026-01-03 03:17:38.54	329.78	4.70	-41.5	-43.0	19.5	0.00e+00	17	39	0	1033895936	54	7210
2026-01-03 03:17:41.56	330.13	4.57	-41.5	-43.0	19.4	0.00e+00	0	39	0	1039138816	54	7190
2026-01-03 03:17:44.59	330.47	4.43	-40.7	-42.0	20.3	0.00e+00	0	39	0	1044381696	54	6395
2026-01-03 03:17:47.63	330.82	4.30	-40.8	-42.1	20.0	0.00e+00	0	39	0	1050673152	54	6525
2026-01-03 03:17:50.66	331.16	4.16	-41.5	-43.1	19.1	0.00e+00	92	39	0	1055916032	54	7284
2026-01-03 03:17:53.69	331.49	4.02	-42.7	-44.6	17.2	0.00e+00	0	39	0	1062207488	56	7754
2026-01-03 03:17:56.72	331.83	3.89	-44.1	-47.3	13.9	0.00e+00	0	39	0	1067450368	60	8421
2026-01-03 03:17:59.75	332.16	3.75	-44.5	-49.2	10.7	1.19e-03	66	39	0	1072693248	60	10430
2026-01-03 03:18:02.78	332.48	3.62	-44.9	-53.3	5.3	2.67e-01	4	40	0	1078984704	60	16777
2026-01-03 03:18:05.81	332.81	3.48	-44.9	-57.7	3.6	1.47e+00	0	39	0	1082130432	60	27829
2026-01-03 03:18:08.84	333.13	3.35	-44.9	-59.6	3.6	1.51e+00	0	39	104	1082130432	60	34425
2026-01-03 03:18:11.87	333.45	3.21	-44.9	-60.0	3.6	1.51e+00	0	40	104	1082130432	60	36327
2026-01-03 03:18:14.90	333.77	3.07	-44.9	-60.0	3.6	1.51e+00	0	39	104	1082130432	60	36272
2026-01-03 03:18:17.93	334.08	2.94	-49.0	-64.2	3.6	1.51e+00	0	40	104	1082130432	60	58514
2026-01-03 03:18:20.96	334.39	2.80	-49.8	-65.0	3.6	1.51e+00	0	40	104	1082130432	60	64084
2026-01-03 03:18:23.99	334.70	2.67	-49.9	-65.0	3.6	1.51e+00	0	40	104	1082130432	60	64621
2026-01-03 03:18:27.02	335.01	2.53	-49.8	-65.1	3.6	1.51e+00	0	40	104	1082130432	60	64839
2026-01-03 03:18:30.05	335.31	2.40	-49.9	-65.0	3.6	1.51e+00	0	40	104	1082130432	60	64512
2026-01-03 03:18:33.08	335.61	2.26	-49.8	-65.0	3.6	1.51e+00	0	40	104	1082130432	60	64427
2026-01-03 03:18:36.11	335.91	2.12	-49.8	-65.0	3.6	1.51e+00	0	40	104	1082130432	60	64428
2026-01-03 03:18:39.14	336.20	1.99	-49.9	-65.1	3.6	1.51e+00	0	40	104	1082130432	60	65172
2026-01-03 03:18:42.17	336.49	1.85	-49.9	-65.0	3.6	1.51e+00	0	40	104	1082130432	60	64526
2026-01-03 03:18:45.20	336.78	1.72	-49.9	-65.1	3.6	1.51e+00	0	40	104	1082130432	60	64799
2026-01-03 03:18:48.24	337.07	1.58	-49.9	-65.1	3.6	1.51e+00	0	40	104	1082130432	60	65379
2026-01-03 03:18:51.26	337.36	1.45	-49.8	-65.0	3.6	1.51e+00	0	40	104	1082130432	60	64507
2026-01-03 03:18:54.29	337.64	1.31	-49.9	-65.1	3.6	1.51e+00	0	40	104	1082130432	60	65002
2026-01-03 03:18:57.32	337.92	1.18	-49.8	-65.1	3.6	1.51e+00	0	39	104	1082130432	60	64836
2026-01-03 03:19:00.35	338.20	1.04	-49.9	-65.1	3.6	1.51e+00	0	40	104	1082130432	60	64977
2026-01-03 03:19:03.38	338.47	0.91	-49.9	-65.1	3.6	1.51e+00	0	40	104	1082130432	60	65059
2026-01-03 03:19:06.41	338.74	0.77	-49.9	-65.2	3.6	1.51e+00	0	40	104	1082130432	60	65452
2026-01-03 03:19:09.44	339.01	0.64	-49.9	-65.1	3.6	1.51e+00	0	40	104	1082130432	60	65140
2026-01-03 03:19:12.47	339.28	0.50	-49.9	-65.1	3.6	1.51e+00	0	39	104	1082130432	60	65011
2026-01-03 03:19:15.50	339.55	0.37	-49.9	-65.1	3.6	1.51e+00	0	40	104	1082130432	60	65073
2026-01-03 03:19:18.53	339.81	0.23	-49.9	-65.1	3.6	1.51e+00	0	40	104	1082130432	60	65262
2026-01-03 03:19:21.56	340.08	0.10	-49.9	-65.1	3.6	1.51e+00	0	40	104	1082130432	60	64705
2026-01-03 03:19:24.59	340.33	-0.03	-49.9	-65.1	3.6	1.51e+00	0	39	104	1082130432	60	64966

#Closed at: 2026-01-03 03:19:24
#Recorded file [1082 MB]: D:/lorett/data/35029_260103_150659.dat