passes_logs/2026/01/03/R4.6S_Anadyr/R4.6S_Anadyr__20260103_040611_FENGYUN_3D_rec.log

#Pass ID: 20260103_040611_FENGYUN 3D
#Satellite: FENGYUN 3D
#Configuration: FENGYUN 3D
#almurnet v.1.7.20251203
#Start time: 2026-01-03 04:06:14

#Version: 2.2.20231116
#Station: R4.6S_Anadyr
#Location: 177.4865 lon 64.73178 lat
#TLE: 1 43010U 17072A   26002.81102625  .00000200  00000+0  11640-3 0  9996
#TLE: 2 43010  98.9911 334.4394 0001899 131.0556 229.0784 14.19692049421526

#Time	Az	El	Level	Level2	SNR	BER	BlckErr	Temp	State	Recorded	gain1	gain2
2026-01-03 04:06:14.13	204.52	0.16	-50.6	-61.3	3.3	8.40e-01	0	38	0	0	60	41850
2026-01-03 04:06:18.16	204.76	0.37	-50.4	-62.6	3.6	8.45e-01	0	38	104	0	60	48497
2026-01-03 04:06:22.20	205.01	0.59	-50.1	-62.2	3.6	8.45e-01	0	38	104	0	60	46749
2026-01-03 04:06:26.24	205.26	0.81	-49.3	-61.4	3.6	8.45e-01	0	38	104	0	60	42474
2026-01-03 04:06:30.28	205.51	1.03	-48.6	-60.6	3.6	8.45e-01	0	38	104	0	60	38837
2026-01-03 04:06:34.32	205.77	1.25	-48.6	-60.4	3.6	8.46e-01	0	38	104	0	60	38012
2026-01-03 04:06:38.36	206.03	1.47	-48.6	-60.7	3.6	8.46e-01	0	38	104	0	60	38974
2026-01-03 04:06:42.40	206.29	1.70	-48.6	-60.7	3.6	8.46e-01	0	38	104	0	60	39042
2026-01-03 04:06:46.43	206.56	1.92	-48.5	-60.5	3.6	8.45e-01	0	38	104	0	60	38277
2026-01-03 04:06:50.47	206.83	2.15	-48.6	-60.5	3.6	8.45e-01	0	38	104	0	60	38456
2026-01-03 04:06:54.51	207.11	2.38	-48.6	-60.6	3.6	8.45e-01	0	38	104	0	60	38889
2026-01-03 04:06:58.55	207.39	2.61	-48.2	-55.8	3.8	8.30e-01	0	38	0	0	60	22255
2026-01-03 04:07:02.59	207.68	2.84	-47.9	-55.3	5.0	8.24e-01	0	38	104	0	60	21097
2026-01-03 04:07:06.63	207.96	3.07	-42.9	-44.6	15.1	0.00e+00	0	38	0	20971520	58	6897
2026-01-03 04:07:10.67	208.26	3.30	-42.6	-44.2	15.4	2.20e-06	0	38	0	42991616	58	6573
2026-01-03 04:07:14.71	208.56	3.54	-38.5	-39.4	19.3	5.22e-01	0	38	104	51380224	52	5330
2026-01-03 04:07:18.75	208.86	3.77	-38.5	-39.4	20.6	0.00e+00	0	38	0	72351744	50	5981
2026-01-03 04:07:22.80	209.17	4.01	-38.2	-39.1	20.8	0.00e+00	0	38	0	94371840	50	5797
2026-01-03 04:07:26.84	209.48	4.25	-37.9	-38.7	21.0	0.00e+00	0	38	0	117440512	48	6243
2026-01-03 04:07:30.88	209.79	4.49	-37.8	-38.7	21.2	0.00e+00	0	38	0	139460608	48	6201
2026-01-03 04:07:34.92	210.12	4.73	-37.9	-38.8	21.2	0.00e+00	0	38	0	162529280	48	6272
2026-01-03 04:07:38.97	210.44	4.98	-37.2	-38.0	22.0	0.00e+00	0	38	0	185597952	48	5697
2026-01-03 04:07:43.01	210.77	5.22	-37.0	-37.8	22.3	0.00e+00	0	38	0	208666624	48	5588
2026-01-03 04:07:47.04	211.11	5.47	-37.4	-38.2	22.0	0.00e+00	0	38	0	230686720	48	5843
2026-01-03 04:07:51.09	211.46	5.72	-37.0	-37.8	22.3	0.00e+00	0	38	0	253755392	48	5568
2026-01-03 04:07:55.13	211.80	5.97	-36.7	-37.5	22.7	0.00e+00	0	39	0	276824064	46	6035
2026-01-03 04:07:59.17	212.16	6.22	-36.6	-37.3	22.8	0.00e+00	0	38	0	298844160	46	5959
2026-01-03 04:08:03.22	212.52	6.47	-36.4	-37.2	23.0	0.00e+00	0	38	0	321912832	46	5841
2026-01-03 04:08:07.26	212.88	6.73	-36.6	-37.4	22.8	0.00e+00	0	38	0	344981504	46	5986
2026-01-03 04:08:11.30	213.26	6.98	-36.6	-37.3	22.9	0.00e+00	0	39	0	367001600	46	5946
2026-01-03 04:08:15.34	213.64	7.24	-36.8	-37.6	22.8	0.00e+00	0	39	0	390070272	46	6130
2026-01-03 04:08:19.38	214.02	7.50	-36.1	-36.9	23.3	0.00e+00	0	39	0	413138944	46	5646
2026-01-03 04:08:23.42	214.41	7.76	-36.2	-36.9	23.4	0.00e+00	0	39	0	435159040	46	5674
2026-01-03 04:08:27.47	214.81	8.02	-36.4	-37.1	23.2	0.00e+00	0	39	0	458227712	46	5799
2026-01-03 04:08:31.50	215.22	8.28	-35.9	-36.6	23.7	0.00e+00	0	39	0	481296384	46	5462
2026-01-03 04:08:35.55	215.63	8.55	-35.8	-36.6	23.7	0.00e+00	0	39	0	504365056	44	6106
2026-01-03 04:08:39.59	216.05	8.82	-35.9	-36.6	23.6	0.00e+00	0	39	0	526385152	44	6158
2026-01-03 04:08:43.63	216.48	9.08	-35.7	-36.4	23.9	0.00e+00	0	39	0	549453824	44	5988
2026-01-03 04:08:47.67	216.91	9.35	-35.7	-36.4	23.9	0.00e+00	0	38	0	571473920	44	5972
2026-01-03 04:08:51.72	217.36	9.63	-35.7	-36.4	23.8	0.00e+00	0	39	0	594542592	44	6031
2026-01-03 04:08:55.76	217.81	9.90	-35.7	-36.5	23.8	0.00e+00	0	39	0	617611264	44	6045
2026-01-03 04:08:59.80	218.27	10.17	-35.6	-36.3	24.1	0.00e+00	0	39	0	640679936	44	5909
2026-01-03 04:09:03.84	218.73	10.45	-35.4	-36.1	24.3	0.00e+00	0	39	0	662700032	44	5779
2026-01-03 04:09:07.88	219.21	10.73	-35.3	-36.0	24.2	0.00e+00	0	39	0	685768704	44	5759
2026-01-03 04:09:11.92	219.69	11.00	-35.4	-36.1	24.3	0.00e+00	0	39	0	708837376	44	5795
2026-01-03 04:09:15.96	220.19	11.28	-35.2	-35.9	24.5	0.00e+00	0	39	0	730857472	44	5651
2026-01-03 04:09:20.01	220.69	11.57	-34.9	-35.6	24.8	0.00e+00	0	39	0	753926144	42	6146
2026-01-03 04:09:24.05	221.20	11.85	-35.2	-35.9	24.5	0.00e+00	0	39	0	776994816	42	6353
2026-01-03 04:09:28.09	221.73	12.13	-35.1	-35.8	24.6	0.00e+00	0	39	0	799014912	42	6287
2026-01-03 04:09:32.13	222.26	12.42	-34.9	-35.6	24.8	0.00e+00	0	39	0	822083584	42	6128
2026-01-03 04:09:36.18	222.80	12.70	-35.1	-35.8	24.7	0.00e+00	0	39	0	845152256	42	6261
2026-01-03 04:09:40.22	223.35	12.99	-34.7	-35.4	25.0	0.00e+00	0	39	0	867172352	42	6005
2026-01-03 04:09:44.26	223.91	13.28	-34.7	-35.3	25.1	0.00e+00	0	39	0	890241024	42	5961
2026-01-03 04:09:48.30	224.49	13.57	-34.7	-35.4	25.0	0.00e+00	0	39	0	913309696	42	5994
2026-01-03 04:09:52.35	225.07	13.86	-34.4	-35.1	25.4	0.00e+00	0	39	0	935329792	42	5771
2026-01-03 04:09:56.39	225.67	14.15	-34.5	-35.2	25.3	0.00e+00	0	39	0	958398464	42	5846
2026-01-03 04:10:00.43	226.27	14.44	-34.2	-34.9	25.5	0.00e+00	0	39	0	981467136	42	5684
2026-01-03 04:10:04.47	226.89	14.73	-33.9	-34.5	25.8	0.00e+00	0	39	0	1003487232	42	5424
2026-01-03 04:10:08.51	227.52	15.02	-34.0	-34.7	25.7	0.00e+00	0	39	0	1026555904	42	5533
2026-01-03 04:10:12.55	228.16	15.31	-34.0	-34.7	25.7	0.00e+00	0	39	0	1049624576	42	5515
2026-01-03 04:10:16.60	228.82	15.60	-33.9	-34.6	25.7	0.00e+00	0	39	0	1072693248	42	5461
2026-01-03 04:10:20.64	229.49	15.89	-34.2	-34.9	25.6	0.00e+00	0	39	0	1094713344	42	5644
2026-01-03 04:10:24.68	230.17	16.19	-34.0	-34.6	25.8	0.00e+00	0	39	0	1117782016	42	5463
2026-01-03 04:10:28.72	230.86	16.48	-33.8	-34.4	25.9	0.00e+00	0	39	0	1139802112	40	6032
2026-01-03 04:10:32.77	231.57	16.77	-34.0	-34.7	25.7	0.00e+00	0	39	0	1162870784	40	6174
2026-01-03 04:10:36.81	232.28	17.06	-33.8	-34.4	25.9	0.00e+00	0	39	0	1185939456	40	6014
2026-01-03 04:10:40.85	233.02	17.35	-33.7	-34.4	25.9	0.00e+00	0	39	0	1209008128	40	5995
2026-01-03 04:10:44.89	233.76	17.64	-33.6	-34.3	26.1	0.00e+00	0	39	0	1231028224	40	5926
2026-01-03 04:10:48.93	234.52	17.92	-33.5	-34.1	26.2	0.00e+00	0	39	0	1254096896	40	5804
2026-01-03 04:10:52.97	235.30	18.21	-33.4	-34.1	26.3	0.00e+00	0	39	0	1277165568	40	5767
2026-01-03 04:10:57.01	236.08	18.49	-33.5	-34.1	26.3	0.00e+00	0	39	0	1299185664	40	5824
2026-01-03 04:11:01.05	236.89	18.77	-33.2	-33.8	26.5	0.00e+00	0	39	0	1322254336	40	5605
2026-01-03 04:11:05.09	237.70	19.05	-33.1	-33.7	26.5	0.00e+00	0	39	0	1345323008	40	5550
2026-01-03 04:11:09.13	238.54	19.33	-33.2	-33.9	26.6	0.00e+00	0	39	0	1367343104	40	5647
2026-01-03 04:11:13.17	239.38	19.60	-33.2	-33.9	26.4	0.00e+00	0	39	0	1390411776	40	5667
2026-01-03 04:11:17.22	240.24	19.87	-33.1	-33.7	26.5	0.00e+00	0	39	0	1413480448	40	5556
2026-01-03 04:11:21.26	241.12	20.14	-33.2	-33.9	26.3	0.00e+00	0	39	0	1435500544	40	5661
2026-01-03 04:11:25.30	242.01	20.40	-33.1	-33.8	26.5	0.00e+00	0	39	0	1458569216	40	5596
2026-01-03 04:11:29.34	242.92	20.66	-33.1	-33.7	26.6	0.00e+00	0	39	0	1481637888	40	5512
2026-01-03 04:11:33.39	243.84	20.91	-32.9	-33.6	26.7	0.00e+00	0	39	0	1503657984	38	6140
2026-01-03 04:11:37.43	244.77	21.16	-33.2	-33.8	26.6	0.00e+00	0	39	0	1526726656	38	6305
2026-01-03 04:11:41.47	245.72	21.40	-32.4	-33.0	27.2	0.00e+00	0	39	0	1549795328	38	5754
2026-01-03 04:11:45.51	246.69	21.64	-33.0	-33.7	26.7	0.00e+00	0	39	0	1571815424	38	6184
2026-01-03 04:11:49.55	247.66	21.87	-32.8	-33.5	26.8	0.00e+00	0	39	0	1594884096	38	6060
2026-01-03 04:11:53.59	248.66	22.09	-32.4	-33.0	27.1	0.00e+00	0	39	0	1617952768	38	5749
2026-01-03 04:11:57.63	249.66	22.31	-32.5	-33.1	27.1	0.00e+00	0	39	0	1639972864	38	5803
2026-01-03 04:12:01.67	250.68	22.52	-32.4	-33.0	27.2	0.00e+00	0	39	0	1663041536	38	5748
2026-01-03 04:12:05.71	251.72	22.73	-32.4	-33.1	27.2	0.00e+00	0	39	0	1686110208	38	5764
2026-01-03 04:12:09.75	252.76	22.92	-32.4	-33.0	27.1	0.00e+00	0	39	0	1709178880	38	5746
2026-01-03 04:12:13.79	253.82	23.11	-32.2	-32.8	27.3	0.00e+00	0	39	0	1731198976	38	5628
2026-01-03 04:12:17.83	254.89	23.29	-32.3	-32.9	27.2	0.00e+00	0	39	0	1754267648	38	5659
2026-01-03 04:12:21.87	255.97	23.45	-32.3	-32.9	27.3	0.00e+00	0	39	0	1776287744	38	5653
2026-01-03 04:12:25.91	257.07	23.61	-32.2	-32.8	27.4	0.00e+00	0	39	0	1799356416	38	5611
2026-01-03 04:12:29.95	258.17	23.76	-32.2	-32.8	27.4	0.00e+00	0	39	0	1822425088	38	5598
2026-01-03 04:12:34.00	259.29	23.90	-32.3	-32.9	27.2	0.00e+00	0	39	0	1845493760	38	5662
2026-01-03 04:12:38.03	260.41	24.03	-32.2	-32.9	27.4	0.00e+00	0	39	0	1867513856	38	5647
2026-01-03 04:12:42.07	261.54	24.15	-32.0	-32.7	27.5	0.00e+00	0	39	0	1890582528	38	5512
2026-01-03 04:12:46.11	262.68	24.26	-31.9	-32.5	27.6	0.00e+00	0	39	0	1913651200	38	5408
2026-01-03 04:12:50.16	263.83	24.35	-31.9	-32.5	27.7	0.00e+00	0	39	0	1935671296	38	5384
2026-01-03 04:12:54.20	264.98	24.44	-32.1	-32.7	27.4	0.00e+00	0	39	0	1958739968	38	5519
2026-01-03 04:12:58.24	266.14	24.51	-31.7	-32.3	27.6	0.00e+00	0	39	0	1980760064	36	5938
2026-01-03 04:13:02.28	267.30	24.57	-32.3	-32.9	27.3	0.00e+00	0	39	0	2003828736	36	6352
2026-01-03 04:13:06.32	268.47	24.62	-31.9	-32.5	27.5	0.00e+00	0	39	0	2026897408	36	6097
2026-01-03 04:13:10.36	269.64	24.65	-32.0	-32.6	27.5	0.00e+00	0	39	0	2049966080	36	6108
2026-01-03 04:13:14.40	270.81	24.68	-31.8	-32.5	27.6	0.00e+00	0	39	0	2071986176	36	6036
2026-01-03 04:13:18.44	271.98	24.69	-32.2	-32.8	27.4	0.00e+00	0	39	0	2095054848	36	6308
2026-01-03 04:13:22.48	273.16	24.69	-31.9	-32.6	27.6	0.00e+00	0	39	0	2118123520	36	6135
2026-01-03 04:13:26.52	274.33	24.67	-32.0	-32.6	27.3	0.00e+00	0	39	0	2140143616	36	6138
2026-01-03 04:13:30.57	275.50	24.65	-32.0	-32.6	27.4	0.00e+00	0	39	0	2163212288	36	6152
2026-01-03 04:13:34.61	276.67	24.61	-31.8	-32.4	27.6	0.00e+00	0	39	0	2186280960	36	6005
2026-01-03 04:13:38.65	277.84	24.56	-31.9	-32.5	27.6	0.00e+00	0	39	0	2208301056	36	6043
2026-01-03 04:13:42.69	279.00	24.49	-32.0	-32.6	27.4	0.00e+00	0	39	0	2231369728	36	6168
2026-01-03 04:13:46.73	280.15	24.42	-31.9	-32.5	27.6	0.00e+00	0	39	0	2254438400	36	6095
2026-01-03 04:13:50.77	281.30	24.33	-32.1	-32.6	27.6	0.00e+00	0	39	0	2276458496	36	6154
2026-01-03 04:13:54.81	282.45	24.24	-32.0	-32.6	27.5	0.00e+00	0	39	0	2299527168	36	6161
2026-01-03 04:13:58.86	283.59	24.13	-32.2	-32.8	27.4	0.00e+00	0	39	0	2322595840	36	6275
2026-01-03 04:14:02.90	284.71	24.01	-32.0	-32.6	27.5	0.00e+00	0	39	0	2345664512	36	6142
2026-01-03 04:14:06.94	285.83	23.88	-32.2	-32.7	27.4	0.00e+00	0	39	0	2367684608	36	6221
2026-01-03 04:14:10.98	286.94	23.74	-32.7	-33.3	27.0	0.00e+00	0	39	0	2390753280	36	6662
2026-01-03 04:14:15.02	288.04	23.59	-32.3	-32.9	27.3	0.00e+00	0	39	0	2412773376	38	5664
2026-01-03 04:14:19.06	289.13	23.43	-32.2	-32.8	27.4	0.00e+00	0	39	0	2435842048	38	5627
2026-01-03 04:14:23.10	290.21	23.26	-32.3	-33.0	27.2	0.00e+00	0	39	0	2458910720	38	5721
2026-01-03 04:14:27.14	291.27	23.08	-32.5	-33.1	27.1	0.00e+00	0	39	0	2481979392	38	5811
2026-01-03 04:14:31.19	292.33	22.89	-32.7	-33.2	27.2	0.00e+00	0	39	0	2503999488	38	5867
2026-01-03 04:14:35.23	293.37	22.69	-32.6	-33.2	27.2	0.00e+00	0	39	0	2527068160	38	5895
2026-01-03 04:14:39.27	294.40	22.49	-32.7	-33.4	27.1	0.00e+00	0	39	0	2550136832	38	5971
2026-01-03 04:14:43.31	295.41	22.28	-32.8	-33.5	27.1	0.00e+00	0	39	0	2572156928	38	6072
2026-01-03 04:14:47.35	296.41	22.06	-32.8	-33.4	27.0	0.00e+00	0	39	0	2595225600	38	6021
2026-01-03 04:14:51.39	297.40	21.83	-32.8	-33.5	27.2	0.00e+00	0	39	0	2617245696	38	6047
2026-01-03 04:14:55.43	298.37	21.60	-32.9	-33.6	27.0	0.00e+00	0	39	0	2640314368	38	6158
2026-01-03 04:14:59.47	299.33	21.37	-32.8	-33.5	27.0	0.00e+00	0	39	0	2663383040	38	6096
2026-01-03 04:15:03.52	300.28	21.12	-33.2	-33.8	26.7	0.00e+00	0	39	0	2686451712	38	6276
2026-01-03 04:15:07.56	301.20	20.87	-33.0	-33.7	26.9	0.00e+00	0	39	0	2708471808	38	6214
2026-01-03 04:15:11.60	302.12	20.62	-32.9	-33.6	27.0	0.00e+00	0	39	0	2731540480	38	6130
2026-01-03 04:15:15.64	303.02	20.36	-33.3	-33.9	26.5	0.00e+00	0	39	0	2754609152	38	6374
2026-01-03 04:15:19.68	303.90	20.10	-33.1	-33.8	26.8	0.00e+00	0	39	0	2776629248	38	6277
2026-01-03 04:15:23.73	304.77	19.84	-33.2	-33.8	26.7	0.00e+00	0	39	0	2799697920	38	6277
2026-01-03 04:15:27.77	305.63	19.57	-33.2	-33.7	26.7	0.00e+00	0	39	0	2822766592	38	6231
2026-01-03 04:15:31.81	306.47	19.30	-33.5	-34.2	26.4	0.00e+00	0	39	0	2844786688	38	6613
2026-01-03 04:15:35.85	307.30	19.02	-33.6	-34.3	26.3	0.00e+00	0	39	0	2867855360	38	6624
2026-01-03 04:15:39.89	308.11	18.75	-33.8	-34.6	26.1	0.00e+00	0	39	0	2890924032	40	6107
2026-01-03 04:15:43.93	308.91	18.47	-33.8	-34.5	26.2	0.00e+00	0	39	0	2912944128	40	6048
2026-01-03 04:15:47.98	309.69	18.18	-33.9	-34.5	25.8	0.00e+00	0	39	0	2936012800	40	6045
2026-01-03 04:15:52.02	310.46	17.90	-33.9	-34.6	26.0	0.00e+00	0	39	0	2959081472	40	6121
2026-01-03 04:15:56.06	311.21	17.62	-33.9	-34.5	26.1	0.00e+00	0	39	0	2982150144	40	6063
2026-01-03 04:16:00.10	311.96	17.33	-34.1	-34.7	25.8	0.00e+00	0	39	0	3004170240	40	6191
2026-01-03 04:16:04.13	312.68	17.04	-33.9	-34.5	26.0	0.00e+00	0	39	0	3027238912	40	6077
2026-01-03 04:16:08.17	313.40	16.76	-34.1	-34.8	25.9	0.00e+00	0	39	0	3049259008	40	6246
2026-01-03 04:16:12.21	314.10	16.47	-34.6	-35.3	25.4	0.00e+00	0	39	0	3072327680	40	6691
2026-01-03 04:16:16.25	314.78	16.18	-34.4	-35.0	25.5	0.00e+00	0	39	0	3095396352	40	6450
2026-01-03 04:16:20.30	315.46	15.89	-34.5	-35.1	25.5	0.00e+00	0	39	0	3118465024	40	6494
2026-01-03 04:16:24.34	316.12	15.60	-34.5	-35.3	25.4	0.00e+00	0	39	0	3140485120	40	6616
2026-01-03 04:16:28.38	316.77	15.31	-34.5	-35.3	25.4	0.00e+00	0	39	0	3163553792	42	5900
2026-01-03 04:16:32.42	317.41	15.02	-34.6	-35.2	25.5	0.00e+00	0	39	0	3186622464	42	5843
2026-01-03 04:16:36.47	318.04	14.73	-34.8	-35.4	25.3	0.00e+00	0	39	0	3208642560	42	5997
2026-01-03 04:16:40.51	318.65	14.44	-34.9	-35.6	25.1	0.00e+00	0	39	0	3231711232	42	6127
2026-01-03 04:16:44.55	319.26	14.15	-34.7	-35.3	25.3	0.00e+00	0	39	0	3254779904	42	5957
2026-01-03 04:16:48.59	319.85	13.86	-34.6	-35.1	25.4	0.00e+00	0	39	0	3276800000	42	5818
2026-01-03 04:16:52.63	320.43	13.58	-34.8	-35.5	25.1	0.00e+00	0	39	0	3299868672	42	6080
2026-01-03 04:16:56.67	321.00	13.29	-35.3	-35.9	24.8	0.00e+00	0	39	0	3322937344	42	6356
2026-01-03 04:17:00.71	321.56	13.00	-35.3	-36.0	24.7	0.00e+00	0	39	0	3344957440	42	6442
2026-01-03 04:17:04.75	322.11	12.72	-35.4	-36.0	24.6	0.00e+00	0	39	0	3368026112	42	6413
2026-01-03 04:17:08.79	322.65	12.44	-35.3	-35.9	24.6	0.00e+00	0	39	0	3391094784	42	6390
2026-01-03 04:17:12.83	323.18	12.15	-35.5	-36.1	24.4	0.00e+00	0	39	0	3413114880	42	6539
2026-01-03 04:17:16.87	323.70	11.87	-35.7	-36.3	24.2	0.00e+00	0	39	0	3436183552	42	6662
2026-01-03 04:17:20.91	324.21	11.59	-35.5	-36.2	24.4	0.00e+00	0	39	0	3459252224	42	6557
2026-01-03 04:17:24.95	324.71	11.31	-35.6	-36.3	24.2	0.00e+00	0	39	0	3481272320	44	5911
2026-01-03 04:17:28.99	325.20	11.04	-35.8	-36.6	24.0	0.00e+00	0	39	0	3504340992	44	6132
2026-01-03 04:17:33.03	325.68	10.76	-36.2	-36.8	23.8	0.00e+00	0	39	0	3527409664	44	6266
2026-01-03 04:17:37.07	326.16	10.49	-35.9	-36.6	24.0	0.00e+00	0	39	0	3549429760	44	6165
2026-01-03 04:17:41.11	326.63	10.21	-35.8	-36.4	24.1	0.00e+00	0	39	0	3572498432	44	6033
2026-01-03 04:17:45.16	327.08	9.94	-35.9	-36.7	23.9	0.00e+00	0	39	0	3595567104	44	6191
2026-01-03 04:17:49.20	327.53	9.67	-35.8	-36.5	24.0	0.00e+00	0	39	0	3618635776	44	6052
2026-01-03 04:17:53.24	327.98	9.40	-35.9	-36.5	23.9	0.00e+00	0	39	0	3640655872	44	6075
2026-01-03 04:17:57.28	328.41	9.13	-36.1	-36.8	23.7	0.00e+00	0	39	0	3663724544	44	6246
2026-01-03 04:18:01.32	328.84	8.87	-36.2	-36.9	23.6	0.00e+00	0	39	0	3685744640	44	6333
2026-01-03 04:18:05.36	329.26	8.60	-36.6	-37.3	23.1	0.00e+00	0	39	0	3708813312	44	6657
2026-01-03 04:18:09.40	329.67	8.34	-36.9	-37.6	22.9	0.00e+00	0	39	0	3731881984	46	6173
2026-01-03 04:18:13.44	330.07	8.08	-36.7	-37.4	23.0	0.00e+00	0	39	0	3753902080	46	5982
2026-01-03 04:18:17.48	330.47	7.82	-37.0	-37.8	22.8	0.00e+00	0	39	0	3776970752	46	6252
2026-01-03 04:18:21.51	330.86	7.56	-37.1	-37.8	22.7	0.00e+00	0	39	0	3800039424	46	6293
2026-01-03 04:18:25.55	331.25	7.31	-37.0	-37.8	22.6	0.00e+00	0	39	0	3823108096	46	6282
2026-01-03 04:18:29.59	331.63	7.05	-37.3	-38.1	22.4	0.00e+00	0	39	0	3845128192	46	6489
2026-01-03 04:18:33.64	332.00	6.80	-37.8	-38.7	21.6	0.00e+00	0	39	0	3868196864	48	6221
2026-01-03 04:18:37.68	332.37	6.55	-37.2	-38.1	22.3	0.00e+00	0	39	0	3890216960	48	5781
2026-01-03 04:18:41.71	332.73	6.30	-37.0	-37.7	22.5	0.00e+00	0	39	0	3913285632	48	5547
2026-01-03 04:18:45.76	333.08	6.05	-37.4	-38.3	21.8	0.00e+00	0	39	0	3936354304	48	5949
2026-01-03 04:18:49.80	333.43	5.80	-38.1	-39.1	20.6	0.00e+00	0	39	0	3959422976	48	6497
2026-01-03 04:18:53.84	333.78	5.55	-39.9	-41.2	17.6	0.00e+00	0	39	0	3981443072	52	6565
2026-01-03 04:18:57.88	334.11	5.31	-42.4	-44.5	13.1	3.40e-06	0	39	0	4004511744	56	7646
2026-01-03 04:19:01.92	334.45	5.06	-43.7	-47.0	9.6	7.99e-03	0	39	0	4027580416	58	9078
2026-01-03 04:19:05.96	334.77	4.82	-44.6	-49.3	6.7	1.49e-01	0	39	0	4049600512	60	10546
2026-01-03 04:19:10.00	335.10	4.58	-45.1	-51.1	4.8	7.50e-01	0	39	0	4066377728	60	12902
2026-01-03 04:19:14.05	335.42	4.34	-45.3	-54.5	3.9	8.39e-01	0	39	104	4067426304	60	19200
2026-01-03 04:19:18.09	335.73	4.11	-45.4	-56.3	3.6	8.45e-01	0	39	104	4067426304	60	23723
2026-01-03 04:19:22.13	336.04	3.87	-45.5	-57.5	3.6	8.46e-01	0	40	104	4067426304	60	27148
2026-01-03 04:19:26.16	336.34	3.64	-45.6	-57.2	3.6	8.44e-01	0	40	104	4067426304	60	26298
2026-01-03 04:19:30.20	336.64	3.40	-45.4	-57.5	3.6	8.45e-01	0	40	104	4067426304	60	27083
2026-01-03 04:19:34.24	336.93	3.17	-45.4	-57.5	3.6	8.45e-01	0	40	104	4067426304	60	26995
2026-01-03 04:19:38.29	337.23	2.94	-45.4	-57.5	3.6	8.47e-01	0	40	104	4067426304	60	27106
2026-01-03 04:19:42.33	337.51	2.71	-50.2	-62.3	3.6	8.45e-01	0	40	104	4067426304	60	46847
2026-01-03 04:19:46.37	337.80	2.49	-50.4	-62.5	3.6	8.46e-01	0	39	104	4067426304	60	48129
2026-01-03 04:19:50.41	338.07	2.26	-50.2	-62.4	3.6	8.45e-01	0	40	104	4067426304	60	47616
2026-01-03 04:19:54.45	338.35	2.03	-50.3	-62.4	3.6	8.45e-01	0	40	104	4067426304	60	47743
2026-01-03 04:19:58.49	338.62	1.81	-50.3	-62.5	3.6	8.46e-01	0	40	104	4067426304	60	48057
2026-01-03 04:20:02.53	338.89	1.59	-50.3	-62.5	3.6	8.46e-01	0	40	104	4067426304	60	48031
2026-01-03 04:20:06.57	339.15	1.37	-50.3	-62.5	3.6	8.46e-01	0	40	104	4067426304	60	48274
2026-01-03 04:20:10.60	339.41	1.15	-50.3	-62.4	3.6	8.45e-01	0	40	104	4067426304	60	47893
2026-01-03 04:20:14.64	339.66	0.93	-50.4	-62.6	3.6	8.46e-01	0	39	104	4067426304	60	48487
2026-01-03 04:20:18.68	339.92	0.71	-50.4	-62.5	3.6	8.44e-01	0	39	104	4067426304	60	48427
2026-01-03 04:20:22.72	340.17	0.50	-50.3	-62.5	3.6	8.46e-01	0	40	104	4067426304	60	48166
2026-01-03 04:20:26.76	340.41	0.28	-50.5	-62.6	3.6	8.46e-01	0	40	104	4067426304	60	48525
2026-01-03 04:20:30.81	340.66	0.07	-50.6	-62.7	3.6	8.45e-01	0	40	104	4067426304	60	49442

#Closed at: 2026-01-03 04:20:33
#Recorded file [4067 MB]: D:/lorett/data/35029_260103_160614.dat