passes_logs/2026/01/03/R4.6S_Anadyr/R4.6S_Anadyr__20260103_005401_NOAA_21_JPSS-2_rec.log

#Pass ID: 20260103_005401_NOAA 21 (JPSS-2)
#Satellite: NOAA 21 (JPSS-2)
#Configuration: NOAA-21
#almurnet v.1.7.20251203
#Start time: 2026-01-03 00:54:03

#Version: 2.2.20231116
#Station: R4.6S_Anadyr
#Location: 177.4865 lon 64.73178 lat
#TLE: 1 54234U 22150A   26002.74826289  .00000196  00000+0  11365-3 0  9998
#TLE: 2 54234  98.7486 303.7970 0001197 349.3858  10.7292 14.19531423163070

#Time	Az	El	Level	Level2	SNR	BER	BlckErr	Temp	State	Recorded	gain1	gain2
2026-01-03 00:54:03.35	173.54	0.13	-50.2	-65.2	3.5	1.51e+00	0	36	0	0	60	65640
2026-01-03 00:54:07.38	173.64	0.37	-50.1	-63.1	3.5	1.52e+00	0	37	104	0	60	49959
2026-01-03 00:54:11.43	173.73	0.62	-50.2	-63.0	3.5	1.52e+00	0	38	104	0	60	49672
2026-01-03 00:54:15.47	173.83	0.86	-50.0	-62.9	3.5	1.52e+00	0	38	104	0	60	48770
2026-01-03 00:54:19.50	173.94	1.11	-48.8	-61.5	3.5	1.52e+00	0	38	104	0	60	41744
2026-01-03 00:54:23.55	174.04	1.36	-48.7	-61.4	3.5	1.52e+00	0	38	104	0	60	41161
2026-01-03 00:54:27.59	174.14	1.61	-48.7	-60.9	3.5	1.52e+00	0	38	104	0	60	38931
2026-01-03 00:54:31.63	174.25	1.86	-48.7	-61.1	3.5	1.52e+00	0	38	104	0	60	39710
2026-01-03 00:54:35.67	174.36	2.11	-48.7	-61.5	3.5	1.52e+00	0	38	104	0	60	41551
2026-01-03 00:54:39.70	174.46	2.37	-48.7	-61.6	3.5	1.52e+00	0	38	104	0	60	42058
2026-01-03 00:54:43.74	174.58	2.63	-48.7	-60.6	3.5	1.52e+00	0	38	104	0	60	37768
2026-01-03 00:54:47.78	174.69	2.89	-48.7	-60.7	3.5	1.52e+00	0	38	104	0	60	37936
2026-01-03 00:54:51.82	174.80	3.16	-47.8	-54.8	6.9	1.25e+00	0	38	104	0	60	19271
2026-01-03 00:54:55.86	174.92	3.42	-42.8	-44.7	15.9	0.00e+00	120	38	0	9437184	58	6737
2026-01-03 00:54:59.89	175.04	3.69	-39.6	-40.9	19.7	0.00e+00	122	38	0	22020096	52	6135
2026-01-03 00:55:03.93	175.16	3.96	-48.0	-55.1	5.3	5.34e-05	123	38	0	35651584	60	20080
2026-01-03 00:55:07.97	175.28	4.24	-42.2	-43.9	17.1	0.00e+00	123	38	0	44040192	58	6145
2026-01-03 00:55:12.02	175.40	4.51	-40.6	-41.9	18.9	0.00e+00	123	38	0	56623104	54	6189
2026-01-03 00:55:16.05	175.53	4.79	-40.9	-42.3	18.7	0.00e+00	123	38	0	69206016	54	6455
2026-01-03 00:55:20.10	175.66	5.08	-40.5	-41.9	18.9	0.00e+00	123	38	0	81788928	54	6144
2026-01-03 00:55:24.14	175.79	5.36	-39.6	-40.8	20.1	0.00e+00	123	38	0	95420416	52	6105
2026-01-03 00:55:28.18	175.92	5.65	-39.4	-40.6	20.3	0.00e+00	122	38	0	108003328	52	5988
2026-01-03 00:55:32.22	176.06	5.94	-39.3	-40.4	20.4	0.00e+00	122	38	0	120586240	52	5854
2026-01-03 00:55:36.26	176.19	6.24	-39.1	-40.3	20.8	0.00e+00	120	39	0	133169152	50	6442
2026-01-03 00:55:40.30	176.33	6.54	-38.7	-39.8	21.0	0.00e+00	122	38	0	145752064	50	6128
2026-01-03 00:55:44.35	176.48	6.84	-38.7	-39.8	21.1	0.00e+00	122	38	0	158334976	50	6108
2026-01-03 00:55:48.39	176.62	7.14	-38.4	-39.5	21.4	0.00e+00	120	38	0	170917888	50	5883
2026-01-03 00:55:52.43	176.77	7.45	-38.3	-39.3	21.6	0.00e+00	123	39	0	183500800	50	5772
2026-01-03 00:55:56.47	176.92	7.77	-38.2	-39.3	21.6	0.00e+00	122	39	0	196083712	50	5746
2026-01-03 00:56:00.52	177.08	8.08	-38.3	-39.3	21.8	0.00e+00	122	39	0	208666624	50	5775
2026-01-03 00:56:04.56	177.24	8.40	-37.9	-38.9	22.1	0.00e+00	123	39	0	221249536	50	5522
2026-01-03 00:56:08.59	177.40	8.73	-38.0	-39.1	22.0	0.00e+00	123	39	0	233832448	50	5611
2026-01-03 00:56:12.64	177.56	9.05	-37.7	-38.7	22.3	0.00e+00	122	39	0	246415360	48	6053
2026-01-03 00:56:16.68	177.73	9.39	-37.7	-38.7	22.3	0.00e+00	122	39	0	258998272	48	6056
2026-01-03 00:56:20.72	177.90	9.72	-37.5	-38.5	22.5	0.00e+00	120	39	0	271581184	48	5919
2026-01-03 00:56:24.76	178.07	10.06	-37.4	-38.4	22.6	0.00e+00	121	39	0	284164096	48	5812
2026-01-03 00:56:28.81	178.25	10.41	-37.3	-38.3	22.7	0.00e+00	120	39	0	296747008	48	5745
2026-01-03 00:56:32.85	178.44	10.76	-37.2	-38.2	22.8	0.00e+00	123	39	0	309329920	48	5660
2026-01-03 00:56:36.89	178.62	11.11	-37.1	-38.1	23.0	0.00e+00	123	39	0	321912832	48	5605
2026-01-03 00:56:40.93	178.81	11.47	-36.9	-37.8	23.2	0.00e+00	121	39	0	334495744	48	5458
2026-01-03 00:56:44.97	179.01	11.84	-36.8	-37.7	23.2	0.00e+00	120	39	0	347078656	48	5384
2026-01-03 00:56:49.01	179.21	12.21	-36.9	-37.9	23.2	0.00e+00	120	39	0	360710144	46	6136
2026-01-03 00:56:53.05	179.41	12.59	-36.6	-37.6	23.4	0.00e+00	122	39	0	372244480	46	5957
2026-01-03 00:56:57.10	179.62	12.97	-36.7	-37.6	23.4	0.00e+00	122	39	0	385875968	46	5986
2026-01-03 00:57:01.14	179.84	13.35	-36.7	-37.6	23.4	0.00e+00	122	39	0	398458880	46	5970
2026-01-03 00:57:05.19	180.06	13.75	-36.4	-37.3	23.6	0.00e+00	122	39	0	411041792	46	5789
2026-01-03 00:57:09.23	180.28	14.15	-36.3	-37.2	23.7	0.00e+00	122	39	0	423624704	46	5720
2026-01-03 00:57:13.27	180.52	14.55	-36.2	-37.1	23.8	0.00e+00	122	39	0	436207616	46	5628
2026-01-03 00:57:17.31	180.75	14.96	-36.2	-37.2	23.8	0.00e+00	122	39	0	448790528	46	5667
2026-01-03 00:57:21.35	181.00	15.38	-36.1	-37.0	23.9	0.00e+00	122	39	0	461373440	46	5568
2026-01-03 00:57:25.39	181.25	15.81	-36.3	-37.2	23.8	0.00e+00	123	39	0	473956352	46	5690
2026-01-03 00:57:29.43	181.50	16.24	-36.1	-37.0	23.9	0.00e+00	122	39	0	486539264	46	5582
2026-01-03 00:57:33.48	181.77	16.68	-36.3	-37.2	23.8	0.00e+00	122	39	0	499122176	46	5669
2026-01-03 00:57:37.52	182.04	17.13	-36.1	-37.0	24.0	0.00e+00	122	39	0	511705088	46	5563
2026-01-03 00:57:41.56	182.32	17.58	-36.1	-37.0	24.0	0.00e+00	122	39	0	524288000	46	5569
2026-01-03 00:57:45.60	182.61	18.05	-36.2	-37.2	23.9	0.00e+00	122	39	0	536870912	46	5660
2026-01-03 00:57:49.65	182.91	18.52	-36.3	-37.2	23.8	0.00e+00	123	39	0	549453824	46	5719
2026-01-03 00:57:53.69	183.21	19.00	-36.4	-37.3	23.7	0.00e+00	123	39	0	562036736	46	5777
2026-01-03 00:57:57.73	183.52	19.48	-36.3	-37.2	23.8	0.00e+00	122	39	0	574619648	46	5686
2026-01-03 00:58:01.77	183.85	19.98	-36.4	-37.3	23.8	0.00e+00	123	39	0	587202560	46	5766
2026-01-03 00:58:05.81	184.18	20.49	-36.1	-37.0	24.0	0.00e+00	122	39	0	599785472	46	5547
2026-01-03 00:58:09.85	184.53	21.00	-36.0	-36.9	24.0	0.00e+00	123	39	0	612368384	46	5488
2026-01-03 00:58:13.89	184.88	21.53	-35.6	-36.5	24.3	0.00e+00	123	39	0	624951296	44	5864
2026-01-03 00:58:17.93	185.25	22.06	-35.3	-36.2	24.4	0.00e+00	123	39	0	637534208	44	5668
2026-01-03 00:58:21.97	185.63	22.61	-34.9	-35.7	24.9	0.00e+00	122	39	0	651165696	44	5399
2026-01-03 00:58:26.02	186.03	23.17	-34.9	-35.8	24.9	0.00e+00	122	39	0	663748608	42	6073
2026-01-03 00:58:30.05	186.43	23.73	-35.0	-35.9	24.8	0.00e+00	122	39	0	676331520	42	6147
2026-01-03 00:58:34.10	186.86	24.31	-34.9	-35.8	24.9	0.00e+00	123	39	0	688914432	42	6106
2026-01-03 00:58:38.14	187.29	24.90	-34.9	-35.8	24.9	0.00e+00	123	39	0	701497344	42	6081
2026-01-03 00:58:42.18	187.75	25.50	-35.3	-36.2	24.6	0.00e+00	122	39	0	714080256	42	6408
2026-01-03 00:58:46.22	188.22	26.12	-35.5	-36.4	24.4	0.00e+00	123	39	0	726663168	42	6549
2026-01-03 00:58:50.26	188.71	26.74	-35.7	-36.6	24.2	0.00e+00	123	39	0	739246080	44	5982
2026-01-03 00:58:54.30	189.21	27.38	-35.9	-36.8	24.2	0.00e+00	122	39	0	751828992	44	6096
2026-01-03 00:58:58.35	189.74	28.03	-36.4	-37.3	23.7	0.00e+00	122	39	0	764411904	44	6497
2026-01-03 00:59:02.39	190.29	28.70	-36.6	-37.5	23.2	0.00e+00	123	39	0	776994816	44	6641
2026-01-03 00:59:06.43	190.87	29.38	-36.4	-37.4	23.5	0.00e+00	123	39	0	789577728	44	6526
2026-01-03 00:59:10.47	191.46	30.07	-36.3	-37.3	23.6	0.00e+00	122	39	0	802160640	44	6426
2026-01-03 00:59:14.51	192.08	30.77	-36.1	-37.1	23.8	0.00e+00	120	39	0	814743552	44	6282
2026-01-03 00:59:18.55	192.73	31.49	-35.7	-36.6	24.4	0.00e+00	122	39	0	827326464	44	5939
2026-01-03 00:59:22.60	193.41	32.22	-35.9	-36.8	24.3	0.00e+00	123	39	0	839909376	44	6098
2026-01-03 00:59:26.64	194.12	32.97	-36.1	-37.0	24.1	0.00e+00	123	39	0	852492288	44	6229
2026-01-03 00:59:30.68	194.86	33.73	-36.2	-37.1	24.0	0.00e+00	122	39	0	865075200	44	6334
2026-01-03 00:59:34.72	195.64	34.50	-37.1	-38.1	23.3	0.00e+00	122	39	0	877658112	46	6309
2026-01-03 00:59:38.76	196.45	35.29	-37.8	-38.8	22.6	0.00e+00	123	39	0	890241024	48	6114
2026-01-03 00:59:42.80	197.30	36.09	-37.6	-38.6	22.8	0.00e+00	122	39	0	902823936	48	5939
2026-01-03 00:59:46.84	198.20	36.90	-37.8	-38.8	22.8	0.00e+00	122	39	0	915406848	48	6065
2026-01-03 00:59:50.88	199.13	37.72	-37.2	-38.2	23.3	0.00e+00	123	39	0	929038336	48	5661
2026-01-03 00:59:54.92	200.12	38.56	-37.5	-38.5	23.0	0.00e+00	122	39	0	941621248	48	5891
2026-01-03 00:59:58.96	201.16	39.41	-37.9	-38.8	22.8	0.00e+00	122	39	0	953155584	48	6117
2026-01-03 01:00:03.00	202.26	40.27	-38.4	-39.5	22.2	0.00e+00	123	39	0	966787072	48	6587
2026-01-03 01:00:07.04	203.41	41.14	-38.4	-39.4	22.1	0.00e+00	121	39	0	979369984	48	6547
2026-01-03 01:00:11.08	204.62	42.01	-38.8	-39.9	21.9	0.00e+00	123	39	0	991952896	50	6170
2026-01-03 01:00:15.13	205.91	42.89	-38.7	-39.8	21.8	0.00e+00	123	39	0	1004535808	50	6070
2026-01-03 01:00:19.17	207.26	43.78	-39.2	-40.3	21.6	0.00e+00	123	39	0	1017118720	50	6470
2026-01-03 01:00:23.20	208.69	44.66	-38.7	-39.8	21.9	0.00e+00	123	39	0	1029701632	50	6097
2026-01-03 01:00:27.25	210.20	45.55	-38.3	-39.3	22.3	0.00e+00	122	39	0	1042284544	50	5783
2026-01-03 01:00:31.29	211.80	46.44	-38.3	-39.3	21.9	0.00e+00	123	39	0	1054867456	50	5788
2026-01-03 01:00:35.33	213.49	47.31	-38.8	-39.8	22.0	0.00e+00	123	39	0	1067450368	50	6117
2026-01-03 01:00:39.37	215.27	48.18	-38.1	-39.1	22.5	0.00e+00	123	39	0	1080033280	50	5603
2026-01-03 01:00:43.41	217.16	49.03	-37.9	-38.9	22.6	0.00e+00	120	39	0	1092616192	48	6139
2026-01-03 01:00:47.45	219.14	49.87	-38.1	-39.1	22.3	0.00e+00	122	39	0	1105199104	48	6300
2026-01-03 01:00:51.50	221.25	50.68	-38.0	-39.0	22.5	0.00e+00	122	39	0	1117782016	48	6255
2026-01-03 01:00:55.54	223.46	51.47	-37.5	-38.5	23.1	0.00e+00	122	39	0	1130364928	48	5889
2026-01-03 01:00:59.58	225.79	52.22	-36.8	-37.7	23.7	0.00e+00	123	39	0	1142947840	48	5380
2026-01-03 01:01:03.62	228.23	52.93	-37.1	-38.0	23.3	0.00e+00	123	39	0	1155530752	46	6267
2026-01-03 01:01:07.66	230.79	53.59	-37.2	-38.1	23.3	0.00e+00	122	39	0	1168113664	46	6331
2026-01-03 01:01:11.71	233.47	54.21	-36.8	-37.7	23.6	0.00e+00	122	39	0	1180696576	46	6029
2026-01-03 01:01:15.75	236.26	54.76	-36.2	-37.1	24.1	0.00e+00	120	39	0	1193279488	46	5616
2026-01-03 01:01:19.78	239.14	55.25	-36.5	-37.5	23.8	0.00e+00	123	39	0	1205862400	46	5875
2026-01-03 01:01:23.82	242.12	55.68	-36.0	-36.9	24.2	0.00e+00	123	39	0	1219493888	46	5508
2026-01-03 01:01:27.87	245.19	56.03	-36.3	-37.3	23.7	0.00e+00	123	39	0	1232076800	46	5753
2026-01-03 01:01:31.90	248.32	56.30	-36.0	-37.0	24.2	0.00e+00	123	39	0	1244659712	46	5534
2026-01-03 01:01:35.95	251.51	56.48	-35.7	-36.6	24.1	0.00e+00	123	39	0	1257242624	44	5983
2026-01-03 01:01:39.99	254.72	56.59	-37.1	-38.0	23.4	0.00e+00	122	39	0	1269825536	46	6260
2026-01-03 01:01:44.03	257.95	56.60	-35.9	-36.8	24.3	0.00e+00	120	39	0	1282408448	46	5431
2026-01-03 01:01:48.07	261.18	56.53	-36.2	-37.1	24.1	0.00e+00	120	39	0	1294991360	46	5637
2026-01-03 01:01:52.12	264.38	56.38	-36.2	-37.1	23.9	0.00e+00	120	39	0	1307574272	46	5606
2026-01-03 01:01:56.16	267.54	56.14	-35.7	-36.5	24.4	0.00e+00	123	40	0	1320157184	44	5925
2026-01-03 01:02:00.20	270.63	55.82	-36.2	-37.1	23.9	0.00e+00	123	39	0	1332740096	44	6344
2026-01-03 01:02:04.24	273.64	55.43	-36.9	-37.8	23.8	0.00e+00	123	40	0	1345323008	46	6110
2026-01-03 01:02:08.28	276.56	54.96	-37.4	-38.4	23.2	0.00e+00	123	39	0	1357905920	46	6510
2026-01-03 01:02:12.32	279.38	54.43	-36.8	-37.8	23.7	0.00e+00	123	39	0	1370488832	48	5411
2026-01-03 01:02:16.37	282.10	53.84	-36.6	-37.6	23.9	0.00e+00	122	40	0	1383071744	46	5935
2026-01-03 01:02:20.41	284.70	53.19	-36.3	-37.2	24.0	0.00e+00	123	40	0	1395654656	46	5692
2026-01-03 01:02:24.45	287.19	52.50	-37.6	-38.6	22.9	0.00e+00	123	40	0	1408237568	46	6702
2026-01-03 01:02:28.49	289.55	51.77	-37.2	-38.2	23.4	0.00e+00	122	39	0	1420820480	48	5661
2026-01-03 01:02:32.53	291.81	51.00	-37.9	-38.9	22.7	0.00e+00	123	40	0	1433403392	48	6201
2026-01-03 01:02:36.57	293.94	50.20	-37.5	-38.5	22.9	0.00e+00	123	40	0	1445986304	48	5918
2026-01-03 01:02:40.61	295.97	49.38	-38.2	-39.2	22.5	0.00e+00	122	40	0	1458569216	48	6395
2026-01-03 01:02:44.65	297.89	48.54	-38.7	-39.7	21.9	0.00e+00	122	40	0	1471152128	50	6037
2026-01-03 01:02:48.70	299.71	47.68	-38.9	-39.9	22.1	0.00e+00	120	40	0	1483735040	50	6184
2026-01-03 01:02:52.74	301.43	46.81	-38.7	-39.7	21.9	0.00e+00	120	40	0	1496317952	50	6059
2026-01-03 01:02:56.78	303.06	45.93	-38.3	-39.3	22.6	0.00e+00	123	40	0	1509949440	50	5732
2026-01-03 01:03:00.81	304.60	45.05	-39.1	-40.1	21.7	0.00e+00	123	40	0	1522532352	50	6322
2026-01-03 01:03:04.86	306.06	44.16	-39.4	-40.5	21.0	0.00e+00	122	40	0	1535115264	50	6609
2026-01-03 01:03:08.90	307.44	43.28	-37.9	-38.9	22.7	0.00e+00	122	40	0	1547698176	50	5473
2026-01-03 01:03:12.94	308.75	42.40	-39.0	-40.0	21.9	0.00e+00	123	40	0	1560281088	50	6254
2026-01-03 01:03:16.98	309.99	41.53	-38.4	-39.4	22.3	0.00e+00	123	40	0	1572864000	50	5797
2026-01-03 01:03:21.03	311.17	40.66	-38.3	-39.3	22.4	0.00e+00	123	40	0	1585446912	50	5766
2026-01-03 01:03:25.07	312.28	39.80	-38.2	-39.2	22.2	0.00e+00	122	40	0	1598029824	50	5709
2026-01-03 01:03:29.11	313.34	38.95	-38.5	-39.6	22.3	0.00e+00	123	40	0	1610612736	50	5944
2026-01-03 01:03:33.15	314.35	38.12	-38.2	-39.2	22.6	0.00e+00	120	40	0	1623195648	50	5714
2026-01-03 01:03:37.19	315.30	37.29	-37.9	-38.9	22.9	0.00e+00	123	40	0	1635778560	50	5487
2026-01-03 01:03:41.23	316.21	36.48	-37.1	-38.0	23.6	0.00e+00	123	40	0	1648361472	48	5589
2026-01-03 01:03:45.27	317.08	35.68	-37.3	-38.2	23.3	0.00e+00	123	40	0	1660944384	48	5724
2026-01-03 01:03:49.31	317.91	34.89	-37.1	-38.0	23.6	0.00e+00	123	40	0	1673527296	48	5566
2026-01-03 01:03:53.36	318.70	34.11	-37.1	-38.0	23.4	0.00e+00	123	40	0	1686110208	48	5591
2026-01-03 01:03:57.40	319.46	33.35	-36.4	-37.3	24.1	0.00e+00	122	40	0	1698693120	46	5775
2026-01-03 01:04:01.44	320.18	32.60	-37.0	-38.0	23.5	0.00e+00	121	40	0	1711276032	46	6224
2026-01-03 01:04:05.48	320.87	31.87	-36.9	-37.9	23.4	0.00e+00	123	40	0	1723858944	46	6143
2026-01-03 01:04:09.52	321.53	31.15	-35.9	-36.8	24.3	0.00e+00	122	40	0	1736441856	46	5449
2026-01-03 01:04:13.56	322.16	30.44	-35.3	-36.2	24.7	0.00e+00	122	40	0	1749024768	44	5671
2026-01-03 01:04:17.60	322.76	29.75	-35.7	-36.6	24.4	0.00e+00	122	40	0	1761607680	44	5988
2026-01-03 01:04:21.64	323.35	29.07	-36.2	-37.1	23.9	0.00e+00	123	40	0	1774190592	44	6332
2026-01-03 01:04:25.69	323.91	28.40	-36.7	-37.6	23.5	0.00e+00	122	40	0	1786773504	44	6693
2026-01-03 01:04:29.73	324.44	27.75	-36.3	-37.3	23.8	0.00e+00	122	40	0	1800404992	44	6442
2026-01-03 01:04:33.77	324.96	27.11	-36.1	-37.0	24.0	0.00e+00	123	40	0	1812987904	44	6229
2026-01-03 01:04:37.81	325.45	26.48	-36.1	-37.0	23.9	0.00e+00	123	40	0	1825570816	44	6245
2026-01-03 01:04:41.85	325.93	25.87	-36.1	-37.0	23.9	0.00e+00	123	40	0	1838153728	44	6257
2026-01-03 01:04:45.89	326.39	25.27	-35.7	-36.7	24.3	0.00e+00	121	40	0	1850736640	44	5995
2026-01-03 01:04:49.93	326.84	24.67	-35.5	-36.4	24.5	0.00e+00	123	40	0	1863319552	44	5829
2026-01-03 01:04:53.98	327.27	24.09	-35.6	-36.5	24.5	0.00e+00	123	40	0	1875902464	44	5879
2026-01-03 01:04:58.01	327.68	23.52	-35.8	-36.7	24.4	0.00e+00	122	40	0	1888485376	44	6019
2026-01-03 01:05:02.05	328.08	22.97	-35.9	-36.8	24.2	0.00e+00	123	40	0	1901068288	44	6134
2026-01-03 01:05:06.09	328.47	22.42	-36.1	-37.0	24.0	0.00e+00	122	40	0	1913651200	44	6273
2026-01-03 01:05:10.13	328.84	21.88	-36.1	-37.0	24.1	0.00e+00	122	40	0	1926234112	44	6220
2026-01-03 01:05:14.17	329.21	21.36	-36.0	-36.9	24.1	0.00e+00	123	40	0	1938817024	44	6145
2026-01-03 01:05:18.21	329.56	20.84	-35.7	-36.6	24.2	0.00e+00	120	40	0	1951399936	44	5993
2026-01-03 01:05:22.25	329.90	20.33	-35.9	-36.8	24.1	0.00e+00	122	40	0	1963982848	44	6114
2026-01-03 01:05:26.30	330.23	19.83	-35.8	-36.7	24.2	0.00e+00	120	40	0	1976565760	44	6057
2026-01-03 01:05:30.34	330.55	19.34	-35.9	-36.8	24.3	0.00e+00	122	40	0	1989148672	44	6103
2026-01-03 01:05:34.37	330.86	18.86	-35.9	-36.8	24.2	0.00e+00	123	40	0	2001731584	44	6093
2026-01-03 01:05:38.42	331.16	18.39	-36.3	-37.2	23.6	0.00e+00	122	40	0	2014314496	44	6402
2026-01-03 01:05:42.46	331.45	17.92	-36.5	-37.4	23.4	0.00e+00	122	39	0	2026897408	44	6569
2026-01-03 01:05:46.50	331.74	17.47	-36.6	-37.5	23.2	0.00e+00	122	39	0	2039480320	44	6631
2026-01-03 01:05:50.54	332.01	17.02	-36.9	-37.9	23.1	0.00e+00	123	39	0	2052063232	46	6152
2026-01-03 01:05:54.58	332.28	16.58	-36.9	-37.9	23.0	0.00e+00	123	40	0	2064646144	46	6156
2026-01-03 01:05:58.63	332.55	16.14	-37.0	-38.0	23.0	0.00e+00	122	39	0	2077229056	46	6244
2026-01-03 01:06:02.67	332.80	15.72	-36.8	-37.8	23.2	0.00e+00	123	39	0	2090860544	46	6076
2026-01-03 01:06:06.71	333.05	15.30	-36.9	-37.8	23.2	0.00e+00	123	40	0	2102394880	46	6134
2026-01-03 01:06:10.75	333.29	14.89	-36.9	-37.8	23.2	0.00e+00	123	39	0	2116026368	46	6119
2026-01-03 01:06:14.79	333.53	14.48	-36.9	-37.9	23.1	0.00e+00	120	39	0	2128609280	46	6152
2026-01-03 01:06:18.84	333.76	14.08	-37.0	-38.0	23.1	0.00e+00	120	39	0	2141192192	46	6240
2026-01-03 01:06:22.88	333.98	13.69	-37.3	-38.2	22.9	0.00e+00	122	39	0	2153775104	46	6417
2026-01-03 01:06:26.92	334.20	13.30	-37.3	-38.3	22.8	0.00e+00	123	39	0	2166358016	46	6429
2026-01-03 01:06:30.96	334.42	12.92	-37.3	-38.3	23.0	0.00e+00	123	39	0	2178940928	46	6425
2026-01-03 01:06:35.01	334.63	12.54	-37.2	-38.1	23.0	0.00e+00	123	39	0	2191523840	46	6338
2026-01-03 01:06:39.05	334.83	12.17	-37.1	-38.1	23.0	0.00e+00	123	39	0	2204106752	46	6287
2026-01-03 01:06:43.09	335.03	11.80	-37.2	-38.1	23.0	0.00e+00	120	39	0	2216689664	46	6316
2026-01-03 01:06:47.14	335.23	11.44	-37.2	-38.1	22.9	0.00e+00	123	39	0	2229272576	46	6341
2026-01-03 01:06:51.18	335.42	11.08	-37.3	-38.3	22.7	0.00e+00	123	39	0	2241855488	46	6468
2026-01-03 01:06:55.22	335.61	10.73	-37.5	-38.5	22.6	0.00e+00	122	39	0	2254438400	46	6609
2026-01-03 01:06:59.27	335.79	10.39	-37.7	-38.7	22.4	0.00e+00	122	39	0	2267021312	46	6749
2026-01-03 01:07:03.30	335.97	10.05	-37.8	-38.8	22.3	0.00e+00	123	39	0	2279604224	48	6080
2026-01-03 01:07:07.34	336.14	9.71	-37.9	-38.9	22.2	0.00e+00	123	39	0	2292187136	48	6203
2026-01-03 01:07:11.39	336.32	9.38	-38.0	-39.0	22.1	0.00e+00	122	39	0	2304770048	48	6277
2026-01-03 01:07:15.43	336.48	9.05	-38.1	-39.2	21.9	0.00e+00	120	39	0	2317352960	48	6379
2026-01-03 01:07:19.47	336.65	8.72	-38.3	-39.4	21.7	0.00e+00	122	39	0	2329935872	48	6536
2026-01-03 01:07:23.51	336.81	8.40	-38.4	-39.4	21.5	0.00e+00	123	39	0	2342518784	48	6557
2026-01-03 01:07:27.55	336.97	8.09	-38.6	-39.7	21.2	0.00e+00	123	39	0	2355101696	48	6746
2026-01-03 01:07:31.60	337.13	7.77	-38.8	-39.9	21.1	0.00e+00	123	39	0	2367684608	50	6165
2026-01-03 01:07:35.64	337.28	7.46	-38.7	-39.9	21.1	0.00e+00	122	39	0	2381316096	50	6142
2026-01-03 01:07:39.68	337.43	7.16	-38.8	-40.0	20.9	0.00e+00	122	39	0	2393899008	50	6206
2026-01-03 01:07:43.72	337.58	6.86	-39.0	-40.2	20.7	0.00e+00	123	39	0	2406481920	50	6377
2026-01-03 01:07:47.76	337.72	6.56	-39.0	-40.2	20.6	0.00e+00	122	39	0	2419064832	50	6396
2026-01-03 01:07:51.80	337.86	6.26	-39.0	-40.2	20.6	0.00e+00	122	39	0	2431647744	50	6387
2026-01-03 01:07:55.84	338.00	5.97	-38.9	-40.1	20.5	0.00e+00	123	39	0	2444230656	50	6348
2026-01-03 01:07:59.88	338.14	5.68	-39.5	-40.8	19.8	0.00e+00	122	39	0	2456813568	50	6871
2026-01-03 01:08:03.92	338.28	5.40	-40.5	-42.0	18.3	0.00e+00	122	39	0	2469396480	52	7004
2026-01-03 01:08:07.97	338.41	5.11	-41.7	-43.6	16.0	0.00e+00	123	39	0	2481979392	54	7547
2026-01-03 01:08:12.01	338.54	4.83	-42.5	-45.0	14.0	1.50e-06	123	39	0	2494562304	56	7856
2026-01-03 01:08:16.05	338.67	4.55	-43.9	-47.8	10.2	3.04e-03	123	39	0	2507145216	60	8642
2026-01-03 01:08:20.09	338.80	4.28	-44.8	-51.1	5.8	3.07e-01	122	39	0	2519728128	60	12602
2026-01-03 01:08:24.13	338.92	4.01	-45.1	-55.9	3.6	1.48e+00	0	39	104	2519728128	60	21850
2026-01-03 01:08:28.17	339.04	3.74	-45.2	-57.6	3.5	1.52e+00	0	39	104	2519728128	60	26716
2026-01-03 01:08:32.22	339.17	3.47	-45.3	-57.8	3.5	1.51e+00	0	39	104	2519728128	60	27286
2026-01-03 01:08:36.26	339.28	3.21	-45.4	-58.3	3.5	1.52e+00	0	39	104	2519728128	60	28986
2026-01-03 01:08:40.30	339.40	2.95	-45.4	-58.3	3.5	1.52e+00	0	39	104	2519728128	60	28883
2026-01-03 01:08:44.33	339.52	2.69	-50.1	-62.9	3.5	1.52e+00	0	39	104	2519728128	60	49278
2026-01-03 01:08:48.37	339.63	2.43	-50.3	-63.1	3.5	1.52e+00	0	39	104	2519728128	60	50055
2026-01-03 01:08:52.41	339.74	2.18	-50.1	-63.0	3.5	1.52e+00	0	39	104	2519728128	60	49414
2026-01-03 01:08:56.45	339.85	1.92	-50.1	-63.0	3.5	1.52e+00	0	39	104	2519728128	60	49701
2026-01-03 01:09:00.49	339.96	1.67	-50.1	-63.0	3.5	1.51e+00	0	39	104	2519728128	60	49666
2026-01-03 01:09:04.54	340.07	1.42	-50.2	-63.0	3.5	1.52e+00	0	39	104	2519728128	60	49690
2026-01-03 01:09:08.57	340.18	1.18	-50.2	-63.0	3.5	1.52e+00	0	39	104	2519728128	60	49391
2026-01-03 01:09:12.61	340.28	0.93	-50.2	-63.1	3.5	1.51e+00	0	39	104	2519728128	60	49936
2026-01-03 01:09:16.66	340.38	0.69	-50.2	-63.0	3.5	1.52e+00	0	39	104	2519728128	60	49534
2026-01-03 01:09:20.70	340.49	0.45	-50.1	-63.0	3.5	1.52e+00	0	39	104	2519728128	60	49575
2026-01-03 01:09:24.74	340.59	0.21	-50.1	-63.0	3.5	1.52e+00	0	39	104	2519728128	60	49641
2026-01-03 01:09:28.78	340.69	-0.03	-50.1	-63.0	3.5	1.51e+00	0	39	104	2519728128	60	49599

#Closed at: 2026-01-03 01:09:30
#Recorded file [2519 MB]: D:/lorett/data/35029_260103_125403.dat