passes_logs/2026/01/03/R4.6S_Anadyr/R4.6S_Anadyr__20260103_032857_NOAA_20_JPSS-1_rec.log

#Pass ID: 20260103_032857_NOAA 20 (JPSS-1)
#Satellite: NOAA 20 (JPSS-1)
#Configuration: NOAA 20
#almurnet v.1.7.20251203
#Start time: 2026-01-03 03:28:59

#Version: 2.2.20231116
#Station: R4.6S_Anadyr
#Location: 177.4865 lon 64.73178 lat
#TLE: 1 43013U 17073A   26002.78363558  .00000190  00000+0  11110-3 0  9990
#TLE: 2 43013  98.7623 303.8528 0001892  57.0664 303.0694 14.19532716421006

#Time	Az	El	Level	Level2	SNR	BER	BlckErr	Temp	State	Recorded	gain1	gain2
2026-01-03 03:28:59.54	245.40	0.07	-49.9	-64.9	3.5	1.51e+00	0	37	0	0	60	63235
2026-01-03 03:29:02.57	245.70	0.19	-50.3	-65.5	3.6	1.51e+00	0	38	104	0	60	68050
2026-01-03 03:29:05.60	246.00	0.31	-50.1	-65.3	3.6	1.51e+00	0	38	104	0	60	66617
2026-01-03 03:29:08.63	246.30	0.42	-50.1	-65.3	3.6	1.51e+00	0	38	104	0	60	66450
2026-01-03 03:29:11.66	246.60	0.54	-49.9	-65.1	3.6	1.51e+00	0	38	104	0	60	65369
2026-01-03 03:29:14.69	246.91	0.66	-49.2	-64.4	3.6	1.51e+00	0	38	104	0	60	60133
2026-01-03 03:29:17.72	247.21	0.78	-48.3	-63.4	3.6	1.51e+00	0	38	104	0	60	53550
2026-01-03 03:29:20.75	247.52	0.90	-48.2	-63.4	3.6	1.51e+00	0	38	104	0	60	53271
2026-01-03 03:29:23.78	247.83	1.02	-48.2	-63.4	3.6	1.51e+00	0	38	104	0	60	53361
2026-01-03 03:29:26.81	248.15	1.14	-48.2	-63.4	3.6	1.51e+00	0	38	104	0	60	53505
2026-01-03 03:29:29.84	248.47	1.25	-48.2	-63.3	3.6	1.51e+00	0	38	104	0	60	52893
2026-01-03 03:29:32.87	248.78	1.37	-48.2	-63.3	3.6	1.51e+00	0	38	104	0	60	52888
2026-01-03 03:29:35.90	249.11	1.49	-48.2	-63.3	3.6	1.51e+00	0	38	104	0	60	52819
2026-01-03 03:29:38.93	249.43	1.60	-48.2	-63.3	3.6	1.51e+00	0	38	104	0	60	52987
2026-01-03 03:29:41.96	249.76	1.72	-48.2	-63.3	3.6	1.51e+00	0	38	104	0	60	53059
2026-01-03 03:29:44.99	250.09	1.84	-48.2	-63.3	3.6	1.51e+00	0	38	104	0	60	53020
2026-01-03 03:29:48.02	250.42	1.95	-48.2	-63.2	3.6	1.51e+00	0	39	104	0	60	52371
2026-01-03 03:29:51.05	250.75	2.07	-48.2	-63.3	3.6	1.51e+00	0	39	104	0	60	52984
2026-01-03 03:29:54.08	251.09	2.19	-48.2	-63.3	3.6	1.51e+00	0	39	104	0	60	52894
2026-01-03 03:29:57.11	251.43	2.30	-48.2	-63.3	3.6	1.51e+00	0	39	104	0	60	52661
2026-01-03 03:30:00.14	251.77	2.42	-48.1	-63.2	3.6	1.51e+00	0	39	104	0	60	51978
2026-01-03 03:30:03.17	252.11	2.53	-48.2	-63.3	3.6	1.51e+00	0	38	104	0	60	52808
2026-01-03 03:30:06.20	252.46	2.65	-48.1	-63.1	3.6	1.51e+00	0	39	104	0	60	51820
2026-01-03 03:30:09.23	252.81	2.76	-48.1	-62.3	3.6	1.51e+00	0	39	104	0	60	47215
2026-01-03 03:30:12.27	253.16	2.87	-47.9	-58.9	3.9	1.50e+00	0	39	104	0	60	31745
2026-01-03 03:30:15.29	253.51	2.99	-46.9	-52.5	9.2	2.17e-02	92	39	0	3145728	60	15325
2026-01-03 03:30:18.32	253.87	3.10	-47.3	-54.2	8.9	8.22e-01	92	39	104	5242880	60	18554
2026-01-03 03:30:21.35	254.23	3.21	-42.2	-43.9	17.8	3.35e-01	0	39	104	5242880	58	6337
2026-01-03 03:30:24.38	254.59	3.32	-42.3	-44.0	18.7	0.00e+00	90	39	0	9437184	58	6409
2026-01-03 03:30:27.41	254.96	3.43	-41.5	-42.9	19.7	0.00e+00	92	39	0	15728640	56	6362
2026-01-03 03:30:30.44	255.32	3.54	-41.9	-43.4	19.3	0.00e+00	92	39	0	20971520	56	6729
2026-01-03 03:30:33.47	255.69	3.66	-42.5	-44.2	18.3	0.00e+00	88	39	0	27262976	56	7342
2026-01-03 03:30:36.49	256.07	3.76	-42.1	-43.7	18.9	0.00e+00	90	39	0	32505856	58	6213
2026-01-03 03:30:39.53	256.44	3.87	-43.2	-45.1	17.6	0.00e+00	92	39	0	38797312	58	7304
2026-01-03 03:30:42.55	256.82	3.98	-42.6	-44.3	18.3	0.00e+00	7	39	0	44040192	58	6656
2026-01-03 03:30:45.58	257.20	4.09	-42.1	-43.7	19.0	0.00e+00	90	39	0	49283072	58	6227
2026-01-03 03:30:48.61	257.58	4.20	-41.8	-43.3	19.5	0.00e+00	92	39	0	55574528	56	6662
2026-01-03 03:30:51.64	257.97	4.31	-41.4	-42.7	19.9	0.00e+00	12	39	0	60817408	56	6231
2026-01-03 03:30:54.67	258.36	4.41	-41.8	-43.2	19.7	0.00e+00	91	39	0	67108864	56	6575
2026-01-03 03:30:57.70	258.75	4.52	-41.9	-43.4	19.5	0.00e+00	90	39	0	72351744	56	6760
2026-01-03 03:31:00.73	259.14	4.62	-42.5	-44.1	18.8	0.00e+00	37	39	0	77594624	56	7283
2026-01-03 03:31:03.75	259.54	4.73	-42.1	-43.6	19.2	0.00e+00	92	39	0	83886080	56	6882
2026-01-03 03:31:06.78	259.94	4.83	-41.8	-43.3	19.5	0.00e+00	92	39	0	89128960	56	6645
2026-01-03 03:31:09.81	260.34	4.93	-41.9	-43.3	19.5	0.00e+00	92	39	0	95420416	56	6684
2026-01-03 03:31:12.84	260.75	5.03	-42.0	-43.5	19.3	0.00e+00	10	39	0	100663296	56	6837
2026-01-03 03:31:15.87	261.15	5.13	-42.2	-43.8	19.2	0.00e+00	92	39	0	106954752	56	7029
2026-01-03 03:31:18.90	261.57	5.24	-42.2	-43.8	19.2	0.00e+00	90	39	0	112197632	56	7014
2026-01-03 03:31:21.93	261.98	5.33	-42.3	-43.8	19.0	0.00e+00	0	39	0	117440512	56	7083
2026-01-03 03:31:24.96	262.39	5.43	-42.1	-43.5	19.4	0.00e+00	92	39	0	123731968	56	6838
2026-01-03 03:31:27.99	262.81	5.53	-41.8	-43.1	19.8	0.00e+00	92	39	0	128974848	56	6539
2026-01-03 03:31:31.02	263.23	5.63	-41.8	-43.2	19.7	0.00e+00	0	39	0	135266304	56	6608
2026-01-03 03:31:34.05	263.66	5.72	-41.8	-43.2	19.8	0.00e+00	90	39	0	140509184	56	6580
2026-01-03 03:31:37.07	264.08	5.82	-42.0	-43.5	19.6	0.00e+00	92	39	0	145752064	56	6770
2026-01-03 03:31:40.11	264.51	5.91	-41.7	-43.1	19.9	0.00e+00	90	39	0	152043520	56	6491
2026-01-03 03:31:43.14	264.95	6.01	-42.0	-43.4	19.9	0.00e+00	92	39	0	157286400	58	5970
2026-01-03 03:31:46.17	265.38	6.10	-41.5	-42.8	20.3	0.00e+00	92	39	0	163577856	56	6291
2026-01-03 03:31:49.20	265.82	6.19	-41.8	-43.2	19.9	0.00e+00	92	39	0	168820736	56	6540
2026-01-03 03:31:52.22	266.26	6.28	-42.0	-43.4	19.7	0.00e+00	62	39	0	175112192	56	6725
2026-01-03 03:31:55.26	266.70	6.37	-42.0	-43.5	19.7	0.00e+00	90	39	0	180355072	56	6791
2026-01-03 03:31:58.28	267.14	6.45	-41.9	-43.3	19.9	0.00e+00	92	39	0	185597952	56	6621
2026-01-03 03:32:01.31	267.59	6.54	-42.0	-43.4	19.7	0.00e+00	0	39	0	191889408	56	6750
2026-01-03 03:32:04.34	268.04	6.62	-42.1	-43.5	19.6	0.00e+00	92	39	0	197132288	56	6821
2026-01-03 03:32:07.37	268.49	6.71	-42.1	-43.6	19.6	0.00e+00	92	39	0	203423744	56	6871
2026-01-03 03:32:10.40	268.95	6.79	-42.5	-44.0	19.4	0.00e+00	72	39	0	208666624	56	7234
2026-01-03 03:32:13.43	269.41	6.87	-42.2	-43.7	19.6	0.00e+00	92	39	0	213909504	56	6936
2026-01-03 03:32:16.46	269.87	6.95	-42.3	-43.7	19.5	0.00e+00	92	39	0	220200960	56	6987
2026-01-03 03:32:19.49	270.33	7.03	-42.6	-44.1	19.1	0.00e+00	92	39	0	225443840	56	7314
2026-01-03 03:32:22.52	270.79	7.11	-42.3	-43.8	19.5	0.00e+00	87	39	0	231735296	56	7054
2026-01-03 03:32:25.55	271.26	7.18	-42.2	-43.6	19.6	0.00e+00	92	39	0	236978176	56	6915
2026-01-03 03:32:28.57	271.73	7.26	-42.0	-43.4	19.8	0.00e+00	90	39	0	243269632	56	6765
2026-01-03 03:32:31.60	272.20	7.33	-41.8	-43.2	20.1	0.00e+00	85	39	0	248512512	56	6560
2026-01-03 03:32:34.63	272.67	7.40	-42.0	-43.4	20.0	0.00e+00	90	39	0	253755392	56	6717
2026-01-03 03:32:37.66	273.15	7.47	-42.2	-43.6	19.7	0.00e+00	92	39	0	260046848	56	6890
2026-01-03 03:32:40.69	273.63	7.54	-42.3	-43.7	19.6	0.00e+00	0	39	0	265289728	56	7005
2026-01-03 03:32:43.73	274.11	7.61	-42.2	-43.6	19.7	0.00e+00	92	39	0	271581184	56	6868
2026-01-03 03:32:46.76	274.59	7.68	-42.0	-43.3	19.9	0.00e+00	90	39	0	276824064	56	6681
2026-01-03 03:32:49.79	275.08	7.74	-41.8	-43.2	20.1	0.00e+00	92	39	0	282066944	56	6567
2026-01-03 03:32:52.82	275.56	7.80	-42.1	-43.5	19.9	0.00e+00	92	39	0	288358400	56	6789
2026-01-03 03:32:55.85	276.05	7.86	-42.1	-43.5	19.8	0.00e+00	92	39	0	293601280	56	6820
2026-01-03 03:32:58.88	276.54	7.92	-42.3	-43.7	19.7	0.00e+00	92	39	0	299892736	56	6956
2026-01-03 03:33:01.91	277.04	7.98	-42.0	-43.3	19.9	0.00e+00	0	39	0	305135616	56	6677
2026-01-03 03:33:04.94	277.53	8.04	-42.0	-43.4	20.0	0.00e+00	92	39	0	311427072	56	6699
2026-01-03 03:33:07.97	278.03	8.09	-42.2	-43.6	19.7	0.00e+00	92	39	0	316669952	56	6922
2026-01-03 03:33:11.00	278.52	8.14	-42.3	-43.7	19.7	0.00e+00	3	39	0	321912832	56	7005
2026-01-03 03:33:14.03	279.02	8.20	-42.3	-43.7	19.7	0.00e+00	92	39	0	328204288	56	6990
2026-01-03 03:33:17.06	279.52	8.24	-42.0	-43.4	20.0	0.00e+00	92	39	0	333447168	56	6700
2026-01-03 03:33:20.09	280.03	8.29	-42.1	-43.5	19.9	0.00e+00	81	39	0	339738624	56	6832
2026-01-03 03:33:23.12	280.53	8.34	-42.1	-43.4	20.0	0.00e+00	6	39	0	344981504	56	6756
2026-01-03 03:33:26.15	281.04	8.38	-42.1	-43.5	19.9	0.00e+00	92	39	0	351272960	56	6833
2026-01-03 03:33:29.18	281.54	8.42	-42.1	-43.5	19.9	0.00e+00	92	39	0	356515840	56	6783
2026-01-03 03:33:32.22	282.05	8.46	-41.9	-43.2	20.1	0.00e+00	0	39	0	361758720	56	6607
2026-01-03 03:33:35.25	282.56	8.50	-41.9	-43.3	20.1	0.00e+00	92	39	0	368050176	56	6639
2026-01-03 03:33:38.28	283.08	8.54	-42.2	-43.6	19.9	0.00e+00	92	39	0	373293056	56	6861
2026-01-03 03:33:41.31	283.59	8.57	-42.1	-43.5	20.0	0.00e+00	0	39	0	379584512	56	6777
2026-01-03 03:33:44.34	284.10	8.60	-42.1	-43.5	19.9	0.00e+00	92	39	0	384827392	56	6818
2026-01-03 03:33:47.37	284.62	8.63	-42.2	-43.6	19.9	0.00e+00	92	39	0	390070272	56	6869
2026-01-03 03:33:50.40	285.13	8.66	-42.6	-44.1	19.4	0.00e+00	82	39	0	396361728	56	7288
2026-01-03 03:33:53.43	285.65	8.69	-42.8	-44.3	19.2	0.00e+00	27	39	0	401604608	58	6664
2026-01-03 03:33:56.46	286.16	8.71	-42.8	-44.3	19.1	0.00e+00	90	39	0	407896064	58	6680
2026-01-03 03:33:59.49	286.68	8.74	-42.7	-44.2	19.2	0.00e+00	91	39	0	413138944	58	6598
2026-01-03 03:34:02.52	287.20	8.76	-42.6	-44.1	19.4	0.00e+00	85	39	0	419430400	58	6480
2026-01-03 03:34:05.55	287.72	8.77	-42.6	-44.1	19.4	0.00e+00	92	39	0	424673280	58	6477
2026-01-03 03:34:08.57	288.24	8.79	-42.7	-44.2	19.3	0.00e+00	92	39	0	429916160	58	6604
2026-01-03 03:34:11.60	288.76	8.81	-43.0	-44.7	18.9	0.00e+00	0	39	0	436207616	58	6931
2026-01-03 03:34:14.63	289.28	8.82	-43.0	-44.6	18.9	0.00e+00	92	39	0	441450496	58	6908
2026-01-03 03:34:17.66	289.80	8.83	-42.8	-44.4	19.0	0.00e+00	92	39	0	447741952	58	6741
2026-01-03 03:34:20.69	290.32	8.84	-42.8	-44.4	19.2	0.00e+00	11	39	0	452984832	58	6697
2026-01-03 03:34:23.72	290.84	8.84	-42.7	-44.2	19.2	0.00e+00	92	39	0	458227712	58	6563
2026-01-03 03:34:26.74	291.36	8.85	-42.6	-44.1	19.3	0.00e+00	92	39	0	464519168	58	6514
2026-01-03 03:34:29.77	291.88	8.85	-42.3	-43.8	19.7	0.00e+00	92	39	0	469762048	58	6262
2026-01-03 03:34:32.80	292.41	8.85	-42.5	-44.0	19.5	0.00e+00	0	39	0	476053504	58	6417
2026-01-03 03:34:35.83	292.93	8.85	-42.2	-43.7	19.8	0.00e+00	92	39	0	481296384	58	6176
2026-01-03 03:34:38.86	293.45	8.84	-42.2	-43.6	20.0	0.00e+00	90	39	0	487587840	58	6108
2026-01-03 03:34:41.89	293.97	8.84	-41.7	-43.0	20.5	0.00e+00	0	39	0	492830720	56	6402
2026-01-03 03:34:44.92	294.49	8.83	-41.5	-42.8	20.6	0.00e+00	91	39	0	498073600	56	6259
2026-01-03 03:34:47.95	295.01	8.82	-41.6	-42.9	20.6	0.00e+00	91	39	0	504365056	56	6319
2026-01-03 03:34:50.98	295.53	8.81	-41.8	-43.1	20.3	0.00e+00	0	39	0	509607936	56	6518
2026-01-03 03:34:54.01	296.05	8.79	-41.4	-42.6	20.8	0.00e+00	39	39	0	515899392	56	6173
2026-01-03 03:34:57.03	296.57	8.78	-41.0	-42.2	21.3	0.00e+00	92	39	0	521142272	56	5856
2026-01-03 03:35:00.06	297.09	8.76	-41.1	-42.3	21.1	0.00e+00	0	39	0	526385152	56	5901
2026-01-03 03:35:03.09	297.61	8.74	-41.2	-42.4	21.0	0.00e+00	0	39	0	532676608	56	5995
2026-01-03 03:35:06.12	298.13	8.72	-41.5	-42.8	20.7	0.00e+00	92	39	0	537919488	56	6254
2026-01-03 03:35:09.15	298.64	8.69	-41.3	-42.5	20.8	0.00e+00	92	39	0	544210944	56	6076
2026-01-03 03:35:12.45	299.20	8.66	-41.0	-42.2	21.3	0.00e+00	0	39	0	549453824	56	5835
2026-01-03 03:35:15.19	299.67	8.64	-41.1	-42.3	21.1	0.00e+00	92	39	0	554696704	56	5946
2026-01-03 03:35:18.51	300.23	8.61	-41.1	-42.3	21.2	0.00e+00	92	39	0	560988160	56	5952
2026-01-03 03:35:21.25	300.69	8.58	-41.4	-42.6	20.9	0.00e+00	81	39	0	566231040	56	6126
2026-01-03 03:35:24.57	301.26	8.54	-41.0	-42.2	21.2	0.00e+00	0	39	0	572522496	56	5852
2026-01-03 03:35:27.31	301.72	8.51	-41.1	-42.3	21.1	0.00e+00	91	39	0	577765376	56	5928
2026-01-03 03:35:30.63	302.27	8.47	-41.0	-42.2	21.3	0.00e+00	0	39	0	584056832	56	5846
2026-01-03 03:35:33.37	302.73	8.43	-41.3	-42.5	20.9	0.00e+00	91	39	0	588251136	56	6055
2026-01-03 03:35:36.69	303.29	8.39	-41.2	-42.4	21.0	0.00e+00	92	39	0	594542592	56	6022
2026-01-03 03:35:39.43	303.74	8.35	-41.5	-42.8	20.6	0.00e+00	0	39	0	599785472	56	6281
2026-01-03 03:35:42.75	304.30	8.30	-41.6	-42.8	20.6	0.00e+00	6	39	0	606076928	56	6317
2026-01-03 03:35:45.49	304.75	8.25	-41.5	-42.8	20.6	0.00e+00	92	39	0	611319808	56	6291
2026-01-03 03:35:48.81	305.30	8.20	-41.3	-42.5	21.0	0.00e+00	91	39	0	617611264	56	6056
2026-01-03 03:35:51.55	305.75	8.16	-41.1	-42.3	21.0	0.00e+00	2	39	0	622854144	56	5952
2026-01-03 03:35:54.87	306.29	8.10	-41.2	-42.4	21.1	0.00e+00	86	39	0	629145600	56	6013
2026-01-03 03:35:57.61	306.74	8.05	-41.4	-42.6	20.8	0.00e+00	34	39	0	634388480	56	6163
2026-01-03 03:36:00.93	307.28	7.99	-41.6	-42.9	20.6	0.00e+00	0	39	0	640679936	56	6320
2026-01-03 03:36:03.67	307.72	7.94	-41.5	-42.7	20.8	0.00e+00	48	39	0	645922816	56	6224
2026-01-03 03:36:06.99	308.26	7.87	-41.2	-42.4	21.0	0.00e+00	92	39	0	652214272	56	6008
2026-01-03 03:36:09.73	308.70	7.82	-41.2	-42.4	21.2	0.00e+00	0	39	0	657457152	56	5976
2026-01-03 03:36:13.05	309.23	7.75	-40.9	-42.1	21.2	0.00e+00	80	39	0	662700032	56	5800
2026-01-03 03:36:15.80	309.67	7.69	-40.7	-41.8	21.4	0.00e+00	91	39	0	667942912	54	6293
2026-01-03 03:36:19.11	310.20	7.62	-40.7	-41.8	21.4	0.00e+00	92	39	0	674234368	54	6287
2026-01-03 03:36:21.85	310.63	7.56	-40.8	-41.9	21.3	0.00e+00	0	39	0	679477248	54	6378
2026-01-03 03:36:25.17	311.15	7.49	-40.9	-42.0	21.2	0.00e+00	92	39	0	685768704	54	6451
2026-01-03 03:36:27.91	311.58	7.42	-41.0	-42.2	21.1	0.00e+00	65	39	0	691011584	54	6583
2026-01-03 03:36:31.23	312.10	7.35	-41.0	-42.2	21.1	0.00e+00	80	39	0	697303040	54	6549
2026-01-03 03:36:33.97	312.53	7.28	-41.1	-42.3	20.9	0.00e+00	92	39	0	702545920	54	6640
2026-01-03 03:36:37.29	313.04	7.20	-40.8	-42.0	21.0	0.00e+00	92	39	0	708837376	54	6436
2026-01-03 03:36:40.03	313.46	7.13	-40.7	-41.9	21.3	0.00e+00	0	39	0	714080256	54	6333
2026-01-03 03:36:43.35	313.97	7.05	-40.8	-42.0	21.1	0.00e+00	0	39	0	720371712	54	6428
2026-01-03 03:36:46.10	314.39	6.98	-41.1	-42.3	20.9	0.00e+00	92	39	0	725614592	54	6633
2026-01-03 03:36:49.41	314.89	6.89	-41.4	-42.7	20.5	0.00e+00	28	39	0	730857472	54	6972
2026-01-03 03:36:52.16	315.30	6.82	-42.0	-43.3	19.9	0.00e+00	0	39	0	736100352	56	6676
2026-01-03 03:36:55.47	315.80	6.73	-41.9	-43.2	20.1	0.00e+00	92	39	0	742391808	56	6597
2026-01-03 03:36:58.22	316.21	6.65	-41.5	-42.8	20.5	0.00e+00	0	39	0	747634688	56	6283
2026-01-03 03:37:01.53	316.70	6.56	-41.7	-43.1	20.2	0.00e+00	0	39	0	753926144	56	6465
2026-01-03 03:37:04.27	317.10	6.48	-41.6	-42.9	20.3	0.00e+00	0	39	0	759169024	56	6389
2026-01-03 03:37:07.59	317.59	6.39	-41.8	-43.2	20.2	0.00e+00	26	39	0	765460480	56	6549
2026-01-03 03:37:10.33	317.98	6.31	-42.1	-43.5	19.9	0.00e+00	0	39	0	770703360	56	6784
2026-01-03 03:37:13.65	318.46	6.21	-42.8	-44.4	18.8	0.00e+00	81	39	0	776994816	58	6707
2026-01-03 03:37:16.39	318.86	6.13	-43.2	-45.0	18.2	0.00e+00	92	39	0	782237696	58	7205
2026-01-03 03:37:19.71	319.33	6.03	-43.4	-45.2	18.0	0.00e+00	76	39	0	788529152	58	7379
2026-01-03 03:37:22.45	319.72	5.95	-43.2	-44.9	18.3	0.00e+00	0	39	0	793772032	58	7148
2026-01-03 03:37:25.77	320.19	5.84	-43.1	-44.9	18.2	0.00e+00	5	39	0	799014912	58	7109
2026-01-03 03:37:28.51	320.58	5.76	-42.8	-44.4	18.7	0.00e+00	0	39	0	804257792	58	6737
2026-01-03 03:37:31.83	321.04	5.65	-42.8	-44.5	18.6	0.00e+00	0	39	0	810549248	58	6777
2026-01-03 03:37:34.57	321.42	5.57	-43.0	-44.7	18.4	0.00e+00	12	39	0	815792128	58	6982
2026-01-03 03:37:37.89	321.88	5.46	-43.5	-45.4	17.8	0.00e+00	92	39	0	822083584	58	7593
2026-01-03 03:37:40.63	322.25	5.37	-44.2	-46.4	16.7	0.00e+00	82	39	0	827326464	60	7555
2026-01-03 03:37:43.95	322.70	5.27	-44.4	-46.7	16.4	0.00e+00	0	39	0	833617920	60	7844
2026-01-03 03:37:46.69	323.07	5.18	-44.5	-46.9	16.1	0.00e+00	92	39	0	838860800	60	8025
2026-01-03 03:37:50.00	323.52	5.07	-44.6	-47.0	16.1	0.00e+00	0	39	0	845152256	60	8073
2026-01-03 03:37:52.75	323.88	4.98	-44.5	-46.9	16.2	0.00e+00	6	39	0	850395136	60	8012
2026-01-03 03:37:56.06	324.32	4.86	-44.2	-46.4	16.5	0.00e+00	82	39	0	856686592	60	7572
2026-01-03 03:37:58.81	324.68	4.77	-43.9	-46.1	16.9	0.00e+00	87	39	0	861929472	60	7294
2026-01-03 03:38:02.12	325.12	4.66	-44.1	-46.4	16.5	0.00e+00	0	39	0	868220928	60	7539
2026-01-03 03:38:04.86	325.47	4.57	-44.0	-46.3	16.6	0.00e+00	79	39	0	872415232	60	7431
2026-01-03 03:38:08.19	325.90	4.45	-43.8	-45.9	17.1	0.00e+00	92	39	0	878706688	60	7110
2026-01-03 03:38:10.93	326.25	4.36	-43.5	-45.6	17.3	0.00e+00	0	39	0	883949568	60	6857
2026-01-03 03:38:14.25	326.67	4.24	-43.4	-45.4	17.4	0.00e+00	0	39	0	890241024	60	6723
2026-01-03 03:38:16.99	327.02	4.14	-44.0	-46.2	16.6	0.00e+00	92	39	0	895483904	60	7403
2026-01-03 03:38:20.30	327.43	4.03	-44.2	-46.6	16.2	0.00e+00	0	39	0	901775360	60	7741
2026-01-03 03:38:23.04	327.77	3.93	-44.1	-46.4	16.3	0.00e+00	82	39	0	907018240	60	7565
2026-01-03 03:38:26.36	328.19	3.81	-43.8	-46.0	16.7	0.00e+00	0	39	0	913309696	60	7203
2026-01-03 03:38:29.10	328.52	3.71	-43.3	-45.3	17.3	0.00e+00	0	39	0	918552576	60	6646
2026-01-03 03:38:32.42	328.93	3.59	-43.1	-45.0	17.5	0.00e+00	81	39	0	924844032	60	6463
2026-01-03 03:38:35.17	329.26	3.49	-43.3	-45.3	17.2	0.00e+00	90	39	0	930086912	60	6677
2026-01-03 03:38:38.48	329.66	3.37	-43.8	-46.2	16.3	0.00e+00	92	39	0	936378368	60	7380
2026-01-03 03:38:41.22	329.98	3.27	-44.1	-46.8	15.2	0.00e+00	81	39	0	940572672	60	7886
2026-01-03 03:38:44.54	330.38	3.15	-44.4	-47.5	14.2	0.00e+00	0	39	0	946864128	60	8576
2026-01-03 03:38:47.28	330.70	3.05	-45.2	-49.3	12.0	2.03e-04	92	39	0	952107008	60	10548
2026-01-03 03:38:50.60	331.09	2.93	-49.4	-64.6	3.6	1.51e+00	0	39	104	955252736	60	61339
2026-01-03 03:38:53.34	331.40	2.83	-49.9	-65.1	3.6	1.51e+00	0	39	104	955252736	60	65239
2026-01-03 03:38:56.66	331.78	2.70	-50.1	-65.3	3.6	1.51e+00	0	39	104	955252736	60	66420
2026-01-03 03:38:59.41	332.10	2.60	-50.0	-65.2	3.6	1.51e+00	0	39	104	955252736	60	66096
2026-01-03 03:39:02.72	332.47	2.48	-50.0	-65.3	3.6	1.51e+00	0	39	104	955252736	60	66382
2026-01-03 03:39:05.46	332.78	2.37	-50.1	-65.3	3.6	1.51e+00	0	39	104	955252736	60	66493
2026-01-03 03:39:08.78	333.15	2.25	-50.0	-65.2	3.6	1.51e+00	0	39	104	955252736	60	65960
2026-01-03 03:39:11.52	333.46	2.15	-50.0	-65.2	3.6	1.51e+00	0	39	104	955252736	60	65555
2026-01-03 03:39:14.84	333.82	2.02	-50.0	-65.2	3.6	1.51e+00	0	39	104	955252736	60	66040
2026-01-03 03:39:17.58	334.12	1.92	-50.0	-65.2	3.6	1.51e+00	0	39	104	955252736	60	65921
2026-01-03 03:39:20.90	334.48	1.79	-50.0	-65.3	3.6	1.51e+00	0	39	104	955252736	60	66411
2026-01-03 03:39:23.64	334.78	1.69	-50.1	-65.3	3.6	1.51e+00	0	39	104	955252736	60	66841
2026-01-03 03:39:26.96	335.13	1.56	-50.1	-65.3	3.6	1.51e+00	0	39	104	955252736	60	66703
2026-01-03 03:39:29.70	335.42	1.45	-50.1	-65.3	3.6	1.51e+00	0	39	104	955252736	60	66619
2026-01-03 03:39:33.02	335.77	1.33	-50.1	-65.3	3.6	1.51e+00	0	39	104	955252736	60	66434
2026-01-03 03:39:35.76	336.06	1.22	-50.0	-65.2	3.6	1.51e+00	0	39	104	955252736	60	66118
2026-01-03 03:39:39.08	336.40	1.09	-50.0	-65.3	3.6	1.51e+00	0	39	104	955252736	60	66238
2026-01-03 03:39:41.82	336.68	0.99	-50.1	-65.2	3.6	1.51e+00	0	39	104	955252736	60	66090
2026-01-03 03:39:45.14	337.02	0.86	-50.0	-65.2	3.6	1.51e+00	0	39	104	955252736	60	66099
2026-01-03 03:39:47.88	337.30	0.75	-50.0	-65.2	3.6	1.51e+00	0	39	104	955252736	60	66027
2026-01-03 03:39:51.20	337.63	0.63	-50.0	-65.2	3.6	1.51e+00	0	39	104	955252736	60	65833
2026-01-03 03:39:53.94	337.91	0.52	-50.0	-65.2	3.6	1.51e+00	0	39	104	955252736	60	66104
2026-01-03 03:39:57.26	338.24	0.39	-50.0	-65.3	3.6	1.51e+00	0	39	104	955252736	60	66213
2026-01-03 03:40:00.01	338.51	0.28	-50.0	-65.3	3.6	1.51e+00	0	39	104	955252736	60	66188
2026-01-03 03:40:03.32	338.83	0.16	-50.1	-65.3	3.5	1.51e+00	0	39	104	955252736	60	66525
2026-01-03 03:40:06.07	339.10	0.05	-50.0	-65.3	3.6	1.51e+00	0	39	104	955252736	60	66490

#Closed at: 2026-01-03 03:40:09
#Recorded file [955 MB]: D:/lorett/data/35029_260103_152859.dat