passes_logs/2026/01/03/R4.6S_Anadyr/R4.6S_Anadyr__20260103_000353_NOAA_20_JPSS-1_rec.log

#Pass ID: 20260103_000353_NOAA 20 (JPSS-1)
#Satellite: NOAA 20 (JPSS-1)
#Configuration: NOAA 20
#almurnet v.1.7.20251203
#Start time: 2026-01-03 00:03:54

#Version: 2.2.20231116
#Station: R4.6S_Anadyr
#Location: 177.4865 lon 64.73178 lat
#TLE: 1 43013U 17073A   26002.78363558  .00000190  00000+0  11110-3 0  9990
#TLE: 2 43013  98.7623 303.8528 0001892  57.0664 303.0694 14.19532716421006

#Time	Az	El	Level	Level2	SNR	BER	BlckErr	Temp	State	Recorded	gain1	gain2
2026-01-03 00:03:54.80	152.51	0.06	-50.2	-65.2	3.5	1.51e+00	0	36	0	0	60	65582
2026-01-03 00:03:58.83	152.51	0.30	-50.3	-65.4	3.6	1.51e+00	0	38	104	0	60	67622
2026-01-03 00:04:02.87	152.51	0.55	-50.2	-65.5	3.6	1.51e+00	0	38	104	0	60	67745
2026-01-03 00:04:06.91	152.50	0.80	-49.9	-65.2	3.6	1.51e+00	0	38	104	0	60	65792
2026-01-03 00:04:10.95	152.50	1.05	-49.0	-64.1	3.6	1.51e+00	0	38	104	0	60	58179
2026-01-03 00:04:14.99	152.49	1.30	-48.6	-63.8	3.6	1.51e+00	0	38	104	0	60	56203
2026-01-03 00:04:19.03	152.49	1.55	-48.6	-63.8	3.6	1.51e+00	0	38	104	0	60	55819
2026-01-03 00:04:23.07	152.48	1.81	-48.6	-63.7	3.6	1.51e+00	0	38	104	0	60	55478
2026-01-03 00:04:27.11	152.48	2.07	-48.6	-63.7	3.6	1.51e+00	0	38	104	0	60	55501
2026-01-03 00:04:31.15	152.47	2.33	-48.6	-63.8	3.6	1.51e+00	0	38	104	0	60	56053
2026-01-03 00:04:35.19	152.47	2.60	-48.6	-63.7	3.6	1.51e+00	0	38	104	0	60	55185
2026-01-03 00:04:39.23	152.46	2.86	-48.6	-63.6	3.6	1.51e+00	0	38	104	0	60	54790
2026-01-03 00:04:43.27	152.46	3.13	-48.5	-61.4	3.7	1.51e+00	0	39	104	0	60	42338
2026-01-03 00:04:47.31	152.45	3.40	-47.3	-52.9	9.4	4.30e-02	0	38	0	5242880	60	15967
2026-01-03 00:04:51.35	152.44	3.68	-45.9	-49.5	13.3	2.44e-05	0	38	0	12582912	60	10750
2026-01-03 00:04:55.40	152.44	3.96	-43.8	-45.9	16.0	1.05e-01	0	38	104	17825792	60	7162
2026-01-03 00:04:59.44	152.43	4.24	-45.1	-47.9	14.9	0.00e+00	0	38	0	18874368	60	8990
2026-01-03 00:05:03.48	152.42	4.52	-44.4	-46.7	16.3	0.00e+00	0	38	0	26214400	60	7803
2026-01-03 00:05:07.52	152.41	4.81	-44.1	-46.2	16.9	0.00e+00	0	38	0	34603008	60	7393
2026-01-03 00:05:11.56	152.40	5.09	-43.8	-45.8	17.3	0.00e+00	0	38	0	41943040	60	7054
2026-01-03 00:05:15.59	152.39	5.39	-43.5	-45.4	17.8	0.00e+00	0	38	0	49283072	60	6731
2026-01-03 00:05:19.63	152.38	5.68	-43.6	-45.6	17.6	0.00e+00	0	38	0	56623104	60	6853
2026-01-03 00:05:23.67	152.37	5.98	-43.5	-45.4	17.7	0.00e+00	0	38	0	63963136	60	6765
2026-01-03 00:05:27.71	152.36	6.28	-43.2	-45.0	18.3	0.00e+00	0	38	0	72351744	60	6418
2026-01-03 00:05:31.75	152.35	6.59	-43.2	-45.0	18.3	0.00e+00	0	38	0	79691776	60	6394
2026-01-03 00:05:35.79	152.34	6.90	-43.1	-44.8	18.5	0.00e+00	0	39	0	87031808	60	6254
2026-01-03 00:05:39.83	152.33	7.21	-43.1	-44.7	18.6	0.00e+00	0	38	0	94371840	60	6239
2026-01-03 00:05:43.87	152.31	7.53	-42.9	-44.5	19.0	0.00e+00	0	39	0	102760448	60	6043
2026-01-03 00:05:47.91	152.30	7.85	-42.7	-44.2	19.2	0.00e+00	0	39	0	110100480	58	6571
2026-01-03 00:05:51.95	152.29	8.18	-42.6	-44.1	19.4	0.00e+00	0	39	0	117440512	58	6527
2026-01-03 00:05:55.99	152.27	8.51	-42.3	-43.8	19.7	0.00e+00	0	39	0	124780544	58	6263
2026-01-03 00:06:00.03	152.26	8.84	-42.3	-43.7	19.7	0.00e+00	0	39	0	132120576	58	6201
2026-01-03 00:06:04.07	152.24	9.18	-42.3	-43.8	19.7	0.00e+00	0	39	0	140509184	58	6246
2026-01-03 00:06:08.11	152.22	9.52	-42.1	-43.5	20.0	0.00e+00	0	39	0	147849216	58	6087
2026-01-03 00:06:12.15	152.21	9.87	-42.0	-43.4	20.2	0.00e+00	0	39	0	155189248	58	5965
2026-01-03 00:06:16.19	152.19	10.23	-41.9	-43.2	20.2	0.00e+00	0	39	0	162529280	58	5860
2026-01-03 00:06:20.23	152.17	10.58	-41.9	-43.3	20.3	0.00e+00	0	39	0	170917888	58	5898
2026-01-03 00:06:24.27	152.15	10.95	-41.9	-43.2	20.4	0.00e+00	0	39	0	178257920	56	6579
2026-01-03 00:06:28.31	152.13	11.32	-41.7	-42.9	20.6	0.00e+00	0	39	0	185597952	56	6372
2026-01-03 00:06:32.35	152.11	11.69	-41.6	-42.9	20.7	0.00e+00	0	39	0	192937984	56	6333
2026-01-03 00:06:36.39	152.09	12.07	-41.3	-42.5	21.1	0.00e+00	0	39	0	200278016	56	6088
2026-01-03 00:06:40.42	152.06	12.46	-41.2	-42.4	21.2	0.00e+00	0	39	0	208666624	56	5965
2026-01-03 00:06:44.46	152.04	12.85	-41.1	-42.3	21.4	0.00e+00	0	39	0	216006656	56	5931
2026-01-03 00:06:48.50	152.01	13.25	-41.0	-42.2	21.4	0.00e+00	0	39	0	223346688	56	5841
2026-01-03 00:06:52.54	151.99	13.66	-40.7	-41.8	21.8	0.00e+00	0	39	0	230686720	54	6254
2026-01-03 00:06:56.58	151.96	14.07	-40.6	-41.7	21.8	0.00e+00	0	39	0	239075328	54	6187
2026-01-03 00:07:00.62	151.93	14.49	-40.5	-41.6	21.9	0.00e+00	0	39	0	246415360	54	6117
2026-01-03 00:07:04.65	151.90	14.92	-40.6	-41.6	21.9	0.00e+00	0	39	0	253755392	54	6163
2026-01-03 00:07:08.69	151.87	15.35	-40.6	-41.7	21.9	0.00e+00	0	39	0	261095424	54	6176
2026-01-03 00:07:12.73	151.84	15.79	-40.3	-41.3	22.3	0.00e+00	0	39	0	268435456	54	5927
2026-01-03 00:07:16.77	151.81	16.24	-40.3	-41.3	22.3	0.00e+00	0	39	0	276824064	54	5932
2026-01-03 00:07:20.81	151.77	16.70	-39.9	-40.9	22.6	0.00e+00	0	39	0	284164096	54	5679
2026-01-03 00:07:24.85	151.74	17.17	-39.9	-40.9	22.7	0.00e+00	0	39	0	291504128	54	5676
2026-01-03 00:07:28.88	151.70	17.65	-39.7	-40.6	22.9	0.00e+00	0	39	0	298844160	52	6172
2026-01-03 00:07:32.92	151.66	18.14	-39.5	-40.5	23.1	0.00e+00	0	39	0	307232768	52	6055
2026-01-03 00:07:36.95	151.62	18.63	-39.3	-40.2	23.4	0.00e+00	0	39	0	314572800	52	5891
2026-01-03 00:07:41.00	151.58	19.14	-39.4	-40.3	23.3	0.00e+00	0	39	0	321912832	52	5915
2026-01-03 00:07:45.03	151.53	19.66	-39.3	-40.3	23.4	0.00e+00	0	39	0	329252864	52	5899
2026-01-03 00:07:49.07	151.48	20.18	-39.2	-40.1	23.5	0.00e+00	0	39	0	336592896	52	5804
2026-01-03 00:07:53.11	151.43	20.72	-39.2	-40.1	23.4	0.00e+00	0	39	0	344981504	52	5805
2026-01-03 00:07:57.15	151.38	21.28	-39.3	-40.2	23.5	0.00e+00	0	39	0	352321536	52	5852
2026-01-03 00:08:01.18	151.33	21.84	-39.2	-40.2	23.5	0.00e+00	0	39	0	359661568	52	5832
2026-01-03 00:08:05.22	151.27	22.41	-39.1	-40.0	23.8	0.00e+00	0	39	0	367001600	52	5710
2026-01-03 00:08:09.26	151.21	23.00	-39.3	-40.2	23.5	0.00e+00	0	39	0	375390208	52	5847
2026-01-03 00:08:13.30	151.15	23.61	-39.0	-39.9	23.8	0.00e+00	0	39	0	382730240	52	5644
2026-01-03 00:08:17.34	151.09	24.23	-38.9	-39.8	23.9	0.00e+00	0	39	0	390070272	52	5572
2026-01-03 00:08:21.38	151.02	24.86	-38.9	-39.8	23.9	0.00e+00	0	39	0	397410304	52	5567
2026-01-03 00:08:25.42	150.95	25.51	-39.1	-40.0	23.7	0.00e+00	0	39	0	404750336	52	5746
2026-01-03 00:08:29.46	150.87	26.17	-39.2	-40.1	23.7	0.00e+00	0	39	0	413138944	52	5794
2026-01-03 00:08:33.50	150.80	26.86	-39.5	-40.5	23.3	0.00e+00	0	39	0	420478976	52	6036
2026-01-03 00:08:37.54	150.71	27.55	-39.8	-40.7	23.1	0.00e+00	0	39	0	427819008	52	6244
2026-01-03 00:08:41.58	150.63	28.27	-40.3	-41.4	22.5	0.00e+00	0	39	0	435159040	52	6693
2026-01-03 00:08:45.62	150.53	29.01	-40.8	-41.8	22.1	0.00e+00	0	39	0	443547648	54	6306
2026-01-03 00:08:49.66	150.44	29.76	-41.0	-42.0	21.9	0.00e+00	0	39	0	450887680	54	6455
2026-01-03 00:08:53.70	150.34	30.54	-41.5	-42.7	21.2	0.00e+00	0	39	0	458227712	54	6955
2026-01-03 00:08:57.74	150.23	31.34	-42.0	-43.3	20.9	0.00e+00	0	39	0	465567744	56	6619
2026-01-03 00:09:01.78	150.11	32.16	-42.6	-43.9	20.4	0.00e+00	0	39	0	472907776	56	7124
2026-01-03 00:09:05.82	149.99	33.00	-42.5	-43.8	20.2	0.00e+00	0	39	0	481296384	58	6315
2026-01-03 00:09:09.85	149.87	33.86	-41.9	-43.1	21.1	0.00e+00	0	39	0	488636416	58	5800
2026-01-03 00:09:13.89	149.73	34.76	-40.9	-42.0	22.1	0.00e+00	0	39	0	495976448	56	5715
2026-01-03 00:09:17.93	149.59	35.67	-39.7	-40.6	23.3	0.00e+00	0	39	0	503316480	52	6163
2026-01-03 00:09:21.97	149.43	36.62	-38.8	-39.7	24.1	0.00e+00	0	39	0	511705088	52	5534
2026-01-03 00:09:26.01	149.27	37.59	-38.9	-39.8	24.1	0.00e+00	0	39	0	519045120	50	6268
2026-01-03 00:09:30.05	149.09	38.59	-38.7	-39.5	24.3	0.00e+00	0	39	0	526385152	50	6094
2026-01-03 00:09:34.09	148.91	39.62	-39.6	-40.5	23.5	0.00e+00	0	39	0	533725184	50	6827
2026-01-03 00:09:38.13	148.71	40.68	-40.2	-41.2	22.9	0.00e+00	0	39	0	541065216	52	6575
2026-01-03 00:09:42.17	148.49	41.78	-40.6	-41.6	22.5	0.00e+00	0	39	0	549453824	52	6896
2026-01-03 00:09:46.21	148.26	42.90	-40.4	-41.4	22.7	0.00e+00	0	39	0	556793856	54	5977
2026-01-03 00:09:50.25	148.01	44.06	-40.5	-41.5	22.5	0.00e+00	0	39	0	564133888	54	6084
2026-01-03 00:09:54.29	147.74	45.26	-41.0	-42.1	22.0	0.00e+00	0	39	0	571473920	54	6477
2026-01-03 00:09:58.32	147.45	46.49	-42.5	-43.7	20.5	0.00e+00	0	39	0	579862528	56	6997
2026-01-03 00:10:02.36	147.13	47.76	-42.9	-44.2	20.0	0.00e+00	0	39	0	587202560	58	6615
2026-01-03 00:10:06.41	146.79	49.07	-42.2	-43.5	20.8	0.00e+00	0	39	0	594542592	58	6039
2026-01-03 00:10:10.44	146.41	50.41	-40.2	-41.1	23.0	0.00e+00	0	39	0	601882624	54	5804
2026-01-03 00:10:14.48	146.00	51.79	-37.9	-38.7	25.0	0.00e+00	0	39	0	609222656	50	5512
2026-01-03 00:10:18.52	145.54	53.21	-38.4	-39.2	24.5	0.00e+00	0	39	0	617611264	50	5866
2026-01-03 00:10:22.56	145.03	54.67	-38.7	-39.5	24.2	0.00e+00	0	39	0	624951296	50	6090
2026-01-03 00:10:26.59	144.47	56.17	-40.0	-41.0	23.0	0.00e+00	0	39	0	632291328	52	6408
2026-01-03 00:10:30.63	143.84	57.70	-42.6	-44.0	20.4	0.00e+00	0	39	0	639631360	56	7191
2026-01-03 00:10:34.67	143.13	59.28	-44.0	-45.7	18.7	0.00e+00	0	39	0	648019968	60	6937
2026-01-03 00:10:38.71	142.33	60.89	-40.3	-41.2	22.9	0.00e+00	0	39	0	655360000	54	5877
2026-01-03 00:10:42.76	141.41	62.55	-38.5	-39.3	24.4	0.00e+00	0	39	0	662700032	50	5943
2026-01-03 00:10:46.80	140.36	64.23	-38.3	-39.1	24.6	0.00e+00	0	39	0	670040064	50	5787
2026-01-03 00:10:50.84	139.14	65.94	-39.3	-40.1	23.8	0.00e+00	0	39	0	677380096	50	6534
2026-01-03 00:10:54.87	137.71	67.67	-40.0	-40.9	23.0	0.00e+00	0	39	0	685768704	52	6370
2026-01-03 00:10:58.91	136.00	69.42	-39.9	-40.8	23.1	0.00e+00	0	39	0	693108736	52	6311
2026-01-03 00:11:02.95	133.95	71.19	-39.8	-40.8	23.2	0.00e+00	0	39	0	700448768	52	6263
2026-01-03 00:11:06.99	131.45	72.96	-39.8	-40.7	23.3	0.00e+00	0	39	0	707788800	52	6233
2026-01-03 00:11:11.03	128.32	74.72	-41.6	-42.8	21.4	0.00e+00	0	39	0	716177408	56	6260
2026-01-03 00:11:15.07	124.36	76.44	-40.7	-41.7	22.3	0.00e+00	0	39	0	723517440	54	6238
2026-01-03 00:11:19.12	119.20	78.11	-40.6	-41.7	22.4	0.00e+00	0	39	0	730857472	54	6175
2026-01-03 00:11:23.16	112.40	79.66	-38.9	-39.8	24.1	0.00e+00	0	39	0	738197504	52	5581
2026-01-03 00:11:27.20	103.32	81.03	-39.9	-40.8	23.3	0.00e+00	0	39	0	745537536	52	6295
2026-01-03 00:11:31.24	91.32	82.11	-42.2	-43.4	21.0	0.00e+00	0	39	0	753926144	56	6724
2026-01-03 00:11:35.28	76.37	82.76	-42.8	-44.1	20.3	0.00e+00	0	39	0	761266176	58	6513
2026-01-03 00:11:39.32	59.84	82.84	-43.0	-44.3	19.8	0.00e+00	0	39	0	768606208	58	6689
2026-01-03 00:11:43.36	44.21	82.35	-42.3	-43.6	20.6	0.00e+00	0	39	0	775946240	58	6126
2026-01-03 00:11:47.40	31.31	81.39	-40.9	-42.0	22.3	0.00e+00	0	39	0	784334848	56	5700
2026-01-03 00:11:51.44	21.43	80.09	-40.2	-41.1	23.1	0.00e+00	0	39	0	791674880	54	5815
2026-01-03 00:11:55.48	14.03	78.58	-40.7	-41.8	22.4	0.00e+00	0	39	0	799014912	52	7016
2026-01-03 00:11:59.52	8.46	76.95	-40.8	-41.8	22.3	0.00e+00	0	39	0	806354944	54	6267
2026-01-03 00:12:03.56	4.19	75.24	-40.8	-41.8	22.5	0.00e+00	0	39	0	814743552	56	5601
2026-01-03 00:12:07.60	0.84	73.49	-40.0	-40.9	23.2	0.00e+00	0	39	0	822083584	54	5689
2026-01-03 00:12:11.64	358.17	71.73	-38.3	-39.1	24.8	0.00e+00	0	39	0	829423616	50	5783
2026-01-03 00:12:15.68	356.00	69.96	-39.9	-40.9	23.2	0.00e+00	0	39	0	836763648	50	7128
2026-01-03 00:12:19.72	354.21	68.20	-43.3	-44.8	19.3	0.00e+00	0	39	0	844103680	58	7060
2026-01-03 00:12:23.76	352.70	66.47	-44.0	-45.6	18.8	0.00e+00	0	39	0	852492288	60	6921
2026-01-03 00:12:27.80	351.42	64.75	-40.6	-41.7	22.5	0.00e+00	0	39	0	859832320	54	6184
2026-01-03 00:12:31.83	350.33	63.07	-38.6	-39.4	24.4	0.00e+00	0	39	0	867172352	50	6005
2026-01-03 00:12:35.87	349.37	61.42	-38.3	-39.2	24.5	0.00e+00	0	39	0	874512384	48	6543
2026-01-03 00:12:39.91	348.54	59.80	-41.3	-42.5	21.7	0.00e+00	0	39	0	882900992	54	6793
2026-01-03 00:12:43.95	347.81	58.21	-41.3	-42.4	21.8	0.00e+00	0	39	0	890241024	54	6708
2026-01-03 00:12:47.99	347.16	56.67	-41.8	-43.0	21.4	0.00e+00	0	39	0	897581056	56	6460
2026-01-03 00:12:52.03	346.58	55.16	-39.1	-40.0	24.0	0.00e+00	0	39	0	904921088	52	5710
2026-01-03 00:12:56.07	346.05	53.69	-38.3	-39.1	24.7	0.00e+00	0	39	0	912261120	50	5773
2026-01-03 00:13:00.11	345.58	52.26	-38.8	-39.7	24.2	0.00e+00	0	39	0	920649728	50	6181
2026-01-03 00:13:04.15	345.16	50.87	-41.2	-42.3	21.8	0.00e+00	0	39	0	927989760	54	6673
2026-01-03 00:13:08.19	344.77	49.52	-41.9	-43.1	21.1	0.00e+00	0	39	0	935329792	56	6508
2026-01-03 00:13:12.23	344.42	48.21	-44.1	-45.8	18.7	0.00e+00	0	39	0	942669824	60	7042
2026-01-03 00:13:16.27	344.09	46.93	-40.7	-41.7	22.6	0.00e+00	0	39	0	951058432	56	5553
2026-01-03 00:13:20.31	343.79	45.70	-41.3	-42.4	21.9	0.00e+00	0	39	0	958398464	54	6704
2026-01-03 00:13:24.35	343.52	44.49	-42.5	-43.9	20.6	0.00e+00	0	39	0	965738496	58	6334
2026-01-03 00:13:28.39	343.27	43.33	-40.2	-41.2	23.0	0.00e+00	0	39	0	973078528	54	5839
2026-01-03 00:13:32.42	343.03	42.20	-41.4	-42.6	21.7	0.00e+00	0	39	0	980418560	54	6862
2026-01-03 00:13:36.46	342.81	41.10	-42.7	-44.1	20.5	0.00e+00	0	39	0	988807168	56	7300
2026-01-03 00:13:40.50	342.61	40.03	-41.7	-42.8	21.6	0.00e+00	0	39	0	996147200	56	6284
2026-01-03 00:13:44.54	342.42	38.99	-42.2	-43.4	20.9	0.00e+00	0	39	0	1003487232	56	6758
2026-01-03 00:13:48.58	342.24	37.98	-43.3	-44.8	19.6	0.00e+00	0	39	0	1010827264	58	7028
2026-01-03 00:13:52.62	342.08	37.01	-42.8	-44.2	20.3	0.00e+00	0	39	0	1019215872	58	6611
2026-01-03 00:13:56.66	341.92	36.06	-41.4	-42.5	21.9	0.00e+00	0	39	0	1026555904	56	6059
2026-01-03 00:14:00.69	341.78	35.14	-41.7	-42.8	21.3	0.00e+00	0	39	0	1033895936	56	6301
2026-01-03 00:14:04.73	341.64	34.24	-42.8	-44.2	20.2	0.00e+00	0	39	0	1041235968	58	6572
2026-01-03 00:14:08.76	341.51	33.37	-43.9	-45.5	18.9	0.00e+00	0	39	0	1048576000	60	6823
2026-01-03 00:14:12.81	341.39	32.52	-43.2	-44.7	19.7	0.00e+00	0	39	0	1056964608	60	6182
2026-01-03 00:14:16.85	341.27	31.70	-42.4	-43.7	20.7	0.00e+00	0	39	0	1064304640	58	6244
2026-01-03 00:14:20.89	341.17	30.90	-42.1	-43.3	21.0	0.00e+00	0	39	0	1071644672	58	5952
2026-01-03 00:14:24.92	341.06	30.12	-42.1	-43.3	21.0	0.00e+00	0	39	0	1078984704	58	5926
2026-01-03 00:14:28.96	340.97	29.36	-42.0	-43.3	21.0	0.00e+00	0	39	0	1087373312	58	5901
2026-01-03 00:14:33.00	340.88	28.62	-41.8	-43.0	21.2	0.00e+00	0	39	0	1094713344	56	6400
2026-01-03 00:14:37.04	340.79	27.90	-41.3	-42.4	21.9	0.00e+00	0	39	0	1102053376	56	5981
2026-01-03 00:14:41.08	340.71	27.19	-40.9	-42.0	22.2	0.00e+00	0	39	0	1109393408	56	5715
2026-01-03 00:14:45.12	340.63	26.51	-40.5	-41.5	22.4	0.00e+00	0	39	0	1116733440	54	6036
2026-01-03 00:14:49.17	340.55	25.84	-39.9	-40.9	23.1	0.00e+00	0	39	0	1125122048	52	6354
2026-01-03 00:14:53.21	340.48	25.19	-39.8	-40.7	23.2	0.00e+00	0	39	0	1132462080	52	6238
2026-01-03 00:14:57.25	340.42	24.55	-40.1	-41.1	22.8	0.00e+00	0	39	0	1139802112	52	6478
2026-01-03 00:15:01.28	340.35	23.93	-39.9	-40.9	23.1	0.00e+00	0	39	0	1147142144	52	6320
2026-01-03 00:15:05.33	340.29	23.32	-39.6	-40.6	23.3	0.00e+00	0	39	0	1155530752	52	6119
2026-01-03 00:15:09.36	340.24	22.73	-39.6	-40.6	23.3	0.00e+00	0	39	0	1162870784	52	6134
2026-01-03 00:15:13.40	340.18	22.15	-39.6	-40.5	23.4	0.00e+00	0	39	0	1170210816	52	6092
2026-01-03 00:15:17.44	340.13	21.59	-40.0	-41.0	22.9	0.00e+00	0	39	0	1177550848	52	6431
2026-01-03 00:15:21.48	340.08	21.03	-40.8	-41.8	22.5	0.00e+00	0	39	0	1184890880	54	6314
2026-01-03 00:15:25.52	340.03	20.49	-41.0	-42.1	22.0	0.00e+00	0	39	0	1193279488	54	6480
2026-01-03 00:15:29.56	339.98	19.96	-40.7	-41.8	22.2	0.00e+00	0	39	0	1200619520	54	6298
2026-01-03 00:15:33.59	339.94	19.44	-40.6	-41.7	22.3	0.00e+00	0	39	0	1207959552	54	6201
2026-01-03 00:15:37.63	339.90	18.93	-40.3	-41.3	22.5	0.00e+00	0	39	0	1215299584	54	5952
2026-01-03 00:15:41.67	339.86	18.43	-40.2	-41.2	22.6	0.00e+00	0	39	0	1223688192	54	5890
2026-01-03 00:15:45.72	339.82	17.94	-40.3	-41.4	22.4	0.00e+00	0	39	0	1231028224	54	6001
2026-01-03 00:15:49.75	339.79	17.47	-40.5	-41.6	22.1	0.00e+00	0	39	0	1238368256	54	6152
2026-01-03 00:15:53.80	339.75	17.00	-40.5	-41.6	22.1	0.00e+00	0	39	0	1245708288	54	6162
2026-01-03 00:15:57.84	339.72	16.53	-40.8	-41.9	21.8	0.00e+00	0	39	0	1253048320	54	6390
2026-01-03 00:16:01.87	339.69	16.08	-41.0	-42.1	21.7	0.00e+00	0	39	0	1261436928	54	6526
2026-01-03 00:16:05.91	339.66	15.64	-41.0	-42.1	21.6	0.00e+00	0	39	0	1268776960	54	6519
2026-01-03 00:16:09.95	339.63	15.20	-41.0	-42.2	21.6	0.00e+00	0	39	0	1276116992	54	6550
2026-01-03 00:16:13.99	339.60	14.77	-41.1	-42.3	21.5	0.00e+00	0	39	0	1283457024	54	6644
2026-01-03 00:16:18.03	339.58	14.35	-41.0	-42.1	21.7	0.00e+00	0	39	0	1291845632	54	6496
2026-01-03 00:16:22.08	339.55	13.94	-40.9	-42.0	21.6	0.00e+00	0	39	0	1299185664	54	6441
2026-01-03 00:16:26.12	339.53	13.53	-41.2	-42.4	21.3	0.00e+00	0	39	0	1306525696	54	6748
2026-01-03 00:16:30.16	339.50	13.13	-41.1	-42.3	21.4	0.00e+00	0	39	0	1313865728	54	6632
2026-01-03 00:16:34.19	339.48	12.74	-41.3	-42.5	21.2	0.00e+00	0	39	0	1321205760	54	6824
2026-01-03 00:16:38.23	339.46	12.35	-41.4	-42.7	21.1	0.00e+00	0	39	0	1329594368	54	6944
2026-01-03 00:16:42.27	339.44	11.97	-41.6	-42.9	20.7	0.00e+00	0	39	0	1336934400	54	7125
2026-01-03 00:16:46.31	339.42	11.59	-41.7	-43.0	20.7	0.00e+00	0	39	0	1344274432	56	6442
2026-01-03 00:16:50.35	339.41	11.22	-41.8	-43.2	20.6	0.00e+00	0	39	0	1351614464	56	6554
2026-01-03 00:16:54.40	339.39	10.86	-41.9	-43.2	20.5	0.00e+00	0	39	0	1360003072	56	6605
2026-01-03 00:16:58.44	339.37	10.50	-41.9	-43.2	20.4	0.00e+00	0	39	0	1367343104	56	6591
2026-01-03 00:17:02.47	339.36	10.14	-41.9	-43.2	20.3	0.00e+00	0	39	0	1374683136	56	6579
2026-01-03 00:17:06.51	339.34	9.79	-41.7	-43.0	20.6	0.00e+00	0	39	0	1382023168	56	6426
2026-01-03 00:17:10.55	339.33	9.45	-41.7	-43.0	20.5	0.00e+00	0	39	0	1389363200	56	6459
2026-01-03 00:17:14.59	339.32	9.11	-41.5	-42.8	20.8	0.00e+00	0	39	0	1397751808	56	6246
2026-01-03 00:17:18.63	339.31	8.78	-41.6	-42.9	20.7	0.00e+00	0	39	0	1405091840	56	6351
2026-01-03 00:17:22.67	339.29	8.45	-41.4	-42.6	20.9	0.00e+00	0	39	0	1412431872	56	6160
2026-01-03 00:17:26.71	339.28	8.12	-41.5	-42.8	20.7	0.00e+00	0	39	0	1419771904	56	6285
2026-01-03 00:17:30.75	339.27	7.80	-41.5	-42.8	20.7	0.00e+00	0	39	0	1428160512	56	6307
2026-01-03 00:17:34.79	339.26	7.48	-41.5	-42.8	20.6	0.00e+00	0	39	0	1435500544	56	6311
2026-01-03 00:17:38.83	339.25	7.16	-41.5	-42.8	20.5	0.00e+00	0	39	0	1442840576	56	6275
2026-01-03 00:17:42.87	339.25	6.85	-41.7	-43.0	20.2	0.00e+00	0	39	0	1450180608	56	6463
2026-01-03 00:17:46.91	339.24	6.55	-41.5	-42.9	20.3	0.00e+00	0	39	0	1457520640	56	6332
2026-01-03 00:17:50.95	339.23	6.25	-41.4	-42.8	20.6	0.00e+00	0	39	0	1465909248	56	6258
2026-01-03 00:17:54.99	339.22	5.95	-41.4	-42.8	20.4	0.00e+00	0	39	0	1473249280	56	6280
2026-01-03 00:17:59.03	339.22	5.65	-42.2	-43.8	19.2	0.00e+00	0	39	0	1480589312	56	7009
2026-01-03 00:18:03.07	339.21	5.36	-42.4	-44.3	18.1	0.00e+00	0	39	0	1487929344	56	7456
2026-01-03 00:18:07.11	339.20	5.07	-43.7	-46.5	15.1	0.00e+00	0	39	0	1496317952	58	8615
2026-01-03 00:18:11.15	339.20	4.78	-44.5	-48.9	11.9	1.72e-04	0	39	0	1503657984	60	10121
2026-01-03 00:18:15.19	339.19	4.50	-45.1	-51.3	8.5	3.05e-02	0	39	0	1510998016	60	13336
2026-01-03 00:18:19.23	339.19	4.22	-45.3	-54.1	5.0	5.40e-01	0	39	0	1518338048	60	18405
2026-01-03 00:18:23.28	339.19	3.94	-45.4	-58.2	3.7	1.48e+00	0	39	104	1523580928	60	29521
2026-01-03 00:18:27.32	339.18	3.66	-45.4	-59.9	3.6	1.51e+00	0	39	104	1523580928	60	35617
2026-01-03 00:18:31.35	339.18	3.39	-45.4	-60.3	3.6	1.51e+00	0	39	104	1523580928	60	37623
2026-01-03 00:18:35.39	339.18	3.12	-45.4	-60.6	3.6	1.51e+00	0	39	104	1523580928	60	38751
2026-01-03 00:18:39.43	339.18	2.86	-49.6	-64.9	3.6	1.51e+00	0	39	104	1523580928	60	63289
2026-01-03 00:18:43.47	339.17	2.59	-50.3	-65.5	3.6	1.51e+00	0	39	104	1523580928	60	68117
2026-01-03 00:18:47.51	339.17	2.33	-49.8	-65.5	3.6	1.51e+00	0	39	104	1523580928	60	67730
2026-01-03 00:18:51.55	339.17	2.07	-50.1	-65.4	3.6	1.51e+00	0	39	104	1523580928	60	67124
2026-01-03 00:18:55.59	339.17	1.81	-50.2	-65.3	3.6	1.51e+00	0	39	104	1523580928	60	66830
2026-01-03 00:18:59.63	339.17	1.56	-50.3	-65.5	3.6	1.51e+00	0	39	104	1523580928	60	67993
2026-01-03 00:19:03.67	339.17	1.31	-50.3	-65.4	3.6	1.51e+00	0	39	104	1523580928	60	67583
2026-01-03 00:19:07.71	339.17	1.06	-50.2	-65.4	3.6	1.51e+00	0	39	104	1523580928	60	67541
2026-01-03 00:19:11.75	339.17	0.81	-50.2	-65.5	3.6	1.51e+00	0	39	104	1523580928	60	67741
2026-01-03 00:19:15.79	339.17	0.56	-50.3	-65.5	3.6	1.51e+00	0	39	104	1523580928	60	67832
2026-01-03 00:19:19.83	339.17	0.32	-50.2	-65.4	3.6	1.51e+00	0	39	104	1523580928	60	67452
2026-01-03 00:19:23.87	339.17	0.07	-50.3	-65.5	3.6	1.51e+00	0	39	104	1523580928	60	67828

#Closed at: 2026-01-03 00:19:27
#Recorded file [1523 MB]: D:/lorett/data/35029_260103_120354.dat