passes_logs/2026/01/03/R4.6S_Anadyr/R4.6S_Anadyr__20260103_200750_SUOMI_NPP_rec.log

#Pass ID: 20260103_200750_SUOMI NPP
#Satellite: SUOMI NPP
#Configuration: NPP
#almurnet v.1.7.20251203
#Start time: 2026-01-03 20:07:52

#Version: 2.2.20231116
#Station: R4.6S_Anadyr
#Location: 177.4865 lon 64.73178 lat
#TLE: 1 37849U 11061A   26001.07732418  .00000182  00000+0  10735-3 0  9990
#TLE: 2 37849  98.7795 303.2470 0002580  87.2016 272.9455 14.19520779734739

#Time	Az	El	Level	Level2	SNR	BER	BlckErr	Temp	State	Recorded	gain1	gain2
2026-01-03 20:07:52.91	63.18	0.11	-50.3	-62.0	3.5	8.45e-01	0	36	0	0	60	45601
2026-01-03 20:07:55.93	62.96	0.26	-51.8	-66.9	3.6	1.51e+00	0	37	104	0	60	80196
2026-01-03 20:07:58.96	62.73	0.41	-51.0	-66.2	3.6	1.51e+00	0	38	104	0	60	73469
2026-01-03 20:08:01.99	62.50	0.56	-50.2	-65.4	3.6	1.51e+00	0	38	104	0	60	67195
2026-01-03 20:08:05.02	62.26	0.71	-49.8	-65.0	3.6	1.51e+00	0	38	104	0	60	64279
2026-01-03 20:08:08.04	62.03	0.85	-49.2	-64.4	3.6	1.51e+00	0	38	104	0	60	60283
2026-01-03 20:08:11.07	61.79	1.00	-48.5	-63.7	3.6	1.51e+00	0	38	104	0	60	55299
2026-01-03 20:08:14.10	61.55	1.15	-48.4	-63.5	3.6	1.51e+00	0	38	104	0	60	54224
2026-01-03 20:08:17.13	61.30	1.30	-48.5	-63.6	3.6	1.51e+00	0	38	104	0	60	54836
2026-01-03 20:08:20.16	61.06	1.46	-48.5	-63.7	3.6	1.51e+00	0	38	104	0	60	55311
2026-01-03 20:08:23.19	60.81	1.61	-48.6	-63.7	3.6	1.51e+00	0	38	104	0	60	55476
2026-01-03 20:08:26.22	60.56	1.76	-48.7	-63.7	3.6	1.51e+00	0	38	104	0	60	55549
2026-01-03 20:08:29.25	60.30	1.91	-49.1	-64.2	3.5	1.51e+00	0	38	104	0	60	58424
2026-01-03 20:08:32.29	60.04	2.06	-48.8	-63.7	3.6	1.51e+00	0	38	104	0	60	55083
2026-01-03 20:08:35.31	59.78	2.21	-48.9	-63.8	3.6	1.51e+00	0	38	104	0	60	56004
2026-01-03 20:08:38.34	59.52	2.37	-48.9	-64.0	3.6	1.51e+00	0	38	104	0	60	57532
2026-01-03 20:08:41.37	59.26	2.52	-48.6	-63.7	3.6	1.51e+00	0	38	104	0	60	55539
2026-01-03 20:08:44.40	58.99	2.67	-48.7	-62.7	3.6	1.51e+00	0	38	104	0	60	49458
2026-01-03 20:08:47.43	58.72	2.82	-48.5	-63.2	3.6	1.51e+00	0	38	104	0	60	52217
2026-01-03 20:08:50.46	58.44	2.98	-48.3	-56.4	5.4	5.04e-01	92	38	0	2097152	60	24002
2026-01-03 20:08:53.49	58.16	3.13	-46.0	-49.7	10.1	1.94e-01	44	38	104	3145728	60	11014
2026-01-03 20:08:56.51	57.88	3.28	-45.8	-49.3	13.3	0.00e+00	0	39	0	3145728	60	10487
2026-01-03 20:08:59.54	57.60	3.44	-44.9	-47.5	15.5	0.00e+00	0	39	0	8388608	60	8592
2026-01-03 20:09:02.57	57.31	3.59	-44.5	-46.9	16.1	0.00e+00	88	39	0	13631488	60	7957
2026-01-03 20:09:05.59	57.03	3.75	-44.0	-46.1	16.9	0.00e+00	54	39	0	19922944	60	7328
2026-01-03 20:09:08.62	56.73	3.90	-44.1	-46.2	16.9	0.00e+00	0	38	0	25165824	60	7367
2026-01-03 20:09:11.65	56.44	4.05	-44.0	-46.1	16.8	0.00e+00	84	39	0	31457280	60	7314
2026-01-03 20:09:14.67	56.14	4.21	-43.7	-45.7	17.2	0.00e+00	92	39	0	36700160	60	6954
2026-01-03 20:09:17.70	55.84	4.36	-43.8	-45.9	17.1	0.00e+00	0	39	0	41943040	60	7096
2026-01-03 20:09:20.72	55.53	4.52	-43.6	-45.6	17.4	0.00e+00	0	39	0	48234496	60	6879
2026-01-03 20:09:23.75	55.22	4.67	-43.5	-45.4	17.6	0.00e+00	92	38	0	53477376	60	6720
2026-01-03 20:09:26.77	54.91	4.83	-43.6	-45.4	17.6	0.00e+00	0	39	0	59768832	60	6759
2026-01-03 20:09:29.80	54.59	4.98	-43.3	-45.1	18.0	0.00e+00	0	39	0	65011712	60	6499
2026-01-03 20:09:32.82	54.28	5.14	-43.7	-45.6	17.1	0.00e+00	92	39	0	70254592	60	6862
2026-01-03 20:09:35.85	53.95	5.30	-43.5	-45.4	17.7	0.00e+00	92	39	0	76546048	60	6707
2026-01-03 20:09:38.88	53.63	5.45	-43.7	-45.6	17.5	0.00e+00	0	39	0	81788928	60	6901
2026-01-03 20:09:41.90	53.30	5.61	-43.9	-45.8	18.0	0.00e+00	88	39	0	88080384	60	7054
2026-01-03 20:09:44.92	52.96	5.76	-43.3	-45.1	17.9	0.00e+00	91	39	0	93323264	60	6498
2026-01-03 20:09:47.95	52.63	5.92	-43.7	-45.6	17.8	0.00e+00	0	39	0	99614720	60	6910
2026-01-03 20:09:50.97	52.29	6.07	-42.4	-43.9	19.0	0.00e+00	0	39	0	104857600	58	6356
2026-01-03 20:09:54.00	51.94	6.23	-43.1	-44.7	18.3	0.00e+00	63	39	0	110100480	58	7005
2026-01-03 20:09:57.03	51.59	6.38	-43.2	-44.9	18.1	3.66e-05	0	39	0	116391936	58	7116
2026-01-03 20:10:00.05	51.24	6.54	-42.6	-44.2	18.8	0.00e+00	0	39	0	121634816	58	6584
2026-01-03 20:10:03.08	50.89	6.69	-42.7	-44.2	18.4	0.00e+00	73	39	0	127926272	60	5873
2026-01-03 20:10:06.11	50.52	6.85	-43.3	-45.0	16.7	2.20e-06	30	39	0	133169152	60	6429
2026-01-03 20:10:09.14	50.16	7.00	-46.7	-50.3	13.7	0.00e+00	0	39	0	138412032	60	11841
2026-01-03 20:10:12.16	49.79	7.16	-43.9	-45.7	17.8	0.00e+00	84	39	0	144703488	60	6968
2026-01-03 20:10:15.19	49.42	7.31	-42.6	-44.1	19.0	0.00e+00	79	39	0	149946368	58	6500
2026-01-03 20:10:18.22	49.04	7.47	-42.5	-44.1	19.1	0.00e+00	0	39	0	156237824	58	6470
2026-01-03 20:10:21.24	48.67	7.62	-42.4	-44.0	19.0	0.00e+00	0	39	0	161480704	58	6409
2026-01-03 20:10:24.27	48.28	7.78	-42.9	-44.4	19.0	0.00e+00	92	39	0	167772160	60	6026
2026-01-03 20:10:27.29	47.89	7.93	-42.8	-44.4	18.7	0.00e+00	25	39	0	173015040	58	6735
2026-01-03 20:10:30.32	47.50	8.08	-42.6	-44.0	19.3	0.00e+00	0	39	0	178257920	58	6458
2026-01-03 20:10:33.35	47.10	8.24	-42.4	-43.9	19.1	0.00e+00	92	39	0	184549376	58	6371
2026-01-03 20:10:36.38	46.70	8.39	-42.7	-44.2	19.1	0.00e+00	92	39	0	189792256	60	5840
2026-01-03 20:10:39.40	46.30	8.54	-42.0	-43.3	19.6	0.00e+00	0	39	0	196083712	58	5964
2026-01-03 20:10:42.43	45.89	8.69	-42.7	-44.2	19.2	0.00e+00	55	39	0	201326592	58	6604
2026-01-03 20:10:45.46	45.47	8.84	-43.2	-45.0	18.8	0.00e+00	27	39	0	206569472	58	7172
2026-01-03 20:10:48.48	45.05	8.99	-43.4	-45.0	18.6	0.00e+00	0	39	0	212860928	60	6457
2026-01-03 20:10:51.51	44.63	9.14	-42.9	-44.4	19.3	0.00e+00	0	39	0	218103808	60	5972
2026-01-03 20:10:54.54	44.20	9.29	-42.4	-43.9	19.4	0.00e+00	91	39	0	224395264	58	6322
2026-01-03 20:10:57.57	43.77	9.44	-42.2	-43.6	19.8	0.00e+00	0	39	0	229638144	58	6131
2026-01-03 20:11:00.59	43.33	9.59	-41.7	-43.0	20.4	0.00e+00	0	39	0	234881024	58	5719
2026-01-03 20:11:03.62	42.89	9.74	-41.8	-43.1	20.5	0.00e+00	0	39	0	241172480	56	6486
2026-01-03 20:11:06.65	42.45	9.88	-41.4	-42.7	20.8	0.00e+00	62	39	0	246415360	56	6196
2026-01-03 20:11:09.68	42.00	10.03	-40.8	-42.0	21.1	0.00e+00	0	39	0	252706816	56	5726
2026-01-03 20:11:12.71	41.54	10.17	-40.8	-41.9	21.4	0.00e+00	0	39	0	257949696	54	6355
2026-01-03 20:11:15.73	41.08	10.32	-40.6	-41.6	21.8	0.00e+00	69	39	0	264241152	56	5495
2026-01-03 20:11:18.76	40.62	10.46	-40.5	-41.6	21.8	0.00e+00	0	39	0	269484032	54	6105
2026-01-03 20:11:21.79	40.15	10.60	-40.5	-41.7	21.6	0.00e+00	0	39	0	274726912	54	6181
2026-01-03 20:11:24.82	39.68	10.74	-41.0	-42.2	21.0	0.00e+00	0	39	0	281018368	54	6582
2026-01-03 20:11:27.84	39.20	10.88	-40.6	-41.8	21.6	0.00e+00	20	39	0	286261248	54	6283
2026-01-03 20:11:30.87	38.72	11.02	-40.4	-41.5	21.6	0.00e+00	0	39	0	292552704	54	6067
2026-01-03 20:11:33.90	38.23	11.16	-39.9	-40.9	22.3	0.00e+00	0	39	0	297795584	54	5666
2026-01-03 20:11:36.93	37.74	11.29	-39.7	-40.7	22.4	0.00e+00	90	39	0	303038464	52	6198
2026-01-03 20:11:39.95	37.24	11.43	-39.8	-40.8	22.5	0.00e+00	0	39	0	309329920	52	6263
2026-01-03 20:11:42.98	36.74	11.56	-40.4	-41.5	21.9	0.00e+00	0	39	0	314572800	52	6822
2026-01-03 20:11:46.00	36.24	11.69	-39.7	-40.7	22.3	0.00e+00	64	39	0	320864256	52	6213
2026-01-03 20:11:49.03	35.73	11.82	-39.5	-40.4	22.6	0.00e+00	0	39	0	326107136	52	6013
2026-01-03 20:11:52.05	35.21	11.95	-39.5	-40.5	22.8	0.00e+00	0	39	0	331350016	52	6046
2026-01-03 20:11:55.08	34.69	12.08	-39.5	-40.5	22.4	0.00e+00	0	39	0	337641472	52	6097
2026-01-03 20:11:58.11	34.17	12.20	-39.9	-41.0	22.2	0.00e+00	0	39	0	342884352	52	6418
2026-01-03 20:12:01.14	33.64	12.33	-40.5	-41.7	21.2	0.00e+00	0	39	0	349175808	52	6941
2026-01-03 20:12:04.17	33.11	12.45	-40.4	-41.5	21.8	0.00e+00	0	39	0	354418688	52	6844
2026-01-03 20:12:07.19	32.57	12.57	-40.3	-41.4	21.9	0.00e+00	89	39	0	360710144	52	6712
2026-01-03 20:12:10.22	32.03	12.69	-40.6	-41.7	21.6	0.00e+00	0	39	0	365953024	52	6998
2026-01-03 20:12:13.25	31.48	12.80	-40.7	-41.8	21.4	0.00e+00	0	39	0	371195904	54	6309
2026-01-03 20:12:16.28	30.93	12.92	-39.7	-40.8	22.4	0.00e+00	92	39	0	377487360	52	6268
2026-01-03 20:12:19.30	30.38	13.03	-39.6	-40.6	22.7	0.00e+00	0	39	0	382730240	52	6164
2026-01-03 20:12:22.33	29.82	13.14	-39.6	-40.6	22.6	0.00e+00	0	39	0	389021696	52	6132
2026-01-03 20:12:25.35	29.26	13.25	-39.9	-41.0	22.2	0.00e+00	0	39	0	394264576	52	6416
2026-01-03 20:12:28.38	28.69	13.35	-39.8	-40.8	22.6	0.00e+00	63	39	0	399507456	54	5569
2026-01-03 20:12:31.40	28.12	13.45	-40.5	-41.6	22.1	0.00e+00	0	39	0	405798912	52	6879
2026-01-03 20:12:34.42	27.55	13.55	-40.9	-42.1	21.7	0.00e+00	0	39	0	411041792	54	6466
2026-01-03 20:12:37.45	26.97	13.65	-40.5	-41.7	21.6	0.00e+00	56	39	0	417333248	54	6176
2026-01-03 20:12:40.48	26.38	13.75	-40.3	-41.4	21.8	0.00e+00	0	39	0	422576128	54	6001
2026-01-03 20:12:43.51	25.80	13.84	-39.3	-40.3	22.1	0.00e+00	0	39	0	427819008	52	5928
2026-01-03 20:12:46.54	25.21	13.93	-40.5	-41.5	20.6	0.00e+00	59	39	0	434110464	54	6088
2026-01-03 20:12:49.56	24.61	14.02	-39.5	-40.4	22.6	0.00e+00	0	39	0	439353344	52	6030
2026-01-03 20:12:52.59	24.02	14.10	-39.4	-40.4	22.7	0.00e+00	0	39	0	445644800	52	5965
2026-01-03 20:12:55.62	23.41	14.19	-38.9	-39.8	23.1	0.00e+00	0	39	0	450887680	52	5619
2026-01-03 20:12:58.65	22.81	14.26	-39.3	-40.3	22.9	0.00e+00	60	39	0	457179136	52	5906
2026-01-03 20:13:01.67	22.20	14.34	-40.5	-41.6	21.9	0.00e+00	0	39	0	462422016	52	6880
2026-01-03 20:13:04.70	21.59	14.41	-40.5	-41.5	21.9	0.00e+00	0	39	0	467664896	54	6103
2026-01-03 20:13:07.73	20.98	14.48	-40.4	-41.5	21.8	0.00e+00	90	39	0	473956352	54	6054
2026-01-03 20:13:10.76	20.36	14.55	-40.5	-41.6	21.8	0.00e+00	0	39	0	479199232	54	6136
2026-01-03 20:13:13.79	19.74	14.61	-40.4	-41.5	21.8	0.00e+00	0	39	0	485490688	54	6084
2026-01-03 20:13:16.81	19.12	14.67	-41.1	-42.3	18.4	0.00e+00	92	39	0	490733568	54	6662
2026-01-03 20:13:19.84	18.50	14.73	-41.4	-42.5	20.4	0.00e+00	0	39	0	495976448	56	6097
2026-01-03 20:13:22.87	17.87	14.79	-39.9	-40.9	22.5	0.00e+00	0	39	0	502267904	52	6334
2026-01-03 20:13:25.89	17.24	14.84	-39.8	-40.8	22.5	0.00e+00	0	39	0	507510784	52	6274
2026-01-03 20:13:28.92	16.61	14.88	-42.4	-43.8	21.3	0.00e+00	24	39	0	513802240	56	7036
2026-01-03 20:13:31.95	15.98	14.93	-40.5	-41.6	21.8	0.00e+00	0	39	0	519045120	54	6171
2026-01-03 20:13:34.97	15.35	14.97	-40.1	-41.1	22.2	0.00e+00	0	39	0	525336576	54	5807
2026-01-03 20:13:38.00	14.71	15.00	-41.9	-43.1	20.5	0.00e+00	90	39	0	530579456	56	6536
2026-01-03 20:13:41.03	14.07	15.04	-40.3	-41.4	21.9	0.00e+00	0	39	0	535822336	54	6011
2026-01-03 20:13:44.06	13.43	15.07	-41.2	-42.4	21.5	0.00e+00	0	39	0	542113792	54	6740
2026-01-03 20:13:47.08	12.79	15.09	-39.8	-40.9	22.2	0.00e+00	12	39	0	547356672	54	5635
2026-01-03 20:13:50.11	12.15	15.12	-40.1	-41.1	22.1	0.00e+00	9	39	0	553648128	52	6510
2026-01-03 20:13:53.14	11.51	15.13	-39.8	-40.9	22.3	0.00e+00	0	39	0	558891008	52	6320
2026-01-03 20:13:56.17	10.86	15.15	-39.5	-40.5	22.5	0.00e+00	0	39	0	564133888	52	6081
2026-01-03 20:13:59.19	10.22	15.16	-40.9	-42.1	21.7	0.00e+00	41	39	0	570425344	54	6510
2026-01-03 20:14:02.22	9.58	15.17	-40.5	-41.6	22.0	0.00e+00	0	39	0	575668224	54	6127
2026-01-03 20:14:05.25	8.93	15.17	-40.9	-42.1	21.9	0.00e+00	0	39	0	581959680	54	6494
2026-01-03 20:14:08.28	8.29	15.18	-39.6	-40.6	22.5	0.00e+00	92	39	0	587202560	54	5493
2026-01-03 20:14:11.31	7.64	15.17	-39.9	-40.9	22.5	0.00e+00	0	39	0	592445440	54	5664
2026-01-03 20:14:14.33	7.00	15.17	-40.0	-41.0	22.4	0.00e+00	0	39	0	598736896	52	6426
2026-01-03 20:14:17.36	6.36	15.16	-40.0	-41.0	22.3	0.00e+00	92	39	0	603979776	52	6426
2026-01-03 20:14:20.39	5.71	15.14	-40.7	-41.8	21.7	0.00e+00	0	39	0	610271232	54	6303
2026-01-03 20:14:23.41	5.07	15.13	-40.5	-41.6	21.5	0.00e+00	0	39	0	615514112	54	6160
2026-01-03 20:14:26.44	4.43	15.10	-40.4	-41.5	21.6	0.00e+00	0	39	0	621805568	54	6089
2026-01-03 20:14:29.47	3.79	15.08	-40.6	-41.7	22.0	0.00e+00	47	39	0	627048448	54	6233
2026-01-03 20:14:32.50	3.15	15.05	-39.9	-40.9	22.3	0.00e+00	0	39	0	632291328	54	5673
2026-01-03 20:14:35.53	2.51	15.02	-40.1	-41.2	22.3	0.00e+00	0	39	0	638582784	52	6551
2026-01-03 20:14:38.56	1.87	14.99	-40.0	-41.1	22.0	0.00e+00	92	39	0	643825664	52	6505
2026-01-03 20:14:41.58	1.24	14.95	-40.4	-41.4	22.0	0.00e+00	0	39	0	650117120	52	6764
2026-01-03 20:14:44.61	0.60	14.90	-39.3	-40.3	22.8	0.00e+00	0	39	0	655360000	52	5908
2026-01-03 20:14:47.64	359.97	14.86	-39.3	-40.2	22.8	0.00e+00	0	39	0	660602880	52	5883
2026-01-03 20:14:50.67	359.34	14.81	-41.4	-42.6	21.0	0.00e+00	33	39	0	666894336	52	7736
2026-01-03 20:14:53.70	358.71	14.76	-39.9	-41.0	22.3	0.00e+00	0	39	0	672137216	52	6399
2026-01-03 20:14:56.72	358.09	14.70	-40.5	-41.6	22.0	0.00e+00	0	39	0	678428672	52	6857
2026-01-03 20:14:59.75	357.47	14.64	-40.5	-41.7	21.8	0.00e+00	61	39	0	683671552	54	6184
2026-01-03 20:15:02.78	356.85	14.58	-40.2	-41.3	22.0	0.00e+00	0	39	0	689963008	54	5943
2026-01-03 20:15:05.80	356.23	14.52	-39.7	-40.7	22.4	0.00e+00	0	39	0	695205888	52	6214
2026-01-03 20:15:08.83	355.62	14.45	-39.5	-40.5	22.7	0.00e+00	61	39	0	700448768	52	6039
2026-01-03 20:15:11.85	355.01	14.38	-39.8	-40.8	22.4	0.00e+00	0	39	0	706740224	52	6287
2026-01-03 20:15:14.87	354.40	14.30	-39.8	-40.8	22.6	0.00e+00	0	39	0	711983104	52	6248
2026-01-03 20:15:17.90	353.79	14.22	-39.7	-40.7	22.6	0.00e+00	0	39	0	718274560	52	6182
2026-01-03 20:15:20.93	353.19	14.14	-40.8	-41.9	21.9	0.00e+00	65	39	0	723517440	54	6367
2026-01-03 20:15:23.96	352.59	14.06	-40.5	-41.6	21.6	0.00e+00	0	39	0	728760320	54	6163
2026-01-03 20:15:26.98	352.00	13.98	-40.2	-41.2	22.1	0.00e+00	0	39	0	735051776	54	5894
2026-01-03 20:15:30.01	351.40	13.89	-40.2	-41.3	22.0	0.00e+00	60	39	0	740294656	54	5907
2026-01-03 20:15:33.03	350.82	13.80	-40.2	-41.3	21.8	0.00e+00	0	39	0	746586112	54	5919
2026-01-03 20:15:36.06	350.23	13.70	-39.7	-40.7	22.3	0.00e+00	0	39	0	751828992	52	6238
2026-01-03 20:15:39.09	349.65	13.60	-40.4	-41.5	22.0	0.00e+00	47	39	0	757071872	52	6773
2026-01-03 20:15:42.12	349.07	13.50	-40.0	-41.0	22.2	0.00e+00	0	39	0	763363328	52	6441
2026-01-03 20:15:45.14	348.50	13.40	-39.6	-40.6	22.7	0.00e+00	0	39	0	768606208	52	6131
2026-01-03 20:15:48.17	347.93	13.30	-39.0	-39.9	23.1	0.00e+00	0	39	0	774897664	52	5687
2026-01-03 20:15:51.19	347.37	13.19	-39.1	-40.0	23.1	0.00e+00	59	39	0	780140544	52	5753
2026-01-03 20:15:54.22	346.81	13.08	-39.9	-40.8	22.9	0.00e+00	0	39	0	786432000	52	6316
2026-01-03 20:15:57.25	346.25	12.97	-40.3	-41.4	22.0	0.00e+00	0	39	0	791674880	52	6698
2026-01-03 20:16:00.28	345.70	12.86	-40.8	-42.0	21.4	0.00e+00	83	39	0	796917760	54	6440
2026-01-03 20:16:03.31	345.15	12.75	-41.4	-42.6	21.3	0.00e+00	0	39	0	803209216	56	6110
2026-01-03 20:16:06.33	344.61	12.63	-41.1	-42.2	21.7	0.00e+00	0	39	0	808452096	56	5883
2026-01-03 20:16:09.35	344.07	12.51	-40.6	-41.7	21.7	0.00e+00	63	39	0	814743552	54	6207
2026-01-03 20:16:12.38	343.54	12.39	-41.4	-42.6	21.5	0.00e+00	0	39	0	819986432	54	6859
2026-01-03 20:16:15.40	343.01	12.27	-41.3	-42.5	21.3	0.00e+00	0	39	0	825229312	56	6043
2026-01-03 20:16:18.43	342.48	12.14	-41.2	-42.3	21.5	0.00e+00	0	39	0	831520768	56	5918
2026-01-03 20:16:21.46	341.96	12.02	-41.3	-42.5	21.1	0.00e+00	62	39	0	836763648	56	6042
2026-01-03 20:16:24.49	341.44	11.89	-41.7	-42.9	21.4	0.00e+00	0	39	0	843055104	56	6324
2026-01-03 20:16:27.51	340.93	11.76	-40.9	-41.9	22.2	0.00e+00	33	39	0	848297984	56	5642
2026-01-03 20:16:30.54	340.43	11.63	-40.2	-41.3	21.9	0.00e+00	92	39	0	853540864	54	5903
2026-01-03 20:16:33.56	339.92	11.50	-41.8	-42.9	21.2	0.00e+00	0	39	0	859832320	54	7161
2026-01-03 20:16:36.59	339.43	11.36	-42.7	-44.0	20.3	0.00e+00	0	39	0	865075200	56	7238
2026-01-03 20:16:39.62	338.93	11.23	-42.0	-43.3	20.5	0.00e+00	64	39	0	871366656	58	5951
2026-01-03 20:16:42.65	338.44	11.09	-41.9	-43.1	21.0	0.00e+00	0	39	0	876609536	56	6509
2026-01-03 20:16:45.67	337.96	10.95	-42.6	-44.0	20.0	0.00e+00	0	39	0	882900992	58	6429
2026-01-03 20:16:48.70	337.48	10.81	-44.1	-46.0	17.9	0.00e+00	0	39	0	888143872	60	7189
2026-01-03 20:16:51.73	337.00	10.67	-45.0	-47.2	17.1	0.00e+00	56	39	0	893386752	60	8245
2026-01-03 20:16:54.76	336.53	10.53	-44.7	-46.6	17.8	0.00e+00	0	39	0	899678208	60	7749
2026-01-03 20:16:57.78	336.07	10.39	-44.4	-46.1	18.7	0.00e+00	0	39	0	904921088	60	7270
2026-01-03 20:17:00.81	335.61	10.25	-43.4	-45.1	18.7	0.00e+00	57	39	0	911212544	60	6468
2026-01-03 20:17:03.84	335.15	10.10	-42.4	-43.8	19.6	0.00e+00	0	39	0	916455424	58	6313
2026-01-03 20:17:06.87	334.70	9.96	-42.7	-44.2	19.8	0.00e+00	0	39	0	921698304	58	6541
2026-01-03 20:17:09.89	334.25	9.81	-43.1	-44.6	19.6	0.00e+00	89	39	0	927989760	58	6861
2026-01-03 20:17:12.92	333.81	9.66	-43.2	-44.6	19.6	0.00e+00	0	39	0	933232640	60	6150
2026-01-03 20:17:15.95	333.37	9.52	-42.5	-43.8	20.2	0.00e+00	0	39	0	939524096	58	6285
2026-01-03 20:17:18.97	332.94	9.37	-42.4	-43.6	20.6	0.00e+00	0	39	0	944766976	56	6905
2026-01-03 20:17:22.00	332.51	9.22	-42.3	-43.7	20.3	0.00e+00	21	39	0	950009856	58	6198
2026-01-03 20:17:25.02	332.09	9.07	-42.0	-43.3	20.3	0.00e+00	0	39	0	956301312	58	5964
2026-01-03 20:17:28.05	331.66	8.92	-42.9	-44.3	19.7	0.00e+00	0	39	0	961544192	58	6664
2026-01-03 20:17:31.08	331.25	8.77	-42.5	-44.0	19.6	0.00e+00	92	39	0	967835648	58	6443
2026-01-03 20:17:34.11	330.84	8.62	-42.4	-43.8	19.8	0.00e+00	0	39	0	973078528	58	6288
2026-01-03 20:17:37.14	330.43	8.47	-42.2	-43.6	19.9	0.00e+00	0	39	0	979369984	58	6139
2026-01-03 20:17:40.17	330.03	8.31	-43.3	-44.9	18.7	0.00e+00	91	39	0	984612864	58	7134
2026-01-03 20:17:43.20	329.63	8.16	-42.6	-44.1	19.8	0.00e+00	41	39	0	989855744	58	6496
2026-01-03 20:17:46.22	329.23	8.01	-42.2	-43.5	20.7	0.00e+00	0	39	0	996147200	58	6041
2026-01-03 20:17:49.25	328.84	7.86	-41.9	-43.0	21.1	0.00e+00	0	39	0	1001390080	56	6462
2026-01-03 20:17:52.28	328.46	7.70	-43.2	-44.5	20.3	1.50e-06	62	39	0	1007681536	58	6819
2026-01-03 20:17:55.31	328.07	7.55	-41.8	-43.0	21.0	0.00e+00	0	39	0	1012924416	58	5718
2026-01-03 20:17:58.33	327.70	7.39	-42.1	-43.4	20.6	0.00e+00	0	39	0	1018167296	56	6705
2026-01-03 20:18:01.36	327.32	7.24	-41.7	-42.8	21.1	0.00e+00	76	39	0	1024458752	56	6307
2026-01-03 20:18:04.39	326.95	7.08	-40.5	-41.7	21.5	0.00e+00	0	39	0	1029701632	54	6183
2026-01-03 20:18:07.42	326.59	6.93	-42.3	-43.5	21.0	0.00e+00	0	39	0	1035993088	56	6793
2026-01-03 20:18:10.45	326.23	6.77	-43.7	-45.2	18.6	0.00e+00	92	39	0	1041235968	60	6603
2026-01-03 20:18:13.47	325.87	6.62	-43.0	-44.3	20.2	0.00e+00	50	39	0	1047527424	58	6682
2026-01-03 20:18:16.50	325.52	6.46	-44.5	-46.1	18.4	0.00e+00	0	39	0	1052770304	60	7331
2026-01-03 20:18:19.54	325.16	6.31	-42.0	-43.3	20.1	0.00e+00	0	39	0	1058013184	58	5945
2026-01-03 20:18:22.57	324.82	6.15	-41.6	-43.0	19.7	0.00e+00	52	39	0	1064304640	56	6396
2026-01-03 20:18:25.59	324.48	6.00	-41.8	-43.2	19.9	0.00e+00	0	39	0	1069547520	56	6574
2026-01-03 20:18:28.62	324.14	5.84	-41.8	-43.1	20.0	0.00e+00	0	39	0	1075838976	56	6535
2026-01-03 20:18:31.65	323.80	5.69	-41.5	-42.8	20.2	0.00e+00	92	39	0	1081081856	56	6312
2026-01-03 20:18:34.67	323.47	5.53	-41.4	-42.6	20.6	0.00e+00	0	39	0	1086324736	56	6170
2026-01-03 20:18:37.70	323.15	5.38	-41.2	-42.4	20.6	0.00e+00	0	39	0	1092616192	56	5995
2026-01-03 20:18:40.73	322.82	5.22	-41.3	-42.6	20.1	0.00e+00	0	39	0	1097859072	56	6130
2026-01-03 20:18:43.76	322.50	5.06	-41.7	-43.1	19.6	0.00e+00	41	39	0	1104150528	56	6529
2026-01-03 20:18:46.78	322.18	4.91	-42.4	-43.9	19.2	0.00e+00	0	39	0	1109393408	56	7130
2026-01-03 20:18:49.81	321.87	4.75	-42.1	-43.5	19.5	0.00e+00	0	39	0	1114636288	56	6816
2026-01-03 20:18:52.84	321.56	4.60	-41.7	-43.0	19.8	0.00e+00	92	39	0	1120927744	56	6447
2026-01-03 20:18:55.87	321.25	4.44	-42.1	-43.4	20.2	0.00e+00	0	39	0	1126170624	56	6767
2026-01-03 20:18:58.89	320.95	4.29	-41.7	-43.0	20.0	0.00e+00	0	39	0	1132462080	56	6406
2026-01-03 20:19:01.92	320.65	4.14	-41.2	-42.4	20.3	0.00e+00	92	39	0	1137704960	56	6028
2026-01-03 20:19:04.95	320.35	3.98	-42.3	-43.8	19.5	0.00e+00	0	39	0	1143996416	56	7035
2026-01-03 20:19:07.97	320.06	3.83	-43.0	-44.4	19.5	0.00e+00	0	39	0	1149239296	58	6720
2026-01-03 20:19:11.00	319.77	3.67	-42.9	-44.6	18.6	0.00e+00	0	39	0	1154482176	58	6882
2026-01-03 20:19:14.03	319.48	3.52	-44.6	-46.6	17.9	0.00e+00	33	39	0	1160773632	60	7690
2026-01-03 20:19:17.05	319.20	3.36	-44.0	-45.8	17.9	0.00e+00	0	39	0	1166016512	60	7064
2026-01-03 20:19:20.08	318.92	3.21	-44.4	-46.3	17.7	0.00e+00	0	39	0	1172307968	60	7501
2026-01-03 20:19:23.10	318.64	3.06	-44.4	-46.4	17.8	0.00e+00	48	39	0	1177550848	60	7530
2026-01-03 20:19:26.13	318.37	2.90	-51.3	-66.6	3.6	1.51e+00	0	39	104	1180696576	60	77134
2026-01-03 20:19:29.16	318.09	2.75	-51.1	-66.3	3.6	1.51e+00	0	39	104	1180696576	60	74646
2026-01-03 20:19:32.19	317.82	2.60	-51.1	-66.3	3.6	1.51e+00	0	39	104	1180696576	60	74894
2026-01-03 20:19:35.22	317.56	2.45	-50.7	-66.1	3.6	1.51e+00	0	39	104	1180696576	60	73010
2026-01-03 20:19:38.24	317.29	2.29	-51.5	-66.7	3.6	1.51e+00	0	39	104	1180696576	60	78479
2026-01-03 20:19:41.27	317.03	2.14	-50.7	-65.9	3.6	1.51e+00	0	39	104	1180696576	60	71385
2026-01-03 20:19:44.30	316.78	1.99	-50.8	-66.0	3.6	1.51e+00	0	39	104	1180696576	60	72332
2026-01-03 20:19:47.33	316.52	1.84	-51.7	-66.9	3.6	1.51e+00	0	39	104	1180696576	60	79647
2026-01-03 20:19:50.36	316.27	1.69	-52.0	-67.2	3.6	1.51e+00	0	39	104	1180696576	60	82509
2026-01-03 20:19:53.39	316.02	1.54	-50.8	-66.0	3.6	1.51e+00	0	39	104	1180696576	60	72221
2026-01-03 20:19:56.42	315.77	1.39	-51.3	-66.5	3.6	1.51e+00	0	39	104	1180696576	60	76586
2026-01-03 20:19:59.45	315.53	1.24	-50.9	-66.1	3.6	1.51e+00	0	39	104	1180696576	60	72868
2026-01-03 20:20:02.47	315.28	1.09	-51.9	-67.1	3.6	1.51e+00	0	39	104	1180696576	60	81481
2026-01-03 20:20:05.50	315.04	0.94	-51.8	-67.0	3.6	1.51e+00	0	39	104	1180696576	60	81246
2026-01-03 20:20:08.53	314.81	0.79	-50.8	-66.0	3.6	1.51e+00	0	39	104	1180696576	60	72118
2026-01-03 20:20:11.56	314.57	0.64	-51.0	-66.2	3.6	1.51e+00	0	39	104	1180696576	60	73439
2026-01-03 20:20:14.59	314.34	0.49	-51.3	-66.5	3.6	1.51e+00	0	39	104	1180696576	60	75983
2026-01-03 20:20:17.61	314.11	0.34	-51.3	-66.5	3.6	1.51e+00	0	39	104	1180696576	60	76017
2026-01-03 20:20:20.64	313.88	0.19	-51.0	-66.2	3.6	1.51e+00	0	39	104	1180696576	60	73501
2026-01-03 20:20:23.67	313.66	0.04	-51.3	-66.4	3.6	1.51e+00	0	39	104	1180696576	60	75720
2026-01-03 20:20:26.70	313.44	-0.10	-52.7	-67.9	3.6	1.51e+00	0	39	104	1180696576	60	89410

#Closed at: 2026-01-03 20:20:26
#Recorded file [1180 MB]: D:/lorett/data/35029_260104_080752.dat