passes_logs/2026/01/03/R4.6S_Anadyr/R4.6S_Anadyr__20260103_114837_SUOMI_NPP_rec.log

#Pass ID: 20260103_114837_SUOMI NPP
#Satellite: SUOMI NPP
#Configuration: NPP
#almurnet v.1.7.20251203
#Start time: 2026-01-03 11:48:42

#Version: 2.2.20231116
#Station: R4.6S_Anadyr
#Location: 177.4865 lon 64.73178 lat
#TLE: 1 37849U 11061A   26001.07732418  .00000182  00000+0  10735-3 0  9990
#TLE: 2 37849  98.7795 303.2470 0002580  87.2016 272.9455 14.19520779734739

#Time	Az	El	Level	Level2	SNR	BER	BlckErr	Temp	State	Recorded	gain1	gain2
2026-01-03 11:48:42.24	20.68	0.22	-50.8	-52.4	5.7	0.00e+00	0	37	0	0	60	50982
2026-01-03 11:48:45.27	20.97	0.34	-51.0	-66.3	3.6	1.51e+00	0	39	104	0	60	74322
2026-01-03 11:48:48.30	21.25	0.47	-51.2	-66.4	3.6	1.51e+00	0	39	104	0	60	75631
2026-01-03 11:48:51.33	21.53	0.60	-50.2	-65.4	3.6	1.51e+00	0	39	104	0	60	67474
2026-01-03 11:48:54.36	21.82	0.72	-49.7	-64.9	3.6	1.51e+00	0	39	104	0	60	63906
2026-01-03 11:48:57.38	22.11	0.85	-49.1	-64.2	3.6	1.51e+00	0	39	104	0	60	58636
2026-01-03 11:49:00.40	22.40	0.97	-48.2	-63.3	3.6	1.51e+00	0	39	104	0	60	52995
2026-01-03 11:49:03.43	22.69	1.10	-48.1	-63.3	3.6	1.51e+00	0	39	104	0	60	52888
2026-01-03 11:49:06.46	22.99	1.23	-48.2	-63.4	3.6	1.51e+00	0	39	104	0	60	53280
2026-01-03 11:49:09.49	23.29	1.35	-48.1	-63.3	3.6	1.51e+00	0	39	104	0	60	52775
2026-01-03 11:49:12.52	23.59	1.48	-48.2	-63.3	3.6	1.51e+00	0	39	104	0	60	52814
2026-01-03 11:49:15.55	23.89	1.61	-48.1	-63.3	3.6	1.51e+00	0	39	104	0	60	52721
2026-01-03 11:49:18.58	24.20	1.73	-48.1	-63.3	3.6	1.51e+00	0	39	104	0	60	52644
2026-01-03 11:49:21.60	24.51	1.86	-48.2	-63.3	3.6	1.51e+00	0	39	104	0	60	52946
2026-01-03 11:49:24.63	24.82	1.98	-48.2	-63.4	3.6	1.51e+00	0	39	104	0	60	53166
2026-01-03 11:49:27.66	25.13	2.11	-48.1	-63.3	3.6	1.51e+00	0	39	104	0	60	53036
2026-01-03 11:49:30.68	25.45	2.24	-48.1	-63.3	3.6	1.51e+00	0	39	104	0	60	52842
2026-01-03 11:49:33.72	25.77	2.36	-48.2	-63.3	3.6	1.51e+00	0	39	104	0	60	52915
2026-01-03 11:49:36.74	26.09	2.49	-48.1	-63.3	3.6	1.51e+00	0	39	104	0	60	52863
2026-01-03 11:49:39.77	26.41	2.61	-48.2	-62.4	3.6	1.51e+00	0	39	104	0	60	47854
2026-01-03 11:49:42.81	26.74	2.74	-47.5	-55.6	6.4	9.74e-01	0	39	104	0	60	21660
2026-01-03 11:49:45.83	27.07	2.86	-43.9	-46.4	15.9	0.00e+00	0	39	0	4194304	60	7542
2026-01-03 11:49:48.86	27.40	2.99	-43.4	-45.6	16.6	0.00e+00	0	39	0	10485760	60	6927
2026-01-03 11:49:51.89	27.74	3.11	-47.9	-60.5	3.6	0.00e+00	0	39	104	15728640	60	38083
2026-01-03 11:49:54.92	28.07	3.24	-47.8	-55.8	4.4	0.00e+00	0	39	0	17825792	60	22185
2026-01-03 11:49:57.94	28.41	3.36	-43.6	-45.7	16.7	0.00e+00	0	39	0	20971520	60	6983
2026-01-03 11:50:00.97	28.76	3.49	-43.4	-45.5	17.2	0.00e+00	0	39	0	26214400	60	6805
2026-01-03 11:50:04.00	29.10	3.61	-42.5	-44.2	18.3	0.00e+00	0	39	0	32505856	58	6583
2026-01-03 11:50:07.03	29.45	3.73	-41.8	-43.3	19.4	0.00e+00	0	39	0	37748736	56	6649
2026-01-03 11:50:10.06	29.80	3.86	-42.0	-43.5	19.5	0.00e+00	0	39	0	42991616	56	6778
2026-01-03 11:50:13.08	30.16	3.98	-42.0	-43.5	19.4	0.00e+00	0	39	0	49283072	56	6815
2026-01-03 11:50:16.11	30.51	4.10	-42.0	-43.6	19.2	0.00e+00	0	39	0	54525952	56	6850
2026-01-03 11:50:19.14	30.87	4.22	-42.4	-44.0	18.9	0.00e+00	0	39	0	60817408	56	7237
2026-01-03 11:50:22.17	31.24	4.35	-42.1	-43.6	19.2	0.00e+00	0	39	0	66060288	56	6858
2026-01-03 11:50:25.20	31.60	4.47	-41.7	-43.0	19.8	0.00e+00	0	39	0	71303168	56	6464
2026-01-03 11:50:28.23	31.97	4.59	-42.1	-43.5	19.3	0.00e+00	0	39	0	77594624	56	6829
2026-01-03 11:50:31.26	32.34	4.71	-42.8	-44.5	18.6	0.00e+00	0	39	0	82837504	56	7605
2026-01-03 11:50:34.29	32.72	4.83	-41.9	-43.4	19.4	0.00e+00	0	39	0	89128960	58	5999
2026-01-03 11:50:37.32	33.09	4.95	-42.0	-43.4	19.6	0.00e+00	0	39	0	94371840	56	6733
2026-01-03 11:50:40.34	33.47	5.07	-41.8	-43.2	20.0	0.00e+00	0	39	0	100663296	56	6542
2026-01-03 11:50:43.36	33.86	5.19	-41.7	-43.1	19.9	0.00e+00	0	39	0	105906176	56	6466
2026-01-03 11:50:46.39	34.24	5.30	-41.4	-42.8	19.9	0.00e+00	0	39	0	111149056	56	6274
2026-01-03 11:50:49.41	34.63	5.42	-41.6	-42.9	19.9	0.00e+00	0	39	0	117440512	56	6374
2026-01-03 11:50:52.43	35.02	5.54	-41.6	-42.9	20.0	0.00e+00	0	39	0	122683392	56	6370
2026-01-03 11:50:55.46	35.42	5.66	-41.6	-42.9	20.1	0.00e+00	0	39	0	128974848	56	6356
2026-01-03 11:50:58.48	35.81	5.77	-41.7	-43.1	19.9	0.00e+00	0	39	0	134217728	56	6518
2026-01-03 11:51:01.51	36.22	5.89	-42.2	-43.8	19.3	0.00e+00	0	39	0	139460608	56	7019
2026-01-03 11:51:04.53	36.62	6.00	-42.0	-43.5	19.6	0.00e+00	0	39	0	145752064	56	6778
2026-01-03 11:51:07.56	37.03	6.12	-41.7	-43.1	19.9	0.00e+00	0	39	0	150994944	56	6478
2026-01-03 11:51:10.59	37.44	6.23	-42.0	-43.5	19.6	0.00e+00	0	39	0	157286400	56	6774
2026-01-03 11:51:13.61	37.85	6.34	-42.0	-43.4	19.6	0.00e+00	0	39	0	162529280	56	6728
2026-01-03 11:51:16.64	38.27	6.45	-42.3	-43.8	19.2	0.00e+00	0	39	0	167772160	56	7088
2026-01-03 11:51:19.66	38.69	6.56	-42.2	-43.7	19.4	0.00e+00	0	39	0	174063616	56	6964
2026-01-03 11:51:22.69	39.11	6.67	-41.9	-43.4	19.6	0.00e+00	0	39	0	179306496	56	6706
2026-01-03 11:51:25.71	39.53	6.78	-42.0	-43.5	19.6	0.00e+00	0	39	0	185597952	56	6805
2026-01-03 11:51:28.74	39.96	6.89	-42.1	-43.6	19.4	0.00e+00	0	39	0	190840832	56	6908
2026-01-03 11:51:31.77	40.40	7.00	-42.4	-44.0	19.0	0.00e+00	0	39	0	197132288	56	7177
2026-01-03 11:51:34.80	40.83	7.11	-42.7	-44.3	18.7	0.00e+00	0	39	0	202375168	58	6677
2026-01-03 11:51:37.82	41.27	7.21	-42.5	-44.1	18.7	0.00e+00	0	39	0	207618048	58	6497
2026-01-03 11:51:40.85	41.71	7.32	-42.6	-44.3	18.7	0.00e+00	0	39	0	213909504	58	6617
2026-01-03 11:51:43.87	42.15	7.42	-42.6	-44.3	18.6	0.00e+00	0	39	0	219152384	58	6647
2026-01-03 11:51:46.90	42.60	7.52	-42.7	-44.4	18.6	0.00e+00	0	39	0	225443840	58	6701
2026-01-03 11:51:49.93	43.05	7.63	-42.4	-44.0	19.0	0.00e+00	0	39	0	230686720	58	6417
2026-01-03 11:51:52.96	43.51	7.73	-42.2	-43.7	19.1	0.00e+00	0	39	0	235929600	58	6242
2026-01-03 11:51:55.98	43.96	7.83	-41.9	-43.4	19.6	0.00e+00	0	39	0	242221056	58	5980
2026-01-03 11:51:59.01	44.42	7.92	-42.1	-43.5	19.5	0.00e+00	0	39	0	247463936	58	6096
2026-01-03 11:52:02.03	44.88	8.02	-42.1	-43.6	19.4	0.00e+00	0	39	0	253755392	58	6140
2026-01-03 11:52:05.06	45.35	8.12	-42.2	-43.6	19.4	0.00e+00	0	39	0	258998272	58	6168
2026-01-03 11:52:08.09	45.82	8.21	-42.3	-43.8	19.4	0.00e+00	0	39	0	264241152	58	6279
2026-01-03 11:52:11.12	46.29	8.31	-41.7	-43.0	20.1	0.00e+00	0	39	0	270532608	56	6451
2026-01-03 11:52:14.14	46.76	8.40	-41.4	-42.7	20.6	0.00e+00	0	39	0	275775488	56	6222
2026-01-03 11:52:17.17	47.24	8.49	-41.7	-43.0	20.2	0.00e+00	0	39	0	282066944	56	6457
2026-01-03 11:52:20.19	47.72	8.58	-42.2	-43.7	19.8	0.00e+00	0	39	0	287309824	56	6940
2026-01-03 11:52:23.22	48.20	8.67	-42.1	-43.4	20.0	0.00e+00	0	39	0	293601280	56	6759
2026-01-03 11:52:26.24	48.69	8.75	-42.1	-43.5	20.1	0.00e+00	0	39	0	298844160	56	6781
2026-01-03 11:52:29.26	49.18	8.84	-42.2	-43.6	19.6	0.00e+00	0	39	0	304087040	58	6140
2026-01-03 11:52:32.29	49.67	8.92	-42.1	-43.5	19.7	0.00e+00	0	39	0	310378496	58	6052
2026-01-03 11:52:35.32	50.16	9.00	-41.4	-42.6	20.7	0.00e+00	0	39	0	315621376	56	6146
2026-01-03 11:52:38.35	50.66	9.08	-41.6	-42.8	20.6	0.00e+00	0	39	0	321912832	56	6300
2026-01-03 11:52:41.37	51.16	9.16	-42.4	-43.8	19.8	0.00e+00	0	39	0	327155712	56	7063
2026-01-03 11:52:44.41	51.66	9.24	-43.7	-45.6	18.5	0.00e+00	0	39	0	332398592	58	7696
2026-01-03 11:52:47.43	52.17	9.31	-43.3	-44.9	18.8	0.00e+00	0	39	0	338690048	58	7142
2026-01-03 11:52:50.46	52.67	9.39	-42.0	-43.3	20.0	0.00e+00	0	39	0	343932928	58	5936
2026-01-03 11:52:53.49	53.18	9.46	-42.1	-43.4	20.0	0.00e+00	0	39	0	350224384	56	6752
2026-01-03 11:52:56.52	53.70	9.53	-42.2	-43.6	19.7	0.00e+00	0	39	0	355467264	56	6899
2026-01-03 11:52:59.54	54.21	9.60	-41.7	-43.0	20.3	0.00e+00	0	39	0	360710144	56	6419
2026-01-03 11:53:02.57	54.73	9.67	-41.3	-42.5	20.9	0.00e+00	0	39	0	367001600	56	6075
2026-01-03 11:53:05.60	55.25	9.73	-41.8	-43.2	20.2	0.00e+00	0	39	0	372244480	56	6553
2026-01-03 11:53:08.63	55.77	9.79	-42.0	-43.4	20.0	0.00e+00	0	39	0	378535936	56	6694
2026-01-03 11:53:11.66	56.29	9.85	-41.6	-42.9	20.5	0.00e+00	0	39	0	383778816	56	6371
2026-01-03 11:53:14.68	56.82	9.91	-41.8	-43.1	20.3	0.00e+00	0	39	0	390070272	56	6526
2026-01-03 11:53:17.71	57.34	9.97	-42.5	-44.0	19.5	0.00e+00	0	39	0	395313152	56	7241
2026-01-03 11:53:20.74	57.87	10.03	-41.8	-43.1	20.3	0.00e+00	0	39	0	400556032	56	6533
2026-01-03 11:53:23.76	58.40	10.08	-41.4	-42.7	20.6	0.00e+00	0	39	0	406847488	56	6194
2026-01-03 11:53:26.79	58.94	10.13	-41.7	-43.0	20.3	0.00e+00	0	39	0	412090368	56	6460
2026-01-03 11:53:29.82	59.47	10.18	-41.9	-43.3	20.1	0.00e+00	0	39	0	418381824	56	6632
2026-01-03 11:53:32.84	60.01	10.23	-42.2	-43.6	19.7	0.00e+00	0	39	0	423624704	56	6913
2026-01-03 11:53:35.87	60.55	10.27	-43.4	-45.2	18.2	0.00e+00	0	39	0	428867584	58	7342
2026-01-03 11:53:38.90	61.09	10.31	-44.1	-46.0	17.4	0.00e+00	0	39	0	435159040	60	7248
2026-01-03 11:53:41.92	61.63	10.35	-43.6	-45.4	18.4	0.00e+00	0	39	0	440401920	60	6760
2026-01-03 11:53:44.95	62.17	10.39	-42.9	-44.5	18.9	0.00e+00	0	39	0	446693376	60	6079
2026-01-03 11:53:47.98	62.72	10.43	-43.4	-45.1	18.5	0.00e+00	0	39	0	451936256	60	6493
2026-01-03 11:53:51.00	63.26	10.46	-42.7	-44.2	19.3	0.00e+00	0	39	0	458227712	58	6614
2026-01-03 11:53:54.03	63.81	10.49	-42.1	-43.4	19.9	0.00e+00	0	39	0	463470592	58	6026
2026-01-03 11:53:57.05	64.36	10.52	-42.1	-43.6	19.8	0.00e+00	0	39	0	468713472	58	6106
2026-01-03 11:54:00.09	64.91	10.55	-42.0	-43.4	19.9	0.00e+00	0	39	0	475004928	58	6019
2026-01-03 11:54:03.11	65.46	10.57	-41.6	-42.9	20.5	0.00e+00	0	39	0	480247808	56	6346
2026-01-03 11:54:06.14	66.01	10.60	-41.5	-42.7	20.6	0.00e+00	0	39	0	486539264	56	6232
2026-01-03 11:54:09.17	66.56	10.62	-41.7	-43.0	20.4	0.00e+00	0	39	0	491782144	56	6415
2026-01-03 11:54:12.20	67.11	10.63	-41.5	-42.7	20.7	0.00e+00	0	39	0	497025024	56	6210
2026-01-03 11:54:15.22	67.67	10.65	-41.3	-42.5	20.7	0.00e+00	0	39	0	503316480	56	6097
2026-01-03 11:54:18.25	68.22	10.66	-41.9	-43.3	20.0	0.00e+00	0	39	0	508559360	56	6638
2026-01-03 11:54:21.27	68.77	10.67	-41.2	-42.5	20.7	0.00e+00	0	39	0	514850816	56	6045
2026-01-03 11:54:24.30	69.33	10.68	-40.7	-41.9	21.2	0.00e+00	0	39	0	520093696	54	6342
2026-01-03 11:54:27.33	69.88	10.69	-40.8	-42.0	21.1	0.00e+00	0	39	0	525336576	54	6426
2026-01-03 11:54:30.35	70.44	10.69	-40.6	-41.7	21.4	0.00e+00	0	39	0	531628032	54	6239
2026-01-03 11:54:33.38	70.99	10.69	-40.6	-41.7	21.5	0.00e+00	0	39	0	536870912	54	6213
2026-01-03 11:54:36.40	71.55	10.69	-40.8	-42.0	21.2	0.00e+00	0	39	0	543162368	54	6407
2026-01-03 11:54:39.43	72.10	10.69	-41.0	-42.2	20.9	0.00e+00	0	39	0	548405248	54	6600
2026-01-03 11:54:42.45	72.66	10.68	-40.7	-41.9	21.3	0.00e+00	0	39	0	554696704	54	6323
2026-01-03 11:54:45.48	73.21	10.68	-40.6	-41.7	21.4	0.00e+00	0	39	0	559939584	54	6214
2026-01-03 11:54:48.51	73.77	10.66	-40.7	-41.9	21.4	0.00e+00	0	39	0	565182464	54	6319
2026-01-03 11:54:51.53	74.32	10.65	-40.8	-42.0	21.1	0.00e+00	0	39	0	571473920	54	6397
2026-01-03 11:54:54.56	74.87	10.64	-40.3	-41.4	21.8	0.00e+00	0	39	0	576716800	54	5969
2026-01-03 11:54:57.59	75.43	10.62	-40.0	-41.1	21.9	0.00e+00	0	39	0	583008256	54	5809
2026-01-03 11:55:00.62	75.98	10.60	-40.1	-41.2	21.9	0.00e+00	0	39	0	588251136	54	5836
2026-01-03 11:55:03.64	76.53	10.58	-39.7	-40.7	22.0	0.00e+00	0	39	0	593494016	52	6205
2026-01-03 11:55:06.67	77.08	10.55	-39.3	-40.3	22.7	0.00e+00	0	39	0	599785472	52	5911
2026-01-03 11:55:09.70	77.63	10.53	-39.8	-40.9	22.3	0.00e+00	0	39	0	605028352	52	6332
2026-01-03 11:55:12.73	78.18	10.50	-40.1	-41.2	22.0	0.00e+00	0	39	0	611319808	52	6606
2026-01-03 11:55:15.75	78.73	10.46	-40.1	-41.2	21.9	0.00e+00	0	39	0	616562688	52	6544
2026-01-03 11:55:18.78	79.28	10.43	-40.2	-41.2	22.0	0.00e+00	0	39	0	621805568	52	6584
2026-01-03 11:55:21.81	79.82	10.40	-40.1	-41.2	21.8	0.00e+00	0	39	0	628097024	52	6544
2026-01-03 11:55:24.84	80.37	10.36	-40.3	-41.4	21.7	0.00e+00	0	39	0	633339904	54	5979
2026-01-03 11:55:27.87	80.91	10.32	-40.2	-41.3	21.7	0.00e+00	0	39	0	639631360	54	5919
2026-01-03 11:55:30.89	81.45	10.27	-40.4	-41.5	21.4	0.00e+00	0	39	0	644874240	54	6092
2026-01-03 11:55:33.92	81.99	10.23	-41.2	-42.5	20.9	0.00e+00	0	39	0	651165696	54	6776
2026-01-03 11:55:36.95	82.53	10.18	-41.0	-42.3	21.0	0.00e+00	0	39	0	656408576	54	6624
2026-01-03 11:55:39.97	83.06	10.13	-40.6	-41.8	21.3	0.00e+00	0	39	0	661651456	54	6278
2026-01-03 11:55:43.00	83.60	10.08	-40.3	-41.4	21.6	0.00e+00	0	39	0	667942912	54	6012
2026-01-03 11:55:46.03	84.13	10.03	-39.9	-40.9	22.2	0.00e+00	0	39	0	673185792	52	6388
2026-01-03 11:55:49.05	84.66	9.97	-39.4	-40.3	22.2	0.00e+00	0	39	0	679477248	52	5963
2026-01-03 11:55:52.08	85.19	9.92	-39.1	-40.1	22.8	0.00e+00	0	39	0	684720128	52	5774
2026-01-03 11:55:55.11	85.72	9.86	-39.8	-40.9	22.3	0.00e+00	0	39	0	689963008	52	6322
2026-01-03 11:55:58.15	86.25	9.80	-39.9	-41.0	22.0	0.00e+00	0	39	0	696254464	52	6396
2026-01-03 11:56:01.17	86.77	9.73	-39.9	-40.9	22.3	0.00e+00	0	39	0	701497344	52	6338
2026-01-03 11:56:04.20	87.29	9.67	-39.6	-40.6	22.4	0.00e+00	0	39	0	707788800	52	6120
2026-01-03 11:56:07.23	87.81	9.60	-39.7	-40.8	22.3	0.00e+00	0	39	0	713031680	52	6263
2026-01-03 11:56:10.26	88.32	9.53	-40.0	-41.1	21.9	0.00e+00	0	39	0	719323136	52	6535
2026-01-03 11:56:13.29	88.84	9.46	-39.8	-40.9	22.5	0.00e+00	0	39	0	724566016	52	6327
2026-01-03 11:56:16.32	89.35	9.39	-39.3	-40.2	22.9	0.00e+00	0	39	0	729808896	52	5881
2026-01-03 11:56:19.34	89.86	9.32	-39.6	-40.6	22.1	0.00e+00	0	39	0	736100352	52	6162
2026-01-03 11:56:22.37	90.37	9.24	-39.8	-40.9	20.9	0.00e+00	0	39	0	741343232	54	5695
2026-01-03 11:56:25.40	90.87	9.16	-40.1	-41.2	22.0	0.00e+00	0	39	0	747634688	54	5872
2026-01-03 11:56:28.43	91.37	9.08	-40.1	-41.2	22.3	0.00e+00	0	39	0	752877568	52	6573
2026-01-03 11:56:31.46	91.87	9.00	-40.5	-41.6	21.8	0.00e+00	0	39	0	758120448	52	6904
2026-01-03 11:56:34.48	92.37	8.92	-40.8	-42.0	21.1	0.00e+00	0	39	0	764411904	54	6428
2026-01-03 11:56:37.50	92.86	8.84	-41.3	-42.5	20.7	0.00e+00	0	39	0	769654784	54	6822
2026-01-03 11:56:40.53	93.35	8.75	-41.5	-42.8	20.2	0.00e+00	0	39	0	775946240	54	7047
2026-01-03 11:56:43.55	93.83	8.66	-41.8	-43.1	20.1	0.00e+00	0	39	0	781189120	56	6506
2026-01-03 11:56:46.58	94.32	8.58	-41.4	-42.7	20.4	0.00e+00	0	39	0	786432000	56	6219
2026-01-03 11:56:49.61	94.80	8.49	-41.3	-42.5	20.7	0.00e+00	0	39	0	792723456	56	6086
2026-01-03 11:56:52.64	95.28	8.40	-41.6	-42.9	20.4	0.00e+00	0	39	0	797966336	56	6353
2026-01-03 11:56:55.67	95.76	8.30	-42.0	-43.5	19.8	0.00e+00	0	39	0	804257792	56	6808
2026-01-03 11:56:58.70	96.23	8.21	-42.1	-43.5	19.9	0.00e+00	0	39	0	809500672	56	6778
2026-01-03 11:57:01.73	96.70	8.11	-42.0	-43.4	19.8	0.00e+00	0	39	0	815792128	56	6746
2026-01-03 11:57:04.76	97.17	8.02	-42.6	-44.2	19.1	0.00e+00	0	39	0	821035008	56	7384
2026-01-03 11:57:07.78	97.63	7.92	-43.1	-44.9	18.5	0.00e+00	0	39	0	826277888	58	7104
2026-01-03 11:57:10.81	98.10	7.82	-42.8	-44.4	18.8	0.00e+00	0	39	0	832569344	58	6737
2026-01-03 11:57:13.84	98.56	7.72	-42.5	-44.1	19.1	0.00e+00	0	39	0	837812224	58	6476
2026-01-03 11:57:16.87	99.01	7.62	-42.4	-43.9	19.4	0.00e+00	0	39	0	844103680	58	6354
2026-01-03 11:57:19.90	99.46	7.52	-42.5	-44.0	19.5	0.00e+00	0	39	0	849346560	58	6459
2026-01-03 11:57:22.93	99.91	7.41	-42.6	-44.1	19.2	0.00e+00	0	39	0	854589440	58	6510
2026-01-03 11:57:25.96	100.36	7.31	-43.0	-44.6	18.8	0.00e+00	0	39	0	860880896	58	6908
2026-01-03 11:57:28.98	100.80	7.20	-43.0	-44.7	18.7	0.00e+00	0	39	0	866123776	58	6955
2026-01-03 11:57:32.01	101.24	7.09	-42.8	-44.4	19.0	0.00e+00	0	39	0	872415232	58	6737
2026-01-03 11:57:35.03	101.68	6.99	-42.5	-44.0	19.2	0.00e+00	0	39	0	877658112	58	6458
2026-01-03 11:57:38.06	102.11	6.88	-42.5	-44.1	19.3	0.00e+00	0	39	0	883949568	58	6504
2026-01-03 11:57:41.08	102.54	6.77	-42.2	-43.7	19.5	0.00e+00	0	39	0	889192448	58	6235
2026-01-03 11:57:44.11	102.97	6.66	-42.3	-43.9	19.3	0.00e+00	0	39	0	894435328	58	6380
2026-01-03 11:57:47.14	103.40	6.55	-41.9	-43.3	19.9	0.00e+00	0	39	0	900726784	56	6657
2026-01-03 11:57:50.17	103.82	6.44	-42.2	-43.6	19.6	0.00e+00	0	39	0	905969664	56	6894
2026-01-03 11:57:53.20	104.24	6.32	-42.2	-43.6	19.6	0.00e+00	0	39	0	912261120	56	6923
2026-01-03 11:57:56.23	104.65	6.21	-42.2	-43.7	19.5	0.00e+00	0	39	0	917504000	56	6931
2026-01-03 11:57:59.26	105.06	6.10	-42.3	-43.8	19.4	0.00e+00	0	39	0	922746880	56	7031
2026-01-03 11:58:02.29	105.47	5.98	-42.1	-43.6	19.5	0.00e+00	0	39	0	929038336	56	6900
2026-01-03 11:58:05.32	105.88	5.86	-42.6	-44.1	19.0	0.00e+00	0	39	0	934281216	56	7330
2026-01-03 11:58:08.35	106.28	5.75	-42.4	-44.0	19.0	0.00e+00	0	39	0	940572672	58	6429
2026-01-03 11:58:11.38	106.68	5.63	-41.8	-43.3	19.6	0.00e+00	0	39	0	945815552	56	6685
2026-01-03 11:58:14.40	107.08	5.51	-41.8	-43.2	20.0	0.00e+00	0	39	0	952107008	56	6590
2026-01-03 11:58:17.43	107.47	5.39	-41.7	-43.1	20.1	0.00e+00	0	39	0	957349888	56	6480
2026-01-03 11:58:20.46	107.86	5.28	-41.4	-42.9	20.0	0.00e+00	0	39	0	962592768	56	6388
2026-01-03 11:58:23.49	108.25	5.16	-41.5	-42.9	20.1	0.00e+00	0	39	0	968884224	56	6385
2026-01-03 11:58:26.52	108.64	5.04	-41.6	-43.0	19.9	0.00e+00	0	39	0	974127104	56	6459
2026-01-03 11:58:29.55	109.02	4.92	-41.6	-43.0	20.1	0.00e+00	0	39	0	980418560	56	6453
2026-01-03 11:58:32.57	109.39	4.80	-41.6	-43.0	20.2	0.00e+00	0	39	0	985661440	56	6397
2026-01-03 11:58:35.60	109.77	4.67	-42.0	-43.4	19.5	0.00e+00	0	39	0	990904320	56	6736
2026-01-03 11:58:38.63	110.14	4.55	-42.0	-43.4	19.5	0.00e+00	0	39	0	997195776	56	6762
2026-01-03 11:58:41.65	110.51	4.43	-41.8	-43.3	19.5	0.00e+00	0	39	0	1002438656	56	6618
2026-01-03 11:58:44.68	110.88	4.31	-42.3	-43.8	19.0	0.00e+00	0	39	0	1008730112	56	7070
2026-01-03 11:58:47.71	111.24	4.18	-42.3	-43.9	18.8	0.00e+00	0	39	0	1013972992	58	6332
2026-01-03 11:58:50.74	111.60	4.06	-42.4	-44.1	18.5	0.00e+00	0	39	0	1019215872	58	6469
2026-01-03 11:58:53.77	111.96	3.94	-41.9	-43.5	19.0	0.00e+00	0	39	0	1025507328	58	6071
2026-01-03 11:58:56.80	112.32	3.81	-42.1	-43.8	18.8	0.00e+00	0	39	0	1030750208	56	7043
2026-01-03 11:58:59.82	112.67	3.69	-41.7	-43.2	19.3	0.00e+00	0	39	0	1037041664	56	6596
2026-01-03 11:59:02.85	113.02	3.56	-42.2	-43.8	18.8	0.00e+00	0	39	0	1042284544	56	7082
2026-01-03 11:59:05.87	113.36	3.44	-42.5	-44.3	18.2	0.00e+00	0	39	0	1048576000	56	7481
2026-01-03 11:59:08.90	113.71	3.31	-42.9	-44.9	17.4	0.00e+00	0	39	0	1053818880	58	7127
2026-01-03 11:59:11.93	114.05	3.19	-43.1	-45.1	17.3	0.00e+00	0	39	0	1059061760	58	7334
2026-01-03 11:59:14.95	114.38	3.06	-43.1	-45.2	17.1	0.00e+00	0	39	0	1065353216	58	7338
2026-01-03 11:59:17.98	114.72	2.94	-49.6	-64.8	3.6	1.51e+00	0	39	104	1067450368	60	63175
2026-01-03 11:59:21.02	115.05	2.81	-50.2	-65.4	3.6	1.51e+00	0	39	104	1067450368	60	66926
2026-01-03 11:59:24.05	115.38	2.68	-50.2	-65.4	3.6	1.51e+00	0	39	104	1067450368	60	67465
2026-01-03 11:59:27.07	115.71	2.56	-50.4	-65.5	3.6	1.51e+00	0	39	104	1067450368	60	68342
2026-01-03 11:59:30.10	116.03	2.43	-50.4	-65.6	3.6	1.51e+00	0	39	104	1067450368	60	68713
2026-01-03 11:59:33.13	116.36	2.30	-50.5	-65.7	3.6	1.51e+00	0	40	104	1067450368	60	69626
2026-01-03 11:59:36.16	116.67	2.18	-50.5	-65.7	3.6	1.51e+00	0	39	104	1067450368	60	69628
2026-01-03 11:59:39.19	116.99	2.05	-50.4	-65.6	3.6	1.51e+00	0	40	104	1067450368	60	68882
2026-01-03 11:59:42.21	117.30	1.92	-50.8	-66.0	3.6	1.51e+00	0	39	104	1067450368	60	72262
2026-01-03 11:59:45.24	117.62	1.80	-50.9	-66.1	3.6	1.51e+00	0	39	104	1067450368	60	72703
2026-01-03 11:59:48.26	117.92	1.67	-50.7	-65.9	3.6	1.51e+00	0	40	104	1067450368	60	71017
2026-01-03 11:59:51.29	118.23	1.54	-50.7	-65.9	3.6	1.51e+00	0	40	104	1067450368	60	71135
2026-01-03 11:59:54.32	118.53	1.41	-51.4	-66.5	3.6	1.51e+00	0	40	104	1067450368	60	76807
2026-01-03 11:59:57.35	118.84	1.29	-50.7	-65.9	3.6	1.51e+00	0	39	104	1067450368	60	71220
2026-01-03 12:00:00.38	119.13	1.16	-51.1	-66.3	3.6	1.51e+00	0	39	104	1067450368	60	74619
2026-01-03 12:00:03.40	119.43	1.03	-51.0	-66.2	3.6	1.51e+00	0	39	104	1067450368	60	73928
2026-01-03 12:00:06.43	119.72	0.90	-51.1	-66.2	3.6	1.51e+00	0	40	104	1067450368	60	74193
2026-01-03 12:00:09.46	120.02	0.78	-51.7	-66.7	3.6	1.51e+00	0	40	104	1067450368	60	78432
2026-01-03 12:00:12.49	120.31	0.65	-51.6	-66.8	3.6	1.51e+00	0	40	104	1067450368	60	79115
2026-01-03 12:00:15.52	120.59	0.52	-51.7	-66.8	3.6	1.51e+00	0	40	104	1067450368	60	79301
2026-01-03 12:00:18.55	120.88	0.39	-51.3	-66.4	3.6	1.51e+00	0	39	104	1067450368	60	75730
2026-01-03 12:00:21.58	121.16	0.26	-51.5	-66.7	3.6	1.51e+00	0	40	104	1067450368	60	78036
2026-01-03 12:00:24.61	121.44	0.14	-51.3	-66.5	3.6	1.51e+00	0	40	104	1067450368	60	76032
2026-01-03 12:00:27.65	121.72	0.01	-51.6	-66.8	3.6	1.51e+00	0	40	104	1067450368	60	78754

#Closed at: 2026-01-03 12:00:29
#Recorded file [1067 MB]: D:/lorett/data/35029_260103_234842.dat