passes_logs/2026/01/03/R4.6S_Anadyr/R4.6S_Anadyr__20260103_120921_NOAA_20_JPSS-1_rec.log

#Pass ID: 20260103_120921_NOAA 20 (JPSS-1)
#Satellite: NOAA 20 (JPSS-1)
#Configuration: NOAA 20
#almurnet v.1.7.20251203
#Start time: 2026-01-03 12:09:22

#Version: 2.2.20231116
#Station: R4.6S_Anadyr
#Location: 177.4865 lon 64.73178 lat
#TLE: 1 43013U 17073A   26002.92460628  .00000184  00000+0  10833-3 0  9996
#TLE: 2 43013  98.7623 303.9923 0001887  56.9179 303.2178 14.19532741421028

#Time	Az	El	Level	Level2	SNR	BER	BlckErr	Temp	State	Recorded	gain1	gain2
2026-01-03 12:09:22.60	19.40	0.07	-51.5	-66.3	3.5	1.51e+00	0	37	0	0	60	74990
2026-01-03 12:09:26.64	19.73	0.26	-50.6	-65.7	3.6	1.51e+00	0	38	104	0	60	70001
2026-01-03 12:09:30.68	20.05	0.44	-50.3	-65.5	3.6	1.51e+00	0	38	104	0	60	67699
2026-01-03 12:09:34.71	20.39	0.63	-49.7	-64.9	3.6	1.51e+00	0	39	104	0	60	63333
2026-01-03 12:09:38.75	20.72	0.82	-48.9	-64.2	3.6	1.51e+00	0	39	104	0	60	58293
2026-01-03 12:09:42.80	21.06	1.01	-48.7	-63.8	3.6	1.51e+00	0	39	104	0	60	56059
2026-01-03 12:09:46.83	21.41	1.20	-48.7	-63.9	3.6	1.51e+00	0	39	104	0	60	56587
2026-01-03 12:09:50.87	21.75	1.40	-48.6	-63.7	3.6	1.51e+00	0	39	104	0	60	55662
2026-01-03 12:09:54.91	22.11	1.59	-48.6	-63.8	3.6	1.51e+00	0	39	104	0	60	55676
2026-01-03 12:09:58.94	22.46	1.78	-48.6	-63.9	3.6	1.51e+00	0	39	104	0	60	56359
2026-01-03 12:10:02.97	22.82	1.97	-48.6	-63.7	3.6	1.51e+00	0	39	104	0	60	55438
2026-01-03 12:10:07.01	23.19	2.17	-48.7	-63.9	3.6	1.51e+00	0	39	104	0	60	56467
2026-01-03 12:10:11.05	23.56	2.36	-48.6	-63.7	3.6	1.51e+00	0	39	104	0	60	55443
2026-01-03 12:10:15.09	23.93	2.55	-48.7	-62.9	3.6	1.51e+00	0	39	104	0	60	50507
2026-01-03 12:10:19.13	24.31	2.75	-46.1	-49.6	13.1	4.57e-02	0	39	0	1048576	60	10937
2026-01-03 12:10:23.16	24.70	2.94	-43.8	-45.9	16.7	0.00e+00	0	39	0	8388608	60	7143
2026-01-03 12:10:27.20	25.09	3.14	-43.1	-44.9	18.0	0.00e+00	0	39	0	16777216	60	6389
2026-01-03 12:10:31.24	25.48	3.33	-43.6	-45.5	17.8	0.00e+00	0	39	0	18874368	60	6795
2026-01-03 12:10:35.27	25.88	3.53	-42.6	-44.3	18.6	0.00e+00	0	39	0	26214400	58	6618
2026-01-03 12:10:39.30	26.28	3.72	-42.5	-44.1	19.1	0.00e+00	0	39	0	33554432	58	6505
2026-01-03 12:10:43.34	26.69	3.92	-42.6	-44.2	18.8	0.00e+00	0	39	0	40894464	58	6559
2026-01-03 12:10:47.38	27.11	4.12	-42.7	-44.3	19.1	0.00e+00	0	39	0	48234496	60	5899
2026-01-03 12:10:51.42	27.53	4.31	-42.5	-44.0	19.3	0.00e+00	0	39	0	56623104	58	6453
2026-01-03 12:10:55.45	27.95	4.51	-42.4	-43.9	19.7	0.00e+00	0	39	0	63963136	56	7106
2026-01-03 12:10:59.49	28.38	4.71	-43.0	-44.7	18.8	0.00e+00	0	39	0	71303168	58	6932
2026-01-03 12:11:03.53	28.82	4.90	-42.4	-43.8	19.8	0.00e+00	0	39	0	78643200	58	6313
2026-01-03 12:11:07.57	29.26	5.10	-42.7	-44.2	19.7	0.00e+00	0	39	0	87031808	58	6564
2026-01-03 12:11:11.60	29.71	5.30	-41.7	-43.0	20.4	0.00e+00	0	39	0	94371840	56	6456
2026-01-03 12:11:15.65	30.16	5.50	-41.7	-43.0	20.6	0.00e+00	0	39	0	101711872	56	6404
2026-01-03 12:11:19.68	30.62	5.69	-41.6	-42.8	20.7	0.00e+00	0	39	0	109051904	56	6311
2026-01-03 12:11:23.72	31.08	5.89	-42.7	-44.2	19.7	0.00e+00	0	39	0	116391936	56	7406
2026-01-03 12:11:27.76	31.56	6.09	-41.9	-43.2	20.3	0.00e+00	0	39	0	124780544	56	6613
2026-01-03 12:11:31.79	32.03	6.29	-41.9	-43.2	20.5	0.00e+00	0	39	0	132120576	56	6578
2026-01-03 12:11:35.83	32.52	6.48	-42.0	-43.3	20.4	0.00e+00	0	39	0	139460608	56	6675
2026-01-03 12:11:39.86	33.01	6.68	-41.7	-43.0	20.6	0.00e+00	0	39	0	146800640	56	6411
2026-01-03 12:11:43.90	33.50	6.88	-41.7	-42.9	20.5	0.00e+00	0	39	0	154140672	56	6355
2026-01-03 12:11:47.94	34.01	7.07	-41.7	-42.9	20.6	0.00e+00	0	39	0	162529280	56	6384
2026-01-03 12:11:51.97	34.51	7.27	-41.4	-42.6	21.0	0.00e+00	0	39	0	169869312	56	6130
2026-01-03 12:11:56.01	35.03	7.47	-41.4	-42.6	21.0	0.00e+00	0	39	0	177209344	56	6157
2026-01-03 12:12:00.05	35.55	7.66	-41.2	-42.4	21.3	0.00e+00	0	40	0	184549376	56	5973
2026-01-03 12:12:04.09	36.08	7.86	-41.1	-42.2	21.4	0.00e+00	0	39	0	192937984	56	5850
2026-01-03 12:12:08.12	36.62	8.05	-41.7	-42.9	20.7	0.00e+00	0	39	0	200278016	56	6387
2026-01-03 12:12:12.16	37.16	8.24	-40.5	-41.6	21.8	0.00e+00	0	39	0	207618048	54	6132
2026-01-03 12:12:16.20	37.71	8.44	-41.5	-42.7	21.1	0.00e+00	0	39	0	214958080	56	6178
2026-01-03 12:12:20.23	38.27	8.63	-41.1	-42.2	21.5	0.00e+00	0	39	0	222298112	56	5884
2026-01-03 12:12:24.27	38.83	8.82	-40.8	-42.0	21.6	0.00e+00	0	40	0	230686720	54	6411
2026-01-03 12:12:28.30	39.40	9.01	-40.3	-41.3	22.1	0.00e+00	0	40	0	238026752	54	5964
2026-01-03 12:12:32.35	39.98	9.20	-40.7	-41.7	22.0	0.00e+00	0	40	0	245366784	54	6241
2026-01-03 12:12:36.39	40.57	9.39	-40.8	-41.9	21.9	0.00e+00	0	40	0	252706816	54	6374
2026-01-03 12:12:40.43	41.16	9.57	-40.5	-41.5	22.0	0.00e+00	0	39	0	261095424	54	6087
2026-01-03 12:12:44.46	41.76	9.76	-41.0	-42.1	21.6	0.00e+00	0	40	0	268435456	54	6481
2026-01-03 12:12:48.50	42.37	9.94	-40.8	-41.8	21.9	0.00e+00	0	40	0	275775488	54	6316
2026-01-03 12:12:52.53	42.99	10.13	-40.7	-41.8	21.9	0.00e+00	0	40	0	283115520	54	6289
2026-01-03 12:12:56.57	43.61	10.31	-40.6	-41.6	22.2	0.00e+00	0	40	0	290455552	54	6152
2026-01-03 12:13:00.60	44.24	10.49	-41.3	-42.5	21.1	0.00e+00	0	40	0	298844160	56	6046
2026-01-03 12:13:04.63	44.88	10.67	-41.3	-42.4	21.4	0.00e+00	0	40	0	306184192	56	6013
2026-01-03 12:13:08.67	45.52	10.84	-41.0	-42.0	21.7	0.00e+00	0	40	0	313524224	56	5759
2026-01-03 12:13:12.70	46.17	11.02	-41.1	-42.3	21.6	0.00e+00	0	40	0	320864256	56	5915
2026-01-03 12:13:16.73	46.83	11.19	-41.7	-42.9	20.9	0.00e+00	0	40	0	328204288	56	6370
2026-01-03 12:13:20.77	47.50	11.36	-41.7	-42.9	20.8	0.00e+00	0	40	0	336592896	56	6390
2026-01-03 12:13:24.80	48.18	11.53	-41.5	-42.7	21.1	0.00e+00	0	40	0	343932928	56	6201
2026-01-03 12:13:28.84	48.86	11.69	-41.6	-42.8	21.0	0.00e+00	0	40	0	351272960	56	6267
2026-01-03 12:13:32.87	49.55	11.85	-41.9	-43.2	20.6	0.00e+00	0	40	0	358612992	56	6547
2026-01-03 12:13:36.91	50.25	12.01	-41.5	-42.8	20.8	0.00e+00	0	40	0	367001600	56	6251
2026-01-03 12:13:40.95	50.95	12.17	-41.4	-42.6	21.1	0.00e+00	0	40	0	374341632	56	6117
2026-01-03 12:13:44.98	51.67	12.32	-41.5	-42.7	21.0	0.00e+00	0	40	0	381681664	56	6192
2026-01-03 12:13:49.02	52.39	12.48	-42.0	-43.3	20.4	0.00e+00	0	40	0	389021696	56	6629
2026-01-03 12:13:53.06	53.11	12.62	-41.8	-43.0	20.4	0.00e+00	0	40	0	396361728	56	6444
2026-01-03 12:13:57.09	53.85	12.77	-41.6	-42.9	20.8	0.00e+00	0	40	0	404750336	56	6338
2026-01-03 12:14:01.14	54.59	12.91	-41.7	-43.0	20.8	0.00e+00	0	40	0	412090368	56	6409
2026-01-03 12:14:05.17	55.34	13.05	-42.3	-43.6	20.3	0.00e+00	0	40	0	419430400	56	6889
2026-01-03 12:14:09.21	56.09	13.18	-42.0	-43.3	20.6	0.00e+00	0	40	0	426770432	56	6643
2026-01-03 12:14:13.25	56.85	13.31	-41.1	-42.2	21.5	0.00e+00	0	40	0	435159040	56	5887
2026-01-03 12:14:17.29	57.62	13.44	-40.8	-41.9	21.7	0.00e+00	0	40	0	442499072	54	6341
2026-01-03 12:14:21.32	58.40	13.56	-41.0	-42.1	21.5	0.00e+00	0	40	0	449839104	54	6535
2026-01-03 12:14:25.35	59.18	13.68	-40.9	-42.0	21.6	0.00e+00	0	40	0	457179136	54	6434
2026-01-03 12:14:29.39	59.96	13.79	-40.4	-41.5	22.1	0.00e+00	0	40	0	464519168	54	6038
2026-01-03 12:14:33.43	60.75	13.90	-40.5	-41.6	22.1	0.00e+00	0	40	0	472907776	54	6132
2026-01-03 12:14:37.47	61.55	14.01	-40.9	-42.0	21.4	0.00e+00	0	40	0	480247808	54	6436
2026-01-03 12:14:41.51	62.36	14.11	-41.1	-42.3	21.3	0.00e+00	0	40	0	487587840	54	6630
2026-01-03 12:14:45.54	63.16	14.20	-41.4	-42.6	21.2	0.00e+00	0	40	0	494927872	54	6878
2026-01-03 12:14:49.58	63.98	14.29	-41.4	-42.6	21.2	0.00e+00	0	40	0	503316480	56	6119
2026-01-03 12:14:53.61	64.80	14.38	-41.7	-43.0	20.9	0.00e+00	0	40	0	510656512	56	6397
2026-01-03 12:14:57.65	65.62	14.46	-41.2	-42.4	21.3	0.00e+00	0	40	0	517996544	56	5974
2026-01-03 12:15:01.69	66.45	14.53	-42.0	-43.3	19.9	0.00e+00	0	40	0	525336576	56	6620
2026-01-03 12:15:05.73	67.28	14.60	-41.5	-42.7	21.1	0.00e+00	0	40	0	532676608	56	6236
2026-01-03 12:15:09.77	68.11	14.67	-41.1	-42.3	21.5	0.00e+00	0	40	0	541065216	56	5903
2026-01-03 12:15:13.81	68.95	14.72	-41.1	-42.3	21.6	0.00e+00	0	40	0	548405248	56	5940
2026-01-03 12:15:17.85	69.79	14.78	-40.7	-41.8	21.7	0.00e+00	0	40	0	555745280	54	6308
2026-01-03 12:15:21.88	70.64	14.82	-40.9	-42.1	21.6	0.00e+00	0	40	0	563085312	54	6472
2026-01-03 12:15:25.92	71.48	14.87	-41.0	-42.1	21.6	0.00e+00	0	40	0	571473920	54	6538
2026-01-03 12:15:29.96	72.33	14.90	-40.9	-42.1	21.5	0.00e+00	0	40	0	578813952	54	6471
2026-01-03 12:15:33.99	73.18	14.93	-40.3	-41.4	22.2	0.00e+00	0	40	0	586153984	54	5972
2026-01-03 12:15:38.03	74.03	14.96	-40.2	-41.3	22.4	0.00e+00	0	40	0	593494016	54	5910
2026-01-03 12:15:42.07	74.89	14.97	-40.5	-41.6	22.1	0.00e+00	0	40	0	600834048	54	6114
2026-01-03 12:15:46.10	75.74	14.99	-40.2	-41.2	22.6	0.00e+00	0	40	0	609222656	54	5846
2026-01-03 12:15:50.14	76.60	14.99	-40.7	-41.8	21.6	0.00e+00	0	40	0	616562688	54	6282
2026-01-03 12:15:54.18	77.45	14.99	-40.7	-41.8	22.0	0.00e+00	0	40	0	623902720	54	6267
2026-01-03 12:15:58.22	78.31	14.99	-40.6	-41.7	22.5	0.00e+00	0	40	0	631242752	54	6222
2026-01-03 12:16:02.25	79.16	14.98	-39.9	-40.9	22.8	0.00e+00	0	40	0	638582784	52	6340
2026-01-03 12:16:06.28	80.01	14.96	-39.8	-40.8	22.9	0.00e+00	0	40	0	646971392	52	6284
2026-01-03 12:16:10.32	80.87	14.94	-40.0	-41.0	22.8	0.00e+00	0	40	0	654311424	52	6408
2026-01-03 12:16:14.35	81.72	14.91	-40.6	-41.6	22.6	0.00e+00	0	40	0	661651456	52	6889
2026-01-03 12:16:18.39	82.57	14.87	-40.0	-41.0	22.8	0.00e+00	0	40	0	668991488	54	5733
2026-01-03 12:16:22.43	83.42	14.83	-39.9	-40.9	22.6	0.00e+00	0	40	0	677380096	52	6343
2026-01-03 12:16:26.46	84.26	14.79	-39.8	-40.8	22.9	0.00e+00	0	40	0	684720128	52	6273
2026-01-03 12:16:30.50	85.11	14.74	-39.6	-40.6	23.1	0.00e+00	0	40	0	692060160	52	6110
2026-01-03 12:16:34.54	85.95	14.68	-40.3	-41.4	22.5	0.00e+00	0	40	0	699400192	52	6697
2026-01-03 12:16:38.58	86.78	14.62	-39.7	-40.7	23.0	0.00e+00	0	40	0	706740224	52	6201
2026-01-03 12:16:42.62	87.62	14.55	-39.3	-40.3	23.5	0.00e+00	0	40	0	715128832	52	5897
2026-01-03 12:16:46.65	88.45	14.47	-39.2	-40.1	23.4	0.00e+00	0	40	0	722468864	52	5778
2026-01-03 12:16:50.69	89.27	14.39	-39.6	-40.5	23.1	0.00e+00	0	40	0	729808896	52	6098
2026-01-03 12:16:54.73	90.09	14.31	-39.7	-40.6	23.0	0.00e+00	0	40	0	737148928	52	6168
2026-01-03 12:16:58.77	90.91	14.22	-39.4	-40.3	23.3	0.00e+00	0	40	0	745537536	52	5928
2026-01-03 12:17:02.81	91.72	14.12	-39.2	-40.1	23.4	0.00e+00	0	40	0	752877568	52	5823
2026-01-03 12:17:06.84	92.53	14.03	-38.9	-39.7	23.9	0.00e+00	0	40	0	760217600	52	5563
2026-01-03 12:17:10.88	93.33	13.92	-39.2	-40.1	23.5	0.00e+00	0	40	0	767557632	52	5821
2026-01-03 12:17:14.92	94.12	13.81	-39.1	-40.0	23.6	0.00e+00	0	40	0	774897664	52	5757
2026-01-03 12:17:18.95	94.91	13.70	-39.0	-39.8	23.7	0.00e+00	0	40	0	783286272	52	5630
2026-01-03 12:17:22.99	95.70	13.58	-39.2	-40.2	23.6	0.00e+00	0	40	0	790626304	52	5829
2026-01-03 12:17:27.03	96.48	13.46	-39.2	-40.1	23.6	0.00e+00	0	40	0	797966336	52	5817
2026-01-03 12:17:31.06	97.25	13.33	-39.9	-40.9	22.5	0.00e+00	0	40	0	805306368	52	6371
2026-01-03 12:17:35.10	98.01	13.20	-40.1	-41.1	22.9	0.00e+00	0	40	0	812646400	52	6495
2026-01-03 12:17:39.14	98.77	13.07	-40.4	-41.4	22.5	0.00e+00	0	40	0	821035008	54	5995
2026-01-03 12:17:43.17	99.52	12.93	-40.2	-41.1	22.6	0.00e+00	0	40	0	828375040	54	5819
2026-01-03 12:17:47.20	100.26	12.79	-40.4	-41.5	22.3	0.00e+00	0	40	0	835715072	54	6045
2026-01-03 12:17:51.24	101.00	12.65	-41.3	-42.5	21.4	0.00e+00	0	40	0	843055104	54	6792
2026-01-03 12:17:55.28	101.74	12.50	-42.1	-43.3	20.6	0.00e+00	0	40	0	851443712	56	6672
2026-01-03 12:17:59.32	102.46	12.35	-42.9	-44.3	19.8	0.00e+00	0	40	0	858783744	58	6669
2026-01-03 12:18:03.35	103.18	12.19	-43.4	-45.0	18.9	0.00e+00	0	40	0	866123776	60	6450
2026-01-03 12:18:07.38	103.88	12.03	-42.8	-44.2	19.8	0.00e+00	0	40	0	873463808	58	6578
2026-01-03 12:18:11.42	104.59	11.87	-43.0	-44.5	19.5	0.00e+00	0	40	0	880803840	58	6826
2026-01-03 12:18:15.47	105.28	11.71	-43.9	-45.6	18.9	0.00e+00	0	40	0	889192448	60	6896
2026-01-03 12:18:19.50	105.97	11.54	-44.7	-46.6	17.8	0.00e+00	0	40	0	896532480	60	7756
2026-01-03 12:18:23.54	106.65	11.38	-43.4	-44.9	18.3	0.00e+00	0	40	0	903872512	60	6348
2026-01-03 12:18:27.58	107.32	11.20	-44.0	-45.8	18.4	0.00e+00	0	40	0	911212544	60	7009
2026-01-03 12:18:31.62	107.99	11.03	-43.3	-44.8	18.7	0.00e+00	0	40	0	919601152	60	6312
2026-01-03 12:18:35.65	108.64	10.86	-42.5	-43.9	20.2	0.00e+00	0	40	0	926941184	60	5647
2026-01-03 12:18:39.69	109.29	10.68	-43.0	-44.5	19.2	0.00e+00	0	40	0	934281216	58	6805
2026-01-03 12:18:43.73	109.93	10.50	-43.2	-44.7	19.8	0.00e+00	0	40	0	941621248	60	6190
2026-01-03 12:18:47.76	110.57	10.32	-42.2	-43.5	20.3	0.00e+00	0	40	0	948961280	58	6086
2026-01-03 12:18:51.80	111.19	10.14	-41.6	-42.8	21.1	0.00e+00	0	40	0	957349888	56	6306
2026-01-03 12:18:55.83	111.81	9.95	-41.0	-42.1	22.1	0.00e+00	0	40	0	964689920	56	5785
2026-01-03 12:18:59.87	112.42	9.77	-40.6	-41.6	22.0	0.00e+00	0	40	0	972029952	54	6154
2026-01-03 12:19:03.91	113.03	9.58	-41.6	-42.8	20.9	0.00e+00	0	40	0	979369984	54	7081
2026-01-03 12:19:07.95	113.63	9.39	-41.1	-42.3	21.4	0.00e+00	0	40	0	986710016	56	5912
2026-01-03 12:19:11.98	114.21	9.20	-41.0	-42.1	21.6	0.00e+00	0	40	0	995098624	56	5802
2026-01-03 12:19:16.01	114.80	9.01	-40.8	-41.9	21.7	0.00e+00	0	40	0	1002438656	56	5691
2026-01-03 12:19:20.05	115.37	8.82	-40.9	-42.0	21.8	0.00e+00	0	40	0	1009778688	54	6403
2026-01-03 12:19:24.09	115.94	8.63	-41.6	-42.8	20.9	0.00e+00	0	40	0	1017118720	54	7058
2026-01-03 12:19:28.12	116.50	8.43	-41.2	-42.4	21.2	0.00e+00	0	40	0	1025507328	56	5980
2026-01-03 12:19:32.16	117.05	8.24	-40.7	-41.8	21.9	0.00e+00	0	40	0	1032847360	56	5585
2026-01-03 12:19:36.19	117.60	8.04	-40.4	-41.5	22.1	0.00e+00	0	40	0	1040187392	54	6034
2026-01-03 12:19:40.23	118.14	7.85	-40.8	-41.9	21.5	0.00e+00	0	40	0	1047527424	54	6376
2026-01-03 12:19:44.27	118.67	7.65	-41.4	-42.6	21.2	0.00e+00	0	40	0	1054867456	56	6132
2026-01-03 12:19:48.30	119.19	7.46	-41.2	-42.3	21.3	0.00e+00	0	40	0	1063256064	56	5957
2026-01-03 12:19:52.34	119.71	7.26	-41.2	-42.4	21.1	0.00e+00	0	40	0	1070596096	56	5979
2026-01-03 12:19:56.38	120.22	7.06	-42.2	-43.5	20.8	0.00e+00	0	40	0	1077936128	56	6826
2026-01-03 12:20:00.40	120.73	6.86	-42.3	-43.7	20.2	0.00e+00	0	40	0	1085276160	58	6180
2026-01-03 12:20:04.44	121.23	6.66	-42.5	-43.8	20.1	0.00e+00	0	40	0	1093664768	58	6304
2026-01-03 12:20:08.48	121.72	6.46	-43.1	-44.6	19.1	0.00e+00	0	40	0	1101004800	60	6168
2026-01-03 12:20:12.51	122.20	6.27	-43.9	-45.7	18.6	0.00e+00	0	40	0	1108344832	60	6951
2026-01-03 12:20:16.54	122.68	6.07	-42.1	-43.5	19.8	0.00e+00	0	40	0	1115684864	58	6077
2026-01-03 12:20:20.57	123.15	5.87	-42.4	-43.9	19.9	0.00e+00	0	40	0	1123024896	58	6341
2026-01-03 12:20:24.61	123.62	5.67	-42.5	-44.0	19.6	0.00e+00	0	40	0	1131413504	58	6443
2026-01-03 12:20:28.64	124.08	5.47	-42.6	-44.1	19.3	0.00e+00	0	40	0	1138753536	58	6483
2026-01-03 12:20:32.68	124.54	5.27	-42.4	-43.9	19.1	0.00e+00	0	40	0	1146093568	58	6388
2026-01-03 12:20:36.71	124.98	5.07	-42.5	-43.9	19.6	0.00e+00	0	40	0	1153433600	58	6350
2026-01-03 12:20:40.75	125.43	4.87	-43.7	-45.5	18.6	0.00e+00	0	40	0	1160773632	58	7656
2026-01-03 12:20:44.78	125.86	4.67	-43.2	-44.9	18.5	0.00e+00	0	40	0	1169162240	60	6380
2026-01-03 12:20:48.82	126.30	4.47	-43.4	-45.1	18.3	0.00e+00	0	40	0	1176502272	60	6525
2026-01-03 12:20:52.85	126.72	4.28	-43.5	-45.3	18.2	0.00e+00	0	40	0	1183842304	60	6678
2026-01-03 12:20:56.89	127.14	4.08	-43.6	-45.5	18.1	0.00e+00	0	40	0	1191182336	60	6810
2026-01-03 12:21:00.92	127.56	3.88	-43.6	-45.5	18.1	0.00e+00	0	40	0	1199570944	60	6778
2026-01-03 12:21:04.95	127.97	3.68	-43.9	-45.8	17.8	0.00e+00	0	40	0	1206910976	60	7072
2026-01-03 12:21:08.98	128.37	3.48	-43.3	-45.1	18.0	0.00e+00	0	40	0	1214251008	60	6487
2026-01-03 12:21:13.01	128.77	3.29	-43.3	-45.2	17.8	0.00e+00	0	40	0	1221591040	60	6588
2026-01-03 12:21:17.05	129.16	3.09	-44.0	-46.2	16.6	0.00e+00	0	40	0	1228931072	60	7393
2026-01-03 12:21:21.09	129.55	2.89	-49.8	-65.0	3.6	1.51e+00	0	40	104	1232076800	60	64495
2026-01-03 12:21:25.13	129.94	2.69	-50.1	-65.3	3.6	1.51e+00	0	40	104	1232076800	60	66422
2026-01-03 12:21:29.17	130.32	2.50	-50.5	-65.6	3.6	1.51e+00	0	40	104	1232076800	60	69046
2026-01-03 12:21:33.21	130.69	2.30	-50.5	-65.7	3.6	1.51e+00	0	40	104	1232076800	60	69311
2026-01-03 12:21:37.25	131.06	2.11	-50.6	-65.8	3.6	1.51e+00	0	40	104	1232076800	60	70583
2026-01-03 12:21:41.29	131.43	1.91	-50.8	-66.0	3.6	1.51e+00	0	40	104	1232076800	60	72129
2026-01-03 12:21:45.33	131.79	1.72	-51.2	-66.4	3.6	1.51e+00	0	40	104	1232076800	60	75796
2026-01-03 12:21:49.37	132.15	1.52	-51.0	-66.2	3.6	1.51e+00	0	40	104	1232076800	60	73385
2026-01-03 12:21:53.41	132.50	1.33	-50.6	-65.9	3.6	1.51e+00	0	40	104	1232076800	60	71078
2026-01-03 12:21:57.45	132.85	1.14	-50.6	-65.8	3.6	1.51e+00	0	40	104	1232076800	60	70601
2026-01-03 12:22:01.49	133.19	0.94	-50.8	-66.0	3.6	1.51e+00	0	40	104	1232076800	60	72293
2026-01-03 12:22:05.52	133.53	0.75	-50.8	-66.0	3.6	1.51e+00	0	40	104	1232076800	60	72194
2026-01-03 12:22:09.56	133.86	0.56	-50.7	-65.9	3.6	1.51e+00	0	40	104	1232076800	60	71398
2026-01-03 12:22:13.60	134.19	0.37	-50.3	-65.5	3.6	1.51e+00	0	40	104	1232076800	60	68042
2026-01-03 12:22:17.64	134.52	0.18	-50.8	-66.1	3.6	1.51e+00	0	40	104	1232076800	60	72827

#Closed at: 2026-01-03 12:22:21
#Recorded file [1232 MB]: D:/lorett/data/35029_260104_000922.dat