passes_logs/2026/01/03/R4.6S_Anadyr/R4.6S_Anadyr__20260103_211654_NOAA_21_JPSS-2_rec.log

#Pass ID: 20260103_211654_NOAA 21 (JPSS-2)
#Satellite: NOAA 21 (JPSS-2)
#Configuration: NOAA-21
#almurnet v.1.7.20251203
#Start time: 2026-01-03 21:16:56

#Version: 2.2.20231116
#Station: R4.6S_Anadyr
#Location: 177.4865 lon 64.73178 lat
#TLE: 1 54234U 22150A   26003.45311712  .00000198  00000+0  11468-3 0  9993
#TLE: 2 54234  98.7487 304.4932 0001159 347.5017  12.6130 14.19531745163172

#Time	Az	El	Level	Level2	SNR	BER	BlckErr	Temp	State	Recorded	gain1	gain2
2026-01-03 21:16:56.04	87.16	0.06	-52.1	-69.8	3.5	3.02e+01	0	36	0	0	60	119241
2026-01-03 21:17:00.08	86.91	0.28	-51.1	-63.9	3.5	1.52e+00	0	38	104	0	60	55283
2026-01-03 21:17:04.12	86.65	0.49	-50.8	-63.6	3.5	1.52e+00	0	38	104	0	60	53260
2026-01-03 21:17:08.16	86.39	0.70	-50.8	-63.6	3.5	1.52e+00	0	38	104	0	60	53287
2026-01-03 21:17:12.20	86.12	0.92	-49.8	-62.8	3.5	1.52e+00	0	38	104	0	60	48241
2026-01-03 21:17:16.24	85.85	1.13	-48.6	-61.6	3.5	1.52e+00	0	38	104	0	60	42306
2026-01-03 21:17:20.27	85.57	1.35	-48.8	-61.8	3.5	1.52e+00	0	38	104	0	60	43084
2026-01-03 21:17:24.31	85.29	1.57	-48.6	-61.6	3.5	1.52e+00	0	39	104	0	60	42012
2026-01-03 21:17:28.35	85.01	1.79	-48.6	-61.7	3.5	1.52e+00	0	38	104	0	60	42537
2026-01-03 21:17:32.39	84.72	2.00	-48.8	-61.7	3.5	1.52e+00	0	39	104	0	60	42593
2026-01-03 21:17:36.42	84.42	2.22	-48.6	-61.3	3.5	1.52e+00	0	39	104	0	60	40899
2026-01-03 21:17:40.46	84.13	2.45	-48.7	-61.7	3.5	1.52e+00	0	39	104	0	60	42649
2026-01-03 21:17:44.50	83.82	2.67	-48.7	-61.4	3.5	1.52e+00	0	39	104	0	60	41342
2026-01-03 21:17:48.54	83.52	2.89	-48.3	-60.4	3.5	1.52e+00	0	39	104	0	60	36569
2026-01-03 21:17:52.57	83.20	3.12	-46.6	-51.0	9.5	2.07e-03	120	39	0	2097152	60	12389
2026-01-03 21:17:56.60	82.89	3.34	-46.2	-50.4	11.3	8.32e-02	120	39	0	11534336	60	11573
2026-01-03 21:18:00.63	82.57	3.57	-40.0	-41.3	19.2	0.00e+00	123	39	0	17825792	52	6483
2026-01-03 21:18:04.66	82.24	3.80	-39.7	-41.0	19.6	0.00e+00	122	39	0	30408704	52	6218
2026-01-03 21:18:08.70	81.91	4.02	-39.7	-41.0	19.7	0.00e+00	120	39	0	42991616	52	6246
2026-01-03 21:18:12.74	81.57	4.25	-39.5	-40.7	20.1	0.00e+00	123	39	0	55574528	52	6007
2026-01-03 21:18:16.77	81.22	4.48	-40.2	-41.4	20.1	0.00e+00	123	39	0	68157440	52	6513
2026-01-03 21:18:20.81	80.87	4.72	-39.6	-40.8	20.1	0.00e+00	122	39	0	80740352	52	6087
2026-01-03 21:18:24.85	80.52	4.95	-39.5	-40.6	20.6	0.00e+00	122	39	0	93323264	52	5986
2026-01-03 21:18:28.89	80.16	5.18	-39.2	-40.4	20.7	0.00e+00	120	39	0	105906176	52	5820
2026-01-03 21:18:32.93	79.79	5.42	-39.6	-40.7	20.6	0.00e+00	123	39	0	118489088	52	6053
2026-01-03 21:18:36.97	79.42	5.65	-39.4	-40.5	21.1	0.00e+00	123	39	0	131072000	52	5909
2026-01-03 21:18:41.00	79.04	5.89	-38.9	-40.0	21.0	0.00e+00	123	39	0	143654912	52	5562
2026-01-03 21:18:45.04	78.65	6.13	-38.7	-39.8	21.4	0.00e+00	123	39	0	156237824	50	6090
2026-01-03 21:18:49.07	78.26	6.36	-39.2	-40.3	20.9	0.00e+00	122	39	0	168820736	56	4560
2026-01-03 21:18:53.11	77.86	6.60	-39.8	-40.9	20.6	0.00e+00	123	39	0	181403648	52	6179
2026-01-03 21:18:57.15	77.46	6.84	-42.2	-43.5	19.6	0.00e+00	123	39	0	193986560	56	6648
2026-01-03 21:19:01.19	77.04	7.08	-39.4	-40.6	21.1	0.00e+00	122	39	0	206569472	52	5944
2026-01-03 21:19:05.23	76.62	7.33	-39.7	-40.8	21.0	0.00e+00	120	39	0	219152384	52	6087
2026-01-03 21:19:09.26	76.20	7.57	-39.4	-40.5	21.0	0.00e+00	122	39	0	231735296	52	5866
2026-01-03 21:19:13.30	75.76	7.81	-38.9	-40.0	21.1	0.00e+00	122	39	0	244318208	52	5581
2026-01-03 21:19:17.34	75.32	8.06	-40.2	-41.4	20.7	0.00e+00	122	39	0	256901120	50	7350
2026-01-03 21:19:21.37	74.87	8.30	-39.1	-40.2	21.1	0.00e+00	122	39	0	270532608	50	6382
2026-01-03 21:19:25.41	74.41	8.55	-40.2	-41.4	21.0	0.00e+00	123	39	0	283115520	50	7328
2026-01-03 21:19:29.45	73.95	8.79	-40.0	-41.1	21.6	0.00e+00	120	39	0	295698432	56	4994
2026-01-03 21:19:33.49	73.47	9.04	-39.1	-40.1	21.6	0.00e+00	123	39	0	308281344	50	6330
2026-01-03 21:19:37.52	72.99	9.28	-44.8	-46.6	21.6	0.00e+00	123	39	0	320864256	56	9399
2026-01-03 21:19:41.56	72.50	9.53	-38.5	-39.5	21.9	0.00e+00	123	39	0	333447168	50	5914
2026-01-03 21:19:45.60	72.00	9.78	-37.7	-38.7	22.8	0.00e+00	120	39	0	346030080	48	6004
2026-01-03 21:19:49.63	71.50	10.03	-38.2	-39.2	22.9	0.00e+00	123	39	0	358612992	48	6386
2026-01-03 21:19:53.67	70.98	10.28	-39.1	-40.2	20.9	0.00e+00	122	39	0	371195904	50	6407
2026-01-03 21:19:57.70	70.45	10.52	-37.7	-38.6	23.0	0.00e+00	120	39	0	383778816	48	5959
2026-01-03 21:20:01.74	69.92	10.77	-37.7	-38.6	22.9	0.00e+00	123	39	0	396361728	48	5984
2026-01-03 21:20:05.78	69.38	11.02	-37.7	-38.7	23.2	0.00e+00	122	39	0	408944640	48	6011
2026-01-03 21:20:09.81	68.82	11.27	-38.0	-39.0	22.8	0.00e+00	123	39	0	421527552	48	6232
2026-01-03 21:20:13.86	68.26	11.52	-37.9	-38.8	23.1	0.00e+00	123	40	0	434110464	48	6109
2026-01-03 21:20:17.89	67.69	11.77	-38.3	-39.3	23.2	0.00e+00	123	39	0	446693376	48	6448
2026-01-03 21:20:21.92	67.11	12.02	-37.1	-38.0	23.4	0.00e+00	122	39	0	459276288	48	5592
2026-01-03 21:20:25.96	66.51	12.26	-37.0	-37.9	23.5	0.00e+00	122	40	0	471859200	48	5521
2026-01-03 21:20:30.00	65.91	12.51	-37.7	-38.7	23.1	0.00e+00	122	39	0	484442112	48	5997
2026-01-03 21:20:34.04	65.30	12.76	-37.7	-38.7	23.1	0.00e+00	123	39	0	497025024	48	6012
2026-01-03 21:20:38.07	64.67	13.00	-37.7	-38.7	23.1	0.00e+00	123	40	0	509607936	48	5999
2026-01-03 21:20:42.10	64.04	13.25	-37.8	-38.7	22.6	0.00e+00	123	40	0	522190848	50	5403
2026-01-03 21:20:46.14	63.39	13.49	-38.1	-39.1	22.3	0.00e+00	122	40	0	534773760	50	5612
2026-01-03 21:20:50.18	62.74	13.73	-38.7	-39.8	21.8	0.00e+00	120	40	0	547356672	50	6111
2026-01-03 21:20:54.21	62.07	13.97	-37.8	-38.8	22.3	0.00e+00	123	40	0	559939584	50	5459
2026-01-03 21:20:58.25	61.40	14.21	-37.3	-38.3	22.7	0.00e+00	120	40	0	572522496	48	5771
2026-01-03 21:21:02.27	60.71	14.45	-37.2	-38.2	22.7	0.00e+00	120	40	0	585105408	48	5719
2026-01-03 21:21:06.31	60.01	14.68	-38.6	-39.6	22.2	0.00e+00	120	40	0	597688320	48	6705
2026-01-03 21:21:10.34	59.30	14.92	-38.5	-39.5	22.5	0.00e+00	123	40	0	610271232	52	5264
2026-01-03 21:21:14.37	58.58	15.15	-38.5	-39.5	21.9	0.00e+00	120	40	0	622854144	50	5920
2026-01-03 21:21:18.41	57.84	15.37	-37.5	-38.5	22.4	0.00e+00	123	40	0	635437056	48	5867
2026-01-03 21:21:22.45	57.10	15.60	-37.3	-38.3	22.3	0.00e+00	123	40	0	648019968	48	5784
2026-01-03 21:21:26.49	56.34	15.82	-38.4	-39.4	22.3	0.00e+00	123	40	0	660602880	50	5848
2026-01-03 21:21:30.52	55.58	16.04	-37.4	-38.4	22.3	0.00e+00	123	40	0	673185792	48	5845
2026-01-03 21:21:34.56	54.80	16.26	-38.1	-39.1	22.4	0.00e+00	123	40	0	686817280	50	5611
2026-01-03 21:21:38.60	54.01	16.47	-37.3	-38.3	22.7	0.00e+00	123	40	0	698351616	48	5774
2026-01-03 21:21:42.63	53.21	16.68	-37.4	-38.4	22.5	0.00e+00	123	40	0	711983104	48	5803
2026-01-03 21:21:46.67	52.39	16.88	-37.9	-39.0	21.8	0.00e+00	120	40	0	724566016	48	6238
2026-01-03 21:21:50.71	51.57	17.08	-38.4	-39.4	22.3	0.00e+00	122	40	0	737148928	50	5815
2026-01-03 21:21:54.74	50.73	17.28	-37.9	-39.0	22.0	0.00e+00	123	40	0	749731840	48	6222
2026-01-03 21:21:58.78	49.89	17.47	-37.3	-38.3	22.6	0.00e+00	120	40	0	762314752	48	5775
2026-01-03 21:22:02.81	49.03	17.66	-37.6	-38.6	22.8	0.00e+00	123	40	0	774897664	48	5947
2026-01-03 21:22:06.85	48.17	17.84	-38.4	-39.5	22.7	0.00e+00	122	40	0	787480576	48	6582
2026-01-03 21:22:10.89	47.29	18.01	-36.9	-37.8	23.3	0.00e+00	123	40	0	800063488	48	5458
2026-01-03 21:22:14.92	46.40	18.18	-36.9	-37.8	23.0	0.00e+00	120	40	0	812646400	48	5454
2026-01-03 21:22:18.96	45.50	18.35	-37.1	-38.1	22.6	0.00e+00	122	40	0	825229312	46	6314
2026-01-03 21:22:23.00	44.60	18.50	-36.1	-37.1	23.1	0.00e+00	123	40	0	837812224	46	5613
2026-01-03 21:22:27.04	43.68	18.65	-36.9	-37.9	21.3	0.00e+00	123	40	0	850395136	46	6148
2026-01-03 21:22:31.07	42.76	18.80	-36.3	-37.2	13.9	4.38e-02	122	40	0	859832320	44	6419
2026-01-03 21:22:35.11	41.82	18.93	-36.0	-36.9	23.2	0.00e+00	122	40	0	872415232	46	5498
2026-01-03 21:22:39.15	40.88	19.06	-36.6	-37.5	24.0	0.00e+00	123	40	0	884998144	46	5910
2026-01-03 21:22:43.19	39.93	19.18	-36.9	-37.9	23.8	0.00e+00	123	40	0	897581056	48	5520
2026-01-03 21:22:47.22	38.98	19.30	-37.1	-38.1	24.0	0.00e+00	123	40	0	910163968	46	6295
2026-01-03 21:22:51.26	38.01	19.40	-37.7	-38.7	23.4	0.00e+00	120	39	0	922746880	48	6041
2026-01-03 21:22:55.29	37.04	19.50	-36.8	-37.7	23.8	0.00e+00	122	40	0	935329792	46	6027
2026-01-03 21:22:59.32	36.07	19.59	-36.7	-37.6	24.0	0.00e+00	121	40	0	947912704	46	5976
2026-01-03 21:23:03.35	35.09	19.67	-36.2	-37.1	23.8	0.00e+00	122	39	0	960495616	46	5652
2026-01-03 21:23:07.39	34.10	19.74	-36.5	-37.4	24.0	0.00e+00	123	40	0	973078528	46	5818
2026-01-03 21:23:11.42	33.11	19.81	-36.7	-37.6	24.0	0.00e+00	123	39	0	985661440	46	5938
2026-01-03 21:23:15.46	32.12	19.86	-36.9	-37.9	23.8	0.00e+00	120	40	0	998244352	46	6141
2026-01-03 21:23:19.50	31.12	19.91	-36.4	-37.3	24.0	0.00e+00	122	40	0	1010827264	46	5741
2026-01-03 21:23:23.53	30.12	19.94	-36.3	-37.2	24.2	0.00e+00	122	40	0	1023410176	46	5683
2026-01-03 21:23:27.56	29.12	19.97	-36.1	-37.1	24.2	0.00e+00	120	40	0	1035993088	46	5599
2026-01-03 21:23:31.60	28.11	19.99	-37.8	-38.7	23.6	0.00e+00	123	39	0	1048576000	48	6052
2026-01-03 21:23:35.64	27.11	20.00	-36.7	-37.6	23.8	0.00e+00	123	39	0	1061158912	46	5946
2026-01-03 21:23:39.68	26.10	20.00	-37.3	-38.2	23.7	0.00e+00	120	39	0	1073741824	46	6376
2026-01-03 21:23:43.71	25.10	19.99	-37.2	-38.1	23.9	0.00e+00	120	39	0	1086324736	46	6319
2026-01-03 21:23:47.75	24.09	19.97	-36.7	-37.6	24.4	0.00e+00	122	39	0	1098907648	46	5944
2026-01-03 21:23:51.79	23.09	19.94	-36.8	-37.7	24.3	0.00e+00	120	39	0	1111490560	46	6004
2026-01-03 21:23:55.83	22.09	19.90	-35.8	-36.7	24.3	0.00e+00	123	39	0	1124073472	44	6052
2026-01-03 21:23:59.86	21.10	19.86	-37.3	-38.2	24.3	0.00e+00	123	39	0	1136656384	46	6419
2026-01-03 21:24:03.90	20.10	19.80	-36.0	-36.9	24.4	0.00e+00	122	39	0	1149239296	46	5482
2026-01-03 21:24:07.93	19.11	19.74	-36.5	-37.4	24.2	0.00e+00	123	39	0	1161822208	46	5851
2026-01-03 21:24:11.97	18.13	19.67	-42.8	-44.3	22.9	0.00e+00	120	39	0	1174405120	48	11437
2026-01-03 21:24:16.01	17.14	19.59	-36.2	-37.1	24.1	0.00e+00	122	39	0	1186988032	46	5637
2026-01-03 21:24:20.05	16.17	19.50	-37.2	-38.1	23.8	0.00e+00	123	39	0	1199570944	46	6327
2026-01-03 21:24:24.09	15.20	19.40	-36.2	-37.1	24.5	0.00e+00	123	39	0	1212153856	46	5603
2026-01-03 21:24:28.13	14.24	19.29	-36.1	-37.0	24.2	0.00e+00	120	39	0	1224736768	46	5547
2026-01-03 21:24:32.16	13.28	19.18	-36.4	-37.3	24.2	0.00e+00	123	39	0	1238368256	46	5781
2026-01-03 21:24:36.20	12.33	19.06	-36.6	-37.5	24.1	0.00e+00	122	39	0	1249902592	46	5909
2026-01-03 21:24:40.24	11.39	18.93	-36.7	-37.7	23.9	0.00e+00	123	39	0	1263534080	46	6006
2026-01-03 21:24:44.28	10.46	18.79	-36.6	-37.5	24.1	0.00e+00	122	39	0	1276116992	48	5252
2026-01-03 21:24:48.31	9.54	18.65	-36.6	-37.6	24.0	0.00e+00	120	39	0	1288699904	46	5940
2026-01-03 21:24:52.35	8.63	18.50	-36.6	-37.6	24.1	0.00e+00	122	39	0	1301282816	46	5936
2026-01-03 21:24:56.39	7.72	18.34	-36.4	-37.3	24.1	0.00e+00	122	39	0	1313865728	46	5747
2026-01-03 21:25:00.42	6.83	18.18	-36.5	-37.4	23.9	0.00e+00	122	39	0	1326448640	46	5815
2026-01-03 21:25:04.46	5.94	18.01	-37.3	-38.3	23.6	0.00e+00	123	39	0	1339031552	46	6431
2026-01-03 21:25:08.49	5.07	17.83	-36.3	-37.2	23.9	0.00e+00	122	39	0	1351614464	46	5720
2026-01-03 21:25:12.52	4.21	17.65	-36.5	-37.4	24.2	0.00e+00	123	39	0	1364197376	46	5837
2026-01-03 21:25:16.56	3.35	17.47	-36.7	-37.6	23.9	0.00e+00	120	39	0	1376780288	46	5947
2026-01-03 21:25:20.60	2.51	17.27	-37.0	-37.9	23.9	0.00e+00	123	39	0	1389363200	48	5489
2026-01-03 21:25:24.63	1.68	17.08	-36.4	-37.3	24.1	0.00e+00	123	39	0	1401946112	46	5785
2026-01-03 21:25:28.67	0.85	16.88	-37.0	-38.0	23.8	0.00e+00	120	39	0	1414529024	46	6235
2026-01-03 21:25:32.70	0.04	16.68	-37.2	-38.1	23.5	0.00e+00	123	39	0	1427111936	48	5636
2026-01-03 21:25:36.74	359.25	16.47	-36.4	-37.3	23.6	0.00e+00	122	39	0	1439694848	46	5763
2026-01-03 21:25:40.78	358.46	16.25	-36.3	-37.3	23.6	0.00e+00	123	39	0	1452277760	46	5741
2026-01-03 21:25:44.81	357.68	16.04	-37.1	-38.0	23.8	0.00e+00	123	39	0	1464860672	46	6255
2026-01-03 21:25:48.85	356.92	15.82	-39.0	-40.0	21.9	0.00e+00	122	39	0	1477443584	48	7023
2026-01-03 21:25:52.88	356.16	15.60	-37.9	-38.8	23.3	0.00e+00	123	39	0	1490026496	48	6125
2026-01-03 21:25:56.92	355.42	15.37	-37.3	-38.3	23.3	0.00e+00	122	39	0	1502609408	48	5735
2026-01-03 21:26:00.96	354.69	15.14	-37.8	-38.7	23.4	0.00e+00	122	39	0	1515192320	48	6053
2026-01-03 21:26:05.00	353.97	14.91	-37.5	-38.4	23.1	0.00e+00	122	39	0	1527775232	48	5847
2026-01-03 21:26:09.04	353.26	14.68	-37.9	-38.8	23.3	0.00e+00	123	39	0	1540358144	48	6079
2026-01-03 21:26:13.07	352.56	14.45	-37.7	-38.7	23.1	0.00e+00	122	39	0	1552941056	50	5351
2026-01-03 21:26:17.11	351.88	14.21	-37.5	-38.4	23.4	0.00e+00	123	39	0	1565523968	48	5839
2026-01-03 21:26:21.15	351.20	13.97	-37.6	-38.6	23.5	0.00e+00	122	39	0	1578106880	50	5289
2026-01-03 21:26:25.18	350.54	13.73	-38.0	-38.9	23.4	0.00e+00	122	39	0	1590689792	48	6172
2026-01-03 21:26:29.22	349.89	13.49	-37.8	-38.7	23.1	0.00e+00	123	39	0	1603272704	50	5358
2026-01-03 21:26:33.26	349.24	13.25	-37.9	-38.9	23.2	0.00e+00	123	39	0	1615855616	50	5508
2026-01-03 21:26:37.29	348.61	13.00	-37.9	-38.9	23.4	1.50e-06	123	39	0	1628438528	50	5472
2026-01-03 21:26:41.33	347.99	12.76	-38.0	-39.0	22.5	0.00e+00	123	39	0	1641021440	48	6227
2026-01-03 21:26:45.37	347.38	12.51	-37.5	-38.5	23.1	0.00e+00	123	39	0	1654652928	48	5888
2026-01-03 21:26:49.41	346.78	12.27	-38.8	-39.8	22.8	0.00e+00	121	39	0	1667235840	52	5412
2026-01-03 21:26:53.44	346.19	12.02	-38.5	-39.4	22.7	0.00e+00	120	39	0	1678770176	50	5845
2026-01-03 21:26:57.48	345.61	11.77	-38.8	-39.8	22.8	0.00e+00	123	39	0	1692401664	50	6126
2026-01-03 21:27:01.52	345.04	11.52	-39.1	-40.1	21.6	0.00e+00	122	39	0	1704984576	50	6325
2026-01-03 21:27:05.56	344.48	11.28	-39.2	-40.3	21.9	0.00e+00	122	40	0	1717567488	52	5732
2026-01-03 21:27:09.60	343.93	11.03	-38.9	-40.0	22.1	0.00e+00	122	39	0	1730150400	52	5546
2026-01-03 21:27:13.63	343.39	10.78	-38.4	-39.4	21.9	0.00e+00	123	39	0	1742733312	50	5842
2026-01-03 21:27:17.66	342.86	10.53	-39.3	-40.4	21.9	0.00e+00	122	39	0	1755316224	50	6540
2026-01-03 21:27:21.70	342.34	10.28	-40.0	-41.1	22.1	0.00e+00	122	39	0	1767899136	54	5624
2026-01-03 21:27:25.74	341.82	10.04	-39.2	-40.2	21.9	0.00e+00	123	39	0	1780482048	52	5720
2026-01-03 21:27:29.77	341.32	9.79	-38.7	-39.8	22.1	0.00e+00	123	39	0	1793064960	50	6077
2026-01-03 21:27:33.81	340.82	9.54	-40.4	-41.5	20.8	0.00e+00	123	40	0	1805647872	54	5901
2026-01-03 21:27:37.85	340.33	9.29	-39.1	-40.2	21.5	0.00e+00	122	39	0	1818230784	52	5696
2026-01-03 21:27:41.89	339.86	9.05	-41.7	-42.9	20.9	0.00e+00	122	39	0	1830813696	54	6913
2026-01-03 21:27:45.93	339.38	8.80	-39.5	-40.6	21.6	0.00e+00	122	39	0	1843396608	52	5964
2026-01-03 21:27:49.96	338.92	8.56	-39.6	-40.6	21.8	0.00e+00	123	39	0	1855979520	50	6714
2026-01-03 21:27:54.01	338.47	8.31	-41.4	-42.4	21.7	0.00e+00	123	39	0	1868562432	56	5852
2026-01-03 21:27:58.04	338.02	8.07	-39.9	-41.0	21.2	0.00e+00	123	39	0	1881145344	54	5558
2026-01-03 21:28:02.08	337.58	7.82	-40.6	-41.7	21.3	0.00e+00	122	39	0	1893728256	52	6762
2026-01-03 21:28:06.12	337.15	7.58	-40.3	-41.5	21.3	0.00e+00	122	39	0	1906311168	54	5866
2026-01-03 21:28:10.15	336.72	7.34	-40.4	-41.3	21.7	0.00e+00	123	39	0	1918894080	54	5769
2026-01-03 21:28:14.19	336.31	7.10	-40.9	-42.0	20.7	0.00e+00	123	39	0	1931476992	54	6265
2026-01-03 21:28:18.23	335.90	6.86	-40.6	-41.8	20.6	0.00e+00	122	40	0	1944059904	54	6070
2026-01-03 21:28:22.27	335.49	6.62	-41.4	-42.6	20.6	0.00e+00	123	40	0	1956642816	56	5968
2026-01-03 21:28:26.30	335.10	6.38	-39.8	-41.0	20.7	0.00e+00	120	39	0	1969225728	52	6232
2026-01-03 21:28:30.33	334.71	6.14	-40.0	-41.1	20.7	0.00e+00	123	39	0	1981808640	52	6346
2026-01-03 21:28:34.36	334.32	5.91	-41.0	-42.3	19.0	0.00e+00	122	39	0	1994391552	54	6462
2026-01-03 21:28:38.39	333.95	5.67	-42.2	-43.9	17.0	0.00e+00	123	39	0	2006974464	56	6905
2026-01-03 21:28:42.42	333.58	5.44	-43.2	-45.2	15.7	0.00e+00	123	39	0	2019557376	60	6364
2026-01-03 21:28:46.46	333.21	5.20	-44.3	-46.5	14.6	0.00e+00	122	39	0	2032140288	60	7422
2026-01-03 21:28:50.49	332.86	4.97	-42.9	-44.8	15.9	0.00e+00	122	39	0	2044723200	58	6853
2026-01-03 21:28:54.52	332.50	4.74	-42.4	-44.1	16.8	0.00e+00	120	39	0	2057306112	58	6303
2026-01-03 21:28:58.56	332.16	4.51	-42.0	-43.4	18.1	0.00e+00	122	40	0	2069889024	56	6564
2026-01-03 21:29:02.60	331.81	4.28	-42.2	-43.6	18.1	0.00e+00	123	40	0	2082471936	56	6714
2026-01-03 21:29:06.64	331.48	4.05	-41.3	-42.8	18.1	0.00e+00	122	39	0	2095054848	56	6083
2026-01-03 21:29:10.68	331.15	3.82	-43.2	-44.7	17.9	0.00e+00	122	40	0	2108686336	58	6760
2026-01-03 21:29:14.71	330.82	3.59	-41.4	-42.9	17.8	0.00e+00	122	39	0	2121269248	56	6183
2026-01-03 21:29:18.75	330.50	3.37	-42.4	-44.1	17.1	0.00e+00	123	40	0	2133852160	56	7078
2026-01-03 21:29:22.79	330.19	3.14	-43.1	-44.9	16.3	0.00e+00	123	39	0	2146435072	56	7773
2026-01-03 21:29:26.83	329.88	2.92	-50.0	-62.9	3.5	1.52e+00	0	40	104	2154823680	60	48911
2026-01-03 21:29:30.86	329.57	2.69	-50.7	-63.6	3.5	1.52e+00	0	40	104	2154823680	60	53348
2026-01-03 21:29:34.90	329.27	2.47	-51.5	-64.4	3.5	1.52e+00	0	40	104	2154823680	60	58010
2026-01-03 21:29:38.94	328.98	2.25	-51.1	-64.1	3.5	1.52e+00	0	40	104	2154823680	60	56080
2026-01-03 21:29:42.97	328.69	2.03	-50.7	-63.5	3.5	1.52e+00	0	40	104	2154823680	60	52661
2026-01-03 21:29:47.01	328.40	1.81	-51.0	-63.9	3.5	1.52e+00	0	40	104	2154823680	60	54941
2026-01-03 21:29:51.04	328.12	1.59	-51.8	-64.6	3.5	1.52e+00	0	40	104	2154823680	60	59901
2026-01-03 21:29:55.09	327.84	1.38	-52.3	-65.1	3.5	1.52e+00	0	40	104	2154823680	60	63304
2026-01-03 21:29:59.12	327.57	1.16	-52.1	-64.9	3.5	1.52e+00	0	39	104	2154823680	60	61690
2026-01-03 21:30:03.16	327.30	0.94	-51.8	-64.7	3.5	1.52e+00	0	40	104	2154823680	60	60166
2026-01-03 21:30:07.19	327.04	0.73	-52.0	-64.9	3.5	1.52e+00	0	40	104	2154823680	60	61654
2026-01-03 21:30:11.22	326.78	0.52	-51.1	-64.0	3.5	1.52e+00	0	40	104	2154823680	60	55797
2026-01-03 21:30:15.26	326.52	0.31	-51.4	-64.3	3.5	1.52e+00	0	40	104	2154823680	60	57650
2026-01-03 21:30:19.30	326.26	0.09	-52.6	-65.5	3.5	1.52e+00	0	40	104	2154823680	60	66135

#Closed at: 2026-01-03 21:30:21
#Recorded file [2154 MB]: D:/lorett/data/35029_260104_091656.dat