passes_logs/2026/01/03/R4.6S_Anadyr/R4.6S_Anadyr__20260103_160032_AQUA_rec.log

#Pass ID: 20260103_160032_AQUA
#Satellite: AQUA
#Configuration: AQUA
#almurnet v.1.7.20251203
#Start time: 2026-01-03 16:00:33

#Version: 2.2.20231116
#Station: R4.6S_Anadyr
#Location: 177.4865 lon 64.73178 lat
#TLE: 1 27424U 02022A   25365.92641127  .00002078  00000+0  42628-3 0  9999
#TLE: 2 27424  98.4058 327.1196 0001962  94.7781 340.6230 14.61783896258835

#Time	Az	El	Level	Level2	SNR	BER	BlckErr	Temp	State	Recorded	gain1	gain2
2026-01-03 16:00:33.82	19.60	0.07	-51.0	-66.2	3.5	1.51e+00	0	40	104	1540358144	60	73481
2026-01-03 16:00:37.86	19.67	0.32	-52.6	-70.4	3.5	3.02e+01	0	40	104	0	60	127635
2026-01-03 16:00:41.89	19.74	0.57	-50.7	-68.5	3.5	3.02e+01	0	40	104	0	60	102523
2026-01-03 16:00:45.93	19.81	0.82	-50.2	-68.1	3.5	3.02e+01	0	40	104	0	60	97907
2026-01-03 16:00:49.97	19.88	1.08	-49.8	-67.6	3.5	3.02e+01	0	40	104	0	60	92157
2026-01-03 16:00:54.00	19.95	1.33	-49.0	-66.6	3.5	3.02e+01	0	40	104	0	60	81981
2026-01-03 16:00:58.04	20.03	1.59	-49.0	-66.5	3.5	3.02e+01	0	40	104	0	60	81489
2026-01-03 16:01:02.08	20.10	1.85	-49.0	-66.4	3.5	3.02e+01	0	40	104	0	60	80658
2026-01-03 16:01:06.12	20.18	2.12	-48.9	-66.5	3.5	3.02e+01	0	40	104	0	60	80928
2026-01-03 16:01:10.16	20.25	2.39	-49.0	-66.8	3.5	3.02e+01	0	40	104	0	60	83809
2026-01-03 16:01:14.20	20.33	2.66	-48.8	-63.0	3.6	3.02e+01	0	40	104	0	60	54501
2026-01-03 16:01:18.24	20.41	2.93	-48.7	-59.3	5.8	3.02e+01	92	40	0	5242880	60	35345
2026-01-03 16:01:22.28	20.49	3.21	-46.1	-50.2	15.9	3.02e+01	58	40	0	12582912	60	12389
2026-01-03 16:01:26.31	20.57	3.48	-41.5	-52.2	3.4	3.02e+01	0	40	104	19922944	58	17573
2026-01-03 16:01:30.35	20.66	3.77	-42.0	-52.6	3.6	3.02e+01	0	40	104	19922944	58	18501
2026-01-03 16:01:34.39	20.74	4.05	-40.2	-50.5	3.5	3.02e+01	0	40	104	19922944	54	18307
2026-01-03 16:01:38.43	20.83	4.34	-46.9	-60.0	3.5	3.02e+01	0	40	104	19922944	60	38353
2026-01-03 16:01:42.47	20.91	4.63	-39.7	-50.1	3.4	3.02e+01	0	40	104	19922944	54	17344
2026-01-03 16:01:46.50	21.00	4.93	-40.6	-51.0	4.0	3.02e+01	0	40	104	19922944	56	17116
2026-01-03 16:01:50.54	21.09	5.23	-41.1	-51.6	3.5	3.02e+01	0	40	104	19922944	56	18486
2026-01-03 16:01:54.57	21.18	5.53	-48.0	-62.6	3.5	3.02e+01	0	40	104	19922944	60	51707
2026-01-03 16:01:58.61	21.28	5.84	-42.7	-53.6	3.5	3.02e+01	0	40	104	19922944	60	18334
2026-01-03 16:02:02.65	21.37	6.15	-46.8	-59.6	3.5	3.02e+01	0	40	104	19922944	60	36578
2026-01-03 16:02:06.69	21.47	6.47	-40.4	-50.9	3.5	3.02e+01	0	40	104	19922944	56	16924
2026-01-03 16:02:10.72	21.57	6.79	-42.5	-53.3	3.7	3.02e+01	0	40	104	19922944	56	22309
2026-01-03 16:02:14.76	21.67	7.11	-39.1	-49.5	3.5	3.02e+01	0	40	104	19922944	54	16147
2026-01-03 16:02:18.80	21.77	7.44	-42.3	-53.1	3.5	3.02e+01	0	40	104	19922944	56	21839
2026-01-03 16:02:22.83	21.88	7.77	-48.5	-63.1	3.5	3.02e+01	0	40	104	19922944	60	54877
2026-01-03 16:02:26.87	21.99	8.11	-41.0	-51.6	3.5	3.02e+01	0	40	104	19922944	56	18317
2026-01-03 16:02:30.90	22.10	8.45	-43.3	-54.3	3.6	3.02e+01	0	40	104	19922944	60	19908
2026-01-03 16:02:34.94	22.21	8.80	-42.2	-52.9	3.5	3.02e+01	0	40	104	19922944	58	19068
2026-01-03 16:02:38.98	22.32	9.16	-49.5	-66.6	3.5	3.02e+01	0	40	104	19922944	60	81864
2026-01-03 16:02:43.01	22.44	9.52	-38.3	-48.5	3.5	3.02e+01	0	40	104	19922944	52	16281
2026-01-03 16:02:47.05	22.56	9.88	-44.2	-55.4	3.5	3.02e+01	0	40	104	19922944	60	22599
2026-01-03 16:02:51.09	22.68	10.25	-44.5	-55.5	3.5	3.02e+01	0	40	104	19922944	60	23032
2026-01-03 16:02:55.13	22.81	10.63	-47.6	-61.6	3.5	3.02e+01	0	40	104	19922944	60	46368
2026-01-03 16:02:59.16	22.94	11.02	-49.6	-67.0	3.5	3.02e+01	0	40	104	19922944	60	86471
2026-01-03 16:03:03.20	23.07	11.41	-37.7	-47.9	3.5	3.02e+01	0	40	104	19922944	50	17012
2026-01-03 16:03:07.23	23.20	11.80	-39.7	-50.1	3.4	3.02e+01	0	40	104	19922944	56	15462
2026-01-03 16:03:11.27	23.34	12.21	-39.2	-49.4	3.5	3.02e+01	0	40	104	19922944	52	18067
2026-01-03 16:03:15.31	23.49	12.62	-49.6	-66.9	3.5	3.02e+01	0	40	104	19922944	60	85496
2026-01-03 16:03:19.34	23.63	13.04	-40.7	-51.1	3.5	3.02e+01	0	40	104	19922944	56	17383
2026-01-03 16:03:23.38	23.78	13.47	-39.2	-49.6	3.5	3.02e+01	0	40	104	19922944	54	16390
2026-01-03 16:03:27.42	23.94	13.91	-40.4	-50.8	3.5	3.02e+01	0	40	104	19922944	56	16756
2026-01-03 16:03:31.45	24.10	14.35	-41.6	-52.2	3.5	3.02e+01	0	40	104	19922944	56	19802
2026-01-03 16:03:35.49	24.26	14.81	-43.6	-54.6	3.6	3.02e+01	0	40	104	19922944	60	20590
2026-01-03 16:03:39.53	24.43	15.27	-39.5	-49.8	3.5	3.02e+01	0	40	104	19922944	52	18875
2026-01-03 16:03:43.56	24.60	15.75	-42.4	-52.9	3.5	3.02e+01	0	40	104	19922944	56	21497
2026-01-03 16:03:47.59	24.78	16.23	-39.8	-50.1	3.5	3.02e+01	0	40	104	19922944	52	19486
2026-01-03 16:03:51.63	24.96	16.73	-46.3	-58.4	3.5	3.02e+01	0	40	104	19922944	60	31922
2026-01-03 16:03:55.67	25.16	17.23	-38.9	-49.2	3.5	3.02e+01	0	40	104	19922944	52	17503
2026-01-03 16:03:59.71	25.35	17.75	-49.5	-66.2	3.5	3.02e+01	0	40	104	19922944	60	78661
2026-01-03 16:04:03.74	25.56	18.28	-37.3	-47.5	3.5	3.02e+01	0	40	104	19922944	50	16241
2026-01-03 16:04:07.78	25.77	18.82	-43.0	-53.8	3.5	3.02e+01	0	40	104	19922944	60	18789
2026-01-03 16:04:11.81	25.99	19.38	-41.5	-51.9	3.5	3.02e+01	0	40	104	19922944	60	15204
2026-01-03 16:04:15.85	26.21	19.95	-40.3	-50.8	3.6	3.02e+01	0	40	104	19922944	52	21031
2026-01-03 16:04:19.89	26.45	20.53	-49.9	-67.4	3.5	3.02e+01	0	40	104	19922944	60	90497
2026-01-03 16:04:23.93	26.69	21.13	-38.5	-48.8	3.5	3.02e+01	0	40	104	19922944	52	16815
2026-01-03 16:04:27.96	26.95	21.74	-39.8	-50.2	3.5	3.02e+01	0	40	104	19922944	54	17593
2026-01-03 16:04:32.00	27.21	22.37	-37.0	-47.2	3.5	3.02e+01	0	40	104	19922944	48	17497
2026-01-03 16:04:36.03	27.48	23.02	-49.6	-65.9	3.5	3.02e+01	0	40	104	19922944	60	76153
2026-01-03 16:04:40.07	27.77	23.68	-39.7	-50.0	3.5	3.02e+01	0	40	104	19922944	54	17161
2026-01-03 16:04:44.11	28.07	24.37	-44.0	-55.0	3.6	3.02e+01	0	40	104	19922944	60	21546
2026-01-03 16:04:48.14	28.38	25.07	-40.6	-51.0	3.5	3.02e+01	0	40	104	19922944	56	17219
2026-01-03 16:04:52.17	28.70	25.79	-39.4	-49.7	3.6	3.02e+01	0	40	104	19922944	52	18681
2026-01-03 16:04:56.21	29.04	26.53	-49.7	-66.1	3.5	3.02e+01	0	40	104	19922944	60	77238
2026-01-03 16:05:00.25	29.40	27.30	-37.8	-48.1	3.5	3.02e+01	0	40	104	19922944	50	17307
2026-01-03 16:05:04.29	29.78	28.08	-41.5	-52.1	3.5	3.02e+01	0	40	104	19922944	60	15513
2026-01-03 16:05:08.32	30.17	28.89	-42.8	-53.4	3.5	3.02e+01	0	40	104	19922944	60	18063
2026-01-03 16:05:12.36	30.59	29.73	-39.9	-50.3	3.2	3.02e+01	0	40	104	19922944	60	12562
2026-01-03 16:05:16.39	31.02	30.59	-37.3	-47.5	3.5	3.02e+01	0	40	104	19922944	50	16141
2026-01-03 16:05:20.43	31.48	31.48	-40.6	-51.0	3.5	3.02e+01	0	40	104	19922944	58	15314
2026-01-03 16:05:24.46	31.97	32.39	-38.2	-48.4	3.5	3.02e+01	0	40	104	19922944	52	16091
2026-01-03 16:05:28.50	32.48	33.34	-40.2	-50.4	3.5	3.02e+01	0	40	104	19922944	58	14364
2026-01-03 16:05:32.54	33.03	34.31	-48.4	-61.8	3.5	3.02e+01	0	40	104	19922944	60	47493
2026-01-03 16:05:36.57	33.61	35.31	-40.3	-50.7	3.5	3.02e+01	0	40	104	19922944	56	16523
2026-01-03 16:05:40.61	34.23	36.35	-45.8	-57.3	3.5	3.02e+01	0	40	104	19922944	56	35625
2026-01-03 16:05:44.65	34.89	37.42	-39.5	-49.9	3.5	3.02e+01	0	40	104	19922944	52	18994
2026-01-03 16:05:48.68	35.59	38.52	-44.2	-55.3	3.5	3.02e+01	0	40	104	19922944	60	22311
2026-01-03 16:05:52.71	36.34	39.65	-39.2	-49.6	3.5	3.02e+01	0	40	104	19922944	54	16365
2026-01-03 16:05:56.75	37.15	40.83	-49.6	-66.9	3.5	3.02e+01	0	40	104	19922944	60	84881
2026-01-03 16:06:00.78	38.02	42.03	-41.7	-52.3	3.5	3.02e+01	0	40	104	19922944	58	17736
2026-01-03 16:06:04.81	38.96	43.27	-42.5	-53.1	3.5	3.02e+01	0	40	104	19922944	60	17357
2026-01-03 16:06:08.85	39.97	44.55	-43.4	-54.2	3.5	3.02e+01	0	40	104	19922944	60	19787
2026-01-03 16:06:12.89	41.07	45.86	-39.6	-49.9	3.5	3.02e+01	0	40	104	19922944	54	17005
2026-01-03 16:06:16.92	42.27	47.20	-49.9	-66.1	3.5	3.02e+01	0	40	104	19922944	60	77265
2026-01-03 16:06:20.96	43.58	48.58	-37.1	-47.3	3.5	3.02e+01	0	40	104	19922944	50	15819
2026-01-03 16:06:24.99	45.00	49.98	-40.6	-51.1	3.5	3.02e+01	0	40	104	19922944	56	17364
2026-01-03 16:06:29.03	46.58	51.41	-38.0	-48.1	3.5	3.02e+01	0	40	104	19922944	50	17436
2026-01-03 16:06:33.07	48.31	52.87	-49.7	-65.0	3.5	3.02e+01	0	40	104	19922944	60	68688
2026-01-03 16:06:37.11	50.22	54.34	-40.3	-50.6	3.6	3.02e+01	0	40	104	19922944	52	20628
2026-01-03 16:06:41.15	52.34	55.82	-39.4	-49.6	3.6	3.02e+01	0	40	104	19922944	54	16447
2026-01-03 16:06:45.18	54.69	57.30	-38.5	-48.7	3.5	3.02e+01	0	40	104	19922944	52	16533
2026-01-03 16:06:49.22	57.32	58.77	-46.4	-58.0	3.5	3.02e+01	0	40	104	19922944	60	30575
2026-01-03 16:06:53.25	60.24	60.21	-49.8	-65.8	3.5	3.02e+01	0	40	104	19922944	60	75390
2026-01-03 16:06:57.29	63.52	61.62	-39.6	-49.8	3.5	3.02e+01	0	40	104	19922944	54	16847
2026-01-03 16:07:01.33	67.19	62.97	-44.6	-55.7	3.5	3.02e+01	0	40	104	19922944	60	23516
2026-01-03 16:07:05.36	71.27	64.23	-45.7	-57.1	3.5	3.02e+01	0	40	104	19922944	60	27495
2026-01-03 16:07:09.40	75.82	65.39	-44.7	-55.7	3.5	3.02e+01	0	40	104	19922944	60	23545
2026-01-03 16:07:13.43	80.82	66.40	-42.3	-52.8	3.5	3.02e+01	0	40	104	19922944	58	18790
2026-01-03 16:07:17.47	86.29	67.26	-43.1	-53.6	3.5	3.02e+01	0	40	104	19922944	60	18399
2026-01-03 16:07:21.51	92.17	67.92	-43.6	-54.3	3.5	3.02e+01	0	40	104	19922944	60	19986
2026-01-03 16:07:25.55	98.38	68.35	-43.1	-54.0	3.5	3.02e+01	0	40	104	19922944	60	19215
2026-01-03 16:07:29.59	104.79	68.55	-50.1	-66.6	3.5	3.02e+01	0	40	104	19922944	60	82584
2026-01-03 16:07:33.63	111.25	68.50	-44.7	-55.6	3.5	3.02e+01	0	40	104	19922944	60	23225
2026-01-03 16:07:37.66	117.58	68.20	-43.4	-54.2	3.5	3.02e+01	0	40	104	19922944	56	24761
2026-01-03 16:07:41.70	123.67	67.66	-40.9	-51.4	3.5	3.02e+01	0	40	104	19922944	56	17996
2026-01-03 16:07:45.74	129.39	66.92	-49.1	-63.1	3.5	3.02e+01	0	40	104	19922944	60	54768
2026-01-03 16:07:49.78	134.67	65.99	-41.5	-52.3	3.5	3.02e+01	0	40	104	19922944	58	17796
2026-01-03 16:07:53.82	139.49	64.91	-48.0	-60.9	3.5	3.02e+01	0	40	104	19922944	60	42881
2026-01-03 16:07:57.85	143.84	63.70	-46.8	-58.7	3.5	3.02e+01	0	40	104	19922944	60	32946
2026-01-03 16:08:01.89	147.75	62.40	-50.2	-62.5	3.6	3.02e+01	66	40	104	19922944	60	51249
2026-01-03 16:08:05.92	151.24	61.02	-41.5	-43.1	25.0	3.02e+01	58	40	0	25165824	60	5480
2026-01-03 16:08:09.96	154.37	59.59	-38.9	-40.2	27.1	3.02e+01	60	40	0	33030144	54	5557
2026-01-03 16:08:14.00	157.18	58.13	-37.9	-39.1	28.3	3.02e+01	58	40	0	40370176	50	6192
2026-01-03 16:08:18.04	159.69	56.65	-37.7	-38.9	28.5	3.02e+01	60	40	0	47710208	50	6062
2026-01-03 16:08:22.07	161.94	55.16	-37.1	-38.3	29.2	3.02e+01	51	40	0	55574528	48	6309
2026-01-03 16:08:26.11	163.97	53.68	-36.3	-37.5	29.5	3.02e+01	57	40	0	62914560	48	5782
2026-01-03 16:08:30.15	165.80	52.21	-36.5	-37.7	29.2	3.02e+01	44	40	0	70778880	48	5887
2026-01-03 16:08:34.19	167.46	50.76	-36.9	-38.1	29.0	3.02e+01	58	40	0	78118912	48	6176
2026-01-03 16:08:38.23	168.97	49.33	-37.1	-38.3	28.6	3.02e+01	53	40	0	85983232	48	6334
2026-01-03 16:08:42.27	170.35	47.93	-37.3	-38.6	28.5	3.02e+01	60	40	0	93323264	48	6514
2026-01-03 16:08:46.30	171.61	46.57	-37.3	-38.5	28.9	3.02e+01	60	40	0	101187584	48	6486
2026-01-03 16:08:50.34	172.76	45.23	-37.1	-38.3	29.0	3.02e+01	61	40	0	108527616	48	6324
2026-01-03 16:08:54.37	173.82	43.93	-38.0	-39.3	28.2	3.02e+01	49	40	0	115867648	50	6289
2026-01-03 16:08:58.41	174.81	42.67	-37.0	-38.2	29.0	3.02e+01	59	40	0	123731968	48	6266
2026-01-03 16:09:02.45	175.72	41.44	-37.1	-38.3	28.8	3.02e+01	54	40	0	131072000	48	6331
2026-01-03 16:09:06.49	176.56	40.24	-37.6	-38.8	28.2	3.02e+01	59	40	0	138936320	48	6721
2026-01-03 16:09:10.52	177.34	39.08	-37.5	-38.7	28.4	3.02e+01	46	40	0	146276352	48	6625
2026-01-03 16:09:14.56	178.07	37.95	-37.5	-38.7	28.5	3.02e+01	58	40	0	154140672	48	6603
2026-01-03 16:09:18.60	178.76	36.86	-37.1	-38.3	28.7	3.02e+01	50	40	0	161480704	48	6348
2026-01-03 16:09:22.63	179.40	35.81	-36.9	-38.2	28.9	3.02e+01	61	40	0	168820736	48	6210
2026-01-03 16:09:26.67	180.00	34.78	-36.4	-37.6	29.3	3.02e+01	50	40	0	176685056	48	5847
2026-01-03 16:09:30.71	180.56	33.78	-35.8	-37.0	29.9	3.02e+01	59	40	0	184025088	46	6089
2026-01-03 16:09:34.74	181.09	32.82	-35.7	-36.8	29.9	3.02e+01	46	40	0	191889408	46	5983
2026-01-03 16:09:38.78	181.59	31.89	-35.4	-36.6	29.9	3.02e+01	58	40	0	199229440	46	5821
2026-01-03 16:09:42.81	182.07	30.98	-35.3	-36.5	30.2	3.02e+01	56	40	0	207093760	46	5760
2026-01-03 16:09:46.85	182.52	30.10	-35.3	-36.4	30.1	3.02e+01	58	40	0	214433792	46	5723
2026-01-03 16:09:50.89	182.94	29.25	-35.5	-36.7	29.9	3.02e+01	58	40	0	222298112	46	5879
2026-01-03 16:09:54.92	183.35	28.42	-35.8	-37.0	29.6	3.02e+01	60	40	0	229638144	46	6124
2026-01-03 16:09:58.96	183.73	27.62	-36.1	-37.3	29.4	3.02e+01	56	40	0	236978176	46	6335
2026-01-03 16:10:03.00	184.10	26.84	-36.1	-37.3	29.3	3.02e+01	62	40	0	244842496	46	6344
2026-01-03 16:10:07.04	184.45	26.08	-36.3	-37.5	29.3	3.02e+01	59	40	0	252182528	46	6481
2026-01-03 16:10:11.08	184.78	25.35	-36.6	-37.9	28.9	3.02e+01	59	40	0	260046848	46	6741
2026-01-03 16:10:15.11	185.10	24.63	-36.5	-37.8	28.9	3.02e+01	58	40	0	267386880	46	6654
2026-01-03 16:10:19.15	185.40	23.94	-36.5	-37.7	29.1	3.02e+01	60	40	0	275251200	46	6597
2026-01-03 16:10:23.19	185.69	23.26	-36.6	-37.8	29.0	3.02e+01	61	40	0	282591232	46	6726
2026-01-03 16:10:27.22	185.97	22.60	-36.6	-37.8	29.0	3.02e+01	57	40	0	289931264	46	6667
2026-01-03 16:10:31.26	186.24	21.96	-36.6	-37.8	28.9	3.02e+01	58	40	0	297795584	46	6688
2026-01-03 16:10:35.29	186.50	21.34	-36.4	-37.6	29.0	3.02e+01	58	40	0	305135616	46	6551
2026-01-03 16:10:39.33	186.74	20.73	-36.3	-37.5	29.1	3.02e+01	58	40	0	312999936	46	6460
2026-01-03 16:10:43.37	186.98	20.13	-36.2	-37.4	29.2	3.02e+01	59	40	0	320339968	46	6374
2026-01-03 16:10:47.41	187.21	19.55	-36.0	-37.2	29.3	3.02e+01	60	40	0	328204288	46	6273
2026-01-03 16:10:51.44	187.43	18.99	-36.0	-37.2	29.4	3.02e+01	59	40	0	335544320	46	6225
2026-01-03 16:10:55.48	187.65	18.44	-36.2	-37.4	29.3	3.02e+01	59	40	0	343408640	46	6367
2026-01-03 16:10:59.52	187.85	17.90	-36.0	-37.2	29.4	3.02e+01	47	40	0	350748672	46	6211
2026-01-03 16:11:03.56	188.05	17.37	-36.0	-37.2	29.4	3.02e+01	59	40	0	358088704	46	6238
2026-01-03 16:11:07.60	188.24	16.86	-36.0	-37.3	29.2	3.02e+01	55	40	0	365953024	46	6296
2026-01-03 16:11:11.63	188.43	16.36	-35.9	-37.1	29.4	3.02e+01	58	40	0	373293056	46	6172
2026-01-03 16:11:15.67	188.61	15.87	-36.0	-37.2	29.3	3.02e+01	45	40	0	381157376	46	6240
2026-01-03 16:11:19.70	188.78	15.39	-35.9	-37.1	29.4	3.02e+01	57	40	0	388497408	46	6186
2026-01-03 16:11:23.74	188.95	14.91	-36.1	-37.3	29.3	3.02e+01	57	40	0	396361728	46	6339
2026-01-03 16:11:27.78	189.12	14.45	-36.3	-37.5	29.1	3.02e+01	58	40	0	403701760	46	6468
2026-01-03 16:11:31.82	189.28	14.00	-36.2	-37.4	29.1	3.02e+01	45	40	0	411041792	46	6418
2026-01-03 16:11:35.86	189.43	13.56	-36.3	-37.5	29.0	3.02e+01	58	40	0	418906112	46	6491
2026-01-03 16:11:39.90	189.58	13.12	-36.2	-37.4	29.0	3.02e+01	46	40	0	426246144	46	6420
2026-01-03 16:11:43.94	189.73	12.70	-36.4	-37.6	28.9	3.02e+01	58	40	0	434110464	46	6557
2026-01-03 16:11:47.98	189.87	12.28	-36.3	-37.6	29.0	3.02e+01	47	40	0	441450496	46	6513
2026-01-03 16:11:52.02	190.01	11.87	-36.4	-37.6	28.9	3.02e+01	62	40	0	449314816	46	6543
2026-01-03 16:11:56.06	190.14	11.46	-36.5	-37.8	28.7	3.02e+01	44	40	0	456654848	46	6654
2026-01-03 16:12:00.09	190.27	11.07	-36.7	-38.0	28.6	3.02e+01	58	40	0	464519168	46	6807
2026-01-03 16:12:04.12	190.40	10.68	-36.6	-37.9	28.7	3.02e+01	46	40	0	471859200	46	6761
2026-01-03 16:12:08.16	190.53	10.30	-36.8	-38.0	28.4	3.02e+01	59	40	0	479199232	48	6117
2026-01-03 16:12:12.20	190.65	9.92	-37.0	-38.3	28.2	3.02e+01	60	40	0	487063552	48	6305
2026-01-03 16:12:16.23	190.77	9.55	-36.8	-38.1	28.4	3.02e+01	57	40	0	494403584	48	6174
2026-01-03 16:12:20.27	190.88	9.19	-37.0	-38.3	28.1	3.02e+01	60	40	0	502267904	48	6295
2026-01-03 16:12:24.30	191.00	8.83	-37.2	-38.5	27.9	3.02e+01	59	40	0	509607936	48	6486
2026-01-03 16:12:28.34	191.11	8.48	-37.3	-38.6	27.8	3.02e+01	60	40	0	517472256	48	6519
2026-01-03 16:12:32.38	191.22	8.13	-37.2	-38.5	28.0	3.02e+01	62	40	0	524812288	48	6425
2026-01-03 16:12:36.41	191.32	7.79	-37.7	-39.0	27.5	3.02e+01	60	40	0	532676608	48	6851
2026-01-03 16:12:40.45	191.42	7.45	-37.5	-38.9	27.5	3.02e+01	58	40	0	540016640	48	6737
2026-01-03 16:12:44.49	191.53	7.12	-37.4	-38.7	27.7	3.02e+01	59	40	0	547356672	48	6593
2026-01-03 16:12:48.53	191.62	6.79	-37.7	-39.1	27.3	3.02e+01	60	40	0	555220992	48	6885
2026-01-03 16:12:52.56	191.72	6.47	-37.9	-39.3	27.1	3.02e+01	61	40	0	562561024	50	6288
2026-01-03 16:12:56.59	191.82	6.15	-37.8	-39.1	27.2	3.02e+01	56	40	0	570425344	50	6200
2026-01-03 16:13:00.63	191.91	5.84	-38.0	-39.4	26.8	3.02e+01	59	40	0	577765376	50	6406
2026-01-03 16:13:04.66	192.00	5.53	-38.2	-39.5	26.8	3.02e+01	58	40	0	585629696	50	6480
2026-01-03 16:13:08.70	192.09	5.22	-38.2	-39.6	26.7	3.02e+01	52	40	0	592969728	50	6519
2026-01-03 16:13:12.73	192.18	4.92	-38.4	-39.8	26.4	3.02e+01	56	40	0	600309760	50	6709
2026-01-03 16:13:16.77	192.26	4.62	-38.7	-40.1	26.3	3.02e+01	60	40	0	608174080	50	6925
2026-01-03 16:13:20.81	192.35	4.33	-38.6	-40.0	26.1	3.02e+01	56	40	0	615514112	50	6875
2026-01-03 16:13:24.84	192.43	4.04	-38.6	-40.0	26.1	3.02e+01	61	40	0	623378432	50	6825
2026-01-03 16:13:28.88	192.51	3.75	-39.1	-40.5	25.5	3.02e+01	45	40	0	630718464	52	6498
2026-01-03 16:13:32.92	192.59	3.46	-39.3	-40.9	25.1	3.02e+01	62	40	0	638582784	52	6742
2026-01-03 16:13:36.96	192.67	3.18	-39.3	-40.9	25.2	3.02e+01	59	40	0	645922816	52	6738
2026-01-03 16:13:41.00	192.75	2.90	-49.5	-67.2	3.5	3.02e+01	0	40	104	650641408	60	88203
2026-01-03 16:13:45.03	192.83	2.63	-49.9	-67.9	3.5	3.02e+01	0	40	104	650641408	60	95014
2026-01-03 16:13:49.07	192.90	2.35	-50.1	-67.9	3.5	3.02e+01	0	40	104	650641408	60	95642
2026-01-03 16:13:53.11	192.97	2.09	-50.0	-67.8	3.5	3.02e+01	0	40	104	650641408	60	94944
2026-01-03 16:13:57.15	193.05	1.82	-50.1	-67.9	3.5	3.02e+01	0	40	104	650641408	60	95264
2026-01-03 16:14:01.19	193.12	1.55	-50.2	-68.0	3.5	3.02e+01	0	40	104	650641408	60	96717
2026-01-03 16:14:05.23	193.19	1.29	-50.2	-68.0	3.5	3.02e+01	0	40	104	650641408	60	96418
2026-01-03 16:14:09.28	193.26	1.03	-50.2	-68.1	3.5	3.02e+01	0	40	104	650641408	60	97393
2026-01-03 16:14:13.31	193.32	0.78	-50.2	-68.0	3.5	3.02e+01	0	40	104	650641408	60	96540
2026-01-03 16:14:17.35	193.39	0.52	-50.2	-68.0	3.5	3.02e+01	0	40	104	650641408	60	96694
2026-01-03 16:14:21.39	193.46	0.27	-50.2	-68.1	3.5	3.02e+01	0	40	104	650641408	60	97304
2026-01-03 16:14:25.43	193.52	0.02	-50.3	-68.2	3.5	3.02e+01	0	40	104	650641408	60	98844

#Closed at: 2026-01-03 16:14:28
#Recorded file [650 MB]: D:/lorett/data/35029_260104_040033.dat