passes_logs/2026/01/03/R4.6S_Anadyr/R4.6S_Anadyr__20260103_205147_AQUA_rec.log

#Pass ID: 20260103_205147_AQUA
#Satellite: AQUA
#Configuration: AQUA
#almurnet v.1.7.20251203
#Start time: 2026-01-03 20:51:48

#Version: 2.2.20231116
#Station: R4.6S_Anadyr
#Location: 177.4865 lon 64.73178 lat
#TLE: 1 27424U 02022A   25365.92641127  .00002078  00000+0  42628-3 0  9999
#TLE: 2 27424  98.4058 327.1196 0001962  94.7781 340.6230 14.61783896258835

#Time	Az	El	Level	Level2	SNR	BER	BlckErr	Temp	State	Recorded	gain1	gain2
2026-01-03 20:51:48.95	44.57	0.09	-52.3	-67.2	3.6	1.51e+00	0	37	0	0	60	83114
2026-01-03 20:51:51.97	44.29	0.23	-52.1	-70.0	3.5	3.02e+01	0	38	104	0	60	121057
2026-01-03 20:51:55.01	44.00	0.37	-52.5	-70.3	3.5	3.02e+01	0	38	104	0	60	126207
2026-01-03 20:51:58.03	43.71	0.51	-51.7	-69.6	3.5	3.02e+01	0	38	104	0	60	115833
2026-01-03 20:52:01.06	43.42	0.65	-51.0	-68.9	3.5	3.02e+01	0	38	104	0	60	106956
2026-01-03 20:52:04.09	43.12	0.79	-49.8	-68.0	3.5	3.02e+01	0	38	104	0	60	96750
2026-01-03 20:52:07.12	42.83	0.94	-48.6	-66.5	3.5	3.02e+01	0	38	104	0	60	81575
2026-01-03 20:52:10.15	42.52	1.08	-48.6	-66.5	3.5	3.02e+01	0	38	104	0	60	81689
2026-01-03 20:52:13.18	42.22	1.22	-49.3	-67.1	3.5	3.02e+01	0	38	104	0	60	87574
2026-01-03 20:52:16.20	41.91	1.36	-48.9	-66.8	3.5	3.02e+01	0	38	104	0	60	83715
2026-01-03 20:52:19.23	41.60	1.50	-48.9	-66.8	3.5	3.02e+01	0	38	104	0	60	84183
2026-01-03 20:52:22.26	41.28	1.65	-48.7	-66.3	3.5	3.02e+01	0	38	104	0	60	79652
2026-01-03 20:52:25.29	40.96	1.79	-48.6	-66.3	3.5	3.02e+01	0	38	104	0	60	79402
2026-01-03 20:52:28.31	40.64	1.93	-48.8	-66.4	3.5	3.02e+01	0	38	104	0	60	80071
2026-01-03 20:52:31.35	40.32	2.07	-48.8	-66.1	3.5	3.02e+01	0	38	104	0	60	78030
2026-01-03 20:52:34.38	39.99	2.22	-49.6	-67.2	3.5	3.02e+01	0	38	104	0	60	88525
2026-01-03 20:52:37.40	39.65	2.36	-49.3	-64.9	3.8	3.02e+01	0	38	104	0	60	67547
2026-01-03 20:52:40.44	39.32	2.50	-49.0	-66.2	3.5	3.02e+01	0	38	104	0	60	78631
2026-01-03 20:52:43.47	38.98	2.64	-49.2	-66.9	3.5	3.02e+01	0	38	104	0	60	84986
2026-01-03 20:52:46.50	38.63	2.78	-49.4	-62.8	3.9	3.02e+01	0	38	104	0	60	53283
2026-01-03 20:52:49.53	38.28	2.93	-48.9	-61.7	4.4	3.02e+01	0	38	104	0	60	46556
2026-01-03 20:52:52.56	37.93	3.07	-45.3	-48.7	17.1	3.02e+01	59	38	0	2621440	60	10528
2026-01-03 20:52:55.59	37.58	3.21	-48.3	-64.1	3.6	3.02e+01	0	38	104	6291456	60	61948
2026-01-03 20:52:58.61	37.22	3.35	-41.3	-43.0	23.5	3.02e+01	58	38	0	9961472	56	6873
2026-01-03 20:53:01.64	36.86	3.49	-41.1	-42.9	22.7	3.02e+01	57	38	0	15728640	58	6033
2026-01-03 20:53:04.67	36.49	3.63	-42.6	-44.6	22.0	3.02e+01	60	38	0	21495808	58	7346
2026-01-03 20:53:07.69	36.12	3.77	-42.5	-44.5	23.2	3.02e+01	55	38	0	26738688	56	8173
2026-01-03 20:53:10.72	35.74	3.91	-40.7	-42.3	24.7	3.02e+01	45	38	0	32505856	56	6343
2026-01-03 20:53:13.75	35.36	4.05	-39.8	-41.4	24.1	3.02e+01	57	38	0	38273024	54	6366
2026-01-03 20:53:16.77	34.98	4.19	-40.9	-42.4	25.6	3.02e+01	61	38	0	44040192	56	6419
2026-01-03 20:53:19.80	34.59	4.33	-39.6	-41.1	25.5	3.02e+01	60	38	0	49807360	54	6147
2026-01-03 20:53:22.82	34.20	4.47	-39.7	-41.1	26.0	3.02e+01	57	38	0	55574528	56	5496
2026-01-03 20:53:25.84	33.81	4.61	-39.6	-41.1	25.5	3.02e+01	62	38	0	60817408	52	6907
2026-01-03 20:53:28.87	33.41	4.75	-39.0	-40.4	26.2	3.02e+01	50	38	0	66584576	52	6390
2026-01-03 20:53:31.90	33.00	4.89	-39.1	-40.5	26.0	3.02e+01	45	38	0	72351744	52	6469
2026-01-03 20:53:34.93	32.60	5.03	-39.0	-40.4	26.4	3.02e+01	57	38	0	78118912	52	6387
2026-01-03 20:53:37.96	32.18	5.16	-40.0	-41.5	25.8	3.02e+01	59	38	0	83886080	52	7267
2026-01-03 20:53:40.98	31.77	5.30	-39.6	-41.1	26.0	3.02e+01	58	38	0	89653248	54	6146
2026-01-03 20:53:44.01	31.35	5.44	-39.0	-40.4	26.2	3.02e+01	58	38	0	94896128	54	5707
2026-01-03 20:53:47.03	30.92	5.57	-39.4	-40.8	26.4	3.02e+01	59	38	0	100663296	52	6684
2026-01-03 20:53:50.06	30.49	5.71	-38.9	-40.3	26.4	3.02e+01	60	38	0	106430464	52	6296
2026-01-03 20:53:53.08	30.06	5.84	-39.2	-40.7	26.2	3.02e+01	51	38	0	112197632	52	6598
2026-01-03 20:53:56.11	29.62	5.97	-39.0	-40.4	26.3	3.02e+01	49	38	0	117964800	52	6414
2026-01-03 20:53:59.14	29.17	6.11	-39.1	-40.5	26.5	3.02e+01	60	38	0	123207680	52	6462
2026-01-03 20:54:02.17	28.73	6.24	-38.5	-39.9	26.8	3.02e+01	58	38	0	128974848	52	6032
2026-01-03 20:54:05.19	28.27	6.37	-39.3	-40.6	26.6	3.02e+01	56	38	0	134742016	52	6563
2026-01-03 20:54:08.22	27.82	6.50	-39.4	-40.8	26.8	3.02e+01	61	39	0	140509184	54	5965
2026-01-03 20:54:11.25	27.35	6.63	-39.0	-40.4	26.5	3.02e+01	58	38	0	146276352	52	6368
2026-01-03 20:54:14.27	26.89	6.76	-39.9	-41.4	26.2	3.02e+01	57	38	0	152043520	56	5665
2026-01-03 20:54:17.30	26.42	6.88	-39.1	-40.5	26.6	3.02e+01	46	38	0	157286400	52	6429
2026-01-03 20:54:20.33	25.94	7.01	-38.8	-40.1	27.0	3.02e+01	62	38	0	163053568	52	6184
2026-01-03 20:54:23.35	25.46	7.14	-38.9	-40.3	27.1	3.02e+01	63	39	0	168820736	52	6300
2026-01-03 20:54:26.38	24.98	7.26	-38.3	-39.6	27.5	3.02e+01	60	39	0	174587904	52	5811
2026-01-03 20:54:29.40	24.49	7.38	-38.5	-39.8	27.2	3.02e+01	59	39	0	180355072	52	5972
2026-01-03 20:54:32.43	24.00	7.51	-38.9	-40.2	27.3	3.02e+01	56	38	0	186122240	52	6232
2026-01-03 20:54:35.45	23.50	7.63	-38.5	-39.8	25.4	3.02e+01	60	38	0	191365120	52	5985
2026-01-03 20:54:38.48	23.00	7.75	-39.2	-40.5	27.3	3.02e+01	53	38	0	197132288	52	6475
2026-01-03 20:54:41.51	22.49	7.86	-38.8	-40.1	27.5	3.02e+01	59	38	0	202899456	52	6192
2026-01-03 20:54:44.54	21.98	7.98	-39.0	-40.3	27.5	3.02e+01	61	39	0	208666624	54	5641
2026-01-03 20:54:47.57	21.46	8.10	-38.5	-39.8	27.3	3.02e+01	58	38	0	214433792	52	5988
2026-01-03 20:54:50.60	20.94	8.21	-39.4	-40.7	26.4	3.02e+01	58	38	0	219676672	52	6640
2026-01-03 20:54:53.62	20.41	8.32	-40.6	-42.1	21.4	3.02e+01	59	39	0	225443840	54	6915
2026-01-03 20:54:56.65	19.88	8.43	-38.4	-39.7	27.3	3.02e+01	58	38	0	231211008	52	5881
2026-01-03 20:54:59.68	19.35	8.54	-38.2	-39.5	27.4	3.02e+01	55	38	0	236978176	52	5790
2026-01-03 20:55:02.71	18.81	8.65	-40.1	-41.6	26.1	3.02e+01	45	38	0	242745344	54	6507
2026-01-03 20:55:05.74	18.27	8.75	-39.3	-40.7	27.2	3.02e+01	57	38	0	248512512	52	6597
2026-01-03 20:55:08.76	17.72	8.86	-38.8	-40.1	26.9	3.02e+01	61	38	0	253755392	52	6202
2026-01-03 20:55:11.79	17.17	8.96	-38.4	-39.7	27.3	3.02e+01	61	38	0	259522560	50	6616
2026-01-03 20:55:14.82	16.61	9.06	-37.9	-39.2	27.6	3.02e+01	57	38	0	265289728	50	6272
2026-01-03 20:55:17.84	16.06	9.15	-38.8	-40.1	26.9	3.02e+01	60	38	0	271056896	50	6928
2026-01-03 20:55:20.86	15.49	9.25	-37.9	-39.3	27.7	3.02e+01	44	39	0	276824064	50	6280
2026-01-03 20:55:23.89	14.93	9.34	-37.7	-39.0	27.6	3.02e+01	45	38	0	282591232	50	6103
2026-01-03 20:55:26.92	14.35	9.43	-37.7	-39.0	27.6	3.02e+01	58	38	0	287834112	50	6065
2026-01-03 20:55:29.95	13.78	9.52	-37.8	-39.1	27.6	3.02e+01	59	39	0	293601280	50	6173
2026-01-03 20:55:32.97	13.20	9.61	-37.9	-39.2	27.8	3.02e+01	59	39	0	299368448	50	6275
2026-01-03 20:55:36.00	12.62	9.69	-38.1	-39.4	27.7	3.02e+01	60	39	0	305135616	50	6394
2026-01-03 20:55:39.03	12.03	9.78	-38.3	-39.6	27.7	3.02e+01	56	39	0	310902784	52	5831
2026-01-03 20:55:42.06	11.44	9.86	-37.9	-39.3	27.7	3.02e+01	62	38	0	316145664	50	6284
2026-01-03 20:55:45.09	10.84	9.93	-38.2	-39.5	27.8	3.02e+01	49	38	0	321912832	52	5760
2026-01-03 20:55:48.11	10.25	10.01	-38.0	-39.3	27.6	3.02e+01	50	38	0	327680000	52	5632
2026-01-03 20:55:51.14	9.65	10.08	-38.1	-39.4	27.9	3.02e+01	58	38	0	333447168	52	5691
2026-01-03 20:55:54.16	9.04	10.15	-38.4	-39.7	27.8	3.02e+01	61	38	0	339214336	52	5904
2026-01-03 20:55:57.19	8.44	10.22	-38.1	-39.4	27.7	3.02e+01	60	39	0	344981504	52	5669
2026-01-03 20:56:00.22	7.83	10.28	-38.6	-39.9	27.5	3.02e+01	58	39	0	350748672	50	6796
2026-01-03 20:56:03.24	7.21	10.34	-38.1	-39.3	28.0	3.02e+01	58	39	0	355991552	50	6335
2026-01-03 20:56:06.27	6.60	10.40	-38.2	-39.5	27.5	3.02e+01	59	39	0	361758720	52	5727
2026-01-03 20:56:09.30	5.98	10.45	-39.3	-40.7	27.0	3.02e+01	45	39	0	367525888	52	6600
2026-01-03 20:56:12.32	5.36	10.51	-39.6	-41.0	26.9	3.02e+01	63	38	0	373293056	52	6847
2026-01-03 20:56:15.35	4.74	10.56	-38.2	-39.5	27.8	3.02e+01	59	39	0	379060224	52	5734
2026-01-03 20:56:18.37	4.11	10.60	-38.3	-39.5	27.9	3.02e+01	54	39	0	384303104	50	6496
2026-01-03 20:56:21.39	3.49	10.65	-38.9	-40.2	27.6	3.02e+01	57	38	0	390070272	52	6226
2026-01-03 20:56:24.41	2.86	10.69	-38.0	-39.3	27.7	3.02e+01	60	38	0	395837440	50	6321
2026-01-03 20:56:27.44	2.23	10.72	-37.8	-39.1	27.7	3.02e+01	61	39	0	401604608	50	6147
2026-01-03 20:56:30.47	1.60	10.76	-37.7	-39.0	27.7	3.02e+01	47	38	0	407371776	50	6118
2026-01-03 20:56:33.50	0.96	10.79	-37.7	-38.9	27.9	3.02e+01	61	39	0	412614656	50	6049
2026-01-03 20:56:36.52	0.33	10.82	-38.6	-39.9	27.4	3.02e+01	59	39	0	418381824	50	6785
2026-01-03 20:56:39.55	359.69	10.84	-38.7	-40.1	27.2	3.02e+01	61	39	0	424148992	50	6885
2026-01-03 20:56:42.58	359.05	10.86	-38.3	-39.5	28.0	3.02e+01	62	39	0	429916160	52	5790
2026-01-03 20:56:45.61	358.41	10.88	-39.3	-40.6	27.1	3.02e+01	61	39	0	435683328	52	6552
2026-01-03 20:56:48.64	357.77	10.90	-38.4	-39.8	27.4	3.02e+01	60	39	0	441450496	50	6661
2026-01-03 20:56:51.66	357.13	10.91	-39.0	-40.3	27.7	3.02e+01	60	39	0	446693376	52	6285
2026-01-03 20:56:54.69	356.49	10.92	-38.2	-39.5	27.7	3.02e+01	48	39	0	452460544	52	5776
2026-01-03 20:56:57.72	355.85	10.92	-38.7	-39.9	27.7	3.02e+01	60	39	0	458227712	50	6788
2026-01-03 20:57:00.74	355.21	10.92	-39.2	-40.5	27.0	3.02e+01	62	39	0	463994880	50	7279
2026-01-03 20:57:03.76	354.57	10.92	-38.5	-39.8	27.6	3.02e+01	61	39	0	469762048	52	5949
2026-01-03 20:57:06.79	353.93	10.92	-40.0	-41.4	25.6	3.02e+01	61	39	0	475529216	54	6415
2026-01-03 20:57:09.82	353.28	10.91	-38.1	-39.5	27.4	3.02e+01	61	39	0	480772096	52	5728
2026-01-03 20:57:12.85	352.64	10.90	-38.3	-39.6	27.5	3.02e+01	51	39	0	486539264	52	5813
2026-01-03 20:57:15.87	352.00	10.89	-38.9	-40.3	27.1	3.02e+01	49	39	0	492306432	52	6280
2026-01-03 20:57:18.90	351.36	10.87	-38.6	-40.0	26.9	3.02e+01	60	39	0	498073600	52	6073
2026-01-03 20:57:21.93	350.73	10.85	-39.0	-40.4	26.8	3.02e+01	61	39	0	503840768	52	6393
2026-01-03 20:57:24.95	350.09	10.82	-38.1	-39.4	27.5	3.02e+01	57	39	0	509083648	52	5680
2026-01-03 20:57:27.98	349.45	10.80	-38.1	-39.4	27.4	3.02e+01	59	39	0	514850816	50	6381
2026-01-03 20:57:31.01	348.82	10.77	-38.2	-39.5	27.6	3.02e+01	60	39	0	520617984	50	6481
2026-01-03 20:57:34.04	348.18	10.73	-38.5	-39.9	27.6	3.02e+01	62	39	0	526385152	50	6731
2026-01-03 20:57:37.06	347.55	10.70	-38.5	-39.8	27.3	3.02e+01	51	39	0	532152320	50	6698
2026-01-03 20:57:40.08	346.93	10.66	-38.2	-39.5	27.6	3.02e+01	49	39	0	537919488	50	6476
2026-01-03 20:57:43.11	346.30	10.61	-37.9	-39.2	27.7	3.02e+01	60	39	0	543162368	50	6221
2026-01-03 20:57:46.14	345.67	10.57	-38.7	-40.0	27.3	3.02e+01	61	39	0	548929536	50	6844
2026-01-03 20:57:49.17	345.05	10.52	-38.1	-39.3	27.8	3.02e+01	58	39	0	554696704	50	6341
2026-01-03 20:57:52.20	344.42	10.47	-38.6	-39.9	27.6	3.02e+01	59	39	0	560463872	50	6775
2026-01-03 20:57:55.22	343.81	10.41	-39.3	-40.6	27.4	3.02e+01	60	39	0	566231040	52	6527
2026-01-03 20:57:58.25	343.19	10.36	-38.3	-39.5	27.6	3.02e+01	55	39	0	571998208	52	5791
2026-01-03 20:58:01.28	342.58	10.30	-39.4	-40.8	26.9	3.02e+01	54	39	0	577241088	52	6708
2026-01-03 20:58:04.31	341.97	10.23	-39.4	-40.8	26.8	3.02e+01	58	39	0	583008256	54	5939
2026-01-03 20:58:07.34	341.36	10.17	-38.6	-39.9	26.9	3.02e+01	61	39	0	588775424	52	6028
2026-01-03 20:58:10.36	340.75	10.10	-39.7	-41.1	26.2	3.02e+01	57	39	0	594542592	54	6203
2026-01-03 20:58:13.40	340.15	10.03	-39.0	-40.4	26.8	3.02e+01	59	39	0	600309760	52	6384
2026-01-03 20:58:16.42	339.55	9.95	-39.2	-40.5	27.5	3.02e+01	61	39	0	606076928	52	6474
2026-01-03 20:58:19.45	338.96	9.88	-39.2	-40.5	26.9	3.02e+01	53	39	0	611319808	52	6454
2026-01-03 20:58:22.48	338.37	9.80	-40.5	-42.0	25.0	3.02e+01	41	39	0	617086976	54	6806
2026-01-03 20:58:25.51	337.78	9.72	-39.7	-41.1	25.7	3.02e+01	48	39	0	622854144	54	6178
2026-01-03 20:58:28.53	337.19	9.63	-40.1	-41.5	27.1	3.02e+01	63	39	0	628621312	54	6425
2026-01-03 20:58:31.56	336.61	9.55	-39.9	-41.3	26.9	3.02e+01	60	39	0	634388480	54	6307
2026-01-03 20:58:34.59	336.04	9.46	-40.5	-41.9	27.1	3.02e+01	56	39	0	640155648	54	6737
2026-01-03 20:58:37.62	335.46	9.37	-40.3	-41.6	27.0	3.02e+01	60	39	0	645398528	56	5819
2026-01-03 20:58:40.64	334.89	9.27	-41.6	-43.1	25.4	3.02e+01	59	39	0	651165696	56	6942
2026-01-03 20:58:43.67	334.33	9.18	-41.5	-43.0	26.1	3.02e+01	42	39	0	656932864	56	6811
2026-01-03 20:58:46.70	333.77	9.08	-39.8	-41.1	25.7	3.02e+01	44	39	0	662700032	56	5474
2026-01-03 20:58:49.72	333.21	8.98	-42.8	-44.4	24.8	3.02e+01	59	39	0	668467200	60	6390
2026-01-03 20:58:52.75	332.66	8.88	-40.4	-41.8	26.7	3.02e+01	60	39	0	673710080	56	5963
2026-01-03 20:58:55.78	332.11	8.78	-40.1	-41.5	26.9	3.02e+01	59	39	0	679477248	54	6435
2026-01-03 20:58:58.80	331.57	8.67	-39.6	-40.9	27.0	3.02e+01	60	39	0	685244416	52	6753
2026-01-03 20:59:01.83	331.03	8.57	-39.5	-40.9	26.7	3.02e+01	61	39	0	691011584	54	6015
2026-01-03 20:59:04.86	330.49	8.46	-40.1	-41.5	26.2	3.02e+01	44	39	0	696778752	54	6487
2026-01-03 20:59:07.89	329.96	8.35	-38.7	-40.0	27.2	3.02e+01	46	39	0	702545920	52	6096
2026-01-03 20:59:10.92	329.43	8.24	-39.0	-40.5	26.5	3.02e+01	58	39	0	708313088	52	6437
2026-01-03 20:59:13.94	328.91	8.13	-39.1	-40.5	26.6	3.02e+01	59	39	0	713555968	52	6426
2026-01-03 20:59:16.97	328.39	8.01	-43.0	-44.6	20.6	3.02e+01	60	39	0	719323136	60	6539
2026-01-03 20:59:20.00	327.88	7.89	-40.7	-42.1	26.5	3.02e+01	62	39	0	725090304	56	6151
2026-01-03 20:59:23.03	327.37	7.78	-39.6	-41.0	26.3	3.02e+01	56	39	0	730857472	54	6123
2026-01-03 20:59:26.05	326.87	7.66	-39.6	-41.0	26.6	3.02e+01	55	39	0	736624640	54	6080
2026-01-03 20:59:29.08	326.37	7.54	-40.3	-41.7	26.4	3.02e+01	51	39	0	741867520	56	5918
2026-01-03 20:59:32.11	325.87	7.42	-41.5	-43.1	24.7	3.02e+01	47	39	0	747634688	58	6180
2026-01-03 20:59:35.13	325.38	7.29	-40.8	-42.3	25.6	3.02e+01	59	39	0	753401856	56	6308
2026-01-03 20:59:38.16	324.90	7.17	-42.1	-43.7	25.6	3.02e+01	60	39	0	759169024	56	7381
2026-01-03 20:59:41.19	324.41	7.04	-46.3	-48.7	20.4	3.02e+01	62	39	0	764936192	60	10442
2026-01-03 20:59:44.22	323.94	6.92	-40.4	-41.8	26.4	3.02e+01	62	39	0	770703360	58	5284
2026-01-03 20:59:47.24	323.47	6.79	-41.1	-42.6	25.4	3.02e+01	59	39	0	775946240	56	6505
2026-01-03 20:59:50.27	323.00	6.66	-40.4	-41.8	26.4	3.02e+01	62	39	0	781713408	56	5937
2026-01-03 20:59:53.30	322.53	6.53	-40.8	-42.3	26.0	3.02e+01	52	39	0	787480576	56	6302
2026-01-03 20:59:56.33	322.08	6.40	-41.4	-42.8	25.9	3.02e+01	60	39	0	793247744	56	6691
2026-01-03 20:59:59.36	321.62	6.27	-40.8	-42.3	25.7	3.02e+01	61	39	0	799014912	56	6326
2026-01-03 21:00:02.38	321.17	6.14	-41.1	-42.7	25.0	3.02e+01	60	39	0	804782080	56	6611
2026-01-03 21:00:05.41	320.73	6.01	-41.6	-43.1	25.1	3.02e+01	60	39	0	810024960	56	6921
2026-01-03 21:00:08.44	320.29	5.87	-40.9	-42.4	25.2	3.02e+01	57	39	0	815792128	56	6371
2026-01-03 21:00:11.47	319.85	5.74	-40.6	-42.0	25.9	3.02e+01	52	39	0	821559296	54	6830
2026-01-03 21:00:14.49	319.42	5.61	-40.5	-41.9	25.4	3.02e+01	47	39	0	827326464	56	6025
2026-01-03 21:00:17.52	318.99	5.47	-42.1	-43.7	25.2	3.02e+01	60	39	0	833093632	60	5869
2026-01-03 21:00:20.55	318.57	5.33	-40.8	-42.3	25.6	3.02e+01	60	39	0	838336512	58	5633
2026-01-03 21:00:23.58	318.15	5.20	-41.2	-42.8	25.2	3.02e+01	56	39	0	844103680	56	6683
2026-01-03 21:00:26.61	317.74	5.06	-41.5	-43.0	25.1	3.02e+01	52	39	0	849870848	58	6115
2026-01-03 21:00:29.63	317.33	4.92	-41.1	-42.7	24.9	3.02e+01	59	39	0	855638016	58	5879
2026-01-03 21:00:32.66	316.92	4.78	-41.9	-43.4	25.3	3.02e+01	61	39	0	861405184	56	7132
2026-01-03 21:00:35.69	316.52	4.65	-42.1	-43.6	24.8	3.02e+01	43	39	0	867172352	60	5850
2026-01-03 21:00:38.72	316.12	4.51	-41.4	-43.0	25.0	3.02e+01	46	39	0	872939520	56	6858
2026-01-03 21:00:41.75	315.73	4.37	-41.3	-43.0	24.3	3.02e+01	58	39	0	878182400	56	6833
2026-01-03 21:00:44.77	315.34	4.23	-41.1	-42.7	24.6	3.02e+01	58	39	0	883949568	56	6640
2026-01-03 21:00:47.80	314.96	4.09	-41.0	-42.6	24.4	3.02e+01	58	39	0	889716736	56	6556
2026-01-03 21:00:50.82	314.58	3.95	-42.1	-43.7	24.9	3.02e+01	59	39	0	895483904	58	6622
2026-01-03 21:00:53.85	314.20	3.81	-41.6	-43.3	24.6	3.02e+01	60	39	0	901251072	56	7057
2026-01-03 21:00:56.87	313.83	3.67	-41.6	-43.2	24.8	3.02e+01	46	39	0	906493952	58	6231
2026-01-03 21:00:59.90	313.46	3.53	-41.3	-43.0	24.2	3.02e+01	46	39	0	912261120	56	6848
2026-01-03 21:01:02.93	313.10	3.39	-41.3	-42.8	24.8	3.02e+01	59	39	0	918028288	58	5984
2026-01-03 21:01:05.95	312.74	3.24	-42.2	-44.0	23.7	3.02e+01	58	39	0	923795456	58	6814
2026-01-03 21:01:08.98	312.38	3.10	-41.7	-43.3	23.8	3.02e+01	58	39	0	929562624	58	6324
2026-01-03 21:01:12.01	312.03	2.96	-51.3	-69.4	3.5	3.02e+01	0	39	104	934281216	60	112982
2026-01-03 21:01:15.04	311.68	2.82	-51.7	-69.5	3.5	3.02e+01	0	39	104	934281216	60	114975
2026-01-03 21:01:18.07	311.33	2.68	-51.3	-69.1	3.5	3.02e+01	0	39	104	934281216	60	109997
2026-01-03 21:01:21.10	310.99	2.53	-51.1	-69.1	3.5	3.02e+01	0	39	104	934281216	60	109672
2026-01-03 21:01:24.12	310.66	2.39	-52.2	-70.1	3.5	3.02e+01	0	39	104	934281216	60	122438
2026-01-03 21:01:27.15	310.32	2.25	-52.3	-70.4	3.5	3.02e+01	0	39	104	934281216	60	126749
2026-01-03 21:01:30.18	309.99	2.11	-52.5	-70.4	3.6	3.02e+01	0	39	104	934281216	60	127524
2026-01-03 21:01:33.21	309.66	1.97	-52.2	-70.0	3.5	3.02e+01	0	39	104	934281216	60	121541
2026-01-03 21:01:36.24	309.34	1.82	-51.8	-69.7	3.5	3.02e+01	0	39	104	934281216	60	118168
2026-01-03 21:01:39.27	309.02	1.68	-51.9	-69.8	3.5	3.02e+01	0	39	104	934281216	60	118361
2026-01-03 21:01:42.30	308.70	1.54	-52.6	-70.5	3.5	3.02e+01	0	39	104	934281216	60	129499
2026-01-03 21:01:45.33	308.39	1.40	-52.6	-70.5	3.5	3.02e+01	0	39	104	934281216	60	128244
2026-01-03 21:01:48.36	308.08	1.25	-50.9	-68.8	3.5	3.02e+01	0	39	104	934281216	60	105666
2026-01-03 21:01:51.38	307.77	1.11	-52.5	-70.3	3.5	3.02e+01	0	39	104	934281216	60	125871
2026-01-03 21:01:54.40	307.47	0.97	-52.1	-70.0	3.5	3.02e+01	0	39	104	934281216	60	121237
2026-01-03 21:01:57.43	307.17	0.83	-51.7	-69.5	3.5	3.02e+01	0	39	104	934281216	60	115176
2026-01-03 21:02:00.46	306.88	0.69	-51.4	-69.2	3.5	3.02e+01	0	39	104	934281216	60	111505
2026-01-03 21:02:03.48	306.58	0.55	-51.1	-68.9	3.5	3.02e+01	0	39	104	934281216	60	107365
2026-01-03 21:02:06.51	306.29	0.40	-51.4	-69.3	3.5	3.02e+01	0	39	104	934281216	60	111861
2026-01-03 21:02:09.54	306.01	0.26	-51.5	-69.4	3.5	3.02e+01	0	39	104	934281216	60	113228
2026-01-03 21:02:12.56	305.72	0.12	-50.8	-68.6	3.5	3.02e+01	0	39	104	934281216	60	103698
2026-01-03 21:02:15.59	305.44	-0.02	-51.4	-69.3	3.5	3.02e+01	0	39	104	934281216	60	112297

#Closed at: 2026-01-03 21:02:16
#Recorded file [934 MB]: D:/lorett/data/35029_260104_085148.dat