passes_logs/2026/01/03/R4.6S_Anadyr/R4.6S_Anadyr__20260103_132855_SUOMI_NPP_rec.log

#Pass ID: 20260103_132855_SUOMI NPP
#Satellite: SUOMI NPP
#Configuration: NPP
#almurnet v.1.7.20251203
#Start time: 2026-01-03 13:28:57

#Version: 2.2.20231116
#Station: R4.6S_Anadyr
#Location: 177.4865 lon 64.73178 lat
#TLE: 1 37849U 11061A   26001.07732418  .00000182  00000+0  10735-3 0  9990
#TLE: 2 37849  98.7795 303.2470 0002580  87.2016 272.9455 14.19520779734739

#Time	Az	El	Level	Level2	SNR	BER	BlckErr	Temp	State	Recorded	gain1	gain2
2026-01-03 13:28:57.20	18.93	0.10	-51.1	-63.6	3.4	1.51e+00	0	37	0	0	60	53171
2026-01-03 13:29:01.24	19.11	0.33	-50.5	-65.7	3.5	1.51e+00	0	38	104	0	60	69431
2026-01-03 13:29:05.28	19.28	0.56	-50.2	-65.5	3.6	1.51e+00	0	38	104	0	60	67783
2026-01-03 13:29:09.32	19.47	0.79	-49.6	-64.8	3.6	1.51e+00	0	39	104	0	60	63165
2026-01-03 13:29:13.35	19.65	1.02	-48.9	-64.0	3.6	1.51e+00	0	39	104	0	60	57583
2026-01-03 13:29:17.39	19.84	1.26	-48.7	-63.9	3.6	1.51e+00	0	39	104	0	60	56950
2026-01-03 13:29:21.43	20.03	1.49	-48.8	-64.0	3.6	1.51e+00	0	39	104	0	60	57394
2026-01-03 13:29:25.47	20.22	1.73	-48.8	-64.0	3.6	1.51e+00	0	39	104	0	60	56995
2026-01-03 13:29:29.51	20.41	1.97	-49.2	-64.3	3.6	1.51e+00	0	39	104	0	60	59445
2026-01-03 13:29:33.55	20.61	2.21	-48.8	-64.0	3.6	1.51e+00	0	39	104	0	60	57527
2026-01-03 13:29:37.58	20.81	2.45	-48.9	-63.6	3.6	1.51e+00	0	39	104	0	60	54918
2026-01-03 13:29:41.62	21.02	2.70	-48.9	-64.0	3.6	1.51e+00	0	39	104	0	60	57456
2026-01-03 13:29:45.66	21.22	2.94	-47.4	-52.4	10.1	2.23e-02	0	39	0	2097152	60	15138
2026-01-03 13:29:49.69	21.43	3.19	-44.5	-46.9	15.9	0.00e+00	75	39	0	9437184	60	8036
2026-01-03 13:29:53.73	21.65	3.44	-44.5	-47.0	15.9	0.00e+00	0	39	0	16777216	60	8077
2026-01-03 13:29:57.77	21.86	3.70	-45.2	-48.1	12.9	9.91e-01	0	39	104	23068672	60	9144
2026-01-03 13:30:01.80	22.08	3.95	-46.5	-50.3	13.0	1.95e-01	0	39	0	26214400	60	11887
2026-01-03 13:30:05.83	22.31	4.21	-46.2	-49.6	13.3	2.20e-06	68	39	0	33554432	60	10912
2026-01-03 13:30:09.87	22.53	4.47	-45.7	-48.7	14.7	0.00e+00	0	39	0	40894464	60	9877
2026-01-03 13:30:13.91	22.77	4.73	-44.9	-47.3	15.7	0.00e+00	0	39	0	48234496	60	8405
2026-01-03 13:30:17.94	23.00	4.99	-45.8	-48.7	14.4	7.00e-07	53	39	0	55574528	60	9863
2026-01-03 13:30:21.98	23.24	5.26	-44.5	-46.7	16.9	0.00e+00	0	39	0	63963136	60	7791
2026-01-03 13:30:26.02	23.48	5.52	-44.3	-46.3	17.0	0.00e+00	0	39	0	71303168	60	7481
2026-01-03 13:30:30.06	23.73	5.79	-44.3	-46.4	16.6	0.00e+00	0	39	0	78643200	60	7515
2026-01-03 13:30:34.09	23.98	6.07	-44.5	-46.7	16.8	0.00e+00	21	39	0	85983232	60	7795
2026-01-03 13:30:38.13	24.24	6.34	-44.5	-46.6	16.8	0.00e+00	0	39	0	94371840	60	7771
2026-01-03 13:30:42.17	24.50	6.62	-44.2	-46.3	16.7	0.00e+00	0	39	0	101711872	60	7452
2026-01-03 13:30:46.21	24.76	6.90	-43.0	-44.7	18.8	0.00e+00	33	39	0	109051904	60	6179
2026-01-03 13:30:50.25	25.03	7.18	-42.9	-44.5	19.0	0.00e+00	92	39	0	116391936	58	6793
2026-01-03 13:30:54.28	25.30	7.47	-42.1	-43.4	19.9	0.00e+00	0	39	0	123731968	58	6024
2026-01-03 13:30:58.32	25.58	7.76	-41.9	-43.2	20.2	0.00e+00	0	39	0	132120576	58	5877
2026-01-03 13:31:02.34	25.87	8.05	-41.9	-43.2	20.2	0.00e+00	52	39	0	139460608	56	6587
2026-01-03 13:31:06.38	26.16	8.34	-41.5	-42.7	20.5	0.00e+00	0	39	0	146800640	56	6209
2026-01-03 13:31:10.42	26.45	8.64	-41.2	-42.4	20.8	0.00e+00	0	39	0	154140672	56	6002
2026-01-03 13:31:14.46	26.76	8.94	-41.2	-42.4	20.8	0.00e+00	0	39	0	161480704	56	6012
2026-01-03 13:31:18.49	27.06	9.24	-41.3	-42.6	20.5	0.00e+00	37	39	0	169869312	56	6113
2026-01-03 13:31:22.52	27.38	9.54	-41.0	-42.2	20.9	0.00e+00	0	39	0	177209344	56	5867
2026-01-03 13:31:26.56	27.70	9.85	-41.1	-42.3	20.7	0.00e+00	0	39	0	184549376	56	5955
2026-01-03 13:31:30.60	28.02	10.16	-41.0	-42.2	21.0	0.00e+00	0	39	0	191889408	56	5858
2026-01-03 13:31:34.64	28.36	10.48	-40.7	-41.9	21.3	0.00e+00	92	39	0	200278016	54	6361
2026-01-03 13:31:38.67	28.69	10.80	-40.6	-41.7	21.3	0.00e+00	0	39	0	207618048	54	6231
2026-01-03 13:31:42.71	29.04	11.12	-40.6	-41.7	21.4	0.00e+00	0	39	0	214958080	54	6221
2026-01-03 13:31:46.74	29.39	11.44	-40.6	-41.8	21.2	0.00e+00	0	39	0	222298112	54	6276
2026-01-03 13:31:50.78	29.76	11.77	-40.2	-41.3	21.7	0.00e+00	77	39	0	229638144	54	5929
2026-01-03 13:31:54.82	30.13	12.11	-40.2	-41.3	21.8	0.00e+00	0	39	0	238026752	54	5929
2026-01-03 13:31:58.86	30.50	12.44	-40.1	-41.2	21.7	0.00e+00	0	39	0	245366784	52	6591
2026-01-03 13:32:02.89	30.89	12.78	-40.3	-41.4	21.4	0.00e+00	53	39	0	252706816	52	6722
2026-01-03 13:32:06.93	31.28	13.12	-40.1	-41.2	21.6	0.00e+00	0	39	0	260046848	52	6607
2026-01-03 13:32:10.97	31.69	13.47	-40.6	-41.7	21.4	0.00e+00	0	39	0	268435456	52	6990
2026-01-03 13:32:15.00	32.10	13.82	-39.9	-41.0	21.7	0.00e+00	0	39	0	275775488	52	6430
2026-01-03 13:32:19.04	32.52	14.17	-39.7	-40.8	22.0	0.00e+00	51	39	0	283115520	52	6252
2026-01-03 13:32:23.07	32.95	14.53	-39.9	-40.9	22.4	0.00e+00	0	39	0	290455552	52	6350
2026-01-03 13:32:27.11	33.39	14.89	-39.6	-40.6	22.7	0.00e+00	0	39	0	297795584	52	6161
2026-01-03 13:32:31.14	33.84	15.26	-39.9	-40.9	22.4	0.00e+00	0	39	0	306184192	52	6348
2026-01-03 13:32:35.17	34.30	15.63	-40.8	-42.0	21.7	0.00e+00	69	40	0	313524224	54	6430
2026-01-03 13:32:39.21	34.78	16.00	-40.5	-41.6	22.0	0.00e+00	0	39	0	320864256	54	6163
2026-01-03 13:32:43.24	35.26	16.38	-40.1	-41.1	22.2	0.00e+00	33	40	0	328204288	54	5824
2026-01-03 13:32:47.27	35.76	16.76	-40.4	-41.5	21.9	0.00e+00	57	40	0	335544320	54	6060
2026-01-03 13:32:51.31	36.27	17.14	-40.3	-41.4	22.0	0.00e+00	92	40	0	343932928	54	5993
2026-01-03 13:32:55.34	36.79	17.53	-40.7	-41.8	21.7	0.00e+00	0	40	0	351272960	54	6284
2026-01-03 13:32:59.38	37.33	17.92	-40.3	-41.4	21.9	0.00e+00	0	40	0	358612992	54	6011
2026-01-03 13:33:03.42	37.88	18.32	-40.5	-41.6	21.9	0.00e+00	33	40	0	365953024	54	6119
2026-01-03 13:33:07.45	38.44	18.72	-40.6	-41.7	21.7	0.00e+00	0	40	0	374341632	54	6192
2026-01-03 13:33:11.48	39.02	19.13	-40.4	-41.4	22.0	0.00e+00	0	40	0	381681664	54	6018
2026-01-03 13:33:15.52	39.61	19.54	-40.4	-41.5	21.7	0.00e+00	0	40	0	389021696	54	6074
2026-01-03 13:33:19.56	40.22	19.95	-40.7	-41.8	21.7	0.00e+00	91	39	0	396361728	54	6296
2026-01-03 13:33:23.59	40.84	20.37	-40.8	-41.9	21.8	0.00e+00	0	40	0	403701760	54	6346
2026-01-03 13:33:27.63	41.48	20.79	-40.0	-41.0	22.5	0.00e+00	0	40	0	412090368	54	5755
2026-01-03 13:33:31.67	42.14	21.21	-39.7	-40.7	22.7	0.00e+00	0	40	0	419430400	52	6192
2026-01-03 13:33:35.71	42.82	21.64	-39.8	-40.8	22.9	0.00e+00	72	40	0	426770432	52	6304
2026-01-03 13:33:39.74	43.51	22.07	-39.0	-39.9	23.0	0.00e+00	0	40	0	434110464	52	5643
2026-01-03 13:33:43.78	44.23	22.50	-38.4	-39.3	23.7	0.00e+00	0	40	0	442499072	50	5904
2026-01-03 13:33:47.81	44.96	22.94	-39.0	-39.9	23.3	0.00e+00	56	40	0	449839104	50	6360
2026-01-03 13:33:51.85	45.72	23.38	-38.5	-39.4	23.7	0.00e+00	32	40	0	457179136	50	6012
2026-01-03 13:33:55.89	46.49	23.82	-38.6	-39.5	23.5	0.00e+00	0	40	0	464519168	50	6067
2026-01-03 13:33:59.92	47.29	24.26	-38.5	-39.4	23.7	0.00e+00	0	40	0	471859200	50	6019
2026-01-03 13:34:03.96	48.11	24.71	-39.3	-40.2	23.0	0.00e+00	22	40	0	480247808	50	6604
2026-01-03 13:34:07.99	48.95	25.15	-38.5	-39.3	23.7	0.00e+00	0	40	0	487587840	50	5950
2026-01-03 13:34:12.03	49.82	25.60	-39.1	-40.1	23.2	0.00e+00	0	40	0	494927872	50	6476
2026-01-03 13:34:16.07	50.71	26.05	-39.0	-39.9	23.4	0.00e+00	0	40	0	502267904	50	6342
2026-01-03 13:34:20.11	51.62	26.50	-38.8	-39.7	23.5	0.00e+00	40	40	0	509607936	50	6208
2026-01-03 13:34:24.14	52.56	26.95	-39.0	-39.9	23.4	0.00e+00	0	39	0	517996544	50	6351
2026-01-03 13:34:28.18	53.53	27.40	-39.1	-40.0	23.3	0.00e+00	0	39	0	525336576	50	6432
2026-01-03 13:34:32.22	54.52	27.84	-38.9	-39.8	23.4	0.00e+00	0	40	0	532676608	50	6247
2026-01-03 13:34:36.25	55.54	28.29	-39.8	-40.7	22.7	0.00e+00	90	40	0	540016640	52	6227
2026-01-03 13:34:40.29	56.60	28.73	-40.7	-41.8	21.9	0.00e+00	0	40	0	548405248	52	7056
2026-01-03 13:34:44.33	57.67	29.17	-40.5	-41.6	22.0	0.00e+00	0	39	0	555745280	54	6124
2026-01-03 13:34:48.37	58.78	29.60	-42.2	-43.6	20.1	0.00e+00	30	40	0	563085312	56	6881
2026-01-03 13:34:52.40	59.92	30.03	-42.9	-44.4	19.9	0.00e+00	46	40	0	570425344	58	6746
2026-01-03 13:34:56.44	61.09	30.45	-41.9	-43.2	20.6	0.00e+00	0	40	0	577765376	58	5896
2026-01-03 13:35:00.47	62.28	30.87	-43.1	-44.6	19.1	0.00e+00	0	40	0	586153984	58	6908
2026-01-03 13:35:04.51	63.51	31.28	-42.8	-44.3	19.6	0.00e+00	30	40	0	593494016	58	6666
2026-01-03 13:35:08.54	64.77	31.68	-42.3	-43.6	20.1	0.00e+00	0	40	0	600834048	58	6152
2026-01-03 13:35:12.58	66.06	32.07	-42.3	-43.6	20.3	0.00e+00	0	40	0	608174080	58	6152
2026-01-03 13:35:16.54	67.35	32.44	-42.0	-43.3	20.6	0.00e+00	0	40	0	615514112	56	6651
2026-01-03 13:35:20.58	68.70	32.80	-41.6	-42.8	21.1	0.00e+00	78	40	0	623902720	56	6277
2026-01-03 13:35:24.61	70.08	33.15	-43.3	-44.9	19.3	0.00e+00	0	40	0	631242752	58	7117
2026-01-03 13:35:28.64	71.48	33.49	-41.7	-42.9	20.8	0.00e+00	0	40	0	638582784	58	5674
2026-01-03 13:35:32.68	72.92	33.82	-43.4	-45.0	19.1	0.00e+00	0	40	0	645922816	58	7187
2026-01-03 13:35:36.71	74.38	34.12	-42.8	-44.2	19.8	0.00e+00	92	40	0	654311424	58	6590
2026-01-03 13:35:40.75	75.88	34.41	-42.6	-44.0	20.0	0.00e+00	0	40	0	661651456	58	6441
2026-01-03 13:35:44.79	77.39	34.68	-42.6	-44.1	20.1	0.00e+00	0	40	0	668991488	58	6472
2026-01-03 13:35:48.82	78.93	34.93	-41.4	-42.6	21.1	0.00e+00	33	40	0	676331520	56	6117
2026-01-03 13:35:52.86	80.50	35.16	-41.4	-42.5	21.3	0.00e+00	0	40	0	683671552	56	6088
2026-01-03 13:35:56.90	82.08	35.36	-41.5	-42.7	21.4	0.00e+00	0	40	0	692060160	56	6230
2026-01-03 13:36:00.93	83.68	35.54	-42.2	-43.6	20.4	0.00e+00	0	40	0	699400192	56	6849
2026-01-03 13:36:04.97	85.30	35.70	-41.6	-42.8	21.1	0.00e+00	92	40	0	706740224	58	5619
2026-01-03 13:36:09.00	86.93	35.84	-42.1	-43.4	20.6	0.00e+00	0	40	0	714080256	56	6733
2026-01-03 13:36:13.04	88.58	35.94	-43.5	-45.2	19.1	0.00e+00	0	40	0	721420288	58	7366
2026-01-03 13:36:17.07	90.23	36.03	-43.0	-44.4	19.9	0.00e+00	0	40	0	729808896	60	6028
2026-01-03 13:36:21.11	91.90	36.08	-42.6	-44.0	20.0	0.00e+00	90	40	0	737148928	58	6436
2026-01-03 13:36:25.15	93.57	36.11	-43.4	-45.0	19.1	0.00e+00	0	40	0	744488960	60	6450
2026-01-03 13:36:29.19	95.24	36.12	-41.8	-43.0	20.6	0.00e+00	0	40	0	751828992	58	5730
2026-01-03 13:36:33.22	96.90	36.09	-41.6	-42.8	21.2	0.00e+00	57	40	0	760217600	56	6310
2026-01-03 13:36:37.26	98.57	36.04	-44.6	-46.7	17.6	0.00e+00	6	40	0	767557632	60	7799
2026-01-03 13:36:41.29	100.23	35.97	-42.7	-44.2	19.8	0.00e+00	0	40	0	774897664	58	6550
2026-01-03 13:36:45.33	101.88	35.86	-42.1	-43.4	20.4	0.00e+00	0	40	0	782237696	58	6019
2026-01-03 13:36:49.36	103.51	35.74	-44.2	-46.0	18.4	0.00e+00	57	40	0	789577728	60	7197
2026-01-03 13:36:53.39	105.14	35.58	-43.4	-44.9	19.2	0.00e+00	0	40	0	797966336	58	7135
2026-01-03 13:36:57.44	106.75	35.41	-43.9	-45.7	18.5	0.00e+00	0	40	0	805306368	60	6948
2026-01-03 13:37:01.47	108.34	35.21	-44.6	-46.5	18.1	0.00e+00	0	40	0	812646400	60	7671
2026-01-03 13:37:05.51	109.91	34.98	-45.5	-47.8	16.5	0.00e+00	92	40	0	819986432	60	8880
2026-01-03 13:37:09.55	111.46	34.74	-44.4	-46.2	18.6	0.00e+00	0	40	0	828375040	60	7357
2026-01-03 13:37:13.58	112.98	34.47	-42.3	-43.5	20.8	0.00e+00	0	40	0	835715072	56	6797
2026-01-03 13:37:17.62	114.48	34.19	-42.8	-44.2	20.0	0.00e+00	0	40	0	843055104	58	6584
2026-01-03 13:37:21.65	115.96	33.89	-43.4	-44.9	19.3	0.00e+00	56	40	0	850395136	60	6343
2026-01-03 13:37:25.69	117.40	33.57	-42.3	-43.6	20.8	0.00e+00	0	40	0	857735168	58	6105
2026-01-03 13:37:29.73	118.82	33.23	-41.1	-42.2	21.8	0.00e+00	0	40	0	866123776	56	5842
2026-01-03 13:37:33.76	120.21	32.88	-41.5	-42.6	21.2	0.00e+00	55	40	0	873463808	56	6147
2026-01-03 13:37:37.80	121.57	32.51	-45.9	-48.6	15.7	0.00e+00	4	40	0	880803840	60	9759
2026-01-03 13:37:41.84	122.90	32.14	-39.4	-40.3	23.0	0.00e+00	0	40	0	888143872	52	5943
2026-01-03 13:37:45.87	124.20	31.75	-41.0	-42.1	21.8	0.00e+00	0	40	0	896532480	54	6514
2026-01-03 13:37:49.90	125.46	31.35	-39.4	-40.4	23.1	0.00e+00	55	40	0	903872512	52	5975
2026-01-03 13:37:53.93	126.70	30.94	-38.8	-39.7	23.7	0.00e+00	0	40	0	911212544	52	5522
2026-01-03 13:37:57.97	127.91	30.53	-41.3	-42.5	21.1	0.00e+00	0	40	0	918552576	54	6822
2026-01-03 13:38:02.01	129.09	30.10	-38.1	-38.9	24.4	0.00e+00	0	40	0	925892608	50	5654
2026-01-03 13:38:06.04	130.23	29.67	-39.9	-41.0	22.8	0.00e+00	38	40	0	934281216	52	6400
2026-01-03 13:38:10.07	131.35	29.24	-40.2	-41.2	22.2	0.00e+00	0	40	0	941621248	52	6608
2026-01-03 13:38:14.11	132.43	28.80	-40.7	-41.8	22.1	0.00e+00	33	40	0	948961280	54	6246
2026-01-03 13:38:18.15	133.49	28.36	-40.1	-41.1	22.6	0.00e+00	0	40	0	956301312	52	6494
2026-01-03 13:38:22.18	134.52	27.91	-37.6	-38.4	24.4	0.00e+00	92	40	0	963641344	48	6009
2026-01-03 13:38:26.22	135.53	27.46	-41.2	-42.4	21.5	0.00e+00	0	40	0	972029952	54	6729
2026-01-03 13:38:30.25	136.50	27.01	-38.8	-39.7	23.6	0.00e+00	0	40	0	979369984	52	5514
2026-01-03 13:38:34.29	137.45	26.56	-38.7	-39.6	23.8	0.00e+00	55	40	0	986710016	52	5444
2026-01-03 13:38:38.33	138.37	26.11	-37.4	-38.2	24.5	0.00e+00	4	40	0	994050048	48	5840
2026-01-03 13:38:42.37	139.27	25.66	-39.9	-40.8	23.0	0.00e+00	0	40	0	1002438656	52	6292
2026-01-03 13:38:46.41	140.15	25.21	-38.2	-39.1	24.0	0.00e+00	0	40	0	1009778688	50	5771
2026-01-03 13:38:50.44	140.99	24.76	-39.2	-40.1	23.0	0.00e+00	45	40	0	1017118720	50	6522
2026-01-03 13:38:54.48	141.82	24.31	-37.5	-38.3	24.5	0.00e+00	0	40	0	1024458752	48	5916
2026-01-03 13:38:58.52	142.62	23.86	-37.6	-38.4	24.4	0.00e+00	0	40	0	1031798784	46	6720
2026-01-03 13:39:02.55	143.41	23.42	-37.9	-38.8	24.1	0.00e+00	0	40	0	1040187392	48	6246
2026-01-03 13:39:06.59	144.17	22.97	-37.5	-38.3	24.6	0.00e+00	82	40	0	1047527424	48	5900
2026-01-03 13:39:10.63	144.91	22.53	-38.1	-39.0	23.7	0.00e+00	0	40	0	1054867456	48	6413
2026-01-03 13:39:14.66	145.62	22.10	-38.2	-39.1	23.9	0.00e+00	0	40	0	1062207488	48	6486
2026-01-03 13:39:18.70	146.32	21.66	-38.3	-39.1	24.0	0.00e+00	0	40	0	1069547520	48	6510
2026-01-03 13:39:22.74	147.01	21.23	-37.8	-38.7	24.1	0.00e+00	92	40	0	1077936128	48	6202
2026-01-03 13:39:26.78	147.67	20.80	-38.0	-38.9	24.1	0.00e+00	0	40	0	1085276160	50	5633
2026-01-03 13:39:30.81	148.32	20.38	-38.4	-39.3	23.8	0.00e+00	0	40	0	1092616192	50	5909
2026-01-03 13:39:34.84	148.94	19.96	-37.9	-38.8	24.1	0.00e+00	53	40	0	1099956224	50	5571
2026-01-03 13:39:38.88	149.56	19.55	-38.7	-39.7	23.4	0.00e+00	0	40	0	1108344832	50	6174
2026-01-03 13:39:42.92	150.15	19.13	-39.1	-40.0	23.1	0.00e+00	0	40	0	1115684864	50	6432
2026-01-03 13:39:46.96	150.73	18.72	-39.7	-40.7	22.7	0.00e+00	0	40	0	1123024896	52	6210
2026-01-03 13:39:50.99	151.30	18.32	-40.9	-42.0	21.5	0.00e+00	92	40	0	1130364928	54	6411
2026-01-03 13:39:55.03	151.85	17.92	-41.3	-42.6	21.3	0.00e+00	0	40	0	1137704960	54	6851
2026-01-03 13:39:59.07	152.39	17.52	-39.9	-40.9	22.7	0.00e+00	0	40	0	1146093568	52	6379
2026-01-03 13:40:03.10	152.91	17.13	-39.5	-40.5	22.7	0.00e+00	0	40	0	1153433600	52	6083
2026-01-03 13:40:07.14	153.43	16.74	-40.8	-42.1	21.4	0.00e+00	92	40	0	1160773632	52	7296
2026-01-03 13:40:11.18	153.93	16.36	-42.1	-43.9	19.6	0.00e+00	15	40	0	1168113664	56	7091
2026-01-03 13:40:15.22	154.41	15.98	-43.4	-45.2	18.4	0.00e+00	0	40	0	1176502272	58	7358
2026-01-03 13:40:19.26	154.89	15.60	-43.9	-45.9	17.3	0.00e+00	30	40	0	1183842304	60	7121
2026-01-03 13:40:23.29	155.35	15.23	-43.4	-45.2	18.4	0.00e+00	68	40	0	1191182336	60	6550
2026-01-03 13:40:27.33	155.81	14.86	-42.3	-43.8	19.8	0.00e+00	0	40	0	1198522368	58	6287
2026-01-03 13:40:31.36	156.25	14.49	-41.3	-42.5	21.3	0.00e+00	0	40	0	1205862400	56	6057
2026-01-03 13:40:35.40	156.68	14.13	-40.3	-41.4	22.2	0.00e+00	81	40	0	1214251008	54	5973
2026-01-03 13:40:39.43	157.10	13.78	-40.9	-42.0	22.0	0.00e+00	0	40	0	1221591040	54	6450
2026-01-03 13:40:43.47	157.52	13.42	-41.4	-42.6	21.2	0.00e+00	0	40	0	1228931072	54	6909
2026-01-03 13:40:47.50	157.92	13.08	-41.6	-42.9	20.7	0.00e+00	0	40	0	1236271104	56	6357
2026-01-03 13:40:51.54	158.31	12.73	-41.2	-42.5	20.9	0.00e+00	82	40	0	1243611136	56	6075
2026-01-03 13:40:55.58	158.70	12.39	-40.2	-41.2	21.9	0.00e+00	0	40	0	1251999744	54	5893
2026-01-03 13:40:59.61	159.08	12.05	-39.9	-40.9	22.3	0.00e+00	0	40	0	1259339776	52	6385
2026-01-03 13:41:03.65	159.45	11.72	-39.6	-40.6	22.6	0.00e+00	50	40	0	1266679808	52	6106
2026-01-03 13:41:07.68	159.81	11.39	-40.0	-40.9	22.6	0.00e+00	83	40	0	1274019840	52	6390
2026-01-03 13:41:11.72	160.16	11.06	-39.9	-40.9	22.4	0.00e+00	0	40	0	1282408448	52	6321
2026-01-03 13:41:15.76	160.51	10.73	-40.1	-41.2	22.1	0.00e+00	0	40	0	1289748480	52	6555
2026-01-03 13:41:19.79	160.85	10.41	-40.6	-41.6	21.7	0.00e+00	48	40	0	1297088512	52	6915
2026-01-03 13:41:23.83	161.18	10.10	-40.7	-41.8	21.6	0.00e+00	0	40	0	1304428544	54	6248
2026-01-03 13:41:27.87	161.50	9.78	-41.3	-42.4	21.1	0.00e+00	0	40	0	1311768576	54	6760
2026-01-03 13:41:31.90	161.82	9.47	-41.0	-42.2	21.4	0.00e+00	0	40	0	1320157184	54	6551
2026-01-03 13:41:35.94	162.14	9.16	-40.9	-42.1	21.2	0.00e+00	66	40	0	1327497216	54	6480
2026-01-03 13:41:39.97	162.44	8.86	-41.0	-42.1	21.1	0.00e+00	0	40	0	1334837248	54	6538
2026-01-03 13:41:44.01	162.74	8.56	-41.3	-42.6	20.8	0.00e+00	0	40	0	1342177280	54	6862
2026-01-03 13:41:48.05	163.04	8.26	-41.9	-43.2	20.4	0.00e+00	0	40	0	1350565888	56	6595
2026-01-03 13:41:52.09	163.33	7.96	-42.0	-43.3	20.1	0.00e+00	92	40	0	1357905920	56	6667
2026-01-03 13:41:56.13	163.61	7.67	-42.2	-43.6	19.7	0.00e+00	0	40	0	1365245952	56	6849
2026-01-03 13:42:00.16	163.89	7.38	-42.6	-44.1	19.8	0.00e+00	0	40	0	1372585984	56	7300
2026-01-03 13:42:04.20	164.16	7.09	-42.8	-44.3	18.5	0.00e+00	57	40	0	1379926016	58	6645
2026-01-03 13:42:08.23	164.43	6.81	-43.5	-45.2	18.6	0.00e+00	14	40	0	1388314624	58	7386
2026-01-03 13:42:12.27	164.69	6.52	-43.9	-45.6	18.4	0.00e+00	0	40	0	1395654656	60	6892
2026-01-03 13:42:16.31	164.95	6.24	-44.2	-46.1	18.0	0.00e+00	0	40	0	1402994688	60	7255
2026-01-03 13:42:20.34	165.20	5.97	-44.4	-46.3	17.6	0.00e+00	45	40	0	1410334720	60	7483
2026-01-03 13:42:24.38	165.45	5.69	-44.8	-46.8	17.1	0.00e+00	0	40	0	1418723328	60	7946
2026-01-03 13:42:28.42	165.70	5.42	-44.0	-45.8	17.8	0.00e+00	0	40	0	1426063360	60	7029
2026-01-03 13:42:32.46	165.94	5.15	-44.1	-46.0	18.0	0.00e+00	0	40	0	1433403392	60	7171
2026-01-03 13:42:36.50	166.17	4.88	-44.1	-46.0	18.0	0.00e+00	92	40	0	1440743424	60	7187
2026-01-03 13:42:40.53	166.41	4.62	-44.0	-45.8	18.0	0.00e+00	0	40	0	1448083456	60	7077
2026-01-03 13:42:44.57	166.63	4.35	-44.2	-46.0	18.1	0.00e+00	0	40	0	1456472064	60	7223
2026-01-03 13:42:48.61	166.86	4.09	-44.8	-46.8	17.3	0.00e+00	42	40	0	1463812096	60	7951
2026-01-03 13:42:52.65	167.08	3.84	-45.1	-47.3	16.6	0.00e+00	92	40	0	1471152128	60	8365
2026-01-03 13:42:56.68	167.30	3.58	-45.2	-47.5	15.5	0.00e+00	0	40	0	1478492160	60	8581
2026-01-03 13:43:00.72	167.51	3.32	-45.7	-48.5	15.3	0.00e+00	0	40	0	1486880768	60	9644
2026-01-03 13:43:04.75	167.72	3.07	-45.7	-48.5	14.9	0.00e+00	47	40	0	1494220800	60	9657
2026-01-03 13:43:08.79	167.93	2.82	-49.6	-64.8	3.6	1.51e+00	0	40	104	1495269376	60	63127
2026-01-03 13:43:12.83	168.13	2.57	-50.6	-65.9	3.6	1.51e+00	0	40	104	1495269376	60	70899
2026-01-03 13:43:16.87	168.33	2.33	-50.5	-65.7	3.6	1.51e+00	0	40	104	1495269376	60	69849
2026-01-03 13:43:20.91	168.53	2.08	-50.6	-65.9	3.6	1.51e+00	0	40	104	1495269376	60	71016
2026-01-03 13:43:24.94	168.73	1.84	-50.9	-66.2	3.6	1.51e+00	0	40	104	1495269376	60	73400
2026-01-03 13:43:28.98	168.92	1.60	-50.8	-66.1	3.6	1.51e+00	0	40	104	1495269376	60	72610
2026-01-03 13:43:33.02	169.11	1.36	-50.7	-65.9	3.6	1.51e+00	0	40	104	1495269376	60	71486
2026-01-03 13:43:37.06	169.29	1.12	-50.4	-65.6	3.6	1.51e+00	0	40	104	1495269376	60	68899
2026-01-03 13:43:41.09	169.48	0.89	-50.5	-65.7	3.6	1.51e+00	0	40	104	1495269376	60	69898
2026-01-03 13:43:45.13	169.66	0.65	-51.1	-66.3	3.6	1.51e+00	0	40	104	1495269376	60	74576
2026-01-03 13:43:49.17	169.83	0.42	-50.8	-66.1	3.6	1.51e+00	0	40	104	1495269376	60	72762
2026-01-03 13:43:53.20	170.01	0.19	-51.4	-66.6	3.6	1.51e+00	0	40	104	1495269376	60	77542
2026-01-03 13:43:57.24	170.18	-0.04	-50.9	-66.1	3.6	1.51e+00	0	40	104	1495269376	60	72833

#Closed at: 2026-01-03 13:43:58
#Recorded file [1495 MB]: D:/lorett/data/35029_260104_012857.dat