passes_logs/2026/01/03/R4.6S_Anadyr/R4.6S_Anadyr__20260103_014504_NOAA_20_JPSS-1_rec.log

#Pass ID: 20260103_014504_NOAA 20 (JPSS-1)
#Satellite: NOAA 20 (JPSS-1)
#Configuration: NOAA 20
#almurnet v.1.7.20251203
#Start time: 2026-01-03 01:45:06

#Version: 2.2.20231116
#Station: R4.6S_Anadyr
#Location: 177.4865 lon 64.73178 lat
#TLE: 1 43013U 17073A   26002.78363558  .00000190  00000+0  11110-3 0  9990
#TLE: 2 43013  98.7623 303.8528 0001892  57.0664 303.0694 14.19532716421006

#Time	Az	El	Level	Level2	SNR	BER	BlckErr	Temp	State	Recorded	gain1	gain2
2026-01-03 01:45:06.38	195.66	0.09	-50.2	-65.2	3.5	1.51e+00	0	37	0	0	60	65529
2026-01-03 01:45:10.41	195.86	0.31	-50.1	-65.3	3.6	1.51e+00	0	38	104	0	60	66816
2026-01-03 01:45:14.45	196.07	0.54	-50.1	-65.4	3.6	1.51e+00	0	38	104	0	60	67183
2026-01-03 01:45:18.49	196.27	0.77	-49.8	-65.0	3.6	1.51e+00	0	38	104	0	60	64577
2026-01-03 01:45:22.53	196.48	1.00	-48.7	-63.9	3.6	1.51e+00	0	39	104	0	60	56321
2026-01-03 01:45:26.57	196.70	1.23	-48.6	-63.7	3.6	1.51e+00	0	39	104	0	60	55037
2026-01-03 01:45:30.62	196.91	1.46	-48.6	-63.7	3.6	1.51e+00	0	39	104	0	60	55617
2026-01-03 01:45:34.66	197.13	1.70	-48.6	-63.7	3.6	1.51e+00	0	39	104	0	60	55409
2026-01-03 01:45:38.70	197.35	1.93	-48.6	-63.7	3.6	1.51e+00	0	39	104	0	60	55319
2026-01-03 01:45:42.74	197.58	2.17	-48.6	-63.7	3.6	1.51e+00	0	39	104	0	60	55602
2026-01-03 01:45:46.78	197.81	2.41	-48.6	-63.7	3.6	1.51e+00	0	39	104	0	60	55452
2026-01-03 01:45:50.82	198.04	2.65	-48.5	-62.6	3.6	1.51e+00	0	39	104	0	60	48487
2026-01-03 01:45:54.86	198.28	2.89	-48.5	-63.1	3.6	1.51e+00	0	39	104	0	60	51514
2026-01-03 01:45:58.90	198.52	3.14	-47.4	-53.1	9.2	2.80e-02	90	39	0	3145728	60	16289
2026-01-03 01:46:02.94	198.76	3.39	-45.9	-49.4	13.2	7.78e-05	46	39	0	10485760	60	10616
2026-01-03 01:46:06.98	199.01	3.63	-44.7	-47.2	15.2	1.50e+00	92	39	104	14680064	60	8316
2026-01-03 01:46:11.02	199.26	3.88	-45.2	-48.0	15.1	2.20e-06	92	39	0	20971520	60	9101
2026-01-03 01:46:15.06	199.52	4.14	-44.7	-47.1	16.1	0.00e+00	8	39	0	28311552	60	8140
2026-01-03 01:46:19.10	199.78	4.39	-44.8	-47.2	15.8	0.00e+00	92	39	0	35651584	60	8268
2026-01-03 01:46:23.14	200.04	4.65	-44.2	-46.4	16.8	0.00e+00	92	39	0	42991616	60	7536
2026-01-03 01:46:27.18	200.31	4.90	-43.5	-45.3	18.1	0.00e+00	92	39	0	51380224	60	6634
2026-01-03 01:46:31.22	200.58	5.16	-43.3	-45.0	18.3	0.00e+00	8	39	0	58720256	60	6445
2026-01-03 01:46:35.27	200.86	5.43	-43.3	-45.0	18.4	0.00e+00	90	39	0	66060288	60	6431
2026-01-03 01:46:39.31	201.14	5.69	-42.8	-44.4	18.9	0.00e+00	92	39	0	73400320	60	6007
2026-01-03 01:46:43.34	201.43	5.96	-42.9	-44.6	18.9	0.00e+00	0	39	0	81788928	60	6108
2026-01-03 01:46:47.38	201.72	6.23	-42.7	-44.3	19.1	0.00e+00	9	39	0	89128960	58	6657
2026-01-03 01:46:51.42	202.02	6.50	-42.5	-43.9	19.5	0.00e+00	92	39	0	96468992	58	6379
2026-01-03 01:46:55.46	202.32	6.77	-42.2	-43.6	19.8	0.00e+00	92	39	0	103809024	58	6112
2026-01-03 01:46:59.49	202.63	7.04	-42.1	-43.5	19.9	0.00e+00	67	39	0	111149056	58	6089
2026-01-03 01:47:03.53	202.95	7.32	-41.9	-43.3	20.2	0.00e+00	0	39	0	119537664	58	5918
2026-01-03 01:47:07.57	203.27	7.60	-41.9	-43.3	20.3	0.00e+00	92	39	0	126877696	56	6626
2026-01-03 01:47:11.61	203.59	7.88	-42.1	-43.5	20.0	0.00e+00	92	39	0	134217728	56	6799
2026-01-03 01:47:15.65	203.93	8.17	-41.8	-43.1	20.5	0.00e+00	0	39	0	141557760	56	6528
2026-01-03 01:47:19.69	204.26	8.45	-41.5	-42.7	20.8	0.00e+00	0	39	0	149946368	56	6219
2026-01-03 01:47:23.73	204.61	8.74	-41.5	-42.7	20.9	0.00e+00	92	39	0	157286400	56	6196
2026-01-03 01:47:27.77	204.96	9.04	-41.0	-42.1	21.4	0.00e+00	92	39	0	164626432	56	5813
2026-01-03 01:47:31.81	205.32	9.33	-41.0	-42.1	21.4	0.00e+00	20	39	0	171966464	56	5822
2026-01-03 01:47:35.85	205.68	9.63	-40.5	-41.6	21.8	0.00e+00	42	39	0	179306496	54	6142
2026-01-03 01:47:39.89	206.06	9.93	-40.1	-41.2	22.3	0.00e+00	90	39	0	187695104	54	5830
2026-01-03 01:47:43.93	206.43	10.23	-40.1	-41.1	22.4	0.00e+00	90	39	0	195035136	54	5786
2026-01-03 01:47:47.97	206.82	10.53	-40.2	-41.2	22.2	0.00e+00	76	39	0	202375168	54	5861
2026-01-03 01:47:52.01	207.22	10.84	-40.0	-41.1	22.4	0.00e+00	50	39	0	209715200	54	5776
2026-01-03 01:47:56.05	207.62	11.15	-40.0	-41.0	22.5	0.00e+00	92	39	0	218103808	54	5754
2026-01-03 01:48:00.09	208.03	11.46	-39.8	-40.9	22.7	0.00e+00	90	39	0	225443840	54	5631
2026-01-03 01:48:04.13	208.45	11.78	-39.9	-40.9	22.6	0.00e+00	0	39	0	232783872	52	6362
2026-01-03 01:48:08.17	208.88	12.10	-39.8	-40.8	22.8	0.00e+00	92	39	0	240123904	52	6273
2026-01-03 01:48:12.21	209.32	12.42	-39.5	-40.5	23.0	0.00e+00	92	39	0	247463936	52	6049
2026-01-03 01:48:16.25	209.77	12.74	-39.5	-40.4	23.1	0.00e+00	92	39	0	255852544	52	5995
2026-01-03 01:48:20.29	210.22	13.07	-39.5	-40.4	23.1	0.00e+00	0	39	0	263192576	52	6007
2026-01-03 01:48:24.32	210.69	13.40	-39.5	-40.5	23.0	0.00e+00	92	39	0	270532608	52	6051
2026-01-03 01:48:28.36	211.17	13.73	-39.5	-40.4	23.1	0.00e+00	90	39	0	277872640	52	6028
2026-01-03 01:48:32.40	211.65	14.07	-39.7	-40.6	23.0	0.00e+00	92	39	0	286261248	52	6166
2026-01-03 01:48:36.44	212.15	14.40	-40.0	-41.0	22.7	0.00e+00	11	39	0	293601280	52	6408
2026-01-03 01:48:40.47	212.66	14.74	-40.1	-41.1	22.6	0.00e+00	90	39	0	300941312	52	6478
2026-01-03 01:48:44.51	213.18	15.09	-40.3	-41.3	22.5	0.00e+00	92	39	0	308281344	52	6652
2026-01-03 01:48:48.55	213.71	15.43	-40.1	-41.1	22.6	0.00e+00	92	39	0	315621376	52	6500
2026-01-03 01:48:52.59	214.26	15.78	-40.1	-41.1	22.5	0.00e+00	0	39	0	324009984	52	6485
2026-01-03 01:48:56.63	214.81	16.13	-40.2	-41.3	22.5	0.00e+00	92	39	0	331350016	52	6619
2026-01-03 01:49:00.66	215.38	16.48	-40.4	-41.4	22.3	0.00e+00	90	39	0	338690048	52	6750
2026-01-03 01:49:04.70	215.96	16.84	-40.3	-41.3	22.4	0.00e+00	92	39	0	346030080	52	6629
2026-01-03 01:49:08.74	216.56	17.20	-40.4	-41.4	22.4	0.00e+00	0	39	0	354418688	52	6721
2026-01-03 01:49:12.78	217.17	17.56	-40.2	-41.3	22.6	0.00e+00	92	39	0	361758720	52	6622
2026-01-03 01:49:16.82	217.79	17.92	-39.8	-40.8	22.9	0.00e+00	91	39	0	369098752	52	6280
2026-01-03 01:49:20.86	218.43	18.29	-39.8	-40.7	23.0	0.00e+00	92	39	0	376438784	52	6236
2026-01-03 01:49:24.91	219.09	18.65	-40.0	-40.9	22.9	0.00e+00	41	39	0	383778816	52	6376
2026-01-03 01:49:28.94	219.76	19.02	-39.8	-40.8	22.9	0.00e+00	92	39	0	392167424	52	6260
2026-01-03 01:49:32.98	220.44	19.39	-39.8	-40.7	23.0	0.00e+00	92	39	0	399507456	52	6240
2026-01-03 01:49:37.03	221.14	19.76	-39.5	-40.5	23.3	0.00e+00	92	39	0	406847488	52	6036
2026-01-03 01:49:41.07	221.86	20.14	-39.2	-40.2	23.6	0.00e+00	92	39	0	414187520	52	5833
2026-01-03 01:49:45.11	222.60	20.51	-38.9	-39.8	23.9	0.00e+00	92	39	0	422576128	52	5601
2026-01-03 01:49:49.15	223.35	20.89	-39.0	-39.9	23.8	0.00e+00	90	39	0	429916160	52	5635
2026-01-03 01:49:53.19	224.12	21.26	-38.8	-39.7	24.0	0.00e+00	73	39	0	437256192	52	5516
2026-01-03 01:49:57.23	224.91	21.64	-38.5	-39.3	24.3	0.00e+00	90	39	0	444596224	50	5943
2026-01-03 01:50:01.27	225.72	22.01	-38.4	-39.2	24.4	0.00e+00	92	39	0	451936256	50	5886
2026-01-03 01:50:05.31	226.55	22.39	-38.3	-39.1	24.5	0.00e+00	92	39	0	460324864	50	5800
2026-01-03 01:50:09.35	227.40	22.76	-38.1	-38.9	24.4	0.00e+00	72	39	0	467664896	50	5681
2026-01-03 01:50:13.39	228.27	23.14	-38.3	-39.1	24.5	0.00e+00	92	39	0	475004928	50	5799
2026-01-03 01:50:17.43	229.15	23.51	-38.2	-39.0	24.6	0.00e+00	92	39	0	482344960	50	5759
2026-01-03 01:50:21.47	230.06	23.88	-38.4	-39.3	24.3	0.00e+00	92	39	0	490733568	50	5916
2026-01-03 01:50:25.51	230.99	24.25	-38.6	-39.5	24.2	0.00e+00	0	39	0	498073600	50	6063
2026-01-03 01:50:29.55	231.95	24.61	-38.4	-39.2	24.4	0.00e+00	91	39	0	505413632	50	5882
2026-01-03 01:50:33.59	232.92	24.97	-38.7	-39.6	24.1	0.00e+00	90	39	0	512753664	50	6113
2026-01-03 01:50:37.63	233.91	25.33	-38.9	-39.8	23.9	0.00e+00	92	39	0	520093696	50	6251
2026-01-03 01:50:41.67	234.93	25.69	-39.3	-40.2	23.6	0.00e+00	39	39	0	528482304	50	6587
2026-01-03 01:50:45.71	235.97	26.04	-39.4	-40.3	23.5	0.00e+00	92	39	0	535822336	50	6635
2026-01-03 01:50:49.75	237.03	26.38	-39.6	-40.6	23.3	0.00e+00	92	39	0	543162368	50	6869
2026-01-03 01:50:53.79	238.12	26.72	-39.6	-40.5	23.4	0.00e+00	7	39	0	550502400	52	6098
2026-01-03 01:50:57.83	239.22	27.05	-40.3	-41.3	22.6	0.00e+00	92	39	0	558891008	52	6688
2026-01-03 01:51:01.87	240.35	27.37	-41.0	-42.1	21.9	0.00e+00	92	39	0	566231040	54	6482
2026-01-03 01:51:05.91	241.51	27.68	-41.0	-42.0	22.0	0.00e+00	92	39	0	573571072	54	6444
2026-01-03 01:51:09.96	242.68	27.99	-40.8	-41.9	22.0	0.00e+00	79	39	0	580911104	54	6340
2026-01-03 01:51:14.00	243.88	28.29	-41.6	-42.8	21.4	0.00e+00	90	39	0	589299712	54	7042
2026-01-03 01:51:18.03	245.09	28.57	-40.9	-42.0	22.1	0.00e+00	92	39	0	596639744	54	6392
2026-01-03 01:51:22.07	246.33	28.85	-40.6	-41.6	22.4	0.00e+00	91	39	0	603979776	54	6145
2026-01-03 01:51:26.11	247.59	29.11	-40.7	-41.8	22.2	0.00e+00	74	39	0	611319808	54	6254
2026-01-03 01:51:30.15	248.86	29.36	-40.8	-41.8	22.1	0.00e+00	91	39	0	618659840	54	6284
2026-01-03 01:51:34.19	250.16	29.59	-41.5	-42.7	21.4	0.00e+00	92	39	0	627048448	54	6957
2026-01-03 01:51:38.23	251.48	29.82	-42.8	-44.2	19.9	0.00e+00	91	39	0	634388480	58	6541
2026-01-03 01:51:42.27	252.81	30.02	-43.3	-44.8	19.4	0.00e+00	0	39	0	641728512	58	7086
2026-01-03 01:51:46.31	254.16	30.22	-43.4	-44.9	19.3	0.00e+00	91	39	0	649068544	58	7111
2026-01-03 01:51:50.36	255.52	30.39	-43.3	-44.8	19.4	0.00e+00	91	39	0	657457152	58	7058
2026-01-03 01:51:54.40	256.90	30.55	-42.7	-44.0	20.2	0.00e+00	5	39	0	664797184	58	6441
2026-01-03 01:51:58.44	258.29	30.69	-42.7	-44.1	20.1	0.00e+00	15	39	0	672137216	58	6475
2026-01-03 01:52:02.47	259.69	30.82	-41.8	-43.0	21.1	0.00e+00	92	39	0	679477248	58	5741
2026-01-03 01:52:06.51	261.10	30.92	-42.1	-43.4	20.8	0.00e+00	92	39	0	686817280	56	6713
2026-01-03 01:52:10.55	262.52	31.01	-42.2	-43.4	20.8	0.00e+00	19	39	0	695205888	56	6740
2026-01-03 01:52:14.59	263.94	31.08	-41.4	-42.5	21.5	0.00e+00	92	39	0	702545920	56	6086
2026-01-03 01:52:18.63	265.37	31.13	-42.6	-43.9	20.4	0.00e+00	92	39	0	709885952	56	7126
2026-01-03 01:52:22.67	266.81	31.16	-42.0	-43.2	20.9	0.00e+00	92	39	0	717225984	56	6611
2026-01-03 01:52:26.71	268.24	31.17	-41.3	-42.4	21.7	0.00e+00	80	39	0	725614592	56	6018
2026-01-03 01:52:30.75	269.68	31.16	-40.1	-41.1	22.9	0.00e+00	92	39	0	732954624	54	5768
2026-01-03 01:52:34.79	271.11	31.14	-40.8	-41.9	22.1	0.00e+00	92	39	0	740294656	54	6321
2026-01-03 01:52:38.84	272.55	31.09	-41.7	-42.8	21.3	0.00e+00	90	39	0	747634688	54	7082
2026-01-03 01:52:42.88	273.97	31.02	-42.1	-43.4	20.9	0.00e+00	0	39	0	754974720	56	6711
2026-01-03 01:52:46.92	275.39	30.94	-41.7	-42.9	21.2	0.00e+00	92	39	0	763363328	56	6348
2026-01-03 01:52:50.95	276.80	30.83	-42.2	-43.4	20.9	0.00e+00	92	39	0	770703360	56	6735
2026-01-03 01:52:55.00	278.20	30.71	-42.0	-43.1	21.0	0.00e+00	83	39	0	778043392	56	6539
2026-01-03 01:52:59.04	279.59	30.57	-42.6	-43.9	20.3	0.00e+00	6	39	0	785383424	56	7166
2026-01-03 01:53:03.08	280.97	30.42	-42.6	-43.9	20.3	0.00e+00	92	39	0	793772032	58	6365
2026-01-03 01:53:07.12	282.33	30.24	-42.0	-43.2	21.0	0.00e+00	92	39	0	801112064	58	5863
2026-01-03 01:53:11.16	283.68	30.05	-43.0	-44.4	19.7	0.00e+00	92	39	0	808452096	58	6763
2026-01-03 01:53:15.20	285.01	29.85	-41.9	-43.1	21.0	0.00e+00	0	39	0	815792128	58	5797
2026-01-03 01:53:19.24	286.32	29.63	-41.2	-42.3	21.9	0.00e+00	90	39	0	824180736	56	5959
2026-01-03 01:53:23.28	287.62	29.40	-40.7	-41.7	22.3	0.00e+00	90	39	0	831520768	54	6245
2026-01-03 01:53:27.32	288.90	29.15	-41.4	-42.5	21.6	0.00e+00	0	39	0	838860800	54	6816
2026-01-03 01:53:31.36	290.15	28.89	-40.3	-41.3	22.4	0.00e+00	12	39	0	846200832	54	5926
2026-01-03 01:53:35.40	291.39	28.62	-40.4	-41.4	22.5	0.00e+00	90	39	0	853540864	54	6021
2026-01-03 01:53:39.44	292.61	28.34	-41.3	-42.4	21.6	0.00e+00	0	39	0	861929472	54	6704
2026-01-03 01:53:43.48	293.80	28.04	-41.3	-42.4	21.7	0.00e+00	5	39	0	869269504	54	6765
2026-01-03 01:53:47.52	294.97	27.74	-41.0	-42.1	22.0	0.00e+00	20	39	0	876609536	54	6495
2026-01-03 01:53:51.56	296.13	27.43	-41.0	-42.1	22.0	0.00e+00	92	39	0	883949568	54	6506
2026-01-03 01:53:55.60	297.25	27.11	-41.9	-43.1	21.1	0.00e+00	10	39	0	892338176	56	6519
2026-01-03 01:53:59.64	298.36	26.78	-41.3	-42.4	21.7	0.00e+00	0	39	0	899678208	56	6002
2026-01-03 01:54:03.68	299.44	26.45	-40.9	-41.9	22.1	0.00e+00	90	39	0	907018240	56	5679
2026-01-03 01:54:07.72	300.51	26.11	-40.5	-41.5	22.6	0.00e+00	90	39	0	914358272	54	6089
2026-01-03 01:54:11.76	301.55	25.76	-39.9	-40.8	23.1	0.00e+00	77	39	0	921698304	52	6283
2026-01-03 01:54:15.80	302.56	25.41	-40.2	-41.2	22.8	0.00e+00	0	39	0	930086912	52	6559
2026-01-03 01:54:19.84	303.56	25.05	-40.2	-41.1	22.8	0.00e+00	92	39	0	937426944	52	6525
2026-01-03 01:54:23.88	304.53	24.69	-39.6	-40.5	23.4	0.00e+00	92	39	0	944766976	52	6043
2026-01-03 01:54:27.92	305.48	24.33	-40.3	-41.3	22.8	0.00e+00	0	39	0	952107008	52	6630
2026-01-03 01:54:31.96	306.41	23.97	-40.1	-41.1	22.8	0.00e+00	76	39	0	960495616	52	6525
2026-01-03 01:54:36.00	307.32	23.60	-41.3	-42.4	21.5	0.00e+00	91	39	0	967835648	54	6763
2026-01-03 01:54:40.04	308.21	23.23	-40.9	-42.0	22.2	0.00e+00	91	39	0	975175680	56	5700
2026-01-03 01:54:44.08	309.08	22.86	-41.0	-42.1	21.8	0.00e+00	0	39	0	982515712	54	6475
2026-01-03 01:54:48.11	309.92	22.49	-40.7	-41.8	22.2	0.00e+00	0	39	0	989855744	54	6254
2026-01-03 01:54:52.15	310.75	22.11	-40.0	-40.9	22.9	0.00e+00	92	39	0	998244352	52	6366
2026-01-03 01:54:56.19	311.56	21.74	-40.9	-42.0	21.9	0.00e+00	92	39	0	1005584384	54	6429
2026-01-03 01:55:00.23	312.35	21.37	-40.4	-41.4	22.5	0.00e+00	0	39	0	1012924416	54	5985
2026-01-03 01:55:04.27	313.12	21.00	-41.2	-42.3	21.7	0.00e+00	12	39	0	1020264448	54	6652
2026-01-03 01:55:08.32	313.88	20.62	-39.6	-40.5	23.3	0.00e+00	92	39	0	1028653056	52	6058
2026-01-03 01:55:12.35	314.61	20.25	-40.0	-40.9	22.3	0.00e+00	5	39	0	1035993088	52	6372
2026-01-03 01:55:16.39	315.33	19.88	-39.7	-40.7	23.1	0.00e+00	7	39	0	1043333120	52	6199
2026-01-03 01:55:20.43	316.04	19.51	-39.8	-40.7	23.0	0.00e+00	92	39	0	1050673152	52	6213
2026-01-03 01:55:24.48	316.72	19.14	-39.9	-40.9	22.9	0.00e+00	92	39	0	1058013184	52	6357
2026-01-03 01:55:28.51	317.39	18.78	-39.5	-40.4	23.3	0.00e+00	76	39	0	1066401792	52	5980
2026-01-03 01:55:32.55	318.05	18.41	-39.5	-40.4	23.3	0.00e+00	75	39	0	1073741824	52	5987
2026-01-03 01:55:36.60	318.69	18.05	-39.1	-39.9	23.8	0.00e+00	92	39	0	1081081856	52	5691
2026-01-03 01:55:40.63	319.31	17.69	-39.5	-40.5	23.4	0.00e+00	12	39	0	1088421888	52	6035
2026-01-03 01:55:44.68	319.93	17.33	-39.6	-40.5	23.0	0.00e+00	0	39	0	1096810496	52	6073
2026-01-03 01:55:48.71	320.52	16.98	-39.5	-40.5	23.1	0.00e+00	76	39	0	1104150528	52	6045
2026-01-03 01:55:52.75	321.11	16.62	-39.5	-40.4	23.3	0.00e+00	92	39	0	1111490560	52	6024
2026-01-03 01:55:56.79	321.68	16.27	-39.2	-40.1	23.4	0.00e+00	73	39	0	1118830592	52	5803
2026-01-03 01:56:00.82	322.23	15.93	-39.6	-40.5	23.1	0.00e+00	5	39	0	1126170624	52	6102
2026-01-03 01:56:04.86	322.78	15.58	-39.7	-40.7	22.8	0.00e+00	0	39	0	1134559232	52	6178
2026-01-03 01:56:08.90	323.31	15.24	-39.9	-40.9	22.6	0.00e+00	92	39	0	1141899264	52	6368
2026-01-03 01:56:12.94	323.83	14.89	-40.3	-41.4	22.2	0.00e+00	10	39	0	1149239296	52	6711
2026-01-03 01:56:16.98	324.35	14.56	-41.0	-42.1	21.8	0.00e+00	7	39	0	1156579328	54	6477
2026-01-03 01:56:21.02	324.85	14.22	-40.4	-41.5	22.1	0.00e+00	9	39	0	1164967936	54	6078
2026-01-03 01:56:25.06	325.33	13.89	-40.4	-41.4	22.0	0.00e+00	92	39	0	1172307968	54	6033
2026-01-03 01:56:29.10	325.81	13.56	-40.6	-41.7	21.9	0.00e+00	75	39	0	1179648000	54	6228
2026-01-03 01:56:33.14	326.28	13.23	-40.8	-41.9	21.7	0.00e+00	75	39	0	1186988032	54	6385
2026-01-03 01:56:37.18	326.74	12.91	-41.0	-42.1	21.5	0.00e+00	41	39	0	1194328064	54	6515
2026-01-03 01:56:41.22	327.19	12.58	-40.8	-41.9	21.6	0.00e+00	92	39	0	1202716672	54	6336
2026-01-03 01:56:45.26	327.63	12.26	-40.6	-41.7	21.8	0.00e+00	0	39	0	1210056704	54	6212
2026-01-03 01:56:49.30	328.06	11.95	-40.7	-41.9	21.6	0.00e+00	0	39	0	1217396736	54	6330
2026-01-03 01:56:53.34	328.48	11.63	-41.3	-42.5	20.9	0.00e+00	90	39	0	1224736768	54	6834
2026-01-03 01:56:57.38	328.90	11.32	-40.9	-42.1	21.4	0.00e+00	71	39	0	1232076800	54	6496
2026-01-03 01:57:01.42	329.30	11.01	-40.5	-41.6	21.7	0.00e+00	9	39	0	1240465408	54	6150
2026-01-03 01:57:05.46	329.70	10.71	-39.9	-40.9	22.4	0.00e+00	0	39	0	1247805440	54	5657
2026-01-03 01:57:09.50	330.09	10.40	-40.1	-41.1	22.2	0.00e+00	92	39	0	1255145472	54	5823
2026-01-03 01:57:13.54	330.47	10.10	-40.4	-41.5	21.8	0.00e+00	0	39	0	1262485504	54	6054
2026-01-03 01:57:17.58	330.85	9.81	-41.0	-42.1	21.2	0.00e+00	72	39	0	1270874112	54	6530
2026-01-03 01:57:21.62	331.21	9.51	-40.6	-41.8	21.5	0.00e+00	6	39	0	1278214144	54	6250
2026-01-03 01:57:25.66	331.57	9.22	-40.5	-41.6	21.6	0.00e+00	92	39	0	1285554176	54	6148
2026-01-03 01:57:29.70	331.93	8.93	-40.5	-41.6	21.6	0.00e+00	71	39	0	1292894208	54	6170
2026-01-03 01:57:33.74	332.28	8.64	-40.6	-41.7	21.5	0.00e+00	16	39	0	1301282816	54	6242
2026-01-03 01:57:37.78	332.62	8.35	-40.9	-42.2	21.0	0.00e+00	65	39	0	1308622848	54	6543
2026-01-03 01:57:41.82	332.95	8.07	-41.1	-42.3	20.9	0.00e+00	92	39	0	1315962880	54	6658
2026-01-03 01:57:45.86	333.28	7.79	-40.9	-42.2	21.0	0.00e+00	0	39	0	1323302912	54	6544
2026-01-03 01:57:49.90	333.60	7.51	-40.6	-41.8	21.2	0.00e+00	71	39	0	1330642944	54	6278
2026-01-03 01:57:53.94	333.92	7.24	-40.6	-41.8	21.2	0.00e+00	44	39	0	1339031552	54	6275
2026-01-03 01:57:57.98	334.23	6.96	-40.4	-41.6	21.4	0.00e+00	92	39	0	1346371584	54	6116
2026-01-03 01:58:02.02	334.54	6.69	-41.0	-42.2	20.7	0.00e+00	13	39	0	1353711616	54	6608
2026-01-03 01:58:06.06	334.84	6.42	-41.3	-42.7	20.1	0.00e+00	2	39	0	1361051648	54	6963
2026-01-03 01:58:10.09	335.13	6.16	-42.0	-43.5	19.1	0.00e+00	33	39	0	1369440256	56	6847
2026-01-03 01:58:14.13	335.43	5.89	-42.1	-43.9	18.2	0.00e+00	92	39	0	1376780288	56	7120
2026-01-03 01:58:18.17	335.71	5.63	-42.9	-45.2	16.4	0.00e+00	0	39	0	1384120320	58	7370
2026-01-03 01:58:22.21	335.99	5.37	-43.5	-46.4	14.7	0.00e+00	11	39	0	1391460352	58	8435
2026-01-03 01:58:26.25	336.27	5.11	-44.2	-48.3	12.1	1.73e-04	92	39	0	1398800384	60	9394
2026-01-03 01:58:30.29	336.54	4.85	-44.7	-50.3	9.5	1.36e-02	66	39	0	1407188992	60	11779
2026-01-03 01:58:34.33	336.81	4.60	-45.0	-52.2	6.7	1.56e-01	2	39	0	1414529024	60	14698
2026-01-03 01:58:38.37	337.07	4.35	-45.1	-53.9	4.8	6.20e-01	20	39	0	1421869056	60	17870
2026-01-03 01:58:42.41	337.33	4.09	-45.1	-57.3	3.9	1.49e+00	0	39	104	1428160512	60	26509
2026-01-03 01:58:46.45	337.59	3.85	-45.0	-59.0	3.6	1.51e+00	0	39	104	1428160512	60	32070
2026-01-03 01:58:50.49	337.84	3.60	-44.9	-60.2	3.6	1.51e+00	0	39	104	1428160512	60	36809
2026-01-03 01:58:54.53	338.09	3.35	-44.9	-60.1	3.6	1.51e+00	0	40	104	1428160512	60	36472
2026-01-03 01:58:58.57	338.33	3.11	-45.0	-60.2	3.6	1.51e+00	0	39	104	1428160512	60	37035
2026-01-03 01:59:02.60	338.57	2.87	-49.4	-64.5	3.6	1.51e+00	0	40	104	1428160512	60	60771
2026-01-03 01:59:06.64	338.81	2.63	-49.9	-65.2	3.6	1.51e+00	0	39	104	1428160512	60	65576
2026-01-03 01:59:10.68	339.04	2.39	-49.8	-65.2	3.6	1.51e+00	0	39	104	1428160512	60	65472
2026-01-03 01:59:14.72	339.27	2.15	-49.9	-65.1	3.6	1.51e+00	0	40	104	1428160512	60	65181
2026-01-03 01:59:18.76	339.49	1.92	-49.9	-65.1	3.5	1.51e+00	0	40	104	1428160512	60	65243
2026-01-03 01:59:22.80	339.72	1.68	-49.9	-65.1	3.6	1.51e+00	0	40	104	1428160512	60	65289
2026-01-03 01:59:26.84	339.94	1.45	-49.9	-65.2	3.6	1.51e+00	0	40	104	1428160512	60	65420
2026-01-03 01:59:30.88	340.15	1.22	-49.9	-65.2	3.6	1.51e+00	0	40	104	1428160512	60	65620
2026-01-03 01:59:34.92	340.37	0.99	-49.9	-65.2	3.6	1.51e+00	0	40	104	1428160512	60	65461
2026-01-03 01:59:38.96	340.58	0.77	-49.9	-65.1	3.6	1.51e+00	0	40	104	1428160512	60	65029
2026-01-03 01:59:43.00	340.79	0.54	-50.0	-65.2	3.6	1.51e+00	0	40	104	1428160512	60	65425
2026-01-03 01:59:47.04	340.99	0.32	-49.9	-65.1	3.6	1.51e+00	0	40	104	1428160512	60	65325
2026-01-03 01:59:51.08	341.19	0.09	-50.0	-65.2	3.6	1.51e+00	0	40	104	1428160512	60	65769

#Closed at: 2026-01-03 01:59:53
#Recorded file [1428 MB]: D:/lorett/data/35029_260103_134506.dat