passes_logs/2026/01/01/R4.6S_Anadyr/R4.6S_Anadyr__20260101_124656_NOAA_20_JPSS-1_rec.log

#Pass ID: 20260101_124656_NOAA 20 (JPSS-1)
#Satellite: NOAA 20 (JPSS-1)
#Configuration: NOAA 20
#almurnet v.1.7.20251203
#Start time: 2026-01-01 12:46:58

#Version: 2.2.20231116
#Station: R4.6S_Anadyr
#Location: 177.4865 lon 64.73178 lat
#TLE: 1 43013U 17073A   25364.89373485  .00000164  00000+0  98659-4 0  9997
#TLE: 2 43013  98.7619 300.9939 0001957  61.1511 298.9862 14.19531413420599

#Time	Az	El	Level	Level2	SNR	BER	BlckErr	Temp	State	Recorded	gain1	gain2
2026-01-01 12:46:58.36	18.86	0.11	-49.1	-64.1	3.5	1.51e+00	0	35	0	0	60	57830
2026-01-01 12:47:02.39	19.12	0.32	-49.1	-64.3	3.6	1.51e+00	0	37	104	0	60	59217
2026-01-01 12:47:06.43	19.37	0.53	-49.1	-64.4	3.6	1.51e+00	0	37	104	0	60	59873
2026-01-01 12:47:10.47	19.63	0.75	-48.8	-64.0	3.6	1.51e+00	0	37	104	0	60	57204
2026-01-01 12:47:14.51	19.89	0.96	-47.9	-63.1	3.6	1.51e+00	0	37	104	0	60	51738
2026-01-01 12:47:18.56	20.16	1.18	-47.5	-62.6	3.6	1.51e+00	0	37	104	0	60	48986
2026-01-01 12:47:22.60	20.43	1.40	-47.5	-62.7	3.6	1.51e+00	0	37	104	0	60	49280
2026-01-01 12:47:26.64	20.70	1.61	-47.5	-62.7	3.6	1.51e+00	0	37	104	0	60	49290
2026-01-01 12:47:30.68	20.98	1.83	-47.5	-62.6	3.6	1.51e+00	0	37	104	0	60	48827
2026-01-01 12:47:34.72	21.26	2.05	-47.5	-62.7	3.6	1.51e+00	0	37	104	0	60	49135
2026-01-01 12:47:38.75	21.54	2.28	-47.5	-62.1	3.6	1.51e+00	0	37	104	0	60	46250
2026-01-01 12:47:42.79	21.83	2.50	-47.5	-61.6	3.6	1.51e+00	0	37	104	0	60	43560
2026-01-01 12:47:46.83	22.13	2.72	-45.3	-49.3	12.4	1.85e-03	0	37	0	4194304	60	10583
2026-01-01 12:47:50.86	22.42	2.95	-41.6	-43.3	18.4	0.00e+00	1	37	0	11534336	56	6636
2026-01-01 12:47:54.90	22.72	3.18	-44.1	-47.1	14.5	0.00e+00	85	37	0	18874368	60	8219
2026-01-01 12:47:58.93	23.03	3.40	-47.4	-60.2	3.6	2.29e-03	52	37	104	26214400	60	36777
2026-01-01 12:48:02.98	23.34	3.63	-41.4	-43.0	19.0	0.00e+00	1	37	0	31457280	56	6419
2026-01-01 12:48:07.01	23.65	3.86	-41.3	-42.9	19.2	0.00e+00	0	38	0	38797312	56	6355
2026-01-01 12:48:11.05	23.97	4.10	-41.2	-42.7	19.2	0.00e+00	91	38	0	46137344	56	6199
2026-01-01 12:48:15.09	24.30	4.33	-41.1	-42.6	19.4	0.00e+00	0	37	0	54525952	56	6135
2026-01-01 12:48:19.13	24.63	4.57	-41.4	-43.0	19.0	0.00e+00	2	37	0	61865984	56	6440
2026-01-01 12:48:23.16	24.96	4.80	-41.3	-42.8	19.4	0.00e+00	0	37	0	69206016	56	6275
2026-01-01 12:48:27.20	25.30	5.04	-41.1	-42.6	19.5	0.00e+00	92	37	0	76546048	56	6134
2026-01-01 12:48:31.24	25.64	5.28	-41.1	-42.6	19.6	0.00e+00	0	37	0	83886080	56	6118
2026-01-01 12:48:35.28	25.99	5.52	-40.7	-42.1	20.0	0.00e+00	0	37	0	92274688	54	6539
2026-01-01 12:48:39.32	26.35	5.76	-40.7	-42.0	20.1	0.00e+00	0	37	0	99614720	54	6436
2026-01-01 12:48:43.36	26.71	6.00	-40.8	-42.1	20.1	0.00e+00	92	37	0	106954752	54	6520
2026-01-01 12:48:47.39	27.07	6.25	-40.4	-41.7	20.4	0.00e+00	81	37	0	114294784	54	6210
2026-01-01 12:48:51.43	27.45	6.49	-40.3	-41.6	20.5	0.00e+00	0	37	0	122683392	54	6125
2026-01-01 12:48:55.47	27.83	6.74	-40.6	-42.0	20.2	0.00e+00	81	37	0	130023424	54	6395
2026-01-01 12:48:59.50	28.21	6.99	-40.8	-42.2	19.9	0.00e+00	91	37	0	137363456	54	6577
2026-01-01 12:49:03.54	28.60	7.24	-40.8	-42.1	20.0	0.00e+00	0	37	0	144703488	54	6527
2026-01-01 12:49:07.57	29.00	7.49	-40.9	-42.3	20.0	0.00e+00	0	37	0	152043520	54	6667
2026-01-01 12:49:11.61	29.40	7.74	-40.7	-42.0	20.1	0.00e+00	74	37	0	160432128	54	6456
2026-01-01 12:49:15.65	29.81	7.99	-40.5	-41.8	20.6	0.00e+00	89	37	0	167772160	54	6251
2026-01-01 12:49:19.68	30.23	8.25	-40.3	-41.6	20.8	0.00e+00	0	37	0	175112192	54	6107
2026-01-01 12:49:23.72	30.65	8.50	-40.2	-41.4	21.0	0.00e+00	6	37	0	182452224	54	6032
2026-01-01 12:49:27.75	31.08	8.76	-40.1	-41.3	21.1	0.00e+00	0	37	0	189792256	54	5921
2026-01-01 12:49:31.79	31.52	9.02	-39.9	-41.1	21.3	0.00e+00	88	37	0	198180864	54	5807
2026-01-01 12:49:35.82	31.97	9.28	-39.9	-41.0	21.4	0.00e+00	86	37	0	205520896	54	5748
2026-01-01 12:49:39.86	32.42	9.54	-39.7	-40.8	21.6	0.00e+00	87	37	0	212860928	52	6295
2026-01-01 12:49:43.90	32.88	9.80	-39.5	-40.6	21.8	0.00e+00	75	37	0	220200960	52	6123
2026-01-01 12:49:47.93	33.35	10.07	-39.7	-40.8	21.6	0.00e+00	6	37	0	228589568	52	6252
2026-01-01 12:49:51.97	33.83	10.33	-39.5	-40.6	21.9	0.00e+00	6	37	0	235929600	52	6158
2026-01-01 12:49:56.01	34.32	10.60	-39.5	-40.6	21.9	0.00e+00	77	37	0	243269632	52	6131
2026-01-01 12:50:00.04	34.81	10.87	-39.5	-40.6	21.9	0.00e+00	92	37	0	250609664	52	6139
2026-01-01 12:50:04.08	35.32	11.13	-39.4	-40.5	22.1	0.00e+00	2	37	0	257949696	52	6079
2026-01-01 12:50:08.12	35.83	11.40	-39.3	-40.4	22.2	0.00e+00	0	37	0	266338304	52	5977
2026-01-01 12:50:12.16	36.35	11.67	-39.1	-40.2	22.3	0.00e+00	0	37	0	273678336	52	5834
2026-01-01 12:50:16.20	36.88	11.95	-39.0	-40.0	22.5	0.00e+00	92	37	0	281018368	52	5704
2026-01-01 12:50:20.23	37.42	12.22	-39.0	-40.1	22.4	0.00e+00	0	37	0	288358400	52	5771
2026-01-01 12:50:24.27	37.98	12.49	-39.0	-40.0	22.6	0.00e+00	0	37	0	295698432	52	5729
2026-01-01 12:50:28.31	38.54	12.76	-38.8	-39.9	22.6	0.00e+00	0	37	0	304087040	52	5632
2026-01-01 12:50:32.35	39.11	13.04	-39.2	-40.2	22.4	0.00e+00	91	37	0	311427072	52	5890
2026-01-01 12:50:36.38	39.69	13.31	-39.2	-40.2	22.3	0.00e+00	0	37	0	318767104	52	5896
2026-01-01 12:50:40.42	40.28	13.59	-38.9	-39.9	22.6	0.00e+00	0	37	0	326107136	52	5687
2026-01-01 12:50:44.46	40.88	13.86	-38.9	-39.9	22.7	0.00e+00	76	37	0	334495744	52	5659
2026-01-01 12:50:48.49	41.49	14.14	-38.8	-39.8	22.7	0.00e+00	90	37	0	341835776	50	6275
2026-01-01 12:50:52.52	42.12	14.41	-38.7	-39.7	22.8	0.00e+00	0	37	0	349175808	50	6175
2026-01-01 12:50:56.56	42.75	14.69	-38.7	-39.7	22.8	0.00e+00	3	37	0	356515840	50	6204
2026-01-01 12:51:00.60	43.40	14.96	-38.8	-39.7	22.8	0.00e+00	0	37	0	363855872	50	6228
2026-01-01 12:51:04.64	44.06	15.24	-38.8	-39.8	22.8	0.00e+00	92	37	0	372244480	50	6251
2026-01-01 12:51:08.67	44.73	15.51	-38.9	-39.9	22.7	0.00e+00	6	37	0	379584512	50	6328
2026-01-01 12:51:12.71	45.41	15.79	-38.9	-39.9	22.8	0.00e+00	5	37	0	386924544	50	6339
2026-01-01 12:51:16.75	46.11	16.06	-38.6	-39.5	23.1	0.00e+00	9	37	0	394264576	50	6083
2026-01-01 12:51:20.79	46.82	16.34	-38.6	-39.6	23.0	0.00e+00	92	37	0	402653184	50	6126
2026-01-01 12:51:24.82	47.54	16.61	-38.4	-39.3	23.3	0.00e+00	0	37	0	409993216	50	5954
2026-01-01 12:51:28.86	48.27	16.88	-37.9	-38.8	23.7	0.00e+00	0	37	0	417333248	50	5573
2026-01-01 12:51:32.89	49.01	17.14	-37.8	-38.7	23.8	0.00e+00	90	37	0	424673280	50	5515
2026-01-01 12:51:36.93	49.77	17.41	-37.7	-38.6	23.9	0.00e+00	17	37	0	432013312	48	6132
2026-01-01 12:51:40.96	50.54	17.68	-37.7	-38.6	23.9	0.00e+00	7	37	0	440401920	48	6150
2026-01-01 12:51:45.00	51.33	17.94	-37.7	-38.6	24.0	0.00e+00	75	37	0	447741952	48	6119
2026-01-01 12:51:49.03	52.13	18.20	-37.8	-38.7	23.8	0.00e+00	92	37	0	455081984	48	6211
2026-01-01 12:51:53.07	52.94	18.46	-38.0	-38.9	23.6	0.00e+00	0	37	0	462422016	48	6389
2026-01-01 12:51:57.11	53.76	18.71	-38.6	-39.6	23.0	0.00e+00	0	37	0	470810624	48	6892
2026-01-01 12:52:01.15	54.60	18.96	-38.8	-39.8	22.9	0.00e+00	4	37	0	478150656	50	6280
2026-01-01 12:52:05.18	55.45	19.21	-39.0	-40.0	22.7	0.00e+00	92	37	0	485490688	50	6436
2026-01-01 12:52:09.22	56.32	19.46	-39.5	-40.6	22.0	0.00e+00	0	37	0	492830720	50	6860
2026-01-01 12:52:13.25	57.20	19.70	-40.1	-41.3	21.5	0.00e+00	0	37	0	500170752	52	6645
2026-01-01 12:52:17.28	58.09	19.93	-40.3	-41.5	21.4	0.00e+00	0	37	0	508559360	52	6842
2026-01-01 12:52:21.32	59.00	20.16	-40.1	-41.2	21.5	0.00e+00	92	37	0	515899392	52	6576
2026-01-01 12:52:25.36	59.92	20.39	-40.0	-41.2	21.7	0.00e+00	6	37	0	523239424	52	6551
2026-01-01 12:52:29.40	60.85	20.61	-39.8	-40.9	21.9	0.00e+00	6	37	0	530579456	52	6343
2026-01-01 12:52:33.44	61.80	20.82	-39.3	-40.4	22.3	0.00e+00	0	37	0	538968064	52	5997
2026-01-01 12:52:37.47	62.75	21.03	-39.1	-40.1	22.6	0.00e+00	92	37	0	546308096	52	5800
2026-01-01 12:52:41.51	63.73	21.24	-39.6	-40.7	22.1	0.00e+00	0	37	0	553648128	52	6178
2026-01-01 12:52:45.55	64.71	21.43	-39.4	-40.4	22.3	0.00e+00	5	37	0	560988160	52	6017
2026-01-01 12:52:49.59	65.71	21.62	-39.1	-40.1	22.6	0.00e+00	0	37	0	568328192	52	5815
2026-01-01 12:52:53.63	66.72	21.80	-39.5	-40.6	22.2	0.00e+00	92	37	0	576716800	52	6107
2026-01-01 12:52:57.66	67.73	21.98	-39.1	-40.1	22.7	0.00e+00	3	37	0	584056832	52	5773
2026-01-01 12:53:01.70	68.77	22.14	-38.3	-39.5	21.3	9.18e-03	0	37	0	591396864	50	6052
2026-01-01 12:53:05.74	69.81	22.30	-38.2	-39.3	21.3	1.80e-03	0	37	0	598736896	50	5952
2026-01-01 12:53:09.78	70.86	22.45	-38.7	-39.6	23.0	0.00e+00	90	37	0	607125504	50	6150
2026-01-01 12:53:13.81	71.92	22.59	-38.7	-39.7	22.9	0.00e+00	3	37	0	614465536	50	6203
2026-01-01 12:53:17.85	72.99	22.72	-39.1	-40.1	22.6	0.00e+00	80	37	0	621805568	50	6493
2026-01-01 12:53:21.89	74.07	22.84	-39.4	-40.4	22.3	0.00e+00	19	37	0	629145600	50	6766
2026-01-01 12:53:25.92	75.15	22.95	-39.2	-40.3	22.5	0.00e+00	92	37	0	636485632	50	6624
2026-01-01 12:53:29.96	76.25	23.05	-39.0	-39.9	22.7	0.00e+00	6	37	0	644874240	50	6370
2026-01-01 12:53:33.99	77.34	23.14	-38.7	-39.7	22.9	0.00e+00	79	37	0	652214272	50	6205
2026-01-01 12:53:38.03	78.45	23.22	-38.3	-39.3	23.4	0.00e+00	92	37	0	659554304	50	5919
2026-01-01 12:53:42.06	79.56	23.29	-38.9	-39.8	22.8	0.00e+00	75	37	0	666894336	50	6306
2026-01-01 12:53:46.10	80.68	23.35	-38.6	-39.6	23.1	0.00e+00	0	37	0	674234368	50	6144
2026-01-01 12:53:50.14	81.80	23.39	-38.4	-39.3	23.2	0.00e+00	0	37	0	682622976	50	5954
2026-01-01 12:53:54.17	82.92	23.43	-38.8	-39.7	22.8	0.00e+00	92	37	0	689963008	50	6228
2026-01-01 12:53:58.20	84.04	23.45	-38.5	-39.4	23.2	0.00e+00	5	37	0	697303040	50	6015
2026-01-01 12:54:02.24	85.17	23.47	-38.7	-39.7	22.9	0.00e+00	76	37	0	704643072	50	6222
2026-01-01 12:54:06.28	86.30	23.47	-39.5	-40.6	22.2	0.00e+00	0	37	0	713031680	50	6883
2026-01-01 12:54:10.32	87.43	23.46	-39.1	-40.1	22.6	0.00e+00	92	37	0	720371712	50	6523
2026-01-01 12:54:14.35	88.55	23.44	-38.6	-39.5	23.1	0.00e+00	0	37	0	727711744	50	6074
2026-01-01 12:54:18.39	89.68	23.41	-38.5	-39.4	23.2	0.00e+00	2	37	0	735051776	50	5992
2026-01-01 12:54:22.43	90.80	23.37	-39.2	-40.2	22.5	0.00e+00	73	37	0	742391808	50	6602
2026-01-01 12:54:26.47	91.92	23.31	-39.0	-40.0	22.7	0.00e+00	90	37	0	750780416	50	6448
2026-01-01 12:54:30.51	93.03	23.25	-38.7	-39.6	22.9	0.00e+00	0	37	0	758120448	50	6164
2026-01-01 12:54:34.55	94.14	23.17	-39.3	-40.4	22.4	0.00e+00	0	37	0	765460480	50	6693
2026-01-01 12:54:38.59	95.25	23.09	-39.0	-40.0	22.7	0.00e+00	0	37	0	772800512	50	6394
2026-01-01 12:54:42.62	96.35	22.99	-38.9	-39.9	22.7	0.00e+00	60	37	0	781189120	50	6356
2026-01-01 12:54:46.66	97.44	22.88	-38.3	-39.2	23.3	0.00e+00	0	37	0	788529152	50	5881
2026-01-01 12:54:50.70	98.52	22.77	-37.8	-38.6	23.5	0.00e+00	0	37	0	795869184	50	5498
2026-01-01 12:54:54.74	99.60	22.64	-37.2	-38.1	24.2	0.00e+00	21	37	0	803209216	48	5801
2026-01-01 12:54:58.77	100.66	22.51	-37.3	-38.1	24.3	0.00e+00	5	37	0	810549248	48	5819
2026-01-01 12:55:02.81	101.72	22.36	-37.4	-38.3	24.2	0.00e+00	0	37	0	818937856	48	5897
2026-01-01 12:55:06.85	102.77	22.21	-36.7	-37.5	24.8	0.00e+00	0	37	0	826277888	46	6087
2026-01-01 12:55:10.89	103.81	22.04	-36.7	-37.5	24.7	0.00e+00	91	37	0	833617920	46	6078
2026-01-01 12:55:14.92	104.83	21.87	-36.9	-37.7	24.6	0.00e+00	5	37	0	840957952	46	6235
2026-01-01 12:55:18.96	105.85	21.69	-36.9	-37.8	24.5	0.00e+00	6	37	0	848297984	46	6257
2026-01-01 12:55:23.00	106.85	21.51	-37.6	-38.5	23.7	0.00e+00	76	37	0	856686592	46	6813
2026-01-01 12:55:27.04	107.85	21.31	-37.0	-37.8	24.5	0.00e+00	92	37	0	864026624	46	6286
2026-01-01 12:55:31.08	108.83	21.11	-36.7	-37.6	24.6	0.00e+00	0	37	0	871366656	46	6111
2026-01-01 12:55:35.12	109.79	20.90	-37.7	-38.6	23.3	0.00e+00	2	37	0	878706688	46	6876
2026-01-01 12:55:39.16	110.75	20.69	-38.5	-39.5	23.0	0.00e+00	0	38	0	887095296	48	6775
2026-01-01 12:55:43.20	111.69	20.47	-38.5	-39.5	23.0	0.00e+00	90	37	0	894435328	48	6789
2026-01-01 12:55:47.24	112.62	20.25	-37.9	-38.8	23.6	0.00e+00	0	37	0	901775360	48	6255
2026-01-01 12:55:51.28	113.54	20.01	-37.7	-38.6	23.8	0.00e+00	0	37	0	909115392	48	6155
2026-01-01 12:55:55.31	114.44	19.78	-38.3	-39.3	23.1	0.00e+00	0	37	0	916455424	48	6636
2026-01-01 12:55:59.35	115.32	19.54	-38.6	-39.6	22.8	0.00e+00	92	38	0	924844032	48	6900
2026-01-01 12:56:03.39	116.20	19.30	-38.1	-39.1	23.3	0.00e+00	0	38	0	932184064	48	6472
2026-01-01 12:56:07.42	117.06	19.05	-37.8	-38.7	23.6	0.00e+00	82	37	0	939524096	48	6215
2026-01-01 12:56:11.46	117.91	18.80	-38.1	-39.0	23.3	0.00e+00	0	37	0	946864128	48	6456
2026-01-01 12:56:15.50	118.74	18.54	-38.2	-39.1	23.3	0.00e+00	92	37	0	955252736	48	6505
2026-01-01 12:56:19.54	119.56	18.28	-38.4	-39.3	23.1	0.00e+00	0	37	0	962592768	48	6686
2026-01-01 12:56:23.58	120.37	18.02	-39.0	-40.0	22.6	0.00e+00	2	37	0	969932800	50	6426
2026-01-01 12:56:27.61	121.16	17.76	-39.0	-40.1	22.5	0.00e+00	0	37	0	977272832	50	6489
2026-01-01 12:56:31.65	121.94	17.49	-38.1	-39.0	23.4	0.00e+00	92	37	0	984612864	50	5711
2026-01-01 12:56:35.69	122.71	17.22	-39.4	-40.4	22.1	0.00e+00	0	37	0	993001472	50	6759
2026-01-01 12:56:39.73	123.46	16.95	-38.9	-39.9	22.7	0.00e+00	6	37	0	1000341504	50	6345
2026-01-01 12:56:43.77	124.20	16.68	-39.0	-40.0	22.5	0.00e+00	90	37	0	1007681536	50	6433
2026-01-01 12:56:47.81	124.93	16.41	-38.6	-39.6	22.9	0.00e+00	85	37	0	1015021568	50	6117
2026-01-01 12:56:51.85	125.65	16.13	-38.4	-39.3	23.1	0.00e+00	0	37	0	1023410176	50	5962
2026-01-01 12:56:55.89	126.35	15.86	-39.0	-40.0	22.5	0.00e+00	8	38	0	1030750208	50	6438
2026-01-01 12:56:59.93	127.04	15.58	-38.1	-39.1	23.3	0.00e+00	92	38	0	1038090240	50	5771
2026-01-01 12:57:03.97	127.72	15.31	-39.2	-40.2	22.2	0.00e+00	61	38	0	1045430272	50	6584
2026-01-01 12:57:08.01	128.38	15.03	-39.3	-40.4	22.1	0.00e+00	0	38	0	1052770304	50	6732
2026-01-01 12:57:12.04	129.03	14.75	-38.9	-39.9	22.5	0.00e+00	80	38	0	1061158912	50	6347
2026-01-01 12:57:16.08	129.68	14.47	-39.4	-40.4	22.0	0.00e+00	91	38	0	1068498944	50	6750
2026-01-01 12:57:20.12	130.31	14.19	-39.0	-40.1	22.3	0.00e+00	2	38	0	1075838976	50	6491
2026-01-01 12:57:24.16	130.93	13.92	-38.8	-39.8	22.5	0.00e+00	1	38	0	1083179008	50	6289
2026-01-01 12:57:28.20	131.53	13.64	-39.4	-40.5	21.9	0.00e+00	80	38	0	1091567616	50	6793
2026-01-01 12:57:32.23	132.13	13.36	-39.0	-40.0	22.4	0.00e+00	92	38	0	1098907648	50	6423
2026-01-01 12:57:36.27	132.72	13.09	-39.3	-40.4	22.0	0.00e+00	0	38	0	1106247680	50	6728
2026-01-01 12:57:40.31	133.29	12.81	-39.5	-40.6	21.8	0.00e+00	0	38	0	1113587712	50	6910
2026-01-01 12:57:44.35	133.86	12.53	-39.4	-40.5	21.9	0.00e+00	0	38	0	1120927744	50	6776
2026-01-01 12:57:48.39	134.41	12.26	-38.8	-39.9	22.3	0.00e+00	92	38	0	1129316352	50	6324
2026-01-01 12:57:52.42	134.96	11.98	-39.3	-40.4	22.0	0.00e+00	80	38	0	1136656384	50	6718
2026-01-01 12:57:56.46	135.50	11.71	-39.3	-40.4	21.9	0.00e+00	82	38	0	1143996416	50	6705
2026-01-01 12:58:00.50	136.02	11.44	-39.5	-40.7	21.7	0.00e+00	0	38	0	1151336448	50	6942
2026-01-01 12:58:04.54	136.54	11.16	-39.8	-41.0	21.4	0.00e+00	91	38	0	1159725056	52	6442
2026-01-01 12:58:08.57	137.05	10.89	-39.8	-41.0	21.4	0.00e+00	81	38	0	1167065088	52	6399
2026-01-01 12:58:12.61	137.54	10.62	-39.6	-40.7	21.6	0.00e+00	0	38	0	1174405120	52	6241
2026-01-01 12:58:16.65	138.04	10.36	-39.6	-40.8	21.6	0.00e+00	0	38	0	1181745152	52	6267
2026-01-01 12:58:20.69	138.52	10.09	-40.1	-41.3	21.0	0.00e+00	91	38	0	1189085184	52	6642
2026-01-01 12:58:24.73	138.99	9.82	-40.7	-42.0	20.2	0.00e+00	0	38	0	1197473792	52	7198
2026-01-01 12:58:28.77	139.46	9.56	-41.4	-42.9	19.2	0.00e+00	0	38	0	1204813824	54	7140
2026-01-01 12:58:32.81	139.91	9.29	-42.0	-43.6	18.3	0.00e+00	92	38	0	1212153856	56	6923
2026-01-01 12:58:36.84	140.36	9.03	-42.3	-44.2	17.5	0.00e+00	5	38	0	1219493888	56	7381
2026-01-01 12:58:40.88	140.80	8.77	-42.7	-44.8	16.6	0.00e+00	3	38	0	1227882496	56	7947
2026-01-01 12:58:44.92	141.24	8.51	-42.8	-45.0	16.4	0.00e+00	0	38	0	1235222528	58	7244
2026-01-01 12:58:48.95	141.66	8.25	-42.5	-44.6	16.8	0.00e+00	92	38	0	1242562560	58	6904
2026-01-01 12:58:52.99	142.08	7.99	-42.3	-44.2	17.3	0.00e+00	81	38	0	1249902592	58	6592
2026-01-01 12:58:57.02	142.49	7.74	-42.5	-44.5	17.2	0.00e+00	81	38	0	1257242624	58	6790
2026-01-01 12:59:01.06	142.90	7.48	-42.2	-44.1	17.5	0.00e+00	0	38	0	1265631232	58	6533
2026-01-01 12:59:05.10	143.30	7.23	-42.0	-43.9	17.7	0.00e+00	92	38	0	1272971264	58	6380
2026-01-01 12:59:09.14	143.69	6.98	-41.4	-43.1	18.6	0.00e+00	0	38	0	1280311296	56	6521
2026-01-01 12:59:13.18	144.08	6.72	-41.0	-42.5	19.4	0.00e+00	82	38	0	1287651328	56	6082
2026-01-01 12:59:17.22	144.46	6.47	-41.0	-42.5	19.4	0.00e+00	82	38	0	1294991360	56	6036
2026-01-01 12:59:21.26	144.83	6.23	-41.1	-42.7	19.1	0.00e+00	90	38	0	1303379968	56	6188
2026-01-01 12:59:25.29	145.20	5.98	-41.5	-43.1	18.8	0.00e+00	0	38	0	1310720000	56	6496
2026-01-01 12:59:29.33	145.56	5.74	-41.4	-43.0	18.9	0.00e+00	0	38	0	1318060032	56	6413
2026-01-01 12:59:33.38	145.91	5.49	-41.3	-43.0	18.8	0.00e+00	0	38	0	1325400064	56	6396
2026-01-01 12:59:37.41	146.26	5.25	-41.2	-42.7	19.1	0.00e+00	90	38	0	1333788672	56	6239
2026-01-01 12:59:41.45	146.61	5.01	-41.0	-42.5	19.3	0.00e+00	0	38	0	1341128704	56	6062
2026-01-01 12:59:45.49	146.95	4.77	-41.2	-42.8	19.0	0.00e+00	0	38	0	1348468736	56	6276
2026-01-01 12:59:49.53	147.28	4.53	-41.3	-43.0	18.8	0.00e+00	0	38	0	1355808768	56	6427
2026-01-01 12:59:53.57	147.61	4.29	-41.3	-42.9	18.7	0.00e+00	92	38	0	1363148800	56	6356
2026-01-01 12:59:57.61	147.93	4.06	-41.4	-43.0	18.6	0.00e+00	81	38	0	1371537408	56	6454
2026-01-01 13:00:01.65	148.25	3.82	-41.1	-42.8	18.7	0.00e+00	81	38	0	1378877440	56	6293
2026-01-01 13:00:05.69	148.57	3.59	-41.3	-43.1	18.2	0.00e+00	91	38	0	1386217472	56	6509
2026-01-01 13:00:09.73	148.88	3.36	-41.5	-43.3	18.0	0.00e+00	0	38	0	1393557504	56	6660
2026-01-01 13:00:13.77	149.18	3.13	-41.7	-43.6	17.8	0.00e+00	0	38	0	1401946112	56	6850
2026-01-01 13:00:17.80	149.48	2.90	-48.0	-63.2	3.6	1.51e+00	0	38	104	1405091840	60	52021
2026-01-01 13:00:21.85	149.78	2.67	-48.9	-64.1	3.6	1.51e+00	0	38	104	1405091840	60	58066
2026-01-01 13:00:25.88	150.07	2.44	-49.0	-64.2	3.6	1.51e+00	0	38	104	1405091840	60	58657
2026-01-01 13:00:29.92	150.36	2.22	-49.0	-64.2	3.6	1.51e+00	0	38	104	1405091840	60	58559
2026-01-01 13:00:33.97	150.64	1.99	-49.0	-64.2	3.6	1.51e+00	0	38	104	1405091840	60	58670
2026-01-01 13:00:38.00	150.92	1.77	-49.0	-64.2	3.6	1.51e+00	0	38	104	1405091840	60	58314
2026-01-01 13:00:42.05	151.20	1.55	-49.0	-64.2	3.6	1.51e+00	0	38	104	1405091840	60	58480
2026-01-01 13:00:46.08	151.47	1.33	-49.0	-64.2	3.6	1.51e+00	0	38	104	1405091840	60	58599
2026-01-01 13:00:50.13	151.74	1.11	-49.0	-64.1	3.6	1.51e+00	0	38	104	1405091840	60	58153
2026-01-01 13:00:54.17	152.00	0.89	-49.0	-64.2	3.6	1.51e+00	0	38	104	1405091840	60	58559
2026-01-01 13:00:58.21	152.26	0.67	-49.0	-64.1	3.6	1.51e+00	0	38	104	1405091840	60	58240
2026-01-01 13:01:02.25	152.52	0.46	-49.0	-64.1	3.6	1.51e+00	0	38	104	1405091840	60	58212
2026-01-01 13:01:06.29	152.77	0.24	-49.0	-64.2	3.6	1.51e+00	0	38	104	1405091840	60	58375
2026-01-01 13:01:10.33	153.02	0.03	-49.0	-64.2	3.6	1.51e+00	0	38	104	1405091840	60	58535

#Closed at: 2026-01-01 13:01:11
#Recorded file [1405 MB]: D:/lorett/data/35029_260102_004658.dat