passes_logs/2026/01/01/R4.6S_Anadyr/R4.6S_Anadyr__20260101_172659_SUOMI_NPP_rec.log

#Pass ID: 20260101_172659_SUOMI NPP
#Satellite: SUOMI NPP
#Configuration: NPP
#almurnet v.1.7.20251203
#Start time: 2026-01-01 17:27:02

#Version: 2.2.20231116
#Station: R4.6S_Anadyr
#Location: 177.4865 lon 64.73178 lat
#TLE: 1 37849U 11061A   25364.87906318  .00000195  00000+0  11345-3 0  9993
#TLE: 2 37849  98.7794 302.0592 0002571  89.2401 270.9069 14.19520347734561

#Time	Az	El	Level	Level2	SNR	BER	BlckErr	Temp	State	Recorded	gain1	gain2
2026-01-01 17:27:02.37	31.45	0.14	-49.0	-60.7	3.5	8.44e-01	0	36	0	0	60	39175
2026-01-01 17:27:06.40	31.22	0.35	-49.2	-64.4	3.6	1.51e+00	0	37	104	0	60	60227
2026-01-01 17:27:10.44	30.98	0.57	-49.1	-64.4	3.6	1.51e+00	0	38	104	0	60	59651
2026-01-01 17:27:14.48	30.73	0.79	-48.8	-64.0	3.6	1.51e+00	0	38	104	0	60	57063
2026-01-01 17:27:18.52	30.49	1.01	-47.7	-62.9	3.6	1.51e+00	0	38	104	0	60	50623
2026-01-01 17:27:22.56	30.24	1.23	-47.7	-62.9	3.6	1.51e+00	0	38	104	0	60	50246
2026-01-01 17:27:26.60	29.98	1.45	-47.7	-62.8	3.6	1.51e+00	0	38	104	0	60	49991
2026-01-01 17:27:30.64	29.72	1.68	-47.7	-62.8	3.6	1.51e+00	0	38	104	0	60	49988
2026-01-01 17:27:34.68	29.46	1.90	-47.7	-62.8	3.6	1.51e+00	0	38	104	0	60	50124
2026-01-01 17:27:38.72	29.19	2.13	-47.6	-62.5	3.6	1.51e+00	0	38	104	0	60	48273
2026-01-01 17:27:42.76	28.92	2.35	-47.6	-62.5	3.6	1.51e+00	0	38	104	0	60	48240
2026-01-01 17:27:46.80	28.65	2.58	-47.6	-62.8	3.6	1.51e+00	0	38	104	0	60	49807
2026-01-01 17:27:50.84	28.37	2.81	-47.6	-62.4	3.6	1.51e+00	0	38	104	0	60	47540
2026-01-01 17:27:54.88	28.08	3.04	-47.6	-62.5	3.6	1.51e+00	0	38	104	0	60	48293
2026-01-01 17:27:58.92	27.79	3.27	-46.7	-53.3	7.7	2.40e-01	0	38	0	2097152	60	16618
2026-01-01 17:28:02.96	27.50	3.51	-46.6	-53.4	8.0	1.43e+00	2	38	104	5242880	60	16883
2026-01-01 17:28:07.00	27.20	3.74	-43.3	-45.6	16.1	0.00e+00	89	38	0	6291456	60	6876
2026-01-01 17:28:11.04	26.89	3.98	-43.0	-45.2	16.7	0.00e+00	0	38	0	14680064	58	7348
2026-01-01 17:28:15.08	26.58	4.21	-42.2	-44.1	17.8	0.00e+00	0	38	0	22020096	58	6475
2026-01-01 17:28:19.12	26.27	4.45	-42.0	-43.8	18.1	0.00e+00	89	38	0	29360128	58	6291
2026-01-01 17:28:23.15	25.95	4.69	-41.8	-43.4	18.5	0.00e+00	0	38	0	36700160	56	6759
2026-01-01 17:28:27.19	25.62	4.93	-41.8	-43.4	18.6	0.00e+00	21	38	0	44040192	56	6737
2026-01-01 17:28:31.23	25.29	5.17	-41.6	-43.1	18.8	0.00e+00	0	38	0	52428800	56	6524
2026-01-01 17:28:35.27	24.95	5.41	-41.5	-43.0	19.0	0.00e+00	45	38	0	59768832	56	6448
2026-01-01 17:28:39.31	24.61	5.66	-41.5	-43.1	19.2	0.00e+00	0	38	0	67108864	56	6483
2026-01-01 17:28:43.34	24.26	5.90	-41.7	-43.4	18.9	0.00e+00	0	39	0	74448896	56	6700
2026-01-01 17:28:47.38	23.90	6.15	-41.7	-43.4	18.8	0.00e+00	13	38	0	82837504	56	6703
2026-01-01 17:28:51.42	23.54	6.40	-42.0	-43.7	18.5	0.00e+00	92	38	0	90177536	56	6969
2026-01-01 17:28:55.46	23.17	6.65	-42.0	-43.7	18.8	0.00e+00	0	39	0	97517568	56	6944
2026-01-01 17:28:59.49	22.80	6.90	-42.0	-43.7	18.7	0.00e+00	0	39	0	104857600	56	6972
2026-01-01 17:29:03.53	22.41	7.15	-41.4	-42.8	19.5	0.00e+00	18	39	0	112197632	56	6316
2026-01-01 17:29:07.57	22.03	7.40	-41.0	-42.3	19.9	0.00e+00	0	39	0	120586240	56	5955
2026-01-01 17:29:11.60	21.63	7.66	-40.7	-42.0	20.2	0.00e+00	0	39	0	127926272	54	6420
2026-01-01 17:29:15.64	21.23	7.91	-40.4	-41.6	20.5	0.00e+00	0	39	0	135266304	54	6124
2026-01-01 17:29:19.68	20.82	8.17	-40.5	-41.8	20.4	0.00e+00	35	39	0	142606336	54	6248
2026-01-01 17:29:23.72	20.40	8.43	-40.6	-41.8	20.4	0.00e+00	0	39	0	150994944	54	6311
2026-01-01 17:29:27.75	19.97	8.69	-40.9	-42.3	20.1	0.00e+00	0	39	0	158334976	54	6630
2026-01-01 17:29:31.79	19.54	8.95	-40.6	-41.9	20.2	0.00e+00	0	39	0	165675008	54	6381
2026-01-01 17:29:35.83	19.10	9.21	-41.3	-42.7	19.8	0.00e+00	92	39	0	173015040	54	6987
2026-01-01 17:29:39.86	18.65	9.47	-40.8	-42.1	20.1	0.00e+00	0	39	0	180355072	54	6523
2026-01-01 17:29:43.90	18.19	9.73	-40.7	-42.0	20.2	0.00e+00	0	39	0	188743680	54	6450
2026-01-01 17:29:47.93	17.72	10.00	-40.7	-42.0	20.3	0.00e+00	21	39	0	196083712	54	6396
2026-01-01 17:29:51.97	17.24	10.26	-40.8	-42.1	20.3	0.00e+00	92	39	0	203423744	54	6471
2026-01-01 17:29:56.01	16.76	10.53	-40.6	-41.9	20.5	0.00e+00	0	39	0	210763776	54	6331
2026-01-01 17:30:00.05	16.26	10.80	-40.7	-42.0	20.5	0.00e+00	0	39	0	219152384	54	6413
2026-01-01 17:30:04.08	15.76	11.06	-40.4	-41.6	20.7	0.00e+00	78	39	0	226492416	54	6170
2026-01-01 17:30:08.12	15.25	11.33	-40.4	-41.7	20.7	0.00e+00	0	39	0	233832448	54	6200
2026-01-01 17:30:12.16	14.73	11.60	-39.9	-41.0	21.1	0.00e+00	0	39	0	241172480	54	5758
2026-01-01 17:30:16.20	14.19	11.87	-39.7	-40.8	21.5	0.00e+00	0	39	0	248512512	52	6281
2026-01-01 17:30:20.23	13.65	12.14	-40.0	-41.2	21.1	0.00e+00	45	39	0	256901120	52	6599
2026-01-01 17:30:24.27	13.10	12.41	-39.5	-40.6	21.6	0.00e+00	0	39	0	264241152	52	6164
2026-01-01 17:30:28.31	12.53	12.68	-39.9	-41.0	21.3	0.00e+00	0	39	0	271581184	52	6460
2026-01-01 17:30:32.35	11.96	12.95	-40.1	-41.3	21.1	0.00e+00	0	39	0	278921216	52	6637
2026-01-01 17:30:36.39	11.37	13.22	-40.0	-41.2	21.2	0.00e+00	90	39	0	287309824	52	6598
2026-01-01 17:30:40.43	10.77	13.50	-40.2	-41.4	21.0	0.00e+00	0	39	0	294649856	52	6693
2026-01-01 17:30:44.47	10.17	13.77	-40.1	-41.2	21.3	0.00e+00	0	39	0	301989888	52	6602
2026-01-01 17:30:48.50	9.55	14.04	-39.8	-40.9	21.4	0.00e+00	25	39	0	309329920	52	6374
2026-01-01 17:30:52.54	8.92	14.31	-40.0	-41.1	21.3	0.00e+00	0	39	0	316669952	52	6515
2026-01-01 17:30:56.59	8.27	14.58	-40.7	-42.0	20.5	0.00e+00	0	39	0	325058560	54	6421
2026-01-01 17:31:00.62	7.62	14.85	-40.3	-41.5	21.0	0.00e+00	0	39	0	332398592	54	6034
2026-01-01 17:31:04.65	6.95	15.11	-40.1	-41.3	21.0	0.00e+00	91	39	0	339738624	54	5933
2026-01-01 17:31:08.69	6.27	15.38	-40.4	-41.7	20.8	0.00e+00	0	39	0	347078656	54	6184
2026-01-01 17:31:12.73	5.58	15.65	-39.9	-41.0	21.4	0.00e+00	0	39	0	355467264	52	6462
2026-01-01 17:31:16.77	4.88	15.91	-40.3	-41.5	21.0	0.00e+00	0	39	0	362807296	52	6822
2026-01-01 17:31:20.81	4.16	16.17	-40.3	-41.5	21.0	0.00e+00	75	39	0	370147328	52	6830
2026-01-01 17:31:24.84	3.43	16.43	-40.7	-42.0	20.7	0.00e+00	2	39	0	377487360	54	6398
2026-01-01 17:31:28.88	2.69	16.69	-40.2	-41.4	21.2	0.00e+00	0	39	0	384827392	54	5966
2026-01-01 17:31:32.92	1.93	16.95	-39.4	-40.5	21.9	0.00e+00	24	39	0	393216000	52	6087
2026-01-01 17:31:36.95	1.17	17.20	-39.3	-40.4	22.1	0.00e+00	92	39	0	400556032	52	5971
2026-01-01 17:31:40.99	0.38	17.45	-38.6	-39.6	22.7	0.00e+00	0	39	0	407896064	50	6104
2026-01-01 17:31:45.03	359.59	17.70	-38.5	-39.5	22.7	0.00e+00	0	39	0	415236096	50	6053
2026-01-01 17:31:49.07	358.78	17.94	-38.1	-39.0	23.2	0.00e+00	81	39	0	422576128	50	5742
2026-01-01 17:31:53.11	357.96	18.18	-38.4	-39.4	22.9	0.00e+00	0	39	0	430964736	50	5986
2026-01-01 17:31:57.15	357.12	18.42	-37.6	-38.5	23.4	0.00e+00	0	39	0	438304768	48	6095
2026-01-01 17:32:01.19	356.27	18.65	-38.0	-38.9	23.2	0.00e+00	0	39	0	445644800	48	6355
2026-01-01 17:32:05.23	355.41	18.88	-37.6	-38.5	23.5	0.00e+00	90	39	0	452984832	48	6055
2026-01-01 17:32:09.27	354.54	19.11	-38.0	-39.0	22.7	0.00e+00	0	39	0	461373440	48	6403
2026-01-01 17:32:13.31	353.65	19.32	-37.8	-38.7	23.4	0.00e+00	0	39	0	468713472	48	6223
2026-01-01 17:32:17.35	352.75	19.54	-38.5	-39.5	22.8	0.00e+00	0	39	0	476053504	48	6805
2026-01-01 17:32:21.39	351.84	19.74	-37.6	-38.5	23.7	0.00e+00	88	39	0	483393536	48	6053
2026-01-01 17:32:25.43	350.91	19.95	-37.5	-38.4	23.6	0.00e+00	0	39	0	490733568	48	6012
2026-01-01 17:32:29.46	349.98	20.14	-36.8	-37.7	24.2	0.00e+00	0	39	0	499122176	48	5507
2026-01-01 17:32:33.49	349.03	20.33	-37.5	-38.4	23.7	0.00e+00	17	39	0	506462208	48	5984
2026-01-01 17:32:37.53	348.07	20.51	-37.0	-37.8	24.0	0.00e+00	79	39	0	513802240	48	5610
2026-01-01 17:32:41.56	347.10	20.68	-37.7	-38.6	23.5	0.00e+00	0	39	0	521142272	48	6129
2026-01-01 17:32:45.60	346.11	20.85	-37.4	-38.3	23.7	0.00e+00	0	39	0	529530880	48	5928
2026-01-01 17:32:49.63	345.12	21.00	-37.2	-38.1	23.8	0.00e+00	92	39	0	536870912	48	5781
2026-01-01 17:32:53.67	344.12	21.15	-37.2	-38.1	23.8	0.00e+00	0	39	0	544210944	48	5792
2026-01-01 17:32:57.71	343.10	21.30	-37.2	-38.0	24.0	0.00e+00	0	39	0	551550976	48	5744
2026-01-01 17:33:01.74	342.08	21.43	-37.6	-38.5	23.6	0.00e+00	0	39	0	558891008	48	6100
2026-01-01 17:33:05.78	341.05	21.55	-39.2	-40.3	22.1	0.00e+00	91	39	0	567279616	50	6647
2026-01-01 17:33:09.82	340.01	21.66	-39.1	-40.2	22.3	0.00e+00	11	39	0	574619648	50	6564
2026-01-01 17:33:13.86	338.97	21.77	-39.3	-40.3	22.2	0.00e+00	0	39	0	581959680	50	6690
2026-01-01 17:33:17.90	337.91	21.86	-38.4	-39.4	23.0	0.00e+00	0	39	0	589299712	50	5972
2026-01-01 17:33:21.94	336.85	21.95	-39.6	-40.7	21.9	0.00e+00	59	39	0	597688320	50	6982
2026-01-01 17:33:25.98	335.79	22.02	-38.7	-39.7	22.7	0.00e+00	0	39	0	605028352	50	6192
2026-01-01 17:33:30.02	334.72	22.08	-39.3	-40.3	22.2	0.00e+00	0	39	0	612368384	50	6687
2026-01-01 17:33:34.05	333.64	22.14	-38.7	-39.7	22.7	0.00e+00	83	39	0	619708416	50	6230
2026-01-01 17:33:38.09	332.57	22.18	-39.3	-40.4	22.0	0.00e+00	0	39	0	627048448	50	6697
2026-01-01 17:33:42.13	331.49	22.21	-40.8	-42.1	20.7	0.00e+00	10	39	0	635437056	54	6499
2026-01-01 17:33:46.17	330.40	22.23	-40.1	-41.3	21.6	0.00e+00	9	39	0	642777088	54	5964
2026-01-01 17:33:50.21	329.32	22.24	-39.2	-40.3	22.2	0.00e+00	92	39	0	650117120	52	5918
2026-01-01 17:33:54.25	328.24	22.24	-38.8	-39.8	22.7	0.00e+00	0	39	0	657457152	50	6261
2026-01-01 17:33:58.29	327.15	22.22	-38.1	-39.0	23.3	0.00e+00	0	39	0	665845760	50	5701
2026-01-01 17:34:02.33	326.07	22.20	-39.1	-40.1	22.4	0.00e+00	0	39	0	673185792	50	6518
2026-01-01 17:34:06.37	324.99	22.17	-38.7	-39.7	22.8	0.00e+00	69	39	0	680525824	50	6175
2026-01-01 17:34:10.41	323.92	22.12	-38.0	-38.9	23.4	0.00e+00	0	39	0	687865856	50	5650
2026-01-01 17:34:14.44	322.85	22.07	-38.3	-39.3	23.0	0.00e+00	0	39	0	695205888	50	5900
2026-01-01 17:34:18.48	321.78	22.00	-37.6	-38.5	23.7	0.00e+00	16	39	0	703594496	48	6045
2026-01-01 17:34:22.52	320.71	21.92	-37.4	-38.2	23.9	0.00e+00	0	39	0	710934528	48	5891
2026-01-01 17:34:26.55	319.65	21.84	-37.1	-38.0	23.8	0.00e+00	0	39	0	718274560	48	5735
2026-01-01 17:34:30.59	318.60	21.74	-37.4	-38.3	23.8	0.00e+00	0	39	0	725614592	48	5905
2026-01-01 17:34:34.63	317.56	21.63	-37.6	-38.5	23.6	0.00e+00	79	39	0	732954624	48	6083
2026-01-01 17:34:38.67	316.52	21.51	-37.2	-38.0	24.1	0.00e+00	0	39	0	741343232	48	5743
2026-01-01 17:34:42.71	315.49	21.39	-37.0	-37.8	24.2	0.00e+00	0	39	0	748683264	46	6315
2026-01-01 17:34:46.74	314.47	21.25	-38.2	-39.1	23.1	0.00e+00	0	39	0	756023296	48	6513
2026-01-01 17:34:50.78	313.46	21.11	-38.4	-39.3	23.0	0.00e+00	47	39	0	763363328	50	5950
2026-01-01 17:34:54.82	312.45	20.96	-38.6	-39.6	22.9	0.00e+00	0	39	0	771751936	50	6124
2026-01-01 17:34:58.86	311.46	20.80	-39.4	-40.4	22.1	0.00e+00	0	39	0	779091968	50	6737
2026-01-01 17:35:02.90	310.48	20.63	-40.0	-41.1	21.6	0.00e+00	22	39	0	786432000	52	6489
2026-01-01 17:35:06.93	309.51	20.45	-39.5	-40.6	22.1	0.00e+00	79	39	0	793772032	52	6124
2026-01-01 17:35:10.97	308.55	20.27	-39.4	-40.4	22.2	0.00e+00	0	39	0	802160640	52	5980
2026-01-01 17:35:15.00	307.61	20.08	-39.2	-40.2	22.4	0.00e+00	0	39	0	809500672	52	5862
2026-01-01 17:35:19.04	306.67	19.88	-38.3	-39.2	23.1	0.00e+00	0	39	0	816840704	50	5853
2026-01-01 17:35:23.08	305.75	19.68	-37.8	-38.7	23.6	0.00e+00	24	39	0	824180736	50	5510
2026-01-01 17:35:27.12	304.84	19.47	-38.4	-39.3	23.2	0.00e+00	0	39	0	831520768	48	6647
2026-01-01 17:35:31.16	303.94	19.26	-39.9	-41.0	21.7	0.00e+00	0	39	0	839909376	52	6397
2026-01-01 17:35:35.19	303.05	19.04	-39.5	-40.5	22.0	0.00e+00	92	39	0	847249408	52	6071
2026-01-01 17:35:39.23	302.18	18.81	-41.4	-42.9	19.9	0.00e+00	0	39	0	854589440	54	7112
2026-01-01 17:35:43.27	301.32	18.58	-41.3	-42.6	20.3	0.00e+00	0	39	0	861929472	56	6153
2026-01-01 17:35:47.31	300.48	18.35	-39.1	-40.1	22.5	0.00e+00	10	39	0	869269504	52	5782
2026-01-01 17:35:51.34	299.64	18.11	-38.1	-39.0	23.2	0.00e+00	37	39	0	877658112	50	5703
2026-01-01 17:35:55.38	298.82	17.87	-38.6	-39.5	22.8	0.00e+00	0	39	0	884998144	50	6090
2026-01-01 17:35:59.42	298.02	17.62	-38.2	-39.1	23.2	0.00e+00	0	39	0	892338176	50	5782
2026-01-01 17:36:03.47	297.22	17.37	-38.0	-39.1	21.5	0.00e+00	16	39	0	899678208	48	6527
2026-01-01 17:36:07.51	296.44	17.12	-39.9	-41.1	21.1	0.00e+00	0	39	0	908066816	52	6537
2026-01-01 17:36:11.54	295.68	16.86	-40.3	-41.5	21.2	0.00e+00	0	39	0	915406848	52	6807
2026-01-01 17:36:15.58	294.92	16.61	-39.4	-40.4	22.1	0.00e+00	0	39	0	922746880	52	6025
2026-01-01 17:36:19.62	294.18	16.35	-38.8	-39.8	22.6	0.00e+00	92	39	0	930086912	52	5606
2026-01-01 17:36:23.66	293.45	16.08	-38.8	-39.7	22.7	0.00e+00	0	39	0	937426944	50	6238
2026-01-01 17:36:27.70	292.74	15.82	-39.6	-40.7	21.9	0.00e+00	0	39	0	945815552	50	6954
2026-01-01 17:36:31.74	292.03	15.56	-39.4	-40.4	22.2	0.00e+00	0	39	0	953155584	52	5995
2026-01-01 17:36:35.78	291.34	15.29	-39.2	-40.2	22.3	0.00e+00	90	39	0	960495616	52	5874
2026-01-01 17:36:39.82	290.67	15.02	-39.5	-40.6	22.0	0.00e+00	0	39	0	967835648	52	6118
2026-01-01 17:36:43.85	290.00	14.75	-39.6	-40.6	21.9	0.00e+00	0	39	0	976224256	52	6159
2026-01-01 17:36:47.89	289.35	14.48	-38.9	-39.9	22.5	0.00e+00	0	39	0	983564288	52	5659
2026-01-01 17:36:51.93	288.71	14.21	-38.5	-39.5	22.9	0.00e+00	92	39	0	990904320	50	6043
2026-01-01 17:36:55.97	288.08	13.94	-37.7	-38.5	23.5	0.00e+00	0	39	0	998244352	48	6076
2026-01-01 17:37:00.00	287.46	13.67	-37.2	-38.0	23.8	0.00e+00	0	39	0	1005584384	48	5739
2026-01-01 17:37:04.04	286.85	13.40	-37.9	-38.8	23.3	0.00e+00	0	39	0	1013972992	48	6262
2026-01-01 17:37:08.07	286.26	13.13	-38.5	-39.5	22.8	0.00e+00	0	39	0	1021313024	48	6775
2026-01-01 17:37:12.11	285.67	12.86	-38.3	-39.2	23.0	0.00e+00	0	39	0	1028653056	48	6576
2026-01-01 17:37:16.15	285.10	12.59	-37.5	-38.3	23.6	0.00e+00	0	39	0	1035993088	48	5933
2026-01-01 17:37:20.19	284.54	12.31	-37.9	-38.8	23.3	0.00e+00	92	39	0	1044381696	48	6274
2026-01-01 17:37:24.23	283.99	12.04	-38.9	-39.9	22.4	0.00e+00	0	39	0	1051721728	50	6335
2026-01-01 17:37:28.27	283.44	11.77	-39.3	-40.4	21.5	0.00e+00	0	39	0	1059061760	50	6719
2026-01-01 17:37:32.31	282.91	11.50	-38.8	-39.8	22.5	0.00e+00	15	39	0	1066401792	50	6270
2026-01-01 17:37:36.34	282.39	11.23	-37.4	-38.3	23.6	0.00e+00	92	39	0	1073741824	48	5918
2026-01-01 17:37:40.38	281.88	10.97	-37.9	-38.8	23.2	0.00e+00	0	39	0	1082130432	48	6282
2026-01-01 17:37:44.42	281.37	10.70	-39.2	-40.3	22.0	0.00e+00	0	39	0	1089470464	50	6627
2026-01-01 17:37:48.45	280.88	10.43	-39.4	-40.5	21.9	0.00e+00	11	39	0	1096810496	50	6809
2026-01-01 17:37:52.49	280.40	10.16	-39.3	-40.4	21.9	0.00e+00	0	39	0	1104150528	50	6743
2026-01-01 17:37:56.53	279.92	9.90	-39.2	-40.3	22.0	0.00e+00	0	39	0	1112539136	50	6640
2026-01-01 17:38:00.58	279.45	9.63	-39.4	-40.4	21.9	0.00e+00	0	39	0	1119879168	50	6766
2026-01-01 17:38:04.61	278.99	9.37	-39.5	-40.6	21.7	0.00e+00	53	39	0	1127219200	50	6876
2026-01-01 17:38:08.65	278.54	9.11	-40.0	-41.2	21.1	0.00e+00	0	39	0	1134559232	52	6592
2026-01-01 17:38:12.69	278.10	8.85	-40.4	-41.7	20.8	0.00e+00	0	39	0	1141899264	52	6954
2026-01-01 17:38:16.73	277.67	8.59	-40.0	-41.2	21.1	0.00e+00	0	39	0	1150287872	52	6590
2026-01-01 17:38:20.77	277.24	8.33	-40.4	-41.7	20.9	0.00e+00	81	39	0	1157627904	52	6969
2026-01-01 17:38:24.80	276.82	8.07	-41.1	-42.5	20.0	0.00e+00	0	39	0	1164967936	54	6834
2026-01-01 17:38:28.84	276.41	7.81	-41.1	-42.6	19.7	0.00e+00	0	39	0	1172307968	54	6852
2026-01-01 17:38:32.88	276.01	7.56	-40.5	-41.7	20.6	0.00e+00	57	39	0	1180696576	54	6207
2026-01-01 17:38:36.92	275.61	7.30	-39.9	-41.1	21.1	0.00e+00	53	39	0	1188036608	54	5781
2026-01-01 17:38:40.96	275.22	7.05	-40.1	-41.3	20.9	0.00e+00	0	39	0	1195376640	52	6633
2026-01-01 17:38:44.99	274.84	6.80	-40.5	-41.8	20.5	0.00e+00	0	39	0	1202716672	52	7009
2026-01-01 17:38:49.03	274.47	6.55	-40.4	-41.6	20.6	0.00e+00	72	39	0	1210056704	52	6861
2026-01-01 17:38:53.07	274.10	6.30	-40.2	-41.4	20.8	0.00e+00	0	39	0	1218445312	52	6755
2026-01-01 17:38:57.10	273.74	6.05	-40.1	-41.3	20.8	0.00e+00	0	39	0	1225785344	52	6661
2026-01-01 17:39:01.15	273.38	5.80	-40.0	-41.2	20.9	0.00e+00	0	39	0	1233125376	52	6604
2026-01-01 17:39:05.18	273.03	5.56	-40.6	-41.9	20.1	0.00e+00	87	39	0	1240465408	52	7151
2026-01-01 17:39:09.22	272.69	5.31	-41.1	-42.5	19.6	0.00e+00	0	39	0	1248854016	54	6796
2026-01-01 17:39:13.26	272.35	5.07	-41.8	-43.5	18.7	0.00e+00	0	39	0	1256194048	54	7608
2026-01-01 17:39:17.30	272.02	4.83	-42.8	-44.8	17.5	0.00e+00	14	39	0	1263534080	56	7865
2026-01-01 17:39:21.34	271.69	4.59	-42.8	-44.8	17.3	0.00e+00	92	39	0	1270874112	58	7072
2026-01-01 17:39:25.38	271.37	4.35	-42.8	-44.8	17.3	0.00e+00	0	39	0	1278214144	58	7024
2026-01-01 17:39:29.42	271.05	4.11	-42.8	-44.7	17.3	0.00e+00	0	39	0	1286602752	58	6992
2026-01-01 17:39:33.46	270.74	3.87	-42.5	-44.4	17.4	0.00e+00	89	39	0	1293942784	58	6749
2026-01-01 17:39:37.50	270.44	3.64	-42.6	-44.5	17.4	0.00e+00	0	39	0	1301282816	58	6813
2026-01-01 17:39:41.53	270.14	3.40	-42.7	-44.7	17.0	0.00e+00	0	39	0	1308622848	58	7005
2026-01-01 17:39:45.56	269.84	3.17	-43.1	-45.3	16.5	0.00e+00	0	39	0	1315962880	58	7473
2026-01-01 17:39:49.60	269.55	2.94	-48.7	-63.9	3.5	1.51e+00	0	39	104	1322254336	60	56526
2026-01-01 17:39:53.64	269.26	2.71	-49.2	-64.4	3.6	1.51e+00	0	40	104	1322254336	60	60286
2026-01-01 17:39:57.68	268.98	2.48	-49.3	-64.5	3.6	1.51e+00	0	39	104	1322254336	60	60607
2026-01-01 17:40:01.72	268.71	2.25	-49.1	-64.4	3.6	1.51e+00	0	40	104	1322254336	60	59815
2026-01-01 17:40:05.75	268.43	2.02	-49.2	-64.4	3.6	1.51e+00	0	40	104	1322254336	60	60059
2026-01-01 17:40:09.79	268.17	1.80	-49.2	-64.4	3.6	1.51e+00	0	39	104	1322254336	60	59682
2026-01-01 17:40:13.83	267.90	1.57	-49.2	-64.4	3.6	1.51e+00	0	39	104	1322254336	60	60011
2026-01-01 17:40:17.87	267.64	1.35	-49.2	-64.3	3.6	1.51e+00	0	40	104	1322254336	60	59608
2026-01-01 17:40:21.91	267.39	1.13	-49.2	-64.3	3.6	1.51e+00	0	40	104	1322254336	60	59577
2026-01-01 17:40:25.95	267.14	0.91	-49.2	-64.3	3.6	1.51e+00	0	40	104	1322254336	60	59631
2026-01-01 17:40:29.99	266.89	0.69	-49.2	-64.3	3.6	1.51e+00	0	40	104	1322254336	60	59360
2026-01-01 17:40:34.03	266.64	0.47	-49.2	-64.4	3.6	1.51e+00	0	40	104	1322254336	60	59963
2026-01-01 17:40:38.07	266.40	0.25	-49.2	-64.4	3.6	1.51e+00	0	40	104	1322254336	60	59737
2026-01-01 17:40:42.11	266.17	0.04	-49.2	-64.3	3.6	1.51e+00	0	40	104	1322254336	60	59604

#Closed at: 2026-01-01 17:40:44
#Recorded file [1322 MB]: D:/lorett/data/35029_260102_052702.dat