passes_logs/2026/01/01/R4.6S_Anadyr/R4.6S_Anadyr__20260101_215340_NOAA_21_JPSS-2_rec.log

#Pass ID: 20260101_215340_NOAA 21 (JPSS-2)
#Satellite: NOAA 21 (JPSS-2)
#Configuration: NOAA-21
#almurnet v.1.7.20251203
#Start time: 2026-01-01 21:53:44

#Version: 2.2.20231116
#Station: R4.6S_Anadyr
#Location: 177.4865 lon 64.73178 lat
#TLE: 1 54234U 22150A   26001.62049579  .00000200  00000+0  11561-3 0  9997
#TLE: 2 54234  98.7484 302.6830 0001258 352.4447   7.6710 14.19530916162916

#Time	Az	El	Level	Level2	SNR	BER	BlckErr	Temp	State	Recorded	gain1	gain2
2026-01-01 21:53:44.89	100.54	0.22	-49.4	-50.8	3.3	0.00e+00	0	37	0	0	60	42614
2026-01-01 21:53:48.79	100.33	0.44	-49.3	-62.2	3.5	1.52e+00	0	38	104	0	60	45038
2026-01-01 21:53:52.70	100.11	0.66	-49.4	-62.3	3.5	1.52e+00	0	38	104	0	60	45706
2026-01-01 21:53:56.62	99.89	0.87	-49.2	-62.1	3.5	1.52e+00	0	38	104	0	60	44855
2026-01-01 21:54:00.52	99.67	1.09	-48.4	-61.4	3.5	1.52e+00	0	39	104	0	60	41079
2026-01-01 21:54:04.43	99.45	1.31	-45.4	-60.3	3.5	1.52e+00	0	39	104	0	60	36142
2026-01-01 21:54:08.35	99.22	1.53	-45.4	-60.3	3.5	1.52e+00	0	39	104	0	60	36126
2026-01-01 21:54:12.25	98.99	1.76	-45.4	-60.3	3.5	1.52e+00	0	39	104	0	60	36423
2026-01-01 21:54:16.16	98.75	1.98	-45.3	-60.1	3.5	1.51e+00	0	39	104	0	60	35552
2026-01-01 21:54:20.07	98.51	2.21	-45.2	-59.4	3.5	1.52e+00	0	39	104	0	60	32752
2026-01-01 21:54:23.97	98.27	2.43	-45.3	-60.2	3.5	1.52e+00	0	39	104	0	60	35887
2026-01-01 21:54:27.88	98.02	2.66	-45.3	-60.3	3.5	1.51e+00	0	39	104	0	60	36130
2026-01-01 21:54:31.79	97.77	2.89	-45.2	-59.1	3.5	1.51e+00	0	39	104	0	60	31506
2026-01-01 21:54:35.70	97.52	3.12	-45.0	-56.1	4.5	1.48e+00	105	39	104	0	60	22472
2026-01-01 21:54:39.60	97.26	3.35	-46.3	-53.0	3.5	8.14e-02	117	39	104	6291456	60	15652
2026-01-01 21:54:43.51	96.99	3.58	-45.1	-51.7	4.5	1.51e+00	0	39	104	6291456	60	13541
2026-01-01 21:54:47.42	96.73	3.82	-43.4	-47.0	12.1	4.53e-04	120	39	0	14680064	60	7883
2026-01-01 21:54:51.33	96.45	4.06	-42.4	-45.0	13.9	7.00e-07	124	39	0	27262976	58	6979
2026-01-01 21:54:55.23	96.18	4.29	-38.6	-39.8	19.9	0.00e+00	123	39	0	38797312	50	6087
2026-01-01 21:54:59.14	95.89	4.53	-38.7	-40.1	19.8	0.00e+00	124	39	0	51380224	50	6278
2026-01-01 21:55:03.05	95.61	4.77	-38.6	-39.8	20.1	0.00e+00	121	39	0	63963136	50	6106
2026-01-01 21:55:06.96	95.32	5.01	-38.6	-39.9	20.1	0.00e+00	121	39	0	75497472	50	6151
2026-01-01 21:55:10.86	95.02	5.26	-38.3	-39.6	20.3	0.00e+00	121	39	0	88080384	50	5942
2026-01-01 21:55:14.77	94.72	5.50	-38.5	-39.8	20.0	0.00e+00	120	39	0	100663296	50	6132
2026-01-01 21:55:18.67	94.41	5.75	-38.4	-39.7	20.2	0.00e+00	123	39	0	112197632	50	6028
2026-01-01 21:55:22.57	94.10	6.00	-38.1	-39.4	20.6	0.00e+00	123	39	0	124780544	50	5831
2026-01-01 21:55:26.49	93.78	6.25	-37.8	-39.0	20.8	0.00e+00	122	39	0	137363456	48	6250
2026-01-01 21:55:30.39	93.46	6.50	-37.7	-39.1	20.9	0.00e+00	123	39	0	148897792	48	6291
2026-01-01 21:55:34.30	93.13	6.75	-37.6	-38.8	21.1	0.00e+00	124	39	0	161480704	48	6129
2026-01-01 21:55:38.21	92.79	7.00	-37.7	-38.9	21.1	0.00e+00	124	39	0	174063616	48	6162
2026-01-01 21:55:42.12	92.45	7.26	-37.5	-38.6	21.4	0.00e+00	121	39	0	185597952	48	5967
2026-01-01 21:55:46.02	92.10	7.52	-37.3	-38.4	21.6	0.00e+00	121	39	0	198180864	48	5794
2026-01-01 21:55:49.93	91.75	7.78	-37.1	-38.3	21.7	0.00e+00	126	39	0	209715200	48	5736
2026-01-01 21:55:53.85	91.38	8.04	-37.1	-38.1	21.9	0.00e+00	121	39	0	222298112	48	5647
2026-01-01 21:55:57.76	91.01	8.30	-37.0	-38.1	21.9	0.00e+00	121	39	0	234881024	46	6311
2026-01-01 21:56:01.67	90.64	8.56	-36.8	-37.9	22.2	0.00e+00	120	39	0	247463936	46	6147
2026-01-01 21:56:05.57	90.26	8.83	-36.7	-37.8	22.3	0.00e+00	122	39	0	258998272	46	6078
2026-01-01 21:56:09.48	89.87	9.10	-36.8	-38.0	22.1	0.00e+00	122	39	0	271581184	46	6212
2026-01-01 21:56:13.38	89.47	9.36	-36.3	-37.3	22.7	0.00e+00	122	39	0	283115520	46	5735
2026-01-01 21:56:17.29	89.07	9.63	-36.3	-37.4	22.7	0.00e+00	124	39	0	295698432	46	5811
2026-01-01 21:56:21.19	88.66	9.90	-36.1	-37.2	22.9	0.00e+00	121	39	0	308281344	46	5669
2026-01-01 21:56:25.11	88.24	10.18	-36.1	-37.2	22.8	0.00e+00	121	39	0	319815680	46	5672
2026-01-01 21:56:29.02	87.81	10.45	-36.1	-37.1	22.9	0.00e+00	121	39	0	332398592	46	5596
2026-01-01 21:56:32.93	87.37	10.73	-36.0	-37.1	23.0	0.00e+00	123	39	0	344981504	46	5598
2026-01-01 21:56:36.84	86.93	11.01	-35.9	-36.9	23.1	0.00e+00	121	39	0	356515840	46	5487
2026-01-01 21:56:40.73	86.48	11.28	-36.3	-37.3	22.7	0.00e+00	122	39	0	369098752	46	5755
2026-01-01 21:56:44.65	86.01	11.56	-35.7	-36.7	23.3	0.00e+00	121	39	0	381681664	44	6019
2026-01-01 21:56:48.56	85.54	11.85	-36.1	-37.1	23.0	0.00e+00	122	39	0	393216000	44	6284
2026-01-01 21:56:52.47	85.06	12.13	-35.8	-36.7	23.2	0.00e+00	122	39	0	405798912	44	6046
2026-01-01 21:56:56.37	84.57	12.41	-35.9	-36.8	23.2	0.00e+00	124	39	0	418381824	44	6127
2026-01-01 21:57:00.29	84.07	12.70	-36.1	-37.1	23.3	0.00e+00	120	39	0	429916160	46	5618
2026-01-01 21:57:04.21	83.56	12.99	-35.6	-36.6	23.5	0.00e+00	123	39	0	442499072	44	5944
2026-01-01 21:57:08.13	83.04	13.27	-35.6	-36.6	23.4	0.00e+00	124	39	0	455081984	44	5941
2026-01-01 21:57:12.04	82.50	13.56	-35.6	-36.6	23.5	0.00e+00	123	39	0	466616320	44	5927
2026-01-01 21:57:15.94	81.96	13.85	-35.5	-36.5	23.6	0.00e+00	121	39	0	479199232	44	5868
2026-01-01 21:57:19.85	81.41	14.14	-35.5	-36.5	23.4	0.00e+00	125	39	0	490733568	44	5888
2026-01-01 21:57:23.76	80.85	14.43	-36.0	-37.0	23.2	0.00e+00	125	39	0	503316480	44	6233
2026-01-01 21:57:27.65	80.28	14.72	-35.9	-36.9	23.3	0.00e+00	124	39	0	515899392	44	6163
2026-01-01 21:57:31.55	79.69	15.01	-35.7	-36.7	23.4	0.00e+00	121	39	0	527433728	44	6011
2026-01-01 21:57:35.45	79.10	15.31	-36.2	-37.2	22.9	0.00e+00	122	39	0	540016640	44	6397
2026-01-01 21:57:39.37	78.48	15.60	-36.0	-36.9	23.3	0.00e+00	120	39	0	552599552	44	6196
2026-01-01 21:57:43.28	77.86	15.89	-36.0	-36.9	23.2	0.00e+00	122	39	0	564133888	44	6198
2026-01-01 21:57:47.19	77.23	16.19	-36.3	-37.3	23.0	0.00e+00	120	39	0	576716800	44	6450
2026-01-01 21:57:51.10	76.58	16.48	-36.0	-37.0	23.2	0.00e+00	122	39	0	589299712	44	6220
2026-01-01 21:57:55.01	75.92	16.77	-35.7	-36.7	23.4	0.00e+00	123	39	0	600834048	44	6041
2026-01-01 21:57:58.92	75.24	17.06	-35.6	-36.6	23.5	0.00e+00	122	39	0	613416960	44	5929
2026-01-01 21:58:02.83	74.56	17.35	-35.3	-36.3	23.9	0.00e+00	123	39	0	625999872	44	5735
2026-01-01 21:58:06.73	73.86	17.64	-35.4	-36.3	23.7	0.00e+00	125	39	0	637534208	44	5765
2026-01-01 21:58:10.64	73.15	17.93	-35.4	-36.4	23.8	0.00e+00	125	39	0	650117120	44	5803
2026-01-01 21:58:14.55	72.42	18.22	-35.1	-36.1	24.0	0.00e+00	123	39	0	661651456	44	5598
2026-01-01 21:58:18.46	71.68	18.51	-35.0	-35.9	24.2	0.00e+00	120	39	0	674234368	44	5501
2026-01-01 21:58:22.37	70.92	18.79	-35.1	-36.0	24.0	0.00e+00	123	39	0	686817280	44	5581
2026-01-01 21:58:26.28	70.15	19.07	-35.1	-36.1	23.9	0.00e+00	124	39	0	698351616	44	5607
2026-01-01 21:58:30.19	69.36	19.35	-35.4	-36.3	23.8	0.00e+00	121	39	0	710934528	44	5780
2026-01-01 21:58:34.09	68.57	19.63	-35.6	-36.5	23.6	0.00e+00	123	39	0	723517440	44	5899
2026-01-01 21:58:37.99	67.75	19.91	-35.2	-36.1	24.0	0.00e+00	124	39	0	735051776	44	5631
2026-01-01 21:58:41.91	66.92	20.18	-35.0	-36.0	24.2	0.00e+00	124	39	0	747634688	44	5545
2026-01-01 21:58:45.83	66.08	20.45	-34.9	-35.8	24.2	0.00e+00	121	39	0	760217600	44	5435
2026-01-01 21:58:49.74	65.22	20.71	-35.0	-35.9	24.2	0.00e+00	122	39	0	771751936	44	5503
2026-01-01 21:58:53.66	64.34	20.97	-34.9	-35.8	24.2	0.00e+00	122	39	0	784334848	42	6122
2026-01-01 21:58:57.57	63.46	21.23	-35.0	-35.9	24.2	0.00e+00	125	39	0	796917760	42	6189
2026-01-01 21:59:01.48	62.55	21.48	-34.9	-35.8	24.3	0.00e+00	122	39	0	808452096	42	6118
2026-01-01 21:59:05.38	61.64	21.72	-34.8	-35.7	24.5	0.00e+00	122	39	0	821035008	42	6019
2026-01-01 21:59:09.28	60.71	21.96	-34.7	-35.6	24.4	0.00e+00	120	39	0	833617920	42	5953
2026-01-01 21:59:13.20	59.76	22.19	-34.6	-35.5	24.5	0.00e+00	124	39	0	845152256	42	5903
2026-01-01 21:59:17.11	58.80	22.42	-35.1	-36.0	24.1	0.00e+00	124	39	0	857735168	42	6230
2026-01-01 21:59:21.02	57.82	22.64	-35.1	-36.0	24.2	0.00e+00	123	39	0	870318080	42	6258
2026-01-01 21:59:24.93	56.84	22.85	-34.9	-35.8	24.3	0.00e+00	122	39	0	881852416	42	6087
2026-01-01 21:59:28.84	55.83	23.06	-34.6	-35.5	24.6	0.00e+00	122	39	0	894435328	42	5904
2026-01-01 21:59:32.76	54.82	23.25	-34.5	-35.4	24.6	0.00e+00	122	39	0	907018240	42	5838
2026-01-01 21:59:36.66	53.79	23.44	-34.8	-35.7	24.4	0.00e+00	121	39	0	918552576	42	6061
2026-01-01 21:59:40.57	52.75	23.62	-34.7	-35.6	24.5	0.00e+00	124	39	0	931135488	42	5987
2026-01-01 21:59:44.48	51.70	23.79	-34.8	-35.7	24.4	0.00e+00	121	39	0	943718400	42	6056
2026-01-01 21:59:48.38	50.64	23.95	-34.6	-35.5	24.5	0.00e+00	122	39	0	955252736	42	5922
2026-01-01 21:59:52.29	49.57	24.11	-34.6	-35.5	24.5	0.00e+00	122	39	0	967835648	42	5891
2026-01-01 21:59:56.20	48.48	24.25	-34.8	-35.8	24.3	0.00e+00	122	39	0	979369984	42	6079
2026-01-01 22:00:00.10	47.39	24.38	-34.8	-35.7	24.5	0.00e+00	121	39	0	991952896	42	6023
2026-01-01 22:00:04.01	46.29	24.50	-34.7	-35.6	24.5	0.00e+00	121	39	0	1004535808	42	5943
2026-01-01 22:00:07.92	45.18	24.61	-34.7	-35.6	24.5	0.00e+00	125	39	0	1016070144	42	5968
2026-01-01 22:00:11.82	44.07	24.70	-34.4	-35.3	24.8	0.00e+00	122	39	0	1028653056	42	5738
2026-01-01 22:00:15.74	42.94	24.79	-34.2	-35.1	24.9	0.00e+00	123	39	0	1041235968	42	5635
2026-01-01 22:00:19.65	41.82	24.86	-34.4	-35.3	24.8	0.00e+00	120	39	0	1052770304	42	5791
2026-01-01 22:00:23.55	40.68	24.93	-34.6	-35.5	24.6	0.00e+00	120	39	0	1065353216	42	5911
2026-01-01 22:00:27.46	39.55	24.97	-34.5	-35.4	24.6	0.00e+00	122	39	0	1077936128	42	5802
2026-01-01 22:00:31.37	38.41	25.01	-34.7	-35.6	24.6	0.00e+00	124	39	0	1089470464	42	5979
2026-01-01 22:00:35.26	37.27	25.04	-34.6	-35.5	24.6	0.00e+00	120	39	0	1102053376	42	5904
2026-01-01 22:00:39.18	36.12	25.05	-34.4	-35.3	24.7	0.00e+00	121	39	0	1114636288	42	5760
2026-01-01 22:00:43.09	34.98	25.05	-34.5	-35.4	24.6	0.00e+00	123	39	0	1126170624	42	5839
2026-01-01 22:00:46.99	33.84	25.04	-34.6	-35.5	24.6	0.00e+00	124	39	0	1138753536	42	5862
2026-01-01 22:00:50.89	32.70	25.01	-34.6	-35.5	24.7	0.00e+00	122	39	0	1150287872	42	5867
2026-01-01 22:00:54.80	31.56	24.98	-34.6	-35.5	24.7	0.00e+00	123	39	0	1162870784	42	5873
2026-01-01 22:00:58.72	30.42	24.93	-34.5	-35.3	24.7	0.00e+00	120	39	0	1175453696	42	5790
2026-01-01 22:01:02.63	29.28	24.87	-34.3	-35.2	24.9	0.00e+00	123	39	0	1186988032	42	5662
2026-01-01 22:01:06.54	28.15	24.79	-34.7	-35.6	24.6	0.00e+00	121	39	0	1199570944	42	5944
2026-01-01 22:01:10.45	27.03	24.71	-34.6	-35.5	24.6	0.00e+00	122	39	0	1212153856	42	5863
2026-01-01 22:01:14.36	25.92	24.61	-34.5	-35.4	24.7	0.00e+00	122	39	0	1223688192	42	5807
2026-01-01 22:01:18.27	24.81	24.50	-34.8	-35.7	24.5	0.00e+00	122	39	0	1236271104	42	6039
2026-01-01 22:01:22.18	23.71	24.38	-35.3	-36.2	24.1	0.00e+00	121	39	0	1248854016	42	6392
2026-01-01 22:01:26.09	22.62	24.25	-34.9	-35.8	24.4	0.00e+00	122	39	0	1260388352	42	6129
2026-01-01 22:01:29.99	21.54	24.11	-34.9	-35.8	24.3	0.00e+00	124	39	0	1272971264	42	6105
2026-01-01 22:01:33.88	20.47	23.96	-34.9	-35.8	24.4	0.00e+00	123	39	0	1285554176	42	6082
2026-01-01 22:01:37.79	19.41	23.80	-34.9	-35.8	24.4	0.00e+00	122	39	0	1297088512	42	6080
2026-01-01 22:01:41.70	18.36	23.63	-35.0	-35.9	24.0	0.00e+00	124	39	0	1309671424	42	6163
2026-01-01 22:01:45.61	17.32	23.45	-34.8	-35.7	24.1	0.00e+00	123	39	0	1322254336	42	6032
2026-01-01 22:01:49.51	16.30	23.26	-34.7	-35.6	24.5	0.00e+00	122	39	0	1333788672	42	5973
2026-01-01 22:01:53.41	15.29	23.07	-34.6	-35.5	24.6	0.00e+00	121	39	0	1346371584	42	5873
2026-01-01 22:01:57.31	14.29	22.86	-34.8	-35.7	24.5	0.00e+00	123	39	0	1357905920	42	6005
2026-01-01 22:02:01.21	13.31	22.65	-34.7	-35.5	24.6	0.00e+00	124	39	0	1370488832	42	5922
2026-01-01 22:02:05.10	12.34	22.43	-34.5	-35.4	24.7	0.00e+00	122	39	0	1383071744	42	5828
2026-01-01 22:02:09.01	11.38	22.21	-34.7	-35.6	24.4	0.00e+00	124	39	0	1394606080	42	5975
2026-01-01 22:02:12.92	10.44	21.98	-34.9	-35.8	24.4	0.00e+00	122	40	0	1407188992	42	6069
2026-01-01 22:02:16.82	9.51	21.74	-34.9	-35.8	24.4	0.00e+00	122	40	0	1419771904	42	6082
2026-01-01 22:02:20.73	8.59	21.49	-35.1	-36.0	24.3	0.00e+00	121	40	0	1431306240	42	6248
2026-01-01 22:02:24.64	7.69	21.24	-34.5	-35.4	24.6	0.00e+00	122	39	0	1443889152	42	5849
2026-01-01 22:02:28.55	6.80	20.99	-34.7	-35.6	24.4	0.00e+00	125	39	0	1455423488	42	5951
2026-01-01 22:02:32.45	5.94	20.73	-34.9	-35.8	24.4	0.00e+00	124	39	0	1468006400	42	6071
2026-01-01 22:02:36.36	5.08	20.47	-34.7	-35.6	24.5	0.00e+00	122	40	0	1480589312	42	5952
2026-01-01 22:02:40.27	4.24	20.20	-34.8	-35.7	24.2	0.00e+00	123	40	0	1492123648	42	6053
2026-01-01 22:02:44.18	3.41	19.93	-34.8	-35.7	24.3	0.00e+00	121	39	0	1504706560	42	6001
2026-01-01 22:02:48.09	2.60	19.66	-35.0	-35.9	24.3	0.00e+00	122	40	0	1517289472	42	6146
2026-01-01 22:02:52.00	1.80	19.38	-35.3	-36.2	24.0	0.00e+00	121	39	0	1528823808	42	6397
2026-01-01 22:02:55.90	1.02	19.10	-34.7	-35.7	24.3	0.00e+00	122	39	0	1541406720	42	5997
2026-01-01 22:02:59.82	0.25	18.82	-35.0	-35.9	24.3	0.00e+00	122	39	0	1553989632	42	6157
2026-01-01 22:03:03.73	359.49	18.54	-35.1	-36.0	24.1	0.00e+00	122	40	0	1565523968	42	6261
2026-01-01 22:03:07.64	358.75	18.25	-35.1	-36.0	24.2	0.00e+00	121	40	0	1578106880	42	6271
2026-01-01 22:03:11.55	358.03	17.97	-35.2	-36.1	24.0	0.00e+00	123	40	0	1590689792	42	6343
2026-01-01 22:03:15.46	357.32	17.68	-35.4	-36.3	23.8	0.00e+00	122	39	0	1602224128	42	6488
2026-01-01 22:03:19.38	356.62	17.39	-35.4	-36.4	23.8	0.00e+00	120	39	0	1614807040	42	6509
2026-01-01 22:03:23.30	355.93	17.10	-35.5	-36.5	23.8	0.00e+00	125	39	0	1627389952	42	6596
2026-01-01 22:03:27.21	355.26	16.81	-35.4	-36.3	23.8	0.00e+00	120	40	0	1638924288	44	5757
2026-01-01 22:03:31.12	354.60	16.51	-35.5	-36.4	23.7	0.00e+00	122	40	0	1651507200	44	5847
2026-01-01 22:03:35.03	353.96	16.22	-35.4	-36.3	23.8	0.00e+00	124	40	0	1664090112	44	5755
2026-01-01 22:03:38.93	353.32	15.93	-35.4	-36.3	23.8	0.00e+00	122	40	0	1675624448	44	5753
2026-01-01 22:03:42.85	352.70	15.64	-35.4	-36.3	23.8	0.00e+00	125	40	0	1688207360	44	5764
2026-01-01 22:03:46.75	352.10	15.35	-35.9	-36.9	23.3	0.00e+00	123	40	0	1699741696	44	6163
2026-01-01 22:03:50.66	351.50	15.06	-36.0	-37.0	23.2	0.00e+00	122	40	0	1712324608	44	6225
2026-01-01 22:03:54.57	350.92	14.76	-35.5	-36.4	23.6	0.00e+00	123	40	0	1724907520	44	5851
2026-01-01 22:03:58.47	350.34	14.47	-35.7	-36.7	23.5	0.00e+00	123	40	0	1736441856	44	6001
2026-01-01 22:04:02.38	349.78	14.18	-36.2	-37.2	22.9	0.00e+00	121	40	0	1749024768	44	6395
2026-01-01 22:04:06.28	349.23	13.90	-36.5	-37.5	22.6	0.00e+00	123	40	0	1761607680	44	6627
2026-01-01 22:04:10.19	348.69	13.61	-36.0	-37.0	23.1	0.00e+00	121	40	0	1773142016	44	6259
2026-01-01 22:04:14.10	348.17	13.32	-36.1	-37.1	23.1	0.00e+00	123	40	0	1785724928	44	6321
2026-01-01 22:04:18.01	347.65	13.03	-37.0	-38.0	22.3	0.00e+00	122	40	0	1798307840	46	6276
2026-01-01 22:04:21.93	347.14	12.75	-36.8	-37.9	22.5	0.00e+00	122	40	0	1809842176	46	6142
2026-01-01 22:04:25.84	346.64	12.46	-36.3	-37.3	22.8	0.00e+00	122	40	0	1822425088	46	5782
2026-01-01 22:04:29.74	346.15	12.18	-36.1	-37.1	23.0	0.00e+00	123	40	0	1835008000	46	5621
2026-01-01 22:04:33.65	345.67	11.90	-36.7	-37.7	22.6	0.00e+00	121	40	0	1846542336	46	6002
2026-01-01 22:04:37.55	345.21	11.62	-36.9	-37.9	22.4	0.00e+00	119	40	0	1859125248	46	6197
2026-01-01 22:04:41.47	344.74	11.34	-36.5	-37.5	22.6	0.00e+00	121	40	0	1871708160	46	5903
2026-01-01 22:04:45.38	344.29	11.06	-35.9	-36.9	23.2	0.00e+00	123	40	0	1883242496	46	5475
2026-01-01 22:04:49.28	343.85	10.78	-35.8	-36.8	23.2	0.00e+00	125	40	0	1895825408	44	6097
2026-01-01 22:04:53.19	343.42	10.51	-36.6	-37.6	22.4	0.00e+00	121	40	0	1908408320	44	6695
2026-01-01 22:04:57.10	342.99	10.23	-37.2	-38.2	22.0	0.00e+00	123	40	0	1919942656	46	6422
2026-01-01 22:05:01.00	342.57	9.96	-37.2	-38.3	21.8	0.00e+00	120	40	0	1932525568	46	6446
2026-01-01 22:05:04.90	342.16	9.69	-36.7	-37.7	22.3	0.00e+00	121	40	0	1944059904	46	6024
2026-01-01 22:05:08.81	341.76	9.42	-36.4	-37.4	22.6	0.00e+00	123	40	0	1956642816	46	5827
2026-01-01 22:05:12.71	341.37	9.15	-36.7	-37.7	22.4	0.00e+00	127	40	0	1969225728	46	6051
2026-01-01 22:05:16.62	340.98	8.89	-37.3	-38.3	21.9	0.00e+00	122	40	0	1980760064	46	6483
2026-01-01 22:05:20.53	340.60	8.62	-37.8	-38.9	21.3	0.00e+00	124	40	0	1993342976	46	6943
2026-01-01 22:05:24.44	340.23	8.36	-37.7	-38.8	21.3	0.00e+00	123	40	0	2005925888	48	6127
2026-01-01 22:05:28.35	339.86	8.10	-37.5	-38.6	21.5	0.00e+00	121	40	0	2017460224	48	5956
2026-01-01 22:05:32.25	339.50	7.84	-37.3	-38.4	21.7	0.00e+00	121	40	0	2030043136	48	5811
2026-01-01 22:05:36.16	339.15	7.58	-37.4	-38.4	21.7	0.00e+00	123	40	0	2042626048	48	5838
2026-01-01 22:05:40.06	338.81	7.32	-37.9	-38.9	21.2	0.00e+00	123	40	0	2054160384	48	6205
2026-01-01 22:05:43.97	338.47	7.07	-38.2	-39.4	20.8	0.00e+00	122	40	0	2066743296	48	6526
2026-01-01 22:05:47.89	338.13	6.81	-38.5	-39.7	20.5	0.00e+00	124	40	0	2079326208	48	6728
2026-01-01 22:05:51.79	337.81	6.56	-38.4	-39.6	20.5	0.00e+00	123	40	0	2090860544	48	6702
2026-01-01 22:05:55.70	337.48	6.31	-38.0	-39.2	20.7	0.00e+00	122	40	0	2103443456	48	6380
2026-01-01 22:05:59.61	337.17	6.06	-37.9	-39.0	20.8	0.00e+00	124	40	0	2116026368	48	6256
2026-01-01 22:06:03.50	336.86	5.82	-38.3	-39.6	20.1	0.00e+00	124	40	0	2127560704	48	6656
2026-01-01 22:06:07.41	336.55	5.57	-39.6	-41.1	18.1	0.00e+00	124	40	0	2140143616	50	7067
2026-01-01 22:06:11.31	336.25	5.33	-41.1	-43.2	15.3	0.00e+00	121	40	0	2151677952	54	7195
2026-01-01 22:06:15.22	335.96	5.08	-42.7	-46.0	11.5	5.59e-04	122	40	0	2164260864	56	8777
2026-01-01 22:06:19.13	335.67	4.84	-43.9	-49.5	6.6	1.19e-01	121	40	0	2176843776	60	10498
2026-01-01 22:06:23.04	335.39	4.60	-44.3	-54.1	3.6	1.45e+00	0	40	104	2178940928	60	17773
2026-01-01 22:06:26.95	335.11	4.36	-44.5	-57.2	3.5	1.52e+00	0	40	104	2178940928	60	25399
2026-01-01 22:06:30.87	334.83	4.12	-44.4	-56.2	3.5	1.51e+00	0	40	104	2178940928	60	22758
2026-01-01 22:06:34.77	334.56	3.89	-44.3	-56.7	3.5	1.52e+00	0	40	104	2178940928	60	23970
2026-01-01 22:06:38.68	334.29	3.65	-44.3	-57.1	3.5	1.52e+00	0	40	104	2178940928	60	25139
2026-01-01 22:06:42.58	334.03	3.42	-44.3	-57.1	3.5	1.52e+00	0	40	104	2178940928	60	25255
2026-01-01 22:06:46.49	333.78	3.19	-44.4	-57.2	3.5	1.52e+00	0	40	104	2178940928	60	25318
2026-01-01 22:06:50.41	333.52	2.96	-48.2	-61.1	3.5	1.52e+00	0	40	104	2178940928	60	39984
2026-01-01 22:06:54.32	333.27	2.73	-49.3	-62.1	3.5	1.52e+00	0	40	104	2178940928	60	44898
2026-01-01 22:06:58.23	333.03	2.50	-49.4	-62.3	3.5	1.52e+00	0	40	104	2178940928	60	45749
2026-01-01 22:07:02.13	332.79	2.28	-49.3	-62.2	3.5	1.51e+00	0	40	104	2178940928	60	45372
2026-01-01 22:07:06.03	332.55	2.05	-49.4	-62.3	3.5	1.52e+00	0	40	104	2178940928	60	45625
2026-01-01 22:07:09.94	332.32	1.83	-49.3	-62.2	3.5	1.52e+00	0	40	104	2178940928	60	44989
2026-01-01 22:07:13.85	332.09	1.61	-49.3	-62.2	3.5	1.52e+00	0	40	104	2178940928	60	45040
2026-01-01 22:07:17.75	331.87	1.39	-49.3	-62.1	3.5	1.52e+00	0	40	104	2178940928	60	44863
2026-01-01 22:07:21.66	331.64	1.17	-49.3	-62.2	3.5	1.52e+00	0	40	104	2178940928	60	45211
2026-01-01 22:07:25.56	331.43	0.95	-49.3	-62.2	3.5	1.52e+00	0	40	104	2178940928	60	44998
2026-01-01 22:07:29.46	331.21	0.73	-49.3	-62.1	3.5	1.52e+00	0	40	104	2178940928	60	44846
2026-01-01 22:07:33.38	331.00	0.52	-49.3	-62.2	3.5	1.52e+00	0	40	104	2178940928	60	45028
2026-01-01 22:07:37.29	330.79	0.30	-49.3	-62.1	3.5	1.52e+00	0	40	104	2178940928	60	44930
2026-01-01 22:07:41.20	330.59	0.09	-49.3	-62.2	3.5	1.52e+00	0	40	104	2178940928	60	45011
2026-01-01 22:07:45.11	330.38	-0.13	-49.3	-62.1	3.5	1.52e+00	0	40	104	2178940928	60	44614

#Closed at: 2026-01-01 22:07:45
#Recorded file [2178 MB]: D:/lorett/data/35029_260102_095344.dat