passes_logs/2026/01/01/R4.6S_Anadyr/R4.6S_Anadyr__20260101_122607_SUOMI_NPP_rec.log

#Pass ID: 20260101_122607_SUOMI NPP
#Satellite: SUOMI NPP
#Configuration: NPP
#almurnet v.1.7.20251203
#Start time: 2026-01-01 12:26:08

#Version: 2.2.20231116
#Station: R4.6S_Anadyr
#Location: 177.4865 lon 64.73178 lat
#TLE: 1 37849U 11061A   25364.87906318  .00000195  00000+0  11345-3 0  9993
#TLE: 2 37849  98.7794 302.0592 0002571  89.2401 270.9069 14.19520347734561

#Time	Az	El	Level	Level2	SNR	BER	BlckErr	Temp	State	Recorded	gain1	gain2
2026-01-01 12:26:08.77	19.18	0.06	-49.2	-61.8	3.4	1.52e+00	0	35	0	0	60	43076
2026-01-01 12:26:12.81	19.48	0.26	-49.3	-64.5	3.6	1.51e+00	0	36	104	0	60	60401
2026-01-01 12:26:16.85	19.78	0.46	-49.2	-64.4	3.6	1.51e+00	0	36	104	0	60	60114
2026-01-01 12:26:20.89	20.09	0.65	-48.8	-64.0	3.6	1.51e+00	0	36	104	0	60	57356
2026-01-01 12:26:24.92	20.40	0.85	-47.7	-62.9	3.6	1.51e+00	0	37	104	0	60	50647
2026-01-01 12:26:28.96	20.72	1.05	-47.7	-62.8	3.6	1.51e+00	0	37	104	0	60	49677
2026-01-01 12:26:33.00	21.04	1.25	-47.7	-62.8	3.6	1.51e+00	0	37	104	0	60	49869
2026-01-01 12:26:37.04	21.36	1.45	-47.6	-62.8	3.6	1.51e+00	0	37	104	0	60	50138
2026-01-01 12:26:41.08	21.69	1.65	-47.7	-62.8	3.6	1.51e+00	0	37	104	0	60	50090
2026-01-01 12:26:45.12	22.02	1.86	-47.6	-62.8	3.6	1.51e+00	0	37	104	0	60	49959
2026-01-01 12:26:49.16	22.36	2.06	-47.6	-62.7	3.6	1.51e+00	0	37	104	0	60	49440
2026-01-01 12:26:53.19	22.70	2.26	-47.6	-62.1	3.6	1.51e+00	0	37	104	0	60	45968
2026-01-01 12:26:57.23	23.05	2.47	-47.4	-58.8	4.2	1.44e+00	33	37	104	0	60	31598
2026-01-01 12:27:01.27	23.40	2.67	-43.3	-45.7	16.1	0.00e+00	0	37	0	6291456	60	6990
2026-01-01 12:27:05.31	23.75	2.88	-42.9	-45.1	16.5	0.00e+00	43	37	0	13631488	58	7301
2026-01-01 12:27:09.35	24.11	3.09	-42.7	-44.7	17.1	0.00e+00	0	37	0	22020096	58	6982
2026-01-01 12:27:13.39	24.48	3.29	-45.8	-49.8	12.7	1.21e-02	0	37	0	25165824	60	11223
2026-01-01 12:27:17.43	24.85	3.50	-44.1	-46.7	16.1	0.00e+00	0	37	0	32505856	60	7830
2026-01-01 12:27:21.47	25.22	3.71	-43.9	-46.5	15.5	0.00e+00	38	37	0	39845888	60	7658
2026-01-01 12:27:25.51	25.60	3.92	-44.4	-47.3	14.4	0.00e+00	0	37	0	48234496	60	8339
2026-01-01 12:27:29.54	25.99	4.13	-43.4	-45.6	16.6	0.00e+00	0	37	0	55574528	60	6880
2026-01-01 12:27:33.58	26.38	4.34	-43.1	-45.3	16.7	0.00e+00	0	37	0	62914560	58	7432
2026-01-01 12:27:37.62	26.77	4.55	-43.1	-45.1	17.1	0.00e+00	66	37	0	70254592	58	7333
2026-01-01 12:27:41.66	27.17	4.76	-43.1	-45.2	17.2	0.00e+00	0	37	0	77594624	58	7373
2026-01-01 12:27:45.69	27.58	4.97	-42.0	-43.7	18.6	0.00e+00	0	37	0	85983232	56	6966
2026-01-01 12:27:49.72	27.99	5.18	-40.7	-42.0	19.9	0.00e+00	22	37	0	93323264	54	6444
2026-01-01 12:27:53.76	28.41	5.40	-40.5	-41.8	20.2	0.00e+00	0	37	0	100663296	54	6307
2026-01-01 12:27:57.80	28.83	5.61	-40.1	-41.3	20.6	0.00e+00	0	37	0	108003328	54	5938
2026-01-01 12:28:01.84	29.26	5.83	-40.4	-41.7	20.4	0.00e+00	0	37	0	116391936	54	6200
2026-01-01 12:28:05.88	29.69	6.04	-40.3	-41.5	20.5	0.00e+00	38	37	0	123731968	54	6095
2026-01-01 12:28:09.92	30.14	6.26	-40.6	-42.0	20.1	0.00e+00	0	37	0	131072000	54	6397
2026-01-01 12:28:13.95	30.58	6.47	-40.3	-41.6	20.5	0.00e+00	0	37	0	138412032	54	6104
2026-01-01 12:28:17.99	31.04	6.69	-40.4	-41.7	20.4	0.00e+00	0	37	0	145752064	54	6195
2026-01-01 12:28:22.03	31.50	6.90	-40.2	-41.4	20.7	0.00e+00	26	37	0	154140672	54	6016
2026-01-01 12:28:26.07	31.97	7.12	-40.3	-41.6	20.6	0.00e+00	0	37	0	161480704	54	6121
2026-01-01 12:28:30.10	32.44	7.33	-40.0	-41.2	21.0	0.00e+00	31	37	0	168820736	54	5870
2026-01-01 12:28:34.14	32.92	7.55	-39.6	-40.7	21.3	0.00e+00	35	37	0	176160768	52	6239
2026-01-01 12:28:38.17	33.41	7.77	-39.7	-40.8	21.4	0.00e+00	92	37	0	184549376	52	6272
2026-01-01 12:28:42.21	33.90	7.99	-39.4	-40.5	21.4	0.00e+00	0	38	0	191889408	52	6096
2026-01-01 12:28:46.25	34.40	8.20	-39.7	-40.9	21.2	0.00e+00	0	37	0	199229440	52	6333
2026-01-01 12:28:50.29	34.91	8.42	-39.7	-40.9	21.2	0.00e+00	36	37	0	206569472	52	6338
2026-01-01 12:28:54.32	35.43	8.64	-39.9	-41.1	21.1	0.00e+00	0	38	0	213909504	52	6475
2026-01-01 12:28:58.36	35.95	8.85	-39.8	-40.9	21.3	0.00e+00	0	38	0	222298112	52	6361
2026-01-01 12:29:02.39	36.48	9.07	-39.9	-41.0	21.3	0.00e+00	0	37	0	229638144	52	6439
2026-01-01 12:29:06.42	37.02	9.29	-39.9	-41.1	21.2	0.00e+00	67	38	0	236978176	52	6475
2026-01-01 12:29:10.46	37.57	9.50	-39.9	-41.1	21.2	0.00e+00	0	38	0	244318208	52	6482
2026-01-01 12:29:14.50	38.12	9.72	-39.3	-40.4	21.8	0.00e+00	0	38	0	252706816	52	5983
2026-01-01 12:29:18.53	38.68	9.93	-39.1	-40.2	22.0	0.00e+00	0	38	0	260046848	52	5859
2026-01-01 12:29:22.57	39.26	10.15	-39.1	-40.2	22.0	0.00e+00	43	38	0	267386880	52	5845
2026-01-01 12:29:26.61	39.83	10.36	-38.2	-39.2	22.8	0.00e+00	0	38	0	274726912	50	5861
2026-01-01 12:29:30.65	40.42	10.58	-38.3	-39.2	22.8	0.00e+00	0	37	0	282066944	50	5883
2026-01-01 12:29:34.68	41.02	10.79	-38.7	-39.8	22.3	0.00e+00	36	38	0	290455552	50	6250
2026-01-01 12:29:38.72	41.62	11.00	-38.6	-39.6	22.6	0.00e+00	0	38	0	297795584	50	6156
2026-01-01 12:29:42.76	42.23	11.21	-38.6	-39.7	22.6	0.00e+00	0	38	0	305135616	50	6177
2026-01-01 12:29:46.79	42.85	11.42	-38.6	-39.6	22.6	0.00e+00	0	38	0	312475648	50	6133
2026-01-01 12:29:50.83	43.48	11.63	-38.4	-39.4	22.7	0.00e+00	34	38	0	319815680	50	6018
2026-01-01 12:29:54.87	44.12	11.84	-38.4	-39.4	22.4	0.00e+00	0	38	0	328204288	50	5980
2026-01-01 12:29:58.91	44.77	12.04	-38.7	-39.7	22.4	0.00e+00	0	38	0	335544320	50	6210
2026-01-01 12:30:02.94	45.42	12.25	-38.6	-39.6	22.7	0.00e+00	0	38	0	342884352	50	6131
2026-01-01 12:30:06.97	46.09	12.45	-38.9	-39.9	22.4	0.00e+00	67	38	0	350224384	50	6380
2026-01-01 12:30:11.01	46.76	12.65	-39.2	-40.2	22.1	0.00e+00	0	38	0	358612992	50	6599
2026-01-01 12:30:15.05	47.44	12.85	-39.3	-40.3	22.0	0.00e+00	0	38	0	365953024	50	6690
2026-01-01 12:30:19.08	48.13	13.05	-39.3	-40.3	21.9	0.00e+00	0	38	0	373293056	50	6672
2026-01-01 12:30:23.12	48.83	13.24	-39.3	-40.4	21.8	0.00e+00	91	38	0	380633088	50	6751
2026-01-01 12:30:27.16	49.54	13.43	-39.2	-40.3	22.0	0.00e+00	31	37	0	387973120	50	6655
2026-01-01 12:30:31.19	50.26	13.62	-39.3	-40.4	21.9	0.00e+00	0	38	0	396361728	50	6724
2026-01-01 12:30:35.23	50.99	13.81	-39.5	-40.6	21.8	0.00e+00	31	38	0	403701760	50	6850
2026-01-01 12:30:39.26	51.72	13.99	-40.0	-41.2	21.3	0.00e+00	0	38	0	411041792	52	6574
2026-01-01 12:30:43.30	52.47	14.17	-39.7	-40.9	21.6	0.00e+00	0	38	0	418381824	52	6334
2026-01-01 12:30:47.34	53.22	14.35	-40.1	-41.2	21.0	0.00e+00	0	38	0	426770432	52	6606
2026-01-01 12:30:51.37	53.98	14.53	-40.7	-41.9	20.6	0.00e+00	40	38	0	434110464	54	6373
2026-01-01 12:30:55.41	54.76	14.70	-40.8	-42.1	20.4	0.00e+00	0	38	0	441450496	54	6472
2026-01-01 12:30:59.45	55.54	14.87	-40.6	-41.9	20.7	0.00e+00	0	38	0	448790528	54	6352
2026-01-01 12:31:03.48	56.32	15.03	-39.9	-41.0	21.4	0.00e+00	0	38	0	456130560	54	5761
2026-01-01 12:31:07.52	57.12	15.19	-40.3	-41.5	21.0	0.00e+00	92	38	0	464519168	54	6088
2026-01-01 12:31:11.55	57.92	15.35	-39.9	-41.1	21.5	0.00e+00	0	38	0	471859200	54	5773
2026-01-01 12:31:15.58	58.74	15.50	-39.6	-40.7	21.7	0.00e+00	0	37	0	479199232	52	6180
2026-01-01 12:31:19.62	59.56	15.64	-38.9	-39.9	22.3	0.00e+00	0	37	0	486539264	52	5689
2026-01-01 12:31:23.66	60.39	15.79	-38.8	-39.8	22.4	0.00e+00	92	37	0	493879296	50	6312
2026-01-01 12:31:27.70	61.23	15.92	-38.7	-39.8	22.5	0.00e+00	0	37	0	502267904	50	6246
2026-01-01 12:31:31.74	62.07	16.06	-38.8	-39.8	22.5	0.00e+00	0	37	0	509607936	50	6248
2026-01-01 12:31:35.78	62.92	16.18	-39.3	-40.4	21.9	0.00e+00	73	37	0	516947968	50	6741
2026-01-01 12:31:39.82	63.78	16.30	-39.6	-40.7	21.7	0.00e+00	0	37	0	524288000	50	7007
2026-01-01 12:31:43.86	64.65	16.42	-39.0	-40.0	22.3	0.00e+00	0	37	0	532676608	50	6451
2026-01-01 12:31:47.90	65.52	16.53	-38.3	-39.3	22.9	0.00e+00	0	37	0	540016640	50	5920
2026-01-01 12:31:51.93	66.40	16.64	-39.3	-40.4	22.0	0.00e+00	90	37	0	547356672	50	6729
2026-01-01 12:31:55.97	67.28	16.73	-39.1	-40.2	21.9	0.00e+00	0	37	0	554696704	50	6561
2026-01-01 12:32:00.01	68.17	16.83	-39.3	-40.4	22.0	0.00e+00	0	37	0	562036736	50	6694
2026-01-01 12:32:04.04	69.06	16.91	-38.4	-39.3	22.9	0.00e+00	0	37	0	570425344	50	5960
2026-01-01 12:32:08.08	69.96	16.99	-39.1	-40.1	22.2	0.00e+00	5	37	0	577765376	50	6514
2026-01-01 12:32:12.12	70.87	17.07	-38.4	-39.4	22.8	0.00e+00	0	37	0	585105408	50	5973
2026-01-01 12:32:16.16	71.78	17.13	-39.8	-40.9	21.5	0.00e+00	0	37	0	592445440	52	6355
2026-01-01 12:32:20.19	72.69	17.19	-39.9	-41.1	21.3	0.00e+00	40	37	0	600834048	52	6469
2026-01-01 12:32:24.23	73.60	17.25	-40.5	-41.7	20.8	0.00e+00	38	37	0	608174080	52	6969
2026-01-01 12:32:28.27	74.52	17.29	-39.9	-41.1	21.5	0.00e+00	0	37	0	615514112	52	6484
2026-01-01 12:32:32.31	75.44	17.33	-39.4	-40.5	21.9	0.00e+00	0	37	0	622854144	52	6083
2026-01-01 12:32:36.35	76.37	17.36	-39.1	-40.2	22.0	0.00e+00	37	37	0	630194176	52	5854
2026-01-01 12:32:40.39	77.29	17.39	-39.5	-40.6	21.9	0.00e+00	0	37	0	638582784	52	6125
2026-01-01 12:32:44.42	78.22	17.41	-39.4	-40.5	22.0	0.00e+00	0	37	0	645922816	52	6072
2026-01-01 12:32:48.45	79.14	17.42	-39.2	-40.2	22.1	0.00e+00	0	37	0	653262848	52	5882
2026-01-01 12:32:52.49	80.07	17.42	-38.9	-40.0	22.2	0.00e+00	64	37	0	660602880	52	5711
2026-01-01 12:32:56.53	81.00	17.42	-39.2	-40.3	22.0	0.00e+00	0	37	0	667942912	52	5908
2026-01-01 12:33:00.56	81.93	17.41	-39.4	-40.5	21.8	0.00e+00	0	37	0	676331520	52	6100
2026-01-01 12:33:04.60	82.85	17.39	-39.5	-40.7	21.7	0.00e+00	0	37	0	683671552	52	6240
2026-01-01 12:33:08.63	83.78	17.37	-39.8	-41.0	20.9	0.00e+00	88	37	0	691011584	52	6461
2026-01-01 12:33:12.68	84.70	17.33	-40.0	-41.2	21.3	0.00e+00	0	37	0	698351616	52	6548
2026-01-01 12:33:16.71	85.62	17.29	-38.7	-39.7	22.5	0.00e+00	0	37	0	706740224	50	6245
2026-01-01 12:33:20.75	86.54	17.25	-38.3	-39.2	22.8	0.00e+00	92	37	0	714080256	50	5886
2026-01-01 12:33:24.79	87.46	17.19	-38.9	-39.9	22.5	0.00e+00	0	37	0	721420288	50	6350
2026-01-01 12:33:28.83	88.37	17.13	-39.4	-40.5	21.9	0.00e+00	0	37	0	728760320	50	6775
2026-01-01 12:33:32.86	89.28	17.07	-39.5	-40.6	21.8	0.00e+00	0	37	0	736100352	50	6886
2026-01-01 12:33:36.89	90.19	17.00	-38.9	-39.9	22.3	0.00e+00	90	37	0	744488960	50	6341
2026-01-01 12:33:40.92	91.09	16.92	-38.9	-39.9	22.3	0.00e+00	0	37	0	751828992	50	6344
2026-01-01 12:33:44.96	91.98	16.83	-38.6	-39.6	22.4	0.00e+00	0	37	0	759169024	50	6114
2026-01-01 12:33:49.00	92.88	16.74	-38.5	-39.5	22.6	0.00e+00	9	37	0	766509056	50	6083
2026-01-01 12:33:53.04	93.76	16.64	-38.4	-39.4	22.7	0.00e+00	34	37	0	774897664	50	5997
2026-01-01 12:33:57.07	94.64	16.53	-38.5	-39.5	22.6	0.00e+00	0	37	0	782237696	50	6070
2026-01-01 12:34:01.11	95.51	16.42	-37.9	-38.9	23.2	0.00e+00	0	37	0	789577728	50	5642
2026-01-01 12:34:05.15	96.38	16.31	-37.9	-39.0	23.1	0.00e+00	38	37	0	796917760	48	6413
2026-01-01 12:34:09.19	97.24	16.18	-38.2	-39.1	22.9	0.00e+00	45	37	0	804257792	48	6537
2026-01-01 12:34:13.23	98.10	16.06	-38.1	-39.0	23.1	0.00e+00	0	37	0	812646400	48	6431
2026-01-01 12:34:17.26	98.94	15.92	-38.3	-39.2	22.9	0.00e+00	0	37	0	819986432	48	6613
2026-01-01 12:34:21.30	99.78	15.79	-38.2	-39.2	22.9	0.00e+00	36	37	0	827326464	48	6568
2026-01-01 12:34:25.34	100.62	15.64	-37.9	-38.8	23.1	0.00e+00	0	37	0	834666496	48	6290
2026-01-01 12:34:29.37	101.44	15.50	-38.3	-39.3	22.8	0.00e+00	0	37	0	843055104	48	6665
2026-01-01 12:34:33.41	102.26	15.34	-38.0	-39.0	23.0	0.00e+00	0	37	0	850395136	48	6406
2026-01-01 12:34:37.45	103.07	15.19	-39.3	-40.4	21.7	0.00e+00	90	37	0	857735168	50	6733
2026-01-01 12:34:41.48	103.86	15.03	-39.4	-40.5	21.5	0.00e+00	0	37	0	865075200	52	6098
2026-01-01 12:34:45.52	104.66	14.86	-38.5	-39.5	22.6	0.00e+00	0	37	0	872415232	50	6101
2026-01-01 12:34:49.55	105.44	14.69	-38.6	-39.7	22.5	0.00e+00	7	37	0	880803840	50	6187
2026-01-01 12:34:53.59	106.21	14.52	-39.0	-40.2	22.0	0.00e+00	92	37	0	888143872	50	6563
2026-01-01 12:34:57.63	106.98	14.35	-39.9	-41.2	21.0	0.00e+00	0	37	0	895483904	52	6588
2026-01-01 12:35:01.68	107.74	14.17	-40.3	-41.6	20.8	0.00e+00	0	37	0	902823936	52	6887
2026-01-01 12:35:05.71	108.49	13.98	-39.8	-41.0	21.4	0.00e+00	62	37	0	911212544	52	6433
2026-01-01 12:35:09.72	109.22	13.80	-39.6	-40.8	21.6	0.00e+00	78	37	0	917504000	52	6256
2026-01-01 12:35:13.76	109.95	13.61	-39.2	-40.2	22.0	0.00e+00	0	37	0	924844032	52	5881
2026-01-01 12:35:17.80	110.67	13.42	-39.9	-41.0	21.2	0.00e+00	0	37	0	933232640	52	6447
2026-01-01 12:35:21.83	111.38	13.23	-39.7	-40.9	21.3	0.00e+00	0	37	0	940572672	52	6343
2026-01-01 12:35:25.87	112.09	13.03	-39.8	-41.0	21.3	0.00e+00	90	37	0	947912704	52	6428
2026-01-01 12:35:29.91	112.78	12.83	-39.4	-40.5	21.6	0.00e+00	0	37	0	955252736	52	6073
2026-01-01 12:35:33.95	113.47	12.63	-39.6	-40.8	21.4	0.00e+00	0	37	0	963641344	52	6289
2026-01-01 12:35:37.98	114.14	12.43	-39.4	-40.6	21.5	0.00e+00	47	37	0	970981376	52	6110
2026-01-01 12:35:42.02	114.81	12.23	-38.8	-39.9	22.1	0.00e+00	0	37	0	978321408	52	5649
2026-01-01 12:35:46.06	115.47	12.02	-38.7	-39.7	22.2	0.00e+00	0	37	0	985661440	50	6219
2026-01-01 12:35:50.10	116.12	11.81	-38.8	-39.9	22.0	0.00e+00	0	37	0	993001472	50	6383
2026-01-01 12:35:54.13	116.76	11.60	-38.7	-39.7	22.2	0.00e+00	92	37	0	1001390080	50	6221
2026-01-01 12:35:58.17	117.39	11.39	-39.1	-40.1	21.9	0.00e+00	33	37	0	1008730112	50	6524
2026-01-01 12:36:02.21	118.01	11.18	-38.6	-39.6	22.2	0.00e+00	0	37	0	1016070144	50	6171
2026-01-01 12:36:06.24	118.63	10.97	-38.2	-39.2	22.7	0.00e+00	0	37	0	1023410176	50	5872
2026-01-01 12:36:10.29	119.23	10.76	-38.5	-39.5	22.4	0.00e+00	25	37	0	1030750208	50	6068
2026-01-01 12:36:14.32	119.83	10.54	-38.5	-39.6	22.4	0.00e+00	0	37	0	1039138816	50	6111
2026-01-01 12:36:18.36	120.42	10.33	-38.8	-39.8	22.1	0.00e+00	0	37	0	1046478848	50	6306
2026-01-01 12:36:22.39	121.00	10.11	-39.1	-40.1	21.8	0.00e+00	33	37	0	1053818880	50	6538
2026-01-01 12:36:26.44	121.57	9.89	-38.9	-40.0	22.0	0.00e+00	61	37	0	1061158912	50	6432
2026-01-01 12:36:30.47	122.14	9.68	-38.5	-39.5	22.3	0.00e+00	0	37	0	1069547520	50	6053
2026-01-01 12:36:34.51	122.69	9.46	-39.4	-40.5	21.5	0.00e+00	0	37	0	1076887552	50	6784
2026-01-01 12:36:38.55	123.24	9.24	-39.9	-41.1	21.0	0.00e+00	92	37	0	1084227584	52	6487
2026-01-01 12:36:42.58	123.78	9.02	-39.4	-40.5	21.5	0.00e+00	0	37	0	1091567616	52	6071
2026-01-01 12:36:46.62	124.31	8.80	-39.7	-40.9	21.1	0.00e+00	0	37	0	1098907648	52	6353
2026-01-01 12:36:50.66	124.84	8.58	-40.0	-41.3	20.7	0.00e+00	0	37	0	1107296256	52	6633
2026-01-01 12:36:54.69	125.36	8.37	-40.2	-41.4	20.6	0.00e+00	92	37	0	1114636288	52	6762
2026-01-01 12:36:58.72	125.87	8.15	-40.2	-41.5	20.6	0.00e+00	0	37	0	1121976320	52	6819
2026-01-01 12:37:02.75	126.37	7.93	-40.5	-41.9	20.2	0.00e+00	0	37	0	1129316352	52	7124
2026-01-01 12:37:06.79	126.86	7.71	-40.0	-41.2	20.8	0.00e+00	0	37	0	1137704960	52	6572
2026-01-01 12:37:10.83	127.35	7.49	-39.6	-40.8	21.1	0.00e+00	90	37	0	1145044992	52	6260
2026-01-01 12:37:14.86	127.83	7.27	-40.3	-41.6	20.4	0.00e+00	0	37	0	1152385024	52	6864
2026-01-01 12:37:18.89	128.31	7.05	-40.6	-42.0	19.8	0.00e+00	0	37	0	1159725056	54	6457
2026-01-01 12:37:22.93	128.77	6.83	-40.0	-41.2	20.7	0.00e+00	72	37	0	1167065088	54	5895
2026-01-01 12:37:26.97	129.24	6.62	-39.8	-41.0	20.6	0.00e+00	0	37	0	1175453696	52	6393
2026-01-01 12:37:31.01	129.69	6.40	-40.2	-41.5	20.4	0.00e+00	0	37	0	1182793728	52	6779
2026-01-01 12:37:35.05	130.14	6.18	-41.0	-42.4	19.6	0.00e+00	0	37	0	1190133760	54	6764
2026-01-01 12:37:39.09	130.58	5.96	-40.8	-42.3	19.6	0.00e+00	68	37	0	1197473792	54	6619
2026-01-01 12:37:43.12	131.02	5.75	-41.3	-42.8	19.2	0.00e+00	0	37	0	1205862400	54	7085
2026-01-01 12:37:47.16	131.44	5.53	-42.0	-43.8	18.2	0.00e+00	0	38	0	1213202432	56	7014
2026-01-01 12:37:51.19	131.87	5.32	-42.2	-44.0	18.1	0.00e+00	0	37	0	1220542464	56	7194
2026-01-01 12:37:55.23	132.28	5.10	-41.9	-43.6	18.3	0.00e+00	92	37	0	1227882496	56	6925
2026-01-01 12:37:59.26	132.70	4.89	-41.3	-42.9	18.9	0.00e+00	0	37	0	1235222528	56	6347
2026-01-01 12:38:03.30	133.10	4.67	-41.3	-42.9	18.8	0.00e+00	0	37	0	1243611136	56	6385
2026-01-01 12:38:07.34	133.50	4.46	-41.5	-43.2	18.6	0.00e+00	0	37	0	1250951168	56	6596
2026-01-01 12:38:11.38	133.90	4.25	-41.3	-42.9	18.9	0.00e+00	92	37	0	1258291200	56	6386
2026-01-01 12:38:15.42	134.29	4.03	-41.1	-42.6	19.1	0.00e+00	0	38	0	1265631232	56	6149
2026-01-01 12:38:19.46	134.67	3.82	-41.4	-43.0	18.7	0.00e+00	0	37	0	1274019840	56	6439
2026-01-01 12:38:23.49	135.05	3.61	-41.7	-43.5	18.1	0.00e+00	60	38	0	1281359872	56	6779
2026-01-01 12:38:27.53	135.42	3.40	-42.3	-44.3	17.1	0.00e+00	0	37	0	1288699904	56	7487
2026-01-01 12:38:31.57	135.79	3.19	-42.5	-44.6	17.0	0.00e+00	0	37	0	1296039936	58	6888
2026-01-01 12:38:35.61	136.15	2.98	-43.4	-46.0	9.5	0.00e+00	0	37	0	1303379968	58	8135
2026-01-01 12:38:39.65	136.51	2.77	-48.9	-64.1	3.6	1.51e+00	0	37	104	1303379968	60	58137
2026-01-01 12:38:43.68	136.87	2.57	-49.2	-64.4	3.6	1.51e+00	0	38	104	1303379968	60	59654
2026-01-01 12:38:47.72	137.21	2.36	-49.1	-64.4	3.6	1.51e+00	0	38	104	1303379968	60	59905
2026-01-01 12:38:51.76	137.56	2.15	-49.1	-64.3	3.6	1.51e+00	0	38	104	1303379968	60	59504
2026-01-01 12:38:55.80	137.90	1.95	-49.1	-64.3	3.6	1.51e+00	0	38	104	1303379968	60	59457
2026-01-01 12:38:59.84	138.23	1.74	-49.1	-64.3	3.6	1.51e+00	0	38	104	1303379968	60	59572
2026-01-01 12:39:03.88	138.57	1.54	-49.1	-64.4	3.6	1.51e+00	0	38	104	1303379968	60	59796
2026-01-01 12:39:07.93	138.89	1.33	-49.1	-64.4	3.6	1.51e+00	0	38	104	1303379968	60	59654
2026-01-01 12:39:11.97	139.22	1.13	-49.1	-64.3	3.5	1.51e+00	0	38	104	1303379968	60	59564
2026-01-01 12:39:16.00	139.53	0.93	-49.1	-64.3	3.6	1.51e+00	0	38	104	1303379968	60	59386
2026-01-01 12:39:20.04	139.85	0.73	-49.1	-64.3	3.6	1.51e+00	0	38	104	1303379968	60	59423
2026-01-01 12:39:24.08	140.16	0.53	-49.1	-64.3	3.6	1.51e+00	0	38	104	1303379968	60	59572
2026-01-01 12:39:28.12	140.46	0.33	-49.1	-64.3	3.6	1.51e+00	0	38	104	1303379968	60	59344
2026-01-01 12:39:32.15	140.77	0.13	-49.1	-64.4	3.6	1.51e+00	0	38	104	1303379968	60	59861

#Closed at: 2026-01-01 12:39:35
#Recorded file [1303 MB]: D:/lorett/data/35029_260102_002608.dat