passes_logs/2026/01/01/R4.6S_Anadyr/R4.6S_Anadyr__20260101_115636_NOAA_21_JPSS-2_rec.log

#Pass ID: 20260101_115636_NOAA 21 (JPSS-2)
#Satellite: NOAA 21 (JPSS-2)
#Configuration: NOAA-21
#almurnet v.1.7.20251203
#Start time: 2026-01-01 11:56:38

#Version: 2.2.20231116
#Station: R4.6S_Anadyr
#Location: 177.4865 lon 64.73178 lat
#TLE: 1 54234U 22150A   25364.85835894  .00000203  00000+0  11731-3 0  9998
#TLE: 2 54234  98.7482 300.9425 0001352 357.8195   2.2975 14.19530071162667

#Time	Az	El	Level	Level2	SNR	BER	BlckErr	Temp	State	Recorded	gain1	gain2
2026-01-01 11:56:38.31	19.75	0.09	-49.3	-61.0	3.5	8.45e-01	0	35	0	0	60	40399
2026-01-01 11:56:41.33	20.01	0.22	-49.2	-62.1	3.5	1.52e+00	0	36	104	0	60	44788
2026-01-01 11:56:44.37	20.27	0.36	-49.3	-62.1	3.5	1.52e+00	0	36	104	0	60	44729
2026-01-01 11:56:47.40	20.53	0.49	-49.2	-62.1	3.5	1.52e+00	0	37	104	0	60	44594
2026-01-01 11:56:50.43	20.80	0.63	-48.9	-61.8	3.5	1.51e+00	0	37	104	0	60	42998
2026-01-01 11:56:53.46	21.07	0.76	-48.4	-61.2	3.5	1.52e+00	0	37	104	0	60	40382
2026-01-01 11:56:56.48	21.34	0.90	-47.7	-60.5	3.5	1.52e+00	0	37	104	0	60	37068
2026-01-01 11:56:59.51	21.61	1.03	-47.7	-60.5	3.5	1.52e+00	0	37	104	0	60	37017
2026-01-01 11:57:02.54	21.89	1.17	-47.7	-60.4	3.5	1.52e+00	0	37	104	0	60	36754
2026-01-01 11:57:05.57	22.17	1.30	-47.7	-60.5	3.5	1.52e+00	0	37	104	0	60	36994
2026-01-01 11:57:08.60	22.45	1.44	-47.7	-60.4	3.5	1.52e+00	0	37	104	0	60	36829
2026-01-01 11:57:11.63	22.73	1.57	-47.7	-60.5	3.5	1.52e+00	0	37	104	0	60	37157
2026-01-01 11:57:14.66	23.02	1.71	-47.7	-60.5	3.5	1.51e+00	0	37	104	0	60	37179
2026-01-01 11:57:17.69	23.31	1.84	-47.7	-60.5	3.5	1.52e+00	0	37	104	0	60	37080
2026-01-01 11:57:20.72	23.60	1.98	-47.7	-60.5	3.5	1.52e+00	0	37	104	0	60	37025
2026-01-01 11:57:23.75	23.89	2.12	-47.7	-60.5	3.5	1.51e+00	0	37	104	0	60	36987
2026-01-01 11:57:26.78	24.19	2.25	-47.7	-60.4	3.5	1.52e+00	0	37	104	0	60	36766
2026-01-01 11:57:29.81	24.49	2.39	-47.7	-60.3	3.5	1.52e+00	0	37	104	0	60	36379
2026-01-01 11:57:32.84	24.79	2.53	-47.5	-58.9	3.6	1.51e+00	0	37	104	0	60	30883
2026-01-01 11:57:35.87	25.09	2.66	-44.8	-48.2	11.3	9.65e-03	123	37	0	3145728	60	9016
2026-01-01 11:57:38.90	25.40	2.80	-40.2	-41.7	18.1	0.00e+00	123	37	0	12582912	54	5998
2026-01-01 11:57:41.93	25.71	2.93	-40.9	-42.6	17.0	0.00e+00	122	37	0	22020096	54	6663
2026-01-01 11:57:44.96	26.02	3.07	-47.8	-58.7	3.8	1.51e+00	0	37	104	30408704	60	30315
2026-01-01 11:57:47.98	26.33	3.21	-40.4	-41.8	18.0	0.00e+00	122	37	0	30408704	54	6124
2026-01-01 11:57:51.01	26.65	3.34	-40.2	-41.7	18.1	0.00e+00	123	38	0	35651584	54	6024
2026-01-01 11:57:54.04	26.97	3.48	-40.5	-42.0	17.9	0.00e+00	123	38	0	45088768	54	6235
2026-01-01 11:57:57.07	27.29	3.62	-41.0	-42.6	17.7	0.00e+00	122	38	0	54525952	54	6691
2026-01-01 11:58:00.10	27.62	3.75	-40.3	-41.8	18.6	0.00e+00	123	38	0	63963136	52	6851
2026-01-01 11:58:03.13	27.95	3.89	-39.9	-41.3	18.5	0.00e+00	121	38	0	74448896	52	6469
2026-01-01 11:58:06.16	28.28	4.02	-40.4	-41.9	17.4	0.00e+00	123	38	0	82837504	54	6199
2026-01-01 11:58:09.19	28.61	4.16	-39.5	-40.9	19.2	0.00e+00	123	38	0	93323264	52	6152
2026-01-01 11:58:12.21	28.95	4.30	-39.4	-40.6	19.5	0.00e+00	122	38	0	101711872	52	5992
2026-01-01 11:58:15.25	29.29	4.43	-39.2	-40.4	19.4	0.00e+00	123	38	0	112197632	52	5851
2026-01-01 11:58:18.28	29.64	4.57	-39.6	-40.9	18.9	0.00e+00	123	38	0	121634816	52	6179
2026-01-01 11:58:21.31	29.98	4.70	-40.0	-41.3	19.2	0.00e+00	123	38	0	131072000	52	6494
2026-01-01 11:58:24.34	30.33	4.84	-39.4	-40.7	19.3	0.00e+00	121	38	0	140509184	52	6009
2026-01-01 11:58:27.37	30.69	4.97	-38.8	-40.1	19.9	0.00e+00	124	38	0	149946368	50	6298
2026-01-01 11:58:30.40	31.04	5.11	-38.5	-39.7	20.3	0.00e+00	123	38	0	159383552	50	6026
2026-01-01 11:58:33.43	31.40	5.24	-38.5	-39.7	20.4	0.00e+00	122	38	0	168820736	50	6017
2026-01-01 11:58:36.46	31.76	5.38	-38.5	-39.7	20.4	0.00e+00	123	38	0	178257920	50	6039
2026-01-01 11:58:39.49	32.13	5.51	-38.5	-39.6	20.5	0.00e+00	123	38	0	187695104	50	5981
2026-01-01 11:58:42.52	32.50	5.65	-38.2	-39.3	20.7	0.00e+00	123	38	0	197132288	50	5771
2026-01-01 11:58:45.54	32.87	5.78	-38.3	-39.4	20.7	0.00e+00	123	38	0	206569472	50	5855
2026-01-01 11:58:48.57	33.24	5.91	-38.1	-39.3	20.9	0.00e+00	120	38	0	216006656	50	5728
2026-01-01 11:58:51.60	33.62	6.05	-38.0	-39.1	20.9	0.00e+00	122	38	0	225443840	50	5648
2026-01-01 11:58:54.63	34.00	6.18	-38.0	-39.2	20.9	0.00e+00	123	38	0	234881024	50	5672
2026-01-01 11:58:57.66	34.39	6.31	-38.0	-39.1	21.0	0.00e+00	123	38	0	244318208	50	5637
2026-01-01 11:59:00.69	34.78	6.44	-38.0	-39.1	21.0	0.00e+00	122	38	0	253755392	50	5638
2026-01-01 11:59:03.72	35.17	6.58	-37.8	-39.0	21.0	0.00e+00	123	38	0	263192576	48	6212
2026-01-01 11:59:06.75	35.57	6.71	-37.7	-38.8	21.3	0.00e+00	120	38	0	272629760	48	6103
2026-01-01 11:59:09.78	35.96	6.84	-37.7	-38.8	21.3	0.00e+00	120	38	0	282066944	48	6119
2026-01-01 11:59:12.81	36.37	6.97	-37.3	-38.4	21.7	0.00e+00	122	38	0	291504128	48	5807
2026-01-01 11:59:15.84	36.77	7.10	-37.5	-38.5	21.6	0.00e+00	120	38	0	300941312	48	5915
2026-01-01 11:59:18.87	37.18	7.23	-37.6	-38.6	21.4	0.00e+00	122	38	0	310378496	48	5969
2026-01-01 11:59:21.90	37.60	7.35	-37.7	-38.8	21.4	0.00e+00	123	38	0	319815680	48	6085
2026-01-01 11:59:24.93	38.01	7.48	-37.3	-38.4	21.7	0.00e+00	121	38	0	329252864	48	5828
2026-01-01 11:59:27.96	38.43	7.61	-37.4	-38.4	21.6	0.00e+00	123	38	0	338690048	48	5841
2026-01-01 11:59:30.99	38.86	7.74	-37.4	-38.5	21.6	0.00e+00	122	38	0	348127232	48	5885
2026-01-01 11:59:34.02	39.28	7.86	-37.4	-38.5	21.7	0.00e+00	122	38	0	357564416	48	5877
2026-01-01 11:59:37.05	39.71	7.99	-37.5	-38.6	21.6	0.00e+00	123	38	0	367001600	48	5932
2026-01-01 11:59:40.08	40.15	8.11	-37.3	-38.4	21.8	0.00e+00	122	38	0	376438784	48	5823
2026-01-01 11:59:43.11	40.58	8.24	-37.4	-38.4	21.7	0.00e+00	124	38	0	385875968	48	5833
2026-01-01 11:59:46.14	41.03	8.36	-37.2	-38.2	21.9	0.00e+00	121	38	0	395313152	48	5688
2026-01-01 11:59:49.17	41.47	8.48	-37.1	-38.1	22.0	0.00e+00	122	38	0	404750336	48	5623
2026-01-01 11:59:52.20	41.92	8.60	-37.1	-38.1	22.1	0.00e+00	122	38	0	415236096	48	5645
2026-01-01 11:59:55.22	42.37	8.72	-37.1	-38.1	22.1	0.00e+00	123	38	0	424673280	48	5658
2026-01-01 11:59:58.26	42.83	8.84	-37.2	-38.2	22.0	0.00e+00	123	38	0	434110464	48	5691
2026-01-01 12:00:01.29	43.29	8.96	-37.0	-38.0	22.2	0.00e+00	123	38	0	443547648	48	5554
2026-01-01 12:00:04.32	43.75	9.08	-36.7	-37.7	22.5	0.00e+00	123	38	0	452984832	46	6025
2026-01-01 12:00:07.35	44.22	9.19	-36.8	-37.8	22.4	0.00e+00	120	38	0	462422016	46	6069
2026-01-01 12:00:10.38	44.69	9.31	-36.8	-37.8	22.4	0.00e+00	123	38	0	471859200	46	6085
2026-01-01 12:00:13.41	45.16	9.42	-36.9	-37.9	22.2	0.00e+00	122	38	0	481296384	46	6194
2026-01-01 12:00:16.44	45.64	9.53	-37.2	-38.2	22.0	0.00e+00	122	38	0	490733568	46	6379
2026-01-01 12:00:19.46	46.12	9.64	-37.3	-38.3	22.0	0.00e+00	123	38	0	500170752	46	6468
2026-01-01 12:00:22.50	46.60	9.76	-37.0	-38.0	22.2	0.00e+00	122	38	0	509607936	46	6261
2026-01-01 12:00:25.52	47.09	9.86	-37.0	-38.0	22.2	0.00e+00	122	38	0	519045120	46	6252
2026-01-01 12:00:28.56	47.58	9.97	-36.9	-38.0	22.3	0.00e+00	123	38	0	528482304	46	6229
2026-01-01 12:00:31.58	48.08	10.08	-37.0	-38.0	22.2	0.00e+00	123	38	0	537919488	46	6240
2026-01-01 12:00:34.61	48.57	10.18	-36.9	-37.9	22.3	0.00e+00	122	38	0	547356672	46	6168
2026-01-01 12:00:37.64	49.08	10.29	-36.8	-37.8	22.4	0.00e+00	122	38	0	556793856	46	6133
2026-01-01 12:00:40.67	49.58	10.39	-36.8	-37.8	22.4	0.00e+00	123	38	0	566231040	46	6103
2026-01-01 12:00:43.70	50.09	10.49	-37.0	-38.0	22.2	0.00e+00	123	38	0	575668224	46	6234
2026-01-01 12:00:46.73	50.60	10.59	-37.3	-38.3	22.0	0.00e+00	122	38	0	585105408	46	6498
2026-01-01 12:00:49.76	51.12	10.68	-37.1	-38.1	22.1	0.00e+00	122	38	0	594542592	46	6319
2026-01-01 12:00:52.79	51.64	10.78	-37.1	-38.1	22.2	0.00e+00	122	38	0	603979776	46	6313
2026-01-01 12:00:55.82	52.16	10.87	-36.9	-37.9	22.3	0.00e+00	120	38	0	613416960	46	6159
2026-01-01 12:00:58.85	52.68	10.96	-36.9	-37.9	22.4	0.00e+00	122	38	0	622854144	46	6149
2026-01-01 12:01:01.88	53.21	11.05	-36.9	-37.9	22.4	0.00e+00	122	38	0	632291328	46	6160
2026-01-01 12:01:04.91	53.74	11.14	-36.7	-37.7	22.5	0.00e+00	122	38	0	641728512	46	6055
2026-01-01 12:01:07.95	54.28	11.23	-36.8	-37.8	22.4	0.00e+00	123	38	0	651165696	46	6117
2026-01-01 12:01:10.98	54.82	11.31	-37.0	-38.1	22.2	0.00e+00	120	38	0	660602880	46	6298
2026-01-01 12:01:14.00	55.36	11.40	-36.7	-37.7	22.5	0.00e+00	123	38	0	670040064	46	6012
2026-01-01 12:01:17.03	55.90	11.48	-36.5	-37.5	22.7	0.00e+00	123	38	0	679477248	46	5899
2026-01-01 12:01:20.06	56.45	11.55	-36.5	-37.5	22.7	0.00e+00	122	38	0	688914432	46	5902
2026-01-01 12:01:23.09	57.00	11.63	-36.8	-37.8	22.4	0.00e+00	122	38	0	698351616	46	6119
2026-01-01 12:01:26.12	57.55	11.71	-36.8	-37.8	22.4	0.00e+00	122	38	0	707788800	46	6127
2026-01-01 12:01:29.15	58.10	11.78	-36.5	-37.5	22.7	0.00e+00	122	38	0	717225984	46	5905
2026-01-01 12:01:32.18	58.66	11.85	-36.5	-37.5	22.7	0.00e+00	123	38	0	727711744	46	5884
2026-01-01 12:01:35.21	59.22	11.91	-36.6	-37.6	22.6	0.00e+00	122	38	0	736100352	46	5955
2026-01-01 12:01:38.24	59.78	11.98	-36.6	-37.6	22.7	0.00e+00	123	38	0	746586112	46	5974
2026-01-01 12:01:41.26	60.35	12.04	-36.5	-37.5	22.7	0.00e+00	123	38	0	756023296	46	5903
2026-01-01 12:01:44.29	60.91	12.10	-36.8	-37.8	22.4	0.00e+00	123	38	0	765460480	46	6094
2026-01-01 12:01:47.32	61.48	12.16	-36.8	-37.8	22.4	0.00e+00	123	38	0	774897664	46	6101
2026-01-01 12:01:50.35	62.05	12.22	-36.6	-37.6	22.6	0.00e+00	122	38	0	784334848	46	5962
2026-01-01 12:01:53.38	62.63	12.27	-36.6	-37.6	22.6	0.00e+00	122	38	0	793772032	46	5947
2026-01-01 12:01:56.41	63.20	12.32	-36.3	-37.3	22.8	0.00e+00	122	38	0	803209216	46	5763
2026-01-01 12:01:59.44	63.78	12.37	-36.5	-37.5	22.7	0.00e+00	123	38	0	812646400	46	5860
2026-01-01 12:02:02.47	64.36	12.42	-36.5	-37.5	22.7	0.00e+00	122	38	0	822083584	46	5902
2026-01-01 12:02:05.50	64.94	12.46	-36.4	-37.4	22.7	0.00e+00	122	38	0	831520768	46	5852
2026-01-01 12:02:08.52	65.52	12.50	-36.7	-37.8	22.3	0.00e+00	122	38	0	840957952	46	6081
2026-01-01 12:02:11.55	66.11	12.54	-36.6	-37.7	22.4	0.00e+00	123	38	0	850395136	46	6003
2026-01-01 12:02:14.58	66.69	12.57	-36.5	-37.6	22.7	0.00e+00	122	38	0	859832320	46	5930
2026-01-01 12:02:17.61	67.28	12.61	-36.6	-37.6	22.7	0.00e+00	122	38	0	869269504	46	5937
2026-01-01 12:02:20.64	67.87	12.64	-36.4	-37.4	22.8	0.00e+00	120	38	0	878706688	46	5856
2026-01-01 12:02:23.67	68.46	12.67	-36.2	-37.2	23.0	0.00e+00	122	38	0	888143872	46	5690
2026-01-01 12:02:26.70	69.05	12.69	-36.2	-37.2	23.0	0.00e+00	122	38	0	897581056	46	5681
2026-01-01 12:02:29.73	69.64	12.71	-36.3	-37.2	22.9	0.00e+00	120	38	0	907018240	46	5723
2026-01-01 12:02:32.75	70.23	12.73	-36.3	-37.3	22.8	0.00e+00	122	38	0	916455424	46	5779
2026-01-01 12:02:35.78	70.83	12.75	-36.3	-37.3	22.9	0.00e+00	123	38	0	925892608	46	5740
2026-01-01 12:02:38.81	71.42	12.76	-36.2	-37.2	22.9	0.00e+00	122	38	0	935329792	46	5682
2026-01-01 12:02:41.84	72.01	12.77	-36.1	-37.1	23.1	0.00e+00	123	38	0	944766976	46	5634
2026-01-01 12:02:44.87	72.61	12.78	-36.1	-37.0	23.2	0.00e+00	122	38	0	954204160	46	5587
2026-01-01 12:02:47.90	73.20	12.79	-36.1	-37.1	23.0	0.00e+00	122	38	0	963641344	46	5618
2026-01-01 12:02:50.93	73.80	12.79	-36.4	-37.3	22.9	0.00e+00	123	38	0	973078528	46	5779
2026-01-01 12:02:53.96	74.40	12.79	-36.1	-37.1	23.0	0.00e+00	123	38	0	982515712	46	5622
2026-01-01 12:02:56.99	74.99	12.79	-36.1	-37.1	23.0	0.00e+00	122	38	0	991952896	46	5639
2026-01-01 12:03:00.02	75.59	12.78	-36.2	-37.1	23.0	0.00e+00	123	38	0	1001390080	46	5644
2026-01-01 12:03:03.03	76.18	12.77	-36.4	-37.4	22.7	0.00e+00	122	38	0	1010827264	46	5846
2026-01-01 12:03:06.06	76.77	12.76	-36.5	-37.6	22.6	0.00e+00	123	38	0	1020264448	46	5930
2026-01-01 12:03:09.09	77.37	12.75	-36.5	-37.5	22.6	0.00e+00	122	38	0	1029701632	46	5914
2026-01-01 12:03:12.12	77.96	12.73	-36.4	-37.4	22.8	0.00e+00	123	38	0	1039138816	46	5796
2026-01-01 12:03:15.15	78.55	12.71	-36.2	-37.2	22.9	0.00e+00	120	38	0	1048576000	46	5684
2026-01-01 12:03:18.18	79.14	12.69	-36.2	-37.2	22.9	0.00e+00	123	38	0	1058013184	46	5698
2026-01-01 12:03:21.21	79.74	12.66	-36.4	-37.4	22.8	0.00e+00	120	38	0	1067450368	46	5838
2026-01-01 12:03:24.24	80.33	12.63	-36.3	-37.2	22.9	0.00e+00	123	38	0	1076887552	46	5718
2026-01-01 12:03:27.27	80.92	12.60	-36.0	-37.0	23.1	0.00e+00	122	38	0	1086324736	46	5564
2026-01-01 12:03:30.30	81.50	12.57	-36.1	-37.1	23.0	0.00e+00	122	38	0	1096810496	46	5620
2026-01-01 12:03:33.33	82.09	12.53	-36.2	-37.2	23.0	0.00e+00	123	38	0	1106247680	46	5678
2026-01-01 12:03:36.36	82.68	12.50	-36.2	-37.2	23.0	0.00e+00	122	38	0	1115684864	46	5711
2026-01-01 12:03:39.40	83.26	12.45	-36.3	-37.3	22.8	0.00e+00	120	38	0	1125122048	46	5770
2026-01-01 12:03:42.43	83.84	12.41	-36.4	-37.3	22.8	0.00e+00	122	38	0	1134559232	46	5784
2026-01-01 12:03:45.46	84.42	12.36	-36.2	-37.2	23.1	0.00e+00	123	38	0	1143996416	46	5669
2026-01-01 12:03:48.49	85.00	12.31	-36.2	-37.1	23.0	0.00e+00	122	38	0	1153433600	46	5647
2026-01-01 12:03:51.52	85.58	12.26	-36.1	-37.1	23.0	0.00e+00	122	38	0	1162870784	46	5641
2026-01-01 12:03:54.54	86.15	12.21	-36.2	-37.2	23.0	0.00e+00	123	38	0	1172307968	46	5694
2026-01-01 12:03:57.57	86.72	12.15	-36.6	-37.6	22.7	0.00e+00	122	38	0	1181745152	46	5958
2026-01-01 12:04:00.60	87.29	12.09	-36.5	-37.5	22.7	0.00e+00	123	38	0	1191182336	46	5914
2026-01-01 12:04:03.63	87.86	12.03	-36.3	-37.2	22.9	0.00e+00	122	38	0	1200619520	46	5718
2026-01-01 12:04:06.66	88.43	11.97	-36.4	-37.4	22.8	0.00e+00	123	38	0	1210056704	46	5845
2026-01-01 12:04:09.69	88.99	11.90	-36.3	-37.4	22.9	0.00e+00	123	38	0	1219493888	46	5811
2026-01-01 12:04:12.72	89.55	11.83	-36.4	-37.5	22.8	0.00e+00	120	38	0	1228931072	46	5861
2026-01-01 12:04:15.75	90.11	11.76	-36.6	-37.6	22.7	0.00e+00	122	38	0	1238368256	46	5940
2026-01-01 12:04:18.78	90.67	11.69	-36.4	-37.4	22.8	0.00e+00	120	38	0	1247805440	46	5818
2026-01-01 12:04:21.81	91.22	11.62	-36.4	-37.4	22.7	0.00e+00	120	38	0	1257242624	46	5851
2026-01-01 12:04:24.84	91.77	11.54	-36.5	-37.6	22.6	0.00e+00	123	38	0	1266679808	46	5931
2026-01-01 12:04:27.87	92.32	11.46	-36.6	-37.6	22.6	0.00e+00	120	38	0	1276116992	46	5945
2026-01-01 12:04:30.90	92.86	11.38	-36.4	-37.4	22.7	0.00e+00	122	38	0	1285554176	46	5855
2026-01-01 12:04:33.93	93.41	11.30	-36.4	-37.4	22.6	0.00e+00	120	38	0	1294991360	46	5827
2026-01-01 12:04:36.96	93.95	11.21	-36.5	-37.5	22.6	0.00e+00	122	38	0	1304428544	46	5880
2026-01-01 12:04:39.99	94.48	11.12	-36.5	-37.6	22.6	0.00e+00	122	38	0	1313865728	46	5932
2026-01-01 12:04:43.02	95.01	11.03	-36.4	-37.4	22.7	0.00e+00	123	38	0	1323302912	46	5827
2026-01-01 12:04:46.05	95.54	10.94	-36.5	-37.5	22.7	0.00e+00	122	38	0	1332740096	46	5912
2026-01-01 12:04:49.08	96.07	10.85	-36.4	-37.4	22.7	0.00e+00	123	38	0	1342177280	46	5851
2026-01-01 12:04:52.11	96.59	10.76	-36.4	-37.4	22.7	0.00e+00	122	38	0	1351614464	46	5799
2026-01-01 12:04:55.14	97.11	10.66	-36.5	-37.5	22.5	0.00e+00	123	38	0	1361051648	46	5918
2026-01-01 12:04:58.17	97.63	10.56	-36.4	-37.4	22.7	0.00e+00	120	38	0	1370488832	46	5829
2026-01-01 12:05:01.19	98.14	10.46	-36.5	-37.6	22.4	0.00e+00	120	38	0	1379926016	46	5931
2026-01-01 12:05:04.22	98.65	10.36	-36.7	-37.7	22.4	0.00e+00	123	38	0	1389363200	46	6014
2026-01-01 12:05:07.25	99.16	10.26	-36.5	-37.5	22.4	0.00e+00	122	38	0	1398800384	46	5912
2026-01-01 12:05:10.28	99.66	10.16	-36.5	-37.5	22.5	0.00e+00	123	38	0	1409286144	46	5917
2026-01-01 12:05:13.31	100.16	10.05	-36.9	-38.0	22.2	0.00e+00	120	38	0	1417674752	46	6212
2026-01-01 12:05:16.34	100.66	9.94	-36.9	-37.9	22.2	0.00e+00	122	38	0	1428160512	46	6156
2026-01-01 12:05:19.37	101.15	9.83	-37.0	-38.1	22.1	0.00e+00	123	38	0	1437597696	46	6278
2026-01-01 12:05:22.40	101.64	9.72	-36.9	-38.0	22.1	0.00e+00	122	38	0	1447034880	46	6229
2026-01-01 12:05:25.43	102.13	9.61	-36.8	-37.8	22.3	0.00e+00	123	38	0	1456472064	46	6113
2026-01-01 12:05:28.46	102.61	9.50	-36.9	-38.0	22.1	0.00e+00	122	38	0	1465909248	46	6228
2026-01-01 12:05:31.49	103.09	9.39	-36.9	-38.0	22.0	0.00e+00	123	38	0	1475346432	46	6273
2026-01-01 12:05:34.52	103.56	9.27	-37.0	-38.0	22.0	0.00e+00	122	38	0	1484783616	46	6261
2026-01-01 12:05:37.55	104.03	9.16	-37.1	-38.2	21.8	0.00e+00	121	38	0	1494220800	46	6400
2026-01-01 12:05:40.57	104.50	9.04	-37.2	-38.3	21.8	0.00e+00	123	38	0	1503657984	46	6451
2026-01-01 12:05:43.60	104.96	8.92	-37.2	-38.3	21.7	0.00e+00	122	38	0	1513095168	46	6480
2026-01-01 12:05:46.63	105.42	8.80	-37.1	-38.2	21.9	0.00e+00	122	38	0	1522532352	46	6370
2026-01-01 12:05:49.66	105.88	8.68	-37.2	-38.3	21.8	0.00e+00	122	38	0	1531969536	46	6441
2026-01-01 12:05:52.69	106.33	8.56	-37.2	-38.3	21.7	0.00e+00	122	38	0	1541406720	46	6475
2026-01-01 12:05:55.72	106.78	8.44	-37.3	-38.4	21.7	0.00e+00	123	38	0	1550843904	46	6546
2026-01-01 12:05:58.75	107.23	8.31	-37.4	-38.5	21.6	0.00e+00	123	38	0	1560281088	46	6594
2026-01-01 12:06:01.78	107.67	8.19	-37.2	-38.3	21.6	0.00e+00	123	38	0	1569718272	46	6496
2026-01-01 12:06:04.81	108.11	8.07	-37.3	-38.3	21.7	0.00e+00	123	38	0	1579155456	46	6498
2026-01-01 12:06:07.84	108.55	7.94	-37.5	-38.7	21.5	0.00e+00	122	38	0	1588592640	46	6760
2026-01-01 12:06:10.87	108.98	7.81	-37.7	-38.8	21.2	0.00e+00	123	38	0	1598029824	48	6108
2026-01-01 12:06:13.89	109.40	7.69	-37.5	-38.6	21.4	0.00e+00	123	38	0	1607467008	48	5970
2026-01-01 12:06:16.92	109.83	7.56	-37.7	-38.8	21.2	0.00e+00	122	38	0	1616904192	48	6093
2026-01-01 12:06:19.95	110.25	7.43	-37.7	-38.8	21.2	0.00e+00	122	38	0	1626341376	48	6108
2026-01-01 12:06:22.98	110.67	7.30	-37.7	-38.8	21.2	0.00e+00	122	38	0	1635778560	48	6125
2026-01-01 12:06:26.01	111.08	7.17	-37.9	-39.1	21.1	0.00e+00	122	38	0	1645215744	48	6313
2026-01-01 12:06:29.03	111.49	7.04	-37.7	-38.9	21.1	0.00e+00	122	38	0	1654652928	48	6145
2026-01-01 12:06:32.06	111.90	6.91	-37.9	-39.1	21.0	0.00e+00	123	38	0	1664090112	48	6284
2026-01-01 12:06:35.09	112.30	6.78	-38.0	-39.1	20.9	0.00e+00	123	38	0	1673527296	48	6318
2026-01-01 12:06:38.12	112.70	6.65	-37.9	-39.0	21.1	0.00e+00	122	38	0	1682964480	48	6229
2026-01-01 12:06:41.15	113.09	6.51	-37.8	-39.0	21.0	0.00e+00	122	38	0	1692401664	48	6207
2026-01-01 12:06:44.17	113.49	6.38	-37.8	-38.9	21.0	0.00e+00	123	38	0	1701838848	48	6192
2026-01-01 12:06:47.21	113.88	6.25	-37.7	-38.9	21.1	0.00e+00	123	38	0	1711276032	48	6148
2026-01-01 12:06:50.23	114.26	6.11	-37.8	-38.9	21.1	0.00e+00	122	38	0	1720713216	48	6155
2026-01-01 12:06:53.26	114.64	5.98	-37.7	-38.9	21.1	0.00e+00	123	38	0	1730150400	48	6145
2026-01-01 12:06:56.29	115.02	5.85	-37.9	-39.0	20.9	0.00e+00	120	38	0	1739587584	48	6257
2026-01-01 12:06:59.32	115.40	5.71	-37.8	-39.0	21.0	0.00e+00	123	38	0	1749024768	48	6215
2026-01-01 12:07:02.35	115.77	5.58	-37.9	-39.1	20.8	0.00e+00	120	38	0	1758461952	48	6288
2026-01-01 12:07:05.38	116.14	5.44	-38.2	-39.4	20.5	0.00e+00	123	38	0	1768947712	48	6544
2026-01-01 12:07:08.41	116.51	5.31	-38.1	-39.3	20.5	0.00e+00	120	38	0	1777336320	48	6458
2026-01-01 12:07:11.43	116.87	5.17	-38.2	-39.4	20.4	0.00e+00	123	38	0	1787822080	48	6515
2026-01-01 12:07:14.46	117.23	5.03	-38.1	-39.3	20.5	0.00e+00	122	38	0	1797259264	48	6478
2026-01-01 12:07:17.49	117.58	4.90	-38.3	-39.6	20.2	0.00e+00	122	38	0	1806696448	48	6670
2026-01-01 12:07:20.52	117.94	4.76	-38.5	-39.7	20.2	0.00e+00	123	38	0	1816133632	48	6790
2026-01-01 12:07:23.55	118.29	4.62	-38.5	-39.7	20.1	0.00e+00	123	38	0	1825570816	48	6801
2026-01-01 12:07:26.58	118.63	4.49	-38.6	-39.8	20.0	0.00e+00	120	38	0	1835008000	48	6865
2026-01-01 12:07:29.61	118.98	4.35	-38.6	-39.8	20.0	0.00e+00	123	38	0	1844445184	50	6113
2026-01-01 12:07:32.64	119.32	4.21	-38.7	-40.0	19.8	0.00e+00	123	38	0	1853882368	50	6218
2026-01-01 12:07:35.67	119.65	4.08	-38.6	-39.9	19.8	0.00e+00	120	38	0	1863319552	50	6194
2026-01-01 12:07:38.70	119.99	3.94	-38.4	-39.6	20.1	0.00e+00	123	38	0	1872756736	50	5983
2026-01-01 12:07:41.73	120.32	3.80	-38.8	-40.2	19.5	0.00e+00	122	38	0	1882193920	50	6360
2026-01-01 12:07:44.75	120.65	3.66	-38.7	-40.1	19.5	0.00e+00	120	38	0	1891631104	50	6298
2026-01-01 12:07:47.78	120.97	3.53	-39.5	-40.9	18.9	0.00e+00	122	38	0	1901068288	50	6924
2026-01-01 12:07:50.81	121.30	3.39	-39.0	-40.4	19.1	0.00e+00	122	38	0	1910505472	50	6499
2026-01-01 12:07:53.84	121.62	3.25	-39.1	-40.4	18.9	0.00e+00	123	38	0	1919942656	50	6566
2026-01-01 12:07:56.86	121.93	3.11	-39.4	-40.8	18.6	0.00e+00	123	38	0	1929379840	50	6852
2026-01-01 12:07:59.90	122.25	2.97	-48.0	-61.0	3.5	1.52e+00	0	38	104	1937768448	60	39158
2026-01-01 12:08:02.92	122.56	2.84	-48.9	-61.8	3.5	1.52e+00	0	38	104	1937768448	60	42968
2026-01-01 12:08:05.95	122.87	2.70	-49.0	-62.2	3.5	1.52e+00	0	38	104	1937768448	60	44979
2026-01-01 12:08:08.98	123.17	2.56	-49.3	-62.1	3.5	1.52e+00	0	38	104	1937768448	60	44811
2026-01-01 12:08:12.01	123.48	2.42	-49.3	-62.1	3.5	1.52e+00	0	38	104	1937768448	60	44901
2026-01-01 12:08:15.04	123.78	2.29	-49.2	-62.1	3.5	1.52e+00	0	38	104	1937768448	60	44875
2026-01-01 12:08:18.07	124.08	2.15	-49.3	-62.2	3.5	1.52e+00	0	38	104	1937768448	60	45178
2026-01-01 12:08:21.10	124.37	2.01	-49.3	-62.2	3.5	1.52e+00	0	38	104	1937768448	60	45095
2026-01-01 12:08:24.13	124.66	1.87	-49.2	-62.1	3.5	1.52e+00	0	38	104	1937768448	60	44934
2026-01-01 12:08:27.16	124.95	1.74	-49.2	-62.1	3.5	1.52e+00	0	38	104	1937768448	60	44875
2026-01-01 12:08:30.19	125.24	1.60	-49.3	-62.1	3.5	1.52e+00	0	38	104	1937768448	60	44937
2026-01-01 12:08:33.22	125.53	1.46	-49.2	-62.1	3.5	1.52e+00	0	38	104	1937768448	60	44905
2026-01-01 12:08:36.25	125.81	1.32	-49.3	-62.1	3.5	1.52e+00	0	38	104	1937768448	60	44938
2026-01-01 12:08:39.28	126.09	1.19	-49.2	-62.0	3.5	1.52e+00	0	38	104	1937768448	60	44391
2026-01-01 12:08:42.31	126.37	1.05	-49.2	-62.1	3.5	1.52e+00	0	38	104	1937768448	60	44661
2026-01-01 12:08:45.34	126.64	0.91	-49.3	-62.1	3.5	1.52e+00	0	38	104	1937768448	60	44860
2026-01-01 12:08:48.37	126.91	0.78	-49.2	-62.1	3.5	1.52e+00	0	38	104	1937768448	60	44690
2026-01-01 12:08:51.40	127.18	0.64	-49.2	-62.1	3.5	1.51e+00	0	38	104	1937768448	60	44740
2026-01-01 12:08:54.43	127.45	0.50	-49.2	-62.1	3.5	1.52e+00	0	38	104	1937768448	60	44757
2026-01-01 12:08:57.46	127.72	0.37	-49.3	-62.1	3.5	1.52e+00	0	38	104	1937768448	60	44832
2026-01-01 12:09:00.49	127.98	0.23	-49.3	-62.1	3.5	1.52e+00	0	38	104	1937768448	60	44941
2026-01-01 12:09:03.52	128.24	0.10	-49.2	-62.1	3.5	1.52e+00	0	38	104	1937768448	60	44515
2026-01-01 12:09:06.55	128.50	-0.04	-49.2	-62.1	3.5	1.52e+00	0	38	104	1937768448	60	44885

#Closed at: 2026-01-01 12:09:08
#Recorded file [1937 MB]: D:/lorett/data/35029_260101_235638.dat