passes_logs/2026/01/01/R4.6S_Anadyr/R4.6S_Anadyr__20260101_020207_SUOMI_NPP_rec.log

#Pass ID: 20260101_020207_SUOMI NPP
#Satellite: SUOMI NPP
#Configuration: NPP
#almurnet v.1.7.20251203
#Start time: 2026-01-01 02:02:10

#Version: 2.2.20231116
#Station: R4.6S_Anadyr
#Location: 177.4865 lon 64.73178 lat
#TLE: 1 37849U 11061A   25364.87906318  .00000195  00000+0  11345-3 0  9993
#TLE: 2 37849  98.7794 302.0592 0002571  89.2401 270.9069 14.19520347734561

#Time	Az	El	Level	Level2	SNR	BER	BlckErr	Temp	State	Recorded	gain1	gain2
2026-01-01 02:02:10.04	201.43	0.13	-49.6	-67.3	3.5	3.02e+01	0	35	0	0	60	89501
2026-01-01 02:02:14.07	201.66	0.35	-49.4	-64.6	3.6	1.51e+00	0	36	104	0	60	61624
2026-01-01 02:02:18.11	201.89	0.57	-49.4	-64.7	3.6	1.51e+00	0	36	104	0	60	62137
2026-01-01 02:02:22.15	202.12	0.79	-49.1	-64.3	3.6	1.51e+00	0	36	104	0	60	59494
2026-01-01 02:02:26.19	202.36	1.02	-48.1	-63.2	3.6	1.51e+00	0	37	104	0	60	52460
2026-01-01 02:02:30.23	202.60	1.24	-48.1	-63.2	3.6	1.51e+00	0	37	104	0	60	52211
2026-01-01 02:02:34.27	202.85	1.47	-48.1	-63.3	3.6	1.51e+00	0	37	104	0	60	52586
2026-01-01 02:02:38.31	203.09	1.70	-48.1	-63.3	3.6	1.51e+00	0	37	104	0	60	52861
2026-01-01 02:02:42.34	203.34	1.93	-48.1	-63.3	3.6	1.51e+00	0	37	104	0	60	52632
2026-01-01 02:02:46.39	203.60	2.16	-48.1	-63.2	3.6	1.51e+00	0	37	104	0	60	52312
2026-01-01 02:02:50.43	203.86	2.39	-48.1	-63.1	3.6	1.51e+00	0	37	104	0	60	51923
2026-01-01 02:02:54.47	204.12	2.63	-48.1	-62.5	3.6	1.51e+00	0	37	104	0	60	48078
2026-01-01 02:02:58.51	204.39	2.86	-48.0	-61.9	3.6	1.50e+00	0	37	104	0	60	45080
2026-01-01 02:03:02.54	204.66	3.10	-47.1	-53.6	8.2	1.48e-01	92	37	0	0	60	17234
2026-01-01 02:03:06.58	204.93	3.34	-45.1	-48.3	13.8	5.30e-06	92	37	0	8388608	60	9447
2026-01-01 02:03:10.62	205.21	3.58	-45.9	-50.1	10.7	3.69e-01	92	37	0	11534336	60	11567
2026-01-01 02:03:14.66	205.49	3.82	-43.6	-45.9	16.2	0.00e+00	0	37	0	14680064	60	7135
2026-01-01 02:03:18.70	205.78	4.06	-43.1	-45.2	17.3	0.00e+00	89	37	0	22020096	60	6579
2026-01-01 02:03:22.73	206.07	4.31	-42.5	-44.3	18.1	0.00e+00	92	37	0	29360128	58	6651
2026-01-01 02:03:26.77	206.37	4.55	-42.2	-43.8	18.5	0.00e+00	0	37	0	36700160	58	6298
2026-01-01 02:03:30.81	206.67	4.80	-42.2	-43.8	18.8	0.00e+00	0	37	0	45088768	58	6310
2026-01-01 02:03:34.84	206.98	5.05	-41.8	-43.3	19.2	0.00e+00	92	37	0	52428800	56	6643
2026-01-01 02:03:38.87	207.29	5.30	-41.2	-42.6	19.8	0.00e+00	92	37	0	59768832	56	6140
2026-01-01 02:03:42.91	207.61	5.56	-41.1	-42.5	19.9	0.00e+00	0	37	0	67108864	56	6067
2026-01-01 02:03:46.95	207.93	5.81	-41.1	-42.4	20.0	0.00e+00	59	37	0	74448896	56	6021
2026-01-01 02:03:50.99	208.26	6.07	-40.7	-42.0	20.4	0.00e+00	92	37	0	82837504	54	6452
2026-01-01 02:03:55.03	208.59	6.33	-40.5	-41.8	20.7	0.00e+00	92	37	0	90177536	54	6290
2026-01-01 02:03:59.06	208.93	6.59	-40.4	-41.6	20.8	0.00e+00	0	37	0	97517568	54	6151
2026-01-01 02:04:03.10	209.28	6.85	-40.1	-41.3	21.1	0.00e+00	92	37	0	104857600	54	5901
2026-01-01 02:04:07.14	209.63	7.11	-40.0	-41.2	21.1	0.00e+00	92	37	0	113246208	54	5861
2026-01-01 02:04:11.18	209.98	7.38	-40.0	-41.1	21.2	0.00e+00	0	37	0	120586240	54	5799
2026-01-01 02:04:15.21	210.35	7.65	-40.1	-41.3	21.2	0.00e+00	0	38	0	127926272	54	5904
2026-01-01 02:04:19.25	210.72	7.92	-40.3	-41.5	21.0	0.00e+00	92	37	0	135266304	54	6082
2026-01-01 02:04:23.29	211.09	8.19	-39.9	-41.1	21.4	0.00e+00	91	37	0	142606336	54	5775
2026-01-01 02:04:27.33	211.48	8.46	-39.9	-41.0	21.5	0.00e+00	0	37	0	150994944	52	6439
2026-01-01 02:04:31.37	211.87	8.74	-39.5	-40.6	21.9	0.00e+00	59	38	0	158334976	52	6120
2026-01-01 02:04:35.40	212.26	9.02	-39.7	-40.8	21.7	0.00e+00	78	38	0	165675008	52	6286
2026-01-01 02:04:39.44	212.67	9.30	-39.7	-40.8	21.6	0.00e+00	91	38	0	173015040	52	6317
2026-01-01 02:04:43.48	213.08	9.58	-39.7	-40.8	21.7	0.00e+00	0	38	0	181403648	52	6280
2026-01-01 02:04:47.52	213.50	9.86	-39.9	-41.0	21.5	0.00e+00	91	38	0	188743680	52	6428
2026-01-01 02:04:51.55	213.93	10.15	-39.7	-40.8	21.8	0.00e+00	90	38	0	196083712	52	6280
2026-01-01 02:04:55.59	214.36	10.43	-39.2	-40.3	22.2	0.00e+00	0	38	0	203423744	52	5900
2026-01-01 02:04:59.63	214.81	10.72	-39.0	-40.0	22.5	0.00e+00	0	38	0	210763776	52	5749
2026-01-01 02:05:03.67	215.26	11.01	-39.2	-40.2	22.2	0.00e+00	92	38	0	219152384	52	5867
2026-01-01 02:05:07.70	215.72	11.30	-39.7	-40.7	21.9	0.00e+00	92	38	0	226492416	52	6241
2026-01-01 02:05:11.74	216.19	11.60	-39.8	-40.9	21.8	0.00e+00	0	38	0	233832448	52	6342
2026-01-01 02:05:15.77	216.67	11.89	-39.8	-40.9	21.7	0.00e+00	0	38	0	241172480	52	6364
2026-01-01 02:05:19.81	217.16	12.19	-39.7	-40.8	21.9	0.00e+00	71	38	0	249561088	52	6271
2026-01-01 02:05:23.85	217.66	12.49	-39.6	-40.7	22.0	0.00e+00	92	38	0	256901120	52	6186
2026-01-01 02:05:27.89	218.17	12.80	-39.6	-40.7	22.0	0.00e+00	0	38	0	264241152	52	6189
2026-01-01 02:05:31.92	218.69	13.10	-39.5	-40.5	22.1	0.00e+00	62	38	0	271581184	52	6068
2026-01-01 02:05:35.96	219.22	13.40	-39.3	-40.3	22.4	0.00e+00	92	38	0	278921216	52	5941
2026-01-01 02:05:40.00	219.76	13.71	-39.0	-40.0	22.6	0.00e+00	92	38	0	287309824	52	5734
2026-01-01 02:05:44.04	220.31	14.02	-39.2	-40.2	22.4	0.00e+00	0	38	0	294649856	52	5865
2026-01-01 02:05:48.08	220.87	14.33	-39.7	-40.7	22.0	0.00e+00	92	38	0	301989888	52	6228
2026-01-01 02:05:52.11	221.44	14.64	-39.8	-40.8	21.8	0.00e+00	91	38	0	309329920	52	6312
2026-01-01 02:05:56.15	222.03	14.95	-39.5	-40.6	22.1	0.00e+00	33	38	0	317718528	52	6128
2026-01-01 02:06:00.19	222.63	15.27	-39.5	-40.5	22.2	0.00e+00	0	38	0	325058560	52	6078
2026-01-01 02:06:04.23	223.24	15.58	-39.3	-40.3	22.4	0.00e+00	92	38	0	332398592	52	5917
2026-01-01 02:06:08.26	223.86	15.90	-38.7	-39.7	22.9	0.00e+00	92	38	0	339738624	50	6206
2026-01-01 02:06:12.30	224.49	16.21	-38.5	-39.5	22.3	0.00e+00	0	38	0	347078656	50	6073
2026-01-01 02:06:16.34	225.14	16.53	-38.6	-39.5	23.0	0.00e+00	62	38	0	355467264	50	6087
2026-01-01 02:06:20.38	225.80	16.85	-38.6	-39.6	22.9	0.00e+00	92	38	0	362807296	50	6133
2026-01-01 02:06:24.42	226.48	17.17	-38.7	-39.7	22.9	0.00e+00	0	38	0	370147328	50	6191
2026-01-01 02:06:28.45	227.17	17.49	-38.5	-39.5	23.0	0.00e+00	0	38	0	377487360	50	6055
2026-01-01 02:06:32.49	227.87	17.80	-38.2	-39.1	23.3	0.00e+00	92	38	0	384827392	50	5792
2026-01-01 02:06:36.53	228.59	18.12	-37.8	-38.6	23.7	0.00e+00	90	38	0	393216000	48	6167
2026-01-01 02:06:40.56	229.32	18.44	-37.7	-38.5	23.7	0.00e+00	0	38	0	400556032	48	6094
2026-01-01 02:06:44.60	230.07	18.76	-38.0	-38.9	23.4	0.00e+00	0	38	0	407896064	48	6380
2026-01-01 02:06:48.64	230.83	19.08	-38.2	-39.1	23.4	0.00e+00	92	38	0	415236096	48	6488
2026-01-01 02:06:52.68	231.61	19.39	-38.2	-39.1	23.3	0.00e+00	92	38	0	423624704	48	6519
2026-01-01 02:06:56.71	232.41	19.71	-38.4	-39.3	23.3	0.00e+00	0	38	0	430964736	50	5922
2026-01-01 02:07:00.75	233.22	20.02	-38.2	-39.0	23.4	0.00e+00	0	38	0	438304768	50	5761
2026-01-01 02:07:04.80	234.05	20.34	-38.2	-39.1	23.4	0.00e+00	61	38	0	445644800	50	5819
2026-01-01 02:07:08.83	234.89	20.64	-37.5	-38.3	24.0	0.00e+00	91	38	0	452984832	48	5924
2026-01-01 02:07:12.87	235.75	20.95	-37.5	-38.3	24.1	0.00e+00	0	38	0	461373440	48	5961
2026-01-01 02:07:16.90	236.62	21.26	-37.1	-37.9	24.2	0.00e+00	70	38	0	468713472	48	5687
2026-01-01 02:07:20.94	237.52	21.56	-37.4	-38.2	23.9	0.00e+00	92	38	0	476053504	48	5895
2026-01-01 02:07:24.97	238.43	21.85	-37.4	-38.3	24.1	0.00e+00	0	38	0	483393536	48	5916
2026-01-01 02:07:29.01	239.35	22.15	-37.3	-38.1	24.2	0.00e+00	0	38	0	491782144	48	5816
2026-01-01 02:07:33.05	240.30	22.44	-36.9	-37.7	24.4	0.00e+00	92	38	0	499122176	48	5528
2026-01-01 02:07:37.09	241.26	22.72	-37.6	-38.4	24.0	0.00e+00	92	38	0	506462208	48	6004
2026-01-01 02:07:41.13	242.24	23.00	-37.4	-38.2	24.1	0.00e+00	0	38	0	513802240	48	5848
2026-01-01 02:07:45.16	243.24	23.28	-37.8	-38.6	23.7	0.00e+00	17	38	0	521142272	48	6150
2026-01-01 02:07:49.20	244.25	23.54	-37.4	-38.2	24.1	0.00e+00	78	38	0	529530880	48	5849
2026-01-01 02:07:53.24	245.28	23.80	-38.1	-39.0	23.4	0.00e+00	92	38	0	536870912	48	6402
2026-01-01 02:07:57.28	246.33	24.06	-37.4	-38.2	24.1	0.00e+00	0	38	0	544210944	48	5865
2026-01-01 02:08:01.31	247.39	24.30	-39.2	-40.1	22.6	0.00e+00	90	38	0	551550976	50	6534
2026-01-01 02:08:05.35	248.47	24.54	-39.9	-41.0	21.9	0.00e+00	65	38	0	558891008	52	6421
2026-01-01 02:08:09.39	249.56	24.77	-39.1	-40.1	22.7	0.00e+00	92	38	0	567279616	52	5798
2026-01-01 02:08:13.42	250.67	24.99	-40.0	-41.1	21.9	0.00e+00	0	38	0	574619648	52	6492
2026-01-01 02:08:17.46	251.80	25.20	-41.1	-42.4	20.7	0.00e+00	90	38	0	581959680	54	6712
2026-01-01 02:08:21.50	252.94	25.41	-40.3	-41.4	21.6	0.00e+00	72	38	0	589299712	54	5999
2026-01-01 02:08:25.53	254.09	25.60	-41.7	-43.1	20.2	0.00e+00	0	38	0	597688320	54	7255
2026-01-01 02:08:29.56	255.25	25.78	-41.1	-42.3	20.9	0.00e+00	0	38	0	605028352	56	5962
2026-01-01 02:08:33.60	256.43	25.94	-40.8	-42.0	21.0	0.00e+00	91	38	0	612368384	54	6426
2026-01-01 02:08:37.64	257.62	26.10	-40.5	-41.6	21.4	0.00e+00	92	38	0	619708416	54	6155
2026-01-01 02:08:41.68	258.83	26.25	-40.9	-42.1	21.0	0.00e+00	0	38	0	627048448	54	6523
2026-01-01 02:08:45.72	260.04	26.38	-42.4	-43.9	19.5	0.00e+00	0	38	0	635437056	56	7111
2026-01-01 02:08:49.75	261.26	26.50	-41.1	-42.3	20.9	0.00e+00	76	38	0	642777088	56	5928
2026-01-01 02:08:53.78	262.48	26.60	-40.3	-41.3	21.5	0.00e+00	92	38	0	650117120	54	5964
2026-01-01 02:08:57.82	263.72	26.69	-41.4	-42.6	20.5	0.00e+00	0	38	0	657457152	54	6924
2026-01-01 02:09:01.86	264.97	26.77	-41.5	-42.8	20.3	0.00e+00	92	38	0	665845760	56	6264
2026-01-01 02:09:05.90	266.22	26.84	-41.0	-42.3	21.0	0.00e+00	89	38	0	673185792	54	6635
2026-01-01 02:09:09.94	267.47	26.89	-40.8	-42.0	21.1	0.00e+00	90	38	0	680525824	54	6451
2026-01-01 02:09:13.97	268.72	26.92	-40.1	-41.1	21.9	0.00e+00	0	38	0	687865856	52	6536
2026-01-01 02:09:18.01	269.98	26.94	-39.9	-41.0	22.0	0.00e+00	92	38	0	695205888	52	6422
2026-01-01 02:09:22.04	271.24	26.95	-40.6	-41.8	21.3	0.00e+00	85	38	0	703594496	54	6253
2026-01-01 02:09:26.08	272.50	26.94	-40.3	-41.4	21.6	0.00e+00	0	38	0	710934528	54	6003
2026-01-01 02:09:30.11	273.76	26.92	-40.6	-41.7	21.3	0.00e+00	0	38	0	718274560	54	6226
2026-01-01 02:09:34.14	275.01	26.88	-39.9	-41.0	22.0	0.00e+00	92	38	0	725614592	54	5718
2026-01-01 02:09:38.17	276.26	26.83	-39.6	-40.7	22.3	0.00e+00	92	38	0	734003200	52	6192
2026-01-01 02:09:42.21	277.51	26.77	-41.1	-42.4	20.8	0.00e+00	0	38	0	741343232	54	6709
2026-01-01 02:09:46.25	278.75	26.69	-39.9	-40.9	22.1	0.00e+00	41	38	0	748683264	52	6327
2026-01-01 02:09:50.29	279.99	26.59	-39.4	-40.3	22.4	0.00e+00	72	38	0	756023296	52	5960
2026-01-01 02:09:54.32	281.21	26.49	-39.0	-39.9	22.8	0.00e+00	37	38	0	763363328	52	5664
2026-01-01 02:09:58.36	282.43	26.37	-39.1	-40.1	22.7	0.00e+00	0	38	0	771751936	52	5791
2026-01-01 02:10:02.40	283.64	26.23	-38.3	-39.2	23.4	0.00e+00	90	38	0	779091968	50	5847
2026-01-01 02:10:06.44	284.84	26.09	-39.8	-40.8	22.1	0.00e+00	92	38	0	786432000	50	7080
2026-01-01 02:10:10.47	286.03	25.93	-39.6	-40.6	22.3	0.00e+00	0	38	0	793772032	52	6166
2026-01-01 02:10:14.50	287.20	25.76	-38.2	-39.1	23.6	0.00e+00	0	38	0	801112064	50	5805
2026-01-01 02:10:18.54	288.36	25.58	-36.6	-37.4	24.6	0.00e+00	58	38	0	809500672	46	6019
2026-01-01 02:10:22.57	289.51	25.39	-37.6	-38.5	23.9	0.00e+00	92	38	0	816840704	48	6045
2026-01-01 02:10:26.60	290.64	25.19	-37.2	-38.0	24.4	0.00e+00	0	38	0	824180736	48	5745
2026-01-01 02:10:30.64	291.76	24.98	-36.9	-37.7	24.5	0.00e+00	0	38	0	831520768	48	5552
2026-01-01 02:10:34.68	292.87	24.76	-36.1	-36.9	25.1	0.00e+00	65	38	0	839909376	46	5659
2026-01-01 02:10:38.72	293.96	24.53	-36.8	-37.6	24.6	0.00e+00	0	38	0	847249408	46	6116
2026-01-01 02:10:42.76	295.04	24.29	-36.6	-37.4	24.6	0.00e+00	0	38	0	854589440	46	6015
2026-01-01 02:10:46.80	296.10	24.05	-36.6	-37.4	24.6	0.00e+00	13	38	0	861929472	46	5984
2026-01-01 02:10:50.83	297.14	23.80	-36.8	-37.6	24.6	0.00e+00	74	38	0	869269504	46	6147
2026-01-01 02:10:54.86	298.16	23.54	-36.6	-37.4	24.5	0.00e+00	0	38	0	877658112	46	5979
2026-01-01 02:10:58.90	299.17	23.27	-37.5	-38.3	24.1	0.00e+00	0	38	0	884998144	46	6660
2026-01-01 02:11:02.94	300.16	23.00	-36.9	-37.7	24.4	0.00e+00	90	38	0	892338176	46	6237
2026-01-01 02:11:06.98	301.14	22.72	-37.6	-38.5	23.8	0.00e+00	74	38	0	899678208	46	6819
2026-01-01 02:11:11.02	302.09	22.44	-37.9	-38.8	23.8	0.00e+00	0	38	0	908066816	48	6252
2026-01-01 02:11:15.06	303.03	22.15	-37.9	-38.8	23.7	0.00e+00	0	38	0	915406848	48	6288
2026-01-01 02:11:19.09	303.96	21.86	-37.7	-38.6	23.7	0.00e+00	2	38	0	922746880	48	6149
2026-01-01 02:11:23.13	304.86	21.56	-37.1	-37.9	24.3	0.00e+00	49	38	0	930086912	48	5681
2026-01-01 02:11:27.17	305.75	21.26	-37.9	-38.8	23.7	0.00e+00	33	38	0	937426944	48	6276
2026-01-01 02:11:31.20	306.62	20.96	-38.4	-39.3	23.1	0.00e+00	64	38	0	945815552	48	6656
2026-01-01 02:11:35.24	307.48	20.65	-38.2	-39.1	23.4	0.00e+00	92	38	0	953155584	48	6504
2026-01-01 02:11:39.28	308.32	20.34	-38.1	-39.0	23.5	0.00e+00	0	38	0	960495616	48	6399
2026-01-01 02:11:43.32	309.14	20.03	-39.2	-40.3	22.4	0.00e+00	0	38	0	967835648	50	6620
2026-01-01 02:11:47.36	309.95	19.72	-37.5	-38.4	23.7	0.00e+00	66	38	0	976224256	48	5997
2026-01-01 02:11:51.39	310.74	19.41	-37.7	-38.6	23.8	0.00e+00	90	38	0	983564288	48	6112
2026-01-01 02:11:55.42	311.51	19.10	-38.9	-39.9	22.6	0.00e+00	0	38	0	990904320	50	6337
2026-01-01 02:11:59.46	312.27	18.78	-38.3	-39.2	23.1	0.00e+00	0	38	0	998244352	50	5885
2026-01-01 02:12:03.49	313.02	18.47	-38.8	-39.8	22.8	0.00e+00	47	38	0	1005584384	50	6261
2026-01-01 02:12:07.53	313.75	18.15	-37.6	-38.5	23.7	0.00e+00	57	38	0	1013972992	48	6056
2026-01-01 02:12:11.57	314.46	17.83	-38.2	-39.1	23.3	0.00e+00	0	38	0	1021313024	48	6479
2026-01-01 02:12:15.61	315.16	17.52	-37.9	-38.8	23.7	0.00e+00	0	38	0	1028653056	48	6275
2026-01-01 02:12:19.65	315.85	17.20	-37.8	-38.7	23.5	0.00e+00	55	38	0	1035993088	48	6206
2026-01-01 02:12:23.69	316.52	16.88	-39.2	-40.2	22.5	0.00e+00	0	38	0	1043333120	50	6558
2026-01-01 02:12:27.73	317.18	16.57	-38.2	-39.1	23.3	0.00e+00	0	38	0	1051721728	50	5817
2026-01-01 02:12:31.78	317.83	16.25	-38.2	-39.1	23.3	0.00e+00	59	37	0	1059061760	50	5792
2026-01-01 02:12:35.81	318.46	15.94	-38.0	-38.9	23.4	0.00e+00	0	38	0	1066401792	50	5658
2026-01-01 02:12:39.84	319.08	15.62	-37.8	-38.6	23.2	0.00e+00	0	38	0	1073741824	48	6155
2026-01-01 02:12:43.88	319.69	15.31	-39.5	-40.6	21.9	0.00e+00	0	38	0	1082130432	50	6860
2026-01-01 02:12:47.92	320.29	15.00	-40.0	-41.1	21.5	0.00e+00	58	38	0	1089470464	52	6508
2026-01-01 02:12:51.96	320.87	14.69	-39.3	-40.3	22.3	0.00e+00	0	38	0	1096810496	52	5925
2026-01-01 02:12:55.99	321.44	14.38	-38.4	-39.3	23.0	0.00e+00	0	38	0	1104150528	50	5963
2026-01-01 02:13:00.03	322.00	14.07	-37.7	-38.5	23.6	0.00e+00	0	38	0	1111490560	48	6083
2026-01-01 02:13:04.06	322.55	13.77	-37.8	-38.6	23.5	0.00e+00	92	37	0	1119879168	48	6173
2026-01-01 02:13:08.10	323.09	13.47	-38.9	-39.8	22.6	0.00e+00	0	37	0	1127219200	50	6317
2026-01-01 02:13:12.14	323.62	13.16	-39.6	-40.7	21.9	0.00e+00	0	38	0	1134559232	50	6960
2026-01-01 02:13:16.18	324.14	12.86	-39.3	-40.4	22.2	0.00e+00	41	37	0	1141899264	52	5966
2026-01-01 02:13:20.22	324.64	12.56	-38.9	-39.9	22.5	0.00e+00	0	37	0	1150287872	52	5632
2026-01-01 02:13:24.26	325.14	12.26	-38.9	-39.8	22.5	0.00e+00	0	37	0	1157627904	50	6316
2026-01-01 02:13:28.30	325.63	11.97	-39.1	-40.1	22.3	0.00e+00	0	37	0	1164967936	50	6521
2026-01-01 02:13:32.34	326.11	11.67	-39.0	-40.1	22.4	0.00e+00	57	38	0	1172307968	50	6468
2026-01-01 02:13:36.38	326.58	11.38	-39.6	-40.6	21.9	0.00e+00	0	37	0	1179648000	50	6907
2026-01-01 02:13:40.41	327.04	11.09	-39.9	-41.0	21.3	0.00e+00	0	38	0	1188036608	52	6446
2026-01-01 02:13:44.45	327.49	10.80	-40.3	-41.4	21.1	0.00e+00	0	37	0	1195376640	52	6757
2026-01-01 02:13:48.48	327.94	10.52	-40.4	-41.6	20.8	0.00e+00	58	37	0	1202716672	52	6922
2026-01-01 02:13:52.52	328.37	10.23	-40.3	-41.4	18.8	0.00e+00	0	38	0	1210056704	52	6767
2026-01-01 02:13:56.56	328.80	9.95	-39.0	-40.9	18.8	1.31e-02	0	38	0	1218445312	52	6368
2026-01-01 02:14:00.60	329.22	9.67	-38.7	-40.9	18.3	1.31e-02	55	38	0	1225785344	50	7169
2026-01-01 02:14:04.64	329.64	9.39	-38.6	-40.7	19.0	1.45e-02	63	38	0	1233125376	50	6953
2026-01-01 02:14:08.68	330.04	9.11	-38.3	-40.3	19.1	1.43e-02	0	37	0	1240465408	50	6625
2026-01-01 02:14:12.72	330.44	8.84	-39.4	-40.5	21.7	0.00e+00	0	38	0	1247805440	50	6772
2026-01-01 02:14:16.75	330.83	8.56	-39.9	-41.0	21.3	0.00e+00	31	37	0	1256194048	52	6418
2026-01-01 02:14:20.79	331.21	8.29	-40.8	-42.1	20.2	0.00e+00	0	37	0	1263534080	54	6522
2026-01-01 02:14:24.83	331.59	8.02	-41.1	-42.5	19.9	0.00e+00	0	37	0	1270874112	54	6775
2026-01-01 02:14:28.86	331.96	7.75	-40.8	-42.1	20.3	0.00e+00	0	37	0	1278214144	54	6537
2026-01-01 02:14:32.90	332.33	7.49	-40.3	-41.5	20.8	0.00e+00	88	38	0	1286602752	54	6066
2026-01-01 02:14:36.94	332.68	7.22	-40.6	-41.8	20.5	0.00e+00	0	38	0	1293942784	54	6287
2026-01-01 02:14:40.98	333.04	6.96	-40.8	-42.1	20.2	0.00e+00	0	38	0	1301282816	54	6485
2026-01-01 02:14:45.02	333.38	6.70	-41.2	-42.7	19.5	0.00e+00	0	38	0	1308622848	54	6968
2026-01-01 02:14:49.05	333.72	6.44	-41.4	-42.9	19.3	0.00e+00	56	38	0	1315962880	54	7121
2026-01-01 02:14:53.09	334.06	6.19	-41.7	-43.4	18.7	0.00e+00	0	37	0	1324351488	54	7532
2026-01-01 02:14:57.12	334.39	5.93	-41.9	-43.8	17.4	0.00e+00	0	37	0	1331691520	56	7080
2026-01-01 02:15:01.16	334.71	5.68	-42.4	-44.9	15.8	0.00e+00	51	37	0	1339031552	56	7963
2026-01-01 02:15:05.20	335.03	5.43	-43.3	-47.0	12.8	1.60e-05	33	37	0	1346371584	58	9038
2026-01-01 02:15:09.23	335.34	5.18	-43.9	-48.8	10.5	3.55e-03	0	38	0	1353711616	60	9960
2026-01-01 02:15:13.27	335.65	4.93	-44.4	-50.6	8.3	4.28e-02	0	38	0	1362100224	60	12205
2026-01-01 02:15:17.31	335.96	4.68	-44.7	-52.9	5.6	3.77e-01	47	38	0	1369440256	60	15872
2026-01-01 02:15:21.35	336.26	4.44	-44.8	-54.5	4.1	8.56e-01	1	38	0	1376780288	60	19133
2026-01-01 02:15:25.39	336.55	4.19	-44.8	-57.0	3.9	1.48e+00	0	38	104	1380974592	60	25515
2026-01-01 02:15:29.42	336.84	3.95	-44.7	-58.2	3.6	1.51e+00	0	38	104	1380974592	60	29284
2026-01-01 02:15:33.46	337.13	3.71	-44.6	-59.7	3.6	1.51e+00	0	38	104	1380974592	60	34959
2026-01-01 02:15:37.49	337.41	3.48	-44.6	-59.4	3.5	1.51e+00	0	38	104	1380974592	60	33764
2026-01-01 02:15:41.53	337.68	3.24	-44.6	-59.7	3.6	1.51e+00	0	38	104	1380974592	60	34975
2026-01-01 02:15:45.57	337.96	3.00	-44.5	-59.7	3.6	1.51e+00	0	38	104	1380974592	60	35058
2026-01-01 02:15:49.61	338.23	2.77	-49.3	-64.5	3.6	1.51e+00	0	38	104	1380974592	60	60685
2026-01-01 02:15:53.65	338.49	2.54	-49.5	-64.7	3.6	1.51e+00	0	38	104	1380974592	60	62281
2026-01-01 02:15:57.69	338.75	2.31	-49.4	-64.7	3.6	1.51e+00	0	38	104	1380974592	60	61761
2026-01-01 02:16:01.73	339.01	2.08	-49.4	-64.6	3.6	1.51e+00	0	38	104	1380974592	60	61507
2026-01-01 02:16:05.77	339.26	1.85	-49.4	-64.6	3.6	1.51e+00	0	38	104	1380974592	60	61727
2026-01-01 02:16:09.81	339.51	1.62	-49.4	-64.7	3.6	1.51e+00	0	38	104	1380974592	60	61760
2026-01-01 02:16:13.84	339.76	1.40	-49.4	-64.7	3.6	1.51e+00	0	38	104	1380974592	60	61901
2026-01-01 02:16:17.89	340.01	1.17	-49.4	-64.6	3.6	1.51e+00	0	38	104	1380974592	60	61396
2026-01-01 02:16:21.92	340.25	0.95	-49.4	-64.6	3.6	1.51e+00	0	38	104	1380974592	60	61505
2026-01-01 02:16:25.96	340.48	0.73	-49.4	-64.6	3.6	1.51e+00	0	38	104	1380974592	60	61501
2026-01-01 02:16:30.00	340.72	0.51	-49.4	-64.6	3.6	1.51e+00	0	38	104	1380974592	60	61646
2026-01-01 02:16:34.04	340.95	0.29	-49.4	-64.6	3.6	1.51e+00	0	38	104	1380974592	60	61385
2026-01-01 02:16:38.08	341.17	0.07	-49.4	-64.6	3.6	1.51e+00	0	38	104	1380974592	60	61600
2026-01-01 02:16:42.12	341.40	-0.14	-49.4	-64.6	3.5	1.51e+00	0	38	104	1380974592	60	61360

#Closed at: 2026-01-01 02:16:42
#Recorded file [1380 MB]: D:/lorett/data/35029_260101_140210.dat