passes_logs/2026/01/01/R4.6S_Anadyr/R4.6S_Anadyr__20260101_190615_SUOMI_NPP_rec.log

#Pass ID: 20260101_190615_SUOMI NPP
#Satellite: SUOMI NPP
#Configuration: NPP
#almurnet v.1.7.20251203
#Start time: 2026-01-01 19:06:17

#Version: 2.2.20231116
#Station: R4.6S_Anadyr
#Location: 177.4865 lon 64.73178 lat
#TLE: 1 37849U 11061A   25364.87906318  .00000195  00000+0  11345-3 0  9993
#TLE: 2 37849  98.7794 302.0592 0002571  89.2401 270.9069 14.19520347734561

#Time	Az	El	Level	Level2	SNR	BER	BlckErr	Temp	State	Recorded	gain1	gain2
2026-01-01 19:06:17.82	47.59	0.11	-49.4	-61.0	3.4	8.45e-01	0	36	0	0	60	40562
2026-01-01 19:06:20.85	47.37	0.26	-49.5	-64.7	3.6	1.51e+00	0	37	104	0	60	62346
2026-01-01 19:06:23.88	47.14	0.41	-49.5	-64.7	3.6	1.51e+00	0	37	104	0	60	62377
2026-01-01 19:06:26.91	46.90	0.56	-49.5	-64.7	3.6	1.51e+00	0	37	104	0	60	62053
2026-01-01 19:06:29.94	46.67	0.70	-49.3	-64.6	3.6	1.51e+00	0	38	104	0	60	61692
2026-01-01 19:06:32.97	46.43	0.85	-49.0	-64.2	3.6	1.51e+00	0	38	104	0	60	58673
2026-01-01 19:06:36.00	46.19	1.00	-47.9	-63.1	3.6	1.51e+00	0	38	104	0	60	51597
2026-01-01 19:06:39.03	45.95	1.15	-47.9	-63.1	3.6	1.51e+00	0	38	104	0	60	51912
2026-01-01 19:06:42.06	45.70	1.30	-47.9	-63.1	3.6	1.51e+00	0	38	104	0	60	51727
2026-01-01 19:06:45.09	45.46	1.45	-47.9	-63.1	3.6	1.51e+00	0	38	104	0	60	51688
2026-01-01 19:06:48.12	45.21	1.60	-47.9	-63.1	3.6	1.51e+00	0	38	104	0	60	51493
2026-01-01 19:06:51.15	44.95	1.75	-47.9	-63.0	3.6	1.51e+00	0	38	104	0	60	51031
2026-01-01 19:06:54.18	44.70	1.90	-47.9	-63.1	3.6	1.51e+00	0	38	104	0	60	51653
2026-01-01 19:06:57.21	44.44	2.05	-47.9	-63.0	3.6	1.51e+00	0	38	104	0	60	51004
2026-01-01 19:07:00.23	44.18	2.21	-47.9	-62.5	3.6	1.51e+00	0	38	104	0	60	48102
2026-01-01 19:07:03.27	43.92	2.36	-47.9	-63.0	3.6	1.51e+00	0	38	104	0	60	51265
2026-01-01 19:07:06.30	43.65	2.51	-47.9	-63.0	3.6	1.51e+00	0	38	104	0	60	51020
2026-01-01 19:07:09.33	43.38	2.66	-47.9	-62.6	3.6	1.51e+00	0	38	104	0	60	48890
2026-01-01 19:07:12.36	43.11	2.81	-47.8	-62.2	3.6	1.51e+00	0	38	104	0	60	46612
2026-01-01 19:07:15.39	42.83	2.97	-47.4	-55.9	6.0	5.90e-01	92	38	0	0	60	22459
2026-01-01 19:07:18.42	42.55	3.12	-48.0	-63.1	3.6	1.51e+00	0	38	104	3145728	60	51366
2026-01-01 19:07:21.44	42.27	3.27	-46.5	-52.1	5.7	1.51e+00	0	38	104	3145728	60	14534
2026-01-01 19:07:24.48	41.99	3.43	-43.4	-45.6	16.4	0.00e+00	0	38	0	6291456	60	6923
2026-01-01 19:07:27.50	41.70	3.58	-43.5	-45.8	16.3	0.00e+00	80	38	0	12582912	60	7036
2026-01-01 19:07:30.54	41.41	3.73	-43.6	-46.0	16.3	0.00e+00	0	38	0	17825792	60	7211
2026-01-01 19:07:33.56	41.12	3.89	-43.3	-45.5	16.8	0.00e+00	0	38	0	23068672	60	6780
2026-01-01 19:07:36.60	40.82	4.04	-43.0	-45.1	17.3	0.00e+00	0	38	0	29360128	60	6466
2026-01-01 19:07:39.63	40.52	4.19	-43.3	-45.5	16.8	0.00e+00	43	38	0	34603008	60	6795
2026-01-01 19:07:42.66	40.22	4.35	-42.9	-44.9	17.4	0.00e+00	0	38	0	40894464	60	6364
2026-01-01 19:07:45.69	39.91	4.50	-43.0	-45.0	17.4	0.00e+00	0	38	0	46137344	60	6415
2026-01-01 19:07:48.72	39.60	4.66	-43.0	-45.0	17.4	0.00e+00	92	38	0	52428800	60	6410
2026-01-01 19:07:51.74	39.29	4.81	-42.7	-44.6	17.7	0.00e+00	0	38	0	57671680	58	6854
2026-01-01 19:07:54.77	38.97	4.97	-42.8	-44.8	17.6	0.00e+00	0	38	0	62914560	58	7028
2026-01-01 19:07:57.80	38.65	5.12	-42.8	-44.7	17.5	0.00e+00	81	38	0	69206016	58	6947
2026-01-01 19:08:00.83	38.33	5.27	-42.6	-44.4	17.9	0.00e+00	0	38	0	74448896	58	6724
2026-01-01 19:08:03.86	38.00	5.43	-42.7	-44.6	17.8	0.00e+00	0	38	0	80740352	58	6852
2026-01-01 19:08:06.89	37.67	5.58	-42.7	-44.6	17.8	0.00e+00	0	38	0	85983232	58	6908
2026-01-01 19:08:09.92	37.33	5.74	-42.9	-44.9	17.7	0.00e+00	35	38	0	91226112	58	7104
2026-01-01 19:08:12.95	36.99	5.89	-42.3	-44.0	18.2	0.00e+00	0	38	0	97517568	58	6464
2026-01-01 19:08:15.98	36.65	6.05	-42.1	-43.8	18.6	0.00e+00	0	38	0	102760448	58	6255
2026-01-01 19:08:19.01	36.31	6.20	-41.8	-43.3	19.1	0.00e+00	40	39	0	109051904	56	6662
2026-01-01 19:08:22.04	35.96	6.36	-41.5	-43.0	19.4	0.00e+00	0	39	0	114294784	56	6410
2026-01-01 19:08:25.06	35.61	6.51	-41.4	-42.8	19.5	0.00e+00	0	39	0	120586240	56	6314
2026-01-01 19:08:28.09	35.25	6.67	-41.4	-42.9	19.5	0.00e+00	33	39	0	125829120	56	6340
2026-01-01 19:08:31.12	34.89	6.82	-41.5	-43.0	19.5	0.00e+00	0	39	0	131072000	56	6422
2026-01-01 19:08:34.15	34.52	6.97	-41.5	-42.9	19.6	0.00e+00	33	39	0	137363456	56	6365
2026-01-01 19:08:37.18	34.15	7.13	-41.5	-43.0	19.6	0.00e+00	0	39	0	142606336	56	6421
2026-01-01 19:08:40.21	33.78	7.28	-41.6	-43.1	19.4	0.00e+00	47	39	0	148897792	56	6484
2026-01-01 19:08:43.24	33.40	7.43	-41.9	-43.4	19.2	0.00e+00	0	39	0	154140672	56	6741
2026-01-01 19:08:46.27	33.02	7.59	-41.9	-43.5	19.2	0.00e+00	0	39	0	159383552	56	6816
2026-01-01 19:08:49.30	32.63	7.74	-41.9	-43.4	19.2	0.00e+00	81	39	0	165675008	56	6744
2026-01-01 19:08:52.33	32.25	7.89	-41.7	-43.2	19.4	0.00e+00	0	39	0	170917888	56	6604
2026-01-01 19:08:55.36	31.85	8.04	-41.7	-43.2	19.4	0.00e+00	0	39	0	177209344	56	6598
2026-01-01 19:08:58.39	31.45	8.20	-41.6	-43.0	19.8	0.00e+00	0	39	0	182452224	56	6442
2026-01-01 19:09:01.42	31.05	8.35	-41.3	-42.7	20.0	0.00e+00	0	39	0	188743680	56	6223
2026-01-01 19:09:04.45	30.64	8.50	-41.6	-43.0	19.6	0.00e+00	0	39	0	193986560	56	6443
2026-01-01 19:09:07.48	30.23	8.65	-41.5	-43.0	19.7	0.00e+00	0	39	0	199229440	56	6408
2026-01-01 19:09:10.51	29.82	8.80	-41.8	-43.3	19.4	0.00e+00	40	39	0	205520896	56	6662
2026-01-01 19:09:13.53	29.40	8.95	-42.1	-43.7	19.0	0.00e+00	0	39	0	210763776	56	6992
2026-01-01 19:09:16.57	28.97	9.10	-41.7	-43.2	19.5	0.00e+00	0	39	0	217055232	56	6602
2026-01-01 19:09:19.59	28.55	9.24	-41.5	-43.0	19.7	0.00e+00	81	39	0	222298112	56	6418
2026-01-01 19:09:22.62	28.11	9.39	-41.4	-42.8	20.0	0.00e+00	0	39	0	227540992	56	6301
2026-01-01 19:09:25.65	27.68	9.54	-41.0	-42.4	20.2	0.00e+00	0	39	0	233832448	56	5984
2026-01-01 19:09:28.68	27.24	9.68	-40.9	-42.2	20.4	0.00e+00	0	39	0	239075328	54	6555
2026-01-01 19:09:31.71	26.79	9.83	-40.5	-41.7	20.8	0.00e+00	59	39	0	245366784	54	6238
2026-01-01 19:09:34.74	26.34	9.97	-40.2	-41.4	21.0	0.00e+00	0	39	0	250609664	54	5971
2026-01-01 19:09:37.77	25.88	10.11	-39.9	-41.1	21.2	0.00e+00	0	39	0	256901120	54	5772
2026-01-01 19:09:40.80	25.42	10.26	-39.6	-40.6	21.8	0.00e+00	76	39	0	262144000	52	6171
2026-01-01 19:09:43.83	24.96	10.40	-39.6	-40.7	21.7	0.00e+00	0	39	0	267386880	52	6241
2026-01-01 19:09:46.86	24.49	10.54	-39.9	-41.0	21.4	0.00e+00	0	39	0	273678336	52	6464
2026-01-01 19:09:49.89	24.02	10.68	-40.1	-41.2	21.2	0.00e+00	90	39	0	278921216	52	6615
2026-01-01 19:09:52.91	23.54	10.81	-40.3	-41.5	21.0	0.00e+00	0	39	0	285212672	52	6793
2026-01-01 19:09:55.94	23.06	10.95	-39.8	-40.9	21.6	0.00e+00	0	39	0	290455552	52	6380
2026-01-01 19:09:58.97	22.57	11.09	-39.3	-40.4	22.0	0.00e+00	0	39	0	295698432	52	6001
2026-01-01 19:10:02.00	22.08	11.22	-39.1	-40.2	22.1	0.00e+00	33	39	0	301989888	52	5845
2026-01-01 19:10:05.03	21.58	11.35	-38.8	-39.8	22.5	0.00e+00	0	39	0	307232768	50	6276
2026-01-01 19:10:08.06	21.08	11.49	-39.3	-40.4	22.0	0.00e+00	0	39	0	313524224	50	6735
2026-01-01 19:10:11.09	20.57	11.62	-39.2	-40.2	22.1	0.00e+00	92	39	0	318767104	50	6595
2026-01-01 19:10:14.12	20.06	11.74	-38.6	-39.5	22.7	0.00e+00	0	39	0	325058560	50	6090
2026-01-01 19:10:17.15	19.55	11.87	-38.5	-39.4	22.8	0.00e+00	0	39	0	330301440	50	6025
2026-01-01 19:10:20.18	19.03	12.00	-38.8	-39.7	22.6	0.00e+00	80	39	0	335544320	50	6244
2026-01-01 19:10:23.21	18.50	12.12	-39.1	-40.2	22.1	0.00e+00	49	39	0	341835776	50	6569
2026-01-01 19:10:26.24	17.98	12.24	-39.3	-40.4	21.9	0.00e+00	0	39	0	347078656	50	6755
2026-01-01 19:10:29.26	17.45	12.36	-39.3	-40.4	22.1	0.00e+00	0	39	0	353370112	50	6736
2026-01-01 19:10:32.29	16.91	12.48	-39.4	-40.4	22.0	0.00e+00	48	39	0	358612992	50	6766
2026-01-01 19:10:35.32	16.37	12.59	-39.2	-40.2	22.2	0.00e+00	0	39	0	363855872	50	6611
2026-01-01 19:10:38.35	15.82	12.71	-39.6	-40.8	21.8	0.00e+00	0	39	0	370147328	50	7019
2026-01-01 19:10:41.38	15.27	12.82	-39.5	-40.6	22.0	0.00e+00	81	39	0	375390208	52	6136
2026-01-01 19:10:44.41	14.72	12.93	-38.7	-39.7	22.7	0.00e+00	0	39	0	381681664	50	6212
2026-01-01 19:10:47.44	14.16	13.04	-39.3	-40.3	22.1	0.00e+00	0	39	0	386924544	50	6684
2026-01-01 19:10:50.47	13.60	13.14	-39.1	-40.2	22.2	0.00e+00	50	39	0	393216000	50	6548
2026-01-01 19:10:53.50	13.03	13.25	-39.0	-40.0	22.4	0.00e+00	44	39	0	398458880	50	6439
2026-01-01 19:10:56.53	12.46	13.35	-38.9	-39.9	22.4	0.00e+00	0	39	0	403701760	50	6358
2026-01-01 19:10:59.56	11.88	13.45	-39.2	-40.3	22.1	0.00e+00	0	39	0	409993216	50	6670
2026-01-01 19:11:02.59	11.31	13.54	-39.9	-41.1	21.5	0.00e+00	70	39	0	415236096	52	6536
2026-01-01 19:11:05.61	10.73	13.64	-39.7	-40.8	21.7	0.00e+00	0	39	0	421527552	52	6287
2026-01-01 19:11:08.64	10.14	13.73	-38.4	-39.3	22.7	0.00e+00	0	39	0	426770432	50	5960
2026-01-01 19:11:11.67	9.55	13.81	-38.5	-39.5	22.9	0.00e+00	84	39	0	432013312	50	6058
2026-01-01 19:11:14.70	8.96	13.90	-38.3	-39.2	23.0	0.00e+00	0	39	0	438304768	50	5869
2026-01-01 19:11:17.73	8.36	13.98	-38.4	-39.4	22.9	0.00e+00	0	39	0	443547648	50	5994
2026-01-01 19:11:20.76	7.76	14.06	-38.2	-39.1	23.0	0.00e+00	0	39	0	449839104	50	5805
2026-01-01 19:11:23.79	7.16	14.14	-38.3	-39.2	23.1	0.00e+00	17	39	0	455081984	50	5869
2026-01-01 19:11:26.81	6.56	14.21	-39.1	-40.1	22.3	0.00e+00	0	39	0	461373440	50	6512
2026-01-01 19:11:29.84	5.95	14.28	-39.2	-40.3	22.3	0.00e+00	0	39	0	466616320	50	6648
2026-01-01 19:11:32.87	5.33	14.35	-39.6	-40.7	21.9	0.00e+00	46	39	0	471859200	50	6936
2026-01-01 19:11:35.90	4.72	14.42	-39.7	-40.8	21.9	0.00e+00	0	39	0	478150656	52	6280
2026-01-01 19:11:38.93	4.10	14.48	-39.2	-40.3	22.3	0.00e+00	0	39	0	483393536	52	5914
2026-01-01 19:11:41.96	3.48	14.54	-39.5	-40.6	22.0	0.00e+00	50	39	0	489684992	52	6111
2026-01-01 19:11:44.99	2.86	14.59	-38.9	-39.9	22.5	0.00e+00	0	39	0	494927872	52	5690
2026-01-01 19:11:48.02	2.24	14.64	-38.3	-39.2	23.2	0.00e+00	0	39	0	500170752	50	5844
2026-01-01 19:11:51.04	1.61	14.69	-38.6	-39.5	22.8	0.00e+00	0	39	0	506462208	50	6098
2026-01-01 19:11:54.07	0.98	14.74	-38.8	-39.7	22.7	0.00e+00	16	39	0	511705088	50	6231
2026-01-01 19:11:57.11	0.35	14.78	-39.0	-40.0	22.4	0.00e+00	0	39	0	517996544	50	6433
2026-01-01 19:12:00.13	359.72	14.82	-39.1	-40.1	22.4	0.00e+00	0	39	0	523239424	50	6525
2026-01-01 19:12:03.16	359.09	14.85	-38.8	-39.8	22.6	0.00e+00	89	39	0	529530880	50	6316
2026-01-01 19:12:06.19	358.45	14.88	-39.3	-40.3	22.2	0.00e+00	0	39	0	534773760	50	6672
2026-01-01 19:12:09.22	357.82	14.91	-39.4	-40.4	22.1	0.00e+00	0	39	0	540016640	50	6768
2026-01-01 19:12:12.25	357.18	14.94	-39.2	-40.2	22.3	0.00e+00	92	39	0	546308096	50	6594
2026-01-01 19:12:15.27	356.54	14.96	-39.1	-40.1	22.4	0.00e+00	0	39	0	551550976	50	6523
2026-01-01 19:12:18.30	355.90	14.97	-39.6	-40.7	22.0	0.00e+00	0	39	0	557842432	50	6955
2026-01-01 19:12:21.33	355.26	14.99	-38.6	-39.6	22.7	0.00e+00	0	39	0	563085312	50	6167
2026-01-01 19:12:24.36	354.62	15.00	-39.0	-40.0	22.4	0.00e+00	51	39	0	568328192	50	6433
2026-01-01 19:12:27.39	353.98	15.01	-39.3	-40.3	22.1	0.00e+00	0	39	0	574619648	50	6692
2026-01-01 19:12:30.42	353.34	15.01	-39.5	-40.6	22.0	0.00e+00	0	39	0	579862528	50	6907
2026-01-01 19:12:33.45	352.70	15.01	-39.0	-40.0	22.5	0.00e+00	91	39	0	586153984	50	6432
2026-01-01 19:12:36.48	352.06	15.00	-38.5	-39.4	22.9	0.00e+00	0	39	0	591396864	50	5998
2026-01-01 19:12:39.51	351.42	15.00	-38.8	-39.8	22.8	0.00e+00	0	39	0	597688320	50	6261
2026-01-01 19:12:42.54	350.78	14.98	-39.2	-40.3	22.3	0.00e+00	3	39	0	602931200	50	6626
2026-01-01 19:12:45.57	350.14	14.97	-39.1	-40.1	22.2	0.00e+00	0	39	0	608174080	50	6515
2026-01-01 19:12:48.60	349.50	14.95	-39.5	-40.5	21.9	0.00e+00	0	39	0	614465536	50	6831
2026-01-01 19:12:51.63	348.86	14.93	-39.8	-41.0	21.7	0.00e+00	0	39	0	619708416	52	6393
2026-01-01 19:12:54.66	348.22	14.90	-39.6	-40.7	21.9	0.00e+00	82	39	0	625999872	52	6204
2026-01-01 19:12:57.69	347.58	14.87	-39.3	-40.3	22.2	0.00e+00	0	39	0	631242752	52	5952
2026-01-01 19:13:00.72	346.95	14.84	-38.8	-39.8	22.6	0.00e+00	0	39	0	636485632	50	6272
2026-01-01 19:13:03.75	346.32	14.80	-38.9	-39.9	22.4	0.00e+00	71	39	0	642777088	50	6341
2026-01-01 19:13:06.78	345.68	14.76	-39.2	-40.3	22.2	0.00e+00	0	39	0	648019968	50	6675
2026-01-01 19:13:09.81	345.05	14.72	-38.6	-39.6	22.8	0.00e+00	0	39	0	654311424	50	6133
2026-01-01 19:13:12.84	344.43	14.68	-38.4	-39.3	22.9	0.00e+00	0	39	0	659554304	50	5956
2026-01-01 19:13:15.87	343.80	14.63	-38.9	-39.9	22.6	0.00e+00	50	39	0	665845760	50	6369
2026-01-01 19:13:18.90	343.18	14.57	-38.7	-39.7	22.7	0.00e+00	0	39	0	671088640	50	6181
2026-01-01 19:13:21.93	342.56	14.52	-38.9	-39.9	22.5	0.00e+00	0	39	0	676331520	50	6381
2026-01-01 19:13:24.96	341.94	14.46	-39.4	-40.5	22.1	0.00e+00	46	39	0	682622976	50	6808
2026-01-01 19:13:27.99	341.32	14.39	-39.3	-40.4	22.1	0.00e+00	0	39	0	687865856	50	6739
2026-01-01 19:13:31.01	340.71	14.33	-39.2	-40.3	22.2	0.00e+00	0	39	0	694157312	50	6636
2026-01-01 19:13:34.04	340.10	14.26	-38.7	-39.7	22.7	0.00e+00	90	39	0	699400192	50	6215
2026-01-01 19:13:37.07	339.49	14.19	-38.8	-39.8	22.5	0.00e+00	0	39	0	704643072	50	6297
2026-01-01 19:13:40.10	338.88	14.11	-38.5	-39.5	23.0	0.00e+00	0	39	0	710934528	50	6035
2026-01-01 19:13:43.13	338.28	14.03	-38.4	-39.4	23.0	0.00e+00	33	39	0	716177408	50	6019
2026-01-01 19:13:46.16	337.68	13.95	-39.1	-40.1	22.4	0.00e+00	46	39	0	722468864	50	6503
2026-01-01 19:13:49.19	337.09	13.87	-39.5	-40.6	21.9	0.00e+00	0	39	0	727711744	50	6920
2026-01-01 19:13:52.22	336.50	13.78	-39.7	-40.9	21.8	0.00e+00	0	39	0	734003200	50	7096
2026-01-01 19:13:55.25	335.91	13.69	-39.7	-40.8	21.9	0.00e+00	40	39	0	739246080	52	6277
2026-01-01 19:13:58.28	335.32	13.60	-39.6	-40.7	21.9	0.00e+00	0	39	0	744488960	52	6217
2026-01-01 19:14:01.31	334.74	13.51	-39.2	-40.3	22.3	0.00e+00	0	39	0	750780416	52	5926
2026-01-01 19:14:04.34	334.17	13.41	-38.9	-39.9	22.5	0.00e+00	48	39	0	756023296	52	5682
2026-01-01 19:14:07.37	333.59	13.31	-38.7	-39.7	22.7	0.00e+00	0	39	0	762314752	50	6212
2026-01-01 19:14:10.40	333.02	13.21	-38.7	-39.7	22.6	0.00e+00	0	39	0	767557632	50	6216
2026-01-01 19:14:13.42	332.46	13.11	-38.7	-39.6	22.8	0.00e+00	0	39	0	772800512	50	6172
2026-01-01 19:14:16.46	331.90	13.00	-38.4	-39.3	22.9	0.00e+00	42	39	0	779091968	50	5962
2026-01-01 19:14:19.48	331.34	12.89	-38.6	-39.6	22.6	0.00e+00	0	39	0	784334848	50	6127
2026-01-01 19:14:22.51	330.79	12.78	-39.0	-40.0	22.4	0.00e+00	0	39	0	790626304	50	6459
2026-01-01 19:14:25.54	330.24	12.67	-39.5	-40.6	22.0	0.00e+00	66	39	0	795869184	50	6863
2026-01-01 19:14:28.57	329.69	12.55	-40.0	-41.2	21.5	0.00e+00	0	39	0	802160640	52	6558
2026-01-01 19:14:31.60	329.15	12.44	-39.9	-41.0	21.7	0.00e+00	0	39	0	807403520	52	6455
2026-01-01 19:14:34.63	328.62	12.32	-39.9	-41.0	21.7	0.00e+00	48	39	0	812646400	52	6403
2026-01-01 19:14:37.66	328.09	12.20	-39.7	-40.8	21.8	0.00e+00	0	39	0	818937856	52	6260
2026-01-01 19:14:40.69	327.56	12.08	-40.0	-41.1	21.6	0.00e+00	0	39	0	824180736	52	6496
2026-01-01 19:14:43.72	327.04	11.95	-39.9	-41.1	21.6	0.00e+00	0	39	0	830472192	52	6482
2026-01-01 19:14:46.74	326.52	11.83	-40.0	-41.2	21.5	0.00e+00	46	39	0	835715072	52	6543
2026-01-01 19:14:49.77	326.01	11.70	-40.4	-41.6	21.2	0.00e+00	0	39	0	840957952	52	6891
2026-01-01 19:14:52.80	325.50	11.57	-40.0	-41.2	21.7	0.00e+00	0	39	0	847249408	52	6545
2026-01-01 19:14:55.83	324.99	11.44	-39.5	-40.5	22.0	0.00e+00	66	39	0	852492288	52	6073
2026-01-01 19:14:58.86	324.49	11.31	-39.6	-40.7	21.9	0.00e+00	0	39	0	858783744	52	6175
2026-01-01 19:15:01.89	324.00	11.17	-40.5	-41.7	20.9	0.00e+00	0	39	0	864026624	52	6970
2026-01-01 19:15:04.91	323.51	11.04	-41.1	-42.4	20.4	0.00e+00	41	39	0	870318080	54	6728
2026-01-01 19:15:07.94	323.02	10.90	-40.8	-42.1	20.7	0.00e+00	47	39	0	875560960	54	6477
2026-01-01 19:15:10.97	322.54	10.77	-40.5	-41.7	21.0	0.00e+00	0	39	0	880803840	54	6216
2026-01-01 19:15:14.00	322.07	10.63	-40.7	-42.0	20.6	0.00e+00	0	39	0	887095296	54	6412
2026-01-01 19:15:17.03	321.59	10.49	-42.4	-44.1	18.8	0.00e+00	50	39	0	892338176	56	7281
2026-01-01 19:15:20.06	321.12	10.35	-43.2	-45.1	17.9	0.00e+00	0	39	0	898629632	58	7300
2026-01-01 19:15:23.09	320.66	10.21	-42.6	-44.3	18.6	0.00e+00	33	39	0	903872512	58	6684
2026-01-01 19:15:26.12	320.20	10.06	-42.3	-43.8	19.1	0.00e+00	83	39	0	909115392	58	6310
2026-01-01 19:15:29.15	319.75	9.92	-42.0	-43.5	19.4	0.00e+00	0	39	0	915406848	58	6069
2026-01-01 19:15:32.18	319.30	9.78	-41.4	-42.8	20.0	0.00e+00	0	39	0	920649728	56	6284
2026-01-01 19:15:35.21	318.85	9.63	-41.2	-42.5	20.3	0.00e+00	0	39	0	926941184	56	6058
2026-01-01 19:15:38.23	318.41	9.49	-41.2	-42.5	20.1	0.00e+00	47	39	0	932184064	56	6091
2026-01-01 19:15:41.26	317.98	9.34	-41.3	-42.6	20.3	0.00e+00	0	39	0	938475520	56	6159
2026-01-01 19:15:44.29	317.55	9.19	-40.5	-41.7	20.4	0.00e+00	0	39	0	943718400	54	6242
2026-01-01 19:15:47.32	317.12	9.04	-40.1	-41.5	19.3	0.00e+00	52	39	0	948961280	54	6092
2026-01-01 19:15:50.35	316.70	8.89	-40.1	-41.3	20.9	0.00e+00	0	39	0	955252736	54	5909
2026-01-01 19:15:53.38	316.28	8.74	-40.4	-41.6	21.1	0.00e+00	0	39	0	960495616	54	6158
2026-01-01 19:15:56.41	315.86	8.59	-40.6	-41.8	20.7	0.00e+00	89	39	0	966787072	54	6294
2026-01-01 19:15:59.44	315.45	8.44	-40.9	-42.2	20.2	0.00e+00	0	39	0	972029952	54	6572
2026-01-01 19:16:02.47	315.05	8.29	-40.9	-42.2	20.4	0.00e+00	0	39	0	977272832	54	6573
2026-01-01 19:16:05.49	314.65	8.14	-40.7	-42.0	20.6	0.00e+00	0	39	0	983564288	54	6401
2026-01-01 19:16:08.53	314.25	7.99	-40.7	-42.0	20.5	0.00e+00	32	39	0	988807168	54	6448
2026-01-01 19:16:11.55	313.86	7.84	-40.5	-41.8	20.8	0.00e+00	0	39	0	995098624	54	6287
2026-01-01 19:16:14.58	313.47	7.69	-40.0	-41.2	21.3	0.00e+00	0	39	0	1000341504	54	5848
2026-01-01 19:16:17.61	313.09	7.53	-39.4	-40.5	21.8	0.00e+00	78	39	0	1006632960	52	6051
2026-01-01 19:16:20.64	312.71	7.38	-39.3	-40.3	22.0	0.00e+00	0	39	0	1011875840	52	5942
2026-01-01 19:16:23.67	312.33	7.23	-39.6	-40.7	21.6	0.00e+00	0	39	0	1017118720	52	6182
2026-01-01 19:16:26.69	311.96	7.07	-39.7	-40.8	21.5	0.00e+00	92	39	0	1023410176	52	6253
2026-01-01 19:16:29.72	311.59	6.92	-39.4	-40.5	21.8	0.00e+00	0	39	0	1028653056	52	6083
2026-01-01 19:16:32.75	311.23	6.77	-39.5	-40.6	21.8	0.00e+00	0	39	0	1034944512	52	6125
2026-01-01 19:16:35.78	310.87	6.61	-39.5	-40.6	21.7	0.00e+00	0	39	0	1040187392	52	6129
2026-01-01 19:16:38.81	310.51	6.46	-40.0	-41.1	21.2	0.00e+00	45	39	0	1045430272	52	6511
2026-01-01 19:16:41.84	310.16	6.30	-40.2	-41.4	21.0	0.00e+00	0	39	0	1051721728	52	6724
2026-01-01 19:16:44.86	309.81	6.15	-40.3	-41.6	20.8	0.00e+00	0	39	0	1056964608	52	6862
2026-01-01 19:16:47.89	309.47	5.99	-40.6	-41.9	20.5	0.00e+00	46	39	0	1063256064	52	7139
2026-01-01 19:16:50.92	309.12	5.84	-40.7	-42.0	20.3	0.00e+00	0	39	0	1068498944	54	6392
2026-01-01 19:16:53.95	308.79	5.68	-40.6	-41.9	20.5	0.00e+00	0	39	0	1074790400	54	6344
2026-01-01 19:16:56.98	308.45	5.53	-40.5	-41.8	20.2	0.00e+00	43	39	0	1080033280	54	6266
2026-01-01 19:17:00.01	308.12	5.37	-40.3	-41.6	20.6	0.00e+00	0	39	0	1085276160	54	6126
2026-01-01 19:17:03.04	307.80	5.22	-40.4	-41.7	20.7	0.00e+00	0	39	0	1091567616	54	6193
2026-01-01 19:17:06.06	307.47	5.07	-40.0	-41.2	20.9	0.00e+00	0	39	0	1096810496	54	5880
2026-01-01 19:17:09.09	307.15	4.91	-40.2	-41.5	20.6	0.00e+00	59	39	0	1103101952	54	6063
2026-01-01 19:17:12.12	306.84	4.76	-40.6	-41.9	20.4	0.00e+00	0	39	0	1108344832	54	6348
2026-01-01 19:17:15.15	306.53	4.60	-41.3	-42.7	19.5	0.00e+00	0	39	0	1113587712	54	6958
2026-01-01 19:17:18.18	306.22	4.45	-41.3	-42.7	19.5	0.00e+00	92	39	0	1119879168	54	7006
2026-01-01 19:17:21.21	305.91	4.29	-40.9	-42.2	20.0	0.00e+00	0	39	0	1125122048	54	6614
2026-01-01 19:17:24.24	305.61	4.14	-40.3	-41.6	20.5	0.00e+00	0	39	0	1131413504	54	6118
2026-01-01 19:17:27.27	305.31	3.99	-40.1	-41.4	20.7	0.00e+00	0	39	0	1136656384	54	5965
2026-01-01 19:17:30.30	305.01	3.83	-39.9	-41.1	20.8	0.00e+00	0	39	0	1142947840	54	5783
2026-01-01 19:17:33.33	304.72	3.68	-40.0	-41.2	20.7	0.00e+00	0	39	0	1148190720	54	5830
2026-01-01 19:17:36.36	304.43	3.52	-40.4	-41.7	20.2	0.00e+00	0	39	0	1153433600	54	6215
2026-01-01 19:17:39.39	304.14	3.37	-41.4	-43.0	19.0	0.00e+00	37	39	0	1159725056	54	7177
2026-01-01 19:17:42.42	303.86	3.22	-41.7	-43.3	18.8	0.00e+00	0	39	0	1164967936	54	7428
2026-01-01 19:17:45.45	303.58	3.06	-42.2	-44.0	18.0	0.00e+00	0	39	0	1171259392	56	7201
2026-01-01 19:17:48.48	303.30	2.91	-49.2	-64.4	3.6	1.51e+00	0	39	104	1172307968	60	59674
2026-01-01 19:17:51.51	303.03	2.76	-49.5	-64.7	3.6	1.51e+00	0	39	104	1172307968	60	61980
2026-01-01 19:17:54.54	302.75	2.61	-49.5	-64.8	3.6	1.51e+00	0	39	104	1172307968	60	62516
2026-01-01 19:17:57.57	302.49	2.45	-49.0	-64.7	3.6	1.51e+00	0	39	104	1172307968	60	61989
2026-01-01 19:18:00.60	302.22	2.30	-49.4	-64.6	3.6	1.51e+00	0	39	104	1172307968	60	61366
2026-01-01 19:18:03.63	301.96	2.15	-49.5	-64.7	3.6	1.51e+00	0	39	104	1172307968	60	62049
2026-01-01 19:18:06.65	301.70	2.00	-49.4	-64.6	3.6	1.51e+00	0	39	104	1172307968	60	61414
2026-01-01 19:18:09.69	301.44	1.85	-49.4	-64.6	3.6	1.51e+00	0	39	104	1172307968	60	61124
2026-01-01 19:18:12.71	301.18	1.70	-49.4	-64.6	3.6	1.51e+00	0	39	104	1172307968	60	61357
2026-01-01 19:18:15.74	300.93	1.55	-49.4	-64.6	3.6	1.51e+00	0	39	104	1172307968	60	61148
2026-01-01 19:18:18.77	300.68	1.40	-49.4	-64.6	3.6	1.51e+00	0	39	104	1172307968	60	61044
2026-01-01 19:18:21.81	300.44	1.25	-49.4	-64.6	3.6	1.51e+00	0	39	104	1172307968	60	61238
2026-01-01 19:18:24.83	300.19	1.10	-49.4	-64.5	3.6	1.51e+00	0	39	104	1172307968	60	60955
2026-01-01 19:18:27.86	299.95	0.95	-49.4	-64.5	3.6	1.51e+00	0	39	104	1172307968	60	60936
2026-01-01 19:18:30.89	299.71	0.80	-49.4	-64.5	3.6	1.51e+00	0	39	104	1172307968	60	60981
2026-01-01 19:18:33.92	299.47	0.65	-49.4	-64.6	3.6	1.51e+00	0	39	104	1172307968	60	61223
2026-01-01 19:18:36.95	299.24	0.50	-49.4	-64.6	3.6	1.51e+00	0	39	104	1172307968	60	61161
2026-01-01 19:18:39.98	299.01	0.35	-49.4	-64.6	3.6	1.51e+00	0	39	104	1172307968	60	61407
2026-01-01 19:18:43.01	298.78	0.21	-49.4	-64.6	3.6	1.51e+00	0	39	104	1172307968	60	61079
2026-01-01 19:18:46.04	298.55	0.06	-49.4	-64.6	3.6	1.51e+00	0	39	104	1172307968	60	61217
2026-01-01 19:18:49.08	298.32	-0.09	-49.4	-64.6	3.6	1.51e+00	0	39	104	1172307968	60	61186

#Closed at: 2026-01-01 19:18:50
#Recorded file [1172 MB]: D:/lorett/data/35029_260102_070617.dat