passes_logs/2026/01/01/R4.6S_Anadyr/R4.6S_Anadyr__20260101_004132_NOAA_20_JPSS-1_rec.log

#Pass ID: 20260101_004132_NOAA 20 (JPSS-1)
#Satellite: NOAA 20 (JPSS-1)
#Configuration: NOAA 20
#almurnet v.1.7.20251203
#Start time: 2026-01-01 00:41:33

#Version: 2.2.20231116
#Station: R4.6S_Anadyr
#Location: 177.4865 lon 64.73178 lat
#TLE: 1 43013U 17073A   25364.89373485  .00000164  00000+0  98659-4 0  9997
#TLE: 2 43013  98.7619 300.9939 0001957  61.1511 298.9862 14.19531413420599

#Time	Az	El	Level	Level2	SNR	BER	BlckErr	Temp	State	Recorded	gain1	gain2
2026-01-01 00:41:33.45	168.22	0.04	-49.0	-64.0	3.5	1.51e+00	0	35	0	0	60	56998
2026-01-01 00:41:37.49	168.29	0.28	-49.2	-64.4	3.6	1.51e+00	0	37	104	0	60	59988
2026-01-01 00:41:41.53	168.36	0.52	-49.2	-64.4	3.5	1.51e+00	0	37	104	0	60	59943
2026-01-01 00:41:45.57	168.44	0.77	-48.8	-64.0	3.6	1.51e+00	0	37	104	0	60	57220
2026-01-01 00:41:49.61	168.51	1.01	-48.0	-63.1	3.6	1.51e+00	0	37	104	0	60	51853
2026-01-01 00:41:53.64	168.59	1.26	-47.7	-62.9	3.6	1.51e+00	0	37	104	0	60	50300
2026-01-01 00:41:57.68	168.66	1.51	-47.7	-62.6	3.6	1.51e+00	0	37	104	0	60	48628
2026-01-01 00:42:01.72	168.74	1.77	-47.7	-62.6	3.6	1.51e+00	0	37	104	0	60	48925
2026-01-01 00:42:05.76	168.82	2.02	-47.7	-62.9	3.6	1.51e+00	0	37	104	0	60	50307
2026-01-01 00:42:09.79	168.90	2.28	-47.7	-62.8	3.6	1.51e+00	0	37	104	0	60	49931
2026-01-01 00:42:13.82	168.98	2.54	-47.7	-61.7	3.6	1.51e+00	0	37	104	0	60	43970
2026-01-01 00:42:17.86	169.06	2.81	-47.7	-61.7	3.6	1.51e+00	0	37	104	0	60	44078
2026-01-01 00:42:21.90	169.15	3.07	-46.7	-52.7	8.5	1.02e-01	92	37	0	2097152	60	15681
2026-01-01 00:42:25.94	169.23	3.34	-43.8	-46.4	15.6	0.00e+00	8	37	0	9437184	60	7592
2026-01-01 00:42:29.98	169.32	3.61	-42.8	-45.0	16.9	0.00e+00	91	37	0	16777216	58	7178
2026-01-01 00:42:34.01	169.41	3.88	-47.5	-58.5	3.7	3.18e-01	12	37	0	25165824	60	30455
2026-01-01 00:42:38.05	169.49	4.16	-45.4	-49.1	13.5	3.20e-05	92	38	0	27262976	60	10339
2026-01-01 00:42:42.09	169.58	4.44	-44.8	-47.9	13.7	6.80e-06	3	38	0	34603008	60	9006
2026-01-01 00:42:46.13	169.68	4.72	-43.7	-46.2	16.1	0.00e+00	92	38	0	42991616	60	7350
2026-01-01 00:42:50.17	169.77	5.01	-41.3	-42.8	19.3	0.00e+00	92	38	0	50331648	56	6288
2026-01-01 00:42:54.21	169.87	5.29	-40.9	-42.3	19.9	0.00e+00	92	38	0	57671680	56	5933
2026-01-01 00:42:58.24	169.96	5.59	-40.6	-41.9	20.3	0.00e+00	0	38	0	65011712	54	6355
2026-01-01 00:43:02.28	170.06	5.88	-40.7	-42.0	20.2	0.00e+00	92	38	0	72351744	54	6458
2026-01-01 00:43:06.32	170.16	6.18	-40.5	-41.8	20.4	0.00e+00	90	38	0	80740352	54	6285
2026-01-01 00:43:10.35	170.26	6.48	-40.4	-41.7	20.5	0.00e+00	91	38	0	88080384	54	6229
2026-01-01 00:43:14.39	170.37	6.78	-40.2	-41.4	20.8	0.00e+00	2	38	0	95420416	54	6016
2026-01-01 00:43:18.43	170.47	7.09	-40.2	-41.4	20.9	0.00e+00	92	38	0	102760448	54	5996
2026-01-01 00:43:22.46	170.58	7.40	-40.0	-41.2	21.0	0.00e+00	92	38	0	110100480	54	5895
2026-01-01 00:43:26.50	170.69	7.72	-39.9	-41.1	21.2	0.00e+00	92	38	0	118489088	54	5780
2026-01-01 00:43:30.54	170.80	8.04	-39.7	-40.9	21.5	0.00e+00	0	38	0	125829120	52	6346
2026-01-01 00:43:34.58	170.92	8.36	-39.6	-40.7	21.6	0.00e+00	90	38	0	133169152	52	6228
2026-01-01 00:43:38.62	171.03	8.69	-39.4	-40.5	21.8	0.00e+00	92	38	0	140509184	52	6076
2026-01-01 00:43:42.65	171.15	9.02	-39.2	-40.3	22.2	0.00e+00	18	38	0	148897792	52	5914
2026-01-01 00:43:46.69	171.27	9.36	-39.1	-40.2	22.2	0.00e+00	71	38	0	156237824	52	5841
2026-01-01 00:43:50.73	171.40	9.70	-38.7	-39.7	22.6	0.00e+00	92	38	0	163577856	50	6240
2026-01-01 00:43:54.77	171.52	10.04	-38.9	-39.9	22.4	0.00e+00	92	38	0	170917888	50	6371
2026-01-01 00:43:58.81	171.65	10.39	-38.7	-39.7	22.7	0.00e+00	46	38	0	178257920	50	6219
2026-01-01 00:44:02.84	171.78	10.75	-38.5	-39.5	22.8	0.00e+00	95	38	0	186646528	50	6047
2026-01-01 00:44:06.88	171.92	11.11	-38.4	-39.4	23.0	0.00e+00	92	38	0	193986560	50	5992
2026-01-01 00:44:10.91	172.05	11.47	-38.4	-39.3	23.0	0.00e+00	92	38	0	201326592	50	5962
2026-01-01 00:44:14.95	172.20	11.84	-38.4	-39.3	23.1	0.00e+00	0	38	0	208666624	50	5927
2026-01-01 00:44:18.99	172.34	12.22	-38.2	-39.2	23.2	0.00e+00	91	38	0	217055232	50	5835
2026-01-01 00:44:23.03	172.49	12.60	-38.2	-39.2	23.3	0.00e+00	91	38	0	224395264	50	5843
2026-01-01 00:44:27.06	172.64	12.99	-38.1	-39.0	23.5	0.00e+00	0	38	0	231735296	50	5731
2026-01-01 00:44:31.10	172.79	13.38	-38.1	-39.0	23.5	0.00e+00	5	38	0	239075328	50	5727
2026-01-01 00:44:35.14	172.95	13.79	-38.0	-38.9	23.5	0.00e+00	92	38	0	246415360	50	5663
2026-01-01 00:44:39.17	173.11	14.19	-38.0	-38.9	23.6	0.00e+00	92	38	0	254803968	50	5672
2026-01-01 00:44:43.21	173.28	14.61	-38.0	-38.9	23.6	0.00e+00	8	38	0	262144000	50	5659
2026-01-01 00:44:47.25	173.45	15.03	-38.3	-39.2	23.3	0.00e+00	81	38	0	269484032	50	5881
2026-01-01 00:44:51.29	173.63	15.45	-38.4	-39.3	23.2	0.00e+00	92	38	0	276824064	50	5939
2026-01-01 00:44:55.32	173.81	15.89	-38.6	-39.6	23.0	0.00e+00	92	38	0	285212672	50	6106
2026-01-01 00:44:59.36	173.99	16.33	-38.7	-39.7	23.0	0.00e+00	0	38	0	292552704	50	6174
2026-01-01 00:45:03.40	174.18	16.78	-38.6	-39.6	23.0	0.00e+00	0	38	0	299892736	50	6124
2026-01-01 00:45:07.43	174.38	17.24	-38.7	-39.7	23.0	0.00e+00	92	38	0	307232768	50	6182
2026-01-01 00:45:11.46	174.58	17.71	-38.7	-39.6	23.0	0.00e+00	92	38	0	314572800	50	6148
2026-01-01 00:45:15.49	174.79	18.19	-38.7	-39.6	23.1	0.00e+00	10	38	0	322961408	50	6143
2026-01-01 00:45:19.53	175.00	18.67	-38.7	-39.7	23.0	0.00e+00	0	38	0	330301440	50	6211
2026-01-01 00:45:23.56	175.22	19.17	-38.7	-39.7	23.0	0.00e+00	90	38	0	337641472	50	6201
2026-01-01 00:45:27.59	175.45	19.67	-38.8	-39.7	23.0	0.00e+00	91	38	0	344981504	50	6223
2026-01-01 00:45:31.63	175.68	20.18	-38.8	-39.8	23.0	0.00e+00	84	38	0	353370112	50	6262
2026-01-01 00:45:35.67	175.92	20.71	-39.0	-39.9	22.9	0.00e+00	92	38	0	360710144	50	6390
2026-01-01 00:45:39.70	176.17	21.25	-38.9	-39.9	22.8	0.00e+00	92	38	0	368050176	50	6364
2026-01-01 00:45:43.74	176.43	21.79	-39.0	-40.0	22.7	0.00e+00	92	38	0	375390208	50	6445
2026-01-01 00:45:47.78	176.70	22.35	-38.9	-39.9	22.9	0.00e+00	0	38	0	382730240	50	6326
2026-01-01 00:45:51.82	176.97	22.92	-38.8	-39.8	23.0	0.00e+00	90	37	0	391118848	50	6260
2026-01-01 00:45:55.85	177.26	23.50	-38.9	-39.8	23.0	0.00e+00	92	37	0	398458880	50	6289
2026-01-01 00:45:59.89	177.55	24.10	-39.0	-39.9	22.9	0.00e+00	92	37	0	405798912	50	6383
2026-01-01 00:46:03.92	177.86	24.71	-38.7	-39.6	23.2	0.00e+00	0	37	0	413138944	50	6173
2026-01-01 00:46:07.96	178.18	25.33	-38.8	-39.7	23.1	0.00e+00	90	38	0	421527552	50	6225
2026-01-01 00:46:12.00	178.51	25.97	-38.6	-39.6	23.3	0.00e+00	92	37	0	428867584	50	6130
2026-01-01 00:46:16.04	178.85	26.62	-38.9	-39.8	23.0	0.00e+00	92	37	0	436207616	50	6315
2026-01-01 00:46:20.08	179.21	27.28	-38.3	-39.2	23.6	0.00e+00	6	37	0	443547648	50	5863
2026-01-01 00:46:24.12	179.58	27.96	-38.2	-39.1	23.7	0.00e+00	92	37	0	450887680	50	5771
2026-01-01 00:46:28.16	179.97	28.66	-38.5	-39.4	23.4	0.00e+00	92	37	0	459276288	50	5984
2026-01-01 00:46:32.20	180.38	29.37	-39.0	-39.9	22.9	0.00e+00	91	37	0	466616320	50	6383
2026-01-01 00:46:36.23	180.80	30.10	-39.6	-40.7	22.4	0.00e+00	0	38	0	473956352	50	6941
2026-01-01 00:46:40.27	181.24	30.85	-40.1	-41.2	21.9	0.00e+00	90	38	0	481296384	52	6597
2026-01-01 00:46:44.30	181.70	31.61	-40.2	-41.2	21.9	0.00e+00	90	37	0	488636416	52	6605
2026-01-01 00:46:48.34	182.18	32.40	-40.5	-41.6	21.6	0.00e+00	92	37	0	497025024	52	6863
2026-01-01 00:46:52.38	182.69	33.20	-40.2	-41.3	21.8	0.00e+00	0	37	0	504365056	52	6671
2026-01-01 00:46:56.42	183.22	34.02	-39.9	-40.9	22.1	0.00e+00	92	37	0	511705088	52	6357
2026-01-01 00:47:00.45	183.78	34.86	-40.2	-41.3	21.8	0.00e+00	92	37	0	519045120	52	6686
2026-01-01 00:47:04.49	184.37	35.73	-40.3	-41.4	21.7	0.00e+00	92	37	0	527433728	52	6743
2026-01-01 00:47:08.53	184.99	36.61	-40.6	-41.7	21.5	0.00e+00	0	37	0	534773760	52	6959
2026-01-01 00:47:12.57	185.64	37.51	-41.3	-42.6	20.6	0.00e+00	92	37	0	542113792	54	6861
2026-01-01 00:47:16.60	186.33	38.43	-41.1	-42.3	20.8	0.00e+00	92	37	0	549453824	54	6689
2026-01-01 00:47:20.64	187.06	39.38	-41.7	-43.0	19.9	0.00e+00	11	37	0	556793856	54	7203
2026-01-01 00:47:24.68	187.83	40.34	-41.8	-43.1	20.2	0.00e+00	70	37	0	565182464	56	6524
2026-01-01 00:47:28.72	188.65	41.33	-41.2	-42.5	20.8	0.00e+00	90	37	0	572522496	56	6061
2026-01-01 00:47:32.76	189.52	42.33	-40.6	-41.7	21.5	0.00e+00	92	37	0	579862528	54	6215
2026-01-01 00:47:36.80	190.45	43.36	-40.1	-41.2	21.9	0.00e+00	81	37	0	587202560	54	5848
2026-01-01 00:47:40.84	191.44	44.41	-40.0	-41.1	22.0	0.00e+00	90	37	0	595591168	54	5796
2026-01-01 00:47:44.88	192.49	45.47	-41.0	-42.2	21.0	0.00e+00	91	37	0	602931200	54	6555
2026-01-01 00:47:48.91	193.61	46.55	-40.9	-42.1	21.1	0.00e+00	92	37	0	610271232	54	6466
2026-01-01 00:47:52.95	194.82	47.65	-40.3	-41.5	21.7	0.00e+00	0	37	0	617611264	54	6042
2026-01-01 00:47:56.99	196.11	48.76	-40.2	-41.4	21.8	0.00e+00	92	37	0	624951296	54	5966
2026-01-01 00:48:01.02	197.50	49.89	-38.0	-38.9	24.0	0.00e+00	92	37	0	633339904	50	5678
2026-01-01 00:48:05.06	198.99	51.02	-37.4	-38.3	24.5	0.00e+00	92	37	0	640679936	48	5914
2026-01-01 00:48:09.10	200.60	52.16	-35.9	-36.7	25.9	0.00e+00	2	37	0	648019968	46	5522
2026-01-01 00:48:13.14	202.34	53.30	-35.6	-36.3	26.0	0.00e+00	92	37	0	655360000	44	5940
2026-01-01 00:48:17.17	204.22	54.44	-35.6	-36.4	26.1	0.00e+00	92	37	0	663748608	44	5965
2026-01-01 00:48:21.21	206.25	55.57	-37.1	-37.9	24.7	0.00e+00	92	37	0	671088640	46	6329
2026-01-01 00:48:25.25	208.45	56.69	-38.5	-39.4	23.5	0.00e+00	4	37	0	678428672	48	6701
2026-01-01 00:48:29.29	210.83	57.79	-39.2	-40.2	22.8	0.00e+00	90	37	0	685768704	50	6593
2026-01-01 00:48:33.33	213.41	58.85	-39.3	-40.3	22.7	0.00e+00	90	37	0	693108736	50	6654
2026-01-01 00:48:37.37	216.20	59.88	-38.7	-39.6	23.4	0.00e+00	22	37	0	701497344	50	6126
2026-01-01 00:48:41.40	219.21	60.86	-37.4	-38.2	24.5	0.00e+00	0	37	0	708837376	48	5857
2026-01-01 00:48:45.44	222.46	61.78	-36.9	-37.7	24.8	0.00e+00	92	37	0	716177408	48	5555
2026-01-01 00:48:49.48	225.94	62.62	-37.3	-38.1	24.6	0.00e+00	90	37	0	723517440	48	5782
2026-01-01 00:48:53.51	229.66	63.38	-37.5	-38.4	24.5	0.00e+00	5	37	0	730857472	48	5979
2026-01-01 00:48:57.55	233.62	64.04	-38.5	-39.4	23.4	0.00e+00	0	37	0	739246080	48	6746
2026-01-01 00:49:01.59	237.79	64.60	-37.9	-38.8	24.0	0.00e+00	92	37	0	746586112	48	6304
2026-01-01 00:49:05.63	242.14	65.03	-39.4	-40.5	22.6	0.00e+00	92	37	0	753926144	50	6786
2026-01-01 00:49:09.67	246.63	65.33	-39.6	-40.6	22.5	0.00e+00	8	37	0	761266176	50	6881
2026-01-01 00:49:13.70	251.21	65.49	-38.7	-39.6	23.3	0.00e+00	55	37	0	769654784	52	5484
2026-01-01 00:49:17.74	255.83	65.51	-38.0	-38.8	24.0	0.00e+00	90	37	0	776994816	50	5626
2026-01-01 00:49:21.78	260.43	65.39	-38.1	-38.9	24.1	0.00e+00	81	37	0	784334848	50	5685
2026-01-01 00:49:25.82	264.95	65.12	-38.6	-39.5	23.5	0.00e+00	82	37	0	791674880	48	6808
2026-01-01 00:49:29.86	269.35	64.73	-37.1	-37.8	24.8	0.00e+00	90	37	0	799014912	48	5625
2026-01-01 00:49:33.89	273.56	64.21	-37.3	-38.1	24.6	0.00e+00	90	37	0	807403520	48	5781
2026-01-01 00:49:37.93	277.57	63.58	-36.5	-37.2	25.3	0.00e+00	0	37	0	814743552	46	5880
2026-01-01 00:49:41.97	281.36	62.84	-36.2	-37.0	25.6	0.00e+00	81	37	0	822083584	46	5741
2026-01-01 00:49:46.00	284.90	62.03	-35.8	-36.5	25.8	0.00e+00	90	37	0	829423616	46	5434
2026-01-01 00:49:50.04	288.21	61.13	-35.8	-36.6	25.8	0.00e+00	92	38	0	837812224	44	6136
2026-01-01 00:49:54.08	291.28	60.17	-37.2	-38.0	24.7	0.00e+00	2	38	0	845152256	46	6455
2026-01-01 00:49:58.12	294.13	59.15	-38.5	-39.4	23.5	0.00e+00	0	38	0	852492288	48	6720
2026-01-01 00:50:02.15	296.76	58.10	-38.5	-39.5	23.5	0.00e+00	92	37	0	859832320	50	6056
2026-01-01 00:50:06.19	299.19	57.02	-36.4	-37.1	25.5	0.00e+00	90	37	0	867172352	46	5818
2026-01-01 00:50:10.22	301.43	55.91	-34.9	-35.6	26.7	0.00e+00	0	38	0	875560960	44	5468
2026-01-01 00:50:14.26	303.51	54.79	-34.9	-35.6	26.6	0.00e+00	0	38	0	882900992	42	6111
2026-01-01 00:50:18.29	305.42	53.65	-35.5	-36.2	26.2	0.00e+00	92	37	0	890241024	42	6570
2026-01-01 00:50:22.33	307.19	52.52	-36.2	-37.0	25.6	0.00e+00	92	38	0	897581056	46	5711
2026-01-01 00:50:26.36	308.83	51.38	-38.3	-39.2	23.7	0.00e+00	0	38	0	905969664	48	6592
2026-01-01 00:50:30.40	310.36	50.25	-39.5	-40.6	22.5	0.00e+00	0	38	0	913309696	50	6870
2026-01-01 00:50:34.44	311.78	49.13	-42.3	-43.8	19.4	0.00e+00	92	37	0	920649728	56	7084
2026-01-01 00:50:38.47	313.09	48.02	-42.5	-44.0	19.2	0.00e+00	91	38	0	927989760	56	7245
2026-01-01 00:50:42.51	314.32	46.92	-41.9	-43.4	20.0	0.00e+00	0	38	0	935329792	58	5969
2026-01-01 00:50:46.55	315.47	45.83	-40.4	-41.5	21.7	0.00e+00	0	38	0	943718400	54	6101
2026-01-01 00:50:50.59	316.54	44.77	-39.4	-40.4	22.6	0.00e+00	92	38	0	951058432	52	6018
2026-01-01 00:50:54.62	317.54	43.72	-37.8	-38.7	24.2	0.00e+00	91	38	0	958398464	50	5520
2026-01-01 00:50:58.65	318.48	42.70	-38.3	-39.2	23.1	0.00e+00	0	37	0	965738496	48	6548
2026-01-01 00:51:02.68	319.37	41.69	-37.5	-38.3	24.6	0.00e+00	92	38	0	973078528	48	5909
2026-01-01 00:51:06.72	320.20	40.70	-37.2	-38.1	24.5	0.00e+00	92	37	0	981467136	46	6473
2026-01-01 00:51:10.75	320.98	39.74	-38.8	-39.8	23.2	0.00e+00	0	37	0	988807168	50	6284
2026-01-01 00:51:14.78	321.72	38.79	-36.5	-37.2	25.6	0.00e+00	81	37	0	996147200	46	5857
2026-01-01 00:51:18.82	322.43	37.87	-39.2	-40.2	22.8	0.00e+00	92	37	0	1003487232	50	6613
2026-01-01 00:51:22.85	323.09	36.96	-38.1	-38.9	23.8	0.00e+00	92	37	0	1011875840	50	5694
2026-01-01 00:51:26.89	323.72	36.08	-38.1	-38.9	24.0	0.00e+00	0	38	0	1019215872	48	6366
2026-01-01 00:51:30.92	324.32	35.22	-39.9	-41.0	22.2	0.00e+00	0	37	0	1026555904	52	6435
2026-01-01 00:51:34.96	324.88	34.37	-38.4	-39.3	23.6	0.00e+00	90	37	0	1033895936	50	5925
2026-01-01 00:51:39.00	325.43	33.55	-38.2	-39.1	23.8	0.00e+00	90	37	0	1041235968	50	5766
2026-01-01 00:51:43.04	325.94	32.74	-39.5	-40.5	22.5	0.00e+00	83	37	0	1049624576	50	6796
2026-01-01 00:51:47.08	326.43	31.96	-39.6	-40.6	22.4	0.00e+00	0	37	0	1056964608	52	6169
2026-01-01 00:51:51.12	326.90	31.19	-40.7	-41.9	21.2	0.00e+00	90	38	0	1064304640	52	7165
2026-01-01 00:51:55.15	327.35	30.44	-40.5	-41.7	21.4	0.00e+00	92	38	0	1071644672	54	6205
2026-01-01 00:51:59.19	327.78	29.71	-39.4	-40.4	22.6	0.00e+00	82	38	0	1080033280	52	6012
2026-01-01 00:52:03.23	328.19	28.99	-39.5	-40.5	22.5	0.00e+00	0	38	0	1087373312	52	6094
2026-01-01 00:52:07.27	328.58	28.29	-39.5	-40.5	22.6	0.00e+00	90	38	0	1094713344	52	6065
2026-01-01 00:52:11.31	328.96	27.61	-39.5	-40.5	22.5	0.00e+00	0	38	0	1102053376	52	6063
2026-01-01 00:52:15.34	329.32	26.94	-38.9	-39.9	23.1	0.00e+00	0	38	0	1109393408	52	5644
2026-01-01 00:52:19.38	329.67	26.29	-38.4	-39.3	23.5	0.00e+00	0	38	0	1117782016	50	5963
2026-01-01 00:52:23.42	330.01	25.65	-38.2	-39.1	23.7	0.00e+00	92	38	0	1125122048	50	5801
2026-01-01 00:52:27.45	330.33	25.03	-38.7	-39.6	23.2	0.00e+00	0	38	0	1132462080	50	6162
2026-01-01 00:52:31.48	330.64	24.42	-39.0	-40.0	23.0	0.00e+00	6	38	0	1139802112	50	6397
2026-01-01 00:52:35.52	330.95	23.82	-38.3	-39.3	23.5	0.00e+00	90	38	0	1148190720	50	5904
2026-01-01 00:52:39.56	331.24	23.24	-37.4	-38.3	24.4	0.00e+00	15	38	0	1155530752	48	5909
2026-01-01 00:52:43.59	331.52	22.66	-37.0	-37.8	24.8	0.00e+00	0	38	0	1162870784	48	5624
2026-01-01 00:52:47.63	331.79	22.10	-37.1	-37.9	24.7	0.00e+00	6	38	0	1170210816	48	5652
2026-01-01 00:52:51.67	332.05	21.56	-37.6	-38.4	24.2	0.00e+00	92	37	0	1177550848	48	5995
2026-01-01 00:52:55.71	332.30	21.02	-37.9	-38.8	23.9	0.00e+00	6	38	0	1185939456	48	6273
2026-01-01 00:52:59.74	332.55	20.49	-37.9	-38.8	23.8	0.00e+00	0	37	0	1193279488	48	6301
2026-01-01 00:53:03.78	332.79	19.98	-37.6	-38.4	24.1	0.00e+00	0	38	0	1200619520	48	6031
2026-01-01 00:53:07.81	333.02	19.47	-37.3	-38.2	24.4	0.00e+00	92	38	0	1207959552	48	5855
2026-01-01 00:53:11.84	333.24	18.98	-37.2	-38.1	24.5	0.00e+00	1	38	0	1215299584	48	5772
2026-01-01 00:53:15.88	333.46	18.49	-37.6	-38.4	24.3	0.00e+00	0	38	0	1223688192	48	6028
2026-01-01 00:53:19.92	333.67	18.01	-37.8	-38.7	24.0	0.00e+00	0	37	0	1231028224	48	6177
2026-01-01 00:53:23.96	333.88	17.54	-37.9	-38.8	23.8	0.00e+00	92	38	0	1238368256	48	6294
2026-01-01 00:53:28.00	334.08	17.08	-38.1	-39.0	23.7	0.00e+00	0	38	0	1245708288	48	6403
2026-01-01 00:53:32.04	334.27	16.63	-38.2	-39.1	23.7	0.00e+00	2	38	0	1254096896	48	6472
2026-01-01 00:53:36.08	334.46	16.18	-38.2	-39.2	23.5	0.00e+00	1	38	0	1261436928	48	6545
2026-01-01 00:53:40.11	334.64	15.75	-38.2	-39.1	23.5	0.00e+00	92	38	0	1268776960	48	6496
2026-01-01 00:53:44.15	334.82	15.32	-38.2	-39.1	23.4	0.00e+00	0	38	0	1276116992	48	6537
2026-01-01 00:53:48.19	335.00	14.90	-38.4	-39.4	23.2	0.00e+00	0	38	0	1283457024	48	6714
2026-01-01 00:53:52.23	335.17	14.48	-38.6	-39.6	23.1	0.00e+00	65	37	0	1291845632	48	6852
2026-01-01 00:53:56.27	335.33	14.07	-38.9	-39.9	22.8	0.00e+00	92	37	0	1299185664	50	6338
2026-01-01 00:54:00.31	335.50	13.67	-39.1	-40.1	22.6	0.00e+00	0	38	0	1306525696	50	6495
2026-01-01 00:54:04.35	335.66	13.28	-39.2	-40.2	22.4	0.00e+00	0	38	0	1313865728	50	6606
2026-01-01 00:54:08.39	335.81	12.89	-39.4	-40.4	22.2	0.00e+00	72	38	0	1322254336	50	6761
2026-01-01 00:54:12.43	335.96	12.50	-39.5	-40.6	22.0	0.00e+00	91	38	0	1329594368	50	6910
2026-01-01 00:54:16.47	336.11	12.13	-39.6	-40.6	22.1	0.00e+00	4	38	0	1336934400	52	6167
2026-01-01 00:54:20.51	336.26	11.76	-39.6	-40.7	22.0	0.00e+00	5	38	0	1344274432	52	6206
2026-01-01 00:54:24.55	336.40	11.39	-39.7	-40.8	21.9	0.00e+00	86	38	0	1351614464	52	6275
2026-01-01 00:54:28.58	336.53	11.03	-39.6	-40.7	21.9	0.00e+00	21	38	0	1360003072	52	6232
2026-01-01 00:54:32.62	336.67	10.67	-39.6	-40.7	21.9	0.00e+00	14	38	0	1367343104	52	6216
2026-01-01 00:54:36.66	336.80	10.32	-39.5	-40.6	22.0	0.00e+00	69	38	0	1374683136	52	6107
2026-01-01 00:54:40.70	336.93	9.98	-39.6	-40.6	21.9	0.00e+00	92	38	0	1382023168	52	6172
2026-01-01 00:54:44.74	337.06	9.64	-39.6	-40.8	21.8	0.00e+00	0	38	0	1390411776	52	6252
2026-01-01 00:54:48.78	337.19	9.30	-39.5	-40.6	22.0	0.00e+00	0	37	0	1397751808	52	6126
2026-01-01 00:54:52.82	337.31	8.97	-39.4	-40.5	22.0	0.00e+00	77	38	0	1405091840	52	6078
2026-01-01 00:54:56.85	337.43	8.64	-39.4	-40.5	21.9	0.00e+00	92	38	0	1412431872	52	6044
2026-01-01 00:55:00.89	337.55	8.32	-39.3	-40.4	22.0	0.00e+00	0	38	0	1419771904	52	5986
2026-01-01 00:55:04.93	337.66	8.00	-39.5	-40.6	21.8	0.00e+00	0	38	0	1428160512	52	6143
2026-01-01 00:55:08.96	337.78	7.68	-39.4	-40.5	21.9	0.00e+00	64	37	0	1435500544	52	6040
2026-01-01 00:55:13.00	337.89	7.37	-39.7	-40.9	21.5	0.00e+00	90	38	0	1442840576	52	6318
2026-01-01 00:55:17.04	338.00	7.06	-39.5	-40.7	21.6	0.00e+00	8	37	0	1450180608	52	6176
2026-01-01 00:55:21.08	338.11	6.76	-39.7	-40.8	21.4	0.00e+00	2	38	0	1458569216	52	6284
2026-01-01 00:55:25.12	338.21	6.45	-39.6	-40.8	21.5	0.00e+00	0	38	0	1465909248	52	6263
2026-01-01 00:55:29.15	338.32	6.16	-39.6	-40.8	21.3	0.00e+00	92	38	0	1473249280	52	6275
2026-01-01 00:55:33.19	338.42	5.86	-39.9	-41.1	21.1	0.00e+00	69	38	0	1480589312	52	6498
2026-01-01 00:55:37.23	338.52	5.57	-40.3	-41.6	20.2	0.00e+00	69	38	0	1487929344	52	6908
2026-01-01 00:55:41.26	338.62	5.28	-41.1	-42.7	18.7	0.00e+00	0	38	0	1496317952	54	6995
2026-01-01 00:55:45.30	338.72	5.00	-42.5	-44.9	16.3	0.00e+00	91	38	0	1503657984	56	7959
2026-01-01 00:55:49.34	338.81	4.72	-43.4	-47.0	13.1	5.30e-06	0	38	0	1510998016	58	9117
2026-01-01 00:55:53.38	338.91	4.44	-44.1	-49.8	9.3	1.07e-02	71	38	0	1518338048	60	11191
2026-01-01 00:55:57.41	339.00	4.16	-44.4	-52.8	5.3	3.82e-01	2	38	0	1525678080	60	15850
2026-01-01 00:56:01.45	339.09	3.89	-44.5	-57.1	3.9	1.45e+00	0	38	104	1530920960	60	25842
2026-01-01 00:56:05.49	339.18	3.62	-44.4	-58.9	3.6	1.51e+00	0	38	104	1530920960	60	31915
2026-01-01 00:56:09.52	339.27	3.35	-44.4	-59.6	3.6	1.51e+00	0	38	104	1530920960	60	34484
2026-01-01 00:56:13.56	339.36	3.08	-44.4	-59.7	3.6	1.51e+00	0	38	104	1530920960	60	34946
2026-01-01 00:56:17.60	339.45	2.82	-49.0	-64.2	3.6	1.51e+00	0	38	104	1530920960	60	58562
2026-01-01 00:56:21.64	339.53	2.56	-49.3	-64.5	3.6	1.51e+00	0	38	104	1530920960	60	60822
2026-01-01 00:56:25.68	339.62	2.30	-49.3	-64.5	3.6	1.51e+00	0	38	104	1530920960	60	60728
2026-01-01 00:56:29.72	339.70	2.05	-49.4	-64.6	3.6	1.51e+00	0	38	104	1530920960	60	61049
2026-01-01 00:56:33.76	339.78	1.79	-49.2	-64.5	3.6	1.51e+00	0	38	104	1530920960	60	60502
2026-01-01 00:56:37.80	339.86	1.54	-49.2	-64.4	3.6	1.51e+00	0	38	104	1530920960	60	59924
2026-01-01 00:56:41.83	339.94	1.29	-49.2	-64.4	3.6	1.51e+00	0	38	104	1530920960	60	59958
2026-01-01 00:56:45.87	340.02	1.04	-49.2	-64.4	3.6	1.51e+00	0	38	104	1530920960	60	59949
2026-01-01 00:56:49.91	340.10	0.80	-49.2	-64.4	3.6	1.51e+00	0	38	104	1530920960	60	60018
2026-01-01 00:56:53.95	340.18	0.55	-49.2	-64.4	3.6	1.51e+00	0	38	104	1530920960	60	60208
2026-01-01 00:56:57.99	340.25	0.31	-49.2	-64.4	3.6	1.51e+00	0	38	104	1530920960	60	59796
2026-01-01 00:57:02.03	340.33	0.07	-49.2	-64.4	3.6	1.51e+00	0	38	104	1530920960	60	60113

#Closed at: 2026-01-01 00:57:04
#Recorded file [1530 MB]: D:/lorett/data/35029_260101_124133.dat