passes_logs/2026/01/01/R4.6S_Anadyr/R4.6S_Anadyr__20260101_030242_FENGYUN_3D_rec.log

#Pass ID: 20260101_030242_FENGYUN 3D
#Satellite: FENGYUN 3D
#Configuration: FENGYUN 3D
#almurnet v.1.7.20251203
#Start time: 2026-01-01 03:02:43

#Version: 2.2.20231116
#Station: R4.6S_Anadyr
#Location: 177.4865 lon 64.73178 lat
#TLE: 1 43010U 17072A   25364.99193771  .00000012  00000+0  27255-4 0  9998
#TLE: 2 43010  98.9913 331.5779 0001825 135.6238 224.5084 14.19689358421127

#Time	Az	El	Level	Level2	SNR	BER	BlckErr	Temp	State	Recorded	gain1	gain2
2026-01-01 03:02:43.16	176.62	0.06	-49.6	-51.1	5.7	7.63e-01	0	35	0	0	60	44129
2026-01-01 03:02:47.20	176.74	0.30	-49.4	-61.5	3.6	8.46e-01	0	36	104	0	60	42883
2026-01-01 03:02:51.23	176.85	0.54	-49.5	-61.6	3.6	8.46e-01	0	37	104	0	60	43345
2026-01-01 03:02:55.27	176.97	0.78	-49.4	-61.6	3.6	8.46e-01	0	37	104	0	60	43355
2026-01-01 03:02:59.31	177.09	1.02	-49.2	-61.3	3.6	8.44e-01	0	37	104	0	60	42212
2026-01-01 03:03:03.35	177.21	1.27	-48.1	-60.2	3.6	8.46e-01	0	37	104	0	60	37071
2026-01-01 03:03:07.38	177.33	1.52	-48.1	-60.2	3.6	8.46e-01	0	37	104	0	60	36963
2026-01-01 03:03:11.42	177.46	1.77	-48.1	-60.1	3.6	8.45e-01	0	37	104	0	60	36367
2026-01-01 03:03:15.46	177.59	2.02	-48.1	-60.1	3.6	8.47e-01	0	37	104	0	60	36773
2026-01-01 03:03:19.50	177.71	2.27	-48.1	-59.9	3.6	8.46e-01	0	37	104	0	60	35856
2026-01-01 03:03:23.53	177.84	2.53	-48.0	-58.7	3.6	8.44e-01	0	37	104	0	60	31218
2026-01-01 03:03:27.57	177.98	2.79	-47.7	-55.1	3.9	8.28e-01	0	37	0	0	60	20559
2026-01-01 03:03:31.61	178.11	3.05	-46.6	-50.9	7.6	3.38e-01	0	37	0	2097152	60	12624
2026-01-01 03:03:35.65	178.25	3.31	-39.7	-40.9	18.4	0.00e+00	0	37	0	25165824	54	5635
2026-01-01 03:03:39.69	178.39	3.58	-37.3	-38.2	20.9	0.00e+00	0	37	0	48234496	48	5855
2026-01-01 03:03:43.72	178.53	3.85	-36.9	-37.8	20.2	0.00e+00	0	37	0	70254592	48	5602
2026-01-01 03:03:47.76	178.67	4.12	-40.5	-41.8	17.5	0.00e+00	0	37	0	93323264	54	6288
2026-01-01 03:03:51.81	178.82	4.39	-39.0	-40.0	18.4	0.00e+00	0	37	0	115343360	52	5730
2026-01-01 03:03:55.85	178.97	4.67	-38.8	-39.8	19.2	0.00e+00	0	37	0	138412032	50	6299
2026-01-01 03:03:59.88	179.12	4.94	-38.1	-39.0	20.5	0.00e+00	0	37	0	161480704	48	6398
2026-01-01 03:04:03.92	179.27	5.23	-38.0	-38.9	20.6	0.00e+00	0	37	0	183500800	48	6337
2026-01-01 03:04:07.96	179.43	5.51	-38.0	-38.9	20.3	0.00e+00	0	37	0	206569472	48	6369
2026-01-01 03:04:12.00	179.59	5.80	-37.2	-38.0	21.4	0.00e+00	0	37	0	229638144	48	5748
2026-01-01 03:04:16.04	179.75	6.09	-36.2	-37.0	22.6	0.00e+00	0	38	0	251658240	46	5706
2026-01-01 03:04:20.08	179.92	6.38	-35.7	-36.5	23.0	0.00e+00	0	37	0	274726912	44	6058
2026-01-01 03:04:24.12	180.09	6.68	-35.2	-35.9	23.4	0.00e+00	0	38	0	297795584	44	5653
2026-01-01 03:04:28.15	180.26	6.98	-35.2	-35.9	23.5	0.00e+00	0	37	0	319815680	44	5662
2026-01-01 03:04:32.19	180.43	7.28	-35.2	-35.9	23.4	0.00e+00	0	37	0	342884352	44	5695
2026-01-01 03:04:36.23	180.61	7.59	-35.0	-35.7	23.7	0.00e+00	0	37	0	365953024	44	5548
2026-01-01 03:04:40.26	180.79	7.90	-35.4	-36.1	23.4	0.00e+00	0	37	0	387973120	44	5815
2026-01-01 03:04:44.30	180.98	8.21	-35.1	-35.8	23.6	0.00e+00	0	37	0	411041792	44	5600
2026-01-01 03:04:48.34	181.17	8.53	-35.1	-35.9	23.6	0.00e+00	0	37	0	434110464	44	5643
2026-01-01 03:04:52.38	181.36	8.85	-34.9	-35.7	23.8	0.00e+00	0	37	0	456130560	44	5503
2026-01-01 03:04:56.42	181.56	9.17	-34.7	-35.4	24.2	0.00e+00	0	37	0	479199232	42	5976
2026-01-01 03:05:00.46	181.76	9.50	-34.5	-35.2	24.2	0.00e+00	0	37	0	502267904	42	5880
2026-01-01 03:05:04.49	181.96	9.84	-34.6	-35.3	24.3	0.00e+00	0	37	0	524288000	42	5927
2026-01-01 03:05:08.54	182.18	10.17	-34.2	-34.8	24.7	0.00e+00	0	37	0	547356672	42	5622
2026-01-01 03:05:12.57	182.39	10.52	-34.2	-34.9	24.7	0.00e+00	0	38	0	569376768	42	5645
2026-01-01 03:05:16.61	182.61	10.86	-34.2	-34.8	24.7	0.00e+00	0	38	0	592445440	42	5623
2026-01-01 03:05:20.64	182.83	11.21	-34.3	-35.0	24.6	0.00e+00	0	38	0	615514112	42	5708
2026-01-01 03:05:24.68	183.06	11.57	-34.1	-34.8	24.8	0.00e+00	0	37	0	638582784	42	5587
2026-01-01 03:05:28.72	183.30	11.93	-34.0	-34.7	24.9	0.00e+00	0	38	0	660602880	42	5556
2026-01-01 03:05:32.76	183.54	12.29	-33.9	-34.6	25.0	0.00e+00	0	38	0	683671552	42	5472
2026-01-01 03:05:36.80	183.78	12.67	-33.9	-34.6	25.1	0.00e+00	0	38	0	706740224	42	5440
2026-01-01 03:05:40.84	184.04	13.04	-33.6	-34.3	25.3	0.00e+00	0	38	0	728760320	40	5899
2026-01-01 03:05:44.88	184.30	13.42	-33.6	-34.2	25.3	0.00e+00	0	38	0	751828992	40	5896
2026-01-01 03:05:48.92	184.56	13.81	-33.5	-34.2	25.3	0.00e+00	0	38	0	773849088	40	5871
2026-01-01 03:05:52.96	184.83	14.20	-33.4	-34.1	25.5	0.00e+00	0	38	0	796917760	40	5784
2026-01-01 03:05:57.00	185.11	14.60	-33.2	-33.8	25.7	0.00e+00	0	38	0	819986432	40	5630
2026-01-01 03:06:01.04	185.39	15.01	-33.0	-33.6	25.8	0.00e+00	0	38	0	843055104	40	5487
2026-01-01 03:06:05.07	185.69	15.42	-32.9	-33.5	26.0	0.00e+00	0	38	0	865075200	40	5428
2026-01-01 03:06:09.11	185.99	15.83	-32.8	-33.5	26.0	0.00e+00	0	38	0	888143872	40	5398
2026-01-01 03:06:13.15	186.30	16.26	-32.9	-33.5	26.0	0.00e+00	0	38	0	911212544	38	6094
2026-01-01 03:06:17.19	186.61	16.69	-32.9	-33.5	26.0	0.00e+00	0	38	0	933232640	38	6054
2026-01-01 03:06:21.23	186.94	17.13	-32.7	-33.4	26.2	0.00e+00	0	38	0	956301312	38	5986
2026-01-01 03:06:25.27	187.27	17.57	-32.5	-33.1	26.4	0.00e+00	0	38	0	978321408	38	5791
2026-01-01 03:06:29.31	187.62	18.02	-32.4	-33.0	26.5	0.00e+00	0	38	0	1001390080	38	5743
2026-01-01 03:06:33.35	187.97	18.48	-32.1	-32.7	26.8	0.00e+00	0	38	0	1024458752	38	5524
2026-01-01 03:06:37.39	188.34	18.95	-32.2	-32.8	26.7	0.00e+00	0	38	0	1047527424	38	5600
2026-01-01 03:06:41.43	188.72	19.42	-32.4	-33.0	26.5	0.00e+00	0	38	0	1069547520	38	5730
2026-01-01 03:06:45.46	189.10	19.91	-32.0	-32.7	26.7	0.00e+00	0	38	0	1092616192	38	5516
2026-01-01 03:06:49.49	189.50	20.40	-31.8	-32.4	26.9	0.00e+00	0	38	0	1115684864	36	6007
2026-01-01 03:06:53.53	189.91	20.90	-31.5	-32.1	27.3	0.00e+00	0	38	0	1137704960	36	5808
2026-01-01 03:06:57.57	190.34	21.40	-31.3	-31.9	27.4	0.00e+00	0	38	0	1160773632	36	5692
2026-01-01 03:07:01.61	190.78	21.92	-31.4	-32.0	27.3	0.00e+00	0	38	0	1182793728	36	5748
2026-01-01 03:07:05.65	191.23	22.45	-31.5	-32.1	27.3	0.00e+00	0	38	0	1205862400	36	5820
2026-01-01 03:07:09.69	191.70	22.98	-31.5	-32.1	27.3	0.00e+00	0	38	0	1228931072	36	5795
2026-01-01 03:07:13.72	192.18	23.53	-31.2	-31.9	27.5	0.00e+00	0	38	0	1251999744	36	5647
2026-01-01 03:07:17.76	192.69	24.08	-31.2	-31.9	27.5	0.00e+00	0	38	0	1274019840	36	5636
2026-01-01 03:07:21.80	193.20	24.64	-31.0	-31.6	27.7	0.00e+00	0	38	0	1297088512	36	5489
2026-01-01 03:07:25.84	193.74	25.22	-31.0	-31.6	27.8	0.00e+00	0	38	0	1320157184	36	5495
2026-01-01 03:07:29.88	194.30	25.80	-31.4	-32.0	27.5	0.00e+00	0	38	0	1342177280	36	5751
2026-01-01 03:07:33.92	194.88	26.39	-31.3	-31.9	27.4	0.00e+00	0	38	0	1365245952	36	5692
2026-01-01 03:07:37.96	195.47	27.00	-31.3	-31.9	27.4	0.00e+00	0	38	0	1387266048	36	5667
2026-01-01 03:07:42.00	196.09	27.61	-31.8	-32.5	26.9	0.00e+00	0	38	0	1410334720	36	6055
2026-01-01 03:07:46.04	196.74	28.24	-31.9	-32.5	27.2	0.00e+00	0	38	0	1433403392	36	6089
2026-01-01 03:07:50.08	197.41	28.87	-30.5	-31.1	28.2	0.00e+00	0	38	0	1456472064	34	5782
2026-01-01 03:07:54.12	198.11	29.52	-30.9	-31.5	27.8	0.00e+00	0	38	0	1478492160	34	6095
2026-01-01 03:07:58.17	198.83	30.18	-30.8	-31.5	27.8	0.00e+00	0	38	0	1501560832	34	6039
2026-01-01 03:08:02.21	199.59	30.84	-30.5	-31.2	28.1	0.00e+00	0	38	0	1524629504	34	5835
2026-01-01 03:08:06.25	200.37	31.52	-30.7	-31.3	27.9	0.00e+00	0	38	0	1546649600	34	5935
2026-01-01 03:08:10.29	201.19	32.20	-30.5	-31.2	28.0	0.00e+00	0	38	0	1569718272	34	5833
2026-01-01 03:08:14.33	202.04	32.90	-30.4	-31.0	28.2	0.00e+00	0	38	0	1592786944	34	5709
2026-01-01 03:08:18.37	202.93	33.60	-30.6	-31.2	28.1	0.00e+00	0	38	0	1614807040	34	5835
2026-01-01 03:08:22.41	203.86	34.32	-30.2	-30.8	28.3	0.00e+00	0	38	0	1637875712	34	5591
2026-01-01 03:08:26.45	204.83	35.04	-30.1	-30.7	28.5	0.00e+00	0	38	0	1660944384	34	5538
2026-01-01 03:08:30.49	205.84	35.76	-30.1	-30.6	28.4	0.00e+00	0	38	0	1682964480	34	5497
2026-01-01 03:08:34.53	206.90	36.50	-29.8	-30.4	28.7	0.00e+00	0	38	0	1706033152	34	5351
2026-01-01 03:08:38.57	208.00	37.24	-30.1	-30.7	28.3	0.00e+00	0	38	0	1729101824	34	5536
2026-01-01 03:08:42.61	209.16	37.98	-30.1	-30.6	28.5	0.00e+00	0	38	0	1751121920	34	5501
2026-01-01 03:08:46.65	210.37	38.73	-30.1	-30.7	28.3	0.00e+00	0	38	0	1774190592	34	5519
2026-01-01 03:08:50.69	211.63	39.48	-30.3	-30.9	28.3	0.00e+00	0	38	0	1797259264	34	5651
2026-01-01 03:08:54.72	212.95	40.23	-30.2	-30.8	28.4	0.00e+00	0	38	0	1819279360	34	5582
2026-01-01 03:08:58.76	214.34	40.98	-30.5	-31.1	28.1	0.00e+00	0	38	0	1842348032	34	5774
2026-01-01 03:09:02.80	215.79	41.72	-30.2	-30.7	28.4	0.00e+00	0	38	0	1865416704	34	5565
2026-01-01 03:09:06.84	217.31	42.46	-30.4	-31.0	28.1	0.00e+00	0	38	0	1887436800	34	5742
2026-01-01 03:09:10.88	218.89	43.19	-30.4	-31.0	28.2	0.00e+00	0	38	0	1910505472	34	5720
2026-01-01 03:09:14.91	220.55	43.91	-30.3	-30.9	28.3	0.00e+00	0	38	0	1933574144	34	5685
2026-01-01 03:09:18.95	222.28	44.61	-30.9	-31.5	27.8	0.00e+00	0	38	0	1955594240	34	6057
2026-01-01 03:09:23.00	224.10	45.30	-30.4	-31.0	28.3	0.00e+00	0	38	0	1978662912	34	5731
2026-01-01 03:09:27.04	225.98	45.97	-30.7	-31.4	28.0	0.00e+00	0	38	0	2001731584	34	5981
2026-01-01 03:09:31.07	227.95	46.61	-30.4	-31.0	28.2	0.00e+00	0	38	0	2023751680	34	5713
2026-01-01 03:09:35.11	229.99	47.22	-30.7	-31.2	28.0	0.00e+00	0	38	0	2046820352	34	5872
2026-01-01 03:09:39.15	232.12	47.81	-30.8	-31.4	27.9	0.00e+00	0	38	0	2069889024	34	6026
2026-01-01 03:09:43.19	234.32	48.35	-30.4	-31.0	28.2	0.00e+00	0	38	0	2091909120	34	5735
2026-01-01 03:09:47.23	236.60	48.86	-31.0	-31.7	27.7	0.00e+00	0	38	0	2114977792	34	6177
2026-01-01 03:09:51.27	238.95	49.32	-30.6	-31.3	28.1	0.00e+00	0	38	0	2138046464	34	5899
2026-01-01 03:09:55.31	241.37	49.74	-31.1	-31.7	27.8	0.00e+00	0	38	0	2160066560	34	6183
2026-01-01 03:09:59.35	243.85	50.10	-30.9	-31.5	27.9	0.00e+00	0	38	0	2183135232	34	6091
2026-01-01 03:10:03.39	246.39	50.41	-30.9	-31.5	27.8	0.00e+00	0	38	0	2206203904	34	6084
2026-01-01 03:10:07.42	248.96	50.66	-30.5	-31.1	28.1	0.00e+00	0	38	0	2228224000	34	5797
2026-01-01 03:10:11.45	251.57	50.85	-30.5	-31.1	28.2	0.00e+00	0	38	0	2251292672	34	5765
2026-01-01 03:10:15.49	254.22	50.98	-31.2	-31.8	27.7	0.00e+00	0	38	0	2274361344	34	6261
2026-01-01 03:10:19.53	256.88	51.04	-30.7	-31.3	28.1	0.00e+00	0	38	0	2296381440	34	5910
2026-01-01 03:10:23.57	259.55	51.05	-30.8	-31.4	28.0	0.00e+00	0	38	0	2319450112	34	6008
2026-01-01 03:10:27.60	262.21	50.99	-31.1	-31.7	27.6	0.00e+00	0	37	0	2342518784	34	6210
2026-01-01 03:10:31.65	264.87	50.86	-30.6	-31.1	28.1	0.00e+00	0	37	0	2364538880	34	5814
2026-01-01 03:10:35.69	267.49	50.67	-30.6	-31.2	28.1	0.00e+00	0	38	0	2387607552	34	5861
2026-01-01 03:10:39.73	270.07	50.43	-30.8	-31.4	28.0	0.00e+00	0	38	0	2410676224	34	6030
2026-01-01 03:10:43.77	272.61	50.12	-31.2	-31.8	27.6	0.00e+00	0	38	0	2432696320	34	6305
2026-01-01 03:10:47.81	275.09	49.76	-30.5	-31.1	28.1	0.00e+00	0	38	0	2455764992	34	5828
2026-01-01 03:10:51.85	277.51	49.35	-31.2	-31.8	27.6	0.00e+00	0	38	0	2478833664	34	6304
2026-01-01 03:10:55.89	279.86	48.89	-30.7	-31.3	28.0	0.00e+00	0	38	0	2500853760	34	5957
2026-01-01 03:10:59.93	282.14	48.39	-30.9	-31.5	27.7	0.00e+00	0	38	0	2523922432	34	6047
2026-01-01 03:11:03.97	284.34	47.85	-31.4	-32.0	27.5	0.00e+00	0	38	0	2546991104	34	6407
2026-01-01 03:11:08.01	286.47	47.27	-30.4	-31.1	28.2	0.00e+00	0	38	0	2569011200	34	5786
2026-01-01 03:11:12.05	288.52	46.66	-30.7	-31.2	27.9	0.00e+00	0	38	0	2592079872	34	5885
2026-01-01 03:11:16.09	290.49	46.02	-31.0	-31.5	27.8	0.00e+00	0	38	0	2615148544	34	6068
2026-01-01 03:11:20.13	292.38	45.36	-30.7	-31.3	28.0	0.00e+00	0	38	0	2637168640	34	5964
2026-01-01 03:11:24.16	294.19	44.68	-30.9	-31.6	27.8	0.00e+00	0	38	0	2660237312	34	6152
2026-01-01 03:11:28.20	295.92	43.98	-30.9	-31.6	27.9	0.00e+00	0	38	0	2683305984	34	6112
2026-01-01 03:11:32.24	297.58	43.26	-30.8	-31.5	28.0	0.00e+00	0	38	0	2705326080	34	6035
2026-01-01 03:11:36.28	299.17	42.54	-30.5	-31.0	28.1	0.00e+00	0	38	0	2728394752	34	5747
2026-01-01 03:11:40.32	300.69	41.80	-30.9	-31.5	27.9	0.00e+00	0	38	0	2751463424	34	6059
2026-01-01 03:11:44.36	302.14	41.06	-30.5	-31.2	28.1	0.00e+00	0	38	0	2773483520	34	5871
2026-01-01 03:11:48.40	303.53	40.31	-30.3	-30.8	28.2	0.00e+00	0	37	0	2796552192	34	5596
2026-01-01 03:11:52.43	304.85	39.57	-30.1	-30.7	28.0	0.00e+00	0	37	0	2819620864	34	5507
2026-01-01 03:11:56.47	306.12	38.82	-30.2	-30.8	28.2	0.00e+00	0	38	0	2841640960	34	5576
2026-01-01 03:12:00.51	307.33	38.08	-30.3	-31.0	28.1	0.00e+00	0	38	0	2864709632	34	5759
2026-01-01 03:12:04.55	308.49	37.34	-30.1	-30.7	28.3	0.00e+00	0	38	0	2887778304	34	5552
2026-01-01 03:12:08.58	309.60	36.60	-30.2	-30.8	28.1	0.00e+00	0	37	0	2909798400	34	5584
2026-01-01 03:12:12.62	310.65	35.87	-30.4	-31.0	28.2	0.00e+00	0	38	0	2932867072	34	5719
2026-01-01 03:12:16.66	311.67	35.14	-30.4	-30.9	28.2	0.00e+00	0	38	0	2955935744	34	5686
2026-01-01 03:12:20.70	312.64	34.43	-30.1	-30.7	28.4	0.00e+00	0	38	0	2977955840	34	5551
2026-01-01 03:12:24.74	313.57	33.72	-30.5	-31.1	28.0	0.00e+00	0	37	0	3001024512	34	5767
2026-01-01 03:12:28.78	314.46	33.01	-30.5	-31.2	28.1	0.00e+00	0	38	0	3024093184	34	5881
2026-01-01 03:12:32.82	315.32	32.32	-30.7	-31.2	27.9	0.00e+00	0	37	0	3046113280	34	5887
2026-01-01 03:12:36.86	316.14	31.64	-30.6	-31.3	28.0	0.00e+00	0	37	0	3069181952	34	5902
2026-01-01 03:12:40.89	316.92	30.97	-30.6	-31.2	28.0	0.00e+00	0	38	0	3092250624	34	5832
2026-01-01 03:12:44.93	317.68	30.30	-30.8	-31.4	27.8	0.00e+00	0	38	0	3114270720	34	5980
2026-01-01 03:12:48.97	318.40	29.65	-31.0	-31.5	27.7	0.00e+00	0	38	0	3137339392	34	6073
2026-01-01 03:12:53.01	319.10	29.00	-30.6	-31.2	27.9	0.00e+00	0	37	0	3160408064	34	5849
2026-01-01 03:12:57.05	319.77	28.37	-30.7	-31.3	27.9	0.00e+00	0	38	0	3182428160	34	5923
2026-01-01 03:13:01.08	320.42	27.75	-30.5	-31.0	28.1	0.00e+00	0	38	0	3205496832	34	5759
2026-01-01 03:13:05.12	321.04	27.14	-30.9	-31.4	27.7	0.00e+00	0	37	0	3228565504	34	5999
2026-01-01 03:13:09.16	321.64	26.54	-30.9	-31.7	27.6	0.00e+00	0	38	0	3250585600	34	6193
2026-01-01 03:13:13.20	322.22	25.94	-30.9	-31.5	27.6	0.00e+00	0	38	0	3273654272	34	6102
2026-01-01 03:13:17.24	322.78	25.36	-31.0	-31.5	27.7	0.00e+00	0	37	0	3296722944	34	6068
2026-01-01 03:13:21.28	323.32	24.79	-30.9	-31.4	27.7	0.00e+00	0	37	0	3318743040	34	6021
2026-01-01 03:13:25.32	323.84	24.23	-31.1	-31.6	27.6	0.00e+00	0	38	0	3341811712	34	6141
2026-01-01 03:13:29.36	324.35	23.67	-31.4	-31.9	27.3	0.00e+00	0	37	0	3363831808	34	6378
2026-01-01 03:13:33.40	324.83	23.13	-31.5	-32.1	27.2	0.00e+00	0	37	0	3386900480	34	6500
2026-01-01 03:13:37.44	325.30	22.60	-31.9	-32.5	26.9	0.00e+00	0	38	0	3409969152	36	6077
2026-01-01 03:13:41.47	325.76	22.07	-31.8	-32.4	27.0	0.00e+00	0	37	0	3433037824	36	5981
2026-01-01 03:13:45.51	326.20	21.56	-31.9	-32.4	27.0	0.00e+00	0	37	0	3455057920	36	6028
2026-01-01 03:13:49.55	326.63	21.05	-32.0	-32.5	26.8	0.00e+00	0	37	0	3478126592	36	6083
2026-01-01 03:13:53.59	327.04	20.55	-32.1	-32.7	26.7	0.00e+00	0	37	0	3501195264	36	6199
2026-01-01 03:13:57.62	327.44	20.07	-32.1	-32.6	26.8	0.00e+00	0	37	0	3523215360	36	6159
2026-01-01 03:14:01.66	327.83	19.58	-32.4	-33.1	26.4	0.00e+00	0	38	0	3546284032	36	6518
2026-01-01 03:14:05.69	328.21	19.11	-32.4	-33.0	26.5	0.00e+00	0	38	0	3568304128	36	6432
2026-01-01 03:14:09.73	328.58	18.65	-32.6	-33.2	26.3	0.00e+00	0	38	0	3591372800	36	6545
2026-01-01 03:14:13.78	328.94	18.19	-32.7	-33.3	26.2	0.00e+00	0	38	0	3614441472	38	5941
2026-01-01 03:14:17.82	329.28	17.74	-32.9	-33.5	26.0	0.00e+00	0	38	0	3636461568	38	6075
2026-01-01 03:14:21.85	329.62	17.29	-33.2	-33.7	25.8	0.00e+00	0	37	0	3659530240	38	6244
2026-01-01 03:14:25.90	329.95	16.86	-33.4	-34.0	25.6	0.00e+00	0	38	0	3682598912	38	6399
2026-01-01 03:14:29.94	330.27	16.43	-33.2	-34.0	25.7	0.00e+00	0	38	0	3705667584	38	6392
2026-01-01 03:14:33.98	330.58	16.00	-33.3	-33.8	25.6	0.00e+00	0	38	0	3727687680	38	6317
2026-01-01 03:14:38.01	330.89	15.59	-33.5	-34.1	25.4	0.00e+00	0	38	0	3750756352	38	6539
2026-01-01 03:14:42.05	331.18	15.18	-33.5	-34.3	25.3	0.00e+00	0	38	0	3772776448	38	6634
2026-01-01 03:14:46.09	331.47	14.77	-33.6	-34.2	25.3	0.00e+00	0	37	0	3795845120	38	6595
2026-01-01 03:14:50.13	331.75	14.38	-34.0	-34.6	24.8	0.00e+00	0	37	0	3818913792	40	6156
2026-01-01 03:14:54.17	332.02	13.98	-33.9	-34.5	24.9	0.00e+00	0	38	0	3840933888	40	6086
2026-01-01 03:14:58.21	332.29	13.60	-34.0	-34.6	24.9	0.00e+00	0	38	0	3864002560	40	6128
2026-01-01 03:15:02.25	332.55	13.22	-34.2	-34.8	24.7	0.00e+00	0	38	0	3887071232	40	6280
2026-01-01 03:15:06.29	332.81	12.84	-34.4	-35.0	24.5	0.00e+00	0	37	0	3910139904	40	6411
2026-01-01 03:15:10.33	333.06	12.47	-34.4	-35.1	24.4	0.00e+00	0	38	0	3932160000	40	6470
2026-01-01 03:15:14.37	333.30	12.11	-34.4	-35.0	24.4	0.00e+00	0	38	0	3955228672	40	6444
2026-01-01 03:15:18.40	333.54	11.75	-34.4	-35.0	24.4	0.00e+00	0	38	0	3977248768	40	6439
2026-01-01 03:15:22.45	333.77	11.39	-34.5	-35.3	24.3	0.00e+00	0	37	0	4000317440	40	6624
2026-01-01 03:15:26.49	334.00	11.04	-34.6	-35.2	24.2	0.00e+00	0	38	0	4023386112	40	6593
2026-01-01 03:15:30.53	334.22	10.70	-34.8	-35.6	24.0	0.00e+00	0	38	0	4046454784	42	6136
2026-01-01 03:15:34.57	334.44	10.36	-34.6	-35.2	24.2	0.00e+00	0	38	0	4068474880	42	5881
2026-01-01 03:15:38.61	334.65	10.02	-34.7	-35.3	24.1	0.00e+00	0	38	0	4091543552	42	5945
2026-01-01 03:15:42.65	334.86	9.69	-34.9	-35.6	23.9	0.00e+00	0	37	0	4114612224	42	6163
2026-01-01 03:15:46.69	335.07	9.36	-34.8	-35.4	24.0	0.00e+00	0	38	0	4136632320	42	5994
2026-01-01 03:15:50.73	335.27	9.03	-35.1	-35.7	23.6	0.00e+00	0	38	0	4159700992	42	6234
2026-01-01 03:15:54.76	335.46	8.71	-34.8	-35.6	23.8	0.00e+00	0	38	0	4181721088	42	6141
2026-01-01 03:15:58.80	335.66	8.40	-35.1	-35.9	23.6	0.00e+00	0	38	0	4204789760	42	6320
2026-01-01 03:16:02.84	335.85	8.08	-35.3	-35.9	23.3	0.00e+00	0	38	0	4227858432	42	6383
2026-01-01 03:16:06.88	336.03	7.77	-35.4	-36.2	23.1	0.00e+00	0	38	0	4250927104	42	6600
2026-01-01 03:16:10.93	336.21	7.47	-35.4	-36.2	23.1	0.00e+00	0	38	0	4272947200	42	6603
2026-01-01 03:16:14.97	336.39	7.16	-35.6	-36.3	22.9	0.00e+00	0	38	0	4296015872	42	6660
2026-01-01 03:16:19.01	336.57	6.87	-35.5	-36.3	23.0	0.00e+00	0	38	0	4319084544	42	6653
2026-01-01 03:16:23.04	336.74	6.57	-35.6	-36.5	22.8	0.00e+00	0	38	0	4341104640	44	6044
2026-01-01 03:16:27.09	336.91	6.28	-35.5	-36.2	22.8	0.00e+00	0	38	0	4364173312	44	5831
2026-01-01 03:16:31.12	337.08	5.99	-35.9	-36.6	22.3	0.00e+00	0	37	0	4386193408	44	6144
2026-01-01 03:16:35.16	337.24	5.70	-36.6	-37.5	21.3	0.00e+00	0	38	0	4409262080	44	6779
2026-01-01 03:16:39.20	337.40	5.42	-37.3	-38.3	19.8	0.00e+00	0	38	0	4432330752	46	6640
2026-01-01 03:16:43.24	337.56	5.14	-38.7	-40.0	17.6	0.00e+00	0	38	0	4455399424	50	6393
2026-01-01 03:16:47.28	337.71	4.86	-40.4	-42.1	14.9	0.00e+00	0	38	0	4477419520	52	7259
2026-01-01 03:16:51.32	337.87	4.58	-41.8	-44.3	12.1	2.02e-04	0	38	0	4500488192	56	7451
2026-01-01 03:16:55.36	338.02	4.31	-43.1	-46.8	8.8	3.38e-02	0	38	0	4523556864	58	8896
2026-01-01 03:16:59.40	338.16	4.04	-44.0	-49.8	5.1	6.62e-01	0	38	0	4544528384	60	11210
2026-01-01 03:17:03.43	338.31	3.78	-44.3	-53.8	3.8	8.41e-01	0	38	104	4545576960	60	17650
2026-01-01 03:17:07.47	338.45	3.51	-44.4	-55.7	3.6	8.44e-01	0	38	104	4545576960	60	22014
2026-01-01 03:17:11.51	338.59	3.25	-44.4	-56.4	3.6	8.46e-01	0	38	104	4545576960	60	23831
2026-01-01 03:17:15.55	338.73	2.99	-44.5	-56.7	3.6	8.45e-01	0	38	104	4545576960	60	24606
2026-01-01 03:17:19.59	338.87	2.73	-49.2	-61.3	3.6	8.46e-01	0	38	104	4545576960	60	42003
2026-01-01 03:17:23.63	339.00	2.47	-49.4	-61.5	3.6	8.46e-01	0	38	104	4545576960	60	42971
2026-01-01 03:17:27.67	339.14	2.22	-49.3	-61.4	3.6	8.45e-01	0	38	104	4545576960	60	42666
2026-01-01 03:17:31.70	339.27	1.97	-49.3	-61.5	3.6	8.45e-01	0	38	104	4545576960	60	42969
2026-01-01 03:17:35.74	339.39	1.72	-49.3	-61.4	3.6	8.45e-01	0	38	104	4545576960	60	42673
2026-01-01 03:17:39.78	339.52	1.47	-49.3	-61.4	3.6	8.45e-01	0	38	104	4545576960	60	42499
2026-01-01 03:17:43.82	339.65	1.23	-49.3	-61.4	3.6	8.46e-01	0	38	104	4545576960	60	42626
2026-01-01 03:17:47.86	339.77	0.99	-49.3	-61.4	3.6	8.45e-01	0	38	104	4545576960	60	42531
2026-01-01 03:17:51.89	339.89	0.74	-49.3	-61.4	3.6	8.44e-01	0	38	104	4545576960	60	42491
2026-01-01 03:17:55.93	340.01	0.51	-49.3	-61.4	3.6	8.46e-01	0	38	104	4545576960	60	42479
2026-01-01 03:17:59.97	340.13	0.27	-49.3	-61.4	3.6	8.46e-01	0	38	104	4545576960	60	42494
2026-01-01 03:18:04.01	340.25	0.03	-49.3	-61.4	3.6	8.45e-01	0	38	104	4545576960	60	42299

#Closed at: 2026-01-01 03:18:06
#Recorded file [4545 MB]: D:/lorett/data/35029_260101_150243.dat