passes_logs/2026/01/01/R4.6S_Anadyr/R4.6S_Anadyr__20260101_140632_SUOMI_NPP_rec.log

#Pass ID: 20260101_140632_SUOMI NPP
#Satellite: SUOMI NPP
#Configuration: NPP
#almurnet v.1.7.20251203
#Start time: 2026-01-01 14:06:34

#Version: 2.2.20231116
#Station: R4.6S_Anadyr
#Location: 177.4865 lon 64.73178 lat
#TLE: 1 37849U 11061A   25364.87906318  .00000195  00000+0  11345-3 0  9993
#TLE: 2 37849  98.7794 302.0592 0002571  89.2401 270.9069 14.19520347734561

#Time	Az	El	Level	Level2	SNR	BER	BlckErr	Temp	State	Recorded	gain1	gain2
2026-01-01 14:06:34.33	19.45	0.09	-49.1	-61.6	3.5	1.52e+00	0	35	0	0	60	42149
2026-01-01 14:06:38.37	19.55	0.33	-49.0	-64.3	3.6	1.51e+00	0	37	104	0	60	59145
2026-01-01 14:06:42.41	19.65	0.57	-49.0	-64.3	3.6	1.51e+00	0	37	104	0	60	59026
2026-01-01 14:06:46.45	19.75	0.81	-48.7	-63.8	3.6	1.51e+00	0	37	104	0	60	56269
2026-01-01 14:06:50.49	19.85	1.05	-47.7	-62.9	3.6	1.51e+00	0	37	104	0	60	50609
2026-01-01 14:06:54.52	19.96	1.30	-47.6	-62.7	3.6	1.51e+00	0	37	104	0	60	49168
2026-01-01 14:06:58.56	20.07	1.54	-47.6	-62.7	3.6	1.51e+00	0	37	104	0	60	49400
2026-01-01 14:07:02.60	20.18	1.79	-47.6	-62.8	3.6	1.51e+00	0	37	104	0	60	49834
2026-01-01 14:07:06.64	20.29	2.05	-47.6	-62.7	3.6	1.51e+00	0	37	104	0	60	49462
2026-01-01 14:07:10.68	20.40	2.30	-47.5	-61.3	3.6	1.51e+00	0	37	104	0	60	42183
2026-01-01 14:07:14.72	20.51	2.56	-47.5	-60.1	3.6	1.46e+00	0	37	104	0	60	36508
2026-01-01 14:07:18.76	20.63	2.81	-47.0	-54.5	6.3	6.50e-01	0	37	0	2097152	60	19080
2026-01-01 14:07:22.80	20.74	3.07	-44.1	-46.9	14.8	7.00e-07	13	37	0	9437184	60	8024
2026-01-01 14:07:26.84	20.86	3.34	-42.7	-44.8	16.8	0.00e+00	0	37	0	16777216	58	7043
2026-01-01 14:07:30.88	20.98	3.60	-44.9	-48.4	13.2	7.00e-07	0	37	0	24117248	60	9505
2026-01-01 14:07:34.92	21.10	3.87	-47.6	-59.9	3.6	6.95e-02	0	37	104	31457280	60	35551
2026-01-01 14:07:38.96	21.23	4.14	-44.7	-48.0	13.4	3.80e-06	91	37	0	31457280	60	9069
2026-01-01 14:07:43.00	21.35	4.42	-43.9	-46.5	15.3	0.00e+00	0	37	0	38797312	60	7675
2026-01-01 14:07:47.04	21.48	4.69	-43.9	-46.6	15.6	0.00e+00	0	37	0	46137344	60	7712
2026-01-01 14:07:51.07	21.61	4.97	-41.6	-43.2	18.7	0.00e+00	0	37	0	54525952	56	6613
2026-01-01 14:07:55.11	21.75	5.25	-41.1	-42.6	19.2	0.00e+00	38	37	0	61865984	56	6168
2026-01-01 14:07:59.15	21.88	5.54	-40.7	-42.1	19.7	0.00e+00	0	37	0	69206016	56	5778
2026-01-01 14:08:03.19	22.02	5.82	-40.8	-42.2	19.7	0.00e+00	0	38	0	76546048	54	6555
2026-01-01 14:08:07.23	22.16	6.12	-40.7	-42.0	19.9	0.00e+00	51	37	0	84934656	54	6463
2026-01-01 14:08:11.26	22.30	6.41	-40.5	-41.9	20.0	0.00e+00	64	37	0	92274688	54	6349
2026-01-01 14:08:15.30	22.44	6.71	-40.7	-42.1	19.9	0.00e+00	0	37	0	99614720	54	6477
2026-01-01 14:08:19.34	22.59	7.01	-40.6	-42.0	20.1	0.00e+00	0	37	0	106954752	54	6407
2026-01-01 14:08:23.38	22.74	7.31	-40.6	-41.9	20.1	0.00e+00	13	38	0	114294784	54	6360
2026-01-01 14:08:27.42	22.89	7.62	-40.5	-41.8	20.1	0.00e+00	0	38	0	122683392	54	6296
2026-01-01 14:08:31.46	23.05	7.93	-40.5	-41.8	20.1	0.00e+00	0	38	0	130023424	54	6314
2026-01-01 14:08:35.50	23.20	8.24	-40.4	-41.7	20.3	0.00e+00	0	38	0	137363456	54	6174
2026-01-01 14:08:39.54	23.36	8.56	-40.2	-41.5	20.5	0.00e+00	70	38	0	144703488	54	6073
2026-01-01 14:08:43.58	23.53	8.89	-40.0	-41.3	20.5	0.00e+00	0	37	0	153092096	54	5909
2026-01-01 14:08:47.61	23.70	9.21	-40.0	-41.2	20.8	0.00e+00	0	38	0	160432128	52	6576
2026-01-01 14:08:51.65	23.87	9.54	-39.8	-40.9	21.2	0.00e+00	0	37	0	167772160	52	6369
2026-01-01 14:08:55.69	24.04	9.88	-39.5	-40.6	21.5	0.00e+00	80	38	0	175112192	52	6146
2026-01-01 14:08:59.73	24.22	10.22	-39.3	-40.4	21.7	0.00e+00	0	38	0	182452224	52	5997
2026-01-01 14:09:03.77	24.40	10.56	-39.3	-40.4	21.6	0.00e+00	0	38	0	190840832	52	6008
2026-01-01 14:09:07.80	24.59	10.91	-39.1	-40.2	21.9	0.00e+00	12	38	0	198180864	52	5847
2026-01-01 14:09:11.84	24.78	11.26	-38.9	-40.0	22.1	0.00e+00	0	38	0	205520896	52	5707
2026-01-01 14:09:15.88	24.97	11.62	-38.8	-39.8	22.1	0.00e+00	0	38	0	212860928	50	6290
2026-01-01 14:09:19.92	25.17	11.98	-38.5	-39.5	22.5	0.00e+00	0	38	0	221249536	50	6054
2026-01-01 14:09:23.96	25.37	12.35	-38.3	-39.3	22.5	0.00e+00	92	38	0	228589568	50	5952
2026-01-01 14:09:27.99	25.58	12.73	-39.0	-40.0	22.1	0.00e+00	0	38	0	235929600	50	6459
2026-01-01 14:09:32.03	25.79	13.11	-38.5	-39.5	22.5	0.00e+00	0	38	0	243269632	50	6091
2026-01-01 14:09:36.07	26.01	13.49	-38.5	-39.5	22.5	0.00e+00	0	38	0	250609664	50	6095
2026-01-01 14:09:40.11	26.23	13.88	-38.6	-39.6	22.4	0.00e+00	28	38	0	258998272	50	6110
2026-01-01 14:09:44.15	26.46	14.28	-38.2	-39.2	22.7	0.00e+00	0	38	0	266338304	50	5853
2026-01-01 14:09:48.19	26.70	14.68	-38.3	-39.2	22.8	0.00e+00	0	38	0	273678336	50	5872
2026-01-01 14:09:52.23	26.94	15.09	-38.6	-39.6	22.5	0.00e+00	89	38	0	281018368	50	6126
2026-01-01 14:09:56.27	27.18	15.51	-38.5	-39.5	22.7	0.00e+00	0	38	0	289406976	50	6045
2026-01-01 14:10:00.30	27.44	15.93	-38.6	-39.6	22.5	0.00e+00	0	38	0	296747008	50	6140
2026-01-01 14:10:04.35	27.70	16.36	-38.3	-39.3	22.7	0.00e+00	0	38	0	304087040	50	5944
2026-01-01 14:10:08.38	27.96	16.80	-37.9	-38.8	23.1	0.00e+00	69	38	0	311427072	50	5585
2026-01-01 14:10:12.42	28.24	17.25	-37.5	-38.4	23.5	0.00e+00	0	38	0	318767104	48	5977
2026-01-01 14:10:16.45	28.52	17.70	-37.5	-38.4	23.5	0.00e+00	0	38	0	327155712	48	6009
2026-01-01 14:10:20.50	28.81	18.16	-38.0	-38.9	23.1	0.00e+00	0	38	0	334495744	48	6368
2026-01-01 14:10:24.53	29.11	18.63	-37.5	-38.4	23.5	0.00e+00	75	38	0	341835776	48	5993
2026-01-01 14:10:28.57	29.41	19.10	-37.7	-38.7	23.2	0.00e+00	0	38	0	349175808	48	6193
2026-01-01 14:10:32.60	29.73	19.59	-37.8	-38.7	23.4	0.00e+00	0	38	0	357564416	48	6231
2026-01-01 14:10:36.64	30.06	20.08	-37.8	-38.7	23.2	0.00e+00	0	38	0	364904448	48	6227
2026-01-01 14:10:40.68	30.39	20.59	-37.4	-38.3	23.5	0.00e+00	92	38	0	372244480	48	5906
2026-01-01 14:10:44.72	30.74	21.10	-36.9	-37.8	24.1	0.00e+00	0	38	0	379584512	46	6258
2026-01-01 14:10:48.76	31.10	21.62	-36.9	-37.7	24.1	0.00e+00	0	38	0	386924544	46	6229
2026-01-01 14:10:52.80	31.47	22.16	-37.1	-38.0	23.9	0.00e+00	79	38	0	395313152	46	6414
2026-01-01 14:10:56.84	31.85	22.70	-36.5	-37.3	24.3	0.00e+00	0	38	0	402653184	46	5937
2026-01-01 14:11:00.88	32.25	23.25	-36.2	-37.0	24.6	0.00e+00	0	38	0	409993216	46	5739
2026-01-01 14:11:04.92	32.66	23.82	-36.3	-37.1	24.6	0.00e+00	0	38	0	417333248	46	5801
2026-01-01 14:11:08.96	33.08	24.39	-36.1	-36.9	24.7	0.00e+00	92	38	0	425721856	46	5665
2026-01-01 14:11:13.00	33.52	24.98	-36.4	-37.2	24.5	0.00e+00	0	38	0	433061888	46	5857
2026-01-01 14:11:17.04	33.98	25.58	-36.6	-37.4	24.0	0.00e+00	0	38	0	440401920	46	5983
2026-01-01 14:11:21.08	34.45	26.19	-37.3	-38.2	23.8	0.00e+00	0	38	0	447741952	46	6561
2026-01-01 14:11:25.12	34.94	26.81	-38.0	-39.0	23.2	0.00e+00	0	38	0	455081984	48	6392
2026-01-01 14:11:29.15	35.45	27.44	-37.6	-38.5	23.5	0.00e+00	20	38	0	463470592	48	6077
2026-01-01 14:11:33.19	35.98	28.09	-37.8	-38.7	23.4	0.00e+00	0	38	0	470810624	48	6207
2026-01-01 14:11:37.23	36.53	28.75	-38.5	-39.4	22.8	0.00e+00	18	38	0	478150656	48	6766
2026-01-01 14:11:41.27	37.10	29.43	-39.1	-40.1	22.4	0.00e+00	0	38	0	485490688	50	6489
2026-01-01 14:11:45.31	37.70	30.11	-40.6	-41.9	20.8	0.00e+00	0	38	0	493879296	52	7115
2026-01-01 14:11:49.35	38.32	30.81	-41.7	-43.1	19.7	0.00e+00	0	38	0	501219328	56	6504
2026-01-01 14:11:53.39	38.97	31.53	-40.6	-41.8	20.9	0.00e+00	21	38	0	508559360	54	6285
2026-01-01 14:11:57.43	39.65	32.26	-40.0	-41.1	21.2	0.00e+00	0	38	0	515899392	54	5787
2026-01-01 14:12:01.46	40.36	33.00	-39.5	-40.6	22.1	0.00e+00	0	38	0	523239424	52	6107
2026-01-01 14:12:05.50	41.10	33.75	-38.7	-39.7	22.8	0.00e+00	0	38	0	531628032	50	6189
2026-01-01 14:12:09.54	41.87	34.52	-39.8	-40.9	21.8	0.00e+00	92	38	0	538968064	52	6382
2026-01-01 14:12:13.57	42.69	35.30	-39.7	-40.8	21.6	0.00e+00	0	38	0	546308096	52	6269
2026-01-01 14:12:17.61	43.54	36.10	-38.6	-39.5	22.8	0.00e+00	0	38	0	553648128	50	6073
2026-01-01 14:12:21.66	44.44	36.91	-38.8	-39.8	22.6	0.00e+00	0	38	0	562036736	50	6247
2026-01-01 14:12:25.69	45.37	37.73	-39.9	-41.1	21.6	0.00e+00	92	38	0	569376768	52	6480
2026-01-01 14:12:29.73	46.36	38.56	-39.3	-40.4	22.3	0.00e+00	0	38	0	576716800	52	5987
2026-01-01 14:12:33.77	47.40	39.40	-38.2	-39.1	23.2	0.00e+00	0	38	0	584056832	50	5796
2026-01-01 14:12:37.81	48.49	40.26	-38.2	-39.1	23.1	0.00e+00	92	38	0	591396864	48	6536
2026-01-01 14:12:41.85	49.65	41.12	-38.8	-39.8	22.6	0.00e+00	0	38	0	599785472	50	6294
2026-01-01 14:12:45.89	50.86	41.99	-38.4	-39.3	23.0	0.00e+00	0	38	0	607125504	50	5955
2026-01-01 14:12:49.93	52.14	42.87	-39.2	-40.2	22.3	0.00e+00	0	38	0	614465536	50	6595
2026-01-01 14:12:53.97	53.49	43.75	-39.3	-40.3	22.0	0.00e+00	92	38	0	621805568	50	6670
2026-01-01 14:12:58.01	54.92	44.63	-40.4	-41.6	21.1	0.00e+00	0	38	0	630194176	52	6856
2026-01-01 14:13:02.05	56.43	45.51	-40.0	-41.0	21.5	0.00e+00	0	38	0	637534208	52	6457
2026-01-01 14:13:06.09	58.02	46.39	-41.4	-42.8	20.0	0.00e+00	0	38	0	644874240	54	7070
2026-01-01 14:13:10.13	59.71	47.26	-41.4	-42.7	20.0	0.00e+00	89	38	0	652214272	54	6995
2026-01-01 14:13:14.17	61.49	48.13	-40.9	-42.1	20.7	0.00e+00	0	38	0	659554304	56	5784
2026-01-01 14:13:18.21	63.37	48.97	-40.2	-41.4	21.2	0.00e+00	0	38	0	667942912	52	6731
2026-01-01 14:13:22.24	65.35	49.80	-39.4	-40.4	22.0	0.00e+00	76	38	0	675282944	52	6013
2026-01-01 14:13:26.28	67.44	50.61	-39.7	-40.7	21.7	0.00e+00	0	38	0	682622976	52	6244
2026-01-01 14:13:30.33	69.66	51.39	-37.3	-38.2	24.0	0.00e+00	0	38	0	689963008	48	5859
2026-01-01 14:13:34.37	71.98	52.14	-36.7	-37.5	24.4	0.00e+00	0	38	0	698351616	46	6092
2026-01-01 14:13:38.40	74.41	52.85	-36.7	-37.5	24.1	0.00e+00	35	38	0	705691648	46	6079
2026-01-01 14:13:42.44	76.96	53.51	-37.9	-38.8	23.5	0.00e+00	0	38	0	713031680	48	6291
2026-01-01 14:13:46.48	79.63	54.12	-37.5	-38.4	23.6	0.00e+00	0	38	0	720371712	48	6031
2026-01-01 14:13:50.51	82.40	54.67	-36.9	-37.7	24.2	0.00e+00	0	38	0	727711744	46	6209
2026-01-01 14:13:54.55	85.28	55.17	-36.1	-36.8	24.8	0.00e+00	63	38	0	736100352	46	5629
2026-01-01 14:13:58.59	88.26	55.59	-37.2	-38.0	24.0	0.00e+00	0	38	0	743440384	48	5738
2026-01-01 14:14:02.63	91.31	55.94	-37.0	-37.9	24.0	0.00e+00	0	38	0	750780416	48	5635
2026-01-01 14:14:06.66	94.43	56.21	-38.4	-39.3	22.9	0.00e+00	22	38	0	758120448	48	6663
2026-01-01 14:14:10.70	97.61	56.40	-37.9	-38.8	23.3	0.00e+00	41	38	0	766509056	50	5593
2026-01-01 14:14:14.74	100.82	56.50	-37.5	-38.4	23.7	0.00e+00	0	38	0	773849088	48	5972
2026-01-01 14:14:18.78	104.05	56.52	-39.5	-40.6	21.9	0.00e+00	0	38	0	781189120	52	6124
2026-01-01 14:14:22.82	107.27	56.45	-38.6	-39.6	22.9	0.00e+00	22	38	0	788529152	48	6882
2026-01-01 14:14:26.86	110.46	56.30	-37.1	-37.9	23.9	0.00e+00	0	38	0	795869184	48	5679
2026-01-01 14:14:30.90	113.61	56.06	-37.8	-38.6	23.3	0.00e+00	0	38	0	804257792	48	6163
2026-01-01 14:14:34.94	116.70	55.74	-40.6	-41.8	21.1	0.00e+00	0	38	0	811597824	52	7055
2026-01-01 14:14:38.97	119.71	55.35	-37.6	-38.4	23.6	0.00e+00	92	38	0	818937856	50	5364
2026-01-01 14:14:43.01	122.63	54.88	-37.3	-38.1	23.8	0.00e+00	0	38	0	826277888	48	5798
2026-01-01 14:14:47.06	125.46	54.35	-37.2	-38.0	23.9	0.00e+00	0	38	0	834666496	48	5748
2026-01-01 14:14:51.10	128.18	53.76	-37.4	-38.3	23.8	0.00e+00	0	38	0	842006528	46	6616
2026-01-01 14:14:55.13	130.78	53.12	-37.5	-38.4	23.6	0.00e+00	66	38	0	849346560	48	5996
2026-01-01 14:14:59.17	133.27	52.43	-37.5	-38.3	23.5	0.00e+00	0	38	0	856686592	48	5954
2026-01-01 14:15:03.21	135.64	51.69	-41.4	-42.8	20.1	0.00e+00	24	38	0	864026624	56	6274
2026-01-01 14:15:07.25	137.89	50.92	-41.2	-42.5	20.3	0.00e+00	21	38	0	872415232	54	6835
2026-01-01 14:15:11.29	140.04	50.12	-42.2	-43.7	19.3	0.00e+00	0	38	0	879755264	56	6941
2026-01-01 14:15:15.33	142.07	49.30	-38.4	-39.3	22.9	0.00e+00	0	38	0	887095296	50	5941
2026-01-01 14:15:19.37	143.99	48.45	-41.0	-42.3	20.5	0.00e+00	0	38	0	894435328	54	6651
2026-01-01 14:15:23.40	145.81	47.59	-37.0	-37.8	24.1	0.00e+00	67	38	0	902823936	48	5628
2026-01-01 14:15:27.44	147.54	46.72	-36.4	-37.1	24.7	0.00e+00	0	38	0	910163968	46	5814
2026-01-01 14:15:31.48	149.17	45.84	-38.6	-39.5	22.7	0.00e+00	0	37	0	917504000	50	6097
2026-01-01 14:15:35.52	150.72	44.96	-39.2	-40.2	22.2	0.00e+00	16	38	0	924844032	50	6551
2026-01-01 14:15:39.56	152.18	44.07	-38.9	-39.8	22.4	0.00e+00	92	38	0	932184064	50	6292
2026-01-01 14:15:43.60	153.56	43.19	-40.2	-41.3	21.4	0.00e+00	0	38	0	940572672	54	5949
2026-01-01 14:15:47.63	154.87	42.31	-46.4	-50.4	12.9	8.77e-05	0	38	0	947912704	60	11974
2026-01-01 14:15:51.67	156.12	41.43	-41.1	-42.4	20.3	0.00e+00	55	38	0	955252736	54	6758
2026-01-01 14:15:55.71	157.29	40.56	-42.9	-44.7	18.6	0.00e+00	0	38	0	962592768	60	6187
2026-01-01 14:15:59.75	158.41	39.70	-39.2	-40.1	22.2	0.00e+00	0	38	0	970981376	52	5827
2026-01-01 14:16:03.79	159.47	38.85	-39.0	-40.1	22.5	0.00e+00	0	38	0	978321408	52	5768
2026-01-01 14:16:07.82	160.48	38.01	-39.2	-40.3	21.8	0.00e+00	18	37	0	985661440	50	6620
2026-01-01 14:16:11.86	161.44	37.18	-40.9	-42.3	20.5	0.00e+00	0	37	0	993001472	56	5923
2026-01-01 14:16:15.90	162.35	36.36	-39.2	-40.3	22.2	0.00e+00	0	38	0	1000341504	52	5910
2026-01-01 14:16:19.94	163.22	35.56	-39.0	-40.1	22.4	0.00e+00	0	38	0	1008730112	50	6482
2026-01-01 14:16:23.98	164.05	34.77	-38.8	-39.7	22.6	0.00e+00	92	38	0	1016070144	50	6238
2026-01-01 14:16:28.01	164.84	33.99	-40.2	-41.4	21.2	0.00e+00	0	37	0	1023410176	52	6748
2026-01-01 14:16:32.05	165.60	33.23	-40.2	-41.4	21.3	0.00e+00	0	38	0	1030750208	52	6705
2026-01-01 14:16:36.09	166.32	32.48	-39.7	-40.8	21.7	0.00e+00	0	38	0	1038090240	52	6312
2026-01-01 14:16:40.14	167.01	31.74	-38.9	-39.9	22.4	0.00e+00	73	37	0	1046478848	50	6359
2026-01-01 14:16:44.17	167.67	31.02	-38.3	-39.2	23.0	0.00e+00	0	38	0	1053818880	50	5857
2026-01-01 14:16:48.22	168.31	30.31	-41.9	-43.4	19.4	0.00e+00	0	37	0	1061158912	54	7546
2026-01-01 14:16:52.26	168.91	29.61	-39.7	-40.8	21.9	0.00e+00	14	38	0	1068498944	52	6286
2026-01-01 14:16:56.29	169.50	28.93	-37.1	-37.9	24.0	0.00e+00	0	37	0	1076887552	48	5681
2026-01-01 14:17:00.34	170.06	28.26	-38.5	-39.5	22.7	0.00e+00	0	38	0	1084227584	48	6780
2026-01-01 14:17:04.37	170.59	27.61	-40.8	-42.1	20.5	0.00e+00	0	38	0	1091567616	54	6532
2026-01-01 14:17:08.41	171.11	26.96	-39.7	-40.8	21.6	0.00e+00	90	38	0	1098907648	54	5606
2026-01-01 14:17:12.45	171.61	26.33	-39.0	-40.1	22.2	0.00e+00	0	38	0	1106247680	50	6468
2026-01-01 14:17:16.49	172.08	25.72	-39.4	-40.5	21.9	0.00e+00	0	38	0	1114636288	50	6791
2026-01-01 14:17:20.53	172.55	25.11	-39.1	-40.1	22.3	0.00e+00	0	38	0	1121976320	52	5820
2026-01-01 14:17:24.57	172.99	24.52	-38.4	-39.3	22.9	0.00e+00	91	38	0	1129316352	50	5920
2026-01-01 14:17:28.61	173.42	23.93	-37.2	-38.1	23.7	0.00e+00	0	38	0	1136656384	48	5779
2026-01-01 14:17:32.65	173.83	23.36	-37.2	-38.0	23.8	0.00e+00	0	37	0	1145044992	48	5744
2026-01-01 14:17:36.69	174.23	22.80	-37.5	-38.3	23.5	0.00e+00	61	37	0	1152385024	48	5938
2026-01-01 14:17:40.73	174.62	22.25	-38.5	-39.5	22.7	0.00e+00	0	37	0	1159725056	48	6811
2026-01-01 14:17:44.77	174.99	21.71	-38.7	-39.8	22.4	0.00e+00	0	37	0	1167065088	50	6252
2026-01-01 14:17:48.80	175.35	21.19	-38.1	-39.1	23.0	0.00e+00	0	37	0	1174405120	50	5782
2026-01-01 14:17:52.84	175.70	20.67	-36.7	-37.6	24.1	0.00e+00	14	38	0	1182793728	46	6131
2026-01-01 14:17:56.88	176.04	20.16	-35.5	-36.3	25.1	0.00e+00	0	37	0	1190133760	44	5920
2026-01-01 14:18:00.91	176.37	19.66	-35.5	-36.2	24.9	0.00e+00	0	37	0	1197473792	44	5874
2026-01-01 14:18:04.95	176.69	19.17	-36.4	-37.2	24.3	0.00e+00	0	37	0	1204813824	44	6600
2026-01-01 14:18:08.99	177.00	18.69	-37.8	-38.8	23.1	0.00e+00	92	37	0	1213202432	48	6276
2026-01-01 14:18:13.03	177.30	18.21	-38.5	-39.5	22.6	0.00e+00	0	37	0	1220542464	48	6799
2026-01-01 14:18:17.07	177.59	17.75	-38.8	-39.8	22.4	0.00e+00	0	37	0	1227882496	50	6293
2026-01-01 14:18:21.11	177.87	17.29	-38.5	-39.5	22.5	0.00e+00	0	37	0	1235222528	50	6035
2026-01-01 14:18:25.15	178.15	16.84	-38.6	-39.6	22.5	0.00e+00	76	37	0	1242562560	50	6108
2026-01-01 14:18:29.19	178.42	16.40	-38.7	-39.7	22.5	0.00e+00	0	37	0	1250951168	50	6191
2026-01-01 14:18:33.22	178.68	15.96	-38.1	-39.1	22.9	0.00e+00	0	37	0	1258291200	50	5798
2026-01-01 14:18:37.27	178.93	15.53	-37.7	-38.6	23.2	0.00e+00	71	37	0	1265631232	48	6157
2026-01-01 14:18:41.30	179.18	15.11	-37.3	-38.2	23.4	0.00e+00	0	37	0	1272971264	48	5889
2026-01-01 14:18:45.34	179.42	14.70	-37.2	-38.1	23.6	0.00e+00	0	37	0	1281359872	48	5801
2026-01-01 14:18:49.38	179.65	14.29	-37.1	-38.0	23.7	0.00e+00	0	37	0	1288699904	48	5709
2026-01-01 14:18:53.42	179.88	13.89	-37.0	-37.9	23.7	0.00e+00	92	37	0	1296039936	48	5655
2026-01-01 14:18:57.45	180.10	13.50	-37.3	-38.1	23.5	0.00e+00	0	37	0	1303379968	48	5820
2026-01-01 14:19:01.49	180.32	13.11	-37.6	-38.5	23.3	0.00e+00	0	37	0	1310720000	48	6064
2026-01-01 14:19:05.53	180.53	12.73	-38.2	-39.2	22.7	0.00e+00	0	37	0	1319108608	48	6586
2026-01-01 14:19:09.57	180.74	12.35	-38.8	-39.8	22.1	0.00e+00	92	37	0	1326448640	50	6315
2026-01-01 14:19:13.61	180.94	11.98	-39.6	-40.7	21.3	0.00e+00	0	37	0	1333788672	50	6992
2026-01-01 14:19:17.64	181.14	11.61	-40.1	-41.4	20.8	0.00e+00	0	37	0	1341128704	52	6707
2026-01-01 14:19:21.68	181.33	11.25	-40.4	-41.7	20.5	0.00e+00	73	38	0	1349517312	52	6995
2026-01-01 14:19:25.72	181.52	10.89	-40.6	-41.9	20.2	0.00e+00	0	38	0	1356857344	52	7170
2026-01-01 14:19:29.76	181.70	10.54	-40.6	-41.9	20.2	0.00e+00	0	37	0	1364197376	52	7148
2026-01-01 14:19:33.79	181.88	10.19	-40.1	-41.4	20.6	0.00e+00	0	37	0	1371537408	52	6731
2026-01-01 14:19:37.83	182.06	9.85	-39.6	-40.7	21.3	0.00e+00	92	37	0	1378877440	52	6242
2026-01-01 14:19:41.87	182.23	9.51	-39.5	-40.6	21.5	0.00e+00	0	37	0	1387266048	52	6141
2026-01-01 14:19:45.91	182.40	9.18	-39.1	-40.1	21.9	0.00e+00	0	37	0	1394606080	52	5812
2026-01-01 14:19:49.95	182.57	8.85	-39.3	-40.4	21.6	0.00e+00	13	37	0	1401946112	52	5970
2026-01-01 14:19:53.98	182.73	8.53	-38.5	-39.5	22.3	0.00e+00	71	38	0	1409286144	50	6086
2026-01-01 14:19:58.02	182.89	8.20	-38.7	-39.7	22.2	0.00e+00	0	38	0	1417674752	50	6215
2026-01-01 14:20:02.06	183.05	7.89	-38.6	-39.6	22.2	0.00e+00	0	38	0	1425014784	50	6139
2026-01-01 14:20:06.10	183.20	7.57	-38.4	-39.4	22.3	0.00e+00	0	37	0	1432354816	50	6011
2026-01-01 14:20:10.14	183.35	7.26	-39.1	-40.2	21.8	0.00e+00	25	38	0	1439694848	50	6572
2026-01-01 14:20:14.18	183.50	6.96	-39.3	-40.4	21.7	0.00e+00	0	37	0	1447034880	50	6702
2026-01-01 14:20:18.22	183.64	6.65	-39.2	-40.3	21.5	0.00e+00	24	37	0	1455423488	50	6635
2026-01-01 14:20:22.25	183.78	6.36	-39.5	-40.6	21.3	0.00e+00	92	37	0	1462763520	50	6912
2026-01-01 14:20:26.30	183.92	6.06	-39.5	-40.7	21.2	0.00e+00	0	38	0	1470103552	50	6983
2026-01-01 14:20:30.34	184.06	5.77	-39.8	-41.0	20.9	0.00e+00	0	38	0	1477443584	52	6431
2026-01-01 14:20:34.38	184.19	5.48	-39.9	-41.2	20.7	0.00e+00	0	37	0	1485832192	52	6547
2026-01-01 14:20:38.42	184.33	5.19	-40.3	-41.6	20.3	0.00e+00	92	37	0	1493172224	52	6890
2026-01-01 14:20:42.46	184.45	4.91	-40.3	-41.6	20.2	0.00e+00	0	37	0	1500512256	54	6130
2026-01-01 14:20:46.50	184.58	4.62	-40.7	-42.1	19.8	0.00e+00	0	37	0	1507852288	54	6509
2026-01-01 14:20:50.54	184.71	4.35	-40.8	-42.2	19.6	0.00e+00	3	38	0	1515192320	54	6577
2026-01-01 14:20:54.57	184.83	4.07	-40.6	-42.0	19.7	0.00e+00	73	38	0	1523580928	54	6424
2026-01-01 14:20:58.61	184.95	3.80	-40.7	-42.1	19.5	0.00e+00	0	38	0	1530920960	54	6539
2026-01-01 14:21:02.65	185.07	3.53	-40.8	-42.3	19.3	0.00e+00	0	38	0	1538260992	54	6682
2026-01-01 14:21:06.69	185.19	3.26	-40.8	-42.3	19.3	0.00e+00	85	38	0	1545601024	54	6677
2026-01-01 14:21:10.73	185.30	3.00	-47.9	-62.9	3.6	4.64e-01	0	38	104	1552941056	60	50697
2026-01-01 14:21:14.77	185.42	2.73	-48.7	-64.0	3.6	1.51e+00	0	38	104	1552941056	60	57433
2026-01-01 14:21:18.80	185.53	2.47	-49.0	-64.2	3.6	1.51e+00	0	38	104	1552941056	60	58627
2026-01-01 14:21:22.85	185.64	2.22	-48.9	-64.2	3.6	1.51e+00	0	38	104	1552941056	60	58557
2026-01-01 14:21:26.89	185.75	1.96	-49.0	-64.1	3.6	1.51e+00	0	38	104	1552941056	60	58168
2026-01-01 14:21:30.93	185.85	1.71	-49.0	-64.2	3.6	1.51e+00	0	38	104	1552941056	60	58366
2026-01-01 14:21:34.97	185.96	1.46	-48.9	-64.2	3.6	1.51e+00	0	38	104	1552941056	60	58301
2026-01-01 14:21:39.01	186.06	1.21	-48.9	-64.1	3.6	1.51e+00	0	38	104	1552941056	60	58064
2026-01-01 14:21:43.05	186.16	0.96	-48.9	-64.1	3.6	1.51e+00	0	38	104	1552941056	60	58284
2026-01-01 14:21:47.09	186.26	0.71	-48.9	-64.1	3.6	1.51e+00	0	38	104	1552941056	60	58166
2026-01-01 14:21:51.13	186.36	0.47	-48.9	-64.1	3.6	1.51e+00	0	38	104	1552941056	60	58274
2026-01-01 14:21:55.17	186.46	0.23	-48.9	-64.1	3.6	1.51e+00	0	38	104	1552941056	60	57992
2026-01-01 14:21:59.20	186.56	-0.01	-48.9	-64.1	3.6	1.51e+00	0	38	104	1552941056	60	58055

#Closed at: 2026-01-01 14:22:00
#Recorded file [1552 MB]: D:/lorett/data/35029_260102_020634.dat