passes_logs/2026/01/01/R4.6S_Anadyr/R4.6S_Anadyr__20260101_200819_FENGYUN_3D_rec.log

#Pass ID: 20260101_200819_FENGYUN 3D
#Satellite: FENGYUN 3D
#Configuration: FENGYUN 3D
#almurnet v.1.7.20251203
#Start time: 2026-01-01 20:08:20

#Version: 2.2.20231116
#Station: R4.6S_Anadyr
#Location: 177.4865 lon 64.73178 lat
#TLE: 1 43010U 17072A   25364.99193771  .00000012  00000+0  27255-4 0  9998
#TLE: 2 43010  98.9913 331.5779 0001825 135.6238 224.5084 14.19689358421127

#Time	Az	El	Level	Level2	SNR	BER	BlckErr	Temp	State	Recorded	gain1	gain2
2026-01-01 20:08:20.50	37.91	0.06	-49.4	-64.4	3.5	1.51e+00	0	36	0	0	60	59653
2026-01-01 20:08:24.54	37.64	0.27	-49.2	-61.4	3.6	8.44e-01	0	37	104	0	60	42516
2026-01-01 20:08:28.57	37.37	0.47	-49.3	-61.4	3.6	8.44e-01	0	38	104	0	60	42312
2026-01-01 20:08:32.61	37.09	0.68	-49.0	-61.2	3.6	8.46e-01	0	38	104	0	60	41490
2026-01-01 20:08:36.66	36.81	0.89	-48.2	-60.4	3.6	8.45e-01	0	38	104	0	60	37715
2026-01-01 20:08:40.70	36.52	1.10	-47.6	-59.7	3.6	8.45e-01	0	38	104	0	60	34856
2026-01-01 20:08:44.74	36.23	1.31	-47.6	-59.7	3.6	8.46e-01	0	38	104	0	60	34938
2026-01-01 20:08:48.78	35.93	1.53	-47.6	-59.6	3.6	8.44e-01	0	38	104	0	60	34678
2026-01-01 20:08:52.82	35.63	1.74	-47.6	-59.7	3.6	8.46e-01	0	38	104	0	60	34850
2026-01-01 20:08:56.86	35.33	1.95	-47.6	-59.4	3.6	8.46e-01	0	38	104	0	60	33652
2026-01-01 20:09:00.90	35.02	2.17	-47.5	-58.3	3.6	8.44e-01	0	38	104	0	60	29806
2026-01-01 20:09:04.94	34.71	2.38	-47.6	-59.7	3.6	8.45e-01	0	38	104	0	60	34744
2026-01-01 20:09:08.98	34.39	2.60	-47.6	-59.3	3.6	8.46e-01	0	38	104	0	60	33273
2026-01-01 20:09:13.02	34.06	2.81	-47.5	-58.0	3.5	8.45e-01	0	38	104	0	60	28856
2026-01-01 20:09:17.06	33.73	3.03	-45.3	-48.7	9.6	3.87e-02	0	38	0	8388608	60	9849
2026-01-01 20:09:21.10	33.40	3.25	-43.3	-45.6	12.4	8.07e-01	0	38	104	23068672	58	7745
2026-01-01 20:09:25.13	33.06	3.47	-37.5	-38.4	20.4	0.00e+00	0	38	0	29360128	48	5996
2026-01-01 20:09:29.17	32.72	3.69	-37.5	-38.4	20.5	0.00e+00	0	38	0	52428800	48	5989
2026-01-01 20:09:33.21	32.37	3.91	-37.3	-38.2	20.8	0.00e+00	0	38	0	74448896	48	5855
2026-01-01 20:09:37.25	32.01	4.13	-36.9	-37.8	21.1	0.00e+00	0	38	0	97517568	46	6261
2026-01-01 20:09:41.29	31.65	4.35	-36.9	-37.7	21.5	0.00e+00	0	38	0	120586240	46	6232
2026-01-01 20:09:45.33	31.29	4.57	-36.8	-37.7	21.3	0.00e+00	0	38	0	143654912	46	6186
2026-01-01 20:09:49.36	30.91	4.80	-36.6	-37.5	21.6	0.00e+00	0	38	0	165675008	46	6046
2026-01-01 20:09:53.40	30.54	5.02	-36.5	-37.3	21.7	0.00e+00	0	38	0	188743680	46	5956
2026-01-01 20:09:57.44	30.15	5.25	-36.4	-37.2	22.0	0.00e+00	0	38	0	211812352	46	5832
2026-01-01 20:10:01.48	29.76	5.47	-36.2	-37.1	22.1	0.00e+00	0	38	0	233832448	46	5765
2026-01-01 20:10:05.52	29.36	5.70	-36.1	-36.9	22.2	0.00e+00	0	38	0	256901120	46	5668
2026-01-01 20:10:09.56	28.96	5.93	-36.1	-36.9	22.2	0.00e+00	0	38	0	278921216	46	5663
2026-01-01 20:10:13.60	28.55	6.15	-36.4	-37.2	22.0	0.00e+00	0	38	0	301989888	46	5850
2026-01-01 20:10:17.64	28.13	6.38	-36.3	-37.1	22.3	0.00e+00	0	38	0	325058560	46	5775
2026-01-01 20:10:21.68	27.71	6.61	-36.1	-36.9	22.3	0.00e+00	0	38	0	348127232	46	5650
2026-01-01 20:10:25.72	27.28	6.84	-35.9	-36.7	22.7	0.00e+00	0	38	0	370147328	46	5527
2026-01-01 20:10:29.76	26.84	7.07	-35.4	-36.1	23.1	0.00e+00	0	38	0	393216000	44	5818
2026-01-01 20:10:33.80	26.40	7.30	-35.4	-36.1	23.2	0.00e+00	0	38	0	416284672	44	5824
2026-01-01 20:10:37.83	25.95	7.53	-35.3	-36.0	23.4	0.00e+00	0	39	0	438304768	44	5743
2026-01-01 20:10:41.87	25.49	7.76	-35.1	-35.9	23.4	0.00e+00	0	39	0	461373440	44	5641
2026-01-01 20:10:45.91	25.02	7.99	-35.3	-36.0	23.3	0.00e+00	0	39	0	483393536	44	5733
2026-01-01 20:10:49.95	24.54	8.22	-35.4	-36.1	23.3	0.00e+00	0	38	0	506462208	44	5818
2026-01-01 20:10:53.99	24.06	8.45	-35.3	-36.0	23.4	0.00e+00	0	39	0	529530880	44	5739
2026-01-01 20:10:58.03	23.57	8.69	-35.1	-35.9	23.5	0.00e+00	0	39	0	552599552	44	5639
2026-01-01 20:11:02.07	23.07	8.92	-34.9	-35.7	23.7	0.00e+00	0	39	0	574619648	44	5504
2026-01-01 20:11:06.11	22.57	9.15	-34.8	-35.6	23.8	0.00e+00	0	38	0	597688320	44	5440
2026-01-01 20:11:10.15	22.05	9.38	-34.9	-35.6	24.0	0.00e+00	0	39	0	620756992	42	6124
2026-01-01 20:11:14.19	21.53	9.61	-34.5	-35.2	24.2	0.00e+00	0	39	0	642777088	42	5875
2026-01-01 20:11:18.22	21.00	9.84	-34.5	-35.2	24.2	0.00e+00	0	38	0	665845760	42	5857
2026-01-01 20:11:22.26	20.46	10.07	-34.4	-35.1	24.3	0.00e+00	0	39	0	687865856	42	5802
2026-01-01 20:11:26.30	19.91	10.31	-34.6	-35.3	24.1	0.00e+00	0	38	0	710934528	42	5939
2026-01-01 20:11:30.34	19.35	10.54	-34.8	-35.5	24.0	0.00e+00	0	39	0	734003200	42	6059
2026-01-01 20:11:34.38	18.78	10.77	-34.6	-35.3	24.2	0.00e+00	0	39	0	757071872	42	5934
2026-01-01 20:11:38.42	18.20	10.99	-34.6	-35.3	24.2	0.00e+00	0	39	0	779091968	42	5913
2026-01-01 20:11:42.46	17.62	11.22	-34.4	-35.1	24.3	0.00e+00	0	39	0	802160640	42	5827
2026-01-01 20:11:46.50	17.02	11.45	-34.1	-34.8	24.7	0.00e+00	0	38	0	825229312	42	5574
2026-01-01 20:11:50.54	16.42	11.68	-34.1	-34.8	24.7	0.00e+00	0	39	0	847249408	42	5575
2026-01-01 20:11:54.58	15.80	11.90	-34.0	-34.7	24.7	0.00e+00	0	39	0	870318080	42	5510
2026-01-01 20:11:58.62	15.18	12.13	-33.9	-34.6	24.9	0.00e+00	0	39	0	893386752	42	5457
2026-01-01 20:12:02.66	14.54	12.35	-34.0	-34.7	24.8	0.00e+00	0	39	0	915406848	42	5523
2026-01-01 20:12:06.70	13.90	12.57	-34.0	-34.7	24.9	0.00e+00	0	39	0	938475520	42	5523
2026-01-01 20:12:10.74	13.24	12.79	-33.9	-34.6	25.0	0.00e+00	0	39	0	961544192	42	5457
2026-01-01 20:12:14.79	12.58	13.01	-34.0	-34.7	24.9	0.00e+00	0	39	0	983564288	42	5528
2026-01-01 20:12:18.83	11.91	13.22	-33.7	-34.4	25.1	0.00e+00	0	39	0	1006632960	40	5997
2026-01-01 20:12:22.87	11.22	13.44	-33.3	-34.0	25.4	0.00e+00	0	39	0	1029701632	40	5745
2026-01-01 20:12:26.91	10.53	13.65	-33.3	-34.0	25.5	0.00e+00	0	39	0	1051721728	40	5713
2026-01-01 20:12:30.95	9.82	13.86	-33.4	-34.1	25.4	0.00e+00	0	39	0	1074790400	40	5787
2026-01-01 20:12:34.99	9.11	14.07	-33.4	-34.1	25.3	0.00e+00	0	39	0	1097859072	40	5807
2026-01-01 20:12:39.03	8.39	14.27	-33.3	-33.9	25.5	0.00e+00	0	39	0	1119879168	40	5674
2026-01-01 20:12:43.07	7.65	14.47	-33.7	-34.4	25.1	0.00e+00	0	39	0	1142947840	40	5992
2026-01-01 20:12:47.11	6.91	14.67	-33.5	-34.2	25.3	0.00e+00	0	39	0	1166016512	40	5852
2026-01-01 20:12:51.15	6.15	14.86	-33.3	-33.9	25.5	0.00e+00	0	39	0	1188036608	40	5674
2026-01-01 20:12:55.19	5.39	15.05	-33.2	-33.9	25.6	0.00e+00	0	39	0	1211105280	40	5655
2026-01-01 20:12:59.23	4.61	15.24	-33.2	-33.9	25.7	0.00e+00	0	39	0	1234173952	40	5659
2026-01-01 20:13:03.27	3.83	15.42	-33.0	-33.7	25.8	0.00e+00	0	39	0	1257242624	40	5526
2026-01-01 20:13:07.31	3.03	15.60	-33.0	-33.7	25.9	0.00e+00	0	39	0	1279262720	40	5529
2026-01-01 20:13:11.35	2.23	15.77	-32.9	-33.6	25.9	0.00e+00	0	39	0	1302331392	40	5442
2026-01-01 20:13:15.39	1.42	15.94	-32.8	-33.5	26.0	0.00e+00	0	39	0	1324351488	38	6063
2026-01-01 20:13:19.43	0.60	16.11	-32.7	-33.4	26.1	0.00e+00	0	39	0	1347420160	38	5973
2026-01-01 20:13:23.48	359.76	16.27	-32.4	-33.0	26.4	0.00e+00	0	39	0	1370488832	38	5739
2026-01-01 20:13:27.52	358.92	16.43	-32.2	-32.9	26.4	0.00e+00	0	39	0	1393557504	38	5646
2026-01-01 20:13:31.55	358.08	16.57	-32.4	-33.0	26.4	0.00e+00	0	39	0	1415577600	38	5758
2026-01-01 20:13:35.60	357.22	16.72	-32.0	-32.6	26.7	0.00e+00	0	39	0	1438646272	38	5501
2026-01-01 20:13:39.64	356.35	16.86	-32.1	-32.8	26.6	0.00e+00	0	39	0	1461714944	38	5592
2026-01-01 20:13:43.68	355.48	16.99	-32.3	-32.9	26.4	0.00e+00	0	39	0	1483735040	38	5691
2026-01-01 20:13:47.72	354.60	17.11	-32.6	-33.2	26.2	0.00e+00	0	39	0	1506803712	38	5856
2026-01-01 20:13:51.76	353.71	17.23	-32.5	-33.2	26.3	0.00e+00	0	39	0	1528823808	38	5830
2026-01-01 20:13:55.80	352.81	17.35	-32.5	-33.1	26.3	0.00e+00	0	39	0	1551892480	38	5814
2026-01-01 20:13:59.84	351.91	17.45	-32.6	-33.3	26.2	0.00e+00	0	39	0	1574961152	38	5940
2026-01-01 20:14:03.88	351.00	17.55	-32.4	-33.0	26.4	0.00e+00	0	39	0	1598029824	38	5742
2026-01-01 20:14:07.92	350.09	17.64	-32.2	-32.9	26.6	0.00e+00	0	39	0	1620049920	38	5636
2026-01-01 20:14:11.96	349.17	17.73	-32.1	-32.8	26.6	0.00e+00	0	39	0	1643118592	38	5603
2026-01-01 20:14:16.00	348.24	17.81	-32.2	-32.8	26.5	0.00e+00	0	39	0	1666187264	38	5608
2026-01-01 20:14:20.04	347.31	17.88	-32.4	-33.0	26.4	0.00e+00	0	39	0	1688207360	38	5760
2026-01-01 20:14:24.08	346.38	17.94	-32.1	-32.7	26.7	0.00e+00	0	39	0	1711276032	38	5544
2026-01-01 20:14:28.12	345.44	17.99	-32.1	-32.7	26.7	0.00e+00	0	39	0	1734344704	38	5561
2026-01-01 20:14:32.16	344.50	18.04	-32.3	-32.9	26.6	0.00e+00	0	39	0	1756364800	38	5637
2026-01-01 20:14:36.20	343.56	18.08	-32.2	-32.9	26.5	0.00e+00	0	39	0	1779433472	38	5665
2026-01-01 20:14:40.24	342.62	18.11	-32.1	-32.7	26.7	0.00e+00	0	39	0	1802502144	38	5528
2026-01-01 20:14:44.28	341.67	18.13	-32.0	-32.7	26.8	0.00e+00	0	39	0	1824522240	38	5541
2026-01-01 20:14:48.32	340.72	18.15	-31.6	-32.3	27.1	0.00e+00	0	39	0	1847590912	36	5898
2026-01-01 20:14:52.36	339.77	18.15	-31.7	-32.4	26.8	0.00e+00	0	39	0	1870659584	36	5968
2026-01-01 20:14:56.40	338.82	18.15	-32.0	-32.6	26.7	0.00e+00	0	39	0	1892679680	36	6153
2026-01-01 20:15:00.44	337.87	18.14	-32.3	-32.9	26.5	0.00e+00	0	39	0	1915748352	36	6345
2026-01-01 20:15:04.48	336.93	18.12	-32.3	-32.9	26.5	0.00e+00	0	39	0	1938817024	36	6382
2026-01-01 20:15:08.52	335.98	18.10	-32.1	-32.7	26.4	0.00e+00	0	39	0	1960837120	36	6232
2026-01-01 20:15:12.56	335.03	18.07	-31.8	-32.4	26.9	0.00e+00	0	39	0	1983905792	36	6022
2026-01-01 20:15:16.60	334.09	18.02	-32.1	-32.7	26.6	0.00e+00	0	39	0	2006974464	36	6214
2026-01-01 20:15:20.64	333.15	17.97	-31.9	-32.6	26.8	0.00e+00	0	39	0	2028994560	36	6139
2026-01-01 20:15:24.68	332.22	17.92	-32.2	-32.8	26.6	0.00e+00	0	39	0	2052063232	36	6288
2026-01-01 20:15:28.73	331.28	17.85	-32.4	-33.1	26.4	0.00e+00	0	39	0	2075131904	36	6501
2026-01-01 20:15:32.77	330.35	17.78	-32.3	-32.9	26.5	0.00e+00	0	39	0	2098200576	36	6360
2026-01-01 20:15:36.81	329.43	17.70	-32.4	-33.0	26.5	0.00e+00	0	39	0	2120220672	36	6460
2026-01-01 20:15:40.85	328.51	17.61	-32.4	-33.1	26.3	0.00e+00	0	39	0	2143289344	36	6523
2026-01-01 20:15:44.89	327.60	17.51	-32.6	-33.3	26.3	0.00e+00	0	39	0	2165309440	36	6687
2026-01-01 20:15:48.93	326.69	17.41	-32.6	-33.2	26.3	0.00e+00	0	39	0	2188378112	38	5850
2026-01-01 20:15:52.97	325.79	17.30	-32.7	-33.4	26.3	0.00e+00	0	39	0	2211446784	38	5984
2026-01-01 20:15:57.01	324.90	17.19	-32.4	-33.2	26.4	0.00e+00	0	39	0	2233466880	38	5833
2026-01-01 20:16:01.05	324.01	17.07	-32.5	-33.1	26.4	0.00e+00	0	39	0	2256535552	38	5813
2026-01-01 20:16:05.09	323.13	16.94	-32.5	-33.1	26.4	0.00e+00	0	39	0	2279604224	38	5790
2026-01-01 20:16:09.13	322.26	16.80	-32.7	-33.4	26.2	0.00e+00	0	39	0	2302672896	38	5972
2026-01-01 20:16:13.17	321.40	16.66	-32.7	-33.3	26.1	0.00e+00	0	39	0	2324692992	38	5912
2026-01-01 20:16:17.21	320.54	16.52	-32.4	-33.0	26.4	0.00e+00	0	39	0	2347761664	38	5711
2026-01-01 20:16:21.25	319.69	16.37	-32.5	-33.1	26.4	0.00e+00	0	39	0	2369781760	38	5798
2026-01-01 20:16:25.30	318.85	16.21	-32.7	-33.4	26.2	0.00e+00	0	39	0	2392850432	38	5974
2026-01-01 20:16:29.34	318.02	16.05	-32.8	-33.5	26.1	0.00e+00	0	39	0	2415919104	38	6053
2026-01-01 20:16:33.38	317.20	15.88	-33.1	-33.8	25.9	0.00e+00	0	39	0	2438987776	38	6279
2026-01-01 20:16:37.42	316.39	15.71	-33.0	-33.6	26.0	0.00e+00	0	39	0	2461007872	38	6112
2026-01-01 20:16:41.47	315.59	15.53	-33.1	-33.8	25.9	0.00e+00	0	39	0	2484076544	38	6310
2026-01-01 20:16:45.51	314.80	15.35	-33.0	-33.7	26.0	0.00e+00	0	39	0	2507145216	38	6233
2026-01-01 20:16:49.54	314.02	15.17	-33.0	-33.6	25.9	0.00e+00	0	39	0	2529165312	38	6166
2026-01-01 20:16:53.58	313.25	14.98	-33.2	-34.0	25.7	0.00e+00	0	39	0	2552233984	38	6413
2026-01-01 20:16:57.63	312.48	14.78	-33.2	-33.8	25.7	0.00e+00	0	39	0	2575302656	38	6280
2026-01-01 20:17:01.67	311.73	14.59	-33.4	-34.1	25.4	0.00e+00	0	39	0	2597322752	38	6474
2026-01-01 20:17:05.72	310.99	14.39	-33.4	-34.2	25.5	0.00e+00	0	39	0	2620391424	38	6540
2026-01-01 20:17:09.76	310.25	14.19	-33.4	-34.1	25.3	0.00e+00	0	39	0	2643460096	38	6496
2026-01-01 20:17:13.79	309.53	13.98	-33.7	-34.3	25.3	0.00e+00	0	39	0	2665480192	38	6667
2026-01-01 20:17:17.83	308.82	13.77	-33.9	-34.5	25.1	0.00e+00	0	39	0	2688548864	40	6088
2026-01-01 20:17:21.88	308.12	13.56	-33.7	-34.4	25.3	0.00e+00	0	39	0	2711617536	40	5995
2026-01-01 20:17:25.92	307.43	13.35	-33.8	-34.5	25.2	0.00e+00	0	39	0	2733637632	40	6093
2026-01-01 20:17:29.95	306.75	13.14	-33.4	-34.0	25.4	0.00e+00	0	39	0	2756706304	40	5760
2026-01-01 20:17:34.00	306.07	12.92	-33.7	-34.3	25.2	0.00e+00	0	39	0	2779774976	40	5953
2026-01-01 20:17:38.03	305.41	12.70	-33.6	-34.3	25.3	0.00e+00	0	39	0	2801795072	40	5931
2026-01-01 20:17:42.08	304.76	12.48	-33.8	-34.6	24.7	0.00e+00	0	39	0	2824863744	40	6136
2026-01-01 20:17:46.11	304.12	12.26	-34.0	-34.6	24.9	0.00e+00	0	39	0	2847932416	40	6161
2026-01-01 20:17:50.16	303.49	12.03	-34.1	-34.8	24.8	0.00e+00	0	39	0	2869952512	40	6301
2026-01-01 20:17:54.20	302.86	11.81	-34.3	-35.0	24.6	0.00e+00	0	39	0	2893021184	40	6432
2026-01-01 20:17:58.24	302.25	11.58	-34.5	-35.2	24.5	0.00e+00	0	39	0	2916089856	40	6542
2026-01-01 20:18:02.28	301.65	11.35	-34.7	-35.5	24.1	0.00e+00	0	39	0	2938109952	42	6052
2026-01-01 20:18:06.32	301.05	11.13	-34.5	-35.1	24.3	0.00e+00	0	39	0	2961178624	42	5806
2026-01-01 20:18:10.36	300.47	10.90	-34.5	-35.3	24.3	0.00e+00	0	39	0	2984247296	42	5908
2026-01-01 20:18:14.40	299.89	10.67	-34.6	-35.3	24.2	0.00e+00	0	39	0	3006267392	42	5912
2026-01-01 20:18:18.44	299.33	10.44	-34.7	-35.4	24.1	0.00e+00	0	39	0	3029336064	42	5997
2026-01-01 20:18:22.47	298.77	10.21	-34.8	-35.5	24.0	0.00e+00	0	39	0	3052404736	42	6041
2026-01-01 20:18:26.51	298.22	9.97	-34.7	-35.5	24.1	0.00e+00	0	39	0	3074424832	42	6087
2026-01-01 20:18:30.56	297.68	9.74	-35.0	-35.7	23.7	0.00e+00	0	39	0	3097493504	42	6178
2026-01-01 20:18:34.60	297.15	9.51	-34.8	-35.4	24.0	0.00e+00	0	39	0	3120562176	42	6026
2026-01-01 20:18:38.64	296.63	9.28	-34.9	-35.5	23.9	0.00e+00	0	39	0	3142582272	42	6096
2026-01-01 20:18:42.68	296.12	9.05	-35.0	-35.7	23.7	0.00e+00	0	39	0	3165650944	42	6207
2026-01-01 20:18:46.72	295.61	8.81	-35.1	-35.9	23.5	0.00e+00	0	39	0	3188719616	42	6373
2026-01-01 20:18:50.76	295.11	8.58	-35.5	-36.2	23.3	0.00e+00	0	39	0	3210739712	42	6577
2026-01-01 20:18:54.80	294.63	8.35	-35.6	-36.2	23.3	0.00e+00	0	39	0	3233808384	42	6605
2026-01-01 20:18:58.84	294.14	8.12	-35.7	-36.5	23.1	0.00e+00	0	39	0	3256877056	44	6035
2026-01-01 20:19:02.88	293.67	7.89	-35.4	-36.2	23.3	0.00e+00	0	39	0	3279945728	44	5847
2026-01-01 20:19:06.92	293.20	7.65	-35.4	-36.2	23.3	0.00e+00	0	39	0	3301965824	44	5880
2026-01-01 20:19:10.96	292.75	7.42	-35.5	-36.2	23.2	0.00e+00	0	39	0	3325034496	44	5847
2026-01-01 20:19:15.00	292.30	7.19	-35.5	-36.3	23.1	0.00e+00	0	39	0	3347054592	44	5935
2026-01-01 20:19:19.04	291.85	6.96	-35.7	-36.4	22.9	0.00e+00	0	39	0	3370123264	44	6028
2026-01-01 20:19:23.08	291.41	6.73	-35.9	-36.7	22.7	0.00e+00	0	39	0	3393191936	44	6180
2026-01-01 20:19:27.12	290.99	6.50	-36.0	-36.7	22.6	0.00e+00	0	39	0	3416260608	44	6191
2026-01-01 20:19:31.16	290.56	6.27	-36.1	-37.0	22.4	0.00e+00	0	39	0	3438280704	44	6413
2026-01-01 20:19:35.20	290.15	6.05	-36.3	-37.1	22.2	0.00e+00	0	39	0	3461349376	44	6524
2026-01-01 20:19:39.24	289.74	5.82	-36.4	-37.1	22.2	0.00e+00	0	39	0	3484418048	44	6501
2026-01-01 20:19:43.28	289.33	5.59	-36.4	-37.1	22.0	0.00e+00	0	39	0	3506438144	44	6534
2026-01-01 20:19:47.32	288.94	5.36	-36.1	-36.9	22.3	0.00e+00	0	39	0	3529506816	44	6320
2026-01-01 20:19:51.36	288.55	5.14	-36.3	-37.0	22.1	0.00e+00	0	39	0	3551526912	44	6448
2026-01-01 20:19:55.41	288.16	4.91	-36.4	-37.2	21.9	0.00e+00	0	39	0	3574595584	44	6563
2026-01-01 20:19:59.45	287.79	4.69	-36.6	-37.5	21.8	0.00e+00	0	39	0	3597664256	44	6779
2026-01-01 20:20:03.49	287.41	4.46	-36.6	-37.5	21.7	0.00e+00	0	39	0	3620732928	44	6794
2026-01-01 20:20:07.53	287.05	4.24	-36.7	-37.6	21.6	0.00e+00	0	39	0	3642753024	46	6141
2026-01-01 20:20:11.56	286.69	4.02	-36.9	-37.7	21.4	0.00e+00	0	39	0	3665821696	46	6185
2026-01-01 20:20:15.60	286.33	3.80	-36.8	-37.7	21.4	0.00e+00	0	39	0	3688890368	46	6187
2026-01-01 20:20:19.64	285.98	3.58	-36.5	-37.3	21.6	0.00e+00	0	39	0	3710910464	46	5927
2026-01-01 20:20:23.68	285.64	3.36	-37.0	-37.9	21.0	0.00e+00	0	39	0	3733979136	46	6373
2026-01-01 20:20:27.72	285.30	3.14	-37.0	-38.0	21.0	0.00e+00	0	39	0	3757047808	46	6403
2026-01-01 20:20:31.76	284.97	2.92	-48.7	-60.9	3.6	8.45e-01	0	39	104	3772776448	60	39867
2026-01-01 20:20:35.80	284.64	2.70	-49.3	-61.4	3.6	8.45e-01	0	39	104	3772776448	60	42433
2026-01-01 20:20:39.84	284.32	2.49	-49.3	-61.5	3.6	8.45e-01	0	39	104	3772776448	60	42914
2026-01-01 20:20:43.88	284.00	2.27	-49.1	-61.4	3.6	8.45e-01	0	39	104	3772776448	60	42334
2026-01-01 20:20:47.92	283.68	2.06	-49.2	-61.4	3.6	8.45e-01	0	39	104	3772776448	60	42353
2026-01-01 20:20:51.96	283.37	1.84	-49.2	-61.3	3.6	8.46e-01	0	39	104	3772776448	60	42173
2026-01-01 20:20:56.00	283.07	1.63	-49.2	-61.3	3.6	8.46e-01	0	39	104	3772776448	60	41907
2026-01-01 20:21:00.04	282.77	1.42	-49.2	-61.3	3.6	8.45e-01	0	39	104	3772776448	60	42128
2026-01-01 20:21:04.08	282.47	1.20	-49.2	-61.3	3.6	8.45e-01	0	40	104	3772776448	60	42176
2026-01-01 20:21:08.12	282.18	0.99	-49.2	-61.3	3.6	8.47e-01	0	40	104	3772776448	60	42206
2026-01-01 20:21:12.16	281.90	0.78	-49.2	-61.4	3.6	8.46e-01	0	39	104	3772776448	60	42318
2026-01-01 20:21:16.21	281.61	0.57	-49.2	-61.3	3.6	8.46e-01	0	40	104	3772776448	60	42089
2026-01-01 20:21:20.25	281.33	0.37	-49.2	-61.3	3.6	8.45e-01	0	39	104	3772776448	60	42142
2026-01-01 20:21:24.28	281.06	0.16	-49.2	-61.3	3.6	8.44e-01	0	39	104	3772776448	60	42125

#Closed at: 2026-01-01 20:21:28
#Recorded file [3772 MB]: D:/lorett/data/35029_260102_080820.dat