passes_logs/2026/01/01/R4.6S_Anadyr/R4.6S_Anadyr__20260101_002039_SUOMI_NPP_rec.log

#Pass ID: 20260101_002039_SUOMI NPP
#Satellite: SUOMI NPP
#Configuration: NPP
#almurnet v.1.7.20251203
#Start time: 2026-01-01 00:20:42

#Version: 2.2.20231116
#Station: R4.6S_Anadyr
#Location: 177.4865 lon 64.73178 lat
#TLE: 1 37849U 11061A   25364.87906318  .00000195  00000+0  11345-3 0  9993
#TLE: 2 37849  98.7794 302.0592 0002571  89.2401 270.9069 14.19520347734561

#Time	Az	El	Level	Level2	SNR	BER	BlckErr	Temp	State	Recorded	gain1	gain2
2026-01-01 00:20:42.52	157.71	0.19	-49.1	-62.9	3.3	1.54e+00	0	37	0	0	60	50583
2026-01-01 00:20:46.56	157.73	0.44	-49.2	-64.4	3.6	1.51e+00	0	37	104	0	60	60319
2026-01-01 00:20:50.60	157.75	0.69	-48.8	-64.0	3.6	1.51e+00	0	37	104	0	60	57451
2026-01-01 00:20:54.64	157.77	0.93	-47.7	-62.9	3.5	1.51e+00	0	37	104	0	60	50258
2026-01-01 00:20:58.68	157.80	1.19	-47.6	-62.8	3.6	1.51e+00	0	37	104	0	60	49752
2026-01-01 00:21:02.72	157.82	1.44	-47.6	-62.7	3.6	1.51e+00	0	37	104	0	60	49301
2026-01-01 00:21:06.76	157.84	1.69	-47.6	-62.6	3.6	1.51e+00	0	37	104	0	60	49040
2026-01-01 00:21:10.74	157.86	1.95	-47.6	-62.7	3.6	1.51e+00	0	37	104	0	60	49262
2026-01-01 00:21:14.57	157.88	2.20	-47.6	-62.7	3.6	1.51e+00	0	38	104	0	60	49059
2026-01-01 00:21:18.42	157.91	2.45	-47.6	-62.4	3.6	1.51e+00	0	37	104	0	60	47619
2026-01-01 00:21:22.29	157.93	2.70	-47.5	-62.0	3.6	1.51e+00	0	38	104	0	60	45474
2026-01-01 00:21:26.16	157.95	2.95	-47.5	-61.3	3.6	1.51e+00	0	38	104	0	60	42101
2026-01-01 00:21:30.00	157.97	3.21	-46.7	-53.4	7.2	2.14e-01	0	38	0	3145728	60	16895
2026-01-01 00:21:33.86	158.00	3.47	-45.2	-49.1	12.4	2.66e-04	80	38	0	10485760	60	10348
2026-01-01 00:21:37.70	158.02	3.73	-47.5	-62.0	3.6	6.50e-01	0	38	104	17825792	60	45372
2026-01-01 00:21:41.57	158.04	4.00	-42.9	-45.0	15.8	1.56e-02	68	38	0	18874368	60	6416
2026-01-01 00:21:45.61	158.07	4.28	-43.5	-45.9	15.8	0.00e+00	0	38	0	23068672	60	7162
2026-01-01 00:21:49.64	158.09	4.56	-43.2	-45.5	16.4	0.00e+00	0	38	0	30408704	60	6788
2026-01-01 00:21:53.68	158.11	4.85	-43.1	-45.3	16.6	0.00e+00	92	38	0	37748736	60	6683
2026-01-01 00:21:57.72	158.14	5.14	-42.7	-44.7	17.0	0.00e+00	90	38	0	45088768	58	6977
2026-01-01 00:22:01.75	158.17	5.43	-42.4	-44.3	17.7	0.00e+00	0	38	0	53477376	58	6617
2026-01-01 00:22:05.79	158.19	5.72	-42.5	-44.4	17.6	0.00e+00	81	38	0	60817408	58	6764
2026-01-01 00:22:09.83	158.22	6.02	-42.5	-44.4	17.7	0.00e+00	88	38	0	68157440	58	6708
2026-01-01 00:22:13.87	158.24	6.33	-42.6	-44.5	17.7	0.00e+00	89	38	0	75497472	58	6803
2026-01-01 00:22:17.90	158.27	6.63	-42.5	-44.4	17.7	0.00e+00	0	38	0	83886080	58	6720
2026-01-01 00:22:21.94	158.30	6.94	-42.1	-43.9	18.2	0.00e+00	91	38	0	91226112	58	6333
2026-01-01 00:22:25.97	158.32	7.26	-42.0	-43.7	18.4	0.00e+00	92	38	0	98566144	58	6234
2026-01-01 00:22:30.01	158.35	7.57	-42.0	-43.6	18.5	0.00e+00	0	38	0	105906176	56	6921
2026-01-01 00:22:34.04	158.38	7.89	-42.1	-43.7	18.5	0.00e+00	0	38	0	113246208	56	6975
2026-01-01 00:22:38.08	158.41	8.22	-42.0	-43.6	18.6	0.00e+00	71	38	0	121634816	56	6887
2026-01-01 00:22:42.11	158.43	8.55	-41.8	-43.4	18.9	0.00e+00	92	38	0	128974848	56	6703
2026-01-01 00:22:46.14	158.46	8.88	-42.0	-43.6	18.9	0.00e+00	0	38	0	136314880	56	6884
2026-01-01 00:22:50.18	158.49	9.22	-41.9	-43.5	18.9	0.00e+00	0	38	0	143654912	56	6818
2026-01-01 00:22:54.22	158.52	9.57	-41.7	-43.2	19.1	0.00e+00	92	38	0	152043520	56	6591
2026-01-01 00:22:58.26	158.55	9.92	-41.4	-42.9	19.4	0.00e+00	92	38	0	159383552	56	6348
2026-01-01 00:23:02.30	158.58	10.27	-41.2	-42.6	19.8	0.00e+00	0	38	0	166723584	56	6147
2026-01-01 00:23:06.34	158.61	10.63	-41.0	-42.4	19.9	0.00e+00	92	38	0	174063616	56	5970
2026-01-01 00:23:10.37	158.64	10.99	-40.9	-42.2	20.1	0.00e+00	82	38	0	181403648	56	5888
2026-01-01 00:23:14.41	158.67	11.36	-40.6	-41.9	20.3	0.00e+00	0	38	0	189792256	54	6340
2026-01-01 00:23:18.45	158.71	11.74	-40.5	-41.8	20.5	0.00e+00	0	38	0	197132288	54	6269
2026-01-01 00:23:22.49	158.74	12.12	-40.4	-41.7	20.6	0.00e+00	92	38	0	204472320	54	6196
2026-01-01 00:23:26.53	158.77	12.50	-40.1	-41.3	20.9	0.00e+00	92	38	0	211812352	54	5916
2026-01-01 00:23:30.57	158.80	12.90	-39.8	-41.0	21.2	0.00e+00	0	38	0	220200960	54	5733
2026-01-01 00:23:34.60	158.84	13.30	-39.7	-40.8	21.4	0.00e+00	0	38	0	227540992	52	6276
2026-01-01 00:23:38.64	158.87	13.70	-39.6	-40.7	21.5	0.00e+00	70	38	0	234881024	52	6179
2026-01-01 00:23:42.68	158.91	14.12	-39.2	-40.2	21.9	0.00e+00	92	38	0	242221056	52	5878
2026-01-01 00:23:46.72	158.94	14.54	-39.1	-40.2	22.1	0.00e+00	33	38	0	249561088	52	5832
2026-01-01 00:23:50.75	158.98	14.96	-38.9	-40.0	22.2	0.00e+00	84	38	0	257949696	52	5701
2026-01-01 00:23:54.79	159.02	15.40	-38.3	-39.3	22.7	0.00e+00	88	38	0	265289728	50	5899
2026-01-01 00:23:58.83	159.06	15.84	-38.2	-39.2	22.7	0.00e+00	0	38	0	272629760	50	5856
2026-01-01 00:24:02.87	159.09	16.30	-38.3	-39.3	22.4	0.00e+00	0	38	0	279969792	50	5899
2026-01-01 00:24:06.91	159.13	16.76	-38.0	-38.9	23.1	0.00e+00	92	38	0	288358400	50	5695
2026-01-01 00:24:10.95	159.17	17.23	-38.0	-39.0	23.1	0.00e+00	88	38	0	295698432	50	5708
2026-01-01 00:24:14.99	159.22	17.70	-37.7	-38.6	23.4	0.00e+00	0	38	0	303038464	48	6152
2026-01-01 00:24:19.03	159.26	18.19	-37.6	-38.5	23.4	0.00e+00	0	38	0	310378496	48	6051
2026-01-01 00:24:23.06	159.30	18.69	-37.7	-38.6	23.4	0.00e+00	35	38	0	317718528	48	6108
2026-01-01 00:24:27.10	159.34	19.20	-37.8	-38.7	23.2	0.00e+00	92	38	0	326107136	48	6224
2026-01-01 00:24:31.14	159.39	19.72	-37.9	-38.8	23.2	0.00e+00	0	38	0	333447168	48	6301
2026-01-01 00:24:35.18	159.43	20.25	-37.8	-38.7	23.3	0.00e+00	0	38	0	340787200	48	6240
2026-01-01 00:24:39.22	159.48	20.79	-38.0	-39.0	23.0	0.00e+00	87	38	0	348127232	48	6409
2026-01-01 00:24:43.25	159.53	21.34	-38.0	-38.9	23.2	0.00e+00	90	38	0	356515840	48	6352
2026-01-01 00:24:47.30	159.58	21.91	-38.2	-39.2	22.9	0.00e+00	0	38	0	363855872	48	6572
2026-01-01 00:24:51.33	159.63	22.48	-38.4	-39.3	22.9	0.00e+00	88	38	0	371195904	48	6691
2026-01-01 00:24:55.37	159.68	23.08	-38.1	-39.0	23.1	0.00e+00	92	38	0	378535936	48	6436
2026-01-01 00:24:59.41	159.74	23.68	-38.3	-39.2	22.9	0.00e+00	2	38	0	385875968	48	6614
2026-01-01 00:25:03.45	159.79	24.30	-38.4	-39.3	22.7	0.00e+00	0	38	0	394264576	48	6648
2026-01-01 00:25:07.49	159.85	24.94	-38.2	-39.2	23.0	0.00e+00	92	38	0	401604608	48	6548
2026-01-01 00:25:11.53	159.91	25.59	-37.8	-38.7	23.2	0.00e+00	92	38	0	408944640	48	6207
2026-01-01 00:25:15.57	159.97	26.26	-38.2	-39.1	23.1	0.00e+00	0	38	0	416284672	48	6512
2026-01-01 00:25:19.61	160.03	26.94	-38.8	-39.7	22.6	0.00e+00	0	38	0	424673280	50	6227
2026-01-01 00:25:23.64	160.10	27.64	-38.4	-39.3	22.9	0.00e+00	85	38	0	432013312	50	5948
2026-01-01 00:25:27.68	160.16	28.36	-39.2	-40.2	22.3	0.00e+00	92	38	0	439353344	50	6554
2026-01-01 00:25:31.72	160.23	29.10	-40.0	-41.2	21.4	0.00e+00	0	38	0	446693376	52	6566
2026-01-01 00:25:35.76	160.31	29.86	-40.3	-41.5	21.2	0.00e+00	88	38	0	454033408	52	6796
2026-01-01 00:25:39.79	160.38	30.64	-40.3	-41.4	21.3	0.00e+00	87	38	0	462422016	52	6767
2026-01-01 00:25:43.83	160.46	31.44	-40.3	-41.5	21.6	0.00e+00	63	38	0	469762048	52	6774
2026-01-01 00:25:47.87	160.54	32.26	-39.8	-40.9	21.7	0.00e+00	0	38	0	477102080	52	6360
2026-01-01 00:25:51.90	160.62	33.11	-40.5	-41.6	21.1	0.00e+00	90	38	0	484442112	52	6922
2026-01-01 00:25:55.94	160.71	33.98	-40.7	-41.9	20.7	0.00e+00	92	38	0	492830720	54	6330
2026-01-01 00:25:59.98	160.81	34.88	-39.8	-40.9	22.0	0.00e+00	0	38	0	500170752	52	6324
2026-01-01 00:26:04.02	160.90	35.80	-38.2	-39.1	23.2	0.00e+00	0	38	0	507510784	50	5816
2026-01-01 00:26:08.06	161.01	36.75	-37.0	-37.9	24.1	0.00e+00	92	38	0	514850816	48	5632
2026-01-01 00:26:12.09	161.11	37.73	-36.6	-37.4	24.5	0.00e+00	92	38	0	522190848	46	5967
2026-01-01 00:26:16.13	161.23	38.74	-36.2	-37.0	24.7	0.00e+00	0	38	0	530579456	46	5701
2026-01-01 00:26:20.17	161.35	39.77	-36.7	-37.6	24.4	7.00e-07	0	38	0	537919488	46	6117
2026-01-01 00:26:24.21	161.47	40.85	-37.0	-37.9	24.0	0.00e+00	92	38	0	545259520	46	6353
2026-01-01 00:26:28.24	161.61	41.95	-38.2	-39.2	23.2	0.00e+00	92	38	0	552599552	48	6557
2026-01-01 00:26:32.28	161.75	43.08	-38.6	-39.6	23.0	0.00e+00	33	38	0	559939584	48	6852
2026-01-01 00:26:36.32	161.91	44.25	-38.6	-39.5	22.9	0.00e+00	92	38	0	568328192	50	6089
2026-01-01 00:26:40.35	162.07	45.46	-40.3	-41.5	21.2	0.00e+00	92	38	0	575668224	52	6781
2026-01-01 00:26:44.39	162.24	46.70	-40.4	-41.5	21.2	0.00e+00	0	38	0	583008256	52	6832
2026-01-01 00:26:48.42	162.43	47.98	-40.3	-41.4	21.2	0.00e+00	0	38	0	590348288	54	5972
2026-01-01 00:26:52.46	162.64	49.31	-40.3	-41.5	21.1	0.00e+00	90	38	0	598736896	54	6040
2026-01-01 00:26:56.50	162.86	50.67	-38.8	-39.8	22.7	0.00e+00	92	38	0	606076928	52	5580
2026-01-01 00:27:00.53	163.10	52.07	-36.2	-36.9	24.8	0.00e+00	0	38	0	613416960	46	5676
2026-01-01 00:27:04.57	163.36	53.51	-37.7	-38.7	23.5	0.00e+00	0	38	0	620756992	48	6181
2026-01-01 00:27:08.61	163.66	55.00	-37.7	-38.6	23.6	0.00e+00	89	38	0	628097024	48	6136
2026-01-01 00:27:12.65	163.98	56.52	-36.3	-37.1	24.6	0.00e+00	91	38	0	636485632	46	5787
2026-01-01 00:27:16.68	164.33	58.09	-37.4	-38.3	23.8	0.00e+00	0	38	0	643825664	48	5912
2026-01-01 00:27:20.72	164.73	59.70	-36.7	-37.5	24.4	0.00e+00	0	38	0	651165696	46	6070
2026-01-01 00:27:24.76	165.19	61.35	-36.2	-37.0	24.6	0.00e+00	92	38	0	658505728	46	5700
2026-01-01 00:27:28.79	165.70	63.04	-35.8	-36.6	24.9	0.00e+00	0	38	0	666894336	44	6147
2026-01-01 00:27:32.82	166.29	64.77	-35.7	-36.4	25.2	0.00e+00	0	38	0	674234368	44	6024
2026-01-01 00:27:36.86	166.98	66.54	-36.3	-37.1	24.5	0.00e+00	92	38	0	681574400	44	6508
2026-01-01 00:27:40.90	167.80	68.34	-39.4	-40.5	22.2	0.00e+00	82	38	0	688914432	50	6788
2026-01-01 00:27:44.93	168.77	70.18	-40.6	-41.9	20.9	0.00e+00	0	38	0	696254464	54	6327
2026-01-01 00:27:48.97	169.95	72.04	-40.2	-41.4	21.5	0.00e+00	0	38	0	704643072	54	6000
2026-01-01 00:27:53.01	171.43	73.93	-37.4	-38.3	23.7	0.00e+00	33	38	0	711983104	46	6687
2026-01-01 00:27:57.04	173.31	75.84	-40.1	-41.3	21.6	0.00e+00	92	38	0	719323136	52	6623
2026-01-01 00:28:01.08	175.80	77.75	-39.9	-41.0	21.5	0.00e+00	0	38	0	726663168	50	7192
2026-01-01 00:28:05.12	179.23	79.66	-38.9	-39.8	22.6	0.00e+00	0	38	0	734003200	52	5611
2026-01-01 00:28:09.16	184.23	81.53	-42.8	-44.6	18.6	0.00e+00	79	38	0	742391808	56	7690
2026-01-01 00:28:13.19	191.98	83.31	-39.1	-40.1	22.5	0.00e+00	0	38	0	749731840	52	5787
2026-01-01 00:28:17.22	204.96	84.90	-39.4	-40.5	22.0	0.00e+00	0	38	0	757071872	50	6770
2026-01-01 00:28:21.26	227.29	86.03	-41.0	-42.3	21.1	0.00e+00	90	38	0	764411904	54	6622
2026-01-01 00:28:25.30	258.36	86.24	-36.1	-36.9	24.7	0.00e+00	90	38	0	772800512	46	5655
2026-01-01 00:28:29.34	284.85	85.41	-38.9	-39.9	22.3	0.00e+00	0	38	0	780140544	52	5639
2026-01-01 00:28:33.37	300.87	83.95	-38.2	-39.2	23.0	0.00e+00	0	38	0	787480576	48	6576
2026-01-01 00:28:37.41	310.25	82.22	-40.2	-41.3	21.2	0.00e+00	76	38	0	794820608	52	6676
2026-01-01 00:28:41.45	316.11	80.38	-39.7	-40.7	21.9	0.00e+00	91	38	0	802160640	52	6233
2026-01-01 00:28:45.49	320.04	78.48	-41.4	-42.8	20.1	0.00e+00	0	38	0	810549248	56	6291
2026-01-01 00:28:49.53	322.83	76.57	-39.3	-40.4	21.9	0.00e+00	0	38	0	817889280	52	5975
2026-01-01 00:28:53.57	324.92	74.66	-40.9	-42.1	20.5	0.00e+00	50	38	0	825229312	52	7322
2026-01-01 00:28:57.61	326.53	72.77	-44.2	-46.5	16.5	0.00e+00	0	38	0	832569344	60	7654
2026-01-01 00:29:01.65	327.82	70.89	-43.6	-45.6	17.8	0.00e+00	0	38	0	840957952	60	6924
2026-01-01 00:29:05.69	328.86	69.05	-38.8	-39.7	22.6	0.00e+00	91	38	0	848297984	52	5543
2026-01-01 00:29:09.73	329.73	67.23	-40.8	-42.2	20.7	0.00e+00	92	38	0	855638016	52	7348
2026-01-01 00:29:13.77	330.46	65.45	-38.6	-39.6	22.9	0.00e+00	0	38	0	862978048	50	6106
2026-01-01 00:29:17.81	331.09	63.71	-38.4	-39.5	22.9	0.00e+00	0	38	0	870318080	48	6772
2026-01-01 00:29:21.85	331.63	62.01	-36.9	-37.7	24.2	0.00e+00	70	38	0	878706688	46	6205
2026-01-01 00:29:25.89	332.11	60.34	-41.4	-42.8	20.4	0.00e+00	92	38	0	886046720	56	6307
2026-01-01 00:29:29.93	332.53	58.72	-39.9	-41.0	21.6	0.00e+00	0	38	0	893386752	50	7219
2026-01-01 00:29:33.96	332.90	57.14	-37.7	-38.6	23.6	0.00e+00	0	38	0	900726784	48	6131
2026-01-01 00:29:38.00	333.24	55.60	-38.1	-39.1	23.0	0.00e+00	92	38	0	909115392	50	5801
2026-01-01 00:29:42.04	333.54	54.11	-38.5	-39.4	23.0	0.00e+00	0	38	0	916455424	50	6029
2026-01-01 00:29:46.08	333.81	52.65	-39.0	-39.9	22.5	0.00e+00	0	38	0	923795456	50	6380
2026-01-01 00:29:50.11	334.06	51.24	-42.3	-43.9	19.2	0.00e+00	0	38	0	931135488	56	7166
2026-01-01 00:29:54.15	334.29	49.87	-38.1	-39.0	23.4	0.00e+00	60	38	0	938475520	50	5744
2026-01-01 00:29:58.18	334.50	48.54	-41.2	-42.6	20.2	0.00e+00	4	38	0	946864128	54	6906
2026-01-01 00:30:02.22	334.70	47.25	-38.5	-39.5	23.1	0.00e+00	0	38	0	954204160	50	6080
2026-01-01 00:30:06.26	334.88	45.99	-38.1	-39.0	23.2	0.00e+00	92	38	0	961544192	50	5735
2026-01-01 00:30:10.30	335.05	44.77	-40.2	-41.5	21.2	0.00e+00	92	38	0	968884224	52	6791
2026-01-01 00:30:14.33	335.21	43.59	-36.6	-37.4	24.5	0.00e+00	0	38	0	976224256	46	5972
2026-01-01 00:30:18.37	335.35	42.45	-38.4	-39.4	22.8	0.00e+00	0	38	0	984612864	48	6723
2026-01-01 00:30:22.41	335.49	41.34	-40.1	-41.4	21.4	0.00e+00	90	38	0	991952896	54	5965
2026-01-01 00:30:26.44	335.62	40.26	-39.3	-40.2	22.5	0.00e+00	61	38	0	999292928	52	5879
2026-01-01 00:30:30.48	335.75	39.21	-38.4	-39.3	23.0	0.00e+00	0	38	0	1006632960	48	6686
2026-01-01 00:30:34.52	335.86	38.19	-44.4	-47.1	16.0	0.00e+00	0	38	0	1015021568	60	8168
2026-01-01 00:30:38.55	335.98	37.21	-44.9	-48.4	14.5	0.00e+00	85	38	0	1022361600	60	9495
2026-01-01 00:30:42.59	336.08	36.25	-40.2	-41.3	21.4	0.00e+00	0	38	0	1029701632	54	5939
2026-01-01 00:30:46.63	336.18	35.32	-40.7	-41.9	20.9	0.00e+00	0	38	0	1037041664	52	7120
2026-01-01 00:30:50.66	336.28	34.42	-45.1	-48.1	15.0	0.00e+00	76	38	0	1044381696	60	9234
2026-01-01 00:30:54.70	336.37	33.54	-45.6	-49.0	13.9	0.00e+00	91	38	0	1052770304	60	10231
2026-01-01 00:30:58.74	336.46	32.69	-43.7	-45.8	17.4	0.00e+00	0	38	0	1060110336	60	7028
2026-01-01 00:31:02.78	336.54	31.86	-39.8	-40.9	21.8	0.00e+00	0	38	0	1067450368	54	5648
2026-01-01 00:31:06.82	336.62	31.05	-40.5	-41.6	21.1	0.00e+00	86	38	0	1074790400	52	6920
2026-01-01 00:31:10.85	336.70	30.26	-42.0	-43.6	19.4	0.00e+00	0	38	0	1083179008	56	6867
2026-01-01 00:31:14.89	336.77	29.50	-40.9	-42.3	20.5	0.00e+00	0	38	0	1090519040	56	5900
2026-01-01 00:31:18.93	336.85	28.75	-40.0	-41.2	21.5	0.00e+00	0	38	0	1097859072	54	5840
2026-01-01 00:31:22.96	336.92	28.03	-39.3	-40.3	22.2	0.00e+00	87	38	0	1105199104	52	5901
2026-01-01 00:31:27.00	336.98	27.32	-38.5	-39.4	22.8	0.00e+00	0	38	0	1112539136	50	6011
2026-01-01 00:31:31.04	337.05	26.63	-37.9	-38.8	23.4	0.00e+00	0	38	0	1120927744	50	5616
2026-01-01 00:31:35.08	337.11	25.96	-37.4	-38.3	23.7	0.00e+00	73	38	0	1128267776	48	5936
2026-01-01 00:31:39.11	337.17	25.31	-37.7	-38.6	23.5	0.00e+00	0	38	0	1135607808	48	6164
2026-01-01 00:31:43.15	337.23	24.67	-38.1	-39.1	23.0	0.00e+00	0	38	0	1142947840	48	6468
2026-01-01 00:31:47.18	337.29	24.05	-38.0	-38.9	23.2	0.00e+00	0	38	0	1150287872	48	6375
2026-01-01 00:31:51.22	337.35	23.44	-36.9	-37.7	24.1	0.00e+00	30	38	0	1158676480	48	5560
2026-01-01 00:31:55.26	337.40	22.84	-36.7	-37.6	24.1	0.00e+00	0	38	0	1166016512	46	6116
2026-01-01 00:31:59.29	337.46	22.26	-36.9	-37.7	24.0	0.00e+00	33	38	0	1173356544	46	6207
2026-01-01 00:32:03.33	337.51	21.69	-37.1	-38.0	23.8	0.00e+00	0	38	0	1180696576	46	6444
2026-01-01 00:32:07.37	337.56	21.13	-37.5	-38.4	23.4	0.00e+00	86	38	0	1189085184	46	6728
2026-01-01 00:32:11.41	337.61	20.59	-37.7	-38.6	23.3	0.00e+00	0	38	0	1196425216	46	6895
2026-01-01 00:32:15.44	337.66	20.06	-37.8	-38.7	23.3	0.00e+00	0	38	0	1203765248	48	6207
2026-01-01 00:32:19.48	337.70	19.54	-37.8	-38.7	23.1	0.00e+00	0	38	0	1211105280	48	6240
2026-01-01 00:32:23.52	337.75	19.03	-37.6	-38.5	23.3	0.00e+00	92	38	0	1218445312	48	6077
2026-01-01 00:32:27.56	337.80	18.52	-37.3	-38.2	23.6	0.00e+00	0	38	0	1226833920	48	5872
2026-01-01 00:32:31.60	337.84	18.03	-37.5	-38.4	23.3	0.00e+00	0	38	0	1234173952	48	6008
2026-01-01 00:32:35.64	337.88	17.55	-37.7	-38.6	23.3	0.00e+00	79	38	0	1241513984	48	6160
2026-01-01 00:32:39.68	337.93	17.08	-37.7	-38.7	23.0	0.00e+00	0	38	0	1248854016	48	6179
2026-01-01 00:32:43.72	337.97	16.62	-37.6	-38.6	23.2	0.00e+00	0	38	0	1257242624	48	6119
2026-01-01 00:32:47.76	338.01	16.16	-37.6	-38.6	23.2	0.00e+00	0	38	0	1264582656	48	6135
2026-01-01 00:32:51.79	338.05	15.72	-37.9	-38.9	22.9	0.00e+00	82	38	0	1271922688	48	6335
2026-01-01 00:32:55.83	338.09	15.28	-37.8	-38.8	23.0	0.00e+00	0	38	0	1279262720	48	6295
2026-01-01 00:32:59.87	338.13	14.85	-38.4	-39.4	22.5	0.00e+00	0	38	0	1286602752	48	6766
2026-01-01 00:33:03.90	338.17	14.43	-38.5	-39.6	22.4	0.00e+00	9	38	0	1294991360	48	6894
2026-01-01 00:33:07.94	338.21	14.01	-38.7	-39.8	22.2	0.00e+00	92	38	0	1302331392	50	6294
2026-01-01 00:33:11.97	338.24	13.61	-38.5	-39.6	22.4	0.00e+00	0	38	0	1309671424	50	6126
2026-01-01 00:33:16.01	338.28	13.21	-38.3	-39.4	22.5	0.00e+00	0	38	0	1317011456	50	6004
2026-01-01 00:33:20.05	338.32	12.81	-38.4	-39.5	22.4	0.00e+00	0	38	0	1325400064	50	6045
2026-01-01 00:33:24.09	338.35	12.42	-38.3	-39.3	22.5	0.00e+00	0	38	0	1332740096	50	5962
2026-01-01 00:33:28.12	338.39	12.04	-38.4	-39.5	22.5	0.00e+00	0	38	0	1340080128	50	6034
2026-01-01 00:33:32.16	338.42	11.66	-38.3	-39.4	22.5	0.00e+00	0	38	0	1347420160	50	6003
2026-01-01 00:33:36.20	338.46	11.29	-38.4	-39.4	22.5	0.00e+00	80	38	0	1354760192	50	6025
2026-01-01 00:33:40.24	338.49	10.93	-38.6	-39.7	22.2	0.00e+00	0	38	0	1363148800	50	6199
2026-01-01 00:33:44.27	338.53	10.57	-38.6	-39.7	22.1	0.00e+00	0	38	0	1370488832	50	6241
2026-01-01 00:33:48.31	338.56	10.21	-38.5	-39.6	22.2	0.00e+00	0	38	0	1377828864	50	6144
2026-01-01 00:33:52.34	338.59	9.86	-38.8	-40.0	21.9	0.00e+00	70	38	0	1385168896	50	6401
2026-01-01 00:33:56.38	338.63	9.52	-38.8	-39.9	21.8	0.00e+00	0	38	0	1393557504	50	6374
2026-01-01 00:34:00.41	338.66	9.18	-39.0	-40.2	21.6	0.00e+00	0	38	0	1400897536	50	6560
2026-01-01 00:34:04.45	338.69	8.84	-38.9	-40.0	21.8	0.00e+00	0	38	0	1408237568	50	6437
2026-01-01 00:34:08.49	338.72	8.51	-39.0	-40.2	21.6	0.00e+00	44	38	0	1415577600	50	6548
2026-01-01 00:34:12.52	338.75	8.19	-39.1	-40.3	21.5	0.00e+00	0	38	0	1422917632	50	6647
2026-01-01 00:34:16.56	338.78	7.86	-39.1	-40.2	21.6	0.00e+00	0	38	0	1431306240	50	6610
2026-01-01 00:34:20.60	338.81	7.54	-39.1	-40.2	21.5	0.00e+00	78	38	0	1438646272	50	6586
2026-01-01 00:34:24.63	338.84	7.23	-39.2	-40.3	21.5	0.00e+00	0	38	0	1445986304	50	6673
2026-01-01 00:34:28.67	338.87	6.92	-39.1	-40.3	21.5	0.00e+00	0	38	0	1453326336	50	6624
2026-01-01 00:34:32.71	338.90	6.61	-39.3	-40.5	21.2	0.00e+00	0	38	0	1461714944	50	6818
2026-01-01 00:34:36.75	338.93	6.31	-39.0	-40.1	21.4	0.00e+00	92	38	0	1469054976	50	6531
2026-01-01 00:34:40.79	338.96	6.01	-39.0	-40.1	21.4	0.00e+00	0	38	0	1476395008	50	6537
2026-01-01 00:34:44.83	338.99	5.71	-39.3	-40.5	20.9	0.00e+00	0	38	0	1483735040	50	6841
2026-01-01 00:34:48.86	339.02	5.42	-40.0	-41.4	19.9	0.00e+00	0	38	0	1491075072	52	6743
2026-01-01 00:34:52.90	339.05	5.13	-40.8	-42.6	18.0	0.00e+00	89	38	0	1499463680	54	6905
2026-01-01 00:34:56.94	339.08	4.84	-42.1	-44.8	15.3	0.00e+00	0	38	0	1506803712	56	7935
2026-01-01 00:35:00.98	339.11	4.56	-43.3	-47.7	11.6	3.20e-04	0	38	0	1514143744	58	9886
2026-01-01 00:35:05.00	339.14	4.28	-44.0	-51.1	7.0	6.98e-02	77	38	0	1521483776	60	12921
2026-01-01 00:35:09.04	339.16	4.00	-44.3	-54.0	4.1	9.53e-01	0	38	0	1529872384	60	18213
2026-01-01 00:35:13.08	339.19	3.73	-44.3	-58.0	3.6	1.51e+00	0	38	104	1530920960	60	28813
2026-01-01 00:35:17.11	339.22	3.45	-44.4	-59.6	3.6	1.51e+00	0	38	104	1530920960	60	34635
2026-01-01 00:35:21.16	339.25	3.18	-44.3	-59.4	3.6	1.51e+00	0	38	104	1530920960	60	33776
2026-01-01 00:35:25.20	339.27	2.92	-48.4	-63.6	3.6	1.51e+00	0	38	104	1530920960	60	54485
2026-01-01 00:35:29.23	339.30	2.65	-49.1	-64.3	3.6	1.51e+00	0	38	104	1530920960	60	59604
2026-01-01 00:35:33.27	339.33	2.39	-48.5	-64.3	3.6	1.51e+00	0	38	104	1530920960	60	59497
2026-01-01 00:35:37.32	339.36	2.13	-49.0	-64.3	3.6	1.51e+00	0	38	104	1530920960	60	58997
2026-01-01 00:35:41.35	339.38	1.87	-49.1	-64.3	3.5	1.51e+00	0	38	104	1530920960	60	59166
2026-01-01 00:35:45.39	339.41	1.62	-49.1	-64.2	3.6	1.51e+00	0	38	104	1530920960	60	58929
2026-01-01 00:35:49.43	339.44	1.37	-49.1	-64.3	3.6	1.51e+00	0	38	104	1530920960	60	59047
2026-01-01 00:35:53.47	339.46	1.11	-49.1	-64.2	3.6	1.51e+00	0	38	104	1530920960	60	58822
2026-01-01 00:35:57.51	339.49	0.87	-49.1	-64.3	3.6	1.51e+00	0	38	104	1530920960	60	59032
2026-01-01 00:36:01.55	339.51	0.62	-49.1	-64.2	3.6	1.51e+00	0	38	104	1530920960	60	58828
2026-01-01 00:36:05.59	339.54	0.38	-49.1	-64.3	3.6	1.51e+00	0	38	104	1530920960	60	59149
2026-01-01 00:36:09.63	339.57	0.13	-49.1	-64.2	3.6	1.51e+00	0	38	104	1530920960	60	58766

#Closed at: 2026-01-01 00:36:12
#Recorded file [1530 MB]: D:/lorett/data/35029_260101_122042.dat