passes_logs/2026/01/01/R4.6S_Anadyr/R4.6S_Anadyr__20260101_223705_TY-42_rec.log

#Pass ID: 20260101_223705_TY-42
#Satellite: TY-42
#Configuration: TY-42_900M
#almurnet v.1.7.20251203
#Start time: 2026-01-01 22:37:35

#Version: 2.2.20231116
#Station: R4.6S_Anadyr
#Location: 177.4865 lon 64.73178 lat
#TLE: 1 64048U 25103A   26001.66820602  .00008015  00000-0  38191-3 0 09991
#TLE: 2 64048 097.4120 077.3378 0001817 093.9765 301.2032 15.19188665 34792

#Time	Az	El	Level	Level2	SNR	BER	BlckErr	Temp	State	Recorded	gain1	gain2
2026-01-01 22:37:35.64	21.07	1.90	-49.3	-61.8	3.4	1.52e+00	0	36	0	0	60	42977
2026-01-01 22:37:38.67	21.24	2.10	-48.2	-50.7	6.1	0.00e+00	0	38	104	0	60	42093
2026-01-01 22:37:41.70	21.41	2.30	-48.2	-50.7	6.1	0.00e+00	0	38	104	0	60	42074
2026-01-01 22:37:44.73	21.59	2.50	-48.2	-50.7	6.1	0.00e+00	0	38	104	0	60	41826
2026-01-01 22:37:47.76	21.76	2.71	-48.2	-50.7	6.1	0.00e+00	0	38	104	0	60	41866
2026-01-01 22:37:50.79	21.94	2.92	-48.2	-50.7	6.1	0.00e+00	0	39	104	0	60	41991
2026-01-01 22:37:53.81	22.13	3.13	-48.2	-50.6	6.1	0.00e+00	0	39	104	0	60	41560
2026-01-01 22:37:56.84	22.31	3.34	-48.1	-50.5	6.1	0.00e+00	0	39	104	0	60	41080
2026-01-01 22:37:59.87	22.50	3.55	-29.5	-29.9	15.0	0.00e+00	0	39	0	8388608	34	17193
2026-01-01 22:38:02.90	22.70	3.76	-33.7	-34.1	13.1	6.62e-02	0	39	0	343932928	40	19663
2026-01-01 22:38:05.93	22.89	3.98	-29.6	-30.0	15.0	1.02e-01	0	39	0	687865856	34	17273
2026-01-01 22:38:08.96	23.09	4.20	-42.4	-43.2	7.3	0.00e+00	1098	39	104	763363328	52	27982
2026-01-01 22:38:11.98	23.30	4.42	-31.2	-31.6	14.2	5.08e-02	0	39	0	889192448	38	16608
2026-01-01 22:38:15.01	23.51	4.64	-31.5	-31.9	14.3	1.80e-02	0	39	0	1233125376	36	19118
2026-01-01 22:38:18.04	23.72	4.87	-30.0	-30.3	14.9	4.65e-03	0	39	0	1568669696	34	17983
2026-01-01 22:38:21.07	23.93	5.10	-28.9	-29.3	15.4	3.29e-03	0	40	0	1912602624	32	17819
2026-01-01 22:38:24.10	24.15	5.33	-28.7	-29.1	15.5	1.12e-03	0	40	0	2248146944	32	17496
2026-01-01 22:38:27.12	24.37	5.56	-29.0	-29.3	15.4	1.94e-03	0	40	0	2592079872	32	17978
2026-01-01 22:38:30.15	24.60	5.79	-28.3	-28.7	15.8	1.44e-03	0	40	0	2927624192	32	16728
2026-01-01 22:38:33.18	24.83	6.03	-28.3	-28.7	15.8	6.92e-04	0	40	0	3271557120	32	16745
2026-01-01 22:38:36.21	25.07	6.27	-28.5	-28.8	15.8	4.20e-04	0	40	0	3615490048	32	16980
2026-01-01 22:38:39.24	25.31	6.51	-28.1	-28.5	16.0	3.65e-04	0	40	0	3951034368	32	16340
2026-01-01 22:38:42.26	25.56	6.76	-28.3	-28.7	15.9	5.94e-04	0	40	0	4294967296	32	16756
2026-01-01 22:38:45.29	25.81	7.01	-27.9	-28.3	16.1	4.14e-04	0	40	0	4630511616	30	17894
2026-01-01 22:38:48.32	26.06	7.26	-27.6	-28.0	16.2	2.51e-04	0	40	0	4974444544	30	17299
2026-01-01 22:38:51.35	26.32	7.51	-27.5	-27.9	16.3	2.07e-04	0	40	0	5309988864	30	17127
2026-01-01 22:38:54.38	26.59	7.77	-27.5	-27.9	16.2	1.42e-04	0	40	0	5653921792	30	17015
2026-01-01 22:38:57.40	26.86	8.03	-27.1	-27.5	16.4	1.42e-04	0	40	0	5989466112	30	16370
2026-01-01 22:39:00.43	27.14	8.29	-27.1	-27.5	16.4	1.69e-04	0	40	0	6333399040	30	16356
2026-01-01 22:39:03.46	27.42	8.56	-27.0	-27.4	16.4	4.90e-05	0	40	0	6677331968	30	16203
2026-01-01 22:39:06.49	27.71	8.83	-26.9	-27.3	16.5	4.35e-05	0	40	0	7021264896	30	15904
2026-01-01 22:39:09.52	28.01	9.10	-26.6	-27.0	16.5	4.90e-05	0	40	0	7356809216	28	17217
2026-01-01 22:39:12.54	28.31	9.38	-26.5	-26.9	16.6	1.08e-05	0	41	0	7700742144	28	17115
2026-01-01 22:39:15.57	28.62	9.66	-26.3	-26.7	16.6	0.00e+00	0	40	0	8044675072	28	16715
2026-01-01 22:39:18.60	28.94	9.94	-26.4	-26.8	16.5	1.63e-05	0	41	0	8380219392	28	16965
2026-01-01 22:39:21.62	29.26	10.23	-26.2	-26.6	16.5	1.63e-05	0	40	0	8724152320	28	16489
2026-01-01 22:39:24.66	29.60	10.52	-26.2	-26.6	16.5	3.26e-05	0	41	0	9059696640	28	16548
2026-01-01 22:39:27.68	29.94	10.81	-26.0	-26.4	16.6	3.26e-05	0	40	0	9403629568	28	16120
2026-01-01 22:39:30.71	30.28	11.11	-25.9	-26.3	16.7	1.08e-05	0	41	0	9747562496	28	15890
2026-01-01 22:39:33.74	30.64	11.42	-25.8	-26.2	16.7	1.08e-05	0	41	0	10083106816	26	17711
2026-01-01 22:39:36.77	31.01	11.72	-25.8	-26.3	16.7	2.72e-05	0	41	0	10427039744	26	17816
2026-01-01 22:39:39.79	31.38	12.03	-25.9	-26.3	16.7	5.40e-06	0	41	0	10762584064	26	17886
2026-01-01 22:39:42.82	31.76	12.35	-25.3	-25.7	16.7	0.00e+00	0	41	0	11106516992	26	16705
2026-01-01 22:39:45.85	32.16	12.67	-25.3	-25.7	16.8	0.00e+00	0	41	0	11442061312	26	16687
2026-01-01 22:39:48.88	32.56	12.99	-24.9	-25.3	16.9	0.00e+00	0	41	0	11785994240	26	15988
2026-01-01 22:39:51.91	32.98	13.32	-25.0	-25.4	16.9	0.00e+00	0	41	0	12129927168	26	16157
2026-01-01 22:39:54.94	33.40	13.66	-24.8	-25.3	16.9	0.00e+00	0	41	0	12465471488	26	15879
2026-01-01 22:39:57.97	33.84	14.00	-24.9	-25.3	16.9	0.00e+00	0	41	0	12809404416	24	17926
2026-01-01 22:40:01.00	34.28	14.34	-24.7	-25.2	17.0	0.00e+00	0	41	0	13144948736	24	17623
2026-01-01 22:40:04.02	34.74	14.69	-24.6	-25.0	17.0	0.00e+00	0	41	0	13488881664	24	17397
2026-01-01 22:40:07.05	35.22	15.04	-24.5	-24.9	17.0	0.00e+00	0	41	0	13832814592	24	17104
2026-01-01 22:40:10.08	35.70	15.40	-24.2	-24.6	17.0	0.00e+00	0	41	0	14168358912	24	16572
2026-01-01 22:40:13.11	36.20	15.76	-24.2	-24.6	17.1	0.00e+00	0	41	0	14512291840	24	16616
2026-01-01 22:40:16.14	36.71	16.13	-24.0	-24.5	17.1	0.00e+00	0	41	0	14856224768	24	16306
2026-01-01 22:40:19.16	37.24	16.51	-24.0	-24.4	17.1	0.00e+00	0	41	0	15200157696	24	16157
2026-01-01 22:40:22.19	37.79	16.89	-23.8	-24.2	16.8	0.00e+00	0	41	0	15527313408	22	17738
2026-01-01 22:40:25.22	38.34	17.27	-23.6	-24.0	17.0	0.00e+00	0	41	0	15879634944	22	17288
2026-01-01 22:40:28.25	38.92	17.66	-23.4	-23.9	17.2	0.00e+00	0	41	0	16215179264	22	17072
2026-01-01 22:40:31.28	39.51	18.06	-23.2	-23.7	17.1	0.00e+00	0	41	0	16559112192	22	16737
2026-01-01 22:40:34.31	40.13	18.46	-23.0	-23.4	17.2	0.00e+00	0	41	0	16903045120	22	16191
2026-01-01 22:40:37.34	40.76	18.87	-23.0	-23.4	17.2	0.00e+00	0	41	0	17238589440	22	16167
2026-01-01 22:40:40.37	41.41	19.28	-23.0	-23.4	17.2	0.00e+00	0	41	0	17582522368	22	16214
2026-01-01 22:40:43.40	42.08	19.70	-22.6	-23.1	17.2	0.00e+00	0	41	0	17918066688	20	17511
2026-01-01 22:40:46.43	42.77	20.13	-22.4	-22.8	17.3	0.00e+00	0	41	0	18261999616	20	16981
2026-01-01 22:40:49.46	43.48	20.56	-22.3	-22.7	17.3	0.00e+00	0	41	0	18597543936	20	16731
2026-01-01 22:40:52.48	44.21	20.99	-22.1	-22.6	17.3	0.00e+00	0	41	0	18941476864	20	16475
2026-01-01 22:40:55.51	44.97	21.43	-22.0	-22.5	17.3	0.00e+00	0	41	0	19285409792	20	16335
2026-01-01 22:40:58.54	45.75	21.88	-21.8	-22.2	17.4	0.00e+00	0	41	0	19620954112	20	15835
2026-01-01 22:41:01.57	46.56	22.33	-21.7	-22.2	17.4	0.00e+00	0	41	0	19964887040	18	17629
2026-01-01 22:41:04.59	47.39	22.78	-21.3	-21.7	17.3	0.00e+00	0	41	0	20300431360	18	16757
2026-01-01 22:41:07.62	48.25	23.24	-21.1	-21.6	17.4	0.00e+00	0	41	0	20644364288	18	16468
2026-01-01 22:41:10.64	49.14	23.70	-21.0	-21.4	17.4	0.00e+00	0	41	0	20988297216	18	16204
2026-01-01 22:41:13.67	50.06	24.16	-20.8	-21.3	17.5	0.00e+00	0	41	0	21323841536	18	15961
2026-01-01 22:41:16.69	51.01	24.63	-20.7	-21.2	17.4	0.00e+00	0	41	0	21667774464	16	17687
2026-01-01 22:41:19.72	51.99	25.10	-20.6	-21.1	17.5	0.00e+00	0	41	0	22011707392	16	17431
2026-01-01 22:41:22.75	53.01	25.57	-20.2	-20.7	17.6	0.00e+00	0	41	0	22347251712	16	16721
2026-01-01 22:41:25.78	54.06	26.05	-20.2	-20.7	17.5	0.00e+00	0	41	0	22691184640	16	16707
2026-01-01 22:41:28.81	55.14	26.52	-20.0	-20.5	17.4	0.00e+00	0	42	0	23026728960	16	16240
2026-01-01 22:41:31.83	56.25	27.00	-19.7	-20.2	17.5	0.00e+00	0	42	0	23370661888	14	17622
2026-01-01 22:41:34.86	57.41	27.47	-19.5	-20.0	17.6	0.00e+00	0	41	0	23714594816	14	17316
2026-01-01 22:41:37.89	58.60	27.94	-19.3	-19.8	17.6	0.00e+00	0	41	0	24050139136	14	16916
2026-01-01 22:41:40.92	59.83	28.41	-19.1	-19.6	17.6	0.00e+00	0	41	0	24394072064	14	16450
2026-01-01 22:41:43.94	61.10	28.87	-19.0	-19.5	17.5	0.00e+00	0	42	0	24729616384	14	16354
2026-01-01 22:41:46.98	62.42	29.33	-18.9	-19.4	17.6	0.00e+00	0	42	0	25073549312	14	16184
2026-01-01 22:41:50.00	63.76	29.79	-18.7	-19.2	17.6	0.00e+00	0	42	0	25409093632	14	15829
2026-01-01 22:41:53.03	65.16	30.23	-18.7	-19.2	17.6	0.00e+00	0	42	0	25753026560	12	17699
2026-01-01 22:41:56.07	66.59	30.67	-18.6	-19.1	17.7	0.00e+00	0	41	0	26096959488	12	17418
2026-01-01 22:41:59.09	68.06	31.09	-18.5	-19.0	17.7	0.00e+00	0	42	0	26432503808	12	17261
2026-01-01 22:42:02.12	69.58	31.50	-18.3	-18.8	17.7	0.00e+00	0	41	0	26776436736	12	16872
2026-01-01 22:42:05.15	71.14	31.89	-18.3	-18.8	17.7	0.00e+00	0	42	0	27111981056	12	16826
2026-01-01 22:42:08.18	72.73	32.27	-18.2	-18.7	17.7	0.00e+00	0	42	0	27455913984	12	16632
2026-01-01 22:42:11.20	74.36	32.63	-18.3	-18.7	17.6	0.00e+00	0	42	0	27799846912	12	16760
2026-01-01 22:42:14.22	76.03	32.97	-18.1	-18.6	17.6	0.00e+00	0	42	0	28135391232	12	16529
2026-01-01 22:42:17.25	77.74	33.29	-17.9	-18.4	17.6	0.00e+00	0	41	0	28479324160	12	16082
2026-01-01 22:42:20.28	79.49	33.59	-17.6	-18.1	17.6	0.00e+00	0	42	0	28823257088	10	17484
2026-01-01 22:42:23.31	81.27	33.86	-17.6	-18.1	17.6	0.00e+00	0	42	0	29158801408	10	17519
2026-01-01 22:42:26.34	83.08	34.10	-17.7	-18.2	17.5	0.00e+00	0	42	0	29502734336	10	17613
2026-01-01 22:42:29.36	84.91	34.32	-17.6	-18.0	17.5	0.00e+00	0	42	0	29846667264	10	17344
2026-01-01 22:42:32.39	86.77	34.50	-17.5	-18.0	17.5	0.00e+00	0	42	0	30182211584	10	17278
2026-01-01 22:42:35.42	88.65	34.66	-17.5	-17.9	17.5	0.00e+00	0	42	0	30526144512	10	17173
2026-01-01 22:42:38.45	90.55	34.78	-17.5	-17.9	17.4	0.00e+00	0	42	0	30861688832	10	17103
2026-01-01 22:42:41.47	92.45	34.87	-17.4	-17.8	17.4	0.00e+00	0	42	0	31205621760	10	16999
2026-01-01 22:42:44.50	94.37	34.93	-17.5	-17.9	17.3	0.00e+00	0	42	0	31541166080	10	17127
2026-01-01 22:42:47.53	96.30	34.95	-17.5	-17.9	17.4	0.00e+00	0	42	0	31885099008	10	17194
2026-01-01 22:42:50.56	98.23	34.94	-17.5	-17.9	17.3	0.00e+00	0	42	0	32229031936	10	17182
2026-01-01 22:42:53.60	100.16	34.90	-17.5	-17.9	17.3	0.00e+00	0	42	0	32564576256	10	17172
2026-01-01 22:42:56.62	102.07	34.82	-17.5	-17.9	17.3	0.00e+00	0	42	0	32908509184	10	17127
2026-01-01 22:42:59.65	103.97	34.71	-17.6	-18.0	17.3	0.00e+00	0	42	0	33244053504	10	17260
2026-01-01 22:43:02.68	105.86	34.56	-17.7	-18.1	17.3	0.00e+00	0	42	0	33587986432	10	17515
2026-01-01 22:43:05.71	107.73	34.39	-17.6	-18.0	17.4	0.00e+00	0	42	0	33931919360	10	17337
2026-01-01 22:43:08.74	109.58	34.18	-17.7	-18.1	17.3	0.00e+00	0	42	0	34267463680	10	17477
2026-01-01 22:43:11.77	111.40	33.95	-17.6	-18.1	17.4	0.00e+00	0	42	0	34611396608	10	17455
2026-01-01 22:43:14.80	113.20	33.68	-17.7	-18.1	17.5	0.00e+00	0	42	0	34955329536	10	17553
2026-01-01 22:43:17.82	114.95	33.40	-17.8	-18.2	17.5	0.00e+00	0	42	0	35290873856	10	17725
2026-01-01 22:43:20.85	116.68	33.08	-17.9	-18.3	17.5	0.00e+00	0	42	0	35634806784	10	17966
2026-01-01 22:43:23.88	118.37	32.75	-18.0	-18.4	17.6	0.00e+00	0	42	0	35978739712	10	18133
2026-01-01 22:43:26.91	120.02	32.39	-18.2	-18.6	17.6	0.00e+00	0	42	0	36314284032	10	18633
2026-01-01 22:43:29.94	121.64	32.02	-18.1	-18.5	17.7	0.00e+00	0	42	0	36658216960	10	18329
2026-01-01 22:43:32.96	123.21	31.63	-18.3	-18.7	17.7	0.00e+00	0	42	0	37002149888	10	18830
2026-01-01 22:43:35.99	124.75	31.22	-18.3	-18.7	17.8	0.00e+00	0	42	0	37337694208	10	18826
2026-01-01 22:43:39.02	126.24	30.80	-18.3	-18.8	17.8	0.00e+00	0	42	0	37681627136	10	18896
2026-01-01 22:43:42.05	127.69	30.37	-18.3	-18.8	17.9	0.00e+00	0	42	0	38017171456	10	18902
2026-01-01 22:43:45.08	129.10	29.92	-18.4	-18.8	17.9	0.00e+00	0	42	0	38361104384	10	19046
2026-01-01 22:43:48.11	130.47	29.47	-18.7	-19.1	17.9	0.00e+00	0	42	0	38705037312	10	19652
2026-01-01 22:43:51.13	131.80	29.01	-18.8	-19.3	17.9	0.00e+00	0	42	0	39040581632	12	17811
2026-01-01 22:43:54.16	133.09	28.55	-18.9	-19.4	17.9	0.00e+00	0	42	0	39384514560	12	18104
2026-01-01 22:43:57.19	134.34	28.08	-19.1	-19.6	17.9	0.00e+00	0	42	0	39720058880	12	18520
2026-01-01 22:44:00.22	135.55	27.61	-19.2	-19.7	17.9	0.00e+00	0	42	0	40063991808	12	18677
2026-01-01 22:44:03.25	136.72	27.13	-19.3	-19.8	17.9	0.00e+00	0	42	0	40399536128	12	18906
2026-01-01 22:44:06.28	137.86	26.65	-19.3	-19.8	17.8	0.00e+00	0	42	0	40743469056	12	18945
2026-01-01 22:44:09.30	138.95	26.17	-19.5	-20.0	17.8	0.00e+00	0	42	0	41079013376	12	19388
2026-01-01 22:44:12.33	140.02	25.70	-19.8	-20.2	17.7	0.00e+00	0	42	0	41422946304	12	19931
2026-01-01 22:44:15.36	141.05	25.22	-20.0	-20.4	17.7	0.00e+00	0	42	0	41766879232	14	18181
2026-01-01 22:44:18.39	142.04	24.75	-20.1	-20.6	17.7	0.00e+00	0	42	0	42102423552	14	18464
2026-01-01 22:44:21.42	143.01	24.27	-20.2	-20.7	17.6	0.00e+00	0	42	0	42446356480	14	18798
2026-01-01 22:44:24.45	143.94	23.80	-20.4	-20.8	17.6	0.00e+00	0	42	0	42781900800	14	19039
2026-01-01 22:44:27.47	144.84	23.34	-20.4	-20.9	17.5	0.00e+00	0	42	0	43134222336	14	19167
2026-01-01 22:44:30.50	145.72	22.88	-49.4	-51.9	6.1	0.00e+00	0	42	104	43209719808	60	48341
2026-01-01 22:44:33.53	146.56	22.42	-49.5	-51.9	6.1	0.00e+00	0	42	104	43209719808	60	48247
2026-01-01 22:44:36.56	147.38	21.96	-49.4	-51.9	6.1	0.00e+00	0	42	104	43209719808	60	48075
2026-01-01 22:44:39.59	148.18	21.51	-49.4	-51.9	6.1	0.00e+00	0	42	104	43209719808	60	48056
2026-01-01 22:44:42.62	148.95	21.07	-49.4	-51.9	6.1	0.00e+00	0	42	104	43209719808	60	48118
2026-01-01 22:44:45.64	149.69	20.63	-49.4	-51.8	6.1	0.00e+00	0	42	104	43209719808	60	47649
2026-01-01 22:44:48.67	150.41	20.20	-49.4	-51.9	6.1	0.00e+00	0	42	104	43209719808	60	47936
2026-01-01 22:44:51.70	151.11	19.77	-49.4	-51.8	6.1	0.00e+00	0	42	104	43209719808	60	47797
2026-01-01 22:44:54.72	151.79	19.35	-49.4	-51.8	6.1	0.00e+00	0	42	104	43209719808	60	47773
2026-01-01 22:44:57.75	152.45	18.93	-49.3	-51.8	6.1	0.00e+00	0	42	104	43209719808	60	47852
2026-01-01 22:45:00.78	153.08	18.52	-49.2	-51.7	6.1	0.00e+00	0	42	104	43209719808	60	47051
2026-01-01 22:45:03.81	153.70	18.11	-49.1	-51.6	6.1	0.00e+00	0	42	104	43209719808	60	46698
2026-01-01 22:45:06.84	154.30	17.71	-48.1	-50.6	6.0	0.00e+00	0	42	104	43209719808	60	41639
2026-01-01 22:45:09.87	154.89	17.31	-47.9	-50.4	6.1	0.00e+00	0	41	104	43209719808	60	40477
2026-01-01 22:45:12.90	155.45	16.92	-48.5	-50.9	6.1	0.00e+00	0	41	104	43209719808	60	43176
2026-01-01 22:45:15.92	156.00	16.54	-48.5	-50.9	6.1	0.00e+00	0	42	104	43209719808	60	43068
2026-01-01 22:45:18.95	156.54	16.16	-48.7	-51.2	6.1	0.00e+00	0	42	104	43209719808	60	44263
2026-01-01 22:45:21.98	157.06	15.79	-49.2	-51.7	6.1	0.00e+00	0	41	104	43209719808	60	46885
2026-01-01 22:45:25.01	157.56	15.42	-49.3	-51.7	6.1	0.00e+00	0	41	104	43209719808	60	47046
2026-01-01 22:45:28.04	158.05	15.06	-49.2	-51.7	6.1	0.00e+00	0	41	104	43209719808	60	46973
2026-01-01 22:45:31.06	158.53	14.70	-49.2	-51.7	6.1	0.00e+00	0	42	104	43209719808	60	46936
2026-01-01 22:45:34.09	158.99	14.35	-49.2	-51.6	6.1	0.00e+00	0	41	104	43209719808	60	46694
2026-01-01 22:45:37.12	159.44	14.00	-49.2	-51.7	6.1	0.00e+00	0	41	104	43209719808	60	46861
2026-01-01 22:45:40.15	159.88	13.66	-49.2	-51.6	6.1	0.00e+00	0	41	104	43209719808	60	46810
2026-01-01 22:45:43.17	160.31	13.32	-49.0	-51.6	6.1	0.00e+00	0	41	104	43209719808	60	46417
2026-01-01 22:45:46.20	160.73	12.99	-49.1	-51.5	6.1	0.00e+00	0	42	104	43209719808	60	46163
2026-01-01 22:45:49.23	161.14	12.66	-49.2	-51.7	6.1	0.00e+00	0	42	104	43209719808	60	47010
2026-01-01 22:45:52.26	161.53	12.34	-49.1	-51.6	6.1	0.00e+00	0	42	104	43209719808	60	46454
2026-01-01 22:45:55.30	161.92	12.02	-49.0	-51.6	6.1	0.00e+00	0	42	104	43209719808	60	46302
2026-01-01 22:45:58.32	162.30	11.70	-49.0	-51.6	6.1	0.00e+00	0	41	104	43209719808	60	46310
2026-01-01 22:46:01.35	162.67	11.39	-49.2	-51.6	6.1	0.00e+00	0	42	104	43209719808	60	46707
2026-01-01 22:46:04.37	163.02	11.09	-49.1	-51.5	6.1	0.00e+00	0	42	104	43209719808	60	46109
2026-01-01 22:46:07.40	163.37	10.79	-49.1	-51.5	6.1	0.00e+00	0	42	104	43209719808	60	46282
2026-01-01 22:46:10.43	163.72	10.49	-49.0	-51.5	6.1	0.00e+00	0	42	104	43209719808	60	46032
2026-01-01 22:46:13.45	164.05	10.20	-49.0	-51.5	6.1	0.00e+00	0	42	104	43209719808	60	46071
2026-01-01 22:46:16.48	164.38	9.91	-48.9	-51.5	6.1	0.00e+00	0	42	104	43209719808	60	45782
2026-01-01 22:46:19.51	164.70	9.62	-48.9	-51.4	6.1	0.00e+00	0	42	104	43209719808	60	45700
2026-01-01 22:46:22.54	165.01	9.34	-49.0	-51.4	6.1	0.00e+00	0	41	104	43209719808	60	45630
2026-01-01 22:46:25.57	165.31	9.06	-49.0	-51.5	6.1	0.00e+00	0	41	104	43209719808	60	45933
2026-01-01 22:46:28.59	165.61	8.78	-49.0	-51.5	6.1	0.00e+00	0	41	104	43209719808	60	46006
2026-01-01 22:46:31.62	165.90	8.51	-48.8	-51.3	6.1	0.00e+00	0	41	104	43209719808	60	45194
2026-01-01 22:46:34.65	166.19	8.24	-48.9	-51.3	6.1	0.00e+00	0	42	104	43209719808	60	45124
2026-01-01 22:46:37.67	166.46	7.98	-48.8	-51.3	6.1	0.00e+00	0	41	104	43209719808	60	44848
2026-01-01 22:46:40.70	166.74	7.71	-48.8	-51.3	6.1	0.00e+00	0	41	104	43209719808	60	45022
2026-01-01 22:46:43.73	167.01	7.45	-48.8	-51.3	6.1	0.00e+00	0	42	104	43209719808	60	45107
2026-01-01 22:46:46.76	167.27	7.20	-48.8	-51.3	6.1	0.00e+00	0	42	104	43209719808	60	44831
2026-01-01 22:46:49.78	167.52	6.95	-48.7	-51.2	6.1	0.00e+00	0	41	104	43209719808	60	44519
2026-01-01 22:46:52.80	167.77	6.70	-48.8	-51.3	6.1	0.00e+00	0	42	104	43209719808	60	44741
2026-01-01 22:46:55.83	168.02	6.45	-48.7	-51.2	6.1	0.00e+00	0	42	104	43209719808	60	44226
2026-01-01 22:46:58.86	168.26	6.20	-48.7	-51.2	6.1	0.00e+00	0	42	104	43209719808	60	44490
2026-01-01 22:47:01.89	168.50	5.96	-48.7	-51.2	6.1	0.00e+00	0	42	104	43209719808	60	44522
2026-01-01 22:47:04.91	168.73	5.72	-48.8	-51.3	6.0	0.00e+00	0	41	104	43209719808	60	44729
2026-01-01 22:47:07.94	168.96	5.49	-48.5	-51.0	6.1	0.00e+00	0	42	104	43209719808	60	43444
2026-01-01 22:47:10.97	169.18	5.25	-48.7	-51.1	6.1	0.00e+00	0	42	104	43209719808	60	44013
2026-01-01 22:47:14.00	169.40	5.02	-48.6	-51.0	6.1	0.00e+00	0	42	104	43209719808	60	43562
2026-01-01 22:47:17.02	169.61	4.79	-48.7	-51.1	6.1	0.00e+00	0	41	104	43209719808	60	44159
2026-01-01 22:47:20.05	169.82	4.56	-48.4	-50.9	6.1	0.00e+00	0	41	104	43209719808	60	42770
2026-01-01 22:47:23.07	170.03	4.34	-48.6	-51.0	6.1	0.00e+00	0	42	104	43209719808	60	43587
2026-01-01 22:47:26.10	170.23	4.12	-48.4	-50.9	6.0	0.00e+00	0	42	104	43209719808	60	42773
2026-01-01 22:47:29.13	170.43	3.90	-48.6	-51.1	6.1	0.00e+00	0	42	104	43209719808	60	44176
2026-01-01 22:47:32.15	170.63	3.68	-48.3	-50.8	6.1	0.00e+00	0	42	104	43209719808	60	42528
2026-01-01 22:47:35.18	170.82	3.46	-48.4	-50.9	6.1	0.00e+00	0	42	104	43209719808	60	43147
2026-01-01 22:47:38.21	171.01	3.25	-48.3	-50.8	6.1	0.00e+00	0	41	104	43209719808	60	42302
2026-01-01 22:47:41.23	171.20	3.04	-48.4	-51.0	6.0	0.00e+00	0	42	104	43209719808	60	43263
2026-01-01 22:47:44.26	171.38	2.83	-49.5	-51.9	6.1	0.00e+00	0	42	104	43209719808	60	48087
2026-01-01 22:47:47.29	171.56	2.62	-49.7	-52.2	6.1	0.00e+00	0	42	104	43209719808	60	49727
2026-01-01 22:47:50.32	171.74	2.41	-49.7	-52.2	6.1	0.00e+00	0	42	104	43209719808	60	49870
2026-01-01 22:47:53.35	171.91	2.21	-49.7	-52.2	6.1	0.00e+00	0	41	104	43209719808	60	49880
2026-01-01 22:47:56.38	172.08	2.00	-49.6	-52.1	6.1	0.00e+00	0	41	104	43209719808	60	49408
2026-01-01 22:47:59.40	172.25	1.80	-49.7	-52.1	6.1	0.00e+00	0	41	104	43209719808	60	49577
2026-01-01 22:48:02.44	172.42	1.60	-49.7	-52.1	6.0	0.00e+00	0	41	104	43209719808	60	49450
2026-01-01 22:48:05.46	172.58	1.40	-49.7	-52.2	6.1	0.00e+00	0	42	104	43209719808	60	49659
2026-01-01 22:48:08.49	172.74	1.21	-49.7	-52.1	6.1	0.00e+00	0	41	104	43209719808	60	49566
2026-01-01 22:48:11.52	172.90	1.01	-49.7	-52.2	6.1	0.00e+00	0	42	104	43209719808	60	49634
2026-01-01 22:48:14.55	173.05	0.82	-49.7	-52.1	6.1	0.00e+00	0	42	104	43209719808	60	49470
2026-01-01 22:48:17.58	173.20	0.63	-49.7	-52.1	6.1	0.00e+00	0	42	104	43209719808	60	49571
2026-01-01 22:48:20.60	173.35	0.44	-49.7	-52.1	6.1	0.00e+00	0	42	104	43209719808	60	49544
2026-01-01 22:48:23.63	173.50	0.25	-49.7	-52.1	6.1	0.00e+00	0	41	104	43209719808	60	49453
2026-01-01 22:48:26.66	173.65	0.06	-49.7	-52.1	6.1	0.00e+00	0	42	104	43209719808	60	49524

#Closed at: 2026-01-01 22:48:28
#Recorded file [43209 MB]: D:/lorett/data/35029_260102_103735.dat