passes_logs/2026/01/01/R4.6S_Anadyr/R4.6S_Anadyr__20260101_205613_TY-39_rec.log

#Pass ID: 20260101_205613_TY-39
#Satellite: TY-39
#Configuration: TY-39
#almurnet v.1.7.20251203
#Start time: 2026-01-01 20:56:19

#Version: 2.2.20231116
#Station: R4.6S_Anadyr
#Location: 177.4865 lon 64.73178 lat
#TLE: 1 51832U 22019J   25364.61574850  .00005861  00000-0  27849-3 0  9992
#TLE: 2 51832  97.3676  66.6800 0010489  97.9984 262.2442 15.19544764212196

#Time	Az	El	Level	Level2	SNR	BER	BlckErr	Temp	State	Recorded	gain1	gain2
2026-01-01 20:56:19.21	24.82	0.29	-49.2	-60.9	3.5	8.46e-01	0	36	0	0	60	39934
2026-01-01 20:56:22.24	25.13	0.44	-49.5	-52.0	3.6	0.00e+00	0	38	104	0	60	48720
2026-01-01 20:56:25.26	25.45	0.60	-49.5	-51.9	3.6	0.00e+00	0	38	104	0	60	48177
2026-01-01 20:56:28.29	25.78	0.75	-49.1	-51.5	3.6	0.00e+00	0	38	104	0	60	46207
2026-01-01 20:56:31.32	26.11	0.91	-48.6	-51.1	3.6	0.00e+00	0	38	104	0	60	43767
2026-01-01 20:56:34.35	26.44	1.07	-47.5	-50.0	3.6	0.00e+00	0	38	104	0	60	38846
2026-01-01 20:56:37.38	26.78	1.22	-47.5	-50.0	3.5	0.00e+00	0	38	104	0	60	38769
2026-01-01 20:56:40.41	27.13	1.38	-47.5	-50.0	3.6	0.00e+00	0	38	104	0	60	38753
2026-01-01 20:56:43.43	27.47	1.54	-47.5	-50.0	3.6	0.00e+00	0	38	104	0	60	38841
2026-01-01 20:56:46.46	27.82	1.70	-47.5	-50.0	3.6	0.00e+00	0	38	104	0	60	38775
2026-01-01 20:56:49.49	28.18	1.86	-47.5	-50.0	3.6	0.00e+00	0	39	104	0	60	38560
2026-01-01 20:56:52.52	28.54	2.02	-47.5	-50.0	3.6	0.00e+00	0	39	104	0	60	38857
2026-01-01 20:56:55.55	28.91	2.18	-47.5	-50.0	3.6	0.00e+00	0	39	104	0	60	38745
2026-01-01 20:56:58.57	29.28	2.34	-47.5	-50.0	3.6	0.00e+00	0	39	104	0	60	38904
2026-01-01 20:57:01.60	29.66	2.50	-47.5	-50.1	3.6	0.00e+00	0	39	104	0	60	38973
2026-01-01 20:57:04.63	30.04	2.66	-47.5	-50.0	3.6	0.00e+00	0	39	104	0	60	38641
2026-01-01 20:57:07.66	30.42	2.82	-47.5	-50.0	3.6	0.00e+00	0	39	104	0	60	38830
2026-01-01 20:57:10.69	30.82	2.98	-47.5	-50.0	3.6	0.00e+00	0	39	104	0	60	38786
2026-01-01 20:57:13.72	31.21	3.14	-47.5	-50.0	3.6	0.00e+00	0	39	104	0	60	38695
2026-01-01 20:57:16.75	31.62	3.30	-47.8	-50.4	3.6	0.00e+00	0	39	104	0	60	40348
2026-01-01 20:57:19.78	32.02	3.47	-47.5	-50.0	3.6	0.00e+00	0	39	104	0	60	38513
2026-01-01 20:57:22.81	32.44	3.63	-47.7	-50.2	3.6	0.00e+00	0	39	104	0	60	39745
2026-01-01 20:57:25.85	32.86	3.79	-47.6	-50.1	3.6	0.00e+00	0	39	104	0	60	39315
2026-01-01 20:57:28.88	33.29	3.96	-47.9	-50.4	3.6	0.00e+00	0	39	104	0	60	40625
2026-01-01 20:57:31.90	33.71	4.12	-48.0	-50.4	3.6	0.00e+00	0	39	104	0	60	40657
2026-01-01 20:57:34.93	34.15	4.28	-47.9	-50.3	3.6	0.00e+00	0	39	104	0	60	40315
2026-01-01 20:57:37.96	34.60	4.45	-48.2	-50.6	3.6	0.00e+00	0	39	104	0	60	41721
2026-01-01 20:57:40.99	35.05	4.61	-47.8	-50.3	3.6	0.00e+00	0	39	104	0	60	40319
2026-01-01 20:57:44.02	35.50	4.78	-48.1	-50.6	3.6	0.00e+00	0	39	104	0	60	41351
2026-01-01 20:57:47.05	35.96	4.94	-38.1	-38.4	10.0	2.02e-02	0	40	0	58720256	50	18051
2026-01-01 20:57:50.08	36.43	5.10	-38.4	-38.6	9.6	5.09e-02	0	40	0	150994944	54	14800
2026-01-01 20:57:53.11	36.91	5.27	-34.8	-35.1	12.5	1.87e-04	0	40	0	377487360	46	15670
2026-01-01 20:57:56.14	37.39	5.43	-33.7	-34.1	13.4	0.00e+00	0	40	0	603979776	42	17549
2026-01-01 20:57:59.17	37.88	5.60	-31.6	-32.0	14.4	0.00e+00	0	40	0	830472192	38	17282
2026-01-01 20:58:02.19	38.37	5.76	-30.1	-30.5	15.3	0.00e+00	0	40	0	1056964608	36	16340
2026-01-01 20:58:05.22	38.87	5.92	-30.0	-30.4	15.3	0.00e+00	0	40	0	1291845632	36	16212
2026-01-01 20:58:08.25	39.38	6.09	-30.1	-30.5	15.3	0.00e+00	0	40	0	1509949440	36	16333
2026-01-01 20:58:11.28	39.90	6.25	-29.9	-30.4	15.3	0.00e+00	0	40	0	1744830464	36	16065
2026-01-01 20:58:14.31	40.42	6.41	-29.9	-30.3	15.3	0.00e+00	0	40	0	1971322880	36	16026
2026-01-01 20:58:17.34	40.95	6.58	-29.6	-30.0	15.4	0.00e+00	0	40	0	2197815296	34	17395
2026-01-01 20:58:20.37	41.49	6.74	-29.7	-30.2	15.3	0.00e+00	0	40	0	2424307712	34	17617
2026-01-01 20:58:23.40	42.03	6.90	-29.7	-30.1	14.9	0.00e+00	0	40	0	2650800128	34	17464
2026-01-01 20:58:26.43	42.59	7.06	-29.6	-30.0	14.7	0.00e+00	0	40	0	2877292544	34	17252
2026-01-01 20:58:29.46	43.15	7.22	-29.4	-29.8	15.0	0.00e+00	0	40	0	3103784960	34	16961
2026-01-01 20:58:32.49	43.71	7.38	-29.3	-29.7	15.5	0.00e+00	0	40	0	3330277376	34	16717
2026-01-01 20:58:35.52	44.29	7.54	-29.6	-30.1	15.5	0.00e+00	0	40	0	3556769792	34	17423
2026-01-01 20:58:38.55	44.87	7.70	-29.2	-29.7	15.6	0.00e+00	0	40	0	3783262208	34	16658
2026-01-01 20:58:41.58	45.46	7.86	-29.1	-29.6	15.6	0.00e+00	0	40	0	4018143232	34	16499
2026-01-01 20:58:44.60	46.06	8.02	-29.3	-29.7	15.3	0.00e+00	0	40	0	4236247040	34	16727
2026-01-01 20:58:47.63	46.66	8.17	-29.2	-29.7	15.6	0.00e+00	0	41	0	4471128064	34	16634
2026-01-01 20:58:50.66	47.28	8.33	-29.1	-29.5	15.7	0.00e+00	0	41	0	4697620480	34	16330
2026-01-01 20:58:53.69	47.90	8.48	-29.0	-29.4	15.7	0.00e+00	0	41	0	4924112896	34	16146
2026-01-01 20:58:56.72	48.53	8.63	-29.0	-29.4	15.8	0.00e+00	0	41	0	5150605312	34	16132
2026-01-01 20:58:59.75	49.17	8.78	-28.9	-29.3	15.8	0.00e+00	0	41	0	5377097728	34	16028
2026-01-01 20:59:02.78	49.82	8.93	-28.9	-29.3	15.6	0.00e+00	0	41	0	5603590144	34	15975
2026-01-01 20:59:05.81	50.47	9.08	-28.7	-29.2	15.7	0.00e+00	0	41	0	5830082560	32	17665
2026-01-01 20:59:08.84	51.13	9.23	-28.9	-29.4	14.9	0.00e+00	0	41	0	6056574976	32	18042
2026-01-01 20:59:11.87	51.80	9.37	-28.5	-29.0	15.2	0.00e+00	0	41	0	6291456000	32	17217
2026-01-01 20:59:14.90	52.48	9.51	-28.6	-29.1	15.7	0.00e+00	0	41	0	6509559808	32	17493
2026-01-01 20:59:17.94	53.17	9.66	-28.9	-29.3	14.3	0.00e+00	0	41	0	6744440832	32	17947
2026-01-01 20:59:20.97	53.86	9.79	-29.0	-29.4	13.6	0.00e+00	0	41	0	6962544640	32	18116
2026-01-01 20:59:24.00	54.57	9.93	-28.7	-29.2	15.6	0.00e+00	0	41	0	7197425664	32	17687
2026-01-01 20:59:27.03	55.28	10.07	-28.4	-28.9	15.9	0.00e+00	0	41	0	7423918080	32	17086
2026-01-01 20:59:30.06	56.00	10.20	-28.5	-28.9	15.8	0.00e+00	0	41	0	7650410496	32	17185
2026-01-01 20:59:33.08	56.72	10.33	-28.3	-28.8	15.7	0.00e+00	0	41	0	7876902912	32	16859
2026-01-01 20:59:36.12	57.46	10.45	-28.3	-28.8	15.7	0.00e+00	0	41	0	8103395328	32	16814
2026-01-01 20:59:39.14	58.19	10.58	-28.2	-28.7	16.0	0.00e+00	0	41	0	8329887744	32	16629
2026-01-01 20:59:42.17	58.94	10.70	-28.2	-28.7	16.0	0.00e+00	0	41	0	8556380160	32	16656
2026-01-01 20:59:45.20	59.70	10.81	-28.2	-28.7	15.5	0.00e+00	0	41	0	8782872576	32	16657
2026-01-01 20:59:48.23	60.46	10.93	-28.2	-28.7	15.9	0.00e+00	0	41	0	9017753600	32	16627
2026-01-01 20:59:51.26	61.23	11.04	-28.3	-28.7	15.7	0.00e+00	0	41	0	9235857408	32	16774
2026-01-01 20:59:54.29	62.01	11.15	-28.1	-28.5	15.7	0.00e+00	0	41	0	9470738432	32	16391
2026-01-01 20:59:57.32	62.79	11.25	-27.9	-28.3	14.0	0.00e+00	0	41	0	9697230848	32	16019
2026-01-01 21:00:00.35	63.58	11.35	-27.9	-28.4	14.1	0.00e+00	0	41	0	9923723264	32	16068
2026-01-01 21:00:03.39	64.38	11.45	-27.8	-28.2	15.8	0.00e+00	0	41	0	10150215680	32	15853
2026-01-01 21:00:06.41	65.19	11.54	-28.1	-28.5	15.9	0.00e+00	0	41	0	10376708096	32	16412
2026-01-01 21:00:09.45	66.00	11.63	-27.9	-28.3	16.0	0.00e+00	0	41	0	10603200512	32	16012
2026-01-01 21:00:12.47	66.81	11.72	-27.9	-28.3	15.9	0.00e+00	0	41	0	10829692928	30	17977
2026-01-01 21:00:15.50	67.63	11.80	-27.9	-28.3	14.8	0.00e+00	0	41	0	11056185344	30	17956
2026-01-01 21:00:18.54	68.46	11.88	-27.8	-28.3	15.4	0.00e+00	0	41	0	11282677760	30	17830
2026-01-01 21:00:21.57	69.29	11.95	-27.9	-28.4	15.5	0.00e+00	0	41	0	11509170176	30	18046
2026-01-01 21:00:24.60	70.13	12.02	-27.8	-28.3	14.9	0.00e+00	0	41	0	11744051200	30	17813
2026-01-01 21:00:27.63	70.97	12.08	-27.7	-28.2	16.1	0.00e+00	0	41	0	11970543616	30	17634
2026-01-01 21:00:30.66	71.81	12.14	-27.6	-28.0	16.0	0.00e+00	0	41	0	12197036032	30	17379
2026-01-01 21:00:33.69	72.66	12.19	-27.6	-28.1	16.1	0.00e+00	0	41	0	12423528448	30	17446
2026-01-01 21:00:36.72	73.51	12.24	-27.9	-28.4	16.1	0.00e+00	0	41	0	12650020864	30	18013
2026-01-01 21:00:39.75	74.37	12.29	-27.6	-28.1	15.8	0.00e+00	0	41	0	12876513280	30	17432
2026-01-01 21:00:42.78	75.23	12.32	-27.7	-28.1	15.8	0.00e+00	0	41	0	13103005696	30	17489
2026-01-01 21:00:45.81	76.09	12.36	-27.8	-28.2	15.7	0.00e+00	0	41	0	13329498112	30	17790
2026-01-01 21:00:48.84	76.95	12.39	-27.7	-28.1	15.7	0.00e+00	0	41	0	13555990528	30	17595
2026-01-01 21:00:51.87	77.82	12.41	-27.5	-27.9	15.0	0.00e+00	0	41	0	13782482944	30	17201
2026-01-01 21:00:54.90	78.68	12.43	-27.8	-28.2	16.1	0.00e+00	0	41	0	14008975360	30	17729
2026-01-01 21:00:57.93	79.55	12.44	-27.5	-28.0	16.1	0.00e+00	0	41	0	14243856384	30	17278
2026-01-01 21:01:00.96	80.42	12.45	-27.7	-28.1	16.1	0.00e+00	0	41	0	14470348800	30	17592
2026-01-01 21:01:03.99	81.29	12.45	-27.8	-28.2	15.9	0.00e+00	0	41	0	14696841216	30	17731
2026-01-01 21:01:07.02	82.16	12.45	-27.8	-28.2	16.1	0.00e+00	0	41	0	14923333632	30	17780
2026-01-01 21:01:10.05	83.03	12.45	-27.5	-27.9	16.2	0.00e+00	0	41	0	15149826048	30	17152
2026-01-01 21:01:13.08	83.90	12.43	-27.6	-28.1	16.2	0.00e+00	0	41	0	15376318464	30	17490
2026-01-01 21:01:16.11	84.77	12.42	-27.9	-28.3	16.1	0.00e+00	0	41	0	15602810880	30	17990
2026-01-01 21:01:19.14	85.63	12.39	-27.6	-28.0	16.2	0.00e+00	0	41	0	15829303296	30	17386
2026-01-01 21:01:22.17	86.50	12.36	-27.7	-28.1	16.2	0.00e+00	0	41	0	16055795712	30	17519
2026-01-01 21:01:25.20	87.36	12.33	-27.6	-28.1	16.1	0.00e+00	0	41	0	16282288128	30	17522
2026-01-01 21:01:28.22	88.22	12.29	-27.6	-28.1	16.0	0.00e+00	0	41	0	16517169152	30	17426
2026-01-01 21:01:31.25	89.07	12.25	-27.6	-28.1	16.3	0.00e+00	0	41	0	16735272960	30	17433
2026-01-01 21:01:34.29	89.93	12.20	-27.7	-28.2	16.1	0.00e+00	0	41	0	16970153984	30	17622
2026-01-01 21:01:37.31	90.78	12.15	-27.7	-28.2	16.1	0.00e+00	0	41	0	17196646400	30	17685
2026-01-01 21:01:40.34	91.62	12.09	-27.7	-28.2	16.2	0.00e+00	0	41	0	17423138816	30	17641
2026-01-01 21:01:43.37	92.47	12.03	-27.7	-28.1	16.1	0.00e+00	0	41	0	17649631232	30	17548
2026-01-01 21:01:46.41	93.31	11.96	-27.7	-28.2	16.1	0.00e+00	0	41	0	17876123648	30	17690
2026-01-01 21:01:49.43	94.14	11.89	-27.9	-28.3	16.0	0.00e+00	0	41	0	18102616064	30	17911
2026-01-01 21:01:52.46	94.97	11.81	-28.0	-28.4	16.0	0.00e+00	0	41	0	18329108480	30	18126
2026-01-01 21:01:55.49	95.79	11.73	-27.8	-28.3	16.0	0.00e+00	0	41	0	18555600896	30	17898
2026-01-01 21:01:58.52	96.61	11.65	-27.8	-28.2	16.2	0.00e+00	0	41	0	18782093312	30	17720
2026-01-01 21:02:01.55	97.42	11.56	-28.2	-28.7	15.9	0.00e+00	0	41	0	19008585728	30	18716
2026-01-01 21:02:04.57	98.23	11.47	-28.0	-28.5	15.9	0.00e+00	0	41	0	19243466752	30	18264
2026-01-01 21:02:07.60	99.03	11.37	-27.9	-28.3	16.0	0.00e+00	0	41	0	19461570560	30	17975
2026-01-01 21:02:10.63	99.82	11.27	-28.0	-28.5	15.4	0.00e+00	0	42	0	19696451584	30	18243
2026-01-01 21:02:13.66	100.61	11.16	-28.2	-28.6	15.6	0.00e+00	0	42	0	19922944000	30	18608
2026-01-01 21:02:16.69	101.39	11.06	-28.0	-28.5	16.0	0.00e+00	0	42	0	20149436416	30	18288
2026-01-01 21:02:19.72	102.17	10.95	-28.0	-28.4	16.1	0.00e+00	0	42	0	20375928832	30	18153
2026-01-01 21:02:22.75	102.93	10.83	-28.1	-28.5	15.8	0.00e+00	0	42	0	20602421248	30	18404
2026-01-01 21:02:25.78	103.69	10.71	-28.3	-28.7	15.9	0.00e+00	0	42	0	20828913664	30	18798
2026-01-01 21:02:28.81	104.45	10.59	-28.2	-28.6	15.8	0.00e+00	0	42	0	21055406080	30	18623
2026-01-01 21:02:31.84	105.19	10.47	-28.5	-28.9	16.0	0.00e+00	0	42	0	21281898496	30	19240
2026-01-01 21:02:34.87	105.93	10.34	-28.2	-28.7	16.0	0.00e+00	0	42	0	21508390912	30	18683
2026-01-01 21:02:37.90	106.66	10.21	-28.3	-28.8	15.9	0.00e+00	0	41	0	21734883328	30	18955
2026-01-01 21:02:40.92	107.38	10.08	-28.4	-28.8	15.9	0.00e+00	0	42	0	21969764352	30	19046
2026-01-01 21:02:43.95	108.09	9.95	-28.5	-28.9	15.9	0.00e+00	0	42	0	22187868160	30	19251
2026-01-01 21:02:46.99	108.80	9.81	-28.5	-28.9	15.9	0.00e+00	0	42	0	22422749184	30	19271
2026-01-01 21:02:50.01	109.50	9.67	-28.5	-29.0	15.9	0.00e+00	0	42	0	22649241600	30	19406
2026-01-01 21:02:53.04	110.19	9.53	-28.7	-29.2	15.8	0.00e+00	0	42	0	22875734016	30	19799
2026-01-01 21:02:56.07	110.87	9.39	-28.5	-29.0	15.8	0.00e+00	0	42	0	23102226432	30	19403
2026-01-01 21:02:59.10	111.55	9.24	-28.8	-29.2	15.7	0.00e+00	0	41	0	23328718848	32	17728
2026-01-01 21:03:02.13	112.21	9.09	-28.8	-29.2	15.8	0.00e+00	0	41	0	23555211264	32	17768
2026-01-01 21:03:05.16	112.87	8.95	-28.8	-29.3	15.8	0.00e+00	0	42	0	23781703680	32	17881
2026-01-01 21:03:08.19	113.52	8.80	-28.8	-29.2	15.8	0.00e+00	0	42	0	24008196096	32	17751
2026-01-01 21:03:11.22	114.16	8.64	-28.8	-29.3	15.8	0.00e+00	0	42	0	24243077120	32	17845
2026-01-01 21:03:14.25	114.80	8.49	-28.9	-29.4	15.7	0.00e+00	0	42	0	24461180928	32	18130
2026-01-01 21:03:17.28	115.42	8.34	-29.0	-29.4	15.7	0.00e+00	0	42	0	24696061952	32	18191
2026-01-01 21:03:20.31	116.04	8.18	-29.0	-29.5	15.7	0.00e+00	0	42	0	24914165760	32	18299
2026-01-01 21:03:23.34	116.65	8.02	-29.0	-29.5	15.7	0.00e+00	0	42	0	25149046784	32	18331
2026-01-01 21:03:26.37	117.26	7.87	-29.0	-29.5	15.7	0.00e+00	0	42	0	25375539200	32	18279
2026-01-01 21:03:29.40	117.85	7.71	-29.2	-29.7	15.6	0.00e+00	0	42	0	25602031616	32	18763
2026-01-01 21:03:32.43	118.44	7.55	-29.1	-29.6	15.7	0.00e+00	0	42	0	25828524032	32	18454
2026-01-01 21:03:35.45	119.01	7.39	-29.6	-30.1	15.5	0.00e+00	0	42	0	26055016448	34	17413
2026-01-01 21:03:38.48	119.58	7.23	-29.3	-29.8	15.5	0.00e+00	0	42	0	26281508864	34	16854
2026-01-01 21:03:41.51	120.15	7.06	-29.4	-29.9	15.6	0.00e+00	0	42	0	26508001280	34	17052
2026-01-01 21:03:44.55	120.71	6.90	-29.6	-30.1	15.3	0.00e+00	0	42	0	26734493696	34	17407
2026-01-01 21:03:47.57	121.25	6.74	-29.8	-30.2	15.2	0.00e+00	0	42	0	26969374720	34	17763
2026-01-01 21:03:50.60	121.79	6.57	-29.7	-30.1	15.3	0.00e+00	0	42	0	27187478528	34	17487
2026-01-01 21:03:53.63	122.33	6.41	-29.7	-30.2	15.3	0.00e+00	0	42	0	27422359552	34	17635
2026-01-01 21:03:56.66	122.85	6.25	-29.7	-30.2	15.4	0.00e+00	0	42	0	27640463360	34	17685
2026-01-01 21:03:59.69	123.37	6.08	-29.8	-30.3	15.3	0.00e+00	0	42	0	27875344384	34	17915
2026-01-01 21:04:02.72	123.88	5.92	-30.1	-30.6	15.2	0.00e+00	0	42	0	28101836800	34	18451
2026-01-01 21:04:05.75	124.39	5.75	-30.1	-30.6	15.2	0.00e+00	0	42	0	28328329216	34	18444
2026-01-01 21:04:08.78	124.89	5.59	-30.1	-30.6	15.2	0.00e+00	0	42	0	28554821632	34	18512
2026-01-01 21:04:11.81	125.38	5.42	-30.4	-30.8	15.1	0.00e+00	0	42	0	28781314048	34	19015
2026-01-01 21:04:14.85	125.86	5.25	-30.3	-30.8	15.0	0.00e+00	0	42	0	29007806464	34	18961
2026-01-01 21:04:17.88	126.34	5.09	-31.0	-31.4	14.8	0.00e+00	0	42	0	29234298880	36	18098
2026-01-01 21:04:20.90	126.81	4.92	-30.3	-30.8	15.1	0.00e+00	0	42	0	29460791296	36	16822
2026-01-01 21:04:23.93	127.28	4.76	-30.5	-31.0	15.0	0.00e+00	0	42	0	29695672320	36	17242
2026-01-01 21:04:26.96	127.73	4.59	-31.5	-31.9	14.6	0.00e+00	0	42	0	29913776128	36	19219
2026-01-01 21:04:29.99	128.19	4.43	-30.8	-31.3	14.9	0.00e+00	0	42	0	30148657152	36	17829
2026-01-01 21:04:33.02	128.63	4.26	-30.9	-31.3	14.8	0.00e+00	0	42	0	30375149568	36	17934
2026-01-01 21:04:36.05	129.07	4.10	-30.7	-31.1	14.8	0.00e+00	0	42	0	30601641984	36	17555
2026-01-01 21:04:39.08	129.50	3.93	-31.4	-31.8	14.5	0.00e+00	0	42	0	30828134400	36	18934
2026-01-01 21:04:42.10	129.93	3.77	-30.6	-31.1	14.8	0.00e+00	0	42	0	31054626816	36	17471
2026-01-01 21:04:45.13	130.35	3.60	-30.9	-31.4	3.6	0.00e+00	0	42	0	31281119232	36	18104
2026-01-01 21:04:48.16	130.77	3.44	-47.9	-50.4	3.6	0.00e+00	0	42	104	31281119232	60	40384
2026-01-01 21:04:51.19	131.18	3.28	-47.9	-50.3	3.6	0.00e+00	0	42	104	31281119232	60	40252
2026-01-01 21:04:54.21	131.58	3.11	-47.7	-50.2	3.6	0.00e+00	0	41	104	31281119232	60	39854
2026-01-01 21:04:57.24	131.98	2.95	-48.3	-50.8	3.6	0.00e+00	0	42	104	31281119232	60	42447
2026-01-01 21:05:00.27	132.37	2.79	-49.1	-51.6	3.6	0.00e+00	0	42	104	31281119232	60	46681
2026-01-01 21:05:03.30	132.76	2.63	-49.2	-51.7	3.6	0.00e+00	0	42	104	31281119232	60	47127
2026-01-01 21:05:06.33	133.14	2.46	-49.4	-51.8	3.6	0.00e+00	0	42	104	31281119232	60	47836
2026-01-01 21:05:09.36	133.52	2.30	-49.6	-52.0	3.6	0.00e+00	0	42	104	31281119232	60	48793
2026-01-01 21:05:12.39	133.89	2.14	-49.4	-51.9	3.6	0.00e+00	0	42	104	31281119232	60	47986
2026-01-01 21:05:15.42	134.26	1.98	-49.4	-51.9	3.6	0.00e+00	0	41	104	31281119232	60	48168
2026-01-01 21:05:18.45	134.62	1.82	-49.5	-51.9	3.6	0.00e+00	0	42	104	31281119232	60	48118
2026-01-01 21:05:21.48	134.98	1.66	-49.5	-51.9	3.6	0.00e+00	0	41	104	31281119232	60	48452
2026-01-01 21:05:24.51	135.33	1.50	-49.5	-51.9	3.6	0.00e+00	0	42	104	31281119232	60	48165
2026-01-01 21:05:27.55	135.68	1.34	-49.5	-52.0	3.6	0.00e+00	0	42	104	31281119232	60	48484
2026-01-01 21:05:30.57	136.03	1.18	-49.5	-51.9	3.6	0.00e+00	0	42	104	31281119232	60	48074
2026-01-01 21:05:33.60	136.37	1.02	-49.4	-51.8	3.6	0.00e+00	0	42	104	31281119232	60	47885
2026-01-01 21:05:36.63	136.70	0.86	-49.4	-51.9	3.6	0.00e+00	0	41	104	31281119232	60	48145
2026-01-01 21:05:39.66	137.03	0.71	-49.5	-51.9	3.6	0.00e+00	0	42	104	31281119232	60	48176
2026-01-01 21:05:42.69	137.36	0.55	-49.5	-51.9	3.6	0.00e+00	0	42	104	31281119232	60	48354
2026-01-01 21:05:45.72	137.68	0.39	-49.5	-51.9	3.6	0.00e+00	0	41	104	31281119232	60	48132
2026-01-01 21:05:48.75	138.00	0.24	-49.5	-51.9	3.6	0.00e+00	0	41	104	31281119232	60	48342
2026-01-01 21:05:51.78	138.31	0.08	-49.4	-51.9	3.6	0.00e+00	0	41	104	31281119232	60	48078
2026-01-01 21:05:54.80	138.62	-0.07	-49.5	-51.9	3.6	0.00e+00	0	41	104	31281119232	60	48232

#Closed at: 2026-01-01 21:05:55
#Recorded file [31281 MB]: D:/lorett/data/35029_260102_085619.dat