passes_logs/2026/01/01/R4.6S_Anadyr/R4.6S_Anadyr__20260101_022337_NOAA_20_JPSS-1_rec.log

#Pass ID: 20260101_022337_NOAA 20 (JPSS-1)
#Satellite: NOAA 20 (JPSS-1)
#Configuration: NOAA 20
#almurnet v.1.7.20251203
#Start time: 2026-01-01 02:23:39

#Version: 2.2.20231116
#Station: R4.6S_Anadyr
#Location: 177.4865 lon 64.73178 lat
#TLE: 1 43013U 17073A   25364.89373485  .00000164  00000+0  98659-4 0  9997
#TLE: 2 43013  98.7619 300.9939 0001957  61.1511 298.9862 14.19531413420599

#Time	Az	El	Level	Level2	SNR	BER	BlckErr	Temp	State	Recorded	gain1	gain2
2026-01-01 02:23:39.04	213.16	0.06	-49.4	-64.3	3.5	1.51e+00	0	35	0	0	60	59331
2026-01-01 02:23:43.07	213.43	0.26	-49.6	-64.8	3.6	1.51e+00	0	36	104	0	60	62855
2026-01-01 02:23:47.11	213.71	0.47	-49.6	-64.8	3.6	1.51e+00	0	37	104	0	60	62980
2026-01-01 02:23:51.15	214.00	0.68	-49.4	-64.7	3.6	1.51e+00	0	37	104	0	60	61869
2026-01-01 02:23:55.19	214.28	0.89	-48.9	-64.0	3.6	1.51e+00	0	37	104	0	60	57519
2026-01-01 02:23:59.23	214.58	1.10	-48.1	-63.3	3.6	1.51e+00	0	37	104	0	60	52794
2026-01-01 02:24:03.27	214.87	1.31	-48.1	-63.2	3.6	1.51e+00	0	37	104	0	60	52167
2026-01-01 02:24:07.31	215.17	1.52	-48.1	-63.3	3.6	1.51e+00	0	37	104	0	60	52592
2026-01-01 02:24:11.35	215.48	1.74	-48.1	-63.3	3.6	1.51e+00	0	37	104	0	60	52872
2026-01-01 02:24:15.39	215.78	1.95	-48.1	-63.2	3.6	1.51e+00	0	37	104	0	60	52290
2026-01-01 02:24:19.44	216.10	2.17	-48.1	-63.2	3.6	1.51e+00	0	37	104	0	60	52272
2026-01-01 02:24:23.48	216.41	2.38	-48.1	-63.2	3.6	1.51e+00	0	37	104	0	60	51948
2026-01-01 02:24:27.52	216.74	2.60	-48.0	-61.1	3.6	1.50e+00	0	37	104	0	60	41017
2026-01-01 02:24:31.55	217.06	2.82	-47.6	-56.9	5.5	1.22e+00	92	37	104	0	60	25370
2026-01-01 02:24:35.59	217.39	3.04	-45.6	-49.3	12.9	6.79e-05	74	37	0	6291456	60	10522
2026-01-01 02:24:39.63	217.73	3.26	-44.5	-47.3	16.9	1.49e+00	38	37	104	10485760	60	8334
2026-01-01 02:24:43.67	218.07	3.48	-43.1	-45.1	17.5	0.00e+00	92	37	0	17825792	60	6493
2026-01-01 02:24:47.70	218.41	3.70	-42.3	-44.0	18.5	0.00e+00	92	37	0	25165824	58	6438
2026-01-01 02:24:51.74	218.76	3.92	-41.8	-43.4	19.1	0.00e+00	90	37	0	32505856	58	6000
2026-01-01 02:24:55.78	219.12	4.15	-41.9	-43.5	19.0	0.00e+00	37	37	0	39845888	58	6053
2026-01-01 02:24:59.82	219.48	4.37	-41.9	-43.4	19.1	0.00e+00	91	37	0	48234496	58	5998
2026-01-01 02:25:03.86	219.84	4.60	-42.0	-43.6	18.9	0.00e+00	92	37	0	55574528	58	6159
2026-01-01 02:25:07.89	220.21	4.83	-42.0	-43.5	19.1	0.00e+00	22	37	0	62914560	58	6100
2026-01-01 02:25:11.93	220.59	5.05	-42.0	-43.6	19.0	0.00e+00	92	37	0	70254592	58	6131
2026-01-01 02:25:15.97	220.97	5.28	-42.1	-43.7	19.0	0.00e+00	92	37	0	77594624	58	6200
2026-01-01 02:25:20.01	221.36	5.51	-42.3	-43.9	18.8	0.00e+00	92	37	0	85983232	58	6334
2026-01-01 02:25:24.04	221.75	5.74	-42.3	-43.9	18.7	0.00e+00	69	38	0	93323264	58	6377
2026-01-01 02:25:28.08	222.15	5.98	-42.4	-44.0	18.8	0.00e+00	92	38	0	100663296	58	6427
2026-01-01 02:25:32.11	222.56	6.21	-42.4	-44.1	18.6	0.00e+00	92	37	0	108003328	58	6497
2026-01-01 02:25:36.15	222.97	6.44	-42.5	-44.2	18.6	0.00e+00	92	37	0	115343360	58	6587
2026-01-01 02:25:40.19	223.39	6.68	-42.6	-44.2	18.5	0.00e+00	66	38	0	123731968	58	6614
2026-01-01 02:25:44.23	223.82	6.91	-42.7	-44.4	18.5	0.00e+00	90	38	0	131072000	58	6695
2026-01-01 02:25:48.27	224.25	7.15	-42.6	-44.3	18.6	0.00e+00	90	37	0	138412032	58	6632
2026-01-01 02:25:52.30	224.69	7.38	-42.6	-44.2	18.6	0.00e+00	90	38	0	145752064	58	6613
2026-01-01 02:25:56.34	225.13	7.62	-42.5	-44.1	18.8	0.00e+00	0	38	0	154140672	58	6514
2026-01-01 02:26:00.38	225.58	7.86	-42.6	-44.2	18.7	0.00e+00	91	38	0	161480704	58	6601
2026-01-01 02:26:04.42	226.04	8.10	-42.7	-44.3	18.6	0.00e+00	92	38	0	168820736	58	6658
2026-01-01 02:26:08.46	226.51	8.34	-42.6	-44.2	18.8	0.00e+00	91	38	0	176160768	58	6562
2026-01-01 02:26:12.49	226.98	8.58	-42.5	-44.1	18.8	0.00e+00	0	38	0	183500800	58	6507
2026-01-01 02:26:16.53	227.47	8.82	-42.6	-44.2	18.8	0.00e+00	90	38	0	191889408	58	6587
2026-01-01 02:26:20.57	227.96	9.06	-42.8	-44.4	18.6	0.00e+00	92	38	0	199229440	58	6763
2026-01-01 02:26:24.61	228.46	9.30	-42.7	-44.3	18.7	0.00e+00	92	38	0	206569472	58	6664
2026-01-01 02:26:28.65	228.96	9.55	-42.7	-44.4	18.7	0.00e+00	37	38	0	213909504	58	6702
2026-01-01 02:26:32.68	229.47	9.79	-42.7	-44.4	18.7	0.00e+00	92	38	0	222298112	58	6694
2026-01-01 02:26:36.72	230.00	10.03	-42.7	-44.3	18.8	0.00e+00	92	38	0	229638144	58	6656
2026-01-01 02:26:40.76	230.53	10.28	-42.4	-44.0	19.0	0.00e+00	92	38	0	236978176	58	6432
2026-01-01 02:26:44.80	231.07	10.52	-42.4	-44.0	19.2	0.00e+00	90	38	0	244318208	58	6398
2026-01-01 02:26:48.83	231.61	10.77	-42.3	-43.8	19.3	0.00e+00	92	38	0	251658240	58	6255
2026-01-01 02:26:52.87	232.17	11.01	-42.3	-43.8	19.3	0.00e+00	92	38	0	260046848	58	6304
2026-01-01 02:26:56.91	232.74	11.25	-42.2	-43.7	19.4	0.00e+00	16	38	0	267386880	58	6181
2026-01-01 02:27:00.94	233.31	11.50	-42.2	-43.6	19.4	0.00e+00	91	38	0	274726912	58	6164
2026-01-01 02:27:04.98	233.90	11.74	-42.1	-43.6	19.6	0.00e+00	90	38	0	282066944	58	6128
2026-01-01 02:27:09.01	234.49	11.99	-41.8	-43.2	19.8	0.00e+00	92	38	0	290455552	58	5887
2026-01-01 02:27:13.05	235.09	12.23	-41.8	-43.2	19.9	0.00e+00	22	38	0	297795584	56	6572
2026-01-01 02:27:17.09	235.71	12.47	-41.4	-42.7	20.4	0.00e+00	91	38	0	305135616	56	6200
2026-01-01 02:27:21.12	236.33	12.71	-41.1	-42.4	20.7	0.00e+00	92	38	0	312475648	56	5971
2026-01-01 02:27:25.16	236.96	12.96	-41.0	-42.3	20.8	0.00e+00	92	38	0	319815680	56	5906
2026-01-01 02:27:29.20	237.60	13.20	-40.5	-41.7	21.1	0.00e+00	72	38	0	328204288	54	6177
2026-01-01 02:27:33.24	238.26	13.44	-40.6	-41.8	21.3	0.00e+00	91	38	0	335544320	54	6255
2026-01-01 02:27:37.28	238.92	13.68	-40.4	-41.6	21.6	0.00e+00	91	38	0	342884352	54	6113
2026-01-01 02:27:41.31	239.59	13.91	-40.2	-41.3	21.9	0.00e+00	92	38	0	350224384	54	5918
2026-01-01 02:27:45.35	240.28	14.15	-40.0	-41.1	22.0	0.00e+00	0	38	0	358612992	54	5775
2026-01-01 02:27:49.39	240.97	14.38	-39.6	-40.6	22.5	0.00e+00	92	38	0	365953024	52	6158
2026-01-01 02:27:53.43	241.68	14.62	-39.2	-40.1	23.0	0.00e+00	92	38	0	373293056	52	5806
2026-01-01 02:27:57.46	242.40	14.85	-39.0	-39.9	23.2	0.00e+00	92	38	0	380633088	52	5666
2026-01-01 02:28:01.50	243.12	15.08	-38.6	-39.5	23.6	0.00e+00	0	38	0	387973120	50	6077
2026-01-01 02:28:05.54	243.86	15.30	-38.3	-39.2	23.9	0.00e+00	92	38	0	396361728	50	5856
2026-01-01 02:28:09.58	244.61	15.53	-38.5	-39.4	23.7	0.00e+00	92	38	0	403701760	50	5977
2026-01-01 02:28:13.62	245.37	15.75	-38.5	-39.4	23.7	0.00e+00	92	38	0	411041792	50	6019
2026-01-01 02:28:17.66	246.14	15.97	-38.5	-39.4	23.6	0.00e+00	90	38	0	418381824	50	5970
2026-01-01 02:28:21.70	246.92	16.19	-38.8	-39.7	23.4	0.00e+00	90	38	0	426770432	50	6229
2026-01-01 02:28:25.73	247.72	16.40	-39.0	-39.9	23.2	0.00e+00	92	38	0	434110464	50	6351
2026-01-01 02:28:29.77	248.52	16.61	-38.9	-39.8	23.3	0.00e+00	67	38	0	441450496	50	6279
2026-01-01 02:28:33.81	249.33	16.81	-39.3	-40.2	22.9	0.00e+00	92	38	0	448790528	50	6587
2026-01-01 02:28:37.84	250.16	17.01	-39.4	-40.3	22.8	0.00e+00	90	38	0	456130560	50	6669
2026-01-01 02:28:41.88	250.99	17.21	-39.4	-40.4	22.8	0.00e+00	90	38	0	464519168	50	6717
2026-01-01 02:28:45.91	251.84	17.41	-39.8	-40.9	22.5	0.00e+00	0	38	0	471859200	52	6323
2026-01-01 02:28:49.96	252.70	17.60	-40.2	-41.3	22.0	0.00e+00	92	38	0	479199232	52	6651
2026-01-01 02:28:53.99	253.56	17.78	-40.4	-41.4	21.9	0.00e+00	92	38	0	486539264	52	6762
2026-01-01 02:28:58.03	254.44	17.96	-40.9	-42.0	21.4	0.00e+00	90	38	0	494927872	54	6451
2026-01-01 02:29:02.07	255.33	18.13	-40.5	-41.7	21.1	0.00e+00	6	38	0	502267904	54	6184
2026-01-01 02:29:06.11	256.23	18.30	-40.1	-41.2	22.2	0.00e+00	92	38	0	509607936	54	5845
2026-01-01 02:29:10.15	257.13	18.46	-40.4	-41.5	21.8	0.00e+00	92	38	0	516947968	54	6068
2026-01-01 02:29:14.19	258.05	18.62	-40.3	-41.3	22.0	0.00e+00	0	38	0	524288000	54	5960
2026-01-01 02:29:18.23	258.97	18.77	-39.9	-40.9	22.3	0.00e+00	18	38	0	532676608	54	5695
2026-01-01 02:29:22.26	259.91	18.91	-39.9	-40.9	22.3	0.00e+00	92	38	0	540016640	54	5658
2026-01-01 02:29:26.30	260.85	19.05	-40.0	-41.0	22.2	0.00e+00	92	38	0	547356672	54	5761
2026-01-01 02:29:30.34	261.80	19.18	-40.1	-41.1	22.2	0.00e+00	0	38	0	554696704	54	5803
2026-01-01 02:29:34.38	262.76	19.31	-39.7	-40.7	22.6	0.00e+00	0	38	0	563085312	52	6218
2026-01-01 02:29:38.41	263.72	19.42	-39.7	-40.7	22.7	0.00e+00	92	38	0	570425344	52	6192
2026-01-01 02:29:42.45	264.69	19.53	-39.9	-40.9	22.5	0.00e+00	92	38	0	577765376	52	6333
2026-01-01 02:29:46.48	265.67	19.63	-39.7	-40.7	22.7	0.00e+00	5	38	0	585105408	52	6174
2026-01-01 02:29:50.52	266.65	19.72	-39.6	-40.5	22.8	0.00e+00	41	38	0	592445440	52	6100
2026-01-01 02:29:54.55	267.64	19.81	-39.7	-40.7	22.7	0.00e+00	92	38	0	600834048	52	6174
2026-01-01 02:29:58.59	268.63	19.88	-39.2	-40.2	23.1	0.00e+00	92	38	0	608174080	52	5831
2026-01-01 02:30:02.63	269.63	19.95	-39.3	-40.2	23.0	0.00e+00	66	38	0	615514112	52	5896
2026-01-01 02:30:06.67	270.64	20.01	-40.2	-41.2	22.1	0.00e+00	50	38	0	622854144	52	6599
2026-01-01 02:30:10.71	271.64	20.06	-40.2	-41.2	22.2	0.00e+00	92	38	0	631242752	52	6577
2026-01-01 02:30:14.74	272.65	20.11	-39.8	-40.8	22.6	0.00e+00	92	38	0	638582784	52	6267
2026-01-01 02:30:18.78	273.66	20.14	-39.9	-40.9	22.4	0.00e+00	0	38	0	645922816	52	6359
2026-01-01 02:30:22.82	274.68	20.17	-40.2	-41.2	22.2	0.00e+00	92	38	0	653262848	52	6588
2026-01-01 02:30:26.86	275.69	20.18	-40.3	-41.4	22.0	0.00e+00	92	38	0	660602880	52	6713
2026-01-01 02:30:30.89	276.71	20.19	-40.7	-41.8	21.6	0.00e+00	92	38	0	668991488	54	6305
2026-01-01 02:30:34.93	277.72	20.19	-40.6	-41.7	21.6	0.00e+00	0	38	0	676331520	54	6195
2026-01-01 02:30:38.97	278.74	20.18	-40.4	-41.5	21.9	0.00e+00	92	38	0	683671552	54	6064
2026-01-01 02:30:43.01	279.75	20.16	-39.8	-40.8	22.5	0.00e+00	90	38	0	691011584	54	5622
2026-01-01 02:30:47.04	280.76	20.13	-39.7	-40.7	22.6	0.00e+00	92	38	0	698351616	52	6223
2026-01-01 02:30:51.07	281.77	20.09	-40.2	-41.3	22.2	0.00e+00	0	38	0	706740224	52	6620
2026-01-01 02:30:55.11	282.78	20.05	-40.0	-41.1	22.3	0.00e+00	92	38	0	714080256	52	6495
2026-01-01 02:30:59.15	283.79	19.99	-40.3	-41.3	22.0	0.00e+00	92	38	0	721420288	52	6660
2026-01-01 02:31:03.19	284.79	19.93	-40.4	-41.4	21.9	0.00e+00	83	38	0	728760320	52	6761
2026-01-01 02:31:07.22	285.78	19.86	-40.1	-41.1	22.0	0.00e+00	0	38	0	737148928	52	6513
2026-01-01 02:31:11.26	286.77	19.78	-39.7	-40.7	22.5	0.00e+00	91	38	0	744488960	52	6245
2026-01-01 02:31:15.30	287.76	19.69	-40.0	-41.1	22.2	0.00e+00	92	38	0	751828992	52	6473
2026-01-01 02:31:19.34	288.74	19.60	-39.6	-40.6	22.7	0.00e+00	0	38	0	759169024	52	6161
2026-01-01 02:31:23.37	289.71	19.50	-39.0	-39.9	23.4	0.00e+00	0	38	0	766509056	52	5665
2026-01-01 02:31:27.40	290.68	19.39	-38.6	-39.5	23.7	0.00e+00	90	38	0	774897664	50	6063
2026-01-01 02:31:31.44	291.64	19.27	-39.1	-40.0	23.3	0.00e+00	44	38	0	782237696	50	6420
2026-01-01 02:31:35.48	292.59	19.14	-39.1	-40.0	23.2	0.00e+00	6	38	0	789577728	50	6449
2026-01-01 02:31:39.52	293.54	19.01	-39.1	-40.1	23.2	0.00e+00	60	38	0	796917760	50	6475
2026-01-01 02:31:43.56	294.47	18.87	-38.5	-39.4	23.7	0.00e+00	92	38	0	805306368	50	5998
2026-01-01 02:31:47.60	295.40	18.73	-37.9	-38.8	24.3	0.00e+00	0	38	0	812646400	50	5568
2026-01-01 02:31:51.64	296.32	18.57	-38.4	-39.3	23.9	0.00e+00	71	38	0	819986432	50	5908
2026-01-01 02:31:55.68	297.23	18.42	-38.5	-39.4	23.8	0.00e+00	92	38	0	827326464	50	5998
2026-01-01 02:31:59.72	298.13	18.25	-38.1	-38.9	24.1	0.00e+00	92	38	0	834666496	50	5690
2026-01-01 02:32:03.75	299.02	18.08	-37.7	-38.5	24.5	0.00e+00	0	38	0	843055104	48	6093
2026-01-01 02:32:07.79	299.90	17.91	-37.7	-38.5	24.4	0.00e+00	71	38	0	850395136	48	6052
2026-01-01 02:32:11.83	300.77	17.73	-38.1	-38.9	24.1	0.00e+00	92	38	0	857735168	48	6361
2026-01-01 02:32:15.86	301.63	17.54	-38.2	-39.1	24.0	0.00e+00	92	38	0	865075200	48	6488
2026-01-01 02:32:19.90	302.48	17.36	-38.3	-39.2	23.9	0.00e+00	0	38	0	873463808	48	6599
2026-01-01 02:32:23.94	303.32	17.16	-39.2	-40.2	23.0	0.00e+00	0	38	0	880803840	50	6570
2026-01-01 02:32:27.98	304.15	16.96	-39.4	-40.3	22.8	0.00e+00	92	38	0	888143872	50	6687
2026-01-01 02:32:32.02	304.97	16.76	-39.5	-40.5	22.7	0.00e+00	90	38	0	895483904	50	6798
2026-01-01 02:32:36.06	305.78	16.56	-39.3	-40.3	23.0	0.00e+00	11	38	0	902823936	50	6626
2026-01-01 02:32:40.09	306.57	16.35	-39.4	-40.3	22.8	0.00e+00	0	37	0	911212544	50	6692
2026-01-01 02:32:44.13	307.36	16.13	-40.0	-41.0	22.2	0.00e+00	90	38	0	918552576	52	6462
2026-01-01 02:32:48.17	308.13	15.92	-39.9	-40.9	22.3	0.00e+00	92	38	0	925892608	52	6386
2026-01-01 02:32:52.20	308.90	15.70	-39.7	-40.7	22.4	0.00e+00	70	38	0	933232640	52	6239
2026-01-01 02:32:56.24	309.65	15.48	-39.9	-40.9	22.4	0.00e+00	42	38	0	940572672	52	6361
2026-01-01 02:33:00.28	310.39	15.26	-37.0	-41.2	18.8	1.27e-02	92	37	0	948961280	46	9249
2026-01-01 02:33:04.31	311.12	15.03	-39.5	-40.5	22.7	0.00e+00	0	37	0	956301312	52	6048
2026-01-01 02:33:08.35	311.85	14.80	-39.3	-40.2	22.9	0.00e+00	0	38	0	963641344	52	5896
2026-01-01 02:33:12.39	312.56	14.57	-39.5	-40.5	22.7	0.00e+00	0	38	0	970981376	52	6036
2026-01-01 02:33:16.43	313.26	14.34	-40.2	-41.2	21.9	0.00e+00	92	38	0	979369984	52	6606
2026-01-01 02:33:20.46	313.94	14.11	-40.6	-41.8	21.4	0.00e+00	6	38	0	986710016	54	6275
2026-01-01 02:33:24.50	314.62	13.87	-39.3	-40.3	22.7	0.00e+00	14	37	0	994050048	52	5942
2026-01-01 02:33:28.54	315.29	13.64	-39.2	-40.1	23.0	0.00e+00	91	37	0	1001390080	52	5816
2026-01-01 02:33:32.58	315.95	13.40	-39.5	-40.5	22.7	0.00e+00	68	38	0	1008730112	52	6041
2026-01-01 02:33:36.61	316.59	13.16	-39.3	-40.3	22.8	0.00e+00	18	38	0	1017118720	52	5915
2026-01-01 02:33:40.66	317.23	12.92	-39.6	-40.6	22.5	0.00e+00	6	38	0	1024458752	52	6149
2026-01-01 02:33:44.70	317.86	12.68	-39.4	-40.4	22.6	0.00e+00	92	38	0	1031798784	52	6018
2026-01-01 02:33:48.74	318.48	12.44	-38.9	-39.9	23.2	0.00e+00	0	38	0	1039138816	52	5653
2026-01-01 02:33:52.77	319.09	12.20	-39.5	-40.5	22.5	0.00e+00	69	37	0	1047527424	52	6095
2026-01-01 02:33:56.80	319.68	11.96	-39.4	-40.5	22.5	0.00e+00	12	38	0	1054867456	52	6039
2026-01-01 02:34:00.84	320.27	11.72	-39.2	-40.2	22.7	0.00e+00	92	38	0	1062207488	52	5871
2026-01-01 02:34:04.88	320.85	11.48	-39.7	-40.8	22.2	0.00e+00	0	38	0	1069547520	52	6267
2026-01-01 02:34:08.91	321.42	11.24	-40.0	-41.0	21.9	0.00e+00	0	38	0	1076887552	52	6460
2026-01-01 02:34:12.95	321.98	10.99	-39.5	-40.6	22.4	0.00e+00	0	38	0	1085276160	52	6106
2026-01-01 02:34:16.99	322.54	10.75	-39.6	-40.7	22.3	0.00e+00	92	38	0	1092616192	52	6197
2026-01-01 02:34:21.03	323.08	10.51	-40.0	-41.0	22.0	0.00e+00	13	37	0	1099956224	52	6453
2026-01-01 02:34:25.07	323.62	10.27	-39.8	-40.9	22.2	0.00e+00	14	37	0	1107296256	52	6358
2026-01-01 02:34:29.10	324.14	10.03	-40.1	-41.2	21.8	0.00e+00	0	37	0	1115684864	52	6546
2026-01-01 02:34:33.14	324.66	9.79	-40.7	-41.8	21.1	0.00e+00	91	38	0	1123024896	52	7083
2026-01-01 02:34:37.18	325.17	9.55	-40.7	-41.9	21.0	0.00e+00	68	38	0	1130364928	54	6319
2026-01-01 02:34:41.21	325.67	9.31	-40.7	-41.8	21.0	0.00e+00	16	37	0	1137704960	54	6306
2026-01-01 02:34:45.25	326.17	9.07	-40.9	-42.2	20.8	0.00e+00	51	37	0	1145044992	54	6554
2026-01-01 02:34:49.29	326.66	8.83	-41.3	-42.6	20.3	0.00e+00	95	38	0	1153433600	54	6888
2026-01-01 02:34:53.33	327.14	8.59	-40.7	-41.9	21.0	0.00e+00	0	38	0	1160773632	54	6367
2026-01-01 02:34:57.36	327.61	8.35	-40.8	-42.1	20.9	0.00e+00	0	38	0	1168113664	54	6473
2026-01-01 02:35:01.40	328.07	8.11	-41.1	-42.4	20.5	0.00e+00	67	38	0	1175453696	54	6721
2026-01-01 02:35:05.36	328.52	7.88	-41.4	-42.8	20.0	0.00e+00	91	37	0	1182793728	54	7049
2026-01-01 02:35:09.40	328.97	7.64	-41.2	-42.5	20.2	0.00e+00	6	37	0	1191182336	54	6847
2026-01-01 02:35:13.44	329.41	7.41	-41.0	-42.3	20.5	0.00e+00	5	38	0	1198522368	54	6670
2026-01-01 02:35:17.48	329.85	7.17	-41.2	-42.5	20.2	0.00e+00	92	38	0	1205862400	54	6810
2026-01-01 02:35:21.51	330.28	6.94	-41.4	-42.8	20.0	0.00e+00	25	37	0	1213202432	54	7015
2026-01-01 02:35:25.55	330.70	6.71	-41.2	-42.5	20.1	0.00e+00	19	38	0	1221591040	54	6836
2026-01-01 02:35:29.59	331.12	6.48	-41.4	-42.8	19.9	0.00e+00	0	37	0	1228931072	54	7025
2026-01-01 02:35:33.63	331.53	6.24	-41.9	-43.4	19.3	0.00e+00	92	38	0	1236271104	56	6711
2026-01-01 02:35:37.67	331.94	6.01	-41.9	-43.4	19.2	0.00e+00	7	38	0	1243611136	56	6769
2026-01-01 02:35:41.71	332.34	5.78	-41.8	-43.4	19.2	0.00e+00	0	38	0	1250951168	56	6694
2026-01-01 02:35:45.74	332.73	5.56	-42.2	-44.0	18.1	0.00e+00	16	38	0	1259339776	56	7212
2026-01-01 02:35:49.78	333.11	5.33	-43.2	-45.8	15.5	0.00e+00	90	38	0	1266679808	58	7884
2026-01-01 02:35:53.82	333.50	5.10	-44.4	-49.1	10.8	1.77e-03	0	38	0	1274019840	60	10338
2026-01-01 02:35:57.86	333.87	4.88	-44.6	-52.5	5.9	2.52e-01	0	38	0	1281359872	60	15217
2026-01-01 02:36:01.89	334.24	4.65	-44.6	-56.8	3.7	1.42e+00	0	38	104	1286602752	60	25123
2026-01-01 02:36:05.93	334.61	4.43	-44.6	-58.5	3.6	1.51e+00	0	38	104	1286602752	60	30536
2026-01-01 02:36:09.96	334.97	4.21	-44.6	-59.8	3.6	1.51e+00	0	38	104	1286602752	60	35146
2026-01-01 02:36:14.00	335.32	3.99	-44.6	-59.8	3.6	1.51e+00	0	38	104	1286602752	60	35188
2026-01-01 02:36:18.03	335.67	3.76	-44.7	-59.8	3.6	1.51e+00	0	38	104	1286602752	60	35305
2026-01-01 02:36:22.07	336.02	3.54	-44.6	-59.8	3.6	1.51e+00	0	38	104	1286602752	60	35381
2026-01-01 02:36:26.11	336.36	3.33	-44.6	-59.8	3.6	1.51e+00	0	38	104	1286602752	60	35203
2026-01-01 02:36:30.15	336.69	3.11	-44.6	-59.8	3.6	1.51e+00	0	38	104	1286602752	60	35170
2026-01-01 02:36:34.18	337.02	2.89	-48.9	-64.1	3.6	1.51e+00	0	38	104	1286602752	60	58178
2026-01-01 02:36:38.22	337.35	2.68	-49.5	-64.8	3.6	1.51e+00	0	38	104	1286602752	60	62646
2026-01-01 02:36:42.26	337.67	2.46	-49.5	-64.8	3.6	1.51e+00	0	38	104	1286602752	60	62823
2026-01-01 02:36:46.30	337.99	2.25	-49.5	-64.7	3.6	1.51e+00	0	38	104	1286602752	60	61953
2026-01-01 02:36:50.34	338.30	2.03	-49.5	-64.7	3.6	1.51e+00	0	38	104	1286602752	60	62184
2026-01-01 02:36:54.37	338.61	1.82	-49.5	-64.7	3.6	1.51e+00	0	38	104	1286602752	60	61804
2026-01-01 02:36:58.41	338.91	1.61	-49.5	-64.7	3.6	1.51e+00	0	38	104	1286602752	60	62097
2026-01-01 02:37:02.45	339.21	1.40	-49.5	-64.7	3.6	1.51e+00	0	38	104	1286602752	60	62094
2026-01-01 02:37:06.49	339.51	1.19	-49.5	-64.7	3.6	1.51e+00	0	38	104	1286602752	60	61922
2026-01-01 02:37:10.53	339.80	0.98	-49.5	-64.7	3.6	1.51e+00	0	38	104	1286602752	60	61884
2026-01-01 02:37:14.57	340.09	0.77	-49.4	-64.7	3.5	1.51e+00	0	38	104	1286602752	60	61891
2026-01-01 02:37:18.61	340.38	0.57	-49.4	-64.7	3.6	1.51e+00	0	38	104	1286602752	60	61942
2026-01-01 02:37:22.65	340.66	0.36	-49.4	-64.6	3.6	1.51e+00	0	38	104	1286602752	60	61477
2026-01-01 02:37:26.70	340.94	0.16	-49.4	-64.7	3.6	1.51e+00	0	38	104	1286602752	60	61873

#Closed at: 2026-01-01 02:37:30
#Recorded file [1286 MB]: D:/lorett/data/35029_260101_142339.dat