passes_logs/2026/01/01/R4.6S_Anadyr/R4.6S_Anadyr__20260101_182835_FENGYUN_3D_rec.log

#Pass ID: 20260101_182835_FENGYUN 3D
#Satellite: FENGYUN 3D
#Configuration: FENGYUN 3D
#almurnet v.1.7.20251203
#Start time: 2026-01-01 18:28:39

#Version: 2.2.20231116
#Station: R4.6S_Anadyr
#Location: 177.4865 lon 64.73178 lat
#TLE: 1 43010U 17072A   25364.99193771  .00000012  00000+0  27255-4 0  9998
#TLE: 2 43010  98.9913 331.5779 0001825 135.6238 224.5084 14.19689358421127

#Time	Az	El	Level	Level2	SNR	BER	BlckErr	Temp	State	Recorded	gain1	gain2
2026-01-01 18:28:39.17	26.53	0.19	-49.3	-60.0	3.3	8.39e-01	0	38	0	0	60	36192
2026-01-01 18:28:43.21	26.37	0.42	-49.4	-61.5	3.6	8.45e-01	0	38	104	0	60	43034
2026-01-01 18:28:47.25	26.21	0.66	-49.0	-61.1	3.6	8.45e-01	0	38	104	0	60	41207
2026-01-01 18:28:51.29	26.05	0.89	-48.2	-60.3	3.6	8.45e-01	0	38	104	0	60	37435
2026-01-01 18:28:55.32	25.88	1.13	-47.8	-60.0	3.6	8.45e-01	0	38	104	0	60	36104
2026-01-01 18:28:59.36	25.71	1.36	-47.8	-59.9	3.6	8.46e-01	0	38	104	0	60	35689
2026-01-01 18:29:03.40	25.54	1.60	-47.8	-59.9	3.6	8.47e-01	0	38	104	0	60	35750
2026-01-01 18:29:07.44	25.36	1.85	-47.8	-59.7	3.6	8.44e-01	0	38	104	0	60	35051
2026-01-01 18:29:11.47	25.18	2.09	-47.8	-59.3	3.6	8.45e-01	0	38	104	0	60	33439
2026-01-01 18:29:15.52	25.00	2.33	-47.8	-60.0	3.6	8.46e-01	0	38	104	0	60	36044
2026-01-01 18:29:19.55	24.81	2.58	-47.8	-59.8	3.6	8.45e-01	0	38	104	0	60	35325
2026-01-01 18:29:23.59	24.62	2.83	-47.6	-58.2	3.6	8.45e-01	0	38	104	0	60	29352
2026-01-01 18:29:27.63	24.43	3.08	-47.7	-59.2	3.6	8.45e-01	0	38	104	0	60	33135
2026-01-01 18:29:31.67	24.23	3.33	-45.0	-48.0	10.7	1.02e-02	0	38	0	10485760	60	9089
2026-01-01 18:29:35.72	24.03	3.59	-47.7	-57.7	3.6	2.09e-01	0	38	104	32505856	60	27598
2026-01-01 18:29:39.75	23.83	3.85	-39.7	-40.8	6.1	8.34e-01	0	39	104	37748736	56	5018
2026-01-01 18:29:43.80	23.62	4.10	-36.8	-37.6	21.5	0.00e+00	0	38	0	55574528	46	6148
2026-01-01 18:29:47.83	23.41	4.37	-36.7	-37.5	21.6	0.00e+00	0	39	0	78643200	46	6084
2026-01-01 18:29:51.88	23.19	4.63	-36.6	-37.4	21.8	0.00e+00	0	38	0	100663296	46	5994
2026-01-01 18:29:55.92	22.97	4.89	-36.1	-36.9	22.2	0.00e+00	0	38	0	123731968	46	5678
2026-01-01 18:29:59.96	22.75	5.16	-35.9	-36.7	22.4	0.00e+00	0	38	0	146800640	46	5555
2026-01-01 18:30:04.00	22.52	5.43	-36.1	-36.9	22.4	0.00e+00	0	38	0	168820736	46	5675
2026-01-01 18:30:08.04	22.28	5.70	-36.2	-36.9	22.5	0.00e+00	0	38	0	191889408	46	5685
2026-01-01 18:30:12.08	22.05	5.98	-36.2	-37.0	22.3	0.00e+00	0	39	0	214958080	46	5751
2026-01-01 18:30:16.12	21.80	6.26	-36.0	-36.8	22.5	0.00e+00	0	39	0	236978176	46	5616
2026-01-01 18:30:20.16	21.55	6.53	-36.5	-37.3	22.2	0.00e+00	0	39	0	260046848	46	5926
2026-01-01 18:30:24.19	21.30	6.82	-35.9	-36.6	22.7	0.00e+00	0	39	0	283115520	46	5492
2026-01-01 18:30:28.24	21.04	7.10	-35.8	-36.5	22.9	0.00e+00	0	39	0	306184192	44	6096
2026-01-01 18:30:32.28	20.78	7.39	-35.6	-36.3	23.1	0.00e+00	0	39	0	328204288	44	5962
2026-01-01 18:30:36.32	20.51	7.68	-35.5	-36.2	23.2	0.00e+00	0	39	0	351272960	44	5851
2026-01-01 18:30:40.36	20.23	7.97	-35.3	-36.0	23.4	0.00e+00	0	39	0	373293056	44	5746
2026-01-01 18:30:44.40	19.95	8.26	-35.4	-36.1	23.4	0.00e+00	0	39	0	396361728	44	5818
2026-01-01 18:30:48.44	19.66	8.56	-35.0	-35.7	23.7	0.00e+00	0	39	0	419430400	44	5564
2026-01-01 18:30:52.48	19.37	8.86	-35.1	-35.8	23.7	0.00e+00	0	39	0	441450496	44	5624
2026-01-01 18:30:56.52	19.07	9.17	-35.2	-35.9	23.6	0.00e+00	0	39	0	464519168	44	5674
2026-01-01 18:31:00.56	18.76	9.47	-35.0	-35.7	23.8	0.00e+00	0	39	0	487587840	44	5534
2026-01-01 18:31:04.61	18.45	9.78	-35.0	-35.7	23.8	0.00e+00	0	39	0	510656512	44	5527
2026-01-01 18:31:08.64	18.13	10.09	-35.2	-35.9	23.7	0.00e+00	0	39	0	532676608	44	5673
2026-01-01 18:31:12.68	17.80	10.41	-34.8	-35.5	24.1	0.00e+00	0	39	0	555745280	42	6099
2026-01-01 18:31:16.72	17.46	10.73	-34.7	-35.5	24.3	0.00e+00	0	39	0	577765376	42	6038
2026-01-01 18:31:20.76	17.12	11.05	-34.5	-35.2	24.4	0.00e+00	0	39	0	600834048	42	5870
2026-01-01 18:31:24.80	16.77	11.38	-34.3	-35.0	24.5	0.00e+00	0	39	0	623902720	42	5738
2026-01-01 18:31:28.84	16.41	11.70	-34.5	-35.2	24.5	0.00e+00	0	39	0	646971392	42	5881
2026-01-01 18:31:32.88	16.04	12.03	-34.3	-35.0	24.6	0.00e+00	0	39	0	668991488	42	5753
2026-01-01 18:31:36.92	15.66	12.37	-34.1	-34.8	24.8	0.00e+00	0	39	0	692060160	42	5608
2026-01-01 18:31:40.96	15.27	12.71	-34.2	-34.9	24.8	0.00e+00	0	39	0	715128832	42	5657
2026-01-01 18:31:45.00	14.88	13.05	-34.3	-35.0	24.6	0.00e+00	0	39	0	737148928	42	5710
2026-01-01 18:31:49.03	14.47	13.39	-34.2	-34.9	24.8	0.00e+00	0	39	0	760217600	42	5635
2026-01-01 18:31:53.07	14.06	13.74	-34.1	-34.8	24.9	0.00e+00	0	39	0	782237696	42	5607
2026-01-01 18:31:57.11	13.63	14.09	-33.9	-34.5	25.1	0.00e+00	0	39	0	805306368	42	5430
2026-01-01 18:32:01.16	13.20	14.45	-33.7	-34.4	25.2	0.00e+00	0	39	0	828375040	40	6010
2026-01-01 18:32:05.19	12.75	14.81	-33.8	-34.5	25.2	0.00e+00	0	39	0	851443712	40	6064
2026-01-01 18:32:09.23	12.29	15.17	-33.5	-34.2	25.4	0.00e+00	0	39	0	873463808	40	5863
2026-01-01 18:32:13.27	11.82	15.53	-33.4	-34.0	25.6	0.00e+00	0	39	0	896532480	40	5747
2026-01-01 18:32:17.31	11.34	15.90	-33.2	-33.8	25.8	0.00e+00	0	39	0	919601152	40	5616
2026-01-01 18:32:21.34	10.85	16.28	-33.1	-33.8	25.9	0.00e+00	0	39	0	941621248	40	5584
2026-01-01 18:32:25.38	10.34	16.65	-33.4	-34.1	25.6	0.00e+00	0	39	0	964689920	40	5823
2026-01-01 18:32:29.42	9.82	17.03	-33.2	-33.9	25.8	0.00e+00	0	39	0	986710016	40	5661
2026-01-01 18:32:33.46	9.28	17.41	-33.1	-33.8	26.0	0.00e+00	0	39	0	1009778688	40	5572
2026-01-01 18:32:37.50	8.74	17.80	-32.9	-33.6	26.1	0.00e+00	0	39	0	1032847360	40	5447
2026-01-01 18:32:41.54	8.17	18.19	-32.7	-33.4	26.3	0.00e+00	0	39	0	1055916032	38	5974
2026-01-01 18:32:45.59	7.59	18.58	-32.4	-33.0	26.6	0.00e+00	0	39	0	1077936128	38	5748
2026-01-01 18:32:49.63	7.00	18.98	-32.6	-33.2	26.5	0.00e+00	0	39	0	1101004800	38	5859
2026-01-01 18:32:53.66	6.39	19.38	-32.3	-33.0	26.6	0.00e+00	0	39	0	1124073472	38	5717
2026-01-01 18:32:57.70	5.76	19.78	-32.3	-33.0	26.7	0.00e+00	0	39	0	1146093568	38	5707
2026-01-01 18:33:01.74	5.12	20.18	-32.2	-32.9	26.7	0.00e+00	0	39	0	1169162240	38	5653
2026-01-01 18:33:05.78	4.46	20.59	-32.2	-32.9	26.8	0.00e+00	0	39	0	1191182336	38	5648
2026-01-01 18:33:09.82	3.78	21.00	-32.0	-32.6	27.0	0.00e+00	0	39	0	1214251008	38	5468
2026-01-01 18:33:13.86	3.08	21.41	-31.9	-32.5	27.0	0.00e+00	0	39	0	1237319680	38	5432
2026-01-01 18:33:17.90	2.36	21.83	-31.8	-32.5	27.1	0.00e+00	0	39	0	1260388352	38	5389
2026-01-01 18:33:21.94	1.63	22.24	-31.9	-32.5	27.1	0.00e+00	0	39	0	1282408448	38	5407
2026-01-01 18:33:25.98	0.87	22.66	-31.8	-32.4	27.1	0.00e+00	0	39	0	1305477120	38	5355
2026-01-01 18:33:30.02	0.09	23.08	-31.9	-32.5	27.1	0.00e+00	0	39	0	1328545792	36	6067
2026-01-01 18:33:34.06	359.29	23.50	-31.6	-32.3	27.3	0.00e+00	0	39	0	1350565888	36	5911
2026-01-01 18:33:38.11	358.47	23.92	-31.5	-32.2	27.2	0.00e+00	0	39	0	1373634560	36	5835
2026-01-01 18:33:42.15	357.62	24.34	-31.4	-32.0	27.5	0.00e+00	0	39	0	1396703232	36	5748
2026-01-01 18:33:46.18	356.76	24.76	-31.2	-31.8	27.6	0.00e+00	0	39	0	1418723328	36	5609
2026-01-01 18:33:50.22	355.86	25.18	-31.3	-31.9	27.5	0.00e+00	0	39	0	1441792000	36	5653
2026-01-01 18:33:54.26	354.95	25.60	-31.2	-31.8	27.6	0.00e+00	0	39	0	1464860672	36	5607
2026-01-01 18:33:58.30	354.01	26.02	-30.8	-31.4	27.9	0.00e+00	0	39	0	1486880768	36	5358
2026-01-01 18:34:02.34	353.04	26.43	-30.9	-31.6	27.9	0.00e+00	0	39	0	1509949440	36	5441
2026-01-01 18:34:06.38	352.05	26.84	-30.8	-31.4	27.9	0.00e+00	0	39	0	1533018112	36	5354
2026-01-01 18:34:10.42	351.03	27.25	-30.9	-31.5	27.8	0.00e+00	0	39	0	1555038208	34	6074
2026-01-01 18:34:14.46	349.99	27.65	-30.8	-31.4	28.0	0.00e+00	0	39	0	1578106880	34	6033
2026-01-01 18:34:18.50	348.91	28.05	-30.9	-31.6	27.9	0.00e+00	0	39	0	1601175552	34	6112
2026-01-01 18:34:22.54	347.81	28.44	-30.8	-31.4	27.9	0.00e+00	0	39	0	1623195648	34	5979
2026-01-01 18:34:26.59	346.69	28.83	-30.8	-31.4	27.8	0.00e+00	0	39	0	1646264320	34	5997
2026-01-01 18:34:30.63	345.53	29.21	-30.8	-31.4	27.8	0.00e+00	0	39	0	1669332992	34	6007
2026-01-01 18:34:34.67	344.35	29.58	-30.3	-30.9	28.3	0.00e+00	0	39	0	1691353088	34	5692
2026-01-01 18:34:38.71	343.14	29.94	-30.8	-31.4	28.0	0.00e+00	0	39	0	1714421760	34	5994
2026-01-01 18:34:42.75	341.91	30.29	-30.7	-31.3	28.0	0.00e+00	0	39	0	1737490432	34	5938
2026-01-01 18:34:46.79	340.64	30.63	-30.5	-31.2	28.2	0.00e+00	0	39	0	1760559104	34	5843
2026-01-01 18:34:50.84	339.35	30.96	-30.4	-31.0	28.3	0.00e+00	0	39	0	1782579200	34	5739
2026-01-01 18:34:54.87	338.04	31.27	-30.4	-31.0	28.3	0.00e+00	0	39	0	1805647872	34	5759
2026-01-01 18:34:58.91	336.70	31.57	-30.3	-31.0	28.3	0.00e+00	0	39	0	1827667968	34	5712
2026-01-01 18:35:02.95	335.33	31.86	-30.1	-30.7	28.4	0.00e+00	0	39	0	1850736640	34	5538
2026-01-01 18:35:06.97	333.95	32.12	-30.4	-31.0	28.2	0.00e+00	0	39	0	1873805312	34	5759
2026-01-01 18:35:11.01	332.53	32.37	-30.2	-30.8	28.5	0.00e+00	0	39	0	1895825408	34	5615
2026-01-01 18:35:15.05	331.10	32.61	-30.5	-31.1	28.3	0.00e+00	0	39	0	1918894080	34	5798
2026-01-01 18:35:19.09	329.65	32.82	-30.3	-31.0	28.4	0.00e+00	0	39	0	1941962752	34	5712
2026-01-01 18:35:23.13	328.17	33.02	-29.9	-30.5	28.8	0.00e+00	0	39	0	1965031424	34	5414
2026-01-01 18:35:27.17	326.68	33.19	-30.0	-30.6	28.6	0.00e+00	0	39	0	1987051520	34	5468
2026-01-01 18:35:31.21	325.18	33.34	-30.2	-30.8	28.5	0.00e+00	0	39	0	2010120192	34	5595
2026-01-01 18:35:35.25	323.66	33.47	-30.2	-30.8	28.5	0.00e+00	0	39	0	2032140288	34	5620
2026-01-01 18:35:39.29	322.13	33.58	-30.2	-30.9	28.3	0.00e+00	0	39	0	2055208960	34	5632
2026-01-01 18:35:43.33	320.59	33.67	-30.3	-30.9	28.4	0.00e+00	0	39	0	2078277632	34	5658
2026-01-01 18:35:47.37	319.05	33.73	-30.3	-30.9	28.4	0.00e+00	0	39	0	2101346304	34	5682
2026-01-01 18:35:51.41	317.50	33.77	-30.2	-30.8	28.6	0.00e+00	0	39	0	2123366400	34	5612
2026-01-01 18:35:55.46	315.94	33.78	-30.4	-31.0	28.3	0.00e+00	0	39	0	2146435072	34	5745
2026-01-01 18:35:59.50	314.39	33.77	-30.1	-30.8	28.5	0.00e+00	0	39	0	2169503744	34	5601
2026-01-01 18:36:03.53	312.84	33.74	-30.3	-30.9	28.3	0.00e+00	0	39	0	2191523840	34	5640
2026-01-01 18:36:07.57	311.29	33.68	-30.1	-30.8	28.5	0.00e+00	0	39	0	2214592512	34	5567
2026-01-01 18:36:11.61	309.75	33.60	-30.4	-31.0	28.4	0.00e+00	0	39	0	2236612608	34	5758
2026-01-01 18:36:15.65	308.22	33.49	-30.2	-30.9	28.5	0.00e+00	0	39	0	2259681280	34	5644
2026-01-01 18:36:19.69	306.70	33.37	-29.9	-30.5	28.8	0.00e+00	0	39	0	2282749952	34	5430
2026-01-01 18:36:23.73	305.19	33.22	-29.9	-30.5	28.7	0.00e+00	0	39	0	2305818624	32	6040
2026-01-01 18:36:27.77	303.69	33.05	-30.2	-30.9	28.5	0.00e+00	0	39	0	2327838720	32	6343
2026-01-01 18:36:31.81	302.22	32.85	-30.3	-31.0	28.3	0.00e+00	0	39	0	2350907392	32	6395
2026-01-01 18:36:35.85	300.76	32.64	-30.3	-30.9	28.4	0.00e+00	0	39	0	2373976064	32	6328
2026-01-01 18:36:39.89	299.32	32.41	-30.3	-31.0	28.4	0.00e+00	0	39	0	2395996160	32	6431
2026-01-01 18:36:43.93	297.90	32.16	-30.3	-31.0	28.3	0.00e+00	0	39	0	2419064832	32	6459
2026-01-01 18:36:47.97	296.50	31.90	-30.4	-31.1	28.3	0.00e+00	0	39	0	2442133504	32	6472
2026-01-01 18:36:52.01	295.13	31.61	-30.3	-30.9	28.4	0.00e+00	0	39	0	2464153600	32	6334
2026-01-01 18:36:56.04	293.79	31.32	-30.2	-30.9	28.5	0.00e+00	0	39	0	2487222272	32	6335
2026-01-01 18:37:00.09	292.46	31.00	-30.4	-31.0	28.4	0.00e+00	0	39	0	2510290944	32	6400
2026-01-01 18:37:04.13	291.17	30.68	-30.4	-31.0	28.3	0.00e+00	0	39	0	2532311040	32	6424
2026-01-01 18:37:08.16	289.90	30.34	-30.9	-31.6	28.0	0.00e+00	0	39	0	2555379712	34	6140
2026-01-01 18:37:12.20	288.65	29.99	-30.5	-31.0	28.3	0.00e+00	0	39	0	2578448384	34	5748
2026-01-01 18:37:16.25	287.44	29.63	-30.5	-31.0	28.2	0.00e+00	0	39	0	2600468480	34	5761
2026-01-01 18:37:20.28	286.25	29.26	-30.6	-31.2	28.2	0.00e+00	0	39	0	2623537152	34	5856
2026-01-01 18:37:24.32	285.09	28.88	-30.7	-31.4	28.1	0.00e+00	0	39	0	2646605824	34	5974
2026-01-01 18:37:28.36	283.95	28.50	-30.7	-31.2	28.1	0.00e+00	0	39	0	2668625920	34	5871
2026-01-01 18:37:32.40	282.85	28.10	-30.7	-31.2	28.2	0.00e+00	0	39	0	2691694592	34	5877
2026-01-01 18:37:36.44	281.77	27.70	-30.7	-31.3	28.0	0.00e+00	0	39	0	2714763264	34	5906
2026-01-01 18:37:40.48	280.72	27.30	-30.9	-31.6	27.6	0.00e+00	0	39	0	2736783360	34	6163
2026-01-01 18:37:44.52	279.69	26.89	-31.1	-31.8	27.6	0.00e+00	0	39	0	2759852032	34	6309
2026-01-01 18:37:48.56	278.69	26.48	-31.0	-31.6	27.5	0.00e+00	0	39	0	2782920704	34	6104
2026-01-01 18:37:52.60	277.72	26.06	-30.9	-31.6	27.6	0.00e+00	0	39	0	2804940800	34	6105
2026-01-01 18:37:56.64	276.77	25.65	-31.4	-31.9	27.1	0.00e+00	0	39	0	2828009472	34	6388
2026-01-01 18:38:00.68	275.84	25.23	-31.4	-31.9	27.3	0.00e+00	0	39	0	2851078144	34	6381
2026-01-01 18:38:04.72	274.95	24.81	-31.4	-32.0	27.4	0.00e+00	0	39	0	2873098240	34	6396
2026-01-01 18:38:08.76	274.07	24.38	-31.6	-32.3	27.2	0.00e+00	0	39	0	2896166912	34	6645
2026-01-01 18:38:12.80	273.22	23.96	-31.5	-32.1	27.2	0.00e+00	0	39	0	2919235584	34	6475
2026-01-01 18:38:16.84	272.39	23.54	-31.4	-32.1	27.3	0.00e+00	0	39	0	2941255680	34	6502
2026-01-01 18:38:20.88	271.58	23.12	-31.6	-32.2	27.2	0.00e+00	0	39	0	2964324352	34	6566
2026-01-01 18:38:24.92	270.80	22.70	-31.6	-32.2	27.2	0.00e+00	0	39	0	2987393024	36	5835
2026-01-01 18:38:28.96	270.03	22.28	-31.6	-32.3	27.2	0.00e+00	0	39	0	3009413120	36	5940
2026-01-01 18:38:33.00	269.29	21.86	-31.8	-32.5	26.9	0.00e+00	0	39	0	3032481792	36	6078
2026-01-01 18:38:37.04	268.57	21.44	-31.6	-32.3	27.2	0.00e+00	0	39	0	3055550464	36	5924
2026-01-01 18:38:41.08	267.86	21.03	-31.9	-32.6	27.0	0.00e+00	0	39	0	3077570560	36	6122
2026-01-01 18:38:45.12	267.18	20.62	-31.7	-32.2	27.2	0.00e+00	0	39	0	3100639232	36	5895
2026-01-01 18:38:49.17	266.51	20.21	-31.7	-32.3	27.1	0.00e+00	0	39	0	3123707904	36	5910
2026-01-01 18:38:53.21	265.86	19.80	-32.1	-32.6	26.9	0.00e+00	0	39	0	3145728000	36	6160
2026-01-01 18:38:57.24	265.23	19.40	-32.1	-32.8	26.8	0.00e+00	0	39	0	3168796672	36	6282
2026-01-01 18:39:01.28	264.62	19.00	-32.2	-32.8	26.6	0.00e+00	0	39	0	3191865344	36	6268
2026-01-01 18:39:05.32	264.02	18.60	-32.2	-32.9	26.7	0.00e+00	0	39	0	3213885440	36	6340
2026-01-01 18:39:09.37	263.43	18.20	-32.4	-33.0	26.6	0.00e+00	0	39	0	3236954112	36	6424
2026-01-01 18:39:13.41	262.86	17.81	-32.6	-33.3	26.4	0.00e+00	0	39	0	3260022784	36	6668
2026-01-01 18:39:17.45	262.31	17.42	-32.6	-33.3	26.3	0.00e+00	0	39	0	3282042880	36	6689
2026-01-01 18:39:21.49	261.77	17.04	-33.0	-33.8	26.0	0.00e+00	0	39	0	3305111552	38	6248
2026-01-01 18:39:25.53	261.25	16.66	-32.9	-33.6	26.1	0.00e+00	0	39	0	3328180224	38	6168
2026-01-01 18:39:29.57	260.73	16.28	-33.0	-33.5	26.0	0.00e+00	0	39	0	3351248896	38	6097
2026-01-01 18:39:33.61	260.23	15.91	-33.2	-33.8	25.8	0.00e+00	0	39	0	3373268992	38	6288
2026-01-01 18:39:37.65	259.75	15.53	-33.4	-34.2	25.7	0.00e+00	0	39	0	3396337664	38	6543
2026-01-01 18:39:41.69	259.27	15.17	-33.4	-34.1	25.7	0.00e+00	0	39	0	3418357760	38	6471
2026-01-01 18:39:45.73	258.81	14.80	-33.6	-34.2	25.4	0.00e+00	0	39	0	3441426432	38	6605
2026-01-01 18:39:49.77	258.36	14.44	-33.8	-34.6	25.2	0.00e+00	0	39	0	3464495104	40	6105
2026-01-01 18:39:53.81	257.92	14.09	-34.0	-34.6	25.1	0.00e+00	0	39	0	3486515200	40	6109
2026-01-01 18:39:57.85	257.49	13.73	-34.0	-34.7	25.1	0.00e+00	0	39	0	3509583872	40	6208
2026-01-01 18:40:01.89	257.07	13.38	-34.1	-34.7	25.0	0.00e+00	0	39	0	3532652544	40	6197
2026-01-01 18:40:05.93	256.66	13.04	-34.0	-34.7	25.0	0.00e+00	0	39	0	3555721216	40	6220
2026-01-01 18:40:09.97	256.26	12.69	-34.1	-34.7	25.0	0.00e+00	0	39	0	3577741312	40	6199
2026-01-01 18:40:14.00	255.87	12.35	-34.2	-34.8	24.8	0.00e+00	0	39	0	3600809984	40	6288
2026-01-01 18:40:18.04	255.49	12.02	-34.3	-35.0	24.7	0.00e+00	0	39	0	3622830080	40	6404
2026-01-01 18:40:22.09	255.11	11.68	-34.3	-35.1	24.7	0.00e+00	0	39	0	3645898752	40	6508
2026-01-01 18:40:26.12	254.75	11.36	-34.6	-35.3	24.4	0.00e+00	0	39	0	3668967424	40	6632
2026-01-01 18:40:30.16	254.40	11.03	-34.6	-35.4	24.4	0.00e+00	0	39	0	3690987520	42	6007
2026-01-01 18:40:34.21	254.05	10.71	-34.7	-35.5	24.3	0.00e+00	0	39	0	3714056192	42	6068
2026-01-01 18:40:38.25	253.71	10.39	-34.9	-35.7	24.1	0.00e+00	0	39	0	3737124864	42	6198
2026-01-01 18:40:42.28	253.38	10.07	-34.9	-35.6	24.1	0.00e+00	0	39	0	3760193536	42	6121
2026-01-01 18:40:46.32	253.05	9.76	-35.0	-35.7	24.0	0.00e+00	0	39	0	3782213632	42	6241
2026-01-01 18:40:50.37	252.73	9.44	-35.0	-35.8	24.0	0.00e+00	0	39	0	3805282304	42	6250
2026-01-01 18:40:54.40	252.42	9.14	-35.1	-35.8	23.7	0.00e+00	0	39	0	3827302400	42	6276
2026-01-01 18:40:58.45	252.12	8.83	-35.1	-35.9	23.8	0.00e+00	0	39	0	3850371072	42	6362
2026-01-01 18:41:02.49	251.82	8.53	-35.1	-35.9	23.8	0.00e+00	0	39	0	3873439744	42	6387
2026-01-01 18:41:06.53	251.53	8.23	-35.4	-36.0	23.5	0.00e+00	0	39	0	3896508416	42	6461
2026-01-01 18:41:10.57	251.24	7.94	-35.2	-36.0	23.6	0.00e+00	0	39	0	3918528512	42	6464
2026-01-01 18:41:14.60	250.96	7.64	-35.4	-36.1	23.4	0.00e+00	0	39	0	3941597184	42	6484
2026-01-01 18:41:18.64	250.69	7.35	-35.5	-36.2	23.3	0.00e+00	0	39	0	3964665856	42	6585
2026-01-01 18:41:22.68	250.42	7.06	-35.4	-36.1	23.4	0.00e+00	0	39	0	3986685952	42	6490
2026-01-01 18:41:26.72	250.16	6.78	-35.5	-36.1	23.3	0.00e+00	0	39	0	4009754624	44	5809
2026-01-01 18:41:30.77	249.90	6.49	-35.7	-36.4	23.0	0.00e+00	0	39	0	4032823296	44	5984
2026-01-01 18:41:34.81	249.65	6.21	-36.0	-36.7	22.7	0.00e+00	0	39	0	4054843392	44	6242
2026-01-01 18:41:38.84	249.40	5.94	-36.0	-36.7	22.7	0.00e+00	0	39	0	4077912064	44	6211
2026-01-01 18:41:42.88	249.16	5.66	-36.2	-37.1	22.4	0.00e+00	0	39	0	4100980736	44	6489
2026-01-01 18:41:46.92	248.92	5.39	-36.7	-37.6	21.8	0.00e+00	0	39	0	4123000832	46	6134
2026-01-01 18:41:50.96	248.69	5.12	-36.6	-37.3	22.0	0.00e+00	0	39	0	4146069504	46	5937
2026-01-01 18:41:55.00	248.46	4.85	-36.8	-37.8	21.7	0.00e+00	0	39	0	4169138176	46	6248
2026-01-01 18:41:59.04	248.24	4.58	-36.9	-37.7	21.5	0.00e+00	0	39	0	4191158272	46	6205
2026-01-01 18:42:03.08	248.02	4.32	-37.6	-38.5	20.7	0.00e+00	0	39	0	4214226944	48	6091
2026-01-01 18:42:07.11	247.80	4.06	-37.5	-38.5	20.8	0.00e+00	0	39	0	4236247040	48	6070
2026-01-01 18:42:11.16	247.59	3.80	-37.8	-38.8	20.3	0.00e+00	0	39	0	4259315712	48	6315
2026-01-01 18:42:15.19	247.38	3.54	-38.0	-39.0	20.1	0.00e+00	0	39	0	4282384384	48	6395
2026-01-01 18:42:19.23	247.18	3.29	-38.3	-39.3	19.6	0.00e+00	0	39	0	4305453056	48	6633
2026-01-01 18:42:23.27	246.98	3.03	-39.0	-40.1	16.8	0.00e+00	0	39	0	4327473152	50	6472
2026-01-01 18:42:27.31	246.78	2.78	-49.4	-61.5	3.6	8.45e-01	0	39	104	4328521728	60	43114
2026-01-01 18:42:31.36	246.59	2.53	-49.5	-61.7	3.6	8.45e-01	0	39	104	4328521728	60	43931
2026-01-01 18:42:35.40	246.40	2.28	-49.4	-61.6	3.6	8.46e-01	0	39	104	4328521728	60	43554
2026-01-01 18:42:39.44	246.21	2.04	-49.4	-61.5	3.6	8.45e-01	0	39	104	4328521728	60	42761
2026-01-01 18:42:43.48	246.03	1.79	-49.4	-61.6	3.6	8.46e-01	0	39	104	4328521728	60	43487
2026-01-01 18:42:47.52	245.85	1.55	-49.4	-61.6	3.6	8.46e-01	0	39	104	4328521728	60	43256
2026-01-01 18:42:51.56	245.67	1.31	-49.4	-61.5	3.6	8.45e-01	0	39	104	4328521728	60	43013
2026-01-01 18:42:55.60	245.50	1.07	-49.4	-61.5	3.6	8.45e-01	0	39	104	4328521728	60	43064
2026-01-01 18:42:59.64	245.33	0.83	-49.4	-61.5	3.6	8.44e-01	0	39	104	4328521728	60	43091
2026-01-01 18:43:03.68	245.16	0.60	-49.4	-61.5	3.6	8.44e-01	0	39	104	4328521728	60	43055
2026-01-01 18:43:07.72	245.00	0.36	-49.4	-61.6	3.6	8.46e-01	0	39	104	4328521728	60	43330
2026-01-01 18:43:11.76	244.83	0.13	-49.4	-61.5	3.6	8.46e-01	0	39	104	4328521728	60	42851
2026-01-01 18:43:15.80	244.67	-0.10	-49.4	-61.5	3.6	8.45e-01	0	39	104	4328521728	60	43170

#Closed at: 2026-01-01 18:43:16
#Recorded file [4328 MB]: D:/lorett/data/35029_260102_062839.dat