passes_logs/2026/01/01/R4.6S_Anadyr/R4.6S_Anadyr__20260101_160744_NOAA_20_JPSS-1_rec.log

#Pass ID: 20260101_160744_NOAA 20 (JPSS-1)
#Satellite: NOAA 20 (JPSS-1)
#Configuration: NOAA 20
#almurnet v.1.7.20251203
#Start time: 2026-01-01 16:07:46

#Version: 2.2.20231116
#Station: R4.6S_Anadyr
#Location: 177.4865 lon 64.73178 lat
#TLE: 1 43013U 17073A   25364.89373485  .00000164  00000+0  98659-4 0  9997
#TLE: 2 43013  98.7619 300.9939 0001957  61.1511 298.9862 14.19531413420599

#Time	Az	El	Level	Level2	SNR	BER	BlckErr	Temp	State	Recorded	gain1	gain2
2026-01-01 16:07:46.74	24.71	0.12	-48.9	-63.8	3.5	1.51e+00	0	37	0	0	60	55829
2026-01-01 16:07:50.77	24.57	0.35	-49.0	-64.2	3.6	1.51e+00	0	38	104	0	60	58516
2026-01-01 16:07:54.81	24.44	0.59	-49.0	-64.2	3.6	1.51e+00	0	38	104	0	60	58723
2026-01-01 16:07:58.85	24.30	0.83	-48.5	-63.7	3.6	1.51e+00	0	38	104	0	60	55636
2026-01-01 16:08:02.89	24.16	1.07	-47.6	-62.7	3.6	1.51e+00	0	38	104	0	60	49212
2026-01-01 16:08:06.93	24.02	1.31	-47.6	-62.7	3.6	1.51e+00	0	38	104	0	60	49573
2026-01-01 16:08:10.97	23.87	1.55	-47.5	-62.6	3.6	1.51e+00	0	38	104	0	60	49027
2026-01-01 16:08:15.01	23.72	1.80	-47.6	-62.7	3.6	1.51e+00	0	38	104	0	60	49403
2026-01-01 16:08:19.05	23.57	2.04	-47.5	-62.4	3.6	1.51e+00	0	38	104	0	60	47794
2026-01-01 16:08:23.09	23.42	2.29	-47.5	-62.7	3.6	1.51e+00	0	39	104	0	60	49480
2026-01-01 16:08:27.13	23.26	2.55	-47.5	-62.6	3.6	1.51e+00	0	39	104	0	60	48887
2026-01-01 16:08:31.17	23.10	2.80	-47.5	-62.1	3.6	1.51e+00	0	39	104	0	60	45874
2026-01-01 16:08:35.20	22.94	3.05	-47.5	-62.5	3.6	1.51e+00	0	39	104	0	60	47937
2026-01-01 16:08:39.24	22.77	3.31	-47.2	-56.4	4.9	1.03e+00	81	39	0	0	60	23790
2026-01-01 16:08:43.28	22.60	3.57	-46.0	-51.0	10.3	7.27e-03	0	39	0	7340032	60	12820
2026-01-01 16:08:47.32	22.43	3.83	-47.5	-61.4	3.6	1.51e+00	0	39	104	13631488	60	42676
2026-01-01 16:08:51.36	22.26	4.10	-41.9	-43.7	18.2	0.00e+00	0	39	0	17825792	58	6193
2026-01-01 16:08:55.40	22.08	4.36	-41.5	-43.1	18.9	0.00e+00	81	39	0	26214400	56	6502
2026-01-01 16:08:59.43	21.89	4.63	-41.0	-42.5	19.5	0.00e+00	0	39	0	33554432	56	6073
2026-01-01 16:09:03.47	21.71	4.90	-41.1	-42.6	19.4	0.00e+00	92	39	0	40894464	56	6105
2026-01-01 16:09:07.51	21.52	5.17	-41.1	-42.5	19.5	0.00e+00	0	39	0	48234496	56	6078
2026-01-01 16:09:11.55	21.32	5.45	-41.1	-42.5	19.7	0.00e+00	5	39	0	56623104	56	6073
2026-01-01 16:09:15.59	21.12	5.73	-41.2	-42.6	19.5	0.00e+00	0	39	0	63963136	56	6169
2026-01-01 16:09:19.63	20.92	6.01	-41.1	-42.5	19.6	0.00e+00	79	39	0	71303168	56	6076
2026-01-01 16:09:23.67	20.71	6.29	-41.0	-42.4	19.8	0.00e+00	7	39	0	78643200	54	6734
2026-01-01 16:09:27.70	20.50	6.58	-41.2	-42.7	19.5	0.00e+00	1	39	0	85983232	54	6962
2026-01-01 16:09:31.74	20.29	6.87	-40.5	-41.9	20.3	0.00e+00	92	39	0	94371840	54	6328
2026-01-01 16:09:35.78	20.06	7.16	-40.4	-41.7	20.5	0.00e+00	24	39	0	101711872	54	6207
2026-01-01 16:09:39.82	19.84	7.46	-40.2	-41.4	20.7	0.00e+00	0	39	0	109051904	54	6009
2026-01-01 16:09:43.86	19.61	7.75	-40.2	-41.4	20.8	0.00e+00	0	39	0	116391936	54	5985
2026-01-01 16:09:47.90	19.37	8.06	-40.1	-41.3	20.8	0.00e+00	92	39	0	124780544	54	5961
2026-01-01 16:09:51.94	19.13	8.36	-39.8	-41.0	21.3	0.00e+00	0	39	0	132120576	52	6415
2026-01-01 16:09:55.98	18.89	8.67	-39.7	-40.8	21.4	0.00e+00	1	39	0	139460608	52	6310
2026-01-01 16:10:00.02	18.63	8.98	-39.8	-41.0	21.4	0.00e+00	0	39	0	146800640	52	6401
2026-01-01 16:10:04.06	18.38	9.29	-39.7	-40.8	21.5	0.00e+00	91	39	0	154140672	52	6288
2026-01-01 16:10:08.10	18.11	9.61	-39.7	-40.9	21.4	0.00e+00	0	39	0	162529280	52	6358
2026-01-01 16:10:12.13	17.84	9.93	-39.7	-40.8	21.5	0.00e+00	0	39	0	169869312	52	6301
2026-01-01 16:10:16.17	17.57	10.25	-39.8	-40.9	21.4	0.00e+00	80	39	0	177209344	52	6388
2026-01-01 16:10:20.20	17.28	10.58	-39.5	-40.6	21.8	0.00e+00	92	39	0	184549376	52	6132
2026-01-01 16:10:24.24	16.99	10.91	-39.4	-40.4	21.9	0.00e+00	79	39	0	192937984	52	6019
2026-01-01 16:10:28.28	16.70	11.25	-39.2	-40.2	22.3	0.00e+00	0	39	0	200278016	52	5860
2026-01-01 16:10:32.31	16.39	11.59	-39.1	-40.2	22.2	0.00e+00	0	39	0	207618048	52	5839
2026-01-01 16:10:36.35	16.08	11.93	-39.2	-40.3	22.2	0.00e+00	91	39	0	214958080	52	5910
2026-01-01 16:10:40.39	15.76	12.28	-39.0	-40.1	22.4	0.00e+00	3	39	0	222298112	52	5763
2026-01-01 16:10:44.43	15.44	12.63	-39.2	-40.3	22.2	0.00e+00	81	39	0	230686720	52	5928
2026-01-01 16:10:48.46	15.10	12.98	-39.1	-40.1	22.3	0.00e+00	15	39	0	238026752	52	5816
2026-01-01 16:10:52.49	14.76	13.34	-39.2	-40.2	22.3	0.00e+00	92	39	0	245366784	52	5878
2026-01-01 16:10:56.53	14.41	13.71	-39.3	-40.3	22.2	0.00e+00	5	39	0	252706816	52	5933
2026-01-01 16:11:00.57	14.04	14.08	-39.2	-40.2	22.3	0.00e+00	0	39	0	261095424	52	5861
2026-01-01 16:11:04.60	13.67	14.45	-39.2	-40.3	22.3	0.00e+00	90	39	0	268435456	52	5900
2026-01-01 16:11:08.64	13.29	14.82	-39.1	-40.1	22.4	0.00e+00	92	39	0	275775488	52	5798
2026-01-01 16:11:12.68	12.90	15.21	-39.1	-40.2	22.4	0.00e+00	0	39	0	283115520	52	5846
2026-01-01 16:11:16.72	12.50	15.59	-39.3	-40.3	22.3	0.00e+00	8	39	0	290455552	52	5938
2026-01-01 16:11:20.76	12.08	15.98	-39.2	-40.2	22.4	0.00e+00	90	39	0	298844160	52	5847
2026-01-01 16:11:24.80	11.66	16.38	-39.0	-40.0	22.7	0.00e+00	82	39	0	306184192	52	5731
2026-01-01 16:11:28.84	11.22	16.78	-39.1	-40.1	22.4	0.00e+00	0	39	0	313524224	52	5821
2026-01-01 16:11:32.88	10.77	17.19	-39.1	-40.1	22.2	0.00e+00	0	39	0	320864256	52	5820
2026-01-01 16:11:36.92	10.31	17.60	-38.8	-39.8	22.8	0.00e+00	92	39	0	329252864	50	6290
2026-01-01 16:11:40.95	9.84	18.01	-38.7	-39.6	23.0	0.00e+00	80	39	0	336592896	50	6148
2026-01-01 16:11:44.99	9.35	18.43	-38.7	-39.6	23.0	0.00e+00	78	39	0	343932928	50	6165
2026-01-01 16:11:49.03	8.85	18.86	-38.7	-39.7	22.9	0.00e+00	79	39	0	351272960	50	6220
2026-01-01 16:11:53.07	8.33	19.29	-38.8	-39.8	23.0	0.00e+00	90	39	0	358612992	50	6268
2026-01-01 16:11:57.11	7.80	19.72	-38.8	-39.8	22.9	0.00e+00	2	39	0	367001600	50	6279
2026-01-01 16:12:01.15	7.25	20.16	-38.7	-39.7	23.0	0.00e+00	2	39	0	374341632	50	6198
2026-01-01 16:12:05.19	6.69	20.61	-38.7	-39.7	22.9	0.00e+00	0	39	0	381681664	50	6206
2026-01-01 16:12:09.23	6.10	21.06	-38.9	-39.8	22.9	0.00e+00	92	39	0	389021696	50	6314
2026-01-01 16:12:13.27	5.50	21.51	-39.3	-40.3	22.5	0.00e+00	0	39	0	397410304	50	6674
2026-01-01 16:12:17.31	4.89	21.97	-39.2	-40.2	22.6	0.00e+00	4	39	0	404750336	50	6580
2026-01-01 16:12:21.35	4.25	22.43	-39.5	-40.6	22.2	0.00e+00	0	39	0	412090368	50	6872
2026-01-01 16:12:25.39	3.59	22.90	-39.3	-40.4	22.5	0.00e+00	92	39	0	419430400	50	6698
2026-01-01 16:12:29.43	2.91	23.38	-39.6	-40.7	22.2	0.00e+00	77	39	0	426770432	52	6195
2026-01-01 16:12:33.47	2.22	23.85	-39.4	-40.4	22.5	0.00e+00	3	39	0	435159040	52	6000
2026-01-01 16:12:37.50	1.50	24.33	-39.2	-40.2	22.6	0.00e+00	92	39	0	442499072	52	5857
2026-01-01 16:12:41.54	0.75	24.82	-39.0	-40.0	22.8	0.00e+00	92	39	0	449839104	52	5740
2026-01-01 16:12:45.58	359.99	25.31	-39.3	-40.3	22.6	0.00e+00	6	39	0	457179136	52	5917
2026-01-01 16:12:49.62	359.19	25.80	-39.6	-40.6	22.3	0.00e+00	0	39	0	465567744	52	6167
2026-01-01 16:12:53.66	358.38	26.29	-39.7	-40.7	22.1	0.00e+00	91	39	0	472907776	52	6228
2026-01-01 16:12:57.70	357.53	26.79	-40.2	-41.3	21.6	0.00e+00	8	39	0	480247808	52	6633
2026-01-01 16:13:01.74	356.66	27.29	-40.7	-41.9	21.1	0.00e+00	6	39	0	487587840	54	6359
2026-01-01 16:13:05.78	355.76	27.79	-41.3	-42.6	20.4	0.00e+00	5	39	0	494927872	54	6922
2026-01-01 16:13:09.81	354.84	28.29	-41.4	-42.7	20.2	0.00e+00	92	39	0	503316480	54	6961
2026-01-01 16:13:13.85	353.88	28.79	-41.4	-42.8	20.1	0.00e+00	0	39	0	510656512	54	7041
2026-01-01 16:13:17.89	352.89	29.30	-41.3	-42.6	20.4	0.00e+00	0	39	0	517996544	54	6893
2026-01-01 16:13:21.92	351.87	29.79	-41.7	-43.1	20.0	0.00e+00	2	39	0	525336576	56	6475
2026-01-01 16:13:25.96	350.82	30.29	-42.1	-43.6	19.6	0.00e+00	92	39	0	533725184	56	6864
2026-01-01 16:13:30.00	349.73	30.79	-42.0	-43.5	19.6	0.00e+00	0	40	0	541065216	56	6823
2026-01-01 16:13:34.04	348.61	31.28	-41.7	-43.1	20.1	0.00e+00	0	39	0	548405248	56	6483
2026-01-01 16:13:38.08	347.46	31.77	-41.3	-42.6	20.6	0.00e+00	0	39	0	555745280	56	6107
2026-01-01 16:13:42.11	346.27	32.25	-41.2	-42.4	20.8	0.00e+00	92	39	0	563085312	56	6031
2026-01-01 16:13:46.15	345.04	32.73	-41.7	-43.0	20.1	0.00e+00	0	39	0	571473920	56	6459
2026-01-01 16:13:50.19	343.78	33.19	-41.9	-43.3	19.8	0.00e+00	73	39	0	578813952	56	6691
2026-01-01 16:13:54.23	342.48	33.65	-42.4	-44.0	19.3	0.00e+00	0	39	0	586153984	56	7171
2026-01-01 16:13:58.27	341.14	34.10	-42.6	-44.2	19.0	0.00e+00	91	39	0	593494016	56	7378
2026-01-01 16:14:02.31	339.77	34.54	-43.7	-45.6	17.6	0.00e+00	0	39	0	601882624	58	7716
2026-01-01 16:14:06.35	338.36	34.96	-43.6	-45.5	17.8	0.00e+00	0	39	0	609222656	58	7602
2026-01-01 16:14:10.39	336.91	35.37	-42.5	-44.1	19.1	0.00e+00	91	39	0	616562688	58	6466
2026-01-01 16:14:14.43	335.43	35.76	-42.2	-43.7	19.4	0.00e+00	91	39	0	623902720	58	6227
2026-01-01 16:14:18.48	333.90	36.13	-41.8	-43.2	20.0	0.00e+00	6	39	0	631242752	56	6570
2026-01-01 16:14:22.51	332.35	36.48	-40.3	-41.4	21.7	0.00e+00	6	39	0	639631360	54	6004
2026-01-01 16:14:26.55	330.76	36.82	-39.6	-40.6	22.4	0.00e+00	91	39	0	646971392	52	6141
2026-01-01 16:14:30.59	329.14	37.13	-38.9	-39.8	23.1	0.00e+00	80	39	0	654311424	52	5617
2026-01-01 16:14:34.63	327.49	37.41	-38.4	-39.3	23.4	0.00e+00	84	39	0	661651456	50	5963
2026-01-01 16:14:38.67	325.82	37.67	-38.4	-39.3	23.5	0.00e+00	7	39	0	670040064	50	5940
2026-01-01 16:14:42.71	324.11	37.91	-38.1	-39.0	23.8	0.00e+00	92	39	0	677380096	50	5698
2026-01-01 16:14:46.74	322.39	38.12	-37.8	-38.6	24.1	0.00e+00	8	39	0	684720128	50	5480
2026-01-01 16:14:50.78	320.64	38.29	-37.9	-38.8	23.9	0.00e+00	6	39	0	692060160	48	6256
2026-01-01 16:14:54.82	318.87	38.44	-37.8	-38.7	24.1	0.00e+00	0	39	0	699400192	48	6206
2026-01-01 16:14:58.86	317.09	38.56	-37.1	-37.9	24.6	0.00e+00	92	39	0	707788800	48	5664
2026-01-01 16:15:02.90	315.30	38.64	-37.5	-38.4	24.2	0.00e+00	2	39	0	715128832	48	5988
2026-01-01 16:15:06.94	313.50	38.70	-38.1	-39.0	23.7	0.00e+00	2	39	0	722468864	48	6449
2026-01-01 16:15:10.98	311.70	38.72	-38.8	-39.7	23.1	0.00e+00	0	39	0	729808896	50	6242
2026-01-01 16:15:15.02	309.89	38.71	-39.5	-40.6	22.4	0.00e+00	92	39	0	738197504	50	6853
2026-01-01 16:15:19.05	308.10	38.66	-39.7	-40.8	22.3	0.00e+00	0	39	0	745537536	52	6255
2026-01-01 16:15:23.09	306.30	38.59	-39.9	-40.9	22.0	0.00e+00	0	39	0	752877568	52	6385
2026-01-01 16:15:27.13	304.52	38.48	-40.0	-41.0	22.0	0.00e+00	0	39	0	760217600	52	6460
2026-01-01 16:15:31.17	302.74	38.34	-40.6	-41.7	21.4	0.00e+00	32	39	0	767557632	54	6240
2026-01-01 16:15:35.20	300.99	38.17	-40.6	-41.8	21.2	0.00e+00	0	39	0	775946240	54	6260
2026-01-01 16:15:39.24	299.26	37.98	-41.2	-42.4	20.7	0.00e+00	0	39	0	783286272	54	6759
2026-01-01 16:15:43.28	297.54	37.75	-41.3	-42.6	20.7	0.00e+00	88	39	0	790626304	56	6108
2026-01-01 16:15:47.32	295.85	37.50	-40.6	-41.8	21.4	0.00e+00	0	39	0	797966336	56	5570
2026-01-01 16:15:51.36	294.19	37.22	-40.5	-41.6	21.5	0.00e+00	74	39	0	806354944	54	6128
2026-01-01 16:15:55.40	292.56	36.92	-39.2	-40.2	22.8	0.00e+00	0	39	0	813694976	52	5860
2026-01-01 16:15:59.44	290.96	36.59	-38.6	-39.5	23.3	0.00e+00	91	39	0	821035008	50	6069
2026-01-01 16:16:03.48	289.39	36.24	-38.1	-39.0	23.9	0.00e+00	0	39	0	828375040	50	5717
2026-01-01 16:16:07.51	287.86	35.87	-37.7	-38.6	24.2	0.00e+00	5	39	0	835715072	50	5448
2026-01-01 16:16:11.55	286.37	35.49	-38.5	-39.4	23.4	0.00e+00	80	39	0	844103680	48	6766
2026-01-01 16:16:15.59	284.90	35.08	-39.1	-40.1	22.9	0.00e+00	90	39	0	851443712	50	6480
2026-01-01 16:16:19.63	283.48	34.67	-39.5	-40.5	22.5	0.00e+00	0	39	0	858783744	50	6783
2026-01-01 16:16:23.67	282.09	34.23	-39.8	-40.8	22.3	0.00e+00	0	39	0	866123776	52	6278
2026-01-01 16:16:27.71	280.74	33.79	-39.7	-40.7	22.2	0.00e+00	7	39	0	874512384	52	6233
2026-01-01 16:16:31.74	279.43	33.33	-40.2	-41.3	21.8	0.00e+00	92	39	0	881852416	52	6635
2026-01-01 16:16:35.78	278.15	32.87	-39.9	-40.9	22.1	0.00e+00	80	39	0	889192448	52	6365
2026-01-01 16:16:39.82	276.91	32.39	-40.2	-41.3	21.6	0.00e+00	82	39	0	896532480	52	6618
2026-01-01 16:16:43.86	275.70	31.91	-40.7	-41.8	21.3	0.00e+00	0	39	0	903872512	52	7087
2026-01-01 16:16:47.89	274.54	31.42	-40.8	-42.0	21.0	0.00e+00	92	39	0	912261120	54	6453
2026-01-01 16:16:51.93	273.40	30.93	-41.0	-42.2	20.9	0.00e+00	5	39	0	919601152	54	6557
2026-01-01 16:16:55.97	272.30	30.43	-40.7	-41.9	21.1	0.00e+00	6	39	0	926941184	54	6361
2026-01-01 16:17:00.01	271.24	29.94	-40.2	-41.3	21.8	0.00e+00	1	39	0	934281216	54	5916
2026-01-01 16:17:04.05	270.20	29.43	-39.8	-40.9	22.1	0.00e+00	90	39	0	941621248	52	6330
2026-01-01 16:17:08.09	269.20	28.93	-39.6	-40.6	22.5	0.00e+00	0	39	0	950009856	52	6120
2026-01-01 16:17:12.13	268.23	28.43	-39.1	-40.0	22.9	0.00e+00	0	39	0	957349888	52	5746
2026-01-01 16:17:16.17	267.29	27.92	-38.9	-39.8	23.0	0.00e+00	0	39	0	964689920	52	5612
2026-01-01 16:17:20.21	266.38	27.42	-38.5	-39.5	23.2	0.00e+00	92	39	0	972029952	50	6050
2026-01-01 16:17:24.25	265.50	26.92	-38.4	-39.3	23.5	0.00e+00	0	39	0	980418560	50	5921
2026-01-01 16:17:28.29	264.64	26.42	-38.4	-39.3	23.4	0.00e+00	0	39	0	987758592	50	5909
2026-01-01 16:17:32.33	263.81	25.92	-38.1	-39.0	23.8	0.00e+00	90	39	0	995098624	50	5724
2026-01-01 16:17:36.37	263.01	25.43	-38.1	-39.0	23.8	0.00e+00	81	39	0	1002438656	50	5709
2026-01-01 16:17:40.41	262.23	24.94	-38.5	-39.4	23.4	0.00e+00	0	39	0	1010827264	50	5995
2026-01-01 16:17:44.44	261.48	24.45	-38.6	-39.6	23.3	0.00e+00	0	39	0	1018167296	50	6104
2026-01-01 16:17:48.49	260.75	23.97	-38.5	-39.4	23.3	0.00e+00	90	39	0	1025507328	50	6028
2026-01-01 16:17:52.52	260.04	23.49	-38.6	-39.5	23.2	0.00e+00	3	39	0	1032847360	50	6100
2026-01-01 16:17:56.56	259.36	23.01	-38.7	-39.6	23.2	0.00e+00	1	39	0	1040187392	50	6121
2026-01-01 16:18:00.60	258.69	22.54	-39.1	-40.1	22.8	0.00e+00	4	39	0	1048576000	50	6493
2026-01-01 16:18:04.64	258.05	22.07	-39.2	-40.2	22.6	0.00e+00	92	39	0	1055916032	50	6612
2026-01-01 16:18:08.68	257.42	21.61	-39.5	-40.5	22.4	0.00e+00	7	39	0	1063256064	50	6838
2026-01-01 16:18:12.71	256.81	21.15	-40.1	-41.2	21.7	0.00e+00	2	39	0	1070596096	52	6610
2026-01-01 16:18:16.75	256.22	20.70	-39.9	-41.0	21.9	0.00e+00	83	39	0	1078984704	52	6422
2026-01-01 16:18:20.79	255.65	20.25	-39.6	-40.6	22.3	0.00e+00	92	39	0	1086324736	52	6135
2026-01-01 16:18:24.83	255.10	19.81	-39.7	-40.7	22.0	0.00e+00	0	39	0	1093664768	52	6237
2026-01-01 16:18:28.87	254.56	19.37	-40.2	-41.3	21.6	0.00e+00	0	39	0	1101004800	52	6692
2026-01-01 16:18:32.91	254.03	18.94	-40.2	-41.3	21.6	0.00e+00	0	39	0	1108344832	52	6647
2026-01-01 16:18:36.95	253.52	18.51	-39.9	-41.0	21.8	0.00e+00	91	39	0	1116733440	52	6437
2026-01-01 16:18:40.99	253.03	18.09	-39.7	-40.8	22.1	0.00e+00	1	39	0	1124073472	52	6250
2026-01-01 16:18:45.03	252.55	17.67	-39.9	-41.0	21.8	0.00e+00	80	39	0	1131413504	52	6453
2026-01-01 16:18:49.07	252.08	17.26	-39.8	-40.8	22.0	0.00e+00	81	39	0	1138753536	52	6304
2026-01-01 16:18:53.11	251.62	16.85	-39.7	-40.7	22.1	0.00e+00	92	39	0	1146093568	52	6218
2026-01-01 16:18:57.15	251.18	16.45	-39.7	-40.8	22.0	0.00e+00	1	39	0	1154482176	52	6282
2026-01-01 16:19:01.19	250.75	16.05	-40.0	-41.1	21.8	0.00e+00	79	39	0	1161822208	52	6500
2026-01-01 16:19:05.23	250.33	15.65	-40.0	-41.1	21.7	0.00e+00	92	39	0	1169162240	52	6470
2026-01-01 16:19:09.27	249.92	15.27	-39.9	-41.0	21.8	0.00e+00	37	39	0	1176502272	52	6420
2026-01-01 16:19:13.31	249.52	14.88	-39.8	-40.8	21.9	0.00e+00	2	39	0	1184890880	52	6314
2026-01-01 16:19:17.35	249.14	14.50	-39.9	-41.0	21.8	0.00e+00	0	39	0	1192230912	52	6439
2026-01-01 16:19:21.39	248.76	14.13	-40.1	-41.2	21.6	0.00e+00	92	39	0	1199570944	52	6580
2026-01-01 16:19:25.43	248.39	13.76	-40.4	-41.6	21.2	0.00e+00	80	39	0	1206910976	52	6862
2026-01-01 16:19:29.47	248.03	13.39	-40.4	-41.6	21.1	0.00e+00	0	39	0	1214251008	52	6884
2026-01-01 16:19:33.51	247.68	13.03	-40.5	-41.7	21.1	0.00e+00	6	39	0	1222639616	52	6972
2026-01-01 16:19:37.55	247.34	12.67	-40.6	-41.8	20.9	0.00e+00	92	39	0	1229979648	52	7024
2026-01-01 16:19:41.59	247.01	12.32	-40.8	-42.1	20.7	0.00e+00	0	39	0	1237319680	54	6506
2026-01-01 16:19:45.63	246.69	11.97	-40.7	-41.9	20.8	0.00e+00	7	39	0	1244659712	54	6374
2026-01-01 16:19:49.66	246.37	11.62	-40.8	-42.0	20.7	0.00e+00	0	39	0	1253048320	54	6447
2026-01-01 16:19:53.70	246.06	11.28	-41.1	-42.4	20.3	0.00e+00	91	39	0	1260388352	54	6745
2026-01-01 16:19:57.73	245.76	10.95	-41.5	-42.9	19.7	0.00e+00	0	39	0	1267728384	54	7126
2026-01-01 16:20:01.77	245.47	10.61	-41.9	-43.4	19.3	0.00e+00	83	39	0	1275068416	56	6730
2026-01-01 16:20:05.81	245.18	10.28	-41.9	-43.4	19.2	0.00e+00	10	39	0	1282408448	56	6754
2026-01-01 16:20:09.85	244.90	9.96	-42.1	-43.7	18.9	0.00e+00	90	39	0	1290797056	56	6975
2026-01-01 16:20:13.88	244.62	9.63	-42.3	-43.9	18.6	0.00e+00	0	39	0	1298137088	56	7137
2026-01-01 16:20:17.92	244.36	9.31	-42.6	-44.4	18.1	0.00e+00	2	39	0	1305477120	56	7527
2026-01-01 16:20:21.96	244.09	9.00	-43.1	-45.1	17.3	0.00e+00	0	39	0	1312817152	58	7277
2026-01-01 16:20:25.99	243.84	8.69	-43.4	-45.6	16.8	0.00e+00	92	39	0	1321205760	58	7701
2026-01-01 16:20:30.03	243.59	8.38	-43.8	-46.1	16.3	0.00e+00	0	39	0	1328545792	60	7272
2026-01-01 16:20:34.07	243.34	8.07	-44.0	-46.5	15.8	0.00e+00	0	39	0	1335885824	60	7656
2026-01-01 16:20:38.11	243.10	7.77	-44.1	-46.7	15.6	0.00e+00	79	39	0	1343225856	60	7814
2026-01-01 16:20:42.15	242.87	7.47	-44.5	-47.3	14.9	0.00e+00	0	39	0	1350565888	60	8422
2026-01-01 16:20:46.19	242.64	7.17	-44.9	-48.0	14.1	7.00e-07	0	39	0	1358954496	60	9085
2026-01-01 16:20:50.23	242.41	6.88	-45.4	-49.0	13.1	8.30e-06	0	39	0	1366294528	60	10134
2026-01-01 16:20:54.27	242.19	6.59	-45.8	-49.9	12.0	2.97e-04	92	39	0	1373634560	60	11257
2026-01-01 16:20:58.31	241.98	6.30	-45.9	-50.3	11.5	7.10e-04	0	39	0	1380974592	60	11848
2026-01-01 16:21:02.35	241.76	6.02	-46.1	-50.9	10.7	2.35e-03	0	39	0	1389363200	60	12691
2026-01-01 16:21:06.38	241.56	5.73	-46.3	-51.7	9.7	9.41e-03	0	39	0	1396703232	60	13874
2026-01-01 16:21:10.42	241.35	5.45	-46.5	-52.4	8.7	2.82e-02	90	39	0	1404043264	60	15094
2026-01-01 16:21:14.46	241.16	5.18	-46.6	-52.9	8.0	6.52e-02	5	39	0	1411383296	60	16033
2026-01-01 16:21:18.50	240.96	4.90	-46.8	-53.7	7.2	1.13e-01	6	39	0	1418723328	60	17552
2026-01-01 16:21:22.53	240.77	4.63	-46.8	-54.4	6.2	2.54e-01	5	39	0	1427111936	60	18901
2026-01-01 16:21:26.57	240.58	4.36	-46.9	-55.1	5.3	4.68e-01	90	39	0	1434451968	60	20639
2026-01-01 16:21:30.61	240.40	4.09	-46.9	-55.6	4.8	6.88e-01	84	39	0	1441792000	60	21877
2026-01-01 16:21:34.64	240.22	3.83	-47.0	-56.7	4.2	1.00e+00	79	39	0	1449132032	60	24630
2026-01-01 16:21:38.68	240.04	3.57	-47.0	-57.5	3.7	1.36e+00	0	39	0	1455423488	60	27118
2026-01-01 16:21:42.73	239.87	3.31	-47.0	-59.2	3.7	1.48e+00	0	39	0	1455423488	60	33061
2026-01-01 16:21:46.76	239.70	3.05	-46.9	-60.3	3.6	1.51e+00	0	39	104	1455423488	60	37270
2026-01-01 16:21:50.80	239.53	2.79	-49.0	-64.2	3.6	1.51e+00	0	39	104	1455423488	60	58437
2026-01-01 16:21:54.84	239.37	2.54	-49.2	-64.4	3.6	1.51e+00	0	39	104	1455423488	60	59976
2026-01-01 16:21:58.88	239.21	2.29	-48.6	-64.3	3.6	1.51e+00	0	39	104	1455423488	60	59145
2026-01-01 16:22:02.92	239.05	2.04	-48.9	-64.2	3.6	1.51e+00	0	39	104	1455423488	60	58593
2026-01-01 16:22:06.95	238.89	1.79	-49.1	-64.2	3.6	1.51e+00	0	39	104	1455423488	60	58602
2026-01-01 16:22:10.99	238.74	1.54	-49.1	-64.2	3.6	1.51e+00	0	39	104	1455423488	60	58865
2026-01-01 16:22:15.04	238.59	1.30	-49.0	-64.2	3.6	1.51e+00	0	39	104	1455423488	60	58902
2026-01-01 16:22:19.08	238.44	1.05	-49.0	-64.2	3.6	1.51e+00	0	39	104	1455423488	60	58836
2026-01-01 16:22:23.11	238.30	0.81	-49.0	-64.2	3.6	1.51e+00	0	39	104	1455423488	60	58708
2026-01-01 16:22:27.15	238.16	0.58	-49.0	-64.2	3.6	1.51e+00	0	39	104	1455423488	60	58563
2026-01-01 16:22:31.20	238.02	0.34	-49.0	-64.2	3.6	1.51e+00	0	39	104	1455423488	60	58857
2026-01-01 16:22:35.24	237.88	0.10	-49.0	-64.2	3.6	1.51e+00	0	39	104	1455423488	60	58777

#Closed at: 2026-01-01 16:22:38
#Recorded file [1455 MB]: D:/lorett/data/35029_260102_040746.dat