passes_logs/2026/01/01/R4.6S_Anadyr/R4.6S_Anadyr__20260101_142723_NOAA_20_JPSS-1_rec.log

#Pass ID: 20260101_142723_NOAA 20 (JPSS-1)
#Satellite: NOAA 20 (JPSS-1)
#Configuration: NOAA 20
#almurnet v.1.7.20251203
#Start time: 2026-01-01 14:27:26

#Version: 2.2.20231116
#Station: R4.6S_Anadyr
#Location: 177.4865 lon 64.73178 lat
#TLE: 1 43013U 17073A   25364.89373485  .00000164  00000+0  98659-4 0  9997
#TLE: 2 43013  98.7619 300.9939 0001957  61.1511 298.9862 14.19531413420599

#Time	Az	El	Level	Level2	SNR	BER	BlckErr	Temp	State	Recorded	gain1	gain2
2026-01-01 14:27:26.99	20.04	0.20	-48.9	-62.7	3.3	1.54e+00	0	37	0	0	60	49295
2026-01-01 14:27:31.02	20.09	0.44	-49.0	-64.2	3.6	1.51e+00	0	37	104	0	60	58846
2026-01-01 14:27:35.06	20.14	0.69	-48.7	-64.0	3.6	1.51e+00	0	37	104	0	60	57241
2026-01-01 14:27:39.10	20.19	0.93	-48.1	-63.2	3.6	1.51e+00	0	37	104	0	60	52463
2026-01-01 14:27:43.14	20.24	1.18	-47.5	-62.7	3.6	1.51e+00	0	37	104	0	60	49149
2026-01-01 14:27:47.18	20.29	1.43	-47.5	-62.5	3.6	1.51e+00	0	37	104	0	60	48141
2026-01-01 14:27:51.22	20.35	1.68	-47.5	-62.7	3.6	1.51e+00	0	37	104	0	60	49180
2026-01-01 14:27:55.26	20.40	1.94	-47.5	-62.7	3.6	1.51e+00	0	37	104	0	60	49176
2026-01-01 14:27:59.30	20.45	2.20	-47.5	-62.3	3.6	1.51e+00	0	37	104	0	60	47210
2026-01-01 14:28:03.34	20.51	2.46	-47.4	-59.7	3.7	1.47e+00	0	37	0	0	60	34922
2026-01-01 14:28:07.38	20.56	2.72	-47.3	-58.1	3.9	1.41e+00	0	37	0	0	60	29063
2026-01-01 14:28:11.42	20.62	2.98	-45.8	-50.6	10.9	7.85e-03	0	37	0	6291456	60	12256
2026-01-01 14:28:15.46	20.67	3.25	-44.0	-46.9	14.9	0.00e+00	69	37	0	14680064	60	8023
2026-01-01 14:28:19.50	20.73	3.52	-44.5	-47.7	13.9	7.00e-07	0	37	0	22020096	60	8793
2026-01-01 14:28:23.55	20.79	3.79	-41.2	-42.7	19.0	0.00e+00	5	37	0	29360128	56	6234
2026-01-01 14:28:27.58	20.85	4.06	-47.2	-57.7	4.7	1.51e+00	0	37	104	31457280	60	27629
2026-01-01 14:28:31.62	20.91	4.34	-43.7	-46.3	15.6	0.00e+00	42	37	0	36700160	60	7446
2026-01-01 14:28:35.66	20.97	4.62	-42.4	-44.3	17.6	0.00e+00	46	37	0	44040192	58	6641
2026-01-01 14:28:39.70	21.03	4.91	-40.8	-42.2	19.8	0.00e+00	5	37	0	51380224	56	5888
2026-01-01 14:28:43.74	21.09	5.19	-40.9	-42.3	19.6	0.00e+00	7	37	0	58720256	54	6682
2026-01-01 14:28:47.78	21.15	5.48	-40.6	-42.0	20.0	0.00e+00	92	37	0	67108864	54	6393
2026-01-01 14:28:51.82	21.22	5.77	-40.6	-42.0	20.1	0.00e+00	41	37	0	74448896	54	6395
2026-01-01 14:28:55.85	21.28	6.07	-40.3	-41.6	20.5	0.00e+00	41	38	0	81788928	54	6109
2026-01-01 14:28:59.89	21.34	6.37	-40.4	-41.7	20.4	0.00e+00	40	37	0	89128960	54	6195
2026-01-01 14:29:03.93	21.41	6.67	-40.3	-41.6	20.5	0.00e+00	92	37	0	97517568	54	6107
2026-01-01 14:29:07.97	21.48	6.98	-40.2	-41.4	20.8	0.00e+00	0	37	0	104857600	54	6026
2026-01-01 14:29:12.00	21.55	7.29	-39.9	-41.1	21.0	0.00e+00	0	38	0	112197632	54	5815
2026-01-01 14:29:16.04	21.62	7.60	-39.8	-41.0	21.2	0.00e+00	41	38	0	119537664	52	6399
2026-01-01 14:29:20.08	21.69	7.92	-39.7	-40.8	21.4	0.00e+00	91	38	0	126877696	52	6295
2026-01-01 14:29:24.12	21.76	8.24	-39.8	-40.9	21.1	0.00e+00	2	37	0	135266304	52	6376
2026-01-01 14:29:28.16	21.83	8.57	-39.7	-40.9	21.4	0.00e+00	38	38	0	142606336	52	6332
2026-01-01 14:29:32.20	21.90	8.90	-39.6	-40.8	21.5	0.00e+00	0	38	0	149946368	52	6253
2026-01-01 14:29:36.23	21.98	9.23	-39.3	-40.3	21.9	0.00e+00	92	37	0	157286400	52	5958
2026-01-01 14:29:40.27	22.06	9.57	-39.3	-40.4	21.9	0.00e+00	40	38	0	165675008	52	5973
2026-01-01 14:29:44.31	22.13	9.92	-39.2	-40.2	22.1	0.00e+00	0	38	0	173015040	52	5884
2026-01-01 14:29:48.35	22.21	10.26	-39.0	-40.1	22.2	0.00e+00	2	38	0	180355072	52	5764
2026-01-01 14:29:52.39	22.29	10.62	-38.9	-39.9	22.4	0.00e+00	92	38	0	187695104	52	5693
2026-01-01 14:29:56.42	22.38	10.98	-38.8	-39.8	22.5	0.00e+00	41	37	0	195035136	50	6277
2026-01-01 14:30:00.46	22.46	11.34	-38.7	-39.6	22.7	0.00e+00	44	38	0	203423744	50	6172
2026-01-01 14:30:04.50	22.55	11.71	-38.7	-39.7	22.5	0.00e+00	36	38	0	210763776	50	6224
2026-01-01 14:30:08.54	22.63	12.09	-38.5	-39.5	22.9	0.00e+00	60	38	0	218103808	50	6058
2026-01-01 14:30:12.58	22.72	12.47	-38.3	-39.3	23.0	0.00e+00	42	38	0	225443840	50	5921
2026-01-01 14:30:16.62	22.82	12.85	-38.3	-39.2	23.1	0.00e+00	37	38	0	233832448	50	5887
2026-01-01 14:30:20.66	22.91	13.25	-38.1	-39.0	23.2	0.00e+00	92	38	0	241172480	50	5749
2026-01-01 14:30:24.70	23.00	13.65	-38.3	-39.2	23.2	0.00e+00	6	38	0	248512512	50	5862
2026-01-01 14:30:28.73	23.10	14.05	-38.3	-39.3	23.1	0.00e+00	0	38	0	255852544	50	5903
2026-01-01 14:30:32.77	23.20	14.47	-38.6	-39.6	22.8	0.00e+00	0	38	0	263192576	50	6114
2026-01-01 14:30:36.81	23.30	14.89	-38.3	-39.2	23.2	0.00e+00	92	38	0	271581184	50	5865
2026-01-01 14:30:40.85	23.41	15.31	-38.4	-39.3	23.1	0.00e+00	41	38	0	278921216	50	5930
2026-01-01 14:30:44.89	23.51	15.75	-38.6	-39.6	22.9	0.00e+00	0	38	0	286261248	50	6104
2026-01-01 14:30:48.93	23.62	16.19	-38.7	-39.7	22.8	0.00e+00	0	38	0	293601280	50	6221
2026-01-01 14:30:52.97	23.74	16.64	-38.8	-39.8	22.7	0.00e+00	90	38	0	301989888	50	6279
2026-01-01 14:30:57.01	23.85	17.10	-39.1	-40.1	22.5	0.00e+00	39	38	0	309329920	50	6478
2026-01-01 14:31:01.05	23.97	17.57	-39.1	-40.1	22.5	0.00e+00	36	38	0	316669952	50	6523
2026-01-01 14:31:05.09	24.09	18.05	-39.4	-40.4	22.2	0.00e+00	0	38	0	324009984	50	6736
2026-01-01 14:31:09.13	24.22	18.54	-39.5	-40.5	22.0	0.00e+00	92	38	0	331350016	50	6843
2026-01-01 14:31:13.16	24.35	19.03	-39.5	-40.5	22.1	0.00e+00	39	38	0	339738624	50	6844
2026-01-01 14:31:17.20	24.48	19.54	-39.7	-40.7	21.9	0.00e+00	45	38	0	347078656	50	7000
2026-01-01 14:31:21.24	24.61	20.06	-39.7	-40.7	22.0	0.00e+00	0	38	0	354418688	52	6229
2026-01-01 14:31:25.28	24.75	20.58	-39.7	-40.7	22.0	0.00e+00	90	38	0	361758720	52	6239
2026-01-01 14:31:29.33	24.90	21.12	-39.6	-40.7	22.1	0.00e+00	0	38	0	370147328	52	6195
2026-01-01 14:31:33.37	25.05	21.68	-39.5	-40.6	22.2	0.00e+00	46	38	0	377487360	52	6112
2026-01-01 14:31:37.41	25.20	22.24	-39.4	-40.5	22.3	0.00e+00	92	38	0	384827392	52	6046
2026-01-01 14:31:41.44	25.36	22.81	-39.3	-40.3	22.3	0.00e+00	92	38	0	392167424	52	5920
2026-01-01 14:31:45.48	25.53	23.40	-39.2	-40.2	22.5	0.00e+00	37	38	0	399507456	52	5847
2026-01-01 14:31:49.52	25.70	24.00	-38.9	-39.9	22.8	0.00e+00	0	38	0	407896064	52	5671
2026-01-01 14:31:53.56	25.87	24.62	-39.0	-40.0	22.8	0.00e+00	92	38	0	415236096	52	5703
2026-01-01 14:31:57.60	26.05	25.25	-38.9	-39.9	22.8	0.00e+00	47	38	0	422576128	52	5631
2026-01-01 14:32:01.63	26.24	25.90	-39.1	-40.1	22.8	0.00e+00	4	38	0	429916160	52	5768
2026-01-01 14:32:05.67	26.44	26.56	-39.3	-40.3	22.4	0.00e+00	6	38	0	438304768	52	5964
2026-01-01 14:32:09.71	26.64	27.24	-39.8	-40.9	22.0	0.00e+00	90	38	0	445644800	52	6363
2026-01-01 14:32:13.75	26.86	27.93	-40.1	-41.3	21.4	0.00e+00	0	38	0	452984832	52	6630
2026-01-01 14:32:17.78	27.08	28.64	-40.3	-41.4	21.5	0.00e+00	45	38	0	460324864	52	6731
2026-01-01 14:32:21.82	27.31	29.37	-40.3	-41.4	21.4	0.00e+00	48	38	0	467664896	52	6746
2026-01-01 14:32:25.86	27.55	30.12	-40.6	-41.7	21.1	0.00e+00	92	38	0	476053504	52	7007
2026-01-01 14:32:29.90	27.80	30.89	-40.8	-42.0	20.9	0.00e+00	35	38	0	483393536	54	6427
2026-01-01 14:32:33.94	28.06	31.68	-40.7	-42.0	20.9	0.00e+00	0	38	0	490733568	54	6416
2026-01-01 14:32:37.98	28.34	32.50	-40.8	-42.1	20.8	0.00e+00	0	38	0	498073600	54	6468
2026-01-01 14:32:42.02	28.63	33.33	-40.4	-41.5	21.3	0.00e+00	92	38	0	506462208	54	6093
2026-01-01 14:32:46.06	28.93	34.19	-39.9	-41.0	21.9	0.00e+00	0	38	0	513802240	54	5738
2026-01-01 14:32:50.10	29.25	35.07	-39.5	-40.6	22.3	0.00e+00	34	38	0	521142272	52	6122
2026-01-01 14:32:54.14	29.59	35.97	-39.4	-40.4	22.4	0.00e+00	0	38	0	528482304	52	6009
2026-01-01 14:32:58.18	29.94	36.90	-39.6	-40.7	22.2	0.00e+00	90	38	0	535822336	52	6189
2026-01-01 14:33:02.21	30.32	37.85	-39.9	-41.0	21.9	0.00e+00	32	38	0	544210944	52	6447
2026-01-01 14:33:06.25	30.71	38.83	-39.8	-40.9	22.0	0.00e+00	0	38	0	551550976	52	6353
2026-01-01 14:33:10.29	31.13	39.84	-40.6	-41.8	21.1	0.00e+00	79	38	0	558891008	52	7043
2026-01-01 14:33:14.33	31.58	40.88	-41.1	-42.4	20.6	0.00e+00	38	38	0	566231040	54	6735
2026-01-01 14:33:18.37	32.06	41.95	-40.4	-41.5	21.3	0.00e+00	46	38	0	574619648	54	6071
2026-01-01 14:33:22.41	32.57	43.04	-40.3	-41.5	21.4	0.00e+00	0	38	0	581959680	54	6036
2026-01-01 14:33:26.45	33.11	44.17	-40.2	-41.4	21.5	0.00e+00	47	38	0	589299712	54	5979
2026-01-01 14:33:30.48	33.69	45.32	-40.8	-42.0	21.0	0.00e+00	6	38	0	596639744	54	6416
2026-01-01 14:33:34.53	34.32	46.52	-40.8	-42.1	20.8	0.00e+00	6	38	0	603979776	54	6469
2026-01-01 14:33:38.56	34.99	47.73	-41.5	-42.9	20.2	0.00e+00	43	38	0	612368384	54	7091
2026-01-01 14:33:42.60	35.72	48.98	-39.6	-40.6	22.2	0.00e+00	92	38	0	619708416	54	5494
2026-01-01 14:33:46.64	36.51	50.27	-38.9	-39.9	22.9	0.00e+00	46	38	0	627048448	52	5659
2026-01-01 14:33:50.68	37.36	51.58	-37.3	-38.1	24.4	0.00e+00	6	38	0	634388480	48	5803
2026-01-01 14:33:54.71	38.30	52.92	-36.3	-37.1	25.3	0.00e+00	5	38	0	642777088	46	5768
2026-01-01 14:33:58.75	39.33	54.29	-35.9	-36.6	25.7	0.00e+00	92	38	0	650117120	46	5471
2026-01-01 14:34:02.79	40.46	55.69	-36.5	-37.3	25.0	0.00e+00	44	38	0	657457152	44	6678
2026-01-01 14:34:06.83	41.70	57.11	-37.2	-38.0	24.7	0.00e+00	43	38	0	664797184	46	6431
2026-01-01 14:34:10.86	43.08	58.56	-36.7	-37.5	24.9	0.00e+00	33	38	0	672137216	46	6074
2026-01-01 14:34:14.90	44.62	60.02	-35.4	-36.2	26.0	0.00e+00	92	38	0	680525824	44	5837
2026-01-01 14:34:18.94	46.35	61.50	-34.9	-35.6	26.5	0.00e+00	2	38	0	687865856	42	6169
2026-01-01 14:34:22.98	48.30	62.99	-35.4	-36.1	25.9	0.00e+00	0	38	0	695205888	42	6535
2026-01-01 14:34:27.02	50.50	64.48	-35.5	-36.2	25.8	0.00e+00	0	38	0	702545920	42	6615
2026-01-01 14:34:31.06	53.01	65.97	-38.5	-39.4	23.3	0.00e+00	90	38	0	710934528	48	6716
2026-01-01 14:34:35.10	55.87	67.43	-39.2	-40.2	22.6	0.00e+00	0	38	0	718274560	50	6565
2026-01-01 14:34:39.13	59.16	68.85	-39.6	-40.6	22.3	0.00e+00	0	38	0	725614592	52	6147
2026-01-01 14:34:43.17	62.96	70.23	-39.2	-40.2	22.7	0.00e+00	50	38	0	732954624	50	6598
2026-01-01 14:34:47.21	67.35	71.53	-40.3	-41.4	21.5	0.00e+00	92	38	0	740294656	52	6734
2026-01-01 14:34:51.25	72.42	72.73	-39.7	-40.8	22.1	0.00e+00	0	38	0	748683264	52	6280
2026-01-01 14:34:55.28	78.21	73.79	-39.6	-40.7	22.1	0.00e+00	0	38	0	756023296	52	6195
2026-01-01 14:34:59.32	84.80	74.68	-39.6	-40.6	22.2	0.00e+00	52	38	0	763363328	52	6148
2026-01-01 14:35:03.36	92.13	75.36	-39.4	-40.5	22.4	0.00e+00	73	38	0	770703360	52	6037
2026-01-01 14:35:07.38	100.02	75.79	-39.5	-40.5	22.4	0.00e+00	2	38	0	778043392	52	6046
2026-01-01 14:35:11.42	108.29	75.94	-40.1	-41.2	21.6	0.00e+00	48	38	0	786432000	52	6608
2026-01-01 14:35:15.45	116.56	75.82	-41.7	-43.1	19.9	0.00e+00	91	38	0	793772032	56	6471
2026-01-01 14:35:19.50	124.56	75.41	-42.9	-44.6	18.6	0.00e+00	5	38	0	801112064	58	6899
2026-01-01 14:35:23.53	131.94	74.76	-42.2	-43.8	18.9	0.00e+00	5	38	0	808452096	58	6254
2026-01-01 14:35:27.57	138.61	73.89	-41.6	-43.0	20.2	0.00e+00	0	38	0	816840704	56	6419
2026-01-01 14:35:31.61	144.51	72.84	-40.2	-41.3	21.7	0.00e+00	91	38	0	824180736	52	6664
2026-01-01 14:35:35.65	149.65	71.65	-38.6	-39.5	23.3	0.00e+00	8	38	0	831520768	50	6063
2026-01-01 14:35:39.69	154.11	70.36	-38.2	-39.1	23.4	0.00e+00	8	38	0	838860800	48	6498
2026-01-01 14:35:43.73	157.97	68.99	-38.9	-39.8	22.9	0.00e+00	5	38	0	847249408	50	6295
2026-01-01 14:35:47.77	161.31	67.56	-39.3	-40.3	22.7	0.00e+00	92	38	0	854589440	52	5901
2026-01-01 14:35:51.81	164.22	66.10	-37.7	-38.6	24.0	0.00e+00	31	38	0	861929472	50	5458
2026-01-01 14:35:55.84	166.76	64.62	-36.6	-37.4	25.0	0.00e+00	2	38	0	869269504	46	6021
2026-01-01 14:35:59.88	168.99	63.13	-35.4	-36.1	26.0	0.00e+00	0	38	0	876609536	44	5806
2026-01-01 14:36:03.92	170.96	61.63	-35.2	-35.9	26.2	0.00e+00	90	38	0	884998144	42	6374
2026-01-01 14:36:07.96	172.71	60.15	-37.4	-38.2	24.4	0.00e+00	0	38	0	892338176	46	6563
2026-01-01 14:36:12.01	174.28	58.67	-40.4	-41.6	21.4	0.00e+00	35	38	0	899678208	54	6104
2026-01-01 14:36:16.05	175.67	57.22	-38.9	-39.8	23.0	0.00e+00	77	38	0	907018240	50	6289
2026-01-01 14:36:20.09	176.93	55.79	-37.3	-38.1	24.5	0.00e+00	92	38	0	915406848	48	5821
2026-01-01 14:36:24.13	178.07	54.38	-36.5	-37.3	25.2	0.00e+00	0	38	0	922746880	46	5922
2026-01-01 14:36:28.17	179.11	53.01	-35.8	-36.5	25.7	0.00e+00	0	38	0	930086912	44	6102
2026-01-01 14:36:32.20	180.05	51.66	-39.1	-40.1	22.6	0.00e+00	91	38	0	937426944	50	6506
2026-01-01 14:36:36.24	180.92	50.34	-41.1	-42.4	20.5	0.00e+00	56	38	0	944766976	54	6716
2026-01-01 14:36:40.28	181.71	49.05	-41.9	-43.3	19.8	0.00e+00	38	38	0	953155584	58	5945
2026-01-01 14:36:44.32	182.45	47.79	-41.4	-42.7	20.4	0.00e+00	2	38	0	960495616	56	6225
2026-01-01 14:36:48.35	183.12	46.57	-40.3	-41.4	21.5	0.00e+00	92	38	0	967835648	52	6752
2026-01-01 14:36:52.39	183.75	45.37	-39.3	-40.3	22.7	0.00e+00	36	38	0	975175680	52	5925
2026-01-01 14:36:56.43	184.34	44.21	-37.5	-38.3	24.4	0.00e+00	34	38	0	982515712	48	5963
2026-01-01 14:37:00.46	184.88	43.08	-38.6	-39.6	23.1	0.00e+00	36	38	0	990904320	48	6869
2026-01-01 14:37:04.50	185.39	41.98	-38.8	-39.8	23.1	0.00e+00	91	38	0	998244352	52	5593
2026-01-01 14:37:08.54	185.87	40.90	-37.0	-37.7	24.8	0.00e+00	40	38	0	1005584384	48	5564
2026-01-01 14:37:12.58	186.32	39.86	-40.3	-41.5	21.4	0.00e+00	46	38	0	1012924416	52	6788
2026-01-01 14:37:16.62	186.74	38.85	-39.6	-40.7	22.3	0.00e+00	44	38	0	1021313024	52	6222
2026-01-01 14:37:20.66	187.14	37.86	-38.4	-39.3	23.4	0.00e+00	92	38	0	1028653056	50	5915
2026-01-01 14:37:24.70	187.52	36.90	-40.9	-42.1	20.8	0.00e+00	0	38	0	1035993088	54	6538
2026-01-01 14:37:28.74	187.87	35.96	-40.5	-41.7	21.2	0.00e+00	0	38	0	1043333120	54	6206
2026-01-01 14:37:32.78	188.21	35.05	-39.3	-40.2	22.7	0.00e+00	19	38	0	1050673152	52	5890
2026-01-01 14:37:36.81	188.53	34.17	-39.6	-40.6	22.2	0.00e+00	92	38	0	1059061760	52	6156
2026-01-01 14:37:40.85	188.83	33.31	-41.3	-42.6	20.3	0.00e+00	0	38	0	1066401792	54	6891
2026-01-01 14:37:44.89	189.12	32.47	-41.5	-42.9	20.2	0.00e+00	0	38	0	1073741824	56	6364
2026-01-01 14:37:48.93	189.40	31.66	-41.1	-42.3	20.7	0.00e+00	0	38	0	1081081856	56	5954
2026-01-01 14:37:52.98	189.66	30.86	-40.4	-41.6	21.3	0.00e+00	92	38	0	1089470464	54	6123
2026-01-01 14:37:57.02	189.91	30.09	-39.4	-40.4	22.4	0.00e+00	38	38	0	1096810496	52	6030
2026-01-01 14:38:01.06	190.15	29.33	-39.0	-39.9	22.9	0.00e+00	37	38	0	1104150528	52	5680
2026-01-01 14:38:05.10	190.38	28.60	-39.0	-39.9	22.9	0.00e+00	92	38	0	1111490560	52	5679
2026-01-01 14:38:09.14	190.60	27.88	-38.8	-39.7	23.0	0.00e+00	75	38	0	1119879168	52	5551
2026-01-01 14:38:13.18	190.81	27.18	-38.2	-39.1	23.6	0.00e+00	0	38	0	1127219200	50	5785
2026-01-01 14:38:17.22	191.02	26.50	-38.1	-39.0	23.7	0.00e+00	38	38	0	1134559232	50	5735
2026-01-01 14:38:21.26	191.21	25.84	-38.2	-39.1	23.6	0.00e+00	90	38	0	1141899264	50	5772
2026-01-01 14:38:25.30	191.40	25.19	-38.2	-39.1	23.5	0.00e+00	0	38	0	1149239296	50	5802
2026-01-01 14:38:29.34	191.58	24.55	-37.7	-38.5	24.0	0.00e+00	0	38	0	1157627904	48	6093
2026-01-01 14:38:33.39	191.76	23.93	-37.3	-38.2	24.3	0.00e+00	37	38	0	1164967936	48	5849
2026-01-01 14:38:37.43	191.93	23.33	-37.1	-37.9	24.5	0.00e+00	92	38	0	1172307968	48	5691
2026-01-01 14:38:41.46	192.09	22.74	-36.9	-37.7	24.7	0.00e+00	6	38	0	1179648000	48	5504
2026-01-01 14:38:45.50	192.25	22.16	-37.1	-37.9	24.4	0.00e+00	0	38	0	1188036608	48	5663
2026-01-01 14:38:49.54	192.40	21.59	-37.4	-38.2	24.2	0.00e+00	6	38	0	1195376640	48	5863
2026-01-01 14:38:53.58	192.55	21.04	-37.6	-38.4	24.1	0.00e+00	92	38	0	1202716672	48	6020
2026-01-01 14:38:57.62	192.69	20.50	-37.6	-38.4	24.1	0.00e+00	5	38	0	1210056704	48	6020
2026-01-01 14:39:01.66	192.83	19.97	-37.5	-38.3	24.2	0.00e+00	47	38	0	1217396736	48	5946
2026-01-01 14:39:05.69	192.96	19.45	-37.5	-38.4	24.0	0.00e+00	6	38	0	1225785344	48	5987
2026-01-01 14:39:09.73	193.09	18.94	-37.6	-38.4	24.0	0.00e+00	92	38	0	1233125376	48	6017
2026-01-01 14:39:13.77	193.22	18.44	-37.9	-38.8	23.7	0.00e+00	0	38	0	1240465408	48	6270
2026-01-01 14:39:17.82	193.34	17.95	-38.1	-39.0	23.5	0.00e+00	42	38	0	1247805440	48	6423
2026-01-01 14:39:21.85	193.46	17.47	-38.3	-39.2	23.3	0.00e+00	40	38	0	1256194048	48	6567
2026-01-01 14:39:25.90	193.58	17.00	-38.2	-39.2	23.3	0.00e+00	92	38	0	1263534080	48	6541
2026-01-01 14:39:29.93	193.69	16.54	-38.1	-39.0	23.4	0.00e+00	0	38	0	1270874112	48	6463
2026-01-01 14:39:33.97	193.80	16.09	-38.2	-39.1	23.4	0.00e+00	36	38	0	1278214144	48	6522
2026-01-01 14:39:38.01	193.91	15.64	-38.3	-39.2	23.3	0.00e+00	90	39	0	1285554176	48	6575
2026-01-01 14:39:42.05	194.01	15.20	-38.2	-39.1	23.4	0.00e+00	90	38	0	1293942784	48	6491
2026-01-01 14:39:46.09	194.12	14.78	-38.3	-39.2	23.3	0.00e+00	0	38	0	1301282816	48	6563
2026-01-01 14:39:50.13	194.22	14.35	-38.4	-39.3	23.2	0.00e+00	0	38	0	1308622848	48	6681
2026-01-01 14:39:54.17	194.31	13.94	-38.7	-39.6	22.8	0.00e+00	92	38	0	1315962880	50	6165
2026-01-01 14:39:58.22	194.41	13.53	-38.5	-39.4	23.0	0.00e+00	79	38	0	1324351488	50	6009
2026-01-01 14:40:02.26	194.50	13.13	-38.5	-39.4	23.0	0.00e+00	0	38	0	1331691520	50	6003
2026-01-01 14:40:06.29	194.59	12.73	-38.5	-39.5	22.9	0.00e+00	2	38	0	1339031552	50	6072
2026-01-01 14:40:10.33	194.68	12.35	-38.7	-39.7	22.8	0.00e+00	91	38	0	1346371584	50	6197
2026-01-01 14:40:14.37	194.77	11.96	-38.8	-39.8	22.6	0.00e+00	38	38	0	1353711616	50	6276
2026-01-01 14:40:18.41	194.85	11.59	-39.0	-40.0	22.5	0.00e+00	2	38	0	1362100224	50	6424
2026-01-01 14:40:22.45	194.93	11.22	-39.0	-40.0	22.4	0.00e+00	45	38	0	1369440256	50	6421
2026-01-01 14:40:26.49	195.02	10.85	-39.0	-40.0	22.4	0.00e+00	91	38	0	1376780288	50	6411
2026-01-01 14:40:30.53	195.10	10.49	-39.2	-40.2	22.2	0.00e+00	6	38	0	1384120320	50	6598
2026-01-01 14:40:34.57	195.17	10.14	-39.2	-40.2	22.2	0.00e+00	0	38	0	1392508928	50	6596
2026-01-01 14:40:38.60	195.25	9.79	-39.2	-40.3	22.2	0.00e+00	18	38	0	1399848960	50	6653
2026-01-01 14:40:42.64	195.33	9.44	-39.2	-40.2	22.1	0.00e+00	90	38	0	1407188992	50	6602
2026-01-01 14:40:46.68	195.40	9.10	-39.4	-40.5	22.0	0.00e+00	9	38	0	1414529024	50	6804
2026-01-01 14:40:50.72	195.47	8.77	-39.3	-40.3	22.0	0.00e+00	6	38	0	1421869056	50	6681
2026-01-01 14:40:54.76	195.54	8.43	-39.2	-40.3	22.0	0.00e+00	7	38	0	1430257664	50	6656
2026-01-01 14:40:58.80	195.61	8.11	-39.3	-40.3	22.0	0.00e+00	92	38	0	1437597696	50	6667
2026-01-01 14:41:02.83	195.68	7.78	-39.3	-40.3	22.0	0.00e+00	52	38	0	1444937728	50	6685
2026-01-01 14:41:06.87	195.75	7.47	-39.3	-40.4	21.8	0.00e+00	50	38	0	1452277760	50	6720
2026-01-01 14:41:10.90	195.81	7.15	-39.3	-40.3	21.9	0.00e+00	92	38	0	1460666368	50	6671
2026-01-01 14:41:14.93	195.88	6.84	-39.4	-40.5	21.6	0.00e+00	91	38	0	1468006400	50	6836
2026-01-01 14:41:18.97	195.94	6.53	-39.7	-40.8	21.4	0.00e+00	35	38	0	1475346432	50	7075
2026-01-01 14:41:23.01	196.00	6.23	-39.6	-40.7	21.3	0.00e+00	0	38	0	1482686464	50	6998
2026-01-01 14:41:27.05	196.07	5.93	-39.9	-41.1	21.0	0.00e+00	90	38	0	1490026496	52	6487
2026-01-01 14:41:31.09	196.13	5.63	-39.9	-41.1	21.1	0.00e+00	0	38	0	1498415104	52	6484
2026-01-01 14:41:35.12	196.19	5.34	-39.9	-41.1	20.9	0.00e+00	0	38	0	1505755136	52	6527
2026-01-01 14:41:39.16	196.25	5.05	-40.0	-41.2	20.9	0.00e+00	2	38	0	1513095168	52	6581
2026-01-01 14:41:43.20	196.30	4.76	-40.1	-41.4	20.7	0.00e+00	92	38	0	1520435200	52	6716
2026-01-01 14:41:47.24	196.36	4.48	-40.3	-41.6	20.5	0.00e+00	0	38	0	1528823808	52	6862
2026-01-01 14:41:51.28	196.42	4.20	-40.4	-41.7	20.1	0.00e+00	47	38	0	1536163840	52	6994
2026-01-01 14:41:55.32	196.47	3.92	-40.4	-41.7	20.3	0.00e+00	0	38	0	1543503872	52	7006
2026-01-01 14:41:59.35	196.53	3.64	-40.6	-41.9	20.0	0.00e+00	92	38	0	1550843904	52	7149
2026-01-01 14:42:03.39	196.58	3.37	-40.5	-41.9	19.8	0.00e+00	0	38	0	1558183936	54	6345
2026-01-01 14:42:07.43	196.63	3.10	-41.0	-42.4	19.4	0.00e+00	54	38	0	1566572544	54	6766
2026-01-01 14:42:11.47	196.69	2.83	-48.7	-63.9	3.6	1.51e+00	0	38	104	1568669696	60	56703
2026-01-01 14:42:15.51	196.74	2.57	-49.0	-64.1	3.6	1.51e+00	0	38	104	1568669696	60	58264
2026-01-01 14:42:19.55	196.79	2.30	-48.9	-64.2	3.6	1.51e+00	0	38	104	1568669696	60	58495
2026-01-01 14:42:23.59	196.84	2.04	-48.9	-64.2	3.6	1.51e+00	0	38	104	1568669696	60	58464
2026-01-01 14:42:27.63	196.89	1.79	-48.9	-64.1	3.6	1.51e+00	0	38	104	1568669696	60	58032
2026-01-01 14:42:31.67	196.94	1.53	-48.9	-64.1	3.6	1.51e+00	0	38	104	1568669696	60	58093
2026-01-01 14:42:35.71	196.98	1.28	-48.9	-64.2	3.6	1.51e+00	0	38	104	1568669696	60	58380
2026-01-01 14:42:39.75	197.03	1.03	-48.9	-64.1	3.6	1.51e+00	0	38	104	1568669696	60	58056
2026-01-01 14:42:43.79	197.08	0.78	-48.9	-64.1	3.6	1.51e+00	0	38	104	1568669696	60	57787
2026-01-01 14:42:47.83	197.13	0.53	-48.9	-64.1	3.6	1.51e+00	0	38	104	1568669696	60	57942
2026-01-01 14:42:51.88	197.17	0.28	-48.9	-64.1	3.6	1.51e+00	0	38	104	1568669696	60	57751
2026-01-01 14:42:55.91	197.22	0.04	-48.9	-64.1	3.6	1.51e+00	0	38	104	1568669696	60	57815

#Closed at: 2026-01-01 14:42:58
#Recorded file [1568 MB]: D:/lorett/data/35029_260102_022726.dat