passes_logs/2026/01/01/R4.6S_Anadyr/R4.6S_Anadyr__20260101_133658_NOAA_21_JPSS-2_rec.log

#Pass ID: 20260101_133658_NOAA 21 (JPSS-2)
#Satellite: NOAA 21 (JPSS-2)
#Configuration: NOAA-21
#almurnet v.1.7.20251203
#Start time: 2026-01-01 13:36:59

#Version: 2.2.20231116
#Station: R4.6S_Anadyr
#Location: 177.4865 lon 64.73178 lat
#TLE: 1 54234U 22150A   25364.85835894  .00000203  00000+0  11731-3 0  9998
#TLE: 2 54234  98.7482 300.9425 0001352 357.8195   2.2975 14.19530071162667

#Time	Az	El	Level	Level2	SNR	BER	BlckErr	Temp	State	Recorded	gain1	gain2
2026-01-01 13:36:59.63	18.95	0.09	-49.0	-63.9	3.5	1.51e+00	0	35	0	0	60	56683
2026-01-01 13:37:03.67	19.10	0.32	-49.1	-62.0	3.5	1.52e+00	0	37	104	0	60	44419
2026-01-01 13:37:07.71	19.26	0.55	-49.2	-62.1	3.5	1.52e+00	0	37	104	0	60	44542
2026-01-01 13:37:11.75	19.41	0.79	-48.7	-61.6	3.5	1.52e+00	0	37	104	0	60	42201
2026-01-01 13:37:15.79	19.57	1.03	-47.8	-60.6	3.5	1.52e+00	0	37	104	0	60	37479
2026-01-01 13:37:19.83	19.73	1.27	-47.7	-60.5	3.5	1.52e+00	0	37	104	0	60	37358
2026-01-01 13:37:23.87	19.89	1.51	-47.7	-60.4	3.5	1.52e+00	0	37	104	0	60	36809
2026-01-01 13:37:27.91	20.05	1.75	-47.7	-60.5	3.5	1.52e+00	0	37	104	0	60	37044
2026-01-01 13:37:31.94	20.22	1.99	-47.7	-60.4	3.5	1.52e+00	0	37	104	0	60	36847
2026-01-01 13:37:35.99	20.39	2.24	-47.6	-59.8	3.5	1.52e+00	0	37	104	0	60	34155
2026-01-01 13:37:40.03	20.56	2.49	-47.6	-58.9	3.5	1.51e+00	0	38	104	0	60	30924
2026-01-01 13:37:44.06	20.73	2.74	-46.5	-52.8	7.4	2.46e-01	122	38	104	0	60	15384
2026-01-01 13:37:48.10	20.91	2.99	-41.4	-43.2	16.7	0.00e+00	123	38	0	11534336	56	6368
2026-01-01 13:37:52.14	21.08	3.24	-39.9	-41.3	18.4	0.00e+00	121	38	0	24117248	52	6457
2026-01-01 13:37:56.18	21.27	3.50	-43.5	-46.0	13.7	3.00e-06	123	38	0	36700160	58	7850
2026-01-01 13:38:00.22	21.45	3.76	-47.6	-57.9	3.6	8.70e-01	0	38	104	45088768	60	27559
2026-01-01 13:38:04.26	21.64	4.02	-44.1	-46.8	13.0	2.44e-05	122	38	0	51380224	60	7687
2026-01-01 13:38:08.30	21.83	4.28	-44.3	-47.2	12.8	1.83e-05	123	38	0	63963136	60	8020
2026-01-01 13:38:12.34	22.02	4.55	-43.2	-45.5	14.5	1.50e-06	123	38	0	76546048	60	6593
2026-01-01 13:38:16.38	22.22	4.82	-43.5	-45.8	14.3	7.00e-07	120	38	0	89128960	58	7723
2026-01-01 13:38:20.42	22.42	5.09	-41.0	-42.6	17.7	0.00e+00	123	38	0	101711872	54	6674
2026-01-01 13:38:24.46	22.62	5.36	-39.7	-41.0	19.0	0.00e+00	122	38	0	114294784	52	6277
2026-01-01 13:38:28.50	22.83	5.64	-38.4	-39.5	20.4	0.00e+00	120	38	0	126877696	50	5911
2026-01-01 13:38:32.54	23.04	5.92	-38.2	-39.4	20.6	0.00e+00	123	38	0	139460608	50	5812
2026-01-01 13:38:36.58	23.26	6.20	-38.1	-39.2	20.7	0.00e+00	120	38	0	152043520	50	5693
2026-01-01 13:38:40.62	23.47	6.48	-38.2	-39.3	20.9	0.00e+00	122	38	0	165675008	50	5760
2026-01-01 13:38:44.66	23.70	6.77	-37.8	-39.0	21.1	0.00e+00	123	38	0	178257920	48	6211
2026-01-01 13:38:48.70	23.92	7.06	-37.5	-38.6	21.4	0.00e+00	122	38	0	190840832	48	5944
2026-01-01 13:38:52.74	24.15	7.35	-37.4	-38.5	21.5	0.00e+00	120	38	0	203423744	48	5877
2026-01-01 13:38:56.78	24.39	7.65	-37.4	-38.4	21.5	0.00e+00	122	38	0	216006656	48	5852
2026-01-01 13:39:00.82	24.63	7.94	-37.1	-38.1	21.8	0.00e+00	122	38	0	228589568	48	5648
2026-01-01 13:39:04.86	24.87	8.25	-37.3	-38.3	21.6	0.00e+00	123	38	0	241172480	48	5765
2026-01-01 13:39:08.90	25.12	8.55	-37.3	-38.4	21.5	0.00e+00	122	38	0	253755392	48	5797
2026-01-01 13:39:12.94	25.37	8.86	-37.0	-38.0	22.0	0.00e+00	122	38	0	266338304	48	5570
2026-01-01 13:39:16.98	25.63	9.17	-36.6	-37.6	22.3	0.00e+00	123	38	0	278921216	46	5965
2026-01-01 13:39:21.02	25.89	9.49	-36.6	-37.6	22.4	0.00e+00	123	38	0	291504128	46	5938
2026-01-01 13:39:25.06	26.16	9.81	-36.3	-37.3	22.6	0.00e+00	122	38	0	304087040	46	5765
2026-01-01 13:39:29.10	26.43	10.13	-36.3	-37.3	22.7	0.00e+00	123	38	0	316669952	46	5738
2026-01-01 13:39:33.14	26.71	10.45	-36.2	-37.2	22.7	0.00e+00	123	38	0	329252864	46	5711
2026-01-01 13:39:37.18	27.00	10.78	-36.0	-37.0	22.9	0.00e+00	122	38	0	341835776	46	5561
2026-01-01 13:39:41.22	27.29	11.12	-35.8	-36.7	23.2	0.00e+00	123	38	0	354418688	44	6055
2026-01-01 13:39:45.26	27.59	11.46	-35.6	-36.6	23.3	0.00e+00	120	38	0	367001600	44	5932
2026-01-01 13:39:49.30	27.90	11.80	-35.6	-36.5	23.3	0.00e+00	120	38	0	379584512	44	5894
2026-01-01 13:39:53.35	28.21	12.15	-35.5	-36.4	23.4	0.00e+00	123	38	0	392167424	44	5847
2026-01-01 13:39:57.39	28.53	12.50	-35.5	-36.5	23.4	0.00e+00	122	38	0	404750336	44	5871
2026-01-01 13:40:01.42	28.85	12.85	-35.2	-36.1	23.7	0.00e+00	120	38	0	417333248	44	5643
2026-01-01 13:40:05.46	29.19	13.21	-35.2	-36.1	23.7	0.00e+00	122	38	0	429916160	44	5642
2026-01-01 13:40:09.50	29.53	13.57	-35.3	-36.2	23.7	0.00e+00	120	38	0	442499072	44	5702
2026-01-01 13:40:13.54	29.88	13.94	-35.4	-36.3	23.6	0.00e+00	123	38	0	455081984	44	5791
2026-01-01 13:40:17.58	30.23	14.31	-35.2	-36.1	23.8	0.00e+00	120	38	0	467664896	44	5631
2026-01-01 13:40:21.62	30.60	14.69	-35.2	-36.1	23.8	0.00e+00	122	38	0	481296384	44	5646
2026-01-01 13:40:25.66	30.97	15.08	-35.1	-36.0	23.9	0.00e+00	121	38	0	493879296	44	5586
2026-01-01 13:40:29.70	31.36	15.46	-35.2	-36.1	23.9	0.00e+00	122	38	0	506462208	44	5635
2026-01-01 13:40:33.74	31.75	15.86	-35.3	-36.2	23.8	0.00e+00	123	38	0	519045120	44	5690
2026-01-01 13:40:37.79	32.16	16.26	-35.4	-36.3	23.7	0.00e+00	123	38	0	531628032	44	5766
2026-01-01 13:40:41.83	32.57	16.66	-35.3	-36.3	23.7	0.00e+00	122	38	0	544210944	44	5752
2026-01-01 13:40:45.87	33.00	17.07	-35.5	-36.4	23.7	0.00e+00	122	38	0	556793856	44	5810
2026-01-01 13:40:49.90	33.43	17.48	-35.7	-36.7	23.4	0.00e+00	123	38	0	569376768	44	6026
2026-01-01 13:40:53.95	33.88	17.90	-35.8	-36.7	23.5	0.00e+00	120	38	0	581959680	44	6053
2026-01-01 13:40:57.99	34.34	18.33	-35.7	-36.6	23.5	0.00e+00	120	38	0	594542592	44	5970
2026-01-01 13:41:02.03	34.82	18.76	-35.7	-36.6	23.6	0.00e+00	123	38	0	607125504	44	5987
2026-01-01 13:41:06.07	35.30	19.20	-35.6	-36.6	23.5	0.00e+00	120	38	0	619708416	44	5932
2026-01-01 13:41:10.10	35.80	19.64	-35.6	-36.6	23.5	0.00e+00	123	38	0	632291328	44	5949
2026-01-01 13:41:14.14	36.32	20.09	-35.4	-36.3	23.7	0.00e+00	123	38	0	644874240	44	5774
2026-01-01 13:41:18.19	36.85	20.54	-35.4	-36.3	23.7	0.00e+00	122	38	0	657457152	44	5787
2026-01-01 13:41:22.23	37.39	21.00	-35.1	-36.0	24.0	0.00e+00	122	38	0	670040064	44	5555
2026-01-01 13:41:26.28	37.95	21.47	-34.9	-35.9	24.0	0.00e+00	123	38	0	682622976	44	5471
2026-01-01 13:41:30.31	38.53	21.94	-34.7	-35.7	24.2	0.00e+00	123	38	0	695205888	44	5344
2026-01-01 13:41:34.35	39.12	22.42	-34.6	-35.5	24.4	0.00e+00	122	38	0	707788800	42	5874
2026-01-01 13:41:38.39	39.74	22.90	-34.5	-35.4	24.4	0.00e+00	122	38	0	720371712	42	5799
2026-01-01 13:41:42.44	40.37	23.39	-34.3	-35.2	24.6	0.00e+00	123	38	0	732954624	42	5693
2026-01-01 13:41:46.47	41.02	23.89	-34.2	-35.1	24.9	0.00e+00	123	38	0	745537536	42	5606
2026-01-01 13:41:50.51	41.69	24.39	-34.3	-35.2	24.8	0.00e+00	120	38	0	758120448	42	5691
2026-01-01 13:41:54.56	42.38	24.90	-34.1	-35.0	24.9	0.00e+00	122	38	0	771751936	42	5555
2026-01-01 13:41:58.59	43.10	25.41	-34.2	-35.0	24.9	0.00e+00	121	38	0	783286272	42	5570
2026-01-01 13:42:02.63	43.84	25.93	-34.7	-35.6	24.4	0.00e+00	120	38	0	796917760	42	5985
2026-01-01 13:42:06.68	44.60	26.46	-34.9	-35.8	24.3	0.00e+00	123	38	0	809500672	42	6127
2026-01-01 13:42:10.72	45.39	26.99	-35.5	-36.4	23.9	0.00e+00	123	38	0	822083584	42	6519
2026-01-01 13:42:14.76	46.20	27.52	-35.7	-36.7	23.7	0.00e+00	122	38	0	834666496	44	6005
2026-01-01 13:42:18.80	47.04	28.06	-35.8	-36.7	23.7	0.00e+00	120	38	0	847249408	44	6035
2026-01-01 13:42:22.84	47.91	28.60	-35.7	-36.7	23.7	0.00e+00	120	38	0	859832320	44	6018
2026-01-01 13:42:26.88	48.80	29.14	-35.3	-36.2	23.9	0.00e+00	123	38	0	872415232	44	5713
2026-01-01 13:42:30.92	49.73	29.69	-35.3	-36.2	24.1	0.00e+00	123	38	0	884998144	44	5676
2026-01-01 13:42:34.96	50.69	30.24	-35.1	-36.0	24.2	0.00e+00	122	38	0	897581056	44	5544
2026-01-01 13:42:39.00	51.68	30.79	-35.1	-36.0	24.2	0.00e+00	122	38	0	910163968	44	5552
2026-01-01 13:42:43.04	52.71	31.35	-35.0	-35.9	24.2	0.00e+00	121	38	0	922746880	44	5487
2026-01-01 13:42:47.08	53.77	31.90	-35.6	-36.6	23.7	0.00e+00	122	38	0	935329792	44	5941
2026-01-01 13:42:51.12	54.87	32.45	-35.7	-36.6	23.7	0.00e+00	120	38	0	947912704	44	5941
2026-01-01 13:42:55.16	56.00	33.01	-35.7	-36.7	23.6	0.00e+00	123	38	0	960495616	44	6008
2026-01-01 13:42:59.20	57.17	33.55	-36.0	-37.0	23.5	0.00e+00	122	38	0	973078528	44	6240
2026-01-01 13:43:03.24	58.39	34.10	-36.1	-37.1	23.3	0.00e+00	122	38	0	985661440	44	6293
2026-01-01 13:43:07.28	59.64	34.64	-36.4	-37.4	23.2	0.00e+00	120	38	0	998244352	44	6506
2026-01-01 13:43:11.32	60.93	35.18	-36.5	-37.5	23.0	0.00e+00	122	38	0	1010827264	44	6593
2026-01-01 13:43:15.35	62.27	35.70	-36.6	-37.6	22.9	0.00e+00	120	38	0	1023410176	44	6657
2026-01-01 13:43:19.39	63.65	36.22	-36.9	-37.9	22.7	0.00e+00	123	38	0	1035993088	46	6147
2026-01-01 13:43:23.43	65.07	36.73	-36.6	-37.5	23.1	0.00e+00	121	38	0	1048576000	46	5914
2026-01-01 13:43:27.47	66.54	37.22	-37.1	-38.1	22.6	0.00e+00	120	38	0	1061158912	46	6285
2026-01-01 13:43:31.51	68.05	37.70	-36.6	-37.6	22.9	0.00e+00	120	38	0	1073741824	46	5958
2026-01-01 13:43:35.55	69.60	38.17	-37.3	-38.3	22.4	0.00e+00	122	38	0	1087373312	46	6484
2026-01-01 13:43:39.59	71.20	38.62	-37.1	-38.1	22.3	0.00e+00	123	38	0	1098907648	46	6304
2026-01-01 13:43:43.62	72.84	39.04	-37.1	-38.1	22.6	0.00e+00	123	38	0	1112539136	46	6291
2026-01-01 13:43:47.66	74.52	39.45	-38.1	-39.1	21.6	0.00e+00	123	38	0	1125122048	48	6334
2026-01-01 13:43:51.70	76.25	39.84	-37.6	-38.6	22.0	0.00e+00	120	38	0	1137704960	48	5986
2026-01-01 13:43:55.75	78.02	40.20	-37.3	-38.3	22.4	0.00e+00	123	38	0	1150287872	48	5784
2026-01-01 13:43:59.79	79.82	40.53	-37.5	-38.5	22.2	0.00e+00	123	38	0	1162870784	48	5882
2026-01-01 13:44:03.83	81.66	40.83	-37.7	-38.8	21.7	0.00e+00	122	38	0	1175453696	48	6082
2026-01-01 13:44:07.87	83.53	41.10	-37.3	-38.3	22.3	0.00e+00	123	38	0	1188036608	48	5772
2026-01-01 13:44:11.91	85.43	41.34	-37.8	-38.9	21.8	0.00e+00	120	38	0	1200619520	48	6168
2026-01-01 13:44:15.95	87.35	41.55	-37.6	-38.7	22.0	0.00e+00	120	38	0	1213202432	48	6019
2026-01-01 13:44:19.99	89.30	41.72	-37.1	-38.1	22.5	0.00e+00	120	38	0	1225785344	48	5600
2026-01-01 13:44:24.04	91.28	41.85	-37.8	-38.8	21.9	0.00e+00	122	38	0	1238368256	48	6115
2026-01-01 13:44:28.08	93.26	41.95	-38.1	-39.2	21.5	0.00e+00	123	38	0	1250951168	48	6380
2026-01-01 13:44:32.12	95.25	42.01	-38.5	-39.6	21.1	0.00e+00	122	38	0	1263534080	48	6690
2026-01-01 13:44:36.16	97.25	42.03	-37.0	-38.0	22.6	0.00e+00	123	38	0	1276116992	48	5552
2026-01-01 13:44:40.20	99.24	42.02	-37.5	-38.6	22.2	0.00e+00	123	38	0	1288699904	48	5930
2026-01-01 13:44:44.24	101.24	41.96	-38.4	-39.6	21.2	0.00e+00	123	38	0	1301282816	48	6676
2026-01-01 13:44:48.29	103.23	41.87	-37.8	-38.9	21.9	0.00e+00	122	38	0	1313865728	48	6168
2026-01-01 13:44:52.33	105.20	41.74	-37.5	-38.6	22.0	0.00e+00	122	38	0	1326448640	48	5949
2026-01-01 13:44:56.37	107.15	41.58	-37.3	-38.3	22.3	0.00e+00	123	38	0	1339031552	48	5764
2026-01-01 13:45:00.41	109.09	41.38	-37.5	-38.6	22.2	0.00e+00	123	38	0	1351614464	48	5939
2026-01-01 13:45:04.45	110.99	41.14	-37.7	-38.7	22.2	0.00e+00	123	38	0	1365245952	48	6028
2026-01-01 13:45:08.49	112.87	40.88	-37.6	-38.7	22.1	0.00e+00	122	38	0	1376780288	48	6018
2026-01-01 13:45:12.53	114.72	40.58	-38.1	-39.3	21.6	0.00e+00	122	38	0	1390411776	48	6425
2026-01-01 13:45:16.58	116.54	40.25	-37.0	-38.0	22.6	0.00e+00	122	38	0	1402994688	48	5549
2026-01-01 13:45:20.62	118.31	39.90	-37.3	-38.3	22.0	0.00e+00	122	38	0	1415577600	46	6473
2026-01-01 13:45:24.66	120.05	39.52	-36.7	-37.7	22.6	0.00e+00	123	38	0	1428160512	46	6038
2026-01-01 13:45:28.70	121.74	39.11	-37.3	-38.3	22.3	0.00e+00	123	38	0	1440743424	46	6468
2026-01-01 13:45:32.74	123.39	38.68	-37.7	-38.8	22.0	0.00e+00	123	38	0	1453326336	48	6080
2026-01-01 13:45:36.78	125.00	38.24	-36.9	-37.9	22.7	0.00e+00	123	38	0	1465909248	46	6174
2026-01-01 13:45:40.82	126.57	37.77	-36.9	-37.9	22.4	0.00e+00	123	38	0	1478492160	46	6191
2026-01-01 13:45:44.86	128.09	37.29	-36.7	-37.7	22.8	0.00e+00	120	38	0	1491075072	46	6011
2026-01-01 13:45:48.90	129.57	36.80	-36.7	-37.7	23.0	0.00e+00	120	38	0	1503657984	46	6024
2026-01-01 13:45:52.94	131.00	36.29	-36.1	-37.0	23.3	0.00e+00	122	38	0	1516240896	46	5581
2026-01-01 13:45:56.98	132.39	35.77	-36.5	-37.5	23.1	0.00e+00	122	38	0	1528823808	46	5892
2026-01-01 13:46:01.02	133.74	35.24	-36.9	-37.9	22.6	0.00e+00	123	38	0	1541406720	46	6188
2026-01-01 13:46:05.06	135.04	34.71	-37.2	-38.2	22.5	0.00e+00	123	38	0	1553989632	46	6411
2026-01-01 13:46:09.10	136.31	34.16	-36.6	-37.6	23.0	0.00e+00	122	38	0	1566572544	46	5975
2026-01-01 13:46:13.13	137.52	33.62	-36.1	-37.1	23.5	0.00e+00	122	38	0	1579155456	46	5605
2026-01-01 13:46:17.18	138.71	33.06	-35.7	-36.6	23.7	0.00e+00	122	38	0	1591738368	44	5982
2026-01-01 13:46:21.21	139.85	32.51	-35.3	-36.2	23.9	0.00e+00	123	38	0	1604321280	44	5691
2026-01-01 13:46:25.25	140.96	31.96	-35.0	-35.9	24.3	0.00e+00	122	38	0	1616904192	44	5471
2026-01-01 13:46:29.30	142.03	31.40	-35.0	-35.9	24.2	0.00e+00	123	38	0	1629487104	44	5483
2026-01-01 13:46:33.34	143.06	30.84	-34.8	-35.7	24.2	0.00e+00	122	38	0	1642070016	42	6045
2026-01-01 13:46:37.38	144.06	30.29	-34.7	-35.6	24.3	0.00e+00	123	38	0	1654652928	42	5963
2026-01-01 13:46:41.42	145.03	29.73	-35.0	-35.9	24.2	0.00e+00	122	38	0	1667235840	42	6168
2026-01-01 13:46:45.46	145.96	29.18	-34.8	-35.7	24.2	0.00e+00	122	38	0	1680867328	42	6056
2026-01-01 13:46:49.50	146.87	28.63	-35.0	-35.9	24.1	0.00e+00	120	38	0	1693450240	42	6182
2026-01-01 13:46:53.54	147.74	28.09	-34.9	-35.9	24.2	0.00e+00	121	38	0	1706033152	42	6144
2026-01-01 13:46:57.58	148.59	27.55	-35.0	-36.0	24.1	0.00e+00	120	38	0	1718616064	42	6207
2026-01-01 13:47:01.62	149.41	27.01	-35.2	-36.2	24.0	0.00e+00	123	38	0	1731198976	42	6363
2026-01-01 13:47:05.66	150.20	26.48	-34.7	-35.6	24.5	0.00e+00	122	38	0	1743781888	42	5945
2026-01-01 13:47:09.69	150.96	25.95	-34.4	-35.3	24.7	0.00e+00	121	38	0	1756364800	42	5730
2026-01-01 13:47:13.74	151.71	25.43	-34.5	-35.4	24.4	0.00e+00	122	38	0	1768947712	42	5847
2026-01-01 13:47:17.78	152.43	24.91	-34.5	-35.4	24.5	0.00e+00	120	38	0	1781530624	42	5821
2026-01-01 13:47:21.82	153.12	24.40	-34.3	-35.1	24.6	0.00e+00	123	38	0	1794113536	42	5656
2026-01-01 13:47:25.86	153.80	23.89	-34.5	-35.4	24.3	0.00e+00	123	38	0	1806696448	42	5855
2026-01-01 13:47:29.90	154.45	23.39	-34.7	-35.6	24.3	0.00e+00	122	38	0	1819279360	42	5944
2026-01-01 13:47:33.95	155.09	22.90	-34.8	-35.7	24.2	0.00e+00	120	38	0	1831862272	42	6048
2026-01-01 13:47:37.99	155.71	22.41	-34.9	-35.8	24.1	0.00e+00	121	38	0	1844445184	42	6089
2026-01-01 13:47:42.03	156.30	21.93	-34.9	-35.8	24.2	0.00e+00	123	38	0	1857028096	42	6111
2026-01-01 13:47:46.07	156.88	21.45	-34.6	-35.4	24.4	0.00e+00	122	38	0	1869611008	42	5857
2026-01-01 13:47:50.12	157.45	20.98	-34.7	-35.6	24.3	0.00e+00	123	38	0	1882193920	42	5980
2026-01-01 13:47:54.16	157.99	20.52	-34.5	-35.4	24.3	0.00e+00	123	38	0	1894776832	42	5852
2026-01-01 13:47:58.20	158.52	20.06	-34.4	-35.3	24.4	0.00e+00	123	38	0	1907359744	42	5779
2026-01-01 13:48:02.24	159.04	19.61	-34.4	-35.3	24.4	0.00e+00	123	38	0	1919942656	42	5741
2026-01-01 13:48:06.28	159.54	19.16	-34.5	-35.4	24.3	0.00e+00	122	38	0	1932525568	42	5813
2026-01-01 13:48:10.32	160.03	18.72	-34.7	-35.6	24.2	0.00e+00	122	38	0	1945108480	42	5980
2026-01-01 13:48:14.36	160.50	18.28	-34.9	-35.8	24.1	0.00e+00	123	38	0	1957691392	42	6133
2026-01-01 13:48:18.40	160.97	17.86	-35.0	-36.0	23.8	0.00e+00	120	38	0	1971322880	42	6214
2026-01-01 13:48:22.44	161.41	17.43	-35.2	-36.2	23.5	0.00e+00	123	38	0	1982857216	42	6374
2026-01-01 13:48:26.48	161.85	17.02	-35.2	-36.1	23.5	0.00e+00	123	38	0	1996488704	42	6336
2026-01-01 13:48:30.52	162.28	16.60	-35.0	-36.0	23.7	0.00e+00	122	38	0	2009071616	42	6207
2026-01-01 13:48:34.56	162.69	16.20	-35.1	-36.0	23.8	0.00e+00	123	38	0	2021654528	42	6261
2026-01-01 13:48:38.60	163.10	15.80	-35.3	-36.3	23.7	0.00e+00	123	38	0	2034237440	42	6431
2026-01-01 13:48:42.64	163.49	15.40	-35.6	-36.6	23.4	0.00e+00	122	38	0	2046820352	42	6650
2026-01-01 13:48:46.68	163.88	15.01	-36.0	-37.0	23.1	0.00e+00	123	38	0	2059403264	44	6237
2026-01-01 13:48:50.72	164.25	14.63	-36.2	-37.1	22.9	0.00e+00	122	38	0	2071986176	44	6340
2026-01-01 13:48:54.76	164.62	14.24	-36.1	-37.1	22.8	0.00e+00	122	38	0	2084569088	44	6322
2026-01-01 13:48:58.80	164.98	13.87	-36.1	-37.1	22.6	0.00e+00	120	38	0	2097152000	44	6331
2026-01-01 13:49:02.84	165.32	13.50	-36.2	-37.2	22.6	0.00e+00	123	38	0	2109734912	44	6420
2026-01-01 13:49:06.88	165.66	13.13	-36.4	-37.5	22.5	0.00e+00	122	38	0	2122317824	44	6577
2026-01-01 13:49:10.92	166.00	12.77	-36.0	-37.0	22.9	0.00e+00	122	38	0	2134900736	44	6218
2026-01-01 13:49:14.96	166.32	12.41	-36.1	-37.1	23.0	0.00e+00	123	38	0	2147483648	44	6311
2026-01-01 13:49:19.00	166.64	12.06	-36.1	-37.0	22.9	0.00e+00	123	38	0	2160066560	44	6274
2026-01-01 13:49:23.04	166.95	11.71	-36.3	-37.3	22.8	0.00e+00	120	38	0	2172649472	44	6433
2026-01-01 13:49:27.08	167.25	11.37	-36.5	-37.5	22.6	0.00e+00	123	38	0	2185232384	44	6584
2026-01-01 13:49:31.12	167.55	11.03	-36.5	-37.5	22.5	0.00e+00	122	38	0	2197815296	44	6602
2026-01-01 13:49:35.16	167.84	10.69	-36.5	-37.5	22.5	0.00e+00	122	38	0	2210398208	44	6596
2026-01-01 13:49:39.20	168.13	10.36	-36.6	-37.6	22.4	0.00e+00	122	38	0	2222981120	44	6672
2026-01-01 13:49:43.24	168.40	10.03	-36.6	-37.6	22.4	0.00e+00	122	38	0	2235564032	46	5945
2026-01-01 13:49:47.28	168.68	9.71	-36.7	-37.7	22.3	0.00e+00	123	38	0	2248146944	46	6040
2026-01-01 13:49:51.31	168.94	9.38	-36.7	-37.8	22.3	0.00e+00	120	38	0	2260729856	46	6070
2026-01-01 13:49:55.36	169.21	9.07	-36.8	-37.8	22.1	0.00e+00	122	38	0	2273312768	46	6131
2026-01-01 13:49:59.40	169.46	8.75	-36.8	-37.9	22.1	0.00e+00	123	38	0	2286944256	46	6146
2026-01-01 13:50:03.44	169.71	8.44	-36.9	-37.9	22.0	0.00e+00	122	38	0	2298478592	46	6181
2026-01-01 13:50:07.48	169.96	8.14	-37.1	-38.2	21.8	0.00e+00	121	38	0	2312110080	46	6351
2026-01-01 13:50:11.52	170.20	7.83	-37.3	-38.4	21.6	0.00e+00	123	38	0	2324692992	46	6510
2026-01-01 13:50:15.57	170.44	7.53	-37.4	-38.4	21.4	0.00e+00	123	38	0	2337275904	46	6559
2026-01-01 13:50:19.61	170.67	7.23	-37.4	-38.5	21.3	0.00e+00	122	38	0	2349858816	46	6608
2026-01-01 13:50:23.65	170.90	6.94	-37.8	-38.9	21.0	0.00e+00	122	38	0	2362441728	48	6178
2026-01-01 13:50:27.69	171.12	6.65	-37.6	-38.8	21.0	0.00e+00	123	38	0	2375024640	48	6070
2026-01-01 13:50:31.73	171.34	6.36	-37.9	-39.1	20.8	0.00e+00	123	38	0	2387607552	48	6280
2026-01-01 13:50:35.77	171.56	6.07	-38.0	-39.1	20.7	0.00e+00	123	38	0	2400190464	48	6322
2026-01-01 13:50:39.81	171.77	5.79	-38.0	-39.1	20.6	0.00e+00	122	38	0	2412773376	48	6324
2026-01-01 13:50:43.85	171.98	5.51	-38.0	-39.2	20.5	0.00e+00	122	38	0	2425356288	48	6384
2026-01-01 13:50:47.90	172.18	5.23	-38.1	-39.3	20.5	0.00e+00	122	38	0	2437939200	48	6429
2026-01-01 13:50:51.94	172.38	4.96	-38.1	-39.3	20.4	0.00e+00	123	38	0	2450522112	48	6471
2026-01-01 13:50:55.98	172.58	4.68	-38.3	-39.5	20.3	0.00e+00	123	38	0	2463105024	48	6580
2026-01-01 13:51:00.02	172.77	4.42	-38.3	-39.5	20.1	0.00e+00	122	38	0	2475687936	48	6632
2026-01-01 13:51:04.06	172.96	4.15	-38.4	-39.7	20.1	0.00e+00	123	38	0	2488270848	48	6734
2026-01-01 13:51:08.11	173.15	3.88	-38.6	-39.9	19.8	0.00e+00	122	39	0	2500853760	50	6151
2026-01-01 13:51:12.14	173.34	3.62	-38.6	-39.8	19.7	0.00e+00	122	38	0	2513436672	50	6133
2026-01-01 13:51:16.19	173.52	3.36	-39.0	-40.3	19.3	0.00e+00	122	38	0	2526019584	50	6458
2026-01-01 13:51:20.23	173.70	3.10	-39.1	-40.5	19.0	0.00e+00	122	38	0	2538602496	50	6576
2026-01-01 13:51:24.27	173.87	2.85	-48.8	-61.7	3.5	1.52e+00	0	38	104	2542796800	60	42709
2026-01-01 13:51:28.31	174.04	2.59	-49.1	-62.0	3.5	1.52e+00	0	39	104	2542796800	60	44076
2026-01-01 13:51:32.35	174.21	2.34	-49.1	-62.0	3.5	1.52e+00	0	39	104	2542796800	60	43977
2026-01-01 13:51:36.39	174.38	2.09	-49.1	-61.9	3.5	1.52e+00	0	39	104	2542796800	60	43899
2026-01-01 13:51:40.42	174.55	1.84	-49.1	-61.9	3.5	1.52e+00	0	39	104	2542796800	60	43786
2026-01-01 13:51:44.46	174.71	1.60	-49.1	-61.9	3.5	1.52e+00	0	39	104	2542796800	60	43785
2026-01-01 13:51:48.50	174.87	1.35	-49.1	-62.0	3.5	1.52e+00	0	39	104	2542796800	60	44005
2026-01-01 13:51:52.54	175.03	1.11	-49.1	-61.9	3.5	1.52e+00	0	39	104	2542796800	60	43817
2026-01-01 13:51:56.57	175.18	0.87	-49.1	-61.9	3.5	1.52e+00	0	39	104	2542796800	60	43598
2026-01-01 13:52:00.61	175.33	0.63	-49.1	-61.9	3.5	1.52e+00	0	39	104	2542796800	60	43761
2026-01-01 13:52:04.65	175.48	0.40	-49.1	-61.9	3.5	1.52e+00	0	39	104	2542796800	60	43516
2026-01-01 13:52:08.69	175.63	0.16	-49.1	-61.9	3.5	1.51e+00	0	39	104	2542796800	60	43851
2026-01-01 13:52:12.73	175.78	-0.07	-49.1	-61.9	3.5	1.52e+00	0	39	104	2542796800	60	43893

#Closed at: 2026-01-01 13:52:13
#Recorded file [2542 MB]: D:/lorett/data/35029_260102_013659.dat