passes_logs/2026/01/01/R4.6S_Anadyr/R4.6S_Anadyr__20260101_012210_AQUA_rec.log

#Pass ID: 20260101_012210_AQUA
#Satellite: AQUA
#Configuration: AQUA
#almurnet v.1.7.20251203
#Start time: 2026-01-01 01:22:14

#Version: 2.2.20231116
#Station: R4.6S_Anadyr
#Location: 177.4865 lon 64.73178 lat
#TLE: 1 27424U 02022A   25364.96158944  .00001951  00000+0  40088-3 0  9999
#TLE: 2 27424  98.4061 326.1390 0001916  95.3188 305.7939 14.61780362258698

#Time	Az	El	Level	Level2	SNR	BER	BlckErr	Temp	State	Recorded	gain1	gain2
2026-01-01 01:22:14.01	142.10	0.22	-49.7	-66.1	3.3	3.02e+01	0	36	0	0	60	77805
2026-01-01 01:22:18.04	142.03	0.47	-49.7	-67.7	3.5	3.02e+01	0	36	104	0	60	93489
2026-01-01 01:22:22.08	141.96	0.72	-49.4	-67.3	3.5	3.02e+01	0	37	104	0	60	89013
2026-01-01 01:22:26.12	141.89	0.98	-46.9	-64.9	3.5	3.02e+01	0	37	104	0	60	67943
2026-01-01 01:22:30.15	141.82	1.23	-46.0	-64.5	3.5	3.02e+01	0	37	104	0	60	64450
2026-01-01 01:22:34.19	141.75	1.49	-46.4	-64.5	3.5	3.02e+01	0	37	104	0	60	64907
2026-01-01 01:22:38.23	141.67	1.76	-46.4	-64.3	3.5	3.02e+01	0	37	104	0	60	63332
2026-01-01 01:22:42.27	141.60	2.02	-46.4	-64.5	3.5	3.02e+01	0	37	104	0	60	64440
2026-01-01 01:22:46.30	141.52	2.29	-46.4	-64.2	3.5	3.02e+01	0	37	104	0	60	62590
2026-01-01 01:22:50.34	141.44	2.56	-46.4	-64.1	3.5	3.02e+01	0	37	104	0	60	61415
2026-01-01 01:22:54.38	141.35	2.84	-46.4	-64.4	3.5	3.02e+01	0	37	104	0	60	64150
2026-01-01 01:22:58.42	141.27	3.11	-46.4	-62.6	3.6	3.02e+01	0	37	104	0	60	52168
2026-01-01 01:23:02.46	141.18	3.39	-46.4	-61.9	3.8	3.02e+01	0	37	104	0	60	48112
2026-01-01 01:23:06.50	141.09	3.68	-46.4	-61.9	4.0	3.02e+01	0	37	104	0	60	47645
2026-01-01 01:23:10.54	141.00	3.96	-46.1	-62.5	3.5	3.02e+01	0	37	104	0	60	51132
2026-01-01 01:23:14.58	140.91	4.25	-46.0	-60.2	5.2	3.02e+01	0	37	104	1048576	60	39239
2026-01-01 01:23:18.61	140.82	4.55	-44.5	-50.7	13.0	3.02e+01	92	37	0	8388608	60	13234
2026-01-01 01:23:22.65	140.72	4.84	-44.7	-49.8	14.1	3.02e+01	92	37	0	15728640	60	11953
2026-01-01 01:23:26.69	140.62	5.14	-44.5	-49.5	14.4	3.02e+01	92	37	0	23592960	60	11433
2026-01-01 01:23:30.72	140.52	5.45	-44.0	-48.4	15.5	3.02e+01	92	37	0	30932992	60	10087
2026-01-01 01:23:34.76	140.41	5.76	-43.6	-47.4	16.3	3.02e+01	92	37	0	38273024	60	9025
2026-01-01 01:23:38.80	140.30	6.07	-42.9	-45.9	18.1	3.02e+01	90	37	0	46137344	60	7616
2026-01-01 01:23:42.84	140.19	6.38	-42.4	-45.0	19.9	3.02e+01	92	37	0	53477376	60	6850
2026-01-01 01:23:46.87	140.08	6.70	-41.4	-43.6	21.3	3.02e+01	92	37	0	61341696	58	6534
2026-01-01 01:23:50.91	139.96	7.03	-40.7	-42.6	22.6	3.02e+01	91	37	0	68681728	56	6546
2026-01-01 01:23:54.95	139.84	7.36	-40.2	-41.9	23.6	3.02e+01	92	37	0	76546048	56	6054
2026-01-01 01:23:58.99	139.72	7.69	-39.1	-40.7	24.9	3.02e+01	91	37	0	83886080	54	5862
2026-01-01 01:24:03.02	139.59	8.03	-38.5	-40.0	25.8	3.02e+01	92	38	0	91750400	52	6092
2026-01-01 01:24:07.06	139.46	8.38	-37.9	-39.3	26.6	3.02e+01	92	37	0	99090432	50	6287
2026-01-01 01:24:11.10	139.32	8.72	-37.4	-38.8	27.1	3.02e+01	92	37	0	106430464	50	5954
2026-01-01 01:24:15.14	139.19	9.08	-37.1	-38.4	27.5	3.02e+01	90	38	0	114294784	50	5694
2026-01-01 01:24:19.18	139.04	9.44	-36.8	-38.1	27.8	3.02e+01	92	37	0	121634816	48	6173
2026-01-01 01:24:23.21	138.90	9.80	-36.6	-37.8	28.1	3.02e+01	92	37	0	129499136	48	5988
2026-01-01 01:24:27.24	138.75	10.17	-36.5	-37.7	28.2	3.02e+01	92	38	0	136839168	48	5920
2026-01-01 01:24:31.28	138.59	10.55	-36.2	-37.5	28.5	3.02e+01	92	37	0	144703488	48	5744
2026-01-01 01:24:35.31	138.43	10.94	-36.0	-37.2	28.6	3.02e+01	92	38	0	152043520	48	5585
2026-01-01 01:24:39.34	138.27	11.33	-35.9	-37.1	28.9	3.02e+01	92	37	0	159383552	46	6198
2026-01-01 01:24:43.39	138.10	11.72	-35.7	-36.9	29.0	3.02e+01	92	38	0	167247872	46	6025
2026-01-01 01:24:47.42	137.92	12.13	-35.6	-36.8	29.2	3.02e+01	92	38	0	174587904	46	5955
2026-01-01 01:24:51.45	137.74	12.54	-35.5	-36.7	29.3	3.02e+01	89	38	0	182452224	46	5905
2026-01-01 01:24:55.49	137.55	12.96	-35.5	-36.7	29.2	3.02e+01	91	38	0	189792256	46	5904
2026-01-01 01:24:59.53	137.36	13.39	-35.6	-36.8	29.2	3.02e+01	92	38	0	197656576	46	5956
2026-01-01 01:25:03.57	137.16	13.82	-35.6	-36.8	29.2	3.02e+01	92	38	0	204996608	46	5973
2026-01-01 01:25:07.61	136.95	14.26	-35.7	-36.9	29.1	3.02e+01	91	38	0	212336640	46	6020
2026-01-01 01:25:11.64	136.74	14.72	-35.6	-36.8	29.2	3.02e+01	92	38	0	220200960	46	5993
2026-01-01 01:25:15.68	136.52	15.18	-35.5	-36.8	29.2	3.02e+01	92	38	0	227540992	46	5927
2026-01-01 01:25:19.72	136.29	15.65	-35.3	-36.5	29.5	3.02e+01	92	38	0	235405312	46	5766
2026-01-01 01:25:23.76	136.05	16.13	-35.1	-36.3	29.7	3.02e+01	92	38	0	242745344	46	5623
2026-01-01 01:25:27.80	135.80	16.62	-35.0	-36.2	29.8	3.02e+01	91	38	0	250609664	46	5542
2026-01-01 01:25:31.83	135.55	17.12	-35.2	-36.4	29.6	3.02e+01	91	38	0	257949696	46	5703
2026-01-01 01:25:35.87	135.28	17.63	-35.4	-36.6	29.4	3.02e+01	92	38	0	265814016	46	5836
2026-01-01 01:25:39.91	135.00	18.16	-35.6	-36.8	29.3	3.02e+01	91	38	0	273154048	46	5945
2026-01-01 01:25:43.94	134.72	18.69	-35.4	-36.7	29.5	3.02e+01	92	38	0	280494080	46	5860
2026-01-01 01:25:47.98	134.42	19.24	-35.3	-36.5	29.6	3.02e+01	91	38	0	288358400	46	5777
2026-01-01 01:25:52.02	134.11	19.80	-35.3	-36.5	29.5	3.02e+01	89	38	0	295698432	46	5780
2026-01-01 01:25:56.05	133.79	20.37	-35.4	-36.6	29.6	3.02e+01	92	38	0	303562752	46	5793
2026-01-01 01:26:00.09	133.45	20.96	-35.7	-36.9	29.3	3.02e+01	92	38	0	310902784	46	6039
2026-01-01 01:26:04.13	133.10	21.56	-35.8	-37.0	29.2	3.02e+01	92	38	0	318767104	46	6093
2026-01-01 01:26:08.17	132.73	22.18	-35.6	-36.8	29.4	3.02e+01	92	38	0	326107136	46	5928
2026-01-01 01:26:12.21	132.35	22.81	-35.5	-36.7	29.5	3.02e+01	92	38	0	333447168	46	5914
2026-01-01 01:26:16.25	131.95	23.46	-35.8	-37.0	29.2	3.02e+01	92	38	0	341311488	46	6092
2026-01-01 01:26:20.29	131.53	24.12	-35.7	-36.9	29.3	3.02e+01	92	38	0	348651520	46	6047
2026-01-01 01:26:24.32	131.10	24.80	-35.7	-36.9	29.4	3.02e+01	92	38	0	356515840	46	6008
2026-01-01 01:26:28.35	130.64	25.50	-35.6	-36.8	29.5	3.02e+01	92	38	0	363855872	46	5927
2026-01-01 01:26:32.39	130.16	26.21	-35.8	-37.0	29.3	3.02e+01	92	38	0	371720192	46	6076
2026-01-01 01:26:36.43	129.65	26.95	-35.5	-36.6	29.6	3.02e+01	92	38	0	379060224	46	5855
2026-01-01 01:26:40.47	129.12	27.71	-35.3	-36.6	29.7	3.02e+01	92	38	0	386924544	46	5794
2026-01-01 01:26:44.51	128.56	28.48	-34.9	-36.1	30.1	3.02e+01	92	38	0	394264576	44	6135
2026-01-01 01:26:48.55	127.97	29.28	-35.0	-36.2	30.1	3.02e+01	92	38	0	401604608	44	6218
2026-01-01 01:26:52.59	127.35	30.09	-34.9	-36.0	30.1	3.02e+01	89	38	0	409468928	44	6118
2026-01-01 01:26:56.62	126.70	30.93	-34.8	-36.0	30.2	3.02e+01	90	38	0	416808960	44	6081
2026-01-01 01:27:00.66	126.01	31.79	-35.1	-36.3	30.0	3.02e+01	91	38	0	424673280	44	6291
2026-01-01 01:27:04.70	125.28	32.67	-35.2	-36.3	29.9	3.02e+01	90	38	0	432013312	44	6330
2026-01-01 01:27:08.74	124.50	33.58	-35.4	-36.6	29.8	3.02e+01	92	38	0	439877632	44	6502
2026-01-01 01:27:12.77	123.68	34.51	-35.9	-37.1	29.3	3.02e+01	92	38	0	447217664	44	6941
2026-01-01 01:27:16.81	122.81	35.46	-36.6	-37.8	28.7	3.02e+01	92	38	0	454557696	46	6680
2026-01-01 01:27:20.85	121.88	36.43	-37.0	-38.3	28.3	3.02e+01	92	38	0	462422016	48	6299
2026-01-01 01:27:24.88	120.90	37.43	-37.2	-38.5	28.1	3.02e+01	92	38	0	469762048	48	6431
2026-01-01 01:27:28.92	119.85	38.45	-37.8	-39.1	27.5	3.02e+01	92	38	0	477626368	48	6952
2026-01-01 01:27:32.96	118.73	39.49	-37.4	-38.7	28.0	3.02e+01	90	38	0	484966400	48	6620
2026-01-01 01:27:37.00	117.53	40.55	-37.5	-38.8	27.9	3.02e+01	91	38	0	492830720	48	6657
2026-01-01 01:27:41.04	116.24	41.63	-37.2	-38.4	28.2	3.02e+01	91	37	0	500170752	48	6416
2026-01-01 01:27:45.07	114.87	42.72	-36.9	-38.2	28.4	3.02e+01	91	38	0	508035072	48	6221
2026-01-01 01:27:49.11	113.39	43.83	-36.6	-37.8	28.7	3.02e+01	91	38	0	515375104	48	5991
2026-01-01 01:27:53.14	111.81	44.95	-36.5	-37.8	28.7	3.02e+01	86	37	0	522715136	48	5949
2026-01-01 01:27:57.18	110.11	46.08	-36.5	-37.8	28.7	3.02e+01	92	37	0	530579456	48	5944
2026-01-01 01:28:01.22	108.28	47.21	-36.5	-37.7	28.8	3.02e+01	90	37	0	537919488	48	5904
2026-01-01 01:28:05.26	106.31	48.34	-36.8	-38.0	28.6	3.02e+01	90	37	0	545783808	48	6098
2026-01-01 01:28:09.29	104.19	49.45	-36.4	-37.6	28.9	3.02e+01	92	37	0	553123840	48	5820
2026-01-01 01:28:13.33	101.90	50.56	-36.1	-37.3	29.2	3.02e+01	92	37	0	560988160	48	5625
2026-01-01 01:28:17.36	99.45	51.63	-36.0	-37.2	29.2	3.02e+01	92	37	0	568328192	46	6275
2026-01-01 01:28:21.40	96.80	52.68	-35.7	-36.9	29.5	3.02e+01	92	37	0	575668224	46	6046
2026-01-01 01:28:25.44	93.97	53.68	-35.5	-36.7	29.6	3.02e+01	92	37	0	583532544	46	5887
2026-01-01 01:28:29.48	90.93	54.62	-35.9	-37.2	29.3	3.02e+01	91	37	0	590872576	46	6213
2026-01-01 01:28:33.51	87.71	55.49	-36.0	-37.2	29.2	3.02e+01	92	37	0	598736896	46	6271
2026-01-01 01:28:37.55	84.27	56.28	-36.2	-37.4	29.0	3.02e+01	59	37	0	606076928	46	6394
2026-01-01 01:28:41.59	80.65	56.98	-36.6	-37.9	28.7	3.02e+01	59	37	0	613941248	46	6752
2026-01-01 01:28:45.62	76.85	57.56	-37.3	-38.5	28.1	3.02e+01	57	37	0	621281280	48	6497
2026-01-01 01:28:49.66	72.90	58.03	-37.1	-38.3	28.3	3.02e+01	59	37	0	628621312	48	6323
2026-01-01 01:28:53.69	68.84	58.37	-37.2	-38.5	28.2	3.02e+01	54	37	0	636485632	48	6455
2026-01-01 01:28:57.73	64.68	58.58	-37.5	-38.8	28.0	3.02e+01	60	37	0	643825664	48	6661
2026-01-01 01:29:01.77	60.47	58.64	-37.4	-38.7	27.9	3.02e+01	58	37	0	651689984	48	6589
2026-01-01 01:29:05.81	56.28	58.57	-37.4	-38.7	27.9	3.02e+01	64	37	0	659030016	50	5896
2026-01-01 01:29:09.84	52.13	58.35	-37.6	-38.9	27.8	3.02e+01	60	37	0	666894336	50	6019
2026-01-01 01:29:13.88	48.07	57.99	-37.2	-38.4	28.2	3.02e+01	61	37	0	674234368	50	5698
2026-01-01 01:29:17.92	44.14	57.51	-37.4	-38.7	28.1	3.02e+01	63	37	0	682098688	50	5889
2026-01-01 01:29:21.96	40.36	56.91	-36.8	-38.0	28.6	3.02e+01	58	37	0	689438720	48	6118
2026-01-01 01:29:26.00	36.75	56.20	-36.4	-37.6	29.1	3.02e+01	59	37	0	696778752	48	5826
2026-01-01 01:29:30.03	33.35	55.41	-36.1	-37.3	29.2	3.02e+01	61	37	0	704643072	48	5602
2026-01-01 01:29:34.06	30.15	54.53	-35.6	-36.8	29.6	3.02e+01	58	37	0	711983104	46	5992
2026-01-01 01:29:38.10	27.14	53.58	-35.3	-36.5	29.9	3.02e+01	63	37	0	719847424	46	5736
2026-01-01 01:29:42.14	24.33	52.58	-35.3	-36.4	29.8	3.02e+01	60	37	0	727187456	46	5725
2026-01-01 01:29:46.18	21.71	51.54	-35.7	-36.9	29.5	3.02e+01	59	37	0	735051776	46	6005
2026-01-01 01:29:50.22	19.27	50.46	-35.3	-36.5	29.9	3.02e+01	47	37	0	742391808	44	6464
2026-01-01 01:29:54.25	17.01	49.36	-35.1	-36.2	30.1	3.02e+01	51	37	0	750256128	44	6259
2026-01-01 01:29:58.29	14.91	48.24	-35.5	-36.7	29.8	3.02e+01	44	37	0	757596160	44	6581
2026-01-01 01:30:02.32	12.96	47.12	-35.7	-36.9	29.5	3.02e+01	62	37	0	764936192	46	6048
2026-01-01 01:30:06.36	11.14	45.99	-35.5	-36.6	29.8	3.02e+01	65	37	0	772800512	46	5843
2026-01-01 01:30:10.40	9.45	44.87	-35.8	-36.9	29.5	3.02e+01	58	37	0	780140544	46	6063
2026-01-01 01:30:14.43	7.89	43.75	-36.1	-37.3	29.1	3.02e+01	53	37	0	788004864	46	6296
2026-01-01 01:30:18.47	6.43	42.65	-36.1	-37.3	29.2	3.02e+01	62	37	0	795344896	46	6282
2026-01-01 01:30:22.51	5.06	41.56	-36.6	-37.8	28.8	3.02e+01	51	37	0	803209216	46	6699
2026-01-01 01:30:26.55	3.79	40.48	-37.0	-38.3	28.3	3.02e+01	57	37	0	810549248	48	6304
2026-01-01 01:30:30.58	2.60	39.43	-37.0	-38.3	28.3	3.02e+01	47	37	0	818413568	48	6284
2026-01-01 01:30:34.61	1.49	38.40	-37.9	-39.2	27.5	3.02e+01	56	37	0	825753600	48	7029
2026-01-01 01:30:38.64	0.45	37.39	-37.2	-38.5	28.1	3.02e+01	46	37	0	833093632	50	5740
2026-01-01 01:30:42.68	359.47	36.40	-37.1	-38.4	28.2	3.02e+01	57	37	0	840957952	50	5687
2026-01-01 01:30:46.71	358.56	35.43	-37.1	-38.3	28.2	3.02e+01	44	37	0	848297984	50	5640
2026-01-01 01:30:50.75	357.69	34.48	-36.3	-37.5	28.9	3.02e+01	58	37	0	856162304	48	5753
2026-01-01 01:30:54.79	356.88	33.56	-36.0	-37.3	29.2	3.02e+01	44	37	0	863502336	48	5598
2026-01-01 01:30:58.83	356.11	32.66	-35.7	-36.9	29.5	3.02e+01	60	37	0	871366656	46	6021
2026-01-01 01:31:02.87	355.38	31.78	-35.5	-36.7	29.6	3.02e+01	46	37	0	878706688	46	5912
2026-01-01 01:31:06.91	354.70	30.93	-35.4	-36.5	29.8	3.02e+01	63	37	0	886046720	46	5781
2026-01-01 01:31:10.94	354.05	30.09	-35.3	-36.5	29.8	3.02e+01	59	37	0	893911040	46	5752
2026-01-01 01:31:14.98	353.44	29.28	-35.3	-36.5	29.8	3.02e+01	56	37	0	901251072	46	5760
2026-01-01 01:31:19.02	352.85	28.49	-35.5	-36.7	29.6	3.02e+01	59	37	0	909115392	46	5889
2026-01-01 01:31:23.05	352.30	27.72	-35.7	-37.0	29.4	3.02e+01	61	37	0	916455424	46	6065
2026-01-01 01:31:27.09	351.77	26.97	-35.8	-37.0	29.3	3.02e+01	58	37	0	924319744	46	6080
2026-01-01 01:31:31.13	351.27	26.24	-35.9	-37.1	29.3	3.02e+01	60	37	0	931659776	46	6144
2026-01-01 01:31:35.17	350.79	25.53	-35.9	-37.1	29.2	3.02e+01	59	37	0	939524096	46	6205
2026-01-01 01:31:39.21	350.34	24.83	-36.4	-37.6	28.8	3.02e+01	61	37	0	946864128	46	6547
2026-01-01 01:31:43.24	349.91	24.15	-36.3	-37.5	28.8	3.02e+01	60	37	0	954204160	46	6463
2026-01-01 01:31:47.28	349.49	23.49	-36.1	-37.3	29.1	3.02e+01	60	37	0	962068480	46	6346
2026-01-01 01:31:51.32	349.10	22.85	-36.3	-37.5	28.9	3.02e+01	60	37	0	969408512	46	6475
2026-01-01 01:31:55.36	348.72	22.22	-36.3	-37.5	28.8	3.02e+01	56	37	0	977272832	46	6490
2026-01-01 01:31:59.39	348.35	21.61	-36.2	-37.4	28.9	3.02e+01	60	37	0	984612864	46	6404
2026-01-01 01:32:03.43	348.01	21.01	-36.4	-37.6	28.8	3.02e+01	58	37	0	992477184	46	6533
2026-01-01 01:32:07.47	347.67	20.43	-36.2	-37.4	28.9	3.02e+01	60	37	0	999817216	46	6366
2026-01-01 01:32:11.50	347.35	19.86	-36.1	-37.3	28.9	3.02e+01	59	37	0	1007157248	46	6312
2026-01-01 01:32:15.54	347.05	19.30	-36.2	-37.4	28.9	3.02e+01	58	37	0	1015021568	46	6387
2026-01-01 01:32:19.57	346.75	18.75	-36.1	-37.3	28.9	3.02e+01	44	37	0	1022361600	46	6304
2026-01-01 01:32:23.61	346.47	18.22	-36.2	-37.5	28.8	3.02e+01	59	37	0	1030225920	46	6437
2026-01-01 01:32:27.65	346.20	17.70	-35.8	-37.0	29.3	3.02e+01	46	37	0	1037565952	46	6069
2026-01-01 01:32:31.69	345.93	17.19	-35.8	-37.0	29.2	3.02e+01	59	37	0	1045430272	46	6120
2026-01-01 01:32:35.72	345.68	16.69	-36.1	-37.3	29.0	3.02e+01	59	37	0	1052770304	46	6308
2026-01-01 01:32:39.76	345.44	16.20	-36.2	-37.4	28.9	3.02e+01	52	37	0	1060110336	46	6421
2026-01-01 01:32:43.80	345.20	15.72	-36.1	-37.4	28.8	3.02e+01	56	37	0	1067974656	46	6351
2026-01-01 01:32:47.83	344.98	15.26	-36.2	-37.4	28.7	3.02e+01	59	37	0	1075314688	46	6402
2026-01-01 01:32:51.87	344.76	14.80	-36.2	-37.4	28.7	3.02e+01	55	37	0	1083179008	46	6390
2026-01-01 01:32:55.90	344.55	14.35	-36.1	-37.3	28.8	3.02e+01	60	37	0	1090519040	46	6329
2026-01-01 01:32:59.94	344.34	13.90	-36.1	-37.4	28.7	3.02e+01	44	37	0	1098383360	46	6367
2026-01-01 01:33:03.98	344.14	13.47	-36.1	-37.4	28.8	3.02e+01	58	37	0	1105723392	46	6358
2026-01-01 01:33:08.01	343.95	13.05	-36.3	-37.5	28.6	3.02e+01	45	37	0	1113063424	46	6461
2026-01-01 01:33:12.05	343.77	12.63	-36.8	-46.9	3.6	3.02e+01	0	38	104	1119354880	48	17012
2026-01-01 01:33:16.09	343.59	12.22	-39.2	-49.3	3.6	3.02e+01	0	37	104	1119354880	50	19883
2026-01-01 01:33:20.13	343.42	11.82	-39.9	-50.2	3.6	3.02e+01	0	37	104	1119354880	56	15588
2026-01-01 01:33:24.16	343.25	11.42	-43.4	-54.1	3.6	3.02e+01	0	37	104	1119354880	60	19605
2026-01-01 01:33:28.20	343.09	11.03	-39.6	-49.9	4.1	3.02e+01	0	38	104	1119354880	54	17023
2026-01-01 01:33:32.23	342.93	10.65	-37.3	-47.4	4.1	3.02e+01	0	38	104	1119354880	50	16113
2026-01-01 01:33:36.27	342.78	10.27	-39.2	-49.6	3.5	3.02e+01	0	37	104	1119354880	54	16460
2026-01-01 01:33:40.31	342.63	9.90	-37.5	-47.6	3.5	3.02e+01	0	38	104	1119354880	50	16406
2026-01-01 01:33:44.34	342.49	9.54	-48.3	-63.5	3.6	3.02e+01	0	37	104	1119354880	60	57304
2026-01-01 01:33:48.38	342.35	9.18	-38.9	-49.2	3.5	3.02e+01	0	38	104	1119354880	52	17595
2026-01-01 01:33:52.42	342.21	8.83	-38.6	-48.9	3.5	3.02e+01	0	37	104	1119354880	54	15102
2026-01-01 01:33:56.45	342.08	8.48	-38.8	-49.1	3.5	3.02e+01	0	38	104	1119354880	52	17440
2026-01-01 01:34:00.49	341.96	8.14	-40.3	-50.8	3.5	3.02e+01	0	37	104	1119354880	58	15044
2026-01-01 01:34:04.52	341.83	7.80	-39.8	-50.3	3.5	3.02e+01	0	37	104	1119354880	56	15818
2026-01-01 01:34:08.56	341.71	7.47	-37.9	-48.2	3.5	3.02e+01	0	38	104	1119354880	50	17648
2026-01-01 01:34:12.60	341.59	7.14	-40.0	-50.4	3.5	3.02e+01	0	38	104	1119354880	54	17912
2026-01-01 01:34:16.64	341.48	6.81	-40.9	-51.4	3.5	3.02e+01	0	38	104	1119354880	56	18098
2026-01-01 01:34:20.67	341.37	6.49	-42.4	-53.3	3.5	3.02e+01	0	37	104	1119354880	60	17840
2026-01-01 01:34:24.71	341.26	6.18	-39.7	-50.2	3.5	3.02e+01	0	38	104	1119354880	54	17596
2026-01-01 01:34:28.75	341.16	5.87	-42.8	-54.1	3.5	3.02e+01	0	38	104	1119354880	54	27546
2026-01-01 01:34:32.79	341.06	5.56	-41.1	-51.9	3.5	3.02e+01	0	38	104	1119354880	56	18958
2026-01-01 01:34:36.83	340.96	5.26	-43.8	-55.6	3.5	3.02e+01	0	38	104	1119354880	60	23103
2026-01-01 01:34:40.87	340.86	4.96	-44.4	-58.1	3.5	3.02e+01	0	38	104	1119354880	60	30983
2026-01-01 01:34:44.91	340.77	4.66	-45.4	-62.2	3.5	3.02e+01	0	38	104	1119354880	60	49733
2026-01-01 01:34:48.94	340.67	4.37	-45.7	-63.4	3.5	3.02e+01	0	38	104	1119354880	60	56673
2026-01-01 01:34:52.98	340.58	4.08	-45.5	-62.0	3.5	3.02e+01	0	38	104	1119354880	60	48670
2026-01-01 01:34:57.02	340.50	3.79	-45.5	-63.2	3.5	3.02e+01	0	38	104	1119354880	60	55697
2026-01-01 01:35:01.06	340.41	3.51	-45.5	-63.3	3.5	3.02e+01	0	38	104	1119354880	60	56227
2026-01-01 01:35:05.06	340.33	3.24	-45.4	-63.3	3.5	3.02e+01	0	38	104	1119354880	60	56410
2026-01-01 01:35:09.10	340.25	2.96	-47.4	-65.3	3.5	3.02e+01	0	38	104	1119354880	60	71048
2026-01-01 01:35:13.14	340.17	2.68	-49.7	-67.5	3.5	3.02e+01	0	38	104	1119354880	60	91780
2026-01-01 01:35:17.18	340.09	2.41	-49.6	-67.7	3.5	3.02e+01	0	38	104	1119354880	60	93586
2026-01-01 01:35:21.22	340.02	2.15	-49.7	-67.6	3.5	3.02e+01	0	38	104	1119354880	60	91959
2026-01-01 01:35:25.26	339.94	1.88	-49.7	-67.6	3.5	3.02e+01	0	38	104	1119354880	60	92085
2026-01-01 01:35:29.30	339.87	1.62	-49.7	-67.5	3.5	3.02e+01	0	38	104	1119354880	60	91405
2026-01-01 01:35:33.34	339.80	1.36	-49.7	-67.5	3.5	3.02e+01	0	38	104	1119354880	60	91484
2026-01-01 01:35:37.38	339.73	1.10	-49.7	-67.5	3.5	3.02e+01	0	38	104	1119354880	60	91570
2026-01-01 01:35:41.42	339.67	0.85	-49.7	-67.5	3.5	3.02e+01	0	38	104	1119354880	60	90922
2026-01-01 01:35:45.46	339.60	0.59	-49.7	-67.5	3.5	3.02e+01	0	38	104	1119354880	60	90928
2026-01-01 01:35:49.50	339.54	0.34	-49.6	-67.5	3.5	3.02e+01	0	38	104	1119354880	60	90905
2026-01-01 01:35:53.53	339.48	0.10	-49.7	-67.4	3.5	3.02e+01	0	38	104	1119354880	60	90532

#Closed at: 2026-01-01 01:35:57
#Recorded file [1119 MB]: D:/lorett/data/35029_260101_132213.dat