passes_logs/2026/01/01/R4.6S_Anadyr/R4.6S_Anadyr__20260101_164820_FENGYUN_3D_rec.log

#Pass ID: 20260101_164820_FENGYUN 3D
#Satellite: FENGYUN 3D
#Configuration: FENGYUN 3D
#almurnet v.1.7.20251203
#Start time: 2026-01-01 16:48:21

#Version: 2.2.20231116
#Station: R4.6S_Anadyr
#Location: 177.4865 lon 64.73178 lat
#TLE: 1 43010U 17072A   25364.99193771  .00000012  00000+0  27255-4 0  9998
#TLE: 2 43010  98.9913 331.5779 0001825 135.6238 224.5084 14.19689358421127

#Time	Az	El	Level	Level2	SNR	BER	BlckErr	Temp	State	Recorded	gain1	gain2
2026-01-01 16:48:21.69	21.10	0.09	-49.0	-63.9	3.5	1.51e+00	0	37	0	0	60	56830
2026-01-01 16:48:25.73	21.12	0.33	-49.1	-61.2	3.6	8.45e-01	0	38	104	0	60	41592
2026-01-01 16:48:29.76	21.14	0.57	-49.0	-61.2	3.6	8.46e-01	0	38	104	0	60	41345
2026-01-01 16:48:33.80	21.15	0.82	-48.6	-60.7	3.6	8.46e-01	0	38	104	0	60	39014
2026-01-01 16:48:37.84	21.17	1.07	-47.7	-59.7	3.6	8.45e-01	0	38	104	0	60	34984
2026-01-01 16:48:41.88	21.19	1.32	-47.6	-59.4	3.6	8.46e-01	0	38	104	0	60	33862
2026-01-01 16:48:45.91	21.20	1.57	-47.6	-59.2	3.6	8.45e-01	0	38	104	0	60	33109
2026-01-01 16:48:49.95	21.22	1.82	-47.6	-59.7	3.6	8.46e-01	0	38	104	0	60	35000
2026-01-01 16:48:53.99	21.24	2.08	-47.6	-59.7	3.6	8.45e-01	0	39	104	0	60	35025
2026-01-01 16:48:58.03	21.25	2.34	-47.5	-58.5	3.6	8.45e-01	0	39	104	0	60	30255
2026-01-01 16:49:02.07	21.27	2.60	-47.2	-54.2	4.0	8.20e-01	0	39	0	0	60	18640
2026-01-01 16:49:06.10	21.28	2.87	-46.7	-52.0	5.6	7.23e-01	0	39	0	0	60	14419
2026-01-01 16:49:10.14	21.30	3.13	-42.9	-44.9	13.9	4.69e-05	0	39	0	23068672	60	6384
2026-01-01 16:49:14.18	21.32	3.40	-40.6	-42.0	16.6	0.00e+00	0	39	0	46137344	54	6440
2026-01-01 16:49:18.22	21.33	3.67	-42.8	-44.7	13.9	1.10e-06	0	39	0	69206016	56	7862
2026-01-01 16:49:22.26	21.35	3.95	-47.5	-57.6	4.2	8.43e-01	0	39	104	88080384	60	27531
2026-01-01 16:49:26.30	21.37	4.23	-39.2	-40.3	18.7	0.00e+00	0	39	0	95420416	52	5956
2026-01-01 16:49:30.34	21.38	4.51	-36.7	-37.5	21.3	0.00e+00	0	39	0	118489088	46	6098
2026-01-01 16:49:34.38	21.40	4.79	-36.1	-36.9	22.0	0.00e+00	0	39	0	140509184	46	5653
2026-01-01 16:49:38.42	21.42	5.08	-36.3	-37.1	21.8	0.00e+00	0	39	0	163577856	46	5769
2026-01-01 16:49:42.46	21.43	5.37	-36.1	-36.9	22.1	0.00e+00	0	39	0	186646528	46	5637
2026-01-01 16:49:46.50	21.45	5.66	-35.9	-36.8	22.3	0.00e+00	0	39	0	208666624	46	5577
2026-01-01 16:49:50.54	21.46	5.96	-35.7	-36.5	22.5	0.00e+00	0	39	0	231735296	44	6057
2026-01-01 16:49:54.59	21.48	6.26	-35.7	-36.5	22.5	0.00e+00	0	39	0	254803968	44	6077
2026-01-01 16:49:58.63	21.50	6.56	-35.4	-36.1	22.9	0.00e+00	0	39	0	276824064	44	5820
2026-01-01 16:50:02.67	21.51	6.87	-35.3	-36.0	23.1	0.00e+00	0	39	0	299892736	44	5746
2026-01-01 16:50:06.71	21.53	7.18	-34.9	-35.6	23.5	0.00e+00	0	39	0	322961408	44	5475
2026-01-01 16:50:10.74	21.54	7.49	-35.4	-36.1	23.1	0.00e+00	0	39	0	344981504	44	5790
2026-01-01 16:50:14.78	21.56	7.81	-35.0	-35.7	23.4	0.00e+00	0	39	0	368050176	44	5556
2026-01-01 16:50:18.81	21.58	8.13	-34.8	-35.6	23.6	0.00e+00	0	39	0	391118848	42	6125
2026-01-01 16:50:22.86	21.59	8.46	-34.8	-35.5	23.7	0.00e+00	0	39	0	414187520	42	6084
2026-01-01 16:50:26.90	21.61	8.79	-34.5	-35.2	24.0	0.00e+00	0	39	0	436207616	42	5863
2026-01-01 16:50:30.94	21.62	9.12	-34.5	-35.2	24.0	0.00e+00	0	39	0	459276288	42	5863
2026-01-01 16:50:34.98	21.64	9.46	-34.5	-35.2	24.1	0.00e+00	0	39	0	481296384	42	5835
2026-01-01 16:50:39.01	21.65	9.81	-34.2	-35.0	24.2	0.00e+00	0	39	0	504365056	42	5705
2026-01-01 16:50:43.05	21.67	10.16	-34.2	-34.9	24.4	0.00e+00	0	39	0	527433728	42	5666
2026-01-01 16:50:47.09	21.69	10.51	-34.2	-34.9	24.3	0.00e+00	0	39	0	549453824	42	5655
2026-01-01 16:50:51.14	21.70	10.87	-34.3	-35.0	24.2	0.00e+00	0	39	0	572522496	42	5723
2026-01-01 16:50:55.18	21.72	11.24	-34.2	-34.9	24.3	0.00e+00	0	39	0	595591168	42	5648
2026-01-01 16:50:59.21	21.73	11.61	-34.0	-34.7	24.6	0.00e+00	0	39	0	618659840	42	5549
2026-01-01 16:51:03.25	21.75	11.98	-33.7	-34.4	24.9	0.00e+00	0	39	0	640679936	42	5345
2026-01-01 16:51:07.29	21.76	12.36	-33.8	-34.5	24.8	0.00e+00	0	39	0	663748608	40	6038
2026-01-01 16:51:11.33	21.78	12.75	-33.5	-34.1	25.0	0.00e+00	0	39	0	685768704	40	5817
2026-01-01 16:51:15.37	21.79	13.15	-33.4	-34.0	25.2	0.00e+00	0	39	0	708837376	40	5759
2026-01-01 16:51:19.41	21.81	13.55	-33.2	-33.9	25.3	0.00e+00	0	39	0	731906048	40	5674
2026-01-01 16:51:23.45	21.82	13.96	-33.0	-33.7	25.6	0.00e+00	0	39	0	753926144	40	5539
2026-01-01 16:51:27.49	21.84	14.37	-33.0	-33.6	25.6	0.00e+00	0	39	0	776994816	40	5496
2026-01-01 16:51:31.53	21.85	14.79	-33.0	-33.6	25.6	0.00e+00	0	39	0	800063488	40	5480
2026-01-01 16:51:35.57	21.87	15.22	-32.8	-33.5	25.8	0.00e+00	0	39	0	823132160	38	6049
2026-01-01 16:51:39.61	21.88	15.66	-32.7	-33.4	25.8	0.00e+00	0	39	0	845152256	38	5974
2026-01-01 16:51:43.65	21.90	16.10	-32.5	-33.1	26.0	0.00e+00	0	39	0	868220928	38	5819
2026-01-01 16:51:47.69	21.91	16.56	-32.4	-33.0	26.2	0.00e+00	0	39	0	890241024	38	5732
2026-01-01 16:51:51.73	21.93	17.02	-32.3	-32.9	26.3	0.00e+00	0	39	0	913309696	38	5650
2026-01-01 16:51:55.76	21.94	17.49	-32.3	-33.0	26.3	0.00e+00	0	39	0	936378368	38	5731
2026-01-01 16:51:59.80	21.95	17.97	-32.1	-32.7	26.5	0.00e+00	0	39	0	958398464	38	5556
2026-01-01 16:52:03.84	21.97	18.46	-31.9	-32.6	26.6	0.00e+00	0	39	0	981467136	38	5448
2026-01-01 16:52:07.89	21.98	18.96	-31.9	-32.6	26.7	0.00e+00	0	39	0	1004535808	38	5443
2026-01-01 16:52:11.93	22.00	19.47	-31.6	-32.2	27.1	0.00e+00	0	39	0	1027604480	36	5843
2026-01-01 16:52:15.97	22.01	19.99	-31.4	-32.0	27.1	0.00e+00	0	39	0	1049624576	36	5758
2026-01-01 16:52:20.01	22.02	20.52	-31.3	-32.0	27.1	0.00e+00	0	39	0	1072693248	36	5707
2026-01-01 16:52:24.05	22.04	21.07	-31.5	-32.1	27.1	0.00e+00	0	39	0	1094713344	36	5792
2026-01-01 16:52:28.10	22.05	21.63	-31.4	-32.0	27.1	0.00e+00	0	39	0	1117782016	36	5752
2026-01-01 16:52:32.13	22.07	22.19	-31.3	-31.9	27.3	0.00e+00	0	39	0	1140850688	36	5669
2026-01-01 16:52:36.17	22.08	22.77	-31.1	-31.7	27.4	0.00e+00	0	39	0	1163919360	36	5559
2026-01-01 16:52:40.22	22.09	23.37	-31.0	-31.6	27.6	0.00e+00	0	39	0	1185939456	36	5502
2026-01-01 16:52:44.26	22.11	23.98	-30.7	-31.3	27.7	0.00e+00	0	39	0	1209008128	34	5917
2026-01-01 16:52:48.30	22.12	24.60	-30.7	-31.4	27.7	0.00e+00	0	39	0	1232076800	34	5979
2026-01-01 16:52:52.34	22.13	25.24	-30.9	-31.5	27.6	0.00e+00	0	39	0	1254096896	34	6079
2026-01-01 16:52:56.38	22.14	25.89	-31.0	-31.6	27.5	0.00e+00	0	39	0	1277165568	34	6149
2026-01-01 16:53:00.42	22.16	26.57	-30.9	-31.6	27.6	0.00e+00	0	39	0	1300234240	34	6126
2026-01-01 16:53:04.46	22.17	27.25	-30.9	-31.5	27.6	0.00e+00	0	39	0	1322254336	34	6049
2026-01-01 16:53:08.50	22.18	27.96	-30.6	-31.2	27.8	0.00e+00	0	39	0	1345323008	34	5875
2026-01-01 16:53:12.54	22.19	28.68	-30.4	-31.0	28.1	0.00e+00	0	39	0	1368391680	34	5724
2026-01-01 16:53:16.58	22.21	29.43	-30.5	-31.2	27.9	0.00e+00	0	39	0	1390411776	34	5835
2026-01-01 16:53:20.62	22.22	30.19	-30.5	-31.1	27.9	0.00e+00	0	39	0	1413480448	34	5801
2026-01-01 16:53:24.67	22.23	30.98	-30.6	-31.2	27.9	0.00e+00	0	39	0	1436549120	34	5865
2026-01-01 16:53:28.71	22.24	31.79	-30.6	-31.2	27.8	0.00e+00	0	39	0	1459617792	34	5890
2026-01-01 16:53:32.74	22.25	32.61	-30.4	-31.0	28.0	0.00e+00	0	39	0	1481637888	34	5737
2026-01-01 16:53:36.78	22.26	33.47	-31.2	-31.8	27.5	0.00e+00	0	39	0	1504706560	34	6276
2026-01-01 16:53:40.82	22.27	34.35	-31.2	-31.8	27.7	0.00e+00	0	39	0	1526726656	34	6279
2026-01-01 16:53:44.86	22.28	35.25	-29.9	-30.5	28.4	0.00e+00	0	40	0	1549795328	34	5421
2026-01-01 16:53:48.90	22.29	36.18	-29.8	-30.4	28.4	0.00e+00	0	39	0	1572864000	34	5340
2026-01-01 16:53:52.94	22.30	37.14	-29.6	-30.1	28.6	0.00e+00	0	39	0	1594884096	32	5828
2026-01-01 16:53:56.98	22.31	38.13	-29.8	-30.3	28.6	0.00e+00	0	39	0	1617952768	32	5952
2026-01-01 16:54:01.01	22.32	39.14	-29.9	-30.5	28.5	0.00e+00	0	39	0	1641021440	32	6074
2026-01-01 16:54:05.06	22.33	40.19	-30.2	-30.8	28.2	0.00e+00	0	39	0	1663041536	32	6300
2026-01-01 16:54:09.10	22.33	41.27	-30.3	-30.8	28.2	0.00e+00	0	39	0	1686110208	32	6296
2026-01-01 16:54:13.14	22.34	42.38	-30.7	-31.2	27.9	0.00e+00	0	39	0	1709178880	32	6612
2026-01-01 16:54:17.18	22.35	43.53	-30.6	-31.2	27.9	0.00e+00	0	39	0	1731198976	34	5836
2026-01-01 16:54:21.22	22.35	44.71	-30.4	-31.0	28.1	0.00e+00	0	39	0	1754267648	34	5734
2026-01-01 16:54:25.26	22.36	45.93	-30.7	-31.3	27.8	0.00e+00	0	39	0	1777336320	34	5953
2026-01-01 16:54:29.30	22.36	47.19	-30.7	-31.3	27.9	0.00e+00	0	39	0	1799356416	34	5903
2026-01-01 16:54:33.34	22.36	48.49	-30.5	-31.1	28.0	0.00e+00	0	39	0	1822425088	34	5796
2026-01-01 16:54:37.38	22.36	49.82	-30.4	-31.0	28.1	0.00e+00	0	39	0	1845493760	34	5703
2026-01-01 16:54:41.42	22.36	51.20	-31.2	-31.8	27.4	0.00e+00	0	39	0	1868562432	34	6278
2026-01-01 16:54:45.46	22.36	52.62	-32.5	-33.1	26.6	0.00e+00	0	39	0	1890582528	36	6523
2026-01-01 16:54:49.50	22.36	54.08	-31.4	-32.0	27.2	0.00e+00	0	39	0	1913651200	36	5757
2026-01-01 16:54:53.54	22.35	55.59	-31.2	-31.8	27.5	0.00e+00	0	39	0	1935671296	36	5607
2026-01-01 16:54:57.58	22.34	57.13	-31.1	-31.7	27.5	0.00e+00	0	39	0	1958739968	36	5534
2026-01-01 16:55:01.62	22.33	58.72	-31.2	-31.8	27.5	0.00e+00	0	39	0	1981808640	36	5615
2026-01-01 16:55:05.66	22.32	60.36	-30.1	-30.7	28.3	0.00e+00	0	39	0	2004877312	34	5525
2026-01-01 16:55:09.70	22.30	62.03	-30.4	-31.0	28.0	0.00e+00	0	39	0	2026897408	34	5721
2026-01-01 16:55:13.74	22.27	63.75	-30.0	-30.6	28.2	0.00e+00	0	39	0	2049966080	34	5477
2026-01-01 16:55:17.78	22.24	65.52	-29.7	-30.3	28.6	0.00e+00	0	39	0	2073034752	34	5273
2026-01-01 16:55:21.82	22.21	67.32	-29.7	-30.3	28.6	0.00e+00	0	39	0	2095054848	32	5932
2026-01-01 16:55:25.85	22.16	69.16	-29.4	-30.0	28.8	0.00e+00	0	39	0	2118123520	32	5714
2026-01-01 16:55:29.89	22.10	71.04	-29.2	-29.8	28.9	0.00e+00	0	39	0	2140143616	32	5601
2026-01-01 16:55:33.94	22.01	72.96	-28.8	-29.4	29.2	0.00e+00	0	39	0	2163212288	30	5993
2026-01-01 16:55:37.98	21.91	74.91	-29.0	-29.6	29.0	0.00e+00	0	39	0	2186280960	30	6112
2026-01-01 16:55:42.01	21.76	76.88	-28.3	-28.9	29.5	0.00e+00	0	39	0	2209349632	30	5647
2026-01-01 16:55:46.05	21.56	78.88	-28.1	-28.7	29.6	0.00e+00	0	39	0	2231369728	30	5546
2026-01-01 16:55:50.10	21.25	80.92	-27.7	-28.3	29.9	0.00e+00	0	39	0	2254438400	28	5951
2026-01-01 16:55:54.14	20.76	82.96	-27.2	-27.7	30.1	0.00e+00	0	39	0	2277507072	28	5516
2026-01-01 16:55:58.18	19.84	85.02	-28.0	-28.6	29.6	0.00e+00	0	39	0	2299527168	28	6108
2026-01-01 16:56:02.22	17.59	87.09	-28.1	-28.7	29.6	0.00e+00	0	39	0	2322595840	28	6237
2026-01-01 16:56:06.26	4.30	89.14	-28.9	-29.5	29.1	0.00e+00	0	39	0	2345664512	30	6060
2026-01-01 16:56:10.30	215.27	88.70	-29.1	-29.7	29.3	0.00e+00	0	39	0	2367684608	30	6186
2026-01-01 16:56:14.34	207.76	86.64	-28.5	-29.1	29.0	0.00e+00	0	39	0	2390753280	30	5785
2026-01-01 16:56:18.38	205.98	84.57	-27.7	-28.2	29.8	0.00e+00	0	39	0	2413821952	28	5859
2026-01-01 16:56:22.42	205.20	82.51	-27.5	-28.2	30.0	0.00e+00	0	39	0	2435842048	28	5850
2026-01-01 16:56:26.46	204.76	80.46	-27.6	-28.2	29.7	0.00e+00	0	39	0	2458910720	28	5870
2026-01-01 16:56:30.51	204.48	78.43	-28.0	-28.6	29.6	0.00e+00	0	39	0	2481979392	28	6110
2026-01-01 16:56:34.55	204.29	76.43	-28.8	-29.4	29.2	0.00e+00	0	39	0	2503999488	28	6743
2026-01-01 16:56:38.59	204.15	74.46	-28.8	-29.4	29.3	0.00e+00	0	39	0	2527068160	30	6017
2026-01-01 16:56:42.63	204.05	72.51	-28.7	-29.2	29.2	0.00e+00	0	39	0	2550136832	30	5842
2026-01-01 16:56:46.67	203.98	70.60	-29.1	-29.7	29.0	0.00e+00	0	39	0	2572156928	30	6179
2026-01-01 16:56:50.71	203.92	68.72	-29.2	-29.7	28.9	0.00e+00	0	39	0	2595225600	30	6212
2026-01-01 16:56:54.76	203.87	66.88	-29.6	-30.2	28.5	0.00e+00	0	39	0	2618294272	30	6604
2026-01-01 16:56:58.80	203.84	65.09	-29.6	-30.3	28.5	0.00e+00	0	39	0	2640314368	30	6621
2026-01-01 16:57:02.83	203.81	63.33	-29.7	-30.3	28.5	0.00e+00	0	39	0	2663383040	32	5930
2026-01-01 16:57:06.87	203.78	61.62	-29.6	-30.2	28.5	0.00e+00	0	39	0	2686451712	32	5847
2026-01-01 16:57:10.91	203.76	59.95	-29.7	-30.4	28.5	0.00e+00	0	39	0	2708471808	32	5995
2026-01-01 16:57:14.95	203.75	58.32	-30.4	-31.0	28.1	0.00e+00	0	39	0	2731540480	32	6462
2026-01-01 16:57:18.99	203.74	56.73	-31.3	-31.9	27.2	0.00e+00	0	39	0	2754609152	34	6327
2026-01-01 16:57:23.03	203.73	55.19	-31.1	-31.7	27.1	0.00e+00	0	39	0	2776629248	34	6175
2026-01-01 16:57:27.07	203.73	53.69	-30.9	-31.5	27.7	0.00e+00	0	39	0	2799697920	34	6090
2026-01-01 16:57:31.11	203.72	52.24	-30.7	-31.4	27.8	0.00e+00	0	39	0	2822766592	34	5999
2026-01-01 16:57:35.15	203.72	50.82	-30.6	-31.3	27.8	0.00e+00	0	39	0	2844786688	34	5926
2026-01-01 16:57:39.19	203.72	49.45	-30.0	-30.5	28.2	0.00e+00	0	39	0	2867855360	34	5398
2026-01-01 16:57:43.23	203.72	48.12	-30.1	-30.6	28.2	0.00e+00	0	39	0	2890924032	34	5499
2026-01-01 16:57:47.26	203.72	46.83	-30.0	-30.7	28.2	0.00e+00	0	39	0	2912944128	34	5547
2026-01-01 16:57:51.29	203.72	45.58	-30.2	-30.7	28.1	0.00e+00	0	39	0	2936012800	34	5553
2026-01-01 16:57:55.34	203.73	44.36	-30.0	-30.7	28.2	0.00e+00	0	39	0	2959081472	34	5518
2026-01-01 16:57:59.38	203.73	43.18	-30.2	-30.9	28.1	0.00e+00	0	39	0	2981101568	34	5680
2026-01-01 16:58:03.42	203.74	42.04	-30.1	-30.6	28.2	0.00e+00	0	39	0	3004170240	34	5478
2026-01-01 16:58:07.46	203.74	40.93	-29.7	-30.2	28.6	0.00e+00	0	39	0	3027238912	32	5880
2026-01-01 16:58:11.50	203.75	39.86	-29.6	-30.3	28.7	0.00e+00	0	39	0	3049259008	32	5905
2026-01-01 16:58:15.54	203.76	38.81	-29.2	-29.7	28.9	0.00e+00	0	39	0	3072327680	32	5552
2026-01-01 16:58:19.58	203.76	37.80	-29.2	-29.7	28.9	0.00e+00	0	39	0	3095396352	32	5506
2026-01-01 16:58:23.62	203.77	36.81	-29.7	-30.2	28.5	0.00e+00	0	39	0	3117416448	32	5868
2026-01-01 16:58:27.66	203.78	35.86	-29.9	-30.4	28.3	0.00e+00	0	39	0	3140485120	32	6027
2026-01-01 16:58:31.69	203.79	34.94	-29.8	-30.3	28.5	0.00e+00	0	39	0	3163553792	32	5919
2026-01-01 16:58:35.73	203.80	34.03	-29.6	-30.1	28.5	0.00e+00	0	39	0	3185573888	32	5812
2026-01-01 16:58:39.77	203.80	33.16	-30.0	-30.7	28.2	0.00e+00	0	39	0	3208642560	32	6208
2026-01-01 16:58:43.81	203.81	32.31	-30.5	-31.1	27.9	0.00e+00	0	39	0	3231711232	32	6481
2026-01-01 16:58:47.85	203.82	31.48	-30.6	-31.2	27.8	0.00e+00	0	39	0	3253731328	32	6579
2026-01-01 16:58:51.89	203.83	30.68	-30.7	-31.3	27.7	0.00e+00	0	39	0	3276800000	34	5932
2026-01-01 16:58:55.93	203.84	29.89	-30.4	-30.9	28.0	0.00e+00	0	39	0	3299868672	34	5673
2026-01-01 16:58:59.97	203.85	29.13	-30.2	-30.7	28.1	0.00e+00	0	39	0	3321888768	34	5543
2026-01-01 16:59:04.01	203.86	28.39	-30.1	-30.6	28.2	0.00e+00	0	39	0	3344957440	34	5457
2026-01-01 16:59:08.04	203.87	27.67	-29.8	-30.4	28.4	0.00e+00	0	39	0	3368026112	32	6022
2026-01-01 16:59:12.08	203.88	26.97	-29.8	-30.5	28.4	0.00e+00	0	39	0	3390046208	32	6040
2026-01-01 16:59:16.12	203.89	26.28	-30.0	-30.7	28.3	0.00e+00	0	39	0	3413114880	32	6191
2026-01-01 16:59:20.17	203.91	25.61	-30.3	-31.0	28.0	0.00e+00	0	39	0	3436183552	32	6404
2026-01-01 16:59:24.20	203.92	24.96	-30.5	-31.2	27.8	0.00e+00	0	39	0	3458203648	32	6586
2026-01-01 16:59:28.25	203.93	24.32	-30.5	-31.2	27.9	0.00e+00	0	39	0	3481272320	32	6567
2026-01-01 16:59:32.29	203.94	23.70	-30.6	-31.1	27.9	0.00e+00	0	39	0	3504340992	34	5802
2026-01-01 16:59:36.33	203.95	23.09	-30.8	-31.4	27.6	0.00e+00	0	39	0	3526361088	34	5993
2026-01-01 16:59:40.37	203.96	22.50	-31.1	-31.6	27.5	0.00e+00	0	39	0	3549429760	34	6136
2026-01-01 16:59:44.40	203.97	21.92	-31.1	-31.7	27.4	0.00e+00	0	39	0	3572498432	34	6232
2026-01-01 16:59:48.44	203.99	21.35	-31.3	-32.0	27.2	0.00e+00	0	39	0	3594518528	34	6413
2026-01-01 16:59:52.48	204.00	20.80	-31.4	-32.2	27.1	0.00e+00	0	39	0	3617587200	34	6540
2026-01-01 16:59:56.52	204.01	20.26	-31.6	-32.1	27.0	0.00e+00	0	39	0	3640655872	36	5809
2026-01-01 17:00:00.56	204.02	19.72	-31.7	-32.3	26.9	0.00e+00	0	39	0	3663724544	36	5903
2026-01-01 17:00:04.61	204.03	19.20	-31.8	-32.4	26.8	0.00e+00	0	39	0	3685744640	36	5987
2026-01-01 17:00:08.65	204.04	18.69	-32.1	-32.7	26.6	0.00e+00	0	39	0	3708813312	36	6175
2026-01-01 17:00:12.70	204.06	18.19	-32.2	-32.7	26.5	0.00e+00	0	39	0	3730833408	36	6245
2026-01-01 17:00:16.74	204.07	17.71	-32.4	-33.1	26.3	0.00e+00	0	39	0	3753902080	36	6492
2026-01-01 17:00:20.77	204.08	17.23	-32.3	-33.1	26.3	0.00e+00	0	39	0	3776970752	36	6479
2026-01-01 17:00:24.81	204.09	16.76	-32.5	-33.3	26.2	0.00e+00	0	39	0	3800039424	36	6644
2026-01-01 17:00:28.85	204.10	16.30	-32.6	-33.2	26.1	0.00e+00	0	39	0	3822059520	38	5837
2026-01-01 17:00:32.89	204.12	15.84	-32.7	-33.3	26.0	0.00e+00	0	39	0	3845128192	38	5933
2026-01-01 17:00:36.94	204.13	15.40	-32.9	-33.5	25.9	0.00e+00	0	39	0	3868196864	38	6058
2026-01-01 17:00:40.97	204.14	14.96	-32.8	-33.6	25.8	0.00e+00	0	39	0	3890216960	38	6110
2026-01-01 17:00:45.01	204.15	14.53	-33.0	-33.6	25.7	0.00e+00	0	39	0	3913285632	38	6139
2026-01-01 17:00:49.05	204.17	14.11	-32.9	-33.5	25.8	0.00e+00	0	39	0	3935305728	38	6087
2026-01-01 17:00:53.09	204.18	13.70	-33.0	-33.8	25.6	0.00e+00	0	39	0	3958374400	38	6247
2026-01-01 17:00:57.13	204.19	13.29	-33.1	-33.6	25.6	0.00e+00	0	39	0	3981443072	38	6164
2026-01-01 17:01:01.18	204.20	12.89	-33.3	-33.9	25.4	0.00e+00	0	39	0	4004511744	38	6363
2026-01-01 17:01:05.21	204.22	12.50	-33.2	-33.8	25.4	0.00e+00	0	39	0	4026531840	38	6302
2026-01-01 17:01:09.25	204.23	12.11	-33.2	-33.8	25.4	0.00e+00	0	39	0	4049600512	38	6314
2026-01-01 17:01:13.30	204.24	11.73	-33.6	-34.2	25.2	0.00e+00	0	39	0	4072669184	38	6548
2026-01-01 17:01:17.34	204.25	11.35	-33.6	-34.2	25.1	0.00e+00	0	39	0	4094689280	38	6574
2026-01-01 17:01:21.38	204.27	10.98	-33.6	-34.3	25.1	0.00e+00	0	39	0	4117757952	38	6652
2026-01-01 17:01:25.42	204.28	10.62	-33.7	-34.4	25.0	0.00e+00	0	39	0	4140826624	40	6002
2026-01-01 17:01:29.46	204.29	10.26	-33.8	-34.4	24.9	0.00e+00	0	39	0	4162846720	40	6007
2026-01-01 17:01:33.50	204.30	9.90	-33.9	-34.5	24.7	0.00e+00	0	39	0	4185915392	40	6102
2026-01-01 17:01:37.54	204.32	9.55	-34.0	-34.7	24.7	0.00e+00	0	39	0	4208984064	40	6228
2026-01-01 17:01:41.58	204.33	9.21	-34.2	-34.8	24.4	0.00e+00	0	39	0	4231004160	40	6304
2026-01-01 17:01:45.62	204.34	8.87	-34.4	-35.0	24.2	0.00e+00	0	39	0	4254072832	40	6463
2026-01-01 17:01:49.66	204.35	8.54	-34.8	-35.5	23.8	0.00e+00	0	39	0	4277141504	42	6044
2026-01-01 17:01:53.69	204.37	8.21	-34.8	-35.6	23.9	0.00e+00	0	39	0	4299161600	42	6132
2026-01-01 17:01:57.74	204.38	7.88	-34.6	-35.3	24.0	0.00e+00	0	39	0	4322230272	42	5898
2026-01-01 17:02:01.78	204.39	7.56	-34.7	-35.4	23.9	0.00e+00	0	39	0	4345298944	42	5969
2026-01-01 17:02:05.82	204.40	7.24	-34.9	-35.5	23.7	0.00e+00	0	39	0	4367319040	42	6096
2026-01-01 17:02:09.86	204.42	6.93	-35.3	-35.9	23.3	0.00e+00	0	39	0	4390387712	42	6370
2026-01-01 17:02:13.91	204.43	6.61	-35.1	-35.9	23.4	0.00e+00	0	39	0	4413456384	42	6364
2026-01-01 17:02:17.95	204.44	6.31	-35.2	-35.8	23.3	0.00e+00	0	39	0	4435476480	42	6285
2026-01-01 17:02:21.99	204.45	6.00	-35.3	-36.0	23.1	0.00e+00	0	39	0	4458545152	42	6434
2026-01-01 17:02:26.03	204.47	5.71	-35.3	-36.0	23.1	0.00e+00	0	39	0	4481613824	42	6406
2026-01-01 17:02:30.07	204.48	5.41	-35.7	-36.4	22.7	0.00e+00	0	39	0	4504682496	42	6726
2026-01-01 17:02:34.11	204.49	5.12	-35.5	-36.3	22.8	0.00e+00	0	39	0	4526702592	44	5924
2026-01-01 17:02:38.15	204.50	4.83	-35.8	-36.6	22.5	0.00e+00	0	39	0	4549771264	44	6168
2026-01-01 17:02:42.19	204.52	4.54	-36.0	-36.8	22.2	0.00e+00	0	39	0	4571791360	44	6253
2026-01-01 17:02:46.23	204.53	4.26	-36.4	-37.3	21.8	0.00e+00	0	39	0	4594860032	44	6638
2026-01-01 17:02:50.26	204.54	3.98	-36.3	-37.1	21.7	0.00e+00	0	39	0	4617928704	44	6478
2026-01-01 17:02:54.30	204.55	3.70	-36.4	-37.2	21.6	0.00e+00	0	39	0	4639948800	44	6562
2026-01-01 17:02:58.34	204.57	3.42	-36.7	-37.6	21.2	0.00e+00	0	39	0	4663017472	46	6130
2026-01-01 17:03:02.38	204.58	3.15	-36.8	-37.6	21.1	0.00e+00	0	39	0	4686086144	46	6132
2026-01-01 17:03:06.42	204.59	2.88	-48.7	-60.8	3.6	8.45e-01	0	39	104	4697620480	60	39737
2026-01-01 17:03:10.46	204.60	2.62	-49.1	-61.2	3.6	8.45e-01	0	39	104	4697620480	60	41720
2026-01-01 17:03:14.50	204.62	2.35	-49.0	-61.2	3.6	8.47e-01	0	39	104	4697620480	60	41720
2026-01-01 17:03:18.54	204.63	2.09	-49.0	-61.2	3.6	8.45e-01	0	39	104	4697620480	60	41557
2026-01-01 17:03:22.58	204.64	1.83	-49.1	-61.2	3.6	8.46e-01	0	39	104	4697620480	60	41484
2026-01-01 17:03:26.62	204.65	1.57	-49.1	-61.1	3.6	8.46e-01	0	39	104	4697620480	60	41245
2026-01-01 17:03:30.66	204.67	1.32	-49.1	-61.2	3.6	8.45e-01	0	39	104	4697620480	60	41363
2026-01-01 17:03:34.70	204.68	1.07	-49.0	-61.2	3.6	8.45e-01	0	39	104	4697620480	60	41446
2026-01-01 17:03:38.74	204.69	0.82	-49.1	-61.2	3.6	8.44e-01	0	39	104	4697620480	60	41641
2026-01-01 17:03:42.78	204.70	0.57	-49.1	-61.2	3.6	8.46e-01	0	39	104	4697620480	60	41457
2026-01-01 17:03:46.82	204.72	0.32	-49.1	-61.2	3.6	8.46e-01	0	39	104	4697620480	60	41307
2026-01-01 17:03:50.86	204.73	0.08	-49.1	-61.2	3.6	8.46e-01	0	39	104	4697620480	60	41310

#Closed at: 2026-01-01 17:03:53
#Recorded file [4697 MB]: D:/lorett/data/35029_260102_044821.dat