passes_logs/2026/01/01/R4.6S_Anadyr/R4.6S_Anadyr__20260101_151724_NOAA_21_JPSS-2_rec.log

#Pass ID: 20260101_151724_NOAA 21 (JPSS-2)
#Satellite: NOAA 21 (JPSS-2)
#Configuration: NOAA-21
#almurnet v.1.7.20251203
#Start time: 2026-01-01 15:17:27

#Version: 2.2.20231116
#Station: R4.6S_Anadyr
#Location: 177.4865 lon 64.73178 lat
#TLE: 1 54234U 22150A   25364.85835894  .00000203  00000+0  11731-3 0  9998
#TLE: 2 54234  98.7482 300.9425 0001352 357.8195   2.2975 14.19530071162667

#Time	Az	El	Level	Level2	SNR	BER	BlckErr	Temp	State	Recorded	gain1	gain2
2026-01-01 15:17:27.12	21.84	0.13	-49.2	-66.9	3.5	3.02e+01	0	36	0	0	60	84962
2026-01-01 15:17:31.16	21.80	0.38	-49.1	-62.0	3.5	1.52e+00	0	38	104	0	60	43999
2026-01-01 15:17:35.20	21.75	0.62	-49.1	-61.9	3.5	1.51e+00	0	38	104	0	60	43813
2026-01-01 15:17:39.24	21.70	0.87	-48.7	-61.6	3.5	1.52e+00	0	38	104	0	60	42138
2026-01-01 15:17:43.28	21.65	1.11	-47.8	-60.6	3.5	1.52e+00	0	38	104	0	60	37514
2026-01-01 15:17:47.32	21.60	1.36	-47.6	-60.4	3.5	1.52e+00	0	38	104	0	60	36817
2026-01-01 15:17:51.36	21.55	1.62	-47.5	-59.9	3.5	1.52e+00	0	38	104	0	60	34829
2026-01-01 15:17:55.40	21.49	1.87	-47.5	-60.1	3.5	1.51e+00	0	38	104	0	60	35558
2026-01-01 15:17:59.44	21.44	2.13	-47.6	-60.5	3.5	1.52e+00	0	38	104	0	60	37261
2026-01-01 15:18:03.48	21.38	2.38	-47.6	-60.4	3.5	1.52e+00	0	39	104	0	60	36557
2026-01-01 15:18:07.52	21.32	2.65	-47.5	-59.6	3.5	1.52e+00	0	39	104	0	60	33566
2026-01-01 15:18:11.56	21.27	2.91	-47.5	-59.3	3.5	1.52e+00	0	39	104	0	60	32370
2026-01-01 15:18:15.60	21.21	3.17	-47.1	-56.2	4.7	9.46e-01	122	39	104	0	60	22638
2026-01-01 15:18:19.64	21.14	3.44	-44.7	-48.2	11.3	1.87e-03	123	39	0	7340032	60	8987
2026-01-01 15:18:23.68	21.08	3.71	-44.3	-47.4	12.2	1.88e-04	123	39	0	19922944	60	8186
2026-01-01 15:18:27.72	21.02	3.99	-47.1	-55.2	3.5	6.67e-03	56	39	104	26214400	60	20273
2026-01-01 15:18:31.76	20.95	4.26	-39.8	-41.3	18.4	0.00e+00	122	39	0	35651584	52	6432
2026-01-01 15:18:35.79	20.88	4.54	-40.4	-41.9	18.0	0.00e+00	122	39	0	48234496	54	6150
2026-01-01 15:18:39.84	20.81	4.82	-40.0	-41.5	18.1	0.00e+00	123	39	0	60817408	52	6588
2026-01-01 15:18:43.88	20.74	5.11	-39.0	-40.3	19.6	0.00e+00	123	39	0	73400320	52	5755
2026-01-01 15:18:47.92	20.67	5.40	-38.7	-39.9	20.0	0.00e+00	123	39	0	85983232	50	6182
2026-01-01 15:18:51.95	20.60	5.69	-38.3	-39.5	20.3	0.00e+00	123	39	0	98566144	50	5898
2026-01-01 15:18:56.00	20.52	5.98	-37.9	-39.0	20.8	0.00e+00	122	39	0	111149056	48	6266
2026-01-01 15:19:00.03	20.44	6.28	-37.9	-39.0	20.8	0.00e+00	122	39	0	123731968	48	6267
2026-01-01 15:19:04.07	20.36	6.58	-37.8	-38.9	21.0	0.00e+00	123	39	0	136314880	48	6155
2026-01-01 15:19:08.11	20.28	6.89	-37.5	-38.6	21.3	0.00e+00	123	39	0	148897792	48	5956
2026-01-01 15:19:12.15	20.20	7.19	-37.5	-38.6	21.3	0.00e+00	123	39	0	161480704	48	5930
2026-01-01 15:19:16.19	20.11	7.51	-37.0	-38.1	21.8	0.00e+00	123	39	0	174063616	48	5638
2026-01-01 15:19:20.23	20.02	7.82	-37.0	-38.1	21.8	0.00e+00	123	39	0	186646528	48	5626
2026-01-01 15:19:24.27	19.93	8.14	-37.1	-38.2	21.9	0.00e+00	122	39	0	199229440	48	5660
2026-01-01 15:19:28.32	19.84	8.46	-36.8	-37.8	22.0	0.00e+00	122	39	0	211812352	48	5466
2026-01-01 15:19:32.36	19.74	8.79	-36.6	-37.6	22.2	0.00e+00	123	39	0	224395264	46	5959
2026-01-01 15:19:36.40	19.64	9.12	-36.5	-37.6	22.3	0.00e+00	122	39	0	236978176	46	5946
2026-01-01 15:19:40.45	19.54	9.46	-36.3	-37.4	22.5	0.00e+00	122	39	0	249561088	46	5797
2026-01-01 15:19:44.49	19.44	9.80	-36.9	-37.9	22.2	0.00e+00	123	39	0	262144000	46	6179
2026-01-01 15:19:48.53	19.33	10.15	-36.4	-37.4	22.4	0.00e+00	122	39	0	274726912	46	5850
2026-01-01 15:19:52.57	19.22	10.50	-36.1	-37.1	22.7	0.00e+00	122	39	0	287309824	46	5622
2026-01-01 15:19:56.61	19.11	10.85	-35.9	-36.8	23.0	0.00e+00	123	39	0	299892736	46	5460
2026-01-01 15:20:00.65	18.99	11.21	-36.1	-37.1	22.7	0.00e+00	122	39	0	312475648	46	5631
2026-01-01 15:20:04.69	18.87	11.58	-35.7	-36.7	23.1	0.00e+00	122	39	0	326107136	46	5384
2026-01-01 15:20:08.73	18.75	11.95	-35.8	-36.8	23.1	0.00e+00	122	39	0	337641472	44	6086
2026-01-01 15:20:12.77	18.62	12.32	-35.7	-36.6	23.2	0.00e+00	122	39	0	351272960	44	5982
2026-01-01 15:20:16.81	18.49	12.71	-35.6	-36.6	23.3	0.00e+00	122	39	0	363855872	44	5961
2026-01-01 15:20:20.85	18.36	13.09	-35.5	-36.5	23.3	0.00e+00	122	39	0	376438784	44	5893
2026-01-01 15:20:24.89	18.22	13.49	-35.6	-36.6	23.2	0.00e+00	123	39	0	389021696	44	5958
2026-01-01 15:20:28.93	18.08	13.89	-35.3	-36.3	23.6	0.00e+00	122	39	0	401604608	44	5729
2026-01-01 15:20:32.97	17.93	14.29	-35.2	-36.2	23.6	0.00e+00	123	39	0	414187520	44	5672
2026-01-01 15:20:37.01	17.78	14.71	-35.3	-36.2	23.6	0.00e+00	123	39	0	426770432	44	5675
2026-01-01 15:20:41.05	17.62	15.13	-35.2	-36.1	23.7	0.00e+00	123	39	0	439353344	44	5648
2026-01-01 15:20:45.09	17.46	15.55	-35.3	-36.2	23.6	0.00e+00	123	39	0	451936256	44	5691
2026-01-01 15:20:49.13	17.30	15.99	-35.3	-36.2	23.6	0.00e+00	123	39	0	464519168	44	5713
2026-01-01 15:20:53.17	17.13	16.43	-35.3	-36.2	23.6	0.00e+00	120	39	0	477102080	44	5719
2026-01-01 15:20:57.22	16.95	16.88	-35.3	-36.2	23.7	0.00e+00	120	39	0	489684992	44	5703
2026-01-01 15:21:01.25	16.77	17.34	-35.5	-36.4	23.6	0.00e+00	120	39	0	502267904	44	5849
2026-01-01 15:21:05.30	16.58	17.81	-35.3	-36.2	23.8	0.00e+00	122	39	0	514850816	44	5687
2026-01-01 15:21:09.33	16.38	18.28	-35.2	-36.1	23.8	0.00e+00	123	39	0	527433728	44	5654
2026-01-01 15:21:13.37	16.18	18.77	-35.3	-36.2	23.8	0.00e+00	120	39	0	540016640	44	5684
2026-01-01 15:21:17.41	15.97	19.26	-35.2	-36.1	23.8	0.00e+00	123	39	0	552599552	44	5611
2026-01-01 15:21:21.45	15.75	19.76	-35.1	-36.0	23.8	0.00e+00	122	39	0	565182464	44	5550
2026-01-01 15:21:25.49	15.53	20.27	-34.9	-35.8	24.1	0.00e+00	120	39	0	577765376	44	5425
2026-01-01 15:21:29.53	15.30	20.80	-34.9	-35.8	24.2	0.00e+00	120	39	0	590348288	42	6072
2026-01-01 15:21:33.57	15.05	21.33	-34.6	-35.5	24.4	0.00e+00	122	39	0	602931200	42	5891
2026-01-01 15:21:37.61	14.80	21.88	-34.4	-35.3	24.6	0.00e+00	121	39	0	615514112	42	5775
2026-01-01 15:21:41.64	14.54	22.43	-34.1	-35.0	24.9	0.00e+00	123	39	0	628097024	42	5560
2026-01-01 15:21:45.68	14.27	23.00	-33.7	-34.5	25.1	0.00e+00	120	39	0	640679936	40	5916
2026-01-01 15:21:49.72	13.99	23.58	-33.7	-34.6	25.1	0.00e+00	120	39	0	653262848	40	5945
2026-01-01 15:21:53.76	13.70	24.17	-33.7	-34.6	25.1	0.00e+00	122	39	0	666894336	40	5962
2026-01-01 15:21:57.80	13.39	24.77	-33.7	-34.5	25.1	0.00e+00	122	39	0	679477248	40	5910
2026-01-01 15:22:01.83	13.08	25.39	-33.8	-34.7	24.9	0.00e+00	122	39	0	692060160	40	6033
2026-01-01 15:22:05.87	12.75	26.02	-34.1	-35.0	24.7	0.00e+00	123	40	0	704643072	40	6215
2026-01-01 15:22:09.91	12.40	26.67	-34.5	-35.4	24.4	0.00e+00	122	40	0	717225984	40	6532
2026-01-01 15:22:13.95	12.04	27.33	-34.9	-35.8	24.1	0.00e+00	122	40	0	729808896	42	6104
2026-01-01 15:22:17.99	11.67	28.00	-35.1	-36.0	23.9	0.00e+00	120	39	0	742391808	42	6256
2026-01-01 15:22:22.02	11.28	28.69	-35.3	-36.2	23.7	0.00e+00	122	39	0	754974720	42	6391
2026-01-01 15:22:26.06	10.86	29.40	-35.0	-35.9	24.0	0.00e+00	120	39	0	767557632	42	6203
2026-01-01 15:22:30.10	10.43	30.12	-35.1	-36.0	23.9	0.00e+00	123	39	0	780140544	42	6231
2026-01-01 15:22:34.14	9.98	30.86	-34.9	-35.8	23.8	0.00e+00	123	40	0	792723456	42	6100
2026-01-01 15:22:38.18	9.51	31.62	-34.8	-35.7	24.0	0.00e+00	123	39	0	805306368	42	6055
2026-01-01 15:22:42.22	9.01	32.39	-35.2	-36.2	24.0	0.00e+00	122	39	0	817889280	42	6359
2026-01-01 15:22:46.26	8.49	33.18	-35.1	-36.0	24.1	0.00e+00	123	39	0	830472192	42	6256
2026-01-01 15:22:50.30	7.94	33.99	-35.4	-36.3	23.9	0.00e+00	123	40	0	843055104	42	6479
2026-01-01 15:22:54.34	7.37	34.82	-36.0	-37.0	23.3	0.00e+00	123	39	0	855638016	44	6252
2026-01-01 15:22:58.38	6.76	35.67	-36.6	-37.6	22.9	0.00e+00	120	40	0	868220928	44	6663
2026-01-01 15:23:02.41	6.12	36.53	-36.8	-37.8	22.6	0.00e+00	123	40	0	880803840	46	6133
2026-01-01 15:23:06.45	5.44	37.42	-36.7	-37.7	22.7	0.00e+00	123	39	0	893386752	46	6011
2026-01-01 15:23:10.49	4.72	38.32	-36.3	-37.3	23.1	0.00e+00	123	40	0	905969664	46	5746
2026-01-01 15:23:14.54	3.96	39.25	-36.8	-37.9	22.4	0.00e+00	123	40	0	918552576	46	6143
2026-01-01 15:23:18.58	3.15	40.19	-37.6	-38.7	22.1	0.00e+00	120	40	0	931135488	46	6730
2026-01-01 15:23:22.62	2.30	41.15	-37.3	-38.3	22.3	0.00e+00	123	40	0	943718400	46	6481
2026-01-01 15:23:26.65	1.39	42.13	-37.3	-38.4	21.9	0.00e+00	122	40	0	956301312	46	6513
2026-01-01 15:23:30.69	0.42	43.13	-38.0	-39.1	21.7	0.00e+00	122	40	0	968884224	48	6314
2026-01-01 15:23:34.74	359.39	44.15	-37.7	-38.7	22.0	0.00e+00	121	40	0	982515712	48	6048
2026-01-01 15:23:38.78	358.29	45.18	-37.5	-38.5	22.0	0.00e+00	123	40	0	994050048	48	5917
2026-01-01 15:23:42.82	357.11	46.22	-37.8	-38.8	21.7	0.00e+00	123	40	0	1007681536	48	6129
2026-01-01 15:23:46.86	355.85	47.28	-37.5	-38.5	22.0	0.00e+00	123	40	0	1020264448	48	5888
2026-01-01 15:23:50.90	354.50	48.35	-36.4	-37.4	22.8	0.00e+00	122	40	0	1032847360	46	5828
2026-01-01 15:23:54.94	353.06	49.42	-36.9	-37.9	22.6	0.00e+00	123	40	0	1045430272	46	6192
2026-01-01 15:23:58.97	351.51	50.50	-36.2	-37.2	22.9	0.00e+00	120	40	0	1058013184	46	5708
2026-01-01 15:24:03.01	349.84	51.58	-36.0	-37.0	23.3	0.00e+00	123	40	0	1070596096	46	5556
2026-01-01 15:24:07.05	348.05	52.66	-37.1	-38.1	22.3	0.00e+00	123	40	0	1083179008	46	6307
2026-01-01 15:24:11.09	346.11	53.73	-35.2	-36.1	23.7	0.00e+00	123	40	0	1095761920	44	5613
2026-01-01 15:24:15.13	344.03	54.78	-35.0	-35.9	24.2	0.00e+00	123	40	0	1108344832	44	5495
2026-01-01 15:24:19.18	341.79	55.82	-35.1	-36.1	24.0	0.00e+00	120	40	0	1120927744	42	6282
2026-01-01 15:24:23.22	339.37	56.83	-35.0	-35.9	24.1	0.00e+00	124	40	0	1133510656	42	6164
2026-01-01 15:24:27.25	336.78	57.80	-35.1	-36.0	24.1	0.00e+00	123	40	0	1146093568	42	6237
2026-01-01 15:24:31.30	333.99	58.74	-34.8	-35.7	24.2	0.00e+00	123	40	0	1158676480	42	6024
2026-01-01 15:24:35.34	331.01	59.61	-34.3	-35.2	24.1	0.00e+00	123	40	0	1171259392	42	5716
2026-01-01 15:24:39.38	327.82	60.42	-34.0	-34.8	24.8	0.00e+00	123	40	0	1183842304	42	5465
2026-01-01 15:24:43.42	324.44	61.16	-33.7	-34.6	25.1	0.00e+00	122	40	0	1196425216	40	5952
2026-01-01 15:24:47.46	320.86	61.81	-33.9	-34.8	25.0	0.00e+00	123	40	0	1209008128	40	6090
2026-01-01 15:24:51.50	317.10	62.37	-33.8	-34.7	24.8	0.00e+00	122	40	0	1221591040	40	6053
2026-01-01 15:24:55.54	313.17	62.82	-34.0	-34.9	25.0	0.00e+00	123	40	0	1234173952	40	6135
2026-01-01 15:24:59.58	309.12	63.15	-33.4	-34.3	25.1	0.00e+00	123	40	0	1246756864	40	5751
2026-01-01 15:25:03.62	304.97	63.37	-33.4	-34.3	25.0	0.00e+00	122	40	0	1259339776	40	5760
2026-01-01 15:25:07.66	300.77	63.45	-34.1	-35.0	24.6	0.00e+00	123	40	0	1271922688	40	6238
2026-01-01 15:25:11.71	296.55	63.41	-34.0	-34.9	25.0	0.00e+00	122	40	0	1284505600	40	6189
2026-01-01 15:25:15.74	292.39	63.25	-33.3	-34.1	25.4	0.00e+00	122	40	0	1298137088	40	5644
2026-01-01 15:25:19.78	288.29	62.96	-33.7	-34.6	24.9	0.00e+00	120	40	0	1310720000	40	5957
2026-01-01 15:25:23.82	284.32	62.55	-34.2	-35.1	24.7	0.00e+00	120	40	0	1323302912	40	6284
2026-01-01 15:25:27.86	280.49	62.03	-34.0	-34.9	25.0	0.00e+00	120	40	0	1335885824	40	6149
2026-01-01 15:25:31.90	276.84	61.41	-35.0	-35.9	24.0	0.00e+00	122	40	0	1348468736	42	6197
2026-01-01 15:25:35.94	273.38	60.71	-34.6	-35.5	24.5	0.00e+00	123	40	0	1361051648	42	5902
2026-01-01 15:25:39.99	270.10	59.92	-34.4	-35.2	24.7	0.00e+00	122	40	0	1373634560	42	5704
2026-01-01 15:25:44.02	267.05	59.06	-35.4	-36.3	23.8	0.00e+00	122	40	0	1386217472	42	6470
2026-01-01 15:25:48.06	264.19	58.15	-33.8	-34.7	25.0	0.00e+00	120	40	0	1398800384	40	5996
2026-01-01 15:25:52.10	261.52	57.19	-34.9	-35.8	23.7	0.00e+00	123	40	0	1411383296	42	6102
2026-01-01 15:25:56.14	259.04	56.19	-34.7	-35.7	24.2	0.00e+00	123	40	0	1423966208	42	6007
2026-01-01 15:26:00.19	256.72	55.16	-36.6	-37.6	22.6	0.00e+00	122	40	0	1436549120	46	5971
2026-01-01 15:26:04.23	254.58	54.11	-34.8	-35.7	24.4	0.00e+00	121	40	0	1449132032	42	6003
2026-01-01 15:26:08.27	252.59	53.04	-36.2	-37.2	23.0	0.00e+00	122	40	0	1461714944	44	6354
2026-01-01 15:26:12.30	250.75	51.96	-35.6	-36.5	23.6	0.00e+00	122	40	0	1474297856	44	5886
2026-01-01 15:26:16.34	249.03	50.88	-37.0	-38.1	21.7	0.00e+00	123	40	0	1486880768	46	6296
2026-01-01 15:26:20.38	247.44	49.79	-36.4	-37.4	22.8	0.00e+00	122	40	0	1499463680	46	5798
2026-01-01 15:26:24.42	245.95	48.71	-38.2	-39.4	21.3	0.00e+00	123	40	0	1512046592	48	6500
2026-01-01 15:26:28.46	244.56	47.64	-36.1	-37.0	23.2	0.00e+00	123	40	0	1524629504	46	5562
2026-01-01 15:26:32.50	243.27	46.58	-38.5	-39.6	21.1	0.00e+00	123	40	0	1537212416	48	6701
2026-01-01 15:26:36.54	242.06	45.52	-39.6	-41.0	19.1	0.00e+00	120	40	0	1549795328	52	6262
2026-01-01 15:26:40.58	240.93	44.49	-37.0	-37.9	22.6	0.00e+00	120	40	0	1562378240	48	5527
2026-01-01 15:26:44.63	239.87	43.46	-38.4	-39.5	21.3	0.00e+00	123	40	0	1574961152	48	6609
2026-01-01 15:26:48.67	238.88	42.45	-37.9	-39.0	21.7	0.00e+00	122	40	0	1587544064	48	6211
2026-01-01 15:26:52.71	237.95	41.46	-36.9	-37.9	22.4	0.00e+00	123	40	0	1600126976	48	5484
2026-01-01 15:26:56.74	237.07	40.49	-37.0	-38.0	22.2	0.00e+00	123	40	0	1613758464	46	6266
2026-01-01 15:27:00.78	236.25	39.54	-37.7	-38.8	21.9	0.00e+00	120	40	0	1626341376	48	6075
2026-01-01 15:27:04.83	235.47	38.61	-37.0	-38.0	22.6	0.00e+00	122	40	0	1638924288	48	5573
2026-01-01 15:27:08.87	234.73	37.69	-36.0	-37.0	23.2	0.00e+00	120	40	0	1651507200	46	5542
2026-01-01 15:27:12.91	234.04	36.80	-35.5	-36.5	23.9	0.00e+00	123	40	0	1664090112	44	5862
2026-01-01 15:27:16.95	233.38	35.92	-36.5	-37.5	22.8	0.00e+00	123	40	0	1676673024	44	6630
2026-01-01 15:27:20.99	232.76	35.06	-36.2	-37.2	22.9	0.00e+00	123	40	0	1689255936	44	6374
2026-01-01 15:27:25.04	232.16	34.22	-35.5	-36.4	23.8	0.00e+00	122	40	0	1701838848	44	5818
2026-01-01 15:27:29.08	231.60	33.40	-35.1	-36.0	24.1	0.00e+00	123	40	0	1714421760	44	5572
2026-01-01 15:27:33.12	231.07	32.60	-35.1	-36.0	23.9	0.00e+00	122	40	0	1727004672	44	5594
2026-01-01 15:27:37.16	230.56	31.82	-35.2	-36.1	23.8	0.00e+00	123	40	0	1739587584	44	5653
2026-01-01 15:27:41.20	230.08	31.05	-35.1	-36.0	24.0	0.00e+00	123	40	0	1752170496	44	5571
2026-01-01 15:27:45.24	229.62	30.31	-35.1	-36.0	23.9	0.00e+00	123	40	0	1764753408	44	5583
2026-01-01 15:27:49.28	229.18	29.58	-35.9	-36.9	23.4	0.00e+00	122	40	0	1777336320	44	6141
2026-01-01 15:27:53.32	228.76	28.86	-35.9	-36.9	23.2	0.00e+00	121	40	0	1789919232	44	6187
2026-01-01 15:27:57.36	228.36	28.16	-36.1	-37.1	23.2	0.00e+00	123	40	0	1802502144	44	6284
2026-01-01 15:28:01.40	227.98	27.48	-35.1	-36.1	23.8	0.00e+00	122	40	0	1815085056	44	5614
2026-01-01 15:28:05.44	227.61	26.81	-34.4	-35.2	24.7	0.00e+00	122	40	0	1827667968	42	5720
2026-01-01 15:28:09.48	227.26	26.16	-33.8	-34.7	25.1	0.00e+00	123	40	0	1840250880	42	5367
2026-01-01 15:28:13.52	226.92	25.52	-33.9	-34.7	25.0	0.00e+00	120	40	0	1852833792	42	5402
2026-01-01 15:28:17.56	226.60	24.90	-34.3	-35.2	24.7	0.00e+00	120	40	0	1865416704	42	5674
2026-01-01 15:28:21.60	226.29	24.29	-34.8	-35.7	24.4	0.00e+00	122	40	0	1877999616	42	6016
2026-01-01 15:28:25.64	225.99	23.69	-35.1	-36.0	24.1	0.00e+00	123	40	0	1891631104	42	6238
2026-01-01 15:28:29.68	225.70	23.10	-35.1	-36.0	24.0	0.00e+00	122	40	0	1903165440	42	6240
2026-01-01 15:28:33.72	225.42	22.53	-35.0	-36.0	23.9	0.00e+00	122	40	0	1915748352	42	6219
2026-01-01 15:28:37.76	225.16	21.97	-35.2	-36.1	23.8	0.00e+00	122	40	0	1929379840	42	6343
2026-01-01 15:28:41.80	224.90	21.42	-35.1	-36.0	24.0	0.00e+00	123	40	0	1941962752	42	6274
2026-01-01 15:28:45.84	224.65	20.88	-35.0	-35.9	24.1	0.00e+00	122	40	0	1954545664	42	6199
2026-01-01 15:28:49.88	224.42	20.35	-34.7	-35.6	24.3	0.00e+00	122	40	0	1967128576	42	5976
2026-01-01 15:28:53.92	224.19	19.83	-34.7	-35.6	24.2	0.00e+00	123	40	0	1979711488	42	5992
2026-01-01 15:28:57.96	223.96	19.33	-34.9	-35.8	24.0	0.00e+00	123	40	0	1992294400	42	6129
2026-01-01 15:29:02.00	223.75	18.83	-35.1	-36.1	23.9	0.00e+00	120	40	0	2004877312	42	6293
2026-01-01 15:29:06.04	223.54	18.34	-35.2	-36.2	23.9	0.00e+00	122	40	0	2017460224	42	6362
2026-01-01 15:29:10.09	223.34	17.86	-35.4	-36.3	23.6	0.00e+00	120	40	0	2030043136	42	6482
2026-01-01 15:29:14.12	223.15	17.39	-35.5	-36.4	23.6	0.00e+00	123	40	0	2042626048	42	6548
2026-01-01 15:29:18.16	222.96	16.93	-35.5	-36.5	23.5	0.00e+00	123	40	0	2055208960	42	6599
2026-01-01 15:29:22.20	222.78	16.47	-35.6	-36.6	23.4	0.00e+00	123	40	0	2067791872	42	6683
2026-01-01 15:29:26.24	222.60	16.03	-35.7	-36.7	23.3	0.00e+00	122	40	0	2080374784	44	6041
2026-01-01 15:29:30.28	222.43	15.59	-35.9	-36.8	23.2	0.00e+00	122	40	0	2092957696	44	6123
2026-01-01 15:29:34.32	222.27	15.16	-35.9	-36.9	23.3	0.00e+00	120	40	0	2105540608	44	6143
2026-01-01 15:29:38.36	222.11	14.74	-36.2	-37.2	22.9	0.00e+00	120	40	0	2118123520	44	6390
2026-01-01 15:29:42.40	221.95	14.32	-35.9	-36.9	23.2	0.00e+00	122	40	0	2130706432	44	6141
2026-01-01 15:29:46.44	221.80	13.91	-35.8	-36.8	23.2	0.00e+00	122	40	0	2143289344	44	6113
2026-01-01 15:29:50.48	221.66	13.51	-36.0	-37.0	23.1	0.00e+00	122	40	0	2155872256	44	6249
2026-01-01 15:29:54.52	221.51	13.11	-36.0	-37.0	23.0	0.00e+00	123	40	0	2168455168	44	6250
2026-01-01 15:29:58.56	221.38	12.72	-36.1	-37.1	22.9	0.00e+00	123	40	0	2181038080	44	6297
2026-01-01 15:30:02.61	221.24	12.33	-36.1	-37.1	23.0	0.00e+00	122	40	0	2193620992	44	6303
2026-01-01 15:30:06.65	221.11	11.95	-36.2	-37.1	22.9	0.00e+00	123	40	0	2206203904	44	6331
2026-01-01 15:30:10.69	220.99	11.58	-36.2	-37.2	22.8	0.00e+00	123	40	0	2219835392	44	6359
2026-01-01 15:30:14.73	220.86	11.21	-36.1	-37.1	22.9	0.00e+00	123	40	0	2231369728	44	6304
2026-01-01 15:30:18.77	220.74	10.85	-36.2	-37.1	22.9	0.00e+00	122	40	0	2245001216	44	6347
2026-01-01 15:30:22.81	220.63	10.49	-36.0	-37.0	22.9	0.00e+00	120	40	0	2257584128	44	6218
2026-01-01 15:30:26.85	220.51	10.14	-36.4	-37.4	22.7	0.00e+00	122	40	0	2270167040	44	6502
2026-01-01 15:30:30.89	220.40	9.79	-36.5	-37.4	22.5	0.00e+00	120	40	0	2282749952	44	6571
2026-01-01 15:30:34.93	220.29	9.45	-36.7	-37.8	22.3	0.00e+00	123	40	0	2295332864	46	6069
2026-01-01 15:30:38.97	220.19	9.11	-36.6	-37.6	22.4	0.00e+00	120	40	0	2307915776	46	5992
2026-01-01 15:30:43.01	220.09	8.78	-37.0	-38.0	22.0	0.00e+00	123	40	0	2320498688	46	6241
2026-01-01 15:30:47.05	219.99	8.45	-37.0	-38.1	21.9	0.00e+00	123	40	0	2333081600	46	6288
2026-01-01 15:30:51.09	219.89	8.12	-37.2	-38.2	21.7	0.00e+00	122	40	0	2345664512	46	6400
2026-01-01 15:30:55.13	219.79	7.80	-37.3	-38.4	21.7	0.00e+00	123	40	0	2358247424	46	6499
2026-01-01 15:30:59.17	219.70	7.49	-37.5	-38.6	21.4	0.00e+00	123	40	0	2370830336	46	6683
2026-01-01 15:31:03.21	219.61	7.17	-37.7	-38.8	21.2	0.00e+00	120	40	0	2383413248	46	6859
2026-01-01 15:31:07.25	219.52	6.86	-37.7	-38.9	21.1	0.00e+00	120	40	0	2395996160	48	6139
2026-01-01 15:31:11.29	219.44	6.56	-37.9	-39.1	20.9	0.00e+00	123	40	0	2408579072	48	6288
2026-01-01 15:31:15.33	219.35	6.25	-38.0	-39.2	20.8	0.00e+00	120	40	0	2421161984	48	6369
2026-01-01 15:31:19.37	219.27	5.95	-38.2	-39.4	20.5	0.00e+00	123	40	0	2433744896	48	6523
2026-01-01 15:31:23.40	219.19	5.66	-38.3	-39.5	20.4	0.00e+00	120	40	0	2446327808	48	6614
2026-01-01 15:31:27.44	219.11	5.37	-38.5	-39.7	20.2	0.00e+00	118	40	0	2458910720	48	6762
2026-01-01 15:31:31.48	219.04	5.08	-38.5	-39.7	20.1	0.00e+00	122	40	0	2471493632	50	6043
2026-01-01 15:31:35.52	218.96	4.79	-38.8	-40.0	19.8	0.00e+00	122	40	0	2484076544	50	6245
2026-01-01 15:31:39.56	218.89	4.51	-38.8	-40.1	19.6	0.00e+00	123	40	0	2496659456	50	6312
2026-01-01 15:31:43.60	218.82	4.23	-39.1	-40.4	19.4	0.00e+00	120	40	0	2509242368	50	6515
2026-01-01 15:31:47.63	218.75	3.95	-39.1	-40.4	19.4	0.00e+00	123	40	0	2521825280	50	6508
2026-01-01 15:31:51.67	218.68	3.67	-39.2	-40.5	19.1	0.00e+00	122	40	0	2534408192	50	6606
2026-01-01 15:31:55.71	218.61	3.40	-39.2	-40.5	19.0	0.00e+00	122	40	0	2546991104	50	6645
2026-01-01 15:31:59.76	218.54	3.13	-39.8	-41.2	18.6	0.00e+00	123	40	0	2560622592	52	6373
2026-01-01 15:32:03.80	218.48	2.86	-48.7	-61.6	3.5	1.52e+00	0	40	104	2565865472	60	42262
2026-01-01 15:32:07.84	218.42	2.60	-49.2	-62.0	3.5	1.52e+00	0	40	104	2565865472	60	44061
2026-01-01 15:32:11.88	218.36	2.34	-48.8	-62.0	3.5	1.52e+00	0	40	104	2565865472	60	44086
2026-01-01 15:32:15.91	218.30	2.08	-49.0	-61.9	3.5	1.51e+00	0	40	104	2565865472	60	43621
2026-01-01 15:32:19.95	218.24	1.82	-49.0	-61.9	3.5	1.52e+00	0	40	104	2565865472	60	43443
2026-01-01 15:32:23.99	218.18	1.56	-49.0	-61.9	3.5	1.51e+00	0	40	104	2565865472	60	43811
2026-01-01 15:32:28.03	218.12	1.31	-49.0	-61.9	3.5	1.52e+00	0	40	104	2565865472	60	43650
2026-01-01 15:32:32.07	218.07	1.06	-49.0	-61.9	3.5	1.52e+00	0	40	104	2565865472	60	43494
2026-01-01 15:32:36.11	218.01	0.81	-49.0	-61.9	3.5	1.52e+00	0	40	104	2565865472	60	43641
2026-01-01 15:32:40.15	217.96	0.56	-49.0	-61.9	3.5	1.52e+00	0	40	104	2565865472	60	43680
2026-01-01 15:32:44.20	217.91	0.32	-49.0	-61.9	3.5	1.52e+00	0	40	104	2565865472	60	43498
2026-01-01 15:32:48.23	217.86	0.08	-49.0	-61.9	3.5	1.52e+00	0	40	104	2565865472	60	43451

#Closed at: 2026-01-01 15:32:49
#Recorded file [2565 MB]: D:/lorett/data/35029_260102_031727.dat