passes_logs/2026/01/01/R4.6S_Anadyr/R4.6S_Anadyr__20260101_233229_NOAA_21_JPSS-2_rec.log

#Pass ID: 20260101_233229_NOAA 21 (JPSS-2)
#Satellite: NOAA 21 (JPSS-2)
#Configuration: NOAA-21
#almurnet v.1.7.20251203
#Start time: 2026-01-01 23:32:33

#Version: 2.2.20231116
#Station: R4.6S_Anadyr
#Location: 177.4865 lon 64.73178 lat
#TLE: 1 54234U 22150A   26001.62049579  .00000200  00000+0  11561-3 0  9997
#TLE: 2 54234  98.7484 302.6830 0001258 352.4447   7.6710 14.19530916162916

#Time	Az	El	Level	Level2	SNR	BER	BlckErr	Temp	State	Recorded	gain1	gain2
2026-01-01 23:32:33.02	139.64	0.19	-49.7	-51.3	5.7	0.00e+00	0	37	0	0	60	44992
2026-01-01 23:32:36.92	139.57	0.42	-49.4	-62.3	3.5	1.52e+00	0	38	104	0	60	45652
2026-01-01 23:32:40.83	139.51	0.66	-49.1	-61.9	3.5	1.52e+00	0	38	104	0	60	43902
2026-01-01 23:32:44.73	139.45	0.90	-48.3	-61.1	3.5	1.52e+00	0	39	104	0	60	39733
2026-01-01 23:32:48.64	139.39	1.14	-47.8	-60.6	3.5	1.52e+00	0	39	104	0	60	37805
2026-01-01 23:32:52.56	139.32	1.38	-47.7	-60.6	3.5	1.52e+00	0	39	104	0	60	37800
2026-01-01 23:32:56.47	139.25	1.63	-47.7	-60.1	3.5	1.52e+00	0	39	104	0	60	35698
2026-01-01 23:33:00.37	139.18	1.87	-47.7	-60.4	3.5	1.52e+00	0	39	104	0	60	36657
2026-01-01 23:33:04.27	139.12	2.12	-47.8	-60.5	3.5	1.52e+00	0	39	104	0	60	37387
2026-01-01 23:33:08.17	139.04	2.37	-47.8	-60.5	3.5	1.52e+00	0	39	104	0	60	37002
2026-01-01 23:33:12.08	138.97	2.62	-47.8	-60.5	3.5	1.52e+00	0	39	104	0	60	36999
2026-01-01 23:33:15.99	138.90	2.88	-47.8	-60.4	3.5	1.52e+00	0	39	104	0	60	36611
2026-01-01 23:33:19.89	138.82	3.14	-47.5	-57.9	3.6	1.51e+00	0	39	104	0	60	27641
2026-01-01 23:33:23.80	138.75	3.40	-44.9	-48.2	11.5	1.96e-03	122	39	0	8388608	60	9044
2026-01-01 23:33:27.71	138.67	3.66	-42.6	-44.6	15.1	0.00e+00	122	39	0	20971520	58	6713
2026-01-01 23:33:31.62	138.59	3.93	-46.3	-51.6	7.6	8.28e-01	122	39	104	22020096	60	13420
2026-01-01 23:33:35.52	138.51	4.19	-40.5	-42.0	17.8	0.00e+00	123	39	0	27262976	54	6236
2026-01-01 23:33:39.43	138.42	4.46	-39.3	-40.6	19.1	0.00e+00	124	39	0	39845888	52	5947
2026-01-01 23:33:43.33	138.34	4.74	-38.9	-40.2	19.6	0.00e+00	121	39	0	51380224	52	5681
2026-01-01 23:33:47.25	138.25	5.01	-38.7	-40.0	19.8	0.00e+00	122	39	0	63963136	50	6213
2026-01-01 23:33:51.15	138.16	5.29	-38.6	-39.9	19.9	0.00e+00	122	39	0	76546048	50	6139
2026-01-01 23:33:55.06	138.07	5.57	-38.3	-39.5	20.3	0.00e+00	121	39	0	88080384	50	5880
2026-01-01 23:33:58.97	137.98	5.86	-38.2	-39.3	20.7	0.00e+00	121	39	0	100663296	50	5776
2026-01-01 23:34:02.88	137.88	6.15	-37.9	-39.1	20.8	0.00e+00	123	39	0	113246208	50	5596
2026-01-01 23:34:06.79	137.79	6.44	-37.7	-38.7	21.2	0.00e+00	121	39	0	124780544	48	6063
2026-01-01 23:34:10.70	137.69	6.73	-37.5	-38.6	21.3	0.00e+00	121	39	0	137363456	48	5932
2026-01-01 23:34:14.60	137.59	7.03	-37.4	-38.5	21.5	0.00e+00	124	39	0	149946368	48	5863
2026-01-01 23:34:18.52	137.48	7.33	-37.1	-38.2	21.8	0.00e+00	123	39	0	161480704	48	5663
2026-01-01 23:34:22.42	137.37	7.63	-37.2	-38.2	21.7	0.00e+00	121	39	0	174063616	48	5706
2026-01-01 23:34:26.33	137.27	7.94	-36.8	-37.9	22.1	0.00e+00	123	39	0	185597952	48	5471
2026-01-01 23:34:30.23	137.15	8.25	-36.7	-37.8	22.3	0.00e+00	124	39	0	198180864	46	6080
2026-01-01 23:34:34.13	137.04	8.56	-36.6	-37.7	22.3	0.00e+00	122	39	0	210763776	46	6006
2026-01-01 23:34:38.04	136.92	8.88	-36.7	-37.7	22.4	0.00e+00	124	40	0	223346688	46	6026
2026-01-01 23:34:41.95	136.80	9.21	-36.5	-37.5	22.5	0.00e+00	122	39	0	234881024	46	5918
2026-01-01 23:34:45.85	136.68	9.53	-36.5	-37.5	22.6	0.00e+00	121	40	0	247463936	46	5861
2026-01-01 23:34:49.76	136.56	9.86	-36.3	-37.3	22.8	0.00e+00	124	39	0	258998272	46	5735
2026-01-01 23:34:53.67	136.43	10.20	-36.3	-37.3	22.7	0.00e+00	120	40	0	271581184	46	5727
2026-01-01 23:34:57.58	136.29	10.54	-36.3	-37.2	22.8	0.00e+00	122	40	0	284164096	46	5720
2026-01-01 23:35:01.49	136.16	10.89	-36.1	-37.1	22.9	0.00e+00	119	39	0	295698432	46	5616
2026-01-01 23:35:05.40	136.02	11.23	-36.0	-37.0	23.0	0.00e+00	121	40	0	308281344	46	5536
2026-01-01 23:35:09.28	135.88	11.59	-36.0	-37.0	23.1	0.00e+00	123	40	0	320864256	46	5547
2026-01-01 23:35:13.20	135.73	11.95	-35.9	-36.9	23.2	0.00e+00	124	40	0	332398592	46	5481
2026-01-01 23:35:17.11	135.58	12.31	-36.1	-37.1	23.0	0.00e+00	123	40	0	344981504	46	5634
2026-01-01 23:35:21.02	135.43	12.68	-35.7	-36.7	23.4	0.00e+00	123	40	0	357564416	44	6017
2026-01-01 23:35:24.93	135.27	13.06	-35.7	-36.6	23.5	0.00e+00	123	40	0	369098752	44	5984
2026-01-01 23:35:28.84	135.10	13.44	-35.8	-36.8	23.4	0.00e+00	121	40	0	381681664	44	6104
2026-01-01 23:35:32.73	134.94	13.82	-35.6	-36.5	23.6	0.00e+00	122	40	0	394264576	44	5896
2026-01-01 23:35:36.64	134.76	14.21	-35.5	-36.5	23.6	0.00e+00	124	40	0	405798912	44	5884
2026-01-01 23:35:40.55	134.59	14.61	-35.5	-36.5	23.6	0.00e+00	119	40	0	418381824	44	5865
2026-01-01 23:35:44.45	134.40	15.02	-35.5	-36.4	23.7	0.00e+00	122	40	0	430964736	44	5838
2026-01-01 23:35:48.36	134.22	15.43	-35.5	-36.4	23.7	0.00e+00	124	40	0	442499072	44	5858
2026-01-01 23:35:52.27	134.02	15.85	-35.7	-36.6	23.6	0.00e+00	121	40	0	455081984	44	5961
2026-01-01 23:35:56.18	133.82	16.27	-35.7	-36.6	23.6	0.00e+00	124	40	0	467664896	44	5979
2026-01-01 23:36:00.09	133.62	16.71	-35.7	-36.6	23.5	0.00e+00	124	40	0	479199232	44	5994
2026-01-01 23:36:04.00	133.40	17.14	-35.8	-36.8	23.4	0.00e+00	124	40	0	491782144	44	6091
2026-01-01 23:36:07.91	133.19	17.59	-35.9	-36.8	23.4	0.00e+00	122	40	0	503316480	44	6111
2026-01-01 23:36:11.82	132.96	18.05	-35.8	-36.8	23.4	0.00e+00	123	40	0	515899392	44	6080
2026-01-01 23:36:15.73	132.73	18.51	-35.8	-36.8	23.4	0.00e+00	122	40	0	528482304	44	6065
2026-01-01 23:36:19.63	132.49	18.98	-35.9	-36.9	23.4	0.00e+00	121	40	0	540016640	44	6135
2026-01-01 23:36:23.55	132.24	19.46	-35.8	-36.7	23.5	0.00e+00	123	40	0	552599552	44	6030
2026-01-01 23:36:27.46	131.98	19.95	-35.6	-36.5	23.6	0.00e+00	124	40	0	565182464	44	5920
2026-01-01 23:36:31.37	131.71	20.45	-35.2	-36.1	23.9	0.00e+00	120	40	0	576716800	44	5651
2026-01-01 23:36:35.27	131.44	20.96	-35.0	-36.0	23.9	0.00e+00	120	40	0	589299712	44	5533
2026-01-01 23:36:39.18	131.15	21.47	-34.7	-35.6	24.2	0.00e+00	123	40	0	601882624	42	5955
2026-01-01 23:36:43.09	130.86	22.00	-34.6	-35.6	24.2	0.00e+00	121	40	0	613416960	42	5941
2026-01-01 23:36:46.99	130.55	22.54	-34.4	-35.3	24.5	0.00e+00	121	40	0	625999872	42	5746
2026-01-01 23:36:50.91	130.24	23.08	-34.2	-35.1	24.7	0.00e+00	123	39	0	638582784	42	5599
2026-01-01 23:36:54.82	129.91	23.64	-34.0	-34.8	24.9	0.00e+00	123	40	0	650117120	42	5452
2026-01-01 23:36:58.73	129.57	24.21	-34.3	-35.2	24.6	0.00e+00	123	39	0	662700032	42	5716
2026-01-01 23:37:02.64	129.21	24.79	-34.5	-35.4	24.6	0.00e+00	123	39	0	675282944	42	5812
2026-01-01 23:37:06.54	128.85	25.39	-34.8	-35.7	24.4	0.00e+00	121	39	0	686817280	42	6061
2026-01-01 23:37:10.44	128.46	25.99	-34.9	-35.8	24.4	0.00e+00	122	39	0	699400192	42	6126
2026-01-01 23:37:14.35	128.07	26.61	-35.0	-35.9	24.4	0.00e+00	123	40	0	710934528	42	6142
2026-01-01 23:37:18.25	127.65	27.23	-35.0	-35.9	24.3	0.00e+00	120	39	0	723517440	42	6171
2026-01-01 23:37:22.16	127.22	27.88	-35.3	-36.2	24.1	0.00e+00	125	39	0	736100352	42	6357
2026-01-01 23:37:26.07	126.77	28.53	-35.1	-36.0	24.0	0.00e+00	124	39	0	748683264	42	6267
2026-01-01 23:37:29.98	126.30	29.20	-35.2	-36.1	24.1	0.00e+00	123	39	0	760217600	42	6323
2026-01-01 23:37:33.88	125.81	29.89	-35.1	-36.0	24.3	0.00e+00	124	39	0	772800512	42	6227
2026-01-01 23:37:37.79	125.30	30.58	-34.8	-35.7	24.5	0.00e+00	121	40	0	784334848	42	6041
2026-01-01 23:37:41.70	124.77	31.30	-35.2	-36.1	24.0	0.00e+00	122	40	0	796917760	42	6329
2026-01-01 23:37:45.61	124.21	32.02	-35.7	-36.7	23.8	0.00e+00	123	39	0	809500672	44	6000
2026-01-01 23:37:49.51	123.62	32.76	-35.8	-36.7	23.8	0.00e+00	124	39	0	821035008	44	6016
2026-01-01 23:37:53.42	123.01	33.52	-35.6	-36.5	23.7	0.00e+00	123	39	0	833617920	44	5920
2026-01-01 23:37:57.32	122.36	34.29	-35.8	-36.8	23.4	0.00e+00	124	39	0	846200832	44	6082
2026-01-01 23:38:01.22	121.69	35.08	-36.8	-37.8	23.0	0.00e+00	121	39	0	857735168	46	6078
2026-01-01 23:38:05.13	120.98	35.88	-36.6	-37.6	23.2	0.00e+00	121	39	0	870318080	46	5937
2026-01-01 23:38:09.04	120.23	36.70	-36.8	-37.8	23.0	0.00e+00	123	39	0	882900992	46	6079
2026-01-01 23:38:12.95	119.44	37.53	-36.8	-37.8	22.9	0.00e+00	121	39	0	894435328	46	6107
2026-01-01 23:38:16.86	118.61	38.37	-36.6	-37.6	23.0	0.00e+00	122	39	0	907018240	46	5928
2026-01-01 23:38:20.76	117.74	39.23	-36.8	-37.8	22.9	0.00e+00	122	39	0	918552576	46	6095
2026-01-01 23:38:24.67	116.82	40.11	-36.5	-37.5	23.2	0.00e+00	120	39	0	931135488	46	5866
2026-01-01 23:38:28.58	115.85	40.99	-36.5	-37.4	23.1	0.00e+00	120	39	0	943718400	46	5847
2026-01-01 23:38:32.49	114.82	41.89	-37.3	-38.3	22.6	0.00e+00	124	39	0	955252736	46	6433
2026-01-01 23:38:36.40	113.73	42.80	-37.9	-38.9	22.0	0.00e+00	123	39	0	967835648	48	6184
2026-01-01 23:38:40.31	112.57	43.72	-38.4	-39.5	21.5	0.00e+00	122	39	0	980418560	48	6632
2026-01-01 23:38:44.21	111.35	44.65	-38.2	-39.3	21.7	0.00e+00	123	39	0	991952896	48	6470
2026-01-01 23:38:48.11	110.06	45.58	-38.4	-39.6	21.1	0.00e+00	124	39	0	1004535808	48	6653
2026-01-01 23:38:52.01	108.68	46.52	-38.7	-39.8	21.2	0.00e+00	119	39	0	1017118720	50	6120
2026-01-01 23:38:55.92	107.22	47.46	-38.2	-39.3	21.7	0.00e+00	119	39	0	1028653056	50	5737
2026-01-01 23:38:59.82	105.67	48.39	-38.5	-39.5	21.6	0.00e+00	122	39	0	1041235968	50	5922
2026-01-01 23:39:03.73	104.02	49.33	-37.9	-38.9	21.9	0.00e+00	119	39	0	1053818880	50	5495
2026-01-01 23:39:07.64	102.26	50.25	-37.3	-38.4	22.4	0.00e+00	125	39	0	1065353216	48	5792
2026-01-01 23:39:11.54	100.40	51.17	-36.7	-37.7	22.8	0.00e+00	122	39	0	1077936128	46	6035
2026-01-01 23:39:15.45	98.42	52.06	-36.5	-37.5	23.1	0.00e+00	121	39	0	1089470464	46	5892
2026-01-01 23:39:19.36	96.31	52.94	-36.4	-37.4	22.6	0.00e+00	124	39	0	1102053376	46	5836
2026-01-01 23:39:23.27	94.08	53.79	-36.5	-37.5	23.0	0.00e+00	125	39	0	1114636288	46	5861
2026-01-01 23:39:27.17	91.72	54.60	-36.4	-37.3	23.3	0.00e+00	119	39	0	1126170624	46	5777
2026-01-01 23:39:31.07	89.22	55.38	-35.4	-36.3	24.1	0.00e+00	122	40	0	1138753536	44	5764
2026-01-01 23:39:34.97	86.59	56.10	-34.7	-35.6	24.3	0.00e+00	121	39	0	1151336448	42	5928
2026-01-01 23:39:38.87	83.82	56.78	-35.0	-35.8	24.3	0.00e+00	122	39	0	1162870784	42	6130
2026-01-01 23:39:42.79	80.91	57.39	-34.8	-35.7	24.2	0.00e+00	121	39	0	1175453696	42	6011
2026-01-01 23:39:46.70	77.87	57.94	-34.5	-35.4	24.8	0.00e+00	122	39	0	1188036608	42	5803
2026-01-01 23:39:50.61	74.72	58.41	-34.8	-35.7	24.5	0.00e+00	121	39	0	1199570944	42	6038
2026-01-01 23:39:54.51	71.47	58.80	-35.2	-36.1	23.9	0.00e+00	123	39	0	1212153856	42	6349
2026-01-01 23:39:58.42	68.12	59.11	-35.1	-36.1	24.0	0.00e+00	120	39	0	1224736768	42	6286
2026-01-01 23:40:02.34	64.70	59.32	-35.4	-36.3	23.8	0.00e+00	124	39	0	1236271104	42	6445
2026-01-01 23:40:06.25	61.24	59.44	-34.3	-35.2	24.8	0.00e+00	123	39	0	1248854016	42	5688
2026-01-01 23:40:10.15	57.78	59.47	-33.9	-34.7	25.2	0.00e+00	123	39	0	1260388352	42	5381
2026-01-01 23:40:14.06	54.31	59.40	-34.8	-35.7	24.6	0.00e+00	122	39	0	1272971264	42	6009
2026-01-01 23:40:17.96	50.88	59.23	-35.0	-35.9	24.5	0.00e+00	121	39	0	1285554176	42	6195
2026-01-01 23:40:21.87	47.50	58.97	-34.6	-35.5	24.5	0.00e+00	123	39	0	1297088512	42	5897
2026-01-01 23:40:25.78	44.20	58.62	-35.3	-36.2	24.2	0.00e+00	121	39	0	1309671424	42	6390
2026-01-01 23:40:29.69	40.99	58.19	-35.6	-36.5	23.9	0.00e+00	121	39	0	1322254336	42	6601
2026-01-01 23:40:33.60	37.90	57.68	-35.2	-36.2	24.2	0.00e+00	122	39	0	1333788672	44	5662
2026-01-01 23:40:37.51	34.92	57.10	-35.2	-36.1	24.4	0.00e+00	121	39	0	1346371584	44	5611
2026-01-01 23:40:41.43	32.08	56.46	-35.9	-36.9	23.4	0.00e+00	122	39	0	1358954496	44	6165
2026-01-01 23:40:45.33	29.38	55.76	-35.9	-36.8	23.6	0.00e+00	122	39	0	1370488832	44	6107
2026-01-01 23:40:49.24	26.81	55.01	-36.6	-37.7	22.4	0.00e+00	122	39	0	1383071744	46	6013
2026-01-01 23:40:53.16	24.37	54.21	-37.6	-38.6	22.4	0.00e+00	120	40	0	1395654656	46	6703
2026-01-01 23:40:57.05	22.09	53.39	-37.9	-39.0	21.9	0.00e+00	121	39	0	1407188992	50	5575
2026-01-01 23:41:00.96	19.92	52.53	-36.5	-37.4	23.0	0.00e+00	123	40	0	1419771904	44	6540
2026-01-01 23:41:04.86	17.88	51.64	-36.6	-37.5	22.5	0.00e+00	123	39	0	1431306240	46	5919
2026-01-01 23:41:08.77	15.96	50.74	-36.7	-37.6	22.9	0.00e+00	121	39	0	1443889152	46	5987
2026-01-01 23:41:12.68	14.15	49.82	-37.3	-38.3	21.7	0.00e+00	121	39	0	1456472064	48	5778
2026-01-01 23:41:16.58	12.46	48.90	-37.6	-38.6	22.4	0.00e+00	123	39	0	1468006400	48	5951
2026-01-01 23:41:20.49	10.86	47.96	-38.5	-39.6	21.2	0.00e+00	122	40	0	1480589312	48	6705
2026-01-01 23:41:24.40	9.35	47.03	-36.5	-37.4	23.2	0.00e+00	122	40	0	1493172224	46	5850
2026-01-01 23:41:28.30	7.94	46.09	-39.0	-40.2	20.7	0.00e+00	124	40	0	1504706560	50	6357
2026-01-01 23:41:32.21	6.60	45.16	-37.5	-38.6	22.2	0.00e+00	121	40	0	1517289472	48	5949
2026-01-01 23:41:36.12	5.35	44.23	-38.0	-39.0	21.8	0.00e+00	122	40	0	1529872384	48	6273
2026-01-01 23:41:40.02	4.16	43.31	-37.6	-38.7	21.0	0.00e+00	122	40	0	1541406720	48	5999
2026-01-01 23:41:43.93	3.04	42.40	-38.3	-39.4	21.5	0.00e+00	123	40	0	1553989632	48	6529
2026-01-01 23:41:47.84	1.99	41.50	-38.6	-39.7	21.4	0.00e+00	121	39	0	1566572544	50	6018
2026-01-01 23:41:51.75	0.99	40.61	-37.6	-38.7	22.2	0.00e+00	121	39	0	1578106880	48	6005
2026-01-01 23:41:55.66	0.04	39.73	-35.3	-36.1	24.0	0.00e+00	118	40	0	1590689792	44	5657
2026-01-01 23:41:59.57	359.15	38.87	-38.3	-39.5	21.4	0.00e+00	122	39	0	1603272704	48	6607
2026-01-01 23:42:03.48	358.30	38.02	-37.2	-38.2	22.6	0.00e+00	125	40	0	1614807040	48	5681
2026-01-01 23:42:07.39	357.49	37.18	-36.2	-37.1	23.5	0.00e+00	121	40	0	1627389952	46	5622
2026-01-01 23:42:11.30	356.73	36.36	-35.7	-36.6	23.7	0.00e+00	121	40	0	1638924288	44	5950
2026-01-01 23:42:15.20	356.00	35.55	-36.2	-37.2	23.4	0.00e+00	123	39	0	1651507200	44	6373
2026-01-01 23:42:19.10	355.31	34.76	-36.5	-37.5	23.1	0.00e+00	122	40	0	1664090112	44	6605
2026-01-01 23:42:23.02	354.65	33.99	-35.4	-36.4	23.8	0.00e+00	123	40	0	1675624448	44	5799
2026-01-01 23:42:26.92	354.03	33.23	-35.8	-36.7	23.3	0.00e+00	120	39	0	1688207360	44	6060
2026-01-01 23:42:30.84	353.43	32.48	-35.9	-36.9	23.5	0.00e+00	121	40	0	1700790272	44	6146
2026-01-01 23:42:34.74	352.86	31.75	-35.7	-36.6	23.9	0.00e+00	121	40	0	1712324608	44	5949
2026-01-01 23:42:38.65	352.31	31.03	-35.2	-36.2	24.1	0.00e+00	122	40	0	1724907520	44	5662
2026-01-01 23:42:42.56	351.79	30.33	-35.3	-36.3	23.8	0.00e+00	121	40	0	1737490432	44	5736
2026-01-01 23:42:46.47	351.29	29.64	-35.9	-36.8	23.7	0.00e+00	122	39	0	1749024768	44	6114
2026-01-01 23:42:50.38	350.81	28.96	-35.9	-36.8	23.7	0.00e+00	121	40	0	1761607680	44	6113
2026-01-01 23:42:54.29	350.35	28.30	-36.0	-37.0	23.4	0.00e+00	121	40	0	1774190592	44	6251
2026-01-01 23:42:58.20	349.91	27.66	-35.6	-36.5	23.6	0.00e+00	121	40	0	1785724928	44	5921
2026-01-01 23:43:02.11	349.49	27.02	-34.8	-35.7	24.3	0.00e+00	120	40	0	1798307840	44	5384
2026-01-01 23:43:06.02	349.09	26.40	-34.1	-34.9	25.0	0.00e+00	121	40	0	1810890752	42	5522
2026-01-01 23:43:09.94	348.70	25.79	-34.3	-35.2	24.8	0.00e+00	124	39	0	1822425088	42	5690
2026-01-01 23:43:13.85	348.33	25.19	-34.5	-35.3	24.8	0.00e+00	122	40	0	1835008000	42	5777
2026-01-01 23:43:17.76	347.97	24.61	-34.7	-35.6	24.5	0.00e+00	122	40	0	1847590912	42	5939
2026-01-01 23:43:21.67	347.62	24.03	-34.9	-35.8	24.3	0.00e+00	123	40	0	1859125248	42	6108
2026-01-01 23:43:25.58	347.29	23.47	-35.1	-36.1	24.2	0.00e+00	122	40	0	1871708160	42	6278
2026-01-01 23:43:29.49	346.97	22.92	-35.3	-36.3	24.0	0.00e+00	122	40	0	1884291072	42	6425
2026-01-01 23:43:33.39	346.66	22.38	-35.3	-36.2	24.1	0.00e+00	124	40	0	1895825408	42	6404
2026-01-01 23:43:37.30	346.36	21.85	-35.5	-36.4	23.8	0.00e+00	124	40	0	1908408320	42	6529
2026-01-01 23:43:41.22	346.07	21.33	-35.3	-36.3	24.0	0.00e+00	122	40	0	1919942656	42	6440
2026-01-01 23:43:45.13	345.80	20.82	-35.1	-36.0	24.1	0.00e+00	123	40	0	1932525568	42	6226
2026-01-01 23:43:49.04	345.53	20.32	-34.9	-35.8	24.2	0.00e+00	123	40	0	1945108480	42	6131
2026-01-01 23:43:52.93	345.27	19.83	-35.0	-35.9	24.2	0.00e+00	121	40	0	1956642816	42	6146
2026-01-01 23:43:56.84	345.02	19.34	-35.1	-36.1	24.1	0.00e+00	121	40	0	1969225728	42	6290
2026-01-01 23:44:00.76	344.78	18.87	-35.4	-36.3	23.9	0.00e+00	124	40	0	1981808640	42	6491
2026-01-01 23:44:04.66	344.54	18.40	-35.5	-36.4	23.9	0.00e+00	121	40	0	1993342976	42	6553
2026-01-01 23:44:08.56	344.32	17.95	-35.7	-36.7	23.6	0.00e+00	121	40	0	2005925888	42	6728
2026-01-01 23:44:12.47	344.10	17.50	-35.7	-36.6	23.6	0.00e+00	122	40	0	2018508800	44	5958
2026-01-01 23:44:16.38	343.88	17.05	-35.8	-36.8	23.4	0.00e+00	123	40	0	2030043136	44	6065
2026-01-01 23:44:20.29	343.68	16.62	-35.9	-36.9	23.3	0.00e+00	120	40	0	2042626048	44	6182
2026-01-01 23:44:24.20	343.48	16.19	-36.1	-37.0	23.1	0.00e+00	122	40	0	2055208960	44	6275
2026-01-01 23:44:28.11	343.28	15.77	-36.2	-37.2	23.0	0.00e+00	122	40	0	2066743296	44	6410
2026-01-01 23:44:32.02	343.09	15.36	-36.2	-37.2	23.0	0.00e+00	121	40	0	2079326208	44	6395
2026-01-01 23:44:35.92	342.91	14.95	-36.1	-37.0	23.0	0.00e+00	121	40	0	2091909120	44	6269
2026-01-01 23:44:39.83	342.73	14.55	-36.2	-37.1	23.0	0.00e+00	122	40	0	2103443456	44	6338
2026-01-01 23:44:43.74	342.56	14.16	-36.0	-37.0	23.0	0.00e+00	121	40	0	2116026368	44	6236
2026-01-01 23:44:47.65	342.39	13.77	-36.0	-37.0	23.0	0.00e+00	122	40	0	2127560704	44	6217
2026-01-01 23:44:51.56	342.23	13.38	-35.9	-36.9	23.1	0.00e+00	124	40	0	2140143616	44	6151
2026-01-01 23:44:55.47	342.07	13.01	-35.8	-36.8	23.2	0.00e+00	122	40	0	2152726528	44	6079
2026-01-01 23:44:59.38	341.92	12.64	-35.9	-36.8	23.1	0.00e+00	122	40	0	2164260864	44	6133
2026-01-01 23:45:03.28	341.77	12.27	-36.1	-37.1	23.1	0.00e+00	122	40	0	2176843776	44	6297
2026-01-01 23:45:07.19	341.62	11.91	-36.4	-37.4	22.8	0.00e+00	122	40	0	2189426688	44	6528
2026-01-01 23:45:11.10	341.48	11.55	-36.3	-37.3	22.8	0.00e+00	122	40	0	2200961024	44	6485
2026-01-01 23:45:15.01	341.34	11.20	-36.4	-37.4	22.8	0.00e+00	124	40	0	2213543936	44	6513
2026-01-01 23:45:18.92	341.20	10.86	-36.4	-37.4	22.7	0.00e+00	121	40	0	2226126848	44	6532
2026-01-01 23:45:22.82	341.07	10.51	-36.4	-37.4	22.6	0.00e+00	124	40	0	2237661184	44	6534
2026-01-01 23:45:26.73	340.95	10.18	-36.7	-37.7	22.4	0.00e+00	124	40	0	2250244096	44	6744
2026-01-01 23:45:30.64	340.82	9.84	-36.6	-37.6	22.4	0.00e+00	124	40	0	2262827008	44	6696
2026-01-01 23:45:34.55	340.70	9.52	-37.0	-38.1	22.0	0.00e+00	120	40	0	2274361344	46	6299
2026-01-01 23:45:38.46	340.58	9.19	-37.1	-38.1	22.0	0.00e+00	120	40	0	2286944256	46	6327
2026-01-01 23:45:42.37	340.47	8.87	-37.0	-38.0	21.9	0.00e+00	123	40	0	2299527168	46	6273
2026-01-01 23:45:46.28	340.35	8.55	-37.2	-38.2	21.9	0.00e+00	123	40	0	2311061504	46	6415
2026-01-01 23:45:50.19	340.24	8.24	-37.5	-38.6	21.5	0.00e+00	122	40	0	2323644416	46	6662
2026-01-01 23:45:54.11	340.14	7.93	-37.3	-38.4	21.6	0.00e+00	122	40	0	2335178752	46	6535
2026-01-01 23:45:58.00	340.03	7.63	-37.3	-38.4	21.5	0.00e+00	122	40	0	2347761664	46	6556
2026-01-01 23:46:01.91	339.93	7.33	-37.5	-38.6	21.3	0.00e+00	122	40	0	2360344576	46	6683
2026-01-01 23:46:05.82	339.83	7.03	-38.0	-39.1	20.8	0.00e+00	123	40	0	2371878912	48	6344
2026-01-01 23:46:09.73	339.73	6.73	-37.6	-38.7	21.1	0.00e+00	121	40	0	2384461824	48	6048
2026-01-01 23:46:13.64	339.64	6.44	-37.6	-38.8	20.9	0.00e+00	122	40	0	2397044736	48	6075
2026-01-01 23:46:17.55	339.54	6.15	-37.8	-38.9	20.9	0.00e+00	123	40	0	2408579072	48	6171
2026-01-01 23:46:21.46	339.45	5.87	-37.6	-38.7	20.8	0.00e+00	121	40	0	2421161984	48	6060
2026-01-01 23:46:25.36	339.37	5.59	-38.3	-39.6	20.0	0.00e+00	121	40	0	2433744896	48	6658
2026-01-01 23:46:29.27	339.28	5.31	-39.3	-40.7	18.3	0.00e+00	123	40	0	2445279232	50	6798
2026-01-01 23:46:33.19	339.19	5.03	-40.7	-42.6	16.0	0.00e+00	122	40	0	2457862144	52	7515
2026-01-01 23:46:37.10	339.11	4.75	-42.2	-45.0	13.0	1.60e-05	122	40	0	2470445056	56	7832
2026-01-01 23:46:41.02	339.03	4.48	-43.5	-47.7	9.5	1.04e-02	121	40	0	2481979392	58	9537
2026-01-01 23:46:44.92	338.95	4.21	-44.2	-50.6	4.0	3.32e-01	121	40	104	2494562304	60	11903
2026-01-01 23:46:48.83	338.87	3.95	-44.5	-54.9	3.6	1.47e+00	0	40	104	2494562304	60	19546
2026-01-01 23:46:52.74	338.80	3.68	-44.5	-56.6	3.5	1.52e+00	0	40	104	2494562304	60	23667
2026-01-01 23:46:56.65	338.72	3.42	-44.5	-57.1	3.5	1.51e+00	0	40	104	2494562304	60	25179
2026-01-01 23:47:00.56	338.65	3.16	-44.6	-57.5	3.5	1.52e+00	0	40	104	2494562304	60	26298
2026-01-01 23:47:04.47	338.58	2.91	-45.9	-58.7	3.5	1.51e+00	0	40	104	2494562304	60	30389
2026-01-01 23:47:08.38	338.51	2.65	-49.3	-62.2	3.5	1.52e+00	0	40	104	2494562304	60	44973
2026-01-01 23:47:12.29	338.44	2.40	-49.4	-62.2	3.5	1.52e+00	0	40	104	2494562304	60	45199
2026-01-01 23:47:16.21	338.38	2.15	-49.3	-62.2	3.5	1.52e+00	0	40	104	2494562304	60	44989
2026-01-01 23:47:20.12	338.31	1.90	-49.3	-62.2	3.5	1.52e+00	0	40	104	2494562304	60	45259
2026-01-01 23:47:24.03	338.25	1.66	-49.3	-62.2	3.5	1.52e+00	0	40	104	2494562304	60	45113
2026-01-01 23:47:27.93	338.18	1.42	-49.3	-62.2	3.5	1.52e+00	0	40	104	2494562304	60	44992
2026-01-01 23:47:31.84	338.12	1.17	-49.3	-62.1	3.5	1.52e+00	0	40	104	2494562304	60	44685
2026-01-01 23:47:35.75	338.06	0.93	-49.3	-62.1	3.5	1.52e+00	0	40	104	2494562304	60	44826
2026-01-01 23:47:39.66	338.00	0.70	-49.3	-62.2	3.5	1.52e+00	0	40	104	2494562304	60	45048
2026-01-01 23:47:43.57	337.95	0.46	-49.3	-62.2	3.5	1.52e+00	0	40	104	2494562304	60	45224
2026-01-01 23:47:47.48	337.89	0.23	-49.3	-62.1	3.5	1.52e+00	0	40	104	2494562304	60	44859
2026-01-01 23:47:51.39	337.84	-0.01	-49.3	-62.2	3.5	1.52e+00	0	40	104	2494562304	60	44991

#Closed at: 2026-01-01 23:47:51
#Recorded file [2494 MB]: D:/lorett/data/35029_260102_113233.dat