passes_logs/2026/01/01/R4.6S_Anadyr/R4.6S_Anadyr__20260101_024456_2024-110A_rec.log

#Pass ID: 20260101_024456_2024-110A
#Satellite: 2024-110A
#Configuration: 01B_900M
#almurnet v.1.7.20251203
#Start time: 2026-01-01 02:44:58

#Version: 2.2.20231116
#Station: R4.6S_Anadyr
#Location: 177.4865 lon 64.73178 lat
#TLE: 1 60012U 24110A   25364.97239494  .00013903  00000+0  84393-3 0  9999
#TLE: 2 60012  97.5768  93.1309 0010708 111.9575 248.2794 15.10580706 86499

#Time	Az	El	Level	Level2	SNR	BER	BlckErr	Temp	State	Recorded	gain1	gain2
2026-01-01 02:44:58.20	18.52	0.09	-49.4	-64.4	3.5	1.51e+00	0	35	0	0	60	59793
2026-01-01 02:45:01.23	18.29	0.26	-49.6	-52.0	6.1	7.55e-01	0	37	104	0	60	48967
2026-01-01 02:45:04.26	18.05	0.43	-49.7	-52.2	6.1	7.54e-01	0	37	104	0	60	49685
2026-01-01 02:45:07.29	17.81	0.60	-49.2	-51.7	6.1	7.54e-01	0	37	104	0	60	47246
2026-01-01 02:45:10.32	17.56	0.77	-49.2	-51.7	6.1	7.54e-01	0	37	104	0	60	47167
2026-01-01 02:45:13.35	17.31	0.95	-48.5	-50.9	6.1	7.54e-01	0	37	104	0	60	43174
2026-01-01 02:45:16.38	17.06	1.12	-48.0	-50.5	6.1	7.54e-01	0	37	104	0	60	40920
2026-01-01 02:45:19.41	16.80	1.30	-48.0	-50.5	6.1	7.54e-01	0	37	104	0	60	41146
2026-01-01 02:45:22.44	16.54	1.47	-48.0	-50.5	6.1	7.55e-01	0	37	104	0	60	40925
2026-01-01 02:45:25.47	16.27	1.65	-48.0	-50.5	6.1	7.54e-01	0	37	104	0	60	41010
2026-01-01 02:45:28.50	16.00	1.83	-48.0	-50.5	6.1	7.55e-01	0	37	104	0	60	41012
2026-01-01 02:45:31.52	15.73	2.01	-48.0	-50.5	6.1	7.53e-01	0	37	104	0	60	41203
2026-01-01 02:45:34.55	15.45	2.19	-48.0	-50.5	6.1	7.55e-01	0	37	104	0	60	41055
2026-01-01 02:45:37.58	15.17	2.37	-48.0	-50.5	6.1	7.54e-01	0	38	104	0	60	40933
2026-01-01 02:45:40.61	14.88	2.55	-48.0	-50.5	6.1	7.54e-01	0	38	104	0	60	40929
2026-01-01 02:45:43.64	14.59	2.73	-48.0	-50.5	6.1	7.54e-01	0	38	104	0	60	41011
2026-01-01 02:45:46.67	14.29	2.92	-48.0	-50.5	6.1	7.55e-01	0	38	104	0	60	41065
2026-01-01 02:45:49.71	13.99	3.10	-48.0	-50.5	6.1	7.54e-01	0	38	104	0	60	41018
2026-01-01 02:45:52.74	13.68	3.29	-48.0	-50.5	6.1	7.54e-01	0	38	104	0	60	40971
2026-01-01 02:45:55.77	13.37	3.48	-48.0	-50.5	6.1	7.54e-01	0	38	104	0	60	41092
2026-01-01 02:45:58.80	13.05	3.66	-48.0	-50.5	6.1	7.53e-01	0	38	104	0	60	40989
2026-01-01 02:46:01.83	12.73	3.85	-48.3	-50.8	6.1	7.55e-01	0	38	104	0	60	42448
2026-01-01 02:46:04.86	12.40	4.04	-48.2	-50.7	6.1	7.54e-01	0	38	104	0	60	42066
2026-01-01 02:46:07.88	12.07	4.23	-48.4	-50.8	6.1	7.55e-01	0	38	104	0	60	42637
2026-01-01 02:46:10.91	11.73	4.42	-48.2	-50.7	6.1	7.54e-01	0	38	104	0	60	41982
2026-01-01 02:46:13.94	11.39	4.61	-48.5	-50.9	6.1	7.54e-01	0	38	104	0	60	43052
2026-01-01 02:46:16.97	11.03	4.81	-48.4	-50.8	6.1	7.55e-01	0	38	104	0	60	42708
2026-01-01 02:46:20.00	10.68	5.00	-48.5	-51.0	6.1	7.53e-01	0	38	104	0	60	43546
2026-01-01 02:46:23.02	10.32	5.20	-48.4	-50.8	6.1	7.55e-01	0	38	104	0	60	42599
2026-01-01 02:46:26.05	9.95	5.39	-48.5	-51.0	6.1	7.54e-01	0	38	104	0	60	43460
2026-01-01 02:46:29.08	9.57	5.59	-48.5	-50.9	6.1	7.55e-01	0	38	104	0	60	43167
2026-01-01 02:46:32.11	9.19	5.79	-48.6	-51.1	6.1	7.54e-01	0	38	104	0	60	43712
2026-01-01 02:46:35.14	8.80	5.99	-48.5	-51.0	6.1	7.54e-01	0	38	104	0	60	43375
2026-01-01 02:46:38.17	8.41	6.19	-48.7	-51.1	6.1	7.53e-01	0	38	104	0	60	44162
2026-01-01 02:46:41.19	8.01	6.39	-48.5	-51.0	6.1	7.54e-01	0	38	104	0	60	43462
2026-01-01 02:46:44.22	7.60	6.59	-48.7	-51.2	6.1	7.54e-01	0	38	104	0	60	44249
2026-01-01 02:46:47.25	7.18	6.79	-48.6	-51.1	6.1	7.54e-01	0	38	104	0	60	43710
2026-01-01 02:46:50.28	6.76	6.99	-48.8	-51.2	6.1	7.53e-01	0	38	104	0	60	44399
2026-01-01 02:46:53.31	6.32	7.20	-48.7	-51.1	6.1	7.54e-01	0	38	104	0	60	44142
2026-01-01 02:46:56.33	5.89	7.40	-48.8	-51.3	6.1	7.55e-01	0	38	104	0	60	44786
2026-01-01 02:46:59.36	5.44	7.61	-48.8	-51.2	6.1	7.54e-01	0	38	104	0	60	44678
2026-01-01 02:47:02.39	4.99	7.81	-48.8	-51.3	6.1	7.54e-01	0	38	104	0	60	44784
2026-01-01 02:47:05.42	4.52	8.02	-48.9	-51.3	6.1	7.54e-01	0	38	104	0	60	44947
2026-01-01 02:47:08.45	4.05	8.23	-48.9	-51.4	6.1	7.53e-01	0	38	104	0	60	45273
2026-01-01 02:47:11.47	3.57	8.43	-48.9	-51.3	6.1	7.54e-01	0	38	104	0	60	45182
2026-01-01 02:47:14.50	3.09	8.64	-48.9	-51.4	6.1	7.55e-01	0	38	104	0	60	45311
2026-01-01 02:47:17.53	2.59	8.85	-48.9	-51.5	6.1	7.55e-01	0	39	104	0	60	45843
2026-01-01 02:47:20.55	2.08	9.06	-48.9	-51.4	6.1	7.56e-01	0	39	104	0	60	45483
2026-01-01 02:47:23.59	1.57	9.27	-48.9	-51.4	6.1	7.55e-01	0	38	104	0	60	45538
2026-01-01 02:47:26.61	1.05	9.48	-48.9	-51.4	6.1	7.54e-01	0	38	104	0	60	45258
2026-01-01 02:47:29.64	0.51	9.69	-49.0	-51.4	6.1	7.54e-01	0	39	104	0	60	45708
2026-01-01 02:47:32.67	359.97	9.90	-49.0	-51.5	6.1	7.54e-01	0	38	104	0	60	45889
2026-01-01 02:47:35.70	359.42	10.11	-49.0	-51.5	6.1	7.54e-01	0	39	104	0	60	45941
2026-01-01 02:47:38.73	358.85	10.33	-49.0	-51.4	6.1	7.53e-01	0	39	104	0	60	45520
2026-01-01 02:47:41.75	358.28	10.54	-49.0	-51.4	6.1	7.54e-01	0	39	104	0	60	45681
2026-01-01 02:47:44.79	357.70	10.75	-49.0	-51.5	6.1	7.54e-01	0	39	104	0	60	45864
2026-01-01 02:47:47.82	357.10	10.96	-49.1	-51.6	6.1	7.54e-01	0	38	104	0	60	46427
2026-01-01 02:47:50.84	356.50	11.17	-49.0	-51.4	6.1	7.56e-01	0	39	104	0	60	45753
2026-01-01 02:47:53.87	355.89	11.38	-49.1	-51.6	6.1	7.55e-01	0	38	104	0	60	46638
2026-01-01 02:47:56.90	355.26	11.59	-49.1	-51.6	6.1	7.54e-01	0	38	104	0	60	46336
2026-01-01 02:47:59.93	354.63	11.80	-49.2	-51.6	6.1	7.54e-01	0	39	104	0	60	46377
2026-01-01 02:48:02.96	353.98	12.01	-49.1	-51.5	6.1	7.54e-01	0	39	104	0	60	46122
2026-01-01 02:48:05.99	353.32	12.21	-49.2	-51.6	6.1	7.53e-01	0	38	104	0	60	46720
2026-01-01 02:48:09.02	352.65	12.42	-49.2	-51.6	6.1	7.56e-01	0	39	104	0	60	46582
2026-01-01 02:48:12.05	351.97	12.62	-49.2	-51.7	6.1	7.53e-01	0	38	104	0	60	46941
2026-01-01 02:48:15.08	351.28	12.83	-49.1	-51.6	6.1	7.55e-01	0	38	104	0	60	46368
2026-01-01 02:48:18.11	350.58	13.03	-49.1	-51.6	6.1	7.53e-01	0	38	104	0	60	46614
2026-01-01 02:48:21.13	349.86	13.23	-49.2	-51.7	6.1	7.54e-01	0	38	104	0	60	46887
2026-01-01 02:48:24.17	349.13	13.43	-49.2	-51.6	6.1	7.55e-01	0	38	104	0	60	46809
2026-01-01 02:48:27.19	348.40	13.62	-49.2	-51.6	6.1	7.54e-01	0	38	104	0	60	46636
2026-01-01 02:48:30.23	347.65	13.82	-49.2	-51.7	6.1	7.55e-01	0	38	104	0	60	46969
2026-01-01 02:48:33.26	346.88	14.01	-49.2	-51.7	6.1	7.53e-01	0	38	104	0	60	47046
2026-01-01 02:48:36.29	346.11	14.20	-49.2	-51.7	6.1	7.54e-01	0	38	104	0	60	47058
2026-01-01 02:48:39.31	345.33	14.39	-49.2	-51.7	6.1	7.54e-01	0	38	104	0	60	46980
2026-01-01 02:48:42.34	344.53	14.57	-49.2	-51.7	6.1	7.54e-01	0	38	104	0	60	47054
2026-01-01 02:48:45.37	343.72	14.75	-49.2	-51.7	6.1	7.53e-01	0	38	104	0	60	46980
2026-01-01 02:48:48.39	342.90	14.93	-49.3	-51.7	6.1	7.55e-01	0	38	104	0	60	47276
2026-01-01 02:48:51.41	342.07	15.10	-49.2	-51.7	6.1	7.55e-01	0	38	104	0	60	47078
2026-01-01 02:48:54.44	341.23	15.27	-49.2	-51.7	6.1	7.54e-01	0	38	104	0	60	46982
2026-01-01 02:48:57.47	340.38	15.44	-49.3	-51.7	6.1	7.54e-01	0	38	104	0	60	47223
2026-01-01 02:49:00.50	339.51	15.60	-49.2	-51.7	6.1	7.55e-01	0	38	104	0	60	47228
2026-01-01 02:49:03.53	338.63	15.75	-49.3	-51.8	6.1	7.54e-01	0	38	104	0	60	47722
2026-01-01 02:49:06.56	337.75	15.91	-49.3	-51.8	6.1	7.54e-01	0	38	104	0	60	47712
2026-01-01 02:49:09.59	336.85	16.05	-49.3	-51.8	6.1	7.53e-01	0	38	104	0	60	47656
2026-01-01 02:49:12.62	335.94	16.19	-49.3	-51.7	6.1	7.54e-01	0	38	104	0	60	47318
2026-01-01 02:49:15.65	335.02	16.33	-49.3	-51.8	6.1	7.55e-01	0	38	104	0	60	47662
2026-01-01 02:49:18.68	334.10	16.46	-49.4	-51.9	6.1	7.54e-01	0	38	104	0	60	48029
2026-01-01 02:49:21.71	333.16	16.58	-49.3	-51.9	6.0	7.54e-01	0	38	104	0	60	48044
2026-01-01 02:49:24.74	332.22	16.70	-49.4	-51.9	6.1	7.54e-01	0	38	104	0	60	47984
2026-01-01 02:49:27.77	331.26	16.81	-49.4	-51.8	6.1	7.56e-01	0	38	104	0	60	47924
2026-01-01 02:49:30.80	330.30	16.92	-49.4	-51.9	6.1	7.53e-01	0	38	104	0	60	48038
2026-01-01 02:49:33.83	329.33	17.01	-49.4	-51.9	6.1	7.54e-01	0	38	104	0	60	48000
2026-01-01 02:49:36.86	328.35	17.11	-49.4	-51.9	6.1	7.53e-01	0	38	104	0	60	48082
2026-01-01 02:49:39.89	327.37	17.19	-49.5	-51.9	6.1	7.55e-01	0	38	104	0	60	48273
2026-01-01 02:49:42.91	326.38	17.26	-49.5	-51.9	6.1	7.54e-01	0	38	104	0	60	48341
2026-01-01 02:49:45.94	325.39	17.33	-49.4	-51.9	6.1	7.53e-01	0	38	104	0	60	48127
2026-01-01 02:49:48.97	324.39	17.39	-49.4	-51.9	6.1	7.55e-01	0	38	104	0	60	47965
2026-01-01 02:49:52.00	323.39	17.45	-49.5	-51.9	6.1	7.54e-01	0	38	104	0	60	47998
2026-01-01 02:49:55.03	322.38	17.49	-49.4	-51.8	6.1	7.55e-01	0	38	104	0	60	47581
2026-01-01 02:49:58.06	321.37	17.53	-49.4	-51.9	6.1	7.54e-01	0	38	104	0	60	48017
2026-01-01 02:50:01.09	320.35	17.56	-49.4	-51.8	6.1	7.54e-01	0	38	104	0	60	47787
2026-01-01 02:50:04.12	319.34	17.58	-49.5	-51.9	6.1	7.53e-01	0	38	104	0	60	48114
2026-01-01 02:50:07.15	318.32	17.59	-49.5	-52.0	6.1	7.55e-01	0	38	104	0	60	48578
2026-01-01 02:50:10.17	317.30	17.60	-49.3	-51.8	6.1	7.55e-01	0	38	104	0	60	47703
2026-01-01 02:50:13.20	316.29	17.59	-49.5	-52.0	6.1	7.55e-01	0	38	104	0	60	48636
2026-01-01 02:50:16.23	315.27	17.58	-49.5	-52.0	6.1	7.53e-01	0	38	104	0	60	48583
2026-01-01 02:50:19.26	314.25	17.56	-49.4	-51.9	6.1	7.54e-01	0	38	104	0	60	48346
2026-01-01 02:50:22.28	313.24	17.53	-49.4	-51.9	6.1	7.54e-01	0	38	104	0	60	48065
2026-01-01 02:50:25.31	312.23	17.50	-49.5	-52.0	6.1	7.54e-01	0	38	104	0	60	48753
2026-01-01 02:50:28.35	311.22	17.45	-49.5	-51.9	6.1	7.54e-01	0	38	104	0	60	48439
2026-01-01 02:50:31.38	310.21	17.40	-49.5	-51.9	6.1	7.55e-01	0	38	104	0	60	48350
2026-01-01 02:50:34.40	309.21	17.34	-49.4	-51.9	6.1	7.54e-01	0	38	104	0	60	48208
2026-01-01 02:50:37.43	308.22	17.27	-49.4	-51.9	6.1	7.54e-01	0	38	104	0	60	48067
2026-01-01 02:50:40.46	307.22	17.19	-49.3	-51.8	6.1	7.52e-01	0	38	104	0	60	47581
2026-01-01 02:50:43.49	306.24	17.11	-49.2	-51.8	6.1	7.52e-01	0	38	104	0	60	47479
2026-01-01 02:50:46.51	305.26	17.02	-49.2	-51.7	6.1	7.54e-01	0	38	104	0	60	47045
2026-01-01 02:50:49.54	304.29	16.92	-49.1	-51.7	6.1	7.54e-01	0	38	104	0	60	47005
2026-01-01 02:50:52.57	303.33	16.82	-49.1	-51.6	6.1	7.54e-01	0	38	104	0	60	46775
2026-01-01 02:50:55.59	302.37	16.71	-49.3	-51.9	6.1	7.53e-01	0	38	104	0	60	47969
2026-01-01 02:50:58.62	301.43	16.59	-49.4	-51.8	6.1	7.55e-01	0	38	104	0	60	47727
2026-01-01 02:51:01.65	300.49	16.46	-49.3	-51.8	6.1	7.54e-01	0	38	104	0	60	47853
2026-01-01 02:51:04.68	299.56	16.33	-49.4	-51.9	6.1	7.54e-01	0	38	104	0	60	48021
2026-01-01 02:51:07.71	298.64	16.20	-49.5	-51.9	6.1	7.54e-01	0	38	104	0	60	48221
2026-01-01 02:51:10.73	297.73	16.06	-49.4	-51.9	6.1	7.55e-01	0	38	104	0	60	48295
2026-01-01 02:51:13.76	296.83	15.91	-49.5	-51.9	6.1	7.54e-01	0	38	104	0	60	48317
2026-01-01 02:51:16.79	295.94	15.76	-49.5	-51.9	6.1	7.55e-01	0	38	104	0	60	48378
2026-01-01 02:51:19.82	295.06	15.60	-49.5	-52.0	6.1	7.54e-01	0	38	104	0	60	48541
2026-01-01 02:51:22.85	294.19	15.44	-49.5	-51.9	6.1	7.55e-01	0	38	104	0	60	48272
2026-01-01 02:51:25.88	293.33	15.28	-49.5	-52.0	6.1	7.54e-01	0	38	104	0	60	48574
2026-01-01 02:51:28.91	292.48	15.11	-49.5	-51.9	6.1	7.55e-01	0	38	104	0	60	48410
2026-01-01 02:51:31.94	291.65	14.93	-49.5	-51.9	6.1	7.55e-01	0	38	104	0	60	48338
2026-01-01 02:51:34.97	290.82	14.75	-49.5	-51.9	6.1	7.53e-01	0	38	104	0	60	48213
2026-01-01 02:51:38.00	290.01	14.57	-49.4	-51.9	6.1	7.54e-01	0	38	104	0	60	48241
2026-01-01 02:51:41.03	289.21	14.39	-49.4	-51.9	6.1	7.54e-01	0	38	104	0	60	48107
2026-01-01 02:51:44.06	288.42	14.20	-49.4	-51.9	6.1	7.55e-01	0	38	104	0	60	47956
2026-01-01 02:51:47.09	287.64	14.01	-49.4	-51.8	6.1	7.54e-01	0	38	104	0	60	47755
2026-01-01 02:51:50.11	286.88	13.82	-49.4	-51.9	6.0	7.55e-01	0	38	104	0	60	48170
2026-01-01 02:51:53.14	286.13	13.62	-49.4	-51.8	6.1	7.54e-01	0	38	104	0	60	47881
2026-01-01 02:51:56.17	285.38	13.43	-49.4	-51.8	6.1	7.53e-01	0	38	104	0	60	47858
2026-01-01 02:51:59.20	284.65	13.23	-49.4	-51.8	6.1	7.55e-01	0	38	104	0	60	47528
2026-01-01 02:52:02.23	283.94	13.03	-49.4	-51.8	6.1	7.55e-01	0	38	104	0	60	47821
2026-01-01 02:52:05.26	283.23	12.82	-49.4	-51.8	6.1	7.53e-01	0	38	104	0	60	47847
2026-01-01 02:52:08.29	282.53	12.62	-49.4	-51.8	6.1	7.55e-01	0	38	104	0	60	47526
2026-01-01 02:52:11.32	281.85	12.41	-49.3	-51.8	6.1	7.55e-01	0	38	104	0	60	47423
2026-01-01 02:52:14.35	281.17	12.21	-49.3	-51.8	6.1	7.54e-01	0	38	104	0	60	47419
2026-01-01 02:52:17.37	280.51	12.00	-49.3	-51.7	6.1	7.54e-01	0	38	104	0	60	47376
2026-01-01 02:52:20.41	279.86	11.79	-49.3	-51.8	6.1	7.54e-01	0	38	104	0	60	47463
2026-01-01 02:52:23.43	279.22	11.58	-49.3	-51.7	6.1	7.53e-01	0	38	104	0	60	47289
2026-01-01 02:52:26.46	278.60	11.37	-49.2	-51.7	6.1	7.55e-01	0	38	104	0	60	47128
2026-01-01 02:52:29.49	277.98	11.16	-49.3	-51.7	6.1	7.56e-01	0	38	104	0	60	46994
2026-01-01 02:52:32.51	277.37	10.95	-49.3	-51.7	6.1	7.54e-01	0	38	104	0	60	47130
2026-01-01 02:52:35.53	276.78	10.74	-49.2	-51.7	6.1	7.55e-01	0	38	104	0	60	46872
2026-01-01 02:52:38.56	276.19	10.52	-49.2	-51.7	6.0	7.54e-01	0	38	104	0	60	47085
2026-01-01 02:52:41.59	275.61	10.31	-49.2	-51.7	6.1	7.54e-01	0	38	104	0	60	46952
2026-01-01 02:52:44.61	275.05	10.10	-49.2	-51.7	6.1	7.54e-01	0	38	104	0	60	46938
2026-01-01 02:52:47.64	274.49	9.89	-49.2	-51.6	6.1	7.53e-01	0	38	104	0	60	46559
2026-01-01 02:52:50.68	273.94	9.68	-49.1	-51.6	6.1	7.53e-01	0	38	104	0	60	46350
2026-01-01 02:52:53.70	273.41	9.47	-49.1	-51.6	6.1	7.54e-01	0	38	104	0	60	46708
2026-01-01 02:52:56.73	272.88	9.25	-49.1	-51.6	6.1	7.55e-01	0	38	104	0	60	46373
2026-01-01 02:52:59.75	272.36	9.04	-49.1	-51.6	6.1	7.54e-01	0	38	104	0	60	46508
2026-01-01 02:53:02.79	271.85	8.83	-49.1	-51.5	6.1	7.53e-01	0	38	104	0	60	46259
2026-01-01 02:53:05.81	271.35	8.62	-49.1	-51.6	6.1	7.54e-01	0	38	104	0	60	46440
2026-01-01 02:53:08.84	270.86	8.41	-49.1	-51.5	6.1	7.54e-01	0	38	104	0	60	45933
2026-01-01 02:53:11.87	270.38	8.20	-49.0	-51.5	6.1	7.54e-01	0	38	104	0	60	45856
2026-01-01 02:53:14.90	269.91	8.00	-49.0	-51.4	6.1	7.55e-01	0	38	104	0	60	45665
2026-01-01 02:53:17.93	269.44	7.79	-49.0	-51.5	6.1	7.54e-01	0	38	104	0	60	46073
2026-01-01 02:53:20.96	268.98	7.58	-49.0	-51.5	6.1	7.54e-01	0	38	104	0	60	45922
2026-01-01 02:53:23.98	268.53	7.38	-49.0	-51.4	6.1	7.55e-01	0	38	104	0	60	45669
2026-01-01 02:53:27.01	268.09	7.17	-48.9	-51.3	6.0	7.54e-01	0	38	104	0	60	45094
2026-01-01 02:53:30.04	267.66	6.97	-48.9	-51.4	6.1	7.55e-01	0	38	104	0	60	45714
2026-01-01 02:53:33.07	267.23	6.76	-48.9	-51.4	6.1	7.54e-01	0	38	104	0	60	45484
2026-01-01 02:53:36.10	266.81	6.56	-48.9	-51.3	6.1	7.54e-01	0	38	104	0	60	45009
2026-01-01 02:53:39.12	266.40	6.36	-48.8	-51.2	6.1	7.55e-01	0	38	104	0	60	44583
2026-01-01 02:53:42.15	265.99	6.16	-48.9	-51.4	6.1	7.54e-01	0	38	104	0	60	45386
2026-01-01 02:53:45.18	265.59	5.95	-48.8	-51.3	6.1	7.55e-01	0	38	104	0	60	44992
2026-01-01 02:53:48.21	265.20	5.75	-48.7	-51.2	6.1	7.54e-01	0	38	104	0	60	44361
2026-01-01 02:53:51.24	264.82	5.56	-48.7	-51.1	6.1	7.55e-01	0	38	104	0	60	43994
2026-01-01 02:53:54.27	264.44	5.36	-48.8	-51.2	6.1	7.54e-01	0	38	104	0	60	44610
2026-01-01 02:53:57.29	264.07	5.16	-48.7	-51.2	6.1	7.55e-01	0	38	104	0	60	44354
2026-01-01 02:54:00.33	263.70	4.97	-48.6	-51.1	6.1	7.55e-01	0	38	104	0	60	43842
2026-01-01 02:54:03.36	263.34	4.77	-48.5	-50.9	6.1	7.53e-01	0	38	104	0	60	43125
2026-01-01 02:54:06.39	262.99	4.58	-48.6	-51.0	6.1	7.54e-01	0	38	104	0	60	43650
2026-01-01 02:54:09.41	262.64	4.38	-48.6	-51.0	6.1	7.54e-01	0	38	104	0	60	43607
2026-01-01 02:54:12.44	262.30	4.19	-48.5	-51.0	6.1	7.55e-01	0	38	104	0	60	43266
2026-01-01 02:54:15.47	261.96	4.00	-48.3	-50.8	6.1	7.54e-01	0	38	104	0	60	42291
2026-01-01 02:54:18.50	261.63	3.81	-48.4	-50.8	6.1	7.54e-01	0	38	104	0	60	42579
2026-01-01 02:54:21.53	261.31	3.62	-48.4	-50.9	6.1	7.55e-01	0	38	104	0	60	42776
2026-01-01 02:54:24.55	260.99	3.43	-48.2	-50.7	6.1	7.55e-01	0	38	104	0	60	42036
2026-01-01 02:54:27.58	260.67	3.25	-48.1	-50.5	6.1	7.54e-01	0	38	104	0	60	41184
2026-01-01 02:54:30.61	260.36	3.06	-48.1	-50.5	6.1	7.53e-01	0	38	104	0	60	40961
2026-01-01 02:54:33.64	260.06	2.87	-49.4	-51.9	6.1	7.54e-01	0	38	104	0	60	48076
2026-01-01 02:54:36.67	259.76	2.69	-49.7	-52.2	6.1	7.54e-01	0	38	104	0	60	49696
2026-01-01 02:54:39.70	259.46	2.51	-49.8	-52.2	6.1	7.55e-01	0	38	104	0	60	50069
2026-01-01 02:54:42.73	259.17	2.32	-49.4	-51.9	6.1	7.56e-01	0	38	104	0	60	48326
2026-01-01 02:54:45.75	258.89	2.14	-49.4	-51.9	6.1	7.54e-01	0	38	104	0	60	48196
2026-01-01 02:54:48.78	258.61	1.96	-49.6	-52.1	6.1	7.55e-01	0	38	104	0	60	49278
2026-01-01 02:54:51.81	258.33	1.78	-49.6	-52.1	6.1	7.54e-01	0	38	104	0	60	49092
2026-01-01 02:54:54.84	258.06	1.60	-49.6	-52.0	6.1	7.55e-01	0	38	104	0	60	48974
2026-01-01 02:54:57.87	257.79	1.43	-49.6	-52.1	6.1	7.54e-01	0	38	104	0	60	49337
2026-01-01 02:55:00.90	257.52	1.25	-49.6	-52.1	6.1	7.55e-01	0	38	104	0	60	49104
2026-01-01 02:55:03.93	257.26	1.07	-49.6	-52.1	6.0	7.54e-01	0	38	104	0	60	49434
2026-01-01 02:55:06.96	257.01	0.90	-49.6	-52.1	6.1	7.54e-01	0	38	104	0	60	49115
2026-01-01 02:55:09.99	256.75	0.72	-49.6	-52.1	6.1	7.55e-01	0	38	104	0	60	49134
2026-01-01 02:55:13.02	256.51	0.55	-49.6	-52.1	6.1	7.54e-01	0	38	104	0	60	49178
2026-01-01 02:55:16.05	256.26	0.38	-49.6	-52.1	6.1	7.56e-01	0	38	104	0	60	49203
2026-01-01 02:55:19.08	256.02	0.21	-49.6	-52.0	6.1	7.54e-01	0	38	104	0	60	49000
2026-01-01 02:55:22.11	255.78	0.03	-49.6	-52.1	6.1	7.54e-01	0	38	104	0	60	49075

#Closed at: 2026-01-01 02:55:23
#Recorded file [0 MB]: D:/lorett/data/35029_260101_144458.dat