passes_logs/2026/01/01/R4.6S_Anadyr/R4.6S_Anadyr__20260101_044517_FENGYUN_3D_rec.log

#Pass ID: 20260101_044517_FENGYUN 3D
#Satellite: FENGYUN 3D
#Configuration: FENGYUN 3D
#almurnet v.1.7.20251203
#Start time: 2026-01-01 04:45:20

#Version: 2.2.20231116
#Station: R4.6S_Anadyr
#Location: 177.4865 lon 64.73178 lat
#TLE: 1 43010U 17072A   25364.99193771  .00000012  00000+0  27255-4 0  9998
#TLE: 2 43010  98.9913 331.5779 0001825 135.6238 224.5084 14.19689358421127

#Time	Az	El	Level	Level2	SNR	BER	BlckErr	Temp	State	Recorded	gain1	gain2
2026-01-01 04:45:20.25	222.89	0.12	-49.3	-60.9	3.4	8.46e-01	0	35	0	0	60	39965
2026-01-01 04:45:24.28	223.21	0.32	-49.4	-61.6	3.6	8.45e-01	0	36	104	0	60	43346
2026-01-01 04:45:28.32	223.54	0.51	-49.5	-61.7	3.6	8.45e-01	0	37	104	0	60	43722
2026-01-01 04:45:32.36	223.86	0.70	-49.2	-61.5	3.6	8.46e-01	0	37	104	0	60	43054
2026-01-01 04:45:36.40	224.19	0.90	-46.5	-58.3	3.6	8.45e-01	0	37	104	0	60	29598
2026-01-01 04:45:40.44	224.53	1.10	-46.7	-58.7	3.6	8.46e-01	0	37	104	0	60	31189
2026-01-01 04:45:44.47	224.87	1.29	-46.7	-58.7	3.6	8.46e-01	0	37	104	0	60	31143
2026-01-01 04:45:48.51	225.21	1.49	-46.7	-58.7	3.6	8.45e-01	0	37	104	0	60	31076
2026-01-01 04:45:52.55	225.56	1.69	-46.7	-58.7	3.6	8.44e-01	0	37	104	0	60	30978
2026-01-01 04:45:56.59	225.91	1.88	-46.7	-58.7	3.6	8.46e-01	0	37	104	0	60	31064
2026-01-01 04:46:00.63	226.27	2.08	-46.7	-58.6	3.6	8.46e-01	0	37	104	0	60	30682
2026-01-01 04:46:04.67	226.63	2.28	-46.7	-58.6	3.6	8.45e-01	0	37	104	0	60	30799
2026-01-01 04:46:08.71	227.00	2.48	-46.6	-57.8	3.6	8.46e-01	0	37	104	0	60	28219
2026-01-01 04:46:12.75	227.37	2.68	-46.2	-54.4	4.2	8.30e-01	0	37	0	0	60	18920
2026-01-01 04:46:16.79	227.74	2.88	-44.8	-48.7	8.3	6.18e-02	0	37	0	16777216	60	9856
2026-01-01 04:46:20.83	228.12	3.08	-47.0	-58.7	3.6	1.16e-01	0	37	104	37748736	60	31025
2026-01-01 04:46:24.87	228.51	3.28	-44.6	-49.1	7.4	2.10e-02	0	37	104	42991616	60	10296
2026-01-01 04:46:28.91	228.90	3.49	-44.7	-48.2	9.4	1.75e-02	0	37	0	63963136	60	9247
2026-01-01 04:46:32.95	229.30	3.69	-44.9	-48.4	9.4	2.43e-02	0	37	0	87031808	60	9547
2026-01-01 04:46:36.99	229.70	3.89	-45.2	-49.0	8.8	4.17e-02	0	37	0	110100480	60	10226
2026-01-01 04:46:41.03	230.10	4.09	-45.3	-49.1	8.7	4.63e-02	0	37	0	132120576	60	10322
2026-01-01 04:46:45.07	230.52	4.30	-45.5	-49.6	8.3	5.66e-02	0	37	0	155189248	60	10872
2026-01-01 04:46:49.11	230.93	4.50	-45.6	-49.8	7.9	7.57e-02	0	37	0	178257920	60	11182
2026-01-01 04:46:53.15	231.36	4.70	-45.7	-49.7	8.2	6.39e-02	0	37	0	200278016	60	11102
2026-01-01 04:46:57.19	231.78	4.91	-46.0	-50.1	7.9	8.11e-02	0	37	0	223346688	60	11542
2026-01-01 04:47:01.23	232.22	5.11	-46.2	-50.4	7.8	9.16e-02	0	37	0	246415360	60	11939
2026-01-01 04:47:05.27	232.66	5.32	-46.2	-50.4	7.8	1.03e-01	0	37	0	269484032	60	11992
2026-01-01 04:47:09.31	233.11	5.52	-46.2	-50.3	7.9	8.77e-02	0	37	0	291504128	60	11881
2026-01-01 04:47:13.35	233.56	5.73	-46.2	-50.2	8.1	6.44e-02	0	38	0	314572800	60	11682
2026-01-01 04:47:17.39	234.02	5.93	-46.1	-49.8	8.6	4.39e-02	0	38	0	336592896	60	11226
2026-01-01 04:47:21.43	234.48	6.14	-46.0	-49.7	8.9	3.16e-02	0	38	0	359661568	60	11069
2026-01-01 04:47:25.47	234.95	6.34	-45.9	-49.5	9.2	2.95e-02	0	38	0	382730240	60	10797
2026-01-01 04:47:29.51	235.43	6.55	-45.6	-48.9	9.9	1.32e-02	0	38	0	404750336	60	10070
2026-01-01 04:47:33.55	235.92	6.75	-45.4	-48.4	10.6	5.09e-03	0	38	0	427819008	60	9514
2026-01-01 04:47:37.59	236.41	6.96	-44.8	-47.4	11.7	8.07e-04	0	38	0	450887680	60	8441
2026-01-01 04:47:41.63	236.90	7.16	-44.2	-46.5	12.7	1.54e-04	0	38	0	473956352	60	7657
2026-01-01 04:47:45.67	237.41	7.37	-43.8	-45.9	13.5	3.20e-05	0	38	0	495976448	60	7137
2026-01-01 04:47:49.71	237.92	7.57	-43.0	-44.8	14.6	2.20e-06	0	38	0	519045120	60	6268
2026-01-01 04:47:53.75	238.44	7.78	-42.7	-44.5	14.8	0.00e+00	0	38	0	541065216	60	6052
2026-01-01 04:47:57.79	238.96	7.98	-42.1	-43.6	15.7	0.00e+00	0	38	0	564133888	58	6143
2026-01-01 04:48:01.83	239.50	8.18	-41.3	-42.7	16.9	0.00e+00	0	38	0	587202560	56	6190
2026-01-01 04:48:05.87	240.03	8.39	-40.4	-41.6	17.9	0.00e+00	0	38	0	610271232	54	6124
2026-01-01 04:48:09.91	240.58	8.59	-39.7	-40.8	18.7	0.00e+00	0	38	0	632291328	52	6281
2026-01-01 04:48:13.95	241.14	8.79	-39.1	-40.1	19.4	0.00e+00	0	38	0	655360000	52	5806
2026-01-01 04:48:17.99	241.70	8.99	-38.3	-39.3	20.2	0.00e+00	0	38	0	678428672	50	5926
2026-01-01 04:48:22.03	242.27	9.19	-37.7	-38.6	20.9	0.00e+00	0	38	0	700448768	48	6110
2026-01-01 04:48:26.07	242.84	9.39	-36.9	-37.7	21.7	0.00e+00	0	38	0	723517440	48	5539
2026-01-01 04:48:30.11	243.43	9.59	-36.5	-37.3	22.2	0.00e+00	0	38	0	745537536	46	5934
2026-01-01 04:48:34.15	244.02	9.79	-36.0	-36.8	22.8	0.00e+00	0	38	0	768606208	46	5594
2026-01-01 04:48:38.19	244.62	9.98	-35.5	-36.3	23.2	0.00e+00	0	38	0	791674880	44	5911
2026-01-01 04:48:42.23	245.22	10.18	-35.2	-35.9	23.6	0.00e+00	0	38	0	814743552	44	5647
2026-01-01 04:48:46.27	245.84	10.37	-34.9	-35.6	23.9	0.00e+00	0	38	0	836763648	44	5497
2026-01-01 04:48:50.31	246.46	10.57	-34.9	-35.7	23.9	0.00e+00	0	38	0	859832320	42	6180
2026-01-01 04:48:54.35	247.09	10.76	-34.6	-35.3	24.3	0.00e+00	0	38	0	882900992	42	5908
2026-01-01 04:48:58.39	247.73	10.95	-34.4	-35.1	24.5	0.00e+00	0	38	0	904921088	42	5810
2026-01-01 04:49:02.42	248.38	11.13	-34.1	-34.8	24.7	0.00e+00	0	38	0	927989760	42	5617
2026-01-01 04:49:06.46	249.03	11.32	-34.1	-34.8	24.8	0.00e+00	0	38	0	950009856	42	5575
2026-01-01 04:49:10.50	249.70	11.50	-34.1	-34.8	24.8	0.00e+00	0	38	0	973078528	42	5576
2026-01-01 04:49:14.53	250.36	11.68	-34.2	-34.9	24.7	0.00e+00	0	38	0	996147200	42	5676
2026-01-01 04:49:18.57	251.04	11.86	-34.0	-34.7	24.8	0.00e+00	0	38	0	1019215872	42	5527
2026-01-01 04:49:22.61	251.73	12.04	-34.0	-34.7	24.9	0.00e+00	0	38	0	1041235968	42	5539
2026-01-01 04:49:26.66	252.43	12.21	-33.8	-34.4	25.1	0.00e+00	0	38	0	1064304640	42	5371
2026-01-01 04:49:30.69	253.13	12.38	-33.8	-34.5	25.1	0.00e+00	0	38	0	1087373312	40	6047
2026-01-01 04:49:34.73	253.84	12.55	-33.7	-34.4	25.2	0.00e+00	0	38	0	1109393408	40	5974
2026-01-01 04:49:38.77	254.56	12.72	-33.5	-34.2	25.4	0.00e+00	0	38	0	1132462080	40	5835
2026-01-01 04:49:42.80	255.28	12.88	-33.6	-34.3	25.2	0.00e+00	0	38	0	1154482176	40	5951
2026-01-01 04:49:46.84	256.02	13.04	-33.8	-34.5	25.1	0.00e+00	0	38	0	1177550848	40	6062
2026-01-01 04:49:50.88	256.76	13.20	-33.6	-34.3	25.3	0.00e+00	0	38	0	1200619520	40	5897
2026-01-01 04:49:54.91	257.50	13.35	-33.4	-34.1	25.5	0.00e+00	0	38	0	1223688192	40	5769
2026-01-01 04:49:58.95	258.26	13.50	-33.7	-34.4	25.1	0.00e+00	0	38	0	1245708288	40	6003
2026-01-01 04:50:03.00	259.03	13.65	-33.6	-34.2	25.4	0.00e+00	0	38	0	1268776960	40	5882
2026-01-01 04:50:07.03	259.80	13.79	-33.1	-33.8	25.7	0.00e+00	0	38	0	1291845632	40	5597
2026-01-01 04:50:11.07	260.57	13.93	-33.5	-34.2	25.4	0.00e+00	0	38	0	1313865728	40	5854
2026-01-01 04:50:15.11	261.36	14.06	-33.4	-34.0	25.5	0.00e+00	0	38	0	1336934400	40	5750
2026-01-01 04:50:19.15	262.15	14.19	-33.1	-33.8	25.7	0.00e+00	0	38	0	1358954496	40	5568
2026-01-01 04:50:23.19	262.95	14.32	-33.0	-33.7	25.8	0.00e+00	0	38	0	1382023168	40	5507
2026-01-01 04:50:27.23	263.76	14.44	-33.1	-33.7	25.7	0.00e+00	0	38	0	1405091840	40	5559
2026-01-01 04:50:31.27	264.57	14.56	-36.8	-37.7	25.2	0.00e+00	0	38	0	1428160512	56	3495
2026-01-01 04:50:35.31	265.38	14.67	-33.3	-34.0	25.5	0.00e+00	0	38	0	1450180608	40	5744
2026-01-01 04:50:39.35	266.21	14.77	-33.3	-34.0	25.6	0.00e+00	0	38	0	1473249280	40	5696
2026-01-01 04:50:43.39	267.04	14.87	-33.2	-33.9	25.6	0.00e+00	0	38	0	1496317952	40	5681
2026-01-01 04:50:47.42	267.87	14.97	-32.9	-33.6	25.9	0.00e+00	0	37	0	1518338048	40	5462
2026-01-01 04:50:51.46	268.71	15.06	-33.2	-33.8	25.7	0.00e+00	0	38	0	1541406720	40	5610
2026-01-01 04:50:55.50	269.55	15.15	-33.0	-33.7	25.8	0.00e+00	0	38	0	1563426816	40	5526
2026-01-01 04:50:59.54	270.40	15.23	-33.1	-33.7	25.7	0.00e+00	0	38	0	1586495488	40	5536
2026-01-01 04:51:03.58	271.25	15.30	-33.1	-33.7	25.8	0.00e+00	0	38	0	1609564160	40	5563
2026-01-01 04:51:07.62	272.11	15.37	-33.3	-34.0	25.5	0.00e+00	0	38	0	1632632832	40	5728
2026-01-01 04:51:11.66	272.97	15.43	-33.1	-33.8	25.8	0.00e+00	0	38	0	1654652928	40	5582
2026-01-01 04:51:15.70	273.83	15.49	-32.8	-33.5	25.9	0.00e+00	0	38	0	1677721600	40	5389
2026-01-01 04:51:19.74	274.70	15.54	-33.1	-33.7	25.6	0.00e+00	0	38	0	1700790272	40	5553
2026-01-01 04:51:23.78	275.56	15.58	-32.8	-33.4	26.0	0.00e+00	0	38	0	1722810368	40	5369
2026-01-01 04:51:27.82	276.44	15.62	-32.9	-33.5	25.9	0.00e+00	0	38	0	1745879040	40	5387
2026-01-01 04:51:31.85	277.31	15.65	-32.9	-33.5	26.0	0.00e+00	0	38	0	1767899136	38	6078
2026-01-01 04:51:35.89	278.18	15.68	-32.9	-33.6	25.9	0.00e+00	0	37	0	1790967808	38	6128
2026-01-01 04:51:39.93	279.06	15.70	-32.9	-33.6	25.8	0.00e+00	0	37	0	1814036480	38	6135
2026-01-01 04:51:43.97	279.93	15.71	-33.1	-33.8	25.8	0.00e+00	0	37	0	1837105152	38	6262
2026-01-01 04:51:48.01	280.81	15.72	-33.0	-33.7	25.8	0.00e+00	0	37	0	1859125248	38	6207
2026-01-01 04:51:52.06	281.69	15.72	-33.0	-33.7	25.8	0.00e+00	0	37	0	1882193920	38	6187
2026-01-01 04:51:56.09	282.57	15.72	-33.0	-33.7	25.8	0.00e+00	0	37	0	1905262592	38	6176
2026-01-01 04:52:00.13	283.44	15.71	-33.0	-33.6	25.7	0.00e+00	0	37	0	1927282688	38	6168
2026-01-01 04:52:04.17	284.32	15.69	-33.2	-33.8	25.5	0.00e+00	0	37	0	1950351360	38	6308
2026-01-01 04:52:08.21	285.19	15.66	-33.1	-33.7	25.7	0.00e+00	0	37	0	1972371456	38	6232
2026-01-01 04:52:12.24	286.06	15.63	-33.2	-33.8	25.7	0.00e+00	0	37	0	1995440128	38	6283
2026-01-01 04:52:16.28	286.93	15.60	-32.9	-33.6	25.9	0.00e+00	0	37	0	2018508800	38	6169
2026-01-01 04:52:20.32	287.80	15.55	-33.1	-33.8	25.6	0.00e+00	0	37	0	2041577472	38	6273
2026-01-01 04:52:24.36	288.67	15.51	-33.1	-33.8	25.7	0.00e+00	0	37	0	2063597568	38	6268
2026-01-01 04:52:28.40	289.53	15.45	-33.2	-34.0	25.7	0.00e+00	0	37	0	2086666240	38	6402
2026-01-01 04:52:32.44	290.39	15.39	-33.4	-34.1	25.5	0.00e+00	0	37	0	2109734912	38	6499
2026-01-01 04:52:36.47	291.25	15.32	-33.5	-34.2	25.4	0.00e+00	0	38	0	2131755008	38	6567
2026-01-01 04:52:40.51	292.10	15.25	-33.3	-34.0	25.6	0.00e+00	0	37	0	2154823680	38	6434
2026-01-01 04:52:44.55	292.95	15.17	-33.6	-34.3	25.4	0.00e+00	0	37	0	2176843776	38	6636
2026-01-01 04:52:48.59	293.79	15.09	-33.3	-33.9	25.6	0.00e+00	0	37	0	2199912448	38	6390
2026-01-01 04:52:52.63	294.63	15.00	-33.5	-34.2	25.4	0.00e+00	0	37	0	2222981120	38	6612
2026-01-01 04:52:56.66	295.46	14.91	-33.4	-34.1	25.5	0.00e+00	0	37	0	2245001216	38	6475
2026-01-01 04:53:00.70	296.29	14.81	-33.8	-34.5	25.1	0.00e+00	0	37	0	2268069888	40	6074
2026-01-01 04:53:04.74	297.11	14.71	-33.7	-34.4	25.1	0.00e+00	0	37	0	2291138560	40	5985
2026-01-01 04:53:08.78	297.93	14.60	-33.8	-34.4	25.1	0.00e+00	0	37	0	2314207232	40	6026
2026-01-01 04:53:12.82	298.74	14.48	-33.7	-34.4	25.2	0.00e+00	0	37	0	2336227328	40	6018
2026-01-01 04:53:16.85	299.54	14.36	-33.6	-34.3	25.2	0.00e+00	0	37	0	2359296000	40	5925
2026-01-01 04:53:20.89	300.34	14.24	-33.4	-34.1	25.4	0.00e+00	0	37	0	2381316096	40	5793
2026-01-01 04:53:24.93	301.13	14.11	-33.6	-34.3	25.2	0.00e+00	0	37	0	2404384768	40	5935
2026-01-01 04:53:28.97	301.92	13.98	-33.8	-34.4	25.2	0.00e+00	0	37	0	2427453440	40	6033
2026-01-01 04:53:33.01	302.70	13.84	-33.6	-34.3	25.4	0.00e+00	0	37	0	2449473536	40	5939
2026-01-01 04:53:37.05	303.47	13.70	-33.7	-34.4	25.2	0.00e+00	0	37	0	2472542208	40	6009
2026-01-01 04:53:41.08	304.23	13.56	-33.8	-34.5	25.2	0.00e+00	0	37	0	2495610880	40	6051
2026-01-01 04:53:45.12	304.99	13.41	-33.8	-34.4	25.2	0.00e+00	0	37	0	2518679552	40	6012
2026-01-01 04:53:49.16	305.74	13.26	-33.9	-34.6	25.0	0.00e+00	0	37	0	2540699648	40	6141
2026-01-01 04:53:53.20	306.48	13.11	-34.0	-34.7	24.9	0.00e+00	0	37	0	2563768320	40	6244
2026-01-01 04:53:57.23	307.21	12.95	-34.0	-34.8	24.9	0.00e+00	0	37	0	2585788416	40	6250
2026-01-01 04:54:01.27	307.94	12.79	-34.2	-35.0	24.8	0.00e+00	0	37	0	2608857088	40	6412
2026-01-01 04:54:05.31	308.65	12.62	-34.0	-34.7	24.9	0.00e+00	0	37	0	2631925760	40	6242
2026-01-01 04:54:09.35	309.37	12.46	-34.1	-34.8	24.8	0.00e+00	0	37	0	2653945856	40	6285
2026-01-01 04:54:13.39	310.07	12.29	-34.2	-35.0	24.8	0.00e+00	0	37	0	2677014528	40	6414
2026-01-01 04:54:17.43	310.76	12.12	-34.2	-35.0	24.7	0.00e+00	0	37	0	2700083200	40	6395
2026-01-01 04:54:21.46	311.45	11.94	-34.1	-34.8	24.9	0.00e+00	0	37	0	2723151872	40	6254
2026-01-01 04:54:25.50	312.13	11.76	-34.2	-34.9	24.6	0.00e+00	0	37	0	2745171968	40	6382
2026-01-01 04:54:29.54	312.80	11.58	-34.4	-35.1	24.5	0.00e+00	0	37	0	2768240640	40	6496
2026-01-01 04:54:33.58	313.46	11.40	-34.6	-35.3	24.4	0.00e+00	0	37	0	2790260736	40	6626
2026-01-01 04:54:37.62	314.12	11.22	-34.6	-35.4	24.3	0.00e+00	0	37	0	2813329408	40	6699
2026-01-01 04:54:41.66	314.77	11.03	-34.5	-35.2	24.4	0.00e+00	0	37	0	2836398080	40	6571
2026-01-01 04:54:45.70	315.40	10.85	-34.6	-35.3	24.3	0.00e+00	0	37	0	2858418176	40	6663
2026-01-01 04:54:49.73	316.03	10.66	-34.7	-35.5	24.1	0.00e+00	0	37	0	2881486848	40	6790
2026-01-01 04:54:53.77	316.66	10.47	-34.6	-35.3	24.3	0.00e+00	0	37	0	2904555520	40	6673
2026-01-01 04:54:57.81	317.27	10.28	-34.6	-35.2	24.1	0.00e+00	0	37	0	2927624192	40	6583
2026-01-01 04:55:01.85	317.88	10.08	-34.7	-35.4	24.1	0.00e+00	0	37	0	2949644288	40	6753
2026-01-01 04:55:05.89	318.48	9.89	-34.8	-35.5	23.9	0.00e+00	0	37	0	2972712960	40	6775
2026-01-01 04:55:09.93	319.07	9.70	-34.9	-35.6	24.0	0.00e+00	0	37	0	2994733056	42	6122
2026-01-01 04:55:13.97	319.66	9.50	-35.0	-35.6	23.9	0.00e+00	0	37	0	3017801728	42	6154
2026-01-01 04:55:18.00	320.24	9.30	-35.0	-35.7	23.9	0.00e+00	0	37	0	3040870400	42	6227
2026-01-01 04:55:22.04	320.81	9.10	-35.3	-36.1	23.5	0.00e+00	0	37	0	3062890496	42	6529
2026-01-01 04:55:26.08	321.37	8.90	-35.4	-36.2	23.5	0.00e+00	0	37	0	3085959168	42	6543
2026-01-01 04:55:30.11	321.92	8.71	-35.5	-36.3	23.3	0.00e+00	0	37	0	3109027840	42	6631
2026-01-01 04:55:34.15	322.47	8.51	-35.6	-36.4	23.3	0.00e+00	0	37	0	3131047936	44	6027
2026-01-01 04:55:38.19	323.01	8.30	-35.3	-36.1	23.4	0.00e+00	0	37	0	3154116608	44	5805
2026-01-01 04:55:42.22	323.54	8.10	-35.4	-36.1	23.3	0.00e+00	0	37	0	3177185280	44	5776
2026-01-01 04:55:46.26	324.07	7.90	-35.5	-36.3	23.3	0.00e+00	0	37	0	3199205376	44	5956
2026-01-01 04:55:50.30	324.59	7.70	-35.7	-36.5	23.0	0.00e+00	0	37	0	3222274048	44	6044
2026-01-01 04:55:54.34	325.10	7.50	-35.7	-36.4	23.0	0.00e+00	0	37	0	3245342720	44	6015
2026-01-01 04:55:58.38	325.61	7.29	-35.7	-36.5	22.9	0.00e+00	0	37	0	3267362816	44	6098
2026-01-01 04:56:02.42	326.11	7.09	-35.6	-36.4	23.0	0.00e+00	0	37	0	3290431488	44	5972
2026-01-01 04:56:06.46	326.60	6.89	-35.7	-36.4	22.9	0.00e+00	0	37	0	3313500160	44	6016
2026-01-01 04:56:10.49	327.08	6.68	-35.9	-36.8	22.7	0.00e+00	0	37	0	3335520256	44	6265
2026-01-01 04:56:14.53	327.56	6.48	-36.3	-37.0	22.3	0.00e+00	0	37	0	3358588928	44	6439
2026-01-01 04:56:18.57	328.04	6.28	-36.3	-37.1	22.2	0.00e+00	0	37	0	3381657600	44	6484
2026-01-01 04:56:22.61	328.50	6.07	-36.5	-37.4	22.0	0.00e+00	0	37	0	3403677696	44	6697
2026-01-01 04:56:26.65	328.96	5.87	-36.5	-37.4	22.0	0.00e+00	0	37	0	3426746368	44	6705
2026-01-01 04:56:30.69	329.42	5.67	-36.7	-37.5	21.9	0.00e+00	0	37	0	3449815040	46	6060
2026-01-01 04:56:34.72	329.86	5.47	-36.9	-37.7	21.6	0.00e+00	0	37	0	3471835136	46	6206
2026-01-01 04:56:38.76	330.31	5.26	-36.9	-37.8	21.6	0.00e+00	0	37	0	3494903808	46	6250
2026-01-01 04:56:42.80	330.74	5.06	-37.0	-37.9	21.3	0.00e+00	0	37	0	3517972480	46	6340
2026-01-01 04:56:46.83	331.17	4.86	-36.8	-37.7	21.5	0.00e+00	0	37	0	3539992576	46	6221
2026-01-01 04:56:50.87	331.60	4.66	-37.2	-38.1	20.6	0.00e+00	0	37	0	3563061248	46	6484
2026-01-01 04:56:54.91	332.02	4.45	-39.0	-40.2	17.8	0.00e+00	0	38	0	3585081344	50	6600
2026-01-01 04:56:58.95	332.43	4.25	-41.9	-44.5	11.5	2.71e-04	0	37	0	3608150016	54	8577
2026-01-01 04:57:02.98	332.84	4.05	-43.9	-50.0	4.6	6.92e-01	0	38	0	3629121536	60	11373
2026-01-01 04:57:07.02	333.25	3.85	-44.3	-55.3	3.6	8.45e-01	0	38	104	3629121536	60	21007
2026-01-01 04:57:11.06	333.64	3.65	-44.3	-56.3	3.6	8.45e-01	0	38	104	3629121536	60	23580
2026-01-01 04:57:15.09	334.04	3.45	-44.4	-56.4	3.6	8.47e-01	0	38	104	3629121536	60	23970
2026-01-01 04:57:19.13	334.42	3.25	-44.3	-56.4	3.6	8.45e-01	0	38	104	3629121536	60	23921
2026-01-01 04:57:23.17	334.81	3.05	-44.2	-56.3	3.6	8.46e-01	0	38	104	3629121536	60	23688
2026-01-01 04:57:27.20	335.19	2.85	-49.0	-61.1	3.6	8.45e-01	0	38	104	3629121536	60	41157
2026-01-01 04:57:31.24	335.56	2.66	-49.4	-61.5	3.6	8.45e-01	0	38	104	3629121536	60	43089
2026-01-01 04:57:35.28	335.93	2.46	-48.7	-61.5	3.6	8.44e-01	0	38	104	3629121536	60	42862
2026-01-01 04:57:39.32	336.29	2.26	-49.3	-61.4	3.6	8.45e-01	0	38	104	3629121536	60	42709
2026-01-01 04:57:43.36	336.65	2.06	-49.3	-61.4	3.6	8.46e-01	0	38	104	3629121536	60	42599
2026-01-01 04:57:47.40	337.01	1.87	-49.3	-61.4	3.6	8.46e-01	0	38	104	3629121536	60	42484
2026-01-01 04:57:51.45	337.36	1.67	-49.3	-61.4	3.6	8.45e-01	0	38	104	3629121536	60	42547
2026-01-01 04:57:55.49	337.71	1.48	-49.3	-61.4	3.6	8.46e-01	0	38	104	3629121536	60	42671
2026-01-01 04:57:59.53	338.05	1.28	-49.3	-61.4	3.6	8.45e-01	0	38	104	3629121536	60	42470
2026-01-01 04:58:03.56	338.39	1.09	-49.3	-61.4	3.6	8.45e-01	0	38	104	3629121536	60	42647
2026-01-01 04:58:07.60	338.72	0.89	-49.3	-61.4	3.6	8.46e-01	0	38	104	3629121536	60	42587
2026-01-01 04:58:11.64	339.05	0.70	-49.3	-61.4	3.6	8.45e-01	0	38	104	3629121536	60	42369
2026-01-01 04:58:15.68	339.38	0.51	-49.3	-61.4	3.6	8.45e-01	0	38	104	3629121536	60	42392
2026-01-01 04:58:19.72	339.70	0.32	-49.3	-61.4	3.6	8.45e-01	0	38	104	3629121536	60	42548
2026-01-01 04:58:23.76	340.02	0.12	-49.3	-61.4	3.6	8.46e-01	0	38	104	3629121536	60	42558

#Closed at: 2026-01-01 04:58:27
#Recorded file [3629 MB]: D:/lorett/data/35029_260101_164520.dat