passes_logs/2026/01/01/R4.6S_Anadyr/R4.6S_Anadyr__20260101_192638_NOAA_20_JPSS-1_rec.log

#Pass ID: 20260101_192638_NOAA 20 (JPSS-1)
#Satellite: NOAA 20 (JPSS-1)
#Configuration: NOAA 20
#almurnet v.1.7.20251203
#Start time: 2026-01-01 19:26:39

#Version: 2.2.20231116
#Station: R4.6S_Anadyr
#Location: 177.4865 lon 64.73178 lat
#TLE: 1 43013U 17073A   25364.89373485  .00000164  00000+0  98659-4 0  9997
#TLE: 2 43013  98.7619 300.9939 0001957  61.1511 298.9862 14.19531413420599

#Time	Az	El	Level	Level2	SNR	BER	BlckErr	Temp	State	Recorded	gain1	gain2
2026-01-01 19:26:39.55	53.39	0.04	-49.4	-64.3	3.5	1.51e+00	0	37	0	0	60	59346
2026-01-01 19:26:42.57	53.16	0.19	-49.5	-64.7	3.6	1.51e+00	0	38	104	0	60	61861
2026-01-01 19:26:45.61	52.93	0.33	-49.5	-64.7	3.6	1.51e+00	0	38	104	0	60	62225
2026-01-01 19:26:48.64	52.69	0.48	-49.4	-64.6	3.6	1.51e+00	0	38	104	0	60	61657
2026-01-01 19:26:51.66	52.46	0.63	-49.3	-64.5	3.6	1.51e+00	0	38	104	0	60	60930
2026-01-01 19:26:54.69	52.22	0.78	-48.9	-64.0	3.6	1.51e+00	0	38	104	0	60	57543
2026-01-01 19:26:57.72	51.97	0.92	-47.9	-63.1	3.6	1.51e+00	0	38	104	0	60	51406
2026-01-01 19:27:00.75	51.73	1.07	-47.9	-63.0	3.6	1.51e+00	0	38	104	0	60	51153
2026-01-01 19:27:03.78	51.48	1.22	-47.8	-63.0	3.6	1.51e+00	0	38	104	0	60	51009
2026-01-01 19:27:06.82	51.23	1.37	-47.8	-63.0	3.6	1.51e+00	0	39	104	0	60	51085
2026-01-01 19:27:09.85	50.98	1.52	-47.8	-63.0	3.6	1.51e+00	0	39	104	0	60	51098
2026-01-01 19:27:12.88	50.73	1.67	-47.8	-63.0	3.5	1.51e+00	0	39	104	0	60	50841
2026-01-01 19:27:15.91	50.47	1.82	-47.8	-63.0	3.6	1.51e+00	0	38	104	0	60	51063
2026-01-01 19:27:18.94	50.21	1.97	-47.8	-62.9	3.6	1.51e+00	0	39	104	0	60	50656
2026-01-01 19:27:21.97	49.95	2.12	-47.8	-62.6	3.6	1.51e+00	0	39	104	0	60	48800
2026-01-01 19:27:25.00	49.68	2.27	-47.8	-62.7	3.6	1.51e+00	0	39	104	0	60	49605
2026-01-01 19:27:28.03	49.41	2.42	-47.8	-63.0	3.6	1.51e+00	0	39	104	0	60	50842
2026-01-01 19:27:31.06	49.14	2.57	-47.8	-63.0	3.6	1.51e+00	0	39	104	0	60	50907
2026-01-01 19:27:34.09	48.87	2.72	-47.8	-61.7	3.6	1.51e+00	0	39	104	0	60	44175
2026-01-01 19:27:37.12	48.59	2.87	-47.8	-61.6	3.6	1.51e+00	0	39	104	0	60	43660
2026-01-01 19:27:40.15	48.31	3.02	-46.8	-53.0	8.1	7.00e-02	92	39	0	2097152	60	16215
2026-01-01 19:27:43.19	48.03	3.18	-47.7	-62.7	3.6	1.52e+00	0	39	104	7340032	60	49320
2026-01-01 19:27:46.22	47.74	3.33	-45.9	-50.4	11.4	1.13e-03	0	39	0	8388608	60	11922
2026-01-01 19:27:49.24	47.46	3.48	-46.2	-51.0	10.9	6.28e-03	92	39	0	13631488	60	12804
2026-01-01 19:27:52.27	47.16	3.63	-45.9	-50.2	11.5	1.19e-03	92	39	0	19922944	60	11686
2026-01-01 19:27:55.30	46.87	3.78	-45.9	-50.1	11.8	4.26e-04	0	39	0	25165824	60	11540
2026-01-01 19:27:58.33	46.57	3.94	-44.9	-47.9	14.2	1.60e-05	72	39	0	31457280	60	9001
2026-01-01 19:28:01.36	46.27	4.09	-44.2	-46.7	15.4	0.00e+00	92	39	0	36700160	60	7854
2026-01-01 19:28:04.39	45.96	4.24	-42.9	-44.8	17.6	0.00e+00	0	39	0	42991616	60	6303
2026-01-01 19:28:07.42	45.65	4.39	-42.9	-44.8	17.6	0.00e+00	7	39	0	48234496	60	6279
2026-01-01 19:28:10.45	45.34	4.55	-43.1	-45.0	17.5	0.00e+00	92	39	0	53477376	60	6452
2026-01-01 19:28:13.47	45.03	4.70	-43.2	-45.3	17.4	0.00e+00	0	39	0	59768832	60	6623
2026-01-01 19:28:16.50	44.71	4.85	-42.4	-44.2	18.2	0.00e+00	11	39	0	65011712	58	6565
2026-01-01 19:28:19.53	44.39	5.00	-42.5	-44.3	18.2	0.00e+00	91	39	0	71303168	58	6638
2026-01-01 19:28:22.55	44.07	5.16	-42.4	-44.2	18.3	0.00e+00	42	39	0	76546048	58	6557
2026-01-01 19:28:25.58	43.74	5.31	-42.3	-44.0	18.5	0.00e+00	0	39	0	81788928	58	6455
2026-01-01 19:28:28.61	43.40	5.46	-42.2	-43.9	18.7	0.00e+00	0	39	0	88080384	58	6366
2026-01-01 19:28:31.64	43.07	5.61	-42.1	-43.7	18.8	0.00e+00	90	39	0	93323264	58	6204
2026-01-01 19:28:34.67	42.73	5.77	-42.2	-43.8	18.8	0.00e+00	12	39	0	99614720	56	7027
2026-01-01 19:28:37.69	42.39	5.92	-42.0	-43.6	19.0	0.00e+00	13	39	0	104857600	56	6874
2026-01-01 19:28:40.72	42.04	6.07	-42.1	-43.6	19.0	0.00e+00	90	39	0	111149056	56	6920
2026-01-01 19:28:43.74	41.69	6.22	-42.0	-43.6	19.0	0.00e+00	68	39	0	116391936	56	6905
2026-01-01 19:28:46.77	41.34	6.38	-42.2	-43.9	18.8	0.00e+00	70	39	0	121634816	56	7104
2026-01-01 19:28:49.80	40.98	6.53	-41.9	-43.5	19.2	0.00e+00	0	39	0	127926272	56	6783
2026-01-01 19:28:52.83	40.62	6.68	-42.0	-43.5	19.1	0.00e+00	91	39	0	133169152	56	6845
2026-01-01 19:28:55.86	40.25	6.83	-42.0	-43.5	19.2	0.00e+00	0	39	0	139460608	56	6815
2026-01-01 19:28:58.89	39.88	6.98	-41.9	-43.4	19.3	0.00e+00	3	39	0	144703488	56	6715
2026-01-01 19:29:01.91	39.51	7.13	-41.7	-43.2	19.5	0.00e+00	90	38	0	149946368	56	6576
2026-01-01 19:29:04.94	39.13	7.29	-41.7	-43.2	19.6	0.00e+00	69	39	0	156237824	56	6550
2026-01-01 19:29:07.97	38.75	7.44	-41.9	-43.4	19.4	0.00e+00	0	39	0	161480704	56	6736
2026-01-01 19:29:11.01	38.36	7.59	-41.6	-43.0	19.8	0.00e+00	92	39	0	167772160	56	6458
2026-01-01 19:29:14.04	37.97	7.74	-41.6	-43.0	19.8	0.00e+00	0	39	0	173015040	56	6427
2026-01-01 19:29:17.07	37.58	7.89	-41.4	-42.8	20.0	0.00e+00	13	39	0	179306496	56	6263
2026-01-01 19:29:20.10	37.18	8.04	-41.4	-42.8	20.0	0.00e+00	91	39	0	184549376	56	6257
2026-01-01 19:29:23.13	36.78	8.18	-41.2	-42.6	20.2	0.00e+00	0	39	0	189792256	56	6122
2026-01-01 19:29:26.16	36.37	8.33	-41.4	-42.7	20.1	0.00e+00	68	39	0	196083712	56	6243
2026-01-01 19:29:29.19	35.96	8.48	-41.3	-42.6	20.2	0.00e+00	0	39	0	201326592	56	6125
2026-01-01 19:29:32.22	35.54	8.63	-41.3	-42.7	20.2	0.00e+00	90	39	0	207618048	56	6183
2026-01-01 19:29:35.25	35.12	8.77	-41.2	-42.5	20.3	0.00e+00	0	39	0	212860928	56	6095
2026-01-01 19:29:38.27	34.70	8.92	-41.3	-42.7	20.2	0.00e+00	0	39	0	218103808	56	6208
2026-01-01 19:29:41.30	34.27	9.06	-41.3	-42.7	20.2	0.00e+00	90	39	0	224395264	56	6176
2026-01-01 19:29:44.33	33.84	9.21	-41.2	-42.6	20.3	0.00e+00	67	39	0	229638144	56	6104
2026-01-01 19:29:47.36	33.40	9.35	-41.2	-42.5	20.4	0.00e+00	0	39	0	235929600	56	6055
2026-01-01 19:29:50.39	32.96	9.50	-41.0	-42.3	20.6	0.00e+00	92	38	0	241172480	56	5914
2026-01-01 19:29:53.42	32.52	9.64	-40.9	-42.2	20.7	0.00e+00	0	39	0	247463936	56	5831
2026-01-01 19:29:56.45	32.07	9.78	-40.5	-41.7	21.1	0.00e+00	6	39	0	252706816	54	6204
2026-01-01 19:29:59.48	31.61	9.92	-40.5	-41.6	21.2	0.00e+00	77	39	0	257949696	54	6166
2026-01-01 19:30:02.51	31.15	10.06	-40.3	-41.4	21.3	0.00e+00	20	39	0	264241152	54	6023
2026-01-01 19:30:05.54	30.69	10.20	-39.8	-40.9	21.9	0.00e+00	13	39	0	269484032	54	5632
2026-01-01 19:30:08.57	30.22	10.34	-39.7	-40.8	22.1	0.00e+00	71	39	0	275775488	52	6272
2026-01-01 19:30:11.60	29.75	10.47	-39.8	-40.8	21.9	0.00e+00	90	39	0	281018368	52	6309
2026-01-01 19:30:14.62	29.27	10.61	-39.7	-40.8	22.1	0.00e+00	7	39	0	286261248	52	6247
2026-01-01 19:30:17.66	28.79	10.74	-39.5	-40.6	22.3	0.00e+00	1	39	0	292552704	52	6123
2026-01-01 19:30:20.68	28.31	10.87	-39.5	-40.5	22.3	0.00e+00	92	39	0	297795584	52	6071
2026-01-01 19:30:23.71	27.82	11.00	-39.3	-40.3	22.5	0.00e+00	14	39	0	304087040	52	5927
2026-01-01 19:30:26.74	27.32	11.13	-39.2	-40.2	22.6	0.00e+00	68	39	0	309329920	52	5854
2026-01-01 19:30:29.78	26.82	11.26	-39.1	-40.1	22.3	0.00e+00	90	38	0	315621376	52	5781
2026-01-01 19:30:32.81	26.32	11.39	-38.9	-39.9	22.9	0.00e+00	78	39	0	320864256	52	5666
2026-01-01 19:30:35.84	25.81	11.52	-38.9	-39.9	23.0	0.00e+00	2	39	0	326107136	52	5638
2026-01-01 19:30:38.87	25.30	11.64	-38.8	-39.8	23.0	0.00e+00	0	39	0	332398592	52	5589
2026-01-01 19:30:41.90	24.78	11.76	-39.0	-40.0	22.8	0.00e+00	92	39	0	337641472	52	5748
2026-01-01 19:30:44.93	24.26	11.88	-39.2	-40.2	22.5	0.00e+00	12	39	0	343932928	52	5851
2026-01-01 19:30:47.96	23.73	12.00	-39.3	-40.3	22.6	0.00e+00	67	39	0	349175808	52	5937
2026-01-01 19:30:50.99	23.20	12.12	-39.3	-40.4	22.5	0.00e+00	90	39	0	354418688	52	5968
2026-01-01 19:30:54.02	22.67	12.23	-39.4	-40.4	22.5	0.00e+00	0	39	0	360710144	52	5997
2026-01-01 19:30:57.05	22.13	12.35	-39.6	-40.6	22.3	0.00e+00	0	38	0	365953024	52	6145
2026-01-01 19:31:00.08	21.59	12.46	-39.3	-40.4	22.5	0.00e+00	92	38	0	372244480	52	5968
2026-01-01 19:31:03.11	21.04	12.57	-39.3	-40.3	22.6	0.00e+00	82	39	0	377487360	52	5959
2026-01-01 19:31:06.14	20.49	12.67	-39.3	-40.3	22.6	0.00e+00	2	39	0	383778816	52	5920
2026-01-01 19:31:09.17	19.93	12.78	-39.3	-40.2	22.7	0.00e+00	70	39	0	389021696	52	5896
2026-01-01 19:31:12.20	19.38	12.88	-39.4	-40.4	22.5	0.00e+00	0	38	0	394264576	52	5991
2026-01-01 19:31:15.23	18.81	12.98	-39.1	-40.1	22.5	0.00e+00	0	39	0	400556032	52	5791
2026-01-01 19:31:18.26	18.25	13.08	-39.1	-40.1	22.8	0.00e+00	13	39	0	405798912	52	5807
2026-01-01 19:31:21.29	17.68	13.17	-39.1	-40.1	22.8	0.00e+00	92	39	0	412090368	52	5788
2026-01-01 19:31:24.32	17.10	13.27	-39.1	-40.1	22.9	0.00e+00	13	39	0	417333248	52	5771
2026-01-01 19:31:27.35	16.53	13.36	-39.2	-40.2	22.7	0.00e+00	13	39	0	422576128	52	5878
2026-01-01 19:31:30.38	15.94	13.45	-39.0	-40.0	23.0	0.00e+00	92	39	0	428867584	52	5711
2026-01-01 19:31:33.41	15.36	13.53	-39.2	-40.2	22.7	0.00e+00	72	39	0	434110464	52	5871
2026-01-01 19:31:36.44	14.77	13.61	-38.8	-39.8	23.2	0.00e+00	0	39	0	440401920	52	5576
2026-01-01 19:31:39.47	14.18	13.69	-38.9	-39.8	23.1	0.00e+00	5	39	0	445644800	52	5591
2026-01-01 19:31:42.49	13.59	13.77	-39.1	-40.0	22.9	0.00e+00	0	39	0	451936256	52	5741
2026-01-01 19:31:45.52	12.99	13.84	-39.1	-40.0	22.8	0.00e+00	5	39	0	457179136	52	5752
2026-01-01 19:31:48.55	12.39	13.92	-39.4	-40.4	22.6	0.00e+00	72	39	0	462422016	52	5970
2026-01-01 19:31:51.58	11.79	13.98	-39.3	-40.3	22.7	0.00e+00	92	39	0	468713472	52	5932
2026-01-01 19:31:54.61	11.18	14.05	-39.5	-40.5	22.3	0.00e+00	4	39	0	473956352	52	6083
2026-01-01 19:31:57.64	10.57	14.11	-39.8	-40.8	22.3	0.00e+00	1	39	0	480247808	52	6289
2026-01-01 19:32:00.67	9.96	14.17	-39.8	-40.9	22.2	0.00e+00	91	39	0	485490688	52	6328
2026-01-01 19:32:03.70	9.35	14.23	-40.1	-41.2	21.8	0.00e+00	9	39	0	490733568	52	6561
2026-01-01 19:32:06.73	8.73	14.28	-39.6	-40.7	22.2	0.00e+00	9	39	0	497025024	52	6189
2026-01-01 19:32:09.76	8.11	14.33	-39.3	-40.3	22.7	0.00e+00	90	39	0	502267904	52	5932
2026-01-01 19:32:12.79	7.49	14.38	-39.3	-40.2	22.7	0.00e+00	0	39	0	508559360	52	5887
2026-01-01 19:32:15.82	6.87	14.42	-39.0	-39.9	23.1	0.00e+00	0	39	0	513802240	52	5693
2026-01-01 19:32:18.85	6.25	14.46	-39.2	-40.2	22.7	0.00e+00	0	39	0	520093696	52	5835
2026-01-01 19:32:21.88	5.62	14.50	-39.4	-40.4	22.6	0.00e+00	0	39	0	525336576	52	5971
2026-01-01 19:32:24.91	5.00	14.53	-39.3	-40.3	22.6	0.00e+00	0	39	0	530579456	52	5953
2026-01-01 19:32:27.94	4.37	14.56	-39.5	-40.5	22.5	0.00e+00	66	39	0	536870912	52	6098
2026-01-01 19:32:30.97	3.74	14.59	-39.4	-40.4	22.7	0.00e+00	92	39	0	542113792	52	5982
2026-01-01 19:32:34.00	3.11	14.61	-39.2	-40.2	22.8	0.00e+00	71	39	0	548405248	52	5873
2026-01-01 19:32:37.02	2.48	14.63	-39.3	-40.3	22.8	0.00e+00	0	39	0	553648128	52	5923
2026-01-01 19:32:40.05	1.85	14.64	-39.3	-40.4	22.8	0.00e+00	90	39	0	558891008	52	5971
2026-01-01 19:32:43.08	1.21	14.66	-39.1	-40.1	22.9	0.00e+00	0	39	0	565182464	52	5799
2026-01-01 19:32:46.11	0.58	14.67	-39.1	-40.1	22.9	0.00e+00	64	39	0	570425344	52	5800
2026-01-01 19:32:49.14	359.95	14.67	-39.2	-40.1	22.9	0.00e+00	92	39	0	576716800	52	5824
2026-01-01 19:32:52.17	359.31	14.67	-39.2	-40.2	22.9	0.00e+00	9	39	0	581959680	52	5874
2026-01-01 19:32:55.20	358.68	14.67	-39.2	-40.2	22.4	0.00e+00	66	39	0	588251136	52	5877
2026-01-01 19:32:58.23	358.05	14.67	-39.2	-40.2	22.6	0.00e+00	0	39	0	593494016	52	5881
2026-01-01 19:33:01.26	357.41	14.66	-39.2	-40.2	22.8	0.00e+00	77	39	0	598736896	52	5856
2026-01-01 19:33:04.28	356.78	14.65	-39.1	-40.1	22.9	0.00e+00	10	39	0	605028352	52	5792
2026-01-01 19:33:07.32	356.15	14.63	-39.3	-40.3	22.7	0.00e+00	0	39	0	610271232	52	5939
2026-01-01 19:33:10.35	355.52	14.61	-39.5	-40.6	22.3	0.00e+00	92	39	0	616562688	52	6133
2026-01-01 19:33:13.38	354.88	14.59	-39.7	-40.8	22.4	0.00e+00	6	39	0	621805568	52	6269
2026-01-01 19:33:16.41	354.26	14.56	-39.4	-40.4	22.6	0.00e+00	68	39	0	627048448	52	6018
2026-01-01 19:33:19.44	353.63	14.53	-39.6	-40.6	22.3	0.00e+00	90	39	0	633339904	52	6143
2026-01-01 19:33:22.47	353.00	14.50	-39.8	-40.9	22.1	0.00e+00	4	39	0	638582784	52	6365
2026-01-01 19:33:25.50	352.37	14.47	-39.7	-40.7	22.3	0.00e+00	6	39	0	644874240	52	6220
2026-01-01 19:33:28.52	351.75	14.43	-39.6	-40.6	22.5	0.00e+00	77	39	0	650117120	52	6128
2026-01-01 19:33:31.55	351.13	14.38	-39.4	-40.4	22.6	0.00e+00	91	39	0	656408576	52	5980
2026-01-01 19:33:34.58	350.51	14.34	-39.4	-40.4	22.6	0.00e+00	80	39	0	661651456	52	6002
2026-01-01 19:33:37.62	349.89	14.29	-39.5	-40.5	22.6	0.00e+00	8	39	0	666894336	52	6062
2026-01-01 19:33:40.64	349.28	14.24	-39.3	-40.3	22.7	0.00e+00	92	39	0	673185792	52	5912
2026-01-01 19:33:43.67	348.66	14.18	-39.2	-40.2	22.8	0.00e+00	7	39	0	678428672	52	5833
2026-01-01 19:33:46.70	348.05	14.12	-39.3	-40.3	22.7	0.00e+00	5	39	0	684720128	52	5900
2026-01-01 19:33:49.73	347.44	14.06	-39.2	-40.2	22.8	0.00e+00	92	39	0	689963008	52	5870
2026-01-01 19:33:52.76	346.83	13.99	-39.1	-40.1	22.9	0.00e+00	72	39	0	696254464	52	5807
2026-01-01 19:33:55.79	346.23	13.93	-39.5	-40.6	22.4	0.00e+00	69	39	0	701497344	52	6119
2026-01-01 19:33:58.81	345.63	13.86	-39.4	-40.5	22.5	0.00e+00	4	39	0	706740224	52	6055
2026-01-01 19:34:01.84	345.03	13.78	-39.6	-40.7	22.3	0.00e+00	0	39	0	713031680	52	6207
2026-01-01 19:34:04.87	344.44	13.70	-39.5	-40.5	22.4	0.00e+00	2	39	0	718274560	52	6103
2026-01-01 19:34:07.90	343.85	13.63	-39.5	-40.6	22.4	0.00e+00	0	39	0	724566016	52	6134
2026-01-01 19:34:10.93	343.26	13.54	-39.6	-40.6	22.4	0.00e+00	92	39	0	729808896	52	6168
2026-01-01 19:34:13.96	342.67	13.46	-39.6	-40.7	22.4	0.00e+00	14	39	0	735051776	52	6189
2026-01-01 19:34:16.99	342.09	13.37	-39.7	-40.8	22.2	0.00e+00	74	39	0	741343232	52	6255
2026-01-01 19:34:20.01	341.52	13.28	-39.7	-40.8	22.3	0.00e+00	92	39	0	746586112	52	6248
2026-01-01 19:34:23.04	340.94	13.19	-39.5	-40.6	22.4	0.00e+00	0	39	0	752877568	52	6120
2026-01-01 19:34:26.07	340.37	13.09	-39.6	-40.7	22.3	0.00e+00	0	39	0	758120448	52	6201
2026-01-01 19:34:29.10	339.81	13.00	-39.2	-40.3	22.6	0.00e+00	92	39	0	763363328	52	5921
2026-01-01 19:34:32.13	339.24	12.90	-39.4	-40.5	22.5	0.00e+00	7	39	0	769654784	52	6057
2026-01-01 19:34:35.16	338.68	12.79	-39.1	-40.1	22.8	0.00e+00	0	39	0	774897664	52	5808
2026-01-01 19:34:38.18	338.13	12.69	-39.2	-40.2	22.5	0.00e+00	92	39	0	781189120	52	5893
2026-01-01 19:34:41.22	337.58	12.58	-39.4	-40.4	22.5	0.00e+00	82	39	0	786432000	52	5987
2026-01-01 19:34:44.25	337.03	12.47	-39.2	-40.2	22.8	0.00e+00	0	39	0	792723456	52	5847
2026-01-01 19:34:47.28	336.49	12.36	-39.2	-40.2	22.7	0.00e+00	7	39	0	797966336	52	5879
2026-01-01 19:34:50.30	335.95	12.25	-39.1	-40.1	22.8	0.00e+00	90	39	0	803209216	52	5816
2026-01-01 19:34:53.33	335.41	12.14	-39.3	-40.2	22.8	0.00e+00	68	39	0	809500672	52	5893
2026-01-01 19:34:56.36	334.88	12.02	-39.3	-40.3	22.7	0.00e+00	0	39	0	814743552	52	5931
2026-01-01 19:34:59.39	334.36	11.90	-39.5	-40.6	22.4	0.00e+00	89	39	0	821035008	52	6116
2026-01-01 19:35:02.42	333.84	11.78	-39.9	-41.0	22.0	0.00e+00	0	39	0	826277888	52	6438
2026-01-01 19:35:05.45	333.32	11.66	-40.1	-41.2	21.8	0.00e+00	6	39	0	831520768	52	6587
2026-01-01 19:35:08.45	332.81	11.54	-40.1	-41.2	21.8	0.00e+00	91	39	0	836763648	52	6548
2026-01-01 19:35:11.77	332.25	11.40	-40.3	-41.4	21.6	0.00e+00	0	39	0	843055104	52	6730
2026-01-01 19:35:14.51	331.80	11.28	-40.5	-41.7	21.4	0.00e+00	2	39	0	848297984	52	6956
2026-01-01 19:35:17.83	331.25	11.14	-41.1	-42.4	20.7	0.00e+00	74	39	0	854589440	54	6709
2026-01-01 19:35:20.57	330.80	11.03	-41.3	-42.6	20.5	0.00e+00	0	39	0	859832320	54	6866
2026-01-01 19:35:23.89	330.27	10.88	-41.5	-42.8	20.3	0.00e+00	0	39	0	866123776	54	7031
2026-01-01 19:35:26.63	329.83	10.76	-41.4	-42.7	20.5	0.00e+00	24	39	0	871366656	54	6979
2026-01-01 19:35:29.95	329.30	10.62	-41.5	-42.8	20.2	0.00e+00	92	39	0	877658112	54	7045
2026-01-01 19:35:32.69	328.87	10.49	-41.4	-42.8	20.3	0.00e+00	6	39	0	882900992	54	7008
2026-01-01 19:35:36.01	328.35	10.35	-42.0	-43.4	19.7	0.00e+00	74	39	0	889192448	56	6755
2026-01-01 19:35:38.75	327.92	10.22	-42.3	-43.8	19.5	0.00e+00	89	39	0	894435328	56	7069
2026-01-01 19:35:42.06	327.42	10.07	-42.1	-43.6	19.6	0.00e+00	70	39	0	899678208	56	6851
2026-01-01 19:35:44.81	327.00	9.94	-42.1	-43.6	19.6	0.00e+00	7	39	0	904921088	56	6852
2026-01-01 19:35:48.12	326.50	9.79	-42.2	-43.7	19.5	0.00e+00	0	39	0	911212544	56	6928
2026-01-01 19:35:50.87	326.09	9.66	-42.3	-43.8	19.3	0.00e+00	75	39	0	916455424	56	7067
2026-01-01 19:35:54.18	325.61	9.51	-42.5	-44.0	19.1	0.00e+00	70	39	0	922746880	56	7226
2026-01-01 19:35:56.92	325.21	9.38	-42.4	-44.0	19.2	0.00e+00	91	39	0	927989760	56	7197
2026-01-01 19:36:00.24	324.73	9.22	-42.3	-43.8	19.3	0.00e+00	92	39	0	934281216	56	7026
2026-01-01 19:36:02.98	324.34	9.09	-42.5	-44.0	19.1	0.00e+00	11	39	0	939524096	56	7244
2026-01-01 19:36:06.30	323.87	8.93	-42.3	-43.8	19.3	0.00e+00	0	39	0	945815552	56	7076
2026-01-01 19:36:09.04	323.48	8.80	-42.1	-43.5	19.6	0.00e+00	81	39	0	951058432	56	6831
2026-01-01 19:36:12.36	323.02	8.64	-41.8	-43.2	19.9	0.00e+00	0	39	0	957349888	56	6566
2026-01-01 19:36:15.10	322.65	8.51	-41.9	-43.3	19.9	0.00e+00	0	39	0	962592768	56	6646
2026-01-01 19:36:18.42	322.20	8.34	-41.8	-43.2	19.9	0.00e+00	92	39	0	967835648	56	6595
2026-01-01 19:36:21.16	321.83	8.21	-41.6	-43.0	19.9	0.00e+00	11	39	0	973078528	56	6443
2026-01-01 19:36:24.48	321.39	8.05	-41.3	-43.0	18.5	0.00e+00	0	39	0	979369984	56	6394
2026-01-01 19:36:27.21	321.03	7.91	-40.9	-42.7	18.1	0.00e+00	92	39	0	984612864	56	6199
2026-01-01 19:36:30.53	320.60	7.75	-41.1	-42.5	20.4	0.00e+00	91	39	0	990904320	56	6051
2026-01-01 19:36:33.27	320.24	7.61	-41.0	-42.3	20.7	0.00e+00	0	39	0	996147200	56	5900
2026-01-01 19:36:36.59	319.82	7.45	-40.9	-42.1	20.9	0.00e+00	4	39	0	1002438656	56	5788
2026-01-01 19:36:39.34	319.47	7.31	-40.6	-41.8	21.0	0.00e+00	0	39	0	1007681536	54	6303
2026-01-01 19:36:42.66	319.06	7.15	-40.4	-41.5	21.2	0.00e+00	0	39	0	1013972992	54	6078
2026-01-01 19:36:45.40	318.72	7.01	-40.2	-41.4	21.2	0.00e+00	70	39	0	1019215872	54	5977
2026-01-01 19:36:48.72	318.32	6.84	-40.3	-41.4	21.4	0.00e+00	92	39	0	1025507328	54	5999
2026-01-01 19:36:51.46	317.98	6.71	-40.0	-41.2	21.5	0.00e+00	2	39	0	1030750208	54	5839
2026-01-01 19:36:54.77	317.59	6.54	-40.0	-41.1	21.3	0.00e+00	77	39	0	1037041664	54	5828
2026-01-01 19:36:57.52	317.26	6.40	-40.2	-41.4	21.4	0.00e+00	92	39	0	1041235968	54	5972
2026-01-01 19:37:00.84	316.87	6.24	-40.2	-41.4	21.2	0.00e+00	69	39	0	1047527424	54	5993
2026-01-01 19:37:03.58	316.56	6.10	-40.5	-41.7	20.9	0.00e+00	3	39	0	1052770304	54	6234
2026-01-01 19:37:06.90	316.18	5.93	-40.6	-41.8	21.0	0.00e+00	0	39	0	1059061760	54	6257
2026-01-01 19:37:09.64	315.87	5.79	-40.7	-41.9	20.8	0.00e+00	0	39	0	1064304640	54	6366
2026-01-01 19:37:12.96	315.49	5.63	-40.3	-41.5	21.2	0.00e+00	9	39	0	1070596096	54	6090
2026-01-01 19:37:15.70	315.19	5.49	-40.3	-41.4	21.2	0.00e+00	0	39	0	1075838976	54	6022
2026-01-01 19:37:19.02	314.82	5.32	-40.8	-42.1	20.6	0.00e+00	92	39	0	1082130432	54	6486
2026-01-01 19:37:21.76	314.53	5.18	-40.9	-42.2	20.4	0.00e+00	0	39	0	1087373312	54	6581
2026-01-01 19:37:25.08	314.17	5.02	-40.7	-42.0	20.7	0.00e+00	0	39	0	1093664768	54	6449
2026-01-01 19:37:27.82	313.88	4.88	-40.7	-42.0	20.5	0.00e+00	92	39	0	1098907648	54	6442
2026-01-01 19:37:31.14	313.53	4.71	-40.7	-41.9	20.6	0.00e+00	2	39	0	1105199104	54	6382
2026-01-01 19:37:33.88	313.25	4.57	-40.8	-42.1	20.4	0.00e+00	6	39	0	1109393408	54	6539
2026-01-01 19:37:37.19	312.91	4.40	-40.7	-42.0	20.5	0.00e+00	78	39	0	1115684864	54	6412
2026-01-01 19:37:39.93	312.63	4.27	-40.9	-42.2	20.2	0.00e+00	6	39	0	1120927744	54	6600
2026-01-01 19:37:43.25	312.29	4.10	-41.4	-42.9	19.6	0.00e+00	74	39	0	1127219200	54	7104
2026-01-01 19:37:45.99	312.02	3.96	-41.3	-42.8	19.8	0.00e+00	74	39	0	1132462080	54	7012
2026-01-01 19:37:49.31	311.69	3.80	-41.8	-43.4	19.2	0.00e+00	92	39	0	1138753536	56	6705
2026-01-01 19:37:52.05	311.42	3.66	-41.6	-43.1	19.3	0.00e+00	76	39	0	1143996416	56	6512
2026-01-01 19:37:55.37	311.10	3.49	-41.8	-43.3	19.1	0.00e+00	0	39	0	1150287872	56	6655
2026-01-01 19:37:58.11	310.84	3.35	-42.0	-43.5	18.9	0.00e+00	91	39	0	1155530752	56	6844
2026-01-01 19:38:01.43	310.53	3.19	-42.5	-44.3	18.1	0.00e+00	0	39	0	1161822208	56	7424
2026-01-01 19:38:04.17	310.27	3.05	-42.0	-43.7	18.5	0.00e+00	79	39	0	1167065088	56	6975
2026-01-01 19:38:07.49	309.97	2.89	-49.1	-64.3	3.6	1.51e+00	0	39	104	1169162240	60	59168
2026-01-01 19:38:10.23	309.72	2.75	-49.5	-64.7	3.6	1.51e+00	0	39	104	1169162240	60	61984
2026-01-01 19:38:13.55	309.42	2.58	-49.6	-64.8	3.6	1.51e+00	0	39	104	1169162240	60	63079
2026-01-01 19:38:16.29	309.17	2.45	-49.2	-64.8	3.6	1.51e+00	0	39	104	1169162240	60	62556
2026-01-01 19:38:19.61	308.88	2.28	-49.5	-64.7	3.6	1.51e+00	0	39	104	1169162240	60	61910
2026-01-01 19:38:22.35	308.64	2.15	-49.5	-64.6	3.6	1.51e+00	0	39	104	1169162240	60	61653
2026-01-01 19:38:25.67	308.35	1.98	-49.5	-64.7	3.5	1.51e+00	0	39	104	1169162240	60	61746
2026-01-01 19:38:28.41	308.11	1.85	-49.5	-64.6	3.6	1.51e+00	0	39	104	1169162240	60	61575
2026-01-01 19:38:31.73	307.83	1.68	-49.4	-64.6	3.6	1.51e+00	0	39	104	1169162240	60	61719
2026-01-01 19:38:34.47	307.60	1.55	-49.4	-64.6	3.6	1.51e+00	0	39	104	1169162240	60	61495
2026-01-01 19:38:37.79	307.32	1.38	-49.4	-64.6	3.6	1.51e+00	0	39	104	1169162240	60	61429
2026-01-01 19:38:40.53	307.10	1.25	-49.4	-64.6	3.6	1.51e+00	0	39	104	1169162240	60	61626
2026-01-01 19:38:43.85	306.83	1.09	-49.4	-64.7	3.6	1.51e+00	0	39	104	1169162240	60	61862
2026-01-01 19:38:46.59	306.61	0.95	-49.4	-64.6	3.6	1.51e+00	0	39	104	1169162240	60	61335
2026-01-01 19:38:49.90	306.34	0.79	-49.4	-64.6	3.6	1.51e+00	0	39	104	1169162240	60	61730
2026-01-01 19:38:52.64	306.13	0.66	-49.4	-64.6	3.6	1.51e+00	0	39	104	1169162240	60	61343
2026-01-01 19:38:55.96	305.87	0.50	-49.4	-64.6	3.6	1.51e+00	0	39	104	1169162240	60	61456
2026-01-01 19:38:58.70	305.66	0.36	-49.4	-64.6	3.6	1.51e+00	0	39	104	1169162240	60	61606
2026-01-01 19:39:02.02	305.40	0.20	-49.4	-64.6	3.6	1.51e+00	0	39	104	1169162240	60	61419
2026-01-01 19:39:04.76	305.19	0.07	-49.4	-64.6	3.6	1.51e+00	0	39	104	1169162240	60	61539

#Closed at: 2026-01-01 19:39:06
#Recorded file [1169 MB]: D:/lorett/data/35029_260102_072639.dat