passes_logs/2026/01/01/R4.6S_Anadyr/R4.6S_Anadyr__20260101_144418_AQUA_rec.log

#Pass ID: 20260101_144418_AQUA
#Satellite: AQUA
#Configuration: AQUA
#almurnet v.1.7.20251203
#Start time: 2026-01-01 14:44:21

#Version: 2.2.20231116
#Station: R4.6S_Anadyr
#Location: 177.4865 lon 64.73178 lat
#TLE: 1 27424U 02022A   25364.96158944  .00001951  00000+0  40088-3 0  9999
#TLE: 2 27424  98.4061 326.1390 0001916  95.3188 305.7939 14.61780362258698

#Time	Az	El	Level	Level2	SNR	BER	BlckErr	Temp	State	Recorded	gain1	gain2
2026-01-01 14:44:21.26	20.36	0.17	-49.2	-65.6	3.3	3.02e+01	0	37	0	0	60	73265
2026-01-01 14:44:24.28	20.55	0.34	-49.2	-67.2	3.5	3.02e+01	0	37	104	0	60	87783
2026-01-01 14:44:27.31	20.74	0.51	-49.1	-67.0	3.5	3.02e+01	0	37	104	0	60	86429
2026-01-01 14:44:30.34	20.94	0.68	-48.9	-66.7	3.5	3.02e+01	0	37	104	0	60	83339
2026-01-01 14:44:33.38	21.13	0.85	-48.4	-66.2	3.5	3.02e+01	0	37	104	0	60	78688
2026-01-01 14:44:36.40	21.33	1.02	-47.7	-65.5	3.5	3.02e+01	0	37	104	0	60	72724
2026-01-01 14:44:39.43	21.54	1.19	-47.6	-65.5	3.5	3.02e+01	0	37	104	0	60	72671
2026-01-01 14:44:42.46	21.74	1.37	-47.6	-65.4	3.5	3.02e+01	0	37	104	0	60	72035
2026-01-01 14:44:45.49	21.95	1.54	-47.7	-65.6	3.5	3.02e+01	0	37	104	0	60	73011
2026-01-01 14:44:48.52	22.16	1.72	-47.6	-65.5	3.5	3.02e+01	0	37	104	0	60	72861
2026-01-01 14:44:51.55	22.37	1.89	-47.6	-65.3	3.5	3.02e+01	0	37	104	0	60	70951
2026-01-01 14:44:54.58	22.58	2.07	-47.6	-65.4	3.5	3.02e+01	0	37	104	0	60	71840
2026-01-01 14:44:57.61	22.80	2.25	-47.7	-65.6	3.5	3.02e+01	0	37	104	0	60	73288
2026-01-01 14:45:00.64	23.02	2.43	-47.6	-65.3	3.5	3.02e+01	0	38	104	0	60	70942
2026-01-01 14:45:03.67	23.24	2.60	-47.6	-65.2	3.5	3.02e+01	0	37	104	0	60	69883
2026-01-01 14:45:06.70	23.47	2.79	-45.5	-58.6	3.4	3.02e+01	0	37	104	0	60	32852
2026-01-01 14:45:09.73	23.70	2.97	-40.6	-51.4	3.4	3.02e+01	0	37	104	0	56	18057
2026-01-01 14:45:12.76	23.93	3.15	-40.0	-50.6	4.0	3.02e+01	0	37	104	0	54	18322
2026-01-01 14:45:15.79	24.16	3.33	-44.1	-56.0	3.9	3.02e+01	0	37	104	0	60	24203
2026-01-01 14:45:18.82	24.40	3.52	-47.6	-65.2	3.5	3.02e+01	0	37	104	0	60	70162
2026-01-01 14:45:21.85	24.64	3.70	-40.9	-51.8	3.5	3.02e+01	0	37	104	0	58	16712
2026-01-01 14:45:24.87	24.88	3.89	-40.1	-50.7	3.5	3.02e+01	0	37	104	0	54	18732
2026-01-01 14:45:27.91	25.13	4.08	-47.6	-65.3	3.5	3.02e+01	0	37	104	0	60	70463
2026-01-01 14:45:30.93	25.38	4.27	-40.3	-50.9	3.5	3.02e+01	0	37	104	0	56	17053
2026-01-01 14:45:33.96	25.63	4.46	-39.7	-50.2	3.5	3.02e+01	0	38	104	0	54	17653
2026-01-01 14:45:36.99	25.89	4.65	-47.8	-64.8	3.5	3.02e+01	0	37	104	0	60	66845
2026-01-01 14:45:40.01	26.15	4.84	-42.9	-54.0	3.5	3.02e+01	0	38	104	0	60	19333
2026-01-01 14:45:43.05	26.42	5.03	-43.6	-55.2	3.5	3.02e+01	0	37	104	0	60	22022
2026-01-01 14:45:46.07	26.68	5.23	-47.8	-64.7	3.5	3.02e+01	0	38	104	0	60	66449
2026-01-01 14:45:49.11	26.95	5.42	-40.0	-50.6	3.5	3.02e+01	0	38	104	0	56	16375
2026-01-01 14:45:52.13	27.23	5.62	-39.4	-50.0	3.5	3.02e+01	0	38	104	0	54	17112
2026-01-01 14:45:55.16	27.51	5.82	-47.9	-64.7	3.5	3.02e+01	0	38	104	0	60	65798
2026-01-01 14:45:58.19	27.79	6.02	-39.8	-50.4	3.5	3.02e+01	0	37	104	0	54	18003
2026-01-01 14:46:01.22	28.08	6.22	-39.9	-50.5	3.5	3.02e+01	0	37	104	0	54	18180
2026-01-01 14:46:04.25	28.37	6.42	-47.8	-64.6	3.5	3.02e+01	0	38	104	0	60	65063
2026-01-01 14:46:07.28	28.66	6.62	-39.9	-50.6	3.5	3.02e+01	0	37	104	0	56	16334
2026-01-01 14:46:10.31	28.96	6.83	-38.9	-49.4	3.5	3.02e+01	0	38	104	0	54	16029
2026-01-01 14:46:13.33	29.27	7.03	-48.1	-65.2	3.5	3.02e+01	0	38	104	0	60	69806
2026-01-01 14:46:16.36	29.58	7.24	-39.5	-50.0	3.5	3.02e+01	0	38	104	0	54	17286
2026-01-01 14:46:19.39	29.89	7.44	-39.4	-49.9	3.5	3.02e+01	0	38	104	0	54	16994
2026-01-01 14:46:22.42	30.21	7.65	-48.2	-65.4	3.5	3.02e+01	0	38	104	0	60	71336
2026-01-01 14:46:25.45	30.53	7.86	-39.9	-50.4	3.5	3.02e+01	0	38	104	0	54	18006
2026-01-01 14:46:28.48	30.86	8.07	-38.0	-48.3	3.6	3.02e+01	0	38	104	0	52	15926
2026-01-01 14:46:31.51	31.19	8.29	-48.0	-65.5	3.5	3.02e+01	0	38	104	0	60	72276
2026-01-01 14:46:34.54	31.53	8.50	-43.2	-54.5	3.5	3.02e+01	0	38	104	0	60	20316
2026-01-01 14:46:37.57	31.87	8.72	-40.6	-51.1	3.5	3.02e+01	0	38	104	0	58	15580
2026-01-01 14:46:40.60	32.22	8.93	-42.3	-53.4	3.6	3.02e+01	0	38	104	0	60	18003
2026-01-01 14:46:43.62	32.57	9.15	-39.5	-49.9	3.5	3.02e+01	0	38	104	0	52	19150
2026-01-01 14:46:46.65	32.93	9.37	-47.5	-64.3	3.5	3.02e+01	0	38	104	0	60	63094
2026-01-01 14:46:49.68	33.29	9.59	-45.6	-58.5	3.5	3.02e+01	0	38	104	0	60	32342
2026-01-01 14:46:52.71	33.66	9.81	-39.3	-49.8	3.5	3.02e+01	0	38	104	0	54	16750
2026-01-01 14:46:55.74	34.04	10.03	-39.4	-49.9	3.6	3.02e+01	0	38	104	0	50	21392
2026-01-01 14:46:58.77	34.42	10.25	-46.8	-60.7	3.5	3.02e+01	0	38	104	0	60	41566
2026-01-01 14:47:01.80	34.81	10.48	-43.3	-54.4	3.5	3.02e+01	0	38	104	0	60	20278
2026-01-01 14:47:04.82	35.20	10.70	-38.8	-49.2	3.5	3.02e+01	0	38	104	0	54	15699
2026-01-01 14:47:07.85	35.60	10.93	-39.3	-49.7	3.5	3.02e+01	0	38	104	0	54	16663
2026-01-01 14:47:10.88	36.01	11.16	-38.6	-49.0	3.5	3.02e+01	0	38	104	0	52	17161
2026-01-01 14:47:13.91	36.43	11.39	-47.7	-63.7	3.5	3.02e+01	0	38	104	0	60	58784
2026-01-01 14:47:16.94	36.85	11.62	-44.5	-56.3	3.5	3.02e+01	0	38	104	0	60	25206
2026-01-01 14:47:19.96	37.27	11.85	-39.0	-49.5	3.5	3.02e+01	0	38	104	0	52	18164
2026-01-01 14:47:22.99	37.71	12.08	-42.0	-53.1	3.5	3.02e+01	0	38	104	0	56	21993
2026-01-01 14:47:26.02	38.15	12.32	-44.5	-56.4	3.5	3.02e+01	0	38	104	0	60	25300
2026-01-01 14:47:29.05	38.60	12.55	-43.2	-54.4	3.6	3.02e+01	0	38	104	0	60	20198
2026-01-01 14:47:32.08	39.06	12.79	-47.7	-62.7	3.5	3.02e+01	0	38	104	0	60	52534
2026-01-01 14:47:35.11	39.52	13.03	-37.9	-48.1	3.5	3.02e+01	0	38	104	0	52	15579
2026-01-01 14:47:38.14	40.00	13.26	-38.3	-48.7	3.5	3.02e+01	0	38	104	0	50	18651
2026-01-01 14:47:41.17	40.48	13.50	-48.0	-63.4	3.5	3.02e+01	0	38	104	0	60	56854
2026-01-01 14:47:44.19	40.96	13.74	-44.4	-56.0	3.5	3.02e+01	0	38	104	0	60	24235
2026-01-01 14:47:47.22	41.46	13.98	-39.0	-49.4	3.5	3.02e+01	0	38	104	0	52	18019
2026-01-01 14:47:50.25	41.97	14.22	-42.7	-53.8	3.5	3.02e+01	0	38	104	0	60	18779
2026-01-01 14:47:53.28	42.48	14.47	-41.3	-52.1	3.5	3.02e+01	0	38	104	0	60	15483
2026-01-01 14:47:56.31	43.00	14.71	-41.6	-52.7	3.5	3.02e+01	0	38	104	0	58	18641
2026-01-01 14:47:59.34	43.54	14.95	-43.4	-55.1	3.5	3.02e+01	0	38	104	0	60	22006
2026-01-01 14:48:02.37	44.08	15.20	-41.8	-53.3	3.5	3.02e+01	0	38	104	0	60	17719
2026-01-01 14:48:05.40	44.63	15.44	-39.5	-49.9	3.6	3.02e+01	0	38	104	0	54	17027
2026-01-01 14:48:08.43	45.19	15.69	-44.8	-56.6	3.5	3.02e+01	0	38	104	0	60	25991
2026-01-01 14:48:11.46	45.76	15.93	-38.8	-49.1	3.5	3.02e+01	0	38	104	0	58	12379
2026-01-01 14:48:14.49	46.34	16.18	-38.9	-49.4	3.5	3.02e+01	0	38	104	0	54	16082
2026-01-01 14:48:17.51	46.92	16.42	-36.6	-46.8	3.5	3.02e+01	0	38	104	0	48	16816
2026-01-01 14:48:20.54	47.52	16.66	-36.4	-46.6	3.5	3.02e+01	0	38	104	0	48	16379
2026-01-01 14:48:23.56	48.13	16.91	-36.8	-47.1	3.6	3.02e+01	0	38	104	0	48	17329
2026-01-01 14:48:26.59	48.75	17.15	-37.9	-48.2	3.5	3.02e+01	0	38	104	0	52	15749
2026-01-01 14:48:29.62	49.38	17.40	-37.9	-48.2	3.5	3.02e+01	0	38	104	0	50	17658
2026-01-01 14:48:32.65	50.02	17.64	-39.8	-50.3	3.5	3.02e+01	0	38	104	0	54	17733
2026-01-01 14:48:35.67	50.67	17.88	-36.0	-46.2	3.5	3.02e+01	0	38	104	0	48	15644
2026-01-01 14:48:38.70	51.33	18.13	-38.7	-49.0	3.5	3.02e+01	0	38	104	0	48	21566
2026-01-01 14:48:41.73	52.01	18.37	-38.4	-48.8	3.5	3.02e+01	0	38	104	0	52	16756
2026-01-01 14:48:44.76	52.69	18.61	-36.5	-46.7	3.5	3.02e+01	0	38	104	0	48	16678
2026-01-01 14:48:47.79	53.39	18.85	-43.2	-54.4	3.5	3.02e+01	0	38	104	0	52	32174
2026-01-01 14:48:50.82	54.10	19.08	-38.1	-48.5	3.5	3.02e+01	0	38	104	0	50	18132
2026-01-01 14:48:53.85	54.81	19.32	-37.8	-48.1	3.6	3.02e+01	0	38	104	0	50	17384
2026-01-01 14:48:56.87	55.54	19.55	-46.5	-61.1	3.5	3.02e+01	0	38	104	0	60	43768
2026-01-01 14:48:59.90	56.28	19.78	-39.3	-50.8	3.5	3.02e+01	0	38	104	0	52	21143
2026-01-01 14:49:02.93	57.04	20.01	-37.8	-48.2	3.5	3.02e+01	0	38	104	0	52	15597
2026-01-01 14:49:05.96	57.80	20.24	-47.7	-62.0	3.5	3.02e+01	0	38	104	0	60	48394
2026-01-01 14:49:08.99	58.58	20.47	-39.1	-49.5	3.5	3.02e+01	0	38	104	0	54	16203
2026-01-01 14:49:12.02	59.37	20.69	-37.5	-48.1	3.5	3.02e+01	0	38	104	0	50	17377
2026-01-01 14:49:15.05	60.17	20.91	-47.8	-62.4	3.5	3.02e+01	0	38	104	0	60	50491
2026-01-01 14:49:18.07	60.98	21.12	-37.8	-48.1	3.5	3.02e+01	0	38	104	0	50	17293
2026-01-01 14:49:21.10	61.80	21.33	-37.3	-47.6	3.5	3.02e+01	0	38	104	0	48	18426
2026-01-01 14:49:24.13	62.64	21.54	-48.0	-62.9	3.5	3.02e+01	0	38	104	0	60	53812
2026-01-01 14:49:27.16	63.49	21.74	-38.0	-48.3	3.5	3.02e+01	0	38	104	0	52	15787
2026-01-01 14:49:30.19	64.35	21.94	-36.8	-47.2	3.5	3.02e+01	0	38	104	0	48	17521
2026-01-01 14:49:33.22	65.22	22.14	-46.2	-63.2	3.5	3.02e+01	0	38	104	0	60	55364
2026-01-01 14:49:36.25	66.10	22.32	-39.1	-49.6	3.5	3.02e+01	0	38	104	0	54	16423
2026-01-01 14:49:39.27	66.99	22.51	-36.8	-47.1	3.5	3.02e+01	0	38	104	0	48	17468
2026-01-01 14:49:42.30	67.89	22.69	-47.6	-62.6	3.5	3.02e+01	0	38	104	0	60	51756
2026-01-01 14:49:45.33	68.80	22.86	-36.5	-47.0	3.5	3.02e+01	0	38	104	0	48	17099
2026-01-01 14:49:48.36	69.73	23.03	-36.8	-47.2	3.5	3.02e+01	0	38	104	0	48	17528
2026-01-01 14:49:51.39	70.66	23.19	-47.4	-62.1	3.5	3.02e+01	0	38	104	0	60	48960
2026-01-01 14:49:54.42	71.61	23.34	-38.1	-48.3	3.5	3.02e+01	0	38	104	0	52	15910
2026-01-01 14:49:57.45	72.56	23.49	-37.3	-47.6	3.5	3.02e+01	0	38	104	0	48	18334
2026-01-01 14:50:00.47	73.52	23.63	-47.4	-61.7	3.5	3.02e+01	0	38	104	0	60	46680
2026-01-01 14:50:03.50	74.49	23.76	-38.7	-49.3	3.5	3.02e+01	0	38	104	0	52	17810
2026-01-01 14:50:06.53	75.47	23.89	-40.0	-50.5	3.5	3.02e+01	0	38	104	0	48	25716
2026-01-01 14:50:09.56	76.46	24.01	-45.8	-58.2	3.5	3.02e+01	0	38	104	0	60	31224
2026-01-01 14:50:12.59	77.45	24.12	-39.3	-49.6	3.5	3.02e+01	0	38	104	0	52	18470
2026-01-01 14:50:15.62	78.46	24.22	-41.2	-51.9	3.5	3.02e+01	0	38	104	0	50	26974
2026-01-01 14:50:18.65	79.47	24.31	-44.9	-56.7	3.5	3.02e+01	0	38	104	0	60	26178
2026-01-01 14:50:21.68	80.48	24.39	-38.2	-48.6	3.5	3.02e+01	0	38	104	0	52	16379
2026-01-01 14:50:24.71	81.50	24.47	-45.6	-57.9	3.6	3.02e+01	0	38	104	0	58	33983
2026-01-01 14:50:27.74	82.52	24.54	-42.3	-53.2	3.5	3.02e+01	0	38	104	0	60	17533
2026-01-01 14:50:30.77	83.55	24.60	-37.1	-47.4	3.5	3.02e+01	0	38	104	0	50	16015
2026-01-01 14:50:33.79	84.58	24.64	-47.0	-60.3	3.4	3.02e+01	0	38	104	0	60	40065
2026-01-01 14:50:36.82	85.62	24.68	-41.7	-52.5	3.5	3.02e+01	0	38	104	0	60	16191
2026-01-01 14:50:39.85	86.66	24.71	-37.4	-47.7	3.5	3.02e+01	0	38	104	0	50	16565
2026-01-01 14:50:42.88	87.70	24.73	-48.6	-66.0	3.5	3.02e+01	0	38	104	0	60	76646
2026-01-01 14:50:45.90	88.74	24.75	-40.0	-50.5	3.5	3.02e+01	0	38	104	0	56	16266
2026-01-01 14:50:48.93	89.78	24.75	-38.2	-48.6	3.5	3.02e+01	0	38	104	0	52	16421
2026-01-01 14:50:51.97	90.82	24.74	-48.4	-66.2	3.5	3.02e+01	0	38	104	0	60	78271
2026-01-01 14:50:55.00	91.86	24.72	-39.8	-50.2	3.5	3.02e+01	0	38	104	0	56	15683
2026-01-01 14:50:58.03	92.90	24.69	-38.0	-48.5	3.5	3.02e+01	0	38	104	0	52	16194
2026-01-01 14:51:01.06	93.94	24.66	-47.8	-64.9	3.5	3.02e+01	0	38	104	0	60	67518
2026-01-01 14:51:04.09	94.97	24.61	-39.3	-49.7	3.5	3.02e+01	0	38	104	0	54	16580
2026-01-01 14:51:07.12	96.01	24.56	-36.5	-46.6	3.5	3.02e+01	0	38	104	0	48	16417
2026-01-01 14:51:10.14	97.03	24.49	-48.4	-64.7	3.5	3.02e+01	0	38	104	0	60	65960
2026-01-01 14:51:13.17	98.05	24.42	-41.3	-52.2	3.5	3.02e+01	0	38	104	0	58	17518
2026-01-01 14:51:16.20	99.07	24.34	-38.7	-49.0	3.5	3.02e+01	0	38	104	0	52	17109
2026-01-01 14:51:19.23	100.08	24.25	-48.3	-65.0	3.5	3.02e+01	0	38	104	0	60	68465
2026-01-01 14:51:22.26	101.09	24.15	-39.2	-49.4	3.5	3.02e+01	0	38	104	0	52	18075
2026-01-01 14:51:25.29	102.09	24.04	-38.6	-49.0	3.5	3.02e+01	0	38	104	0	52	17162
2026-01-01 14:51:28.32	103.08	23.93	-48.7	-61.2	3.9	3.02e+01	0	38	104	0	60	44411
2026-01-01 14:51:31.35	104.07	23.80	-38.1	-39.5	26.5	3.02e+01	60	38	0	3670016	52	5772
2026-01-01 14:51:34.38	105.04	23.67	-35.8	-37.1	28.6	3.02e+01	58	38	0	9437184	46	6175
2026-01-01 14:51:37.41	106.01	23.54	-35.6	-36.9	28.9	3.02e+01	45	38	0	15204352	46	6002
2026-01-01 14:51:40.44	106.97	23.39	-35.5	-36.7	29.0	3.02e+01	61	38	0	20971520	46	5877
2026-01-01 14:51:43.47	107.92	23.24	-35.5	-36.7	28.9	3.02e+01	59	38	0	26738688	46	5878
2026-01-01 14:51:46.50	108.86	23.08	-35.2	-36.3	29.3	3.02e+01	60	38	0	32505856	46	5657
2026-01-01 14:51:49.53	109.79	22.91	-35.3	-36.5	29.2	3.02e+01	57	38	0	38273024	46	5770
2026-01-01 14:51:52.56	110.71	22.74	-35.2	-36.4	29.2	3.02e+01	57	38	0	43515904	46	5719
2026-01-01 14:51:55.59	111.62	22.56	-35.1	-36.3	29.5	3.02e+01	44	38	0	49283072	46	5601
2026-01-01 14:51:58.62	112.52	22.38	-35.2	-36.4	29.3	3.02e+01	47	38	0	55050240	46	5716
2026-01-01 14:52:01.65	113.41	22.19	-35.1	-36.3	29.3	3.02e+01	57	38	0	60817408	46	5640
2026-01-01 14:52:04.68	114.29	22.00	-35.1	-36.3	29.4	3.02e+01	59	38	0	66584576	46	5621
2026-01-01 14:52:07.71	115.15	21.80	-35.2	-36.4	29.2	3.02e+01	61	38	0	71827456	46	5667
2026-01-01 14:52:10.74	116.01	21.60	-35.0	-36.2	29.4	3.02e+01	57	38	0	77594624	46	5544
2026-01-01 14:52:13.77	116.85	21.39	-34.8	-36.0	29.5	3.02e+01	60	38	0	83361792	44	6124
2026-01-01 14:52:16.80	117.68	21.18	-35.1	-36.3	29.3	3.02e+01	58	38	0	89128960	44	6295
2026-01-01 14:52:19.83	118.50	20.96	-34.8	-35.9	29.4	3.02e+01	59	38	0	94896128	44	6060
2026-01-01 14:52:22.85	119.30	20.74	-34.9	-36.1	29.4	3.02e+01	46	38	0	100663296	44	6205
2026-01-01 14:52:25.88	120.10	20.52	-34.9	-36.1	29.5	3.02e+01	60	38	0	106430464	44	6135
2026-01-01 14:52:28.91	120.88	20.30	-34.8	-36.0	29.5	3.02e+01	60	38	0	111673344	44	6093
2026-01-01 14:52:31.94	121.66	20.07	-34.9	-36.1	29.4	3.02e+01	60	38	0	117440512	44	6194
2026-01-01 14:52:34.97	122.42	19.84	-34.7	-35.9	29.6	3.02e+01	58	38	0	123207680	44	6051
2026-01-01 14:52:37.99	123.16	19.61	-34.9	-36.0	29.5	3.02e+01	59	38	0	128974848	44	6129
2026-01-01 14:52:41.02	123.90	19.37	-34.8	-36.0	29.6	3.02e+01	61	38	0	134742016	44	6076
2026-01-01 14:52:44.05	124.63	19.14	-34.6	-35.8	29.6	3.02e+01	53	38	0	139984896	44	5979
2026-01-01 14:52:47.08	125.34	18.90	-34.8	-36.0	29.5	3.02e+01	59	38	0	145752064	44	6092
2026-01-01 14:52:50.11	126.04	18.66	-34.8	-36.0	29.4	3.02e+01	58	38	0	151519232	44	6110
2026-01-01 14:52:53.14	126.73	18.42	-34.6	-35.8	29.7	3.02e+01	61	38	0	157286400	44	5982
2026-01-01 14:52:56.17	127.41	18.17	-34.7	-35.9	29.6	3.02e+01	59	38	0	163053568	44	6050
2026-01-01 14:52:59.20	128.08	17.93	-34.7	-35.9	29.6	3.02e+01	52	38	0	168820736	44	6020
2026-01-01 14:53:02.23	128.74	17.68	-34.8	-36.0	29.4	3.02e+01	46	38	0	174587904	44	6092
2026-01-01 14:53:05.26	129.39	17.44	-34.6	-35.8	29.7	3.02e+01	45	38	0	179830784	44	5964
2026-01-01 14:53:08.29	130.02	17.19	-34.7	-35.9	29.6	3.02e+01	59	38	0	185597952	44	6001
2026-01-01 14:53:11.32	130.65	16.95	-34.6	-35.8	29.6	3.02e+01	59	38	0	191365120	44	5957
2026-01-01 14:53:14.35	131.26	16.70	-34.8	-36.0	29.5	3.02e+01	61	38	0	197132288	44	6079
2026-01-01 14:53:17.38	131.87	16.45	-34.6	-35.8	29.6	3.02e+01	61	38	0	202899456	44	5973
2026-01-01 14:53:20.41	132.46	16.21	-34.6	-35.8	29.7	3.02e+01	60	38	0	208142336	44	5959
2026-01-01 14:53:23.44	133.05	15.96	-34.8	-36.0	29.5	3.02e+01	59	38	0	213909504	44	6065
2026-01-01 14:53:26.47	133.62	15.71	-34.8	-36.0	29.4	3.02e+01	46	38	0	219676672	44	6111
2026-01-01 14:53:29.50	134.19	15.47	-35.2	-36.5	29.1	3.02e+01	47	38	0	225443840	44	6447
2026-01-01 14:53:32.53	134.74	15.22	-34.8	-36.0	29.3	3.02e+01	58	38	0	231211008	44	6121
2026-01-01 14:53:35.56	135.29	14.97	-34.8	-36.0	29.3	3.02e+01	60	38	0	236978176	44	6127
2026-01-01 14:53:38.59	135.83	14.73	-34.8	-36.0	29.4	3.02e+01	60	38	0	242745344	44	6122
2026-01-01 14:53:41.62	136.35	14.48	-34.7	-35.9	29.5	3.02e+01	60	38	0	247988224	44	6026
2026-01-01 14:53:44.65	136.87	14.24	-34.8	-36.0	29.4	3.02e+01	62	38	0	253755392	44	6117
2026-01-01 14:53:47.68	137.38	14.00	-34.9	-36.1	29.3	3.02e+01	61	38	0	259522560	44	6180
2026-01-01 14:53:50.71	137.88	13.75	-35.0	-36.2	29.2	3.02e+01	47	38	0	265289728	44	6222
2026-01-01 14:53:53.73	138.37	13.51	-34.8	-36.0	29.4	3.02e+01	58	38	0	271056896	44	6127
2026-01-01 14:53:56.76	138.86	13.27	-35.1	-36.3	29.2	3.02e+01	56	38	0	276299776	44	6314
2026-01-01 14:53:59.79	139.33	13.03	-35.4	-36.6	28.8	3.02e+01	59	38	0	282066944	44	6535
2026-01-01 14:54:02.82	139.80	12.79	-35.9	-37.1	28.2	3.02e+01	61	38	0	287834112	44	6962
2026-01-01 14:54:05.85	140.26	12.55	-36.3	-37.6	27.6	3.02e+01	60	38	0	293601280	46	6559
2026-01-01 14:54:08.87	140.72	12.32	-36.9	-38.3	26.8	3.02e+01	43	38	0	299368448	46	7096
2026-01-01 14:54:11.90	141.16	12.08	-37.5	-39.0	26.1	3.02e+01	46	38	0	305135616	48	6824
2026-01-01 14:54:14.93	141.60	11.85	-37.5	-39.0	26.0	3.02e+01	61	38	0	310902784	48	6847
2026-01-01 14:54:17.96	142.03	11.61	-37.2	-38.7	26.6	3.02e+01	58	38	0	316145664	48	6575
2026-01-01 14:54:20.99	142.45	11.38	-37.0	-38.4	26.9	3.02e+01	57	38	0	321912832	48	6375
2026-01-01 14:54:24.02	142.87	11.15	-36.5	-37.9	27.3	3.02e+01	59	38	0	327680000	48	6018
2026-01-01 14:54:27.05	143.28	10.92	-36.5	-37.8	27.3	3.02e+01	62	38	0	333447168	48	5987
2026-01-01 14:54:30.07	143.68	10.69	-36.2	-37.5	27.8	3.02e+01	62	38	0	339214336	48	5743
2026-01-01 14:54:33.10	144.08	10.46	-36.3	-37.6	27.7	3.02e+01	52	38	0	344457216	48	5819
2026-01-01 14:54:36.13	144.47	10.23	-36.1	-37.3	27.9	3.02e+01	46	38	0	350224384	48	5655
2026-01-01 14:54:39.16	144.86	10.01	-36.1	-37.4	27.8	3.02e+01	61	38	0	355991552	48	5702
2026-01-01 14:54:42.19	145.23	9.78	-36.1	-37.4	27.9	3.02e+01	57	38	0	361758720	48	5687
2026-01-01 14:54:45.22	145.61	9.56	-36.0	-37.3	28.0	3.02e+01	61	38	0	367525888	48	5628
2026-01-01 14:54:48.25	145.97	9.34	-36.0	-37.3	28.1	3.02e+01	61	38	0	373293056	46	6305
2026-01-01 14:54:51.28	146.33	9.12	-36.0	-37.3	28.1	3.02e+01	55	38	0	379060224	46	6316
2026-01-01 14:54:54.30	146.69	8.90	-36.0	-37.3	28.1	3.02e+01	57	38	0	384303104	46	6299
2026-01-01 14:54:57.33	147.04	8.68	-36.0	-37.3	28.1	3.02e+01	40	38	0	390070272	46	6302
2026-01-01 14:55:00.36	147.38	8.46	-36.1	-37.4	28.0	3.02e+01	61	38	0	395837440	46	6409
2026-01-01 14:55:03.39	147.72	8.25	-36.1	-37.4	28.0	3.02e+01	61	38	0	401604608	46	6358
2026-01-01 14:55:06.42	148.05	8.03	-36.2	-37.5	27.8	3.02e+01	60	38	0	407371776	46	6468
2026-01-01 14:55:09.45	148.38	7.82	-36.3	-37.6	27.8	3.02e+01	60	38	0	412614656	46	6501
2026-01-01 14:55:12.48	148.70	7.61	-36.4	-37.7	27.7	3.02e+01	60	38	0	418381824	46	6622
2026-01-01 14:55:15.52	149.02	7.40	-36.3	-37.6	27.8	3.02e+01	53	38	0	424148992	46	6522
2026-01-01 14:55:18.55	149.34	7.19	-36.3	-37.6	27.6	3.02e+01	51	38	0	429916160	46	6513
2026-01-01 14:55:21.58	149.65	6.98	-36.4	-37.7	27.5	3.02e+01	59	38	0	435683328	46	6635
2026-01-01 14:55:24.61	149.95	6.77	-36.5	-37.8	27.4	3.02e+01	60	38	0	441450496	46	6726
2026-01-01 14:55:27.63	150.25	6.57	-36.5	-37.8	27.4	3.02e+01	57	38	0	447217664	46	6699
2026-01-01 14:55:30.66	150.55	6.36	-36.5	-37.9	27.3	3.02e+01	60	38	0	452460544	46	6735
2026-01-01 14:55:33.69	150.84	6.16	-36.7	-38.0	27.3	3.02e+01	58	38	0	458227712	46	6873
2026-01-01 14:55:36.72	151.13	5.96	-36.7	-38.1	27.2	3.02e+01	57	38	0	463994880	46	6896
2026-01-01 14:55:39.75	151.41	5.76	-36.8	-38.1	26.9	3.02e+01	44	38	0	469762048	48	6196
2026-01-01 14:55:42.78	151.69	5.56	-37.0	-38.3	26.9	3.02e+01	47	38	0	475529216	48	6337
2026-01-01 14:55:45.81	151.96	5.36	-37.2	-38.6	26.5	3.02e+01	60	38	0	480772096	48	6515
2026-01-01 14:55:48.84	152.24	5.16	-37.6	-39.1	26.0	3.02e+01	62	38	0	486539264	48	6890
2026-01-01 14:55:51.87	152.50	4.96	-37.6	-39.0	25.9	3.02e+01	60	38	0	492306432	48	6851
2026-01-01 14:55:54.90	152.77	4.77	-38.2	-39.8	25.2	3.02e+01	63	38	0	498073600	50	6668
2026-01-01 14:55:57.93	153.03	4.58	-38.9	-40.6	24.4	3.02e+01	56	38	0	503840768	52	6512
2026-01-01 14:56:00.96	153.28	4.38	-39.6	-41.4	23.3	3.02e+01	46	38	0	509607936	52	7193
2026-01-01 14:56:03.99	153.54	4.19	-39.6	-41.4	23.1	3.02e+01	53	38	0	515375104	54	6369
2026-01-01 14:56:07.02	153.79	4.00	-40.5	-42.6	21.6	3.02e+01	60	38	0	520617984	54	7321
2026-01-01 14:56:10.04	154.03	3.81	-40.8	-42.9	21.2	3.02e+01	61	38	0	526385152	54	7632
2026-01-01 14:56:13.07	154.28	3.62	-41.2	-43.8	20.5	3.02e+01	62	38	0	532152320	56	7500
2026-01-01 14:56:16.10	154.52	3.44	-41.5	-44.6	19.6	3.02e+01	62	38	0	537919488	56	8218
2026-01-01 14:56:19.13	154.75	3.25	-41.1	-44.1	19.9	3.02e+01	56	38	0	543686656	56	7791
2026-01-01 14:56:22.16	154.99	3.06	-41.7	-45.3	19.2	3.02e+01	57	38	0	548929536	56	8871
2026-01-01 14:56:25.19	155.22	2.88	-48.3	-66.3	3.5	3.02e+01	0	38	104	551550976	60	79079
2026-01-01 14:56:28.22	155.44	2.70	-49.0	-66.9	3.5	3.02e+01	0	38	104	551550976	60	84739
2026-01-01 14:56:31.25	155.67	2.51	-49.0	-67.1	3.5	3.02e+01	0	38	104	551550976	60	87342
2026-01-01 14:56:34.28	155.89	2.33	-49.1	-67.1	3.5	3.02e+01	0	38	104	551550976	60	87364
2026-01-01 14:56:37.31	156.11	2.15	-49.2	-67.0	3.5	3.02e+01	0	38	104	551550976	60	86378
2026-01-01 14:56:40.35	156.33	1.97	-49.2	-67.1	3.5	3.02e+01	0	38	104	551550976	60	86988
2026-01-01 14:56:43.37	156.54	1.79	-49.2	-67.0	3.5	3.02e+01	0	38	104	551550976	60	86600
2026-01-01 14:56:46.40	156.75	1.62	-49.2	-67.0	3.5	3.02e+01	0	38	104	551550976	60	86193
2026-01-01 14:56:49.43	156.96	1.44	-49.2	-67.0	3.5	3.02e+01	0	38	104	551550976	60	86649
2026-01-01 14:56:52.46	157.17	1.26	-49.2	-67.0	3.5	3.02e+01	0	38	104	551550976	60	86556
2026-01-01 14:56:55.49	157.37	1.09	-49.2	-67.0	3.5	3.02e+01	0	38	104	551550976	60	86525
2026-01-01 14:56:58.52	157.57	0.92	-49.2	-67.0	3.5	3.02e+01	0	38	104	551550976	60	86290
2026-01-01 14:57:01.55	157.77	0.74	-49.2	-67.0	3.5	3.02e+01	0	38	104	551550976	60	86406
2026-01-01 14:57:04.58	157.96	0.57	-49.2	-67.0	3.5	3.02e+01	0	38	104	551550976	60	86073
2026-01-01 14:57:07.60	158.16	0.40	-49.2	-67.0	3.5	3.02e+01	0	38	104	551550976	60	86329
2026-01-01 14:57:10.63	158.35	0.23	-49.2	-67.1	3.5	3.02e+01	0	38	104	551550976	60	86712
2026-01-01 14:57:13.66	158.54	0.06	-49.2	-67.0	3.5	3.02e+01	0	38	104	551550976	60	86390
2026-01-01 14:57:16.69	158.72	-0.11	-49.2	-67.1	3.5	3.02e+01	0	38	104	551550976	60	86735

#Closed at: 2026-01-01 14:57:17
#Recorded file [551 MB]: D:/lorett/data/35029_260102_024421.dat